passes_logs/2026/01/30/R3.2S_Murmansk/R3.2S_Murmansk__20260130_105845_NOAA_21_JPSS-2_rec.log

#Pass ID: 20260130_105845_NOAA 21 (JPSS-2)
#Satellite: NOAA 21 (JPSS-2)
#Configuration: NOAA-21
#almurnet v.1.7.20251203
#Start time: 2026-01-30 10:58:47

#Version: 2.2.20231116
#Station: R3.2S_Murmansk
#Location: 33.079688 lon 68.888172 lat
#TLE: 1 54234U 22150A   26029.46216196  .00000141  00000+0  87503-4 0  9994
#TLE: 2 54234  98.7512 330.1880 0000955 196.3413 163.7732 14.19540905166865

#Time	Az	El	Level	Level2	SNR	BER	BlckErr	Temp	State	Recorded	gain1	gain2
2026-01-30 10:58:47.52	187.68	2.10	-54.6	-67.4	3.8	1.49e+00	0	41	0	0	79	16908
2026-01-30 10:58:51.53	187.85	2.35	-54.6	-67.4	3.8	1.49e+00	0	41	104	0	79	16948
2026-01-30 10:58:55.56	188.04	2.60	-54.5	-67.2	3.8	1.49e+00	0	41	104	0	79	16634
2026-01-30 10:58:59.58	188.22	2.85	-54.4	-67.1	3.8	1.49e+00	0	41	104	0	79	16480
2026-01-30 10:59:03.62	188.41	3.10	-54.2	-67.0	3.8	1.49e+00	0	41	104	0	79	16254
2026-01-30 10:59:07.64	188.60	3.36	-54.3	-67.0	3.8	1.49e+00	0	41	104	0	79	16269
2026-01-30 10:59:11.65	188.79	3.61	-54.2	-67.0	3.8	1.49e+00	0	41	104	0	79	16179
2026-01-30 10:59:15.67	188.99	3.87	-54.2	-67.0	3.8	1.49e+00	0	41	104	0	79	16131
2026-01-30 10:59:19.70	189.18	4.14	-54.2	-66.9	3.8	1.49e+00	0	41	104	0	79	16098
2026-01-30 10:59:23.73	189.39	4.40	-54.1	-66.9	3.8	1.49e+00	0	41	104	0	79	16003
2026-01-30 10:59:27.75	189.59	4.67	-54.1	-66.8	3.8	1.49e+00	0	41	104	0	79	15935
2026-01-30 10:59:31.77	189.80	4.93	-54.1	-66.8	3.8	1.49e+00	0	41	104	0	79	15927
2026-01-30 10:59:35.79	190.02	5.20	-54.0	-66.8	3.8	1.49e+00	0	41	104	0	79	15841
2026-01-30 10:59:39.81	190.23	5.48	-54.0	-66.8	3.8	1.49e+00	0	41	104	0	79	15785
2026-01-30 10:59:43.84	190.45	5.75	-54.1	-66.8	3.8	1.49e+00	0	41	104	0	79	15892
2026-01-30 10:59:47.86	190.68	6.03	-54.0	-66.8	3.8	1.49e+00	0	41	104	0	79	15809
2026-01-30 10:59:51.89	190.91	6.31	-54.3	-67.0	3.8	1.49e+00	0	42	104	0	79	16230
2026-01-30 10:59:55.92	191.14	6.60	-54.3	-67.0	3.8	1.49e+00	0	42	104	0	79	16252
2026-01-30 10:59:59.95	191.38	6.89	-54.2	-66.9	3.8	1.49e+00	0	42	104	0	79	16065
2026-01-30 11:00:03.98	191.62	7.18	-54.0	-66.7	3.8	1.49e+00	0	41	104	0	79	15747
2026-01-30 11:00:08.01	191.87	7.47	-53.7	-66.4	3.8	1.49e+00	0	41	104	0	79	15087
2026-01-30 11:00:12.04	192.12	7.76	-52.8	-63.8	3.8	1.49e+00	0	41	104	0	77	12563
2026-01-30 11:00:16.05	192.37	8.06	-45.7	-47.1	17.2	0.00e+00	0	41	0	4194304	61	4601
2026-01-30 11:00:20.08	192.63	8.36	-44.1	-45.2	19.2	0.00e+00	0	41	0	15728640	59	4191
2026-01-30 11:00:24.10	192.90	8.67	-43.8	-44.9	19.6	0.00e+00	0	41	0	28311552	59	4028
2026-01-30 11:00:28.11	193.17	8.98	-43.5	-44.5	20.0	0.00e+00	0	41	0	40894464	58	4092
2026-01-30 11:00:32.13	193.45	9.29	-43.6	-44.6	20.0	0.00e+00	0	41	0	54525952	58	4120
2026-01-30 11:00:36.16	193.73	9.60	-43.2	-44.2	20.4	0.00e+00	0	41	0	66060288	58	3931
2026-01-30 11:00:40.18	194.02	9.92	-43.1	-44.1	20.5	0.00e+00	0	41	0	78643200	58	3880
2026-01-30 11:00:44.22	194.31	10.24	-43.1	-44.0	20.6	0.00e+00	0	41	0	91226112	58	3858
2026-01-30 11:00:48.24	194.61	10.57	-43.1	-44.1	20.5	0.00e+00	0	41	0	103809024	58	3875
2026-01-30 11:00:52.27	194.92	10.90	-42.9	-43.9	20.7	0.00e+00	0	41	0	116391936	57	4013
2026-01-30 11:00:56.30	195.23	11.23	-42.8	-43.7	20.8	0.00e+00	0	41	0	128974848	57	3958
2026-01-30 11:01:00.32	195.55	11.57	-42.5	-43.4	21.2	0.00e+00	0	41	0	141557760	56	4025
2026-01-30 11:01:04.34	195.88	11.91	-42.5	-43.4	21.2	0.00e+00	0	41	0	154140672	56	4027
2026-01-30 11:01:08.37	196.22	12.25	-42.2	-43.1	21.5	0.00e+00	0	41	0	166723584	56	3890
2026-01-30 11:01:12.40	196.56	12.60	-42.1	-43.0	21.5	0.00e+00	0	41	0	179306496	56	3833
2026-01-30 11:01:16.42	196.91	12.95	-42.1	-43.0	21.6	0.00e+00	0	41	0	192937984	56	3835
2026-01-30 11:01:20.46	197.27	13.31	-42.0	-42.9	21.7	0.00e+00	0	41	0	204472320	56	3793
2026-01-30 11:01:24.49	197.63	13.67	-42.1	-43.0	21.6	0.00e+00	0	41	0	217055232	56	3832
2026-01-30 11:01:28.51	198.01	14.04	-42.0	-42.8	21.7	0.00e+00	0	41	0	229638144	56	3778
2026-01-30 11:01:32.54	198.39	14.41	-41.8	-42.6	21.9	0.00e+00	0	41	0	243269632	55	3889
2026-01-30 11:01:36.56	198.79	14.78	-42.0	-42.9	21.7	0.00e+00	0	41	0	254803968	55	4016
2026-01-30 11:01:40.59	199.19	15.16	-41.9	-42.7	21.8	0.00e+00	0	41	0	267386880	55	3949
2026-01-30 11:01:44.61	199.60	15.54	-42.1	-42.9	21.7	0.00e+00	0	41	0	279969792	55	4034
2026-01-30 11:01:48.64	200.03	15.93	-42.1	-42.9	21.7	0.00e+00	0	41	0	292552704	55	4044
2026-01-30 11:01:52.66	200.46	16.32	-42.2	-43.0	21.6	0.00e+00	0	41	0	305135616	55	4083
2026-01-30 11:01:56.69	200.91	16.72	-52.9	-65.2	3.8	1.49e+00	0	41	104	311427072	77	14793
2026-01-30 11:02:00.72	201.36	17.13	-52.9	-63.0	4.0	1.47e+00	0	41	104	311427072	77	11470
2026-01-30 11:02:04.74	201.83	17.53	-44.9	-46.1	18.6	0.00e+00	0	41	0	322961408	61	4120
2026-01-30 11:02:08.77	202.31	17.95	-43.1	-44.0	20.8	0.00e+00	0	41	0	335544320	58	3859
2026-01-30 11:02:12.79	202.81	18.36	-42.6	-43.5	21.3	0.00e+00	0	41	0	348127232	57	3852
2026-01-30 11:02:16.82	203.31	18.79	-42.4	-43.2	21.5	0.00e+00	0	41	0	360710144	56	3950
2026-01-30 11:02:20.84	203.84	19.22	-42.2	-43.0	21.7	0.00e+00	0	41	0	373293056	56	3861
2026-01-30 11:02:24.87	204.37	19.65	-42.1	-42.9	21.8	0.00e+00	0	41	0	385875968	56	3798
2026-01-30 11:02:28.90	204.92	20.09	-41.9	-42.7	21.9	0.00e+00	0	41	0	398458880	55	3942
2026-01-30 11:02:32.92	205.49	20.53	-41.7	-42.6	22.0	0.00e+00	0	41	0	411041792	55	3872
2026-01-30 11:02:36.94	206.07	20.98	-41.7	-42.5	22.1	0.00e+00	0	41	0	423624704	55	3850
2026-01-30 11:02:40.97	206.67	21.44	-41.4	-42.2	22.3	0.00e+00	0	41	0	436207616	54	3943
2026-01-30 11:02:45.00	207.29	21.90	-41.3	-42.1	22.4	0.00e+00	0	41	0	448790528	54	3880
2026-01-30 11:02:49.03	207.92	22.36	-41.2	-42.0	22.5	0.00e+00	0	41	0	461373440	54	3848
2026-01-30 11:02:53.06	208.57	22.83	-41.0	-41.7	22.7	0.00e+00	0	41	0	473956352	53	3957
2026-01-30 11:02:57.08	209.25	23.30	-40.9	-41.7	22.8	0.00e+00	0	41	0	486539264	53	3934
2026-01-30 11:03:01.11	209.94	23.78	-40.8	-41.6	23.0	0.00e+00	0	41	0	499122176	53	3871
2026-01-30 11:03:05.12	210.65	24.26	-40.7	-41.5	23.0	0.00e+00	0	41	0	511705088	53	3838
2026-01-30 11:03:09.15	211.39	24.75	-40.7	-41.4	23.2	0.00e+00	0	41	0	524288000	53	3803
2026-01-30 11:03:13.18	212.14	25.24	-40.7	-41.5	23.1	0.00e+00	0	41	0	536870912	53	3828
2026-01-30 11:03:17.20	212.92	25.74	-41.1	-41.8	22.8	0.00e+00	0	41	0	549453824	53	3990
2026-01-30 11:03:21.23	213.73	26.24	-41.4	-42.2	22.6	0.00e+00	0	41	0	562036736	53	4164
2026-01-30 11:03:25.25	214.56	26.74	-41.7	-42.5	22.3	0.00e+00	0	41	0	574619648	53	4303
2026-01-30 11:03:29.28	215.42	27.25	-42.0	-42.8	22.0	0.00e+00	0	41	0	587202560	54	4228
2026-01-30 11:03:33.30	216.30	27.75	-42.1	-43.0	21.9	0.00e+00	0	41	0	599785472	54	4299
2026-01-30 11:03:37.33	217.21	28.26	-42.1	-42.9	21.9	0.00e+00	0	41	0	612368384	55	4041
2026-01-30 11:03:41.35	218.15	28.77	-41.9	-42.7	22.1	0.00e+00	0	41	0	624951296	55	3953
2026-01-30 11:03:45.38	219.12	29.29	-41.9	-42.7	22.1	0.00e+00	0	41	0	637534208	55	3932
2026-01-30 11:03:49.40	220.12	29.80	-41.6	-42.4	22.3	0.00e+00	0	41	0	650117120	55	3819
2026-01-30 11:03:53.43	221.15	30.31	-41.8	-42.6	22.2	0.00e+00	0	41	0	662700032	55	3886
2026-01-30 11:03:57.46	222.22	30.82	-41.5	-42.3	22.5	0.00e+00	0	41	0	675282944	54	3976
2026-01-30 11:04:01.49	223.32	31.33	-41.7	-42.4	22.3	0.00e+00	0	41	0	687865856	54	4046
2026-01-30 11:04:05.52	224.45	31.84	-41.9	-42.7	22.2	0.00e+00	0	41	0	700448768	54	4156
2026-01-30 11:04:09.55	225.62	32.34	-42.0	-42.9	22.1	0.00e+00	0	41	0	713031680	54	4245
2026-01-30 11:04:13.58	226.82	32.84	-42.1	-42.9	22.0	0.00e+00	0	41	0	725614592	54	4291
2026-01-30 11:04:17.60	228.06	33.33	-42.1	-43.0	22.0	0.00e+00	0	41	0	738197504	54	4294
2026-01-30 11:04:21.62	229.34	33.81	-42.4	-43.2	21.8	0.00e+00	0	41	0	750780416	55	4180
2026-01-30 11:04:25.65	230.65	34.29	-42.6	-43.4	21.6	0.00e+00	0	41	0	763363328	55	4289
2026-01-30 11:04:29.67	232.00	34.76	-43.0	-43.9	21.2	0.00e+00	0	41	0	775946240	56	4258
2026-01-30 11:04:33.70	233.39	35.21	-43.4	-44.4	20.8	0.00e+00	0	41	0	788529152	57	4252
2026-01-30 11:04:37.73	234.82	35.65	-43.3	-44.2	21.0	0.00e+00	0	41	0	801112064	57	4191
2026-01-30 11:04:41.76	236.29	36.08	-43.4	-44.3	21.0	0.00e+00	0	41	0	813694976	57	4203
2026-01-30 11:04:45.79	237.79	36.49	-43.7	-44.7	20.6	0.00e+00	0	41	0	826277888	58	4167
2026-01-30 11:04:49.81	239.33	36.89	-43.4	-44.4	20.7	0.00e+00	0	41	0	838860800	58	4006
2026-01-30 11:04:53.85	240.91	37.27	-43.4	-44.3	20.9	0.00e+00	0	41	0	851443712	58	4003
2026-01-30 11:04:57.87	242.52	37.62	-43.5	-44.4	20.7	0.00e+00	0	41	0	864026624	58	4049
2026-01-30 11:05:01.90	244.17	37.96	-43.3	-44.2	20.9	0.00e+00	0	41	0	876609536	58	3949
2026-01-30 11:05:05.93	245.85	38.27	-43.4	-44.3	20.9	0.00e+00	0	41	0	889192448	58	3986
2026-01-30 11:05:09.96	247.56	38.55	-43.8	-44.8	20.5	0.00e+00	0	41	0	901775360	58	4210
2026-01-30 11:05:13.98	249.29	38.81	-44.2	-45.2	20.1	0.00e+00	0	41	0	914358272	59	4185
2026-01-30 11:05:18.01	251.06	39.04	-44.1	-45.0	20.3	0.00e+00	0	41	0	926941184	59	4087
2026-01-30 11:05:22.03	252.84	39.25	-44.4	-45.4	20.1	0.00e+00	0	41	0	939524096	59	4267
2026-01-30 11:05:26.07	254.65	39.42	-44.0	-44.9	20.5	0.00e+00	0	41	0	952107008	59	4049
2026-01-30 11:05:30.10	256.48	39.56	-44.0	-45.0	20.5	0.00e+00	0	41	0	964689920	59	4052
2026-01-30 11:05:34.13	258.32	39.67	-44.1	-45.1	20.4	0.00e+00	0	41	0	977272832	59	4108
2026-01-30 11:05:38.15	260.16	39.75	-44.3	-45.3	20.1	0.00e+00	0	41	0	989855744	59	4239
2026-01-30 11:05:42.18	262.02	39.79	-44.2	-45.2	20.3	0.00e+00	0	41	0	1002438656	59	4149
2026-01-30 11:05:46.21	263.88	39.81	-44.4	-45.4	20.2	0.00e+00	0	41	0	1015021568	59	4247
2026-01-30 11:05:50.25	265.74	39.78	-44.5	-45.6	19.7	0.00e+00	0	41	0	1027604480	60	4113
2026-01-30 11:05:54.27	267.59	39.73	-44.3	-45.3	19.8	0.00e+00	0	41	0	1040187392	60	4001
2026-01-30 11:05:58.30	269.43	39.64	-44.2	-45.1	20.0	0.00e+00	0	41	0	1052770304	60	3910
2026-01-30 11:06:02.33	271.27	39.52	-44.3	-45.3	20.0	0.00e+00	0	41	0	1065353216	59	4232
2026-01-30 11:06:06.35	273.08	39.37	-44.3	-45.3	20.0	0.00e+00	0	41	0	1077936128	59	4207
2026-01-30 11:06:10.38	274.88	39.19	-44.4	-45.4	19.8	0.00e+00	0	41	0	1090519040	60	4023
2026-01-30 11:06:14.41	276.66	38.98	-44.2	-45.2	20.4	0.00e+00	0	41	0	1103101952	59	4152
2026-01-30 11:06:18.44	278.42	38.74	-44.1	-45.1	20.4	0.00e+00	0	41	0	1115684864	59	4123
2026-01-30 11:06:22.46	280.14	38.48	-44.1	-45.0	20.4	0.00e+00	0	41	0	1128267776	59	4098
2026-01-30 11:06:26.50	281.85	38.18	-44.1	-45.1	20.4	0.00e+00	0	41	0	1140850688	59	4100
2026-01-30 11:06:30.53	283.51	37.87	-43.3	-44.1	21.2	0.00e+00	0	41	0	1153433600	58	3899
2026-01-30 11:06:34.56	285.15	37.53	-43.9	-44.8	20.7	0.00e+00	0	41	0	1166016512	58	4238
2026-01-30 11:06:38.59	286.75	37.16	-44.4	-45.4	20.2	0.00e+00	0	41	0	1178599424	59	4258
2026-01-30 11:06:42.62	288.31	36.78	-43.4	-44.3	21.2	0.00e+00	0	41	0	1191182336	58	3966
2026-01-30 11:06:46.65	289.84	36.38	-43.2	-44.0	21.4	0.00e+00	0	41	0	1203765248	58	3868
2026-01-30 11:06:50.67	291.33	35.97	-42.8	-43.7	21.5	0.00e+00	0	41	0	1216348160	57	3922
2026-01-30 11:06:54.69	292.78	35.54	-43.4	-44.3	21.2	0.00e+00	0	41	0	1228931072	57	4209
2026-01-30 11:06:58.72	294.19	35.10	-43.1	-43.9	21.5	0.00e+00	0	41	0	1241513984	57	4050
2026-01-30 11:07:02.75	295.57	34.64	-43.1	-44.0	21.5	0.00e+00	0	41	0	1254096896	57	4068
2026-01-30 11:07:06.78	296.91	34.17	-42.9	-43.8	21.7	0.00e+00	0	41	0	1266679808	57	3963
2026-01-30 11:07:10.81	298.21	33.69	-42.9	-43.7	21.7	0.00e+00	0	41	0	1279262720	57	3951
2026-01-30 11:07:14.83	299.47	33.21	-43.2	-44.0	21.4	0.00e+00	0	41	0	1291845632	57	4095
2026-01-30 11:07:18.86	300.70	32.72	-42.8	-43.7	21.8	0.00e+00	0	41	0	1304428544	57	3926
2026-01-30 11:07:22.89	301.89	32.22	-42.2	-43.0	22.3	0.00e+00	0	41	0	1317011456	56	3843
2026-01-30 11:07:26.92	303.05	31.72	-42.2	-43.0	22.3	0.00e+00	0	41	0	1329594368	56	3857
2026-01-30 11:07:30.94	304.16	31.22	-42.3	-43.1	22.1	0.00e+00	0	41	0	1342177280	56	3913
2026-01-30 11:07:34.98	305.25	30.71	-42.5	-43.3	21.8	0.00e+00	0	41	0	1354760192	56	3998
2026-01-30 11:07:39.01	306.31	30.20	-43.2	-44.1	21.3	0.00e+00	0	41	0	1367343104	56	4347
2026-01-30 11:07:43.05	307.33	29.69	-43.0	-43.9	21.5	0.00e+00	0	41	0	1379926016	57	4011
2026-01-30 11:07:47.07	308.32	29.18	-42.7	-43.6	21.7	0.00e+00	0	41	0	1392508928	57	3873
2026-01-30 11:07:51.10	309.28	28.67	-42.3	-43.1	22.0	0.00e+00	0	41	0	1405091840	56	3908
2026-01-30 11:07:55.12	310.21	28.16	-42.3	-43.1	22.0	0.00e+00	0	41	0	1418723328	56	3902
2026-01-30 11:07:59.16	311.11	27.65	-42.2	-43.0	22.1	0.00e+00	0	41	0	1430257664	56	3837
2026-01-30 11:08:03.19	311.99	27.15	-41.3	-42.1	22.7	0.00e+00	0	41	0	1442840576	54	3890
2026-01-30 11:08:07.22	312.84	26.64	-41.5	-42.2	22.6	0.00e+00	0	41	0	1455423488	54	3958
2026-01-30 11:08:11.24	313.66	26.15	-41.3	-42.1	22.8	0.00e+00	0	41	0	1469054976	54	3889
2026-01-30 11:08:15.26	314.45	25.65	-41.1	-41.9	22.9	0.00e+00	0	41	0	1480589312	54	3782
2026-01-30 11:08:19.29	315.23	25.16	-41.2	-42.0	22.8	0.00e+00	0	41	0	1493172224	54	3847
2026-01-30 11:08:23.31	315.98	24.67	-41.1	-41.9	22.8	0.00e+00	0	41	0	1505755136	54	3808
2026-01-30 11:08:27.35	316.71	24.19	-41.0	-41.8	22.8	0.00e+00	0	41	0	1518338048	53	3960
2026-01-30 11:08:31.37	317.41	23.71	-41.3	-42.0	22.6	0.00e+00	0	41	0	1530920960	53	4091
2026-01-30 11:08:35.41	318.10	23.23	-41.1	-41.9	22.8	0.00e+00	0	41	0	1543503872	53	4027
2026-01-30 11:08:39.44	318.77	22.76	-41.4	-42.2	22.5	0.00e+00	0	41	0	1557135360	53	4162
2026-01-30 11:08:43.47	319.41	22.29	-41.7	-42.5	22.2	0.00e+00	0	41	0	1568669696	53	4308
2026-01-30 11:08:47.49	320.04	21.83	-42.1	-42.9	21.9	0.00e+00	0	41	0	1581252608	54	4270
2026-01-30 11:08:51.53	320.65	21.38	-41.8	-42.6	22.1	0.00e+00	0	41	0	1594884096	54	4118
2026-01-30 11:08:55.56	321.25	20.93	-42.1	-42.9	21.8	0.00e+00	0	41	0	1607467008	54	4286
2026-01-30 11:08:59.59	321.83	20.48	-42.0	-42.8	21.9	0.00e+00	0	41	0	1619001344	54	4220
2026-01-30 11:09:03.61	322.39	20.04	-41.5	-42.2	22.4	0.00e+00	0	41	0	1631584256	54	3954
2026-01-30 11:09:07.64	322.93	19.61	-41.2	-42.0	22.5	0.00e+00	0	41	0	1645215744	54	3847
2026-01-30 11:09:11.67	323.47	19.18	-41.3	-42.0	22.5	0.00e+00	0	41	0	1657798656	54	3860
2026-01-30 11:09:15.70	323.98	18.75	-41.4	-42.2	22.4	0.00e+00	0	41	0	1669332992	54	3920
2026-01-30 11:09:19.73	324.49	18.33	-41.3	-42.1	22.4	0.00e+00	0	41	0	1682964480	54	3890
2026-01-30 11:09:23.76	324.98	17.92	-41.4	-42.2	22.3	0.00e+00	0	41	0	1695547392	54	3950
2026-01-30 11:09:27.78	325.46	17.51	-41.5	-42.3	22.1	0.00e+00	0	41	0	1707081728	54	3999
2026-01-30 11:09:31.81	325.92	17.10	-41.6	-42.4	22.1	0.00e+00	0	41	0	1719664640	54	4035
2026-01-30 11:09:35.84	326.38	16.70	-41.6	-42.4	22.1	0.00e+00	0	41	0	1733296128	54	4014
2026-01-30 11:09:39.87	326.82	16.31	-41.7	-42.5	21.9	0.00e+00	0	41	0	1745879040	54	4092
2026-01-30 11:09:43.90	327.25	15.92	-42.1	-42.9	21.5	0.00e+00	0	41	0	1757413376	54	4281
2026-01-30 11:09:47.93	327.68	15.53	-42.1	-43.0	21.5	0.00e+00	0	41	0	1771044864	55	4067
2026-01-30 11:09:51.95	328.09	15.15	-42.2	-43.1	21.4	0.00e+00	0	41	0	1783627776	55	4109
2026-01-30 11:09:55.97	328.49	14.78	-42.3	-43.2	21.3	0.00e+00	0	41	0	1796210688	55	4158
2026-01-30 11:10:00.00	328.88	14.40	-42.2	-43.1	21.3	0.00e+00	0	41	0	1807745024	55	4135
2026-01-30 11:10:04.03	329.26	14.04	-42.4	-43.2	21.3	0.00e+00	0	41	0	1821376512	55	4182
2026-01-30 11:10:08.07	329.64	13.67	-42.3	-43.2	21.2	0.00e+00	0	41	0	1833959424	55	4171
2026-01-30 11:10:12.10	330.00	13.31	-42.4	-43.3	21.1	0.00e+00	0	41	0	1846542336	55	4206
2026-01-30 11:10:16.12	330.36	12.96	-42.4	-43.3	21.0	0.00e+00	0	41	0	1858076672	55	4228
2026-01-30 11:10:20.15	330.71	12.61	-42.5	-43.4	20.9	0.00e+00	0	41	0	1871708160	55	4278
2026-01-30 11:10:24.17	331.05	12.27	-42.5	-43.4	20.9	0.00e+00	0	41	0	1884291072	55	4278
2026-01-30 11:10:28.20	331.38	11.92	-42.7	-43.6	20.8	0.00e+00	0	41	0	1895825408	56	4128
2026-01-30 11:10:32.23	331.71	11.58	-42.7	-43.7	20.8	0.00e+00	0	41	0	1909456896	56	4152
2026-01-30 11:10:36.26	332.03	11.25	-42.7	-43.6	20.8	0.00e+00	0	41	0	1922039808	56	4111
2026-01-30 11:10:40.27	332.34	10.92	-42.8	-43.7	20.7	0.00e+00	0	41	0	1934622720	56	4185
2026-01-30 11:10:44.30	332.65	10.60	-42.8	-43.7	20.6	0.00e+00	0	41	0	1946157056	56	4186
2026-01-30 11:10:48.33	332.95	10.27	-43.1	-44.1	20.3	0.00e+00	0	41	0	1959788544	56	4354
2026-01-30 11:10:52.36	333.25	9.95	-43.3	-44.3	20.0	0.00e+00	0	41	0	1972371456	57	4240
2026-01-30 11:10:56.39	333.54	9.64	-43.4	-44.5	19.9	0.00e+00	0	41	0	1984954368	57	4296
2026-01-30 11:11:00.42	333.82	9.32	-43.5	-44.5	19.8	0.00e+00	0	41	0	1996488704	57	4318
2026-01-30 11:11:04.45	334.10	9.01	-43.5	-44.5	19.7	0.00e+00	0	41	0	2010120192	57	4339
2026-01-30 11:11:08.47	334.37	8.71	-43.7	-44.7	19.5	0.00e+00	0	41	0	2022703104	57	4429
2026-01-30 11:11:12.50	334.63	8.41	-43.5	-44.6	19.7	0.00e+00	0	41	0	2035286016	57	4345
2026-01-30 11:11:16.53	334.90	8.11	-43.6	-44.6	19.6	0.00e+00	0	41	0	2047868928	58	4123
2026-01-30 11:11:20.55	335.15	7.81	-43.5	-44.6	19.6	0.00e+00	0	41	0	2060451840	58	4106
2026-01-30 11:11:24.58	335.40	7.52	-43.5	-44.5	19.6	0.00e+00	0	41	0	2073034752	58	4086
2026-01-30 11:11:28.61	335.65	7.23	-43.4	-44.5	19.7	0.00e+00	0	41	0	2085617664	58	4071
2026-01-30 11:11:32.63	335.89	6.94	-43.6	-44.6	19.5	0.00e+00	0	41	0	2098200576	58	4123
2026-01-30 11:11:36.65	336.13	6.65	-43.8	-44.9	19.2	0.00e+00	0	41	0	2110783488	58	4255
2026-01-30 11:11:40.68	336.37	6.37	-43.8	-44.9	19.1	0.00e+00	0	41	0	2123366400	58	4284
2026-01-30 11:11:44.71	336.60	6.09	-44.0	-45.2	18.9	0.00e+00	0	41	0	2134900736	58	4414
2026-01-30 11:11:48.74	336.82	5.82	-43.9	-45.1	18.9	0.00e+00	0	41	0	2148532224	58	4341
2026-01-30 11:11:52.77	337.05	5.54	-44.1	-45.3	18.7	0.00e+00	0	41	0	2161115136	59	4212
2026-01-30 11:11:56.80	337.27	5.27	-44.2	-45.5	18.5	0.00e+00	0	41	0	2173698048	59	4301
2026-01-30 11:12:00.82	337.48	5.00	-52.1	-63.8	3.8	2.05e-02	0	41	104	2185232384	74	14910
2026-01-30 11:12:04.86	337.69	4.73	-53.4	-66.1	3.8	1.49e+00	0	41	104	2185232384	77	16447
2026-01-30 11:12:08.89	337.90	4.47	-53.7	-66.4	3.8	1.49e+00	0	41	104	2185232384	77	16975
2026-01-30 11:12:12.92	338.10	4.21	-53.5	-66.3	3.8	1.49e+00	0	42	104	2185232384	77	16720
2026-01-30 11:12:16.94	338.31	3.95	-53.4	-66.2	3.8	1.49e+00	0	42	104	2185232384	77	16523
2026-01-30 11:12:20.96	338.50	3.69	-53.5	-66.2	3.8	1.49e+00	0	41	104	2185232384	77	16680
2026-01-30 11:12:24.99	338.70	3.43	-53.3	-66.0	3.8	1.49e+00	0	41	104	2185232384	77	16255
2026-01-30 11:12:29.01	338.89	3.18	-53.3	-66.0	3.8	1.49e+00	0	41	104	2185232384	77	16233
2026-01-30 11:12:33.02	339.08	2.93	-53.2	-66.0	3.8	1.49e+00	0	41	104	2185232384	77	16154
2026-01-30 11:12:37.05	339.27	2.68	-53.2	-65.9	3.8	1.49e+00	0	41	104	2185232384	77	16067
2026-01-30 11:12:41.06	339.45	2.43	-53.2	-65.9	3.8	1.49e+00	0	42	104	2185232384	77	16065
2026-01-30 11:12:45.10	339.63	2.19	-53.2	-65.9	3.8	1.49e+00	0	41	104	2185232384	77	15999
2026-01-30 11:12:49.12	339.81	1.95	-53.1	-65.9	3.8	1.49e+00	0	42	104	2185232384	77	15978

#Closed at: 2026-01-30 11:12:49
#Recorded file [2185 MB]: D:/lorett/data/31041_260130_135847.dat