passes_logs/2026/01/30/R3.2S_Murmansk/R3.2S_Murmansk__20260130_062859_SUOMI_NPP_rec.log

#Pass ID: 20260130_062859_SUOMI NPP
#Satellite: SUOMI NPP
#Configuration: NPP
#almurnet v.1.7.20251203
#Start time: 2026-01-30 06:29:00

#Version: 2.2.20231116
#Station: R3.2S_Murmansk
#Location: 33.079688 lon 68.888172 lat
#TLE: 1 37849U 11061A   26029.48304708  .00000140  00000+0  87283-4 0  9999
#TLE: 2 37849  98.7824 331.4079 0002024  38.4342 321.6978 14.19531488738761

#Time	Az	El	Level	Level2	SNR	BER	BlckErr	Temp	State	Recorded	gain1	gain2
2026-01-30 06:29:00.37	83.17	2.08	-53.8	-68.8	3.8	1.49e+00	0	39	0	0	79	19899
2026-01-30 06:29:04.38	82.93	2.31	-54.1	-69.1	3.8	1.49e+00	0	39	104	0	78	21899
2026-01-30 06:29:08.41	82.69	2.55	-54.2	-69.2	3.8	1.49e+00	0	39	104	0	79	20817
2026-01-30 06:29:12.42	82.45	2.78	-53.9	-68.9	3.8	1.49e+00	0	39	104	0	79	20194
2026-01-30 06:29:16.45	82.20	3.02	-53.8	-68.7	3.8	1.49e+00	0	40	104	0	79	19802
2026-01-30 06:29:20.48	81.95	3.27	-53.1	-68.0	3.8	1.49e+00	0	40	104	0	78	19359
2026-01-30 06:29:24.51	81.70	3.51	-52.0	-66.9	3.8	1.49e+00	0	40	104	0	75	20120
2026-01-30 06:29:28.54	81.44	3.75	-51.9	-66.8	3.8	1.49e+00	0	40	104	0	75	19960
2026-01-30 06:29:32.57	81.17	4.00	-51.9	-66.8	3.8	1.49e+00	0	40	104	0	75	19917
2026-01-30 06:29:36.60	80.90	4.25	-51.8	-66.6	3.8	1.49e+00	0	40	104	0	75	19404
2026-01-30 06:29:40.62	80.63	4.50	-51.8	-66.2	3.8	1.49e+00	0	40	104	0	75	18544
2026-01-30 06:29:44.65	80.35	4.75	-51.7	-63.7	4.1	1.49e+00	0	40	104	0	75	13966
2026-01-30 06:29:48.67	80.06	5.00	-50.6	-56.7	8.7	4.71e-02	0	40	0	6291456	73	7008
2026-01-30 06:29:52.71	79.77	5.26	-51.7	-62.0	4.8	1.48e+00	1	40	104	11534336	74	12177
2026-01-30 06:29:56.74	79.47	5.51	-48.5	-51.6	14.1	0.00e+00	0	40	0	17825792	68	5191
2026-01-30 06:30:00.76	79.17	5.77	-47.5	-49.9	15.8	0.00e+00	0	40	0	25165824	66	4789
2026-01-30 06:30:04.78	78.87	6.03	-46.8	-49.1	16.6	0.00e+00	0	40	0	32505856	65	4607
2026-01-30 06:30:08.81	78.56	6.29	-46.5	-48.6	17.0	0.00e+00	0	40	0	40894464	64	4636
2026-01-30 06:30:12.84	78.24	6.56	-46.4	-48.4	17.3	0.00e+00	0	41	0	48234496	64	4529
2026-01-30 06:30:16.85	77.91	6.82	-46.3	-48.3	17.4	0.00e+00	0	40	0	55574528	64	4461
2026-01-30 06:30:20.87	77.58	7.09	-46.3	-48.3	17.5	0.00e+00	0	40	0	62914560	64	4475
2026-01-30 06:30:24.89	77.25	7.35	-46.4	-48.4	17.5	0.00e+00	0	40	0	70254592	64	4496
2026-01-30 06:30:28.93	76.90	7.63	-46.4	-48.4	17.4	0.00e+00	0	40	0	77594624	64	4539
2026-01-30 06:30:32.95	76.55	7.90	-46.4	-48.4	17.5	0.00e+00	0	40	0	85983232	64	4521
2026-01-30 06:30:36.98	76.20	8.17	-46.0	-47.8	18.1	0.00e+00	0	40	0	93323264	63	4491
2026-01-30 06:30:41.01	75.83	8.45	-46.4	-48.3	17.7	0.00e+00	0	41	0	100663296	63	4755
2026-01-30 06:30:45.04	75.46	8.73	-46.3	-48.2	17.8	0.00e+00	0	41	0	108003328	63	4688
2026-01-30 06:30:49.07	75.08	9.01	-46.6	-48.7	17.4	0.00e+00	0	41	0	115343360	63	4933
2026-01-30 06:30:53.10	74.70	9.29	-46.8	-48.9	17.0	0.00e+00	0	41	0	123731968	64	4814
2026-01-30 06:30:57.12	74.30	9.58	-46.4	-48.4	17.6	0.00e+00	0	41	0	131072000	64	4497
2026-01-30 06:31:01.15	73.90	9.86	-45.8	-47.6	18.5	0.00e+00	0	41	0	138412032	63	4345
2026-01-30 06:31:05.17	73.49	10.15	-46.1	-47.9	18.1	0.00e+00	0	41	0	145752064	63	4532
2026-01-30 06:31:09.20	73.07	10.44	-45.9	-47.7	18.4	0.00e+00	0	41	0	154140672	63	4392
2026-01-30 06:31:13.21	72.65	10.73	-46.0	-47.9	18.2	0.00e+00	0	41	0	161480704	63	4514
2026-01-30 06:31:17.23	72.21	11.02	-45.6	-47.3	18.8	0.00e+00	0	41	0	168820736	63	4226
2026-01-30 06:31:21.26	71.77	11.32	-45.8	-47.5	18.6	0.00e+00	0	41	0	176160768	63	4316
2026-01-30 06:31:25.29	71.31	11.62	-45.7	-47.4	18.7	0.00e+00	0	41	0	183500800	63	4260
2026-01-30 06:31:29.31	70.85	11.92	-45.6	-47.3	18.9	0.00e+00	0	41	0	190840832	62	4444
2026-01-30 06:31:33.32	70.38	12.21	-46.0	-47.9	18.3	0.00e+00	0	41	0	199229440	62	4761
2026-01-30 06:31:37.35	69.89	12.52	-46.3	-48.2	18.1	0.00e+00	0	41	0	206569472	63	4655
2026-01-30 06:31:41.37	69.40	12.82	-46.1	-47.9	18.3	0.00e+00	0	41	0	213909504	63	4522
2026-01-30 06:31:45.39	68.89	13.13	-45.9	-47.6	18.6	0.00e+00	0	41	0	221249536	63	4384
2026-01-30 06:31:49.42	68.38	13.43	-45.5	-47.1	19.1	0.00e+00	0	41	0	228589568	62	4348
2026-01-30 06:31:53.45	67.85	13.74	-45.0	-46.5	19.7	0.00e+00	0	41	0	236978176	61	4295
2026-01-30 06:31:57.48	67.31	14.05	-44.8	-46.3	19.8	0.00e+00	0	41	0	244318208	61	4208
2026-01-30 06:32:01.51	66.76	14.37	-44.9	-46.4	19.9	0.00e+00	0	41	0	251658240	61	4247
2026-01-30 06:32:05.54	66.20	14.68	-45.1	-46.6	19.6	0.00e+00	0	41	0	258998272	61	4365
2026-01-30 06:32:09.57	65.63	14.99	-44.9	-46.3	19.8	0.00e+00	0	41	0	266338304	61	4236
2026-01-30 06:32:13.60	65.04	15.31	-44.6	-46.0	20.1	0.00e+00	0	41	0	274726912	61	4090
2026-01-30 06:32:17.62	64.44	15.63	-44.8	-46.2	19.9	0.00e+00	0	41	0	282066944	60	4426
2026-01-30 06:32:21.65	63.83	15.94	-44.7	-46.2	19.9	0.00e+00	0	41	0	289406976	60	4424
2026-01-30 06:32:25.67	63.20	16.26	-45.0	-46.6	19.6	0.00e+00	0	41	0	296747008	60	4627
2026-01-30 06:32:29.71	62.56	16.58	-45.0	-46.6	19.6	0.00e+00	0	41	0	304087040	61	4359
2026-01-30 06:32:33.73	61.91	16.90	-45.5	-47.2	19.1	0.00e+00	0	41	0	312475648	61	4652
2026-01-30 06:32:37.76	61.24	17.22	-45.7	-47.3	19.0	0.00e+00	0	41	0	319815680	62	4480
2026-01-30 06:32:41.78	60.56	17.54	-45.5	-47.1	19.2	0.00e+00	0	41	0	327155712	62	4365
2026-01-30 06:32:45.81	59.87	17.85	-45.5	-47.1	19.2	0.00e+00	0	41	0	334495744	62	4363
2026-01-30 06:32:49.83	59.16	18.17	-45.2	-46.8	19.5	0.00e+00	0	41	0	341835776	62	4218
2026-01-30 06:32:53.85	58.43	18.49	-45.1	-46.7	19.6	0.00e+00	0	41	0	350224384	61	4406
2026-01-30 06:32:57.88	57.69	18.81	-45.5	-47.1	19.2	0.00e+00	0	41	0	357564416	61	4634
2026-01-30 06:33:01.91	56.93	19.12	-45.1	-46.6	19.6	0.00e+00	0	41	0	364904448	61	4361
2026-01-30 06:33:05.93	56.16	19.44	-44.9	-46.3	20.0	0.00e+00	0	41	0	372244480	61	4235
2026-01-30 06:33:09.96	55.37	19.75	-44.9	-46.3	20.0	0.00e+00	0	41	0	379584512	61	4224
2026-01-30 06:33:13.99	54.56	20.06	-45.1	-46.7	19.7	0.00e+00	0	41	0	387973120	61	4398
2026-01-30 06:33:18.02	53.73	20.37	-44.6	-46.1	20.3	0.00e+00	0	41	0	395313152	61	4111
2026-01-30 06:33:22.04	52.90	20.68	-44.4	-45.8	20.7	0.00e+00	0	41	0	402653184	59	4457
2026-01-30 06:33:26.07	52.04	20.98	-44.6	-46.0	20.6	0.00e+00	0	41	0	409993216	59	4562
2026-01-30 06:33:30.10	51.16	21.28	-44.0	-45.3	20.9	0.00e+00	0	41	0	417333248	60	3969
2026-01-30 06:33:34.12	50.27	21.57	-44.0	-45.2	21.2	0.00e+00	0	41	0	425721856	59	4183
2026-01-30 06:33:38.15	49.36	21.87	-43.6	-44.8	21.6	0.00e+00	0	41	0	433061888	58	4219
2026-01-30 06:33:42.17	48.44	22.15	-43.8	-45.0	21.4	0.00e+00	0	41	0	440401920	58	4331
2026-01-30 06:33:46.19	47.50	22.43	-43.2	-44.3	22.0	0.00e+00	0	41	0	447741952	58	3988
2026-01-30 06:33:50.21	46.54	22.71	-43.5	-44.6	21.8	0.00e+00	0	41	0	455081984	58	4144
2026-01-30 06:33:54.25	45.56	22.98	-43.4	-44.6	21.9	0.00e+00	0	41	0	463470592	58	4121
2026-01-30 06:33:58.27	44.57	23.25	-43.3	-44.4	21.9	0.00e+00	0	41	0	470810624	58	4037
2026-01-30 06:34:02.29	43.56	23.50	-44.0	-45.2	21.4	0.00e+00	0	41	0	478150656	58	4416
2026-01-30 06:34:06.32	42.53	23.75	-43.7	-44.9	21.7	0.00e+00	0	41	0	485490688	58	4244
2026-01-30 06:34:10.35	41.48	24.00	-43.2	-44.3	22.1	0.00e+00	0	41	0	492830720	58	3982
2026-01-30 06:34:14.37	40.43	24.23	-43.8	-45.0	21.6	0.00e+00	0	41	0	501219328	58	4306
2026-01-30 06:34:18.39	39.35	24.45	-43.7	-44.9	21.7	0.00e+00	0	41	0	508559360	58	4260
2026-01-30 06:34:22.42	38.26	24.67	-43.1	-44.2	22.3	0.00e+00	0	41	0	515899392	58	3948
2026-01-30 06:34:26.45	37.15	24.88	-43.3	-44.4	22.2	0.00e+00	0	41	0	523239424	58	4039
2026-01-30 06:34:30.48	36.03	25.07	-43.1	-44.2	22.3	0.00e+00	0	41	0	530579456	57	4173
2026-01-30 06:34:34.51	34.90	25.26	-43.2	-44.3	22.2	0.00e+00	0	41	0	538968064	57	4225
2026-01-30 06:34:38.55	33.74	25.43	-44.0	-45.2	21.4	0.00e+00	0	41	0	546308096	58	4421
2026-01-30 06:34:42.58	32.58	25.59	-44.7	-46.0	20.6	0.00e+00	0	41	0	553648128	60	4299
2026-01-30 06:34:46.62	31.41	25.74	-45.1	-46.6	19.9	0.00e+00	0	41	0	560988160	62	4104
2026-01-30 06:34:50.64	30.23	25.88	-44.5	-45.8	20.5	0.00e+00	0	41	0	568328192	60	4210
2026-01-30 06:34:54.67	29.04	26.00	-44.9	-46.3	20.2	0.00e+00	0	41	0	576716800	60	4468
2026-01-30 06:34:58.69	27.84	26.12	-44.6	-45.9	20.5	0.00e+00	0	41	0	584056832	60	4264
2026-01-30 06:35:02.72	26.63	26.21	-45.1	-46.6	20.0	0.00e+00	0	41	0	591396864	61	4341
2026-01-30 06:35:06.75	25.41	26.30	-44.9	-46.3	20.1	0.00e+00	0	41	0	598736896	61	4241
2026-01-30 06:35:10.78	24.19	26.37	-44.5	-45.8	20.6	0.00e+00	0	41	0	607125504	60	4231
2026-01-30 06:35:14.80	22.97	26.42	-45.3	-46.8	19.7	0.00e+00	0	41	0	614465536	61	4465
2026-01-30 06:35:18.83	21.74	26.46	-45.4	-46.9	19.6	0.00e+00	0	41	0	621805568	62	4278
2026-01-30 06:35:22.85	20.51	26.49	-44.5	-45.7	20.7	0.00e+00	0	41	0	629145600	60	4187
2026-01-30 06:35:26.88	19.27	26.50	-44.7	-46.1	20.4	0.00e+00	0	41	0	636485632	60	4374
2026-01-30 06:35:30.91	18.04	26.50	-45.2	-46.7	19.8	0.00e+00	0	41	0	643825664	61	4418
2026-01-30 06:35:34.93	16.81	26.48	-44.7	-46.0	20.5	0.00e+00	0	41	0	652214272	61	4092
2026-01-30 06:35:38.96	15.58	26.45	-44.3	-45.6	21.1	0.00e+00	0	41	0	659554304	59	4363
2026-01-30 06:35:42.98	14.35	26.40	-44.3	-45.5	21.2	0.00e+00	0	41	0	666894336	59	4337
2026-01-30 06:35:46.99	13.13	26.34	-43.3	-44.4	22.2	0.00e+00	0	41	0	674234368	58	4030
2026-01-30 06:35:51.01	11.91	26.27	-42.4	-43.4	23.1	0.00e+00	0	41	0	681574400	56	4009
2026-01-30 06:35:55.04	10.70	26.18	-43.1	-44.2	22.4	0.00e+00	0	41	0	689963008	57	4150
2026-01-30 06:35:59.07	9.50	26.08	-43.6	-44.8	21.9	0.00e+00	0	41	0	697303040	58	4198
2026-01-30 06:36:03.10	8.30	25.96	-44.1	-45.3	21.5	0.00e+00	0	41	0	704643072	58	4443
2026-01-30 06:36:07.13	7.11	25.83	-43.7	-44.8	21.9	0.00e+00	0	41	0	711983104	58	4226
2026-01-30 06:36:11.15	5.93	25.69	-44.3	-45.5	21.4	0.00e+00	0	41	0	719323136	59	4300
2026-01-30 06:36:15.18	4.77	25.53	-44.3	-45.5	21.0	0.00e+00	0	41	0	727711744	60	4093
2026-01-30 06:36:19.21	3.61	25.37	-44.4	-45.7	21.2	0.00e+00	0	41	0	735051776	59	4393
2026-01-30 06:36:23.23	2.47	25.19	-44.6	-45.9	20.6	0.00e+00	0	41	0	742391808	60	4287
2026-01-30 06:36:27.26	1.35	25.00	-44.7	-46.0	20.6	0.00e+00	0	41	0	749731840	60	4332
2026-01-30 06:36:31.28	0.23	24.80	-45.6	-47.1	19.6	0.00e+00	0	41	0	757071872	62	4381
2026-01-30 06:36:35.31	359.13	24.59	-44.9	-46.2	20.3	0.00e+00	0	41	0	765460480	61	4190
2026-01-30 06:36:39.33	358.05	24.37	-45.6	-47.2	19.5	0.00e+00	0	41	0	772800512	61	4656
2026-01-30 06:36:43.36	356.98	24.15	-44.8	-46.1	20.4	0.00e+00	0	41	0	780140544	61	4138
2026-01-30 06:36:47.38	355.93	23.91	-44.9	-46.2	20.3	0.00e+00	0	41	0	787480576	61	4186
2026-01-30 06:36:51.41	354.89	23.67	-45.2	-46.6	19.9	0.00e+00	0	41	0	794820608	61	4387
2026-01-30 06:36:55.44	353.87	23.41	-44.2	-45.5	20.9	0.00e+00	0	41	0	803209216	60	4083
2026-01-30 06:36:59.47	352.87	23.15	-45.4	-46.9	19.6	0.00e+00	0	41	0	810549248	62	4291
2026-01-30 06:37:03.50	351.88	22.89	-45.1	-46.6	19.9	0.00e+00	0	41	0	817889280	62	4140
2026-01-30 06:37:07.53	350.91	22.61	-44.0	-45.3	21.1	0.00e+00	0	41	0	825229312	60	3965
2026-01-30 06:37:11.55	349.96	22.34	-44.9	-46.4	20.1	0.00e+00	0	41	0	832569344	60	4521
2026-01-30 06:37:15.57	349.02	22.05	-44.8	-46.2	20.2	0.00e+00	0	41	0	840957952	61	4153
2026-01-30 06:37:19.60	348.11	21.76	-43.8	-45.0	21.7	0.00e+00	0	41	0	848297984	59	4054
2026-01-30 06:37:23.62	347.21	21.47	-43.8	-45.0	21.6	0.00e+00	0	41	0	855638016	58	4302
2026-01-30 06:37:27.66	346.32	21.17	-43.9	-45.1	21.5	0.00e+00	0	41	0	862978048	58	4364
2026-01-30 06:37:31.68	345.46	20.87	-43.7	-44.9	21.6	0.00e+00	0	41	0	870318080	58	4251
2026-01-30 06:37:35.71	344.61	20.57	-44.1	-45.3	21.2	0.00e+00	0	41	0	878706688	58	4493
2026-01-30 06:37:39.73	343.77	20.26	-43.9	-45.2	21.4	0.00e+00	0	41	0	886046720	59	4160
2026-01-30 06:37:43.76	342.96	19.96	-44.6	-46.0	20.7	0.00e+00	0	41	0	893386752	59	4548
2026-01-30 06:37:47.78	342.16	19.65	-44.1	-45.4	21.2	0.00e+00	0	41	0	900726784	59	4257
2026-01-30 06:37:51.81	341.38	19.33	-44.2	-45.5	21.1	0.00e+00	0	41	0	908066816	59	4317
2026-01-30 06:37:55.83	340.61	19.02	-43.0	-44.1	22.3	0.00e+00	0	41	0	916455424	58	3879
2026-01-30 06:37:59.86	339.86	18.70	-43.3	-44.4	22.1	0.00e+00	0	41	0	923795456	58	4013
2026-01-30 06:38:03.89	339.13	18.39	-43.6	-44.7	21.8	0.00e+00	0	41	0	931135488	58	4177
2026-01-30 06:38:07.92	338.41	18.07	-43.7	-44.8	21.8	0.00e+00	0	41	0	938475520	58	4214
2026-01-30 06:38:11.94	337.70	17.75	-43.0	-44.1	22.4	0.00e+00	0	41	0	945815552	57	4111
2026-01-30 06:38:15.98	337.01	17.43	-43.6	-44.7	21.8	0.00e+00	0	41	0	954204160	57	4419
2026-01-30 06:38:20.02	336.33	17.11	-43.8	-45.0	21.6	0.00e+00	0	41	0	961544192	58	4318
2026-01-30 06:38:24.04	335.67	16.79	-43.1	-44.2	22.3	0.00e+00	0	41	0	968884224	58	3936
2026-01-30 06:38:28.06	335.03	16.48	-43.7	-44.9	21.6	0.00e+00	0	41	0	976224256	57	4519
2026-01-30 06:38:32.08	334.40	16.16	-44.4	-45.7	20.7	0.00e+00	0	41	0	983564288	60	4166
2026-01-30 06:38:36.11	333.78	15.84	-44.3	-45.6	21.0	0.00e+00	0	41	0	991952896	59	4349
2026-01-30 06:38:40.13	333.17	15.53	-44.1	-45.4	21.2	0.00e+00	0	41	0	999292928	59	4252
2026-01-30 06:38:44.16	332.58	15.21	-44.5	-45.7	20.9	0.00e+00	0	41	0	1006632960	59	4440
2026-01-30 06:38:48.17	332.00	14.90	-45.1	-46.6	19.8	0.00e+00	0	41	0	1013972992	60	4615
2026-01-30 06:38:52.20	331.43	14.58	-44.4	-45.7	20.6	0.00e+00	0	41	0	1021313024	60	4184
2026-01-30 06:38:56.22	330.88	14.27	-44.0	-45.1	21.4	0.00e+00	0	41	0	1029701632	59	4140
2026-01-30 06:39:00.24	330.34	13.96	-44.3	-45.6	21.0	0.00e+00	0	41	0	1037041664	59	4347
2026-01-30 06:39:04.27	329.80	13.65	-44.4	-45.7	20.9	0.00e+00	0	41	0	1044381696	59	4412
2026-01-30 06:39:08.29	329.28	13.35	-44.5	-45.8	20.8	0.00e+00	0	41	0	1051721728	59	4444
2026-01-30 06:39:12.33	328.77	13.04	-44.2	-45.5	20.7	0.00e+00	0	41	0	1059061760	60	4085
2026-01-30 06:39:16.36	328.27	12.73	-44.6	-45.9	20.6	0.00e+00	0	41	0	1067450368	59	4533
2026-01-30 06:39:20.38	327.78	12.43	-44.5	-45.8	20.4	0.00e+00	0	41	0	1074790400	60	4214
2026-01-30 06:39:24.42	327.30	12.13	-45.1	-46.5	19.7	0.00e+00	0	41	0	1082130432	61	4334
2026-01-30 06:39:28.45	326.83	11.83	-44.7	-46.1	20.1	0.00e+00	0	41	0	1089470464	61	4127
2026-01-30 06:39:32.47	326.38	11.53	-44.4	-45.8	20.4	0.00e+00	0	41	0	1096810496	60	4196
2026-01-30 06:39:36.49	325.93	11.24	-45.2	-46.7	19.5	0.00e+00	0	41	0	1105199104	60	4688
2026-01-30 06:39:40.51	325.49	10.94	-45.9	-47.6	18.7	0.00e+00	0	41	0	1112539136	62	4616
2026-01-30 06:39:44.54	325.05	10.65	-45.3	-46.8	19.3	0.00e+00	0	41	0	1119879168	62	4221
2026-01-30 06:39:48.57	324.63	10.36	-44.9	-46.3	19.8	0.00e+00	0	41	0	1127219200	61	4225
2026-01-30 06:39:52.59	324.22	10.07	-44.9	-46.3	19.8	0.00e+00	0	41	0	1134559232	61	4206
2026-01-30 06:39:56.61	323.81	9.78	-45.5	-47.1	19.1	0.00e+00	0	41	0	1142947840	61	4604
2026-01-30 06:40:00.65	323.41	9.50	-46.0	-47.7	18.3	0.00e+00	0	41	0	1150287872	62	4674
2026-01-30 06:40:04.67	323.02	9.22	-46.3	-48.1	18.0	0.00e+00	0	41	0	1157627904	63	4638
2026-01-30 06:40:08.69	322.64	8.93	-46.1	-47.9	18.2	0.00e+00	0	41	0	1164967936	63	4499
2026-01-30 06:40:12.72	322.27	8.66	-45.9	-47.6	18.4	0.00e+00	0	41	0	1172307968	63	4363
2026-01-30 06:40:16.73	321.90	8.38	-45.9	-47.5	18.6	0.00e+00	0	41	0	1180696576	63	4327
2026-01-30 06:40:20.76	321.54	8.10	-46.5	-48.4	17.7	0.00e+00	0	41	0	1188036608	63	4771
2026-01-30 06:40:24.79	321.19	7.83	-46.7	-48.8	17.2	0.00e+00	0	41	0	1195376640	64	4715
2026-01-30 06:40:28.81	320.84	7.56	-46.9	-49.0	16.9	0.00e+00	0	42	0	1202716672	64	4856
2026-01-30 06:40:32.84	320.50	7.29	-46.1	-47.9	17.9	0.00e+00	0	41	0	1210056704	64	4288
2026-01-30 06:40:36.88	320.17	7.02	-45.5	-47.2	18.7	0.00e+00	0	41	0	1218445312	63	4156
2026-01-30 06:40:40.91	319.84	6.75	-45.3	-46.8	19.0	0.00e+00	0	41	0	1225785344	62	4225
2026-01-30 06:40:44.93	319.52	6.49	-45.5	-47.2	18.6	0.00e+00	0	41	0	1233125376	62	4413
2026-01-30 06:40:48.95	319.21	6.23	-46.0	-47.8	18.0	0.00e+00	0	41	0	1240465408	62	4715
2026-01-30 06:40:52.98	318.90	5.97	-46.7	-48.8	17.0	0.00e+00	0	41	0	1247805440	64	4719
2026-01-30 06:40:57.00	318.60	5.71	-47.3	-49.6	16.1	0.00e+00	0	41	0	1256194048	65	4923
2026-01-30 06:41:01.03	318.30	5.45	-47.4	-49.9	15.8	0.00e+00	0	41	0	1263534080	65	5061
2026-01-30 06:41:05.05	318.01	5.20	-47.3	-49.8	15.8	0.00e+00	0	41	0	1270874112	65	5013
2026-01-30 06:41:09.07	317.72	4.94	-52.1	-67.0	3.8	6.74e-01	0	41	104	1278214144	74	21729
2026-01-30 06:41:13.10	317.44	4.69	-52.8	-67.7	3.8	1.49e+00	0	41	104	1278214144	76	20926
2026-01-30 06:41:17.13	317.16	4.44	-52.7	-67.7	3.8	1.49e+00	0	41	104	1278214144	76	20846
2026-01-30 06:41:21.15	316.89	4.19	-53.0	-68.0	3.8	1.49e+00	0	41	104	1278214144	76	21642
2026-01-30 06:41:25.18	316.62	3.95	-53.2	-68.2	3.8	1.49e+00	0	41	104	1278214144	77	20996
2026-01-30 06:41:29.20	316.36	3.70	-53.2	-68.2	3.8	1.49e+00	0	41	104	1278214144	77	20907
2026-01-30 06:41:33.23	316.10	3.46	-53.1	-68.1	3.8	1.49e+00	0	41	104	1278214144	77	20589
2026-01-30 06:41:37.26	315.85	3.21	-53.1	-68.0	3.8	1.49e+00	0	41	104	1278214144	77	20435
2026-01-30 06:41:41.29	315.60	2.97	-53.0	-68.0	3.8	1.49e+00	0	41	104	1278214144	77	20343
2026-01-30 06:41:45.32	315.36	2.74	-53.0	-67.9	3.8	1.49e+00	0	41	104	1278214144	77	20221
2026-01-30 06:41:49.34	315.12	2.50	-53.0	-67.9	3.8	1.49e+00	0	41	104	1278214144	77	20288
2026-01-30 06:41:53.37	314.88	2.26	-52.9	-67.9	3.8	1.49e+00	0	41	104	1278214144	77	20224
2026-01-30 06:41:57.40	314.65	2.03	-52.9	-67.9	3.8	1.49e+00	0	41	104	1278214144	77	20264

#Closed at: 2026-01-30 06:41:59
#Recorded file [1278 MB]: D:/lorett/data/31041_260130_092900.dat