passes_logs/2026/01/30/R3.2S_Murmansk/R3.2S_Murmansk__20260130_015107_NOAA_20_JPSS-1_rec.log

#Pass ID: 20260130_015107_NOAA 20 (JPSS-1)
#Satellite: NOAA 20 (JPSS-1)
#Configuration: NOAA 20
#almurnet v.1.7.20251203
#Start time: 2026-01-30 01:51:09

#Version: 2.2.20231116
#Station: R3.2S_Murmansk
#Location: 33.079688 lon 68.888172 lat
#TLE: 1 43013U 17073A   26029.42702672  .00000137  00000+0  85918-4 0  9993
#TLE: 2 43013  98.7646 330.2153 0000804  19.9045 340.2162 14.19525092424781

#Time	Az	El	Level	Level2	SNR	BER	BlckErr	Temp	State	Recorded	gain1	gain2
2026-01-30 01:51:09.64	29.83	2.13	-53.9	-68.9	3.8	1.49e+00	0	39	0	0	79	20198
2026-01-30 01:51:13.66	29.73	2.39	-54.2	-69.2	3.8	1.49e+00	0	40	104	0	78	22033
2026-01-30 01:51:17.68	29.63	2.64	-54.1	-69.0	3.8	1.49e+00	0	40	104	0	78	21729
2026-01-30 01:51:21.71	29.52	2.90	-54.0	-69.0	3.8	1.49e+00	0	39	104	0	78	21747
2026-01-30 01:51:25.74	29.41	3.16	-53.6	-68.6	3.8	1.49e+00	0	40	104	0	78	20662
2026-01-30 01:51:29.77	29.30	3.43	-52.8	-67.7	3.8	1.49e+00	0	40	104	0	77	19820
2026-01-30 01:51:33.79	29.19	3.69	-51.9	-66.5	3.8	1.49e+00	0	40	104	0	75	19337
2026-01-30 01:51:37.82	29.08	3.96	-51.8	-65.6	3.8	1.49e+00	0	40	104	0	75	17450
2026-01-30 01:51:41.85	28.96	4.24	-51.8	-65.9	3.8	1.49e+00	0	40	104	0	75	17935
2026-01-30 01:51:45.87	28.84	4.51	-51.4	-60.4	5.6	6.27e-01	0	40	0	2097152	74	10070
2026-01-30 01:51:49.90	28.72	4.79	-50.2	-55.4	10.2	1.27e-02	0	40	0	9437184	72	6402
2026-01-30 01:51:53.93	28.59	5.07	-49.8	-54.1	11.7	8.05e-04	0	40	0	16777216	71	5824
2026-01-30 01:51:57.96	28.46	5.35	-51.7	-65.7	3.8	7.26e-01	0	40	104	24117248	74	18564
2026-01-30 01:52:01.98	28.33	5.63	-45.3	-46.8	19.1	0.00e+00	0	40	0	29360128	62	4239
2026-01-30 01:52:06.01	28.20	5.92	-45.5	-47.0	18.9	0.00e+00	0	40	0	36700160	62	4340
2026-01-30 01:52:10.04	28.06	6.21	-45.6	-47.2	18.8	0.00e+00	0	41	0	44040192	62	4418
2026-01-30 01:52:14.05	27.93	6.51	-45.2	-46.7	19.4	0.00e+00	0	40	0	52428800	62	4174
2026-01-30 01:52:18.07	27.78	6.80	-45.2	-46.7	19.5	0.00e+00	0	41	0	59768832	62	4156
2026-01-30 01:52:22.09	27.64	7.10	-45.0	-46.4	19.7	0.00e+00	0	41	0	67108864	61	4264
2026-01-30 01:52:26.11	27.49	7.41	-45.2	-46.6	19.5	0.00e+00	0	41	0	74448896	61	4388
2026-01-30 01:52:30.15	27.33	7.72	-45.2	-46.6	19.6	0.00e+00	0	41	0	81788928	61	4375
2026-01-30 01:52:34.18	27.18	8.03	-44.9	-46.3	20.0	0.00e+00	0	41	0	90177536	61	4212
2026-01-30 01:52:38.20	27.02	8.34	-45.0	-46.4	19.8	0.00e+00	0	41	0	97517568	61	4282
2026-01-30 01:52:42.23	26.85	8.66	-45.0	-46.3	19.9	0.00e+00	0	41	0	104857600	61	4240
2026-01-30 01:52:46.25	26.68	8.98	-44.8	-46.1	20.2	0.00e+00	0	41	0	112197632	61	4136
2026-01-30 01:52:50.28	26.51	9.31	-44.8	-46.1	20.3	0.00e+00	0	41	0	119537664	61	4121
2026-01-30 01:52:54.31	26.34	9.64	-44.7	-46.0	20.4	0.00e+00	0	41	0	126877696	61	4056
2026-01-30 01:52:58.34	26.15	9.98	-44.7	-46.0	20.4	0.00e+00	0	41	0	135266304	61	4084
2026-01-30 01:53:02.37	25.97	10.31	-44.7	-46.0	20.4	0.00e+00	0	41	0	142606336	61	4062
2026-01-30 01:53:06.39	25.78	10.66	-44.6	-45.8	20.6	0.00e+00	0	41	0	149946368	61	3996
2026-01-30 01:53:10.40	25.58	11.00	-44.5	-45.7	20.7	0.00e+00	0	41	0	157286400	60	4172
2026-01-30 01:53:14.44	25.38	11.36	-44.5	-45.8	20.7	0.00e+00	0	41	0	164626432	60	4205
2026-01-30 01:53:18.47	25.18	11.71	-44.5	-45.8	20.7	0.00e+00	0	41	0	173015040	60	4213
2026-01-30 01:53:22.49	24.96	12.08	-44.6	-45.8	20.7	0.00e+00	0	41	0	180355072	60	4233
2026-01-30 01:53:26.52	24.75	12.44	-44.4	-45.7	20.8	0.00e+00	0	41	0	187695104	60	4158
2026-01-30 01:53:30.55	24.52	12.81	-44.3	-45.5	21.0	0.00e+00	0	41	0	195035136	60	4072
2026-01-30 01:53:34.58	24.30	13.19	-44.2	-45.4	21.1	0.00e+00	0	41	0	203423744	60	4041
2026-01-30 01:53:38.61	24.06	13.58	-44.3	-45.5	21.1	0.00e+00	0	41	0	210763776	60	4065
2026-01-30 01:53:42.63	23.82	13.96	-44.2	-45.4	21.2	0.00e+00	0	41	0	218103808	60	4028
2026-01-30 01:53:46.66	23.57	14.36	-44.3	-45.4	21.2	0.00e+00	0	41	0	225443840	60	4050
2026-01-30 01:53:50.69	23.31	14.76	-44.1	-45.2	21.4	0.00e+00	0	41	0	232783872	60	3947
2026-01-30 01:53:54.72	23.05	15.16	-44.0	-45.2	21.5	0.00e+00	0	41	0	240123904	60	3915
2026-01-30 01:53:58.75	22.78	15.58	-44.1	-45.2	21.4	0.00e+00	0	41	0	248512512	60	3941
2026-01-30 01:54:02.78	22.50	15.99	-44.5	-45.7	21.3	0.00e+00	0	41	0	255852544	59	4395
2026-01-30 01:54:06.81	22.21	16.42	-44.5	-45.7	21.2	0.00e+00	0	41	0	263192576	59	4413
2026-01-30 01:54:10.82	21.91	16.85	-44.6	-45.8	21.3	0.00e+00	0	41	0	270532608	59	4450
2026-01-30 01:54:14.86	21.61	17.29	-44.6	-45.9	21.2	0.00e+00	0	41	0	278921216	59	4497
2026-01-30 01:54:18.88	21.29	17.74	-44.6	-45.8	21.2	0.00e+00	0	41	0	286261248	59	4467
2026-01-30 01:54:22.91	20.97	18.19	-44.6	-45.8	21.2	0.00e+00	0	41	0	293601280	59	4493
2026-01-30 01:54:26.93	20.63	18.65	-44.5	-45.7	21.4	0.00e+00	0	41	0	300941312	59	4422
2026-01-30 01:54:30.96	20.29	19.12	-44.6	-45.8	21.4	0.00e+00	0	41	0	308281344	59	4452
2026-01-30 01:54:34.99	19.93	19.59	-44.6	-45.8	21.4	0.00e+00	0	41	0	316669952	59	4453
2026-01-30 01:54:39.02	19.56	20.08	-44.4	-45.6	21.3	0.00e+00	0	41	0	324009984	60	4126
2026-01-30 01:54:43.04	19.18	20.57	-44.5	-45.6	21.3	0.00e+00	0	41	0	331350016	60	4144
2026-01-30 01:54:47.07	18.78	21.07	-44.6	-45.8	21.1	0.00e+00	0	41	0	338690048	60	4227
2026-01-30 01:54:51.10	18.37	21.58	-45.0	-46.2	20.8	0.00e+00	0	41	0	346030080	60	4416
2026-01-30 01:54:55.12	17.95	22.09	-45.0	-46.3	20.7	0.00e+00	0	41	0	353370112	60	4454
2026-01-30 01:54:59.15	17.51	22.62	-45.0	-46.3	20.7	0.00e+00	0	41	0	361758720	60	4473
2026-01-30 01:55:03.17	17.06	23.16	-45.2	-46.5	20.6	0.00e+00	0	41	0	369098752	60	4562
2026-01-30 01:55:07.20	16.59	23.70	-45.5	-46.8	20.3	0.00e+00	0	41	0	376438784	61	4464
2026-01-30 01:55:11.22	16.10	24.25	-45.6	-47.0	20.1	0.00e+00	0	41	0	383778816	61	4576
2026-01-30 01:55:15.25	15.60	24.82	-45.9	-47.3	19.8	0.00e+00	0	41	0	392167424	62	4475
2026-01-30 01:55:19.27	15.07	25.39	-46.0	-47.4	19.7	0.00e+00	0	41	0	399507456	62	4535
2026-01-30 01:55:23.30	14.53	25.97	-46.1	-47.6	19.6	0.00e+00	0	41	0	406847488	62	4608
2026-01-30 01:55:27.33	13.96	26.57	-46.3	-47.8	19.5	0.00e+00	0	41	0	414187520	63	4443
2026-01-30 01:55:31.35	13.38	27.17	-46.0	-47.4	19.8	0.00e+00	0	41	0	421527552	63	4243
2026-01-30 01:55:35.38	12.77	27.78	-46.1	-47.5	19.7	0.00e+00	0	41	0	429916160	63	4312
2026-01-30 01:55:39.40	12.13	28.41	-46.0	-47.4	19.9	0.00e+00	0	41	0	437256192	63	4250
2026-01-30 01:55:43.43	11.47	29.04	-45.9	-47.3	19.9	0.00e+00	0	41	0	444596224	63	4210
2026-01-30 01:55:47.45	10.78	29.68	-46.0	-47.4	19.9	0.00e+00	0	41	0	451936256	63	4247
2026-01-30 01:55:51.48	10.06	30.33	-46.4	-47.9	19.4	0.00e+00	0	41	0	459276288	63	4499
2026-01-30 01:55:55.51	9.31	31.00	-46.5	-48.0	19.3	0.00e+00	0	41	0	466616320	63	4575
2026-01-30 01:55:59.54	8.53	31.67	-46.6	-48.2	19.1	0.00e+00	0	41	0	475004928	64	4428
2026-01-30 01:56:03.57	7.72	32.35	-46.8	-48.4	18.9	0.00e+00	0	41	0	482344960	64	4525
2026-01-30 01:56:07.60	6.87	33.04	-47.1	-48.8	18.5	0.00e+00	0	41	0	489684992	64	4724
2026-01-30 01:56:11.63	5.98	33.74	-47.2	-48.9	18.5	0.00e+00	0	41	0	497025024	65	4519
2026-01-30 01:56:15.65	5.05	34.45	-46.9	-48.5	18.8	0.00e+00	0	41	0	505413632	65	4310
2026-01-30 01:56:19.68	4.08	35.16	-46.5	-47.9	19.4	0.00e+00	0	41	0	512753664	64	4290
2026-01-30 01:56:23.71	3.07	35.88	-46.4	-47.9	19.4	0.00e+00	0	41	0	520093696	64	4278
2026-01-30 01:56:27.75	2.01	36.61	-46.4	-47.9	19.5	0.00e+00	0	41	0	527433728	64	4248
2026-01-30 01:56:31.77	0.90	37.34	-46.6	-48.0	19.4	0.00e+00	0	41	0	534773760	64	4334
2026-01-30 01:56:35.79	359.74	38.07	-47.0	-48.5	18.9	0.00e+00	0	41	0	543162368	64	4590
2026-01-30 01:56:39.81	358.53	38.80	-46.9	-48.4	19.0	0.00e+00	0	41	0	550502400	64	4537
2026-01-30 01:56:43.84	357.26	39.54	-46.9	-48.5	19.0	0.00e+00	0	41	0	557842432	64	4570
2026-01-30 01:56:47.87	355.93	40.27	-46.6	-48.1	19.4	0.00e+00	0	41	0	565182464	64	4345
2026-01-30 01:56:51.90	354.53	41.00	-47.0	-48.6	18.9	0.00e+00	0	42	0	572522496	64	4625
2026-01-30 01:56:55.93	353.08	41.73	-47.4	-49.1	18.4	0.00e+00	0	41	0	579862528	65	4642
2026-01-30 01:56:59.97	351.55	42.44	-47.4	-49.0	18.5	0.00e+00	0	41	0	588251136	65	4585
2026-01-30 01:57:03.99	349.96	43.15	-47.5	-49.3	18.3	0.00e+00	0	41	0	595591168	66	4446
2026-01-30 01:57:08.02	348.29	43.84	-46.9	-48.4	19.1	0.00e+00	0	41	0	602931200	65	4282
2026-01-30 01:57:12.05	346.55	44.52	-46.7	-48.1	19.4	0.00e+00	0	41	0	610271232	65	4136
2026-01-30 01:57:16.08	344.73	45.18	-46.0	-47.3	20.3	0.00e+00	0	41	0	618659840	64	3971
2026-01-30 01:57:20.11	342.84	45.81	-45.7	-47.0	20.6	0.00e+00	0	41	0	625999872	63	4085
2026-01-30 01:57:24.14	340.87	46.42	-46.0	-47.3	20.4	0.00e+00	0	41	0	633339904	63	4215
2026-01-30 01:57:28.18	338.82	47.00	-46.0	-47.3	20.3	0.00e+00	0	41	0	640679936	63	4230
2026-01-30 01:57:32.21	336.70	47.55	-46.5	-47.9	19.9	0.00e+00	0	41	0	648019968	63	4506
2026-01-30 01:57:36.24	334.51	48.05	-46.8	-48.3	19.4	0.00e+00	0	41	0	656408576	64	4459
2026-01-30 01:57:40.27	332.24	48.52	-47.4	-49.0	18.7	0.00e+00	0	41	0	663748608	65	4574
2026-01-30 01:57:44.29	329.92	48.93	-48.6	-50.6	17.2	0.00e+00	0	41	0	671088640	67	4904
2026-01-30 01:57:48.32	327.53	49.30	-48.9	-51.0	17.0	0.00e+00	0	41	0	678428672	68	4820
2026-01-30 01:57:52.35	325.08	49.62	-47.9	-49.7	18.1	0.00e+00	0	41	0	686817280	67	4423
2026-01-30 01:57:56.38	322.59	49.88	-46.5	-47.9	19.8	0.00e+00	0	41	0	694157312	65	4033
2026-01-30 01:58:00.41	320.06	50.09	-46.1	-47.4	20.5	0.00e+00	0	41	0	701497344	63	4279
2026-01-30 01:58:04.44	317.50	50.24	-45.9	-47.2	20.6	0.00e+00	0	41	0	708837376	63	4155
2026-01-30 01:58:08.47	314.92	50.32	-44.9	-46.0	21.7	0.00e+00	0	41	0	716177408	61	4092
2026-01-30 01:58:12.49	312.33	50.34	-45.6	-46.8	21.1	0.00e+00	0	41	0	723517440	61	4460
2026-01-30 01:58:16.53	309.74	50.30	-45.3	-46.5	21.4	0.00e+00	0	41	0	731906048	61	4295
2026-01-30 01:58:20.55	307.16	50.20	-45.4	-46.6	21.2	0.00e+00	0	41	0	739246080	61	4346
2026-01-30 01:58:24.58	304.61	50.04	-45.8	-47.0	20.9	0.00e+00	0	41	0	746586112	62	4317
2026-01-30 01:58:28.61	302.09	49.82	-45.5	-46.7	21.2	0.00e+00	0	41	0	753926144	62	4155
2026-01-30 01:58:32.65	299.60	49.54	-45.9	-47.2	20.6	0.00e+00	0	41	0	762314752	62	4415
2026-01-30 01:58:36.68	297.17	49.20	-46.0	-47.3	20.7	0.00e+00	0	41	0	769654784	63	4199
2026-01-30 01:58:40.70	294.80	48.82	-46.5	-47.9	20.0	0.00e+00	0	41	0	776994816	63	4521
2026-01-30 01:58:44.73	292.48	48.39	-46.5	-47.9	19.9	0.00e+00	0	41	0	784334848	64	4270
2026-01-30 01:58:48.74	290.25	47.91	-47.2	-48.8	19.1	0.00e+00	0	41	0	791674880	65	4459
2026-01-30 01:58:52.76	288.08	47.39	-46.8	-48.2	19.6	0.00e+00	0	41	0	800063488	65	4174
2026-01-30 01:58:56.79	285.97	46.84	-47.5	-49.2	18.7	0.00e+00	0	41	0	807403520	65	4652
2026-01-30 01:59:00.81	283.95	46.25	-46.1	-47.4	20.4	0.00e+00	0	41	0	814743552	64	4008
2026-01-30 01:59:04.84	282.00	45.64	-46.5	-47.9	20.0	0.00e+00	0	41	0	822083584	63	4497
2026-01-30 01:59:08.87	280.13	44.99	-45.4	-46.6	21.2	0.00e+00	0	41	0	829423616	62	4137
2026-01-30 01:59:12.90	278.33	44.33	-46.0	-47.2	20.7	0.00e+00	0	41	0	836763648	62	4436
2026-01-30 01:59:16.93	276.61	43.65	-45.2	-46.3	21.5	0.00e+00	0	41	0	845152256	62	3993
2026-01-30 01:59:20.95	274.96	42.95	-46.1	-47.3	20.5	0.00e+00	0	41	0	852492288	63	4239
2026-01-30 01:59:24.98	273.39	42.24	-45.6	-46.9	21.0	0.00e+00	0	41	0	859832320	63	4007
2026-01-30 01:59:29.01	271.88	41.51	-45.4	-46.6	21.2	0.00e+00	0	41	0	867172352	62	4105
2026-01-30 01:59:33.03	270.44	40.79	-45.8	-47.0	20.8	0.00e+00	0	41	0	874512384	62	4320
2026-01-30 01:59:37.07	269.05	40.05	-46.1	-47.4	20.3	0.00e+00	0	41	0	882900992	62	4523
2026-01-30 01:59:41.09	267.74	39.32	-46.4	-47.7	20.0	0.00e+00	0	41	0	890241024	63	4441
2026-01-30 01:59:45.12	266.48	38.58	-47.1	-48.6	19.0	0.00e+00	0	41	0	897581056	64	4649
2026-01-30 01:59:49.15	265.28	37.84	-46.9	-48.4	19.2	0.00e+00	0	41	0	904921088	64	4521
2026-01-30 01:59:53.19	264.13	37.11	-47.6	-49.3	18.4	0.00e+00	0	42	0	913309696	66	4448
2026-01-30 01:59:57.22	263.03	36.38	-47.6	-49.4	18.3	0.00e+00	0	41	0	920649728	66	4507
2026-01-30 02:00:01.24	261.98	35.65	-47.9	-49.7	17.9	0.00e+00	0	41	0	927989760	67	4404
2026-01-30 02:00:05.28	260.98	34.93	-47.6	-49.3	18.4	0.00e+00	0	41	0	935329792	66	4453
2026-01-30 02:00:09.32	260.02	34.22	-47.9	-49.7	18.0	0.00e+00	0	41	0	942669824	66	4660
2026-01-30 02:00:13.35	259.10	33.51	-47.5	-49.2	18.4	0.00e+00	0	41	0	951058432	66	4407
2026-01-30 02:00:17.38	258.22	32.81	-47.4	-49.0	18.6	0.00e+00	0	41	0	958398464	66	4330
2026-01-30 02:00:21.41	257.38	32.12	-47.1	-48.7	18.7	0.00e+00	0	41	0	965738496	65	4436
2026-01-30 02:00:25.45	256.57	31.44	-47.3	-49.0	18.5	0.00e+00	0	41	0	973078528	65	4595
2026-01-30 02:00:29.47	255.80	30.77	-47.7	-49.5	18.0	0.00e+00	0	41	0	980418560	66	4591
2026-01-30 02:00:33.50	255.05	30.11	-46.8	-48.3	19.1	0.00e+00	0	41	0	988807168	65	4230
2026-01-30 02:00:37.51	254.35	29.46	-46.8	-48.3	19.0	0.00e+00	0	41	0	996147200	65	4240
2026-01-30 02:00:41.55	253.66	28.81	-46.9	-48.5	18.9	0.00e+00	0	41	0	1003487232	65	4295
2026-01-30 02:00:45.58	253.00	28.18	-46.0	-47.4	19.9	0.00e+00	0	41	0	1010827264	64	4034
2026-01-30 02:00:49.60	252.38	27.56	-46.1	-47.5	19.9	0.00e+00	0	41	0	1018167296	63	4296
2026-01-30 02:00:53.63	251.77	26.95	-46.1	-47.4	19.9	0.00e+00	0	41	0	1026555904	63	4286
2026-01-30 02:00:57.67	251.18	26.34	-45.8	-47.1	20.3	0.00e+00	0	41	0	1033895936	63	4111
2026-01-30 02:01:01.69	250.62	25.75	-46.3	-47.8	19.6	0.00e+00	0	41	0	1041235968	63	4447
2026-01-30 02:01:05.72	250.08	25.17	-46.2	-47.6	19.7	0.00e+00	0	41	0	1048576000	63	4361
2026-01-30 02:01:09.75	249.56	24.60	-45.8	-47.1	20.2	0.00e+00	0	41	0	1055916032	63	4142
2026-01-30 02:01:13.78	249.06	24.04	-45.7	-47.0	20.3	0.00e+00	0	41	0	1064304640	63	4085
2026-01-30 02:01:17.81	248.58	23.48	-45.7	-47.1	20.2	0.00e+00	0	41	0	1071644672	63	4110
2026-01-30 02:01:21.83	248.11	22.94	-45.6	-47.0	20.2	0.00e+00	0	41	0	1078984704	63	4069
2026-01-30 02:01:25.86	247.66	22.41	-45.7	-47.0	20.2	0.00e+00	0	41	0	1086324736	63	4086
2026-01-30 02:01:29.88	247.22	21.88	-45.7	-47.0	20.2	0.00e+00	0	41	0	1093664768	63	4089
2026-01-30 02:01:33.91	246.80	21.37	-45.7	-47.0	20.2	0.00e+00	0	41	0	1102053376	63	4064
2026-01-30 02:01:37.93	246.40	20.86	-45.4	-46.7	20.5	0.00e+00	0	41	0	1109393408	62	4146
2026-01-30 02:01:41.96	246.01	20.36	-45.5	-46.8	20.3	0.00e+00	0	41	0	1116733440	62	4212
2026-01-30 02:01:46.00	245.62	19.87	-45.5	-46.9	20.3	0.00e+00	0	41	0	1124073472	62	4247
2026-01-30 02:01:50.03	245.26	19.38	-45.4	-46.7	20.4	0.00e+00	0	41	0	1131413504	62	4180
2026-01-30 02:01:54.06	244.90	18.91	-45.4	-46.7	20.3	0.00e+00	0	41	0	1139802112	62	4189
2026-01-30 02:01:58.08	244.56	18.44	-45.7	-47.1	20.0	0.00e+00	0	41	0	1147142144	62	4371
2026-01-30 02:02:02.11	244.22	17.98	-46.0	-47.4	19.6	0.00e+00	0	41	0	1154482176	62	4545
2026-01-30 02:02:06.14	243.90	17.53	-46.1	-47.5	19.5	0.00e+00	0	41	0	1161822208	62	4583
2026-01-30 02:02:10.17	243.58	17.09	-45.9	-47.4	19.7	0.00e+00	0	41	0	1170210816	62	4498
2026-01-30 02:02:14.20	243.28	16.65	-46.0	-47.5	19.6	0.00e+00	0	41	0	1177550848	62	4549
2026-01-30 02:02:18.23	242.98	16.22	-45.9	-47.4	19.7	0.00e+00	0	41	0	1184890880	62	4501
2026-01-30 02:02:22.26	242.69	15.79	-45.7	-47.1	19.9	0.00e+00	0	41	0	1192230912	62	4352
2026-01-30 02:02:26.29	242.42	15.38	-45.5	-46.8	20.1	0.00e+00	0	41	0	1199570944	62	4241
2026-01-30 02:02:30.32	242.14	14.97	-45.8	-47.3	19.7	0.00e+00	0	41	0	1206910976	62	4448
2026-01-30 02:02:34.34	241.88	14.56	-46.3	-47.8	19.1	0.00e+00	0	41	0	1215299584	63	4470
2026-01-30 02:02:38.37	241.63	14.16	-46.6	-48.2	18.7	0.00e+00	0	41	0	1222639616	63	4686
2026-01-30 02:02:42.39	241.38	13.77	-46.4	-48.0	18.9	0.00e+00	0	41	0	1229979648	63	4584
2026-01-30 02:02:46.42	241.14	13.38	-46.3	-47.9	19.0	0.00e+00	0	41	0	1237319680	63	4522
2026-01-30 02:02:50.45	240.90	13.00	-46.5	-48.1	18.7	0.00e+00	0	41	0	1245708288	63	4637
2026-01-30 02:02:54.48	240.67	12.62	-46.6	-48.3	18.5	0.00e+00	0	41	0	1253048320	63	4741
2026-01-30 02:02:58.51	240.45	12.25	-46.7	-48.4	18.3	0.00e+00	0	41	0	1260388352	64	4520
2026-01-30 02:03:02.54	240.23	11.89	-46.5	-48.2	18.5	0.00e+00	0	41	0	1267728384	64	4424
2026-01-30 02:03:06.57	240.02	11.52	-46.4	-48.1	18.6	0.00e+00	0	41	0	1275068416	64	4341
2026-01-30 02:03:10.60	239.81	11.17	-46.1	-47.6	19.0	0.00e+00	0	41	0	1283457024	64	4136
2026-01-30 02:03:14.63	239.61	10.82	-46.1	-47.7	18.9	0.00e+00	0	41	0	1290797056	64	4159
2026-01-30 02:03:18.66	239.41	10.47	-46.4	-48.1	18.5	0.00e+00	0	41	0	1298137088	64	4358
2026-01-30 02:03:22.68	239.22	10.13	-46.6	-48.4	18.1	0.00e+00	0	41	0	1305477120	64	4526
2026-01-30 02:03:26.72	239.04	9.79	-46.9	-48.8	17.7	0.00e+00	0	41	0	1312817152	64	4721
2026-01-30 02:03:30.75	238.85	9.45	-46.7	-48.5	17.9	0.00e+00	0	41	0	1321205760	64	4596
2026-01-30 02:03:34.78	238.68	9.12	-46.7	-48.5	17.9	0.00e+00	0	41	0	1328545792	64	4597
2026-01-30 02:03:38.82	238.50	8.80	-46.8	-48.7	17.8	0.00e+00	0	41	0	1335885824	64	4662
2026-01-30 02:03:42.85	238.33	8.48	-46.7	-48.5	17.9	0.00e+00	0	41	0	1343225856	64	4567
2026-01-30 02:03:46.89	238.17	8.16	-46.8	-48.7	17.6	0.00e+00	0	41	0	1350565888	64	4693
2026-01-30 02:03:50.92	238.01	7.84	-46.9	-48.8	17.5	0.00e+00	0	41	0	1358954496	64	4753
2026-01-30 02:03:54.95	237.85	7.53	-47.1	-49.1	17.2	0.00e+00	0	41	0	1366294528	64	4877
2026-01-30 02:03:58.98	237.69	7.22	-47.2	-49.2	17.0	0.00e+00	0	41	0	1373634560	64	4982
2026-01-30 02:04:03.01	237.54	6.92	-47.2	-49.3	16.8	0.00e+00	0	41	0	1380974592	65	4752
2026-01-30 02:04:07.03	237.40	6.62	-47.3	-49.5	16.7	0.00e+00	0	41	0	1388314624	65	4819
2026-01-30 02:04:11.07	237.25	6.32	-47.2	-49.3	16.8	0.00e+00	0	41	0	1396703232	65	4726
2026-01-30 02:04:15.10	237.11	6.03	-47.5	-49.7	16.5	0.00e+00	0	41	0	1404043264	65	4945
2026-01-30 02:04:19.13	236.97	5.74	-47.5	-49.7	16.4	0.00e+00	0	41	0	1411383296	65	4979
2026-01-30 02:04:23.15	236.84	5.45	-47.5	-49.8	16.3	0.00e+00	0	41	0	1418723328	65	5001
2026-01-30 02:04:27.19	236.70	5.17	-47.7	-50.0	16.0	0.00e+00	0	41	0	1426063360	66	4858
2026-01-30 02:04:31.23	236.57	4.88	-52.9	-67.9	3.8	1.49e+00	0	41	104	1431306240	76	21337
2026-01-30 02:04:35.26	236.45	4.60	-53.4	-68.4	3.8	1.49e+00	0	41	104	1431306240	77	21412
2026-01-30 02:04:39.28	236.32	4.33	-53.5	-68.5	3.8	1.49e+00	0	42	104	1431306240	77	21570
2026-01-30 02:04:43.32	236.20	4.05	-53.4	-68.4	3.8	1.49e+00	0	41	104	1431306240	77	21310
2026-01-30 02:04:47.34	236.08	3.78	-53.3	-68.3	3.8	1.49e+00	0	41	104	1431306240	77	21047
2026-01-30 02:04:51.37	235.97	3.51	-53.4	-68.4	3.8	1.49e+00	0	41	104	1431306240	77	21303
2026-01-30 02:04:55.41	235.85	3.25	-53.3	-68.3	3.8	1.49e+00	0	41	104	1431306240	77	21024
2026-01-30 02:04:59.44	235.74	2.98	-53.2	-68.2	3.8	1.49e+00	0	42	104	1431306240	77	20911
2026-01-30 02:05:03.47	235.63	2.72	-53.2	-68.2	3.8	1.49e+00	0	41	104	1431306240	77	20864
2026-01-30 02:05:07.49	235.52	2.46	-53.2	-68.1	3.8	1.49e+00	0	42	104	1431306240	77	20760
2026-01-30 02:05:11.53	235.42	2.21	-53.1	-68.1	3.8	1.49e+00	0	41	104	1431306240	77	20686

#Closed at: 2026-01-30 02:05:14
#Recorded file [1431 MB]: D:/lorett/data/31041_260130_045109.dat