passes_logs/2026/01/30/R3.2S_Murmansk/R3.2S_Murmansk__20260130_124144_NOAA_21_JPSS-2_rec.log

#Pass ID: 20260130_124144_NOAA 21 (JPSS-2)
#Satellite: NOAA 21 (JPSS-2)
#Configuration: NOAA-21
#almurnet v.1.7.20251203
#Start time: 2026-01-30 12:41:45

#Version: 2.2.20231116
#Station: R3.2S_Murmansk
#Location: 33.079688 lon 68.888172 lat
#TLE: 1 54234U 22150A   26029.46216196  .00000141  00000+0  87503-4 0  9994
#TLE: 2 54234  98.7512 330.1880 0000955 196.3413 163.7732 14.19540905166865

#Time	Az	El	Level	Level2	SNR	BER	BlckErr	Temp	State	Recorded	gain1	gain2
2026-01-30 12:41:45.46	233.81	2.03	-54.2	-66.9	3.8	1.49e+00	0	39	0	0	79	16056
2026-01-30 12:41:48.49	234.08	2.17	-54.1	-66.9	3.8	1.49e+00	0	39	104	0	78	16914
2026-01-30 12:41:51.52	234.36	2.32	-54.1	-66.9	3.8	1.49e+00	0	39	104	0	78	16912
2026-01-30 12:41:54.54	234.64	2.46	-54.1	-66.9	3.8	1.49e+00	0	39	104	0	78	16893
2026-01-30 12:41:57.56	234.93	2.61	-54.4	-67.2	3.8	1.49e+00	0	39	104	0	79	16627
2026-01-30 12:42:00.59	235.22	2.76	-54.5	-67.3	3.8	1.49e+00	0	40	104	0	79	16802
2026-01-30 12:42:03.61	235.51	2.90	-54.4	-67.1	3.8	1.49e+00	0	40	104	0	79	16503
2026-01-30 12:42:06.63	235.80	3.05	-54.3	-67.0	3.8	1.49e+00	0	40	104	0	79	16265
2026-01-30 12:42:09.66	236.09	3.20	-54.1	-66.8	3.8	1.49e+00	0	40	104	0	79	15867
2026-01-30 12:42:12.68	236.39	3.34	-53.8	-66.6	3.8	1.49e+00	0	40	104	0	79	15403
2026-01-30 12:42:15.70	236.69	3.49	-53.3	-66.1	3.8	1.49e+00	0	40	104	0	78	15495
2026-01-30 12:42:18.72	237.00	3.64	-52.5	-65.2	3.8	1.49e+00	0	40	104	0	77	14767
2026-01-30 12:42:21.74	237.30	3.78	-52.5	-65.2	3.8	1.49e+00	0	40	104	0	76	15665
2026-01-30 12:42:24.77	237.61	3.93	-52.4	-65.1	3.8	1.49e+00	0	40	104	0	76	15411
2026-01-30 12:42:27.79	237.93	4.08	-52.4	-65.0	3.8	1.49e+00	0	40	104	0	76	15228
2026-01-30 12:42:30.80	238.24	4.23	-52.4	-65.1	3.8	1.49e+00	0	40	104	0	76	15457
2026-01-30 12:42:33.82	238.56	4.37	-52.4	-65.0	3.8	1.49e+00	0	40	104	0	76	15309
2026-01-30 12:42:36.85	238.88	4.52	-52.4	-64.9	3.8	1.49e+00	0	40	104	0	76	15112
2026-01-30 12:42:39.87	239.21	4.67	-52.3	-64.3	3.8	1.49e+00	0	40	104	0	76	14096
2026-01-30 12:42:42.89	239.53	4.82	-52.0	-61.2	4.3	1.46e+00	0	40	104	0	76	9854
2026-01-30 12:42:45.92	239.87	4.97	-49.3	-52.4	11.5	1.21e-03	0	40	0	6291456	70	5064
2026-01-30 12:42:48.94	240.20	5.11	-51.6	-58.9	5.4	1.58e-01	0	40	0	15728640	73	8996
2026-01-30 12:42:51.97	240.54	5.26	-45.5	-46.8	17.0	5.55e-02	0	40	104	22020096	61	4487
2026-01-30 12:42:54.98	240.88	5.41	-45.0	-46.3	17.7	0.00e+00	0	40	0	31457280	61	4209
2026-01-30 12:42:58.01	241.22	5.56	-45.0	-46.3	17.6	0.00e+00	0	40	0	40894464	61	4242
2026-01-30 12:43:01.03	241.57	5.71	-44.5	-45.7	18.3	0.00e+00	0	40	0	49283072	60	4164
2026-01-30 12:43:04.05	241.92	5.85	-44.3	-45.5	18.5	0.00e+00	0	41	0	58720256	60	4057
2026-01-30 12:43:07.07	242.28	6.00	-44.3	-45.5	18.6	0.00e+00	0	40	0	69206016	60	4063
2026-01-30 12:43:10.10	242.64	6.15	-44.1	-45.3	18.8	0.00e+00	0	41	0	78643200	60	3972
2026-01-30 12:43:13.13	243.00	6.30	-44.3	-45.4	18.6	0.00e+00	0	41	0	88080384	60	4038
2026-01-30 12:43:16.15	243.36	6.45	-44.3	-45.5	18.9	0.00e+00	0	41	0	96468992	59	4292
2026-01-30 12:43:19.18	243.73	6.59	-44.4	-45.6	18.8	0.00e+00	0	41	0	106954752	59	4354
2026-01-30 12:43:22.20	244.11	6.74	-44.2	-45.3	19.1	0.00e+00	0	40	0	116391936	59	4225
2026-01-30 12:43:25.23	244.48	6.89	-44.1	-45.2	19.2	0.00e+00	0	40	0	125829120	59	4187
2026-01-30 12:43:28.26	244.86	7.04	-43.9	-45.0	19.4	0.00e+00	0	41	0	135266304	59	4093
2026-01-30 12:43:31.28	245.25	7.18	-44.0	-45.0	19.4	0.00e+00	0	41	0	144703488	59	4096
2026-01-30 12:43:34.30	245.63	7.33	-43.8	-44.8	19.6	0.00e+00	0	41	0	154140672	59	4002
2026-01-30 12:43:37.33	246.02	7.48	-43.8	-44.9	19.6	0.00e+00	0	41	0	163577856	59	4029
2026-01-30 12:43:40.35	246.42	7.62	-43.7	-44.7	19.7	0.00e+00	0	41	0	173015040	59	3946
2026-01-30 12:43:43.38	246.82	7.77	-43.7	-44.8	19.7	0.00e+00	0	41	0	182452224	59	3979
2026-01-30 12:43:46.40	247.22	7.91	-43.6	-44.7	19.7	0.00e+00	0	41	0	191889408	59	3928
2026-01-30 12:43:49.43	247.63	8.06	-43.8	-44.9	19.6	0.00e+00	0	41	0	201326592	59	4007
2026-01-30 12:43:52.46	248.04	8.20	-43.8	-44.9	19.6	0.00e+00	0	41	0	210763776	59	4010
2026-01-30 12:43:55.48	248.45	8.35	-43.8	-44.8	19.7	0.00e+00	0	41	0	220200960	59	3987
2026-01-30 12:43:58.50	248.87	8.49	-43.6	-44.7	19.8	0.00e+00	0	41	0	229638144	59	3931
2026-01-30 12:44:01.53	249.29	8.63	-43.5	-44.5	20.0	0.00e+00	0	41	0	239075328	58	4064
2026-01-30 12:44:04.56	249.72	8.78	-43.4	-44.4	20.0	0.00e+00	0	41	0	248512512	58	4030
2026-01-30 12:44:07.58	250.15	8.92	-43.4	-44.3	20.1	0.00e+00	0	41	0	257949696	58	3995
2026-01-30 12:44:10.61	250.58	9.06	-43.2	-44.2	20.3	0.00e+00	0	41	0	267386880	58	3927
2026-01-30 12:44:13.63	251.02	9.20	-43.2	-44.2	20.2	0.00e+00	0	41	0	276824064	58	3952
2026-01-30 12:44:16.66	251.46	9.34	-43.1	-44.0	20.4	0.00e+00	0	41	0	286261248	58	3852
2026-01-30 12:44:19.68	251.91	9.48	-43.2	-44.2	20.2	0.00e+00	0	40	0	295698432	58	3939
2026-01-30 12:44:22.71	252.36	9.62	-43.2	-44.1	20.4	0.00e+00	0	41	0	305135616	58	3904
2026-01-30 12:44:25.73	252.81	9.76	-43.1	-44.0	20.5	0.00e+00	0	41	0	314572800	58	3863
2026-01-30 12:44:28.75	253.27	9.89	-43.0	-44.0	20.6	0.00e+00	0	41	0	324009984	58	3835
2026-01-30 12:44:31.79	253.74	10.03	-42.9	-43.8	20.7	0.00e+00	0	41	0	333447168	57	4000
2026-01-30 12:44:34.81	254.20	10.17	-43.0	-43.9	20.6	0.00e+00	0	41	0	342884352	57	4024
2026-01-30 12:44:37.83	254.67	10.30	-42.7	-43.6	20.8	0.00e+00	0	41	0	352321536	57	3905
2026-01-30 12:44:40.85	255.15	10.43	-42.7	-43.6	20.9	0.00e+00	0	41	0	361758720	57	3879
2026-01-30 12:44:43.88	255.63	10.57	-42.8	-43.7	20.7	0.00e+00	0	41	0	371195904	57	3940
2026-01-30 12:44:46.90	256.11	10.70	-42.8	-43.7	20.7	0.00e+00	0	41	0	380633088	57	3957
2026-01-30 12:44:49.93	256.60	10.83	-42.8	-43.7	20.8	0.00e+00	0	41	0	390070272	57	3928
2026-01-30 12:44:52.95	257.09	10.96	-42.7	-43.6	20.9	0.00e+00	0	41	0	399507456	57	3883
2026-01-30 12:44:55.97	257.59	11.09	-42.8	-43.8	20.8	0.00e+00	0	41	0	408944640	57	3964
2026-01-30 12:44:59.00	258.09	11.21	-43.0	-43.9	20.6	0.00e+00	0	41	0	418381824	57	4035
2026-01-30 12:45:02.03	258.59	11.34	-43.0	-43.9	20.6	0.00e+00	0	41	0	427819008	57	4037
2026-01-30 12:45:05.05	259.10	11.46	-43.0	-44.0	20.6	0.00e+00	0	41	0	437256192	57	4055
2026-01-30 12:45:08.08	259.62	11.58	-43.0	-43.9	20.7	0.00e+00	0	41	0	446693376	57	4042
2026-01-30 12:45:11.11	260.13	11.71	-42.9	-43.8	20.7	0.00e+00	0	41	0	456130560	57	3990
2026-01-30 12:45:14.13	260.65	11.83	-42.6	-43.5	21.0	0.00e+00	0	41	0	465567744	57	3854
2026-01-30 12:45:17.15	261.18	11.94	-42.6	-43.5	21.0	0.00e+00	0	41	0	475004928	57	3867
2026-01-30 12:45:20.18	261.71	12.06	-42.9	-43.8	20.8	0.00e+00	0	41	0	484442112	57	3974
2026-01-30 12:45:23.20	262.24	12.17	-42.9	-43.9	20.8	0.00e+00	0	41	0	493879296	57	4005
2026-01-30 12:45:26.22	262.78	12.29	-42.9	-43.9	20.7	0.00e+00	0	41	0	503316480	57	4014
2026-01-30 12:45:29.24	263.32	12.40	-42.9	-43.8	20.8	0.00e+00	0	41	0	512753664	57	3994
2026-01-30 12:45:32.27	263.86	12.51	-42.8	-43.7	20.9	0.00e+00	0	41	0	522190848	57	3939
2026-01-30 12:45:35.30	264.41	12.62	-42.9	-43.8	20.8	0.00e+00	0	41	0	531628032	57	3978
2026-01-30 12:45:38.32	264.96	12.72	-42.9	-43.8	20.8	0.00e+00	0	41	0	541065216	57	3996
2026-01-30 12:45:41.35	265.52	12.83	-42.7	-43.7	20.9	0.00e+00	0	41	0	550502400	57	3915
2026-01-30 12:45:44.37	266.08	12.93	-42.7	-43.6	20.9	0.00e+00	0	41	0	559939584	57	3902
2026-01-30 12:45:47.39	266.65	13.03	-42.6	-43.5	21.0	0.00e+00	0	41	0	569376768	57	3839
2026-01-30 12:45:50.41	267.21	13.12	-42.7	-43.6	20.9	0.00e+00	0	41	0	578813952	57	3884
2026-01-30 12:45:53.44	267.78	13.22	-42.7	-43.6	21.0	0.00e+00	0	41	0	588251136	57	3875
2026-01-30 12:45:56.46	268.36	13.31	-42.6	-43.5	21.1	0.00e+00	0	41	0	597688320	57	3829
2026-01-30 12:45:59.49	268.94	13.40	-42.6	-43.5	21.0	0.00e+00	0	41	0	607125504	57	3865
2026-01-30 12:46:02.50	269.52	13.49	-42.8	-43.7	20.9	0.00e+00	0	41	0	616562688	57	3941
2026-01-30 12:46:05.53	270.10	13.58	-42.7	-43.6	21.0	0.00e+00	0	41	0	625999872	57	3904
2026-01-30 12:46:08.56	270.69	13.66	-42.6	-43.5	21.1	0.00e+00	0	41	0	635437056	57	3846
2026-01-30 12:46:11.58	271.28	13.74	-42.6	-43.4	21.2	0.00e+00	0	41	0	644874240	56	4048
2026-01-30 12:46:14.60	271.88	13.82	-42.5	-43.4	21.2	0.00e+00	0	40	0	654311424	56	4043
2026-01-30 12:46:17.62	272.47	13.90	-42.6	-43.5	21.1	0.00e+00	0	41	0	663748608	56	4090
2026-01-30 12:46:20.65	273.07	13.97	-42.4	-43.2	21.3	0.00e+00	0	41	0	673185792	56	3955
2026-01-30 12:46:23.67	273.68	14.04	-42.5	-43.4	21.2	0.00e+00	0	41	0	683671552	56	4010
2026-01-30 12:46:26.70	274.28	14.11	-42.7	-43.5	21.1	0.00e+00	0	41	0	692060160	56	4098
2026-01-30 12:46:29.73	274.89	14.17	-42.4	-43.3	21.3	0.00e+00	0	41	0	701497344	56	3985
2026-01-30 12:46:32.76	275.50	14.24	-42.3	-43.2	21.4	0.00e+00	0	41	0	710934528	56	3917
2026-01-30 12:46:35.79	276.12	14.30	-42.5	-43.4	21.3	0.00e+00	0	41	0	721420288	56	4011
2026-01-30 12:46:38.82	276.74	14.35	-42.4	-43.3	21.4	0.00e+00	0	41	0	730857472	56	3990
2026-01-30 12:46:41.85	277.35	14.41	-42.4	-43.2	21.4	0.00e+00	0	41	0	739246080	56	3957
2026-01-30 12:46:44.87	277.97	14.46	-42.6	-43.5	21.2	0.00e+00	0	41	0	749731840	56	4056
2026-01-30 12:46:47.89	278.59	14.50	-42.5	-43.4	21.4	0.00e+00	0	41	0	759169024	56	4025
2026-01-30 12:46:50.91	279.22	14.55	-42.5	-43.3	21.4	0.00e+00	0	41	0	768606208	56	4002
2026-01-30 12:46:53.93	279.84	14.59	-42.3	-43.2	21.5	0.00e+00	0	41	0	778043392	56	3920
2026-01-30 12:46:56.96	280.47	14.63	-42.6	-43.5	21.4	0.00e+00	0	41	0	786432000	56	4084
2026-01-30 12:46:59.98	281.10	14.66	-42.6	-43.4	21.4	0.00e+00	0	41	0	796917760	56	4046
2026-01-30 12:47:03.01	281.73	14.70	-42.7	-43.6	21.2	0.00e+00	0	41	0	806354944	56	4132
2026-01-30 12:47:06.04	282.36	14.72	-42.7	-43.5	21.3	0.00e+00	0	41	0	815792128	56	4097
2026-01-30 12:47:09.07	282.99	14.75	-42.6	-43.5	21.4	0.00e+00	0	41	0	825229312	56	4054
2026-01-30 12:47:12.10	283.63	14.77	-42.7	-43.6	21.2	0.00e+00	0	41	0	834666496	56	4115
2026-01-30 12:47:15.12	284.26	14.79	-43.0	-43.9	21.0	0.00e+00	0	41	0	844103680	56	4266
2026-01-30 12:47:18.14	284.89	14.81	-42.7	-43.5	21.4	0.00e+00	0	41	0	853540864	56	4080
2026-01-30 12:47:21.18	285.53	14.82	-42.6	-43.5	21.4	0.00e+00	0	41	0	862978048	56	4063
2026-01-30 12:47:24.20	286.17	14.83	-42.9	-43.8	21.1	0.00e+00	0	41	0	872415232	56	4227
2026-01-30 12:47:27.23	286.81	14.84	-43.0	-44.0	21.0	0.00e+00	0	41	0	881852416	56	4294
2026-01-30 12:47:30.25	287.44	14.84	-42.9	-43.8	21.2	0.00e+00	0	41	0	891289600	56	4209
2026-01-30 12:47:33.28	288.08	14.84	-42.9	-43.8	21.1	0.00e+00	0	41	0	900726784	56	4213
2026-01-30 12:47:36.30	288.71	14.84	-42.8	-43.7	21.2	0.00e+00	0	41	0	910163968	56	4167
2026-01-30 12:47:39.32	289.35	14.83	-42.8	-43.7	21.2	0.00e+00	0	41	0	919601152	56	4175
2026-01-30 12:47:42.34	289.98	14.82	-42.8	-43.6	21.4	0.00e+00	0	41	0	929038336	56	4135
2026-01-30 12:47:45.37	290.62	14.81	-42.7	-43.6	21.4	0.00e+00	0	41	0	938475520	56	4099
2026-01-30 12:47:48.39	291.25	14.79	-42.6	-43.4	21.5	0.00e+00	0	41	0	947912704	56	4048
2026-01-30 12:47:51.41	291.88	14.77	-42.6	-43.5	21.5	0.00e+00	0	41	0	957349888	56	4078
2026-01-30 12:47:54.43	292.52	14.75	-42.5	-43.4	21.6	0.00e+00	0	41	0	966787072	56	4017
2026-01-30 12:47:57.46	293.15	14.72	-42.8	-43.7	21.4	0.00e+00	0	41	0	976224256	56	4151
2026-01-30 12:48:00.49	293.78	14.69	-42.7	-43.5	21.4	0.00e+00	0	41	0	985661440	56	4087
2026-01-30 12:48:03.52	294.41	14.66	-42.7	-43.6	21.3	0.00e+00	0	41	0	995098624	56	4116
2026-01-30 12:48:06.53	295.03	14.62	-42.9	-43.7	21.1	0.00e+00	0	41	0	1004535808	56	4193
2026-01-30 12:48:09.56	295.66	14.58	-43.0	-43.9	21.0	0.00e+00	0	41	0	1013972992	56	4262
2026-01-30 12:48:12.58	296.29	14.54	-43.0	-44.0	21.0	0.00e+00	0	41	0	1023410176	56	4292
2026-01-30 12:48:15.61	296.91	14.50	-43.1	-44.0	20.9	0.00e+00	0	41	0	1032847360	56	4329
2026-01-30 12:48:18.63	297.53	14.45	-42.7	-43.6	21.3	0.00e+00	0	41	0	1042284544	56	4130
2026-01-30 12:48:21.65	298.15	14.40	-42.7	-43.5	21.3	0.00e+00	0	41	0	1051721728	56	4083
2026-01-30 12:48:24.69	298.77	14.34	-42.7	-43.6	21.2	0.00e+00	0	41	0	1061158912	56	4134
2026-01-30 12:48:27.71	299.38	14.29	-42.5	-43.4	21.4	0.00e+00	0	41	0	1070596096	56	4036
2026-01-30 12:48:30.74	299.99	14.23	-42.6	-43.5	21.3	0.00e+00	0	41	0	1080033280	56	4059
2026-01-30 12:48:33.77	300.60	14.16	-42.6	-43.5	21.3	0.00e+00	0	41	0	1089470464	56	4068
2026-01-30 12:48:36.79	301.21	14.10	-42.6	-43.5	21.3	0.00e+00	0	41	0	1098907648	56	4070
2026-01-30 12:48:39.82	301.81	14.03	-42.5	-43.4	21.4	0.00e+00	0	41	0	1108344832	56	4012
2026-01-30 12:48:42.85	302.42	13.96	-42.4	-43.3	21.5	0.00e+00	0	41	0	1117782016	56	3967
2026-01-30 12:48:45.87	303.01	13.89	-42.5	-43.4	21.4	0.00e+00	0	41	0	1127219200	56	4010
2026-01-30 12:48:48.90	303.61	13.81	-42.5	-43.4	21.3	0.00e+00	0	41	0	1136656384	56	4020
2026-01-30 12:48:51.92	304.20	13.73	-42.5	-43.4	21.3	0.00e+00	0	41	0	1146093568	56	4039
2026-01-30 12:48:54.94	304.79	13.65	-42.4	-43.3	21.4	0.00e+00	0	41	0	1155530752	56	3960
2026-01-30 12:48:57.97	305.38	13.57	-42.3	-43.1	21.6	0.00e+00	0	41	0	1164967936	56	3891
2026-01-30 12:49:00.99	305.96	13.48	-42.4	-43.3	21.4	0.00e+00	0	41	0	1174405120	56	3973
2026-01-30 12:49:04.01	306.54	13.39	-42.4	-43.3	21.3	0.00e+00	0	41	0	1183842304	56	3987
2026-01-30 12:49:07.04	307.11	13.30	-42.6	-43.5	21.2	0.00e+00	0	41	0	1193279488	56	4068
2026-01-30 12:49:10.07	307.69	13.21	-42.6	-43.4	21.2	0.00e+00	0	41	0	1202716672	56	4049
2026-01-30 12:49:13.09	308.26	13.11	-42.6	-43.5	21.1	0.00e+00	0	41	0	1212153856	56	4094
2026-01-30 12:49:16.11	308.82	13.01	-42.7	-43.6	21.1	0.00e+00	0	41	0	1221591040	56	4108
2026-01-30 12:49:19.13	309.38	12.91	-42.7	-43.6	21.0	0.00e+00	0	41	0	1231028224	56	4139
2026-01-30 12:49:22.17	309.94	12.81	-42.6	-43.5	21.1	0.00e+00	0	41	0	1241513984	56	4086
2026-01-30 12:49:25.19	310.50	12.71	-42.6	-43.5	21.1	0.00e+00	0	41	0	1249902592	56	4079
2026-01-30 12:49:28.22	311.05	12.60	-42.5	-43.4	21.2	0.00e+00	0	41	0	1259339776	56	4031
2026-01-30 12:49:31.24	311.59	12.50	-42.4	-43.3	21.2	0.00e+00	0	41	0	1268776960	56	3993
2026-01-30 12:49:34.26	312.14	12.39	-42.3	-43.1	21.3	0.00e+00	0	41	0	1278214144	56	3907
2026-01-30 12:49:37.27	312.67	12.28	-42.2	-43.1	21.3	0.00e+00	0	41	0	1288699904	56	3876
2026-01-30 12:49:40.30	313.21	12.16	-42.3	-43.1	21.3	0.00e+00	0	41	0	1297088512	56	3909
2026-01-30 12:49:43.33	313.74	12.05	-42.3	-43.1	21.3	0.00e+00	0	41	0	1306525696	56	3903
2026-01-30 12:49:46.34	314.26	11.93	-42.5	-43.4	21.0	0.00e+00	0	41	0	1315962880	56	4038
2026-01-30 12:49:49.37	314.79	11.82	-42.6	-43.5	20.9	0.00e+00	0	41	0	1326448640	56	4090
2026-01-30 12:49:52.40	315.31	11.70	-42.7	-43.6	20.9	0.00e+00	0	41	0	1335885824	56	4129
2026-01-30 12:49:55.42	315.82	11.58	-42.5	-43.4	21.0	0.00e+00	0	41	0	1344274432	56	4046
2026-01-30 12:49:58.45	316.33	11.45	-42.6	-43.5	21.0	0.00e+00	0	41	0	1353711616	56	4074
2026-01-30 12:50:01.47	316.84	11.33	-42.8	-43.7	20.8	0.00e+00	0	41	0	1364197376	56	4164
2026-01-30 12:50:04.49	317.34	11.21	-42.7	-43.6	20.8	0.00e+00	0	41	0	1373634560	56	4143
2026-01-30 12:50:07.51	317.84	11.08	-42.7	-43.6	20.7	0.00e+00	0	41	0	1383071744	56	4119
2026-01-30 12:50:10.54	318.33	10.95	-42.8	-43.7	20.6	0.00e+00	0	41	0	1391460352	56	4162
2026-01-30 12:50:13.56	318.82	10.82	-42.9	-43.8	20.5	0.00e+00	0	41	0	1401946112	56	4241
2026-01-30 12:50:16.59	319.31	10.69	-43.0	-44.0	20.4	0.00e+00	0	41	0	1411383296	56	4293
2026-01-30 12:50:19.61	319.79	10.56	-43.0	-44.0	20.4	0.00e+00	0	41	0	1420820480	56	4319
2026-01-30 12:50:22.64	320.26	10.43	-43.2	-44.2	20.2	0.00e+00	0	41	0	1430257664	56	4397
2026-01-30 12:50:25.67	320.74	10.30	-43.2	-44.2	20.2	0.00e+00	0	41	0	1439694848	57	4159
2026-01-30 12:50:28.70	321.21	10.16	-43.2	-44.2	20.1	0.00e+00	0	41	0	1449132032	57	4178
2026-01-30 12:50:31.73	321.67	10.03	-43.1	-44.1	20.3	0.00e+00	0	41	0	1458569216	57	4112
2026-01-30 12:50:34.75	322.13	9.89	-43.1	-44.1	20.3	0.00e+00	0	41	0	1468006400	57	4125
2026-01-30 12:50:37.78	322.59	9.76	-43.2	-44.2	20.2	0.00e+00	0	41	0	1477443584	57	4147
2026-01-30 12:50:40.81	323.04	9.62	-43.2	-44.2	20.0	0.00e+00	0	41	0	1486880768	57	4190
2026-01-30 12:50:43.83	323.49	9.48	-43.5	-44.5	19.8	0.00e+00	0	41	0	1496317952	57	4312
2026-01-30 12:50:46.85	323.94	9.34	-43.5	-44.6	19.7	0.00e+00	0	41	0	1505755136	57	4345
2026-01-30 12:50:49.88	324.38	9.21	-43.4	-44.4	19.9	0.00e+00	0	41	0	1515192320	57	4270
2026-01-30 12:50:52.90	324.81	9.07	-43.4	-44.4	19.9	0.00e+00	0	41	0	1524629504	57	4278
2026-01-30 12:50:55.93	325.24	8.92	-43.6	-44.6	19.7	0.00e+00	0	41	0	1534066688	57	4375
2026-01-30 12:50:58.95	325.67	8.78	-43.5	-44.5	19.8	0.00e+00	0	41	0	1543503872	57	4334
2026-01-30 12:51:01.98	326.10	8.64	-43.6	-44.6	19.7	0.00e+00	0	41	0	1552941056	57	4368
2026-01-30 12:51:05.01	326.52	8.50	-43.5	-44.6	19.7	0.00e+00	0	41	0	1562378240	57	4344
2026-01-30 12:51:08.02	326.93	8.36	-43.6	-44.6	19.6	0.00e+00	0	41	0	1571815424	57	4376
2026-01-30 12:51:11.05	327.35	8.21	-43.6	-44.7	19.6	0.00e+00	0	41	0	1581252608	57	4408
2026-01-30 12:51:14.08	327.75	8.07	-43.6	-44.7	19.6	0.00e+00	0	41	0	1590689792	57	4412
2026-01-30 12:51:17.10	328.16	7.93	-43.7	-44.7	19.5	0.00e+00	0	41	0	1600126976	58	4187
2026-01-30 12:51:20.12	328.56	7.78	-43.9	-45.0	19.3	0.00e+00	0	41	0	1609564160	58	4313
2026-01-30 12:51:23.15	328.96	7.64	-43.9	-45.0	19.2	0.00e+00	0	41	0	1619001344	58	4340
2026-01-30 12:51:26.17	329.35	7.49	-43.8	-44.9	19.3	0.00e+00	0	41	0	1628438528	58	4263
2026-01-30 12:51:29.19	329.74	7.35	-44.0	-45.1	19.1	0.00e+00	0	41	0	1637875712	58	4361
2026-01-30 12:51:32.21	330.12	7.20	-44.0	-45.2	19.0	0.00e+00	0	41	0	1647312896	58	4394
2026-01-30 12:51:35.23	330.50	7.06	-43.9	-45.0	19.2	0.00e+00	0	41	0	1656750080	58	4304
2026-01-30 12:51:38.26	330.88	6.91	-43.9	-45.0	19.2	0.00e+00	0	41	0	1666187264	58	4309
2026-01-30 12:51:41.29	331.26	6.76	-43.8	-44.9	19.2	0.00e+00	0	41	0	1675624448	58	4247
2026-01-30 12:51:44.32	331.63	6.62	-43.9	-45.0	19.1	0.00e+00	0	41	0	1685061632	58	4327
2026-01-30 12:51:47.34	332.00	6.47	-43.9	-45.0	19.1	0.00e+00	0	41	0	1694498816	58	4329
2026-01-30 12:51:50.36	332.36	6.32	-44.0	-45.1	18.9	0.00e+00	0	41	0	1703936000	58	4385
2026-01-30 12:51:53.39	332.72	6.18	-44.0	-45.1	19.0	0.00e+00	0	41	0	1713373184	58	4360
2026-01-30 12:51:56.42	333.08	6.03	-44.2	-45.3	18.7	0.00e+00	0	41	0	1722810368	59	4236
2026-01-30 12:51:59.45	333.44	5.88	-44.1	-45.2	18.8	0.00e+00	0	41	0	1732247552	59	4181
2026-01-30 12:52:02.48	333.79	5.74	-44.3	-45.5	18.5	0.00e+00	0	41	0	1741684736	59	4317
2026-01-30 12:52:05.50	334.13	5.59	-44.3	-45.5	18.5	0.00e+00	0	41	0	1751121920	59	4306
2026-01-30 12:52:08.52	334.48	5.44	-44.4	-45.7	18.3	0.00e+00	0	41	0	1760559104	59	4392
2026-01-30 12:52:11.53	334.81	5.30	-44.5	-45.8	17.9	0.00e+00	0	41	0	1769996288	59	4487
2026-01-30 12:52:14.56	335.15	5.15	-44.1	-45.3	18.5	0.00e+00	0	41	0	1779433472	59	4203
2026-01-30 12:52:17.58	335.49	5.00	-50.5	-55.7	8.5	3.37e-03	0	41	0	1788870656	71	7011
2026-01-30 12:52:20.61	335.82	4.86	-53.1	-65.9	3.8	1.49e+00	0	41	104	1788870656	76	16970
2026-01-30 12:52:23.63	336.14	4.71	-53.5	-66.3	3.8	1.49e+00	0	41	104	1788870656	77	16728
2026-01-30 12:52:26.65	336.47	4.56	-53.6	-66.4	3.8	1.49e+00	0	41	104	1788870656	77	16964
2026-01-30 12:52:29.68	336.79	4.42	-53.4	-66.2	3.8	1.49e+00	0	41	104	1788870656	77	16567
2026-01-30 12:52:32.70	337.11	4.27	-53.4	-66.1	3.8	1.49e+00	0	41	104	1788870656	77	16479
2026-01-30 12:52:35.72	337.42	4.12	-53.5	-66.2	3.8	1.49e+00	0	41	104	1788870656	77	16686
2026-01-30 12:52:38.75	337.74	3.98	-53.5	-66.3	3.8	1.49e+00	0	41	104	1788870656	77	16727
2026-01-30 12:52:41.78	338.05	3.83	-53.4	-66.2	3.8	1.49e+00	0	41	104	1788870656	77	16534
2026-01-30 12:52:44.80	338.35	3.68	-53.4	-66.1	3.8	1.49e+00	0	41	104	1788870656	77	16459
2026-01-30 12:52:47.82	338.66	3.54	-53.3	-66.1	3.8	1.49e+00	0	41	104	1788870656	77	16388
2026-01-30 12:52:50.85	338.96	3.39	-53.3	-66.1	3.8	1.49e+00	0	41	104	1788870656	77	16377
2026-01-30 12:52:53.88	339.26	3.25	-53.3	-66.0	3.8	1.49e+00	0	41	104	1788870656	77	16281
2026-01-30 12:52:56.90	339.55	3.10	-53.3	-66.0	3.8	1.49e+00	0	41	104	1788870656	77	16288
2026-01-30 12:52:59.92	339.84	2.96	-53.3	-66.0	3.8	1.49e+00	0	41	104	1788870656	77	16252
2026-01-30 12:53:02.92	340.13	2.81	-53.2	-66.0	3.8	1.49e+00	0	41	104	1788870656	77	16241
2026-01-30 12:53:05.94	340.42	2.67	-53.2	-66.0	3.8	1.49e+00	0	41	104	1788870656	77	16158
2026-01-30 12:53:08.97	340.70	2.52	-53.2	-66.0	3.8	1.49e+00	0	41	104	1788870656	77	16138
2026-01-30 12:53:11.98	340.98	2.38	-53.2	-65.9	3.8	1.49e+00	0	41	104	1788870656	77	16113
2026-01-30 12:53:15.01	341.26	2.23	-53.2	-65.9	3.8	1.49e+00	0	41	104	1788870656	77	16080
2026-01-30 12:53:18.03	341.54	2.09	-53.2	-65.9	3.8	1.49e+00	0	41	104	1788870656	77	16099

#Closed at: 2026-01-30 12:53:20
#Recorded file [1788 MB]: D:/lorett/data/31041_260130_154145.dat