passes_logs/2026/01/30/R3.2S_Murmansk/R3.2S_Murmansk__20260130_082808_NOAA_20_JPSS-1_rec.log

#Pass ID: 20260130_082808_NOAA 20 (JPSS-1)
#Satellite: NOAA 20 (JPSS-1)
#Configuration: NOAA 20
#almurnet v.1.7.20251203
#Start time: 2026-01-30 08:28:08

#Version: 2.2.20231116
#Station: R3.2S_Murmansk
#Location: 33.079688 lon 68.888172 lat
#TLE: 1 43013U 17073A   26029.42702672  .00000137  00000+0  85918-4 0  9993
#TLE: 2 43013  98.7646 330.2153 0000804  19.9045 340.2162 14.19525092424781

#Time	Az	El	Level	Level2	SNR	BER	BlckErr	Temp	State	Recorded	gain1	gain2
2026-01-30 08:28:08.72	126.82	2.02	-54.1	-69.0	3.8	1.49e+00	0	39	0	0	79	20477
2026-01-30 08:28:12.74	126.73	2.28	-54.0	-69.0	3.8	1.49e+00	0	39	104	0	78	21702
2026-01-30 08:28:16.77	126.63	2.54	-54.0	-69.0	3.8	1.49e+00	0	39	104	0	78	21603
2026-01-30 08:28:20.80	126.53	2.80	-54.0	-69.0	3.8	1.49e+00	0	39	104	0	78	21522
2026-01-30 08:28:24.83	126.43	3.06	-54.0	-68.9	3.8	1.49e+00	0	40	104	0	78	21429
2026-01-30 08:28:28.86	126.33	3.33	-54.2	-69.2	3.8	1.49e+00	0	40	104	0	79	20880
2026-01-30 08:28:32.89	126.22	3.60	-54.1	-69.1	3.8	1.49e+00	0	40	104	0	79	20588
2026-01-30 08:28:36.93	126.11	3.87	-53.9	-68.9	3.8	1.49e+00	0	40	104	0	79	20127
2026-01-30 08:28:40.97	126.00	4.14	-53.6	-68.5	3.8	1.49e+00	0	40	104	0	79	19381
2026-01-30 08:28:45.01	125.89	4.42	-52.9	-67.8	3.8	1.49e+00	0	40	104	0	77	19984
2026-01-30 08:28:49.03	125.77	4.70	-52.4	-67.3	3.8	1.49e+00	0	40	104	0	76	20009
2026-01-30 08:28:53.07	125.66	4.98	-46.1	-47.8	18.0	0.00e+00	0	40	0	1048576	63	4485
2026-01-30 08:28:57.09	125.54	5.26	-50.8	-57.9	7.9	5.33e-03	0	40	0	9437184	72	8525
2026-01-30 08:29:01.13	125.41	5.55	-46.0	-47.8	18.0	0.00e+00	0	40	0	16777216	63	4486
2026-01-30 08:29:05.15	125.29	5.84	-45.7	-47.3	18.6	0.00e+00	0	40	0	24117248	63	4225
2026-01-30 08:29:09.18	125.16	6.13	-45.5	-47.1	18.9	0.00e+00	0	40	0	31457280	63	4109
2026-01-30 08:29:13.20	125.03	6.43	-45.5	-47.1	19.0	0.00e+00	0	41	0	38797312	62	4349
2026-01-30 08:29:17.22	124.90	6.73	-45.7	-47.4	18.7	0.00e+00	0	40	0	46137344	62	4502
2026-01-30 08:29:21.23	124.76	7.03	-45.5	-47.0	19.1	0.00e+00	0	41	0	54525952	62	4305
2026-01-30 08:29:25.26	124.62	7.33	-45.2	-46.6	19.5	0.00e+00	0	41	0	61865984	62	4142
2026-01-30 08:29:29.29	124.48	7.64	-45.3	-46.8	19.4	0.00e+00	0	41	0	69206016	62	4213
2026-01-30 08:29:33.32	124.33	7.96	-45.4	-46.9	19.4	0.00e+00	0	41	0	76546048	62	4269
2026-01-30 08:29:37.33	124.18	8.27	-45.2	-46.7	19.6	0.00e+00	0	41	0	84934656	62	4160
2026-01-30 08:29:41.36	124.03	8.60	-45.1	-46.5	19.7	0.00e+00	0	41	0	92274688	62	4092
2026-01-30 08:29:45.38	123.87	8.92	-45.0	-46.4	19.9	0.00e+00	0	41	0	99614720	61	4269
2026-01-30 08:29:49.41	123.71	9.25	-44.9	-46.3	20.0	0.00e+00	0	41	0	106954752	61	4204
2026-01-30 08:29:53.44	123.55	9.58	-44.9	-46.3	20.1	0.00e+00	0	41	0	114294784	61	4203
2026-01-30 08:29:57.47	123.38	9.92	-44.9	-46.3	20.1	0.00e+00	0	41	0	122683392	61	4210
2026-01-30 08:30:01.51	123.20	10.26	-44.9	-46.3	20.1	0.00e+00	0	41	0	130023424	61	4197
2026-01-30 08:30:05.52	123.02	10.61	-44.8	-46.1	20.3	0.00e+00	0	41	0	137363456	61	4140
2026-01-30 08:30:09.55	122.84	10.96	-44.8	-46.2	20.3	0.00e+00	0	41	0	144703488	61	4147
2026-01-30 08:30:13.58	122.65	11.32	-44.7	-46.0	20.5	0.00e+00	0	41	0	152043520	61	4063
2026-01-30 08:30:17.61	122.46	11.68	-44.6	-45.9	20.6	0.00e+00	0	41	0	159383552	61	4017
2026-01-30 08:30:21.64	122.26	12.04	-44.7	-45.9	20.6	0.00e+00	0	41	0	167772160	61	4040
2026-01-30 08:30:25.66	122.06	12.41	-44.7	-45.9	20.7	0.00e+00	0	41	0	175112192	61	4041
2026-01-30 08:30:29.69	121.85	12.79	-44.8	-46.1	20.6	0.00e+00	0	41	0	182452224	61	4100
2026-01-30 08:30:33.72	121.64	13.17	-44.6	-45.9	20.8	0.00e+00	0	41	0	189792256	61	4017
2026-01-30 08:30:37.75	121.42	13.56	-44.6	-45.8	20.9	0.00e+00	0	41	0	198180864	60	4210
2026-01-30 08:30:41.77	121.19	13.95	-44.5	-45.8	20.9	0.00e+00	0	41	0	205520896	60	4198
2026-01-30 08:30:45.80	120.96	14.35	-44.4	-45.6	21.1	0.00e+00	0	41	0	212860928	60	4121
2026-01-30 08:30:49.83	120.72	14.76	-44.2	-45.4	21.3	0.00e+00	0	41	0	220200960	60	4037
2026-01-30 08:30:53.86	120.47	15.17	-44.3	-45.5	21.2	0.00e+00	0	41	0	227540992	60	4053
2026-01-30 08:30:57.88	120.22	15.58	-44.2	-45.4	21.3	0.00e+00	0	41	0	235929600	60	4011
2026-01-30 08:31:01.91	119.96	16.01	-44.3	-45.4	21.3	0.00e+00	0	41	0	243269632	60	4036
2026-01-30 08:31:05.94	119.69	16.44	-44.2	-45.4	21.4	0.00e+00	0	41	0	250609664	60	4021
2026-01-30 08:31:09.96	119.41	16.88	-44.3	-45.5	21.4	0.00e+00	0	41	0	257949696	60	4067
2026-01-30 08:31:13.99	119.13	17.32	-44.2	-45.4	21.4	0.00e+00	0	41	0	265289728	60	4016
2026-01-30 08:31:18.02	118.83	17.78	-44.0	-45.2	21.6	0.00e+00	0	41	0	272629760	60	3923
2026-01-30 08:31:22.05	118.53	18.24	-44.0	-45.1	21.7	0.00e+00	0	41	0	281018368	60	3907
2026-01-30 08:31:26.09	118.21	18.71	-44.1	-45.2	21.7	0.00e+00	0	41	0	288358400	60	3935
2026-01-30 08:31:30.11	117.89	19.18	-44.3	-45.4	21.5	0.00e+00	0	41	0	295698432	60	4029
2026-01-30 08:31:34.14	117.55	19.67	-44.3	-45.5	21.4	0.00e+00	0	41	0	303038464	60	4080
2026-01-30 08:31:38.17	117.20	20.16	-44.4	-45.6	21.3	0.00e+00	0	41	0	311427072	60	4139
2026-01-30 08:31:42.20	116.84	20.67	-44.5	-45.7	21.2	0.00e+00	0	41	0	318767104	60	4175
2026-01-30 08:31:46.22	116.47	21.18	-44.8	-46.1	20.8	0.00e+00	0	41	0	326107136	60	4359
2026-01-30 08:31:50.25	116.09	21.70	-44.9	-46.2	20.8	0.00e+00	0	41	0	333447168	60	4397
2026-01-30 08:31:54.28	115.69	22.23	-45.0	-46.3	20.7	0.00e+00	0	41	0	340787200	60	4448
2026-01-30 08:31:58.30	115.28	22.77	-45.1	-46.4	20.4	0.00e+00	0	41	0	349175808	60	4532
2026-01-30 08:32:02.33	114.85	23.32	-45.2	-46.4	20.6	0.00e+00	0	41	0	356515840	61	4289
2026-01-30 08:32:06.36	114.41	23.87	-45.5	-46.9	20.2	0.00e+00	0	41	0	363855872	61	4505
2026-01-30 08:32:10.38	113.95	24.44	-45.7	-47.1	20.0	0.00e+00	0	41	0	371195904	62	4354
2026-01-30 08:32:14.41	113.47	25.02	-45.8	-47.2	19.9	0.00e+00	0	41	0	378535936	62	4414
2026-01-30 08:32:18.44	112.98	25.61	-45.9	-47.4	19.8	0.00e+00	0	41	0	386924544	62	4496
2026-01-30 08:32:22.47	112.46	26.22	-46.3	-47.8	19.3	0.00e+00	0	41	0	394264576	63	4476
2026-01-30 08:32:26.50	111.93	26.83	-46.1	-47.5	19.7	0.00e+00	0	41	0	401604608	63	4310
2026-01-30 08:32:30.53	111.37	27.45	-46.3	-47.7	19.5	0.00e+00	0	41	0	408944640	63	4427
2026-01-30 08:32:34.55	110.79	28.08	-46.1	-47.6	19.6	0.00e+00	0	41	0	416284672	63	4363
2026-01-30 08:32:38.57	110.19	28.73	-46.0	-47.4	19.8	0.00e+00	0	41	0	424673280	63	4276
2026-01-30 08:32:42.61	109.56	29.39	-46.0	-47.4	19.8	0.00e+00	0	41	0	432013312	63	4268
2026-01-30 08:32:46.63	108.90	30.06	-46.0	-47.4	19.7	0.00e+00	0	41	0	439353344	63	4280
2026-01-30 08:32:50.66	108.22	30.74	-46.2	-47.6	19.5	0.00e+00	0	41	0	446693376	63	4388
2026-01-30 08:32:54.69	107.50	31.43	-46.4	-47.8	19.3	0.00e+00	0	41	0	454033408	63	4490
2026-01-30 08:32:58.72	106.76	32.13	-46.7	-48.2	19.0	0.00e+00	0	41	0	462422016	63	4702
2026-01-30 08:33:02.75	105.97	32.84	-46.6	-48.2	18.9	0.00e+00	0	41	0	469762048	64	4410
2026-01-30 08:33:06.76	105.16	33.56	-47.3	-49.1	18.1	0.00e+00	0	41	0	477102080	65	4612
2026-01-30 08:33:10.80	104.31	34.30	-47.0	-48.7	18.5	0.00e+00	0	41	0	484442112	65	4412
2026-01-30 08:33:14.82	103.41	35.04	-46.7	-48.3	18.9	0.00e+00	0	41	0	491782144	65	4224
2026-01-30 08:33:18.84	102.48	35.80	-46.4	-47.9	19.3	0.00e+00	0	41	0	500170752	64	4258
2026-01-30 08:33:22.87	101.50	36.56	-46.2	-47.7	19.4	0.00e+00	0	41	0	507510784	64	4174
2026-01-30 08:33:26.89	100.47	37.33	-46.1	-47.6	19.6	0.00e+00	0	41	0	514850816	64	4110
2026-01-30 08:33:30.91	99.39	38.10	-46.2	-47.6	19.6	0.00e+00	0	41	0	522190848	64	4110
2026-01-30 08:33:34.94	98.26	38.88	-46.8	-48.4	18.8	0.00e+00	0	41	0	529530880	64	4543
2026-01-30 08:33:38.97	97.07	39.67	-46.8	-48.4	18.9	0.00e+00	0	41	0	537919488	64	4494
2026-01-30 08:33:43.00	95.82	40.46	-46.7	-48.3	19.0	0.00e+00	0	41	0	545259520	64	4447
2026-01-30 08:33:47.03	94.51	41.25	-46.3	-47.7	19.5	0.00e+00	0	41	0	552599552	64	4174
2026-01-30 08:33:51.05	93.13	42.04	-47.6	-49.4	17.9	0.00e+00	0	41	0	559939584	65	4803
2026-01-30 08:33:55.08	91.68	42.83	-47.8	-49.7	17.6	0.00e+00	0	41	0	567279616	66	4675
2026-01-30 08:33:59.11	90.16	43.61	-47.0	-48.6	18.6	0.00e+00	0	41	0	575668224	65	4360
2026-01-30 08:34:03.13	88.57	44.38	-46.7	-48.2	19.0	0.00e+00	0	41	0	583008256	65	4172
2026-01-30 08:34:07.16	86.89	45.14	-47.4	-49.2	18.1	0.00e+00	0	41	0	590348288	65	4679
2026-01-30 08:34:11.19	85.13	45.89	-46.4	-47.9	19.4	0.00e+00	0	41	0	597688320	64	4265
2026-01-30 08:34:15.22	83.29	46.62	-45.9	-47.3	20.0	0.00e+00	0	41	0	605028352	63	4212
2026-01-30 08:34:19.24	81.37	47.33	-46.2	-47.7	19.7	0.00e+00	0	41	0	613416960	63	4399
2026-01-30 08:34:23.27	79.35	48.01	-45.6	-46.9	20.5	0.00e+00	0	41	0	620756992	63	4029
2026-01-30 08:34:27.29	77.24	48.66	-45.9	-47.2	20.2	0.00e+00	0	41	0	628097024	63	4176
2026-01-30 08:34:31.31	75.05	49.28	-47.1	-48.8	18.6	0.00e+00	0	41	0	635437056	65	4462
2026-01-30 08:34:35.34	72.77	49.85	-46.9	-48.6	18.9	0.00e+00	0	41	0	642777088	65	4347
2026-01-30 08:34:39.36	70.41	50.39	-46.3	-47.7	19.6	0.00e+00	0	41	0	651165696	64	4181
2026-01-30 08:34:43.38	67.96	50.87	-47.3	-49.0	18.4	0.00e+00	0	41	0	658505728	65	4553
2026-01-30 08:34:47.42	65.43	51.31	-46.2	-47.6	19.8	0.00e+00	0	41	0	665845760	64	4106
2026-01-30 08:34:51.45	62.83	51.69	-45.0	-46.1	21.3	0.00e+00	0	41	0	673185792	61	4135
2026-01-30 08:34:55.48	60.17	52.00	-43.3	-44.3	23.2	0.00e+00	0	41	0	680525824	58	3988
2026-01-30 08:34:59.50	57.47	52.25	-42.7	-43.6	23.8	0.00e+00	0	41	0	688914432	57	3903
2026-01-30 08:35:03.53	54.72	52.44	-42.4	-43.3	24.1	0.00e+00	0	41	0	696254464	56	3963
2026-01-30 08:35:07.56	51.94	52.56	-42.4	-43.3	24.1	0.00e+00	0	41	0	703594496	56	3988
2026-01-30 08:35:11.59	49.15	52.61	-42.7	-43.6	23.8	0.00e+00	0	41	0	710934528	56	4118
2026-01-30 08:35:15.62	46.35	52.58	-43.2	-44.2	23.3	0.00e+00	0	41	0	719323136	56	4409
2026-01-30 08:35:19.65	43.57	52.49	-43.2	-44.1	23.3	0.00e+00	0	41	0	726663168	57	4126
2026-01-30 08:35:23.68	40.81	52.33	-43.3	-44.2	23.2	0.00e+00	0	41	0	734003200	57	4192
2026-01-30 08:35:27.71	38.09	52.10	-42.9	-43.8	23.6	0.00e+00	0	41	0	741343232	57	3984
2026-01-30 08:35:31.74	35.41	51.81	-42.8	-43.7	23.7	0.00e+00	0	41	0	748683264	57	3939
2026-01-30 08:35:35.78	32.79	51.45	-43.2	-44.1	23.4	0.00e+00	0	41	0	756023296	57	4145
2026-01-30 08:35:39.81	30.24	51.04	-44.4	-45.5	22.1	0.00e+00	0	41	0	764411904	59	4318
2026-01-30 08:35:43.83	27.77	50.57	-45.2	-46.4	21.0	0.00e+00	0	41	0	771751936	61	4264
2026-01-30 08:35:47.86	25.37	50.05	-46.4	-47.9	19.6	0.00e+00	0	41	0	779091968	63	4500
2026-01-30 08:35:51.89	23.06	49.49	-46.6	-48.1	19.3	0.00e+00	0	41	0	786432000	64	4350
2026-01-30 08:35:55.92	20.83	48.89	-46.8	-48.4	19.0	0.00e+00	0	41	0	793772032	64	4503
2026-01-30 08:35:59.95	18.70	48.25	-46.5	-48.0	19.5	0.00e+00	0	41	0	802160640	64	4303
2026-01-30 08:36:03.98	16.65	47.58	-46.4	-47.9	19.6	0.00e+00	0	41	0	809500672	64	4246
2026-01-30 08:36:08.01	14.69	46.88	-47.1	-48.7	18.7	0.00e+00	0	41	0	816840704	64	4698
2026-01-30 08:36:12.04	12.82	46.16	-47.8	-49.6	17.8	0.00e+00	0	41	0	824180736	66	4620
2026-01-30 08:36:16.07	11.04	45.42	-47.6	-49.4	18.1	0.00e+00	0	41	0	832569344	66	4527
2026-01-30 08:36:20.09	9.34	44.66	-47.8	-49.6	17.7	0.00e+00	0	41	0	839909376	66	4631
2026-01-30 08:36:24.11	7.72	43.90	-46.5	-48.0	19.4	0.00e+00	0	41	0	847249408	65	4073
2026-01-30 08:36:28.12	6.18	43.13	-46.5	-48.0	19.4	0.00e+00	0	41	0	854589440	65	4092
2026-01-30 08:36:32.15	4.71	42.34	-46.4	-47.8	19.8	0.00e+00	0	41	0	861929472	63	4460
2026-01-30 08:36:36.18	3.31	41.55	-47.1	-48.7	18.7	0.00e+00	0	41	0	869269504	64	4665
2026-01-30 08:36:40.21	1.98	40.77	-47.6	-49.3	18.1	0.00e+00	0	41	0	877658112	65	4752
2026-01-30 08:36:44.24	0.71	39.98	-47.6	-49.4	18.0	0.00e+00	0	41	0	884998144	66	4525
2026-01-30 08:36:48.27	359.50	39.19	-48.9	-51.3	16.2	0.00e+00	0	41	0	892338176	68	5008
2026-01-30 08:36:52.30	358.35	38.41	-47.4	-49.1	18.3	0.00e+00	0	41	0	899678208	66	4343
2026-01-30 08:36:56.32	357.26	37.63	-47.5	-49.3	18.1	0.00e+00	0	41	0	908066816	66	4454
2026-01-30 08:37:00.35	356.21	36.86	-47.1	-48.8	18.6	0.00e+00	0	41	0	915406848	65	4458
2026-01-30 08:37:04.39	355.21	36.10	-47.1	-48.7	18.7	0.00e+00	0	41	0	922746880	65	4441
2026-01-30 08:37:08.42	354.26	35.34	-46.6	-48.2	19.2	0.00e+00	0	41	0	930086912	65	4146
2026-01-30 08:37:12.45	353.36	34.60	-47.0	-48.6	18.7	0.00e+00	0	41	0	937426944	65	4387
2026-01-30 08:37:16.47	352.49	33.87	-47.1	-48.7	18.6	0.00e+00	0	41	0	945815552	65	4435
2026-01-30 08:37:20.49	351.67	33.14	-47.1	-48.8	18.5	0.00e+00	0	41	0	953155584	65	4448
2026-01-30 08:37:24.52	350.88	32.43	-47.3	-49.0	18.3	0.00e+00	0	41	0	960495616	65	4584
2026-01-30 08:37:28.55	350.12	31.72	-46.6	-48.2	19.1	0.00e+00	0	41	0	967835648	65	4167
2026-01-30 08:37:32.56	349.40	31.03	-46.6	-48.1	19.2	0.00e+00	0	41	0	975175680	64	4353
2026-01-30 08:37:36.59	348.71	30.35	-46.7	-48.3	18.9	0.00e+00	0	41	0	982515712	64	4451
2026-01-30 08:37:40.62	348.04	29.68	-46.5	-48.0	19.2	0.00e+00	0	41	0	990904320	64	4325
2026-01-30 08:37:44.64	347.41	29.02	-46.0	-47.4	19.8	0.00e+00	0	41	0	998244352	64	4026
2026-01-30 08:37:48.67	346.79	28.37	-45.7	-47.0	20.2	0.00e+00	0	41	0	1005584384	63	4077
2026-01-30 08:37:52.70	346.21	27.74	-46.0	-47.5	19.8	0.00e+00	0	41	0	1012924416	63	4293
2026-01-30 08:37:56.72	345.65	27.11	-45.7	-47.1	20.1	0.00e+00	0	41	0	1020264448	63	4110
2026-01-30 08:38:00.74	345.11	26.50	-45.6	-47.0	20.2	0.00e+00	0	41	0	1028653056	63	4059
2026-01-30 08:38:04.77	344.59	25.89	-45.8	-47.2	20.0	0.00e+00	0	41	0	1035993088	63	4159
2026-01-30 08:38:08.80	344.08	25.30	-45.6	-46.9	20.2	0.00e+00	0	41	0	1043333120	63	4045
2026-01-30 08:38:12.82	343.60	24.72	-45.4	-46.7	20.5	0.00e+00	0	41	0	1050673152	62	4151
2026-01-30 08:38:16.84	343.14	24.15	-44.9	-46.1	20.9	0.00e+00	0	41	0	1059061760	61	4137
2026-01-30 08:38:20.87	342.69	23.59	-44.7	-45.9	21.1	0.00e+00	0	41	0	1066401792	61	4024
2026-01-30 08:38:24.89	342.26	23.04	-44.9	-46.1	21.0	0.00e+00	0	41	0	1073741824	61	4112
2026-01-30 08:38:28.92	341.85	22.50	-45.1	-46.4	20.7	0.00e+00	0	41	0	1081081856	61	4266
2026-01-30 08:38:32.93	341.45	21.97	-45.1	-46.3	20.7	0.00e+00	0	41	0	1088421888	61	4235
2026-01-30 08:38:36.95	341.06	21.45	-45.1	-46.4	20.6	0.00e+00	0	41	0	1095761920	61	4270
2026-01-30 08:38:40.98	340.69	20.93	-45.2	-46.5	20.5	0.00e+00	0	41	0	1104150528	61	4338
2026-01-30 08:38:45.01	340.33	20.43	-45.3	-46.6	20.3	0.00e+00	0	41	0	1111490560	61	4382
2026-01-30 08:38:49.03	339.98	19.93	-45.4	-46.7	20.2	0.00e+00	0	41	0	1118830592	61	4429
2026-01-30 08:38:53.06	339.64	19.45	-45.2	-46.5	20.5	0.00e+00	0	41	0	1126170624	61	4321
2026-01-30 08:38:57.08	339.31	18.97	-45.0	-46.3	20.7	0.00e+00	0	41	0	1133510656	61	4205
2026-01-30 08:39:01.09	339.00	18.50	-45.0	-46.2	20.7	0.00e+00	0	41	0	1141899264	61	4184
2026-01-30 08:39:05.13	338.69	18.04	-44.9	-46.2	20.7	0.00e+00	0	41	0	1149239296	61	4172
2026-01-30 08:39:09.15	338.39	17.58	-45.0	-46.3	20.6	0.00e+00	0	41	0	1156579328	61	4211
2026-01-30 08:39:13.17	338.11	17.14	-45.3	-46.7	20.2	0.00e+00	0	41	0	1163919360	61	4407
2026-01-30 08:39:17.20	337.83	16.69	-45.5	-46.9	19.9	0.00e+00	0	41	0	1171259392	61	4529
2026-01-30 08:39:21.24	337.56	16.26	-45.6	-47.0	19.9	0.00e+00	0	41	0	1179648000	61	4569
2026-01-30 08:39:25.27	337.29	15.83	-45.6	-47.0	19.9	0.00e+00	0	41	0	1186988032	62	4320
2026-01-30 08:39:29.29	337.04	15.42	-45.5	-46.8	20.0	0.00e+00	0	41	0	1194328064	62	4233
2026-01-30 08:39:33.31	336.79	15.00	-45.4	-46.7	20.1	0.00e+00	0	41	0	1201668096	62	4191
2026-01-30 08:39:37.34	336.55	14.60	-45.4	-46.8	20.0	0.00e+00	0	41	0	1209008128	62	4200
2026-01-30 08:39:41.36	336.32	14.20	-45.4	-46.7	20.1	0.00e+00	0	41	0	1217396736	62	4171
2026-01-30 08:39:45.39	336.09	13.80	-45.6	-47.1	19.7	0.00e+00	0	41	0	1224736768	62	4352
2026-01-30 08:39:49.41	335.87	13.41	-45.9	-47.4	19.4	0.00e+00	0	41	0	1232076800	62	4513
2026-01-30 08:39:53.44	335.66	13.03	-46.1	-47.7	19.1	0.00e+00	0	41	0	1239416832	62	4659
2026-01-30 08:39:57.46	335.45	12.65	-46.2	-47.8	18.9	0.00e+00	0	41	0	1246756864	63	4445
2026-01-30 08:40:01.49	335.25	12.28	-46.1	-47.7	19.0	0.00e+00	0	41	0	1255145472	63	4409
2026-01-30 08:40:05.52	335.05	11.91	-46.1	-47.7	19.0	0.00e+00	0	41	0	1262485504	63	4397
2026-01-30 08:40:09.54	334.86	11.55	-45.9	-47.5	19.1	0.00e+00	0	41	0	1269825536	63	4295
2026-01-30 08:40:13.57	334.67	11.20	-45.9	-47.5	19.1	0.00e+00	0	41	0	1277165568	63	4303
2026-01-30 08:40:17.60	334.49	10.84	-46.0	-47.5	19.0	0.00e+00	0	41	0	1284505600	63	4334
2026-01-30 08:40:21.63	334.31	10.50	-46.2	-47.8	18.8	0.00e+00	0	41	0	1292894208	63	4442
2026-01-30 08:40:25.66	334.14	10.15	-46.2	-47.8	18.7	0.00e+00	0	41	0	1300234240	63	4463
2026-01-30 08:40:29.67	333.97	9.82	-46.6	-48.3	18.2	0.00e+00	0	41	0	1307574272	63	4731
2026-01-30 08:40:33.71	333.80	9.48	-46.7	-48.5	18.1	9.10e-06	0	41	0	1314914304	63	4816
2026-01-30 08:40:37.73	333.64	9.15	-46.7	-48.6	17.7	0.00e+00	0	41	0	1322254336	64	4629
2026-01-30 08:40:41.75	333.49	8.83	-46.9	-48.9	17.4	0.00e+00	0	41	0	1330642944	64	4772
2026-01-30 08:40:45.78	333.33	8.50	-47.0	-49.0	17.3	0.00e+00	0	41	0	1337982976	64	4827
2026-01-30 08:40:49.81	333.18	8.19	-47.0	-49.0	17.2	0.00e+00	0	41	0	1345323008	64	4867
2026-01-30 08:40:53.84	333.04	7.87	-47.1	-49.1	17.1	0.00e+00	0	41	0	1352663040	64	4908
2026-01-30 08:40:57.87	332.90	7.56	-47.1	-49.2	17.0	0.00e+00	0	41	0	1360003072	64	4932
2026-01-30 08:41:01.89	332.76	7.25	-47.1	-49.2	16.9	0.00e+00	0	41	0	1368391680	65	4689
2026-01-30 08:41:05.92	332.62	6.95	-47.3	-49.5	16.6	0.00e+00	0	41	0	1375731712	65	4845
2026-01-30 08:41:09.95	332.49	6.65	-47.6	-49.9	16.2	0.00e+00	0	41	0	1383071744	65	5052
2026-01-30 08:41:13.97	332.36	6.35	-47.7	-50.1	16.0	0.00e+00	0	41	0	1390411776	65	5164
2026-01-30 08:41:18.00	332.23	6.06	-47.5	-49.9	16.1	0.00e+00	0	41	0	1397751808	65	5043
2026-01-30 08:41:22.02	332.11	5.77	-47.5	-49.9	16.1	0.00e+00	0	41	0	1406140416	65	5058
2026-01-30 08:41:26.05	331.99	5.48	-47.6	-50.0	15.9	0.00e+00	0	41	0	1413480448	65	5132
2026-01-30 08:41:30.07	331.87	5.20	-47.8	-50.3	15.6	0.00e+00	0	41	0	1420820480	66	5019
2026-01-30 08:41:34.09	331.76	4.91	-52.6	-67.6	3.8	1.49e+00	0	41	104	1426063360	75	21899
2026-01-30 08:41:38.12	331.64	4.64	-53.3	-68.3	3.8	1.49e+00	0	41	104	1426063360	77	21104
2026-01-30 08:41:42.14	331.53	4.36	-53.3	-68.3	3.8	1.49e+00	0	41	104	1426063360	77	21082
2026-01-30 08:41:46.17	331.42	4.09	-53.2	-68.1	3.8	1.49e+00	0	42	104	1426063360	77	20685
2026-01-30 08:41:50.20	331.32	3.81	-53.4	-68.3	3.8	1.49e+00	0	41	104	1426063360	77	21169
2026-01-30 08:41:54.23	331.21	3.55	-53.3	-68.3	3.8	1.49e+00	0	41	104	1426063360	77	21135
2026-01-30 08:41:58.27	331.11	3.28	-53.2	-68.2	3.8	1.49e+00	0	41	104	1426063360	77	20815
2026-01-30 08:42:02.29	331.01	3.02	-53.2	-68.1	3.8	1.49e+00	0	42	104	1426063360	77	20707
2026-01-30 08:42:06.31	330.92	2.76	-53.2	-68.1	3.8	1.49e+00	0	42	104	1426063360	77	20709
2026-01-30 08:42:10.34	330.82	2.50	-53.1	-68.1	3.8	1.49e+00	0	42	104	1426063360	77	20602
2026-01-30 08:42:14.38	330.73	2.24	-53.1	-68.1	3.8	1.49e+00	0	42	104	1426063360	77	20556
2026-01-30 08:42:18.41	330.64	1.98	-53.1	-68.0	3.8	1.49e+00	0	42	104	1426063360	77	20498

#Closed at: 2026-01-30 08:42:19
#Recorded file [1426 MB]: D:/lorett/data/31041_260130_112808.dat