passes_logs/2026/01/30/R3.2S_Murmansk/R3.2S_Murmansk__20260130_002809_AQUA_rec.log

#Pass ID: 20260130_002809_AQUA
#Satellite: AQUA
#Configuration: AQUA
#almurnet v.1.7.20251203
#Start time: 2026-01-30 00:28:09

#Version: 2.2.20231116
#Station: R3.2S_Murmansk
#Location: 33.079688 lon 68.888172 lat
#TLE: 1 27424U 02022A   26029.54575153  .00001738  00000+0  35736-3 0  9994
#TLE: 2 27424  98.4104 356.2197 0001804  61.7823  56.0643 14.61874165263019

#Time	Az	El	Level	Level2	SNR	BER	BlckErr	Temp	State	Recorded	gain1	gain2
2026-01-30 00:28:09.29	20.99	2.00	-55.4	-73.3	3.8	7.47e-01	0	40	0	0	82	28029
2026-01-30 00:28:12.30	21.19	2.18	-55.4	-73.2	3.8	7.45e-01	0	40	104	0	81	29420
2026-01-30 00:28:15.33	21.41	2.36	-55.4	-73.2	3.8	7.44e-01	0	40	104	0	81	29490
2026-01-30 00:28:18.35	21.62	2.54	-55.3	-73.1	3.8	7.46e-01	0	40	104	0	81	29292
2026-01-30 00:28:21.37	21.84	2.72	-55.3	-73.1	3.8	7.41e-01	0	40	104	0	81	29255
2026-01-30 00:28:24.39	22.05	2.91	-55.3	-73.1	3.8	7.44e-01	0	40	104	0	81	29159
2026-01-30 00:28:27.41	22.28	3.09	-55.5	-73.3	3.8	7.44e-01	0	40	104	0	81	30028
2026-01-30 00:28:30.44	22.50	3.27	-55.6	-73.5	3.8	7.47e-01	0	40	104	0	81	30394
2026-01-30 00:28:33.46	22.73	3.46	-55.6	-73.4	3.8	7.45e-01	0	40	104	0	81	30325
2026-01-30 00:28:36.48	22.96	3.65	-55.5	-73.3	3.8	7.45e-01	0	40	104	0	81	29945
2026-01-30 00:28:39.50	23.19	3.83	-55.5	-73.3	3.8	7.45e-01	0	40	104	0	81	29774
2026-01-30 00:28:42.53	23.43	4.02	-55.3	-73.1	3.8	7.44e-01	0	40	104	0	81	29120
2026-01-30 00:28:45.55	23.67	4.21	-54.9	-72.5	3.8	7.45e-01	0	41	104	0	81	27180
2026-01-30 00:28:48.55	23.91	4.40	-54.0	-71.8	3.8	7.46e-01	0	41	104	0	80	26574
2026-01-30 00:28:51.58	24.16	4.60	-47.5	-49.5	20.8	6.03e-01	0	41	0	3145728	67	4311
2026-01-30 00:28:54.60	24.41	4.79	-45.9	-47.5	23.0	6.05e-01	0	41	0	9437184	63	4294
2026-01-30 00:28:57.62	24.66	4.99	-46.9	-48.7	21.7	6.03e-01	0	41	0	14680064	64	4680
2026-01-30 00:29:00.64	24.92	5.18	-48.7	-51.2	20.0	6.05e-01	0	41	0	20447232	67	5259
2026-01-30 00:29:03.65	25.18	5.38	-47.2	-49.0	21.4	6.04e-01	0	41	0	26214400	66	4303
2026-01-30 00:29:06.67	25.44	5.58	-46.4	-48.0	22.4	6.02e-01	0	41	0	31457280	64	4332
2026-01-30 00:29:09.69	25.71	5.78	-46.0	-47.5	23.0	6.02e-01	0	41	0	37224448	63	4331
2026-01-30 00:29:12.71	25.98	5.98	-45.7	-47.2	23.4	6.04e-01	0	41	0	42991616	63	4181
2026-01-30 00:29:15.73	26.26	6.18	-45.5	-47.0	23.6	6.04e-01	0	41	0	48758784	62	4298
2026-01-30 00:29:18.76	26.54	6.38	-45.4	-46.8	23.8	6.03e-01	0	41	0	54525952	62	4235
2026-01-30 00:29:21.78	26.82	6.59	-45.4	-46.8	23.8	6.05e-01	0	41	0	59768832	62	4228
2026-01-30 00:29:24.80	27.11	6.79	-45.1	-46.5	24.1	6.04e-01	0	41	0	66060288	62	4070
2026-01-30 00:29:27.82	27.40	7.00	-45.0	-46.4	24.3	6.04e-01	0	41	0	71303168	61	4253
2026-01-30 00:29:30.84	27.70	7.21	-44.8	-46.1	24.5	6.04e-01	0	41	0	77070336	61	4143
2026-01-30 00:29:33.85	28.00	7.42	-44.9	-46.2	24.5	6.04e-01	0	41	0	82837504	61	4182
2026-01-30 00:29:36.88	28.31	7.63	-45.2	-46.6	24.1	6.04e-01	0	41	0	88080384	61	4374
2026-01-30 00:29:39.89	28.62	7.84	-44.9	-46.2	24.5	6.03e-01	0	41	0	93847552	61	4168
2026-01-30 00:29:42.91	28.93	8.06	-44.9	-46.2	24.5	6.05e-01	0	41	0	99614720	61	4182
2026-01-30 00:29:45.94	29.25	8.27	-44.6	-45.9	24.9	6.03e-01	0	41	0	105381888	61	4023
2026-01-30 00:29:48.96	29.58	8.49	-44.8	-46.1	24.6	6.04e-01	0	41	0	111149056	61	4133
2026-01-30 00:29:51.98	29.90	8.71	-44.7	-46.0	24.7	6.05e-01	0	41	0	116391936	61	4084
2026-01-30 00:29:55.01	30.24	8.93	-44.4	-45.7	25.0	6.05e-01	0	41	0	122683392	60	4170
2026-01-30 00:29:58.03	30.58	9.15	-44.5	-45.8	24.9	6.04e-01	0	41	0	127926272	60	4227
2026-01-30 00:30:01.05	30.93	9.37	-44.5	-45.7	25.0	6.01e-01	0	41	0	133693440	60	4189
2026-01-30 00:30:04.07	31.28	9.59	-44.4	-45.6	25.2	6.03e-01	0	41	0	139460608	60	4126
2026-01-30 00:30:07.08	31.63	9.82	-44.3	-45.5	25.3	6.03e-01	0	41	0	144703488	60	4085
2026-01-30 00:30:10.09	31.99	10.04	-44.1	-45.3	25.5	6.07e-01	0	41	0	150994944	60	3982
2026-01-30 00:30:13.11	32.36	10.27	-44.2	-45.5	25.4	6.06e-01	0	41	0	156237824	60	4055
2026-01-30 00:30:16.13	32.73	10.50	-44.5	-45.7	25.1	6.06e-01	0	41	0	162004992	60	4191
2026-01-30 00:30:19.15	33.11	10.73	-44.2	-45.4	25.5	6.04e-01	0	41	0	167772160	60	4030
2026-01-30 00:30:22.17	33.50	10.96	-44.3	-45.5	25.3	6.05e-01	0	41	0	173015040	59	4339
2026-01-30 00:30:25.18	33.89	11.19	-44.0	-45.2	25.5	6.05e-01	0	41	0	178782208	59	4190
2026-01-30 00:30:28.21	34.29	11.43	-44.2	-45.4	25.3	6.06e-01	0	41	0	184549376	59	4261
2026-01-30 00:30:31.22	34.70	11.66	-44.0	-45.2	25.6	6.03e-01	0	41	0	190316544	59	4171
2026-01-30 00:30:34.24	35.11	11.90	-43.9	-45.1	25.7	6.04e-01	0	41	0	196083712	59	4114
2026-01-30 00:30:37.26	35.53	12.14	-43.9	-45.1	25.8	6.03e-01	0	41	0	201326592	59	4121
2026-01-30 00:30:40.28	35.96	12.38	-43.9	-45.1	25.7	6.05e-01	0	41	0	207093760	59	4123
2026-01-30 00:30:43.30	36.39	12.62	-44.0	-45.2	25.7	6.03e-01	0	41	0	212860928	59	4187
2026-01-30 00:30:46.32	36.83	12.86	-43.9	-45.0	25.8	6.04e-01	0	41	0	218628096	59	4090
2026-01-30 00:30:49.33	37.28	13.10	-43.6	-44.8	26.0	6.05e-01	0	41	0	224395264	59	3980
2026-01-30 00:30:52.35	37.74	13.35	-43.6	-44.8	26.0	6.03e-01	0	41	0	229638144	59	3971
2026-01-30 00:30:55.37	38.20	13.59	-43.6	-44.7	26.1	6.02e-01	0	41	0	235405312	59	3949
2026-01-30 00:30:58.39	38.68	13.84	-43.6	-44.7	26.2	6.05e-01	0	41	0	241172480	59	3953
2026-01-30 00:31:01.41	39.16	14.09	-43.5	-44.6	26.2	6.05e-01	0	41	0	246939648	59	3893
2026-01-30 00:31:04.42	39.65	14.34	-43.5	-44.6	26.3	6.01e-01	0	41	0	252706816	58	4120
2026-01-30 00:31:07.44	40.14	14.59	-43.4	-44.6	26.3	6.05e-01	0	41	0	257949696	58	4112
2026-01-30 00:31:10.45	40.65	14.84	-43.2	-44.4	26.5	6.04e-01	0	41	0	263716864	58	4006
2026-01-30 00:31:13.48	41.17	15.09	-43.3	-44.4	26.4	6.03e-01	0	41	0	269484032	58	4045
2026-01-30 00:31:16.50	41.69	15.34	-43.2	-44.3	26.6	6.04e-01	0	41	0	275251200	58	3988
2026-01-30 00:31:19.51	42.23	15.59	-43.2	-44.3	26.5	6.04e-01	0	41	0	281018368	58	3995
2026-01-30 00:31:22.53	42.77	15.85	-43.2	-44.3	26.6	6.04e-01	0	41	0	286261248	58	3992
2026-01-30 00:31:25.55	43.32	16.10	-43.3	-44.5	26.4	6.03e-01	0	41	0	292028416	58	4061
2026-01-30 00:31:28.57	43.89	16.36	-43.1	-44.2	26.6	6.05e-01	0	41	0	297795584	58	3957
2026-01-30 00:31:31.59	44.46	16.61	-43.2	-44.3	26.6	6.03e-01	0	41	0	303562752	58	3989
2026-01-30 00:31:34.61	45.04	16.87	-43.1	-44.3	26.6	6.03e-01	0	41	0	309329920	58	3961
2026-01-30 00:31:37.63	45.64	17.13	-43.2	-44.3	26.6	6.02e-01	0	41	0	314572800	58	3979
2026-01-30 00:31:40.65	46.24	17.38	-43.1	-44.2	26.7	6.03e-01	0	41	0	320339968	58	3942
2026-01-30 00:31:43.67	46.86	17.64	-43.1	-44.2	26.7	6.02e-01	0	41	0	326107136	58	3945
2026-01-30 00:31:46.69	47.48	17.89	-43.1	-44.2	26.7	6.03e-01	0	41	0	331874304	58	3950
2026-01-30 00:31:49.71	48.12	18.15	-43.2	-44.3	26.6	6.05e-01	0	41	0	337641472	58	4002
2026-01-30 00:31:52.74	48.77	18.41	-43.1	-44.2	26.8	6.02e-01	0	41	0	342884352	58	3914
2026-01-30 00:31:55.76	49.43	18.66	-43.2	-44.3	26.6	6.03e-01	0	41	0	348651520	58	3999
2026-01-30 00:31:58.77	50.10	18.92	-43.2	-44.3	26.7	6.01e-01	0	41	0	354418688	58	3965
2026-01-30 00:32:01.79	50.78	19.17	-43.2	-44.3	26.7	6.02e-01	0	41	0	360185856	58	3967
2026-01-30 00:32:04.81	51.48	19.42	-43.2	-44.3	26.7	6.03e-01	0	41	0	365953024	58	4002
2026-01-30 00:32:07.83	52.19	19.67	-43.3	-44.4	26.7	6.04e-01	0	41	0	371195904	58	4011
2026-01-30 00:32:10.85	52.91	19.92	-43.4	-44.5	26.5	6.02e-01	0	41	0	376963072	58	4065
2026-01-30 00:32:13.87	53.64	20.17	-43.3	-44.4	26.6	6.04e-01	0	41	0	382730240	58	4043
2026-01-30 00:32:16.88	54.38	20.42	-43.1	-44.2	26.8	6.03e-01	0	41	0	388497408	58	3936
2026-01-30 00:32:19.90	55.13	20.66	-43.3	-44.5	26.6	6.02e-01	0	41	0	394264576	58	4056
2026-01-30 00:32:22.92	55.90	20.90	-43.3	-44.4	26.6	6.04e-01	0	41	0	399507456	58	4019
2026-01-30 00:32:25.95	56.68	21.14	-43.3	-44.4	26.7	6.04e-01	0	41	0	405274624	58	4035
2026-01-30 00:32:28.96	57.47	21.38	-43.4	-44.5	26.5	6.04e-01	0	41	0	411041792	58	4079
2026-01-30 00:32:31.98	58.28	21.61	-43.5	-44.6	26.4	6.04e-01	0	41	0	416808960	58	4120
2026-01-30 00:32:34.99	59.10	21.84	-43.4	-44.6	26.5	6.04e-01	0	41	0	422576128	58	4111
2026-01-30 00:32:38.01	59.93	22.07	-43.5	-44.7	26.5	6.01e-01	0	41	0	427819008	58	4146
2026-01-30 00:32:41.02	60.77	22.30	-43.5	-44.6	26.4	6.04e-01	0	41	0	433586176	58	4135
2026-01-30 00:32:44.04	61.62	22.51	-43.4	-44.6	26.5	6.03e-01	0	41	0	439353344	58	4102
2026-01-30 00:32:47.06	62.49	22.73	-43.5	-44.7	26.4	6.04e-01	0	41	0	445120512	58	4146
2026-01-30 00:32:50.07	63.37	22.94	-43.5	-44.6	26.5	6.04e-01	0	41	0	450363392	58	4124
2026-01-30 00:32:53.11	64.27	23.15	-43.8	-44.9	26.2	6.03e-01	0	41	0	456130560	58	4277
2026-01-30 00:32:56.12	65.17	23.35	-43.7	-44.8	26.3	6.03e-01	0	41	0	461897728	58	4224
2026-01-30 00:32:59.14	66.09	23.54	-43.5	-44.7	26.4	6.02e-01	0	41	0	467664896	58	4162
2026-01-30 00:33:02.17	67.02	23.73	-43.6	-44.7	26.3	6.05e-01	0	42	0	473432064	58	4191
2026-01-30 00:33:05.19	67.96	23.92	-43.8	-45.0	26.1	6.04e-01	0	42	0	478674944	58	4310
2026-01-30 00:33:08.21	68.91	24.09	-43.8	-44.9	26.2	6.03e-01	0	41	0	484442112	58	4284
2026-01-30 00:33:11.23	69.87	24.26	-43.6	-44.8	26.3	6.03e-01	0	41	0	490209280	58	4211
2026-01-30 00:33:14.25	70.84	24.43	-43.7	-44.8	26.4	6.03e-01	0	41	0	495976448	58	4235
2026-01-30 00:33:17.28	71.83	24.58	-43.6	-44.8	26.4	6.04e-01	0	41	0	501743616	58	4212
2026-01-30 00:33:20.30	72.82	24.73	-43.5	-44.7	26.5	6.03e-01	0	41	0	507510784	58	4154
2026-01-30 00:33:23.31	73.82	24.87	-43.6	-44.8	26.4	6.02e-01	0	41	0	512753664	58	4206
2026-01-30 00:33:26.34	74.84	25.00	-43.7	-44.8	26.3	6.04e-01	0	41	0	518520832	58	4217
2026-01-30 00:33:29.35	75.85	25.13	-43.7	-44.8	26.3	6.04e-01	0	41	0	524288000	58	4216
2026-01-30 00:33:32.38	76.88	25.24	-43.6	-44.7	26.5	6.06e-01	0	41	0	530055168	58	4161
2026-01-30 00:33:35.39	77.92	25.35	-43.6	-44.8	26.4	6.03e-01	0	41	0	535822336	58	4214
2026-01-30 00:33:38.41	78.96	25.45	-43.5	-44.6	26.6	6.04e-01	0	41	0	541065216	58	4112
2026-01-30 00:33:41.43	80.01	25.54	-43.7	-44.9	26.3	6.04e-01	0	41	0	546832384	58	4252
2026-01-30 00:33:44.44	81.06	25.62	-43.4	-44.5	26.6	6.04e-01	0	41	0	552599552	58	4080
2026-01-30 00:33:47.46	82.12	25.68	-43.5	-44.6	26.5	6.04e-01	0	41	0	558366720	58	4135
2026-01-30 00:33:50.48	83.18	25.74	-43.5	-44.6	26.5	6.04e-01	0	41	0	563609600	58	4127
2026-01-30 00:33:53.50	84.25	25.79	-43.5	-44.6	26.5	6.04e-01	0	41	0	569376768	58	4142
2026-01-30 00:33:56.53	85.32	25.83	-43.3	-44.4	26.6	6.04e-01	0	41	0	575143936	58	4030
2026-01-30 00:33:59.56	86.40	25.86	-43.4	-44.5	26.7	6.04e-01	0	41	0	580911104	58	4070
2026-01-30 00:34:02.57	87.47	25.88	-43.2	-44.3	26.9	6.03e-01	0	41	0	586678272	58	3984
2026-01-30 00:34:05.59	88.55	25.89	-43.3	-44.4	26.8	6.06e-01	0	41	0	591921152	58	4010
2026-01-30 00:34:08.61	89.63	25.89	-43.3	-44.4	26.8	6.03e-01	0	41	0	597688320	58	4034
2026-01-30 00:34:11.63	90.70	25.88	-43.3	-44.4	26.7	6.04e-01	0	41	0	603455488	58	4025
2026-01-30 00:34:14.65	91.78	25.86	-43.3	-44.4	26.7	6.04e-01	0	41	0	609222656	58	4049
2026-01-30 00:34:17.67	92.85	25.82	-43.3	-44.4	26.8	6.02e-01	0	41	0	614989824	58	4023
2026-01-30 00:34:20.69	93.92	25.78	-43.2	-44.3	26.8	6.03e-01	0	41	0	620756992	58	4001
2026-01-30 00:34:23.71	94.99	25.73	-43.3	-44.4	26.8	6.03e-01	0	41	0	625999872	58	4015
2026-01-30 00:34:26.73	96.05	25.67	-43.4	-44.5	26.6	6.05e-01	0	41	0	631767040	58	4058
2026-01-30 00:34:29.76	97.12	25.60	-43.2	-44.3	26.8	6.03e-01	0	41	0	637534208	58	3980
2026-01-30 00:34:32.78	98.17	25.51	-43.3	-44.4	26.7	6.04e-01	0	41	0	643301376	58	4013
2026-01-30 00:34:35.80	99.22	25.42	-43.0	-44.1	27.0	6.02e-01	0	41	0	649068544	58	3901
2026-01-30 00:34:38.82	100.26	25.32	-43.1	-44.2	26.9	6.03e-01	0	41	0	654311424	58	3934
2026-01-30 00:34:41.84	101.30	25.21	-43.0	-44.1	27.0	6.03e-01	0	41	0	660078592	58	3890
2026-01-30 00:34:44.86	102.32	25.10	-43.2	-44.3	26.8	6.05e-01	0	41	0	665845760	58	3992
2026-01-30 00:34:47.88	103.34	24.97	-43.2	-44.3	26.9	6.02e-01	0	41	0	671612928	58	3962
2026-01-30 00:34:50.90	104.35	24.83	-43.2	-44.3	26.8	6.03e-01	0	41	0	677380096	58	3989
2026-01-30 00:34:53.92	105.36	24.69	-43.3	-44.4	26.8	6.05e-01	0	41	0	683147264	58	4024
2026-01-30 00:34:56.94	106.35	24.54	-42.9	-43.9	27.1	6.03e-01	0	41	0	688390144	57	4050
2026-01-30 00:34:59.96	107.33	24.38	-43.2	-44.3	26.8	6.04e-01	0	41	0	694157312	57	4203
2026-01-30 00:35:02.98	108.30	24.22	-43.1	-44.2	26.9	6.04e-01	0	41	0	699924480	57	4150
2026-01-30 00:35:06.01	109.27	24.04	-43.1	-44.2	26.8	6.02e-01	0	41	0	705691648	57	4186
2026-01-30 00:35:09.02	110.22	23.86	-43.0	-44.1	27.0	6.03e-01	0	41	0	711458816	57	4133
2026-01-30 00:35:12.04	111.15	23.68	-43.1	-44.1	27.0	6.02e-01	0	41	0	716701696	57	4144
2026-01-30 00:35:15.06	112.08	23.49	-43.1	-44.2	26.8	6.02e-01	0	41	0	722468864	57	4171
2026-01-30 00:35:18.09	113.00	23.29	-43.0	-44.1	27.0	6.05e-01	0	41	0	728236032	57	4131
2026-01-30 00:35:21.11	113.91	23.09	-43.0	-44.1	26.9	6.03e-01	0	41	0	734003200	57	4128
2026-01-30 00:35:24.13	114.80	22.88	-43.2	-44.3	26.8	6.03e-01	0	41	0	739770368	57	4224
2026-01-30 00:35:27.15	115.68	22.66	-43.1	-44.2	26.9	6.05e-01	0	41	0	745013248	57	4180
2026-01-30 00:35:30.18	116.55	22.45	-43.0	-44.1	27.0	6.04e-01	0	41	0	750780416	57	4114
2026-01-30 00:35:33.20	117.40	22.22	-43.1	-44.2	26.9	6.04e-01	0	41	0	756547584	57	4148
2026-01-30 00:35:36.23	118.25	22.00	-42.9	-44.0	27.1	6.03e-01	0	41	0	762314752	57	4061
2026-01-30 00:35:39.25	119.08	21.77	-42.9	-44.0	27.0	6.02e-01	0	41	0	768081920	57	4080
2026-01-30 00:35:42.28	119.90	21.53	-42.9	-44.0	26.9	6.04e-01	0	41	0	773324800	57	4081
2026-01-30 00:35:45.30	120.70	21.30	-42.9	-43.9	27.1	6.03e-01	0	41	0	779091968	57	4049
2026-01-30 00:35:48.32	121.50	21.06	-43.0	-44.1	26.9	6.04e-01	0	41	0	784859136	57	4101
2026-01-30 00:35:51.34	122.28	20.82	-43.0	-44.1	26.9	6.02e-01	0	41	0	790626304	57	4104
2026-01-30 00:35:54.36	123.04	20.57	-42.9	-44.0	27.1	6.05e-01	0	41	0	796393472	57	4064
2026-01-30 00:35:57.38	123.80	20.33	-42.7	-43.8	27.2	6.03e-01	0	41	0	801636352	57	3992
2026-01-30 00:36:00.40	124.54	20.08	-43.0	-44.1	26.9	6.02e-01	0	41	0	807403520	57	4108
2026-01-30 00:36:03.43	125.27	19.83	-42.8	-43.9	26.9	6.05e-01	0	41	0	813170688	57	4033
2026-01-30 00:36:06.45	125.99	19.57	-42.8	-43.9	27.0	6.02e-01	0	41	0	818937856	57	4015
2026-01-30 00:36:09.47	126.69	19.32	-42.8	-43.9	27.0	6.04e-01	0	41	0	824705024	57	4013
2026-01-30 00:36:12.49	127.39	19.07	-42.9	-43.9	26.8	6.03e-01	0	41	0	830472192	57	4050
2026-01-30 00:36:15.51	128.07	18.81	-42.7	-43.8	27.0	6.01e-01	0	41	0	835715072	57	3984
2026-01-30 00:36:18.54	128.74	18.56	-42.6	-43.7	27.1	6.03e-01	0	41	0	841482240	57	3947
2026-01-30 00:36:21.55	129.40	18.30	-42.5	-43.6	27.2	6.04e-01	0	41	0	847249408	57	3881
2026-01-30 00:36:24.57	130.05	18.04	-42.6	-43.7	27.0	6.04e-01	0	41	0	853016576	57	3939
2026-01-30 00:36:27.59	130.68	17.78	-42.6	-43.7	27.0	6.04e-01	0	41	0	858783744	57	3931
2026-01-30 00:36:30.61	131.31	17.53	-42.6	-43.7	27.0	6.04e-01	0	41	0	864026624	56	4173
2026-01-30 00:36:33.63	131.92	17.27	-42.6	-43.7	27.0	6.03e-01	0	41	0	869793792	56	4165
2026-01-30 00:36:36.65	132.52	17.01	-42.5	-43.6	27.1	6.03e-01	0	41	0	875560960	56	4105
2026-01-30 00:36:39.67	133.12	16.75	-42.5	-43.6	27.1	6.04e-01	0	41	0	881328128	56	4125
2026-01-30 00:36:42.69	133.70	16.50	-42.7	-43.8	26.8	6.03e-01	0	41	0	887095296	56	4195
2026-01-30 00:36:45.72	134.27	16.24	-42.6	-43.7	26.9	6.04e-01	0	41	0	892338176	56	4180
2026-01-30 00:36:48.73	134.83	15.98	-42.5	-43.6	27.0	6.03e-01	0	41	0	898105344	56	4121
2026-01-30 00:36:51.75	135.39	15.73	-42.6	-43.7	26.8	6.03e-01	0	41	0	903872512	56	4179
2026-01-30 00:36:54.77	135.93	15.47	-42.4	-43.5	27.0	6.04e-01	0	41	0	909639680	56	4063
2026-01-30 00:36:57.79	136.46	15.22	-42.6	-43.7	26.9	6.04e-01	0	41	0	914882560	56	4146
2026-01-30 00:37:00.81	136.98	14.96	-42.7	-43.8	26.7	6.04e-01	0	41	0	920649728	56	4204
2026-01-30 00:37:03.83	137.50	14.71	-42.9	-44.0	26.6	6.05e-01	0	41	0	926416896	56	4314
2026-01-30 00:37:06.85	138.01	14.46	-42.6	-43.7	26.8	6.04e-01	0	41	0	932184064	56	4159
2026-01-30 00:37:09.87	138.50	14.20	-42.5	-43.6	26.9	6.02e-01	0	41	0	937951232	56	4122
2026-01-30 00:37:12.89	138.99	13.95	-42.7	-43.8	26.7	6.04e-01	0	41	0	943718400	56	4229
2026-01-30 00:37:15.91	139.47	13.71	-42.8	-43.9	26.5	6.02e-01	0	41	0	948961280	56	4280
2026-01-30 00:37:18.93	139.94	13.46	-42.8	-44.0	26.5	6.03e-01	0	41	0	954728448	56	4295
2026-01-30 00:37:21.95	140.40	13.21	-42.7	-43.8	26.7	6.03e-01	0	41	0	960495616	56	4234
2026-01-30 00:37:24.98	140.86	12.96	-42.6	-43.7	26.7	6.02e-01	0	41	0	966262784	56	4179
2026-01-30 00:37:27.99	141.31	12.72	-42.9	-44.0	26.5	6.03e-01	0	41	0	972029952	56	4311
2026-01-30 00:37:31.02	141.75	12.48	-42.9	-44.0	26.4	6.04e-01	0	41	0	977272832	56	4332
2026-01-30 00:37:34.04	142.18	12.23	-43.1	-44.2	26.2	6.04e-01	0	41	0	983040000	56	4438
2026-01-30 00:37:37.06	142.61	11.99	-43.0	-44.2	26.3	6.02e-01	0	41	0	988807168	56	4396
2026-01-30 00:37:40.07	143.02	11.75	-43.0	-44.2	26.2	6.04e-01	0	41	0	994574336	56	4409
2026-01-30 00:37:43.10	143.44	11.52	-43.0	-44.1	25.7	6.05e-01	0	41	0	1000341504	56	4358
2026-01-30 00:37:46.12	143.84	11.28	-42.9	-44.0	26.3	6.02e-01	0	41	0	1005584384	56	4322
2026-01-30 00:37:49.14	144.24	11.04	-43.1	-44.2	26.1	6.03e-01	0	41	0	1011351552	56	4419
2026-01-30 00:37:52.15	144.63	10.81	-43.2	-44.3	25.9	6.04e-01	0	41	0	1017118720	56	4488
2026-01-30 00:37:55.16	145.01	10.58	-43.3	-44.5	25.9	6.04e-01	0	41	0	1022885888	57	4294
2026-01-30 00:37:58.19	145.39	10.35	-43.3	-44.5	25.9	6.04e-01	0	41	0	1028128768	57	4321
2026-01-30 00:38:01.21	145.76	10.12	-43.3	-44.5	25.9	6.03e-01	0	41	0	1033895936	57	4303
2026-01-30 00:38:04.24	146.13	9.89	-43.3	-44.5	25.9	6.02e-01	0	41	0	1039663104	57	4317
2026-01-30 00:38:07.26	146.49	9.66	-43.6	-44.8	25.6	6.03e-01	0	41	0	1045430272	57	4450
2026-01-30 00:38:10.28	146.85	9.43	-43.4	-44.6	25.7	6.01e-01	0	41	0	1051197440	57	4381
2026-01-30 00:38:13.30	147.19	9.21	-43.7	-44.9	25.4	6.04e-01	0	41	0	1056964608	58	4271
2026-01-30 00:38:16.32	147.54	8.99	-43.7	-44.9	25.4	6.04e-01	0	41	0	1062207488	58	4270
2026-01-30 00:38:19.34	147.88	8.77	-43.9	-45.1	25.2	6.06e-01	0	41	0	1067974656	58	4387
2026-01-30 00:38:22.36	148.21	8.55	-44.0	-45.3	25.0	6.05e-01	0	41	0	1073741824	58	4455
2026-01-30 00:38:25.38	148.54	8.33	-43.9	-45.2	25.2	6.04e-01	0	41	0	1079508992	58	4393
2026-01-30 00:38:28.40	148.86	8.11	-44.0	-45.3	25.0	6.04e-01	0	41	0	1085276160	58	4459
2026-01-30 00:38:31.41	149.17	7.89	-43.9	-45.1	25.1	6.04e-01	0	41	0	1090519040	58	4390
2026-01-30 00:38:34.44	149.49	7.68	-44.0	-45.3	24.9	6.03e-01	0	41	0	1096286208	58	4470
2026-01-30 00:38:37.46	149.80	7.47	-44.2	-45.5	24.7	6.03e-01	0	41	0	1102053376	58	4577
2026-01-30 00:38:40.48	150.10	7.25	-44.2	-45.5	24.6	6.01e-01	0	41	0	1107820544	59	4315
2026-01-30 00:38:43.50	150.40	7.04	-44.2	-45.5	24.5	6.04e-01	0	41	0	1113587712	59	4323
2026-01-30 00:38:46.52	150.69	6.83	-44.2	-45.4	24.6	6.04e-01	0	41	0	1118830592	59	4284
2026-01-30 00:38:49.55	150.98	6.63	-44.3	-45.6	24.5	6.03e-01	0	41	0	1124597760	59	4365
2026-01-30 00:38:52.56	151.27	6.42	-44.2	-45.5	24.5	6.07e-01	0	41	0	1130364928	59	4330
2026-01-30 00:38:55.59	151.55	6.21	-44.4	-45.8	24.3	6.01e-01	0	41	0	1136132096	59	4449
2026-01-30 00:38:58.61	151.83	6.01	-44.7	-46.1	24.0	6.05e-01	0	41	0	1141899264	60	4365
2026-01-30 00:39:01.63	152.10	5.81	-44.5	-45.9	24.1	6.02e-01	0	41	0	1147142144	60	4272
2026-01-30 00:39:04.65	152.37	5.61	-44.9	-46.3	23.7	6.05e-01	0	41	0	1152909312	60	4484
2026-01-30 00:39:07.68	152.64	5.40	-44.6	-46.0	23.9	6.04e-01	0	41	0	1158676480	60	4302
2026-01-30 00:39:10.70	152.90	5.20	-44.8	-46.3	23.7	6.02e-01	0	41	0	1164443648	60	4456
2026-01-30 00:39:13.73	153.16	5.01	-52.8	-60.1	12.6	6.15e-01	0	41	0	1170210816	75	9253
2026-01-30 00:39:16.74	153.41	4.81	-54.4	-72.2	3.8	7.43e-01	0	41	104	1170210816	79	29574
2026-01-30 00:39:19.77	153.66	4.61	-54.9	-72.6	3.8	7.42e-01	0	41	104	1170210816	80	29211
2026-01-30 00:39:22.79	153.91	4.42	-55.2	-72.9	3.8	7.43e-01	0	41	104	1170210816	80	30069
2026-01-30 00:39:25.82	154.16	4.23	-55.4	-73.2	3.8	7.44e-01	0	42	104	1170210816	81	29457
2026-01-30 00:39:28.84	154.40	4.03	-55.6	-73.4	3.8	7.48e-01	0	41	104	1170210816	81	30094
2026-01-30 00:39:31.86	154.64	3.84	-55.8	-73.6	3.8	7.46e-01	0	41	104	1170210816	82	29059
2026-01-30 00:39:34.88	154.87	3.65	-55.9	-73.7	3.8	7.47e-01	0	42	104	1170210816	82	29438
2026-01-30 00:39:37.90	155.10	3.46	-55.9	-73.7	3.8	7.47e-01	0	42	104	1170210816	82	29603
2026-01-30 00:39:40.92	155.33	3.28	-55.9	-73.8	3.8	7.44e-01	0	42	104	1170210816	82	29718
2026-01-30 00:39:43.94	155.56	3.09	-56.0	-73.8	3.8	7.46e-01	0	41	104	1170210816	82	29941
2026-01-30 00:39:46.97	155.78	2.90	-55.9	-73.7	3.8	7.42e-01	0	42	104	1170210816	82	29576
2026-01-30 00:39:49.99	156.00	2.72	-55.7	-73.5	3.8	7.45e-01	0	42	104	1170210816	82	29009
2026-01-30 00:39:53.01	156.21	2.54	-55.5	-73.3	3.8	7.43e-01	0	42	104	1170210816	82	28325
2026-01-30 00:39:56.03	156.43	2.35	-55.3	-73.1	3.8	7.45e-01	0	42	104	1170210816	82	27526
2026-01-30 00:39:59.05	156.64	2.17	-54.8	-72.6	3.8	7.46e-01	0	42	104	1170210816	81	27471
2026-01-30 00:40:02.07	156.85	1.99	-54.7	-72.5	3.8	7.45e-01	0	41	104	1170210816	81	27198

#Closed at: 2026-01-30 00:40:02
#Recorded file [1170 MB]: D:/lorett/data/31041_260130_032809.dat