passes_logs/2026/01/30/R3.2S_Murmansk/R3.2S_Murmansk__20260130_080751_SUOMI_NPP_rec.log

#Pass ID: 20260130_080751_SUOMI NPP
#Satellite: SUOMI NPP
#Configuration: NPP
#almurnet v.1.7.20251203
#Start time: 2026-01-30 08:07:52

#Version: 2.2.20231116
#Station: R3.2S_Murmansk
#Location: 33.079688 lon 68.888172 lat
#TLE: 1 37849U 11061A   26029.48304708  .00000140  00000+0  87283-4 0  9999
#TLE: 2 37849  98.7824 331.4079 0002024  38.4342 321.6978 14.19531488738761

#Time	Az	El	Level	Level2	SNR	BER	BlckErr	Temp	State	Recorded	gain1	gain2
2026-01-30 08:07:52.07	117.47	2.06	-54.2	-69.1	3.8	1.49e+00	0	39	0	0	79	20713
2026-01-30 08:07:56.10	117.34	2.31	-54.2	-69.2	3.8	1.49e+00	0	39	104	0	79	20911
2026-01-30 08:08:00.14	117.20	2.57	-54.0	-69.0	3.8	1.49e+00	0	39	104	0	79	20440
2026-01-30 08:08:04.17	117.07	2.83	-53.8	-68.8	3.8	1.49e+00	0	40	104	0	79	19856
2026-01-30 08:08:08.19	116.93	3.08	-53.6	-68.5	3.8	1.49e+00	0	40	104	0	79	19351
2026-01-30 08:08:12.22	116.78	3.35	-53.3	-68.3	3.8	1.49e+00	0	40	104	0	78	19929
2026-01-30 08:08:16.25	116.64	3.61	-52.9	-67.9	3.8	1.49e+00	0	40	104	0	77	20157
2026-01-30 08:08:20.28	116.49	3.88	-52.2	-67.1	3.8	1.49e+00	0	40	104	0	76	19603
2026-01-30 08:08:24.31	116.34	4.14	-51.9	-66.2	3.8	1.49e+00	0	40	104	0	75	18531
2026-01-30 08:08:28.33	116.19	4.42	-50.5	-56.0	9.5	4.79e-02	0	40	0	4194304	73	6494
2026-01-30 08:08:32.36	116.03	4.69	-48.3	-51.1	14.7	7.00e-07	0	40	0	11534336	68	4912
2026-01-30 08:08:36.39	115.87	4.97	-46.7	-48.8	16.9	0.00e+00	0	40	0	18874368	65	4450
2026-01-30 08:08:40.41	115.70	5.24	-47.5	-49.9	15.9	0.00e+00	0	40	0	26214400	67	4508
2026-01-30 08:08:44.43	115.54	5.53	-46.4	-48.2	17.8	0.00e+00	0	40	0	34603008	64	4394
2026-01-30 08:08:48.46	115.37	5.81	-46.5	-48.3	17.7	0.00e+00	0	40	0	41943040	64	4472
2026-01-30 08:08:52.49	115.19	6.10	-46.5	-48.3	17.7	0.00e+00	0	41	0	49283072	64	4466
2026-01-30 08:08:56.52	115.01	6.39	-46.3	-48.1	18.0	0.00e+00	0	40	0	56623104	64	4370
2026-01-30 08:09:00.54	114.83	6.68	-46.2	-47.9	18.2	0.00e+00	0	41	0	63963136	64	4250
2026-01-30 08:09:04.56	114.65	6.98	-46.6	-48.5	17.8	0.00e+00	0	41	0	72351744	63	4826
2026-01-30 08:09:08.60	114.45	7.28	-46.3	-48.0	18.2	0.00e+00	0	40	0	79691776	64	4319
2026-01-30 08:09:12.61	114.26	7.58	-46.3	-48.0	18.2	0.00e+00	0	41	0	87031808	64	4333
2026-01-30 08:09:16.64	114.06	7.88	-46.1	-47.8	18.5	0.00e+00	0	41	0	94371840	63	4461
2026-01-30 08:09:20.66	113.86	8.19	-46.2	-47.9	18.4	0.00e+00	0	41	0	101711872	63	4517
2026-01-30 08:09:24.68	113.65	8.51	-45.6	-47.1	19.2	0.00e+00	0	41	0	110100480	63	4132
2026-01-30 08:09:28.71	113.44	8.82	-45.5	-47.0	19.3	0.00e+00	0	41	0	117440512	63	4056
2026-01-30 08:09:32.74	113.22	9.14	-45.9	-47.5	18.9	0.00e+00	0	41	0	124780544	62	4577
2026-01-30 08:09:36.77	113.00	9.47	-45.9	-47.4	19.0	0.00e+00	0	41	0	132120576	62	4526
2026-01-30 08:09:40.79	112.77	9.79	-45.7	-47.2	19.2	0.00e+00	0	41	0	139460608	62	4430
2026-01-30 08:09:44.82	112.54	10.12	-45.6	-47.0	19.4	0.00e+00	0	41	0	147849216	62	4316
2026-01-30 08:09:48.84	112.30	10.46	-45.6	-47.0	19.4	0.00e+00	0	41	0	155189248	62	4331
2026-01-30 08:09:52.88	112.05	10.80	-45.6	-47.1	19.4	0.00e+00	0	41	0	162529280	62	4342
2026-01-30 08:09:56.90	111.80	11.14	-45.5	-46.9	19.5	0.00e+00	0	41	0	169869312	62	4270
2026-01-30 08:10:00.93	111.54	11.49	-45.5	-47.1	19.2	0.00e+00	0	41	0	177209344	62	4391
2026-01-30 08:10:04.96	111.28	11.84	-45.0	-46.4	19.9	0.00e+00	0	41	0	185597952	61	4259
2026-01-30 08:10:09.00	111.01	12.20	-45.1	-46.6	19.7	0.00e+00	0	41	0	192937984	61	4380
2026-01-30 08:10:13.02	110.73	12.56	-45.1	-46.6	19.8	0.00e+00	0	41	0	200278016	61	4350
2026-01-30 08:10:17.05	110.45	12.93	-44.9	-46.4	19.9	0.00e+00	0	41	0	207618048	61	4246
2026-01-30 08:10:21.08	110.15	13.30	-44.8	-46.2	20.2	0.00e+00	0	41	0	216006656	61	4166
2026-01-30 08:10:25.10	109.85	13.68	-44.9	-46.4	20.0	0.00e+00	0	41	0	223346688	61	4266
2026-01-30 08:10:29.14	109.54	14.06	-44.7	-46.0	20.3	0.00e+00	0	41	0	230686720	61	4096
2026-01-30 08:10:33.17	109.23	14.44	-44.8	-46.1	20.2	0.00e+00	0	41	0	238026752	61	4142
2026-01-30 08:10:37.20	108.90	14.84	-44.8	-46.3	20.1	0.00e+00	0	41	0	245366784	61	4199
2026-01-30 08:10:41.23	108.57	15.23	-44.9	-46.3	20.1	0.00e+00	0	41	0	252706816	61	4229
2026-01-30 08:10:45.26	108.22	15.64	-45.2	-46.7	19.8	0.00e+00	0	41	0	261095424	61	4429
2026-01-30 08:10:49.29	107.87	16.04	-45.1	-46.6	19.8	0.00e+00	0	41	0	268435456	61	4375
2026-01-30 08:10:53.32	107.50	16.46	-44.7	-46.1	20.3	0.00e+00	0	41	0	275775488	61	4142
2026-01-30 08:10:57.34	107.13	16.88	-45.1	-46.6	19.9	0.00e+00	0	41	0	283115520	61	4371
2026-01-30 08:11:01.37	106.74	17.30	-44.9	-46.3	20.1	0.00e+00	0	41	0	290455552	61	4231
2026-01-30 08:11:05.39	106.35	17.73	-44.7	-46.0	20.5	0.00e+00	0	41	0	298844160	61	4086
2026-01-30 08:11:09.41	105.94	18.17	-44.9	-46.3	20.3	0.00e+00	0	41	0	306184192	61	4209
2026-01-30 08:11:13.44	105.52	18.61	-45.0	-46.4	20.1	0.00e+00	0	41	0	313524224	61	4256
2026-01-30 08:11:17.47	105.08	19.07	-45.0	-46.4	20.2	0.00e+00	0	41	0	320864256	61	4247
2026-01-30 08:11:21.50	104.64	19.52	-45.4	-46.9	19.7	0.00e+00	0	41	0	329252864	61	4505
2026-01-30 08:11:25.53	104.17	19.99	-45.2	-46.6	20.0	0.00e+00	0	41	0	336592896	61	4357
2026-01-30 08:11:29.56	103.70	20.46	-44.6	-45.9	20.6	0.00e+00	0	41	0	343932928	61	4043
2026-01-30 08:11:33.59	103.21	20.93	-44.7	-46.0	20.5	0.00e+00	0	41	0	351272960	61	4098
2026-01-30 08:11:37.60	102.70	21.42	-45.1	-46.5	20.0	0.00e+00	0	41	0	358612992	61	4309
2026-01-30 08:11:41.63	102.18	21.91	-45.4	-46.9	19.7	0.00e+00	0	41	0	365953024	61	4518
2026-01-30 08:11:45.65	101.64	22.40	-45.4	-46.8	19.7	0.00e+00	0	41	0	374341632	62	4237
2026-01-30 08:11:49.67	101.08	22.91	-45.3	-46.7	19.9	0.00e+00	0	41	0	381681664	62	4178
2026-01-30 08:11:53.70	100.50	23.42	-45.6	-47.2	19.4	0.00e+00	0	41	0	389021696	62	4420
2026-01-30 08:11:57.72	99.90	23.94	-45.8	-47.5	19.2	0.00e+00	0	41	0	396361728	62	4551
2026-01-30 08:12:01.75	99.28	24.46	-45.3	-46.9	19.7	0.00e+00	0	41	0	403701760	62	4247
2026-01-30 08:12:05.77	98.65	24.99	-45.1	-46.6	20.0	0.00e+00	0	41	0	412090368	61	4379
2026-01-30 08:12:09.79	97.99	25.53	-45.4	-46.9	19.7	0.00e+00	0	41	0	419430400	61	4521
2026-01-30 08:12:13.82	97.30	26.07	-45.5	-47.1	19.5	0.00e+00	0	41	0	426770432	61	4613
2026-01-30 08:12:17.84	96.59	26.62	-45.5	-47.0	19.6	0.00e+00	0	41	0	434110464	61	4570
2026-01-30 08:12:21.87	95.86	27.18	-45.5	-47.1	19.5	0.00e+00	0	41	0	441450496	61	4611
2026-01-30 08:12:25.89	95.09	27.75	-45.9	-47.7	18.9	0.00e+00	0	41	0	449839104	62	4657
2026-01-30 08:12:29.92	94.30	28.32	-45.3	-46.8	19.8	0.00e+00	0	41	0	457179136	62	4201
2026-01-30 08:12:33.94	93.49	28.89	-46.1	-47.7	19.0	0.00e+00	0	41	0	464519168	62	4689
2026-01-30 08:12:37.96	92.64	29.47	-46.4	-48.2	18.6	0.00e+00	0	41	0	471859200	63	4673
2026-01-30 08:12:41.99	91.76	30.05	-47.1	-49.2	17.4	0.00e+00	0	41	0	479199232	65	4693
2026-01-30 08:12:46.01	90.85	30.64	-47.5	-49.8	16.7	0.00e+00	0	41	0	487587840	66	4732
2026-01-30 08:12:50.03	89.90	31.23	-47.1	-49.2	17.5	0.00e+00	0	41	0	494927872	65	4667
2026-01-30 08:12:54.05	88.92	31.82	-47.4	-49.6	17.0	0.00e+00	0	41	0	502267904	66	4599
2026-01-30 08:12:58.08	87.90	32.42	-47.1	-49.0	17.8	0.00e+00	0	41	0	509607936	65	4593
2026-01-30 08:13:02.11	86.84	33.02	-48.4	-51.2	15.6	0.00e+00	0	41	0	516947968	67	5220
2026-01-30 08:13:06.14	85.74	33.62	-46.0	-47.6	19.1	0.00e+00	0	41	0	525336576	64	4106
2026-01-30 08:13:10.16	84.60	34.21	-45.2	-46.6	20.1	0.00e+00	0	41	0	532676608	61	4365
2026-01-30 08:13:14.19	83.41	34.81	-46.2	-47.9	18.9	0.00e+00	0	41	0	540016640	63	4507
2026-01-30 08:13:18.21	82.19	35.40	-46.3	-48.0	18.8	0.00e+00	0	41	0	547356672	63	4558
2026-01-30 08:13:22.23	80.92	35.99	-46.7	-48.5	18.3	0.00e+00	0	41	0	554696704	64	4591
2026-01-30 08:13:26.25	79.60	36.57	-47.2	-49.2	17.6	0.00e+00	0	41	0	563085312	64	4957
2026-01-30 08:13:30.27	78.24	37.14	-47.4	-49.6	17.1	0.00e+00	0	41	0	570425344	66	4615
2026-01-30 08:13:34.29	76.82	37.70	-47.5	-50.0	16.7	0.00e+00	0	41	0	577765376	66	4817
2026-01-30 08:13:38.32	75.36	38.25	-46.9	-48.9	17.8	0.00e+00	0	41	0	585105408	64	4789
2026-01-30 08:13:42.34	73.84	38.79	-45.6	-47.1	19.5	0.00e+00	0	41	0	592445440	62	4353
2026-01-30 08:13:46.37	72.28	39.31	-45.6	-47.2	19.6	0.00e+00	0	41	0	600834048	63	4160
2026-01-30 08:13:50.40	70.66	39.82	-45.3	-46.7	19.8	0.00e+00	0	41	0	608174080	62	4191
2026-01-30 08:13:54.43	68.99	40.30	-44.7	-46.1	20.5	0.00e+00	0	41	0	615514112	61	4142
2026-01-30 08:13:58.47	67.27	40.77	-44.1	-45.5	21.0	0.00e+00	0	41	0	622854144	60	4061
2026-01-30 08:14:02.49	65.51	41.21	-45.5	-47.2	19.4	0.00e+00	0	41	0	630194176	61	4684
2026-01-30 08:14:06.53	63.69	41.62	-44.4	-45.8	20.8	0.00e+00	0	41	0	638582784	59	4482
2026-01-30 08:14:10.56	61.83	42.00	-43.7	-44.9	21.6	0.00e+00	0	41	0	645922816	59	4034
2026-01-30 08:14:14.58	59.93	42.35	-44.2	-45.6	20.9	0.00e+00	0	41	0	653262848	60	4108
2026-01-30 08:14:18.61	57.99	42.67	-45.7	-47.4	19.2	0.00e+00	0	41	0	660602880	62	4534
2026-01-30 08:14:22.63	56.02	42.95	-45.7	-47.3	19.5	0.00e+00	0	41	0	667942912	62	4470
2026-01-30 08:14:26.64	54.01	43.20	-44.8	-46.2	20.4	0.00e+00	0	41	0	676331520	60	4395
2026-01-30 08:14:30.66	51.98	43.41	-46.3	-48.2	18.6	0.00e+00	0	41	0	683671552	63	4665
2026-01-30 08:14:34.69	49.91	43.57	-44.8	-46.2	20.4	0.00e+00	0	41	0	691011584	60	4437
2026-01-30 08:14:38.72	47.83	43.70	-45.5	-47.1	19.6	0.00e+00	0	41	0	698351616	62	4347
2026-01-30 08:14:42.75	45.74	43.78	-46.0	-47.8	19.0	0.00e+00	0	41	0	705691648	63	4465
2026-01-30 08:14:46.77	43.64	43.82	-46.3	-48.3	18.5	0.00e+00	0	41	0	714080256	63	4717
2026-01-30 08:14:50.79	41.53	43.82	-45.1	-46.5	20.1	0.00e+00	0	41	0	721420288	62	4087
2026-01-30 08:14:54.81	39.44	43.77	-46.7	-48.7	17.9	0.00e+00	0	41	0	728760320	64	4699
2026-01-30 08:14:58.83	37.35	43.68	-47.2	-49.6	17.1	0.00e+00	0	41	0	736100352	65	4875
2026-01-30 08:15:02.86	35.27	43.55	-46.7	-48.7	18.1	0.00e+00	0	41	0	743440384	65	4392
2026-01-30 08:15:06.88	33.21	43.38	-47.7	-49.7	17.3	0.00e+00	0	41	0	751828992	65	4936
2026-01-30 08:15:10.89	31.19	43.16	-47.0	-49.1	17.5	0.00e+00	0	41	0	759169024	65	4634
2026-01-30 08:15:14.91	29.19	42.91	-47.4	-50.0	16.7	0.00e+00	0	41	0	766509056	65	5112
2026-01-30 08:15:18.92	27.23	42.62	-44.7	-46.1	20.5	0.00e+00	0	41	0	773849088	60	4386
2026-01-30 08:15:22.95	25.29	42.30	-45.3	-46.8	19.9	0.00e+00	0	41	0	781189120	61	4456
2026-01-30 08:15:26.98	23.40	41.94	-44.4	-45.7	20.8	0.00e+00	0	41	0	789577728	60	4189
2026-01-30 08:15:31.01	21.55	41.56	-44.4	-45.7	21.1	0.00e+00	0	41	0	796917760	59	4408
2026-01-30 08:15:35.04	19.75	41.14	-44.9	-46.3	20.4	0.00e+00	0	41	0	804257792	60	4472
2026-01-30 08:15:39.06	18.00	40.70	-43.3	-44.5	22.3	0.00e+00	0	41	0	811597824	58	4052
2026-01-30 08:15:43.09	16.29	40.23	-43.6	-44.8	22.0	0.00e+00	0	41	0	818937856	57	4442
2026-01-30 08:15:47.11	14.64	39.75	-42.6	-43.6	22.8	0.00e+00	0	41	0	826277888	57	3901
2026-01-30 08:15:51.12	13.04	39.24	-43.5	-44.7	22.1	0.00e+00	0	41	0	834666496	57	4400
2026-01-30 08:15:55.15	11.48	38.72	-43.0	-44.1	22.6	0.00e+00	0	41	0	842006528	57	4107
2026-01-30 08:15:59.18	9.97	38.18	-44.1	-45.3	21.7	0.00e+00	0	41	0	849346560	58	4472
2026-01-30 08:16:03.21	8.52	37.63	-44.6	-45.9	21.2	0.00e+00	0	41	0	856686592	59	4516
2026-01-30 08:16:07.23	7.12	37.06	-44.2	-45.5	21.3	0.00e+00	0	41	0	864026624	60	4059
2026-01-30 08:16:11.26	5.76	36.49	-44.3	-45.5	21.2	0.00e+00	0	41	0	872415232	60	4065
2026-01-30 08:16:15.29	4.45	35.91	-44.1	-45.2	21.5	0.00e+00	0	41	0	879755264	60	3934
2026-01-30 08:16:19.30	3.19	35.33	-44.3	-45.4	21.3	0.00e+00	0	41	0	887095296	60	4040
2026-01-30 08:16:23.33	1.97	34.74	-45.7	-47.1	19.8	0.00e+00	0	41	0	894435328	61	4641
2026-01-30 08:16:27.35	0.80	34.14	-44.9	-46.1	20.7	0.00e+00	0	41	0	901775360	60	4389
2026-01-30 08:16:31.38	359.67	33.55	-46.7	-48.4	18.6	0.00e+00	0	41	0	910163968	63	4788
2026-01-30 08:16:35.41	358.58	32.95	-47.7	-49.8	17.2	0.00e+00	0	41	0	917504000	67	4442
2026-01-30 08:16:39.44	357.52	32.36	-48.2	-50.7	16.3	0.00e+00	0	41	0	924844032	67	4942
2026-01-30 08:16:43.47	356.51	31.76	-47.4	-49.4	17.4	0.00e+00	0	41	0	932184064	65	4768
2026-01-30 08:16:47.49	355.54	31.17	-46.5	-48.2	18.8	0.00e+00	0	41	0	939524096	63	4664
2026-01-30 08:16:51.52	354.60	30.58	-46.3	-47.9	18.9	0.00e+00	0	41	0	947912704	64	4249
2026-01-30 08:16:55.55	353.69	29.99	-45.7	-47.1	19.7	0.00e+00	0	41	0	955252736	62	4385
2026-01-30 08:16:59.58	352.82	29.41	-46.2	-47.8	18.9	0.00e+00	0	41	0	962592768	64	4210
2026-01-30 08:17:03.60	351.98	28.84	-45.9	-47.4	19.4	0.00e+00	0	41	0	969932800	63	4253
2026-01-30 08:17:07.63	351.16	28.26	-46.1	-47.7	19.1	0.00e+00	0	41	0	977272832	63	4438
2026-01-30 08:17:11.66	350.38	27.70	-46.3	-48.0	18.9	0.00e+00	0	41	0	985661440	63	4560
2026-01-30 08:17:15.68	349.63	27.14	-46.2	-47.9	19.0	0.00e+00	0	41	0	993001472	63	4497
2026-01-30 08:17:19.71	348.90	26.58	-44.9	-46.2	20.5	0.00e+00	0	41	0	1000341504	61	4147
2026-01-30 08:17:23.74	348.19	26.03	-45.7	-47.2	19.7	0.00e+00	0	41	0	1007681536	61	4660
2026-01-30 08:17:27.76	347.51	25.49	-46.1	-47.6	19.2	0.00e+00	0	41	0	1015021568	63	4382
2026-01-30 08:17:31.79	346.86	24.95	-44.2	-45.4	21.1	0.00e+00	0	41	0	1023410176	60	4035
2026-01-30 08:17:35.82	346.22	24.42	-45.3	-46.8	19.9	0.00e+00	0	41	0	1030750208	61	4444
2026-01-30 08:17:39.84	345.61	23.90	-45.2	-46.6	20.1	0.00e+00	0	41	0	1038090240	62	4128
2026-01-30 08:17:43.87	345.02	23.39	-46.2	-47.8	18.9	0.00e+00	0	41	0	1045430272	63	4478
2026-01-30 08:17:47.89	344.45	22.88	-46.7	-48.5	18.1	0.00e+00	0	41	0	1052770304	64	4589
2026-01-30 08:17:51.92	343.89	22.38	-45.5	-46.9	19.8	0.00e+00	0	41	0	1061158912	62	4261
2026-01-30 08:17:55.94	343.36	21.88	-44.9	-46.2	20.4	0.00e+00	0	41	0	1068498944	61	4192
2026-01-30 08:17:59.98	342.84	21.39	-44.8	-46.1	20.4	0.00e+00	0	41	0	1075838976	61	4143
2026-01-30 08:18:04.01	342.33	20.91	-45.2	-46.7	20.0	0.00e+00	0	41	0	1083179008	61	4407
2026-01-30 08:18:08.04	341.85	20.44	-44.8	-46.1	20.4	0.00e+00	0	41	0	1090519040	61	4129
2026-01-30 08:18:12.07	341.37	19.97	-44.8	-46.1	20.4	0.00e+00	0	41	0	1098907648	61	4139
2026-01-30 08:18:16.09	340.92	19.51	-46.3	-48.0	18.6	0.00e+00	0	41	0	1106247680	63	4585
2026-01-30 08:18:20.12	340.47	19.06	-47.2	-49.3	17.3	0.00e+00	0	41	0	1113587712	65	4716
2026-01-30 08:18:24.14	340.05	18.61	-46.5	-48.4	18.2	0.00e+00	0	41	0	1120927744	64	4508
2026-01-30 08:18:28.17	339.63	18.17	-45.9	-47.5	19.1	0.00e+00	0	41	0	1129316352	63	4313
2026-01-30 08:18:32.20	339.22	17.73	-45.4	-46.9	19.6	0.00e+00	0	41	0	1136656384	62	4268
2026-01-30 08:18:36.23	338.83	17.30	-45.3	-46.7	19.7	0.00e+00	0	41	0	1143996416	62	4189
2026-01-30 08:18:40.26	338.45	16.88	-45.5	-47.1	19.4	0.00e+00	0	41	0	1151336448	62	4348
2026-01-30 08:18:44.29	338.08	16.46	-45.6	-47.2	19.3	0.00e+00	0	41	0	1158676480	62	4414
2026-01-30 08:18:48.32	337.72	16.05	-45.4	-46.9	19.6	0.00e+00	0	41	0	1166016512	62	4276
2026-01-30 08:18:52.35	337.37	15.64	-45.4	-46.9	19.6	0.00e+00	0	41	0	1174405120	62	4262
2026-01-30 08:18:56.37	337.03	15.24	-45.9	-47.6	18.9	0.00e+00	0	41	0	1181745152	62	4611
2026-01-30 08:19:00.39	336.70	14.85	-46.6	-48.5	17.9	0.00e+00	0	41	0	1189085184	64	4560
2026-01-30 08:19:04.42	336.37	14.46	-46.7	-48.6	17.8	0.00e+00	0	41	0	1196425216	64	4632
2026-01-30 08:19:08.44	336.06	14.07	-46.2	-47.9	18.4	3.00e-06	0	41	0	1203765248	64	4273
2026-01-30 08:19:12.47	335.75	13.69	-45.7	-47.3	19.1	0.00e+00	0	41	0	1212153856	63	4208
2026-01-30 08:19:16.49	335.46	13.32	-45.5	-46.9	19.4	0.00e+00	0	41	0	1219493888	62	4291
2026-01-30 08:19:20.51	335.17	12.95	-45.7	-47.2	19.2	0.00e+00	0	41	0	1226833920	62	4430
2026-01-30 08:19:24.55	334.89	12.59	-45.8	-47.4	19.0	0.00e+00	0	41	0	1234173952	62	4507
2026-01-30 08:19:28.58	334.61	12.23	-46.2	-47.9	18.5	0.00e+00	0	41	0	1242562560	62	4760
2026-01-30 08:19:32.61	334.34	11.87	-46.4	-48.2	18.2	0.00e+00	0	41	0	1249902592	63	4656
2026-01-30 08:19:36.63	334.08	11.52	-46.6	-48.5	17.7	0.00e+00	0	41	0	1257242624	64	4550
2026-01-30 08:19:40.65	333.83	11.17	-46.7	-48.5	17.7	0.00e+00	0	41	0	1264582656	64	4597
2026-01-30 08:19:44.68	333.58	10.83	-46.7	-48.7	17.6	0.00e+00	0	41	0	1271922688	64	4673
2026-01-30 08:19:48.70	333.34	10.49	-46.6	-48.5	17.7	0.00e+00	0	41	0	1279262720	64	4598
2026-01-30 08:19:52.73	333.10	10.16	-46.6	-48.6	17.7	7.00e-07	0	41	0	1287651328	64	4607
2026-01-30 08:19:56.76	332.87	9.83	-46.4	-48.3	17.9	0.00e+00	0	41	0	1294991360	64	4461
2026-01-30 08:20:00.77	332.65	9.50	-46.2	-47.9	18.2	0.00e+00	0	41	0	1302331392	64	4270
2026-01-30 08:20:04.80	332.43	9.18	-46.3	-48.1	18.0	0.00e+00	0	41	0	1309671424	63	4636
2026-01-30 08:20:08.82	332.21	8.86	-46.2	-47.9	18.2	0.00e+00	0	41	0	1317011456	63	4543
2026-01-30 08:20:12.85	332.00	8.55	-46.4	-48.2	18.0	0.00e+00	0	41	0	1325400064	63	4673
2026-01-30 08:20:16.88	331.80	8.24	-46.4	-48.3	17.7	0.00e+00	0	41	0	1332740096	64	4490
2026-01-30 08:20:20.89	331.60	7.93	-46.5	-48.4	17.5	0.00e+00	0	41	0	1340080128	64	4542
2026-01-30 08:20:24.91	331.40	7.63	-46.9	-49.0	16.9	0.00e+00	0	41	0	1347420160	64	4852
2026-01-30 08:20:28.93	331.21	7.32	-47.2	-49.4	16.5	0.00e+00	0	41	0	1354760192	65	4808
2026-01-30 08:20:32.95	331.03	7.03	-47.2	-49.5	16.4	0.00e+00	0	41	0	1362100224	65	4823
2026-01-30 08:20:36.96	330.84	6.73	-47.2	-49.4	16.4	0.00e+00	0	41	0	1370488832	65	4807
2026-01-30 08:20:40.99	330.66	6.44	-47.4	-49.8	16.0	0.00e+00	0	41	0	1377828864	65	4996
2026-01-30 08:20:45.01	330.49	6.15	-47.4	-49.9	16.0	0.00e+00	0	41	0	1385168896	65	5046
2026-01-30 08:20:49.04	330.32	5.86	-47.2	-49.5	16.3	0.00e+00	0	41	0	1392508928	65	4832
2026-01-30 08:20:53.06	330.15	5.58	-47.2	-49.6	16.1	0.00e+00	0	41	0	1399848960	65	4906
2026-01-30 08:20:57.09	329.98	5.30	-47.2	-49.5	16.1	0.00e+00	0	41	0	1408237568	65	4870
2026-01-30 08:21:01.12	329.82	5.02	-47.2	-49.6	16.0	0.00e+00	0	41	0	1415577600	65	4885
2026-01-30 08:21:05.15	329.67	4.75	-53.0	-67.9	3.8	1.49e+00	0	41	104	1416626176	76	21489
2026-01-30 08:21:09.18	329.51	4.47	-53.3	-68.2	3.8	1.49e+00	0	42	104	1416626176	77	20950
2026-01-30 08:21:13.21	329.36	4.20	-52.9	-67.9	3.8	1.49e+00	0	41	104	1416626176	77	20185
2026-01-30 08:21:17.25	329.21	3.93	-53.2	-68.1	3.8	1.49e+00	0	41	104	1416626176	77	20742
2026-01-30 08:21:21.28	329.07	3.67	-53.3	-68.2	3.8	1.49e+00	0	42	104	1416626176	77	21001
2026-01-30 08:21:25.31	328.92	3.41	-53.1	-68.1	3.8	1.49e+00	0	41	104	1416626176	77	20633
2026-01-30 08:21:29.34	328.78	3.14	-53.1	-68.1	3.8	1.49e+00	0	42	104	1416626176	77	20544
2026-01-30 08:21:33.36	328.65	2.89	-53.1	-68.0	3.8	1.49e+00	0	42	104	1416626176	77	20447
2026-01-30 08:21:37.39	328.51	2.63	-53.0	-68.0	3.8	1.49e+00	0	41	104	1416626176	77	20399
2026-01-30 08:21:41.42	328.38	2.38	-53.0	-68.0	3.8	1.49e+00	0	41	104	1416626176	77	20339
2026-01-30 08:21:45.45	328.25	2.12	-53.0	-67.9	3.8	1.49e+00	0	41	104	1416626176	77	20303

#Closed at: 2026-01-30 08:21:48
#Recorded file [1416 MB]: D:/lorett/data/31041_260130_110751.dat