passes_logs/2026/01/30/R3.2S_Murmansk/R3.2S_Murmansk__20260130_054709_FENGYUN_3D_rec.log

#Pass ID: 20260130_054709_FENGYUN 3D
#Satellite: FENGYUN 3D
#Configuration: FENGYUN 3D
#almurnet v.1.7.20251203
#Start time: 2026-01-30 05:47:09

#Version: 2.2.20231116
#Station: R3.2S_Murmansk
#Location: 33.079688 lon 68.888172 lat
#TLE: 1 43010U 17072A   26029.52179110  .00000394  00000+0  20818-3 0  9997
#TLE: 2 43010  98.9957   1.5649 0002507  83.7772 276.3689 14.19703315425310

#Time	Az	El	Level	Level2	SNR	BER	BlckErr	Temp	State	Recorded	gain1	gain2
2026-01-30 05:47:09.66	44.47	2.00	-53.9	-65.9	3.8	8.47e-01	0	39	0	0	79	14229
2026-01-30 05:47:13.69	44.25	2.23	-53.9	-65.9	3.8	8.45e-01	0	39	104	0	78	15088
2026-01-30 05:47:17.72	44.02	2.47	-53.9	-65.8	3.8	8.46e-01	0	39	104	0	78	14987
2026-01-30 05:47:21.74	43.79	2.71	-54.2	-66.2	3.8	8.45e-01	0	39	104	0	79	14783
2026-01-30 05:47:25.77	43.56	2.95	-54.1	-66.1	3.8	8.47e-01	0	40	104	0	79	14579
2026-01-30 05:47:29.80	43.32	3.20	-54.0	-65.9	3.8	8.46e-01	0	40	104	0	79	14304
2026-01-30 05:47:33.84	43.07	3.44	-53.8	-65.7	3.8	8.47e-01	0	40	104	0	79	13963
2026-01-30 05:47:37.87	42.83	3.69	-53.2	-65.1	3.8	8.47e-01	0	40	104	0	78	13803
2026-01-30 05:47:41.90	42.58	3.94	-51.9	-63.8	3.8	8.46e-01	0	40	104	0	75	14079
2026-01-30 05:47:45.93	42.32	4.19	-51.7	-62.5	3.8	8.46e-01	0	40	104	0	75	12173
2026-01-30 05:47:49.96	42.06	4.44	-51.7	-61.9	3.8	8.45e-01	0	40	104	0	75	11332
2026-01-30 05:47:53.98	41.80	4.69	-49.6	-53.5	9.0	5.96e-02	0	40	0	9437184	71	5416
2026-01-30 05:47:58.02	41.52	4.95	-46.4	-48.3	14.4	3.40e-06	0	40	0	32505856	64	4442
2026-01-30 05:48:02.04	41.25	5.20	-48.2	-51.0	11.5	3.77e-05	0	40	0	54525952	66	5452
2026-01-30 05:48:06.08	40.97	5.46	-42.0	-43.0	20.2	0.00e+00	0	40	0	69206016	56	3830
2026-01-30 05:48:10.11	40.68	5.73	-41.7	-42.6	20.4	0.00e+00	0	40	0	92274688	55	3902
2026-01-30 05:48:14.12	40.39	5.99	-41.8	-42.7	20.4	0.00e+00	0	41	0	114294784	55	3938
2026-01-30 05:48:18.15	40.10	6.25	-41.7	-42.7	20.5	0.00e+00	0	40	0	136314880	55	3922
2026-01-30 05:48:22.18	39.79	6.52	-42.0	-42.9	20.3	0.00e+00	0	41	0	159383552	55	4047
2026-01-30 05:48:26.22	39.48	6.79	-41.9	-42.8	20.4	0.00e+00	0	41	0	182452224	55	3999
2026-01-30 05:48:30.25	39.17	7.06	-41.7	-42.6	20.6	0.00e+00	0	41	0	204472320	55	3888
2026-01-30 05:48:34.28	38.85	7.33	-41.8	-42.8	20.5	0.00e+00	0	41	0	227540992	54	4206
2026-01-30 05:48:38.31	38.52	7.61	-41.6	-42.5	20.7	0.00e+00	0	41	0	250609664	54	4071
2026-01-30 05:48:42.34	38.19	7.88	-41.7	-42.6	20.6	0.00e+00	0	41	0	272629760	54	4124
2026-01-30 05:48:46.37	37.85	8.16	-41.6	-42.6	20.7	0.00e+00	0	41	0	295698432	54	4113
2026-01-30 05:48:50.41	37.50	8.44	-41.5	-42.4	21.0	0.00e+00	0	41	0	318767104	54	4017
2026-01-30 05:48:54.45	37.15	8.73	-41.0	-41.9	21.5	0.00e+00	0	41	0	340787200	54	3814
2026-01-30 05:48:58.47	36.78	9.01	-41.2	-42.1	21.3	0.00e+00	0	41	0	363855872	54	3893
2026-01-30 05:49:02.48	36.42	9.30	-40.9	-41.8	21.6	0.00e+00	0	41	0	386924544	53	3989
2026-01-30 05:49:06.51	36.04	9.59	-41.0	-41.8	21.6	0.00e+00	0	41	0	408944640	53	3997
2026-01-30 05:49:10.53	35.66	9.88	-40.8	-41.7	21.7	0.00e+00	0	41	0	432013312	53	3934
2026-01-30 05:49:14.57	35.26	10.17	-40.6	-41.5	21.9	0.00e+00	0	41	0	455081984	53	3850
2026-01-30 05:49:18.60	34.86	10.47	-40.6	-41.5	22.0	0.00e+00	0	41	0	477102080	53	3837
2026-01-30 05:49:22.63	34.45	10.76	-40.7	-41.5	21.9	0.00e+00	0	41	0	499122176	53	3863
2026-01-30 05:49:26.66	34.04	11.07	-40.3	-41.1	22.4	0.00e+00	0	41	0	522190848	52	3890
2026-01-30 05:49:30.69	33.61	11.37	-40.2	-41.0	22.5	0.00e+00	0	41	0	545259520	52	3842
2026-01-30 05:49:34.72	33.17	11.67	-40.3	-41.1	22.4	0.00e+00	0	41	0	567279616	52	3897
2026-01-30 05:49:38.74	32.73	11.98	-40.2	-41.1	22.5	0.00e+00	0	41	0	590348288	52	3869
2026-01-30 05:49:42.77	32.27	12.29	-40.2	-41.0	22.5	0.00e+00	0	41	0	613416960	52	3858
2026-01-30 05:49:46.80	31.81	12.60	-40.3	-41.1	22.5	0.00e+00	0	41	0	635437056	52	3885
2026-01-30 05:49:50.83	31.33	12.91	-40.2	-41.1	22.5	0.00e+00	0	41	0	658505728	52	3875
2026-01-30 05:49:54.85	30.85	13.22	-40.1	-40.9	22.7	0.00e+00	0	41	0	680525824	51	4010
2026-01-30 05:49:58.88	30.35	13.54	-39.9	-40.7	22.9	0.00e+00	0	41	0	703594496	51	3946
2026-01-30 05:50:02.90	29.84	13.86	-39.9	-40.7	22.9	0.00e+00	0	41	0	726663168	51	3939
2026-01-30 05:50:06.93	29.33	14.18	-39.7	-40.5	23.2	0.00e+00	0	41	0	748683264	51	3836
2026-01-30 05:50:10.97	28.79	14.50	-39.6	-40.4	23.3	0.00e+00	0	41	0	771751936	51	3798
2026-01-30 05:50:15.00	28.25	14.83	-39.4	-40.2	23.5	0.00e+00	0	41	0	794820608	50	3933
2026-01-30 05:50:19.02	27.70	15.15	-39.1	-39.9	23.8	0.00e+00	0	41	0	816840704	50	3806
2026-01-30 05:50:23.05	27.13	15.48	-39.3	-40.0	23.7	0.00e+00	0	41	0	838860800	50	3865
2026-01-30 05:50:27.08	26.55	15.81	-39.1	-39.9	23.8	0.00e+00	0	41	0	861929472	50	3801
2026-01-30 05:50:31.10	25.96	16.14	-38.9	-39.7	24.0	0.00e+00	0	41	0	884998144	49	3928
2026-01-30 05:50:35.13	25.35	16.47	-39.1	-39.8	23.9	0.00e+00	0	41	0	907018240	49	3990
2026-01-30 05:50:39.16	24.73	16.80	-39.0	-39.7	24.0	0.00e+00	0	41	0	930086912	49	3945
2026-01-30 05:50:43.19	24.09	17.13	-39.1	-39.8	23.9	0.00e+00	0	41	0	953155584	49	3992
2026-01-30 05:50:47.21	23.44	17.47	-38.7	-39.4	24.3	0.00e+00	0	41	0	975175680	49	3798
2026-01-30 05:50:51.24	22.78	17.80	-38.4	-39.2	24.5	0.00e+00	0	41	0	998244352	48	3914
2026-01-30 05:50:55.27	22.10	18.14	-38.6	-39.4	24.3	0.00e+00	0	41	0	1021313024	48	4011
2026-01-30 05:50:59.30	21.41	18.47	-38.4	-39.1	24.6	0.00e+00	0	41	0	1043333120	48	3898
2026-01-30 05:51:03.32	20.70	18.81	-38.2	-38.9	24.8	0.00e+00	0	41	0	1066401792	48	3791
2026-01-30 05:51:07.34	19.97	19.14	-38.5	-39.3	24.5	0.00e+00	0	41	0	1088421888	48	3963
2026-01-30 05:51:11.37	19.23	19.48	-38.5	-39.2	24.6	0.00e+00	0	41	0	1111490560	48	3931
2026-01-30 05:51:15.40	18.47	19.81	-38.4	-39.1	24.7	0.00e+00	0	41	0	1134559232	48	3875
2026-01-30 05:51:19.42	17.69	20.14	-38.4	-39.1	24.7	0.00e+00	0	41	0	1156579328	48	3906
2026-01-30 05:51:23.45	16.90	20.47	-38.3	-39.0	24.8	0.00e+00	0	41	0	1179648000	48	3837
2026-01-30 05:51:27.48	16.09	20.80	-38.2	-38.9	24.9	0.00e+00	0	41	0	1202716672	48	3789
2026-01-30 05:51:31.50	15.26	21.13	-37.7	-38.4	25.0	0.00e+00	0	41	0	1224736768	47	3801
2026-01-30 05:51:35.54	14.41	21.46	-37.6	-38.3	25.0	0.00e+00	0	41	0	1246756864	47	3763
2026-01-30 05:51:39.57	13.54	21.78	-37.3	-38.0	25.2	0.00e+00	0	41	0	1269825536	46	3865
2026-01-30 05:51:43.60	12.66	22.10	-37.5	-38.2	25.1	0.00e+00	0	41	0	1292894208	46	3932
2026-01-30 05:51:47.63	11.75	22.42	-37.5	-38.3	25.0	0.00e+00	0	41	0	1314914304	46	3964
2026-01-30 05:51:51.66	10.83	22.73	-37.4	-38.1	25.2	0.00e+00	0	41	0	1337982976	46	3877
2026-01-30 05:51:55.68	9.89	23.04	-37.4	-38.1	25.2	0.00e+00	0	41	0	1361051648	46	3890
2026-01-30 05:51:59.71	8.94	23.34	-37.3	-38.0	25.3	0.00e+00	0	41	0	1383071744	46	3847
2026-01-30 05:52:03.74	7.96	23.64	-37.5	-38.2	25.1	0.00e+00	0	41	0	1406140416	46	3945
2026-01-30 05:52:07.76	6.96	23.93	-37.3	-38.0	25.3	0.00e+00	0	41	0	1429209088	46	3827
2026-01-30 05:52:11.79	5.95	24.22	-37.3	-38.0	25.4	0.00e+00	0	41	0	1451229184	46	3835
2026-01-30 05:52:15.82	4.91	24.50	-37.1	-37.9	25.4	0.00e+00	0	41	0	1474297856	46	3782
2026-01-30 05:52:19.86	3.86	24.77	-37.2	-37.9	25.4	0.00e+00	0	41	0	1497366528	46	3824
2026-01-30 05:52:23.90	2.78	25.03	-36.9	-37.5	25.7	0.00e+00	0	41	0	1519386624	45	3865
2026-01-30 05:52:27.93	1.69	25.29	-36.7	-37.4	25.9	0.00e+00	0	41	0	1542455296	45	3784
2026-01-30 05:52:31.97	0.58	25.54	-37.0	-37.7	25.6	0.00e+00	0	41	0	1565523968	45	3937
2026-01-30 05:52:35.99	359.46	25.77	-37.1	-37.8	25.5	0.00e+00	0	41	0	1587544064	45	4001
2026-01-30 05:52:40.02	358.32	26.00	-36.9	-37.6	25.7	0.00e+00	0	41	0	1609564160	45	3872
2026-01-30 05:52:44.04	357.17	26.21	-36.8	-37.5	25.8	0.00e+00	0	41	0	1632632832	45	3852
2026-01-30 05:52:48.08	355.99	26.41	-36.9	-37.6	25.7	0.00e+00	0	41	0	1655701504	45	3896
2026-01-30 05:52:52.10	354.81	26.60	-36.9	-37.6	25.7	0.00e+00	0	41	0	1677721600	45	3894
2026-01-30 05:52:56.12	353.61	26.78	-36.8	-37.5	25.8	0.00e+00	0	41	0	1700790272	45	3856
2026-01-30 05:53:00.15	352.40	26.95	-36.8	-37.5	25.9	0.00e+00	0	41	0	1722810368	45	3825
2026-01-30 05:53:04.17	351.18	27.10	-36.6	-37.3	26.0	0.00e+00	0	41	0	1745879040	45	3745
2026-01-30 05:53:08.20	349.94	27.24	-36.6	-37.2	26.1	0.00e+00	0	41	0	1768947712	45	3735
2026-01-30 05:53:12.23	348.69	27.36	-36.5	-37.2	26.1	0.00e+00	0	41	0	1790967808	45	3724
2026-01-30 05:53:16.27	347.43	27.47	-36.6	-37.3	26.0	0.00e+00	0	41	0	1814036480	45	3768
2026-01-30 05:53:20.29	346.17	27.57	-36.8	-37.5	25.9	0.00e+00	0	41	0	1837105152	45	3837
2026-01-30 05:53:24.32	344.89	27.65	-36.3	-37.0	26.3	0.00e+00	0	41	0	1859125248	44	3851
2026-01-30 05:53:28.35	343.62	27.71	-36.2	-36.9	26.3	0.00e+00	0	41	0	1882193920	44	3815
2026-01-30 05:53:32.39	342.33	27.76	-36.3	-37.0	26.3	0.00e+00	0	41	0	1905262592	44	3844
2026-01-30 05:53:36.43	341.04	27.79	-36.4	-37.1	26.2	0.00e+00	0	41	0	1927282688	44	3888
2026-01-30 05:53:40.46	339.75	27.81	-36.3	-37.0	26.3	0.00e+00	0	41	0	1949302784	44	3859
2026-01-30 05:53:44.48	338.47	27.81	-36.8	-37.5	25.9	0.00e+00	0	41	0	1972371456	44	4054
2026-01-30 05:53:48.51	337.18	27.79	-36.6	-37.3	26.1	0.00e+00	0	41	0	1995440128	44	3964
2026-01-30 05:53:52.54	335.89	27.76	-36.4	-37.1	26.3	0.00e+00	0	41	0	2017460224	44	3877
2026-01-30 05:53:56.56	334.61	27.71	-36.5	-37.2	26.2	0.00e+00	0	41	0	2040528896	44	3935
2026-01-30 05:54:00.60	333.33	27.65	-36.5	-37.2	26.2	0.00e+00	0	41	0	2063597568	44	3950
2026-01-30 05:54:04.62	332.06	27.57	-36.6	-37.2	26.2	0.00e+00	0	41	0	2085617664	44	3946
2026-01-30 05:54:08.65	330.80	27.47	-36.6	-37.3	26.0	0.00e+00	0	41	0	2108686336	44	4001
2026-01-30 05:54:12.68	329.54	27.36	-36.7	-37.3	26.1	0.00e+00	0	41	0	2131755008	44	4004
2026-01-30 05:54:16.69	328.30	27.24	-36.7	-37.3	26.1	0.00e+00	0	41	0	2153775104	44	4003
2026-01-30 05:54:20.72	327.06	27.10	-36.4	-37.0	26.3	0.00e+00	0	41	0	2176843776	44	3867
2026-01-30 05:54:24.75	325.83	26.94	-36.5	-37.2	26.2	0.00e+00	0	41	0	2198863872	44	3948
2026-01-30 05:54:28.77	324.62	26.78	-36.4	-37.1	26.3	0.00e+00	0	41	0	2221932544	44	3896
2026-01-30 05:54:32.80	323.42	26.60	-36.5	-37.1	26.3	0.00e+00	0	41	0	2245001216	44	3909
2026-01-30 05:54:36.83	322.23	26.41	-36.5	-37.2	26.2	0.00e+00	0	41	0	2267021312	44	3927
2026-01-30 05:54:40.85	321.06	26.20	-36.8	-37.5	26.0	0.00e+00	0	41	0	2289041408	44	4068
2026-01-30 05:54:44.88	319.91	25.99	-36.7	-37.4	26.0	0.00e+00	0	41	0	2312110080	44	4044
2026-01-30 05:54:48.92	318.76	25.76	-36.5	-37.2	26.2	0.00e+00	0	41	0	2335178752	44	3940
2026-01-30 05:54:52.94	317.64	25.53	-36.6	-37.2	26.2	0.00e+00	0	41	0	2357198848	44	3957
2026-01-30 05:54:56.97	316.53	25.28	-36.7	-37.4	26.0	0.00e+00	0	41	0	2380267520	44	4044
2026-01-30 05:55:00.99	315.45	25.02	-36.6	-37.3	26.1	0.00e+00	0	41	0	2403336192	44	3974
2026-01-30 05:55:05.01	314.38	24.76	-36.8	-37.5	25.9	0.00e+00	0	41	0	2425356288	44	4084
2026-01-30 05:55:09.04	313.33	24.49	-37.1	-37.8	25.7	0.00e+00	0	41	0	2448424960	44	4197
2026-01-30 05:55:13.06	312.29	24.21	-37.1	-37.8	25.7	0.00e+00	0	41	0	2470445056	45	3972
2026-01-30 05:55:17.09	311.28	23.92	-37.0	-37.7	25.7	0.00e+00	0	41	0	2493513728	45	3949
2026-01-30 05:55:21.12	310.28	23.63	-37.1	-37.7	25.7	0.00e+00	0	41	0	2516582400	45	3958
2026-01-30 05:55:25.15	309.30	23.33	-36.9	-37.6	25.9	0.00e+00	0	41	0	2538602496	45	3891
2026-01-30 05:55:29.18	308.34	23.03	-37.1	-37.8	25.7	0.00e+00	0	41	0	2561671168	45	3974
2026-01-30 05:55:33.22	307.40	22.72	-37.3	-38.1	25.5	0.00e+00	0	41	0	2584739840	45	4103
2026-01-30 05:55:37.25	306.47	22.41	-37.1	-37.7	25.7	0.00e+00	0	41	0	2606759936	45	3958
2026-01-30 05:55:41.28	305.57	22.09	-37.4	-38.1	25.4	0.00e+00	0	41	0	2629828608	45	4126
2026-01-30 05:55:45.31	304.68	21.77	-37.5	-38.2	25.3	0.00e+00	0	41	0	2651848704	45	4169
2026-01-30 05:55:49.34	303.82	21.44	-37.6	-38.3	25.2	0.00e+00	0	41	0	2674917376	45	4213
2026-01-30 05:55:53.37	302.97	21.12	-37.9	-38.6	25.0	0.00e+00	0	41	0	2697986048	46	4128
2026-01-30 05:55:57.40	302.14	20.79	-37.8	-38.5	25.0	0.00e+00	0	41	0	2720006144	46	4095
2026-01-30 05:56:01.42	301.33	20.46	-37.9	-38.7	25.0	0.00e+00	0	41	0	2743074816	46	4148
2026-01-30 05:56:05.45	300.53	20.13	-38.0	-38.8	24.8	0.00e+00	0	41	0	2765094912	46	4196
2026-01-30 05:56:09.48	299.76	19.79	-37.8	-38.5	25.0	0.00e+00	0	41	0	2788163584	46	4076
2026-01-30 05:56:13.50	299.00	19.46	-38.1	-38.8	24.8	0.00e+00	0	41	0	2811232256	46	4216
2026-01-30 05:56:17.53	298.25	19.12	-38.1	-38.9	24.7	0.00e+00	0	41	0	2833252352	46	4257
2026-01-30 05:56:21.56	297.52	18.79	-38.0	-38.7	24.8	0.00e+00	0	41	0	2856321024	47	3949
2026-01-30 05:56:25.60	296.81	18.45	-38.0	-38.7	24.8	0.00e+00	0	41	0	2879389696	47	3956
2026-01-30 05:56:29.63	296.12	18.11	-38.3	-39.1	24.6	0.00e+00	0	41	0	2901409792	47	4101
2026-01-30 05:56:33.65	295.44	17.78	-38.6	-39.4	24.3	0.00e+00	0	41	0	2924478464	47	4252
2026-01-30 05:56:37.69	294.77	17.44	-39.0	-39.7	24.5	0.00e+00	0	41	0	2947547136	48	4184
2026-01-30 05:56:41.71	294.12	17.11	-39.2	-40.0	24.3	0.00e+00	0	41	0	2969567232	49	4064
2026-01-30 05:56:45.74	293.48	16.78	-39.4	-40.1	24.1	0.00e+00	0	41	0	2991587328	49	4145
2026-01-30 05:56:49.77	292.86	16.44	-39.3	-40.0	24.2	0.00e+00	0	41	0	3014656000	49	4081
2026-01-30 05:56:53.79	292.26	16.11	-39.3	-40.1	24.2	0.00e+00	0	41	0	3037724672	49	4103
2026-01-30 05:56:57.82	291.66	15.78	-39.5	-40.2	24.0	0.00e+00	0	41	0	3059744768	49	4190
2026-01-30 05:57:01.85	291.08	15.45	-39.7	-40.5	23.8	0.00e+00	0	41	0	3082813440	50	4058
2026-01-30 05:57:05.88	290.51	15.13	-39.9	-40.6	23.7	0.00e+00	0	41	0	3105882112	50	4127
2026-01-30 05:57:09.91	289.96	14.80	-39.9	-40.6	23.6	0.00e+00	0	41	0	3127902208	50	4138
2026-01-30 05:57:13.93	289.41	14.48	-39.9	-40.7	23.5	0.00e+00	0	41	0	3150970880	50	4172
2026-01-30 05:57:17.96	288.88	14.15	-40.3	-41.0	23.2	0.00e+00	0	41	0	3172990976	51	4093
2026-01-30 05:57:21.99	288.36	13.83	-40.3	-41.0	23.2	0.00e+00	0	41	0	3196059648	51	4094
2026-01-30 05:57:26.02	287.85	13.51	-40.3	-41.0	23.1	0.00e+00	0	41	0	3219128320	51	4094
2026-01-30 05:57:30.04	287.36	13.20	-40.2	-41.0	23.1	0.00e+00	0	41	0	3241148416	51	4087
2026-01-30 05:57:34.07	286.87	12.88	-40.2	-41.0	23.1	0.00e+00	0	41	0	3264217088	51	4085
2026-01-30 05:57:38.11	286.39	12.57	-40.1	-40.9	23.1	0.00e+00	0	41	0	3287285760	51	4038
2026-01-30 05:57:42.15	285.93	12.26	-40.4	-41.3	22.8	0.00e+00	0	41	0	3309305856	51	4195
2026-01-30 05:57:46.17	285.47	11.95	-40.6	-41.4	22.6	0.00e+00	0	41	0	3332374528	52	4025
2026-01-30 05:57:50.20	285.02	11.64	-40.7	-41.5	22.4	0.00e+00	0	41	0	3354394624	52	4085
2026-01-30 05:57:54.24	284.59	11.34	-40.7	-41.5	22.4	0.00e+00	0	41	0	3377463296	52	4070
2026-01-30 05:57:58.28	284.16	11.03	-40.8	-41.7	22.2	0.00e+00	0	41	0	3400531968	52	4150
2026-01-30 05:58:02.31	283.74	10.73	-40.6	-41.4	22.4	0.00e+00	0	41	0	3422552064	52	4038
2026-01-30 05:58:06.34	283.33	10.44	-40.9	-41.7	22.1	0.00e+00	0	41	0	3445620736	52	4190
2026-01-30 05:58:10.38	282.93	10.14	-41.0	-41.9	21.9	0.00e+00	0	41	0	3468689408	52	4267
2026-01-30 05:58:14.41	282.53	9.84	-41.2	-42.0	21.8	0.00e+00	0	41	0	3490709504	52	4337
2026-01-30 05:58:18.43	282.15	9.55	-41.1	-42.0	21.7	0.00e+00	0	41	0	3513778176	52	4319
2026-01-30 05:58:22.46	281.77	9.26	-41.0	-41.9	21.9	0.00e+00	0	41	0	3536846848	53	4013
2026-01-30 05:58:26.49	281.40	8.98	-41.1	-41.9	21.8	0.00e+00	0	41	0	3558866944	53	4034
2026-01-30 05:58:30.52	281.04	8.69	-41.2	-42.1	21.6	0.00e+00	0	41	0	3581935616	53	4130
2026-01-30 05:58:34.55	280.68	8.41	-41.4	-42.3	21.4	0.00e+00	0	41	0	3603955712	53	4202
2026-01-30 05:58:38.58	280.34	8.13	-41.3	-42.2	21.4	0.00e+00	0	41	0	3627024384	53	4174
2026-01-30 05:58:42.61	279.99	7.85	-41.4	-42.3	21.3	0.00e+00	0	41	0	3650093056	53	4203
2026-01-30 05:58:46.64	279.66	7.57	-41.2	-42.1	21.4	0.00e+00	0	41	0	3672113152	53	4133
2026-01-30 05:58:50.66	279.33	7.30	-41.3	-42.2	21.3	0.00e+00	0	41	0	3695181824	53	4168
2026-01-30 05:58:54.69	279.01	7.02	-41.4	-42.3	21.2	0.00e+00	0	41	0	3717201920	53	4203
2026-01-30 05:58:58.71	278.70	6.75	-41.6	-42.5	21.0	0.00e+00	0	41	0	3740270592	53	4293
2026-01-30 05:59:02.73	278.39	6.49	-41.5	-42.4	21.0	0.00e+00	0	41	0	3762290688	53	4268
2026-01-30 05:59:06.77	278.08	6.22	-41.4	-42.3	21.0	0.00e+00	0	41	0	3785359360	53	4241
2026-01-30 05:59:10.79	277.79	5.95	-41.7	-42.6	20.7	0.00e+00	0	41	0	3808428032	53	4375
2026-01-30 05:59:14.82	277.49	5.69	-41.6	-42.5	20.8	0.00e+00	0	41	0	3830448128	54	4077
2026-01-30 05:59:18.84	277.21	5.43	-41.7	-42.7	20.5	0.00e+00	0	41	0	3853516800	54	4151
2026-01-30 05:59:22.87	276.93	5.17	-42.0	-43.0	20.2	0.00e+00	0	41	0	3876585472	54	4308
2026-01-30 05:59:26.90	276.65	4.91	-52.0	-63.9	3.8	8.45e-01	0	42	104	3892314112	74	15064
2026-01-30 05:59:30.93	276.38	4.66	-52.5	-64.5	3.8	8.46e-01	0	41	104	3892314112	75	15239
2026-01-30 05:59:34.95	276.11	4.41	-52.9	-64.8	3.8	8.48e-01	0	41	104	3892314112	76	14975
2026-01-30 05:59:38.98	275.85	4.15	-53.0	-65.0	3.8	8.45e-01	0	41	104	3892314112	76	15250
2026-01-30 05:59:43.01	275.59	3.90	-53.1	-65.0	3.8	8.48e-01	0	42	104	3892314112	76	15370
2026-01-30 05:59:47.03	275.34	3.66	-53.0	-65.0	3.8	8.46e-01	0	41	104	3892314112	76	15259
2026-01-30 05:59:51.05	275.10	3.41	-53.0	-64.9	3.8	8.46e-01	0	41	104	3892314112	76	15167
2026-01-30 05:59:55.09	274.85	3.16	-53.0	-64.9	3.8	8.46e-01	0	42	104	3892314112	76	15148
2026-01-30 05:59:59.12	274.61	2.92	-52.9	-64.8	3.8	8.46e-01	0	41	104	3892314112	76	15034
2026-01-30 06:00:03.15	274.38	2.68	-52.9	-64.8	3.8	8.47e-01	0	41	104	3892314112	76	15001
2026-01-30 06:00:07.19	274.14	2.44	-52.9	-64.8	3.8	8.47e-01	0	41	104	3892314112	76	14989
2026-01-30 06:00:11.21	273.92	2.20	-52.9	-64.8	3.8	8.45e-01	0	42	104	3892314112	76	14952
2026-01-30 06:00:15.24	273.69	1.96	-52.9	-64.8	3.8	8.45e-01	0	41	104	3892314112	76	14942

#Closed at: 2026-01-30 06:00:17
#Recorded file [3892 MB]: D:/lorett/data/31041_260130_084709.dat