passes_logs/2026/01/30/R3.2S_Murmansk/R3.2S_Murmansk__20260130_001045_NOAA_20_JPSS-1_rec.log

#Pass ID: 20260130_001045_NOAA 20 (JPSS-1)
#Satellite: NOAA 20 (JPSS-1)
#Configuration: NOAA 20
#almurnet v.1.7.20251203
#Start time: 2026-01-30 00:10:47

#Version: 2.2.20231116
#Station: R3.2S_Murmansk
#Location: 33.079688 lon 68.888172 lat
#TLE: 1 43013U 17073A   26029.42702672  .00000137  00000+0  85918-4 0  9993
#TLE: 2 43013  98.7646 330.2153 0000804  19.9045 340.2162 14.19525092424781

#Time	Az	El	Level	Level2	SNR	BER	BlckErr	Temp	State	Recorded	gain1	gain2
2026-01-30 00:10:47.15	22.77	2.13	-53.9	-68.8	3.8	1.49e+00	0	39	0	0	79	20063
2026-01-30 00:10:51.17	22.84	2.39	-53.9	-68.8	3.8	1.49e+00	0	39	104	0	78	21209
2026-01-30 00:10:55.20	22.92	2.65	-54.2	-69.2	3.8	1.49e+00	0	39	104	0	78	22096
2026-01-30 00:10:59.23	22.99	2.91	-54.2	-69.2	3.8	1.49e+00	0	40	104	0	79	20887
2026-01-30 00:11:03.26	23.07	3.18	-54.1	-69.1	3.8	1.49e+00	0	40	104	0	79	20627
2026-01-30 00:11:07.29	23.14	3.44	-54.0	-68.9	3.8	1.49e+00	0	40	104	0	79	20260
2026-01-30 00:11:11.32	23.22	3.71	-53.4	-68.4	3.8	1.49e+00	0	40	104	0	78	20210
2026-01-30 00:11:15.34	23.30	3.98	-52.1	-66.5	3.8	1.49e+00	0	40	104	0	76	18270
2026-01-30 00:11:19.36	23.38	4.26	-49.4	-53.2	12.7	2.40e-04	0	40	0	6291456	70	5547
2026-01-30 00:11:23.38	23.46	4.54	-47.9	-50.4	15.5	0.00e+00	0	40	0	13631488	67	4798
2026-01-30 00:11:27.41	23.54	4.82	-47.8	-50.3	15.6	0.00e+00	0	40	0	20971520	66	5013
2026-01-30 00:11:31.43	23.62	5.10	-48.6	-51.6	14.2	1.29e-05	0	40	0	28311552	69	4910
2026-01-30 00:11:35.45	23.71	5.38	-46.9	-49.0	17.1	0.00e+00	0	40	0	32505856	64	4825
2026-01-30 00:11:39.48	23.79	5.67	-46.2	-48.0	17.9	0.00e+00	0	40	0	39845888	64	4337
2026-01-30 00:11:43.50	23.88	5.97	-46.1	-47.8	18.2	0.00e+00	0	40	0	48234496	63	4485
2026-01-30 00:11:47.53	23.97	6.26	-45.7	-47.3	18.8	0.00e+00	0	40	0	55574528	63	4195
2026-01-30 00:11:51.55	24.05	6.56	-45.7	-47.3	18.8	0.00e+00	0	40	0	62914560	63	4234
2026-01-30 00:11:55.58	24.15	6.86	-45.7	-47.3	18.8	0.00e+00	0	40	0	70254592	63	4230
2026-01-30 00:11:59.61	24.24	7.17	-45.6	-47.2	18.9	0.00e+00	0	40	0	77594624	63	4171
2026-01-30 00:12:03.64	24.33	7.48	-45.6	-47.1	19.1	0.00e+00	0	41	0	85983232	63	4137
2026-01-30 00:12:07.66	24.43	7.79	-45.6	-47.1	19.2	0.00e+00	0	40	0	93323264	62	4388
2026-01-30 00:12:11.68	24.52	8.11	-45.6	-47.1	19.2	0.00e+00	0	40	0	100663296	62	4349
2026-01-30 00:12:15.71	24.62	8.43	-45.3	-46.8	19.5	0.00e+00	0	41	0	108003328	62	4216
2026-01-30 00:12:19.74	24.73	8.76	-45.2	-46.7	19.7	0.00e+00	0	41	0	115343360	62	4159
2026-01-30 00:12:23.77	24.83	9.09	-45.2	-46.6	19.8	0.00e+00	0	41	0	123731968	62	4112
2026-01-30 00:12:27.80	24.93	9.42	-45.0	-46.4	20.0	0.00e+00	0	41	0	131072000	62	4032
2026-01-30 00:12:31.82	25.04	9.76	-44.9	-46.2	20.2	0.00e+00	0	41	0	138412032	61	4188
2026-01-30 00:12:35.85	25.15	10.11	-44.8	-46.1	20.3	0.00e+00	0	41	0	145752064	61	4124
2026-01-30 00:12:39.87	25.26	10.45	-44.7	-46.0	20.4	0.00e+00	0	41	0	153092096	61	4057
2026-01-30 00:12:43.89	25.37	10.81	-44.8	-46.1	20.4	0.00e+00	0	41	0	161480704	61	4130
2026-01-30 00:12:47.92	25.49	11.16	-44.5	-45.8	20.7	0.00e+00	0	41	0	168820736	61	3968
2026-01-30 00:12:51.94	25.61	11.53	-44.5	-45.8	20.7	0.00e+00	0	41	0	176160768	61	3964
2026-01-30 00:12:55.96	25.73	11.90	-44.6	-45.9	20.7	0.00e+00	0	41	0	183500800	61	4016
2026-01-30 00:13:00.00	25.85	12.27	-44.6	-45.8	20.7	0.00e+00	0	41	0	190840832	60	4228
2026-01-30 00:13:04.03	25.98	12.65	-44.5	-45.7	20.9	0.00e+00	0	41	0	199229440	60	4165
2026-01-30 00:13:08.04	26.10	13.04	-44.6	-45.9	20.7	0.00e+00	0	41	0	206569472	60	4245
2026-01-30 00:13:12.07	26.24	13.43	-44.5	-45.8	20.8	0.00e+00	0	41	0	213909504	60	4209
2026-01-30 00:13:16.11	26.37	13.83	-44.7	-45.9	20.7	0.00e+00	0	41	0	221249536	60	4269
2026-01-30 00:13:20.14	26.51	14.23	-44.6	-45.9	20.7	0.00e+00	0	41	0	228589568	60	4250
2026-01-30 00:13:24.17	26.65	14.64	-44.7	-45.9	20.7	0.00e+00	0	41	0	236978176	60	4284
2026-01-30 00:13:28.20	26.80	15.06	-44.7	-46.0	20.7	0.00e+00	0	41	0	244318208	60	4300
2026-01-30 00:13:32.22	26.94	15.49	-44.7	-45.9	20.7	0.00e+00	0	41	0	251658240	60	4285
2026-01-30 00:13:36.25	27.10	15.92	-44.8	-46.0	20.7	0.00e+00	0	41	0	258998272	60	4331
2026-01-30 00:13:40.27	27.25	16.36	-44.8	-46.1	20.6	0.00e+00	0	41	0	266338304	60	4370
2026-01-30 00:13:44.29	27.41	16.81	-44.9	-46.2	20.5	0.00e+00	0	41	0	274726912	60	4440
2026-01-30 00:13:48.31	27.58	17.27	-45.0	-46.3	20.4	0.00e+00	0	41	0	282066944	60	4472
2026-01-30 00:13:52.34	27.75	17.73	-45.1	-46.4	20.4	0.00e+00	0	41	0	289406976	60	4508
2026-01-30 00:13:56.37	27.92	18.21	-45.1	-46.4	20.4	0.00e+00	0	41	0	296747008	61	4246
2026-01-30 00:14:00.40	28.10	18.69	-45.2	-46.5	20.3	0.00e+00	0	41	0	304087040	61	4313
2026-01-30 00:14:04.42	28.28	19.19	-45.2	-46.5	20.4	0.00e+00	0	41	0	312475648	61	4311
2026-01-30 00:14:08.45	28.47	19.69	-45.2	-46.5	20.3	0.00e+00	0	41	0	319815680	61	4334
2026-01-30 00:14:12.48	28.67	20.20	-45.3	-46.6	20.3	0.00e+00	0	41	0	327155712	61	4355
2026-01-30 00:14:16.50	28.87	20.72	-45.3	-46.6	20.3	0.00e+00	0	41	0	334495744	61	4377
2026-01-30 00:14:20.53	29.08	21.26	-45.1	-46.4	20.5	0.00e+00	0	41	0	341835776	61	4278
2026-01-30 00:14:24.56	29.30	21.80	-45.0	-46.3	20.6	0.00e+00	0	41	0	350224384	61	4215
2026-01-30 00:14:28.59	29.52	22.36	-45.0	-46.3	20.6	0.00e+00	0	41	0	357564416	61	4230
2026-01-30 00:14:32.62	29.75	22.93	-44.9	-46.2	20.7	0.00e+00	0	41	0	364904448	61	4177
2026-01-30 00:14:36.65	29.98	23.51	-45.0	-46.3	20.6	0.00e+00	0	41	0	372244480	61	4211
2026-01-30 00:14:40.68	30.23	24.11	-44.9	-46.1	20.9	0.00e+00	0	41	0	379584512	61	4118
2026-01-30 00:14:44.70	30.49	24.72	-45.0	-46.3	20.7	0.00e+00	0	41	0	387973120	61	4205
2026-01-30 00:14:48.73	30.75	25.34	-45.0	-46.2	20.8	0.00e+00	0	41	0	395313152	61	4183
2026-01-30 00:14:52.76	31.02	25.98	-44.9	-46.1	20.9	0.00e+00	0	41	0	402653184	61	4137
2026-01-30 00:14:56.78	31.31	26.63	-44.5	-45.6	21.4	0.00e+00	0	41	0	409993216	61	3903
2026-01-30 00:15:00.81	31.61	27.29	-44.2	-45.3	21.6	0.00e+00	0	41	0	417333248	60	4003
2026-01-30 00:15:04.82	31.91	27.97	-44.4	-45.5	21.5	0.00e+00	0	41	0	425721856	60	4071
2026-01-30 00:15:08.83	32.23	28.67	-44.7	-45.9	21.1	0.00e+00	0	41	0	433061888	60	4274
2026-01-30 00:15:12.86	32.57	29.38	-45.3	-46.6	20.5	0.00e+00	0	41	0	440401920	61	4353
2026-01-30 00:15:16.88	32.91	30.12	-45.7	-47.1	20.1	0.00e+00	0	41	0	447741952	62	4360
2026-01-30 00:15:20.92	33.28	30.87	-45.9	-47.4	19.8	0.00e+00	0	41	0	455081984	62	4496
2026-01-30 00:15:24.93	33.66	31.64	-46.3	-47.8	19.4	0.00e+00	0	41	0	463470592	63	4457
2026-01-30 00:15:28.96	34.06	32.43	-46.6	-48.1	19.1	0.00e+00	0	41	0	470810624	63	4626
2026-01-30 00:15:32.99	34.48	33.24	-46.3	-47.8	19.4	0.00e+00	0	41	0	478150656	63	4466
2026-01-30 00:15:37.01	34.92	34.07	-45.8	-47.2	20.1	0.00e+00	0	41	0	485490688	63	4151
2026-01-30 00:15:41.04	35.38	34.92	-45.8	-47.2	20.1	0.00e+00	0	41	0	492830720	63	4167
2026-01-30 00:15:45.05	35.86	35.79	-46.7	-48.2	19.1	0.00e+00	0	41	0	500170752	63	4696
2026-01-30 00:15:49.07	36.37	36.68	-47.0	-48.7	18.5	0.00e+00	0	41	0	508559360	64	4665
2026-01-30 00:15:53.10	36.91	37.60	-47.1	-48.8	18.5	0.00e+00	0	41	0	515899392	64	4726
2026-01-30 00:15:57.13	37.48	38.54	-48.0	-49.9	17.5	0.00e+00	0	41	0	523239424	66	4779
2026-01-30 00:16:01.16	38.09	39.50	-48.3	-50.5	16.8	0.00e+00	0	41	0	530579456	67	4815
2026-01-30 00:16:05.18	38.73	40.49	-48.4	-50.6	16.8	0.00e+00	0	41	0	538968064	67	4886
2026-01-30 00:16:09.21	39.41	41.50	-48.0	-50.0	17.4	0.00e+00	0	41	0	546308096	67	4555
2026-01-30 00:16:13.25	40.13	42.54	-47.0	-48.7	18.6	0.00e+00	0	41	0	553648128	65	4401
2026-01-30 00:16:17.27	40.90	43.60	-47.1	-48.7	18.6	0.00e+00	0	41	0	560988160	65	4435
2026-01-30 00:16:21.30	41.73	44.69	-46.2	-47.6	19.7	0.00e+00	0	41	0	568328192	64	4145
2026-01-30 00:16:25.31	42.60	45.79	-47.3	-49.0	18.4	0.00e+00	0	41	0	576716800	65	4565
2026-01-30 00:16:29.33	43.54	46.92	-46.9	-48.4	18.9	0.00e+00	0	41	0	584056832	65	4287
2026-01-30 00:16:33.35	44.56	48.08	-46.9	-48.4	18.9	0.00e+00	0	41	0	591396864	64	4536
2026-01-30 00:16:37.38	45.65	49.25	-46.4	-47.9	19.5	0.00e+00	0	41	0	598736896	64	4246
2026-01-30 00:16:41.41	46.83	50.45	-44.8	-46.0	21.4	0.00e+00	0	41	0	606076928	61	4058
2026-01-30 00:16:45.43	48.10	51.66	-44.4	-45.5	22.1	0.00e+00	0	41	0	613416960	59	4295
2026-01-30 00:16:49.46	49.48	52.89	-42.9	-43.8	23.7	0.00e+00	0	41	0	621805568	57	3981
2026-01-30 00:16:53.49	50.99	54.14	-41.8	-42.7	24.6	0.00e+00	0	41	0	629145600	55	3941
2026-01-30 00:16:57.51	52.62	55.39	-42.9	-43.8	23.7	0.00e+00	0	41	0	636485632	56	4231
2026-01-30 00:17:01.53	54.41	56.64	-43.8	-44.8	22.7	0.00e+00	0	41	0	643825664	58	4237
2026-01-30 00:17:05.54	56.35	57.90	-45.4	-46.7	20.8	0.00e+00	0	41	0	651165696	61	4419
2026-01-30 00:17:09.57	58.50	59.15	-44.5	-45.6	21.8	0.00e+00	0	41	0	659554304	61	3910
2026-01-30 00:17:13.60	60.86	60.38	-44.9	-46.1	21.4	0.00e+00	0	41	0	666894336	60	4350
2026-01-30 00:17:17.62	63.45	61.60	-43.7	-44.7	23.0	0.00e+00	0	41	0	674234368	59	3920
2026-01-30 00:17:21.64	66.30	62.77	-44.8	-45.9	21.5	0.00e+00	0	41	0	681574400	60	4268
2026-01-30 00:17:25.66	69.44	63.91	-44.1	-45.1	22.5	0.00e+00	0	41	0	689963008	59	4144
2026-01-30 00:17:29.67	72.88	64.98	-45.2	-46.4	21.1	0.00e+00	0	41	0	697303040	61	4257
2026-01-30 00:17:33.69	76.66	65.97	-43.7	-44.7	23.0	0.00e+00	0	41	0	704643072	59	3940
2026-01-30 00:17:37.72	80.79	66.89	-45.9	-47.2	20.3	0.00e+00	0	41	0	711983104	62	4424
2026-01-30 00:17:41.74	85.26	67.68	-45.6	-46.8	20.8	0.00e+00	0	41	0	719323136	62	4213
2026-01-30 00:17:45.76	90.07	68.36	-46.7	-48.3	19.3	0.00e+00	0	41	0	726663168	64	4443
2026-01-30 00:17:49.78	95.16	68.88	-46.4	-47.8	19.7	0.00e+00	0	41	0	735051776	64	4207
2026-01-30 00:17:53.80	100.50	69.25	-45.6	-46.9	20.7	0.00e+00	0	41	0	742391808	63	4013
2026-01-30 00:17:57.81	105.99	69.45	-45.4	-46.6	20.9	0.00e+00	0	41	0	749731840	62	4139
2026-01-30 00:18:01.84	111.56	69.47	-44.7	-45.8	21.7	0.00e+00	0	41	0	757071872	61	3970
2026-01-30 00:18:05.86	117.08	69.31	-45.0	-46.2	21.3	0.00e+00	0	41	0	764411904	61	4163
2026-01-30 00:18:09.89	122.48	68.98	-46.7	-48.3	19.3	0.00e+00	0	41	0	772800512	64	4447
2026-01-30 00:18:13.91	127.64	68.49	-48.6	-50.8	16.8	0.00e+00	0	41	0	780140544	67	4997
2026-01-30 00:18:17.93	132.51	67.85	-47.8	-49.6	18.0	0.00e+00	0	41	0	787480576	66	4621
2026-01-30 00:18:21.97	137.09	67.07	-45.7	-47.0	20.6	0.00e+00	0	41	0	794820608	63	4063
2026-01-30 00:18:26.01	141.31	66.18	-45.0	-46.1	21.4	0.00e+00	0	41	0	802160640	61	4132
2026-01-30 00:18:30.02	145.16	65.20	-43.8	-44.8	22.9	0.00e+00	0	41	0	809500672	59	3959
2026-01-30 00:18:34.04	148.68	64.14	-44.8	-45.9	21.5	0.00e+00	0	41	0	817889280	61	4050
2026-01-30 00:18:38.07	151.90	63.01	-43.8	-44.8	22.9	0.00e+00	0	41	0	825229312	59	3970
2026-01-30 00:18:42.09	154.81	61.84	-43.0	-44.0	23.6	0.00e+00	0	41	0	832569344	58	3825
2026-01-30 00:18:46.12	157.46	60.63	-42.9	-43.8	23.7	0.00e+00	0	41	0	839909376	56	4226
2026-01-30 00:18:50.13	159.86	59.40	-42.9	-43.8	23.7	0.00e+00	0	41	0	847249408	56	4238
2026-01-30 00:18:54.16	162.05	58.15	-43.9	-44.9	22.7	0.00e+00	0	41	0	855638016	58	4247
2026-01-30 00:18:58.18	164.05	56.89	-45.6	-47.0	20.5	0.00e+00	0	41	0	862978048	63	4059
2026-01-30 00:19:02.21	165.87	55.63	-46.0	-47.4	20.1	0.00e+00	0	41	0	870318080	62	4533
2026-01-30 00:19:06.24	167.54	54.37	-41.8	-42.6	24.6	0.00e+00	0	41	0	877658112	55	3896
2026-01-30 00:19:10.27	169.08	53.12	-42.0	-42.9	24.4	0.00e+00	0	41	0	886046720	55	4007
2026-01-30 00:19:14.29	170.48	51.89	-42.7	-43.6	23.7	0.00e+00	0	41	0	893386752	55	4389
2026-01-30 00:19:18.32	171.78	50.67	-42.4	-43.2	24.1	0.00e+00	0	41	0	900726784	56	3953
2026-01-30 00:19:22.35	172.98	49.46	-46.7	-48.3	19.2	0.00e+00	0	41	0	908066816	64	4467
2026-01-30 00:19:26.37	174.08	48.28	-45.4	-46.6	20.8	0.00e+00	0	41	0	915406848	62	4124
2026-01-30 00:19:30.40	175.11	47.12	-49.0	-51.5	15.9	0.00e+00	0	41	0	922746880	68	5113
2026-01-30 00:19:34.44	176.08	45.97	-45.2	-46.4	21.0	0.00e+00	0	41	0	931135488	62	4019
2026-01-30 00:19:38.46	176.97	44.86	-45.9	-47.2	20.2	0.00e+00	0	41	0	938475520	62	4433
2026-01-30 00:19:42.48	177.80	43.77	-44.1	-45.1	22.4	0.00e+00	0	41	0	945815552	59	4133
2026-01-30 00:19:46.50	178.58	42.70	-43.4	-44.4	23.1	0.00e+00	0	41	0	953155584	57	4245
2026-01-30 00:19:50.53	179.31	41.65	-46.0	-47.4	19.9	0.00e+00	0	41	0	960495616	62	4526
2026-01-30 00:19:54.55	180.00	40.63	-43.6	-44.6	22.8	0.00e+00	0	41	0	968884224	59	3894
2026-01-30 00:19:58.56	180.64	39.64	-45.6	-46.9	20.4	0.00e+00	0	41	0	976224256	61	4537
2026-01-30 00:20:02.58	181.25	38.67	-45.5	-46.8	20.5	0.00e+00	0	41	0	983564288	63	4002
2026-01-30 00:20:06.61	181.83	37.72	-44.1	-45.2	22.0	0.00e+00	0	41	0	990904320	60	3919
2026-01-30 00:20:10.63	182.37	36.80	-45.1	-46.4	20.9	0.00e+00	0	41	0	998244352	60	4519
2026-01-30 00:20:14.66	182.89	35.90	-45.3	-46.6	20.7	0.00e+00	0	41	0	1006632960	62	4113
2026-01-30 00:20:18.69	183.38	35.02	-44.7	-45.9	21.3	0.00e+00	0	41	0	1013972992	61	4020
2026-01-30 00:20:22.71	183.85	34.16	-44.6	-45.7	21.8	0.00e+00	0	41	0	1021313024	59	4414
2026-01-30 00:20:26.74	184.29	33.32	-45.5	-46.8	20.5	0.00e+00	0	41	0	1028653056	61	4444
2026-01-30 00:20:30.77	184.71	32.50	-46.2	-47.7	19.6	0.00e+00	0	41	0	1035993088	62	4666
2026-01-30 00:20:34.78	185.11	31.71	-45.9	-47.3	19.9	0.00e+00	0	41	0	1044381696	63	4236
2026-01-30 00:20:38.80	185.50	30.94	-45.9	-47.3	19.9	0.00e+00	0	41	0	1051721728	63	4201
2026-01-30 00:20:42.83	185.86	30.18	-45.3	-46.5	20.6	0.00e+00	0	41	0	1059061760	62	4079
2026-01-30 00:20:46.85	186.21	29.44	-45.1	-46.4	20.7	0.00e+00	0	41	0	1066401792	62	4015
2026-01-30 00:20:50.88	186.55	28.72	-45.4	-46.7	20.4	0.00e+00	0	41	0	1073741824	62	4176
2026-01-30 00:20:54.91	186.87	28.01	-45.1	-46.4	20.7	0.00e+00	0	41	0	1082130432	62	4016
2026-01-30 00:20:58.93	187.18	27.33	-44.0	-45.1	21.9	0.00e+00	0	41	0	1089470464	60	3888
2026-01-30 00:21:02.96	187.48	26.65	-44.0	-45.1	22.1	0.00e+00	0	41	0	1096810496	59	4129
2026-01-30 00:21:06.99	187.77	26.00	-44.4	-45.6	21.7	0.00e+00	0	41	0	1104150528	59	4341
2026-01-30 00:21:11.02	188.04	25.36	-44.5	-45.7	21.2	0.00e+00	0	41	0	1111490560	60	4150
2026-01-30 00:21:15.05	188.31	24.73	-44.1	-45.3	21.6	0.00e+00	0	41	0	1119879168	60	3974
2026-01-30 00:21:19.07	188.56	24.12	-43.9	-45.0	22.2	0.00e+00	0	41	0	1127219200	59	4053
2026-01-30 00:21:23.09	188.81	23.52	-43.3	-44.3	22.8	0.00e+00	0	41	0	1134559232	58	3970
2026-01-30 00:21:27.12	189.04	22.93	-43.4	-44.5	22.6	0.00e+00	0	41	0	1141899264	58	4067
2026-01-30 00:21:31.16	189.27	22.36	-43.5	-44.6	22.5	0.00e+00	0	41	0	1149239296	58	4123
2026-01-30 00:21:35.18	189.50	21.80	-43.7	-44.8	22.3	0.00e+00	0	41	0	1157627904	58	4219
2026-01-30 00:21:39.20	189.71	21.25	-43.8	-44.9	22.2	0.00e+00	0	41	0	1164967936	58	4272
2026-01-30 00:21:43.23	189.92	20.71	-43.7	-44.8	22.3	0.00e+00	0	41	0	1172307968	58	4223
2026-01-30 00:21:47.26	190.12	20.19	-43.7	-44.8	22.3	0.00e+00	0	41	0	1179648000	58	4198
2026-01-30 00:21:51.28	190.32	19.67	-43.8	-44.8	22.2	0.00e+00	0	41	0	1186988032	58	4227
2026-01-30 00:21:55.31	190.50	19.16	-43.9	-44.9	22.1	0.00e+00	0	41	0	1195376640	58	4288
2026-01-30 00:21:59.34	190.69	18.67	-43.9	-45.0	22.0	0.00e+00	0	41	0	1202716672	58	4326
2026-01-30 00:22:03.37	190.87	18.18	-44.1	-45.3	21.8	0.00e+00	0	41	0	1210056704	58	4449
2026-01-30 00:22:07.40	191.04	17.70	-44.3	-45.5	21.5	0.00e+00	0	41	0	1217396736	59	4315
2026-01-30 00:22:11.43	191.21	17.23	-44.5	-45.7	21.3	0.00e+00	0	41	0	1224736768	59	4397
2026-01-30 00:22:15.45	191.37	16.77	-44.4	-45.5	21.1	0.00e+00	0	41	0	1233125376	60	4093
2026-01-30 00:22:19.49	191.53	16.32	-44.4	-45.6	21.1	0.00e+00	0	41	0	1240465408	60	4100
2026-01-30 00:22:23.52	191.69	15.88	-44.3	-45.5	21.1	0.00e+00	0	41	0	1247805440	60	4076
2026-01-30 00:22:27.54	191.84	15.44	-44.3	-45.5	21.1	0.00e+00	0	41	0	1255145472	60	4095
2026-01-30 00:22:31.56	191.98	15.01	-44.2	-45.4	21.2	0.00e+00	0	41	0	1263534080	60	4006
2026-01-30 00:22:35.59	192.13	14.59	-44.2	-45.4	21.1	0.00e+00	0	41	0	1270874112	60	4036
2026-01-30 00:22:39.63	192.27	14.18	-44.3	-45.5	21.1	0.00e+00	0	41	0	1278214144	60	4074
2026-01-30 00:22:43.65	192.40	13.77	-44.5	-45.8	20.8	0.00e+00	0	41	0	1285554176	60	4216
2026-01-30 00:22:47.68	192.54	13.37	-44.7	-45.9	20.6	0.00e+00	0	41	0	1292894208	60	4280
2026-01-30 00:22:51.71	192.67	12.97	-44.7	-45.9	20.6	0.00e+00	0	41	0	1300234240	60	4287
2026-01-30 00:22:55.75	192.80	12.59	-44.8	-46.2	20.4	0.00e+00	0	41	0	1308622848	60	4395
2026-01-30 00:22:59.77	192.92	12.20	-44.9	-46.2	20.3	0.00e+00	0	41	0	1315962880	60	4426
2026-01-30 00:23:03.80	193.04	11.83	-44.9	-46.2	20.3	0.00e+00	0	41	0	1323302912	60	4426
2026-01-30 00:23:07.83	193.16	11.46	-44.9	-46.2	20.2	0.00e+00	0	41	0	1330642944	60	4439
2026-01-30 00:23:11.85	193.28	11.09	-44.9	-46.3	20.1	0.00e+00	0	41	0	1339031552	60	4476
2026-01-30 00:23:15.88	193.39	10.73	-44.9	-46.3	20.1	0.00e+00	0	41	0	1346371584	60	4457
2026-01-30 00:23:19.92	193.50	10.38	-44.8	-46.2	20.2	0.00e+00	0	41	0	1353711616	60	4401
2026-01-30 00:23:23.95	193.61	10.03	-44.9	-46.2	20.1	0.00e+00	0	41	0	1361051648	60	4434
2026-01-30 00:23:27.97	193.72	9.68	-44.9	-46.3	20.0	0.00e+00	0	41	0	1368391680	60	4468
2026-01-30 00:23:32.00	193.82	9.34	-45.1	-46.5	19.9	0.00e+00	0	41	0	1376780288	60	4554
2026-01-30 00:23:36.03	193.92	9.00	-44.9	-46.3	20.0	0.00e+00	0	41	0	1384120320	60	4456
2026-01-30 00:23:40.07	194.03	8.67	-45.1	-46.5	19.8	0.00e+00	0	41	0	1391460352	60	4587
2026-01-30 00:23:44.09	194.12	8.35	-45.0	-46.5	19.8	0.00e+00	0	41	0	1398800384	61	4294
2026-01-30 00:23:48.11	194.22	8.02	-45.2	-46.7	19.6	0.00e+00	0	41	0	1406140416	61	4394
2026-01-30 00:23:52.13	194.31	7.70	-45.2	-46.7	19.5	0.00e+00	0	41	0	1413480448	61	4424
2026-01-30 00:23:56.17	194.41	7.39	-45.4	-47.0	19.3	0.00e+00	0	41	0	1421869056	61	4547
2026-01-30 00:24:00.20	194.50	7.08	-45.4	-46.9	19.2	0.00e+00	0	41	0	1429209088	61	4510
2026-01-30 00:24:04.23	194.59	6.77	-45.5	-47.1	19.0	0.00e+00	0	41	0	1436549120	61	4629
2026-01-30 00:24:08.25	194.68	6.47	-45.5	-47.0	19.0	0.00e+00	0	41	0	1443889152	61	4597
2026-01-30 00:24:12.29	194.77	6.16	-45.8	-47.4	18.6	0.00e+00	0	41	0	1452277760	62	4542
2026-01-30 00:24:16.32	194.85	5.87	-45.6	-47.3	18.7	0.00e+00	0	41	0	1459617792	62	4459
2026-01-30 00:24:20.33	194.93	5.57	-45.8	-47.5	18.4	0.00e+00	0	41	0	1466957824	62	4597
2026-01-30 00:24:24.35	195.02	5.28	-45.8	-47.5	18.3	0.00e+00	0	41	0	1474297856	62	4586
2026-01-30 00:24:28.38	195.10	5.00	-47.1	-49.3	16.9	0.00e+00	0	41	0	1481637888	64	5007
2026-01-30 00:24:32.41	195.18	4.71	-53.3	-68.3	3.8	1.49e+00	0	41	104	1482686464	77	21058
2026-01-30 00:24:36.43	195.26	4.43	-53.8	-68.8	3.8	1.49e+00	0	41	104	1482686464	78	21084
2026-01-30 00:24:40.46	195.33	4.15	-54.1	-69.0	3.8	1.49e+00	0	41	104	1482686464	78	21686
2026-01-30 00:24:44.50	195.41	3.88	-54.2	-69.2	3.8	1.49e+00	0	41	104	1482686464	78	22151
2026-01-30 00:24:48.53	195.48	3.60	-54.3	-69.3	3.8	1.49e+00	0	42	104	1482686464	79	21100
2026-01-30 00:24:52.56	195.56	3.33	-54.2	-69.2	3.8	1.49e+00	0	41	104	1482686464	79	20883
2026-01-30 00:24:56.59	195.63	3.06	-53.8	-68.8	3.8	1.49e+00	0	42	104	1482686464	79	19977
2026-01-30 00:25:00.62	195.70	2.80	-53.3	-68.2	3.8	1.49e+00	0	41	104	1482686464	78	19789
2026-01-30 00:25:04.65	195.77	2.54	-53.2	-68.2	3.8	1.49e+00	0	41	104	1482686464	78	19745
2026-01-30 00:25:08.67	195.84	2.28	-53.2	-68.1	3.8	1.49e+00	0	42	104	1482686464	78	19607
2026-01-30 00:25:12.70	195.91	2.02	-53.2	-68.1	3.8	1.49e+00	0	42	104	1482686464	78	19571

#Closed at: 2026-01-30 00:25:13
#Recorded file [1482 MB]: D:/lorett/data/31041_260130_031046.dat