passes_logs/2026/01/30/R3.2S_Murmansk/R3.2S_Murmansk__20260130_040718_FENGYUN_3D_rec.log

#Pass ID: 20260130_040718_FENGYUN 3D
#Satellite: FENGYUN 3D
#Configuration: FENGYUN 3D
#almurnet v.1.7.20251203
#Start time: 2026-01-30 04:07:19

#Version: 2.2.20231116
#Station: R3.2S_Murmansk
#Location: 33.079688 lon 68.888172 lat
#TLE: 1 43010U 17072A   26029.52179110  .00000394  00000+0  20818-3 0  9997
#TLE: 2 43010  98.9957   1.5649 0002507  83.7772 276.3689 14.19703315425310

#Time	Az	El	Level	Level2	SNR	BER	BlckErr	Temp	State	Recorded	gain1	gain2
2026-01-30 04:07:19.81	31.43	2.08	-54.1	-66.0	3.8	8.47e-01	0	39	0	0	79	14466
2026-01-30 04:07:23.83	31.31	2.33	-53.3	-65.2	3.8	8.47e-01	0	40	104	0	78	13990
2026-01-30 04:07:27.86	31.20	2.59	-52.0	-63.9	3.8	8.47e-01	0	39	104	0	75	14308
2026-01-30 04:07:31.89	31.08	2.84	-52.0	-63.9	3.8	8.45e-01	0	40	104	0	75	14281
2026-01-30 04:07:35.92	30.96	3.10	-51.9	-63.9	3.8	8.46e-01	0	40	104	0	75	14240
2026-01-30 04:07:39.96	30.84	3.37	-51.9	-63.8	3.8	8.47e-01	0	40	104	0	75	14161
2026-01-30 04:07:43.99	30.71	3.63	-51.9	-63.7	3.8	8.46e-01	0	40	104	0	75	14016
2026-01-30 04:07:48.02	30.59	3.90	-51.7	-62.0	3.8	8.46e-01	0	40	104	0	75	11471
2026-01-30 04:07:52.04	30.46	4.17	-51.6	-61.6	3.9	8.44e-01	0	40	104	0	75	10964
2026-01-30 04:07:56.08	30.32	4.44	-51.6	-60.8	4.1	8.44e-01	0	40	104	0	75	10055
2026-01-30 04:08:00.11	30.19	4.72	-47.8	-50.2	12.4	1.20e-03	0	40	0	14680064	67	4691
2026-01-30 04:08:04.13	30.05	5.00	-44.2	-45.5	17.3	0.00e+00	0	41	0	37748736	60	4085
2026-01-30 04:08:08.16	29.91	5.28	-44.4	-45.7	17.0	0.00e+00	0	41	0	60817408	60	4186
2026-01-30 04:08:12.19	29.76	5.56	-41.8	-42.8	20.2	0.00e+00	0	40	0	82837504	55	3988
2026-01-30 04:08:16.22	29.62	5.85	-42.0	-42.9	20.1	0.00e+00	0	41	0	105906176	55	4049
2026-01-30 04:08:20.25	29.46	6.14	-41.9	-42.9	20.3	0.00e+00	0	41	0	128974848	55	4035
2026-01-30 04:08:24.29	29.31	6.43	-41.8	-42.8	20.4	0.00e+00	0	41	0	150994944	55	3959
2026-01-30 04:08:28.32	29.15	6.73	-42.0	-42.9	20.3	0.00e+00	0	41	0	174063616	55	4039
2026-01-30 04:08:32.36	28.99	7.02	-41.6	-42.5	20.8	0.00e+00	0	41	0	196083712	55	3854
2026-01-30 04:08:36.38	28.82	7.33	-41.7	-42.7	20.6	0.00e+00	0	41	0	219152384	54	4163
2026-01-30 04:08:40.42	28.66	7.63	-41.7	-42.6	20.7	0.00e+00	0	41	0	242221056	54	4130
2026-01-30 04:08:44.45	28.48	7.94	-41.7	-42.6	20.7	0.00e+00	0	41	0	264241152	54	4141
2026-01-30 04:08:48.48	28.31	8.25	-41.8	-42.7	20.7	0.00e+00	0	41	0	287309824	54	4169
2026-01-30 04:08:52.51	28.12	8.57	-41.7	-42.6	20.8	0.00e+00	0	41	0	309329920	54	4139
2026-01-30 04:08:56.53	27.94	8.89	-41.3	-42.2	21.2	0.00e+00	0	41	0	332398592	54	3957
2026-01-30 04:09:00.56	27.75	9.21	-41.3	-42.2	21.3	0.00e+00	0	41	0	355467264	54	3943
2026-01-30 04:09:04.59	27.55	9.54	-41.3	-42.2	21.3	0.00e+00	0	41	0	377487360	54	3932
2026-01-30 04:09:08.63	27.35	9.87	-40.9	-41.7	21.8	0.00e+00	0	41	0	400556032	53	3955
2026-01-30 04:09:12.65	27.15	10.21	-40.8	-41.6	21.9	0.00e+00	0	41	0	423624704	53	3905
2026-01-30 04:09:16.69	26.94	10.55	-40.6	-41.5	22.0	0.00e+00	0	41	0	445644800	53	3833
2026-01-30 04:09:20.71	26.72	10.89	-40.5	-41.3	22.2	0.00e+00	0	41	0	468713472	52	3979
2026-01-30 04:09:24.73	26.50	11.24	-40.5	-41.4	22.2	0.00e+00	0	41	0	491782144	52	4008
2026-01-30 04:09:28.77	26.28	11.59	-40.4	-41.2	22.4	0.00e+00	0	41	0	513802240	52	3938
2026-01-30 04:09:32.80	26.05	11.95	-40.4	-41.2	22.4	0.00e+00	0	41	0	535822336	52	3932
2026-01-30 04:09:36.83	25.81	12.31	-40.3	-41.1	22.5	0.00e+00	0	41	0	558891008	52	3895
2026-01-30 04:09:40.86	25.56	12.68	-40.1	-40.9	22.7	0.00e+00	0	41	0	581959680	52	3807
2026-01-30 04:09:44.88	25.31	13.05	-40.1	-40.9	22.7	0.00e+00	0	41	0	603979776	52	3806
2026-01-30 04:09:48.90	25.05	13.43	-40.1	-40.9	22.7	0.00e+00	0	41	0	627048448	52	3811
2026-01-30 04:09:52.93	24.79	13.81	-39.9	-40.7	23.0	0.00e+00	0	41	0	650117120	51	3939
2026-01-30 04:09:56.96	24.52	14.20	-39.9	-40.7	23.1	0.00e+00	0	41	0	672137216	51	3915
2026-01-30 04:10:00.99	24.24	14.59	-39.8	-40.6	23.1	0.00e+00	0	41	0	695205888	51	3887
2026-01-30 04:10:05.01	23.95	14.99	-39.8	-40.6	23.2	0.00e+00	0	41	0	717225984	51	3874
2026-01-30 04:10:09.05	23.65	15.40	-39.6	-40.3	23.4	0.00e+00	0	41	0	740294656	51	3780
2026-01-30 04:10:13.07	23.35	15.81	-39.3	-40.1	23.7	0.00e+00	0	41	0	763363328	50	3891
2026-01-30 04:10:17.11	23.03	16.23	-39.2	-39.9	23.9	0.00e+00	0	41	0	785383424	50	3805
2026-01-30 04:10:21.14	22.71	16.65	-39.0	-39.8	24.0	0.00e+00	0	41	0	808452096	50	3742
2026-01-30 04:10:25.16	22.37	17.08	-38.9	-39.7	24.1	0.00e+00	0	41	0	831520768	49	3929
2026-01-30 04:10:29.19	22.03	17.52	-39.0	-39.7	24.1	0.00e+00	0	41	0	853540864	49	3957
2026-01-30 04:10:33.22	21.68	17.96	-38.9	-39.7	24.2	0.00e+00	0	41	0	876609536	49	3918
2026-01-30 04:10:37.25	21.31	18.41	-38.8	-39.5	24.3	0.00e+00	0	41	0	898629632	49	3851
2026-01-30 04:10:41.26	20.94	18.87	-38.8	-39.5	24.3	0.00e+00	0	41	0	921698304	49	3844
2026-01-30 04:10:45.29	20.55	19.33	-38.8	-39.6	24.3	0.00e+00	0	41	0	943718400	49	3876
2026-01-30 04:10:49.33	20.14	19.81	-38.9	-39.6	24.3	0.00e+00	0	41	0	966787072	49	3903
2026-01-30 04:10:53.35	19.73	20.29	-38.6	-39.4	24.5	0.00e+00	0	41	0	989855744	49	3792
2026-01-30 04:10:57.38	19.30	20.77	-38.3	-39.0	24.9	0.00e+00	0	41	0	1011875840	48	3838
2026-01-30 04:11:01.41	18.86	21.27	-37.7	-38.4	24.9	0.00e+00	0	41	0	1034944512	47	3802
2026-01-30 04:11:05.44	18.40	21.77	-37.6	-38.3	25.0	0.00e+00	0	41	0	1058013184	47	3752
2026-01-30 04:11:09.47	17.93	22.28	-37.6	-38.3	25.0	0.00e+00	0	41	0	1080033280	47	3771
2026-01-30 04:11:13.51	17.44	22.81	-37.6	-38.3	25.0	0.00e+00	0	41	0	1103101952	47	3768
2026-01-30 04:11:17.54	16.93	23.33	-37.5	-38.3	25.1	0.00e+00	0	41	0	1126170624	46	3971
2026-01-30 04:11:21.56	16.41	23.87	-37.4	-38.1	25.2	0.00e+00	0	41	0	1148190720	46	3906
2026-01-30 04:11:25.59	15.86	24.41	-37.4	-38.1	25.2	0.00e+00	0	41	0	1171259392	46	3906
2026-01-30 04:11:29.62	15.30	24.97	-37.4	-38.1	25.3	0.00e+00	0	41	0	1194328064	46	3898
2026-01-30 04:11:33.65	14.71	25.53	-37.2	-37.9	25.4	0.00e+00	0	41	0	1216348160	46	3821
2026-01-30 04:11:37.68	14.11	26.10	-36.9	-37.6	25.7	0.00e+00	0	41	0	1238368256	45	3909
2026-01-30 04:11:41.71	13.48	26.68	-36.7	-37.4	25.9	0.00e+00	0	41	0	1261436928	45	3806
2026-01-30 04:11:45.74	12.82	27.27	-36.8	-37.5	25.8	0.00e+00	0	41	0	1284505600	45	3858
2026-01-30 04:11:49.77	12.14	27.86	-37.1	-37.8	25.6	0.00e+00	0	41	0	1306525696	45	3967
2026-01-30 04:11:53.81	11.44	28.47	-36.9	-37.6	25.7	0.00e+00	0	41	0	1329594368	45	3900
2026-01-30 04:11:57.85	10.70	29.09	-36.6	-37.3	26.0	0.00e+00	0	41	0	1352663040	45	3764
2026-01-30 04:12:01.89	9.94	29.71	-36.8	-37.5	25.9	0.00e+00	0	41	0	1374683136	45	3838
2026-01-30 04:12:05.92	9.14	30.34	-36.6	-37.3	26.1	0.00e+00	0	42	0	1397751808	45	3744
2026-01-30 04:12:09.96	8.32	30.97	-36.6	-37.3	26.1	0.00e+00	0	41	0	1420820480	45	3765
2026-01-30 04:12:13.99	7.46	31.62	-36.5	-37.2	26.2	0.00e+00	0	41	0	1442840576	45	3719
2026-01-30 04:12:18.01	6.56	32.27	-36.6	-37.2	26.2	0.00e+00	0	41	0	1465909248	44	3950
2026-01-30 04:12:22.04	5.63	32.92	-36.8	-37.5	26.0	0.00e+00	0	42	0	1488977920	44	4088
2026-01-30 04:12:26.08	4.66	33.58	-36.4	-37.0	26.4	0.00e+00	0	41	0	1510998016	44	3859
2026-01-30 04:12:30.10	3.65	34.25	-36.7	-37.4	26.1	0.00e+00	0	41	0	1534066688	44	4022
2026-01-30 04:12:34.13	2.59	34.92	-36.5	-37.2	26.3	0.00e+00	0	41	0	1557135360	44	3919
2026-01-30 04:12:38.16	1.49	35.59	-36.7	-37.4	26.1	0.00e+00	0	41	0	1579155456	44	4018
2026-01-30 04:12:42.19	0.35	36.26	-36.5	-37.2	26.3	0.00e+00	0	41	0	1602224128	44	3933
2026-01-30 04:12:46.21	359.15	36.93	-36.7	-37.4	26.2	0.00e+00	0	42	0	1624244224	44	4024
2026-01-30 04:12:50.24	357.91	37.61	-36.5	-37.2	26.3	0.00e+00	0	41	0	1647312896	44	3930
2026-01-30 04:12:54.26	356.61	38.27	-36.5	-37.2	26.3	0.00e+00	0	41	0	1669332992	44	3941
2026-01-30 04:12:58.30	355.25	38.94	-36.8	-37.5	26.1	0.00e+00	0	42	0	1692401664	44	4083
2026-01-30 04:13:02.33	353.84	39.60	-36.9	-37.5	26.1	0.00e+00	0	41	0	1715470336	44	4092
2026-01-30 04:13:06.36	352.37	40.25	-36.4	-37.1	26.4	0.00e+00	0	41	0	1737490432	44	3904
2026-01-30 04:13:10.38	350.84	40.89	-36.8	-37.5	26.2	0.00e+00	0	42	0	1760559104	44	4074
2026-01-30 04:13:14.42	349.25	41.52	-36.4	-37.1	26.5	0.00e+00	0	41	0	1783627776	44	3890
2026-01-30 04:13:18.45	347.59	42.13	-36.5	-37.2	26.4	0.00e+00	0	41	0	1805647872	44	3939
2026-01-30 04:13:22.48	345.88	42.72	-36.8	-37.5	26.1	0.00e+00	0	42	0	1828716544	44	4077
2026-01-30 04:13:26.52	344.09	43.30	-36.9	-37.6	26.1	0.00e+00	0	42	0	1851785216	44	4108
2026-01-30 04:13:30.56	342.24	43.85	-36.7	-37.4	26.3	0.00e+00	0	41	0	1873805312	44	4030
2026-01-30 04:13:34.60	340.32	44.37	-36.7	-37.4	26.3	0.00e+00	0	41	0	1896873984	44	4026
2026-01-30 04:13:38.63	338.35	44.86	-37.0	-37.7	26.1	0.00e+00	0	41	0	1919942656	44	4171
2026-01-30 04:13:42.66	336.32	45.32	-37.1	-37.8	26.0	0.00e+00	0	41	0	1941962752	44	4221
2026-01-30 04:13:46.69	334.23	45.74	-37.1	-37.7	26.0	0.00e+00	0	41	0	1965031424	44	4191
2026-01-30 04:13:50.71	332.09	46.12	-37.1	-37.7	26.1	0.00e+00	0	41	0	1987051520	44	4190
2026-01-30 04:13:54.74	329.90	46.46	-37.0	-37.7	26.1	0.00e+00	0	41	0	2010120192	44	4178
2026-01-30 04:13:58.77	327.66	46.75	-37.1	-37.8	26.1	0.00e+00	0	41	0	2032140288	44	4213
2026-01-30 04:14:02.80	325.38	47.00	-37.5	-38.3	25.7	0.00e+00	0	41	0	2055208960	45	4195
2026-01-30 04:14:06.83	323.07	47.20	-37.2	-37.9	26.0	0.00e+00	0	41	0	2078277632	45	4012
2026-01-30 04:14:10.86	320.73	47.34	-37.6	-38.3	25.7	0.00e+00	0	41	0	2100297728	45	4197
2026-01-30 04:14:14.88	318.38	47.44	-37.4	-38.1	25.9	0.00e+00	0	41	0	2123366400	45	4106
2026-01-30 04:14:18.91	316.01	47.48	-37.1	-37.8	26.1	0.00e+00	0	41	0	2145386496	45	3991
2026-01-30 04:14:22.94	313.65	47.47	-36.8	-37.5	26.4	0.00e+00	0	42	0	2168455168	45	3846
2026-01-30 04:14:26.97	311.28	47.40	-37.3	-38.0	26.0	0.00e+00	0	41	0	2191523840	45	4067
2026-01-30 04:14:31.00	308.93	47.28	-37.4	-38.1	25.9	0.00e+00	0	41	0	2213543936	45	4116
2026-01-30 04:14:35.02	306.61	47.11	-36.9	-37.6	26.3	0.00e+00	0	41	0	2236612608	45	3869
2026-01-30 04:14:39.06	304.31	46.89	-37.3	-38.0	26.0	0.00e+00	0	41	0	2259681280	45	4071
2026-01-30 04:14:43.09	302.05	46.63	-37.3	-38.0	26.0	0.00e+00	0	41	0	2281701376	45	4052
2026-01-30 04:14:47.12	299.82	46.31	-37.0	-37.7	26.2	0.00e+00	0	41	0	2304770048	45	3942
2026-01-30 04:14:51.16	297.64	45.95	-37.0	-37.7	26.3	0.00e+00	0	42	0	2327838720	45	3922
2026-01-30 04:14:55.20	295.52	45.55	-37.0	-37.7	26.2	0.00e+00	0	41	0	2349858816	45	3951
2026-01-30 04:14:59.24	293.45	45.11	-36.9	-37.6	26.3	0.00e+00	0	41	0	2372927488	45	3889
2026-01-30 04:15:03.27	291.44	44.64	-37.1	-37.7	26.2	0.00e+00	0	41	0	2394947584	45	3953
2026-01-30 04:15:07.30	289.49	44.13	-36.8	-37.5	26.4	0.00e+00	0	41	0	2418016256	45	3846
2026-01-30 04:15:11.33	287.61	43.60	-36.7	-37.4	26.5	0.00e+00	0	41	0	2441084928	45	3790
2026-01-30 04:15:15.37	285.78	43.04	-36.8	-37.5	26.4	0.00e+00	0	41	0	2463105024	45	3844
2026-01-30 04:15:19.41	284.02	42.45	-36.9	-37.5	26.3	0.00e+00	0	41	0	2486173696	45	3863
2026-01-30 04:15:23.45	282.33	41.85	-36.8	-37.4	26.4	0.00e+00	0	41	0	2509242368	45	3820
2026-01-30 04:15:27.48	280.70	41.23	-37.2	-37.9	26.0	0.00e+00	0	41	0	2531262464	45	4040
2026-01-30 04:15:31.51	279.13	40.59	-36.8	-37.5	26.3	0.00e+00	0	41	0	2554331136	45	3860
2026-01-30 04:15:35.55	277.62	39.94	-37.1	-37.8	26.2	0.00e+00	0	42	0	2577399808	45	3963
2026-01-30 04:15:39.59	276.17	39.29	-37.2	-37.9	26.0	0.00e+00	0	41	0	2599419904	45	4034
2026-01-30 04:15:43.62	274.79	38.62	-36.9	-37.6	26.3	0.00e+00	0	42	0	2622488576	45	3876
2026-01-30 04:15:47.65	273.46	37.95	-36.8	-37.5	26.3	0.00e+00	0	41	0	2645557248	45	3852
2026-01-30 04:15:51.67	272.18	37.28	-36.6	-37.3	26.5	0.00e+00	0	41	0	2667577344	45	3748
2026-01-30 04:15:55.71	270.95	36.61	-36.5	-37.2	26.5	0.00e+00	0	41	0	2690646016	45	3724
2026-01-30 04:15:59.73	269.78	35.93	-36.8	-37.5	26.3	0.00e+00	0	41	0	2713714688	45	3837
2026-01-30 04:16:03.76	268.65	35.26	-36.3	-37.0	26.7	0.00e+00	0	41	0	2735734784	44	3836
2026-01-30 04:16:07.79	267.57	34.59	-36.6	-37.3	26.5	0.00e+00	0	41	0	2757754880	44	3963
2026-01-30 04:16:11.82	266.53	33.92	-36.6	-37.3	26.3	0.00e+00	0	41	0	2780823552	44	3982
2026-01-30 04:16:15.84	265.54	33.25	-36.8	-37.4	26.3	0.00e+00	0	41	0	2803892224	44	4047
2026-01-30 04:16:19.87	264.59	32.59	-36.8	-37.5	26.2	0.00e+00	0	41	0	2825912320	44	4074
2026-01-30 04:16:23.89	263.67	31.94	-36.9	-37.6	26.1	0.00e+00	0	41	0	2848980992	44	4118
2026-01-30 04:16:27.92	262.79	31.29	-36.9	-37.5	26.1	0.00e+00	0	41	0	2872049664	44	4096
2026-01-30 04:16:31.94	261.95	30.65	-36.8	-37.4	26.2	0.00e+00	0	41	0	2894069760	44	4049
2026-01-30 04:16:35.97	261.14	30.02	-36.8	-37.5	26.2	0.00e+00	0	41	0	2917138432	44	4058
2026-01-30 04:16:40.00	260.35	29.39	-37.0	-37.6	26.0	0.00e+00	0	41	0	2939158528	44	4142
2026-01-30 04:16:44.04	259.60	28.77	-37.2	-37.9	25.7	0.00e+00	0	41	0	2962227200	45	4039
2026-01-30 04:16:48.06	258.88	28.16	-37.3	-38.0	25.7	0.00e+00	0	41	0	2985295872	45	4067
2026-01-30 04:16:52.09	258.19	27.56	-37.3	-38.0	25.7	0.00e+00	0	41	0	3007315968	45	4058
2026-01-30 04:16:56.13	257.51	26.96	-37.1	-37.8	25.8	0.00e+00	0	41	0	3030384640	45	3960
2026-01-30 04:17:00.15	256.87	26.38	-37.1	-37.7	25.8	0.00e+00	0	41	0	3053453312	45	3954
2026-01-30 04:17:04.18	256.25	25.80	-37.3	-38.0	25.6	0.00e+00	0	41	0	3075473408	45	4057
2026-01-30 04:17:08.21	255.65	25.23	-37.4	-38.1	25.5	0.00e+00	0	41	0	3097493504	45	4119
2026-01-30 04:17:12.24	255.07	24.67	-37.1	-37.8	25.7	0.00e+00	0	41	0	3120562176	45	3990
2026-01-30 04:17:16.27	254.52	24.12	-37.0	-37.7	25.8	0.00e+00	0	41	0	3143630848	45	3950
2026-01-30 04:17:20.30	253.98	23.58	-37.1	-37.8	25.7	0.00e+00	0	41	0	3165650944	45	3979
2026-01-30 04:17:24.32	253.46	23.05	-37.1	-37.8	25.7	0.00e+00	0	41	0	3188719616	45	3960
2026-01-30 04:17:28.36	252.96	22.52	-37.4	-38.1	25.4	0.00e+00	0	41	0	3211788288	45	4143
2026-01-30 04:17:32.39	252.48	22.00	-37.5	-38.2	25.3	0.00e+00	0	41	0	3233808384	45	4192
2026-01-30 04:17:36.41	252.01	21.50	-37.7	-38.4	25.1	0.00e+00	0	41	0	3256877056	46	4045
2026-01-30 04:17:40.44	251.56	20.99	-37.8	-38.5	25.0	0.00e+00	0	41	0	3279945728	46	4097
2026-01-30 04:17:44.47	251.12	20.50	-37.8	-38.6	25.0	0.00e+00	0	41	0	3301965824	46	4106
2026-01-30 04:17:48.50	250.69	20.02	-37.9	-38.6	24.9	0.00e+00	0	41	0	3325034496	46	4136
2026-01-30 04:17:52.52	250.29	19.54	-38.1	-38.8	24.7	0.00e+00	0	41	0	3348103168	46	4214
2026-01-30 04:17:56.55	249.89	19.07	-37.9	-38.6	24.8	0.00e+00	0	41	0	3370123264	46	4145
2026-01-30 04:18:00.58	249.50	18.61	-38.2	-39.0	24.5	0.00e+00	0	41	0	3393191936	47	4066
2026-01-30 04:18:04.60	249.13	18.15	-38.5	-39.3	24.3	0.00e+00	0	41	0	3415212032	47	4206
2026-01-30 04:18:08.63	248.77	17.70	-38.7	-39.4	24.1	0.00e+00	0	41	0	3438280704	47	4278
2026-01-30 04:18:12.66	248.42	17.26	-39.0	-39.8	24.3	0.00e+00	0	41	0	3460300800	48	4204
2026-01-30 04:18:16.69	248.08	16.83	-39.2	-40.0	24.1	0.00e+00	0	41	0	3483369472	49	4062
2026-01-30 04:18:20.72	247.74	16.40	-39.4	-40.1	23.9	0.00e+00	0	41	0	3506438144	49	4140
2026-01-30 04:18:24.75	247.42	15.98	-39.2	-39.9	24.1	0.00e+00	0	41	0	3528458240	49	4034
2026-01-30 04:18:28.78	247.11	15.56	-39.3	-40.0	24.0	0.00e+00	0	41	0	3551526912	49	4092
2026-01-30 04:18:32.80	246.81	15.15	-39.5	-40.2	23.8	0.00e+00	0	41	0	3573547008	49	4167
2026-01-30 04:18:36.83	246.51	14.75	-39.5	-40.3	23.8	0.00e+00	0	41	0	3596615680	49	4195
2026-01-30 04:18:40.85	246.23	14.35	-39.6	-40.3	23.7	0.00e+00	0	41	0	3619684352	49	4226
2026-01-30 04:18:44.88	245.95	13.96	-39.6	-40.4	23.6	0.00e+00	0	41	0	3641704448	49	4254
2026-01-30 04:18:48.91	245.68	13.57	-39.7	-40.4	23.6	0.00e+00	0	41	0	3664773120	50	4045
2026-01-30 04:18:52.92	245.41	13.19	-40.0	-40.8	23.2	0.00e+00	0	41	0	3687841792	50	4217
2026-01-30 04:18:56.95	245.16	12.82	-40.4	-41.2	22.8	0.00e+00	0	41	0	3709861888	51	4165
2026-01-30 04:19:00.98	244.91	12.44	-40.3	-41.1	22.9	0.00e+00	0	41	0	3732930560	51	4119
2026-01-30 04:19:05.01	244.66	12.08	-40.4	-41.3	22.7	0.00e+00	0	41	0	3754950656	51	4195
2026-01-30 04:19:09.03	244.43	11.72	-40.5	-41.3	22.6	0.00e+00	0	41	0	3778019328	51	4240
2026-01-30 04:19:13.06	244.19	11.36	-40.5	-41.3	22.7	0.00e+00	0	41	0	3800039424	51	4203
2026-01-30 04:19:17.08	243.97	11.01	-40.3	-41.1	22.7	0.00e+00	0	41	0	3823108096	51	4136
2026-01-30 04:19:21.11	243.75	10.66	-40.3	-41.1	22.7	0.00e+00	0	41	0	3845128192	51	4137
2026-01-30 04:19:25.13	243.54	10.32	-40.3	-41.1	22.7	0.00e+00	0	41	0	3868196864	51	4134
2026-01-30 04:19:29.15	243.33	9.99	-40.5	-41.3	22.6	0.00e+00	0	41	0	3891265536	51	4200
2026-01-30 04:19:33.19	243.12	9.65	-40.6	-41.4	22.4	0.00e+00	0	41	0	3913285632	51	4277
2026-01-30 04:19:37.21	242.92	9.32	-40.5	-41.4	22.3	0.00e+00	0	41	0	3936354304	52	4012
2026-01-30 04:19:41.25	242.73	8.99	-40.6	-41.5	22.2	0.00e+00	0	41	0	3959422976	52	4063
2026-01-30 04:19:45.29	242.54	8.67	-40.7	-41.5	22.1	0.00e+00	0	41	0	3981443072	52	4083
2026-01-30 04:19:49.33	242.35	8.35	-40.8	-41.7	21.9	0.00e+00	0	42	0	4004511744	52	4153
2026-01-30 04:19:53.36	242.17	8.04	-40.8	-41.7	21.8	0.00e+00	0	41	0	4027580416	52	4159
2026-01-30 04:19:57.39	241.99	7.73	-41.0	-41.9	21.6	0.00e+00	0	42	0	4049600512	52	4256
2026-01-30 04:20:01.42	241.82	7.42	-41.2	-42.1	21.4	0.00e+00	0	41	0	4072669184	53	4109
2026-01-30 04:20:05.46	241.65	7.11	-41.3	-42.2	21.3	0.00e+00	0	41	0	4095737856	53	4169
2026-01-30 04:20:09.50	241.48	6.81	-41.4	-42.3	21.1	0.00e+00	0	42	0	4117757952	53	4234
2026-01-30 04:20:13.54	241.32	6.51	-41.5	-42.4	20.9	0.00e+00	0	41	0	4140826624	53	4290
2026-01-30 04:20:17.56	241.16	6.22	-41.7	-42.6	20.8	0.00e+00	0	41	0	4162846720	54	4125
2026-01-30 04:20:21.60	241.00	5.93	-41.7	-42.7	20.7	0.00e+00	0	41	0	4185915392	54	4151
2026-01-30 04:20:25.63	240.85	5.64	-41.7	-42.7	20.6	0.00e+00	0	41	0	4208984064	54	4163
2026-01-30 04:20:29.66	240.70	5.35	-42.1	-43.0	20.4	0.00e+00	0	41	0	4231004160	55	4088
2026-01-30 04:20:33.70	240.56	5.07	-42.0	-43.0	20.3	0.00e+00	0	41	0	4254072832	55	4080
2026-01-30 04:20:37.73	240.42	4.79	-53.2	-65.1	3.8	8.47e-01	0	42	104	4259315712	76	15571
2026-01-30 04:20:41.77	240.28	4.51	-53.4	-65.4	3.8	8.46e-01	0	41	104	4259315712	77	15103
2026-01-30 04:20:45.80	240.14	4.24	-53.4	-65.4	3.8	8.45e-01	0	41	104	4259315712	77	15066
2026-01-30 04:20:49.83	240.00	3.97	-53.2	-65.2	3.8	8.46e-01	0	41	104	4259315712	77	14738
2026-01-30 04:20:53.86	239.87	3.70	-53.4	-65.3	3.8	8.47e-01	0	41	104	4259315712	77	14965
2026-01-30 04:20:57.89	239.74	3.43	-53.3	-65.2	3.8	8.46e-01	0	41	104	4259315712	77	14843
2026-01-30 04:21:01.92	239.62	3.17	-53.2	-65.2	3.8	8.46e-01	0	42	104	4259315712	77	14750
2026-01-30 04:21:05.95	239.50	2.90	-53.2	-65.1	3.8	8.46e-01	0	41	104	4259315712	77	14657
2026-01-30 04:21:09.98	239.37	2.64	-53.1	-65.1	3.8	8.45e-01	0	41	104	4259315712	77	14597
2026-01-30 04:21:14.00	239.26	2.39	-53.1	-65.0	3.8	8.45e-01	0	42	104	4259315712	77	14466
2026-01-30 04:21:18.03	239.14	2.13	-53.1	-65.0	3.8	8.46e-01	0	41	104	4259315712	77	14517

#Closed at: 2026-01-30 04:21:22
#Recorded file [4259 MB]: D:/lorett/data/31041_260130_070719.dat