passes_logs/2026/01/30/R3.2S_Murmansk/R3.2S_Murmansk__20260130_034318_AQUA_rec.log

#Pass ID: 20260130_034318_AQUA
#Satellite: AQUA
#Configuration: AQUA
#almurnet v.1.7.20251203
#Start time: 2026-01-30 03:43:20

#Version: 2.2.20231116
#Station: R3.2S_Murmansk
#Location: 33.079688 lon 68.888172 lat
#TLE: 1 27424U 02022A   26029.54575153  .00001738  00000+0  35736-3 0  9994
#TLE: 2 27424  98.4104 356.2197 0001804  61.7823  56.0643 14.61874165263019

#Time	Az	El	Level	Level2	SNR	BER	BlckErr	Temp	State	Recorded	gain1	gain2
2026-01-30 03:43:20.33	28.50	2.14	-55.0	-72.8	3.8	7.45e-01	0	39	0	0	81	28301
2026-01-30 03:43:23.35	28.39	2.33	-54.9	-72.8	3.8	7.45e-01	0	39	104	0	80	29757
2026-01-30 03:43:26.37	28.27	2.53	-55.0	-72.8	3.8	7.47e-01	0	39	104	0	80	29898
2026-01-30 03:43:29.39	28.16	2.73	-55.4	-73.2	3.8	7.43e-01	0	39	104	0	81	29617
2026-01-30 03:43:32.41	28.04	2.93	-55.5	-73.3	3.8	7.44e-01	0	39	104	0	81	29949
2026-01-30 03:43:35.44	27.92	3.13	-55.4	-73.2	3.8	7.46e-01	0	40	104	0	81	29624
2026-01-30 03:43:38.46	27.80	3.33	-55.5	-73.3	3.8	7.47e-01	0	40	104	0	81	29770
2026-01-30 03:43:41.49	27.67	3.54	-55.3	-73.1	3.8	7.47e-01	0	40	104	0	81	29209
2026-01-30 03:43:44.50	27.54	3.74	-54.9	-72.8	3.8	7.44e-01	0	40	104	0	81	28043
2026-01-30 03:43:47.53	27.42	3.95	-54.3	-72.1	3.8	7.48e-01	0	40	104	0	80	27635
2026-01-30 03:43:50.56	27.28	4.16	-53.4	-70.5	3.8	7.47e-01	0	40	104	0	78	25611
2026-01-30 03:43:53.59	27.15	4.37	-53.4	-70.9	3.8	7.48e-01	0	40	104	0	78	26934
2026-01-30 03:43:56.61	27.01	4.58	-52.8	-68.3	3.8	7.44e-01	0	40	104	0	77	21222
2026-01-30 03:43:59.64	26.88	4.80	-50.3	-62.8	3.8	7.45e-01	0	40	104	0	72	15028
2026-01-30 03:44:02.66	26.74	5.01	-47.4	-58.8	3.9	7.47e-01	0	40	104	0	66	13265
2026-01-30 03:44:05.68	26.59	5.23	-48.8	-60.8	3.8	7.43e-01	0	40	104	0	68	14942
2026-01-30 03:44:08.69	26.45	5.45	-46.2	-57.3	3.8	7.46e-01	0	40	104	0	64	12624
2026-01-30 03:44:11.71	26.30	5.67	-46.2	-57.3	3.8	7.46e-01	0	40	104	0	63	13261
2026-01-30 03:44:14.73	26.15	5.90	-47.3	-58.6	3.8	7.43e-01	0	40	104	0	66	13107
2026-01-30 03:44:17.75	25.99	6.12	-45.3	-56.3	3.8	7.43e-01	0	40	104	0	62	12570
2026-01-30 03:44:20.77	25.84	6.35	-45.5	-56.4	3.8	7.42e-01	0	40	104	0	61	13558
2026-01-30 03:44:23.79	25.68	6.58	-49.6	-61.7	3.8	7.47e-01	0	40	104	0	69	15690
2026-01-30 03:44:26.80	25.52	6.81	-45.1	-56.0	3.8	7.47e-01	0	40	104	0	61	12867
2026-01-30 03:44:29.83	25.35	7.04	-49.4	-61.5	3.8	7.44e-01	0	40	104	0	69	15330
2026-01-30 03:44:32.86	25.18	7.28	-45.3	-56.2	3.8	7.43e-01	0	40	104	0	62	12515
2026-01-30 03:44:35.87	25.01	7.52	-45.3	-56.2	3.8	7.43e-01	0	40	104	0	61	13207
2026-01-30 03:44:38.90	24.84	7.76	-46.6	-57.8	3.8	7.46e-01	0	40	104	0	65	12522
2026-01-30 03:44:41.91	24.66	8.00	-44.5	-55.4	3.8	7.46e-01	0	40	104	0	61	11984
2026-01-30 03:44:44.94	24.47	8.24	-45.6	-56.5	3.8	7.45e-01	0	40	104	0	61	13669
2026-01-30 03:44:47.96	24.29	8.49	-50.6	-63.1	3.8	7.44e-01	0	40	104	0	71	16423
2026-01-30 03:44:50.98	24.10	8.74	-44.3	-55.1	3.8	7.43e-01	0	41	104	0	60	12270
2026-01-30 03:44:54.00	23.91	8.99	-53.0	-68.2	3.7	7.47e-01	0	40	104	0	76	22221
2026-01-30 03:44:57.02	23.71	9.25	-44.8	-55.7	3.8	7.42e-01	0	40	104	0	61	12473
2026-01-30 03:45:00.04	23.51	9.51	-48.1	-59.6	3.8	7.44e-01	0	41	104	0	67	13757
2026-01-30 03:45:03.06	23.30	9.77	-46.5	-57.6	3.8	7.44e-01	0	40	104	0	65	12325
2026-01-30 03:45:06.08	23.10	10.03	-44.2	-54.9	3.9	7.41e-01	0	40	104	0	60	12048
2026-01-30 03:45:09.10	22.88	10.29	-44.8	-55.6	3.8	7.42e-01	0	41	104	0	60	13104
2026-01-30 03:45:12.13	22.66	10.56	-50.7	-63.4	3.8	7.45e-01	0	41	104	0	72	16066
2026-01-30 03:45:15.15	22.44	10.83	-44.1	-54.9	3.8	7.43e-01	0	41	104	0	60	11958
2026-01-30 03:45:18.18	22.21	11.11	-52.8	-67.7	3.9	7.42e-01	0	41	104	0	77	19667
2026-01-30 03:45:21.20	21.98	11.39	-44.2	-54.9	3.8	7.42e-01	0	41	104	0	60	12085
2026-01-30 03:45:24.22	21.74	11.67	-46.5	-57.6	3.9	7.44e-01	0	41	104	0	65	12266
2026-01-30 03:45:27.24	21.50	11.95	-44.4	-55.0	3.8	7.48e-01	0	41	104	0	60	12123
2026-01-30 03:45:30.27	21.25	12.24	-43.6	-54.3	3.8	7.44e-01	0	41	104	0	59	11837
2026-01-30 03:45:33.29	21.00	12.53	-43.8	-54.5	3.8	7.43e-01	0	41	104	0	59	12217
2026-01-30 03:45:36.31	20.74	12.82	-49.6	-61.6	3.8	7.44e-01	0	41	104	0	71	13741
2026-01-30 03:45:39.33	20.47	13.11	-43.5	-54.1	3.8	7.41e-01	0	41	104	0	58	12324
2026-01-30 03:45:42.35	20.20	13.41	-50.8	-63.2	3.9	7.43e-01	0	41	104	0	73	14835
2026-01-30 03:45:45.37	19.93	13.72	-43.2	-53.8	3.8	7.42e-01	0	41	104	0	58	11878
2026-01-30 03:45:48.40	19.64	14.02	-45.2	-56.0	3.8	7.46e-01	0	41	104	0	62	12189
2026-01-30 03:45:51.41	19.35	14.33	-43.5	-54.2	3.8	7.46e-01	0	41	104	0	59	11731
2026-01-30 03:45:54.43	19.06	14.65	-43.3	-54.0	3.8	7.45e-01	0	41	104	0	58	12165
2026-01-30 03:45:57.45	18.75	14.97	-45.0	-55.8	3.8	7.48e-01	0	41	104	0	60	13275
2026-01-30 03:46:00.46	18.44	15.29	-46.0	-57.1	3.8	7.45e-01	0	41	104	0	64	12271
2026-01-30 03:46:03.49	18.12	15.61	-43.4	-54.1	3.8	7.44e-01	0	41	104	0	57	12979
2026-01-30 03:46:06.51	17.79	15.94	-49.2	-60.8	3.9	7.43e-01	0	41	104	0	70	13403
2026-01-30 03:46:09.53	17.46	16.28	-42.9	-53.5	3.8	7.44e-01	0	41	104	0	57	12205
2026-01-30 03:46:12.55	17.12	16.61	-43.0	-53.7	3.8	7.42e-01	0	41	104	0	58	11729
2026-01-30 03:46:15.57	16.76	16.96	-43.9	-54.7	3.8	7.45e-01	0	41	104	0	58	13202
2026-01-30 03:46:18.60	16.40	17.30	-42.8	-53.5	3.8	7.43e-01	0	41	104	0	57	12119
2026-01-30 03:46:21.61	16.03	17.65	-48.2	-59.5	3.8	7.44e-01	0	41	104	0	66	14466
2026-01-30 03:46:24.64	15.65	18.01	-44.0	-54.3	3.8	7.43e-01	0	41	104	0	59	11912
2026-01-30 03:46:27.66	15.26	18.37	-45.2	-56.0	3.8	7.49e-01	0	41	104	0	60	13615
2026-01-30 03:46:30.69	14.86	18.73	-46.7	-57.7	3.8	7.44e-01	0	41	104	0	65	12432
2026-01-30 03:46:33.70	14.46	19.10	-43.2	-53.8	3.8	7.42e-01	0	41	104	0	58	11938
2026-01-30 03:46:36.73	14.03	19.47	-43.3	-53.9	3.8	7.45e-01	0	41	104	0	58	12008
2026-01-30 03:46:39.76	13.60	19.85	-47.5	-58.7	3.8	7.43e-01	0	41	104	0	65	13977
2026-01-30 03:46:42.78	13.16	20.23	-43.2	-53.9	3.8	7.45e-01	0	41	104	0	58	11994
2026-01-30 03:46:45.81	12.70	20.62	-53.8	-69.7	3.8	7.50e-01	0	41	104	0	78	23344
2026-01-30 03:46:48.83	12.23	21.01	-43.3	-53.9	3.8	7.43e-01	0	41	104	0	58	12063
2026-01-30 03:46:51.85	11.75	21.41	-46.2	-57.2	3.9	7.42e-01	0	41	104	0	62	13895
2026-01-30 03:46:54.87	11.25	21.81	-47.0	-58.1	3.8	7.46e-01	0	41	104	0	66	12320
2026-01-30 03:46:57.90	10.74	22.21	-43.5	-54.1	3.8	7.40e-01	0	41	104	0	58	12370
2026-01-30 03:47:00.92	10.22	22.62	-43.6	-54.3	3.9	7.43e-01	0	41	104	0	59	11918
2026-01-30 03:47:03.95	9.68	23.04	-50.2	-62.2	3.8	7.49e-01	0	41	104	0	70	15699
2026-01-30 03:47:06.96	9.13	23.45	-43.4	-54.1	3.8	7.43e-01	0	41	104	0	58	12282
2026-01-30 03:47:09.98	8.56	23.88	-54.4	-71.4	3.8	7.43e-01	0	41	104	0	79	26893
2026-01-30 03:47:13.00	7.97	24.31	-43.6	-54.3	3.8	7.44e-01	0	41	104	0	59	11846
2026-01-30 03:47:16.02	7.36	24.74	-45.6	-56.5	3.8	7.45e-01	0	41	104	0	61	13627
2026-01-30 03:47:19.04	6.74	25.17	-47.8	-59.0	3.8	7.45e-01	0	41	104	0	67	12837
2026-01-30 03:47:22.05	6.10	25.61	-43.5	-54.2	3.8	7.43e-01	0	41	104	0	59	11691
2026-01-30 03:47:25.08	5.44	26.06	-43.4	-54.1	3.8	7.42e-01	0	41	104	0	58	12313
2026-01-30 03:47:28.10	4.76	26.51	-49.6	-61.4	3.8	7.41e-01	0	41	104	0	70	14314
2026-01-30 03:47:31.11	4.06	26.96	-43.2	-53.8	3.8	7.42e-01	0	41	104	0	58	11869
2026-01-30 03:47:34.13	3.34	27.41	-54.5	-71.5	3.8	7.46e-01	0	41	104	0	79	27124
2026-01-30 03:47:37.15	2.60	27.87	-44.1	-54.8	3.8	7.46e-01	0	41	104	0	59	12533
2026-01-30 03:47:40.18	1.83	28.34	-45.5	-56.3	3.9	7.43e-01	0	41	104	0	62	12557
2026-01-30 03:47:43.20	1.04	28.80	-46.0	-57.0	3.8	7.44e-01	0	41	104	0	64	12095
2026-01-30 03:47:46.22	0.23	29.27	-43.2	-53.9	3.8	7.45e-01	0	41	104	0	58	12014
2026-01-30 03:47:49.25	359.38	29.73	-43.5	-54.1	3.8	7.48e-01	0	41	104	0	57	13060
2026-01-30 03:47:52.27	358.52	30.20	-47.9	-58.9	3.9	7.45e-01	0	41	104	0	67	12797
2026-01-30 03:47:55.29	357.63	30.67	-43.2	-53.8	3.8	7.44e-01	0	41	104	0	58	11871
2026-01-30 03:47:58.31	356.71	31.14	-54.5	-71.1	3.8	7.47e-01	0	41	104	0	79	26105
2026-01-30 03:48:01.31	355.76	31.61	-44.1	-54.8	3.8	7.46e-01	0	41	104	0	60	11835
2026-01-30 03:48:04.33	354.79	32.08	-43.9	-54.7	3.8	7.45e-01	0	41	104	0	59	12386
2026-01-30 03:48:07.36	353.78	32.55	-44.3	-54.9	3.8	7.46e-01	0	41	104	0	60	12046
2026-01-30 03:48:10.38	352.74	33.01	-44.0	-54.7	3.8	7.43e-01	0	41	104	0	59	12435
2026-01-30 03:48:13.40	351.67	33.48	-46.4	-57.5	3.8	7.40e-01	0	41	104	0	63	13650
2026-01-30 03:48:16.42	350.57	33.93	-47.7	-58.9	3.8	7.44e-01	0	41	104	0	67	12685
2026-01-30 03:48:19.45	349.44	34.39	-45.5	-56.3	3.8	7.45e-01	0	41	104	0	61	13265
2026-01-30 03:48:22.47	348.27	34.84	-53.7	-68.5	3.9	7.42e-01	0	41	104	0	79	19361
2026-01-30 03:48:25.48	347.08	35.27	-44.9	-55.6	3.8	7.47e-01	0	41	104	0	61	12287
2026-01-30 03:48:28.49	345.85	35.71	-44.5	-55.2	3.8	7.47e-01	0	41	104	0	60	12448
2026-01-30 03:48:31.52	344.58	36.13	-45.4	-56.0	3.9	7.43e-01	0	41	104	0	62	12227
2026-01-30 03:48:34.53	343.29	36.54	-46.1	-57.0	3.8	7.42e-01	0	41	104	0	63	12900
2026-01-30 03:48:37.56	341.95	36.94	-54.8	-71.4	3.7	7.47e-01	0	41	104	0	80	25486
2026-01-30 03:48:40.58	340.58	37.33	-48.3	-59.5	3.9	7.47e-01	0	41	104	0	68	12854
2026-01-30 03:48:43.60	339.18	37.71	-46.0	-56.8	3.8	7.46e-01	0	41	104	0	62	13263
2026-01-30 03:48:46.62	337.75	38.06	-53.7	-68.3	4.0	7.45e-01	0	41	104	0	79	18770
2026-01-30 03:48:49.63	336.29	38.41	-46.2	-57.1	3.8	7.44e-01	0	41	104	0	64	12308
2026-01-30 03:48:52.65	334.79	38.73	-47.1	-58.2	3.8	7.45e-01	0	41	104	0	66	12495
2026-01-30 03:48:55.67	333.26	39.03	-49.3	-60.6	3.8	7.46e-01	0	41	104	0	68	14585
2026-01-30 03:48:58.68	331.71	39.32	-46.3	-57.2	3.8	7.44e-01	0	41	104	0	64	12386
2026-01-30 03:49:01.70	330.13	39.58	-54.9	-71.3	3.9	7.43e-01	0	41	104	0	80	25230
2026-01-30 03:49:04.73	328.52	39.82	-48.1	-59.3	3.8	7.42e-01	0	41	104	0	68	12595
2026-01-30 03:49:07.74	326.89	40.04	-49.3	-60.9	3.8	7.44e-01	0	41	104	0	69	14237
2026-01-30 03:49:10.76	325.24	40.23	-51.8	-64.1	3.8	7.44e-01	0	41	104	0	75	14702
2026-01-30 03:49:13.78	323.57	40.39	-45.8	-56.5	3.8	7.43e-01	0	41	104	0	63	12169
2026-01-30 03:49:16.80	321.88	40.53	-47.0	-57.9	3.8	7.45e-01	0	41	104	0	66	11962
2026-01-30 03:49:19.82	320.18	40.64	-51.4	-63.6	3.8	7.45e-01	0	41	104	0	73	15553
2026-01-30 03:49:22.84	318.47	40.72	-46.1	-56.9	3.8	7.46e-01	0	41	104	0	64	12071
2026-01-30 03:49:25.85	316.76	40.78	-54.8	-64.7	7.3	6.57e-01	184	41	104	0	80	11753
2026-01-30 03:49:28.86	315.04	40.80	-47.4	-48.8	23.1	6.03e-01	0	41	0	3670016	66	4236
2026-01-30 03:49:31.87	313.33	40.80	-44.4	-45.6	26.3	6.03e-01	0	41	0	9437184	60	4107
2026-01-30 03:49:34.89	311.60	40.77	-44.2	-45.3	26.5	6.01e-01	0	41	0	15204352	59	4216
2026-01-30 03:49:37.91	309.89	40.71	-43.8	-44.9	26.8	6.03e-01	0	41	0	20447232	59	4041
2026-01-30 03:49:40.93	308.18	40.62	-44.1	-45.2	26.6	6.01e-01	0	41	0	26214400	59	4151
2026-01-30 03:49:43.94	306.49	40.50	-44.5	-45.6	26.4	6.01e-01	0	41	0	31981568	60	4132
2026-01-30 03:49:46.95	304.81	40.36	-44.6	-45.8	26.1	6.03e-01	0	41	0	37748736	59	4448
2026-01-30 03:49:49.96	303.14	40.18	-44.2	-45.4	26.5	6.03e-01	0	41	0	43515904	59	4244
2026-01-30 03:49:52.98	301.50	39.99	-44.1	-45.2	26.7	6.04e-01	0	41	0	48758784	59	4185
2026-01-30 03:49:55.99	299.87	39.77	-43.8	-44.9	26.9	6.04e-01	0	41	0	54525952	59	4042
2026-01-30 03:49:59.01	298.27	39.52	-44.4	-45.5	26.4	6.02e-01	0	41	0	60293120	59	4318
2026-01-30 03:50:02.03	296.69	39.25	-44.4	-45.5	26.3	6.04e-01	0	41	0	66060288	59	4336
2026-01-30 03:50:05.06	295.14	38.96	-44.3	-45.4	26.4	6.04e-01	0	41	0	71827456	60	4041
2026-01-30 03:50:08.08	293.62	38.65	-44.2	-45.2	26.6	6.03e-01	0	41	0	77070336	60	3957
2026-01-30 03:50:11.09	292.13	38.32	-44.2	-45.4	26.2	6.04e-01	0	41	0	82837504	60	4007
2026-01-30 03:50:14.11	290.67	37.98	-44.4	-45.5	26.4	6.03e-01	0	41	0	88604672	60	4090
2026-01-30 03:50:17.13	289.24	37.61	-44.8	-46.1	25.6	6.02e-01	0	41	0	93847552	60	4343
2026-01-30 03:50:20.15	287.85	37.24	-44.6	-45.8	25.5	6.02e-01	0	41	0	100139008	60	4208
2026-01-30 03:50:23.17	286.49	36.84	-45.1	-46.3	25.6	6.03e-01	0	41	0	105381888	60	4462
2026-01-30 03:50:26.19	285.16	36.44	-44.4	-45.5	26.4	6.01e-01	0	41	0	111149056	60	4091
2026-01-30 03:50:29.21	283.87	36.02	-45.0	-46.2	25.6	6.02e-01	0	41	0	116916224	60	4399
2026-01-30 03:50:32.24	282.60	35.59	-44.6	-45.8	26.2	6.00e-01	0	41	0	122683392	61	3980
2026-01-30 03:50:35.26	281.38	35.16	-44.6	-45.7	26.1	6.02e-01	0	41	0	128450560	60	4189
2026-01-30 03:50:38.28	280.19	34.72	-43.9	-45.0	26.4	6.02e-01	0	41	0	133693440	59	4059
2026-01-30 03:50:41.30	279.03	34.27	-43.5	-44.5	26.7	6.04e-01	0	41	0	139460608	58	4098
2026-01-30 03:50:44.32	277.90	33.81	-43.9	-45.0	26.1	6.02e-01	0	41	0	145227776	58	4308
2026-01-30 03:50:47.34	276.81	33.35	-44.0	-45.1	25.5	6.02e-01	0	41	0	150994944	58	4365
2026-01-30 03:50:50.36	275.74	32.89	-44.6	-45.8	25.3	6.00e-01	0	41	0	156762112	59	4465
2026-01-30 03:50:53.39	274.71	32.42	-44.3	-45.4	26.4	6.01e-01	0	41	0	162004992	60	4006
2026-01-30 03:50:56.41	273.71	31.95	-44.5	-45.7	25.4	6.01e-01	0	41	0	167772160	61	3930
2026-01-30 03:50:59.43	272.74	31.48	-44.4	-45.7	26.0	6.02e-01	0	41	0	173539328	59	4404
2026-01-30 03:51:02.45	271.79	31.01	-43.9	-45.0	26.6	6.02e-01	0	41	0	179306496	59	4089
2026-01-30 03:51:05.47	270.88	30.54	-44.1	-45.2	26.3	6.05e-01	0	41	0	185073664	59	4182
2026-01-30 03:51:08.48	269.99	30.07	-43.8	-44.9	26.6	6.02e-01	0	41	0	190316544	58	4251
2026-01-30 03:51:11.50	269.13	29.60	-43.8	-44.9	26.7	6.02e-01	0	41	0	196083712	59	4045
2026-01-30 03:51:14.52	268.30	29.13	-43.7	-44.8	26.7	6.03e-01	0	41	0	201850880	58	4236
2026-01-30 03:51:17.55	267.48	28.66	-43.6	-44.7	26.8	6.03e-01	0	41	0	207618048	58	4157
2026-01-30 03:51:20.57	266.70	28.20	-44.2	-45.4	26.2	6.04e-01	0	41	0	213385216	59	4249
2026-01-30 03:51:23.59	265.94	27.73	-43.6	-44.7	26.8	6.01e-01	0	41	0	218628096	58	4159
2026-01-30 03:51:26.61	265.20	27.27	-44.0	-45.2	26.2	6.03e-01	0	41	0	224395264	59	4152
2026-01-30 03:51:29.63	264.48	26.82	-44.1	-45.2	26.2	6.03e-01	0	41	0	230162432	59	4188
2026-01-30 03:51:32.65	263.78	26.37	-43.9	-45.0	26.6	6.03e-01	0	41	0	235929600	59	4053
2026-01-30 03:51:35.67	263.10	25.92	-44.0	-45.2	26.3	6.03e-01	0	41	0	241696768	59	4168
2026-01-30 03:51:38.69	262.45	25.47	-44.0	-45.2	26.4	6.02e-01	0	41	0	246939648	59	4151
2026-01-30 03:51:41.72	261.81	25.03	-44.1	-45.3	26.2	6.01e-01	0	41	0	252706816	59	4203
2026-01-30 03:51:44.74	261.19	24.59	-43.8	-44.9	26.4	6.03e-01	0	41	0	258473984	59	4051
2026-01-30 03:51:47.77	260.59	24.16	-44.3	-45.5	26.0	6.03e-01	0	41	0	264241152	59	4315
2026-01-30 03:51:50.79	260.00	23.73	-44.0	-45.2	26.2	6.05e-01	0	41	0	270008320	59	4150
2026-01-30 03:51:53.81	259.43	23.31	-44.2	-45.4	26.1	6.03e-01	0	41	0	275251200	59	4274
2026-01-30 03:51:56.83	258.88	22.89	-44.0	-45.1	26.3	6.02e-01	0	41	0	281018368	59	4131
2026-01-30 03:51:59.85	258.35	22.48	-44.0	-45.2	26.2	6.04e-01	0	41	0	286785536	59	4161
2026-01-30 03:52:02.87	257.82	22.07	-43.9	-45.1	26.3	6.03e-01	0	41	0	292552704	59	4111
2026-01-30 03:52:05.89	257.32	21.66	-44.0	-45.1	26.2	6.02e-01	0	41	0	298319872	59	4134
2026-01-30 03:52:08.91	256.82	21.26	-43.7	-44.8	26.5	6.03e-01	0	41	0	303562752	59	3982
2026-01-30 03:52:11.93	256.34	20.87	-43.8	-44.9	26.4	6.02e-01	0	41	0	309329920	59	4022
2026-01-30 03:52:14.95	255.88	20.47	-44.0	-45.2	26.1	6.02e-01	0	41	0	315097088	59	4153
2026-01-30 03:52:17.98	255.42	20.09	-44.0	-45.1	26.1	6.02e-01	0	41	0	320864256	59	4137
2026-01-30 03:52:21.00	254.98	19.71	-43.4	-44.5	26.7	6.02e-01	0	41	0	326631424	58	4080
2026-01-30 03:52:24.03	254.55	19.33	-43.7	-44.9	26.4	6.02e-01	0	41	0	331874304	58	4244
2026-01-30 03:52:27.05	254.13	18.96	-43.7	-44.8	26.4	6.03e-01	0	41	0	337641472	58	4210
2026-01-30 03:52:30.07	253.72	18.59	-44.0	-45.2	26.1	6.03e-01	0	41	0	343408640	58	4406
2026-01-30 03:52:33.09	253.32	18.23	-43.9	-45.0	26.2	6.02e-01	0	41	0	349175808	58	4329
2026-01-30 03:52:36.11	252.93	17.87	-43.6	-44.8	26.3	6.01e-01	0	41	0	354942976	58	4198
2026-01-30 03:52:39.13	252.55	17.51	-43.6	-44.8	26.2	6.01e-01	0	41	0	360185856	58	4210
2026-01-30 03:52:42.15	252.18	17.16	-43.8	-44.9	26.1	6.04e-01	0	41	0	365953024	58	4283
2026-01-30 03:52:45.17	251.83	16.82	-43.5	-44.6	26.5	6.01e-01	0	41	0	371720192	58	4138
2026-01-30 03:52:48.19	251.47	16.47	-43.5	-44.6	26.5	6.02e-01	0	41	0	377487360	58	4120
2026-01-30 03:52:51.21	251.13	16.14	-43.9	-45.1	26.1	6.04e-01	0	41	0	383254528	58	4343
2026-01-30 03:52:54.23	250.80	15.80	-43.7	-44.8	26.3	6.01e-01	0	41	0	389021696	58	4234
2026-01-30 03:52:57.25	250.47	15.47	-43.5	-44.6	26.5	6.02e-01	0	41	0	394264576	58	4124
2026-01-30 03:53:00.27	250.15	15.15	-43.7	-44.9	26.2	6.03e-01	0	41	0	400031744	58	4266
2026-01-30 03:53:03.29	249.84	14.83	-44.0	-45.2	25.9	6.01e-01	0	41	0	405798912	58	4406
2026-01-30 03:53:06.31	249.54	14.51	-43.9	-45.1	25.9	6.02e-01	0	41	0	411566080	58	4356
2026-01-30 03:53:09.33	249.24	14.20	-43.7	-44.9	26.1	6.04e-01	0	41	0	417333248	58	4258
2026-01-30 03:53:12.35	248.95	13.89	-43.6	-44.8	26.3	6.03e-01	0	41	0	422576128	58	4200
2026-01-30 03:53:15.38	248.67	13.58	-43.9	-45.1	26.0	6.02e-01	0	41	0	428343296	58	4355
2026-01-30 03:53:18.40	248.39	13.28	-44.2	-45.4	25.7	6.01e-01	0	41	0	434110464	58	4508
2026-01-30 03:53:21.42	248.12	12.98	-44.0	-45.2	25.8	6.04e-01	0	41	0	439877632	59	4178
2026-01-30 03:53:24.44	247.85	12.68	-43.8	-45.0	26.0	6.05e-01	0	41	0	445644800	59	4059
2026-01-30 03:53:27.46	247.60	12.39	-43.8	-45.0	26.0	6.03e-01	0	41	0	450887680	59	4055
2026-01-30 03:53:30.48	247.34	12.10	-44.1	-45.3	25.7	6.02e-01	0	41	0	456654848	59	4240
2026-01-30 03:53:33.49	247.09	11.81	-44.4	-45.6	25.4	6.03e-01	0	41	0	462422016	59	4377
2026-01-30 03:53:36.52	246.85	11.53	-44.2	-45.4	25.5	6.04e-01	0	41	0	468189184	59	4290
2026-01-30 03:53:39.54	246.61	11.25	-44.1	-45.3	25.7	6.03e-01	0	41	0	473956352	59	4200
2026-01-30 03:53:42.55	246.38	10.97	-44.1	-45.2	25.6	6.00e-01	0	41	0	479199232	59	4193
2026-01-30 03:53:45.57	246.15	10.70	-44.0	-45.2	25.7	6.02e-01	0	41	0	484966400	59	4160
2026-01-30 03:53:48.59	245.93	10.43	-44.2	-45.5	25.4	6.03e-01	0	41	0	490733568	59	4299
2026-01-30 03:53:51.61	245.71	10.16	-44.4	-45.6	25.2	6.03e-01	0	41	0	496500736	59	4377
2026-01-30 03:53:54.63	245.50	9.90	-44.4	-45.7	25.1	6.03e-01	0	41	0	501743616	59	4416
2026-01-30 03:53:57.65	245.29	9.63	-44.3	-45.6	25.2	6.02e-01	0	41	0	507510784	59	4345
2026-01-30 03:54:00.67	245.08	9.37	-44.6	-45.9	24.9	6.02e-01	0	41	0	513277952	59	4499
2026-01-30 03:54:03.70	244.88	9.12	-44.5	-45.7	25.0	6.05e-01	0	41	0	519045120	59	4422
2026-01-30 03:54:06.72	244.68	8.86	-44.7	-46.0	24.8	6.04e-01	0	41	0	524812288	59	4556
2026-01-30 03:54:09.74	244.49	8.61	-44.5	-45.8	25.0	6.02e-01	0	41	0	530579456	60	4210
2026-01-30 03:54:12.76	244.30	8.36	-44.5	-45.8	25.0	6.02e-01	0	41	0	535822336	60	4216
2026-01-30 03:54:15.79	244.11	8.11	-44.6	-45.8	24.9	6.02e-01	0	41	0	541589504	60	4238
2026-01-30 03:54:18.81	243.93	7.87	-44.5	-45.7	25.0	6.02e-01	0	41	0	547356672	60	4193
2026-01-30 03:54:21.82	243.75	7.63	-44.5	-45.8	24.9	6.04e-01	0	41	0	553123840	60	4231
2026-01-30 03:54:24.85	243.58	7.39	-44.7	-46.1	24.6	6.03e-01	0	41	0	558891008	60	4350
2026-01-30 03:54:27.87	243.40	7.15	-44.6	-45.9	24.7	6.02e-01	0	41	0	564133888	60	4270
2026-01-30 03:54:30.89	243.23	6.91	-44.7	-46.0	24.6	6.02e-01	0	41	0	569901056	60	4331
2026-01-30 03:54:33.92	243.07	6.68	-44.8	-46.1	24.4	6.03e-01	0	41	0	575668224	60	4384
2026-01-30 03:54:36.93	242.91	6.45	-45.1	-46.5	24.1	6.02e-01	0	41	0	581435392	60	4562
2026-01-30 03:54:39.96	242.74	6.22	-45.3	-46.7	24.0	6.03e-01	0	41	0	587202560	61	4417
2026-01-30 03:54:42.97	242.59	5.99	-45.2	-46.6	24.0	6.03e-01	0	41	0	592445440	61	4373
2026-01-30 03:54:45.99	242.43	5.77	-45.3	-46.7	23.9	6.03e-01	0	41	0	598212608	61	4415
2026-01-30 03:54:49.01	242.28	5.54	-45.6	-47.0	23.5	6.03e-01	0	41	0	603979776	61	4581
2026-01-30 03:54:52.03	242.13	5.32	-45.2	-46.6	23.8	6.04e-01	0	41	0	609746944	61	4375
2026-01-30 03:54:55.05	241.99	5.10	-45.3	-46.8	23.7	6.05e-01	0	41	0	615514112	61	4453
2026-01-30 03:54:58.08	241.84	4.88	-54.3	-72.1	3.8	7.45e-01	0	41	104	618135552	79	29273
2026-01-30 03:55:01.11	241.70	4.67	-54.7	-72.5	3.8	7.48e-01	0	41	104	618135552	80	28804
2026-01-30 03:55:04.13	241.56	4.45	-54.7	-71.0	3.9	7.44e-01	0	41	104	618135552	80	24328
2026-01-30 03:55:07.16	241.42	4.24	-54.8	-72.6	3.8	7.45e-01	0	41	104	618135552	80	29110
2026-01-30 03:55:10.18	241.29	4.03	-54.5	-72.3	3.8	7.45e-01	0	42	104	618135552	80	28322
2026-01-30 03:55:13.20	241.16	3.82	-54.7	-72.4	3.8	7.46e-01	0	41	104	618135552	80	28621
2026-01-30 03:55:16.22	241.03	3.61	-54.7	-72.5	3.8	7.45e-01	0	41	104	618135552	80	28795
2026-01-30 03:55:19.25	240.90	3.41	-54.7	-72.5	3.8	7.44e-01	0	41	104	618135552	80	28820
2026-01-30 03:55:22.27	240.77	3.20	-54.6	-72.4	3.8	7.44e-01	0	41	104	618135552	80	28488
2026-01-30 03:55:25.30	240.65	3.00	-54.5	-72.3	3.8	7.43e-01	0	41	104	618135552	80	28332
2026-01-30 03:55:28.32	240.53	2.80	-54.5	-72.3	3.8	7.44e-01	0	41	104	618135552	80	28069
2026-01-30 03:55:31.34	240.41	2.60	-54.4	-72.2	3.8	7.43e-01	0	41	104	618135552	80	27977
2026-01-30 03:55:34.37	240.29	2.40	-54.4	-72.2	3.8	7.44e-01	0	41	104	618135552	80	27979
2026-01-30 03:55:37.38	240.17	2.20	-54.4	-72.1	3.8	7.44e-01	0	41	104	618135552	80	27679
2026-01-30 03:55:40.41	240.06	2.01	-54.4	-72.1	3.8	7.44e-01	0	42	104	618135552	80	27427

#Closed at: 2026-01-30 03:55:43
#Recorded file [618 MB]: D:/lorett/data/31041_260130_064320.dat