passes_logs/2026/01/30/R3.2S_Murmansk/R3.2S_Murmansk__20260130_114608_AQUA_rec.log

#Pass ID: 20260130_114608_AQUA
#Satellite: AQUA
#Configuration: AQUA
#almurnet v.1.7.20251203
#Start time: 2026-01-30 11:46:10

#Version: 2.2.20231116
#Station: R3.2S_Murmansk
#Location: 33.079688 lon 68.888172 lat
#TLE: 1 27424U 02022A   26029.54575153  .00001738  00000+0  35736-3 0  9994
#TLE: 2 27424  98.4104 356.2197 0001804  61.7823  56.0643 14.61874165263019

#Time	Az	El	Level	Level2	SNR	BER	BlckErr	Temp	State	Recorded	gain1	gain2
2026-01-30 11:46:10.71	163.91	2.13	-55.6	-73.4	3.8	7.48e-01	0	39	0	0	82	28550
2026-01-30 11:46:14.74	163.98	2.40	-55.7	-73.5	3.8	7.48e-01	0	39	104	0	82	28964
2026-01-30 11:46:18.77	164.05	2.67	-55.6	-73.4	3.8	7.46e-01	0	39	104	0	82	28434
2026-01-30 11:46:22.80	164.13	2.95	-55.4	-73.2	3.8	7.46e-01	0	40	104	0	82	27766
2026-01-30 11:46:26.83	164.20	3.23	-55.1	-72.9	3.8	7.45e-01	0	39	104	0	82	26958
2026-01-30 11:46:30.85	164.28	3.51	-54.7	-72.5	3.8	7.43e-01	0	39	104	0	81	27232
2026-01-30 11:46:34.87	164.35	3.79	-53.6	-67.5	4.3	7.31e-01	0	40	104	0	79	17215
2026-01-30 11:46:38.90	164.43	4.08	-52.5	-59.0	11.3	6.15e-01	0	40	0	4718592	77	7225
2026-01-30 11:46:42.92	164.51	4.37	-49.9	-53.0	17.6	6.06e-01	0	40	0	12058624	71	5107
2026-01-30 11:46:46.95	164.59	4.67	-48.5	-50.8	19.7	6.07e-01	0	40	0	19922944	69	4475
2026-01-30 11:46:50.98	164.67	4.96	-49.9	-52.9	17.6	6.04e-01	0	40	0	27262976	70	5397
2026-01-30 11:46:55.01	164.76	5.27	-46.5	-48.1	22.0	6.07e-01	0	40	0	33030144	65	4134
2026-01-30 11:46:59.02	164.84	5.57	-45.5	-46.9	23.7	6.05e-01	0	40	0	40894464	62	4259
2026-01-30 11:47:03.05	164.93	5.88	-45.3	-46.7	24.0	6.08e-01	0	40	0	48234496	62	4150
2026-01-30 11:47:07.07	165.02	6.20	-45.1	-46.4	24.3	6.08e-01	0	40	0	56098816	62	4045
2026-01-30 11:47:11.10	165.11	6.51	-45.0	-46.3	24.4	6.06e-01	0	40	0	63438848	61	4236
2026-01-30 11:47:15.12	165.20	6.84	-44.7	-46.0	24.8	6.06e-01	0	40	0	71303168	61	4086
2026-01-30 11:47:19.14	165.30	7.16	-44.8	-46.2	24.7	6.06e-01	0	40	0	78643200	61	4155
2026-01-30 11:47:23.15	165.40	7.49	-44.6	-45.9	25.0	6.05e-01	0	40	0	85983232	61	4015
2026-01-30 11:47:27.16	165.49	7.83	-44.6	-45.9	24.9	6.04e-01	0	40	0	93847552	60	4286
2026-01-30 11:47:31.19	165.59	8.17	-44.6	-45.9	25.0	6.07e-01	0	40	0	101187584	60	4280
2026-01-30 11:47:35.21	165.70	8.52	-44.5	-45.8	25.1	6.07e-01	0	40	0	108527616	60	4217
2026-01-30 11:47:39.23	165.80	8.87	-44.4	-45.6	25.3	6.05e-01	0	40	0	116391936	60	4126
2026-01-30 11:47:43.24	165.91	9.23	-44.5	-45.8	25.2	6.07e-01	0	40	0	123731968	60	4210
2026-01-30 11:47:47.26	166.02	9.59	-44.3	-45.5	25.4	6.08e-01	0	40	0	131072000	60	4096
2026-01-30 11:47:51.28	166.13	9.96	-44.1	-45.3	25.7	6.06e-01	0	40	0	138936320	60	3982
2026-01-30 11:47:55.30	166.25	10.33	-44.1	-45.3	25.6	6.05e-01	0	40	0	146276352	59	4218
2026-01-30 11:47:59.32	166.37	10.71	-43.9	-45.1	25.9	6.03e-01	0	40	0	154140672	59	4101
2026-01-30 11:48:03.35	166.49	11.10	-43.9	-45.1	25.8	6.05e-01	0	40	0	161480704	59	4114
2026-01-30 11:48:07.37	166.62	11.50	-43.7	-44.9	26.1	6.04e-01	0	40	0	168820736	59	4018
2026-01-30 11:48:11.39	166.74	11.90	-43.8	-45.0	26.0	6.08e-01	0	40	0	176685056	59	4063
2026-01-30 11:48:15.41	166.87	12.31	-43.8	-44.9	26.0	6.06e-01	0	40	0	184025088	59	4050
2026-01-30 11:48:19.44	167.01	12.73	-43.8	-45.0	26.0	6.06e-01	0	40	0	191889408	59	4078
2026-01-30 11:48:23.47	167.15	13.15	-43.7	-44.8	26.2	6.05e-01	0	41	0	199229440	59	3999
2026-01-30 11:48:27.48	167.29	13.59	-43.7	-44.8	26.2	6.04e-01	0	40	0	206569472	59	3995
2026-01-30 11:48:31.50	167.44	14.03	-43.5	-44.6	26.4	6.06e-01	0	40	0	214433792	58	4133
2026-01-30 11:48:35.52	167.59	14.48	-43.5	-44.7	26.4	6.06e-01	0	40	0	221773824	58	4146
2026-01-30 11:48:39.55	167.75	14.94	-43.5	-44.7	26.4	6.06e-01	0	41	0	229638144	58	4158
2026-01-30 11:48:43.58	167.91	15.41	-43.5	-44.6	26.5	6.05e-01	0	40	0	236978176	58	4139
2026-01-30 11:48:47.60	168.07	15.89	-43.3	-44.4	26.6	6.06e-01	0	41	0	244318208	58	4041
2026-01-30 11:48:51.62	168.24	16.38	-43.4	-44.5	26.6	6.05e-01	0	41	0	252182528	58	4075
2026-01-30 11:48:55.65	168.42	16.89	-43.3	-44.4	26.7	6.05e-01	0	41	0	259522560	58	4023
2026-01-30 11:48:59.67	168.60	17.40	-43.2	-44.3	26.8	6.05e-01	0	40	0	266862592	58	3991
2026-01-30 11:49:03.69	168.79	17.92	-43.3	-44.4	26.7	6.06e-01	0	41	0	274726912	58	4049
2026-01-30 11:49:07.70	168.98	18.46	-43.3	-44.4	26.7	6.04e-01	0	41	0	282066944	58	4051
2026-01-30 11:49:11.73	169.19	19.01	-43.2	-44.3	26.8	6.08e-01	0	40	0	289931264	58	3996
2026-01-30 11:49:15.75	169.39	19.57	-43.1	-44.2	26.9	6.05e-01	0	40	0	297271296	58	3955
2026-01-30 11:49:19.77	169.61	20.15	-43.2	-44.3	26.9	6.05e-01	0	40	0	304611328	58	3985
2026-01-30 11:49:23.79	169.84	20.74	-43.4	-44.5	26.7	6.04e-01	0	41	0	312475648	58	4088
2026-01-30 11:49:27.81	170.07	21.35	-43.4	-44.5	26.8	6.04e-01	0	41	0	319815680	58	4063
2026-01-30 11:49:31.83	170.31	21.97	-43.5	-44.6	26.6	6.05e-01	0	40	0	327680000	58	4134
2026-01-30 11:49:35.85	170.57	22.61	-43.6	-44.8	26.5	6.04e-01	0	40	0	335020032	58	4204
2026-01-30 11:49:39.89	170.83	23.27	-43.6	-44.7	26.6	6.05e-01	0	41	0	342360064	58	4188
2026-01-30 11:49:43.91	171.10	23.95	-43.5	-44.6	26.7	6.06e-01	0	40	0	349700096	58	4133
2026-01-30 11:49:47.94	171.39	24.65	-43.5	-44.6	26.7	6.05e-01	0	41	0	357564416	58	4132
2026-01-30 11:49:51.96	171.69	25.36	-43.6	-44.8	26.5	6.06e-01	0	41	0	364904448	58	4202
2026-01-30 11:49:55.99	172.01	26.10	-43.8	-44.9	26.4	6.05e-01	0	41	0	372768768	58	4289
2026-01-30 11:50:00.01	172.33	26.85	-43.3	-44.4	26.9	6.04e-01	0	40	0	380108800	58	4044
2026-01-30 11:50:04.04	172.68	27.63	-43.3	-44.4	26.9	6.04e-01	0	40	0	387973120	58	4014
2026-01-30 11:50:08.07	173.04	28.44	-43.4	-44.5	26.8	6.06e-01	0	41	0	395313152	58	4067
2026-01-30 11:50:12.10	173.42	29.27	-43.3	-44.4	27.0	6.05e-01	0	40	0	402653184	57	4246
2026-01-30 11:50:16.12	173.82	30.12	-42.9	-44.0	27.3	6.06e-01	0	41	0	410517504	57	4075
2026-01-30 11:50:20.14	174.25	31.00	-42.9	-43.9	27.4	6.06e-01	0	41	0	417857536	57	4041
2026-01-30 11:50:24.15	174.69	31.90	-43.6	-54.3	3.9	7.43e-01	0	41	104	420478976	57	13274
2026-01-30 11:50:28.18	175.16	32.84	-46.5	-57.3	3.9	7.41e-01	0	41	104	420478976	63	13378
2026-01-30 11:50:32.20	175.66	33.80	-47.3	-58.2	4.3	7.25e-01	0	41	104	420478976	66	12396
2026-01-30 11:50:36.22	176.20	34.80	-46.6	-57.4	3.7	7.58e-01	0	41	104	420478976	64	12772
2026-01-30 11:50:40.24	176.76	35.82	-45.8	-56.6	3.8	7.44e-01	0	41	104	420478976	62	13086
2026-01-30 11:50:44.27	177.36	36.89	-46.7	-57.6	3.8	7.40e-01	0	41	104	420478976	64	13094
2026-01-30 11:50:48.29	178.01	37.98	-46.7	-57.7	3.8	7.43e-01	0	41	104	420478976	64	13238
2026-01-30 11:50:52.32	178.69	39.11	-46.6	-57.7	3.8	7.44e-01	0	41	104	420478976	64	13134
2026-01-30 11:50:56.34	179.43	40.28	-47.8	-59.0	3.8	7.43e-01	0	41	104	420478976	67	12829
2026-01-30 11:51:00.37	180.23	41.48	-45.5	-56.3	3.8	7.47e-01	0	41	104	420478976	62	12598
2026-01-30 11:51:04.39	181.08	42.72	-44.7	-55.4	3.8	7.46e-01	0	41	104	420478976	60	12732
2026-01-30 11:51:08.41	182.01	43.99	-44.2	-54.9	3.8	7.47e-01	0	41	104	420478976	59	12796
2026-01-30 11:51:12.44	183.01	45.30	-46.1	-57.0	3.8	7.48e-01	0	41	104	420478976	63	12918
2026-01-30 11:51:16.45	184.10	46.65	-43.6	-54.3	3.8	7.41e-01	0	41	104	420478976	58	12538
2026-01-30 11:51:20.48	185.29	48.03	-47.1	-58.0	3.8	7.48e-01	0	41	104	420478976	65	12876
2026-01-30 11:51:24.51	186.59	49.45	-43.4	-54.0	3.8	7.46e-01	0	41	104	420478976	58	12227
2026-01-30 11:51:28.53	188.02	50.90	-47.0	-57.9	3.9	7.45e-01	0	41	104	420478976	64	13449
2026-01-30 11:51:32.57	189.60	52.38	-42.8	-53.4	3.8	7.43e-01	0	41	104	420478976	57	12010
2026-01-30 11:51:36.59	191.34	53.87	-46.9	-57.8	3.8	7.45e-01	0	41	104	420478976	64	13410
2026-01-30 11:51:40.63	193.28	55.39	-43.1	-53.7	3.8	7.45e-01	0	41	104	420478976	58	11690
2026-01-30 11:51:44.65	195.43	56.92	-46.0	-56.9	3.8	7.44e-01	0	41	104	420478976	62	13553
2026-01-30 11:51:48.68	197.84	58.44	-45.1	-55.8	3.8	7.45e-01	0	41	104	420478976	61	12556
2026-01-30 11:51:52.71	200.54	59.96	-47.9	-59.0	3.8	7.42e-01	0	41	104	420478976	66	13643
2026-01-30 11:51:56.74	203.57	61.45	-46.8	-57.6	3.8	7.44e-01	0	41	104	420478976	64	13028
2026-01-30 11:52:00.75	206.97	62.89	-49.2	-60.7	3.8	7.47e-01	0	41	104	420478976	68	14877
2026-01-30 11:52:04.77	210.80	64.27	-49.2	-60.6	3.8	7.46e-01	0	41	104	420478976	68	14703
2026-01-30 11:52:08.80	215.12	65.56	-54.4	-69.7	3.8	7.46e-01	0	41	104	420478976	79	22053
2026-01-30 11:52:12.83	219.94	66.73	-48.9	-60.1	3.8	7.46e-01	0	41	104	420478976	69	12978
2026-01-30 11:52:16.85	225.28	67.75	-51.4	-63.5	3.8	7.44e-01	0	41	104	420478976	73	15389
2026-01-30 11:52:20.88	231.13	68.59	-48.6	-59.5	3.8	7.40e-01	0	41	104	420478976	68	12932
2026-01-30 11:52:24.91	237.44	69.22	-54.8	-70.9	3.8	7.43e-01	0	41	104	420478976	80	24070
2026-01-30 11:52:28.94	244.08	69.60	-47.8	-58.5	3.8	7.44e-01	0	41	104	420478976	67	12118
2026-01-30 11:52:32.96	250.88	69.72	-50.9	-63.0	3.8	7.42e-01	0	41	104	420478976	72	15291
2026-01-30 11:52:36.99	257.69	69.57	-48.8	-60.2	3.9	7.44e-01	0	41	104	420478976	69	13244
2026-01-30 11:52:41.01	264.29	69.17	-54.5	-69.7	3.9	7.47e-01	0	41	104	420478976	81	19837
2026-01-30 11:52:45.04	270.55	68.53	-47.6	-58.4	3.8	7.43e-01	0	41	104	420478976	66	12800
2026-01-30 11:52:49.06	276.35	67.67	-51.2	-63.1	3.8	7.42e-01	0	41	104	420478976	72	15462
2026-01-30 11:52:53.09	281.65	66.64	-47.7	-58.7	3.8	7.45e-01	0	41	104	420478976	66	13219
2026-01-30 11:52:57.13	286.43	65.45	-53.5	-67.1	3.9	7.46e-01	0	41	104	420478976	78	17289
2026-01-30 11:53:01.14	290.67	64.16	-46.2	-57.1	3.8	7.42e-01	0	41	104	420478976	64	12244
2026-01-30 11:53:05.17	294.47	62.77	-50.4	-61.8	3.8	7.45e-01	0	41	104	420478976	71	14142
2026-01-30 11:53:09.20	297.84	61.32	-45.7	-56.2	3.8	7.42e-01	0	41	104	420478976	63	11808
2026-01-30 11:53:13.23	300.84	59.83	-52.1	-64.5	3.8	7.43e-01	0	41	104	420478976	75	15245
2026-01-30 11:53:17.26	303.51	58.32	-45.0	-55.5	3.9	7.43e-01	0	41	104	420478976	62	11468
2026-01-30 11:53:21.30	305.90	56.79	-50.0	-61.8	3.9	7.46e-01	0	41	104	420478976	70	14901
2026-01-30 11:53:25.32	308.02	55.27	-44.2	-55.0	3.8	7.44e-01	0	41	104	420478976	59	12871
2026-01-30 11:53:29.35	309.94	53.76	-50.8	-62.4	3.8	7.47e-01	0	41	104	420478976	71	15185
2026-01-30 11:53:33.37	311.66	52.27	-43.8	-54.6	3.8	7.44e-01	0	41	104	420478976	59	12315
2026-01-30 11:53:37.31	313.19	50.83	-49.1	-60.5	3.9	7.46e-01	0	41	104	420478976	68	14377
2026-01-30 11:53:41.32	314.60	49.40	-44.6	-55.3	3.8	7.43e-01	0	41	104	420478976	60	12595
2026-01-30 11:53:45.35	315.90	47.99	-50.7	-62.5	3.8	7.43e-01	0	41	104	420478976	71	15284
2026-01-30 11:53:49.39	317.08	46.61	-44.7	-55.3	3.8	7.43e-01	0	41	104	420478976	61	11820
2026-01-30 11:53:53.41	318.17	45.27	-52.8	-65.5	3.8	7.47e-01	0	41	104	420478976	75	17225
2026-01-30 11:53:57.45	319.17	43.96	-45.4	-56.2	3.8	7.45e-01	0	41	104	420478976	61	13189
2026-01-30 11:54:01.49	320.09	42.68	-52.2	-64.5	3.8	7.46e-01	0	41	104	420478976	74	16248
2026-01-30 11:54:05.53	320.94	41.45	-45.2	-55.9	3.8	7.45e-01	0	41	104	420478976	61	12749
2026-01-30 11:54:09.56	321.73	40.25	-54.3	-68.9	3.8	7.47e-01	0	41	104	420478976	78	21310
2026-01-30 11:54:13.59	322.47	39.09	-45.7	-56.4	3.8	7.44e-01	0	41	104	420478976	62	12776
2026-01-30 11:54:17.62	323.15	37.97	-54.7	-70.2	3.8	7.47e-01	0	41	104	420478976	79	23526
2026-01-30 11:54:21.64	323.79	36.88	-44.8	-55.6	3.8	7.44e-01	0	41	104	420478976	61	12303
2026-01-30 11:54:25.67	324.39	35.82	-54.5	-69.7	3.7	7.47e-01	0	41	104	420478976	79	22062
2026-01-30 11:54:29.70	324.96	34.80	-44.0	-54.7	3.8	7.45e-01	0	41	104	420478976	60	11687
2026-01-30 11:54:33.73	325.49	33.81	-54.6	-70.3	3.8	7.44e-01	0	41	104	420478976	79	23643
2026-01-30 11:54:37.77	325.99	32.84	-43.9	-54.6	3.8	7.44e-01	0	41	104	420478976	59	12371
2026-01-30 11:54:41.81	326.46	31.91	-54.4	-69.6	3.8	7.47e-01	0	41	104	420478976	79	21896
2026-01-30 11:54:45.84	326.91	31.01	-43.2	-53.8	3.8	7.46e-01	0	41	104	420478976	58	11856
2026-01-30 11:54:49.87	327.33	30.13	-54.4	-69.9	3.8	7.45e-01	0	41	104	420478976	79	22678
2026-01-30 11:54:53.91	327.73	29.28	-43.5	-54.2	3.8	7.44e-01	0	41	104	420478976	59	11756
2026-01-30 11:54:57.93	328.11	28.46	-54.5	-70.2	3.8	7.43e-01	0	41	104	420478976	79	23433
2026-01-30 11:55:01.96	328.47	27.66	-44.1	-54.6	3.8	7.43e-01	0	41	104	420478976	59	12316
2026-01-30 11:55:05.99	328.81	26.89	-54.5	-70.2	3.8	7.42e-01	0	41	104	420478976	79	23479
2026-01-30 11:55:10.02	329.14	26.13	-44.5	-55.1	3.8	7.44e-01	0	41	104	420478976	60	12372
2026-01-30 11:55:14.04	329.46	25.40	-54.4	-70.3	3.8	7.47e-01	0	41	104	420478976	79	23717
2026-01-30 11:55:18.07	329.76	24.69	-44.0	-54.7	3.8	7.48e-01	0	41	104	420478976	60	11782
2026-01-30 11:55:22.11	330.04	24.00	-54.4	-70.3	3.8	7.43e-01	0	41	104	420478976	79	23727
2026-01-30 11:55:26.13	330.32	23.32	-44.1	-54.9	3.8	7.42e-01	0	41	104	420478976	60	12041
2026-01-30 11:55:30.17	330.58	22.67	-54.2	-69.9	3.8	7.41e-01	0	41	104	420478976	79	22592
2026-01-30 11:55:34.20	330.84	22.03	-44.3	-54.8	3.8	7.46e-01	0	41	104	420478976	60	11955
2026-01-30 11:55:38.23	331.08	21.41	-53.7	-68.5	3.9	7.40e-01	0	41	104	420478976	79	19258
2026-01-30 11:55:42.25	331.32	20.81	-44.0	-54.6	3.8	7.45e-01	0	41	104	420478976	59	12332
2026-01-30 11:55:46.29	331.54	20.21	-53.6	-68.5	3.8	7.42e-01	0	41	104	420478976	79	19255
2026-01-30 11:55:50.32	331.76	19.64	-43.9	-54.6	3.8	7.45e-01	0	41	104	420478976	59	12278
2026-01-30 11:55:54.35	331.97	19.08	-52.7	-66.5	3.9	7.48e-01	0	41	104	420478976	77	17148
2026-01-30 11:55:58.39	332.17	18.53	-44.0	-54.7	3.8	7.43e-01	0	41	104	420478976	59	12399
2026-01-30 11:56:02.41	332.37	17.99	-50.7	-62.9	3.9	7.45e-01	0	41	104	420478976	73	14211
2026-01-30 11:56:06.45	332.56	17.47	-43.8	-54.5	3.8	7.41e-01	0	41	104	420478976	59	12158
2026-01-30 11:56:10.47	332.74	16.96	-50.5	-62.8	3.9	7.44e-01	0	41	104	420478976	73	14176
2026-01-30 11:56:14.50	332.92	16.46	-44.0	-54.8	3.8	7.46e-01	0	41	104	420478976	59	12592
2026-01-30 11:56:18.53	333.09	15.97	-49.1	-60.8	3.8	7.42e-01	0	41	104	420478976	70	13353
2026-01-30 11:56:22.56	333.26	15.49	-44.0	-54.9	3.8	7.40e-01	0	41	104	420478976	59	12674
2026-01-30 11:56:26.59	333.42	15.02	-49.6	-61.6	3.8	7.38e-01	0	41	104	420478976	71	13797
2026-01-30 11:56:30.63	333.58	14.56	-44.1	-54.8	3.8	7.44e-01	0	41	104	420478976	59	12613
2026-01-30 11:56:34.66	333.73	14.11	-48.2	-59.6	3.8	7.47e-01	0	41	104	420478976	68	13047
2026-01-30 11:56:38.69	333.88	13.67	-43.5	-54.2	3.9	7.44e-01	0	41	104	420478976	59	11710
2026-01-30 11:56:42.72	334.02	13.24	-48.0	-59.3	3.8	7.45e-01	0	41	104	420478976	68	12605
2026-01-30 11:56:46.76	334.16	12.81	-43.5	-54.2	3.8	7.43e-01	0	41	104	420478976	59	11700
2026-01-30 11:56:50.79	334.30	12.40	-47.7	-49.5	20.6	6.01e-01	0	41	104	420478976	67	4327
2026-01-30 11:56:54.82	334.43	11.99	-43.3	-44.5	26.3	6.02e-01	0	41	0	427819008	58	4054
2026-01-30 11:56:58.85	334.56	11.59	-43.2	-44.3	26.3	6.01e-01	0	41	0	435683328	58	3999
2026-01-30 11:57:02.88	334.69	11.19	-43.3	-44.4	26.2	6.02e-01	0	41	0	443023360	58	4034
2026-01-30 11:57:06.91	334.81	10.81	-43.2	-44.3	26.4	6.03e-01	0	41	0	450363392	58	3976
2026-01-30 11:57:10.94	334.93	10.43	-43.3	-44.5	25.8	6.04e-01	0	41	0	458227712	58	4071
2026-01-30 11:57:14.96	335.05	10.05	-43.5	-44.6	26.0	6.01e-01	0	41	0	465567744	58	4142
2026-01-30 11:57:18.99	335.17	9.68	-43.5	-44.7	26.0	6.02e-01	0	41	0	472907776	58	4158
2026-01-30 11:57:23.03	335.28	9.32	-43.5	-44.7	25.9	6.01e-01	0	41	0	480772096	58	4173
2026-01-30 11:57:27.06	335.39	8.96	-43.7	-44.9	25.8	6.01e-01	0	41	0	488112128	58	4258
2026-01-30 11:57:31.09	335.50	8.61	-43.9	-45.1	25.6	5.99e-01	0	41	0	495976448	58	4346
2026-01-30 11:57:35.12	335.60	8.27	-43.9	-45.1	25.5	6.02e-01	0	41	0	503316480	58	4384
2026-01-30 11:57:39.15	335.71	7.93	-44.0	-45.3	25.3	6.01e-01	0	41	0	511180800	58	4460
2026-01-30 11:57:43.19	335.81	7.59	-44.2	-45.5	25.1	6.01e-01	0	40	0	518520832	59	4304
2026-01-30 11:57:47.21	335.91	7.26	-44.6	-45.9	24.6	6.01e-01	0	41	0	525860864	59	4545
2026-01-30 11:57:51.24	336.00	6.94	-44.4	-45.7	24.8	6.01e-01	0	41	0	533725184	59	4407
2026-01-30 11:57:55.26	336.10	6.61	-44.4	-45.7	24.8	6.03e-01	0	41	0	541065216	59	4418
2026-01-30 11:57:59.29	336.19	6.30	-44.5	-45.9	24.6	6.04e-01	0	41	0	548929536	59	4494
2026-01-30 11:58:03.32	336.28	5.98	-44.5	-45.8	24.6	6.03e-01	0	41	0	556269568	60	4205
2026-01-30 11:58:07.34	336.37	5.68	-44.6	-46.0	24.5	6.02e-01	0	41	0	564133888	60	4295
2026-01-30 11:58:11.37	336.46	5.37	-44.6	-46.0	24.4	5.99e-01	0	41	0	571473920	60	4303
2026-01-30 11:58:15.40	336.55	5.07	-44.7	-46.1	24.2	6.03e-01	0	40	0	578813952	60	4357
2026-01-30 11:58:19.44	336.63	4.77	-54.7	-72.5	3.8	7.46e-01	0	41	104	581435392	79	30641
2026-01-30 11:58:23.47	336.72	4.48	-55.2	-73.0	3.8	7.43e-01	0	41	104	581435392	80	30601
2026-01-30 11:58:27.50	336.80	4.19	-55.6	-73.4	3.8	7.48e-01	0	41	104	581435392	81	30033
2026-01-30 11:58:31.53	336.88	3.90	-55.8	-73.6	3.8	7.47e-01	0	41	104	581435392	82	29112
2026-01-30 11:58:35.56	336.96	3.62	-55.9	-73.7	3.8	7.46e-01	0	41	104	581435392	82	29512
2026-01-30 11:58:39.59	337.04	3.34	-55.9	-73.7	3.8	7.44e-01	0	41	104	581435392	82	29489
2026-01-30 11:58:43.62	337.12	3.06	-55.8	-73.6	3.8	7.43e-01	0	41	104	581435392	82	29213
2026-01-30 11:58:47.64	337.19	2.79	-55.8	-73.6	3.8	7.44e-01	0	41	104	581435392	82	29083
2026-01-30 11:58:51.68	337.27	2.52	-55.7	-73.5	3.8	7.45e-01	0	41	104	581435392	82	28981
2026-01-30 11:58:55.72	337.34	2.25	-55.7	-73.5	3.8	7.45e-01	0	41	104	581435392	82	28834
2026-01-30 11:58:59.75	337.41	1.98	-55.7	-73.5	3.8	7.41e-01	0	41	104	581435392	82	28766

#Closed at: 2026-01-30 11:59:00
#Recorded file [581 MB]: D:/lorett/data/31041_260130_144610.dat