passes_logs/2026/01/30/R3.2S_Murmansk/R3.2S_Murmansk__20260130_073822_NOAA_21_JPSS-2_rec.log

#Pass ID: 20260130_073822_NOAA 21 (JPSS-2)
#Satellite: NOAA 21 (JPSS-2)
#Configuration: NOAA-21
#almurnet v.1.7.20251203
#Start time: 2026-01-30 07:39:11

#Version: 2.2.20231116
#Station: R3.2S_Murmansk
#Location: 33.079688 lon 68.888172 lat
#TLE: 1 54234U 22150A   26029.46216196  .00000141  00000+0  87503-4 0  9994
#TLE: 2 54234  98.7512 330.1880 0000955 196.3413 163.7732 14.19540905166865

#Time	Az	El	Level	Level2	SNR	BER	BlckErr	Temp	State	Recorded	gain1	gain2
2026-01-30 07:39:11.44	106.21	5.14	-52.9	-64.9	3.8	8.46e-01	0	40	0	0	77	14280
2026-01-30 07:39:15.45	106.01	5.42	-54.3	-67.1	3.8	1.49e+00	0	41	104	0	79	16354
2026-01-30 07:39:19.48	105.79	5.69	-54.4	-67.2	3.8	1.49e+00	0	41	104	0	79	16640
2026-01-30 07:39:23.51	105.58	5.97	-54.5	-67.3	3.8	1.49e+00	0	41	104	0	79	16753
2026-01-30 07:39:27.53	105.36	6.26	-54.5	-67.3	3.8	1.49e+00	0	41	104	0	79	16821
2026-01-30 07:39:31.57	105.14	6.54	-54.4	-67.2	3.8	1.49e+00	0	41	104	0	79	16644
2026-01-30 07:39:35.60	104.91	6.83	-54.3	-67.1	3.8	1.49e+00	0	41	104	0	79	16376
2026-01-30 07:39:39.63	104.68	7.12	-54.2	-67.0	3.8	1.49e+00	0	41	104	0	79	16225
2026-01-30 07:39:43.65	104.44	7.41	-54.2	-67.0	3.8	1.49e+00	0	41	104	0	79	16138
2026-01-30 07:39:47.69	104.19	7.71	-54.2	-67.0	3.8	1.49e+00	0	41	104	0	79	16238
2026-01-30 07:39:51.72	103.95	8.01	-54.2	-67.0	3.8	1.49e+00	0	42	104	0	79	16136
2026-01-30 07:39:55.75	103.69	8.31	-54.1	-66.9	3.8	1.49e+00	0	41	104	0	79	16010
2026-01-30 07:39:59.76	103.43	8.61	-54.1	-66.8	3.8	1.49e+00	0	41	104	0	79	15877
2026-01-30 07:40:03.78	103.17	8.92	-54.0	-66.8	3.8	1.49e+00	0	41	104	0	79	15771
2026-01-30 07:40:07.81	102.90	9.23	-53.9	-66.7	3.8	1.49e+00	0	41	104	0	79	15644
2026-01-30 07:40:11.84	102.62	9.54	-54.3	-67.1	3.8	1.49e+00	0	41	104	0	79	16349
2026-01-30 07:40:15.86	102.34	9.86	-54.2	-67.0	3.8	1.49e+00	0	41	104	0	79	16262
2026-01-30 07:40:19.89	102.05	10.18	-54.0	-66.8	3.8	1.49e+00	0	41	104	0	79	15875
2026-01-30 07:40:23.93	101.75	10.51	-53.9	-66.6	3.8	1.49e+00	0	41	104	0	79	15498
2026-01-30 07:40:27.96	101.44	10.84	-53.6	-66.4	3.8	1.49e+00	0	41	104	0	79	15130
2026-01-30 07:40:31.99	101.13	11.17	-53.3	-66.1	3.8	1.49e+00	0	42	104	0	78	15418
2026-01-30 07:40:36.02	100.81	11.50	-52.7	-63.6	3.8	1.49e+00	0	42	104	0	77	12269
2026-01-30 07:40:40.05	100.49	11.84	-44.7	-45.9	18.4	0.00e+00	0	41	0	10485760	60	4244
2026-01-30 07:40:44.08	100.15	12.18	-42.1	-43.0	21.4	0.00e+00	0	41	0	23068672	56	3830
2026-01-30 07:40:48.11	99.81	12.53	-41.7	-42.6	21.6	0.00e+00	0	41	0	35651584	55	3875
2026-01-30 07:40:52.14	99.46	12.88	-41.6	-42.5	21.7	0.00e+00	0	42	0	48234496	55	3838
2026-01-30 07:40:56.17	99.10	13.24	-41.7	-42.6	21.6	0.00e+00	0	41	0	60817408	55	3873
2026-01-30 07:41:00.19	98.73	13.59	-41.7	-42.6	21.7	0.00e+00	0	41	0	73400320	55	3870
2026-01-30 07:41:04.22	98.35	13.96	-41.5	-42.3	21.9	0.00e+00	0	41	0	85983232	54	3979
2026-01-30 07:41:08.25	97.97	14.32	-41.5	-42.3	21.8	0.00e+00	0	41	0	98566144	54	3976
2026-01-30 07:41:12.27	97.57	14.69	-41.7	-42.6	21.6	0.00e+00	0	41	0	111149056	54	4104
2026-01-30 07:41:16.30	97.16	15.07	-41.7	-42.6	21.6	0.00e+00	0	41	0	123731968	54	4118
2026-01-30 07:41:20.33	96.74	15.45	-41.7	-42.6	21.7	0.00e+00	0	41	0	136314880	54	4109
2026-01-30 07:41:24.35	96.31	15.83	-41.8	-42.7	21.6	0.00e+00	0	41	0	148897792	54	4148
2026-01-30 07:41:28.39	95.87	16.22	-41.9	-42.8	21.5	0.00e+00	0	41	0	161480704	54	4195
2026-01-30 07:41:32.42	95.42	16.61	-41.9	-42.8	21.5	0.00e+00	0	41	0	174063616	54	4210
2026-01-30 07:41:36.45	94.95	17.01	-42.2	-43.1	21.2	0.00e+00	0	41	0	186646528	54	4354
2026-01-30 07:41:40.47	94.47	17.41	-42.1	-43.0	21.4	0.00e+00	0	41	0	199229440	55	4058
2026-01-30 07:41:44.50	93.98	17.82	-41.9	-42.7	21.6	0.00e+00	0	41	0	211812352	55	3952
2026-01-30 07:41:48.53	93.47	18.23	-41.9	-42.7	21.6	0.00e+00	0	42	0	224395264	55	3935
2026-01-30 07:41:52.56	92.95	18.64	-42.2	-43.1	21.2	0.00e+00	0	41	0	236978176	55	4132
2026-01-30 07:41:56.59	92.42	19.06	-42.2	-43.1	21.3	0.00e+00	0	42	0	249561088	55	4116
2026-01-30 07:42:00.62	91.87	19.49	-42.0	-42.9	21.5	0.00e+00	0	41	0	262144000	55	4037
2026-01-30 07:42:04.65	91.30	19.91	-41.8	-42.6	21.7	0.00e+00	0	41	0	274726912	55	3899
2026-01-30 07:42:08.69	90.72	20.35	-41.7	-42.5	21.7	0.00e+00	0	42	0	287309824	55	3851
2026-01-30 07:42:12.72	90.12	20.78	-41.5	-42.4	22.0	0.00e+00	0	41	0	299892736	55	3790
2026-01-30 07:42:16.75	89.50	21.23	-41.4	-42.2	22.1	0.00e+00	0	41	0	313524224	54	3939
2026-01-30 07:42:20.77	88.87	21.67	-40.9	-41.7	22.4	0.00e+00	0	42	0	325058560	53	3939
2026-01-30 07:42:24.80	88.21	22.12	-40.9	-41.7	22.5	0.00e+00	0	41	0	337641472	53	3939
2026-01-30 07:42:28.83	87.54	22.57	-40.8	-41.6	22.7	0.00e+00	0	41	0	350224384	53	3877
2026-01-30 07:42:32.85	86.85	23.03	-40.6	-41.3	22.9	0.00e+00	0	41	0	363855872	53	3767
2026-01-30 07:42:36.89	86.13	23.49	-40.6	-41.4	22.8	0.00e+00	0	41	0	375390208	53	3795
2026-01-30 07:42:40.91	85.40	23.95	-40.8	-41.6	22.6	0.00e+00	0	41	0	387973120	53	3892
2026-01-30 07:42:44.95	84.64	24.42	-40.7	-41.5	22.8	0.00e+00	0	41	0	401604608	53	3828
2026-01-30 07:42:48.99	83.85	24.89	-40.8	-41.5	22.6	0.00e+00	0	41	0	414187520	53	3856
2026-01-30 07:42:53.01	83.05	25.36	-41.1	-41.9	22.4	0.00e+00	0	41	0	425721856	53	4010
2026-01-30 07:42:57.05	82.21	25.83	-40.8	-41.5	22.7	0.00e+00	0	41	0	439353344	53	3867
2026-01-30 07:43:01.09	81.36	26.31	-40.8	-41.5	22.7	0.00e+00	0	41	0	451936256	53	3859
2026-01-30 07:43:05.13	80.47	26.78	-40.9	-41.6	22.7	0.00e+00	0	41	0	463470592	53	3906
2026-01-30 07:43:09.16	79.56	27.26	-41.2	-42.0	22.2	0.00e+00	0	41	0	477102080	53	4092
2026-01-30 07:43:13.19	78.62	27.74	-41.6	-42.4	22.0	0.00e+00	0	42	0	489684992	53	4263
2026-01-30 07:43:17.21	77.66	28.21	-41.7	-42.5	22.0	0.00e+00	0	41	0	502267904	53	4333
2026-01-30 07:43:21.25	76.66	28.68	-41.6	-42.4	22.1	0.00e+00	0	41	0	514850816	54	4049
2026-01-30 07:43:25.27	75.64	29.15	-41.3	-42.1	22.4	0.00e+00	0	41	0	527433728	54	3905
2026-01-30 07:43:29.29	74.59	29.62	-41.5	-42.3	22.1	0.00e+00	0	41	0	540016640	54	3998
2026-01-30 07:43:33.32	73.50	30.09	-41.5	-42.3	22.2	0.00e+00	0	41	0	552599552	54	3977
2026-01-30 07:43:37.35	72.38	30.55	-41.4	-42.2	22.4	0.00e+00	0	42	0	565182464	54	3918
2026-01-30 07:43:41.39	71.22	31.01	-41.0	-41.7	22.7	0.00e+00	0	41	0	577765376	54	3731
2026-01-30 07:43:45.41	70.04	31.45	-41.3	-42.1	22.3	0.00e+00	0	41	0	590348288	53	4131
2026-01-30 07:43:49.44	68.83	31.89	-41.6	-42.4	22.0	0.00e+00	0	41	0	602931200	53	4269
2026-01-30 07:43:53.47	67.57	32.33	-42.0	-42.8	21.8	0.00e+00	0	41	0	615514112	54	4233
2026-01-30 07:43:57.50	66.29	32.75	-42.2	-43.1	21.6	0.00e+00	0	42	0	628097024	55	4128
2026-01-30 07:44:01.53	64.97	33.16	-42.0	-42.9	21.8	0.00e+00	0	41	0	640679936	55	4016
2026-01-30 07:44:05.55	63.62	33.56	-42.1	-42.9	21.8	0.00e+00	0	41	0	653262848	55	4018
2026-01-30 07:44:09.59	62.23	33.95	-42.5	-43.4	21.4	0.00e+00	0	42	0	665845760	55	4276
2026-01-30 07:44:13.62	60.82	34.32	-42.8	-43.6	21.2	0.00e+00	0	41	0	678428672	56	4145
2026-01-30 07:44:17.64	59.37	34.67	-42.6	-43.5	21.4	0.00e+00	0	41	0	691011584	56	4066
2026-01-30 07:44:21.68	57.89	35.01	-42.8	-43.6	21.3	0.00e+00	0	41	0	703594496	56	4139
2026-01-30 07:44:25.71	56.37	35.33	-42.5	-43.3	21.5	0.00e+00	0	41	0	716177408	56	3982
2026-01-30 07:44:29.73	54.84	35.63	-42.3	-43.1	21.8	0.00e+00	0	41	0	728760320	56	3890
2026-01-30 07:44:33.77	53.27	35.90	-43.2	-44.1	20.8	0.00e+00	0	41	0	741343232	56	4384
2026-01-30 07:44:37.79	51.68	36.16	-43.1	-44.0	20.9	0.00e+00	0	41	0	753926144	57	4074
2026-01-30 07:44:41.83	50.06	36.39	-42.9	-43.8	21.2	0.00e+00	0	41	0	766509056	57	3974
2026-01-30 07:44:45.85	48.42	36.59	-43.1	-44.0	21.0	0.00e+00	0	41	0	779091968	57	4075
2026-01-30 07:44:49.89	46.76	36.77	-42.9	-43.8	21.2	0.00e+00	0	41	0	791674880	57	3989
2026-01-30 07:44:53.91	45.09	36.92	-43.1	-44.0	21.0	0.00e+00	0	41	0	804257792	57	4068
2026-01-30 07:44:57.93	43.40	37.05	-42.6	-43.5	21.5	0.00e+00	0	41	0	816840704	57	3842
2026-01-30 07:45:01.96	41.70	37.14	-43.1	-43.9	21.1	0.00e+00	0	41	0	829423616	56	4287
2026-01-30 07:45:05.99	39.99	37.21	-42.7	-43.6	21.3	0.00e+00	0	41	0	842006528	56	4106
2026-01-30 07:45:10.03	38.27	37.25	-43.2	-44.1	21.0	0.00e+00	0	41	0	854589440	56	4363
2026-01-30 07:45:14.05	36.56	37.26	-43.2	-44.1	21.0	0.00e+00	0	41	0	867172352	57	4107
2026-01-30 07:45:18.09	34.84	37.24	-43.6	-44.5	20.5	0.00e+00	0	41	0	879755264	57	4332
2026-01-30 07:45:22.11	33.13	37.19	-43.1	-43.9	21.0	0.00e+00	0	41	0	892338176	57	4051
2026-01-30 07:45:26.13	31.43	37.11	-42.9	-43.8	21.2	0.00e+00	0	41	0	904921088	56	4234
2026-01-30 07:45:30.16	29.73	37.00	-43.4	-44.4	20.7	0.00e+00	0	41	0	917504000	57	4256
2026-01-30 07:45:34.19	28.05	36.87	-43.0	-43.8	21.2	0.00e+00	0	41	0	930086912	57	3994
2026-01-30 07:45:38.22	26.38	36.70	-42.8	-43.7	21.3	0.00e+00	0	41	0	942669824	57	3940
2026-01-30 07:45:42.24	24.74	36.51	-42.8	-43.7	21.3	0.00e+00	0	41	0	955252736	57	3949
2026-01-30 07:45:46.28	23.10	36.30	-43.2	-44.1	20.9	0.00e+00	0	41	0	967835648	57	4142
2026-01-30 07:45:50.31	21.50	36.06	-42.9	-43.9	21.1	0.00e+00	0	41	0	980418560	57	4005
2026-01-30 07:45:54.34	19.91	35.80	-43.4	-44.3	20.7	0.00e+00	0	41	0	993001472	57	4226
2026-01-30 07:45:58.37	18.36	35.51	-43.2	-44.1	20.9	0.00e+00	0	41	0	1005584384	57	4136
2026-01-30 07:46:02.39	16.83	35.21	-43.5	-44.5	20.5	0.00e+00	0	41	0	1018167296	57	4319
2026-01-30 07:46:06.42	15.34	34.88	-43.3	-44.2	20.8	0.00e+00	0	41	0	1030750208	57	4183
2026-01-30 07:46:10.45	13.87	34.54	-42.7	-43.6	21.3	0.00e+00	0	41	0	1043333120	56	4132
2026-01-30 07:46:14.48	12.43	34.18	-42.3	-43.2	21.7	0.00e+00	0	41	0	1055916032	56	3918
2026-01-30 07:46:18.50	11.03	33.80	-42.5	-43.3	21.4	0.00e+00	0	41	0	1068498944	55	4227
2026-01-30 07:46:22.53	9.66	33.41	-42.6	-43.4	21.5	0.00e+00	0	41	0	1081081856	56	4040
2026-01-30 07:46:26.56	8.33	33.01	-41.8	-42.6	22.1	0.00e+00	0	41	0	1093664768	55	3871
2026-01-30 07:46:30.59	7.02	32.59	-42.0	-42.8	21.9	0.00e+00	0	41	0	1106247680	55	3964
2026-01-30 07:46:34.62	5.75	32.17	-42.5	-43.4	21.4	0.00e+00	0	41	0	1118830592	55	4278
2026-01-30 07:46:38.65	4.52	31.73	-42.0	-42.8	21.6	0.00e+00	0	41	0	1131413504	55	3972
2026-01-30 07:46:42.69	3.31	31.29	-41.7	-42.5	22.1	0.00e+00	0	41	0	1143996416	54	4067
2026-01-30 07:46:46.71	2.15	30.84	-42.2	-43.1	21.5	0.00e+00	0	41	0	1156579328	54	4344
2026-01-30 07:46:50.74	1.01	30.38	-42.1	-43.0	21.6	0.00e+00	0	41	0	1169162240	54	4323
2026-01-30 07:46:54.78	359.90	29.92	-42.3	-43.2	21.5	0.00e+00	0	42	0	1181745152	55	4147
2026-01-30 07:46:58.80	358.83	29.45	-41.6	-42.3	22.2	0.00e+00	0	41	0	1194328064	55	3780
2026-01-30 07:47:02.84	357.79	28.98	-41.6	-42.4	22.2	0.00e+00	0	41	0	1206910976	54	4010
2026-01-30 07:47:06.87	356.77	28.51	-41.1	-41.9	22.6	0.00e+00	0	41	0	1219493888	54	3801
2026-01-30 07:47:10.91	355.79	28.04	-41.3	-42.1	22.5	0.00e+00	0	41	0	1232076800	54	3887
2026-01-30 07:47:14.93	354.84	27.56	-41.1	-41.9	22.7	0.00e+00	0	41	0	1244659712	54	3803
2026-01-30 07:47:18.95	353.92	27.09	-40.9	-41.7	22.7	0.00e+00	0	41	0	1257242624	53	3939
2026-01-30 07:47:22.98	353.02	26.62	-41.4	-42.2	22.3	0.00e+00	0	41	0	1269825536	53	4170
2026-01-30 07:47:27.00	352.15	26.14	-41.1	-41.9	22.4	0.00e+00	0	41	0	1282408448	53	4029
2026-01-30 07:47:31.03	351.31	25.67	-40.9	-41.6	22.7	0.00e+00	0	41	0	1294991360	53	3897
2026-01-30 07:47:35.06	350.49	25.20	-41.4	-42.2	22.3	0.00e+00	0	41	0	1307574272	53	4150
2026-01-30 07:47:39.09	349.69	24.73	-41.1	-41.8	22.6	0.00e+00	0	41	0	1320157184	53	3990
2026-01-30 07:47:43.11	348.92	24.26	-40.9	-41.6	22.7	0.00e+00	0	41	0	1332740096	53	3899
2026-01-30 07:47:47.14	348.17	23.80	-40.8	-41.6	22.8	0.00e+00	0	41	0	1345323008	53	3871
2026-01-30 07:47:51.16	347.45	23.34	-40.9	-41.6	22.7	0.00e+00	0	41	0	1357905920	53	3905
2026-01-30 07:47:55.20	346.74	22.88	-40.7	-41.5	22.9	0.00e+00	0	41	0	1370488832	53	3825
2026-01-30 07:47:59.22	346.06	22.43	-41.2	-42.0	22.4	0.00e+00	0	41	0	1383071744	53	4079
2026-01-30 07:48:03.24	345.40	21.98	-41.3	-42.1	22.3	0.00e+00	0	41	0	1395654656	53	4113
2026-01-30 07:48:07.26	344.75	21.53	-41.2	-42.0	22.3	0.00e+00	0	41	0	1408237568	53	4087
2026-01-30 07:48:11.29	344.13	21.09	-41.1	-41.9	22.3	0.00e+00	0	41	0	1420820480	53	4049
2026-01-30 07:48:15.31	343.52	20.65	-41.5	-42.3	22.0	0.00e+00	0	41	0	1433403392	53	4210
2026-01-30 07:48:19.34	342.93	20.22	-41.5	-42.4	22.0	0.00e+00	0	41	0	1445986304	53	4249
2026-01-30 07:48:23.37	342.35	19.79	-41.6	-42.4	22.0	0.00e+00	0	41	0	1458569216	53	4288
2026-01-30 07:48:27.39	341.80	19.36	-41.6	-42.4	22.0	0.00e+00	0	41	0	1471152128	53	4262
2026-01-30 07:48:31.42	341.25	18.94	-41.3	-42.1	22.2	0.00e+00	0	41	0	1483735040	53	4132
2026-01-30 07:48:35.44	340.73	18.53	-41.3	-42.1	22.3	0.00e+00	0	41	0	1496317952	53	4107
2026-01-30 07:48:39.47	340.21	18.11	-41.2	-42.0	22.3	0.00e+00	0	41	0	1508900864	53	4066
2026-01-30 07:48:43.50	339.72	17.71	-41.6	-42.4	22.0	0.00e+00	0	41	0	1521483776	53	4255
2026-01-30 07:48:47.54	339.23	17.30	-41.6	-42.4	21.9	0.00e+00	0	41	0	1534066688	53	4282
2026-01-30 07:48:51.56	338.76	16.90	-41.7	-42.5	21.8	0.00e+00	0	41	0	1546649600	54	4080
2026-01-30 07:48:55.59	338.30	16.51	-41.5	-42.4	21.9	0.00e+00	0	41	0	1559232512	54	4013
2026-01-30 07:48:59.61	337.85	16.12	-41.6	-42.4	21.8	0.00e+00	0	41	0	1571815424	54	4051
2026-01-30 07:49:03.64	337.42	15.73	-42.0	-42.9	21.5	0.00e+00	0	41	0	1584398336	54	4263
2026-01-30 07:49:07.67	336.99	15.35	-42.4	-43.3	21.0	0.00e+00	0	41	0	1596981248	55	4235
2026-01-30 07:49:11.69	336.58	14.98	-42.6	-43.5	20.8	0.00e+00	0	41	0	1609564160	55	4331
2026-01-30 07:49:15.71	336.18	14.60	-42.2	-43.1	21.1	0.00e+00	0	41	0	1622147072	55	4117
2026-01-30 07:49:19.74	335.78	14.24	-41.8	-42.7	21.5	8.30e-06	0	41	0	1634729984	55	3932
2026-01-30 07:49:23.78	335.40	13.87	-41.9	-42.7	21.5	0.00e+00	0	41	0	1647312896	55	3952
2026-01-30 07:49:27.81	335.03	13.51	-42.1	-43.0	21.3	0.00e+00	0	41	0	1659895808	55	4055
2026-01-30 07:49:31.83	334.67	13.15	-42.4	-43.3	20.9	0.00e+00	0	41	0	1672478720	55	4238
2026-01-30 07:49:35.87	334.31	12.80	-42.6	-43.5	20.7	0.00e+00	0	41	0	1685061632	55	4339
2026-01-30 07:49:39.89	333.96	12.45	-42.5	-43.5	20.7	0.00e+00	0	41	0	1697644544	55	4310
2026-01-30 07:49:43.92	333.63	12.11	-42.6	-43.6	20.6	0.00e+00	0	41	0	1710227456	55	4349
2026-01-30 07:49:47.95	333.30	11.77	-42.3	-43.2	20.9	0.00e+00	0	41	0	1722810368	55	4169
2026-01-30 07:49:51.97	332.98	11.43	-42.3	-43.2	20.9	0.00e+00	0	41	0	1735393280	55	4182
2026-01-30 07:49:56.00	332.66	11.10	-42.3	-43.2	20.9	0.00e+00	0	41	0	1747976192	55	4185
2026-01-30 07:50:00.03	332.35	10.77	-42.5	-43.4	20.7	0.00e+00	0	41	0	1760559104	55	4287
2026-01-30 07:50:04.06	332.05	10.44	-42.6	-43.5	20.6	0.00e+00	0	41	0	1773142016	55	4333
2026-01-30 07:50:08.09	331.76	10.12	-42.8	-43.8	20.4	0.00e+00	0	41	0	1785724928	56	4207
2026-01-30 07:50:12.12	331.48	9.80	-42.9	-43.8	20.4	0.00e+00	0	41	0	1798307840	56	4231
2026-01-30 07:50:16.16	331.20	9.48	-43.0	-44.0	20.2	0.00e+00	0	41	0	1810890752	56	4303
2026-01-30 07:50:20.18	330.92	9.17	-43.3	-44.3	19.9	0.00e+00	0	41	0	1823473664	57	4226
2026-01-30 07:50:24.22	330.65	8.86	-43.4	-44.4	19.8	0.00e+00	0	41	0	1836056576	57	4283
2026-01-30 07:50:28.26	330.39	8.55	-43.6	-44.7	19.6	0.00e+00	0	41	0	1848639488	57	4393
2026-01-30 07:50:32.29	330.14	8.25	-43.8	-44.9	19.3	0.00e+00	0	41	0	1861222400	58	4250
2026-01-30 07:50:36.32	329.89	7.95	-43.8	-44.9	19.3	0.00e+00	0	41	0	1873805312	58	4280
2026-01-30 07:50:40.35	329.64	7.65	-43.9	-45.0	19.1	0.00e+00	0	41	0	1886388224	58	4332
2026-01-30 07:50:44.37	329.40	7.36	-44.1	-45.2	18.9	0.00e+00	0	41	0	1898971136	58	4434
2026-01-30 07:50:48.41	329.17	7.07	-44.1	-45.3	18.8	0.00e+00	0	41	0	1911554048	59	4199
2026-01-30 07:50:52.43	328.94	6.78	-44.3	-45.5	18.6	0.00e+00	0	41	0	1924136960	59	4304
2026-01-30 07:50:56.47	328.71	6.49	-44.4	-45.6	18.4	0.00e+00	0	41	0	1936719872	59	4384
2026-01-30 07:51:00.50	328.49	6.21	-44.6	-45.9	18.1	0.00e+00	0	41	0	1949302784	59	4501
2026-01-30 07:51:04.52	328.28	5.93	-44.5	-45.8	17.8	0.00e+00	0	41	0	1961885696	60	4234
2026-01-30 07:51:08.56	328.07	5.65	-44.3	-45.6	18.0	0.00e+00	0	41	0	1974468608	60	4107
2026-01-30 07:51:12.58	327.86	5.37	-44.6	-45.9	18.0	0.00e+00	0	41	0	1987051520	59	4500
2026-01-30 07:51:16.61	327.66	5.10	-44.2	-45.4	18.0	0.00e+00	0	41	0	1999634432	60	4043
2026-01-30 07:51:20.64	327.46	4.83	-52.7	-65.5	3.8	1.49e+00	0	42	104	2006974464	75	17171
2026-01-30 07:51:24.67	327.26	4.56	-53.2	-66.0	3.8	1.49e+00	0	42	104	2006974464	77	16225
2026-01-30 07:51:28.70	327.07	4.30	-53.0	-65.7	3.8	1.49e+00	0	41	104	2006974464	77	15656
2026-01-30 07:51:32.73	326.89	4.03	-53.2	-65.9	3.8	1.49e+00	0	42	104	2006974464	77	16052
2026-01-30 07:51:36.75	326.70	3.77	-53.3	-66.1	3.8	1.49e+00	0	41	104	2006974464	77	16359
2026-01-30 07:51:40.78	326.52	3.51	-53.2	-66.0	3.8	1.49e+00	0	41	104	2006974464	77	16203
2026-01-30 07:51:44.81	326.35	3.25	-53.2	-65.9	3.8	1.49e+00	0	41	104	2006974464	77	16022
2026-01-30 07:51:48.84	326.17	3.00	-53.1	-65.9	3.8	1.49e+00	0	41	104	2006974464	77	15965
2026-01-30 07:51:52.87	326.00	2.75	-53.1	-65.8	3.8	1.49e+00	0	41	104	2006974464	77	15920
2026-01-30 07:51:56.90	325.84	2.50	-53.1	-65.8	3.8	1.49e+00	0	42	104	2006974464	77	15921
2026-01-30 07:52:00.93	325.67	2.25	-53.1	-65.8	3.8	1.49e+00	0	42	104	2006974464	77	15911
2026-01-30 07:52:04.96	325.51	2.00	-53.1	-65.8	3.8	1.49e+00	0	42	104	2006974464	77	15841

#Closed at: 2026-01-30 07:52:05
#Recorded file [2006 MB]: D:/lorett/data/31041_260130_103911.dat