passes_logs/2026/01/30/R3.2S_Murmansk/R3.2S_Murmansk__20260130_010048_NOAA_21_JPSS-2_rec.log

#Pass ID: 20260130_010048_NOAA 21 (JPSS-2)
#Satellite: NOAA 21 (JPSS-2)
#Configuration: NOAA-21
#almurnet v.1.7.20251203
#Start time: 2026-01-30 01:00:49

#Version: 2.2.20231116
#Station: R3.2S_Murmansk
#Location: 33.079688 lon 68.888172 lat
#TLE: 1 54234U 22150A   26029.46216196  .00000141  00000+0  87503-4 0  9994
#TLE: 2 54234  98.7512 330.1880 0000955 196.3413 163.7732 14.19540905166865

#Time	Az	El	Level	Level2	SNR	BER	BlckErr	Temp	State	Recorded	gain1	gain2
2026-01-30 01:00:49.92	25.79	2.06	-54.1	-66.7	3.8	1.49e+00	0	41	0	0	78	16613
2026-01-30 01:00:53.94	25.77	2.32	-53.1	-65.9	3.8	1.49e+00	0	42	104	0	78	15104
2026-01-30 01:00:57.96	25.74	2.58	-52.1	-64.8	3.8	1.49e+00	0	42	104	0	76	15012
2026-01-30 01:01:02.00	25.72	2.85	-52.0	-64.8	3.8	1.49e+00	0	41	104	0	76	14880
2026-01-30 01:01:06.03	25.70	3.11	-52.0	-64.7	3.8	1.49e+00	0	42	104	0	76	14822
2026-01-30 01:01:10.06	25.68	3.38	-52.0	-64.6	3.8	1.49e+00	0	41	104	0	76	14586
2026-01-30 01:01:14.08	25.66	3.65	-51.9	-64.2	3.8	1.49e+00	0	42	104	0	75	14718
2026-01-30 01:01:18.11	25.63	3.92	-51.9	-63.6	3.8	1.49e+00	0	41	104	0	75	13763
2026-01-30 01:01:22.15	25.61	4.20	-51.9	-64.3	3.8	1.49e+00	0	42	104	0	75	15028
2026-01-30 01:01:26.19	25.58	4.48	-50.9	-57.0	6.4	3.81e-01	0	42	0	3145728	73	7278
2026-01-30 01:01:30.22	25.55	4.76	-48.7	-51.7	11.9	6.03e-04	0	42	0	15728640	69	4939
2026-01-30 01:01:34.25	25.53	5.05	-47.6	-50.0	13.5	3.80e-06	0	41	0	28311552	66	4847
2026-01-30 01:01:38.28	25.50	5.34	-44.8	-46.1	17.5	0.00e+00	0	41	0	37748736	60	4357
2026-01-30 01:01:42.31	25.47	5.63	-44.4	-45.7	18.2	0.00e+00	0	42	0	47185920	59	4415
2026-01-30 01:01:46.33	25.44	5.92	-44.2	-45.4	18.5	0.00e+00	0	41	0	60817408	59	4283
2026-01-30 01:01:50.37	25.41	6.22	-44.1	-45.3	18.7	0.00e+00	0	41	0	73400320	59	4204
2026-01-30 01:01:54.41	25.37	6.52	-44.2	-45.4	18.6	0.00e+00	0	41	0	84934656	59	4281
2026-01-30 01:01:58.43	25.34	6.83	-43.9	-45.0	19.0	0.00e+00	0	41	0	98566144	59	4079
2026-01-30 01:02:02.46	25.31	7.14	-44.0	-45.2	18.9	0.00e+00	0	42	0	111149056	59	4161
2026-01-30 01:02:06.50	25.27	7.45	-43.7	-44.8	19.3	0.00e+00	0	41	0	122683392	59	3976
2026-01-30 01:02:10.53	25.23	7.77	-43.5	-44.6	19.5	0.00e+00	0	41	0	136314880	59	3900
2026-01-30 01:02:14.57	25.20	8.09	-43.5	-44.6	19.5	0.00e+00	0	41	0	148897792	59	3888
2026-01-30 01:02:18.60	25.16	8.41	-43.5	-44.5	19.6	0.00e+00	0	41	0	161480704	58	4089
2026-01-30 01:02:22.63	25.12	8.74	-43.2	-44.3	19.9	0.00e+00	0	41	0	174063616	58	3970
2026-01-30 01:02:26.64	25.07	9.07	-43.3	-44.3	19.9	0.00e+00	0	41	0	186646528	58	3986
2026-01-30 01:02:30.68	25.03	9.41	-43.1	-44.1	20.2	0.00e+00	0	41	0	199229440	58	3872
2026-01-30 01:02:34.71	24.99	9.75	-42.8	-43.8	20.4	0.00e+00	0	41	0	211812352	57	3986
2026-01-30 01:02:38.74	24.94	10.10	-42.9	-43.8	20.4	0.00e+00	0	41	0	224395264	57	3994
2026-01-30 01:02:42.77	24.89	10.45	-42.8	-43.8	20.5	0.00e+00	0	41	0	236978176	57	3979
2026-01-30 01:02:46.80	24.84	10.81	-42.6	-43.6	20.7	0.00e+00	0	41	0	249561088	57	3875
2026-01-30 01:02:50.83	24.79	11.17	-42.5	-43.4	20.9	0.00e+00	0	41	0	262144000	56	4041
2026-01-30 01:02:54.87	24.74	11.54	-42.3	-43.2	21.0	0.00e+00	0	42	0	274726912	56	3943
2026-01-30 01:02:58.90	24.69	11.91	-42.3	-43.2	21.1	0.00e+00	0	41	0	287309824	56	3922
2026-01-30 01:03:02.93	24.63	12.29	-42.2	-43.1	21.2	0.00e+00	0	41	0	299892736	56	3885
2026-01-30 01:03:06.96	24.57	12.67	-42.1	-43.0	21.3	0.00e+00	0	42	0	312475648	56	3855
2026-01-30 01:03:10.99	24.51	13.06	-42.1	-43.0	21.3	0.00e+00	0	41	0	325058560	56	3826
2026-01-30 01:03:15.02	24.45	13.46	-41.8	-42.7	21.5	0.00e+00	0	41	0	337641472	55	3932
2026-01-30 01:03:19.06	24.38	13.87	-41.8	-42.6	21.6	0.00e+00	0	41	0	350224384	55	3903
2026-01-30 01:03:23.08	24.32	14.28	-41.9	-42.7	21.5	0.00e+00	0	41	0	362807296	55	3947
2026-01-30 01:03:27.12	24.25	14.69	-41.8	-42.6	21.6	0.00e+00	0	41	0	375390208	55	3899
2026-01-30 01:03:31.15	24.18	15.12	-41.6	-42.5	21.8	0.00e+00	0	41	0	387973120	55	3832
2026-01-30 01:03:35.18	24.10	15.55	-41.7	-42.6	21.7	0.00e+00	0	41	0	400556032	55	3873
2026-01-30 01:03:39.20	24.03	15.99	-41.7	-42.5	21.7	0.00e+00	0	41	0	413138944	55	3858
2026-01-30 01:03:43.23	23.95	16.44	-41.7	-42.6	21.7	0.00e+00	0	41	0	425721856	55	3869
2026-01-30 01:03:47.26	23.87	16.89	-41.8	-42.7	21.6	0.00e+00	0	41	0	438304768	55	3931
2026-01-30 01:03:51.29	23.78	17.36	-41.9	-42.8	21.5	0.00e+00	0	41	0	450887680	55	3984
2026-01-30 01:03:55.32	23.69	17.83	-42.2	-43.1	21.3	0.00e+00	0	42	0	463470592	55	4106
2026-01-30 01:03:59.35	23.60	18.31	-42.2	-43.0	21.4	0.00e+00	0	42	0	476053504	55	4098
2026-01-30 01:04:03.38	23.50	18.81	-42.1	-42.9	21.5	0.00e+00	0	41	0	488636416	55	4044
2026-01-30 01:04:07.41	23.40	19.31	-41.9	-42.8	21.6	0.00e+00	0	41	0	501219328	55	3978
2026-01-30 01:04:11.44	23.30	19.82	-41.8	-42.6	21.8	0.00e+00	0	41	0	513802240	55	3900
2026-01-30 01:04:15.46	23.19	20.34	-41.6	-42.5	21.9	0.00e+00	0	41	0	526385152	55	3828
2026-01-30 01:04:19.49	23.08	20.88	-41.5	-42.3	22.1	0.00e+00	0	41	0	538968064	55	3749
2026-01-30 01:04:23.52	22.97	21.42	-41.2	-42.0	22.4	0.00e+00	0	41	0	551550976	54	3828
2026-01-30 01:04:27.54	22.85	21.98	-40.8	-41.5	22.7	0.00e+00	0	41	0	564133888	53	3861
2026-01-30 01:04:31.57	22.72	22.55	-40.7	-41.4	22.8	0.00e+00	0	41	0	576716800	53	3822
2026-01-30 01:04:35.60	22.59	23.13	-40.3	-41.0	23.0	0.00e+00	0	41	0	589299712	52	3867
2026-01-30 01:04:39.63	22.45	23.73	-40.3	-41.0	23.1	0.00e+00	0	41	0	601882624	52	3848
2026-01-30 01:04:43.66	22.31	24.34	-40.3	-41.1	23.1	0.00e+00	0	41	0	614465536	52	3882
2026-01-30 01:04:47.69	22.16	24.96	-40.5	-41.2	23.0	0.00e+00	0	41	0	627048448	52	3956
2026-01-30 01:04:51.71	22.00	25.60	-40.7	-41.5	22.8	0.00e+00	0	41	0	639631360	52	4072
2026-01-30 01:04:55.75	21.84	26.26	-41.4	-42.2	22.3	0.00e+00	0	41	0	652214272	53	4169
2026-01-30 01:04:59.78	21.67	26.93	-41.8	-42.7	21.9	0.00e+00	0	41	0	664797184	54	4147
2026-01-30 01:05:03.80	21.49	27.61	-42.1	-42.9	21.7	0.00e+00	0	41	0	677380096	54	4282
2026-01-30 01:05:07.83	21.30	28.32	-42.3	-43.1	21.4	0.00e+00	0	41	0	689963008	55	4126
2026-01-30 01:05:11.87	21.10	29.04	-42.3	-43.2	21.3	0.00e+00	0	41	0	702545920	55	4154
2026-01-30 01:05:15.91	20.90	29.78	-42.2	-43.1	21.2	0.00e+00	0	41	0	715128832	55	4126
2026-01-30 01:05:19.94	20.68	30.54	-42.0	-42.9	21.5	0.00e+00	0	41	0	727711744	55	4010
2026-01-30 01:05:23.95	20.45	31.32	-41.7	-42.5	22.0	0.00e+00	0	41	0	740294656	55	3855
2026-01-30 01:05:27.99	20.21	32.12	-41.4	-42.2	22.4	0.00e+00	0	41	0	752877568	54	3937
2026-01-30 01:05:32.03	19.95	32.95	-41.4	-42.2	22.4	0.00e+00	0	41	0	765460480	54	3946
2026-01-30 01:05:36.05	19.69	33.79	-41.9	-42.7	22.0	0.00e+00	0	42	0	778043392	54	4157
2026-01-30 01:05:40.09	19.40	34.66	-42.2	-43.0	21.7	0.00e+00	0	41	0	790626304	55	4077
2026-01-30 01:05:44.10	19.10	35.55	-42.4	-43.2	21.6	0.00e+00	0	41	0	803209216	55	4178
2026-01-30 01:05:48.13	18.78	36.47	-42.9	-43.8	21.2	0.00e+00	0	41	0	815792128	56	4222
2026-01-30 01:05:52.16	18.45	37.41	-42.9	-43.8	21.2	0.00e+00	0	41	0	828375040	56	4197
2026-01-30 01:05:56.19	18.09	38.38	-43.3	-44.2	20.8	0.00e+00	0	41	0	840957952	57	4146
2026-01-30 01:06:00.22	17.70	39.37	-43.5	-44.5	20.7	0.00e+00	0	41	0	853540864	57	4296
2026-01-30 01:06:04.25	17.30	40.40	-43.4	-44.3	20.8	0.00e+00	0	41	0	866123776	57	4208
2026-01-30 01:06:08.28	16.86	41.45	-43.4	-44.3	20.9	0.00e+00	0	42	0	878706688	57	4204
2026-01-30 01:06:12.31	16.39	42.53	-44.1	-45.1	20.2	0.00e+00	0	41	0	891289600	58	4347
2026-01-30 01:06:16.33	15.89	43.64	-44.0	-45.0	20.3	0.00e+00	0	41	0	903872512	58	4322
2026-01-30 01:06:20.36	15.35	44.78	-44.5	-45.6	19.8	0.00e+00	0	41	0	916455424	59	4352
2026-01-30 01:06:24.39	14.77	45.95	-44.7	-45.8	19.3	0.00e+00	0	41	0	929038336	60	4216
2026-01-30 01:06:28.41	14.15	47.15	-44.3	-45.3	19.6	0.00e+00	0	41	0	941621248	60	3998
2026-01-30 01:06:32.44	13.47	48.38	-43.8	-44.7	20.5	0.00e+00	0	41	0	954204160	59	3949
2026-01-30 01:06:36.48	12.73	49.65	-44.1	-45.2	20.1	0.00e+00	0	41	0	966787072	59	4146
2026-01-30 01:06:40.52	11.92	50.95	-43.3	-44.2	21.1	0.00e+00	0	41	0	979369984	58	3951
2026-01-30 01:06:44.56	11.04	52.28	-43.6	-44.5	20.8	0.00e+00	0	41	0	991952896	58	4081
2026-01-30 01:06:48.59	10.08	53.63	-43.0	-43.9	21.4	0.00e+00	0	41	0	1004535808	57	4006
2026-01-30 01:06:52.62	9.02	55.02	-42.6	-43.5	21.8	0.00e+00	0	41	0	1017118720	57	3839
2026-01-30 01:06:56.64	7.85	56.42	-42.3	-43.1	22.1	0.00e+00	0	41	0	1029701632	56	3894
2026-01-30 01:07:00.67	6.55	57.85	-41.4	-42.1	22.6	0.00e+00	0	41	0	1042284544	54	3903
2026-01-30 01:07:04.70	5.10	59.30	-41.5	-42.3	22.7	0.00e+00	0	41	0	1054867456	54	3972
2026-01-30 01:07:08.73	3.47	60.77	-41.4	-42.2	22.9	0.00e+00	0	41	0	1067450368	54	3914
2026-01-30 01:07:12.76	1.65	62.25	-41.3	-42.0	23.0	0.00e+00	0	41	0	1080033280	54	3857
2026-01-30 01:07:16.78	359.59	63.73	-40.5	-41.2	23.5	0.00e+00	0	41	0	1092616192	52	3934
2026-01-30 01:07:20.81	357.24	65.21	-40.7	-41.4	23.5	0.00e+00	0	41	0	1105199104	52	4022
2026-01-30 01:07:24.84	354.57	66.67	-40.4	-41.1	23.7	0.00e+00	0	41	0	1117782016	52	3893
2026-01-30 01:07:28.87	351.49	68.10	-40.2	-40.9	23.9	0.00e+00	0	41	0	1130364928	52	3814
2026-01-30 01:07:32.90	347.96	69.49	-40.4	-41.1	23.9	0.00e+00	0	41	0	1142947840	51	4116
2026-01-30 01:07:36.93	343.88	70.82	-40.8	-41.6	23.5	0.00e+00	0	41	0	1155530752	52	4103
2026-01-30 01:07:40.94	339.20	72.05	-40.5	-41.2	23.8	0.00e+00	0	41	0	1168113664	52	3942
2026-01-30 01:07:44.97	333.80	73.16	-39.9	-40.6	24.3	0.00e+00	0	41	0	1180696576	51	3876
2026-01-30 01:07:49.00	327.64	74.12	-40.7	-41.4	23.2	0.00e+00	0	41	0	1193279488	52	4044
2026-01-30 01:07:53.03	320.75	74.89	-40.8	-41.5	23.5	0.00e+00	0	42	0	1205862400	52	4078
2026-01-30 01:07:57.05	313.22	75.43	-41.1	-41.8	23.1	0.00e+00	0	41	0	1218445312	52	4238
2026-01-30 01:08:01.07	305.24	75.71	-40.7	-41.4	23.6	0.00e+00	0	41	0	1231028224	53	3815
2026-01-30 01:08:05.11	297.05	75.72	-41.4	-42.2	22.9	0.00e+00	0	41	0	1243611136	53	4181
2026-01-30 01:08:09.14	289.04	75.44	-41.4	-42.2	23.0	0.00e+00	0	41	0	1256194048	53	4170
2026-01-30 01:08:13.16	281.50	74.91	-41.0	-41.7	23.2	0.00e+00	0	41	0	1268776960	53	3956
2026-01-30 01:08:17.19	274.58	74.14	-41.1	-41.8	23.1	0.00e+00	0	41	0	1281359872	52	4222
2026-01-30 01:08:21.22	268.41	73.18	-40.6	-41.3	23.6	0.00e+00	0	41	0	1294991360	53	3759
2026-01-30 01:08:25.25	262.99	72.07	-40.3	-41.0	23.8	0.00e+00	0	41	0	1306525696	52	3856
2026-01-30 01:08:29.28	258.27	70.83	-40.5	-41.2	23.8	0.00e+00	0	41	0	1319108608	52	3921
2026-01-30 01:08:33.30	254.18	69.51	-40.6	-41.3	23.5	0.00e+00	0	41	0	1331691520	53	3765
2026-01-30 01:08:37.33	250.64	68.12	-40.7	-41.5	23.4	0.00e+00	0	41	0	1344274432	52	4060
2026-01-30 01:08:41.37	247.55	66.68	-40.0	-40.7	24.1	0.00e+00	0	41	0	1356857344	52	3709
2026-01-30 01:08:45.38	244.87	65.22	-42.0	-42.8	22.2	0.00e+00	0	41	0	1369440256	55	4001
2026-01-30 01:08:49.40	242.53	63.75	-40.9	-41.6	23.4	0.00e+00	0	41	0	1382023168	53	3905
2026-01-30 01:08:53.43	240.46	62.26	-40.6	-41.3	23.5	0.00e+00	0	41	0	1394606080	53	3746
2026-01-30 01:08:57.45	238.63	60.78	-40.5	-41.1	23.8	0.00e+00	0	41	0	1407188992	51	4141
2026-01-30 01:09:01.47	237.00	59.32	-42.1	-42.9	21.5	0.00e+00	0	41	0	1419771904	56	3812
2026-01-30 01:09:05.49	235.55	57.86	-41.3	-42.0	22.9	0.00e+00	0	41	0	1432354816	53	4089
2026-01-30 01:09:09.52	234.25	56.43	-42.4	-43.2	22.1	0.00e+00	0	41	0	1444937728	56	3945
2026-01-30 01:09:13.54	233.07	55.02	-41.5	-42.2	22.8	0.00e+00	0	42	0	1457520640	55	3724
2026-01-30 01:09:17.57	232.01	53.63	-44.5	-45.6	19.8	0.00e+00	0	41	0	1470103552	60	4132
2026-01-30 01:09:21.58	231.04	52.28	-42.6	-43.5	21.8	0.00e+00	0	41	0	1482686464	57	3827
2026-01-30 01:09:25.60	230.16	50.95	-41.9	-42.6	22.3	0.00e+00	0	41	0	1495269376	55	3912
2026-01-30 01:09:29.63	229.36	49.65	-45.4	-46.6	18.4	0.00e+00	0	41	0	1507852288	61	4355
2026-01-30 01:09:33.65	228.62	48.38	-44.4	-45.3	20.1	0.00e+00	0	41	0	1520435200	59	4236
2026-01-30 01:09:37.68	227.93	47.15	-43.6	-44.4	21.0	0.00e+00	0	41	0	1533018112	59	3824
2026-01-30 01:09:41.71	227.30	45.94	-44.7	-45.8	19.6	0.00e+00	0	41	0	1545601024	60	4194
2026-01-30 01:09:45.75	226.72	44.76	-44.2	-45.1	19.4	0.00e+00	0	41	0	1558183936	60	3911
2026-01-30 01:09:49.79	226.18	43.61	-44.3	-45.2	20.2	0.00e+00	0	42	0	1570766848	59	4174
2026-01-30 01:09:53.81	225.67	42.50	-44.2	-45.1	20.3	0.00e+00	0	41	0	1583349760	59	4138
2026-01-30 01:09:57.83	225.21	41.42	-44.4	-45.4	20.0	0.00e+00	0	41	0	1595932672	59	4282
2026-01-30 01:10:01.86	224.77	40.36	-44.4	-45.5	19.6	0.00e+00	0	41	0	1608515584	60	4084
2026-01-30 01:10:05.88	224.36	39.34	-44.2	-45.2	20.0	0.00e+00	0	41	0	1621098496	59	4148
2026-01-30 01:10:09.89	223.97	38.34	-44.5	-45.5	19.8	0.00e+00	0	41	0	1633681408	59	4340
2026-01-30 01:10:13.92	223.61	37.37	-44.0	-45.0	20.3	0.00e+00	0	41	0	1646264320	59	4054
2026-01-30 01:10:17.96	223.27	36.42	-42.8	-43.6	21.5	0.00e+00	0	42	0	1658847232	57	3909
2026-01-30 01:10:21.99	222.95	35.50	-42.9	-43.8	21.4	0.00e+00	0	41	0	1671430144	56	4195
2026-01-30 01:10:26.02	222.65	34.61	-42.8	-43.6	21.5	0.00e+00	0	41	0	1684013056	56	4129
2026-01-30 01:10:30.06	222.36	33.73	-42.6	-43.5	21.6	0.00e+00	0	41	0	1696595968	56	4070
2026-01-30 01:10:34.08	222.09	32.89	-43.0	-43.9	21.2	0.00e+00	0	41	0	1709178880	56	4273
2026-01-30 01:10:38.11	221.84	32.06	-43.1	-44.0	21.0	0.00e+00	0	41	0	1721761792	56	4317
2026-01-30 01:10:42.15	221.59	31.25	-42.6	-43.5	21.4	0.00e+00	0	41	0	1734344704	56	4066
2026-01-30 01:10:46.19	221.36	30.47	-42.0	-42.8	22.0	0.00e+00	0	41	0	1746927616	56	3756
2026-01-30 01:10:50.22	221.14	29.71	-41.2	-42.0	22.6	0.00e+00	0	41	0	1760559104	54	3847
2026-01-30 01:10:54.27	220.93	28.96	-40.9	-41.6	23.0	0.00e+00	0	41	0	1772093440	53	3884
2026-01-30 01:10:58.30	220.73	28.23	-41.1	-41.9	22.7	0.00e+00	0	41	0	1784676352	53	4015
2026-01-30 01:11:02.33	220.54	27.53	-41.4	-42.2	22.5	0.00e+00	0	41	0	1798307840	53	4149
2026-01-30 01:11:06.36	220.36	26.84	-41.2	-42.0	22.6	0.00e+00	0	41	0	1810890752	53	4054
2026-01-30 01:11:10.39	220.19	26.17	-41.2	-41.9	22.6	0.00e+00	0	41	0	1822425088	53	4046
2026-01-30 01:11:14.42	220.03	25.51	-41.4	-42.2	22.4	0.00e+00	0	41	0	1836056576	53	4146
2026-01-30 01:11:18.45	219.87	24.87	-41.5	-42.3	22.3	0.00e+00	0	41	0	1848639488	53	4207
2026-01-30 01:11:22.48	219.72	24.24	-41.7	-42.6	22.1	0.00e+00	0	41	0	1861222400	54	4111
2026-01-30 01:11:26.50	219.57	23.63	-41.7	-42.6	22.1	0.00e+00	0	41	0	1872756736	54	4101
2026-01-30 01:11:30.51	219.43	23.04	-41.6	-42.4	22.1	0.00e+00	0	41	0	1885339648	54	4045
2026-01-30 01:11:34.55	219.30	22.45	-41.4	-42.2	22.2	0.00e+00	0	41	0	1898971136	54	3936
2026-01-30 01:11:38.59	219.17	21.88	-41.2	-42.0	22.3	0.00e+00	0	42	0	1910505472	54	3845
2026-01-30 01:11:42.63	219.05	21.32	-41.1	-41.9	22.4	0.00e+00	0	41	0	1924136960	54	3794
2026-01-30 01:11:46.66	218.93	20.77	-40.9	-41.7	22.5	0.00e+00	0	41	0	1936719872	53	3941
2026-01-30 01:11:50.70	218.82	20.23	-41.0	-41.8	22.4	0.00e+00	0	41	0	1949302784	53	3987
2026-01-30 01:11:54.74	218.71	19.71	-40.9	-41.7	22.6	0.00e+00	0	41	0	1961885696	53	3924
2026-01-30 01:11:58.77	218.60	19.19	-41.0	-41.8	22.6	0.00e+00	0	41	0	1974468608	53	3960
2026-01-30 01:12:02.80	218.50	18.69	-41.0	-41.8	22.5	0.00e+00	0	41	0	1987051520	53	3970
2026-01-30 01:12:06.83	218.41	18.20	-41.0	-41.8	22.6	0.00e+00	0	41	0	1999634432	53	3984
2026-01-30 01:12:10.86	218.31	17.71	-41.1	-41.9	22.4	0.00e+00	0	41	0	2012217344	53	4034
2026-01-30 01:12:14.89	218.22	17.24	-41.4	-42.2	22.2	0.00e+00	0	41	0	2024800256	53	4180
2026-01-30 01:12:18.92	218.13	16.77	-41.6	-42.4	22.0	0.00e+00	0	41	0	2037383168	53	4256
2026-01-30 01:12:22.94	218.05	16.32	-41.8	-42.6	21.8	0.00e+00	0	41	0	2049966080	54	4115
2026-01-30 01:12:26.97	217.97	15.87	-42.0	-42.9	21.6	0.00e+00	0	41	0	2062548992	54	4245
2026-01-30 01:12:31.00	217.89	15.43	-42.1	-42.9	21.5	0.00e+00	0	41	0	2075131904	54	4277
2026-01-30 01:12:35.03	217.81	14.99	-42.2	-43.1	21.3	0.00e+00	0	41	0	2087714816	55	4124
2026-01-30 01:12:39.06	217.74	14.57	-42.4	-43.3	21.1	0.00e+00	0	41	0	2100297728	55	4215
2026-01-30 01:12:43.09	217.67	14.15	-42.8	-43.8	20.8	0.00e+00	0	41	0	2112880640	56	4195
2026-01-30 01:12:47.12	217.60	13.74	-42.5	-43.5	21.0	0.00e+00	0	41	0	2125463552	56	4053
2026-01-30 01:12:51.14	217.53	13.33	-42.5	-43.4	21.0	0.00e+00	0	41	0	2138046464	56	4037
2026-01-30 01:12:55.17	217.47	12.94	-42.6	-43.5	20.9	0.00e+00	0	41	0	2150629376	56	4067
2026-01-30 01:12:59.20	217.41	12.54	-42.6	-43.5	20.9	0.00e+00	0	41	0	2163212288	56	4062
2026-01-30 01:13:03.23	217.35	12.16	-42.5	-43.4	20.9	0.00e+00	0	41	0	2175795200	56	4040
2026-01-30 01:13:07.25	217.29	11.78	-42.6	-43.5	20.9	0.00e+00	0	41	0	2188378112	56	4078
2026-01-30 01:13:11.28	217.23	11.41	-42.6	-43.5	20.8	0.00e+00	0	41	0	2200961024	56	4064
2026-01-30 01:13:15.29	217.18	11.04	-42.6	-43.5	20.8	0.00e+00	0	41	0	2213543936	56	4090
2026-01-30 01:13:19.32	217.12	10.68	-42.7	-43.6	20.7	0.00e+00	0	41	0	2226126848	56	4122
2026-01-30 01:13:23.35	217.07	10.32	-42.8	-43.7	20.6	0.00e+00	0	41	0	2238709760	56	4187
2026-01-30 01:13:27.38	217.02	9.97	-42.8	-43.7	20.5	0.00e+00	0	41	0	2251292672	56	4186
2026-01-30 01:13:31.41	216.97	9.62	-42.8	-43.7	20.5	0.00e+00	0	41	0	2263875584	56	4176
2026-01-30 01:13:35.44	216.93	9.28	-43.0	-44.0	20.3	0.00e+00	0	42	0	2276458496	56	4299
2026-01-30 01:13:39.47	216.88	8.94	-43.0	-44.0	20.2	0.00e+00	0	41	0	2289041408	57	4074
2026-01-30 01:13:43.49	216.84	8.61	-43.2	-44.2	20.0	0.00e+00	0	41	0	2301624320	57	4187
2026-01-30 01:13:47.52	216.79	8.28	-43.4	-44.4	19.8	0.00e+00	0	41	0	2314207232	57	4257
2026-01-30 01:13:51.55	216.75	7.95	-43.5	-44.5	19.7	0.00e+00	0	41	0	2326790144	57	4319
2026-01-30 01:13:55.58	216.71	7.63	-43.5	-44.6	19.6	0.00e+00	0	41	0	2339373056	57	4364
2026-01-30 01:13:59.61	216.67	7.31	-43.7	-44.7	19.4	0.00e+00	0	42	0	2351955968	57	4440
2026-01-30 01:14:03.64	216.63	7.00	-43.8	-44.9	19.2	0.00e+00	0	41	0	2364538880	58	4284
2026-01-30 01:14:07.67	216.60	6.69	-43.8	-44.9	19.2	0.00e+00	0	41	0	2377121792	58	4281
2026-01-30 01:14:11.70	216.56	6.39	-44.0	-45.2	18.9	0.00e+00	0	41	0	2389704704	58	4409
2026-01-30 01:14:15.72	216.53	6.08	-44.1	-45.3	18.8	0.00e+00	0	42	0	2402287616	58	4469
2026-01-30 01:14:19.75	216.49	5.79	-44.3	-45.5	18.5	0.00e+00	0	41	0	2414870528	59	4321
2026-01-30 01:14:23.78	216.46	5.49	-44.4	-45.7	18.3	0.00e+00	0	41	0	2427453440	59	4408
2026-01-30 01:14:27.81	216.43	5.20	-44.3	-45.6	18.4	0.00e+00	0	41	0	2440036352	59	4347
2026-01-30 01:14:31.84	216.40	4.91	-52.8	-65.6	3.8	1.49e+00	0	42	104	2448424960	76	16398
2026-01-30 01:14:35.87	216.36	4.62	-53.5	-66.3	3.8	1.49e+00	0	41	104	2448424960	77	16703
2026-01-30 01:14:39.90	216.34	4.34	-53.8	-66.5	3.8	1.49e+00	0	42	104	2448424960	78	16259
2026-01-30 01:14:43.93	216.31	4.06	-53.9	-66.7	3.8	1.49e+00	0	42	104	2448424960	78	16547
2026-01-30 01:14:47.96	216.28	3.78	-53.9	-66.6	3.8	1.49e+00	0	42	104	2448424960	78	16501
2026-01-30 01:14:51.98	216.25	3.51	-53.7	-66.5	3.8	1.49e+00	0	42	104	2448424960	78	16131
2026-01-30 01:14:56.01	216.22	3.24	-53.3	-66.1	3.8	1.49e+00	0	41	104	2448424960	78	15471
2026-01-30 01:15:00.05	216.20	2.97	-53.3	-66.0	3.8	1.49e+00	0	42	104	2448424960	78	15374
2026-01-30 01:15:04.07	216.17	2.70	-53.3	-66.0	3.8	1.49e+00	0	42	104	2448424960	78	15364
2026-01-30 01:15:08.11	216.15	2.44	-53.3	-66.0	3.8	1.49e+00	0	42	104	2448424960	78	15342
2026-01-30 01:15:12.15	216.13	2.18	-53.2	-66.0	3.8	1.49e+00	0	42	104	2448424960	78	15286

#Closed at: 2026-01-30 01:15:16
#Recorded file [2448 MB]: D:/lorett/data/31041_260130_040049.dat