passes_logs/2026/01/30/R3.2S_Murmansk/R3.2S_Murmansk__20260130_020547_AQUA_rec.log

#Pass ID: 20260130_020547_AQUA
#Satellite: AQUA
#Configuration: AQUA
#almurnet v.1.7.20251203
#Start time: 2026-01-30 02:05:46

#Version: 2.2.20231116
#Station: R3.2S_Murmansk
#Location: 33.079688 lon 68.888172 lat
#TLE: 1 27424U 02022A   26029.54575153  .00001738  00000+0  35736-3 0  9994
#TLE: 2 27424  98.4104 356.2197 0001804  61.7823  56.0643 14.61874165263019

#Time	Az	El	Level	Level2	SNR	BER	BlckErr	Temp	State	Recorded	gain1	gain2
2026-01-30 02:05:46.51	22.94	1.96	-55.7	-73.5	3.8	7.44e-01	0	42	0	0	82	28981
2026-01-30 02:05:50.54	22.99	2.23	-55.5	-73.3	3.8	7.46e-01	0	41	104	0	81	29968
2026-01-30 02:05:54.56	23.04	2.49	-55.5	-73.4	3.8	7.45e-01	0	41	104	0	81	30060
2026-01-30 02:05:58.59	23.09	2.77	-55.5	-73.4	3.8	7.44e-01	0	41	104	0	81	30049
2026-01-30 02:06:02.61	23.14	3.04	-55.5	-73.3	3.8	7.46e-01	0	41	104	0	81	29987
2026-01-30 02:06:06.64	23.20	3.32	-55.4	-73.3	3.8	7.45e-01	0	41	104	0	81	29698
2026-01-30 02:06:10.67	23.25	3.60	-55.3	-73.2	3.8	7.47e-01	0	41	104	0	81	29443
2026-01-30 02:06:14.71	23.30	3.88	-55.4	-73.2	3.8	7.47e-01	0	41	104	0	81	29607
2026-01-30 02:06:18.75	23.36	4.17	-55.3	-73.1	3.8	7.45e-01	0	41	104	0	81	29260
2026-01-30 02:06:22.78	23.41	4.46	-55.3	-73.1	3.8	7.46e-01	0	41	104	0	81	29315
2026-01-30 02:06:26.80	23.47	4.76	-55.2	-73.1	3.8	7.48e-01	0	41	104	0	81	29091
2026-01-30 02:06:30.84	23.53	5.06	-55.6	-73.4	3.8	7.41e-01	0	41	104	0	81	30294
2026-01-30 02:06:34.86	23.59	5.36	-55.6	-73.4	3.8	7.43e-01	0	41	104	0	81	30254
2026-01-30 02:06:38.90	23.65	5.67	-55.6	-73.4	3.8	7.46e-01	0	41	104	0	81	30142
2026-01-30 02:06:42.93	23.71	5.98	-55.3	-73.1	3.8	7.44e-01	0	41	104	0	81	29322
2026-01-30 02:06:46.96	23.77	6.29	-54.8	-72.4	3.8	7.45e-01	0	41	104	0	81	27006
2026-01-30 02:06:50.99	23.83	6.61	-45.4	-46.8	23.8	6.02e-01	0	41	0	2097152	62	4207
2026-01-30 02:06:55.02	23.90	6.93	-46.0	-47.5	23.3	6.04e-01	0	41	0	9437184	63	4316
2026-01-30 02:06:59.05	23.96	7.26	-44.9	-46.2	24.4	6.03e-01	0	41	0	17301504	61	4182
2026-01-30 02:07:03.07	24.03	7.59	-44.5	-45.8	24.9	6.03e-01	0	41	0	24641536	60	4227
2026-01-30 02:07:07.10	24.09	7.93	-44.5	-45.8	24.9	6.04e-01	0	41	0	31981568	60	4224
2026-01-30 02:07:11.12	24.16	8.27	-44.3	-45.5	25.2	6.02e-01	0	41	0	39845888	60	4096
2026-01-30 02:07:15.15	24.23	8.62	-44.5	-45.8	25.0	6.04e-01	0	41	0	47185920	60	4194
2026-01-30 02:07:19.18	24.30	8.97	-44.4	-45.7	25.1	6.01e-01	0	41	0	54525952	60	4167
2026-01-30 02:07:23.21	24.37	9.33	-44.2	-45.5	25.3	6.01e-01	0	41	0	62390272	60	4070
2026-01-30 02:07:27.23	24.45	9.69	-44.3	-45.5	25.3	6.02e-01	0	41	0	69730304	60	4096
2026-01-30 02:07:31.26	24.52	10.06	-44.3	-45.6	25.3	6.02e-01	0	41	0	77594624	60	4122
2026-01-30 02:07:35.29	24.60	10.44	-44.1	-45.3	25.6	6.02e-01	0	41	0	84934656	60	3968
2026-01-30 02:07:39.32	24.68	10.82	-44.0	-45.3	25.6	6.02e-01	0	41	0	92798976	59	4197
2026-01-30 02:07:43.34	24.76	11.21	-43.9	-45.1	25.7	6.06e-01	0	41	0	100139008	59	4142
2026-01-30 02:07:47.37	24.84	11.61	-43.7	-44.9	25.9	6.01e-01	0	41	0	107479040	59	4025
2026-01-30 02:07:51.40	24.93	12.01	-43.6	-44.8	25.0	6.07e-01	0	41	0	115343360	59	3964
2026-01-30 02:07:55.42	25.01	12.43	-43.5	-44.7	26.1	6.04e-01	0	41	0	122683392	58	4169
2026-01-30 02:07:59.45	25.10	12.84	-43.6	-44.7	26.0	6.01e-01	0	41	0	130547712	58	4183
2026-01-30 02:08:03.48	25.19	13.27	-43.6	-44.8	26.0	6.04e-01	0	41	0	137887744	58	4202
2026-01-30 02:08:07.51	25.28	13.71	-43.4	-44.5	26.2	6.00e-01	0	41	0	145227776	58	4096
2026-01-30 02:08:11.53	25.38	14.15	-43.4	-44.6	26.3	6.04e-01	0	41	0	153092096	58	4105
2026-01-30 02:08:15.56	25.48	14.61	-43.2	-44.3	26.5	6.01e-01	0	41	0	160432128	58	4001
2026-01-30 02:08:19.59	25.58	15.07	-43.0	-44.1	26.8	6.02e-01	0	41	0	167772160	57	4102
2026-01-30 02:08:23.62	25.68	15.54	-43.0	-44.1	26.7	6.02e-01	0	41	0	175636480	57	4138
2026-01-30 02:08:27.65	25.79	16.03	-43.2	-44.3	26.6	6.03e-01	0	41	0	182976512	57	4220
2026-01-30 02:08:31.68	25.90	16.52	-43.1	-44.2	26.8	6.03e-01	0	41	0	190840832	57	4153
2026-01-30 02:08:35.71	26.01	17.03	-43.0	-44.1	26.8	6.03e-01	0	41	0	198180864	57	4139
2026-01-30 02:08:39.73	26.13	17.55	-43.1	-44.2	26.8	6.04e-01	0	41	0	206045184	57	4161
2026-01-30 02:08:43.75	26.25	18.08	-43.2	-44.3	26.6	6.04e-01	0	41	0	213385216	57	4234
2026-01-30 02:08:47.78	26.37	18.62	-43.1	-44.3	26.7	6.02e-01	0	41	0	220725248	57	4194
2026-01-30 02:08:51.80	26.50	19.17	-43.0	-44.1	26.7	6.02e-01	0	41	0	228589568	57	4123
2026-01-30 02:08:55.83	26.63	19.74	-43.1	-44.2	26.7	6.03e-01	0	41	0	235929600	57	4193
2026-01-30 02:08:59.86	26.77	20.33	-43.0	-44.1	26.8	6.04e-01	0	41	0	243793920	57	4128
2026-01-30 02:09:03.88	26.91	20.93	-43.0	-44.1	26.8	6.03e-01	0	41	0	251133952	57	4128
2026-01-30 02:09:07.91	27.06	21.54	-43.2	-44.3	26.7	6.04e-01	0	41	0	258473984	57	4213
2026-01-30 02:09:11.94	27.21	22.17	-43.5	-44.7	26.5	6.05e-01	0	41	0	266338304	57	4396
2026-01-30 02:09:15.96	27.37	22.82	-43.5	-44.6	26.5	6.00e-01	0	41	0	273678336	57	4388
2026-01-30 02:09:20.00	27.53	23.49	-43.5	-44.7	26.5	6.02e-01	0	41	0	281018368	57	4394
2026-01-30 02:09:24.03	27.71	24.18	-43.7	-44.8	26.4	6.03e-01	0	41	0	288882688	58	4227
2026-01-30 02:09:28.06	27.89	24.89	-43.5	-44.6	26.6	6.04e-01	0	41	0	296222720	58	4128
2026-01-30 02:09:32.08	28.07	25.61	-43.5	-44.7	26.5	6.02e-01	0	41	0	304087040	58	4153
2026-01-30 02:09:36.11	28.27	26.36	-43.5	-44.6	26.5	6.03e-01	0	41	0	311427072	58	4128
2026-01-30 02:09:40.15	28.47	27.14	-43.8	-45.0	26.3	6.05e-01	0	41	0	319291392	58	4307
2026-01-30 02:09:44.17	28.69	27.93	-43.3	-44.4	26.8	6.03e-01	0	41	0	326631424	58	4015
2026-01-30 02:09:48.21	28.92	28.76	-43.1	-44.2	27.0	6.03e-01	0	41	0	333971456	58	3927
2026-01-30 02:09:52.24	29.15	29.61	-42.9	-44.0	27.2	6.02e-01	0	41	0	341835776	57	4059
2026-01-30 02:09:56.27	29.40	30.48	-42.7	-43.7	27.4	6.02e-01	0	41	0	349175808	57	3951
2026-01-30 02:10:00.30	29.67	31.39	-43.2	-44.3	27.0	6.04e-01	0	41	0	357040128	57	4213
2026-01-30 02:10:04.33	29.94	32.33	-43.0	-44.1	27.1	6.01e-01	0	41	0	364380160	57	4132
2026-01-30 02:10:08.36	30.24	33.29	-43.4	-44.5	26.8	6.01e-01	0	41	0	372244480	57	4303
2026-01-30 02:10:12.38	30.55	34.29	-43.6	-44.7	26.7	6.00e-01	0	41	0	379584512	57	4424
2026-01-30 02:10:16.40	30.88	35.32	-44.2	-45.3	26.1	6.03e-01	0	41	0	386924544	58	4476
2026-01-30 02:10:20.44	31.24	36.40	-44.6	-45.8	25.8	6.02e-01	0	41	0	394788864	59	4445
2026-01-30 02:10:24.47	31.61	37.51	-44.7	-45.9	25.8	6.03e-01	0	41	0	402128896	60	4279
2026-01-30 02:10:28.49	32.01	38.65	-45.4	-46.7	25.0	6.04e-01	0	41	0	409468928	61	4412
2026-01-30 02:10:32.52	32.45	39.84	-45.1	-46.3	25.4	6.03e-01	0	41	0	417333248	61	4214
2026-01-30 02:10:36.56	32.91	41.08	-45.0	-46.2	25.5	6.02e-01	0	41	0	424673280	61	4190
2026-01-30 02:10:40.58	33.42	42.35	-44.1	-45.3	26.3	6.01e-01	0	41	0	432537600	60	3969
2026-01-30 02:10:44.61	33.96	43.67	-43.5	-44.6	26.9	6.01e-01	0	41	0	439877632	59	3908
2026-01-30 02:10:48.64	34.55	45.04	-43.4	-44.5	26.9	6.02e-01	0	41	0	447741952	58	4060
2026-01-30 02:10:52.68	35.20	46.46	-43.2	-44.3	27.3	6.01e-01	0	41	0	455081984	57	4194
2026-01-30 02:10:56.70	35.90	47.92	-43.2	-44.3	27.2	6.02e-01	0	41	0	462422016	57	4200
2026-01-30 02:11:00.74	36.68	49.44	-43.0	-44.1	27.4	6.04e-01	0	41	0	470286336	57	4104
2026-01-30 02:11:04.76	37.53	51.00	-43.0	-44.0	27.4	6.04e-01	0	41	0	477626368	57	4081
2026-01-30 02:11:08.79	38.49	52.61	-42.5	-43.6	27.9	6.01e-01	0	41	0	485490688	57	3869
2026-01-30 02:11:12.81	39.55	54.26	-42.3	-43.3	28.1	6.00e-01	0	41	0	492830720	56	3961
2026-01-30 02:11:16.84	40.74	55.97	-42.9	-43.9	27.4	6.02e-01	0	41	0	500695040	56	4290
2026-01-30 02:11:20.87	42.09	57.72	-43.7	-44.8	26.8	6.03e-01	0	41	0	508035072	58	4228
2026-01-30 02:11:24.90	43.63	59.51	-44.5	-45.7	26.0	6.03e-01	0	41	0	515375104	59	4413
2026-01-30 02:11:28.92	45.40	61.33	-45.2	-46.4	25.5	6.02e-01	0	41	0	523239424	61	4287
2026-01-30 02:11:32.94	47.44	63.17	-46.4	-47.8	24.2	6.02e-01	0	41	0	530579456	63	4474
2026-01-30 02:11:36.97	49.83	65.04	-46.9	-48.4	23.7	6.03e-01	0	41	0	537919488	65	4252
2026-01-30 02:11:41.01	52.67	66.91	-47.7	-49.3	22.9	6.04e-01	0	41	0	545783808	66	4444
2026-01-30 02:11:45.02	56.02	68.75	-49.1	-51.0	21.2	6.03e-01	0	41	0	553123840	68	4839
2026-01-30 02:11:49.05	60.08	70.56	-49.0	-50.9	21.2	6.04e-01	0	41	0	560988160	69	4509
2026-01-30 02:11:53.07	64.99	72.29	-47.7	-49.3	22.9	6.05e-01	0	41	0	568328192	67	4215
2026-01-30 02:11:57.10	71.01	73.89	-46.0	-47.3	24.7	6.01e-01	0	41	0	575668224	64	3991
2026-01-30 02:12:01.13	78.32	75.31	-46.4	-47.8	24.3	6.03e-01	0	41	0	583532544	63	4467
2026-01-30 02:12:05.15	87.07	76.46	-46.0	-47.3	24.8	6.03e-01	0	41	0	590872576	63	4199
2026-01-30 02:12:09.18	97.25	77.27	-45.2	-46.4	25.6	6.03e-01	0	41	0	598736896	61	4262
2026-01-30 02:12:13.21	108.44	77.64	-45.1	-46.3	25.7	6.01e-01	0	41	0	606076928	61	4238
2026-01-30 02:12:17.23	119.86	77.54	-45.3	-46.6	25.5	6.03e-01	0	41	0	613941248	62	4102
2026-01-30 02:12:21.25	130.67	76.97	-45.2	-46.4	25.6	6.01e-01	0	41	0	621281280	62	4028
2026-01-30 02:12:25.28	140.28	76.01	-45.5	-46.8	25.3	6.02e-01	0	41	0	628621312	61	4457
2026-01-30 02:12:29.31	148.42	74.73	-46.2	-47.5	24.6	6.04e-01	0	41	0	635961344	63	4331
2026-01-30 02:12:33.33	155.14	73.22	-46.2	-47.5	24.6	6.01e-01	0	41	0	643825664	63	4306
2026-01-30 02:12:37.36	160.66	71.55	-46.1	-47.4	24.8	6.04e-01	0	41	0	651165696	63	4270
2026-01-30 02:12:41.38	165.19	69.79	-46.7	-48.1	24.0	6.02e-01	0	41	0	659030016	64	4347
2026-01-30 02:12:45.41	168.93	67.96	-47.0	-48.5	23.6	6.01e-01	0	41	0	666370048	64	4557
2026-01-30 02:12:49.43	172.05	66.10	-46.5	-47.9	24.2	6.04e-01	0	41	0	674234368	64	4267
2026-01-30 02:12:53.45	174.67	64.23	-45.9	-47.2	24.9	6.03e-01	0	41	0	681574400	63	4175
2026-01-30 02:12:57.48	176.91	62.37	-45.3	-46.5	25.5	6.03e-01	0	41	0	688914432	62	4068
2026-01-30 02:13:01.51	178.83	60.52	-44.8	-46.0	26.0	6.01e-01	0	41	0	696778752	60	4324
2026-01-30 02:13:05.54	180.50	58.71	-44.1	-45.2	26.6	6.02e-01	0	41	0	704118784	60	3952
2026-01-30 02:13:09.55	181.94	56.94	-44.0	-45.1	26.7	6.02e-01	0	41	0	711983104	59	4109
2026-01-30 02:13:13.57	183.22	55.21	-43.7	-44.8	26.8	6.02e-01	0	41	0	719323136	58	4219
2026-01-30 02:13:17.61	184.36	53.51	-42.9	-44.0	27.5	6.00e-01	0	41	0	726663168	57	4067
2026-01-30 02:13:21.63	185.37	51.88	-43.1	-44.2	27.3	6.04e-01	0	41	0	734527488	57	4180
2026-01-30 02:13:25.66	186.28	50.28	-43.3	-44.4	27.0	6.03e-01	0	41	0	741867520	57	4246
2026-01-30 02:13:29.69	187.10	48.73	-43.8	-45.0	26.6	6.03e-01	0	41	0	749207552	58	4297
2026-01-30 02:13:33.72	187.85	47.24	-43.6	-44.8	26.8	6.02e-01	0	41	0	757071872	58	4197
2026-01-30 02:13:37.74	188.52	45.80	-43.7	-44.8	26.8	6.03e-01	0	41	0	764411904	58	4201
2026-01-30 02:13:41.76	189.14	44.40	-43.8	-44.9	26.7	6.02e-01	0	41	0	772276224	58	4256
2026-01-30 02:13:45.79	189.71	43.05	-43.6	-44.7	26.8	6.03e-01	0	41	0	779616256	58	4185
2026-01-30 02:13:49.82	190.24	41.74	-44.3	-45.5	26.1	6.04e-01	0	41	0	787480576	59	4330
2026-01-30 02:13:53.86	190.73	40.48	-44.5	-45.7	25.9	6.05e-01	0	41	0	794820608	59	4424
2026-01-30 02:13:57.89	191.18	39.26	-44.4	-45.6	26.0	6.04e-01	0	41	0	802160640	59	4368
2026-01-30 02:14:01.91	191.59	38.09	-44.6	-45.8	25.7	6.03e-01	0	41	0	810024960	60	4234
2026-01-30 02:14:05.95	191.99	36.95	-44.1	-45.3	26.3	6.02e-01	0	41	0	817364992	59	4195
2026-01-30 02:14:09.97	192.35	35.86	-44.1	-45.3	26.2	6.01e-01	0	41	0	825229312	59	4204
2026-01-30 02:14:14.01	192.70	34.80	-43.4	-44.5	26.8	6.03e-01	0	41	0	832569344	58	4093
2026-01-30 02:14:18.04	193.02	33.77	-43.3	-44.4	27.0	6.02e-01	0	41	0	840433664	58	4023
2026-01-30 02:14:22.06	193.32	32.79	-42.7	-43.8	27.5	6.02e-01	0	41	0	847773696	57	3959
2026-01-30 02:14:26.09	193.61	31.83	-42.5	-43.6	27.7	6.04e-01	0	41	0	855113728	56	4105
2026-01-30 02:14:30.11	193.88	30.91	-42.3	-43.3	27.8	6.01e-01	0	41	0	862978048	56	3987
2026-01-30 02:14:34.14	194.13	30.01	-42.6	-43.7	27.5	6.03e-01	0	41	0	870318080	56	4150
2026-01-30 02:14:38.16	194.38	29.15	-42.6	-43.7	27.5	6.03e-01	0	41	0	877658112	56	4156
2026-01-30 02:14:42.19	194.61	28.31	-42.6	-43.7	27.5	6.01e-01	0	41	0	885522432	56	4164
2026-01-30 02:14:46.22	194.83	27.50	-43.0	-44.1	27.2	6.01e-01	0	41	0	892862464	56	4357
2026-01-30 02:14:50.26	195.04	26.70	-43.2	-44.3	26.9	6.03e-01	0	41	0	900726784	57	4208
2026-01-30 02:14:54.28	195.24	25.94	-43.3	-44.4	26.8	6.02e-01	0	41	0	908066816	57	4267
2026-01-30 02:14:58.32	195.43	25.20	-43.5	-44.7	26.6	6.03e-01	0	41	0	915931136	57	4412
2026-01-30 02:15:02.34	195.61	24.48	-43.8	-44.9	26.3	6.06e-01	0	41	0	923271168	58	4289
2026-01-30 02:15:06.37	195.79	23.78	-43.6	-44.7	26.5	6.02e-01	0	41	0	930611200	58	4173
2026-01-30 02:15:10.40	195.95	23.10	-43.6	-44.8	26.4	6.00e-01	0	41	0	938475520	58	4206
2026-01-30 02:15:14.43	196.12	22.44	-43.5	-44.6	26.6	6.01e-01	0	41	0	945815552	58	4105
2026-01-30 02:15:18.46	196.27	21.79	-43.6	-44.7	26.3	6.01e-01	0	41	0	953679872	58	4177
2026-01-30 02:15:22.49	196.42	21.16	-43.6	-44.8	26.2	6.02e-01	0	41	0	961019904	58	4195
2026-01-30 02:15:26.52	196.56	20.55	-43.2	-44.3	26.7	6.05e-01	0	41	0	968884224	58	4004
2026-01-30 02:15:30.54	196.70	19.96	-43.3	-44.4	26.6	6.02e-01	0	41	0	976224256	58	4041
2026-01-30 02:15:34.57	196.84	19.38	-43.2	-44.3	26.8	6.03e-01	0	41	0	983564288	58	3968
2026-01-30 02:15:38.60	196.96	18.82	-43.2	-44.3	26.7	6.03e-01	0	41	0	990904320	58	3992
2026-01-30 02:15:42.62	197.09	18.27	-43.2	-44.3	26.7	6.02e-01	0	41	0	998768640	58	3988
2026-01-30 02:15:46.65	197.21	17.73	-43.2	-44.3	26.6	6.03e-01	0	41	0	1006108672	58	3984
2026-01-30 02:15:50.67	197.33	17.20	-43.1	-44.2	26.7	6.00e-01	0	41	0	1013972992	58	3951
2026-01-30 02:15:54.70	197.44	16.69	-43.1	-44.2	26.7	6.03e-01	0	41	0	1021313024	58	3943
2026-01-30 02:15:58.74	197.55	16.19	-43.0	-44.1	26.8	6.02e-01	0	41	0	1029177344	58	3904
2026-01-30 02:16:02.77	197.66	15.70	-43.0	-44.1	26.7	6.03e-01	0	41	0	1036517376	57	4129
2026-01-30 02:16:06.79	197.76	15.22	-43.1	-44.2	26.6	6.00e-01	0	41	0	1043857408	57	4181
2026-01-30 02:16:10.81	197.86	14.75	-43.0	-44.1	26.6	6.03e-01	0	41	0	1051721728	57	4145
2026-01-30 02:16:14.83	197.96	14.29	-43.1	-44.2	26.6	6.04e-01	0	41	0	1059061760	57	4160
2026-01-30 02:16:18.86	198.05	13.84	-43.1	-44.2	26.5	6.03e-01	0	41	0	1066926080	57	4164
2026-01-30 02:16:22.88	198.14	13.40	-43.0	-44.2	26.6	6.03e-01	0	41	0	1074266112	57	4150
2026-01-30 02:16:26.91	198.23	12.96	-43.3	-44.4	26.4	6.01e-01	0	41	0	1081606144	57	4260
2026-01-30 02:16:30.94	198.32	12.54	-43.1	-44.2	26.6	6.04e-01	0	41	0	1089470464	57	4153
2026-01-30 02:16:34.96	198.41	12.12	-43.1	-44.2	26.5	6.05e-01	0	41	0	1096810496	57	4177
2026-01-30 02:16:38.99	198.49	11.71	-43.2	-44.4	26.3	6.04e-01	0	41	0	1104150528	57	4248
2026-01-30 02:16:43.02	198.57	11.31	-43.3	-44.4	26.3	6.05e-01	0	41	0	1112014848	57	4260
2026-01-30 02:16:47.04	198.65	10.92	-43.4	-44.5	26.2	6.04e-01	0	41	0	1119354880	57	4331
2026-01-30 02:16:51.07	198.73	10.53	-43.5	-44.7	26.0	6.03e-01	0	41	0	1127219200	57	4400
2026-01-30 02:16:55.10	198.80	10.15	-43.5	-44.7	25.9	6.04e-01	0	41	0	1134559232	57	4416
2026-01-30 02:16:59.13	198.88	9.77	-43.8	-45.0	25.7	6.02e-01	0	41	0	1142423552	58	4320
2026-01-30 02:17:03.15	198.95	9.40	-43.7	-44.9	25.8	6.01e-01	0	41	0	1149763584	58	4255
2026-01-30 02:17:07.18	199.02	9.04	-43.8	-45.0	25.6	6.02e-01	0	41	0	1157103616	58	4303
2026-01-30 02:17:11.19	199.09	8.69	-44.0	-45.2	25.4	6.04e-01	0	41	0	1164967936	58	4432
2026-01-30 02:17:15.21	199.16	8.34	-44.1	-45.4	25.2	6.04e-01	0	41	0	1172307968	58	4518
2026-01-30 02:17:19.24	199.22	7.99	-44.2	-45.4	25.1	6.01e-01	0	41	0	1180172288	59	4291
2026-01-30 02:17:23.26	199.29	7.65	-44.3	-45.5	25.0	6.05e-01	0	41	0	1187512320	59	4325
2026-01-30 02:17:27.30	199.35	7.31	-44.4	-45.7	24.8	6.02e-01	0	41	0	1194852352	59	4405
2026-01-30 02:17:31.32	199.42	6.98	-44.6	-46.0	24.6	6.03e-01	0	41	0	1202716672	60	4295
2026-01-30 02:17:35.34	199.48	6.66	-44.7	-46.0	24.5	6.05e-01	0	41	0	1210056704	60	4329
2026-01-30 02:17:39.36	199.54	6.34	-44.6	-46.0	24.5	6.02e-01	0	41	0	1217396736	60	4304
2026-01-30 02:17:43.39	199.60	6.02	-44.9	-46.3	24.2	6.02e-01	0	41	0	1225261056	60	4455
2026-01-30 02:17:47.42	199.65	5.71	-45.0	-46.4	23.9	6.03e-01	0	41	0	1232601088	60	4520
2026-01-30 02:17:51.44	199.71	5.40	-45.1	-46.5	23.9	6.02e-01	0	41	0	1240465408	60	4559
2026-01-30 02:17:55.47	199.77	5.09	-45.3	-46.8	23.6	6.03e-01	0	41	0	1247805440	61	4447
2026-01-30 02:17:59.49	199.82	4.79	-54.7	-72.5	3.8	7.48e-01	0	41	104	1249902592	79	30549
2026-01-30 02:18:03.51	199.88	4.50	-55.2	-72.8	3.8	7.43e-01	0	41	104	1249902592	80	29996
2026-01-30 02:18:07.54	199.93	4.20	-55.4	-73.3	3.8	7.45e-01	0	41	104	1249902592	81	29737
2026-01-30 02:18:11.56	199.98	3.91	-55.6	-73.4	3.8	7.41e-01	0	41	104	1249902592	81	30190
2026-01-30 02:18:15.60	200.04	3.63	-55.6	-73.5	3.8	7.47e-01	0	41	104	1249902592	81	30419
2026-01-30 02:18:19.61	200.09	3.34	-55.6	-73.4	3.8	7.47e-01	0	41	104	1249902592	81	30074
2026-01-30 02:18:23.65	200.14	3.06	-55.1	-73.0	3.8	7.47e-01	0	41	104	1249902592	81	28692
2026-01-30 02:18:27.69	200.19	2.78	-54.7	-72.5	3.8	7.44e-01	0	41	104	1249902592	81	27262
2026-01-30 02:18:31.73	200.24	2.51	-54.7	-72.5	3.8	7.44e-01	0	41	104	1249902592	81	27112
2026-01-30 02:18:35.75	200.28	2.24	-54.6	-72.4	3.8	7.49e-01	0	41	104	1249902592	81	27044
2026-01-30 02:18:39.79	200.33	1.97	-54.6	-72.4	3.8	7.48e-01	0	41	104	1249902592	81	26933

#Closed at: 2026-01-30 02:18:42
#Recorded file [1249 MB]: D:/lorett/data/31041_260130_050546.dat