passes_logs/2026/01/30/R3.2S_Murmansk/R3.2S_Murmansk__20260130_094737_SUOMI_NPP_rec.log

#Pass ID: 20260130_094737_SUOMI NPP
#Satellite: SUOMI NPP
#Configuration: NPP
#almurnet v.1.7.20251203
#Start time: 2026-01-30 09:47:39

#Version: 2.2.20231116
#Station: R3.2S_Murmansk
#Location: 33.079688 lon 68.888172 lat
#TLE: 1 37849U 11061A   26029.48304708  .00000140  00000+0  87283-4 0  9999
#TLE: 2 37849  98.7824 331.4079 0002024  38.4342 321.6978 14.19531488738761

#Time	Az	El	Level	Level2	SNR	BER	BlckErr	Temp	State	Recorded	gain1	gain2
2026-01-30 09:47:39.03	156.27	2.11	-53.9	-68.9	3.8	1.49e+00	0	40	0	0	79	20208
2026-01-30 09:47:42.92	156.30	2.36	-54.1	-69.1	3.8	1.49e+00	0	40	104	0	78	21872
2026-01-30 09:47:46.80	156.33	2.62	-54.0	-69.0	3.8	1.49e+00	0	40	104	0	78	21619
2026-01-30 09:47:50.68	156.37	2.87	-53.9	-68.9	3.8	1.49e+00	0	40	104	0	78	21264
2026-01-30 09:47:54.56	156.40	3.13	-53.6	-68.6	3.8	1.49e+00	0	40	104	0	78	20657
2026-01-30 09:47:58.44	156.43	3.39	-53.3	-68.2	3.8	1.49e+00	0	40	104	0	78	19804
2026-01-30 09:48:02.33	156.46	3.66	-52.8	-67.7	3.8	1.49e+00	0	40	104	0	77	19733
2026-01-30 09:48:06.21	156.50	3.92	-51.7	-63.9	4.1	1.48e+00	0	40	104	0	75	14313
2026-01-30 09:48:10.08	156.53	4.19	-51.0	-57.5	8.1	1.25e-01	0	40	0	5242880	74	7284
2026-01-30 09:48:13.96	156.57	4.46	-49.8	-53.9	11.9	6.74e-04	0	40	0	12582912	71	5721
2026-01-30 09:48:17.83	156.60	4.73	-49.2	-52.7	13.2	3.43e-05	0	40	0	19922944	70	5245
2026-01-30 09:48:21.71	156.64	5.01	-49.7	-53.8	12.1	1.67e-04	0	41	0	27262976	70	5956
2026-01-30 09:48:25.59	156.67	5.29	-51.4	-59.9	4.5	1.48e+00	0	40	104	33554432	74	9606
2026-01-30 09:48:29.47	156.71	5.57	-48.0	-50.5	15.5	0.00e+00	0	40	0	39845888	68	4574
2026-01-30 09:48:33.35	156.75	5.85	-47.9	-50.5	15.5	0.00e+00	0	41	0	47185920	67	4823
2026-01-30 09:48:37.23	156.78	6.14	-47.9	-50.4	15.6	0.00e+00	0	40	0	54525952	67	4763
2026-01-30 09:48:41.10	156.82	6.43	-47.7	-50.0	16.0	0.00e+00	0	41	0	61865984	67	4576
2026-01-30 09:48:44.98	156.86	6.73	-47.5	-49.7	16.3	0.00e+00	0	40	0	69206016	66	4666
2026-01-30 09:48:48.86	156.90	7.03	-47.6	-49.9	16.2	0.00e+00	0	41	0	76546048	66	4799
2026-01-30 09:48:52.74	156.94	7.33	-47.6	-49.8	16.3	0.00e+00	0	41	0	82837504	66	4730
2026-01-30 09:48:56.62	156.98	7.63	-47.6	-49.8	16.3	0.00e+00	0	41	0	90177536	66	4744
2026-01-30 09:49:00.49	157.02	7.94	-47.6	-49.8	16.4	0.00e+00	0	41	0	97517568	66	4739
2026-01-30 09:49:04.37	157.06	8.26	-47.3	-49.3	16.9	0.00e+00	0	41	0	104857600	66	4465
2026-01-30 09:49:08.25	157.10	8.57	-47.2	-49.2	17.1	0.00e+00	0	41	0	112197632	66	4409
2026-01-30 09:49:12.13	157.14	8.89	-47.1	-49.0	17.2	0.00e+00	0	41	0	119537664	66	4335
2026-01-30 09:49:16.02	157.19	9.22	-47.0	-48.9	17.4	0.00e+00	0	41	0	126877696	66	4281
2026-01-30 09:49:19.90	157.23	9.55	-46.9	-48.8	17.5	0.00e+00	0	41	0	134217728	65	4485
2026-01-30 09:49:23.77	157.27	9.88	-46.8	-48.6	17.7	0.00e+00	0	41	0	141557760	65	4382
2026-01-30 09:49:27.65	157.32	10.22	-46.7	-48.5	17.8	0.00e+00	0	41	0	148897792	65	4319
2026-01-30 09:49:31.52	157.36	10.56	-46.5	-48.3	18.1	0.00e+00	0	41	0	156237824	64	4442
2026-01-30 09:49:35.39	157.41	10.91	-46.3	-48.0	18.4	0.00e+00	0	41	0	163577856	64	4310
2026-01-30 09:49:39.27	157.46	11.26	-46.2	-47.8	18.6	0.00e+00	0	41	0	170917888	64	4220
2026-01-30 09:49:43.16	157.51	11.62	-46.0	-47.5	19.0	0.00e+00	0	41	0	178257920	63	4328
2026-01-30 09:49:47.04	157.56	11.99	-45.9	-47.4	19.1	0.00e+00	0	41	0	185597952	63	4276
2026-01-30 09:49:50.92	157.61	12.36	-45.7	-47.2	19.3	0.00e+00	0	41	0	191889408	63	4164
2026-01-30 09:49:54.80	157.66	12.73	-45.5	-46.9	19.6	0.00e+00	0	41	0	199229440	62	4245
2026-01-30 09:49:58.68	157.71	13.11	-45.2	-46.6	19.9	0.00e+00	0	41	0	206569472	62	4100
2026-01-30 09:50:02.54	157.76	13.50	-45.1	-46.4	20.0	0.00e+00	0	41	0	213909504	61	4280
2026-01-30 09:50:06.42	157.81	13.89	-44.7	-46.0	20.5	0.00e+00	0	41	0	221249536	61	4062
2026-01-30 09:50:10.29	157.87	14.29	-44.6	-45.9	20.5	0.00e+00	0	41	0	228589568	61	4027
2026-01-30 09:50:14.18	157.92	14.69	-44.4	-45.5	20.8	0.00e+00	0	41	0	235929600	60	4097
2026-01-30 09:50:18.06	157.98	15.11	-44.3	-45.4	20.9	0.00e+00	0	41	0	243269632	60	4049
2026-01-30 09:50:21.94	158.04	15.53	-44.2	-45.4	21.1	0.00e+00	0	41	0	250609664	60	4027
2026-01-30 09:50:25.84	158.10	15.96	-44.3	-45.4	21.0	0.00e+00	0	41	0	257949696	60	4042
2026-01-30 09:50:29.72	158.16	16.39	-44.2	-45.4	21.0	0.00e+00	0	41	0	265289728	60	4025
2026-01-30 09:50:33.60	158.22	16.83	-44.2	-45.3	21.1	0.00e+00	0	41	0	272629760	60	3989
2026-01-30 09:50:37.56	158.29	17.29	-44.2	-45.5	21.0	0.00e+00	0	41	0	279969792	59	4337
2026-01-30 09:50:41.57	158.36	17.77	-44.0	-45.3	21.2	0.00e+00	0	41	0	287309824	59	4230
2026-01-30 09:50:45.55	158.42	18.25	-43.9	-45.2	21.3	0.00e+00	0	41	0	294649856	59	4168
2026-01-30 09:50:49.52	158.50	18.74	-44.2	-45.6	21.1	0.00e+00	0	41	0	301989888	59	4341
2026-01-30 09:50:53.54	158.57	19.24	-44.5	-45.8	20.8	0.00e+00	0	41	0	310378496	59	4475
2026-01-30 09:50:57.57	158.64	19.76	-44.4	-45.7	20.9	0.00e+00	0	41	0	317718528	59	4424
2026-01-30 09:51:01.60	158.72	20.29	-44.3	-45.6	21.1	0.00e+00	0	41	0	325058560	59	4380
2026-01-30 09:51:05.63	158.80	20.83	-44.5	-45.8	20.8	0.00e+00	0	41	0	332398592	59	4486
2026-01-30 09:51:09.66	158.88	21.38	-44.5	-45.9	20.6	0.00e+00	0	41	0	339738624	60	4261
2026-01-30 09:51:13.68	158.97	21.94	-44.8	-46.2	20.3	0.00e+00	0	41	0	347078656	60	4437
2026-01-30 09:51:17.71	159.05	22.52	-45.1	-46.6	20.0	0.00e+00	0	41	0	355467264	61	4347
2026-01-30 09:51:21.74	159.14	23.11	-45.3	-46.9	19.7	0.00e+00	0	41	0	362807296	61	4515
2026-01-30 09:51:25.77	159.24	23.71	-45.6	-47.2	19.3	0.00e+00	0	41	0	370147328	61	4704
2026-01-30 09:51:29.79	159.33	24.32	-45.6	-47.2	19.4	0.00e+00	0	41	0	377487360	62	4433
2026-01-30 09:51:33.82	159.43	24.96	-45.6	-47.2	19.5	0.00e+00	0	41	0	384827392	62	4407
2026-01-30 09:51:37.85	159.53	25.60	-45.9	-47.6	19.1	0.00e+00	0	41	0	393216000	62	4613
2026-01-30 09:51:41.88	159.64	26.27	-46.2	-48.0	18.7	0.00e+00	0	41	0	400556032	63	4566
2026-01-30 09:51:45.91	159.75	26.95	-46.1	-47.9	18.9	0.00e+00	0	41	0	407896064	63	4511
2026-01-30 09:51:49.94	159.86	27.65	-45.9	-47.5	19.3	0.00e+00	0	41	0	415236096	63	4328
2026-01-30 09:51:53.97	159.98	28.36	-46.1	-47.7	19.1	0.00e+00	0	41	0	423624704	63	4434
2026-01-30 09:51:57.99	160.11	29.09	-46.0	-47.7	19.1	0.00e+00	0	41	0	430964736	63	4404
2026-01-30 09:52:02.00	160.23	29.84	-45.2	-46.7	19.9	0.00e+00	0	41	0	438304768	62	4181
2026-01-30 09:52:06.04	160.37	30.62	-46.1	-47.9	18.9	0.00e+00	0	41	0	445644800	63	4513
2026-01-30 09:52:10.07	160.51	31.42	-46.3	-48.2	18.6	0.00e+00	0	41	0	452984832	63	4662
2026-01-30 09:52:14.10	160.65	32.23	-46.1	-47.8	19.0	0.00e+00	0	41	0	460324864	63	4459
2026-01-30 09:52:18.13	160.81	33.07	-47.0	-49.0	17.7	0.00e+00	0	41	0	468713472	64	4840
2026-01-30 09:52:22.15	160.97	33.94	-46.2	-48.0	18.7	0.00e+00	0	41	0	476053504	63	4566
2026-01-30 09:52:26.19	161.14	34.83	-45.7	-47.3	19.4	0.00e+00	0	41	0	483393536	63	4240
2026-01-30 09:52:30.22	161.31	35.74	-44.5	-45.8	20.7	0.00e+00	0	41	0	490733568	61	4000
2026-01-30 09:52:34.25	161.50	36.68	-44.1	-45.4	21.3	0.00e+00	0	41	0	499122176	59	4275
2026-01-30 09:52:38.28	161.70	37.65	-43.9	-45.2	21.6	0.00e+00	0	41	0	506462208	59	4152
2026-01-30 09:52:42.30	161.91	38.64	-43.6	-44.8	21.9	0.00e+00	0	41	0	513802240	59	3995
2026-01-30 09:52:46.33	162.13	39.67	-44.0	-45.3	21.5	0.00e+00	0	41	0	521142272	59	4199
2026-01-30 09:52:50.35	162.36	40.73	-44.5	-45.9	21.0	0.00e+00	0	41	0	528482304	59	4525
2026-01-30 09:52:54.37	162.61	41.81	-45.1	-46.7	20.0	0.00e+00	0	41	0	536870912	61	4401
2026-01-30 09:52:58.39	162.87	42.93	-45.3	-47.0	19.8	0.00e+00	0	41	0	544210944	61	4567
2026-01-30 09:53:02.42	163.16	44.09	-44.8	-46.3	20.4	0.00e+00	0	41	0	551550976	61	4199
2026-01-30 09:53:06.45	163.46	45.27	-44.4	-45.8	21.0	0.00e+00	0	41	0	558891008	59	4472
2026-01-30 09:53:10.48	163.79	46.50	-45.0	-46.5	20.2	0.00e+00	0	41	0	566231040	60	4577
2026-01-30 09:53:14.51	164.14	47.76	-46.6	-48.4	18.5	0.00e+00	0	41	0	573571072	63	4795
2026-01-30 09:53:18.54	164.52	49.06	-46.8	-48.9	17.9	0.00e+00	0	41	0	581959680	64	4774
2026-01-30 09:53:22.56	164.94	50.39	-44.4	-45.7	20.9	0.00e+00	0	41	0	589299712	60	4191
2026-01-30 09:53:26.59	165.39	51.76	-43.0	-44.1	22.4	0.00e+00	0	41	0	596639744	57	4101
2026-01-30 09:53:30.62	165.88	53.18	-43.9	-45.3	21.6	0.00e+00	0	41	0	603979776	58	4444
2026-01-30 09:53:34.65	166.43	54.63	-43.7	-44.9	21.9	0.00e+00	0	41	0	612368384	58	4282
2026-01-30 09:53:38.68	167.03	56.12	-42.8	-43.9	22.8	0.00e+00	0	41	0	619708416	57	4033
2026-01-30 09:53:42.71	167.69	57.64	-43.1	-44.2	22.6	0.00e+00	0	41	0	627048448	56	4439
2026-01-30 09:53:46.74	168.44	59.21	-43.4	-44.5	22.2	0.00e+00	0	41	0	634388480	57	4340
2026-01-30 09:53:50.77	169.28	60.81	-42.9	-44.0	22.7	0.00e+00	0	41	0	641728512	56	4297
2026-01-30 09:53:54.80	170.24	62.44	-43.2	-44.3	22.4	0.00e+00	0	41	0	650117120	58	3966
2026-01-30 09:53:58.82	171.32	64.11	-42.5	-43.5	23.0	0.00e+00	0	41	0	657457152	55	4338
2026-01-30 09:54:02.85	172.58	65.80	-44.7	-46.0	20.7	0.00e+00	0	41	0	664797184	60	4324
2026-01-30 09:54:06.88	174.05	67.52	-44.3	-45.5	21.6	0.00e+00	0	41	0	672137216	59	4305
2026-01-30 09:54:10.91	175.79	69.26	-46.6	-48.2	18.9	0.00e+00	0	41	0	679477248	64	4416
2026-01-30 09:54:14.94	177.86	71.01	-46.7	-48.3	18.8	0.00e+00	0	41	0	687865856	64	4468
2026-01-30 09:54:18.97	180.39	72.77	-45.4	-46.7	20.4	0.00e+00	0	41	0	695205888	62	4181
2026-01-30 09:54:22.99	183.50	74.50	-45.5	-46.9	20.2	0.00e+00	0	41	0	702545920	63	4014
2026-01-30 09:54:27.03	187.45	76.22	-47.2	-49.0	18.2	0.00e+00	0	41	0	709885952	66	4310
2026-01-30 09:54:31.05	192.50	77.86	-50.1	-53.9	13.5	1.37e-05	0	41	0	717225984	71	5715
2026-01-30 09:54:35.08	199.13	79.41	-47.9	-50.0	17.2	0.00e+00	0	41	0	725614592	67	4555
2026-01-30 09:54:39.11	207.92	80.78	-47.8	-49.9	17.3	0.00e+00	0	41	0	732954624	67	4510
2026-01-30 09:54:43.13	219.41	81.87	-45.4	-46.7	20.4	0.00e+00	0	41	0	740294656	62	4169
2026-01-30 09:54:47.16	233.76	82.56	-45.1	-46.5	20.6	0.00e+00	0	41	0	747634688	62	4062
2026-01-30 09:54:51.18	249.79	82.71	-44.6	-45.9	21.3	0.00e+00	0	41	0	754974720	61	4005
2026-01-30 09:54:55.22	265.34	82.30	-44.6	-45.8	21.7	0.00e+00	0	41	0	763363328	59	4444
2026-01-30 09:54:59.25	278.44	81.41	-47.4	-49.2	17.8	0.00e+00	0	41	0	770703360	65	4683
2026-01-30 09:55:03.28	288.64	80.17	-46.2	-47.7	19.5	0.00e+00	0	41	0	778043392	64	4175
2026-01-30 09:55:07.30	296.34	78.72	-46.3	-47.8	19.6	0.00e+00	0	41	0	785383424	64	4205
2026-01-30 09:55:11.33	302.18	77.12	-45.7	-47.0	20.4	0.00e+00	0	41	0	792723456	63	4093
2026-01-30 09:55:15.36	306.68	75.44	-45.8	-47.2	20.3	0.00e+00	0	41	0	801112064	63	4154
2026-01-30 09:55:19.38	310.20	73.72	-44.7	-45.8	21.4	0.00e+00	0	41	0	808452096	60	4233
2026-01-30 09:55:23.42	313.04	71.97	-45.8	-47.2	20.1	0.00e+00	0	41	0	815792128	63	4186
2026-01-30 09:55:27.45	315.34	70.22	-48.0	-50.1	17.4	0.00e+00	0	41	0	823132160	68	4341
2026-01-30 09:55:31.47	317.24	68.48	-49.9	-53.0	14.0	7.00e-07	0	41	0	830472192	71	5154
2026-01-30 09:55:35.51	318.85	66.75	-44.0	-45.0	22.3	0.00e+00	0	41	0	838860800	59	4094
2026-01-30 09:55:39.54	320.22	65.04	-43.8	-44.9	22.3	0.00e+00	0	41	0	846200832	59	4020
2026-01-30 09:55:43.55	321.39	63.37	-44.3	-45.5	21.5	0.00e+00	0	41	0	853540864	60	4086
2026-01-30 09:55:47.58	322.41	61.72	-44.7	-46.0	21.0	0.00e+00	0	41	0	860880896	60	4318
2026-01-30 09:55:51.60	323.31	60.11	-43.4	-44.6	22.4	0.00e+00	0	41	0	868220928	57	4343
2026-01-30 09:55:55.63	324.11	58.53	-44.7	-46.1	20.7	0.00e+00	0	41	0	876609536	60	4377
2026-01-30 09:55:59.66	324.82	56.99	-43.5	-44.6	22.4	0.00e+00	0	41	0	883949568	59	3905
2026-01-30 09:56:03.69	325.45	55.48	-44.0	-45.3	21.7	0.00e+00	0	41	0	891289600	59	4194
2026-01-30 09:56:07.71	326.02	54.02	-44.7	-46.1	20.8	0.00e+00	0	41	0	898629632	61	4113
2026-01-30 09:56:11.74	326.55	52.59	-46.0	-47.7	19.2	0.00e+00	0	42	0	905969664	63	4407
2026-01-30 09:56:15.77	327.02	51.20	-44.9	-46.3	20.7	0.00e+00	0	41	0	914358272	60	4480
2026-01-30 09:56:19.80	327.45	49.84	-45.9	-47.5	19.5	0.00e+00	0	41	0	921698304	63	4314
2026-01-30 09:56:23.82	327.85	48.53	-45.0	-46.4	20.5	0.00e+00	0	41	0	929038336	61	4259
2026-01-30 09:56:27.85	328.22	47.25	-49.0	-52.5	14.6	0.00e+00	0	41	0	936378368	68	5787
2026-01-30 09:56:31.87	328.56	46.02	-44.9	-46.3	20.6	0.00e+00	0	41	0	943718400	61	4230
2026-01-30 09:56:35.90	328.88	44.81	-47.4	-49.7	17.4	0.00e+00	0	41	0	952107008	65	4958
2026-01-30 09:56:39.93	329.18	43.64	-46.5	-48.5	18.5	0.00e+00	0	41	0	959447040	64	4563
2026-01-30 09:56:43.95	329.45	42.51	-44.3	-45.6	21.3	0.00e+00	0	41	0	966787072	59	4351
2026-01-30 09:56:47.99	329.71	41.40	-44.3	-45.6	21.3	0.00e+00	0	41	0	974127104	59	4373
2026-01-30 09:56:52.01	329.95	40.33	-45.4	-46.9	19.9	0.00e+00	0	41	0	981467136	61	4542
2026-01-30 09:56:56.04	330.18	39.29	-43.8	-45.0	22.0	0.00e+00	0	41	0	989855744	59	4060
2026-01-30 09:57:00.07	330.40	38.28	-46.3	-48.1	18.9	0.00e+00	0	41	0	997195776	63	4618
2026-01-30 09:57:04.10	330.60	37.30	-49.1	-52.6	14.4	7.00e-07	0	41	0	1004535808	69	5522
2026-01-30 09:57:08.13	330.80	36.35	-45.4	-46.9	19.9	0.00e+00	0	41	0	1011875840	62	4278
2026-01-30 09:57:12.15	330.98	35.43	-44.8	-46.1	20.7	0.00e+00	0	41	0	1019215872	60	4386
2026-01-30 09:57:16.18	331.15	34.53	-44.6	-45.9	20.8	0.00e+00	0	41	0	1027604480	60	4265
2026-01-30 09:57:20.21	331.32	33.65	-47.7	-50.0	17.0	0.00e+00	0	41	0	1034944512	65	5116
2026-01-30 09:57:24.24	331.48	32.80	-48.9	-51.8	15.2	0.00e+00	0	41	0	1042284544	69	5023
2026-01-30 09:57:28.27	331.63	31.97	-46.6	-48.4	18.6	0.00e+00	0	41	0	1049624576	65	4261
2026-01-30 09:57:32.30	331.77	31.17	-45.8	-47.2	19.7	0.00e+00	0	41	0	1056964608	63	4173
2026-01-30 09:57:36.33	331.91	30.38	-45.1	-46.4	20.4	0.00e+00	0	41	0	1065353216	62	4041
2026-01-30 09:57:40.37	332.04	29.62	-44.7	-45.9	20.9	0.00e+00	0	41	0	1072693248	60	4265
2026-01-30 09:57:44.40	332.17	28.88	-45.5	-46.9	20.1	0.00e+00	0	41	0	1080033280	61	4504
2026-01-30 09:57:48.42	332.29	28.15	-47.2	-49.1	17.9	0.00e+00	0	41	0	1087373312	65	4615
2026-01-30 09:57:52.45	332.41	27.45	-47.2	-49.2	17.7	0.00e+00	0	41	0	1095761920	66	4409
2026-01-30 09:57:56.49	332.53	26.76	-45.2	-46.5	20.3	0.00e+00	0	41	0	1103101952	62	4095
2026-01-30 09:58:00.52	332.64	26.09	-44.1	-45.3	21.3	0.00e+00	0	41	0	1110441984	60	3999
2026-01-30 09:58:04.54	332.74	25.43	-44.2	-45.4	21.5	0.00e+00	0	41	0	1117782016	59	4250
2026-01-30 09:58:08.58	332.84	24.79	-44.1	-45.3	21.6	0.00e+00	0	41	0	1125122048	59	4201
2026-01-30 09:58:12.61	332.94	24.17	-43.2	-44.2	22.5	0.00e+00	0	41	0	1132462080	58	3955
2026-01-30 09:58:16.63	333.04	23.56	-42.5	-43.5	23.0	0.00e+00	0	41	0	1140850688	57	3864
2026-01-30 09:58:20.66	333.13	22.97	-42.6	-43.6	22.8	0.00e+00	0	41	0	1148190720	56	4136
2026-01-30 09:58:24.69	333.22	22.39	-43.5	-44.7	22.0	0.00e+00	0	41	0	1155530752	57	4399
2026-01-30 09:58:28.72	333.31	21.82	-44.1	-45.4	21.3	0.00e+00	0	41	0	1162870784	58	4520
2026-01-30 09:58:32.73	333.39	21.26	-43.7	-44.8	21.8	0.00e+00	0	41	0	1170210816	58	4228
2026-01-30 09:58:36.76	333.48	20.72	-43.5	-44.7	21.9	0.00e+00	0	41	0	1178599424	58	4149
2026-01-30 09:58:40.80	333.56	20.19	-43.7	-44.9	21.7	0.00e+00	0	41	0	1185939456	58	4266
2026-01-30 09:58:44.83	333.63	19.66	-43.9	-45.1	21.5	0.00e+00	0	41	0	1193279488	58	4373
2026-01-30 09:58:48.85	333.71	19.15	-44.1	-45.3	21.3	0.00e+00	0	41	0	1200619520	58	4492
2026-01-30 09:58:52.86	333.78	18.66	-44.0	-45.3	21.4	0.00e+00	0	41	0	1209008128	58	4464
2026-01-30 09:58:56.88	333.86	18.17	-44.1	-45.4	21.2	0.00e+00	0	41	0	1216348160	58	4534
2026-01-30 09:59:00.91	333.93	17.69	-44.6	-46.0	20.7	0.00e+00	0	41	0	1223688192	59	4580
2026-01-30 09:59:04.93	334.00	17.21	-44.4	-45.8	20.6	0.00e+00	0	41	0	1231028224	60	4219
2026-01-30 09:59:08.96	334.06	16.75	-44.6	-46.0	20.4	0.00e+00	0	41	0	1238368256	60	4309
2026-01-30 09:59:12.98	334.13	16.30	-44.6	-46.0	20.3	0.00e+00	0	41	0	1245708288	60	4323
2026-01-30 09:59:17.01	334.19	15.85	-44.9	-46.4	20.0	0.00e+00	0	41	0	1254096896	60	4517
2026-01-30 09:59:21.02	334.26	15.42	-45.0	-46.5	19.9	0.00e+00	0	41	0	1261436928	61	4328
2026-01-30 09:59:25.04	334.32	14.99	-45.2	-46.7	19.7	0.00e+00	0	42	0	1268776960	61	4402
2026-01-30 09:59:29.07	334.38	14.56	-45.2	-46.8	19.6	0.00e+00	0	41	0	1276116992	61	4451
2026-01-30 09:59:33.09	334.44	14.15	-45.3	-46.8	19.5	0.00e+00	0	41	0	1283457024	61	4487
2026-01-30 09:59:37.12	334.50	13.74	-45.2	-46.7	19.6	0.00e+00	0	41	0	1291845632	61	4430
2026-01-30 09:59:41.15	334.55	13.34	-45.1	-46.5	19.7	0.00e+00	0	41	0	1299185664	61	4339
2026-01-30 09:59:45.18	334.61	12.94	-45.0	-46.5	19.8	0.00e+00	0	41	0	1306525696	61	4309
2026-01-30 09:59:49.21	334.67	12.55	-44.7	-46.1	20.0	0.00e+00	0	41	0	1313865728	61	4144
2026-01-30 09:59:53.23	334.72	12.17	-44.8	-46.2	20.0	0.00e+00	0	41	0	1321205760	61	4173
2026-01-30 09:59:57.26	334.77	11.79	-44.8	-46.3	19.9	0.00e+00	0	41	0	1329594368	61	4195
2026-01-30 10:00:01.29	334.83	11.42	-45.4	-47.0	19.2	0.00e+00	0	41	0	1336934400	61	4555
2026-01-30 10:00:05.32	334.88	11.06	-45.0	-46.5	19.7	0.00e+00	0	41	0	1344274432	61	4301
2026-01-30 10:00:09.35	334.93	10.70	-44.8	-46.3	19.8	0.00e+00	0	41	0	1351614464	61	4221
2026-01-30 10:00:13.37	334.98	10.34	-44.9	-46.3	19.7	0.00e+00	0	41	0	1358954496	61	4239
2026-01-30 10:00:17.40	335.03	9.99	-44.8	-46.3	19.8	0.00e+00	0	41	0	1367343104	61	4196
2026-01-30 10:00:21.43	335.07	9.65	-44.7	-46.2	19.8	0.00e+00	0	41	0	1374683136	61	4159
2026-01-30 10:00:25.46	335.12	9.31	-44.8	-46.2	19.8	0.00e+00	0	41	0	1382023168	61	4180
2026-01-30 10:00:29.49	335.17	8.97	-44.6	-46.0	19.9	0.00e+00	0	41	0	1389363200	61	4061
2026-01-30 10:00:33.52	335.22	8.64	-44.7	-46.2	19.8	0.00e+00	0	41	0	1396703232	60	4404
2026-01-30 10:00:37.55	335.26	8.31	-44.5	-45.9	20.0	0.00e+00	0	41	0	1405091840	60	4249
2026-01-30 10:00:41.58	335.31	7.99	-44.5	-45.9	20.0	0.00e+00	0	41	0	1412431872	60	4267
2026-01-30 10:00:45.60	335.35	7.67	-44.4	-45.8	20.0	5.30e-06	0	41	0	1419771904	60	4229
2026-01-30 10:00:49.63	335.39	7.36	-44.4	-45.8	20.0	0.00e+00	0	41	0	1427111936	60	4199
2026-01-30 10:00:53.66	335.44	7.04	-44.4	-45.8	20.0	0.00e+00	0	41	0	1435500544	60	4200
2026-01-30 10:00:57.68	335.48	6.74	-44.3	-45.7	20.1	7.00e-07	0	41	0	1442840576	60	4154
2026-01-30 10:01:01.71	335.52	6.43	-44.4	-45.8	19.9	1.50e-06	0	41	0	1450180608	60	4240
2026-01-30 10:01:05.74	335.56	6.13	-44.2	-45.5	20.1	0.00e+00	0	41	0	1457520640	60	4085
2026-01-30 10:01:09.77	335.61	5.84	-44.8	-46.3	19.4	0.00e+00	0	41	0	1464860672	60	4457
2026-01-30 10:01:13.80	335.65	5.54	-44.5	-45.9	19.7	0.00e+00	0	41	0	1473249280	60	4284
2026-01-30 10:01:17.83	335.69	5.25	-44.4	-45.8	19.7	0.00e+00	0	41	0	1480589312	60	4227
2026-01-30 10:01:21.86	335.73	4.97	-52.1	-65.5	3.8	0.00e+00	0	41	104	1487929344	74	18209
2026-01-30 10:01:25.88	335.77	4.68	-53.3	-68.2	3.8	1.49e+00	0	41	104	1487929344	77	21017
2026-01-30 10:01:29.91	335.81	4.40	-53.5	-68.5	3.8	1.49e+00	0	41	104	1487929344	77	21674
2026-01-30 10:01:33.94	335.84	4.12	-53.3	-68.3	3.8	1.49e+00	0	41	104	1487929344	77	21022
2026-01-30 10:01:37.97	335.88	3.85	-53.4	-68.3	3.8	1.49e+00	0	41	104	1487929344	77	21205
2026-01-30 10:01:42.00	335.92	3.57	-53.4	-68.4	3.8	1.49e+00	0	41	104	1487929344	77	21337
2026-01-30 10:01:46.03	335.96	3.30	-53.3	-68.2	3.8	1.49e+00	0	41	104	1487929344	77	20984
2026-01-30 10:01:50.06	336.00	3.04	-53.3	-68.2	3.8	1.49e+00	0	41	104	1487929344	77	20852
2026-01-30 10:01:54.09	336.03	2.77	-53.2	-68.2	3.8	1.49e+00	0	41	104	1487929344	77	20796
2026-01-30 10:01:58.12	336.07	2.51	-53.2	-68.1	3.8	1.49e+00	0	42	104	1487929344	77	20742
2026-01-30 10:02:02.15	336.11	2.25	-53.2	-68.1	3.8	1.49e+00	0	41	104	1487929344	77	20658
2026-01-30 10:02:06.17	336.14	1.99	-53.1	-68.1	3.8	1.49e+00	0	41	104	1487929344	77	20584

#Closed at: 2026-01-30 10:02:08
#Recorded file [1487 MB]: D:/lorett/data/31041_260130_124738.dat