passes_logs/2026/01/30/R3.2S_Murmansk/R3.2S_Murmansk__20260130_013036_SUOMI_NPP_rec.log

#Pass ID: 20260130_013036_SUOMI NPP
#Satellite: SUOMI NPP
#Configuration: NPP
#almurnet v.1.7.20251203
#Start time: 2026-01-30 01:30:37

#Version: 2.2.20231116
#Station: R3.2S_Murmansk
#Location: 33.079688 lon 68.888172 lat
#TLE: 1 37849U 11061A   26029.48304708  .00000140  00000+0  87283-4 0  9999
#TLE: 2 37849  98.7824 331.4079 0002024  38.4342 321.6978 14.19531488738761

#Time	Az	El	Level	Level2	SNR	BER	BlckErr	Temp	State	Recorded	gain1	gain2
2026-01-30 01:30:37.80	27.72	2.11	-53.8	-68.8	3.8	1.49e+00	0	39	0	0	79	19874
2026-01-30 01:30:41.85	27.66	2.37	-54.1	-69.1	3.8	1.49e+00	0	39	104	0	78	21854
2026-01-30 01:30:45.88	27.59	2.63	-54.1	-69.1	3.8	1.49e+00	0	39	104	0	78	21941
2026-01-30 01:30:49.90	27.53	2.90	-54.1	-69.1	3.8	1.49e+00	0	40	104	0	78	21821
2026-01-30 01:30:53.93	27.46	3.16	-53.9	-68.9	3.8	1.49e+00	0	40	104	0	78	21294
2026-01-30 01:30:57.96	27.40	3.43	-53.3	-68.3	3.8	1.49e+00	0	40	104	0	78	19859
2026-01-30 01:31:01.99	27.33	3.70	-52.0	-66.3	3.8	1.49e+00	0	40	104	0	76	17700
2026-01-30 01:31:06.02	27.26	3.97	-51.9	-65.5	3.8	1.49e+00	0	40	104	0	75	17122
2026-01-30 01:31:10.05	27.18	4.25	-51.9	-66.4	3.8	1.49e+00	0	40	104	0	75	19158
2026-01-30 01:31:14.08	27.11	4.52	-51.6	-61.4	5.0	1.05e+00	0	40	0	1048576	75	10696
2026-01-30 01:31:18.11	27.03	4.81	-50.0	-54.8	10.8	1.05e-02	0	40	0	8388608	72	5958
2026-01-30 01:31:22.15	26.96	5.09	-51.9	-65.3	3.8	1.49e+00	0	40	104	14680064	74	17836
2026-01-30 01:31:26.18	26.88	5.38	-47.0	-49.2	16.3	0.00e+00	0	40	0	19922944	64	4962
2026-01-30 01:31:30.21	26.79	5.67	-45.9	-47.7	18.0	0.00e+00	0	40	0	27262976	63	4438
2026-01-30 01:31:34.24	26.71	5.96	-45.7	-47.5	18.2	0.00e+00	0	41	0	35651584	63	4318
2026-01-30 01:31:38.25	26.63	6.26	-45.7	-47.4	18.4	0.00e+00	0	40	0	42991616	63	4265
2026-01-30 01:31:42.29	26.54	6.56	-45.6	-47.3	18.5	0.00e+00	0	40	0	50331648	63	4208
2026-01-30 01:31:46.31	26.45	6.86	-45.3	-46.9	18.9	0.00e+00	0	40	0	57671680	62	4274
2026-01-30 01:31:50.33	26.36	7.16	-45.3	-46.9	19.0	0.00e+00	0	41	0	65011712	62	4272
2026-01-30 01:31:54.36	26.26	7.47	-45.1	-46.7	19.2	0.00e+00	0	41	0	73400320	62	4159
2026-01-30 01:31:58.39	26.17	7.79	-45.0	-46.5	19.4	0.00e+00	0	41	0	80740352	62	4096
2026-01-30 01:32:02.42	26.07	8.11	-44.7	-46.1	19.8	0.00e+00	0	40	0	88080384	61	4143
2026-01-30 01:32:06.44	25.96	8.43	-45.2	-46.8	19.2	0.00e+00	0	41	0	95420416	61	4447
2026-01-30 01:32:10.47	25.86	8.75	-44.8	-46.3	19.7	0.00e+00	0	41	0	102760448	61	4210
2026-01-30 01:32:14.49	25.75	9.08	-44.7	-46.2	19.8	0.00e+00	0	41	0	110100480	61	4156
2026-01-30 01:32:18.52	25.64	9.42	-44.5	-45.9	20.1	0.00e+00	0	41	0	118489088	61	4029
2026-01-30 01:32:22.54	25.53	9.76	-44.4	-45.8	20.2	0.00e+00	0	41	0	125829120	60	4224
2026-01-30 01:32:26.57	25.41	10.10	-44.3	-45.6	20.4	0.00e+00	0	41	0	133169152	60	4134
2026-01-30 01:32:30.60	25.29	10.45	-44.2	-45.5	20.5	0.00e+00	0	41	0	140509184	60	4096
2026-01-30 01:32:34.62	25.17	10.80	-44.5	-45.8	20.5	0.00e+00	0	41	0	148897792	59	4474
2026-01-30 01:32:38.65	25.05	11.16	-44.2	-45.5	20.9	0.00e+00	0	41	0	156237824	59	4294
2026-01-30 01:32:42.67	24.92	11.52	-44.0	-45.2	21.0	0.00e+00	0	41	0	163577856	59	4187
2026-01-30 01:32:46.69	24.78	11.89	-43.9	-45.1	21.2	0.00e+00	0	41	0	170917888	59	4118
2026-01-30 01:32:50.71	24.65	12.26	-43.9	-45.1	21.2	0.00e+00	0	41	0	178257920	59	4138
2026-01-30 01:32:54.74	24.51	12.64	-43.9	-45.1	21.3	0.00e+00	0	41	0	186646528	59	4108
2026-01-30 01:32:58.77	24.36	13.02	-43.8	-45.0	21.3	0.00e+00	0	41	0	193986560	59	4093
2026-01-30 01:33:02.79	24.21	13.41	-43.7	-44.8	21.5	0.00e+00	0	41	0	201326592	59	3998
2026-01-30 01:33:06.81	24.06	13.81	-43.7	-44.9	21.5	0.00e+00	0	41	0	208666624	59	4027
2026-01-30 01:33:10.84	23.90	14.21	-43.8	-45.0	21.4	0.00e+00	0	41	0	216006656	59	4070
2026-01-30 01:33:14.87	23.74	14.62	-43.7	-44.9	21.5	0.00e+00	0	41	0	223346688	59	4033
2026-01-30 01:33:18.89	23.57	15.04	-43.9	-45.1	21.3	0.00e+00	0	41	0	231735296	59	4130
2026-01-30 01:33:22.90	23.40	15.46	-43.8	-45.0	21.5	0.00e+00	0	41	0	239075328	59	4071
2026-01-30 01:33:26.93	23.22	15.89	-43.6	-44.7	21.7	0.00e+00	0	41	0	246415360	59	3944
2026-01-30 01:33:30.96	23.03	16.33	-43.4	-44.5	21.9	0.00e+00	0	41	0	253755392	58	4077
2026-01-30 01:33:34.99	22.84	16.77	-43.4	-44.5	21.9	0.00e+00	0	41	0	261095424	58	4094
2026-01-30 01:33:39.02	22.64	17.23	-43.4	-44.6	21.9	0.00e+00	0	41	0	269484032	58	4099
2026-01-30 01:33:43.04	22.44	17.69	-43.5	-44.7	21.8	0.00e+00	0	41	0	276824064	58	4163
2026-01-30 01:33:47.07	22.23	18.16	-43.5	-44.6	21.9	0.00e+00	0	41	0	284164096	58	4136
2026-01-30 01:33:51.10	22.01	18.64	-43.5	-44.7	21.8	0.00e+00	0	41	0	291504128	58	4154
2026-01-30 01:33:55.13	21.79	19.13	-43.8	-45.0	21.6	0.00e+00	0	41	0	299892736	58	4305
2026-01-30 01:33:59.16	21.55	19.63	-44.1	-45.4	21.3	0.00e+00	0	41	0	307232768	58	4517
2026-01-30 01:34:03.19	21.31	20.13	-44.1	-45.3	21.3	0.00e+00	0	41	0	314572800	59	4221
2026-01-30 01:34:07.21	21.06	20.65	-43.9	-45.0	21.6	0.00e+00	0	41	0	321912832	59	4098
2026-01-30 01:34:11.23	20.80	21.17	-43.8	-45.0	21.7	0.00e+00	0	41	0	329252864	59	4073
2026-01-30 01:34:15.27	20.53	21.71	-44.2	-45.4	21.3	0.00e+00	0	41	0	336592896	59	4272
2026-01-30 01:34:19.29	20.26	22.26	-44.3	-45.6	21.2	0.00e+00	0	41	0	344981504	59	4343
2026-01-30 01:34:23.31	19.97	22.82	-44.4	-45.6	21.2	0.00e+00	0	41	0	352321536	59	4369
2026-01-30 01:34:27.34	19.67	23.39	-43.7	-44.8	21.8	0.00e+00	0	41	0	359661568	59	3976
2026-01-30 01:34:31.37	19.35	23.97	-44.1	-45.4	21.3	0.00e+00	0	41	0	367001600	58	4512
2026-01-30 01:34:35.40	19.03	24.57	-44.3	-45.6	20.9	0.00e+00	0	41	0	374341632	60	4101
2026-01-30 01:34:39.43	18.69	25.18	-44.7	-46.0	20.6	0.00e+00	0	41	0	382730240	60	4327
2026-01-30 01:34:43.45	18.34	25.80	-44.6	-45.9	20.6	0.00e+00	0	41	0	390070272	60	4281
2026-01-30 01:34:47.47	17.97	26.43	-45.1	-46.4	20.2	0.00e+00	0	41	0	397410304	60	4545
2026-01-30 01:34:51.50	17.59	27.08	-45.2	-46.6	20.0	0.00e+00	0	41	0	404750336	61	4386
2026-01-30 01:34:55.54	17.19	27.74	-45.3	-46.6	20.1	0.00e+00	0	41	0	413138944	61	4388
2026-01-30 01:34:59.56	16.77	28.42	-44.4	-45.6	20.9	0.00e+00	0	41	0	420478976	60	4145
2026-01-30 01:35:03.60	16.33	29.11	-44.3	-45.5	20.9	0.00e+00	0	41	0	427819008	60	4094
2026-01-30 01:35:07.63	15.87	29.82	-45.3	-46.6	20.0	0.00e+00	0	41	0	435159040	61	4391
2026-01-30 01:35:11.66	15.40	30.55	-46.1	-47.7	19.1	0.00e+00	0	41	0	442499072	63	4416
2026-01-30 01:35:15.69	14.89	31.29	-46.4	-48.2	18.7	0.00e+00	0	41	0	449839104	64	4396
2026-01-30 01:35:19.72	14.37	32.04	-47.0	-48.9	18.0	0.00e+00	0	41	0	458227712	65	4499
2026-01-30 01:35:23.74	13.82	32.81	-46.7	-48.4	18.4	0.00e+00	0	41	0	465567744	65	4277
2026-01-30 01:35:27.77	13.24	33.60	-46.9	-48.8	17.9	0.00e+00	0	41	0	472907776	64	4748
2026-01-30 01:35:31.80	12.63	34.41	-47.2	-49.2	17.6	0.00e+00	0	41	0	480247808	65	4700
2026-01-30 01:35:35.82	11.99	35.23	-47.7	-50.0	16.9	0.00e+00	0	41	0	488636416	65	5138
2026-01-30 01:35:39.85	11.31	36.08	-48.7	-51.5	15.6	0.00e+00	0	41	0	495976448	68	5114
2026-01-30 01:35:43.89	10.60	36.94	-47.4	-49.5	17.4	0.00e+00	0	41	0	503316480	66	4558
2026-01-30 01:35:47.91	9.85	37.81	-46.1	-47.8	19.0	0.00e+00	0	41	0	510656512	62	4719
2026-01-30 01:35:51.94	9.05	38.71	-46.3	-48.0	18.8	0.00e+00	0	41	0	517996544	63	4593
2026-01-30 01:35:55.97	8.21	39.62	-46.0	-47.6	19.3	0.00e+00	0	41	0	526385152	63	4388
2026-01-30 01:35:59.99	7.32	40.55	-45.8	-47.4	19.5	0.00e+00	0	41	0	533725184	62	4500
2026-01-30 01:36:04.02	6.38	41.49	-46.0	-47.6	19.4	0.00e+00	0	41	0	541065216	63	4348
2026-01-30 01:36:08.05	5.38	42.45	-45.4	-46.8	20.2	0.00e+00	0	41	0	548405248	62	4214
2026-01-30 01:36:12.08	4.31	43.43	-46.3	-47.9	19.0	0.00e+00	0	41	0	555745280	64	4278
2026-01-30 01:36:16.10	3.18	44.42	-46.3	-47.9	19.1	0.00e+00	0	41	0	563085312	64	4278
2026-01-30 01:36:20.13	1.97	45.41	-46.0	-47.6	19.5	0.00e+00	0	41	0	571473920	63	4373
2026-01-30 01:36:24.15	0.68	46.42	-46.1	-47.6	19.5	0.00e+00	0	41	0	578813952	63	4368
2026-01-30 01:36:28.17	359.31	47.44	-44.9	-46.3	20.5	0.00e+00	0	41	0	586153984	61	4227
2026-01-30 01:36:32.21	357.84	48.46	-45.7	-47.3	19.7	0.00e+00	0	41	0	593494016	62	4451
2026-01-30 01:36:36.24	356.27	49.49	-44.3	-45.5	21.2	0.00e+00	0	41	0	601882624	60	4092
2026-01-30 01:36:40.27	354.58	50.51	-45.4	-46.9	20.1	0.00e+00	0	41	0	609222656	61	4513
2026-01-30 01:36:44.30	352.78	51.53	-44.6	-46.0	20.7	0.00e+00	0	41	0	616562688	60	4318
2026-01-30 01:36:48.32	350.86	52.53	-43.4	-44.5	22.3	0.00e+00	0	41	0	623902720	58	4097
2026-01-30 01:36:52.35	348.80	53.52	-44.3	-45.6	21.5	0.00e+00	0	41	0	631242752	59	4369
2026-01-30 01:36:56.37	346.60	54.49	-45.8	-47.5	19.7	0.00e+00	0	41	0	639631360	62	4566
2026-01-30 01:37:00.40	344.23	55.43	-44.4	-45.6	21.3	0.00e+00	0	41	0	646971392	60	4144
2026-01-30 01:37:04.43	341.71	56.34	-44.8	-46.2	20.9	0.00e+00	0	41	0	654311424	60	4393
2026-01-30 01:37:08.45	339.03	57.20	-44.8	-46.1	21.1	0.00e+00	0	41	0	661651456	60	4350
2026-01-30 01:37:12.48	336.17	58.01	-44.5	-45.7	21.3	0.00e+00	0	41	0	668991488	60	4183
2026-01-30 01:37:16.50	333.14	58.76	-44.5	-45.7	21.6	0.00e+00	0	41	0	676331520	59	4434
2026-01-30 01:37:20.53	329.94	59.44	-45.8	-47.4	20.0	0.00e+00	0	41	0	684720128	62	4535
2026-01-30 01:37:24.56	326.57	60.04	-44.6	-46.0	21.1	0.00e+00	0	41	0	692060160	60	4299
2026-01-30 01:37:28.59	323.06	60.55	-44.7	-46.0	21.4	0.00e+00	0	41	0	699400192	59	4590
2026-01-30 01:37:32.62	319.41	60.96	-44.3	-45.6	21.2	0.00e+00	0	41	0	706740224	60	4109
2026-01-30 01:37:36.65	315.66	61.28	-44.1	-45.3	21.6	0.00e+00	0	41	0	715128832	60	4001
2026-01-30 01:37:40.67	311.84	61.48	-43.7	-44.8	22.4	0.00e+00	0	41	0	722468864	59	3970
2026-01-30 01:37:44.70	307.96	61.57	-42.9	-44.0	22.8	0.00e+00	0	41	0	729808896	57	4060
2026-01-30 01:37:48.73	304.08	61.54	-43.0	-44.1	23.0	0.00e+00	0	41	0	737148928	56	4346
2026-01-30 01:37:52.76	300.21	61.40	-43.0	-44.0	23.0	0.00e+00	0	41	0	744488960	57	4083
2026-01-30 01:37:56.79	296.41	61.15	-44.0	-45.1	22.0	0.00e+00	0	41	0	752877568	59	4142
2026-01-30 01:38:00.81	292.71	60.80	-42.6	-43.6	23.3	0.00e+00	0	41	0	760217600	57	3894
2026-01-30 01:38:04.83	289.12	60.34	-44.4	-45.6	21.8	0.00e+00	0	41	0	767557632	59	4378
2026-01-30 01:38:08.87	285.66	59.79	-44.4	-45.7	21.7	0.00e+00	0	41	0	774897664	59	4401
2026-01-30 01:38:12.90	282.36	59.16	-44.0	-45.1	22.3	0.00e+00	0	41	0	782237696	59	4113
2026-01-30 01:38:16.92	279.24	58.45	-44.3	-45.4	22.1	0.00e+00	0	41	0	790626304	59	4254
2026-01-30 01:38:20.94	276.28	57.67	-45.0	-46.3	21.1	0.00e+00	0	41	0	797966336	60	4470
2026-01-30 01:38:24.97	273.49	56.84	-45.6	-47.1	20.2	0.00e+00	0	41	0	805306368	61	4620
2026-01-30 01:38:29.00	270.87	55.95	-45.9	-47.3	20.1	0.00e+00	0	41	0	812646400	63	4228
2026-01-30 01:38:33.03	268.41	55.03	-44.9	-46.2	21.2	0.00e+00	0	41	0	819986432	61	4149
2026-01-30 01:38:37.05	266.12	54.08	-45.2	-46.6	20.7	0.00e+00	0	41	0	828375040	61	4358
2026-01-30 01:38:41.09	263.97	53.09	-44.2	-45.4	21.7	0.00e+00	0	41	0	835715072	60	4021
2026-01-30 01:38:45.12	261.96	52.09	-44.6	-45.9	21.2	0.00e+00	0	41	0	843055104	60	4277
2026-01-30 01:38:49.15	260.09	51.08	-44.5	-45.7	21.7	0.00e+00	0	41	0	850395136	59	4393
2026-01-30 01:38:53.18	258.34	50.05	-45.6	-47.0	20.1	0.00e+00	0	41	0	857735168	63	4063
2026-01-30 01:38:57.21	256.70	49.03	-46.3	-47.9	19.2	0.00e+00	0	41	0	866123776	63	4540
2026-01-30 01:39:01.24	255.17	48.00	-46.2	-47.7	19.5	0.00e+00	0	41	0	873463808	64	4186
2026-01-30 01:39:05.27	253.74	46.98	-46.8	-48.5	18.8	0.00e+00	0	41	0	880803840	64	4595
2026-01-30 01:39:09.29	252.41	45.96	-46.1	-47.6	19.6	0.00e+00	0	41	0	888143872	64	4128
2026-01-30 01:39:13.32	251.15	44.96	-46.1	-47.6	19.8	0.00e+00	0	41	0	895483904	62	4627
2026-01-30 01:39:17.34	249.98	43.96	-46.2	-47.7	19.5	0.00e+00	0	41	0	903872512	64	4157
2026-01-30 01:39:21.37	248.87	42.98	-46.7	-48.3	18.9	0.00e+00	0	41	0	911212544	64	4493
2026-01-30 01:39:25.39	247.83	42.01	-45.1	-46.4	20.8	0.00e+00	0	41	0	918552576	62	4009
2026-01-30 01:39:29.42	246.85	41.05	-47.0	-48.7	18.6	0.00e+00	0	41	0	925892608	64	4687
2026-01-30 01:39:33.45	245.93	40.11	-48.0	-49.9	17.5	0.00e+00	0	41	0	933232640	67	4542
2026-01-30 01:39:37.47	245.06	39.19	-48.0	-50.0	17.3	0.00e+00	0	41	0	941621248	67	4584
2026-01-30 01:39:41.50	244.24	38.28	-47.9	-49.9	17.3	0.00e+00	0	41	0	948961280	67	4528
2026-01-30 01:39:45.54	243.46	37.39	-46.1	-47.6	19.5	0.00e+00	0	41	0	956301312	64	4116
2026-01-30 01:39:49.57	242.72	36.52	-48.2	-50.5	16.7	0.00e+00	0	41	0	963641344	67	4864
2026-01-30 01:39:53.59	242.03	35.67	-48.2	-50.6	16.6	0.00e+00	0	41	0	970981376	67	4919
2026-01-30 01:39:57.62	241.37	34.83	-47.0	-48.8	18.3	0.00e+00	0	41	0	979369984	66	4206
2026-01-30 01:40:01.65	240.74	34.01	-47.5	-49.6	17.5	0.00e+00	0	41	0	986710016	65	4908
2026-01-30 01:40:05.68	240.14	33.21	-46.3	-47.9	19.1	0.00e+00	0	41	0	994050048	64	4282
2026-01-30 01:40:09.72	239.57	32.42	-47.3	-49.4	17.5	0.00e+00	0	41	0	1001390080	66	4505
2026-01-30 01:40:13.75	239.03	31.65	-46.0	-47.5	19.5	0.00e+00	0	41	0	1009778688	63	4318
2026-01-30 01:40:17.77	238.51	30.91	-46.1	-47.7	19.2	0.00e+00	0	41	0	1017118720	64	4169
2026-01-30 01:40:21.80	238.02	30.17	-46.6	-48.4	18.6	0.00e+00	0	42	0	1024458752	64	4524
2026-01-30 01:40:25.82	237.55	29.45	-46.6	-48.3	18.7	0.00e+00	0	41	0	1031798784	65	4198
2026-01-30 01:40:29.84	237.10	28.75	-45.3	-46.7	20.3	0.00e+00	0	41	0	1039138816	62	4159
2026-01-30 01:40:33.87	236.67	28.07	-45.5	-46.9	20.0	0.00e+00	0	42	0	1046478848	62	4281
2026-01-30 01:40:37.89	236.26	27.39	-45.5	-46.9	19.9	0.00e+00	0	41	0	1054867456	62	4286
2026-01-30 01:40:41.92	235.87	26.74	-47.4	-49.4	17.6	0.00e+00	0	41	0	1062207488	65	4782
2026-01-30 01:40:45.95	235.49	26.09	-46.9	-48.6	18.4	0.00e+00	0	41	0	1069547520	65	4383
2026-01-30 01:40:49.97	235.13	25.46	-46.3	-47.8	19.3	0.00e+00	0	41	0	1076887552	64	4224
2026-01-30 01:40:54.00	234.78	24.85	-45.9	-47.3	19.6	0.00e+00	0	41	0	1084227584	63	4208
2026-01-30 01:40:58.03	234.45	24.24	-45.9	-47.3	19.6	0.00e+00	0	41	0	1092616192	63	4227
2026-01-30 01:41:02.05	234.13	23.65	-46.3	-47.8	19.2	0.00e+00	0	41	0	1099956224	63	4453
2026-01-30 01:41:06.08	233.82	23.07	-45.0	-46.3	20.6	0.00e+00	0	41	0	1107296256	62	3973
2026-01-30 01:41:10.11	233.52	22.51	-44.9	-46.2	20.7	0.00e+00	0	41	0	1114636288	61	4164
2026-01-30 01:41:14.14	233.23	21.95	-46.9	-48.6	18.3	0.00e+00	0	41	0	1123024896	64	4642
2026-01-30 01:41:18.17	232.96	21.40	-48.2	-50.4	16.6	0.00e+00	0	41	0	1130364928	67	4809
2026-01-30 01:41:22.19	232.69	20.87	-46.4	-48.0	18.9	0.00e+00	0	41	0	1137704960	64	4303
2026-01-30 01:41:26.22	232.43	20.35	-45.8	-47.2	19.7	0.00e+00	0	41	0	1145044992	62	4413
2026-01-30 01:41:30.24	232.18	19.84	-45.3	-46.6	20.2	0.00e+00	0	41	0	1152385024	62	4137
2026-01-30 01:41:34.27	231.95	19.33	-44.9	-46.1	20.7	0.00e+00	0	41	0	1159725056	61	4118
2026-01-30 01:41:38.29	231.71	18.84	-44.3	-45.5	21.5	0.00e+00	0	41	0	1168113664	59	4297
2026-01-30 01:41:42.32	231.49	18.35	-44.1	-45.2	21.7	0.00e+00	0	41	0	1175453696	59	4184
2026-01-30 01:41:46.33	231.28	17.88	-44.5	-45.6	21.3	0.00e+00	0	41	0	1182793728	59	4381
2026-01-30 01:41:50.36	231.07	17.41	-44.9	-46.2	20.5	0.00e+00	0	41	0	1190133760	60	4404
2026-01-30 01:41:54.38	230.86	16.95	-45.4	-46.8	20.0	0.00e+00	0	41	0	1197473792	61	4448
2026-01-30 01:41:58.41	230.67	16.50	-45.5	-46.9	19.8	0.00e+00	0	41	0	1205862400	62	4264
2026-01-30 01:42:02.43	230.48	16.06	-46.3	-47.8	18.9	0.00e+00	0	41	0	1213202432	63	4487
2026-01-30 01:42:06.46	230.29	15.62	-46.3	-47.9	18.8	0.00e+00	0	41	0	1220542464	63	4510
2026-01-30 01:42:10.48	230.12	15.20	-46.2	-47.7	19.0	0.00e+00	0	41	0	1227882496	63	4439
2026-01-30 01:42:14.51	229.94	14.78	-45.8	-47.1	19.5	0.00e+00	0	41	0	1236271104	63	4144
2026-01-30 01:42:18.53	229.77	14.36	-45.3	-46.6	20.0	0.00e+00	0	41	0	1243611136	62	4120
2026-01-30 01:42:22.56	229.61	13.95	-45.2	-46.5	20.1	0.00e+00	0	41	0	1250951168	61	4303
2026-01-30 01:42:26.58	229.45	13.55	-44.8	-46.1	20.4	0.00e+00	0	41	0	1258291200	61	4104
2026-01-30 01:42:30.60	229.30	13.16	-45.3	-46.6	19.9	0.00e+00	0	41	0	1265631232	61	4385
2026-01-30 01:42:34.63	229.15	12.77	-45.6	-47.1	19.5	0.00e+00	0	41	0	1272971264	61	4623
2026-01-30 01:42:38.66	229.00	12.39	-46.0	-47.5	18.9	0.00e+00	0	41	0	1281359872	62	4583
2026-01-30 01:42:42.69	228.86	12.01	-46.1	-47.7	18.9	0.00e+00	0	41	0	1288699904	63	4425
2026-01-30 01:42:46.72	228.72	11.64	-46.0	-47.6	19.0	0.00e+00	0	41	0	1296039936	63	4348
2026-01-30 01:42:50.75	228.59	11.27	-46.0	-47.6	19.0	0.00e+00	0	41	0	1303379968	63	4346
2026-01-30 01:42:54.78	228.46	10.91	-45.9	-47.4	19.1	0.00e+00	0	42	0	1310720000	63	4272
2026-01-30 01:42:58.81	228.33	10.55	-45.9	-47.4	19.0	0.00e+00	0	41	0	1319108608	63	4270
2026-01-30 01:43:02.84	228.21	10.20	-46.1	-47.8	18.7	0.00e+00	0	41	0	1326448640	63	4442
2026-01-30 01:43:06.85	228.09	9.86	-46.4	-48.1	18.4	0.00e+00	0	42	0	1333788672	63	4602
2026-01-30 01:43:10.88	227.97	9.52	-46.5	-48.3	18.1	0.00e+00	0	41	0	1341128704	64	4452
2026-01-30 01:43:14.90	227.86	9.18	-46.5	-48.3	18.1	0.00e+00	0	41	0	1348468736	64	4453
2026-01-30 01:43:18.93	227.75	8.85	-46.8	-48.7	17.6	0.00e+00	0	41	0	1356857344	64	4677
2026-01-30 01:43:22.96	227.64	8.52	-47.2	-49.2	17.0	0.00e+00	0	41	0	1364197376	65	4704
2026-01-30 01:43:26.99	227.54	8.19	-47.3	-49.4	16.8	0.00e+00	0	42	0	1371537408	65	4806
2026-01-30 01:43:31.00	227.43	7.87	-47.2	-49.3	16.9	0.00e+00	0	41	0	1378877440	65	4738
2026-01-30 01:43:35.02	227.33	7.56	-47.2	-49.3	16.9	0.00e+00	0	41	0	1386217472	65	4715
2026-01-30 01:43:39.05	227.23	7.25	-47.3	-49.4	16.7	0.00e+00	0	41	0	1394606080	65	4808
2026-01-30 01:43:43.07	227.14	6.94	-47.3	-49.5	16.6	0.00e+00	0	41	0	1401946112	65	4852
2026-01-30 01:43:47.09	227.04	6.63	-47.4	-49.7	16.4	0.00e+00	0	42	0	1409286144	65	4937
2026-01-30 01:43:51.12	226.95	6.33	-47.3	-49.6	16.5	0.00e+00	0	42	0	1416626176	65	4875
2026-01-30 01:43:55.14	226.86	6.03	-47.4	-49.7	16.3	0.00e+00	0	41	0	1423966208	65	4952
2026-01-30 01:43:59.17	226.78	5.74	-47.4	-49.7	16.2	0.00e+00	0	42	0	1432354816	65	4973
2026-01-30 01:44:03.18	226.69	5.45	-47.6	-50.1	15.8	0.00e+00	0	41	0	1439694848	65	5173
2026-01-30 01:44:07.20	226.61	5.16	-47.4	-49.8	16.0	0.00e+00	0	41	0	1447034880	65	5011
2026-01-30 01:44:11.23	226.53	4.87	-52.9	-67.9	3.8	1.49e+00	0	42	104	1451229184	76	21286
2026-01-30 01:44:15.27	226.45	4.59	-53.5	-68.4	3.8	1.49e+00	0	42	104	1451229184	77	21490
2026-01-30 01:44:19.29	226.37	4.31	-53.7	-68.7	3.8	1.49e+00	0	42	104	1451229184	77	22024
2026-01-30 01:44:23.33	226.29	4.03	-53.7	-68.7	3.8	1.49e+00	0	42	104	1451229184	78	20917
2026-01-30 01:44:27.35	226.22	3.76	-53.6	-68.5	3.8	1.49e+00	0	42	104	1451229184	78	20508
2026-01-30 01:44:31.38	226.15	3.49	-53.4	-68.4	3.8	1.49e+00	0	42	104	1451229184	78	20182
2026-01-30 01:44:35.41	226.08	3.22	-53.3	-68.3	3.8	1.49e+00	0	42	104	1451229184	78	19915
2026-01-30 01:44:39.43	226.01	2.95	-53.3	-68.2	3.8	1.49e+00	0	42	104	1451229184	78	19789
2026-01-30 01:44:43.46	225.94	2.69	-53.2	-68.2	3.8	1.49e+00	0	42	104	1451229184	78	19650
2026-01-30 01:44:47.49	225.87	2.42	-53.2	-68.1	3.8	1.49e+00	0	42	104	1451229184	78	19572
2026-01-30 01:44:51.52	225.81	2.16	-53.2	-68.1	3.8	1.49e+00	0	42	104	1451229184	78	19538

#Closed at: 2026-01-30 01:44:54
#Recorded file [1451 MB]: D:/lorett/data/31041_260130_043037.dat