passes_logs/2026/01/30/R3.2S_Murmansk/R3.2S_Murmansk__20260130_051021_NOAA_20_JPSS-1_rec.log

#Pass ID: 20260130_051021_NOAA 20 (JPSS-1)
#Satellite: NOAA 20 (JPSS-1)
#Configuration: NOAA 20
#almurnet v.1.7.20251203
#Start time: 2026-01-30 05:10:22

#Version: 2.2.20231116
#Station: R3.2S_Murmansk
#Location: 33.079688 lon 68.888172 lat
#TLE: 1 43013U 17073A   26029.42702672  .00000137  00000+0  85918-4 0  9993
#TLE: 2 43013  98.7646 330.2153 0000804  19.9045 340.2162 14.19525092424781

#Time	Az	El	Level	Level2	SNR	BER	BlckErr	Temp	State	Recorded	gain1	gain2
2026-01-30 05:10:22.76	62.13	2.10	-53.8	-68.8	3.8	1.49e+00	0	39	0	0	79	20016
2026-01-30 05:10:25.77	61.93	2.27	-53.8	-68.8	3.8	1.49e+00	0	39	104	0	78	21103
2026-01-30 05:10:28.80	61.73	2.44	-53.8	-68.7	3.8	1.49e+00	0	40	104	0	78	20998
2026-01-30 05:10:31.82	61.53	2.61	-53.7	-68.7	3.8	1.49e+00	0	39	104	0	78	20944
2026-01-30 05:10:34.84	61.33	2.79	-53.9	-68.9	3.8	1.49e+00	0	40	104	0	78	21354
2026-01-30 05:10:37.86	61.13	2.96	-54.2	-69.2	3.8	1.49e+00	0	40	104	0	78	22155
2026-01-30 05:10:40.88	60.92	3.14	-54.1	-69.1	3.8	1.49e+00	0	40	104	0	78	21870
2026-01-30 05:10:43.91	60.71	3.31	-54.0	-68.9	3.8	1.49e+00	0	40	104	0	78	21473
2026-01-30 05:10:46.93	60.50	3.49	-53.8	-68.7	3.8	1.49e+00	0	40	104	0	78	20977
2026-01-30 05:10:49.95	60.28	3.67	-53.6	-68.5	3.8	1.49e+00	0	40	104	0	78	20512
2026-01-30 05:10:52.97	60.06	3.85	-53.1	-68.1	3.8	1.49e+00	0	40	104	0	77	20657
2026-01-30 05:10:56.00	59.84	4.03	-52.4	-67.3	3.8	1.49e+00	0	40	104	0	76	20029
2026-01-30 05:10:59.02	59.62	4.21	-51.9	-66.8	3.8	1.49e+00	0	40	104	0	75	19891
2026-01-30 05:11:02.04	59.39	4.39	-51.8	-66.1	3.8	1.49e+00	0	40	104	0	75	18426
2026-01-30 05:11:05.06	59.16	4.57	-51.8	-66.0	3.8	1.49e+00	0	40	104	0	75	18111
2026-01-30 05:11:08.09	58.93	4.75	-51.5	-61.8	4.6	1.30e+00	0	40	0	0	75	11239
2026-01-30 05:11:11.12	58.69	4.93	-50.3	-55.7	9.6	2.17e-02	0	40	0	5242880	72	6636
2026-01-30 05:11:14.15	58.45	5.12	-49.6	-53.7	12.0	2.71e-04	0	41	0	11534336	70	5875
2026-01-30 05:11:17.17	58.21	5.30	-47.4	-49.7	16.0	0.00e+00	0	40	0	16777216	66	4704
2026-01-30 05:11:20.18	57.96	5.49	-47.4	-49.8	16.0	0.00e+00	0	40	0	19922944	66	4721
2026-01-30 05:11:23.20	57.72	5.67	-47.4	-49.7	16.0	0.00e+00	0	40	0	26214400	66	4692
2026-01-30 05:11:26.23	57.46	5.86	-47.2	-49.5	16.3	0.00e+00	0	40	0	31457280	66	4562
2026-01-30 05:11:29.25	57.21	6.05	-46.9	-49.0	16.8	0.00e+00	0	41	0	37748736	65	4593
2026-01-30 05:11:32.26	56.95	6.24	-46.9	-49.0	16.9	0.00e+00	0	41	0	42991616	65	4551
2026-01-30 05:11:35.29	56.69	6.43	-47.0	-49.1	16.8	0.00e+00	0	40	0	48234496	65	4621
2026-01-30 05:11:38.31	56.42	6.62	-47.1	-49.3	16.7	0.00e+00	0	41	0	54525952	65	4707
2026-01-30 05:11:41.33	56.15	6.81	-47.2	-49.4	16.5	0.00e+00	0	40	0	59768832	65	4811
2026-01-30 05:11:44.34	55.88	7.00	-47.1	-49.2	16.8	0.00e+00	0	41	0	66060288	65	4666
2026-01-30 05:11:47.36	55.60	7.19	-47.0	-49.2	16.8	0.00e+00	0	41	0	71303168	65	4653
2026-01-30 05:11:50.38	55.32	7.38	-47.0	-49.1	16.9	0.00e+00	0	41	0	76546048	65	4620
2026-01-30 05:11:53.41	55.04	7.58	-46.8	-48.8	17.2	0.00e+00	0	41	0	82837504	65	4487
2026-01-30 05:11:56.43	54.75	7.77	-47.0	-49.0	17.1	0.00e+00	0	41	0	88080384	65	4567
2026-01-30 05:11:59.44	54.46	7.97	-46.7	-48.6	17.4	0.00e+00	0	41	0	94371840	65	4384
2026-01-30 05:12:02.46	54.16	8.17	-46.7	-48.6	17.5	0.00e+00	0	41	0	99614720	65	4355
2026-01-30 05:12:05.48	53.86	8.36	-46.4	-48.2	17.9	0.00e+00	0	41	0	104857600	64	4424
2026-01-30 05:12:08.50	53.56	8.56	-46.4	-48.2	17.9	0.00e+00	0	41	0	111149056	64	4404
2026-01-30 05:12:11.52	53.25	8.76	-46.3	-48.1	18.0	0.00e+00	0	41	0	116391936	64	4381
2026-01-30 05:12:14.53	52.94	8.96	-46.4	-48.2	18.0	0.00e+00	0	41	0	122683392	64	4401
2026-01-30 05:12:17.55	52.62	9.16	-46.5	-48.3	17.9	0.00e+00	0	41	0	127926272	64	4450
2026-01-30 05:12:20.58	52.29	9.36	-46.4	-48.2	18.0	0.00e+00	0	41	0	133169152	64	4435
2026-01-30 05:12:23.59	51.97	9.56	-46.6	-48.5	17.7	0.00e+00	0	41	0	139460608	64	4559
2026-01-30 05:12:26.61	51.64	9.76	-46.6	-48.4	17.8	0.00e+00	0	41	0	144703488	64	4522
2026-01-30 05:12:29.63	51.30	9.97	-46.7	-48.5	17.7	0.00e+00	0	41	0	150994944	64	4598
2026-01-30 05:12:32.65	50.96	10.17	-46.7	-48.6	17.6	0.00e+00	0	41	0	156237824	64	4620
2026-01-30 05:12:35.67	50.61	10.37	-46.5	-48.3	18.0	0.00e+00	0	41	0	161480704	64	4451
2026-01-30 05:12:38.69	50.26	10.58	-46.5	-48.3	18.0	0.00e+00	0	41	0	167772160	64	4484
2026-01-30 05:12:41.71	49.90	10.78	-46.4	-48.1	18.2	0.00e+00	0	41	0	173015040	64	4363
2026-01-30 05:12:44.73	49.54	10.99	-46.3	-48.0	18.3	0.00e+00	0	41	0	179306496	64	4322
2026-01-30 05:12:47.73	49.18	11.20	-46.1	-47.8	18.6	0.00e+00	0	41	0	184549376	64	4216
2026-01-30 05:12:50.75	48.80	11.40	-46.1	-47.7	18.8	0.00e+00	0	41	0	189792256	63	4405
2026-01-30 05:12:53.78	48.43	11.61	-46.1	-47.6	18.8	0.00e+00	0	41	0	196083712	63	4390
2026-01-30 05:12:56.80	48.04	11.82	-45.9	-47.5	19.0	0.00e+00	0	41	0	201326592	63	4312
2026-01-30 05:12:59.82	47.65	12.03	-46.0	-47.6	18.8	0.00e+00	0	41	0	207618048	63	4375
2026-01-30 05:13:02.83	47.26	12.24	-46.1	-47.7	18.8	0.00e+00	0	41	0	212860928	63	4428
2026-01-30 05:13:05.85	46.86	12.45	-46.0	-47.6	18.9	0.00e+00	0	41	0	218103808	63	4348
2026-01-30 05:13:08.88	46.45	12.66	-45.8	-47.4	19.1	0.00e+00	0	41	0	224395264	63	4259
2026-01-30 05:13:11.89	46.04	12.87	-45.7	-47.2	19.3	0.00e+00	0	41	0	229638144	63	4191
2026-01-30 05:13:14.92	45.62	13.08	-45.6	-47.1	19.4	0.00e+00	0	41	0	235929600	63	4119
2026-01-30 05:13:17.94	45.20	13.29	-45.3	-46.8	19.8	0.00e+00	0	41	0	241172480	62	4194
2026-01-30 05:13:20.96	44.77	13.50	-45.4	-46.8	19.7	0.00e+00	0	41	0	246415360	62	4222
2026-01-30 05:13:23.98	44.33	13.72	-45.4	-46.8	19.7	0.00e+00	0	41	0	252706816	62	4223
2026-01-30 05:13:27.00	43.89	13.93	-45.5	-47.0	19.5	0.00e+00	0	41	0	257949696	62	4319
2026-01-30 05:13:30.01	43.44	14.14	-45.6	-47.0	19.5	0.00e+00	0	41	0	264241152	62	4327
2026-01-30 05:13:33.03	42.98	14.35	-45.6	-47.0	19.5	0.00e+00	0	41	0	269484032	62	4335
2026-01-30 05:13:36.05	42.52	14.56	-45.6	-47.1	19.5	0.00e+00	0	41	0	274726912	62	4362
2026-01-30 05:13:39.07	42.05	14.77	-45.7	-47.2	19.4	0.00e+00	0	41	0	281018368	62	4395
2026-01-30 05:13:42.09	41.57	14.99	-45.8	-47.3	19.3	0.00e+00	0	41	0	286261248	62	4454
2026-01-30 05:13:45.11	41.09	15.20	-46.0	-47.6	19.0	0.00e+00	0	41	0	292552704	62	4618
2026-01-30 05:13:48.14	40.60	15.41	-46.1	-47.6	19.0	0.00e+00	0	41	0	297795584	62	4636
2026-01-30 05:13:51.15	40.10	15.62	-46.1	-47.6	19.0	0.00e+00	0	41	0	303038464	62	4647
2026-01-30 05:13:54.17	39.60	15.83	-46.1	-47.7	18.9	0.00e+00	0	41	0	309329920	62	4692
2026-01-30 05:13:57.19	39.08	16.04	-46.1	-47.7	18.9	0.00e+00	0	41	0	314572800	62	4686
2026-01-30 05:14:00.21	38.57	16.25	-46.2	-47.7	18.9	0.00e+00	0	41	0	320864256	63	4441
2026-01-30 05:14:03.22	38.04	16.46	-46.1	-47.7	19.0	0.00e+00	0	41	0	326107136	63	4432
2026-01-30 05:14:06.25	37.50	16.67	-46.1	-47.7	19.0	0.00e+00	0	41	0	331350016	63	4420
2026-01-30 05:14:09.27	36.96	16.87	-46.0	-47.6	19.1	0.00e+00	0	41	0	337641472	63	4362
2026-01-30 05:14:12.29	36.41	17.08	-46.2	-47.8	18.8	0.00e+00	0	41	0	342884352	63	4489
2026-01-30 05:14:15.31	35.86	17.28	-46.1	-47.6	19.1	0.00e+00	0	41	0	349175808	63	4366
2026-01-30 05:14:18.33	35.29	17.49	-45.8	-47.3	19.4	0.00e+00	0	41	0	354418688	63	4213
2026-01-30 05:14:21.34	34.72	17.69	-45.6	-47.0	19.7	0.00e+00	0	41	0	359661568	63	4080
2026-01-30 05:14:24.36	34.14	17.89	-45.3	-46.6	20.1	0.00e+00	0	41	0	365953024	62	4125
2026-01-30 05:14:27.39	33.55	18.09	-45.0	-46.3	20.3	0.00e+00	0	41	0	371195904	61	4233
2026-01-30 05:14:30.40	32.96	18.29	-44.5	-45.7	20.9	0.00e+00	0	41	0	377487360	61	3955
2026-01-30 05:14:33.42	32.35	18.49	-44.2	-45.3	21.3	0.00e+00	0	41	0	382730240	60	3996
2026-01-30 05:14:36.43	31.74	18.68	-44.2	-45.3	21.3	0.00e+00	0	41	0	387973120	60	3993
2026-01-30 05:14:39.46	31.12	18.87	-44.3	-45.5	21.5	0.00e+00	0	41	0	394264576	59	4293
2026-01-30 05:14:42.48	30.49	19.06	-44.3	-45.4	21.6	0.00e+00	0	41	0	399507456	59	4282
2026-01-30 05:14:45.50	29.86	19.25	-44.1	-45.3	21.8	0.00e+00	0	41	0	405798912	59	4196
2026-01-30 05:14:48.52	29.21	19.44	-44.1	-45.2	21.8	0.00e+00	0	41	0	411041792	59	4165
2026-01-30 05:14:51.55	28.56	19.62	-44.2	-45.4	21.6	0.00e+00	0	41	0	416284672	59	4266
2026-01-30 05:14:54.56	27.90	19.80	-44.1	-45.2	21.8	0.00e+00	0	41	0	422576128	59	4186
2026-01-30 05:14:57.58	27.24	19.98	-43.9	-45.0	22.1	0.00e+00	0	41	0	427819008	59	4074
2026-01-30 05:15:00.61	26.56	20.16	-44.0	-45.1	21.9	0.00e+00	0	41	0	434110464	59	4144
2026-01-30 05:15:03.63	25.88	20.33	-44.0	-45.1	21.9	0.00e+00	0	41	0	439353344	59	4134
2026-01-30 05:15:06.65	25.18	20.50	-44.1	-45.3	21.8	0.00e+00	0	41	0	444596224	59	4207
2026-01-30 05:15:09.68	24.48	20.67	-44.1	-45.2	21.8	0.00e+00	0	41	0	450887680	59	4193
2026-01-30 05:15:12.69	23.78	20.83	-44.1	-45.2	21.9	0.00e+00	0	41	0	456130560	59	4174
2026-01-30 05:15:15.72	23.07	20.99	-44.1	-45.2	21.8	0.00e+00	0	41	0	462422016	59	4168
2026-01-30 05:15:18.74	22.34	21.14	-43.9	-45.0	22.0	0.00e+00	0	41	0	467664896	59	4074
2026-01-30 05:15:21.76	21.62	21.29	-43.6	-44.7	22.3	0.00e+00	0	41	0	472907776	59	3925
2026-01-30 05:15:24.78	20.88	21.44	-43.4	-44.4	22.6	0.00e+00	0	41	0	479199232	58	4036
2026-01-30 05:15:27.80	20.14	21.58	-43.5	-44.5	22.5	0.00e+00	0	41	0	484442112	58	4077
2026-01-30 05:15:30.82	19.39	21.72	-43.3	-44.4	22.7	0.00e+00	0	41	0	490733568	58	4009
2026-01-30 05:15:33.83	18.64	21.86	-43.2	-44.2	22.8	0.00e+00	0	41	0	495976448	58	3958
2026-01-30 05:15:36.85	17.88	21.99	-43.5	-44.5	22.6	0.00e+00	0	41	0	501219328	58	4084
2026-01-30 05:15:39.87	17.11	22.11	-43.3	-44.3	22.7	0.00e+00	0	41	0	507510784	58	3979
2026-01-30 05:15:42.89	16.33	22.23	-43.7	-44.8	22.3	0.00e+00	0	41	0	512753664	58	4197
2026-01-30 05:15:45.91	15.55	22.34	-43.7	-44.7	22.4	0.00e+00	0	41	0	519045120	58	4172
2026-01-30 05:15:48.93	14.77	22.45	-43.7	-44.7	22.4	0.00e+00	0	41	0	524288000	58	4180
2026-01-30 05:15:51.94	13.98	22.55	-43.9	-45.0	22.1	0.00e+00	0	41	0	529530880	58	4302
2026-01-30 05:15:54.96	13.18	22.65	-44.4	-45.6	21.6	0.00e+00	0	41	0	535822336	59	4347
2026-01-30 05:15:57.98	12.38	22.75	-44.5	-45.7	21.2	0.00e+00	0	41	0	541065216	60	4161
2026-01-30 05:16:01.00	11.57	22.83	-44.3	-45.5	21.3	0.00e+00	0	41	0	547356672	60	4075
2026-01-30 05:16:04.02	10.76	22.91	-44.7	-45.9	21.0	0.00e+00	0	41	0	552599552	60	4251
2026-01-30 05:16:07.04	9.95	22.99	-44.7	-45.9	21.0	0.00e+00	0	41	0	557842432	60	4265
2026-01-30 05:16:10.05	9.13	23.06	-45.1	-46.4	20.6	0.00e+00	0	41	0	564133888	60	4509
2026-01-30 05:16:13.07	8.31	23.12	-45.4	-46.7	20.2	0.00e+00	0	41	0	569376768	61	4435
2026-01-30 05:16:16.08	7.49	23.17	-45.5	-46.9	20.1	0.00e+00	0	41	0	575668224	61	4510
2026-01-30 05:16:19.10	6.66	23.22	-45.3	-46.6	20.3	0.00e+00	0	41	0	580911104	61	4387
2026-01-30 05:16:22.13	5.83	23.27	-45.0	-46.3	20.7	0.00e+00	0	41	0	586153984	61	4222
2026-01-30 05:16:25.15	5.00	23.31	-44.9	-46.1	20.8	0.00e+00	0	41	0	592445440	61	4141
2026-01-30 05:16:28.17	4.16	23.34	-45.2	-46.5	20.4	0.00e+00	0	41	0	597688320	61	4333
2026-01-30 05:16:31.20	3.32	23.36	-45.2	-46.5	20.5	0.00e+00	0	41	0	603979776	61	4301
2026-01-30 05:16:34.23	2.48	23.38	-44.9	-46.2	20.7	0.00e+00	0	41	0	609222656	61	4172
2026-01-30 05:16:37.24	1.65	23.39	-44.8	-46.0	20.8	0.00e+00	0	41	0	614465536	61	4096
2026-01-30 05:16:40.26	0.81	23.39	-44.9	-46.2	20.8	0.00e+00	0	41	0	620756992	61	4153
2026-01-30 05:16:43.28	359.97	23.39	-44.7	-45.9	21.0	0.00e+00	0	41	0	625999872	61	4031
2026-01-30 05:16:46.30	359.14	23.38	-44.5	-45.7	21.2	0.00e+00	0	41	0	632291328	61	3932
2026-01-30 05:16:49.33	358.30	23.37	-44.1	-45.3	21.6	0.00e+00	0	41	0	637534208	60	3971
2026-01-30 05:16:52.34	357.46	23.34	-44.2	-45.4	21.6	0.00e+00	0	41	0	642777088	60	4006
2026-01-30 05:16:55.35	356.63	23.31	-44.2	-45.4	21.9	0.00e+00	0	41	0	649068544	59	4250
2026-01-30 05:16:58.36	355.80	23.28	-43.9	-45.0	22.2	0.00e+00	0	41	0	654311424	59	4073
2026-01-30 05:17:01.38	354.97	23.24	-43.7	-44.7	22.4	0.00e+00	0	41	0	660602880	59	3958
2026-01-30 05:17:04.41	354.14	23.19	-43.4	-44.4	22.7	0.00e+00	0	41	0	665845760	58	4025
2026-01-30 05:17:07.43	353.31	23.14	-43.1	-44.1	23.1	0.00e+00	0	41	0	671088640	58	3869
2026-01-30 05:17:10.45	352.49	23.07	-43.3	-44.3	22.8	0.00e+00	0	41	0	677380096	58	3991
2026-01-30 05:17:13.47	351.67	23.01	-43.1	-44.1	23.0	0.00e+00	0	41	0	682622976	58	3877
2026-01-30 05:17:16.48	350.86	22.93	-42.9	-43.9	23.2	0.00e+00	0	41	0	688914432	57	4011
2026-01-30 05:17:19.50	350.05	22.86	-43.0	-44.0	23.1	0.00e+00	0	41	0	694157312	57	4067
2026-01-30 05:17:22.52	349.24	22.77	-43.3	-44.3	22.8	0.00e+00	0	41	0	699400192	57	4235
2026-01-30 05:17:25.54	348.44	22.68	-43.2	-44.2	22.9	0.00e+00	0	41	0	705691648	57	4180
2026-01-30 05:17:28.57	347.64	22.58	-43.5	-44.5	22.6	0.00e+00	0	41	0	710934528	57	4327
2026-01-30 05:17:31.58	346.85	22.48	-43.8	-44.8	22.3	0.00e+00	0	41	0	717225984	58	4226
2026-01-30 05:17:34.61	346.06	22.37	-43.9	-45.0	22.2	0.00e+00	0	41	0	722468864	58	4323
2026-01-30 05:17:37.62	345.28	22.26	-44.1	-45.2	22.0	0.00e+00	0	41	0	727711744	58	4425
2026-01-30 05:17:40.64	344.50	22.14	-44.3	-45.4	21.8	0.00e+00	0	41	0	734003200	59	4262
2026-01-30 05:17:43.66	343.73	22.02	-44.5	-45.7	21.5	0.00e+00	0	41	0	739246080	59	4424
2026-01-30 05:17:46.68	342.97	21.89	-44.4	-45.6	21.3	0.00e+00	0	41	0	745537536	60	4135
2026-01-30 05:17:49.70	342.21	21.76	-44.4	-45.5	21.4	0.00e+00	0	41	0	750780416	60	4083
2026-01-30 05:17:52.72	341.46	21.62	-44.5	-45.7	21.2	0.00e+00	0	41	0	756023296	60	4182
2026-01-30 05:17:55.74	340.72	21.48	-44.7	-45.9	21.0	0.00e+00	0	41	0	762314752	60	4256
2026-01-30 05:17:58.76	339.98	21.34	-44.9	-46.1	20.8	0.00e+00	0	41	0	767557632	60	4385
2026-01-30 05:18:01.78	339.25	21.19	-44.9	-46.2	20.7	0.00e+00	0	41	0	773849088	60	4400
2026-01-30 05:18:04.80	338.53	21.03	-44.7	-45.9	20.9	0.00e+00	0	41	0	779091968	60	4281
2026-01-30 05:18:07.81	337.81	20.88	-44.6	-45.8	21.1	0.00e+00	0	41	0	784334848	60	4194
2026-01-30 05:18:10.83	337.11	20.71	-45.2	-46.5	20.5	0.00e+00	0	41	0	790626304	60	4560
2026-01-30 05:18:13.84	336.41	20.55	-44.9	-46.2	20.7	0.00e+00	0	41	0	795869184	60	4395
2026-01-30 05:18:16.84	335.72	20.38	-44.7	-45.9	21.0	0.00e+00	0	41	0	801112064	60	4273
2026-01-30 05:18:19.85	335.04	20.21	-44.7	-45.9	20.9	0.00e+00	0	41	0	807403520	60	4282
2026-01-30 05:18:22.87	334.36	20.04	-44.7	-45.9	20.9	0.00e+00	0	41	0	812646400	60	4283
2026-01-30 05:18:25.89	333.69	19.86	-44.5	-45.6	21.2	0.00e+00	0	41	0	818937856	60	4127
2026-01-30 05:18:28.91	333.03	19.68	-44.4	-45.6	21.2	0.00e+00	0	41	0	824180736	60	4121
2026-01-30 05:18:31.93	332.37	19.50	-44.5	-45.7	21.1	0.00e+00	0	41	0	829423616	60	4186
2026-01-30 05:18:34.94	331.73	19.31	-44.5	-45.7	21.1	0.00e+00	0	41	0	835715072	60	4183
2026-01-30 05:18:37.96	331.09	19.12	-44.5	-45.7	21.1	0.00e+00	0	41	0	840957952	60	4170
2026-01-30 05:18:40.98	330.46	18.93	-44.4	-45.6	21.2	0.00e+00	0	41	0	847249408	60	4100
2026-01-30 05:18:44.00	329.84	18.74	-44.3	-45.5	21.2	0.00e+00	0	41	0	852492288	60	4068
2026-01-30 05:18:47.02	329.23	18.55	-44.3	-45.5	21.2	0.00e+00	0	41	0	857735168	60	4083
2026-01-30 05:18:50.03	328.62	18.35	-44.5	-45.7	21.0	0.00e+00	0	41	0	864026624	60	4193
2026-01-30 05:18:53.05	328.02	18.15	-44.5	-45.7	21.0	0.00e+00	0	41	0	869269504	60	4184
2026-01-30 05:18:56.07	327.43	17.95	-44.6	-45.8	20.9	0.00e+00	0	41	0	875560960	60	4227
2026-01-30 05:18:59.09	326.85	17.75	-44.6	-45.8	20.9	0.00e+00	0	41	0	880803840	60	4218
2026-01-30 05:19:02.11	326.28	17.55	-44.6	-45.8	20.9	0.00e+00	0	41	0	886046720	60	4233
2026-01-30 05:19:05.13	325.71	17.35	-44.7	-45.9	20.8	0.00e+00	0	41	0	892338176	60	4269
2026-01-30 05:19:08.15	325.15	17.14	-44.7	-45.9	20.8	0.00e+00	0	41	0	897581056	60	4290
2026-01-30 05:19:11.17	324.60	16.94	-44.6	-45.8	21.0	0.00e+00	0	41	0	903872512	60	4210
2026-01-30 05:19:14.17	324.06	16.73	-44.4	-45.6	21.1	0.00e+00	0	41	0	909115392	60	4131
2026-01-30 05:19:17.18	323.52	16.53	-44.3	-45.5	21.3	0.00e+00	0	41	0	914358272	60	4056
2026-01-30 05:19:20.21	322.99	16.32	-44.3	-45.5	21.5	0.00e+00	0	41	0	920649728	59	4317
2026-01-30 05:19:23.22	322.47	16.11	-44.3	-45.5	21.4	0.00e+00	0	41	0	925892608	59	4328
2026-01-30 05:19:26.24	321.96	15.90	-44.5	-45.6	21.4	0.00e+00	0	41	0	931135488	59	4390
2026-01-30 05:19:29.26	321.45	15.69	-44.4	-45.6	21.4	0.00e+00	0	41	0	937426944	59	4364
2026-01-30 05:19:32.28	320.95	15.48	-44.2	-45.3	21.6	0.00e+00	0	41	0	942669824	59	4239
2026-01-30 05:19:35.30	320.46	15.27	-44.0	-45.1	21.8	0.00e+00	0	41	0	948961280	59	4134
2026-01-30 05:19:38.32	319.97	15.06	-44.0	-45.2	21.7	0.00e+00	0	41	0	954204160	59	4164
2026-01-30 05:19:41.34	319.49	14.84	-44.1	-45.3	21.7	0.00e+00	0	41	0	959447040	59	4197
2026-01-30 05:19:44.36	319.02	14.63	-44.1	-45.3	21.6	0.00e+00	0	41	0	965738496	59	4208
2026-01-30 05:19:47.37	318.56	14.42	-44.1	-45.3	21.6	0.00e+00	0	41	0	970981376	59	4225
2026-01-30 05:19:50.38	318.10	14.21	-44.1	-45.2	21.7	0.00e+00	0	41	0	977272832	59	4178
2026-01-30 05:19:53.40	317.65	14.00	-44.3	-45.5	21.4	0.00e+00	0	41	0	982515712	59	4296
2026-01-30 05:19:56.43	317.20	13.79	-44.3	-45.5	21.4	0.00e+00	0	41	0	987758592	59	4329
2026-01-30 05:19:59.45	316.77	13.57	-44.5	-45.7	21.2	0.00e+00	0	41	0	994050048	59	4398
2026-01-30 05:20:02.47	316.33	13.36	-44.6	-45.8	21.1	0.00e+00	0	41	0	999292928	59	4458
2026-01-30 05:20:05.48	315.91	13.15	-44.5	-45.7	20.8	0.00e+00	0	41	0	1005584384	60	4186
2026-01-30 05:20:08.50	315.49	12.94	-44.5	-45.7	20.8	0.00e+00	0	41	0	1010827264	60	4185
2026-01-30 05:20:11.53	315.07	12.73	-44.3	-45.6	20.9	0.00e+00	0	41	0	1016070144	60	4103
2026-01-30 05:20:14.55	314.67	12.52	-44.3	-45.5	21.0	0.00e+00	0	41	0	1022361600	60	4084
2026-01-30 05:20:17.57	314.26	12.31	-44.3	-45.6	20.9	0.00e+00	0	41	0	1027604480	60	4101
2026-01-30 05:20:20.59	313.87	12.10	-44.7	-45.9	20.6	0.00e+00	0	41	0	1033895936	60	4290
2026-01-30 05:20:23.62	313.48	11.89	-44.6	-45.9	20.6	0.00e+00	0	41	0	1039138816	60	4281
2026-01-30 05:20:26.64	313.09	11.68	-44.7	-46.0	20.5	0.00e+00	0	41	0	1044381696	60	4319
2026-01-30 05:20:29.66	312.71	11.47	-44.8	-46.1	20.3	0.00e+00	0	41	0	1050673152	60	4381
2026-01-30 05:20:32.68	312.34	11.27	-45.0	-46.3	20.1	0.00e+00	0	41	0	1055916032	60	4478
2026-01-30 05:20:35.71	311.97	11.06	-45.0	-46.3	20.1	0.00e+00	0	41	0	1062207488	60	4480
2026-01-30 05:20:38.74	311.60	10.85	-45.0	-46.3	20.1	0.00e+00	0	41	0	1067450368	60	4472
2026-01-30 05:20:41.75	311.25	10.65	-45.1	-46.4	20.0	0.00e+00	0	41	0	1072693248	60	4533
2026-01-30 05:20:44.77	310.89	10.44	-45.2	-46.7	19.8	0.00e+00	0	42	0	1078984704	61	4394
2026-01-30 05:20:47.78	310.55	10.24	-45.4	-46.8	19.5	0.00e+00	0	41	0	1084227584	61	4488
2026-01-30 05:20:50.81	310.20	10.03	-45.4	-46.9	19.4	0.00e+00	0	41	0	1090519040	61	4522
2026-01-30 05:20:53.82	309.87	9.83	-45.3	-46.8	19.6	0.00e+00	0	41	0	1095761920	61	4455
2026-01-30 05:20:56.83	309.53	9.63	-45.4	-46.8	19.5	0.00e+00	0	41	0	1101004800	61	4477
2026-01-30 05:20:59.85	309.21	9.43	-45.3	-46.8	19.5	0.00e+00	0	41	0	1107296256	61	4444
2026-01-30 05:21:02.87	308.88	9.23	-45.5	-47.0	19.3	0.00e+00	0	41	0	1112539136	61	4557
2026-01-30 05:21:05.89	308.56	9.03	-45.8	-47.3	19.0	0.00e+00	0	41	0	1118830592	62	4476
2026-01-30 05:21:08.91	308.25	8.83	-46.0	-47.6	18.7	0.00e+00	0	41	0	1124073472	62	4624
2026-01-30 05:21:11.93	307.94	8.63	-46.0	-47.7	18.6	0.00e+00	0	41	0	1129316352	62	4667
2026-01-30 05:21:14.94	307.63	8.43	-46.1	-47.8	18.5	0.00e+00	0	41	0	1135607808	62	4713
2026-01-30 05:21:17.97	307.33	8.23	-46.1	-47.8	18.5	0.00e+00	0	41	0	1140850688	62	4723
2026-01-30 05:21:20.99	307.03	8.03	-46.3	-48.0	18.2	0.00e+00	0	41	0	1147142144	63	4584
2026-01-30 05:21:24.01	306.74	7.84	-46.6	-48.4	17.9	0.00e+00	0	41	0	1152385024	63	4781
2026-01-30 05:21:27.03	306.45	7.64	-46.6	-48.5	17.7	0.00e+00	0	41	0	1157627904	63	4834
2026-01-30 05:21:30.05	306.16	7.45	-46.4	-48.2	17.9	0.00e+00	0	41	0	1163919360	63	4702
2026-01-30 05:21:33.06	305.88	7.26	-46.4	-48.1	18.0	0.00e+00	0	41	0	1169162240	63	4649
2026-01-30 05:21:36.07	305.61	7.06	-46.3	-48.1	18.0	0.00e+00	0	41	0	1175453696	63	4647
2026-01-30 05:21:39.08	305.33	6.87	-46.5	-48.4	17.7	0.00e+00	0	41	0	1180696576	63	4792
2026-01-30 05:21:42.11	305.06	6.68	-46.6	-48.5	17.6	0.00e+00	0	41	0	1185939456	63	4848
2026-01-30 05:21:45.12	304.80	6.49	-46.9	-48.9	17.0	0.00e+00	0	41	0	1192230912	64	4802
2026-01-30 05:21:48.14	304.53	6.30	-46.7	-48.7	17.3	0.00e+00	0	41	0	1197473792	64	4663
2026-01-30 05:21:51.16	304.27	6.11	-46.8	-48.8	17.1	0.00e+00	0	41	0	1203765248	64	4735
2026-01-30 05:21:54.18	304.02	5.93	-46.8	-48.8	17.1	0.00e+00	0	41	0	1209008128	64	4727
2026-01-30 05:21:57.19	303.76	5.74	-46.9	-49.0	16.8	0.00e+00	0	41	0	1214251008	64	4858
2026-01-30 05:22:00.21	303.51	5.55	-46.9	-49.0	16.8	0.00e+00	0	41	0	1220542464	64	4847
2026-01-30 05:22:03.24	303.27	5.37	-47.2	-49.5	16.3	0.00e+00	0	41	0	1225785344	65	4843
2026-01-30 05:22:06.25	303.03	5.18	-47.3	-49.6	16.2	0.00e+00	0	41	0	1232076800	65	4885
2026-01-30 05:22:09.27	302.79	5.00	-47.6	-50.1	15.6	0.00e+00	0	41	0	1237319680	65	5186
2026-01-30 05:22:12.29	302.55	4.82	-52.3	-67.2	3.8	1.49e+00	0	41	104	1238368256	75	20901
2026-01-30 05:22:15.31	302.32	4.63	-52.6	-67.6	3.8	1.49e+00	0	41	104	1238368256	75	21814
2026-01-30 05:22:18.33	302.09	4.45	-52.9	-67.8	3.8	1.49e+00	0	41	104	1238368256	76	21201
2026-01-30 05:22:21.35	301.86	4.27	-53.1	-68.0	3.8	1.49e+00	0	42	104	1238368256	76	21743
2026-01-30 05:22:24.37	301.63	4.09	-53.3	-68.2	3.8	1.49e+00	0	41	104	1238368256	77	20973
2026-01-30 05:22:27.40	301.41	3.91	-53.2	-68.2	3.8	1.49e+00	0	41	104	1238368256	77	20843
2026-01-30 05:22:30.41	301.19	3.73	-53.1	-68.1	3.8	1.49e+00	0	41	104	1238368256	77	20598
2026-01-30 05:22:33.44	300.98	3.56	-53.1	-68.1	3.8	1.49e+00	0	41	104	1238368256	77	20560
2026-01-30 05:22:36.46	300.76	3.38	-53.1	-68.0	3.8	1.49e+00	0	42	104	1238368256	77	20487
2026-01-30 05:22:39.48	300.55	3.20	-53.0	-68.0	3.8	1.49e+00	0	41	104	1238368256	77	20416
2026-01-30 05:22:42.50	300.34	3.03	-53.0	-68.0	3.8	1.49e+00	0	41	104	1238368256	77	20418
2026-01-30 05:22:45.52	300.14	2.85	-53.0	-68.0	3.8	1.49e+00	0	42	104	1238368256	77	20326
2026-01-30 05:22:48.54	299.93	2.68	-53.0	-68.0	3.8	1.49e+00	0	41	104	1238368256	77	20336
2026-01-30 05:22:51.57	299.73	2.50	-53.0	-67.9	3.8	1.49e+00	0	42	104	1238368256	77	20288
2026-01-30 05:22:54.59	299.54	2.33	-53.0	-67.9	3.8	1.49e+00	0	41	104	1238368256	77	20225
2026-01-30 05:22:57.61	299.34	2.16	-52.9	-67.9	3.8	1.49e+00	0	42	104	1238368256	77	20261

#Closed at: 2026-01-30 05:23:00
#Recorded file [1238 MB]: D:/lorett/data/31041_260130_081022.dat