passes_logs/2026/01/30/R3.2S_Murmansk/R3.2S_Murmansk__20260130_112900_SUOMI_NPP_rec.log

#Pass ID: 20260130_112900_SUOMI NPP
#Satellite: SUOMI NPP
#Configuration: NPP
#almurnet v.1.7.20251203
#Start time: 2026-01-30 11:29:00

#Version: 2.2.20231116
#Station: R3.2S_Murmansk
#Location: 33.079688 lon 68.888172 lat
#TLE: 1 37849U 11061A   26029.48304708  .00000140  00000+0  87283-4 0  9999
#TLE: 2 37849  98.7824 331.4079 0002024  38.4342 321.6978 14.19531488738761

#Time	Az	El	Level	Level2	SNR	BER	BlckErr	Temp	State	Recorded	gain1	gain2
2026-01-30 11:29:00.28	198.62	2.00	-54.3	-69.3	3.8	1.49e+00	0	39	0	0	79	21186
2026-01-30 11:29:04.31	198.85	2.24	-54.0	-69.0	3.8	1.49e+00	0	39	104	0	79	20352
2026-01-30 11:29:08.33	199.08	2.48	-53.6	-68.5	3.8	1.49e+00	0	39	104	0	79	19368
2026-01-30 11:29:12.36	199.31	2.72	-52.3	-67.2	3.8	1.49e+00	0	39	104	0	76	19767
2026-01-30 11:29:16.40	199.55	2.96	-52.2	-67.2	3.8	1.49e+00	0	39	104	0	76	19704
2026-01-30 11:29:20.43	199.79	3.21	-52.2	-67.1	3.8	1.49e+00	0	39	104	0	76	19563
2026-01-30 11:29:24.46	200.04	3.45	-52.2	-67.1	3.8	1.49e+00	0	39	104	0	76	19587
2026-01-30 11:29:28.48	200.29	3.70	-52.2	-67.1	3.8	1.49e+00	0	40	104	0	76	19543
2026-01-30 11:29:32.52	200.54	3.95	-52.2	-67.1	3.8	1.49e+00	0	40	104	0	76	19471
2026-01-30 11:29:36.56	200.80	4.20	-52.1	-66.7	3.8	1.49e+00	0	40	104	0	76	18715
2026-01-30 11:29:40.59	201.06	4.45	-52.1	-66.6	3.8	1.49e+00	0	40	104	0	76	18485
2026-01-30 11:29:44.62	201.33	4.71	-51.7	-61.3	5.1	7.52e-01	0	40	0	1048576	75	10653
2026-01-30 11:29:48.65	201.60	4.97	-50.9	-56.8	8.9	3.60e-02	0	40	0	8388608	73	7102
2026-01-30 11:29:52.68	201.87	5.23	-50.8	-56.6	9.4	2.03e-01	0	40	0	16777216	73	6884
2026-01-30 11:29:56.71	202.15	5.49	-47.6	-50.0	16.0	0.00e+00	0	40	0	19922944	67	4563
2026-01-30 11:30:00.74	202.44	5.75	-47.6	-49.8	16.3	0.00e+00	0	40	0	27262976	66	4736
2026-01-30 11:30:04.76	202.73	6.02	-47.3	-49.3	16.9	0.00e+00	0	40	0	35651584	66	4481
2026-01-30 11:30:08.79	203.02	6.28	-47.2	-49.2	17.1	0.00e+00	0	40	0	42991616	66	4397
2026-01-30 11:30:12.82	203.32	6.55	-47.1	-49.1	17.2	0.00e+00	0	40	0	50331648	65	4610
2026-01-30 11:30:16.84	203.63	6.82	-46.8	-48.6	17.6	0.00e+00	0	40	0	57671680	65	4388
2026-01-30 11:30:20.87	203.94	7.10	-46.8	-48.6	17.6	0.00e+00	0	40	0	65011712	65	4388
2026-01-30 11:30:24.90	204.26	7.37	-46.6	-48.4	18.0	0.00e+00	0	40	0	73400320	65	4251
2026-01-30 11:30:28.93	204.58	7.65	-46.8	-48.7	17.7	0.00e+00	0	40	0	80740352	65	4394
2026-01-30 11:30:32.94	204.90	7.93	-46.5	-48.3	18.1	0.00e+00	0	40	0	88080384	65	4211
2026-01-30 11:30:36.97	205.24	8.22	-46.6	-48.3	18.1	0.00e+00	0	41	0	95420416	64	4468
2026-01-30 11:30:41.00	205.58	8.50	-46.2	-47.8	18.6	0.00e+00	0	41	0	102760448	64	4222
2026-01-30 11:30:45.03	205.93	8.79	-46.0	-47.6	19.0	0.00e+00	0	41	0	111149056	63	4349
2026-01-30 11:30:49.07	206.28	9.08	-45.7	-47.2	19.3	0.00e+00	0	41	0	118489088	63	4151
2026-01-30 11:30:53.10	206.64	9.37	-45.5	-46.9	19.6	0.00e+00	0	40	0	125829120	62	4253
2026-01-30 11:30:57.13	207.01	9.67	-45.3	-46.7	19.8	0.00e+00	0	41	0	133169152	62	4176
2026-01-30 11:31:01.16	207.38	9.97	-45.2	-46.6	20.0	0.00e+00	0	40	0	140509184	62	4113
2026-01-30 11:31:05.19	207.76	10.27	-44.8	-46.0	20.5	0.00e+00	0	41	0	148897792	61	4087
2026-01-30 11:31:09.22	208.15	10.57	-44.7	-46.0	20.5	0.00e+00	0	41	0	156237824	61	4069
2026-01-30 11:31:13.25	208.55	10.88	-44.9	-46.2	20.3	0.00e+00	0	41	0	163577856	61	4188
2026-01-30 11:31:17.27	208.96	11.19	-45.3	-46.7	20.0	0.00e+00	0	41	0	170917888	61	4395
2026-01-30 11:31:21.31	209.37	11.50	-45.3	-46.7	19.9	0.00e+00	0	41	0	179306496	61	4409
2026-01-30 11:31:25.33	209.79	11.81	-44.9	-46.2	20.4	0.00e+00	0	41	0	186646528	61	4173
2026-01-30 11:31:29.36	210.22	12.13	-44.5	-45.7	20.8	0.00e+00	0	41	0	193986560	61	3930
2026-01-30 11:31:33.38	210.66	12.45	-44.2	-45.4	21.2	0.00e+00	0	41	0	201326592	60	4013
2026-01-30 11:31:37.42	211.11	12.77	-44.5	-45.7	20.8	0.00e+00	0	41	0	208666624	60	4187
2026-01-30 11:31:41.45	211.57	13.10	-44.5	-45.7	20.9	0.00e+00	0	41	0	216006656	60	4180
2026-01-30 11:31:45.48	212.04	13.42	-45.1	-46.4	20.2	0.00e+00	0	41	0	224395264	60	4542
2026-01-30 11:31:49.50	212.52	13.75	-45.2	-46.5	20.2	0.00e+00	0	41	0	231735296	61	4315
2026-01-30 11:31:53.53	213.01	14.09	-44.9	-46.1	20.6	0.00e+00	0	41	0	239075328	61	4125
2026-01-30 11:31:57.56	213.51	14.42	-44.8	-46.0	20.8	0.00e+00	0	41	0	246415360	61	4057
2026-01-30 11:32:01.59	214.02	14.76	-45.0	-46.3	20.5	0.00e+00	0	41	0	254803968	61	4205
2026-01-30 11:32:05.62	214.54	15.10	-45.2	-46.5	20.3	0.00e+00	0	41	0	262144000	61	4337
2026-01-30 11:32:09.65	215.07	15.44	-45.1	-46.3	20.5	0.00e+00	0	41	0	269484032	61	4238
2026-01-30 11:32:13.67	215.62	15.79	-45.2	-46.5	20.3	0.00e+00	0	41	0	276824064	61	4308
2026-01-30 11:32:17.70	216.17	16.14	-45.6	-47.0	19.9	0.00e+00	0	41	0	284164096	61	4568
2026-01-30 11:32:21.72	216.74	16.49	-45.6	-47.0	19.9	0.00e+00	0	41	0	292552704	62	4302
2026-01-30 11:32:25.75	217.33	16.84	-45.8	-47.2	19.8	0.00e+00	0	41	0	299892736	62	4397
2026-01-30 11:32:29.78	217.93	17.20	-45.7	-47.1	19.8	0.00e+00	0	41	0	307232768	62	4348
2026-01-30 11:32:33.80	218.54	17.55	-45.0	-46.3	20.5	0.00e+00	0	41	0	314572800	61	4210
2026-01-30 11:32:37.83	219.16	17.91	-44.7	-45.9	20.9	0.00e+00	0	41	0	321912832	61	4025
2026-01-30 11:32:41.86	219.80	18.27	-44.5	-45.6	21.1	0.00e+00	0	41	0	329252864	60	4138
2026-01-30 11:32:45.87	220.45	18.64	-44.6	-45.9	20.9	0.00e+00	0	41	0	337641472	60	4248
2026-01-30 11:32:49.90	221.12	19.00	-44.6	-45.8	21.0	0.00e+00	0	41	0	344981504	60	4231
2026-01-30 11:32:53.93	221.81	19.37	-44.4	-45.5	21.3	0.00e+00	0	41	0	352321536	60	4072
2026-01-30 11:32:57.96	222.51	19.74	-44.4	-45.6	21.2	0.00e+00	0	41	0	359661568	60	4114
2026-01-30 11:33:01.98	223.23	20.11	-44.2	-45.4	21.3	0.00e+00	0	41	0	368050176	60	4018
2026-01-30 11:33:06.01	223.96	20.48	-44.4	-45.5	21.6	0.00e+00	0	41	0	375390208	59	4310
2026-01-30 11:33:10.04	224.72	20.85	-44.1	-45.2	21.9	0.00e+00	0	41	0	382730240	59	4183
2026-01-30 11:33:14.07	225.49	21.22	-44.1	-45.1	21.9	0.00e+00	0	41	0	390070272	59	4140
2026-01-30 11:33:18.09	226.27	21.59	-43.6	-44.7	22.3	0.00e+00	0	41	0	397410304	59	3914
2026-01-30 11:33:22.12	227.08	21.96	-43.5	-44.5	22.5	0.00e+00	0	41	0	405798912	58	4071
2026-01-30 11:33:26.15	227.91	22.33	-43.7	-44.8	22.3	0.00e+00	0	41	0	413138944	58	4204
2026-01-30 11:33:30.17	228.75	22.70	-44.3	-45.5	21.7	0.00e+00	0	41	0	420478976	59	4303
2026-01-30 11:33:34.20	229.62	23.07	-44.3	-45.4	21.5	0.00e+00	0	41	0	427819008	60	4023
2026-01-30 11:33:38.23	230.50	23.44	-44.1	-45.2	21.6	0.00e+00	0	41	0	435159040	60	3953
2026-01-30 11:33:42.26	231.41	23.81	-44.1	-45.2	21.6	0.00e+00	0	41	0	442499072	60	3946
2026-01-30 11:33:46.29	232.34	24.17	-44.0	-45.1	21.7	0.00e+00	0	41	0	450887680	60	3898
2026-01-30 11:33:50.32	233.29	24.53	-43.7	-44.8	22.3	0.00e+00	0	41	0	458227712	59	3960
2026-01-30 11:33:54.35	234.26	24.89	-43.7	-44.7	22.4	0.00e+00	0	41	0	465567744	59	3933
2026-01-30 11:33:58.37	235.24	25.24	-44.3	-45.4	21.7	0.00e+00	0	41	0	472907776	59	4275
2026-01-30 11:34:02.39	236.26	25.59	-44.2	-45.3	21.6	0.00e+00	0	41	0	481296384	60	3981
2026-01-30 11:34:06.42	237.29	25.93	-44.2	-45.4	21.8	0.00e+00	0	41	0	488636416	59	4243
2026-01-30 11:34:10.44	238.34	26.27	-44.4	-45.5	21.7	0.00e+00	0	41	0	495976448	59	4315
2026-01-30 11:34:14.48	239.43	26.61	-44.5	-45.6	21.6	0.00e+00	0	41	0	503316480	59	4383
2026-01-30 11:34:18.50	240.52	26.93	-44.2	-45.3	21.9	0.00e+00	0	41	0	510656512	59	4225
2026-01-30 11:34:22.54	241.65	27.25	-44.5	-45.6	21.3	0.00e+00	0	41	0	519045120	60	4128
2026-01-30 11:34:26.56	242.79	27.56	-44.6	-45.7	21.2	0.00e+00	0	41	0	526385152	60	4175
2026-01-30 11:34:30.59	243.96	27.86	-44.4	-45.5	21.7	0.00e+00	0	41	0	533725184	59	4324
2026-01-30 11:34:34.61	245.14	28.15	-44.5	-45.6	21.6	0.00e+00	0	41	0	541065216	59	4367
2026-01-30 11:34:38.65	246.35	28.43	-45.0	-46.2	20.8	0.00e+00	0	41	0	548405248	60	4417
2026-01-30 11:34:42.68	247.58	28.70	-44.1	-45.2	21.7	0.00e+00	0	41	0	556793856	60	3944
2026-01-30 11:34:46.71	248.83	28.96	-44.9	-46.1	20.9	0.00e+00	0	41	0	564133888	60	4345
2026-01-30 11:34:50.72	250.09	29.21	-45.0	-46.3	20.8	0.00e+00	0	41	0	571473920	61	4196
2026-01-30 11:34:54.75	251.38	29.44	-45.3	-46.6	20.5	0.00e+00	0	41	0	578813952	61	4351
2026-01-30 11:34:58.79	252.69	29.66	-46.5	-48.0	19.1	0.00e+00	0	41	0	586153984	64	4336
2026-01-30 11:35:02.81	254.00	29.86	-45.9	-47.2	20.0	0.00e+00	0	41	0	594542592	63	4163
2026-01-30 11:35:06.84	255.34	30.05	-46.8	-48.4	18.8	0.00e+00	0	41	0	601882624	64	4535
2026-01-30 11:35:10.86	256.69	30.23	-45.5	-46.7	20.4	0.00e+00	0	41	0	609222656	63	3957
2026-01-30 11:35:14.89	258.06	30.38	-46.7	-48.3	19.0	0.00e+00	0	41	0	616562688	64	4457
2026-01-30 11:35:18.93	259.44	30.52	-45.8	-47.1	20.0	0.00e+00	0	41	0	623902720	63	4136
2026-01-30 11:35:22.95	260.82	30.65	-44.7	-45.9	21.2	0.00e+00	0	41	0	632291328	61	4011
2026-01-30 11:35:26.98	262.22	30.75	-45.7	-47.0	20.2	0.00e+00	0	41	0	639631360	62	4301
2026-01-30 11:35:31.01	263.63	30.84	-44.8	-45.9	21.2	0.00e+00	0	41	0	646971392	61	4044
2026-01-30 11:35:35.03	265.04	30.91	-43.9	-44.9	22.3	0.00e+00	0	41	0	654311424	59	4043
2026-01-30 11:35:39.06	266.45	30.96	-44.7	-45.8	21.2	0.00e+00	0	41	0	661651456	60	4232
2026-01-30 11:35:43.10	267.88	30.99	-45.6	-46.9	20.4	0.00e+00	0	41	0	670040064	61	4495
2026-01-30 11:35:47.13	269.30	31.00	-46.0	-47.4	19.9	0.00e+00	0	41	0	677380096	63	4249
2026-01-30 11:35:51.15	270.72	30.99	-45.1	-46.3	20.9	0.00e+00	0	41	0	684720128	62	3967
2026-01-30 11:35:55.18	272.14	30.97	-44.5	-45.6	21.5	0.00e+00	0	41	0	692060160	61	3896
2026-01-30 11:35:59.20	273.56	30.92	-45.6	-46.9	20.4	0.00e+00	0	41	0	699400192	61	4497
2026-01-30 11:36:03.23	274.97	30.86	-46.3	-47.7	19.7	0.00e+00	0	41	0	707788800	63	4394
2026-01-30 11:36:07.26	276.38	30.78	-45.6	-46.9	20.4	0.00e+00	0	41	0	715128832	63	4008
2026-01-30 11:36:11.28	277.77	30.68	-45.8	-47.1	20.3	0.00e+00	0	41	0	722468864	62	4390
2026-01-30 11:36:15.31	279.16	30.56	-44.9	-46.1	21.1	0.00e+00	0	41	0	729808896	61	4124
2026-01-30 11:36:19.33	280.54	30.42	-46.3	-47.7	19.7	0.00e+00	0	41	0	737148928	63	4431
2026-01-30 11:36:23.36	281.91	30.27	-46.6	-48.2	19.2	0.00e+00	0	41	0	745537536	64	4393
2026-01-30 11:36:27.39	283.26	30.10	-46.2	-47.6	19.7	0.00e+00	0	41	0	752877568	63	4371
2026-01-30 11:36:31.41	284.59	29.92	-47.9	-49.8	17.7	0.00e+00	0	41	0	760217600	66	4725
2026-01-30 11:36:35.45	285.92	29.72	-49.3	-51.7	15.9	0.00e+00	0	41	0	767557632	69	4966
2026-01-30 11:36:39.47	287.22	29.50	-47.5	-49.2	18.2	0.00e+00	0	41	0	774897664	66	4424
2026-01-30 11:36:43.50	288.51	29.28	-47.4	-49.1	18.4	0.00e+00	0	41	0	783286272	66	4377
2026-01-30 11:36:47.54	289.78	29.03	-46.8	-48.4	19.1	0.00e+00	0	41	0	790626304	64	4501
2026-01-30 11:36:51.57	291.04	28.78	-46.0	-47.2	20.2	0.00e+00	0	41	0	797966336	63	4192
2026-01-30 11:36:55.60	292.27	28.51	-46.1	-47.4	20.2	0.00e+00	0	41	0	805306368	62	4507
2026-01-30 11:36:59.63	293.48	28.23	-46.9	-48.4	19.1	0.00e+00	0	41	0	812646400	64	4497
2026-01-30 11:37:03.66	294.67	27.95	-47.7	-49.5	18.0	0.00e+00	0	41	0	821035008	66	4565
2026-01-30 11:37:07.69	295.84	27.65	-47.3	-49.0	18.7	0.00e+00	0	41	0	828375040	65	4556
2026-01-30 11:37:11.72	296.98	27.34	-48.2	-50.1	17.5	0.00e+00	0	41	0	835715072	67	4646
2026-01-30 11:37:15.74	298.10	27.03	-48.3	-50.3	17.3	0.00e+00	0	41	0	843055104	67	4723
2026-01-30 11:37:19.77	299.21	26.71	-47.4	-49.1	18.4	0.00e+00	0	41	0	850395136	66	4359
2026-01-30 11:37:23.79	300.29	26.38	-47.2	-48.8	18.7	0.00e+00	0	41	0	858783744	65	4453
2026-01-30 11:37:27.81	301.34	26.04	-47.4	-49.0	18.4	0.00e+00	0	41	0	866123776	65	4589
2026-01-30 11:37:31.84	302.38	25.70	-47.1	-48.7	18.7	0.00e+00	0	41	0	873463808	66	4181
2026-01-30 11:37:35.87	303.40	25.36	-46.5	-48.0	19.3	0.00e+00	0	41	0	880803840	64	4304
2026-01-30 11:37:39.90	304.39	25.01	-45.6	-46.9	20.4	0.00e+00	0	41	0	889192448	63	4008
2026-01-30 11:37:43.93	305.36	24.65	-46.1	-47.5	19.8	0.00e+00	0	41	0	896532480	62	4576
2026-01-30 11:37:47.96	306.31	24.29	-45.1	-46.3	20.8	0.00e+00	0	41	0	903872512	61	4212
2026-01-30 11:37:51.98	307.24	23.93	-46.1	-47.4	19.8	0.00e+00	0	41	0	911212544	63	4286
2026-01-30 11:37:56.01	308.15	23.57	-44.4	-45.5	21.6	0.00e+00	0	41	0	918552576	60	4065
2026-01-30 11:38:00.05	309.04	23.21	-46.3	-47.8	19.5	0.00e+00	0	41	0	925892608	63	4444
2026-01-30 11:38:04.07	309.91	22.84	-45.2	-46.4	20.6	0.00e+00	0	41	0	934281216	62	4033
2026-01-30 11:38:08.10	310.76	22.47	-44.1	-45.2	21.7	0.00e+00	0	41	0	941621248	60	3947
2026-01-30 11:38:12.13	311.59	22.10	-43.7	-44.7	22.4	0.00e+00	0	41	0	948961280	58	4174
2026-01-30 11:38:16.16	312.40	21.73	-46.9	-48.6	18.6	0.00e+00	0	41	0	956301312	64	4615
2026-01-30 11:38:20.19	313.19	21.36	-45.6	-46.9	20.2	0.00e+00	0	41	0	964689920	63	4017
2026-01-30 11:38:24.22	313.96	20.99	-45.2	-46.4	20.6	0.00e+00	0	41	0	972029952	61	4269
2026-01-30 11:38:28.25	314.72	20.63	-44.3	-45.4	21.8	0.00e+00	0	41	0	979369984	59	4247
2026-01-30 11:38:32.27	315.45	20.26	-44.1	-45.2	22.0	0.00e+00	0	41	0	986710016	59	4158
2026-01-30 11:38:36.30	316.17	19.89	-44.3	-45.4	21.4	0.00e+00	0	41	0	994050048	60	4040
2026-01-30 11:38:40.33	316.88	19.53	-44.3	-45.4	21.4	0.00e+00	0	41	0	1002438656	60	4038
2026-01-30 11:38:44.35	317.57	19.16	-45.0	-46.3	20.7	0.00e+00	0	41	0	1009778688	60	4456
2026-01-30 11:38:48.38	318.24	18.80	-44.4	-45.5	21.3	0.00e+00	0	41	0	1017118720	60	4079
2026-01-30 11:38:52.40	318.89	18.44	-44.1	-45.2	21.8	0.00e+00	0	41	0	1024458752	59	4179
2026-01-30 11:38:56.42	319.53	18.08	-44.1	-45.2	21.8	0.00e+00	0	41	0	1031798784	59	4167
2026-01-30 11:39:00.45	320.16	17.72	-43.6	-44.6	22.3	0.00e+00	0	41	0	1039138816	59	3896
2026-01-30 11:39:04.47	320.78	17.37	-43.9	-45.0	22.0	0.00e+00	0	41	0	1047527424	58	4300
2026-01-30 11:39:08.50	321.38	17.01	-44.1	-45.2	21.8	0.00e+00	0	41	0	1054867456	59	4160
2026-01-30 11:39:12.53	321.96	16.66	-44.1	-45.2	21.7	0.00e+00	0	41	0	1062207488	59	4162
2026-01-30 11:39:16.56	322.54	16.31	-44.1	-45.2	21.7	0.00e+00	0	41	0	1069547520	59	4182
2026-01-30 11:39:20.57	323.09	15.97	-44.1	-45.3	21.6	0.00e+00	0	41	0	1076887552	59	4209
2026-01-30 11:39:24.59	323.64	15.62	-44.5	-45.7	21.2	0.00e+00	0	41	0	1085276160	59	4428
2026-01-30 11:39:28.61	324.18	15.28	-44.0	-45.1	21.7	0.00e+00	0	41	0	1092616192	59	4134
2026-01-30 11:39:32.63	324.70	14.94	-44.0	-45.1	21.7	0.00e+00	0	41	0	1099956224	59	4132
2026-01-30 11:39:36.66	325.21	14.61	-44.3	-45.5	21.1	0.00e+00	0	41	0	1107296256	60	4085
2026-01-30 11:39:40.68	325.71	14.27	-44.9	-46.2	20.4	0.00e+00	0	41	0	1115684864	60	4438
2026-01-30 11:39:44.70	326.21	13.94	-44.9	-46.1	20.5	0.00e+00	0	41	0	1123024896	60	4382
2026-01-30 11:39:48.72	326.69	13.62	-44.9	-46.1	20.4	0.00e+00	0	41	0	1130364928	60	4369
2026-01-30 11:39:52.74	327.16	13.29	-45.3	-46.7	20.0	0.00e+00	0	41	0	1137704960	61	4426
2026-01-30 11:39:56.76	327.62	12.97	-46.1	-47.6	19.1	0.00e+00	0	41	0	1145044992	62	4622
2026-01-30 11:40:00.79	328.07	12.65	-45.9	-47.4	19.1	0.00e+00	0	41	0	1152385024	62	4544
2026-01-30 11:40:04.82	328.51	12.33	-45.6	-47.0	19.5	0.00e+00	0	41	0	1160773632	62	4337
2026-01-30 11:40:08.84	328.94	12.01	-45.9	-47.4	19.2	0.00e+00	0	41	0	1168113664	62	4498
2026-01-30 11:40:12.86	329.37	11.70	-45.9	-47.5	19.1	0.00e+00	0	41	0	1175453696	63	4306
2026-01-30 11:40:16.89	329.79	11.39	-45.4	-46.8	19.7	0.00e+00	0	41	0	1182793728	62	4220
2026-01-30 11:40:20.92	330.19	11.08	-45.2	-46.5	19.9	0.00e+00	0	41	0	1190133760	62	4080
2026-01-30 11:40:24.93	330.59	10.78	-44.8	-46.1	20.2	0.00e+00	0	41	0	1198522368	61	4114
2026-01-30 11:40:28.95	330.98	10.48	-45.2	-46.5	19.8	0.00e+00	0	41	0	1205862400	61	4324
2026-01-30 11:40:32.97	331.37	10.18	-46.1	-47.6	18.8	0.00e+00	0	41	0	1213202432	62	4644
2026-01-30 11:40:37.00	331.75	9.88	-46.3	-48.0	18.4	0.00e+00	0	41	0	1220542464	63	4564
2026-01-30 11:40:41.03	332.12	9.59	-46.1	-47.7	18.7	0.00e+00	0	41	0	1227882496	63	4413
2026-01-30 11:40:45.04	332.48	9.30	-45.7	-47.2	19.1	0.00e+00	0	41	0	1236271104	63	4185
2026-01-30 11:40:49.07	332.84	9.01	-45.4	-46.8	19.5	0.00e+00	0	41	0	1243611136	62	4218
2026-01-30 11:40:53.09	333.18	8.72	-45.3	-46.7	19.6	0.00e+00	0	41	0	1250951168	62	4164
2026-01-30 11:40:57.11	333.53	8.44	-45.3	-46.8	19.4	0.00e+00	0	41	0	1258291200	62	4204
2026-01-30 11:41:01.14	333.87	8.15	-45.2	-46.7	19.5	0.00e+00	0	41	0	1265631232	62	4163
2026-01-30 11:41:05.16	334.20	7.88	-45.1	-46.6	19.5	0.00e+00	0	41	0	1272971264	61	4351
2026-01-30 11:41:09.18	334.52	7.60	-45.1	-46.5	19.6	0.00e+00	0	41	0	1281359872	61	4329
2026-01-30 11:41:13.21	334.84	7.32	-45.0	-46.4	19.7	0.00e+00	0	41	0	1288699904	61	4251
2026-01-30 11:41:17.22	335.15	7.05	-45.5	-47.0	19.0	0.00e+00	0	41	0	1296039936	61	4593
2026-01-30 11:41:21.23	335.46	6.78	-46.0	-47.7	18.5	0.00e+00	0	41	0	1303379968	62	4652
2026-01-30 11:41:25.24	335.76	6.51	-46.2	-48.0	17.9	0.00e+00	0	41	0	1310720000	63	4583
2026-01-30 11:41:29.27	336.06	6.25	-46.5	-48.3	17.8	0.00e+00	0	41	0	1319108608	63	4749
2026-01-30 11:41:33.29	336.35	5.98	-46.4	-48.2	17.7	0.00e+00	0	41	0	1326448640	64	4428
2026-01-30 11:41:37.31	336.64	5.72	-46.4	-48.3	17.6	0.00e+00	0	41	0	1333788672	64	4471
2026-01-30 11:41:41.33	336.92	5.46	-46.0	-47.8	18.1	0.00e+00	0	41	0	1341128704	63	4450
2026-01-30 11:41:45.36	337.20	5.20	-46.3	-48.2	17.6	0.00e+00	0	41	0	1348468736	63	4678
2026-01-30 11:41:49.38	337.48	4.95	-52.5	-67.5	3.8	1.14e+00	0	41	104	1354760192	75	21607
2026-01-30 11:41:53.41	337.75	4.69	-53.5	-68.5	3.8	1.49e+00	0	41	104	1354760192	77	21508
2026-01-30 11:41:57.44	338.01	4.44	-53.7	-68.7	3.8	1.49e+00	0	41	104	1354760192	77	22068
2026-01-30 11:42:01.47	338.28	4.19	-53.5	-68.4	3.8	1.49e+00	0	41	104	1354760192	77	21470
2026-01-30 11:42:05.51	338.53	3.94	-53.5	-68.4	3.8	1.49e+00	0	41	104	1354760192	77	21455
2026-01-30 11:42:09.53	338.79	3.69	-53.5	-68.5	3.8	1.49e+00	0	41	104	1354760192	77	21517
2026-01-30 11:42:13.55	339.04	3.45	-53.4	-68.3	3.8	1.49e+00	0	41	104	1354760192	77	21135
2026-01-30 11:42:17.58	339.28	3.21	-53.3	-68.2	3.8	1.49e+00	0	41	104	1354760192	77	21011
2026-01-30 11:42:21.60	339.52	2.97	-53.3	-68.2	3.8	1.49e+00	0	41	104	1354760192	77	20953
2026-01-30 11:42:25.63	339.76	2.73	-53.2	-68.2	3.8	1.49e+00	0	41	104	1354760192	77	20811
2026-01-30 11:42:29.66	340.00	2.49	-53.2	-68.2	3.8	1.49e+00	0	41	104	1354760192	77	20838
2026-01-30 11:42:33.68	340.23	2.25	-53.2	-68.1	3.8	1.49e+00	0	41	104	1354760192	77	20775
2026-01-30 11:42:37.72	340.46	2.02	-53.2	-68.1	3.8	1.49e+00	0	41	104	1354760192	77	20699

#Closed at: 2026-01-30 11:42:38
#Recorded file [1354 MB]: D:/lorett/data/31041_260130_142900.dat