passes_logs/2026/01/30/R3.2S_Murmansk/R3.2S_Murmansk__20260130_093043_TY-42_rec.log

#Pass ID: 20260130_093043_TY-42
#Satellite: TY-42
#Configuration: TY-42_900M
#almurnet v.1.7.20251203
#Start time: 2026-01-30 09:30:43

#Version: 2.2.20231116
#Station: R3.2S_Murmansk
#Location: 33.079688 lon 68.888172 lat
#TLE: 1 64048U 25103A   26029.85667824  .00008009  00000-0  38191-3 0 09990
#TLE: 2 64048 097.4120 104.9954 0001690 093.3503 286.4957 15.19163422 39072

#Time	Az	El	Level	Level2	SNR	BER	BlckErr	Temp	State	Recorded	gain1	gain2
2026-01-30 09:30:43.38	20.88	2.01	-54.4	-56.5	6.2	0.00e+00	0	48	0	0	80	18337
2026-01-30 09:30:46.40	20.88	2.22	-54.3	-56.5	6.2	0.00e+00	0	48	104	0	80	18258
2026-01-30 09:30:49.42	20.88	2.43	-54.3	-56.4	6.2	0.00e+00	0	48	104	0	80	18145
2026-01-30 09:30:52.43	20.88	2.65	-54.4	-56.5	6.2	0.00e+00	0	48	104	0	80	18296
2026-01-30 09:30:55.46	20.87	2.86	-54.6	-56.7	6.2	0.00e+00	0	48	104	0	80	18692
2026-01-30 09:30:58.48	20.87	3.08	-54.6	-56.7	6.2	0.00e+00	0	48	104	0	80	18722
2026-01-30 09:31:01.50	20.87	3.30	-54.5	-56.6	6.2	0.00e+00	0	49	104	0	80	18584
2026-01-30 09:31:04.52	20.86	3.53	-54.4	-56.6	6.2	0.00e+00	0	49	104	0	80	18413
2026-01-30 09:31:07.53	20.86	3.75	-54.3	-56.4	6.2	0.00e+00	0	49	104	0	80	18092
2026-01-30 09:31:10.55	20.85	3.98	-54.0	-56.1	6.2	0.00e+00	0	49	104	0	79	18512
2026-01-30 09:31:13.58	20.85	4.22	-53.3	-55.5	6.2	0.00e+00	0	49	104	0	78	18259
2026-01-30 09:31:16.61	20.84	4.45	-52.5	-54.6	6.2	0.00e+00	0	49	104	0	77	17456
2026-01-30 09:31:19.63	20.84	4.69	-52.4	-54.6	6.2	0.00e+00	0	49	104	0	76	18456
2026-01-30 09:31:22.65	20.83	4.93	-52.4	-54.6	6.2	0.00e+00	0	50	104	0	76	18447
2026-01-30 09:31:25.67	20.82	5.17	-52.5	-54.6	6.2	0.00e+00	0	50	104	0	76	18421
2026-01-30 09:31:28.70	20.81	5.42	-52.4	-54.6	6.2	0.00e+00	0	50	104	0	76	18390
2026-01-30 09:31:31.72	20.81	5.67	-52.6	-54.7	6.2	0.00e+00	0	50	104	0	76	18732
2026-01-30 09:31:34.74	20.80	5.92	-39.2	-39.2	13.0	0.00e+00	0	52	0	92274688	50	13963
2026-01-30 09:31:37.76	20.79	6.17	-36.9	-36.9	13.4	7.63e-02	0	52	0	427819008	45	14276
2026-01-30 09:31:40.78	20.78	6.43	-35.7	-35.6	14.1	5.87e-02	0	52	0	763363328	43	13940
2026-01-30 09:31:43.80	20.77	6.69	-35.6	-35.5	14.2	2.41e-02	0	53	0	1115684864	42	14592
2026-01-30 09:31:46.82	20.76	6.96	-35.5	-35.5	14.2	2.41e-02	0	53	0	1451229184	42	14458
2026-01-30 09:31:49.84	20.75	7.23	-35.5	-35.4	14.1	2.20e-02	0	53	0	1786773504	42	14418
2026-01-30 09:31:52.85	20.74	7.50	-35.2	-35.1	14.3	2.13e-02	0	53	0	2130706432	42	13927
2026-01-30 09:31:55.87	20.73	7.78	-35.3	-35.2	14.2	2.13e-02	0	53	0	2466250752	42	14036
2026-01-30 09:31:58.89	20.72	8.06	-35.2	-35.1	14.3	2.00e-02	0	53	0	2810183680	42	13877
2026-01-30 09:32:01.91	20.70	8.34	-34.9	-34.8	14.4	1.94e-02	0	54	0	3154116608	41	14250
2026-01-30 09:32:04.93	20.69	8.63	-34.8	-34.8	14.5	1.56e-02	0	53	0	3489660928	41	14120
2026-01-30 09:32:07.96	20.67	8.93	-34.7	-34.6	14.5	1.43e-02	0	54	0	3825205248	41	13898
2026-01-30 09:32:10.98	20.66	9.23	-34.4	-34.3	14.6	1.34e-02	0	54	0	4160749568	40	14269
2026-01-30 09:32:14.00	20.64	9.53	-34.3	-34.2	14.7	1.13e-02	0	54	0	4513071104	40	14020
2026-01-30 09:32:17.02	20.63	9.84	-34.2	-34.2	14.7	1.01e-02	0	54	0	4848615424	40	13975
2026-01-30 09:32:20.05	20.61	10.15	-34.3	-34.2	14.7	9.62e-03	0	54	0	5184159744	40	13976
2026-01-30 09:32:23.06	20.59	10.47	-34.1	-34.0	14.8	8.55e-03	0	54	0	5528092672	39	14582
2026-01-30 09:32:26.09	20.57	10.80	-33.9	-33.8	14.9	7.41e-03	0	54	0	5872025600	39	14131
2026-01-30 09:32:29.10	20.55	11.13	-33.6	-33.5	15.0	6.40e-03	0	55	0	6207569920	39	13752
2026-01-30 09:32:32.12	20.53	11.46	-33.5	-33.4	15.1	5.22e-03	0	55	0	6551502848	39	13521
2026-01-30 09:32:35.13	20.51	11.80	-33.4	-33.3	15.1	4.62e-03	0	55	0	6887047168	38	14258
2026-01-30 09:32:38.16	20.49	12.15	-33.1	-33.0	15.2	4.36e-03	0	55	0	7222591488	38	13709
2026-01-30 09:32:41.17	20.47	12.51	-33.1	-33.0	15.2	3.50e-03	0	55	0	7558135808	38	13739
2026-01-30 09:32:44.20	20.44	12.87	-32.8	-32.7	15.3	3.19e-03	0	55	0	7910457344	37	14038
2026-01-30 09:32:47.22	20.42	13.24	-32.9	-32.8	15.3	2.90e-03	0	55	0	8246001664	37	14171
2026-01-30 09:32:50.24	20.39	13.62	-32.5	-32.4	15.4	2.74e-03	0	55	0	8581545984	37	13606
2026-01-30 09:32:53.25	20.36	14.00	-32.3	-32.2	15.5	2.15e-03	0	55	0	8925478912	36	14016
2026-01-30 09:32:56.27	20.33	14.40	-32.3	-32.3	15.5	1.75e-03	0	55	0	9261023232	36	14113
2026-01-30 09:32:59.29	20.30	14.80	-29.6	-29.5	15.2	1.71e-03	0	55	0	9604956160	31	13756
2026-01-30 09:33:02.31	20.27	15.21	-29.5	-29.4	15.2	3.37e-03	0	55	0	9948889088	31	13559
2026-01-30 09:33:05.33	20.24	15.63	-29.4	-29.3	15.3	3.12e-03	0	55	0	10284433408	30	14207
2026-01-30 09:33:08.35	20.20	16.05	-29.2	-29.1	15.3	2.94e-03	0	56	0	10619977728	30	13938
2026-01-30 09:33:11.38	20.16	16.49	-29.1	-29.0	15.4	2.44e-03	0	56	0	10955522048	30	13704
2026-01-30 09:33:14.40	20.12	16.94	-28.9	-28.8	15.4	2.51e-03	0	55	0	11307843584	29	14196
2026-01-30 09:33:17.41	20.08	17.40	-28.6	-28.6	15.5	1.62e-03	0	56	0	11643387904	29	13809
2026-01-30 09:33:20.43	20.04	17.87	-28.5	-28.4	15.6	1.50e-03	0	56	0	11978932224	29	13625
2026-01-30 09:33:23.45	20.00	18.35	-28.4	-28.3	15.6	1.46e-03	0	56	0	12322865152	28	14212
2026-01-30 09:33:26.46	19.95	18.85	-28.2	-28.1	15.6	1.15e-03	0	55	0	12658409472	28	13946
2026-01-30 09:33:29.48	19.90	19.35	-27.7	-27.6	15.8	8.34e-04	0	56	0	12993953792	27	13878
2026-01-30 09:33:32.51	19.85	19.88	-27.7	-27.6	15.8	5.05e-04	0	56	0	13346275328	27	13931
2026-01-30 09:33:35.53	19.80	20.41	-35.8	-35.7	14.9	6.25e-04	5144	56	0	13681819648	49	9931
2026-01-30 09:33:38.55	19.74	20.96	-36.7	-36.7	13.7	7.88e-02	0	56	0	14017363968	44	14828
2026-01-30 09:33:41.57	19.68	21.53	-34.7	-34.6	14.7	4.00e-02	0	56	0	14352908288	41	13851
2026-01-30 09:33:44.59	19.62	22.11	-27.5	-27.4	15.8	9.05e-03	0	56	0	14705229824	27	13632
2026-01-30 09:33:47.61	19.55	22.71	-26.6	-26.5	16.0	4.48e-04	0	56	0	15040774144	25	13769
2026-01-30 09:33:50.63	19.49	23.32	-26.3	-26.2	16.1	1.33e-04	0	56	0	15376318464	24	14044
2026-01-30 09:33:53.65	19.41	23.96	-26.2	-26.1	16.1	1.14e-04	0	56	0	15720251392	24	13874
2026-01-30 09:33:56.67	19.34	24.61	-25.7	-25.6	16.2	1.00e-04	0	56	0	16055795712	23	13927
2026-01-30 09:33:59.70	19.26	25.29	-25.5	-25.4	16.4	7.15e-05	0	56	0	16399728640	22	14300
2026-01-30 09:34:02.72	19.17	25.98	-25.2	-25.1	16.5	4.76e-05	0	56	0	16743661568	22	13919
2026-01-30 09:34:05.74	19.08	26.70	-25.2	-25.1	16.5	1.90e-05	0	56	0	17079205888	22	13857
2026-01-30 09:34:08.76	18.98	27.44	-53.6	-55.8	6.2	0.00e+00	0	55	104	17255366656	77	20049
2026-01-30 09:34:11.79	18.88	28.21	-53.6	-55.7	6.2	0.00e+00	0	55	104	17255366656	77	19836
2026-01-30 09:34:14.80	18.78	29.00	-53.7	-55.8	6.2	0.00e+00	0	54	104	17255366656	77	20023
2026-01-30 09:34:17.82	18.66	29.82	-53.6	-55.7	6.2	0.00e+00	0	54	104	17255366656	77	19899
2026-01-30 09:34:20.83	18.54	30.66	-53.6	-55.8	6.2	0.00e+00	0	54	104	17255366656	77	19985
2026-01-30 09:34:23.84	18.41	31.54	-53.6	-55.8	6.2	0.00e+00	0	54	104	17255366656	77	19982
2026-01-30 09:34:26.86	18.27	32.45	-53.7	-55.9	6.2	0.00e+00	0	54	104	17255366656	78	19050
2026-01-30 09:34:29.88	18.13	33.39	-53.7	-55.8	6.2	0.00e+00	0	54	104	17255366656	78	19022
2026-01-30 09:34:32.90	17.97	34.37	-53.7	-55.9	6.2	0.00e+00	0	54	104	17255366656	78	19063
2026-01-30 09:34:35.92	17.80	35.39	-53.7	-55.9	6.2	0.00e+00	0	54	104	17255366656	78	19065
2026-01-30 09:34:38.94	17.62	36.44	-53.8	-55.9	6.2	0.00e+00	0	54	104	17255366656	78	19220
2026-01-30 09:34:41.97	17.42	37.54	-53.8	-55.9	6.2	0.00e+00	0	54	104	17255366656	78	19188
2026-01-30 09:34:45.00	17.21	38.68	-53.8	-56.0	6.2	0.00e+00	0	53	104	17255366656	78	19300
2026-01-30 09:34:48.02	16.98	39.86	-53.8	-56.0	6.2	0.00e+00	0	53	104	17255366656	78	19259
2026-01-30 09:34:51.04	16.73	41.09	-53.9	-56.0	6.2	0.00e+00	0	53	104	17255366656	78	19474
2026-01-30 09:34:54.06	16.46	42.37	-53.9	-56.1	6.2	0.00e+00	0	53	104	17255366656	78	19535
2026-01-30 09:34:57.08	16.17	43.69	-53.9	-56.1	6.2	0.00e+00	0	53	104	17255366656	78	19505
2026-01-30 09:35:00.11	15.84	45.08	-53.9	-56.1	6.2	0.00e+00	0	53	104	17255366656	78	19511
2026-01-30 09:35:03.13	15.49	46.51	-54.0	-56.1	6.2	0.00e+00	0	53	104	17255366656	78	19622
2026-01-30 09:35:06.15	15.09	48.00	-54.0	-56.1	6.2	0.00e+00	0	53	104	17255366656	78	19698
2026-01-30 09:35:09.17	14.66	49.55	-54.0	-56.1	6.2	0.00e+00	0	53	104	17255366656	78	19692
2026-01-30 09:35:12.19	14.17	51.16	-54.0	-56.1	6.2	0.00e+00	0	53	104	17255366656	78	19598
2026-01-30 09:35:15.21	13.63	52.83	-54.1	-56.2	6.2	0.00e+00	0	53	104	17255366656	78	19767
2026-01-30 09:35:18.23	13.01	54.56	-54.1	-56.2	6.2	0.00e+00	0	53	104	17255366656	78	19910
2026-01-30 09:35:21.26	12.31	56.36	-54.1	-56.2	6.2	0.00e+00	0	53	104	17255366656	78	19897
2026-01-30 09:35:24.28	11.51	58.21	-54.1	-56.2	6.2	0.00e+00	0	53	104	17255366656	78	19770
2026-01-30 09:35:27.31	10.59	60.13	-54.2	-56.3	6.2	0.00e+00	0	53	104	17255366656	78	20041
2026-01-30 09:35:30.33	9.50	62.10	-54.2	-56.3	6.2	0.00e+00	0	53	104	17255366656	79	19015
2026-01-30 09:35:33.35	8.23	64.12	-54.2	-56.3	6.2	0.00e+00	0	53	104	17255366656	79	18995
2026-01-30 09:35:36.37	6.69	66.19	-54.2	-56.3	6.2	0.00e+00	0	53	104	17255366656	79	18958
2026-01-30 09:35:39.39	4.83	68.30	-54.3	-56.4	6.2	0.00e+00	0	53	104	17255366656	79	19161
2026-01-30 09:35:42.41	2.52	70.44	-54.3	-56.5	6.2	0.00e+00	0	53	104	17255366656	79	19314
2026-01-30 09:35:45.43	359.58	72.60	-54.3	-56.5	6.2	0.00e+00	0	53	104	17255366656	79	19274
2026-01-30 09:35:48.45	355.76	74.74	-54.3	-56.4	6.2	0.00e+00	0	53	104	17255366656	79	19245
2026-01-30 09:35:51.47	350.65	76.83	-54.3	-56.5	6.2	0.00e+00	0	53	104	17255366656	79	19279
2026-01-30 09:35:54.49	343.60	78.81	-54.4	-56.5	6.2	0.00e+00	0	53	104	17255366656	79	19375
2026-01-30 09:35:57.51	333.64	80.57	-54.4	-56.5	6.2	0.00e+00	0	53	104	17255366656	79	19471
2026-01-30 09:36:00.54	319.59	81.95	-54.4	-56.6	6.2	0.00e+00	0	53	104	17255366656	79	19490
2026-01-30 09:36:03.56	301.35	82.69	-54.4	-56.5	6.2	0.00e+00	0	52	104	17255366656	79	19364
2026-01-30 09:36:06.58	281.45	82.59	-54.4	-56.5	6.2	0.00e+00	0	53	104	17255366656	79	19429
2026-01-30 09:36:09.61	264.03	81.67	-54.4	-56.6	6.2	0.00e+00	0	53	104	17255366656	79	19556
2026-01-30 09:36:12.63	251.05	80.19	-54.4	-56.6	6.2	0.00e+00	0	53	104	17255366656	79	19546
2026-01-30 09:36:15.65	241.86	78.36	-54.4	-56.5	6.2	0.00e+00	0	52	104	17255366656	79	19460
2026-01-30 09:36:18.67	235.33	76.34	-54.5	-56.6	6.2	0.00e+00	0	53	104	17255366656	79	19582
2026-01-30 09:36:21.69	230.57	74.24	-54.5	-56.6	6.2	0.00e+00	0	53	104	17255366656	79	19580
2026-01-30 09:36:24.71	226.98	72.09	-54.4	-56.6	6.2	0.00e+00	0	52	104	17255366656	79	19511
2026-01-30 09:36:27.72	224.22	69.94	-54.5	-56.6	6.2	0.00e+00	0	53	104	17255366656	79	19581
2026-01-30 09:36:30.75	222.02	67.79	-54.5	-56.6	6.2	0.00e+00	0	53	104	17255366656	79	19612
2026-01-30 09:36:33.78	220.23	65.68	-54.4	-56.6	6.2	0.00e+00	0	53	104	17255366656	79	19544
2026-01-30 09:36:36.81	218.76	63.61	-54.4	-56.6	6.2	0.00e+00	0	53	104	17255366656	79	19483
2026-01-30 09:36:39.84	217.53	61.59	-54.4	-56.5	6.2	0.00e+00	0	52	104	17255366656	79	19377
2026-01-30 09:36:42.86	216.49	59.63	-54.4	-56.5	6.2	0.00e+00	0	53	104	17255366656	79	19388
2026-01-30 09:36:45.89	215.59	57.72	-54.4	-56.5	6.2	0.00e+00	0	53	104	17255366656	79	19320
2026-01-30 09:36:48.90	214.82	55.88	-54.3	-56.4	6.2	0.00e+00	0	52	104	17255366656	79	19244
2026-01-30 09:36:51.92	214.14	54.10	-54.3	-56.4	6.2	0.00e+00	0	52	104	17255366656	79	19182
2026-01-30 09:36:54.95	213.54	52.38	-54.3	-56.4	6.2	0.00e+00	0	52	104	17255366656	79	19091
2026-01-30 09:36:57.97	213.02	50.72	-54.2	-56.4	6.2	0.00e+00	0	52	104	17255366656	79	19096
2026-01-30 09:37:00.99	212.54	49.12	-54.2	-56.3	6.2	0.00e+00	0	52	104	17255366656	79	19003
2026-01-30 09:37:04.01	212.12	47.58	-54.2	-56.3	6.2	0.00e+00	0	53	104	17255366656	79	18923
2026-01-30 09:37:07.04	211.73	46.10	-54.2	-56.3	6.2	0.00e+00	0	52	104	17255366656	79	18911
2026-01-30 09:37:10.05	211.39	44.68	-54.1	-56.3	6.2	0.00e+00	0	53	104	17255366656	79	18831
2026-01-30 09:37:13.08	211.07	43.30	-54.1	-56.2	6.2	0.00e+00	0	53	104	17255366656	79	18773
2026-01-30 09:37:16.10	210.78	41.98	-54.0	-56.2	6.2	0.00e+00	0	52	104	17255366656	79	18628
2026-01-30 09:37:19.13	210.51	40.71	-54.0	-56.2	6.2	0.00e+00	0	53	104	17255366656	79	18648
2026-01-30 09:37:22.14	210.27	39.49	-54.0	-56.1	6.2	0.00e+00	0	52	104	17255366656	79	18546
2026-01-30 09:37:25.16	210.05	38.32	-54.0	-56.1	6.2	0.00e+00	0	52	104	17255366656	79	18490
2026-01-30 09:37:28.18	209.84	37.19	-53.9	-56.0	6.2	0.00e+00	0	52	104	17255366656	79	18366
2026-01-30 09:37:31.20	209.64	36.10	-53.9	-56.0	6.2	0.00e+00	0	52	104	17255366656	79	18370
2026-01-30 09:37:34.23	209.46	35.05	-53.9	-56.0	6.2	0.00e+00	0	53	104	17255366656	79	18385
2026-01-30 09:37:37.25	209.30	34.04	-53.9	-56.0	6.2	0.00e+00	0	53	104	17255366656	79	18222
2026-01-30 09:37:40.28	209.14	33.07	-53.8	-56.0	6.2	0.00e+00	0	53	104	17255366656	79	18194
2026-01-30 09:37:43.29	209.00	32.13	-53.8	-56.0	6.2	0.00e+00	0	53	104	17255366656	79	18219
2026-01-30 09:37:46.32	208.86	31.22	-53.8	-56.0	6.2	0.00e+00	0	52	104	17255366656	79	18183
2026-01-30 09:37:49.34	208.73	30.35	-53.7	-55.9	6.2	0.00e+00	0	52	104	17255366656	79	18070
2026-01-30 09:37:52.37	208.61	29.51	-53.7	-55.9	6.2	0.00e+00	0	52	104	17255366656	79	17999
2026-01-30 09:37:55.40	208.50	28.69	-53.7	-55.9	6.2	0.00e+00	0	52	104	17255366656	79	17981
2026-01-30 09:37:58.42	208.39	27.90	-53.7	-55.8	6.2	0.00e+00	0	52	104	17255366656	79	17916
2026-01-30 09:38:01.45	208.29	27.14	-53.7	-55.8	6.2	0.00e+00	0	53	104	17255366656	79	17857
2026-01-30 09:38:04.47	208.19	26.40	-53.6	-55.8	6.2	0.00e+00	0	52	104	17255366656	79	17819
2026-01-30 09:38:07.50	208.10	25.68	-53.6	-55.7	6.2	0.00e+00	0	53	104	17255366656	79	17745
2026-01-30 09:38:10.53	208.02	24.99	-53.6	-55.7	6.2	0.00e+00	0	52	104	17255366656	79	17719
2026-01-30 09:38:13.54	207.94	24.32	-53.6	-55.7	6.2	0.00e+00	0	53	104	17255366656	79	17627
2026-01-30 09:38:16.57	207.86	23.67	-53.5	-55.7	6.2	0.00e+00	0	53	104	17255366656	79	17602
2026-01-30 09:38:19.60	207.79	23.04	-53.5	-55.7	6.2	0.00e+00	0	52	104	17255366656	79	17585
2026-01-30 09:38:22.61	207.72	22.43	-53.5	-55.6	6.2	0.00e+00	0	52	104	17255366656	79	17462
2026-01-30 09:38:25.64	207.65	21.83	-53.5	-55.6	6.2	0.00e+00	0	52	104	17255366656	78	18470
2026-01-30 09:38:28.67	207.59	21.25	-53.4	-55.6	6.2	0.00e+00	0	52	104	17255366656	78	18471
2026-01-30 09:38:31.68	207.53	20.69	-53.4	-55.6	6.2	0.00e+00	0	52	104	17255366656	78	18419
2026-01-30 09:38:34.70	207.48	20.15	-53.4	-55.5	6.2	0.00e+00	0	52	104	17255366656	78	18321
2026-01-30 09:38:37.73	207.42	19.61	-53.3	-55.5	6.2	0.00e+00	0	53	104	17255366656	78	18253
2026-01-30 09:38:40.75	207.37	19.09	-53.3	-55.5	6.2	0.00e+00	0	53	104	17255366656	78	18202
2026-01-30 09:38:43.78	207.32	18.59	-53.3	-55.5	6.2	0.00e+00	0	53	104	17255366656	78	18187
2026-01-30 09:38:46.80	207.28	18.10	-53.3	-55.4	6.2	0.00e+00	0	52	104	17255366656	78	18100
2026-01-30 09:38:49.82	207.23	17.62	-53.3	-55.4	6.2	0.00e+00	0	52	104	17255366656	78	18033
2026-01-30 09:38:52.84	207.19	17.15	-53.2	-55.3	6.2	0.00e+00	0	53	104	17255366656	78	17964
2026-01-30 09:38:55.86	207.15	16.69	-53.2	-55.3	6.2	0.00e+00	0	52	104	17255366656	78	17946
2026-01-30 09:38:58.88	207.11	16.24	-53.2	-55.3	6.2	0.00e+00	0	52	104	17255366656	78	17903
2026-01-30 09:39:01.90	207.07	15.81	-53.2	-55.3	6.2	0.00e+00	0	53	104	17255366656	78	17842
2026-01-30 09:39:04.92	207.03	15.38	-53.1	-55.2	6.2	0.00e+00	0	52	104	17255366656	78	17763
2026-01-30 09:39:07.94	207.00	14.96	-53.1	-55.2	6.2	0.00e+00	0	52	104	17255366656	78	17725
2026-01-30 09:39:10.96	206.97	14.55	-53.1	-55.2	6.2	0.00e+00	0	52	104	17255366656	78	17697
2026-01-30 09:39:13.98	206.94	14.15	-53.1	-55.2	6.2	0.00e+00	0	52	104	17255366656	78	17625
2026-01-30 09:39:17.00	206.91	13.76	-53.0	-55.2	6.2	0.00e+00	0	53	104	17255366656	78	17595
2026-01-30 09:39:20.03	206.88	13.38	-53.0	-55.2	6.2	0.00e+00	0	53	104	17255366656	78	17635
2026-01-30 09:39:23.05	206.85	13.00	-53.0	-55.1	6.2	0.00e+00	0	53	104	17255366656	78	17501
2026-01-30 09:39:26.07	206.82	12.63	-53.0	-55.1	6.2	0.00e+00	0	52	104	17255366656	77	18447
2026-01-30 09:39:29.09	206.80	12.27	-52.9	-55.1	6.2	0.00e+00	0	52	104	17255366656	77	18417
2026-01-30 09:39:32.12	206.77	11.92	-52.9	-55.1	6.2	0.00e+00	0	53	104	17255366656	77	18421
2026-01-30 09:39:35.15	206.75	11.57	-52.9	-55.0	6.2	0.00e+00	0	53	104	17255366656	77	18305
2026-01-30 09:39:38.17	206.73	11.23	-52.9	-55.0	6.2	0.00e+00	0	53	104	17255366656	77	18219
2026-01-30 09:39:41.19	206.70	10.89	-52.8	-54.9	6.2	0.00e+00	0	52	104	17255366656	77	18165
2026-01-30 09:39:44.21	206.68	10.56	-52.8	-54.9	6.2	0.00e+00	0	52	104	17255366656	77	18166
2026-01-30 09:39:47.23	206.66	10.24	-52.8	-54.9	6.2	0.00e+00	0	53	104	17255366656	77	18108
2026-01-30 09:39:50.26	206.64	9.92	-52.7	-54.9	6.2	0.00e+00	0	52	104	17255366656	77	18066
2026-01-30 09:39:53.29	206.63	9.61	-52.7	-54.9	6.2	0.00e+00	0	52	104	17255366656	77	17976
2026-01-30 09:39:56.30	206.61	9.30	-52.7	-54.9	6.2	0.00e+00	0	52	104	17255366656	77	17977
2026-01-30 09:39:59.33	206.59	9.00	-52.7	-54.8	6.2	0.00e+00	0	53	104	17255366656	77	17911
2026-01-30 09:40:02.35	206.58	8.70	-52.6	-54.8	6.2	0.00e+00	0	52	104	17255366656	77	17786
2026-01-30 09:40:05.37	206.56	8.41	-52.6	-54.7	6.2	0.00e+00	0	52	104	17255366656	77	17734
2026-01-30 09:40:08.40	206.54	8.12	-52.6	-54.7	6.2	0.00e+00	0	52	104	17255366656	77	17749
2026-01-30 09:40:11.42	206.53	7.83	-52.6	-54.7	6.2	0.00e+00	0	52	104	17255366656	77	17667
2026-01-30 09:40:14.44	206.52	7.55	-52.5	-54.6	6.2	0.00e+00	0	53	104	17255366656	77	17502
2026-01-30 09:40:17.46	206.50	7.28	-52.5	-54.6	6.2	0.00e+00	0	52	104	17255366656	77	17494
2026-01-30 09:40:20.48	206.49	7.00	-52.5	-54.6	6.2	0.00e+00	0	52	104	17255366656	76	18573
2026-01-30 09:40:23.50	206.48	6.74	-52.5	-54.6	6.2	0.00e+00	0	52	104	17255366656	76	18475
2026-01-30 09:40:26.53	206.47	6.47	-52.4	-54.4	6.2	0.00e+00	0	53	104	17255366656	76	18168
2026-01-30 09:40:29.55	206.46	6.21	-52.3	-54.5	6.2	0.00e+00	0	53	104	17255366656	76	18198
2026-01-30 09:40:32.57	206.45	5.95	-52.3	-54.5	6.2	0.00e+00	0	53	104	17255366656	76	18244
2026-01-30 09:40:35.59	206.44	5.70	-52.3	-54.4	6.2	0.00e+00	0	53	104	17255366656	76	18175
2026-01-30 09:40:38.61	206.43	5.45	-52.2	-54.3	6.2	0.00e+00	0	52	104	17255366656	76	17842
2026-01-30 09:40:41.63	206.42	5.20	-52.2	-54.3	6.2	0.00e+00	0	52	104	17255366656	76	17912
2026-01-30 09:40:44.65	206.41	4.95	-52.4	-54.5	6.2	0.00e+00	0	52	104	17255366656	76	18345
2026-01-30 09:40:47.68	206.40	4.71	-53.5	-55.6	6.2	0.00e+00	0	53	104	17255366656	77	19594
2026-01-30 09:40:50.69	206.39	4.47	-54.0	-56.1	6.2	0.00e+00	0	52	104	17255366656	78	19577
2026-01-30 09:40:53.72	206.38	4.23	-54.2	-56.3	6.2	0.00e+00	0	52	104	17255366656	78	20137
2026-01-30 09:40:56.74	206.38	4.00	-54.3	-56.5	6.2	0.00e+00	0	52	104	17255366656	79	19301
2026-01-30 09:40:59.77	206.37	3.77	-54.4	-56.5	6.2	0.00e+00	0	53	104	17255366656	79	19393
2026-01-30 09:41:02.79	206.36	3.54	-54.4	-56.6	6.2	0.00e+00	0	53	104	17255366656	79	19558
2026-01-30 09:41:05.81	206.36	3.31	-54.4	-56.5	6.2	0.00e+00	0	52	104	17255366656	79	19323
2026-01-30 09:41:08.84	206.35	3.09	-54.1	-56.2	6.2	0.00e+00	0	53	104	17255366656	79	18794
2026-01-30 09:41:11.86	206.34	2.87	-53.7	-55.8	6.2	0.00e+00	0	53	104	17255366656	79	17898
2026-01-30 09:41:14.87	206.34	2.65	-53.6	-55.7	6.2	0.00e+00	0	52	104	17255366656	79	17732
2026-01-30 09:41:17.89	206.33	2.43	-53.6	-55.7	6.2	0.00e+00	0	52	104	17255366656	79	17696
2026-01-30 09:41:20.91	206.33	2.22	-53.6	-55.7	6.2	0.00e+00	0	52	104	17255366656	79	17656
2026-01-30 09:41:23.94	206.32	2.00	-53.6	-55.7	6.2	0.00e+00	0	52	104	17255366656	79	17637

#Closed at: 2026-01-30 09:41:24
#Recorded file [17255 MB]: D:/lorett/data/31041_260130_123043.dat