passes_logs/2026/01/30/R3.2S_Murmansk/R3.2S_Murmansk__20260130_031040_SUOMI_NPP_rec.log

#Pass ID: 20260130_031040_SUOMI NPP
#Satellite: SUOMI NPP
#Configuration: NPP
#almurnet v.1.7.20251203
#Start time: 2026-01-30 03:10:40

#Version: 2.2.20231116
#Station: R3.2S_Murmansk
#Location: 33.079688 lon 68.888172 lat
#TLE: 1 37849U 11061A   26029.48304708  .00000140  00000+0  87283-4 0  9999
#TLE: 2 37849  98.7824 331.4079 0002024  38.4342 321.6978 14.19531488738761

#Time	Az	El	Level	Level2	SNR	BER	BlckErr	Temp	State	Recorded	gain1	gain2
2026-01-30 03:10:40.13	38.51	1.98	-52.8	-67.8	3.8	1.49e+00	0	39	0	0	77	19845
2026-01-30 03:10:44.17	38.31	2.22	-52.0	-66.9	3.8	1.49e+00	0	39	104	0	74	21454
2026-01-30 03:10:48.20	38.12	2.46	-51.9	-66.9	3.8	1.49e+00	0	39	104	0	74	21387
2026-01-30 03:10:52.22	37.91	2.71	-51.9	-66.9	3.8	1.49e+00	0	39	104	0	74	21319
2026-01-30 03:10:56.24	37.71	2.95	-51.9	-66.8	3.8	1.49e+00	0	39	104	0	74	21203
2026-01-30 03:11:00.28	37.50	3.20	-51.9	-66.8	3.8	1.49e+00	0	40	104	0	74	21212
2026-01-30 03:11:04.31	37.29	3.45	-51.9	-66.8	3.8	1.49e+00	0	40	104	0	74	21153
2026-01-30 03:11:08.33	37.07	3.70	-51.9	-66.8	3.8	1.49e+00	0	40	104	0	74	21078
2026-01-30 03:11:12.36	36.85	3.96	-51.9	-66.7	3.8	1.49e+00	0	40	104	0	74	20842
2026-01-30 03:11:16.40	36.62	4.22	-51.8	-65.8	3.8	1.49e+00	0	40	104	0	74	18749
2026-01-30 03:11:20.43	36.39	4.47	-51.8	-65.6	3.8	1.49e+00	0	40	104	0	74	18363
2026-01-30 03:11:24.45	36.16	4.73	-50.5	-56.4	9.1	4.25e-02	0	40	0	4194304	73	6734
2026-01-30 03:11:28.48	35.92	5.00	-48.2	-51.2	14.5	7.00e-07	0	40	0	12582912	68	4963
2026-01-30 03:11:32.51	35.68	5.26	-49.8	-54.3	11.2	2.73e-02	0	40	0	19922944	71	5965
2026-01-30 03:11:36.55	35.43	5.53	-47.1	-49.4	16.2	0.00e+00	0	40	0	27262976	65	4812
2026-01-30 03:11:40.57	35.18	5.80	-47.0	-49.4	16.3	0.00e+00	0	40	0	34603008	65	4763
2026-01-30 03:11:44.59	34.92	6.07	-46.9	-49.1	16.7	0.00e+00	0	40	0	41943040	65	4608
2026-01-30 03:11:48.61	34.66	6.34	-46.5	-48.5	17.2	0.00e+00	0	40	0	50331648	64	4582
2026-01-30 03:11:52.64	34.39	6.62	-46.5	-48.6	17.1	0.00e+00	0	40	0	57671680	64	4629
2026-01-30 03:11:56.66	34.12	6.89	-46.5	-48.6	17.2	0.00e+00	0	40	0	65011712	64	4607
2026-01-30 03:12:00.69	33.84	7.17	-46.2	-48.2	17.6	0.00e+00	0	40	0	72351744	64	4401
2026-01-30 03:12:04.71	33.56	7.46	-46.2	-48.2	17.7	0.00e+00	0	41	0	79691776	64	4403
2026-01-30 03:12:08.74	33.27	7.74	-46.2	-48.1	17.7	0.00e+00	0	40	0	88080384	64	4374
2026-01-30 03:12:12.76	32.97	8.03	-46.1	-48.0	18.0	0.00e+00	0	41	0	95420416	63	4577
2026-01-30 03:12:16.79	32.67	8.32	-46.1	-47.9	18.1	0.00e+00	0	40	0	102760448	63	4507
2026-01-30 03:12:20.82	32.36	8.61	-46.0	-47.7	18.3	0.00e+00	0	40	0	110100480	63	4441
2026-01-30 03:12:24.84	32.04	8.91	-45.9	-47.7	18.4	0.00e+00	0	40	0	117440512	63	4403
2026-01-30 03:12:28.87	31.72	9.20	-45.8	-47.5	18.5	0.00e+00	0	41	0	125829120	63	4325
2026-01-30 03:12:32.90	31.39	9.51	-46.1	-47.9	18.2	0.00e+00	0	41	0	133169152	63	4510
2026-01-30 03:12:36.92	31.05	9.81	-45.8	-47.5	18.6	0.00e+00	0	41	0	140509184	63	4292
2026-01-30 03:12:40.95	30.71	10.11	-46.1	-47.9	18.3	0.00e+00	0	41	0	147849216	63	4494
2026-01-30 03:12:44.98	30.36	10.42	-45.7	-47.3	18.8	0.00e+00	0	41	0	155189248	63	4233
2026-01-30 03:12:49.01	30.00	10.73	-45.8	-47.4	18.7	0.00e+00	0	41	0	163577856	63	4278
2026-01-30 03:12:53.03	29.63	11.05	-45.8	-47.5	18.7	0.00e+00	0	41	0	170917888	63	4330
2026-01-30 03:12:57.06	29.26	11.37	-45.7	-47.4	18.8	0.00e+00	0	41	0	178257920	63	4252
2026-01-30 03:13:01.08	28.87	11.68	-45.3	-46.9	19.2	0.00e+00	0	41	0	185597952	62	4245
2026-01-30 03:13:05.11	28.48	12.01	-45.2	-46.7	19.4	0.00e+00	0	41	0	192937984	62	4186
2026-01-30 03:13:09.13	28.08	12.33	-45.0	-46.4	19.7	0.00e+00	0	41	0	201326592	61	4281
2026-01-30 03:13:13.16	27.67	12.66	-45.1	-46.5	19.7	0.00e+00	0	41	0	208666624	61	4319
2026-01-30 03:13:17.18	27.24	12.99	-44.9	-46.3	19.9	0.00e+00	0	41	0	216006656	61	4229
2026-01-30 03:13:21.21	26.81	13.33	-44.8	-46.1	20.1	0.00e+00	0	41	0	223346688	61	4117
2026-01-30 03:13:25.23	26.37	13.66	-45.0	-46.4	20.0	0.00e+00	0	41	0	230686720	61	4243
2026-01-30 03:13:29.26	25.92	14.00	-44.9	-46.2	20.0	0.00e+00	0	41	0	239075328	61	4191
2026-01-30 03:13:33.29	25.46	14.35	-45.0	-46.3	19.9	0.00e+00	0	41	0	246415360	61	4236
2026-01-30 03:13:37.30	24.99	14.69	-45.1	-46.6	19.7	0.00e+00	0	41	0	253755392	61	4360
2026-01-30 03:13:41.33	24.50	15.04	-45.1	-46.6	19.7	0.00e+00	0	41	0	261095424	61	4344
2026-01-30 03:13:45.35	24.00	15.39	-45.2	-46.6	19.7	0.00e+00	0	41	0	268435456	61	4368
2026-01-30 03:13:49.38	23.49	15.75	-45.3	-46.8	19.6	0.00e+00	0	41	0	276824064	61	4460
2026-01-30 03:13:53.41	22.97	16.11	-44.8	-46.2	20.2	0.00e+00	0	41	0	284164096	61	4159
2026-01-30 03:13:57.44	22.44	16.47	-44.6	-45.9	20.4	0.00e+00	0	41	0	291504128	60	4247
2026-01-30 03:14:01.47	21.89	16.83	-45.0	-46.4	20.0	0.00e+00	0	41	0	298844160	60	4500
2026-01-30 03:14:05.50	21.32	17.20	-45.6	-47.1	19.4	0.00e+00	0	41	0	306184192	61	4616
2026-01-30 03:14:09.53	20.75	17.57	-46.2	-47.9	18.7	0.00e+00	0	41	0	314572800	62	4765
2026-01-30 03:14:13.56	20.16	17.94	-45.8	-47.4	19.1	0.00e+00	0	41	0	321912832	63	4282
2026-01-30 03:14:17.60	19.55	18.31	-45.3	-46.7	19.8	0.00e+00	0	41	0	329252864	62	4169
2026-01-30 03:14:21.63	18.93	18.69	-45.4	-46.9	19.6	0.00e+00	0	41	0	336592896	62	4268
2026-01-30 03:14:25.65	18.29	19.06	-45.2	-46.6	19.8	0.00e+00	0	41	0	343932928	61	4362
2026-01-30 03:14:29.67	17.64	19.44	-45.0	-46.4	20.1	0.00e+00	0	41	0	352321536	61	4249
2026-01-30 03:14:33.69	16.97	19.82	-44.8	-46.1	20.4	0.00e+00	0	41	0	359661568	61	4110
2026-01-30 03:14:37.72	16.28	20.20	-45.0	-46.3	20.1	0.00e+00	0	41	0	367001600	61	4242
2026-01-30 03:14:41.75	15.58	20.59	-45.0	-46.4	20.1	0.00e+00	0	41	0	374341632	61	4256
2026-01-30 03:14:45.78	14.85	20.97	-45.4	-46.8	19.7	0.00e+00	0	41	0	381681664	61	4483
2026-01-30 03:14:49.81	14.11	21.36	-45.1	-46.5	20.0	0.00e+00	0	41	0	390070272	61	4323
2026-01-30 03:14:53.84	13.35	21.75	-44.7	-46.0	20.5	0.00e+00	0	41	0	397410304	61	4076
2026-01-30 03:14:57.86	12.57	22.13	-45.0	-46.4	20.2	0.00e+00	0	41	0	404750336	61	4252
2026-01-30 03:15:01.89	11.77	22.52	-44.9	-46.2	20.4	0.00e+00	0	41	0	412090368	61	4148
2026-01-30 03:15:05.92	10.94	22.91	-44.8	-46.0	20.5	0.00e+00	0	41	0	419430400	61	4091
2026-01-30 03:15:09.95	10.10	23.29	-44.6	-45.8	20.8	0.00e+00	0	41	0	427819008	61	3983
2026-01-30 03:15:13.97	9.24	23.68	-45.2	-46.6	20.1	0.00e+00	0	41	0	435159040	61	4356
2026-01-30 03:15:18.01	8.35	24.06	-45.3	-46.8	19.9	0.00e+00	0	41	0	442499072	61	4457
2026-01-30 03:15:22.03	7.45	24.44	-45.8	-47.3	19.6	0.00e+00	0	41	0	449839104	62	4448
2026-01-30 03:15:26.06	6.52	24.82	-45.7	-47.2	19.5	0.00e+00	0	41	0	457179136	62	4425
2026-01-30 03:15:30.08	5.57	25.19	-44.6	-45.8	20.9	0.00e+00	0	41	0	465567744	60	4207
2026-01-30 03:15:34.11	4.59	25.57	-44.2	-45.4	21.2	0.00e+00	0	41	0	472907776	60	4025
2026-01-30 03:15:38.14	3.59	25.93	-43.8	-45.0	21.8	0.00e+00	0	41	0	480247808	59	4061
2026-01-30 03:15:42.18	2.57	26.30	-44.5	-45.8	21.1	0.00e+00	0	41	0	487587840	59	4460
2026-01-30 03:15:46.21	1.52	26.65	-44.8	-46.2	20.5	0.00e+00	0	41	0	494927872	60	4422
2026-01-30 03:15:50.24	0.45	27.00	-45.1	-46.5	20.2	0.00e+00	0	41	0	503316480	61	4317
2026-01-30 03:15:54.28	359.35	27.35	-45.3	-46.8	20.0	0.00e+00	0	41	0	510656512	61	4448
2026-01-30 03:15:58.31	358.23	27.69	-44.9	-46.2	20.5	0.00e+00	0	41	0	517996544	61	4156
2026-01-30 03:16:02.34	357.09	28.01	-45.2	-46.6	20.1	0.00e+00	0	41	0	525336576	61	4342
2026-01-30 03:16:06.36	355.93	28.33	-45.8	-47.4	19.4	0.00e+00	0	41	0	532676608	62	4516
2026-01-30 03:16:10.38	354.74	28.64	-47.1	-49.1	17.8	0.00e+00	0	41	0	541065216	65	4615
2026-01-30 03:16:14.42	353.53	28.94	-46.7	-48.6	18.3	0.00e+00	0	41	0	548405248	65	4358
2026-01-30 03:16:18.45	352.29	29.22	-45.3	-46.6	20.2	0.00e+00	0	41	0	555745280	62	4144
2026-01-30 03:16:22.48	351.04	29.50	-45.5	-46.9	19.9	0.00e+00	0	41	0	563085312	62	4283
2026-01-30 03:16:26.51	349.76	29.76	-45.8	-47.3	19.5	0.00e+00	0	41	0	570425344	62	4486
2026-01-30 03:16:30.54	348.46	30.01	-45.6	-47.2	19.6	0.00e+00	0	41	0	578813952	63	4147
2026-01-30 03:16:34.58	347.14	30.24	-46.0	-47.7	19.2	0.00e+00	0	41	0	586153984	63	4404
2026-01-30 03:16:38.61	345.81	30.46	-45.4	-46.8	20.0	0.00e+00	0	41	0	593494016	61	4453
2026-01-30 03:16:42.64	344.45	30.66	-45.1	-46.5	20.2	0.00e+00	0	41	0	600834048	62	4061
2026-01-30 03:16:46.67	343.08	30.84	-44.9	-46.2	20.6	0.00e+00	0	41	0	609222656	60	4407
2026-01-30 03:16:50.71	341.70	31.00	-44.9	-46.2	20.7	0.00e+00	0	41	0	616562688	61	4162
2026-01-30 03:16:54.75	340.29	31.15	-46.6	-48.4	18.7	0.00e+00	0	41	0	623902720	63	4772
2026-01-30 03:16:58.78	338.88	31.28	-45.8	-47.4	19.6	0.00e+00	0	41	0	631242752	63	4263
2026-01-30 03:17:02.81	337.46	31.39	-46.1	-47.6	19.3	0.00e+00	0	41	0	638582784	63	4389
2026-01-30 03:17:06.83	336.04	31.48	-45.4	-46.8	20.2	0.00e+00	0	41	0	646971392	62	4203
2026-01-30 03:17:10.87	334.60	31.55	-46.0	-47.6	19.4	0.00e+00	0	41	0	654311424	62	4641
2026-01-30 03:17:14.89	333.16	31.60	-45.9	-47.4	19.5	0.00e+00	0	41	0	661651456	63	4253
2026-01-30 03:17:18.92	331.71	31.63	-45.8	-47.4	19.6	0.00e+00	0	41	0	668991488	63	4243
2026-01-30 03:17:22.96	330.26	31.63	-46.3	-47.9	19.2	0.00e+00	0	41	0	676331520	63	4519
2026-01-30 03:17:26.98	328.82	31.62	-46.2	-47.8	19.2	0.00e+00	0	41	0	684720128	63	4480
2026-01-30 03:17:31.01	327.37	31.59	-45.9	-47.3	19.6	0.00e+00	0	41	0	692060160	63	4235
2026-01-30 03:17:35.04	325.93	31.53	-45.0	-46.3	20.6	0.00e+00	0	41	0	699400192	61	4231
2026-01-30 03:17:39.08	324.49	31.46	-46.4	-48.0	19.0	0.00e+00	0	41	0	706740224	64	4332
2026-01-30 03:17:43.10	323.07	31.36	-45.6	-47.0	20.0	0.00e+00	0	41	0	714080256	63	4076
2026-01-30 03:17:47.13	321.65	31.25	-46.2	-47.8	19.2	0.00e+00	0	41	0	722468864	64	4226
2026-01-30 03:17:51.15	320.25	31.12	-45.9	-47.4	19.7	0.00e+00	0	41	0	729808896	62	4496
2026-01-30 03:17:55.18	318.85	30.97	-46.7	-48.5	18.4	0.00e+00	0	41	0	737148928	64	4552
2026-01-30 03:17:59.20	317.47	30.80	-44.6	-45.9	21.0	0.00e+00	0	41	0	744488960	61	4019
2026-01-30 03:18:03.24	316.10	30.61	-44.8	-46.1	20.8	0.00e+00	0	41	0	752877568	61	4110
2026-01-30 03:18:07.27	314.75	30.40	-46.1	-47.6	19.5	0.00e+00	0	41	0	760217600	62	4641
2026-01-30 03:18:11.30	313.42	30.18	-44.9	-46.1	20.8	0.00e+00	0	41	0	767557632	61	4138
2026-01-30 03:18:15.33	312.11	29.95	-45.2	-46.5	20.5	0.00e+00	0	41	0	774897664	61	4327
2026-01-30 03:18:19.36	310.81	29.70	-46.1	-47.6	19.6	0.00e+00	0	41	0	782237696	63	4368
2026-01-30 03:18:23.39	309.54	29.43	-46.4	-48.0	19.1	0.00e+00	0	41	0	789577728	63	4572
2026-01-30 03:18:27.42	308.29	29.16	-47.5	-49.5	17.6	0.00e+00	0	41	0	797966336	65	4846
2026-01-30 03:18:31.45	307.06	28.87	-47.7	-49.8	17.5	0.00e+00	0	41	0	805306368	66	4713
2026-01-30 03:18:35.47	305.85	28.57	-46.9	-48.7	18.3	0.00e+00	0	41	0	812646400	65	4423
2026-01-30 03:18:39.50	304.67	28.26	-46.1	-47.7	19.4	0.00e+00	0	41	0	819986432	64	4149
2026-01-30 03:18:43.53	303.51	27.93	-44.6	-45.8	21.2	0.00e+00	0	41	0	828375040	61	3973
2026-01-30 03:18:47.55	302.37	27.60	-44.7	-46.0	21.0	0.00e+00	0	41	0	835715072	60	4306
2026-01-30 03:18:51.58	301.26	27.27	-45.4	-46.8	20.3	0.00e+00	0	41	0	843055104	61	4458
2026-01-30 03:18:55.61	300.17	26.92	-44.5	-45.7	21.2	0.00e+00	0	41	0	850395136	61	3951
2026-01-30 03:18:59.63	299.10	26.57	-47.5	-49.6	17.6	0.00e+00	0	41	0	857735168	65	4906
2026-01-30 03:19:03.66	298.06	26.21	-47.1	-48.9	18.3	0.00e+00	0	41	0	866123776	65	4497
2026-01-30 03:19:07.69	297.04	25.84	-45.1	-46.4	20.7	0.00e+00	0	41	0	873463808	61	4257
2026-01-30 03:19:11.72	296.05	25.48	-44.3	-45.4	21.7	0.00e+00	0	41	0	880803840	59	4277
2026-01-30 03:19:15.76	295.07	25.10	-44.3	-45.5	21.7	0.00e+00	0	41	0	888143872	59	4315
2026-01-30 03:19:19.78	294.13	24.73	-44.2	-45.4	21.8	0.00e+00	0	41	0	895483904	59	4247
2026-01-30 03:19:23.81	293.20	24.35	-44.4	-45.6	21.3	0.00e+00	0	41	0	902823936	60	4128
2026-01-30 03:19:27.83	292.30	23.97	-44.7	-46.0	20.9	0.00e+00	0	41	0	911212544	60	4319
2026-01-30 03:19:31.86	291.41	23.58	-44.7	-45.9	21.0	0.00e+00	0	41	0	918552576	60	4284
2026-01-30 03:19:35.89	290.55	23.20	-44.2	-45.4	21.8	0.00e+00	0	41	0	925892608	59	4245
2026-01-30 03:19:39.93	289.71	22.81	-43.5	-44.5	22.4	0.00e+00	0	41	0	933232640	58	4065
2026-01-30 03:19:43.96	288.89	22.42	-44.1	-45.3	21.9	0.00e+00	0	41	0	941621248	59	4200
2026-01-30 03:19:47.99	288.10	22.03	-44.2	-45.3	21.9	0.00e+00	0	41	0	948961280	59	4227
2026-01-30 03:19:52.01	287.32	21.65	-44.2	-45.4	21.8	0.00e+00	0	42	0	956301312	59	4258
2026-01-30 03:19:56.05	286.56	21.26	-44.2	-45.3	21.8	0.00e+00	0	41	0	963641344	59	4225
2026-01-30 03:20:00.07	285.82	20.87	-44.3	-45.5	21.6	0.00e+00	0	41	0	970981376	59	4309
2026-01-30 03:20:04.10	285.10	20.49	-43.5	-44.6	22.4	0.00e+00	0	41	0	979369984	58	4108
2026-01-30 03:20:08.13	284.40	20.10	-44.1	-45.3	21.7	0.00e+00	0	41	0	986710016	58	4451
2026-01-30 03:20:12.15	283.71	19.72	-44.6	-45.8	21.0	0.00e+00	0	41	0	994050048	60	4214
2026-01-30 03:20:16.18	283.05	19.34	-44.2	-45.3	21.7	0.00e+00	0	41	0	1001390080	59	4206
2026-01-30 03:20:20.21	282.39	18.96	-43.9	-44.9	22.0	0.00e+00	0	41	0	1008730112	59	4041
2026-01-30 03:20:24.24	281.76	18.58	-44.4	-45.6	21.2	0.00e+00	0	41	0	1017118720	60	4103
2026-01-30 03:20:28.27	281.14	18.21	-45.7	-47.2	19.8	0.00e+00	0	41	0	1024458752	61	4657
2026-01-30 03:20:32.29	280.54	17.83	-44.9	-46.2	20.6	0.00e+00	0	41	0	1031798784	61	4166
2026-01-30 03:20:36.33	279.95	17.46	-44.5	-45.7	20.9	0.00e+00	0	41	0	1039138816	60	4191
2026-01-30 03:20:40.37	279.37	17.09	-45.7	-47.2	19.7	0.00e+00	0	41	0	1046478848	61	4654
2026-01-30 03:20:44.39	278.81	16.73	-45.3	-46.8	20.0	0.00e+00	0	41	0	1054867456	62	4198
2026-01-30 03:20:48.41	278.26	16.36	-44.3	-45.6	21.0	0.00e+00	0	41	0	1062207488	60	4100
2026-01-30 03:20:52.44	277.73	16.00	-44.4	-45.6	21.0	0.00e+00	0	41	0	1069547520	60	4124
2026-01-30 03:20:56.47	277.21	15.65	-44.7	-46.0	20.6	0.00e+00	0	41	0	1076887552	60	4314
2026-01-30 03:21:00.50	276.70	15.29	-44.7	-45.9	20.7	0.00e+00	0	41	0	1084227584	60	4274
2026-01-30 03:21:04.52	276.21	14.94	-44.2	-45.4	21.2	0.00e+00	0	41	0	1092616192	60	4006
2026-01-30 03:21:08.54	275.72	14.59	-44.8	-46.1	20.4	0.00e+00	0	41	0	1099956224	60	4381
2026-01-30 03:21:12.57	275.25	14.25	-46.4	-48.2	18.6	0.00e+00	0	41	0	1107296256	63	4664
2026-01-30 03:21:16.59	274.79	13.90	-45.9	-47.4	19.2	0.00e+00	0	41	0	1114636288	63	4272
2026-01-30 03:21:20.62	274.34	13.56	-44.5	-45.7	20.8	0.00e+00	0	41	0	1121976320	60	4171
2026-01-30 03:21:24.64	273.90	13.23	-44.2	-45.4	21.0	0.00e+00	0	41	0	1130364928	60	4029
2026-01-30 03:21:28.67	273.47	12.89	-45.4	-46.9	19.6	0.00e+00	0	41	0	1137704960	61	4539
2026-01-30 03:21:32.70	273.05	12.56	-46.7	-48.4	18.3	0.00e+00	0	41	0	1145044992	63	4802
2026-01-30 03:21:36.73	272.64	12.23	-46.7	-48.5	18.2	0.00e+00	0	41	0	1152385024	64	4549
2026-01-30 03:21:40.76	272.23	11.91	-46.5	-48.1	18.5	0.00e+00	0	41	0	1159725056	64	4381
2026-01-30 03:21:44.79	271.84	11.58	-46.3	-47.9	18.7	0.00e+00	0	41	0	1168113664	64	4252
2026-01-30 03:21:48.81	271.46	11.26	-46.3	-47.9	18.6	0.00e+00	0	41	0	1175453696	64	4283
2026-01-30 03:21:52.84	271.08	10.95	-46.4	-48.0	18.4	0.00e+00	0	41	0	1182793728	64	4339
2026-01-30 03:21:56.87	270.71	10.63	-46.5	-48.2	18.2	0.00e+00	0	41	0	1190133760	64	4441
2026-01-30 03:22:00.90	270.36	10.32	-46.5	-48.2	18.2	0.00e+00	0	41	0	1197473792	64	4427
2026-01-30 03:22:04.92	270.00	10.01	-46.1	-47.8	18.3	0.00e+00	0	41	0	1205862400	64	4225
2026-01-30 03:22:08.95	269.66	9.71	-46.6	-48.6	17.2	0.00e+00	0	41	0	1213202432	64	4610
2026-01-30 03:22:12.98	269.32	9.41	-48.1	-51.2	14.1	0.00e+00	0	41	0	1220542464	66	5573
2026-01-30 03:22:17.00	269.00	9.11	-49.8	-55.3	9.7	7.02e-03	0	41	0	1227882496	70	7054
2026-01-30 03:22:21.03	268.67	8.81	-50.1	-57.9	6.7	1.69e-01	0	41	0	1235222528	70	9522
2026-01-30 03:22:25.05	268.36	8.51	-50.0	-58.7	5.7	4.28e-01	0	41	0	1243611136	70	10462
2026-01-30 03:22:29.07	268.05	8.22	-49.6	-56.7	7.4	1.37e-01	0	41	0	1250951168	71	7865
2026-01-30 03:22:33.09	267.75	7.93	-49.1	-53.4	11.6	1.21e-03	0	41	0	1258291200	70	5687
2026-01-30 03:22:37.11	267.45	7.65	-48.5	-51.4	14.4	0.00e+00	0	42	0	1265631232	68	5099
2026-01-30 03:22:41.14	267.16	7.36	-47.1	-49.3	16.7	0.00e+00	0	41	0	1272971264	66	4445
2026-01-30 03:22:45.17	266.88	7.08	-46.4	-48.2	17.8	0.00e+00	0	41	0	1281359872	64	4408
2026-01-30 03:22:49.21	266.60	6.80	-46.4	-48.2	17.9	0.00e+00	0	41	0	1288699904	64	4403
2026-01-30 03:22:53.23	266.32	6.52	-47.0	-49.1	17.0	0.00e+00	0	41	0	1296039936	64	4879
2026-01-30 03:22:57.26	266.05	6.25	-47.5	-49.7	16.3	0.00e+00	0	41	0	1303379968	65	4965
2026-01-30 03:23:01.30	265.79	5.97	-47.8	-50.3	15.7	0.00e+00	0	41	0	1310720000	66	5022
2026-01-30 03:23:05.33	265.53	5.70	-48.1	-50.7	15.2	0.00e+00	0	41	0	1319108608	66	5263
2026-01-30 03:23:09.36	265.28	5.43	-47.9	-50.5	15.4	0.00e+00	0	41	0	1326448640	66	5132
2026-01-30 03:23:13.38	265.03	5.17	-47.5	-49.8	16.0	0.00e+00	0	41	0	1333788672	66	4734
2026-01-30 03:23:17.40	264.79	4.90	-52.1	-67.0	3.8	1.49e+00	0	41	104	1337982976	74	21607
2026-01-30 03:23:21.43	264.55	4.64	-52.4	-67.3	3.8	1.49e+00	0	41	104	1337982976	75	21156
2026-01-30 03:23:25.46	264.32	4.38	-52.8	-67.8	3.8	1.49e+00	0	42	104	1337982976	76	21133
2026-01-30 03:23:29.49	264.09	4.12	-53.1	-68.0	3.8	1.49e+00	0	42	104	1337982976	76	21755
2026-01-30 03:23:33.53	263.86	3.86	-53.2	-68.4	3.8	1.49e+00	0	42	104	1337982976	77	21265
2026-01-30 03:23:37.55	263.64	3.61	-53.2	-68.2	3.8	1.49e+00	0	42	104	1337982976	77	20870
2026-01-30 03:23:41.58	263.42	3.36	-53.2	-68.1	3.8	1.49e+00	0	42	104	1337982976	77	20735
2026-01-30 03:23:45.61	263.21	3.11	-53.1	-68.1	3.8	1.49e+00	0	42	104	1337982976	77	20572
2026-01-30 03:23:49.64	263.00	2.86	-53.1	-68.1	3.8	1.49e+00	0	42	104	1337982976	77	20546
2026-01-30 03:23:53.66	262.79	2.61	-53.1	-68.0	3.8	1.49e+00	0	42	104	1337982976	77	20515
2026-01-30 03:23:57.69	262.59	2.37	-53.0	-67.9	3.8	1.49e+00	0	42	104	1337982976	77	20252
2026-01-30 03:24:01.71	262.39	2.13	-52.9	-67.9	3.8	1.49e+00	0	41	104	1337982976	77	20087
2026-01-30 03:24:05.75	262.19	1.88	-52.9	-67.8	3.8	1.49e+00	0	42	104	1337982976	77	20031

#Closed at: 2026-01-30 03:24:06
#Recorded file [1337 MB]: D:/lorett/data/31041_260130_061039.dat