passes_logs/2026/01/30/R3.2S_Murmansk/R3.2S_Murmansk__20260130_004629_FENGYUN_3D_rec.log

#Pass ID: 20260130_004629_FENGYUN 3D
#Satellite: FENGYUN 3D
#Configuration: FENGYUN 3D
#almurnet v.1.7.20251203
#Start time: 2026-01-30 00:46:31

#Version: 2.2.20231116
#Station: R3.2S_Murmansk
#Location: 33.079688 lon 68.888172 lat
#TLE: 1 43010U 17072A   26029.52179110  .00000394  00000+0  20818-3 0  9997
#TLE: 2 43010  98.9957   1.5649 0002507  83.7772 276.3689 14.19703315425310

#Time	Az	El	Level	Level2	SNR	BER	BlckErr	Temp	State	Recorded	gain1	gain2
2026-01-30 00:46:31.91	20.00	2.11	-53.8	-65.8	3.8	8.47e-01	0	40	0	0	79	14071
2026-01-30 00:46:35.93	20.25	2.34	-54.2	-66.2	3.8	8.46e-01	0	40	104	0	78	15586
2026-01-30 00:46:39.96	20.50	2.58	-54.2	-66.2	3.8	8.47e-01	0	40	104	0	79	14770
2026-01-30 00:46:43.99	20.76	2.81	-54.1	-66.1	3.8	8.45e-01	0	40	104	0	79	14632
2026-01-30 00:46:48.02	21.02	3.05	-54.0	-65.9	3.8	8.47e-01	0	40	104	0	79	14331
2026-01-30 00:46:52.06	21.29	3.29	-53.5	-65.5	3.8	8.47e-01	0	40	104	0	79	13596
2026-01-30 00:46:56.09	21.56	3.52	-52.3	-64.2	3.8	8.47e-01	0	40	104	0	76	13991
2026-01-30 00:47:00.12	21.83	3.77	-52.1	-64.0	3.8	8.46e-01	0	41	104	0	76	13583
2026-01-30 00:47:04.15	22.11	4.01	-51.9	-62.8	3.8	8.47e-01	0	40	104	0	75	12597
2026-01-30 00:47:08.18	22.39	4.25	-51.6	-60.2	4.2	8.40e-01	0	41	0	0	75	9345
2026-01-30 00:47:12.21	22.68	4.50	-47.1	-49.2	13.6	8.35e-05	0	41	0	17825792	66	4410
2026-01-30 00:47:16.24	22.97	4.74	-43.9	-45.1	18.2	0.00e+00	0	41	0	40894464	59	4142
2026-01-30 00:47:20.27	23.27	4.99	-44.0	-45.2	18.1	0.00e+00	0	41	0	62914560	58	4423
2026-01-30 00:47:24.31	23.57	5.24	-49.5	-53.0	9.8	5.35e-02	0	41	0	84934656	71	5111
2026-01-30 00:47:28.34	23.87	5.50	-42.3	-43.3	20.0	0.00e+00	0	41	0	108003328	56	3977
2026-01-30 00:47:32.37	24.18	5.75	-41.8	-42.7	20.4	0.00e+00	0	41	0	131072000	54	4189
2026-01-30 00:47:36.40	24.50	6.01	-41.6	-42.5	20.7	0.00e+00	0	41	0	153092096	54	4097
2026-01-30 00:47:40.43	24.82	6.27	-41.2	-42.1	21.1	0.00e+00	0	41	0	176160768	54	3905
2026-01-30 00:47:44.46	25.15	6.53	-41.6	-42.5	20.7	0.00e+00	0	41	0	199229440	54	4075
2026-01-30 00:47:48.50	25.48	6.79	-41.4	-42.3	21.0	0.00e+00	0	41	0	221249536	54	3985
2026-01-30 00:47:52.52	25.82	7.05	-41.4	-42.4	21.0	0.00e+00	0	41	0	244318208	54	4008
2026-01-30 00:47:56.54	26.16	7.32	-41.6	-42.5	20.9	0.00e+00	0	41	0	267386880	54	4067
2026-01-30 00:48:00.56	26.51	7.58	-41.2	-42.1	21.3	0.00e+00	0	41	0	289406976	54	3890
2026-01-30 00:48:04.59	26.86	7.85	-41.1	-42.0	21.4	0.00e+00	0	41	0	312475648	54	3851
2026-01-30 00:48:08.61	27.22	8.12	-41.2	-42.1	21.3	0.00e+00	0	41	0	335544320	54	3886
2026-01-30 00:48:12.64	27.59	8.40	-41.0	-41.9	21.5	0.00e+00	0	41	0	357564416	53	4028
2026-01-30 00:48:16.66	27.96	8.67	-40.8	-41.7	21.7	0.00e+00	0	41	0	380633088	53	3929
2026-01-30 00:48:20.69	28.35	8.95	-40.7	-41.5	21.9	0.00e+00	0	41	0	402653184	53	3866
2026-01-30 00:48:24.71	28.73	9.23	-40.6	-41.5	22.0	0.00e+00	0	41	0	425721856	53	3836
2026-01-30 00:48:28.74	29.13	9.51	-40.5	-41.3	22.2	0.00e+00	0	41	0	447741952	52	3990
2026-01-30 00:48:32.77	29.53	9.79	-40.6	-41.4	22.1	0.00e+00	0	41	0	470810624	52	4033
2026-01-30 00:48:36.79	29.94	10.08	-40.4	-41.2	22.3	0.00e+00	0	41	0	492830720	52	3923
2026-01-30 00:48:40.81	30.36	10.37	-40.3	-41.1	22.4	0.00e+00	0	41	0	515899392	52	3897
2026-01-30 00:48:44.84	30.78	10.66	-40.4	-41.2	22.3	0.00e+00	0	41	0	538968064	52	3938
2026-01-30 00:48:48.87	31.22	10.95	-40.5	-41.3	22.3	0.00e+00	0	42	0	560988160	52	3991
2026-01-30 00:48:52.89	31.66	11.24	-40.1	-41.0	22.6	0.00e+00	0	41	0	584056832	52	3830
2026-01-30 00:48:56.91	32.11	11.54	-40.0	-40.8	22.9	0.00e+00	0	41	0	606076928	51	3966
2026-01-30 00:49:00.94	32.57	11.84	-40.1	-40.9	22.8	0.00e+00	0	41	0	629145600	51	4021
2026-01-30 00:49:04.97	33.04	12.14	-40.2	-41.0	22.7	0.00e+00	0	41	0	652214272	51	4084
2026-01-30 00:49:09.00	33.52	12.44	-39.8	-40.5	23.2	0.00e+00	0	41	0	674234368	51	3865
2026-01-30 00:49:13.03	34.01	12.74	-39.7	-40.4	23.3	0.00e+00	0	41	0	697303040	51	3816
2026-01-30 00:49:17.05	34.50	13.05	-39.9	-40.6	23.1	0.00e+00	0	41	0	720371712	51	3911
2026-01-30 00:49:21.09	35.01	13.36	-40.0	-40.8	23.0	0.00e+00	0	42	0	742391808	51	3969
2026-01-30 00:49:25.12	35.53	13.67	-39.7	-40.5	23.2	0.00e+00	0	42	0	765460480	51	3838
2026-01-30 00:49:29.15	36.06	13.98	-39.8	-40.6	23.2	0.00e+00	0	42	0	788529152	51	3899
2026-01-30 00:49:33.19	36.60	14.30	-39.7	-40.5	23.3	0.00e+00	0	41	0	810549248	51	3828
2026-01-30 00:49:37.23	37.15	14.61	-39.2	-40.0	23.7	0.00e+00	0	42	0	833617920	50	3850
2026-01-30 00:49:41.27	37.71	14.93	-39.1	-39.9	23.8	0.00e+00	0	41	0	855638016	50	3800
2026-01-30 00:49:45.30	38.29	15.25	-39.1	-39.8	23.9	0.00e+00	0	42	0	878706688	50	3762
2026-01-30 00:49:49.33	38.87	15.57	-39.1	-39.8	23.9	0.00e+00	0	42	0	901775360	50	3779
2026-01-30 00:49:53.36	39.47	15.89	-38.9	-39.7	24.1	0.00e+00	0	41	0	923795456	49	3915
2026-01-30 00:49:57.39	40.08	16.22	-38.7	-39.5	24.2	0.00e+00	0	42	0	946864128	49	3832
2026-01-30 00:50:01.43	40.71	16.54	-39.0	-39.7	24.1	0.00e+00	0	41	0	969932800	49	3942
2026-01-30 00:50:05.46	41.34	16.87	-38.9	-39.7	24.1	0.00e+00	0	42	0	991952896	49	3939
2026-01-30 00:50:09.50	42.00	17.19	-38.7	-39.4	24.4	0.00e+00	0	42	0	1015021568	49	3787
2026-01-30 00:50:13.52	42.66	17.52	-38.6	-39.4	24.4	0.00e+00	0	42	0	1038090240	49	3788
2026-01-30 00:50:17.56	43.34	17.85	-38.5	-39.2	24.5	0.00e+00	0	42	0	1060110336	49	3724
2026-01-30 00:50:21.59	44.03	18.18	-38.2	-38.9	24.8	0.00e+00	0	41	0	1083179008	48	3818
2026-01-30 00:50:25.62	44.74	18.51	-38.5	-39.2	24.6	0.00e+00	0	42	0	1106247680	48	3930
2026-01-30 00:50:29.65	45.46	18.84	-38.5	-39.2	24.5	0.00e+00	0	42	0	1128267776	48	3943
2026-01-30 00:50:33.67	46.20	19.17	-38.0	-38.7	25.0	0.00e+00	0	41	0	1151336448	48	3723
2026-01-30 00:50:37.71	46.95	19.50	-38.1	-38.8	25.0	0.00e+00	0	42	0	1173356544	48	3741
2026-01-30 00:50:41.74	47.72	19.82	-38.1	-38.8	24.9	0.00e+00	0	42	0	1196425216	48	3779
2026-01-30 00:50:45.77	48.51	20.15	-38.1	-38.8	24.9	0.00e+00	0	42	0	1218445312	48	3773
2026-01-30 00:50:49.79	49.31	20.48	-37.5	-38.2	25.0	0.00e+00	0	42	0	1241513984	47	3735
2026-01-30 00:50:53.81	50.13	20.80	-37.7	-38.4	24.9	0.00e+00	0	41	0	1264582656	47	3786
2026-01-30 00:50:57.85	50.97	21.13	-38.0	-38.8	24.6	0.00e+00	0	42	0	1286602752	47	3964
2026-01-30 00:51:01.88	51.82	21.45	-37.3	-38.0	25.2	0.00e+00	0	41	0	1309671424	46	3856
2026-01-30 00:51:05.90	52.69	21.77	-37.4	-38.1	25.2	0.00e+00	0	41	0	1331691520	46	3894
2026-01-30 00:51:09.93	53.58	22.08	-37.3	-38.0	25.3	0.00e+00	0	42	0	1354760192	46	3828
2026-01-30 00:51:13.96	54.48	22.40	-37.5	-38.2	25.1	0.00e+00	0	41	0	1377828864	46	3934
2026-01-30 00:51:17.99	55.41	22.71	-37.7	-38.4	24.9	0.00e+00	0	41	0	1399848960	46	4031
2026-01-30 00:51:22.02	56.35	23.01	-37.1	-37.8	25.4	0.00e+00	0	41	0	1422917632	46	3766
2026-01-30 00:51:26.05	57.31	23.32	-37.3	-38.0	25.3	0.00e+00	0	41	0	1445986304	46	3858
2026-01-30 00:51:30.08	58.29	23.61	-36.8	-37.5	25.7	0.00e+00	0	42	0	1468006400	45	3850
2026-01-30 00:51:34.11	59.29	23.90	-36.9	-37.6	25.7	0.00e+00	0	42	0	1491075072	45	3892
2026-01-30 00:51:38.14	60.30	24.19	-36.8	-37.5	25.7	0.00e+00	0	42	0	1514143744	45	3857
2026-01-30 00:51:42.17	61.33	24.47	-36.7	-37.4	25.8	0.00e+00	0	41	0	1536163840	45	3792
2026-01-30 00:51:46.19	62.38	24.74	-36.8	-37.5	25.7	0.00e+00	0	42	0	1558183936	45	3834
2026-01-30 00:51:50.22	63.45	25.01	-36.6	-37.3	25.9	0.00e+00	0	41	0	1581252608	45	3768
2026-01-30 00:51:54.25	64.54	25.27	-36.5	-37.2	26.0	0.00e+00	0	41	0	1604321280	44	3933
2026-01-30 00:51:58.29	65.65	25.52	-36.7	-37.4	25.8	0.00e+00	0	42	0	1626341376	44	4014
2026-01-30 00:52:02.31	66.76	25.76	-36.6	-37.3	25.9	0.00e+00	0	41	0	1649410048	44	3959
2026-01-30 00:52:06.34	67.90	25.99	-36.3	-36.9	26.3	0.00e+00	0	41	0	1672478720	44	3812
2026-01-30 00:52:10.36	69.05	26.21	-36.7	-37.3	25.9	0.00e+00	0	41	0	1694498816	44	4002
2026-01-30 00:52:14.39	70.22	26.42	-36.5	-37.2	26.0	0.00e+00	0	42	0	1717567488	44	3946
2026-01-30 00:52:18.41	71.40	26.62	-36.6	-37.3	26.0	0.00e+00	0	42	0	1740636160	44	3966
2026-01-30 00:52:22.44	72.60	26.80	-36.5	-37.2	26.0	0.00e+00	0	42	0	1762656256	44	3932
2026-01-30 00:52:26.47	73.81	26.98	-36.5	-37.2	26.0	0.00e+00	0	42	0	1785724928	44	3917
2026-01-30 00:52:30.50	75.04	27.14	-36.4	-37.1	26.1	0.00e+00	0	41	0	1807745024	44	3876
2026-01-30 00:52:34.53	76.27	27.29	-36.3	-37.0	26.2	0.00e+00	0	42	0	1830813696	44	3850
2026-01-30 00:52:38.56	77.52	27.43	-36.2	-36.8	26.3	0.00e+00	0	41	0	1853882368	44	3773
2026-01-30 00:52:42.59	78.78	27.55	-36.0	-36.6	26.5	0.00e+00	0	42	0	1875902464	44	3688
2026-01-30 00:52:46.62	80.05	27.66	-36.5	-37.2	26.0	0.00e+00	0	41	0	1898971136	44	3943
2026-01-30 00:52:50.65	81.32	27.76	-36.5	-37.2	26.1	0.00e+00	0	42	0	1920991232	44	3914
2026-01-30 00:52:54.68	82.60	27.84	-36.5	-37.2	26.0	0.00e+00	0	42	0	1944059904	44	3936
2026-01-30 00:52:58.71	83.89	27.90	-36.2	-36.9	26.3	0.00e+00	0	41	0	1966080000	44	3792
2026-01-30 00:53:02.74	85.18	27.95	-36.4	-37.0	26.2	0.00e+00	0	42	0	1989148672	44	3859
2026-01-30 00:53:06.77	86.48	27.98	-36.3	-36.9	26.3	0.00e+00	0	41	0	2012217344	44	3820
2026-01-30 00:53:10.80	87.78	28.00	-36.4	-37.1	26.1	0.00e+00	0	42	0	2034237440	44	3909
2026-01-30 00:53:14.83	89.08	28.01	-36.3	-36.9	26.3	0.00e+00	0	41	0	2057306112	44	3819
2026-01-30 00:53:18.86	90.38	27.99	-36.4	-37.0	26.2	0.00e+00	0	42	0	2080374784	44	3859
2026-01-30 00:53:22.88	91.67	27.97	-36.4	-37.0	26.2	0.00e+00	0	42	0	2102394880	44	3868
2026-01-30 00:53:26.92	92.97	27.92	-36.5	-37.2	26.0	0.00e+00	0	41	0	2125463552	44	3942
2026-01-30 00:53:30.96	94.26	27.86	-36.6	-37.3	26.0	0.00e+00	0	42	0	2148532224	44	3960
2026-01-30 00:53:34.98	95.54	27.79	-36.6	-37.3	26.0	0.00e+00	0	41	0	2170552320	44	3983
2026-01-30 00:53:39.01	96.82	27.70	-36.5	-37.1	26.1	0.00e+00	0	42	0	2193620992	44	3913
2026-01-30 00:53:43.05	98.10	27.60	-36.6	-37.3	26.0	0.00e+00	0	42	0	2216689664	44	3970
2026-01-30 00:53:47.08	99.36	27.48	-36.6	-37.2	26.0	0.00e+00	0	41	0	2238709760	44	3953
2026-01-30 00:53:51.11	100.61	27.35	-36.3	-37.0	26.2	0.00e+00	0	41	0	2260729856	44	3836
2026-01-30 00:53:55.14	101.86	27.20	-36.8	-37.5	25.8	0.00e+00	0	41	0	2283798528	44	4080
2026-01-30 00:53:59.17	103.09	27.04	-36.9	-37.6	25.7	0.00e+00	0	42	0	2306867200	44	4113
2026-01-30 00:54:03.19	104.30	26.87	-36.8	-37.6	25.7	0.00e+00	0	41	0	2328887296	44	4103
2026-01-30 00:54:07.23	105.51	26.68	-36.9	-37.6	25.6	0.00e+00	0	41	0	2351955968	44	4140
2026-01-30 00:54:11.25	106.70	26.49	-36.9	-37.6	25.7	0.00e+00	0	41	0	2375024640	44	4106
2026-01-30 00:54:15.28	107.88	26.28	-37.0	-37.6	25.6	0.00e+00	0	41	0	2397044736	44	4144
2026-01-30 00:54:19.31	109.04	26.06	-37.1	-37.8	25.5	0.00e+00	0	42	0	2420113408	44	4236
2026-01-30 00:54:23.34	110.19	25.84	-37.0	-37.7	25.6	0.00e+00	0	42	0	2443182080	44	4179
2026-01-30 00:54:27.37	111.31	25.60	-37.0	-37.7	25.5	0.00e+00	0	42	0	2465202176	44	4189
2026-01-30 00:54:31.40	112.43	25.35	-36.9	-37.6	25.6	0.00e+00	0	42	0	2488270848	44	4137
2026-01-30 00:54:35.43	113.52	25.10	-37.2	-37.9	25.4	0.00e+00	0	42	0	2511339520	44	4267
2026-01-30 00:54:39.45	114.60	24.83	-37.2	-37.9	25.4	0.00e+00	0	41	0	2533359616	45	4038
2026-01-30 00:54:43.48	115.66	24.56	-37.2	-37.9	25.5	0.00e+00	0	42	0	2556428288	45	4027
2026-01-30 00:54:47.51	116.70	24.28	-37.4	-38.1	24.8	0.00e+00	0	41	0	2578448384	45	4145
2026-01-30 00:54:51.55	117.73	24.00	-37.5	-38.3	24.6	0.00e+00	0	42	0	2601517056	45	4222
2026-01-30 00:54:55.57	118.73	23.71	-37.3	-38.1	24.8	0.00e+00	0	41	0	2623537152	45	4112
2026-01-30 00:54:59.60	119.72	23.41	-37.6	-38.4	24.5	0.00e+00	0	42	0	2646605824	45	4244
2026-01-30 00:55:03.63	120.69	23.11	-37.6	-38.3	24.6	0.00e+00	0	42	0	2669674496	45	4232
2026-01-30 00:55:07.65	121.64	22.80	-37.5	-38.3	24.5	0.00e+00	0	42	0	2691694592	45	4231
2026-01-30 00:55:11.68	122.57	22.49	-37.5	-38.3	24.5	0.00e+00	0	42	0	2714763264	45	4232
2026-01-30 00:55:15.70	123.49	22.18	-37.6	-38.3	24.6	0.00e+00	0	41	0	2736783360	45	4222
2026-01-30 00:55:19.73	124.39	21.86	-38.0	-38.8	24.2	0.00e+00	0	41	0	2759852032	46	4226
2026-01-30 00:55:23.75	125.26	21.54	-38.1	-38.9	24.0	0.00e+00	0	42	0	2782920704	47	4051
2026-01-30 00:55:27.78	126.13	21.22	-37.9	-38.7	24.2	0.00e+00	0	41	0	2804940800	47	3941
2026-01-30 00:55:31.81	126.97	20.89	-37.8	-38.6	24.3	0.00e+00	0	41	0	2828009472	47	3876
2026-01-30 00:55:35.83	127.80	20.57	-37.8	-38.6	24.2	0.00e+00	0	42	0	2851078144	47	3896
2026-01-30 00:55:39.86	128.61	20.24	-37.9	-38.7	24.1	0.00e+00	0	41	0	2873098240	47	3918
2026-01-30 00:55:43.88	129.40	19.91	-38.0	-38.8	24.0	0.00e+00	0	42	0	2896166912	47	3989
2026-01-30 00:55:47.91	130.18	19.58	-38.2	-39.0	23.8	0.00e+00	0	41	0	2918187008	47	4063
2026-01-30 00:55:51.93	130.94	19.25	-38.4	-39.3	23.6	0.00e+00	0	41	0	2941255680	47	4199
2026-01-30 00:55:55.96	131.68	18.92	-38.3	-39.1	23.6	0.00e+00	0	41	0	2963275776	47	4137
2026-01-30 00:55:59.99	132.41	18.59	-38.3	-39.1	23.6	0.00e+00	0	41	0	2986344448	47	4132
2026-01-30 00:56:04.01	133.13	18.26	-38.4	-39.3	23.5	0.00e+00	0	41	0	3009413120	47	4199
2026-01-30 00:56:08.04	133.83	17.93	-39.0	-39.8	23.5	0.00e+00	0	41	0	3031433216	48	4211
2026-01-30 00:56:12.07	134.51	17.60	-38.8	-39.5	23.7	0.00e+00	0	42	0	3054501888	48	4094
2026-01-30 00:56:16.10	135.18	17.27	-38.8	-39.6	23.7	0.00e+00	0	42	0	3076521984	48	4111
2026-01-30 00:56:20.12	135.84	16.94	-38.9	-39.7	23.6	0.00e+00	0	41	0	3099590656	48	4149
2026-01-30 00:56:24.15	136.48	16.61	-38.8	-39.6	23.6	0.00e+00	0	42	0	3122659328	48	4135
2026-01-30 00:56:28.18	137.11	16.28	-39.2	-40.0	23.3	0.00e+00	0	41	0	3144679424	49	4067
2026-01-30 00:56:32.20	137.72	15.96	-39.2	-40.0	23.3	0.00e+00	0	42	0	3167748096	49	4060
2026-01-30 00:56:36.23	138.33	15.63	-39.4	-40.2	23.1	0.00e+00	0	42	0	3190816768	49	4180
2026-01-30 00:56:40.25	138.92	15.31	-39.5	-40.4	22.9	0.00e+00	0	41	0	3212836864	49	4252
2026-01-30 00:56:44.28	139.50	14.99	-39.7	-40.6	22.7	0.00e+00	0	42	0	3235905536	50	4120
2026-01-30 00:56:48.30	140.06	14.67	-39.7	-40.6	22.7	0.00e+00	0	41	0	3257925632	50	4100
2026-01-30 00:56:52.33	140.62	14.35	-39.4	-40.2	23.0	0.00e+00	0	42	0	3280994304	50	3946
2026-01-30 00:56:56.36	141.16	14.03	-39.5	-40.3	22.9	0.00e+00	0	41	0	3303014400	50	3980
2026-01-30 00:57:00.38	141.69	13.72	-39.6	-40.5	22.8	0.00e+00	0	41	0	3326083072	50	4066
2026-01-30 00:57:04.41	142.22	13.41	-39.6	-40.5	22.8	0.00e+00	0	42	0	3348103168	50	4063
2026-01-30 00:57:08.43	142.73	13.10	-39.6	-40.5	22.8	0.00e+00	0	42	0	3371171840	50	4058
2026-01-30 00:57:12.43	143.23	12.79	-39.8	-40.6	22.6	0.00e+00	0	42	0	3394240512	50	4143
2026-01-30 00:57:16.46	143.72	12.48	-39.9	-40.8	22.5	0.00e+00	0	42	0	3416260608	50	4206
2026-01-30 00:57:20.49	144.20	12.18	-40.0	-40.9	22.3	0.00e+00	0	42	0	3439329280	50	4261
2026-01-30 00:57:24.51	144.67	11.88	-40.1	-40.9	22.3	0.00e+00	0	42	0	3462397952	51	4045
2026-01-30 00:57:28.54	145.13	11.57	-40.2	-41.1	22.2	0.00e+00	0	41	0	3484418048	51	4110
2026-01-30 00:57:32.56	145.59	11.28	-40.3	-41.2	22.0	0.00e+00	0	42	0	3507486720	51	4171
2026-01-30 00:57:36.58	146.03	10.98	-40.4	-41.3	21.9	0.00e+00	0	41	0	3529506816	51	4234
2026-01-30 00:57:40.60	146.47	10.69	-40.5	-41.4	21.8	0.00e+00	0	42	0	3552575488	51	4266
2026-01-30 00:57:44.61	146.89	10.39	-40.5	-41.4	21.8	0.00e+00	0	41	0	3575644160	51	4264
2026-01-30 00:57:48.65	147.32	10.10	-40.6	-41.5	21.6	0.00e+00	0	41	0	3597664256	52	4061
2026-01-30 00:57:52.68	147.73	9.81	-40.7	-41.6	21.4	0.00e+00	0	41	0	3619684352	52	4125
2026-01-30 00:57:56.70	148.13	9.53	-40.8	-41.7	21.4	0.00e+00	0	41	0	3642753024	52	4166
2026-01-30 00:58:00.73	148.53	9.24	-40.7	-41.6	21.4	0.00e+00	0	42	0	3665821696	52	4143
2026-01-30 00:58:04.76	148.92	8.96	-40.8	-41.7	21.3	0.00e+00	0	41	0	3687841792	52	4191
2026-01-30 00:58:08.79	149.30	8.68	-41.1	-42.0	21.0	0.00e+00	0	41	0	3710910464	52	4315
2026-01-30 00:58:12.82	149.68	8.40	-41.2	-42.2	20.9	0.00e+00	0	42	0	3733979136	53	4148
2026-01-30 00:58:16.85	150.05	8.13	-41.1	-42.1	20.9	0.00e+00	0	42	0	3755999232	53	4116
2026-01-30 00:58:20.89	150.41	7.85	-41.1	-42.1	20.9	0.00e+00	0	42	0	3779067904	53	4111
2026-01-30 00:58:24.92	150.77	7.58	-41.2	-42.1	20.9	0.00e+00	0	41	0	3802136576	53	4124
2026-01-30 00:58:28.95	151.12	7.31	-41.5	-42.5	20.4	0.00e+00	0	41	0	3824156672	53	4310
2026-01-30 00:58:32.98	151.46	7.04	-41.3	-42.3	20.6	0.00e+00	0	42	0	3847225344	53	4200
2026-01-30 00:58:37.00	151.80	6.78	-41.7	-42.7	20.2	0.00e+00	0	42	0	3869245440	53	4407
2026-01-30 00:58:41.04	152.13	6.51	-41.9	-42.9	20.0	0.00e+00	0	41	0	3892314112	54	4281
2026-01-30 00:58:45.07	152.46	6.25	-41.6	-42.7	20.1	0.00e+00	0	41	0	3915382784	54	4152
2026-01-30 00:58:49.10	152.78	5.99	-41.8	-42.8	20.0	0.00e+00	0	41	0	3937402880	54	4222
2026-01-30 00:58:53.13	153.10	5.73	-41.6	-42.6	20.2	0.00e+00	0	42	0	3960471552	54	4109
2026-01-30 00:58:57.16	153.41	5.48	-41.9	-42.9	19.9	0.00e+00	0	42	0	3982491648	54	4260
2026-01-30 00:59:01.19	153.71	5.22	-41.9	-43.0	19.7	0.00e+00	0	42	0	4005560320	54	4294
2026-01-30 00:59:05.22	154.01	4.97	-52.1	-64.0	3.8	8.46e-01	0	42	104	4025483264	74	15335
2026-01-30 00:59:09.25	154.31	4.72	-53.3	-65.2	3.8	8.46e-01	0	42	104	4025483264	77	14747
2026-01-30 00:59:13.28	154.60	4.47	-53.7	-65.6	3.8	8.45e-01	0	41	104	4025483264	77	15551
2026-01-30 00:59:17.31	154.89	4.22	-54.0	-66.0	3.8	8.47e-01	0	41	104	4025483264	78	15253
2026-01-30 00:59:21.35	155.17	3.97	-54.3	-66.2	3.8	8.45e-01	0	42	104	4025483264	79	14847
2026-01-30 00:59:25.37	155.45	3.73	-54.5	-66.5	3.8	8.46e-01	0	42	104	4025483264	79	15237
2026-01-30 00:59:29.40	155.72	3.49	-54.6	-66.5	3.8	8.46e-01	0	42	104	4025483264	79	15337
2026-01-30 00:59:33.43	155.99	3.25	-54.5	-66.5	3.8	8.47e-01	0	42	104	4025483264	80	14456
2026-01-30 00:59:37.46	156.25	3.01	-54.4	-66.4	3.8	8.48e-01	0	42	104	4025483264	80	14236
2026-01-30 00:59:41.49	156.51	2.77	-54.2	-66.2	3.8	8.46e-01	0	41	104	4025483264	80	13912
2026-01-30 00:59:45.51	156.77	2.53	-54.0	-65.9	3.8	8.46e-01	0	42	104	4025483264	79	14328
2026-01-30 00:59:49.54	157.02	2.30	-53.3	-65.2	3.8	8.46e-01	0	42	104	4025483264	78	13959
2026-01-30 00:59:53.57	157.27	2.07	-53.2	-65.1	3.8	8.45e-01	0	42	104	4025483264	78	13741

#Closed at: 2026-01-30 00:59:56
#Recorded file [4025 MB]: D:/lorett/data/31041_260130_034631.dat