passes_logs/2026/01/30/R3.2S_Murmansk/R3.2S_Murmansk__20260130_140636_FENGYUN_3D_rec.log

#Pass ID: 20260130_140636_FENGYUN 3D
#Satellite: FENGYUN 3D
#Configuration: FENGYUN 3D
#almurnet v.1.7.20251203
#Start time: 2026-01-30 14:06:36

#Version: 2.2.20231116
#Station: R3.2S_Murmansk
#Location: 33.079688 lon 68.888172 lat
#TLE: 1 43010U 17072A   26029.52179110  .00000394  00000+0  20818-3 0  9997
#TLE: 2 43010  98.9957   1.5649 0002507  83.7772 276.3689 14.19703315425310

#Time	Az	El	Level	Level2	SNR	BER	BlckErr	Temp	State	Recorded	gain1	gain2
2026-01-30 14:06:36.24	215.47	2.01	-54.1	-66.1	3.8	8.47e-01	0	39	0	0	79	14651
2026-01-30 14:06:40.27	215.77	2.23	-54.1	-66.0	3.8	8.46e-01	0	39	104	0	78	15387
2026-01-30 14:06:44.30	216.08	2.45	-54.1	-66.0	3.8	8.46e-01	0	39	104	0	78	15354
2026-01-30 14:06:48.33	216.39	2.67	-54.1	-66.0	3.8	8.46e-01	0	39	104	0	78	15333
2026-01-30 14:06:52.36	216.71	2.89	-54.0	-66.0	3.8	8.46e-01	0	39	104	0	78	15349
2026-01-30 14:06:56.39	217.03	3.12	-54.0	-66.0	3.8	8.46e-01	0	39	104	0	78	15303
2026-01-30 14:07:00.42	217.35	3.34	-54.0	-66.0	3.8	8.47e-01	0	39	104	0	78	15247
2026-01-30 14:07:04.44	217.68	3.56	-54.0	-66.0	3.8	8.46e-01	0	40	104	0	78	15270
2026-01-30 14:07:08.47	218.01	3.79	-54.0	-66.0	3.8	8.46e-01	0	40	104	0	78	15321
2026-01-30 14:07:12.50	218.35	4.02	-54.0	-65.9	3.8	8.46e-01	0	40	104	0	78	15192
2026-01-30 14:07:16.53	218.70	4.24	-54.3	-66.3	3.8	8.45e-01	0	40	104	0	79	14907
2026-01-30 14:07:20.57	219.05	4.47	-54.5	-66.5	3.8	8.45e-01	0	40	104	0	79	15296
2026-01-30 14:07:24.61	219.40	4.70	-54.4	-66.4	3.8	8.47e-01	0	40	104	0	79	15083
2026-01-30 14:07:28.64	219.76	4.94	-54.2	-66.1	3.8	8.47e-01	0	40	104	0	79	14688
2026-01-30 14:07:32.67	220.13	5.17	-53.9	-65.8	3.8	8.44e-01	0	40	104	0	79	14180
2026-01-30 14:07:36.71	220.50	5.40	-53.3	-65.1	3.8	8.45e-01	0	40	104	0	78	13796
2026-01-30 14:07:40.73	220.88	5.64	-52.0	-59.9	4.6	4.68e-01	0	40	0	9437184	74	9559
2026-01-30 14:07:44.76	221.26	5.87	-42.9	-43.8	20.0	0.00e+00	0	40	0	18874368	57	3994
2026-01-30 14:07:48.79	221.65	6.11	-42.1	-43.0	20.8	0.00e+00	0	40	0	40894464	56	3843
2026-01-30 14:07:52.81	222.04	6.35	-42.0	-42.9	20.8	0.00e+00	0	40	0	63963136	55	4031
2026-01-30 14:07:56.84	222.44	6.59	-42.1	-43.0	20.7	0.00e+00	0	40	0	85983232	55	4091
2026-01-30 14:08:00.87	222.85	6.83	-42.2	-43.1	20.7	0.00e+00	0	40	0	109051904	55	4130
2026-01-30 14:08:04.91	223.27	7.07	-42.1	-43.0	20.8	0.00e+00	0	40	0	132120576	55	4071
2026-01-30 14:08:08.94	223.69	7.31	-41.9	-42.8	21.0	0.00e+00	0	40	0	155189248	55	4002
2026-01-30 14:08:12.98	224.12	7.55	-41.7	-42.6	21.3	0.00e+00	0	40	0	177209344	55	3875
2026-01-30 14:08:17.01	224.55	7.80	-42.0	-42.9	21.0	0.00e+00	0	40	0	200278016	55	4018
2026-01-30 14:08:21.04	224.99	8.04	-41.7	-42.6	21.3	0.00e+00	0	40	0	223346688	55	3876
2026-01-30 14:08:25.08	225.44	8.29	-41.4	-42.3	21.6	0.00e+00	0	40	0	245366784	54	3977
2026-01-30 14:08:29.11	225.90	8.54	-41.3	-42.1	21.7	0.00e+00	0	41	0	268435456	54	3899
2026-01-30 14:08:33.14	226.36	8.78	-41.2	-42.1	21.8	0.00e+00	0	40	0	291504128	54	3890
2026-01-30 14:08:37.17	226.83	9.03	-41.1	-41.9	22.0	0.00e+00	0	41	0	313524224	54	3806
2026-01-30 14:08:41.20	227.31	9.28	-40.7	-41.6	22.3	0.00e+00	0	41	0	336592896	53	3869
2026-01-30 14:08:45.23	227.80	9.53	-40.6	-41.4	22.4	0.00e+00	0	41	0	358612992	53	3818
2026-01-30 14:08:49.26	228.29	9.78	-40.6	-41.4	22.5	0.00e+00	0	41	0	381681664	53	3816
2026-01-30 14:08:53.29	228.79	10.03	-40.7	-41.5	22.4	0.00e+00	0	41	0	403701760	53	3848
2026-01-30 14:08:57.33	229.31	10.29	-40.7	-41.6	22.4	0.00e+00	0	41	0	426770432	53	3878
2026-01-30 14:09:01.37	229.83	10.54	-40.7	-41.6	22.4	0.00e+00	0	40	0	449839104	53	3877
2026-01-30 14:09:05.40	230.36	10.79	-40.4	-41.2	22.7	0.00e+00	0	41	0	471859200	52	3952
2026-01-30 14:09:09.44	230.89	11.05	-40.1	-40.9	23.0	0.00e+00	0	41	0	494927872	52	3819
2026-01-30 14:09:13.48	231.44	11.30	-40.3	-41.1	22.8	0.00e+00	0	41	0	517996544	52	3909
2026-01-30 14:09:17.52	232.00	11.56	-40.5	-41.4	22.6	0.00e+00	0	41	0	540016640	52	4005
2026-01-30 14:09:21.55	232.56	11.81	-40.4	-41.2	22.8	0.00e+00	0	41	0	563085312	52	3921
2026-01-30 14:09:25.57	233.14	12.07	-40.2	-41.0	22.9	0.00e+00	0	41	0	586153984	52	3842
2026-01-30 14:09:29.61	233.72	12.32	-40.0	-40.8	23.2	0.00e+00	0	41	0	608174080	51	3990
2026-01-30 14:09:33.64	234.32	12.58	-40.1	-40.9	23.1	0.00e+00	0	41	0	631242752	51	4036
2026-01-30 14:09:37.68	234.92	12.83	-40.0	-40.8	23.3	0.00e+00	0	41	0	654311424	51	3978
2026-01-30 14:09:41.72	235.54	13.09	-39.8	-40.6	23.5	0.00e+00	0	41	0	676331520	51	3882
2026-01-30 14:09:45.75	236.17	13.34	-39.8	-40.6	23.5	0.00e+00	0	41	0	699400192	51	3875
2026-01-30 14:09:49.78	236.80	13.60	-39.9	-40.6	23.4	0.00e+00	0	41	0	722468864	51	3906
2026-01-30 14:09:53.81	237.45	13.85	-39.7	-40.5	23.6	0.00e+00	0	41	0	744488960	51	3835
2026-01-30 14:09:57.84	238.10	14.10	-39.7	-40.5	23.6	0.00e+00	0	41	0	767557632	51	3843
2026-01-30 14:10:01.88	238.77	14.36	-39.7	-40.4	23.6	0.00e+00	0	41	0	789577728	51	3823
2026-01-30 14:10:05.91	239.45	14.61	-39.7	-40.4	23.5	0.00e+00	0	41	0	812646400	51	3823
2026-01-30 14:10:09.93	240.14	14.85	-39.8	-40.6	23.4	0.00e+00	0	41	0	834666496	51	3894
2026-01-30 14:10:13.97	240.84	15.10	-39.2	-40.0	24.0	0.00e+00	0	41	0	857735168	50	3827
2026-01-30 14:10:18.01	241.56	15.35	-39.5	-40.2	23.8	0.00e+00	0	41	0	880803840	50	3949
2026-01-30 14:10:22.04	242.28	15.60	-39.3	-40.1	24.0	0.00e+00	0	41	0	902823936	50	3870
2026-01-30 14:10:26.08	243.02	15.84	-39.2	-39.9	24.1	0.00e+00	0	41	0	925892608	50	3812
2026-01-30 14:10:30.10	243.76	16.08	-38.9	-39.7	24.4	0.00e+00	0	41	0	948961280	49	3926
2026-01-30 14:10:34.13	244.52	16.32	-39.1	-39.8	24.2	0.00e+00	0	41	0	970981376	49	3998
2026-01-30 14:10:38.17	245.29	16.55	-39.2	-39.9	24.1	0.00e+00	0	41	0	994050048	49	4040
2026-01-30 14:10:42.20	246.07	16.79	-39.1	-39.8	24.3	0.00e+00	0	41	0	1017118720	49	3983
2026-01-30 14:10:46.24	246.87	17.02	-39.0	-39.7	24.3	0.00e+00	0	41	0	1040187392	49	3951
2026-01-30 14:10:50.27	247.68	17.25	-38.7	-39.4	24.6	0.00e+00	0	41	0	1062207488	49	3814
2026-01-30 14:10:54.30	248.49	17.47	-38.9	-39.6	24.5	0.00e+00	0	41	0	1085276160	49	3884
2026-01-30 14:10:58.33	249.32	17.69	-38.8	-39.5	24.6	0.00e+00	0	41	0	1107296256	49	3841
2026-01-30 14:11:02.36	250.16	17.91	-38.8	-39.5	24.6	0.00e+00	0	41	0	1130364928	49	3837
2026-01-30 14:11:06.40	251.02	18.12	-39.0	-39.7	24.4	0.00e+00	0	41	0	1152385024	49	3939
2026-01-30 14:11:10.43	251.88	18.33	-38.8	-39.5	24.6	0.00e+00	0	41	0	1175453696	49	3841
2026-01-30 14:11:14.46	252.76	18.53	-38.6	-39.3	24.7	0.00e+00	0	41	0	1198522368	49	3780
2026-01-30 14:11:18.49	253.64	18.73	-38.7	-39.4	24.7	0.00e+00	0	41	0	1220542464	49	3807
2026-01-30 14:11:22.53	254.54	18.92	-38.5	-39.2	24.9	0.00e+00	0	41	0	1243611136	48	3928
2026-01-30 14:11:26.56	255.45	19.11	-38.4	-39.0	25.0	0.00e+00	0	41	0	1266679808	48	3860
2026-01-30 14:11:30.60	256.37	19.29	-38.5	-39.2	24.9	0.00e+00	0	41	0	1288699904	48	3946
2026-01-30 14:11:34.63	257.30	19.47	-38.5	-39.2	24.9	0.00e+00	0	41	0	1311768576	48	3957
2026-01-30 14:11:38.67	258.25	19.64	-38.4	-39.1	25.0	0.00e+00	0	41	0	1334837248	48	3909
2026-01-30 14:11:42.70	259.20	19.80	-38.7	-39.4	24.7	0.00e+00	0	41	0	1356857344	48	4035
2026-01-30 14:11:46.73	260.16	19.95	-38.4	-39.1	25.0	0.00e+00	0	41	0	1379926016	48	3899
2026-01-30 14:11:50.77	261.13	20.10	-38.3	-38.9	25.1	0.00e+00	0	41	0	1402994688	48	3824
2026-01-30 14:11:54.79	262.11	20.24	-38.4	-39.1	25.0	0.00e+00	0	41	0	1425014784	48	3905
2026-01-30 14:11:58.82	263.09	20.38	-38.0	-38.7	25.4	0.00e+00	0	41	0	1448083456	48	3712
2026-01-30 14:12:02.85	264.09	20.51	-37.6	-38.3	25.2	0.00e+00	0	41	0	1471152128	47	3777
2026-01-30 14:12:06.88	265.09	20.62	-37.8	-38.5	25.0	0.00e+00	0	41	0	1493172224	47	3853
2026-01-30 14:12:10.91	266.10	20.73	-38.0	-38.7	24.9	0.00e+00	0	41	0	1516240896	47	3942
2026-01-30 14:12:14.94	267.12	20.84	-38.0	-38.8	24.8	0.00e+00	0	41	0	1538260992	47	3967
2026-01-30 14:12:18.98	268.14	20.93	-37.9	-38.6	25.0	0.00e+00	0	41	0	1561329664	47	3879
2026-01-30 14:12:23.01	269.17	21.01	-37.9	-38.7	24.9	0.00e+00	0	41	0	1583349760	47	3921
2026-01-30 14:12:27.04	270.20	21.09	-37.7	-38.4	25.2	0.00e+00	0	41	0	1606418432	47	3816
2026-01-30 14:12:31.07	271.24	21.15	-37.8	-38.6	25.1	0.00e+00	0	41	0	1629487104	47	3869
2026-01-30 14:12:35.10	272.28	21.21	-38.0	-38.7	25.0	0.00e+00	0	41	0	1651507200	47	3925
2026-01-30 14:12:39.13	273.33	21.26	-37.8	-38.6	25.1	0.00e+00	0	41	0	1674575872	47	3878
2026-01-30 14:12:43.17	274.38	21.30	-37.8	-38.5	25.2	0.00e+00	0	41	0	1697644544	47	3838
2026-01-30 14:12:47.21	275.43	21.33	-37.8	-38.5	25.1	0.00e+00	0	41	0	1719664640	47	3862
2026-01-30 14:12:51.23	276.48	21.34	-37.8	-38.5	25.1	0.00e+00	0	41	0	1742733312	47	3867
2026-01-30 14:12:55.27	277.54	21.35	-37.9	-38.6	25.1	0.00e+00	0	41	0	1765801984	47	3896
2026-01-30 14:12:59.30	278.59	21.35	-38.0	-38.8	25.0	0.00e+00	0	41	0	1787822080	47	3965
2026-01-30 14:13:03.33	279.64	21.34	-37.9	-38.5	25.2	0.00e+00	0	41	0	1810890752	47	3868
2026-01-30 14:13:07.36	280.69	21.32	-37.9	-38.6	25.1	0.00e+00	0	41	0	1833959424	47	3903
2026-01-30 14:13:11.40	281.75	21.29	-37.9	-38.7	25.1	0.00e+00	0	41	0	1855979520	47	3925
2026-01-30 14:13:15.44	282.80	21.25	-38.0	-38.7	25.0	0.00e+00	0	41	0	1879048192	47	3941
2026-01-30 14:13:19.47	283.84	21.21	-38.1	-38.8	25.0	0.00e+00	0	41	0	1902116864	47	3983
2026-01-30 14:13:23.51	284.88	21.15	-37.9	-38.6	25.2	0.00e+00	0	41	0	1924136960	47	3878
2026-01-30 14:13:27.55	285.92	21.08	-37.9	-38.6	25.2	0.00e+00	0	41	0	1947205632	47	3881
2026-01-30 14:13:31.59	286.96	21.00	-38.2	-38.9	24.9	0.00e+00	0	41	0	1969225728	47	4033
2026-01-30 14:13:35.63	287.99	20.92	-38.4	-39.1	24.7	0.00e+00	0	41	0	1992294400	47	4131
2026-01-30 14:13:39.66	289.01	20.83	-38.4	-39.2	24.7	0.00e+00	0	41	0	2015363072	47	4150
2026-01-30 14:13:43.70	290.02	20.72	-38.3	-39.0	24.8	0.00e+00	0	41	0	2037383168	47	4095
2026-01-30 14:13:47.74	291.03	20.61	-38.6	-39.4	24.6	0.00e+00	0	41	0	2060451840	47	4250
2026-01-30 14:13:51.77	292.03	20.49	-38.9	-39.6	24.9	0.00e+00	0	41	0	2083520512	48	4106
2026-01-30 14:13:55.80	293.03	20.37	-38.6	-39.3	25.1	0.00e+00	0	41	0	2105540608	48	3999
2026-01-30 14:13:59.84	294.01	20.23	-38.7	-39.4	25.0	0.00e+00	0	41	0	2128609280	48	4037
2026-01-30 14:14:03.88	294.99	20.09	-38.6	-39.3	25.2	0.00e+00	0	41	0	2151677952	48	3960
2026-01-30 14:14:07.91	295.95	19.94	-38.7	-39.4	25.0	0.00e+00	0	41	0	2173698048	48	4033
2026-01-30 14:14:11.94	296.91	19.78	-38.8	-39.5	24.9	0.00e+00	0	41	0	2196766720	48	4090
2026-01-30 14:14:15.97	297.86	19.62	-39.0	-39.8	24.7	0.00e+00	0	41	0	2219835392	48	4202
2026-01-30 14:14:20.01	298.80	19.45	-39.1	-39.8	24.6	0.00e+00	0	41	0	2241855488	48	4223
2026-01-30 14:14:24.04	299.72	19.27	-38.9	-39.6	24.7	0.00e+00	0	41	0	2264924160	48	4141
2026-01-30 14:14:28.08	300.64	19.09	-39.1	-39.9	24.5	0.00e+00	0	41	0	2287992832	48	4243
2026-01-30 14:14:32.11	301.55	18.90	-39.1	-39.9	24.5	0.00e+00	0	41	0	2310012928	48	4251
2026-01-30 14:14:36.14	302.44	18.71	-39.2	-39.9	24.4	0.00e+00	0	41	0	2333081600	48	4264
2026-01-30 14:14:40.17	303.32	18.51	-39.0	-39.7	24.6	0.00e+00	0	41	0	2355101696	48	4169
2026-01-30 14:14:44.21	304.20	18.31	-39.1	-39.8	24.5	0.00e+00	0	41	0	2378170368	48	4206
2026-01-30 14:14:48.24	305.06	18.10	-39.0	-39.8	24.5	0.00e+00	0	41	0	2400190464	48	4200
2026-01-30 14:14:52.27	305.90	17.89	-39.1	-39.8	24.4	0.00e+00	0	41	0	2423259136	48	4238
2026-01-30 14:14:56.31	306.74	17.68	-39.0	-39.8	24.4	0.00e+00	0	41	0	2446327808	48	4195
2026-01-30 14:15:00.34	307.57	17.46	-39.2	-40.0	24.3	0.00e+00	0	41	0	2469396480	48	4292
2026-01-30 14:15:04.37	308.38	17.23	-39.5	-40.2	24.0	0.00e+00	0	41	0	2491416576	49	4175
2026-01-30 14:15:08.41	309.18	17.01	-39.4	-40.1	24.1	0.00e+00	0	41	0	2514485248	49	4123
2026-01-30 14:15:12.43	309.97	16.78	-39.3	-40.1	24.1	0.00e+00	0	41	0	2536505344	49	4104
2026-01-30 14:15:16.47	310.75	16.55	-39.2	-40.0	24.2	0.00e+00	0	41	0	2559574016	49	4058
2026-01-30 14:15:20.50	311.52	16.31	-39.4	-40.1	24.0	0.00e+00	0	41	0	2582642688	49	4129
2026-01-30 14:15:24.53	312.27	16.07	-39.7	-40.5	23.7	0.00e+00	0	41	0	2604662784	50	4073
2026-01-30 14:15:28.57	313.02	15.83	-39.8	-40.5	23.6	0.00e+00	0	41	0	2627731456	50	4093
2026-01-30 14:15:32.60	313.75	15.59	-40.2	-41.0	23.3	0.00e+00	0	41	0	2650800128	50	4296
2026-01-30 14:15:36.63	314.47	15.35	-39.8	-40.6	23.6	0.00e+00	0	41	0	2672820224	50	4100
2026-01-30 14:15:40.65	315.18	15.11	-39.7	-40.4	23.7	0.00e+00	0	41	0	2695888896	50	4032
2026-01-30 14:15:44.69	315.88	14.86	-39.6	-40.4	23.7	0.00e+00	0	41	0	2717908992	50	4012
2026-01-30 14:15:48.72	316.56	14.61	-39.6	-40.4	23.7	0.00e+00	0	41	0	2740977664	50	4020
2026-01-30 14:15:52.74	317.24	14.36	-39.7	-40.5	23.6	0.00e+00	0	41	0	2764046336	50	4052
2026-01-30 14:15:56.77	317.90	14.11	-39.9	-40.7	23.3	0.00e+00	0	41	0	2786066432	50	4161
2026-01-30 14:16:00.80	318.55	13.86	-40.0	-40.8	23.2	0.00e+00	0	41	0	2809135104	50	4200
2026-01-30 14:16:04.83	319.20	13.61	-40.1	-40.9	23.1	0.00e+00	0	41	0	2831155200	50	4260
2026-01-30 14:16:08.86	319.83	13.36	-40.4	-41.2	22.8	0.00e+00	0	41	0	2854223872	51	4165
2026-01-30 14:16:12.90	320.45	13.11	-40.1	-40.9	23.1	0.00e+00	0	41	0	2877292544	51	4017
2026-01-30 14:16:16.94	321.07	12.85	-40.0	-40.8	23.1	0.00e+00	0	41	0	2900361216	51	3991
2026-01-30 14:16:20.98	321.67	12.60	-40.2	-41.0	22.9	0.00e+00	0	41	0	2922381312	51	4088
2026-01-30 14:16:25.02	322.26	12.34	-40.1	-40.9	23.0	0.00e+00	0	41	0	2945449984	51	4047
2026-01-30 14:16:29.05	322.85	12.09	-40.0	-40.8	23.1	0.00e+00	0	41	0	2968518656	51	3976
2026-01-30 14:16:33.09	323.42	11.84	-40.3	-41.0	22.8	0.00e+00	0	41	0	2990538752	51	4090
2026-01-30 14:16:37.12	323.98	11.59	-40.4	-41.2	22.6	0.00e+00	0	41	0	3013607424	51	4192
2026-01-30 14:16:41.15	324.54	11.33	-40.7	-41.6	22.2	0.00e+00	0	41	0	3036676096	52	4103
2026-01-30 14:16:45.18	325.08	11.08	-40.7	-41.5	22.3	0.00e+00	0	41	0	3058696192	52	4064
2026-01-30 14:16:49.23	325.62	10.83	-40.7	-41.5	22.3	0.00e+00	0	41	0	3080716288	52	4065
2026-01-30 14:16:53.26	326.15	10.58	-40.5	-41.3	22.4	0.00e+00	0	41	0	3103784960	52	3980
2026-01-30 14:16:57.29	326.66	10.32	-40.8	-41.7	22.1	0.00e+00	0	41	0	3126853632	52	4147
2026-01-30 14:17:01.32	327.17	10.07	-41.0	-41.8	21.9	0.00e+00	0	41	0	3148873728	52	4239
2026-01-30 14:17:05.35	327.68	9.82	-40.9	-41.8	21.9	0.00e+00	0	41	0	3171942400	52	4203
2026-01-30 14:17:09.39	328.17	9.57	-40.8	-41.7	21.9	0.00e+00	0	41	0	3195011072	52	4162
2026-01-30 14:17:13.42	328.66	9.33	-41.0	-41.9	21.7	0.00e+00	0	41	0	3217031168	52	4269
2026-01-30 14:17:17.46	329.13	9.08	-41.3	-42.2	21.5	0.00e+00	0	41	0	3240099840	53	4148
2026-01-30 14:17:21.49	329.60	8.83	-41.2	-42.1	21.5	0.00e+00	0	41	0	3263168512	53	4132
2026-01-30 14:17:25.53	330.07	8.58	-41.2	-42.1	21.5	0.00e+00	0	41	0	3285188608	53	4110
2026-01-30 14:17:29.56	330.52	8.34	-41.0	-41.8	21.7	0.00e+00	0	41	0	3308257280	53	4002
2026-01-30 14:17:33.59	330.97	8.10	-41.1	-42.0	21.5	0.00e+00	0	41	0	3331325952	53	4062
2026-01-30 14:17:37.63	331.41	7.85	-41.5	-42.4	21.1	0.00e+00	0	41	0	3353346048	53	4257
2026-01-30 14:17:41.65	331.84	7.61	-41.7	-42.6	20.9	0.00e+00	0	41	0	3376414720	54	4126
2026-01-30 14:17:45.69	332.27	7.37	-41.7	-42.6	20.9	0.00e+00	0	41	0	3399483392	54	4122
2026-01-30 14:17:49.73	332.69	7.13	-41.4	-42.3	21.1	0.00e+00	0	41	0	3421503488	54	4004
2026-01-30 14:17:53.76	333.11	6.89	-41.2	-42.1	21.3	0.00e+00	0	41	0	3444572160	54	3894
2026-01-30 14:17:57.79	333.51	6.65	-41.4	-42.3	21.1	4.50e-06	0	41	0	3466592256	54	3965
2026-01-30 14:18:01.82	333.91	6.41	-41.7	-42.7	20.7	0.00e+00	0	41	0	3489660928	54	4148
2026-01-30 14:18:05.85	334.31	6.18	-41.9	-42.9	20.4	0.00e+00	0	41	0	3512729600	54	4276
2026-01-30 14:18:09.89	334.70	5.94	-42.1	-43.1	20.1	0.00e+00	0	41	0	3534749696	55	4124
2026-01-30 14:18:13.92	335.08	5.71	-42.2	-43.3	19.9	0.00e+00	0	41	0	3557818368	55	4198
2026-01-30 14:18:17.94	335.46	5.48	-42.4	-43.5	19.7	0.00e+00	0	41	0	3580887040	55	4296
2026-01-30 14:18:21.97	335.83	5.24	-42.4	-43.4	19.7	0.00e+00	0	41	0	3602907136	55	4286
2026-01-30 14:18:26.01	336.20	5.01	-42.5	-43.5	19.6	0.00e+00	0	41	0	3625975808	55	4333
2026-01-30 14:18:30.05	336.56	4.78	-53.3	-65.2	3.8	8.46e-01	0	41	104	3629121536	77	14787
2026-01-30 14:18:34.09	336.91	4.55	-53.7	-65.6	3.8	8.47e-01	0	41	104	3629121536	77	15522
2026-01-30 14:18:38.11	337.26	4.33	-53.6	-65.5	3.8	8.46e-01	0	41	104	3629121536	77	15299
2026-01-30 14:18:42.15	337.61	4.10	-53.4	-65.3	3.8	8.46e-01	0	41	104	3629121536	77	15020
2026-01-30 14:18:46.17	337.95	3.87	-53.5	-65.4	3.8	8.46e-01	0	41	104	3629121536	77	15183
2026-01-30 14:18:50.20	338.28	3.65	-53.4	-65.3	3.8	8.46e-01	0	41	104	3629121536	77	15024
2026-01-30 14:18:54.24	338.61	3.43	-53.3	-65.3	3.8	8.47e-01	0	41	104	3629121536	77	14929
2026-01-30 14:18:58.27	338.94	3.21	-53.3	-65.2	3.8	8.47e-01	0	41	104	3629121536	77	14791
2026-01-30 14:19:02.30	339.26	2.98	-53.3	-65.2	3.8	8.46e-01	0	41	104	3629121536	77	14769
2026-01-30 14:19:06.33	339.58	2.76	-53.2	-65.1	3.8	8.46e-01	0	41	104	3629121536	77	14670
2026-01-30 14:19:10.36	339.89	2.55	-53.2	-65.1	3.8	8.46e-01	0	41	104	3629121536	77	14654
2026-01-30 14:19:14.39	340.20	2.33	-53.2	-65.0	3.8	8.46e-01	0	41	104	3629121536	77	14535
2026-01-30 14:19:18.41	340.50	2.11	-53.1	-65.1	3.8	8.46e-01	0	41	104	3629121536	77	14552

#Closed at: 2026-01-30 14:19:20
#Recorded file [3629 MB]: D:/lorett/data/31041_260130_170636.dat