passes_logs/2026/01/11/R4.6S_Anadyr/R4.6S_Anadyr__20260111_134941_NOAA_21_JPSS-2_rec.log

#Pass ID: 20260111_134941_NOAA 21 (JPSS-2)
#Satellite: NOAA 21 (JPSS-2)
#Configuration: NOAA-21
#almurnet v.1.7.20251203
#Start time: 2026-01-11 13:49:42

#Version: 2.2.20231116
#Station: R4.6S_Anadyr
#Location: 177.4865 lon 64.73178 lat
#TLE: 1 54234U 22150A   26010.92456470  .00000095  00000+0  65865-4 0  9991
#TLE: 2 54234  98.7494 311.8737 0000784 316.5119  43.5995 14.19533975164234

#Time	Az	El	Level	Level2	SNR	BER	BlckErr	Temp	State	Recorded	gain1	gain2
2026-01-11 13:49:42.52	19.12	0.07	-48.1	-63.0	3.5	1.51e+00	0	24	0	0	60	51081
2026-01-11 13:49:46.55	19.25	0.30	-48.1	-61.0	3.5	1.52e+00	0	26	104	0	60	39398
2026-01-11 13:49:50.59	19.37	0.54	-48.2	-61.0	3.5	1.52e+00	0	26	104	0	60	39317
2026-01-11 13:49:54.63	19.50	0.78	-47.7	-60.6	3.5	1.52e+00	0	26	104	0	60	37507
2026-01-11 13:49:58.67	19.63	1.02	-46.7	-59.5	3.5	1.52e+00	0	26	104	0	60	33248
2026-01-11 13:50:02.71	19.76	1.26	-46.6	-59.5	3.5	1.52e+00	0	26	104	0	60	32996
2026-01-11 13:50:06.75	19.90	1.50	-46.6	-59.3	3.5	1.52e+00	0	26	104	0	60	32537
2026-01-11 13:50:10.78	20.03	1.75	-46.6	-59.4	3.5	1.52e+00	0	26	104	0	60	32628
2026-01-11 13:50:14.82	20.17	2.00	-46.5	-59.4	3.5	1.52e+00	0	26	104	0	60	32703
2026-01-11 13:50:18.86	20.31	2.25	-46.4	-58.3	3.5	1.52e+00	0	26	104	0	60	28762
2026-01-11 13:50:22.90	20.45	2.50	-46.5	-58.5	3.5	1.51e+00	0	27	104	0	60	29435
2026-01-11 13:50:26.94	20.59	2.75	-44.5	-48.7	9.6	4.53e-02	123	27	0	2097152	60	9516
2026-01-11 13:50:30.98	20.74	3.01	-39.2	-40.7	17.9	0.00e+00	122	27	0	14680064	52	6050
2026-01-11 13:50:35.02	20.89	3.27	-37.3	-38.6	19.7	0.00e+00	120	27	0	27262976	48	5939
2026-01-11 13:50:39.07	21.04	3.53	-41.4	-43.5	15.0	0.00e+00	123	27	0	39845888	54	7412
2026-01-11 13:50:43.10	21.19	3.79	-46.4	-58.3	3.5	1.52e+00	0	27	104	51380224	60	28977
2026-01-11 13:50:47.15	21.34	4.06	-42.2	-44.6	14.5	0.00e+00	123	27	0	58720256	56	7504
2026-01-11 13:50:51.19	21.50	4.33	-41.3	-43.2	15.7	7.00e-07	122	27	0	71303168	56	6385
2026-01-11 13:50:55.22	21.66	4.60	-37.5	-38.8	19.9	0.00e+00	122	27	0	83886080	48	6085
2026-01-11 13:50:59.27	21.83	4.87	-37.1	-38.3	20.3	0.00e+00	122	27	0	96468992	48	5758
2026-01-11 13:51:03.30	21.99	5.15	-37.0	-38.2	20.4	0.00e+00	122	27	0	109051904	48	5675
2026-01-11 13:51:07.34	22.16	5.43	-36.8	-37.9	20.7	0.00e+00	120	27	0	121634816	46	6204
2026-01-11 13:51:11.38	22.33	5.71	-36.5	-37.6	21.0	0.00e+00	123	27	0	134217728	46	5993
2026-01-11 13:51:15.42	22.50	6.00	-36.4	-37.5	21.2	0.00e+00	123	27	0	146800640	46	5898
2026-01-11 13:51:19.46	22.68	6.28	-36.4	-37.5	21.3	0.00e+00	123	27	0	159383552	46	5867
2026-01-11 13:51:23.50	22.86	6.57	-36.3	-37.4	21.3	0.00e+00	123	27	0	171966464	46	5854
2026-01-11 13:51:27.54	23.04	6.87	-36.2	-37.3	21.5	0.00e+00	122	27	0	184549376	46	5740
2026-01-11 13:51:31.58	23.23	7.17	-36.1	-37.2	21.6	0.00e+00	123	27	0	197132288	46	5669
2026-01-11 13:51:35.62	23.42	7.47	-35.9	-36.9	21.8	0.00e+00	123	27	0	209715200	46	5526
2026-01-11 13:51:39.66	23.62	7.77	-35.9	-37.0	21.8	0.00e+00	120	27	0	223346688	46	5540
2026-01-11 13:51:43.70	23.81	8.08	-35.6	-36.7	22.1	0.00e+00	122	27	0	235929600	44	6009
2026-01-11 13:51:47.74	24.02	8.39	-35.7	-36.7	22.1	0.00e+00	124	27	0	248512512	44	6021
2026-01-11 13:51:51.78	24.22	8.70	-35.3	-36.3	22.4	0.00e+00	122	27	0	261095424	44	5778
2026-01-11 13:51:55.82	24.43	9.02	-35.2	-36.2	22.6	0.00e+00	122	27	0	273678336	44	5701
2026-01-11 13:51:59.86	24.64	9.34	-35.2	-36.2	22.6	0.00e+00	120	27	0	286261248	44	5671
2026-01-11 13:52:03.90	24.86	9.67	-35.1	-36.1	22.8	0.00e+00	123	27	0	298844160	44	5597
2026-01-11 13:52:07.94	25.09	10.00	-34.9	-35.9	22.9	0.00e+00	123	27	0	311427072	44	5497
2026-01-11 13:52:11.98	25.31	10.33	-34.8	-35.7	23.1	0.00e+00	123	27	0	324009984	44	5397
2026-01-11 13:52:16.02	25.55	10.67	-34.6	-35.5	23.2	0.00e+00	123	27	0	336592896	42	5914
2026-01-11 13:52:20.06	25.78	11.01	-34.7	-35.7	23.1	0.00e+00	123	27	0	349175808	42	6025
2026-01-11 13:52:24.11	26.03	11.36	-34.5	-35.4	23.3	0.00e+00	123	27	0	361758720	42	5831
2026-01-11 13:52:28.15	26.27	11.71	-34.4	-35.3	23.4	0.00e+00	123	27	0	374341632	42	5780
2026-01-11 13:52:32.19	26.53	12.07	-34.3	-35.2	23.5	0.00e+00	122	27	0	386924544	42	5698
2026-01-11 13:52:36.23	26.79	12.43	-34.3	-35.2	23.6	0.00e+00	122	27	0	399507456	42	5709
2026-01-11 13:52:40.27	27.05	12.79	-34.1	-35.0	23.7	0.00e+00	123	27	0	412090368	42	5588
2026-01-11 13:52:44.31	27.32	13.16	-34.1	-35.0	23.8	0.00e+00	123	27	0	424673280	42	5572
2026-01-11 13:52:48.35	27.60	13.54	-34.1	-35.0	23.8	0.00e+00	123	27	0	437256192	42	5588
2026-01-11 13:52:52.39	27.89	13.92	-34.0	-35.0	23.8	0.00e+00	123	27	0	449839104	42	5542
2026-01-11 13:52:56.43	28.18	14.31	-34.0	-34.9	23.9	0.00e+00	123	27	0	462422016	42	5499
2026-01-11 13:53:00.48	28.48	14.70	-33.9	-34.9	23.9	0.00e+00	123	27	0	475004928	42	5476
2026-01-11 13:53:04.52	28.78	15.10	-34.0	-35.0	23.9	0.00e+00	123	27	0	487587840	42	5533
2026-01-11 13:53:08.56	29.10	15.50	-34.0	-35.0	23.8	0.00e+00	123	27	0	500170752	42	5532
2026-01-11 13:53:12.60	29.42	15.91	-34.1	-35.0	23.8	0.00e+00	121	27	0	513802240	42	5568
2026-01-11 13:53:16.64	29.75	16.33	-34.3	-35.3	23.6	0.00e+00	123	27	0	526385152	42	5728
2026-01-11 13:53:20.68	30.09	16.75	-34.4	-35.3	23.7	0.00e+00	123	27	0	538968064	42	5756
2026-01-11 13:53:24.72	30.44	17.18	-34.4	-35.4	23.6	0.00e+00	123	27	0	551550976	42	5811
2026-01-11 13:53:28.76	30.80	17.62	-34.4	-35.3	23.7	0.00e+00	122	28	0	564133888	42	5761
2026-01-11 13:53:32.80	31.17	18.06	-34.4	-35.4	23.6	0.00e+00	122	28	0	576716800	42	5798
2026-01-11 13:53:36.84	31.55	18.51	-34.1	-35.1	23.8	0.00e+00	122	28	0	589299712	42	5599
2026-01-11 13:53:40.88	31.94	18.97	-34.1	-35.0	23.8	0.00e+00	124	28	0	601882624	42	5556
2026-01-11 13:53:44.92	32.34	19.43	-33.7	-34.7	24.1	0.00e+00	123	28	0	614465536	40	5995
2026-01-11 13:53:48.96	32.75	19.90	-33.6	-34.5	24.2	0.00e+00	122	28	0	627048448	40	5918
2026-01-11 13:53:53.00	33.18	20.38	-33.4	-34.4	24.3	0.00e+00	122	28	0	639631360	40	5804
2026-01-11 13:53:57.04	33.61	20.87	-33.1	-34.0	24.5	0.00e+00	123	28	0	652214272	40	5591
2026-01-11 13:54:01.08	34.07	21.37	-33.0	-33.9	24.7	0.00e+00	122	28	0	664797184	40	5473
2026-01-11 13:54:05.12	34.53	21.87	-32.9	-33.7	24.7	0.00e+00	122	28	0	677380096	40	5404
2026-01-11 13:54:09.16	35.01	22.38	-32.7	-33.6	24.8	0.00e+00	120	28	0	689963008	38	5970
2026-01-11 13:54:13.20	35.51	22.90	-32.9	-33.8	24.7	0.00e+00	122	28	0	702545920	38	6121
2026-01-11 13:54:17.24	36.02	23.43	-32.7	-33.6	24.8	0.00e+00	123	28	0	715128832	38	5936
2026-01-11 13:54:21.28	36.56	23.97	-32.9	-33.7	24.9	0.00e+00	123	28	0	727711744	38	6064
2026-01-11 13:54:25.32	37.10	24.51	-32.7	-33.5	25.0	0.00e+00	122	28	0	740294656	38	5926
2026-01-11 13:54:29.36	37.67	25.07	-32.7	-33.6	25.0	0.00e+00	120	28	0	752877568	38	5954
2026-01-11 13:54:33.40	38.26	25.63	-33.0	-33.8	24.8	0.00e+00	122	28	0	765460480	38	6131
2026-01-11 13:54:37.44	38.87	26.20	-33.2	-34.1	24.8	0.00e+00	120	28	0	778043392	38	6288
2026-01-11 13:54:41.48	39.50	26.79	-33.3	-34.2	24.6	0.00e+00	123	28	0	790626304	38	6398
2026-01-11 13:54:45.52	40.15	27.38	-33.7	-34.6	24.4	0.00e+00	120	28	0	803209216	38	6669
2026-01-11 13:54:49.56	40.82	27.98	-33.8	-34.7	24.1	0.00e+00	123	28	0	815792128	38	6753
2026-01-11 13:54:53.60	41.53	28.59	-33.8	-34.7	24.1	0.00e+00	122	28	0	829423616	40	6035
2026-01-11 13:54:57.65	42.26	29.21	-33.6	-34.5	24.3	0.00e+00	122	28	0	842006528	40	5922
2026-01-11 13:55:01.69	43.01	29.83	-33.7	-34.6	24.3	0.00e+00	123	28	0	854589440	40	5930
2026-01-11 13:55:05.73	43.80	30.47	-33.3	-34.2	24.4	0.00e+00	120	28	0	867172352	40	5716
2026-01-11 13:55:09.77	44.62	31.11	-33.0	-33.9	24.8	0.00e+00	122	28	0	879755264	40	5518
2026-01-11 13:55:13.81	45.47	31.76	-33.0	-33.9	24.8	0.00e+00	122	28	0	892338176	40	5509
2026-01-11 13:55:17.85	46.35	32.42	-33.2	-34.0	24.8	0.00e+00	121	28	0	904921088	40	5584
2026-01-11 13:55:21.89	47.27	33.09	-33.5	-34.4	24.6	0.00e+00	120	28	0	917504000	40	5840
2026-01-11 13:55:25.94	48.23	33.76	-34.3	-35.2	23.9	0.00e+00	122	28	0	930086912	40	6396
2026-01-11 13:55:29.98	49.23	34.44	-34.4	-35.3	23.9	0.00e+00	122	28	0	942669824	40	6489
2026-01-11 13:55:34.02	50.27	35.13	-34.5	-35.4	23.8	0.00e+00	122	28	0	955252736	40	6566
2026-01-11 13:55:38.06	51.35	35.82	-34.9	-35.8	23.5	0.00e+00	122	29	0	967835648	42	6124
2026-01-11 13:55:42.10	52.48	36.51	-35.2	-36.2	23.2	0.00e+00	123	28	0	980418560	42	6351
2026-01-11 13:55:46.14	53.66	37.20	-35.4	-36.3	23.1	0.00e+00	123	29	0	993001472	42	6495
2026-01-11 13:55:50.18	54.89	37.90	-35.5	-36.4	23.0	0.00e+00	122	29	0	1005584384	42	6553
2026-01-11 13:55:54.22	56.17	38.59	-35.7	-36.7	22.6	0.00e+00	123	29	0	1018167296	42	6776
2026-01-11 13:55:58.26	57.51	39.28	-35.8	-36.8	22.6	0.00e+00	123	29	0	1030750208	44	6129
2026-01-11 13:56:02.30	58.90	39.97	-35.8	-36.8	22.6	0.00e+00	123	29	0	1043333120	44	6104
2026-01-11 13:56:06.34	60.35	40.65	-36.0	-37.0	22.4	0.00e+00	120	29	0	1055916032	44	6272
2026-01-11 13:56:10.38	61.87	41.33	-36.2	-37.2	22.4	0.00e+00	122	29	0	1068498944	44	6399
2026-01-11 13:56:14.42	63.44	41.99	-36.1	-37.1	22.4	0.00e+00	122	29	0	1081081856	44	6339
2026-01-11 13:56:18.46	65.09	42.64	-36.3	-37.4	22.1	0.00e+00	120	29	0	1093664768	44	6544
2026-01-11 13:56:22.49	66.79	43.28	-36.4	-37.4	22.2	0.00e+00	122	29	0	1106247680	46	5844
2026-01-11 13:56:26.53	68.57	43.89	-36.3	-37.3	22.1	0.00e+00	122	29	0	1119879168	46	5772
2026-01-11 13:56:30.58	70.42	44.49	-35.5	-36.5	22.7	0.00e+00	123	29	0	1131413504	44	5893
2026-01-11 13:56:34.62	72.33	45.06	-35.8	-36.8	22.5	0.00e+00	123	29	0	1145044992	44	6125
2026-01-11 13:56:38.65	74.30	45.60	-35.5	-36.5	22.7	0.00e+00	123	29	0	1157627904	44	5883
2026-01-11 13:56:42.69	76.35	46.11	-35.9	-36.9	22.6	0.00e+00	123	29	0	1170210816	44	6154
2026-01-11 13:56:46.73	78.46	46.59	-36.4	-37.5	22.0	0.00e+00	123	29	0	1182793728	44	6574
2026-01-11 13:56:50.77	80.64	47.03	-35.9	-36.9	22.6	0.00e+00	122	29	0	1195376640	44	6197
2026-01-11 13:56:54.81	82.87	47.43	-36.0	-37.0	22.5	0.00e+00	122	29	0	1207959552	44	6239
2026-01-11 13:56:58.85	85.16	47.78	-35.0	-36.0	23.3	0.00e+00	120	29	0	1220542464	44	5549
2026-01-11 13:57:02.89	87.49	48.09	-35.5	-36.5	22.9	0.00e+00	120	29	0	1233125376	44	5893
2026-01-11 13:57:06.93	89.87	48.35	-35.4	-36.4	22.9	0.00e+00	120	29	0	1245708288	44	5835
2026-01-11 13:57:10.97	92.29	48.56	-36.2	-37.2	22.3	0.00e+00	123	29	0	1258291200	44	6408
2026-01-11 13:57:15.01	94.73	48.71	-35.7	-36.7	22.8	0.00e+00	123	29	0	1270874112	44	6013
2026-01-11 13:57:19.05	97.20	48.81	-36.1	-37.1	22.5	0.00e+00	123	29	0	1283457024	44	6347
2026-01-11 13:57:23.09	99.67	48.85	-35.5	-36.5	22.9	0.00e+00	124	29	0	1296039936	44	5901
2026-01-11 13:57:27.13	102.15	48.83	-35.7	-36.7	22.8	0.00e+00	120	29	0	1308622848	44	6012
2026-01-11 13:57:31.18	104.62	48.76	-35.6	-36.6	22.9	0.00e+00	123	29	0	1321205760	44	5945
2026-01-11 13:57:35.22	107.08	48.64	-35.8	-36.8	22.5	0.00e+00	122	29	0	1333788672	44	6120
2026-01-11 13:57:39.26	109.51	48.46	-35.9	-37.0	22.5	0.00e+00	123	29	0	1346371584	44	6218
2026-01-11 13:57:43.30	111.91	48.22	-37.1	-38.2	21.5	0.00e+00	120	29	0	1358954496	46	6390
2026-01-11 13:57:47.34	114.27	47.94	-35.5	-36.5	22.9	0.00e+00	120	29	0	1371537408	44	5915
2026-01-11 13:57:51.38	116.59	47.60	-35.6	-36.6	22.7	0.00e+00	121	30	0	1384120320	44	5992
2026-01-11 13:57:55.42	118.85	47.23	-35.5	-36.5	22.9	0.00e+00	122	29	0	1396703232	42	6614
2026-01-11 13:57:59.46	121.05	46.80	-35.6	-36.6	22.9	0.00e+00	123	29	0	1409286144	44	5945
2026-01-11 13:58:03.50	123.20	46.34	-35.4	-36.4	23.1	0.00e+00	122	29	0	1421869056	44	5812
2026-01-11 13:58:07.54	125.28	45.85	-35.4	-36.3	23.0	0.00e+00	122	29	0	1435500544	44	5760
2026-01-11 13:58:11.58	127.30	45.32	-35.6	-36.6	22.9	0.00e+00	123	29	0	1448083456	44	5978
2026-01-11 13:58:15.62	129.25	44.76	-35.1	-36.1	23.2	0.00e+00	122	30	0	1460666368	44	5605
2026-01-11 13:58:19.66	131.13	44.17	-36.3	-37.3	22.2	0.00e+00	123	29	0	1473249280	44	6444
2026-01-11 13:58:23.70	132.94	43.56	-36.7	-37.7	21.9	0.00e+00	120	30	0	1485832192	44	6779
2026-01-11 13:58:27.74	134.68	42.93	-36.9	-37.9	21.8	0.00e+00	122	30	0	1498415104	46	6190
2026-01-11 13:58:31.77	136.36	42.29	-36.0	-37.0	22.7	0.00e+00	122	30	0	1510998016	46	5536
2026-01-11 13:58:35.82	137.97	41.62	-35.5	-36.5	22.8	0.00e+00	120	30	0	1523580928	44	5881
2026-01-11 13:58:39.86	139.52	40.95	-35.2	-36.1	23.2	0.00e+00	123	30	0	1536163840	44	5651
2026-01-11 13:58:43.89	141.00	40.27	-36.1	-37.1	22.5	0.00e+00	122	30	0	1548746752	44	6282
2026-01-11 13:58:47.93	142.43	39.58	-36.8	-37.9	21.9	0.00e+00	123	30	0	1561329664	46	6150
2026-01-11 13:58:51.97	143.79	38.89	-35.6	-36.6	22.7	0.00e+00	123	30	0	1573912576	44	5981
2026-01-11 13:58:56.01	145.10	38.19	-35.6	-36.6	22.9	0.00e+00	123	30	0	1586495488	44	5974
2026-01-11 13:59:00.05	146.36	37.49	-35.1	-36.1	23.2	0.00e+00	123	30	0	1599078400	44	5634
2026-01-11 13:59:04.10	147.57	36.79	-35.0	-35.9	23.5	0.00e+00	123	30	0	1611661312	42	6171
2026-01-11 13:59:08.13	148.72	36.10	-35.6	-36.6	23.0	0.00e+00	122	30	0	1624244224	42	6664
2026-01-11 13:59:12.17	149.83	35.40	-34.6	-35.6	23.6	0.00e+00	123	30	0	1636827136	42	5939
2026-01-11 13:59:16.21	150.89	34.72	-35.1	-36.0	23.3	0.00e+00	123	30	0	1649410048	42	6261
2026-01-11 13:59:20.25	151.91	34.03	-35.1	-36.0	23.4	0.00e+00	123	30	0	1661992960	42	6244
2026-01-11 13:59:24.29	152.89	33.35	-35.2	-36.2	23.3	0.00e+00	122	30	0	1674575872	42	6360
2026-01-11 13:59:28.33	153.82	32.68	-34.3	-35.2	23.9	0.00e+00	123	30	0	1687158784	42	5687
2026-01-11 13:59:32.37	154.73	32.01	-34.1	-35.0	23.8	0.00e+00	122	30	0	1699741696	42	5563
2026-01-11 13:59:36.41	155.59	31.35	-33.3	-34.2	24.5	0.00e+00	121	30	0	1712324608	40	5679
2026-01-11 13:59:40.44	156.43	30.70	-33.1	-34.0	24.7	0.00e+00	120	30	0	1724907520	40	5575
2026-01-11 13:59:44.48	157.23	30.06	-33.3	-34.2	24.6	0.00e+00	122	30	0	1737490432	40	5662
2026-01-11 13:59:48.51	158.00	29.43	-33.3	-34.1	24.8	0.00e+00	123	30	0	1750073344	40	5658
2026-01-11 13:59:52.55	158.74	28.80	-33.3	-34.2	24.6	0.00e+00	122	30	0	1762656256	40	5692
2026-01-11 13:59:56.60	159.46	28.18	-33.6	-34.5	24.4	0.00e+00	120	30	0	1776287744	40	5864
2026-01-11 14:00:00.64	160.14	27.58	-33.2	-34.1	24.7	0.00e+00	123	30	0	1788870656	40	5644
2026-01-11 14:00:04.68	160.81	26.98	-33.1	-34.0	24.8	0.00e+00	122	30	0	1801453568	40	5551
2026-01-11 14:00:08.73	161.45	26.39	-32.9	-33.8	24.9	0.00e+00	122	30	0	1814036480	40	5445
2026-01-11 14:00:12.76	162.07	25.81	-32.9	-33.7	24.9	0.00e+00	122	30	0	1826619392	38	6037
2026-01-11 14:00:16.79	162.66	25.24	-32.9	-33.8	24.9	0.00e+00	122	30	0	1839202304	38	6107
2026-01-11 14:00:20.83	163.24	24.68	-33.1	-34.0	24.8	0.00e+00	123	30	0	1851785216	38	6221
2026-01-11 14:00:24.86	163.79	24.12	-33.2	-34.1	24.7	0.00e+00	122	30	0	1864368128	38	6321
2026-01-11 14:00:28.90	164.33	23.58	-33.6	-34.5	24.2	0.00e+00	123	30	0	1876951040	38	6622
2026-01-11 14:00:32.94	164.85	23.04	-33.6	-34.5	24.2	0.00e+00	122	30	0	1889533952	38	6645
2026-01-11 14:00:36.98	165.36	22.52	-33.4	-34.3	24.5	0.00e+00	123	30	0	1902116864	38	6479
2026-01-11 14:00:41.02	165.85	22.00	-33.3	-34.2	24.5	0.00e+00	122	30	0	1914699776	38	6399
2026-01-11 14:00:45.06	166.32	21.49	-33.3	-34.2	24.4	0.00e+00	123	30	0	1927282688	38	6422
2026-01-11 14:00:49.10	166.78	20.99	-33.5	-34.4	24.5	0.00e+00	123	30	0	1939865600	38	6527
2026-01-11 14:00:53.14	167.22	20.50	-33.6	-34.5	24.4	0.00e+00	123	30	0	1952448512	38	6606
2026-01-11 14:00:57.18	167.65	20.01	-33.7	-34.6	24.3	0.00e+00	123	30	0	1965031424	38	6683
2026-01-11 14:01:01.22	168.07	19.53	-33.7	-34.7	24.2	0.00e+00	123	30	0	1977614336	40	6002
2026-01-11 14:01:05.27	168.48	19.06	-33.4	-34.4	24.2	0.00e+00	122	30	0	1990197248	40	5792
2026-01-11 14:01:09.30	168.87	18.60	-33.3	-34.2	24.3	0.00e+00	123	30	0	2002780160	40	5663
2026-01-11 14:01:13.34	169.25	18.14	-33.2	-34.1	24.4	0.00e+00	123	30	0	2015363072	40	5629
2026-01-11 14:01:17.38	169.62	17.70	-33.3	-34.2	24.5	0.00e+00	123	30	0	2027945984	40	5667
2026-01-11 14:01:21.42	169.98	17.25	-33.3	-34.2	24.5	0.00e+00	123	30	0	2040528896	40	5669
2026-01-11 14:01:25.47	170.34	16.82	-33.5	-34.4	24.3	0.00e+00	123	30	0	2053111808	40	5827
2026-01-11 14:01:29.50	170.68	16.39	-33.7	-34.7	24.2	0.00e+00	123	30	0	2065694720	40	5995
2026-01-11 14:01:33.54	171.01	15.97	-33.9	-34.8	23.9	0.00e+00	121	30	0	2078277632	40	6101
2026-01-11 14:01:37.58	171.34	15.56	-34.1	-35.0	23.7	0.00e+00	123	31	0	2091909120	40	6241
2026-01-11 14:01:41.62	171.65	15.15	-34.2	-35.2	23.6	0.00e+00	123	30	0	2103443456	40	6379
2026-01-11 14:01:45.67	171.96	14.74	-34.6	-35.5	23.4	0.00e+00	122	30	0	2117074944	40	6607
2026-01-11 14:01:49.71	172.26	14.35	-34.3	-35.2	23.6	0.00e+00	123	31	0	2129657856	40	6420
2026-01-11 14:01:53.75	172.56	13.96	-34.2	-35.1	23.7	0.00e+00	123	30	0	2142240768	40	6337
2026-01-11 14:01:57.79	172.84	13.57	-34.2	-35.1	23.6	0.00e+00	122	31	0	2154823680	40	6350
2026-01-11 14:02:01.83	173.12	13.19	-34.3	-35.3	23.5	0.00e+00	123	31	0	2167406592	40	6427
2026-01-11 14:02:05.87	173.39	12.81	-34.6	-35.6	23.2	0.00e+00	123	31	0	2179989504	40	6690
2026-01-11 14:02:09.91	173.66	12.44	-34.9	-35.9	23.0	0.00e+00	123	31	0	2192572416	42	6179
2026-01-11 14:02:13.95	173.92	12.08	-34.8	-35.7	23.1	0.00e+00	123	31	0	2205155328	42	6057
2026-01-11 14:02:18.00	174.17	11.72	-34.8	-35.8	23.1	0.00e+00	122	31	0	2217738240	42	6087
2026-01-11 14:02:22.04	174.42	11.36	-34.8	-35.7	23.1	0.00e+00	120	31	0	2230321152	42	6051
2026-01-11 14:02:26.08	174.66	11.01	-34.6	-35.5	23.2	0.00e+00	128	30	0	2242904064	42	5914
2026-01-11 14:02:30.12	174.90	10.67	-34.6	-35.6	23.2	0.00e+00	123	31	0	2255486976	42	5930
2026-01-11 14:02:34.16	175.13	10.33	-35.0	-35.9	22.8	0.00e+00	123	31	0	2268069888	42	6193
2026-01-11 14:02:38.20	175.36	9.99	-35.2	-36.2	22.7	0.00e+00	123	31	0	2280652800	42	6374
2026-01-11 14:02:42.24	175.58	9.66	-35.0	-36.0	22.8	0.00e+00	122	30	0	2293235712	42	6222
2026-01-11 14:02:46.28	175.80	9.33	-35.2	-36.2	22.7	0.00e+00	123	30	0	2305818624	42	6365
2026-01-11 14:02:50.32	176.01	9.00	-35.2	-36.2	22.7	0.00e+00	120	30	0	2318401536	42	6384
2026-01-11 14:02:54.36	176.22	8.68	-35.3	-36.3	22.6	0.00e+00	120	30	0	2330984448	42	6444
2026-01-11 14:02:58.40	176.42	8.36	-35.4	-36.3	22.5	0.00e+00	122	30	0	2343567360	42	6482
2026-01-11 14:03:02.44	176.63	8.05	-35.5	-36.5	22.3	0.00e+00	122	30	0	2356150272	42	6640
2026-01-11 14:03:06.47	176.82	7.74	-35.9	-36.9	21.8	0.00e+00	121	30	0	2368733184	44	6161
2026-01-11 14:03:10.51	177.01	7.43	-35.8	-36.8	22.0	0.00e+00	120	30	0	2381316096	44	6101
2026-01-11 14:03:14.56	177.20	7.13	-36.1	-37.1	21.6	0.00e+00	120	30	0	2393899008	44	6345
2026-01-11 14:03:18.60	177.39	6.83	-36.3	-37.4	21.4	0.00e+00	122	30	0	2407530496	44	6502
2026-01-11 14:03:22.64	177.57	6.53	-36.2	-37.3	21.4	0.00e+00	123	30	0	2420113408	44	6455
2026-01-11 14:03:26.68	177.75	6.24	-36.6	-37.7	21.0	0.00e+00	122	30	0	2432696320	46	6058
2026-01-11 14:03:30.72	177.92	5.95	-36.6	-37.7	21.0	0.00e+00	120	30	0	2445279232	46	6035
2026-01-11 14:03:34.76	178.10	5.66	-37.0	-38.1	20.5	0.00e+00	122	30	0	2457862144	46	6325
2026-01-11 14:03:38.80	178.27	5.38	-37.3	-38.4	20.2	0.00e+00	122	30	0	2470445056	46	6571
2026-01-11 14:03:42.84	178.43	5.10	-37.3	-38.5	20.3	0.00e+00	123	30	0	2483027968	46	6632
2026-01-11 14:03:46.88	178.60	4.82	-37.6	-38.9	19.8	0.00e+00	122	30	0	2495610880	46	6913
2026-01-11 14:03:50.91	178.76	4.54	-37.1	-38.2	20.4	0.00e+00	122	30	0	2508193792	46	6413
2026-01-11 14:03:54.96	178.91	4.27	-37.6	-38.8	20.0	0.00e+00	122	30	0	2520776704	46	6880
2026-01-11 14:03:58.99	179.07	4.00	-37.3	-38.5	20.1	0.00e+00	123	30	0	2533359616	46	6595
2026-01-11 14:04:03.04	179.22	3.73	-37.7	-39.0	19.6	0.00e+00	123	30	0	2545942528	48	6220
2026-01-11 14:04:07.08	179.37	3.46	-37.2	-38.4	20.1	0.00e+00	123	30	0	2558525440	48	5847
2026-01-11 14:04:11.12	179.52	3.20	-37.6	-38.8	19.6	0.00e+00	123	30	0	2571108352	48	6123
2026-01-11 14:04:15.16	179.66	2.94	-47.2	-60.0	3.5	1.52e+00	0	30	104	2581594112	60	34975
2026-01-11 14:04:19.20	179.81	2.68	-48.0	-60.9	3.5	1.52e+00	0	30	104	2581594112	60	39117
2026-01-11 14:04:23.23	179.95	2.42	-48.1	-61.0	3.5	1.52e+00	0	30	104	2581594112	60	39374
2026-01-11 14:04:27.27	180.08	2.17	-48.1	-60.9	3.5	1.52e+00	0	30	104	2581594112	60	39064
2026-01-11 14:04:31.31	180.22	1.92	-48.1	-61.0	3.5	1.52e+00	0	30	104	2581594112	60	39499
2026-01-11 14:04:35.36	180.35	1.67	-48.1	-60.9	3.5	1.52e+00	0	30	104	2581594112	60	38922
2026-01-11 14:04:39.39	180.49	1.42	-48.1	-61.0	3.5	1.52e+00	0	30	104	2581594112	60	39286
2026-01-11 14:04:43.43	180.62	1.17	-48.0	-60.9	3.5	1.52e+00	0	30	104	2581594112	60	38731
2026-01-11 14:04:47.47	180.75	0.93	-48.0	-60.9	3.5	1.52e+00	0	30	104	2581594112	60	38864
2026-01-11 14:04:51.51	180.87	0.69	-48.0	-60.9	3.5	1.51e+00	0	30	104	2581594112	60	38965
2026-01-11 14:04:55.55	181.00	0.45	-48.1	-61.0	3.5	1.52e+00	0	30	104	2581594112	60	39278
2026-01-11 14:04:59.59	181.12	0.21	-48.1	-60.9	3.5	1.52e+00	0	30	104	2581594112	60	38974
2026-01-11 14:05:03.63	181.24	-0.03	-48.1	-61.0	3.5	1.52e+00	0	30	104	2581594112	60	39166

#Closed at: 2026-01-11 14:05:05
#Recorded file [2581 MB]: D:/lorett/data/35029_260112_014942.dat