passes_logs/2026/01/11/R4.6S_Anadyr/R4.6S_Anadyr__20260111_153007_NOAA_21_JPSS-2_rec.log

#Pass ID: 20260111_153007_NOAA 21 (JPSS-2)
#Satellite: NOAA 21 (JPSS-2)
#Configuration: NOAA-21
#almurnet v.1.7.20251203
#Start time: 2026-01-11 15:30:09

#Version: 2.2.20231116
#Station: R4.6S_Anadyr
#Location: 177.4865 lon 64.73178 lat
#TLE: 1 54234U 22150A   26010.92456470  .00000095  00000+0  65865-4 0  9991
#TLE: 2 54234  98.7494 311.8737 0000784 316.5119  43.5995 14.19533975164234

#Time	Az	El	Level	Level2	SNR	BER	BlckErr	Temp	State	Recorded	gain1	gain2
2026-01-11 15:30:09.27	22.46	0.12	-48.1	-63.0	3.5	1.51e+00	0	25	0	0	60	51088
2026-01-11 15:30:13.30	22.39	0.36	-48.2	-61.1	3.5	1.52e+00	0	26	104	0	60	39914
2026-01-11 15:30:17.34	22.32	0.61	-48.2	-61.0	3.5	1.52e+00	0	26	104	0	60	39226
2026-01-11 15:30:21.38	22.25	0.85	-47.4	-60.5	3.5	1.52e+00	0	26	104	0	60	37192
2026-01-11 15:30:25.42	22.17	1.10	-46.7	-59.6	3.5	1.51e+00	0	26	104	0	60	33359
2026-01-11 15:30:29.46	22.10	1.35	-46.7	-59.5	3.5	1.52e+00	0	26	104	0	60	33114
2026-01-11 15:30:33.50	22.02	1.60	-46.6	-59.2	3.5	1.51e+00	0	27	104	0	60	32088
2026-01-11 15:30:37.55	21.94	1.85	-46.6	-59.1	3.5	1.52e+00	0	27	104	0	60	31739
2026-01-11 15:30:41.58	21.86	2.10	-46.6	-59.5	3.5	1.52e+00	0	27	104	0	60	33078
2026-01-11 15:30:45.62	21.78	2.36	-46.6	-59.2	3.5	1.52e+00	0	27	104	0	60	31896
2026-01-11 15:30:49.66	21.70	2.62	-46.5	-58.0	3.5	1.51e+00	0	27	104	0	60	27872
2026-01-11 15:30:53.70	21.61	2.88	-46.6	-58.3	3.5	1.51e+00	0	27	104	0	60	28985
2026-01-11 15:30:57.74	21.53	3.14	-45.6	-51.2	6.8	3.05e-01	123	27	0	1048576	60	12780
2026-01-11 15:31:01.78	21.44	3.41	-42.9	-45.7	13.0	6.79e-05	123	27	0	13631488	60	6783
2026-01-11 15:31:05.82	21.35	3.68	-42.2	-44.6	14.2	2.20e-06	122	27	0	26214400	56	7476
2026-01-11 15:31:09.86	21.25	3.95	-46.4	-55.8	3.5	5.06e-01	0	27	104	38797312	60	21665
2026-01-11 15:31:13.89	21.16	4.22	-37.2	-38.4	20.3	0.00e+00	121	27	0	41943040	48	5798
2026-01-11 15:31:17.93	21.06	4.50	-36.9	-38.1	20.5	0.00e+00	120	27	0	54525952	48	5624
2026-01-11 15:31:21.97	20.96	4.78	-36.9	-38.1	20.6	0.00e+00	122	27	0	67108864	46	6311
2026-01-11 15:31:26.01	20.86	5.06	-36.8	-37.9	20.8	0.00e+00	122	27	0	79691776	46	6159
2026-01-11 15:31:30.05	20.76	5.35	-36.7	-37.8	21.0	0.00e+00	122	27	0	92274688	46	6117
2026-01-11 15:31:34.08	20.65	5.63	-36.6	-37.7	21.0	0.00e+00	123	27	0	104857600	46	6050
2026-01-11 15:31:38.12	20.54	5.93	-36.6	-37.8	21.1	0.00e+00	123	27	0	117440512	46	6065
2026-01-11 15:31:42.16	20.43	6.22	-36.4	-37.5	21.3	0.00e+00	123	27	0	130023424	46	5874
2026-01-11 15:31:46.20	20.31	6.52	-36.1	-37.2	21.6	0.00e+00	122	27	0	142606336	46	5690
2026-01-11 15:31:50.24	20.20	6.82	-36.1	-37.1	21.7	0.00e+00	122	27	0	155189248	46	5642
2026-01-11 15:31:54.29	20.08	7.12	-36.0	-37.0	21.8	0.00e+00	120	27	0	167772160	46	5586
2026-01-11 15:31:58.32	19.96	7.43	-35.8	-36.9	21.9	0.00e+00	122	27	0	180355072	46	5495
2026-01-11 15:32:02.37	19.83	7.74	-35.8	-36.9	22.0	0.00e+00	122	27	0	192937984	46	5485
2026-01-11 15:32:06.41	19.70	8.06	-35.6	-36.6	22.2	0.00e+00	120	27	0	205520896	44	5973
2026-01-11 15:32:10.45	19.57	8.38	-35.4	-36.4	22.4	0.00e+00	123	27	0	218103808	44	5829
2026-01-11 15:32:14.49	19.43	8.70	-35.2	-36.2	22.6	0.00e+00	122	27	0	230686720	44	5695
2026-01-11 15:32:18.53	19.30	9.03	-35.0	-36.0	22.8	0.00e+00	123	27	0	243269632	44	5549
2026-01-11 15:32:22.57	19.15	9.36	-34.8	-35.8	23.0	0.00e+00	122	27	0	255852544	44	5440
2026-01-11 15:32:26.61	19.01	9.70	-34.7	-35.7	23.1	0.00e+00	120	27	0	269484032	42	6027
2026-01-11 15:32:30.65	18.86	10.04	-34.8	-35.7	23.1	0.00e+00	123	27	0	282066944	42	6039
2026-01-11 15:32:34.69	18.71	10.38	-34.6	-35.5	23.3	0.00e+00	122	27	0	294649856	42	5896
2026-01-11 15:32:38.73	18.55	10.73	-34.4	-35.3	23.5	0.00e+00	123	27	0	307232768	42	5759
2026-01-11 15:32:42.77	18.39	11.08	-34.4	-35.3	23.5	0.00e+00	123	27	0	319815680	42	5774
2026-01-11 15:32:46.81	18.22	11.44	-34.1	-35.0	23.7	0.00e+00	123	27	0	332398592	42	5581
2026-01-11 15:32:50.85	18.05	11.81	-34.1	-35.0	23.7	0.00e+00	123	27	0	344981504	42	5580
2026-01-11 15:32:54.89	17.87	12.17	-33.9	-34.8	23.9	0.00e+00	123	27	0	357564416	42	5431
2026-01-11 15:32:58.93	17.69	12.55	-34.0	-35.0	23.7	0.00e+00	123	27	0	370147328	42	5536
2026-01-11 15:33:02.97	17.51	12.93	-34.0	-34.9	23.8	0.00e+00	122	27	0	382730240	42	5523
2026-01-11 15:33:07.00	17.32	13.31	-33.7	-34.7	23.9	0.00e+00	122	27	0	395313152	40	6007
2026-01-11 15:33:11.04	17.12	13.70	-33.8	-34.8	23.9	0.00e+00	120	27	0	407896064	40	6080
2026-01-11 15:33:15.08	16.92	14.10	-33.8	-34.8	23.9	0.00e+00	123	27	0	420478976	40	6079
2026-01-11 15:33:19.12	16.71	14.50	-33.8	-34.8	23.9	0.00e+00	123	27	0	433061888	40	6075
2026-01-11 15:33:23.16	16.50	14.91	-33.9	-34.8	23.9	0.00e+00	122	27	0	445644800	40	6089
2026-01-11 15:33:27.20	16.28	15.33	-33.8	-34.8	24.0	0.00e+00	122	27	0	458227712	40	6073
2026-01-11 15:33:31.24	16.05	15.75	-34.1	-35.1	23.9	0.00e+00	121	27	0	470810624	40	6289
2026-01-11 15:33:35.28	15.82	16.18	-34.0	-34.9	23.9	0.00e+00	120	27	0	483393536	40	6187
2026-01-11 15:33:39.32	15.58	16.62	-34.1	-35.1	23.9	0.00e+00	123	27	0	495976448	40	6298
2026-01-11 15:33:43.36	15.33	17.07	-34.1	-35.0	23.9	0.00e+00	120	27	0	508559360	40	6271
2026-01-11 15:33:47.40	15.07	17.52	-34.2	-35.2	23.8	0.00e+00	120	27	0	521142272	40	6364
2026-01-11 15:33:51.43	14.80	17.98	-34.1	-35.0	23.9	0.00e+00	123	27	0	533725184	40	6260
2026-01-11 15:33:55.48	14.53	18.45	-34.2	-35.1	23.9	0.00e+00	123	27	0	546308096	40	6296
2026-01-11 15:33:59.52	14.25	18.92	-34.0	-35.0	23.9	0.00e+00	123	27	0	558891008	40	6211
2026-01-11 15:34:03.56	13.95	19.41	-34.1	-35.0	23.9	0.00e+00	122	27	0	571473920	40	6249
2026-01-11 15:34:07.60	13.65	19.90	-33.9	-34.8	24.1	0.00e+00	122	27	0	585105408	40	6131
2026-01-11 15:34:11.65	13.34	20.41	-33.8	-34.8	24.1	0.00e+00	123	27	0	597688320	40	6069
2026-01-11 15:34:15.69	13.01	20.92	-33.3	-34.2	24.4	0.00e+00	120	27	0	610271232	40	5722
2026-01-11 15:34:19.73	12.68	21.44	-33.1	-34.0	24.6	0.00e+00	120	27	0	622854144	40	5540
2026-01-11 15:34:23.77	12.33	21.97	-32.8	-33.7	24.8	0.00e+00	123	27	0	635437056	40	5354
2026-01-11 15:34:27.82	11.97	22.51	-32.9	-33.7	24.8	0.00e+00	123	27	0	648019968	40	5404
2026-01-11 15:34:31.86	11.59	23.07	-32.6	-33.5	25.1	0.00e+00	122	27	0	660602880	38	5875
2026-01-11 15:34:35.90	11.20	23.63	-32.5	-33.4	25.1	0.00e+00	120	27	0	673185792	38	5796
2026-01-11 15:34:39.94	10.80	24.20	-32.5	-33.4	25.1	0.00e+00	122	27	0	685768704	38	5801
2026-01-11 15:34:43.98	10.38	24.79	-32.9	-33.8	24.8	0.00e+00	120	27	0	698351616	38	6095
2026-01-11 15:34:48.02	9.94	25.38	-33.2	-34.1	24.7	0.00e+00	122	27	0	710934528	38	6280
2026-01-11 15:34:52.06	9.49	25.99	-33.4	-34.3	24.6	0.00e+00	123	27	0	723517440	38	6426
2026-01-11 15:34:56.10	9.02	26.61	-33.3	-34.2	24.7	0.00e+00	123	27	0	736100352	38	6380
2026-01-11 15:35:00.14	8.53	27.24	-33.3	-34.2	24.6	0.00e+00	120	27	0	748683264	38	6406
2026-01-11 15:35:04.17	8.02	27.89	-33.7	-34.6	24.2	0.00e+00	123	27	0	761266176	38	6709
2026-01-11 15:35:08.21	7.48	28.54	-33.5	-34.4	24.4	0.00e+00	122	27	0	773849088	38	6564
2026-01-11 15:35:12.25	6.93	29.21	-33.5	-34.3	24.5	0.00e+00	123	27	0	786432000	38	6497
2026-01-11 15:35:16.29	6.35	29.90	-33.4	-34.2	24.5	0.00e+00	123	27	0	799014912	38	6417
2026-01-11 15:35:20.33	5.74	30.59	-33.6	-34.5	24.3	0.00e+00	123	27	0	811597824	38	6618
2026-01-11 15:35:24.37	5.10	31.30	-33.9	-34.8	24.3	0.00e+00	123	27	0	824180736	40	6084
2026-01-11 15:35:28.41	4.44	32.03	-33.6	-34.5	24.4	0.00e+00	122	27	0	836763648	40	5881
2026-01-11 15:35:32.45	3.74	32.76	-33.8	-34.7	24.1	0.00e+00	122	27	0	849346560	40	6026
2026-01-11 15:35:36.48	3.02	33.51	-34.3	-35.2	23.9	0.00e+00	122	27	0	861929472	40	6418
2026-01-11 15:35:40.52	2.25	34.27	-34.5	-35.4	23.8	0.00e+00	123	27	0	874512384	40	6543
2026-01-11 15:35:44.52	1.46	35.04	-34.4	-35.3	23.8	0.00e+00	123	27	0	887095296	40	6465
2026-01-11 15:35:48.56	0.62	35.83	-35.0	-35.9	23.4	0.00e+00	123	27	0	900726784	42	6200
2026-01-11 15:35:52.60	359.74	36.63	-35.0	-36.0	23.4	0.00e+00	122	27	0	913309696	42	6206
2026-01-11 15:35:56.64	358.81	37.44	-35.2	-36.2	23.1	0.00e+00	122	27	0	925892608	42	6368
2026-01-11 15:36:00.68	357.83	38.26	-35.4	-36.4	23.1	0.00e+00	122	27	0	938475520	42	6546
2026-01-11 15:36:04.73	356.80	39.09	-35.7	-36.7	22.8	0.00e+00	120	27	0	951058432	44	6047
2026-01-11 15:36:08.77	355.71	39.94	-35.2	-36.1	23.3	0.00e+00	123	27	0	963641344	44	5652
2026-01-11 15:36:12.81	354.57	40.78	-35.4	-36.4	23.1	0.00e+00	123	27	0	976224256	44	5796
2026-01-11 15:36:16.85	353.37	41.64	-35.6	-36.6	22.8	0.00e+00	122	27	0	988807168	44	5952
2026-01-11 15:36:20.89	352.09	42.50	-36.3	-37.3	22.2	0.00e+00	123	27	0	1001390080	44	6465
2026-01-11 15:36:24.93	350.75	43.37	-36.2	-37.2	22.2	0.00e+00	120	27	0	1013972992	44	6407
2026-01-11 15:36:28.97	349.33	44.23	-36.5	-37.5	22.0	0.00e+00	123	27	0	1026555904	44	6636
2026-01-11 15:36:33.01	347.83	45.09	-36.6	-37.6	22.1	0.00e+00	122	27	0	1039138816	46	5968
2026-01-11 15:36:37.05	346.25	45.95	-36.4	-37.5	22.0	0.00e+00	127	27	0	1051721728	46	5874
2026-01-11 15:36:41.09	344.58	46.80	-36.2	-37.3	22.3	0.00e+00	122	27	0	1064304640	46	5732
2026-01-11 15:36:45.13	342.81	47.64	-35.5	-36.5	22.9	0.00e+00	121	27	0	1076887552	44	5883
2026-01-11 15:36:49.17	340.95	48.47	-35.6	-36.6	22.9	0.00e+00	120	27	0	1089470464	44	5930
2026-01-11 15:36:53.21	338.99	49.27	-35.1	-36.1	23.1	0.00e+00	127	27	0	1102053376	44	5631
2026-01-11 15:36:57.25	336.92	50.06	-35.0	-35.9	23.3	0.00e+00	123	27	0	1114636288	44	5518
2026-01-11 15:37:01.29	334.74	50.81	-35.4	-36.4	23.2	0.00e+00	122	28	0	1127219200	44	5802
2026-01-11 15:37:05.33	332.45	51.52	-35.5	-36.5	23.0	0.00e+00	122	27	0	1139802112	44	5919
2026-01-11 15:37:09.37	330.05	52.20	-34.2	-35.2	24.0	0.00e+00	122	28	0	1152385024	42	5677
2026-01-11 15:37:13.41	327.54	52.83	-34.1	-35.1	24.1	0.00e+00	123	28	0	1164967936	42	5611
2026-01-11 15:37:17.45	324.93	53.41	-33.9	-34.8	24.3	0.00e+00	123	28	0	1177550848	42	5428
2026-01-11 15:37:21.49	322.21	53.94	-33.8	-34.7	24.2	0.00e+00	122	28	0	1191182336	40	6053
2026-01-11 15:37:25.53	319.40	54.40	-34.9	-35.9	23.5	0.00e+00	123	28	0	1202716672	42	6161
2026-01-11 15:37:29.57	316.51	54.79	-34.4	-35.3	23.8	0.00e+00	123	28	0	1216348160	42	5786
2026-01-11 15:37:33.61	313.54	55.11	-33.4	-34.3	24.6	0.00e+00	123	28	0	1228931072	40	5755
2026-01-11 15:37:37.65	310.51	55.35	-33.8	-34.7	24.4	0.00e+00	127	28	0	1241513984	40	6001
2026-01-11 15:37:41.69	307.43	55.52	-33.8	-34.7	24.3	0.00e+00	120	28	0	1254096896	40	6052
2026-01-11 15:37:45.73	304.33	55.60	-34.0	-34.9	24.3	0.00e+00	122	28	0	1266679808	40	6151
2026-01-11 15:37:49.77	301.22	55.60	-33.9	-34.8	24.2	0.00e+00	122	28	0	1279262720	40	6101
2026-01-11 15:37:53.81	298.12	55.51	-33.7	-34.6	24.4	0.00e+00	120	28	0	1291845632	40	5986
2026-01-11 15:37:57.85	295.04	55.34	-34.4	-35.4	23.5	0.00e+00	123	28	0	1304428544	40	6516
2026-01-11 15:38:01.89	292.01	55.10	-34.3	-35.3	23.9	0.00e+00	123	28	0	1317011456	40	6426
2026-01-11 15:38:05.93	289.04	54.77	-34.1	-35.1	23.7	0.00e+00	120	28	0	1329594368	40	6298
2026-01-11 15:38:09.97	286.15	54.38	-34.0	-34.9	24.2	0.00e+00	123	28	0	1342177280	40	6145
2026-01-11 15:38:14.01	283.34	53.91	-33.5	-34.4	24.7	0.00e+00	122	28	0	1354760192	40	5820
2026-01-11 15:38:18.05	280.62	53.39	-34.8	-35.7	23.7	0.00e+00	122	28	0	1367343104	42	6034
2026-01-11 15:38:22.09	278.01	52.80	-33.6	-34.4	24.6	0.00e+00	123	28	0	1379926016	40	5857
2026-01-11 15:38:26.13	275.50	52.17	-34.8	-35.8	23.6	0.00e+00	123	28	0	1392508928	42	6081
2026-01-11 15:38:30.18	273.10	51.49	-35.0	-35.9	23.4	0.00e+00	123	28	0	1405091840	42	6192
2026-01-11 15:38:34.22	270.81	50.76	-34.4	-35.4	23.2	0.00e+00	123	28	0	1417674752	42	5836
2026-01-11 15:38:38.26	268.64	50.01	-35.7	-36.7	22.7	0.00e+00	120	28	0	1430257664	44	6026
2026-01-11 15:38:42.30	266.57	49.22	-34.8	-35.7	23.5	0.00e+00	122	28	0	1442840576	44	5380
2026-01-11 15:38:46.34	264.61	48.42	-36.9	-38.0	21.5	0.00e+00	122	28	0	1455423488	46	6269
2026-01-11 15:38:50.37	262.75	47.59	-34.6	-35.5	23.8	0.00e+00	122	28	0	1468006400	42	5903
2026-01-11 15:38:54.42	260.98	46.75	-37.5	-38.6	21.2	0.00e+00	120	28	0	1480589312	46	6695
2026-01-11 15:38:58.45	259.31	45.89	-35.1	-36.1	22.9	0.00e+00	123	28	0	1493172224	44	5637
2026-01-11 15:39:02.49	257.73	45.03	-37.1	-38.2	21.4	0.00e+00	123	28	0	1505755136	46	6372
2026-01-11 15:39:06.53	256.23	44.17	-36.3	-37.3	22.1	0.00e+00	121	28	0	1518338048	46	5765
2026-01-11 15:39:10.57	254.82	43.30	-35.0	-35.9	23.5	0.00e+00	123	28	0	1531969536	42	6167
2026-01-11 15:39:14.61	253.47	42.43	-36.6	-37.6	21.4	0.00e+00	122	29	0	1544552448	46	5975
2026-01-11 15:39:18.64	252.20	41.57	-35.6	-36.6	22.7	0.00e+00	122	29	0	1557135360	44	5987
2026-01-11 15:39:22.68	251.00	40.71	-36.5	-37.6	22.2	0.00e+00	122	29	0	1569718272	46	5952
2026-01-11 15:39:26.72	249.86	39.86	-34.7	-35.7	23.6	0.00e+00	120	29	0	1582301184	44	5352
2026-01-11 15:39:30.76	248.77	39.01	-34.1	-35.0	24.2	0.00e+00	123	28	0	1594884096	42	5565
2026-01-11 15:39:34.80	247.74	38.18	-36.3	-37.3	22.3	0.00e+00	120	29	0	1607467008	44	6483
2026-01-11 15:39:38.84	246.76	37.35	-35.6	-36.6	22.9	0.00e+00	121	29	0	1620049920	44	5953
2026-01-11 15:39:42.88	245.84	36.54	-35.4	-36.4	23.0	0.00e+00	123	29	0	1632632832	44	5795
2026-01-11 15:39:46.91	244.95	35.74	-35.3	-36.3	23.2	0.00e+00	120	29	0	1645215744	42	6473
2026-01-11 15:39:50.96	244.11	34.95	-35.4	-36.4	22.8	0.00e+00	122	29	0	1657798656	42	6526
2026-01-11 15:39:54.99	243.31	34.17	-34.6	-35.5	23.9	0.00e+00	123	29	0	1670381568	42	5878
2026-01-11 15:39:59.02	242.55	33.41	-34.6	-35.5	23.8	0.00e+00	123	29	0	1682964480	42	5914
2026-01-11 15:40:03.07	241.82	32.66	-34.2	-35.1	24.0	0.00e+00	123	29	0	1695547392	42	5638
2026-01-11 15:40:07.10	241.12	31.92	-33.9	-34.8	24.1	0.00e+00	123	29	0	1708130304	42	5430
2026-01-11 15:40:11.15	240.46	31.20	-34.3	-35.2	23.9	0.00e+00	122	29	0	1720713216	42	5718
2026-01-11 15:40:15.18	239.82	30.49	-34.5	-35.4	23.8	0.00e+00	122	29	0	1733296128	42	5857
2026-01-11 15:40:19.23	239.21	29.79	-34.1	-35.0	24.2	0.00e+00	122	29	0	1745879040	42	5550
2026-01-11 15:40:23.27	238.63	29.10	-33.3	-34.2	24.7	0.00e+00	122	29	0	1758461952	40	5661
2026-01-11 15:40:27.31	238.07	28.43	-33.6	-34.4	24.6	0.00e+00	122	29	0	1771044864	40	5849
2026-01-11 15:40:31.34	237.54	27.78	-33.6	-34.4	24.5	0.00e+00	122	29	0	1783627776	40	5853
2026-01-11 15:40:35.38	237.03	27.13	-33.2	-34.1	24.8	0.00e+00	122	29	0	1796210688	40	5650
2026-01-11 15:40:39.42	236.54	26.50	-33.3	-34.2	24.5	0.00e+00	122	29	0	1808793600	40	5701
2026-01-11 15:40:43.45	236.06	25.88	-33.5	-34.4	24.5	0.00e+00	123	29	0	1821376512	40	5800
2026-01-11 15:40:47.49	235.61	25.27	-33.2	-34.1	24.8	0.00e+00	123	29	0	1833959424	40	5612
2026-01-11 15:40:51.53	235.17	24.67	-33.1	-33.9	24.9	0.00e+00	123	29	0	1846542336	40	5517
2026-01-11 15:40:55.57	234.75	24.08	-32.9	-33.8	25.0	0.00e+00	122	29	0	1859125248	40	5431
2026-01-11 15:40:59.60	234.35	23.51	-33.2	-34.1	24.7	0.00e+00	122	29	0	1872756736	40	5631
2026-01-11 15:41:03.65	233.96	22.95	-33.7	-34.6	24.5	0.00e+00	122	29	0	1885339648	40	5973
2026-01-11 15:41:07.69	233.58	22.39	-33.9	-34.9	24.1	0.00e+00	122	29	0	1897922560	40	6141
2026-01-11 15:41:11.73	233.22	21.85	-34.0	-35.0	23.7	0.00e+00	122	29	0	1910505472	40	6232
2026-01-11 15:41:15.77	232.87	21.32	-33.8	-34.7	23.9	0.00e+00	123	29	0	1923088384	40	6024
2026-01-11 15:41:19.80	232.53	20.80	-32.8	-33.7	24.7	0.00e+00	123	29	0	1935671296	40	5353
2026-01-11 15:41:23.84	232.21	20.28	-32.6	-33.5	24.9	0.00e+00	122	29	0	1948254208	38	5874
2026-01-11 15:41:27.88	231.89	19.78	-32.7	-33.5	25.0	0.00e+00	123	29	0	1960837120	38	5904
2026-01-11 15:41:31.91	231.59	19.28	-32.8	-33.6	25.0	0.00e+00	123	29	0	1973420032	38	5969
2026-01-11 15:41:35.95	231.29	18.80	-33.1	-34.0	24.7	0.00e+00	123	29	0	1986002944	38	6235
2026-01-11 15:41:39.99	231.01	18.32	-33.5	-34.4	24.5	0.00e+00	122	29	0	1998585856	38	6541
2026-01-11 15:41:44.03	230.73	17.85	-33.9	-34.8	24.2	0.00e+00	120	29	0	2011168768	40	6092
2026-01-11 15:41:48.07	230.46	17.39	-34.1	-35.0	23.9	0.00e+00	121	29	0	2023751680	40	6277
2026-01-11 15:41:52.11	230.21	16.94	-34.3	-35.2	23.8	0.00e+00	122	29	0	2036334592	40	6423
2026-01-11 15:41:56.14	229.95	16.49	-34.5	-35.4	23.6	0.00e+00	123	29	0	2048917504	40	6539
2026-01-11 15:42:00.18	229.71	16.06	-34.4	-35.3	23.7	0.00e+00	123	30	0	2061500416	40	6491
2026-01-11 15:42:04.22	229.47	15.63	-34.3	-35.2	23.7	0.00e+00	122	29	0	2074083328	40	6386
2026-01-11 15:42:08.26	229.25	15.20	-34.2	-35.1	23.7	0.00e+00	122	30	0	2086666240	40	6345
2026-01-11 15:42:12.29	229.02	14.79	-34.3	-35.2	23.7	0.00e+00	123	30	0	2099249152	40	6395
2026-01-11 15:42:16.33	228.81	14.37	-34.2	-35.1	23.8	0.00e+00	123	30	0	2111832064	40	6304
2026-01-11 15:42:20.37	228.60	13.97	-34.3	-35.2	23.8	0.00e+00	123	30	0	2124414976	40	6386
2026-01-11 15:42:24.41	228.39	13.57	-34.5	-35.4	23.6	0.00e+00	122	30	0	2136997888	40	6556
2026-01-11 15:42:28.45	228.19	13.18	-34.7	-35.6	23.4	0.00e+00	122	30	0	2149580800	40	6688
2026-01-11 15:42:32.48	228.00	12.80	-34.7	-35.7	23.3	0.00e+00	123	30	0	2162163712	42	6015
2026-01-11 15:42:36.52	227.81	12.41	-34.9	-35.9	23.1	0.00e+00	123	30	0	2174746624	42	6178
2026-01-11 15:42:40.56	227.63	12.04	-35.2	-36.2	22.9	0.00e+00	123	30	0	2187329536	42	6367
2026-01-11 15:42:44.60	227.45	11.67	-35.4	-36.4	22.7	0.00e+00	123	30	0	2199912448	42	6520
2026-01-11 15:42:48.64	227.28	11.31	-35.7	-36.7	22.5	0.00e+00	120	30	0	2213543936	42	6731
2026-01-11 15:42:52.69	227.11	10.95	-35.7	-36.7	22.4	0.00e+00	122	30	0	2225078272	44	6043
2026-01-11 15:42:56.72	226.95	10.59	-36.0	-37.0	22.1	0.00e+00	123	30	0	2238709760	44	6253
2026-01-11 15:43:00.76	226.79	10.24	-36.0	-37.1	22.0	0.00e+00	123	30	0	2251292672	44	6300
2026-01-11 15:43:04.80	226.63	9.90	-36.3	-37.3	21.8	0.00e+00	120	30	0	2263875584	44	6479
2026-01-11 15:43:08.84	226.48	9.56	-36.3	-37.4	21.7	0.00e+00	123	30	0	2276458496	44	6544
2026-01-11 15:43:12.88	226.33	9.22	-36.6	-37.6	21.5	0.00e+00	123	30	0	2289041408	44	6726
2026-01-11 15:43:16.92	226.19	8.89	-36.9	-38.0	21.2	0.00e+00	123	30	0	2301624320	46	6276
2026-01-11 15:43:20.96	226.04	8.56	-37.0	-38.2	21.0	0.00e+00	122	30	0	2314207232	46	6361
2026-01-11 15:43:24.99	225.91	8.24	-37.4	-38.5	20.6	0.00e+00	122	30	0	2326790144	46	6638
2026-01-11 15:43:29.03	225.77	7.92	-37.5	-38.7	20.5	0.00e+00	122	30	0	2339373056	48	6034
2026-01-11 15:43:33.07	225.64	7.60	-38.0	-39.2	19.9	0.00e+00	122	30	0	2351955968	48	6366
2026-01-11 15:43:37.11	225.51	7.29	-38.2	-39.4	19.6	0.00e+00	127	30	0	2364538880	48	6567
2026-01-11 15:43:41.15	225.39	6.98	-38.5	-39.8	19.3	0.00e+00	122	30	0	2377121792	48	6831
2026-01-11 15:43:45.19	225.26	6.68	-38.8	-40.2	19.0	0.00e+00	122	30	0	2389704704	50	6351
2026-01-11 15:43:49.23	225.14	6.38	-38.8	-40.2	18.8	0.00e+00	122	30	0	2402287616	50	6379
2026-01-11 15:43:53.27	225.03	6.08	-39.1	-40.6	18.4	0.00e+00	120	30	0	2414870528	50	6667
2026-01-11 15:43:57.31	224.91	5.78	-39.3	-40.8	18.1	0.00e+00	123	30	0	2427453440	50	6860
2026-01-11 15:44:01.34	224.80	5.49	-39.7	-41.3	17.6	0.00e+00	123	30	0	2440036352	50	7233
2026-01-11 15:44:05.39	224.69	5.20	-40.2	-41.9	16.9	0.00e+00	123	30	0	2452619264	52	6887
2026-01-11 15:44:09.43	224.58	4.92	-39.9	-41.6	17.1	0.00e+00	123	30	0	2465202176	52	6686
2026-01-11 15:44:13.47	224.48	4.64	-40.0	-41.7	16.9	0.00e+00	122	30	0	2477785088	52	6752
2026-01-11 15:44:17.51	224.38	4.36	-40.1	-41.9	16.6	0.00e+00	123	30	0	2490368000	52	6928
2026-01-11 15:44:21.56	224.28	4.08	-40.2	-42.0	16.4	0.00e+00	120	30	0	2502950912	52	7005
2026-01-11 15:44:25.60	224.18	3.80	-40.5	-42.4	15.9	0.00e+00	122	30	0	2515533824	52	7293
2026-01-11 15:44:29.64	224.08	3.53	-40.6	-42.5	15.7	0.00e+00	123	30	0	2529165312	52	7410
2026-01-11 15:44:33.68	223.99	3.26	-40.9	-43.0	15.2	0.00e+00	123	30	0	2540699648	54	7019
2026-01-11 15:44:37.72	223.89	3.00	-46.4	-59.1	3.5	1.02e+00	0	30	104	2553282560	60	31741
2026-01-11 15:44:41.76	223.80	2.73	-48.2	-61.1	3.5	1.52e+00	0	30	104	2553282560	60	39819
2026-01-11 15:44:45.80	223.71	2.47	-48.2	-61.1	3.5	1.52e+00	0	30	104	2553282560	60	39882
2026-01-11 15:44:49.84	223.63	2.21	-48.0	-61.0	3.5	1.52e+00	0	30	104	2553282560	60	39387
2026-01-11 15:44:53.89	223.54	1.95	-48.2	-61.0	3.5	1.51e+00	0	30	104	2553282560	60	39316
2026-01-11 15:44:57.93	223.46	1.70	-48.2	-60.9	3.5	1.52e+00	0	30	104	2553282560	60	39138
2026-01-11 15:45:01.97	223.38	1.45	-48.1	-61.0	3.5	1.52e+00	0	30	104	2553282560	60	39363
2026-01-11 15:45:06.00	223.29	1.20	-48.1	-61.0	3.5	1.52e+00	0	30	104	2553282560	60	39456
2026-01-11 15:45:10.05	223.22	0.95	-48.2	-61.0	3.5	1.52e+00	0	30	104	2553282560	60	39312
2026-01-11 15:45:14.09	223.14	0.70	-48.2	-61.1	3.5	1.52e+00	0	31	104	2553282560	60	39682
2026-01-11 15:45:18.13	223.06	0.46	-48.2	-61.0	3.5	1.52e+00	0	31	104	2553282560	60	39341
2026-01-11 15:45:22.18	222.99	0.21	-48.2	-61.0	3.5	1.52e+00	0	31	104	2553282560	60	39531

#Closed at: 2026-01-11 15:45:26
#Recorded file [2553 MB]: D:/lorett/data/35029_260112_033009.dat