passes_logs/2026/01/11/R4.6S_Anadyr/R4.6S_Anadyr__20260111_011307_AQUA_rec.log

#Pass ID: 20260111_011307_AQUA
#Satellite: AQUA
#Configuration: AQUA
#almurnet v.1.7.20251203
#Start time: 2026-01-11 01:13:09

#Version: 2.2.20231116
#Station: R4.6S_Anadyr
#Location: 177.4865 lon 64.73178 lat
#TLE: 1 27424U 02022A   26009.89520876  .00001045  00000+0  21914-3 0  9996
#TLE: 2 27424  98.4076 336.2372 0002032  84.5955   1.0356 14.61811442260144

#Time	Az	El	Level	Level2	SNR	BER	BlckErr	Temp	State	Recorded	gain1	gain2
2026-01-11 01:13:09.12	137.74	0.09	-47.9	-62.7	3.5	1.51e+00	0	27	0	0	60	49538
2026-01-11 01:13:13.15	137.65	0.34	-48.4	-66.2	3.5	3.02e+01	0	28	104	0	60	78886
2026-01-11 01:13:17.19	137.56	0.59	-48.2	-66.1	3.5	3.02e+01	0	28	104	0	60	77531
2026-01-11 01:13:21.22	137.47	0.84	-47.8	-65.7	3.5	3.02e+01	0	28	104	0	60	74181
2026-01-11 01:13:25.27	137.37	1.10	-46.8	-64.1	3.5	3.02e+01	0	28	104	0	60	61832
2026-01-11 01:13:29.31	137.27	1.35	-46.7	-64.6	3.5	3.02e+01	0	28	104	0	60	65035
2026-01-11 01:13:33.35	137.17	1.61	-46.7	-64.3	3.5	3.02e+01	0	28	104	0	60	63339
2026-01-11 01:13:37.38	137.07	1.88	-46.7	-64.6	3.5	3.02e+01	0	28	104	0	60	65075
2026-01-11 01:13:41.41	136.97	2.14	-46.7	-63.4	3.5	3.02e+01	0	28	104	0	60	57047
2026-01-11 01:13:45.46	136.86	2.41	-46.7	-64.2	3.5	3.02e+01	0	28	104	0	60	62068
2026-01-11 01:13:49.50	136.75	2.68	-46.7	-63.9	3.5	3.02e+01	0	28	104	0	60	60286
2026-01-11 01:13:53.54	136.64	2.95	-46.6	-61.0	4.2	3.02e+01	0	28	104	0	60	43129
2026-01-11 01:13:57.57	136.53	3.23	-46.7	-63.6	3.5	3.02e+01	0	28	104	0	60	58541
2026-01-11 01:14:01.61	136.41	3.51	-44.2	-48.5	15.9	3.02e+01	89	28	0	3670016	60	10216
2026-01-11 01:14:05.65	136.30	3.79	-39.7	-41.7	22.5	3.02e+01	89	28	0	11010048	54	6624
2026-01-11 01:14:09.68	136.17	4.08	-43.1	-46.5	15.4	3.02e+01	92	28	0	16252928	52	12945
2026-01-11 01:14:13.72	136.05	4.37	-36.5	-37.9	26.0	3.02e+01	92	28	0	19922944	48	6038
2026-01-11 01:14:17.76	135.92	4.66	-36.5	-37.9	26.1	3.02e+01	90	28	0	27787264	48	6056
2026-01-11 01:14:21.80	135.79	4.95	-35.9	-37.2	26.8	3.02e+01	92	28	0	35127296	46	6266
2026-01-11 01:14:25.84	135.66	5.25	-35.6	-37.0	27.1	3.02e+01	90	28	0	42991616	46	6078
2026-01-11 01:14:29.87	135.52	5.56	-35.6	-36.9	27.2	3.02e+01	92	28	0	50331648	46	6051
2026-01-11 01:14:33.91	135.38	5.86	-35.1	-36.4	27.6	3.02e+01	92	28	0	58195968	46	5720
2026-01-11 01:14:37.95	135.24	6.17	-35.1	-36.4	27.8	3.02e+01	89	28	0	65536000	46	5717
2026-01-11 01:14:41.98	135.09	6.49	-35.1	-36.5	27.7	3.02e+01	90	28	0	73400320	46	5727
2026-01-11 01:14:46.02	134.94	6.81	-35.1	-36.4	27.8	3.02e+01	92	28	0	80740352	44	6378
2026-01-11 01:14:50.06	134.78	7.13	-34.9	-36.2	28.0	3.02e+01	90	28	0	88080384	44	6275
2026-01-11 01:14:54.10	134.62	7.46	-35.3	-45.5	3.4	3.02e+01	0	28	104	90701824	44	18222
2026-01-11 01:14:58.13	134.46	7.79	-47.0	-63.6	3.6	3.02e+01	0	28	104	90701824	60	58136
2026-01-11 01:15:02.17	134.29	8.13	-35.9	-46.1	4.1	3.02e+01	0	28	104	90701824	48	15584
2026-01-11 01:15:06.21	134.12	8.47	-47.2	-64.3	3.5	3.02e+01	0	28	104	90701824	60	62958
2026-01-11 01:15:10.25	133.94	8.81	-41.1	-52.1	3.5	3.02e+01	0	28	104	90701824	56	19451
2026-01-11 01:15:14.28	133.75	9.16	-46.8	-62.3	3.5	3.02e+01	0	28	104	90701824	60	50027
2026-01-11 01:15:18.32	133.57	9.52	-37.0	-47.4	3.5	3.02e+01	0	28	104	90701824	50	16083
2026-01-11 01:15:22.36	133.37	9.88	-39.1	-49.7	3.5	3.02e+01	0	28	104	90701824	52	18656
2026-01-11 01:15:26.40	133.17	10.25	-40.6	-51.5	3.5	3.02e+01	0	28	104	90701824	56	18190
2026-01-11 01:15:30.44	132.97	10.63	-34.5	-44.7	3.5	3.02e+01	0	28	104	90701824	44	16574
2026-01-11 01:15:34.47	132.76	11.01	-35.5	-45.8	3.5	3.02e+01	0	28	104	90701824	48	14979
2026-01-11 01:15:38.51	132.54	11.39	-34.8	-45.1	3.5	3.02e+01	0	28	104	90701824	44	17367
2026-01-11 01:15:42.55	132.32	11.79	-46.6	-61.2	3.5	3.02e+01	0	28	104	90701824	60	44165
2026-01-11 01:15:46.59	132.08	12.19	-37.4	-47.8	3.5	3.02e+01	0	28	104	90701824	50	16804
2026-01-11 01:15:50.62	131.85	12.59	-35.7	-45.9	3.5	3.02e+01	0	28	104	90701824	44	19097
2026-01-11 01:15:54.66	131.60	13.01	-35.1	-45.3	3.5	3.02e+01	0	28	104	90701824	46	15923
2026-01-11 01:15:58.70	131.35	13.43	-39.3	-49.9	3.5	3.02e+01	0	28	104	90701824	50	21342
2026-01-11 01:16:02.73	131.09	13.85	-36.1	-46.4	3.5	3.02e+01	0	28	104	90701824	48	16088
2026-01-11 01:16:06.77	130.81	14.29	-34.9	-45.1	3.5	3.02e+01	0	28	104	90701824	42	19428
2026-01-11 01:16:10.81	130.53	14.74	-42.6	-53.8	3.5	3.02e+01	0	28	104	90701824	52	30000
2026-01-11 01:16:14.84	130.25	15.19	-38.0	-48.5	3.5	3.02e+01	0	28	104	90701824	52	16156
2026-01-11 01:16:18.88	129.95	15.65	-47.2	-64.2	3.5	3.02e+01	0	28	104	90701824	60	62186
2026-01-11 01:16:22.92	129.64	16.12	-34.0	-44.2	3.5	3.02e+01	0	28	104	90701824	44	15634
2026-01-11 01:16:26.96	129.31	16.60	-47.3	-63.8	3.5	3.02e+01	0	28	104	90701824	60	59745
2026-01-11 01:16:30.99	128.98	17.09	-34.8	-45.0	3.5	3.02e+01	0	28	104	90701824	44	17201
2026-01-11 01:16:35.03	128.64	17.59	-38.6	-49.1	3.5	3.02e+01	0	28	104	90701824	48	21878
2026-01-11 01:16:39.07	128.28	18.10	-37.4	-47.7	3.6	3.02e+01	0	28	104	90701824	50	16569
2026-01-11 01:16:43.11	127.91	18.62	-35.6	-45.9	3.5	3.02e+01	0	28	104	90701824	46	16911
2026-01-11 01:16:47.14	127.52	19.16	-37.3	-47.7	3.5	3.02e+01	0	28	104	90701824	48	18615
2026-01-11 01:16:51.18	127.12	19.70	-33.9	-44.1	3.5	3.02e+01	0	28	104	90701824	42	17320
2026-01-11 01:16:55.22	126.71	20.25	-47.8	-65.4	3.5	3.02e+01	0	28	104	90701824	60	71530
2026-01-11 01:16:59.25	126.27	20.82	-34.0	-44.2	3.5	3.02e+01	0	28	104	90701824	44	15766
2026-01-11 01:17:03.29	125.82	21.40	-47.9	-65.8	3.5	3.02e+01	0	28	104	90701824	60	74787
2026-01-11 01:17:07.33	125.35	21.99	-38.9	-49.4	3.5	3.02e+01	0	27	104	90701824	54	16084
2026-01-11 01:17:11.37	124.86	22.60	-44.8	-57.2	3.6	3.02e+01	0	28	104	90701824	60	27987
2026-01-11 01:17:15.41	124.35	23.22	-35.8	-46.2	3.5	3.02e+01	0	28	104	90701824	48	15599
2026-01-11 01:17:19.44	123.82	23.85	-37.4	-47.8	3.6	3.02e+01	0	28	104	90701824	52	15011
2026-01-11 01:17:23.48	123.26	24.50	-41.4	-52.2	3.5	3.02e+01	0	27	104	90701824	60	15685
2026-01-11 01:17:27.52	122.68	25.16	-34.4	-44.5	3.5	3.02e+01	0	28	104	90701824	42	18244
2026-01-11 01:17:31.55	122.07	25.84	-38.0	-48.5	3.5	3.02e+01	0	27	104	90701824	52	16232
2026-01-11 01:17:35.59	121.44	26.53	-40.0	-50.7	3.5	3.02e+01	0	27	104	90701824	54	18535
2026-01-11 01:17:39.63	120.77	27.24	-46.4	-60.3	3.4	3.02e+01	0	27	104	90701824	60	40006
2026-01-11 01:17:43.67	120.07	27.97	-35.3	-45.6	3.5	3.02e+01	0	27	104	90701824	46	16365
2026-01-11 01:17:47.70	119.34	28.71	-37.9	-48.2	3.5	3.02e+01	0	27	104	90701824	44	24815
2026-01-11 01:17:51.74	118.57	29.46	-33.5	-43.7	3.5	3.02e+01	0	27	104	90701824	42	16610
2026-01-11 01:17:55.78	117.75	30.24	-33.9	-44.1	3.5	3.02e+01	0	27	104	90701824	42	17294
2026-01-11 01:17:59.81	116.90	31.02	-38.6	-49.1	3.5	3.02e+01	0	27	104	90701824	54	15424
2026-01-11 01:18:03.85	116.01	31.83	-39.3	-50.0	3.5	3.02e+01	0	27	104	90701824	50	21529
2026-01-11 01:18:07.89	115.06	32.65	-34.3	-44.4	3.5	3.02e+01	0	27	104	90701824	42	18085
2026-01-11 01:18:11.93	114.06	33.48	-34.1	-44.4	3.5	3.02e+01	0	27	104	90701824	42	17945
2026-01-11 01:18:15.96	113.02	34.33	-44.3	-56.2	3.5	3.02e+01	0	27	104	90701824	60	24802
2026-01-11 01:18:20.00	111.91	35.19	-34.5	-44.7	3.6	3.02e+01	0	27	104	90701824	44	16670
2026-01-11 01:18:24.04	110.73	36.07	-47.9	-65.5	3.5	3.02e+01	0	27	104	90701824	60	72883
2026-01-11 01:18:28.08	109.49	36.96	-37.6	-47.9	3.5	3.02e+01	0	27	104	90701824	50	16999
2026-01-11 01:18:32.11	108.18	37.85	-47.7	-64.0	3.5	3.02e+01	0	27	104	90701824	60	61235
2026-01-11 01:18:36.15	106.79	38.76	-37.3	-47.7	3.5	3.02e+01	0	27	104	90701824	50	16577
2026-01-11 01:18:40.19	105.32	39.67	-37.7	-48.1	3.5	3.02e+01	0	27	104	90701824	50	17464
2026-01-11 01:18:44.22	103.77	40.58	-47.3	-62.5	3.5	3.02e+01	0	27	104	90701824	60	51500
2026-01-11 01:18:48.26	102.12	41.49	-36.6	-46.9	3.5	3.02e+01	0	27	104	90701824	48	16942
2026-01-11 01:18:52.30	100.37	42.40	-43.9	-55.6	3.6	3.02e+01	0	27	104	90701824	60	23258
2026-01-11 01:18:56.34	98.52	43.29	-36.5	-46.9	3.5	3.02e+01	0	27	104	90701824	48	17032
2026-01-11 01:19:00.38	96.56	44.18	-47.4	-63.2	3.5	3.02e+01	0	27	104	90701824	60	55738
2026-01-11 01:19:04.42	94.49	45.05	-35.9	-46.2	3.5	3.02e+01	0	27	104	90701824	46	17540
2026-01-11 01:19:08.45	92.31	45.89	-35.4	-45.7	3.5	3.02e+01	0	27	104	90701824	50	13163
2026-01-11 01:19:12.49	90.00	46.70	-37.3	-47.6	3.5	3.02e+01	0	27	104	90701824	48	18481
2026-01-11 01:19:16.53	87.57	47.47	-36.2	-46.5	3.5	3.02e+01	0	27	104	90701824	50	14472
2026-01-11 01:19:20.56	85.03	48.20	-43.4	-54.9	3.5	3.02e+01	0	27	104	90701824	60	21301
2026-01-11 01:19:24.60	82.36	48.88	-37.3	-47.6	3.5	3.02e+01	0	27	104	90701824	46	20753
2026-01-11 01:19:28.64	79.57	49.50	-36.0	-46.3	3.3	3.02e+01	0	28	104	90701824	50	14165
2026-01-11 01:19:32.68	76.67	50.05	-36.1	-46.4	3.5	3.02e+01	0	28	104	90701824	46	18091
2026-01-11 01:19:36.71	73.68	50.53	-45.8	-58.9	3.5	3.02e+01	0	28	104	90701824	60	33954
2026-01-11 01:19:40.75	70.59	50.92	-36.1	-46.5	3.5	3.02e+01	0	28	104	90701824	48	16172
2026-01-11 01:19:44.79	67.43	51.23	-40.5	-51.2	3.3	3.02e+01	0	28	104	90701824	54	19705
2026-01-11 01:19:48.83	64.21	51.45	-37.0	-47.4	3.5	3.02e+01	0	28	104	90701824	48	18022
2026-01-11 01:19:52.86	60.96	51.58	-35.2	-45.5	3.5	3.02e+01	0	28	104	90701824	44	18273
2026-01-11 01:19:56.90	57.68	51.61	-39.0	-49.6	3.5	3.02e+01	0	28	104	90701824	56	14597
2026-01-11 01:20:00.94	54.41	51.54	-40.0	-50.6	3.5	3.02e+01	0	28	104	90701824	52	20587
2026-01-11 01:20:04.98	51.17	51.38	-37.0	-47.3	3.6	3.02e+01	0	28	104	90701824	44	22303
2026-01-11 01:20:09.02	47.97	51.12	-34.8	-45.1	3.5	3.02e+01	0	28	104	90701824	44	17325
2026-01-11 01:20:13.06	44.84	50.77	-46.4	-59.9	3.5	3.02e+01	0	28	104	90701824	60	37886
2026-01-11 01:20:17.10	41.79	50.34	-36.3	-46.5	3.5	3.02e+01	0	28	104	90701824	48	16147
2026-01-11 01:20:21.14	38.83	49.84	-48.0	-65.4	3.5	3.02e+01	0	28	104	90701824	60	71760
2026-01-11 01:20:25.17	35.99	49.26	-36.5	-46.6	3.5	3.02e+01	0	28	104	90701824	48	16502
2026-01-11 01:20:29.21	33.25	48.62	-36.5	-46.9	3.5	3.02e+01	0	28	104	90701824	48	16903
2026-01-11 01:20:33.25	30.63	47.92	-37.1	-47.4	3.5	3.02e+01	0	28	104	90701824	50	15975
2026-01-11 01:20:37.29	28.14	47.17	-38.7	-49.2	3.5	3.02e+01	0	28	104	90701824	54	15591
2026-01-11 01:20:41.33	25.76	46.38	-47.1	-62.1	3.5	3.02e+01	0	28	104	90701824	60	48732
2026-01-11 01:20:45.36	23.51	45.56	-34.8	-45.2	3.5	3.02e+01	0	28	104	90701824	44	17589
2026-01-11 01:20:49.40	21.37	44.71	-40.1	-50.8	3.5	3.02e+01	0	28	104	90701824	60	13374
2026-01-11 01:20:53.44	19.35	43.84	-35.3	-45.7	3.5	3.02e+01	0	28	104	90701824	46	16561
2026-01-11 01:20:57.47	17.45	42.95	-47.4	-63.3	3.5	3.02e+01	0	28	104	90701824	60	56525
2026-01-11 01:21:01.51	15.64	42.05	-35.3	-45.7	3.5	3.02e+01	0	28	104	90701824	46	16530
2026-01-11 01:21:05.55	13.94	41.15	-35.9	-46.1	3.5	3.02e+01	0	28	104	90701824	44	19493
2026-01-11 01:21:09.59	12.33	40.24	-38.6	-48.9	3.5	3.02e+01	0	28	104	90701824	52	16971
2026-01-11 01:21:13.62	10.82	39.33	-35.5	-45.5	3.5	3.02e+01	0	28	104	90701824	46	16279
2026-01-11 01:21:17.66	9.38	38.43	-43.2	-55.0	3.5	3.02e+01	0	28	104	90701824	60	21716
2026-01-11 01:21:21.70	8.03	37.53	-39.7	-50.7	3.6	3.02e+01	0	28	104	90701824	50	23513
2026-01-11 01:21:25.74	6.75	36.64	-38.3	-39.9	22.6	3.02e+01	55	28	0	91750400	46	8533
2026-01-11 01:21:29.78	5.54	35.76	-35.1	-36.4	28.5	3.02e+01	58	28	0	99614720	46	5666
2026-01-11 01:21:33.81	4.40	34.89	-35.1	-36.4	28.3	3.02e+01	58	28	0	106954752	44	6375
2026-01-11 01:21:37.85	3.32	34.04	-35.4	-36.7	28.4	3.02e+01	59	28	0	114819072	44	6593
2026-01-11 01:21:41.89	2.29	33.20	-33.9	-35.1	29.6	3.02e+01	58	28	0	122159104	42	6179
2026-01-11 01:21:45.93	1.32	32.37	-33.8	-35.0	29.7	3.02e+01	59	28	0	130023424	42	6127
2026-01-11 01:21:49.96	0.40	31.56	-33.6	-34.8	29.9	3.02e+01	60	28	0	137363456	42	5967
2026-01-11 01:21:54.00	359.52	30.77	-33.7	-34.9	29.7	3.02e+01	58	29	0	144703488	42	5995
2026-01-11 01:21:58.04	358.69	29.99	-33.5	-34.7	29.9	3.02e+01	62	28	0	152567808	42	5863
2026-01-11 01:22:02.08	357.89	29.22	-33.4	-34.6	30.1	3.02e+01	56	28	0	159907840	42	5804
2026-01-11 01:22:06.11	357.14	28.48	-33.1	-34.3	30.3	3.02e+01	62	29	0	167772160	42	5604
2026-01-11 01:22:10.15	356.42	27.75	-33.7	-34.9	29.7	3.02e+01	59	29	0	175112192	42	6037
2026-01-11 01:22:14.19	355.74	27.03	-33.7	-34.9	29.7	3.02e+01	57	29	0	182976512	42	6044
2026-01-11 01:22:18.23	355.09	26.33	-33.8	-35.0	29.7	3.02e+01	48	29	0	190316544	42	6095
2026-01-11 01:22:22.27	354.46	25.65	-33.7	-34.9	29.7	3.02e+01	45	29	0	198180864	42	6011
2026-01-11 01:22:26.30	353.87	24.98	-33.9	-35.1	29.5	3.02e+01	60	28	0	205520896	42	6191
2026-01-11 01:22:30.34	353.30	24.32	-34.1	-35.3	29.3	3.02e+01	56	29	0	212860928	42	6313
2026-01-11 01:22:34.38	352.76	23.68	-33.8	-35.0	29.6	3.02e+01	60	29	0	220725248	42	6071
2026-01-11 01:22:38.42	352.23	23.06	-33.9	-35.1	29.5	3.02e+01	45	29	0	228065280	42	6197
2026-01-11 01:22:42.46	351.73	22.44	-34.2	-35.4	29.3	3.02e+01	58	29	0	235929600	42	6387
2026-01-11 01:22:46.50	351.25	21.84	-34.2	-35.5	29.1	3.02e+01	51	29	0	243269632	42	6428
2026-01-11 01:22:50.54	350.79	21.26	-34.0	-35.2	29.4	3.02e+01	58	29	0	251133952	42	6244
2026-01-11 01:22:54.58	350.35	20.69	-33.9	-35.1	29.4	3.02e+01	51	29	0	258473984	42	6198
2026-01-11 01:22:58.61	349.93	20.13	-33.9	-35.1	29.5	3.02e+01	61	29	0	266338304	42	6170
2026-01-11 01:23:02.65	349.52	19.58	-33.8	-35.0	29.5	3.02e+01	46	29	0	273678336	42	6103
2026-01-11 01:23:06.69	349.13	19.04	-34.0	-35.2	29.4	3.02e+01	59	29	0	281018368	42	6261
2026-01-11 01:23:10.72	348.75	18.51	-33.9	-35.2	29.4	3.02e+01	47	29	0	288882688	42	6208
2026-01-11 01:23:14.76	348.39	18.00	-33.9	-35.2	29.4	3.02e+01	59	29	0	296222720	42	6216
2026-01-11 01:23:18.80	348.04	17.49	-33.8	-35.0	29.4	3.02e+01	45	29	0	304087040	42	6122
2026-01-11 01:23:22.84	347.70	17.00	-33.8	-35.0	29.5	3.02e+01	59	29	0	311427072	42	6076
2026-01-11 01:23:26.87	347.38	16.51	-34.1	-35.3	29.2	3.02e+01	45	29	0	319291392	42	6336
2026-01-11 01:23:30.91	347.06	16.04	-33.8	-35.0	29.4	3.02e+01	63	29	0	326631424	42	6121
2026-01-11 01:23:34.95	346.76	15.57	-33.9	-35.1	29.3	3.02e+01	57	29	0	334495744	42	6175
2026-01-11 01:23:38.99	346.47	15.12	-34.1	-35.3	29.1	3.02e+01	57	29	0	341835776	42	6348
2026-01-11 01:23:43.03	346.18	14.67	-34.1	-35.3	29.0	3.02e+01	60	29	0	349175808	42	6343
2026-01-11 01:23:47.07	345.91	14.23	-34.0	-35.2	29.1	3.02e+01	58	29	0	357040128	42	6269
2026-01-11 01:23:51.10	345.64	13.80	-33.9	-35.1	29.3	3.02e+01	62	29	0	364380160	42	6152
2026-01-11 01:23:55.14	345.39	13.37	-34.0	-35.2	29.2	3.02e+01	59	29	0	372244480	42	6227
2026-01-11 01:23:59.18	345.14	12.95	-34.0	-35.3	29.1	3.02e+01	58	29	0	379584512	42	6285
2026-01-11 01:24:03.22	344.90	12.54	-34.0	-35.2	29.1	3.02e+01	61	29	0	387448832	42	6214
2026-01-11 01:24:07.25	344.67	12.14	-34.2	-35.5	29.0	3.02e+01	58	29	0	394788864	42	6437
2026-01-11 01:24:11.29	344.44	11.75	-34.2	-35.4	29.0	3.02e+01	59	29	0	402653184	42	6384
2026-01-11 01:24:15.33	344.22	11.36	-34.7	-36.0	28.5	3.02e+01	56	29	0	409993216	42	6806
2026-01-11 01:24:19.37	344.01	10.97	-34.6	-35.9	28.6	3.02e+01	61	29	0	417333248	42	6727
2026-01-11 01:24:23.40	343.80	10.60	-34.6	-35.8	28.5	3.02e+01	58	29	0	425197568	42	6720
2026-01-11 01:24:27.44	343.60	10.23	-34.6	-35.8	28.5	3.02e+01	58	29	0	432537600	42	6699
2026-01-11 01:24:31.48	343.41	9.86	-34.7	-35.9	28.4	3.02e+01	60	29	0	440401920	42	6785
2026-01-11 01:24:35.51	343.22	9.50	-34.7	-36.0	28.3	3.02e+01	55	29	0	447741952	42	6835
2026-01-11 01:24:39.55	343.04	9.15	-34.8	-36.1	28.2	3.02e+01	57	29	0	455606272	44	6152
2026-01-11 01:24:43.59	342.86	8.80	-34.9	-36.2	28.0	3.02e+01	47	29	0	462946304	44	6252
2026-01-11 01:24:47.62	342.69	8.46	-35.0	-36.2	28.1	3.02e+01	63	29	0	470286336	44	6262
2026-01-11 01:24:51.66	342.52	8.12	-35.2	-36.5	27.7	3.02e+01	45	29	0	478150656	44	6489
2026-01-11 01:24:55.70	342.35	7.78	-35.1	-36.4	27.8	3.02e+01	59	29	0	485490688	44	6393
2026-01-11 01:24:59.74	342.19	7.45	-35.3	-36.6	27.5	3.02e+01	57	29	0	493355008	44	6534
2026-01-11 01:25:03.78	342.04	7.13	-35.1	-36.4	27.7	3.02e+01	52	29	0	500695040	44	6393
2026-01-11 01:25:07.81	341.89	6.81	-35.2	-36.5	27.5	3.02e+01	44	29	0	508559360	44	6483
2026-01-11 01:25:11.85	341.74	6.49	-35.3	-36.6	27.4	3.02e+01	63	29	0	515899392	44	6520
2026-01-11 01:25:15.89	341.60	6.18	-35.8	-37.1	26.7	3.02e+01	55	29	0	523763712	44	6955
2026-01-11 01:25:19.92	341.46	5.87	-36.5	-38.0	25.7	3.02e+01	58	29	0	531103744	46	6806
2026-01-11 01:25:23.96	341.32	5.57	-37.6	-39.3	24.1	3.02e+01	47	29	0	538443776	48	7082
2026-01-11 01:25:27.99	341.19	5.26	-39.1	-41.2	21.8	3.02e+01	58	29	0	546308096	52	6997
2026-01-11 01:25:32.03	341.06	4.97	-40.6	-43.6	18.6	3.02e+01	48	29	0	553648128	54	8240
2026-01-11 01:25:36.07	340.93	4.67	-42.2	-46.9	14.7	3.02e+01	56	29	0	561512448	58	9600
2026-01-11 01:25:40.10	340.81	4.38	-43.2	-50.8	10.0	3.02e+01	46	29	0	568852480	60	13290
2026-01-11 01:25:44.14	340.69	4.10	-43.5	-55.7	5.4	3.02e+01	0	29	104	575668224	60	23545
2026-01-11 01:25:48.18	340.57	3.81	-43.6	-58.7	3.9	3.02e+01	0	30	104	575668224	60	33294
2026-01-11 01:25:52.22	340.46	3.53	-43.7	-59.4	3.8	3.02e+01	0	30	104	575668224	60	35817
2026-01-11 01:25:56.26	340.35	3.25	-43.6	-60.3	3.5	3.02e+01	0	30	104	575668224	60	39870
2026-01-11 01:26:00.30	340.24	2.98	-45.7	-63.6	3.5	3.02e+01	0	30	104	575668224	60	58086
2026-01-11 01:26:04.34	340.13	2.71	-48.2	-66.0	3.5	3.02e+01	0	30	104	575668224	60	76675
2026-01-11 01:26:08.38	340.03	2.44	-48.0	-66.1	3.5	3.02e+01	0	30	104	575668224	60	78080
2026-01-11 01:26:12.41	339.92	2.17	-48.1	-66.1	3.5	3.02e+01	0	30	104	575668224	60	77880
2026-01-11 01:26:16.45	339.83	1.91	-48.2	-66.1	3.5	3.02e+01	0	30	104	575668224	60	77314
2026-01-11 01:26:20.48	339.73	1.65	-48.1	-66.0	3.5	3.02e+01	0	30	104	575668224	60	77204
2026-01-11 01:26:24.52	339.63	1.39	-48.2	-66.1	3.5	3.02e+01	0	30	104	575668224	60	77689
2026-01-11 01:26:28.55	339.54	1.13	-48.2	-66.1	3.5	3.02e+01	0	30	104	575668224	60	77644
2026-01-11 01:26:32.59	339.45	0.88	-48.1	-66.0	3.5	3.02e+01	0	30	104	575668224	60	76489
2026-01-11 01:26:36.63	339.36	0.63	-48.2	-66.1	3.5	3.02e+01	0	30	104	575668224	60	77846
2026-01-11 01:26:40.67	339.27	0.38	-48.2	-66.1	3.5	3.02e+01	0	30	104	575668224	60	77553
2026-01-11 01:26:44.70	339.19	0.13	-48.2	-66.1	3.5	3.02e+01	0	30	104	575668224	60	77737

#Closed at: 2026-01-11 01:26:47
#Recorded file [575 MB]: D:/lorett/data/35029_260111_131309.dat