passes_logs/2026/01/11/R4.6S_Anadyr/R4.6S_Anadyr__20260111_125938_NOAA_20_JPSS-1_rec.log

#Pass ID: 20260111_125938_NOAA 20 (JPSS-1)
#Satellite: NOAA 20 (JPSS-1)
#Configuration: NOAA 20
#almurnet v.1.7.20251203
#Start time: 2026-01-11 12:59:41

#Version: 2.2.20231116
#Station: R4.6S_Anadyr
#Location: 177.4865 lon 64.73178 lat
#TLE: 1 43013U 17073A   26010.88944318  .00000078  00000+0  57801-4 0  9992
#TLE: 2 43013  98.7631 311.8723 0001655  45.1140 315.0170 14.19535117422152

#Time	Az	El	Level	Level2	SNR	BER	BlckErr	Temp	State	Recorded	gain1	gain2
2026-01-11 12:59:41.02	18.87	0.16	-48.2	-62.0	3.3	1.54e+00	0	26	0	0	60	45555
2026-01-11 12:59:45.06	19.09	0.38	-48.2	-63.4	3.6	1.51e+00	0	26	104	0	60	53249
2026-01-11 12:59:49.09	19.32	0.60	-47.9	-63.1	3.6	1.51e+00	0	26	104	0	60	51697
2026-01-11 12:59:53.13	19.56	0.82	-46.9	-62.2	3.6	1.51e+00	0	26	104	0	60	46470
2026-01-11 12:59:57.17	19.79	1.04	-46.5	-61.6	3.6	1.51e+00	0	26	104	0	60	43651
2026-01-11 13:00:01.21	20.04	1.27	-46.5	-61.7	3.6	1.51e+00	0	26	104	0	60	43920
2026-01-11 13:00:05.26	20.28	1.49	-46.5	-61.6	3.6	1.51e+00	0	26	104	0	60	43561
2026-01-11 13:00:09.29	20.53	1.72	-46.4	-61.5	3.6	1.51e+00	0	26	104	0	60	42970
2026-01-11 13:00:13.33	20.78	1.94	-46.4	-61.5	3.6	1.51e+00	0	26	104	0	60	43194
2026-01-11 13:00:17.37	21.03	2.17	-46.4	-61.5	3.6	1.51e+00	0	26	104	0	60	42730
2026-01-11 13:00:21.41	21.29	2.40	-46.4	-60.5	3.6	1.51e+00	0	26	104	0	60	38206
2026-01-11 13:00:25.45	21.55	2.64	-45.0	-50.3	9.8	7.91e-02	78	26	0	1048576	60	11877
2026-01-11 13:00:29.49	21.82	2.87	-40.9	-42.7	18.0	0.00e+00	0	26	0	8388608	56	6223
2026-01-11 13:00:33.53	22.09	3.10	-41.1	-43.0	17.5	0.00e+00	2	26	0	15728640	54	7212
2026-01-11 13:00:37.57	22.36	3.34	-41.3	-43.3	17.3	0.00e+00	5	26	0	24117248	56	6676
2026-01-11 13:00:41.60	22.64	3.58	-44.3	-48.2	13.2	7.18e-04	0	26	0	28311552	60	9287
2026-01-11 13:00:45.64	22.92	3.82	-41.5	-43.4	17.9	0.00e+00	0	26	0	36700160	56	6748
2026-01-11 13:00:49.68	23.20	4.06	-40.2	-41.8	19.1	0.00e+00	92	26	0	44040192	54	6281
2026-01-11 13:00:53.72	23.50	4.30	-39.3	-40.7	20.0	0.00e+00	5	26	0	51380224	52	6192
2026-01-11 13:00:57.75	23.79	4.54	-39.4	-40.8	20.1	0.00e+00	6	26	0	58720256	52	6270
2026-01-11 13:01:01.79	24.09	4.79	-39.3	-40.6	20.3	0.00e+00	81	26	0	67108864	52	6117
2026-01-11 13:01:05.83	24.39	5.04	-39.3	-40.7	20.2	0.00e+00	92	26	0	74448896	52	6179
2026-01-11 13:01:09.87	24.70	5.29	-39.3	-40.6	20.4	0.00e+00	0	26	0	81788928	52	6170
2026-01-11 13:01:13.91	25.02	5.54	-39.5	-40.8	20.2	0.00e+00	8	26	0	89128960	52	6272
2026-01-11 13:01:17.94	25.34	5.79	-39.5	-40.8	20.3	0.00e+00	6	26	0	96468992	52	6312
2026-01-11 13:01:21.99	25.66	6.05	-39.2	-40.5	20.6	0.00e+00	92	26	0	104857600	52	6064
2026-01-11 13:01:26.02	25.99	6.30	-39.0	-40.3	20.8	0.00e+00	76	26	0	112197632	52	5905
2026-01-11 13:01:30.06	26.33	6.56	-38.8	-40.0	21.0	0.00e+00	0	26	0	119537664	52	5756
2026-01-11 13:01:34.10	26.67	6.82	-38.7	-39.8	21.2	0.00e+00	0	26	0	126877696	50	6315
2026-01-11 13:01:38.14	27.02	7.08	-38.6	-39.7	21.4	0.00e+00	92	26	0	135266304	50	6223
2026-01-11 13:01:42.17	27.37	7.34	-38.5	-39.6	21.5	0.00e+00	0	26	0	142606336	50	6160
2026-01-11 13:01:46.22	27.73	7.61	-38.4	-39.6	21.6	0.00e+00	1	27	0	149946368	50	6110
2026-01-11 13:01:50.25	28.09	7.88	-38.3	-39.3	21.7	0.00e+00	77	27	0	157286400	50	5961
2026-01-11 13:01:54.29	28.47	8.15	-38.4	-39.5	21.7	0.00e+00	92	26	0	164626432	50	6083
2026-01-11 13:01:58.33	28.84	8.42	-38.5	-39.6	21.6	0.00e+00	0	27	0	173015040	50	6172
2026-01-11 13:02:02.37	29.23	8.69	-38.4	-39.6	21.7	0.00e+00	2	27	0	180355072	50	6104
2026-01-11 13:02:06.41	29.62	8.97	-38.6	-39.7	21.5	0.00e+00	0	27	0	187695104	50	6222
2026-01-11 13:02:10.45	30.02	9.24	-38.1	-39.2	22.0	0.00e+00	43	26	0	195035136	50	5863
2026-01-11 13:02:14.49	30.43	9.52	-38.0	-39.0	22.2	0.00e+00	0	27	0	203423744	50	5756
2026-01-11 13:02:18.53	30.84	9.80	-37.8	-38.8	22.5	0.00e+00	0	27	0	210763776	50	5601
2026-01-11 13:02:22.57	31.26	10.08	-37.9	-38.9	22.4	0.00e+00	92	27	0	218103808	48	6336
2026-01-11 13:02:26.60	31.69	10.37	-37.6	-38.6	22.7	0.00e+00	0	26	0	225443840	48	6153
2026-01-11 13:02:30.64	32.13	10.65	-37.7	-38.7	22.5	0.00e+00	76	27	0	232783872	48	6215
2026-01-11 13:02:34.68	32.57	10.94	-37.6	-38.6	22.6	0.00e+00	0	27	0	241172480	48	6164
2026-01-11 13:02:38.72	33.03	11.23	-37.8	-38.8	22.5	0.00e+00	90	27	0	248512512	48	6260
2026-01-11 13:02:42.76	33.49	11.53	-38.2	-39.2	22.2	0.00e+00	0	27	0	255852544	48	6582
2026-01-11 13:02:46.80	33.96	11.82	-38.0	-39.0	22.4	0.00e+00	81	27	0	263192576	48	6440
2026-01-11 13:02:50.83	34.44	12.11	-37.6	-38.6	22.8	0.00e+00	0	27	0	270532608	48	6117
2026-01-11 13:02:54.87	34.94	12.41	-37.7	-38.7	22.6	0.00e+00	92	27	0	278921216	48	6211
2026-01-11 13:02:58.91	35.44	12.71	-37.5	-38.5	22.9	0.00e+00	0	27	0	286261248	48	6075
2026-01-11 13:03:02.95	35.95	13.01	-37.5	-38.5	22.8	0.00e+00	7	27	0	293601280	48	6077
2026-01-11 13:03:06.98	36.46	13.31	-37.4	-38.3	23.0	0.00e+00	7	27	0	300941312	48	5964
2026-01-11 13:03:11.02	37.00	13.62	-37.4	-38.4	23.0	0.00e+00	92	27	0	309329920	48	5999
2026-01-11 13:03:15.06	37.54	13.93	-37.5	-38.5	23.0	0.00e+00	73	27	0	316669952	48	6048
2026-01-11 13:03:19.10	38.09	14.23	-37.4	-38.4	23.1	0.00e+00	0	27	0	324009984	48	5967
2026-01-11 13:03:23.14	38.65	14.54	-37.2	-38.1	23.3	0.00e+00	0	27	0	331350016	48	5800
2026-01-11 13:03:27.18	39.23	14.85	-37.2	-38.1	23.2	0.00e+00	92	27	0	338690048	48	5827
2026-01-11 13:03:31.21	39.81	15.16	-37.0	-37.9	22.3	0.00e+00	4	27	0	347078656	48	5640
2026-01-11 13:03:35.25	40.41	15.48	-37.0	-37.9	23.5	0.00e+00	74	27	0	354418688	48	5667
2026-01-11 13:03:39.29	41.02	15.79	-36.9	-37.9	23.6	0.00e+00	0	27	0	361758720	48	5634
2026-01-11 13:03:43.33	41.65	16.11	-36.7	-37.5	23.9	0.00e+00	70	27	0	369098752	46	6101
2026-01-11 13:03:47.37	42.28	16.42	-36.4	-37.3	24.1	0.00e+00	0	27	0	377487360	46	5919
2026-01-11 13:03:51.41	42.93	16.74	-36.6	-37.4	24.0	0.00e+00	78	27	0	384827392	46	6024
2026-01-11 13:03:55.45	43.59	17.06	-36.4	-37.3	24.1	0.00e+00	90	27	0	392167424	46	5926
2026-01-11 13:03:59.49	44.27	17.38	-36.6	-37.5	23.9	0.00e+00	38	27	0	399507456	46	6084
2026-01-11 13:04:03.52	44.96	17.69	-37.0	-37.9	23.6	0.00e+00	0	27	0	406847488	46	6355
2026-01-11 13:04:07.56	45.66	18.01	-37.0	-37.9	23.5	0.00e+00	2	27	0	415236096	46	6375
2026-01-11 13:04:11.60	46.38	18.33	-37.0	-37.9	23.5	0.00e+00	92	28	0	422576128	46	6351
2026-01-11 13:04:15.64	47.12	18.65	-36.6	-37.5	24.0	0.00e+00	74	28	0	429916160	46	6070
2026-01-11 13:04:19.68	47.87	18.97	-36.3	-37.2	24.2	0.00e+00	0	28	0	437256192	46	5864
2026-01-11 13:04:23.71	48.63	19.28	-36.0	-36.9	24.5	0.00e+00	5	28	0	445644800	46	5640
2026-01-11 13:04:27.75	49.41	19.60	-36.0	-36.8	24.6	0.00e+00	92	28	0	452984832	46	5596
2026-01-11 13:04:31.79	50.21	19.91	-35.3	-36.1	25.1	0.00e+00	77	28	0	460324864	44	5801
2026-01-11 13:04:35.83	51.02	20.23	-35.5	-36.3	25.0	0.00e+00	80	28	0	467664896	44	5938
2026-01-11 13:04:39.87	51.85	20.54	-35.3	-36.1	25.2	0.00e+00	0	28	0	475004928	44	5775
2026-01-11 13:04:43.91	52.69	20.85	-35.5	-36.3	24.9	0.00e+00	90	28	0	483393536	44	5953
2026-01-11 13:04:47.95	53.55	21.16	-35.8	-36.6	24.8	0.00e+00	7	28	0	490733568	44	6115
2026-01-11 13:04:51.99	54.43	21.46	-35.5	-36.3	25.0	0.00e+00	79	28	0	498073600	44	5915
2026-01-11 13:04:56.03	55.33	21.76	-35.7	-36.5	24.8	0.00e+00	73	28	0	505413632	44	6077
2026-01-11 13:05:00.06	56.24	22.06	-35.9	-36.8	24.6	0.00e+00	92	28	0	513802240	44	6277
2026-01-11 13:05:04.10	57.17	22.35	-36.3	-37.3	24.2	0.00e+00	0	28	0	521142272	44	6621
2026-01-11 13:05:08.14	58.11	22.64	-36.7	-37.6	23.9	0.00e+00	0	28	0	528482304	44	6884
2026-01-11 13:05:12.18	59.08	22.92	-36.2	-37.0	24.3	0.00e+00	0	28	0	535822336	44	6444
2026-01-11 13:05:16.21	60.06	23.20	-36.3	-37.2	24.2	0.00e+00	92	28	0	543162368	44	6588
2026-01-11 13:05:20.25	61.06	23.48	-36.3	-37.2	24.3	0.00e+00	0	28	0	551550976	44	6553
2026-01-11 13:05:24.29	62.07	23.74	-36.8	-37.7	23.8	0.00e+00	0	28	0	558891008	46	6227
2026-01-11 13:05:28.33	63.10	24.00	-37.5	-38.4	23.2	0.00e+00	8	28	0	566231040	46	6761
2026-01-11 13:05:32.36	64.15	24.26	-37.6	-38.6	23.1	0.00e+00	91	28	0	573571072	48	6143
2026-01-11 13:05:36.40	65.22	24.50	-37.9	-38.9	22.8	0.00e+00	9	28	0	581959680	48	6337
2026-01-11 13:05:40.44	66.30	24.74	-38.6	-39.6	22.1	0.00e+00	0	28	0	589299712	48	6906
2026-01-11 13:05:44.48	67.40	24.97	-38.5	-39.6	22.2	0.00e+00	91	28	0	596639744	48	6896
2026-01-11 13:05:48.52	68.51	25.19	-38.5	-39.6	22.2	0.00e+00	83	28	0	603979776	48	6858
2026-01-11 13:05:52.56	69.64	25.40	-40.0	-41.3	20.6	0.00e+00	2	28	0	611319808	52	6681
2026-01-11 13:05:56.60	70.78	25.60	-39.5	-40.8	21.2	0.00e+00	8	28	0	619708416	52	6248
2026-01-11 13:06:00.64	71.94	25.79	-38.9	-39.9	21.9	0.00e+00	92	28	0	627048448	52	5688
2026-01-11 13:06:04.68	73.11	25.97	-39.4	-40.6	21.3	0.00e+00	73	28	0	634388480	52	6111
2026-01-11 13:06:08.72	74.29	26.14	-39.1	-40.3	21.6	0.00e+00	0	28	0	641728512	52	5915
2026-01-11 13:06:12.76	75.49	26.29	-38.8	-39.9	21.7	0.00e+00	7	28	0	650117120	52	5692
2026-01-11 13:06:16.79	76.69	26.43	-38.6	-39.6	22.2	0.00e+00	91	28	0	657457152	50	6144
2026-01-11 13:06:20.83	77.91	26.56	-37.7	-38.7	23.0	0.00e+00	1	28	0	664797184	48	6221
2026-01-11 13:06:24.87	79.13	26.68	-38.4	-39.4	22.3	0.00e+00	0	29	0	672137216	48	6754
2026-01-11 13:06:28.91	80.37	26.79	-38.6	-39.6	22.3	0.00e+00	0	28	0	679477248	48	6917
2026-01-11 13:06:32.94	81.61	26.88	-38.7	-39.8	22.1	0.00e+00	90	28	0	687865856	50	6303
2026-01-11 13:06:36.98	82.86	26.95	-38.1	-39.1	22.6	0.00e+00	72	29	0	695205888	50	5775
2026-01-11 13:06:41.02	84.11	27.01	-37.7	-38.7	23.1	0.00e+00	72	29	0	702545920	48	6176
2026-01-11 13:06:45.07	85.37	27.06	-37.6	-38.6	23.1	0.00e+00	0	29	0	709885952	48	6112
2026-01-11 13:06:49.11	86.63	27.10	-37.7	-38.6	23.0	0.00e+00	92	29	0	718274560	48	6156
2026-01-11 13:06:53.15	87.90	27.11	-36.7	-37.6	23.9	0.00e+00	4	29	0	725614592	46	6126
2026-01-11 13:06:57.19	89.16	27.12	-37.5	-38.4	23.2	0.00e+00	7	29	0	732954624	46	6767
2026-01-11 13:07:01.22	90.42	27.11	-37.4	-38.3	22.7	0.00e+00	0	29	0	740294656	46	6680
2026-01-11 13:07:05.26	91.69	27.08	-37.7	-38.7	22.9	0.00e+00	92	29	0	747634688	46	6969
2026-01-11 13:07:09.30	92.95	27.04	-38.4	-39.5	22.3	0.00e+00	0	29	0	756023296	48	6798
2026-01-11 13:07:13.33	94.20	26.99	-37.8	-38.8	22.8	0.00e+00	0	29	0	763363328	48	6311
2026-01-11 13:07:17.37	95.45	26.92	-37.5	-38.5	23.2	0.00e+00	90	29	0	770703360	48	6059
2026-01-11 13:07:21.41	96.70	26.84	-38.0	-38.9	22.8	0.00e+00	59	29	0	778043392	48	6388
2026-01-11 13:07:25.44	97.94	26.74	-37.5	-38.4	23.2	0.00e+00	0	29	0	786432000	48	6032
2026-01-11 13:07:29.48	99.17	26.63	-37.5	-38.5	23.1	0.00e+00	73	29	0	793772032	48	6065
2026-01-11 13:07:33.52	100.40	26.51	-37.5	-38.4	23.3	0.00e+00	92	29	0	801112064	48	6007
2026-01-11 13:07:37.56	101.61	26.37	-37.1	-38.0	23.6	0.00e+00	7	29	0	808452096	48	5761
2026-01-11 13:07:41.59	102.81	26.22	-36.7	-37.6	24.0	0.00e+00	8	29	0	815792128	46	6136
2026-01-11 13:07:45.63	104.00	26.06	-36.3	-37.2	24.3	0.00e+00	75	29	0	824180736	46	5864
2026-01-11 13:07:49.67	105.18	25.89	-36.0	-36.9	24.6	0.00e+00	92	29	0	831520768	46	5659
2026-01-11 13:07:53.71	106.35	25.70	-36.3	-37.2	24.3	0.00e+00	4	29	0	838860800	46	5884
2026-01-11 13:07:57.76	107.51	25.51	-35.8	-36.6	24.8	0.00e+00	7	29	0	846200832	46	5484
2026-01-11 13:08:01.79	108.64	25.30	-36.7	-37.6	24.0	0.00e+00	6	29	0	854589440	44	6865
2026-01-11 13:08:05.83	109.77	25.09	-36.1	-36.9	24.4	0.00e+00	91	29	0	861929472	44	6390
2026-01-11 13:08:09.88	110.88	24.86	-36.1	-36.9	24.4	0.00e+00	0	29	0	869269504	44	6376
2026-01-11 13:08:13.91	111.97	24.63	-36.7	-37.6	23.9	0.00e+00	0	29	0	876609536	44	6875
2026-01-11 13:08:17.95	113.05	24.38	-36.9	-37.8	23.7	0.00e+00	0	29	0	883949568	46	6276
2026-01-11 13:08:21.99	114.11	24.13	-36.5	-37.4	24.1	0.00e+00	92	29	0	892338176	46	5979
2026-01-11 13:08:26.03	115.15	23.88	-36.8	-37.7	23.9	0.00e+00	2	29	0	899678208	46	6225
2026-01-11 13:08:30.07	116.18	23.61	-37.1	-38.0	23.5	0.00e+00	0	29	0	907018240	46	6436
2026-01-11 13:08:34.11	117.19	23.34	-36.4	-37.3	24.2	0.00e+00	5	29	0	914358272	46	5945
2026-01-11 13:08:38.15	118.19	23.06	-36.5	-37.6	23.9	0.00e+00	91	29	0	922746880	46	6110
2026-01-11 13:08:42.19	119.16	22.78	-36.6	-37.5	23.9	0.00e+00	78	29	0	930086912	46	6079
2026-01-11 13:08:46.22	120.12	22.49	-36.8	-37.6	23.9	0.00e+00	7	29	0	937426944	46	6170
2026-01-11 13:08:50.26	121.06	22.20	-36.9	-37.8	23.6	0.00e+00	92	29	0	944766976	46	6270
2026-01-11 13:08:54.30	121.99	21.90	-36.7	-37.6	23.7	0.00e+00	75	29	0	952107008	46	6157
2026-01-11 13:08:58.34	122.90	21.60	-37.4	-38.4	22.9	0.00e+00	0	30	0	960495616	46	6704
2026-01-11 13:09:02.38	123.79	21.30	-38.1	-39.3	22.3	0.00e+00	8	29	0	967835648	48	6691
2026-01-11 13:09:06.41	124.66	20.99	-37.5	-38.5	23.0	0.00e+00	90	29	0	975175680	48	6089
2026-01-11 13:09:10.45	125.51	20.68	-38.1	-39.1	22.5	0.00e+00	12	30	0	982515712	48	6484
2026-01-11 13:09:14.49	126.35	20.37	-37.2	-38.1	23.4	0.00e+00	0	29	0	990904320	48	5775
2026-01-11 13:09:18.53	127.18	20.05	-37.7	-38.6	23.0	0.00e+00	0	29	0	998244352	48	6171
2026-01-11 13:09:22.57	127.98	19.74	-37.2	-38.1	23.4	0.00e+00	92	29	0	1005584384	48	5805
2026-01-11 13:09:26.60	128.77	19.42	-38.6	-39.7	22.0	0.00e+00	4	29	0	1012924416	48	6972
2026-01-11 13:09:30.64	129.55	19.10	-37.4	-38.3	23.1	0.00e+00	0	29	0	1020264448	48	5948
2026-01-11 13:09:34.68	130.31	18.78	-38.0	-39.1	22.5	0.00e+00	0	29	0	1028653056	48	6477
2026-01-11 13:09:38.72	131.05	18.46	-38.2	-39.3	22.3	0.00e+00	92	30	0	1035993088	48	6669
2026-01-11 13:09:42.76	131.78	18.14	-37.5	-38.5	23.1	0.00e+00	6	30	0	1043333120	48	6039
2026-01-11 13:09:46.80	132.50	17.82	-37.5	-38.5	23.0	0.00e+00	4	30	0	1050673152	48	6077
2026-01-11 13:09:50.84	133.20	17.50	-37.0	-37.9	23.5	0.00e+00	5	30	0	1059061760	48	5693
2026-01-11 13:09:54.88	133.88	17.18	-37.6	-38.6	22.9	0.00e+00	92	30	0	1066401792	48	6109
2026-01-11 13:09:58.91	134.55	16.86	-37.1	-38.0	23.1	0.00e+00	0	30	0	1073741824	48	5723
2026-01-11 13:10:02.95	135.21	16.54	-36.9	-37.8	23.6	0.00e+00	5	30	0	1081081856	48	5604
2026-01-11 13:10:06.99	135.86	16.22	-37.0	-37.9	23.4	0.00e+00	0	30	0	1088421888	48	5692
2026-01-11 13:10:11.03	136.49	15.90	-37.0	-38.0	23.5	0.00e+00	92	30	0	1096810496	48	5711
2026-01-11 13:10:15.07	137.11	15.58	-36.8	-37.7	23.7	0.00e+00	77	30	0	1104150528	46	6202
2026-01-11 13:10:19.10	137.71	15.27	-37.0	-37.9	23.5	0.00e+00	0	30	0	1111490560	46	6365
2026-01-11 13:10:23.14	138.30	14.95	-37.5	-38.5	23.0	0.00e+00	78	30	0	1118830592	46	6771
2026-01-11 13:10:27.18	138.89	14.64	-37.4	-38.4	23.0	0.00e+00	92	30	0	1126170624	46	6740
2026-01-11 13:10:31.22	139.46	14.33	-37.2	-38.1	23.3	0.00e+00	79	30	0	1134559232	46	6502
2026-01-11 13:10:35.26	140.02	14.02	-37.4	-38.4	23.0	0.00e+00	0	30	0	1141899264	46	6736
2026-01-11 13:10:39.29	140.56	13.71	-37.6	-38.6	22.6	0.00e+00	92	30	0	1149239296	46	6883
2026-01-11 13:10:43.33	141.10	13.40	-38.5	-39.6	21.5	0.00e+00	0	30	0	1156579328	48	6877
2026-01-11 13:10:47.37	141.63	13.09	-39.2	-40.6	20.5	0.00e+00	0	30	0	1164967936	50	6850
2026-01-11 13:10:51.41	142.14	12.79	-39.6	-40.9	20.2	0.00e+00	0	30	0	1172307968	50	7159
2026-01-11 13:10:55.45	142.65	12.49	-39.3	-40.6	20.5	0.00e+00	92	30	0	1179648000	50	6895
2026-01-11 13:10:59.49	143.14	12.19	-39.0	-40.3	20.9	0.00e+00	0	30	0	1186988032	50	6631
2026-01-11 13:11:03.51	143.63	11.89	-39.2	-40.5	20.7	0.00e+00	2	30	0	1194328064	50	6797
2026-01-11 13:11:07.55	144.10	11.59	-39.1	-40.4	20.7	0.00e+00	0	30	0	1202716672	50	6713
2026-01-11 13:11:11.58	144.57	11.30	-39.1	-40.3	20.9	0.00e+00	92	30	0	1210056704	50	6660
2026-01-11 13:11:15.62	145.03	11.00	-38.8	-39.9	21.3	0.00e+00	0	30	0	1217396736	50	6368
2026-01-11 13:11:19.66	145.48	10.71	-38.8	-40.0	21.3	0.00e+00	82	30	0	1224736768	50	6414
2026-01-11 13:11:23.70	145.92	10.42	-38.7	-39.9	21.3	0.00e+00	0	30	0	1233125376	50	6356
2026-01-11 13:11:27.74	146.35	10.14	-38.5	-39.6	21.7	0.00e+00	92	30	0	1240465408	50	6135
2026-01-11 13:11:31.77	146.78	9.85	-38.0	-39.0	22.1	0.00e+00	0	30	0	1247805440	50	5729
2026-01-11 13:11:35.80	147.19	9.57	-38.0	-39.0	22.1	0.00e+00	0	30	0	1255145472	48	6460
2026-01-11 13:11:39.84	147.60	9.29	-38.3	-39.4	21.8	0.00e+00	70	30	0	1262485504	48	6737
2026-01-11 13:11:43.88	148.00	9.01	-38.5	-39.6	21.6	0.00e+00	91	30	0	1270874112	48	6876
2026-01-11 13:11:47.92	148.40	8.73	-38.7	-39.9	21.4	0.00e+00	7	30	0	1278214144	48	7101
2026-01-11 13:11:51.96	148.79	8.45	-38.2	-39.2	21.9	0.00e+00	0	30	0	1285554176	48	6612
2026-01-11 13:11:56.00	149.17	8.18	-38.2	-39.3	21.8	0.00e+00	86	30	0	1292894208	48	6639
2026-01-11 13:12:00.05	149.54	7.91	-38.3	-39.4	21.7	0.00e+00	92	30	0	1301282816	48	6756
2026-01-11 13:12:04.09	149.91	7.63	-38.6	-39.8	21.3	0.00e+00	0	30	0	1308622848	48	7022
2026-01-11 13:12:08.13	150.27	7.37	-38.6	-39.7	21.4	0.00e+00	2	30	0	1315962880	50	6234
2026-01-11 13:12:12.17	150.63	7.10	-38.3	-39.5	21.6	0.00e+00	77	30	0	1323302912	50	6046
2026-01-11 13:12:16.21	150.98	6.84	-38.1	-39.2	21.8	0.00e+00	92	30	0	1330642944	50	5866
2026-01-11 13:12:20.24	151.32	6.57	-38.2	-39.3	21.6	0.00e+00	0	30	0	1339031552	50	5958
2026-01-11 13:12:24.28	151.65	6.31	-38.5	-39.7	21.3	0.00e+00	0	30	0	1346371584	50	6195
2026-01-11 13:12:28.32	151.98	6.05	-39.0	-40.3	20.7	0.00e+00	92	30	0	1353711616	50	6632
2026-01-11 13:12:32.35	152.31	5.80	-39.4	-40.8	20.1	0.00e+00	88	30	0	1361051648	50	7022
2026-01-11 13:12:36.40	152.63	5.54	-39.6	-41.0	19.7	0.00e+00	81	30	0	1369440256	50	7243
2026-01-11 13:12:40.43	152.95	5.29	-40.2	-41.8	18.6	0.00e+00	81	30	0	1376780288	52	7088
2026-01-11 13:12:44.47	153.25	5.04	-40.6	-42.4	17.8	0.00e+00	90	30	0	1384120320	52	7542
2026-01-11 13:12:48.51	153.56	4.79	-41.2	-43.3	16.6	0.00e+00	31	30	0	1391460352	54	7466
2026-01-11 13:12:52.55	153.86	4.54	-41.8	-44.4	15.5	0.00e+00	0	30	0	1398800384	56	7533
2026-01-11 13:12:56.59	154.15	4.29	-42.5	-45.7	13.9	6.10e-06	81	30	0	1407188992	56	8791
2026-01-11 13:13:00.63	154.45	4.04	-42.7	-46.2	13.2	1.60e-05	92	30	0	1414529024	58	8289
2026-01-11 13:13:04.67	154.73	3.80	-42.8	-46.6	12.7	1.06e-04	81	30	0	1421869056	58	8694
2026-01-11 13:13:08.70	155.01	3.56	-42.9	-46.7	12.8	7.47e-05	0	30	0	1429209088	58	8734
2026-01-11 13:13:12.74	155.29	3.32	-42.6	-45.8	13.9	1.22e-05	0	30	0	1437597696	58	7886
2026-01-11 13:13:16.78	155.56	3.08	-42.3	-45.3	14.5	7.00e-07	90	30	0	1444937728	58	7491
2026-01-11 13:13:20.82	155.83	2.84	-47.3	-62.5	3.5	1.51e+00	0	30	104	1448083456	60	48150
2026-01-11 13:13:24.86	156.10	2.61	-48.1	-63.3	3.6	1.51e+00	0	30	104	1448083456	60	52662
2026-01-11 13:13:28.90	156.36	2.37	-48.1	-63.3	3.6	1.51e+00	0	30	104	1448083456	60	52730
2026-01-11 13:13:32.94	156.61	2.14	-48.1	-63.3	3.5	1.51e+00	0	30	104	1448083456	60	52737
2026-01-11 13:13:36.98	156.87	1.91	-48.1	-63.3	3.6	1.51e+00	0	30	104	1448083456	60	52812
2026-01-11 13:13:41.02	157.12	1.68	-48.1	-63.2	3.6	1.51e+00	0	30	104	1448083456	60	52516
2026-01-11 13:13:45.06	157.36	1.45	-48.2	-63.3	3.6	1.51e+00	0	30	104	1448083456	60	53034
2026-01-11 13:13:49.09	157.60	1.22	-48.0	-63.2	3.6	1.51e+00	0	30	104	1448083456	60	52297
2026-01-11 13:13:53.13	157.84	1.00	-48.1	-63.3	3.6	1.51e+00	0	30	104	1448083456	60	52549
2026-01-11 13:13:57.17	158.08	0.77	-48.0	-63.2	3.6	1.51e+00	0	30	104	1448083456	60	52008
2026-01-11 13:14:01.21	158.31	0.55	-48.0	-63.2	3.6	1.51e+00	0	30	104	1448083456	60	52143
2026-01-11 13:14:05.25	158.54	0.33	-48.1	-63.2	3.6	1.51e+00	0	30	104	1448083456	60	52541
2026-01-11 13:14:09.28	158.76	0.11	-48.0	-63.2	3.6	1.51e+00	0	30	104	1448083456	60	52016

#Closed at: 2026-01-11 13:14:11
#Recorded file [1448 MB]: D:/lorett/data/35029_260112_005941.dat