passes_logs/2026/01/11/R4.6S_Anadyr/R4.6S_Anadyr__20260111_141921_SUOMI_NPP_rec.log

#Pass ID: 20260111_141921_SUOMI NPP
#Satellite: SUOMI NPP
#Configuration: NPP
#almurnet v.1.7.20251203
#Start time: 2026-01-11 14:19:22

#Version: 2.2.20231116
#Station: R4.6S_Anadyr
#Location: 177.4865 lon 64.73178 lat
#TLE: 1 37849U 11061A   26010.94533966  .00000106  00000+0  71276-4 0  9997
#TLE: 2 37849  98.7807 313.0290 0002520  70.6146 289.5303 14.19524339736134

#Time	Az	El	Level	Level2	SNR	BER	BlckErr	Temp	State	Recorded	gain1	gain2
2026-01-11 14:19:22.63	19.72	0.08	-48.1	-60.6	3.5	1.52e+00	0	25	0	0	60	37655
2026-01-11 14:19:26.67	19.80	0.32	-48.1	-63.4	3.6	1.51e+00	0	26	104	0	60	53226
2026-01-11 14:19:30.71	19.87	0.56	-48.0	-63.3	3.6	1.51e+00	0	27	104	0	60	52803
2026-01-11 14:19:34.75	19.95	0.80	-47.7	-62.8	3.6	1.51e+00	0	27	104	0	60	50052
2026-01-11 14:19:38.78	20.03	1.05	-46.6	-61.8	3.6	1.51e+00	0	27	104	0	60	44505
2026-01-11 14:19:42.82	20.11	1.29	-46.6	-61.7	3.6	1.51e+00	0	27	104	0	60	43747
2026-01-11 14:19:46.86	20.19	1.54	-46.6	-61.7	3.6	1.51e+00	0	27	104	0	60	43935
2026-01-11 14:19:50.90	20.27	1.80	-46.6	-61.7	3.6	1.51e+00	0	27	104	0	60	44135
2026-01-11 14:19:54.94	20.35	2.05	-46.5	-61.7	3.6	1.51e+00	0	27	104	0	60	43949
2026-01-11 14:19:58.97	20.43	2.31	-46.5	-59.9	3.6	1.51e+00	0	27	104	0	60	35642
2026-01-11 14:20:03.01	20.52	2.56	-46.4	-59.4	3.6	1.49e+00	0	27	104	0	60	33728
2026-01-11 14:20:07.05	20.60	2.83	-45.3	-50.9	9.3	7.86e-02	0	27	0	3145728	60	12647
2026-01-11 14:20:11.09	20.69	3.09	-41.7	-43.9	16.7	0.00e+00	0	27	0	10485760	58	6336
2026-01-11 14:20:15.13	20.78	3.36	-40.9	-42.8	17.7	0.00e+00	0	27	0	18874368	54	7021
2026-01-11 14:20:19.17	20.87	3.62	-43.0	-45.9	14.5	7.00e-07	0	27	0	26214400	58	8013
2026-01-11 14:20:23.21	20.96	3.90	-46.5	-58.8	3.8	6.06e-02	0	28	104	33554432	60	31477
2026-01-11 14:20:27.25	21.05	4.17	-44.8	-49.2	11.5	3.42e-04	0	27	0	34603008	60	10447
2026-01-11 14:20:31.28	21.14	4.44	-42.2	-44.5	16.3	0.00e+00	0	28	0	41943040	58	6840
2026-01-11 14:20:35.32	21.23	4.72	-41.5	-43.4	17.6	0.00e+00	0	28	0	49283072	56	6724
2026-01-11 14:20:39.36	21.33	5.01	-39.9	-41.4	19.5	0.00e+00	0	28	0	56623104	52	6724
2026-01-11 14:20:43.40	21.43	5.29	-38.9	-40.2	20.5	0.00e+00	0	28	0	65011712	52	5846
2026-01-11 14:20:47.43	21.53	5.58	-39.0	-40.3	20.5	0.00e+00	0	28	0	72351744	52	5915
2026-01-11 14:20:51.47	21.63	5.87	-39.1	-40.4	20.4	0.00e+00	0	28	0	79691776	52	6018
2026-01-11 14:20:55.51	21.73	6.17	-38.8	-40.1	20.7	0.00e+00	0	28	0	87031808	52	5781
2026-01-11 14:20:59.55	21.83	6.46	-38.7	-40.0	20.7	0.00e+00	0	28	0	94371840	50	6395
2026-01-11 14:21:03.59	21.94	6.77	-38.7	-39.9	20.9	0.00e+00	0	28	0	102760448	50	6380
2026-01-11 14:21:07.63	22.05	7.07	-38.6	-39.8	20.9	0.00e+00	0	28	0	110100480	50	6276
2026-01-11 14:21:11.67	22.16	7.38	-38.5	-39.6	21.1	0.00e+00	0	28	0	117440512	50	6172
2026-01-11 14:21:15.71	22.27	7.69	-38.7	-39.9	21.0	0.00e+00	0	28	0	124780544	50	6386
2026-01-11 14:21:19.75	22.38	8.01	-38.4	-39.6	21.3	0.00e+00	0	28	0	133169152	50	6133
2026-01-11 14:21:23.79	22.50	8.33	-38.5	-39.7	21.2	0.00e+00	0	28	0	140509184	50	6180
2026-01-11 14:21:27.83	22.61	8.65	-38.0	-39.1	21.7	0.00e+00	0	28	0	147849216	50	5795
2026-01-11 14:21:31.87	22.73	8.98	-37.9	-39.0	21.8	0.00e+00	0	28	0	155189248	50	5732
2026-01-11 14:21:35.91	22.86	9.31	-37.8	-38.9	22.0	0.00e+00	0	28	0	162529280	50	5650
2026-01-11 14:21:39.95	22.98	9.65	-37.8	-38.8	22.0	0.00e+00	0	28	0	170917888	48	6293
2026-01-11 14:21:43.99	23.11	9.99	-38.0	-39.0	21.9	0.00e+00	0	28	0	178257920	48	6459
2026-01-11 14:21:48.03	23.24	10.34	-37.6	-38.7	22.1	0.00e+00	0	28	0	185597952	48	6185
2026-01-11 14:21:52.07	23.37	10.69	-37.5	-38.6	22.3	0.00e+00	0	28	0	192937984	48	6109
2026-01-11 14:21:56.11	23.51	11.05	-37.4	-38.4	22.3	0.00e+00	0	28	0	201326592	48	6004
2026-01-11 14:22:00.14	23.64	11.41	-37.4	-38.4	22.4	0.00e+00	0	28	0	208666624	48	6023
2026-01-11 14:22:04.18	23.78	11.77	-37.2	-38.2	22.6	0.00e+00	0	28	0	216006656	48	5884
2026-01-11 14:22:08.22	23.93	12.15	-37.2	-38.2	22.6	0.00e+00	0	29	0	223346688	48	5866
2026-01-11 14:22:12.25	24.08	12.52	-37.3	-38.3	22.6	0.00e+00	0	29	0	230686720	48	5923
2026-01-11 14:22:16.29	24.23	12.91	-37.3	-38.3	22.2	0.00e+00	0	29	0	239075328	48	5934
2026-01-11 14:22:20.33	24.38	13.30	-37.4	-38.4	22.2	0.00e+00	0	29	0	246415360	48	5987
2026-01-11 14:22:24.37	24.54	13.69	-37.2	-38.2	22.7	0.00e+00	0	29	0	253755392	48	5895
2026-01-11 14:22:28.41	24.70	14.09	-37.1	-38.1	22.6	0.00e+00	0	29	0	261095424	48	5795
2026-01-11 14:22:32.45	24.87	14.50	-37.3	-38.3	22.7	0.00e+00	0	29	0	269484032	48	5900
2026-01-11 14:22:36.49	25.04	14.92	-37.1	-38.0	22.8	0.00e+00	0	29	0	276824064	48	5753
2026-01-11 14:22:40.52	25.21	15.34	-37.4	-38.4	22.6	0.00e+00	0	29	0	284164096	48	6019
2026-01-11 14:22:44.56	25.39	15.77	-37.1	-38.0	23.0	0.00e+00	0	29	0	291504128	48	5760
2026-01-11 14:22:48.60	25.57	16.21	-37.0	-37.9	23.1	0.00e+00	0	29	0	298844160	48	5681
2026-01-11 14:22:52.63	25.76	16.65	-37.3	-38.3	22.7	0.00e+00	0	29	0	307232768	48	5900
2026-01-11 14:22:56.67	25.96	17.10	-37.1	-38.0	23.0	0.00e+00	0	29	0	314572800	48	5738
2026-01-11 14:23:00.71	26.16	17.57	-37.0	-38.0	23.1	0.00e+00	0	29	0	321912832	48	5707
2026-01-11 14:23:04.75	26.36	18.04	-37.1	-38.1	22.9	0.00e+00	0	29	0	329252864	48	5794
2026-01-11 14:23:08.79	26.57	18.51	-37.0	-38.0	23.1	0.00e+00	0	29	0	336592896	48	5699
2026-01-11 14:23:12.84	26.79	19.00	-37.2	-38.2	22.9	0.00e+00	0	29	0	344981504	48	5835
2026-01-11 14:23:16.88	27.01	19.50	-37.2	-38.2	22.8	0.00e+00	0	29	0	352321536	48	5844
2026-01-11 14:23:20.92	27.24	20.01	-37.1	-38.0	22.9	0.00e+00	0	29	0	359661568	48	5747
2026-01-11 14:23:24.95	27.48	20.53	-37.3	-38.3	22.8	0.00e+00	0	29	0	367001600	48	5929
2026-01-11 14:23:28.99	27.73	21.05	-37.6	-38.6	22.6	0.00e+00	0	29	0	375390208	48	6123
2026-01-11 14:23:33.03	27.98	21.59	-37.6	-38.6	22.6	0.00e+00	0	29	0	382730240	48	6129
2026-01-11 14:23:37.07	28.24	22.14	-37.3	-38.3	23.0	0.00e+00	0	29	0	390070272	48	5897
2026-01-11 14:23:41.11	28.51	22.70	-36.7	-37.6	23.4	0.00e+00	0	29	0	397410304	46	6116
2026-01-11 14:23:45.15	28.79	23.28	-35.8	-36.6	24.1	0.00e+00	0	29	0	405798912	46	5487
2026-01-11 14:23:49.19	29.08	23.86	-35.2	-36.0	24.5	0.00e+00	0	29	0	413138944	44	5744
2026-01-11 14:23:53.23	29.38	24.46	-35.1	-35.9	24.7	0.00e+00	0	29	0	420478976	44	5646
2026-01-11 14:23:57.27	29.69	25.07	-35.2	-36.0	24.5	0.00e+00	0	29	0	427819008	44	5720
2026-01-11 14:24:01.31	30.02	25.70	-35.1	-35.9	24.7	0.00e+00	0	29	0	435159040	44	5672
2026-01-11 14:24:05.35	30.35	26.34	-35.3	-36.1	24.7	0.00e+00	0	29	0	443547648	44	5785
2026-01-11 14:24:09.39	30.70	27.00	-35.8	-36.7	24.1	0.00e+00	0	29	0	450887680	44	6222
2026-01-11 14:24:13.43	31.06	27.67	-35.4	-36.3	24.5	0.00e+00	0	29	0	458227712	44	5897
2026-01-11 14:24:17.47	31.44	28.35	-35.5	-36.4	24.4	0.00e+00	0	29	0	465567744	44	5965
2026-01-11 14:24:21.50	31.84	29.05	-36.2	-37.0	24.0	0.00e+00	0	29	0	473956352	44	6444
2026-01-11 14:24:25.53	32.25	29.77	-36.1	-37.0	23.8	0.00e+00	0	29	0	481296384	44	6414
2026-01-11 14:24:29.57	32.67	30.50	-37.0	-37.9	23.2	0.00e+00	0	29	0	488636416	46	6348
2026-01-11 14:24:33.61	33.12	31.25	-37.7	-38.7	22.6	0.00e+00	0	29	0	495976448	48	6236
2026-01-11 14:24:37.64	33.59	32.02	-38.4	-39.5	22.0	0.00e+00	0	29	0	503316480	48	6772
2026-01-11 14:24:41.68	34.08	32.81	-39.8	-41.1	20.7	0.00e+00	0	29	0	511705088	50	7287
2026-01-11 14:24:45.72	34.60	33.62	-40.4	-41.8	20.2	0.00e+00	0	29	0	519045120	52	7026
2026-01-11 14:24:49.76	35.14	34.45	-39.3	-40.5	21.2	0.00e+00	0	30	0	526385152	52	6059
2026-01-11 14:24:53.80	35.70	35.29	-38.8	-39.8	21.7	0.00e+00	0	30	0	533725184	50	6313
2026-01-11 14:24:57.83	36.30	36.16	-38.5	-39.6	21.9	0.00e+00	0	30	0	541065216	50	6107
2026-01-11 14:25:01.87	36.93	37.05	-39.5	-40.8	20.8	0.00e+00	0	30	0	549453824	50	7051
2026-01-11 14:25:05.91	37.60	37.95	-40.1	-41.4	20.3	0.00e+00	0	29	0	556793856	54	6025
2026-01-11 14:25:09.95	38.30	38.88	-40.7	-42.2	19.8	0.00e+00	0	30	0	564133888	54	6566
2026-01-11 14:25:13.99	39.04	39.83	-41.1	-42.7	19.3	0.00e+00	0	30	0	571473920	54	6935
2026-01-11 14:25:18.03	39.83	40.80	-39.3	-40.6	21.3	0.00e+00	0	30	0	579862528	52	6129
2026-01-11 14:25:22.06	40.66	41.79	-38.6	-39.8	21.8	0.00e+00	0	29	0	587202560	50	6274
2026-01-11 14:25:26.10	41.55	42.81	-38.5	-39.7	21.7	0.00e+00	0	30	0	594542592	50	6200
2026-01-11 14:25:30.14	42.49	43.84	-38.3	-39.4	22.1	0.00e+00	0	29	0	601882624	50	5982
2026-01-11 14:25:34.18	43.50	44.89	-38.6	-39.7	22.0	0.00e+00	0	29	0	609222656	50	6229
2026-01-11 14:25:38.22	44.57	45.96	-37.7	-38.7	22.7	0.00e+00	0	30	0	617611264	48	6190
2026-01-11 14:25:42.26	45.73	47.05	-37.2	-38.1	23.1	0.00e+00	0	30	0	624951296	48	5827
2026-01-11 14:25:46.30	46.96	48.15	-36.0	-36.8	24.0	0.00e+00	0	29	0	632291328	46	5612
2026-01-11 14:25:50.34	48.28	49.27	-37.8	-38.9	22.5	0.00e+00	0	30	0	639631360	46	7162
2026-01-11 14:25:54.38	49.70	50.39	-36.8	-37.7	23.3	0.00e+00	0	30	0	648019968	46	6233
2026-01-11 14:25:58.42	51.24	51.53	-36.1	-37.0	23.9	0.00e+00	0	30	0	655360000	46	5756
2026-01-11 14:26:02.46	52.89	52.67	-35.4	-36.3	24.4	0.00e+00	0	30	0	662700032	42	6659
2026-01-11 14:26:06.49	54.67	53.81	-34.8	-35.6	24.9	0.00e+00	0	30	0	670040064	42	6137
2026-01-11 14:26:10.53	56.60	54.95	-35.6	-36.5	24.2	0.00e+00	0	30	0	677380096	42	6807
2026-01-11 14:26:14.57	58.68	56.08	-34.9	-35.7	24.6	0.00e+00	0	30	0	685768704	44	5532
2026-01-11 14:26:18.61	60.95	57.19	-35.4	-36.2	24.7	0.00e+00	0	30	0	693108736	42	6580
2026-01-11 14:26:22.65	63.40	58.28	-38.0	-39.1	22.4	0.00e+00	0	30	0	700448768	48	6506
2026-01-11 14:26:26.69	66.05	59.33	-36.8	-37.7	23.5	0.00e+00	0	30	0	707788800	48	5519
2026-01-11 14:26:30.73	68.92	60.34	-37.2	-38.1	23.1	0.00e+00	0	30	0	716177408	46	6519
2026-01-11 14:26:34.77	72.02	61.30	-36.3	-37.1	24.0	0.00e+00	0	30	0	723517440	46	5795
2026-01-11 14:26:38.81	75.36	62.20	-35.9	-36.8	23.7	0.00e+00	0	30	0	730857472	44	6284
2026-01-11 14:26:42.84	78.94	63.02	-34.6	-35.4	25.2	0.00e+00	0	30	0	738197504	42	5993
2026-01-11 14:26:46.88	82.76	63.75	-36.1	-37.0	24.3	0.00e+00	0	30	0	745537536	44	6403
2026-01-11 14:26:50.92	86.81	64.37	-37.8	-38.9	22.5	0.00e+00	0	30	0	753926144	48	6340
2026-01-11 14:26:54.97	91.07	64.88	-36.8	-37.8	23.2	0.00e+00	0	30	0	761266176	46	6253
2026-01-11 14:26:59.00	95.49	65.27	-38.1	-39.2	22.4	0.00e+00	0	30	0	768606208	48	6569
2026-01-11 14:27:03.04	100.04	65.52	-36.2	-37.1	23.9	0.00e+00	0	30	0	775946240	46	5784
2026-01-11 14:27:07.08	104.67	65.63	-37.3	-38.3	23.1	0.00e+00	0	30	0	784334848	46	6639
2026-01-11 14:27:11.12	109.32	65.60	-37.0	-38.0	23.1	0.00e+00	0	30	0	791674880	46	6445
2026-01-11 14:27:15.15	113.91	65.42	-35.2	-36.0	24.5	0.00e+00	0	30	0	799014912	44	5751
2026-01-11 14:27:19.19	118.42	65.11	-34.9	-35.6	25.0	0.00e+00	0	30	0	806354944	40	6905
2026-01-11 14:27:23.23	122.77	64.66	-36.2	-37.1	23.6	0.00e+00	0	30	0	813694976	44	6495
2026-01-11 14:27:27.27	126.94	64.10	-34.6	-36.2	20.9	2.13e-03	0	30	0	822083584	42	6551
2026-01-11 14:27:31.31	130.89	63.42	-35.7	-37.4	20.0	1.28e-02	0	30	0	829423616	44	6760
2026-01-11 14:27:35.35	134.60	62.65	-33.5	-35.9	19.5	1.33e-02	0	30	0	836763648	40	7091
2026-01-11 14:27:39.39	138.08	61.79	-32.9	-34.2	21.9	1.47e-02	0	30	0	844103680	40	5889
2026-01-11 14:27:43.43	141.31	60.86	-34.9	-35.7	25.0	0.00e+00	0	30	0	852492288	42	6193
2026-01-11 14:27:47.47	144.31	59.87	-33.8	-34.6	25.5	0.00e+00	0	30	0	859832320	40	6133
2026-01-11 14:27:51.51	147.08	58.84	-33.9	-34.7	25.5	0.00e+00	0	30	0	867172352	40	6177
2026-01-11 14:27:55.55	149.64	57.76	-32.8	-33.6	26.2	0.00e+00	0	30	0	874512384	40	5441
2026-01-11 14:27:59.58	152.00	56.66	-33.0	-33.7	26.0	0.00e+00	0	30	0	881852416	38	6226
2026-01-11 14:28:03.62	154.18	55.54	-34.0	-34.7	25.3	0.00e+00	0	30	0	890241024	40	6227
2026-01-11 14:28:07.66	156.19	54.40	-34.5	-35.3	25.0	0.00e+00	0	30	0	897581056	40	6678
2026-01-11 14:28:11.70	158.06	53.26	-37.5	-38.5	22.9	0.00e+00	0	30	0	904921088	46	6805
2026-01-11 14:28:15.74	159.78	52.11	-38.0	-39.1	22.2	0.00e+00	0	30	0	912261120	48	6524
2026-01-11 14:28:19.78	161.38	50.97	-37.5	-38.5	22.7	0.00e+00	0	30	0	920649728	48	6055
2026-01-11 14:28:23.82	162.86	49.83	-38.2	-39.4	22.0	0.00e+00	0	30	0	927989760	50	5976
2026-01-11 14:28:27.85	164.23	48.71	-37.6	-38.6	22.8	0.00e+00	0	30	0	935329792	46	6872
2026-01-11 14:28:31.89	165.51	47.60	-35.7	-36.5	24.3	0.00e+00	0	30	0	942669824	46	5393
2026-01-11 14:28:35.93	166.70	46.50	-38.8	-40.1	21.7	0.00e+00	0	30	0	950009856	50	6474
2026-01-11 14:28:39.97	167.82	45.41	-34.5	-35.2	25.2	0.00e+00	0	30	0	958398464	42	5886
2026-01-11 14:28:44.00	168.86	44.35	-40.8	-42.4	19.4	0.00e+00	0	30	0	965738496	52	7592
2026-01-11 14:28:48.05	169.84	43.30	-35.0	-35.8	24.8	0.00e+00	0	30	0	973078528	44	5585
2026-01-11 14:28:52.08	170.76	42.28	-37.8	-38.8	22.6	0.00e+00	0	30	0	980418560	48	6300
2026-01-11 14:28:56.12	171.62	41.27	-33.8	-34.5	25.6	0.00e+00	0	30	0	988807168	40	6084
2026-01-11 14:29:00.16	172.43	40.28	-39.5	-40.9	20.8	0.00e+00	0	30	0	996147200	50	7110
2026-01-11 14:29:04.20	173.20	39.32	-38.5	-39.7	21.8	0.00e+00	0	30	0	1003487232	50	6240
2026-01-11 14:29:08.24	173.92	38.38	-35.2	-36.0	24.7	0.00e+00	0	30	0	1010827264	44	5707
2026-01-11 14:29:12.28	174.60	37.45	-39.1	-40.3	21.4	0.00e+00	0	29	0	1018167296	50	6672
2026-01-11 14:29:16.32	175.25	36.55	-36.4	-37.2	23.7	0.00e+00	0	29	0	1026555904	46	5885
2026-01-11 14:29:20.36	175.87	35.67	-35.1	-35.9	24.8	0.00e+00	0	29	0	1033895936	44	5644
2026-01-11 14:29:24.40	176.45	34.81	-35.5	-36.4	24.4	0.00e+00	0	29	0	1041235968	44	5984
2026-01-11 14:29:28.44	177.00	33.97	-38.3	-39.4	22.1	0.00e+00	0	29	0	1048576000	48	6754
2026-01-11 14:29:32.47	177.53	33.15	-40.3	-41.7	20.2	0.00e+00	0	29	0	1056964608	52	6977
2026-01-11 14:29:36.51	178.03	32.35	-37.4	-38.4	23.0	0.00e+00	0	29	0	1064304640	48	5967
2026-01-11 14:29:40.55	178.51	31.57	-37.2	-38.2	23.2	0.00e+00	0	29	0	1071644672	46	6549
2026-01-11 14:29:44.59	178.97	30.80	-38.6	-39.7	21.8	0.00e+00	0	29	0	1078984704	48	6978
2026-01-11 14:29:48.63	179.41	30.06	-38.5	-39.6	22.1	0.00e+00	0	29	0	1086324736	50	6139
2026-01-11 14:29:52.67	179.83	29.33	-38.0	-39.0	22.5	0.00e+00	0	29	0	1094713344	50	5713
2026-01-11 14:29:56.71	180.23	28.61	-37.9	-38.9	22.4	0.00e+00	0	29	0	1102053376	50	5682
2026-01-11 14:30:00.75	180.61	27.92	-36.4	-37.3	23.8	0.00e+00	0	29	0	1109393408	46	5939
2026-01-11 14:30:04.79	180.98	27.24	-35.8	-36.7	24.2	0.00e+00	0	29	0	1116733440	44	6180
2026-01-11 14:30:08.83	181.34	26.57	-35.7	-36.5	24.3	0.00e+00	0	29	0	1125122048	44	6074
2026-01-11 14:30:12.86	181.68	25.92	-35.3	-36.1	24.5	0.00e+00	0	29	0	1132462080	44	5795
2026-01-11 14:30:16.90	182.01	25.29	-36.1	-37.0	24.0	0.00e+00	0	29	0	1139802112	44	6411
2026-01-11 14:30:20.94	182.32	24.67	-36.4	-37.3	23.6	0.00e+00	0	29	0	1147142144	44	6650
2026-01-11 14:30:24.98	182.63	24.06	-36.0	-36.9	24.2	0.00e+00	0	29	0	1154482176	44	6326
2026-01-11 14:30:29.01	182.92	23.47	-35.6	-36.4	24.3	0.00e+00	0	29	0	1162870784	44	6000
2026-01-11 14:30:33.05	183.20	22.88	-35.8	-36.6	24.2	0.00e+00	0	29	0	1170210816	44	6131
2026-01-11 14:30:37.09	183.48	22.31	-35.1	-35.9	24.6	0.00e+00	0	29	0	1177550848	44	5680
2026-01-11 14:30:41.13	183.74	21.76	-35.2	-36.0	24.5	0.00e+00	0	29	0	1184890880	44	5716
2026-01-11 14:30:45.17	184.00	21.21	-36.0	-36.9	23.8	0.00e+00	0	29	0	1193279488	44	6367
2026-01-11 14:30:49.21	184.24	20.68	-36.4	-37.4	23.5	0.00e+00	0	29	0	1200619520	44	6707
2026-01-11 14:30:53.25	184.48	20.15	-36.1	-37.0	23.8	0.00e+00	0	29	0	1207959552	44	6418
2026-01-11 14:30:57.28	184.72	19.64	-35.1	-35.9	24.7	0.00e+00	0	29	0	1215299584	44	5657
2026-01-11 14:31:01.32	184.94	19.13	-34.8	-35.6	24.8	0.00e+00	0	29	0	1222639616	42	6173
2026-01-11 14:31:05.35	185.16	18.64	-34.9	-35.8	24.7	0.00e+00	0	29	0	1231028224	42	6248
2026-01-11 14:31:09.39	185.37	18.15	-35.5	-36.3	24.2	0.00e+00	0	29	0	1238368256	42	6679
2026-01-11 14:31:13.43	185.58	17.68	-35.5	-36.3	24.3	0.00e+00	0	29	0	1245708288	42	6692
2026-01-11 14:31:17.47	185.78	17.21	-35.6	-36.4	24.3	0.00e+00	0	29	0	1253048320	42	6747
2026-01-11 14:31:21.51	185.97	16.75	-35.6	-36.4	24.2	0.00e+00	0	29	0	1261436928	44	6013
2026-01-11 14:31:25.54	186.16	16.30	-35.8	-36.7	24.0	0.00e+00	0	29	0	1268776960	44	6190
2026-01-11 14:31:29.58	186.34	15.86	-36.2	-37.1	23.7	0.00e+00	0	29	0	1276116992	44	6492
2026-01-11 14:31:33.62	186.52	15.43	-36.6	-37.5	23.3	0.00e+00	0	29	0	1283457024	44	6832
2026-01-11 14:31:37.66	186.70	15.00	-36.9	-37.8	23.2	0.00e+00	0	29	0	1290797056	46	6290
2026-01-11 14:31:41.70	186.87	14.58	-37.5	-38.5	22.5	0.00e+00	0	29	0	1299185664	46	6836
2026-01-11 14:31:45.73	187.03	14.16	-38.0	-39.1	22.1	0.00e+00	0	29	0	1306525696	48	6470
2026-01-11 14:31:49.77	187.19	13.76	-38.5	-39.7	21.5	0.00e+00	0	29	0	1313865728	48	6954
2026-01-11 14:31:53.81	187.35	13.36	-38.7	-39.9	21.3	0.00e+00	0	29	0	1321205760	50	6376
2026-01-11 14:31:57.85	187.50	12.96	-39.3	-40.5	20.6	0.00e+00	0	28	0	1329594368	50	6843
2026-01-11 14:32:01.88	187.65	12.58	-39.0	-40.3	21.0	0.00e+00	0	28	0	1336934400	50	6624
2026-01-11 14:32:05.92	187.80	12.20	-38.8	-40.0	21.3	0.00e+00	0	29	0	1344274432	50	6407
2026-01-11 14:32:09.96	187.94	11.82	-38.2	-39.3	21.9	0.00e+00	0	28	0	1351614464	50	5903
2026-01-11 14:32:14.00	188.08	11.45	-38.2	-39.2	21.9	0.00e+00	0	28	0	1358954496	50	5880
2026-01-11 14:32:18.04	188.22	11.08	-37.7	-38.7	22.3	0.00e+00	0	29	0	1367343104	48	6211
2026-01-11 14:32:22.07	188.35	10.72	-37.2	-38.1	22.7	0.00e+00	0	29	0	1374683136	48	5807
2026-01-11 14:32:26.11	188.49	10.37	-36.9	-37.8	23.0	0.00e+00	0	28	0	1382023168	48	5620
2026-01-11 14:32:30.15	188.61	10.02	-37.1	-38.1	22.8	0.00e+00	0	28	0	1389363200	48	5790
2026-01-11 14:32:34.19	188.74	9.67	-36.8	-37.7	23.0	0.00e+00	0	28	0	1396703232	46	6244
2026-01-11 14:32:38.23	188.86	9.33	-36.9	-37.8	22.9	0.00e+00	0	28	0	1405091840	46	6310
2026-01-11 14:32:42.27	188.98	9.00	-36.9	-37.8	22.9	0.00e+00	0	28	0	1412431872	46	6296
2026-01-11 14:32:46.30	189.10	8.67	-36.9	-37.9	22.9	0.00e+00	0	28	0	1419771904	46	6324
2026-01-11 14:32:50.34	189.22	8.34	-36.9	-37.8	22.9	0.00e+00	0	28	0	1427111936	46	6312
2026-01-11 14:32:54.38	189.33	8.02	-36.9	-37.8	22.9	0.00e+00	0	28	0	1435500544	46	6286
2026-01-11 14:32:58.41	189.44	7.70	-37.2	-38.2	22.5	0.00e+00	0	28	0	1442840576	46	6546
2026-01-11 14:33:02.45	189.55	7.38	-37.5	-38.5	22.3	0.00e+00	0	28	0	1450180608	46	6816
2026-01-11 14:33:06.48	189.66	7.07	-37.7	-38.7	22.1	0.00e+00	0	28	0	1457520640	46	6980
2026-01-11 14:33:10.52	189.76	6.76	-37.7	-38.8	21.9	0.00e+00	0	28	0	1464860672	48	6280
2026-01-11 14:33:14.55	189.86	6.46	-37.8	-38.9	21.9	0.00e+00	0	28	0	1473249280	48	6339
2026-01-11 14:33:18.59	189.97	6.16	-38.0	-39.2	21.6	0.00e+00	0	28	0	1480589312	48	6556
2026-01-11 14:33:22.63	190.07	5.86	-38.4	-39.6	21.1	0.00e+00	0	28	0	1487929344	48	6927
2026-01-11 14:33:26.67	190.16	5.57	-38.1	-39.2	21.4	0.00e+00	0	28	0	1495269376	48	6608
2026-01-11 14:33:30.70	190.26	5.28	-38.8	-40.1	20.8	0.00e+00	0	28	0	1503657984	50	6490
2026-01-11 14:33:34.74	190.35	4.99	-39.0	-40.2	20.6	0.00e+00	0	28	0	1510998016	50	6596
2026-01-11 14:33:38.78	190.45	4.71	-39.0	-40.3	20.6	0.00e+00	0	28	0	1518338048	50	6644
2026-01-11 14:33:42.82	190.54	4.42	-39.2	-40.6	20.1	0.00e+00	0	28	0	1525678080	50	6852
2026-01-11 14:33:46.86	190.63	4.15	-39.6	-41.0	19.7	0.00e+00	0	28	0	1533018112	50	7234
2026-01-11 14:33:50.90	190.72	3.87	-39.3	-40.6	20.0	0.00e+00	0	28	0	1541406720	50	6897
2026-01-11 14:33:54.94	190.80	3.60	-39.4	-40.8	19.7	0.00e+00	0	28	0	1548746752	50	7069
2026-01-11 14:33:58.98	190.89	3.33	-40.0	-41.5	19.0	0.00e+00	0	28	0	1556086784	52	6811
2026-01-11 14:34:03.01	190.97	3.06	-39.6	-41.1	19.2	0.00e+00	0	28	0	1563426816	52	6504
2026-01-11 14:34:07.05	191.06	2.79	-47.9	-63.1	3.6	1.51e+00	0	28	104	1564475392	60	51635
2026-01-11 14:34:11.09	191.14	2.53	-48.0	-63.3	3.6	1.51e+00	0	28	104	1564475392	60	53030
2026-01-11 14:34:15.13	191.22	2.27	-48.1	-63.3	3.6	1.51e+00	0	28	104	1564475392	60	52717
2026-01-11 14:34:19.17	191.30	2.01	-48.0	-63.2	3.6	1.51e+00	0	28	104	1564475392	60	52481
2026-01-11 14:34:23.21	191.38	1.76	-48.0	-63.2	3.6	1.51e+00	0	28	104	1564475392	60	52289
2026-01-11 14:34:27.25	191.45	1.50	-48.0	-63.2	3.6	1.51e+00	0	28	104	1564475392	60	52234
2026-01-11 14:34:31.29	191.53	1.25	-48.0	-63.2	3.6	1.51e+00	0	28	104	1564475392	60	52502
2026-01-11 14:34:35.32	191.60	1.00	-48.0	-63.2	3.6	1.51e+00	0	28	104	1564475392	60	52346
2026-01-11 14:34:39.36	191.68	0.75	-48.0	-63.2	3.6	1.51e+00	0	28	104	1564475392	60	52078
2026-01-11 14:34:43.40	191.75	0.51	-48.0	-63.2	3.6	1.51e+00	0	28	104	1564475392	60	52449
2026-01-11 14:34:47.45	191.82	0.26	-48.0	-63.2	3.6	1.51e+00	0	28	104	1564475392	60	52307
2026-01-11 14:34:51.49	191.89	0.02	-48.0	-63.2	3.6	1.51e+00	0	28	104	1564475392	60	52257

#Closed at: 2026-01-11 14:34:52
#Recorded file [1564 MB]: D:/lorett/data/35029_260112_021922.dat