passes_logs/2026/01/11/R4.6S_Anadyr/R4.6S_Anadyr__20260111_224255_TY-39_rec.log

#Pass ID: 20260111_224255_TY-39
#Satellite: TY-39
#Configuration: TY-39
#almurnet v.1.7.20251203
#Start time: 2026-01-11 22:43:00

#Version: 2.2.20231116
#Station: R4.6S_Anadyr
#Location: 177.4865 lon 64.73178 lat
#TLE: 1 51832U 22019J   26011.60034042  .00005582  00000-0  26480-3 0  9995
#TLE: 2 51832  97.3647  78.3734 0010183  62.3489 297.8778 15.19626918214018

#Time	Az	El	Level	Level2	SNR	BER	BlckErr	Temp	State	Recorded	gain1	gain2
2026-01-11 22:43:00.20	17.98	0.33	-48.3	-60.8	3.5	1.52e+00	0	24	0	0	60	38394
2026-01-11 22:43:03.23	18.03	0.52	-48.4	-50.8	3.6	0.00e+00	0	26	104	0	60	42659
2026-01-11 22:43:06.25	18.07	0.72	-48.3	-50.8	3.6	0.00e+00	0	26	104	0	60	42321
2026-01-11 22:43:09.28	18.12	0.92	-48.0	-50.5	3.6	0.00e+00	0	26	104	0	60	41053
2026-01-11 22:43:12.31	18.17	1.12	-47.3	-49.8	3.6	0.00e+00	0	26	104	0	60	37942
2026-01-11 22:43:15.34	18.22	1.32	-47.3	-49.8	3.6	0.00e+00	0	26	104	0	60	37691
2026-01-11 22:43:18.37	18.27	1.53	-47.2	-49.7	3.6	0.00e+00	0	26	104	0	60	37583
2026-01-11 22:43:21.39	18.32	1.73	-47.2	-49.8	3.6	0.00e+00	0	26	104	0	60	37660
2026-01-11 22:43:24.42	18.37	1.94	-47.2	-49.7	3.6	0.00e+00	0	27	104	0	60	37475
2026-01-11 22:43:27.45	18.42	2.15	-47.2	-49.7	3.6	0.00e+00	0	27	104	0	60	37253
2026-01-11 22:43:30.48	18.47	2.36	-47.2	-49.7	3.6	0.00e+00	0	27	104	0	60	37341
2026-01-11 22:43:33.51	18.53	2.58	-47.2	-49.7	3.6	0.00e+00	0	27	104	0	60	37470
2026-01-11 22:43:36.54	18.58	2.80	-47.2	-49.7	3.6	0.00e+00	0	27	104	0	60	37494
2026-01-11 22:43:39.56	18.63	3.01	-47.2	-49.7	3.6	0.00e+00	0	27	104	0	60	37273
2026-01-11 22:43:42.59	18.69	3.24	-47.2	-49.7	3.6	0.00e+00	0	27	104	0	60	37309
2026-01-11 22:43:45.62	18.75	3.46	-47.2	-49.7	3.6	0.00e+00	0	27	104	0	60	37324
2026-01-11 22:43:48.64	18.80	3.69	-47.2	-49.6	3.6	0.00e+00	0	27	104	0	60	37160
2026-01-11 22:43:51.67	18.86	3.91	-47.2	-49.7	3.5	0.00e+00	0	27	104	0	60	37259
2026-01-11 22:43:54.70	18.92	4.15	-47.2	-49.7	3.6	0.00e+00	0	27	104	0	60	37264
2026-01-11 22:43:57.73	18.98	4.38	-47.2	-49.7	3.6	0.00e+00	0	27	104	0	60	37480
2026-01-11 22:44:00.75	19.04	4.62	-47.2	-49.7	3.6	0.00e+00	0	27	104	0	60	37510
2026-01-11 22:44:03.78	19.10	4.86	-47.2	-49.7	3.6	0.00e+00	0	27	104	0	60	37436
2026-01-11 22:44:06.81	19.16	5.10	-47.4	-50.0	3.6	0.00e+00	0	27	104	0	60	38582
2026-01-11 22:44:09.83	19.23	5.34	-47.4	-49.9	3.6	0.00e+00	0	27	104	0	60	38438
2026-01-11 22:44:12.86	19.29	5.59	-47.4	-49.9	3.6	0.00e+00	0	27	104	0	60	38262
2026-01-11 22:44:15.88	19.36	5.84	-47.4	-49.9	3.6	0.00e+00	0	27	104	0	60	38434
2026-01-11 22:44:18.91	19.42	6.10	-47.4	-50.0	3.6	0.00e+00	0	27	104	0	60	38554
2026-01-11 22:44:21.94	19.49	6.35	-47.4	-49.9	3.6	0.00e+00	0	27	104	0	60	38136
2026-01-11 22:44:24.96	19.56	6.61	-47.5	-50.0	3.6	0.00e+00	0	28	104	0	60	38576
2026-01-11 22:44:27.99	19.63	6.88	-47.4	-49.9	3.6	0.00e+00	0	28	104	0	60	38232
2026-01-11 22:44:31.01	19.70	7.15	-47.6	-50.1	3.6	0.00e+00	0	28	104	0	60	39180
2026-01-11 22:44:34.03	19.78	7.42	-47.6	-50.1	3.5	0.00e+00	0	28	104	0	60	39295
2026-01-11 22:44:37.06	19.85	7.70	-47.6	-50.1	3.6	0.00e+00	0	28	104	0	60	39034
2026-01-11 22:44:40.09	19.93	7.98	-47.6	-50.0	3.6	0.00e+00	0	28	104	0	60	38947
2026-01-11 22:44:43.12	20.01	8.26	-47.8	-50.3	3.6	0.00e+00	0	28	104	0	60	39873
2026-01-11 22:44:46.14	20.09	8.55	-47.8	-50.3	3.6	0.00e+00	0	28	104	0	60	40059
2026-01-11 22:44:49.16	20.17	8.84	-47.7	-50.2	3.6	0.00e+00	0	28	104	0	60	39738
2026-01-11 22:44:52.19	20.25	9.14	-47.5	-50.1	3.6	0.00e+00	0	28	104	0	60	39013
2026-01-11 22:44:55.22	20.34	9.44	-47.7	-50.3	3.6	0.00e+00	0	28	104	0	60	39904
2026-01-11 22:44:58.25	20.42	9.75	-47.8	-50.3	3.6	0.00e+00	0	28	104	0	60	40295
2026-01-11 22:45:01.28	20.51	10.06	-47.8	-50.3	3.6	0.00e+00	0	28	104	0	60	39876
2026-01-11 22:45:04.31	20.60	10.38	-47.8	-50.2	3.6	0.00e+00	0	28	104	0	60	39753
2026-01-11 22:45:07.33	20.69	10.71	-47.3	-49.8	3.6	0.00e+00	0	28	104	0	60	37948
2026-01-11 22:45:10.36	20.79	11.04	-47.3	-49.9	3.6	0.00e+00	0	28	104	0	60	38127
2026-01-11 22:45:13.39	20.89	11.37	-46.9	-49.5	3.6	0.00e+00	0	28	104	0	60	36651
2026-01-11 22:45:16.40	20.98	11.71	-47.8	-50.3	3.6	0.00e+00	0	28	104	0	60	40205
2026-01-11 22:45:19.43	21.09	12.06	-47.9	-50.4	3.6	0.00e+00	0	28	104	0	60	40590
2026-01-11 22:45:22.46	21.19	12.41	-47.8	-50.4	3.6	0.00e+00	0	28	104	0	60	40494
2026-01-11 22:45:25.48	21.30	12.77	-48.0	-50.4	3.6	0.00e+00	0	28	104	0	60	40775
2026-01-11 22:45:28.51	21.41	13.14	-47.9	-50.4	3.6	0.00e+00	0	28	104	0	60	40776
2026-01-11 22:45:31.53	21.52	13.52	-47.9	-50.4	3.6	0.00e+00	0	28	104	0	60	40673
2026-01-11 22:45:34.56	21.64	13.90	-47.9	-50.4	3.6	0.00e+00	0	28	104	0	60	40494
2026-01-11 22:45:37.59	21.76	14.29	-48.0	-50.5	3.6	0.00e+00	0	28	104	0	60	41093
2026-01-11 22:45:40.62	21.88	14.69	-48.0	-50.5	3.6	0.00e+00	0	28	104	0	60	41027
2026-01-11 22:45:43.65	22.01	15.10	-48.0	-50.5	3.6	0.00e+00	0	28	104	0	60	41057
2026-01-11 22:45:46.67	22.14	15.52	-48.1	-50.5	3.6	0.00e+00	0	28	104	0	60	41253
2026-01-11 22:45:49.70	22.27	15.94	-48.0	-50.5	3.6	0.00e+00	0	28	104	0	60	40938
2026-01-11 22:45:52.73	22.41	16.38	-48.2	-50.7	3.6	0.00e+00	0	28	104	0	60	42007
2026-01-11 22:45:55.75	22.55	16.83	-48.2	-50.7	3.6	0.00e+00	0	28	104	0	60	41748
2026-01-11 22:45:58.78	22.70	17.28	-48.1	-50.6	3.6	0.00e+00	0	28	104	0	60	41494
2026-01-11 22:46:01.81	22.85	17.75	-48.0	-50.5	3.6	0.00e+00	0	28	104	0	60	41255
2026-01-11 22:46:04.84	23.01	18.23	-48.2	-50.6	3.6	0.00e+00	0	28	104	0	60	41730
2026-01-11 22:46:07.87	23.17	18.72	-48.1	-50.6	3.6	0.00e+00	0	28	104	0	60	41516
2026-01-11 22:46:10.89	23.34	19.23	-48.2	-50.7	3.6	0.00e+00	0	28	104	0	60	41782
2026-01-11 22:46:13.92	23.52	19.75	-48.1	-50.7	3.6	0.00e+00	0	28	104	0	60	41845
2026-01-11 22:46:16.95	23.70	20.28	-48.2	-50.7	3.6	0.00e+00	0	28	104	0	60	41938
2026-01-11 22:46:19.98	23.89	20.82	-48.2	-50.7	3.6	0.00e+00	0	28	104	0	60	42039
2026-01-11 22:46:23.01	24.08	21.38	-48.2	-50.7	3.6	0.00e+00	0	28	104	0	60	41880
2026-01-11 22:46:26.04	24.29	21.96	-48.2	-50.7	3.6	0.00e+00	0	28	104	0	60	41959
2026-01-11 22:46:29.07	24.50	22.55	-48.2	-50.8	3.6	0.00e+00	0	28	104	0	60	42232
2026-01-11 22:46:32.10	24.72	23.16	-48.3	-50.8	3.6	0.00e+00	0	28	104	0	60	42362
2026-01-11 22:46:35.12	24.95	23.79	-48.3	-50.7	3.6	0.00e+00	0	28	104	0	60	42143
2026-01-11 22:46:38.15	25.19	24.44	-48.2	-50.7	3.6	0.00e+00	0	28	104	0	60	42192
2026-01-11 22:46:41.18	25.44	25.10	-48.3	-50.7	3.6	0.00e+00	0	28	104	0	60	42071
2026-01-11 22:46:44.20	25.70	25.79	-48.3	-50.8	3.6	0.00e+00	0	28	104	0	60	42656
2026-01-11 22:46:47.23	25.98	26.50	-48.3	-50.8	3.6	0.00e+00	0	28	104	0	60	42481
2026-01-11 22:46:50.26	26.26	27.23	-48.3	-50.7	3.6	0.00e+00	0	28	104	0	60	42210
2026-01-11 22:46:53.29	26.57	27.98	-48.3	-50.8	3.6	0.00e+00	0	28	104	0	60	42491
2026-01-11 22:46:56.32	26.89	28.76	-48.1	-50.6	3.6	0.00e+00	0	29	104	0	60	41684
2026-01-11 22:46:59.35	27.22	29.57	-48.2	-50.7	3.6	0.00e+00	0	29	104	0	60	41845
2026-01-11 22:47:02.37	27.57	30.40	-48.2	-50.8	3.6	0.00e+00	0	29	104	0	60	42474
2026-01-11 22:47:05.40	27.95	31.26	-32.4	-32.9	4.9	0.00e+00	0	29	104	0	38	19291
2026-01-11 22:47:08.43	28.34	32.15	-48.2	-50.6	3.6	0.00e+00	0	29	104	0	60	41471
2026-01-11 22:47:11.45	28.76	33.07	-48.3	-50.8	3.6	0.00e+00	0	29	104	0	60	42500
2026-01-11 22:47:14.48	29.20	34.03	-48.4	-50.9	3.6	0.00e+00	0	29	104	0	60	42791
2026-01-11 22:47:17.50	29.67	35.01	-48.4	-50.9	3.6	0.00e+00	0	29	104	0	60	43050
2026-01-11 22:47:20.53	30.18	36.04	-48.4	-50.9	3.6	0.00e+00	0	29	104	0	60	42824
2026-01-11 22:47:23.56	30.72	37.10	-48.4	-50.9	3.6	0.00e+00	0	29	104	0	60	42923
2026-01-11 22:47:26.58	31.29	38.19	-48.4	-50.9	3.6	0.00e+00	0	29	104	0	60	42987
2026-01-11 22:47:29.61	31.91	39.33	-48.4	-50.9	3.6	0.00e+00	0	29	104	0	60	43026
2026-01-11 22:47:32.64	32.57	40.50	-48.4	-50.9	3.5	0.00e+00	0	29	104	0	60	43002
2026-01-11 22:47:35.67	33.29	41.72	-48.4	-50.9	3.6	0.00e+00	0	29	104	0	60	42880
2026-01-11 22:47:38.70	34.07	42.98	-48.5	-51.0	3.6	0.00e+00	0	29	104	0	60	43331
2026-01-11 22:47:41.73	34.91	44.29	-48.5	-50.9	3.6	0.00e+00	0	29	104	0	60	43036
2026-01-11 22:47:44.75	35.83	45.63	-48.4	-50.9	3.6	0.00e+00	0	29	104	0	60	42801
2026-01-11 22:47:47.78	36.83	47.02	-48.5	-51.0	3.6	0.00e+00	0	29	104	0	60	43409
2026-01-11 22:47:50.80	37.92	48.45	-48.4	-50.9	3.6	0.00e+00	0	29	104	0	60	43079
2026-01-11 22:47:53.83	39.13	49.93	-48.4	-50.9	3.6	0.00e+00	0	29	104	0	60	43023
2026-01-11 22:47:56.85	40.46	51.44	-48.4	-50.9	3.6	0.00e+00	0	29	104	0	60	43011
2026-01-11 22:47:59.87	41.94	52.99	-48.4	-51.0	3.6	0.00e+00	0	29	104	0	60	43230
2026-01-11 22:48:02.90	43.59	54.57	-48.5	-51.0	3.6	0.00e+00	0	29	104	0	60	43369
2026-01-11 22:48:05.93	45.44	56.19	-48.4	-50.8	3.6	0.00e+00	0	29	104	0	60	42606
2026-01-11 22:48:08.95	47.52	57.82	-48.5	-51.0	3.6	0.00e+00	0	29	104	0	60	43265
2026-01-11 22:48:11.98	49.88	59.47	-48.5	-50.9	3.6	0.00e+00	0	29	104	0	60	43024
2026-01-11 22:48:15.01	52.55	61.12	-48.4	-50.9	3.6	0.00e+00	0	29	104	0	60	43080
2026-01-11 22:48:18.04	55.61	62.75	-48.4	-50.9	3.6	0.00e+00	0	29	104	0	60	43010
2026-01-11 22:48:21.06	59.09	64.34	-48.4	-50.9	3.6	0.00e+00	0	29	104	0	60	43148
2026-01-11 22:48:24.09	63.11	65.87	-48.4	-50.9	3.6	0.00e+00	0	29	104	0	60	42988
2026-01-11 22:48:27.12	67.71	67.32	-48.5	-51.0	3.6	0.00e+00	0	29	104	0	60	43213
2026-01-11 22:48:30.14	72.95	68.63	-48.4	-51.0	3.6	0.00e+00	0	29	104	0	60	43350
2026-01-11 22:48:33.17	78.91	69.77	-48.4	-50.9	3.6	0.00e+00	0	29	104	0	60	42811
2026-01-11 22:48:36.20	85.56	70.71	-48.4	-50.9	3.6	0.00e+00	0	29	104	0	60	43051
2026-01-11 22:48:39.22	92.82	71.38	-48.4	-50.9	3.6	0.00e+00	0	30	104	0	60	43034
2026-01-11 22:48:42.25	100.54	71.76	-48.4	-50.9	3.6	0.00e+00	0	30	104	0	60	43181
2026-01-11 22:48:45.27	108.44	71.81	-48.3	-50.8	3.6	0.00e+00	0	30	104	0	60	42625
2026-01-11 22:48:48.30	116.26	71.55	-48.4	-50.9	3.6	0.00e+00	0	29	104	0	60	43137
2026-01-11 22:48:51.32	123.70	70.98	-48.4	-50.9	3.6	0.00e+00	0	30	104	0	60	43043
2026-01-11 22:48:54.35	130.59	70.13	-48.4	-50.9	3.6	0.00e+00	0	30	104	0	60	42936
2026-01-11 22:48:57.38	136.80	69.05	-48.4	-50.9	3.6	0.00e+00	0	30	104	0	60	42841
2026-01-11 22:49:00.40	142.28	67.79	-48.3	-50.8	3.6	0.00e+00	0	29	104	0	60	42528
2026-01-11 22:49:03.44	147.12	66.38	-48.3	-50.8	3.6	0.00e+00	0	30	104	0	60	42603
2026-01-11 22:49:06.46	151.32	64.88	-48.3	-50.9	3.6	0.00e+00	0	30	104	0	60	42724
2026-01-11 22:49:09.49	154.99	63.30	-48.1	-50.6	3.6	0.00e+00	0	30	104	0	60	41735
2026-01-11 22:49:12.52	158.20	61.68	-48.1	-50.7	3.6	0.00e+00	0	30	104	0	60	42032
2026-01-11 22:49:15.54	160.99	60.04	-47.7	-50.3	3.6	0.00e+00	0	30	104	0	60	40197
2026-01-11 22:49:18.57	163.45	58.38	-48.3	-50.8	3.6	0.00e+00	0	30	104	0	60	42590
2026-01-11 22:49:21.60	165.63	56.74	-48.0	-50.6	3.6	0.00e+00	0	30	104	0	60	41346
2026-01-11 22:49:24.62	167.55	55.12	-48.2	-50.8	3.6	0.00e+00	0	30	104	0	60	42258
2026-01-11 22:49:27.65	169.27	53.52	-48.5	-51.0	3.6	0.00e+00	0	30	104	0	60	43552
2026-01-11 22:49:30.67	170.80	51.96	-48.4	-51.0	3.6	0.00e+00	0	30	104	0	60	43310
2026-01-11 22:49:33.70	172.19	50.42	-48.5	-50.9	3.6	0.00e+00	0	30	104	0	60	43190
2026-01-11 22:49:36.73	173.44	48.93	-48.5	-51.0	3.6	0.00e+00	0	30	104	0	60	43501
2026-01-11 22:49:39.76	174.57	47.48	-48.5	-51.0	3.6	0.00e+00	0	30	104	0	60	43381
2026-01-11 22:49:42.78	175.61	46.07	-48.3	-50.9	3.6	0.00e+00	0	30	104	0	60	42874
2026-01-11 22:49:45.81	176.55	44.71	-48.4	-51.0	3.6	0.00e+00	0	30	104	0	60	43372
2026-01-11 22:49:48.84	177.42	43.39	-48.2	-50.7	3.6	0.00e+00	0	30	104	0	60	42103
2026-01-11 22:49:51.87	178.22	42.11	-48.4	-50.9	3.6	0.00e+00	0	30	104	0	60	43019
2026-01-11 22:49:54.90	178.95	40.88	-48.5	-51.1	3.6	0.00e+00	0	30	104	0	60	43874
2026-01-11 22:49:57.92	179.63	39.69	-48.5	-51.0	3.6	0.00e+00	0	30	104	0	60	43610
2026-01-11 22:50:00.95	180.27	38.53	-48.5	-51.0	3.6	0.00e+00	0	30	104	0	60	43277
2026-01-11 22:50:03.98	180.86	37.42	-48.4	-50.9	3.6	0.00e+00	0	30	104	0	60	43105
2026-01-11 22:50:07.01	181.41	36.35	-48.4	-50.9	3.6	0.00e+00	0	30	104	0	60	43153
2026-01-11 22:50:10.04	181.92	35.31	-48.3	-50.8	3.6	0.00e+00	0	30	104	0	60	42651
2026-01-11 22:50:13.06	182.40	34.31	-48.4	-50.9	3.6	0.00e+00	0	30	104	0	60	42827
2026-01-11 22:50:16.09	182.86	33.34	-48.2	-50.8	3.6	0.00e+00	0	30	104	0	60	42282
2026-01-11 22:50:19.12	183.28	32.41	-48.1	-50.6	3.6	0.00e+00	0	30	104	0	60	41663
2026-01-11 22:50:22.15	183.68	31.51	-48.2	-50.7	3.6	0.00e+00	0	30	104	0	60	41831
2026-01-11 22:50:25.18	184.06	30.63	-48.0	-50.6	3.6	0.00e+00	0	30	104	0	60	41475
2026-01-11 22:50:28.21	184.42	29.79	-47.7	-50.3	3.6	0.00e+00	0	30	104	0	60	40256
2026-01-11 22:50:31.23	184.76	28.98	-47.7	-50.3	3.6	0.00e+00	0	31	104	0	60	40007
2026-01-11 22:50:34.26	185.09	28.19	-47.7	-50.3	3.6	0.00e+00	0	31	104	0	60	40282
2026-01-11 22:50:37.29	185.39	27.42	-47.7	-50.3	3.6	0.00e+00	0	30	104	0	60	40097
2026-01-11 22:50:40.32	185.69	26.68	-48.0	-50.5	3.6	0.00e+00	0	31	104	0	60	41050
2026-01-11 22:50:43.35	185.96	25.96	-47.9	-50.5	3.6	0.00e+00	0	30	104	0	60	40963
2026-01-11 22:50:46.38	186.23	25.27	-47.9	-50.5	3.6	0.00e+00	0	31	104	0	60	41076
2026-01-11 22:50:49.40	186.48	24.60	-47.9	-50.5	3.6	0.00e+00	0	30	104	0	60	41202
2026-01-11 22:50:52.43	186.73	23.94	-47.9	-50.5	3.6	0.00e+00	0	30	104	0	60	40826
2026-01-11 22:50:55.46	186.96	23.31	-47.6	-50.2	3.6	0.00e+00	0	31	104	0	60	39540
2026-01-11 22:50:58.49	187.18	22.69	-47.8	-50.4	3.6	0.00e+00	0	31	104	0	60	40426
2026-01-11 22:51:01.51	187.39	22.09	-47.7	-50.3	3.6	0.00e+00	0	31	104	0	60	40212
2026-01-11 22:51:04.54	187.60	21.51	-47.4	-50.1	3.6	0.00e+00	0	31	104	0	60	39080
2026-01-11 22:51:07.57	187.80	20.94	-47.5	-50.2	3.6	0.00e+00	0	31	104	0	60	39477
2026-01-11 22:51:10.59	187.99	20.39	-47.9	-50.5	3.6	0.00e+00	0	31	104	0	60	40886
2026-01-11 22:51:13.63	188.17	19.85	-47.6	-50.2	3.6	0.00e+00	0	31	104	0	60	39564
2026-01-11 22:51:16.65	188.35	19.33	-47.9	-50.5	3.6	0.00e+00	0	31	104	0	60	41001
2026-01-11 22:51:19.68	188.51	18.82	-47.9	-50.5	3.6	0.00e+00	0	31	104	0	60	40797
2026-01-11 22:51:22.70	188.68	18.32	-48.0	-50.5	3.6	0.00e+00	0	31	104	0	60	41152
2026-01-11 22:51:25.73	188.84	17.84	-47.8	-50.4	3.6	0.00e+00	0	31	104	0	60	40633
2026-01-11 22:51:28.76	188.99	17.37	-47.8	-50.4	3.6	0.00e+00	0	31	104	0	60	40474
2026-01-11 22:51:31.79	189.14	16.91	-48.0	-50.5	3.6	0.00e+00	0	31	104	0	60	41208
2026-01-11 22:51:34.82	189.28	16.45	-47.9	-50.5	3.6	0.00e+00	0	31	104	0	60	40906
2026-01-11 22:51:37.85	189.42	16.01	-47.8	-50.4	3.6	0.00e+00	0	31	104	0	60	40360
2026-01-11 22:51:40.87	189.55	15.58	-48.0	-50.5	3.6	0.00e+00	0	31	104	0	60	41231
2026-01-11 22:51:43.90	189.68	15.16	-48.1	-50.6	3.6	0.00e+00	0	31	104	0	60	41715
2026-01-11 22:51:46.93	189.81	14.75	-48.2	-50.7	3.6	0.00e+00	0	31	104	0	60	42066
2026-01-11 22:51:49.96	189.93	14.35	-48.1	-50.6	3.6	0.00e+00	0	31	104	0	60	41702
2026-01-11 22:51:52.98	190.05	13.95	-48.1	-50.6	3.6	0.00e+00	0	31	104	0	60	41504
2026-01-11 22:51:56.01	190.17	13.57	-48.0	-50.5	3.6	0.00e+00	0	31	104	0	60	41218
2026-01-11 22:51:59.04	190.28	13.19	-48.0	-50.5	3.6	0.00e+00	0	31	104	0	60	41255
2026-01-11 22:52:02.07	190.39	12.82	-47.9	-50.5	3.6	0.00e+00	0	31	104	0	60	40973
2026-01-11 22:52:05.10	190.50	12.45	-48.0	-50.6	3.6	0.00e+00	0	31	104	0	60	41341
2026-01-11 22:52:08.12	190.60	12.10	-48.1	-50.7	3.5	0.00e+00	0	31	104	0	60	41786
2026-01-11 22:52:11.15	190.70	11.75	-48.1	-50.6	3.6	0.00e+00	0	31	104	0	60	41722
2026-01-11 22:52:14.18	190.80	11.40	-48.0	-50.5	3.6	0.00e+00	0	31	104	0	60	41097
2026-01-11 22:52:17.21	190.90	11.06	-48.2	-50.7	3.6	0.00e+00	0	31	104	0	60	42023
2026-01-11 22:52:20.23	190.99	10.73	-48.0	-50.6	3.6	0.00e+00	0	31	104	0	60	41378
2026-01-11 22:52:23.26	191.08	10.41	-48.1	-50.6	3.6	0.00e+00	0	31	104	0	60	41555
2026-01-11 22:52:26.29	191.17	10.09	-48.1	-50.6	3.6	0.00e+00	0	31	104	0	60	41457
2026-01-11 22:52:29.31	191.26	9.77	-48.1	-50.6	3.6	0.00e+00	0	31	104	0	60	41528
2026-01-11 22:52:32.34	191.35	9.46	-48.0	-50.5	3.6	0.00e+00	0	31	104	0	60	40937
2026-01-11 22:52:35.37	191.43	9.16	-48.1	-50.5	3.6	0.00e+00	0	31	104	0	60	41197
2026-01-11 22:52:38.40	191.51	8.86	-48.0	-50.4	3.6	0.00e+00	0	31	104	0	60	40678
2026-01-11 22:52:41.43	191.59	8.56	-48.0	-50.5	3.6	0.00e+00	0	31	104	0	60	40980
2026-01-11 22:52:44.46	191.67	8.27	-47.8	-50.4	3.6	0.00e+00	0	31	104	0	60	40478
2026-01-11 22:52:47.48	191.75	7.98	-47.8	-50.3	3.6	0.00e+00	0	31	104	0	60	40207
2026-01-11 22:52:50.51	191.82	7.70	-47.9	-50.4	3.6	0.00e+00	0	31	104	0	60	40622
2026-01-11 22:52:53.54	191.89	7.42	-47.8	-50.3	3.6	0.00e+00	0	31	104	0	60	40321
2026-01-11 22:52:56.57	191.97	7.15	-47.8	-50.3	3.6	0.00e+00	0	31	104	0	60	39941
2026-01-11 22:52:59.60	192.04	6.88	-47.6	-50.1	3.6	0.00e+00	0	31	104	0	60	39377
2026-01-11 22:53:02.62	192.11	6.61	-47.5	-50.1	3.6	0.00e+00	0	31	104	0	60	39142
2026-01-11 22:53:05.65	192.17	6.35	-47.5	-50.1	3.6	0.00e+00	0	31	104	0	60	39197
2026-01-11 22:53:08.68	192.24	6.09	-47.7	-50.2	3.6	0.00e+00	0	31	104	0	60	39793
2026-01-11 22:53:11.71	192.31	5.84	-47.7	-50.2	3.6	0.00e+00	0	31	104	0	60	39781
2026-01-11 22:53:14.73	192.37	5.58	-47.7	-50.2	3.6	0.00e+00	0	31	104	0	60	39803
2026-01-11 22:53:17.76	192.43	5.33	-47.7	-50.2	3.6	0.00e+00	0	31	104	0	60	39676
2026-01-11 22:53:20.79	192.49	5.09	-47.7	-50.2	3.6	0.00e+00	0	31	104	0	60	39584
2026-01-11 22:53:23.81	192.56	4.84	-47.6	-50.1	3.6	0.00e+00	0	31	104	0	60	39130
2026-01-11 22:53:26.84	192.62	4.60	-47.6	-50.1	3.6	0.00e+00	0	31	104	0	60	39223
2026-01-11 22:53:29.86	192.67	4.37	-47.5	-50.1	3.6	0.00e+00	0	31	104	0	60	38974
2026-01-11 22:53:32.89	192.73	4.13	-47.6	-50.1	3.6	0.00e+00	0	31	104	0	60	39179
2026-01-11 22:53:35.92	192.79	3.90	-47.3	-49.8	3.6	0.00e+00	0	31	104	0	60	37960
2026-01-11 22:53:38.95	192.84	3.67	-47.4	-49.9	3.6	0.00e+00	0	31	104	0	60	38377
2026-01-11 22:53:41.98	192.90	3.44	-47.3	-49.8	3.6	0.00e+00	0	31	104	0	60	37799
2026-01-11 22:53:45.00	192.95	3.22	-47.5	-50.0	3.6	0.00e+00	0	31	104	0	60	38654
2026-01-11 22:53:48.03	193.01	3.00	-47.7	-50.2	3.6	0.00e+00	0	32	104	0	60	39467
2026-01-11 22:53:51.06	193.06	2.78	-48.5	-51.0	3.6	0.00e+00	0	32	104	0	60	43560
2026-01-11 22:53:54.08	193.11	2.56	-48.6	-51.1	3.6	0.00e+00	0	31	104	0	60	44074
2026-01-11 22:53:57.11	193.16	2.34	-48.4	-51.0	3.6	0.00e+00	0	32	104	0	60	43244
2026-01-11 22:54:00.14	193.21	2.13	-48.4	-50.9	3.6	0.00e+00	0	31	104	0	60	43198
2026-01-11 22:54:03.17	193.26	1.92	-48.6	-51.1	3.6	0.00e+00	0	32	104	0	60	43873
2026-01-11 22:54:06.19	193.31	1.71	-48.5	-51.0	3.6	0.00e+00	0	31	104	0	60	43447
2026-01-11 22:54:09.22	193.36	1.50	-48.5	-51.0	3.6	0.00e+00	0	32	104	0	60	43390
2026-01-11 22:54:12.25	193.40	1.30	-48.5	-51.0	3.6	0.00e+00	0	31	104	0	60	43338
2026-01-11 22:54:15.28	193.45	1.09	-48.5	-50.9	3.6	0.00e+00	0	32	104	0	60	43184
2026-01-11 22:54:18.31	193.50	0.89	-48.5	-51.0	3.6	0.00e+00	0	32	104	0	60	43331
2026-01-11 22:54:21.34	193.54	0.69	-48.5	-50.9	3.6	0.00e+00	0	32	104	0	60	43151
2026-01-11 22:54:24.36	193.59	0.49	-48.5	-51.0	3.6	0.00e+00	0	32	104	0	60	43231
2026-01-11 22:54:27.39	193.63	0.30	-48.5	-51.0	3.6	0.00e+00	0	32	104	0	60	43514
2026-01-11 22:54:30.42	193.67	0.10	-48.5	-51.0	3.5	0.00e+00	0	32	104	0	60	43425

#Closed at: 2026-01-11 22:54:32
#Recorded file [0 MB]: D:/lorett/data/35029_260112_104300.dat