passes_logs/2026/01/11/R4.6S_Anadyr/R4.6S_Anadyr__20260111_021514_SUOMI_NPP_rec.log

#Pass ID: 20260111_021514_SUOMI NPP
#Satellite: SUOMI NPP
#Configuration: NPP
#almurnet v.1.7.20251203
#Start time: 2026-01-11 02:15:15

#Version: 2.2.20231116
#Station: R4.6S_Anadyr
#Location: 177.4865 lon 64.73178 lat
#TLE: 1 37849U 11061A   26009.81756760  .00000113  00000+0  74747-4 0  9994
#TLE: 2 37849  98.7806 311.9110 0002525  72.5604 287.5848 14.19524046735974

#Time	Az	El	Level	Level2	SNR	BER	BlckErr	Temp	State	Recorded	gain1	gain2
2026-01-11 02:15:15.20	207.19	0.03	-47.9	-59.4	3.5	8.45e-01	0	27	0	0	60	33696
2026-01-11 02:15:19.23	207.44	0.25	-47.9	-63.2	3.6	1.51e+00	0	28	104	0	60	52184
2026-01-11 02:15:23.28	207.69	0.46	-48.0	-63.2	3.5	1.51e+00	0	29	104	0	60	52463
2026-01-11 02:15:27.31	207.95	0.68	-47.8	-63.0	3.6	1.51e+00	0	28	104	0	60	51070
2026-01-11 02:15:31.35	208.21	0.89	-46.9	-62.2	3.6	1.51e+00	0	29	104	0	60	46487
2026-01-11 02:15:35.39	208.48	1.11	-46.4	-61.5	3.6	1.51e+00	0	29	104	0	60	43129
2026-01-11 02:15:39.43	208.75	1.33	-46.5	-61.6	3.6	1.51e+00	0	29	104	0	60	43381
2026-01-11 02:15:43.47	209.02	1.55	-46.5	-61.6	3.6	1.51e+00	0	29	104	0	60	43434
2026-01-11 02:15:47.51	209.30	1.77	-46.5	-61.5	3.6	1.51e+00	0	29	104	0	60	43144
2026-01-11 02:15:51.55	209.58	2.00	-46.4	-61.4	3.6	1.51e+00	0	29	104	0	60	42599
2026-01-11 02:15:55.59	209.87	2.22	-46.5	-61.4	3.6	1.51e+00	0	29	104	0	60	42601
2026-01-11 02:15:59.63	210.15	2.45	-46.5	-60.9	3.6	1.51e+00	0	29	104	0	60	39963
2026-01-11 02:16:03.66	210.45	2.67	-46.4	-60.0	3.6	1.51e+00	0	29	104	0	60	36149
2026-01-11 02:16:07.70	210.75	2.90	-43.8	-47.3	13.2	1.63e-04	0	29	0	3145728	60	8373
2026-01-11 02:16:11.74	211.05	3.13	-42.1	-44.4	16.3	0.00e+00	46	29	0	10485760	56	7543
2026-01-11 02:16:15.77	211.35	3.36	-45.6	-52.6	5.8	0.00e+00	48	29	0	18874368	60	15434
2026-01-11 02:16:19.81	211.66	3.59	-39.8	-41.3	19.4	0.00e+00	92	29	0	20971520	52	6664
2026-01-11 02:16:23.85	211.98	3.82	-39.7	-41.1	19.7	0.00e+00	0	29	0	28311552	52	6466
2026-01-11 02:16:27.89	212.30	4.06	-39.3	-40.7	19.8	0.00e+00	92	29	0	35651584	52	6208
2026-01-11 02:16:31.93	212.63	4.29	-39.5	-40.8	19.9	0.00e+00	86	29	0	42991616	52	6313
2026-01-11 02:16:35.96	212.96	4.53	-39.5	-40.9	19.8	0.00e+00	0	29	0	50331648	52	6364
2026-01-11 02:16:40.00	213.29	4.77	-39.5	-40.9	19.8	0.00e+00	0	29	0	58720256	52	6355
2026-01-11 02:16:44.04	213.64	5.01	-39.6	-41.0	20.0	0.00e+00	92	29	0	66060288	52	6403
2026-01-11 02:16:48.08	213.98	5.25	-39.0	-40.3	20.5	0.00e+00	61	29	0	73400320	52	5907
2026-01-11 02:16:52.12	214.33	5.49	-39.1	-40.3	20.5	0.00e+00	0	29	0	80740352	52	5963
2026-01-11 02:16:56.16	214.69	5.73	-38.9	-40.1	20.8	0.00e+00	0	29	0	88080384	50	6507
2026-01-11 02:17:00.20	215.06	5.98	-38.5	-39.7	21.1	0.00e+00	50	29	0	96468992	50	6184
2026-01-11 02:17:04.23	215.42	6.22	-38.3	-39.4	21.3	0.00e+00	92	29	0	103809024	50	5994
2026-01-11 02:17:08.27	215.80	6.47	-38.6	-39.8	21.2	0.00e+00	0	29	0	111149056	50	6262
2026-01-11 02:17:12.31	216.18	6.72	-38.2	-39.3	21.4	0.00e+00	42	29	0	118489088	50	5960
2026-01-11 02:17:16.36	216.57	6.97	-38.2	-39.2	21.7	0.00e+00	70	29	0	126877696	50	5888
2026-01-11 02:17:20.40	216.97	7.22	-37.9	-39.0	21.9	0.00e+00	92	30	0	134217728	50	5706
2026-01-11 02:17:24.43	217.37	7.48	-37.9	-39.0	21.8	0.00e+00	0	30	0	141557760	50	5717
2026-01-11 02:17:28.47	217.77	7.73	-38.6	-39.8	21.2	0.00e+00	90	30	0	148897792	50	6284
2026-01-11 02:17:32.51	218.19	7.99	-38.6	-39.8	21.3	0.00e+00	90	30	0	157286400	50	6263
2026-01-11 02:17:36.55	218.61	8.24	-38.7	-39.8	21.2	0.00e+00	18	30	0	164626432	50	6302
2026-01-11 02:17:40.59	219.04	8.50	-38.8	-39.9	21.1	0.00e+00	0	30	0	171966464	50	6383
2026-01-11 02:17:44.63	219.48	8.76	-37.8	-38.9	22.0	0.00e+00	92	30	0	179306496	50	5648
2026-01-11 02:17:48.66	219.92	9.02	-37.7	-38.7	22.2	0.00e+00	92	30	0	186646528	48	6218
2026-01-11 02:17:52.70	220.37	9.28	-37.8	-38.8	22.1	0.00e+00	0	30	0	195035136	48	6265
2026-01-11 02:17:56.74	220.83	9.55	-37.8	-38.8	22.0	0.00e+00	49	30	0	202375168	48	6283
2026-01-11 02:18:00.78	221.30	9.81	-38.2	-39.3	21.7	0.00e+00	63	30	0	209715200	48	6622
2026-01-11 02:18:04.82	221.77	10.08	-38.7	-39.8	21.4	0.00e+00	92	30	0	217055232	50	6281
2026-01-11 02:18:08.85	222.26	10.34	-38.0	-39.1	21.8	0.00e+00	0	30	0	224395264	50	5799
2026-01-11 02:18:12.89	222.75	10.61	-38.7	-39.9	21.3	0.00e+00	90	30	0	232783872	50	6326
2026-01-11 02:18:16.93	223.25	10.88	-38.5	-39.6	21.5	0.00e+00	90	30	0	240123904	50	6135
2026-01-11 02:18:20.97	223.76	11.15	-38.2	-39.3	21.7	0.00e+00	0	30	0	247463936	50	5907
2026-01-11 02:18:25.01	224.28	11.42	-37.8	-38.8	22.2	0.00e+00	0	30	0	254803968	48	6273
2026-01-11 02:18:29.05	224.81	11.69	-37.6	-38.6	22.3	0.00e+00	92	30	0	263192576	48	6139
2026-01-11 02:18:33.09	225.35	11.97	-37.2	-38.1	22.8	0.00e+00	92	30	0	270532608	48	5803
2026-01-11 02:18:37.13	225.90	12.24	-37.1	-38.1	22.9	0.00e+00	0	30	0	277872640	48	5771
2026-01-11 02:18:41.17	226.46	12.52	-37.4	-38.4	22.6	0.00e+00	0	30	0	285212672	48	5990
2026-01-11 02:18:45.21	227.03	12.79	-37.2	-38.2	22.7	0.00e+00	90	30	0	293601280	48	5874
2026-01-11 02:18:49.25	227.60	13.07	-37.4	-38.4	22.6	0.00e+00	92	30	0	300941312	48	6003
2026-01-11 02:18:53.29	228.19	13.34	-37.7	-38.8	22.1	0.00e+00	0	30	0	308281344	48	6256
2026-01-11 02:18:57.33	228.79	13.62	-37.9	-38.9	22.2	0.00e+00	51	30	0	315621376	48	6341
2026-01-11 02:19:01.37	229.41	13.89	-37.1	-38.0	22.8	0.00e+00	70	30	0	322961408	48	5756
2026-01-11 02:19:05.41	230.03	14.17	-36.6	-37.6	23.2	0.00e+00	92	30	0	331350016	46	6111
2026-01-11 02:19:09.45	230.66	14.45	-36.7	-37.6	23.2	0.00e+00	0	30	0	338690048	46	6131
2026-01-11 02:19:13.49	231.31	14.72	-36.6	-37.5	23.3	0.00e+00	91	30	0	346030080	46	6049
2026-01-11 02:19:17.52	231.96	15.00	-36.7	-37.6	23.3	0.00e+00	91	30	0	353370112	46	6119
2026-01-11 02:19:21.56	232.63	15.28	-37.3	-38.2	22.8	0.00e+00	0	30	0	361758720	46	6597
2026-01-11 02:19:25.60	233.31	15.55	-37.1	-38.0	23.0	0.00e+00	0	30	0	369098752	46	6424
2026-01-11 02:19:29.64	234.00	15.82	-36.6	-37.5	23.3	0.00e+00	50	30	0	376438784	46	6070
2026-01-11 02:19:33.68	234.71	16.10	-36.5	-37.4	23.4	0.00e+00	92	30	0	383778816	46	6019
2026-01-11 02:19:37.72	235.43	16.37	-36.3	-37.2	23.5	0.00e+00	0	30	0	391118848	46	5839
2026-01-11 02:19:41.76	236.16	16.64	-35.9	-36.7	24.0	0.00e+00	50	30	0	399507456	46	5561
2026-01-11 02:19:45.80	236.90	16.91	-35.8	-36.7	23.9	0.00e+00	92	30	0	406847488	44	6207
2026-01-11 02:19:49.84	237.66	17.18	-36.1	-37.0	23.7	0.00e+00	92	30	0	414187520	44	6451
2026-01-11 02:19:53.88	238.43	17.45	-36.2	-37.1	23.6	0.00e+00	0	30	0	421527552	44	6481
2026-01-11 02:19:57.92	239.21	17.71	-36.2	-37.1	23.9	0.00e+00	92	30	0	429916160	44	6468
2026-01-11 02:20:01.95	240.00	17.97	-36.5	-37.4	23.4	0.00e+00	92	30	0	437256192	44	6703
2026-01-11 02:20:05.98	240.81	18.23	-36.5	-37.4	23.3	0.00e+00	0	30	0	444596224	44	6757
2026-01-11 02:20:10.02	241.63	18.49	-36.4	-37.3	23.5	0.00e+00	0	30	0	451936256	44	6618
2026-01-11 02:20:14.06	242.47	18.74	-36.2	-37.1	23.6	0.00e+00	90	30	0	459276288	44	6523
2026-01-11 02:20:18.10	243.32	18.99	-37.0	-37.9	23.1	0.00e+00	74	30	0	467664896	46	6358
2026-01-11 02:20:22.14	244.18	19.23	-36.6	-37.5	23.2	0.00e+00	0	30	0	475004928	46	6095
2026-01-11 02:20:26.18	245.06	19.47	-37.3	-38.2	22.8	0.00e+00	0	30	0	482344960	46	6614
2026-01-11 02:20:30.22	245.95	19.71	-37.5	-38.4	22.8	0.00e+00	51	30	0	489684992	48	6033
2026-01-11 02:20:34.26	246.85	19.94	-37.4	-38.5	22.7	0.00e+00	92	30	0	497025024	48	6036
2026-01-11 02:20:38.30	247.77	20.17	-37.8	-38.8	22.4	0.00e+00	0	30	0	505413632	48	6255
2026-01-11 02:20:42.33	248.70	20.39	-37.5	-38.4	22.6	0.00e+00	91	30	0	512753664	48	6015
2026-01-11 02:20:46.37	249.64	20.61	-37.2	-38.2	22.9	0.00e+00	76	30	0	520093696	48	5853
2026-01-11 02:20:50.40	250.60	20.82	-37.9	-38.9	22.3	0.00e+00	90	30	0	527433728	48	6372
2026-01-11 02:20:54.44	251.56	21.02	-37.1	-38.1	23.0	0.00e+00	0	30	0	535822336	48	5769
2026-01-11 02:20:58.48	252.55	21.22	-36.3	-37.2	23.5	0.00e+00	91	30	0	543162368	46	5881
2026-01-11 02:21:02.52	253.54	21.41	-37.0	-37.9	23.0	0.00e+00	92	30	0	550502400	46	6360
2026-01-11 02:21:06.56	254.54	21.60	-38.0	-39.0	22.2	0.00e+00	0	30	0	557842432	48	6435
2026-01-11 02:21:10.60	255.56	21.77	-36.7	-37.6	22.6	0.00e+00	0	30	0	565182464	46	6151
2026-01-11 02:21:14.64	256.59	21.94	-37.4	-38.4	22.7	0.00e+00	90	30	0	573571072	46	6702
2026-01-11 02:21:18.67	257.62	22.10	-37.3	-38.2	22.8	0.00e+00	92	30	0	580911104	46	6576
2026-01-11 02:21:22.70	258.67	22.25	-37.1	-38.1	23.0	0.00e+00	0	30	0	588251136	48	5787
2026-01-11 02:21:26.74	259.72	22.39	-37.2	-38.1	22.8	0.00e+00	52	30	0	595591168	46	6502
2026-01-11 02:21:30.78	260.79	22.52	-37.7	-38.6	22.5	0.00e+00	90	30	0	603979776	48	6172
2026-01-11 02:21:34.82	261.86	22.65	-37.1	-38.0	22.9	0.00e+00	91	30	0	611319808	48	5738
2026-01-11 02:21:38.86	262.95	22.76	-37.4	-38.4	22.7	0.00e+00	0	30	0	618659840	48	5980
2026-01-11 02:21:42.90	264.04	22.86	-37.7	-38.7	22.5	0.00e+00	92	30	0	625999872	48	6174
2026-01-11 02:21:46.94	265.13	22.96	-38.3	-39.4	21.9	0.00e+00	92	30	0	633339904	48	6699
2026-01-11 02:21:50.98	266.24	23.04	-37.6	-38.6	22.6	0.00e+00	0	30	0	641728512	48	6135
2026-01-11 02:21:55.02	267.34	23.11	-36.8	-37.7	23.2	0.00e+00	0	30	0	649068544	48	5545
2026-01-11 02:21:59.06	268.46	23.17	-36.7	-37.7	23.2	0.00e+00	92	30	0	656408576	46	6179
2026-01-11 02:22:03.09	269.57	23.22	-37.0	-38.0	23.1	0.00e+00	71	30	0	663748608	46	6405
2026-01-11 02:22:07.13	270.69	23.26	-37.2	-38.2	22.9	0.00e+00	0	30	0	672137216	46	6563
2026-01-11 02:22:11.16	271.81	23.29	-36.6	-37.5	23.5	0.00e+00	41	30	0	679477248	46	6047
2026-01-11 02:22:15.20	272.93	23.31	-37.4	-38.4	22.8	0.00e+00	51	30	0	686817280	46	6693
2026-01-11 02:22:19.24	274.06	23.32	-36.8	-37.7	23.3	0.00e+00	92	30	0	694157312	46	6193
2026-01-11 02:22:23.28	275.18	23.31	-37.0	-37.9	23.0	0.00e+00	0	30	0	701497344	46	6354
2026-01-11 02:22:27.31	276.30	23.29	-36.9	-37.8	23.2	0.00e+00	92	30	0	709885952	46	6259
2026-01-11 02:22:31.36	277.42	23.27	-36.5	-37.4	23.5	0.00e+00	92	30	0	717225984	46	5981
2026-01-11 02:22:35.40	278.54	23.23	-36.7	-37.7	23.1	0.00e+00	0	30	0	724566016	46	6174
2026-01-11 02:22:39.43	279.66	23.18	-36.1	-36.9	23.9	0.00e+00	0	30	0	731906048	46	5661
2026-01-11 02:22:43.47	280.77	23.12	-35.9	-36.7	24.0	0.00e+00	75	30	0	740294656	44	6223
2026-01-11 02:22:47.52	281.88	23.05	-36.2	-37.1	23.6	0.00e+00	92	30	0	747634688	44	6467
2026-01-11 02:22:51.55	282.98	22.96	-36.5	-37.4	23.5	0.00e+00	0	30	0	754974720	44	6714
2026-01-11 02:22:55.59	284.07	22.87	-36.8	-37.6	23.3	0.00e+00	0	30	0	762314752	46	6165
2026-01-11 02:22:59.63	285.16	22.77	-36.7	-37.6	23.3	0.00e+00	80	30	0	769654784	46	6154
2026-01-11 02:23:03.67	286.24	22.66	-37.1	-38.0	22.8	0.00e+00	87	30	0	778043392	46	6414
2026-01-11 02:23:07.70	287.31	22.53	-35.6	-36.4	24.2	0.00e+00	0	30	0	785383424	44	5981
2026-01-11 02:23:11.74	288.38	22.40	-35.5	-36.3	24.3	0.00e+00	56	30	0	792723456	44	5906
2026-01-11 02:23:15.78	289.43	22.26	-35.2	-36.0	24.5	0.00e+00	92	31	0	800063488	44	5706
2026-01-11 02:23:19.82	290.48	22.11	-35.5	-36.3	24.3	0.00e+00	0	31	0	808452096	44	5920
2026-01-11 02:23:23.85	291.51	21.96	-35.5	-36.4	24.3	0.00e+00	0	31	0	815792128	44	5974
2026-01-11 02:23:27.89	292.54	21.79	-35.7	-36.5	24.1	0.00e+00	92	31	0	823132160	44	6062
2026-01-11 02:23:31.93	293.55	21.61	-35.3	-36.1	24.3	0.00e+00	92	31	0	830472192	44	5807
2026-01-11 02:23:35.97	294.55	21.43	-34.8	-35.6	24.8	0.00e+00	0	31	0	837812224	44	5482
2026-01-11 02:23:40.01	295.54	21.24	-34.9	-35.7	24.7	0.00e+00	0	30	0	846200832	42	6245
2026-01-11 02:23:44.04	296.52	21.05	-35.5	-36.4	24.3	0.00e+00	11	31	0	853540864	42	6708
2026-01-11 02:23:48.08	297.49	20.85	-35.4	-36.3	24.1	0.00e+00	45	30	0	860880896	42	6617
2026-01-11 02:23:52.13	298.44	20.64	-35.9	-36.8	23.8	0.00e+00	0	30	0	868220928	44	6253
2026-01-11 02:23:56.16	299.38	20.42	-35.5	-36.3	24.2	0.00e+00	48	31	0	875560960	44	5924
2026-01-11 02:24:00.20	300.31	20.20	-35.4	-36.2	24.3	0.00e+00	82	30	0	883949568	44	5873
2026-01-11 02:24:04.24	301.22	19.98	-36.7	-37.6	22.9	0.00e+00	0	31	0	891289600	44	6865
2026-01-11 02:24:08.28	302.13	19.75	-37.2	-38.1	22.8	0.00e+00	0	30	0	898629632	48	5823
2026-01-11 02:24:12.32	303.01	19.51	-37.0	-37.9	23.0	0.00e+00	92	30	0	905969664	46	6372
2026-01-11 02:24:16.36	303.89	19.27	-36.5	-37.4	23.4	0.00e+00	91	31	0	914358272	46	6010
2026-01-11 02:24:20.40	304.75	19.03	-36.8	-37.7	23.2	0.00e+00	0	31	0	921698304	46	6211
2026-01-11 02:24:24.44	305.60	18.78	-36.7	-37.6	23.3	0.00e+00	0	31	0	929038336	46	6143
2026-01-11 02:24:28.48	306.43	18.53	-37.7	-38.7	22.3	0.00e+00	35	31	0	936378368	48	6201
2026-01-11 02:24:32.52	307.25	18.27	-38.2	-39.2	21.9	0.00e+00	41	31	0	944766976	48	6599
2026-01-11 02:24:36.56	308.06	18.02	-37.3	-38.3	22.7	0.00e+00	0	31	0	952107008	48	5950
2026-01-11 02:24:40.60	308.85	17.76	-37.7	-38.7	22.4	0.00e+00	17	31	0	959447040	48	6200
2026-01-11 02:24:44.64	309.64	17.50	-37.0	-37.9	22.9	0.00e+00	71	31	0	966787072	48	5683
2026-01-11 02:24:48.68	310.40	17.23	-37.1	-38.1	22.7	0.00e+00	0	31	0	974127104	46	6510
2026-01-11 02:24:52.72	311.16	16.97	-36.7	-37.7	23.0	0.00e+00	0	30	0	982515712	46	6203
2026-01-11 02:24:56.75	311.90	16.70	-37.2	-38.2	22.6	0.00e+00	66	30	0	989855744	46	6566
2026-01-11 02:25:00.79	312.63	16.43	-37.7	-38.7	22.3	0.00e+00	91	30	0	997195776	48	6208
2026-01-11 02:25:04.83	313.34	16.16	-36.4	-37.3	23.3	0.00e+00	0	31	0	1004535808	46	5919
2026-01-11 02:25:08.87	314.05	15.89	-36.9	-37.8	22.9	0.00e+00	0	30	0	1012924416	46	6289
2026-01-11 02:25:12.91	314.74	15.62	-37.1	-38.1	22.6	0.00e+00	23	31	0	1020264448	46	6487
2026-01-11 02:25:16.95	315.42	15.34	-37.2	-38.2	22.6	0.00e+00	79	30	0	1027604480	46	6587
2026-01-11 02:25:20.98	316.08	15.07	-37.7	-38.8	22.1	0.00e+00	0	30	0	1034944512	48	6271
2026-01-11 02:25:25.03	316.74	14.80	-36.7	-37.7	22.9	0.00e+00	21	30	0	1042284544	46	6207
2026-01-11 02:25:29.06	317.38	14.52	-36.4	-37.3	23.3	0.00e+00	91	30	0	1050673152	46	5936
2026-01-11 02:25:33.10	318.02	14.25	-36.3	-37.2	23.4	0.00e+00	0	30	0	1058013184	46	5881
2026-01-11 02:25:37.14	318.64	13.97	-35.9	-36.8	23.7	0.00e+00	33	30	0	1065353216	46	5600
2026-01-11 02:25:41.18	319.25	13.70	-36.2	-37.1	23.3	0.00e+00	45	30	0	1072693248	44	6521
2026-01-11 02:25:45.22	319.85	13.43	-37.1	-38.1	22.6	0.00e+00	0	30	0	1081081856	46	6531
2026-01-11 02:25:49.26	320.44	13.15	-37.1	-38.1	22.7	0.00e+00	0	30	0	1088421888	46	6491
2026-01-11 02:25:53.30	321.02	12.88	-37.7	-38.7	22.1	0.00e+00	0	30	0	1095761920	46	6980
2026-01-11 02:25:57.33	321.58	12.61	-37.6	-38.7	22.1	0.00e+00	74	30	0	1103101952	48	6188
2026-01-11 02:26:01.37	322.14	12.34	-36.8	-37.7	22.9	0.00e+00	0	30	0	1110441984	46	6214
2026-01-11 02:26:05.41	322.69	12.06	-36.7	-37.6	22.9	0.00e+00	0	30	0	1118830592	46	6144
2026-01-11 02:26:09.45	323.23	11.79	-37.2	-38.2	22.1	0.00e+00	0	30	0	1126170624	46	6564
2026-01-11 02:26:13.49	323.76	11.52	-37.3	-38.4	22.3	0.00e+00	92	30	0	1133510656	46	6702
2026-01-11 02:26:17.52	324.28	11.26	-38.0	-39.1	21.5	0.00e+00	0	30	0	1140850688	48	6530
2026-01-11 02:26:21.56	324.79	10.99	-38.6	-39.8	21.1	0.00e+00	0	30	0	1149239296	50	6310
2026-01-11 02:26:25.60	325.29	10.72	-37.9	-39.0	21.8	0.00e+00	41	30	0	1156579328	50	5737
2026-01-11 02:26:29.64	325.78	10.45	-36.8	-37.8	22.7	0.00e+00	41	30	0	1163919360	48	5594
2026-01-11 02:26:33.68	326.27	10.19	-36.7	-37.7	22.8	0.00e+00	0	30	0	1171259392	46	6176
2026-01-11 02:26:37.71	326.74	9.93	-37.6	-38.6	22.0	0.00e+00	0	30	0	1178599424	46	6918
2026-01-11 02:26:41.75	327.21	9.66	-37.8	-38.9	21.7	0.00e+00	43	30	0	1186988032	48	6333
2026-01-11 02:26:45.79	327.67	9.40	-38.3	-39.5	21.3	0.00e+00	0	30	0	1194328064	48	6776
2026-01-11 02:26:49.83	328.12	9.14	-38.6	-39.8	20.9	0.00e+00	0	30	0	1201668096	48	7048
2026-01-11 02:26:53.87	328.57	8.88	-38.8	-40.0	20.8	0.00e+00	0	30	0	1209008128	50	6437
2026-01-11 02:26:57.90	329.00	8.63	-38.3	-39.4	21.3	0.00e+00	64	30	0	1216348160	50	6021
2026-01-11 02:27:01.94	329.43	8.37	-38.5	-39.7	21.0	0.00e+00	0	30	0	1224736768	50	6224
2026-01-11 02:27:05.98	329.86	8.12	-38.5	-39.7	20.9	0.00e+00	0	29	0	1232076800	50	6207
2026-01-11 02:27:10.02	330.27	7.86	-39.0	-40.3	20.2	0.00e+00	0	29	0	1239416832	50	6675
2026-01-11 02:27:14.06	330.68	7.61	-38.5	-39.7	21.0	0.00e+00	68	30	0	1246756864	50	6184
2026-01-11 02:27:18.09	331.08	7.36	-38.5	-39.6	20.9	0.00e+00	0	29	0	1255145472	50	6168
2026-01-11 02:27:22.13	331.48	7.11	-38.0	-39.2	21.3	0.00e+00	0	29	0	1262485504	50	5843
2026-01-11 02:27:26.17	331.87	6.86	-38.2	-39.4	21.1	0.00e+00	71	29	0	1269825536	50	5996
2026-01-11 02:27:30.22	332.25	6.61	-38.8	-40.0	20.4	0.00e+00	0	29	0	1277165568	50	6462
2026-01-11 02:27:34.26	332.63	6.37	-39.0	-40.4	20.1	0.00e+00	0	29	0	1284505600	50	6719
2026-01-11 02:27:38.29	333.00	6.12	-38.7	-40.1	20.2	0.00e+00	0	29	0	1292894208	50	6495
2026-01-11 02:27:42.33	333.37	5.88	-39.0	-40.5	19.6	0.00e+00	90	29	0	1300234240	50	6786
2026-01-11 02:27:46.37	333.73	5.64	-40.0	-41.9	17.6	0.00e+00	0	29	0	1307574272	52	7118
2026-01-11 02:27:50.40	334.08	5.40	-41.3	-44.6	13.6	1.50e-06	0	29	0	1314914304	54	8670
2026-01-11 02:27:54.45	334.43	5.16	-42.4	-48.0	9.2	7.68e-03	0	29	0	1323302912	56	11399
2026-01-11 02:27:58.48	334.77	4.92	-42.6	-50.3	5.9	2.95e-01	56	29	0	1330642944	56	14899
2026-01-11 02:28:02.52	335.11	4.69	-42.7	-52.3	4.3	9.11e-01	0	29	0	1337982976	56	18799
2026-01-11 02:28:06.56	335.44	4.45	-42.7	-54.7	4.0	1.47e+00	0	29	104	1342177280	58	22085
2026-01-11 02:28:10.60	335.77	4.22	-42.8	-55.4	3.8	1.48e+00	0	29	104	1342177280	58	23751
2026-01-11 02:28:14.64	336.10	3.98	-42.7	-56.1	3.6	1.51e+00	0	29	104	1342177280	58	25983
2026-01-11 02:28:18.67	336.41	3.75	-42.5	-57.7	3.5	1.51e+00	0	29	104	1342177280	58	31187
2026-01-11 02:28:22.71	336.73	3.52	-42.6	-57.4	3.6	1.51e+00	0	29	104	1342177280	58	30195
2026-01-11 02:28:26.75	337.04	3.30	-42.6	-57.8	3.6	1.51e+00	0	29	104	1342177280	58	31491
2026-01-11 02:28:30.79	337.34	3.07	-42.5	-57.8	3.5	1.51e+00	0	29	104	1342177280	58	31396
2026-01-11 02:28:34.83	337.64	2.84	-47.3	-62.4	3.6	1.51e+00	0	29	104	1342177280	60	47763
2026-01-11 02:28:38.87	337.94	2.62	-47.9	-63.1	3.6	1.51e+00	0	29	104	1342177280	60	51697
2026-01-11 02:28:42.91	338.23	2.39	-47.5	-63.1	3.6	1.51e+00	0	29	104	1342177280	60	51786
2026-01-11 02:28:46.95	338.52	2.17	-47.9	-63.1	3.6	1.51e+00	0	29	104	1342177280	60	51516
2026-01-11 02:28:50.99	338.80	1.95	-47.9	-63.0	3.6	1.51e+00	0	29	104	1342177280	60	51318
2026-01-11 02:28:55.03	339.08	1.73	-47.8	-63.1	3.6	1.51e+00	0	29	104	1342177280	60	51430
2026-01-11 02:28:59.07	339.36	1.51	-47.9	-63.1	3.6	1.51e+00	0	29	104	1342177280	60	51671
2026-01-11 02:29:03.11	339.63	1.29	-47.8	-63.0	3.6	1.51e+00	0	29	104	1342177280	60	51310
2026-01-11 02:29:07.15	339.90	1.08	-47.9	-63.1	3.6	1.51e+00	0	29	104	1342177280	60	51762
2026-01-11 02:29:11.19	340.17	0.86	-47.8	-63.0	3.6	1.51e+00	0	29	104	1342177280	60	51145
2026-01-11 02:29:15.23	340.43	0.65	-47.8	-63.0	3.6	1.51e+00	0	29	104	1342177280	60	50859
2026-01-11 02:29:19.27	340.69	0.43	-47.8	-63.0	3.6	1.51e+00	0	29	104	1342177280	60	51343
2026-01-11 02:29:23.31	340.94	0.22	-47.9	-63.1	3.6	1.51e+00	0	29	104	1342177280	60	51715
2026-01-11 02:29:27.35	341.19	0.01	-47.8	-63.0	3.6	1.51e+00	0	29	104	1342177280	60	51128

#Closed at: 2026-01-11 02:29:30
#Recorded file [1342 MB]: D:/lorett/data/35029_260111_141515.dat