passes_logs/2026/01/11/R4.6S_Anadyr/R4.6S_Anadyr__20260111_161242_AQUA_rec.log

#Pass ID: 20260111_161242_AQUA
#Satellite: AQUA
#Configuration: AQUA
#almurnet v.1.7.20251203
#Start time: 2026-01-11 16:12:44

#Version: 2.2.20231116
#Station: R4.6S_Anadyr
#Location: 177.4865 lon 64.73178 lat
#TLE: 1 27424U 02022A   26010.91777001  .00001106  00000+0  23130-3 0  9995
#TLE: 2 27424  98.4077 337.2768 0002031  83.1713 340.5382 14.61814337260293

#Time	Az	El	Level	Level2	SNR	BER	BlckErr	Temp	State	Recorded	gain1	gain2
2026-01-11 16:12:44.44	19.71	0.11	-48.1	-60.6	3.4	1.51e+00	0	27	0	0	60	37621
2026-01-11 16:12:48.47	19.75	0.36	-48.5	-66.4	3.5	3.03e+01	0	28	104	0	60	80407
2026-01-11 16:12:52.51	19.79	0.61	-48.4	-66.4	3.5	3.03e+01	0	28	104	0	60	80246
2026-01-11 16:12:56.55	19.83	0.86	-48.0	-66.0	3.5	3.03e+01	0	29	104	0	60	76426
2026-01-11 16:13:00.58	19.88	1.12	-47.1	-64.9	3.5	3.03e+01	0	29	104	0	60	67608
2026-01-11 16:13:04.62	19.92	1.38	-47.1	-64.9	3.5	3.03e+01	0	29	104	0	60	67873
2026-01-11 16:13:08.66	19.96	1.64	-47.1	-64.9	3.5	3.03e+01	0	29	104	0	60	67527
2026-01-11 16:13:12.70	20.01	1.90	-47.1	-64.9	3.5	3.03e+01	0	29	104	0	60	67673
2026-01-11 16:13:16.74	20.05	2.17	-47.1	-64.9	3.5	3.03e+01	0	29	104	0	60	67489
2026-01-11 16:13:20.77	20.10	2.44	-47.0	-64.7	3.5	3.03e+01	0	29	104	0	60	66250
2026-01-11 16:13:24.81	20.15	2.71	-46.7	-63.1	3.5	3.03e+01	0	29	104	0	60	54939
2026-01-11 16:13:28.86	20.19	2.99	-46.2	-61.2	3.5	3.03e+01	0	29	104	0	60	44367
2026-01-11 16:13:32.89	20.24	3.26	-42.2	-53.6	3.5	3.03e+01	0	29	104	0	60	18439
2026-01-11 16:13:36.93	20.29	3.54	-39.8	-50.5	3.5	3.03e+01	0	29	104	0	54	18260
2026-01-11 16:13:40.97	20.34	3.83	-41.9	-53.2	3.4	3.03e+01	0	29	104	0	56	22114
2026-01-11 16:13:45.01	20.39	4.12	-46.9	-64.6	3.5	3.03e+01	0	29	104	0	60	65311
2026-01-11 16:13:49.05	20.44	4.41	-42.2	-53.6	3.5	3.03e+01	0	29	104	0	58	20624
2026-01-11 16:13:53.09	20.49	4.70	-42.6	-54.2	3.5	3.03e+01	0	29	104	0	58	22127
2026-01-11 16:13:57.13	20.54	5.00	-39.4	-50.0	3.5	3.03e+01	0	29	104	0	54	17285
2026-01-11 16:14:01.16	20.59	5.30	-46.9	-62.7	3.5	3.03e+01	0	29	104	0	60	52462
2026-01-11 16:14:05.20	20.64	5.61	-47.2	-64.6	3.5	3.03e+01	0	29	104	0	60	65068
2026-01-11 16:14:09.24	20.70	5.92	-36.7	-47.0	3.5	3.03e+01	0	29	104	0	48	17247
2026-01-11 16:14:13.28	20.75	6.23	-40.1	-50.9	3.5	3.03e+01	0	29	104	0	56	17008
2026-01-11 16:14:17.32	20.81	6.55	-40.6	-51.4	3.5	3.03e+01	0	29	104	0	56	17949
2026-01-11 16:14:21.36	20.87	6.88	-47.1	-63.2	3.5	3.03e+01	0	29	104	0	60	55660
2026-01-11 16:14:25.39	20.92	7.20	-40.0	-50.7	3.5	3.03e+01	0	29	104	0	56	16648
2026-01-11 16:14:29.43	20.98	7.54	-38.4	-49.0	3.5	3.03e+01	0	29	104	0	52	17143
2026-01-11 16:14:33.47	21.04	7.87	-36.4	-46.6	3.5	3.03e+01	0	29	104	0	48	16482
2026-01-11 16:14:37.51	21.10	8.22	-37.0	-47.3	3.5	3.03e+01	0	29	104	0	50	15907
2026-01-11 16:14:41.55	21.16	8.56	-47.2	-63.4	3.5	3.03e+01	0	29	104	0	60	56635
2026-01-11 16:14:45.58	21.23	8.92	-37.6	-48.0	3.5	3.03e+01	0	29	104	0	50	17279
2026-01-11 16:14:49.62	21.29	9.28	-40.0	-50.8	3.4	3.03e+01	0	29	104	0	52	21037
2026-01-11 16:14:53.66	21.36	9.64	-37.3	-47.6	3.5	3.03e+01	0	29	104	0	50	16386
2026-01-11 16:14:57.69	21.42	10.01	-39.7	-50.4	3.5	3.03e+01	0	29	104	0	56	15975
2026-01-11 16:15:01.73	21.49	10.39	-35.8	-46.0	3.5	3.03e+01	0	29	104	0	46	17241
2026-01-11 16:15:05.78	21.56	10.77	-45.2	-57.8	3.5	3.03e+01	0	29	104	0	58	33392
2026-01-11 16:15:09.82	21.63	11.16	-38.7	-49.3	3.5	3.03e+01	0	29	104	0	54	15863
2026-01-11 16:15:13.86	21.70	11.56	-43.2	-54.7	3.5	3.03e+01	0	29	104	0	60	20804
2026-01-11 16:15:17.90	21.78	11.96	-37.7	-48.0	3.5	3.03e+01	0	29	104	0	50	17257
2026-01-11 16:15:21.94	21.85	12.38	-39.0	-49.5	3.5	3.03e+01	0	29	104	0	50	20447
2026-01-11 16:15:25.98	21.93	12.80	-47.9	-65.8	3.5	3.03e+01	0	29	104	0	60	75124
2026-01-11 16:15:30.02	22.01	13.22	-35.4	-45.6	3.5	3.03e+01	0	29	104	0	46	16350
2026-01-11 16:15:34.05	22.09	13.66	-38.1	-48.5	3.5	3.03e+01	0	29	104	0	52	16205
2026-01-11 16:15:38.09	22.18	14.11	-35.8	-46.0	3.5	3.03e+01	0	29	104	0	46	17236
2026-01-11 16:15:42.14	22.26	14.56	-47.6	-64.1	3.5	3.03e+01	0	29	104	0	60	61765
2026-01-11 16:15:46.18	22.35	15.03	-36.6	-46.9	3.6	3.03e+01	0	29	104	0	48	16963
2026-01-11 16:15:50.21	22.44	15.50	-40.6	-51.4	3.5	3.03e+01	0	29	104	0	58	16054
2026-01-11 16:15:54.25	22.53	15.98	-36.4	-46.8	3.5	3.03e+01	0	29	104	0	48	16733
2026-01-11 16:15:58.28	22.63	16.48	-41.7	-52.8	3.6	3.03e+01	0	29	104	0	60	16743
2026-01-11 16:16:02.32	22.73	16.99	-47.8	-64.4	3.5	3.03e+01	0	29	104	0	60	64012
2026-01-11 16:16:06.37	22.83	17.51	-36.2	-46.5	3.5	3.03e+01	0	29	104	0	48	16149
2026-01-11 16:16:10.41	22.94	18.04	-36.7	-46.9	3.5	3.03e+01	0	29	104	0	50	15201
2026-01-11 16:16:14.45	23.04	18.58	-35.2	-45.4	3.5	3.03e+01	0	29	104	0	46	15979
2026-01-11 16:16:18.48	23.16	19.14	-43.3	-54.7	3.6	3.03e+01	0	29	104	0	60	20829
2026-01-11 16:16:22.52	23.27	19.71	-34.6	-44.8	3.5	3.03e+01	0	29	104	0	44	16716
2026-01-11 16:16:26.56	23.39	20.30	-38.0	-48.3	3.5	3.03e+01	0	29	104	0	50	17839
2026-01-11 16:16:30.60	23.51	20.90	-37.4	-47.7	3.5	3.03e+01	0	29	104	0	50	16535
2026-01-11 16:16:34.64	23.64	21.52	-43.8	-55.5	3.5	3.03e+01	0	29	104	0	60	22870
2026-01-11 16:16:38.67	23.78	22.15	-39.7	-50.3	3.6	3.03e+01	0	29	104	0	60	12610
2026-01-11 16:16:42.70	23.91	22.80	-40.0	-50.7	3.5	3.03e+01	0	29	104	0	50	23335
2026-01-11 16:16:46.74	24.06	23.47	-43.1	-54.5	3.5	3.03e+01	0	29	104	0	50	36172
2026-01-11 16:16:50.78	24.21	24.16	-35.0	-45.2	3.5	3.03e+01	0	29	104	0	46	15617
2026-01-11 16:16:54.82	24.36	24.87	-42.3	-53.4	3.5	3.03e+01	0	29	104	0	60	18097
2026-01-11 16:16:58.85	24.53	25.60	-36.9	-47.3	3.5	3.03e+01	0	29	104	0	50	15825
2026-01-11 16:17:02.89	24.70	26.36	-47.9	-64.2	3.5	3.03e+01	0	29	104	0	60	62092
2026-01-11 16:17:06.93	24.87	27.13	-37.9	-48.2	3.5	3.03e+01	0	29	104	0	52	15733
2026-01-11 16:17:10.96	25.06	27.93	-43.2	-54.7	3.5	3.03e+01	0	29	104	0	60	20879
2026-01-11 16:17:14.99	25.25	28.76	-35.9	-46.2	3.4	3.03e+01	0	29	104	0	48	15618
2026-01-11 16:17:19.02	25.46	29.61	-45.2	-57.7	3.5	3.03e+01	0	29	104	0	60	29643
2026-01-11 16:17:23.05	25.68	30.49	-47.8	-63.4	3.5	3.03e+01	0	29	104	0	60	56982
2026-01-11 16:17:27.08	25.90	31.40	-36.2	-46.5	3.5	3.03e+01	0	29	104	0	48	16172
2026-01-11 16:17:31.12	26.14	32.34	-38.3	-48.7	3.5	3.03e+01	0	29	104	0	52	16702
2026-01-11 16:17:35.15	26.40	33.31	-37.4	-47.8	3.5	3.03e+01	0	29	104	0	50	16733
2026-01-11 16:17:39.18	26.67	34.32	-47.7	-63.6	3.5	3.03e+01	0	29	104	0	60	58503
2026-01-11 16:17:43.21	26.95	35.36	-36.7	-47.0	3.5	3.03e+01	0	29	104	0	48	17218
2026-01-11 16:17:47.25	27.26	36.44	-39.3	-49.9	3.5	3.03e+01	0	29	104	0	54	16922
2026-01-11 16:17:51.28	27.59	37.56	-39.2	-49.8	3.5	3.03e+01	0	29	104	0	54	16718
2026-01-11 16:17:55.32	27.94	38.72	-45.9	-58.9	3.5	3.03e+01	0	28	104	0	60	33972
2026-01-11 16:17:59.35	28.31	39.92	-48.3	-65.6	3.5	3.03e+01	0	29	104	0	60	73580
2026-01-11 16:18:03.39	28.71	41.16	-37.2	-47.5	3.5	3.03e+01	0	28	104	0	50	16248
2026-01-11 16:18:07.42	29.15	42.45	-36.8	-47.1	3.5	3.03e+01	0	28	104	0	50	15482
2026-01-11 16:18:11.46	29.62	43.79	-35.7	-45.9	3.5	3.03e+01	0	28	104	0	46	16942
2026-01-11 16:18:15.50	30.13	45.18	-47.1	-61.2	3.5	3.03e+01	0	29	104	0	60	44267
2026-01-11 16:18:19.54	30.70	46.62	-36.1	-46.3	3.5	3.03e+01	0	28	104	0	48	15897
2026-01-11 16:18:23.58	31.31	48.10	-37.1	-47.4	3.5	3.03e+01	0	28	104	0	48	17958
2026-01-11 16:18:27.62	31.99	49.64	-36.5	-46.7	3.5	3.03e+01	0	28	104	0	48	16693
2026-01-11 16:18:31.65	32.73	51.23	-45.1	-57.4	3.6	3.03e+01	0	28	104	0	60	28431
2026-01-11 16:18:35.69	33.57	52.88	-39.1	-49.5	3.0	3.03e+01	0	28	104	0	60	11500
2026-01-11 16:18:39.73	34.50	54.57	-34.3	-44.5	3.5	3.03e+01	0	28	104	0	42	18299
2026-01-11 16:18:43.77	35.55	56.32	-42.9	-53.9	3.5	3.03e+01	0	28	104	0	52	30221
2026-01-11 16:18:47.81	36.75	58.12	-36.8	-47.0	3.5	3.03e+01	0	28	104	0	48	17218
2026-01-11 16:18:51.84	38.11	59.96	-39.6	-50.1	3.5	3.03e+01	0	28	104	0	56	15542
2026-01-11 16:18:55.88	39.69	61.84	-38.3	-48.7	3.5	3.03e+01	0	28	104	0	50	18671
2026-01-11 16:18:59.91	41.53	63.76	-48.1	-65.1	3.5	3.03e+01	0	28	104	0	60	69415
2026-01-11 16:19:03.95	43.70	65.70	-40.2	-50.7	3.5	3.03e+01	0	28	104	0	56	16570
2026-01-11 16:19:07.99	46.29	67.66	-47.5	-62.8	3.5	3.03e+01	0	28	104	0	60	53097
2026-01-11 16:19:12.03	49.43	69.61	-46.5	-60.2	3.5	3.03e+01	0	28	104	0	60	39168
2026-01-11 16:19:16.08	53.29	71.54	-39.8	-50.4	3.4	3.03e+01	0	28	104	0	54	17998
2026-01-11 16:19:20.11	58.07	73.40	-47.8	-57.8	7.3	3.03e+01	92	28	0	2621440	60	29743
2026-01-11 16:19:24.15	64.09	75.16	-42.3	-44.5	21.7	3.03e+01	50	28	0	9961472	60	6458
2026-01-11 16:19:28.19	71.70	76.73	-38.7	-40.2	25.3	3.03e+01	60	28	0	17825792	52	6258
2026-01-11 16:19:32.24	81.24	78.04	-36.3	-37.7	27.6	3.03e+01	57	28	0	25165824	48	5859
2026-01-11 16:19:36.27	92.73	78.96	-35.7	-36.9	28.3	3.03e+01	57	28	0	33030144	46	6057
2026-01-11 16:19:40.30	105.74	79.38	-35.3	-36.6	28.6	3.03e+01	58	28	0	40370176	46	5822
2026-01-11 16:19:44.34	119.13	79.24	-36.1	-37.4	27.9	3.03e+01	60	28	0	48234496	46	6384
2026-01-11 16:19:48.38	131.52	78.56	-35.6	-36.9	28.5	3.03e+01	57	28	0	55574528	46	6012
2026-01-11 16:19:52.41	142.05	77.44	-36.7	-38.0	27.3	3.03e+01	61	28	0	62914560	46	6856
2026-01-11 16:19:56.45	150.60	75.98	-37.3	-38.7	26.8	3.03e+01	58	28	0	70778880	48	6585
2026-01-11 16:20:00.49	157.39	74.31	-36.6	-37.9	27.4	3.03e+01	61	28	0	78118912	48	6016
2026-01-11 16:20:04.53	162.77	72.49	-37.1	-38.4	27.0	3.03e+01	58	28	0	85983232	48	6386
2026-01-11 16:20:08.57	167.06	70.59	-38.3	-39.7	25.7	3.03e+01	56	28	0	93323264	50	6639
2026-01-11 16:20:12.61	170.54	68.64	-37.5	-38.9	26.4	3.03e+01	60	28	0	101187584	50	5996
2026-01-11 16:20:16.65	173.40	66.68	-37.3	-38.7	26.8	3.03e+01	59	28	0	108527616	50	5882
2026-01-11 16:20:20.69	175.77	64.72	-36.8	-38.1	27.2	3.03e+01	57	28	0	116391936	48	6201
2026-01-11 16:20:24.73	177.77	62.78	-36.6	-38.0	27.5	3.03e+01	56	28	0	123731968	48	6074
2026-01-11 16:20:28.77	179.48	60.88	-35.7	-37.1	28.2	3.03e+01	60	28	0	131072000	46	6136
2026-01-11 16:20:32.79	180.94	59.02	-34.9	-36.1	28.9	3.03e+01	59	28	0	138936320	44	6182
2026-01-11 16:20:36.83	182.21	57.19	-34.6	-35.8	29.3	3.03e+01	60	28	0	146276352	44	5981
2026-01-11 16:20:40.87	183.34	55.41	-34.2	-35.4	29.7	3.03e+01	45	28	0	154140672	44	5699
2026-01-11 16:20:44.90	184.32	53.69	-34.2	-35.4	29.6	3.03e+01	57	28	0	161480704	42	6391
2026-01-11 16:20:48.93	185.20	52.02	-33.7	-34.8	30.1	3.03e+01	52	28	0	169345024	42	5976
2026-01-11 16:20:52.97	185.99	50.39	-34.1	-35.3	29.8	3.03e+01	57	28	0	176685056	42	6327
2026-01-11 16:20:57.00	186.70	48.82	-34.7	-36.0	29.1	3.03e+01	51	28	0	184025088	42	6812
2026-01-11 16:21:01.04	187.35	47.31	-34.4	-35.6	29.5	3.03e+01	60	28	0	191889408	42	6523
2026-01-11 16:21:05.08	187.94	45.84	-34.7	-36.0	29.2	3.03e+01	51	28	0	199229440	42	6816
2026-01-11 16:21:09.12	188.47	44.42	-34.4	-35.6	29.4	3.03e+01	60	28	0	207093760	42	6551
2026-01-11 16:21:13.16	188.96	43.05	-34.7	-35.9	29.2	3.03e+01	54	28	0	214433792	42	6786
2026-01-11 16:21:17.20	189.42	41.73	-35.0	-36.2	28.9	3.03e+01	62	28	0	222298112	44	6249
2026-01-11 16:21:21.24	189.84	40.46	-35.2	-36.4	28.7	3.03e+01	54	28	0	229638144	44	6399
2026-01-11 16:21:25.27	190.22	39.24	-35.3	-36.6	28.6	3.03e+01	59	28	0	237502464	44	6523
2026-01-11 16:21:29.31	190.58	38.05	-35.5	-36.8	28.5	3.03e+01	44	28	0	244842496	44	6655
2026-01-11 16:21:33.35	190.92	36.91	-35.0	-36.2	29.0	3.03e+01	59	28	0	252182528	44	6266
2026-01-11 16:21:37.39	191.24	35.80	-34.3	-35.5	29.6	3.03e+01	45	28	0	260046848	44	5750
2026-01-11 16:21:41.43	191.53	34.74	-34.3	-35.5	29.6	3.03e+01	58	28	0	267386880	44	5744
2026-01-11 16:21:45.46	191.81	33.71	-33.8	-35.0	30.0	3.03e+01	52	28	0	275251200	42	6130
2026-01-11 16:21:49.50	192.07	32.72	-33.7	-34.9	30.0	3.03e+01	62	28	0	282591232	42	6043
2026-01-11 16:21:53.54	192.32	31.76	-33.3	-34.4	30.2	3.03e+01	53	28	0	290455552	42	5718
2026-01-11 16:21:57.58	192.55	30.83	-33.3	-34.5	30.2	3.03e+01	58	28	0	297795584	42	5754
2026-01-11 16:22:01.62	192.77	29.93	-33.5	-34.7	30.1	3.03e+01	61	28	0	305659904	42	5910
2026-01-11 16:22:05.65	192.98	29.06	-33.7	-34.9	29.8	3.03e+01	58	28	0	312999936	42	6039
2026-01-11 16:22:09.69	193.18	28.22	-33.5	-34.6	30.1	3.03e+01	56	28	0	320339968	42	5851
2026-01-11 16:22:13.72	193.37	27.40	-33.7	-34.9	30.0	3.03e+01	59	28	0	328204288	42	6023
2026-01-11 16:22:17.76	193.55	26.61	-34.0	-35.2	29.8	3.03e+01	57	28	0	335544320	42	6231
2026-01-11 16:22:21.80	193.72	25.84	-34.3	-35.5	29.4	3.03e+01	57	28	0	343408640	42	6461
2026-01-11 16:22:25.84	193.89	25.10	-34.5	-35.8	29.3	3.03e+01	60	28	0	350748672	42	6684
2026-01-11 16:22:29.88	194.04	24.38	-34.9	-36.1	29.0	3.03e+01	61	28	0	358612992	42	6943
2026-01-11 16:22:33.92	194.19	23.68	-34.8	-36.0	28.9	3.03e+01	58	28	0	365953024	44	6100
2026-01-11 16:22:37.95	194.34	23.00	-34.6	-35.8	29.2	3.03e+01	59	28	0	373293056	44	5951
2026-01-11 16:22:41.98	194.48	22.33	-34.4	-35.6	29.3	3.03e+01	61	28	0	381157376	44	5832
2026-01-11 16:22:46.01	194.61	21.69	-34.3	-35.6	29.4	3.03e+01	58	28	0	388497408	44	5793
2026-01-11 16:22:50.05	194.74	21.06	-34.3	-35.5	29.4	3.03e+01	58	28	0	396361728	44	5730
2026-01-11 16:22:54.09	194.87	20.45	-34.3	-35.5	29.4	3.03e+01	61	28	0	403701760	44	5762
2026-01-11 16:22:58.13	194.98	19.86	-34.2	-35.4	29.5	3.03e+01	57	28	0	411566080	44	5674
2026-01-11 16:23:02.16	195.10	19.28	-34.1	-35.3	29.6	3.03e+01	48	28	0	418906112	44	5608
2026-01-11 16:23:06.20	195.21	18.71	-34.4	-35.6	29.3	3.03e+01	61	28	0	426770432	44	5823
2026-01-11 16:23:10.25	195.32	18.16	-34.3	-35.5	29.3	3.03e+01	39	28	0	434110464	44	5769
2026-01-11 16:23:14.28	195.42	17.62	-34.6	-35.8	29.1	3.03e+01	58	28	0	441450496	44	5969
2026-01-11 16:23:18.31	195.53	17.10	-34.5	-35.7	29.1	3.03e+01	62	28	0	449314816	44	5889
2026-01-11 16:23:22.36	195.62	16.58	-34.2	-35.4	29.2	3.03e+01	58	28	0	456654848	44	5721
2026-01-11 16:23:26.39	195.72	16.08	-34.2	-35.4	29.4	3.03e+01	48	27	0	464519168	44	5707
2026-01-11 16:23:30.43	195.81	15.59	-34.1	-35.3	29.4	3.03e+01	60	28	0	471859200	44	5649
2026-01-11 16:23:34.46	195.90	15.11	-34.1	-35.3	29.4	3.03e+01	52	27	0	479723520	44	5638
2026-01-11 16:23:38.49	195.99	14.64	-34.1	-35.3	29.4	3.03e+01	60	27	0	487063552	44	5616
2026-01-11 16:23:42.54	196.07	14.18	-34.0	-35.2	29.5	3.03e+01	52	27	0	494403584	44	5556
2026-01-11 16:23:46.58	196.15	13.73	-34.1	-35.3	29.4	3.03e+01	58	28	0	502267904	44	5647
2026-01-11 16:23:50.61	196.23	13.29	-34.1	-35.3	29.5	3.03e+01	47	28	0	509607936	44	5615
2026-01-11 16:23:54.65	196.31	12.85	-34.1	-35.3	29.4	3.03e+01	60	27	0	517472256	44	5628
2026-01-11 16:23:58.69	196.39	12.43	-34.1	-35.3	29.4	3.03e+01	45	28	0	524812288	44	5650
2026-01-11 16:24:02.72	196.46	12.01	-34.2	-35.4	29.3	3.03e+01	60	27	0	532676608	44	5690
2026-01-11 16:24:06.75	196.54	11.60	-34.3	-35.5	29.3	3.03e+01	50	27	0	540016640	44	5756
2026-01-11 16:24:10.78	196.61	11.20	-34.4	-35.6	29.1	3.03e+01	58	27	0	547356672	44	5856
2026-01-11 16:24:14.81	196.67	10.81	-34.4	-35.7	29.1	3.03e+01	46	27	0	555220992	44	5862
2026-01-11 16:24:18.85	196.74	10.42	-34.6	-35.8	28.8	3.03e+01	59	27	0	562561024	44	5971
2026-01-11 16:24:22.89	196.81	10.04	-34.6	-35.8	29.0	3.03e+01	58	27	0	570425344	44	5987
2026-01-11 16:24:26.92	196.87	9.67	-34.7	-36.0	28.8	3.03e+01	58	27	0	577765376	44	6082
2026-01-11 16:24:30.96	196.94	9.30	-34.9	-36.1	28.6	3.03e+01	57	27	0	585629696	44	6197
2026-01-11 16:24:34.99	197.00	8.94	-35.1	-36.4	28.4	3.03e+01	57	27	0	592969728	44	6351
2026-01-11 16:24:39.02	197.06	8.58	-35.1	-36.4	28.4	3.03e+01	59	27	0	600309760	44	6359
2026-01-11 16:24:43.06	197.12	8.23	-35.4	-36.7	28.1	3.03e+01	59	27	0	608174080	44	6606
2026-01-11 16:24:47.10	197.18	7.88	-35.3	-36.6	28.1	3.03e+01	58	27	0	615514112	44	6547
2026-01-11 16:24:51.14	197.23	7.54	-35.6	-36.9	27.9	3.03e+01	59	27	0	623378432	44	6773
2026-01-11 16:24:55.17	197.29	7.21	-35.6	-36.9	27.8	3.03e+01	53	27	0	630718464	44	6797
2026-01-11 16:24:59.21	197.34	6.88	-35.7	-37.0	27.7	3.03e+01	60	27	0	638582784	44	6882
2026-01-11 16:25:03.25	197.40	6.55	-35.8	-37.1	27.5	3.03e+01	59	27	0	645922816	44	6957
2026-01-11 16:25:07.28	197.45	6.23	-36.0	-37.4	27.3	3.03e+01	60	27	0	653262848	46	6352
2026-01-11 16:25:11.32	197.50	5.91	-36.3	-37.7	27.0	3.03e+01	58	27	0	661127168	46	6595
2026-01-11 16:25:15.36	197.55	5.60	-36.5	-37.9	26.7	3.03e+01	61	27	0	668467200	46	6764
2026-01-11 16:25:19.39	197.60	5.29	-36.2	-37.6	26.9	3.03e+01	61	27	0	676331520	46	6533
2026-01-11 16:25:23.43	197.65	4.99	-36.5	-37.8	26.7	3.03e+01	62	27	0	683671552	46	6725
2026-01-11 16:25:27.47	197.70	4.68	-36.4	-37.8	26.6	3.03e+01	60	27	0	691535872	46	6669
2026-01-11 16:25:31.51	197.75	4.39	-36.9	-38.4	26.1	3.03e+01	57	27	0	698875904	46	7133
2026-01-11 16:25:35.55	197.80	4.09	-37.0	-38.5	25.9	3.03e+01	60	27	0	706215936	48	6467
2026-01-11 16:25:39.58	197.84	3.80	-37.0	-38.4	26.0	3.03e+01	45	27	0	714080256	48	6402
2026-01-11 16:25:43.62	197.89	3.52	-37.1	-38.6	25.6	3.03e+01	60	27	0	721420288	48	6565
2026-01-11 16:25:47.66	197.93	3.23	-37.3	-38.8	25.4	3.03e+01	56	27	0	729284608	48	6722
2026-01-11 16:25:51.69	197.98	2.95	-47.2	-65.0	3.5	3.03e+01	0	27	104	736624640	60	68400
2026-01-11 16:25:55.72	198.02	2.68	-48.3	-66.3	3.5	3.03e+01	0	27	104	736624640	60	79114
2026-01-11 16:25:59.76	198.06	2.40	-48.4	-66.4	3.5	3.03e+01	0	27	104	736624640	60	80304
2026-01-11 16:26:03.79	198.11	2.13	-48.2	-66.3	3.5	3.03e+01	0	27	104	736624640	60	79295
2026-01-11 16:26:07.83	198.15	1.86	-48.4	-66.4	3.5	3.03e+01	0	27	104	736624640	60	79957
2026-01-11 16:26:11.87	198.19	1.60	-48.4	-66.3	3.5	3.03e+01	0	27	104	736624640	60	79494
2026-01-11 16:26:15.92	198.23	1.33	-48.4	-66.3	3.5	3.03e+01	0	27	104	736624640	60	79215
2026-01-11 16:26:19.95	198.27	1.07	-48.3	-66.2	3.5	3.03e+01	0	27	104	736624640	60	78837
2026-01-11 16:26:24.00	198.31	0.82	-48.3	-66.2	3.5	3.03e+01	0	27	104	736624640	60	78456
2026-01-11 16:26:28.04	198.35	0.56	-48.3	-66.2	3.5	3.03e+01	0	27	104	736624640	60	78969
2026-01-11 16:26:32.07	198.39	0.31	-48.3	-66.2	3.5	3.03e+01	0	27	104	736624640	60	78862
2026-01-11 16:26:36.11	198.42	0.06	-48.3	-66.2	3.5	3.03e+01	0	27	104	736624640	60	78695

#Closed at: 2026-01-11 16:26:39
#Recorded file [736 MB]: D:/lorett/data/35029_260112_041244.dat