passes_logs/2026/01/11/R4.6S_Anadyr/R4.6S_Anadyr__20260111_043033_AQUA_rec.log

#Pass ID: 20260111_043033_AQUA
#Satellite: AQUA
#Configuration: AQUA
#almurnet v.1.7.20251203
#Start time: 2026-01-11 04:30:33

#Version: 2.2.20231116
#Station: R4.6S_Anadyr
#Location: 177.4865 lon 64.73178 lat
#TLE: 1 27424U 02022A   26009.89520876  .00001045  00000+0  21914-3 0  9996
#TLE: 2 27424  98.4076 336.2372 0002032  84.5955   1.0356 14.61811442260144

#Time	Az	El	Level	Level2	SNR	BER	BlckErr	Temp	State	Recorded	gain1	gain2
2026-01-11 04:30:33.95	228.12	0.05	-48.1	-59.8	3.5	8.46e-01	0	27	0	0	60	35137
2026-01-11 04:30:36.98	228.40	0.19	-48.1	-66.2	3.5	3.02e+01	0	29	104	0	60	78387
2026-01-11 04:30:40.01	228.69	0.33	-48.1	-66.3	3.5	3.02e+01	0	29	104	0	60	79066
2026-01-11 04:30:43.04	228.98	0.48	-48.3	-66.2	3.5	3.02e+01	0	29	104	0	60	78726
2026-01-11 04:30:46.07	229.27	0.62	-48.3	-66.2	3.5	3.02e+01	0	29	104	0	60	78355
2026-01-11 04:30:49.10	229.56	0.76	-47.6	-65.5	3.5	3.02e+01	0	29	104	0	60	72276
2026-01-11 04:30:52.13	229.86	0.91	-45.6	-63.7	3.5	3.02e+01	0	29	104	0	60	58847
2026-01-11 04:30:55.15	230.16	1.05	-45.5	-63.7	3.5	3.02e+01	0	29	104	0	60	59213
2026-01-11 04:30:58.18	230.46	1.19	-45.6	-63.7	3.5	3.02e+01	0	29	104	0	60	59059
2026-01-11 04:31:01.21	230.77	1.34	-45.5	-63.7	3.5	3.02e+01	0	29	104	0	60	59115
2026-01-11 04:31:04.24	231.08	1.48	-45.6	-63.7	3.5	3.02e+01	0	29	104	0	60	59137
2026-01-11 04:31:07.27	231.39	1.63	-45.5	-63.7	3.5	3.02e+01	0	29	104	0	60	58715
2026-01-11 04:31:10.30	231.71	1.77	-45.5	-63.7	3.5	3.02e+01	0	29	104	0	60	58800
2026-01-11 04:31:13.33	232.03	1.92	-45.5	-63.7	3.5	3.02e+01	0	29	104	0	60	58768
2026-01-11 04:31:16.36	232.35	2.06	-45.5	-63.6	3.5	3.02e+01	0	29	104	0	60	58551
2026-01-11 04:31:19.39	232.68	2.21	-45.5	-63.7	3.5	3.02e+01	0	29	104	0	60	58745
2026-01-11 04:31:22.42	233.01	2.35	-45.5	-63.7	3.5	3.02e+01	0	29	104	0	60	58690
2026-01-11 04:31:25.45	233.34	2.50	-45.5	-63.7	3.5	3.02e+01	0	29	104	0	60	58851
2026-01-11 04:31:28.48	233.68	2.64	-45.5	-63.6	3.5	3.02e+01	0	29	104	0	60	58031
2026-01-11 04:31:31.51	234.02	2.79	-45.5	-63.6	3.5	3.02e+01	0	29	104	0	60	58122
2026-01-11 04:31:34.53	234.36	2.94	-45.5	-63.2	3.5	3.02e+01	0	29	104	0	60	55809
2026-01-11 04:31:37.56	234.71	3.08	-44.4	-63.1	3.5	3.02e+01	0	29	104	0	60	54854
2026-01-11 04:31:40.59	235.06	3.23	-44.6	-62.6	3.5	3.02e+01	0	29	104	0	60	51943
2026-01-11 04:31:43.62	235.42	3.37	-44.8	-62.9	3.5	3.02e+01	0	30	104	0	60	53812
2026-01-11 04:31:46.65	235.77	3.52	-45.6	-62.1	3.7	3.02e+01	0	30	104	0	60	48753
2026-01-11 04:31:49.68	236.14	3.66	-46.0	-63.2	3.5	3.02e+01	0	30	104	0	60	55867
2026-01-11 04:31:52.70	236.50	3.81	-46.0	-61.6	3.9	3.02e+01	0	30	104	0	60	46204
2026-01-11 04:31:55.73	236.87	3.96	-46.2	-60.9	4.1	3.02e+01	0	30	104	0	60	42629
2026-01-11 04:31:58.76	237.24	4.10	-46.1	-63.1	3.5	3.02e+01	0	30	104	0	60	54779
2026-01-11 04:32:01.79	237.62	4.25	-45.7	-60.0	4.6	3.02e+01	0	30	104	0	60	38496
2026-01-11 04:32:04.82	238.00	4.39	-46.0	-58.8	5.1	3.02e+01	0	30	104	0	60	33696
2026-01-11 04:32:07.85	238.39	4.54	-45.0	-55.8	7.1	3.02e+01	90	30	0	3670016	60	23738
2026-01-11 04:32:10.88	238.78	4.68	-45.5	-54.7	8.3	3.02e+01	92	30	0	9437184	60	20978
2026-01-11 04:32:13.90	239.17	4.83	-45.2	-53.4	10.1	3.02e+01	90	30	0	15204352	60	18100
2026-01-11 04:32:16.93	239.57	4.97	-44.4	-52.3	11.4	3.02e+01	91	30	0	20971520	60	15839
2026-01-11 04:32:19.96	239.97	5.12	-44.7	-50.8	13.2	3.02e+01	90	30	0	26738688	60	13321
2026-01-11 04:32:22.99	240.38	5.26	-43.9	-49.4	14.6	3.02e+01	87	30	0	31981568	60	11418
2026-01-11 04:32:26.02	240.79	5.41	-43.9	-48.4	15.8	3.02e+01	91	30	0	37748736	60	10069
2026-01-11 04:32:29.05	241.20	5.55	-43.0	-46.9	17.3	3.02e+01	91	30	0	43515904	60	8480
2026-01-11 04:32:32.07	241.62	5.70	-42.8	-45.9	18.4	3.02e+01	91	30	0	49283072	60	7626
2026-01-11 04:32:35.10	242.05	5.84	-42.4	-45.4	19.0	3.02e+01	91	30	0	55050240	60	7177
2026-01-11 04:32:38.13	242.47	5.98	-41.6	-44.1	20.3	3.02e+01	91	30	0	60817408	58	6949
2026-01-11 04:32:41.15	242.90	6.13	-41.4	-43.9	20.5	3.02e+01	91	30	0	66060288	58	6747
2026-01-11 04:32:44.18	243.34	6.27	-40.3	-42.4	22.1	3.02e+01	91	30	0	71827456	56	6362
2026-01-11 04:32:47.21	243.78	6.41	-40.2	-42.2	22.2	3.02e+01	91	30	0	77594624	56	6228
2026-01-11 04:32:50.24	244.23	6.55	-39.6	-41.4	23.0	3.02e+01	92	30	0	83361792	54	6380
2026-01-11 04:32:53.27	244.68	6.69	-38.9	-40.7	23.8	3.02e+01	90	30	0	89128960	52	6581
2026-01-11 04:32:56.31	245.14	6.83	-38.4	-40.0	24.5	3.02e+01	92	30	0	94896128	52	6098
2026-01-11 04:32:59.34	245.60	6.97	-38.1	-39.7	24.8	3.02e+01	90	30	0	100139008	52	5889
2026-01-11 04:33:02.36	246.06	7.11	-37.6	-39.1	25.4	3.02e+01	92	30	0	105906176	50	6157
2026-01-11 04:33:05.39	246.53	7.25	-37.3	-38.7	25.8	3.02e+01	90	30	0	111673344	50	5911
2026-01-11 04:33:08.43	247.00	7.39	-37.0	-38.5	26.0	3.02e+01	91	30	0	117440512	50	5730
2026-01-11 04:33:11.45	247.48	7.52	-36.8	-38.2	26.4	3.02e+01	92	30	0	123207680	48	6226
2026-01-11 04:33:14.49	247.96	7.66	-36.4	-37.8	26.7	3.02e+01	92	30	0	128974848	48	5977
2026-01-11 04:33:17.51	248.45	7.79	-36.2	-37.5	27.0	3.02e+01	92	30	0	134217728	48	5780
2026-01-11 04:33:20.53	248.94	7.93	-36.0	-37.3	27.2	3.02e+01	92	30	0	139984896	48	5640
2026-01-11 04:33:23.56	249.44	8.06	-36.2	-37.5	27.1	3.02e+01	85	30	0	145752064	46	6462
2026-01-11 04:33:26.59	249.94	8.19	-35.8	-37.1	27.5	3.02e+01	92	30	0	151519232	46	6156
2026-01-11 04:33:29.62	250.45	8.33	-35.9	-37.2	27.4	3.02e+01	91	30	0	157286400	46	6261
2026-01-11 04:33:32.65	250.96	8.46	-35.8	-37.1	27.5	3.02e+01	92	30	0	163053568	46	6182
2026-01-11 04:33:35.68	251.48	8.59	-35.5	-37.3	26.9	3.02e+01	92	30	0	168296448	46	6291
2026-01-11 04:33:38.70	252.00	8.71	-35.5	-37.3	26.9	3.02e+01	92	30	0	174063616	46	6306
2026-01-11 04:33:41.73	252.52	8.84	-35.7	-37.0	21.5	3.02e+01	90	30	0	179830784	44	6822
2026-01-11 04:33:44.75	253.05	8.96	-32.4	-36.9	19.1	3.02e+01	91	30	0	185597952	40	8489
2026-01-11 04:33:47.77	253.59	9.09	-31.9	-36.9	19.2	3.02e+01	90	30	0	191365120	38	9599
2026-01-11 04:33:50.81	254.13	9.21	-34.5	-36.9	25.1	3.02e+01	92	30	0	196608000	42	7580
2026-01-11 04:33:53.84	254.67	9.33	-35.0	-37.0	26.0	3.02e+01	92	30	0	202375168	44	6815
2026-01-11 04:33:56.87	255.22	9.45	-35.6	-36.9	27.7	3.02e+01	91	30	0	208142336	44	6731
2026-01-11 04:33:59.89	255.78	9.57	-35.3	-36.6	28.0	3.02e+01	92	30	0	213909504	44	6534
2026-01-11 04:34:02.92	256.34	9.69	-35.4	-36.7	27.8	3.02e+01	92	30	0	219676672	44	6615
2026-01-11 04:34:05.95	256.90	9.80	-35.4	-36.6	28.0	3.02e+01	92	30	0	225443840	44	6562
2026-01-11 04:34:08.98	257.47	9.91	-35.4	-36.7	27.9	3.02e+01	92	30	0	231211008	44	6621
2026-01-11 04:34:12.00	258.04	10.03	-35.3	-36.6	28.0	3.02e+01	92	30	0	236453888	44	6561
2026-01-11 04:34:15.03	258.62	10.13	-35.4	-36.7	28.0	3.02e+01	92	30	0	242221056	44	6582
2026-01-11 04:34:18.06	259.20	10.24	-35.1	-36.4	28.2	3.02e+01	90	30	0	247988224	44	6379
2026-01-11 04:34:21.08	259.78	10.35	-35.3	-36.6	28.0	3.02e+01	90	30	0	253755392	44	6531
2026-01-11 04:34:24.11	260.37	10.45	-35.1	-36.3	28.2	3.02e+01	85	30	0	259522560	44	6350
2026-01-11 04:34:27.14	260.97	10.55	-35.1	-36.4	28.1	3.02e+01	91	30	0	264765440	44	6389
2026-01-11 04:34:30.17	261.57	10.65	-35.1	-36.4	28.3	3.02e+01	90	30	0	270532608	44	6355
2026-01-11 04:34:33.20	262.17	10.75	-35.1	-36.3	28.2	3.02e+01	91	30	0	276299776	44	6322
2026-01-11 04:34:36.23	262.78	10.84	-35.2	-36.4	28.1	3.02e+01	90	30	0	282066944	44	6414
2026-01-11 04:34:39.25	263.39	10.94	-34.8	-36.1	28.5	3.02e+01	92	30	0	287834112	44	6159
2026-01-11 04:34:42.28	264.01	11.03	-35.1	-36.4	28.3	3.02e+01	92	30	0	293601280	44	6359
2026-01-11 04:34:45.31	264.63	11.11	-35.3	-36.6	27.2	3.02e+01	95	30	0	298844160	46	5831
2026-01-11 04:34:48.34	265.25	11.20	-35.0	-36.2	28.4	3.02e+01	92	30	0	304611328	44	6251
2026-01-11 04:34:51.37	265.88	11.28	-35.0	-36.3	28.3	3.02e+01	92	30	0	310378496	44	6282
2026-01-11 04:34:54.39	266.51	11.36	-35.1	-36.3	28.4	3.02e+01	92	30	0	316145664	44	6348
2026-01-11 04:34:57.42	267.14	11.44	-35.0	-36.3	28.3	3.02e+01	92	30	0	321912832	44	6321
2026-01-11 04:35:00.45	267.78	11.51	-34.9	-36.1	28.5	3.02e+01	91	30	0	327680000	44	6196
2026-01-11 04:35:03.48	268.42	11.58	-34.8	-36.0	28.6	3.02e+01	92	30	0	332922880	44	6121
2026-01-11 04:35:06.50	269.06	11.65	-34.8	-36.1	28.5	3.02e+01	92	30	0	338690048	44	6144
2026-01-11 04:35:09.53	269.71	11.72	-34.8	-36.1	28.6	3.02e+01	92	30	0	344457216	44	6148
2026-01-11 04:35:12.56	270.36	11.78	-34.7	-35.9	28.7	3.02e+01	92	30	0	350224384	44	6035
2026-01-11 04:35:15.58	271.01	11.84	-34.7	-35.9	28.6	3.02e+01	91	30	0	355991552	44	6045
2026-01-11 04:35:18.61	271.67	11.90	-34.7	-35.9	28.7	3.02e+01	92	30	0	361234432	44	6046
2026-01-11 04:35:21.64	272.33	11.95	-34.5	-35.8	28.8	3.02e+01	92	30	0	367001600	44	5930
2026-01-11 04:35:24.66	272.99	12.00	-34.8	-36.0	28.5	3.02e+01	92	30	0	372768768	44	6108
2026-01-11 04:35:27.69	273.65	12.05	-34.5	-35.7	28.8	3.02e+01	86	30	0	378535936	44	5921
2026-01-11 04:35:30.72	274.31	12.09	-34.6	-35.9	28.7	3.02e+01	92	30	0	384303104	44	6027
2026-01-11 04:35:33.75	274.98	12.14	-34.6	-35.8	28.8	3.02e+01	92	30	0	390070272	44	5954
2026-01-11 04:35:36.78	275.65	12.17	-34.6	-35.8	28.7	3.02e+01	91	30	0	395837440	44	5953
2026-01-11 04:35:39.81	276.32	12.21	-34.5	-35.7	28.8	3.02e+01	92	30	0	401080320	44	5884
2026-01-11 04:35:42.81	276.99	12.24	-34.6	-35.8	28.7	3.02e+01	92	30	0	406847488	44	5970
2026-01-11 04:35:45.84	277.66	12.27	-34.4	-35.6	28.9	3.02e+01	90	30	0	412614656	44	5847
2026-01-11 04:35:48.87	278.33	12.29	-34.5	-35.8	28.8	3.02e+01	92	30	0	418381824	44	5945
2026-01-11 04:35:51.90	279.01	12.31	-34.3	-35.6	29.0	3.02e+01	92	30	0	424148992	44	5801
2026-01-11 04:35:54.92	279.69	12.33	-34.5	-35.8	28.7	3.02e+01	92	30	0	429391872	44	5942
2026-01-11 04:35:57.96	280.37	12.35	-34.5	-35.7	28.8	3.02e+01	92	30	0	435159040	44	5916
2026-01-11 04:36:00.98	281.04	12.36	-34.4	-35.6	28.9	3.02e+01	92	30	0	440926208	44	5848
2026-01-11 04:36:04.01	281.72	12.36	-34.4	-35.6	28.9	3.02e+01	92	30	0	446693376	44	5822
2026-01-11 04:36:07.04	282.40	12.37	-34.6	-35.8	28.7	3.02e+01	92	30	0	452460544	44	5962
2026-01-11 04:36:10.07	283.08	12.37	-34.6	-35.8	28.7	3.02e+01	90	30	0	458227712	44	5985
2026-01-11 04:36:13.10	283.76	12.36	-34.6	-35.8	28.7	3.02e+01	92	30	0	463994880	44	5984
2026-01-11 04:36:16.13	284.43	12.36	-34.5	-35.7	28.8	3.02e+01	92	30	0	469237760	44	5888
2026-01-11 04:36:19.15	285.11	12.35	-34.6	-35.8	28.7	3.02e+01	91	30	0	475004928	44	5984
2026-01-11 04:36:22.18	285.79	12.34	-34.5	-35.7	28.8	3.02e+01	92	30	0	480772096	44	5898
2026-01-11 04:36:25.21	286.46	12.32	-34.6	-35.8	28.7	3.02e+01	92	30	0	486539264	44	5962
2026-01-11 04:36:28.24	287.14	12.30	-34.4	-35.6	28.8	3.02e+01	86	30	0	492306432	44	5842
2026-01-11 04:36:31.27	287.81	12.28	-34.6	-35.8	28.7	3.02e+01	92	30	0	497549312	44	5970
2026-01-11 04:36:34.30	288.49	12.25	-34.5	-35.7	28.8	3.02e+01	92	30	0	503316480	44	5896
2026-01-11 04:36:37.32	289.16	12.22	-34.3	-35.5	29.0	3.02e+01	92	30	0	509083648	44	5759
2026-01-11 04:36:40.35	289.83	12.18	-34.5	-35.7	28.8	3.02e+01	92	30	0	514850816	44	5895
2026-01-11 04:36:43.38	290.50	12.15	-34.5	-35.7	28.8	3.02e+01	92	30	0	520617984	44	5891
2026-01-11 04:36:46.40	291.16	12.11	-34.4	-35.6	28.9	3.02e+01	92	30	0	526385152	44	5840
2026-01-11 04:36:49.44	291.83	12.06	-34.5	-35.7	28.9	3.02e+01	92	31	0	531628032	44	5874
2026-01-11 04:36:52.47	292.49	12.02	-34.4	-35.6	28.9	3.02e+01	92	31	0	537395200	44	5835
2026-01-11 04:36:55.50	293.15	11.97	-34.3	-35.5	29.0	3.02e+01	92	30	0	543162368	44	5771
2026-01-11 04:36:58.52	293.81	11.92	-34.5	-35.8	28.7	3.02e+01	92	30	0	548929536	44	5945
2026-01-11 04:37:01.56	294.46	11.86	-34.7	-35.9	28.6	3.02e+01	61	31	0	554696704	44	6032
2026-01-11 04:37:04.58	295.11	11.80	-34.6	-35.9	28.6	3.02e+01	61	30	0	560463872	44	5995
2026-01-11 04:37:07.60	295.76	11.74	-34.5	-35.7	28.8	3.02e+01	60	30	0	565706752	44	5890
2026-01-11 04:37:10.63	296.41	11.67	-34.4	-35.7	28.8	3.02e+01	49	30	0	571473920	44	5868
2026-01-11 04:37:13.66	297.05	11.61	-34.5	-35.7	28.9	3.02e+01	62	30	0	577241088	44	5909
2026-01-11 04:37:16.69	297.69	11.54	-34.5	-35.7	28.8	3.02e+01	60	30	0	583008256	44	5908
2026-01-11 04:37:19.72	298.33	11.46	-34.6	-35.9	28.7	3.02e+01	61	31	0	588775424	44	6007
2026-01-11 04:37:22.75	298.96	11.39	-34.5	-35.7	28.8	3.02e+01	64	30	0	594542592	44	5904
2026-01-11 04:37:25.78	299.59	11.31	-34.5	-35.7	28.7	3.02e+01	60	30	0	599785472	44	5882
2026-01-11 04:37:28.81	300.22	11.23	-34.5	-35.7	28.7	3.02e+01	52	30	0	605552640	44	5922
2026-01-11 04:37:31.83	300.84	11.14	-34.5	-35.8	28.7	3.02e+01	55	31	0	611319808	44	5945
2026-01-11 04:37:34.86	301.46	11.06	-34.5	-35.7	28.7	3.02e+01	59	31	0	617086976	44	5918
2026-01-11 04:37:37.89	302.07	10.97	-34.7	-36.0	28.5	3.02e+01	62	30	0	622854144	44	6067
2026-01-11 04:37:40.92	302.68	10.88	-34.6	-35.9	28.6	3.02e+01	61	31	0	628621312	44	6003
2026-01-11 04:37:43.95	303.29	10.78	-34.5	-35.8	28.7	3.02e+01	61	30	0	633864192	44	5962
2026-01-11 04:37:46.98	303.89	10.69	-34.5	-35.7	28.8	3.02e+01	59	31	0	639631360	44	5921
2026-01-11 04:37:50.00	304.49	10.59	-34.8	-36.1	28.4	3.02e+01	58	30	0	645398528	44	6183
2026-01-11 04:37:53.03	305.08	10.49	-34.8	-36.1	28.4	3.02e+01	53	31	0	651165696	44	6174
2026-01-11 04:37:56.06	305.67	10.39	-34.6	-35.9	28.6	3.02e+01	45	30	0	656932864	44	5999
2026-01-11 04:37:59.09	306.26	10.28	-34.7	-36.0	28.6	3.02e+01	60	31	0	662175744	44	6071
2026-01-11 04:38:02.11	306.84	10.18	-34.7	-36.0	28.5	3.02e+01	59	31	0	667942912	44	6071
2026-01-11 04:38:05.14	307.41	10.07	-34.7	-36.0	28.5	3.02e+01	59	31	0	673710080	44	6101
2026-01-11 04:38:08.16	307.98	9.96	-34.9	-36.2	28.3	3.02e+01	59	31	0	679477248	44	6262
2026-01-11 04:38:11.19	308.55	9.85	-34.7	-36.0	28.5	3.02e+01	60	31	0	685244416	44	6087
2026-01-11 04:38:14.22	309.12	9.73	-34.9	-36.1	28.4	3.02e+01	60	31	0	691011584	44	6205
2026-01-11 04:38:17.24	309.67	9.62	-34.9	-36.1	28.4	3.02e+01	44	31	0	696778752	44	6188
2026-01-11 04:38:20.27	310.23	9.50	-34.9	-36.2	28.2	3.02e+01	60	30	0	702021632	44	6231
2026-01-11 04:38:23.30	310.77	9.38	-35.0	-36.2	28.1	3.02e+01	61	31	0	707788800	44	6275
2026-01-11 04:38:26.33	311.32	9.26	-34.8	-36.0	28.4	3.02e+01	62	31	0	713555968	44	6124
2026-01-11 04:38:29.36	311.86	9.14	-35.1	-36.3	28.0	3.02e+01	59	31	0	719323136	44	6350
2026-01-11 04:38:32.38	312.39	9.02	-34.9	-36.2	28.1	3.02e+01	58	30	0	725090304	44	6236
2026-01-11 04:38:35.41	312.92	8.90	-35.1	-36.3	28.1	3.02e+01	63	31	0	730333184	44	6345
2026-01-11 04:38:38.45	313.45	8.77	-35.1	-36.4	28.0	3.02e+01	48	31	0	736100352	44	6363
2026-01-11 04:38:41.47	313.97	8.64	-35.1	-36.4	28.0	3.02e+01	55	31	0	741867520	44	6396
2026-01-11 04:38:44.50	314.48	8.52	-35.3	-36.6	27.9	3.02e+01	62	31	0	747634688	44	6557
2026-01-11 04:38:47.53	314.99	8.39	-35.1	-36.4	28.0	3.02e+01	61	31	0	753401856	44	6359
2026-01-11 04:38:50.56	315.50	8.26	-35.0	-36.3	28.1	3.02e+01	60	30	0	759169024	44	6328
2026-01-11 04:38:53.59	316.00	8.13	-35.3	-36.6	27.9	3.02e+01	61	30	0	764411904	44	6507
2026-01-11 04:38:56.61	316.50	7.99	-35.5	-36.8	27.6	3.02e+01	60	31	0	770179072	44	6682
2026-01-11 04:38:59.64	316.99	7.86	-35.4	-36.8	27.7	3.02e+01	55	31	0	775946240	44	6650
2026-01-11 04:39:02.67	317.47	7.73	-35.4	-36.7	27.7	3.02e+01	44	31	0	781713408	44	6619
2026-01-11 04:39:05.69	317.95	7.59	-35.3	-36.6	27.8	3.02e+01	57	31	0	787480576	44	6571
2026-01-11 04:39:08.72	318.43	7.46	-35.4	-36.8	27.6	3.02e+01	60	31	0	793247744	44	6660
2026-01-11 04:39:11.75	318.91	7.32	-35.6	-36.9	27.4	3.02e+01	60	31	0	798490624	44	6780
2026-01-11 04:39:14.78	319.37	7.19	-35.6	-36.9	27.5	3.02e+01	59	31	0	804257792	44	6757
2026-01-11 04:39:17.81	319.84	7.05	-35.7	-37.0	27.4	3.02e+01	61	31	0	810024960	44	6865
2026-01-11 04:39:20.84	320.30	6.91	-35.7	-37.0	27.2	3.02e+01	44	31	0	815792128	44	6867
2026-01-11 04:39:23.87	320.75	6.77	-35.6	-36.9	27.4	3.02e+01	46	31	0	821559296	46	6029
2026-01-11 04:39:26.90	321.20	6.63	-35.6	-36.9	27.4	3.02e+01	56	31	0	827326464	46	6050
2026-01-11 04:39:29.92	321.65	6.49	-35.8	-37.2	27.2	3.02e+01	55	31	0	832569344	46	6207
2026-01-11 04:39:32.95	322.09	6.35	-35.9	-37.2	27.1	3.02e+01	58	31	0	838336512	46	6268
2026-01-11 04:39:35.98	322.52	6.21	-35.8	-37.2	27.1	3.02e+01	59	31	0	844103680	46	6208
2026-01-11 04:39:39.01	322.96	6.07	-35.9	-37.3	27.1	3.02e+01	61	31	0	849870848	46	6279
2026-01-11 04:39:42.04	323.38	5.93	-35.9	-37.2	27.0	3.02e+01	60	31	0	855638016	46	6263
2026-01-11 04:39:45.06	323.81	5.79	-35.9	-37.2	27.1	3.02e+01	51	31	0	861405184	46	6252
2026-01-11 04:39:48.10	324.23	5.64	-36.2	-37.6	26.7	3.02e+01	49	31	0	866648064	46	6559
2026-01-11 04:39:51.13	324.64	5.50	-36.3	-37.7	26.5	3.02e+01	62	31	0	872415232	46	6633
2026-01-11 04:39:54.15	325.05	5.36	-36.4	-37.8	26.4	3.02e+01	59	31	0	878182400	46	6677
2026-01-11 04:39:57.18	325.46	5.21	-36.1	-37.5	26.7	3.02e+01	59	31	0	883949568	46	6443
2026-01-11 04:40:00.21	325.86	5.07	-36.1	-37.4	26.7	3.02e+01	59	31	0	889716736	46	6423
2026-01-11 04:40:03.24	326.26	4.93	-36.2	-37.6	26.5	3.02e+01	58	31	0	895483904	46	6552
2026-01-11 04:40:06.27	326.65	4.78	-37.2	-47.6	3.5	3.02e+01	0	31	104	899153920	48	18374
2026-01-11 04:40:09.30	327.04	4.64	-37.4	-47.7	3.6	3.02e+01	0	31	104	899153920	50	16640
2026-01-11 04:40:12.32	327.42	4.50	-41.1	-52.2	3.5	3.02e+01	0	31	104	899153920	60	15601
2026-01-11 04:40:15.36	327.81	4.35	-38.0	-48.4	3.6	3.02e+01	0	31	104	899153920	52	16040
2026-01-11 04:40:18.38	328.18	4.21	-38.5	-49.1	3.6	3.02e+01	0	31	104	899153920	50	19475
2026-01-11 04:40:21.41	328.56	4.06	-37.5	-47.9	3.6	3.02e+01	0	31	104	899153920	52	15182
2026-01-11 04:40:24.44	328.93	3.92	-37.3	-47.6	4.1	3.02e+01	0	31	104	899153920	50	16490
2026-01-11 04:40:27.47	329.29	3.77	-40.4	-51.2	4.0	3.02e+01	0	31	104	899153920	54	19806
2026-01-11 04:40:30.50	329.66	3.63	-38.6	-49.2	3.5	3.02e+01	0	31	104	899153920	54	15631
2026-01-11 04:40:33.52	330.01	3.49	-39.7	-50.6	3.5	3.02e+01	0	31	104	899153920	54	18358
2026-01-11 04:40:36.55	330.37	3.34	-40.5	-51.8	3.7	3.02e+01	0	31	104	899153920	52	23610
2026-01-11 04:40:39.58	330.72	3.20	-40.5	-52.2	3.5	3.02e+01	0	31	104	899153920	58	17559
2026-01-11 04:40:42.61	331.07	3.05	-41.4	-53.6	3.5	3.02e+01	0	31	104	899153920	56	23094
2026-01-11 04:40:45.64	331.41	2.91	-47.6	-65.6	3.5	3.02e+01	0	31	104	899153920	60	73463
2026-01-11 04:40:48.66	331.75	2.76	-48.0	-66.1	3.5	3.02e+01	0	31	104	899153920	60	77978
2026-01-11 04:40:51.69	332.09	2.62	-48.2	-66.2	3.5	3.02e+01	0	31	104	899153920	60	78715
2026-01-11 04:40:54.72	332.42	2.48	-48.1	-66.1	3.5	3.02e+01	0	31	104	899153920	60	78067
2026-01-11 04:40:57.75	332.75	2.33	-48.2	-66.0	3.5	3.02e+01	0	31	104	899153920	60	76980
2026-01-11 04:41:00.78	333.08	2.19	-48.2	-66.1	3.5	3.02e+01	0	31	104	899153920	60	77824
2026-01-11 04:41:03.81	333.41	2.04	-48.2	-66.1	3.5	3.02e+01	0	31	104	899153920	60	78104
2026-01-11 04:41:06.84	333.73	1.90	-48.2	-66.1	3.5	3.02e+01	0	31	104	899153920	60	77614
2026-01-11 04:41:09.86	334.04	1.76	-48.2	-66.2	3.5	3.02e+01	0	31	104	899153920	60	78689
2026-01-11 04:41:12.89	334.36	1.61	-48.2	-66.1	3.5	3.02e+01	0	31	104	899153920	60	78071
2026-01-11 04:41:15.92	334.67	1.47	-48.3	-66.2	3.5	3.02e+01	0	31	104	899153920	60	79024
2026-01-11 04:41:18.95	334.98	1.33	-48.2	-66.1	3.5	3.02e+01	0	31	104	899153920	60	77458
2026-01-11 04:41:21.98	335.28	1.19	-48.2	-66.1	3.5	3.02e+01	0	31	104	899153920	60	77829
2026-01-11 04:41:25.01	335.58	1.04	-48.1	-66.0	3.5	3.02e+01	0	31	104	899153920	60	77142
2026-01-11 04:41:28.04	335.88	0.90	-48.1	-66.0	3.5	3.02e+01	0	31	104	899153920	60	76913
2026-01-11 04:41:31.07	336.18	0.76	-48.1	-66.0	3.5	3.02e+01	0	31	104	899153920	60	76823
2026-01-11 04:41:34.10	336.47	0.62	-48.1	-66.1	3.5	3.02e+01	0	31	104	899153920	60	77545
2026-01-11 04:41:37.13	336.76	0.47	-48.1	-66.0	3.5	3.02e+01	0	31	104	899153920	60	76884
2026-01-11 04:41:40.15	337.05	0.33	-48.2	-66.2	3.5	3.02e+01	0	31	104	899153920	60	78240
2026-01-11 04:41:43.18	337.33	0.19	-48.1	-66.0	3.5	3.02e+01	0	31	104	899153920	60	76424
2026-01-11 04:41:46.21	337.61	0.05	-48.1	-66.1	3.5	3.02e+01	0	31	104	899153920	60	77342
2026-01-11 04:41:49.24	337.89	-0.09	-48.1	-66.0	3.5	3.02e+01	0	31	104	899153920	60	77096

#Closed at: 2026-01-11 04:41:49
#Recorded file [899 MB]: D:/lorett/data/35029_260111_163033.dat