passes_logs/2026/01/11/R4.6S_Anadyr/R4.6S_Anadyr__20260111_205704_SUOMI_NPP_rec.log

#Pass ID: 20260111_205704_SUOMI NPP
#Satellite: SUOMI NPP
#Configuration: NPP
#almurnet v.1.7.20251203
#Start time: 2026-01-11 20:57:08

#Version: 2.2.20231116
#Station: R4.6S_Anadyr
#Location: 177.4865 lon 64.73178 lat
#TLE: 1 37849U 11061A   26011.57971124  .00000103  00000+0  69927-4 0  9996
#TLE: 2 37849  98.7807 313.6578 0002518  69.5076 290.6370 14.19524515736228

#Time	Az	El	Level	Level2	SNR	BER	BlckErr	Temp	State	Recorded	gain1	gain2
2026-01-11 20:57:08.27	78.55	0.18	-48.3	-62.1	3.3	1.54e+00	0	28	0	0	60	45937
2026-01-11 20:57:12.30	78.27	0.38	-48.2	-63.4	3.6	1.51e+00	0	28	104	0	60	53762
2026-01-11 20:57:16.34	77.99	0.59	-48.2	-63.4	3.6	1.51e+00	0	28	104	0	60	53729
2026-01-11 20:57:20.37	77.70	0.80	-47.7	-63.0	3.6	1.51e+00	0	28	104	0	60	50874
2026-01-11 20:57:24.41	77.41	1.01	-46.1	-61.7	3.6	1.51e+00	0	28	104	0	60	43955
2026-01-11 20:57:28.45	77.11	1.22	-46.1	-61.7	3.6	1.51e+00	0	28	104	0	60	43977
2026-01-11 20:57:32.49	76.81	1.43	-46.1	-61.6	3.6	1.51e+00	0	28	104	0	60	43481
2026-01-11 20:57:36.52	76.51	1.64	-46.1	-61.7	3.6	1.51e+00	0	29	104	0	60	43891
2026-01-11 20:57:40.57	76.20	1.85	-46.1	-61.6	3.6	1.51e+00	0	29	104	0	60	43495
2026-01-11 20:57:44.61	75.89	2.06	-46.1	-61.3	3.6	1.51e+00	0	29	104	0	60	42056
2026-01-11 20:57:48.65	75.57	2.28	-46.1	-61.7	3.6	1.51e+00	0	29	104	0	60	43728
2026-01-11 20:57:52.68	75.25	2.49	-46.1	-61.7	3.6	1.51e+00	0	29	104	0	60	43804
2026-01-11 20:57:56.72	74.92	2.71	-46.1	-60.6	3.6	1.51e+00	0	29	104	0	60	38909
2026-01-11 20:58:00.76	74.59	2.92	-45.1	-51.4	8.6	8.16e-02	0	29	0	2097152	60	13497
2026-01-11 20:58:04.80	74.25	3.14	-42.8	-45.4	15.4	4.65e-05	0	29	0	9437184	60	6760
2026-01-11 20:58:08.84	73.91	3.36	-43.7	-47.2	13.5	3.96e-04	0	29	0	13631488	60	8237
2026-01-11 20:58:12.88	73.56	3.57	-44.6	-48.9	12.3	9.15e-05	0	29	0	20971520	60	10069
2026-01-11 20:58:16.91	73.20	3.79	-43.6	-46.7	14.1	0.00e+00	0	29	0	28311552	58	8781
2026-01-11 20:58:20.95	72.84	4.01	-42.3	-44.6	15.2	0.00e+00	0	29	0	35651584	58	6906
2026-01-11 20:58:24.99	72.48	4.23	-43.2	-46.1	14.7	0.00e+00	0	29	0	42991616	58	8158
2026-01-11 20:58:29.02	72.11	4.45	-43.2	-46.0	14.9	0.00e+00	0	29	0	51380224	58	8079
2026-01-11 20:58:33.06	71.73	4.67	-42.3	-44.6	16.3	7.00e-07	0	29	0	58720256	58	6878
2026-01-11 20:58:37.10	71.35	4.90	-41.3	-43.0	17.9	0.00e+00	0	29	0	66060288	56	6454
2026-01-11 20:58:41.13	70.96	5.12	-40.9	-42.6	18.4	0.00e+00	0	29	0	73400320	56	6171
2026-01-11 20:58:45.17	70.57	5.34	-40.8	-42.4	18.5	0.00e+00	0	29	0	81788928	54	6719
2026-01-11 20:58:49.20	70.17	5.57	-40.8	-42.5	18.5	0.00e+00	0	29	0	89128960	54	6803
2026-01-11 20:58:53.24	69.76	5.79	-40.8	-42.5	18.7	0.00e+00	0	29	0	96468992	54	6786
2026-01-11 20:58:57.28	69.35	6.02	-40.9	-42.6	18.4	0.00e+00	0	29	0	103809024	54	6906
2026-01-11 20:59:01.31	68.93	6.24	-40.5	-42.1	19.1	0.00e+00	0	29	0	111149056	54	6520
2026-01-11 20:59:05.35	68.50	6.47	-40.5	-42.0	19.1	0.00e+00	0	29	0	119537664	54	6441
2026-01-11 20:59:09.39	68.06	6.69	-40.4	-41.9	19.2	0.00e+00	0	29	0	126877696	54	6367
2026-01-11 20:59:13.42	67.62	6.92	-40.4	-41.9	19.2	0.00e+00	0	30	0	134217728	54	6390
2026-01-11 20:59:17.45	67.18	7.15	-40.3	-41.8	19.3	0.00e+00	0	30	0	141557760	54	6303
2026-01-11 20:59:21.49	66.72	7.38	-40.1	-41.5	19.6	0.00e+00	0	29	0	149946368	54	6087
2026-01-11 20:59:25.53	66.26	7.60	-40.4	-42.0	19.2	0.00e+00	0	30	0	157286400	54	6396
2026-01-11 20:59:29.57	65.79	7.83	-40.4	-42.0	19.2	0.00e+00	0	30	0	164626432	54	6436
2026-01-11 20:59:33.60	65.31	8.06	-40.3	-41.9	19.4	0.00e+00	0	29	0	171966464	54	6336
2026-01-11 20:59:37.64	64.83	8.29	-40.1	-41.6	19.7	0.00e+00	0	30	0	179306496	54	6104
2026-01-11 20:59:41.67	64.33	8.52	-39.5	-40.8	20.3	0.00e+00	0	30	0	187695104	52	6304
2026-01-11 20:59:45.70	63.83	8.74	-39.3	-40.6	20.7	0.00e+00	0	30	0	195035136	52	6142
2026-01-11 20:59:49.74	63.32	8.97	-39.4	-40.6	20.6	0.00e+00	0	30	0	202375168	52	6171
2026-01-11 20:59:53.78	62.81	9.20	-39.6	-40.9	20.0	0.00e+00	0	30	0	209715200	52	6367
2026-01-11 20:59:57.81	62.28	9.43	-39.5	-40.8	20.3	0.00e+00	0	30	0	217055232	52	6300
2026-01-11 21:00:01.85	61.75	9.66	-39.5	-40.8	20.5	0.00e+00	0	30	0	225443840	52	6253
2026-01-11 21:00:05.88	61.20	9.88	-39.2	-40.4	20.9	0.00e+00	0	30	0	232783872	52	5979
2026-01-11 21:00:09.92	60.65	10.11	-39.7	-40.9	20.4	0.00e+00	0	30	0	240123904	52	6377
2026-01-11 21:00:13.95	60.09	10.34	-39.6	-40.9	20.5	0.00e+00	0	30	0	247463936	52	6345
2026-01-11 21:00:17.99	59.52	10.56	-39.6	-40.8	20.5	0.00e+00	0	30	0	255852544	52	6299
2026-01-11 21:00:22.03	58.94	10.79	-39.6	-40.9	20.4	0.00e+00	0	30	0	263192576	52	6381
2026-01-11 21:00:26.06	58.36	11.01	-39.6	-40.9	20.4	0.00e+00	0	30	0	270532608	52	6379
2026-01-11 21:00:30.10	57.76	11.24	-40.3	-41.7	19.7	0.00e+00	0	30	0	277872640	52	6964
2026-01-11 21:00:34.13	57.16	11.46	-39.7	-41.0	20.4	0.00e+00	0	30	0	285212672	52	6418
2026-01-11 21:00:38.17	56.54	11.68	-39.4	-40.7	20.8	0.00e+00	0	30	0	293601280	52	6183
2026-01-11 21:00:42.21	55.92	11.90	-39.1	-40.3	21.1	0.00e+00	0	30	0	300941312	52	5929
2026-01-11 21:00:46.25	55.28	12.12	-39.0	-40.2	21.2	0.00e+00	0	30	0	308281344	52	5837
2026-01-11 21:00:50.28	54.64	12.34	-38.3	-39.4	22.1	0.00e+00	0	30	0	315621376	50	6011
2026-01-11 21:00:54.32	53.99	12.55	-38.0	-39.0	22.2	0.00e+00	0	30	0	322961408	50	5746
2026-01-11 21:00:58.36	53.32	12.76	-37.9	-38.9	22.3	0.00e+00	0	30	0	331350016	48	6343
2026-01-11 21:01:02.40	52.65	12.98	-37.7	-38.7	22.4	0.00e+00	0	30	0	338690048	48	6219
2026-01-11 21:01:06.44	51.96	13.18	-38.1	-39.1	22.2	0.00e+00	0	30	0	346030080	48	6522
2026-01-11 21:01:10.47	51.27	13.39	-37.5	-38.5	22.6	0.00e+00	0	30	0	353370112	48	6057
2026-01-11 21:01:14.51	50.57	13.60	-37.3	-38.3	22.7	0.00e+00	0	30	0	361758720	48	5925
2026-01-11 21:01:18.54	49.86	13.80	-38.0	-39.0	22.2	0.00e+00	0	30	0	369098752	48	6444
2026-01-11 21:01:22.58	49.14	14.00	-37.6	-38.6	22.4	0.00e+00	0	30	0	376438784	48	6172
2026-01-11 21:01:26.62	48.41	14.19	-36.8	-37.7	23.2	0.00e+00	0	30	0	383778816	48	5563
2026-01-11 21:01:30.65	47.67	14.38	-36.2	-37.0	23.8	0.00e+00	0	30	0	391118848	46	5748
2026-01-11 21:01:34.69	46.91	14.57	-36.6	-37.5	23.4	0.00e+00	0	30	0	399507456	46	6092
2026-01-11 21:01:38.73	46.15	14.76	-37.4	-38.4	22.7	0.00e+00	0	30	0	406847488	46	6719
2026-01-11 21:01:42.76	45.38	14.94	-37.5	-38.5	22.7	0.00e+00	0	30	0	414187520	46	6797
2026-01-11 21:01:46.80	44.60	15.12	-37.0	-38.0	23.1	0.00e+00	0	30	0	421527552	46	6392
2026-01-11 21:01:50.83	43.82	15.29	-37.2	-38.2	23.0	0.00e+00	0	30	0	429916160	46	6611
2026-01-11 21:01:54.87	43.02	15.46	-36.9	-37.9	23.0	0.00e+00	0	30	0	437256192	46	6336
2026-01-11 21:01:58.90	42.21	15.63	-36.6	-37.5	23.4	0.00e+00	0	30	0	444596224	46	6039
2026-01-11 21:02:02.94	41.39	15.79	-37.1	-38.1	23.0	0.00e+00	0	30	0	451936256	46	6475
2026-01-11 21:02:06.98	40.57	15.94	-37.1	-38.1	23.0	0.00e+00	0	30	0	459276288	46	6505
2026-01-11 21:02:11.01	39.74	16.09	-36.7	-37.7	23.3	0.00e+00	0	30	0	467664896	46	6185
2026-01-11 21:02:15.05	38.89	16.24	-36.2	-37.0	23.8	0.00e+00	0	29	0	475004928	46	5749
2026-01-11 21:02:19.08	38.05	16.38	-35.9	-36.8	24.1	0.00e+00	0	30	0	482344960	46	5581
2026-01-11 21:02:23.11	37.19	16.51	-36.1	-36.9	23.8	0.00e+00	0	29	0	489684992	44	6388
2026-01-11 21:02:27.15	36.32	16.64	-36.6	-37.5	23.4	0.00e+00	0	29	0	497025024	44	6792
2026-01-11 21:02:31.18	35.45	16.76	-37.2	-38.2	23.0	0.00e+00	0	29	0	505413632	46	6574
2026-01-11 21:02:35.22	34.57	16.87	-37.3	-38.3	22.9	0.00e+00	0	29	0	512753664	46	6648
2026-01-11 21:02:39.26	33.69	16.98	-37.7	-38.8	22.6	0.00e+00	0	29	0	520093696	48	6248
2026-01-11 21:02:43.30	32.79	17.09	-37.6	-38.6	22.5	0.00e+00	0	29	0	527433728	48	6143
2026-01-11 21:02:47.33	31.90	17.18	-36.7	-37.6	23.4	0.00e+00	0	29	0	535822336	46	6115
2026-01-11 21:02:51.37	30.99	17.27	-36.9	-37.8	23.3	0.00e+00	0	29	0	543162368	46	6285
2026-01-11 21:02:55.41	30.08	17.35	-36.7	-37.6	23.4	0.00e+00	0	29	0	550502400	46	6158
2026-01-11 21:02:59.44	29.17	17.43	-37.1	-38.1	23.0	0.00e+00	0	29	0	557842432	46	6497
2026-01-11 21:03:03.47	28.25	17.49	-38.1	-39.2	22.0	0.00e+00	0	29	0	565182464	48	6591
2026-01-11 21:03:07.51	27.33	17.55	-38.5	-39.6	21.6	0.00e+00	0	29	0	573571072	48	6921
2026-01-11 21:03:11.55	26.40	17.60	-38.0	-39.1	22.2	0.00e+00	0	29	0	580911104	48	6476
2026-01-11 21:03:15.59	25.48	17.65	-37.4	-38.3	22.8	0.00e+00	0	29	0	588251136	48	5962
2026-01-11 21:03:19.63	24.54	17.69	-37.4	-38.4	22.7	0.00e+00	0	29	0	595591168	48	6031
2026-01-11 21:03:23.67	23.61	17.71	-37.1	-38.0	23.1	0.00e+00	0	29	0	603979776	48	5754
2026-01-11 21:03:27.70	22.68	17.74	-37.9	-38.9	22.5	0.00e+00	0	29	0	611319808	48	6355
2026-01-11 21:03:31.74	21.74	17.75	-37.9	-39.0	22.4	0.00e+00	0	29	0	618659840	48	6407
2026-01-11 21:03:35.78	20.81	17.75	-37.5	-38.5	22.7	0.00e+00	0	29	0	625999872	48	6071
2026-01-11 21:03:39.82	19.87	17.75	-36.7	-37.6	23.2	0.00e+00	0	29	0	633339904	46	6117
2026-01-11 21:03:43.84	18.94	17.74	-37.7	-38.7	22.5	0.00e+00	0	29	0	641728512	48	6244
2026-01-11 21:03:47.88	18.00	17.72	-38.2	-39.4	22.0	0.00e+00	0	29	0	649068544	48	6693
2026-01-11 21:03:51.92	17.07	17.70	-37.9	-38.9	22.2	0.00e+00	0	29	0	656408576	48	6362
2026-01-11 21:03:55.95	16.14	17.66	-36.9	-37.9	23.1	0.00e+00	0	29	0	663748608	48	5663
2026-01-11 21:03:59.98	15.21	17.62	-37.3	-38.3	22.8	0.00e+00	0	29	0	672137216	48	5916
2026-01-11 21:04:04.01	14.29	17.57	-36.9	-37.8	23.2	0.00e+00	0	29	0	679477248	46	6281
2026-01-11 21:04:08.05	13.36	17.52	-36.4	-37.3	23.6	0.00e+00	0	29	0	686817280	46	5941
2026-01-11 21:04:12.08	12.45	17.45	-36.0	-36.8	23.9	0.00e+00	0	29	0	694157312	46	5612
2026-01-11 21:04:16.10	11.54	17.38	-35.9	-36.7	23.9	0.00e+00	0	29	0	701497344	44	6211
2026-01-11 21:04:20.13	10.63	17.30	-36.3	-37.2	23.7	0.00e+00	0	29	0	709885952	44	6593
2026-01-11 21:04:24.17	9.72	17.22	-36.8	-37.7	23.3	0.00e+00	0	29	0	717225984	46	6207
2026-01-11 21:04:28.21	8.82	17.13	-36.7	-37.7	23.3	0.00e+00	0	29	0	724566016	46	6189
2026-01-11 21:04:32.25	7.93	17.03	-37.0	-37.9	23.2	0.00e+00	0	29	0	731906048	46	6359
2026-01-11 21:04:36.29	7.04	16.92	-37.5	-38.5	22.6	0.00e+00	0	29	0	739246080	46	6804
2026-01-11 21:04:40.33	6.16	16.81	-37.1	-38.0	23.1	0.00e+00	0	29	0	747634688	46	6436
2026-01-11 21:04:44.36	5.28	16.69	-37.3	-38.3	22.8	0.00e+00	0	29	0	754974720	46	6619
2026-01-11 21:04:48.40	4.41	16.56	-38.3	-39.5	21.7	0.00e+00	0	29	0	762314752	48	6778
2026-01-11 21:04:52.43	3.56	16.43	-38.6	-39.7	21.7	0.00e+00	0	29	0	769654784	50	6244
2026-01-11 21:04:56.47	2.70	16.30	-38.0	-39.1	22.4	0.00e+00	0	29	0	776994816	50	5784
2026-01-11 21:05:00.50	1.86	16.15	-37.6	-38.6	22.8	0.00e+00	0	29	0	785383424	48	6109
2026-01-11 21:05:04.54	1.03	16.01	-37.5	-38.5	22.7	0.00e+00	0	29	0	792723456	48	6035
2026-01-11 21:05:08.58	0.20	15.85	-36.7	-37.6	23.3	0.00e+00	0	29	0	800063488	46	6172
2026-01-11 21:05:12.62	359.38	15.69	-36.6	-37.6	23.3	0.00e+00	0	29	0	807403520	46	6104
2026-01-11 21:05:16.66	358.57	15.53	-36.9	-37.8	23.0	0.00e+00	0	29	0	815792128	46	6317
2026-01-11 21:05:20.69	357.77	15.36	-38.3	-39.4	21.8	0.00e+00	0	29	0	823132160	48	6747
2026-01-11 21:05:24.73	356.98	15.19	-38.3	-39.4	21.8	0.00e+00	0	29	0	830472192	48	6726
2026-01-11 21:05:28.76	356.20	15.02	-38.1	-39.2	22.0	0.00e+00	0	29	0	837812224	48	6546
2026-01-11 21:05:32.80	355.42	14.84	-38.6	-39.7	21.5	0.00e+00	0	29	0	845152256	48	6997
2026-01-11 21:05:36.84	354.66	14.65	-37.9	-39.0	22.2	0.00e+00	0	29	0	853540864	48	6420
2026-01-11 21:05:40.87	353.91	14.46	-37.5	-38.5	22.7	0.00e+00	0	29	0	860880896	48	6069
2026-01-11 21:05:44.91	353.16	14.27	-36.9	-37.8	23.1	0.00e+00	0	29	0	868220928	48	5603
2026-01-11 21:05:48.94	352.43	14.08	-37.4	-38.4	22.9	0.00e+00	0	29	0	875560960	48	5976
2026-01-11 21:05:52.98	351.70	13.88	-37.4	-38.4	22.7	0.00e+00	0	29	0	883949568	48	6009
2026-01-11 21:05:57.01	350.99	13.68	-37.3	-38.3	22.7	0.00e+00	0	28	0	891289600	48	5902
2026-01-11 21:06:01.05	350.29	13.48	-38.4	-39.5	21.7	0.00e+00	0	28	0	898629632	48	6809
2026-01-11 21:06:05.09	349.59	13.27	-40.6	-42.2	19.4	0.00e+00	0	28	0	905969664	54	6549
2026-01-11 21:06:09.12	348.91	13.07	-40.1	-41.6	19.9	0.00e+00	0	28	0	913309696	54	6148
2026-01-11 21:06:13.16	348.23	12.86	-39.8	-41.2	20.3	0.00e+00	0	28	0	921698304	52	6550
2026-01-11 21:06:17.20	347.57	12.64	-39.0	-40.1	21.1	0.00e+00	0	28	0	929038336	52	5828
2026-01-11 21:06:21.23	346.91	12.43	-38.5	-39.6	21.6	0.00e+00	0	28	0	936378368	50	6116
2026-01-11 21:06:25.26	346.27	12.21	-38.7	-39.9	21.4	0.00e+00	0	28	0	943718400	50	6324
2026-01-11 21:06:29.30	345.63	12.00	-38.2	-39.2	21.9	0.00e+00	0	28	0	951058432	50	5867
2026-01-11 21:06:33.34	345.00	11.78	-38.0	-39.0	22.1	0.00e+00	0	28	0	959447040	50	5761
2026-01-11 21:06:37.37	344.39	11.56	-38.4	-39.5	21.8	0.00e+00	0	28	0	966787072	50	6082
2026-01-11 21:06:41.41	343.78	11.34	-38.7	-39.9	21.3	0.00e+00	0	28	0	974127104	50	6351
2026-01-11 21:06:45.45	343.18	11.11	-38.9	-40.0	21.2	0.00e+00	0	28	0	981467136	50	6464
2026-01-11 21:06:49.48	342.59	10.89	-38.4	-39.6	21.5	0.00e+00	0	28	0	989855744	50	6111
2026-01-11 21:06:53.52	342.01	10.67	-38.1	-39.2	22.1	0.00e+00	0	28	0	997195776	50	5884
2026-01-11 21:06:57.56	341.44	10.44	-37.3	-38.3	22.7	0.00e+00	0	28	0	1004535808	48	5908
2026-01-11 21:07:01.60	340.87	10.21	-36.9	-37.9	22.9	0.00e+00	0	28	0	1011875840	46	6352
2026-01-11 21:07:05.63	340.32	9.99	-37.6	-38.7	22.3	0.00e+00	0	28	0	1019215872	48	6209
2026-01-11 21:07:09.66	339.78	9.76	-37.4	-38.4	22.4	0.00e+00	0	28	0	1027604480	48	6030
2026-01-11 21:07:13.69	339.24	9.53	-37.2	-38.2	22.6	0.00e+00	0	28	0	1034944512	48	5869
2026-01-11 21:07:17.73	338.72	9.31	-37.4	-38.5	22.4	0.00e+00	0	28	0	1042284544	48	6057
2026-01-11 21:07:21.76	338.20	9.08	-37.6	-38.7	22.3	0.00e+00	0	28	0	1049624576	48	6207
2026-01-11 21:07:25.80	337.69	8.85	-38.0	-39.1	21.8	0.00e+00	0	28	0	1058013184	48	6534
2026-01-11 21:07:29.83	337.18	8.62	-38.4	-39.6	21.5	0.00e+00	0	28	0	1065353216	48	6897
2026-01-11 21:07:33.87	336.69	8.39	-38.0	-39.2	21.7	0.00e+00	0	28	0	1072693248	48	6549
2026-01-11 21:07:37.91	336.20	8.17	-37.8	-38.9	21.9	0.00e+00	0	28	0	1080033280	48	6352
2026-01-11 21:07:41.94	335.72	7.94	-37.2	-38.2	22.5	0.00e+00	0	28	0	1087373312	48	5840
2026-01-11 21:07:45.97	335.25	7.71	-37.9	-39.0	21.8	0.00e+00	0	28	0	1095761920	48	6458
2026-01-11 21:07:50.01	334.79	7.48	-38.6	-39.8	21.0	0.00e+00	0	28	0	1103101952	48	7058
2026-01-11 21:07:54.05	334.33	7.26	-38.5	-39.7	21.3	0.00e+00	0	28	0	1110441984	50	6175
2026-01-11 21:07:58.09	333.88	7.03	-38.0	-39.0	21.7	0.00e+00	0	28	0	1117782016	50	5759
2026-01-11 21:08:02.13	333.44	6.80	-37.7	-38.8	21.9	0.00e+00	0	28	0	1126170624	48	6271
2026-01-11 21:08:06.17	333.00	6.58	-38.4	-39.6	21.2	0.00e+00	0	28	0	1133510656	48	6872
2026-01-11 21:08:10.20	332.58	6.35	-39.1	-40.3	20.7	0.00e+00	0	28	0	1140850688	50	6680
2026-01-11 21:08:14.24	332.16	6.12	-39.3	-40.6	20.3	0.00e+00	0	28	0	1148190720	50	6858
2026-01-11 21:08:18.28	331.74	5.90	-39.7	-41.2	19.8	0.00e+00	0	28	0	1155530752	52	6541
2026-01-11 21:08:22.31	331.33	5.67	-39.4	-40.7	20.2	0.00e+00	0	28	0	1163919360	52	6217
2026-01-11 21:08:26.35	330.93	5.45	-39.3	-40.7	20.2	0.00e+00	0	28	0	1171259392	52	6176
2026-01-11 21:08:30.39	330.54	5.23	-40.1	-41.6	19.4	0.00e+00	0	28	0	1178599424	52	6911
2026-01-11 21:08:34.43	330.15	5.00	-40.6	-42.2	18.8	0.00e+00	0	28	0	1185939456	52	7359
2026-01-11 21:08:38.47	329.76	4.78	-40.4	-41.9	19.0	0.00e+00	0	28	0	1193279488	54	6371
2026-01-11 21:08:42.50	329.39	4.56	-40.3	-41.9	18.9	0.00e+00	0	28	0	1201668096	54	6340
2026-01-11 21:08:46.53	329.02	4.34	-40.0	-41.5	19.2	0.00e+00	0	28	0	1209008128	54	6095
2026-01-11 21:08:50.57	328.65	4.12	-40.0	-41.6	19.1	0.00e+00	0	28	0	1216348160	54	6104
2026-01-11 21:08:54.61	328.29	3.90	-40.3	-41.9	18.8	0.00e+00	0	28	0	1223688192	54	6332
2026-01-11 21:08:58.64	327.94	3.68	-40.5	-42.1	18.3	0.00e+00	0	28	0	1232076800	54	6512
2026-01-11 21:09:02.68	327.59	3.46	-40.6	-42.3	18.3	0.00e+00	0	28	0	1239416832	54	6643
2026-01-11 21:09:06.72	327.24	3.25	-40.4	-42.0	18.7	0.00e+00	0	28	0	1246756864	54	6458
2026-01-11 21:09:10.75	326.91	3.03	-40.4	-42.0	18.5	0.00e+00	0	28	0	1254096896	54	6461
2026-01-11 21:09:14.79	326.57	2.82	-48.1	-63.2	3.6	1.51e+00	0	28	104	1255145472	60	52544
2026-01-11 21:09:18.83	326.24	2.60	-48.3	-63.5	3.6	1.51e+00	0	28	104	1255145472	60	54232
2026-01-11 21:09:22.87	325.92	2.39	-48.3	-63.4	3.6	1.51e+00	0	28	104	1255145472	60	53642
2026-01-11 21:09:26.91	325.60	2.17	-48.1	-63.4	3.5	1.51e+00	0	28	104	1255145472	60	53276
2026-01-11 21:09:30.95	325.29	1.96	-48.2	-63.4	3.6	1.51e+00	0	28	104	1255145472	60	53495
2026-01-11 21:09:34.99	324.98	1.75	-48.2	-63.4	3.6	1.51e+00	0	28	104	1255145472	60	53328
2026-01-11 21:09:39.03	324.68	1.54	-48.2	-63.4	3.6	1.51e+00	0	28	104	1255145472	60	53286
2026-01-11 21:09:43.07	324.38	1.33	-48.2	-63.4	3.6	1.51e+00	0	28	104	1255145472	60	53180
2026-01-11 21:09:47.11	324.08	1.12	-48.1	-63.3	3.6	1.51e+00	0	28	104	1255145472	60	52797
2026-01-11 21:09:51.15	323.79	0.91	-48.2	-63.4	3.6	1.51e+00	0	28	104	1255145472	60	53642
2026-01-11 21:09:55.18	323.50	0.70	-48.2	-63.4	3.6	1.51e+00	0	28	104	1255145472	60	53242
2026-01-11 21:09:59.23	323.22	0.49	-48.3	-63.4	3.6	1.51e+00	0	28	104	1255145472	60	53567
2026-01-11 21:10:03.27	322.94	0.29	-48.2	-63.4	3.6	1.51e+00	0	28	104	1255145472	60	53479
2026-01-11 21:10:07.31	322.67	0.08	-48.1	-63.3	3.6	1.51e+00	0	28	104	1255145472	60	53004

#Closed at: 2026-01-11 21:10:09
#Recorded file [1255 MB]: D:/lorett/data/35029_260112_085708.dat