passes_logs/2026/01/11/R4.6S_Anadyr/R4.6S_Anadyr__20260111_005419_NOAA_20_JPSS-1_rec.log

#Pass ID: 20260111_005419_NOAA 20 (JPSS-1)
#Satellite: NOAA 20 (JPSS-1)
#Configuration: NOAA 20
#almurnet v.1.7.20251203
#Start time: 2026-01-11 00:54:21

#Version: 2.2.20231116
#Station: R4.6S_Anadyr
#Location: 177.4865 lon 64.73178 lat
#TLE: 1 43013U 17073A   26009.69119415  .00000109  00000+0  72598-4 0  9996
#TLE: 2 43013  98.7631 310.6868 0001678  46.7442 313.3874 14.19534878421981

#Time	Az	El	Level	Level2	SNR	BER	BlckErr	Temp	State	Recorded	gain1	gain2
2026-01-11 00:54:21.75	173.61	0.15	-47.8	-62.8	3.5	1.51e+00	0	25	0	0	60	49800
2026-01-11 00:54:25.78	173.71	0.39	-48.0	-63.2	3.6	1.51e+00	0	26	104	0	60	52038
2026-01-11 00:54:29.82	173.81	0.63	-47.8	-63.1	3.6	1.51e+00	0	26	104	0	60	51718
2026-01-11 00:54:33.86	173.91	0.88	-47.9	-63.2	3.6	1.51e+00	0	26	104	0	60	52154
2026-01-11 00:54:37.90	174.01	1.12	-47.7	-62.9	3.6	1.51e+00	0	26	104	0	60	50270
2026-01-11 00:54:41.94	174.11	1.37	-46.4	-61.3	3.6	1.51e+00	0	27	104	0	60	41959
2026-01-11 00:54:45.98	174.22	1.62	-46.3	-60.8	3.6	1.51e+00	0	27	104	0	60	39693
2026-01-11 00:54:50.01	174.32	1.87	-46.3	-61.2	3.6	1.51e+00	0	27	104	0	60	41695
2026-01-11 00:54:54.05	174.43	2.13	-46.4	-61.4	3.6	1.51e+00	0	27	104	0	60	42470
2026-01-11 00:54:58.09	174.54	2.39	-46.4	-61.4	3.6	1.51e+00	0	27	104	0	60	42304
2026-01-11 00:55:02.13	174.65	2.65	-46.3	-59.8	3.6	1.51e+00	0	27	104	0	60	35427
2026-01-11 00:55:06.17	174.77	2.91	-46.3	-60.4	3.6	1.51e+00	0	27	104	0	60	37868
2026-01-11 00:55:10.21	174.88	3.17	-43.9	-47.5	12.9	4.94e-04	0	27	0	3145728	60	8593
2026-01-11 00:55:14.24	175.00	3.44	-39.7	-41.2	19.1	0.00e+00	92	27	0	11534336	54	5885
2026-01-11 00:55:18.28	175.12	3.71	-39.8	-41.3	19.2	0.00e+00	90	27	0	18874368	52	6636
2026-01-11 00:55:22.32	175.24	3.98	-46.3	-59.2	3.8	1.29e+00	0	27	104	25165824	60	33152
2026-01-11 00:55:26.36	175.36	4.25	-41.5	-43.5	17.2	0.00e+00	0	27	0	29360128	56	6784
2026-01-11 00:55:30.40	175.48	4.53	-39.3	-40.7	20.0	0.00e+00	90	27	0	36700160	52	6177
2026-01-11 00:55:34.43	175.61	4.81	-38.7	-40.0	20.6	0.00e+00	92	27	0	44040192	50	6423
2026-01-11 00:55:38.47	175.74	5.09	-38.7	-40.0	20.8	0.00e+00	5	27	0	52428800	50	6423
2026-01-11 00:55:42.51	175.87	5.38	-38.7	-39.9	20.8	0.00e+00	55	27	0	59768832	50	6390
2026-01-11 00:55:46.55	176.01	5.67	-38.5	-39.7	21.1	0.00e+00	91	27	0	67108864	50	6180
2026-01-11 00:55:50.59	176.14	5.96	-38.4	-39.6	21.2	0.00e+00	91	28	0	74448896	50	6110
2026-01-11 00:55:54.62	176.28	6.25	-38.3	-39.4	21.4	0.00e+00	58	28	0	82837504	50	6019
2026-01-11 00:55:58.66	176.42	6.55	-38.2	-39.3	21.5	0.00e+00	92	28	0	90177536	50	5925
2026-01-11 00:56:02.69	176.57	6.85	-38.2	-39.3	21.5	0.00e+00	90	27	0	97517568	50	5951
2026-01-11 00:56:06.73	176.71	7.16	-38.1	-39.2	21.6	0.00e+00	92	28	0	104857600	50	5873
2026-01-11 00:56:10.77	176.86	7.47	-37.9	-39.0	21.9	0.00e+00	66	28	0	112197632	50	5722
2026-01-11 00:56:14.80	177.01	7.78	-37.7	-38.8	22.1	0.00e+00	91	28	0	120586240	48	6261
2026-01-11 00:56:18.84	177.17	8.09	-37.7	-38.7	22.2	0.00e+00	91	28	0	127926272	48	6197
2026-01-11 00:56:22.88	177.33	8.41	-37.5	-38.5	22.3	0.00e+00	92	28	0	135266304	48	6096
2026-01-11 00:56:26.92	177.49	8.74	-37.5	-38.5	22.4	0.00e+00	0	28	0	142606336	48	6099
2026-01-11 00:56:30.95	177.65	9.07	-37.6	-38.6	22.3	0.00e+00	92	28	0	149946368	48	6119
2026-01-11 00:56:34.99	177.82	9.40	-37.6	-38.7	22.3	0.00e+00	92	28	0	158334976	48	6175
2026-01-11 00:56:39.03	178.00	9.73	-37.4	-38.4	22.6	0.00e+00	91	28	0	165675008	48	6002
2026-01-11 00:56:43.08	178.17	10.08	-37.4	-38.4	22.6	0.00e+00	0	28	0	173015040	48	6033
2026-01-11 00:56:47.11	178.35	10.42	-37.2	-38.1	22.8	0.00e+00	92	28	0	180355072	48	5820
2026-01-11 00:56:51.15	178.54	10.77	-37.0	-38.0	23.0	0.00e+00	91	28	0	188743680	48	5702
2026-01-11 00:56:55.19	178.72	11.13	-36.9	-37.8	23.2	0.00e+00	92	28	0	196083712	48	5608
2026-01-11 00:56:59.23	178.92	11.49	-36.7	-37.6	23.4	0.00e+00	7	28	0	203423744	46	6170
2026-01-11 00:57:03.27	179.11	11.85	-36.6	-37.5	23.5	0.00e+00	92	28	0	210763776	46	6069
2026-01-11 00:57:07.30	179.31	12.22	-36.7	-37.6	23.4	0.00e+00	92	28	0	218103808	46	6153
2026-01-11 00:57:11.34	179.52	12.60	-36.8	-37.7	23.4	0.00e+00	91	28	0	226492416	46	6204
2026-01-11 00:57:15.38	179.73	12.98	-36.9	-37.8	23.3	0.00e+00	25	28	0	233832448	46	6278
2026-01-11 00:57:19.42	179.95	13.37	-36.8	-37.7	23.4	0.00e+00	92	28	0	241172480	46	6238
2026-01-11 00:57:23.46	180.17	13.76	-36.8	-37.8	23.3	0.00e+00	90	28	0	248512512	46	6261
2026-01-11 00:57:27.49	180.39	14.16	-36.6	-37.5	23.6	0.00e+00	92	28	0	256901120	46	6085
2026-01-11 00:57:31.53	180.63	14.56	-36.5	-37.4	23.8	0.00e+00	92	28	0	264241152	46	5986
2026-01-11 00:57:35.56	180.87	14.97	-36.5	-37.4	23.7	0.00e+00	92	28	0	271581184	46	6015
2026-01-11 00:57:39.60	181.11	15.39	-36.7	-37.6	23.6	0.00e+00	92	28	0	278921216	46	6127
2026-01-11 00:57:43.64	181.36	15.82	-36.7	-37.6	23.6	0.00e+00	92	28	0	286261248	46	6144
2026-01-11 00:57:47.68	181.62	16.25	-36.8	-37.8	23.4	0.00e+00	90	28	0	294649856	46	6255
2026-01-11 00:57:51.72	181.89	16.69	-36.8	-37.7	23.5	0.00e+00	92	29	0	301989888	46	6231
2026-01-11 00:57:55.75	182.16	17.13	-36.8	-37.7	23.5	0.00e+00	92	28	0	309329920	46	6206
2026-01-11 00:57:59.79	182.44	17.59	-36.4	-37.2	23.9	0.00e+00	64	29	0	316669952	46	5892
2026-01-11 00:58:03.83	182.73	18.05	-36.4	-37.3	23.8	0.00e+00	92	29	0	325058560	46	5939
2026-01-11 00:58:07.87	183.03	18.52	-36.4	-37.3	23.9	0.00e+00	92	29	0	332398592	46	5948
2026-01-11 00:58:11.91	183.34	19.00	-36.7	-37.6	23.6	0.00e+00	92	29	0	339738624	46	6153
2026-01-11 00:58:15.94	183.65	19.49	-36.4	-37.2	24.0	0.00e+00	2	29	0	347078656	46	5893
2026-01-11 00:58:19.98	183.98	19.99	-36.2	-37.1	24.1	0.00e+00	90	29	0	354418688	46	5783
2026-01-11 00:58:24.02	184.32	20.49	-35.6	-36.5	24.6	0.00e+00	91	29	0	362807296	44	6053
2026-01-11 00:58:28.06	184.66	21.01	-35.3	-36.1	24.9	0.00e+00	92	29	0	370147328	44	5801
2026-01-11 00:58:32.10	185.02	21.53	-35.2	-36.0	25.1	0.00e+00	23	29	0	377487360	44	5705
2026-01-11 00:58:36.15	185.39	22.07	-34.8	-35.6	25.3	0.00e+00	92	29	0	384827392	44	5475
2026-01-11 00:58:40.18	185.78	22.61	-34.8	-35.6	25.4	0.00e+00	92	29	0	393216000	42	6124
2026-01-11 00:58:44.22	186.17	23.17	-34.9	-35.7	25.3	0.00e+00	65	29	0	400556032	42	6179
2026-01-11 00:58:48.26	186.58	23.74	-34.9	-35.7	25.3	0.00e+00	0	29	0	407896064	42	6236
2026-01-11 00:58:52.30	187.01	24.32	-34.8	-35.6	25.4	0.00e+00	92	29	0	415236096	42	6136
2026-01-11 00:58:56.34	187.45	24.91	-34.8	-35.7	25.3	0.00e+00	91	29	0	422576128	42	6180
2026-01-11 00:59:00.38	187.91	25.51	-35.3	-36.1	25.1	0.00e+00	0	29	0	430964736	42	6479
2026-01-11 00:59:04.42	188.38	26.12	-35.3	-36.1	25.0	0.00e+00	92	29	0	438304768	42	6534
2026-01-11 00:59:08.46	188.87	26.75	-35.3	-36.1	25.0	0.00e+00	92	29	0	445644800	42	6508
2026-01-11 00:59:12.49	189.38	27.38	-35.2	-36.0	25.0	0.00e+00	92	29	0	452984832	42	6460
2026-01-11 00:59:16.53	189.91	28.03	-35.7	-36.5	24.7	0.00e+00	0	29	0	461373440	42	6778
2026-01-11 00:59:20.56	190.46	28.69	-36.4	-37.3	24.0	0.00e+00	92	29	0	468713472	44	6649
2026-01-11 00:59:24.61	191.04	29.37	-37.1	-38.1	23.4	0.00e+00	92	29	0	476053504	46	6475
2026-01-11 00:59:28.64	191.64	30.06	-37.8	-38.8	22.6	0.00e+00	92	29	0	483393536	46	7075
2026-01-11 00:59:32.68	192.27	30.77	-38.4	-39.6	22.1	0.00e+00	15	29	0	490733568	48	6921
2026-01-11 00:59:36.72	192.92	31.48	-39.0	-40.2	21.5	0.00e+00	92	29	0	499122176	50	6580
2026-01-11 00:59:40.75	193.60	32.21	-39.1	-40.2	21.4	0.00e+00	92	29	0	506462208	50	6590
2026-01-11 00:59:44.79	194.31	32.96	-38.6	-39.7	22.0	0.00e+00	92	29	0	513802240	50	6239
2026-01-11 00:59:48.83	195.06	33.72	-38.0	-39.0	22.5	0.00e+00	20	29	0	521142272	50	5755
2026-01-11 00:59:52.86	195.84	34.49	-38.2	-39.2	22.4	0.00e+00	91	29	0	529530880	50	5854
2026-01-11 00:59:56.90	196.65	35.27	-38.2	-39.2	22.4	0.00e+00	92	29	0	536870912	50	5850
2026-01-11 01:00:00.94	197.51	36.07	-37.3	-38.3	23.2	0.00e+00	92	29	0	544210944	48	5920
2026-01-11 01:00:04.98	198.41	36.88	-37.6	-38.6	23.0	0.00e+00	0	29	0	551550976	48	6159
2026-01-11 01:00:09.01	199.36	37.70	-37.1	-38.0	23.4	0.00e+00	92	29	0	558891008	48	5739
2026-01-11 01:00:13.05	200.35	38.54	-37.3	-38.3	23.2	0.00e+00	92	29	0	567279616	48	5930
2026-01-11 01:00:17.08	201.39	39.38	-36.6	-37.5	23.9	0.00e+00	92	29	0	574619648	46	6054
2026-01-11 01:00:21.12	202.49	40.24	-36.3	-37.2	24.3	0.00e+00	31	29	0	581959680	46	5847
2026-01-11 01:00:25.16	203.65	41.10	-36.3	-37.1	24.3	0.00e+00	92	29	0	589299712	46	5818
2026-01-11 01:00:29.20	204.87	41.97	-36.5	-37.5	24.0	0.00e+00	92	29	0	596639744	46	6040
2026-01-11 01:00:33.24	206.16	42.85	-36.7	-37.6	23.8	0.00e+00	90	29	0	605028352	46	6142
2026-01-11 01:00:37.28	207.52	43.73	-37.2	-38.1	23.4	0.00e+00	56	29	0	612368384	46	6529
2026-01-11 01:00:41.31	208.95	44.62	-38.0	-39.0	22.6	0.00e+00	92	29	0	619708416	48	6445
2026-01-11 01:00:45.35	210.47	45.50	-37.7	-38.8	22.9	0.00e+00	92	29	0	627048448	48	6268
2026-01-11 01:00:49.39	212.07	46.38	-39.5	-40.7	21.1	0.00e+00	92	29	0	635437056	50	7006
2026-01-11 01:00:53.43	213.77	47.25	-39.7	-40.9	20.8	0.00e+00	92	29	0	642777088	50	7128
2026-01-11 01:00:57.46	215.55	48.11	-40.6	-42.1	19.9	0.00e+00	92	29	0	650117120	54	6496
2026-01-11 01:01:01.50	217.44	48.96	-39.6	-40.9	20.9	0.00e+00	92	30	0	657457152	52	6370
2026-01-11 01:01:05.53	219.43	49.79	-39.6	-40.9	21.0	0.00e+00	7	29	0	664797184	52	6338
2026-01-11 01:01:09.56	221.53	50.59	-37.7	-38.7	22.9	0.00e+00	92	29	0	673185792	48	6186
2026-01-11 01:01:13.60	223.74	51.37	-37.2	-38.1	23.5	0.00e+00	90	29	0	680525824	48	5791
2026-01-11 01:01:17.64	226.07	52.11	-35.9	-36.7	24.6	0.00e+00	92	30	0	687865856	46	5556
2026-01-11 01:01:21.68	228.51	52.82	-35.4	-36.2	25.1	0.00e+00	0	29	0	695205888	44	5863
2026-01-11 01:01:25.71	231.07	53.47	-35.8	-36.6	24.7	0.00e+00	90	29	0	703594496	44	6127
2026-01-11 01:01:29.75	233.74	54.08	-35.8	-36.6	24.7	0.00e+00	92	29	0	710934528	44	6163
2026-01-11 01:01:33.79	236.52	54.63	-35.8	-36.7	24.6	0.00e+00	92	30	0	718274560	44	6186
2026-01-11 01:01:37.83	239.40	55.11	-35.7	-36.5	24.8	0.00e+00	8	30	0	725614592	44	6080
2026-01-11 01:01:41.87	242.37	55.53	-36.5	-37.4	24.0	0.00e+00	92	30	0	732954624	44	6722
2026-01-11 01:01:45.91	245.43	55.87	-37.1	-38.0	23.6	0.00e+00	92	30	0	741343232	46	6391
2026-01-11 01:01:49.95	248.55	56.14	-38.8	-39.9	21.8	0.00e+00	90	30	0	748683264	48	7154
2026-01-11 01:01:53.99	251.72	56.32	-39.5	-40.7	21.0	0.00e+00	0	30	0	756023296	50	7007
2026-01-11 01:01:58.02	254.91	56.42	-38.4	-39.4	22.2	0.00e+00	92	29	0	763363328	50	6029
2026-01-11 01:02:02.06	258.13	56.43	-37.6	-38.5	23.1	0.00e+00	92	30	0	771751936	48	6081
2026-01-11 01:02:06.10	261.33	56.36	-37.1	-38.0	23.4	0.00e+00	7	30	0	779091968	46	6459
2026-01-11 01:02:10.14	264.51	56.20	-37.0	-37.9	23.5	0.00e+00	52	30	0	786432000	46	6390
2026-01-11 01:02:14.18	267.65	55.96	-37.7	-38.7	22.9	0.00e+00	90	30	0	793772032	46	6944
2026-01-11 01:02:18.21	270.71	55.64	-37.5	-38.4	23.0	0.00e+00	91	30	0	801112064	48	6024
2026-01-11 01:02:22.25	273.71	55.24	-37.2	-38.1	23.5	0.00e+00	9	30	0	809500672	48	5784
2026-01-11 01:02:26.29	276.61	54.78	-37.0	-37.9	23.5	0.00e+00	92	30	0	816840704	48	5689
2026-01-11 01:02:30.33	279.42	54.25	-36.0	-36.8	24.5	0.00e+00	92	30	0	824180736	46	5605
2026-01-11 01:02:34.37	282.12	53.66	-34.1	-34.9	26.0	0.00e+00	90	30	0	831520768	42	5645
2026-01-11 01:02:38.41	284.71	53.01	-33.2	-33.9	26.7	0.00e+00	64	30	0	839909376	40	5658
2026-01-11 01:02:42.45	287.18	52.32	-33.7	-34.5	26.4	0.00e+00	92	30	0	847249408	40	6034
2026-01-11 01:02:46.49	289.54	51.59	-35.9	-36.8	24.6	0.00e+00	92	30	0	854589440	44	6274
2026-01-11 01:02:50.53	291.78	50.83	-40.2	-41.6	20.1	0.00e+00	0	30	0	861929472	52	6878
2026-01-11 01:02:54.56	293.90	50.03	-39.1	-40.2	21.5	0.00e+00	72	30	0	869269504	52	5887
2026-01-11 01:02:58.60	295.92	49.21	-41.5	-43.1	19.0	0.00e+00	92	30	0	877658112	56	6503
2026-01-11 01:03:02.64	297.84	48.37	-44.2	-47.2	14.7	7.00e-07	92	30	0	884998144	60	8326
2026-01-11 01:03:06.67	299.65	47.52	-39.5	-40.7	21.0	0.00e+00	14	30	0	892338176	50	6963
2026-01-11 01:03:10.71	301.36	46.65	-38.2	-39.3	22.4	0.00e+00	5	30	0	899678208	50	5905
2026-01-11 01:03:14.75	302.99	45.78	-39.2	-40.4	21.3	0.00e+00	90	30	0	908066816	50	6695
2026-01-11 01:03:18.79	304.53	44.90	-37.5	-38.4	23.1	0.00e+00	92	30	0	915406848	48	6023
2026-01-11 01:03:22.82	305.98	44.02	-40.7	-42.2	19.6	0.00e+00	10	30	0	922746880	54	6566
2026-01-11 01:03:26.86	307.36	43.15	-40.0	-41.2	20.6	0.00e+00	0	30	0	930086912	52	6577
2026-01-11 01:03:30.90	308.66	42.27	-42.2	-44.1	17.8	0.00e+00	92	30	0	937426944	58	6526
2026-01-11 01:03:34.94	309.90	41.40	-39.6	-40.8	20.9	0.00e+00	92	30	0	945815552	52	6302
2026-01-11 01:03:38.98	311.08	40.54	-41.0	-42.6	19.1	0.00e+00	3	30	0	953155584	54	6860
2026-01-11 01:03:43.02	312.19	39.68	-39.6	-40.8	20.9	0.00e+00	0	30	0	960495616	52	6268
2026-01-11 01:03:47.05	313.25	38.84	-40.7	-42.1	19.7	0.00e+00	92	30	0	967835648	54	6475
2026-01-11 01:03:51.09	314.26	38.01	-38.4	-39.5	21.9	0.00e+00	5	30	0	976224256	50	6035
2026-01-11 01:03:55.13	315.21	37.18	-40.3	-41.7	20.0	0.00e+00	0	30	0	983564288	52	6957
2026-01-11 01:03:59.16	316.12	36.37	-38.2	-39.2	22.4	0.00e+00	92	30	0	990904320	50	5851
2026-01-11 01:04:03.20	316.99	35.57	-38.4	-39.4	22.1	0.00e+00	92	30	0	998244352	50	6011
2026-01-11 01:04:07.24	317.82	34.79	-38.9	-40.1	21.6	0.00e+00	12	30	0	1005584384	50	6508
2026-01-11 01:04:11.27	318.61	34.02	-37.1	-38.0	23.6	0.00e+00	0	30	0	1013972992	48	5729
2026-01-11 01:04:15.31	319.37	33.26	-39.8	-41.1	20.6	0.00e+00	91	30	0	1021313024	50	7319
2026-01-11 01:04:19.35	320.09	32.52	-39.2	-40.4	21.4	0.00e+00	92	30	0	1028653056	52	5992
2026-01-11 01:04:23.38	320.78	31.79	-37.6	-38.6	23.0	0.00e+00	0	30	0	1035993088	48	6105
2026-01-11 01:04:27.42	321.44	31.07	-39.2	-40.4	21.3	0.00e+00	0	30	0	1044381696	50	6758
2026-01-11 01:04:31.46	322.07	30.36	-39.1	-40.3	21.3	0.00e+00	92	30	0	1051721728	50	6639
2026-01-11 01:04:35.50	322.68	29.67	-38.3	-39.4	22.2	0.00e+00	92	30	0	1059061760	50	5974
2026-01-11 01:04:39.53	323.26	29.00	-37.8	-38.8	22.6	0.00e+00	0	30	0	1066401792	48	6280
2026-01-11 01:04:43.57	323.82	28.33	-37.7	-38.7	22.8	0.00e+00	65	30	0	1073741824	48	6174
2026-01-11 01:04:47.61	324.36	27.68	-39.1	-40.3	21.3	0.00e+00	92	30	0	1082130432	50	6630
2026-01-11 01:04:51.65	324.88	27.04	-38.1	-39.2	22.4	0.00e+00	63	30	0	1089470464	50	5846
2026-01-11 01:04:55.69	325.37	26.42	-37.3	-38.3	23.1	0.00e+00	19	30	0	1096810496	48	5916
2026-01-11 01:04:59.73	325.85	25.80	-37.8	-38.8	22.7	0.00e+00	6	30	0	1104150528	48	6287
2026-01-11 01:05:03.77	326.32	25.20	-38.2	-39.3	22.2	0.00e+00	92	30	0	1112539136	48	6631
2026-01-11 01:05:07.80	326.76	24.61	-38.0	-39.0	22.5	0.00e+00	66	30	0	1119879168	48	6431
2026-01-11 01:05:11.84	327.19	24.03	-37.8	-38.8	22.7	0.00e+00	66	30	0	1127219200	48	6272
2026-01-11 01:05:15.88	327.61	23.46	-37.5	-38.4	23.0	0.00e+00	48	30	0	1134559232	48	6023
2026-01-11 01:05:19.92	328.01	22.91	-37.3	-38.3	23.2	0.00e+00	92	30	0	1141899264	48	5908
2026-01-11 01:05:23.95	328.40	22.36	-37.8	-38.8	22.6	0.00e+00	0	30	0	1150287872	48	6307
2026-01-11 01:05:27.99	328.77	21.83	-38.0	-39.0	22.4	0.00e+00	65	30	0	1157627904	48	6428
2026-01-11 01:05:32.03	329.14	21.30	-37.3	-38.2	23.1	0.00e+00	89	30	0	1164967936	48	5864
2026-01-11 01:05:36.07	329.49	20.78	-36.7	-37.6	23.7	0.00e+00	91	30	0	1172307968	46	6122
2026-01-11 01:05:40.11	329.83	20.28	-36.9	-37.7	23.6	0.00e+00	2	30	0	1179648000	46	6237
2026-01-11 01:05:44.15	330.16	19.78	-37.4	-38.4	23.0	0.00e+00	0	30	0	1188036608	46	6711
2026-01-11 01:05:48.18	330.48	19.29	-37.9	-38.9	22.5	0.00e+00	92	30	0	1195376640	48	6364
2026-01-11 01:05:52.22	330.79	18.81	-37.6	-38.6	22.7	0.00e+00	16	30	0	1202716672	48	6119
2026-01-11 01:05:56.26	331.10	18.34	-36.9	-37.8	23.5	0.00e+00	17	30	0	1210056704	48	5581
2026-01-11 01:06:00.30	331.39	17.88	-36.4	-37.2	23.8	0.00e+00	0	30	0	1218445312	46	5895
2026-01-11 01:06:04.34	331.68	17.42	-35.6	-36.4	24.6	0.00e+00	92	30	0	1225785344	44	5965
2026-01-11 01:06:08.38	331.95	16.97	-35.8	-36.6	24.4	0.00e+00	64	30	0	1233125376	44	6134
2026-01-11 01:06:12.41	332.22	16.54	-36.1	-36.9	24.1	0.00e+00	62	30	0	1240465408	44	6380
2026-01-11 01:06:16.45	332.49	16.10	-36.8	-37.7	23.2	0.00e+00	16	30	0	1247805440	44	6946
2026-01-11 01:06:20.49	332.74	15.68	-37.3	-38.3	22.8	0.00e+00	92	30	0	1256194048	46	6650
2026-01-11 01:06:24.53	332.99	15.26	-37.5	-38.5	22.7	0.00e+00	6	30	0	1263534080	46	6815
2026-01-11 01:06:28.57	333.24	14.85	-37.4	-38.4	22.8	0.00e+00	61	30	0	1270874112	46	6716
2026-01-11 01:06:32.61	333.47	14.44	-37.2	-38.1	22.9	0.00e+00	47	30	0	1278214144	46	6535
2026-01-11 01:06:36.65	333.70	14.04	-36.7	-37.7	23.4	0.00e+00	92	30	0	1286602752	46	6187
2026-01-11 01:06:40.69	333.93	13.65	-36.7	-37.6	23.5	0.00e+00	6	30	0	1293942784	46	6119
2026-01-11 01:06:44.73	334.15	13.26	-36.7	-37.6	23.4	0.00e+00	6	30	0	1301282816	46	6127
2026-01-11 01:06:48.77	334.36	12.88	-36.9	-37.9	23.1	0.00e+00	0	30	0	1308622848	46	6324
2026-01-11 01:06:52.80	334.57	12.50	-37.4	-38.4	22.6	0.00e+00	92	30	0	1315962880	46	6716
2026-01-11 01:06:56.84	334.78	12.13	-37.6	-38.7	22.4	0.00e+00	63	30	0	1324351488	48	6209
2026-01-11 01:07:00.88	334.98	11.77	-37.7	-38.8	22.2	0.00e+00	0	30	0	1331691520	48	6279
2026-01-11 01:07:04.92	335.18	11.41	-37.8	-38.9	22.1	0.00e+00	92	30	0	1339031552	48	6344
2026-01-11 01:07:08.95	335.37	11.05	-37.9	-38.9	22.1	0.00e+00	90	30	0	1346371584	48	6380
2026-01-11 01:07:12.99	335.56	10.70	-37.8	-38.9	22.1	0.00e+00	0	30	0	1354760192	48	6358
2026-01-11 01:07:17.03	335.74	10.36	-37.7	-38.8	22.2	0.00e+00	55	30	0	1362100224	48	6269
2026-01-11 01:07:21.07	335.92	10.02	-38.0	-39.1	22.0	0.00e+00	92	31	0	1369440256	48	6477
2026-01-11 01:07:25.11	336.10	9.68	-37.6	-38.7	22.2	0.00e+00	0	30	0	1376780288	48	6212
2026-01-11 01:07:29.15	336.27	9.35	-37.7	-38.7	22.2	0.00e+00	2	31	0	1384120320	48	6235
2026-01-11 01:07:33.19	336.44	9.02	-37.7	-38.8	22.1	0.00e+00	0	31	0	1392508928	48	6288
2026-01-11 01:07:37.23	336.60	8.70	-37.7	-38.8	22.0	0.00e+00	92	30	0	1399848960	48	6281
2026-01-11 01:07:41.27	336.77	8.38	-37.9	-39.0	21.8	0.00e+00	0	31	0	1407188992	48	6427
2026-01-11 01:07:45.31	336.93	8.06	-38.0	-39.1	21.7	0.00e+00	0	31	0	1414529024	48	6479
2026-01-11 01:07:49.35	337.08	7.75	-38.1	-39.2	21.6	0.00e+00	0	31	0	1422917632	48	6595
2026-01-11 01:07:53.39	337.24	7.44	-38.3	-39.5	21.3	0.00e+00	91	31	0	1430257664	48	6780
2026-01-11 01:07:57.42	337.39	7.13	-38.6	-39.8	21.0	0.00e+00	58	30	0	1437597696	48	7039
2026-01-11 01:08:01.44	337.54	6.83	-38.8	-40.1	20.7	0.00e+00	24	30	0	1444937728	50	6502
2026-01-11 01:08:05.48	337.68	6.53	-38.9	-40.2	20.6	0.00e+00	5	30	0	1452277760	50	6567
2026-01-11 01:08:09.52	337.82	6.24	-39.1	-40.4	20.2	0.00e+00	92	31	0	1460666368	50	6766
2026-01-11 01:08:13.55	337.96	5.95	-39.4	-40.8	19.7	0.00e+00	0	31	0	1468006400	50	7055
2026-01-11 01:08:17.59	338.10	5.66	-39.5	-41.1	19.2	0.00e+00	0	31	0	1475346432	50	7301
2026-01-11 01:08:21.62	338.24	5.37	-40.1	-41.9	18.2	0.00e+00	62	31	0	1482686464	52	7126
2026-01-11 01:08:25.66	338.37	5.09	-41.0	-43.3	16.4	0.00e+00	90	31	0	1490026496	54	7471
2026-01-11 01:08:29.70	338.50	4.81	-41.6	-45.0	13.7	1.50e-06	28	30	0	1498415104	54	9078
2026-01-11 01:08:33.73	338.63	4.54	-42.5	-47.6	10.2	3.81e-03	7	31	0	1505755136	56	10899
2026-01-11 01:08:37.77	338.76	4.26	-42.7	-50.4	6.3	2.13e-01	5	31	0	1513095168	58	13472
2026-01-11 01:08:41.80	338.88	3.99	-42.7	-53.3	3.8	1.34e+00	0	31	0	1520435200	58	18685
2026-01-11 01:08:45.84	339.01	3.72	-42.7	-56.8	3.6	1.51e+00	0	31	104	1520435200	58	27945
2026-01-11 01:08:49.88	339.13	3.45	-42.8	-58.0	3.6	1.51e+00	0	31	104	1520435200	58	32325
2026-01-11 01:08:53.92	339.25	3.19	-42.7	-57.8	3.6	1.51e+00	0	31	104	1520435200	58	31552
2026-01-11 01:08:57.96	339.37	2.93	-47.0	-62.2	3.6	1.51e+00	0	31	104	1520435200	60	46792
2026-01-11 01:09:02.00	339.48	2.67	-47.9	-63.1	3.6	1.51e+00	0	31	104	1520435200	60	51513
2026-01-11 01:09:06.04	339.60	2.41	-47.7	-63.2	3.6	1.51e+00	0	31	104	1520435200	60	52170
2026-01-11 01:09:10.07	339.71	2.16	-47.7	-63.1	3.6	1.51e+00	0	31	104	1520435200	60	51515
2026-01-11 01:09:14.11	339.82	1.91	-47.9	-63.1	3.6	1.51e+00	0	31	104	1520435200	60	51856
2026-01-11 01:09:18.15	339.93	1.66	-47.9	-63.1	3.6	1.51e+00	0	31	104	1520435200	60	51466
2026-01-11 01:09:22.19	340.04	1.41	-47.9	-63.0	3.6	1.51e+00	0	31	104	1520435200	60	51016
2026-01-11 01:09:26.23	340.14	1.16	-47.9	-63.1	3.5	1.51e+00	0	31	104	1520435200	60	51453
2026-01-11 01:09:30.27	340.25	0.92	-47.9	-63.0	3.6	1.51e+00	0	31	104	1520435200	60	51215
2026-01-11 01:09:34.30	340.35	0.68	-47.9	-63.1	3.6	1.51e+00	0	31	104	1520435200	60	51843
2026-01-11 01:09:38.34	340.46	0.44	-47.8	-63.0	3.6	1.51e+00	0	31	104	1520435200	60	50946
2026-01-11 01:09:42.38	340.56	0.20	-47.8	-63.0	3.6	1.51e+00	0	31	104	1520435200	60	51294
2026-01-11 01:09:46.42	340.66	-0.04	-47.9	-63.0	3.6	1.51e+00	0	31	104	1520435200	60	51302

#Closed at: 2026-01-11 01:09:48
#Recorded file [1520 MB]: D:/lorett/data/35029_260111_125421.dat