passes_logs/2026/01/11/R4.6S_Anadyr/R4.6S_Anadyr__20260111_183936_FENGYUN_3D_rec.log

#Pass ID: 20260111_183936_FENGYUN 3D
#Satellite: FENGYUN 3D
#Configuration: FENGYUN 3D
#almurnet v.1.7.20251203
#Start time: 2026-01-11 18:39:38

#Version: 2.2.20231116
#Station: R4.6S_Anadyr
#Location: 177.4865 lon 64.73178 lat
#TLE: 1 43010U 17072A   26010.98637270  .00000005  00000+0  24269-4 0  9997
#TLE: 2 43010  98.9936 342.7405 0002213 115.1030 245.0375 14.19693961422685

#Time	Az	El	Level	Level2	SNR	BER	BlckErr	Temp	State	Recorded	gain1	gain2
2026-01-11 18:39:38.82	27.38	0.11	-48.3	-66.1	3.5	3.02e+01	0	24	0	0	60	77464
2026-01-11 18:39:42.86	27.21	0.34	-48.1	-60.3	3.6	8.45e-01	0	26	104	0	60	37229
2026-01-11 18:39:46.90	27.03	0.57	-48.2	-60.3	3.6	8.46e-01	0	26	104	0	60	37318
2026-01-11 18:39:50.94	26.86	0.80	-47.7	-59.8	3.6	8.44e-01	0	26	104	0	60	35202
2026-01-11 18:39:54.98	26.67	1.04	-46.5	-58.5	3.5	8.45e-01	0	26	104	0	60	30304
2026-01-11 18:39:59.01	26.49	1.27	-46.4	-58.6	3.6	8.45e-01	0	26	104	0	60	30677
2026-01-11 18:40:03.05	26.30	1.51	-46.4	-58.5	3.6	8.45e-01	0	26	104	0	60	30502
2026-01-11 18:40:07.09	26.11	1.75	-46.4	-58.6	3.6	8.46e-01	0	26	104	0	60	30745
2026-01-11 18:40:11.13	25.92	1.99	-46.4	-58.4	3.6	8.45e-01	0	26	104	0	60	30229
2026-01-11 18:40:15.17	25.72	2.23	-46.4	-58.2	3.6	8.45e-01	0	26	104	0	60	29407
2026-01-11 18:40:19.21	25.52	2.47	-46.4	-58.5	3.6	8.46e-01	0	26	104	0	60	30453
2026-01-11 18:40:23.25	25.31	2.72	-46.4	-58.3	3.6	8.44e-01	0	27	104	0	60	29646
2026-01-11 18:40:27.29	25.11	2.96	-46.3	-57.5	3.6	8.45e-01	0	27	104	0	60	27031
2026-01-11 18:40:31.33	24.89	3.21	-45.5	-52.2	5.5	7.96e-01	0	27	104	0	60	14723
2026-01-11 18:40:35.37	24.68	3.46	-41.4	-43.3	14.2	0.00e+00	0	27	0	18874368	56	6628
2026-01-11 18:40:39.41	24.46	3.72	-37.2	-38.2	17.2	1.20e-01	0	27	104	31457280	44	7406
2026-01-11 18:40:43.44	24.23	3.97	-36.5	-37.4	20.3	0.00e+00	0	27	0	41943040	46	6031
2026-01-11 18:40:47.48	24.01	4.23	-36.1	-37.0	20.8	0.00e+00	0	27	0	63963136	44	6392
2026-01-11 18:40:51.52	23.77	4.49	-35.2	-36.0	21.7	0.00e+00	0	27	0	87031808	44	5732
2026-01-11 18:40:55.55	23.54	4.74	-35.0	-35.8	21.9	0.00e+00	0	27	0	109051904	44	5604
2026-01-11 18:40:59.59	23.29	5.01	-34.6	-35.4	22.4	0.00e+00	0	27	0	132120576	42	6011
2026-01-11 18:41:03.63	23.05	5.27	-34.6	-35.3	22.5	0.00e+00	0	27	0	155189248	42	5963
2026-01-11 18:41:07.67	22.80	5.54	-34.6	-35.3	22.6	0.00e+00	0	27	0	177209344	42	5960
2026-01-11 18:41:11.71	22.54	5.81	-34.4	-35.2	22.8	0.00e+00	0	27	0	200278016	42	5852
2026-01-11 18:41:15.75	22.28	6.08	-34.3	-35.0	22.9	0.00e+00	0	27	0	223346688	42	5756
2026-01-11 18:41:19.79	22.01	6.35	-34.2	-35.0	23.0	0.00e+00	0	27	0	246415360	42	5721
2026-01-11 18:41:23.82	21.74	6.63	-34.1	-34.9	23.1	0.00e+00	0	27	0	268435456	42	5646
2026-01-11 18:41:27.85	21.46	6.90	-34.0	-34.8	23.3	0.00e+00	0	27	0	291504128	42	5572
2026-01-11 18:41:31.89	21.18	7.18	-33.9	-34.6	23.4	0.00e+00	0	28	0	313524224	42	5491
2026-01-11 18:41:35.93	20.89	7.47	-33.9	-34.7	23.4	0.00e+00	0	27	0	336592896	42	5506
2026-01-11 18:41:39.97	20.59	7.75	-34.0	-34.8	23.4	0.00e+00	0	28	0	359661568	40	6248
2026-01-11 18:41:44.01	20.29	8.04	-33.9	-34.7	23.5	0.00e+00	0	27	0	381681664	40	6178
2026-01-11 18:41:48.05	19.99	8.33	-33.5	-34.2	23.9	0.00e+00	0	28	0	404750336	40	5863
2026-01-11 18:41:52.09	19.67	8.62	-33.4	-34.1	24.0	0.00e+00	0	28	0	427819008	40	5812
2026-01-11 18:41:56.12	19.35	8.92	-33.4	-34.1	23.9	0.00e+00	0	28	0	449839104	40	5816
2026-01-11 18:42:00.15	19.02	9.21	-33.2	-33.9	24.2	0.00e+00	0	28	0	472907776	40	5643
2026-01-11 18:42:04.18	18.69	9.51	-33.4	-34.1	24.0	0.00e+00	0	28	0	495976448	40	5776
2026-01-11 18:42:08.22	18.35	9.82	-33.0	-33.7	24.4	0.00e+00	0	28	0	517996544	40	5527
2026-01-11 18:42:12.26	18.00	10.12	-32.9	-33.6	24.5	0.00e+00	0	28	0	541065216	40	5476
2026-01-11 18:42:16.30	17.64	10.43	-32.8	-33.5	24.5	0.00e+00	0	28	0	564133888	40	5436
2026-01-11 18:42:20.34	17.28	10.74	-32.8	-33.4	24.7	0.00e+00	0	28	0	586153984	38	6032
2026-01-11 18:42:24.37	16.90	11.06	-32.8	-33.5	24.7	0.00e+00	0	28	0	609222656	38	6044
2026-01-11 18:42:28.41	16.52	11.37	-32.9	-33.6	24.6	0.00e+00	0	28	0	632291328	38	6168
2026-01-11 18:42:32.44	16.13	11.69	-32.8	-33.4	24.8	0.00e+00	0	28	0	654311424	38	6022
2026-01-11 18:42:36.48	15.73	12.01	-32.7	-33.3	24.9	0.00e+00	0	28	0	677380096	38	5952
2026-01-11 18:42:40.51	15.32	12.34	-32.4	-33.1	25.1	0.00e+00	0	28	0	699400192	38	5776
2026-01-11 18:42:44.54	14.91	12.67	-32.5	-33.2	25.0	0.00e+00	0	28	0	722468864	38	5860
2026-01-11 18:42:48.58	14.48	13.00	-32.5	-33.2	25.0	0.00e+00	0	28	0	745537536	38	5863
2026-01-11 18:42:52.62	14.04	13.33	-32.0	-32.7	25.5	0.00e+00	0	28	0	767557632	38	5536
2026-01-11 18:42:56.65	13.59	13.67	-32.2	-32.8	25.3	0.00e+00	0	28	0	790626304	38	5624
2026-01-11 18:43:00.68	13.13	14.01	-32.0	-32.7	25.5	0.00e+00	0	28	0	813694976	38	5504
2026-01-11 18:43:04.72	12.66	14.35	-31.8	-32.4	25.7	0.00e+00	0	28	0	835715072	38	5374
2026-01-11 18:43:08.75	12.18	14.69	-31.7	-32.4	25.8	0.00e+00	0	28	0	858783744	36	5986
2026-01-11 18:43:12.79	11.69	15.04	-31.5	-32.2	25.9	0.00e+00	0	28	0	881852416	36	5855
2026-01-11 18:43:16.83	11.18	15.39	-31.5	-32.2	26.0	0.00e+00	0	28	0	903872512	36	5864
2026-01-11 18:43:20.86	10.67	15.74	-31.5	-32.2	26.0	0.00e+00	0	29	0	926941184	36	5848
2026-01-11 18:43:24.90	10.14	16.10	-31.3	-31.9	26.2	0.00e+00	0	29	0	950009856	36	5683
2026-01-11 18:43:28.93	9.59	16.46	-31.0	-31.6	26.5	0.00e+00	0	29	0	972029952	36	5490
2026-01-11 18:43:32.97	9.04	16.82	-31.1	-31.7	26.4	0.00e+00	0	28	0	995098624	36	5535
2026-01-11 18:43:37.01	8.47	17.18	-31.3	-32.0	26.2	0.00e+00	0	29	0	1018167296	36	5698
2026-01-11 18:43:41.04	7.88	17.55	-30.9	-31.5	26.6	0.00e+00	0	29	0	1040187392	36	5435
2026-01-11 18:43:45.08	7.28	17.92	-30.7	-31.3	26.8	0.00e+00	0	29	0	1063256064	34	5918
2026-01-11 18:43:49.12	6.67	18.29	-30.7	-31.3	26.8	0.00e+00	0	29	0	1085276160	34	5935
2026-01-11 18:43:53.15	6.04	18.66	-30.7	-31.3	26.9	0.00e+00	0	29	0	1108344832	34	5959
2026-01-11 18:43:57.19	5.39	19.04	-30.5	-31.2	26.8	0.00e+00	0	29	0	1131413504	34	5857
2026-01-11 18:44:01.24	4.72	19.41	-30.4	-31.1	27.0	0.00e+00	0	29	0	1154482176	34	5785
2026-01-11 18:44:05.28	4.04	19.79	-30.1	-30.7	27.3	0.00e+00	0	29	0	1176502272	34	5547
2026-01-11 18:44:09.32	3.35	20.17	-30.5	-31.1	27.0	0.00e+00	0	29	0	1199570944	34	5783
2026-01-11 18:44:13.35	2.63	20.55	-30.3	-30.9	27.1	0.00e+00	0	29	0	1222639616	34	5676
2026-01-11 18:44:17.39	1.90	20.93	-30.0	-30.6	27.3	0.00e+00	0	29	0	1244659712	34	5492
2026-01-11 18:44:21.42	1.15	21.32	-30.3	-31.0	27.1	0.00e+00	0	29	0	1267728384	34	5696
2026-01-11 18:44:25.46	0.37	21.70	-30.2	-30.8	27.3	0.00e+00	0	29	0	1289748480	34	5629
2026-01-11 18:44:29.50	359.58	22.08	-30.0	-30.6	27.4	0.00e+00	0	29	0	1312817152	34	5480
2026-01-11 18:44:33.54	358.77	22.46	-30.0	-30.7	27.4	0.00e+00	0	29	0	1335885824	34	5523
2026-01-11 18:44:37.58	357.94	22.85	-30.2	-30.8	27.3	0.00e+00	0	29	0	1357905920	34	5596
2026-01-11 18:44:41.61	357.09	23.23	-29.8	-30.4	27.6	0.00e+00	0	29	0	1380974592	32	6013
2026-01-11 18:44:45.65	356.21	23.61	-29.6	-30.2	27.8	0.00e+00	0	29	0	1404043264	32	5866
2026-01-11 18:44:49.69	355.32	23.98	-29.5	-30.1	27.9	0.00e+00	0	29	0	1427111936	32	5786
2026-01-11 18:44:53.73	354.40	24.36	-29.5	-30.1	27.8	0.00e+00	0	29	0	1449132032	32	5820
2026-01-11 18:44:57.77	353.46	24.73	-29.7	-30.3	27.7	0.00e+00	0	29	0	1472200704	32	5923
2026-01-11 18:45:01.81	352.50	25.10	-29.4	-30.0	28.0	0.00e+00	0	29	0	1494220800	32	5721
2026-01-11 18:45:05.85	351.51	25.46	-29.5	-30.1	27.8	0.00e+00	0	29	0	1517289472	32	5792
2026-01-11 18:45:09.88	350.50	25.82	-29.3	-29.9	28.0	0.00e+00	0	29	0	1540358144	32	5648
2026-01-11 18:45:13.92	349.47	26.18	-29.4	-30.0	27.8	0.00e+00	0	29	0	1562378240	32	5723
2026-01-11 18:45:17.96	348.41	26.53	-29.2	-29.8	28.0	0.00e+00	0	29	0	1585446912	32	5577
2026-01-11 18:45:21.99	347.34	26.87	-29.2	-29.8	28.1	0.00e+00	0	29	0	1608515584	32	5616
2026-01-11 18:45:26.03	346.23	27.20	-29.2	-29.8	28.1	0.00e+00	0	29	0	1631584256	32	5592
2026-01-11 18:45:30.07	345.11	27.53	-29.0	-29.6	28.2	0.00e+00	0	29	0	1653604352	32	5494
2026-01-11 18:45:34.10	343.96	27.85	-28.8	-29.3	28.4	0.00e+00	0	29	0	1676673024	30	5955
2026-01-11 18:45:38.14	342.79	28.16	-28.9	-29.6	28.3	0.00e+00	0	29	0	1698693120	30	6108
2026-01-11 18:45:42.18	341.59	28.46	-29.1	-29.7	28.2	0.00e+00	0	29	0	1721761792	30	6215
2026-01-11 18:45:46.22	340.37	28.75	-28.9	-29.5	28.3	0.00e+00	0	29	0	1744830464	30	6092
2026-01-11 18:45:50.25	339.14	29.02	-28.9	-29.5	28.4	0.00e+00	0	29	0	1766850560	30	6035
2026-01-11 18:45:54.29	337.88	29.28	-29.0	-29.6	28.4	0.00e+00	0	29	0	1789919232	30	6130
2026-01-11 18:45:58.33	336.59	29.53	-28.4	-29.0	28.8	0.00e+00	0	29	0	1812987904	30	5716
2026-01-11 18:46:02.36	335.30	29.77	-28.8	-29.4	28.5	0.00e+00	0	29	0	1835008000	30	6015
2026-01-11 18:46:06.40	333.98	29.99	-28.8	-29.4	28.4	0.00e+00	0	29	0	1858076672	30	5985
2026-01-11 18:46:10.44	332.64	30.19	-28.8	-29.4	28.4	0.00e+00	0	29	0	1881145344	30	5990
2026-01-11 18:46:14.47	331.29	30.38	-28.7	-29.3	28.5	0.00e+00	0	29	0	1903165440	30	5922
2026-01-11 18:46:18.51	329.92	30.55	-28.7	-29.3	28.5	0.00e+00	0	29	0	1926234112	30	5900
2026-01-11 18:46:22.55	328.54	30.70	-28.7	-29.3	28.5	0.00e+00	0	29	0	1949302784	30	5911
2026-01-11 18:46:26.59	327.14	30.84	-28.7	-29.3	28.5	0.00e+00	0	30	0	1971322880	30	5917
2026-01-11 18:46:30.62	325.74	30.96	-28.7	-29.3	28.5	0.00e+00	0	30	0	1994391552	30	5914
2026-01-11 18:46:34.66	324.32	31.05	-28.6	-29.1	28.6	0.00e+00	0	30	0	2017460224	30	5828
2026-01-11 18:46:38.70	322.90	31.13	-28.4	-28.9	28.7	0.00e+00	0	30	0	2039480320	30	5693
2026-01-11 18:46:42.74	321.46	31.19	-28.4	-29.0	28.8	0.00e+00	0	30	0	2062548992	30	5735
2026-01-11 18:46:46.77	320.03	31.23	-28.9	-29.4	28.4	0.00e+00	0	29	0	2084569088	30	6020
2026-01-11 18:46:50.81	318.60	31.24	-28.5	-29.2	28.7	0.00e+00	0	29	0	2107637760	30	5837
2026-01-11 18:46:54.85	317.16	31.24	-28.6	-29.3	28.6	0.00e+00	0	30	0	2130706432	30	5921
2026-01-11 18:46:58.89	315.72	31.22	-28.7	-29.3	28.5	0.00e+00	0	30	0	2153775104	30	5913
2026-01-11 18:47:02.92	314.29	31.17	-28.6	-29.2	28.5	0.00e+00	0	30	0	2175795200	30	5879
2026-01-11 18:47:06.96	312.86	31.11	-28.6	-29.1	28.5	0.00e+00	0	29	0	2198863872	30	5796
2026-01-11 18:47:11.00	311.44	31.03	-28.5	-29.1	28.7	0.00e+00	0	30	0	2221932544	30	5803
2026-01-11 18:47:15.03	310.03	30.92	-28.5	-29.2	28.7	0.00e+00	0	30	0	2243952640	30	5847
2026-01-11 18:47:19.07	308.62	30.80	-28.6	-29.2	28.6	0.00e+00	0	29	0	2267021312	30	5833
2026-01-11 18:47:23.11	307.23	30.66	-28.9	-29.5	28.4	0.00e+00	0	30	0	2289041408	30	6088
2026-01-11 18:47:27.15	305.85	30.50	-28.6	-29.2	28.6	0.00e+00	0	30	0	2312110080	30	5849
2026-01-11 18:47:31.19	304.48	30.32	-28.2	-28.7	28.9	0.00e+00	0	30	0	2335178752	30	5542
2026-01-11 18:47:35.22	303.13	30.13	-28.7	-29.2	28.6	0.00e+00	0	30	0	2357198848	30	5888
2026-01-11 18:47:39.26	301.80	29.92	-29.2	-29.8	28.1	0.00e+00	0	30	0	2380267520	30	6252
2026-01-11 18:47:43.29	300.49	29.70	-29.0	-29.5	28.4	0.00e+00	0	30	0	2403336192	30	6090
2026-01-11 18:47:47.33	299.19	29.46	-28.7	-29.3	28.5	0.00e+00	0	30	0	2425356288	30	5952
2026-01-11 18:47:51.36	297.91	29.20	-28.8	-29.4	28.4	0.00e+00	0	30	0	2448424960	30	6012
2026-01-11 18:47:55.40	296.66	28.94	-29.1	-29.8	28.2	0.00e+00	0	30	0	2471493632	30	6252
2026-01-11 18:47:59.43	295.42	28.66	-29.1	-29.8	28.4	0.00e+00	0	30	0	2493513728	30	6259
2026-01-11 18:48:03.46	294.21	28.37	-28.8	-29.3	28.5	0.00e+00	0	30	0	2516582400	30	5921
2026-01-11 18:48:07.50	293.02	28.06	-28.8	-29.5	28.5	0.00e+00	0	30	0	2539651072	30	6057
2026-01-11 18:48:11.54	291.85	27.75	-28.7	-29.4	28.4	0.00e+00	0	30	0	2561671168	30	5971
2026-01-11 18:48:15.58	290.71	27.43	-29.0	-29.5	28.3	0.00e+00	0	30	0	2584739840	30	6057
2026-01-11 18:48:19.62	289.58	27.10	-29.0	-29.7	28.2	0.00e+00	0	30	0	2607808512	30	6192
2026-01-11 18:48:23.66	288.49	26.76	-29.1	-29.7	28.2	0.00e+00	0	30	0	2629828608	30	6232
2026-01-11 18:48:27.70	287.41	26.41	-29.2	-29.7	28.1	0.00e+00	0	30	0	2652897280	30	6213
2026-01-11 18:48:31.74	286.36	26.06	-29.3	-29.9	28.2	0.00e+00	0	30	0	2675965952	30	6361
2026-01-11 18:48:35.78	285.33	25.70	-29.3	-29.8	27.8	0.00e+00	0	30	0	2697986048	30	6275
2026-01-11 18:48:39.81	284.33	25.34	-29.6	-30.2	27.7	0.00e+00	0	30	0	2721054720	30	6547
2026-01-11 18:48:43.85	283.34	24.97	-29.5	-30.0	27.8	0.00e+00	0	30	0	2744123392	30	6435
2026-01-11 18:48:47.88	282.39	24.60	-29.1	-29.6	28.0	0.00e+00	0	30	0	2766143488	30	6155
2026-01-11 18:48:51.92	281.45	24.23	-29.4	-29.9	27.8	0.00e+00	0	30	0	2789212160	30	6342
2026-01-11 18:48:55.96	280.54	23.85	-29.4	-30.0	27.4	0.00e+00	0	30	0	2812280832	32	5707
2026-01-11 18:49:00.00	279.64	23.47	-29.5	-30.0	27.5	0.00e+00	0	30	0	2834300928	32	5728
2026-01-11 18:49:04.04	278.77	23.09	-29.9	-30.5	27.4	0.00e+00	0	30	0	2857369600	32	6069
2026-01-11 18:49:08.08	277.92	22.71	-29.9	-30.4	27.4	0.00e+00	0	30	0	2879389696	32	6000
2026-01-11 18:49:12.11	277.10	22.33	-29.6	-30.2	27.6	0.00e+00	0	30	0	2902458368	32	5838
2026-01-11 18:49:16.15	276.29	21.94	-30.1	-30.8	27.1	0.00e+00	0	30	0	2925527040	32	6246
2026-01-11 18:49:20.19	275.50	21.56	-29.7	-30.4	27.4	0.00e+00	0	30	0	2948595712	32	6011
2026-01-11 18:49:24.23	274.73	21.17	-29.9	-30.5	27.3	0.00e+00	0	30	0	2970615808	32	6070
2026-01-11 18:49:28.27	273.98	20.79	-29.9	-30.5	27.3	0.00e+00	0	30	0	2993684480	32	6044
2026-01-11 18:49:32.30	273.25	20.41	-30.0	-30.6	27.2	0.00e+00	0	30	0	3016753152	32	6127
2026-01-11 18:49:36.34	272.54	20.03	-29.9	-30.6	27.3	0.00e+00	0	30	0	3038773248	32	6129
2026-01-11 18:49:40.38	271.84	19.65	-30.1	-30.8	27.1	0.00e+00	0	30	0	3061841920	32	6271
2026-01-11 18:49:44.42	271.16	19.27	-30.1	-30.6	27.2	0.00e+00	0	30	0	3083862016	32	6153
2026-01-11 18:49:48.45	270.50	18.89	-30.3	-30.9	26.9	0.00e+00	0	30	0	3106930688	32	6330
2026-01-11 18:49:52.48	269.86	18.52	-30.8	-31.3	26.6	0.00e+00	0	30	0	3129999360	34	5941
2026-01-11 18:49:56.52	269.23	18.14	-30.9	-31.6	26.6	0.00e+00	0	30	0	3152019456	34	6140
2026-01-11 18:50:00.56	268.62	17.77	-30.7	-31.4	26.7	0.00e+00	0	30	0	3175088128	34	6027
2026-01-11 18:50:04.60	268.02	17.40	-30.8	-31.5	26.6	0.00e+00	0	30	0	3198156800	34	6099
2026-01-11 18:50:08.63	267.44	17.04	-30.9	-31.4	26.5	0.00e+00	0	30	0	3221225472	34	6033
2026-01-11 18:50:12.67	266.87	16.67	-31.2	-31.8	26.3	0.00e+00	0	30	0	3243245568	34	6249
2026-01-11 18:50:16.71	266.31	16.31	-31.1	-31.7	26.3	0.00e+00	0	30	0	3266314240	34	6200
2026-01-11 18:50:20.75	265.77	15.95	-31.3	-31.9	26.2	0.00e+00	0	30	0	3288334336	34	6320
2026-01-11 18:50:24.79	265.24	15.59	-31.4	-32.0	26.1	0.00e+00	0	30	0	3311403008	34	6416
2026-01-11 18:50:28.82	264.72	15.24	-31.3	-32.0	26.2	0.00e+00	0	30	0	3334471680	34	6396
2026-01-11 18:50:32.86	264.22	14.89	-31.9	-32.4	25.9	0.00e+00	0	30	0	3350200320	38	5376
2026-01-11 18:50:36.90	263.73	14.54	-31.9	-32.5	25.6	0.00e+00	0	30	0	3373268992	38	5423
2026-01-11 18:50:40.94	263.25	14.19	-32.0	-32.7	25.6	0.00e+00	0	30	0	3395289088	38	5552
2026-01-11 18:50:44.97	262.78	13.85	-32.0	-32.6	25.5	0.00e+00	0	30	0	3418357760	38	5460
2026-01-11 18:50:49.01	262.32	13.51	-32.1	-32.7	25.5	0.00e+00	0	30	0	3441426432	38	5519
2026-01-11 18:50:53.05	261.87	13.18	-32.1	-32.8	25.3	0.00e+00	0	30	0	3463446528	38	5596
2026-01-11 18:50:57.08	261.43	12.84	-32.1	-32.7	25.5	0.00e+00	0	30	0	3486515200	38	5551
2026-01-11 18:51:01.12	261.01	12.51	-32.2	-33.0	25.2	0.00e+00	0	30	0	3509583872	38	5700
2026-01-11 18:51:05.16	260.59	12.18	-32.4	-33.1	25.2	0.00e+00	0	30	0	3531603968	38	5782
2026-01-11 18:51:09.20	260.18	11.86	-32.5	-33.1	25.1	0.00e+00	0	30	0	3554672640	38	5812
2026-01-11 18:51:13.24	259.78	11.54	-32.6	-33.2	25.0	0.00e+00	0	30	0	3577741312	38	5847
2026-01-11 18:51:17.28	259.39	11.22	-32.8	-33.6	24.7	0.00e+00	0	30	0	3599761408	38	6136
2026-01-11 18:51:21.32	259.01	10.90	-32.9	-33.6	24.6	0.00e+00	0	30	0	3622830080	38	6162
2026-01-11 18:51:25.35	258.63	10.59	-32.9	-33.5	24.6	0.00e+00	0	30	0	3645898752	38	6060
2026-01-11 18:51:29.39	258.27	10.28	-32.7	-33.3	24.8	0.00e+00	0	30	0	3667918848	38	5956
2026-01-11 18:51:33.43	257.91	9.97	-32.9	-33.5	24.6	0.00e+00	0	30	0	3690987520	38	6096
2026-01-11 18:51:37.47	257.56	9.66	-33.1	-33.9	24.3	0.00e+00	0	30	0	3714056192	38	6326
2026-01-11 18:51:41.50	257.22	9.36	-33.1	-33.8	24.3	0.00e+00	0	30	0	3736076288	38	6253
2026-01-11 18:51:45.54	256.88	9.06	-33.2	-33.8	24.2	0.00e+00	0	30	0	3759144960	38	6299
2026-01-11 18:51:49.58	256.56	8.76	-33.3	-33.9	24.1	0.00e+00	0	30	0	3781165056	38	6331
2026-01-11 18:51:53.61	256.24	8.47	-33.4	-34.0	24.0	0.00e+00	0	30	0	3804233728	38	6419
2026-01-11 18:51:57.65	255.92	8.17	-33.7	-34.5	23.7	0.00e+00	0	30	0	3827302400	38	6847
2026-01-11 18:52:01.69	255.61	7.88	-33.6	-34.2	23.8	0.00e+00	0	29	0	3850371072	38	6609
2026-01-11 18:52:05.72	255.31	7.60	-33.7	-34.3	23.7	0.00e+00	0	30	0	3872391168	38	6670
2026-01-11 18:52:09.76	255.02	7.31	-33.9	-34.5	23.5	0.00e+00	0	30	0	3895459840	40	6088
2026-01-11 18:52:13.80	254.72	7.03	-33.6	-34.3	23.6	0.00e+00	0	29	0	3918528512	40	5906
2026-01-11 18:52:17.84	254.44	6.75	-34.3	-35.1	23.0	0.00e+00	0	30	0	3940548608	40	6531
2026-01-11 18:52:21.88	254.16	6.47	-34.5	-35.2	22.8	0.00e+00	0	29	0	3963617280	42	5877
2026-01-11 18:52:25.92	253.89	6.20	-34.4	-35.1	22.9	0.00e+00	0	30	0	3985637376	42	5796
2026-01-11 18:52:29.96	253.62	5.92	-33.8	-34.5	23.3	0.00e+00	0	30	0	4008706048	40	6076
2026-01-11 18:52:33.99	253.36	5.65	-34.1	-34.9	23.1	0.00e+00	0	29	0	4031774720	40	6327
2026-01-11 18:52:38.03	253.10	5.38	-34.0	-34.7	23.1	0.00e+00	0	29	0	4053794816	40	6193
2026-01-11 18:52:42.07	252.85	5.12	-34.0	-34.8	23.1	0.00e+00	0	29	0	4076863488	40	6288
2026-01-11 18:52:46.11	252.60	4.85	-34.4	-35.1	22.6	0.00e+00	0	29	0	4099932160	40	6537
2026-01-11 18:52:50.15	252.36	4.59	-34.6	-35.4	22.4	0.00e+00	0	29	0	4123000832	40	6759
2026-01-11 18:52:54.19	252.12	4.33	-34.6	-35.3	22.3	0.00e+00	0	29	0	4145020928	40	6678
2026-01-11 18:52:58.23	251.88	4.07	-34.5	-35.4	22.4	0.00e+00	0	29	0	4168089600	42	5970
2026-01-11 18:53:02.27	251.65	3.81	-34.8	-35.5	22.1	0.00e+00	0	29	0	4190109696	42	6063
2026-01-11 18:53:06.30	251.43	3.56	-34.7	-35.4	22.2	0.00e+00	0	29	0	4213178368	44	5356
2026-01-11 18:53:10.34	251.21	3.31	-34.8	-35.7	21.9	0.00e+00	0	29	0	4236247040	44	5535
2026-01-11 18:53:14.38	250.99	3.06	-34.7	-35.4	22.0	0.00e+00	0	29	0	4258267136	42	6027
2026-01-11 18:53:18.42	250.77	2.81	-48.0	-60.1	3.6	8.45e-01	0	29	104	4264558592	60	36425
2026-01-11 18:53:22.46	250.56	2.56	-48.2	-60.2	3.6	8.45e-01	0	29	104	4264558592	60	37009
2026-01-11 18:53:26.49	250.36	2.32	-47.9	-60.1	3.6	8.46e-01	0	29	104	4264558592	60	36719
2026-01-11 18:53:30.53	250.15	2.07	-48.0	-60.0	3.6	8.46e-01	0	29	104	4264558592	60	36288
2026-01-11 18:53:34.57	249.95	1.83	-48.0	-60.2	3.5	8.44e-01	0	29	104	4264558592	60	36784
2026-01-11 18:53:38.61	249.76	1.59	-48.0	-60.2	3.6	8.45e-01	0	29	104	4264558592	60	36795
2026-01-11 18:53:42.65	249.57	1.36	-48.0	-60.2	3.6	8.46e-01	0	29	104	4264558592	60	36905
2026-01-11 18:53:46.69	249.38	1.12	-48.0	-60.1	3.6	8.45e-01	0	29	104	4264558592	60	36617
2026-01-11 18:53:50.73	249.19	0.88	-48.0	-60.1	3.6	8.44e-01	0	29	104	4264558592	60	36730
2026-01-11 18:53:54.76	249.01	0.65	-48.1	-60.2	3.6	8.46e-01	0	29	104	4264558592	60	36919
2026-01-11 18:53:58.80	248.83	0.42	-48.1	-60.2	3.6	8.45e-01	0	29	104	4264558592	60	36850
2026-01-11 18:54:02.84	248.65	0.19	-48.0	-60.1	3.6	8.45e-01	0	29	104	4264558592	60	36645
2026-01-11 18:54:06.88	248.47	-0.04	-48.0	-60.1	3.6	8.46e-01	0	29	104	4264558592	60	36749

#Closed at: 2026-01-11 18:54:08
#Recorded file [4264 MB]: D:/lorett/data/35029_260112_063938.dat