passes_logs/2026/01/11/R4.6S_Anadyr/R4.6S_Anadyr__20260111_000350_NOAA_21_JPSS-2_rec.log

#Pass ID: 20260111_000350_NOAA 21 (JPSS-2)
#Satellite: NOAA 21 (JPSS-2)
#Configuration: NOAA-21
#almurnet v.1.7.20251203
#Start time: 2026-01-11 00:03:53

#Version: 2.2.20231116
#Station: R4.6S_Anadyr
#Location: 177.4865 lon 64.73178 lat
#TLE: 1 54234U 22150A   26009.79679979  .00000100  00000+0  68070-4 0  9993
#TLE: 2 54234  98.7494 310.7596 0000833 322.2782  37.8335 14.19533646164071

#Time	Az	El	Level	Level2	SNR	BER	BlckErr	Temp	State	Recorded	gain1	gain2
2026-01-11 00:03:53.31	152.48	0.19	-48.1	-59.5	3.3	1.54e+00	0	26	0	0	60	32981
2026-01-11 00:03:57.21	152.47	0.43	-48.0	-60.9	3.5	1.52e+00	0	26	104	0	60	38820
2026-01-11 00:04:01.12	152.47	0.67	-47.8	-60.6	3.5	1.52e+00	0	26	104	0	60	37715
2026-01-11 00:04:05.04	152.47	0.91	-46.6	-59.4	3.5	1.52e+00	0	26	104	0	60	32685
2026-01-11 00:04:08.95	152.46	1.15	-46.1	-59.1	3.4	1.51e+00	0	26	104	0	60	31541
2026-01-11 00:04:12.86	152.46	1.40	-46.0	-59.0	3.5	1.52e+00	0	27	104	0	60	31109
2026-01-11 00:04:16.80	152.45	1.65	-46.0	-58.9	3.5	1.51e+00	0	27	104	0	60	30831
2026-01-11 00:04:20.70	152.45	1.90	-46.0	-58.9	3.5	1.52e+00	0	27	104	0	60	31057
2026-01-11 00:04:24.61	152.44	2.15	-46.0	-59.0	3.5	1.52e+00	0	27	104	0	60	31111
2026-01-11 00:04:28.53	152.44	2.40	-46.0	-58.7	3.5	1.52e+00	0	27	104	0	60	30094
2026-01-11 00:04:32.43	152.43	2.66	-46.0	-58.4	3.5	1.52e+00	0	27	104	0	60	29146
2026-01-11 00:04:36.35	152.42	2.92	-45.8	-56.5	4.0	1.51e+00	0	27	104	0	60	23491
2026-01-11 00:04:40.26	152.42	3.18	-43.3	-46.9	11.4	2.81e-03	123	27	0	7340032	60	7737
2026-01-11 00:04:44.17	152.41	3.44	-40.2	-42.0	16.2	0.00e+00	124	27	0	19922944	54	6257
2026-01-11 00:04:48.08	152.40	3.71	-40.2	-42.0	16.2	0.00e+00	121	27	0	31457280	52	7023
2026-01-11 00:04:52.00	152.40	3.98	-43.4	-47.0	11.2	2.01e-04	123	27	0	39845888	58	8783
2026-01-11 00:04:55.91	152.39	4.25	-37.5	-38.8	19.4	0.00e+00	121	27	0	47185920	48	6113
2026-01-11 00:04:59.83	152.38	4.52	-37.5	-38.8	19.6	0.00e+00	122	27	0	59768832	48	6066
2026-01-11 00:05:03.75	152.37	4.80	-37.3	-38.5	19.8	0.00e+00	124	27	0	72351744	48	5916
2026-01-11 00:05:07.66	152.36	5.08	-37.2	-38.4	19.9	0.00e+00	124	27	0	83886080	48	5856
2026-01-11 00:05:11.57	152.35	5.36	-36.7	-37.9	20.4	0.00e+00	124	27	0	96468992	46	6188
2026-01-11 00:05:15.49	152.34	5.65	-36.6	-37.8	20.5	0.00e+00	123	28	0	109051904	46	6100
2026-01-11 00:05:19.41	152.33	5.94	-36.8	-38.0	20.4	0.00e+00	123	27	0	120586240	46	6251
2026-01-11 00:05:23.31	152.32	6.23	-36.4	-37.6	20.9	0.00e+00	122	28	0	133169152	46	5946
2026-01-11 00:05:27.22	152.31	6.53	-36.4	-37.5	21.0	0.00e+00	121	28	0	145752064	46	5906
2026-01-11 00:05:31.13	152.30	6.82	-36.4	-37.5	21.0	0.00e+00	122	28	0	157286400	46	5892
2026-01-11 00:05:35.04	152.29	7.13	-36.2	-37.3	21.2	0.00e+00	123	28	0	169869312	46	5746
2026-01-11 00:05:38.96	152.27	7.43	-35.9	-36.9	21.5	0.00e+00	122	28	0	182452224	46	5513
2026-01-11 00:05:42.87	152.26	7.74	-35.7	-36.8	21.7	0.00e+00	124	28	0	193986560	44	6107
2026-01-11 00:05:46.79	152.25	8.06	-35.5	-36.5	22.0	0.00e+00	123	28	0	206569472	44	5900
2026-01-11 00:05:50.70	152.23	8.37	-35.4	-36.4	22.1	0.00e+00	125	28	0	219152384	44	5854
2026-01-11 00:05:54.61	152.22	8.70	-35.0	-36.0	22.4	0.00e+00	121	28	0	230686720	44	5581
2026-01-11 00:05:58.52	152.20	9.02	-35.0	-36.0	22.5	0.00e+00	121	28	0	243269632	44	5568
2026-01-11 00:06:02.44	152.19	9.35	-34.8	-35.8	22.7	0.00e+00	122	28	0	255852544	44	5453
2026-01-11 00:06:06.35	152.17	9.69	-34.9	-35.9	22.6	0.00e+00	123	28	0	267386880	44	5510
2026-01-11 00:06:10.26	152.15	10.03	-34.7	-35.7	22.8	0.00e+00	120	28	0	279969792	42	6009
2026-01-11 00:06:14.18	152.13	10.37	-34.5	-35.5	23.1	0.00e+00	124	28	0	292552704	42	5872
2026-01-11 00:06:18.09	152.11	10.72	-34.5	-35.4	23.1	0.00e+00	122	28	0	304087040	42	5855
2026-01-11 00:06:22.00	152.09	11.07	-34.3	-35.3	23.3	0.00e+00	123	28	0	316669952	42	5734
2026-01-11 00:06:25.92	152.07	11.43	-34.1	-35.0	23.4	0.00e+00	122	28	0	329252864	42	5594
2026-01-11 00:06:29.83	152.05	11.80	-34.2	-35.1	23.4	0.00e+00	123	28	0	340787200	42	5640
2026-01-11 00:06:33.74	152.03	12.17	-34.0	-34.9	23.6	0.00e+00	123	28	0	353370112	42	5501
2026-01-11 00:06:37.66	152.01	12.54	-33.9	-34.9	23.6	0.00e+00	124	28	0	365953024	42	5480
2026-01-11 00:06:41.57	151.98	12.92	-33.8	-34.7	23.7	0.00e+00	124	28	0	377487360	40	6039
2026-01-11 00:06:45.48	151.96	13.31	-33.5	-34.5	24.0	0.00e+00	122	28	0	390070272	40	5863
2026-01-11 00:06:49.40	151.93	13.71	-33.4	-34.4	24.0	0.00e+00	122	28	0	402653184	40	5795
2026-01-11 00:06:53.31	151.91	14.11	-33.5	-34.4	24.0	0.00e+00	122	28	0	414187520	40	5803
2026-01-11 00:06:57.22	151.88	14.51	-33.4	-34.3	24.2	0.00e+00	122	29	0	426770432	40	5780
2026-01-11 00:07:01.12	151.85	14.93	-33.3	-34.2	24.2	0.00e+00	122	29	0	439353344	40	5710
2026-01-11 00:07:05.04	151.82	15.35	-33.4	-34.3	24.1	0.00e+00	120	29	0	450887680	40	5755
2026-01-11 00:07:08.95	151.79	15.78	-33.4	-34.3	24.2	0.00e+00	123	29	0	463470592	40	5746
2026-01-11 00:07:12.86	151.75	16.21	-33.4	-34.3	24.1	0.00e+00	123	29	0	476053504	40	5787
2026-01-11 00:07:16.76	151.72	16.65	-33.4	-34.4	24.1	0.00e+00	121	29	0	487587840	40	5795
2026-01-11 00:07:20.68	151.68	17.11	-33.6	-34.6	24.0	0.00e+00	120	29	0	500170752	40	5937
2026-01-11 00:07:24.59	151.65	17.57	-33.7	-34.6	24.0	0.00e+00	122	29	0	512753664	40	5953
2026-01-11 00:07:28.49	151.61	18.04	-34.0	-34.9	23.7	0.00e+00	121	29	0	524288000	40	6187
2026-01-11 00:07:32.41	151.57	18.51	-33.9	-34.9	23.7	0.00e+00	122	29	0	536870912	40	6164
2026-01-11 00:07:36.31	151.52	19.00	-33.8	-34.7	23.8	0.00e+00	122	29	0	548405248	40	6044
2026-01-11 00:07:40.23	151.48	19.50	-33.8	-34.7	23.8	0.00e+00	122	29	0	560988160	40	6039
2026-01-11 00:07:44.14	151.44	20.01	-33.6	-34.5	24.0	0.00e+00	121	29	0	573571072	40	5880
2026-01-11 00:07:48.06	151.39	20.53	-33.3	-34.2	24.3	0.00e+00	120	29	0	585105408	40	5712
2026-01-11 00:07:51.97	151.34	21.06	-33.1	-34.0	24.5	0.00e+00	123	29	0	597688320	40	5586
2026-01-11 00:07:55.88	151.29	21.60	-32.7	-33.5	24.9	0.00e+00	121	29	0	610271232	38	5924
2026-01-11 00:07:59.79	151.23	22.15	-32.6	-33.4	24.9	0.00e+00	121	29	0	621805568	38	5847
2026-01-11 00:08:03.70	151.17	22.71	-32.2	-33.0	25.1	0.00e+00	123	29	0	634388480	38	5589
2026-01-11 00:08:07.62	151.11	23.29	-32.2	-33.0	25.1	0.00e+00	121	29	0	646971392	38	5572
2026-01-11 00:08:11.53	151.05	23.88	-31.9	-32.8	25.1	0.00e+00	121	29	0	658505728	38	5426
2026-01-11 00:08:15.44	150.99	24.48	-32.1	-33.0	25.0	0.00e+00	123	29	0	671088640	38	5532
2026-01-11 00:08:19.34	150.92	25.10	-32.3	-33.2	24.8	0.00e+00	123	29	0	683671552	38	5675
2026-01-11 00:08:23.25	150.85	25.73	-32.5	-33.4	24.7	0.00e+00	123	29	0	695205888	38	5842
2026-01-11 00:08:27.16	150.77	26.38	-33.0	-33.9	24.2	0.00e+00	122	29	0	707788800	38	6150
2026-01-11 00:08:31.08	150.69	27.05	-33.3	-34.2	24.2	0.00e+00	121	29	0	720371712	38	6390
2026-01-11 00:08:35.00	150.61	27.73	-33.7	-34.6	23.9	0.00e+00	123	29	0	731906048	40	5994
2026-01-11 00:08:38.91	150.52	28.43	-33.8	-34.8	24.0	0.00e+00	121	29	0	744488960	40	6090
2026-01-11 00:08:42.82	150.43	29.14	-33.7	-34.6	24.0	0.00e+00	122	29	0	757071872	40	5992
2026-01-11 00:08:46.73	150.34	29.87	-33.0	-33.8	24.7	0.00e+00	122	29	0	768606208	40	5455
2026-01-11 00:08:50.65	150.24	30.63	-32.7	-33.5	24.9	0.00e+00	125	29	0	781189120	38	5903
2026-01-11 00:08:54.56	150.13	31.40	-32.7	-33.5	24.9	0.00e+00	125	29	0	793772032	38	5899
2026-01-11 00:08:58.48	150.02	32.20	-32.7	-33.6	24.9	0.00e+00	125	29	0	805306368	38	5956
2026-01-11 00:09:02.39	149.90	33.01	-33.2	-34.1	24.7	0.00e+00	122	29	0	817889280	38	6296
2026-01-11 00:09:06.30	149.77	33.85	-33.8	-34.7	24.2	0.00e+00	123	29	0	830472192	40	6011
2026-01-11 00:09:10.21	149.64	34.71	-34.2	-35.1	23.9	0.00e+00	123	29	0	842006528	40	6344
2026-01-11 00:09:14.13	149.50	35.60	-34.6	-35.5	23.5	0.00e+00	121	29	0	854589440	40	6640
2026-01-11 00:09:18.04	149.35	36.51	-34.9	-35.9	23.4	0.00e+00	123	29	0	867172352	42	6136
2026-01-11 00:09:21.95	149.19	37.44	-34.9	-35.9	23.3	0.00e+00	120	29	0	878706688	42	6141
2026-01-11 00:09:25.86	149.02	38.40	-35.2	-36.2	22.7	0.00e+00	123	29	0	891289600	42	6388
2026-01-11 00:09:29.76	148.83	39.39	-35.1	-36.1	22.9	0.00e+00	122	29	0	903872512	42	6326
2026-01-11 00:09:33.67	148.64	40.41	-34.9	-35.8	23.3	0.00e+00	120	29	0	915406848	42	6125
2026-01-11 00:09:37.58	148.43	41.46	-35.0	-36.0	23.0	0.00e+00	124	29	0	927989760	42	6233
2026-01-11 00:09:41.48	148.21	42.53	-35.6	-36.6	22.5	0.00e+00	123	29	0	940572672	42	6704
2026-01-11 00:09:45.39	147.97	43.64	-35.7	-36.7	22.5	0.00e+00	122	30	0	952107008	42	6778
2026-01-11 00:09:49.30	147.72	44.79	-36.4	-37.4	22.0	0.00e+00	122	29	0	964689920	44	6552
2026-01-11 00:09:53.21	147.44	45.96	-36.6	-37.7	21.6	0.00e+00	122	29	0	976224256	44	6758
2026-01-11 00:09:57.13	147.14	47.17	-36.3	-37.3	22.0	0.00e+00	125	29	0	988807168	44	6480
2026-01-11 00:10:01.04	146.81	48.42	-35.3	-36.3	22.9	0.00e+00	121	29	0	1001390080	44	5746
2026-01-11 00:10:04.95	146.46	49.70	-35.3	-36.3	22.9	0.00e+00	123	30	0	1012924416	44	5763
2026-01-11 00:10:08.86	146.07	51.01	-35.2	-36.2	22.9	0.00e+00	121	30	0	1025507328	44	5675
2026-01-11 00:10:12.76	145.64	52.36	-34.9	-35.9	23.1	0.00e+00	123	30	0	1038090240	44	5500
2026-01-11 00:10:16.67	145.18	53.75	-34.3	-35.3	23.3	0.00e+00	124	30	0	1049624576	42	5727
2026-01-11 00:10:20.58	144.66	55.17	-33.8	-34.7	24.0	0.00e+00	120	29	0	1062207488	42	5364
2026-01-11 00:10:24.50	144.09	56.63	-33.5	-34.5	24.0	0.00e+00	124	30	0	1074790400	40	5876
2026-01-11 00:10:28.41	143.45	58.13	-32.4	-33.3	25.3	0.00e+00	121	30	0	1086324736	38	5740
2026-01-11 00:10:32.32	142.73	59.66	-32.5	-33.4	24.9	0.00e+00	123	30	0	1098907648	38	5822
2026-01-11 00:10:36.23	141.92	61.22	-32.3	-33.2	24.9	0.00e+00	120	30	0	1111490560	38	5684
2026-01-11 00:10:40.13	141.00	62.81	-31.9	-32.7	25.0	0.00e+00	122	30	0	1123024896	38	5401
2026-01-11 00:10:44.04	139.94	64.44	-31.9	-32.8	25.5	0.00e+00	124	30	0	1135607808	38	5429
2026-01-11 00:10:47.96	138.72	66.10	-31.7	-32.5	25.7	0.00e+00	122	30	0	1148190720	36	5906
2026-01-11 00:10:51.87	137.29	67.77	-30.7	-31.5	26.2	0.00e+00	123	30	0	1159725056	34	5904
2026-01-11 00:10:55.79	135.60	69.47	-31.7	-32.5	25.7	0.00e+00	124	30	0	1172307968	34	6628
2026-01-11 00:10:59.69	133.59	71.17	-31.9	-32.8	25.3	0.00e+00	123	30	0	1184890880	36	6097
2026-01-11 00:11:03.61	131.13	72.88	-31.7	-32.5	25.6	0.00e+00	121	30	0	1196425216	36	5912
2026-01-11 00:11:07.51	128.12	74.56	-32.0	-32.8	25.5	0.00e+00	121	30	0	1209008128	36	6093
2026-01-11 00:11:11.42	124.33	76.23	-32.0	-32.8	25.2	0.00e+00	122	30	0	1221591040	36	6127
2026-01-11 00:11:15.34	119.46	77.84	-32.0	-32.9	25.3	0.00e+00	121	30	0	1233125376	36	6136
2026-01-11 00:11:19.24	113.15	79.34	-32.2	-33.1	25.3	0.00e+00	124	30	0	1245708288	36	6324
2026-01-11 00:11:23.15	104.83	80.69	-31.8	-32.6	25.5	0.00e+00	124	30	0	1258291200	36	5965
2026-01-11 00:11:27.07	93.92	81.79	-32.3	-33.1	25.3	0.00e+00	123	30	0	1269825536	36	6326
2026-01-11 00:11:30.98	80.28	82.52	-32.2	-33.1	25.4	0.00e+00	124	30	0	1282408448	36	6312
2026-01-11 00:11:34.90	64.72	82.76	-32.7	-33.5	25.1	0.00e+00	122	30	0	1294991360	36	6627
2026-01-11 00:11:38.81	49.35	82.46	-32.8	-33.7	25.0	0.00e+00	123	30	0	1306525696	38	6004
2026-01-11 00:11:42.72	36.03	81.68	-32.7	-33.6	25.0	0.00e+00	122	30	0	1319108608	38	5946
2026-01-11 00:11:46.64	25.46	80.54	-32.5	-33.4	25.0	0.00e+00	122	30	0	1331691520	38	5808
2026-01-11 00:11:50.55	17.41	79.17	-32.7	-33.6	24.7	0.00e+00	123	30	0	1343225856	40	5294
2026-01-11 00:11:54.46	11.29	77.65	-32.4	-33.3	25.3	0.00e+00	121	30	0	1355808768	36	6430
2026-01-11 00:11:58.38	6.58	76.03	-31.7	-32.6	25.6	0.00e+00	124	30	0	1368391680	36	5942
2026-01-11 00:12:02.29	2.90	74.36	-32.2	-33.0	25.1	0.00e+00	124	30	0	1379926016	38	5583
2026-01-11 00:12:06.20	359.96	72.67	-32.0	-32.8	25.5	0.00e+00	121	30	0	1392508928	36	6113
2026-01-11 00:12:10.12	357.57	70.97	-31.6	-32.5	24.6	0.00e+00	122	30	0	1404043264	36	5865
2026-01-11 00:12:14.03	355.60	69.27	-33.1	-34.0	24.7	0.00e+00	123	30	0	1416626176	38	6258
2026-01-11 00:12:17.94	353.95	67.58	-31.4	-32.2	25.4	0.00e+00	120	30	0	1429209088	36	5690
2026-01-11 00:12:21.85	352.55	65.91	-32.0	-32.9	25.2	0.00e+00	123	30	0	1440743424	36	6172
2026-01-11 00:12:25.75	351.36	64.27	-30.6	-31.4	26.4	0.00e+00	123	30	0	1453326336	34	5810
2026-01-11 00:12:29.66	350.32	62.65	-32.7	-33.5	25.0	0.00e+00	123	30	0	1465909248	36	6633
2026-01-11 00:12:33.57	349.41	61.06	-31.9	-32.8	24.9	0.00e+00	124	30	0	1477443584	38	5427
2026-01-11 00:12:37.49	348.61	59.50	-32.0	-32.9	25.2	0.00e+00	123	30	0	1490026496	36	6159
2026-01-11 00:12:41.40	347.91	57.98	-33.0	-33.9	24.3	0.00e+00	123	30	0	1502609408	38	6171
2026-01-11 00:12:45.32	347.27	56.49	-32.2	-33.1	25.2	0.00e+00	121	30	0	1514143744	38	5618
2026-01-11 00:12:49.23	346.71	55.04	-34.9	-35.9	23.4	0.00e+00	121	30	0	1526726656	42	6144
2026-01-11 00:12:53.13	346.20	53.63	-34.4	-35.4	22.9	0.00e+00	123	30	0	1539309568	42	5807
2026-01-11 00:12:57.04	345.74	52.25	-33.5	-34.4	24.4	0.00e+00	123	30	0	1550843904	40	5825
2026-01-11 00:13:00.95	345.32	50.91	-35.5	-36.5	22.8	0.00e+00	124	30	0	1563426816	44	5861
2026-01-11 00:13:04.86	344.94	49.60	-35.9	-36.9	22.4	0.00e+00	124	30	0	1576009728	44	6201
2026-01-11 00:13:08.76	344.59	48.33	-35.3	-36.3	22.4	0.00e+00	121	30	0	1587544064	44	5771
2026-01-11 00:13:12.67	344.27	47.10	-35.1	-36.0	23.2	0.00e+00	121	30	0	1600126976	42	6277
2026-01-11 00:13:16.58	343.97	45.90	-36.4	-37.4	21.7	0.00e+00	125	30	0	1612709888	44	6573
2026-01-11 00:13:20.49	343.70	44.73	-36.8	-37.9	21.5	0.00e+00	124	30	0	1624244224	46	6205
2026-01-11 00:13:24.40	343.44	43.60	-36.3	-37.4	21.7	0.00e+00	122	30	0	1636827136	46	5841
2026-01-11 00:13:28.31	343.21	42.49	-34.3	-35.2	23.7	0.00e+00	121	30	0	1648361472	42	5712
2026-01-11 00:13:32.22	342.99	41.42	-36.1	-37.1	22.3	0.00e+00	123	30	0	1660944384	44	6342
2026-01-11 00:13:36.13	342.78	40.38	-36.7	-37.8	21.7	0.00e+00	125	30	0	1673527296	46	6116
2026-01-11 00:13:40.04	342.59	39.37	-35.7	-36.7	22.6	0.00e+00	126	30	0	1686110208	44	6030
2026-01-11 00:13:43.95	342.41	38.38	-35.4	-36.4	22.9	0.00e+00	121	30	0	1697644544	44	5792
2026-01-11 00:13:47.87	342.25	37.43	-34.7	-35.7	23.3	0.00e+00	122	30	0	1710227456	42	6042
2026-01-11 00:13:51.78	342.09	36.50	-34.9	-35.9	23.2	0.00e+00	121	30	0	1722810368	42	6168
2026-01-11 00:13:55.70	341.94	35.59	-34.4	-35.3	23.5	0.00e+00	125	30	0	1734344704	42	5767
2026-01-11 00:13:59.61	341.80	34.71	-34.0	-34.9	23.8	0.00e+00	120	30	0	1746927616	42	5521
2026-01-11 00:14:03.52	341.67	33.86	-33.6	-34.5	24.1	0.00e+00	122	30	0	1759510528	40	5897
2026-01-11 00:14:07.43	341.55	33.02	-33.4	-34.3	24.4	0.00e+00	123	30	0	1771044864	40	5782
2026-01-11 00:14:11.34	341.43	32.22	-33.7	-34.6	24.3	0.00e+00	123	30	0	1783627776	40	5987
2026-01-11 00:14:15.25	341.32	31.43	-33.6	-34.5	24.4	0.00e+00	122	30	0	1795162112	40	5877
2026-01-11 00:14:19.17	341.21	30.66	-33.6	-34.5	24.3	0.00e+00	122	30	0	1807745024	40	5865
2026-01-11 00:14:23.06	341.12	29.91	-33.7	-34.6	24.1	0.00e+00	120	30	0	1820327936	40	5986
2026-01-11 00:14:26.98	341.02	29.18	-33.5	-34.4	24.1	0.00e+00	121	30	0	1831862272	40	5845
2026-01-11 00:14:30.87	340.93	28.47	-33.0	-33.9	24.0	0.00e+00	122	30	0	1844445184	40	5519
2026-01-11 00:14:34.79	340.85	27.78	-33.1	-34.0	23.7	0.00e+00	122	30	0	1857028096	40	5575
2026-01-11 00:14:38.70	340.77	27.10	-32.9	-33.9	23.6	0.00e+00	123	30	0	1868562432	40	5494
2026-01-11 00:14:42.61	340.69	26.44	-33.0	-33.9	23.7	0.00e+00	122	30	0	1881145344	40	5506
2026-01-11 00:14:46.51	340.62	25.80	-32.8	-33.7	24.1	0.00e+00	122	30	0	1893728256	38	6050
2026-01-11 00:14:50.42	340.55	25.17	-32.7	-33.6	24.4	0.00e+00	124	31	0	1905262592	38	5935
2026-01-11 00:14:54.33	340.48	24.56	-32.5	-33.3	24.7	0.00e+00	122	30	0	1917845504	38	5778
2026-01-11 00:14:58.24	340.42	23.96	-32.3	-33.2	24.9	0.00e+00	123	30	0	1930428416	38	5686
2026-01-11 00:15:02.15	340.36	23.37	-32.4	-33.2	25.1	0.00e+00	125	30	0	1941962752	38	5713
2026-01-11 00:15:06.06	340.30	22.79	-32.5	-33.3	25.1	0.00e+00	122	30	0	1954545664	38	5763
2026-01-11 00:15:09.97	340.25	22.23	-32.5	-33.3	25.1	0.00e+00	122	31	0	1967128576	38	5769
2026-01-11 00:15:13.88	340.20	21.68	-32.7	-33.5	25.0	0.00e+00	123	31	0	1978662912	38	5914
2026-01-11 00:15:17.80	340.15	21.15	-32.9	-33.8	24.7	0.00e+00	124	31	0	1991245824	38	6098
2026-01-11 00:15:21.70	340.10	20.62	-33.1	-34.0	24.5	0.00e+00	121	31	0	2002780160	38	6267
2026-01-11 00:15:25.61	340.05	20.10	-33.2	-34.1	24.4	0.00e+00	123	31	0	2015363072	38	6322
2026-01-11 00:15:29.52	340.01	19.60	-33.3	-34.2	24.4	0.00e+00	124	31	0	2027945984	38	6388
2026-01-11 00:15:33.44	339.97	19.10	-33.5	-34.5	24.2	0.00e+00	126	31	0	2039480320	38	6583
2026-01-11 00:15:37.34	339.93	18.62	-33.3	-34.2	24.4	0.00e+00	121	31	0	2052063232	38	6387
2026-01-11 00:15:41.25	339.89	18.14	-33.4	-34.4	24.3	0.00e+00	120	31	0	2064646144	38	6500
2026-01-11 00:15:45.17	339.85	17.67	-33.2	-34.1	24.3	0.00e+00	121	31	0	2076180480	38	6335
2026-01-11 00:15:49.09	339.82	17.21	-33.4	-34.4	24.2	0.00e+00	122	31	0	2088763392	38	6506
2026-01-11 00:15:53.00	339.79	16.76	-33.6	-34.5	24.0	0.00e+00	122	31	0	2101346304	38	6629
2026-01-11 00:15:56.91	339.75	16.32	-33.5	-34.4	24.0	0.00e+00	123	31	0	2112880640	38	6560
2026-01-11 00:16:00.82	339.72	15.89	-33.6	-34.6	23.9	0.00e+00	123	31	0	2125463552	38	6689
2026-01-11 00:16:04.74	339.69	15.46	-33.9	-34.9	23.6	0.00e+00	121	31	0	2138046464	40	6155
2026-01-11 00:16:08.66	339.67	15.04	-33.9	-34.9	23.6	0.00e+00	123	31	0	2149580800	40	6198
2026-01-11 00:16:12.56	339.64	14.63	-34.0	-35.0	23.5	0.00e+00	123	31	0	2162163712	40	6228
2026-01-11 00:16:16.48	339.61	14.22	-34.1	-35.1	23.4	0.00e+00	120	31	0	2174746624	40	6341
2026-01-11 00:16:20.38	339.59	13.83	-34.1	-35.1	23.5	0.00e+00	121	31	0	2186280960	40	6286
2026-01-11 00:16:24.29	339.57	13.44	-34.1	-35.1	23.5	0.00e+00	122	31	0	2198863872	40	6327
2026-01-11 00:16:28.20	339.54	13.05	-34.1	-35.1	23.5	0.00e+00	123	31	0	2211446784	40	6311
2026-01-11 00:16:32.12	339.52	12.67	-34.2	-35.2	23.3	0.00e+00	122	31	0	2222981120	40	6412
2026-01-11 00:16:36.04	339.50	12.29	-34.3	-35.3	23.3	0.00e+00	123	31	0	2235564032	40	6472
2026-01-11 00:16:39.95	339.48	11.93	-34.5	-35.5	23.1	0.00e+00	120	31	0	2248146944	40	6614
2026-01-11 00:16:43.85	339.46	11.56	-34.7	-35.7	23.0	0.00e+00	120	31	0	2259681280	42	6030
2026-01-11 00:16:47.76	339.45	11.21	-34.7	-35.8	22.9	0.00e+00	124	31	0	2272264192	42	6090
2026-01-11 00:16:51.67	339.43	10.85	-34.8	-35.9	22.7	0.00e+00	119	31	0	2284847104	42	6160
2026-01-11 00:16:55.57	339.41	10.51	-35.1	-36.2	22.5	0.00e+00	120	31	0	2296381440	42	6398
2026-01-11 00:16:59.49	339.40	10.16	-35.0	-36.1	22.5	0.00e+00	123	31	0	2308964352	42	6316
2026-01-11 00:17:03.40	339.38	9.83	-35.2	-36.3	22.4	0.00e+00	125	31	0	2321547264	42	6462
2026-01-11 00:17:07.31	339.37	9.49	-35.5	-36.6	22.1	0.00e+00	120	31	0	2333081600	42	6684
2026-01-11 00:17:11.21	339.36	9.16	-35.6	-36.7	22.0	0.00e+00	123	31	0	2345664512	42	6747
2026-01-11 00:17:15.13	339.34	8.84	-35.6	-36.8	21.9	0.00e+00	122	31	0	2358247424	42	6826
2026-01-11 00:17:19.04	339.33	8.52	-35.7	-36.8	21.8	0.00e+00	121	31	0	2369781760	44	6127
2026-01-11 00:17:22.95	339.32	8.20	-35.9	-37.1	21.6	0.00e+00	122	31	0	2382364672	44	6280
2026-01-11 00:17:26.87	339.31	7.89	-36.1	-37.3	21.4	0.00e+00	123	31	0	2394947584	44	6431
2026-01-11 00:17:30.78	339.30	7.58	-36.4	-37.6	21.1	0.00e+00	122	31	0	2406481920	44	6696
2026-01-11 00:17:34.68	339.29	7.28	-36.3	-37.5	21.2	0.00e+00	122	31	0	2419064832	44	6619
2026-01-11 00:17:38.60	339.28	6.97	-36.6	-37.8	20.9	0.00e+00	122	31	0	2430599168	44	6836
2026-01-11 00:17:42.51	339.27	6.68	-36.7	-37.9	20.8	0.00e+00	123	31	0	2443182080	46	6179
2026-01-11 00:17:46.43	339.27	6.38	-36.8	-38.0	20.6	0.00e+00	121	31	0	2455764992	46	6232
2026-01-11 00:17:50.34	339.26	6.09	-36.8	-37.9	20.6	0.00e+00	122	31	0	2467299328	46	6205
2026-01-11 00:17:54.25	339.25	5.80	-36.9	-38.1	20.2	0.00e+00	123	31	0	2479882240	46	6312
2026-01-11 00:17:58.17	339.25	5.52	-37.4	-38.7	19.4	0.00e+00	122	31	0	2492465152	46	6759
2026-01-11 00:18:02.09	339.24	5.23	-38.5	-40.0	17.6	0.00e+00	120	31	0	2503999488	48	7034
2026-01-11 00:18:05.99	339.23	4.95	-39.7	-41.8	14.9	0.00e+00	120	31	0	2516582400	50	7692
2026-01-11 00:18:09.91	339.23	4.68	-41.2	-44.5	11.5	4.74e-04	123	31	0	2529165312	54	8283
2026-01-11 00:18:13.82	339.22	4.40	-42.4	-47.6	7.1	9.70e-02	119	31	0	2540699648	56	10589
2026-01-11 00:18:17.73	339.22	4.13	-42.9	-52.1	3.7	9.92e-01	0	31	104	2545942528	58	15863
2026-01-11 00:18:21.64	339.22	3.87	-42.9	-55.0	3.5	1.50e+00	0	31	104	2545942528	58	22241
2026-01-11 00:18:25.56	339.21	3.60	-43.1	-54.9	3.5	1.51e+00	0	31	104	2545942528	58	21996
2026-01-11 00:18:29.47	339.21	3.34	-43.1	-55.3	3.5	1.51e+00	0	31	104	2545942528	58	23056
2026-01-11 00:18:33.39	339.21	3.08	-43.1	-55.9	3.5	1.52e+00	0	31	104	2545942528	58	24514
2026-01-11 00:18:37.30	339.21	2.82	-47.5	-60.4	3.5	1.52e+00	0	31	104	2545942528	60	36874
2026-01-11 00:18:41.20	339.20	2.56	-48.1	-60.9	3.5	1.52e+00	0	31	104	2545942528	60	38939
2026-01-11 00:18:45.12	339.20	2.31	-47.8	-60.8	3.5	1.52e+00	0	31	104	2545942528	60	38653
2026-01-11 00:18:49.03	339.20	2.06	-48.0	-60.8	3.5	1.52e+00	0	31	104	2545942528	60	38341
2026-01-11 00:18:52.95	339.20	1.81	-48.0	-60.8	3.5	1.52e+00	0	31	104	2545942528	60	38609
2026-01-11 00:18:56.85	339.20	1.57	-47.9	-60.8	3.5	1.52e+00	0	31	104	2545942528	60	38388
2026-01-11 00:19:00.77	339.20	1.32	-48.0	-60.9	3.5	1.52e+00	0	31	104	2545942528	60	38748
2026-01-11 00:19:04.68	339.20	1.08	-48.0	-60.8	3.5	1.52e+00	0	31	104	2545942528	60	38621
2026-01-11 00:19:08.59	339.20	0.84	-47.9	-60.8	3.5	1.52e+00	0	31	104	2545942528	60	38283
2026-01-11 00:19:12.50	339.20	0.60	-47.9	-60.8	3.5	1.52e+00	0	31	104	2545942528	60	38334
2026-01-11 00:19:16.41	339.20	0.36	-48.0	-60.8	3.5	1.51e+00	0	31	104	2545942528	60	38375
2026-01-11 00:19:20.32	339.20	0.13	-48.0	-60.8	3.5	1.52e+00	0	31	104	2545942528	60	38535
2026-01-11 00:19:24.23	339.20	-0.11	-48.0	-60.8	3.5	1.52e+00	0	31	104	2545942528	60	38516

#Closed at: 2026-01-11 00:19:25
#Recorded file [2545 MB]: D:/lorett/data/35029_260111_120353.dat