passes_logs/2026/01/11/R4.6S_Anadyr/R4.6S_Anadyr__20260111_003328_SUOMI_NPP_rec.log

#Pass ID: 20260111_003328_SUOMI NPP
#Satellite: SUOMI NPP
#Configuration: NPP
#almurnet v.1.7.20251203
#Start time: 2026-01-11 00:33:30

#Version: 2.2.20231116
#Station: R4.6S_Anadyr
#Location: 177.4865 lon 64.73178 lat
#TLE: 1 37849U 11061A   26009.81756760  .00000113  00000+0  74747-4 0  9994
#TLE: 2 37849  98.7806 311.9110 0002525  72.5604 287.5848 14.19524046735974

#Time	Az	El	Level	Level2	SNR	BER	BlckErr	Temp	State	Recorded	gain1	gain2
2026-01-11 00:33:30.65	162.96	0.15	-48.0	-60.5	3.5	1.52e+00	0	26	0	0	60	37281
2026-01-11 00:33:34.68	163.01	0.39	-48.1	-63.3	3.6	1.51e+00	0	27	104	0	60	52584
2026-01-11 00:33:38.72	163.06	0.64	-47.9	-63.1	3.6	1.51e+00	0	28	104	0	60	51887
2026-01-11 00:33:42.77	163.11	0.89	-47.4	-62.6	3.6	1.51e+00	0	28	104	0	60	48670
2026-01-11 00:33:46.80	163.15	1.14	-46.4	-61.6	3.6	1.51e+00	0	28	104	0	60	43481
2026-01-11 00:33:50.85	163.20	1.39	-46.3	-61.5	3.6	1.51e+00	0	28	104	0	60	42969
2026-01-11 00:33:54.88	163.25	1.64	-46.3	-61.4	3.6	1.51e+00	0	28	104	0	60	42581
2026-01-11 00:33:58.92	163.30	1.90	-46.3	-61.5	3.5	1.51e+00	0	28	104	0	60	42906
2026-01-11 00:34:02.96	163.35	2.16	-46.3	-61.5	3.6	1.51e+00	0	28	104	0	60	43042
2026-01-11 00:34:07.00	163.41	2.42	-46.3	-61.2	3.6	1.51e+00	0	28	104	0	60	41378
2026-01-11 00:34:11.03	163.46	2.68	-46.3	-60.4	3.6	1.51e+00	0	28	104	0	60	37771
2026-01-11 00:34:15.07	163.51	2.95	-46.2	-59.1	3.6	1.51e+00	0	28	104	0	60	32503
2026-01-11 00:34:19.11	163.57	3.22	-44.7	-49.6	10.6	7.49e-03	92	28	0	5242880	60	10869
2026-01-11 00:34:23.15	163.62	3.49	-42.4	-45.1	15.3	0.00e+00	0	28	0	12582912	58	7256
2026-01-11 00:34:27.19	163.68	3.76	-42.6	-45.4	15.0	0.00e+00	0	28	0	19922944	58	7556
2026-01-11 00:34:31.23	163.73	4.04	-46.3	-60.1	3.6	1.54e+00	0	28	104	27262976	60	36699
2026-01-11 00:34:35.27	163.79	4.32	-42.5	-45.0	15.5	0.00e+00	92	28	0	29360128	58	7238
2026-01-11 00:34:39.30	163.85	4.60	-41.7	-43.8	17.0	0.00e+00	0	29	0	36700160	56	7020
2026-01-11 00:34:43.34	163.91	4.89	-40.7	-42.5	18.1	0.00e+00	92	28	0	44040192	54	6815
2026-01-11 00:34:47.38	163.97	5.18	-40.6	-42.3	18.3	0.00e+00	92	28	0	51380224	54	6675
2026-01-11 00:34:51.42	164.03	5.47	-40.4	-42.1	18.5	0.00e+00	83	29	0	59768832	54	6468
2026-01-11 00:34:55.46	164.09	5.76	-40.7	-42.5	18.2	0.00e+00	0	29	0	67108864	54	6803
2026-01-11 00:34:59.49	164.15	6.06	-40.5	-42.2	18.6	0.00e+00	92	29	0	74448896	54	6546
2026-01-11 00:35:03.53	164.21	6.36	-40.1	-41.6	19.1	0.00e+00	91	29	0	81788928	54	6147
2026-01-11 00:35:07.57	164.28	6.67	-40.0	-41.5	19.2	0.00e+00	0	29	0	89128960	54	6049
2026-01-11 00:35:11.61	164.34	6.98	-40.0	-41.5	19.3	0.00e+00	33	29	0	97517568	52	6812
2026-01-11 00:35:15.65	164.41	7.29	-39.9	-41.4	19.5	0.00e+00	92	29	0	104857600	52	6744
2026-01-11 00:35:19.69	164.48	7.61	-40.0	-41.5	19.4	0.00e+00	90	29	0	112197632	52	6800
2026-01-11 00:35:23.73	164.55	7.93	-39.6	-41.0	19.9	0.00e+00	0	29	0	119537664	52	6459
2026-01-11 00:35:27.77	164.62	8.25	-39.3	-40.7	20.2	0.00e+00	92	29	0	127926272	52	6175
2026-01-11 00:35:31.81	164.69	8.58	-38.9	-40.2	20.7	0.00e+00	90	29	0	135266304	52	5833
2026-01-11 00:35:35.85	164.77	8.92	-39.0	-40.2	20.5	0.00e+00	90	29	0	142606336	52	5881
2026-01-11 00:35:39.90	164.84	9.26	-38.7	-39.9	20.8	0.00e+00	0	29	0	149946368	50	6375
2026-01-11 00:35:43.94	164.92	9.60	-38.4	-39.6	21.1	0.00e+00	92	29	0	157286400	50	6142
2026-01-11 00:35:47.98	164.99	9.95	-38.1	-39.2	21.5	0.00e+00	92	29	0	165675008	50	5874
2026-01-11 00:35:52.02	165.07	10.30	-38.0	-39.1	21.6	0.00e+00	0	29	0	173015040	50	5784
2026-01-11 00:35:56.05	165.15	10.66	-37.7	-38.8	21.9	0.00e+00	0	29	0	180355072	48	6248
2026-01-11 00:36:00.09	165.24	11.02	-37.6	-38.6	22.1	0.00e+00	92	29	0	187695104	48	6153
2026-01-11 00:36:04.13	165.32	11.39	-37.4	-38.4	22.2	0.00e+00	92	29	0	196083712	48	6032
2026-01-11 00:36:08.17	165.41	11.76	-37.2	-38.2	22.4	0.00e+00	0	29	0	203423744	48	5878
2026-01-11 00:36:12.21	165.50	12.14	-36.9	-37.8	22.8	0.00e+00	81	29	0	210763776	48	5614
2026-01-11 00:36:16.25	165.59	12.52	-36.7	-37.7	22.9	0.00e+00	92	29	0	218103808	46	6181
2026-01-11 00:36:20.29	165.68	12.92	-36.6	-37.6	23.0	0.00e+00	92	29	0	225443840	46	6128
2026-01-11 00:36:24.33	165.77	13.31	-36.4	-37.4	23.1	0.00e+00	0	29	0	233832448	46	5967
2026-01-11 00:36:28.36	165.87	13.72	-36.4	-37.3	23.2	0.00e+00	92	29	0	241172480	46	5928
2026-01-11 00:36:32.40	165.97	14.13	-36.3	-37.3	23.2	0.00e+00	92	29	0	248512512	46	5907
2026-01-11 00:36:36.45	166.07	14.55	-36.1	-37.0	23.4	0.00e+00	0	29	0	255852544	46	5756
2026-01-11 00:36:40.48	166.17	14.97	-36.1	-37.0	23.4	0.00e+00	0	29	0	264241152	46	5736
2026-01-11 00:36:44.52	166.28	15.41	-36.1	-37.0	23.6	0.00e+00	90	29	0	271581184	46	5701
2026-01-11 00:36:48.56	166.39	15.85	-36.0	-36.9	23.6	0.00e+00	90	29	0	278921216	46	5688
2026-01-11 00:36:52.59	166.50	16.30	-35.7	-36.6	23.6	0.00e+00	0	29	0	286261248	44	6111
2026-01-11 00:36:56.63	166.61	16.75	-36.0	-36.9	23.6	0.00e+00	9	29	0	293601280	44	6333
2026-01-11 00:37:00.67	166.73	17.22	-35.9	-36.8	23.7	0.00e+00	89	29	0	301989888	44	6280
2026-01-11 00:37:04.71	166.85	17.69	-36.3	-37.2	23.3	0.00e+00	92	29	0	309329920	44	6604
2026-01-11 00:37:08.75	166.98	18.18	-36.5	-37.4	23.2	0.00e+00	0	29	0	316669952	44	6749
2026-01-11 00:37:12.78	167.10	18.67	-36.7	-37.6	23.2	0.00e+00	92	29	0	324009984	44	6899
2026-01-11 00:37:16.82	167.24	19.17	-36.5	-37.4	23.2	0.00e+00	93	29	0	331350016	44	6708
2026-01-11 00:37:20.86	167.37	19.69	-36.8	-37.7	23.0	0.00e+00	0	29	0	339738624	46	6239
2026-01-11 00:37:24.90	167.51	20.21	-37.4	-38.5	22.6	0.00e+00	0	29	0	347078656	46	6776
2026-01-11 00:37:28.94	167.66	20.75	-37.4	-38.4	22.4	0.00e+00	92	29	0	354418688	46	6759
2026-01-11 00:37:32.97	167.81	21.30	-37.4	-38.4	22.5	0.00e+00	92	30	0	361758720	48	6007
2026-01-11 00:37:37.01	167.96	21.86	-37.4	-38.3	22.6	0.00e+00	0	29	0	370147328	48	5962
2026-01-11 00:37:41.05	168.12	22.43	-37.8	-38.8	22.1	0.00e+00	0	29	0	377487360	48	6304
2026-01-11 00:37:45.09	168.28	23.01	-37.7	-38.8	22.3	0.00e+00	51	30	0	384827392	48	6246
2026-01-11 00:37:49.13	168.45	23.61	-37.4	-38.4	22.5	0.00e+00	92	29	0	392167424	48	5993
2026-01-11 00:37:53.16	168.63	24.22	-37.3	-38.2	22.6	0.00e+00	0	30	0	399507456	48	5882
2026-01-11 00:37:57.20	168.81	24.85	-37.1	-38.0	22.8	0.00e+00	83	29	0	407896064	48	5756
2026-01-11 00:38:01.24	169.00	25.49	-37.3	-38.3	22.7	0.00e+00	92	29	0	415236096	48	5944
2026-01-11 00:38:05.28	169.20	26.15	-37.0	-38.0	22.8	0.00e+00	20	30	0	422576128	48	5707
2026-01-11 00:38:09.32	169.41	26.82	-37.2	-38.1	22.6	0.00e+00	0	29	0	429916160	48	5828
2026-01-11 00:38:13.35	169.62	27.51	-37.7	-38.7	22.3	0.00e+00	91	30	0	438304768	48	6227
2026-01-11 00:38:17.39	169.84	28.22	-37.5	-38.5	22.6	0.00e+00	87	30	0	445644800	48	6043
2026-01-11 00:38:21.43	170.07	28.94	-37.8	-38.8	22.3	0.00e+00	0	29	0	452984832	48	6313
2026-01-11 00:38:25.47	170.32	29.69	-38.8	-40.0	21.4	0.00e+00	0	29	0	460324864	50	6456
2026-01-11 00:38:29.51	170.57	30.45	-38.6	-39.8	21.5	0.00e+00	92	30	0	467664896	50	6262
2026-01-11 00:38:33.54	170.83	31.23	-40.0	-41.4	20.2	0.00e+00	90	30	0	476053504	52	6740
2026-01-11 00:38:37.58	171.11	32.04	-40.2	-41.6	19.8	0.00e+00	0	30	0	483393536	54	6127
2026-01-11 00:38:41.62	171.40	32.86	-40.1	-41.5	20.2	0.00e+00	0	30	0	490733568	52	6786
2026-01-11 00:38:45.66	171.71	33.71	-38.9	-40.0	21.5	0.00e+00	90	30	0	498073600	50	6461
2026-01-11 00:38:49.70	172.03	34.58	-37.5	-38.5	22.6	0.00e+00	92	30	0	506462208	48	6053
2026-01-11 00:38:53.73	172.36	35.48	-37.2	-38.2	22.8	0.00e+00	0	30	0	513802240	48	5858
2026-01-11 00:38:57.77	172.72	36.40	-37.4	-38.4	22.5	0.00e+00	92	30	0	521142272	48	6029
2026-01-11 00:39:01.81	173.10	37.34	-38.3	-39.5	21.3	0.00e+00	92	30	0	528482304	48	6792
2026-01-11 00:39:05.85	173.49	38.32	-38.3	-39.5	21.8	0.00e+00	0	30	0	535822336	50	6053
2026-01-11 00:39:09.89	173.92	39.32	-37.7	-38.7	22.4	0.00e+00	0	30	0	544210944	48	6222
2026-01-11 00:39:13.92	174.36	40.34	-36.8	-37.7	23.1	0.00e+00	92	30	0	551550976	46	6216
2026-01-11 00:39:17.96	174.84	41.40	-37.5	-38.5	22.4	0.00e+00	92	30	0	558891008	46	6784
2026-01-11 00:39:22.00	175.35	42.49	-39.2	-40.5	20.9	0.00e+00	0	30	0	566231040	50	6796
2026-01-11 00:39:26.04	175.89	43.60	-38.8	-39.9	21.4	0.00e+00	0	30	0	574619648	52	5675
2026-01-11 00:39:30.08	176.47	44.75	-38.8	-39.9	21.3	0.00e+00	70	30	0	581959680	50	6366
2026-01-11 00:39:34.12	177.10	45.93	-39.6	-41.0	20.3	0.00e+00	92	30	0	589299712	50	7207
2026-01-11 00:39:38.15	177.77	47.13	-38.8	-40.0	21.3	0.00e+00	0	30	0	596639744	52	5731
2026-01-11 00:39:42.19	178.49	48.37	-38.2	-39.4	21.9	0.00e+00	84	30	0	603979776	50	5993
2026-01-11 00:39:46.23	179.28	49.64	-36.4	-37.3	23.5	0.00e+00	92	30	0	612368384	46	5918
2026-01-11 00:39:50.27	180.13	50.94	-34.8	-35.7	24.4	0.00e+00	92	30	0	619708416	44	5508
2026-01-11 00:39:54.30	181.06	52.27	-34.1	-34.9	24.9	0.00e+00	0	30	0	627048448	42	5677
2026-01-11 00:39:58.34	182.07	53.63	-34.3	-35.1	24.9	0.00e+00	90	30	0	634388480	42	5815
2026-01-11 00:40:02.38	183.19	55.02	-33.3	-34.0	25.8	0.00e+00	90	30	0	642777088	40	5732
2026-01-11 00:40:06.41	184.41	56.42	-33.4	-34.1	25.7	0.00e+00	15	30	0	650117120	40	5798
2026-01-11 00:40:10.45	185.78	57.86	-34.1	-34.9	25.2	0.00e+00	0	30	0	657457152	40	6340
2026-01-11 00:40:14.49	187.29	59.31	-34.7	-35.5	24.7	0.00e+00	89	30	0	664797184	42	6060
2026-01-11 00:40:18.52	188.97	60.78	-33.6	-34.3	25.6	0.00e+00	92	30	0	672137216	40	5942
2026-01-11 00:40:22.56	190.87	62.26	-33.0	-33.8	25.6	0.00e+00	0	30	0	680525824	40	5572
2026-01-11 00:40:26.59	193.00	63.73	-33.1	-33.8	26.0	0.00e+00	85	30	0	687865856	38	6308
2026-01-11 00:40:30.63	195.43	65.21	-32.6	-33.3	26.1	0.00e+00	83	30	0	695205888	38	5915
2026-01-11 00:40:34.67	198.19	66.66	-35.3	-36.1	24.6	0.00e+00	92	30	0	702545920	42	6509
2026-01-11 00:40:38.71	201.36	68.09	-37.1	-38.1	22.9	0.00e+00	0	30	0	710934528	46	6520
2026-01-11 00:40:42.74	204.98	69.47	-37.3	-38.3	22.7	0.00e+00	92	30	0	718274560	48	5929
2026-01-11 00:40:46.78	209.16	70.78	-37.7	-38.7	22.6	0.00e+00	92	30	0	725614592	48	6179
2026-01-11 00:40:50.82	213.96	71.99	-39.1	-40.4	21.4	0.00e+00	0	30	0	732954624	50	6697
2026-01-11 00:40:54.85	219.44	73.08	-36.8	-37.8	23.2	0.00e+00	0	30	0	740294656	46	6254
2026-01-11 00:40:58.89	225.67	74.01	-36.9	-37.8	23.3	0.00e+00	92	30	0	748683264	46	6267
2026-01-11 00:41:02.93	232.61	74.75	-37.8	-38.8	22.7	0.00e+00	92	30	0	756023296	48	6275
2026-01-11 00:41:06.97	240.17	75.26	-37.5	-38.5	22.5	0.00e+00	0	30	0	763363328	46	6815
2026-01-11 00:41:11.01	248.13	75.50	-38.3	-39.4	21.9	0.00e+00	0	30	0	770703360	50	6029
2026-01-11 00:41:15.04	256.19	75.48	-35.6	-36.5	24.2	0.00e+00	39	30	0	779091968	44	6052
2026-01-11 00:41:19.08	264.09	75.17	-36.4	-37.3	23.3	0.00e+00	92	30	0	786432000	46	5915
2026-01-11 00:41:23.12	271.53	74.62	-38.0	-39.1	22.0	0.00e+00	0	30	0	793772032	50	5803
2026-01-11 00:41:27.16	278.33	73.84	-38.3	-39.4	21.9	0.00e+00	92	30	0	801112064	48	6740
2026-01-11 00:41:31.19	284.38	72.87	-37.7	-38.7	22.4	0.00e+00	92	30	0	808452096	48	6198
2026-01-11 00:41:35.23	289.73	71.75	-37.8	-38.8	22.5	0.00e+00	0	30	0	816840704	48	6294
2026-01-11 00:41:39.27	294.39	70.52	-37.5	-38.5	22.6	0.00e+00	0	30	0	824180736	48	6057
2026-01-11 00:41:43.31	298.44	69.19	-38.1	-39.1	21.8	0.00e+00	92	30	0	831520768	48	6536
2026-01-11 00:41:47.35	301.97	67.81	-37.5	-38.5	22.3	0.00e+00	92	30	0	838860800	48	6079
2026-01-11 00:41:51.39	305.04	66.38	-36.6	-37.5	23.5	0.00e+00	0	30	0	847249408	46	6076
2026-01-11 00:41:55.42	307.72	64.92	-35.3	-36.2	24.3	0.00e+00	0	30	0	854589440	44	5835
2026-01-11 00:41:59.47	310.09	63.44	-33.3	-34.1	25.6	0.00e+00	89	30	0	861929472	40	5763
2026-01-11 00:42:03.50	312.17	61.97	-35.5	-36.4	24.1	0.00e+00	92	30	0	869269504	42	6754
2026-01-11 00:42:07.54	314.02	60.50	-33.4	-34.2	25.6	0.00e+00	0	30	0	876609536	40	5843
2026-01-11 00:42:11.58	315.67	59.04	-36.0	-37.0	23.8	0.00e+00	76	30	0	884998144	44	6402
2026-01-11 00:42:15.61	317.14	57.59	-33.3	-34.1	25.5	0.00e+00	79	30	0	892338176	40	5785
2026-01-11 00:42:19.66	318.48	56.16	-32.9	-33.6	25.9	0.00e+00	0	30	0	899678208	40	5450
2026-01-11 00:42:23.69	319.68	54.76	-34.7	-35.6	24.5	0.00e+00	0	30	0	907018240	42	6110
2026-01-11 00:42:27.73	320.77	53.39	-35.3	-36.2	24.3	0.00e+00	87	30	0	915406848	42	6557
2026-01-11 00:42:31.77	321.77	52.04	-36.1	-37.1	23.6	0.00e+00	90	30	0	922746880	46	5784
2026-01-11 00:42:35.81	322.68	50.72	-35.9	-36.8	23.9	0.00e+00	0	30	0	930086912	44	6294
2026-01-11 00:42:39.85	323.52	49.43	-37.8	-39.0	22.3	0.00e+00	0	30	0	937426944	48	6420
2026-01-11 00:42:43.89	324.29	48.17	-36.2	-37.1	23.8	0.00e+00	9	30	0	944766976	46	5783
2026-01-11 00:42:47.92	325.00	46.94	-41.7	-44.0	17.7	0.00e+00	0	30	0	953155584	56	7236
2026-01-11 00:42:51.96	325.67	45.75	-36.0	-37.0	23.8	0.00e+00	0	30	0	960495616	46	5721
2026-01-11 00:42:56.00	326.28	44.58	-39.1	-40.6	20.6	0.00e+00	86	30	0	967835648	50	6904
2026-01-11 00:43:00.04	326.85	43.44	-38.0	-39.2	22.1	0.00e+00	89	30	0	975175680	48	6558
2026-01-11 00:43:04.07	327.39	42.34	-35.7	-36.6	24.0	0.00e+00	0	30	0	982515712	44	6121
2026-01-11 00:43:08.11	327.89	41.26	-37.9	-39.1	22.2	0.00e+00	0	30	0	990904320	48	6504
2026-01-11 00:43:12.15	328.36	40.22	-35.1	-35.9	24.5	0.00e+00	92	30	0	998244352	44	5679
2026-01-11 00:43:16.19	328.81	39.20	-35.6	-36.4	24.2	0.00e+00	90	30	0	1005584384	42	6764
2026-01-11 00:43:20.23	329.22	38.21	-38.2	-39.4	21.8	0.00e+00	0	30	0	1012924416	48	6752
2026-01-11 00:43:24.27	329.62	37.24	-35.3	-36.1	24.4	0.00e+00	0	30	0	1021313024	44	5820
2026-01-11 00:43:28.30	329.99	36.31	-35.6	-36.5	24.1	0.00e+00	86	30	0	1028653056	42	6816
2026-01-11 00:43:32.34	330.34	35.39	-37.0	-38.0	23.0	0.00e+00	90	30	0	1035993088	46	6442
2026-01-11 00:43:36.38	330.68	34.51	-40.4	-42.0	19.8	0.00e+00	0	30	0	1043333120	52	7244
2026-01-11 00:43:40.42	331.00	33.64	-39.6	-41.0	20.6	0.00e+00	0	30	0	1050673152	52	6396
2026-01-11 00:43:44.46	331.30	32.80	-36.8	-37.8	23.2	0.00e+00	91	30	0	1059061760	46	6249
2026-01-11 00:43:48.49	331.59	31.98	-36.7	-37.6	23.2	0.00e+00	0	30	0	1066401792	46	6168
2026-01-11 00:43:52.53	331.86	31.18	-38.4	-39.5	21.6	0.00e+00	0	30	0	1073741824	48	6810
2026-01-11 00:43:56.57	332.13	30.41	-38.0	-39.1	22.1	0.00e+00	90	30	0	1081081856	50	5777
2026-01-11 00:44:00.61	332.38	29.65	-37.3	-38.3	22.7	0.00e+00	75	31	0	1089470464	48	5912
2026-01-11 00:44:04.65	332.62	28.91	-37.1	-38.1	22.7	0.00e+00	0	30	0	1096810496	48	5828
2026-01-11 00:44:08.69	332.85	28.19	-36.8	-37.7	23.1	0.00e+00	0	30	0	1104150528	46	6200
2026-01-11 00:44:12.73	333.07	27.49	-36.6	-37.6	23.2	0.00e+00	78	30	0	1111490560	46	6107
2026-01-11 00:44:16.76	333.29	26.81	-36.0	-36.9	23.8	0.00e+00	0	30	0	1118830592	46	5643
2026-01-11 00:44:20.80	333.49	26.14	-36.4	-37.3	23.5	0.00e+00	0	30	0	1127219200	46	5937
2026-01-11 00:44:24.84	333.69	25.49	-36.9	-37.9	23.1	0.00e+00	0	30	0	1134559232	46	6367
2026-01-11 00:44:28.88	333.88	24.85	-36.2	-37.2	23.6	0.00e+00	92	31	0	1141899264	46	5839
2026-01-11 00:44:32.91	334.06	24.23	-35.1	-36.0	24.4	0.00e+00	0	31	0	1149239296	44	5723
2026-01-11 00:44:36.95	334.24	23.63	-35.1	-35.9	24.3	0.00e+00	0	30	0	1157627904	44	5658
2026-01-11 00:44:40.99	334.41	23.03	-35.0	-35.8	24.4	0.00e+00	0	31	0	1164967936	44	5601
2026-01-11 00:44:45.03	334.58	22.45	-34.9	-35.7	24.5	0.00e+00	0	30	0	1172307968	44	5545
2026-01-11 00:44:49.07	334.74	21.88	-35.5	-36.4	24.0	0.00e+00	0	31	0	1179648000	44	5995
2026-01-11 00:44:53.10	334.89	21.33	-36.2	-37.1	23.5	0.00e+00	0	31	0	1186988032	44	6539
2026-01-11 00:44:57.14	335.04	20.79	-35.6	-36.4	24.0	0.00e+00	92	31	0	1195376640	44	6008
2026-01-11 00:45:01.18	335.19	20.25	-34.7	-35.5	24.7	0.00e+00	33	31	0	1202716672	42	6043
2026-01-11 00:45:05.21	335.33	19.73	-34.3	-35.1	25.0	0.00e+00	0	31	0	1210056704	42	5788
2026-01-11 00:45:09.25	335.47	19.22	-34.2	-35.0	25.0	0.00e+00	0	31	0	1217396736	42	5703
2026-01-11 00:45:13.29	335.60	18.72	-34.4	-35.2	24.7	0.00e+00	83	31	0	1225785344	42	5845
2026-01-11 00:45:17.33	335.73	18.23	-34.8	-35.6	24.6	0.00e+00	0	31	0	1233125376	42	6157
2026-01-11 00:45:21.37	335.86	17.75	-35.4	-36.2	24.1	0.00e+00	0	31	0	1240465408	42	6600
2026-01-11 00:45:25.41	335.98	17.28	-35.7	-36.7	23.8	0.00e+00	73	31	0	1247805440	44	6184
2026-01-11 00:45:29.44	336.10	16.82	-36.2	-37.2	23.3	0.00e+00	0	31	0	1255145472	44	6571
2026-01-11 00:45:33.48	336.21	16.36	-36.3	-37.3	23.3	0.00e+00	0	31	0	1263534080	44	6631
2026-01-11 00:45:37.52	336.33	15.92	-36.4	-37.4	23.2	0.00e+00	0	30	0	1270874112	44	6702
2026-01-11 00:45:41.56	336.44	15.48	-36.2	-37.1	23.3	0.00e+00	66	30	0	1278214144	44	6525
2026-01-11 00:45:45.59	336.55	15.05	-36.3	-37.2	22.9	0.00e+00	0	30	0	1285554176	44	6607
2026-01-11 00:45:49.63	336.65	14.63	-36.4	-37.4	23.1	0.00e+00	0	30	0	1293942784	44	6693
2026-01-11 00:45:53.66	336.76	14.21	-36.7	-37.8	22.9	0.00e+00	0	30	0	1301282816	44	7030
2026-01-11 00:45:57.70	336.86	13.80	-37.2	-38.3	22.4	0.00e+00	90	30	0	1308622848	46	6672
2026-01-11 00:46:01.74	336.95	13.40	-37.6	-38.8	22.0	0.00e+00	0	30	0	1315962880	46	7058
2026-01-11 00:46:05.78	337.05	13.00	-38.0	-39.3	21.7	0.00e+00	0	30	0	1323302912	48	6644
2026-01-11 00:46:09.82	337.15	12.61	-37.9	-39.1	21.7	0.00e+00	0	30	0	1331691520	48	6536
2026-01-11 00:46:13.86	337.24	12.23	-37.9	-39.1	21.7	0.00e+00	77	30	0	1339031552	48	6497
2026-01-11 00:46:17.90	337.33	11.85	-37.5	-38.6	22.1	0.00e+00	0	30	0	1346371584	48	6171
2026-01-11 00:46:21.93	337.42	11.48	-37.5	-38.7	22.1	0.00e+00	0	30	0	1353711616	48	6188
2026-01-11 00:46:25.97	337.50	11.12	-37.3	-38.4	22.3	0.00e+00	0	30	0	1362100224	48	5989
2026-01-11 00:46:30.01	337.59	10.76	-37.0	-38.1	22.5	0.00e+00	0	30	0	1369440256	48	5771
2026-01-11 00:46:34.05	337.67	10.40	-36.9	-38.0	22.6	0.00e+00	0	30	0	1376780288	48	5725
2026-01-11 00:46:38.09	337.75	10.05	-36.9	-37.9	22.7	0.00e+00	0	30	0	1384120320	46	6348
2026-01-11 00:46:42.14	337.84	9.70	-36.8	-37.8	22.6	0.00e+00	91	30	0	1391460352	46	6315
2026-01-11 00:46:46.17	337.91	9.36	-36.8	-37.9	22.6	0.00e+00	0	30	0	1399848960	46	6338
2026-01-11 00:46:50.21	337.99	9.03	-36.6	-37.6	22.7	0.00e+00	0	30	0	1407188992	46	6167
2026-01-11 00:46:54.25	338.07	8.69	-36.6	-37.6	22.8	0.00e+00	0	30	0	1414529024	46	6125
2026-01-11 00:46:58.29	338.14	8.37	-36.6	-37.6	22.6	0.00e+00	79	30	0	1421869056	46	6125
2026-01-11 00:47:02.33	338.22	8.04	-36.8	-37.8	22.6	0.00e+00	0	30	0	1430257664	46	6303
2026-01-11 00:47:06.36	338.29	7.72	-36.7	-37.7	22.6	0.00e+00	0	30	0	1437597696	46	6241
2026-01-11 00:47:10.40	338.36	7.41	-36.8	-37.9	22.4	0.00e+00	0	30	0	1444937728	46	6318
2026-01-11 00:47:14.44	338.43	7.10	-36.8	-37.9	22.4	0.00e+00	0	30	0	1452277760	46	6321
2026-01-11 00:47:18.48	338.50	6.79	-37.2	-38.3	22.1	0.00e+00	0	30	0	1459617792	46	6628
2026-01-11 00:47:22.51	338.57	6.49	-37.3	-38.3	21.9	0.00e+00	0	30	0	1468006400	46	6686
2026-01-11 00:47:26.55	338.64	6.19	-37.4	-38.5	21.8	0.00e+00	61	30	0	1475346432	46	6838
2026-01-11 00:47:30.59	338.70	5.89	-37.4	-38.5	21.5	0.00e+00	0	30	0	1482686464	46	6848
2026-01-11 00:47:34.63	338.77	5.59	-37.7	-39.0	21.0	0.00e+00	0	30	0	1490026496	48	6397
2026-01-11 00:47:38.67	338.83	5.30	-38.5	-40.0	19.6	0.00e+00	0	30	0	1497366528	48	7194
2026-01-11 00:47:42.70	338.89	5.02	-39.8	-41.7	17.5	0.00e+00	85	30	0	1505755136	52	6987
2026-01-11 00:47:46.74	338.96	4.73	-41.1	-44.3	14.0	0.00e+00	0	29	0	1513095168	54	8347
2026-01-11 00:47:50.78	339.02	4.45	-42.2	-47.4	9.9	6.60e-03	0	29	0	1520435200	56	10704
2026-01-11 00:47:54.82	339.08	4.17	-42.7	-50.6	5.7	3.25e-01	9	29	0	1527775232	56	15484
2026-01-11 00:47:58.86	339.14	3.90	-42.7	-55.2	3.8	1.49e+00	0	30	104	1533018112	58	23361
2026-01-11 00:48:02.89	339.20	3.62	-42.8	-57.2	3.6	1.51e+00	0	30	104	1533018112	58	29458
2026-01-11 00:48:06.94	339.26	3.35	-42.8	-57.9	3.6	1.51e+00	0	30	104	1533018112	58	31917
2026-01-11 00:48:10.97	339.31	3.09	-42.8	-58.0	3.6	1.51e+00	0	29	104	1533018112	58	32136
2026-01-11 00:48:15.01	339.37	2.82	-47.5	-62.6	3.5	1.51e+00	0	29	104	1533018112	60	48661
2026-01-11 00:48:19.05	339.43	2.56	-48.0	-63.2	3.6	1.51e+00	0	29	104	1533018112	60	52002
2026-01-11 00:48:23.09	339.48	2.30	-47.9	-63.1	3.6	1.51e+00	0	29	104	1533018112	60	51452
2026-01-11 00:48:27.12	339.54	2.04	-48.0	-63.1	3.6	1.51e+00	0	29	104	1533018112	60	51929
2026-01-11 00:48:31.16	339.59	1.79	-47.9	-63.0	3.6	1.51e+00	0	29	104	1533018112	60	51314
2026-01-11 00:48:35.20	339.65	1.53	-47.9	-63.0	3.6	1.51e+00	0	29	104	1533018112	60	51265
2026-01-11 00:48:39.24	339.70	1.28	-47.9	-63.0	3.6	1.51e+00	0	29	104	1533018112	60	51232
2026-01-11 00:48:43.28	339.75	1.03	-47.9	-63.1	3.5	1.51e+00	0	29	104	1533018112	60	51731
2026-01-11 00:48:47.32	339.80	0.79	-47.9	-63.0	3.6	1.51e+00	0	29	104	1533018112	60	51150
2026-01-11 00:48:51.36	339.86	0.54	-47.8	-63.0	3.6	1.51e+00	0	29	104	1533018112	60	51346
2026-01-11 00:48:55.40	339.91	0.30	-47.9	-63.1	3.6	1.51e+00	0	29	104	1533018112	60	51474
2026-01-11 00:48:59.43	339.96	0.06	-47.9	-63.0	3.6	1.51e+00	0	29	104	1533018112	60	51162

#Closed at: 2026-01-11 00:49:02
#Recorded file [1533 MB]: D:/lorett/data/35029_260111_123330.dat