passes_logs/2026/01/11/R4.6S_Anadyr/R4.6S_Anadyr__20260111_211712_NOAA_20_JPSS-1_rec.log

#Pass ID: 20260111_211712_NOAA 20 (JPSS-1)
#Satellite: NOAA 20 (JPSS-1)
#Configuration: NOAA 20
#almurnet v.1.7.20251203
#Start time: 2026-01-11 21:17:13

#Version: 2.2.20231116
#Station: R4.6S_Anadyr
#Location: 177.4865 lon 64.73178 lat
#TLE: 1 43013U 17073A   26011.59429536  .00000082  00000+0  59704-4 0  9990
#TLE: 2 43013  98.7632 312.5697 0001637  44.2118 315.9188 14.19535307422256

#Time	Az	El	Level	Level2	SNR	BER	BlckErr	Temp	State	Recorded	gain1	gain2
2026-01-11 21:17:13.67	87.21	0.06	-48.2	-63.1	3.5	1.51e+00	0	24	0	0	60	51799
2026-01-11 21:17:17.70	86.96	0.27	-48.3	-63.5	3.6	1.51e+00	0	25	104	0	60	54268
2026-01-11 21:17:21.74	86.70	0.49	-48.2	-63.5	3.6	1.51e+00	0	26	104	0	60	53987
2026-01-11 21:17:25.78	86.43	0.70	-48.2	-63.4	3.6	1.51e+00	0	26	104	0	60	53405
2026-01-11 21:17:29.82	86.16	0.91	-45.3	-62.6	3.6	1.51e+00	0	26	104	0	60	48554
2026-01-11 21:17:33.86	85.89	1.13	-45.8	-61.7	3.6	1.51e+00	0	26	104	0	60	44169
2026-01-11 21:17:37.90	85.62	1.35	-45.7	-61.7	3.6	1.51e+00	0	26	104	0	60	44141
2026-01-11 21:17:41.94	85.34	1.56	-45.7	-61.7	3.6	1.51e+00	0	26	104	0	60	44065
2026-01-11 21:17:45.98	85.05	1.78	-45.8	-61.8	3.6	1.51e+00	0	26	104	0	60	44244
2026-01-11 21:17:50.02	84.76	2.00	-45.7	-61.5	3.6	1.51e+00	0	26	104	0	60	43118
2026-01-11 21:17:54.06	84.47	2.22	-45.6	-61.6	3.6	1.51e+00	0	26	104	0	60	43384
2026-01-11 21:17:58.10	84.17	2.45	-45.6	-61.6	3.6	1.51e+00	0	26	104	0	60	43513
2026-01-11 21:18:02.14	83.87	2.67	-45.6	-61.0	3.6	1.51e+00	0	26	104	0	60	40706
2026-01-11 21:18:06.18	83.56	2.89	-45.6	-60.6	3.6	1.51e+00	0	26	104	0	60	38863
2026-01-11 21:18:10.22	83.25	3.12	-43.9	-48.6	11.9	1.32e-03	0	26	0	4194304	60	9717
2026-01-11 21:18:14.26	82.93	3.34	-43.8	-49.0	12.0	1.56e-04	0	26	0	8388608	60	10149
2026-01-11 21:18:18.29	82.61	3.57	-41.2	-43.1	17.4	0.00e+00	0	26	0	12582912	56	6505
2026-01-11 21:18:22.33	82.28	3.80	-41.3	-43.2	17.6	0.00e+00	0	26	0	19922944	56	6576
2026-01-11 21:18:26.36	81.95	4.02	-41.1	-42.9	18.1	0.00e+00	0	26	0	27262976	56	6336
2026-01-11 21:18:30.40	81.61	4.25	-40.9	-42.7	18.1	0.00e+00	0	26	0	34603008	54	6979
2026-01-11 21:18:34.44	81.27	4.49	-40.6	-42.3	18.7	0.00e+00	0	26	0	41943040	54	6635
2026-01-11 21:18:38.47	80.92	4.72	-40.7	-42.4	18.6	0.00e+00	0	27	0	50331648	54	6694
2026-01-11 21:18:42.51	80.56	4.95	-40.7	-42.4	18.6	0.00e+00	0	27	0	57671680	54	6752
2026-01-11 21:18:46.55	80.20	5.18	-40.6	-42.3	18.8	0.00e+00	0	27	0	65011712	54	6622
2026-01-11 21:18:50.58	79.84	5.42	-40.6	-42.2	18.9	0.00e+00	0	27	0	72351744	54	6568
2026-01-11 21:18:54.62	79.46	5.65	-40.8	-42.5	18.7	0.00e+00	0	27	0	79691776	54	6779
2026-01-11 21:18:58.66	79.08	5.89	-40.4	-42.0	19.0	0.00e+00	0	27	0	88080384	54	6397
2026-01-11 21:19:02.70	78.70	6.13	-40.9	-42.6	18.5	0.00e+00	0	27	0	95420416	54	6925
2026-01-11 21:19:06.73	78.31	6.37	-40.8	-42.4	18.7	0.00e+00	0	27	0	102760448	54	6747
2026-01-11 21:19:10.77	77.91	6.61	-40.8	-42.4	18.9	0.00e+00	0	27	0	110100480	54	6696
2026-01-11 21:19:14.80	77.50	6.84	-40.7	-42.3	18.9	0.00e+00	0	27	0	118489088	54	6647
2026-01-11 21:19:18.84	77.09	7.09	-40.5	-42.1	19.2	0.00e+00	0	27	0	125829120	54	6485
2026-01-11 21:19:22.87	76.67	7.33	-40.5	-42.0	19.3	0.00e+00	0	27	0	133169152	54	6400
2026-01-11 21:19:26.90	76.24	7.57	-40.6	-42.1	19.1	0.00e+00	0	27	0	140509184	54	6514
2026-01-11 21:19:30.94	75.81	7.81	-40.5	-42.0	19.3	0.00e+00	0	27	0	147849216	54	6441
2026-01-11 21:19:34.98	75.36	8.06	-40.3	-41.7	19.6	0.00e+00	0	27	0	156237824	54	6193
2026-01-11 21:19:39.02	74.91	8.30	-40.4	-41.8	19.5	0.00e+00	0	27	0	163577856	54	6288
2026-01-11 21:19:43.05	74.46	8.55	-40.5	-42.0	19.4	0.00e+00	0	27	0	170917888	54	6405
2026-01-11 21:19:47.09	73.99	8.79	-40.0	-41.4	20.1	0.00e+00	0	27	0	178257920	54	5979
2026-01-11 21:19:51.13	73.52	9.04	-39.9	-41.2	20.3	0.00e+00	0	27	0	185597952	52	6575
2026-01-11 21:19:55.16	73.04	9.29	-39.5	-40.7	20.8	0.00e+00	0	27	0	193986560	52	6236
2026-01-11 21:19:59.20	72.55	9.54	-39.3	-40.6	20.9	0.00e+00	0	27	0	201326592	52	6110
2026-01-11 21:20:03.24	72.05	9.78	-39.4	-40.7	20.4	0.00e+00	0	27	0	208666624	52	6193
2026-01-11 21:20:07.28	71.54	10.03	-39.2	-40.4	21.1	0.00e+00	0	27	0	216006656	52	5965
2026-01-11 21:20:11.31	71.02	10.28	-39.2	-40.4	21.2	0.00e+00	0	28	0	224395264	52	5984
2026-01-11 21:20:15.35	70.50	10.53	-39.3	-40.6	21.1	0.00e+00	0	27	0	231735296	52	6110
2026-01-11 21:20:19.38	69.96	10.78	-39.3	-40.6	21.0	0.00e+00	0	28	0	239075328	52	6105
2026-01-11 21:20:23.42	69.42	11.03	-39.4	-40.6	21.0	0.00e+00	0	28	0	246415360	52	6132
2026-01-11 21:20:27.46	68.86	11.28	-39.2	-40.4	21.2	0.00e+00	0	28	0	253755392	52	5986
2026-01-11 21:20:31.50	68.30	11.53	-39.1	-40.3	21.3	0.00e+00	0	28	0	262144000	52	5897
2026-01-11 21:20:35.53	67.73	11.77	-39.2	-40.4	21.2	0.00e+00	0	28	0	269484032	52	6027
2026-01-11 21:20:39.57	67.14	12.02	-39.4	-40.6	21.0	0.00e+00	0	28	0	276824064	52	6134
2026-01-11 21:20:43.61	66.55	12.27	-39.2	-40.4	21.3	0.00e+00	0	28	0	284164096	52	5979
2026-01-11 21:20:47.65	65.95	12.52	-39.4	-40.6	21.1	0.00e+00	0	28	0	292552704	52	6157
2026-01-11 21:20:51.68	65.33	12.76	-39.6	-40.8	20.8	0.00e+00	0	28	0	299892736	52	6299
2026-01-11 21:20:55.71	64.71	13.01	-39.6	-40.8	20.8	0.00e+00	0	28	0	307232768	52	6304
2026-01-11 21:20:59.75	64.08	13.25	-39.3	-40.4	21.2	0.00e+00	0	28	0	314572800	52	6007
2026-01-11 21:21:03.78	63.43	13.50	-39.2	-40.3	21.3	0.00e+00	0	28	0	321912832	52	5959
2026-01-11 21:21:07.82	62.77	13.74	-39.1	-40.3	21.4	0.00e+00	0	28	0	330301440	52	5918
2026-01-11 21:21:11.86	62.11	13.98	-38.9	-40.0	21.7	0.00e+00	0	28	0	337641472	52	5711
2026-01-11 21:21:15.90	61.43	14.22	-38.8	-39.8	21.9	0.00e+00	0	28	0	344981504	50	6306
2026-01-11 21:21:19.93	60.74	14.46	-38.4	-39.4	22.2	0.00e+00	0	28	0	352321536	50	6001
2026-01-11 21:21:23.96	60.04	14.69	-38.2	-39.2	22.5	0.00e+00	0	28	0	360710144	50	5853
2026-01-11 21:21:28.00	59.33	14.93	-38.2	-39.2	22.4	0.00e+00	0	28	0	368050176	50	5878
2026-01-11 21:21:32.03	58.61	15.16	-37.6	-38.5	23.1	0.00e+00	0	28	0	375390208	48	6086
2026-01-11 21:21:36.07	57.87	15.39	-37.3	-38.3	23.4	0.00e+00	0	28	0	382730240	48	5900
2026-01-11 21:21:40.11	57.13	15.61	-37.2	-38.1	23.5	0.00e+00	0	28	0	390070272	48	5788
2026-01-11 21:21:44.15	56.37	15.84	-36.9	-37.7	23.7	0.00e+00	0	28	0	398458880	48	5562
2026-01-11 21:21:48.18	55.60	16.06	-36.7	-37.5	24.0	0.00e+00	0	28	0	405798912	46	6087
2026-01-11 21:21:52.22	54.82	16.27	-36.7	-37.6	23.9	0.00e+00	0	28	0	413138944	46	6123
2026-01-11 21:21:56.26	54.03	16.48	-36.6	-37.5	24.1	0.00e+00	0	28	0	420478976	46	6052
2026-01-11 21:22:00.29	53.23	16.69	-36.7	-37.6	24.0	0.00e+00	0	28	0	428867584	46	6150
2026-01-11 21:22:04.32	52.41	16.90	-37.0	-37.9	23.7	0.00e+00	0	28	0	436207616	46	6357
2026-01-11 21:22:08.35	51.59	17.10	-37.2	-38.1	23.5	0.00e+00	0	28	0	443547648	46	6507
2026-01-11 21:22:12.39	50.75	17.29	-37.1	-38.0	23.6	0.00e+00	0	28	0	450887680	46	6407
2026-01-11 21:22:16.43	49.91	17.49	-37.0	-37.9	23.7	0.00e+00	0	29	0	458227712	46	6371
2026-01-11 21:22:20.46	49.05	17.67	-36.6	-37.4	23.8	0.00e+00	0	29	0	466616320	46	6014
2026-01-11 21:22:24.50	48.18	17.85	-36.2	-37.0	24.5	0.00e+00	0	29	0	473956352	46	5757
2026-01-11 21:22:28.54	47.30	18.03	-36.3	-37.1	24.4	0.00e+00	0	29	0	481296384	46	5814
2026-01-11 21:22:32.57	46.41	18.20	-36.3	-37.1	24.4	0.00e+00	0	28	0	488636416	46	5815
2026-01-11 21:22:36.61	45.51	18.36	-36.3	-37.2	24.3	0.00e+00	0	29	0	495976448	46	5847
2026-01-11 21:22:40.64	44.61	18.52	-35.9	-36.7	24.7	0.00e+00	0	29	0	504365056	46	5549
2026-01-11 21:22:44.68	43.69	18.67	-36.1	-36.9	24.7	0.00e+00	0	29	0	511705088	46	5653
2026-01-11 21:22:48.72	42.76	18.81	-36.5	-37.4	24.2	0.00e+00	0	29	0	519045120	46	5968
2026-01-11 21:22:52.75	41.83	18.95	-36.6	-37.5	24.0	0.00e+00	0	29	0	526385152	46	6076
2026-01-11 21:22:56.79	40.89	19.08	-37.0	-37.9	23.7	0.00e+00	0	29	0	534773760	46	6383
2026-01-11 21:23:00.83	39.93	19.20	-36.8	-37.7	24.0	0.00e+00	0	29	0	542113792	46	6183
2026-01-11 21:23:04.87	38.97	19.31	-37.4	-38.3	23.5	0.00e+00	0	29	0	549453824	46	6638
2026-01-11 21:23:08.90	38.01	19.42	-37.3	-38.2	23.5	0.00e+00	0	29	0	556793856	46	6569
2026-01-11 21:23:12.94	37.04	19.52	-37.5	-38.5	23.3	0.00e+00	0	29	0	564133888	46	6772
2026-01-11 21:23:16.98	36.06	19.61	-37.6	-38.6	23.1	0.00e+00	0	29	0	572522496	48	6108
2026-01-11 21:23:21.01	35.08	19.69	-37.6	-38.6	23.2	0.00e+00	0	29	0	579862528	48	6126
2026-01-11 21:23:25.05	34.09	19.76	-38.2	-39.2	22.6	0.00e+00	0	29	0	587202560	48	6580
2026-01-11 21:23:29.09	33.10	19.82	-38.0	-39.0	22.8	0.00e+00	0	29	0	594542592	48	6460
2026-01-11 21:23:33.13	32.10	19.88	-37.7	-38.7	23.1	0.00e+00	0	29	0	601882624	48	6200
2026-01-11 21:23:37.16	31.10	19.92	-38.0	-39.0	22.7	0.00e+00	0	29	0	610271232	48	6448
2026-01-11 21:23:41.20	30.10	19.96	-37.9	-38.9	22.9	0.00e+00	0	29	0	617611264	48	6340
2026-01-11 21:23:45.24	29.09	19.99	-38.0	-39.0	22.8	0.00e+00	0	29	0	624951296	48	6444
2026-01-11 21:23:49.27	28.09	20.00	-37.7	-38.7	23.0	0.00e+00	0	29	0	632291328	48	6208
2026-01-11 21:23:53.31	27.08	20.01	-37.9	-38.9	22.9	0.00e+00	0	29	0	640679936	48	6333
2026-01-11 21:23:57.35	26.08	20.01	-37.4	-38.3	23.4	0.00e+00	0	29	0	648019968	48	5939
2026-01-11 21:24:01.38	25.07	20.00	-37.0	-37.9	23.8	0.00e+00	0	29	0	655360000	48	5671
2026-01-11 21:24:05.42	24.06	19.98	-37.1	-38.0	23.6	0.00e+00	0	29	0	662700032	48	5760
2026-01-11 21:24:09.46	23.06	19.95	-36.8	-37.6	24.0	0.00e+00	0	29	0	670040064	48	5496
2026-01-11 21:24:13.49	22.06	19.92	-36.6	-37.5	24.1	0.00e+00	0	29	0	678428672	46	6076
2026-01-11 21:24:17.53	21.06	19.87	-36.3	-37.2	24.4	0.00e+00	0	29	0	685768704	46	5856
2026-01-11 21:24:21.56	20.07	19.81	-36.1	-36.9	24.5	0.00e+00	0	29	0	693108736	46	5678
2026-01-11 21:24:25.60	19.08	19.75	-36.0	-36.8	24.7	0.00e+00	0	29	0	700448768	46	5615
2026-01-11 21:24:29.63	18.09	19.68	-35.7	-36.5	24.9	0.00e+00	0	29	0	707788800	44	6050
2026-01-11 21:24:33.67	17.11	19.59	-35.9	-36.7	24.7	0.00e+00	0	29	0	716177408	44	6243
2026-01-11 21:24:37.70	16.13	19.50	-36.0	-36.8	24.7	0.00e+00	0	29	0	723517440	44	6291
2026-01-11 21:24:41.74	15.16	19.41	-35.9	-36.7	24.7	0.00e+00	0	29	0	730857472	44	6219
2026-01-11 21:24:45.78	14.20	19.30	-36.4	-37.3	24.3	0.00e+00	0	29	0	738197504	44	6629
2026-01-11 21:24:49.81	13.24	19.18	-36.6	-37.5	24.1	0.00e+00	0	29	0	746586112	44	6785
2026-01-11 21:24:53.85	12.29	19.06	-37.0	-37.8	23.8	0.00e+00	0	29	0	753926144	46	6310
2026-01-11 21:24:57.89	11.35	18.93	-37.1	-37.9	23.7	0.00e+00	0	30	0	761266176	46	6387
2026-01-11 21:25:01.92	10.42	18.79	-37.6	-38.5	23.1	0.00e+00	0	29	0	768606208	46	6830
2026-01-11 21:25:05.96	9.50	18.65	-37.4	-38.3	23.4	0.00e+00	0	29	0	775946240	46	6643
2026-01-11 21:25:10.00	8.58	18.50	-37.2	-38.2	23.5	0.00e+00	0	30	0	784334848	46	6542
2026-01-11 21:25:14.04	7.68	18.34	-37.5	-38.4	23.3	0.00e+00	0	30	0	791674880	46	6721
2026-01-11 21:25:18.07	6.78	18.18	-37.4	-38.4	23.3	0.00e+00	0	29	0	799014912	46	6740
2026-01-11 21:25:22.11	5.90	18.01	-37.4	-38.3	23.4	0.00e+00	0	29	0	806354944	46	6651
2026-01-11 21:25:26.15	5.02	17.83	-37.2	-38.1	23.6	0.00e+00	0	30	0	814743552	46	6524
2026-01-11 21:25:30.19	4.15	17.65	-37.7	-38.7	22.9	0.00e+00	0	30	0	822083584	48	6183
2026-01-11 21:25:34.23	3.30	17.46	-37.9	-38.9	22.9	0.00e+00	0	29	0	829423616	48	6337
2026-01-11 21:25:38.26	2.46	17.27	-37.7	-38.7	23.1	0.00e+00	0	30	0	836763648	48	6183
2026-01-11 21:25:42.29	1.62	17.08	-38.0	-39.1	22.7	0.00e+00	0	30	0	844103680	48	6468
2026-01-11 21:25:46.33	0.80	16.88	-37.7	-38.7	23.0	0.00e+00	0	30	0	852492288	48	6184
2026-01-11 21:25:50.37	359.99	16.67	-37.7	-38.7	23.0	0.00e+00	0	30	0	859832320	48	6186
2026-01-11 21:25:54.40	359.19	16.46	-37.8	-38.8	22.9	0.00e+00	0	30	0	867172352	48	6256
2026-01-11 21:25:58.43	358.41	16.25	-38.0	-39.0	22.7	0.00e+00	0	30	0	874512384	48	6413
2026-01-11 21:26:02.47	357.63	16.03	-37.9	-38.9	22.8	0.00e+00	0	30	0	882900992	48	6378
2026-01-11 21:26:06.51	356.86	15.81	-37.5	-38.5	23.2	0.00e+00	0	30	0	890241024	48	6037
2026-01-11 21:26:10.54	356.11	15.59	-37.9	-38.9	22.7	0.00e+00	0	30	0	897581056	48	6346
2026-01-11 21:26:14.58	355.37	15.36	-38.3	-39.3	22.4	0.00e+00	0	30	0	904921088	48	6672
2026-01-11 21:26:18.62	354.64	15.14	-38.5	-39.6	22.1	0.00e+00	0	30	0	912261120	48	6909
2026-01-11 21:26:22.66	353.92	14.90	-38.5	-39.6	22.1	0.00e+00	0	30	0	920649728	50	6112
2026-01-11 21:26:26.69	353.21	14.67	-38.5	-39.6	21.9	0.00e+00	0	30	0	927989760	50	6143
2026-01-11 21:26:30.73	352.51	14.44	-38.7	-39.8	22.0	0.00e+00	0	30	0	935329792	50	6267
2026-01-11 21:26:34.77	351.83	14.20	-38.7	-39.8	22.0	0.00e+00	0	30	0	942669824	50	6273
2026-01-11 21:26:38.80	351.15	13.96	-38.1	-39.1	22.5	0.00e+00	0	30	0	951058432	50	5815
2026-01-11 21:26:42.84	350.49	13.72	-38.0	-39.0	22.7	0.00e+00	0	30	0	958398464	50	5701
2026-01-11 21:26:46.87	349.84	13.48	-38.0	-39.0	22.7	0.00e+00	0	30	0	965738496	50	5740
2026-01-11 21:26:50.91	349.19	13.23	-37.6	-38.6	22.9	0.00e+00	0	30	0	973078528	48	6150
2026-01-11 21:26:54.95	348.56	12.99	-37.4	-38.4	23.1	0.00e+00	0	30	0	980418560	48	6025
2026-01-11 21:26:58.98	347.94	12.75	-37.3	-38.2	23.3	0.00e+00	0	30	0	988807168	48	5883
2026-01-11 21:27:03.02	347.33	12.50	-37.1	-38.0	23.4	0.00e+00	0	30	0	996147200	48	5737
2026-01-11 21:27:07.05	346.73	12.25	-37.0	-37.9	23.5	0.00e+00	0	30	0	1003487232	48	5655
2026-01-11 21:27:11.09	346.14	12.01	-37.0	-38.0	23.5	0.00e+00	0	30	0	1010827264	48	5698
2026-01-11 21:27:15.12	345.56	11.76	-37.2	-38.1	23.3	0.00e+00	0	30	0	1018167296	48	5812
2026-01-11 21:27:19.16	344.99	11.51	-37.0	-38.0	23.3	0.00e+00	0	30	0	1026555904	46	6402
2026-01-11 21:27:23.19	344.44	11.26	-37.1	-38.1	22.9	0.00e+00	0	30	0	1033895936	46	6484
2026-01-11 21:27:27.23	343.89	11.01	-37.2	-38.1	23.3	0.00e+00	0	30	0	1041235968	46	6511
2026-01-11 21:27:31.26	343.35	10.77	-37.5	-38.5	23.1	0.00e+00	0	30	0	1048576000	46	6807
2026-01-11 21:27:35.30	342.81	10.52	-37.6	-38.6	22.9	0.00e+00	0	30	0	1056964608	46	6920
2026-01-11 21:27:39.33	342.29	10.27	-37.7	-38.7	22.8	0.00e+00	0	30	0	1064304640	46	6959
2026-01-11 21:27:43.37	341.78	10.02	-37.6	-38.6	22.8	0.00e+00	0	30	0	1071644672	46	6875
2026-01-11 21:27:47.40	341.27	9.77	-37.6	-38.6	22.9	0.00e+00	0	30	0	1078984704	46	6876
2026-01-11 21:27:51.44	340.78	9.53	-37.8	-38.9	22.5	0.00e+00	0	30	0	1086324736	48	6350
2026-01-11 21:27:55.48	340.29	9.28	-38.1	-39.2	22.2	0.00e+00	0	30	0	1094713344	48	6602
2026-01-11 21:27:59.51	339.81	9.03	-38.4	-39.5	21.9	0.00e+00	0	30	0	1102053376	48	6815
2026-01-11 21:28:03.55	339.34	8.79	-38.5	-39.6	21.9	0.00e+00	0	30	0	1109393408	48	6864
2026-01-11 21:28:07.58	338.88	8.54	-38.7	-39.8	21.6	0.00e+00	0	30	0	1116733440	48	7055
2026-01-11 21:28:11.62	338.43	8.30	-38.9	-40.0	21.4	0.00e+00	0	30	0	1124073472	50	6449
2026-01-11 21:28:15.65	337.98	8.05	-39.1	-40.3	21.1	0.00e+00	0	30	0	1132462080	50	6666
2026-01-11 21:28:19.69	337.54	7.81	-39.2	-40.5	20.9	0.00e+00	0	30	0	1139802112	50	6770
2026-01-11 21:28:23.73	337.11	7.57	-39.4	-40.7	20.7	0.00e+00	0	30	0	1147142144	50	6928
2026-01-11 21:28:27.76	336.69	7.32	-39.5	-40.8	20.5	0.00e+00	0	30	0	1154482176	50	7066
2026-01-11 21:28:31.80	336.27	7.08	-39.4	-40.6	20.7	0.00e+00	0	30	0	1162870784	52	6156
2026-01-11 21:28:35.84	335.86	6.84	-39.5	-40.8	20.6	0.00e+00	0	30	0	1170210816	52	6256
2026-01-11 21:28:39.87	335.46	6.60	-39.6	-40.9	20.2	0.00e+00	0	30	0	1177550848	52	6385
2026-01-11 21:28:43.91	335.06	6.36	-40.0	-41.4	19.5	0.00e+00	0	30	0	1184890880	52	6758
2026-01-11 21:28:47.94	334.67	6.13	-40.4	-42.0	18.8	0.00e+00	0	30	0	1192230912	52	7215
2026-01-11 21:28:51.97	334.29	5.89	-41.0	-42.9	17.6	0.00e+00	0	30	0	1200619520	54	7159
2026-01-11 21:28:56.01	333.91	5.65	-41.6	-43.8	16.4	0.00e+00	0	30	0	1207959552	54	7946
2026-01-11 21:29:00.05	333.54	5.42	-42.1	-44.9	15.0	0.00e+00	0	30	0	1215299584	56	7975
2026-01-11 21:29:04.08	333.18	5.18	-42.3	-45.3	14.4	0.00e+00	0	30	0	1222639616	56	8387
2026-01-11 21:29:08.12	332.82	4.95	-42.3	-45.4	14.2	7.00e-07	0	30	0	1229979648	56	8433
2026-01-11 21:29:12.16	332.47	4.72	-42.4	-45.1	15.1	0.00e+00	0	30	0	1238368256	56	8185
2026-01-11 21:29:16.19	332.12	4.49	-42.0	-44.4	16.0	0.00e+00	0	30	0	1245708288	56	7522
2026-01-11 21:29:20.23	331.78	4.26	-42.3	-44.7	16.0	0.00e+00	0	30	0	1253048320	56	7848
2026-01-11 21:29:24.27	331.44	4.03	-42.0	-44.2	16.3	0.00e+00	0	30	0	1260388352	56	7394
2026-01-11 21:29:28.31	331.11	3.80	-41.6	-43.7	16.9	0.00e+00	0	30	0	1268776960	56	6972
2026-01-11 21:29:32.34	330.79	3.57	-42.2	-44.6	15.9	0.00e+00	0	30	0	1276116992	56	7745
2026-01-11 21:29:36.38	330.47	3.35	-42.0	-44.4	15.9	0.00e+00	0	30	0	1283457024	56	7578
2026-01-11 21:29:40.42	330.15	3.12	-42.6	-45.7	14.1	7.00e-07	0	30	0	1290797056	56	8786
2026-01-11 21:29:44.46	329.85	2.90	-47.8	-63.0	3.6	1.51e+00	0	30	104	1294991360	60	50976
2026-01-11 21:29:48.50	329.54	2.67	-48.4	-63.6	3.6	1.51e+00	0	30	104	1294991360	60	54550
2026-01-11 21:29:52.53	329.24	2.45	-47.8	-63.5	3.6	1.51e+00	0	30	104	1294991360	60	54077
2026-01-11 21:29:56.57	328.95	2.23	-48.0	-63.4	3.6	1.51e+00	0	30	104	1294991360	60	53502
2026-01-11 21:30:00.61	328.66	2.01	-48.3	-63.4	3.6	1.51e+00	0	30	104	1294991360	60	53770
2026-01-11 21:30:04.65	328.37	1.79	-48.2	-63.4	3.6	1.51e+00	0	30	104	1294991360	60	53352
2026-01-11 21:30:08.70	328.09	1.57	-48.2	-63.4	3.6	1.51e+00	0	30	104	1294991360	60	53652
2026-01-11 21:30:12.73	327.81	1.36	-48.3	-63.4	3.6	1.51e+00	0	30	104	1294991360	60	53700
2026-01-11 21:30:16.78	327.54	1.14	-48.2	-63.4	3.6	1.51e+00	0	30	104	1294991360	60	53390
2026-01-11 21:30:20.82	327.27	0.92	-48.2	-63.3	3.6	1.51e+00	0	30	104	1294991360	60	53103
2026-01-11 21:30:24.85	327.00	0.71	-48.2	-63.3	3.6	1.51e+00	0	29	104	1294991360	60	53118
2026-01-11 21:30:28.89	326.74	0.50	-48.2	-63.3	3.6	1.51e+00	0	30	104	1294991360	60	53149
2026-01-11 21:30:32.92	326.49	0.29	-48.2	-63.5	3.6	1.51e+00	0	29	104	1294991360	60	53803
2026-01-11 21:30:36.96	326.23	0.07	-48.2	-63.4	3.6	1.51e+00	0	30	104	1294991360	60	53544

#Closed at: 2026-01-11 21:30:39
#Recorded file [1294 MB]: D:/lorett/data/35029_260112_091713.dat