passes_logs/2026/01/11/R4.6S_Anadyr/R4.6S_Anadyr__20260111_201915_FENGYUN_3D_rec.log

#Pass ID: 20260111_201915_FENGYUN 3D
#Satellite: FENGYUN 3D
#Configuration: FENGYUN 3D
#almurnet v.1.7.20251203
#Start time: 2026-01-11 20:19:16

#Version: 2.2.20231116
#Station: R4.6S_Anadyr
#Location: 177.4865 lon 64.73178 lat
#TLE: 1 43010U 17072A   26011.62066612  .00000104  00000+0  70810-4 0  9998
#TLE: 2 43010  98.9935 343.3846 0002223 114.2890 245.8518 14.19694405422776

#Time	Az	El	Level	Level2	SNR	BER	BlckErr	Temp	State	Recorded	gain1	gain2
2026-01-11 20:19:16.70	39.48	0.05	-48.1	-63.1	3.5	1.51e+00	0	25	0	0	60	51394
2026-01-11 20:19:20.73	39.20	0.25	-48.3	-60.4	3.6	8.45e-01	0	26	104	0	60	37860
2026-01-11 20:19:24.77	38.92	0.46	-48.1	-60.3	3.6	8.46e-01	0	26	104	0	60	37212
2026-01-11 20:19:28.81	38.64	0.66	-47.8	-60.0	3.6	8.45e-01	0	26	104	0	60	35948
2026-01-11 20:19:32.85	38.35	0.87	-46.5	-58.6	3.6	8.45e-01	0	26	104	0	60	30690
2026-01-11 20:19:36.89	38.05	1.08	-46.4	-58.5	3.5	8.44e-01	0	26	104	0	60	30417
2026-01-11 20:19:40.93	37.76	1.29	-46.4	-58.5	3.6	8.45e-01	0	26	104	0	60	30447
2026-01-11 20:19:44.97	37.45	1.50	-46.4	-58.4	3.6	8.46e-01	0	26	104	0	60	30059
2026-01-11 20:19:49.01	37.15	1.71	-46.4	-58.5	3.6	8.45e-01	0	26	104	0	60	30376
2026-01-11 20:19:53.04	36.84	1.92	-46.3	-58.1	3.6	8.45e-01	0	26	104	0	60	29212
2026-01-11 20:19:57.08	36.52	2.13	-46.3	-57.8	3.6	8.44e-01	0	26	104	0	60	28198
2026-01-11 20:20:01.12	36.20	2.34	-46.3	-58.3	3.6	8.45e-01	0	27	104	0	60	29608
2026-01-11 20:20:05.17	35.87	2.56	-46.3	-57.7	3.6	8.46e-01	0	26	104	0	60	27675
2026-01-11 20:20:09.21	35.54	2.77	-46.3	-58.0	3.6	8.45e-01	0	26	104	0	60	28691
2026-01-11 20:20:13.25	35.21	2.98	-42.9	-45.5	11.9	1.18e-03	0	27	0	9437184	60	6846
2026-01-11 20:20:17.28	34.86	3.20	-46.2	-57.5	3.6	8.83e-01	0	26	104	30408704	60	27176
2026-01-11 20:20:21.32	34.52	3.42	-37.4	-38.5	19.0	0.00e+00	0	26	0	44040192	48	6048
2026-01-11 20:20:25.36	34.17	3.63	-35.7	-36.6	21.1	0.00e+00	0	26	0	67108864	44	6138
2026-01-11 20:20:29.40	33.81	3.85	-35.1	-35.9	21.8	0.00e+00	0	26	0	89128960	44	5672
2026-01-11 20:20:33.44	33.45	4.07	-35.4	-36.2	21.5	0.00e+00	0	27	0	112197632	44	5882
2026-01-11 20:20:37.48	33.08	4.29	-35.3	-36.1	21.7	0.00e+00	0	27	0	134217728	44	5823
2026-01-11 20:20:41.52	32.70	4.51	-35.2	-36.0	21.7	0.00e+00	0	27	0	157286400	44	5726
2026-01-11 20:20:45.56	32.32	4.73	-35.0	-35.8	22.0	0.00e+00	0	27	0	180355072	44	5581
2026-01-11 20:20:49.60	31.94	4.95	-34.9	-35.7	22.1	0.00e+00	0	26	0	202375168	44	5515
2026-01-11 20:20:53.63	31.55	5.17	-34.9	-35.7	22.3	0.00e+00	0	27	0	225443840	42	6196
2026-01-11 20:20:57.67	31.15	5.39	-34.9	-35.7	22.2	0.00e+00	0	27	0	248512512	42	6220
2026-01-11 20:21:01.71	30.74	5.61	-35.2	-36.1	22.1	0.00e+00	0	27	0	271581184	42	6467
2026-01-11 20:21:05.75	30.33	5.83	-35.2	-36.0	21.9	0.00e+00	0	26	0	293601280	42	6463
2026-01-11 20:21:09.79	29.91	6.06	-34.7	-35.5	22.5	0.00e+00	0	26	0	316669952	42	6083
2026-01-11 20:21:13.82	29.49	6.28	-34.5	-35.3	22.8	0.00e+00	0	26	0	338690048	42	5906
2026-01-11 20:21:17.86	29.06	6.50	-34.2	-34.9	23.1	0.00e+00	0	27	0	361758720	42	5691
2026-01-11 20:21:21.90	28.62	6.73	-34.1	-34.8	23.2	0.00e+00	0	27	0	384827392	42	5611
2026-01-11 20:21:25.95	28.17	6.95	-34.0	-34.7	23.4	0.00e+00	0	27	0	406847488	42	5537
2026-01-11 20:21:29.98	27.72	7.18	-34.2	-35.0	23.2	0.00e+00	0	27	0	429916160	42	5706
2026-01-11 20:21:34.02	27.26	7.40	-34.1	-34.9	23.3	0.00e+00	0	27	0	452984832	42	5631
2026-01-11 20:21:38.06	26.80	7.63	-33.8	-34.6	23.5	0.00e+00	0	27	0	475004928	42	5474
2026-01-11 20:21:42.09	26.32	7.85	-33.9	-34.6	23.5	0.00e+00	0	27	0	498073600	42	5481
2026-01-11 20:21:46.13	25.84	8.08	-33.8	-34.6	23.6	0.00e+00	0	27	0	521142272	40	6119
2026-01-11 20:21:50.17	25.35	8.30	-33.8	-34.6	23.6	0.00e+00	0	27	0	543162368	40	6129
2026-01-11 20:21:54.21	24.85	8.53	-33.6	-34.3	23.8	0.00e+00	0	27	0	566231040	40	5915
2026-01-11 20:21:58.25	24.35	8.76	-33.3	-34.0	24.2	0.00e+00	0	27	0	589299712	40	5736
2026-01-11 20:22:02.28	23.84	8.98	-33.1	-33.8	24.4	0.00e+00	0	27	0	611319808	40	5609
2026-01-11 20:22:06.32	23.31	9.21	-33.0	-33.7	24.4	0.00e+00	0	27	0	634388480	40	5559
2026-01-11 20:22:10.36	22.78	9.43	-33.1	-33.8	24.4	0.00e+00	0	27	0	657457152	40	5574
2026-01-11 20:22:14.40	22.24	9.66	-33.3	-34.0	24.2	0.00e+00	0	27	0	679477248	40	5724
2026-01-11 20:22:18.44	21.70	9.88	-33.3	-34.0	24.2	0.00e+00	0	27	0	702545920	40	5753
2026-01-11 20:22:22.48	21.14	10.10	-33.3	-34.0	24.2	0.00e+00	0	27	0	725614592	40	5730
2026-01-11 20:22:26.52	20.58	10.33	-33.2	-33.9	24.4	0.00e+00	0	27	0	747634688	40	5631
2026-01-11 20:22:30.56	20.00	10.55	-33.1	-33.9	24.3	0.00e+00	0	27	0	770703360	40	5658
2026-01-11 20:22:34.60	19.42	10.77	-32.9	-33.6	24.5	0.00e+00	0	26	0	793772032	40	5475
2026-01-11 20:22:38.63	18.83	10.99	-32.9	-33.6	24.6	0.00e+00	0	27	0	815792128	38	6139
2026-01-11 20:22:42.67	18.23	11.21	-32.7	-33.4	24.9	0.00e+00	0	27	0	838860800	38	6029
2026-01-11 20:22:46.70	17.62	11.43	-32.6	-33.3	25.0	0.00e+00	0	27	0	861929472	38	5903
2026-01-11 20:22:50.74	17.00	11.64	-32.9	-33.6	24.6	0.00e+00	0	27	0	883949568	38	6128
2026-01-11 20:22:54.78	16.37	11.86	-32.8	-33.5	24.6	0.00e+00	0	27	0	907018240	38	6076
2026-01-11 20:22:58.82	15.74	12.07	-32.5	-33.3	25.1	0.00e+00	0	27	0	930086912	38	5905
2026-01-11 20:23:02.87	15.09	12.29	-32.6	-33.2	25.0	0.00e+00	0	27	0	952107008	38	5896
2026-01-11 20:23:06.91	14.43	12.50	-32.3	-33.0	25.3	0.00e+00	0	27	0	975175680	38	5705
2026-01-11 20:23:10.95	13.76	12.70	-32.2	-32.8	25.4	0.00e+00	0	27	0	998244352	38	5621
2026-01-11 20:23:14.99	13.09	12.91	-32.0	-32.6	25.6	0.00e+00	0	27	0	1020264448	38	5499
2026-01-11 20:23:19.02	12.40	13.11	-32.0	-32.7	25.5	0.00e+00	0	27	0	1043333120	38	5516
2026-01-11 20:23:23.06	11.71	13.31	-32.2	-32.8	25.5	0.00e+00	0	27	0	1066401792	38	5619
2026-01-11 20:23:27.09	11.00	13.51	-32.3	-32.9	25.4	0.00e+00	0	27	0	1088421888	38	5671
2026-01-11 20:23:31.13	10.29	13.71	-31.7	-32.4	25.8	0.00e+00	0	27	0	1111490560	36	5976
2026-01-11 20:23:35.17	9.57	13.90	-32.1	-32.8	25.5	0.00e+00	0	27	0	1134559232	36	6285
2026-01-11 20:23:39.21	8.83	14.09	-32.0	-32.7	25.6	0.00e+00	0	27	0	1156579328	36	6202
2026-01-11 20:23:43.25	8.09	14.28	-31.9	-32.5	25.7	0.00e+00	0	27	0	1179648000	36	6098
2026-01-11 20:23:47.28	7.34	14.46	-32.0	-32.7	25.7	0.00e+00	0	27	0	1202716672	36	6187
2026-01-11 20:23:51.32	6.57	14.64	-31.9	-32.6	25.7	0.00e+00	0	27	0	1224736768	36	6116
2026-01-11 20:23:55.36	5.80	14.82	-32.0	-32.6	25.7	0.00e+00	0	27	0	1247805440	36	6167
2026-01-11 20:23:59.40	5.02	14.99	-31.7	-32.3	26.0	0.00e+00	0	27	0	1270874112	36	5954
2026-01-11 20:24:03.43	4.23	15.16	-31.3	-32.0	26.2	0.00e+00	0	27	0	1292894208	36	5733
2026-01-11 20:24:07.47	3.44	15.32	-31.5	-32.1	26.1	0.00e+00	0	28	0	1315962880	36	5828
2026-01-11 20:24:11.51	2.63	15.48	-31.2	-31.8	26.5	0.00e+00	0	27	0	1337982976	36	5620
2026-01-11 20:24:15.54	1.81	15.63	-31.2	-31.8	26.4	0.00e+00	0	28	0	1361051648	36	5607
2026-01-11 20:24:19.58	0.99	15.78	-30.9	-31.5	26.7	0.00e+00	0	28	0	1384120320	36	5408
2026-01-11 20:24:23.62	0.16	15.92	-31.0	-31.6	26.6	0.00e+00	0	28	0	1407188992	36	5489
2026-01-11 20:24:27.65	359.32	16.06	-30.6	-31.2	26.9	0.00e+00	0	28	0	1429209088	34	5860
2026-01-11 20:24:31.69	358.47	16.19	-30.7	-31.3	26.8	0.00e+00	0	28	0	1452277760	34	5952
2026-01-11 20:24:35.73	357.61	16.32	-31.0	-31.7	26.5	0.00e+00	0	28	0	1475346432	34	6192
2026-01-11 20:24:39.77	356.75	16.44	-31.2	-31.9	26.3	0.00e+00	0	28	0	1497366528	34	6363
2026-01-11 20:24:43.80	355.88	16.55	-31.1	-31.7	26.5	0.00e+00	0	28	0	1520435200	34	6222
2026-01-11 20:24:47.84	355.01	16.66	-31.1	-31.8	26.5	0.00e+00	0	28	0	1542455296	34	6259
2026-01-11 20:24:51.88	354.12	16.76	-31.3	-32.0	26.3	0.00e+00	0	28	0	1565523968	34	6397
2026-01-11 20:24:55.91	353.24	16.86	-31.3	-31.9	26.3	0.00e+00	0	28	0	1588592640	34	6367
2026-01-11 20:24:59.95	352.34	16.95	-30.9	-31.5	26.7	0.00e+00	0	28	0	1610612736	34	6099
2026-01-11 20:25:03.99	351.44	17.03	-31.1	-31.7	26.5	0.00e+00	0	28	0	1633681408	34	6244
2026-01-11 20:25:08.03	350.54	17.10	-30.9	-31.5	26.7	0.00e+00	0	28	0	1656750080	34	6094
2026-01-11 20:25:12.07	349.63	17.17	-30.9	-31.6	26.5	0.00e+00	0	28	0	1679818752	34	6119
2026-01-11 20:25:16.11	348.72	17.23	-30.5	-31.1	27.0	0.00e+00	0	28	0	1701838848	34	5824
2026-01-11 20:25:20.14	347.80	17.28	-30.7	-31.3	26.9	0.00e+00	0	28	0	1724907520	34	5951
2026-01-11 20:25:24.18	346.88	17.33	-30.7	-31.4	26.9	0.00e+00	0	28	0	1746927616	34	5984
2026-01-11 20:25:28.22	345.96	17.37	-31.0	-31.7	26.6	0.00e+00	0	28	0	1769996288	34	6178
2026-01-11 20:25:32.26	345.04	17.40	-30.6	-31.2	26.9	0.00e+00	0	28	0	1793064960	34	5885
2026-01-11 20:25:36.29	344.12	17.42	-30.6	-31.2	26.9	0.00e+00	0	28	0	1815085056	34	5884
2026-01-11 20:25:40.33	343.19	17.43	-30.4	-31.0	27.1	0.00e+00	0	28	0	1838153728	34	5749
2026-01-11 20:25:44.37	342.26	17.44	-30.4	-31.1	27.1	0.00e+00	0	28	0	1861222400	34	5767
2026-01-11 20:25:48.41	341.33	17.44	-30.7	-31.3	26.8	0.00e+00	0	28	0	1883242496	34	5962
2026-01-11 20:25:52.44	340.41	17.43	-30.8	-31.5	26.7	0.00e+00	0	28	0	1906311168	34	6078
2026-01-11 20:25:56.48	339.48	17.42	-31.1	-31.7	26.4	0.00e+00	0	28	0	1929379840	34	6224
2026-01-11 20:26:00.52	338.56	17.39	-31.1	-31.8	26.4	0.00e+00	0	28	0	1951399936	34	6273
2026-01-11 20:26:04.55	337.64	17.36	-30.7	-31.4	26.7	0.00e+00	0	28	0	1974468608	34	5992
2026-01-11 20:26:08.59	336.71	17.32	-30.9	-31.6	26.6	0.00e+00	0	28	0	1997537280	34	6172
2026-01-11 20:26:12.63	335.80	17.28	-30.6	-31.2	27.0	0.00e+00	0	28	0	2019557376	34	5869
2026-01-11 20:26:16.67	334.88	17.22	-30.7	-31.3	26.8	0.00e+00	0	28	0	2042626048	34	5962
2026-01-11 20:26:20.71	333.97	17.16	-31.1	-31.7	26.5	0.00e+00	0	28	0	2065694720	34	6235
2026-01-11 20:26:24.74	333.06	17.10	-31.1	-31.7	26.6	0.00e+00	0	28	0	2087714816	34	6211
2026-01-11 20:26:28.78	332.16	17.02	-31.0	-31.7	26.6	0.00e+00	0	28	0	2110783488	34	6228
2026-01-11 20:26:32.82	331.26	16.94	-31.2	-31.8	26.4	0.00e+00	0	28	0	2133852160	34	6289
2026-01-11 20:26:36.86	330.36	16.85	-31.2	-31.8	26.5	0.00e+00	0	28	0	2155872256	34	6296
2026-01-11 20:26:40.90	329.47	16.75	-31.1	-31.7	26.5	0.00e+00	0	29	0	2178940928	34	6221
2026-01-11 20:26:44.93	328.59	16.65	-31.2	-31.8	26.5	0.00e+00	0	28	0	2202009600	34	6272
2026-01-11 20:26:48.97	327.72	16.54	-31.3	-32.0	26.4	0.00e+00	0	28	0	2224029696	34	6441
2026-01-11 20:26:53.01	326.85	16.43	-31.2	-31.7	26.5	0.00e+00	0	29	0	2247098368	34	6231
2026-01-11 20:26:57.04	325.98	16.30	-31.2	-31.8	26.4	0.00e+00	0	29	0	2270167040	34	6276
2026-01-11 20:27:01.08	325.13	16.18	-31.3	-32.0	26.3	0.00e+00	0	29	0	2292187136	34	6428
2026-01-11 20:27:05.11	324.28	16.04	-31.4	-32.0	26.3	0.00e+00	0	29	0	2315255808	34	6440
2026-01-11 20:27:09.15	323.44	15.91	-31.4	-32.1	26.3	0.00e+00	0	29	0	2337275904	34	6473
2026-01-11 20:27:13.19	322.61	15.76	-31.1	-31.8	26.6	0.00e+00	0	29	0	2360344576	34	6260
2026-01-11 20:27:17.23	321.78	15.61	-31.4	-32.1	26.3	0.00e+00	0	29	0	2383413248	34	6480
2026-01-11 20:27:21.26	320.97	15.46	-31.5	-32.1	26.2	0.00e+00	0	29	0	2406481920	34	6509
2026-01-11 20:27:25.30	320.16	15.30	-31.6	-32.3	26.1	0.00e+00	0	29	0	2428502016	34	6651
2026-01-11 20:27:29.33	319.36	15.14	-31.8	-32.5	26.1	0.00e+00	0	29	0	2451570688	36	6047
2026-01-11 20:27:33.37	318.57	14.97	-31.8	-32.5	25.9	0.00e+00	0	29	0	2474639360	36	6044
2026-01-11 20:27:37.41	317.79	14.80	-31.8	-32.4	26.0	0.00e+00	0	29	0	2496659456	36	5984
2026-01-11 20:27:41.45	317.02	14.62	-31.8	-32.4	25.9	0.00e+00	0	29	0	2519728128	36	5991
2026-01-11 20:27:45.48	316.26	14.44	-31.7	-32.3	26.1	0.00e+00	0	29	0	2541748224	36	5906
2026-01-11 20:27:49.52	315.51	14.26	-32.0	-32.7	25.8	0.00e+00	0	29	0	2564816896	36	6192
2026-01-11 20:27:53.56	314.76	14.07	-32.0	-32.7	25.7	0.00e+00	0	29	0	2587885568	36	6188
2026-01-11 20:27:57.60	314.03	13.88	-32.1	-32.7	25.6	0.00e+00	0	29	0	2609905664	36	6214
2026-01-11 20:28:01.64	313.30	13.69	-32.1	-32.8	25.7	0.00e+00	0	29	0	2632974336	36	6250
2026-01-11 20:28:05.68	312.59	13.49	-32.1	-32.8	25.6	0.00e+00	0	29	0	2656043008	36	6258
2026-01-11 20:28:09.71	311.88	13.29	-32.2	-32.8	25.6	0.00e+00	0	29	0	2679111680	36	6288
2026-01-11 20:28:13.75	311.19	13.09	-32.9	-33.6	24.9	0.00e+00	0	29	0	2701131776	38	6171
2026-01-11 20:28:17.79	310.50	12.88	-32.4	-33.0	25.4	0.00e+00	0	29	0	2724200448	38	5703
2026-01-11 20:28:21.83	309.82	12.68	-32.5	-33.2	25.3	0.00e+00	0	29	0	2746220544	38	5832
2026-01-11 20:28:25.87	309.16	12.47	-32.0	-32.8	25.6	0.00e+00	0	29	0	2769289216	38	5573
2026-01-11 20:28:29.91	308.50	12.26	-32.2	-32.8	25.5	0.00e+00	0	29	0	2792357888	38	5588
2026-01-11 20:28:33.95	307.85	12.04	-32.3	-32.9	25.2	0.00e+00	0	29	0	2814377984	38	5686
2026-01-11 20:28:37.98	307.22	11.83	-32.2	-32.8	25.4	0.00e+00	0	29	0	2837446656	38	5615
2026-01-11 20:28:42.01	306.59	11.62	-32.7	-33.4	24.8	0.00e+00	0	29	0	2860515328	38	6019
2026-01-11 20:28:46.05	305.97	11.40	-32.9	-33.6	24.7	0.00e+00	0	29	0	2882535424	38	6146
2026-01-11 20:28:50.09	305.36	11.18	-33.2	-33.8	24.5	0.00e+00	0	29	0	2905604096	38	6274
2026-01-11 20:28:54.12	304.76	10.96	-33.0	-33.8	24.7	0.00e+00	0	29	0	2928672768	38	6266
2026-01-11 20:28:58.16	304.17	10.74	-33.2	-34.0	24.5	0.00e+00	0	29	0	2950692864	38	6406
2026-01-11 20:29:02.19	303.58	10.52	-33.2	-33.8	24.6	0.00e+00	0	29	0	2973761536	38	6261
2026-01-11 20:29:06.23	303.01	10.30	-33.2	-33.9	24.5	0.00e+00	0	29	0	2996830208	38	6324
2026-01-11 20:29:10.27	302.44	10.07	-33.5	-34.1	24.2	0.00e+00	0	29	0	3018850304	40	5807
2026-01-11 20:29:14.31	301.89	9.85	-33.4	-34.1	24.3	0.00e+00	0	29	0	3041918976	40	5815
2026-01-11 20:29:18.35	301.34	9.62	-33.7	-34.3	24.0	0.00e+00	0	29	0	3063939072	40	5945
2026-01-11 20:29:22.39	300.80	9.40	-33.5	-34.3	24.1	0.00e+00	0	30	0	3087007744	40	5921
2026-01-11 20:29:26.43	300.27	9.17	-33.5	-34.1	24.2	0.00e+00	0	29	0	3110076416	40	5811
2026-01-11 20:29:30.47	299.75	8.95	-33.7	-34.5	23.9	0.00e+00	0	29	0	3133145088	40	6043
2026-01-11 20:29:34.51	299.23	8.72	-33.6	-34.4	23.9	0.00e+00	0	30	0	3155165184	40	5990
2026-01-11 20:29:38.55	298.73	8.50	-33.7	-34.5	23.9	0.00e+00	0	30	0	3178233856	40	6087
2026-01-11 20:29:42.59	298.23	8.27	-33.7	-34.4	23.8	0.00e+00	0	30	0	3201302528	40	6018
2026-01-11 20:29:46.63	297.74	8.04	-33.9	-34.6	23.7	0.00e+00	0	29	0	3223322624	40	6143
2026-01-11 20:29:50.67	297.25	7.82	-34.2	-35.0	23.3	0.00e+00	0	30	0	3246391296	40	6448
2026-01-11 20:29:54.71	296.78	7.59	-34.2	-35.0	23.3	0.00e+00	0	29	0	3268411392	40	6454
2026-01-11 20:29:58.74	296.31	7.37	-34.3	-35.1	23.2	0.00e+00	0	30	0	3291480064	40	6529
2026-01-11 20:30:02.78	295.85	7.14	-34.3	-35.0	23.1	0.00e+00	0	30	0	3314548736	40	6423
2026-01-11 20:30:06.82	295.40	6.92	-34.2	-35.0	23.4	0.00e+00	0	30	0	3337617408	40	6400
2026-01-11 20:30:10.86	294.95	6.69	-34.6	-35.3	22.9	0.00e+00	0	30	0	3359637504	40	6682
2026-01-11 20:30:14.90	294.51	6.47	-34.4	-35.3	23.1	0.00e+00	0	30	0	3382706176	40	6623
2026-01-11 20:30:18.93	294.08	6.24	-34.7	-35.5	22.8	0.00e+00	0	30	0	3405774848	42	6074
2026-01-11 20:30:22.97	293.66	6.02	-34.8	-35.6	22.5	0.00e+00	0	30	0	3427794944	42	6134
2026-01-11 20:30:27.01	293.24	5.80	-35.0	-35.8	22.3	0.00e+00	0	30	0	3450863616	42	6296
2026-01-11 20:30:31.05	292.83	5.57	-34.7	-35.6	22.5	0.00e+00	0	30	0	3472883712	42	6104
2026-01-11 20:30:35.09	292.42	5.35	-35.0	-35.9	22.3	0.00e+00	0	30	0	3495952384	42	6335
2026-01-11 20:30:39.12	292.02	5.13	-35.0	-35.7	22.3	0.00e+00	0	30	0	3519021056	42	6236
2026-01-11 20:30:43.16	291.63	4.91	-35.2	-36.1	22.1	0.00e+00	0	30	0	3542089728	42	6472
2026-01-11 20:30:47.20	291.24	4.69	-35.0	-35.9	22.2	0.00e+00	0	30	0	3564109824	42	6335
2026-01-11 20:30:51.23	290.86	4.47	-35.3	-36.1	21.8	0.00e+00	0	30	0	3587178496	42	6465
2026-01-11 20:30:55.27	290.49	4.25	-35.3	-36.2	21.7	0.00e+00	0	30	0	3610247168	42	6596
2026-01-11 20:30:59.31	290.12	4.03	-35.3	-36.1	21.7	0.00e+00	0	30	0	3632267264	42	6520
2026-01-11 20:31:03.35	289.75	3.81	-35.3	-36.2	21.6	0.00e+00	0	30	0	3655335936	44	5868
2026-01-11 20:31:07.38	289.40	3.59	-35.4	-36.3	21.6	0.00e+00	0	30	0	3677356032	44	5911
2026-01-11 20:31:11.41	289.04	3.38	-35.4	-36.2	21.6	0.00e+00	0	30	0	3700424704	44	5845
2026-01-11 20:31:15.45	288.70	3.16	-35.3	-36.2	21.5	0.00e+00	0	30	0	3723493376	44	5855
2026-01-11 20:31:19.49	288.35	2.95	-47.5	-59.5	3.6	8.45e-01	0	30	104	3741319168	60	34092
2026-01-11 20:31:23.53	288.02	2.73	-48.3	-60.4	3.6	8.45e-01	0	30	104	3741319168	60	37925
2026-01-11 20:31:27.57	287.69	2.52	-48.2	-60.4	3.6	8.45e-01	0	30	104	3741319168	60	37753
2026-01-11 20:31:31.60	287.36	2.30	-48.1	-60.3	3.6	8.45e-01	0	30	104	3741319168	60	37423
2026-01-11 20:31:35.64	287.04	2.09	-48.3	-60.4	3.6	8.44e-01	0	30	104	3741319168	60	38008
2026-01-11 20:31:39.68	286.72	1.88	-48.1	-60.2	3.6	8.45e-01	0	30	104	3741319168	60	37195
2026-01-11 20:31:43.72	286.41	1.67	-48.2	-60.3	3.6	8.45e-01	0	30	104	3741319168	60	37364
2026-01-11 20:31:47.76	286.10	1.46	-48.3	-60.4	3.6	8.44e-01	0	30	104	3741319168	60	37733
2026-01-11 20:31:51.80	285.79	1.25	-48.3	-60.5	3.6	8.45e-01	0	30	104	3741319168	60	38185
2026-01-11 20:31:55.83	285.50	1.04	-48.2	-60.3	3.6	8.46e-01	0	30	104	3741319168	60	37483
2026-01-11 20:31:59.87	285.20	0.83	-48.3	-60.4	3.6	8.46e-01	0	30	104	3741319168	60	37913
2026-01-11 20:32:03.91	284.91	0.63	-48.1	-60.3	3.6	8.46e-01	0	30	104	3741319168	60	37265
2026-01-11 20:32:07.95	284.62	0.42	-48.1	-60.3	3.6	8.44e-01	0	30	104	3741319168	60	37209
2026-01-11 20:32:11.99	284.34	0.21	-48.1	-60.2	3.6	8.45e-01	0	30	104	3741319168	60	37019
2026-01-11 20:32:16.03	284.06	0.01	-48.1	-60.2	3.6	8.45e-01	0	30	104	3741319168	60	37133

#Closed at: 2026-01-11 20:32:17
#Recorded file [3741 MB]: D:/lorett/data/35029_260112_081916.dat