passes_logs/2026/01/11/R4.6S_Anadyr/R4.6S_Anadyr__20260111_220607_NOAA_21_JPSS-2_rec.log

#Pass ID: 20260111_220607_NOAA 21 (JPSS-2)
#Satellite: NOAA 21 (JPSS-2)
#Configuration: NOAA-21
#almurnet v.1.7.20251203
#Start time: 2026-01-11 22:06:09

#Version: 2.2.20231116
#Station: R4.6S_Anadyr
#Location: 177.4865 lon 64.73178 lat
#TLE: 1 54234U 22150A   26011.55893233  .00000075  00000+0  56634-4 0  9995
#TLE: 2 54234  98.7494 312.5004 0000755 313.1908  46.9205 14.19534095164321

#Time	Az	El	Level	Level2	SNR	BER	BlckErr	Temp	State	Recorded	gain1	gain2
2026-01-11 22:06:09.56	105.36	0.12	-48.2	-63.1	3.6	1.51e+00	0	25	0	0	60	51565
2026-01-11 22:06:13.59	105.16	0.34	-48.4	-61.3	3.5	1.51e+00	0	26	104	0	60	40560
2026-01-11 22:06:17.63	104.95	0.57	-48.3	-61.2	3.5	1.52e+00	0	27	104	0	60	40376
2026-01-11 22:06:21.67	104.75	0.79	-48.1	-61.0	3.5	1.52e+00	0	27	104	0	60	39470
2026-01-11 22:06:25.71	104.54	1.02	-44.9	-60.1	3.5	1.52e+00	0	27	104	0	60	35645
2026-01-11 22:06:29.75	104.32	1.26	-46.5	-59.1	3.5	1.52e+00	0	27	104	0	60	31779
2026-01-11 22:06:33.78	104.10	1.49	-46.5	-59.2	3.5	1.52e+00	0	27	104	0	60	32120
2026-01-11 22:06:37.82	103.88	1.72	-46.5	-59.2	3.5	1.52e+00	0	27	104	0	60	32088
2026-01-11 22:06:41.86	103.66	1.96	-46.4	-59.2	3.5	1.52e+00	0	27	104	0	60	32031
2026-01-11 22:06:45.89	103.43	2.19	-46.4	-59.0	3.5	1.52e+00	0	27	104	0	60	31294
2026-01-11 22:06:49.93	103.20	2.43	-46.5	-59.2	3.5	1.52e+00	0	27	104	0	60	32098
2026-01-11 22:06:53.97	102.96	2.67	-46.5	-59.3	3.5	1.51e+00	0	27	104	0	60	32220
2026-01-11 22:06:58.01	102.72	2.91	-46.4	-58.5	3.5	1.52e+00	0	27	104	0	60	29468
2026-01-11 22:07:02.04	102.48	3.15	-45.9	-54.8	4.8	1.50e+00	122	27	104	0	60	19290
2026-01-11 22:07:06.09	102.23	3.40	-41.8	-44.2	14.3	4.50e-06	120	27	0	10485760	58	6375
2026-01-11 22:07:10.12	101.97	3.64	-43.1	-47.0	11.7	1.98e-05	120	27	0	18874368	58	8827
2026-01-11 22:07:14.16	101.72	3.89	-38.5	-40.0	18.4	0.00e+00	120	27	0	25165824	50	6272
2026-01-11 22:07:18.20	101.45	4.14	-37.5	-38.9	19.8	0.00e+00	120	27	0	37748736	48	6154
2026-01-11 22:07:22.24	101.19	4.39	-36.8	-38.1	20.5	0.00e+00	123	27	0	50331648	46	6324
2026-01-11 22:07:26.28	100.91	4.65	-37.1	-38.5	20.2	0.00e+00	123	27	0	62914560	46	6613
2026-01-11 22:07:30.31	100.64	4.90	-36.7	-37.8	20.9	0.00e+00	123	27	0	75497472	46	6099
2026-01-11 22:07:34.35	100.35	5.16	-36.7	-37.8	20.6	0.00e+00	122	27	0	88080384	46	6113
2026-01-11 22:07:38.39	100.07	5.42	-37.1	-38.3	20.3	0.00e+00	123	27	0	100663296	46	6474
2026-01-11 22:07:42.42	99.77	5.68	-36.8	-38.2	20.5	0.00e+00	120	27	0	113246208	46	6356
2026-01-11 22:07:46.46	99.48	5.94	-36.7	-38.0	20.8	0.00e+00	122	27	0	125829120	46	6242
2026-01-11 22:07:50.50	99.17	6.20	-36.2	-37.6	21.2	0.00e+00	122	27	0	138412032	46	5954
2026-01-11 22:07:54.53	98.86	6.47	-35.8	-37.2	21.6	0.00e+00	123	27	0	150994944	44	6399
2026-01-11 22:07:58.57	98.55	6.74	-36.0	-37.4	21.5	0.00e+00	122	27	0	163577856	44	6554
2026-01-11 22:08:02.61	98.23	7.01	-35.9	-37.1	21.7	0.00e+00	123	27	0	176160768	44	6336
2026-01-11 22:08:06.64	97.90	7.28	-36.1	-37.1	21.7	0.00e+00	123	27	0	189792256	44	6342
2026-01-11 22:08:10.68	97.56	7.55	-36.1	-37.2	21.6	0.00e+00	123	27	0	202375168	44	6392
2026-01-11 22:08:14.71	97.22	7.83	-35.8	-36.9	22.1	0.00e+00	123	27	0	214958080	44	6150
2026-01-11 22:08:18.75	96.88	8.11	-36.0	-37.0	21.9	0.00e+00	123	27	0	227540992	44	6271
2026-01-11 22:08:22.78	96.52	8.38	-35.5	-36.6	22.3	0.00e+00	123	27	0	240123904	44	5944
2026-01-11 22:08:26.82	96.16	8.67	-35.8	-36.8	22.2	0.00e+00	123	27	0	252706816	44	6088
2026-01-11 22:08:30.86	95.79	8.95	-35.7	-36.7	22.3	0.00e+00	123	27	0	265289728	44	6031
2026-01-11 22:08:34.90	95.42	9.24	-35.0	-36.0	22.8	0.00e+00	122	27	0	277872640	44	5562
2026-01-11 22:08:38.94	95.03	9.53	-34.9	-35.9	23.0	0.00e+00	120	27	0	290455552	44	5510
2026-01-11 22:08:42.98	94.64	9.82	-34.9	-35.8	23.0	0.00e+00	123	27	0	303038464	44	5456
2026-01-11 22:08:47.01	94.24	10.11	-34.9	-36.0	22.9	0.00e+00	123	28	0	315621376	42	6206
2026-01-11 22:08:51.06	93.83	10.40	-34.5	-35.5	23.3	0.00e+00	123	27	0	328204288	42	5866
2026-01-11 22:08:55.10	93.41	10.70	-34.5	-35.5	23.4	0.00e+00	122	27	0	340787200	42	5866
2026-01-11 22:08:59.14	92.99	11.00	-34.4	-35.4	23.5	0.00e+00	122	27	0	353370112	42	5794
2026-01-11 22:09:03.18	92.55	11.30	-34.3	-35.2	23.6	0.00e+00	122	27	0	365953024	42	5713
2026-01-11 22:09:07.22	92.11	11.60	-34.0	-35.0	23.8	0.00e+00	123	27	0	378535936	42	5568
2026-01-11 22:09:11.26	91.65	11.91	-33.8	-34.8	24.0	0.00e+00	123	27	0	391118848	42	5410
2026-01-11 22:09:15.30	91.19	12.21	-33.9	-34.8	24.0	0.00e+00	122	28	0	403701760	42	5447
2026-01-11 22:09:19.34	90.72	12.52	-34.1	-35.0	23.9	0.00e+00	123	27	0	416284672	42	5564
2026-01-11 22:09:23.38	90.23	12.83	-34.0	-34.9	23.9	0.00e+00	123	27	0	428867584	42	5473
2026-01-11 22:09:27.42	89.74	13.14	-33.9	-34.9	24.0	0.00e+00	123	27	0	441450496	42	5501
2026-01-11 22:09:31.46	89.23	13.46	-34.1	-35.1	23.8	0.00e+00	122	27	0	454033408	42	5623
2026-01-11 22:09:35.49	88.72	13.77	-33.9	-34.8	24.0	0.00e+00	123	28	0	466616320	42	5450
2026-01-11 22:09:39.53	88.19	14.09	-33.9	-34.8	24.0	0.00e+00	122	28	0	479199232	42	5467
2026-01-11 22:09:43.57	87.65	14.41	-33.9	-34.9	23.9	0.00e+00	123	27	0	491782144	42	5484
2026-01-11 22:09:47.61	87.10	14.73	-34.3	-35.3	23.7	0.00e+00	122	28	0	504365056	42	5735
2026-01-11 22:09:51.65	86.54	15.05	-34.1	-35.0	24.0	0.00e+00	120	27	0	516947968	42	5585
2026-01-11 22:09:55.68	85.96	15.38	-33.9	-34.9	23.9	0.00e+00	121	28	0	530579456	42	5515
2026-01-11 22:09:59.72	85.37	15.70	-34.1	-35.2	23.8	0.00e+00	123	27	0	542113792	42	5689
2026-01-11 22:10:03.76	84.77	16.03	-34.3	-35.3	23.8	0.00e+00	123	28	0	555745280	42	5744
2026-01-11 22:10:07.80	84.16	16.36	-34.3	-35.4	23.7	0.00e+00	120	28	0	568328192	42	5792
2026-01-11 22:10:11.84	83.53	16.69	-34.5	-35.5	23.5	0.00e+00	122	27	0	580911104	42	5863
2026-01-11 22:10:15.87	82.89	17.01	-34.5	-35.4	23.6	0.00e+00	123	28	0	593494016	42	5850
2026-01-11 22:10:19.91	82.23	17.34	-34.4	-35.4	23.7	0.00e+00	122	27	0	606076928	42	5839
2026-01-11 22:10:23.95	81.56	17.67	-34.3	-35.3	23.8	0.00e+00	122	27	0	618659840	42	5726
2026-01-11 22:10:27.98	80.87	18.00	-33.9	-34.9	24.1	0.00e+00	123	27	0	631242752	42	5472
2026-01-11 22:10:32.02	80.17	18.33	-34.1	-35.0	24.0	0.00e+00	123	28	0	643825664	42	5553
2026-01-11 22:10:36.06	79.45	18.66	-33.8	-34.7	24.2	0.00e+00	123	28	0	656408576	42	5394
2026-01-11 22:10:40.10	78.72	18.99	-33.7	-34.6	24.3	0.00e+00	120	27	0	668991488	40	5968
2026-01-11 22:10:44.13	77.97	19.32	-33.5	-34.4	24.3	0.00e+00	123	27	0	681574400	40	5851
2026-01-11 22:10:48.17	77.20	19.65	-33.3	-34.2	24.6	0.00e+00	123	27	0	694157312	40	5688
2026-01-11 22:10:52.21	76.42	19.98	-33.3	-34.2	24.5	0.00e+00	123	27	0	706740224	40	5694
2026-01-11 22:10:56.25	75.62	20.30	-33.5	-34.4	24.4	0.00e+00	123	27	0	719323136	40	5845
2026-01-11 22:11:00.28	74.80	20.63	-33.4	-34.3	24.6	0.00e+00	122	27	0	731906048	40	5760
2026-01-11 22:11:04.32	73.97	20.95	-33.4	-34.3	24.5	0.00e+00	123	27	0	744488960	40	5766
2026-01-11 22:11:08.35	73.11	21.27	-33.1	-34.0	24.9	0.00e+00	123	27	0	757071872	40	5560
2026-01-11 22:11:12.39	72.24	21.58	-32.9	-33.8	24.9	0.00e+00	123	27	0	769654784	40	5452
2026-01-11 22:11:16.43	71.36	21.90	-32.9	-33.8	24.9	0.00e+00	122	27	0	782237696	40	5421
2026-01-11 22:11:20.46	70.45	22.20	-33.1	-34.0	24.8	0.00e+00	122	27	0	794820608	40	5563
2026-01-11 22:11:24.50	69.53	22.51	-33.1	-34.0	24.8	0.00e+00	123	27	0	807403520	40	5579
2026-01-11 22:11:28.54	68.58	22.81	-33.2	-34.1	24.7	0.00e+00	123	27	0	819986432	40	5630
2026-01-11 22:11:32.58	67.62	23.10	-33.3	-34.2	24.7	0.00e+00	122	27	0	832569344	40	5677
2026-01-11 22:11:36.61	66.64	23.39	-33.4	-34.3	24.7	0.00e+00	122	27	0	845152256	40	5741
2026-01-11 22:11:40.65	65.64	23.68	-33.6	-34.5	24.4	0.00e+00	123	27	0	857735168	40	5892
2026-01-11 22:11:44.69	64.63	23.95	-33.7	-34.6	24.4	0.00e+00	122	27	0	870318080	40	5961
2026-01-11 22:11:48.72	63.60	24.22	-33.6	-34.5	24.6	0.00e+00	123	27	0	882900992	40	5864
2026-01-11 22:11:52.76	62.55	24.49	-33.4	-34.2	24.6	0.00e+00	120	27	0	895483904	40	5718
2026-01-11 22:11:56.79	61.48	24.74	-33.3	-34.2	24.6	0.00e+00	122	27	0	908066816	40	5694
2026-01-11 22:12:00.81	60.40	24.98	-33.6	-34.5	24.5	0.00e+00	123	27	0	920649728	40	5878
2026-01-11 22:12:04.85	59.29	25.22	-33.7	-34.6	24.4	0.00e+00	123	27	0	933232640	40	5986
2026-01-11 22:12:08.89	58.17	25.44	-33.4	-34.3	24.7	0.00e+00	123	28	0	946864128	40	5753
2026-01-11 22:12:12.92	57.04	25.66	-33.2	-34.0	24.9	0.00e+00	122	27	0	958398464	40	5593
2026-01-11 22:12:16.96	55.89	25.87	-32.8	-33.7	25.1	0.00e+00	120	27	0	972029952	38	6009
2026-01-11 22:12:21.00	54.73	26.06	-33.1	-34.0	25.0	0.00e+00	120	27	0	984612864	38	6245
2026-01-11 22:12:25.04	53.55	26.24	-33.1	-33.9	25.0	0.00e+00	122	27	0	997195776	38	6204
2026-01-11 22:12:29.08	52.36	26.41	-32.8	-33.7	25.1	0.00e+00	122	27	0	1009778688	38	6023
2026-01-11 22:12:33.12	51.15	26.57	-33.0	-33.9	24.9	0.00e+00	123	27	0	1022361600	38	6177
2026-01-11 22:12:37.16	49.94	26.71	-33.1	-33.9	24.9	0.00e+00	123	27	0	1034944512	38	6204
2026-01-11 22:12:41.19	48.71	26.84	-33.2	-34.1	24.8	0.00e+00	123	27	0	1047527424	38	6327
2026-01-11 22:12:45.22	47.48	26.96	-33.3	-34.2	24.6	0.00e+00	122	27	0	1060110336	38	6399
2026-01-11 22:12:49.26	46.24	27.06	-33.1	-33.9	24.9	0.00e+00	123	27	0	1072693248	38	6199
2026-01-11 22:12:53.30	44.98	27.14	-33.4	-34.4	24.6	0.00e+00	123	27	0	1085276160	38	6502
2026-01-11 22:12:57.34	43.73	27.21	-33.5	-34.4	24.6	0.00e+00	122	27	0	1097859072	40	5820
2026-01-11 22:13:01.38	42.46	27.27	-33.4	-34.3	24.7	0.00e+00	123	27	0	1110441984	40	5730
2026-01-11 22:13:05.42	41.20	27.31	-33.3	-34.2	24.7	0.00e+00	123	27	0	1123024896	40	5719
2026-01-11 22:13:09.46	39.93	27.34	-33.0	-33.8	24.9	0.00e+00	120	27	0	1135607808	40	5445
2026-01-11 22:13:13.50	38.66	27.35	-33.2	-34.1	24.7	0.00e+00	123	27	0	1148190720	40	5650
2026-01-11 22:13:17.53	37.39	27.34	-33.2	-34.0	24.8	0.00e+00	122	27	0	1160773632	40	5586
2026-01-11 22:13:21.57	36.12	27.32	-33.1	-34.0	24.9	0.00e+00	123	27	0	1173356544	40	5549
2026-01-11 22:13:25.61	34.86	27.28	-33.4	-34.3	24.7	0.00e+00	123	27	0	1185939456	40	5741
2026-01-11 22:13:29.65	33.59	27.23	-33.4	-34.3	24.7	0.00e+00	123	27	0	1198522368	40	5739
2026-01-11 22:13:33.69	32.33	27.16	-33.7	-34.6	24.5	0.00e+00	123	27	0	1211105280	40	5969
2026-01-11 22:13:37.73	31.08	27.08	-33.5	-34.4	24.7	0.00e+00	123	27	0	1223688192	40	5793
2026-01-11 22:13:41.77	29.84	26.98	-33.4	-34.3	24.7	0.00e+00	123	27	0	1236271104	40	5748
2026-01-11 22:13:45.81	28.60	26.87	-33.3	-34.2	24.7	0.00e+00	123	27	0	1248854016	40	5717
2026-01-11 22:13:49.84	27.38	26.75	-33.6	-34.5	24.6	0.00e+00	121	27	0	1261436928	40	5899
2026-01-11 22:13:53.88	26.16	26.61	-33.1	-34.0	24.9	0.00e+00	123	27	0	1274019840	40	5533
2026-01-11 22:13:57.92	24.95	26.45	-33.3	-34.1	24.8	0.00e+00	120	27	0	1286602752	40	5656
2026-01-11 22:14:01.96	23.76	26.29	-33.2	-34.1	24.8	0.00e+00	123	27	0	1299185664	40	5628
2026-01-11 22:14:05.99	22.58	26.11	-33.3	-34.1	24.8	0.00e+00	120	27	0	1311768576	40	5652
2026-01-11 22:14:10.03	21.41	25.92	-33.3	-34.1	24.8	0.00e+00	120	27	0	1325400064	40	5649
2026-01-11 22:14:14.06	20.26	25.72	-33.4	-34.3	24.6	0.00e+00	121	27	0	1336934400	40	5732
2026-01-11 22:14:18.10	19.13	25.51	-33.2	-34.1	24.8	0.00e+00	122	27	0	1350565888	40	5611
2026-01-11 22:14:22.14	18.01	25.28	-33.0	-33.8	25.0	0.00e+00	123	27	0	1363148800	40	5465
2026-01-11 22:14:26.18	16.90	25.05	-33.0	-33.9	25.0	0.00e+00	122	27	0	1375731712	40	5491
2026-01-11 22:14:30.22	15.81	24.81	-32.9	-33.8	25.1	0.00e+00	120	27	0	1388314624	40	5445
2026-01-11 22:14:34.25	14.74	24.56	-33.5	-34.5	24.5	0.00e+00	123	27	0	1400897536	40	5861
2026-01-11 22:14:38.29	13.69	24.30	-33.2	-34.1	24.8	0.00e+00	123	27	0	1413480448	40	5642
2026-01-11 22:14:42.32	12.66	24.03	-32.6	-33.5	25.3	0.00e+00	122	27	0	1426063360	38	5892
2026-01-11 22:14:46.36	11.64	23.76	-33.0	-33.8	24.9	0.00e+00	122	27	0	1438646272	38	6129
2026-01-11 22:14:50.40	10.64	23.48	-33.2	-34.1	24.9	0.00e+00	122	27	0	1451229184	38	6286
2026-01-11 22:14:54.44	9.66	23.19	-33.2	-34.1	24.8	0.00e+00	123	27	0	1463812096	38	6290
2026-01-11 22:14:58.48	8.69	22.90	-33.0	-33.9	25.0	0.00e+00	122	27	0	1476395008	38	6169
2026-01-11 22:15:02.51	7.75	22.60	-33.7	-34.6	24.3	0.00e+00	120	27	0	1488977920	38	6725
2026-01-11 22:15:06.54	6.82	22.30	-33.8	-34.7	24.4	0.00e+00	123	27	0	1501560832	40	6032
2026-01-11 22:15:10.58	5.92	21.99	-33.4	-34.3	24.7	0.00e+00	123	27	0	1514143744	40	5747
2026-01-11 22:15:14.61	5.03	21.68	-33.3	-34.3	24.7	0.00e+00	123	27	0	1526726656	40	5726
2026-01-11 22:15:18.65	4.15	21.36	-33.0	-33.9	25.0	0.00e+00	120	27	0	1539309568	40	5470
2026-01-11 22:15:22.69	3.30	21.05	-33.4	-34.3	24.5	0.00e+00	120	27	0	1551892480	40	5770
2026-01-11 22:15:26.72	2.46	20.73	-33.5	-34.4	24.5	0.00e+00	123	27	0	1564475392	40	5808
2026-01-11 22:15:30.76	1.64	20.41	-33.3	-34.2	24.7	0.00e+00	123	27	0	1577058304	40	5697
2026-01-11 22:15:34.80	0.84	20.08	-33.6	-34.5	24.4	0.00e+00	120	27	0	1589641216	40	5872
2026-01-11 22:15:38.83	0.06	19.76	-33.5	-34.4	24.5	0.00e+00	123	27	0	1602224128	40	5837
2026-01-11 22:15:42.87	359.29	19.43	-33.4	-34.3	24.6	0.00e+00	122	27	0	1614807040	40	5761
2026-01-11 22:15:46.91	358.54	19.10	-33.3	-34.2	24.5	0.00e+00	123	27	0	1627389952	40	5709
2026-01-11 22:15:50.94	357.81	18.77	-33.4	-34.2	24.5	0.00e+00	123	27	0	1639972864	40	5725
2026-01-11 22:15:54.97	357.09	18.44	-33.4	-34.3	24.5	0.00e+00	123	27	0	1652555776	40	5789
2026-01-11 22:15:59.01	356.38	18.12	-33.5	-34.4	24.4	0.00e+00	122	27	0	1665138688	40	5819
2026-01-11 22:16:03.05	355.70	17.79	-33.7	-34.6	24.4	0.00e+00	123	27	0	1677721600	40	5931
2026-01-11 22:16:07.08	355.02	17.46	-33.9	-34.8	24.2	0.00e+00	123	27	0	1690304512	40	6112
2026-01-11 22:16:11.12	354.36	17.13	-33.5	-34.4	24.5	0.00e+00	120	27	0	1702887424	40	5853
2026-01-11 22:16:15.16	353.72	16.80	-33.6	-34.5	24.4	0.00e+00	123	27	0	1715470336	40	5890
2026-01-11 22:16:19.20	353.09	16.47	-34.0	-34.9	24.1	0.00e+00	123	27	0	1728053248	40	6183
2026-01-11 22:16:23.24	352.47	16.15	-34.0	-34.9	24.0	0.00e+00	123	27	0	1741684736	40	6199
2026-01-11 22:16:27.27	351.87	15.82	-33.5	-34.3	24.4	0.00e+00	123	27	0	1753219072	40	5788
2026-01-11 22:16:31.31	351.28	15.50	-34.0	-34.9	24.1	0.00e+00	120	27	0	1766850560	40	6187
2026-01-11 22:16:35.34	350.71	15.17	-34.5	-35.4	23.6	0.00e+00	123	27	0	1779433472	40	6532
2026-01-11 22:16:39.38	350.14	14.85	-34.3	-35.2	23.7	0.00e+00	120	27	0	1792016384	40	6402
2026-01-11 22:16:43.42	349.59	14.53	-33.9	-34.8	24.1	0.00e+00	123	27	0	1804599296	40	6079
2026-01-11 22:16:47.45	349.05	14.21	-34.0	-34.9	24.1	0.00e+00	122	27	0	1817182208	40	6142
2026-01-11 22:16:51.48	348.53	13.90	-34.4	-35.4	23.6	0.00e+00	120	27	0	1829765120	40	6525
2026-01-11 22:16:55.52	348.01	13.58	-34.2	-35.2	23.7	0.00e+00	120	28	0	1842348032	40	6388
2026-01-11 22:16:59.56	347.51	13.27	-33.8	-34.7	24.0	0.00e+00	122	28	0	1854930944	40	6039
2026-01-11 22:17:03.59	347.01	12.96	-33.7	-34.6	24.2	0.00e+00	123	28	0	1867513856	40	5968
2026-01-11 22:17:07.63	346.53	12.65	-34.4	-35.3	23.7	0.00e+00	123	27	0	1880096768	40	6487
2026-01-11 22:17:11.67	346.06	12.34	-34.9	-35.9	23.1	0.00e+00	122	28	0	1892679680	42	6199
2026-01-11 22:17:15.71	345.59	12.03	-34.8	-35.8	23.2	0.00e+00	122	28	0	1905262592	42	6102
2026-01-11 22:17:19.75	345.14	11.73	-34.2	-35.1	23.7	0.00e+00	123	28	0	1917845504	42	5644
2026-01-11 22:17:23.79	344.69	11.43	-34.2	-35.1	23.8	0.00e+00	122	28	0	1930428416	42	5651
2026-01-11 22:17:27.82	344.26	11.13	-34.9	-35.9	23.1	0.00e+00	120	28	0	1943011328	42	6159
2026-01-11 22:17:31.86	343.84	10.83	-35.5	-36.5	22.6	0.00e+00	120	28	0	1955594240	42	6615
2026-01-11 22:17:35.90	343.42	10.53	-35.6	-36.6	22.4	0.00e+00	120	28	0	1968177152	42	6700
2026-01-11 22:17:39.94	343.01	10.24	-35.3	-36.3	22.6	0.00e+00	122	28	0	1980760064	42	6426
2026-01-11 22:17:43.97	342.61	9.95	-35.3	-36.3	22.7	0.00e+00	123	28	0	1993342976	42	6446
2026-01-11 22:17:48.01	342.22	9.66	-35.5	-36.6	22.6	0.00e+00	123	28	0	2005925888	42	6652
2026-01-11 22:17:52.05	341.84	9.37	-35.8	-36.8	22.3	0.00e+00	120	28	0	2018508800	44	6123
2026-01-11 22:17:56.09	341.46	9.08	-36.2	-37.3	21.8	0.00e+00	122	28	0	2031091712	44	6483
2026-01-11 22:18:00.13	341.09	8.80	-36.4	-37.5	21.7	0.00e+00	123	28	0	2043674624	44	6590
2026-01-11 22:18:04.16	340.73	8.52	-36.3	-37.4	21.6	0.00e+00	122	28	0	2056257536	44	6529
2026-01-11 22:18:08.20	340.38	8.24	-36.0	-37.1	21.8	0.00e+00	123	28	0	2068840448	44	6303
2026-01-11 22:18:12.24	340.03	7.96	-36.1	-37.2	21.7	0.00e+00	122	28	0	2081423360	44	6375
2026-01-11 22:18:16.28	339.69	7.68	-36.3	-37.4	21.6	0.00e+00	123	28	0	2094006272	44	6514
2026-01-11 22:18:20.32	339.36	7.41	-36.7	-37.8	21.2	0.00e+00	120	28	0	2106589184	44	6833
2026-01-11 22:18:24.36	339.03	7.14	-36.9	-38.0	21.0	0.00e+00	120	28	0	2119172096	46	6239
2026-01-11 22:18:28.40	338.71	6.87	-37.2	-38.4	20.7	0.00e+00	122	28	0	2131755008	46	6499
2026-01-11 22:18:32.44	338.39	6.60	-37.4	-38.5	20.4	0.00e+00	120	28	0	2145386496	46	6624
2026-01-11 22:18:36.48	338.08	6.33	-36.6	-37.8	21.0	0.00e+00	123	28	0	2157969408	46	6072
2026-01-11 22:18:40.52	337.78	6.07	-36.6	-37.7	20.9	0.00e+00	123	28	0	2170552320	46	6058
2026-01-11 22:18:44.56	337.48	5.81	-36.9	-38.0	20.5	0.00e+00	123	28	0	2183135232	46	6268
2026-01-11 22:18:48.59	337.19	5.55	-37.6	-38.9	19.2	0.00e+00	120	28	0	2195718144	46	6952
2026-01-11 22:18:52.63	336.91	5.29	-39.2	-40.9	16.6	0.00e+00	122	28	0	2208301056	50	6937
2026-01-11 22:18:56.67	336.63	5.03	-41.1	-43.9	12.6	3.66e-05	122	28	0	2220883968	54	7811
2026-01-11 22:19:00.71	336.35	4.78	-42.4	-46.9	8.5	2.77e-02	121	29	0	2233466880	56	9763
2026-01-11 22:19:04.75	336.08	4.52	-43.1	-51.6	3.8	1.13e+00	0	29	104	2241855488	58	15002
2026-01-11 22:19:08.78	335.82	4.27	-43.3	-54.5	3.6	1.50e+00	0	29	104	2241855488	58	20846
2026-01-11 22:19:12.82	335.55	4.02	-43.4	-54.7	3.6	1.51e+00	0	29	104	2241855488	58	21332
2026-01-11 22:19:16.85	335.30	3.78	-43.3	-55.4	3.5	1.51e+00	0	29	104	2241855488	58	23180
2026-01-11 22:19:20.89	335.05	3.53	-43.2	-56.0	3.5	1.52e+00	0	29	104	2241855488	58	24750
2026-01-11 22:19:24.93	334.80	3.28	-43.1	-55.9	3.5	1.52e+00	0	29	104	2241855488	58	24651
2026-01-11 22:19:28.97	334.56	3.04	-43.1	-55.9	3.5	1.52e+00	0	29	104	2241855488	58	24615
2026-01-11 22:19:33.00	334.32	2.80	-48.1	-61.0	3.5	1.51e+00	0	29	104	2241855488	60	39236
2026-01-11 22:19:37.04	334.08	2.56	-48.5	-61.3	3.5	1.52e+00	0	29	104	2241855488	60	40956
2026-01-11 22:19:41.08	333.85	2.32	-47.8	-61.2	3.5	1.52e+00	0	29	104	2241855488	60	40193
2026-01-11 22:19:45.12	333.63	2.09	-48.3	-61.1	3.5	1.52e+00	0	29	104	2241855488	60	39881
2026-01-11 22:19:49.16	333.40	1.85	-48.3	-61.1	3.5	1.52e+00	0	29	104	2241855488	60	40011
2026-01-11 22:19:53.20	333.18	1.62	-48.2	-61.1	3.5	1.52e+00	0	29	104	2241855488	60	39868
2026-01-11 22:19:57.23	332.97	1.39	-48.3	-61.1	3.5	1.52e+00	0	29	104	2241855488	60	39921
2026-01-11 22:20:01.28	332.76	1.15	-48.2	-61.1	3.5	1.52e+00	0	29	104	2241855488	60	39856
2026-01-11 22:20:05.31	332.55	0.93	-48.3	-61.1	3.5	1.52e+00	0	29	104	2241855488	60	39923
2026-01-11 22:20:09.36	332.34	0.70	-48.2	-61.0	3.5	1.52e+00	0	29	104	2241855488	60	39521
2026-01-11 22:20:13.39	332.14	0.47	-48.3	-61.1	3.5	1.52e+00	0	29	104	2241855488	60	39962
2026-01-11 22:20:17.43	331.94	0.25	-48.2	-61.1	3.5	1.52e+00	0	29	104	2241855488	60	39882
2026-01-11 22:20:21.47	331.75	0.02	-48.3	-61.1	3.5	1.52e+00	0	29	104	2241855488	60	39872

#Closed at: 2026-01-11 22:20:23
#Recorded file [2241 MB]: D:/lorett/data/35029_260112_100609.dat