passes_logs/2026/01/11/R4.6S_Anadyr/R4.6S_Anadyr__20260111_175014_AQUA_rec.log

#Pass ID: 20260111_175014_AQUA
#Satellite: AQUA
#Configuration: AQUA
#almurnet v.1.7.20251203
#Start time: 2026-01-11 17:50:15

#Version: 2.2.20231116
#Station: R4.6S_Anadyr
#Location: 177.4865 lon 64.73178 lat
#TLE: 1 27424U 02022A   26010.91777001  .00001106  00000+0  23130-3 0  9995
#TLE: 2 27424  98.4077 337.2768 0002031  83.1713 340.5382 14.61814337260293

#Time	Az	El	Level	Level2	SNR	BER	BlckErr	Temp	State	Recorded	gain1	gain2
2026-01-11 17:50:15.53	22.54	0.04	-48.0	-59.7	3.5	8.45e-01	0	25	0	0	60	34847
2026-01-11 17:50:19.56	22.37	0.28	-48.4	-66.4	3.5	3.02e+01	0	26	104	0	60	80015
2026-01-11 17:50:23.60	22.20	0.52	-48.3	-66.3	3.5	3.02e+01	0	26	104	0	60	79462
2026-01-11 17:50:27.64	22.02	0.76	-48.0	-65.9	3.5	3.02e+01	0	27	104	0	60	75676
2026-01-11 17:50:31.68	21.84	1.00	-46.9	-64.9	3.5	3.02e+01	0	27	104	0	60	67328
2026-01-11 17:50:35.71	21.66	1.25	-46.9	-64.8	3.5	3.02e+01	0	27	104	0	60	66619
2026-01-11 17:50:39.75	21.47	1.50	-46.9	-64.8	3.5	3.02e+01	0	27	104	0	60	66789
2026-01-11 17:50:43.79	21.28	1.74	-46.9	-64.8	3.5	3.02e+01	0	27	104	0	60	66728
2026-01-11 17:50:47.83	21.08	2.00	-46.9	-64.8	3.5	3.02e+01	0	27	104	0	60	66881
2026-01-11 17:50:51.87	20.88	2.25	-46.8	-64.6	3.5	3.02e+01	0	27	104	0	60	65529
2026-01-11 17:50:55.91	20.68	2.51	-46.9	-64.8	3.5	3.02e+01	0	27	104	0	60	66562
2026-01-11 17:50:59.95	20.47	2.77	-46.8	-64.7	3.5	3.02e+01	0	27	104	0	60	65905
2026-01-11 17:51:03.98	20.26	3.03	-46.8	-64.2	3.5	3.02e+01	0	27	104	0	60	62589
2026-01-11 17:51:08.02	20.04	3.29	-46.3	-61.9	3.5	3.02e+01	0	27	104	0	60	47812
2026-01-11 17:51:12.06	19.82	3.55	-43.5	-55.5	3.5	3.02e+01	0	27	104	0	60	22931
2026-01-11 17:51:16.10	19.60	3.82	-46.3	-62.3	3.5	3.02e+01	0	27	104	0	60	49878
2026-01-11 17:51:20.13	19.37	4.09	-37.3	-47.8	3.5	3.02e+01	0	27	104	0	50	16705
2026-01-11 17:51:24.17	19.13	4.37	-37.5	-47.9	3.5	3.02e+01	0	28	104	0	50	16986
2026-01-11 17:51:28.21	18.89	4.64	-37.8	-48.3	3.5	3.02e+01	0	28	104	0	50	17779
2026-01-11 17:51:32.24	18.64	4.92	-38.1	-48.7	3.5	3.02e+01	0	28	104	0	50	18561
2026-01-11 17:51:36.28	18.39	5.20	-42.4	-53.9	3.5	3.02e+01	0	28	104	0	60	19032
2026-01-11 17:51:40.32	18.13	5.48	-36.5	-46.9	3.5	3.02e+01	0	28	104	0	48	16990
2026-01-11 17:51:44.36	17.87	5.77	-42.8	-54.3	3.5	3.02e+01	0	28	104	0	60	19927
2026-01-11 17:51:48.39	17.60	6.06	-37.3	-47.7	3.5	3.02e+01	0	28	104	0	50	16683
2026-01-11 17:51:52.43	17.32	6.35	-46.7	-62.2	3.5	3.02e+01	0	28	104	0	60	49485
2026-01-11 17:51:56.46	17.04	6.65	-37.8	-48.3	3.5	3.02e+01	0	28	104	0	50	17828
2026-01-11 17:52:00.50	16.75	6.95	-41.2	-52.1	3.5	3.02e+01	0	28	104	0	60	15558
2026-01-11 17:52:04.54	16.46	7.25	-39.0	-49.5	3.6	3.02e+01	0	28	104	0	54	16234
2026-01-11 17:52:08.57	16.15	7.56	-36.1	-37.5	27.2	3.02e+01	57	28	0	2097152	48	5757
2026-01-11 17:52:12.61	15.84	7.87	-35.3	-36.6	27.9	3.02e+01	58	28	0	9961472	46	5827
2026-01-11 17:52:16.65	15.53	8.18	-35.1	-36.4	28.2	3.02e+01	57	28	0	17301504	46	5678
2026-01-11 17:52:20.68	15.20	8.49	-34.9	-36.2	28.4	3.02e+01	60	28	0	25165824	44	6230
2026-01-11 17:52:24.72	14.87	8.81	-34.8	-36.1	28.5	3.02e+01	55	28	0	32505856	44	6184
2026-01-11 17:52:28.76	14.52	9.14	-34.7	-35.9	28.6	3.02e+01	59	28	0	40370176	44	6033
2026-01-11 17:52:32.80	14.17	9.46	-34.6	-35.8	28.7	3.02e+01	52	28	0	47710208	44	5976
2026-01-11 17:52:36.84	13.81	9.79	-34.5	-35.8	28.8	3.02e+01	62	28	0	55050240	44	5928
2026-01-11 17:52:40.87	13.44	10.13	-34.5	-35.8	28.8	3.02e+01	47	28	0	62914560	44	5967
2026-01-11 17:52:44.91	13.06	10.47	-34.5	-35.7	28.9	3.02e+01	56	28	0	70254592	44	5890
2026-01-11 17:52:48.94	12.67	10.81	-34.5	-35.8	28.9	3.02e+01	51	28	0	78118912	44	5932
2026-01-11 17:52:52.98	12.27	11.16	-34.7	-35.9	28.6	3.02e+01	57	28	0	85458944	44	6063
2026-01-11 17:52:57.02	11.86	11.51	-34.6	-35.8	28.8	3.02e+01	47	28	0	93323264	44	5965
2026-01-11 17:53:01.05	11.44	11.86	-34.2	-35.4	29.2	3.02e+01	58	28	0	100663296	44	5722
2026-01-11 17:53:05.09	11.01	12.22	-34.2	-35.4	29.2	3.02e+01	55	28	0	108527616	44	5693
2026-01-11 17:53:09.13	10.56	12.58	-34.2	-35.4	29.3	3.02e+01	55	28	0	115867648	44	5666
2026-01-11 17:53:13.17	10.10	12.95	-34.2	-35.4	29.2	3.02e+01	53	28	0	123207680	44	5666
2026-01-11 17:53:17.20	9.63	13.32	-34.1	-35.3	29.4	3.02e+01	58	28	0	131072000	44	5625
2026-01-11 17:53:21.24	9.15	13.70	-34.0	-35.2	29.5	3.02e+01	43	29	0	138412032	42	6233
2026-01-11 17:53:25.28	8.65	14.08	-34.0	-35.2	29.5	3.02e+01	57	28	0	146276352	42	6241
2026-01-11 17:53:29.31	8.14	14.47	-33.9	-35.1	29.5	3.02e+01	55	29	0	153616384	42	6194
2026-01-11 17:53:33.35	7.61	14.86	-33.7	-34.9	29.7	3.02e+01	57	29	0	161480704	42	6013
2026-01-11 17:53:37.39	7.07	15.25	-33.8	-35.0	29.7	3.02e+01	45	29	0	168820736	42	6086
2026-01-11 17:53:41.42	6.51	15.65	-33.9	-35.1	29.6	3.02e+01	59	29	0	176160768	42	6155
2026-01-11 17:53:45.46	5.93	16.06	-33.9	-35.1	29.7	3.02e+01	50	29	0	184025088	42	6157
2026-01-11 17:53:49.49	5.34	16.46	-33.7	-34.9	29.8	3.02e+01	58	29	0	191365120	42	6019
2026-01-11 17:53:53.53	4.73	16.88	-33.6	-34.8	29.9	3.02e+01	58	29	0	199229440	42	5948
2026-01-11 17:53:57.57	4.10	17.30	-33.7	-34.9	29.9	3.02e+01	57	29	0	206569472	42	6016
2026-01-11 17:54:01.61	3.45	17.72	-33.7	-34.9	29.9	3.02e+01	61	29	0	214433792	42	6028
2026-01-11 17:54:05.65	2.78	18.15	-34.0	-35.2	29.6	3.02e+01	57	29	0	221773824	42	6238
2026-01-11 17:54:09.68	2.10	18.58	-33.9	-35.1	29.7	3.02e+01	51	29	0	229638144	42	6191
2026-01-11 17:54:13.72	1.38	19.01	-34.0	-35.2	29.7	3.02e+01	59	29	0	236978176	42	6210
2026-01-11 17:54:17.76	0.65	19.45	-33.8	-35.0	29.8	3.02e+01	60	29	0	244318208	42	6094
2026-01-11 17:54:21.80	359.89	19.89	-33.8	-35.0	29.9	3.02e+01	57	29	0	252182528	42	6084
2026-01-11 17:54:25.83	359.12	20.34	-33.9	-35.1	29.7	3.02e+01	62	29	0	259522560	42	6183
2026-01-11 17:54:29.87	358.31	20.79	-34.1	-35.3	29.6	3.02e+01	60	29	0	267386880	42	6290
2026-01-11 17:54:33.91	357.48	21.24	-34.1	-35.3	29.5	3.02e+01	60	29	0	274726912	42	6339
2026-01-11 17:54:37.95	356.62	21.69	-34.1	-35.3	29.6	3.02e+01	59	29	0	282591232	42	6332
2026-01-11 17:54:41.99	355.74	22.15	-34.2	-35.4	29.6	3.02e+01	59	29	0	289931264	42	6366
2026-01-11 17:54:46.03	354.83	22.61	-34.1	-35.3	29.6	3.02e+01	61	29	0	297795584	42	6331
2026-01-11 17:54:50.07	353.89	23.07	-34.2	-35.4	29.5	3.02e+01	58	29	0	305135616	42	6388
2026-01-11 17:54:54.10	352.92	23.53	-34.3	-35.5	29.5	3.02e+01	58	29	0	312475648	42	6448
2026-01-11 17:54:58.14	351.91	23.99	-34.0	-35.2	29.7	3.02e+01	59	29	0	320339968	42	6233
2026-01-11 17:55:02.18	350.88	24.45	-34.2	-35.4	29.6	3.02e+01	48	29	0	327680000	42	6407
2026-01-11 17:55:06.22	349.82	24.90	-34.3	-35.5	29.4	3.02e+01	55	29	0	335544320	42	6486
2026-01-11 17:55:10.25	348.72	25.36	-33.9	-35.1	29.8	3.02e+01	63	29	0	342884352	42	6162
2026-01-11 17:55:14.28	347.59	25.81	-34.1	-35.3	29.7	3.02e+01	61	29	0	350748672	42	6317
2026-01-11 17:55:18.31	346.43	26.26	-33.9	-35.1	29.8	3.02e+01	62	29	0	358088704	42	6156
2026-01-11 17:55:22.35	345.22	26.70	-33.9	-35.1	29.8	3.02e+01	60	29	0	365953024	42	6180
2026-01-11 17:55:26.39	343.99	27.14	-33.6	-34.8	30.1	3.02e+01	51	29	0	373293056	42	5950
2026-01-11 17:55:30.42	342.72	27.57	-33.8	-35.0	29.9	3.02e+01	59	29	0	380633088	42	6097
2026-01-11 17:55:34.46	341.41	27.99	-33.5	-34.7	30.2	3.02e+01	51	29	0	388497408	42	5898
2026-01-11 17:55:38.49	340.06	28.40	-33.4	-34.6	30.3	3.02e+01	58	29	0	395837440	42	5810
2026-01-11 17:55:42.53	338.68	28.80	-33.3	-34.4	30.4	3.02e+01	55	29	0	403701760	42	5723
2026-01-11 17:55:46.57	337.27	29.19	-33.3	-34.4	30.4	3.02e+01	58	29	0	411041792	42	5722
2026-01-11 17:55:50.60	335.82	29.56	-33.4	-34.5	30.3	3.02e+01	50	29	0	418906112	42	5788
2026-01-11 17:55:54.64	334.33	29.92	-33.4	-34.6	30.2	3.02e+01	59	29	0	426246144	42	5799
2026-01-11 17:55:58.68	332.81	30.26	-33.2	-34.4	30.5	3.02e+01	45	29	0	433586176	42	5669
2026-01-11 17:56:02.71	331.26	30.58	-33.2	-34.4	30.4	3.02e+01	57	29	0	441450496	42	5701
2026-01-11 17:56:06.75	329.67	30.89	-33.4	-34.6	30.3	3.02e+01	46	29	0	448790528	42	5807
2026-01-11 17:56:10.78	328.06	31.17	-33.5	-34.7	30.2	3.02e+01	60	29	0	456654848	42	5870
2026-01-11 17:56:14.82	326.41	31.43	-33.4	-34.6	30.4	3.02e+01	58	29	0	463994880	42	5796
2026-01-11 17:56:18.86	324.74	31.66	-33.4	-34.6	30.3	3.02e+01	60	29	0	471859200	42	5810
2026-01-11 17:56:22.89	323.05	31.87	-33.4	-34.6	30.4	3.02e+01	60	30	0	479199232	42	5819
2026-01-11 17:56:26.93	321.33	32.05	-33.6	-34.8	30.1	3.02e+01	59	29	0	486539264	42	5969
2026-01-11 17:56:30.97	319.60	32.21	-33.9	-35.1	29.9	3.02e+01	60	29	0	494403584	42	6155
2026-01-11 17:56:35.01	317.85	32.34	-34.3	-35.5	29.6	3.02e+01	57	30	0	501743616	42	6449
2026-01-11 17:56:39.04	316.09	32.43	-34.3	-35.5	29.6	3.02e+01	59	29	0	509607936	42	6436
2026-01-11 17:56:43.08	314.31	32.50	-34.1	-35.3	29.9	3.02e+01	59	29	0	516947968	42	6321
2026-01-11 17:56:47.12	312.53	32.54	-34.2	-35.4	29.6	3.02e+01	59	30	0	524812288	44	5679
2026-01-11 17:56:51.15	310.76	32.54	-35.3	-36.6	28.6	3.02e+01	58	30	0	532152320	44	6515
2026-01-11 17:56:55.19	308.97	32.52	-33.4	-34.6	30.3	3.02e+01	58	29	0	540016640	42	5803
2026-01-11 17:56:59.23	307.20	32.47	-35.0	-36.3	28.6	3.02e+01	59	30	0	547356672	42	7069
2026-01-11 17:57:03.27	305.43	32.38	-33.7	-34.8	30.1	3.02e+01	58	30	0	554696704	42	5992
2026-01-11 17:57:07.31	303.67	32.27	-34.1	-35.2	29.8	3.02e+01	59	30	0	562561024	42	6276
2026-01-11 17:57:11.34	301.93	32.12	-33.9	-35.1	29.8	3.02e+01	59	30	0	569901056	42	6192
2026-01-11 17:57:15.38	300.20	31.95	-34.2	-35.4	29.7	3.02e+01	56	30	0	577765376	42	6386
2026-01-11 17:57:19.42	298.50	31.76	-34.8	-36.1	29.1	3.02e+01	61	30	0	585105408	42	6897
2026-01-11 17:57:23.46	296.81	31.53	-34.6	-35.8	29.2	3.02e+01	46	30	0	592969728	42	6701
2026-01-11 17:57:27.49	295.16	31.28	-33.6	-34.7	30.2	3.02e+01	61	30	0	600309760	42	5886
2026-01-11 17:57:31.53	293.52	31.01	-33.7	-34.8	30.0	3.02e+01	48	30	0	607649792	42	5975
2026-01-11 17:57:35.56	291.93	30.72	-34.0	-35.2	29.8	3.02e+01	60	30	0	615514112	44	5531
2026-01-11 17:57:39.59	290.36	30.40	-33.9	-35.0	29.8	3.02e+01	57	30	0	622854144	44	5440
2026-01-11 17:57:43.63	288.82	30.07	-34.8	-36.0	29.0	3.02e+01	58	30	0	630718464	42	6878
2026-01-11 17:57:47.67	287.31	29.71	-34.5	-35.7	29.4	3.02e+01	58	30	0	638058496	42	6607
2026-01-11 17:57:51.70	285.85	29.35	-34.0	-35.2	29.7	3.02e+01	56	30	0	645922816	42	6236
2026-01-11 17:57:55.74	284.41	28.96	-35.9	-37.2	28.0	3.02e+01	58	30	0	653262848	46	6218
2026-01-11 17:57:59.78	283.01	28.57	-35.1	-36.4	28.7	3.02e+01	59	30	0	660602880	44	6371
2026-01-11 17:58:03.82	281.64	28.16	-34.7	-35.8	29.2	3.02e+01	44	30	0	668467200	44	5986
2026-01-11 17:58:07.86	280.32	27.74	-34.5	-35.7	29.1	3.02e+01	58	30	0	675807232	44	5908
2026-01-11 17:58:11.90	279.02	27.31	-34.8	-36.1	28.7	3.02e+01	44	30	0	683671552	44	6165
2026-01-11 17:58:15.93	277.77	26.88	-34.7	-35.9	29.1	3.02e+01	59	30	0	691011584	44	6059
2026-01-11 17:58:19.97	276.55	26.43	-35.3	-36.5	28.5	3.02e+01	51	30	0	698875904	44	6487
2026-01-11 17:58:24.01	275.36	25.99	-34.6	-35.7	29.4	3.02e+01	61	30	0	706215936	44	5913
2026-01-11 17:58:28.05	274.21	25.53	-35.5	-36.8	28.4	3.02e+01	44	30	0	714080256	44	6669
2026-01-11 17:58:32.09	273.10	25.08	-35.5	-36.8	28.4	3.02e+01	59	30	0	721420288	44	6656
2026-01-11 17:58:36.12	272.02	24.62	-35.8	-37.2	28.0	3.02e+01	47	30	0	728760320	44	6995
2026-01-11 17:58:40.16	270.96	24.16	-36.0	-37.3	28.0	3.02e+01	59	30	0	736624640	46	6330
2026-01-11 17:58:44.19	269.95	23.70	-35.6	-36.9	28.3	3.02e+01	58	30	0	743964672	44	6754
2026-01-11 17:58:48.23	268.96	23.24	-34.7	-35.9	29.1	3.02e+01	60	30	0	751828992	44	6002
2026-01-11 17:58:52.27	268.00	22.78	-34.8	-36.0	28.8	3.02e+01	59	30	0	759169024	44	6112
2026-01-11 17:58:56.31	267.07	22.32	-34.7	-35.9	29.1	3.02e+01	61	30	0	767033344	44	6048
2026-01-11 17:59:00.34	266.18	21.86	-34.7	-35.9	29.1	3.02e+01	60	30	0	774373376	44	6036
2026-01-11 17:59:04.38	265.31	21.40	-35.0	-36.2	28.8	3.02e+01	59	30	0	781713408	44	6247
2026-01-11 17:59:08.42	264.46	20.95	-34.9	-36.1	29.1	3.02e+01	57	30	0	789577728	44	6154
2026-01-11 17:59:12.46	263.64	20.49	-34.9	-36.1	29.0	3.02e+01	60	30	0	796917760	44	6177
2026-01-11 17:59:16.50	262.85	20.04	-34.8	-36.1	29.0	3.02e+01	59	30	0	804782080	44	6146
2026-01-11 17:59:20.53	262.08	19.60	-34.5	-35.6	29.2	3.02e+01	59	30	0	812122112	44	5854
2026-01-11 17:59:24.57	261.33	19.16	-34.8	-36.0	29.0	3.02e+01	59	30	0	819986432	44	6099
2026-01-11 17:59:28.61	260.61	18.72	-34.8	-36.0	29.0	3.02e+01	59	30	0	827326464	44	6114
2026-01-11 17:59:32.64	259.91	18.29	-34.5	-35.7	29.1	3.02e+01	55	30	0	835190784	44	5874
2026-01-11 17:59:36.67	259.23	17.86	-34.6	-35.9	29.0	3.02e+01	61	30	0	842530816	44	5999
2026-01-11 17:59:40.71	258.57	17.43	-34.5	-35.7	29.1	3.02e+01	58	30	0	849870848	44	5918
2026-01-11 17:59:44.75	257.93	17.01	-34.7	-35.9	29.0	3.02e+01	61	30	0	857735168	44	6037
2026-01-11 17:59:48.79	257.31	16.59	-34.6	-35.9	28.9	3.02e+01	60	30	0	865075200	44	5996
2026-01-11 17:59:52.83	256.70	16.18	-34.4	-35.6	29.1	3.02e+01	56	30	0	872939520	44	5854
2026-01-11 17:59:56.86	256.12	15.77	-34.9	-36.1	28.8	3.02e+01	59	30	0	880279552	44	6180
2026-01-11 18:00:00.90	255.55	15.37	-34.6	-35.8	29.0	3.02e+01	47	30	0	888143872	44	5979
2026-01-11 18:00:04.94	255.00	14.97	-34.7	-36.0	29.0	3.02e+01	61	30	0	895483904	44	6077
2026-01-11 18:00:08.98	254.46	14.58	-34.7	-35.9	28.9	3.02e+01	57	29	0	902823936	44	6044
2026-01-11 18:00:13.02	253.94	14.19	-34.9	-36.2	28.7	3.02e+01	56	29	0	910688256	44	6212
2026-01-11 18:00:17.05	253.43	13.80	-34.7	-36.0	28.9	3.02e+01	56	29	0	918028288	44	6069
2026-01-11 18:00:21.09	252.94	13.42	-34.7	-35.9	28.9	3.02e+01	61	29	0	925892608	44	6042
2026-01-11 18:00:25.13	252.46	13.05	-35.1	-36.4	28.5	3.02e+01	50	29	0	933232640	44	6355
2026-01-11 18:00:29.17	251.99	12.68	-35.1	-36.4	28.4	3.02e+01	60	29	0	941096960	44	6398
2026-01-11 18:00:33.20	251.54	12.31	-34.9	-36.1	28.6	3.02e+01	48	29	0	948436992	44	6177
2026-01-11 18:00:37.24	251.10	11.95	-35.1	-36.3	28.5	3.02e+01	60	29	0	956301312	44	6323
2026-01-11 18:00:41.28	250.67	11.59	-35.3	-36.6	28.2	3.02e+01	52	29	0	963641344	44	6500
2026-01-11 18:00:45.32	250.25	11.24	-35.4	-36.6	28.2	3.02e+01	58	29	0	970981376	44	6556
2026-01-11 18:00:49.35	249.85	10.89	-35.4	-36.6	28.1	3.02e+01	46	29	0	978845696	44	6558
2026-01-11 18:00:53.39	249.45	10.54	-35.6	-36.8	28.0	3.02e+01	60	29	0	986185728	44	6723
2026-01-11 18:00:57.43	249.06	10.20	-35.7	-37.0	27.8	3.02e+01	51	29	0	994050048	44	6814
2026-01-11 18:01:01.47	248.68	9.86	-35.5	-36.8	27.9	3.02e+01	60	29	0	1001390080	44	6725
2026-01-11 18:01:05.50	248.32	9.53	-35.7	-37.0	27.8	3.02e+01	59	29	0	1009254400	44	6832
2026-01-11 18:01:09.54	247.96	9.20	-35.9	-37.2	27.5	3.02e+01	61	29	0	1016594432	46	6226
2026-01-11 18:01:13.57	247.61	8.88	-36.0	-37.3	27.5	3.02e+01	54	29	0	1023934464	46	6297
2026-01-11 18:01:17.61	247.27	8.56	-36.4	-37.7	27.0	3.02e+01	58	29	0	1031798784	46	6635
2026-01-11 18:01:21.65	246.94	8.24	-36.6	-37.9	26.7	3.02e+01	58	29	0	1039138816	46	6801
2026-01-11 18:01:25.69	246.61	7.92	-36.8	-38.2	26.5	3.02e+01	58	29	0	1047003136	46	6985
2026-01-11 18:01:29.73	246.30	7.61	-37.0	-38.4	26.2	3.02e+01	58	29	0	1054343168	48	6364
2026-01-11 18:01:33.76	245.99	7.30	-37.4	-38.9	25.7	3.02e+01	62	29	0	1062207488	48	6736
2026-01-11 18:01:37.80	245.69	7.00	-38.0	-39.5	25.1	3.02e+01	63	29	0	1069547520	50	6485
2026-01-11 18:01:41.84	245.39	6.70	-38.2	-39.8	24.8	3.02e+01	60	29	0	1077411840	50	6698
2026-01-11 18:01:45.87	245.10	6.40	-38.6	-40.3	24.3	3.02e+01	58	29	0	1084751872	50	7054
2026-01-11 18:01:49.91	244.82	6.11	-39.2	-40.9	23.6	3.02e+01	60	29	0	1092091904	52	6781
2026-01-11 18:01:53.95	244.55	5.81	-39.6	-41.4	23.1	3.02e+01	63	29	0	1099956224	52	7205
2026-01-11 18:01:57.99	244.28	5.52	-40.0	-42.0	22.4	3.02e+01	63	29	0	1107296256	54	6845
2026-01-11 18:02:02.02	244.01	5.24	-40.6	-42.7	21.7	3.02e+01	61	29	0	1115160576	54	7430
2026-01-11 18:02:06.06	243.76	4.96	-41.2	-43.5	20.9	3.02e+01	57	29	0	1122500608	56	7236
2026-01-11 18:02:10.10	243.51	4.68	-41.6	-44.0	20.2	3.02e+01	58	29	0	1130364928	56	7723
2026-01-11 18:02:14.13	243.26	4.40	-42.0	-44.7	19.5	3.02e+01	57	29	0	1137704960	58	7432
2026-01-11 18:02:18.16	243.02	4.12	-42.5	-45.6	18.6	3.02e+01	60	29	0	1145569280	58	8234
2026-01-11 18:02:22.19	242.78	3.85	-43.0	-46.6	17.4	3.02e+01	53	29	0	1152909312	60	8257
2026-01-11 18:02:26.23	242.55	3.58	-43.2	-47.0	16.8	3.02e+01	59	29	0	1160249344	60	8620
2026-01-11 18:02:30.27	242.33	3.32	-43.7	-48.1	15.7	3.02e+01	58	29	0	1168113664	60	9750
2026-01-11 18:02:34.30	242.11	3.05	-44.3	-49.2	14.3	3.02e+01	61	29	0	1175453696	60	11079
2026-01-11 18:02:38.34	241.89	2.79	-48.3	-66.2	3.5	3.02e+01	0	29	104	1177550848	60	78496
2026-01-11 18:02:42.38	241.68	2.53	-48.4	-66.3	3.5	3.02e+01	0	29	104	1177550848	60	79817
2026-01-11 18:02:46.42	241.47	2.27	-48.2	-66.3	3.5	3.02e+01	0	29	104	1177550848	60	79400
2026-01-11 18:02:50.45	241.26	2.02	-48.2	-66.2	3.5	3.02e+01	0	29	104	1177550848	60	78205
2026-01-11 18:02:54.49	241.06	1.76	-48.4	-66.3	3.5	3.02e+01	0	29	104	1177550848	60	79034
2026-01-11 18:02:58.53	240.87	1.51	-48.3	-66.2	3.5	3.02e+01	0	29	104	1177550848	60	78546
2026-01-11 18:03:02.57	240.67	1.26	-48.3	-66.2	3.5	3.02e+01	0	29	104	1177550848	60	78838
2026-01-11 18:03:06.61	240.49	1.02	-48.3	-66.3	3.5	3.02e+01	0	29	104	1177550848	60	79251
2026-01-11 18:03:10.65	240.30	0.77	-48.3	-66.2	3.5	3.02e+01	0	29	104	1177550848	60	78448
2026-01-11 18:03:14.69	240.12	0.53	-48.3	-66.2	3.5	3.02e+01	0	29	104	1177550848	60	78752
2026-01-11 18:03:18.73	239.94	0.29	-48.3	-66.3	3.5	3.02e+01	0	29	104	1177550848	60	79103
2026-01-11 18:03:22.77	239.77	0.05	-48.3	-66.2	3.5	3.02e+01	0	29	104	1177550848	60	78722

#Closed at: 2026-01-11 18:03:24
#Recorded file [1177 MB]: D:/lorett/data/35029_260112_055015.dat