passes_logs/2026/01/11/R4.6S_Anadyr/R4.6S_Anadyr__20260111_045643_FENGYUN_3D_rec.log

#Pass ID: 20260111_045643_FENGYUN 3D
#Satellite: FENGYUN 3D
#Configuration: FENGYUN 3D
#almurnet v.1.7.20251203
#Start time: 2026-01-11 04:56:44

#Version: 2.2.20231116
#Station: R4.6S_Anadyr
#Location: 177.4865 lon 64.73178 lat
#TLE: 1 43010U 17072A   26009.92921666 -.00000228  00000+0 -86059-4 0  9998
#TLE: 2 43010  98.9936 341.6668 0002176 116.7510 243.3888 14.19693142422537

#Time	Az	El	Level	Level2	SNR	BER	BlckErr	Temp	State	Recorded	gain1	gain2
2026-01-11 04:56:44.65	227.76	0.04	-48.2	-66.0	3.5	3.02e+01	0	27	0	0	60	77056
2026-01-11 04:56:48.69	228.10	0.23	-47.8	-60.0	3.6	8.44e-01	0	28	104	0	60	36294
2026-01-11 04:56:52.73	228.44	0.41	-47.7	-60.0	3.6	8.44e-01	0	28	104	0	60	36327
2026-01-11 04:56:56.77	228.78	0.60	-47.9	-60.0	3.6	8.45e-01	0	29	104	0	60	35943
2026-01-11 04:57:00.81	229.13	0.79	-46.5	-58.6	3.6	8.46e-01	0	29	104	0	60	30904
2026-01-11 04:57:04.84	229.48	0.98	-45.3	-57.4	3.6	8.44e-01	0	29	104	0	60	26685
2026-01-11 04:57:08.88	229.84	1.16	-45.3	-57.3	3.6	8.45e-01	0	29	104	0	60	26454
2026-01-11 04:57:12.92	230.20	1.35	-45.3	-57.3	3.6	8.46e-01	0	29	104	0	60	26512
2026-01-11 04:57:16.96	230.56	1.54	-45.3	-57.3	3.6	8.46e-01	0	29	104	0	60	26546
2026-01-11 04:57:21.00	230.93	1.73	-45.3	-57.3	3.6	8.45e-01	0	29	104	0	60	26576
2026-01-11 04:57:25.04	231.31	1.92	-45.3	-57.3	3.6	8.44e-01	0	29	104	0	60	26505
2026-01-11 04:57:29.08	231.69	2.11	-45.3	-57.3	3.6	8.46e-01	0	29	104	0	60	26467
2026-01-11 04:57:33.12	232.07	2.30	-45.3	-57.3	3.6	8.45e-01	0	29	104	0	60	26567
2026-01-11 04:57:37.15	232.46	2.49	-45.3	-57.3	3.5	8.45e-01	0	29	104	0	60	26540
2026-01-11 04:57:41.19	232.85	2.68	-45.2	-57.2	3.6	8.46e-01	0	29	104	0	60	26195
2026-01-11 04:57:45.23	233.25	2.87	-45.2	-56.8	3.6	8.45e-01	0	29	104	0	60	25069
2026-01-11 04:57:49.27	233.66	3.06	-45.2	-56.6	3.6	8.44e-01	0	29	104	0	60	24341
2026-01-11 04:57:53.31	234.06	3.25	-45.6	-57.0	3.6	8.45e-01	0	29	104	0	60	25594
2026-01-11 04:57:57.35	234.48	3.44	-45.5	-56.5	3.6	8.45e-01	0	29	104	0	60	24287
2026-01-11 04:58:01.39	234.90	3.63	-45.3	-57.0	3.6	8.45e-01	0	29	104	0	60	25584
2026-01-11 04:58:05.42	235.32	3.82	-45.6	-56.3	3.5	8.46e-01	0	30	104	0	60	23492
2026-01-11 04:58:09.46	235.75	4.02	-45.5	-56.3	3.6	8.45e-01	0	29	104	0	60	23724
2026-01-11 04:58:13.50	236.18	4.21	-45.8	-56.1	3.7	8.45e-01	0	29	104	0	60	23091
2026-01-11 04:58:17.53	236.62	4.40	-45.9	-55.7	3.6	8.42e-01	0	29	104	0	60	22127
2026-01-11 04:58:21.57	237.07	4.59	-45.6	-52.4	4.1	8.19e-01	0	30	0	0	60	15110
2026-01-11 04:58:25.61	237.52	4.78	-45.6	-51.5	4.8	7.57e-01	0	30	0	0	60	13540
2026-01-11 04:58:29.65	237.98	4.97	-45.3	-50.5	5.8	3.61e-01	0	30	0	11534336	60	12046
2026-01-11 04:58:33.69	238.44	5.16	-45.0	-49.4	7.1	1.69e-01	0	30	0	34603008	60	10651
2026-01-11 04:58:37.72	238.91	5.35	-44.3	-48.0	8.7	4.03e-02	0	30	0	57671680	60	9122
2026-01-11 04:58:41.76	239.38	5.54	-43.9	-47.3	9.8	1.74e-02	0	30	0	79691776	60	8348
2026-01-11 04:58:45.80	239.86	5.73	-43.0	-45.6	11.6	1.46e-03	0	30	0	102760448	60	6866
2026-01-11 04:58:49.84	240.35	5.92	-42.2	-44.4	12.8	8.92e-05	0	30	0	125829120	58	6766
2026-01-11 04:58:53.88	240.84	6.11	-41.2	-43.0	14.5	0.00e+00	0	30	0	148897792	56	6460
2026-01-11 04:58:57.92	241.34	6.30	-40.1	-41.6	16.0	0.00e+00	0	30	0	170917888	54	6107
2026-01-11 04:59:01.95	241.84	6.49	-39.2	-40.5	17.2	0.00e+00	0	30	0	193986560	52	6066
2026-01-11 04:59:05.99	242.36	6.68	-38.7	-39.9	17.9	0.00e+00	0	30	0	216006656	50	6319
2026-01-11 04:59:10.03	242.87	6.87	-38.0	-39.1	18.6	0.00e+00	0	30	0	239075328	50	5776
2026-01-11 04:59:14.07	243.40	7.06	-37.2	-38.2	19.5	0.00e+00	0	30	0	262144000	48	5856
2026-01-11 04:59:18.11	243.93	7.24	-36.4	-37.4	20.4	0.00e+00	0	30	0	284164096	46	5978
2026-01-11 04:59:22.15	244.47	7.43	-35.6	-36.5	21.2	0.00e+00	0	30	0	307232768	44	6036
2026-01-11 04:59:26.19	245.01	7.61	-34.9	-35.8	22.0	0.00e+00	0	30	0	330301440	44	5567
2026-01-11 04:59:30.23	245.56	7.80	-34.6	-35.4	22.5	0.00e+00	0	30	0	353370112	42	5967
2026-01-11 04:59:34.27	246.12	7.98	-34.4	-35.1	22.8	0.00e+00	0	30	0	375390208	42	5812
2026-01-11 04:59:38.31	246.68	8.16	-33.9	-34.7	23.2	0.00e+00	0	30	0	398458880	42	5509
2026-01-11 04:59:42.34	247.25	8.34	-33.8	-34.6	23.4	0.00e+00	0	30	0	420478976	40	6106
2026-01-11 04:59:46.38	247.83	8.52	-33.2	-34.0	23.9	0.00e+00	0	30	0	443547648	40	5721
2026-01-11 04:59:50.42	248.42	8.70	-33.1	-33.9	24.1	0.00e+00	0	30	0	466616320	40	5633
2026-01-11 04:59:54.45	249.01	8.88	-33.0	-33.7	24.2	0.00e+00	0	30	0	488636416	40	5503
2026-01-11 04:59:58.49	249.60	9.06	-32.8	-33.5	24.4	0.00e+00	0	30	0	511705088	40	5435
2026-01-11 05:00:02.53	250.21	9.23	-32.7	-33.4	24.6	0.00e+00	0	30	0	534773760	38	5972
2026-01-11 05:00:06.57	250.82	9.40	-32.6	-33.3	24.6	0.00e+00	0	30	0	556793856	38	5945
2026-01-11 05:00:10.61	251.44	9.57	-32.7	-33.4	24.5	0.00e+00	0	30	0	579862528	38	6005
2026-01-11 05:00:14.65	252.07	9.74	-32.6	-33.2	24.7	0.00e+00	0	30	0	602931200	38	5892
2026-01-11 05:00:18.69	252.70	9.91	-32.6	-33.3	24.7	0.00e+00	0	30	0	624951296	38	5904
2026-01-11 05:00:22.73	253.34	10.08	-32.4	-33.1	24.8	0.00e+00	0	30	0	648019968	38	5774
2026-01-11 05:00:26.77	253.99	10.24	-32.3	-33.0	24.8	0.00e+00	0	30	0	671088640	38	5743
2026-01-11 05:00:30.81	254.65	10.40	-32.2	-32.9	25.0	0.00e+00	0	30	0	693108736	38	5652
2026-01-11 05:00:34.85	255.31	10.56	-32.2	-32.9	25.0	0.00e+00	0	30	0	716177408	38	5666
2026-01-11 05:00:38.89	255.98	10.72	-32.0	-32.7	25.2	0.00e+00	0	30	0	739246080	38	5528
2026-01-11 05:00:42.92	256.65	10.87	-32.2	-32.9	25.1	0.00e+00	0	30	0	762314752	38	5657
2026-01-11 05:00:46.96	257.33	11.02	-32.1	-32.8	25.2	0.00e+00	0	30	0	784334848	38	5571
2026-01-11 05:00:51.00	258.02	11.17	-32.2	-32.8	25.1	0.00e+00	0	30	0	807403520	38	5613
2026-01-11 05:00:55.04	258.72	11.32	-32.1	-32.8	25.2	0.00e+00	0	30	0	829423616	38	5620
2026-01-11 05:00:59.08	259.42	11.46	-32.2	-32.9	25.1	0.00e+00	0	30	0	852492288	38	5655
2026-01-11 05:01:03.12	260.13	11.60	-31.9	-32.5	25.4	0.00e+00	0	30	0	875560960	38	5429
2026-01-11 05:01:07.16	260.84	11.74	-32.1	-32.8	25.2	0.00e+00	0	30	0	897581056	38	5613
2026-01-11 05:01:11.20	261.56	11.87	-32.0	-32.7	25.2	0.00e+00	0	30	0	920649728	38	5527
2026-01-11 05:01:15.24	262.29	12.00	-31.7	-32.4	25.6	0.00e+00	0	30	0	943718400	36	5965
2026-01-11 05:01:19.28	263.03	12.13	-31.9	-32.6	25.3	0.00e+00	0	30	0	966787072	36	6107
2026-01-11 05:01:23.32	263.77	12.25	-32.1	-32.8	25.2	0.00e+00	0	30	0	988807168	36	6264
2026-01-11 05:01:27.35	264.51	12.37	-31.7	-32.4	25.5	0.00e+00	0	30	0	1011875840	36	5999
2026-01-11 05:01:31.39	265.26	12.49	-31.7	-32.4	25.5	0.00e+00	0	30	0	1033895936	36	5994
2026-01-11 05:01:35.43	266.02	12.60	-31.7	-32.4	25.5	0.00e+00	0	30	0	1056964608	36	6023
2026-01-11 05:01:39.46	266.78	12.71	-31.7	-32.4	25.5	0.00e+00	0	30	0	1080033280	36	6022
2026-01-11 05:01:43.50	267.55	12.81	-31.8	-32.5	25.4	0.00e+00	0	30	0	1102053376	36	6062
2026-01-11 05:01:47.54	268.32	12.91	-31.6	-32.3	25.7	0.00e+00	0	30	0	1125122048	36	5898
2026-01-11 05:01:51.58	269.10	13.00	-31.7	-32.4	25.5	0.00e+00	0	30	0	1148190720	36	5972
2026-01-11 05:01:55.62	269.89	13.09	-31.5	-32.2	25.7	0.00e+00	0	30	0	1170210816	36	5847
2026-01-11 05:01:59.66	270.67	13.18	-31.2	-31.9	25.9	0.00e+00	0	30	0	1193279488	36	5666
2026-01-11 05:02:03.69	271.46	13.26	-31.2	-31.9	25.9	0.00e+00	0	30	0	1216348160	36	5673
2026-01-11 05:02:07.73	272.26	13.34	-31.2	-31.8	25.9	0.00e+00	0	30	0	1238368256	36	5622
2026-01-11 05:02:11.77	273.06	13.41	-31.2	-31.8	26.0	0.00e+00	0	30	0	1261436928	36	5615
2026-01-11 05:02:15.81	273.86	13.47	-31.4	-32.1	25.7	0.00e+00	0	30	0	1284505600	36	5812
2026-01-11 05:02:19.85	274.67	13.54	-31.6	-32.3	25.6	0.00e+00	0	30	0	1306525696	36	5930
2026-01-11 05:02:23.90	275.48	13.59	-31.7	-32.3	25.6	0.00e+00	0	30	0	1329594368	36	5956
2026-01-11 05:02:27.93	276.29	13.64	-31.3	-32.0	25.9	0.00e+00	0	30	0	1352663040	36	5708
2026-01-11 05:02:31.98	277.11	13.69	-31.5	-32.1	25.8	0.00e+00	0	30	0	1375731712	36	5791
2026-01-11 05:02:36.01	277.92	13.73	-31.6	-32.2	25.7	0.00e+00	0	30	0	1397751808	36	5893
2026-01-11 05:02:40.06	278.74	13.77	-31.3	-31.9	25.9	0.00e+00	0	30	0	1420820480	36	5686
2026-01-11 05:02:44.10	279.56	13.80	-31.2	-31.8	26.0	0.00e+00	0	30	0	1442840576	36	5598
2026-01-11 05:02:48.14	280.39	13.82	-31.2	-31.9	25.9	0.00e+00	0	30	0	1465909248	36	5670
2026-01-11 05:02:52.17	281.21	13.84	-31.5	-32.1	25.8	0.00e+00	0	30	0	1488977920	36	5828
2026-01-11 05:02:56.20	282.03	13.85	-31.5	-32.1	25.7	0.00e+00	0	30	0	1510998016	36	5824
2026-01-11 05:03:00.25	282.86	13.86	-31.4	-32.1	25.8	0.00e+00	0	30	0	1534066688	36	5770
2026-01-11 05:03:04.29	283.68	13.87	-31.3	-32.0	25.9	0.00e+00	0	30	0	1557135360	36	5737
2026-01-11 05:03:08.32	284.51	13.86	-31.3	-32.0	25.9	0.00e+00	0	30	0	1580204032	36	5748
2026-01-11 05:03:12.35	285.33	13.86	-31.4	-32.0	25.8	0.00e+00	0	30	0	1602224128	36	5746
2026-01-11 05:03:16.39	286.15	13.84	-31.4	-32.1	25.7	0.00e+00	0	30	0	1625292800	36	5809
2026-01-11 05:03:20.42	286.97	13.83	-31.4	-32.1	25.7	0.00e+00	0	30	0	1647312896	36	5765
2026-01-11 05:03:24.47	287.80	13.80	-31.6	-32.2	25.6	0.00e+00	0	31	0	1670381568	36	5887
2026-01-11 05:03:28.51	288.62	13.77	-31.5	-32.2	25.6	0.00e+00	0	30	0	1693450240	36	5876
2026-01-11 05:03:32.55	289.44	13.74	-31.5	-32.2	25.7	0.00e+00	0	30	0	1715470336	36	5868
2026-01-11 05:03:36.58	290.25	13.70	-31.6	-32.3	25.6	0.00e+00	0	30	0	1738539008	36	5959
2026-01-11 05:03:40.62	291.07	13.65	-31.6	-32.2	25.6	0.00e+00	0	30	0	1761607680	36	5850
2026-01-11 05:03:44.66	291.88	13.60	-31.6	-32.4	25.6	0.00e+00	0	30	0	1783627776	36	5975
2026-01-11 05:03:48.69	292.68	13.55	-31.7	-32.4	25.5	0.00e+00	0	30	0	1806696448	36	6019
2026-01-11 05:03:52.73	293.49	13.49	-31.5	-32.1	25.8	0.00e+00	0	30	0	1829765120	36	5799
2026-01-11 05:03:56.77	294.29	13.42	-31.7	-32.4	25.6	0.00e+00	0	30	0	1851785216	36	5996
2026-01-11 05:04:00.81	295.09	13.35	-31.4	-32.1	25.8	0.00e+00	0	31	0	1874853888	36	5788
2026-01-11 05:04:04.85	295.89	13.28	-31.8	-32.5	25.5	0.00e+00	0	30	0	1897922560	36	6090
2026-01-11 05:04:08.88	296.68	13.20	-31.7	-32.3	25.6	0.00e+00	0	30	0	1919942656	36	5937
2026-01-11 05:04:12.91	297.46	13.11	-32.0	-32.7	25.4	0.00e+00	0	30	0	1943011328	36	6215
2026-01-11 05:04:16.95	298.24	13.02	-31.9	-32.5	25.4	0.00e+00	0	31	0	1966080000	36	6065
2026-01-11 05:04:20.99	299.02	12.93	-32.0	-32.6	25.3	0.00e+00	0	31	0	1988100096	36	6143
2026-01-11 05:04:25.03	299.79	12.83	-32.0	-32.7	25.3	0.00e+00	0	31	0	2011168768	36	6176
2026-01-11 05:04:29.07	300.56	12.73	-32.1	-32.9	25.2	0.00e+00	0	30	0	2034237440	36	6322
2026-01-11 05:04:33.11	301.32	12.62	-32.0	-32.7	25.2	0.00e+00	0	30	0	2056257536	36	6238
2026-01-11 05:04:37.14	302.08	12.51	-32.0	-32.7	25.3	0.00e+00	0	30	0	2079326208	36	6223
2026-01-11 05:04:41.18	302.83	12.40	-31.9	-32.6	25.5	0.00e+00	0	31	0	2102394880	36	6110
2026-01-11 05:04:45.22	303.57	12.28	-32.2	-32.8	25.2	0.00e+00	0	30	0	2124414976	36	6290
2026-01-11 05:04:49.26	304.31	12.16	-32.2	-32.8	25.2	0.00e+00	0	31	0	2147483648	36	6313
2026-01-11 05:04:53.29	305.04	12.03	-32.3	-33.0	25.1	0.00e+00	0	31	0	2170552320	36	6441
2026-01-11 05:04:57.33	305.77	11.90	-32.3	-33.0	25.1	0.00e+00	0	31	0	2192572416	36	6392
2026-01-11 05:05:01.37	306.49	11.77	-32.1	-32.7	25.2	0.00e+00	0	31	0	2215641088	36	6207
2026-01-11 05:05:05.40	307.20	11.64	-32.3	-32.9	25.0	0.00e+00	0	31	0	2237661184	36	6356
2026-01-11 05:05:09.44	307.91	11.50	-32.3	-33.0	25.1	0.00e+00	0	31	0	2260729856	36	6397
2026-01-11 05:05:13.48	308.61	11.36	-32.3	-33.0	25.0	0.00e+00	0	31	0	2283798528	36	6394
2026-01-11 05:05:17.52	309.31	11.21	-32.5	-33.2	24.8	0.00e+00	0	30	0	2306867200	36	6575
2026-01-11 05:05:21.55	309.99	11.06	-32.4	-33.2	24.9	0.00e+00	0	31	0	2328887296	36	6549
2026-01-11 05:05:25.59	310.67	10.91	-32.6	-33.2	24.8	0.00e+00	0	31	0	2351955968	36	6576
2026-01-11 05:05:29.63	311.35	10.76	-32.8	-33.4	24.7	0.00e+00	0	31	0	2375024640	38	6032
2026-01-11 05:05:33.67	312.01	10.61	-32.6	-33.2	24.7	0.00e+00	0	31	0	2397044736	38	5868
2026-01-11 05:05:37.72	312.68	10.45	-32.7	-33.3	24.7	0.00e+00	0	31	0	2420113408	38	5950
2026-01-11 05:05:41.75	313.33	10.29	-32.6	-33.4	24.8	0.00e+00	0	31	0	2442133504	38	5967
2026-01-11 05:05:45.78	313.97	10.13	-32.7	-33.3	24.7	0.00e+00	0	31	0	2465202176	38	5917
2026-01-11 05:05:49.81	314.61	9.96	-32.8	-33.4	24.6	0.00e+00	0	31	0	2488270848	38	6018
2026-01-11 05:05:53.85	315.24	9.80	-33.0	-33.7	24.4	0.00e+00	0	31	0	2510290944	38	6212
2026-01-11 05:05:57.89	315.87	9.63	-33.5	-34.2	23.7	0.00e+00	0	31	0	2533359616	38	6611
2026-01-11 05:06:01.93	316.49	9.46	-33.7	-34.4	23.6	0.00e+00	0	31	0	2556428288	40	6025
2026-01-11 05:06:05.97	317.10	9.29	-33.2	-33.8	24.1	0.00e+00	0	31	0	2579496960	40	5614
2026-01-11 05:06:10.00	317.70	9.12	-33.1	-33.8	24.1	0.00e+00	0	31	0	2601517056	40	5569
2026-01-11 05:06:14.04	318.30	8.94	-33.0	-33.7	24.2	0.00e+00	0	31	0	2624585728	40	5533
2026-01-11 05:06:18.08	318.89	8.77	-33.1	-33.8	24.2	0.00e+00	0	31	0	2646605824	40	5591
2026-01-11 05:06:22.12	319.48	8.59	-33.1	-33.7	24.2	0.00e+00	0	31	0	2669674496	40	5547
2026-01-11 05:06:26.16	320.06	8.41	-33.0	-33.6	24.2	0.00e+00	0	31	0	2692743168	40	5475
2026-01-11 05:06:30.21	320.63	8.23	-33.0	-33.6	24.1	0.00e+00	0	31	0	2714763264	40	5462
2026-01-11 05:06:34.24	321.19	8.05	-33.4	-34.1	23.8	0.00e+00	0	31	0	2737831936	40	5819
2026-01-11 05:06:38.28	321.75	7.87	-33.6	-34.3	23.5	0.00e+00	0	31	0	2760900608	40	5951
2026-01-11 05:06:42.32	322.30	7.69	-33.5	-34.2	23.5	0.00e+00	0	31	0	2783969280	40	5861
2026-01-11 05:06:46.35	322.84	7.51	-33.5	-34.3	23.6	0.00e+00	0	31	0	2805989376	40	5918
2026-01-11 05:06:50.39	323.38	7.32	-33.8	-34.6	23.2	0.00e+00	0	31	0	2829058048	40	6123
2026-01-11 05:06:54.43	323.91	7.14	-33.9	-34.5	23.3	0.00e+00	0	30	0	2851078144	40	6089
2026-01-11 05:06:58.46	324.43	6.95	-33.8	-34.5	23.3	0.00e+00	0	31	0	2874146816	40	6096
2026-01-11 05:07:02.50	324.95	6.77	-33.9	-34.8	23.1	0.00e+00	0	30	0	2897215488	40	6254
2026-01-11 05:07:06.54	325.46	6.58	-34.0	-34.7	23.1	0.00e+00	0	30	0	2919235584	40	6239
2026-01-11 05:07:10.59	325.97	6.39	-33.8	-34.5	23.2	0.00e+00	0	30	0	2942304256	40	6078
2026-01-11 05:07:14.63	326.47	6.21	-34.0	-34.7	23.1	0.00e+00	0	30	0	2965372928	40	6198
2026-01-11 05:07:18.67	326.96	6.02	-34.0	-34.8	23.0	0.00e+00	0	30	0	2988441600	40	6269
2026-01-11 05:07:22.71	327.45	5.83	-34.3	-35.1	22.6	0.00e+00	0	30	0	3010461696	40	6478
2026-01-11 05:07:26.74	327.93	5.64	-34.4	-35.2	22.6	0.00e+00	0	30	0	3033530368	40	6559
2026-01-11 05:07:30.78	328.40	5.45	-34.6	-35.3	22.4	0.00e+00	0	30	0	3055550464	40	6692
2026-01-11 05:07:34.82	328.87	5.26	-34.4	-35.2	22.6	0.00e+00	0	30	0	3078619136	40	6550
2026-01-11 05:07:38.85	329.33	5.07	-34.4	-35.3	22.4	0.00e+00	0	30	0	3101687808	40	6636
2026-01-11 05:07:42.89	329.79	4.88	-34.7	-35.5	22.1	0.00e+00	0	30	0	3123707904	40	6810
2026-01-11 05:07:46.93	330.24	4.70	-34.8	-35.5	21.9	0.00e+00	0	30	0	3146776576	42	6097
2026-01-11 05:07:50.97	330.69	4.51	-34.9	-35.7	21.7	0.00e+00	0	30	0	3169845248	42	6223
2026-01-11 05:07:55.02	331.13	4.32	-35.2	-36.1	21.3	0.00e+00	0	30	0	3191865344	42	6495
2026-01-11 05:07:59.06	331.57	4.13	-36.1	-37.1	19.8	0.00e+00	0	30	0	3214934016	44	6512
2026-01-11 05:08:03.09	332.00	3.94	-38.5	-40.0	15.9	0.00e+00	0	30	0	3238002688	48	7195
2026-01-11 05:08:07.13	332.42	3.75	-41.2	-44.7	9.2	8.34e-03	0	30	0	3260022784	54	8803
2026-01-11 05:08:11.17	332.84	3.56	-42.5	-50.0	3.7	8.31e-01	0	30	0	3273654272	56	14451
2026-01-11 05:08:15.22	333.26	3.37	-42.7	-54.2	3.6	8.45e-01	0	30	104	3273654272	56	23324
2026-01-11 05:08:19.25	333.67	3.18	-42.7	-54.6	3.6	8.46e-01	0	30	104	3273654272	58	21896
2026-01-11 05:08:23.29	334.07	2.99	-42.7	-54.6	3.6	8.45e-01	0	30	104	3273654272	58	21884
2026-01-11 05:08:27.33	334.47	2.80	-47.8	-59.9	3.6	8.45e-01	0	30	104	3273654272	60	35576
2026-01-11 05:08:31.36	334.87	2.61	-48.0	-60.1	3.6	8.46e-01	0	30	104	3273654272	60	36656
2026-01-11 05:08:35.40	335.26	2.43	-47.7	-60.0	3.6	8.45e-01	0	30	104	3273654272	60	36285
2026-01-11 05:08:39.44	335.64	2.24	-48.0	-60.1	3.6	8.45e-01	0	30	104	3273654272	60	36714
2026-01-11 05:08:43.48	336.02	2.05	-47.9	-60.0	3.6	8.46e-01	0	30	104	3273654272	60	36114
2026-01-11 05:08:47.52	336.40	1.86	-48.0	-60.1	3.6	8.46e-01	0	30	104	3273654272	60	36544
2026-01-11 05:08:51.56	336.77	1.68	-47.9	-60.0	3.6	8.46e-01	0	30	104	3273654272	60	36096
2026-01-11 05:08:55.60	337.14	1.49	-47.9	-60.0	3.6	8.46e-01	0	30	104	3273654272	60	36055
2026-01-11 05:08:59.64	337.50	1.30	-47.9	-60.0	3.6	8.44e-01	0	30	104	3273654272	60	36285
2026-01-11 05:09:03.65	337.86	1.12	-47.9	-60.0	3.6	8.46e-01	0	30	104	3273654272	60	36247
2026-01-11 05:09:07.69	338.21	0.93	-47.9	-60.0	3.6	8.45e-01	0	30	104	3273654272	60	36084
2026-01-11 05:09:11.73	338.56	0.75	-47.8	-59.9	3.6	8.45e-01	0	30	104	3273654272	60	35809
2026-01-11 05:09:15.77	338.91	0.56	-47.9	-60.0	3.6	8.46e-01	0	30	104	3273654272	60	36095
2026-01-11 05:09:19.81	339.25	0.38	-48.0	-60.1	3.6	8.44e-01	0	30	104	3273654272	60	36506
2026-01-11 05:09:23.85	339.59	0.19	-47.9	-59.9	3.6	8.43e-01	0	29	104	3273654272	60	35915
2026-01-11 05:09:27.89	339.93	0.01	-47.9	-60.0	3.6	8.44e-01	0	29	104	3273654272	60	36044

#Closed at: 2026-01-11 05:09:29
#Recorded file [3273 MB]: D:/lorett/data/35029_260111_165644.dat