passes_logs/2026/01/11/R4.6S_Anadyr/R4.6S_Anadyr__20260111_031351_FENGYUN_3D_rec.log

#Pass ID: 20260111_031351_FENGYUN 3D
#Satellite: FENGYUN 3D
#Configuration: FENGYUN 3D
#almurnet v.1.7.20251203
#Start time: 2026-01-11 03:13:52

#Version: 2.2.20231116
#Station: R4.6S_Anadyr
#Location: 177.4865 lon 64.73178 lat
#TLE: 1 43010U 17072A   26009.92921666 -.00000228  00000+0 -86059-4 0  9998
#TLE: 2 43010  98.9936 341.6668 0002176 116.7510 243.3888 14.19693142422537

#Time	Az	El	Level	Level2	SNR	BER	BlckErr	Temp	State	Recorded	gain1	gain2
2026-01-11 03:13:52.75	180.91	0.06	-48.2	-65.9	3.5	3.02e+01	0	28	0	0	60	76038
2026-01-11 03:13:56.79	181.04	0.30	-48.0	-60.1	3.6	8.45e-01	0	29	104	0	60	36424
2026-01-11 03:14:00.83	181.18	0.54	-48.1	-60.3	3.6	8.45e-01	0	29	104	0	60	37319
2026-01-11 03:14:04.86	181.32	0.78	-47.8	-59.9	3.6	8.45e-01	0	30	104	0	60	35905
2026-01-11 03:14:08.90	181.46	1.02	-46.5	-58.7	3.6	8.45e-01	0	30	104	0	60	31199
2026-01-11 03:14:12.94	181.60	1.26	-46.4	-58.6	3.6	8.45e-01	0	30	104	0	60	30661
2026-01-11 03:14:16.98	181.74	1.51	-46.4	-58.4	3.6	8.46e-01	0	30	104	0	60	30209
2026-01-11 03:14:21.02	181.89	1.75	-46.5	-58.4	3.6	8.44e-01	0	30	104	0	60	30077
2026-01-11 03:14:25.07	182.04	2.00	-46.5	-58.6	3.6	8.47e-01	0	30	104	0	60	30590
2026-01-11 03:14:29.10	182.19	2.25	-46.4	-58.6	3.6	8.46e-01	0	30	104	0	60	30647
2026-01-11 03:14:33.14	182.35	2.51	-46.2	-55.9	3.8	8.43e-01	0	30	104	0	60	22518
2026-01-11 03:14:37.18	182.50	2.76	-46.4	-57.9	3.5	8.44e-01	0	30	104	0	60	28353
2026-01-11 03:14:41.22	182.66	3.02	-40.9	-42.5	15.2	1.10e-06	0	30	0	13631488	56	6093
2026-01-11 03:14:45.26	182.82	3.28	-35.7	-36.5	21.0	0.00e+00	0	30	0	36700160	44	6097
2026-01-11 03:14:49.30	182.99	3.54	-36.0	-36.9	20.6	0.00e+00	0	30	0	58720256	44	6353
2026-01-11 03:14:53.34	183.15	3.81	-46.3	-56.8	3.7	8.45e-01	0	30	104	78643200	60	24925
2026-01-11 03:14:57.37	183.32	4.07	-36.2	-37.1	20.4	0.00e+00	0	30	0	93323264	46	5778
2026-01-11 03:15:01.41	183.50	4.34	-35.4	-36.2	21.3	0.00e+00	0	30	0	115343360	44	5885
2026-01-11 03:15:05.45	183.67	4.61	-35.0	-35.8	21.9	0.00e+00	0	30	0	138412032	44	5583
2026-01-11 03:15:09.50	183.85	4.89	-34.0	-34.8	22.9	0.00e+00	0	30	0	161480704	42	5584
2026-01-11 03:15:13.54	184.03	5.17	-34.1	-34.9	22.8	0.00e+00	0	30	0	183500800	42	5637
2026-01-11 03:15:17.58	184.22	5.45	-33.8	-34.5	23.1	0.00e+00	0	30	0	206569472	40	6081
2026-01-11 03:15:21.61	184.41	5.73	-33.7	-34.4	23.3	0.00e+00	0	30	0	228589568	40	6022
2026-01-11 03:15:25.66	184.60	6.01	-33.5	-34.2	23.5	0.00e+00	0	30	0	251658240	40	5845
2026-01-11 03:15:29.70	184.79	6.30	-33.6	-34.3	23.5	0.00e+00	0	30	0	274726912	40	5956
2026-01-11 03:15:33.73	184.99	6.59	-33.5	-34.2	23.6	0.00e+00	0	30	0	297795584	40	5866
2026-01-11 03:15:37.77	185.19	6.89	-33.4	-34.1	23.7	0.00e+00	0	30	0	319815680	40	5816
2026-01-11 03:15:41.81	185.40	7.19	-33.0	-33.7	24.1	0.00e+00	0	30	0	342884352	40	5531
2026-01-11 03:15:45.85	185.61	7.49	-32.9	-33.6	24.3	0.00e+00	0	30	0	365953024	40	5459
2026-01-11 03:15:49.89	185.83	7.79	-32.7	-33.4	24.5	0.00e+00	0	30	0	387973120	38	6005
2026-01-11 03:15:53.93	186.04	8.10	-32.7	-33.4	24.5	0.00e+00	0	30	0	411041792	38	5985
2026-01-11 03:15:57.97	186.27	8.41	-32.6	-33.3	24.6	0.00e+00	0	30	0	433061888	38	5905
2026-01-11 03:16:02.00	186.49	8.72	-32.6	-33.2	24.6	0.00e+00	0	30	0	456130560	38	5880
2026-01-11 03:16:06.04	186.73	9.04	-32.6	-33.2	24.6	0.00e+00	0	30	0	479199232	38	5876
2026-01-11 03:16:10.08	186.96	9.36	-32.4	-33.1	24.8	0.00e+00	0	30	0	502267904	38	5794
2026-01-11 03:16:14.12	187.21	9.69	-32.4	-33.1	24.8	0.00e+00	0	30	0	524288000	38	5780
2026-01-11 03:16:18.16	187.45	10.02	-32.4	-33.1	24.9	0.00e+00	0	30	0	547356672	38	5818
2026-01-11 03:16:22.20	187.71	10.35	-32.4	-33.1	24.9	0.00e+00	0	30	0	570425344	38	5771
2026-01-11 03:16:26.24	187.97	10.69	-32.0	-32.6	25.3	0.00e+00	0	30	0	592445440	38	5496
2026-01-11 03:16:30.28	188.23	11.03	-31.9	-32.5	25.4	0.00e+00	0	30	0	615514112	38	5423
2026-01-11 03:16:34.32	188.50	11.38	-31.8	-32.4	25.5	0.00e+00	0	30	0	638582784	38	5365
2026-01-11 03:16:38.35	188.77	11.73	-31.8	-32.4	25.5	0.00e+00	0	30	0	660602880	36	6018
2026-01-11 03:16:42.39	189.06	12.08	-31.7	-32.4	25.6	0.00e+00	0	30	0	683671552	36	5996
2026-01-11 03:16:46.43	189.35	12.44	-31.6	-32.3	25.7	0.00e+00	0	30	0	706740224	36	5912
2026-01-11 03:16:50.46	189.64	12.81	-31.5	-32.1	25.8	0.00e+00	0	30	0	728760320	36	5827
2026-01-11 03:16:54.50	189.94	13.18	-31.7	-32.3	25.6	0.00e+00	0	30	0	751828992	36	5958
2026-01-11 03:16:58.54	190.25	13.55	-31.6	-32.2	25.7	0.00e+00	0	30	0	774897664	36	5883
2026-01-11 03:17:02.58	190.57	13.93	-31.4	-32.0	25.9	0.00e+00	0	30	0	796917760	36	5744
2026-01-11 03:17:06.62	190.90	14.31	-31.2	-31.8	26.1	0.00e+00	0	30	0	819986432	36	5595
2026-01-11 03:17:10.66	191.23	14.70	-31.0	-31.6	26.4	0.00e+00	0	30	0	842006528	36	5465
2026-01-11 03:17:14.70	191.57	15.10	-30.8	-31.4	26.5	0.00e+00	0	30	0	865075200	36	5351
2026-01-11 03:17:18.73	191.92	15.50	-30.7	-31.3	26.6	0.00e+00	0	30	0	888143872	34	5914
2026-01-11 03:17:22.78	192.29	15.91	-30.6	-31.2	26.8	0.00e+00	0	30	0	911212544	34	5851
2026-01-11 03:17:26.81	192.65	16.32	-30.4	-31.1	26.9	0.00e+00	0	30	0	933232640	34	5771
2026-01-11 03:17:30.85	193.03	16.74	-30.5	-31.1	26.8	0.00e+00	0	30	0	956301312	34	5790
2026-01-11 03:17:34.89	193.42	17.16	-30.3	-30.9	26.9	0.00e+00	0	30	0	979369984	34	5681
2026-01-11 03:17:38.93	193.83	17.59	-30.1	-30.7	27.2	0.00e+00	0	30	0	1001390080	34	5511
2026-01-11 03:17:42.96	194.24	18.03	-30.1	-30.7	27.2	0.00e+00	0	30	0	1024458752	34	5521
2026-01-11 03:17:47.00	194.66	18.47	-30.3	-30.9	27.0	0.00e+00	0	29	0	1046478848	34	5682
2026-01-11 03:17:51.04	195.10	18.92	-29.9	-30.5	27.3	0.00e+00	0	30	0	1069547520	34	5414
2026-01-11 03:17:55.08	195.54	19.38	-29.8	-30.4	27.5	0.00e+00	0	29	0	1092616192	32	6026
2026-01-11 03:17:59.11	196.00	19.84	-29.8	-30.4	27.4	0.00e+00	0	29	0	1114636288	32	6015
2026-01-11 03:18:03.15	196.48	20.31	-29.7	-30.3	27.5	0.00e+00	0	30	0	1137704960	32	5947
2026-01-11 03:18:07.19	196.97	20.79	-29.6	-30.2	27.5	0.00e+00	0	29	0	1160773632	32	5893
2026-01-11 03:18:11.23	197.47	21.28	-29.6	-30.2	27.6	0.00e+00	0	29	0	1183842304	32	5856
2026-01-11 03:18:15.27	197.99	21.77	-29.6	-30.2	27.6	0.00e+00	0	29	0	1205862400	32	5885
2026-01-11 03:18:19.31	198.53	22.27	-29.3	-29.9	27.9	0.00e+00	0	29	0	1228931072	32	5663
2026-01-11 03:18:23.35	199.08	22.78	-29.3	-29.9	27.9	0.00e+00	0	29	0	1250951168	32	5681
2026-01-11 03:18:27.39	199.66	23.29	-29.1	-29.7	28.1	0.00e+00	0	29	0	1274019840	32	5536
2026-01-11 03:18:31.42	200.25	23.81	-29.1	-29.7	28.1	0.00e+00	0	29	0	1297088512	32	5524
2026-01-11 03:18:35.47	200.86	24.34	-29.0	-29.6	28.1	0.00e+00	0	29	0	1319108608	32	5501
2026-01-11 03:18:39.51	201.49	24.88	-29.0	-29.6	28.2	0.00e+00	0	29	0	1342177280	30	6144
2026-01-11 03:18:43.54	202.14	25.42	-28.7	-29.3	28.3	0.00e+00	0	29	0	1365245952	30	5931
2026-01-11 03:18:47.58	202.81	25.97	-28.9	-29.5	28.3	0.00e+00	0	29	0	1388314624	30	6079
2026-01-11 03:18:51.62	203.51	26.53	-29.2	-29.8	28.0	0.00e+00	0	29	0	1410334720	30	6308
2026-01-11 03:18:55.67	204.23	27.10	-28.7	-29.3	28.4	0.00e+00	0	29	0	1433403392	30	5911
2026-01-11 03:18:59.70	204.98	27.67	-28.6	-29.1	28.5	0.00e+00	0	29	0	1455423488	30	5826
2026-01-11 03:19:03.74	205.75	28.25	-28.6	-29.3	28.4	0.00e+00	0	29	0	1478492160	30	5904
2026-01-11 03:19:07.78	206.55	28.84	-28.6	-29.2	28.5	0.00e+00	0	29	0	1501560832	30	5833
2026-01-11 03:19:11.82	207.38	29.43	-28.6	-29.2	28.4	0.00e+00	0	29	0	1524629504	30	5880
2026-01-11 03:19:15.86	208.24	30.03	-28.7	-29.3	28.4	0.00e+00	0	29	0	1546649600	30	5899
2026-01-11 03:19:19.90	209.14	30.63	-28.8	-29.4	28.5	0.00e+00	0	29	0	1569718272	30	6013
2026-01-11 03:19:23.94	210.06	31.24	-28.3	-28.9	28.8	0.00e+00	0	29	0	1592786944	30	5642
2026-01-11 03:19:27.99	211.03	31.86	-28.6	-29.2	28.5	0.00e+00	0	29	0	1614807040	30	5879
2026-01-11 03:19:32.03	212.03	32.48	-28.9	-29.5	28.3	0.00e+00	0	29	0	1637875712	30	6072
2026-01-11 03:19:36.07	213.06	33.10	-28.3	-28.9	28.8	0.00e+00	0	29	0	1659895808	30	5660
2026-01-11 03:19:40.11	214.14	33.72	-28.6	-29.2	28.5	0.00e+00	0	29	0	1682964480	30	5844
2026-01-11 03:19:44.15	215.25	34.34	-28.7	-29.3	28.5	0.00e+00	0	29	0	1706033152	30	5954
2026-01-11 03:19:48.19	216.41	34.97	-28.3	-28.9	28.8	0.00e+00	0	29	0	1729101824	30	5644
2026-01-11 03:19:52.23	217.62	35.59	-28.4	-29.0	28.7	0.00e+00	0	29	0	1751121920	30	5727
2026-01-11 03:19:56.27	218.87	36.21	-28.7	-29.3	28.5	0.00e+00	0	29	0	1774190592	30	5961
2026-01-11 03:20:00.30	220.16	36.83	-29.1	-29.7	28.3	0.00e+00	0	29	0	1797259264	30	6236
2026-01-11 03:20:04.35	221.51	37.44	-28.1	-28.7	28.8	0.00e+00	0	29	0	1819279360	30	5505
2026-01-11 03:20:08.39	222.91	38.05	-28.3	-28.9	28.6	0.00e+00	0	29	0	1842348032	30	5674
2026-01-11 03:20:12.42	224.35	38.64	-28.4	-29.0	28.7	0.00e+00	0	29	0	1865416704	30	5718
2026-01-11 03:20:16.46	225.86	39.23	-28.7	-29.3	28.5	0.00e+00	0	29	0	1887436800	30	5923
2026-01-11 03:20:20.50	227.41	39.80	-28.4	-29.0	28.6	0.00e+00	0	29	0	1910505472	30	5753
2026-01-11 03:20:24.54	229.02	40.36	-28.3	-28.9	28.9	0.00e+00	0	28	0	1933574144	30	5661
2026-01-11 03:20:28.58	230.68	40.90	-28.2	-28.8	28.8	0.00e+00	0	29	0	1955594240	30	5576
2026-01-11 03:20:32.62	232.40	41.42	-28.4	-28.9	28.7	0.00e+00	0	29	0	1978662912	30	5678
2026-01-11 03:20:36.65	234.17	41.92	-28.3	-28.9	28.7	0.00e+00	0	28	0	2001731584	30	5642
2026-01-11 03:20:40.69	236.00	42.40	-28.6	-29.2	28.7	0.00e+00	0	28	0	2023751680	30	5857
2026-01-11 03:20:44.73	237.88	42.84	-28.8	-29.4	28.5	0.00e+00	0	28	0	2046820352	30	5997
2026-01-11 03:20:48.77	239.81	43.26	-28.6	-29.2	28.8	0.00e+00	0	28	0	2069889024	30	5883
2026-01-11 03:20:52.81	241.78	43.65	-28.8	-29.4	28.4	0.00e+00	0	28	0	2091909120	30	6018
2026-01-11 03:20:56.85	243.81	44.00	-28.9	-29.4	28.2	0.00e+00	0	28	0	2114977792	30	6017
2026-01-11 03:21:00.89	245.87	44.32	-28.8	-29.4	28.5	0.00e+00	0	28	0	2138046464	30	6030
2026-01-11 03:21:04.93	247.98	44.59	-28.3	-28.9	28.7	0.00e+00	0	28	0	2160066560	30	5658
2026-01-11 03:21:08.97	250.12	44.83	-28.6	-29.2	28.3	0.00e+00	0	28	0	2183135232	30	5875
2026-01-11 03:21:13.02	252.29	45.02	-29.2	-29.8	27.9	0.00e+00	0	28	0	2206203904	30	6307
2026-01-11 03:21:17.05	254.47	45.17	-28.5	-29.0	28.6	0.00e+00	0	28	0	2228224000	30	5734
2026-01-11 03:21:21.09	256.68	45.27	-28.9	-29.6	28.4	0.00e+00	0	28	0	2251292672	30	6107
2026-01-11 03:21:25.13	258.89	45.33	-28.8	-29.4	28.4	0.00e+00	0	28	0	2274361344	30	5971
2026-01-11 03:21:29.18	261.12	45.34	-28.9	-29.5	28.3	0.00e+00	0	28	0	2296381440	30	6101
2026-01-11 03:21:33.22	263.34	45.31	-29.3	-29.9	28.0	0.00e+00	0	28	0	2319450112	30	6368
2026-01-11 03:21:37.26	265.55	45.23	-29.0	-29.7	28.2	0.00e+00	0	28	0	2342518784	30	6174
2026-01-11 03:21:41.30	267.75	45.10	-28.7	-29.3	28.3	0.00e+00	0	28	0	2364538880	30	5939
2026-01-11 03:21:45.34	269.93	44.93	-28.7	-29.3	28.4	0.00e+00	0	28	0	2387607552	30	5949
2026-01-11 03:21:49.37	272.07	44.71	-29.1	-29.7	28.2	0.00e+00	0	28	0	2410676224	30	6225
2026-01-11 03:21:53.41	274.19	44.46	-29.0	-29.5	28.3	0.00e+00	0	28	0	2432696320	30	6101
2026-01-11 03:21:57.45	276.27	44.16	-28.9	-29.4	28.3	0.00e+00	0	28	0	2455764992	30	6033
2026-01-11 03:22:01.49	278.31	43.82	-28.7	-29.4	28.2	0.00e+00	0	28	0	2478833664	30	6011
2026-01-11 03:22:05.52	280.30	43.46	-28.5	-29.0	28.7	0.00e+00	0	28	0	2500853760	30	5731
2026-01-11 03:22:09.56	282.25	43.05	-29.0	-29.6	28.2	0.00e+00	0	28	0	2523922432	30	6166
2026-01-11 03:22:13.60	284.16	42.62	-28.8	-29.4	28.3	0.00e+00	0	28	0	2546991104	30	5971
2026-01-11 03:22:17.63	286.00	42.16	-28.6	-29.3	28.4	0.00e+00	0	28	0	2569011200	30	5898
2026-01-11 03:22:21.67	287.79	41.67	-28.6	-29.1	28.4	0.00e+00	0	28	0	2592079872	30	5807
2026-01-11 03:22:25.72	289.54	41.16	-28.5	-29.1	28.6	0.00e+00	0	28	0	2615148544	30	5802
2026-01-11 03:22:29.76	291.23	40.63	-28.4	-29.0	28.6	0.00e+00	0	28	0	2637168640	30	5744
2026-01-11 03:22:33.80	292.86	40.08	-28.6	-29.3	28.5	0.00e+00	0	28	0	2660237312	30	5918
2026-01-11 03:22:37.84	294.44	39.52	-28.4	-28.9	28.6	0.00e+00	0	28	0	2683305984	30	5674
2026-01-11 03:22:41.88	295.96	38.94	-28.4	-29.0	28.4	0.00e+00	0	28	0	2705326080	30	5712
2026-01-11 03:22:45.93	297.43	38.35	-28.2	-28.8	28.7	0.00e+00	0	28	0	2728394752	30	5570
2026-01-11 03:22:49.97	298.85	37.75	-28.1	-28.7	28.6	0.00e+00	0	28	0	2751463424	30	5560
2026-01-11 03:22:54.01	300.22	37.15	-28.1	-28.6	28.7	0.00e+00	0	28	0	2773483520	30	5465
2026-01-11 03:22:58.05	301.54	36.53	-28.1	-28.7	28.5	0.00e+00	0	27	0	2796552192	30	5507
2026-01-11 03:23:02.09	302.81	35.92	-28.2	-28.9	28.7	0.00e+00	0	28	0	2819620864	30	5659
2026-01-11 03:23:06.13	304.03	35.30	-28.6	-29.2	28.2	0.00e+00	0	28	0	2841640960	30	5885
2026-01-11 03:23:10.17	305.21	34.68	-28.2	-28.8	28.4	0.00e+00	0	28	0	2864709632	30	5625
2026-01-11 03:23:14.21	306.34	34.06	-28.3	-28.8	28.3	0.00e+00	0	28	0	2887778304	30	5591
2026-01-11 03:23:18.25	307.44	33.44	-28.2	-28.8	28.6	0.00e+00	0	28	0	2909798400	30	5630
2026-01-11 03:23:22.29	308.49	32.82	-28.6	-29.1	28.3	0.00e+00	0	28	0	2932867072	30	5815
2026-01-11 03:23:26.33	309.51	32.20	-28.3	-28.9	28.6	0.00e+00	0	27	0	2955935744	30	5683
2026-01-11 03:23:30.36	310.48	31.59	-28.8	-29.3	28.3	0.00e+00	0	28	0	2977955840	30	5935
2026-01-11 03:23:34.40	311.42	30.98	-28.8	-29.3	28.3	0.00e+00	0	28	0	3001024512	30	5948
2026-01-11 03:23:38.44	312.33	30.38	-28.9	-29.4	28.2	0.00e+00	0	28	0	3024093184	30	5972
2026-01-11 03:23:42.48	313.21	29.78	-28.9	-29.6	28.1	0.00e+00	0	28	0	3046113280	30	6111
2026-01-11 03:23:46.52	314.05	29.19	-28.6	-29.1	28.3	0.00e+00	0	28	0	3069181952	30	5817
2026-01-11 03:23:50.56	314.87	28.60	-28.3	-29.0	28.5	0.00e+00	0	27	0	3092250624	30	5707
2026-01-11 03:23:54.60	315.65	28.02	-28.6	-29.1	28.3	0.00e+00	0	28	0	3114270720	30	5820
2026-01-11 03:23:58.64	316.41	27.45	-28.8	-29.5	28.2	0.00e+00	0	28	0	3137339392	30	6040
2026-01-11 03:24:02.68	317.14	26.88	-28.8	-29.5	28.1	0.00e+00	0	28	0	3160408064	30	6069
2026-01-11 03:24:06.72	317.85	26.32	-29.0	-29.6	28.0	0.00e+00	0	28	0	3183476736	30	6135
2026-01-11 03:24:10.76	318.54	25.77	-29.1	-29.6	27.9	0.00e+00	0	28	0	3205496832	30	6160
2026-01-11 03:24:14.80	319.20	25.22	-28.9	-29.4	28.1	0.00e+00	0	28	0	3228565504	30	6027
2026-01-11 03:24:18.84	319.84	24.69	-29.1	-29.8	27.9	0.00e+00	0	28	0	3250585600	30	6293
2026-01-11 03:24:22.87	320.46	24.16	-29.5	-30.1	27.6	0.00e+00	0	28	0	3273654272	30	6535
2026-01-11 03:24:26.91	321.06	23.63	-29.6	-30.1	27.6	0.00e+00	0	28	0	3296722944	30	6534
2026-01-11 03:24:30.94	321.64	23.12	-29.3	-29.8	27.8	0.00e+00	0	28	0	3318743040	30	6302
2026-01-11 03:24:34.98	322.20	22.61	-29.2	-29.9	27.8	0.00e+00	0	28	0	3341811712	30	6334
2026-01-11 03:24:39.02	322.74	22.11	-29.7	-30.2	27.4	0.00e+00	0	28	0	3364880384	30	6587
2026-01-11 03:24:43.06	323.27	21.62	-30.2	-30.7	27.1	0.00e+00	0	28	0	3386900480	32	6219
2026-01-11 03:24:47.10	323.79	21.13	-29.9	-30.5	27.3	0.00e+00	0	28	0	3409969152	32	6050
2026-01-11 03:24:51.14	324.28	20.65	-30.0	-30.7	27.2	0.00e+00	0	28	0	3433037824	32	6185
2026-01-11 03:24:55.18	324.77	20.18	-30.3	-30.9	26.9	0.00e+00	0	28	0	3455057920	32	6356
2026-01-11 03:24:59.22	325.24	19.71	-30.2	-30.7	27.0	0.00e+00	0	28	0	3478126592	32	6221
2026-01-11 03:25:03.26	325.69	19.26	-30.3	-30.9	27.0	0.00e+00	0	28	0	3501195264	32	6383
2026-01-11 03:25:07.30	326.14	18.80	-30.3	-31.0	26.9	0.00e+00	0	28	0	3523215360	32	6400
2026-01-11 03:25:11.34	326.57	18.36	-30.7	-31.4	26.5	0.00e+00	0	28	0	3546284032	32	6767
2026-01-11 03:25:15.38	326.99	17.92	-30.8	-31.3	26.5	0.00e+00	0	28	0	3569352704	34	5948
2026-01-11 03:25:19.42	327.39	17.49	-30.8	-31.4	26.4	0.00e+00	0	28	0	3591372800	34	5971
2026-01-11 03:25:23.46	327.79	17.06	-30.9	-31.4	26.3	0.00e+00	0	28	0	3614441472	34	6009
2026-01-11 03:25:27.49	328.18	16.64	-30.9	-31.4	26.3	0.00e+00	0	28	0	3637510144	34	6032
2026-01-11 03:25:31.54	328.55	16.23	-31.2	-31.9	26.0	0.00e+00	0	28	0	3659530240	34	6331
2026-01-11 03:25:35.58	328.92	15.82	-31.3	-32.0	26.0	0.00e+00	0	28	0	3682598912	34	6442
2026-01-11 03:25:39.61	329.28	15.42	-31.3	-32.0	25.9	0.00e+00	0	28	0	3705667584	34	6425
2026-01-11 03:25:43.65	329.62	15.02	-31.2	-31.9	26.0	0.00e+00	0	28	0	3727687680	34	6376
2026-01-11 03:25:47.68	329.96	14.63	-31.3	-31.8	25.9	0.00e+00	0	28	0	3750756352	34	6295
2026-01-11 03:25:51.72	330.29	14.25	-31.6	-32.4	25.6	0.00e+00	0	28	0	3773825024	34	6716
2026-01-11 03:25:55.76	330.62	13.87	-31.8	-32.5	25.5	0.00e+00	0	28	0	3795845120	36	6098
2026-01-11 03:25:59.80	330.93	13.49	-32.1	-32.7	25.2	0.00e+00	0	28	0	3818913792	36	6184
2026-01-11 03:26:03.83	331.24	13.12	-32.4	-33.1	24.9	0.00e+00	0	28	0	3841982464	36	6537
2026-01-11 03:26:07.87	331.54	12.76	-32.3	-32.9	25.0	0.00e+00	0	28	0	3864002560	36	6365
2026-01-11 03:26:11.91	331.84	12.40	-32.4	-33.0	24.9	0.00e+00	0	28	0	3887071232	36	6420
2026-01-11 03:26:15.96	332.13	12.04	-32.2	-32.8	25.0	0.00e+00	0	28	0	3910139904	36	6316
2026-01-11 03:26:20.00	332.41	11.69	-32.4	-33.1	24.8	0.00e+00	0	28	0	3932160000	36	6477
2026-01-11 03:26:24.04	332.68	11.34	-32.8	-33.5	24.4	0.00e+00	0	28	0	3955228672	36	6834
2026-01-11 03:26:28.07	332.95	11.00	-32.7	-33.4	24.5	0.00e+00	0	28	0	3978297344	38	5976
2026-01-11 03:26:32.11	333.21	10.66	-32.6	-33.3	24.5	0.00e+00	0	29	0	4000317440	38	5913
2026-01-11 03:26:36.15	333.47	10.33	-32.6	-33.3	24.5	0.00e+00	0	29	0	4023386112	38	5905
2026-01-11 03:26:40.18	333.73	10.00	-33.1	-33.7	24.1	0.00e+00	0	29	0	4046454784	38	6229
2026-01-11 03:26:44.22	333.97	9.67	-32.8	-33.4	24.4	0.00e+00	0	29	0	4068474880	38	6030
2026-01-11 03:26:48.27	334.22	9.35	-33.0	-33.6	24.1	0.00e+00	0	29	0	4091543552	38	6144
2026-01-11 03:26:52.31	334.45	9.03	-33.1	-33.8	24.0	0.00e+00	0	29	0	4114612224	38	6266
2026-01-11 03:26:56.35	334.69	8.72	-33.3	-33.9	23.8	0.00e+00	0	29	0	4136632320	38	6366
2026-01-11 03:27:00.39	334.91	8.41	-33.5	-34.2	23.6	0.00e+00	0	29	0	4159700992	38	6551
2026-01-11 03:27:04.43	335.14	8.10	-33.5	-34.2	23.5	0.00e+00	0	29	0	4182769664	38	6556
2026-01-11 03:27:08.47	335.36	7.79	-33.8	-34.6	23.3	0.00e+00	0	29	0	4204789760	40	6140
2026-01-11 03:27:12.50	335.57	7.49	-33.8	-34.5	23.3	0.00e+00	0	29	0	4227858432	40	6050
2026-01-11 03:27:16.54	335.79	7.19	-33.9	-34.6	23.0	0.00e+00	0	29	0	4250927104	40	6146
2026-01-11 03:27:20.58	335.99	6.90	-33.8	-34.6	23.0	0.00e+00	0	29	0	4272947200	40	6172
2026-01-11 03:27:24.62	336.20	6.61	-33.7	-34.5	23.1	0.00e+00	0	29	0	4296015872	40	6081
2026-01-11 03:27:28.65	336.40	6.32	-33.8	-34.5	22.8	0.00e+00	0	29	0	4319084544	40	6084
2026-01-11 03:27:32.70	336.59	6.03	-33.8	-34.5	22.6	0.00e+00	0	29	0	4341104640	40	6080
2026-01-11 03:27:36.74	336.79	5.75	-34.8	-35.6	21.0	0.00e+00	0	29	0	4364173312	40	6888
2026-01-11 03:27:40.78	336.98	5.47	-35.6	-36.7	19.6	0.00e+00	0	29	0	4387241984	42	6984
2026-01-11 03:27:44.81	337.16	5.19	-37.1	-38.4	17.6	0.00e+00	0	29	0	4409262080	46	6706
2026-01-11 03:27:48.85	337.35	4.92	-38.5	-40.1	15.0	0.00e+00	0	29	0	4432330752	48	7299
2026-01-11 03:27:52.88	337.53	4.65	-40.1	-42.7	12.0	2.79e-04	0	29	0	4455399424	52	7793
2026-01-11 03:27:56.92	337.71	4.38	-41.2	-44.8	8.9	2.21e-02	0	29	0	4477419520	54	8883
2026-01-11 03:28:00.97	337.88	4.11	-42.0	-47.5	5.7	3.44e-01	0	29	0	4500488192	56	10767
2026-01-11 03:28:05.01	338.05	3.85	-42.4	-50.1	3.8	8.29e-01	0	29	0	4504682496	56	14536
2026-01-11 03:28:09.05	338.22	3.58	-42.5	-53.7	3.6	8.44e-01	0	29	104	4504682496	56	21944
2026-01-11 03:28:13.08	338.39	3.32	-42.7	-55.0	3.6	8.45e-01	0	29	104	4504682496	56	25502
2026-01-11 03:28:17.12	338.55	3.07	-42.6	-54.8	3.5	8.46e-01	0	29	104	4504682496	58	22340
2026-01-11 03:28:21.16	338.71	2.81	-47.4	-59.5	3.6	8.45e-01	0	29	104	4504682496	60	33980
2026-01-11 03:28:25.20	338.87	2.56	-47.9	-60.0	3.6	8.45e-01	0	29	104	4504682496	60	36107
2026-01-11 03:28:29.24	339.03	2.31	-47.4	-60.0	3.6	8.44e-01	0	29	104	4504682496	60	36116
2026-01-11 03:28:33.28	339.18	2.06	-47.8	-59.9	3.6	8.45e-01	0	29	104	4504682496	60	35811
2026-01-11 03:28:37.32	339.34	1.81	-47.9	-60.0	3.6	8.45e-01	0	29	104	4504682496	60	36192
2026-01-11 03:28:41.35	339.49	1.57	-47.8	-60.0	3.6	8.45e-01	0	29	104	4504682496	60	36140
2026-01-11 03:28:45.39	339.63	1.32	-47.9	-60.0	3.6	8.46e-01	0	29	104	4504682496	60	36267
2026-01-11 03:28:49.43	339.78	1.08	-47.8	-59.9	3.6	8.45e-01	0	29	104	4504682496	60	35794
2026-01-11 03:28:53.47	339.92	0.84	-47.9	-60.0	3.6	8.45e-01	0	30	104	4504682496	60	36072
2026-01-11 03:28:57.51	340.06	0.60	-48.1	-60.2	3.6	8.45e-01	0	30	104	4504682496	60	37101
2026-01-11 03:29:01.55	340.20	0.37	-47.9	-60.0	3.6	8.45e-01	0	30	104	4504682496	60	36354
2026-01-11 03:29:05.59	340.34	0.13	-48.0	-60.1	3.6	8.46e-01	0	29	104	4504682496	60	36727
2026-01-11 03:29:09.63	340.48	-0.10	-48.0	-60.2	3.6	8.45e-01	0	29	104	4504682496	60	36776

#Closed at: 2026-01-11 03:29:09
#Recorded file [4504 MB]: D:/lorett/data/35029_260111_151352.dat