passes_logs/2026/01/11/R4.6S_Anadyr/R4.6S_Anadyr__20260111_193905_NOAA_20_JPSS-1_rec.log

#Pass ID: 20260111_193905_NOAA 20 (JPSS-1)
#Satellite: NOAA 20 (JPSS-1)
#Configuration: NOAA 20
#almurnet v.1.7.20251203
#Start time: 2026-01-11 19:39:07

#Version: 2.2.20231116
#Station: R4.6S_Anadyr
#Location: 177.4865 lon 64.73178 lat
#TLE: 1 43013U 17073A   26010.88944318  .00000078  00000+0  57801-4 0  9992
#TLE: 2 43013  98.7631 311.8723 0001655  45.1140 315.0170 14.19535117422152

#Time	Az	El	Level	Level2	SNR	BER	BlckErr	Temp	State	Recorded	gain1	gain2
2026-01-11 19:39:07.43	56.44	0.09	-48.1	-63.0	3.5	1.51e+00	0	27	0	0	60	51165
2026-01-11 19:39:10.45	56.21	0.24	-48.2	-63.4	3.6	1.51e+00	0	28	104	0	60	53301
2026-01-11 19:39:13.48	55.98	0.38	-48.1	-63.4	3.6	1.51e+00	0	29	104	0	60	53545
2026-01-11 19:39:16.51	55.74	0.53	-48.1	-63.3	3.6	1.51e+00	0	29	104	0	60	53140
2026-01-11 19:39:19.54	55.51	0.68	-48.0	-63.1	3.6	1.51e+00	0	29	104	0	60	51879
2026-01-11 19:39:22.57	55.27	0.83	-47.4	-62.6	3.6	1.51e+00	0	29	104	0	60	48745
2026-01-11 19:39:25.60	55.03	0.97	-46.5	-61.7	3.6	1.51e+00	0	29	104	0	60	44047
2026-01-11 19:39:28.63	54.78	1.12	-46.5	-61.7	3.6	1.51e+00	0	29	104	0	60	43784
2026-01-11 19:39:31.66	54.53	1.27	-46.5	-61.6	3.6	1.51e+00	0	29	104	0	60	43645
2026-01-11 19:39:34.69	54.28	1.42	-46.5	-61.6	3.6	1.51e+00	0	29	104	0	60	43645
2026-01-11 19:39:37.72	54.03	1.57	-46.5	-61.6	3.6	1.51e+00	0	29	104	0	60	43589
2026-01-11 19:39:40.75	53.78	1.72	-46.5	-61.7	3.6	1.51e+00	0	29	104	0	60	43818
2026-01-11 19:39:43.78	53.52	1.87	-46.5	-61.6	3.6	1.51e+00	0	29	104	0	60	43508
2026-01-11 19:39:46.80	53.26	2.02	-46.5	-61.6	3.6	1.51e+00	0	29	104	0	60	43247
2026-01-11 19:39:49.83	53.00	2.17	-46.5	-61.3	3.6	1.51e+00	0	29	104	0	60	42218
2026-01-11 19:39:52.86	52.73	2.32	-46.5	-61.6	3.6	1.51e+00	0	29	104	0	60	43615
2026-01-11 19:39:55.89	52.46	2.47	-46.6	-61.6	3.6	1.51e+00	0	29	104	0	60	43431
2026-01-11 19:39:58.92	52.19	2.62	-46.5	-61.2	3.6	1.51e+00	0	29	104	0	60	41451
2026-01-11 19:40:01.95	51.91	2.77	-46.5	-61.3	3.6	1.51e+00	0	29	104	0	60	42073
2026-01-11 19:40:04.98	51.64	2.92	-45.9	-53.5	6.4	8.99e-01	0	29	0	0	60	17109
2026-01-11 19:40:08.01	51.36	3.08	-45.6	-51.8	7.8	7.56e-04	0	30	0	5242880	60	14060
2026-01-11 19:40:11.04	51.07	3.23	-42.3	-44.6	16.0	2.16e-02	0	29	0	7340032	58	6896
2026-01-11 19:40:14.07	50.79	3.38	-42.7	-45.2	15.4	0.00e+00	0	29	0	8388608	58	7393
2026-01-11 19:40:17.09	50.50	3.53	-42.2	-44.4	16.4	0.00e+00	0	30	0	13631488	56	7589
2026-01-11 19:40:20.12	50.21	3.68	-41.8	-43.9	17.1	0.00e+00	0	30	0	19922944	56	7118
2026-01-11 19:40:23.15	49.91	3.84	-41.7	-43.7	17.3	0.00e+00	0	30	0	25165824	56	6976
2026-01-11 19:40:26.18	49.61	3.99	-41.7	-43.7	17.2	0.00e+00	0	30	0	31457280	56	6977
2026-01-11 19:40:29.20	49.31	4.14	-41.4	-43.3	17.8	0.00e+00	0	30	0	36700160	56	6653
2026-01-11 19:40:32.23	49.00	4.29	-41.2	-43.1	18.0	0.00e+00	0	30	0	41943040	56	6468
2026-01-11 19:40:35.26	48.69	4.45	-41.0	-42.8	18.3	0.00e+00	0	30	0	48234496	56	6251
2026-01-11 19:40:38.28	48.38	4.60	-41.0	-42.7	18.4	0.00e+00	0	30	0	53477376	56	6240
2026-01-11 19:40:41.31	48.07	4.75	-40.9	-42.6	18.5	0.00e+00	0	30	0	59768832	56	6160
2026-01-11 19:40:44.34	47.75	4.90	-41.0	-42.6	18.5	0.00e+00	0	30	0	65011712	56	6172
2026-01-11 19:40:47.37	47.43	5.06	-40.8	-42.4	18.7	0.00e+00	0	30	0	70254592	54	6716
2026-01-11 19:40:50.39	47.10	5.21	-40.7	-42.3	18.6	0.00e+00	0	30	0	76546048	54	6683
2026-01-11 19:40:53.42	46.77	5.36	-40.7	-42.3	18.9	0.00e+00	0	30	0	81788928	54	6643
2026-01-11 19:40:56.45	46.44	5.52	-40.4	-41.9	19.2	0.00e+00	0	30	0	88080384	54	6368
2026-01-11 19:40:59.48	46.10	5.67	-40.4	-41.9	19.3	0.00e+00	0	30	0	93323264	54	6349
2026-01-11 19:41:02.51	45.76	5.82	-40.2	-41.6	19.6	0.00e+00	0	30	0	99614720	54	6151
2026-01-11 19:41:05.54	45.42	5.97	-40.4	-41.9	19.3	0.00e+00	0	30	0	104857600	54	6319
2026-01-11 19:41:08.57	45.07	6.13	-40.3	-41.8	19.4	0.00e+00	0	30	0	110100480	54	6255
2026-01-11 19:41:11.60	44.72	6.28	-40.5	-42.0	19.3	0.00e+00	0	30	0	116391936	54	6408
2026-01-11 19:41:14.62	44.36	6.43	-40.4	-41.9	19.4	0.00e+00	0	30	0	121634816	54	6359
2026-01-11 19:41:17.65	44.00	6.58	-40.4	-41.9	19.5	0.00e+00	0	30	0	127926272	54	6319
2026-01-11 19:41:20.68	43.64	6.74	-40.3	-41.7	19.6	0.00e+00	0	30	0	133169152	54	6218
2026-01-11 19:41:23.71	43.28	6.89	-40.1	-41.5	19.7	0.00e+00	0	30	0	138412032	54	6100
2026-01-11 19:41:26.73	42.91	7.04	-40.1	-41.6	19.8	0.00e+00	0	30	0	144703488	54	6110
2026-01-11 19:41:29.76	42.53	7.19	-40.1	-41.5	19.7	0.00e+00	0	30	0	149946368	54	6090
2026-01-11 19:41:32.79	42.15	7.34	-40.5	-41.9	19.5	0.00e+00	0	30	0	156237824	54	6389
2026-01-11 19:41:35.81	41.77	7.49	-40.0	-41.4	19.9	0.00e+00	0	30	0	161480704	54	6004
2026-01-11 19:41:38.84	41.38	7.64	-39.9	-41.2	20.2	0.00e+00	0	30	0	167772160	54	5889
2026-01-11 19:41:41.87	40.99	7.79	-40.1	-41.5	20.0	0.00e+00	0	30	0	173015040	54	6035
2026-01-11 19:41:44.89	40.60	7.94	-40.0	-41.3	20.1	0.00e+00	0	30	0	178257920	54	5955
2026-01-11 19:41:47.92	40.20	8.09	-39.7	-41.0	20.4	0.00e+00	0	30	0	184549376	52	6398
2026-01-11 19:41:50.95	39.80	8.24	-39.6	-40.9	20.5	0.00e+00	0	30	0	189792256	52	6341
2026-01-11 19:41:53.98	39.39	8.39	-39.7	-41.0	20.6	0.00e+00	0	30	0	196083712	52	6417
2026-01-11 19:41:57.01	38.98	8.54	-39.6	-40.9	20.6	0.00e+00	0	30	0	201326592	52	6355
2026-01-11 19:42:00.03	38.56	8.69	-39.5	-40.8	20.7	0.00e+00	0	30	0	206569472	52	6273
2026-01-11 19:42:03.06	38.14	8.83	-39.6	-40.9	20.6	0.00e+00	0	30	0	212860928	52	6322
2026-01-11 19:42:06.09	37.72	8.98	-39.7	-41.0	20.5	0.00e+00	0	30	0	218103808	52	6431
2026-01-11 19:42:09.12	37.29	9.12	-39.6	-40.9	20.6	0.00e+00	0	30	0	224395264	52	6323
2026-01-11 19:42:12.15	36.85	9.27	-39.5	-40.8	20.7	0.00e+00	0	30	0	229638144	52	6265
2026-01-11 19:42:15.17	36.42	9.41	-39.4	-40.7	20.9	0.00e+00	0	30	0	234881024	52	6183
2026-01-11 19:42:18.20	35.97	9.55	-39.2	-40.3	21.2	0.00e+00	0	30	0	241172480	52	5953
2026-01-11 19:42:21.23	35.53	9.70	-38.9	-40.1	21.4	0.00e+00	0	30	0	246415360	52	5763
2026-01-11 19:42:24.26	35.08	9.84	-38.8	-39.9	21.4	0.00e+00	0	30	0	252706816	52	5673
2026-01-11 19:42:27.29	34.62	9.98	-38.5	-39.6	21.8	0.00e+00	0	30	0	257949696	50	6104
2026-01-11 19:42:30.32	34.16	10.12	-38.3	-39.4	22.1	0.00e+00	0	30	0	264241152	50	5968
2026-01-11 19:42:33.35	33.69	10.26	-38.0	-39.0	22.3	0.00e+00	0	29	0	269484032	50	5735
2026-01-11 19:42:36.37	33.23	10.39	-37.9	-38.9	22.4	0.00e+00	0	30	0	274726912	50	5694
2026-01-11 19:42:39.40	32.75	10.53	-38.1	-39.1	22.4	0.00e+00	0	30	0	281018368	50	5828
2026-01-11 19:42:42.43	32.28	10.67	-37.8	-38.8	22.5	0.00e+00	0	29	0	286261248	50	5593
2026-01-11 19:42:45.46	31.79	10.80	-37.8	-38.8	22.7	0.00e+00	0	29	0	292552704	48	6249
2026-01-11 19:42:48.48	31.31	10.93	-37.5	-38.5	23.0	0.00e+00	0	30	0	297795584	48	6049
2026-01-11 19:42:51.51	30.82	11.06	-37.9	-39.0	22.4	0.00e+00	0	30	0	303038464	48	6391
2026-01-11 19:42:54.54	30.32	11.19	-37.4	-38.4	23.0	0.00e+00	0	30	0	309329920	48	5984
2026-01-11 19:42:57.57	29.82	11.32	-37.2	-38.1	23.2	0.00e+00	0	30	0	314572800	48	5821
2026-01-11 19:43:00.60	29.31	11.45	-37.1	-38.0	23.2	0.00e+00	0	30	0	320864256	48	5758
2026-01-11 19:43:03.63	28.81	11.57	-37.1	-38.0	23.3	0.00e+00	0	30	0	326107136	48	5714
2026-01-11 19:43:06.65	28.29	11.70	-37.3	-38.2	23.2	0.00e+00	0	30	0	332398592	48	5862
2026-01-11 19:43:09.68	27.77	11.82	-37.3	-38.3	23.1	0.00e+00	0	29	0	337641472	48	5907
2026-01-11 19:43:12.71	27.25	11.94	-37.5	-38.5	22.9	0.00e+00	0	29	0	342884352	48	6059
2026-01-11 19:43:15.74	26.73	12.06	-37.5	-38.4	23.0	0.00e+00	0	30	0	349175808	48	6009
2026-01-11 19:43:18.76	26.20	12.18	-37.6	-38.6	22.7	0.00e+00	0	29	0	354418688	48	6154
2026-01-11 19:43:21.79	25.66	12.29	-37.7	-38.7	22.7	0.00e+00	0	29	0	360710144	48	6223
2026-01-11 19:43:24.82	25.12	12.40	-37.7	-38.7	22.8	0.00e+00	0	29	0	365953024	48	6193
2026-01-11 19:43:27.85	24.58	12.51	-37.6	-38.6	22.8	0.00e+00	0	29	0	371195904	48	6148
2026-01-11 19:43:30.87	24.03	12.62	-37.4	-38.3	23.0	0.00e+00	0	29	0	377487360	48	5953
2026-01-11 19:43:33.90	23.48	12.73	-37.5	-38.5	22.9	0.00e+00	0	29	0	382730240	48	6050
2026-01-11 19:43:36.93	22.92	12.83	-37.4	-38.3	23.0	0.00e+00	0	29	0	389021696	48	5936
2026-01-11 19:43:39.96	22.36	12.94	-37.4	-38.3	23.1	0.00e+00	0	29	0	394264576	48	5952
2026-01-11 19:43:42.99	21.80	13.04	-37.5	-38.5	23.0	0.00e+00	0	29	0	399507456	48	6058
2026-01-11 19:43:46.02	21.23	13.13	-37.4	-38.3	23.1	0.00e+00	0	29	0	405798912	48	5937
2026-01-11 19:43:49.04	20.66	13.23	-37.4	-38.4	23.1	0.00e+00	0	29	0	411041792	48	5974
2026-01-11 19:43:52.07	20.09	13.32	-37.3	-38.2	23.3	0.00e+00	0	29	0	417333248	48	5882
2026-01-11 19:43:55.10	19.51	13.41	-37.3	-38.2	23.2	0.00e+00	0	29	0	422576128	48	5863
2026-01-11 19:43:58.12	18.93	13.50	-37.0	-37.9	23.4	0.00e+00	0	29	0	428867584	48	5687
2026-01-11 19:44:01.15	18.34	13.59	-37.1	-38.0	23.3	0.00e+00	0	29	0	434110464	48	5743
2026-01-11 19:44:04.18	17.75	13.67	-37.3	-38.2	23.2	0.00e+00	0	29	0	439353344	48	5877
2026-01-11 19:44:07.20	17.16	13.75	-37.1	-38.1	23.3	0.00e+00	0	29	0	445644800	48	5771
2026-01-11 19:44:10.24	16.57	13.82	-37.3	-38.2	23.1	0.00e+00	0	29	0	450887680	48	5865
2026-01-11 19:44:13.27	15.97	13.90	-37.3	-38.3	23.2	0.00e+00	0	29	0	457179136	48	5897
2026-01-11 19:44:16.30	15.37	13.97	-37.5	-38.5	22.9	0.00e+00	0	29	0	462422016	48	6060
2026-01-11 19:44:19.33	14.76	14.04	-37.6	-38.5	22.9	0.00e+00	0	29	0	467664896	48	6080
2026-01-11 19:44:22.35	14.16	14.10	-37.6	-38.6	22.9	0.00e+00	0	29	0	473956352	48	6109
2026-01-11 19:44:25.38	13.55	14.16	-38.0	-39.0	22.5	0.00e+00	0	29	0	479199232	48	6463
2026-01-11 19:44:28.41	12.93	14.22	-37.9	-38.9	22.6	0.00e+00	0	29	0	485490688	48	6362
2026-01-11 19:44:31.44	12.32	14.28	-38.0	-39.0	22.6	0.00e+00	0	29	0	490733568	48	6402
2026-01-11 19:44:34.46	11.70	14.33	-37.9	-38.9	22.7	0.00e+00	0	29	0	497025024	48	6331
2026-01-11 19:44:37.49	11.08	14.38	-37.3	-38.3	23.2	0.00e+00	0	29	0	502267904	48	5903
2026-01-11 19:44:40.51	10.47	14.43	-37.6	-38.5	23.0	0.00e+00	0	29	0	507510784	48	6092
2026-01-11 19:44:43.54	9.84	14.47	-37.5	-38.4	23.1	0.00e+00	0	29	0	513802240	48	6008
2026-01-11 19:44:46.57	9.22	14.51	-37.3	-38.2	23.2	0.00e+00	0	29	0	519045120	48	5869
2026-01-11 19:44:49.60	8.59	14.55	-37.6	-38.6	22.8	0.00e+00	0	29	0	525336576	48	6140
2026-01-11 19:44:52.63	7.96	14.58	-37.5	-38.4	23.1	0.00e+00	0	29	0	530579456	48	6014
2026-01-11 19:44:55.66	7.33	14.61	-37.5	-38.5	23.0	0.00e+00	0	29	0	535822336	48	6067
2026-01-11 19:44:58.69	6.70	14.63	-37.7	-38.7	22.9	0.00e+00	0	29	0	542113792	48	6175
2026-01-11 19:45:01.72	6.07	14.66	-37.4	-38.4	23.1	0.00e+00	0	29	0	547356672	48	5998
2026-01-11 19:45:04.74	5.44	14.67	-37.4	-38.4	23.2	0.00e+00	0	29	0	553648128	48	5984
2026-01-11 19:45:07.77	4.81	14.69	-37.4	-38.4	23.2	0.00e+00	0	29	0	558891008	48	5975
2026-01-11 19:45:10.80	4.18	14.70	-37.2	-38.2	23.3	0.00e+00	0	29	0	565182464	48	5853
2026-01-11 19:45:13.83	3.54	14.71	-37.4	-38.4	23.1	0.00e+00	0	29	0	570425344	48	5977
2026-01-11 19:45:16.86	2.91	14.72	-37.6	-38.6	23.0	0.00e+00	0	29	0	575668224	48	6112
2026-01-11 19:45:19.88	2.28	14.72	-37.7	-38.7	22.9	0.00e+00	0	29	0	581959680	48	6175
2026-01-11 19:45:22.91	1.64	14.71	-37.2	-38.1	23.4	0.00e+00	0	29	0	587202560	48	5826
2026-01-11 19:45:25.94	1.01	14.71	-37.3	-38.3	23.2	0.00e+00	0	29	0	593494016	48	5902
2026-01-11 19:45:28.97	0.37	14.70	-37.2	-38.2	23.3	0.00e+00	0	29	0	598736896	48	5847
2026-01-11 19:45:32.00	359.74	14.69	-37.3	-38.2	23.2	0.00e+00	0	29	0	603979776	48	5863
2026-01-11 19:45:35.03	359.11	14.67	-37.6	-38.6	23.0	0.00e+00	0	29	0	610271232	48	6105
2026-01-11 19:45:38.05	358.48	14.65	-37.9	-38.9	22.6	0.00e+00	0	29	0	615514112	48	6348
2026-01-11 19:45:41.07	357.85	14.63	-37.7	-38.7	22.8	0.00e+00	0	29	0	621805568	48	6242
2026-01-11 19:45:44.10	357.22	14.60	-37.5	-38.5	23.0	0.00e+00	0	29	0	627048448	48	6035
2026-01-11 19:45:47.12	356.59	14.57	-37.7	-38.6	22.9	0.00e+00	0	29	0	632291328	48	6173
2026-01-11 19:45:50.15	355.96	14.54	-37.9	-38.9	22.6	0.00e+00	0	29	0	638582784	48	6388
2026-01-11 19:45:53.18	355.34	14.50	-37.9	-39.0	22.6	0.00e+00	0	29	0	643825664	48	6408
2026-01-11 19:45:56.21	354.71	14.46	-37.7	-38.7	22.8	0.00e+00	0	29	0	650117120	48	6209
2026-01-11 19:45:59.23	354.09	14.42	-37.3	-38.3	23.2	0.00e+00	0	29	0	655360000	48	5908
2026-01-11 19:46:02.26	353.47	14.37	-37.6	-38.6	22.8	0.00e+00	0	29	0	661651456	48	6154
2026-01-11 19:46:05.29	352.85	14.32	-37.8	-38.8	22.7	0.00e+00	0	29	0	666894336	48	6309
2026-01-11 19:46:08.32	352.24	14.27	-37.3	-38.2	23.3	0.00e+00	0	29	0	672137216	48	5867
2026-01-11 19:46:11.35	351.62	14.21	-37.2	-38.2	23.3	0.00e+00	0	28	0	678428672	48	5836
2026-01-11 19:46:14.37	351.01	14.15	-37.3	-38.2	23.3	0.00e+00	0	29	0	683671552	48	5856
2026-01-11 19:46:17.40	350.40	14.09	-37.3	-38.2	23.2	0.00e+00	0	28	0	689963008	48	5888
2026-01-11 19:46:20.43	349.80	14.03	-37.5	-38.4	23.1	0.00e+00	0	29	0	695205888	48	6009
2026-01-11 19:46:23.46	349.19	13.96	-37.5	-38.5	23.0	0.00e+00	0	29	0	700448768	48	6061
2026-01-11 19:46:26.49	348.59	13.89	-37.5	-38.5	23.0	0.00e+00	0	28	0	706740224	48	6070
2026-01-11 19:46:29.53	347.99	13.81	-37.5	-38.5	23.0	0.00e+00	0	28	0	711983104	48	6077
2026-01-11 19:46:32.56	347.40	13.73	-37.6	-38.7	22.7	0.00e+00	0	28	0	718274560	48	6180
2026-01-11 19:46:35.59	346.81	13.65	-37.5	-38.6	22.9	0.00e+00	0	29	0	723517440	48	6105
2026-01-11 19:46:38.61	346.22	13.57	-37.6	-38.6	22.8	0.00e+00	0	29	0	729808896	48	6146
2026-01-11 19:46:41.64	345.64	13.49	-37.6	-38.7	22.8	0.00e+00	0	29	0	735051776	48	6220
2026-01-11 19:46:44.67	345.05	13.40	-37.8	-38.8	22.7	0.00e+00	0	29	0	740294656	48	6304
2026-01-11 19:46:47.69	344.48	13.31	-37.4	-38.5	23.0	0.00e+00	0	28	0	746586112	48	6072
2026-01-11 19:46:50.72	343.90	13.21	-37.2	-38.3	23.1	0.00e+00	0	29	0	751828992	48	5934
2026-01-11 19:46:53.75	343.33	13.12	-37.2	-38.2	23.2	0.00e+00	0	28	0	758120448	48	5880
2026-01-11 19:46:56.78	342.77	13.02	-37.3	-38.4	22.7	0.00e+00	0	28	0	763363328	48	6004
2026-01-11 19:46:59.81	342.20	12.92	-37.3	-38.3	23.1	0.00e+00	0	28	0	768606208	48	5953
2026-01-11 19:47:02.84	341.64	12.82	-37.2	-38.2	23.3	0.00e+00	0	28	0	774897664	48	5864
2026-01-11 19:47:05.87	341.09	12.71	-37.4	-38.5	23.0	0.00e+00	0	28	0	780140544	48	6042
2026-01-11 19:47:08.89	340.54	12.60	-37.3	-38.3	23.1	0.00e+00	0	28	0	786432000	48	5945
2026-01-11 19:47:11.92	339.99	12.50	-37.2	-38.2	23.1	0.00e+00	0	28	0	791674880	48	5861
2026-01-11 19:47:14.95	339.45	12.38	-37.3	-38.3	23.2	0.00e+00	0	28	0	797966336	48	5919
2026-01-11 19:47:17.98	338.91	12.27	-37.3	-38.3	23.0	0.00e+00	0	28	0	803209216	48	5926
2026-01-11 19:47:21.00	338.38	12.16	-37.4	-38.4	23.0	0.00e+00	0	28	0	808452096	48	6012
2026-01-11 19:47:24.03	337.85	12.04	-37.4	-38.4	23.0	0.00e+00	0	28	0	814743552	48	5982
2026-01-11 19:47:27.06	337.32	11.92	-37.6	-38.7	22.7	0.00e+00	0	28	0	819986432	48	6192
2026-01-11 19:47:30.09	336.80	11.80	-37.9	-39.0	22.5	0.00e+00	0	28	0	826277888	48	6415
2026-01-11 19:47:33.12	336.29	11.68	-38.1	-39.2	22.3	0.00e+00	0	28	0	831520768	48	6559
2026-01-11 19:47:36.15	335.77	11.55	-38.3	-39.3	22.1	0.00e+00	0	28	0	836763648	48	6686
2026-01-11 19:47:39.17	335.27	11.43	-38.6	-39.8	21.8	0.00e+00	0	28	0	843055104	48	7014
2026-01-11 19:47:42.20	334.76	11.30	-38.6	-39.7	21.6	0.00e+00	0	28	0	848297984	48	6986
2026-01-11 19:47:45.23	334.26	11.17	-38.9	-40.0	21.5	0.00e+00	0	28	0	854589440	50	6445
2026-01-11 19:47:48.25	333.77	11.04	-39.2	-40.3	21.3	0.00e+00	0	28	0	859832320	50	6667
2026-01-11 19:47:51.28	333.28	10.91	-39.3	-40.5	21.1	0.00e+00	0	28	0	865075200	50	6783
2026-01-11 19:47:54.31	332.79	10.78	-39.5	-40.7	20.8	0.00e+00	0	28	0	871366656	50	6999
2026-01-11 19:47:57.34	332.31	10.64	-39.5	-40.7	20.9	0.00e+00	0	28	0	876609536	50	6963
2026-01-11 19:48:00.37	331.83	10.51	-39.8	-41.0	20.6	0.00e+00	0	28	0	882900992	52	6453
2026-01-11 19:48:03.40	331.36	10.37	-40.2	-41.5	20.0	0.00e+00	0	28	0	888143872	52	6820
2026-01-11 19:48:06.42	330.90	10.23	-40.2	-41.6	20.0	0.00e+00	0	28	0	894435328	52	6877
2026-01-11 19:48:09.45	330.43	10.10	-40.2	-41.5	20.0	0.00e+00	0	28	0	899678208	52	6841
2026-01-11 19:48:12.48	329.97	9.96	-40.3	-41.6	20.0	0.00e+00	0	28	0	904921088	52	6910
2026-01-11 19:48:15.50	329.52	9.82	-40.5	-42.0	19.7	0.00e+00	0	28	0	911212544	52	7174
2026-01-11 19:48:18.53	329.07	9.67	-40.7	-42.2	19.4	0.00e+00	0	28	0	916455424	54	6597
2026-01-11 19:48:21.56	328.62	9.53	-40.6	-42.0	19.5	0.00e+00	0	28	0	922746880	54	6462
2026-01-11 19:48:24.59	328.18	9.39	-40.5	-42.0	19.6	0.00e+00	0	28	0	927989760	54	6399
2026-01-11 19:48:27.61	327.75	9.25	-40.4	-41.8	19.8	0.00e+00	0	28	0	933232640	54	6270
2026-01-11 19:48:30.64	327.31	9.10	-40.5	-42.0	19.5	0.00e+00	0	28	0	939524096	54	6428
2026-01-11 19:48:33.67	326.89	8.96	-40.5	-41.9	19.6	0.00e+00	0	28	0	944766976	54	6384
2026-01-11 19:48:36.70	326.46	8.81	-40.2	-41.5	20.0	0.00e+00	0	28	0	951058432	54	6099
2026-01-11 19:48:39.73	326.04	8.66	-40.0	-41.4	20.1	0.00e+00	0	28	0	956301312	54	5970
2026-01-11 19:48:42.76	325.63	8.51	-40.1	-41.4	20.0	0.00e+00	0	28	0	962592768	54	6032
2026-01-11 19:48:45.78	325.22	8.37	-40.1	-41.5	20.2	0.00e+00	0	28	0	967835648	54	6036
2026-01-11 19:48:48.81	324.81	8.22	-39.7	-41.0	20.4	0.00e+00	0	28	0	973078528	54	5727
2026-01-11 19:48:51.84	324.41	8.07	-39.7	-41.0	20.5	0.00e+00	0	28	0	979369984	52	6446
2026-01-11 19:48:54.87	324.01	7.92	-39.5	-40.7	20.7	0.00e+00	0	28	0	984612864	52	6242
2026-01-11 19:48:57.89	323.62	7.77	-39.2	-40.4	21.0	0.00e+00	0	28	0	990904320	52	6009
2026-01-11 19:49:00.93	323.23	7.62	-39.0	-40.1	21.3	0.00e+00	0	28	0	996147200	52	5814
2026-01-11 19:49:03.95	322.84	7.47	-39.2	-40.3	21.1	0.00e+00	0	28	0	1001390080	52	5964
2026-01-11 19:49:06.97	322.46	7.32	-38.9	-40.0	21.3	0.00e+00	0	28	0	1007681536	50	6453
2026-01-11 19:49:09.99	322.09	7.17	-38.6	-39.7	21.6	0.00e+00	0	28	0	1012924416	50	6191
2026-01-11 19:49:13.02	321.71	7.02	-38.7	-39.8	21.5	0.00e+00	0	28	0	1019215872	50	6284
2026-01-11 19:49:16.05	321.34	6.87	-38.5	-39.6	21.7	0.00e+00	0	28	0	1024458752	50	6135
2026-01-11 19:49:19.08	320.98	6.71	-38.9	-40.1	21.1	0.00e+00	0	28	0	1029701632	50	6511
2026-01-11 19:49:22.11	320.61	6.56	-38.5	-39.6	21.6	0.00e+00	0	28	0	1035993088	50	6136
2026-01-11 19:49:25.14	320.26	6.41	-38.6	-39.7	21.6	0.00e+00	0	28	0	1041235968	50	6222
2026-01-11 19:49:28.17	319.90	6.26	-38.3	-39.4	21.7	0.00e+00	0	28	0	1047527424	50	6018
2026-01-11 19:49:31.20	319.55	6.10	-38.7	-39.9	21.3	0.00e+00	0	28	0	1052770304	50	6351
2026-01-11 19:49:34.22	319.20	5.95	-38.5	-39.6	21.6	0.00e+00	0	28	0	1059061760	50	6159
2026-01-11 19:49:37.25	318.86	5.80	-38.6	-39.7	21.4	0.00e+00	0	28	0	1064304640	50	6240
2026-01-11 19:49:40.28	318.52	5.65	-38.5	-39.6	21.5	0.00e+00	0	28	0	1069547520	50	6164
2026-01-11 19:49:43.30	318.19	5.49	-38.4	-39.5	21.5	0.00e+00	0	28	0	1075838976	50	6091
2026-01-11 19:49:46.33	317.86	5.34	-38.9	-40.1	21.0	0.00e+00	0	28	0	1081081856	50	6523
2026-01-11 19:49:49.36	317.53	5.19	-38.7	-39.9	21.1	0.00e+00	0	28	0	1087373312	50	6338
2026-01-11 19:49:52.39	317.20	5.04	-39.0	-40.3	20.8	0.00e+00	0	28	0	1092616192	50	6627
2026-01-11 19:49:55.42	316.88	4.88	-38.9	-40.1	20.9	0.00e+00	0	28	0	1097859072	50	6524
2026-01-11 19:49:58.45	316.56	4.73	-38.8	-40.0	21.1	0.00e+00	0	28	0	1104150528	50	6442
2026-01-11 19:50:01.47	316.25	4.58	-39.1	-40.3	20.8	0.00e+00	0	28	0	1109393408	50	6646
2026-01-11 19:50:04.50	315.94	4.42	-38.9	-40.1	20.9	0.00e+00	0	28	0	1115684864	50	6519
2026-01-11 19:50:07.53	315.63	4.27	-39.3	-40.6	20.3	0.00e+00	0	28	0	1120927744	50	6921
2026-01-11 19:50:10.55	315.33	4.12	-39.5	-40.8	20.1	0.00e+00	0	28	0	1127219200	50	7022
2026-01-11 19:50:13.58	315.02	3.97	-39.8	-41.2	19.6	0.00e+00	0	28	0	1132462080	52	6605
2026-01-11 19:50:16.61	314.73	3.81	-39.9	-41.3	19.7	0.00e+00	0	28	0	1137704960	52	6652
2026-01-11 19:50:19.63	314.43	3.66	-40.2	-41.7	19.3	0.00e+00	0	28	0	1143996416	52	6980
2026-01-11 19:50:22.66	314.14	3.51	-40.4	-42.0	19.0	0.00e+00	0	28	0	1149239296	52	7177
2026-01-11 19:50:25.68	313.85	3.36	-40.3	-41.8	19.1	0.00e+00	0	28	0	1155530752	54	6304
2026-01-11 19:50:28.71	313.57	3.21	-40.9	-42.6	18.3	0.00e+00	0	28	0	1160773632	54	6913
2026-01-11 19:50:31.74	313.28	3.06	-40.7	-42.3	18.6	0.00e+00	0	28	0	1166016512	54	6686
2026-01-11 19:50:34.77	313.00	2.90	-47.9	-63.1	3.5	1.51e+00	0	28	104	1168113664	60	51477
2026-01-11 19:50:37.80	312.73	2.75	-48.3	-63.4	3.6	1.51e+00	0	28	104	1168113664	60	53618
2026-01-11 19:50:40.83	312.45	2.60	-48.3	-63.5	3.6	1.51e+00	0	28	104	1168113664	60	54003
2026-01-11 19:50:43.86	312.18	2.45	-47.9	-63.4	3.6	1.51e+00	0	28	104	1168113664	60	53183
2026-01-11 19:50:46.89	311.91	2.30	-48.1	-63.3	3.6	1.51e+00	0	28	104	1168113664	60	52766
2026-01-11 19:50:49.92	311.65	2.15	-48.2	-63.4	3.6	1.51e+00	0	28	104	1168113664	60	53405
2026-01-11 19:50:52.95	311.39	2.00	-48.2	-63.3	3.6	1.51e+00	0	28	104	1168113664	60	52945
2026-01-11 19:50:55.98	311.13	1.85	-48.1	-63.3	3.6	1.51e+00	0	28	104	1168113664	60	52805
2026-01-11 19:50:59.01	310.87	1.70	-48.1	-63.3	3.6	1.51e+00	0	28	104	1168113664	60	52673
2026-01-11 19:51:02.04	310.61	1.55	-48.2	-63.4	3.6	1.51e+00	0	28	104	1168113664	60	53254
2026-01-11 19:51:05.07	310.36	1.40	-48.2	-63.4	3.6	1.51e+00	0	28	104	1168113664	60	53580
2026-01-11 19:51:08.10	310.11	1.25	-48.1	-63.3	3.6	1.51e+00	0	28	104	1168113664	60	52781
2026-01-11 19:51:11.13	309.87	1.10	-48.2	-63.3	3.6	1.51e+00	0	28	104	1168113664	60	52832
2026-01-11 19:51:14.16	309.62	0.96	-48.2	-63.4	3.6	1.51e+00	0	28	104	1168113664	60	53208
2026-01-11 19:51:17.19	309.38	0.81	-48.2	-63.4	3.6	1.51e+00	0	28	104	1168113664	60	53166
2026-01-11 19:51:20.21	309.14	0.66	-48.2	-63.4	3.6	1.51e+00	0	28	104	1168113664	60	53162
2026-01-11 19:51:23.24	308.91	0.51	-48.2	-63.4	3.6	1.51e+00	0	28	104	1168113664	60	53317
2026-01-11 19:51:26.27	308.67	0.37	-48.2	-63.3	3.6	1.51e+00	0	28	104	1168113664	60	53030
2026-01-11 19:51:29.29	308.44	0.22	-48.2	-63.4	3.6	1.51e+00	0	28	104	1168113664	60	53285
2026-01-11 19:51:32.32	308.21	0.07	-48.2	-63.4	3.6	1.51e+00	0	28	104	1168113664	60	53319
2026-01-11 19:51:35.35	307.99	-0.07	-48.1	-63.3	3.6	1.51e+00	0	28	104	1168113664	60	52897

#Closed at: 2026-01-11 19:51:35
#Recorded file [1168 MB]: D:/lorett/data/35029_260112_073907.dat