passes_logs/2026/01/11/R4.6S_Anadyr/R4.6S_Anadyr__20260111_025041_AQUA_rec.log

#Pass ID: 20260111_025041_AQUA
#Satellite: AQUA
#Configuration: AQUA
#almurnet v.1.7.20251203
#Start time: 2026-01-11 02:50:42

#Version: 2.2.20231116
#Station: R4.6S_Anadyr
#Location: 177.4865 lon 64.73178 lat
#TLE: 1 27424U 02022A   26009.89520876  .00001045  00000+0  21914-3 0  9996
#TLE: 2 27424  98.4076 336.2372 0002032  84.5955   1.0356 14.61811442260144

#Time	Az	El	Level	Level2	SNR	BER	BlckErr	Temp	State	Recorded	gain1	gain2
2026-01-11 02:50:42.91	180.40	0.10	-48.0	-62.9	3.5	1.51e+00	0	28	0	0	60	50436
2026-01-11 02:50:46.95	180.54	0.35	-47.8	-66.1	3.5	3.02e+01	0	29	104	0	60	78091
2026-01-11 02:50:50.98	180.68	0.59	-48.3	-66.1	3.5	3.02e+01	0	29	104	0	60	78097
2026-01-11 02:50:55.02	180.83	0.84	-47.9	-65.6	3.5	3.02e+01	0	29	104	0	60	73385
2026-01-11 02:50:59.06	180.98	1.09	-46.6	-64.5	3.5	3.02e+01	0	29	104	0	60	64895
2026-01-11 02:51:03.10	181.13	1.35	-46.6	-64.3	3.5	3.02e+01	0	29	104	0	60	63284
2026-01-11 02:51:07.14	181.28	1.60	-46.6	-64.7	3.5	3.02e+01	0	29	104	0	60	66459
2026-01-11 02:51:11.19	181.44	1.86	-46.6	-64.7	3.5	3.02e+01	0	29	104	0	60	66188
2026-01-11 02:51:15.23	181.60	2.12	-46.6	-64.6	3.5	3.02e+01	0	29	104	0	60	65117
2026-01-11 02:51:19.26	181.76	2.38	-46.6	-64.3	3.5	3.02e+01	0	29	104	0	60	63235
2026-01-11 02:51:23.31	181.93	2.65	-46.6	-64.3	3.5	3.02e+01	0	29	104	0	60	62783
2026-01-11 02:51:27.34	182.10	2.92	-46.4	-59.9	5.0	3.02e+01	0	29	104	0	60	38108
2026-01-11 02:51:31.39	182.27	3.19	-45.6	-53.4	11.0	3.02e+01	92	29	0	0	60	17980
2026-01-11 02:51:35.42	182.44	3.46	-39.3	-41.2	23.0	3.02e+01	92	29	0	7864320	54	6240
2026-01-11 02:51:39.46	182.62	3.74	-37.7	-39.3	24.8	3.02e+01	90	29	0	15204352	50	6319
2026-01-11 02:51:43.51	182.80	4.02	-38.1	-39.8	23.4	3.02e+01	92	29	0	23068672	50	6689
2026-01-11 02:51:47.54	182.99	4.30	-37.9	-39.5	25.1	3.02e+01	90	29	0	26738688	50	6492
2026-01-11 02:51:51.58	183.17	4.58	-36.5	-38.0	26.3	3.02e+01	92	29	0	34078720	48	6068
2026-01-11 02:51:55.62	183.37	4.87	-36.5	-38.0	26.4	3.02e+01	91	29	0	41943040	48	6087
2026-01-11 02:51:59.65	183.56	5.16	-36.4	-37.9	26.5	3.02e+01	90	29	0	49283072	48	6037
2026-01-11 02:52:03.69	183.76	5.46	-36.3	-37.8	26.6	3.02e+01	91	29	0	57147392	48	5969
2026-01-11 02:52:07.73	183.97	5.76	-36.1	-37.5	26.8	3.02e+01	92	29	0	64487424	48	5777
2026-01-11 02:52:11.77	184.18	6.06	-36.0	-37.4	26.9	3.02e+01	90	29	0	71827456	48	5723
2026-01-11 02:52:15.81	184.39	6.37	-36.1	-37.5	27.0	3.02e+01	92	29	0	79691776	46	6469
2026-01-11 02:52:19.84	184.61	6.67	-36.0	-37.3	27.2	3.02e+01	92	29	0	87031808	46	6338
2026-01-11 02:52:23.87	184.83	6.99	-35.8	-37.1	27.4	3.02e+01	90	29	0	94896128	46	6177
2026-01-11 02:52:27.92	185.06	7.31	-35.9	-37.2	27.3	3.02e+01	92	29	0	102236160	46	6248
2026-01-11 02:52:31.96	185.29	7.63	-35.6	-36.9	27.5	3.02e+01	92	29	0	110100480	46	6063
2026-01-11 02:52:36.00	185.53	7.95	-35.4	-36.7	27.7	3.02e+01	91	29	0	117440512	46	5922
2026-01-11 02:52:40.03	185.77	8.28	-35.4	-36.8	27.7	3.02e+01	90	29	0	125304832	46	5950
2026-01-11 02:52:44.07	186.02	8.62	-35.4	-36.8	27.7	3.02e+01	90	29	0	132644864	46	5942
2026-01-11 02:52:48.11	186.28	8.96	-35.3	-36.7	27.8	3.02e+01	92	29	0	139984896	46	5888
2026-01-11 02:52:52.15	186.54	9.30	-35.1	-36.5	28.0	3.02e+01	91	29	0	147849216	46	5755
2026-01-11 02:52:56.18	186.81	9.65	-34.9	-36.2	28.2	3.02e+01	92	29	0	155189248	44	6242
2026-01-11 02:53:00.23	187.08	10.01	-34.8	-36.1	28.4	3.02e+01	92	29	0	163053568	44	6169
2026-01-11 02:53:04.26	187.36	10.36	-35.0	-36.3	28.2	3.02e+01	90	29	0	170393600	44	6326
2026-01-11 02:53:08.30	187.65	10.73	-34.9	-36.2	28.3	3.02e+01	92	29	0	178257920	44	6266
2026-01-11 02:53:12.34	187.95	11.10	-34.8	-36.1	28.4	3.02e+01	92	29	0	185597952	44	6153
2026-01-11 02:53:16.38	188.25	11.48	-34.5	-35.8	28.7	3.02e+01	91	29	0	193462272	44	5974
2026-01-11 02:53:20.42	188.57	11.86	-34.9	-36.2	28.5	3.02e+01	92	29	0	200802304	44	6222
2026-01-11 02:53:24.46	188.89	12.25	-34.7	-36.0	28.6	3.02e+01	90	29	0	208142336	44	6115
2026-01-11 02:53:28.50	189.22	12.64	-34.3	-35.6	28.9	3.02e+01	92	29	0	216006656	44	5821
2026-01-11 02:53:32.53	189.56	13.04	-34.3	-35.6	28.9	3.02e+01	91	29	0	223346688	44	5833
2026-01-11 02:53:36.57	189.90	13.45	-34.4	-35.7	28.8	3.02e+01	92	29	0	231211008	44	5875
2026-01-11 02:53:40.60	190.26	13.86	-34.3	-35.6	29.0	3.02e+01	92	29	0	238551040	44	5813
2026-01-11 02:53:44.64	190.63	14.28	-34.1	-35.4	29.2	3.02e+01	92	29	0	246415360	44	5667
2026-01-11 02:53:48.68	191.01	14.71	-34.1	-35.3	29.1	3.02e+01	92	29	0	253755392	44	5645
2026-01-11 02:53:52.72	191.40	15.15	-34.1	-35.4	29.2	3.02e+01	92	29	0	261095424	44	5664
2026-01-11 02:53:56.76	191.81	15.59	-34.0	-35.2	29.3	3.02e+01	92	28	0	268959744	44	5548
2026-01-11 02:54:00.79	192.22	16.04	-33.9	-35.1	29.4	3.02e+01	91	29	0	276299776	42	6190
2026-01-11 02:54:04.83	192.65	16.50	-34.1	-35.3	29.3	3.02e+01	89	28	0	284164096	42	6346
2026-01-11 02:54:08.87	193.09	16.97	-34.0	-35.3	29.4	3.02e+01	91	29	0	291504128	42	6294
2026-01-11 02:54:12.91	193.55	17.44	-33.9	-35.1	29.7	3.02e+01	92	28	0	299368448	42	6200
2026-01-11 02:54:16.94	194.02	17.92	-33.9	-35.1	29.6	3.02e+01	92	28	0	306708480	42	6165
2026-01-11 02:54:20.99	194.51	18.42	-33.8	-35.0	29.6	3.02e+01	92	28	0	314572800	42	6089
2026-01-11 02:54:25.03	195.02	18.92	-34.1	-35.3	29.5	3.02e+01	90	28	0	321912832	42	6288
2026-01-11 02:54:29.06	195.54	19.43	-33.9	-35.1	29.6	3.02e+01	92	28	0	329252864	42	6165
2026-01-11 02:54:33.10	196.08	19.95	-34.1	-35.3	29.4	3.02e+01	92	28	0	337117184	42	6305
2026-01-11 02:54:37.14	196.64	20.48	-33.9	-35.1	29.5	3.02e+01	92	28	0	344457216	42	6154
2026-01-11 02:54:41.17	197.22	21.02	-34.2	-35.4	29.4	3.02e+01	90	28	0	352321536	42	6391
2026-01-11 02:54:45.21	197.82	21.57	-34.2	-35.4	29.3	3.02e+01	92	28	0	359661568	42	6392
2026-01-11 02:54:49.25	198.44	22.13	-34.3	-35.5	29.2	3.02e+01	92	28	0	367525888	42	6474
2026-01-11 02:54:53.29	199.09	22.71	-34.3	-35.5	29.3	3.02e+01	92	28	0	374865920	42	6463
2026-01-11 02:54:57.32	199.76	23.29	-34.3	-35.5	29.3	3.02e+01	92	28	0	382205952	42	6444
2026-01-11 02:55:01.36	200.46	23.88	-34.4	-35.6	29.1	3.02e+01	92	28	0	390070272	42	6569
2026-01-11 02:55:05.40	201.18	24.48	-34.3	-35.5	29.3	3.02e+01	92	28	0	397410304	42	6498
2026-01-11 02:55:09.44	201.94	25.09	-34.2	-35.4	29.3	3.02e+01	92	28	0	405274624	42	6409
2026-01-11 02:55:13.48	202.72	25.72	-34.3	-35.5	29.3	3.02e+01	92	28	0	412614656	42	6433
2026-01-11 02:55:17.51	203.54	26.35	-34.2	-35.4	29.4	3.02e+01	92	28	0	420478976	42	6372
2026-01-11 02:55:21.55	204.39	27.00	-34.4	-35.6	29.3	3.02e+01	92	28	0	427819008	42	6526
2026-01-11 02:55:25.59	205.28	27.65	-34.4	-35.6	29.2	3.02e+01	92	28	0	435683328	42	6565
2026-01-11 02:55:29.63	206.20	28.31	-34.2	-35.4	29.3	3.02e+01	90	28	0	443023360	42	6410
2026-01-11 02:55:33.66	207.16	28.99	-34.4	-35.6	29.2	3.02e+01	92	28	0	450363392	42	6564
2026-01-11 02:55:37.70	208.17	29.67	-34.5	-35.7	29.3	3.02e+01	92	28	0	458227712	44	5904
2026-01-11 02:55:41.74	209.22	30.36	-34.2	-35.4	29.4	3.02e+01	90	28	0	465567744	44	5673
2026-01-11 02:55:45.78	210.32	31.06	-34.3	-35.5	29.3	3.02e+01	90	28	0	473432064	44	5775
2026-01-11 02:55:49.82	211.47	31.76	-34.3	-35.6	29.2	3.02e+01	90	28	0	480772096	44	5798
2026-01-11 02:55:53.86	212.67	32.47	-34.5	-35.7	29.2	3.02e+01	90	28	0	488636416	44	5880
2026-01-11 02:55:57.90	213.92	33.18	-35.3	-36.5	28.7	3.02e+01	88	28	0	495976448	44	6470
2026-01-11 02:56:01.94	215.23	33.90	-34.9	-36.1	28.9	3.02e+01	92	28	0	503840768	44	6161
2026-01-11 02:56:05.98	216.60	34.62	-34.7	-36.0	28.9	3.02e+01	85	28	0	511180800	44	6070
2026-01-11 02:56:10.02	218.04	35.33	-34.8	-36.0	28.8	3.02e+01	93	28	0	518520832	44	6122
2026-01-11 02:56:14.06	219.53	36.05	-34.9	-36.1	29.0	3.02e+01	92	28	0	526385152	44	6159
2026-01-11 02:56:18.09	221.09	36.75	-35.3	-36.5	28.5	3.02e+01	92	28	0	533725184	44	6485
2026-01-11 02:56:22.13	222.73	37.45	-35.1	-36.3	28.8	3.02e+01	92	28	0	541589504	44	6327
2026-01-11 02:56:26.16	224.43	38.14	-34.8	-36.0	29.0	3.02e+01	92	28	0	548929536	44	6100
2026-01-11 02:56:30.20	226.21	38.81	-34.6	-35.9	29.1	3.02e+01	92	28	0	556793856	44	6010
2026-01-11 02:56:34.25	228.07	39.47	-34.6	-35.8	29.1	3.02e+01	90	28	0	564133888	44	5942
2026-01-11 02:56:38.29	230.00	40.11	-34.3	-35.5	29.4	3.02e+01	92	28	0	571998208	44	5755
2026-01-11 02:56:42.33	232.00	40.72	-34.1	-35.3	29.6	3.02e+01	92	28	0	579338240	44	5654
2026-01-11 02:56:46.36	234.08	41.30	-33.9	-35.1	29.8	3.02e+01	91	28	0	586678272	42	6150
2026-01-11 02:56:50.40	236.23	41.85	-33.5	-34.6	30.1	3.02e+01	91	27	0	594542592	42	5852
2026-01-11 02:56:54.44	238.46	42.36	-33.5	-34.7	30.0	3.02e+01	92	28	0	601882624	42	5917
2026-01-11 02:56:58.48	240.76	42.83	-33.4	-34.6	30.1	3.02e+01	92	27	0	609746944	42	5832
2026-01-11 02:57:02.52	243.12	43.25	-33.5	-34.7	30.0	3.02e+01	92	28	0	617086976	42	5879
2026-01-11 02:57:06.56	245.54	43.62	-33.2	-34.4	30.2	3.02e+01	91	28	0	624951296	42	5697
2026-01-11 02:57:10.59	248.01	43.94	-33.5	-34.7	30.0	3.02e+01	92	28	0	632291328	42	5902
2026-01-11 02:57:14.63	250.53	44.21	-33.6	-34.8	29.9	3.02e+01	92	27	0	640155648	42	5966
2026-01-11 02:57:18.67	253.08	44.42	-33.6	-34.8	29.9	3.02e+01	92	28	0	647495680	42	5945
2026-01-11 02:57:22.70	255.66	44.56	-33.5	-34.7	30.0	3.02e+01	92	27	0	654835712	42	5887
2026-01-11 02:57:26.74	258.27	44.64	-33.6	-34.8	30.0	3.02e+01	92	27	0	662700032	42	5937
2026-01-11 02:57:30.78	260.88	44.66	-33.6	-34.7	30.0	3.02e+01	92	27	0	670040064	42	5917
2026-01-11 02:57:34.82	263.49	44.61	-33.6	-34.8	29.9	3.02e+01	90	27	0	677904384	42	5977
2026-01-11 02:57:38.86	266.08	44.50	-33.7	-34.9	29.9	3.02e+01	92	27	0	685244416	42	6008
2026-01-11 02:57:42.90	268.66	44.33	-34.1	-35.3	29.6	3.02e+01	92	27	0	693108736	42	6304
2026-01-11 02:57:46.94	271.20	44.10	-33.9	-35.1	29.7	3.02e+01	91	27	0	700448768	42	6174
2026-01-11 02:57:50.98	273.69	43.81	-34.1	-35.3	29.6	3.02e+01	92	27	0	708313088	42	6288
2026-01-11 02:57:55.02	276.14	43.47	-34.0	-35.2	29.4	3.02e+01	91	27	0	715653120	42	6207
2026-01-11 02:57:59.06	278.54	43.07	-33.9	-35.1	29.8	3.02e+01	88	27	0	722993152	42	6175
2026-01-11 02:58:03.09	280.86	42.63	-33.8	-35.0	29.8	3.02e+01	92	27	0	730857472	42	6097
2026-01-11 02:58:07.13	283.12	42.14	-34.1	-35.3	29.6	3.02e+01	87	27	0	738197504	42	6309
2026-01-11 02:58:11.16	285.31	41.62	-34.1	-35.3	29.6	3.02e+01	92	27	0	746061824	42	6285
2026-01-11 02:58:15.21	287.43	41.06	-34.2	-35.4	29.4	3.02e+01	92	27	0	753401856	42	6420
2026-01-11 02:58:19.24	289.47	40.47	-34.4	-35.7	29.2	3.02e+01	92	27	0	761266176	42	6574
2026-01-11 02:58:23.28	291.44	39.85	-34.4	-35.6	29.3	3.02e+01	90	27	0	768606208	42	6559
2026-01-11 02:58:27.32	293.33	39.20	-34.3	-35.5	29.3	3.02e+01	61	27	0	775946240	42	6481
2026-01-11 02:58:31.36	295.15	38.54	-34.1	-35.3	29.5	3.02e+01	56	27	0	783810560	44	5656
2026-01-11 02:58:35.40	296.89	37.86	-34.2	-35.5	29.4	3.02e+01	60	27	0	791150592	44	5743
2026-01-11 02:58:39.44	298.56	37.17	-34.2	-35.5	29.4	3.02e+01	57	27	0	799014912	42	6450
2026-01-11 02:58:43.47	300.15	36.48	-33.5	-34.7	30.0	3.02e+01	59	27	0	806354944	42	5886
2026-01-11 02:58:47.51	301.69	35.77	-33.6	-34.8	30.0	3.02e+01	61	27	0	814219264	42	5971
2026-01-11 02:58:51.55	303.15	35.06	-33.3	-34.5	30.2	3.02e+01	47	27	0	821559296	42	5747
2026-01-11 02:58:55.59	304.55	34.34	-32.7	-33.9	30.6	3.02e+01	55	27	0	829423616	40	6001
2026-01-11 02:58:59.62	305.89	33.63	-32.6	-33.8	30.7	3.02e+01	55	27	0	836763648	40	5935
2026-01-11 02:59:03.66	307.17	32.92	-32.5	-33.7	30.7	3.02e+01	60	27	0	844103680	40	5890
2026-01-11 02:59:07.69	308.40	32.22	-32.5	-33.6	30.7	3.02e+01	40	27	0	851968000	40	5850
2026-01-11 02:59:11.73	309.57	31.51	-32.4	-33.5	30.9	3.02e+01	61	27	0	859308032	40	5790
2026-01-11 02:59:15.77	310.70	30.81	-32.6	-33.8	30.7	3.02e+01	54	27	0	867172352	40	5962
2026-01-11 02:59:19.81	311.77	30.12	-32.2	-33.4	30.9	3.02e+01	61	27	0	874512384	40	5669
2026-01-11 02:59:23.85	312.80	29.44	-32.8	-33.9	30.5	3.02e+01	45	27	0	882376704	40	6050
2026-01-11 02:59:27.89	313.79	28.76	-32.8	-34.0	30.6	3.02e+01	59	28	0	889716736	40	6066
2026-01-11 02:59:31.92	314.73	28.10	-32.8	-34.0	30.5	3.02e+01	44	27	0	897581056	40	6109
2026-01-11 02:59:35.96	315.64	27.44	-32.9	-34.1	30.3	3.02e+01	58	27	0	904921088	40	6175
2026-01-11 02:59:40.00	316.51	26.80	-33.1	-34.2	30.3	3.02e+01	46	28	0	912261120	40	6260
2026-01-11 02:59:44.03	317.35	26.16	-33.2	-34.3	30.3	3.02e+01	62	28	0	920125440	40	6338
2026-01-11 02:59:48.08	318.15	25.53	-33.3	-34.5	30.0	3.02e+01	44	28	0	927465472	40	6469
2026-01-11 02:59:52.11	318.92	24.92	-33.2	-34.3	30.1	3.02e+01	61	28	0	935329792	40	6328
2026-01-11 02:59:56.15	319.66	24.31	-33.5	-34.7	29.8	3.02e+01	55	28	0	942669824	40	6628
2026-01-11 03:00:00.19	320.38	23.72	-33.1	-34.2	30.2	3.02e+01	59	28	0	950534144	40	6275
2026-01-11 03:00:04.23	321.06	23.13	-33.4	-34.6	29.9	3.02e+01	60	28	0	957874176	40	6531
2026-01-11 03:00:08.26	321.72	22.56	-33.5	-34.7	29.8	3.02e+01	56	28	0	965738496	40	6645
2026-01-11 03:00:12.30	322.36	22.00	-33.3	-34.5	29.8	3.02e+01	58	28	0	973078528	40	6478
2026-01-11 03:00:16.34	322.97	21.44	-33.1	-34.3	30.1	3.02e+01	59	28	0	980418560	40	6336
2026-01-11 03:00:20.38	323.56	20.90	-33.2	-34.4	30.0	3.02e+01	60	28	0	988282880	40	6370
2026-01-11 03:00:24.41	324.13	20.37	-33.2	-34.4	30.0	3.02e+01	60	28	0	995622912	40	6391
2026-01-11 03:00:28.45	324.69	19.84	-33.3	-34.5	30.1	3.02e+01	61	28	0	1003487232	40	6470
2026-01-11 03:00:32.49	325.22	19.33	-33.0	-34.2	30.2	3.02e+01	56	28	0	1010827264	40	6219
2026-01-11 03:00:36.53	325.73	18.82	-33.1	-34.2	30.1	3.02e+01	63	28	0	1018691584	40	6269
2026-01-11 03:00:40.57	326.23	18.33	-33.0	-34.2	30.2	3.02e+01	60	28	0	1026031616	40	6234
2026-01-11 03:00:44.61	326.71	17.84	-33.1	-34.2	30.1	3.02e+01	57	28	0	1033895936	40	6264
2026-01-11 03:00:48.64	327.18	17.36	-32.9	-34.1	30.2	3.02e+01	59	28	0	1041235968	40	6156
2026-01-11 03:00:52.68	327.63	16.89	-33.0	-34.1	30.2	3.02e+01	56	28	0	1048576000	40	6185
2026-01-11 03:00:56.72	328.07	16.43	-33.0	-34.2	30.1	3.02e+01	56	28	0	1056440320	40	6248
2026-01-11 03:01:00.76	328.50	15.98	-33.1	-34.3	30.1	3.02e+01	60	28	0	1063780352	40	6328
2026-01-11 03:01:04.79	328.91	15.53	-33.1	-34.2	30.1	3.02e+01	64	28	0	1071644672	40	6277
2026-01-11 03:01:08.83	329.31	15.10	-33.2	-34.4	29.9	3.02e+01	60	28	0	1078984704	40	6421
2026-01-11 03:01:12.87	329.69	14.67	-33.3	-34.5	29.9	3.02e+01	44	28	0	1086849024	40	6479
2026-01-11 03:01:16.91	330.07	14.24	-33.2	-34.4	29.8	3.02e+01	61	28	0	1094189056	40	6411
2026-01-11 03:01:20.95	330.44	13.83	-33.3	-34.5	29.8	3.02e+01	56	28	0	1102053376	40	6452
2026-01-11 03:01:24.99	330.79	13.42	-33.4	-34.6	29.7	3.02e+01	58	28	0	1109393408	40	6524
2026-01-11 03:01:29.03	331.14	13.01	-33.6	-34.8	29.6	3.02e+01	46	28	0	1116733440	40	6666
2026-01-11 03:01:33.07	331.48	12.62	-33.5	-34.7	29.6	3.02e+01	57	28	0	1124597760	40	6622
2026-01-11 03:01:37.11	331.80	12.23	-33.8	-35.0	29.4	3.02e+01	57	28	0	1131937792	40	6826
2026-01-11 03:01:41.15	332.12	11.84	-33.8	-35.0	29.3	3.02e+01	59	28	0	1139802112	42	6118
2026-01-11 03:01:45.18	332.43	11.47	-33.8	-35.0	29.2	3.02e+01	47	28	0	1147142144	42	6133
2026-01-11 03:01:49.22	332.74	11.09	-33.8	-35.0	29.3	3.02e+01	58	28	0	1155006464	42	6130
2026-01-11 03:01:53.26	333.03	10.73	-34.0	-35.2	29.1	3.02e+01	45	28	0	1162346496	42	6231
2026-01-11 03:01:57.30	333.32	10.37	-34.1	-35.3	29.0	3.02e+01	60	28	0	1169686528	42	6314
2026-01-11 03:02:01.34	333.60	10.01	-34.1	-35.3	29.0	3.02e+01	48	28	0	1177550848	42	6296
2026-01-11 03:02:05.38	333.88	9.66	-34.2	-35.5	28.8	3.02e+01	59	29	0	1184890880	42	6439
2026-01-11 03:02:09.42	334.14	9.31	-34.7	-45.0	3.4	3.02e+01	0	28	104	1190133760	42	19237
2026-01-11 03:02:13.46	334.40	8.97	-35.4	-45.6	3.5	3.02e+01	0	29	104	1190133760	46	16443
2026-01-11 03:02:17.50	334.66	8.64	-35.8	-46.0	3.6	3.02e+01	0	29	104	1190133760	46	17188
2026-01-11 03:02:21.54	334.91	8.30	-35.9	-46.1	3.6	3.02e+01	0	29	104	1190133760	46	17345
2026-01-11 03:02:25.58	335.15	7.98	-38.4	-48.8	3.4	3.02e+01	0	29	104	1190133760	52	16778
2026-01-11 03:02:29.62	335.39	7.65	-35.8	-46.0	3.5	3.02e+01	0	29	104	1190133760	46	17247
2026-01-11 03:02:33.66	335.63	7.34	-37.5	-48.0	3.5	3.02e+01	0	29	104	1190133760	50	17272
2026-01-11 03:02:37.70	335.85	7.02	-38.6	-49.3	3.6	3.02e+01	0	29	104	1190133760	52	17710
2026-01-11 03:02:41.73	336.08	6.71	-46.3	-62.3	3.5	3.02e+01	0	29	104	1190133760	60	50000
2026-01-11 03:02:45.77	336.30	6.40	-35.7	-46.0	3.5	3.02e+01	0	29	104	1190133760	46	17155
2026-01-11 03:02:49.80	336.51	6.10	-42.5	-54.7	3.5	3.02e+01	0	29	104	1190133760	54	29524
2026-01-11 03:02:53.84	336.72	5.80	-37.1	-47.7	3.5	3.02e+01	0	29	104	1190133760	48	18547
2026-01-11 03:02:57.88	336.93	5.51	-40.7	-52.0	3.5	3.02e+01	0	29	104	1190133760	54	21601
2026-01-11 03:03:01.92	337.13	5.21	-40.5	-52.0	3.5	3.02e+01	0	29	104	1190133760	56	19340
2026-01-11 03:03:05.95	337.33	4.92	-41.3	-54.1	3.5	3.02e+01	0	29	104	1190133760	56	24633
2026-01-11 03:03:10.00	337.52	4.64	-42.8	-56.2	3.5	3.02e+01	0	29	104	1190133760	58	27768
2026-01-11 03:03:14.03	337.71	4.35	-42.4	-56.6	3.5	3.02e+01	0	29	104	1190133760	58	29223
2026-01-11 03:03:18.07	337.90	4.07	-43.3	-60.7	3.5	3.02e+01	0	29	104	1190133760	60	41619
2026-01-11 03:03:22.11	338.08	3.80	-43.5	-60.1	3.5	3.02e+01	0	29	104	1190133760	60	38985
2026-01-11 03:03:26.15	338.26	3.52	-43.3	-61.2	3.5	3.02e+01	0	29	104	1190133760	60	44153
2026-01-11 03:03:30.18	338.44	3.25	-43.3	-61.1	3.5	3.02e+01	0	29	104	1190133760	60	43790
2026-01-11 03:03:34.22	338.61	2.98	-43.2	-61.2	3.5	3.02e+01	0	29	104	1190133760	60	44198
2026-01-11 03:03:38.26	338.78	2.72	-48.0	-65.9	3.5	3.02e+01	0	29	104	1190133760	60	75918
2026-01-11 03:03:42.30	338.95	2.46	-48.2	-66.1	3.5	3.02e+01	0	29	104	1190133760	60	78101
2026-01-11 03:03:46.34	339.11	2.19	-48.1	-66.1	3.5	3.02e+01	0	29	104	1190133760	60	77505
2026-01-11 03:03:50.38	339.27	1.94	-48.3	-66.2	3.5	3.02e+01	0	29	104	1190133760	60	78736
2026-01-11 03:03:54.42	339.43	1.68	-48.1	-66.0	3.5	3.02e+01	0	29	104	1190133760	60	76811
2026-01-11 03:03:58.45	339.59	1.43	-48.2	-66.0	3.5	3.02e+01	0	29	104	1190133760	60	76953
2026-01-11 03:04:02.49	339.74	1.18	-48.3	-66.1	3.5	3.02e+01	0	29	104	1190133760	60	77712
2026-01-11 03:04:06.53	339.90	0.93	-48.2	-66.1	3.5	3.02e+01	0	29	104	1190133760	60	77733
2026-01-11 03:04:10.57	340.04	0.68	-48.2	-66.1	3.5	3.02e+01	0	29	104	1190133760	60	77816
2026-01-11 03:04:14.61	340.19	0.44	-48.2	-66.0	3.5	3.02e+01	0	29	104	1190133760	60	77057
2026-01-11 03:04:18.64	340.34	0.20	-48.4	-66.2	3.5	3.02e+01	0	29	104	1190133760	60	78941
2026-01-11 03:04:22.69	340.48	-0.05	-48.4	-66.3	3.5	3.02e+01	0	29	104	1190133760	60	79415

#Closed at: 2026-01-11 03:04:23
#Recorded file [1190 MB]: D:/lorett/data/35029_260111_145042.dat