passes_logs/2026/01/11/R4.6S_Anadyr/R4.6S_Anadyr__20260111_120917_NOAA_21_JPSS-2_rec.log

#Pass ID: 20260111_120917_NOAA 21 (JPSS-2)
#Satellite: NOAA 21 (JPSS-2)
#Configuration: NOAA-21
#almurnet v.1.7.20251203
#Start time: 2026-01-11 12:09:19

#Version: 2.2.20231116
#Station: R4.6S_Anadyr
#Location: 177.4865 lon 64.73178 lat
#TLE: 1 54234U 22150A   26010.92456470  .00000095  00000+0  65865-4 0  9991
#TLE: 2 54234  98.7494 311.8737 0000784 316.5119  43.5995 14.19533975164234

#Time	Az	El	Level	Level2	SNR	BER	BlckErr	Temp	State	Recorded	gain1	gain2
2026-01-11 12:09:19.75	19.40	0.11	-47.9	-59.5	3.5	8.46e-01	0	24	0	0	60	34216
2026-01-11 12:09:23.79	19.72	0.30	-48.1	-60.9	3.5	1.52e+00	0	26	104	0	60	39087
2026-01-11 12:09:27.83	20.05	0.49	-48.1	-61.0	3.5	1.52e+00	0	26	104	0	60	39185
2026-01-11 12:09:31.87	20.38	0.68	-47.7	-60.5	3.5	1.52e+00	0	26	104	0	60	37320
2026-01-11 12:09:35.91	20.72	0.87	-46.6	-59.4	3.5	1.52e+00	0	26	104	0	60	32773
2026-01-11 12:09:39.95	21.06	1.06	-46.4	-59.2	3.5	1.52e+00	0	26	104	0	60	32104
2026-01-11 12:09:43.99	21.40	1.25	-46.8	-59.6	3.5	1.52e+00	0	26	104	0	60	33661
2026-01-11 12:09:48.03	21.75	1.44	-46.4	-59.2	3.5	1.52e+00	0	26	104	0	60	31862
2026-01-11 12:09:52.07	22.11	1.63	-46.5	-59.3	3.5	1.52e+00	0	26	104	0	60	32310
2026-01-11 12:09:56.11	22.46	1.82	-46.5	-59.4	3.5	1.52e+00	0	26	104	0	60	32573
2026-01-11 12:10:00.14	22.82	2.02	-46.4	-59.1	3.5	1.52e+00	0	26	104	0	60	31663
2026-01-11 12:10:04.16	23.19	2.21	-46.4	-59.1	3.5	1.52e+00	0	26	104	0	60	31790
2026-01-11 12:10:08.20	23.56	2.40	-46.2	-57.7	3.5	1.51e+00	0	27	104	0	60	26858
2026-01-11 12:10:12.25	23.93	2.60	-44.7	-49.3	8.9	1.42e-01	0	26	0	0	60	10198
2026-01-11 12:10:16.28	24.31	2.79	-38.4	-39.8	18.7	0.00e+00	0	26	0	13631488	50	6124
2026-01-11 12:10:20.32	24.70	2.99	-41.7	-44.1	14.1	0.00e+00	0	26	0	26214400	54	7937
2026-01-11 12:10:24.36	25.09	3.18	-46.3	-59.0	3.5	1.51e+00	0	27	104	35651584	60	31112
2026-01-11 12:10:28.40	25.48	3.38	-38.0	-39.3	19.3	0.00e+00	0	27	0	44040192	50	5755
2026-01-11 12:10:32.44	25.88	3.57	-37.8	-39.0	19.4	0.00e+00	0	27	0	56623104	48	6260
2026-01-11 12:10:36.47	26.28	3.77	-37.2	-38.4	20.1	0.00e+00	0	27	0	69206016	48	5850
2026-01-11 12:10:40.51	26.69	3.96	-37.2	-38.4	20.1	0.00e+00	0	26	0	81788928	48	5849
2026-01-11 12:10:44.55	27.11	4.16	-37.8	-39.1	19.5	0.00e+00	0	27	0	94371840	48	6287
2026-01-11 12:10:48.59	27.53	4.36	-37.1	-38.3	20.2	0.00e+00	0	27	0	106954752	48	5775
2026-01-11 12:10:52.64	27.95	4.56	-37.1	-38.3	20.3	0.00e+00	0	26	0	119537664	48	5741
2026-01-11 12:10:56.67	28.38	4.75	-37.0	-38.2	20.4	0.00e+00	0	27	0	132120576	48	5687
2026-01-11 12:11:00.72	28.82	4.95	-37.0	-38.2	20.4	0.00e+00	0	27	0	144703488	48	5662
2026-01-11 12:11:04.76	29.26	5.15	-36.9	-38.1	20.5	0.00e+00	0	26	0	157286400	48	5599
2026-01-11 12:11:08.80	29.71	5.35	-36.6	-37.8	20.9	0.00e+00	0	27	0	169869312	48	5421
2026-01-11 12:11:12.83	30.16	5.54	-36.4	-37.5	21.2	0.00e+00	0	27	0	182452224	46	5861
2026-01-11 12:11:16.87	30.62	5.74	-36.7	-37.8	20.8	0.00e+00	0	27	0	195035136	46	6133
2026-01-11 12:11:20.91	31.09	5.94	-36.4	-37.5	21.2	0.00e+00	0	27	0	207618048	46	5864
2026-01-11 12:11:24.95	31.56	6.14	-36.1	-37.2	21.5	0.00e+00	0	27	0	220200960	46	5671
2026-01-11 12:11:28.99	32.04	6.33	-35.9	-36.9	21.8	0.00e+00	0	27	0	233832448	46	5525
2026-01-11 12:11:33.02	32.52	6.53	-35.8	-36.9	21.8	0.00e+00	0	27	0	246415360	44	6167
2026-01-11 12:11:37.06	33.01	6.73	-36.1	-37.1	21.6	0.00e+00	0	27	0	258998272	44	6342
2026-01-11 12:11:41.10	33.51	6.93	-36.1	-37.1	21.5	0.00e+00	0	27	0	271581184	44	6326
2026-01-11 12:11:45.14	34.01	7.12	-36.0	-37.1	21.8	0.00e+00	0	27	0	284164096	44	6304
2026-01-11 12:11:49.18	34.52	7.32	-36.1	-37.1	21.7	0.00e+00	0	27	0	296747008	44	6339
2026-01-11 12:11:53.22	35.04	7.51	-35.7	-36.7	22.0	0.00e+00	0	27	0	309329920	44	6046
2026-01-11 12:11:57.26	35.56	7.71	-35.7	-36.8	22.1	0.00e+00	0	27	0	321912832	44	6067
2026-01-11 12:12:01.29	36.09	7.90	-35.5	-36.5	22.2	0.00e+00	0	27	0	334495744	44	5924
2026-01-11 12:12:05.33	36.63	8.10	-35.4	-36.4	22.4	0.00e+00	0	27	0	347078656	44	5827
2026-01-11 12:12:09.37	37.17	8.29	-35.3	-36.4	22.4	0.00e+00	0	27	0	359661568	44	5799
2026-01-11 12:12:13.41	37.72	8.49	-35.1	-36.2	22.5	0.00e+00	0	27	0	372244480	44	5663
2026-01-11 12:12:17.45	38.28	8.68	-35.4	-36.4	22.4	0.00e+00	0	27	0	384827392	44	5828
2026-01-11 12:12:21.49	38.85	8.87	-35.3	-36.3	22.6	0.00e+00	0	27	0	397410304	44	5741
2026-01-11 12:12:25.53	39.42	9.06	-35.2	-36.1	22.7	0.00e+00	0	27	0	409993216	44	5654
2026-01-11 12:12:29.56	40.00	9.25	-35.0	-36.0	22.8	0.00e+00	0	27	0	422576128	44	5548
2026-01-11 12:12:33.60	40.58	9.44	-34.8	-35.8	23.0	0.00e+00	0	27	0	435159040	44	5424
2026-01-11 12:12:37.64	41.18	9.63	-34.9	-35.9	22.9	0.00e+00	0	27	0	447741952	42	6145
2026-01-11 12:12:41.68	41.78	9.81	-34.9	-35.8	22.9	0.00e+00	0	27	0	460324864	42	6133
2026-01-11 12:12:45.72	42.39	10.00	-35.0	-36.0	22.8	0.00e+00	0	28	0	472907776	42	6243
2026-01-11 12:12:49.77	43.01	10.18	-34.8	-35.8	23.0	0.00e+00	0	27	0	485490688	42	6107
2026-01-11 12:12:53.81	43.63	10.36	-34.8	-35.8	23.0	0.00e+00	0	27	0	498073600	42	6076
2026-01-11 12:12:57.85	44.26	10.54	-34.8	-35.8	23.0	0.00e+00	0	28	0	510656512	42	6091
2026-01-11 12:13:01.89	44.90	10.72	-35.0	-35.9	22.9	0.00e+00	0	28	0	523239424	42	6198
2026-01-11 12:13:05.93	45.55	10.90	-35.1	-36.1	22.9	0.00e+00	0	28	0	535822336	42	6297
2026-01-11 12:13:09.97	46.20	11.07	-35.1	-36.0	23.1	0.00e+00	0	28	0	549453824	42	6275
2026-01-11 12:13:14.01	46.86	11.24	-34.8	-35.7	23.1	0.00e+00	0	28	0	560988160	42	6059
2026-01-11 12:13:18.05	47.53	11.41	-34.9	-35.9	23.1	0.00e+00	0	28	0	574619648	42	6138
2026-01-11 12:13:22.10	48.21	11.58	-34.9	-35.9	23.0	0.00e+00	0	28	0	587202560	42	6164
2026-01-11 12:13:26.13	48.89	11.74	-34.9	-35.9	23.0	0.00e+00	0	28	0	599785472	42	6193
2026-01-11 12:13:30.17	49.58	11.91	-35.0	-36.0	23.0	0.00e+00	0	28	0	612368384	42	6254
2026-01-11 12:13:34.21	50.28	12.07	-34.9	-35.9	23.1	0.00e+00	0	28	0	624951296	42	6175
2026-01-11 12:13:38.25	50.99	12.22	-35.0	-35.9	23.0	0.00e+00	0	28	0	637534208	42	6195
2026-01-11 12:13:42.30	51.71	12.38	-34.9	-35.9	23.0	0.00e+00	0	28	0	650117120	42	6141
2026-01-11 12:13:46.34	52.43	12.53	-34.5	-35.5	23.3	0.00e+00	0	28	0	662700032	42	5866
2026-01-11 12:13:50.38	53.16	12.68	-34.6	-35.5	23.3	0.00e+00	0	28	0	675282944	42	5901
2026-01-11 12:13:54.42	53.89	12.82	-34.6	-35.6	23.3	0.00e+00	0	28	0	687865856	42	5941
2026-01-11 12:13:58.46	54.63	12.96	-34.6	-35.5	23.4	0.00e+00	0	28	0	700448768	42	5920
2026-01-11 12:14:02.50	55.38	13.10	-34.9	-35.8	23.1	0.00e+00	0	28	0	713031680	42	6120
2026-01-11 12:14:06.54	56.14	13.24	-34.7	-35.7	23.4	0.00e+00	0	28	0	725614592	42	6000
2026-01-11 12:14:10.57	56.90	13.37	-34.6	-35.5	23.4	0.00e+00	0	28	0	738197504	42	5892
2026-01-11 12:14:14.61	57.67	13.49	-34.5	-35.4	23.4	0.00e+00	0	28	0	750780416	42	5843
2026-01-11 12:14:18.65	58.44	13.61	-34.4	-35.3	23.5	0.00e+00	0	28	0	763363328	42	5778
2026-01-11 12:14:22.69	59.22	13.73	-34.3	-35.2	23.6	0.00e+00	0	28	0	775946240	42	5694
2026-01-11 12:14:26.73	60.01	13.84	-34.5	-35.5	23.4	0.00e+00	0	28	0	788529152	42	5877
2026-01-11 12:14:30.77	60.81	13.95	-34.4	-35.3	23.6	0.00e+00	0	28	0	801112064	42	5756
2026-01-11 12:14:34.81	61.60	14.06	-34.3	-35.2	23.6	0.00e+00	0	28	0	813694976	42	5690
2026-01-11 12:14:38.84	62.41	14.16	-34.2	-35.1	23.7	0.00e+00	0	28	0	826277888	42	5652
2026-01-11 12:14:42.88	63.22	14.25	-34.0	-34.9	23.9	0.00e+00	0	28	0	838860800	42	5527
2026-01-11 12:14:46.91	64.03	14.34	-34.3	-35.2	23.7	0.00e+00	0	29	0	851443712	42	5698
2026-01-11 12:14:50.95	64.85	14.43	-34.4	-35.3	23.6	0.00e+00	0	28	0	864026624	42	5775
2026-01-11 12:14:54.99	65.67	14.51	-33.9	-34.9	23.8	0.00e+00	0	29	0	876609536	42	5483
2026-01-11 12:14:59.03	66.50	14.58	-34.0	-34.9	23.8	0.00e+00	0	29	0	890241024	42	5512
2026-01-11 12:15:03.07	67.33	14.65	-34.0	-34.9	23.8	0.00e+00	0	29	0	902823936	42	5502
2026-01-11 12:15:07.11	68.17	14.71	-34.0	-35.0	23.8	0.00e+00	0	29	0	915406848	42	5557
2026-01-11 12:15:11.15	69.01	14.77	-34.2	-35.2	23.7	0.00e+00	0	29	0	927989760	42	5691
2026-01-11 12:15:15.19	69.85	14.82	-34.4	-35.3	23.5	0.00e+00	0	29	0	940572672	42	5784
2026-01-11 12:15:19.23	70.69	14.87	-34.4	-35.4	23.4	0.00e+00	0	29	0	953155584	42	5806
2026-01-11 12:15:23.27	71.54	14.91	-34.2	-35.1	23.6	0.00e+00	0	29	0	965738496	42	5632
2026-01-11 12:15:27.31	72.39	14.95	-34.2	-35.1	23.6	0.00e+00	0	29	0	978321408	42	5657
2026-01-11 12:15:31.34	73.24	14.98	-34.3	-35.3	23.6	0.00e+00	0	29	0	990904320	42	5738
2026-01-11 12:15:35.38	74.09	15.00	-34.2	-35.2	23.6	0.00e+00	0	29	0	1003487232	42	5682
2026-01-11 12:15:39.42	74.95	15.02	-34.2	-35.1	23.7	0.00e+00	0	29	0	1016070144	42	5630
2026-01-11 12:15:43.46	75.80	15.03	-34.2	-35.1	23.7	0.00e+00	0	29	0	1028653056	42	5657
2026-01-11 12:15:47.51	76.66	15.04	-34.2	-35.1	23.7	0.00e+00	0	29	0	1041235968	42	5625
2026-01-11 12:15:51.54	77.51	15.04	-33.9	-34.8	23.9	0.00e+00	0	29	0	1053818880	42	5443
2026-01-11 12:15:55.58	78.37	15.03	-34.0	-35.0	23.9	0.00e+00	0	29	0	1066401792	42	5542
2026-01-11 12:15:59.62	79.23	15.02	-34.0	-35.0	23.9	0.00e+00	0	29	0	1078984704	42	5545
2026-01-11 12:16:03.66	80.08	15.00	-34.1	-35.0	23.7	0.00e+00	0	29	0	1091567616	42	5577
2026-01-11 12:16:07.70	80.93	14.98	-34.3	-35.3	23.5	0.00e+00	0	29	0	1104150528	42	5730
2026-01-11 12:16:11.74	81.79	14.95	-34.2	-35.2	23.6	0.00e+00	0	29	0	1116733440	42	5710
2026-01-11 12:16:15.78	82.64	14.91	-34.5	-35.4	23.4	0.00e+00	0	29	0	1129316352	42	5841
2026-01-11 12:16:19.82	83.49	14.87	-34.4	-35.4	23.5	0.00e+00	0	29	0	1141899264	42	5803
2026-01-11 12:16:23.86	84.33	14.82	-34.3	-35.2	23.8	0.00e+00	0	29	0	1154482176	42	5714
2026-01-11 12:16:27.90	85.18	14.77	-34.2	-35.2	23.7	0.00e+00	0	29	0	1167065088	42	5674
2026-01-11 12:16:31.95	86.02	14.71	-34.4	-35.3	23.6	0.00e+00	0	29	0	1179648000	42	5773
2026-01-11 12:16:35.99	86.86	14.65	-34.3	-35.2	23.7	0.00e+00	0	29	0	1192230912	42	5724
2026-01-11 12:16:40.03	87.69	14.58	-34.1	-35.0	23.9	0.00e+00	0	29	0	1205862400	42	5580
2026-01-11 12:16:44.07	88.52	14.51	-34.2	-35.2	23.7	0.00e+00	0	29	0	1217396736	42	5692
2026-01-11 12:16:48.11	89.34	14.43	-34.3	-35.2	23.6	0.00e+00	0	29	0	1231028224	42	5715
2026-01-11 12:16:52.15	90.17	14.34	-34.1	-35.1	23.8	0.00e+00	0	29	0	1243611136	42	5609
2026-01-11 12:16:56.18	90.98	14.25	-34.0	-34.9	23.9	0.00e+00	0	29	0	1256194048	42	5502
2026-01-11 12:17:00.22	91.79	14.16	-34.1	-35.0	23.7	0.00e+00	0	29	0	1268776960	42	5589
2026-01-11 12:17:04.26	92.60	14.06	-34.1	-35.1	23.7	0.00e+00	0	29	0	1281359872	42	5609
2026-01-11 12:17:08.30	93.40	13.95	-34.3	-35.3	23.6	0.00e+00	0	29	0	1293942784	42	5727
2026-01-11 12:17:12.34	94.19	13.84	-34.2	-35.1	23.6	0.00e+00	0	29	0	1306525696	42	5659
2026-01-11 12:17:16.37	94.98	13.73	-34.3	-35.3	23.5	0.00e+00	0	29	0	1319108608	42	5751
2026-01-11 12:17:20.41	95.77	13.61	-34.4	-35.4	23.4	0.00e+00	0	29	0	1331691520	42	5825
2026-01-11 12:17:24.45	96.54	13.49	-34.1	-35.0	23.7	0.00e+00	0	30	0	1344274432	42	5581
2026-01-11 12:17:28.49	97.32	13.36	-34.0	-35.0	23.8	0.00e+00	0	29	0	1356857344	42	5544
2026-01-11 12:17:32.53	98.08	13.23	-34.0	-35.0	23.7	0.00e+00	0	29	0	1369440256	42	5542
2026-01-11 12:17:36.57	98.84	13.09	-33.9	-34.8	23.8	0.00e+00	0	29	0	1382023168	42	5457
2026-01-11 12:17:40.61	99.59	12.96	-34.0	-34.9	23.8	0.00e+00	0	29	0	1394606080	42	5506
2026-01-11 12:17:44.65	100.34	12.81	-34.2	-35.1	23.6	0.00e+00	0	30	0	1407188992	42	5624
2026-01-11 12:17:48.69	101.07	12.67	-34.1	-35.1	23.5	0.00e+00	0	30	0	1419771904	42	5610
2026-01-11 12:17:52.73	101.81	12.52	-34.1	-35.0	23.7	0.00e+00	0	30	0	1432354816	42	5582
2026-01-11 12:17:56.76	102.53	12.37	-34.3	-35.2	23.5	0.00e+00	0	30	0	1444937728	42	5710
2026-01-11 12:18:00.80	103.24	12.21	-34.6	-35.6	23.2	0.00e+00	0	30	0	1457520640	42	5986
2026-01-11 12:18:04.84	103.95	12.05	-34.7	-35.6	23.2	0.00e+00	0	29	0	1470103552	42	5983
2026-01-11 12:18:08.87	104.65	11.89	-34.6	-35.5	23.3	0.00e+00	0	30	0	1482686464	42	5922
2026-01-11 12:18:12.91	105.35	11.73	-34.5	-35.5	23.3	0.00e+00	0	30	0	1495269376	42	5893
2026-01-11 12:18:16.95	106.03	11.56	-34.7	-35.7	23.1	0.00e+00	0	30	0	1507852288	42	6023
2026-01-11 12:18:20.99	106.71	11.39	-34.8	-35.8	23.0	0.00e+00	0	30	0	1520435200	42	6081
2026-01-11 12:18:25.04	107.39	11.22	-35.0	-35.9	22.8	0.00e+00	0	30	0	1533018112	42	6204
2026-01-11 12:18:29.07	108.05	11.05	-34.9	-35.9	22.9	0.00e+00	0	30	0	1546649600	42	6170
2026-01-11 12:18:33.11	108.71	10.87	-35.0	-36.0	22.8	0.00e+00	0	30	0	1558183936	42	6264
2026-01-11 12:18:37.15	109.36	10.69	-35.3	-36.4	22.5	0.00e+00	0	30	0	1571815424	42	6518
2026-01-11 12:18:41.19	110.00	10.51	-35.4	-36.4	22.4	0.00e+00	0	30	0	1584398336	42	6547
2026-01-11 12:18:45.23	110.63	10.33	-35.2	-36.3	22.6	0.00e+00	0	30	0	1596981248	42	6433
2026-01-11 12:18:49.27	111.26	10.15	-35.2	-36.3	22.7	0.00e+00	0	30	0	1609564160	42	6432
2026-01-11 12:18:53.31	111.88	9.97	-35.3	-36.4	22.5	0.00e+00	0	30	0	1622147072	42	6523
2026-01-11 12:18:57.35	112.49	9.78	-35.4	-36.4	22.5	0.00e+00	0	30	0	1634729984	42	6517
2026-01-11 12:19:01.39	113.09	9.59	-35.6	-36.6	22.3	0.00e+00	0	30	0	1647312896	42	6701
2026-01-11 12:19:05.43	113.69	9.40	-35.5	-36.6	22.3	0.00e+00	0	30	0	1659895808	44	5965
2026-01-11 12:19:09.47	114.28	9.21	-35.4	-36.5	22.3	0.00e+00	0	30	0	1672478720	44	5886
2026-01-11 12:19:13.51	114.86	9.02	-35.5	-36.6	22.2	0.00e+00	0	30	0	1685061632	44	5934
2026-01-11 12:19:17.55	115.43	8.83	-35.5	-36.5	22.2	0.00e+00	0	30	0	1697644544	44	5894
2026-01-11 12:19:21.59	116.00	8.64	-35.3	-36.4	22.3	0.00e+00	0	30	0	1710227456	44	5818
2026-01-11 12:19:25.63	116.56	8.44	-35.5	-36.5	22.3	0.00e+00	0	30	0	1722810368	44	5899
2026-01-11 12:19:29.67	117.11	8.25	-35.4	-36.4	22.4	0.00e+00	0	30	0	1735393280	44	5849
2026-01-11 12:19:33.71	117.66	8.05	-35.4	-36.4	22.3	0.00e+00	0	30	0	1747976192	44	5843
2026-01-11 12:19:37.75	118.20	7.85	-35.5	-36.6	22.2	0.00e+00	0	30	0	1760559104	44	5933
2026-01-11 12:19:41.79	118.73	7.66	-35.6	-36.6	22.1	0.00e+00	0	30	0	1773142016	44	5957
2026-01-11 12:19:45.83	119.25	7.46	-35.9	-37.0	21.8	0.00e+00	0	30	0	1785724928	44	6238
2026-01-11 12:19:49.87	119.77	7.26	-35.9	-36.9	21.8	0.00e+00	0	30	0	1798307840	44	6204
2026-01-11 12:19:53.91	120.28	7.06	-36.6	-37.7	21.1	0.00e+00	0	30	0	1810890752	44	6750
2026-01-11 12:19:57.96	120.79	6.86	-36.3	-37.4	21.3	0.00e+00	0	30	0	1823473664	44	6543
2026-01-11 12:20:01.99	121.28	6.67	-36.5	-37.6	21.1	0.00e+00	0	30	0	1836056576	44	6670
2026-01-11 12:20:06.03	121.78	6.47	-36.4	-37.5	21.2	0.00e+00	0	30	0	1848639488	44	6618
2026-01-11 12:20:10.07	122.26	6.27	-36.3	-37.4	21.2	0.00e+00	0	30	0	1862270976	44	6519
2026-01-11 12:20:14.11	122.74	6.07	-36.2	-37.3	21.3	0.00e+00	0	30	0	1873805312	44	6433
2026-01-11 12:20:18.15	123.21	5.87	-36.3	-37.5	21.1	0.00e+00	0	30	0	1887436800	44	6620
2026-01-11 12:20:22.19	123.68	5.67	-36.9	-38.1	20.6	0.00e+00	0	30	0	1900019712	46	6303
2026-01-11 12:20:26.24	124.14	5.47	-36.6	-37.7	20.9	0.00e+00	0	30	0	1912602624	46	6062
2026-01-11 12:20:30.27	124.59	5.27	-36.5	-37.6	21.0	0.00e+00	0	30	0	1925185536	46	5959
2026-01-11 12:20:34.32	125.04	5.07	-36.9	-38.1	20.5	0.00e+00	0	30	0	1937768448	46	6327
2026-01-11 12:20:38.36	125.49	4.87	-37.3	-38.5	20.3	0.00e+00	0	30	0	1950351360	46	6581
2026-01-11 12:20:42.39	125.92	4.67	-36.7	-37.9	20.7	0.00e+00	0	30	0	1962934272	46	6153
2026-01-11 12:20:46.43	126.35	4.47	-36.8	-38.0	20.5	0.00e+00	0	30	0	1975517184	46	6230
2026-01-11 12:20:50.47	126.78	4.27	-37.6	-38.8	19.7	0.00e+00	0	30	0	1988100096	46	6860
2026-01-11 12:20:54.52	127.20	4.07	-37.3	-38.6	19.9	0.00e+00	0	30	0	2000683008	46	6679
2026-01-11 12:20:58.55	127.61	3.87	-37.8	-39.2	19.3	0.00e+00	0	30	0	2013265920	48	6360
2026-01-11 12:21:02.60	128.02	3.67	-37.3	-38.6	19.8	0.00e+00	0	30	0	2025848832	48	5945
2026-01-11 12:21:06.64	128.43	3.48	-37.3	-38.5	19.7	0.00e+00	0	31	0	2038431744	48	5910
2026-01-11 12:21:10.67	128.82	3.28	-37.3	-38.6	19.6	0.00e+00	0	30	0	2051014656	48	5991
2026-01-11 12:21:14.71	129.22	3.08	-37.6	-39.0	19.2	0.00e+00	0	30	0	2063597568	48	6214
2026-01-11 12:21:18.75	129.61	2.88	-47.6	-60.5	3.5	1.52e+00	0	31	104	2068840448	60	37167
2026-01-11 12:21:22.79	129.99	2.69	-48.1	-60.9	3.5	1.52e+00	0	31	104	2068840448	60	38917
2026-01-11 12:21:26.83	130.37	2.49	-48.1	-60.9	3.5	1.52e+00	0	31	104	2068840448	60	38935
2026-01-11 12:21:30.87	130.74	2.29	-48.0	-60.9	3.5	1.52e+00	0	31	104	2068840448	60	39027
2026-01-11 12:21:34.91	131.11	2.10	-48.1	-60.9	3.5	1.52e+00	0	31	104	2068840448	60	38822
2026-01-11 12:21:38.95	131.48	1.90	-48.2	-61.0	3.5	1.52e+00	0	31	104	2068840448	60	39459
2026-01-11 12:21:42.99	131.84	1.71	-48.1	-60.9	3.5	1.52e+00	0	31	104	2068840448	60	39042
2026-01-11 12:21:47.03	132.19	1.51	-48.1	-60.9	3.5	1.52e+00	0	31	104	2068840448	60	39118
2026-01-11 12:21:51.07	132.55	1.32	-48.1	-60.9	3.5	1.52e+00	0	31	104	2068840448	60	38710
2026-01-11 12:21:55.11	132.89	1.13	-48.1	-60.9	3.5	1.52e+00	0	31	104	2068840448	60	38857
2026-01-11 12:21:59.15	133.24	0.93	-48.0	-60.9	3.5	1.51e+00	0	30	104	2068840448	60	38843
2026-01-11 12:22:03.19	133.57	0.74	-48.0	-60.8	3.5	1.51e+00	0	30	104	2068840448	60	38603
2026-01-11 12:22:07.23	133.91	0.55	-48.0	-60.8	3.5	1.52e+00	0	31	104	2068840448	60	38634
2026-01-11 12:22:11.27	134.24	0.36	-48.2	-61.0	3.5	1.52e+00	0	30	104	2068840448	60	39178
2026-01-11 12:22:15.31	134.57	0.17	-48.1	-60.9	3.5	1.52e+00	0	30	104	2068840448	60	38933
2026-01-11 12:22:19.35	134.89	-0.02	-48.5	-61.3	3.5	1.52e+00	0	30	104	2068840448	60	40670

#Closed at: 2026-01-11 12:22:19
#Recorded file [2068 MB]: D:/lorett/data/35029_260112_000919.dat