passes_logs/2026/01/11/R4.6S_Anadyr/R4.6S_Anadyr__20260111_123854_SUOMI_NPP_rec.log

#Pass ID: 20260111_123854_SUOMI NPP
#Satellite: SUOMI NPP
#Configuration: NPP
#almurnet v.1.7.20251203
#Start time: 2026-01-11 12:38:57

#Version: 2.2.20231116
#Station: R4.6S_Anadyr
#Location: 177.4865 lon 64.73178 lat
#TLE: 1 37849U 11061A   26010.94533966  .00000106  00000+0  71276-4 0  9997
#TLE: 2 37849  98.7807 313.0290 0002520  70.6146 289.5303 14.19524339736134

#Time	Az	El	Level	Level2	SNR	BER	BlckErr	Temp	State	Recorded	gain1	gain2
2026-01-11 12:38:57.89	19.10	0.15	-48.1	-61.9	3.3	1.54e+00	0	27	0	0	60	44772
2026-01-11 12:39:01.93	19.38	0.36	-48.0	-63.3	3.6	1.51e+00	0	27	104	0	60	52951
2026-01-11 12:39:05.97	19.67	0.56	-47.8	-63.0	3.6	1.51e+00	0	27	104	0	60	51081
2026-01-11 12:39:10.01	19.95	0.77	-47.1	-62.3	3.6	1.51e+00	0	27	104	0	60	47003
2026-01-11 12:39:14.05	20.24	0.98	-46.4	-61.5	3.6	1.51e+00	0	27	104	0	60	43206
2026-01-11 12:39:18.08	20.53	1.19	-46.4	-61.6	3.6	1.51e+00	0	27	104	0	60	43271
2026-01-11 12:39:22.13	20.83	1.40	-46.4	-61.6	3.6	1.51e+00	0	27	104	0	60	43273
2026-01-11 12:39:26.16	21.13	1.61	-46.4	-61.6	3.6	1.51e+00	0	28	104	0	60	43212
2026-01-11 12:39:30.21	21.43	1.82	-46.4	-61.5	3.6	1.51e+00	0	28	104	0	60	42977
2026-01-11 12:39:34.25	21.74	2.03	-46.4	-61.5	3.6	1.51e+00	0	28	104	0	60	43075
2026-01-11 12:39:38.28	22.06	2.24	-46.4	-60.2	3.6	1.51e+00	0	28	104	0	60	36807
2026-01-11 12:39:42.33	22.37	2.46	-46.1	-56.1	5.0	1.03e+00	0	28	104	0	60	23140
2026-01-11 12:39:46.37	22.70	2.67	-42.0	-44.3	16.3	0.00e+00	0	28	0	7340032	58	6653
2026-01-11 12:39:50.41	23.02	2.89	-41.0	-42.9	17.2	0.00e+00	92	28	0	14680064	54	7133
2026-01-11 12:39:54.45	23.35	3.11	-41.7	-43.9	17.2	0.00e+00	0	28	0	22020096	58	6385
2026-01-11 12:39:58.49	23.69	3.32	-44.0	-47.4	13.2	0.00e+00	0	28	0	26214400	60	8517
2026-01-11 12:40:02.53	24.03	3.54	-40.5	-42.2	18.4	0.00e+00	32	28	0	33554432	54	6552
2026-01-11 12:40:06.56	24.37	3.76	-40.0	-41.6	19.0	0.00e+00	0	28	0	40894464	54	6117
2026-01-11 12:40:10.60	24.72	3.98	-40.2	-41.7	18.8	0.00e+00	0	28	0	48234496	54	6239
2026-01-11 12:40:14.64	25.08	4.21	-40.4	-42.0	18.6	0.00e+00	0	28	0	56623104	54	6453
2026-01-11 12:40:18.67	25.43	4.43	-40.8	-42.5	18.2	0.00e+00	91	28	0	63963136	54	6809
2026-01-11 12:40:22.71	25.80	4.65	-40.8	-42.5	18.2	0.00e+00	0	28	0	71303168	54	6816
2026-01-11 12:40:26.75	26.17	4.88	-40.7	-42.4	18.4	0.00e+00	0	28	0	78643200	54	6737
2026-01-11 12:40:30.79	26.55	5.10	-40.2	-41.7	19.1	0.00e+00	33	28	0	85983232	54	6202
2026-01-11 12:40:34.83	26.93	5.33	-40.2	-41.7	19.2	0.00e+00	92	28	0	94371840	54	6242
2026-01-11 12:40:38.87	27.31	5.56	-40.0	-41.4	19.5	0.00e+00	0	28	0	101711872	52	6767
2026-01-11 12:40:42.91	27.71	5.79	-39.7	-41.1	19.8	0.00e+00	0	28	0	109051904	52	6509
2026-01-11 12:40:46.95	28.11	6.02	-39.6	-41.0	20.0	0.00e+00	33	28	0	116391936	52	6392
2026-01-11 12:40:50.99	28.51	6.25	-39.3	-40.6	20.2	0.00e+00	0	28	0	124780544	52	6154
2026-01-11 12:40:55.03	28.92	6.48	-39.3	-40.6	20.3	0.00e+00	0	28	0	132120576	52	6163
2026-01-11 12:40:59.07	29.34	6.71	-39.2	-40.5	20.4	0.00e+00	0	28	0	139460608	52	6094
2026-01-11 12:41:03.11	29.76	6.95	-39.6	-40.9	20.0	0.00e+00	50	28	0	146800640	52	6355
2026-01-11 12:41:07.15	30.19	7.18	-39.3	-40.6	19.9	0.00e+00	0	29	0	154140672	52	6159
2026-01-11 12:41:11.18	30.63	7.41	-39.3	-40.6	20.4	0.00e+00	0	28	0	162529280	52	6108
2026-01-11 12:41:15.23	31.07	7.65	-39.2	-40.5	20.6	0.00e+00	0	29	0	169869312	52	6049
2026-01-11 12:41:19.26	31.52	7.89	-38.7	-39.9	21.0	0.00e+00	92	28	0	177209344	50	6339
2026-01-11 12:41:23.30	31.98	8.12	-37.9	-39.0	21.9	0.00e+00	0	29	0	184549376	50	5701
2026-01-11 12:41:27.34	32.44	8.36	-37.8	-38.9	22.0	0.00e+00	0	29	0	192937984	50	5652
2026-01-11 12:41:31.38	32.92	8.60	-38.1	-39.2	21.7	0.00e+00	40	29	0	200278016	50	5849
2026-01-11 12:41:35.42	33.40	8.84	-38.3	-39.4	21.5	0.00e+00	90	29	0	207618048	50	5981
2026-01-11 12:41:39.45	33.88	9.08	-38.1	-39.2	21.7	0.00e+00	33	29	0	214958080	50	5843
2026-01-11 12:41:43.49	34.38	9.32	-38.2	-39.3	21.6	0.00e+00	0	29	0	222298112	50	5931
2026-01-11 12:41:47.53	34.88	9.56	-38.4	-39.5	21.6	0.00e+00	47	29	0	230686720	50	6099
2026-01-11 12:41:51.57	35.39	9.80	-38.3	-39.5	20.7	1.50e-06	0	29	0	238026752	50	6047
2026-01-11 12:41:55.61	35.91	10.04	-38.5	-39.7	20.0	6.08e-04	0	29	0	245366784	50	6229
2026-01-11 12:41:59.65	36.44	10.28	-38.3	-39.4	21.6	0.00e+00	0	29	0	252706816	50	5974
2026-01-11 12:42:03.69	36.97	10.53	-38.1	-39.1	21.9	0.00e+00	92	29	0	261095424	50	5810
2026-01-11 12:42:07.72	37.51	10.77	-38.1	-39.2	21.3	0.00e+00	0	29	0	268435456	50	5848
2026-01-11 12:42:11.76	38.07	11.01	-37.9	-39.0	22.0	0.00e+00	0	29	0	275775488	50	5728
2026-01-11 12:42:15.80	38.63	11.25	-37.7	-38.7	22.3	0.00e+00	0	29	0	283115520	48	6209
2026-01-11 12:42:19.84	39.20	11.50	-37.7	-38.7	22.2	0.00e+00	68	29	0	290455552	48	6243
2026-01-11 12:42:23.88	39.78	11.74	-37.7	-38.7	22.3	0.00e+00	0	29	0	298844160	48	6220
2026-01-11 12:42:27.92	40.37	11.98	-37.9	-38.9	22.1	0.00e+00	0	29	0	306184192	48	6359
2026-01-11 12:42:31.96	40.97	12.22	-38.0	-39.1	22.0	0.00e+00	24	29	0	313524224	48	6488
2026-01-11 12:42:35.99	41.58	12.46	-37.8	-38.8	22.2	0.00e+00	0	29	0	320864256	48	6295
2026-01-11 12:42:40.03	42.19	12.70	-37.6	-38.6	22.4	0.00e+00	0	29	0	328204288	48	6151
2026-01-11 12:42:44.07	42.82	12.95	-37.5	-38.5	22.5	0.00e+00	0	29	0	336592896	48	6075
2026-01-11 12:42:48.11	43.46	13.18	-36.9	-37.8	23.0	0.00e+00	40	29	0	343932928	48	5615
2026-01-11 12:42:52.15	44.11	13.42	-37.1	-38.1	22.9	0.00e+00	0	29	0	351272960	48	5768
2026-01-11 12:42:56.19	44.77	13.66	-37.4	-38.5	22.6	0.00e+00	0	29	0	358612992	48	6042
2026-01-11 12:43:00.23	45.44	13.90	-37.3	-38.3	22.7	0.00e+00	0	29	0	367001600	48	5930
2026-01-11 12:43:04.28	46.12	14.13	-37.0	-38.0	22.9	0.00e+00	84	29	0	374341632	48	5703
2026-01-11 12:43:08.32	46.81	14.37	-37.0	-38.0	23.0	0.00e+00	0	29	0	381681664	46	6393
2026-01-11 12:43:12.35	47.51	14.60	-37.0	-37.9	22.8	0.00e+00	0	29	0	389021696	46	6368
2026-01-11 12:43:16.39	48.22	14.83	-37.4	-38.4	22.7	0.00e+00	45	29	0	396361728	46	6704
2026-01-11 12:43:20.43	48.94	15.06	-37.3	-38.3	22.8	0.00e+00	91	29	0	404750336	46	6624
2026-01-11 12:43:24.47	49.67	15.29	-37.2	-38.2	22.8	0.00e+00	0	29	0	412090368	46	6595
2026-01-11 12:43:28.51	50.41	15.51	-37.7	-38.8	22.2	0.00e+00	0	29	0	419430400	48	6285
2026-01-11 12:43:32.54	51.17	15.73	-37.7	-38.7	22.4	0.00e+00	53	29	0	426770432	48	6210
2026-01-11 12:43:36.58	51.93	15.95	-38.2	-39.3	21.9	0.00e+00	0	29	0	435159040	48	6649
2026-01-11 12:43:40.62	52.71	16.17	-38.2	-39.3	21.8	0.00e+00	0	30	0	442499072	48	6679
2026-01-11 12:43:44.66	53.49	16.38	-38.3	-39.4	21.7	0.00e+00	0	30	0	449839104	48	6739
2026-01-11 12:43:48.70	54.29	16.59	-38.2	-39.2	22.0	0.00e+00	91	30	0	457179136	48	6611
2026-01-11 12:43:52.74	55.10	16.79	-38.5	-39.6	21.7	0.00e+00	0	29	0	464519168	48	6898
2026-01-11 12:43:56.78	55.92	17.00	-38.3	-39.4	21.9	0.00e+00	0	29	0	472907776	48	6719
2026-01-11 12:44:00.81	56.75	17.19	-38.8	-40.0	21.4	0.00e+00	0	30	0	480247808	50	6418
2026-01-11 12:44:04.85	57.59	17.39	-38.9	-40.1	21.4	0.00e+00	45	30	0	487587840	50	6481
2026-01-11 12:44:08.89	58.44	17.58	-38.0	-39.1	22.2	0.00e+00	0	30	0	494927872	50	5767
2026-01-11 12:44:12.93	59.30	17.76	-37.9	-38.9	22.1	0.00e+00	0	30	0	503316480	50	5690
2026-01-11 12:44:16.97	60.18	17.94	-37.8	-38.8	22.4	0.00e+00	43	30	0	510656512	48	6312
2026-01-11 12:44:21.01	61.06	18.12	-38.2	-39.3	22.0	0.00e+00	0	30	0	517996544	48	6632
2026-01-11 12:44:25.04	61.95	18.29	-37.2	-38.2	22.8	0.00e+00	0	30	0	525336576	48	5844
2026-01-11 12:44:29.08	62.85	18.45	-37.4	-38.4	22.6	0.00e+00	0	30	0	532676608	48	6022
2026-01-11 12:44:33.12	63.76	18.61	-36.9	-37.9	23.1	0.00e+00	90	30	0	541065216	48	5658
2026-01-11 12:44:37.16	64.68	18.76	-36.7	-37.7	23.2	0.00e+00	0	30	0	548405248	46	6188
2026-01-11 12:44:41.19	65.61	18.91	-36.1	-37.0	23.8	0.00e+00	0	30	0	555745280	46	5720
2026-01-11 12:44:45.23	66.55	19.05	-36.5	-37.4	23.4	0.00e+00	0	30	0	563085312	46	6028
2026-01-11 12:44:49.27	67.49	19.18	-36.6	-37.5	23.4	0.00e+00	92	30	0	571473920	46	6062
2026-01-11 12:44:53.30	68.44	19.31	-37.0	-38.0	23.0	0.00e+00	0	30	0	578813952	46	6462
2026-01-11 12:44:57.34	69.41	19.42	-36.9	-37.8	23.2	0.00e+00	0	30	0	586153984	46	6310
2026-01-11 12:45:01.38	70.38	19.54	-36.6	-37.6	23.3	0.00e+00	41	30	0	593494016	46	6173
2026-01-11 12:45:05.42	71.35	19.64	-36.9	-37.9	23.2	0.00e+00	61	30	0	600834048	46	6347
2026-01-11 12:45:09.45	72.33	19.73	-37.8	-38.8	22.4	0.00e+00	0	30	0	609222656	48	6275
2026-01-11 12:45:13.50	73.32	19.82	-37.7	-38.8	22.4	0.00e+00	0	30	0	616562688	48	6263
2026-01-11 12:45:17.54	74.31	19.90	-37.4	-38.3	22.8	0.00e+00	45	30	0	623902720	48	5946
2026-01-11 12:45:21.58	75.31	19.97	-37.1	-38.0	23.0	0.00e+00	0	30	0	631242752	48	5715
2026-01-11 12:45:25.61	76.31	20.03	-36.6	-37.5	23.4	0.00e+00	0	30	0	639631360	46	6084
2026-01-11 12:45:29.64	77.31	20.09	-37.3	-38.3	22.8	0.00e+00	0	30	0	646971392	46	6642
2026-01-11 12:45:33.68	78.32	20.13	-37.8	-38.8	22.4	0.00e+00	92	30	0	654311424	48	6310
2026-01-11 12:45:37.72	79.34	20.17	-38.0	-39.0	22.2	0.00e+00	0	30	0	661651456	48	6440
2026-01-11 12:45:41.76	80.35	20.20	-37.6	-38.6	22.6	0.00e+00	0	30	0	668991488	48	6110
2026-01-11 12:45:45.80	81.37	20.22	-37.9	-39.0	22.1	0.00e+00	0	30	0	677380096	48	6437
2026-01-11 12:45:49.83	82.38	20.23	-37.6	-38.6	22.3	0.00e+00	60	30	0	684720128	48	6159
2026-01-11 12:45:53.87	83.40	20.23	-37.9	-39.0	22.3	0.00e+00	0	30	0	692060160	48	6431
2026-01-11 12:45:57.91	84.41	20.22	-37.8	-38.8	22.4	0.00e+00	33	30	0	699400192	48	6286
2026-01-11 12:46:01.95	85.43	20.21	-37.5	-38.5	22.6	0.00e+00	40	30	0	707788800	48	6060
2026-01-11 12:46:05.98	86.44	20.18	-37.0	-38.0	23.1	0.00e+00	12	30	0	715128832	48	5723
2026-01-11 12:46:10.02	87.46	20.15	-37.1	-38.1	22.9	0.00e+00	0	30	0	722468864	46	6469
2026-01-11 12:46:14.06	88.47	20.10	-37.8	-38.8	22.4	0.00e+00	0	30	0	729808896	48	6307
2026-01-11 12:46:18.10	89.48	20.05	-37.4	-38.4	22.7	0.00e+00	88	30	0	737148928	48	6010
2026-01-11 12:46:22.14	90.48	19.99	-37.6	-38.6	22.5	0.00e+00	0	30	0	745537536	48	6121
2026-01-11 12:46:26.17	91.48	19.92	-37.0	-37.9	23.1	0.00e+00	0	30	0	752877568	48	5687
2026-01-11 12:46:30.21	92.48	19.85	-37.2	-38.2	22.7	0.00e+00	0	30	0	760217600	46	6588
2026-01-11 12:46:34.25	93.47	19.76	-37.3	-38.3	22.7	0.00e+00	81	30	0	767557632	46	6625
2026-01-11 12:46:38.29	94.45	19.67	-38.0	-39.1	22.0	0.00e+00	0	30	0	775946240	48	6510
2026-01-11 12:46:42.33	95.43	19.57	-37.3	-38.3	22.6	0.00e+00	0	30	0	783286272	48	5918
2026-01-11 12:46:46.36	96.40	19.46	-37.0	-38.0	23.1	0.00e+00	40	30	0	790626304	46	6403
2026-01-11 12:46:50.40	97.37	19.34	-36.6	-37.5	23.3	0.00e+00	92	30	0	797966336	46	6089
2026-01-11 12:46:54.44	98.33	19.22	-36.6	-37.6	23.2	0.00e+00	0	30	0	805306368	46	6172
2026-01-11 12:46:58.48	99.28	19.09	-36.7	-37.7	23.3	0.00e+00	0	29	0	813694976	46	6181
2026-01-11 12:47:02.52	100.22	18.95	-36.3	-37.2	23.6	0.00e+00	43	30	0	821035008	46	5835
2026-01-11 12:47:06.56	101.15	18.81	-36.7	-37.6	23.3	0.00e+00	0	30	0	828375040	46	6140
2026-01-11 12:47:10.60	102.08	18.66	-36.6	-37.5	23.4	0.00e+00	0	29	0	835715072	46	6082
2026-01-11 12:47:14.63	102.99	18.50	-36.9	-37.9	23.0	0.00e+00	0	29	0	844103680	46	6367
2026-01-11 12:47:18.67	103.90	18.34	-36.7	-37.9	23.1	0.00e+00	79	29	0	851443712	46	6356
2026-01-11 12:47:22.71	104.80	18.17	-36.5	-37.7	23.2	0.00e+00	0	29	0	858783744	46	6209
2026-01-11 12:47:26.75	105.69	17.99	-37.4	-38.4	22.6	0.00e+00	0	29	0	866123776	46	6719
2026-01-11 12:47:30.79	106.57	17.81	-37.5	-38.7	22.2	0.00e+00	0	29	0	873463808	48	6183
2026-01-11 12:47:34.83	107.43	17.63	-37.8	-38.9	22.2	0.00e+00	92	29	0	881852416	48	6342
2026-01-11 12:47:38.87	108.29	17.44	-37.2	-38.2	22.8	0.00e+00	0	29	0	889192448	48	5836
2026-01-11 12:47:42.91	109.14	17.24	-37.9	-39.1	22.1	0.00e+00	0	29	0	896532480	48	6473
2026-01-11 12:47:46.94	109.97	17.05	-38.0	-39.1	22.0	0.00e+00	37	29	0	903872512	48	6484
2026-01-11 12:47:50.98	110.80	16.84	-37.7	-38.8	22.2	0.00e+00	0	29	0	912261120	48	6293
2026-01-11 12:47:55.02	111.61	16.64	-38.1	-39.2	21.9	0.00e+00	0	29	0	919601152	48	6598
2026-01-11 12:47:59.06	112.42	16.43	-37.9	-39.0	22.1	0.00e+00	0	29	0	926941184	48	6399
2026-01-11 12:48:03.10	113.21	16.21	-38.6	-39.8	21.4	0.00e+00	53	29	0	934281216	50	6286
2026-01-11 12:48:07.14	113.99	16.00	-38.4	-39.5	21.7	0.00e+00	0	29	0	941621248	50	6064
2026-01-11 12:48:11.18	114.76	15.78	-37.9	-39.2	21.9	0.00e+00	0	29	0	950009856	50	5842
2026-01-11 12:48:15.21	115.52	15.56	-37.5	-38.6	22.4	0.00e+00	0	29	0	957349888	48	6128
2026-01-11 12:48:19.25	116.27	15.33	-37.6	-38.7	22.3	0.00e+00	92	29	0	964689920	48	6243
2026-01-11 12:48:23.29	117.01	15.10	-38.0	-39.1	22.0	0.00e+00	0	29	0	972029952	48	6519
2026-01-11 12:48:27.32	117.74	14.88	-37.8	-38.9	22.1	0.00e+00	0	29	0	980418560	48	6386
2026-01-11 12:48:31.36	118.45	14.64	-38.1	-39.4	21.7	0.00e+00	37	29	0	987758592	48	6704
2026-01-11 12:48:35.40	119.16	14.41	-37.4	-38.6	22.4	0.00e+00	92	29	0	995098624	48	6126
2026-01-11 12:48:39.44	119.85	14.17	-37.8	-39.0	22.0	0.00e+00	0	29	0	1002438656	48	6396
2026-01-11 12:48:43.48	120.54	13.94	-37.4	-38.4	22.5	0.00e+00	0	29	0	1009778688	48	6011
2026-01-11 12:48:47.52	121.21	13.70	-37.0	-38.0	22.9	0.00e+00	90	29	0	1018167296	48	5698
2026-01-11 12:48:51.56	121.88	13.46	-38.2	-39.4	21.6	0.00e+00	0	29	0	1025507328	48	6753
2026-01-11 12:48:55.60	122.53	13.22	-37.5	-38.6	22.4	0.00e+00	0	29	0	1032847360	48	6133
2026-01-11 12:48:59.63	123.17	12.98	-36.6	-37.5	23.3	0.00e+00	0	29	0	1040187392	46	6044
2026-01-11 12:49:03.67	123.80	12.74	-36.7	-37.6	23.1	0.00e+00	92	29	0	1048576000	46	6131
2026-01-11 12:49:07.71	124.43	12.49	-37.0	-37.9	22.7	0.00e+00	0	29	0	1055916032	46	6387
2026-01-11 12:49:11.75	125.04	12.25	-37.2	-38.3	22.5	0.00e+00	0	29	0	1063256064	46	6636
2026-01-11 12:49:15.78	125.64	12.01	-38.1	-39.2	21.8	0.00e+00	33	29	0	1070596096	48	6586
2026-01-11 12:49:19.82	126.24	11.76	-37.6	-38.7	22.2	0.00e+00	92	29	0	1077936128	48	6191
2026-01-11 12:49:23.86	126.82	11.52	-38.0	-39.0	21.9	0.00e+00	0	29	0	1086324736	48	6447
2026-01-11 12:49:27.90	127.40	11.28	-37.7	-38.8	22.1	0.00e+00	0	29	0	1093664768	48	6271
2026-01-11 12:49:31.93	127.96	11.03	-36.8	-37.8	22.9	0.00e+00	46	29	0	1101004800	48	5595
2026-01-11 12:49:35.98	128.52	10.79	-37.3	-38.3	22.5	0.00e+00	0	29	0	1108344832	46	6685
2026-01-11 12:49:40.02	129.07	10.54	-37.5	-38.5	22.4	0.00e+00	0	29	0	1116733440	46	6810
2026-01-11 12:49:44.06	129.61	10.30	-37.8	-38.8	22.0	0.00e+00	0	29	0	1124073472	48	6314
2026-01-11 12:49:48.09	130.14	10.05	-38.3	-39.4	21.6	0.00e+00	72	29	0	1131413504	48	6727
2026-01-11 12:49:52.13	130.66	9.81	-38.5	-39.7	21.3	0.00e+00	0	29	0	1138753536	48	6988
2026-01-11 12:49:56.17	131.17	9.57	-38.0	-39.1	21.5	0.00e+00	0	29	0	1146093568	48	6520
2026-01-11 12:50:00.21	131.68	9.32	-36.8	-37.8	22.8	0.00e+00	0	29	0	1154482176	48	5580
2026-01-11 12:50:04.25	132.17	9.08	-37.2	-38.2	22.4	0.00e+00	89	29	0	1161822208	46	6588
2026-01-11 12:50:08.29	132.66	8.84	-38.3	-39.4	21.4	0.00e+00	0	29	0	1169162240	48	6765
2026-01-11 12:50:12.33	133.15	8.60	-38.7	-39.9	20.9	0.00e+00	0	28	0	1176502272	48	7158
2026-01-11 12:50:16.36	133.62	8.36	-39.4	-40.7	20.3	0.00e+00	34	29	0	1184890880	50	6971
2026-01-11 12:50:20.40	134.09	8.12	-39.6	-41.0	19.9	0.00e+00	92	29	0	1192230912	52	6459
2026-01-11 12:50:24.44	134.55	7.88	-39.3	-40.9	20.1	0.00e+00	0	29	0	1199570944	52	6380
2026-01-11 12:50:28.48	135.00	7.64	-38.7	-40.1	20.8	0.00e+00	0	28	0	1206910976	50	6469
2026-01-11 12:50:32.52	135.44	7.40	-38.9	-40.2	20.7	0.00e+00	33	28	0	1214251008	50	6567
2026-01-11 12:50:36.56	135.88	7.16	-38.9	-40.1	20.6	0.00e+00	0	29	0	1222639616	50	6514
2026-01-11 12:50:40.60	136.31	6.93	-38.9	-40.2	20.6	0.00e+00	0	28	0	1229979648	50	6555
2026-01-11 12:50:44.64	136.74	6.69	-38.8	-40.0	20.8	0.00e+00	0	28	0	1237319680	50	6441
2026-01-11 12:50:48.68	137.16	6.46	-38.6	-39.8	20.8	0.00e+00	83	28	0	1244659712	50	6283
2026-01-11 12:50:52.72	137.57	6.22	-39.0	-40.2	20.6	0.00e+00	0	28	0	1253048320	50	6608
2026-01-11 12:50:56.76	137.98	5.99	-39.4	-40.8	19.9	0.00e+00	0	28	0	1260388352	50	7075
2026-01-11 12:51:00.80	138.38	5.76	-39.7	-41.2	19.4	0.00e+00	0	28	0	1267728384	52	6544
2026-01-11 12:51:04.84	138.77	5.53	-40.3	-42.1	18.0	0.00e+00	92	28	0	1275068416	52	7304
2026-01-11 12:51:08.88	139.16	5.30	-40.8	-42.7	17.5	0.00e+00	0	28	0	1282408448	54	7004
2026-01-11 12:51:12.92	139.54	5.07	-42.2	-45.0	14.8	0.00e+00	2	28	0	1290797056	56	8068
2026-01-11 12:51:16.95	139.91	4.84	-43.0	-46.9	12.2	1.43e-04	92	28	0	1298137088	58	8927
2026-01-11 12:51:20.99	140.29	4.61	-43.9	-49.7	8.4	3.97e-02	0	28	0	1305477120	60	11046
2026-01-11 12:51:25.03	140.65	4.39	-44.2	-51.3	6.2	2.46e-01	0	28	0	1312817152	60	13298
2026-01-11 12:51:29.06	141.01	4.16	-44.4	-52.2	5.7	3.72e-01	0	28	0	1321205760	60	14720
2026-01-11 12:51:33.10	141.36	3.94	-44.0	-51.1	6.9	1.72e-01	90	28	0	1328545792	60	13047
2026-01-11 12:51:37.14	141.71	3.72	-43.9	-49.9	8.6	4.99e-02	0	28	0	1335885824	60	11264
2026-01-11 12:51:41.18	142.06	3.49	-43.7	-48.6	10.4	6.66e-03	0	28	0	1343225856	60	9718
2026-01-11 12:51:45.22	142.40	3.27	-43.3	-48.0	11.4	2.30e-03	0	28	0	1350565888	60	9073
2026-01-11 12:51:49.26	142.73	3.05	-43.2	-47.5	11.9	5.31e-04	79	28	0	1358954496	60	8540
2026-01-11 12:51:53.29	143.06	2.83	-47.5	-62.7	3.6	1.51e+00	0	28	104	1361051648	60	49557
2026-01-11 12:51:57.34	143.39	2.61	-48.0	-63.3	3.6	1.51e+00	0	28	104	1361051648	60	52833
2026-01-11 12:52:01.38	143.71	2.40	-48.0	-63.3	3.6	1.51e+00	0	28	104	1361051648	60	52899
2026-01-11 12:52:05.41	144.03	2.18	-48.0	-63.2	3.6	1.51e+00	0	28	104	1361051648	60	52104
2026-01-11 12:52:09.45	144.34	1.97	-48.0	-63.2	3.6	1.51e+00	0	28	104	1361051648	60	52102
2026-01-11 12:52:13.49	144.64	1.75	-48.0	-63.2	3.6	1.51e+00	0	28	104	1361051648	60	52171
2026-01-11 12:52:17.53	144.95	1.54	-48.1	-63.2	3.6	1.51e+00	0	28	104	1361051648	60	52290
2026-01-11 12:52:21.57	145.25	1.32	-48.0	-63.1	3.6	1.51e+00	0	28	104	1361051648	60	51713
2026-01-11 12:52:25.61	145.54	1.11	-48.0	-63.1	3.6	1.51e+00	0	28	104	1361051648	60	51773
2026-01-11 12:52:29.65	145.84	0.90	-48.2	-63.3	3.6	1.51e+00	0	28	104	1361051648	60	52876
2026-01-11 12:52:33.69	146.12	0.69	-48.0	-63.2	3.6	1.51e+00	0	28	104	1361051648	60	52219
2026-01-11 12:52:37.73	146.41	0.48	-48.0	-63.2	3.6	1.51e+00	0	28	104	1361051648	60	52256
2026-01-11 12:52:41.77	146.69	0.28	-48.1	-63.2	3.6	1.51e+00	0	28	104	1361051648	60	52510
2026-01-11 12:52:45.81	146.96	0.07	-48.0	-63.2	3.6	1.51e+00	0	28	104	1361051648	60	52097

#Closed at: 2026-01-11 12:52:48
#Recorded file [1361 MB]: D:/lorett/data/35029_260112_003857.dat