passes_logs/2026/01/11/R4.6S_Anadyr/R4.6S_Anadyr__20260111_191850_SUOMI_NPP_rec.log

#Pass ID: 20260111_191850_SUOMI NPP
#Satellite: SUOMI NPP
#Configuration: NPP
#almurnet v.1.7.20251203
#Start time: 2026-01-11 19:18:51

#Version: 2.2.20231116
#Station: R4.6S_Anadyr
#Location: 177.4865 lon 64.73178 lat
#TLE: 1 37849U 11061A   26010.94533966  .00000106  00000+0  71276-4 0  9997
#TLE: 2 37849  98.7807 313.0290 0002520  70.6146 289.5303 14.19524339736134

#Time	Az	El	Level	Level2	SNR	BER	BlckErr	Temp	State	Recorded	gain1	gain2
2026-01-11 19:18:51.69	50.45	0.05	-48.0	-59.6	3.5	8.44e-01	0	26	0	0	60	34685
2026-01-11 19:18:54.72	50.23	0.20	-48.3	-63.5	3.6	1.51e+00	0	27	104	0	60	54144
2026-01-11 19:18:57.75	50.00	0.35	-48.1	-63.4	3.6	1.51e+00	0	28	104	0	60	53242
2026-01-11 19:19:00.78	49.76	0.49	-48.2	-63.4	3.6	1.51e+00	0	28	104	0	60	53358
2026-01-11 19:19:03.81	49.53	0.64	-48.2	-63.3	3.6	1.51e+00	0	28	104	0	60	52962
2026-01-11 19:19:06.84	49.29	0.79	-47.9	-63.1	3.6	1.51e+00	0	28	104	0	60	51939
2026-01-11 19:19:09.87	49.05	0.94	-47.5	-62.7	3.6	1.51e+00	0	28	104	0	60	49095
2026-01-11 19:19:12.90	48.80	1.09	-46.5	-61.7	3.6	1.51e+00	0	28	104	0	60	43891
2026-01-11 19:19:15.93	48.56	1.24	-46.5	-61.7	3.6	1.51e+00	0	28	104	0	60	43994
2026-01-11 19:19:18.96	48.31	1.39	-46.4	-61.6	3.6	1.51e+00	0	28	104	0	60	43607
2026-01-11 19:19:21.99	48.06	1.53	-46.4	-61.7	3.6	1.51e+00	0	28	104	0	60	43836
2026-01-11 19:19:25.02	47.81	1.68	-46.4	-61.6	3.6	1.51e+00	0	28	104	0	60	43429
2026-01-11 19:19:28.05	47.55	1.83	-46.4	-61.6	3.6	1.51e+00	0	28	104	0	60	43588
2026-01-11 19:19:31.08	47.29	1.98	-46.4	-61.4	3.6	1.51e+00	0	28	104	0	60	42677
2026-01-11 19:19:34.11	47.03	2.14	-46.4	-61.1	3.6	1.51e+00	0	28	104	0	60	41247
2026-01-11 19:19:37.13	46.76	2.29	-46.4	-61.6	3.6	1.51e+00	0	28	104	0	60	43267
2026-01-11 19:19:40.17	46.50	2.44	-46.4	-61.5	3.6	1.51e+00	0	28	104	0	60	42926
2026-01-11 19:19:43.20	46.23	2.59	-46.4	-61.3	3.6	1.51e+00	0	28	104	0	60	41834
2026-01-11 19:19:46.22	45.95	2.74	-46.4	-60.7	3.6	1.51e+00	0	28	104	0	60	39382
2026-01-11 19:19:49.25	45.68	2.89	-46.1	-56.3	5.0	8.84e-01	0	28	0	0	60	23668
2026-01-11 19:19:52.28	45.40	3.04	-44.4	-48.7	11.5	6.13e-04	0	28	0	5242880	60	9842
2026-01-11 19:19:55.31	45.12	3.19	-44.7	-49.3	12.9	5.79e-03	0	28	0	7340032	60	10590
2026-01-11 19:19:58.33	44.83	3.35	-42.5	-45.1	15.0	1.19e+00	0	28	104	10485760	58	7273
2026-01-11 19:20:01.36	44.54	3.50	-41.8	-44.0	16.7	0.00e+00	0	28	0	14680064	56	7198
2026-01-11 19:20:04.39	44.25	3.65	-41.7	-43.8	17.1	0.00e+00	0	28	0	20971520	56	7053
2026-01-11 19:20:07.42	43.96	3.80	-41.5	-43.5	17.3	0.00e+00	0	28	0	26214400	56	6781
2026-01-11 19:20:10.45	43.66	3.96	-41.5	-43.6	17.2	0.00e+00	0	28	0	32505856	56	6864
2026-01-11 19:20:13.47	43.36	4.11	-41.4	-43.3	17.5	0.00e+00	0	28	0	37748736	56	6661
2026-01-11 19:20:16.50	43.06	4.26	-41.2	-43.1	17.7	0.00e+00	0	28	0	42991616	56	6492
2026-01-11 19:20:19.53	42.75	4.42	-41.1	-42.9	17.9	0.00e+00	0	28	0	49283072	56	6367
2026-01-11 19:20:22.56	42.44	4.57	-41.3	-43.2	17.8	0.00e+00	0	28	0	54525952	56	6580
2026-01-11 19:20:25.58	42.13	4.72	-41.2	-43.1	17.9	0.00e+00	0	28	0	60817408	56	6477
2026-01-11 19:20:28.61	41.81	4.88	-41.1	-42.9	18.0	0.00e+00	0	28	0	66060288	56	6363
2026-01-11 19:20:31.64	41.49	5.03	-41.2	-43.0	18.0	0.00e+00	0	28	0	72351744	56	6464
2026-01-11 19:20:34.67	41.16	5.18	-41.2	-43.0	18.1	0.00e+00	0	28	0	77594624	56	6424
2026-01-11 19:20:37.69	40.84	5.34	-41.2	-43.0	17.9	0.00e+00	0	28	0	82837504	56	6452
2026-01-11 19:20:40.72	40.50	5.49	-41.0	-42.8	18.2	0.00e+00	0	28	0	89128960	56	6290
2026-01-11 19:20:43.74	40.17	5.64	-40.7	-42.4	18.7	0.00e+00	0	28	0	94371840	54	6693
2026-01-11 19:20:46.77	39.83	5.79	-40.4	-42.0	18.9	0.00e+00	0	28	0	100663296	54	6463
2026-01-11 19:20:49.80	39.49	5.95	-40.2	-41.8	19.2	0.00e+00	0	28	0	105906176	54	6264
2026-01-11 19:20:52.83	39.14	6.10	-39.7	-41.1	19.8	0.00e+00	0	28	0	111149056	52	6510
2026-01-11 19:20:55.86	38.79	6.25	-40.0	-41.4	19.5	0.00e+00	0	28	0	117440512	52	6744
2026-01-11 19:20:58.88	38.44	6.41	-39.9	-41.4	19.7	0.00e+00	0	28	0	122683392	52	6706
2026-01-11 19:21:01.91	38.08	6.56	-39.7	-41.1	19.5	0.00e+00	0	28	0	128974848	52	6488
2026-01-11 19:21:04.93	37.72	6.71	-39.9	-41.3	19.6	0.00e+00	0	28	0	134217728	52	6643
2026-01-11 19:21:07.96	37.36	6.87	-39.9	-41.3	19.8	0.00e+00	0	28	0	140509184	52	6638
2026-01-11 19:21:10.99	36.99	7.02	-39.7	-41.1	19.9	0.00e+00	0	28	0	145752064	52	6510
2026-01-11 19:21:14.02	36.62	7.17	-40.3	-41.8	19.4	0.00e+00	0	28	0	150994944	52	7040
2026-01-11 19:21:17.05	36.24	7.32	-40.2	-41.7	19.6	0.00e+00	0	28	0	157286400	52	6937
2026-01-11 19:21:20.07	35.86	7.47	-40.2	-41.7	19.5	0.00e+00	0	28	0	162529280	52	6966
2026-01-11 19:21:23.10	35.47	7.62	-40.4	-41.9	19.1	0.00e+00	0	28	0	168820736	52	7142
2026-01-11 19:21:26.13	35.08	7.78	-39.9	-41.2	19.9	0.00e+00	0	28	0	174063616	52	6603
2026-01-11 19:21:29.16	34.69	7.93	-40.0	-41.4	19.8	0.00e+00	0	28	0	179306496	52	6700
2026-01-11 19:21:32.19	34.29	8.08	-39.8	-41.1	19.9	0.00e+00	0	28	0	185597952	52	6536
2026-01-11 19:21:35.21	33.89	8.22	-39.9	-41.2	19.9	0.00e+00	0	28	0	190840832	52	6588
2026-01-11 19:21:38.25	33.48	8.37	-40.5	-42.1	19.2	0.00e+00	0	28	0	197132288	52	7286
2026-01-11 19:21:41.27	33.07	8.52	-39.9	-41.3	19.9	0.00e+00	0	28	0	202375168	52	6671
2026-01-11 19:21:44.30	32.66	8.67	-40.3	-41.9	19.3	0.00e+00	0	28	0	207618048	52	7109
2026-01-11 19:21:47.33	32.24	8.82	-40.0	-41.5	19.7	0.00e+00	0	28	0	213909504	52	6788
2026-01-11 19:21:50.36	31.82	8.97	-39.9	-41.3	20.0	0.00e+00	0	28	0	219152384	52	6648
2026-01-11 19:21:53.38	31.39	9.11	-39.8	-41.1	20.0	0.00e+00	0	28	0	225443840	52	6519
2026-01-11 19:21:56.41	30.96	9.26	-39.5	-40.9	20.4	0.00e+00	0	28	0	230686720	52	6324
2026-01-11 19:21:59.44	30.52	9.40	-39.4	-40.6	20.5	0.00e+00	0	28	0	236978176	52	6167
2026-01-11 19:22:02.47	30.08	9.55	-38.9	-40.1	21.0	0.00e+00	0	28	0	242221056	52	5826
2026-01-11 19:22:05.50	29.63	9.69	-38.8	-40.0	21.1	0.00e+00	0	28	0	247463936	50	6447
2026-01-11 19:22:08.53	29.18	9.83	-38.3	-39.4	21.3	0.00e+00	0	28	0	253755392	50	6007
2026-01-11 19:22:11.56	28.73	9.97	-37.8	-38.8	22.1	0.00e+00	0	28	0	258998272	50	5621
2026-01-11 19:22:14.58	28.27	10.11	-37.8	-38.8	22.1	0.00e+00	0	28	0	265289728	48	6283
2026-01-11 19:22:17.61	27.81	10.25	-38.0	-39.1	21.9	0.00e+00	0	28	0	270532608	48	6493
2026-01-11 19:22:20.64	27.34	10.39	-38.4	-39.6	21.5	0.00e+00	0	28	0	275775488	48	6878
2026-01-11 19:22:23.67	26.87	10.53	-38.3	-39.4	21.6	0.00e+00	0	28	0	282066944	48	6755
2026-01-11 19:22:26.69	26.39	10.66	-38.1	-39.2	21.7	0.00e+00	0	28	0	287309824	48	6592
2026-01-11 19:22:29.71	25.91	10.80	-37.5	-38.5	22.4	0.00e+00	0	28	0	293601280	48	6092
2026-01-11 19:22:32.74	25.43	10.93	-37.2	-38.2	22.7	0.00e+00	0	28	0	298844160	48	5852
2026-01-11 19:22:35.76	24.94	11.06	-37.1	-38.1	22.6	0.00e+00	0	28	0	305135616	48	5793
2026-01-11 19:22:38.79	24.44	11.20	-37.1	-38.1	22.8	0.00e+00	0	28	0	310378496	48	5768
2026-01-11 19:22:41.82	23.94	11.33	-37.6	-38.6	22.3	0.00e+00	0	28	0	315621376	48	6151
2026-01-11 19:22:44.85	23.44	11.45	-37.0	-37.9	22.8	0.00e+00	0	28	0	321912832	48	5666
2026-01-11 19:22:47.88	22.93	11.58	-36.7	-37.6	23.1	0.00e+00	0	28	0	327155712	46	6164
2026-01-11 19:22:50.90	22.42	11.70	-36.8	-37.8	22.9	0.00e+00	0	28	0	333447168	46	6264
2026-01-11 19:22:53.92	21.90	11.83	-37.1	-38.1	22.7	0.00e+00	0	28	0	338690048	46	6499
2026-01-11 19:22:56.95	21.38	11.95	-37.8	-38.9	22.2	0.00e+00	0	28	0	343932928	48	6357
2026-01-11 19:22:59.98	20.86	12.07	-37.5	-38.6	21.9	0.00e+00	0	28	0	350224384	48	6124
2026-01-11 19:23:03.00	20.33	12.19	-37.5	-38.6	22.4	0.00e+00	0	28	0	355467264	48	6117
2026-01-11 19:23:06.02	19.79	12.30	-37.4	-38.4	22.5	0.00e+00	0	28	0	361758720	48	5989
2026-01-11 19:23:09.05	19.26	12.42	-37.7	-38.8	22.3	0.00e+00	0	28	0	367001600	48	6256
2026-01-11 19:23:12.08	18.71	12.53	-37.9	-38.9	22.1	0.00e+00	0	28	0	372244480	48	6386
2026-01-11 19:23:15.11	18.17	12.64	-37.1	-38.1	22.8	0.00e+00	0	28	0	378535936	48	5806
2026-01-11 19:23:18.14	17.61	12.75	-37.3	-38.3	22.6	0.00e+00	0	28	0	383778816	48	5927
2026-01-11 19:23:21.16	17.06	12.85	-37.3	-38.2	22.7	0.00e+00	0	28	0	390070272	48	5893
2026-01-11 19:23:24.19	16.50	12.96	-37.5	-38.5	22.6	0.00e+00	0	28	0	395313152	48	6048
2026-01-11 19:23:27.22	15.94	13.06	-37.2	-38.2	22.8	0.00e+00	0	28	0	401604608	48	5850
2026-01-11 19:23:30.24	15.37	13.16	-37.2	-38.2	22.7	0.00e+00	0	28	0	406847488	48	5874
2026-01-11 19:23:33.28	14.80	13.26	-37.9	-39.0	22.1	0.00e+00	0	28	0	412090368	48	6393
2026-01-11 19:23:36.30	14.22	13.35	-38.0	-39.2	22.0	0.00e+00	0	28	0	418381824	48	6552
2026-01-11 19:23:39.33	13.65	13.44	-37.7	-38.7	22.4	0.00e+00	0	28	0	423624704	48	6237
2026-01-11 19:23:42.36	13.06	13.53	-36.8	-37.7	22.5	0.00e+00	0	28	0	429916160	48	5523
2026-01-11 19:23:45.39	12.48	13.62	-36.4	-37.3	23.5	0.00e+00	0	28	0	435159040	46	5907
2026-01-11 19:23:48.42	11.89	13.70	-36.8	-37.7	23.2	0.00e+00	0	28	0	440401920	46	6218
2026-01-11 19:23:51.45	11.30	13.78	-36.3	-37.2	23.6	0.00e+00	0	28	0	446693376	46	5846
2026-01-11 19:23:54.47	10.70	13.86	-36.6	-37.5	23.2	0.00e+00	0	28	0	451936256	46	6043
2026-01-11 19:23:57.50	10.10	13.94	-36.8	-37.7	23.2	0.00e+00	0	28	0	458227712	46	6210
2026-01-11 19:24:00.53	9.50	14.01	-37.5	-38.5	22.5	0.00e+00	0	28	0	463470592	46	6844
2026-01-11 19:24:03.55	8.90	14.08	-37.8	-38.9	22.3	0.00e+00	0	28	0	468713472	48	6353
2026-01-11 19:24:06.58	8.29	14.15	-37.7	-38.8	22.3	0.00e+00	0	28	0	475004928	48	6259
2026-01-11 19:24:09.61	7.68	14.21	-37.8	-38.9	22.1	0.00e+00	0	27	0	480247808	48	6373
2026-01-11 19:24:12.64	7.07	14.27	-37.6	-38.7	22.4	0.00e+00	0	28	0	486539264	48	6189
2026-01-11 19:24:15.67	6.45	14.33	-37.3	-38.4	22.6	0.00e+00	0	28	0	491782144	48	5973
2026-01-11 19:24:18.70	5.83	14.38	-37.2	-38.2	22.8	0.00e+00	0	28	0	498073600	48	5843
2026-01-11 19:24:21.72	5.21	14.43	-36.6	-37.5	23.3	0.00e+00	0	28	0	503316480	46	6097
2026-01-11 19:24:24.74	4.59	14.48	-37.1	-38.0	22.9	0.00e+00	0	28	0	508559360	46	6448
2026-01-11 19:24:27.77	3.97	14.52	-37.8	-38.8	22.3	0.00e+00	0	28	0	514850816	46	7071
2026-01-11 19:24:30.80	3.34	14.57	-37.3	-38.3	22.8	0.00e+00	0	28	0	520093696	48	5952
2026-01-11 19:24:33.83	2.72	14.60	-37.1	-38.1	22.7	0.00e+00	0	27	0	526385152	48	5817
2026-01-11 19:24:36.85	2.09	14.64	-37.3	-38.3	22.7	0.00e+00	0	28	0	531628032	48	5928
2026-01-11 19:24:39.88	1.46	14.67	-37.2	-38.2	22.9	0.00e+00	0	28	0	536870912	48	5835
2026-01-11 19:24:42.90	0.83	14.70	-37.6	-38.6	22.5	0.00e+00	0	27	0	543162368	48	6138
2026-01-11 19:24:45.93	0.19	14.72	-37.3	-38.3	22.7	0.00e+00	0	27	0	548405248	48	5912
2026-01-11 19:24:48.96	359.56	14.74	-36.9	-37.9	23.0	0.00e+00	0	28	0	554696704	48	5639
2026-01-11 19:24:51.99	358.93	14.76	-37.1	-38.1	22.9	0.00e+00	0	28	0	559939584	48	5766
2026-01-11 19:24:55.02	358.29	14.77	-37.1	-38.1	22.8	0.00e+00	0	27	0	566231040	48	5816
2026-01-11 19:24:58.04	357.66	14.78	-37.2	-38.2	22.9	0.00e+00	0	27	0	571473920	48	5831
2026-01-11 19:25:01.07	357.02	14.79	-37.7	-38.7	22.3	0.00e+00	0	27	0	576716800	48	6216
2026-01-11 19:25:04.10	356.38	14.79	-37.6	-38.7	22.4	0.00e+00	0	28	0	583008256	48	6185
2026-01-11 19:25:07.13	355.75	14.79	-37.0	-38.0	22.8	0.00e+00	0	28	0	588251136	48	5746
2026-01-11 19:25:10.15	355.11	14.78	-36.8	-37.8	23.1	0.00e+00	0	27	0	594542592	46	6313
2026-01-11 19:25:13.18	354.48	14.78	-37.2	-38.2	22.7	0.00e+00	0	28	0	599785472	46	6568
2026-01-11 19:25:16.21	353.84	14.77	-37.6	-38.6	22.5	0.00e+00	0	27	0	605028352	46	6909
2026-01-11 19:25:19.24	353.21	14.75	-37.5	-38.6	22.5	0.00e+00	0	27	0	611319808	46	6896
2026-01-11 19:25:22.26	352.57	14.73	-37.8	-38.9	22.2	0.00e+00	0	27	0	616562688	48	6351
2026-01-11 19:25:25.29	351.94	14.71	-38.3	-39.4	21.8	0.00e+00	0	27	0	622854144	48	6729
2026-01-11 19:25:28.32	351.31	14.69	-37.7	-38.8	22.4	0.00e+00	0	27	0	628097024	48	6259
2026-01-11 19:25:31.34	350.68	14.66	-37.1	-38.1	23.0	0.00e+00	0	27	0	633339904	48	5770
2026-01-11 19:25:34.37	350.05	14.62	-37.0	-38.0	23.0	0.00e+00	0	27	0	639631360	48	5734
2026-01-11 19:25:37.40	349.42	14.59	-37.6	-38.6	22.5	0.00e+00	0	27	0	644874240	48	6171
2026-01-11 19:25:40.43	348.79	14.55	-37.3	-38.3	22.8	0.00e+00	0	27	0	651165696	48	5899
2026-01-11 19:25:43.46	348.17	14.51	-36.5	-37.4	23.3	0.00e+00	0	27	0	656408576	46	6015
2026-01-11 19:25:46.48	347.55	14.46	-36.8	-37.7	23.2	0.00e+00	0	27	0	662700032	46	6223
2026-01-11 19:25:49.51	346.92	14.41	-36.9	-37.9	23.0	0.00e+00	0	27	0	667942912	46	6323
2026-01-11 19:25:52.54	346.31	14.36	-37.0	-38.0	22.9	0.00e+00	0	27	0	673185792	46	6440
2026-01-11 19:25:55.57	345.69	14.31	-37.4	-38.4	22.6	0.00e+00	0	27	0	679477248	46	6745
2026-01-11 19:25:58.60	345.07	14.25	-37.3	-38.4	22.6	0.00e+00	0	28	0	684720128	46	6736
2026-01-11 19:26:01.63	344.46	14.19	-37.3	-38.5	22.5	0.00e+00	0	27	0	691011584	46	6779
2026-01-11 19:26:04.66	343.85	14.12	-37.5	-38.6	22.5	0.00e+00	0	28	0	696254464	46	6907
2026-01-11 19:26:07.69	343.25	14.05	-36.7	-37.7	23.2	0.00e+00	0	27	0	701497344	46	6204
2026-01-11 19:26:10.71	342.64	13.98	-37.3	-38.4	22.4	0.00e+00	0	27	0	707788800	46	6754
2026-01-11 19:26:13.74	342.04	13.91	-37.0	-38.1	22.9	0.00e+00	0	27	0	713031680	46	6465
2026-01-11 19:26:16.77	341.44	13.83	-36.9	-37.9	23.0	0.00e+00	0	27	0	719323136	46	6384
2026-01-11 19:26:19.80	340.85	13.75	-37.4	-38.5	22.5	0.00e+00	0	27	0	724566016	46	6784
2026-01-11 19:26:22.83	340.26	13.67	-37.6	-38.7	22.4	0.00e+00	0	27	0	730857472	46	6946
2026-01-11 19:26:25.86	339.67	13.58	-37.4	-38.5	22.6	0.00e+00	0	27	0	736100352	46	6830
2026-01-11 19:26:28.88	339.09	13.50	-37.5	-38.6	22.4	0.00e+00	0	27	0	741343232	46	6915
2026-01-11 19:26:31.91	338.51	13.41	-37.5	-38.6	22.4	0.00e+00	0	27	0	747634688	48	6133
2026-01-11 19:26:34.94	337.93	13.31	-37.4	-38.5	22.5	0.00e+00	0	27	0	752877568	48	6044
2026-01-11 19:26:37.97	337.36	13.22	-37.2	-38.2	22.8	0.00e+00	0	27	0	759169024	48	5853
2026-01-11 19:26:40.99	336.79	13.12	-37.3	-38.4	22.6	0.00e+00	0	27	0	764411904	48	5982
2026-01-11 19:26:44.02	336.22	13.02	-37.2	-38.2	22.8	0.00e+00	0	27	0	769654784	48	5850
2026-01-11 19:26:47.05	335.66	12.92	-37.0	-38.0	22.8	0.00e+00	0	27	0	775946240	48	5722
2026-01-11 19:26:50.08	335.10	12.81	-36.3	-37.2	23.5	0.00e+00	0	27	0	781189120	46	5847
2026-01-11 19:26:53.10	334.55	12.71	-36.4	-37.3	23.3	0.00e+00	0	27	0	787480576	46	5959
2026-01-11 19:26:56.13	334.00	12.60	-37.2	-38.2	22.8	0.00e+00	0	27	0	792723456	46	6565
2026-01-11 19:26:59.15	333.46	12.49	-37.4	-38.4	22.5	0.00e+00	0	27	0	797966336	46	6712
2026-01-11 19:27:02.18	332.91	12.37	-37.8	-38.9	22.2	0.00e+00	0	27	0	804257792	48	6326
2026-01-11 19:27:05.21	332.38	12.26	-37.9	-39.0	22.0	0.00e+00	0	27	0	809500672	48	6432
2026-01-11 19:27:08.24	331.84	12.14	-37.6	-38.7	22.3	0.00e+00	0	27	0	815792128	48	6183
2026-01-11 19:27:11.26	331.32	12.02	-38.0	-39.1	22.0	0.00e+00	0	27	0	821035008	48	6473
2026-01-11 19:27:14.29	330.79	11.90	-38.3	-39.4	21.8	0.00e+00	0	27	0	827326464	48	6736
2026-01-11 19:27:17.31	330.27	11.78	-38.0	-39.1	22.0	0.00e+00	0	27	0	832569344	48	6486
2026-01-11 19:27:20.34	329.76	11.66	-38.0	-39.1	22.0	0.00e+00	0	27	0	837812224	48	6487
2026-01-11 19:27:23.36	329.25	11.53	-38.6	-39.8	21.4	0.00e+00	0	27	0	844103680	48	7013
2026-01-11 19:27:26.39	328.74	11.40	-38.9	-40.0	21.5	0.00e+00	0	27	0	849346560	50	6396
2026-01-11 19:27:29.42	328.24	11.27	-37.8	-38.8	22.3	0.00e+00	0	27	0	855638016	50	5602
2026-01-11 19:27:32.45	327.74	11.14	-38.1	-39.1	22.1	0.00e+00	0	27	0	860880896	50	5786
2026-01-11 19:27:35.47	327.25	11.01	-39.3	-40.5	20.9	0.00e+00	0	27	0	866123776	50	6826
2026-01-11 19:27:38.50	326.76	10.88	-39.6	-40.9	20.6	0.00e+00	0	27	0	872415232	52	6344
2026-01-11 19:27:41.53	326.28	10.75	-39.3	-40.6	20.8	0.00e+00	0	27	0	877658112	52	6109
2026-01-11 19:27:44.56	325.80	10.61	-38.7	-39.9	21.4	0.00e+00	0	27	0	883949568	50	6330
2026-01-11 19:27:47.58	325.32	10.47	-39.2	-40.4	20.8	0.00e+00	0	27	0	889192448	50	6695
2026-01-11 19:27:50.61	324.85	10.34	-40.8	-42.3	19.1	0.00e+00	0	27	0	895483904	52	7482
2026-01-11 19:27:53.64	324.39	10.20	-41.7	-43.5	18.1	0.00e+00	0	27	0	900726784	54	7635
2026-01-11 19:27:56.66	323.93	10.06	-41.1	-42.7	18.8	0.00e+00	0	27	0	905969664	54	6980
2026-01-11 19:27:59.69	323.47	9.92	-40.9	-42.5	19.0	0.00e+00	0	27	0	912261120	54	6776
2026-01-11 19:28:02.72	323.02	9.78	-40.3	-41.7	19.6	0.00e+00	0	27	0	917504000	54	6180
2026-01-11 19:28:05.75	322.57	9.63	-39.9	-41.2	20.0	0.00e+00	0	27	0	923795456	54	5891
2026-01-11 19:28:08.78	322.12	9.49	-39.6	-40.9	20.4	0.00e+00	0	27	0	929038336	52	6339
2026-01-11 19:28:11.80	321.69	9.34	-39.7	-40.9	20.4	0.00e+00	0	27	0	934281216	52	6390
2026-01-11 19:28:14.83	321.25	9.20	-39.4	-40.7	20.5	0.00e+00	0	27	0	940572672	52	6185
2026-01-11 19:28:17.86	320.82	9.05	-39.0	-40.2	21.0	0.00e+00	0	27	0	945815552	52	5848
2026-01-11 19:28:20.89	320.39	8.91	-38.6	-39.8	21.3	0.00e+00	0	27	0	952107008	50	6254
2026-01-11 19:28:23.91	319.97	8.76	-38.5	-39.6	21.5	0.00e+00	0	27	0	957349888	50	6160
2026-01-11 19:28:26.94	319.56	8.61	-38.6	-39.7	21.4	0.00e+00	0	27	0	962592768	50	6211
2026-01-11 19:28:29.97	319.14	8.46	-38.8	-40.0	21.1	0.00e+00	0	27	0	968884224	50	6432
2026-01-11 19:28:33.00	318.73	8.32	-39.0	-40.2	20.9	0.00e+00	0	27	0	974127104	50	6597
2026-01-11 19:28:36.02	318.33	8.17	-39.2	-40.4	20.6	0.00e+00	0	27	0	980418560	50	6720
2026-01-11 19:28:39.05	317.93	8.02	-38.9	-40.1	21.0	0.00e+00	0	27	0	985661440	50	6500
2026-01-11 19:28:42.07	317.54	7.87	-38.9	-40.1	21.0	0.00e+00	0	27	0	991952896	50	6532
2026-01-11 19:28:45.10	317.14	7.72	-38.9	-40.1	21.0	0.00e+00	0	27	0	997195776	50	6502
2026-01-11 19:28:48.13	316.76	7.57	-38.4	-39.5	21.5	0.00e+00	0	27	0	1002438656	50	6082
2026-01-11 19:28:51.16	316.37	7.41	-37.8	-38.9	22.0	0.00e+00	0	27	0	1008730112	50	5651
2026-01-11 19:28:54.18	315.99	7.26	-37.6	-38.6	22.2	0.00e+00	0	27	0	1013972992	48	6121
2026-01-11 19:28:57.20	315.62	7.11	-37.8	-38.8	22.1	0.00e+00	0	27	0	1020264448	48	6276
2026-01-11 19:29:00.22	315.25	6.96	-38.2	-39.2	21.6	0.00e+00	0	27	0	1025507328	48	6607
2026-01-11 19:29:03.25	314.88	6.81	-38.1	-39.2	21.7	0.00e+00	0	27	0	1030750208	48	6558
2026-01-11 19:29:06.27	314.52	6.66	-37.7	-38.7	22.0	0.00e+00	0	27	0	1037041664	48	6228
2026-01-11 19:29:09.30	314.16	6.50	-37.8	-38.9	21.7	0.00e+00	0	27	0	1042284544	48	6353
2026-01-11 19:29:12.33	313.80	6.35	-38.2	-39.3	21.6	0.00e+00	0	27	0	1048576000	48	6672
2026-01-11 19:29:15.36	313.45	6.20	-38.3	-39.5	21.3	0.00e+00	0	27	0	1053818880	48	6791
2026-01-11 19:29:18.39	313.10	6.04	-38.7	-40.0	20.9	0.00e+00	0	27	0	1059061760	48	7174
2026-01-11 19:29:21.42	312.76	5.89	-38.9	-40.2	20.8	0.00e+00	0	27	0	1065353216	50	6557
2026-01-11 19:29:24.44	312.42	5.74	-39.2	-40.4	20.6	0.00e+00	0	27	0	1070596096	50	6758
2026-01-11 19:29:27.47	312.08	5.58	-39.1	-40.4	20.4	0.00e+00	0	27	0	1076887552	50	6712
2026-01-11 19:29:30.50	311.74	5.43	-38.8	-40.0	20.8	0.00e+00	0	27	0	1082130432	50	6441
2026-01-11 19:29:33.52	311.42	5.28	-38.8	-40.0	20.8	0.00e+00	0	27	0	1088421888	50	6451
2026-01-11 19:29:36.55	311.09	5.12	-38.7	-39.9	20.7	0.00e+00	0	27	0	1093664768	50	6366
2026-01-11 19:29:39.58	310.77	4.97	-38.5	-39.7	21.1	0.00e+00	0	27	0	1098907648	50	6210
2026-01-11 19:29:42.60	310.45	4.82	-38.7	-39.9	20.8	0.00e+00	0	27	0	1105199104	50	6333
2026-01-11 19:29:45.63	310.13	4.66	-38.6	-39.8	20.9	0.00e+00	0	27	0	1110441984	50	6312
2026-01-11 19:29:48.66	309.82	4.51	-39.4	-40.7	20.1	0.00e+00	0	27	0	1116733440	50	6972
2026-01-11 19:29:51.69	309.51	4.36	-39.5	-40.9	19.9	0.00e+00	0	27	0	1121976320	50	7118
2026-01-11 19:29:54.71	309.20	4.20	-39.3	-40.6	20.0	0.00e+00	0	27	0	1127219200	52	6173
2026-01-11 19:29:57.74	308.90	4.05	-39.3	-40.6	20.1	0.00e+00	0	27	0	1133510656	52	6155
2026-01-11 19:30:00.77	308.60	3.90	-38.5	-39.7	20.8	0.00e+00	0	27	0	1138753536	52	5565
2026-01-11 19:30:03.79	308.30	3.75	-38.4	-39.6	21.0	0.00e+00	0	27	0	1145044992	50	6159
2026-01-11 19:30:06.81	308.01	3.59	-38.6	-39.8	20.6	0.00e+00	0	27	0	1150287872	50	6281
2026-01-11 19:30:09.84	307.72	3.44	-38.7	-39.9	20.6	0.00e+00	0	27	0	1155530752	50	6371
2026-01-11 19:30:12.87	307.44	3.29	-38.8	-40.1	20.3	0.00e+00	0	27	0	1161822208	50	6471
2026-01-11 19:30:15.90	307.15	3.14	-39.4	-40.8	19.8	0.00e+00	0	27	0	1167065088	52	6262
2026-01-11 19:30:18.93	306.87	2.99	-47.2	-62.3	3.6	9.95e-01	0	27	104	1172307968	60	47313
2026-01-11 19:30:21.96	306.59	2.83	-48.1	-63.3	3.6	1.51e+00	0	27	104	1172307968	60	52711
2026-01-11 19:30:24.99	306.32	2.68	-48.3	-63.5	3.6	1.51e+00	0	27	104	1172307968	60	53836
2026-01-11 19:30:28.01	306.05	2.53	-48.0	-63.4	3.6	1.51e+00	0	27	104	1172307968	60	53585
2026-01-11 19:30:31.04	305.78	2.38	-48.0	-63.3	3.6	1.51e+00	0	27	104	1172307968	60	52714
2026-01-11 19:30:34.07	305.51	2.23	-48.1	-63.3	3.6	1.51e+00	0	27	104	1172307968	60	52625
2026-01-11 19:30:37.10	305.25	2.08	-48.1	-63.3	3.6	1.51e+00	0	27	104	1172307968	60	52986
2026-01-11 19:30:40.13	304.99	1.93	-48.1	-63.2	3.6	1.51e+00	0	27	104	1172307968	60	52442
2026-01-11 19:30:43.15	304.73	1.78	-48.1	-63.3	3.6	1.51e+00	0	27	104	1172307968	60	52982
2026-01-11 19:30:46.18	304.47	1.63	-48.2	-63.4	3.6	1.51e+00	0	27	104	1172307968	60	53275
2026-01-11 19:30:49.21	304.22	1.48	-48.1	-63.3	3.6	1.51e+00	0	27	104	1172307968	60	52667
2026-01-11 19:30:52.24	303.97	1.33	-48.1	-63.3	3.6	1.51e+00	0	27	104	1172307968	60	52753
2026-01-11 19:30:55.27	303.72	1.18	-48.2	-63.3	3.6	1.51e+00	0	27	104	1172307968	60	53110
2026-01-11 19:30:58.30	303.48	1.03	-48.1	-63.3	3.6	1.51e+00	0	27	104	1172307968	60	52692
2026-01-11 19:31:01.33	303.24	0.88	-48.1	-63.3	3.6	1.51e+00	0	27	104	1172307968	60	52934
2026-01-11 19:31:04.36	303.00	0.74	-48.2	-63.4	3.6	1.51e+00	0	27	104	1172307968	60	53174
2026-01-11 19:31:07.39	302.76	0.59	-48.1	-63.3	3.6	1.51e+00	0	27	104	1172307968	60	52735
2026-01-11 19:31:10.42	302.52	0.44	-48.2	-63.3	3.6	1.51e+00	0	27	104	1172307968	60	52937
2026-01-11 19:31:13.45	302.29	0.29	-48.1	-63.3	3.5	1.51e+00	0	27	104	1172307968	60	52933
2026-01-11 19:31:16.48	302.06	0.14	-48.1	-63.3	3.6	1.51e+00	0	27	104	1172307968	60	52707
2026-01-11 19:31:19.51	301.83	-0.00	-48.1	-63.2	3.6	1.51e+00	0	28	104	1172307968	60	52418

#Closed at: 2026-01-11 19:31:20
#Recorded file [1172 MB]: D:/lorett/data/35029_260112_071851.dat