passes_logs/2026/01/11/R4.6S_Anadyr/R4.6S_Anadyr__20260111_013323_FENGYUN_3D_rec.log

#Pass ID: 20260111_013323_FENGYUN 3D
#Satellite: FENGYUN 3D
#Configuration: FENGYUN 3D
#almurnet v.1.7.20251203
#Start time: 2026-01-11 01:33:25

#Version: 2.2.20231116
#Station: R4.6S_Anadyr
#Location: 177.4865 lon 64.73178 lat
#TLE: 1 43010U 17072A   26009.92921666 -.00000228  00000+0 -86059-4 0  9998
#TLE: 2 43010  98.9936 341.6668 0002176 116.7510 243.3888 14.19693142422537

#Time	Az	El	Level	Level2	SNR	BER	BlckErr	Temp	State	Recorded	gain1	gain2
2026-01-11 01:33:25.87	139.02	0.12	-48.2	-65.9	3.5	3.02e+01	0	28	0	0	60	75765
2026-01-11 01:33:29.90	138.96	0.36	-48.1	-60.1	3.6	8.44e-01	0	29	104	0	60	36730
2026-01-11 01:33:33.94	138.90	0.61	-47.9	-60.0	3.6	8.45e-01	0	29	104	0	60	36204
2026-01-11 01:33:37.98	138.83	0.85	-47.5	-59.6	3.6	8.46e-01	0	30	104	0	60	34456
2026-01-11 01:33:42.02	138.76	1.10	-46.1	-58.3	3.6	8.45e-01	0	30	104	0	60	29665
2026-01-11 01:33:46.06	138.70	1.35	-45.9	-58.3	3.6	8.45e-01	0	30	104	0	60	29793
2026-01-11 01:33:50.10	138.63	1.60	-45.9	-58.3	3.6	8.46e-01	0	30	104	0	60	29845
2026-01-11 01:33:54.14	138.56	1.86	-45.9	-58.0	3.6	8.45e-01	0	30	104	0	60	28743
2026-01-11 01:33:58.18	138.49	2.12	-45.9	-58.2	3.6	8.46e-01	0	30	104	0	60	29448
2026-01-11 01:34:02.21	138.41	2.38	-45.9	-58.3	3.6	8.45e-01	0	30	104	0	60	29580
2026-01-11 01:34:06.25	138.34	2.64	-45.8	-57.7	3.6	8.46e-01	0	30	104	0	60	27625
2026-01-11 01:34:10.29	138.26	2.90	-45.8	-57.1	3.6	8.45e-01	0	30	104	0	60	25790
2026-01-11 01:34:14.33	138.18	3.17	-45.5	-54.3	4.2	8.43e-01	0	30	104	0	60	18683
2026-01-11 01:34:18.37	138.10	3.44	-41.5	-43.7	13.6	6.17e-05	0	30	0	17825792	56	6930
2026-01-11 01:34:22.41	138.02	3.71	-38.3	-39.6	17.7	0.00e+00	0	30	0	40894464	50	6119
2026-01-11 01:34:26.45	137.94	3.98	-35.4	-36.3	19.0	1.30e-01	0	30	104	53477376	44	5960
2026-01-11 01:34:30.49	137.85	4.26	-36.0	-37.0	20.6	0.00e+00	0	30	0	67108864	46	5711
2026-01-11 01:34:34.53	137.77	4.54	-34.9	-35.7	21.7	0.00e+00	0	30	0	90177536	44	5545
2026-01-11 01:34:38.57	137.68	4.83	-34.6	-35.4	22.0	0.00e+00	0	30	0	112197632	42	6031
2026-01-11 01:34:42.61	137.59	5.11	-34.7	-35.5	21.9	0.00e+00	0	30	0	135266304	42	6086
2026-01-11 01:34:46.65	137.50	5.40	-34.4	-35.2	22.3	0.00e+00	0	30	0	158334976	42	5835
2026-01-11 01:34:50.69	137.40	5.69	-34.3	-35.1	22.5	0.00e+00	0	30	0	180355072	42	5813
2026-01-11 01:34:54.73	137.30	5.99	-34.4	-35.2	22.4	0.00e+00	0	30	0	203423744	42	5845
2026-01-11 01:34:58.77	137.20	6.29	-34.1	-34.9	22.8	0.00e+00	0	30	0	226492416	42	5658
2026-01-11 01:35:02.81	137.10	6.59	-33.9	-34.7	22.9	0.00e+00	0	30	0	248512512	42	5530
2026-01-11 01:35:06.84	137.00	6.89	-33.9	-34.7	23.1	0.00e+00	0	30	0	271581184	42	5515
2026-01-11 01:35:10.88	136.89	7.20	-33.9	-34.7	23.1	0.00e+00	0	30	0	294649856	42	5506
2026-01-11 01:35:14.92	136.78	7.52	-33.7	-34.5	23.2	0.00e+00	0	30	0	316669952	40	6067
2026-01-11 01:35:18.96	136.67	7.83	-33.8	-34.6	23.3	0.00e+00	0	30	0	339738624	40	6104
2026-01-11 01:35:23.00	136.56	8.15	-33.5	-34.2	23.6	0.00e+00	0	30	0	362807296	40	5868
2026-01-11 01:35:27.04	136.44	8.48	-33.3	-34.0	23.8	0.00e+00	0	30	0	384827392	40	5731
2026-01-11 01:35:31.08	136.32	8.81	-33.1	-33.8	23.9	0.00e+00	0	30	0	407896064	40	5624
2026-01-11 01:35:35.12	136.20	9.14	-33.0	-33.7	24.1	0.00e+00	0	30	0	430964736	40	5522
2026-01-11 01:35:39.16	136.07	9.48	-33.0	-33.7	24.2	0.00e+00	0	30	0	452984832	40	5535
2026-01-11 01:35:43.12	135.94	9.81	-32.8	-33.5	24.4	0.00e+00	0	30	0	476053504	38	6048
2026-01-11 01:35:47.16	135.81	10.16	-32.8	-33.5	24.4	0.00e+00	0	30	0	499122176	38	6083
2026-01-11 01:35:51.20	135.67	10.51	-32.8	-33.5	24.3	0.00e+00	0	30	0	521142272	38	6076
2026-01-11 01:35:55.24	135.53	10.87	-32.6	-33.4	24.5	0.00e+00	0	30	0	544210944	38	5966
2026-01-11 01:35:59.27	135.39	11.23	-32.7	-33.4	24.5	0.00e+00	0	30	0	567279616	38	5990
2026-01-11 01:36:03.31	135.24	11.59	-32.6	-33.3	24.6	0.00e+00	0	30	0	589299712	38	5930
2026-01-11 01:36:07.35	135.09	11.96	-32.5	-33.2	24.7	0.00e+00	0	30	0	612368384	38	5884
2026-01-11 01:36:11.39	134.94	12.34	-32.4	-33.0	24.9	0.00e+00	0	30	0	635437056	38	5744
2026-01-11 01:36:15.43	134.78	12.72	-32.2	-32.9	24.9	0.00e+00	0	30	0	657457152	38	5675
2026-01-11 01:36:19.47	134.61	13.11	-32.0	-32.7	25.3	0.00e+00	0	30	0	680525824	38	5562
2026-01-11 01:36:23.51	134.44	13.51	-32.1	-32.8	25.2	0.00e+00	0	30	0	703594496	38	5579
2026-01-11 01:36:27.55	134.27	13.91	-31.8	-32.5	25.5	0.00e+00	0	30	0	725614592	38	5402
2026-01-11 01:36:31.59	134.09	14.31	-31.6	-32.3	25.6	0.00e+00	0	30	0	748683264	36	5946
2026-01-11 01:36:35.62	133.90	14.73	-31.5	-32.2	25.8	0.00e+00	0	29	0	771751936	36	5871
2026-01-11 01:36:39.66	133.71	15.15	-31.5	-32.1	25.7	0.00e+00	0	30	0	793772032	36	5826
2026-01-11 01:36:43.70	133.51	15.58	-31.3	-32.0	26.0	0.00e+00	0	29	0	816840704	36	5726
2026-01-11 01:36:47.74	133.31	16.01	-31.0	-31.7	26.2	0.00e+00	0	29	0	839909376	36	5508
2026-01-11 01:36:51.78	133.10	16.45	-30.7	-31.3	26.5	0.00e+00	0	29	0	861929472	34	5951
2026-01-11 01:36:55.82	132.89	16.90	-30.6	-31.3	26.6	0.00e+00	0	29	0	884998144	34	5904
2026-01-11 01:36:59.87	132.66	17.36	-30.5	-31.1	26.7	0.00e+00	0	29	0	908066816	34	5806
2026-01-11 01:37:03.91	132.43	17.83	-30.3	-31.0	26.8	0.00e+00	0	29	0	931135488	34	5706
2026-01-11 01:37:07.95	132.20	18.30	-30.3	-31.0	26.9	0.00e+00	0	29	0	953155584	34	5712
2026-01-11 01:37:11.99	131.95	18.79	-30.3	-30.9	26.9	0.00e+00	0	29	0	976224256	34	5655
2026-01-11 01:37:16.03	131.70	19.28	-30.2	-30.9	27.0	0.00e+00	0	29	0	998244352	34	5631
2026-01-11 01:37:20.08	131.43	19.78	-30.2	-30.8	27.0	0.00e+00	0	29	0	1021313024	34	5624
2026-01-11 01:37:24.11	131.16	20.30	-30.2	-30.9	27.0	0.00e+00	0	29	0	1044381696	34	5636
2026-01-11 01:37:28.15	130.88	20.82	-30.2	-30.9	27.0	0.00e+00	0	29	0	1067450368	34	5632
2026-01-11 01:37:32.19	130.59	21.35	-29.8	-30.5	27.3	0.00e+00	0	29	0	1089470464	34	5392
2026-01-11 01:37:36.22	130.29	21.89	-29.9	-30.6	27.2	0.00e+00	0	29	0	1112539136	32	6124
2026-01-11 01:37:40.26	129.97	22.44	-29.6	-30.2	27.6	0.00e+00	0	29	0	1135607808	32	5850
2026-01-11 01:37:44.30	129.65	23.01	-29.6	-30.3	27.4	0.00e+00	0	29	0	1157627904	32	5897
2026-01-11 01:37:48.34	129.31	23.58	-29.4	-30.0	27.7	0.00e+00	0	29	0	1180696576	32	5735
2026-01-11 01:37:52.38	128.96	24.17	-29.1	-29.7	27.9	0.00e+00	0	29	0	1202716672	32	5532
2026-01-11 01:37:56.42	128.59	24.77	-28.9	-29.6	28.0	0.00e+00	0	29	0	1225785344	32	5445
2026-01-11 01:38:00.46	128.21	25.39	-28.8	-29.5	28.0	0.00e+00	0	29	0	1248854016	32	5388
2026-01-11 01:38:04.50	127.81	26.01	-28.9	-29.5	28.0	0.00e+00	0	29	0	1270874112	32	5397
2026-01-11 01:38:08.54	127.40	26.65	-28.9	-29.5	28.1	0.00e+00	0	29	0	1293942784	32	5408
2026-01-11 01:38:12.58	126.97	27.30	-28.8	-29.4	28.2	0.00e+00	0	29	0	1317011456	32	5348
2026-01-11 01:38:16.62	126.52	27.97	-28.8	-29.5	28.2	0.00e+00	0	29	0	1340080128	32	5380
2026-01-11 01:38:20.65	126.05	28.65	-28.8	-29.4	28.2	0.00e+00	0	29	0	1362100224	32	5352
2026-01-11 01:38:24.69	125.56	29.35	-28.7	-29.3	28.3	0.00e+00	0	29	0	1385168896	30	5960
2026-01-11 01:38:28.73	125.05	30.06	-28.6	-29.2	28.4	0.00e+00	0	29	0	1407188992	30	5863
2026-01-11 01:38:32.77	124.51	30.78	-28.4	-29.0	28.5	0.00e+00	0	29	0	1430257664	30	5727
2026-01-11 01:38:36.81	123.95	31.52	-28.6	-29.2	28.5	0.00e+00	0	29	0	1453326336	30	5835
2026-01-11 01:38:40.85	123.36	32.28	-28.4	-28.9	28.6	0.00e+00	0	29	0	1475346432	30	5691
2026-01-11 01:38:44.88	122.75	33.05	-28.2	-28.8	28.7	0.00e+00	0	28	0	1498415104	30	5603
2026-01-11 01:38:48.92	122.10	33.84	-28.3	-28.8	28.6	0.00e+00	0	29	0	1521483776	30	5627
2026-01-11 01:38:52.97	121.42	34.65	-28.4	-29.0	28.5	0.00e+00	0	28	0	1544552448	30	5715
2026-01-11 01:38:57.01	120.70	35.47	-28.0	-28.6	28.8	0.00e+00	0	28	0	1566572544	30	5475
2026-01-11 01:39:01.05	119.95	36.31	-28.2	-28.8	28.6	0.00e+00	0	28	0	1589641216	30	5594
2026-01-11 01:39:05.09	119.15	37.16	-28.3	-28.9	28.6	0.00e+00	0	28	0	1611661312	30	5656
2026-01-11 01:39:09.12	118.31	38.03	-28.2	-28.8	28.7	0.00e+00	0	28	0	1634729984	30	5582
2026-01-11 01:39:13.16	117.43	38.91	-28.4	-29.0	28.6	0.00e+00	0	28	0	1657798656	30	5699
2026-01-11 01:39:17.19	116.49	39.81	-28.7	-29.3	28.5	0.00e+00	0	28	0	1679818752	30	5906
2026-01-11 01:39:21.23	115.50	40.72	-28.6	-29.2	28.4	0.00e+00	0	28	0	1702887424	30	5859
2026-01-11 01:39:25.27	114.45	41.65	-28.7	-29.3	28.3	0.00e+00	0	28	0	1725956096	30	5960
2026-01-11 01:39:29.31	113.34	42.59	-28.9	-29.5	28.2	0.00e+00	0	28	0	1749024768	30	6099
2026-01-11 01:39:33.35	112.16	43.54	-28.7	-29.4	28.3	0.00e+00	0	28	0	1771044864	30	5971
2026-01-11 01:39:37.39	110.91	44.50	-28.5	-29.1	28.5	0.00e+00	0	28	0	1794113536	30	5811
2026-01-11 01:39:41.43	109.57	45.46	-28.6	-29.2	28.4	0.00e+00	0	28	0	1816133632	30	5845
2026-01-11 01:39:45.46	108.16	46.43	-28.6	-29.2	28.5	0.00e+00	0	28	0	1839202304	30	5845
2026-01-11 01:39:49.50	106.65	47.40	-29.0	-29.6	28.0	0.00e+00	0	28	0	1862270976	30	6164
2026-01-11 01:39:53.54	105.05	48.37	-29.2	-29.7	28.0	0.00e+00	0	28	0	1884291072	30	6243
2026-01-11 01:39:57.58	103.34	49.34	-29.3	-29.9	27.6	0.00e+00	0	28	0	1907359744	30	6386
2026-01-11 01:40:01.62	101.51	50.30	-30.3	-31.0	27.1	0.00e+00	0	28	0	1930428416	32	6415
2026-01-11 01:40:05.65	99.58	51.24	-29.8	-30.5	27.5	0.00e+00	0	28	0	1953497088	32	6038
2026-01-11 01:40:09.69	97.51	52.17	-29.3	-30.0	27.9	0.00e+00	0	28	0	1975517184	32	5706
2026-01-11 01:40:13.73	95.31	53.07	-29.3	-29.9	27.9	0.00e+00	0	28	0	1998585856	32	5648
2026-01-11 01:40:17.77	92.98	53.94	-29.7	-30.3	27.5	0.00e+00	0	28	0	2020605952	32	5908
2026-01-11 01:40:21.81	90.50	54.78	-29.4	-30.1	27.8	0.00e+00	0	28	0	2043674624	32	5774
2026-01-11 01:40:25.84	87.88	55.57	-29.0	-29.6	28.1	0.00e+00	0	28	0	2066743296	32	5479
2026-01-11 01:40:29.88	85.10	56.31	-29.1	-29.7	28.0	0.00e+00	0	28	0	2088763392	32	5546
2026-01-11 01:40:33.91	82.19	56.98	-29.3	-29.9	27.9	0.00e+00	0	28	0	2111832064	32	5636
2026-01-11 01:40:37.95	79.13	57.59	-29.3	-29.9	27.8	0.00e+00	0	28	0	2134900736	32	5642
2026-01-11 01:40:41.99	75.94	58.13	-29.3	-29.9	27.9	0.00e+00	0	28	0	2156920832	32	5695
2026-01-11 01:40:46.03	72.63	58.58	-29.0	-29.5	28.1	0.00e+00	0	28	0	2179989504	32	5430
2026-01-11 01:40:50.07	69.21	58.95	-29.4	-29.9	27.8	0.00e+00	0	28	0	2203058176	32	5692
2026-01-11 01:40:54.11	65.71	59.22	-29.3	-29.9	27.9	0.00e+00	0	28	0	2225078272	32	5658
2026-01-11 01:40:58.15	62.16	59.39	-28.7	-29.4	28.2	0.00e+00	0	28	0	2248146944	30	5976
2026-01-11 01:41:02.19	58.57	59.45	-29.3	-29.9	27.9	0.00e+00	0	28	0	2271215616	30	6374
2026-01-11 01:41:06.23	54.97	59.42	-29.1	-29.7	28.0	0.00e+00	0	28	0	2293235712	30	6203
2026-01-11 01:41:10.27	51.40	59.28	-28.3	-28.9	28.4	0.00e+00	0	28	0	2316304384	30	5693
2026-01-11 01:41:14.31	47.88	59.04	-29.0	-29.6	28.2	0.00e+00	0	28	0	2339373056	30	6123
2026-01-11 01:41:18.35	44.44	58.71	-29.2	-29.8	28.0	0.00e+00	0	28	0	2361393152	30	6292
2026-01-11 01:41:22.38	41.10	58.28	-28.7	-29.2	28.4	0.00e+00	0	28	0	2384461824	30	5891
2026-01-11 01:41:26.41	37.88	57.78	-28.9	-29.5	28.3	0.00e+00	0	28	0	2407530496	30	6084
2026-01-11 01:41:30.45	34.78	57.19	-29.0	-29.6	28.0	0.00e+00	0	28	0	2429550592	30	6121
2026-01-11 01:41:34.49	31.82	56.53	-28.7	-29.4	28.3	0.00e+00	0	28	0	2452619264	30	5980
2026-01-11 01:41:38.53	29.00	55.81	-28.7	-29.4	28.2	0.00e+00	0	28	0	2475687936	30	5991
2026-01-11 01:41:42.57	26.33	55.04	-28.8	-29.4	28.2	0.00e+00	0	28	0	2497708032	30	5965
2026-01-11 01:41:46.61	23.81	54.22	-28.8	-29.4	28.1	0.00e+00	0	28	0	2520776704	30	6020
2026-01-11 01:41:50.65	21.43	53.36	-28.8	-29.3	28.2	0.00e+00	0	28	0	2543845376	30	5953
2026-01-11 01:41:54.69	19.19	52.47	-29.0	-29.6	28.0	0.00e+00	0	28	0	2565865472	30	6148
2026-01-11 01:41:58.73	17.09	51.55	-28.8	-29.5	28.2	0.00e+00	0	28	0	2588934144	30	6065
2026-01-11 01:42:02.77	15.11	50.61	-28.6	-29.2	28.3	0.00e+00	0	28	0	2612002816	30	5876
2026-01-11 01:42:06.80	13.26	49.66	-28.5	-29.1	28.4	0.00e+00	0	28	0	2634022912	30	5825
2026-01-11 01:42:10.84	11.52	48.70	-28.5	-29.0	28.4	0.00e+00	0	28	0	2657091584	30	5728
2026-01-11 01:42:14.88	9.88	47.73	-28.3	-28.8	28.6	0.00e+00	0	28	0	2680160256	30	5596
2026-01-11 01:42:18.92	8.35	46.76	-27.9	-28.5	28.9	0.00e+00	0	28	0	2702180352	30	5390
2026-01-11 01:42:22.95	6.91	45.80	-28.4	-29.0	28.3	0.00e+00	0	28	0	2725249024	30	5728
2026-01-11 01:42:26.99	5.55	44.83	-28.0	-28.5	28.3	0.00e+00	0	28	0	2748317696	30	5399
2026-01-11 01:42:31.03	4.28	43.87	-27.6	-28.3	28.8	0.00e+00	0	27	0	2770337792	28	5905
2026-01-11 01:42:35.07	3.07	42.92	-27.8	-28.5	28.9	0.00e+00	0	27	0	2793406464	28	6043
2026-01-11 01:42:39.10	1.95	41.99	-28.1	-28.8	28.6	0.00e+00	0	27	0	2815426560	28	6294
2026-01-11 01:42:43.14	0.88	41.06	-27.9	-28.4	28.7	0.00e+00	0	28	0	2838495232	28	6014
2026-01-11 01:42:47.18	359.87	40.14	-28.2	-28.7	28.6	0.00e+00	0	27	0	2861563904	28	6239
2026-01-11 01:42:51.22	358.92	39.24	-27.9	-28.5	28.8	0.00e+00	0	27	0	2884632576	28	6085
2026-01-11 01:42:55.26	358.02	38.36	-28.1	-28.8	28.6	0.00e+00	0	27	0	2906652672	28	6257
2026-01-11 01:42:59.29	357.17	37.49	-27.7	-28.3	28.8	0.00e+00	0	28	0	2929721344	28	5901
2026-01-11 01:43:03.33	356.36	36.63	-27.6	-28.3	28.9	0.00e+00	0	28	0	2952790016	28	5910
2026-01-11 01:43:07.37	355.60	35.79	-27.8	-28.4	28.8	0.00e+00	0	27	0	2974810112	28	5977
2026-01-11 01:43:11.41	354.87	34.97	-27.8	-28.3	28.9	0.00e+00	0	28	0	2997878784	28	5919
2026-01-11 01:43:15.44	354.18	34.16	-27.8	-28.3	28.9	0.00e+00	0	27	0	3019898880	28	5916
2026-01-11 01:43:19.49	353.52	33.37	-27.5	-28.2	28.9	0.00e+00	0	28	0	3042967552	28	5830
2026-01-11 01:43:23.53	352.90	32.59	-27.9	-28.6	28.7	0.00e+00	0	27	0	3066036224	28	6138
2026-01-11 01:43:27.56	352.30	31.83	-28.0	-28.5	28.7	0.00e+00	0	27	0	3089104896	28	6093
2026-01-11 01:43:31.60	351.74	31.09	-27.9	-28.4	28.8	0.00e+00	0	27	0	3111124992	28	5982
2026-01-11 01:43:35.64	351.19	30.36	-28.1	-28.6	28.6	0.00e+00	0	27	0	3134193664	28	6156
2026-01-11 01:43:39.68	350.68	29.65	-28.4	-28.9	28.5	0.00e+00	0	28	0	3156213760	28	6390
2026-01-11 01:43:43.72	350.18	28.95	-28.4	-29.0	28.3	0.00e+00	0	28	0	3179282432	28	6460
2026-01-11 01:43:47.76	349.71	28.26	-28.5	-29.2	28.2	0.00e+00	0	27	0	3202351104	28	6565
2026-01-11 01:43:51.80	349.25	27.59	-28.4	-29.0	28.4	0.00e+00	0	27	0	3224371200	28	6397
2026-01-11 01:43:55.84	348.82	26.94	-28.3	-29.0	28.4	0.00e+00	0	27	0	3247439872	28	6406
2026-01-11 01:43:59.87	348.40	26.30	-28.4	-28.9	28.5	0.00e+00	0	28	0	3270508544	28	6354
2026-01-11 01:44:03.92	348.00	25.67	-28.5	-29.2	28.4	0.00e+00	0	27	0	3293577216	28	6549
2026-01-11 01:44:07.95	347.62	25.05	-28.5	-29.0	28.3	0.00e+00	0	28	0	3315597312	28	6424
2026-01-11 01:44:11.99	347.25	24.45	-28.5	-29.0	28.3	0.00e+00	0	28	0	3338665984	28	6454
2026-01-11 01:44:16.03	346.90	23.86	-28.7	-29.4	28.1	0.00e+00	0	28	0	3360686080	28	6700
2026-01-11 01:44:20.07	346.56	23.28	-28.9	-29.4	28.0	0.00e+00	0	28	0	3383754752	30	6022
2026-01-11 01:44:24.12	346.23	22.71	-29.0	-29.7	27.9	0.00e+00	0	28	0	3406823424	30	6213
2026-01-11 01:44:28.16	345.91	22.16	-29.0	-29.6	27.9	0.00e+00	0	28	0	3429892096	30	6167
2026-01-11 01:44:32.19	345.61	21.62	-29.0	-29.5	28.0	0.00e+00	0	28	0	3451912192	30	6097
2026-01-11 01:44:36.23	345.32	21.08	-29.4	-30.1	27.6	0.00e+00	0	28	0	3474980864	30	6466
2026-01-11 01:44:40.27	345.03	20.56	-29.7	-30.4	27.4	0.00e+00	0	28	0	3498049536	30	6723
2026-01-11 01:44:44.31	344.76	20.04	-29.7	-30.3	27.3	0.00e+00	0	28	0	3520069632	32	5900
2026-01-11 01:44:48.35	344.50	19.54	-29.8	-30.4	27.2	0.00e+00	0	28	0	3543138304	32	6001
2026-01-11 01:44:52.39	344.24	19.04	-29.4	-30.0	27.4	0.00e+00	0	28	0	3565158400	32	5728
2026-01-11 01:44:56.43	343.99	18.56	-29.4	-30.1	27.5	0.00e+00	0	28	0	3588227072	32	5787
2026-01-11 01:45:00.46	343.76	18.08	-29.5	-30.0	27.5	0.00e+00	0	28	0	3611295744	32	5719
2026-01-11 01:45:04.50	343.53	17.62	-29.8	-30.3	27.2	0.00e+00	0	28	0	3634364416	32	5940
2026-01-11 01:45:08.54	343.30	17.16	-30.0	-30.5	27.1	0.00e+00	0	28	0	3656384512	32	6084
2026-01-11 01:45:12.58	343.09	16.70	-30.3	-30.9	26.8	0.00e+00	0	28	0	3679453184	32	6319
2026-01-11 01:45:16.62	342.88	16.26	-30.5	-31.1	26.6	0.00e+00	0	28	0	3702521856	32	6469
2026-01-11 01:45:20.66	342.68	15.82	-30.7	-31.3	26.4	0.00e+00	0	28	0	3724541952	34	5920
2026-01-11 01:45:24.70	342.48	15.39	-31.1	-31.9	26.0	0.00e+00	0	28	0	3747610624	34	6334
2026-01-11 01:45:28.74	342.29	14.97	-31.1	-31.7	26.0	0.00e+00	0	28	0	3769630720	34	6234
2026-01-11 01:45:32.78	342.11	14.56	-31.2	-31.8	25.9	0.00e+00	0	28	0	3792699392	34	6303
2026-01-11 01:45:36.82	341.93	14.15	-31.4	-32.0	25.8	0.00e+00	0	28	0	3815768064	34	6396
2026-01-11 01:45:40.86	341.75	13.75	-31.5	-32.1	25.7	0.00e+00	0	28	0	3838836736	34	6481
2026-01-11 01:45:44.90	341.58	13.35	-31.6	-32.3	25.5	0.00e+00	0	28	0	3860856832	34	6630
2026-01-11 01:45:48.94	341.42	12.96	-31.7	-32.3	25.4	0.00e+00	0	28	0	3883925504	36	5921
2026-01-11 01:45:52.98	341.26	12.58	-31.7	-32.4	25.4	0.00e+00	0	28	0	3906994176	36	5980
2026-01-11 01:45:57.02	341.11	12.20	-31.8	-32.6	25.3	0.00e+00	0	28	0	3929014272	36	6112
2026-01-11 01:46:01.06	340.96	11.83	-31.9	-32.5	25.2	0.00e+00	0	28	0	3952082944	36	6091
2026-01-11 01:46:05.11	340.81	11.46	-31.8	-32.5	25.3	0.00e+00	0	28	0	3975151616	36	6039
2026-01-11 01:46:09.14	340.67	11.10	-32.0	-32.7	25.1	0.00e+00	0	28	0	3997171712	36	6224
2026-01-11 01:46:13.19	340.53	10.74	-32.0	-32.7	25.0	0.00e+00	0	28	0	4020240384	36	6195
2026-01-11 01:46:17.22	340.39	10.39	-32.2	-32.8	24.8	0.00e+00	0	29	0	4043309056	36	6308
2026-01-11 01:46:21.27	340.26	10.04	-32.1	-32.7	24.9	0.00e+00	0	29	0	4065329152	36	6236
2026-01-11 01:46:25.30	340.14	9.70	-32.2	-32.8	24.8	0.00e+00	0	28	0	4088397824	36	6288
2026-01-11 01:46:29.34	340.01	9.36	-32.4	-33.2	24.6	0.00e+00	0	28	0	4111466496	36	6558
2026-01-11 01:46:33.38	339.89	9.03	-32.3	-33.0	24.6	0.00e+00	0	28	0	4133486592	36	6452
2026-01-11 01:46:37.42	339.77	8.70	-32.5	-33.3	24.5	0.00e+00	0	29	0	4156555264	38	5899
2026-01-11 01:46:41.46	339.66	8.37	-32.5	-33.3	24.5	0.00e+00	0	29	0	4179623936	38	5922
2026-01-11 01:46:45.50	339.54	8.05	-32.6	-33.2	24.3	0.00e+00	0	29	0	4201644032	38	5871
2026-01-11 01:46:49.54	339.44	7.73	-32.9	-33.6	24.0	0.00e+00	0	29	0	4224712704	38	6129
2026-01-11 01:46:53.59	339.33	7.42	-32.9	-33.5	24.1	0.00e+00	0	29	0	4247781376	38	6097
2026-01-11 01:46:57.63	339.22	7.11	-33.0	-33.8	23.9	0.00e+00	0	29	0	4269801472	38	6313
2026-01-11 01:47:01.67	339.12	6.80	-33.3	-34.0	23.6	0.00e+00	0	29	0	4292870144	38	6432
2026-01-11 01:47:05.71	339.02	6.50	-33.3	-34.0	23.5	0.00e+00	0	29	0	4315938816	38	6405
2026-01-11 01:47:09.75	338.93	6.20	-33.5	-34.2	23.2	0.00e+00	0	29	0	4339007488	38	6602
2026-01-11 01:47:13.79	338.83	5.90	-34.0	-34.7	22.6	0.00e+00	0	29	0	4361027584	40	6208
2026-01-11 01:47:17.83	338.74	5.61	-34.2	-34.9	22.2	0.00e+00	0	29	0	4384096256	40	6360
2026-01-11 01:47:21.87	338.65	5.32	-35.0	-35.8	21.1	0.00e+00	0	29	0	4406116352	42	6294
2026-01-11 01:47:25.91	338.56	5.04	-36.3	-37.5	18.9	0.00e+00	0	29	0	4429185024	44	6815
2026-01-11 01:47:29.95	338.48	4.75	-38.0	-39.6	16.0	0.00e+00	0	29	0	4452253696	48	6877
2026-01-11 01:47:33.99	338.39	4.47	-40.0	-42.5	12.3	2.05e-04	0	29	0	4474273792	52	7624
2026-01-11 01:47:38.03	338.31	4.19	-41.4	-45.7	7.8	7.05e-02	0	29	0	4497342464	54	9896
2026-01-11 01:47:42.07	338.23	3.92	-42.3	-49.5	4.0	8.20e-01	0	29	0	4509925376	56	13559
2026-01-11 01:47:46.11	338.15	3.65	-42.5	-53.3	3.6	8.47e-01	0	29	104	4509925376	56	21079
2026-01-11 01:47:50.15	338.08	3.38	-42.5	-54.1	3.6	8.45e-01	0	29	104	4509925376	56	23159
2026-01-11 01:47:54.18	338.00	3.11	-42.5	-54.7	3.6	8.45e-01	0	29	104	4509925376	58	22027
2026-01-11 01:47:58.22	337.93	2.84	-47.5	-59.6	3.6	8.46e-01	0	29	104	4509925376	60	34641
2026-01-11 01:48:02.26	337.86	2.58	-48.0	-60.1	3.6	8.46e-01	0	29	104	4509925376	60	36478
2026-01-11 01:48:06.30	337.79	2.32	-47.3	-59.9	3.6	8.45e-01	0	29	104	4509925376	60	35847
2026-01-11 01:48:10.34	337.72	2.07	-47.8	-59.9	3.6	8.44e-01	0	29	104	4509925376	60	35907
2026-01-11 01:48:14.37	337.65	1.81	-47.8	-60.0	3.6	8.46e-01	0	29	104	4509925376	60	35954
2026-01-11 01:48:18.41	337.59	1.56	-47.8	-59.9	3.6	8.45e-01	0	29	104	4509925376	60	35736
2026-01-11 01:48:22.46	337.52	1.31	-47.9	-60.0	3.6	8.46e-01	0	29	104	4509925376	60	36024
2026-01-11 01:48:26.50	337.46	1.06	-47.8	-59.9	3.6	8.45e-01	0	29	104	4509925376	60	35655
2026-01-11 01:48:30.54	337.40	0.81	-47.8	-59.9	3.6	8.45e-01	0	29	104	4509925376	60	35711
2026-01-11 01:48:34.58	337.34	0.56	-47.8	-59.9	3.6	8.44e-01	0	29	104	4509925376	60	35880
2026-01-11 01:48:38.61	337.28	0.32	-47.8	-60.0	3.6	8.46e-01	0	29	104	4509925376	60	35965
2026-01-11 01:48:42.65	337.22	0.08	-47.8	-59.9	3.6	8.44e-01	0	29	104	4509925376	60	35648

#Closed at: 2026-01-11 01:48:46
#Recorded file [4509 MB]: D:/lorett/data/35029_260111_133325.dat