passes_logs/2026/01/11/R4.6S_Anadyr/R4.6S_Anadyr__20260111_144005_NOAA_20_JPSS-1_rec.log

#Pass ID: 20260111_144005_NOAA 20 (JPSS-1)
#Satellite: NOAA 20 (JPSS-1)
#Configuration: NOAA 20
#almurnet v.1.7.20251203
#Start time: 2026-01-11 14:40:07

#Version: 2.2.20231116
#Station: R4.6S_Anadyr
#Location: 177.4865 lon 64.73178 lat
#TLE: 1 43013U 17073A   26010.88944318  .00000078  00000+0  57801-4 0  9992
#TLE: 2 43013  98.7631 311.8723 0001655  45.1140 315.0170 14.19535117422152

#Time	Az	El	Level	Level2	SNR	BER	BlckErr	Temp	State	Recorded	gain1	gain2
2026-01-11 14:40:07.84	20.41	0.13	-48.0	-62.9	3.5	1.51e+00	0	24	0	0	60	50588
2026-01-11 14:40:11.88	20.43	0.37	-48.1	-63.3	3.6	1.51e+00	0	26	104	0	60	52990
2026-01-11 14:40:15.92	20.46	0.62	-48.2	-63.3	3.6	1.51e+00	0	26	104	0	60	53138
2026-01-11 14:40:19.96	20.48	0.86	-47.8	-63.0	3.6	1.51e+00	0	26	104	0	60	50784
2026-01-11 14:40:24.00	20.51	1.11	-47.0	-62.1	3.5	1.51e+00	0	26	104	0	60	46161
2026-01-11 14:40:28.03	20.53	1.36	-46.6	-61.6	3.6	1.51e+00	0	26	104	0	60	43683
2026-01-11 14:40:32.07	20.56	1.62	-46.6	-61.6	3.6	1.51e+00	0	26	104	0	60	43495
2026-01-11 14:40:36.12	20.58	1.87	-46.5	-61.7	3.6	1.51e+00	0	26	104	0	60	44012
2026-01-11 14:40:40.16	20.61	2.13	-46.5	-61.7	3.6	1.51e+00	0	26	104	0	60	44213
2026-01-11 14:40:44.20	20.64	2.39	-46.5	-60.9	3.6	1.51e+00	0	26	104	0	60	40061
2026-01-11 14:40:48.24	20.66	2.65	-46.4	-59.3	3.6	1.49e+00	0	26	104	0	60	33334
2026-01-11 14:40:52.27	20.69	2.91	-46.2	-56.6	4.7	1.34e+00	0	26	104	0	60	24469
2026-01-11 14:40:56.31	20.71	3.18	-44.5	-48.7	11.9	6.47e-04	0	26	0	6291456	60	9840
2026-01-11 14:41:00.36	20.74	3.45	-42.8	-45.4	15.2	0.00e+00	0	26	0	13631488	60	6755
2026-01-11 14:41:04.39	20.77	3.72	-43.6	-46.8	13.7	7.00e-07	0	26	0	22020096	58	8916
2026-01-11 14:41:08.43	20.79	4.00	-43.5	-46.7	13.9	1.50e-06	0	26	0	29360128	60	7780
2026-01-11 14:41:12.47	20.82	4.28	-42.9	-45.5	15.6	5.94e-03	0	26	0	31457280	60	6798
2026-01-11 14:41:16.51	20.85	4.56	-41.0	-42.7	18.1	0.00e+00	0	26	0	38797312	56	6240
2026-01-11 14:41:20.55	20.88	4.84	-40.7	-42.3	18.5	0.00e+00	0	26	0	46137344	54	6657
2026-01-11 14:41:24.58	20.90	5.13	-40.2	-41.7	19.2	0.00e+00	0	27	0	53477376	54	6231
2026-01-11 14:41:28.62	20.93	5.42	-40.3	-41.8	19.1	0.00e+00	0	26	0	61865984	54	6289
2026-01-11 14:41:32.66	20.96	5.71	-40.1	-41.6	19.4	0.00e+00	0	26	0	69206016	54	6114
2026-01-11 14:41:36.70	20.99	6.01	-39.9	-41.3	19.7	0.00e+00	0	26	0	76546048	54	5939
2026-01-11 14:41:40.74	21.01	6.31	-39.9	-41.2	19.8	0.00e+00	0	26	0	83886080	52	6615
2026-01-11 14:41:44.77	21.04	6.61	-39.8	-41.1	20.1	0.00e+00	0	26	0	91226112	52	6530
2026-01-11 14:41:48.81	21.07	6.92	-39.7	-41.0	20.2	0.00e+00	0	26	0	99614720	52	6449
2026-01-11 14:41:52.85	21.10	7.23	-39.6	-40.9	20.3	0.00e+00	0	26	0	106954752	52	6339
2026-01-11 14:41:56.88	21.13	7.54	-39.6	-40.9	20.4	0.00e+00	0	27	0	114294784	52	6320
2026-01-11 14:42:00.92	21.16	7.86	-39.4	-40.6	20.6	0.00e+00	0	26	0	121634816	52	6153
2026-01-11 14:42:04.96	21.19	8.18	-39.3	-40.5	20.8	0.00e+00	0	26	0	130023424	52	6063
2026-01-11 14:42:09.00	21.22	8.51	-39.1	-40.3	21.0	0.00e+00	0	26	0	137363456	52	5897
2026-01-11 14:42:13.04	21.25	8.84	-39.0	-40.2	21.1	0.00e+00	0	26	0	144703488	52	5843
2026-01-11 14:42:17.07	21.28	9.18	-38.8	-40.0	21.3	0.00e+00	0	27	0	152043520	52	5731
2026-01-11 14:42:21.11	21.31	9.52	-38.7	-39.9	21.4	0.00e+00	0	26	0	159383552	50	6345
2026-01-11 14:42:25.15	21.34	9.86	-38.7	-39.8	21.6	0.00e+00	0	27	0	167772160	50	6312
2026-01-11 14:42:29.19	21.37	10.21	-38.6	-39.8	21.6	0.00e+00	0	27	0	175112192	50	6257
2026-01-11 14:42:33.23	21.40	10.57	-38.5	-39.5	21.8	0.00e+00	0	26	0	182452224	50	6096
2026-01-11 14:42:37.27	21.43	10.93	-38.5	-39.6	21.8	0.00e+00	0	27	0	189792256	50	6141
2026-01-11 14:42:41.31	21.47	11.29	-38.2	-39.3	22.0	0.00e+00	0	27	0	198180864	50	5925
2026-01-11 14:42:45.35	21.50	11.66	-38.2	-39.3	22.2	0.00e+00	0	27	0	205520896	50	5917
2026-01-11 14:42:49.39	21.53	12.04	-38.1	-39.2	22.3	0.00e+00	0	27	0	212860928	50	5835
2026-01-11 14:42:53.43	21.57	12.42	-38.0	-39.1	22.4	0.00e+00	0	27	0	220200960	50	5765
2026-01-11 14:42:57.46	21.60	12.81	-37.9	-38.9	22.5	0.00e+00	0	27	0	227540992	50	5670
2026-01-11 14:43:01.50	21.64	13.20	-37.9	-38.9	22.6	0.00e+00	0	27	0	235929600	50	5634
2026-01-11 14:43:05.54	21.67	13.61	-37.7	-38.7	22.7	0.00e+00	0	27	0	243269632	48	6223
2026-01-11 14:43:09.58	21.71	14.01	-37.5	-38.5	22.9	0.00e+00	0	27	0	250609664	48	6075
2026-01-11 14:43:13.61	21.74	14.43	-37.4	-38.4	23.0	0.00e+00	0	27	0	257949696	48	5999
2026-01-11 14:43:17.65	21.78	14.85	-37.4	-38.3	23.1	0.00e+00	0	27	0	265289728	48	5954
2026-01-11 14:43:21.69	21.81	15.28	-37.3	-38.3	23.2	0.00e+00	0	27	0	273678336	48	5917
2026-01-11 14:43:25.73	21.85	15.72	-37.3	-38.2	23.2	0.00e+00	0	27	0	281018368	48	5879
2026-01-11 14:43:29.77	21.89	16.16	-37.2	-38.1	23.3	0.00e+00	0	27	0	288358400	48	5827
2026-01-11 14:43:33.80	21.93	16.62	-37.1	-38.0	23.5	0.00e+00	0	27	0	295698432	48	5748
2026-01-11 14:43:37.84	21.97	17.08	-37.1	-38.0	23.5	0.00e+00	0	27	0	304087040	48	5755
2026-01-11 14:43:41.88	22.01	17.55	-37.0	-37.9	23.5	0.00e+00	0	27	0	311427072	48	5686
2026-01-11 14:43:45.92	22.05	18.03	-37.0	-37.8	23.6	0.00e+00	0	27	0	318767104	48	5630
2026-01-11 14:43:49.96	22.09	18.52	-37.1	-38.0	23.5	0.00e+00	0	27	0	326107136	48	5730
2026-01-11 14:43:54.00	22.13	19.02	-37.1	-38.0	23.5	0.00e+00	0	27	0	333447168	48	5734
2026-01-11 14:43:58.04	22.18	19.53	-37.1	-38.0	23.6	0.00e+00	0	27	0	341835776	48	5703
2026-01-11 14:44:02.07	22.22	20.05	-37.1	-38.0	23.4	0.00e+00	0	27	0	349175808	48	5755
2026-01-11 14:44:06.11	22.27	20.58	-37.1	-38.0	23.5	0.00e+00	0	28	0	356515840	48	5752
2026-01-11 14:44:10.15	22.31	21.13	-37.2	-38.2	23.4	0.00e+00	0	28	0	363855872	48	5831
2026-01-11 14:44:14.18	22.36	21.68	-37.1	-38.0	23.5	0.00e+00	0	27	0	372244480	48	5751
2026-01-11 14:44:18.22	22.41	22.25	-37.1	-38.0	23.6	0.00e+00	0	27	0	379584512	48	5751
2026-01-11 14:44:22.26	22.46	22.83	-37.3	-38.2	23.4	0.00e+00	0	28	0	386924544	48	5885
2026-01-11 14:44:26.30	22.51	23.43	-37.5	-38.4	23.2	0.00e+00	0	28	0	394264576	48	6004
2026-01-11 14:44:30.33	22.56	24.04	-37.3	-38.2	23.4	0.00e+00	0	28	0	401604608	48	5847
2026-01-11 14:44:34.37	22.61	24.66	-37.4	-38.3	23.3	0.00e+00	0	28	0	409993216	48	5947
2026-01-11 14:44:38.41	22.67	25.30	-37.3	-38.3	23.4	0.00e+00	0	28	0	417333248	48	5900
2026-01-11 14:44:42.45	22.73	25.95	-37.6	-38.5	23.2	0.00e+00	0	28	0	424673280	48	6088
2026-01-11 14:44:46.48	22.78	26.62	-37.7	-38.6	23.1	0.00e+00	0	28	0	432013312	48	6147
2026-01-11 14:44:50.52	22.84	27.31	-38.1	-39.1	22.7	0.00e+00	0	28	0	440401920	48	6481
2026-01-11 14:44:54.56	22.91	28.02	-38.6	-39.6	22.2	0.00e+00	0	28	0	447741952	50	6169
2026-01-11 14:44:58.60	22.97	28.74	-38.9	-40.0	21.9	0.00e+00	0	28	0	455081984	50	6401
2026-01-11 14:45:02.63	23.04	29.48	-39.5	-40.7	21.2	0.00e+00	0	28	0	462422016	50	6952
2026-01-11 14:45:06.67	23.10	30.25	-39.6	-40.8	21.1	0.00e+00	0	28	0	469762048	50	7064
2026-01-11 14:45:10.71	23.18	31.03	-39.6	-40.9	21.1	0.00e+00	0	28	0	478150656	52	6319
2026-01-11 14:45:14.75	23.25	31.84	-39.8	-41.0	21.1	0.00e+00	0	28	0	485490688	52	6404
2026-01-11 14:45:18.79	23.33	32.67	-39.5	-40.8	21.3	0.00e+00	0	28	0	492830720	52	6252
2026-01-11 14:45:22.82	23.41	33.52	-39.3	-40.4	21.6	0.00e+00	0	28	0	500170752	52	6005
2026-01-11 14:45:26.86	23.49	34.39	-38.3	-39.3	22.5	0.00e+00	0	28	0	508559360	50	5915
2026-01-11 14:45:30.90	23.58	35.30	-37.7	-38.7	23.2	0.00e+00	0	28	0	515899392	48	6187
2026-01-11 14:45:34.94	23.67	36.23	-37.1	-38.0	23.8	0.00e+00	0	28	0	523239424	48	5700
2026-01-11 14:45:38.98	23.77	37.18	-36.7	-37.5	24.1	0.00e+00	0	28	0	530579456	46	6071
2026-01-11 14:45:43.02	23.87	38.17	-36.6	-37.4	24.0	0.00e+00	0	28	0	537919488	46	6007
2026-01-11 14:45:47.06	23.97	39.18	-36.3	-37.2	24.5	0.00e+00	0	28	0	546308096	46	5839
2026-01-11 14:45:51.09	24.09	40.23	-35.8	-36.6	25.0	0.00e+00	0	28	0	553648128	46	5488
2026-01-11 14:45:55.13	24.20	41.30	-36.4	-37.3	24.4	0.00e+00	0	28	0	560988160	46	5898
2026-01-11 14:45:59.17	24.33	42.41	-37.4	-38.3	23.5	0.00e+00	0	28	0	568328192	46	6626
2026-01-11 14:46:03.21	24.46	43.56	-37.1	-38.0	23.7	0.00e+00	0	28	0	576716800	46	6432
2026-01-11 14:46:07.25	24.61	44.74	-37.8	-38.8	23.1	0.00e+00	0	28	0	584056832	46	7015
2026-01-11 14:46:11.29	24.76	45.95	-39.1	-40.1	21.7	0.00e+00	0	28	0	591396864	50	6528
2026-01-11 14:46:15.32	24.92	47.20	-39.5	-40.7	21.3	0.00e+00	0	28	0	598736896	50	6976
2026-01-11 14:46:19.36	25.10	48.50	-40.1	-41.4	20.7	0.00e+00	0	28	0	606076928	52	6745
2026-01-11 14:46:23.40	25.29	49.83	-39.5	-40.7	21.4	0.00e+00	0	28	0	614465536	52	6187
2026-01-11 14:46:27.44	25.50	51.20	-37.7	-38.6	23.3	0.00e+00	0	29	0	621805568	48	6170
2026-01-11 14:46:31.48	25.72	52.61	-35.6	-36.3	25.1	0.00e+00	0	28	0	629145600	44	5957
2026-01-11 14:46:35.52	25.97	54.06	-35.3	-36.1	25.3	0.00e+00	0	29	0	636485632	44	5796
2026-01-11 14:46:39.56	26.24	55.55	-35.9	-36.7	24.8	0.00e+00	0	29	0	643825664	44	6230
2026-01-11 14:46:43.60	26.54	57.09	-36.1	-37.0	24.5	0.00e+00	0	29	0	652214272	44	6397
2026-01-11 14:46:47.64	26.88	58.67	-37.5	-38.4	23.2	0.00e+00	0	29	0	659554304	46	6740
2026-01-11 14:46:51.67	27.25	60.29	-35.1	-35.8	25.3	0.00e+00	0	29	0	666894336	44	5628
2026-01-11 14:46:55.71	27.68	61.95	-34.3	-35.0	26.3	0.00e+00	0	29	0	674234368	42	5736
2026-01-11 14:46:59.75	28.16	63.65	-34.6	-35.4	25.8	0.00e+00	0	29	0	682622976	42	5970
2026-01-11 14:47:03.79	28.72	65.39	-37.3	-38.2	23.4	0.00e+00	0	29	0	689963008	46	6579
2026-01-11 14:47:07.83	29.38	67.17	-37.8	-38.7	23.1	0.00e+00	0	29	0	697303040	48	6207
2026-01-11 14:47:11.87	30.15	68.99	-37.9	-38.9	23.0	0.00e+00	0	29	0	704643072	48	6336
2026-01-11 14:47:15.91	31.08	70.84	-37.0	-37.9	23.8	0.00e+00	0	29	0	713031680	46	6348
2026-01-11 14:47:19.94	32.22	72.71	-38.4	-39.4	22.6	0.00e+00	0	29	0	720371712	48	6726
2026-01-11 14:47:23.98	33.66	74.61	-39.5	-40.6	21.4	0.00e+00	0	29	0	727711744	50	6901
2026-01-11 14:47:28.02	35.52	76.53	-37.2	-38.1	23.7	0.00e+00	0	29	0	735051776	48	5818
2026-01-11 14:47:32.05	38.00	78.45	-36.8	-37.7	23.9	0.00e+00	0	29	0	742391808	48	5521
2026-01-11 14:47:36.09	41.51	80.37	-35.5	-36.3	25.3	0.00e+00	0	29	0	750780416	44	5904
2026-01-11 14:47:40.13	46.76	82.25	-42.2	-44.1	18.1	0.00e+00	0	29	0	758120448	56	7301
2026-01-11 14:47:44.17	55.31	84.04	-37.7	-38.6	23.3	0.00e+00	0	29	0	765460480	48	6132
2026-01-11 14:47:48.21	70.53	85.60	-36.4	-37.2	24.5	0.00e+00	0	29	0	772800512	46	5856
2026-01-11 14:47:52.24	97.72	86.58	-37.9	-38.9	22.9	0.00e+00	0	29	0	780140544	48	6341
2026-01-11 14:47:56.28	132.31	86.45	-37.4	-38.3	22.9	0.00e+00	0	29	0	788529152	48	5925
2026-01-11 14:48:00.32	156.69	85.30	-36.8	-37.7	24.1	0.00e+00	0	29	0	795869184	46	6218
2026-01-11 14:48:04.36	170.05	83.67	-39.1	-40.2	21.7	0.00e+00	0	29	0	803209216	50	6547
2026-01-11 14:48:08.40	177.68	81.85	-39.8	-41.0	21.2	0.00e+00	0	29	0	810549248	52	6443
2026-01-11 14:48:12.44	182.47	79.95	-36.1	-36.9	24.9	0.00e+00	0	29	0	818937856	46	5691
2026-01-11 14:48:16.48	185.71	78.03	-38.9	-39.9	22.1	0.00e+00	0	29	0	826277888	50	6381
2026-01-11 14:48:20.52	188.04	76.10	-39.8	-41.0	21.1	0.00e+00	0	29	0	833617920	52	6440
2026-01-11 14:48:24.56	189.80	74.18	-38.7	-39.8	22.4	0.00e+00	0	29	0	840957952	52	5593
2026-01-11 14:48:28.60	191.16	72.29	-36.8	-37.6	24.2	0.00e+00	0	29	0	848297984	48	5499
2026-01-11 14:48:32.64	192.25	70.41	-38.4	-39.4	22.4	0.00e+00	0	29	0	856686592	48	6768
2026-01-11 14:48:36.68	193.14	68.57	-41.9	-43.5	18.3	0.00e+00	0	29	0	864026624	54	7679
2026-01-11 14:48:40.72	193.89	66.76	-40.1	-41.3	20.9	0.00e+00	0	29	0	871366656	54	5946
2026-01-11 14:48:44.76	194.52	64.98	-37.0	-37.9	23.9	0.00e+00	0	29	0	878706688	48	5651
2026-01-11 14:48:48.80	195.06	63.24	-35.1	-35.9	25.4	0.00e+00	0	29	0	887095296	44	5672
2026-01-11 14:48:52.84	195.53	61.55	-34.3	-35.0	26.2	0.00e+00	0	29	0	894435328	42	5724
2026-01-11 14:48:56.87	195.95	59.89	-36.9	-37.8	24.0	0.00e+00	0	29	0	901775360	46	6246
2026-01-11 14:49:00.91	196.31	58.28	-39.9	-41.0	21.0	0.00e+00	0	29	0	909115392	50	7253
2026-01-11 14:49:04.95	196.64	56.71	-39.0	-40.1	22.1	0.00e+00	0	29	0	916455424	52	5772
2026-01-11 14:49:08.99	196.93	55.17	-37.0	-37.8	23.8	0.00e+00	0	29	0	924844032	48	5627
2026-01-11 14:49:13.03	197.20	53.69	-36.0	-36.8	24.9	0.00e+00	0	29	0	932184064	46	5618
2026-01-11 14:49:17.06	197.44	52.24	-37.7	-38.7	23.2	0.00e+00	0	29	0	939524096	46	6939
2026-01-11 14:49:21.10	197.66	50.84	-39.1	-40.2	21.8	0.00e+00	0	29	0	946864128	50	6612
2026-01-11 14:49:25.14	197.86	49.47	-40.0	-41.3	20.9	0.00e+00	0	29	0	955252736	52	6637
2026-01-11 14:49:29.18	198.05	48.15	-41.5	-43.2	19.0	0.00e+00	0	30	0	962592768	56	6542
2026-01-11 14:49:33.22	198.22	46.86	-37.1	-38.0	23.9	0.00e+00	0	29	0	969932800	48	5710
2026-01-11 14:49:37.25	198.38	45.61	-39.0	-40.1	22.0	0.00e+00	0	29	0	977272832	50	6479
2026-01-11 14:49:41.29	198.53	44.40	-36.5	-37.3	24.3	0.00e+00	0	29	0	984612864	46	5964
2026-01-11 14:49:45.33	198.67	43.23	-35.2	-36.0	25.4	0.00e+00	0	29	0	993001472	44	5718
2026-01-11 14:49:49.37	198.80	42.09	-39.1	-40.2	21.8	0.00e+00	0	29	0	1000341504	50	6587
2026-01-11 14:49:53.41	198.92	40.98	-37.4	-38.3	23.6	0.00e+00	0	30	0	1007681536	48	5912
2026-01-11 14:49:57.45	199.04	39.91	-37.3	-38.2	23.6	0.00e+00	0	29	0	1015021568	48	5866
2026-01-11 14:50:01.49	199.15	38.87	-41.5	-43.1	19.1	0.00e+00	0	30	0	1023410176	54	7310
2026-01-11 14:50:05.52	199.25	37.86	-42.6	-44.5	17.9	0.00e+00	0	29	0	1030750208	58	6843
2026-01-11 14:50:09.56	199.35	36.88	-39.2	-40.3	21.7	0.00e+00	0	30	0	1038090240	52	5963
2026-01-11 14:50:13.60	199.44	35.92	-39.4	-40.6	21.6	0.00e+00	0	30	0	1045430272	52	6118
2026-01-11 14:50:17.64	199.53	35.00	-41.5	-43.2	19.0	0.00e+00	0	30	0	1052770304	54	7390
2026-01-11 14:50:21.67	199.62	34.10	-43.6	-46.3	16.1	0.00e+00	0	30	0	1061158912	58	8338
2026-01-11 14:50:25.71	199.70	33.23	-41.5	-43.1	19.1	0.00e+00	0	30	0	1068498944	56	6514
2026-01-11 14:50:29.75	199.78	32.38	-39.7	-40.9	21.2	0.00e+00	0	30	0	1075838976	52	6333
2026-01-11 14:50:33.79	199.85	31.55	-39.4	-40.4	21.6	0.00e+00	0	30	0	1083179008	52	6033
2026-01-11 14:50:37.83	199.92	30.75	-40.6	-42.0	20.1	0.00e+00	0	30	0	1091567616	54	6406
2026-01-11 14:50:41.88	199.99	29.96	-41.4	-42.9	19.2	0.00e+00	0	30	0	1098907648	54	7145
2026-01-11 14:50:45.91	200.06	29.20	-40.7	-42.1	20.0	0.00e+00	0	30	0	1106247680	54	6496
2026-01-11 14:50:49.95	200.12	28.46	-40.1	-41.3	20.8	0.00e+00	0	30	0	1113587712	54	5954
2026-01-11 14:50:54.00	200.19	27.74	-38.7	-39.7	22.2	0.00e+00	0	30	0	1120927744	50	6233
2026-01-11 14:50:58.04	200.25	27.04	-37.9	-38.9	23.0	0.00e+00	0	30	0	1129316352	50	5636
2026-01-11 14:51:02.08	200.30	26.35	-37.7	-38.6	23.3	0.00e+00	0	30	0	1136656384	48	6148
2026-01-11 14:51:06.11	200.36	25.68	-37.8	-38.8	23.1	0.00e+00	0	30	0	1143996416	48	6300
2026-01-11 14:51:10.15	200.42	25.03	-37.6	-38.5	23.3	0.00e+00	0	30	0	1151336448	48	6068
2026-01-11 14:51:14.19	200.47	24.39	-37.3	-38.2	23.5	0.00e+00	0	30	0	1159725056	48	5893
2026-01-11 14:51:18.23	200.52	23.77	-36.8	-37.7	24.0	0.00e+00	0	30	0	1167065088	46	6186
2026-01-11 14:51:22.27	200.57	23.16	-36.3	-37.2	24.2	0.00e+00	0	30	0	1174405120	46	5831
2026-01-11 14:51:26.30	200.62	22.57	-36.0	-36.8	24.7	0.00e+00	0	30	0	1181745152	46	5613
2026-01-11 14:51:30.34	200.66	21.99	-36.1	-37.0	24.6	0.00e+00	0	30	0	1189085184	46	5707
2026-01-11 14:51:34.38	200.71	21.42	-36.3	-37.2	24.4	0.00e+00	0	30	0	1197473792	46	5836
2026-01-11 14:51:38.41	200.76	20.87	-36.7	-37.5	24.2	0.00e+00	0	30	0	1204813824	46	6076
2026-01-11 14:51:42.45	200.80	20.33	-36.8	-37.7	24.1	0.00e+00	0	30	0	1212153856	46	6176
2026-01-11 14:51:46.49	200.84	19.80	-37.0	-37.9	23.8	0.00e+00	0	30	0	1219493888	46	6354
2026-01-11 14:51:50.53	200.88	19.28	-37.2	-38.2	23.6	0.00e+00	0	30	0	1227882496	46	6561
2026-01-11 14:51:54.56	200.93	18.77	-37.2	-38.1	23.6	0.00e+00	0	30	0	1235222528	46	6531
2026-01-11 14:51:58.60	200.97	18.27	-37.3	-38.3	23.4	0.00e+00	0	30	0	1242562560	46	6629
2026-01-11 14:52:02.64	201.00	17.78	-37.4	-38.4	23.3	0.00e+00	0	30	0	1249902592	46	6698
2026-01-11 14:52:06.68	201.04	17.30	-37.6	-38.5	23.2	0.00e+00	0	30	0	1257242624	46	6844
2026-01-11 14:52:10.72	201.08	16.83	-37.9	-38.8	22.9	0.00e+00	0	30	0	1265631232	48	6311
2026-01-11 14:52:14.76	201.12	16.37	-38.0	-39.0	22.6	0.00e+00	0	30	0	1272971264	48	6448
2026-01-11 14:52:18.79	201.15	15.92	-37.9	-38.9	22.8	0.00e+00	0	30	0	1280311296	48	6346
2026-01-11 14:52:22.83	201.19	15.47	-37.9	-38.9	22.8	0.00e+00	0	30	0	1287651328	48	6337
2026-01-11 14:52:26.87	201.22	15.04	-38.0	-39.0	22.8	0.00e+00	0	30	0	1296039936	48	6427
2026-01-11 14:52:30.91	201.26	14.61	-37.8	-38.8	22.8	0.00e+00	0	30	0	1303379968	48	6276
2026-01-11 14:52:34.95	201.29	14.19	-37.9	-38.8	22.8	0.00e+00	0	30	0	1310720000	48	6315
2026-01-11 14:52:38.99	201.32	13.77	-38.0	-39.0	22.7	0.00e+00	0	30	0	1318060032	48	6451
2026-01-11 14:52:43.03	201.36	13.36	-38.2	-39.3	22.4	0.00e+00	0	30	0	1325400064	48	6624
2026-01-11 14:52:47.07	201.39	12.96	-38.4	-39.4	22.2	0.00e+00	0	30	0	1333788672	48	6768
2026-01-11 14:52:51.10	201.42	12.57	-38.7	-39.8	22.0	0.00e+00	0	30	0	1341128704	50	6253
2026-01-11 14:52:55.14	201.45	12.18	-38.9	-40.0	21.8	0.00e+00	0	30	0	1348468736	50	6422
2026-01-11 14:52:59.18	201.48	11.80	-39.2	-40.3	21.4	0.00e+00	0	30	0	1355808768	50	6691
2026-01-11 14:53:03.21	201.51	11.43	-39.4	-40.5	21.2	0.00e+00	0	30	0	1364197376	50	6835
2026-01-11 14:53:07.25	201.54	11.06	-39.1	-40.3	21.4	0.00e+00	0	30	0	1371537408	50	6633
2026-01-11 14:53:11.29	201.57	10.69	-39.2	-40.3	21.4	0.00e+00	0	30	0	1378877440	50	6666
2026-01-11 14:53:15.33	201.60	10.33	-39.1	-40.3	21.4	0.00e+00	0	30	0	1386217472	50	6637
2026-01-11 14:53:19.37	201.63	9.98	-39.0	-40.1	21.6	0.00e+00	0	30	0	1393557504	50	6499
2026-01-11 14:53:23.40	201.66	9.63	-39.0	-40.1	21.5	0.00e+00	0	30	0	1401946112	50	6523
2026-01-11 14:53:27.44	201.68	9.28	-38.8	-39.9	21.6	0.00e+00	0	30	0	1409286144	50	6383
2026-01-11 14:53:31.48	201.71	8.94	-38.8	-39.9	21.6	0.00e+00	0	30	0	1416626176	50	6363
2026-01-11 14:53:35.52	201.74	8.61	-38.9	-40.0	21.6	0.00e+00	0	30	0	1423966208	50	6450
2026-01-11 14:53:39.56	201.77	8.28	-38.7	-39.8	21.6	0.00e+00	0	30	0	1432354816	50	6308
2026-01-11 14:53:43.60	201.79	7.95	-38.9	-40.1	21.4	0.00e+00	0	30	0	1439694848	50	6465
2026-01-11 14:53:47.64	201.82	7.63	-39.1	-40.4	20.9	0.00e+00	0	30	0	1447034880	50	6712
2026-01-11 14:53:51.68	201.85	7.31	-39.0	-40.2	21.2	0.00e+00	0	30	0	1454374912	50	6581
2026-01-11 14:53:55.72	201.87	7.00	-39.0	-40.1	21.1	0.00e+00	0	30	0	1461714944	50	6523
2026-01-11 14:53:59.76	201.90	6.69	-39.1	-40.3	21.0	0.00e+00	0	29	0	1470103552	50	6678
2026-01-11 14:54:03.79	201.92	6.38	-39.2	-40.4	20.9	0.00e+00	0	29	0	1477443584	50	6724
2026-01-11 14:54:07.83	201.95	6.08	-39.2	-40.5	20.8	0.00e+00	0	29	0	1484783616	50	6771
2026-01-11 14:54:11.87	201.97	5.78	-39.2	-40.4	20.8	0.00e+00	0	29	0	1492123648	50	6764
2026-01-11 14:54:15.91	201.99	5.48	-39.3	-40.5	20.7	0.00e+00	0	29	0	1500512256	50	6843
2026-01-11 14:54:19.95	202.02	5.19	-39.5	-40.7	20.4	0.00e+00	0	29	0	1507852288	50	6987
2026-01-11 14:54:23.99	202.04	4.90	-39.8	-41.2	20.1	0.00e+00	0	29	0	1515192320	52	6560
2026-01-11 14:54:28.02	202.07	4.61	-39.8	-41.2	20.0	0.00e+00	0	29	0	1522532352	52	6552
2026-01-11 14:54:32.06	202.09	4.33	-40.3	-41.8	19.3	0.00e+00	0	29	0	1529872384	52	7075
2026-01-11 14:54:36.10	202.11	4.05	-40.1	-41.5	19.5	0.00e+00	0	29	0	1538260992	52	6826
2026-01-11 14:54:40.14	202.14	3.77	-40.1	-41.5	19.4	0.00e+00	0	29	0	1545601024	52	6844
2026-01-11 14:54:44.18	202.16	3.49	-40.5	-42.1	18.8	0.00e+00	0	29	0	1552941056	52	7255
2026-01-11 14:54:48.22	202.18	3.22	-40.6	-42.2	18.8	0.00e+00	0	29	0	1560281088	52	7342
2026-01-11 14:54:52.25	202.20	2.95	-47.3	-62.4	3.6	1.51e+00	0	29	104	1566572544	60	47757
2026-01-11 14:54:56.29	202.23	2.69	-46.4	-63.3	3.6	1.51e+00	0	29	104	1566572544	60	52909
2026-01-11 14:55:00.33	202.25	2.42	-48.0	-63.5	3.6	1.51e+00	0	29	104	1566572544	60	53774
2026-01-11 14:55:04.37	202.27	2.16	-47.9	-63.3	3.6	1.51e+00	0	29	104	1566572544	60	52927
2026-01-11 14:55:08.41	202.29	1.90	-48.2	-63.3	3.6	1.51e+00	0	29	104	1566572544	60	53118
2026-01-11 14:55:12.45	202.31	1.64	-48.1	-63.3	3.6	1.51e+00	0	29	104	1566572544	60	53005
2026-01-11 14:55:16.49	202.34	1.39	-48.1	-63.3	3.6	1.51e+00	0	29	104	1566572544	60	52697
2026-01-11 14:55:20.53	202.36	1.13	-48.1	-63.3	3.6	1.51e+00	0	29	104	1566572544	60	52718
2026-01-11 14:55:24.57	202.38	0.88	-48.1	-63.3	3.6	1.51e+00	0	29	104	1566572544	60	52760
2026-01-11 14:55:28.60	202.40	0.64	-48.1	-63.3	3.6	1.51e+00	0	29	104	1566572544	60	52670
2026-01-11 14:55:32.63	202.42	0.39	-48.1	-63.3	3.6	1.51e+00	0	29	104	1566572544	60	52891
2026-01-11 14:55:36.67	202.44	0.15	-48.1	-63.3	3.6	1.51e+00	0	29	104	1566572544	60	52622

#Closed at: 2026-01-11 14:55:40
#Recorded file [1566 MB]: D:/lorett/data/35029_260112_024007.dat