passes_logs/2026/01/11/R4.6S_Anadyr/R4.6S_Anadyr__20260111_165923_FENGYUN_3D_rec.log

#Pass ID: 20260111_165923_FENGYUN 3D
#Satellite: FENGYUN 3D
#Configuration: FENGYUN 3D
#almurnet v.1.7.20251203
#Start time: 2026-01-11 16:59:25

#Version: 2.2.20231116
#Station: R4.6S_Anadyr
#Location: 177.4865 lon 64.73178 lat
#TLE: 1 43010U 17072A   26010.98637270  .00000005  00000+0  24269-4 0  9997
#TLE: 2 43010  98.9936 342.7405 0002213 115.1030 245.0375 14.19693961422685

#Time	Az	El	Level	Level2	SNR	BER	BlckErr	Temp	State	Recorded	gain1	gain2
2026-01-11 16:59:25.73	21.47	0.14	-48.5	-66.2	3.5	3.03e+01	0	25	0	0	60	78829
2026-01-11 16:59:29.77	21.46	0.39	-48.1	-60.2	3.6	8.47e-01	0	26	104	0	60	37159
2026-01-11 16:59:33.81	21.46	0.63	-47.9	-60.1	3.6	8.46e-01	0	26	104	0	60	36575
2026-01-11 16:59:37.84	21.46	0.88	-47.6	-59.6	3.6	8.45e-01	0	27	104	0	60	34518
2026-01-11 16:59:41.88	21.45	1.13	-46.6	-58.7	3.6	8.45e-01	0	27	104	0	60	30959
2026-01-11 16:59:45.92	21.45	1.38	-46.5	-58.3	3.6	8.44e-01	0	27	104	0	60	29692
2026-01-11 16:59:49.95	21.45	1.63	-46.5	-58.1	3.6	8.45e-01	0	27	104	0	60	29209
2026-01-11 16:59:53.99	21.44	1.89	-46.5	-58.5	3.6	8.45e-01	0	27	104	0	60	30573
2026-01-11 16:59:58.02	21.44	2.14	-46.5	-58.3	3.6	8.44e-01	0	27	104	0	60	29646
2026-01-11 17:00:02.06	21.43	2.40	-46.3	-56.7	3.6	8.43e-01	0	27	104	0	60	24633
2026-01-11 17:00:06.10	21.43	2.67	-46.0	-53.1	4.0	8.29e-01	0	27	0	0	60	16260
2026-01-11 17:00:10.14	21.42	2.93	-45.2	-49.9	7.0	2.52e-01	0	27	0	4194304	60	11235
2026-01-11 17:00:14.17	21.42	3.20	-40.9	-42.6	15.0	0.00e+00	0	27	0	27262976	56	6110
2026-01-11 17:00:18.21	21.41	3.47	-38.3	-39.5	18.1	0.00e+00	0	27	0	49283072	50	6043
2026-01-11 17:00:22.25	21.40	3.74	-40.2	-41.7	15.8	0.00e+00	0	27	0	72351744	52	6953
2026-01-11 17:00:26.29	21.39	4.02	-46.3	-57.4	3.6	8.45e-01	0	28	104	91226112	60	26739
2026-01-11 17:00:30.33	21.38	4.30	-36.1	-37.0	20.6	0.00e+00	0	28	0	99614720	46	5705
2026-01-11 17:00:34.37	21.38	4.58	-34.4	-35.2	22.5	0.00e+00	0	28	0	122683392	42	5831
2026-01-11 17:00:38.41	21.37	4.86	-34.7	-35.5	22.3	0.00e+00	0	28	0	144703488	42	6037
2026-01-11 17:00:42.44	21.36	5.15	-34.1	-34.8	22.9	0.00e+00	0	28	0	167772160	42	5605
2026-01-11 17:00:46.48	21.35	5.44	-34.1	-34.9	22.9	0.00e+00	0	28	0	190840832	42	5632
2026-01-11 17:00:50.52	21.34	5.73	-33.8	-34.5	23.2	0.00e+00	0	28	0	212860928	42	5439
2026-01-11 17:00:54.56	21.32	6.03	-33.7	-34.4	23.5	0.00e+00	0	28	0	235929600	40	5990
2026-01-11 17:00:58.59	21.31	6.33	-33.8	-34.5	23.4	0.00e+00	0	28	0	257949696	40	6071
2026-01-11 17:01:02.63	21.30	6.63	-33.5	-34.2	23.7	0.00e+00	0	28	0	281018368	40	5833
2026-01-11 17:01:06.66	21.29	6.94	-33.3	-34.0	23.9	0.00e+00	0	28	0	304087040	40	5703
2026-01-11 17:01:10.70	21.27	7.25	-33.2	-33.9	24.0	0.00e+00	0	28	0	327155712	40	5677
2026-01-11 17:01:14.74	21.26	7.57	-33.1	-33.8	24.2	0.00e+00	0	28	0	349175808	40	5591
2026-01-11 17:01:18.77	21.24	7.89	-33.0	-33.7	24.3	0.00e+00	0	28	0	372244480	40	5551
2026-01-11 17:01:22.81	21.22	8.21	-32.8	-33.5	24.5	0.00e+00	0	28	0	395313152	40	5381
2026-01-11 17:01:26.85	21.21	8.54	-32.8	-33.5	24.5	0.00e+00	0	28	0	417333248	40	5402
2026-01-11 17:01:30.88	21.19	8.87	-32.9	-33.6	24.4	0.00e+00	0	28	0	440401920	38	6130
2026-01-11 17:01:34.92	21.17	9.21	-32.9	-33.5	24.6	0.00e+00	0	28	0	462422016	38	6101
2026-01-11 17:01:38.96	21.15	9.55	-32.8	-33.5	24.6	0.00e+00	0	28	0	485490688	38	6036
2026-01-11 17:01:43.00	21.13	9.89	-32.8	-33.4	24.7	0.00e+00	0	28	0	508559360	38	6025
2026-01-11 17:01:47.04	21.11	10.24	-32.7	-33.3	24.8	0.00e+00	0	28	0	530579456	38	5958
2026-01-11 17:01:51.08	21.09	10.60	-32.6	-33.3	24.9	0.00e+00	0	29	0	553648128	38	5917
2026-01-11 17:01:55.12	21.06	10.96	-32.5	-33.2	24.9	0.00e+00	0	28	0	576716800	38	5848
2026-01-11 17:01:59.16	21.04	11.33	-32.4	-33.1	25.0	0.00e+00	0	28	0	599785472	38	5792
2026-01-11 17:02:03.20	21.01	11.70	-32.5	-33.1	25.0	0.00e+00	0	28	0	621805568	38	5827
2026-01-11 17:02:07.23	20.99	12.07	-32.5	-33.2	24.9	0.00e+00	0	28	0	644874240	38	5859
2026-01-11 17:02:11.27	20.96	12.46	-32.5	-33.2	24.9	0.00e+00	0	29	0	666894336	38	5838
2026-01-11 17:02:15.31	20.93	12.85	-32.3	-33.0	25.1	0.00e+00	0	29	0	689963008	38	5720
2026-01-11 17:02:19.35	20.90	13.24	-32.1	-32.8	25.3	0.00e+00	0	28	0	713031680	38	5584
2026-01-11 17:02:23.38	20.87	13.64	-31.9	-32.6	25.5	0.00e+00	0	29	0	735051776	38	5457
2026-01-11 17:02:27.42	20.84	14.05	-31.9	-32.6	25.6	0.00e+00	0	29	0	758120448	38	5459
2026-01-11 17:02:31.46	20.80	14.47	-31.7	-32.4	25.8	0.00e+00	0	29	0	781189120	36	5980
2026-01-11 17:02:35.49	20.77	14.89	-31.7	-32.3	25.8	0.00e+00	0	29	0	803209216	36	5953
2026-01-11 17:02:39.53	20.73	15.32	-31.3	-31.9	26.1	0.00e+00	0	29	0	826277888	36	5695
2026-01-11 17:02:43.57	20.69	15.76	-31.2	-31.8	26.1	0.00e+00	0	29	0	849346560	36	5622
2026-01-11 17:02:47.60	20.65	16.21	-31.0	-31.7	26.3	0.00e+00	0	29	0	871366656	36	5513
2026-01-11 17:02:51.64	20.61	16.66	-31.0	-31.6	26.5	0.00e+00	0	29	0	894435328	36	5464
2026-01-11 17:02:55.68	20.57	17.13	-30.6	-31.3	26.7	0.00e+00	0	29	0	917504000	34	5899
2026-01-11 17:02:59.72	20.52	17.60	-30.7	-31.4	26.5	0.00e+00	0	29	0	939524096	34	5971
2026-01-11 17:03:03.75	20.47	18.08	-30.4	-31.0	26.6	0.00e+00	0	29	0	962592768	34	5716
2026-01-11 17:03:07.79	20.42	18.57	-30.3	-31.0	26.9	0.00e+00	0	29	0	985661440	34	5710
2026-01-11 17:03:11.83	20.37	19.07	-30.1	-30.7	27.0	0.00e+00	0	29	0	1007681536	34	5546
2026-01-11 17:03:15.87	20.32	19.59	-30.0	-30.6	27.3	0.00e+00	0	29	0	1030750208	34	5450
2026-01-11 17:03:19.91	20.26	20.11	-29.9	-30.5	27.3	0.00e+00	0	29	0	1053818880	34	5428
2026-01-11 17:03:23.95	20.20	20.64	-29.7	-30.3	27.6	0.00e+00	0	29	0	1075838976	32	5949
2026-01-11 17:03:27.98	20.14	21.19	-29.8	-30.4	27.5	0.00e+00	0	29	0	1098907648	32	5977
2026-01-11 17:03:32.02	20.08	21.74	-29.6	-30.2	27.7	0.00e+00	0	29	0	1121976320	32	5860
2026-01-11 17:03:36.06	20.01	22.31	-29.5	-30.2	27.7	0.00e+00	0	29	0	1143996416	32	5842
2026-01-11 17:03:40.10	19.94	22.90	-29.6	-30.2	27.7	0.00e+00	0	29	0	1167065088	32	5846
2026-01-11 17:03:44.13	19.86	23.49	-29.4	-30.0	27.9	0.00e+00	0	29	0	1190133760	32	5715
2026-01-11 17:03:48.17	19.78	24.10	-29.3	-29.9	27.9	0.00e+00	0	29	0	1212153856	32	5635
2026-01-11 17:03:52.21	19.70	24.73	-29.0	-29.6	28.2	0.00e+00	0	29	0	1235222528	32	5461
2026-01-11 17:03:56.25	19.62	25.37	-29.2	-29.8	28.1	0.00e+00	0	29	0	1257242624	32	5614
2026-01-11 17:04:00.28	19.53	26.02	-29.2	-29.8	28.0	0.00e+00	0	29	0	1280311296	32	5606
2026-01-11 17:04:04.32	19.43	26.70	-28.9	-29.5	28.2	0.00e+00	0	29	0	1303379968	32	5417
2026-01-11 17:04:08.36	19.33	27.39	-28.9	-29.5	28.2	0.00e+00	0	29	0	1326448640	32	5416
2026-01-11 17:04:12.39	19.23	28.09	-29.0	-29.6	28.2	0.00e+00	0	29	0	1348468736	32	5490
2026-01-11 17:04:16.43	19.12	28.82	-29.2	-29.9	28.0	0.00e+00	0	29	0	1371537408	32	5634
2026-01-11 17:04:20.47	19.00	29.56	-29.3	-29.9	28.0	0.00e+00	0	29	0	1394606080	32	5656
2026-01-11 17:04:24.51	18.88	30.33	-29.1	-29.7	28.1	0.00e+00	0	29	0	1416626176	32	5517
2026-01-11 17:04:28.54	18.75	31.11	-28.7	-29.3	28.5	0.00e+00	0	29	0	1439694848	30	5906
2026-01-11 17:04:32.58	18.61	31.92	-28.6	-29.2	28.5	0.00e+00	0	29	0	1461714944	30	5861
2026-01-11 17:04:36.62	18.47	32.75	-28.8	-29.4	28.3	0.00e+00	0	29	0	1484783616	30	5998
2026-01-11 17:04:40.66	18.32	33.60	-28.8	-29.4	28.4	0.00e+00	0	29	0	1507852288	30	5982
2026-01-11 17:04:44.69	18.16	34.48	-28.7	-29.3	28.5	0.00e+00	0	29	0	1529872384	30	5912
2026-01-11 17:04:48.72	17.98	35.38	-28.4	-29.0	28.7	0.00e+00	0	29	0	1552941056	30	5732
2026-01-11 17:04:52.76	17.80	36.31	-28.1	-28.7	28.9	0.00e+00	0	29	0	1576009728	30	5538
2026-01-11 17:04:56.80	17.61	37.26	-28.3	-28.9	28.7	0.00e+00	0	30	0	1599078400	30	5684
2026-01-11 17:05:00.84	17.40	38.25	-28.0	-28.6	29.0	0.00e+00	0	29	0	1621098496	30	5467
2026-01-11 17:05:04.88	17.18	39.26	-28.4	-29.0	28.7	0.00e+00	0	30	0	1644167168	30	5696
2026-01-11 17:05:08.92	16.94	40.30	-29.0	-29.6	28.3	0.00e+00	0	29	0	1666187264	30	6106
2026-01-11 17:05:12.96	16.68	41.38	-29.1	-29.7	28.2	0.00e+00	0	30	0	1689255936	30	6193
2026-01-11 17:05:17.00	16.41	42.48	-29.0	-29.6	28.3	0.00e+00	0	30	0	1712324608	30	6162
2026-01-11 17:05:21.03	16.12	43.62	-28.6	-29.2	28.6	0.00e+00	0	29	0	1734344704	30	5829
2026-01-11 17:05:25.07	15.80	44.79	-29.0	-29.6	28.3	0.00e+00	0	30	0	1757413376	30	6135
2026-01-11 17:05:29.11	15.46	46.00	-29.1	-29.8	28.1	0.00e+00	0	30	0	1780482048	30	6248
2026-01-11 17:05:33.15	15.09	47.25	-28.7	-29.3	28.6	0.00e+00	0	30	0	1803550720	30	5921
2026-01-11 17:05:37.19	14.68	48.53	-29.3	-29.9	28.0	0.00e+00	0	30	0	1825570816	30	6323
2026-01-11 17:05:41.22	14.24	49.84	-29.2	-29.8	28.1	0.00e+00	0	30	0	1848639488	30	6275
2026-01-11 17:05:45.26	13.76	51.19	-29.9	-30.6	27.6	0.00e+00	0	30	0	1870659584	32	6112
2026-01-11 17:05:49.30	13.23	52.59	-30.4	-31.0	27.3	0.00e+00	0	30	0	1893728256	32	6411
2026-01-11 17:05:53.34	12.64	54.02	-30.1	-30.7	27.5	0.00e+00	0	30	0	1916796928	32	6198
2026-01-11 17:05:57.38	11.99	55.48	-30.2	-30.7	27.4	0.00e+00	0	30	0	1938817024	32	6222
2026-01-11 17:06:01.42	11.26	56.99	-29.7	-30.3	27.7	0.00e+00	0	30	0	1961885696	32	5962
2026-01-11 17:06:05.45	10.46	58.52	-29.1	-29.7	28.2	0.00e+00	0	30	0	1984954368	32	5536
2026-01-11 17:06:09.48	9.54	60.09	-28.6	-29.2	28.6	0.00e+00	0	30	0	2006974464	30	5850
2026-01-11 17:06:13.52	8.51	61.70	-28.7	-29.3	28.4	0.00e+00	0	30	0	2030043136	30	5953
2026-01-11 17:06:17.56	7.32	63.34	-28.9	-29.5	28.3	0.00e+00	0	30	0	2053111808	30	6048
2026-01-11 17:06:21.60	5.96	65.00	-28.4	-29.0	28.7	0.00e+00	0	30	0	2075131904	30	5745
2026-01-11 17:06:25.64	4.37	66.69	-28.5	-29.1	28.6	0.00e+00	0	30	0	2098200576	30	5782
2026-01-11 17:06:29.68	2.50	68.39	-28.2	-28.8	28.8	0.00e+00	0	30	0	2121269248	30	5614
2026-01-11 17:06:33.71	0.29	70.09	-28.1	-28.8	28.9	0.00e+00	0	30	0	2143289344	30	5567
2026-01-11 17:06:37.75	357.63	71.80	-27.4	-28.0	29.3	0.00e+00	0	30	0	2166358016	28	5752
2026-01-11 17:06:41.79	354.38	73.48	-27.3	-27.9	29.3	0.00e+00	0	30	0	2189426688	28	5632
2026-01-11 17:06:45.82	350.36	75.13	-27.6	-28.2	29.2	0.00e+00	0	30	0	2211446784	28	5877
2026-01-11 17:06:49.86	345.32	76.70	-27.3	-27.9	29.5	0.00e+00	0	30	0	2234515456	28	5654
2026-01-11 17:06:53.90	338.92	78.17	-26.7	-27.3	29.9	0.00e+00	0	30	0	2257584128	26	5952
2026-01-11 17:06:57.93	330.81	79.46	-26.0	-26.5	30.3	0.00e+00	0	30	0	2279604224	26	5437
2026-01-11 17:07:01.96	320.65	80.49	-26.0	-26.7	30.2	0.00e+00	0	30	0	2302672896	26	5512
2026-01-11 17:07:06.00	308.43	81.17	-25.9	-26.4	30.4	0.00e+00	0	30	0	2325741568	24	6011
2026-01-11 17:07:10.04	294.87	81.40	-26.3	-26.8	30.1	0.00e+00	0	30	0	2347761664	24	6308
2026-01-11 17:07:14.08	281.35	81.14	-26.3	-26.9	29.9	0.00e+00	0	30	0	2370830336	24	6322
2026-01-11 17:07:18.12	269.23	80.44	-26.5	-27.1	29.9	0.00e+00	0	30	0	2393899008	24	6509
2026-01-11 17:07:22.16	259.16	79.39	-27.0	-27.6	29.9	0.00e+00	0	30	0	2415919104	26	6161
2026-01-11 17:07:26.19	251.16	78.08	-26.4	-27.0	30.0	0.00e+00	0	30	0	2438987776	26	5758
2026-01-11 17:07:30.23	244.85	76.61	-26.8	-27.3	29.8	0.00e+00	0	30	0	2461007872	26	5932
2026-01-11 17:07:34.27	239.88	75.03	-26.8	-27.4	29.7	0.00e+00	0	30	0	2484076544	26	5977
2026-01-11 17:07:38.31	235.90	73.37	-27.3	-27.8	29.4	0.00e+00	0	30	0	2507145216	26	6263
2026-01-11 17:07:42.34	232.70	71.69	-27.6	-28.3	29.2	0.00e+00	0	30	0	2529165312	26	6633
2026-01-11 17:07:46.38	230.06	69.98	-28.4	-28.9	28.7	0.00e+00	0	30	0	2552233984	28	6359
2026-01-11 17:07:50.42	227.87	68.27	-28.0	-28.5	28.9	0.00e+00	0	30	0	2575302656	28	6083
2026-01-11 17:07:54.46	226.02	66.56	-27.9	-28.5	29.1	0.00e+00	0	30	0	2598371328	28	6053
2026-01-11 17:07:58.49	224.45	64.88	-27.7	-28.2	29.1	0.00e+00	0	30	0	2620391424	28	5891
2026-01-11 17:08:02.53	223.10	63.21	-28.0	-28.5	28.9	0.00e+00	0	30	0	2643460096	28	6091
2026-01-11 17:08:06.57	221.92	61.57	-28.5	-29.1	28.5	0.00e+00	0	30	0	2665480192	28	6507
2026-01-11 17:08:10.61	220.89	59.96	-28.6	-29.3	28.5	0.00e+00	0	30	0	2688548864	28	6633
2026-01-11 17:08:14.65	219.98	58.39	-29.3	-30.0	28.0	0.00e+00	0	30	0	2711617536	30	6458
2026-01-11 17:08:18.69	219.18	56.85	-29.9	-30.4	27.6	0.00e+00	0	30	0	2733637632	32	6007
2026-01-11 17:08:22.72	218.46	55.34	-29.8	-30.3	28.0	0.00e+00	0	30	0	2756706304	32	5942
2026-01-11 17:08:26.77	217.81	53.87	-29.8	-30.5	27.4	0.00e+00	0	30	0	2779774976	32	6060
2026-01-11 17:08:30.81	217.23	52.44	-29.2	-29.9	28.0	0.00e+00	0	30	0	2802843648	32	5672
2026-01-11 17:08:34.84	216.70	51.05	-29.2	-29.8	28.0	0.00e+00	0	30	0	2824863744	32	5588
2026-01-11 17:08:38.87	216.22	49.70	-28.6	-29.2	28.5	0.00e+00	0	30	0	2847932416	30	5830
2026-01-11 17:08:42.91	215.78	48.38	-28.5	-29.0	28.6	0.00e+00	0	30	0	2869952512	30	5751
2026-01-11 17:08:46.95	215.37	47.10	-28.9	-29.6	28.3	0.00e+00	0	30	0	2893021184	30	6146
2026-01-11 17:08:50.98	215.00	45.86	-28.7	-29.4	28.5	0.00e+00	0	29	0	2916089856	30	5987
2026-01-11 17:08:55.02	214.66	44.65	-28.7	-29.3	28.5	0.00e+00	0	30	0	2938109952	30	5911
2026-01-11 17:08:59.06	214.34	43.47	-29.0	-29.7	28.4	0.00e+00	0	30	0	2961178624	30	6180
2026-01-11 17:09:03.10	214.05	42.33	-28.8	-29.5	28.5	0.00e+00	0	29	0	2984247296	30	6070
2026-01-11 17:09:07.13	213.78	41.23	-28.5	-29.1	28.7	0.00e+00	0	30	0	3006267392	30	5770
2026-01-11 17:09:11.17	213.52	40.15	-28.3	-28.9	28.8	0.00e+00	0	29	0	3029336064	30	5671
2026-01-11 17:09:15.21	213.29	39.11	-28.2	-28.7	28.7	0.00e+00	0	30	0	3052404736	30	5534
2026-01-11 17:09:19.24	213.06	38.09	-28.3	-28.9	28.8	0.00e+00	0	29	0	3074424832	30	5636
2026-01-11 17:09:23.28	212.86	37.11	-28.1	-28.7	28.8	0.00e+00	0	29	0	3097493504	30	5504
2026-01-11 17:09:27.32	212.66	36.15	-28.2	-28.7	28.8	0.00e+00	0	29	0	3120562176	30	5564
2026-01-11 17:09:31.35	212.48	35.22	-28.6	-29.1	28.6	0.00e+00	0	29	0	3142582272	30	5803
2026-01-11 17:09:35.39	212.31	34.32	-28.9	-29.4	28.4	0.00e+00	0	29	0	3165650944	30	6021
2026-01-11 17:09:39.43	212.14	33.44	-28.7	-29.2	28.4	0.00e+00	0	29	0	3188719616	30	5873
2026-01-11 17:09:43.46	211.99	32.59	-28.9	-29.4	28.4	0.00e+00	0	29	0	3210739712	30	6029
2026-01-11 17:09:47.50	211.84	31.76	-28.8	-29.3	28.4	0.00e+00	0	29	0	3233808384	30	5959
2026-01-11 17:09:51.54	211.71	30.95	-29.0	-29.5	28.3	0.00e+00	0	29	0	3255828480	30	6065
2026-01-11 17:09:55.58	211.58	30.16	-28.9	-29.4	28.4	0.00e+00	0	29	0	3278897152	30	5997
2026-01-11 17:09:59.62	211.45	29.40	-28.7	-29.2	28.5	0.00e+00	0	29	0	3301965824	30	5893
2026-01-11 17:10:03.65	211.34	28.65	-28.7	-29.2	28.4	0.00e+00	0	29	0	3325034496	30	5883
2026-01-11 17:10:07.69	211.22	27.93	-29.0	-29.6	28.1	0.00e+00	0	29	0	3347054592	30	6112
2026-01-11 17:10:11.73	211.12	27.22	-29.1	-29.7	28.1	0.00e+00	0	29	0	3370123264	30	6197
2026-01-11 17:10:15.77	211.02	26.53	-29.1	-29.8	28.2	0.00e+00	0	29	0	3392143360	30	6251
2026-01-11 17:10:19.81	210.92	25.85	-29.0	-29.7	28.2	0.00e+00	0	29	0	3415212032	30	6187
2026-01-11 17:10:23.85	210.83	25.20	-29.0	-29.5	28.2	0.00e+00	0	29	0	3438280704	30	6092
2026-01-11 17:10:27.88	210.74	24.56	-29.2	-29.7	28.0	0.00e+00	0	29	0	3460300800	30	6208
2026-01-11 17:10:31.92	210.66	23.93	-29.2	-29.8	28.0	0.00e+00	0	29	0	3483369472	30	6261
2026-01-11 17:10:35.96	210.58	23.32	-29.3	-29.8	28.0	0.00e+00	0	29	0	3506438144	30	6316
2026-01-11 17:10:40.00	210.50	22.72	-29.5	-30.0	27.8	0.00e+00	0	29	0	3529506816	30	6433
2026-01-11 17:10:44.04	210.43	22.14	-29.6	-30.3	27.8	0.00e+00	0	29	0	3551526912	30	6626
2026-01-11 17:10:48.07	210.36	21.57	-29.7	-30.4	27.7	0.00e+00	0	29	0	3574595584	32	5986
2026-01-11 17:10:52.11	210.29	21.01	-29.7	-30.2	27.7	0.00e+00	0	29	0	3596615680	32	5868
2026-01-11 17:10:56.15	210.23	20.47	-29.8	-30.3	27.6	0.00e+00	0	29	0	3619684352	32	5927
2026-01-11 17:11:00.17	210.17	19.93	-30.0	-30.7	27.4	0.00e+00	0	29	0	3642753024	32	6217
2026-01-11 17:11:04.20	210.11	19.41	-30.1	-30.7	27.2	0.00e+00	0	29	0	3664773120	32	6179
2026-01-11 17:11:08.24	210.05	18.90	-30.2	-30.8	27.3	0.00e+00	0	29	0	3687841792	32	6250
2026-01-11 17:11:12.29	210.00	18.40	-30.4	-31.0	27.0	0.00e+00	0	29	0	3710910464	32	6415
2026-01-11 17:11:16.32	209.95	17.91	-30.5	-31.1	27.0	0.00e+00	0	29	0	3732930560	32	6466
2026-01-11 17:11:20.36	209.90	17.42	-30.7	-31.3	26.8	0.00e+00	0	29	0	3755999232	32	6619
2026-01-11 17:11:24.40	209.85	16.95	-30.8	-31.4	26.7	0.00e+00	0	29	0	3779067904	34	6006
2026-01-11 17:11:28.44	209.81	16.49	-31.1	-31.9	26.3	0.00e+00	0	29	0	3801088000	34	6331
2026-01-11 17:11:32.48	209.76	16.03	-31.3	-31.9	26.3	0.00e+00	0	29	0	3824156672	34	6328
2026-01-11 17:11:36.52	209.72	15.58	-31.3	-31.9	26.3	0.00e+00	0	29	0	3847225344	34	6332
2026-01-11 17:11:40.56	209.68	15.14	-31.5	-32.1	26.1	0.00e+00	0	29	0	3869245440	34	6492
2026-01-11 17:11:44.60	209.64	14.71	-31.5	-32.1	26.1	0.00e+00	0	29	0	3892314112	34	6491
2026-01-11 17:11:48.64	209.60	14.29	-31.6	-32.4	26.0	0.00e+00	0	29	0	3915382784	34	6701
2026-01-11 17:11:52.67	209.56	13.87	-31.6	-32.2	25.9	0.00e+00	0	29	0	3937402880	34	6563
2026-01-11 17:11:56.71	209.53	13.46	-31.7	-32.3	25.9	0.00e+00	0	29	0	3960471552	36	5927
2026-01-11 17:12:00.74	209.50	13.06	-31.8	-32.4	25.8	0.00e+00	0	28	0	3982491648	36	5989
2026-01-11 17:12:04.78	209.46	12.66	-31.8	-32.4	25.8	0.00e+00	0	29	0	4005560320	36	6000
2026-01-11 17:12:08.82	209.43	12.27	-32.1	-32.7	25.5	0.00e+00	0	28	0	4028628992	36	6179
2026-01-11 17:12:12.86	209.40	11.89	-32.1	-32.7	25.5	0.00e+00	0	28	0	4051697664	36	6206
2026-01-11 17:12:16.89	209.37	11.51	-32.2	-32.7	25.4	0.00e+00	0	28	0	4073717760	36	6240
2026-01-11 17:12:20.93	209.34	11.14	-32.2	-32.8	25.4	0.00e+00	0	28	0	4096786432	36	6266
2026-01-11 17:12:24.97	209.32	10.78	-32.2	-32.8	25.4	0.00e+00	0	29	0	4119855104	36	6266
2026-01-11 17:12:29.01	209.29	10.41	-32.4	-33.0	25.1	0.00e+00	0	29	0	4141875200	36	6439
2026-01-11 17:12:33.04	209.27	10.06	-32.6	-33.2	25.0	0.00e+00	0	29	0	4164943872	36	6553
2026-01-11 17:12:37.08	209.24	9.71	-32.7	-33.5	24.9	0.00e+00	0	28	0	4186963968	38	6048
2026-01-11 17:12:41.12	209.22	9.36	-32.8	-33.4	24.7	0.00e+00	0	28	0	4210032640	38	6007
2026-01-11 17:12:45.16	209.20	9.02	-32.8	-33.4	24.8	0.00e+00	0	28	0	4233101312	38	6020
2026-01-11 17:12:49.20	209.17	8.68	-33.0	-33.6	24.6	0.00e+00	0	28	0	4255121408	38	6112
2026-01-11 17:12:53.24	209.15	8.35	-33.0	-33.6	24.5	0.00e+00	0	28	0	4278190080	38	6165
2026-01-11 17:12:57.27	209.13	8.02	-33.2	-33.8	24.3	0.00e+00	0	28	0	4301258752	38	6287
2026-01-11 17:13:01.30	209.11	7.70	-33.3	-33.9	24.1	0.00e+00	0	28	0	4324327424	38	6390
2026-01-11 17:13:05.34	209.09	7.38	-33.3	-34.0	24.1	0.00e+00	0	28	0	4346347520	38	6399
2026-01-11 17:13:09.38	209.08	7.07	-33.6	-34.3	23.9	0.00e+00	0	28	0	4369416192	38	6617
2026-01-11 17:13:13.42	209.06	6.75	-33.7	-34.4	23.7	0.00e+00	0	28	0	4391436288	40	5967
2026-01-11 17:13:17.46	209.04	6.45	-33.6	-34.3	23.8	0.00e+00	0	28	0	4414504960	40	5906
2026-01-11 17:13:21.49	209.03	6.14	-33.9	-34.6	23.4	0.00e+00	0	28	0	4437573632	40	6145
2026-01-11 17:13:25.53	209.01	5.84	-33.9	-34.6	23.4	0.00e+00	0	28	0	4459593728	40	6107
2026-01-11 17:13:29.57	209.00	5.54	-34.3	-35.1	23.0	0.00e+00	0	28	0	4482662400	40	6525
2026-01-11 17:13:33.60	208.98	5.25	-34.1	-34.8	23.1	0.00e+00	0	28	0	4505731072	40	6285
2026-01-11 17:13:37.64	208.97	4.96	-34.2	-34.9	23.0	0.00e+00	0	28	0	4527751168	40	6326
2026-01-11 17:13:41.68	208.95	4.67	-34.6	-35.5	22.4	0.00e+00	0	28	0	4550819840	40	6806
2026-01-11 17:13:45.72	208.94	4.39	-34.5	-35.4	22.6	0.00e+00	0	28	0	4573888512	42	5984
2026-01-11 17:13:49.76	208.93	4.11	-35.1	-35.9	21.9	0.00e+00	0	28	0	4595908608	42	6377
2026-01-11 17:13:53.80	208.92	3.83	-35.2	-35.9	21.7	0.00e+00	0	28	0	4618977280	42	6374
2026-01-11 17:13:57.84	208.90	3.55	-35.0	-35.8	21.8	0.00e+00	0	28	0	4642045952	42	6256
2026-01-11 17:14:01.87	208.89	3.28	-35.6	-36.5	21.1	0.00e+00	0	28	0	4664066048	44	6041
2026-01-11 17:14:05.90	208.88	3.01	-35.4	-36.2	21.3	0.00e+00	0	28	0	4687134720	44	5877
2026-01-11 17:14:09.94	208.87	2.74	-47.5	-60.1	3.6	8.46e-01	0	28	104	4690280448	60	36409
2026-01-11 17:14:13.97	208.86	2.47	-48.1	-60.3	3.6	8.46e-01	0	28	104	4690280448	60	37274
2026-01-11 17:14:18.01	208.85	2.21	-47.9	-60.1	3.6	8.46e-01	0	28	104	4690280448	60	36754
2026-01-11 17:14:22.05	208.84	1.95	-47.9	-60.0	3.6	8.46e-01	0	28	104	4690280448	60	36338
2026-01-11 17:14:26.09	208.84	1.69	-48.1	-60.2	3.6	8.45e-01	0	28	104	4690280448	60	37040
2026-01-11 17:14:30.13	208.83	1.44	-48.1	-60.1	3.6	8.46e-01	0	28	104	4690280448	60	36731
2026-01-11 17:14:34.17	208.82	1.18	-48.0	-60.1	3.6	8.46e-01	0	28	104	4690280448	60	36550
2026-01-11 17:14:38.21	208.81	0.93	-48.0	-60.1	3.6	8.45e-01	0	28	104	4690280448	60	36657
2026-01-11 17:14:42.24	208.80	0.68	-48.2	-60.3	3.6	8.44e-01	0	28	104	4690280448	60	37329
2026-01-11 17:14:46.28	208.80	0.44	-48.2	-60.3	3.6	8.47e-01	0	28	104	4690280448	60	37491
2026-01-11 17:14:50.32	208.79	0.19	-48.0	-60.1	3.6	8.46e-01	0	28	104	4690280448	60	36498
2026-01-11 17:14:54.35	208.78	-0.05	-48.0	-60.1	3.6	8.45e-01	0	28	104	4690280448	60	36394

#Closed at: 2026-01-11 17:14:56
#Recorded file [4690 MB]: D:/lorett/data/35029_260112_045925.dat