passes_logs/2026/01/25/R3.2S_Murmansk/R3.2S_Murmansk__20260125_212622_KANOPUS-V_5_rec.log

#Pass ID: 20260125_212622_KANOPUS-V 5
#Satellite: KANOPUS-V 5
#Configuration: KANOPUS-V_8320
#almurnet v.1.7.20251203
#Start time: 2026-01-25 21:26:22

#Version: 2.2.20231116
#Station: R3.2S_Murmansk
#Location: 33.079688 lon 68.888172 lat
#TLE: 1 43876U 18111A   26025.54826615  .00005329  00000+0  22598-3 0  9999
#TLE: 2 43876  97.3674 293.8720 0001834  89.1965 270.9482 15.23539467393070

#Time	Az	El	Level	Level2	SNR	BER	BlckErr	Temp	State	Recorded	gain1	gain2
2026-01-25 21:26:22.02	21.10	1.95	-53.7	-62.5	3.8	7.45e-01	0	42	0	0	79	9704
2026-01-25 21:26:25.04	21.24	2.16	-53.0	-61.9	3.8	7.46e-01	0	42	104	0	77	10060
2026-01-25 21:26:28.06	21.38	2.37	-53.0	-61.9	3.8	7.45e-01	0	42	104	0	77	10063
2026-01-25 21:26:31.08	21.52	2.57	-53.0	-61.8	3.8	7.46e-01	0	42	104	0	77	10054
2026-01-25 21:26:34.10	21.66	2.79	-53.0	-61.8	3.8	7.46e-01	0	42	104	0	77	10007
2026-01-25 21:26:37.12	21.80	3.00	-53.0	-61.8	3.8	7.44e-01	0	42	104	0	77	10042
2026-01-25 21:26:40.14	21.95	3.21	-53.0	-61.8	3.8	7.44e-01	0	42	104	0	77	10010
2026-01-25 21:26:43.15	22.10	3.43	-53.0	-61.8	3.8	7.44e-01	0	43	104	0	77	10015
2026-01-25 21:26:46.17	22.25	3.65	-53.0	-61.8	3.8	7.46e-01	0	43	104	0	77	10029
2026-01-25 21:26:49.19	22.40	3.87	-53.0	-61.8	3.8	7.46e-01	0	43	104	0	77	9989
2026-01-25 21:26:52.22	22.56	4.09	-53.0	-61.8	3.8	7.44e-01	0	43	104	0	77	10009
2026-01-25 21:26:55.22	22.72	4.32	-53.0	-61.8	3.8	7.45e-01	0	43	104	0	77	10023
2026-01-25 21:26:58.24	22.88	4.55	-53.0	-61.8	3.8	7.46e-01	0	43	104	0	77	10019
2026-01-25 21:27:01.27	23.05	4.78	-53.0	-61.8	3.8	7.45e-01	0	43	104	0	77	10013
2026-01-25 21:27:04.28	23.22	5.01	-53.0	-61.8	3.8	7.45e-01	0	43	104	0	77	9971
2026-01-25 21:27:07.30	23.39	5.25	-52.9	-61.8	3.8	7.45e-01	0	43	104	0	77	9976
2026-01-25 21:27:10.33	23.57	5.49	-53.0	-61.8	3.8	7.46e-01	0	43	104	0	77	9990
2026-01-25 21:27:13.34	23.75	5.73	-53.1	-61.9	3.8	7.43e-01	0	43	104	0	77	10155
2026-01-25 21:27:16.36	23.93	5.97	-53.2	-62.0	3.8	7.45e-01	0	43	104	0	77	10225
2026-01-25 21:27:19.38	24.12	6.22	-53.1	-61.9	3.8	7.45e-01	0	43	104	0	77	10134
2026-01-25 21:27:22.40	24.31	6.47	-53.1	-61.9	3.8	7.46e-01	0	43	104	0	77	10141
2026-01-25 21:27:25.41	24.50	6.72	-53.2	-62.0	3.8	7.45e-01	0	43	104	0	77	10271
2026-01-25 21:27:28.44	24.70	6.98	-53.3	-62.1	3.8	7.45e-01	0	43	104	0	77	10320
2026-01-25 21:27:31.45	24.90	7.24	-53.2	-62.1	3.8	7.46e-01	0	44	104	0	77	10296
2026-01-25 21:27:34.48	25.11	7.50	-53.2	-62.0	3.8	7.46e-01	0	43	104	0	77	10259
2026-01-25 21:27:37.50	25.32	7.77	-53.3	-62.1	3.8	7.46e-01	0	44	104	0	77	10374
2026-01-25 21:27:40.53	25.53	8.04	-53.3	-62.2	3.8	7.45e-01	0	43	104	0	77	10458
2026-01-25 21:27:43.55	25.75	8.31	-53.3	-62.1	3.8	7.44e-01	0	43	104	0	77	10389
2026-01-25 21:27:46.57	25.98	8.59	-53.3	-62.1	3.8	7.44e-01	0	44	104	0	77	10367
2026-01-25 21:27:49.60	26.21	8.87	-53.4	-62.2	3.8	7.46e-01	0	44	104	0	77	10473
2026-01-25 21:27:52.61	26.45	9.16	-53.4	-62.2	3.8	7.46e-01	0	44	104	0	77	10525
2026-01-25 21:27:55.64	26.69	9.45	-53.4	-62.3	3.8	7.44e-01	0	44	104	0	77	10554
2026-01-25 21:27:58.65	26.93	9.74	-53.4	-62.2	3.8	7.45e-01	0	44	104	0	77	10529
2026-01-25 21:28:01.67	27.19	10.04	-53.5	-62.3	3.8	7.44e-01	0	44	104	0	77	10579
2026-01-25 21:28:04.69	27.45	10.34	-53.5	-62.3	3.8	7.45e-01	0	44	104	0	77	10627
2026-01-25 21:28:07.71	27.71	10.65	-53.5	-62.3	3.8	7.46e-01	0	44	104	0	77	10638
2026-01-25 21:28:10.74	27.98	10.96	-53.5	-62.3	3.8	7.44e-01	0	44	104	0	77	10588
2026-01-25 21:28:13.75	28.26	11.28	-53.5	-62.3	3.8	7.44e-01	0	44	104	0	77	10630
2026-01-25 21:28:16.77	28.55	11.60	-53.6	-62.4	3.8	7.44e-01	0	44	104	0	77	10715
2026-01-25 21:28:19.79	28.84	11.93	-53.6	-62.4	3.8	7.46e-01	0	44	104	0	77	10771
2026-01-25 21:28:22.80	29.14	12.26	-53.6	-62.4	3.8	7.46e-01	0	44	104	0	77	10682
2026-01-25 21:28:25.83	29.45	12.60	-53.6	-62.4	3.8	7.46e-01	0	44	104	0	77	10737
2026-01-25 21:28:28.85	29.77	12.94	-53.7	-62.5	3.8	7.45e-01	0	44	104	0	77	10853
2026-01-25 21:28:31.86	30.10	13.29	-53.7	-62.5	3.8	7.46e-01	0	44	104	0	77	10848
2026-01-25 21:28:34.88	30.43	13.65	-53.6	-62.5	3.8	7.46e-01	0	44	104	0	77	10804
2026-01-25 21:28:37.91	30.78	14.01	-53.7	-62.5	3.8	7.44e-01	0	44	104	0	78	10253
2026-01-25 21:28:40.92	31.13	14.38	-53.8	-62.6	3.8	7.45e-01	0	44	104	0	78	10338
2026-01-25 21:28:43.94	31.50	14.75	-53.8	-62.6	3.8	7.43e-01	0	44	104	0	78	10363
2026-01-25 21:28:46.96	31.87	15.13	-53.7	-62.5	3.8	7.46e-01	0	44	104	0	78	10293
2026-01-25 21:28:49.98	32.26	15.52	-53.8	-62.6	3.8	7.46e-01	0	44	104	0	78	10344
2026-01-25 21:28:53.00	32.66	15.92	-53.8	-62.6	3.8	7.46e-01	0	44	104	0	78	10382
2026-01-25 21:28:56.00	33.07	16.32	-53.8	-62.6	3.8	7.44e-01	0	44	104	0	78	10390
2026-01-25 21:28:59.02	33.49	16.73	-53.8	-62.6	3.8	7.45e-01	0	44	104	0	78	10372
2026-01-25 21:29:02.04	33.93	17.15	-53.8	-62.6	3.8	7.46e-01	0	44	104	0	78	10409
2026-01-25 21:29:05.06	34.38	17.58	-53.9	-62.7	3.8	7.45e-01	0	44	104	0	78	10445
2026-01-25 21:29:08.08	34.85	18.01	-53.9	-62.7	3.8	7.44e-01	0	44	104	0	78	10503
2026-01-25 21:29:11.10	35.33	18.45	-53.8	-62.7	3.8	7.46e-01	0	44	104	0	78	10459
2026-01-25 21:29:14.12	35.83	18.91	-53.9	-62.7	3.8	7.47e-01	0	44	104	0	78	10453
2026-01-25 21:29:17.14	36.35	19.37	-53.9	-62.7	3.8	7.44e-01	0	44	104	0	78	10531
2026-01-25 21:29:20.16	36.88	19.84	-54.0	-62.8	3.8	7.47e-01	0	44	104	0	78	10541
2026-01-25 21:29:23.18	37.43	20.31	-53.9	-62.7	3.8	7.47e-01	0	44	104	0	78	10521
2026-01-25 21:29:26.20	38.01	20.80	-53.9	-62.7	3.8	7.46e-01	0	44	104	0	78	10528
2026-01-25 21:29:29.22	38.60	21.30	-54.0	-62.8	3.8	7.43e-01	0	44	104	0	78	10578
2026-01-25 21:29:32.24	39.21	21.81	-54.0	-62.8	3.8	7.45e-01	0	44	104	0	78	10589
2026-01-25 21:29:35.26	39.85	22.33	-53.9	-62.8	3.8	7.44e-01	0	44	104	0	78	10586
2026-01-25 21:29:38.29	40.52	22.86	-54.0	-62.8	3.8	7.47e-01	0	44	104	0	78	10590
2026-01-25 21:29:41.31	41.20	23.39	-54.0	-62.9	3.8	7.46e-01	0	44	104	0	78	10661
2026-01-25 21:29:44.32	41.91	23.94	-54.0	-62.9	3.8	7.44e-01	0	44	104	0	78	10690
2026-01-25 21:29:47.34	42.66	24.50	-54.0	-62.9	3.8	7.46e-01	0	44	104	0	78	10667
2026-01-25 21:29:50.36	43.43	25.07	-54.0	-62.8	3.8	7.45e-01	0	44	104	0	78	10631
2026-01-25 21:29:53.36	44.23	25.64	-39.5	-40.9	18.9	6.09e-01	0	44	0	6291456	50	4279
2026-01-25 21:29:56.37	45.06	26.23	-39.8	-41.4	18.8	6.08e-01	0	44	0	52428800	51	4243
2026-01-25 21:29:59.38	45.93	26.83	-39.6	-41.3	18.8	6.08e-01	0	44	0	98566144	51	4199
2026-01-25 21:30:02.40	46.84	27.43	-39.4	-40.9	19.1	6.08e-01	0	44	0	144703488	50	4270
2026-01-25 21:30:05.42	47.78	28.05	-39.5	-41.0	19.0	6.09e-01	0	44	0	190840832	50	4337
2026-01-25 21:30:08.43	48.77	28.67	-39.9	-41.4	18.8	6.09e-01	0	44	0	239075328	50	4497
2026-01-25 21:30:11.45	49.79	29.31	-39.9	-41.3	18.8	6.09e-01	0	44	0	285212672	50	4490
2026-01-25 21:30:14.47	50.87	29.95	-40.2	-41.9	18.5	5.89e-01	0	44	0	331350016	50	4808
2026-01-25 21:30:17.48	51.99	30.60	-40.1	-41.8	18.6	5.89e-01	0	44	0	377487360	50	4755
2026-01-25 21:30:20.50	53.16	31.25	-40.2	-41.8	18.7	5.89e-01	0	44	0	423624704	51	4450
2026-01-25 21:30:23.52	54.38	31.91	-40.3	-41.9	18.6	5.90e-01	0	44	0	469762048	51	4523
2026-01-25 21:30:26.53	55.65	32.58	-40.1	-41.8	18.7	5.89e-01	0	44	0	517996544	51	4453
2026-01-25 21:30:29.55	56.98	33.24	-40.0	-41.7	18.8	5.89e-01	0	44	0	564133888	51	4428
2026-01-25 21:30:32.58	58.38	33.91	-40.3	-42.1	18.6	5.89e-01	0	44	0	610271232	51	4600
2026-01-25 21:30:35.60	59.83	34.57	-40.2	-41.8	18.7	5.89e-01	0	44	0	656408576	51	4475
2026-01-25 21:30:38.62	61.35	35.24	-39.5	-41.4	18.9	5.89e-01	0	44	0	702545920	50	4532
2026-01-25 21:30:41.64	62.94	35.89	-39.6	-41.5	18.8	6.06e-01	0	44	0	748683264	50	4560
2026-01-25 21:30:44.65	64.58	36.53	-39.3	-41.4	18.9	6.02e-01	0	44	0	794820608	50	4521
2026-01-25 21:30:47.67	66.30	37.17	-38.8	-40.8	19.2	6.05e-01	0	44	0	840957952	49	4476
2026-01-25 21:30:50.68	68.09	37.79	-38.7	-40.9	19.2	6.06e-01	0	44	0	887095296	49	4508
2026-01-25 21:30:53.70	69.95	38.39	-38.0	-40.5	19.4	6.04e-01	0	44	0	933232640	48	4564
2026-01-25 21:30:56.72	71.89	38.97	-38.3	-40.5	19.3	6.04e-01	0	44	0	979369984	48	4592
2026-01-25 21:30:59.74	73.90	39.53	-38.0	-40.0	19.7	6.03e-01	0	44	0	1027604480	48	4327
2026-01-25 21:31:02.76	75.98	40.05	-36.7	-38.8	19.4	6.00e-01	0	44	0	1073741824	45	4448
2026-01-25 21:31:05.79	78.14	40.55	-36.9	-39.1	19.3	6.04e-01	0	44	0	1119879168	45	4617
2026-01-25 21:31:08.79	80.34	41.00	-36.7	-38.7	19.5	6.05e-01	0	44	0	1166016512	45	4425
2026-01-25 21:31:11.82	82.62	41.42	-36.5	-38.7	19.5	6.04e-01	0	44	0	1212153856	44	4680
2026-01-25 21:31:14.85	84.97	41.79	-36.6	-38.8	19.4	6.03e-01	0	44	0	1258291200	44	4715
2026-01-25 21:31:17.87	87.36	42.12	-36.4	-38.6	19.5	6.06e-01	0	44	0	1304428544	44	4600
2026-01-25 21:31:20.89	89.80	42.39	-36.1	-38.1	19.8	6.02e-01	0	44	0	1350565888	44	4384
2026-01-25 21:31:23.91	92.27	42.60	-36.1	-38.3	19.7	6.03e-01	0	44	0	1396703232	44	4484
2026-01-25 21:31:26.93	94.78	42.77	-36.3	-38.4	19.7	6.05e-01	0	44	0	1444937728	44	4537
2026-01-25 21:31:29.94	97.30	42.87	-36.1	-38.1	19.8	6.02e-01	0	44	0	1491075072	44	4383
2026-01-25 21:31:32.95	99.83	42.91	-36.1	-38.1	19.8	6.04e-01	0	44	0	1537212416	44	4358
2026-01-25 21:31:35.96	102.37	42.89	-36.3	-38.4	19.7	6.05e-01	0	44	0	1583349760	44	4514
2026-01-25 21:31:38.98	104.91	42.82	-36.2	-38.1	19.8	6.04e-01	0	44	0	1629487104	44	4382
2026-01-25 21:31:42.00	107.42	42.68	-36.3	-38.3	19.8	6.04e-01	0	44	0	1675624448	44	4487
2026-01-25 21:31:45.02	109.92	42.49	-36.2	-38.2	19.8	6.06e-01	0	45	0	1721761792	44	4429
2026-01-25 21:31:48.05	112.38	42.24	-36.5	-38.5	19.6	6.05e-01	0	45	0	1769996288	44	4575
2026-01-25 21:31:51.07	114.80	41.94	-36.2	-38.3	19.7	6.06e-01	0	45	0	1816133632	44	4475
2026-01-25 21:31:54.09	117.16	41.59	-36.3	-38.2	19.8	6.06e-01	0	45	0	1862270976	44	4440
2026-01-25 21:31:57.09	119.46	41.19	-36.3	-38.3	19.8	6.07e-01	0	45	0	1906311168	44	4444
2026-01-25 21:32:00.11	121.71	40.75	-36.6	-38.4	19.6	6.05e-01	0	45	0	1952448512	44	4510
2026-01-25 21:32:03.12	123.88	40.28	-36.5	-38.3	19.7	6.03e-01	0	45	0	1998585856	44	4480
2026-01-25 21:32:06.14	126.00	39.76	-36.7	-38.6	19.5	6.04e-01	0	45	0	2046820352	44	4620
2026-01-25 21:32:09.16	128.05	39.22	-37.0	-39.0	19.2	6.06e-01	0	45	0	2092957696	44	4852
2026-01-25 21:32:12.17	130.01	38.65	-37.2	-39.1	19.2	6.05e-01	0	45	0	2139095040	45	4633
2026-01-25 21:32:15.20	131.92	38.05	-37.1	-39.0	19.3	6.06e-01	0	45	0	2185232384	45	4570
2026-01-25 21:32:18.22	133.75	37.44	-37.6	-39.6	19.0	6.05e-01	0	45	0	2231369728	45	4873
2026-01-25 21:32:21.24	135.51	36.81	-37.9	-39.8	18.8	6.05e-01	0	45	0	2279604224	46	4732
2026-01-25 21:32:24.26	137.19	36.16	-38.1	-40.0	18.7	6.05e-01	0	45	0	2325741568	46	4817
2026-01-25 21:32:27.29	138.82	35.50	-38.1	-40.0	18.7	6.05e-01	0	45	0	2371878912	47	4563
2026-01-25 21:32:30.30	140.36	34.84	-38.1	-39.9	18.7	6.04e-01	0	45	0	2418016256	47	4523
2026-01-25 21:32:33.31	141.84	34.18	-38.3	-40.1	18.6	6.05e-01	0	45	0	2464153600	47	4642
2026-01-25 21:32:36.33	143.27	33.51	-38.3	-40.1	18.6	6.04e-01	0	45	0	2510290944	47	4600
2026-01-25 21:32:39.33	144.62	32.85	-38.6	-40.4	18.4	5.98e-01	0	45	0	2556428288	47	4760
2026-01-25 21:32:42.35	145.93	32.18	-39.7	-41.5	18.8	5.98e-01	0	45	0	2602565632	50	4570
2026-01-25 21:32:45.38	147.18	31.51	-39.9	-41.9	18.6	5.98e-01	0	45	0	2648702976	50	4777
2026-01-25 21:32:48.39	148.37	30.85	-40.0	-42.0	18.5	5.99e-01	0	45	0	2694840320	50	4821
2026-01-25 21:32:51.41	149.52	30.20	-40.0	-41.9	18.5	6.03e-01	0	45	0	2740977664	50	4772
2026-01-25 21:32:54.43	150.62	29.55	-39.8	-41.7	18.6	6.01e-01	0	45	0	2789212160	50	4663
2026-01-25 21:32:57.45	151.67	28.91	-39.8	-41.6	18.7	6.05e-01	0	45	0	2835349504	50	4615
2026-01-25 21:33:00.46	152.67	28.28	-39.9	-41.7	18.6	6.03e-01	0	45	0	2881486848	50	4691
2026-01-25 21:33:03.49	153.64	27.65	-39.8	-41.7	18.5	6.03e-01	0	45	0	2927624192	50	4671
2026-01-25 21:33:06.51	154.57	27.04	-39.6	-41.4	18.7	5.97e-01	0	45	0	2973761536	50	4540
2026-01-25 21:33:09.52	155.45	26.43	-39.6	-41.6	18.7	5.96e-01	0	45	0	3019898880	50	4599
2026-01-25 21:33:12.53	156.30	25.84	-39.6	-41.6	18.6	5.95e-01	0	45	0	3066036224	50	4632
2026-01-25 21:33:15.55	157.12	25.25	-39.6	-41.5	18.7	5.98e-01	0	45	0	3112173568	50	4586
2026-01-25 21:33:18.57	157.91	24.68	-39.5	-41.4	18.7	5.95e-01	0	45	0	3158310912	50	4502
2026-01-25 21:33:21.60	158.67	24.11	-39.5	-41.4	18.7	6.00e-01	0	45	0	3204448256	50	4520
2026-01-25 21:33:24.62	159.40	23.55	-39.6	-41.5	18.7	6.00e-01	0	45	0	3250585600	50	4562
2026-01-25 21:33:27.64	160.10	23.01	-39.6	-41.5	18.7	5.97e-01	0	45	0	3298820096	50	4553
2026-01-25 21:33:30.66	160.77	22.47	-39.5	-41.4	18.7	5.98e-01	0	45	0	3344957440	50	4501
2026-01-25 21:33:33.68	161.42	21.95	-39.6	-41.5	18.6	5.98e-01	0	45	0	3391094784	50	4579
2026-01-25 21:33:36.70	162.05	21.44	-39.7	-41.6	18.6	5.97e-01	0	45	0	3437232128	50	4646
2026-01-25 21:33:39.71	162.65	20.93	-39.7	-41.6	18.5	5.99e-01	0	45	0	3483369472	50	4623
2026-01-25 21:33:42.73	163.23	20.44	-39.6	-41.5	18.6	5.99e-01	0	45	0	3531603968	50	4591
2026-01-25 21:33:45.74	163.79	19.95	-39.8	-41.7	18.5	5.98e-01	0	45	0	3577741312	50	4695
2026-01-25 21:33:48.76	164.33	19.48	-39.9	-41.8	18.3	6.00e-01	0	45	0	3623878656	50	4745
2026-01-25 21:33:51.77	164.85	19.01	-40.1	-41.9	18.2	5.99e-01	0	45	0	3670016000	50	4809
2026-01-25 21:33:54.79	165.36	18.56	-40.1	-42.1	18.2	5.99e-01	0	45	0	3716153344	50	4877
2026-01-25 21:33:57.81	165.85	18.11	-40.3	-42.3	18.0	6.04e-01	0	45	0	3760193536	51	4728
2026-01-25 21:34:00.83	166.32	17.67	-40.5	-42.6	17.8	5.98e-01	0	45	0	3808428032	51	4883
2026-01-25 21:34:03.85	166.78	17.23	-40.6	-42.7	17.7	6.03e-01	0	45	0	3854565376	51	4959
2026-01-25 21:34:06.87	167.23	16.81	-40.7	-42.8	17.5	5.98e-01	0	45	0	3900702720	52	4755
2026-01-25 21:34:09.90	167.66	16.39	-40.8	-42.9	17.5	5.97e-01	0	45	0	3946840064	52	4800
2026-01-25 21:34:12.92	168.07	15.98	-40.9	-42.9	17.4	6.01e-01	0	45	0	3992977408	52	4795
2026-01-25 21:34:15.94	168.48	15.58	-41.1	-43.1	17.3	6.04e-01	0	45	0	4041211904	52	4906
2026-01-25 21:34:18.97	168.87	15.19	-41.3	-43.3	17.2	5.99e-01	0	45	0	4087349248	53	4755
2026-01-25 21:34:21.99	169.25	14.80	-41.4	-43.5	17.0	6.00e-01	0	45	0	4133486592	53	4825
2026-01-25 21:34:25.01	169.62	14.42	-41.5	-43.6	16.9	6.04e-01	0	45	0	4179623936	53	4914
2026-01-25 21:34:28.03	169.98	14.05	-41.7	-43.9	16.7	6.06e-01	0	45	0	4225761280	54	4782
2026-01-25 21:34:31.05	170.33	13.69	-41.8	-44.0	16.6	6.03e-01	0	45	0	4271898624	54	4861
2026-01-25 21:34:34.07	170.67	13.33	-42.1	-44.4	16.3	6.03e-01	0	45	0	4318035968	54	5042
2026-01-25 21:34:37.09	171.00	12.97	-42.0	-44.2	16.4	5.98e-01	0	45	0	4364173312	54	4979
2026-01-25 21:34:40.12	171.32	12.62	-42.1	-44.3	16.3	6.01e-01	0	45	0	4410310656	54	5038
2026-01-25 21:34:43.14	171.63	12.28	-42.3	-44.5	16.2	6.06e-01	0	45	0	4458545152	55	4817
2026-01-25 21:34:46.15	171.94	11.95	-42.4	-44.6	16.1	6.03e-01	0	45	0	4504682496	55	4885
2026-01-25 21:34:49.18	172.23	11.61	-42.5	-44.6	16.0	6.02e-01	0	45	0	4550819840	55	4910
2026-01-25 21:34:52.20	172.52	11.29	-42.5	-44.7	16.0	6.01e-01	0	45	0	4596957184	55	4952
2026-01-25 21:34:55.22	172.80	10.97	-42.5	-44.6	15.9	6.02e-01	0	45	0	4643094528	56	4624
2026-01-25 21:34:58.25	173.08	10.65	-42.7	-44.8	15.7	6.06e-01	0	45	0	4691329024	56	4748
2026-01-25 21:35:01.27	173.34	10.34	-43.0	-45.1	15.4	6.04e-01	0	45	0	4737466368	56	4893
2026-01-25 21:35:04.29	173.60	10.04	-43.1	-45.3	15.3	6.03e-01	0	45	0	4783603712	56	4991
2026-01-25 21:35:07.32	173.86	9.73	-43.2	-45.4	15.2	6.07e-01	0	45	0	4829741056	57	4776
2026-01-25 21:35:10.33	174.11	9.44	-43.4	-45.6	15.0	6.02e-01	0	45	0	4875878400	57	4872
2026-01-25 21:35:13.35	174.35	9.15	-43.5	-45.7	14.8	6.07e-01	0	45	0	4922015744	57	4957
2026-01-25 21:35:16.37	174.59	8.86	-43.7	-45.9	14.7	6.07e-01	0	45	0	4968153088	57	5092
2026-01-25 21:35:19.39	174.82	8.57	-43.7	-45.9	14.7	6.07e-01	0	45	0	5014290432	58	4770
2026-01-25 21:35:22.41	175.05	8.29	-43.9	-46.2	14.4	6.07e-01	0	45	0	5060427776	58	4944
2026-01-25 21:35:25.43	175.27	8.02	-43.8	-46.0	14.5	6.04e-01	0	45	0	5108662272	58	4862
2026-01-25 21:35:28.45	175.48	7.75	-44.3	-46.6	14.0	6.07e-01	0	45	0	5154799616	59	4924
2026-01-25 21:35:31.47	175.69	7.48	-44.1	-46.4	14.1	6.04e-01	0	45	0	5200936960	59	4808
2026-01-25 21:35:34.50	175.90	7.21	-44.1	-46.5	14.1	6.02e-01	0	45	0	5247074304	59	4817
2026-01-25 21:35:37.53	176.11	6.95	-44.3	-46.7	13.8	6.03e-01	0	45	0	5293211648	59	4940
2026-01-25 21:35:40.55	176.30	6.69	-44.6	-47.0	13.5	6.02e-01	0	45	0	5339348992	59	5124
2026-01-25 21:35:43.57	176.50	6.43	-44.5	-46.9	13.6	6.07e-01	0	45	0	5385486336	59	5051
2026-01-25 21:35:46.60	176.69	6.18	-44.6	-47.0	13.5	6.01e-01	0	45	0	5431623680	60	4847
2026-01-25 21:35:49.62	176.88	5.93	-44.6	-47.0	13.4	6.02e-01	0	45	0	5477761024	60	4870
2026-01-25 21:35:52.65	177.06	5.68	-45.1	-47.6	12.9	6.04e-01	0	45	0	5525995520	60	5168
2026-01-25 21:35:55.67	177.24	5.44	-45.3	-47.8	12.6	6.04e-01	0	45	0	5572132864	61	5014
2026-01-25 21:35:58.69	177.41	5.20	-45.0	-47.5	12.9	6.05e-01	0	45	0	5618270208	61	4835
2026-01-25 21:36:01.71	177.59	4.96	-52.4	-59.8	3.9	7.41e-01	0	45	0	5664407552	75	8929
2026-01-25 21:36:04.74	177.76	4.73	-54.0	-62.8	3.8	7.47e-01	0	45	104	5664407552	78	10610
2026-01-25 21:36:07.76	177.92	4.49	-54.3	-63.2	3.8	7.44e-01	0	45	104	5664407552	79	10434
2026-01-25 21:36:10.78	178.08	4.26	-54.6	-63.4	3.8	7.44e-01	0	45	104	5664407552	79	10756
2026-01-25 21:36:13.80	178.24	4.04	-54.7	-63.6	3.8	7.45e-01	0	45	104	5664407552	80	10327
2026-01-25 21:36:16.82	178.40	3.81	-54.9	-63.7	3.8	7.46e-01	0	45	104	5664407552	80	10482
2026-01-25 21:36:19.84	178.55	3.59	-54.9	-63.7	3.8	7.45e-01	0	45	104	5664407552	80	10531
2026-01-25 21:36:22.86	178.71	3.37	-54.9	-63.7	3.8	7.46e-01	0	46	104	5664407552	80	10525
2026-01-25 21:36:25.88	178.85	3.15	-54.9	-63.7	3.8	7.44e-01	0	45	104	5664407552	80	10486
2026-01-25 21:36:28.90	179.00	2.93	-54.8	-63.6	3.8	7.45e-01	0	45	104	5664407552	80	10349
2026-01-25 21:36:31.92	179.14	2.72	-54.6	-63.4	3.8	7.44e-01	0	45	104	5664407552	80	10165
2026-01-25 21:36:34.94	179.29	2.51	-54.4	-63.3	3.8	7.45e-01	0	45	104	5664407552	80	9949
2026-01-25 21:36:37.94	179.42	2.30	-54.0	-62.9	3.8	7.44e-01	0	45	104	5664407552	80	9504
2026-01-25 21:36:40.96	179.56	2.09	-54.0	-62.8	3.8	7.46e-01	0	45	104	5664407552	79	10014
2026-01-25 21:36:43.98	179.69	1.88	-54.0	-62.8	3.8	7.47e-01	0	45	104	5664407552	79	10011

#Closed at: 2026-01-25 21:36:44
#Recorded file [5664 MB]: D:/lorett/data/31041_260126_002621.dat