passes_logs/2026/01/25/R3.2S_Murmansk/R3.2S_Murmansk__20260125_230009_KANOPUS-V_5_rec.log

#Pass ID: 20260125_230009_KANOPUS-V 5
#Satellite: KANOPUS-V 5
#Configuration: KANOPUS-V_8320
#almurnet v.1.7.20251203
#Start time: 2026-01-25 23:00:09

#Version: 2.2.20231116
#Station: R3.2S_Murmansk
#Location: 33.079688 lon 68.888172 lat
#TLE: 1 43876U 18111A   26025.54826615  .00005329  00000+0  22598-3 0  9999
#TLE: 2 43876  97.3674 293.8720 0001834  89.1965 270.9482 15.23539467393070

#Time	Az	El	Level	Level2	SNR	BER	BlckErr	Temp	State	Recorded	gain1	gain2
2026-01-25 23:00:09.10	21.22	1.98	-54.5	-63.3	3.8	7.45e-01	0	42	0	0	80	9971
2026-01-25 23:00:12.11	21.13	2.19	-54.5	-63.3	3.8	7.45e-01	0	42	104	0	80	10040
2026-01-25 23:00:15.13	21.04	2.40	-54.4	-63.2	3.8	7.46e-01	0	42	104	0	80	9936
2026-01-25 23:00:18.15	20.95	2.61	-54.4	-63.3	3.8	7.44e-01	0	42	104	0	80	9973
2026-01-25 23:00:21.17	20.85	2.83	-54.4	-63.3	3.8	7.45e-01	0	42	104	0	80	9946
2026-01-25 23:00:24.20	20.76	3.05	-54.6	-63.5	3.8	7.44e-01	0	42	104	0	80	10221
2026-01-25 23:00:27.22	20.66	3.27	-54.7	-63.5	3.8	7.44e-01	0	42	104	0	80	10293
2026-01-25 23:00:30.24	20.56	3.49	-54.7	-63.5	3.8	7.44e-01	0	42	104	0	80	10255
2026-01-25 23:00:33.27	20.46	3.71	-54.6	-63.5	3.8	7.46e-01	0	43	104	0	80	10198
2026-01-25 23:00:36.29	20.35	3.94	-54.6	-63.4	3.8	7.46e-01	0	42	104	0	80	10140
2026-01-25 23:00:39.31	20.24	4.17	-54.4	-63.2	3.8	7.46e-01	0	43	104	0	80	9844
2026-01-25 23:00:42.33	20.13	4.40	-54.1	-62.9	3.8	7.46e-01	0	43	104	0	80	9555
2026-01-25 23:00:45.35	20.02	4.63	-53.5	-62.3	3.8	7.45e-01	0	43	104	0	79	9444
2026-01-25 23:00:48.37	19.91	4.87	-52.9	-61.8	3.8	7.45e-01	0	43	104	0	77	10010
2026-01-25 23:00:51.39	19.79	5.11	-53.0	-61.8	3.8	7.45e-01	0	43	104	0	77	10013
2026-01-25 23:00:54.40	19.67	5.35	-52.9	-61.8	3.8	7.44e-01	0	43	104	0	77	9953
2026-01-25 23:00:57.42	19.55	5.59	-53.0	-61.8	3.8	7.44e-01	0	43	104	0	77	10014
2026-01-25 23:01:00.45	19.42	5.84	-53.0	-61.8	3.8	7.45e-01	0	43	104	0	77	10019
2026-01-25 23:01:03.47	19.29	6.09	-53.1	-61.9	3.8	7.45e-01	0	43	104	0	77	10075
2026-01-25 23:01:06.49	19.16	6.35	-53.0	-61.9	3.8	7.45e-01	0	43	104	0	77	10088
2026-01-25 23:01:09.52	19.02	6.61	-53.1	-61.9	3.8	7.46e-01	0	43	104	0	77	10149
2026-01-25 23:01:12.54	18.89	6.87	-53.1	-62.0	3.8	7.45e-01	0	43	104	0	77	10189
2026-01-25 23:01:15.56	18.74	7.13	-53.1	-62.0	3.8	7.45e-01	0	43	104	0	77	10220
2026-01-25 23:01:18.58	18.60	7.40	-53.2	-62.0	3.8	7.45e-01	0	43	104	0	77	10221
2026-01-25 23:01:21.60	18.45	7.67	-53.2	-62.0	3.8	7.46e-01	0	43	104	0	77	10236
2026-01-25 23:01:24.62	18.29	7.95	-53.2	-62.1	3.8	7.45e-01	0	43	104	0	77	10316
2026-01-25 23:01:27.64	18.14	8.23	-53.2	-62.1	3.8	7.45e-01	0	43	104	0	77	10333
2026-01-25 23:01:30.65	17.98	8.51	-53.3	-62.1	3.8	7.46e-01	0	43	104	0	77	10357
2026-01-25 23:01:33.68	17.81	8.80	-53.3	-62.1	3.8	7.46e-01	0	43	104	0	77	10351
2026-01-25 23:01:36.69	17.64	9.09	-53.3	-62.2	3.8	7.44e-01	0	44	104	0	77	10444
2026-01-25 23:01:39.72	17.47	9.38	-53.3	-62.1	3.8	7.46e-01	0	43	104	0	77	10372
2026-01-25 23:01:42.73	17.29	9.68	-53.4	-62.2	3.8	7.44e-01	0	43	104	0	77	10483
2026-01-25 23:01:45.76	17.10	9.99	-53.4	-62.2	3.8	7.45e-01	0	44	104	0	77	10470
2026-01-25 23:01:48.78	16.91	10.30	-53.4	-62.2	3.8	7.44e-01	0	44	104	0	77	10525
2026-01-25 23:01:51.80	16.72	10.62	-53.4	-62.2	3.8	7.46e-01	0	44	104	0	77	10496
2026-01-25 23:01:54.81	16.52	10.94	-53.5	-62.3	3.8	7.45e-01	0	44	104	0	77	10560
2026-01-25 23:01:57.83	16.31	11.26	-53.4	-62.2	3.8	7.45e-01	0	44	104	0	77	10510
2026-01-25 23:02:00.85	16.10	11.59	-53.5	-62.3	3.8	7.45e-01	0	44	104	0	77	10618
2026-01-25 23:02:03.88	15.88	11.93	-53.5	-62.3	3.8	7.44e-01	0	44	104	0	77	10569
2026-01-25 23:02:06.90	15.65	12.27	-53.5	-62.4	3.8	7.44e-01	0	44	104	0	77	10700
2026-01-25 23:02:09.92	15.42	12.62	-53.5	-62.4	3.8	7.44e-01	0	44	104	0	77	10688
2026-01-25 23:02:12.94	15.18	12.98	-53.6	-62.4	3.8	7.45e-01	0	44	104	0	77	10776
2026-01-25 23:02:15.96	14.93	13.34	-53.6	-62.4	3.8	7.44e-01	0	44	104	0	77	10769
2026-01-25 23:02:18.99	14.68	13.71	-53.7	-62.5	3.8	7.45e-01	0	44	104	0	77	10808
2026-01-25 23:02:22.01	14.41	14.09	-53.6	-62.5	3.8	7.45e-01	0	44	104	0	77	10780
2026-01-25 23:02:25.03	14.14	14.47	-53.7	-62.5	3.8	7.44e-01	0	44	104	0	77	10820
2026-01-25 23:02:28.05	13.86	14.86	-53.6	-62.4	3.8	7.45e-01	0	44	104	0	77	10761
2026-01-25 23:02:31.07	13.57	15.26	-53.7	-62.5	3.8	7.46e-01	0	44	104	0	77	10891
2026-01-25 23:02:34.09	13.27	15.66	-53.7	-62.5	3.8	7.46e-01	0	44	104	0	77	10824
2026-01-25 23:02:37.11	12.96	16.08	-53.8	-62.6	3.8	7.45e-01	0	44	104	0	78	10312
2026-01-25 23:02:40.13	12.64	16.50	-53.7	-62.6	3.8	7.45e-01	0	44	104	0	78	10331
2026-01-25 23:02:43.15	12.31	16.93	-53.8	-62.6	3.8	7.47e-01	0	44	104	0	78	10369
2026-01-25 23:02:46.17	11.97	17.37	-53.7	-62.6	3.8	7.44e-01	0	44	104	0	78	10321
2026-01-25 23:02:49.19	11.61	17.82	-53.8	-62.6	3.8	7.45e-01	0	44	104	0	78	10400
2026-01-25 23:02:52.21	11.24	18.28	-53.8	-62.6	3.8	7.44e-01	0	44	104	0	78	10346
2026-01-25 23:02:55.22	10.86	18.75	-53.9	-62.7	3.8	7.45e-01	0	44	104	0	78	10432
2026-01-25 23:02:58.25	10.46	19.23	-53.8	-62.7	3.8	7.45e-01	0	44	104	0	78	10424
2026-01-25 23:03:01.27	10.05	19.73	-53.9	-62.7	3.8	7.46e-01	0	44	104	0	78	10488
2026-01-25 23:03:04.28	9.62	20.23	-53.9	-62.6	3.8	7.44e-01	0	44	104	0	78	10410
2026-01-25 23:03:07.29	9.18	20.74	-53.9	-62.7	3.8	7.47e-01	0	44	104	0	78	10518
2026-01-25 23:03:10.31	8.71	21.26	-53.9	-62.7	3.8	7.45e-01	0	44	104	0	78	10479
2026-01-25 23:03:13.33	8.23	21.80	-54.0	-62.8	3.8	7.46e-01	0	44	104	0	78	10541
2026-01-25 23:03:16.36	7.72	22.35	-54.0	-62.8	3.8	7.43e-01	0	44	104	0	78	10580
2026-01-25 23:03:19.39	7.20	22.92	-54.0	-62.8	3.8	7.45e-01	0	44	104	0	78	10606
2026-01-25 23:03:22.41	6.65	23.50	-54.0	-62.8	3.8	7.45e-01	0	44	104	0	78	10595
2026-01-25 23:03:25.43	6.08	24.09	-54.0	-62.8	3.8	7.46e-01	0	44	104	0	78	10634
2026-01-25 23:03:28.46	5.48	24.69	-54.0	-62.8	3.8	7.45e-01	0	44	104	0	78	10630
2026-01-25 23:03:31.48	4.86	25.31	-54.1	-62.9	3.8	7.45e-01	0	44	104	0	78	10691
2026-01-25 23:03:34.50	4.21	25.94	-54.0	-62.9	3.8	7.46e-01	0	44	104	0	78	10702
2026-01-25 23:03:37.52	3.53	26.59	-54.1	-62.9	3.8	7.45e-01	0	44	104	0	78	10716
2026-01-25 23:03:40.55	2.81	27.26	-54.1	-62.9	3.8	7.45e-01	0	44	104	0	78	10697
2026-01-25 23:03:43.57	2.06	27.93	-54.1	-62.9	3.8	7.45e-01	0	44	104	0	78	10752
2026-01-25 23:03:46.59	1.28	28.63	-54.1	-62.9	3.8	7.45e-01	0	44	104	0	78	10743
2026-01-25 23:03:49.61	0.46	29.34	-54.1	-62.9	3.8	7.46e-01	0	44	104	0	78	10771
2026-01-25 23:03:52.64	359.59	30.06	-54.2	-63.0	3.8	7.47e-01	0	44	104	0	78	10848
2026-01-25 23:03:55.66	358.68	30.80	-54.2	-63.0	3.8	7.45e-01	0	44	104	0	78	10816
2026-01-25 23:03:58.68	357.72	31.55	-54.2	-63.1	3.8	7.46e-01	0	44	104	0	79	10332
2026-01-25 23:04:01.71	356.72	32.32	-54.2	-63.1	3.8	7.44e-01	0	44	104	0	79	10303
2026-01-25 23:04:04.73	355.66	33.10	-54.3	-63.1	3.8	7.45e-01	0	44	104	0	79	10379
2026-01-25 23:04:07.75	354.54	33.90	-54.3	-63.1	3.8	7.45e-01	0	44	104	0	79	10335
2026-01-25 23:04:10.77	353.36	34.70	-54.3	-63.2	3.8	7.46e-01	0	44	104	0	79	10429
2026-01-25 23:04:13.80	352.11	35.52	-54.3	-63.2	3.8	7.45e-01	0	44	104	0	79	10429
2026-01-25 23:04:16.82	350.80	36.35	-54.4	-63.3	3.8	7.45e-01	0	44	104	0	79	10571
2026-01-25 23:04:19.85	349.41	37.19	-54.4	-63.3	3.8	7.46e-01	0	44	104	0	79	10538
2026-01-25 23:04:22.87	347.95	38.02	-54.5	-63.3	3.8	7.46e-01	0	44	104	0	79	10589
2026-01-25 23:04:25.89	346.40	38.87	-54.5	-63.3	3.8	7.46e-01	0	44	104	0	79	10584
2026-01-25 23:04:28.91	344.77	39.71	-54.6	-63.4	3.8	7.45e-01	0	44	104	0	79	10727
2026-01-25 23:04:31.93	343.05	40.54	-54.5	-63.4	3.8	7.44e-01	0	44	104	0	79	10659
2026-01-25 23:04:34.96	341.22	41.38	-54.6	-63.4	3.8	7.45e-01	0	44	104	0	79	10692
2026-01-25 23:04:37.98	339.30	42.20	-54.6	-63.4	3.8	7.46e-01	0	44	104	0	79	10673
2026-01-25 23:04:41.00	337.28	43.00	-54.6	-63.4	3.8	7.46e-01	0	44	104	0	79	10719
2026-01-25 23:04:44.03	335.14	43.78	-54.6	-63.4	3.8	7.45e-01	0	44	104	0	79	10735
2026-01-25 23:04:47.05	332.90	44.53	-54.6	-63.4	3.8	7.46e-01	0	44	104	0	79	10745
2026-01-25 23:04:50.07	330.54	45.25	-54.6	-63.4	3.8	7.45e-01	0	44	104	0	79	10716
2026-01-25 23:04:53.10	328.07	45.92	-54.6	-63.5	3.8	7.45e-01	0	44	104	0	79	10786
2026-01-25 23:04:56.12	325.50	46.55	-54.7	-63.5	3.8	7.47e-01	0	44	104	0	79	10841
2026-01-25 23:04:59.14	322.83	47.13	-54.6	-63.5	3.8	7.46e-01	0	44	104	0	79	10785
2026-01-25 23:05:02.16	320.06	47.64	-54.6	-63.4	3.8	7.45e-01	0	44	104	0	79	10770
2026-01-25 23:05:05.18	317.19	48.09	-54.7	-63.5	3.8	7.45e-01	0	44	104	0	79	10850
2026-01-25 23:05:08.20	314.25	48.46	-54.7	-63.5	3.8	7.45e-01	0	44	104	0	80	10228
2026-01-25 23:05:11.22	311.24	48.75	-54.6	-63.4	3.8	7.45e-01	0	44	104	0	80	10174
2026-01-25 23:05:14.24	308.18	48.96	-54.6	-63.4	3.8	7.45e-01	0	44	104	0	80	10138
2026-01-25 23:05:17.27	305.07	49.09	-54.7	-63.5	3.8	7.46e-01	0	44	104	0	80	10215
2026-01-25 23:05:20.29	301.96	49.13	-54.7	-63.5	3.8	7.45e-01	0	44	104	0	80	10227
2026-01-25 23:05:23.32	298.83	49.07	-54.7	-63.5	3.8	7.45e-01	0	44	104	0	80	10196
2026-01-25 23:05:26.34	295.74	48.93	-54.6	-63.4	3.8	7.46e-01	0	44	104	0	80	10076
2026-01-25 23:05:29.36	292.69	48.71	-54.6	-63.5	3.8	7.46e-01	0	44	104	0	80	10180
2026-01-25 23:05:32.38	289.68	48.40	-54.7	-63.5	3.8	7.44e-01	0	44	104	0	80	10215
2026-01-25 23:05:35.40	286.75	48.01	-54.6	-63.5	3.8	7.46e-01	0	44	104	0	80	10185
2026-01-25 23:05:38.42	283.90	47.56	-54.6	-63.4	3.8	7.47e-01	0	44	104	0	80	10118
2026-01-25 23:05:41.44	281.14	47.03	-54.6	-63.4	3.8	7.46e-01	0	44	104	0	80	10077
2026-01-25 23:05:44.47	278.47	46.44	-54.6	-63.4	3.8	7.46e-01	0	44	104	0	80	10107
2026-01-25 23:05:47.49	275.91	45.80	-54.6	-63.4	3.8	7.47e-01	0	44	104	0	80	10122
2026-01-25 23:05:50.51	273.47	45.12	-54.5	-63.3	3.8	7.45e-01	0	44	104	0	80	10039
2026-01-25 23:05:53.53	271.13	44.39	-54.5	-63.4	3.8	7.46e-01	0	44	104	0	80	10089
2026-01-25 23:05:56.56	268.90	43.63	-54.6	-63.4	3.8	7.46e-01	0	44	104	0	80	10111
2026-01-25 23:05:59.58	266.78	42.85	-54.5	-63.4	3.8	7.45e-01	0	44	104	0	80	10084
2026-01-25 23:06:02.61	264.76	42.04	-54.5	-63.3	3.8	7.47e-01	0	44	104	0	80	10017
2026-01-25 23:06:05.63	262.85	41.22	-54.5	-63.3	3.8	7.46e-01	0	44	104	0	80	10053
2026-01-25 23:06:08.65	261.05	40.38	-54.5	-63.3	3.8	7.45e-01	0	44	104	0	80	10037
2026-01-25 23:06:11.68	259.33	39.54	-54.5	-63.3	3.8	7.46e-01	0	44	104	0	80	10047
2026-01-25 23:06:14.70	257.71	38.69	-54.4	-63.2	3.8	7.44e-01	0	44	104	0	80	9909
2026-01-25 23:06:17.72	256.18	37.85	-54.4	-63.3	3.8	7.45e-01	0	44	104	0	80	9955
2026-01-25 23:06:20.74	254.73	37.01	-54.4	-63.2	3.8	7.46e-01	0	44	104	0	80	9941
2026-01-25 23:06:23.77	253.35	36.17	-54.4	-63.2	3.8	7.46e-01	0	44	104	0	80	9912
2026-01-25 23:06:26.79	252.04	35.34	-54.3	-63.2	3.8	7.45e-01	0	44	104	0	80	9904
2026-01-25 23:06:29.82	250.81	34.52	-54.3	-63.2	3.8	7.44e-01	0	44	104	0	80	9886
2026-01-25 23:06:32.84	249.64	33.72	-54.3	-63.2	3.8	7.45e-01	0	44	104	0	80	9855
2026-01-25 23:06:35.87	248.52	32.92	-54.3	-63.1	3.8	7.46e-01	0	44	104	0	80	9827
2026-01-25 23:06:38.89	247.47	32.14	-54.3	-63.1	3.8	7.44e-01	0	44	104	0	80	9822
2026-01-25 23:06:41.91	246.47	31.37	-54.3	-63.1	3.8	7.44e-01	0	45	104	0	80	9820
2026-01-25 23:06:44.93	245.52	30.62	-54.3	-63.1	3.8	7.46e-01	0	44	104	0	80	9810
2026-01-25 23:06:47.95	244.62	29.88	-54.3	-63.1	3.8	7.44e-01	0	44	104	0	80	9787
2026-01-25 23:06:50.97	243.76	29.16	-54.2	-63.1	3.8	7.46e-01	0	44	104	0	80	9720
2026-01-25 23:06:54.00	242.94	28.45	-54.2	-63.1	3.8	7.44e-01	0	44	104	0	80	9720
2026-01-25 23:06:57.02	242.16	27.75	-54.2	-63.0	3.8	7.45e-01	0	44	104	0	80	9678
2026-01-25 23:07:00.03	241.42	27.08	-54.2	-63.0	3.8	7.46e-01	0	44	104	0	80	9656
2026-01-25 23:07:03.05	240.71	26.42	-54.1	-63.0	3.8	7.47e-01	0	44	104	0	80	9613
2026-01-25 23:07:06.07	240.03	25.77	-54.1	-63.0	3.8	7.45e-01	0	44	104	0	80	9633
2026-01-25 23:07:09.09	239.38	25.14	-54.1	-62.9	3.8	7.45e-01	0	44	104	0	80	9569
2026-01-25 23:07:12.11	238.76	24.52	-54.1	-62.9	3.8	7.46e-01	0	44	104	0	80	9584
2026-01-25 23:07:15.13	238.17	23.91	-54.0	-62.9	3.8	7.44e-01	0	44	104	0	80	9530
2026-01-25 23:07:18.15	237.60	23.32	-54.0	-62.9	3.8	7.46e-01	0	44	104	0	80	9509
2026-01-25 23:07:21.17	237.06	22.75	-54.0	-62.8	3.8	7.45e-01	0	44	104	0	80	9475
2026-01-25 23:07:24.19	236.54	22.19	-54.0	-62.8	3.8	7.45e-01	0	44	104	0	80	9489
2026-01-25 23:07:27.21	236.04	21.64	-54.0	-62.9	3.8	7.44e-01	0	44	104	0	79	10083
2026-01-25 23:07:30.23	235.55	21.10	-54.0	-62.8	3.8	7.46e-01	0	44	104	0	79	10056
2026-01-25 23:07:33.25	235.09	20.57	-54.0	-62.8	3.8	7.46e-01	0	44	104	0	79	10007
2026-01-25 23:07:36.27	234.65	20.06	-54.0	-62.8	3.8	7.45e-01	0	44	104	0	79	9983
2026-01-25 23:07:39.29	234.22	19.56	-53.9	-62.8	3.8	7.43e-01	0	44	104	0	79	9970
2026-01-25 23:07:42.31	233.81	19.07	-53.9	-62.8	3.8	7.45e-01	0	44	104	0	79	9965
2026-01-25 23:07:45.33	233.41	18.59	-53.9	-62.7	3.8	7.45e-01	0	45	104	0	79	9935
2026-01-25 23:07:48.35	233.03	18.12	-53.9	-62.7	3.8	7.46e-01	0	44	104	0	79	9891
2026-01-25 23:07:51.37	232.66	17.66	-53.9	-62.7	3.8	7.45e-01	0	44	104	0	79	9879
2026-01-25 23:07:54.40	232.31	17.21	-53.8	-62.7	3.8	7.44e-01	0	44	104	0	79	9869
2026-01-25 23:07:57.42	231.96	16.76	-53.8	-62.6	3.8	7.45e-01	0	44	104	0	79	9821
2026-01-25 23:08:00.44	231.63	16.33	-53.8	-62.6	3.8	7.44e-01	0	44	104	0	79	9797
2026-01-25 23:08:03.46	231.31	15.91	-53.8	-62.6	3.8	7.46e-01	0	44	104	0	79	9778
2026-01-25 23:08:06.49	231.00	15.50	-53.8	-62.7	3.8	7.46e-01	0	44	104	0	79	9833
2026-01-25 23:08:09.51	230.70	15.09	-53.8	-62.6	3.8	7.45e-01	0	44	104	0	79	9769
2026-01-25 23:08:12.53	230.41	14.69	-53.7	-62.6	3.8	7.47e-01	0	44	104	0	79	9744
2026-01-25 23:08:15.55	230.13	14.30	-53.7	-62.5	3.8	7.43e-01	0	44	104	0	79	9690
2026-01-25 23:08:18.58	229.86	13.92	-53.7	-62.5	3.8	7.44e-01	0	44	104	0	79	9694
2026-01-25 23:08:21.60	229.60	13.54	-53.7	-62.6	3.8	7.46e-01	0	44	104	0	79	9726
2026-01-25 23:08:24.61	229.34	13.18	-53.6	-62.5	3.8	7.45e-01	0	44	104	0	79	9609
2026-01-25 23:08:27.64	229.09	12.81	-53.6	-62.5	3.8	7.44e-01	0	44	104	0	79	9617
2026-01-25 23:08:30.66	228.86	12.46	-53.6	-62.5	3.8	7.45e-01	0	44	104	0	79	9612
2026-01-25 23:08:33.68	228.62	12.11	-53.6	-62.4	3.8	7.46e-01	0	44	104	0	79	9603
2026-01-25 23:08:36.69	228.40	11.77	-53.6	-62.4	3.8	7.48e-01	0	44	104	0	79	9533
2026-01-25 23:08:39.71	228.18	11.43	-53.6	-62.4	3.8	7.44e-01	0	44	104	0	79	9574
2026-01-25 23:08:42.73	227.97	11.10	-53.6	-62.4	3.8	7.44e-01	0	44	104	0	79	9547
2026-01-25 23:08:45.75	227.76	10.77	-53.5	-62.4	3.8	7.47e-01	0	44	104	0	79	9559
2026-01-25 23:08:48.76	227.56	10.46	-53.5	-62.3	3.8	7.46e-01	0	45	104	0	79	9459
2026-01-25 23:08:51.79	227.36	10.14	-53.5	-62.3	3.8	7.45e-01	0	44	104	0	78	9979
2026-01-25 23:08:54.81	227.17	9.83	-53.5	-62.3	3.8	7.46e-01	0	44	104	0	78	9993
2026-01-25 23:08:57.83	226.99	9.52	-53.4	-62.3	3.8	7.45e-01	0	44	104	0	78	9965
2026-01-25 23:09:00.85	226.81	9.22	-53.4	-62.2	3.8	7.46e-01	0	44	104	0	78	9910
2026-01-25 23:09:03.87	226.63	8.93	-53.4	-62.2	3.8	7.43e-01	0	44	104	0	78	9852
2026-01-25 23:09:06.88	226.46	8.64	-53.4	-62.2	3.8	7.45e-01	0	44	104	0	78	9909
2026-01-25 23:09:09.90	226.29	8.35	-53.4	-62.2	3.8	7.44e-01	0	44	104	0	78	9914
2026-01-25 23:09:12.92	226.13	8.07	-53.2	-62.1	3.8	7.44e-01	0	44	104	0	78	9743
2026-01-25 23:09:15.94	225.97	7.79	-53.2	-62.0	3.8	7.46e-01	0	44	104	0	78	9693
2026-01-25 23:09:18.96	225.82	7.51	-53.3	-62.1	3.8	7.45e-01	0	44	104	0	78	9774
2026-01-25 23:09:21.97	225.67	7.24	-53.2	-62.1	3.8	7.44e-01	0	45	104	0	78	9797
2026-01-25 23:09:24.99	225.52	6.97	-53.1	-62.0	3.8	7.45e-01	0	45	104	0	78	9613
2026-01-25 23:09:28.01	225.38	6.71	-53.1	-61.9	3.8	7.45e-01	0	44	104	0	78	9593
2026-01-25 23:09:31.03	225.24	6.45	-53.1	-62.0	3.8	7.45e-01	0	44	104	0	78	9610
2026-01-25 23:09:34.05	225.10	6.19	-53.1	-62.0	3.8	7.46e-01	0	44	104	0	78	9610
2026-01-25 23:09:37.08	224.97	5.94	-53.0	-61.8	3.8	7.46e-01	0	44	104	0	78	9439
2026-01-25 23:09:40.09	224.84	5.69	-52.9	-61.7	3.8	7.47e-01	0	44	104	0	77	9941
2026-01-25 23:09:43.11	224.71	5.44	-53.0	-61.8	3.8	7.45e-01	0	44	104	0	77	9981
2026-01-25 23:09:46.13	224.59	5.19	-53.0	-61.8	3.8	7.45e-01	0	44	104	0	77	9956
2026-01-25 23:09:49.15	224.47	4.95	-53.1	-62.0	3.8	7.44e-01	0	44	104	0	77	10182
2026-01-25 23:09:52.17	224.35	4.71	-53.9	-62.7	3.8	7.45e-01	0	44	104	0	78	10513
2026-01-25 23:09:55.19	224.23	4.48	-54.2	-63.0	3.8	7.47e-01	0	44	104	0	78	10818
2026-01-25 23:09:58.21	224.12	4.24	-54.3	-63.1	3.8	7.46e-01	0	44	104	0	79	10380
2026-01-25 23:10:01.23	224.01	4.01	-54.3	-63.2	3.8	7.45e-01	0	44	104	0	79	10426
2026-01-25 23:10:04.26	223.90	3.78	-54.3	-63.1	3.8	7.45e-01	0	44	104	0	79	10403
2026-01-25 23:10:07.29	223.79	3.55	-54.1	-63.0	3.8	7.44e-01	0	44	104	0	79	10206
2026-01-25 23:10:10.31	223.69	3.33	-54.1	-62.9	3.8	7.46e-01	0	44	104	0	79	10104
2026-01-25 23:10:13.33	223.59	3.11	-54.0	-62.8	3.8	7.46e-01	0	44	104	0	79	10052
2026-01-25 23:10:16.36	223.49	2.89	-54.0	-62.8	3.8	7.44e-01	0	45	104	0	79	9973
2026-01-25 23:10:19.38	223.39	2.67	-54.0	-62.8	3.8	7.45e-01	0	44	104	0	79	10005
2026-01-25 23:10:22.40	223.30	2.46	-54.0	-62.8	3.8	7.44e-01	0	44	104	0	79	10014
2026-01-25 23:10:25.43	223.20	2.24	-54.0	-62.8	3.8	7.44e-01	0	44	104	0	79	9995
2026-01-25 23:10:28.44	223.11	2.03	-53.9	-62.7	3.8	7.41e-01	0	44	104	0	79	9939
2026-01-25 23:10:31.47	223.02	1.82	-53.9	-62.8	3.8	7.45e-01	0	44	104	0	79	9987

#Closed at: 2026-01-25 23:10:31
#Recorded file [0 MB]: D:/lorett/data/31041_260126_020008.dat