passes_logs/2026/01/25/R3.2S_Murmansk/R3.2S_Murmansk__20260125_140059_FENGYUN_3D_rec.log

#Pass ID: 20260125_140059_FENGYUN 3D
#Satellite: FENGYUN 3D
#Configuration: FENGYUN 3D
#almurnet v.1.7.20251203
#Start time: 2026-01-25 14:01:00

#Version: 2.2.20231116
#Station: R3.2S_Murmansk
#Location: 33.079688 lon 68.888172 lat
#TLE: 1 43010U 17072A   26024.94080550 -.00000109  00000+0 -29577-4 0  9995
#TLE: 2 43010  98.9962 356.9116 0002509  91.7481 268.3982 14.19699259424665

#Time	Az	El	Level	Level2	SNR	BER	BlckErr	Temp	State	Recorded	gain1	gain2
2026-01-25 14:01:00.89	213.32	2.10	-53.6	-65.5	3.8	8.46e-01	0	41	0	0	78	14482
2026-01-25 14:01:04.86	213.61	2.32	-54.1	-66.0	3.8	8.45e-01	0	41	104	0	78	15373
2026-01-25 14:01:08.83	213.90	2.54	-54.0	-66.0	3.8	8.47e-01	0	42	104	0	78	15238
2026-01-25 14:01:12.78	214.20	2.76	-53.9	-65.8	3.8	8.47e-01	0	42	104	0	78	14973
2026-01-25 14:01:16.74	214.50	2.98	-53.6	-65.5	3.8	8.46e-01	0	42	104	0	78	14411
2026-01-25 14:01:20.69	214.80	3.20	-53.0	-64.9	3.8	8.45e-01	0	42	104	0	78	13539
2026-01-25 14:01:24.65	215.12	3.42	-52.3	-63.9	3.8	8.47e-01	0	42	104	0	76	13479
2026-01-25 14:01:28.61	215.43	3.65	-52.3	-64.1	3.8	8.45e-01	0	42	104	0	76	13809
2026-01-25 14:01:32.58	215.75	3.88	-52.3	-64.1	3.8	8.46e-01	0	42	104	0	76	13881
2026-01-25 14:01:36.54	216.08	4.10	-52.2	-63.4	3.8	8.46e-01	0	42	104	0	76	12685
2026-01-25 14:01:40.49	216.41	4.33	-52.0	-61.3	4.1	8.40e-01	0	42	0	0	76	9973
2026-01-25 14:01:44.45	216.74	4.56	-51.3	-57.6	5.6	7.39e-01	0	43	0	0	74	7306
2026-01-25 14:01:48.40	217.08	4.79	-46.4	-48.2	14.9	2.20e-06	0	43	0	22020096	64	4410
2026-01-25 14:01:52.37	217.42	5.02	-44.7	-46.0	17.2	0.00e+00	0	43	0	44040192	61	4074
2026-01-25 14:01:56.33	217.77	5.25	-43.3	-44.4	19.3	0.00e+00	0	43	0	65011712	57	4250
2026-01-25 14:02:00.28	218.13	5.49	-43.2	-44.3	19.4	0.00e+00	0	43	0	87031808	58	3972
2026-01-25 14:02:04.22	218.49	5.72	-42.8	-43.8	19.9	0.00e+00	0	43	0	110100480	57	3982
2026-01-25 14:02:08.18	218.85	5.96	-42.8	-43.8	19.9	0.00e+00	0	43	0	132120576	57	3972
2026-01-25 14:02:12.14	219.23	6.19	-42.5	-43.5	20.2	0.00e+00	0	43	0	154140672	56	4088
2026-01-25 14:02:16.09	219.60	6.43	-42.3	-43.3	20.5	0.00e+00	0	43	0	176160768	56	3984
2026-01-25 14:02:20.03	219.98	6.67	-42.4	-43.3	20.5	0.00e+00	0	43	0	198180864	56	3990
2026-01-25 14:02:24.00	220.38	6.91	-42.3	-43.2	20.6	0.00e+00	0	43	0	221249536	56	3958
2026-01-25 14:02:27.94	220.77	7.15	-42.2	-43.2	20.6	0.00e+00	0	43	0	243269632	56	3923
2026-01-25 14:02:31.88	221.17	7.40	-42.5	-43.4	20.4	0.00e+00	0	43	0	265289728	56	4048
2026-01-25 14:02:35.84	221.58	7.64	-42.6	-43.6	20.3	0.00e+00	0	43	0	287309824	56	4100
2026-01-25 14:02:39.79	221.99	7.88	-42.3	-43.3	20.6	0.00e+00	0	43	0	310378496	56	3969
2026-01-25 14:02:43.73	222.41	8.13	-42.3	-43.3	20.6	0.00e+00	0	43	0	332398592	56	3976
2026-01-25 14:02:47.68	222.84	8.38	-42.1	-43.0	21.0	0.00e+00	0	43	0	354418688	56	3829
2026-01-25 14:02:51.63	223.28	8.63	-42.0	-42.9	21.0	0.00e+00	0	43	0	376438784	55	4027
2026-01-25 14:02:55.58	223.72	8.87	-41.9	-42.8	21.1	0.00e+00	0	43	0	398458880	55	3979
2026-01-25 14:02:59.54	224.17	9.13	-41.6	-42.5	21.4	0.00e+00	0	43	0	420478976	55	3857
2026-01-25 14:03:03.50	224.63	9.38	-41.3	-42.2	21.6	0.00e+00	0	43	0	443547648	54	3931
2026-01-25 14:03:07.45	225.09	9.63	-41.5	-42.4	21.5	0.00e+00	0	43	0	465567744	54	4040
2026-01-25 14:03:11.40	225.57	9.88	-41.3	-42.1	21.7	0.00e+00	0	43	0	487587840	54	3909
2026-01-25 14:03:15.36	226.05	10.14	-41.2	-42.0	21.9	0.00e+00	0	43	0	509607936	54	3843
2026-01-25 14:03:19.32	226.54	10.39	-41.0	-41.8	22.1	0.00e+00	0	43	0	532676608	54	3763
2026-01-25 14:03:23.28	227.04	10.65	-41.1	-41.9	22.0	0.00e+00	0	43	0	554696704	53	4033
2026-01-25 14:03:27.24	227.54	10.91	-41.1	-41.9	22.0	0.00e+00	0	43	0	576716800	53	4044
2026-01-25 14:03:31.19	228.06	11.16	-41.3	-42.1	21.8	0.00e+00	0	43	0	598736896	53	4129
2026-01-25 14:03:35.15	228.58	11.42	-41.1	-42.0	22.0	0.00e+00	0	43	0	620756992	53	4057
2026-01-25 14:03:39.12	229.12	11.68	-40.8	-41.6	22.3	0.00e+00	0	43	0	643825664	53	3897
2026-01-25 14:03:43.11	229.66	11.94	-40.7	-41.5	22.5	0.00e+00	0	43	0	665845760	53	3846
2026-01-25 14:03:47.11	230.22	12.21	-40.8	-41.7	22.3	0.00e+00	0	43	0	688914432	53	3914
2026-01-25 14:03:51.11	230.79	12.47	-40.7	-41.5	22.5	0.00e+00	0	43	0	710934528	53	3845
2026-01-25 14:03:55.11	231.36	12.73	-40.4	-41.1	22.8	0.00e+00	0	43	0	734003200	52	3909
2026-01-25 14:03:59.09	231.95	13.00	-40.3	-41.1	22.8	0.00e+00	0	43	0	756023296	52	3905
2026-01-25 14:04:03.09	232.54	13.26	-40.4	-41.2	22.8	0.00e+00	0	43	0	778043392	52	3921
2026-01-25 14:04:07.08	233.15	13.52	-40.3	-41.1	22.9	0.00e+00	0	43	0	800063488	52	3871
2026-01-25 14:04:11.07	233.77	13.79	-40.3	-41.1	22.9	0.00e+00	0	43	0	823132160	52	3895
2026-01-25 14:04:15.06	234.39	14.05	-40.3	-41.1	22.9	0.00e+00	0	43	0	845152256	52	3885
2026-01-25 14:04:19.06	235.03	14.31	-40.2	-41.0	23.0	0.00e+00	0	43	0	868220928	52	3850
2026-01-25 14:04:23.05	235.68	14.57	-40.1	-40.9	23.1	0.00e+00	0	44	0	890241024	52	3786
2026-01-25 14:04:27.06	236.35	14.84	-40.0	-40.7	23.3	0.00e+00	0	43	0	913309696	51	3957
2026-01-25 14:04:31.05	237.02	15.10	-39.9	-40.6	23.4	0.00e+00	0	43	0	935329792	51	3907
2026-01-25 14:04:35.04	237.70	15.36	-39.9	-40.7	23.4	0.00e+00	0	43	0	958398464	51	3938
2026-01-25 14:04:39.04	238.40	15.62	-40.0	-40.7	23.3	0.00e+00	0	43	0	980418560	51	3955
2026-01-25 14:04:43.02	239.10	15.87	-39.8	-40.5	23.6	0.00e+00	0	43	0	1003487232	51	3859
2026-01-25 14:04:47.02	239.82	16.13	-39.9	-40.6	23.5	0.00e+00	0	43	0	1025507328	51	3910
2026-01-25 14:04:51.02	240.55	16.38	-39.9	-40.7	23.5	0.00e+00	0	43	0	1048576000	51	3932
2026-01-25 14:04:55.01	241.29	16.64	-39.5	-40.3	23.9	0.00e+00	0	43	0	1070596096	51	3742
2026-01-25 14:04:59.01	242.05	16.89	-39.4	-40.2	23.9	0.00e+00	0	43	0	1092616192	50	3922
2026-01-25 14:05:03.00	242.82	17.13	-39.5	-40.2	23.9	0.00e+00	0	43	0	1115684864	50	3933
2026-01-25 14:05:07.00	243.60	17.38	-39.7	-40.4	23.7	0.00e+00	0	43	0	1137704960	50	4034
2026-01-25 14:05:10.99	244.39	17.62	-39.7	-40.5	23.7	0.00e+00	0	43	0	1159725056	50	4065
2026-01-25 14:05:14.99	245.19	17.86	-39.5	-40.2	23.9	0.00e+00	0	43	0	1182793728	50	3946
2026-01-25 14:05:18.99	246.01	18.10	-39.2	-40.0	24.2	0.00e+00	0	43	0	1204813824	50	3829
2026-01-25 14:05:22.96	246.84	18.33	-39.4	-40.1	24.0	0.00e+00	0	43	0	1227882496	50	3913
2026-01-25 14:05:26.97	247.68	18.57	-39.2	-40.0	24.2	0.00e+00	0	43	0	1249902592	50	3825
2026-01-25 14:05:30.97	248.54	18.79	-39.2	-39.9	24.2	0.00e+00	0	43	0	1272971264	50	3794
2026-01-25 14:05:34.96	249.40	19.01	-39.4	-40.1	24.0	0.00e+00	0	43	0	1294991360	50	3894
2026-01-25 14:05:38.95	250.28	19.23	-39.1	-39.9	24.2	0.00e+00	0	43	0	1317011456	50	3796
2026-01-25 14:05:42.94	251.17	19.44	-39.1	-39.8	24.3	0.00e+00	0	43	0	1340080128	50	3774
2026-01-25 14:05:46.95	252.07	19.65	-39.1	-39.8	24.4	0.00e+00	0	43	0	1362100224	50	3760
2026-01-25 14:05:50.95	252.99	19.85	-38.9	-39.7	24.4	0.00e+00	0	43	0	1385168896	49	3916
2026-01-25 14:05:54.95	253.92	20.05	-38.7	-39.4	24.7	0.00e+00	0	43	0	1407188992	49	3807
2026-01-25 14:05:58.93	254.85	20.24	-38.9	-39.6	24.5	0.00e+00	0	43	0	1430257664	49	3910
2026-01-25 14:06:02.94	255.80	20.42	-38.8	-39.6	24.5	0.00e+00	0	43	0	1452277760	49	3878
2026-01-25 14:06:06.93	256.76	20.60	-38.8	-39.6	24.5	0.00e+00	0	43	0	1475346432	49	3879
2026-01-25 14:06:10.94	257.73	20.77	-38.8	-39.5	24.6	0.00e+00	0	43	0	1497366528	49	3848
2026-01-25 14:06:14.94	258.72	20.94	-38.7	-39.4	24.6	0.00e+00	0	43	0	1520435200	49	3818
2026-01-25 14:06:18.94	259.71	21.09	-38.8	-39.5	24.5	0.00e+00	0	43	0	1542455296	49	3861
2026-01-25 14:06:22.94	260.71	21.24	-38.6	-39.3	24.7	0.00e+00	0	43	0	1565523968	49	3778
2026-01-25 14:06:26.93	261.72	21.38	-38.2	-38.9	25.1	0.00e+00	0	43	0	1587544064	48	3821
2026-01-25 14:06:30.92	262.73	21.52	-38.4	-39.2	24.9	0.00e+00	0	43	0	1609564160	48	3914
2026-01-25 14:06:34.92	263.76	21.64	-38.5	-39.2	24.9	0.00e+00	0	43	0	1632632832	48	3920
2026-01-25 14:06:38.91	264.79	21.76	-38.6	-39.3	24.7	0.00e+00	0	43	0	1654652928	48	3995
2026-01-25 14:06:42.91	265.83	21.86	-38.8	-39.5	24.6	0.00e+00	0	44	0	1677721600	48	4085
2026-01-25 14:06:46.92	266.89	21.96	-38.6	-39.3	24.8	0.00e+00	0	43	0	1699741696	48	4000
2026-01-25 14:06:50.91	267.94	22.05	-38.5	-39.2	24.9	0.00e+00	0	43	0	1722810368	48	3920
2026-01-25 14:06:54.91	269.00	22.13	-38.3	-38.9	25.1	0.00e+00	0	43	0	1744830464	48	3823
2026-01-25 14:06:58.91	270.06	22.19	-38.4	-39.0	25.0	0.00e+00	0	43	0	1767899136	48	3868
2026-01-25 14:07:02.89	271.13	22.25	-38.3	-39.1	25.0	0.00e+00	0	43	0	1789919232	48	3869
2026-01-25 14:07:06.90	272.20	22.30	-38.5	-39.2	24.9	0.00e+00	0	43	0	1812987904	48	3924
2026-01-25 14:07:10.89	273.28	22.34	-38.3	-39.0	25.1	0.00e+00	0	43	0	1835008000	48	3830
2026-01-25 14:07:14.89	274.35	22.37	-38.4	-39.2	25.0	0.00e+00	0	43	0	1857028096	48	3915
2026-01-25 14:07:18.89	275.43	22.39	-38.5	-39.2	24.9	0.00e+00	0	44	0	1880096768	48	3947
2026-01-25 14:07:22.89	276.51	22.40	-38.5	-39.2	25.0	0.00e+00	0	43	0	1902116864	48	3920
2026-01-25 14:07:26.89	277.59	22.39	-38.6	-39.3	24.9	0.00e+00	0	43	0	1924136960	48	3965
2026-01-25 14:07:30.89	278.67	22.38	-38.4	-39.1	25.0	0.00e+00	0	44	0	1947205632	48	3902
2026-01-25 14:07:34.88	279.75	22.36	-38.4	-39.2	25.0	0.00e+00	0	44	0	1969225728	48	3915
2026-01-25 14:07:38.88	280.83	22.33	-38.5	-39.2	24.9	0.00e+00	0	43	0	1992294400	48	3949
2026-01-25 14:07:42.87	281.90	22.28	-38.7	-39.5	24.7	0.00e+00	0	43	0	2014314496	48	4064
2026-01-25 14:07:46.87	282.97	22.23	-38.3	-39.0	25.1	0.00e+00	0	43	0	2037383168	48	3864
2026-01-25 14:07:50.85	284.03	22.17	-38.4	-39.1	25.0	0.00e+00	0	44	0	2059403264	48	3906
2026-01-25 14:07:54.85	285.09	22.09	-38.5	-39.3	25.0	0.00e+00	0	43	0	2081423360	48	3962
2026-01-25 14:07:58.84	286.15	22.01	-38.7	-39.4	24.8	0.00e+00	0	43	0	2104492032	48	4027
2026-01-25 14:08:02.83	287.20	21.92	-38.7	-39.4	24.9	0.00e+00	0	43	0	2126512128	48	4023
2026-01-25 14:08:06.82	288.24	21.82	-38.7	-39.5	24.8	0.00e+00	0	43	0	2149580800	48	4055
2026-01-25 14:08:10.81	289.27	21.71	-39.0	-39.8	24.5	0.00e+00	0	43	0	2171600896	48	4205
2026-01-25 14:08:14.81	290.30	21.59	-38.9	-39.6	24.7	0.00e+00	0	44	0	2194669568	48	4119
2026-01-25 14:08:18.81	291.32	21.47	-38.8	-39.5	24.8	0.00e+00	0	43	0	2216689664	48	4059
2026-01-25 14:08:22.81	292.34	21.33	-38.9	-39.6	24.7	0.00e+00	0	43	0	2239758336	48	4144
2026-01-25 14:08:26.81	293.34	21.19	-38.7	-39.4	24.9	0.00e+00	0	43	0	2261778432	48	4031
2026-01-25 14:08:30.82	294.34	21.03	-38.9	-39.7	24.6	0.00e+00	0	43	0	2284847104	48	4151
2026-01-25 14:08:34.82	295.33	20.88	-38.9	-39.6	24.7	0.00e+00	0	43	0	2306867200	48	4137
2026-01-25 14:08:38.83	296.30	20.71	-39.3	-40.1	24.3	0.00e+00	0	43	0	2329935872	49	4109
2026-01-25 14:08:42.82	297.27	20.54	-39.1	-39.9	24.4	0.00e+00	0	44	0	2351955968	49	4011
2026-01-25 14:08:46.83	298.22	20.36	-39.3	-40.0	24.3	0.00e+00	0	43	0	2373976064	49	4069
2026-01-25 14:08:50.83	299.16	20.17	-39.3	-40.1	24.3	0.00e+00	0	43	0	2397044736	49	4101
2026-01-25 14:08:54.82	300.09	19.98	-39.4	-40.1	24.2	0.00e+00	0	44	0	2419064832	49	4142
2026-01-25 14:08:58.82	301.01	19.78	-39.2	-40.0	24.3	0.00e+00	0	43	0	2442133504	49	4058
2026-01-25 14:09:02.81	301.92	19.58	-39.2	-40.0	24.3	0.00e+00	0	44	0	2464153600	49	4061
2026-01-25 14:09:06.81	302.82	19.37	-39.4	-40.1	24.1	0.00e+00	0	43	0	2487222272	49	4145
2026-01-25 14:09:10.80	303.70	19.15	-39.3	-40.0	24.2	0.00e+00	0	43	0	2509242368	49	4091
2026-01-25 14:09:14.80	304.57	18.94	-39.4	-40.2	24.0	0.00e+00	0	43	0	2532311040	49	4162
2026-01-25 14:09:18.78	305.42	18.71	-39.4	-40.1	24.0	0.00e+00	0	44	0	2554331136	49	4145
2026-01-25 14:09:22.78	306.27	18.49	-39.7	-40.5	23.7	0.00e+00	0	44	0	2576351232	49	4296
2026-01-25 14:09:26.78	307.11	18.26	-39.8	-40.6	23.6	0.00e+00	0	43	0	2598371328	50	4100
2026-01-25 14:09:30.78	307.93	18.02	-39.6	-40.4	23.8	0.00e+00	0	43	0	2621440000	50	4014
2026-01-25 14:09:34.78	308.74	17.79	-39.6	-40.4	23.8	0.00e+00	0	43	0	2643460096	50	4020
2026-01-25 14:09:38.77	309.54	17.55	-39.7	-40.4	23.8	0.00e+00	0	43	0	2666528768	50	4038
2026-01-25 14:09:42.77	310.32	17.30	-39.9	-40.6	23.5	0.00e+00	0	43	0	2688548864	50	4142
2026-01-25 14:09:46.76	311.09	17.06	-40.0	-40.8	23.4	0.00e+00	0	43	0	2711617536	50	4230
2026-01-25 14:09:50.75	311.85	16.81	-40.3	-41.1	23.1	0.00e+00	0	43	0	2733637632	51	4131
2026-01-25 14:09:54.75	312.60	16.56	-40.4	-41.2	23.0	0.00e+00	0	44	0	2756706304	51	4169
2026-01-25 14:09:58.74	313.34	16.31	-40.2	-41.0	23.2	0.00e+00	0	44	0	2778726400	51	4061
2026-01-25 14:10:02.72	314.06	16.06	-40.1	-40.8	23.3	0.00e+00	0	44	0	2801795072	51	4004
2026-01-25 14:10:06.73	314.77	15.80	-39.9	-40.7	23.4	0.00e+00	0	44	0	2823815168	51	3934
2026-01-25 14:10:10.70	315.47	15.54	-40.1	-40.9	23.2	0.00e+00	0	43	0	2846883840	51	4037
2026-01-25 14:10:14.68	316.15	15.29	-40.1	-40.9	23.2	3.40e-06	0	43	0	2867855360	51	4037
2026-01-25 14:10:18.65	316.83	15.03	-40.3	-41.1	23.0	0.00e+00	0	44	0	2890924032	51	4112
2026-01-25 14:10:22.63	317.49	14.77	-40.3	-41.1	22.9	0.00e+00	0	43	0	2912944128	51	4139
2026-01-25 14:10:26.61	318.14	14.51	-40.7	-41.5	22.6	0.00e+00	0	43	0	2936012800	51	4324
2026-01-25 14:10:30.60	318.79	14.25	-40.5	-41.4	22.6	0.00e+00	0	44	0	2958032896	52	4010
2026-01-25 14:10:34.57	319.41	13.99	-40.3	-41.1	22.9	0.00e+00	0	43	0	2980052992	52	3897
2026-01-25 14:10:38.55	320.03	13.73	-40.5	-41.3	22.7	0.00e+00	0	43	0	3003121664	52	3987
2026-01-25 14:10:42.53	320.64	13.47	-40.5	-41.3	22.7	0.00e+00	0	44	0	3025141760	52	3979
2026-01-25 14:10:46.51	321.24	13.21	-40.6	-41.4	22.5	0.00e+00	0	43	0	3048210432	52	4046
2026-01-25 14:10:50.49	321.83	12.95	-40.5	-41.3	22.7	0.00e+00	0	44	0	3069181952	52	3964
2026-01-25 14:10:54.47	322.41	12.69	-40.5	-41.3	22.6	0.00e+00	0	43	0	3092250624	52	4002
2026-01-25 14:10:58.47	322.98	12.43	-40.9	-41.8	22.2	0.00e+00	0	43	0	3114270720	52	4210
2026-01-25 14:11:02.47	323.55	12.17	-41.0	-41.9	22.1	0.00e+00	0	43	0	3137339392	52	4243
2026-01-25 14:11:06.48	324.10	11.91	-40.8	-41.6	22.3	0.00e+00	0	43	0	3159359488	52	4104
2026-01-25 14:11:10.47	324.64	11.65	-40.8	-41.6	22.2	0.00e+00	0	43	0	3182428160	52	4140
2026-01-25 14:11:14.47	325.18	11.39	-41.1	-41.9	21.9	0.00e+00	0	43	0	3204448256	52	4274
2026-01-25 14:11:18.46	325.70	11.13	-41.3	-42.2	21.6	0.00e+00	0	43	0	3227516928	53	4183
2026-01-25 14:11:22.45	326.22	10.87	-41.4	-42.3	21.5	0.00e+00	0	44	0	3249537024	53	4234
2026-01-25 14:11:26.44	326.72	10.62	-41.4	-42.2	21.6	0.00e+00	0	44	0	3272605696	53	4189
2026-01-25 14:11:30.44	327.22	10.36	-41.5	-42.3	21.5	0.00e+00	0	44	0	3294625792	53	4230
2026-01-25 14:11:34.43	327.71	10.10	-41.6	-42.4	21.4	0.00e+00	0	44	0	3317694464	53	4284
2026-01-25 14:11:38.42	328.20	9.85	-41.7	-42.5	21.2	0.00e+00	0	44	0	3339714560	54	4088
2026-01-25 14:11:42.42	328.67	9.59	-41.6	-42.5	21.3	0.00e+00	0	44	0	3361734656	54	4071
2026-01-25 14:11:46.41	329.14	9.34	-41.6	-42.5	21.3	0.00e+00	0	44	0	3384803328	54	4056
2026-01-25 14:11:50.41	329.60	9.09	-41.8	-42.7	21.1	0.00e+00	0	43	0	3406823424	54	4153
2026-01-25 14:11:54.42	330.05	8.84	-41.9	-42.8	20.9	0.00e+00	0	44	0	3429892096	54	4216
2026-01-25 14:11:58.41	330.49	8.59	-41.8	-42.7	21.0	0.00e+00	0	43	0	3451912192	54	4192
2026-01-25 14:12:02.41	330.93	8.34	-41.8	-42.7	21.0	0.00e+00	0	44	0	3474980864	54	4147
2026-01-25 14:12:06.41	331.36	8.09	-41.8	-42.7	21.0	0.00e+00	0	43	0	3497000960	54	4159
2026-01-25 14:12:10.41	331.78	7.84	-41.8	-42.7	20.9	0.00e+00	0	43	0	3520069632	54	4162
2026-01-25 14:12:14.40	332.20	7.60	-42.0	-42.9	20.7	0.00e+00	0	44	0	3542089728	54	4271
2026-01-25 14:12:18.40	332.61	7.35	-42.3	-43.3	20.3	0.00e+00	0	44	0	3565158400	55	4218
2026-01-25 14:12:22.40	333.01	7.11	-42.4	-43.4	20.2	0.00e+00	0	43	0	3587178496	56	4038
2026-01-25 14:12:26.41	333.41	6.87	-42.8	-43.8	19.9	0.00e+00	0	44	0	3609198592	56	4212
2026-01-25 14:12:30.41	333.80	6.63	-42.9	-44.0	19.6	0.00e+00	0	44	0	3632267264	56	4296
2026-01-25 14:12:34.39	334.19	6.39	-43.2	-44.3	19.3	0.00e+00	0	44	0	3654287360	57	4210
2026-01-25 14:12:38.40	334.57	6.15	-43.1	-44.2	19.4	0.00e+00	0	44	0	3677356032	57	4148
2026-01-25 14:12:42.40	334.94	5.91	-42.7	-43.7	19.8	0.00e+00	0	43	0	3699376128	57	3946
2026-01-25 14:12:46.39	335.31	5.68	-42.9	-43.9	19.6	0.00e+00	0	43	0	3722444800	57	4016
2026-01-25 14:12:50.38	335.67	5.44	-42.9	-44.0	19.5	0.00e+00	0	44	0	3744464896	57	4056
2026-01-25 14:12:54.38	336.02	5.21	-43.3	-44.4	19.1	0.00e+00	0	44	0	3766484992	57	4246
2026-01-25 14:12:58.37	336.37	4.98	-52.5	-64.3	3.8	8.46e-01	0	44	104	3785359360	75	14997
2026-01-25 14:13:02.38	336.72	4.74	-53.2	-65.1	3.8	8.47e-01	0	44	104	3785359360	76	15518
2026-01-25 14:13:06.37	337.06	4.51	-53.4	-65.4	3.8	8.45e-01	0	44	104	3785359360	77	15058
2026-01-25 14:13:10.37	337.40	4.29	-53.1	-65.0	3.8	8.46e-01	0	44	104	3785359360	77	14535
2026-01-25 14:13:14.36	337.73	4.06	-53.2	-65.1	3.8	8.46e-01	0	43	104	3785359360	77	14621
2026-01-25 14:13:18.34	338.05	3.83	-53.2	-65.1	3.8	8.46e-01	0	44	104	3785359360	77	14615
2026-01-25 14:13:22.33	338.37	3.61	-53.1	-65.0	3.8	8.47e-01	0	44	104	3785359360	77	14473
2026-01-25 14:13:26.32	338.69	3.38	-53.0	-65.0	3.8	8.47e-01	0	44	104	3785359360	77	14430
2026-01-25 14:13:30.31	339.00	3.16	-53.0	-65.0	3.8	8.46e-01	0	44	104	3785359360	77	14375
2026-01-25 14:13:34.30	339.31	2.94	-53.0	-64.9	3.8	8.45e-01	0	44	104	3785359360	77	14308
2026-01-25 14:13:38.30	339.61	2.72	-52.9	-64.9	3.8	8.45e-01	0	44	104	3785359360	77	14261
2026-01-25 14:13:42.29	339.91	2.50	-52.9	-64.9	3.8	8.46e-01	0	44	104	3785359360	77	14227
2026-01-25 14:13:46.29	340.21	2.28	-52.9	-64.8	3.8	8.46e-01	0	44	104	3785359360	77	14207
2026-01-25 14:13:50.28	340.50	2.06	-52.9	-64.8	3.8	8.45e-01	0	44	104	3785359360	77	14206

#Closed at: 2026-01-25 14:13:53
#Recorded file [3785 MB]: D:/lorett/data/31041_260125_170100.dat