passes_logs/2026/01/25/R3.2S_Murmansk/R3.2S_Murmansk__20260125_064253_NOAA_20_JPSS-1_rec.log

#Pass ID: 20260125_064253_NOAA 20 (JPSS-1)
#Satellite: NOAA 20 (JPSS-1)
#Configuration: NOAA 20
#almurnet v.1.7.20251203
#Start time: 2026-01-25 06:42:53

#Version: 2.2.20231116
#Station: R3.2S_Murmansk
#Location: 33.079688 lon 68.888172 lat
#TLE: 1 43013U 17073A   26024.91598314  .00000178  00000+0  10511-3 0  9999
#TLE: 2 43013  98.7646 325.7511 0001081  25.0859 335.0369 14.19539982424141

#Time	Az	El	Level	Level2	SNR	BER	BlckErr	Temp	State	Recorded	gain1	gain2
2026-01-25 06:42:53.07	89.22	1.96	-52.2	-67.1	3.8	1.49e+00	0	43	0	0	76	19521
2026-01-25 06:42:57.09	89.00	2.20	-52.1	-67.1	3.8	1.49e+00	0	43	104	0	74	21863
2026-01-25 06:43:01.13	88.77	2.44	-52.1	-67.1	3.8	1.49e+00	0	43	104	0	74	21765
2026-01-25 06:43:05.16	88.55	2.68	-52.1	-67.1	3.8	1.49e+00	0	43	104	0	74	21786
2026-01-25 06:43:09.20	88.31	2.92	-52.1	-67.0	3.8	1.49e+00	0	43	104	0	74	21676
2026-01-25 06:43:13.23	88.08	3.17	-52.1	-67.0	3.8	1.49e+00	0	43	104	0	74	21656
2026-01-25 06:43:17.27	87.84	3.41	-52.1	-67.0	3.8	1.49e+00	0	44	104	0	74	21754
2026-01-25 06:43:21.31	87.59	3.66	-52.1	-67.0	3.8	1.49e+00	0	44	104	0	74	21633
2026-01-25 06:43:25.34	87.34	3.91	-52.1	-66.6	3.8	1.49e+00	0	44	104	0	74	20609
2026-01-25 06:43:29.37	87.09	4.16	-52.0	-64.7	3.9	1.48e+00	0	44	104	0	74	16670
2026-01-25 06:43:33.41	86.83	4.42	-52.0	-64.0	4.1	1.45e+00	0	44	0	0	74	15377
2026-01-25 06:43:37.43	86.57	4.67	-51.0	-57.3	8.4	7.26e-02	0	44	0	5242880	74	7096
2026-01-25 06:43:41.47	86.30	4.93	-49.8	-53.8	12.1	3.78e-04	0	44	0	12582912	71	5649
2026-01-25 06:43:45.50	86.03	5.18	-49.6	-53.2	12.9	1.09e-02	0	44	0	20971520	71	5249
2026-01-25 06:43:49.54	85.75	5.45	-48.3	-50.8	15.4	5.90e-02	0	44	0	25165824	68	4739
2026-01-25 06:43:53.57	85.47	5.71	-47.8	-50.2	16.0	0.00e+00	0	44	0	33554432	67	4686
2026-01-25 06:43:57.60	85.18	5.97	-47.9	-50.2	16.0	0.00e+00	0	44	0	40894464	67	4691
2026-01-25 06:44:01.64	84.89	6.24	-48.0	-50.4	15.9	0.00e+00	0	44	0	48234496	67	4795
2026-01-25 06:44:05.67	84.59	6.51	-48.2	-50.8	15.6	0.00e+00	0	44	0	55574528	67	4992
2026-01-25 06:44:09.70	84.28	6.78	-47.7	-49.9	16.4	0.00e+00	0	44	0	62914560	67	4523
2026-01-25 06:44:13.74	83.97	7.05	-47.9	-50.3	16.1	0.00e+00	0	44	0	71303168	67	4726
2026-01-25 06:44:17.77	83.65	7.32	-47.6	-49.7	16.7	0.00e+00	0	44	0	78643200	67	4415
2026-01-25 06:44:21.80	83.33	7.60	-47.2	-49.2	17.2	0.00e+00	0	44	0	85983232	66	4441
2026-01-25 06:44:25.83	83.00	7.88	-47.4	-49.5	16.9	0.00e+00	0	44	0	93323264	66	4579
2026-01-25 06:44:29.87	82.66	8.16	-47.1	-49.1	17.4	0.00e+00	0	45	0	101711872	66	4352
2026-01-25 06:44:33.90	82.32	8.44	-47.1	-49.0	17.5	0.00e+00	0	45	0	109051904	65	4589
2026-01-25 06:44:37.93	81.97	8.73	-47.0	-48.9	17.6	0.00e+00	0	45	0	116391936	65	4540
2026-01-25 06:44:41.97	81.61	9.01	-47.1	-49.0	17.5	0.00e+00	0	45	0	123731968	65	4588
2026-01-25 06:44:46.00	81.24	9.30	-47.2	-49.2	17.4	0.00e+00	0	45	0	131072000	65	4677
2026-01-25 06:44:50.03	80.87	9.59	-47.2	-49.2	17.4	0.00e+00	0	45	0	138412032	65	4652
2026-01-25 06:44:54.06	80.49	9.89	-47.1	-48.9	17.6	0.00e+00	0	45	0	146800640	65	4534
2026-01-25 06:44:58.09	80.10	10.18	-47.0	-48.8	17.8	0.00e+00	0	45	0	154140672	65	4467
2026-01-25 06:45:02.13	79.71	10.48	-47.1	-49.0	17.7	0.00e+00	0	45	0	161480704	65	4554
2026-01-25 06:45:06.16	79.30	10.78	-46.9	-48.7	18.0	0.00e+00	0	45	0	168820736	65	4399
2026-01-25 06:45:10.19	78.89	11.09	-47.0	-48.8	17.8	0.00e+00	0	45	0	177209344	65	4479
2026-01-25 06:45:14.23	78.46	11.39	-47.0	-48.9	17.8	0.00e+00	0	45	0	184549376	65	4501
2026-01-25 06:45:18.26	78.03	11.70	-47.0	-48.8	17.9	0.00e+00	0	45	0	191889408	65	4485
2026-01-25 06:45:22.29	77.59	12.01	-46.8	-48.6	18.2	0.00e+00	0	45	0	199229440	65	4354
2026-01-25 06:45:26.33	77.14	12.32	-46.8	-48.5	18.3	0.00e+00	0	45	0	206569472	65	4317
2026-01-25 06:45:30.36	76.68	12.63	-46.8	-48.6	18.2	0.00e+00	0	45	0	214958080	65	4351
2026-01-25 06:45:34.39	76.21	12.95	-46.6	-48.3	18.4	0.00e+00	0	45	0	222298112	65	4215
2026-01-25 06:45:38.42	75.73	13.27	-46.7	-48.4	18.3	0.00e+00	0	45	0	229638144	65	4281
2026-01-25 06:45:42.45	75.23	13.59	-46.6	-48.3	18.6	0.00e+00	0	45	0	236978176	65	4194
2026-01-25 06:45:46.49	74.73	13.91	-46.5	-48.2	18.6	0.00e+00	0	45	0	245366784	65	4169
2026-01-25 06:45:50.52	74.21	14.23	-46.4	-48.0	18.8	0.00e+00	0	45	0	252706816	64	4325
2026-01-25 06:45:54.55	73.69	14.56	-46.2	-47.8	19.1	0.00e+00	0	45	0	260046848	64	4197
2026-01-25 06:45:58.58	73.15	14.89	-46.2	-47.8	19.1	0.00e+00	0	45	0	267386880	64	4207
2026-01-25 06:46:02.61	72.60	15.22	-46.1	-47.6	19.2	0.00e+00	0	45	0	274726912	64	4112
2026-01-25 06:46:06.65	72.04	15.55	-46.0	-47.4	19.5	0.00e+00	0	45	0	282066944	63	4274
2026-01-25 06:46:10.68	71.46	15.88	-45.9	-47.3	19.6	0.00e+00	0	45	0	290455552	63	4239
2026-01-25 06:46:14.71	70.87	16.22	-46.0	-47.5	19.5	0.00e+00	0	45	0	297795584	63	4317
2026-01-25 06:46:18.75	70.27	16.55	-46.0	-47.5	19.5	0.00e+00	0	45	0	305135616	63	4309
2026-01-25 06:46:22.78	69.65	16.89	-45.9	-47.4	19.6	0.00e+00	0	45	0	312475648	63	4264
2026-01-25 06:46:26.81	69.02	17.23	-45.9	-47.4	19.6	0.00e+00	0	45	0	320864256	63	4261
2026-01-25 06:46:30.78	68.38	17.56	-46.1	-47.5	19.5	0.00e+00	0	45	0	328204288	63	4329
2026-01-25 06:46:34.82	67.72	17.90	-46.0	-47.5	19.5	0.00e+00	0	45	0	335544320	63	4303
2026-01-25 06:46:38.85	67.05	18.24	-46.2	-47.7	19.4	0.00e+00	0	45	0	342884352	63	4406
2026-01-25 06:46:42.89	66.36	18.59	-46.4	-48.0	19.0	0.00e+00	0	45	0	350224384	63	4569
2026-01-25 06:46:46.92	65.65	18.93	-46.2	-47.7	19.4	0.00e+00	0	45	0	358612992	63	4393
2026-01-25 06:46:50.95	64.93	19.27	-46.1	-47.5	19.6	0.00e+00	0	45	0	365953024	63	4327
2026-01-25 06:46:54.98	64.19	19.61	-46.1	-47.5	19.6	0.00e+00	0	45	0	373293056	63	4320
2026-01-25 06:46:59.01	63.43	19.95	-46.1	-47.6	19.5	0.00e+00	0	45	0	380633088	63	4358
2026-01-25 06:47:03.04	62.66	20.29	-46.0	-47.5	19.6	0.00e+00	0	45	0	387973120	63	4313
2026-01-25 06:47:07.08	61.86	20.63	-45.8	-47.2	19.9	0.00e+00	0	45	0	396361728	63	4168
2026-01-25 06:47:11.11	61.06	20.97	-45.6	-46.9	20.2	0.00e+00	0	45	0	403701760	63	4046
2026-01-25 06:47:15.15	60.23	21.31	-45.3	-46.6	20.5	0.00e+00	0	45	0	411041792	62	4121
2026-01-25 06:47:19.18	59.38	21.64	-45.0	-46.2	20.9	0.00e+00	0	45	0	418381824	62	3931
2026-01-25 06:47:23.21	58.52	21.97	-45.0	-46.2	20.9	0.00e+00	0	45	0	426770432	61	4192
2026-01-25 06:47:27.24	57.64	22.30	-44.8	-46.0	21.1	0.00e+00	0	45	0	434110464	61	4070
2026-01-25 06:47:31.28	56.73	22.62	-44.7	-45.9	21.3	0.00e+00	0	45	0	441450496	61	4012
2026-01-25 06:47:35.31	55.81	22.95	-44.6	-45.7	21.3	0.00e+00	0	45	0	448790528	60	4180
2026-01-25 06:47:39.34	54.87	23.26	-44.6	-45.7	21.4	0.00e+00	0	45	0	456130560	60	4177
2026-01-25 06:47:43.38	53.91	23.58	-44.7	-45.9	21.3	0.00e+00	0	45	0	464519168	60	4247
2026-01-25 06:47:47.41	52.93	23.88	-44.8	-46.0	21.2	0.00e+00	0	45	0	471859200	60	4317
2026-01-25 06:47:51.44	51.93	24.18	-44.6	-45.8	21.4	0.00e+00	0	45	0	479199232	60	4200
2026-01-25 06:47:55.48	50.92	24.48	-44.7	-45.8	21.3	0.00e+00	0	45	0	486539264	60	4226
2026-01-25 06:47:59.51	49.88	24.77	-44.8	-46.0	21.2	0.00e+00	0	45	0	494927872	60	4319
2026-01-25 06:48:03.54	48.82	25.05	-45.0	-46.3	20.9	0.00e+00	0	45	0	502267904	60	4452
2026-01-25 06:48:07.57	47.75	25.32	-44.6	-45.8	21.4	0.00e+00	0	45	0	509607936	60	4197
2026-01-25 06:48:11.60	46.66	25.59	-44.5	-45.6	21.5	0.00e+00	0	45	0	516947968	60	4117
2026-01-25 06:48:15.64	45.55	25.84	-44.5	-45.6	21.5	0.00e+00	0	45	0	524288000	60	4135
2026-01-25 06:48:19.67	44.42	26.09	-44.4	-45.6	21.6	0.00e+00	0	45	0	531628032	60	4102
2026-01-25 06:48:23.70	43.27	26.32	-44.4	-45.5	21.6	0.00e+00	0	45	0	540016640	60	4080
2026-01-25 06:48:27.73	42.11	26.55	-44.7	-45.9	21.3	0.00e+00	0	45	0	547356672	60	4263
2026-01-25 06:48:31.77	40.93	26.76	-44.9	-46.1	21.1	0.00e+00	0	45	0	554696704	60	4368
2026-01-25 06:48:35.80	39.73	26.96	-45.4	-46.7	20.6	0.00e+00	0	45	0	562036736	61	4392
2026-01-25 06:48:39.83	38.52	27.15	-45.4	-46.7	20.4	0.00e+00	0	45	0	570425344	61	4435
2026-01-25 06:48:43.86	37.30	27.33	-45.8	-47.2	20.1	0.00e+00	0	45	0	577765376	62	4395
2026-01-25 06:48:47.90	36.06	27.49	-45.7	-47.0	20.3	0.00e+00	0	45	0	585105408	62	4302
2026-01-25 06:48:51.93	34.81	27.64	-46.0	-47.4	19.9	0.00e+00	0	45	0	592445440	62	4527
2026-01-25 06:48:55.96	33.56	27.77	-46.0	-47.4	19.9	0.00e+00	0	45	0	599785472	63	4276
2026-01-25 06:48:59.99	32.29	27.89	-46.3	-47.7	19.7	0.00e+00	0	45	0	608174080	63	4425
2026-01-25 06:49:04.02	31.01	27.99	-46.5	-48.0	19.4	0.00e+00	0	45	0	615514112	63	4577
2026-01-25 06:49:08.06	29.72	28.08	-46.6	-48.1	19.2	0.00e+00	0	45	0	622854144	64	4376
2026-01-25 06:49:12.09	28.43	28.15	-46.5	-48.0	19.3	0.00e+00	0	45	0	630194176	64	4312
2026-01-25 06:49:16.12	27.13	28.20	-46.9	-48.5	18.8	0.00e+00	0	45	0	637534208	64	4572
2026-01-25 06:49:20.15	25.83	28.24	-46.3	-47.7	19.6	0.00e+00	0	45	0	645922816	64	4170
2026-01-25 06:49:24.19	24.53	28.26	-46.1	-47.5	19.7	0.00e+00	0	45	0	653262848	64	4092
2026-01-25 06:49:28.22	23.22	28.27	-46.1	-47.5	19.7	0.00e+00	0	45	0	660602880	63	4340
2026-01-25 06:49:32.26	21.91	28.26	-46.0	-47.4	19.9	0.00e+00	0	45	0	667942912	63	4268
2026-01-25 06:49:36.28	20.61	28.23	-46.0	-47.4	20.0	0.00e+00	0	45	0	675282944	63	4286
2026-01-25 06:49:40.32	19.31	28.19	-45.8	-47.1	20.2	0.00e+00	0	45	0	683671552	63	4142
2026-01-25 06:49:44.35	18.02	28.13	-45.6	-46.9	20.3	0.00e+00	0	45	0	691011584	63	4038
2026-01-25 06:49:48.38	16.73	28.05	-45.1	-46.4	20.9	0.00e+00	0	45	0	698351616	62	4006
2026-01-25 06:49:52.42	15.44	27.96	-44.9	-46.1	21.2	0.00e+00	0	45	0	705691648	61	4129
2026-01-25 06:49:56.46	14.16	27.85	-44.9	-46.1	21.2	0.00e+00	0	45	0	714080256	61	4122
2026-01-25 06:50:00.49	12.90	27.73	-45.0	-46.2	21.1	0.00e+00	0	45	0	721420288	61	4150
2026-01-25 06:50:04.52	11.64	27.59	-45.1	-46.3	21.0	0.00e+00	0	45	0	728760320	61	4196
2026-01-25 06:50:08.55	10.40	27.44	-45.0	-46.2	21.1	0.00e+00	0	45	0	736100352	61	4192
2026-01-25 06:50:12.58	9.17	27.27	-45.6	-46.9	20.4	0.00e+00	0	45	0	743440384	61	4529
2026-01-25 06:50:16.62	7.95	27.09	-45.8	-47.2	20.2	0.00e+00	0	45	0	751828992	62	4404
2026-01-25 06:50:20.65	6.75	26.90	-46.0	-47.3	20.1	0.00e+00	0	45	0	759169024	62	4474
2026-01-25 06:50:24.68	5.56	26.70	-46.4	-47.9	19.5	0.00e+00	0	45	0	766509056	63	4500
2026-01-25 06:50:28.71	4.39	26.48	-46.3	-47.7	19.7	0.00e+00	0	45	0	773849088	63	4412
2026-01-25 06:50:32.75	3.23	26.25	-46.5	-48.0	19.3	0.00e+00	0	45	0	781189120	63	4570
2026-01-25 06:50:36.79	2.09	26.01	-46.5	-47.9	19.3	0.00e+00	0	45	0	789577728	64	4291
2026-01-25 06:50:40.82	0.97	25.77	-46.4	-47.8	19.5	0.00e+00	0	45	0	796917760	64	4234
2026-01-25 06:50:44.85	359.86	25.51	-46.4	-47.8	19.4	0.00e+00	0	45	0	804257792	64	4239
2026-01-25 06:50:48.89	358.77	25.24	-46.2	-47.6	19.6	0.00e+00	0	45	0	811597824	64	4138
2026-01-25 06:50:52.92	357.71	24.96	-46.0	-47.4	19.9	0.00e+00	0	45	0	819986432	63	4267
2026-01-25 06:50:56.95	356.66	24.68	-45.9	-47.3	20.0	0.00e+00	0	45	0	827326464	63	4207
2026-01-25 06:51:00.99	355.63	24.39	-45.6	-46.9	20.3	0.00e+00	0	45	0	834666496	63	4047
2026-01-25 06:51:05.02	354.62	24.09	-45.4	-46.7	20.5	0.00e+00	0	45	0	842006528	62	4170
2026-01-25 06:51:09.06	353.63	23.79	-45.3	-46.5	20.7	0.00e+00	0	45	0	849346560	62	4077
2026-01-25 06:51:13.09	352.66	23.48	-45.1	-46.3	20.9	0.00e+00	0	45	0	857735168	62	3985
2026-01-25 06:51:17.12	351.71	23.17	-44.9	-46.0	21.1	0.00e+00	0	45	0	865075200	61	4091
2026-01-25 06:51:21.16	350.77	22.85	-44.6	-45.8	21.3	0.00e+00	0	45	0	872415232	61	3986
2026-01-25 06:51:25.19	349.86	22.53	-44.6	-45.8	21.3	0.00e+00	0	45	0	879755264	61	3978
2026-01-25 06:51:29.22	348.97	22.20	-44.2	-45.3	21.8	0.00e+00	0	45	0	887095296	60	3974
2026-01-25 06:51:33.26	348.09	21.87	-44.5	-45.6	21.8	0.00e+00	0	45	0	895483904	59	4363
2026-01-25 06:51:37.29	347.23	21.54	-44.2	-45.2	22.1	0.00e+00	0	45	0	902823936	59	4189
2026-01-25 06:51:41.32	346.40	21.21	-43.9	-45.0	22.4	0.00e+00	0	45	0	910163968	59	4073
2026-01-25 06:51:45.36	345.58	20.87	-43.7	-44.7	22.6	0.00e+00	0	45	0	917504000	59	3936
2026-01-25 06:51:49.39	344.77	20.53	-43.8	-44.8	22.5	0.00e+00	0	45	0	924844032	59	3991
2026-01-25 06:51:53.42	343.99	20.20	-43.8	-44.9	22.5	0.00e+00	0	45	0	933232640	59	4007
2026-01-25 06:51:57.46	343.22	19.86	-43.9	-45.0	22.4	0.00e+00	0	45	0	940572672	59	4059
2026-01-25 06:52:01.50	342.47	19.51	-43.9	-45.0	22.3	0.00e+00	0	45	0	947912704	59	4054
2026-01-25 06:52:05.53	341.74	19.17	-44.0	-45.1	22.2	0.00e+00	0	45	0	955252736	59	4125
2026-01-25 06:52:09.55	341.03	18.83	-44.2	-45.3	22.0	0.00e+00	0	45	0	963641344	59	4214
2026-01-25 06:52:13.59	340.32	18.49	-44.3	-45.4	21.9	0.00e+00	0	45	0	970981376	59	4286
2026-01-25 06:52:17.62	339.64	18.15	-44.5	-45.7	21.7	0.00e+00	0	45	0	978321408	59	4397
2026-01-25 06:52:21.66	338.97	17.81	-44.6	-45.8	21.2	0.00e+00	0	45	0	985661440	60	4232
2026-01-25 06:52:25.69	338.32	17.47	-44.9	-46.2	20.9	0.00e+00	0	45	0	993001472	60	4392
2026-01-25 06:52:29.72	337.68	17.13	-44.9	-46.2	20.8	0.00e+00	0	45	0	1001390080	60	4404
2026-01-25 06:52:33.75	337.05	16.80	-44.8	-46.0	21.1	0.00e+00	0	45	0	1008730112	60	4311
2026-01-25 06:52:37.78	336.44	16.46	-45.1	-46.3	20.7	0.00e+00	0	45	0	1016070144	60	4471
2026-01-25 06:52:41.81	335.85	16.13	-45.1	-46.4	20.6	0.00e+00	0	45	0	1023410176	60	4510
2026-01-25 06:52:45.84	335.26	15.79	-45.2	-46.5	20.5	0.00e+00	0	45	0	1030750208	61	4313
2026-01-25 06:52:49.88	334.69	15.46	-45.3	-46.6	20.4	0.00e+00	0	45	0	1039138816	61	4388
2026-01-25 06:52:53.91	334.14	15.13	-45.3	-46.7	20.3	0.00e+00	0	45	0	1046478848	61	4393
2026-01-25 06:52:57.94	333.59	14.80	-45.6	-46.9	20.1	3.00e-06	0	45	0	1053818880	61	4531
2026-01-25 06:53:01.97	333.06	14.48	-45.6	-46.9	20.0	0.00e+00	0	45	0	1061158912	62	4289
2026-01-25 06:53:06.00	332.54	14.15	-45.8	-47.2	19.8	0.00e+00	0	45	0	1068498944	62	4407
2026-01-25 06:53:10.03	332.03	13.83	-45.9	-47.3	19.7	0.00e+00	0	45	0	1076887552	62	4469
2026-01-25 06:53:14.06	331.53	13.51	-46.2	-47.7	19.2	0.00e+00	0	45	0	1084227584	62	4705
2026-01-25 06:53:18.10	331.04	13.19	-46.5	-48.1	18.9	1.50e-06	0	45	0	1091567616	63	4604
2026-01-25 06:53:22.13	330.57	12.87	-46.4	-48.0	19.0	0.00e+00	0	45	0	1098907648	63	4562
2026-01-25 06:53:26.16	330.10	12.56	-46.4	-47.9	19.0	0.00e+00	0	45	0	1107296256	63	4531
2026-01-25 06:53:30.18	329.65	12.25	-46.5	-48.1	18.8	0.00e+00	0	45	0	1114636288	63	4634
2026-01-25 06:53:34.21	329.20	11.93	-46.6	-48.3	18.6	0.00e+00	0	45	0	1121976320	63	4711
2026-01-25 06:53:38.25	328.76	11.63	-46.6	-48.2	18.7	0.00e+00	0	45	0	1129316352	63	4691
2026-01-25 06:53:42.28	328.33	11.32	-46.4	-48.0	18.9	0.00e+00	0	45	0	1136656384	63	4555
2026-01-25 06:53:46.31	327.92	11.02	-46.7	-48.3	18.5	0.00e+00	0	45	0	1145044992	63	4737
2026-01-25 06:53:50.35	327.51	10.72	-46.7	-48.4	18.4	0.00e+00	0	45	0	1152385024	64	4500
2026-01-25 06:53:54.38	327.11	10.42	-46.9	-48.7	18.0	0.00e+00	0	45	0	1159725056	64	4681
2026-01-25 06:53:58.42	326.71	10.12	-47.0	-48.8	17.9	0.00e+00	0	45	0	1167065088	64	4727
2026-01-25 06:54:02.44	326.33	9.82	-47.2	-49.1	17.6	0.00e+00	0	45	0	1174405120	64	4881
2026-01-25 06:54:06.48	325.95	9.53	-47.3	-49.3	17.3	0.00e+00	0	45	0	1182793728	65	4739
2026-01-25 06:54:10.51	325.58	9.24	-47.2	-49.2	17.4	0.00e+00	0	45	0	1190133760	65	4662
2026-01-25 06:54:14.54	325.22	8.95	-47.2	-49.2	17.4	0.00e+00	0	45	0	1197473792	65	4656
2026-01-25 06:54:18.57	324.87	8.67	-47.0	-48.9	17.7	0.00e+00	0	45	0	1204813824	65	4498
2026-01-25 06:54:22.61	324.52	8.38	-47.4	-49.4	17.1	0.00e+00	0	45	0	1212153856	65	4779
2026-01-25 06:54:26.64	324.18	8.10	-47.3	-49.3	17.2	0.00e+00	0	45	0	1220542464	65	4712
2026-01-25 06:54:30.67	323.85	7.82	-47.4	-49.4	17.0	0.00e+00	0	45	0	1227882496	65	4810
2026-01-25 06:54:34.70	323.52	7.55	-47.3	-49.3	17.1	0.00e+00	0	45	0	1235222528	65	4748
2026-01-25 06:54:38.74	323.20	7.27	-47.6	-49.7	16.7	0.00e+00	0	45	0	1242562560	65	4971
2026-01-25 06:54:42.77	322.89	7.00	-47.8	-50.0	16.4	0.00e+00	0	45	0	1249902592	66	4841
2026-01-25 06:54:46.81	322.58	6.72	-48.0	-50.4	15.9	0.00e+00	0	45	0	1258291200	66	5065
2026-01-25 06:54:50.84	322.28	6.46	-48.0	-50.4	15.9	0.00e+00	0	45	0	1265631232	66	5073
2026-01-25 06:54:54.87	321.98	6.19	-48.0	-50.4	15.9	0.00e+00	0	45	0	1272971264	66	5081
2026-01-25 06:54:58.90	321.69	5.92	-48.1	-50.6	15.6	0.00e+00	0	45	0	1280311296	66	5186
2026-01-25 06:55:02.93	321.41	5.66	-48.2	-50.7	15.6	7.00e-07	0	45	0	1288699904	67	4947
2026-01-25 06:55:06.96	321.13	5.40	-48.0	-50.5	15.8	0.00e+00	0	45	0	1296039936	67	4830
2026-01-25 06:55:11.00	320.85	5.14	-48.2	-50.8	15.4	0.00e+00	0	45	0	1303379968	67	5021
2026-01-25 06:55:15.03	320.58	4.88	-52.8	-67.8	3.8	1.49e+00	0	45	104	1308622848	76	21147
2026-01-25 06:55:19.07	320.32	4.63	-53.6	-68.6	3.8	1.49e+00	0	45	104	1308622848	77	21894
2026-01-25 06:55:23.10	320.06	4.37	-54.0	-69.0	3.8	1.49e+00	0	45	104	1308622848	78	21574
2026-01-25 06:55:27.14	319.80	4.12	-54.3	-69.2	3.8	1.49e+00	0	45	104	1308622848	79	20972
2026-01-25 06:55:31.17	319.55	3.87	-54.3	-69.3	3.8	1.49e+00	0	45	104	1308622848	79	21123
2026-01-25 06:55:35.21	319.31	3.62	-54.2	-69.1	3.8	1.49e+00	0	45	104	1308622848	79	20677
2026-01-25 06:55:39.24	319.06	3.37	-54.1	-69.1	3.8	1.49e+00	0	45	104	1308622848	79	20578
2026-01-25 06:55:43.27	318.83	3.13	-54.1	-69.0	3.8	1.49e+00	0	45	104	1308622848	79	20447
2026-01-25 06:55:47.30	318.59	2.89	-54.0	-69.0	3.8	1.49e+00	0	45	104	1308622848	79	20370
2026-01-25 06:55:51.34	318.37	2.64	-54.0	-69.0	3.8	1.49e+00	0	45	104	1308622848	79	20362
2026-01-25 06:55:55.38	318.14	2.40	-54.0	-68.9	3.8	1.49e+00	0	45	104	1308622848	79	20271
2026-01-25 06:55:59.41	317.92	2.17	-54.0	-68.9	3.8	1.49e+00	0	45	104	1308622848	79	20284
2026-01-25 06:56:03.44	317.70	1.93	-53.9	-68.9	3.8	1.49e+00	0	45	104	1308622848	79	20192

#Closed at: 2026-01-25 06:56:04
#Recorded file [1308 MB]: D:/lorett/data/31041_260125_094252.dat