passes_logs/2026/01/25/R3.2S_Murmansk/R3.2S_Murmansk__20260125_070446_KANOPUS-V_5_rec.log

#Pass ID: 20260125_070446_KANOPUS-V 5
#Satellite: KANOPUS-V 5
#Configuration: KANOPUS-V_8320
#almurnet v.1.7.20251203
#Start time: 2026-01-25 07:04:47

#Version: 2.2.20231116
#Station: R3.2S_Murmansk
#Location: 33.079688 lon 68.888172 lat
#TLE: 1 43876U 18111A   26024.95715628  .00005617  00000+0  23806-3 0  9997
#TLE: 2 43876  97.3675 293.2916 0001833  88.4697 271.6750 15.23533298392986

#Time	Az	El	Level	Level2	SNR	BER	BlckErr	Temp	State	Recorded	gain1	gain2
2026-01-25 07:04:47.43	140.37	2.10	-52.9	-61.8	3.8	7.44e-01	0	43	0	0	77	9976
2026-01-25 07:04:50.45	140.30	2.31	-52.9	-61.8	3.8	7.45e-01	0	43	104	0	76	10570
2026-01-25 07:04:53.48	140.22	2.52	-52.9	-61.7	3.8	7.45e-01	0	43	104	0	76	10509
2026-01-25 07:04:56.51	140.14	2.74	-52.9	-61.7	3.8	7.46e-01	0	43	104	0	76	10508
2026-01-25 07:04:59.54	140.06	2.96	-52.9	-61.7	3.8	7.44e-01	0	43	104	0	76	10522
2026-01-25 07:05:02.54	139.98	3.18	-52.9	-61.7	3.8	7.45e-01	0	43	104	0	76	10527
2026-01-25 07:05:05.57	139.90	3.40	-52.9	-61.7	3.8	7.46e-01	0	43	104	0	76	10489
2026-01-25 07:05:08.59	139.81	3.63	-52.9	-61.8	3.8	7.45e-01	0	43	104	0	76	10538
2026-01-25 07:05:11.62	139.73	3.86	-52.9	-61.7	3.8	7.46e-01	0	43	104	0	76	10520
2026-01-25 07:05:14.64	139.64	4.09	-52.9	-61.8	3.8	7.45e-01	0	43	104	0	76	10540
2026-01-25 07:05:17.66	139.55	4.32	-52.9	-61.7	3.8	7.46e-01	0	44	104	0	76	10511
2026-01-25 07:05:20.69	139.45	4.56	-52.9	-61.8	3.8	7.45e-01	0	44	104	0	76	10543
2026-01-25 07:05:23.71	139.36	4.80	-52.9	-61.7	3.8	7.46e-01	0	44	104	0	76	10522
2026-01-25 07:05:26.74	139.26	5.04	-52.9	-61.8	3.8	7.45e-01	0	44	104	0	76	10556
2026-01-25 07:05:29.76	139.16	5.29	-50.4	-54.5	6.1	6.78e-01	0	44	104	0	71	6067
2026-01-25 07:05:32.78	139.06	5.53	-48.5	-51.5	9.0	6.33e-01	0	44	0	2097152	69	4839
2026-01-25 07:05:35.80	138.95	5.78	-48.3	-51.2	9.7	6.27e-01	0	44	0	48234496	67	5226
2026-01-25 07:05:38.83	138.85	6.04	-47.6	-50.2	10.5	6.21e-01	0	44	0	94371840	66	4975
2026-01-25 07:05:41.85	138.74	6.30	-45.2	-47.3	13.3	6.11e-01	0	44	0	140509184	62	4485
2026-01-25 07:05:44.88	138.63	6.56	-44.1	-46.0	14.5	6.10e-01	0	44	0	186646528	60	4316
2026-01-25 07:05:47.90	138.51	6.82	-44.0	-46.0	14.5	6.09e-01	0	44	0	232783872	59	4565
2026-01-25 07:05:50.92	138.39	7.09	-44.3	-46.5	14.2	5.85e-01	0	44	0	278921216	59	4840
2026-01-25 07:05:53.95	138.27	7.36	-44.1	-46.2	14.5	5.85e-01	0	44	0	327155712	59	4694
2026-01-25 07:05:56.97	138.15	7.64	-43.9	-46.0	14.8	5.86e-01	0	45	0	373293056	59	4564
2026-01-25 07:06:00.00	138.02	7.92	-43.9	-46.0	14.8	5.85e-01	0	44	0	419430400	59	4559
2026-01-25 07:06:03.02	137.89	8.20	-43.7	-45.7	15.0	5.84e-01	0	44	0	465567744	58	4705
2026-01-25 07:06:06.05	137.75	8.49	-43.5	-45.6	15.1	5.85e-01	0	44	0	513802240	58	4626
2026-01-25 07:06:09.08	137.62	8.78	-43.5	-45.5	15.2	5.85e-01	0	44	0	559939584	58	4586
2026-01-25 07:06:12.10	137.47	9.08	-43.4	-45.4	15.3	5.85e-01	0	44	0	606076928	58	4543
2026-01-25 07:06:15.13	137.33	9.38	-43.4	-45.4	15.3	5.84e-01	0	44	0	652214272	58	4533
2026-01-25 07:06:18.15	137.18	9.69	-43.3	-45.4	15.4	5.85e-01	0	44	0	698351616	58	4516
2026-01-25 07:06:21.18	137.02	10.00	-43.3	-45.3	15.4	5.98e-01	0	44	0	744488960	58	4463
2026-01-25 07:06:24.20	136.87	10.32	-43.2	-45.2	15.5	5.98e-01	0	44	0	790626304	58	4419
2026-01-25 07:06:27.23	136.70	10.64	-43.1	-45.2	15.5	5.97e-01	0	44	0	836763648	58	4418
2026-01-25 07:06:30.25	136.53	10.97	-42.9	-45.0	15.7	5.98e-01	0	45	0	884998144	57	4589
2026-01-25 07:06:33.27	136.36	11.30	-42.8	-45.0	15.7	5.96e-01	0	45	0	931135488	57	4566
2026-01-25 07:06:36.30	136.18	11.64	-42.9	-45.0	15.7	5.95e-01	0	44	0	977272832	57	4577
2026-01-25 07:06:39.32	136.00	11.98	-42.5	-44.6	16.1	5.97e-01	0	44	0	1023410176	56	4629
2026-01-25 07:06:42.34	135.81	12.33	-42.3	-44.4	16.2	5.96e-01	0	45	0	1071644672	56	4543
2026-01-25 07:06:45.37	135.62	12.69	-42.2	-44.3	16.3	5.97e-01	0	45	0	1117782016	56	4473
2026-01-25 07:06:48.39	135.42	13.06	-42.1	-44.2	16.6	5.96e-01	0	44	0	1163919360	55	4656
2026-01-25 07:06:51.42	135.21	13.43	-42.0	-44.0	16.8	5.95e-01	0	45	0	1207959552	55	4558
2026-01-25 07:06:54.44	134.99	13.81	-41.8	-43.7	16.9	5.95e-01	0	45	0	1256194048	55	4438
2026-01-25 07:06:57.46	134.77	14.19	-41.6	-43.5	17.1	5.95e-01	0	45	0	1302331392	55	4323
2026-01-25 07:07:00.49	134.55	14.59	-41.8	-43.6	17.1	5.96e-01	0	45	0	1348468736	55	4354
2026-01-25 07:07:03.51	134.31	14.99	-41.2	-43.0	17.6	5.98e-01	0	45	0	1394606080	54	4299
2026-01-25 07:07:06.54	134.06	15.40	-41.0	-42.8	17.8	6.00e-01	0	45	0	1442840576	54	4199
2026-01-25 07:07:09.57	133.81	15.82	-41.0	-42.7	17.8	5.97e-01	0	45	0	1488977920	53	4428
2026-01-25 07:07:12.59	133.55	16.25	-40.9	-42.7	17.8	5.99e-01	0	45	0	1535115264	53	4412
2026-01-25 07:07:15.61	133.28	16.69	-40.7	-42.5	17.9	5.98e-01	0	45	0	1581252608	53	4320
2026-01-25 07:07:18.64	133.00	17.14	-40.6	-42.5	17.9	5.98e-01	0	45	0	1627389952	53	4338
2026-01-25 07:07:21.66	132.71	17.59	-40.6	-42.6	17.9	5.99e-01	0	45	0	1673527296	53	4346
2026-01-25 07:07:24.69	132.40	18.06	-40.7	-42.7	17.9	6.00e-01	0	45	0	1719664640	53	4394
2026-01-25 07:07:27.72	132.09	18.54	-40.7	-42.7	17.9	6.00e-01	0	45	0	1765801984	53	4392
2026-01-25 07:07:30.74	131.76	19.03	-40.7	-42.6	17.8	5.99e-01	0	45	0	1814036480	53	4388
2026-01-25 07:07:33.77	131.42	19.54	-40.6	-42.5	18.1	5.99e-01	0	45	0	1860173824	53	4311
2026-01-25 07:07:36.80	131.07	20.05	-40.6	-42.4	18.2	5.98e-01	0	45	0	1906311168	53	4246
2026-01-25 07:07:39.82	130.70	20.58	-40.3	-42.0	18.3	5.99e-01	0	45	0	1952448512	52	4335
2026-01-25 07:07:42.85	130.32	21.12	-40.1	-41.9	18.5	6.00e-01	0	45	0	2000683008	52	4262
2026-01-25 07:07:45.87	129.92	21.68	-40.0	-41.8	18.5	5.99e-01	0	45	0	2046820352	52	4242
2026-01-25 07:07:48.90	129.51	22.25	-39.9	-41.8	18.6	6.03e-01	0	45	0	2092957696	51	4449
2026-01-25 07:07:51.93	129.07	22.83	-39.7	-41.5	18.8	6.03e-01	0	45	0	2139095040	51	4330
2026-01-25 07:07:54.95	128.62	23.43	-39.9	-41.6	18.7	5.99e-01	0	45	0	2185232384	51	4374
2026-01-25 07:07:57.98	128.15	24.04	-40.2	-41.9	18.6	5.96e-01	0	45	0	2231369728	51	4495
2026-01-25 07:08:01.01	127.65	24.67	-40.2	-42.0	18.5	6.00e-01	0	45	0	2277507072	51	4581
2026-01-25 07:08:04.03	127.13	25.32	-40.3	-42.1	18.5	5.98e-01	0	45	0	2323644416	51	4631
2026-01-25 07:08:07.05	126.59	25.98	-40.1	-42.0	18.6	5.98e-01	0	45	0	2371878912	51	4547
2026-01-25 07:08:10.07	126.02	26.66	-40.1	-41.9	18.6	6.05e-01	0	45	0	2418016256	51	4509
2026-01-25 07:08:13.09	125.42	27.36	-40.0	-41.7	18.8	6.04e-01	0	45	0	2464153600	51	4407
2026-01-25 07:08:16.12	124.79	28.08	-40.0	-41.7	18.8	6.03e-01	0	45	0	2510290944	51	4420
2026-01-25 07:08:19.15	124.13	28.82	-40.4	-42.3	18.4	6.03e-01	0	45	0	2558525440	51	4728
2026-01-25 07:08:22.17	123.44	29.58	-40.3	-42.2	18.5	5.99e-01	0	45	0	2604662784	51	4699
2026-01-25 07:08:25.19	122.70	30.36	-40.2	-42.1	18.5	5.99e-01	0	45	0	2648702976	51	4644
2026-01-25 07:08:28.22	121.93	31.16	-40.3	-42.3	18.5	6.00e-01	0	45	0	2694840320	51	4715
2026-01-25 07:08:31.24	121.11	31.98	-40.2	-42.2	18.5	6.01e-01	0	45	0	2743074816	51	4665
2026-01-25 07:08:34.26	120.25	32.81	-40.2	-42.2	18.4	6.01e-01	0	45	0	2789212160	51	4686
2026-01-25 07:08:37.29	119.34	33.68	-40.1	-42.4	18.3	5.96e-01	0	45	0	2835349504	51	4793
2026-01-25 07:08:40.31	118.37	34.55	-39.8	-42.0	18.7	5.97e-01	0	45	0	2881486848	51	4547
2026-01-25 07:08:43.34	117.34	35.46	-39.6	-41.8	18.7	5.94e-01	0	45	0	2929721344	51	4457
2026-01-25 07:08:46.37	116.25	36.38	-39.3	-41.6	18.9	6.02e-01	0	45	0	2975858688	50	4620
2026-01-25 07:08:49.40	115.09	37.32	-38.8	-40.9	19.3	6.00e-01	0	45	0	3021996032	49	4534
2026-01-25 07:08:52.42	113.86	38.28	-38.4	-40.5	19.5	5.99e-01	0	45	0	3068133376	48	4588
2026-01-25 07:08:55.44	112.55	39.25	-37.0	-39.0	19.4	5.99e-01	0	45	0	3114270720	46	4321
2026-01-25 07:08:58.47	111.15	40.24	-36.7	-38.8	19.4	5.94e-01	0	45	0	3160408064	45	4490
2026-01-25 07:09:01.49	109.66	41.24	-36.5	-38.7	19.5	5.97e-01	0	45	0	3206545408	45	4434
2026-01-25 07:09:04.52	108.06	42.25	-36.6	-38.9	19.4	5.98e-01	0	45	0	3252682752	45	4535
2026-01-25 07:09:07.54	106.36	43.26	-36.4	-38.6	19.6	5.95e-01	0	45	0	3300917248	44	4624
2026-01-25 07:09:10.57	104.54	44.27	-36.5	-38.6	19.5	5.92e-01	0	45	0	3347054592	44	4619
2026-01-25 07:09:13.59	102.61	45.28	-36.4	-38.5	19.7	5.97e-01	0	45	0	3393191936	44	4564
2026-01-25 07:09:16.62	100.53	46.29	-36.4	-38.3	19.8	5.96e-01	0	45	0	3439329280	44	4475
2026-01-25 07:09:19.64	98.32	47.27	-36.3	-38.4	19.6	5.92e-01	0	45	0	3487563776	44	4530
2026-01-25 07:09:22.67	95.96	48.23	-36.2	-38.3	19.8	5.91e-01	0	45	0	3533701120	44	4446
2026-01-25 07:09:25.70	93.44	49.17	-36.9	-38.9	19.5	5.94e-01	0	45	0	3579838464	44	4762
2026-01-25 07:09:28.72	90.77	50.05	-37.0	-38.9	19.5	5.94e-01	0	45	0	3625975808	44	4789
2026-01-25 07:09:31.74	87.94	50.89	-37.5	-39.7	18.9	5.96e-01	0	45	0	3672113152	45	4981
2026-01-25 07:09:34.77	84.94	51.67	-37.8	-40.1	18.8	6.01e-01	0	45	0	3718250496	46	4898
2026-01-25 07:09:37.79	81.79	52.37	-37.5	-39.7	19.1	5.85e-01	0	45	0	3764387840	46	4652
2026-01-25 07:09:40.82	78.49	53.00	-37.7	-40.0	18.9	5.85e-01	0	45	0	3810525184	46	4831
2026-01-25 07:09:43.84	75.06	53.53	-37.9	-40.0	18.9	5.86e-01	0	45	0	3858759680	47	4560
2026-01-25 07:09:46.87	71.50	53.96	-38.6	-40.9	18.3	5.84e-01	0	45	0	3904897024	47	5085
2026-01-25 07:09:49.89	67.85	54.28	-38.3	-40.4	18.6	5.84e-01	0	45	0	3951034368	47	4807
2026-01-25 07:09:52.92	64.13	54.49	-38.3	-40.5	18.6	5.85e-01	0	45	0	3997171712	47	4818
2026-01-25 07:09:55.94	60.37	54.57	-38.3	-40.4	18.7	5.85e-01	0	45	0	4045406208	47	4773
2026-01-25 07:09:58.97	56.60	54.54	-38.5	-40.6	18.5	6.00e-01	0	45	0	4091543552	47	4900
2026-01-25 07:10:01.99	52.87	54.38	-38.5	-40.6	18.5	6.02e-01	0	45	0	4135583744	47	4905
2026-01-25 07:10:05.02	49.19	54.10	-40.0	-42.2	18.7	5.98e-01	0	45	0	4181721088	51	4681
2026-01-25 07:10:08.05	45.59	53.72	-39.7	-41.8	18.8	6.05e-01	0	45	0	4229955584	51	4444
2026-01-25 07:10:11.08	42.10	53.23	-39.5	-41.6	19.1	6.02e-01	0	45	0	4276092928	50	4611
2026-01-25 07:10:14.10	38.75	52.64	-39.4	-41.5	19.1	6.01e-01	0	45	0	4322230272	50	4580
2026-01-25 07:10:17.12	35.54	51.97	-39.3	-41.4	19.1	6.04e-01	0	45	0	4368367616	50	4496
2026-01-25 07:10:20.15	32.48	51.22	-39.0	-41.0	19.3	6.03e-01	0	45	0	4416602112	49	4584
2026-01-25 07:10:23.17	29.59	50.41	-38.6	-40.8	19.3	6.01e-01	0	45	0	4462739456	49	4483
2026-01-25 07:10:26.20	26.85	49.54	-38.3	-40.4	19.6	5.99e-01	0	45	0	4508876800	48	4516
2026-01-25 07:10:29.22	24.28	48.63	-38.3	-40.4	19.7	6.01e-01	0	45	0	4555014144	48	4498
2026-01-25 07:10:32.25	21.86	47.68	-38.2	-40.1	19.7	6.03e-01	0	45	0	4601151488	48	4352
2026-01-25 07:10:35.27	19.59	46.71	-36.6	-38.5	19.7	6.02e-01	0	45	0	4647288832	45	4300
2026-01-25 07:10:38.30	17.46	45.71	-36.6	-38.6	19.6	6.04e-01	0	45	0	4693426176	45	4379
2026-01-25 07:10:41.32	15.48	44.71	-36.4	-38.3	19.8	6.02e-01	0	45	0	4739563520	44	4477
2026-01-25 07:10:44.34	13.62	43.70	-36.4	-38.3	19.8	6.02e-01	0	45	0	4787798016	44	4481
2026-01-25 07:10:47.37	11.87	42.69	-36.6	-38.5	19.6	6.03e-01	0	45	0	4833935360	44	4598
2026-01-25 07:10:50.39	10.24	41.68	-36.6	-38.5	19.7	6.02e-01	0	45	0	4880072704	44	4578
2026-01-25 07:10:53.41	8.71	40.68	-36.9	-38.9	19.4	5.99e-01	0	45	0	4926210048	44	4808
2026-01-25 07:10:56.44	7.28	39.69	-37.0	-39.1	19.3	5.99e-01	0	45	0	4974444544	44	4922
2026-01-25 07:10:59.46	5.94	38.72	-37.2	-39.1	19.3	5.97e-01	0	45	0	5020581888	45	4611
2026-01-25 07:11:02.48	4.68	37.76	-37.5	-39.5	19.1	6.01e-01	0	45	0	5066719232	45	4854
2026-01-25 07:11:05.51	3.49	36.81	-37.8	-39.7	18.9	6.00e-01	0	45	0	5112856576	46	4700
2026-01-25 07:11:08.54	2.37	35.88	-38.3	-40.2	18.7	6.00e-01	0	45	0	5158993920	47	4656
2026-01-25 07:11:11.56	1.32	34.98	-38.6	-40.3	18.6	6.00e-01	0	45	0	5205131264	47	4759
2026-01-25 07:11:14.58	0.33	34.09	-39.9	-41.8	18.7	6.04e-01	0	45	0	5251268608	50	4717
2026-01-25 07:11:17.61	359.40	33.23	-40.0	-41.9	18.7	6.04e-01	0	45	0	5297405952	50	4772
2026-01-25 07:11:20.63	358.52	32.38	-40.2	-42.0	18.6	6.00e-01	0	45	0	5343543296	50	4825
2026-01-25 07:11:23.66	357.68	31.56	-40.7	-42.4	18.4	5.97e-01	0	45	0	5391777792	51	4790
2026-01-25 07:11:26.68	356.89	30.75	-41.0	-42.8	18.1	6.03e-01	0	45	0	5437915136	52	4732
2026-01-25 07:11:29.70	356.14	29.97	-41.2	-43.0	17.9	6.00e-01	0	45	0	5484052480	52	4836
2026-01-25 07:11:32.73	355.43	29.20	-41.2	-43.0	17.9	6.03e-01	0	45	0	5530189824	52	4827
2026-01-25 07:11:35.75	354.76	28.46	-41.1	-42.8	18.0	6.03e-01	0	45	0	5576327168	53	4488
2026-01-25 07:11:38.78	354.12	27.74	-40.9	-42.7	18.1	6.01e-01	0	45	0	5622464512	53	4414
2026-01-25 07:11:41.80	353.51	27.03	-41.0	-42.7	18.1	6.04e-01	0	45	0	5668601856	53	4437
2026-01-25 07:11:44.82	352.93	26.34	-40.9	-42.6	18.2	6.04e-01	0	45	0	5714739200	53	4360
2026-01-25 07:11:47.84	352.38	25.68	-40.6	-42.3	18.2	6.04e-01	0	45	0	5762973696	53	4221
2026-01-25 07:11:50.87	351.85	25.02	-40.6	-42.4	18.2	6.02e-01	0	45	0	5809111040	53	4282
2026-01-25 07:11:53.90	351.35	24.39	-40.5	-42.3	18.3	6.03e-01	0	45	0	5855248384	52	4458
2026-01-25 07:11:56.92	350.87	23.77	-40.4	-42.2	18.3	6.00e-01	0	45	0	5901385728	52	4421
2026-01-25 07:11:59.95	350.41	23.16	-40.5	-42.3	18.3	6.03e-01	0	45	0	5949620224	52	4450
2026-01-25 07:12:02.97	349.97	22.58	-40.6	-42.4	18.2	6.00e-01	0	45	0	5995757568	52	4525
2026-01-25 07:12:05.99	349.54	22.00	-40.7	-42.6	18.0	6.02e-01	0	45	0	6041894912	52	4645
2026-01-25 07:12:09.02	349.14	21.44	-40.6	-42.5	18.0	5.96e-01	0	45	0	6088032256	52	4594
2026-01-25 07:12:12.04	348.75	20.90	-40.6	-42.6	18.0	5.96e-01	0	45	0	6134169600	52	4618
2026-01-25 07:12:15.06	348.38	20.37	-40.7	-42.7	17.9	5.97e-01	0	45	0	6180306944	52	4662
2026-01-25 07:12:18.09	348.02	19.85	-40.8	-42.8	17.9	5.84e-01	0	45	0	6226444288	52	4733
2026-01-25 07:12:21.11	347.68	19.34	-40.8	-42.9	17.8	5.85e-01	0	45	0	6272581632	52	4768
2026-01-25 07:12:24.14	347.35	18.85	-40.9	-43.0	17.7	5.84e-01	0	45	0	6320816128	52	4828
2026-01-25 07:12:27.16	347.03	18.37	-42.5	-43.3	17.5	5.85e-01	0	45	0	6366953472	55	4198
2026-01-25 07:12:30.18	346.73	17.89	-54.1	-62.9	3.8	7.44e-01	0	45	104	6392119296	78	10752
2026-01-25 07:12:33.20	346.43	17.43	-54.1	-62.9	3.8	7.46e-01	0	45	104	6392119296	78	10749
2026-01-25 07:12:36.23	346.15	16.98	-54.0	-62.9	3.8	7.44e-01	0	45	104	6392119296	78	10667
2026-01-25 07:12:39.25	345.87	16.54	-54.0	-62.8	3.8	7.45e-01	0	45	104	6392119296	78	10643
2026-01-25 07:12:42.28	345.61	16.11	-54.0	-62.8	3.8	7.45e-01	0	45	104	6392119296	78	10609
2026-01-25 07:12:45.30	345.35	15.69	-54.0	-62.8	3.8	7.45e-01	0	45	104	6392119296	78	10544
2026-01-25 07:12:48.32	345.11	15.27	-53.9	-62.8	3.8	7.45e-01	0	45	104	6392119296	78	10542
2026-01-25 07:12:51.34	344.87	14.87	-53.9	-62.7	3.8	7.45e-01	0	45	104	6392119296	78	10524
2026-01-25 07:12:54.37	344.64	14.47	-53.9	-62.7	3.8	7.45e-01	0	45	104	6392119296	78	10509
2026-01-25 07:12:57.39	344.42	14.08	-53.9	-62.7	3.8	7.44e-01	0	45	104	6392119296	78	10471
2026-01-25 07:13:00.42	344.20	13.70	-53.9	-62.7	3.8	7.45e-01	0	45	104	6392119296	78	10457
2026-01-25 07:13:03.44	343.99	13.33	-53.8	-62.7	3.8	7.44e-01	0	45	104	6392119296	78	10442
2026-01-25 07:13:06.46	343.79	12.96	-53.8	-62.6	3.8	7.44e-01	0	45	104	6392119296	78	10408
2026-01-25 07:13:09.49	343.59	12.60	-53.8	-62.6	3.8	7.46e-01	0	45	104	6392119296	78	10402
2026-01-25 07:13:12.51	343.40	12.25	-53.8	-62.6	3.8	7.46e-01	0	45	104	6392119296	78	10408
2026-01-25 07:13:15.54	343.22	11.90	-53.8	-62.6	3.8	7.44e-01	0	45	104	6392119296	78	10323
2026-01-25 07:13:18.56	343.04	11.56	-53.7	-62.6	3.8	7.45e-01	0	45	104	6392119296	78	10312
2026-01-25 07:13:21.58	342.86	11.22	-53.8	-62.6	3.8	7.45e-01	0	45	104	6392119296	78	10310
2026-01-25 07:13:24.61	342.70	10.89	-53.7	-62.6	3.8	7.44e-01	0	45	104	6392119296	78	10303
2026-01-25 07:13:27.63	342.53	10.57	-53.7	-62.5	3.8	7.45e-01	0	45	104	6392119296	78	10200
2026-01-25 07:13:30.66	342.37	10.25	-53.6	-62.5	3.8	7.46e-01	0	45	104	6392119296	78	10212
2026-01-25 07:13:33.68	342.22	9.94	-53.7	-62.5	3.8	7.45e-01	0	45	104	6392119296	78	10192
2026-01-25 07:13:36.70	342.07	9.63	-53.6	-62.4	3.8	7.45e-01	0	45	104	6392119296	78	10165
2026-01-25 07:13:39.72	341.92	9.33	-53.6	-62.4	3.8	7.46e-01	0	45	104	6392119296	78	10077
2026-01-25 07:13:42.75	341.78	9.03	-53.5	-62.3	3.8	7.47e-01	0	45	104	6392119296	78	10048
2026-01-25 07:13:45.77	341.64	8.74	-53.5	-62.4	3.8	7.44e-01	0	45	104	6392119296	78	10076
2026-01-25 07:13:48.80	341.51	8.45	-53.5	-62.4	3.8	7.45e-01	0	45	104	6392119296	78	10074
2026-01-25 07:13:51.82	341.38	8.16	-53.4	-62.3	3.8	7.46e-01	0	45	104	6392119296	78	9948
2026-01-25 07:13:54.84	341.25	7.88	-53.4	-62.3	3.8	7.46e-01	0	45	104	6392119296	78	9961
2026-01-25 07:13:57.87	341.13	7.60	-53.5	-62.3	3.8	7.45e-01	0	45	104	6392119296	78	9980
2026-01-25 07:14:00.89	341.00	7.33	-53.5	-62.3	3.8	7.43e-01	0	45	104	6392119296	78	9965
2026-01-25 07:14:03.92	340.89	7.06	-53.3	-62.1	3.8	7.45e-01	0	45	104	6392119296	78	9785
2026-01-25 07:14:06.94	340.77	6.80	-53.3	-62.1	3.8	7.45e-01	0	45	104	6392119296	78	9796
2026-01-25 07:14:09.97	340.66	6.53	-53.3	-62.2	3.8	7.44e-01	0	45	104	6392119296	78	9855
2026-01-25 07:14:12.99	340.55	6.27	-53.3	-62.2	3.8	7.44e-01	0	45	104	6392119296	78	9870
2026-01-25 07:14:16.02	340.44	6.02	-53.2	-62.0	3.8	7.45e-01	0	45	104	6392119296	78	9674
2026-01-25 07:14:19.04	340.34	5.77	-53.1	-62.0	3.8	7.45e-01	0	45	104	6392119296	78	9628
2026-01-25 07:14:22.06	340.24	5.52	-53.2	-62.0	3.8	7.45e-01	0	45	104	6392119296	78	9694
2026-01-25 07:14:25.09	340.14	5.27	-53.2	-62.0	3.8	7.44e-01	0	45	104	6392119296	78	9706
2026-01-25 07:14:28.11	340.04	5.03	-53.0	-61.8	3.8	7.46e-01	0	45	104	6392119296	78	9440
2026-01-25 07:14:31.14	339.95	4.79	-53.9	-62.8	3.8	7.44e-01	0	45	104	6392119296	78	10567
2026-01-25 07:14:34.16	339.86	4.55	-54.4	-63.2	3.8	7.45e-01	0	45	104	6392119296	79	10502
2026-01-25 07:14:37.19	339.77	4.32	-54.7	-63.5	3.8	7.45e-01	0	45	104	6392119296	80	10267
2026-01-25 07:14:40.21	339.68	4.08	-54.8	-63.6	3.8	7.46e-01	0	45	104	6392119296	80	10411
2026-01-25 07:14:43.23	339.59	3.86	-54.9	-63.7	3.8	7.46e-01	0	45	104	6392119296	80	10510
2026-01-25 07:14:46.26	339.51	3.63	-55.0	-63.8	3.8	7.44e-01	0	45	104	6392119296	80	10611
2026-01-25 07:14:49.28	339.43	3.40	-55.0	-63.8	3.8	7.45e-01	0	45	104	6392119296	80	10585
2026-01-25 07:14:52.30	339.35	3.18	-54.9	-63.8	3.8	7.45e-01	0	45	104	6392119296	80	10537
2026-01-25 07:14:55.33	339.27	2.96	-54.9	-63.7	3.8	7.45e-01	0	45	104	6392119296	80	10500
2026-01-25 07:14:58.36	339.19	2.74	-54.9	-63.7	3.8	7.44e-01	0	45	104	6392119296	80	10426
2026-01-25 07:15:01.38	339.11	2.53	-54.8	-63.7	3.8	7.46e-01	0	45	104	6392119296	80	10432
2026-01-25 07:15:04.40	339.04	2.32	-54.8	-63.6	3.8	7.44e-01	0	45	104	6392119296	80	10397
2026-01-25 07:15:07.43	338.97	2.10	-54.8	-63.6	3.8	7.44e-01	0	45	104	6392119296	80	10405

#Closed at: 2026-01-25 07:15:10
#Recorded file [6392 MB]: D:/lorett/data/31041_260125_100447.dat