passes_logs/2026/01/25/R3.2S_Murmansk/R3.2S_Murmansk__20260125_012414_SUOMI_NPP_rec.log

#Pass ID: 20260125_012414_SUOMI NPP
#Satellite: SUOMI NPP
#Configuration: NPP
#almurnet v.1.7.20251203
#Start time: 2026-01-25 01:24:17

#Version: 2.2.20231116
#Station: R3.2S_Murmansk
#Location: 33.079688 lon 68.888172 lat
#TLE: 1 37849U 11061A   26024.54906732  .00000185  00000+0  10878-3 0  9990
#TLE: 2 37849  98.7821 326.5159 0002200  47.3746 312.7615 14.19529340738061

#Time	Az	El	Level	Level2	SNR	BER	BlckErr	Temp	State	Recorded	gain1	gain2
2026-01-25 01:24:17.06	27.22	2.15	-52.2	-67.1	3.8	1.49e+00	0	41	0	0	76	19455
2026-01-25 01:24:21.08	27.17	2.41	-52.1	-66.9	3.8	1.49e+00	0	41	104	0	74	21500
2026-01-25 01:24:25.12	27.11	2.67	-52.1	-66.8	3.8	1.49e+00	0	41	104	0	74	21196
2026-01-25 01:24:29.15	27.06	2.93	-52.1	-66.8	3.8	1.49e+00	0	41	104	0	74	21159
2026-01-25 01:24:33.19	27.00	3.20	-52.1	-67.0	3.8	1.49e+00	0	41	104	0	74	21661
2026-01-25 01:24:37.23	26.95	3.47	-52.1	-66.8	3.8	1.49e+00	0	41	104	0	74	21232
2026-01-25 01:24:41.26	26.89	3.74	-52.0	-65.3	3.8	1.49e+00	0	42	104	0	74	17735
2026-01-25 01:24:45.30	26.83	4.01	-51.6	-60.6	5.6	6.14e-01	0	42	0	3145728	74	10312
2026-01-25 01:24:49.33	26.77	4.29	-50.1	-54.7	11.0	4.12e-03	0	42	0	10485760	72	5894
2026-01-25 01:24:53.37	26.71	4.57	-48.3	-51.1	14.8	3.80e-06	0	42	0	17825792	68	4917
2026-01-25 01:24:57.40	26.64	4.85	-47.5	-50.0	15.9	0.00e+00	0	42	0	25165824	66	4826
2026-01-25 01:25:01.43	26.58	5.14	-48.3	-51.1	14.9	5.18e-05	0	42	0	32505856	68	4897
2026-01-25 01:25:05.47	26.51	5.43	-48.8	-51.9	13.8	1.16e-02	0	42	0	40894464	69	5047
2026-01-25 01:25:09.50	26.44	5.72	-47.0	-49.1	16.9	0.00e+00	0	42	0	48234496	65	4632
2026-01-25 01:25:13.53	26.37	6.01	-46.8	-48.8	17.3	0.00e+00	0	42	0	55574528	64	4727
2026-01-25 01:25:17.56	26.30	6.31	-46.9	-49.0	17.0	0.00e+00	0	42	0	62914560	64	4865
2026-01-25 01:25:21.60	26.22	6.61	-46.3	-48.2	17.9	0.00e+00	0	42	0	70254592	64	4413
2026-01-25 01:25:25.63	26.15	6.92	-46.5	-48.4	17.7	0.00e+00	0	42	0	78643200	64	4538
2026-01-25 01:25:29.67	26.07	7.23	-46.4	-48.3	17.9	0.00e+00	0	42	0	85983232	64	4455
2026-01-25 01:25:33.70	25.99	7.54	-46.3	-48.1	18.1	0.00e+00	0	42	0	93323264	64	4377
2026-01-25 01:25:37.74	25.91	7.85	-46.2	-47.9	18.3	0.00e+00	0	42	0	100663296	63	4529
2026-01-25 01:25:41.78	25.82	8.17	-46.1	-47.9	18.4	0.00e+00	0	42	0	109051904	63	4506
2026-01-25 01:25:45.81	25.73	8.50	-45.9	-47.6	18.8	0.00e+00	0	42	0	116391936	63	4356
2026-01-25 01:25:49.85	25.64	8.83	-45.8	-47.4	18.9	0.00e+00	0	42	0	123731968	63	4258
2026-01-25 01:25:53.88	25.55	9.16	-45.9	-47.5	18.9	0.00e+00	0	42	0	131072000	63	4326
2026-01-25 01:25:57.92	25.46	9.50	-45.5	-47.1	19.3	0.00e+00	0	42	0	138412032	63	4111
2026-01-25 01:26:01.95	25.36	9.84	-45.6	-47.1	19.3	0.00e+00	0	42	0	146800640	63	4118
2026-01-25 01:26:05.98	25.26	10.18	-45.5	-47.0	19.4	0.00e+00	0	42	0	154140672	62	4320
2026-01-25 01:26:10.01	25.16	10.53	-45.2	-46.6	19.7	0.00e+00	0	42	0	161480704	62	4144
2026-01-25 01:26:14.05	25.05	10.89	-45.0	-46.4	19.9	0.00e+00	0	42	0	168820736	61	4272
2026-01-25 01:26:18.08	24.94	11.25	-44.9	-46.2	20.1	0.00e+00	0	42	0	176160768	61	4178
2026-01-25 01:26:22.11	24.83	11.62	-44.7	-46.0	20.4	0.00e+00	0	42	0	184549376	61	4059
2026-01-25 01:26:26.14	24.72	11.99	-44.5	-45.8	20.6	0.00e+00	0	42	0	191889408	60	4200
2026-01-25 01:26:30.18	24.60	12.37	-44.4	-45.7	20.6	0.00e+00	0	42	0	199229440	60	4156
2026-01-25 01:26:34.21	24.48	12.75	-44.3	-45.6	20.8	0.00e+00	0	42	0	206569472	60	4105
2026-01-25 01:26:38.25	24.35	13.14	-44.2	-45.4	20.9	0.00e+00	0	42	0	213909504	60	4042
2026-01-25 01:26:42.28	24.22	13.53	-44.2	-45.5	20.9	0.00e+00	0	42	0	222298112	60	4069
2026-01-25 01:26:46.32	24.09	13.94	-44.2	-45.4	21.0	0.00e+00	0	42	0	229638144	60	4031
2026-01-25 01:26:50.35	23.95	14.34	-44.4	-45.7	21.0	0.00e+00	0	43	0	236978176	59	4407
2026-01-25 01:26:54.38	23.81	14.76	-44.6	-45.8	20.9	0.00e+00	0	42	0	244318208	59	4493
2026-01-25 01:26:58.41	23.67	15.18	-44.6	-45.8	20.9	0.00e+00	0	42	0	252706816	59	4492
2026-01-25 01:27:02.45	23.52	15.61	-44.6	-45.9	20.9	0.00e+00	0	42	0	260046848	59	4509
2026-01-25 01:27:06.48	23.36	16.04	-44.4	-45.6	20.9	0.00e+00	0	42	0	267386880	60	4135
2026-01-25 01:27:10.51	23.20	16.49	-44.4	-45.6	20.9	0.00e+00	0	42	0	274726912	60	4139
2026-01-25 01:27:14.55	23.03	16.94	-44.5	-45.7	20.8	0.00e+00	0	42	0	282066944	60	4187
2026-01-25 01:27:18.58	22.86	17.40	-44.6	-45.8	20.8	0.00e+00	0	42	0	290455552	60	4232
2026-01-25 01:27:22.61	22.68	17.87	-44.8	-46.1	20.5	0.00e+00	0	42	0	297795584	60	4384
2026-01-25 01:27:26.65	22.50	18.35	-44.5	-45.8	20.9	0.00e+00	0	42	0	305135616	60	4198
2026-01-25 01:27:30.68	22.31	18.83	-44.4	-45.7	21.0	0.00e+00	0	43	0	312475648	60	4154
2026-01-25 01:27:34.71	22.11	19.33	-44.1	-45.3	21.3	0.00e+00	0	42	0	319815680	60	3985
2026-01-25 01:27:38.74	21.91	19.84	-44.5	-45.7	21.3	0.00e+00	0	42	0	328204288	59	4419
2026-01-25 01:27:42.77	21.70	20.35	-44.3	-45.5	21.5	0.00e+00	0	42	0	335544320	59	4313
2026-01-25 01:27:46.81	21.48	20.88	-44.3	-45.5	21.4	0.00e+00	0	43	0	342884352	59	4321
2026-01-25 01:27:50.84	21.25	21.42	-44.3	-45.5	21.4	0.00e+00	0	42	0	350224384	59	4325
2026-01-25 01:27:54.87	21.02	21.96	-44.1	-45.3	21.4	0.00e+00	0	43	0	358612992	60	3963
2026-01-25 01:27:58.91	20.77	22.52	-44.3	-45.5	21.2	0.00e+00	0	42	0	365953024	60	4065
2026-01-25 01:28:02.94	20.52	23.09	-44.4	-45.6	21.1	0.00e+00	0	42	0	373293056	60	4126
2026-01-25 01:28:06.97	20.25	23.68	-44.2	-45.4	21.3	0.00e+00	0	42	0	380633088	60	4007
2026-01-25 01:28:11.00	19.97	24.27	-44.6	-45.9	20.9	0.00e+00	0	43	0	387973120	60	4255
2026-01-25 01:28:15.03	19.69	24.88	-45.6	-47.0	19.9	0.00e+00	0	42	0	396361728	61	4582
2026-01-25 01:28:19.07	19.39	25.51	-45.8	-47.3	19.7	0.00e+00	0	43	0	403701760	62	4449
2026-01-25 01:28:23.10	19.08	26.14	-45.5	-47.0	20.0	0.00e+00	0	43	0	411041792	62	4302
2026-01-25 01:28:27.13	18.75	26.79	-45.7	-47.2	19.8	0.00e+00	0	43	0	418381824	62	4409
2026-01-25 01:28:31.17	18.41	27.46	-45.8	-47.3	19.7	0.00e+00	0	43	0	425721856	62	4457
2026-01-25 01:28:35.20	18.05	28.14	-45.9	-47.4	19.6	0.00e+00	0	43	0	434110464	63	4243
2026-01-25 01:28:39.24	17.68	28.84	-46.1	-47.6	19.5	0.00e+00	0	43	0	441450496	63	4344
2026-01-25 01:28:43.27	17.29	29.56	-46.7	-48.4	18.7	0.00e+00	0	43	0	448790528	64	4509
2026-01-25 01:28:47.30	16.89	30.29	-46.7	-48.5	18.6	0.00e+00	0	43	0	456130560	64	4549
2026-01-25 01:28:51.34	16.46	31.03	-46.6	-48.3	18.8	0.00e+00	0	43	0	463470592	64	4480
2026-01-25 01:28:55.37	16.01	31.80	-47.6	-49.7	17.4	0.00e+00	0	43	0	471859200	65	4942
2026-01-25 01:28:59.41	15.54	32.58	-48.1	-50.4	16.7	0.00e+00	0	43	0	479199232	67	4765
2026-01-25 01:29:03.45	15.04	33.39	-48.9	-51.6	15.7	0.00e+00	0	43	0	486539264	68	5173
2026-01-25 01:29:07.48	14.52	34.21	-50.3	-54.0	13.3	8.30e-06	0	43	0	493879296	71	5788
2026-01-25 01:29:11.52	13.97	35.05	-49.7	-53.1	14.2	5.30e-06	0	43	0	502267904	71	5196
2026-01-25 01:29:15.55	13.39	35.91	-49.7	-53.1	14.2	3.00e-06	0	43	0	509607936	71	5188
2026-01-25 01:29:19.59	12.78	36.79	-48.7	-51.4	15.6	0.00e+00	0	43	0	516947968	69	4801
2026-01-25 01:29:23.62	12.13	37.69	-47.3	-49.2	17.9	0.00e+00	0	43	0	524288000	66	4432
2026-01-25 01:29:27.65	11.44	38.61	-47.5	-49.4	17.9	0.00e+00	0	43	0	531628032	66	4541
2026-01-25 01:29:31.68	10.72	39.56	-47.8	-50.0	17.2	0.00e+00	0	43	0	540016640	66	4849
2026-01-25 01:29:35.72	9.94	40.52	-47.7	-49.8	17.4	0.00e+00	0	43	0	547356672	66	4738
2026-01-25 01:29:39.75	9.12	41.50	-46.2	-47.8	19.4	0.00e+00	0	43	0	554696704	64	4203
2026-01-25 01:29:43.79	8.25	42.50	-45.4	-46.6	20.4	0.00e+00	0	43	0	562036736	62	4144
2026-01-25 01:29:47.83	7.32	43.53	-46.1	-47.5	19.7	0.00e+00	0	43	0	569376768	62	4596
2026-01-25 01:29:51.86	6.32	44.57	-45.6	-46.9	20.3	0.00e+00	0	43	0	577765376	62	4286
2026-01-25 01:29:55.89	5.26	45.62	-45.8	-47.2	19.9	0.00e+00	0	43	0	585105408	63	4162
2026-01-25 01:29:59.93	4.12	46.70	-44.9	-46.2	20.9	0.00e+00	0	43	0	592445440	61	4170
2026-01-25 01:30:03.96	2.90	47.78	-46.0	-47.5	19.3	0.00e+00	0	43	0	599785472	64	4098
2026-01-25 01:30:07.99	1.59	48.88	-45.4	-46.8	20.4	0.00e+00	0	43	0	608174080	62	4218
2026-01-25 01:30:12.02	0.18	49.99	-43.9	-45.0	22.1	0.00e+00	0	43	0	615514112	59	4087
2026-01-25 01:30:16.06	358.66	51.11	-44.5	-45.7	21.3	0.00e+00	0	43	0	622854144	60	4191
2026-01-25 01:30:20.09	357.03	52.24	-44.8	-46.0	21.1	0.00e+00	0	43	0	630194176	60	4338
2026-01-25 01:30:24.12	355.26	53.36	-44.9	-46.2	20.9	0.00e+00	0	43	0	637534208	60	4410
2026-01-25 01:30:28.16	353.35	54.47	-45.2	-46.5	20.6	0.00e+00	0	43	0	645922816	60	4581
2026-01-25 01:30:32.19	351.29	55.58	-46.3	-47.9	19.4	0.00e+00	0	43	0	653262848	63	4542
2026-01-25 01:30:36.23	349.05	56.67	-45.0	-46.3	20.9	0.00e+00	0	43	0	660602880	61	4238
2026-01-25 01:30:40.26	346.63	57.73	-44.8	-45.9	21.3	0.00e+00	0	43	0	667942912	61	4035
2026-01-25 01:30:44.29	344.02	58.76	-45.2	-46.5	20.8	0.00e+00	0	43	0	676331520	61	4317
2026-01-25 01:30:48.33	341.20	59.75	-45.1	-46.4	20.8	0.00e+00	0	43	0	683671552	61	4276
2026-01-25 01:30:52.36	338.16	60.68	-45.4	-46.8	20.4	0.00e+00	0	42	0	691011584	61	4454
2026-01-25 01:30:56.40	334.89	61.55	-44.0	-45.2	22.0	0.00e+00	0	43	0	698351616	59	4161
2026-01-25 01:31:00.44	331.39	62.34	-43.9	-45.0	22.2	0.00e+00	0	43	0	705691648	59	4062
2026-01-25 01:31:04.47	327.68	63.04	-44.0	-45.2	22.1	0.00e+00	0	43	0	714080256	58	4397
2026-01-25 01:31:08.51	323.75	63.65	-43.4	-44.5	22.6	0.00e+00	0	43	0	721420288	58	4064
2026-01-25 01:31:12.54	319.64	64.14	-42.8	-43.9	23.1	0.00e+00	0	43	0	728760320	56	4245
2026-01-25 01:31:16.57	315.37	64.51	-44.6	-45.9	21.5	0.00e+00	0	43	0	736100352	59	4530
2026-01-25 01:31:20.61	310.97	64.75	-42.6	-43.5	23.4	0.00e+00	0	43	0	743440384	56	4097
2026-01-25 01:31:24.64	306.52	64.85	-42.1	-43.0	23.6	0.00e+00	0	43	0	751828992	55	4090
2026-01-25 01:31:28.67	302.06	64.82	-42.7	-43.7	23.1	0.00e+00	0	43	0	759169024	55	4411
2026-01-25 01:31:32.71	297.62	64.64	-42.3	-43.3	23.6	0.00e+00	0	43	0	766509056	56	3972
2026-01-25 01:31:36.74	293.29	64.34	-43.4	-44.4	22.7	0.00e+00	0	43	0	773849088	57	4271
2026-01-25 01:31:40.78	289.08	63.91	-44.0	-45.1	22.2	0.00e+00	0	43	0	782237696	58	4369
2026-01-25 01:31:44.81	285.06	63.36	-43.4	-44.5	22.2	0.00e+00	0	43	0	789577728	58	4082
2026-01-25 01:31:48.84	281.23	62.71	-43.7	-44.8	22.2	0.00e+00	0	43	0	796917760	58	4202
2026-01-25 01:31:52.88	277.62	61.95	-44.3	-45.5	21.7	0.00e+00	0	43	0	804257792	59	4339
2026-01-25 01:31:56.91	274.24	61.12	-45.9	-47.4	19.8	0.00e+00	0	43	0	811597824	62	4531
2026-01-25 01:32:00.94	271.09	60.22	-46.3	-47.9	19.3	0.00e+00	0	43	0	818937856	64	4254
2026-01-25 01:32:04.98	268.15	59.26	-47.5	-49.3	18.0	0.00e+00	0	43	0	827326464	65	4754
2026-01-25 01:32:09.01	265.43	58.25	-45.9	-47.3	20.0	0.00e+00	0	43	0	834666496	63	4210
2026-01-25 01:32:13.05	262.91	57.20	-46.0	-47.4	19.9	0.00e+00	0	43	0	842006528	62	4532
2026-01-25 01:32:17.08	260.59	56.12	-47.4	-49.4	17.9	0.00e+00	0	43	0	849346560	65	4782
2026-01-25 01:32:21.12	258.43	55.02	-46.5	-48.2	19.0	0.00e+00	0	43	0	857735168	64	4409
2026-01-25 01:32:25.15	256.45	53.91	-46.6	-48.4	18.7	0.00e+00	0	43	0	865075200	65	4258
2026-01-25 01:32:29.18	254.61	52.79	-45.0	-46.3	20.8	0.00e+00	0	43	0	872415232	62	3961
2026-01-25 01:32:33.22	252.90	51.66	-45.2	-46.6	20.1	0.00e+00	0	43	0	879755264	62	4106
2026-01-25 01:32:37.25	251.33	50.54	-44.3	-45.4	21.7	0.00e+00	0	43	0	887095296	60	4038
2026-01-25 01:32:41.29	249.86	49.42	-45.6	-46.9	20.3	0.00e+00	0	43	0	895483904	62	4267
2026-01-25 01:32:45.33	248.50	48.31	-47.2	-49.1	18.2	0.00e+00	0	43	0	902823936	65	4603
2026-01-25 01:32:49.36	247.23	47.21	-46.9	-48.6	18.7	0.00e+00	0	43	0	910163968	64	4650
2026-01-25 01:32:53.39	246.05	46.13	-45.7	-47.1	20.0	0.00e+00	0	43	0	917504000	63	4117
2026-01-25 01:32:57.42	244.95	45.06	-47.6	-49.7	17.5	0.00e+00	0	43	0	924844032	65	4982
2026-01-25 01:33:01.45	243.92	44.01	-47.2	-49.1	18.1	0.00e+00	0	43	0	933232640	65	4599
2026-01-25 01:33:05.49	242.96	42.98	-46.2	-47.7	19.4	0.00e+00	0	43	0	940572672	64	4167
2026-01-25 01:33:09.53	242.05	41.96	-47.2	-49.0	18.2	0.00e+00	0	43	0	947912704	65	4573
2026-01-25 01:33:13.56	241.21	40.97	-49.1	-51.9	15.5	0.00e+00	0	43	0	955252736	68	5386
2026-01-25 01:33:17.59	240.41	40.00	-49.6	-52.5	14.8	7.60e-06	0	43	0	963641344	71	4864
2026-01-25 01:33:21.62	239.66	39.04	-46.8	-48.5	18.7	0.00e+00	0	43	0	970981376	65	4292
2026-01-25 01:33:25.66	238.95	38.11	-48.1	-50.3	17.0	0.00e+00	0	43	0	978321408	66	4997
2026-01-25 01:33:29.69	238.28	37.20	-49.1	-51.7	15.7	0.00e+00	0	43	0	985661440	69	4948
2026-01-25 01:33:33.73	237.65	36.30	-48.6	-50.9	16.4	0.00e+00	0	43	0	993001472	68	4808
2026-01-25 01:33:37.76	237.05	35.43	-47.7	-49.6	17.6	0.00e+00	0	43	0	1001390080	67	4379
2026-01-25 01:33:41.79	236.49	34.58	-47.5	-49.4	17.8	0.00e+00	0	43	0	1008730112	66	4508
2026-01-25 01:33:45.83	235.95	33.74	-46.1	-47.5	19.6	0.00e+00	0	43	0	1016070144	63	4313
2026-01-25 01:33:49.86	235.44	32.93	-47.3	-49.2	17.9	0.00e+00	0	43	0	1023410176	66	4407
2026-01-25 01:33:53.90	234.96	32.13	-47.0	-48.8	18.3	0.00e+00	0	43	0	1031798784	65	4467
2026-01-25 01:33:57.93	234.50	31.36	-47.4	-49.3	17.8	0.00e+00	0	43	0	1039138816	66	4460
2026-01-25 01:34:01.96	234.06	30.60	-45.2	-46.6	20.5	0.00e+00	0	43	0	1046478848	62	4100
2026-01-25 01:34:06.00	233.64	29.86	-46.5	-48.1	19.0	0.00e+00	0	43	0	1053818880	64	4357
2026-01-25 01:34:10.03	233.24	29.13	-46.8	-48.5	18.5	0.00e+00	0	43	0	1061158912	64	4582
2026-01-25 01:34:14.07	232.86	28.43	-49.0	-51.7	15.5	0.00e+00	0	43	0	1069547520	68	5226
2026-01-25 01:34:18.10	232.49	27.74	-47.6	-49.5	17.5	0.00e+00	0	43	0	1076887552	67	4335
2026-01-25 01:34:22.13	232.14	27.06	-46.9	-48.5	18.5	0.00e+00	0	43	0	1084227584	65	4337
2026-01-25 01:34:26.16	231.81	26.40	-46.4	-47.9	19.1	0.00e+00	0	42	0	1091567616	64	4286
2026-01-25 01:34:30.20	231.49	25.75	-46.1	-47.5	19.5	0.00e+00	0	43	0	1098907648	63	4318
2026-01-25 01:34:34.23	231.18	25.12	-46.4	-47.9	19.0	0.00e+00	0	43	0	1107296256	64	4267
2026-01-25 01:34:38.26	230.89	24.51	-46.8	-48.4	18.6	0.00e+00	0	43	0	1114636288	64	4538
2026-01-25 01:34:42.30	230.60	23.90	-46.8	-48.4	18.6	0.00e+00	0	43	0	1121976320	64	4533
2026-01-25 01:34:46.33	230.33	23.31	-48.0	-50.1	17.0	0.00e+00	0	43	0	1129316352	66	4887
2026-01-25 01:34:50.37	230.07	22.73	-47.7	-49.6	17.5	0.00e+00	0	43	0	1137704960	67	4357
2026-01-25 01:34:54.40	229.82	22.16	-46.3	-47.8	19.1	0.00e+00	0	43	0	1145044992	64	4234
2026-01-25 01:34:58.44	229.57	21.61	-45.5	-46.8	20.1	0.00e+00	0	43	0	1152385024	62	4234
2026-01-25 01:35:02.47	229.34	21.07	-45.5	-46.8	20.1	0.00e+00	0	43	0	1159725056	62	4239
2026-01-25 01:35:06.50	229.12	20.53	-45.6	-46.9	20.0	0.00e+00	0	43	0	1167065088	62	4257
2026-01-25 01:35:10.53	228.90	20.01	-45.8	-47.2	19.7	0.00e+00	0	43	0	1174405120	62	4437
2026-01-25 01:35:14.57	228.69	19.50	-46.3	-47.8	19.2	0.00e+00	0	43	0	1182793728	63	4451
2026-01-25 01:35:18.61	228.49	19.00	-46.3	-47.8	19.1	0.00e+00	0	43	0	1190133760	63	4475
2026-01-25 01:35:22.64	228.29	18.51	-46.3	-47.8	19.1	0.00e+00	0	43	0	1197473792	63	4478
2026-01-25 01:35:26.67	228.10	18.02	-46.8	-48.5	18.4	0.00e+00	0	43	0	1204813824	64	4563
2026-01-25 01:35:30.71	227.92	17.55	-47.6	-49.5	17.4	0.00e+00	0	43	0	1213202432	65	4843
2026-01-25 01:35:34.74	227.75	17.08	-47.8	-49.7	17.2	0.00e+00	0	43	0	1220542464	66	4694
2026-01-25 01:35:38.77	227.58	16.63	-47.2	-49.0	17.9	0.00e+00	0	43	0	1227882496	66	4308
2026-01-25 01:35:42.81	227.41	16.18	-45.9	-47.3	19.6	0.00e+00	0	43	0	1235222528	63	4211
2026-01-25 01:35:46.84	227.25	15.74	-45.6	-47.0	19.8	0.00e+00	0	43	0	1242562560	63	4067
2026-01-25 01:35:50.87	227.09	15.30	-45.6	-47.0	19.8	0.00e+00	0	43	0	1250951168	62	4292
2026-01-25 01:35:54.90	226.94	14.88	-46.3	-47.8	19.0	0.00e+00	0	43	0	1258291200	63	4482
2026-01-25 01:35:58.94	226.80	14.46	-46.7	-48.4	18.3	0.00e+00	0	42	0	1265631232	64	4517
2026-01-25 01:36:02.97	226.66	14.05	-46.8	-48.5	18.2	0.00e+00	0	43	0	1272971264	64	4573
2026-01-25 01:36:07.01	226.52	13.64	-46.7	-48.4	18.2	0.00e+00	0	43	0	1281359872	64	4544
2026-01-25 01:36:11.04	226.39	13.24	-46.5	-48.1	18.6	0.00e+00	0	43	0	1288699904	64	4387
2026-01-25 01:36:15.08	226.26	12.85	-46.2	-47.8	18.9	0.00e+00	0	43	0	1296039936	64	4204
2026-01-25 01:36:19.11	226.13	12.46	-46.2	-47.8	18.8	0.00e+00	0	43	0	1303379968	64	4225
2026-01-25 01:36:23.15	226.01	12.08	-46.4	-48.0	18.6	0.00e+00	0	43	0	1310720000	64	4326
2026-01-25 01:36:27.18	225.89	11.71	-46.4	-48.0	18.6	0.00e+00	0	43	0	1319108608	64	4309
2026-01-25 01:36:31.21	225.78	11.34	-46.8	-48.5	18.1	0.00e+00	0	43	0	1326448640	64	4575
2026-01-25 01:36:35.25	225.66	10.97	-46.7	-48.5	18.1	0.00e+00	0	43	0	1333788672	64	4552
2026-01-25 01:36:39.28	225.56	10.61	-47.0	-48.9	17.7	0.00e+00	0	43	0	1341128704	64	4760
2026-01-25 01:36:43.32	225.45	10.26	-47.0	-48.9	17.6	0.00e+00	0	43	0	1348468736	64	4777
2026-01-25 01:36:47.35	225.35	9.91	-47.0	-48.9	17.6	0.00e+00	0	43	0	1356857344	64	4771
2026-01-25 01:36:51.39	225.25	9.57	-47.1	-48.9	17.5	0.00e+00	0	43	0	1364197376	64	4807
2026-01-25 01:36:55.42	225.15	9.23	-47.0	-48.8	17.7	0.00e+00	0	43	0	1371537408	64	4733
2026-01-25 01:36:59.45	225.05	8.89	-46.9	-48.8	17.6	0.00e+00	0	43	0	1378877440	64	4708
2026-01-25 01:37:03.49	224.96	8.56	-46.9	-48.7	17.6	0.00e+00	0	43	0	1387266048	64	4703
2026-01-25 01:37:07.52	224.87	8.24	-47.1	-49.0	17.4	0.00e+00	0	43	0	1394606080	64	4821
2026-01-25 01:37:11.55	224.78	7.91	-47.2	-49.2	17.1	0.00e+00	0	43	0	1401946112	65	4704
2026-01-25 01:37:15.58	224.69	7.59	-47.2	-49.2	17.0	0.00e+00	0	43	0	1409286144	65	4692
2026-01-25 01:37:19.61	224.61	7.28	-47.6	-49.8	16.4	0.00e+00	0	43	0	1416626176	65	5017
2026-01-25 01:37:23.65	224.53	6.97	-47.5	-49.6	16.7	0.00e+00	0	43	0	1423966208	66	4611
2026-01-25 01:37:27.68	224.45	6.66	-47.8	-50.0	16.2	0.00e+00	0	43	0	1432354816	66	4863
2026-01-25 01:37:31.72	224.37	6.36	-47.8	-50.1	16.1	0.00e+00	0	43	0	1439694848	66	4899
2026-01-25 01:37:35.75	224.29	6.06	-47.8	-50.1	16.0	0.00e+00	0	43	0	1447034880	66	4894
2026-01-25 01:37:39.78	224.22	5.76	-47.9	-50.2	15.9	0.00e+00	0	43	0	1454374912	66	4982
2026-01-25 01:37:43.81	224.15	5.47	-47.9	-50.3	15.8	0.00e+00	0	43	0	1462763520	66	5017
2026-01-25 01:37:47.85	224.08	5.18	-48.0	-50.5	15.5	0.00e+00	0	43	0	1470103552	66	5136
2026-01-25 01:37:51.88	224.01	4.89	-52.9	-67.9	3.8	1.49e+00	0	43	104	1475346432	76	21355
2026-01-25 01:37:55.91	223.94	4.61	-53.6	-68.6	3.8	1.49e+00	0	43	104	1475346432	77	21809
2026-01-25 01:37:59.95	223.87	4.33	-53.9	-68.9	3.8	1.49e+00	0	43	104	1475346432	78	21339
2026-01-25 01:38:03.99	223.81	4.05	-54.1	-69.0	3.8	1.49e+00	0	43	104	1475346432	78	21717
2026-01-25 01:38:08.02	223.75	3.77	-54.1	-69.0	3.8	1.49e+00	0	43	104	1475346432	78	21739
2026-01-25 01:38:12.05	223.68	3.50	-54.0	-69.0	3.8	1.49e+00	0	43	104	1475346432	78	21620
2026-01-25 01:38:16.09	223.62	3.23	-53.9	-68.9	3.8	1.49e+00	0	43	104	1475346432	78	21273
2026-01-25 01:38:20.13	223.56	2.96	-53.8	-68.8	3.8	1.49e+00	0	43	104	1475346432	78	21018
2026-01-25 01:38:24.17	223.51	2.69	-53.7	-68.7	3.8	1.49e+00	0	43	104	1475346432	78	20902
2026-01-25 01:38:28.20	223.45	2.43	-53.7	-68.7	3.8	1.49e+00	0	43	104	1475346432	78	20905
2026-01-25 01:38:32.23	223.40	2.17	-53.7	-68.7	3.8	1.49e+00	0	43	104	1475346432	78	20859

#Closed at: 2026-01-25 01:38:35
#Recorded file [1475 MB]: D:/lorett/data/31041_260125_042416.dat