passes_logs/2026/01/25/R3.2S_Murmansk/R3.2S_Murmansk__20260125_100153_NOAA_20_JPSS-1_rec.log

#Pass ID: 20260125_100153_NOAA 20 (JPSS-1)
#Satellite: NOAA 20 (JPSS-1)
#Configuration: NOAA 20
#almurnet v.1.7.20251203
#Start time: 2026-01-25 10:01:55

#Version: 2.2.20231116
#Station: R3.2S_Murmansk
#Location: 33.079688 lon 68.888172 lat
#TLE: 1 43013U 17073A   26024.91598314  .00000178  00000+0  10511-3 0  9999
#TLE: 2 43013  98.7646 325.7511 0001081  25.0859 335.0369 14.19539982424141

#Time	Az	El	Level	Level2	SNR	BER	BlckErr	Temp	State	Recorded	gain1	gain2
2026-01-25 10:01:55.10	163.92	2.12	-52.2	-67.2	3.8	1.49e+00	0	42	0	0	76	19616
2026-01-25 10:01:59.13	163.99	2.38	-52.1	-67.0	3.8	1.49e+00	0	42	104	0	74	21640
2026-01-25 10:02:03.16	164.06	2.64	-52.1	-67.0	3.8	1.49e+00	0	42	104	0	74	21648
2026-01-25 10:02:07.19	164.13	2.90	-52.1	-66.9	3.8	1.49e+00	0	42	104	0	74	21407
2026-01-25 10:02:11.22	164.20	3.17	-52.1	-67.0	3.8	1.49e+00	0	42	104	0	74	21592
2026-01-25 10:02:15.25	164.27	3.44	-52.1	-66.9	3.8	1.49e+00	0	42	104	0	74	21326
2026-01-25 10:02:19.29	164.34	3.71	-52.1	-66.9	3.8	1.49e+00	0	43	104	0	74	21291
2026-01-25 10:02:23.32	164.42	3.99	-51.9	-63.8	4.1	1.48e+00	0	42	104	0	74	15039
2026-01-25 10:02:27.36	164.49	4.26	-50.7	-56.3	9.5	3.36e-02	0	43	0	6291456	73	6664
2026-01-25 10:02:31.39	164.57	4.54	-48.7	-51.7	14.3	5.30e-06	0	43	0	13631488	69	4957
2026-01-25 10:02:35.42	164.65	4.83	-47.3	-49.6	16.4	0.00e+00	0	43	0	20971520	66	4605
2026-01-25 10:02:39.45	164.73	5.11	-48.3	-50.9	15.1	0.00e+00	0	43	0	29360128	67	5083
2026-01-25 10:02:43.48	164.81	5.40	-47.8	-50.1	16.0	0.00e+00	0	43	0	36700160	66	4905
2026-01-25 10:02:47.51	164.89	5.70	-47.3	-49.5	16.7	0.00e+00	0	43	0	44040192	66	4551
2026-01-25 10:02:51.54	164.97	5.99	-47.2	-49.2	17.0	0.00e+00	0	43	0	51380224	66	4436
2026-01-25 10:02:55.58	165.06	6.29	-47.1	-49.0	17.2	0.00e+00	0	43	0	58720256	65	4596
2026-01-25 10:02:59.61	165.15	6.59	-47.0	-49.0	17.3	0.00e+00	0	43	0	67108864	65	4563
2026-01-25 10:03:03.64	165.23	6.90	-47.0	-48.9	17.5	0.00e+00	0	43	0	74448896	65	4500
2026-01-25 10:03:07.67	165.32	7.21	-46.8	-48.6	17.7	0.00e+00	0	43	0	81788928	65	4389
2026-01-25 10:03:11.70	165.41	7.52	-46.8	-48.6	17.8	0.00e+00	0	43	0	89128960	65	4356
2026-01-25 10:03:15.74	165.51	7.84	-46.4	-48.0	18.4	0.00e+00	0	43	0	96468992	64	4338
2026-01-25 10:03:19.77	165.60	8.16	-46.6	-48.3	18.1	0.00e+00	0	43	0	104857600	64	4492
2026-01-25 10:03:23.80	165.70	8.49	-46.3	-47.9	18.6	0.00e+00	0	43	0	112197632	64	4280
2026-01-25 10:03:27.84	165.80	8.82	-46.2	-47.8	18.6	0.00e+00	0	43	0	119537664	64	4241
2026-01-25 10:03:31.87	165.90	9.15	-46.2	-47.8	18.7	0.00e+00	0	44	0	126877696	64	4225
2026-01-25 10:03:35.90	166.00	9.49	-46.0	-47.6	19.0	0.00e+00	0	43	0	135266304	64	4110
2026-01-25 10:03:39.93	166.10	9.83	-46.0	-47.6	19.2	0.00e+00	0	43	0	142606336	63	4345
2026-01-25 10:03:43.96	166.21	10.18	-46.0	-47.5	19.3	0.00e+00	0	43	0	149946368	63	4303
2026-01-25 10:03:48.00	166.32	10.53	-45.9	-47.3	19.5	0.00e+00	0	43	0	157286400	63	4227
2026-01-25 10:03:52.02	166.43	10.89	-45.8	-47.2	19.6	0.00e+00	0	44	0	164626432	63	4171
2026-01-25 10:03:56.06	166.54	11.25	-45.9	-47.3	19.5	0.00e+00	0	43	0	173015040	63	4230
2026-01-25 10:04:00.10	166.66	11.62	-45.8	-47.3	19.5	0.00e+00	0	43	0	180355072	63	4222
2026-01-25 10:04:04.13	166.78	12.00	-45.6	-47.0	19.9	0.00e+00	0	43	0	187695104	63	4067
2026-01-25 10:04:08.16	166.90	12.38	-45.7	-47.1	19.8	0.00e+00	0	44	0	195035136	63	4116
2026-01-25 10:04:12.20	167.02	12.76	-45.6	-46.9	20.0	0.00e+00	0	43	0	203423744	63	4046
2026-01-25 10:04:16.23	167.15	13.16	-45.3	-46.7	20.2	0.00e+00	0	43	0	210763776	62	4152
2026-01-25 10:04:20.26	167.28	13.55	-45.4	-46.7	20.2	0.00e+00	0	44	0	218103808	62	4181
2026-01-25 10:04:24.29	167.41	13.96	-45.1	-46.4	20.5	0.00e+00	0	43	0	225443840	62	4034
2026-01-25 10:04:28.32	167.55	14.37	-45.1	-46.4	20.5	0.00e+00	0	44	0	232783872	62	4038
2026-01-25 10:04:32.36	167.69	14.79	-45.2	-46.5	20.5	0.00e+00	0	43	0	240123904	62	4065
2026-01-25 10:04:36.39	167.83	15.21	-45.2	-46.5	20.4	0.00e+00	0	44	0	248512512	62	4096
2026-01-25 10:04:40.42	167.98	15.65	-45.3	-46.6	20.3	0.00e+00	0	44	0	255852544	62	4144
2026-01-25 10:04:44.45	168.13	16.09	-45.5	-46.9	20.2	0.00e+00	0	44	0	263192576	62	4248
2026-01-25 10:04:48.48	168.28	16.54	-45.5	-46.9	20.2	0.00e+00	0	44	0	270532608	62	4251
2026-01-25 10:04:52.52	168.44	16.99	-45.7	-47.1	19.9	0.00e+00	0	44	0	278921216	62	4370
2026-01-25 10:04:56.55	168.61	17.46	-45.9	-47.3	19.8	0.00e+00	0	43	0	286261248	62	4469
2026-01-25 10:05:00.58	168.78	17.93	-46.1	-47.5	19.6	0.00e+00	0	44	0	293601280	62	4590
2026-01-25 10:05:04.62	168.95	18.42	-46.3	-47.8	19.4	0.00e+00	0	44	0	300941312	63	4443
2026-01-25 10:05:08.65	169.13	18.91	-46.1	-47.7	19.1	0.00e+00	0	44	0	308281344	63	4441
2026-01-25 10:05:12.68	169.31	19.41	-46.1	-47.8	18.9	0.00e+00	0	44	0	316669952	63	4453
2026-01-25 10:05:16.72	169.50	19.92	-46.2	-47.8	18.4	1.73e-03	0	44	0	324009984	63	4467
2026-01-25 10:05:20.75	169.70	20.45	-46.2	-47.8	18.5	1.64e-03	0	44	0	331350016	63	4448
2026-01-25 10:05:24.78	169.90	20.98	-46.2	-47.7	19.5	0.00e+00	0	44	0	338690048	63	4395
2026-01-25 10:05:28.82	170.11	21.53	-46.1	-47.5	19.6	0.00e+00	0	44	0	347078656	63	4322
2026-01-25 10:05:32.85	170.32	22.08	-46.0	-47.4	19.7	0.00e+00	0	44	0	354418688	63	4287
2026-01-25 10:05:36.88	170.55	22.65	-46.0	-47.4	19.8	0.00e+00	0	44	0	361758720	63	4277
2026-01-25 10:05:40.91	170.78	23.23	-45.9	-47.2	19.9	0.00e+00	0	44	0	369098752	63	4188
2026-01-25 10:05:44.94	171.01	23.83	-45.7	-47.1	20.1	0.00e+00	0	44	0	376438784	63	4120
2026-01-25 10:05:48.98	171.26	24.44	-45.8	-47.2	20.1	0.00e+00	0	44	0	383778816	63	4153
2026-01-25 10:05:53.01	171.52	25.06	-45.6	-46.9	20.3	0.00e+00	0	44	0	392167424	63	4049
2026-01-25 10:05:57.04	171.79	25.69	-45.8	-47.1	20.2	0.00e+00	0	44	0	399507456	63	4120
2026-01-25 10:06:01.07	172.06	26.34	-46.0	-47.3	20.0	0.00e+00	0	44	0	406847488	63	4230
2026-01-25 10:06:05.10	172.35	27.01	-46.3	-47.8	19.6	0.00e+00	0	44	0	414187520	63	4452
2026-01-25 10:06:09.13	172.65	27.69	-46.5	-47.9	19.4	0.00e+00	0	44	0	422576128	63	4536
2026-01-25 10:06:13.16	172.96	28.39	-46.4	-47.9	19.5	0.00e+00	0	44	0	429916160	63	4529
2026-01-25 10:06:17.20	173.29	29.11	-46.6	-48.1	19.2	0.00e+00	0	44	0	437256192	63	4651
2026-01-25 10:06:21.23	173.63	29.84	-46.9	-48.5	18.8	0.00e+00	0	44	0	444596224	64	4584
2026-01-25 10:06:25.26	173.98	30.59	-47.0	-48.6	18.7	0.00e+00	0	44	0	451936256	64	4630
2026-01-25 10:06:29.29	174.35	31.36	-47.1	-48.8	18.6	0.00e+00	0	44	0	460324864	64	4708
2026-01-25 10:06:33.32	174.74	32.15	-47.4	-49.1	18.3	0.00e+00	0	44	0	467664896	65	4609
2026-01-25 10:06:37.36	175.15	32.96	-47.0	-48.6	18.8	0.00e+00	0	44	0	475004928	65	4361
2026-01-25 10:06:41.39	175.58	33.79	-46.9	-48.5	18.9	0.00e+00	0	44	0	482344960	65	4313
2026-01-25 10:06:45.42	176.03	34.64	-46.9	-48.5	18.9	0.00e+00	0	43	0	489684992	65	4330
2026-01-25 10:06:49.45	176.50	35.52	-46.6	-48.1	19.4	0.00e+00	0	44	0	498073600	65	4103
2026-01-25 10:06:53.48	177.00	36.41	-46.7	-48.2	19.2	0.00e+00	0	44	0	505413632	64	4395
2026-01-25 10:06:57.51	177.52	37.33	-47.0	-48.6	18.8	0.00e+00	0	44	0	512753664	64	4642
2026-01-25 10:07:01.54	178.08	38.27	-47.7	-49.5	18.1	0.00e+00	0	44	0	520093696	65	4828
2026-01-25 10:07:05.57	178.67	39.24	-48.4	-50.5	17.0	0.00e+00	0	44	0	527433728	67	4844
2026-01-25 10:07:09.60	179.29	40.23	-48.2	-50.2	17.3	0.00e+00	0	44	0	535822336	67	4679
2026-01-25 10:07:13.63	179.95	41.24	-48.6	-50.8	16.7	0.00e+00	0	44	0	543162368	67	5001
2026-01-25 10:07:17.65	180.65	42.28	-48.7	-50.9	16.8	0.00e+00	0	44	0	550502400	68	4771
2026-01-25 10:07:21.69	181.40	43.35	-47.9	-49.7	17.9	0.00e+00	0	44	0	557842432	67	4413
2026-01-25 10:07:25.72	182.21	44.44	-48.1	-50.1	17.5	0.00e+00	0	44	0	566231040	67	4606
2026-01-25 10:07:29.76	183.07	45.55	-48.5	-50.6	17.0	0.00e+00	0	44	0	573571072	67	4882
2026-01-25 10:07:33.79	183.98	46.69	-48.3	-50.3	17.4	0.00e+00	0	44	0	580911104	68	4470
2026-01-25 10:07:37.82	184.97	47.85	-48.0	-49.8	17.9	0.00e+00	0	44	0	588251136	67	4480
2026-01-25 10:07:41.85	186.04	49.03	-47.7	-49.5	18.1	0.00e+00	0	44	0	595591168	67	4309
2026-01-25 10:07:45.89	187.19	50.24	-45.7	-47.0	20.6	0.00e+00	0	43	0	602931200	63	4065
2026-01-25 10:07:49.92	188.43	51.46	-44.6	-45.7	21.8	0.00e+00	0	44	0	611319808	61	3917
2026-01-25 10:07:53.95	189.78	52.71	-44.0	-45.1	22.7	0.00e+00	0	44	0	618659840	59	4103
2026-01-25 10:07:57.99	191.25	53.96	-43.1	-44.0	23.7	0.00e+00	0	44	0	625999872	58	3831
2026-01-25 10:08:02.02	192.85	55.23	-44.1	-45.2	22.6	0.00e+00	0	44	0	633339904	58	4399
2026-01-25 10:08:06.06	194.60	56.50	-44.9	-46.1	21.4	0.00e+00	0	43	0	641728512	60	4368
2026-01-25 10:08:10.09	196.51	57.78	-45.3	-46.5	21.1	0.00e+00	0	44	0	649068544	61	4322
2026-01-25 10:08:14.13	198.62	59.05	-45.0	-46.2	21.4	0.00e+00	0	44	0	656408576	61	4168
2026-01-25 10:08:18.16	200.93	60.31	-44.1	-45.1	22.5	0.00e+00	0	44	0	663748608	60	3881
2026-01-25 10:08:22.19	203.48	61.54	-44.4	-45.4	22.4	0.00e+00	0	44	0	671088640	59	4269
2026-01-25 10:08:26.23	206.30	62.75	-44.4	-45.5	22.4	0.00e+00	0	44	0	679477248	59	4304
2026-01-25 10:08:30.26	209.40	63.91	-45.5	-46.7	21.0	0.00e+00	0	44	0	686817280	61	4412
2026-01-25 10:08:34.30	212.82	65.02	-45.4	-46.6	21.1	0.00e+00	0	44	0	694157312	61	4391
2026-01-25 10:08:38.32	216.57	66.05	-45.0	-46.2	21.5	0.00e+00	0	44	0	701497344	62	3919
2026-01-25 10:08:42.36	220.69	67.00	-46.0	-47.3	20.5	0.00e+00	0	44	0	709885952	62	4487
2026-01-25 10:08:46.39	225.16	67.83	-46.3	-47.7	20.2	0.00e+00	0	44	0	717225984	63	4396
2026-01-25 10:08:50.42	229.98	68.54	-47.7	-49.4	18.4	0.00e+00	0	44	0	724566016	65	4788
2026-01-25 10:08:54.45	235.12	69.11	-46.9	-48.4	19.3	0.00e+00	0	44	0	731906048	65	4281
2026-01-25 10:08:58.48	240.53	69.51	-46.8	-48.3	19.5	0.00e+00	0	44	0	739246080	65	4210
2026-01-25 10:09:02.51	246.11	69.75	-46.3	-47.6	20.2	0.00e+00	0	44	0	747634688	63	4388
2026-01-25 10:09:06.55	251.80	69.79	-45.6	-46.8	21.0	0.00e+00	0	44	0	754974720	62	4218
2026-01-25 10:09:10.58	257.44	69.66	-45.1	-46.2	21.5	0.00e+00	0	44	0	762314752	60	4435
2026-01-25 10:09:14.61	262.95	69.35	-45.8	-47.1	20.7	0.00e+00	0	44	0	769654784	62	4342
2026-01-25 10:09:18.65	268.25	68.87	-46.9	-48.5	19.3	0.00e+00	0	44	0	776994816	65	4294
2026-01-25 10:09:22.68	273.25	68.23	-47.2	-48.8	19.0	0.00e+00	0	44	0	785383424	66	4199
2026-01-25 10:09:26.71	277.90	67.46	-46.7	-48.1	19.5	0.00e+00	0	44	0	792723456	65	4144
2026-01-25 10:09:30.74	282.21	66.57	-46.0	-47.3	20.4	0.00e+00	0	43	0	800063488	64	3987
2026-01-25 10:09:34.77	286.15	65.59	-45.5	-46.8	21.0	0.00e+00	0	44	0	807403520	62	4195
2026-01-25 10:09:38.80	289.74	64.52	-45.3	-46.5	21.2	0.00e+00	0	44	0	815792128	61	4332
2026-01-25 10:09:42.83	293.00	63.39	-44.3	-45.4	22.6	0.00e+00	0	44	0	823132160	59	4248
2026-01-25 10:09:46.86	295.96	62.21	-44.1	-45.1	22.8	0.00e+00	0	44	0	830472192	59	4113
2026-01-25 10:09:50.90	298.65	60.99	-43.5	-44.5	23.3	0.00e+00	0	44	0	837812224	58	4065
2026-01-25 10:09:54.93	301.08	59.74	-43.8	-44.7	23.2	0.00e+00	0	44	0	845152256	59	3952
2026-01-25 10:09:58.97	303.30	58.48	-45.1	-46.3	21.4	0.00e+00	0	44	0	852492288	61	4208
2026-01-25 10:10:03.00	305.31	57.21	-45.8	-47.1	20.7	0.00e+00	0	44	0	860880896	62	4368
2026-01-25 10:10:07.03	307.14	55.94	-43.7	-44.7	23.1	0.00e+00	0	44	0	868220928	59	3914
2026-01-25 10:10:11.06	308.82	54.68	-44.2	-45.2	22.3	0.00e+00	0	44	0	875560960	60	3957
2026-01-25 10:10:15.09	310.35	53.42	-44.1	-45.2	22.8	0.00e+00	0	44	0	882900992	58	4394
2026-01-25 10:10:19.12	311.76	52.18	-43.9	-44.9	23.0	0.00e+00	0	44	0	891289600	59	4044
2026-01-25 10:10:23.16	313.06	50.94	-45.5	-46.8	21.0	0.00e+00	0	44	0	898629632	61	4456
2026-01-25 10:10:27.19	314.26	49.73	-44.9	-46.0	21.6	0.00e+00	0	44	0	905969664	61	4087
2026-01-25 10:10:31.22	315.37	48.54	-49.6	-52.3	15.7	0.00e+00	0	44	0	913309696	69	5285
2026-01-25 10:10:35.25	316.40	47.37	-47.2	-48.8	18.9	0.00e+00	0	44	0	920649728	66	4216
2026-01-25 10:10:39.29	317.35	46.22	-48.3	-50.3	17.5	0.00e+00	0	44	0	929038336	67	4732
2026-01-25 10:10:43.32	318.24	45.10	-45.4	-46.6	21.1	0.00e+00	0	44	0	936378368	62	4103
2026-01-25 10:10:47.35	319.07	44.00	-44.9	-46.0	21.6	0.00e+00	0	44	0	943718400	60	4334
2026-01-25 10:10:51.38	319.85	42.93	-45.7	-47.0	20.6	0.00e+00	0	44	0	951058432	63	4068
2026-01-25 10:10:55.42	320.58	41.88	-44.3	-45.3	22.5	0.00e+00	0	44	0	959447040	59	4221
2026-01-25 10:10:59.45	321.27	40.85	-47.3	-49.0	18.6	0.00e+00	0	44	0	966787072	65	4581
2026-01-25 10:11:03.48	321.91	39.85	-45.3	-46.5	21.1	0.00e+00	0	44	0	974127104	62	4087
2026-01-25 10:11:07.52	322.52	38.87	-44.9	-46.0	21.6	0.00e+00	0	44	0	981467136	60	4307
2026-01-25 10:11:11.55	323.09	37.92	-47.0	-48.6	19.0	0.00e+00	0	44	0	988807168	66	4129
2026-01-25 10:11:15.58	323.63	36.99	-44.9	-46.0	21.6	0.00e+00	0	44	0	996147200	61	4089
2026-01-25 10:11:19.61	324.15	36.09	-44.9	-46.0	21.5	0.00e+00	0	44	0	1004535808	60	4334
2026-01-25 10:11:23.64	324.63	35.21	-45.4	-46.7	20.9	0.00e+00	0	44	0	1011875840	61	4401
2026-01-25 10:11:27.68	325.10	34.34	-45.7	-46.9	20.7	0.00e+00	0	44	0	1019215872	62	4274
2026-01-25 10:11:31.71	325.54	33.50	-45.9	-47.2	20.4	0.00e+00	0	44	0	1026555904	62	4393
2026-01-25 10:11:35.74	325.96	32.69	-46.3	-47.7	19.9	0.00e+00	0	44	0	1034944512	63	4406
2026-01-25 10:11:39.77	326.36	31.89	-46.1	-47.4	20.2	0.00e+00	0	44	0	1042284544	63	4279
2026-01-25 10:11:43.80	326.74	31.11	-46.8	-48.4	19.1	0.00e+00	0	44	0	1049624576	64	4504
2026-01-25 10:11:47.84	327.10	30.35	-46.9	-48.5	19.0	0.00e+00	0	44	0	1056964608	64	4578
2026-01-25 10:11:51.87	327.45	29.61	-46.2	-47.5	19.9	0.00e+00	0	44	0	1064304640	64	4096
2026-01-25 10:11:55.90	327.79	28.89	-45.6	-46.9	20.6	0.00e+00	0	43	0	1072693248	63	4015
2026-01-25 10:11:59.93	328.11	28.18	-45.4	-46.7	20.8	0.00e+00	0	44	0	1080033280	62	4153
2026-01-25 10:12:03.96	328.41	27.49	-45.9	-47.3	20.2	0.00e+00	0	44	0	1087373312	62	4445
2026-01-25 10:12:08.00	328.71	26.82	-45.9	-47.3	20.2	0.00e+00	0	44	0	1094713344	62	4463
2026-01-25 10:12:12.03	328.99	26.16	-45.2	-46.4	21.0	0.00e+00	0	44	0	1102053376	62	4011
2026-01-25 10:12:16.06	329.27	25.52	-44.4	-45.5	21.8	0.00e+00	0	44	0	1110441984	60	4068
2026-01-25 10:12:20.10	329.53	24.89	-44.3	-45.4	22.2	0.00e+00	0	44	0	1117782016	59	4266
2026-01-25 10:12:24.13	329.78	24.28	-44.7	-45.8	21.8	0.00e+00	0	44	0	1125122048	59	4484
2026-01-25 10:12:28.16	330.03	23.68	-44.4	-45.6	21.7	0.00e+00	0	44	0	1132462080	60	4105
2026-01-25 10:12:32.20	330.27	23.09	-44.3	-45.4	21.8	0.00e+00	0	44	0	1140850688	60	4019
2026-01-25 10:12:36.23	330.49	22.52	-44.3	-45.4	21.7	0.00e+00	0	44	0	1148190720	60	4045
2026-01-25 10:12:40.26	330.71	21.96	-44.3	-45.3	22.1	0.00e+00	0	44	0	1155530752	59	4234
2026-01-25 10:12:44.29	330.93	21.41	-44.2	-45.3	22.2	0.00e+00	0	44	0	1162870784	59	4201
2026-01-25 10:12:48.32	331.14	20.87	-44.3	-45.4	22.1	0.00e+00	0	44	0	1170210816	59	4248
2026-01-25 10:12:52.35	331.34	20.34	-44.5	-45.6	21.7	0.00e+00	0	44	0	1178599424	59	4369
2026-01-25 10:12:56.38	331.53	19.83	-44.6	-45.8	21.7	0.00e+00	0	44	0	1185939456	59	4448
2026-01-25 10:13:00.41	331.72	19.32	-44.4	-45.5	21.5	0.00e+00	0	44	0	1193279488	60	4094
2026-01-25 10:13:04.44	331.90	18.82	-44.7	-45.8	21.2	0.00e+00	0	44	0	1200619520	60	4233
2026-01-25 10:13:08.48	332.08	18.34	-44.5	-45.6	21.5	0.00e+00	0	44	0	1207959552	60	4119
2026-01-25 10:13:12.51	332.25	17.86	-44.4	-45.5	21.5	0.00e+00	0	44	0	1216348160	60	4084
2026-01-25 10:13:16.54	332.42	17.39	-44.5	-45.7	21.3	0.00e+00	0	44	0	1223688192	60	4169
2026-01-25 10:13:20.57	332.59	16.93	-44.8	-46.1	20.9	0.00e+00	0	44	0	1231028224	60	4343
2026-01-25 10:13:24.60	332.74	16.48	-45.0	-46.3	20.7	0.00e+00	0	44	0	1238368256	60	4464
2026-01-25 10:13:28.64	332.90	16.03	-45.3	-46.6	20.5	0.00e+00	0	44	0	1245708288	61	4346
2026-01-25 10:13:32.66	333.05	15.60	-45.5	-46.8	20.2	0.00e+00	0	44	0	1254096896	61	4480
2026-01-25 10:13:36.69	333.20	15.17	-45.5	-46.9	20.1	0.00e+00	0	44	0	1261436928	61	4499
2026-01-25 10:13:40.73	333.34	14.75	-45.7	-47.1	19.9	0.00e+00	0	44	0	1268776960	62	4353
2026-01-25 10:13:44.76	333.48	14.33	-45.7	-47.1	19.9	0.00e+00	0	44	0	1276116992	62	4371
2026-01-25 10:13:48.80	333.62	13.93	-45.8	-47.2	19.8	0.00e+00	0	44	0	1283457024	62	4413
2026-01-25 10:13:52.82	333.75	13.53	-45.8	-47.3	19.7	0.00e+00	0	44	0	1291845632	62	4457
2026-01-25 10:13:56.86	333.88	13.13	-45.8	-47.2	19.7	0.00e+00	0	44	0	1299185664	62	4400
2026-01-25 10:14:00.89	334.01	12.74	-45.8	-47.2	19.7	0.00e+00	0	44	0	1306525696	62	4410
2026-01-25 10:14:04.92	334.14	12.36	-45.9	-47.4	19.5	0.00e+00	0	44	0	1313865728	62	4512
2026-01-25 10:14:08.96	334.26	11.98	-45.9	-47.3	19.5	0.00e+00	0	44	0	1322254336	62	4489
2026-01-25 10:14:12.99	334.38	11.61	-45.9	-47.4	19.4	3.00e-06	0	44	0	1329594368	62	4517
2026-01-25 10:14:17.02	334.50	11.25	-45.8	-47.3	19.5	0.00e+00	0	44	0	1336934400	62	4455
2026-01-25 10:14:21.05	334.61	10.89	-45.9	-47.4	19.4	0.00e+00	0	44	0	1344274432	62	4509
2026-01-25 10:14:25.08	334.72	10.54	-45.7	-47.1	19.7	0.00e+00	0	44	0	1351614464	62	4358
2026-01-25 10:14:29.12	334.83	10.18	-45.8	-47.2	19.6	0.00e+00	0	44	0	1360003072	62	4421
2026-01-25 10:14:33.15	334.94	9.84	-45.6	-47.0	19.7	0.00e+00	0	44	0	1367343104	62	4308
2026-01-25 10:14:37.18	335.05	9.50	-45.7	-47.1	19.6	0.00e+00	0	44	0	1374683136	62	4370
2026-01-25 10:14:41.21	335.15	9.16	-45.7	-47.1	19.6	0.00e+00	0	44	0	1382023168	62	4369
2026-01-25 10:14:45.24	335.25	8.83	-45.6	-47.1	19.5	0.00e+00	0	44	0	1389363200	62	4367
2026-01-25 10:14:49.27	335.35	8.51	-45.7	-47.2	19.4	0.00e+00	0	44	0	1397751808	62	4414
2026-01-25 10:14:53.31	335.45	8.18	-45.8	-47.3	19.3	0.00e+00	0	44	0	1405091840	62	4445
2026-01-25 10:14:57.34	335.55	7.86	-45.9	-47.5	19.1	0.00e+00	0	44	0	1412431872	62	4546
2026-01-25 10:15:01.37	335.64	7.55	-45.9	-47.5	19.0	0.00e+00	0	44	0	1419771904	62	4567
2026-01-25 10:15:05.40	335.74	7.24	-46.0	-47.6	18.9	0.00e+00	0	44	0	1428160512	62	4627
2026-01-25 10:15:09.44	335.83	6.93	-46.0	-47.6	18.8	0.00e+00	0	44	0	1435500544	63	4358
2026-01-25 10:15:13.47	335.92	6.63	-46.1	-47.7	18.7	0.00e+00	0	44	0	1442840576	63	4420
2026-01-25 10:15:17.50	336.01	6.33	-46.4	-48.1	18.2	0.00e+00	0	44	0	1450180608	63	4651
2026-01-25 10:15:21.53	336.09	6.03	-46.3	-47.9	18.4	0.00e+00	0	44	0	1457520640	63	4539
2026-01-25 10:15:25.56	336.18	5.74	-46.5	-48.2	18.1	0.00e+00	0	44	0	1464860672	63	4690
2026-01-25 10:15:29.60	336.26	5.44	-46.4	-48.1	18.1	0.00e+00	0	44	0	1473249280	64	4376
2026-01-25 10:15:33.63	336.35	5.16	-46.5	-48.3	17.8	0.00e+00	0	44	0	1480589312	64	4468
2026-01-25 10:15:37.66	336.43	4.87	-53.1	-68.1	3.8	1.49e+00	0	44	104	1484783616	76	21767
2026-01-25 10:15:41.69	336.51	4.59	-53.6	-68.6	3.8	1.49e+00	0	44	104	1484783616	77	21782
2026-01-25 10:15:45.73	336.59	4.31	-54.0	-69.0	3.8	1.49e+00	0	44	104	1484783616	78	21619
2026-01-25 10:15:49.76	336.67	4.04	-54.2	-69.1	3.8	1.49e+00	0	44	104	1484783616	78	21963
2026-01-25 10:15:53.79	336.75	3.77	-54.2	-69.2	3.8	1.49e+00	0	44	104	1484783616	79	20875
2026-01-25 10:15:57.82	336.82	3.50	-54.2	-69.2	3.8	1.49e+00	0	44	104	1484783616	79	20830
2026-01-25 10:16:01.86	336.90	3.23	-54.1	-69.1	3.8	1.49e+00	0	44	104	1484783616	79	20594
2026-01-25 10:16:05.89	336.97	2.96	-54.1	-69.0	3.8	1.49e+00	0	44	104	1484783616	79	20532
2026-01-25 10:16:09.92	337.04	2.70	-54.0	-69.0	3.8	1.49e+00	0	44	104	1484783616	79	20434
2026-01-25 10:16:13.95	337.12	2.44	-54.0	-69.0	3.8	1.49e+00	0	44	104	1484783616	79	20409
2026-01-25 10:16:17.99	337.19	2.18	-54.0	-68.9	3.8	1.49e+00	0	44	104	1484783616	79	20285

#Closed at: 2026-01-25 10:16:21
#Recorded file [1484 MB]: D:/lorett/data/31041_260125_130154.dat