passes_logs/2026/01/25/R3.2S_Murmansk/R3.2S_Murmansk__20260125_103845_FENGYUN_3D_rec.log

#Pass ID: 20260125_103845_FENGYUN 3D
#Satellite: FENGYUN 3D
#Configuration: FENGYUN 3D
#almurnet v.1.7.20251203
#Start time: 2026-01-25 10:38:46

#Version: 2.2.20231116
#Station: R3.2S_Murmansk
#Location: 33.079688 lon 68.888172 lat
#TLE: 1 43010U 17072A   26024.94080550 -.00000109  00000+0 -29577-4 0  9995
#TLE: 2 43010  98.9962 356.9116 0002509  91.7481 268.3982 14.19699259424665

#Time	Az	El	Level	Level2	SNR	BER	BlckErr	Temp	State	Recorded	gain1	gain2
2026-01-25 10:38:46.13	129.55	2.02	-51.9	-63.8	3.8	8.47e-01	0	42	0	0	75	14115
2026-01-25 10:38:50.15	129.47	2.28	-51.9	-63.8	3.8	8.46e-01	0	42	104	0	74	14955
2026-01-25 10:38:54.18	129.39	2.54	-51.9	-63.8	3.8	8.47e-01	0	42	104	0	74	14979
2026-01-25 10:38:58.21	129.30	2.80	-51.9	-63.7	3.8	8.46e-01	0	42	104	0	74	14837
2026-01-25 10:39:02.24	129.22	3.06	-51.9	-63.6	3.8	8.46e-01	0	43	104	0	74	14614
2026-01-25 10:39:06.28	129.13	3.33	-51.8	-62.7	3.8	8.45e-01	0	43	104	0	74	13148
2026-01-25 10:39:10.31	129.04	3.60	-51.5	-60.4	4.2	8.38e-01	0	43	0	0	74	10097
2026-01-25 10:39:14.34	128.95	3.87	-51.4	-59.5	4.4	8.35e-01	0	43	0	0	74	9092
2026-01-25 10:39:18.36	128.85	4.15	-49.3	-52.8	9.7	1.91e-02	0	43	0	13631488	70	5336
2026-01-25 10:39:22.38	128.76	4.42	-45.6	-47.3	15.5	0.00e+00	0	43	0	35651584	63	4203
2026-01-25 10:39:26.41	128.66	4.70	-44.0	-45.3	17.8	0.00e+00	0	43	0	58720256	59	4214
2026-01-25 10:39:30.44	128.56	4.98	-44.4	-45.8	17.3	0.00e+00	0	43	0	81788928	59	4449
2026-01-25 10:39:34.46	128.46	5.27	-45.8	-47.4	15.2	1.43e-01	0	43	0	103809024	63	4290
2026-01-25 10:39:38.48	128.35	5.56	-43.4	-44.5	18.7	0.00e+00	0	43	0	126877696	58	4096
2026-01-25 10:39:42.51	128.24	5.85	-43.2	-44.4	18.9	0.00e+00	0	43	0	148897792	58	4020
2026-01-25 10:39:46.54	128.13	6.15	-43.1	-44.3	19.1	0.00e+00	0	43	0	171966464	57	4197
2026-01-25 10:39:50.55	128.02	6.44	-43.1	-44.2	19.2	0.00e+00	0	43	0	195035136	57	4166
2026-01-25 10:39:54.56	127.91	6.74	-42.8	-43.8	19.6	0.00e+00	0	43	0	217055232	57	4004
2026-01-25 10:39:58.59	127.79	7.05	-42.8	-43.9	19.6	0.00e+00	0	43	0	240123904	57	4009
2026-01-25 10:40:02.61	127.67	7.36	-42.5	-43.6	19.9	0.00e+00	0	43	0	262144000	56	4099
2026-01-25 10:40:06.63	127.55	7.67	-42.4	-43.4	20.1	0.00e+00	0	43	0	285212672	56	4041
2026-01-25 10:40:10.66	127.42	7.99	-42.3	-43.3	20.2	0.00e+00	0	44	0	307232768	56	3991
2026-01-25 10:40:14.68	127.29	8.30	-42.3	-43.3	20.2	0.00e+00	0	43	0	330301440	56	3993
2026-01-25 10:40:18.70	127.16	8.63	-42.1	-43.0	20.5	0.00e+00	0	43	0	352321536	56	3862
2026-01-25 10:40:22.72	127.03	8.96	-41.9	-42.8	20.7	0.00e+00	0	44	0	375390208	55	3992
2026-01-25 10:40:26.75	126.89	9.29	-41.7	-42.7	20.9	0.00e+00	0	44	0	398458880	55	3924
2026-01-25 10:40:30.77	126.74	9.62	-41.7	-42.6	20.9	0.00e+00	0	44	0	420478976	55	3899
2026-01-25 10:40:34.79	126.60	9.96	-41.7	-42.6	20.9	0.00e+00	0	44	0	443547648	55	3907
2026-01-25 10:40:38.81	126.45	10.31	-41.9	-42.9	20.7	0.00e+00	0	44	0	465567744	55	4012
2026-01-25 10:40:42.83	126.30	10.66	-41.6	-42.5	21.1	0.00e+00	0	44	0	488636416	55	3844
2026-01-25 10:40:46.86	126.14	11.01	-41.6	-42.6	21.1	0.00e+00	0	44	0	511705088	55	3878
2026-01-25 10:40:50.89	125.98	11.37	-41.5	-42.4	21.2	0.00e+00	0	44	0	533725184	54	4051
2026-01-25 10:40:54.91	125.81	11.74	-41.4	-42.3	21.3	0.00e+00	0	44	0	556793856	54	3999
2026-01-25 10:40:58.93	125.64	12.11	-41.2	-42.1	21.5	0.00e+00	0	44	0	579862528	54	3890
2026-01-25 10:41:02.95	125.46	12.48	-41.1	-42.0	21.7	0.00e+00	0	44	0	601882624	54	3852
2026-01-25 10:41:06.98	125.28	12.86	-41.1	-42.0	21.7	0.00e+00	0	44	0	623902720	54	3836
2026-01-25 10:41:11.00	125.10	13.25	-41.0	-41.8	21.9	0.00e+00	0	44	0	646971392	53	3996
2026-01-25 10:41:15.03	124.91	13.64	-40.9	-41.7	22.0	0.00e+00	0	44	0	670040064	53	3952
2026-01-25 10:41:19.05	124.71	14.04	-40.9	-41.7	22.0	0.00e+00	0	44	0	692060160	53	3951
2026-01-25 10:41:23.07	124.51	14.45	-40.9	-41.8	22.0	0.00e+00	0	44	0	715128832	53	3989
2026-01-25 10:41:27.10	124.30	14.86	-40.8	-41.7	22.1	0.00e+00	0	44	0	737148928	53	3923
2026-01-25 10:41:31.12	124.09	15.28	-40.6	-41.5	22.3	0.00e+00	0	44	0	760217600	53	3841
2026-01-25 10:41:35.15	123.86	15.70	-40.4	-41.3	22.5	0.00e+00	0	44	0	783286272	52	3962
2026-01-25 10:41:39.18	123.64	16.14	-40.2	-41.0	22.8	0.00e+00	0	44	0	805306368	52	3854
2026-01-25 10:41:43.19	123.40	16.57	-39.8	-40.6	23.2	0.00e+00	0	44	0	828375040	51	3890
2026-01-25 10:41:47.19	123.16	17.02	-39.8	-40.6	23.3	0.00e+00	0	44	0	850395136	51	3870
2026-01-25 10:41:51.20	122.91	17.47	-39.7	-40.5	23.4	0.00e+00	0	44	0	873463808	51	3830
2026-01-25 10:41:55.21	122.66	17.93	-39.9	-40.7	23.1	0.00e+00	0	44	0	895483904	51	3936
2026-01-25 10:41:59.23	122.39	18.40	-39.7	-40.5	23.3	0.00e+00	0	44	0	918552576	51	3866
2026-01-25 10:42:03.25	122.12	18.88	-39.6	-40.4	23.4	0.00e+00	0	44	0	940572672	51	3819
2026-01-25 10:42:07.26	121.83	19.37	-39.5	-40.3	23.5	0.00e+00	0	44	0	963641344	51	3777
2026-01-25 10:42:11.29	121.54	19.86	-39.4	-40.2	23.6	0.00e+00	0	44	0	985661440	50	3948
2026-01-25 10:42:15.31	121.23	20.37	-39.5	-40.3	23.6	0.00e+00	0	44	0	1008730112	50	3963
2026-01-25 10:42:19.32	120.92	20.88	-39.4	-40.3	23.1	0.00e+00	0	44	0	1030750208	50	3962
2026-01-25 10:42:23.35	120.59	21.41	-39.3	-40.1	23.6	0.00e+00	0	44	0	1053818880	50	3900
2026-01-25 10:42:27.37	120.26	21.94	-39.1	-39.9	23.8	0.00e+00	0	44	0	1076887552	50	3798
2026-01-25 10:42:31.39	119.91	22.49	-38.9	-39.6	24.2	0.00e+00	0	44	0	1098907648	49	3906
2026-01-25 10:42:35.42	119.54	23.04	-38.7	-39.4	24.4	0.00e+00	0	44	0	1121976320	49	3820
2026-01-25 10:42:39.44	119.17	23.61	-38.7	-39.4	24.4	0.00e+00	0	44	0	1145044992	49	3822
2026-01-25 10:42:43.47	118.77	24.19	-38.8	-39.5	24.3	0.00e+00	0	44	0	1167065088	49	3861
2026-01-25 10:42:47.49	118.37	24.78	-38.7	-39.5	24.4	0.00e+00	0	44	0	1190133760	49	3846
2026-01-25 10:42:51.52	117.94	25.38	-38.6	-39.3	24.6	0.00e+00	0	44	0	1212153856	49	3779
2026-01-25 10:42:55.54	117.50	25.99	-38.4	-39.1	24.7	0.00e+00	0	44	0	1235222528	48	3892
2026-01-25 10:42:59.57	117.04	26.62	-38.3	-39.0	25.2	0.00e+00	0	44	0	1257242624	48	3834
2026-01-25 10:43:03.59	116.57	27.26	-38.3	-39.0	25.2	0.00e+00	0	44	0	1280311296	48	3840
2026-01-25 10:43:07.62	116.07	27.91	-38.2	-38.9	25.3	0.00e+00	0	44	0	1302331392	48	3797
2026-01-25 10:43:11.64	115.55	28.57	-38.0	-38.7	25.5	0.00e+00	0	44	0	1325400064	48	3717
2026-01-25 10:43:15.67	115.01	29.25	-37.8	-38.5	25.1	0.00e+00	0	44	0	1348468736	47	3862
2026-01-25 10:43:19.70	114.44	29.95	-37.9	-38.6	25.0	0.00e+00	0	44	0	1370488832	47	3902
2026-01-25 10:43:23.73	113.85	30.65	-37.6	-38.3	25.3	0.00e+00	0	44	0	1393557504	47	3767
2026-01-25 10:43:27.75	113.23	31.37	-37.4	-38.1	25.5	0.00e+00	0	44	0	1416626176	46	3878
2026-01-25 10:43:31.78	112.59	32.10	-37.4	-38.1	25.6	0.00e+00	0	44	0	1438646272	46	3869
2026-01-25 10:43:35.81	111.91	32.85	-37.5	-38.2	25.5	0.00e+00	0	44	0	1461714944	46	3917
2026-01-25 10:43:39.84	111.20	33.61	-37.1	-37.8	25.8	0.00e+00	0	44	0	1484783616	46	3760
2026-01-25 10:43:43.86	110.45	34.39	-37.1	-37.8	25.8	0.00e+00	0	44	0	1506803712	46	3775
2026-01-25 10:43:47.88	109.67	35.17	-37.2	-37.9	25.7	0.00e+00	0	44	0	1529872384	46	3807
2026-01-25 10:43:51.90	108.85	35.97	-37.4	-38.1	25.6	0.00e+00	0	44	0	1551892480	46	3874
2026-01-25 10:43:55.93	107.98	36.79	-37.4	-38.1	25.5	0.00e+00	0	44	0	1574961152	46	3909
2026-01-25 10:43:59.96	107.07	37.62	-37.5	-38.2	25.4	0.00e+00	0	44	0	1598029824	46	3954
2026-01-25 10:44:03.98	106.11	38.46	-37.8	-38.5	25.0	0.00e+00	0	44	0	1620049920	46	4082
2026-01-25 10:44:08.01	105.10	39.31	-37.5	-38.2	24.4	0.00e+00	0	44	0	1642070016	46	3930
2026-01-25 10:44:12.04	104.04	40.17	-37.4	-38.1	25.0	0.00e+00	0	44	0	1665138688	46	3890
2026-01-25 10:44:16.07	102.91	41.04	-37.7	-38.4	25.3	0.00e+00	0	44	0	1688207360	46	4038
2026-01-25 10:44:20.10	101.72	41.92	-37.8	-38.5	25.3	0.00e+00	0	44	0	1710227456	46	4062
2026-01-25 10:44:24.13	100.47	42.81	-29.1	-36.6	18.6	1.14e-02	0	44	0	1733296128	29	8684
2026-01-25 10:44:28.15	99.14	43.70	-27.3	-36.9	17.5	2.03e-02	0	44	0	1756364800	25	11370
2026-01-25 10:44:32.18	97.74	44.59	-19.8	-36.6	12.1	3.08e-02	0	44	0	1778384896	10	26147
2026-01-25 10:44:36.19	96.26	45.48	-19.8	-37.1	11.0	9.26e-02	0	44	0	1801453568	10	27449
2026-01-25 10:44:40.22	94.69	46.37	-37.7	-38.4	25.3	0.00e+00	0	44	0	1823473664	45	4262
2026-01-25 10:44:44.24	93.03	47.25	-38.1	-38.8	25.0	0.00e+00	0	44	0	1846542336	46	4224
2026-01-25 10:44:48.27	91.26	48.12	-38.4	-39.2	24.5	0.00e+00	0	44	0	1869611008	47	4159
2026-01-25 10:44:52.29	89.41	48.97	-38.3	-39.0	24.7	0.00e+00	0	44	0	1891631104	47	4069
2026-01-25 10:44:56.32	87.44	49.82	-38.7	-39.4	24.2	0.00e+00	0	44	0	1914699776	47	4271
2026-01-25 10:45:00.35	85.36	50.63	-39.3	-40.0	24.4	0.00e+00	0	44	0	1937768448	49	4092
2026-01-25 10:45:04.38	83.16	51.42	-39.0	-39.7	24.8	0.00e+00	0	44	0	1959788544	49	3938
2026-01-25 10:45:08.40	80.86	52.17	-38.9	-39.6	24.8	0.00e+00	0	44	0	1981808640	49	3911
2026-01-25 10:45:12.43	78.43	52.89	-38.8	-39.5	25.0	0.00e+00	0	44	0	2004877312	49	3826
2026-01-25 10:45:16.46	75.88	53.56	-38.4	-39.1	25.3	0.00e+00	0	44	0	2027945984	48	3888
2026-01-25 10:45:20.48	73.23	54.17	-38.8	-39.5	25.0	0.00e+00	0	44	0	2049966080	48	4065
2026-01-25 10:45:24.50	70.46	54.73	-38.4	-39.1	25.4	0.00e+00	0	44	0	2073034752	48	3874
2026-01-25 10:45:28.53	67.58	55.22	-38.5	-39.2	25.3	0.00e+00	0	44	0	2096103424	48	3935
2026-01-25 10:45:32.55	64.62	55.65	-38.8	-39.5	25.0	0.00e+00	0	44	0	2118123520	48	4069
2026-01-25 10:45:36.58	61.56	56.00	-39.1	-39.8	24.7	0.00e+00	0	44	0	2141192192	48	4215
2026-01-25 10:45:40.60	58.44	56.26	-38.7	-39.4	25.1	0.00e+00	0	44	0	2163212288	49	3818
2026-01-25 10:45:44.62	55.28	56.45	-39.2	-39.9	24.7	0.00e+00	0	44	0	2186280960	49	4045
2026-01-25 10:45:48.65	52.07	56.55	-38.8	-39.5	25.0	0.00e+00	0	44	0	2209349632	49	3860
2026-01-25 10:45:52.68	48.85	56.56	-38.7	-39.4	25.1	0.00e+00	0	44	0	2231369728	49	3816
2026-01-25 10:45:56.71	45.63	56.48	-38.9	-39.6	25.0	0.00e+00	0	44	0	2254438400	49	3905
2026-01-25 10:46:00.74	42.45	56.32	-38.8	-39.5	25.1	0.00e+00	0	44	0	2277507072	49	3849
2026-01-25 10:46:04.77	39.31	56.07	-38.6	-39.2	25.3	0.00e+00	0	44	0	2299527168	49	3735
2026-01-25 10:46:08.80	36.24	55.75	-38.3	-39.0	25.5	0.00e+00	0	44	0	2321547264	48	3831
2026-01-25 10:46:12.83	33.24	55.34	-37.7	-38.4	25.5	0.00e+00	0	44	0	2344615936	47	3794
2026-01-25 10:46:16.86	30.34	54.87	-37.6	-38.2	25.7	0.00e+00	0	45	0	2367684608	47	3735
2026-01-25 10:46:20.89	27.54	54.33	-37.6	-38.3	25.5	0.00e+00	0	44	0	2389704704	47	3775
2026-01-25 10:46:24.92	24.85	53.72	-37.9	-38.5	25.4	0.00e+00	0	44	0	2412773376	47	3866
2026-01-25 10:46:28.95	22.28	53.07	-37.8	-38.5	25.4	0.00e+00	0	45	0	2435842048	47	3836
2026-01-25 10:46:32.97	19.83	52.37	-37.9	-38.6	25.3	0.00e+00	0	44	0	2457862144	46	4109
2026-01-25 10:46:37.00	17.49	51.62	-38.1	-38.8	25.1	0.00e+00	0	44	0	2480930816	46	4224
2026-01-25 10:46:41.03	15.27	50.85	-37.9	-38.6	25.2	0.00e+00	0	44	0	2503999488	46	4143
2026-01-25 10:46:45.06	13.16	50.04	-37.7	-38.4	25.5	0.00e+00	0	45	0	2526019584	46	4039
2026-01-25 10:46:49.08	11.17	49.21	-37.9	-38.7	25.2	0.00e+00	0	44	0	2549088256	46	4147
2026-01-25 10:46:53.11	9.28	48.35	-37.3	-37.9	25.9	0.00e+00	0	45	0	2571108352	46	3815
2026-01-25 10:46:57.13	7.50	47.49	-37.3	-38.0	25.7	0.00e+00	0	44	0	2594177024	45	4096
2026-01-25 10:47:01.15	5.82	46.61	-37.3	-38.0	25.7	0.00e+00	0	44	0	2617245696	45	4072
2026-01-25 10:47:05.18	4.23	45.73	-37.0	-37.6	26.1	0.00e+00	0	45	0	2639265792	45	3912
2026-01-25 10:47:09.20	2.73	44.84	-37.1	-37.8	26.0	0.00e+00	0	44	0	2661285888	45	3985
2026-01-25 10:47:13.24	1.30	43.95	-37.4	-38.1	25.7	0.00e+00	0	44	0	2684354560	45	4110
2026-01-25 10:47:17.27	359.96	43.06	-37.1	-37.8	25.9	0.00e+00	0	44	0	2707423232	45	3987
2026-01-25 10:47:21.29	358.69	42.17	-36.9	-37.5	26.1	0.00e+00	0	44	0	2729443328	45	3859
2026-01-25 10:47:25.32	357.48	41.30	-37.1	-37.7	26.0	0.00e+00	0	44	0	2752512000	45	3956
2026-01-25 10:47:29.35	356.34	40.42	-37.2	-37.9	25.8	0.00e+00	0	44	0	2775580672	45	4012
2026-01-25 10:47:33.38	355.26	39.56	-36.9	-37.6	26.1	0.00e+00	0	44	0	2797600768	45	3883
2026-01-25 10:47:37.41	354.24	38.71	-36.8	-37.5	26.2	0.00e+00	0	44	0	2820669440	45	3830
2026-01-25 10:47:41.44	353.27	37.87	-37.1	-37.8	25.9	0.00e+00	0	44	0	2843738112	45	3975
2026-01-25 10:47:45.47	352.35	37.04	-36.7	-37.4	26.2	0.00e+00	0	44	0	2865758208	45	3798
2026-01-25 10:47:49.50	351.48	36.22	-37.0	-37.7	26.0	0.00e+00	0	44	0	2888826880	45	3930
2026-01-25 10:47:53.53	350.64	35.42	-37.0	-37.6	26.0	0.00e+00	0	44	0	2911895552	45	3912
2026-01-25 10:47:57.56	349.85	34.63	-36.8	-37.4	26.2	0.00e+00	0	44	0	2933915648	45	3821
2026-01-25 10:48:01.58	349.10	33.85	-36.7	-37.4	26.2	0.00e+00	0	44	0	2956984320	45	3804
2026-01-25 10:48:05.61	348.38	33.09	-37.1	-37.8	25.8	0.00e+00	0	44	0	2979004416	45	3998
2026-01-25 10:48:09.64	347.70	32.34	-36.8	-37.5	26.0	0.00e+00	0	44	0	3002073088	45	3862
2026-01-25 10:48:13.67	347.04	31.60	-37.0	-37.7	25.9	0.00e+00	0	44	0	3024093184	45	3919
2026-01-25 10:48:17.70	346.42	30.88	-37.3	-38.0	25.6	0.00e+00	0	44	0	3047161856	45	4079
2026-01-25 10:48:21.73	345.82	30.17	-37.4	-38.1	25.5	0.00e+00	0	44	0	3070230528	45	4128
2026-01-25 10:48:25.77	345.25	29.48	-37.5	-38.3	25.4	0.00e+00	0	44	0	3092250624	45	4201
2026-01-25 10:48:29.80	344.70	28.80	-37.4	-38.1	25.5	0.00e+00	0	44	0	3115319296	45	4103
2026-01-25 10:48:33.83	344.18	28.13	-37.5	-38.2	25.4	0.00e+00	0	44	0	3138387968	45	4180
2026-01-25 10:48:37.86	343.68	27.48	-37.4	-38.1	25.5	0.00e+00	0	44	0	3160408064	45	4135
2026-01-25 10:48:41.89	343.20	26.84	-37.6	-38.3	25.3	0.00e+00	0	44	0	3183476736	45	4200
2026-01-25 10:48:45.92	342.73	26.21	-37.6	-38.3	25.2	0.00e+00	0	44	0	3205496832	45	4225
2026-01-25 10:48:49.95	342.29	25.59	-37.5	-38.2	25.3	0.00e+00	0	44	0	3228565504	45	4173
2026-01-25 10:48:53.98	341.87	24.99	-37.5	-38.2	25.4	0.00e+00	0	44	0	3251634176	45	4151
2026-01-25 10:48:58.01	341.46	24.40	-37.4	-38.1	25.4	0.00e+00	0	44	0	3273654272	45	4114
2026-01-25 10:49:02.04	341.06	23.82	-37.4	-38.1	25.4	0.00e+00	0	44	0	3296722944	45	4134
2026-01-25 10:49:06.07	340.68	23.25	-37.7	-38.4	25.1	0.00e+00	0	44	0	3319791616	45	4285
2026-01-25 10:49:10.10	340.32	22.69	-37.8	-38.5	25.0	0.00e+00	0	44	0	3341811712	46	4078
2026-01-25 10:49:14.13	339.96	22.14	-37.8	-38.5	25.0	0.00e+00	0	44	0	3363831808	46	4064
2026-01-25 10:49:18.15	339.63	21.60	-38.1	-38.8	24.7	0.00e+00	0	44	0	3386900480	46	4217
2026-01-25 10:49:22.18	339.30	21.08	-38.1	-38.8	24.7	0.00e+00	0	44	0	3409969152	46	4225
2026-01-25 10:49:26.21	338.98	20.56	-38.1	-38.9	24.7	0.00e+00	0	44	0	3431989248	47	4014
2026-01-25 10:49:30.24	338.68	20.05	-38.2	-39.0	24.6	0.00e+00	0	44	0	3455057920	47	4054
2026-01-25 10:49:34.27	338.38	19.55	-38.4	-39.2	24.3	0.00e+00	0	45	0	3478126592	47	4154
2026-01-25 10:49:38.31	338.10	19.06	-39.0	-39.7	24.3	0.00e+00	0	44	0	3500146688	48	4191
2026-01-25 10:49:42.34	337.82	18.58	-39.3	-40.0	24.1	0.00e+00	0	44	0	3523215360	49	4078
2026-01-25 10:49:46.36	337.55	18.11	-39.4	-40.2	23.9	0.00e+00	0	44	0	3546284032	49	4178
2026-01-25 10:49:50.39	337.30	17.65	-39.4	-40.2	23.9	0.00e+00	0	44	0	3568304128	49	4171
2026-01-25 10:49:54.42	337.05	17.19	-39.5	-40.2	23.8	0.00e+00	0	44	0	3591372800	49	4182
2026-01-25 10:49:58.45	336.80	16.74	-39.5	-40.2	23.8	0.00e+00	0	44	0	3614441472	49	4187
2026-01-25 10:50:02.48	336.57	16.30	-39.4	-40.1	23.9	0.00e+00	0	44	0	3636461568	49	4125
2026-01-25 10:50:06.50	336.34	15.87	-39.5	-40.2	23.8	0.00e+00	0	44	0	3659530240	49	4162
2026-01-25 10:50:10.53	336.12	15.45	-39.7	-40.4	23.6	0.00e+00	0	44	0	3682598912	49	4286
2026-01-25 10:50:14.55	335.91	15.03	-39.9	-40.6	23.4	0.00e+00	0	44	0	3704619008	50	4144
2026-01-25 10:50:18.58	335.70	14.61	-40.1	-40.9	23.2	0.00e+00	0	44	0	3726639104	50	4255
2026-01-25 10:50:22.62	335.50	14.21	-40.2	-41.0	23.0	0.00e+00	0	44	0	3749707776	51	4087
2026-01-25 10:50:26.65	335.30	13.81	-40.4	-41.2	22.8	0.00e+00	0	44	0	3772776448	51	4165
2026-01-25 10:50:30.67	335.11	13.42	-40.6	-41.5	22.6	0.00e+00	0	44	0	3794796544	51	4298
2026-01-25 10:50:34.69	334.93	13.03	-40.7	-41.6	22.4	0.00e+00	0	44	0	3817865216	52	4105
2026-01-25 10:50:38.72	334.75	12.65	-40.8	-41.6	22.3	0.00e+00	0	44	0	3839885312	52	4145
2026-01-25 10:50:42.75	334.57	12.27	-40.9	-41.7	22.1	0.00e+00	0	44	0	3862953984	52	4192
2026-01-25 10:50:46.77	334.40	11.90	-41.0	-41.8	22.1	0.00e+00	0	44	0	3886022656	52	4222
2026-01-25 10:50:50.80	334.24	11.53	-41.0	-41.8	22.0	8.00e-06	0	44	0	3908042752	52	4225
2026-01-25 10:50:54.82	334.08	11.17	-41.2	-42.0	21.8	0.00e+00	0	44	0	3931111424	53	4095
2026-01-25 10:50:58.86	333.92	10.82	-41.2	-42.0	21.8	0.00e+00	0	44	0	3954180096	53	4087
2026-01-25 10:51:02.88	333.77	10.47	-41.3	-42.2	21.6	0.00e+00	0	44	0	3976200192	53	4180
2026-01-25 10:51:06.92	333.62	10.12	-41.4	-42.3	21.5	0.00e+00	0	44	0	3999268864	53	4228
2026-01-25 10:51:10.95	333.48	9.78	-41.4	-42.3	21.4	0.00e+00	0	44	0	4022337536	53	4242
2026-01-25 10:51:14.97	333.34	9.44	-41.2	-42.1	21.6	0.00e+00	0	44	0	4044357632	53	4132
2026-01-25 10:51:19.00	333.20	9.11	-41.5	-42.4	21.3	0.00e+00	0	44	0	4066377728	53	4251
2026-01-25 10:51:23.03	333.06	8.78	-41.8	-42.7	21.0	0.00e+00	0	44	0	4089446400	54	4158
2026-01-25 10:51:27.05	332.93	8.46	-41.5	-42.4	21.2	0.00e+00	0	44	0	4112515072	54	4042
2026-01-25 10:51:31.08	332.81	8.14	-41.7	-42.6	21.0	0.00e+00	0	44	0	4134535168	54	4110
2026-01-25 10:51:35.11	332.68	7.82	-41.6	-42.5	21.1	0.00e+00	0	44	0	4157603840	54	4072
2026-01-25 10:51:39.14	332.56	7.51	-41.8	-42.8	20.8	0.00e+00	0	44	0	4180672512	54	4197
2026-01-25 10:51:43.18	332.44	7.20	-42.1	-43.0	20.5	0.00e+00	0	44	0	4202692608	54	4321
2026-01-25 10:51:47.20	332.33	6.89	-42.0	-42.9	20.5	0.00e+00	0	44	0	4225761280	55	4045
2026-01-25 10:51:51.24	332.21	6.59	-42.3	-43.3	20.2	0.00e+00	0	44	0	4248829952	55	4200
2026-01-25 10:51:55.26	332.10	6.29	-42.3	-43.2	20.2	0.00e+00	0	44	0	4270850048	55	4185
2026-01-25 10:51:59.29	332.00	6.00	-42.3	-43.3	20.1	0.00e+00	0	44	0	4293918720	55	4235
2026-01-25 10:52:03.31	331.89	5.71	-42.4	-43.4	19.9	0.00e+00	0	44	0	4315938816	55	4270
2026-01-25 10:52:07.34	331.79	5.42	-42.3	-43.3	20.0	0.00e+00	0	44	0	4339007488	55	4230
2026-01-25 10:52:11.38	331.69	5.13	-42.5	-43.5	19.9	0.00e+00	0	44	0	4362076160	56	4057
2026-01-25 10:52:15.40	331.59	4.85	-52.9	-64.8	3.8	8.45e-01	0	44	104	4374659072	76	14980
2026-01-25 10:52:19.44	331.49	4.57	-53.6	-65.5	3.8	8.46e-01	0	44	104	4374659072	77	15358
2026-01-25 10:52:23.47	331.40	4.29	-54.0	-65.9	3.8	8.46e-01	0	44	104	4374659072	78	15140
2026-01-25 10:52:27.50	331.31	4.02	-54.2	-66.1	3.8	8.45e-01	0	44	104	4374659072	78	15546
2026-01-25 10:52:31.54	331.22	3.74	-54.3	-66.2	3.8	8.46e-01	0	44	104	4374659072	79	14774
2026-01-25 10:52:35.57	331.13	3.47	-54.1	-66.1	3.8	8.47e-01	0	44	104	4374659072	79	14615
2026-01-25 10:52:39.60	331.04	3.21	-54.1	-66.0	3.8	8.45e-01	0	44	104	4374659072	79	14469
2026-01-25 10:52:43.63	330.96	2.94	-53.9	-65.9	3.8	8.46e-01	0	44	104	4374659072	79	14276
2026-01-25 10:52:47.66	330.88	2.68	-53.9	-65.9	3.8	8.45e-01	0	44	104	4374659072	79	14217
2026-01-25 10:52:51.70	330.80	2.42	-53.8	-65.8	3.8	8.47e-01	0	44	104	4374659072	79	14136
2026-01-25 10:52:55.73	330.72	2.16	-53.8	-65.8	3.8	8.47e-01	0	44	104	4374659072	79	14130
2026-01-25 10:52:59.76	330.64	1.91	-53.8	-65.8	3.8	8.46e-01	0	44	104	4374659072	79	14114

#Closed at: 2026-01-25 10:53:00
#Recorded file [4374 MB]: D:/lorett/data/31041_260125_133845.dat