passes_logs/2026/01/25/R3.2S_Murmansk/R3.2S_Murmansk__20260125_215826_JL1KF02B01_rec.log

#Pass ID: 20260125_215826_JL1KF02B01
#Satellite: JL1KF02B01
#Configuration: 01B_900M
#almurnet v.1.7.20251203
#Start time: 2026-01-25 21:58:26

#Version: 2.2.20231116
#Station: R3.2S_Murmansk
#Location: 33.079688 lon 68.888172 lat
#TLE: 1 61191U 24169C   26025.50856348  .00007961  00000+0  49691-3 0  9998
#TLE: 2 61191  97.5612 116.9304 0014819  90.6838 269.6089 15.09673414 74305

#Time	Az	El	Level	Level2	SNR	BER	BlckErr	Temp	State	Recorded	gain1	gain2
2026-01-25 21:58:26.62	217.39	2.01	-54.3	-56.4	6.2	0.00e+00	0	45	0	0	79	19245
2026-01-25 21:58:29.64	217.70	2.18	-54.2	-56.3	6.2	0.00e+00	0	45	104	0	80	17936
2026-01-25 21:58:32.66	218.01	2.35	-54.2	-56.3	6.2	0.00e+00	0	45	104	0	80	17875
2026-01-25 21:58:35.68	218.33	2.53	-54.4	-56.5	6.2	0.00e+00	0	45	104	0	80	18216
2026-01-25 21:58:38.70	218.65	2.71	-54.6	-56.7	6.2	0.00e+00	0	45	104	0	80	18721
2026-01-25 21:58:41.72	218.97	2.88	-54.6	-56.6	6.2	0.00e+00	0	45	104	0	80	18555
2026-01-25 21:58:44.74	219.30	3.06	-54.5	-56.6	6.2	0.00e+00	0	46	104	0	80	18418
2026-01-25 21:58:47.76	219.63	3.24	-54.4	-56.5	6.2	0.00e+00	0	46	104	0	80	18310
2026-01-25 21:58:50.78	219.97	3.42	-54.3	-56.3	6.2	0.00e+00	0	46	104	0	80	17949
2026-01-25 21:58:53.80	220.32	3.60	-54.0	-56.1	6.2	0.00e+00	0	46	104	0	80	17452
2026-01-25 21:58:56.82	220.67	3.78	-53.8	-55.8	6.2	0.00e+00	0	46	104	0	79	17953
2026-01-25 21:58:59.84	221.02	3.96	-53.2	-55.2	6.2	0.00e+00	0	46	104	0	78	17746
2026-01-25 21:59:02.85	221.38	4.14	-53.1	-55.2	6.2	0.00e+00	0	46	104	0	78	17724
2026-01-25 21:59:05.87	221.74	4.33	-53.1	-55.2	6.2	0.00e+00	0	46	104	0	78	17722
2026-01-25 21:59:08.89	222.11	4.51	-53.1	-55.2	6.2	0.00e+00	0	46	104	0	78	17679
2026-01-25 21:59:11.91	222.49	4.70	-53.1	-55.2	6.2	0.00e+00	0	47	104	0	78	17723
2026-01-25 21:59:14.94	222.87	4.88	-53.1	-55.2	6.2	0.00e+00	0	47	104	0	78	17653
2026-01-25 21:59:17.94	223.26	5.07	-53.2	-55.4	6.2	0.00e+00	0	46	104	0	78	17989
2026-01-25 21:59:20.96	223.65	5.26	-53.1	-55.2	6.2	0.00e+00	0	47	104	0	78	17717
2026-01-25 21:59:23.98	224.05	5.45	-53.1	-55.3	6.2	0.00e+00	0	47	104	0	78	17775
2026-01-25 21:59:26.99	224.46	5.63	-53.0	-55.1	6.2	0.00e+00	0	47	104	0	78	17425
2026-01-25 21:59:30.00	224.87	5.82	-53.0	-55.1	6.2	0.00e+00	0	47	104	0	78	17434
2026-01-25 21:59:33.02	225.29	6.01	-53.0	-55.1	6.2	0.00e+00	0	47	104	0	77	18533
2026-01-25 21:59:36.03	225.71	6.20	-53.1	-55.2	6.2	0.00e+00	0	47	104	0	77	18707
2026-01-25 21:59:39.04	226.14	6.39	-52.9	-55.0	6.2	0.00e+00	0	47	104	0	77	18336
2026-01-25 21:59:42.07	226.58	6.59	-53.0	-55.1	6.2	0.00e+00	0	47	104	0	77	18455
2026-01-25 21:59:45.09	227.03	6.78	-53.1	-55.1	6.2	0.00e+00	0	47	104	0	77	18601
2026-01-25 21:59:48.11	227.48	6.97	-53.1	-55.2	6.2	0.00e+00	0	47	104	0	77	18698
2026-01-25 21:59:51.12	227.94	7.17	-53.0	-55.1	6.2	0.00e+00	0	47	104	0	77	18420
2026-01-25 21:59:54.13	228.41	7.36	-53.0	-55.1	6.2	0.00e+00	0	47	104	0	77	18544
2026-01-25 21:59:57.15	228.88	7.56	-53.1	-55.2	6.2	0.00e+00	0	47	104	0	77	18647
2026-01-25 22:00:00.17	229.36	7.75	-53.1	-55.2	6.2	0.00e+00	0	47	104	0	77	18776
2026-01-25 22:00:03.19	229.85	7.95	-53.0	-55.1	6.2	0.00e+00	0	47	104	0	77	18507
2026-01-25 22:00:06.21	230.35	8.15	-53.1	-55.2	6.2	0.00e+00	0	47	104	0	77	18604
2026-01-25 22:00:09.22	230.86	8.34	-53.1	-55.2	6.2	0.00e+00	0	47	104	0	77	18706
2026-01-25 22:00:12.24	231.37	8.54	-53.2	-55.2	6.2	0.00e+00	0	47	104	0	77	18793
2026-01-25 22:00:15.27	231.89	8.74	-53.1	-55.2	6.2	0.00e+00	0	47	104	0	77	18640
2026-01-25 22:00:18.30	232.43	8.94	-52.0	-53.6	6.2	0.00e+00	0	48	104	0	75	17468
2026-01-25 22:00:21.31	232.96	9.13	-51.1	-52.4	6.3	0.00e+00	0	47	104	0	74	16058
2026-01-25 22:00:24.32	233.51	9.33	-52.0	-53.6	6.2	0.00e+00	0	47	104	0	75	17491
2026-01-25 22:00:27.34	234.07	9.53	-49.7	-50.6	6.3	0.00e+00	0	47	104	0	71	15637
2026-01-25 22:00:30.35	234.63	9.73	-49.6	-50.5	6.5	0.00e+00	0	48	104	0	69	17180
2026-01-25 22:00:33.37	235.21	9.92	-28.9	-28.7	16.2	2.28e-05	0	48	0	41943040	29	14060
2026-01-25 22:00:36.39	235.79	10.12	-27.3	-27.2	17.0	0.00e+00	0	48	0	385875968	26	13964
2026-01-25 22:00:39.41	236.38	10.32	-27.3	-27.1	16.9	3.80e-06	0	48	0	721420288	26	13943
2026-01-25 22:00:42.43	236.99	10.52	-27.1	-26.9	16.9	1.90e-06	0	48	0	1065353216	25	14440
2026-01-25 22:00:45.46	237.60	10.71	-26.8	-26.6	17.0	0.00e+00	0	48	0	1409286144	25	13896
2026-01-25 22:00:48.48	238.22	10.91	-26.8	-26.6	17.0	1.90e-06	0	48	0	1744830464	25	13889
2026-01-25 22:00:51.49	238.85	11.10	-26.8	-26.6	17.0	0.00e+00	0	48	0	2080374784	25	13929
2026-01-25 22:00:54.51	239.49	11.30	-26.6	-26.4	17.0	1.90e-06	0	48	0	2415919104	25	13613
2026-01-25 22:00:57.54	240.15	11.49	-26.8	-26.7	16.7	3.80e-06	0	48	0	2768240640	25	13985
2026-01-25 22:01:00.57	240.81	11.69	-26.6	-26.5	17.0	0.00e+00	0	48	0	3103784960	25	13673
2026-01-25 22:01:03.59	241.48	11.88	-26.7	-26.6	16.7	0.00e+00	0	48	0	3439329280	25	13820
2026-01-25 22:01:06.61	242.17	12.07	-26.3	-26.2	16.8	0.00e+00	0	48	0	3783262208	24	13961
2026-01-25 22:01:09.62	242.85	12.26	-26.4	-26.2	16.6	0.00e+00	0	48	0	4127195136	24	14054
2026-01-25 22:01:12.65	243.56	12.44	-26.4	-26.2	16.7	1.90e-06	0	48	0	4462739456	24	14051
2026-01-25 22:01:15.68	244.27	12.63	-26.2	-26.0	16.6	0.00e+00	0	48	0	4806672384	24	13788
2026-01-25 22:01:18.70	245.00	12.81	-26.3	-26.2	16.4	1.90e-06	0	48	0	5142216704	24	13994
2026-01-25 22:01:21.72	245.73	13.00	-26.1	-26.0	16.7	0.00e+00	0	48	0	5477761024	24	13672
2026-01-25 22:01:24.73	246.47	13.17	-26.0	-25.9	16.4	0.00e+00	0	49	0	5830082560	24	13520
2026-01-25 22:01:27.75	247.23	13.35	-26.0	-25.8	16.3	1.90e-06	0	48	0	6165626880	24	13465
2026-01-25 22:01:30.78	247.99	13.53	-26.0	-25.9	16.3	0.00e+00	0	48	0	6501171200	23	14304
2026-01-25 22:01:33.80	248.77	13.70	-26.0	-25.8	16.1	5.70e-06	0	48	0	6836715520	23	14189
2026-01-25 22:01:36.82	249.55	13.87	-25.8	-25.7	16.2	0.00e+00	0	49	0	7180648448	23	13964
2026-01-25 22:01:39.85	250.35	14.04	-25.8	-25.6	16.2	5.70e-06	0	49	0	7524581376	23	13887
2026-01-25 22:01:42.87	251.16	14.20	-25.8	-25.7	16.0	5.70e-06	0	49	0	7860125696	23	13998
2026-01-25 22:01:45.89	251.98	14.36	-25.7	-25.5	15.8	0.00e+00	0	48	0	8204058624	23	13734
2026-01-25 22:01:48.91	252.80	14.52	-25.8	-25.6	16.2	1.90e-06	0	49	0	8539602944	23	13894
2026-01-25 22:01:51.93	253.64	14.67	-25.6	-25.5	16.0	0.00e+00	0	49	0	8891924480	23	13649
2026-01-25 22:01:54.96	254.49	14.82	-25.6	-25.4	15.5	5.70e-06	0	49	0	9227468800	23	13593
2026-01-25 22:01:57.98	255.34	14.96	-25.4	-25.3	15.2	9.50e-06	0	49	0	9563013120	22	14177
2026-01-25 22:02:01.00	256.20	15.10	-25.4	-25.3	15.3	9.50e-06	0	49	0	9898557440	22	14174
2026-01-25 22:02:04.03	257.08	15.24	-25.5	-25.4	15.3	1.71e-05	0	49	0	10250878976	22	14285
2026-01-25 22:02:07.05	257.96	15.37	-25.3	-25.1	15.2	9.50e-06	0	49	0	10586423296	22	13916
2026-01-25 22:02:10.07	258.85	15.49	-25.5	-25.3	15.3	1.14e-05	0	49	0	10921967616	22	14199
2026-01-25 22:02:13.09	259.75	15.62	-25.3	-25.1	15.3	7.60e-06	0	49	0	11265900544	22	13917
2026-01-25 22:02:16.12	260.66	15.73	-25.2	-25.0	15.4	9.50e-06	0	48	0	11601444864	22	13773
2026-01-25 22:02:19.14	261.58	15.84	-25.2	-25.1	15.6	0.00e+00	0	49	0	11945377792	22	13855
2026-01-25 22:02:22.16	262.50	15.95	-25.2	-25.0	15.4	3.80e-06	0	49	0	12289310720	22	13722
2026-01-25 22:02:25.19	263.44	16.04	-25.2	-25.1	15.7	1.14e-05	0	49	0	12624855040	22	13822
2026-01-25 22:02:28.21	264.37	16.14	-25.1	-25.0	15.8	1.90e-06	0	49	0	12960399360	22	13713
2026-01-25 22:02:31.23	265.32	16.22	-25.2	-25.0	15.7	1.90e-06	0	49	0	13312720896	22	13776
2026-01-25 22:02:34.25	266.26	16.30	-25.3	-25.1	15.5	1.14e-05	0	49	0	13648265216	22	13946
2026-01-25 22:02:37.27	267.22	16.38	-25.1	-25.0	15.8	1.90e-06	0	49	0	13983809536	22	13642
2026-01-25 22:02:40.29	268.18	16.44	-25.4	-25.2	15.8	3.80e-06	0	49	0	14319353856	22	14010
2026-01-25 22:02:43.31	269.14	16.50	-25.2	-25.1	16.1	3.80e-06	0	49	0	14663286784	22	13858
2026-01-25 22:02:46.32	270.11	16.56	-25.1	-24.9	15.9	3.80e-06	0	49	0	15007219712	22	13593
2026-01-25 22:02:49.34	271.08	16.60	-25.2	-25.1	16.0	0.00e+00	0	49	0	15342764032	22	13803
2026-01-25 22:02:52.37	272.06	16.64	-25.3	-25.1	16.6	3.80e-06	0	49	0	15686696960	22	13866
2026-01-25 22:02:55.38	273.03	16.68	-25.3	-25.1	17.0	0.00e+00	0	49	0	16022241280	22	13900
2026-01-25 22:02:58.40	274.01	16.70	-25.3	-25.2	17.2	0.00e+00	0	49	0	16357785600	22	13975
2026-01-25 22:03:01.41	274.99	16.72	-25.4	-25.2	17.0	0.00e+00	0	49	0	16693329920	22	14066
2026-01-25 22:03:04.43	275.97	16.73	-25.4	-25.2	17.5	0.00e+00	0	49	0	17045651456	22	14093
2026-01-25 22:03:07.45	276.95	16.73	-25.5	-25.3	17.7	1.90e-06	0	49	0	17381195776	22	14253
2026-01-25 22:03:10.47	277.93	16.73	-25.6	-25.4	17.7	0.00e+00	0	49	0	17716740096	22	14399
2026-01-25 22:03:13.47	278.91	16.72	-25.5	-25.3	18.0	0.00e+00	0	49	0	18060673024	22	14265
2026-01-25 22:03:16.49	279.89	16.70	-25.5	-25.3	18.1	0.00e+00	0	49	0	18396217344	22	14180
2026-01-25 22:03:19.51	280.87	16.68	-25.6	-25.4	18.2	0.00e+00	0	49	0	18731761664	22	14440
2026-01-25 22:03:22.54	281.85	16.65	-25.6	-25.5	18.4	0.00e+00	0	49	0	19084083200	22	14498
2026-01-25 22:03:25.56	282.82	16.61	-25.6	-25.4	18.5	0.00e+00	0	49	0	19419627520	22	14382
2026-01-25 22:03:28.58	283.79	16.56	-25.7	-25.5	18.5	0.00e+00	0	49	0	19755171840	22	14518
2026-01-25 22:03:31.60	284.76	16.51	-25.7	-25.5	18.6	0.00e+00	0	49	0	20090716160	22	14579
2026-01-25 22:03:34.61	285.72	16.45	-25.7	-25.6	18.6	0.00e+00	0	49	0	20434649088	22	14620
2026-01-25 22:03:37.63	286.68	16.38	-25.8	-25.7	18.5	0.00e+00	0	49	0	20778582016	22	14831
2026-01-25 22:03:40.66	287.64	16.31	-25.9	-25.7	18.5	0.00e+00	0	49	0	21114126336	22	14921
2026-01-25 22:03:43.68	288.58	16.23	-25.9	-25.8	18.4	0.00e+00	0	49	0	21458059264	22	14971
2026-01-25 22:03:46.70	289.52	16.14	-26.0	-25.8	18.2	0.00e+00	0	49	0	21793603584	22	15079
2026-01-25 22:03:49.72	290.46	16.05	-26.2	-26.0	17.9	0.00e+00	0	49	0	22129147904	22	15405
2026-01-25 22:03:52.74	291.39	15.95	-26.1	-26.0	17.8	0.00e+00	0	49	0	22481469440	23	14468
2026-01-25 22:03:55.76	292.31	15.85	-26.4	-26.2	17.5	0.00e+00	0	49	0	22817013760	23	14898
2026-01-25 22:03:58.77	293.22	15.74	-26.4	-26.2	17.3	0.00e+00	0	49	0	23152558080	23	14872
2026-01-25 22:04:01.79	294.13	15.62	-26.3	-26.2	17.2	0.00e+00	0	49	0	23488102400	23	14842
2026-01-25 22:04:04.80	295.02	15.50	-26.5	-26.3	17.2	0.00e+00	0	49	0	23832035328	23	15085
2026-01-25 22:04:07.80	295.91	15.38	-26.6	-26.5	17.2	0.00e+00	0	49	0	24167579648	23	15367
2026-01-25 22:04:10.82	296.79	15.25	-26.6	-26.5	17.4	0.00e+00	0	49	0	24503123968	23	15363
2026-01-25 22:04:13.84	297.66	15.11	-26.6	-26.5	17.0	1.90e-06	0	49	0	24855445504	24	14509
2026-01-25 22:04:16.86	298.52	14.97	-26.6	-26.4	17.3	0.00e+00	0	49	0	25190989824	24	14439
2026-01-25 22:04:19.88	299.38	14.83	-26.7	-26.5	17.0	0.00e+00	0	49	0	25526534144	24	14527
2026-01-25 22:04:22.90	300.22	14.68	-26.8	-26.7	16.7	0.00e+00	0	49	0	25862078464	24	14800
2026-01-25 22:04:25.93	301.06	14.53	-26.7	-26.6	16.5	1.90e-06	0	49	0	26214400000	24	14643
2026-01-25 22:04:28.95	301.88	14.37	-26.7	-26.6	16.3	3.80e-06	0	49	0	26549944320	24	14674
2026-01-25 22:04:31.98	302.70	14.22	-26.7	-26.6	16.9	0.00e+00	0	49	0	26885488640	24	14669
2026-01-25 22:04:34.99	303.50	14.05	-26.8	-26.6	16.9	0.00e+00	0	49	0	27229421568	24	14721
2026-01-25 22:04:38.01	304.29	13.89	-26.7	-26.6	17.0	0.00e+00	0	49	0	27564965888	24	14671
2026-01-25 22:04:41.04	305.08	13.72	-26.8	-26.6	17.2	0.00e+00	0	49	0	27908898816	24	14752
2026-01-25 22:04:44.07	305.86	13.55	-26.8	-26.7	17.1	0.00e+00	0	49	0	28252831744	24	14836
2026-01-25 22:04:47.09	306.62	13.37	-26.9	-26.8	17.3	1.90e-06	0	49	0	28588376064	24	14955
2026-01-25 22:04:50.06	307.36	13.20	-26.8	-26.6	17.1	0.00e+00	0	49	0	28923920384	24	14768
2026-01-25 22:04:52.97	308.08	13.03	-26.8	-26.7	17.2	0.00e+00	0	49	0	29251076096	24	14863
2026-01-25 22:04:55.87	308.78	12.85	-27.1	-26.9	17.2	0.00e+00	0	49	0	29578231808	24	15203
2026-01-25 22:04:58.78	309.48	12.68	-27.2	-27.0	17.1	0.00e+00	0	49	0	29905387520	25	14518
2026-01-25 22:05:01.68	310.16	12.50	-27.1	-27.0	17.1	0.00e+00	0	49	0	30232543232	25	14446
2026-01-25 22:05:04.59	310.84	12.32	-27.2	-27.1	17.0	0.00e+00	0	49	0	30551310336	25	14614
2026-01-25 22:05:07.50	311.51	12.14	-27.3	-27.1	17.0	1.90e-06	0	49	0	30878466048	25	14702
2026-01-25 22:05:10.40	312.16	11.96	-27.3	-27.2	16.9	0.00e+00	0	48	0	31205621760	25	14824
2026-01-25 22:05:13.31	312.81	11.78	-27.3	-27.2	16.9	0.00e+00	0	48	0	31532777472	25	14835
2026-01-25 22:05:16.21	313.45	11.59	-27.4	-27.3	17.0	1.90e-06	0	49	0	31859933184	25	14993
2026-01-25 22:05:19.11	314.08	11.41	-53.9	-56.0	6.2	0.00e+00	0	48	104	31985762304	78	19451
2026-01-25 22:05:22.01	314.70	11.22	-53.9	-56.0	6.2	0.00e+00	0	48	104	31985762304	78	19351
2026-01-25 22:05:24.92	315.31	11.04	-53.9	-56.0	6.2	0.00e+00	0	48	104	31985762304	78	19268
2026-01-25 22:05:27.82	315.91	10.85	-53.8	-55.9	6.2	0.00e+00	0	48	104	31985762304	78	19188
2026-01-25 22:05:30.72	316.50	10.66	-53.8	-55.9	6.2	0.00e+00	0	48	104	31985762304	78	19187
2026-01-25 22:05:33.62	317.08	10.47	-53.8	-55.9	6.2	0.00e+00	0	48	104	31985762304	78	19130
2026-01-25 22:05:36.52	317.66	10.29	-53.7	-55.8	6.2	0.00e+00	0	48	104	31985762304	78	18935
2026-01-25 22:05:39.43	318.23	10.10	-53.7	-55.7	6.2	0.00e+00	0	48	104	31985762304	78	18745
2026-01-25 22:05:42.33	318.78	9.91	-53.7	-55.8	6.2	0.00e+00	0	48	104	31985762304	78	18867
2026-01-25 22:05:45.23	319.33	9.72	-53.6	-55.7	6.2	0.00e+00	0	48	104	31985762304	78	18685
2026-01-25 22:05:48.13	319.87	9.53	-53.5	-55.6	6.2	0.00e+00	0	48	104	31985762304	78	18511
2026-01-25 22:05:51.03	320.41	9.34	-53.5	-55.6	6.2	0.00e+00	0	48	104	31985762304	78	18533
2026-01-25 22:05:53.94	320.93	9.15	-53.6	-55.7	6.2	0.00e+00	0	48	104	31985762304	78	18712
2026-01-25 22:05:56.84	321.45	8.96	-53.4	-55.6	6.2	0.00e+00	0	48	104	31985762304	78	18419
2026-01-25 22:05:59.74	321.96	8.77	-53.4	-55.5	6.2	0.00e+00	0	47	104	31985762304	78	18234
2026-01-25 22:06:02.64	322.46	8.58	-53.4	-55.5	6.2	0.00e+00	0	47	104	31985762304	78	18253
2026-01-25 22:06:05.54	322.95	8.40	-53.4	-55.5	6.2	0.00e+00	0	47	104	31985762304	78	18277
2026-01-25 22:06:08.45	323.44	8.21	-53.2	-55.3	6.2	0.00e+00	0	47	104	31985762304	78	17937
2026-01-25 22:06:11.35	323.92	8.02	-53.3	-55.4	6.2	0.00e+00	0	47	104	31985762304	78	18014
2026-01-25 22:06:14.25	324.39	7.83	-53.3	-55.4	6.2	0.00e+00	0	48	104	31985762304	78	18046
2026-01-25 22:06:17.16	324.85	7.64	-53.2	-55.3	6.2	0.00e+00	0	47	104	31985762304	78	17862
2026-01-25 22:06:20.06	325.31	7.46	-53.2	-55.3	6.2	0.00e+00	0	47	104	31985762304	78	17824
2026-01-25 22:06:22.96	325.76	7.27	-53.2	-55.3	6.2	0.00e+00	0	47	104	31985762304	78	17812
2026-01-25 22:06:25.86	326.21	7.09	-53.2	-55.3	6.2	0.00e+00	0	47	104	31985762304	78	17877
2026-01-25 22:06:28.76	326.64	6.90	-53.1	-55.2	6.2	0.00e+00	0	47	104	31985762304	78	17592
2026-01-25 22:06:31.66	327.07	6.72	-53.1	-55.2	6.2	0.00e+00	0	47	104	31985762304	78	17613
2026-01-25 22:06:34.56	327.50	6.53	-53.1	-55.2	6.2	0.00e+00	0	47	104	31985762304	78	17613
2026-01-25 22:06:37.46	327.91	6.35	-53.1	-55.1	6.2	0.00e+00	0	47	104	31985762304	78	17544
2026-01-25 22:06:40.36	328.33	6.17	-53.0	-55.1	6.2	0.00e+00	0	47	104	31985762304	78	17387
2026-01-25 22:06:43.26	328.73	5.98	-52.9	-55.1	6.2	0.00e+00	0	47	104	31985762304	77	18392
2026-01-25 22:06:46.16	329.13	5.80	-53.0	-55.1	6.2	0.00e+00	0	47	104	31985762304	77	18535
2026-01-25 22:06:49.07	329.53	5.62	-52.9	-55.0	6.2	0.00e+00	0	47	104	31985762304	77	18203
2026-01-25 22:06:51.97	329.91	5.44	-52.9	-55.0	6.2	0.00e+00	0	47	104	31985762304	77	18248
2026-01-25 22:06:54.87	330.30	5.26	-52.8	-54.9	6.2	0.00e+00	0	47	104	31985762304	77	18114
2026-01-25 22:06:57.77	330.67	5.08	-52.9	-55.0	6.2	0.00e+00	0	47	104	31985762304	77	18311
2026-01-25 22:07:00.68	331.05	4.90	-53.3	-55.4	6.2	0.00e+00	0	47	104	31985762304	77	19144
2026-01-25 22:07:03.58	331.41	4.72	-54.1	-56.2	6.2	0.00e+00	0	47	104	31985762304	78	19769
2026-01-25 22:07:06.47	331.77	4.55	-54.2	-56.3	6.2	0.00e+00	0	47	104	31985762304	79	18976
2026-01-25 22:07:09.37	332.13	4.37	-54.1	-56.2	6.2	0.00e+00	0	47	104	31985762304	79	18713
2026-01-25 22:07:12.28	332.48	4.20	-53.9	-56.1	6.2	0.00e+00	0	47	104	31985762304	79	18404
2026-01-25 22:07:15.18	332.82	4.02	-54.0	-56.1	6.2	0.00e+00	0	47	104	31985762304	79	18407
2026-01-25 22:07:18.08	333.16	3.85	-54.0	-56.1	6.2	0.00e+00	0	47	104	31985762304	79	18468
2026-01-25 22:07:20.98	333.50	3.68	-53.9	-56.0	6.2	0.00e+00	0	47	104	31985762304	79	18314
2026-01-25 22:07:23.88	333.83	3.50	-53.8	-55.9	6.2	0.00e+00	0	47	104	31985762304	79	18099
2026-01-25 22:07:26.78	334.16	3.33	-53.8	-55.9	6.2	0.00e+00	0	47	104	31985762304	79	17996
2026-01-25 22:07:29.69	334.48	3.16	-53.7	-55.8	6.2	0.00e+00	0	47	104	31985762304	79	17922
2026-01-25 22:07:32.59	334.80	2.99	-53.7	-55.8	6.2	0.00e+00	0	47	104	31985762304	79	17849
2026-01-25 22:07:35.50	335.11	2.82	-53.7	-55.8	6.2	0.00e+00	0	47	104	31985762304	79	17793
2026-01-25 22:07:38.40	335.42	2.65	-53.7	-55.7	6.2	0.00e+00	0	47	104	31985762304	79	17758
2026-01-25 22:07:41.30	335.73	2.48	-53.6	-55.7	6.2	0.00e+00	0	47	104	31985762304	79	17700
2026-01-25 22:07:44.21	336.03	2.32	-53.6	-55.7	6.2	0.00e+00	0	47	104	31985762304	79	17655
2026-01-25 22:07:47.11	336.33	2.15	-53.6	-55.7	6.2	0.00e+00	0	47	104	31985762304	79	17620
2026-01-25 22:07:50.02	336.62	1.98	-53.6	-55.7	6.2	0.00e+00	0	47	104	31985762304	79	17592

#Closed at: 2026-01-25 22:07:52
#Recorded file [31985 MB]: D:/lorett/data/31041_260126_005826.dat