passes_logs/2026/01/25/R3.2S_Murmansk/R3.2S_Murmansk__20260125_072056_FENGYUN_3D_rec.log

#Pass ID: 20260125_072056_FENGYUN 3D
#Satellite: FENGYUN 3D
#Configuration: FENGYUN 3D
#almurnet v.1.7.20251203
#Start time: 2026-01-25 07:20:58

#Version: 2.2.20231116
#Station: R3.2S_Murmansk
#Location: 33.079688 lon 68.888172 lat
#TLE: 1 43010U 17072A   26024.94080550 -.00000109  00000+0 -29577-4 0  9995
#TLE: 2 43010  98.9962 356.9116 0002509  91.7481 268.3982 14.19699259424665

#Time	Az	El	Level	Level2	SNR	BER	BlckErr	Temp	State	Recorded	gain1	gain2
2026-01-25 07:20:58.45	64.18	2.10	-52.1	-64.1	3.8	8.46e-01	0	42	0	0	76	13732
2026-01-25 07:21:02.49	63.92	2.33	-52.1	-64.0	3.8	8.46e-01	0	42	104	0	74	15236
2026-01-25 07:21:06.52	63.66	2.56	-52.1	-64.0	3.8	8.47e-01	0	43	104	0	74	15279
2026-01-25 07:21:10.55	63.40	2.80	-52.1	-63.9	3.8	8.46e-01	0	43	104	0	74	15198
2026-01-25 07:21:14.58	63.13	3.03	-52.1	-64.0	3.8	8.46e-01	0	43	104	0	74	15303
2026-01-25 07:21:18.61	62.85	3.27	-52.1	-63.8	3.8	8.48e-01	0	43	104	0	74	14974
2026-01-25 07:21:22.65	62.57	3.50	-52.1	-64.0	3.8	8.47e-01	0	43	104	0	74	15261
2026-01-25 07:21:26.68	62.29	3.74	-52.1	-63.7	3.8	8.46e-01	0	43	104	0	74	14779
2026-01-25 07:21:30.72	62.00	3.98	-52.1	-63.8	3.8	8.46e-01	0	43	104	0	74	14918
2026-01-25 07:21:34.75	61.71	4.23	-51.6	-60.1	4.3	8.33e-01	0	43	0	0	74	9771
2026-01-25 07:21:38.79	61.41	4.47	-51.5	-59.5	4.5	8.22e-01	0	43	0	0	74	9074
2026-01-25 07:21:42.82	61.11	4.71	-49.4	-52.8	10.1	1.33e-02	0	44	0	11534336	70	5291
2026-01-25 07:21:46.86	60.80	4.96	-46.2	-48.0	15.0	0.00e+00	0	43	0	34603008	64	4295
2026-01-25 07:21:50.90	60.48	5.21	-48.4	-51.1	11.9	0.00e+00	0	44	0	57671680	67	5194
2026-01-25 07:21:54.93	60.16	5.46	-43.1	-44.1	19.4	0.00e+00	0	44	0	74448896	58	3891
2026-01-25 07:21:58.97	59.84	5.71	-43.3	-44.4	19.2	0.00e+00	0	44	0	97517568	58	4005
2026-01-25 07:22:03.00	59.50	5.96	-42.9	-44.0	19.6	0.00e+00	0	44	0	120586240	57	4067
2026-01-25 07:22:07.03	59.17	6.21	-42.8	-43.8	19.8	0.00e+00	0	44	0	142606336	57	3999
2026-01-25 07:22:11.06	58.82	6.47	-42.8	-43.8	19.9	0.00e+00	0	44	0	165675008	57	3965
2026-01-25 07:22:15.10	58.47	6.73	-42.7	-43.7	20.0	0.00e+00	0	44	0	188743680	57	3951
2026-01-25 07:22:19.14	58.11	6.98	-43.0	-44.0	19.7	0.00e+00	0	44	0	210763776	57	4080
2026-01-25 07:22:23.17	57.75	7.24	-42.8	-43.8	19.9	0.00e+00	0	44	0	233832448	57	3959
2026-01-25 07:22:27.21	57.38	7.51	-42.6	-43.5	20.2	0.00e+00	0	44	0	255852544	57	3860
2026-01-25 07:22:31.25	57.00	7.77	-42.6	-43.5	20.3	0.00e+00	0	44	0	278921216	56	4091
2026-01-25 07:22:35.29	56.61	8.03	-42.2	-43.2	20.6	0.00e+00	0	44	0	301989888	56	3922
2026-01-25 07:22:39.32	56.22	8.30	-42.1	-43.0	20.8	0.00e+00	0	44	0	324009984	56	3866
2026-01-25 07:22:43.35	55.82	8.57	-42.1	-43.0	20.8	0.00e+00	0	44	0	347078656	56	3858
2026-01-25 07:22:47.39	55.42	8.84	-42.3	-43.3	20.6	0.00e+00	0	44	0	370147328	56	3962
2026-01-25 07:22:51.42	55.00	9.11	-42.2	-43.1	20.8	0.00e+00	0	44	0	392167424	56	3887
2026-01-25 07:22:55.46	54.58	9.38	-42.2	-43.1	20.8	0.00e+00	0	44	0	415236096	56	3884
2026-01-25 07:22:59.50	54.15	9.65	-42.0	-42.9	20.9	0.00e+00	0	44	0	438304768	55	4031
2026-01-25 07:23:03.54	53.70	9.93	-42.1	-43.0	20.8	0.00e+00	0	44	0	460324864	55	4073
2026-01-25 07:23:07.57	53.26	10.20	-41.9	-42.8	21.0	0.00e+00	0	44	0	483393536	55	4001
2026-01-25 07:23:11.60	52.80	10.48	-41.6	-42.5	21.3	0.00e+00	0	44	0	506462208	55	3855
2026-01-25 07:23:15.64	52.33	10.76	-41.7	-42.6	21.3	0.00e+00	0	44	0	528482304	54	4114
2026-01-25 07:23:19.67	51.86	11.04	-41.6	-42.5	21.4	0.00e+00	0	44	0	551550976	54	4080
2026-01-25 07:23:23.70	51.37	11.32	-41.5	-42.4	21.5	0.00e+00	0	44	0	574619648	54	4008
2026-01-25 07:23:27.74	50.88	11.60	-41.2	-42.1	21.9	0.00e+00	0	44	0	596639744	54	3869
2026-01-25 07:23:31.78	50.37	11.88	-41.3	-42.1	21.8	0.00e+00	0	44	0	619708416	54	3908
2026-01-25 07:23:35.81	49.86	12.17	-41.2	-42.1	21.9	0.00e+00	0	44	0	641728512	54	3872
2026-01-25 07:23:39.85	49.33	12.45	-41.1	-41.9	22.0	0.00e+00	0	45	0	664797184	54	3823
2026-01-25 07:23:43.88	48.80	12.74	-41.0	-41.8	22.1	0.00e+00	0	45	0	687865856	54	3770
2026-01-25 07:23:47.91	48.25	13.02	-40.9	-41.7	22.2	0.00e+00	0	44	0	709885952	53	3953
2026-01-25 07:23:51.94	47.70	13.31	-40.7	-41.6	22.4	0.00e+00	0	45	0	732954624	53	3876
2026-01-25 07:23:55.98	47.13	13.60	-40.6	-41.4	22.5	0.00e+00	0	45	0	756023296	53	3814
2026-01-25 07:24:00.01	46.55	13.89	-40.6	-41.4	22.6	0.00e+00	0	44	0	778043392	53	3789
2026-01-25 07:24:04.05	45.96	14.18	-40.5	-41.3	22.7	0.00e+00	0	45	0	801112064	52	3961
2026-01-25 07:24:08.08	45.36	14.47	-40.6	-41.4	22.6	0.00e+00	0	45	0	824180736	52	4021
2026-01-25 07:24:12.12	44.74	14.76	-40.4	-41.2	22.8	0.00e+00	0	45	0	846200832	52	3933
2026-01-25 07:24:16.15	44.11	15.05	-40.3	-41.1	22.9	0.00e+00	0	45	0	869269504	52	3870
2026-01-25 07:24:20.19	43.47	15.34	-40.1	-40.9	23.1	0.00e+00	0	45	0	892338176	52	3809
2026-01-25 07:24:24.23	42.82	15.63	-40.2	-41.0	23.0	0.00e+00	0	45	0	914358272	52	3845
2026-01-25 07:24:28.27	42.15	15.92	-40.1	-40.9	23.1	0.00e+00	0	45	0	937426944	52	3781
2026-01-25 07:24:32.30	41.47	16.20	-40.1	-40.9	23.2	0.00e+00	0	45	0	960495616	51	4018
2026-01-25 07:24:36.34	40.78	16.49	-40.2	-41.0	23.1	0.00e+00	0	45	0	982515712	51	4083
2026-01-25 07:24:40.37	40.07	16.78	-40.2	-41.0	23.1	0.00e+00	0	45	0	1005584384	51	4080
2026-01-25 07:24:44.40	39.36	17.06	-40.0	-40.8	23.3	0.00e+00	0	45	0	1027604480	51	3979
2026-01-25 07:24:48.44	38.62	17.35	-39.7	-40.5	23.6	0.00e+00	0	45	0	1050673152	51	3829
2026-01-25 07:24:52.47	37.87	17.63	-39.6	-40.4	23.7	0.00e+00	0	45	0	1073741824	51	3792
2026-01-25 07:24:56.50	37.11	17.91	-39.6	-40.4	23.7	0.00e+00	0	45	0	1095761920	51	3784
2026-01-25 07:25:00.54	36.34	18.19	-39.5	-40.2	23.9	0.00e+00	0	45	0	1118830592	51	3732
2026-01-25 07:25:04.57	35.55	18.46	-39.4	-40.1	23.9	0.00e+00	0	45	0	1141899264	50	3908
2026-01-25 07:25:08.60	34.74	18.74	-39.2	-39.9	24.1	0.00e+00	0	45	0	1163919360	50	3817
2026-01-25 07:25:12.63	33.92	19.00	-39.4	-40.1	24.0	0.00e+00	0	45	0	1186988032	50	3893
2026-01-25 07:25:16.66	33.09	19.27	-39.2	-39.9	24.2	0.00e+00	0	45	0	1210056704	50	3814
2026-01-25 07:25:20.70	32.24	19.53	-39.0	-39.7	24.4	0.00e+00	0	45	0	1232076800	50	3735
2026-01-25 07:25:24.72	31.38	19.79	-39.2	-39.9	24.2	0.00e+00	0	45	0	1255145472	50	3807
2026-01-25 07:25:28.76	30.50	20.05	-38.9	-39.6	24.5	0.00e+00	0	45	0	1278214144	49	3913
2026-01-25 07:25:32.79	29.60	20.30	-38.9	-39.6	24.5	0.00e+00	0	45	0	1300234240	49	3896
2026-01-25 07:25:36.82	28.70	20.54	-39.1	-39.8	24.3	0.00e+00	0	45	0	1323302912	49	3979
2026-01-25 07:25:40.85	27.77	20.78	-38.8	-39.5	24.5	0.00e+00	0	45	0	1345323008	49	3864
2026-01-25 07:25:44.88	26.84	21.01	-39.0	-39.7	24.4	0.00e+00	0	45	0	1368391680	49	3941
2026-01-25 07:25:48.91	25.89	21.24	-38.7	-39.4	24.7	0.00e+00	0	45	0	1390411776	49	3795
2026-01-25 07:25:52.95	24.92	21.46	-38.9	-39.6	24.6	0.00e+00	0	45	0	1413480448	49	3886
2026-01-25 07:25:56.97	23.94	21.67	-38.6	-39.3	24.8	0.00e+00	0	45	0	1436549120	49	3759
2026-01-25 07:26:01.00	22.95	21.88	-38.8	-39.6	24.6	0.00e+00	0	45	0	1458569216	49	3873
2026-01-25 07:26:05.04	21.95	22.08	-38.4	-39.1	25.0	0.00e+00	0	45	0	1481637888	48	3911
2026-01-25 07:26:09.07	20.93	22.27	-38.3	-39.0	25.1	0.00e+00	0	45	0	1504706560	48	3832
2026-01-25 07:26:13.10	19.90	22.45	-38.7	-39.4	24.7	0.00e+00	0	45	0	1526726656	48	4042
2026-01-25 07:26:17.13	18.85	22.62	-38.5	-39.2	24.9	0.00e+00	0	45	0	1549795328	48	3917
2026-01-25 07:26:21.16	17.80	22.79	-38.3	-39.0	25.1	0.00e+00	0	45	0	1572864000	48	3847
2026-01-25 07:26:25.20	16.73	22.94	-38.3	-39.0	25.1	0.00e+00	0	45	0	1594884096	48	3842
2026-01-25 07:26:29.23	15.66	23.09	-38.5	-39.2	24.9	0.00e+00	0	45	0	1617952768	48	3955
2026-01-25 07:26:33.26	14.57	23.22	-38.5	-39.2	25.0	0.00e+00	0	45	0	1641021440	48	3926
2026-01-25 07:26:37.29	13.48	23.34	-38.4	-39.1	25.1	0.00e+00	0	45	0	1663041536	48	3874
2026-01-25 07:26:41.32	12.38	23.46	-38.0	-38.7	25.4	0.00e+00	0	45	0	1686110208	48	3728
2026-01-25 07:26:45.36	11.27	23.56	-37.6	-38.3	25.3	0.00e+00	0	45	0	1709178880	47	3754
2026-01-25 07:26:49.39	10.15	23.65	-37.6	-38.3	25.3	0.00e+00	0	45	0	1731198976	46	3973
2026-01-25 07:26:53.42	9.03	23.73	-37.9	-38.6	25.0	0.00e+00	0	45	0	1753219072	46	4111
2026-01-25 07:26:57.45	7.90	23.80	-37.7	-38.4	25.1	0.00e+00	0	45	0	1776287744	46	4037
2026-01-25 07:27:01.48	6.77	23.85	-37.5	-38.2	25.3	0.00e+00	0	45	0	1799356416	46	3930
2026-01-25 07:27:05.52	5.63	23.89	-37.5	-38.3	25.3	0.00e+00	0	45	0	1821376512	46	3961
2026-01-25 07:27:09.55	4.49	23.93	-37.5	-38.2	25.3	0.00e+00	0	45	0	1844445184	46	3943
2026-01-25 07:27:13.58	3.35	23.94	-37.4	-38.2	25.4	0.00e+00	0	45	0	1867513856	46	3914
2026-01-25 07:27:17.61	2.21	23.95	-37.6	-38.3	25.3	0.00e+00	0	45	0	1889533952	46	3995
2026-01-25 07:27:21.64	1.07	23.94	-37.5	-38.2	25.3	0.00e+00	0	45	0	1912602624	46	3948
2026-01-25 07:27:25.68	359.92	23.93	-37.5	-38.2	25.3	0.00e+00	0	45	0	1935671296	46	3935
2026-01-25 07:27:29.71	358.79	23.89	-37.7	-38.4	25.1	0.00e+00	0	45	0	1957691392	46	4046
2026-01-25 07:27:33.74	357.65	23.85	-37.5	-38.3	25.3	0.00e+00	0	45	0	1980760064	46	3962
2026-01-25 07:27:37.77	356.52	23.80	-37.6	-38.3	25.2	0.00e+00	0	45	0	2003828736	46	3990
2026-01-25 07:27:41.80	355.39	23.73	-37.3	-38.1	25.4	0.00e+00	0	45	0	2025848832	46	3878
2026-01-25 07:27:45.83	354.27	23.65	-37.6	-38.4	25.2	0.00e+00	0	45	0	2048917504	46	4009
2026-01-25 07:27:49.86	353.15	23.56	-37.5	-38.2	25.3	0.00e+00	0	45	0	2071986176	46	3921
2026-01-25 07:27:53.90	352.04	23.46	-37.5	-38.3	25.3	0.00e+00	0	45	0	2094006272	46	3961
2026-01-25 07:27:57.93	350.94	23.35	-37.7	-38.4	25.2	0.00e+00	0	45	0	2116026368	46	4031
2026-01-25 07:28:01.96	349.84	23.22	-37.6	-38.3	25.2	0.00e+00	0	45	0	2139095040	46	4003
2026-01-25 07:28:05.99	348.76	23.09	-37.7	-38.5	25.2	0.00e+00	0	45	0	2162163712	46	4052
2026-01-25 07:28:10.02	347.68	22.94	-37.7	-38.4	25.2	0.00e+00	0	45	0	2184183808	46	4021
2026-01-25 07:28:14.05	346.62	22.79	-37.5	-38.2	25.3	0.00e+00	0	45	0	2207252480	46	3946
2026-01-25 07:28:18.09	345.56	22.63	-37.7	-38.4	25.1	0.00e+00	0	45	0	2230321152	46	4039
2026-01-25 07:28:22.12	344.52	22.45	-37.7	-38.4	25.2	0.00e+00	0	45	0	2252341248	46	4035
2026-01-25 07:28:26.15	343.49	22.27	-37.7	-38.4	25.2	0.00e+00	0	45	0	2275409920	46	4019
2026-01-25 07:28:30.18	342.47	22.08	-37.9	-38.6	25.0	0.00e+00	0	45	0	2298478592	46	4108
2026-01-25 07:28:34.22	341.46	21.88	-37.9	-38.6	25.0	0.00e+00	0	45	0	2320498688	46	4128
2026-01-25 07:28:38.25	340.47	21.68	-37.9	-38.6	24.9	0.00e+00	0	45	0	2343567360	46	4119
2026-01-25 07:28:42.28	339.49	21.46	-37.9	-38.6	24.9	0.00e+00	0	45	0	2366636032	46	4139
2026-01-25 07:28:46.31	338.53	21.24	-37.8	-38.5	25.1	0.00e+00	0	45	0	2388656128	46	4056
2026-01-25 07:28:50.34	337.58	21.02	-37.8	-38.5	25.0	0.00e+00	0	45	0	2411724800	46	4094
2026-01-25 07:28:54.38	336.64	20.78	-38.1	-38.8	24.7	0.00e+00	0	45	0	2434793472	47	3995
2026-01-25 07:28:58.42	335.71	20.54	-38.2	-38.9	24.7	0.00e+00	0	45	0	2456813568	47	4029
2026-01-25 07:29:02.45	334.81	20.30	-38.5	-39.3	24.4	0.00e+00	0	45	0	2478833664	47	4197
2026-01-25 07:29:06.49	333.91	20.05	-38.3	-39.0	24.6	0.00e+00	0	45	0	2501902336	47	4070
2026-01-25 07:29:10.52	333.03	19.79	-38.3	-39.0	24.6	0.00e+00	0	45	0	2524971008	47	4076
2026-01-25 07:29:14.55	332.17	19.54	-38.6	-39.3	24.3	0.00e+00	0	45	0	2546991104	47	4233
2026-01-25 07:29:18.58	331.32	19.27	-39.2	-39.9	24.3	0.00e+00	0	45	0	2570059776	49	4038
2026-01-25 07:29:22.62	330.49	19.01	-39.0	-39.7	24.4	0.00e+00	0	45	0	2593128448	49	3955
2026-01-25 07:29:26.65	329.67	18.74	-39.3	-40.0	24.2	0.00e+00	0	45	0	2615148544	49	4079
2026-01-25 07:29:30.69	328.86	18.46	-38.9	-39.6	24.5	0.00e+00	0	45	0	2638217216	49	3893
2026-01-25 07:29:34.73	328.07	18.19	-39.1	-39.8	24.3	0.00e+00	0	45	0	2661285888	49	3994
2026-01-25 07:29:38.76	327.29	17.91	-39.1	-39.8	24.3	0.00e+00	0	45	0	2684354560	49	3982
2026-01-25 07:29:42.79	326.53	17.63	-39.3	-40.0	24.1	0.00e+00	0	45	0	2706374656	49	4080
2026-01-25 07:29:46.83	325.78	17.35	-39.2	-39.9	24.2	0.00e+00	0	45	0	2729443328	49	4024
2026-01-25 07:29:50.86	325.05	17.07	-39.0	-39.7	24.3	0.00e+00	0	45	0	2752512000	49	3957
2026-01-25 07:29:54.90	324.33	16.78	-39.2	-39.9	24.1	0.00e+00	0	45	0	2774532096	49	4040
2026-01-25 07:29:58.94	323.62	16.49	-39.4	-40.1	24.0	0.00e+00	0	45	0	2797600768	49	4117
2026-01-25 07:30:02.97	322.93	16.21	-39.6	-40.4	23.7	0.00e+00	0	45	0	2820669440	49	4251
2026-01-25 07:30:07.01	322.25	15.92	-39.8	-40.5	23.6	0.00e+00	0	45	0	2842689536	50	4088
2026-01-25 07:30:11.04	321.59	15.63	-39.9	-40.7	23.4	0.00e+00	0	45	0	2864709632	50	4163
2026-01-25 07:30:15.07	320.94	15.34	-39.7	-40.5	23.6	0.00e+00	0	45	0	2887778304	50	4069
2026-01-25 07:30:19.11	320.29	15.05	-39.8	-40.5	23.6	0.00e+00	0	45	0	2910846976	50	4082
2026-01-25 07:30:23.14	319.67	14.76	-40.0	-40.7	23.3	0.00e+00	0	45	0	2932867072	50	4193
2026-01-25 07:30:27.18	319.05	14.47	-40.1	-40.9	23.2	0.00e+00	0	45	0	2955935744	50	4254
2026-01-25 07:30:31.20	318.45	14.18	-40.0	-40.8	23.3	0.00e+00	0	45	0	2979004416	50	4211
2026-01-25 07:30:35.24	317.86	13.89	-40.2	-41.0	23.1	0.00e+00	0	45	0	3001024512	50	4305
2026-01-25 07:30:39.27	317.28	13.60	-40.3	-41.0	23.0	0.00e+00	0	45	0	3024093184	51	4091
2026-01-25 07:30:43.30	316.71	13.32	-40.4	-41.2	22.9	0.00e+00	0	45	0	3047161856	51	4162
2026-01-25 07:30:47.33	316.16	13.03	-40.6	-41.4	22.6	0.00e+00	0	45	0	3069181952	51	4269
2026-01-25 07:30:51.36	315.61	12.74	-40.5	-41.2	22.8	0.00e+00	0	45	0	3092250624	51	4193
2026-01-25 07:30:55.39	315.08	12.46	-40.7	-41.5	22.6	0.00e+00	0	45	0	3115319296	51	4294
2026-01-25 07:30:59.42	314.55	12.17	-40.8	-41.6	22.3	0.00e+00	0	45	0	3137339392	52	4120
2026-01-25 07:31:03.46	314.04	11.89	-40.8	-41.6	22.3	0.00e+00	0	45	0	3160408064	52	4138
2026-01-25 07:31:07.49	313.53	11.60	-40.8	-41.6	22.3	0.00e+00	0	45	0	3183476736	52	4122
2026-01-25 07:31:11.52	313.04	11.32	-40.9	-41.7	22.2	0.00e+00	0	45	0	3205496832	52	4172
2026-01-25 07:31:15.55	312.56	11.04	-41.0	-41.9	22.0	0.00e+00	0	45	0	3227516928	52	4243
2026-01-25 07:31:19.58	312.08	10.76	-41.4	-42.2	21.7	0.00e+00	0	45	0	3250585600	53	4190
2026-01-25 07:31:23.62	311.61	10.48	-41.3	-42.1	21.8	0.00e+00	0	45	0	3273654272	53	4129
2026-01-25 07:31:27.65	311.16	10.21	-41.4	-42.3	21.6	0.00e+00	0	45	0	3295674368	53	4200
2026-01-25 07:31:31.68	310.71	9.93	-41.4	-42.3	21.6	0.00e+00	0	45	0	3318743040	53	4232
2026-01-25 07:31:35.72	310.27	9.66	-41.2	-42.0	21.8	0.00e+00	0	45	0	3341811712	53	4097
2026-01-25 07:31:39.75	309.84	9.38	-41.5	-42.4	21.4	0.00e+00	0	45	0	3363831808	53	4259
2026-01-25 07:31:43.78	309.41	9.11	-41.8	-42.7	21.2	0.00e+00	0	45	0	3386900480	54	4150
2026-01-25 07:31:47.81	309.00	8.84	-41.7	-42.6	21.2	0.00e+00	0	45	0	3409969152	54	4140
2026-01-25 07:31:51.85	308.59	8.57	-41.8	-42.7	21.1	0.00e+00	0	45	0	3431989248	54	4170
2026-01-25 07:31:55.87	308.19	8.31	-42.0	-42.9	20.9	0.00e+00	0	45	0	3455057920	54	4273
2026-01-25 07:31:59.91	307.80	8.04	-41.9	-42.8	20.9	0.00e+00	0	45	0	3478126592	54	4230
2026-01-25 07:32:03.94	307.42	7.78	-42.0	-42.9	20.8	0.00e+00	0	45	0	3500146688	54	4283
2026-01-25 07:32:07.97	307.04	7.51	-42.0	-42.9	20.8	0.00e+00	0	45	0	3523215360	54	4277
2026-01-25 07:32:12.00	306.67	7.25	-42.0	-43.0	20.7	0.00e+00	0	45	0	3546284032	55	4058
2026-01-25 07:32:16.04	306.30	6.99	-42.5	-43.4	20.2	0.00e+00	0	45	0	3568304128	55	4284
2026-01-25 07:32:20.07	305.95	6.74	-42.3	-43.3	20.3	0.00e+00	0	45	0	3591372800	55	4224
2026-01-25 07:32:24.10	305.60	6.48	-42.2	-43.2	20.4	0.00e+00	0	45	0	3613392896	55	4172
2026-01-25 07:32:28.14	305.25	6.22	-42.4	-43.3	20.2	0.00e+00	0	45	0	3636461568	55	4233
2026-01-25 07:32:32.18	304.91	5.97	-42.2	-43.1	20.4	0.00e+00	0	45	0	3659530240	55	4140
2026-01-25 07:32:36.21	304.58	5.72	-42.9	-43.9	19.7	0.00e+00	0	45	0	3681550336	56	4286
2026-01-25 07:32:40.24	304.26	5.47	-42.9	-43.9	19.7	0.00e+00	0	45	0	3704619008	56	4267
2026-01-25 07:32:44.28	303.94	5.22	-42.6	-43.6	20.0	0.00e+00	0	45	0	3727687680	56	4099
2026-01-25 07:32:48.32	303.62	4.97	-52.6	-64.1	3.8	8.35e-01	0	45	104	3746562048	75	14699
2026-01-25 07:32:52.35	303.31	4.72	-53.5	-65.4	3.8	8.48e-01	0	45	104	3746562048	77	15063
2026-01-25 07:32:56.38	303.01	4.48	-54.0	-65.9	3.8	8.46e-01	0	45	104	3746562048	78	15179
2026-01-25 07:33:00.41	302.71	4.24	-54.2	-66.2	3.8	8.46e-01	0	45	104	3746562048	78	15604
2026-01-25 07:33:04.44	302.42	3.99	-54.3	-66.2	3.8	8.46e-01	0	45	104	3746562048	79	14877
2026-01-25 07:33:08.48	302.13	3.75	-54.3	-66.3	3.8	8.46e-01	0	45	104	3746562048	79	14950
2026-01-25 07:33:12.51	301.84	3.51	-54.2	-66.2	3.8	8.47e-01	0	45	104	3746562048	79	14805
2026-01-25 07:33:16.54	301.57	3.28	-54.1	-66.1	3.8	8.46e-01	0	45	104	3746562048	79	14549
2026-01-25 07:33:20.57	301.29	3.04	-54.1	-66.0	3.8	8.46e-01	0	45	104	3746562048	79	14502
2026-01-25 07:33:24.60	301.02	2.81	-54.1	-66.0	3.8	8.46e-01	0	45	104	3746562048	79	14478
2026-01-25 07:33:28.64	300.76	2.57	-54.0	-66.0	3.8	8.46e-01	0	45	104	3746562048	79	14457
2026-01-25 07:33:32.67	300.50	2.34	-54.0	-66.0	3.8	8.46e-01	0	45	104	3746562048	79	14389
2026-01-25 07:33:36.70	300.24	2.11	-54.0	-66.0	3.8	8.45e-01	0	45	104	3746562048	79	14400

#Closed at: 2026-01-25 07:33:39
#Recorded file [3746 MB]: D:/lorett/data/31041_260125_102058.dat