passes_logs/2026/01/25/R3.2S_Murmansk/R3.2S_Murmansk__20260125_000424_NOAA_20_JPSS-1_rec.log

#Pass ID: 20260125_000424_NOAA 20 (JPSS-1)
#Satellite: NOAA 20 (JPSS-1)
#Configuration: NOAA 20
#almurnet v.1.7.20251203
#Start time: 2026-01-25 00:04:27

#Version: 2.2.20231116
#Station: R3.2S_Murmansk
#Location: 33.079688 lon 68.888172 lat
#TLE: 1 43013U 17073A   26024.42258823  .00000183  00000+0  10747-3 0  9990
#TLE: 2 43013  98.7646 325.2629 0001105  25.8644 334.2587 14.19539754424075

#Time	Az	El	Level	Level2	SNR	BER	BlckErr	Temp	State	Recorded	gain1	gain2
2026-01-25 00:04:27.01	22.46	2.15	-53.3	-68.2	3.8	1.49e+00	0	41	0	0	77	20971
2026-01-25 00:04:31.05	22.55	2.40	-53.3	-68.2	3.8	1.49e+00	0	42	104	0	77	20949
2026-01-25 00:04:35.08	22.63	2.66	-53.3	-68.2	3.8	1.49e+00	0	42	104	0	77	21005
2026-01-25 00:04:39.11	22.72	2.92	-53.3	-68.2	3.8	1.49e+00	0	42	104	0	77	21000
2026-01-25 00:04:43.14	22.80	3.19	-53.3	-68.2	3.8	1.49e+00	0	42	104	0	77	20963
2026-01-25 00:04:47.17	22.89	3.45	-53.3	-68.2	3.8	1.49e+00	0	42	104	0	77	20979
2026-01-25 00:04:51.21	22.98	3.72	-53.3	-68.2	3.8	1.49e+00	0	42	104	0	77	20998
2026-01-25 00:04:55.24	23.07	3.99	-53.3	-68.2	3.8	1.49e+00	0	42	104	0	77	20986
2026-01-25 00:04:59.27	23.17	4.27	-53.3	-68.2	3.8	1.49e+00	0	42	104	0	77	20989
2026-01-25 00:05:03.30	23.26	4.54	-53.3	-68.2	3.8	1.49e+00	0	42	104	0	77	20968
2026-01-25 00:05:07.33	23.36	4.82	-53.3	-68.2	3.8	1.49e+00	0	43	104	0	77	20936
2026-01-25 00:05:11.36	23.45	5.11	-53.3	-68.2	3.8	1.49e+00	0	43	104	0	77	20998
2026-01-25 00:05:15.39	23.55	5.39	-53.3	-68.2	3.8	1.49e+00	0	43	104	0	77	20920
2026-01-25 00:05:19.42	23.65	5.68	-53.3	-68.2	3.8	1.49e+00	0	43	104	0	77	20977
2026-01-25 00:05:23.46	23.76	5.97	-53.3	-68.3	3.8	1.49e+00	0	43	104	0	77	21021
2026-01-25 00:05:27.49	23.86	6.27	-53.3	-68.2	3.8	1.49e+00	0	43	104	0	77	20987
2026-01-25 00:05:31.52	23.96	6.57	-53.3	-68.2	3.8	1.49e+00	0	43	104	0	77	20977
2026-01-25 00:05:35.55	24.07	6.87	-53.3	-68.2	3.8	1.49e+00	0	43	104	0	77	20968
2026-01-25 00:05:39.58	24.18	7.17	-53.3	-68.2	3.8	1.49e+00	0	43	104	0	77	20930
2026-01-25 00:05:43.62	24.29	7.48	-53.3	-68.3	3.8	1.49e+00	0	43	104	0	77	21038
2026-01-25 00:05:47.65	24.41	7.80	-53.3	-68.2	3.8	1.49e+00	0	43	104	0	77	21003
2026-01-25 00:05:51.68	24.52	8.11	-53.3	-68.2	3.8	1.49e+00	0	43	104	0	77	20956
2026-01-25 00:05:55.72	24.64	8.43	-53.3	-68.2	3.8	1.49e+00	0	43	104	0	77	20954
2026-01-25 00:05:59.75	24.76	8.76	-53.3	-68.2	3.8	1.49e+00	0	43	104	0	77	20957
2026-01-25 00:06:03.78	24.88	9.09	-53.3	-68.2	3.8	1.49e+00	0	43	104	0	77	21015
2026-01-25 00:06:07.81	25.00	9.42	-53.3	-68.3	3.8	1.49e+00	0	44	104	0	77	21075
2026-01-25 00:06:11.84	25.13	9.76	-53.3	-68.2	3.8	1.49e+00	0	43	104	0	77	20979
2026-01-25 00:06:15.88	25.26	10.10	-53.3	-68.2	3.8	1.49e+00	0	44	104	0	77	20961
2026-01-25 00:06:19.90	25.39	10.45	-53.3	-68.2	3.8	1.49e+00	0	43	104	0	77	21017
2026-01-25 00:06:23.94	25.52	10.80	-53.3	-68.2	3.8	1.49e+00	0	43	104	0	77	20984
2026-01-25 00:06:27.97	25.66	11.16	-53.3	-68.2	3.8	1.49e+00	0	43	104	0	77	20985
2026-01-25 00:06:32.00	25.80	11.52	-53.3	-68.2	3.8	1.49e+00	0	44	104	0	77	20984
2026-01-25 00:06:36.03	25.95	11.88	-53.3	-68.2	3.8	1.49e+00	0	43	104	0	77	20971
2026-01-25 00:06:40.06	26.09	12.26	-53.3	-68.3	3.8	1.49e+00	0	44	104	0	77	21060
2026-01-25 00:06:44.09	26.24	12.64	-53.3	-68.2	3.8	1.49e+00	0	44	104	0	77	20999
2026-01-25 00:06:48.12	26.39	13.02	-53.3	-68.2	3.8	1.49e+00	0	44	104	0	77	20967
2026-01-25 00:06:52.15	26.55	13.41	-53.3	-68.2	3.8	1.49e+00	0	44	104	0	77	20997
2026-01-25 00:06:56.18	26.71	13.81	-53.3	-68.2	3.8	1.49e+00	0	44	104	0	77	21006
2026-01-25 00:07:00.21	26.88	14.21	-53.3	-68.2	3.8	1.49e+00	0	44	104	0	77	20966
2026-01-25 00:07:04.24	27.04	14.62	-53.3	-68.3	3.8	1.49e+00	0	44	104	0	77	21032
2026-01-25 00:07:08.27	27.22	15.03	-53.3	-68.3	3.8	1.49e+00	0	44	104	0	77	21029
2026-01-25 00:07:12.30	27.39	15.46	-53.3	-68.3	3.8	1.49e+00	0	44	104	0	77	21031
2026-01-25 00:07:16.34	27.58	15.89	-53.3	-68.3	3.8	1.49e+00	0	44	104	0	77	21042
2026-01-25 00:07:20.37	27.76	16.33	-53.3	-68.3	3.8	1.49e+00	0	44	104	0	77	21045
2026-01-25 00:07:24.40	27.95	16.77	-53.3	-68.2	3.8	1.49e+00	0	44	104	0	77	20997
2026-01-25 00:07:28.43	28.15	17.22	-53.3	-68.3	3.8	1.49e+00	0	44	104	0	77	21040
2026-01-25 00:07:32.47	28.35	17.69	-53.3	-68.2	3.8	1.49e+00	0	44	104	0	77	20997
2026-01-25 00:07:36.50	28.56	18.16	-53.3	-68.2	3.8	1.49e+00	0	44	104	0	77	20966
2026-01-25 00:07:40.53	28.78	18.64	-53.3	-68.2	3.8	1.49e+00	0	44	104	0	77	21002
2026-01-25 00:07:44.56	29.00	19.13	-53.3	-68.2	3.8	1.49e+00	0	44	104	0	77	21006
2026-01-25 00:07:48.59	29.22	19.62	-53.3	-68.3	3.8	1.49e+00	0	44	104	0	77	21108
2026-01-25 00:07:52.62	29.46	20.13	-53.3	-68.3	3.8	1.49e+00	0	44	104	0	77	21019
2026-01-25 00:07:56.65	29.70	20.65	-53.3	-68.3	3.8	1.49e+00	0	44	104	0	77	21027
2026-01-25 00:08:00.68	29.95	21.18	-53.3	-68.3	3.8	1.49e+00	0	44	104	0	77	21032
2026-01-25 00:08:04.72	30.21	21.72	-53.3	-68.3	3.8	1.49e+00	0	44	104	0	77	21062
2026-01-25 00:08:08.75	30.47	22.27	-53.3	-68.3	3.8	1.49e+00	0	44	104	0	77	21024
2026-01-25 00:08:12.78	30.75	22.83	-53.3	-68.3	3.8	1.49e+00	0	44	104	0	77	21029
2026-01-25 00:08:16.81	31.03	23.40	-53.3	-68.2	3.8	1.49e+00	0	44	104	0	77	20999
2026-01-25 00:08:20.84	31.32	23.99	-53.3	-68.3	3.8	1.49e+00	0	44	104	0	77	21057
2026-01-25 00:08:24.87	31.63	24.59	-53.3	-68.2	3.8	1.49e+00	0	44	104	0	77	21004
2026-01-25 00:08:28.91	31.95	25.20	-53.3	-68.3	3.8	1.49e+00	0	44	104	0	77	21020
2026-01-25 00:08:32.94	32.27	25.83	-53.3	-68.3	3.8	1.49e+00	0	44	104	0	77	21065
2026-01-25 00:08:36.97	32.61	26.47	-53.3	-68.3	3.8	1.49e+00	0	44	104	0	77	21065
2026-01-25 00:08:41.00	32.97	27.12	-53.3	-68.3	3.8	1.49e+00	0	44	104	0	77	21023
2026-01-25 00:08:45.03	33.34	27.79	-53.3	-68.3	3.8	1.49e+00	0	44	104	0	77	21034
2026-01-25 00:08:49.06	33.72	28.47	-53.3	-68.2	3.8	1.49e+00	0	43	104	0	77	21016
2026-01-25 00:08:53.10	34.12	29.18	-53.3	-68.3	3.8	1.49e+00	0	44	104	0	77	21057
2026-01-25 00:08:57.13	34.54	29.89	-53.3	-68.3	3.8	1.49e+00	0	44	104	0	77	21035
2026-01-25 00:09:01.16	34.97	30.63	-53.3	-68.2	3.8	1.49e+00	0	44	104	0	77	21004
2026-01-25 00:09:05.19	35.43	31.38	-53.3	-68.3	3.8	1.49e+00	0	44	104	0	77	21029
2026-01-25 00:09:09.22	35.90	32.15	-53.3	-68.2	3.8	1.49e+00	0	44	104	0	77	20976
2026-01-25 00:09:13.25	36.40	32.94	-53.3	-68.3	3.8	1.49e+00	0	44	104	0	77	21057
2026-01-25 00:09:17.28	36.92	33.74	-53.3	-68.3	3.8	1.49e+00	0	44	104	0	77	21019
2026-01-25 00:09:21.31	37.47	34.57	-53.3	-68.2	3.8	1.49e+00	0	44	104	0	77	21007
2026-01-25 00:09:25.35	38.05	35.41	-53.3	-68.3	3.8	1.49e+00	0	44	104	0	77	21025
2026-01-25 00:09:29.38	38.65	36.28	-53.3	-68.3	3.8	1.49e+00	0	44	104	0	77	21061
2026-01-25 00:09:33.42	39.29	37.17	-53.3	-68.3	3.8	1.49e+00	0	43	104	0	77	21047
2026-01-25 00:09:37.45	39.97	38.07	-53.3	-68.2	3.8	1.49e+00	0	44	104	0	77	21002
2026-01-25 00:09:41.48	40.68	39.00	-53.3	-68.3	3.8	1.49e+00	0	44	104	0	77	21035
2026-01-25 00:09:45.52	41.43	39.95	-53.3	-68.2	3.8	1.49e+00	0	43	104	0	77	20971
2026-01-25 00:09:49.55	42.23	40.91	-53.3	-68.3	3.8	1.49e+00	0	43	104	0	77	21058
2026-01-25 00:09:53.58	43.08	41.90	-53.3	-68.2	3.8	1.49e+00	0	44	104	0	77	20992
2026-01-25 00:09:57.61	43.97	42.91	-53.3	-68.2	3.8	1.49e+00	0	44	104	0	77	21007
2026-01-25 00:10:01.63	44.93	43.93	-53.3	-68.2	3.8	1.49e+00	0	44	104	0	77	21005
2026-01-25 00:10:05.67	45.95	44.98	-53.3	-68.2	3.8	1.49e+00	0	44	104	0	77	21000
2026-01-25 00:10:09.70	47.04	46.04	-53.3	-68.2	3.8	1.49e+00	0	44	104	0	77	20983
2026-01-25 00:10:13.73	48.20	47.12	-53.3	-68.2	3.8	1.49e+00	0	44	104	0	77	20988
2026-01-25 00:10:17.76	49.45	48.22	-53.3	-68.3	3.8	1.49e+00	0	44	104	0	77	21030
2026-01-25 00:10:21.79	50.78	49.32	-53.3	-68.3	3.8	1.49e+00	0	44	104	0	77	21072
2026-01-25 00:10:25.82	52.22	50.44	-53.3	-68.3	3.8	1.49e+00	0	44	104	0	77	21038
2026-01-25 00:10:29.86	53.77	51.57	-53.3	-68.3	3.8	1.49e+00	0	44	104	0	77	21025
2026-01-25 00:10:33.88	55.43	52.69	-53.3	-68.3	3.8	1.49e+00	0	44	104	0	77	21032
2026-01-25 00:10:37.92	57.23	53.83	-53.3	-68.3	3.8	1.49e+00	0	44	104	0	77	21100
2026-01-25 00:10:41.95	59.17	54.95	-53.3	-68.2	3.8	1.49e+00	0	44	104	0	77	21006
2026-01-25 00:10:45.98	61.27	56.06	-53.3	-68.3	3.8	1.49e+00	0	44	104	0	77	21066
2026-01-25 00:10:50.02	63.55	57.16	-53.3	-68.2	3.8	1.49e+00	0	44	104	0	77	21013
2026-01-25 00:10:54.05	66.00	58.23	-53.3	-68.3	3.8	1.49e+00	0	44	104	0	77	21053
2026-01-25 00:10:58.08	68.66	59.27	-53.3	-68.3	3.8	1.49e+00	0	44	104	0	77	21049
2026-01-25 00:11:02.11	71.53	60.26	-53.3	-68.2	3.8	1.49e+00	0	44	104	0	77	20983
2026-01-25 00:11:06.14	74.63	61.20	-53.3	-68.3	3.8	1.49e+00	0	44	104	0	77	21028
2026-01-25 00:11:10.18	77.97	62.08	-53.3	-68.2	3.8	1.49e+00	0	44	104	0	77	21007
2026-01-25 00:11:14.21	81.53	62.88	-53.3	-68.3	3.8	1.49e+00	0	44	104	0	77	21049
2026-01-25 00:11:18.24	85.33	63.59	-53.3	-68.2	3.8	1.49e+00	0	44	104	0	77	20967
2026-01-25 00:11:22.26	89.33	64.19	-53.3	-68.3	3.8	1.49e+00	0	44	104	0	77	21057
2026-01-25 00:11:26.29	93.54	64.69	-53.3	-68.3	3.8	1.49e+00	0	44	104	0	77	21059
2026-01-25 00:11:30.32	97.91	65.06	-53.3	-68.3	3.8	1.49e+00	0	44	104	0	77	21037
2026-01-25 00:11:34.36	102.41	65.30	-53.3	-68.2	3.8	1.49e+00	0	44	104	0	77	20971
2026-01-25 00:11:38.39	106.97	65.40	-53.3	-68.2	3.8	1.49e+00	0	44	104	0	77	20999
2026-01-25 00:11:42.42	111.55	65.36	-53.3	-68.2	3.8	1.49e+00	0	44	104	0	77	20959
2026-01-25 00:11:46.45	116.08	65.18	-53.3	-68.2	3.8	1.49e+00	0	44	104	0	77	20999
2026-01-25 00:11:50.48	120.51	64.87	-53.3	-68.3	3.8	1.49e+00	0	44	104	0	77	21034
2026-01-25 00:11:54.51	124.80	64.42	-53.3	-68.2	3.8	1.49e+00	0	44	104	0	77	20958
2026-01-25 00:11:58.54	128.90	63.86	-53.3	-68.2	3.8	1.49e+00	0	44	104	0	77	20961
2026-01-25 00:12:02.57	132.80	63.20	-53.3	-68.2	3.8	1.49e+00	0	44	104	0	77	20998
2026-01-25 00:12:06.60	136.47	62.43	-53.2	-68.3	3.8	1.49e+00	0	44	104	0	77	21018
2026-01-25 00:12:10.64	139.91	61.59	-53.3	-68.3	3.8	1.49e+00	0	44	104	0	77	21065
2026-01-25 00:12:14.67	143.11	60.67	-53.3	-68.2	3.8	1.49e+00	0	44	104	0	77	21013
2026-01-25 00:12:18.71	146.08	59.70	-53.3	-68.3	3.8	1.49e+00	0	44	104	0	77	21057
2026-01-25 00:12:22.74	148.84	58.67	-53.3	-68.2	3.8	1.49e+00	0	44	104	0	77	21004
2026-01-25 00:12:26.77	151.38	57.61	-53.3	-68.2	3.8	1.49e+00	0	44	104	0	77	20960
2026-01-25 00:12:30.80	153.73	56.53	-53.3	-68.3	3.8	1.49e+00	0	44	104	0	77	21056
2026-01-25 00:12:34.83	155.91	55.42	-53.3	-68.3	3.8	1.49e+00	0	44	104	0	77	21034
2026-01-25 00:12:38.86	157.92	54.29	-53.3	-68.2	3.8	1.49e+00	0	44	104	0	77	21009
2026-01-25 00:12:42.89	159.78	53.16	-53.3	-68.3	3.8	1.49e+00	0	44	104	0	77	21022
2026-01-25 00:12:46.92	161.50	52.03	-53.3	-68.2	3.8	1.49e+00	0	44	104	0	77	21003
2026-01-25 00:12:50.95	163.10	50.90	-53.3	-68.2	3.8	1.49e+00	0	44	104	0	77	20990
2026-01-25 00:12:54.99	164.58	49.77	-53.3	-68.3	3.8	1.49e+00	0	44	104	0	77	21043
2026-01-25 00:12:59.02	165.96	48.66	-53.3	-68.3	3.8	1.49e+00	0	44	104	0	77	21039
2026-01-25 00:13:03.05	167.25	47.55	-53.3	-68.3	3.8	1.49e+00	0	44	104	0	77	21053
2026-01-25 00:13:07.08	168.45	46.47	-53.3	-68.3	3.8	1.49e+00	0	43	104	0	77	21037
2026-01-25 00:13:11.12	169.57	45.39	-53.3	-68.3	3.8	1.49e+00	0	44	104	0	77	21048
2026-01-25 00:13:15.14	170.61	44.34	-53.3	-68.3	3.8	1.49e+00	0	44	104	0	77	21099
2026-01-25 00:13:19.18	171.60	43.29	-53.3	-68.3	3.8	1.49e+00	0	44	104	0	77	21051
2026-01-25 00:13:23.20	172.52	42.28	-53.3	-68.2	3.8	1.49e+00	0	44	104	0	77	21005
2026-01-25 00:13:27.24	173.39	41.28	-53.3	-68.2	3.8	1.49e+00	0	44	104	0	77	20994
2026-01-25 00:13:31.27	174.21	40.30	-53.3	-68.3	3.8	1.49e+00	0	44	104	0	77	21067
2026-01-25 00:13:35.30	174.98	39.34	-53.3	-68.3	3.8	1.49e+00	0	44	104	0	77	21025
2026-01-25 00:13:39.33	175.71	38.40	-53.3	-68.2	3.8	1.49e+00	0	44	104	0	77	20995
2026-01-25 00:13:43.36	176.40	37.49	-53.3	-68.2	3.8	1.49e+00	0	44	104	0	77	21015
2026-01-25 00:13:47.40	177.05	36.59	-53.3	-68.3	3.8	1.49e+00	0	44	104	0	77	21074
2026-01-25 00:13:51.43	177.67	35.71	-53.3	-68.3	3.8	1.49e+00	0	44	104	0	77	21043
2026-01-25 00:13:55.46	178.26	34.86	-53.3	-68.3	3.8	1.49e+00	0	43	104	0	77	21086
2026-01-25 00:13:59.50	178.82	34.02	-53.3	-68.3	3.8	1.49e+00	0	44	104	0	77	21063
2026-01-25 00:14:03.53	179.35	33.20	-53.3	-68.3	3.8	1.49e+00	0	44	104	0	77	21024
2026-01-25 00:14:07.56	179.86	32.40	-53.3	-68.2	3.8	1.49e+00	0	44	104	0	77	21016
2026-01-25 00:14:11.59	180.34	31.62	-53.3	-68.2	3.8	1.49e+00	0	43	104	0	77	20992
2026-01-25 00:14:15.62	180.81	30.86	-53.3	-68.2	3.8	1.49e+00	0	44	104	0	77	21006
2026-01-25 00:14:19.66	181.25	30.12	-53.3	-68.3	3.8	1.49e+00	0	44	104	0	77	21030
2026-01-25 00:14:23.69	181.67	29.39	-53.3	-68.2	3.8	1.49e+00	0	44	104	0	77	21002
2026-01-25 00:14:27.72	182.08	28.68	-53.3	-68.2	3.8	1.49e+00	0	44	104	0	77	21011
2026-01-25 00:14:31.75	182.47	27.99	-53.3	-68.3	3.8	1.49e+00	0	44	104	0	77	21031
2026-01-25 00:14:35.78	182.84	27.31	-53.3	-68.2	3.8	1.49e+00	0	44	104	0	77	20985
2026-01-25 00:14:39.81	183.20	26.65	-53.3	-68.2	3.8	1.49e+00	0	44	104	0	77	20997
2026-01-25 00:14:43.84	183.54	26.00	-53.3	-68.3	3.8	1.49e+00	0	44	104	0	77	21046
2026-01-25 00:14:47.87	183.88	25.36	-53.3	-68.2	3.8	1.49e+00	0	44	104	0	77	20973
2026-01-25 00:14:51.90	184.20	24.74	-53.3	-68.2	3.8	1.49e+00	0	44	104	0	77	20987
2026-01-25 00:14:55.94	184.51	24.14	-53.3	-68.3	3.8	1.49e+00	0	43	104	0	77	21061
2026-01-25 00:14:59.97	184.80	23.54	-53.3	-68.3	3.8	1.49e+00	0	44	104	0	77	21031
2026-01-25 00:15:04.00	185.09	22.96	-53.3	-68.2	3.8	1.49e+00	0	44	104	0	77	21005
2026-01-25 00:15:08.03	185.37	22.39	-53.3	-68.2	3.8	1.49e+00	0	44	104	0	77	21017
2026-01-25 00:15:12.06	185.63	21.84	-53.3	-68.3	3.8	1.49e+00	0	44	104	0	77	21029
2026-01-25 00:15:16.10	185.89	21.29	-53.3	-68.3	3.8	1.49e+00	0	44	104	0	77	21030
2026-01-25 00:15:20.13	186.15	20.76	-53.3	-68.3	3.8	1.49e+00	0	44	104	0	77	21019
2026-01-25 00:15:24.16	186.39	20.23	-53.3	-68.3	3.8	1.49e+00	0	43	104	0	77	21024
2026-01-25 00:15:28.19	186.62	19.72	-53.3	-68.2	3.8	1.49e+00	0	44	104	0	77	21014
2026-01-25 00:15:32.22	186.85	19.22	-53.3	-68.3	3.8	1.49e+00	0	44	104	0	77	21020
2026-01-25 00:15:36.25	187.07	18.72	-53.3	-68.3	3.8	1.49e+00	0	44	104	0	77	21020
2026-01-25 00:15:40.29	187.29	18.24	-53.3	-68.2	3.8	1.49e+00	0	43	104	0	77	20997
2026-01-25 00:15:44.32	187.50	17.76	-53.3	-68.2	3.8	1.49e+00	0	44	104	0	77	20987
2026-01-25 00:15:48.35	187.70	17.30	-53.3	-68.3	3.8	1.49e+00	0	44	104	0	77	21046
2026-01-25 00:15:52.38	187.90	16.84	-53.3	-68.3	3.8	1.49e+00	0	44	104	0	77	21030
2026-01-25 00:15:56.41	188.09	16.39	-53.3	-68.3	3.8	1.49e+00	0	44	104	0	77	21027
2026-01-25 00:16:00.45	188.28	15.94	-53.3	-68.2	3.8	1.49e+00	0	44	104	0	77	20999
2026-01-25 00:16:04.48	188.46	15.51	-53.3	-68.2	3.8	1.49e+00	0	44	104	0	77	21013
2026-01-25 00:16:08.51	188.63	15.08	-53.3	-68.3	3.8	1.49e+00	0	44	104	0	77	21033
2026-01-25 00:16:12.54	188.81	14.66	-53.3	-68.3	3.8	1.49e+00	0	44	104	0	77	21023
2026-01-25 00:16:16.57	188.98	14.25	-53.3	-68.2	3.8	1.49e+00	0	44	104	0	77	21016
2026-01-25 00:16:20.60	189.14	13.84	-53.3	-68.3	3.8	1.49e+00	0	44	104	0	77	21076
2026-01-25 00:16:24.63	189.30	13.44	-53.3	-68.3	3.8	1.49e+00	0	44	104	0	77	21045
2026-01-25 00:16:28.67	189.46	13.05	-53.3	-68.3	3.8	1.49e+00	0	44	104	0	77	21067
2026-01-25 00:16:32.70	189.61	12.66	-53.3	-68.2	3.8	1.49e+00	0	44	104	0	77	20987
2026-01-25 00:16:36.73	189.76	12.28	-53.3	-68.2	3.8	1.49e+00	0	43	104	0	77	21007
2026-01-25 00:16:40.77	189.90	11.90	-53.3	-68.3	3.8	1.49e+00	0	44	104	0	77	21046
2026-01-25 00:16:44.79	190.04	11.53	-53.3	-68.2	3.8	1.49e+00	0	44	104	0	77	21004
2026-01-25 00:16:48.83	190.18	11.17	-53.3	-68.2	3.8	1.49e+00	0	44	104	0	77	21007
2026-01-25 00:16:52.86	190.32	10.81	-53.3	-68.2	3.8	1.49e+00	0	44	104	0	77	21014
2026-01-25 00:16:56.89	190.45	10.45	-53.3	-68.2	3.8	1.49e+00	0	44	104	0	77	21003
2026-01-25 00:17:00.92	190.58	10.11	-53.3	-68.2	3.8	1.49e+00	0	44	104	0	77	20961
2026-01-25 00:17:04.95	190.71	9.76	-53.3	-68.2	3.8	1.49e+00	0	44	104	0	77	21012
2026-01-25 00:17:08.98	190.84	9.42	-53.3	-68.3	3.8	1.49e+00	0	44	104	0	77	21045
2026-01-25 00:17:13.01	190.96	9.08	-53.3	-68.2	3.8	1.49e+00	0	44	104	0	77	21013
2026-01-25 00:17:17.04	191.08	8.75	-53.3	-68.2	3.8	1.49e+00	0	44	104	0	77	20999
2026-01-25 00:17:21.07	191.20	8.43	-53.3	-68.2	3.8	1.49e+00	0	44	104	0	77	20955
2026-01-25 00:17:25.10	191.31	8.10	-53.3	-68.3	3.8	1.49e+00	0	44	104	0	77	21020
2026-01-25 00:17:29.13	191.42	7.78	-53.3	-68.3	3.8	1.49e+00	0	44	104	0	77	21046
2026-01-25 00:17:33.17	191.54	7.47	-53.3	-68.2	3.8	1.49e+00	0	44	104	0	77	21002
2026-01-25 00:17:37.20	191.64	7.16	-53.3	-68.3	3.8	1.49e+00	0	44	104	0	77	21063
2026-01-25 00:17:41.23	191.75	6.85	-53.3	-68.2	3.8	1.49e+00	0	44	104	0	77	20969
2026-01-25 00:17:45.26	191.86	6.55	-53.3	-68.2	3.8	1.49e+00	0	44	104	0	77	20994
2026-01-25 00:17:49.29	191.96	6.25	-53.3	-68.3	3.8	1.49e+00	0	44	104	0	77	21021
2026-01-25 00:17:53.33	192.06	5.95	-53.3	-68.2	3.8	1.49e+00	0	43	104	0	77	20983
2026-01-25 00:17:57.36	192.16	5.65	-53.3	-68.3	3.8	1.49e+00	0	44	104	0	77	21039
2026-01-25 00:18:01.39	192.26	5.36	-53.3	-68.2	3.8	1.49e+00	0	44	104	0	77	20996
2026-01-25 00:18:05.42	192.36	5.08	-53.3	-68.3	3.8	1.49e+00	0	44	104	0	77	21030
2026-01-25 00:18:09.45	192.45	4.79	-53.3	-68.2	3.8	1.49e+00	0	44	104	0	77	20981
2026-01-25 00:18:13.49	192.54	4.51	-53.3	-68.3	3.8	1.49e+00	0	44	104	0	77	21024
2026-01-25 00:18:17.52	192.64	4.23	-53.3	-68.3	3.8	1.49e+00	0	44	104	0	77	21034
2026-01-25 00:18:21.55	192.73	3.95	-53.3	-68.2	3.8	1.49e+00	0	43	104	0	77	21014
2026-01-25 00:18:25.58	192.81	3.68	-53.3	-68.3	3.8	1.49e+00	0	44	104	0	77	21036
2026-01-25 00:18:29.61	192.90	3.41	-53.3	-68.2	3.8	1.49e+00	0	44	104	0	77	21011
2026-01-25 00:18:33.64	192.99	3.14	-53.3	-68.2	3.8	1.49e+00	0	44	104	0	77	21013
2026-01-25 00:18:37.68	193.07	2.88	-53.3	-68.3	3.8	1.49e+00	0	44	104	0	77	21053
2026-01-25 00:18:41.71	193.16	2.61	-53.3	-68.3	3.8	1.49e+00	0	44	104	0	77	21019
2026-01-25 00:18:45.74	193.24	2.35	-53.3	-68.2	3.8	1.49e+00	0	43	104	0	77	21008
2026-01-25 00:18:49.77	193.32	2.10	-53.3	-68.3	3.8	1.49e+00	0	44	104	0	77	21045

#Closed at: 2026-01-25 00:18:53
#Recorded file [0 MB]: D:/lorett/data/31041_260125_030426.dat