passes_logs/2026/01/25/R3.2S_Murmansk/R3.2S_Murmansk__20260125_201539_TY-42_rec.log

#Pass ID: 20260125_201539_TY-42
#Satellite: TY-42
#Configuration: TY-42_900M
#almurnet v.1.7.20251203
#Start time: 2026-01-25 20:15:40

#Version: 2.2.20231116
#Station: R3.2S_Murmansk
#Location: 33.079688 lon 68.888172 lat
#TLE: 1 64048U 25103A   26025.57890046  .00008012  00000-0  38191-3 0 09993
#TLE: 2 64048 097.4111 100.7975 0001666 092.3311 307.1431 15.19178210 38425

#Time	Az	El	Level	Level2	SNR	BER	BlckErr	Temp	State	Recorded	gain1	gain2
2026-01-25 20:15:40.02	198.46	2.02	-54.0	-56.1	6.2	0.00e+00	0	50	0	0	79	18602
2026-01-25 20:15:42.93	198.67	2.21	-54.0	-56.1	6.2	0.00e+00	0	50	104	0	79	18568
2026-01-25 20:15:45.85	198.90	2.39	-54.0	-56.1	6.2	0.00e+00	0	51	104	0	79	18433
2026-01-25 20:15:48.76	199.12	2.58	-54.0	-56.1	6.2	0.00e+00	0	51	104	0	79	18504
2026-01-25 20:15:51.67	199.35	2.78	-53.9	-56.1	6.2	0.00e+00	0	51	104	0	79	18431
2026-01-25 20:15:54.58	199.58	2.97	-54.1	-56.2	6.2	0.00e+00	0	51	104	0	79	18628
2026-01-25 20:15:57.50	199.81	3.16	-54.4	-56.5	6.2	0.00e+00	0	51	104	0	79	19355
2026-01-25 20:16:00.41	200.05	3.36	-54.4	-56.5	6.2	0.00e+00	0	51	104	0	79	19396
2026-01-25 20:16:03.33	200.29	3.56	-54.4	-56.5	6.2	0.00e+00	0	52	104	0	79	19391
2026-01-25 20:16:06.25	200.54	3.76	-54.3	-56.4	6.2	0.00e+00	0	52	104	0	79	19246
2026-01-25 20:16:09.16	200.79	3.96	-54.2	-56.3	6.2	0.00e+00	0	52	104	0	79	19004
2026-01-25 20:16:12.07	201.04	4.16	-53.9	-56.1	6.2	0.00e+00	0	52	104	0	79	18495
2026-01-25 20:16:14.99	201.30	4.37	-53.6	-55.7	6.2	0.00e+00	0	52	104	0	79	17625
2026-01-25 20:16:17.90	201.57	4.57	-52.7	-54.8	6.2	0.00e+00	0	52	104	0	77	17874
2026-01-25 20:16:20.82	201.84	4.78	-52.6	-54.8	6.2	0.00e+00	0	52	104	0	77	17810
2026-01-25 20:16:23.74	202.11	4.99	-52.6	-54.8	6.2	0.00e+00	0	52	104	0	77	17767
2026-01-25 20:16:26.65	202.39	5.20	-52.6	-54.7	6.2	0.00e+00	0	52	104	0	77	17745
2026-01-25 20:16:29.56	202.67	5.41	-39.1	-39.1	11.2	0.00e+00	0	53	104	0	59	8227
2026-01-25 20:16:32.48	202.96	5.63	-43.8	-44.1	9.6	0.00e+00	150	53	104	100663296	60	13791
2026-01-25 20:16:35.39	203.25	5.84	-35.5	-35.4	14.4	3.76e-02	0	55	0	360710144	43	13618
2026-01-25 20:16:38.30	203.55	6.06	-35.1	-35.0	14.6	2.94e-02	0	55	0	687865856	42	13763
2026-01-25 20:16:41.22	203.85	6.28	-35.2	-35.1	14.6	2.57e-02	0	55	0	1023410176	42	13842
2026-01-25 20:16:44.13	204.16	6.50	-35.1	-35.0	14.7	2.68e-02	0	55	0	1350565888	42	13674
2026-01-25 20:16:47.04	204.47	6.73	-35.4	-35.3	14.6	2.43e-02	0	56	0	1677721600	42	14158
2026-01-25 20:16:49.96	204.79	6.95	-35.1	-35.0	14.6	1.48e-02	0	56	0	2004877312	41	14515
2026-01-25 20:16:52.87	205.12	7.18	-34.9	-34.8	14.7	1.13e-02	0	56	0	2332033024	41	14171
2026-01-25 20:16:55.78	205.45	7.41	-34.9	-34.9	14.7	1.09e-02	0	56	0	2650800128	41	14292
2026-01-25 20:16:58.69	205.79	7.64	-34.7	-34.6	14.8	9.56e-03	0	56	0	2977955840	41	13909
2026-01-25 20:17:01.60	206.13	7.88	-34.7	-34.6	14.8	9.73e-03	0	56	0	3305111552	41	13838
2026-01-25 20:17:04.52	206.49	8.11	-34.6	-34.5	14.9	7.90e-03	0	56	0	3632267264	40	14598
2026-01-25 20:17:07.44	206.85	8.35	-34.5	-34.4	14.9	6.90e-03	0	56	0	3967811584	40	14361
2026-01-25 20:17:10.35	207.21	8.59	-34.3	-34.2	15.0	7.16e-03	0	57	0	4294967296	40	14101
2026-01-25 20:17:13.27	207.59	8.84	-34.2	-34.1	15.1	5.54e-03	0	57	0	4622123008	40	13894
2026-01-25 20:17:16.18	207.97	9.08	-34.1	-34.0	15.1	5.13e-03	0	57	0	4949278720	39	14578
2026-01-25 20:17:19.10	208.36	9.33	-34.2	-34.1	15.1	4.69e-03	0	57	0	5276434432	39	14691
2026-01-25 20:17:22.01	208.75	9.58	-33.9	-33.8	15.2	4.69e-03	0	57	0	5603590144	39	14211
2026-01-25 20:17:24.93	209.16	9.83	-33.8	-33.7	15.3	4.28e-03	0	57	0	5939134464	39	13958
2026-01-25 20:17:27.84	209.57	10.09	-33.8	-33.7	15.3	3.81e-03	0	57	0	6266290176	39	14001
2026-01-25 20:17:30.75	209.99	10.34	-33.7	-33.6	15.4	3.31e-03	0	57	0	6593445888	39	13811
2026-01-25 20:17:33.67	210.42	10.60	-33.7	-33.6	15.4	3.09e-03	0	58	0	6920601600	39	13881
2026-01-25 20:17:36.58	210.86	10.86	-33.8	-33.7	15.4	3.13e-03	0	57	0	7247757312	39	13971
2026-01-25 20:17:39.49	211.31	11.13	-33.5	-33.4	15.5	3.22e-03	0	58	0	7574913024	39	13620
2026-01-25 20:17:42.40	211.77	11.39	-33.5	-33.4	15.6	6.83e-03	0	58	0	7893680128	38	14309
2026-01-25 20:17:45.32	212.24	11.66	-33.3	-33.2	15.6	5.35e-03	0	58	0	8237613056	38	14023
2026-01-25 20:17:48.24	212.72	11.93	-33.1	-33.0	15.7	5.35e-03	0	58	0	8564768768	38	13704
2026-01-25 20:17:51.15	213.21	12.21	-32.9	-32.8	15.8	2.52e-03	0	58	0	8883535872	37	14154
2026-01-25 20:17:54.06	213.70	12.48	-32.7	-32.6	15.8	1.99e-03	0	58	0	9210691584	37	13840
2026-01-25 20:17:56.97	214.21	12.76	-32.7	-32.6	15.8	1.89e-03	0	58	0	9537847296	37	13797
2026-01-25 20:17:59.88	214.74	13.04	-32.4	-32.3	15.9	1.65e-03	0	58	0	9865003008	36	14197
2026-01-25 20:18:02.79	215.27	13.32	-32.4	-32.3	15.9	1.48e-03	0	58	0	10192158720	36	14123
2026-01-25 20:18:05.70	215.82	13.61	-32.1	-32.0	16.0	1.39e-03	0	58	0	10519314432	36	13675
2026-01-25 20:18:08.62	216.38	13.90	-29.7	-29.6	15.6	9.35e-04	0	58	0	10854858752	31	13901
2026-01-25 20:18:11.53	216.95	14.19	-29.5	-29.5	15.7	1.70e-03	0	58	0	11182014464	31	13644
2026-01-25 20:18:14.44	217.53	14.48	-29.3	-29.3	15.8	2.35e-03	0	58	0	11509170176	30	14114
2026-01-25 20:18:17.35	218.13	14.77	-29.3	-29.2	15.7	1.85e-03	0	58	0	11836325888	30	14091
2026-01-25 20:18:20.27	218.74	15.07	-29.2	-29.1	15.8	1.74e-03	0	59	0	12163481600	30	13882
2026-01-25 20:18:23.18	219.36	15.36	-28.9	-28.8	15.9	1.45e-03	0	59	0	12490637312	29	14195
2026-01-25 20:18:26.09	220.00	15.66	-28.8	-28.7	15.9	1.26e-03	0	59	0	12817793024	29	14071
2026-01-25 20:18:29.00	220.66	15.96	-28.8	-28.7	16.0	1.25e-03	0	59	0	13136560128	29	14032
2026-01-25 20:18:31.91	221.33	16.27	-28.5	-28.4	16.0	1.10e-03	0	59	0	13463715840	28	14299
2026-01-25 20:18:34.83	222.01	16.57	-28.4	-28.3	16.1	7.82e-04	0	59	0	13807648768	28	14137
2026-01-25 20:18:37.74	222.71	16.88	-28.2	-28.1	16.2	7.49e-04	0	59	0	14126415872	28	13817
2026-01-25 20:18:40.67	223.44	17.19	-28.1	-28.0	16.2	9.87e-04	0	59	0	14453571584	28	13786
2026-01-25 20:18:43.58	224.17	17.49	-28.0	-27.9	16.3	6.01e-04	0	59	0	14780727296	28	13555
2026-01-25 20:18:46.49	224.92	17.80	-28.0	-27.9	16.3	5.67e-04	0	59	0	15107883008	27	14316
2026-01-25 20:18:49.40	225.69	18.11	-28.0	-27.9	16.3	4.72e-04	0	59	0	15435038720	27	14361
2026-01-25 20:18:52.31	226.48	18.42	-27.8	-27.7	16.3	4.72e-04	0	59	0	15762194432	27	14029
2026-01-25 20:18:55.22	227.28	18.73	-27.7	-27.6	16.4	8.01e-04	0	59	0	16097738752	27	13849
2026-01-25 20:18:58.13	228.11	19.04	-27.6	-27.5	16.4	3.58e-04	0	59	0	16424894464	27	13659
2026-01-25 20:19:01.05	228.95	19.35	-27.4	-27.3	16.4	3.43e-04	0	59	0	16752050176	26	14124
2026-01-25 20:19:03.97	229.82	19.66	-27.4	-27.3	16.4	3.77e-04	0	59	0	17079205888	26	14138
2026-01-25 20:19:06.88	230.70	19.96	-27.4	-27.3	16.4	4.96e-04	0	59	0	17406361600	26	14250
2026-01-25 20:19:09.79	231.60	20.27	-27.1	-27.0	16.5	4.00e-04	0	59	0	17733517312	26	13745
2026-01-25 20:19:12.70	232.52	20.57	-27.1	-27.0	16.5	3.15e-04	0	59	0	18052284416	26	13661
2026-01-25 20:19:15.61	233.46	20.87	-27.0	-26.9	16.4	3.43e-04	0	59	0	18379440128	26	13562
2026-01-25 20:19:18.53	234.43	21.17	-26.9	-26.8	16.5	1.22e-03	0	59	0	18723373056	25	14144
2026-01-25 20:19:21.44	235.41	21.46	-26.7	-26.6	16.5	4.05e-04	0	59	0	19050528768	25	13940
2026-01-25 20:19:24.36	236.42	21.76	-26.7	-26.6	16.5	2.76e-04	0	59	0	19369295872	25	13854
2026-01-25 20:19:27.27	237.44	22.04	-26.5	-26.4	16.6	2.24e-04	0	59	0	19696451584	25	13544
2026-01-25 20:19:30.19	238.49	22.33	-26.5	-26.4	16.6	1.24e-04	0	59	0	20023607296	24	14285
2026-01-25 20:19:33.10	239.56	22.60	-26.3	-26.3	16.6	1.52e-04	0	59	0	20350763008	24	14113
2026-01-25 20:19:36.02	240.65	22.87	-26.2	-26.1	16.6	1.52e-04	0	59	0	20686307328	24	13926
2026-01-25 20:19:38.93	241.76	23.14	-26.1	-26.0	16.7	9.53e-05	0	59	0	21013463040	24	13750
2026-01-25 20:19:41.85	242.89	23.40	-26.2	-26.1	16.7	9.53e-05	0	59	0	21340618752	24	13850
2026-01-25 20:19:44.76	244.04	23.65	-26.0	-25.9	16.7	1.33e-04	0	59	0	21667774464	23	14345
2026-01-25 20:19:47.67	245.21	23.89	-25.7	-25.6	16.7	8.10e-05	0	59	0	21994930176	23	13924
2026-01-25 20:19:50.60	246.41	24.12	-25.8	-25.7	16.7	7.15e-05	0	59	0	22322085888	23	14042
2026-01-25 20:19:53.52	247.62	24.35	-25.7	-25.6	16.8	6.19e-05	0	59	0	22649241600	23	13860
2026-01-25 20:19:56.43	248.85	24.56	-25.6	-25.5	16.8	3.81e-05	0	59	0	22984785920	23	13706
2026-01-25 20:19:59.35	250.09	24.76	-25.5	-25.4	16.8	3.81e-05	0	59	0	23311941632	23	13559
2026-01-25 20:20:02.26	251.36	24.95	-25.4	-25.3	16.8	7.62e-05	0	59	0	23639097344	22	14255
2026-01-25 20:20:05.18	252.64	25.13	-25.4	-25.3	16.7	5.72e-05	0	59	0	23966253056	22	14265
2026-01-25 20:20:08.10	253.93	25.30	-25.5	-25.4	16.7	7.15e-05	0	59	0	24285020160	22	14278
2026-01-25 20:20:11.01	255.24	25.45	-25.4	-25.3	16.7	4.29e-05	0	59	0	24612175872	22	14160
2026-01-25 20:20:13.93	256.57	25.59	-25.3	-25.2	16.7	1.14e-04	0	59	0	24956108800	22	14050
2026-01-25 20:20:16.85	257.90	25.72	-25.3	-25.2	16.7	4.76e-05	0	59	0	25274875904	22	14060
2026-01-25 20:20:19.76	259.24	25.83	-25.5	-25.3	16.7	4.29e-05	0	59	0	25602031616	22	14273
2026-01-25 20:20:22.68	260.60	25.93	-25.3	-25.2	16.7	7.15e-05	0	59	0	25929187328	22	13983
2026-01-25 20:20:25.58	261.96	26.01	-25.2	-25.1	16.7	9.53e-05	0	59	0	26256343040	22	13831
2026-01-25 20:20:28.49	263.32	26.07	-25.3	-25.2	16.6	2.86e-05	0	59	0	26583498752	22	14001
2026-01-25 20:20:31.42	264.71	26.12	-25.4	-25.3	16.6	4.29e-05	0	59	0	26919043072	22	14139
2026-01-25 20:20:34.33	266.08	26.16	-25.4	-25.3	16.6	6.67e-05	0	59	0	27246198784	22	14137
2026-01-25 20:20:37.25	267.46	26.17	-25.3	-25.2	16.6	4.76e-05	0	59	0	27573354496	22	14016
2026-01-25 20:20:40.16	268.84	26.17	-25.3	-25.2	16.6	1.57e-04	0	59	0	27900510208	22	14074
2026-01-25 20:20:43.08	270.23	26.16	-25.3	-25.2	16.5	4.29e-05	0	59	0	28227665920	22	13957
2026-01-25 20:20:45.99	271.60	26.13	-25.3	-25.2	16.5	5.72e-05	0	59	0	28554821632	22	14068
2026-01-25 20:20:48.90	272.97	26.08	-25.5	-25.4	16.5	4.76e-05	0	59	0	28881977344	22	14288
2026-01-25 20:20:51.82	274.34	26.02	-25.5	-25.4	16.5	4.29e-05	0	59	0	29217521664	22	14304
2026-01-25 20:20:54.73	275.70	25.94	-25.5	-25.4	16.5	4.76e-05	0	59	0	29544677376	22	14381
2026-01-25 20:20:57.64	277.06	25.84	-25.7	-25.6	16.4	4.29e-05	0	59	0	29871833088	22	14752
2026-01-25 20:21:00.55	278.40	25.73	-25.7	-25.6	16.5	8.10e-05	0	59	0	30198988800	22	14619
2026-01-25 20:21:03.46	279.73	25.61	-25.8	-25.7	16.5	2.86e-05	0	59	0	30517755904	22	14779
2026-01-25 20:21:06.38	281.05	25.47	-25.8	-25.7	16.4	1.24e-04	0	59	0	30844911616	22	14918
2026-01-25 20:21:09.29	282.36	25.32	-26.0	-25.9	16.5	7.62e-05	0	59	0	31172067328	22	15199
2026-01-25 20:21:12.20	283.65	25.16	-25.9	-25.8	16.6	8.10e-05	0	59	0	31499223040	22	14998
2026-01-25 20:21:15.12	284.93	24.98	-25.9	-25.8	16.5	7.15e-05	0	59	0	31834767360	22	14950
2026-01-25 20:21:18.04	286.19	24.79	-25.9	-25.8	16.6	1.14e-04	0	59	0	32161923072	22	15084
2026-01-25 20:21:20.96	287.44	24.59	-26.2	-26.1	16.5	7.15e-05	0	59	0	32489078784	22	15480
2026-01-25 20:21:23.87	288.67	24.38	-26.3	-26.2	16.6	7.62e-05	0	59	0	32816234496	23	14889
2026-01-25 20:21:26.79	289.88	24.16	-26.4	-26.3	16.6	9.53e-05	0	59	0	33143390208	23	14962
2026-01-25 20:21:29.70	291.06	23.93	-26.4	-26.3	16.6	1.33e-04	0	59	0	33470545920	23	14956
2026-01-25 20:21:32.61	292.23	23.69	-26.4	-26.2	16.7	8.58e-05	0	59	0	33797701632	23	14934
2026-01-25 20:21:35.53	293.38	23.44	-26.4	-26.3	16.7	1.19e-04	0	59	0	34133245952	23	15086
2026-01-25 20:21:38.45	294.52	23.18	-26.5	-26.4	16.7	1.33e-04	0	59	0	34460401664	23	15239
2026-01-25 20:21:41.36	295.62	22.92	-26.6	-26.5	16.7	1.05e-04	0	59	0	34787557376	23	15453
2026-01-25 20:21:44.28	296.71	22.65	-26.8	-26.7	16.7	7.15e-05	0	59	0	35114713088	24	14784
2026-01-25 20:21:47.19	297.78	22.37	-26.8	-26.7	16.8	8.10e-05	0	59	0	35433480192	24	14796
2026-01-25 20:21:50.10	298.82	22.09	-26.6	-26.4	16.8	1.00e-04	0	59	0	35760635904	24	14428
2026-01-25 20:21:53.02	299.85	21.81	-26.8	-26.7	16.8	1.05e-04	0	59	0	36087791616	24	14871
2026-01-25 20:21:55.93	300.85	21.52	-26.9	-26.8	16.7	1.10e-04	0	59	0	36431724544	24	15074
2026-01-25 20:21:58.85	301.84	21.23	-26.8	-26.7	16.8	1.38e-04	0	59	0	36750491648	24	14938
2026-01-25 20:22:01.76	302.80	20.93	-27.0	-26.9	16.8	1.52e-04	0	59	0	37077647360	24	15132
2026-01-25 20:22:04.67	303.74	20.63	-27.1	-27.0	16.7	2.29e-04	0	59	0	37404803072	24	15315
2026-01-25 20:22:07.59	304.66	20.33	-27.2	-27.1	16.7	2.14e-04	0	59	0	37731958784	24	15583
2026-01-25 20:22:10.50	305.57	20.03	-27.3	-27.2	16.7	2.48e-04	0	59	0	38059114496	25	14837
2026-01-25 20:22:13.42	306.45	19.72	-27.5	-27.4	16.6	2.48e-04	0	59	0	38394658816	25	15186
2026-01-25 20:22:16.34	307.31	19.41	-27.4	-27.3	16.6	2.24e-04	0	59	0	38721814528	25	15023
2026-01-25 20:22:19.25	308.15	19.11	-27.6	-27.5	16.6	2.43e-04	0	59	0	39048970240	25	15445
2026-01-25 20:22:22.17	308.98	18.80	-27.7	-27.6	16.6	3.62e-04	0	59	0	39376125952	26	14664
2026-01-25 20:22:25.09	309.79	18.49	-28.0	-27.9	16.5	2.86e-04	0	59	0	39703281664	26	15139
2026-01-25 20:22:28.00	310.57	18.19	-28.0	-27.9	16.5	2.38e-04	0	59	0	40030437376	26	15149
2026-01-25 20:22:30.90	311.34	17.88	-27.9	-27.8	16.4	3.15e-04	0	59	0	40357593088	26	15058
2026-01-25 20:22:33.81	312.09	17.57	-28.2	-28.1	16.4	3.72e-04	0	59	0	40676360192	27	14685
2026-01-25 20:22:36.72	312.82	17.27	-28.2	-28.1	16.3	4.10e-04	0	59	0	41020293120	27	14622
2026-01-25 20:22:39.64	313.54	16.96	-28.4	-28.3	16.2	5.91e-04	0	59	0	41347448832	27	14973
2026-01-25 20:22:42.56	314.24	16.66	-28.6	-28.5	16.2	5.48e-04	0	59	0	41666215936	27	15338
2026-01-25 20:22:45.47	314.93	16.36	-28.8	-28.7	16.0	7.44e-04	0	59	0	41993371648	28	14894
2026-01-25 20:22:48.38	315.60	16.05	-28.6	-28.5	16.1	7.53e-04	0	59	0	42320527360	28	14532
2026-01-25 20:22:51.30	316.25	15.75	-28.6	-28.5	16.1	5.72e-04	0	59	0	42647683072	28	14444
2026-01-25 20:22:54.21	316.89	15.46	-28.6	-28.5	16.0	5.72e-04	0	59	0	42974838784	28	14556
2026-01-25 20:22:57.12	317.52	15.16	-28.8	-28.7	15.9	8.68e-04	0	59	0	43310383104	28	14945
2026-01-25 20:23:00.04	318.13	14.87	-28.9	-28.8	15.9	1.02e-03	0	60	0	43637538816	28	14994
2026-01-25 20:23:02.96	318.73	14.57	-29.1	-29.0	15.8	1.05e-03	0	60	0	43964694528	28	15303
2026-01-25 20:23:05.86	319.31	14.28	-29.1	-29.0	15.8	1.14e-03	0	59	0	44291850240	28	15305
2026-01-25 20:23:08.78	319.88	14.00	-29.0	-28.9	15.9	1.24e-03	0	59	0	44619005952	29	14436
2026-01-25 20:23:11.69	320.44	13.71	-29.2	-29.1	15.8	1.28e-03	0	59	0	44946161664	29	14696
2026-01-25 20:23:14.60	320.99	13.43	-29.3	-29.2	15.7	1.51e-03	0	59	0	45273317376	29	14852
2026-01-25 20:23:17.51	321.52	13.15	-29.3	-29.2	15.7	2.70e-03	0	60	0	45592084480	29	14880
2026-01-25 20:23:20.42	322.04	12.87	-29.5	-29.4	15.6	2.75e-03	0	60	0	45919240192	29	15218
2026-01-25 20:23:23.33	322.55	12.59	-29.4	-29.3	15.7	2.17e-03	0	60	0	46263173120	29	15113
2026-01-25 20:23:26.25	323.05	12.32	-29.4	-29.3	15.7	2.26e-03	0	60	0	46581940224	29	15086
2026-01-25 20:23:29.16	323.54	12.04	-29.5	-29.4	15.6	2.57e-03	0	59	0	46909095936	29	15130
2026-01-25 20:23:32.07	324.02	11.78	-29.5	-29.4	15.6	8.97e-03	0	59	0	47236251648	29	15277
2026-01-25 20:23:34.98	324.49	11.51	-29.4	-29.3	15.6	1.01e-02	0	60	0	47563407360	29	15090
2026-01-25 20:23:37.90	324.95	11.24	-29.6	-29.5	15.6	1.01e-02	0	60	0	47890563072	30	14536
2026-01-25 20:23:40.81	325.40	10.98	-29.7	-29.6	15.5	1.01e-02	0	60	0	48217718784	30	14668
2026-01-25 20:23:43.72	325.84	10.72	-29.9	-29.8	15.5	1.24e-02	0	60	0	48544874496	30	15056
2026-01-25 20:23:46.63	326.27	10.46	-30.0	-29.9	15.4	1.43e-02	0	60	0	48880418816	31	14337
2026-01-25 20:23:49.54	326.69	10.21	-30.2	-30.1	15.3	1.47e-02	0	60	0	49207574528	31	14684
2026-01-25 20:23:52.45	327.10	9.95	-29.9	-29.8	15.4	1.47e-02	0	60	0	49534730240	31	14263
2026-01-25 20:23:55.37	327.51	9.70	-30.0	-29.9	15.3	1.39e-02	0	60	0	49861885952	31	14428
2026-01-25 20:23:58.28	327.90	9.46	-30.4	-30.4	15.2	1.60e-02	0	60	0	50189041664	31	15145
2026-01-25 20:24:01.20	328.29	9.21	-30.2	-30.1	15.3	1.72e-02	0	60	0	50516197376	31	14724
2026-01-25 20:24:04.11	328.67	8.96	-30.5	-30.4	15.1	1.65e-02	0	60	0	50834964480	32	14371
2026-01-25 20:24:07.02	329.05	8.72	-30.4	-30.3	15.1	2.05e-02	0	60	0	51178897408	32	14211
2026-01-25 20:24:09.94	329.42	8.48	-30.7	-30.6	15.0	2.05e-02	0	60	0	51506053120	32	14731
2026-01-25 20:24:12.86	329.78	8.24	-30.7	-30.6	15.0	2.38e-02	0	60	0	51824820224	32	14754
2026-01-25 20:24:15.78	330.13	8.01	-30.8	-30.7	15.0	2.47e-02	0	60	0	52151975936	32	14828
2026-01-25 20:24:18.70	330.48	7.78	-30.9	-30.8	14.9	2.47e-02	0	60	0	52479131648	32	15074
2026-01-25 20:24:21.63	330.82	7.54	-31.1	-31.0	14.8	2.76e-02	0	60	0	52814675968	33	14503
2026-01-25 20:24:24.54	331.15	7.31	-31.0	-31.0	14.8	2.71e-02	0	60	0	53141831680	33	14441
2026-01-25 20:24:27.46	331.48	7.09	-31.1	-31.0	14.8	2.85e-02	0	60	0	53468987392	33	14516
2026-01-25 20:24:30.39	331.80	6.86	-31.2	-31.2	14.7	3.21e-02	0	60	0	53796143104	33	14828
2026-01-25 20:24:33.31	332.12	6.64	-32.1	-32.0	14.3	3.23e-02	0	60	0	54123298816	34	15432
2026-01-25 20:24:36.23	332.43	6.41	-31.9	-31.9	14.4	4.07e-02	0	60	0	54458843136	35	14321
2026-01-25 20:24:39.16	332.73	6.19	-31.9	-31.8	14.4	3.76e-02	0	60	0	54785998848	34	15011
2026-01-25 20:24:42.08	333.03	5.98	-31.9	-31.8	14.3	3.76e-02	0	60	0	55113154560	34	15026
2026-01-25 20:24:45.02	333.33	5.76	-31.6	-31.5	14.4	4.09e-02	0	60	0	55448698880	34	14572
2026-01-25 20:24:47.96	333.62	5.54	-31.8	-31.8	14.3	4.09e-02	0	60	0	55775854592	34	14985
2026-01-25 20:24:50.90	333.91	5.33	-32.3	-32.3	14.0	4.51e-02	0	60	0	56103010304	35	15024
2026-01-25 20:24:53.86	334.19	5.12	-34.6	-34.5	14.4	5.08e-02	0	60	0	56438554624	40	14568
2026-01-25 20:24:56.84	334.47	4.90	-53.0	-55.2	6.2	7.08e-02	0	59	104	56648269824	76	19915
2026-01-25 20:24:59.85	334.75	4.69	-53.6	-55.7	6.2	7.08e-02	0	59	104	56648269824	77	19905
2026-01-25 20:25:02.82	335.02	4.48	-53.8	-55.9	6.2	7.08e-02	0	59	104	56648269824	78	19160
2026-01-25 20:25:05.82	335.28	4.27	-53.7	-55.8	6.2	7.08e-02	0	58	104	56648269824	78	18935
2026-01-25 20:25:08.80	335.54	4.07	-53.5	-55.6	6.2	0.00e+00	0	58	104	56648269824	78	18584
2026-01-25 20:25:11.78	335.80	3.86	-53.6	-55.7	6.2	0.00e+00	0	58	104	56648269824	78	18738
2026-01-25 20:25:14.76	336.05	3.66	-53.6	-55.8	6.2	0.00e+00	0	58	104	56648269824	78	18833
2026-01-25 20:25:17.78	336.31	3.46	-53.5	-55.7	6.2	0.00e+00	0	58	104	56648269824	78	18604
2026-01-25 20:25:20.81	336.55	3.25	-53.5	-55.6	6.2	0.00e+00	0	58	104	56648269824	78	18440
2026-01-25 20:25:23.83	336.80	3.05	-53.4	-55.6	6.2	0.00e+00	0	58	104	56648269824	78	18422
2026-01-25 20:25:26.84	337.04	2.86	-53.4	-55.5	6.2	0.00e+00	0	58	104	56648269824	78	18349
2026-01-25 20:25:29.87	337.27	2.66	-53.4	-55.5	6.2	0.00e+00	0	57	104	56648269824	78	18287
2026-01-25 20:25:32.89	337.51	2.46	-53.4	-55.5	6.2	0.00e+00	0	57	104	56648269824	78	18255
2026-01-25 20:25:35.91	337.73	2.27	-53.4	-55.5	6.2	0.00e+00	0	57	104	56648269824	78	18220
2026-01-25 20:25:38.93	337.96	2.07	-53.3	-55.5	6.2	0.00e+00	0	57	104	56648269824	78	18261

#Closed at: 2026-01-25 20:25:41
#Recorded file [56648 MB]: D:/lorett/data/31041_260125_231539.dat