passes_logs/2026/01/25/R3.2S_Murmansk/R3.2S_Murmansk__20260125_232457_SUOMI_NPP_rec.log

#Pass ID: 20260125_232457_SUOMI NPP
#Satellite: SUOMI NPP
#Configuration: NPP
#almurnet v.1.7.20251203
#Start time: 2026-01-25 23:24:56

#Version: 2.2.20231116
#Station: R3.2S_Murmansk
#Location: 33.079688 lon 68.888172 lat
#TLE: 1 37849U 11061A   26025.53586395  .00000179  00000+0  10601-3 0  9996
#TLE: 2 37849  98.7821 327.4943 0002169  45.6246 314.5108 14.19529815738202

#Time	Az	El	Level	Level2	SNR	BER	BlckErr	Temp	State	Recorded	gain1	gain2
2026-01-25 23:24:56.86	20.51	1.97	-52.8	-67.7	3.8	1.49e+00	0	41	0	0	76	21010
2026-01-25 23:25:00.88	20.68	2.22	-52.8	-67.7	3.8	1.49e+00	0	42	104	0	76	21008
2026-01-25 23:25:04.91	20.85	2.46	-52.8	-67.7	3.8	1.49e+00	0	42	104	0	76	20950
2026-01-25 23:25:08.94	21.03	2.71	-52.8	-67.7	3.8	1.49e+00	0	42	104	0	76	20922
2026-01-25 23:25:12.97	21.20	2.96	-53.0	-68.0	3.8	1.49e+00	0	42	104	0	76	21546
2026-01-25 23:25:17.00	21.38	3.22	-53.6	-68.5	3.8	1.49e+00	0	42	104	0	77	21741
2026-01-25 23:25:21.03	21.56	3.47	-53.6	-68.6	3.8	1.49e+00	0	42	104	0	77	21899
2026-01-25 23:25:25.06	21.75	3.73	-53.7	-68.7	3.8	1.49e+00	0	42	104	0	77	22195
2026-01-25 23:25:29.09	21.93	3.99	-53.9	-68.9	3.8	1.49e+00	0	42	104	0	78	21301
2026-01-25 23:25:33.12	22.12	4.26	-54.0	-69.0	3.8	1.49e+00	0	42	104	0	78	21515
2026-01-25 23:25:37.15	22.32	4.52	-54.0	-69.0	3.8	1.49e+00	0	42	104	0	78	21650
2026-01-25 23:25:41.18	22.51	4.79	-54.0	-69.0	3.8	1.49e+00	0	42	104	0	78	21666
2026-01-25 23:25:45.21	22.71	5.06	-54.0	-68.9	3.8	1.49e+00	0	43	104	0	78	21454
2026-01-25 23:25:49.25	22.92	5.33	-53.9	-68.9	3.8	1.49e+00	0	43	104	0	78	21281
2026-01-25 23:25:53.28	23.12	5.61	-53.9	-68.8	3.8	1.49e+00	0	43	104	0	78	21230
2026-01-25 23:25:57.31	23.33	5.88	-53.9	-68.8	3.8	1.49e+00	0	43	104	0	78	21239
2026-01-25 23:26:01.35	23.55	6.17	-53.8	-68.8	3.8	1.49e+00	0	43	104	0	78	21138
2026-01-25 23:26:05.37	23.76	6.45	-53.8	-68.8	3.8	1.49e+00	0	43	104	0	78	21019
2026-01-25 23:26:09.41	23.99	6.73	-53.7	-68.7	3.8	1.49e+00	0	43	104	0	78	20986
2026-01-25 23:26:13.44	24.21	7.02	-53.7	-68.7	3.8	1.49e+00	0	43	104	0	78	20932
2026-01-25 23:26:17.47	24.44	7.31	-53.8	-68.8	3.8	1.49e+00	0	43	104	0	78	21126
2026-01-25 23:26:21.50	24.67	7.61	-54.0	-69.0	3.8	1.49e+00	0	43	104	0	78	21532
2026-01-25 23:26:25.53	24.91	7.91	-53.9	-68.9	3.8	1.49e+00	0	43	104	0	78	21385
2026-01-25 23:26:29.55	25.16	8.21	-53.8	-68.8	3.8	1.49e+00	0	43	104	0	78	21210
2026-01-25 23:26:33.58	25.40	8.51	-53.6	-68.5	3.8	1.49e+00	0	43	104	0	78	20524
2026-01-25 23:26:37.61	25.66	8.82	-53.1	-67.9	3.8	1.49e+00	0	43	104	0	78	19094
2026-01-25 23:26:41.64	25.91	9.13	-49.5	-52.9	14.0	0.00e+00	0	43	0	4194304	69	5679
2026-01-25 23:26:45.67	26.17	9.44	-47.7	-49.8	15.8	1.49e+00	1	43	104	9437184	67	4470
2026-01-25 23:26:49.69	26.44	9.76	-46.7	-48.5	17.9	0.00e+00	0	43	0	15728640	64	4572
2026-01-25 23:26:53.72	26.72	10.08	-46.0	-47.5	18.8	0.00e+00	0	43	0	23068672	64	4093
2026-01-25 23:26:57.74	26.99	10.41	-45.7	-47.2	19.2	0.00e+00	0	43	0	30408704	63	4180
2026-01-25 23:27:01.74	27.28	10.73	-45.6	-47.1	19.4	0.00e+00	0	43	0	38797312	63	4120
2026-01-25 23:27:05.77	27.57	11.07	-45.7	-47.2	19.3	0.00e+00	0	43	0	46137344	62	4406
2026-01-25 23:27:09.79	27.86	11.40	-45.4	-46.8	19.7	0.00e+00	0	43	0	53477376	62	4218
2026-01-25 23:27:13.82	28.17	11.74	-45.4	-46.8	19.6	0.00e+00	0	43	0	60817408	62	4220
2026-01-25 23:27:17.84	28.48	12.09	-45.5	-47.0	19.6	0.00e+00	0	43	0	68157440	62	4296
2026-01-25 23:27:21.87	28.79	12.44	-45.5	-46.9	19.6	0.00e+00	0	43	0	76546048	62	4269
2026-01-25 23:27:25.90	29.12	12.79	-45.4	-46.8	19.8	0.00e+00	0	43	0	83886080	62	4210
2026-01-25 23:27:29.92	29.45	13.15	-45.4	-46.9	19.7	0.00e+00	0	43	0	91226112	62	4245
2026-01-25 23:27:33.94	29.79	13.51	-45.6	-47.1	19.5	0.00e+00	0	43	0	98566144	62	4353
2026-01-25 23:27:37.96	30.14	13.88	-45.5	-46.9	19.6	0.00e+00	0	43	0	105906176	62	4284
2026-01-25 23:27:41.99	30.49	14.25	-45.5	-46.9	19.7	0.00e+00	0	43	0	114294784	62	4253
2026-01-25 23:27:46.02	30.86	14.62	-45.5	-46.9	19.6	0.00e+00	0	43	0	121634816	62	4277
2026-01-25 23:27:50.05	31.23	15.00	-45.9	-47.4	19.3	0.00e+00	0	43	0	128974848	62	4536
2026-01-25 23:27:54.08	31.61	15.39	-45.5	-46.9	19.7	0.00e+00	0	43	0	136314880	62	4277
2026-01-25 23:27:58.11	32.00	15.78	-45.4	-46.8	19.9	0.00e+00	0	43	0	144703488	62	4221
2026-01-25 23:28:02.13	32.40	16.18	-45.2	-46.6	20.1	0.00e+00	0	44	0	152043520	62	4109
2026-01-25 23:28:06.16	32.82	16.58	-45.0	-46.3	20.3	0.00e+00	0	44	0	159383552	61	4201
2026-01-25 23:28:10.18	33.24	16.99	-45.3	-46.7	20.0	0.00e+00	0	43	0	166723584	61	4394
2026-01-25 23:28:14.21	33.67	17.40	-45.7	-47.1	19.6	0.00e+00	0	43	0	174063616	62	4365
2026-01-25 23:28:18.24	34.12	17.82	-45.8	-47.3	19.5	0.00e+00	0	44	0	181403648	62	4456
2026-01-25 23:28:22.26	34.58	18.24	-45.8	-47.3	19.4	0.00e+00	0	44	0	189792256	62	4461
2026-01-25 23:28:26.29	35.05	18.67	-46.2	-47.7	19.2	0.00e+00	0	43	0	197132288	62	4690
2026-01-25 23:28:30.32	35.53	19.10	-46.0	-47.5	19.3	0.00e+00	0	43	0	204472320	63	4300
2026-01-25 23:28:34.35	36.03	19.54	-46.0	-47.5	19.3	0.00e+00	0	43	0	211812352	63	4295
2026-01-25 23:28:38.37	36.53	19.99	-46.5	-48.1	18.8	0.00e+00	0	43	0	220200960	63	4603
2026-01-25 23:28:42.39	37.06	20.44	-46.2	-47.7	19.2	0.00e+00	0	44	0	227540992	63	4419
2026-01-25 23:28:46.42	37.60	20.90	-46.2	-47.8	19.1	0.00e+00	0	43	0	234881024	63	4446
2026-01-25 23:28:50.45	38.16	21.36	-46.3	-47.8	19.0	0.00e+00	0	44	0	242221056	63	4488
2026-01-25 23:28:54.47	38.73	21.83	-46.0	-47.4	19.5	0.00e+00	0	44	0	249561088	63	4285
2026-01-25 23:28:58.50	39.32	22.31	-45.4	-46.7	20.1	0.00e+00	0	44	0	257949696	62	4177
2026-01-25 23:29:02.52	39.92	22.79	-44.8	-46.0	20.7	0.00e+00	0	43	0	265289728	61	4096
2026-01-25 23:29:06.54	40.55	23.28	-44.5	-45.7	21.0	0.00e+00	0	44	0	272629760	60	4165
2026-01-25 23:29:10.57	41.19	23.77	-45.3	-46.7	20.1	0.00e+00	0	43	0	279969792	61	4407
2026-01-25 23:29:14.59	41.86	24.27	-45.6	-47.0	19.8	0.00e+00	0	43	0	287309824	62	4331
2026-01-25 23:29:18.62	42.54	24.77	-45.1	-46.3	20.5	0.00e+00	0	43	0	294649856	62	3992
2026-01-25 23:29:22.64	43.25	25.28	-45.3	-46.6	20.3	0.00e+00	0	44	0	303038464	61	4342
2026-01-25 23:29:26.67	43.98	25.80	-45.9	-47.3	19.6	0.00e+00	0	44	0	310378496	62	4489
2026-01-25 23:29:30.69	44.73	26.32	-45.6	-47.0	19.9	0.00e+00	0	44	0	317718528	62	4294
2026-01-25 23:29:34.69	45.51	26.84	-45.6	-46.9	20.0	0.00e+00	0	43	0	325058560	62	4280
2026-01-25 23:29:38.72	46.31	27.38	-46.4	-48.0	19.0	0.00e+00	0	43	0	332398592	63	4566
2026-01-25 23:29:42.75	47.14	27.91	-46.1	-47.5	19.5	0.00e+00	0	44	0	340787200	63	4302
2026-01-25 23:29:46.78	48.00	28.45	-45.4	-46.7	20.3	0.00e+00	0	43	0	348127232	62	4156
2026-01-25 23:29:50.81	48.89	28.99	-46.4	-47.9	19.1	0.00e+00	0	43	0	355467264	63	4540
2026-01-25 23:29:54.83	49.81	29.54	-46.2	-47.7	19.3	0.00e+00	0	43	0	362807296	63	4404
2026-01-25 23:29:58.86	50.76	30.09	-46.1	-47.6	19.4	0.00e+00	0	43	0	370147328	63	4384
2026-01-25 23:30:02.89	51.74	30.64	-46.4	-47.9	19.2	0.00e+00	0	43	0	378535936	63	4504
2026-01-25 23:30:06.91	52.75	31.19	-46.1	-47.6	19.5	0.00e+00	0	43	0	385875968	63	4358
2026-01-25 23:30:10.93	53.80	31.74	-46.5	-48.1	18.9	0.00e+00	0	44	0	393216000	64	4357
2026-01-25 23:30:14.97	54.88	32.29	-49.0	-51.5	15.7	0.00e+00	0	43	0	400556032	68	5144
2026-01-25 23:30:18.99	56.00	32.84	-49.1	-51.6	15.7	0.00e+00	0	43	0	407896064	69	4896
2026-01-25 23:30:23.01	57.16	33.39	-48.2	-50.3	16.6	0.00e+00	0	44	0	416284672	67	4718
2026-01-25 23:30:27.05	58.36	33.94	-48.4	-50.5	16.8	0.00e+00	0	44	0	423624704	68	4572
2026-01-25 23:30:31.08	59.60	34.48	-48.7	-50.9	16.4	0.00e+00	0	43	0	430964736	68	4799
2026-01-25 23:30:35.12	60.88	35.02	-48.9	-51.2	16.1	0.00e+00	0	43	0	438304768	68	4936
2026-01-25 23:30:39.15	62.21	35.54	-48.5	-50.6	16.6	0.00e+00	0	44	0	445644800	68	4603
2026-01-25 23:30:43.17	63.57	36.06	-48.4	-50.5	17.0	0.00e+00	0	43	0	454033408	68	4569
2026-01-25 23:30:47.21	64.98	36.57	-48.8	-51.1	16.1	0.00e+00	0	44	0	461373440	68	4887
2026-01-25 23:30:51.22	66.42	37.07	-47.2	-48.8	18.4	0.00e+00	0	44	0	468713472	66	4241
2026-01-25 23:30:55.24	67.91	37.55	-48.2	-50.2	16.8	0.00e+00	0	44	0	476053504	67	4705
2026-01-25 23:30:59.26	69.45	38.02	-46.4	-47.9	19.2	0.00e+00	0	43	0	483393536	64	4272
2026-01-25 23:31:03.29	71.03	38.48	-48.0	-49.9	17.3	0.00e+00	0	44	0	491782144	66	4786
2026-01-25 23:31:07.32	72.65	38.91	-46.7	-48.2	18.9	0.00e+00	0	44	0	499122176	65	4189
2026-01-25 23:31:11.35	74.32	39.32	-47.5	-49.4	17.8	0.00e+00	0	44	0	506462208	65	4772
2026-01-25 23:31:15.38	76.03	39.71	-47.1	-48.8	18.3	0.00e+00	0	44	0	513802240	65	4476
2026-01-25 23:31:19.40	77.77	40.08	-46.9	-48.5	18.7	0.00e+00	0	44	0	521142272	64	4555
2026-01-25 23:31:23.42	79.56	40.42	-48.1	-50.1	17.2	0.00e+00	0	44	0	529530880	68	4363
2026-01-25 23:31:27.43	81.37	40.73	-46.8	-48.3	18.8	0.00e+00	0	44	0	536870912	65	4214
2026-01-25 23:31:31.46	83.23	41.01	-49.4	-52.0	15.4	0.00e+00	0	44	0	544210944	70	4822
2026-01-25 23:31:35.49	85.11	41.26	-49.3	-51.8	15.5	0.00e+00	0	44	0	551550976	69	5028
2026-01-25 23:31:39.51	87.02	41.48	-49.6	-52.3	15.2	0.00e+00	0	44	0	558891008	69	5287
2026-01-25 23:31:43.55	88.97	41.66	-50.3	-53.5	13.8	1.50e-06	0	44	0	567279616	71	5416
2026-01-25 23:31:47.58	90.92	41.81	-49.4	-51.9	15.6	0.00e+00	0	44	0	574619648	70	4810
2026-01-25 23:31:51.61	92.90	41.92	-50.8	-54.6	12.6	2.51e-05	0	44	0	581959680	72	5853
2026-01-25 23:31:55.64	94.88	42.00	-48.7	-50.9	16.5	0.00e+00	0	43	0	589299712	68	4805
2026-01-25 23:31:59.67	96.87	42.03	-47.8	-49.7	17.4	0.00e+00	0	44	0	597688320	67	4399
2026-01-25 23:32:03.69	98.86	42.03	-48.9	-51.1	16.2	0.00e+00	0	44	0	605028352	68	4924
2026-01-25 23:32:07.71	100.85	41.99	-48.6	-50.9	16.5	0.00e+00	0	44	0	612368384	67	5051
2026-01-25 23:32:11.73	102.83	41.91	-46.6	-48.1	19.0	0.00e+00	0	44	0	619708416	64	4375
2026-01-25 23:32:15.75	104.80	41.80	-48.4	-50.5	16.7	0.00e+00	0	44	0	627048448	68	4555
2026-01-25 23:32:19.79	106.76	41.65	-47.9	-49.7	17.5	0.00e+00	0	44	0	634388480	67	4433
2026-01-25 23:32:23.81	108.69	41.46	-48.3	-50.3	17.0	0.00e+00	0	44	0	642777088	67	4730
2026-01-25 23:32:27.83	110.60	41.24	-48.1	-50.1	17.2	0.00e+00	0	44	0	650117120	66	4881
2026-01-25 23:32:31.87	112.49	40.99	-48.2	-50.2	17.1	0.00e+00	0	44	0	657457152	68	4403
2026-01-25 23:32:35.90	114.35	40.70	-46.1	-47.6	19.5	0.00e+00	0	44	0	664797184	64	4105
2026-01-25 23:32:39.93	116.17	40.39	-46.6	-48.1	19.0	0.00e+00	0	44	0	672137216	64	4373
2026-01-25 23:32:43.96	117.96	40.04	-45.6	-46.9	20.2	0.00e+00	0	44	0	680525824	63	4044
2026-01-25 23:32:47.98	119.70	39.67	-44.7	-45.9	21.1	0.00e+00	0	44	0	687865856	61	4034
2026-01-25 23:32:52.01	121.41	39.28	-43.0	-43.9	23.0	0.00e+00	0	44	0	695205888	57	4033
2026-01-25 23:32:56.03	123.07	38.87	-43.3	-44.3	22.7	0.00e+00	0	44	0	702545920	58	3995
2026-01-25 23:33:00.06	124.70	38.43	-43.2	-44.2	22.7	0.00e+00	0	43	0	710934528	58	3943
2026-01-25 23:33:04.09	126.28	37.97	-42.1	-43.0	23.7	0.00e+00	0	43	0	718274560	56	3862
2026-01-25 23:33:08.12	127.81	37.50	-42.9	-43.9	23.0	0.00e+00	0	44	0	725614592	56	4266
2026-01-25 23:33:12.15	129.31	37.01	-43.1	-44.1	22.8	0.00e+00	0	44	0	732954624	57	4136
2026-01-25 23:33:16.17	130.75	36.51	-43.3	-44.3	22.7	0.00e+00	0	43	0	740294656	57	4199
2026-01-25 23:33:20.20	132.16	36.00	-44.7	-45.9	21.4	0.00e+00	0	44	0	747634688	59	4508
2026-01-25 23:33:24.23	133.52	35.48	-44.2	-45.4	21.5	0.00e+00	0	43	0	756023296	60	4009
2026-01-25 23:33:28.27	134.84	34.94	-44.3	-45.4	21.7	0.00e+00	0	44	0	763363328	59	4250
2026-01-25 23:33:32.29	136.12	34.41	-45.7	-47.1	20.0	0.00e+00	0	44	0	770703360	61	4604
2026-01-25 23:33:36.33	137.36	33.86	-45.0	-46.2	20.7	0.00e+00	0	44	0	778043392	61	4171
2026-01-25 23:33:40.36	138.56	33.31	-49.1	-51.8	15.4	0.00e+00	0	44	0	785383424	69	5005
2026-01-25 23:33:44.39	139.71	32.76	-46.1	-47.5	19.5	0.00e+00	0	44	0	793772032	63	4305
2026-01-25 23:33:48.41	140.83	32.21	-48.9	-51.4	15.7	0.00e+00	0	44	0	801112064	69	4793
2026-01-25 23:33:52.44	141.91	31.65	-45.3	-46.5	20.4	0.00e+00	0	44	0	808452096	61	4333
2026-01-25 23:33:56.47	142.96	31.10	-47.3	-49.2	17.8	0.00e+00	0	44	0	815792128	66	4393
2026-01-25 23:34:00.51	143.98	30.54	-45.1	-46.3	20.5	0.00e+00	0	44	0	824180736	61	4241
2026-01-25 23:34:04.53	144.95	29.99	-47.0	-48.8	18.1	0.00e+00	0	44	0	831520768	65	4470
2026-01-25 23:34:08.55	145.90	29.44	-44.7	-45.9	20.9	0.00e+00	0	44	0	838860800	60	4274
2026-01-25 23:34:12.58	146.81	28.89	-47.5	-49.5	17.5	0.00e+00	0	44	0	846200832	66	4556
2026-01-25 23:34:16.61	147.70	28.35	-43.9	-44.9	22.0	0.00e+00	0	44	0	853540864	59	4036
2026-01-25 23:34:20.64	148.56	27.81	-45.9	-47.3	19.5	0.00e+00	0	44	0	860880896	62	4471
2026-01-25 23:34:24.66	149.39	27.27	-45.2	-46.6	20.2	0.00e+00	0	44	0	869269504	62	4114
2026-01-25 23:34:28.69	150.19	26.74	-45.2	-46.5	20.3	0.00e+00	0	43	0	876609536	60	4563
2026-01-25 23:34:32.72	150.97	26.21	-45.4	-46.7	20.0	0.00e+00	0	44	0	883949568	62	4187
2026-01-25 23:34:36.75	151.72	25.68	-44.5	-45.7	21.0	0.00e+00	0	44	0	891289600	60	4159
2026-01-25 23:34:40.77	152.45	25.17	-44.7	-45.9	21.2	0.00e+00	0	43	0	899678208	59	4521
2026-01-25 23:34:44.80	153.15	24.65	-44.8	-46.0	20.6	0.00e+00	0	44	0	907018240	60	4336
2026-01-25 23:34:48.83	153.84	24.15	-45.2	-46.5	20.2	0.00e+00	0	44	0	914358272	60	4582
2026-01-25 23:34:52.86	154.50	23.65	-44.2	-45.4	21.2	0.00e+00	0	43	0	921698304	60	4005
2026-01-25 23:34:56.89	155.14	23.15	-45.0	-46.2	20.4	0.00e+00	0	44	0	929038336	60	4440
2026-01-25 23:35:00.92	155.77	22.66	-46.1	-47.6	19.2	0.00e+00	0	44	0	937426944	62	4639
2026-01-25 23:35:04.95	156.37	22.18	-45.4	-46.7	20.0	0.00e+00	0	44	0	944766976	62	4188
2026-01-25 23:35:08.98	156.96	21.70	-45.5	-46.8	19.9	0.00e+00	0	44	0	952107008	62	4228
2026-01-25 23:35:13.00	157.53	21.23	-46.2	-47.7	19.1	0.00e+00	0	43	0	959447040	63	4421
2026-01-25 23:35:17.03	158.08	20.76	-45.6	-47.0	19.7	0.00e+00	0	44	0	966787072	63	4076
2026-01-25 23:35:21.06	158.62	20.30	-44.3	-45.4	21.1	0.00e+00	0	44	0	975175680	60	4040
2026-01-25 23:35:25.09	159.15	19.85	-44.6	-45.8	20.7	0.00e+00	0	44	0	982515712	60	4215
2026-01-25 23:35:29.12	159.65	19.40	-45.5	-46.9	19.8	0.00e+00	0	44	0	989855744	61	4501
2026-01-25 23:35:33.15	160.15	18.96	-45.3	-46.6	20.0	0.00e+00	0	44	0	997195776	62	4128
2026-01-25 23:35:37.17	160.63	18.52	-44.8	-46.1	20.5	0.00e+00	0	43	0	1004535808	61	4119
2026-01-25 23:35:41.20	161.10	18.09	-44.5	-45.7	20.8	0.00e+00	0	44	0	1012924416	60	4159
2026-01-25 23:35:45.23	161.55	17.67	-45.1	-46.4	20.2	0.00e+00	0	44	0	1020264448	60	4509
2026-01-25 23:35:49.25	161.99	17.25	-45.3	-46.7	19.9	0.00e+00	0	44	0	1027604480	61	4412
2026-01-25 23:35:53.27	162.42	16.84	-45.8	-47.2	19.4	0.00e+00	0	44	0	1034944512	62	4441
2026-01-25 23:35:57.30	162.84	16.43	-46.5	-48.1	18.5	0.00e+00	0	43	0	1042284544	63	4644
2026-01-25 23:36:01.33	163.25	16.03	-47.4	-49.4	17.3	0.00e+00	0	44	0	1050673152	65	4772
2026-01-25 23:36:05.36	163.65	15.63	-47.4	-49.4	17.2	0.00e+00	0	44	0	1058013184	65	4777
2026-01-25 23:36:09.39	164.04	15.24	-46.9	-48.8	17.8	0.00e+00	0	44	0	1065353216	65	4444
2026-01-25 23:36:13.42	164.42	14.85	-46.0	-47.6	18.9	0.00e+00	0	44	0	1072693248	64	4117
2026-01-25 23:36:17.45	164.79	14.47	-45.3	-46.7	19.8	0.00e+00	0	44	0	1080033280	62	4161
2026-01-25 23:36:21.48	165.16	14.09	-44.7	-45.9	20.4	0.00e+00	0	44	0	1088421888	61	4032
2026-01-25 23:36:25.51	165.51	13.72	-44.8	-46.1	20.3	0.00e+00	0	44	0	1095761920	61	4131
2026-01-25 23:36:29.53	165.85	13.35	-44.8	-46.1	20.3	0.00e+00	0	44	0	1103101952	61	4127
2026-01-25 23:36:33.55	166.19	12.99	-45.4	-46.8	19.6	0.00e+00	0	44	0	1110441984	61	4466
2026-01-25 23:36:37.58	166.52	12.63	-45.8	-47.4	19.1	0.00e+00	0	44	0	1117782016	62	4505
2026-01-25 23:36:41.61	166.84	12.28	-46.1	-47.8	18.7	0.00e+00	0	44	0	1126170624	63	4465
2026-01-25 23:36:45.64	167.16	11.93	-46.5	-48.2	18.3	0.00e+00	0	44	0	1133510656	63	4674
2026-01-25 23:36:49.67	167.46	11.58	-46.3	-48.0	18.4	0.00e+00	0	44	0	1140850688	63	4577
2026-01-25 23:36:53.69	167.76	11.24	-46.3	-48.0	18.5	0.00e+00	0	44	0	1148190720	63	4546
2026-01-25 23:36:57.72	168.06	10.90	-46.4	-48.1	18.4	0.00e+00	0	44	0	1155530752	63	4600
2026-01-25 23:37:01.74	168.34	10.57	-46.5	-48.3	18.0	0.00e+00	0	44	0	1163919360	64	4461
2026-01-25 23:37:05.77	168.63	10.24	-46.5	-48.3	17.9	0.00e+00	0	44	0	1171259392	64	4474
2026-01-25 23:37:09.81	168.90	9.91	-46.7	-48.6	17.7	0.00e+00	0	44	0	1178599424	64	4616
2026-01-25 23:37:13.83	169.17	9.59	-46.8	-48.7	17.5	0.00e+00	0	44	0	1185939456	64	4680
2026-01-25 23:37:17.86	169.44	9.27	-46.9	-48.8	17.4	0.00e+00	0	44	0	1193279488	64	4753
2026-01-25 23:37:21.89	169.70	8.96	-46.8	-48.7	17.6	0.00e+00	0	44	0	1201668096	64	4669
2026-01-25 23:37:25.92	169.95	8.65	-46.5	-48.3	17.9	0.00e+00	0	44	0	1209008128	64	4478
2026-01-25 23:37:29.94	170.20	8.34	-46.3	-48.1	18.1	0.00e+00	0	44	0	1216348160	64	4344
2026-01-25 23:37:33.97	170.45	8.03	-46.6	-48.5	17.7	0.00e+00	0	44	0	1223688192	64	4552
2026-01-25 23:37:38.01	170.69	7.73	-46.5	-48.3	17.8	0.00e+00	0	44	0	1231028224	64	4482
2026-01-25 23:37:42.03	170.92	7.43	-46.7	-48.6	17.5	0.00e+00	0	44	0	1239416832	64	4611
2026-01-25 23:37:46.06	171.15	7.14	-46.7	-48.6	17.4	0.00e+00	0	44	0	1246756864	64	4624
2026-01-25 23:37:50.09	171.38	6.85	-46.7	-48.6	17.4	0.00e+00	0	44	0	1254096896	64	4644
2026-01-25 23:37:54.11	171.60	6.56	-47.1	-49.2	16.8	0.00e+00	0	44	0	1261436928	65	4697
2026-01-25 23:37:58.14	171.82	6.27	-47.4	-49.7	16.3	0.00e+00	0	44	0	1268776960	65	4957
2026-01-25 23:38:02.17	172.03	5.99	-47.9	-50.4	15.5	0.00e+00	0	44	0	1277165568	66	5084
2026-01-25 23:38:06.20	172.24	5.71	-47.9	-50.4	15.5	0.00e+00	0	44	0	1284505600	66	5095
2026-01-25 23:38:10.23	172.45	5.43	-48.1	-50.9	15.0	0.00e+00	0	44	0	1291845632	66	5351
2026-01-25 23:38:14.26	172.65	5.15	-48.4	-51.3	14.6	7.00e-07	0	44	0	1299185664	67	5291
2026-01-25 23:38:18.29	172.85	4.88	-52.8	-67.8	3.8	1.49e+00	0	44	104	1304428544	76	21081
2026-01-25 23:38:22.32	173.05	4.61	-53.4	-68.4	3.8	1.49e+00	0	44	104	1304428544	77	21387
2026-01-25 23:38:26.35	173.24	4.34	-53.8	-68.8	3.8	1.49e+00	0	44	104	1304428544	78	21074
2026-01-25 23:38:30.38	173.43	4.08	-54.1	-69.0	3.8	1.49e+00	0	44	104	1304428544	78	21743
2026-01-25 23:38:34.41	173.62	3.81	-54.2	-69.2	3.8	1.49e+00	0	44	104	1304428544	78	22074
2026-01-25 23:38:38.45	173.80	3.55	-54.2	-69.2	3.8	1.49e+00	0	44	104	1304428544	79	20993
2026-01-25 23:38:42.48	173.98	3.29	-54.2	-69.2	3.8	1.49e+00	0	44	104	1304428544	79	20801
2026-01-25 23:38:46.51	174.16	3.04	-54.0	-69.0	3.8	1.49e+00	0	44	104	1304428544	79	20394
2026-01-25 23:38:50.55	174.34	2.78	-53.8	-68.8	3.8	1.49e+00	0	44	104	1304428544	79	19868
2026-01-25 23:38:54.58	174.51	2.53	-53.3	-68.2	3.8	1.49e+00	0	44	104	1304428544	78	19830
2026-01-25 23:38:58.60	174.68	2.28	-53.2	-68.1	3.8	1.49e+00	0	44	104	1304428544	78	19536
2026-01-25 23:39:02.63	174.84	2.03	-53.1	-68.1	3.8	1.49e+00	0	44	104	1304428544	78	19507

#Closed at: 2026-01-25 23:39:05
#Recorded file [1304 MB]: D:/lorett/data/31041_260126_022456.dat