passes_logs/2026/01/25/R3.2S_Murmansk/R3.2S_Murmansk__20260125_003302_AQUA_rec.log

#Pass ID: 20260125_003302_AQUA
#Satellite: AQUA
#Configuration: AQUA
#almurnet v.1.7.20251203
#Start time: 2026-01-25 00:33:03

#Version: 2.2.20231116
#Station: R3.2S_Murmansk
#Location: 33.079688 lon 68.888172 lat
#TLE: 1 27424U 02022A   26024.53919639  .00001970  00000+0  40397-3 0  9996
#TLE: 2 27424  98.4098 351.1277 0001915  66.8561 358.4840 14.61855303262281

#Time	Az	El	Level	Level2	SNR	BER	BlckErr	Temp	State	Recorded	gain1	gain2
2026-01-25 00:33:03.68	21.06	2.06	-54.7	-72.6	3.8	7.43e-01	0	41	0	0	80	29106
2026-01-25 00:33:06.71	21.26	2.24	-55.2	-73.0	3.8	7.45e-01	0	42	104	0	80	30606
2026-01-25 00:33:09.74	21.46	2.42	-55.3	-73.2	3.8	7.44e-01	0	41	104	0	81	29382
2026-01-25 00:33:12.76	21.67	2.60	-55.3	-73.2	3.8	7.46e-01	0	42	104	0	81	29389
2026-01-25 00:33:15.78	21.88	2.79	-55.3	-73.1	3.8	7.46e-01	0	42	104	0	81	29228
2026-01-25 00:33:18.80	22.09	2.97	-55.1	-73.0	3.8	7.47e-01	0	42	104	0	81	28780
2026-01-25 00:33:21.82	22.30	3.16	-54.8	-72.4	3.8	7.47e-01	0	42	104	0	81	27015
2026-01-25 00:33:24.84	22.51	3.35	-54.0	-71.4	3.8	7.46e-01	0	42	104	0	79	26977
2026-01-25 00:33:27.86	22.73	3.54	-53.7	-71.4	3.8	7.46e-01	0	42	104	0	79	27074
2026-01-25 00:33:30.89	22.95	3.73	-53.7	-71.3	3.8	7.47e-01	0	42	104	0	79	26587
2026-01-25 00:33:33.91	23.18	3.92	-53.5	-70.7	3.8	7.46e-01	0	42	104	0	79	24811
2026-01-25 00:33:36.93	23.40	4.11	-53.5	-70.1	3.8	7.46e-01	0	42	104	0	78	24568
2026-01-25 00:33:39.96	23.64	4.30	-52.3	-66.7	3.8	7.44e-01	0	42	104	0	76	18678
2026-01-25 00:33:42.98	23.87	4.50	-49.6	-61.7	3.8	7.44e-01	0	42	104	0	71	13992
2026-01-25 00:33:46.00	24.11	4.70	-48.1	-59.6	3.8	7.44e-01	0	42	104	0	68	13065
2026-01-25 00:33:49.03	24.35	4.89	-49.1	-60.9	3.8	7.43e-01	0	42	104	0	68	15133
2026-01-25 00:33:52.05	24.59	5.09	-50.8	-63.6	3.8	7.45e-01	0	42	104	0	72	16341
2026-01-25 00:33:55.07	24.84	5.29	-53.1	-69.1	3.8	7.45e-01	0	42	104	0	77	23108
2026-01-25 00:33:58.09	25.09	5.49	-46.6	-57.7	3.8	7.42e-01	0	42	104	0	65	12480
2026-01-25 00:34:01.12	25.34	5.69	-47.9	-59.4	3.8	7.47e-01	0	42	104	0	66	14271
2026-01-25 00:34:04.14	25.60	5.90	-47.5	-58.7	3.8	7.45e-01	0	42	104	0	65	13969
2026-01-25 00:34:07.16	25.86	6.10	-46.6	-57.7	3.8	7.47e-01	0	42	104	0	65	12385
2026-01-25 00:34:10.18	26.12	6.31	-53.3	-70.7	3.8	7.45e-01	0	42	104	0	77	27827
2026-01-25 00:34:13.20	26.39	6.52	-47.1	-58.4	3.8	7.46e-01	0	43	104	0	66	12667
2026-01-25 00:34:16.23	26.67	6.73	-49.7	-61.8	3.9	7.44e-01	0	43	104	0	71	14115
2026-01-25 00:34:19.25	26.94	6.94	-46.8	-57.9	3.8	7.43e-01	0	42	104	0	64	13515
2026-01-25 00:34:22.27	27.22	7.15	-46.8	-58.0	3.9	7.44e-01	0	43	104	0	65	12895
2026-01-25 00:34:25.29	27.51	7.36	-48.1	-59.5	3.8	7.46e-01	0	43	104	0	66	14407
2026-01-25 00:34:28.32	27.80	7.58	-52.5	-67.0	3.9	7.44e-01	0	43	104	0	77	18235
2026-01-25 00:34:31.34	28.09	7.79	-46.1	-57.1	3.9	7.40e-01	0	43	104	0	64	12331
2026-01-25 00:34:34.36	28.39	8.01	-53.1	-68.6	3.9	7.41e-01	0	43	104	0	78	20594
2026-01-25 00:34:37.38	28.70	8.23	-46.5	-57.6	3.8	7.43e-01	0	43	104	0	64	12990
2026-01-25 00:34:40.40	29.01	8.45	-46.4	-57.4	3.8	7.46e-01	0	43	104	0	64	12726
2026-01-25 00:34:43.43	29.32	8.68	-46.3	-57.3	3.8	7.44e-01	0	43	104	0	63	13268
2026-01-25 00:34:46.45	29.64	8.90	-45.8	-56.8	3.8	7.43e-01	0	42	104	0	63	12568
2026-01-25 00:34:49.48	29.96	9.13	-48.3	-59.6	3.8	7.44e-01	0	43	104	0	66	14591
2026-01-25 00:34:52.50	30.29	9.35	-46.3	-57.3	3.8	7.45e-01	0	43	104	0	64	12627
2026-01-25 00:34:55.52	30.62	9.58	-46.0	-56.9	3.8	7.47e-01	0	42	104	0	63	12771
2026-01-25 00:34:58.54	30.96	9.81	-53.4	-68.8	3.9	7.41e-01	0	43	104	0	78	21133
2026-01-25 00:35:01.56	31.31	10.04	-45.6	-56.5	3.8	7.43e-01	0	43	104	0	63	12202
2026-01-25 00:35:04.58	31.66	10.28	-46.0	-57.0	3.8	7.48e-01	0	43	104	0	62	13583
2026-01-25 00:35:07.60	32.01	10.51	-49.1	-60.7	3.8	7.46e-01	0	43	104	0	68	14795
2026-01-25 00:35:10.62	32.38	10.75	-45.4	-56.3	3.8	7.43e-01	0	43	104	0	62	12571
2026-01-25 00:35:13.65	32.75	10.99	-50.8	-63.4	3.8	7.50e-01	0	43	104	0	72	16086
2026-01-25 00:35:16.67	33.12	11.22	-45.5	-56.4	3.9	7.43e-01	0	43	104	0	62	12748
2026-01-25 00:35:19.69	33.50	11.47	-45.4	-56.3	3.8	7.45e-01	0	43	104	0	62	12660
2026-01-25 00:35:22.71	33.89	11.71	-46.1	-57.1	3.8	7.42e-01	0	43	104	0	64	12342
2026-01-25 00:35:25.74	34.29	11.95	-45.9	-56.8	3.8	7.42e-01	0	43	104	0	63	12630
2026-01-25 00:35:28.76	34.69	12.20	-45.8	-56.7	3.8	7.44e-01	0	43	104	0	62	13154
2026-01-25 00:35:31.78	35.10	12.45	-52.1	-65.3	3.8	7.49e-01	0	43	104	0	74	17881
2026-01-25 00:35:34.80	35.51	12.70	-45.0	-55.9	3.8	7.45e-01	0	43	104	0	61	12715
2026-01-25 00:35:37.83	35.93	12.95	-53.4	-68.3	3.8	7.45e-01	0	43	104	0	77	21225
2026-01-25 00:35:40.85	36.37	13.20	-45.2	-56.1	3.8	7.46e-01	0	43	104	0	62	12301
2026-01-25 00:35:43.87	36.80	13.45	-45.6	-56.4	3.8	7.47e-01	0	43	104	0	61	13553
2026-01-25 00:35:46.90	37.25	13.71	-45.3	-56.1	3.8	7.48e-01	0	43	104	0	62	12357
2026-01-25 00:35:49.92	37.71	13.97	-45.1	-55.9	3.8	7.46e-01	0	43	104	0	62	12033
2026-01-25 00:35:52.94	38.17	14.23	-46.2	-57.1	3.8	7.43e-01	0	43	104	0	64	12300
2026-01-25 00:35:55.97	38.64	14.49	-45.2	-56.1	3.8	7.45e-01	0	43	104	0	61	12993
2026-01-25 00:35:58.99	39.12	14.75	-45.0	-55.8	3.9	7.48e-01	0	43	104	0	61	12660
2026-01-25 00:36:02.01	39.61	15.01	-54.1	-70.3	3.8	7.49e-01	0	43	104	0	78	25178
2026-01-25 00:36:05.04	40.11	15.27	-45.0	-55.8	3.8	7.47e-01	0	43	104	0	62	11904
2026-01-25 00:36:08.06	40.61	15.54	-49.1	-60.7	3.8	7.45e-01	0	43	104	0	68	14805
2026-01-25 00:36:11.08	41.13	15.81	-53.2	-67.7	3.8	7.43e-01	0	43	104	0	77	19702
2026-01-25 00:36:14.11	41.66	16.07	-44.7	-55.5	3.8	7.44e-01	0	43	104	0	61	12206
2026-01-25 00:36:17.13	42.19	16.34	-46.0	-57.0	3.8	7.43e-01	0	43	104	0	62	13598
2026-01-25 00:36:20.15	42.74	16.61	-53.3	-68.1	3.8	7.42e-01	0	43	104	0	77	20564
2026-01-25 00:36:23.17	43.29	16.88	-44.6	-55.3	3.8	7.46e-01	0	43	104	0	61	11922
2026-01-25 00:36:26.20	43.86	17.15	-53.8	-69.3	3.8	7.46e-01	0	43	104	0	78	22346
2026-01-25 00:36:29.22	44.44	17.43	-44.6	-55.3	3.8	7.44e-01	0	43	104	0	61	11922
2026-01-25 00:36:32.25	45.03	17.70	-50.2	-62.1	3.8	7.43e-01	0	43	104	0	71	14598
2026-01-25 00:36:35.27	45.62	17.97	-52.3	-65.5	3.9	7.38e-01	0	43	104	0	76	16204
2026-01-25 00:36:38.29	46.23	18.25	-44.3	-55.1	3.8	7.45e-01	0	43	104	0	60	12243
2026-01-25 00:36:41.32	46.86	18.52	-46.0	-56.9	3.8	7.45e-01	0	43	104	0	63	12784
2026-01-25 00:36:44.33	47.49	18.79	-45.3	-56.1	3.8	7.45e-01	0	43	104	0	61	13023
2026-01-25 00:36:47.35	48.13	19.07	-44.7	-55.5	3.8	7.43e-01	0	43	104	0	61	12199
2026-01-25 00:36:50.37	48.79	19.34	-52.7	-66.4	3.9	7.42e-01	0	43	104	0	77	16891
2026-01-25 00:36:53.40	49.46	19.62	-44.6	-55.4	3.9	7.42e-01	0	43	104	0	61	11999
2026-01-25 00:36:56.42	50.14	19.89	-47.9	-59.2	3.8	7.45e-01	0	43	104	0	67	13129
2026-01-25 00:36:59.44	50.84	20.16	-48.6	-60.0	3.9	7.45e-01	0	43	104	0	69	12836
2026-01-25 00:37:02.47	51.55	20.44	-44.6	-55.4	3.8	7.43e-01	0	43	104	0	61	11976
2026-01-25 00:37:05.49	52.27	20.71	-47.6	-58.8	3.8	7.44e-01	0	43	104	0	65	14060
2026-01-25 00:37:08.51	53.00	20.98	-47.6	-58.8	3.8	7.46e-01	0	43	104	0	67	12595
2026-01-25 00:37:11.54	53.75	21.25	-46.8	-57.7	3.8	7.44e-01	0	43	104	0	63	13915
2026-01-25 00:37:14.56	54.51	21.51	-52.8	-66.3	3.8	7.45e-01	0	43	104	0	77	16789
2026-01-25 00:37:17.58	55.28	21.78	-45.0	-55.8	3.8	7.42e-01	0	43	104	0	61	12596
2026-01-25 00:37:20.60	56.07	22.04	-45.4	-56.3	3.8	7.42e-01	0	43	104	0	61	13283
2026-01-25 00:37:23.63	56.88	22.30	-47.6	-58.7	3.8	7.46e-01	0	43	104	0	65	13952
2026-01-25 00:37:26.65	57.69	22.56	-45.0	-55.8	3.8	7.44e-01	0	43	104	0	61	12604
2026-01-25 00:37:29.67	58.52	22.81	-49.3	-60.7	3.8	7.47e-01	0	43	104	0	68	14741
2026-01-25 00:37:32.70	59.37	23.07	-45.3	-56.1	3.8	7.46e-01	0	43	104	0	62	12295
2026-01-25 00:37:35.72	60.22	23.31	-45.2	-56.1	3.8	7.43e-01	0	43	104	0	61	12965
2026-01-25 00:37:38.75	61.10	23.56	-46.1	-56.9	3.8	7.41e-01	0	43	104	0	64	12084
2026-01-25 00:37:41.77	61.98	23.80	-45.2	-56.0	3.8	7.47e-01	0	43	104	0	62	12103
2026-01-25 00:37:44.79	62.88	24.03	-47.8	-59.1	3.7	7.46e-01	0	43	104	0	67	12963
2026-01-25 00:37:47.81	63.80	24.26	-45.0	-46.2	25.4	5.99e-01	0	43	0	4194304	61	4184
2026-01-25 00:37:50.83	64.72	24.49	-44.7	-45.9	25.7	6.01e-01	0	43	0	9961472	61	4012
2026-01-25 00:37:53.86	65.67	24.71	-44.7	-45.9	25.7	6.02e-01	0	43	0	15204352	61	4030
2026-01-25 00:37:56.88	66.62	24.92	-44.6	-45.8	25.8	6.03e-01	0	43	0	20971520	61	3968
2026-01-25 00:37:59.90	67.59	25.13	-44.7	-45.9	25.7	6.02e-01	0	43	0	26738688	61	4025
2026-01-25 00:38:02.92	68.57	25.33	-44.8	-46.0	25.6	6.04e-01	0	43	0	32505856	61	4094
2026-01-25 00:38:05.95	69.56	25.53	-44.8	-46.0	25.7	6.00e-01	0	43	0	38273024	61	4083
2026-01-25 00:38:08.97	70.57	25.71	-44.7	-45.9	25.7	5.99e-01	0	43	0	43515904	61	4046
2026-01-25 00:38:12.00	71.59	25.89	-44.7	-45.9	25.8	6.01e-01	0	43	0	49283072	61	4037
2026-01-25 00:38:15.02	72.62	26.07	-44.6	-45.8	25.9	6.01e-01	0	43	0	55050240	61	3999
2026-01-25 00:38:18.04	73.66	26.23	-44.5	-45.6	26.1	6.01e-01	0	43	0	60817408	60	4140
2026-01-25 00:38:21.07	74.71	26.38	-44.4	-45.5	26.1	6.03e-01	0	43	0	66584576	60	4090
2026-01-25 00:38:24.09	75.77	26.53	-44.6	-45.8	26.0	6.02e-01	0	43	0	72351744	60	4204
2026-01-25 00:38:27.11	76.84	26.66	-44.4	-45.6	26.1	6.01e-01	0	43	0	77594624	60	4108
2026-01-25 00:38:30.14	77.92	26.79	-44.4	-45.6	26.0	6.00e-01	0	43	0	83361792	60	4137
2026-01-25 00:38:33.16	79.01	26.91	-44.3	-45.5	26.2	6.00e-01	0	43	0	89128960	60	4078
2026-01-25 00:38:36.18	80.11	27.01	-44.3	-45.5	26.2	6.03e-01	0	44	0	94896128	60	4069
2026-01-25 00:38:39.20	81.21	27.11	-44.4	-45.6	26.2	6.01e-01	0	44	0	100663296	60	4100
2026-01-25 00:38:42.23	82.33	27.19	-44.2	-45.4	26.3	6.01e-01	0	44	0	105906176	60	4014
2026-01-25 00:38:45.25	83.44	27.27	-44.1	-45.2	26.3	6.00e-01	0	43	0	111673344	60	3954
2026-01-25 00:38:48.27	84.56	27.33	-44.2	-45.4	26.3	6.04e-01	0	43	0	117440512	60	4031
2026-01-25 00:38:51.30	85.69	27.38	-44.0	-45.2	26.4	6.00e-01	0	43	0	123207680	60	3930
2026-01-25 00:38:54.32	86.82	27.42	-44.3	-45.5	26.1	6.02e-01	0	43	0	128974848	59	4312
2026-01-25 00:38:57.34	87.95	27.45	-44.2	-45.4	26.1	6.01e-01	0	43	0	134217728	59	4266
2026-01-25 00:39:00.36	89.08	27.47	-44.1	-45.3	26.1	6.02e-01	0	44	0	139984896	59	4208
2026-01-25 00:39:03.38	90.22	27.48	-43.9	-45.0	26.5	6.03e-01	0	43	0	145752064	59	4072
2026-01-25 00:39:06.41	91.35	27.47	-44.1	-45.2	26.2	6.01e-01	0	43	0	151519232	59	4177
2026-01-25 00:39:09.43	92.49	27.45	-44.1	-45.3	26.2	6.03e-01	0	43	0	157286400	59	4221
2026-01-25 00:39:12.46	93.62	27.43	-43.9	-45.0	26.4	6.02e-01	0	43	0	162529280	59	4075
2026-01-25 00:39:15.48	94.75	27.39	-43.9	-45.0	26.4	5.99e-01	0	43	0	168820736	59	4074
2026-01-25 00:39:18.50	95.88	27.33	-43.8	-45.0	26.5	6.01e-01	0	43	0	174063616	59	4057
2026-01-25 00:39:21.53	97.00	27.27	-43.9	-45.1	26.3	6.00e-01	0	44	0	179830784	59	4112
2026-01-25 00:39:24.55	98.12	27.20	-43.9	-45.1	26.4	6.02e-01	0	43	0	185597952	59	4102
2026-01-25 00:39:27.57	99.23	27.11	-43.7	-44.8	26.5	5.99e-01	0	43	0	190840832	59	3984
2026-01-25 00:39:30.60	100.34	27.02	-43.8	-44.9	26.5	6.02e-01	0	43	0	197132288	59	4038
2026-01-25 00:39:33.62	101.44	26.91	-43.8	-44.9	26.5	6.00e-01	0	43	0	202375168	59	4015
2026-01-25 00:39:36.64	102.53	26.80	-43.7	-44.8	26.6	5.99e-01	0	43	0	208142336	59	3987
2026-01-25 00:39:39.67	103.61	26.67	-43.8	-45.0	26.5	6.01e-01	0	43	0	213909504	59	4053
2026-01-25 00:39:42.69	104.68	26.53	-43.8	-45.0	26.5	6.01e-01	0	43	0	219676672	59	4057
2026-01-25 00:39:45.71	105.75	26.39	-43.9	-45.0	26.4	6.00e-01	0	43	0	225443840	59	4091
2026-01-25 00:39:48.73	106.80	26.24	-43.8	-44.9	26.5	6.00e-01	0	43	0	230686720	59	4019
2026-01-25 00:39:51.76	107.85	26.07	-43.9	-45.0	26.4	5.98e-01	0	43	0	236453888	59	4093
2026-01-25 00:39:54.78	108.88	25.90	-43.7	-44.8	26.6	5.99e-01	0	43	0	242221056	59	3990
2026-01-25 00:39:57.81	109.90	25.72	-43.9	-45.0	26.4	5.99e-01	0	43	0	247988224	59	4090
2026-01-25 00:40:00.83	110.91	25.53	-44.0	-45.2	26.4	6.02e-01	0	43	0	253755392	59	4152
2026-01-25 00:40:03.85	111.91	25.34	-43.8	-44.9	26.5	6.02e-01	0	43	0	258998272	59	4018
2026-01-25 00:40:06.88	112.89	25.14	-43.9	-45.0	26.3	6.00e-01	0	43	0	264765440	59	4069
2026-01-25 00:40:09.90	113.86	24.93	-44.0	-45.1	26.3	6.02e-01	0	43	0	270532608	59	4129
2026-01-25 00:40:12.92	114.82	24.72	-43.9	-45.0	26.4	6.01e-01	0	43	0	276299776	59	4085
2026-01-25 00:40:15.94	115.76	24.50	-43.9	-45.1	26.3	6.02e-01	0	43	0	282066944	59	4103
2026-01-25 00:40:18.97	116.70	24.27	-43.9	-45.0	26.4	6.01e-01	0	43	0	287309824	59	4074
2026-01-25 00:40:21.99	117.61	24.04	-43.9	-45.0	26.3	6.00e-01	0	43	0	293076992	59	4070
2026-01-25 00:40:25.01	118.52	23.80	-43.9	-45.1	26.3	6.02e-01	0	43	0	298844160	59	4108
2026-01-25 00:40:28.04	119.41	23.56	-43.8	-44.9	26.5	6.02e-01	0	43	0	304611328	59	4038
2026-01-25 00:40:31.06	120.28	23.31	-43.9	-45.1	26.3	6.02e-01	0	43	0	310378496	59	4099
2026-01-25 00:40:34.08	121.14	23.07	-43.8	-45.0	26.3	5.99e-01	0	43	0	316145664	59	4059
2026-01-25 00:40:37.10	121.99	22.81	-43.7	-44.9	26.5	5.98e-01	0	43	0	321388544	59	4008
2026-01-25 00:40:40.13	122.82	22.56	-44.0	-45.2	26.2	6.01e-01	0	43	0	327155712	59	4170
2026-01-25 00:40:43.15	123.64	22.30	-43.9	-45.0	26.2	6.02e-01	0	43	0	332922880	59	4094
2026-01-25 00:40:46.17	124.45	22.04	-43.8	-44.9	26.4	6.02e-01	0	43	0	338690048	59	4045
2026-01-25 00:40:49.20	125.24	21.77	-43.7	-44.9	26.5	5.99e-01	0	43	0	344457216	59	4009
2026-01-25 00:40:52.22	126.02	21.51	-43.9	-45.1	26.3	6.01e-01	0	43	0	349700096	59	4101
2026-01-25 00:40:55.24	126.78	21.24	-43.7	-44.9	26.4	6.01e-01	0	43	0	355467264	59	4012
2026-01-25 00:40:58.27	127.53	20.97	-43.6	-44.8	26.5	6.03e-01	0	43	0	361234432	59	3967
2026-01-25 00:41:01.29	128.27	20.70	-43.8	-44.9	26.3	6.00e-01	0	43	0	367001600	59	4032
2026-01-25 00:41:04.30	128.99	20.42	-43.6	-44.7	26.5	6.00e-01	0	43	0	372768768	59	3943
2026-01-25 00:41:07.33	129.70	20.15	-43.6	-44.7	26.4	6.01e-01	0	43	0	378011648	59	3944
2026-01-25 00:41:10.35	130.40	19.88	-43.6	-44.7	26.4	6.01e-01	0	43	0	383778816	59	3952
2026-01-25 00:41:13.37	131.09	19.60	-43.6	-44.7	26.5	6.02e-01	0	43	0	389545984	59	3944
2026-01-25 00:41:16.39	131.76	19.32	-43.6	-44.7	26.5	6.01e-01	0	43	0	395313152	59	3944
2026-01-25 00:41:19.42	132.42	19.05	-43.7	-44.8	26.4	6.00e-01	0	43	0	401080320	59	3977
2026-01-25 00:41:22.44	133.07	18.77	-43.6	-44.7	26.4	6.01e-01	0	43	0	406323200	59	3938
2026-01-25 00:41:25.46	133.70	18.50	-43.5	-44.7	26.5	6.03e-01	0	43	0	412090368	59	3923
2026-01-25 00:41:28.48	134.33	18.22	-43.5	-44.6	26.5	5.99e-01	0	43	0	417857536	58	4134
2026-01-25 00:41:31.51	134.94	17.94	-43.6	-44.7	26.3	6.04e-01	0	43	0	423624704	58	4189
2026-01-25 00:41:34.53	135.54	17.67	-43.6	-44.7	26.3	6.01e-01	0	43	0	429391872	58	4178
2026-01-25 00:41:37.55	136.13	17.40	-43.5	-44.7	26.4	5.97e-01	0	43	0	434634752	58	4154
2026-01-25 00:41:40.57	136.71	17.12	-43.5	-44.6	26.5	6.01e-01	0	43	0	440401920	58	4118
2026-01-25 00:41:43.59	137.28	16.85	-43.5	-44.7	26.4	5.99e-01	0	43	0	446169088	58	4150
2026-01-25 00:41:46.62	137.84	16.58	-43.5	-44.6	26.4	6.02e-01	0	43	0	451936256	58	4133
2026-01-25 00:41:49.64	138.38	16.31	-43.4	-44.6	26.4	6.03e-01	0	43	0	457703424	58	4101
2026-01-25 00:41:52.67	138.92	16.03	-43.7	-44.9	26.2	6.03e-01	0	43	0	462946304	58	4247
2026-01-25 00:41:55.69	139.45	15.77	-43.6	-44.7	26.3	6.03e-01	0	43	0	468713472	58	4166
2026-01-25 00:41:58.71	139.97	15.50	-43.4	-44.5	26.5	6.02e-01	0	43	0	474480640	58	4086
2026-01-25 00:42:01.73	140.47	15.23	-43.5	-44.7	26.3	6.02e-01	0	43	0	480247808	58	4158
2026-01-25 00:42:04.76	140.98	14.96	-43.6	-44.8	26.2	6.00e-01	0	43	0	486014976	58	4204
2026-01-25 00:42:07.78	141.46	14.70	-43.7	-44.8	26.1	6.02e-01	0	44	0	491782144	58	4227
2026-01-25 00:42:10.80	141.95	14.44	-43.5	-44.6	26.3	6.01e-01	0	43	0	497025024	58	4134
2026-01-25 00:42:13.82	142.42	14.18	-43.5	-44.7	26.3	6.02e-01	0	43	0	502792192	58	4152
2026-01-25 00:42:16.85	142.88	13.92	-43.7	-44.8	26.2	5.99e-01	0	43	0	508559360	58	4222
2026-01-25 00:42:19.87	143.34	13.66	-43.7	-44.9	26.1	6.04e-01	0	43	0	514326528	58	4257
2026-01-25 00:42:22.89	143.78	13.40	-44.0	-45.1	25.8	6.03e-01	0	43	0	520093696	58	4389
2026-01-25 00:42:25.91	144.22	13.14	-43.8	-44.9	25.9	6.00e-01	0	43	0	525336576	58	4285
2026-01-25 00:42:28.93	144.66	12.89	-43.7	-44.9	25.9	6.03e-01	0	43	0	531103744	58	4261
2026-01-25 00:42:31.96	145.08	12.64	-43.7	-44.8	26.0	6.01e-01	0	43	0	536870912	58	4227
2026-01-25 00:42:34.98	145.50	12.39	-43.8	-44.9	25.9	6.00e-01	0	43	0	542638080	58	4274
2026-01-25 00:42:38.00	145.91	12.14	-43.9	-45.0	25.9	6.00e-01	0	43	0	548405248	58	4336
2026-01-25 00:42:41.02	146.31	11.89	-44.0	-45.2	25.7	6.00e-01	0	43	0	553648128	58	4424
2026-01-25 00:42:44.04	146.70	11.64	-44.1	-45.3	25.6	6.01e-01	0	43	0	559415296	58	4464
2026-01-25 00:42:47.07	147.09	11.40	-44.3	-45.6	25.4	6.00e-01	0	43	0	565182464	59	4356
2026-01-25 00:42:50.09	147.47	11.16	-44.2	-45.4	25.5	6.02e-01	0	43	0	570949632	59	4252
2026-01-25 00:42:53.12	147.85	10.91	-44.1	-45.3	25.6	6.02e-01	0	43	0	576716800	59	4207
2026-01-25 00:42:56.14	148.22	10.67	-44.1	-45.3	25.6	6.03e-01	0	43	0	581959680	59	4223
2026-01-25 00:42:59.16	148.58	10.44	-44.2	-45.5	25.4	6.00e-01	0	43	0	587726848	59	4296
2026-01-25 00:43:02.18	148.94	10.20	-44.4	-45.7	25.2	6.03e-01	0	43	0	593494016	59	4414
2026-01-25 00:43:05.20	149.29	9.97	-44.4	-45.6	25.2	6.01e-01	0	43	0	599261184	59	4379
2026-01-25 00:43:08.23	149.63	9.73	-44.5	-45.8	25.1	6.00e-01	0	43	0	605028352	59	4444
2026-01-25 00:43:11.25	149.97	9.50	-44.4	-45.7	25.1	6.00e-01	0	43	0	610271232	59	4400
2026-01-25 00:43:14.28	150.31	9.27	-44.6	-45.9	24.9	5.98e-01	0	43	0	616038400	59	4528
2026-01-25 00:43:17.30	150.64	9.04	-44.8	-46.1	24.8	6.02e-01	0	43	0	621805568	60	4347
2026-01-25 00:43:20.32	150.96	8.81	-44.7	-46.0	24.9	6.01e-01	0	43	0	627572736	60	4297
2026-01-25 00:43:23.34	151.28	8.59	-44.7	-46.0	24.8	6.01e-01	0	43	0	633339904	60	4338
2026-01-25 00:43:26.36	151.59	8.37	-44.8	-46.1	24.7	6.02e-01	0	43	0	638582784	60	4368
2026-01-25 00:43:29.39	151.90	8.14	-44.8	-46.1	24.7	5.98e-01	0	43	0	644874240	60	4355
2026-01-25 00:43:32.41	152.20	7.92	-44.7	-46.0	24.7	6.00e-01	0	43	0	650117120	60	4304
2026-01-25 00:43:35.43	152.50	7.70	-44.7	-46.0	24.7	5.98e-01	0	43	0	655884288	60	4322
2026-01-25 00:43:38.46	152.79	7.49	-44.9	-46.2	24.5	6.05e-01	0	43	0	661651456	60	4428
2026-01-25 00:43:41.48	153.08	7.27	-45.0	-46.3	24.4	6.00e-01	0	43	0	667418624	60	4473
2026-01-25 00:43:44.51	153.37	7.05	-44.9	-46.3	24.4	6.04e-01	0	43	0	673185792	60	4463
2026-01-25 00:43:47.53	153.65	6.84	-45.0	-46.4	24.3	6.01e-01	0	43	0	678428672	60	4521
2026-01-25 00:43:50.55	153.93	6.63	-45.2	-46.6	24.1	6.03e-01	0	43	0	684195840	61	4372
2026-01-25 00:43:53.57	154.20	6.42	-45.3	-46.7	23.9	6.02e-01	0	43	0	689963008	61	4407
2026-01-25 00:43:56.59	154.47	6.21	-45.2	-46.6	24.0	6.05e-01	0	43	0	695730176	61	4380
2026-01-25 00:43:59.62	154.73	6.00	-45.5	-47.0	23.6	6.01e-01	0	43	0	701497344	61	4567
2026-01-25 00:44:02.64	154.99	5.80	-45.5	-47.0	23.6	6.06e-01	0	43	0	706740224	61	4578
2026-01-25 00:44:05.66	155.25	5.59	-45.6	-47.1	23.4	6.01e-01	0	43	0	712507392	61	4629
2026-01-25 00:44:08.69	155.50	5.39	-45.6	-47.1	23.4	6.02e-01	0	43	0	718274560	62	4352
2026-01-25 00:44:11.71	155.75	5.19	-45.9	-47.4	23.1	5.99e-01	0	43	0	724041728	62	4520
2026-01-25 00:44:14.74	156.00	4.98	-52.1	-58.0	14.8	6.03e-01	0	43	0	729808896	74	7632
2026-01-25 00:44:17.76	156.24	4.78	-54.7	-72.5	3.8	7.46e-01	0	44	104	729808896	79	30588
2026-01-25 00:44:20.79	156.48	4.59	-55.0	-72.8	3.8	7.44e-01	0	44	104	729808896	80	29862
2026-01-25 00:44:23.81	156.71	4.39	-55.3	-73.1	3.8	7.43e-01	0	43	104	729808896	81	29051
2026-01-25 00:44:26.83	156.95	4.19	-55.4	-73.2	3.8	7.45e-01	0	43	104	729808896	81	29553
2026-01-25 00:44:29.86	157.18	4.00	-55.5	-73.3	3.8	7.46e-01	0	43	104	729808896	81	30020
2026-01-25 00:44:32.88	157.40	3.80	-55.5	-73.3	3.8	7.43e-01	0	43	104	729808896	81	29978
2026-01-25 00:44:35.90	157.62	3.61	-55.5	-73.3	3.8	7.46e-01	0	43	104	729808896	81	29822
2026-01-25 00:44:38.93	157.84	3.42	-55.4	-73.2	3.8	7.44e-01	0	44	104	729808896	81	29664
2026-01-25 00:44:41.95	158.06	3.23	-55.4	-73.2	3.8	7.43e-01	0	43	104	729808896	81	29502
2026-01-25 00:44:44.98	158.28	3.04	-55.3	-73.2	3.8	7.45e-01	0	44	104	729808896	81	29428
2026-01-25 00:44:48.00	158.49	2.85	-55.3	-73.2	3.8	7.44e-01	0	44	104	729808896	81	29349
2026-01-25 00:44:51.02	158.70	2.67	-55.3	-73.1	3.8	7.45e-01	0	44	104	729808896	81	29346
2026-01-25 00:44:54.05	158.90	2.48	-55.3	-73.1	3.8	7.45e-01	0	44	104	729808896	81	29272
2026-01-25 00:44:57.07	159.11	2.30	-55.3	-73.1	3.8	7.46e-01	0	44	104	729808896	81	29279
2026-01-25 00:45:00.09	159.31	2.11	-55.3	-73.1	3.8	7.45e-01	0	43	104	729808896	81	29192

#Closed at: 2026-01-25 00:45:02
#Recorded file [729 MB]: D:/lorett/data/31041_260125_033303.dat