passes_logs/2026/01/25/R3.2S_Murmansk/R3.2S_Murmansk__20260125_123511_NOAA_21_JPSS-2_rec.log

#Pass ID: 20260125_123511_NOAA 21 (JPSS-2)
#Satellite: NOAA 21 (JPSS-2)
#Configuration: NOAA-21
#almurnet v.1.7.20251203
#Start time: 2026-01-25 12:35:13

#Version: 2.2.20231116
#Station: R3.2S_Murmansk
#Location: 33.079688 lon 68.888172 lat
#TLE: 1 54234U 22150A   26024.88063640  .00000198  00000+0  11499-3 0  9991
#TLE: 2 54234  98.7509 325.6613 0000743 218.4833 141.6291 14.19538975166219

#Time	Az	El	Level	Level2	SNR	BER	BlckErr	Temp	State	Recorded	gain1	gain2
2026-01-25 12:35:13.99	230.86	2.11	-53.7	-66.5	3.8	1.49e+00	0	40	0	0	78	16181
2026-01-25 12:35:16.95	231.12	2.25	-53.6	-66.4	3.8	1.49e+00	0	40	104	0	77	16932
2026-01-25 12:35:19.90	231.39	2.40	-54.0	-66.8	3.8	1.49e+00	0	40	104	0	78	16711
2026-01-25 12:35:22.86	231.66	2.55	-54.1	-66.9	3.8	1.49e+00	0	40	104	0	78	16908
2026-01-25 12:35:25.82	231.93	2.69	-54.0	-66.7	3.8	1.49e+00	0	40	104	0	78	16663
2026-01-25 12:35:28.79	232.20	2.84	-53.8	-66.6	3.8	1.49e+00	0	40	104	0	78	16445
2026-01-25 12:35:31.76	232.48	2.99	-53.6	-66.4	3.8	1.49e+00	0	40	104	0	78	16055
2026-01-25 12:35:34.74	232.76	3.14	-53.4	-66.1	3.8	1.49e+00	0	40	104	0	78	15579
2026-01-25 12:35:37.71	233.05	3.28	-53.0	-65.8	3.8	1.49e+00	0	40	104	0	78	14899
2026-01-25 12:35:40.70	233.33	3.43	-52.2	-64.9	3.8	1.49e+00	0	40	104	0	76	15136
2026-01-25 12:35:43.67	233.62	3.58	-52.2	-64.9	3.8	1.49e+00	0	40	104	0	76	15088
2026-01-25 12:35:46.64	233.91	3.73	-52.1	-64.8	3.8	1.49e+00	0	40	104	0	76	14923
2026-01-25 12:35:49.60	234.21	3.88	-52.1	-64.7	3.8	1.49e+00	0	41	104	0	76	14776
2026-01-25 12:35:52.58	234.50	4.03	-52.1	-64.8	3.8	1.49e+00	0	40	104	0	76	14983
2026-01-25 12:35:55.56	234.81	4.18	-52.1	-64.8	3.8	1.49e+00	0	40	104	0	76	15045
2026-01-25 12:35:58.54	235.11	4.33	-52.0	-63.9	3.8	1.49e+00	0	41	104	0	76	13491
2026-01-25 12:36:01.52	235.42	4.48	-51.9	-61.8	4.1	1.47e+00	0	41	104	0	75	11169
2026-01-25 12:36:04.48	235.72	4.63	-51.8	-60.9	4.3	1.46e+00	0	41	104	0	75	10140
2026-01-25 12:36:07.46	236.04	4.78	-50.2	-54.6	8.9	3.98e-02	0	41	0	5242880	72	5811
2026-01-25 12:36:10.43	236.35	4.93	-48.3	-50.8	13.0	1.42e-04	0	41	0	14680064	68	4725
2026-01-25 12:36:13.41	236.67	5.08	-45.9	-47.5	16.5	0.00e+00	0	41	0	24117248	62	4568
2026-01-25 12:36:16.38	236.99	5.23	-51.3	-58.1	5.5	1.46e+00	2	41	104	30408704	74	7783
2026-01-25 12:36:19.35	237.32	5.38	-44.9	-46.3	17.6	0.00e+00	0	41	0	38797312	61	4199
2026-01-25 12:36:22.31	237.64	5.53	-44.7	-46.0	17.9	0.00e+00	0	41	0	48234496	61	4062
2026-01-25 12:36:25.29	237.97	5.68	-44.7	-46.0	17.9	0.00e+00	0	41	0	57671680	61	4080
2026-01-25 12:36:28.27	238.31	5.84	-44.7	-46.0	18.0	0.00e+00	0	41	0	67108864	61	4055
2026-01-25 12:36:31.25	238.65	5.99	-44.5	-45.7	18.3	0.00e+00	0	41	0	76546048	60	4167
2026-01-25 12:36:34.23	238.99	6.14	-44.6	-45.8	18.2	0.00e+00	0	41	0	85983232	60	4222
2026-01-25 12:36:37.20	239.33	6.29	-44.6	-45.8	18.2	0.00e+00	0	41	0	95420416	60	4215
2026-01-25 12:36:40.18	239.68	6.44	-44.5	-45.7	18.3	0.00e+00	0	41	0	103809024	60	4183
2026-01-25 12:36:43.16	240.04	6.59	-44.5	-45.8	18.3	0.00e+00	0	41	0	113246208	60	4201
2026-01-25 12:36:46.14	240.39	6.74	-44.4	-45.6	18.4	0.00e+00	0	41	0	122683392	60	4137
2026-01-25 12:36:49.13	240.75	6.90	-44.7	-45.9	18.2	0.00e+00	0	41	0	132120576	60	4261
2026-01-25 12:36:52.11	241.11	7.05	-44.3	-45.4	18.6	0.00e+00	0	41	0	141557760	60	4050
2026-01-25 12:36:55.08	241.48	7.20	-44.0	-45.2	18.9	0.00e+00	0	41	0	150994944	60	3914
2026-01-25 12:36:58.06	241.85	7.35	-44.0	-45.2	18.9	0.00e+00	0	41	0	160432128	60	3926
2026-01-25 12:37:01.03	242.22	7.50	-44.5	-45.7	18.7	0.00e+00	0	41	0	169869312	59	4421
2026-01-25 12:37:04.00	242.60	7.65	-44.5	-45.6	18.8	0.00e+00	0	41	0	178257920	59	4375
2026-01-25 12:37:06.98	242.98	7.80	-44.3	-45.5	19.0	0.00e+00	0	41	0	187695104	59	4306
2026-01-25 12:37:09.94	243.36	7.95	-44.3	-45.4	19.1	0.00e+00	0	41	0	197132288	59	4263
2026-01-25 12:37:12.92	243.75	8.10	-44.0	-45.1	19.4	0.00e+00	0	41	0	206569472	59	4132
2026-01-25 12:37:15.89	244.14	8.25	-44.0	-45.1	19.4	0.00e+00	0	41	0	216006656	59	4126
2026-01-25 12:37:18.86	244.54	8.40	-43.9	-45.0	19.5	0.00e+00	0	41	0	225443840	59	4079
2026-01-25 12:37:21.83	244.94	8.55	-44.1	-45.2	19.3	0.00e+00	0	41	0	234881024	59	4147
2026-01-25 12:37:24.81	245.34	8.70	-43.8	-44.9	19.6	0.00e+00	0	41	0	243269632	59	4019
2026-01-25 12:37:27.77	245.75	8.85	-43.9	-45.0	19.5	0.00e+00	0	41	0	252706816	59	4073
2026-01-25 12:37:30.73	246.16	9.00	-44.0	-45.0	19.4	0.00e+00	0	41	0	262144000	59	4093
2026-01-25 12:37:33.69	246.57	9.14	-44.0	-45.1	19.4	0.00e+00	0	41	0	271581184	59	4134
2026-01-25 12:37:36.66	246.99	9.29	-43.9	-45.0	19.6	0.00e+00	0	41	0	281018368	59	4052
2026-01-25 12:37:39.63	247.42	9.44	-43.8	-44.8	19.7	0.00e+00	0	41	0	290455552	59	4002
2026-01-25 12:37:42.60	247.85	9.58	-43.6	-44.7	19.8	0.00e+00	0	42	0	299892736	59	3924
2026-01-25 12:37:45.57	248.28	9.73	-43.4	-44.4	20.1	0.00e+00	0	41	0	308281344	58	4037
2026-01-25 12:37:48.54	248.71	9.87	-43.6	-44.6	19.9	0.00e+00	0	41	0	317718528	58	4135
2026-01-25 12:37:51.51	249.15	10.02	-43.4	-44.4	20.1	0.00e+00	0	42	0	327155712	58	4024
2026-01-25 12:37:54.46	249.59	10.16	-43.4	-44.3	20.1	0.00e+00	0	42	0	336592896	58	4004
2026-01-25 12:37:57.44	250.04	10.31	-43.5	-44.5	20.0	0.00e+00	0	41	0	346030080	58	4089
2026-01-25 12:38:00.41	250.50	10.45	-43.5	-44.5	20.0	0.00e+00	0	42	0	355467264	58	4072
2026-01-25 12:38:03.38	250.95	10.59	-43.3	-44.2	20.3	0.00e+00	0	42	0	363855872	58	3949
2026-01-25 12:38:06.33	251.41	10.73	-43.3	-44.2	20.4	0.00e+00	0	42	0	373293056	58	3955
2026-01-25 12:38:09.30	251.88	10.87	-43.1	-44.1	20.5	0.00e+00	0	41	0	382730240	58	3874
2026-01-25 12:38:12.29	252.35	11.01	-43.1	-44.0	20.5	0.00e+00	0	42	0	392167424	58	3861
2026-01-25 12:38:15.24	252.82	11.15	-43.0	-43.9	20.5	0.00e+00	0	42	0	401604608	58	3818
2026-01-25 12:38:18.21	253.30	11.29	-43.0	-44.0	20.5	0.00e+00	0	41	0	411041792	57	4053
2026-01-25 12:38:21.17	253.78	11.42	-43.1	-44.0	20.5	0.00e+00	0	41	0	419430400	57	4084
2026-01-25 12:38:24.14	254.27	11.56	-43.1	-44.0	20.5	0.00e+00	0	42	0	428867584	57	4095
2026-01-25 12:38:27.10	254.76	11.69	-43.1	-44.0	20.5	0.00e+00	0	42	0	438304768	57	4096
2026-01-25 12:38:30.07	255.25	11.82	-43.0	-43.9	20.6	0.00e+00	0	42	0	447741952	57	4027
2026-01-25 12:38:33.03	255.75	11.96	-43.1	-44.0	20.5	0.00e+00	0	42	0	457179136	57	4076
2026-01-25 12:38:36.00	256.26	12.09	-43.2	-44.2	20.3	0.00e+00	0	42	0	466616320	57	4177
2026-01-25 12:38:38.97	256.76	12.22	-43.4	-44.4	20.2	0.00e+00	0	42	0	475004928	57	4244
2026-01-25 12:38:41.92	257.27	12.34	-43.5	-44.5	20.1	0.00e+00	0	42	0	484442112	57	4308
2026-01-25 12:38:44.89	257.79	12.47	-43.5	-44.5	20.2	0.00e+00	0	42	0	493879296	57	4295
2026-01-25 12:38:47.84	258.31	12.59	-43.3	-44.2	20.4	0.00e+00	0	42	0	503316480	57	4188
2026-01-25 12:38:50.81	258.83	12.72	-43.1	-44.1	20.6	0.00e+00	0	42	0	512753664	57	4112
2026-01-25 12:38:53.78	259.36	12.84	-43.2	-44.2	20.4	0.00e+00	0	42	0	521142272	57	4162
2026-01-25 12:38:56.75	259.90	12.96	-43.3	-44.3	20.3	0.00e+00	0	42	0	530579456	57	4206
2026-01-25 12:38:59.72	260.44	13.08	-43.4	-44.4	20.3	0.00e+00	0	42	0	540016640	57	4244
2026-01-25 12:39:02.68	260.98	13.19	-43.4	-44.3	20.3	0.00e+00	0	42	0	549453824	57	4239
2026-01-25 12:39:05.65	261.52	13.31	-43.3	-44.2	20.5	0.00e+00	0	42	0	558891008	57	4172
2026-01-25 12:39:08.62	262.08	13.42	-43.3	-44.3	20.4	0.00e+00	0	42	0	568328192	57	4205
2026-01-25 12:39:11.61	262.63	13.53	-43.4	-44.4	20.3	0.00e+00	0	42	0	577765376	57	4243
2026-01-25 12:39:14.58	263.19	13.64	-43.3	-44.3	20.4	0.00e+00	0	42	0	586153984	57	4230
2026-01-25 12:39:17.56	263.76	13.75	-43.2	-44.2	20.5	0.00e+00	0	42	0	595591168	57	4159
2026-01-25 12:39:20.54	264.33	13.86	-43.0	-43.9	20.7	0.00e+00	0	42	0	605028352	57	4019
2026-01-25 12:39:23.50	264.89	13.96	-43.0	-43.9	20.7	0.00e+00	0	42	0	614465536	57	4051
2026-01-25 12:39:26.48	265.47	14.06	-43.1	-44.0	20.6	0.00e+00	0	42	0	623902720	57	4097
2026-01-25 12:39:29.45	266.05	14.16	-43.2	-44.2	20.5	0.00e+00	0	42	0	633339904	57	4155
2026-01-25 12:39:32.42	266.63	14.26	-42.8	-43.7	20.9	0.00e+00	0	42	0	642777088	57	3936
2026-01-25 12:39:35.38	267.21	14.35	-42.9	-43.8	20.7	0.00e+00	0	42	0	651165696	57	3980
2026-01-25 12:39:38.34	267.80	14.44	-42.9	-43.9	20.7	0.00e+00	0	42	0	660602880	57	4015
2026-01-25 12:39:41.30	268.39	14.53	-42.8	-43.7	20.9	0.00e+00	0	42	0	670040064	57	3958
2026-01-25 12:39:44.28	268.99	14.62	-42.7	-43.6	21.0	0.00e+00	0	42	0	679477248	57	3906
2026-01-25 12:39:47.24	269.58	14.70	-42.8	-43.7	20.9	0.00e+00	0	42	0	688914432	57	3954
2026-01-25 12:39:50.21	270.19	14.78	-42.7	-43.6	21.0	0.00e+00	0	42	0	698351616	57	3896
2026-01-25 12:39:53.17	270.79	14.86	-42.7	-43.6	21.0	0.00e+00	0	42	0	706740224	57	3884
2026-01-25 12:39:56.15	271.40	14.93	-42.8	-43.7	20.9	0.00e+00	0	42	0	716177408	57	3931
2026-01-25 12:39:59.10	272.01	15.01	-42.8	-43.8	20.8	0.00e+00	0	42	0	725614592	57	3959
2026-01-25 12:40:02.07	272.62	15.08	-42.8	-43.7	20.9	0.00e+00	0	42	0	735051776	57	3952
2026-01-25 12:40:05.03	273.24	15.14	-42.8	-43.7	21.0	0.00e+00	0	42	0	744488960	57	3918
2026-01-25 12:40:07.99	273.85	15.21	-42.7	-43.6	21.0	0.00e+00	0	42	0	753926144	57	3896
2026-01-25 12:40:10.94	274.47	15.27	-42.6	-43.5	21.2	0.00e+00	0	42	0	762314752	57	3859
2026-01-25 12:40:13.90	275.09	15.33	-42.7	-43.6	21.1	0.00e+00	0	42	0	771751936	57	3897
2026-01-25 12:40:16.86	275.72	15.38	-42.9	-43.8	20.9	0.00e+00	0	42	0	781189120	57	3965
2026-01-25 12:40:19.82	276.34	15.44	-42.7	-43.6	21.1	0.00e+00	0	42	0	790626304	57	3888
2026-01-25 12:40:22.78	276.97	15.48	-42.8	-43.7	21.1	0.00e+00	0	42	0	800063488	57	3914
2026-01-25 12:40:25.74	277.60	15.53	-42.6	-43.5	21.2	0.00e+00	0	42	0	809500672	57	3838
2026-01-25 12:40:28.70	278.24	15.57	-42.9	-43.8	20.9	0.00e+00	0	42	0	818937856	57	3978
2026-01-25 12:40:31.66	278.87	15.61	-42.7	-43.6	21.1	0.00e+00	0	42	0	827326464	57	3901
2026-01-25 12:40:34.63	279.51	15.65	-42.7	-43.6	21.1	0.00e+00	0	42	0	836763648	57	3892
2026-01-25 12:40:37.58	280.14	15.68	-42.8	-43.7	21.0	0.00e+00	0	42	0	846200832	57	3935
2026-01-25 12:40:40.55	280.78	15.71	-42.8	-43.6	21.1	0.00e+00	0	42	0	855638016	57	3906
2026-01-25 12:40:43.50	281.42	15.74	-42.8	-43.6	21.2	0.00e+00	0	42	0	865075200	57	3913
2026-01-25 12:40:46.46	282.06	15.76	-42.9	-43.8	21.0	0.00e+00	0	42	0	873463808	57	3996
2026-01-25 12:40:49.43	282.70	15.78	-43.1	-44.0	20.9	0.00e+00	0	42	0	882900992	57	4082
2026-01-25 12:40:52.39	283.35	15.80	-42.9	-43.7	21.1	0.00e+00	0	42	0	892338176	57	3953
2026-01-25 12:40:55.34	283.99	15.81	-42.9	-43.9	21.0	0.00e+00	0	42	0	901775360	57	4007
2026-01-25 12:40:58.30	284.63	15.82	-43.1	-44.0	20.8	0.00e+00	0	42	0	911212544	57	4095
2026-01-25 12:41:01.25	285.27	15.83	-43.1	-44.0	20.8	0.00e+00	0	42	0	919601152	57	4076
2026-01-25 12:41:04.21	285.91	15.83	-43.0	-43.9	20.9	0.00e+00	0	42	0	929038336	57	4036
2026-01-25 12:41:07.16	286.55	15.83	-42.9	-43.8	20.9	0.00e+00	0	42	0	938475520	57	4003
2026-01-25 12:41:10.12	287.20	15.83	-43.0	-43.9	20.9	0.00e+00	0	42	0	947912704	57	4047
2026-01-25 12:41:13.08	287.84	15.82	-42.9	-43.8	21.0	0.00e+00	0	42	0	957349888	57	3996
2026-01-25 12:41:16.04	288.48	15.81	-43.2	-44.1	20.8	0.00e+00	0	42	0	966787072	57	4113
2026-01-25 12:41:19.00	289.13	15.79	-42.9	-43.8	21.0	0.00e+00	0	42	0	975175680	57	4003
2026-01-25 12:41:21.95	289.76	15.78	-42.7	-43.5	21.3	0.00e+00	0	42	0	984612864	57	3860
2026-01-25 12:41:24.91	290.41	15.76	-42.7	-43.6	21.3	0.00e+00	0	42	0	994050048	57	3893
2026-01-25 12:41:27.86	291.04	15.73	-42.8	-43.7	21.2	0.00e+00	0	42	0	1003487232	57	3938
2026-01-25 12:41:30.82	291.68	15.70	-42.9	-43.8	21.1	0.00e+00	0	42	0	1012924416	57	3983
2026-01-25 12:41:33.78	292.32	15.67	-42.9	-43.8	21.0	0.00e+00	0	42	0	1021313024	57	3983
2026-01-25 12:41:36.74	292.95	15.64	-43.1	-44.0	20.8	0.00e+00	0	42	0	1030750208	57	4078
2026-01-25 12:41:39.71	293.59	15.60	-43.0	-43.9	20.9	0.00e+00	0	42	0	1040187392	57	4049
2026-01-25 12:41:42.67	294.22	15.56	-42.9	-43.7	21.0	0.00e+00	0	42	0	1049624576	57	3958
2026-01-25 12:41:45.64	294.86	15.52	-43.1	-44.0	20.8	0.00e+00	0	42	0	1059061760	57	4085
2026-01-25 12:41:48.59	295.48	15.47	-43.2	-44.1	20.8	0.00e+00	0	42	0	1067450368	57	4116
2026-01-25 12:41:51.55	296.11	15.42	-43.0	-43.9	20.8	0.00e+00	0	42	0	1076887552	57	4043
2026-01-25 12:41:54.50	296.73	15.37	-43.0	-43.9	20.9	0.00e+00	0	42	0	1086324736	57	4034
2026-01-25 12:41:57.47	297.36	15.31	-42.9	-43.8	21.0	0.00e+00	0	42	0	1095761920	57	3997
2026-01-25 12:42:00.42	297.98	15.26	-43.0	-43.9	20.9	0.00e+00	0	42	0	1105199104	57	4020
2026-01-25 12:42:03.39	298.60	15.19	-43.1	-44.0	20.8	0.00e+00	0	42	0	1113587712	57	4076
2026-01-25 12:42:06.34	299.21	15.13	-43.1	-44.1	20.7	0.00e+00	0	42	0	1123024896	57	4113
2026-01-25 12:42:09.29	299.82	15.06	-42.8	-43.7	21.0	0.00e+00	0	42	0	1132462080	57	3954
2026-01-25 12:42:12.26	300.43	14.99	-42.9	-43.8	20.9	0.00e+00	0	42	0	1141899264	57	3980
2026-01-25 12:42:15.21	301.04	14.92	-42.8	-43.8	21.0	0.00e+00	0	42	0	1151336448	57	3959
2026-01-25 12:42:18.16	301.64	14.84	-42.9	-43.8	21.0	0.00e+00	0	42	0	1160773632	57	3984
2026-01-25 12:42:21.11	302.24	14.76	-42.8	-43.8	21.0	0.00e+00	0	42	0	1170210816	57	3965
2026-01-25 12:42:24.06	302.83	14.68	-42.8	-43.7	21.1	0.00e+00	0	42	0	1178599424	57	3921
2026-01-25 12:42:27.03	303.43	14.60	-42.8	-43.7	21.1	0.00e+00	0	42	0	1188036608	57	3939
2026-01-25 12:42:30.00	304.02	14.51	-42.8	-43.7	21.1	0.00e+00	0	42	0	1197473792	57	3929
2026-01-25 12:42:32.96	304.61	14.42	-42.7	-43.6	21.1	0.00e+00	0	42	0	1206910976	57	3904
2026-01-25 12:42:35.92	305.20	14.33	-42.7	-43.6	21.0	0.00e+00	0	42	0	1216348160	57	3899
2026-01-25 12:42:38.88	305.78	14.24	-42.7	-43.6	21.0	0.00e+00	0	42	0	1224736768	57	3908
2026-01-25 12:42:41.85	306.36	14.14	-42.8	-43.8	21.0	0.00e+00	0	42	0	1234173952	57	3961
2026-01-25 12:42:44.80	306.93	14.04	-42.9	-43.8	20.9	0.00e+00	0	42	0	1243611136	57	3996
2026-01-25 12:42:47.76	307.50	13.94	-42.8	-43.7	21.0	0.00e+00	0	42	0	1253048320	57	3945
2026-01-25 12:42:50.72	308.06	13.84	-42.7	-43.6	21.0	0.00e+00	0	42	0	1262485504	57	3901
2026-01-25 12:42:53.67	308.62	13.74	-42.9	-43.8	20.9	0.00e+00	0	42	0	1270874112	57	3969
2026-01-25 12:42:56.63	309.18	13.63	-43.0	-43.9	20.8	0.00e+00	0	42	0	1280311296	57	4020
2026-01-25 12:42:59.59	309.74	13.52	-42.9	-43.8	20.8	0.00e+00	0	42	0	1289748480	57	3999
2026-01-25 12:43:02.57	310.29	13.41	-42.7	-43.6	21.0	0.00e+00	0	42	0	1299185664	57	3906
2026-01-25 12:43:05.53	310.84	13.30	-42.6	-43.5	21.1	0.00e+00	0	42	0	1308622848	57	3837
2026-01-25 12:43:08.49	311.38	13.18	-42.5	-43.4	21.2	0.00e+00	0	42	0	1317011456	57	3793
2026-01-25 12:43:11.45	311.92	13.07	-42.6	-43.4	21.1	0.00e+00	0	42	0	1326448640	56	4048
2026-01-25 12:43:14.42	312.45	12.95	-42.8	-43.6	21.0	0.00e+00	0	42	0	1335885824	56	4145
2026-01-25 12:43:17.39	312.99	12.83	-42.8	-43.7	20.9	0.00e+00	0	42	0	1345323008	56	4166
2026-01-25 12:43:20.35	313.51	12.71	-42.7	-43.6	20.8	0.00e+00	0	42	0	1354760192	56	4130
2026-01-25 12:43:23.31	314.03	12.58	-42.8	-43.8	20.8	0.00e+00	0	42	0	1364197376	56	4198
2026-01-25 12:43:26.28	314.55	12.46	-43.1	-44.0	20.6	0.00e+00	0	42	0	1373634560	56	4314
2026-01-25 12:43:29.23	315.06	12.33	-43.4	-44.4	20.2	0.00e+00	0	42	0	1382023168	57	4260
2026-01-25 12:43:32.20	315.57	12.21	-43.3	-44.3	20.3	0.00e+00	0	42	0	1391460352	57	4230
2026-01-25 12:43:35.15	316.08	12.08	-43.1	-44.1	20.5	0.00e+00	0	42	0	1400897536	57	4110
2026-01-25 12:43:38.11	316.58	11.95	-42.9	-43.9	20.6	0.00e+00	0	42	0	1410334720	57	4018
2026-01-25 12:43:41.07	317.07	11.82	-42.8	-43.8	20.7	0.00e+00	0	42	0	1419771904	57	3959
2026-01-25 12:43:44.01	317.56	11.69	-43.2	-44.2	20.3	0.00e+00	0	42	0	1429209088	57	4160
2026-01-25 12:43:46.97	318.05	11.55	-43.5	-44.5	20.0	0.00e+00	0	42	0	1437597696	57	4334
2026-01-25 12:43:49.94	318.53	11.42	-43.9	-44.9	19.6	0.00e+00	0	42	0	1447034880	58	4281
2026-01-25 12:43:52.89	319.01	11.29	-43.9	-44.9	19.6	0.00e+00	0	42	0	1456472064	58	4279
2026-01-25 12:43:55.85	319.48	11.15	-43.8	-44.8	19.7	0.00e+00	0	42	0	1465909248	58	4237
2026-01-25 12:43:58.81	319.95	11.01	-43.7	-44.7	19.8	0.00e+00	0	42	0	1475346432	58	4166
2026-01-25 12:44:01.77	320.42	10.87	-43.6	-44.6	19.9	0.00e+00	0	42	0	1483735040	58	4124
2026-01-25 12:44:04.74	320.88	10.74	-43.5	-44.6	20.0	0.00e+00	0	42	0	1493172224	58	4099
2026-01-25 12:44:07.69	321.34	10.60	-43.6	-44.7	19.8	0.00e+00	0	42	0	1502609408	58	4157
2026-01-25 12:44:10.65	321.79	10.46	-43.8	-44.8	19.6	0.00e+00	0	42	0	1512046592	58	4233
2026-01-25 12:44:13.60	322.24	10.31	-43.8	-44.9	19.6	0.00e+00	0	42	0	1521483776	58	4243
2026-01-25 12:44:16.58	322.69	10.17	-43.9	-44.9	19.5	0.00e+00	0	42	0	1529872384	58	4285
2026-01-25 12:44:19.55	323.13	10.03	-43.9	-45.0	19.5	0.00e+00	0	42	0	1539309568	58	4302
2026-01-25 12:44:22.52	323.57	9.89	-43.9	-45.0	19.5	0.00e+00	0	42	0	1548746752	58	4306
2026-01-25 12:44:25.47	324.00	9.74	-43.9	-45.0	19.5	0.00e+00	0	42	0	1558183936	58	4296
2026-01-25 12:44:28.43	324.43	9.60	-44.1	-45.2	19.3	0.00e+00	0	43	0	1567621120	58	4419
2026-01-25 12:44:31.40	324.85	9.45	-44.2	-45.3	19.2	0.00e+00	0	42	0	1577058304	59	4224
2026-01-25 12:44:34.35	325.27	9.31	-44.1	-45.1	19.3	0.00e+00	0	42	0	1585446912	59	4145
2026-01-25 12:44:37.30	325.69	9.16	-44.2	-45.3	19.2	0.00e+00	0	42	0	1594884096	59	4215
2026-01-25 12:44:40.26	326.10	9.02	-44.0	-45.1	19.4	0.00e+00	0	42	0	1604321280	59	4118
2026-01-25 12:44:43.23	326.51	8.87	-44.1	-45.3	19.2	0.00e+00	0	42	0	1613758464	59	4198
2026-01-25 12:44:46.20	326.92	8.72	-44.0	-45.2	19.2	0.00e+00	0	42	0	1623195648	59	4151
2026-01-25 12:44:49.15	327.31	8.58	-44.2	-45.3	19.1	0.00e+00	0	42	0	1632632832	59	4216
2026-01-25 12:44:52.13	327.71	8.43	-44.0	-45.1	19.3	0.00e+00	0	43	0	1642070016	59	4110
2026-01-25 12:44:55.10	328.11	8.28	-44.0	-45.1	19.3	0.00e+00	0	42	0	1650458624	59	4120
2026-01-25 12:44:58.06	328.50	8.13	-44.1	-45.2	19.2	0.00e+00	0	43	0	1659895808	59	4171
2026-01-25 12:45:01.01	328.88	7.98	-44.1	-45.3	19.1	0.00e+00	0	42	0	1669332992	59	4199
2026-01-25 12:45:03.97	329.26	7.83	-44.1	-45.2	19.1	0.00e+00	0	42	0	1678770176	59	4171
2026-01-25 12:45:06.93	329.64	7.69	-44.2	-45.3	19.0	0.00e+00	0	43	0	1688207360	59	4215
2026-01-25 12:45:09.88	330.01	7.54	-44.2	-45.4	19.0	0.00e+00	0	42	0	1696595968	59	4245
2026-01-25 12:45:12.84	330.38	7.39	-44.3	-45.4	18.9	0.00e+00	0	42	0	1706033152	59	4288
2026-01-25 12:45:15.80	330.75	7.24	-44.4	-45.6	18.7	0.00e+00	0	42	0	1715470336	59	4361
2026-01-25 12:45:18.76	331.11	7.09	-44.5	-45.7	18.6	0.00e+00	0	42	0	1724907520	59	4392
2026-01-25 12:45:21.72	331.47	6.94	-44.4	-45.6	18.4	0.00e+00	0	43	0	1734344704	60	4124
2026-01-25 12:45:24.68	331.83	6.79	-44.1	-45.3	18.7	0.00e+00	0	43	0	1742733312	60	3963
2026-01-25 12:45:27.64	332.18	6.64	-44.4	-45.6	18.4	0.00e+00	0	43	0	1752170496	60	4108
2026-01-25 12:45:30.61	332.53	6.49	-44.6	-45.9	18.1	0.00e+00	0	43	0	1761607680	60	4247
2026-01-25 12:45:33.58	332.88	6.34	-44.4	-45.6	18.2	0.00e+00	0	43	0	1771044864	60	4138
2026-01-25 12:45:36.55	333.22	6.19	-44.5	-45.7	18.2	0.00e+00	0	43	0	1780482048	60	4165
2026-01-25 12:45:39.51	333.56	6.04	-44.4	-45.6	18.3	0.00e+00	0	42	0	1789919232	60	4113
2026-01-25 12:45:42.47	333.90	5.89	-44.6	-45.8	17.9	0.00e+00	0	43	0	1798307840	60	4234
2026-01-25 12:45:45.44	334.23	5.74	-44.5	-45.7	18.0	0.00e+00	0	42	0	1807745024	60	4186
2026-01-25 12:45:48.40	334.56	5.59	-44.8	-46.1	17.5	0.00e+00	0	42	0	1817182208	60	4386
2026-01-25 12:45:51.37	334.89	5.45	-44.7	-46.0	17.7	0.00e+00	0	42	0	1826619392	60	4329
2026-01-25 12:45:54.34	335.21	5.30	-44.3	-45.6	18.1	0.00e+00	0	42	0	1836056576	60	4106
2026-01-25 12:45:57.30	335.53	5.15	-44.7	-46.0	17.7	0.00e+00	0	43	0	1845493760	60	4310
2026-01-25 12:46:00.26	335.85	5.00	-44.8	-46.1	17.6	0.00e+00	0	42	0	1853882368	60	4380
2026-01-25 12:46:03.22	336.16	4.85	-53.0	-65.8	3.8	1.49e+00	0	43	104	1855979520	76	16833
2026-01-25 12:46:06.18	336.47	4.70	-53.5	-66.2	3.8	1.49e+00	0	43	104	1855979520	77	16612
2026-01-25 12:46:09.14	336.78	4.55	-53.8	-66.5	3.8	1.49e+00	0	43	104	1855979520	78	16296
2026-01-25 12:46:12.11	337.09	4.40	-53.9	-66.7	3.8	1.49e+00	0	43	104	1855979520	78	16606
2026-01-25 12:46:15.08	337.39	4.26	-54.1	-66.8	3.8	1.49e+00	0	43	104	1855979520	78	16825
2026-01-25 12:46:18.05	337.69	4.11	-54.1	-66.9	3.8	1.49e+00	0	43	104	1855979520	78	16923
2026-01-25 12:46:21.01	337.99	3.96	-54.0	-66.8	3.8	1.49e+00	0	43	104	1855979520	78	16828
2026-01-25 12:46:23.97	338.28	3.81	-54.0	-66.8	3.8	1.49e+00	0	43	104	1855979520	78	16695
2026-01-25 12:46:26.94	338.57	3.67	-53.9	-66.7	3.8	1.49e+00	0	43	104	1855979520	78	16591
2026-01-25 12:46:29.90	338.86	3.52	-53.9	-66.6	3.8	1.49e+00	0	43	104	1855979520	78	16458
2026-01-25 12:46:32.98	339.15	3.37	-53.8	-66.5	3.8	1.49e+00	0	43	104	1855979520	78	16261
2026-01-25 12:46:35.80	339.42	3.23	-53.7	-66.5	3.8	1.49e+00	0	43	104	1855979520	78	16237
2026-01-25 12:46:38.90	339.72	3.07	-53.7	-66.5	3.8	1.49e+00	0	43	104	1855979520	78	16225
2026-01-25 12:46:41.70	339.98	2.94	-53.7	-66.5	3.8	1.49e+00	0	43	104	1855979520	78	16151
2026-01-25 12:46:44.82	340.27	2.78	-53.7	-66.4	3.8	1.49e+00	0	43	104	1855979520	78	16121
2026-01-25 12:46:47.64	340.53	2.64	-53.7	-66.4	3.8	1.49e+00	0	43	104	1855979520	78	16085
2026-01-25 12:46:50.75	340.81	2.49	-53.7	-66.4	3.8	1.49e+00	0	43	104	1855979520	78	16067
2026-01-25 12:46:53.58	341.07	2.35	-53.7	-66.4	3.8	1.49e+00	0	43	104	1855979520	78	16090
2026-01-25 12:46:56.69	341.34	2.20	-53.7	-66.4	3.8	1.49e+00	0	43	104	1855979520	78	16125
2026-01-25 12:46:59.50	341.59	2.06	-53.6	-66.4	3.8	1.49e+00	0	43	104	1855979520	78	15996

#Closed at: 2026-01-25 12:47:00
#Recorded file [1855 MB]: D:/lorett/data/31041_260125_153513.dat