passes_logs/2026/01/25/R3.2S_Murmansk/R3.2S_Murmansk__20260125_052517_AQUA_rec.log

#Pass ID: 20260125_052517_AQUA
#Satellite: AQUA
#Configuration: AQUA
#almurnet v.1.7.20251203
#Start time: 2026-01-25 05:25:19

#Version: 2.2.20231116
#Station: R3.2S_Murmansk
#Location: 33.079688 lon 68.888172 lat
#TLE: 1 27424U 02022A   26024.53919639  .00001970  00000+0  40397-3 0  9996
#TLE: 2 27424  98.4098 351.1277 0001915  66.8561 358.4840 14.61855303262281

#Time	Az	El	Level	Level2	SNR	BER	BlckErr	Temp	State	Recorded	gain1	gain2
2026-01-25 05:25:19.30	40.22	2.13	-53.7	-71.5	3.8	7.46e-01	0	42	0	0	79	27125
2026-01-25 05:25:22.32	40.00	2.31	-53.6	-71.1	3.8	7.45e-01	0	42	104	0	77	29051
2026-01-25 05:25:25.35	39.78	2.49	-53.6	-71.1	3.8	7.45e-01	0	42	104	0	77	29061
2026-01-25 05:25:28.37	39.56	2.67	-53.7	-71.3	3.8	7.49e-01	0	42	104	0	77	29742
2026-01-25 05:25:31.40	39.33	2.85	-53.6	-70.9	3.8	7.46e-01	0	42	104	0	77	28628
2026-01-25 05:25:34.42	39.10	3.03	-53.6	-70.7	3.8	7.43e-01	0	42	104	0	77	27875
2026-01-25 05:25:37.45	38.86	3.21	-53.6	-70.9	3.8	7.42e-01	0	42	104	0	77	28461
2026-01-25 05:25:40.47	38.63	3.40	-53.6	-71.0	3.8	7.45e-01	0	43	104	0	77	28955
2026-01-25 05:25:43.49	38.39	3.58	-53.6	-70.5	3.8	7.45e-01	0	43	104	0	77	27354
2026-01-25 05:25:46.52	38.14	3.77	-53.6	-70.8	3.8	7.44e-01	0	43	104	0	77	28271
2026-01-25 05:25:49.54	37.89	3.95	-53.6	-70.9	3.8	7.44e-01	0	43	104	0	77	28433
2026-01-25 05:25:52.57	37.64	4.14	-53.6	-71.0	3.8	7.45e-01	0	43	104	0	77	28885
2026-01-25 05:25:55.59	37.39	4.33	-53.4	-65.7	5.1	7.07e-01	3	43	0	0	77	15640
2026-01-25 05:25:58.62	37.13	4.52	-53.3	-64.0	6.3	6.75e-01	182	43	0	4194304	77	12905
2026-01-25 05:26:01.65	36.86	4.71	-53.3	-64.0	6.2	6.78e-01	183	43	0	9437184	77	12869
2026-01-25 05:26:04.67	36.60	4.90	-52.3	-58.6	11.7	6.10e-01	0	43	0	15204352	76	7289
2026-01-25 05:26:07.70	36.32	5.09	-51.5	-56.2	13.9	6.03e-01	0	43	0	20971520	75	5896
2026-01-25 05:26:10.73	36.05	5.28	-50.6	-54.0	15.8	6.01e-01	0	43	0	24641536	73	5146
2026-01-25 05:26:13.75	35.77	5.48	-46.4	-48.0	22.6	6.01e-01	0	43	0	30408704	64	4299
2026-01-25 05:26:16.78	35.49	5.67	-45.6	-47.0	23.7	6.01e-01	0	43	0	36175872	63	4097
2026-01-25 05:26:19.80	35.20	5.87	-45.8	-47.2	23.6	6.03e-01	0	43	0	41943040	63	4189
2026-01-25 05:26:22.83	34.91	6.07	-45.5	-46.9	23.9	6.03e-01	0	43	0	47710208	62	4278
2026-01-25 05:26:25.85	34.61	6.26	-45.6	-47.0	23.8	6.03e-01	0	43	0	52953088	62	4322
2026-01-25 05:26:28.88	34.31	6.46	-45.5	-47.0	23.9	5.99e-01	0	43	0	58720256	62	4294
2026-01-25 05:26:31.90	34.00	6.66	-45.3	-46.7	24.2	6.02e-01	0	43	0	64487424	62	4172
2026-01-25 05:26:34.93	33.69	6.86	-45.3	-46.7	24.2	6.00e-01	0	43	0	70254592	62	4162
2026-01-25 05:26:37.96	33.37	7.07	-45.0	-46.3	24.5	6.02e-01	0	43	0	76021760	62	3988
2026-01-25 05:26:40.98	33.05	7.27	-45.3	-46.7	24.3	6.02e-01	0	43	0	81264640	62	4156
2026-01-25 05:26:44.01	32.73	7.47	-45.1	-46.4	24.6	6.01e-01	0	43	0	87031808	62	4038
2026-01-25 05:26:47.04	32.40	7.68	-44.9	-46.2	24.8	6.01e-01	0	43	0	92798976	61	4149
2026-01-25 05:26:50.06	32.06	7.88	-45.1	-46.4	24.6	6.03e-01	0	43	0	98566144	61	4277
2026-01-25 05:26:53.09	31.72	8.09	-44.8	-46.1	24.9	6.02e-01	0	43	0	104333312	61	4136
2026-01-25 05:26:56.11	31.37	8.30	-45.0	-46.4	24.7	6.02e-01	0	43	0	110100480	61	4247
2026-01-25 05:26:59.14	31.02	8.51	-45.0	-46.3	24.7	6.00e-01	0	44	0	115343360	61	4240
2026-01-25 05:27:02.17	30.66	8.72	-44.9	-46.2	24.8	6.03e-01	0	43	0	121110528	61	4181
2026-01-25 05:27:05.19	30.29	8.93	-44.9	-46.2	24.8	6.01e-01	0	44	0	126877696	61	4185
2026-01-25 05:27:08.21	29.92	9.14	-44.8	-46.1	25.0	6.01e-01	0	43	0	132644864	61	4124
2026-01-25 05:27:11.24	29.55	9.35	-44.8	-46.1	25.0	6.04e-01	0	44	0	138412032	61	4103
2026-01-25 05:27:14.26	29.17	9.57	-44.7	-46.0	25.1	6.03e-01	0	43	0	143654912	61	4066
2026-01-25 05:27:17.29	28.78	9.78	-44.5	-45.8	25.2	6.02e-01	0	43	0	149422080	61	3977
2026-01-25 05:27:20.31	28.38	9.99	-44.4	-45.6	25.5	6.02e-01	0	44	0	155189248	60	4111
2026-01-25 05:27:23.34	27.98	10.21	-44.3	-45.6	25.5	6.03e-01	0	44	0	160956416	60	4100
2026-01-25 05:27:26.37	27.57	10.43	-44.2	-45.4	25.6	6.03e-01	0	44	0	166723584	60	4042
2026-01-25 05:27:29.39	27.16	10.64	-44.2	-45.4	25.7	6.01e-01	0	44	0	171966464	60	4026
2026-01-25 05:27:32.42	26.73	10.86	-44.2	-45.4	25.6	6.02e-01	0	44	0	178257920	60	4018
2026-01-25 05:27:35.45	26.31	11.08	-44.3	-45.5	25.7	6.04e-01	0	44	0	183500800	60	4060
2026-01-25 05:27:38.48	25.87	11.30	-44.3	-45.5	25.6	6.02e-01	0	44	0	189267968	60	4076
2026-01-25 05:27:41.50	25.43	11.52	-44.2	-45.4	25.7	6.02e-01	0	44	0	195035136	60	4033
2026-01-25 05:27:44.53	24.98	11.74	-44.1	-45.3	25.8	6.03e-01	0	44	0	200802304	60	3995
2026-01-25 05:27:47.56	24.52	11.96	-44.1	-45.2	25.9	6.02e-01	0	44	0	206569472	59	4185
2026-01-25 05:27:50.59	24.05	12.19	-44.0	-45.2	25.9	6.02e-01	0	44	0	211812352	59	4174
2026-01-25 05:27:53.61	23.58	12.41	-44.0	-45.1	25.9	6.03e-01	0	44	0	217579520	59	4140
2026-01-25 05:27:56.64	23.10	12.63	-44.0	-45.2	25.9	6.02e-01	0	44	0	223346688	59	4170
2026-01-25 05:27:59.67	22.60	12.85	-44.1	-45.3	25.8	6.02e-01	0	44	0	229113856	59	4231
2026-01-25 05:28:02.69	22.11	13.08	-44.1	-45.3	25.8	6.02e-01	0	44	0	234881024	59	4219
2026-01-25 05:28:05.71	21.60	13.30	-43.9	-45.1	26.1	6.03e-01	0	44	0	240648192	59	4122
2026-01-25 05:28:08.74	21.09	13.52	-44.2	-45.4	25.8	6.00e-01	0	44	0	245891072	59	4244
2026-01-25 05:28:11.76	20.57	13.75	-44.2	-45.4	25.8	6.00e-01	0	44	0	251658240	59	4270
2026-01-25 05:28:14.79	20.03	13.97	-44.2	-45.4	25.8	6.02e-01	0	44	0	257425408	59	4254
2026-01-25 05:28:17.81	19.49	14.19	-44.0	-45.2	26.0	6.02e-01	0	44	0	263192576	59	4152
2026-01-25 05:28:20.83	18.95	14.41	-44.0	-45.1	26.1	6.03e-01	0	44	0	268959744	59	4139
2026-01-25 05:28:23.86	18.39	14.64	-43.7	-44.9	26.3	6.03e-01	0	44	0	274202624	59	4010
2026-01-25 05:28:26.89	17.82	14.86	-43.9	-45.0	26.2	6.00e-01	0	44	0	279969792	59	4079
2026-01-25 05:28:29.91	17.24	15.08	-43.9	-45.1	26.3	6.05e-01	0	44	0	285736960	59	4105
2026-01-25 05:28:32.93	16.66	15.30	-43.9	-45.0	26.2	6.01e-01	0	44	0	291504128	59	4092
2026-01-25 05:28:35.96	16.06	15.52	-43.9	-45.1	26.2	6.02e-01	0	44	0	297271296	59	4120
2026-01-25 05:28:38.99	15.46	15.74	-44.0	-45.1	26.1	6.03e-01	0	44	0	302514176	59	4138
2026-01-25 05:28:42.01	14.84	15.96	-43.9	-45.1	26.2	6.01e-01	0	44	0	308281344	59	4118
2026-01-25 05:28:45.04	14.22	16.18	-43.8	-45.0	26.3	6.03e-01	0	44	0	314048512	59	4057
2026-01-25 05:28:48.06	13.59	16.40	-43.9	-45.0	26.3	6.02e-01	0	44	0	319815680	59	4084
2026-01-25 05:28:51.09	12.94	16.61	-43.9	-45.1	26.2	6.00e-01	0	44	0	325582848	59	4107
2026-01-25 05:28:54.11	12.29	16.82	-43.9	-45.0	26.3	6.01e-01	0	44	0	331350016	59	4076
2026-01-25 05:28:57.14	11.62	17.04	-43.9	-45.1	26.2	6.00e-01	0	44	0	336592896	59	4110
2026-01-25 05:29:00.17	10.95	17.25	-44.0	-45.2	26.2	6.01e-01	0	44	0	342360064	59	4153
2026-01-25 05:29:03.19	10.27	17.45	-44.0	-45.1	26.2	6.04e-01	0	44	0	348127232	59	4125
2026-01-25 05:29:06.21	9.57	17.66	-43.9	-45.0	26.3	6.03e-01	0	44	0	353894400	59	4083
2026-01-25 05:29:09.24	8.87	17.86	-44.0	-45.1	26.2	6.02e-01	0	44	0	359661568	59	4137
2026-01-25 05:29:12.27	8.15	18.06	-43.9	-45.1	26.3	6.01e-01	0	44	0	364904448	59	4102
2026-01-25 05:29:15.29	7.43	18.26	-43.9	-45.0	26.2	6.01e-01	0	44	0	370671616	59	4085
2026-01-25 05:29:18.32	6.69	18.46	-44.1	-45.3	26.1	6.03e-01	0	44	0	376438784	59	4222
2026-01-25 05:29:21.34	5.95	18.65	-44.0	-45.1	26.2	6.00e-01	0	44	0	382205952	59	4136
2026-01-25 05:29:24.37	5.19	18.84	-44.1	-45.2	26.1	6.03e-01	0	44	0	387973120	59	4176
2026-01-25 05:29:27.40	4.43	19.03	-44.1	-45.3	26.1	6.01e-01	0	44	0	393216000	59	4198
2026-01-25 05:29:30.42	3.65	19.21	-44.2	-45.4	26.0	6.02e-01	0	44	0	399507456	59	4255
2026-01-25 05:29:33.45	2.87	19.39	-44.2	-45.4	26.0	6.00e-01	0	44	0	404750336	59	4264
2026-01-25 05:29:36.47	2.07	19.56	-44.1	-45.3	26.1	6.03e-01	0	44	0	410517504	59	4199
2026-01-25 05:29:39.49	1.27	19.73	-44.2	-45.3	26.0	6.03e-01	0	44	0	416284672	59	4236
2026-01-25 05:29:42.52	0.46	19.89	-44.2	-45.3	26.1	6.06e-01	0	44	0	422051840	59	4233
2026-01-25 05:29:45.54	359.63	20.05	-44.3	-45.5	25.9	6.01e-01	0	44	0	427819008	59	4306
2026-01-25 05:29:48.56	358.80	20.21	-44.3	-45.5	25.9	6.03e-01	0	44	0	433061888	59	4301
2026-01-25 05:29:51.59	357.96	20.36	-44.3	-45.4	26.0	6.03e-01	0	44	0	438829056	59	4290
2026-01-25 05:29:54.61	357.11	20.50	-44.3	-45.5	25.8	6.02e-01	0	44	0	444596224	59	4309
2026-01-25 05:29:57.64	356.26	20.64	-44.4	-45.5	25.8	6.01e-01	0	44	0	450363392	59	4334
2026-01-25 05:30:00.66	355.39	20.78	-44.4	-45.5	25.8	6.02e-01	0	44	0	456130560	59	4332
2026-01-25 05:30:03.69	354.52	20.91	-44.3	-45.5	25.8	6.02e-01	0	44	0	461373440	59	4313
2026-01-25 05:30:06.71	353.64	21.03	-44.4	-45.6	25.8	6.01e-01	0	44	0	467140608	59	4355
2026-01-25 05:30:09.74	352.75	21.14	-44.4	-45.5	25.9	6.01e-01	0	44	0	472907776	59	4330
2026-01-25 05:30:12.77	351.85	21.25	-44.4	-45.6	25.9	6.00e-01	0	44	0	478674944	59	4350
2026-01-25 05:30:15.80	350.95	21.35	-44.5	-45.6	25.9	6.03e-01	0	44	0	484442112	59	4384
2026-01-25 05:30:18.82	350.04	21.45	-44.5	-45.6	25.8	6.01e-01	0	44	0	490209280	59	4389
2026-01-25 05:30:21.84	349.13	21.54	-44.5	-45.7	25.9	6.02e-01	0	44	0	495452160	60	4185
2026-01-25 05:30:24.87	348.21	21.62	-44.3	-45.5	26.0	6.00e-01	0	44	0	501219328	60	4080
2026-01-25 05:30:27.89	347.29	21.69	-44.5	-45.7	25.8	6.03e-01	0	44	0	506986496	60	4170
2026-01-25 05:30:30.92	346.36	21.76	-44.5	-45.7	25.8	6.04e-01	0	44	0	512753664	60	4149
2026-01-25 05:30:33.95	345.42	21.82	-44.5	-45.6	25.8	6.05e-01	0	44	0	518520832	60	4137
2026-01-25 05:30:36.97	344.49	21.87	-44.5	-45.7	25.8	6.02e-01	0	44	0	523763712	60	4165
2026-01-25 05:30:39.99	343.55	21.91	-44.6	-45.7	25.8	6.00e-01	0	44	0	529530880	60	4193
2026-01-25 05:30:43.02	342.61	21.95	-44.6	-45.8	25.8	6.01e-01	0	44	0	535298048	60	4195
2026-01-25 05:30:46.04	341.67	21.97	-44.5	-45.6	26.0	6.03e-01	0	44	0	541065216	60	4144
2026-01-25 05:30:49.07	340.72	21.99	-44.6	-45.8	25.8	6.01e-01	0	44	0	546832384	60	4222
2026-01-25 05:30:52.09	339.78	22.01	-44.6	-45.7	25.8	6.01e-01	0	44	0	552075264	60	4192
2026-01-25 05:30:55.11	338.83	22.01	-44.7	-45.9	25.7	6.01e-01	0	44	0	557842432	60	4254
2026-01-25 05:30:58.14	337.88	22.00	-44.6	-45.8	25.7	6.06e-01	0	44	0	563609600	60	4223
2026-01-25 05:31:01.17	336.94	21.99	-44.6	-45.8	25.8	6.02e-01	0	44	0	569376768	60	4227
2026-01-25 05:31:04.19	335.99	21.97	-44.6	-45.8	25.8	6.02e-01	0	44	0	575143936	60	4240
2026-01-25 05:31:07.21	335.05	21.94	-44.8	-46.0	25.7	6.02e-01	0	44	0	580911104	60	4314
2026-01-25 05:31:10.24	334.11	21.91	-44.6	-45.8	25.9	6.01e-01	0	44	0	586153984	60	4201
2026-01-25 05:31:13.26	333.17	21.86	-44.7	-45.9	25.8	6.02e-01	0	44	0	591921152	60	4245
2026-01-25 05:31:16.29	332.23	21.81	-44.7	-45.9	25.8	6.01e-01	0	44	0	597688320	60	4252
2026-01-25 05:31:19.31	331.30	21.75	-44.8	-46.0	25.7	6.01e-01	0	44	0	603455488	60	4309
2026-01-25 05:31:22.34	330.37	21.68	-44.8	-46.0	25.7	6.03e-01	0	44	0	609222656	60	4305
2026-01-25 05:31:25.37	329.45	21.61	-44.8	-46.0	25.7	6.03e-01	0	44	0	614465536	60	4295
2026-01-25 05:31:28.39	328.53	21.53	-44.7	-45.9	25.8	5.99e-01	0	44	0	620232704	60	4266
2026-01-25 05:31:31.41	327.62	21.44	-44.7	-45.9	25.8	6.06e-01	0	44	0	625999872	60	4250
2026-01-25 05:31:34.44	326.71	21.34	-44.6	-45.8	25.9	6.01e-01	0	44	0	631767040	60	4239
2026-01-25 05:31:37.47	325.81	21.24	-44.8	-46.0	25.6	6.02e-01	0	44	0	637534208	60	4306
2026-01-25 05:31:40.49	324.91	21.13	-44.6	-45.8	25.9	6.03e-01	0	44	0	642777088	60	4221
2026-01-25 05:31:43.52	324.02	21.01	-45.0	-46.2	25.5	6.03e-01	0	44	0	649068544	61	4189
2026-01-25 05:31:46.54	323.15	20.89	-45.7	-47.0	24.8	6.02e-01	0	44	0	654311424	61	4582
2026-01-25 05:31:49.57	322.27	20.76	-45.6	-46.9	25.0	6.02e-01	0	44	0	660078592	61	4512
2026-01-25 05:31:52.60	321.40	20.63	-45.4	-46.7	24.8	6.01e-01	0	44	0	665845760	61	4430
2026-01-25 05:31:55.62	320.55	20.49	-44.4	-45.9	25.0	6.02e-01	0	44	0	671612928	61	4027
2026-01-25 05:31:58.65	319.70	20.34	-44.3	-45.4	25.9	6.03e-01	0	44	0	677380096	60	4048
2026-01-25 05:32:01.67	318.86	20.19	-45.1	-46.4	25.0	6.01e-01	0	44	0	682622976	62	4007
2026-01-25 05:32:04.69	318.03	20.04	-45.0	-46.2	25.3	6.02e-01	0	44	0	688390144	62	3921
2026-01-25 05:32:07.72	317.20	19.87	-44.8	-46.0	25.5	6.04e-01	0	44	0	694157312	61	4060
2026-01-25 05:32:10.74	316.39	19.71	-44.4	-45.5	25.8	6.00e-01	0	44	0	699924480	60	4089
2026-01-25 05:32:13.76	315.59	19.54	-44.7	-45.9	25.7	6.03e-01	0	44	0	705691648	60	4268
2026-01-25 05:32:16.79	314.79	19.36	-44.8	-46.1	25.6	6.02e-01	0	44	0	710934528	60	4348
2026-01-25 05:32:19.81	314.01	19.18	-44.6	-45.8	25.9	6.03e-01	0	44	0	716701696	60	4201
2026-01-25 05:32:22.84	313.24	19.00	-44.7	-45.9	25.8	6.04e-01	0	44	0	722468864	60	4260
2026-01-25 05:32:25.86	312.47	18.82	-44.6	-45.8	25.8	6.01e-01	0	44	0	728236032	60	4229
2026-01-25 05:32:28.89	311.72	18.63	-44.7	-46.0	25.5	6.03e-01	0	44	0	734003200	60	4301
2026-01-25 05:32:31.91	310.97	18.43	-44.8	-46.0	25.6	6.04e-01	0	44	0	739770368	60	4326
2026-01-25 05:32:34.93	310.24	18.24	-45.0	-46.2	25.4	6.02e-01	0	44	0	745013248	60	4416
2026-01-25 05:32:37.96	309.51	18.04	-45.0	-46.2	25.3	6.03e-01	0	44	0	750780416	60	4437
2026-01-25 05:32:40.98	308.80	17.84	-45.2	-46.5	25.2	6.01e-01	0	44	0	756547584	61	4297
2026-01-25 05:32:44.01	308.10	17.63	-46.2	-47.6	24.3	6.01e-01	0	44	0	762314752	63	4354
2026-01-25 05:32:47.03	307.40	17.43	-45.2	-46.5	25.1	6.03e-01	0	44	0	768081920	62	4052
2026-01-25 05:32:50.05	306.72	17.22	-45.2	-46.5	25.2	6.04e-01	0	44	0	773324800	60	4567
2026-01-25 05:32:53.08	306.05	17.01	-45.0	-46.2	25.4	6.04e-01	0	44	0	779091968	61	4159
2026-01-25 05:32:56.10	305.38	16.80	-44.8	-46.0	25.4	6.02e-01	0	44	0	784859136	60	4330
2026-01-25 05:32:59.13	304.73	16.58	-44.7	-45.9	25.8	6.01e-01	0	44	0	790626304	60	4255
2026-01-25 05:33:02.15	304.08	16.37	-44.7	-45.9	25.7	6.03e-01	0	44	0	796393472	60	4248
2026-01-25 05:33:05.17	303.45	16.15	-44.5	-45.7	25.9	6.01e-01	0	44	0	801636352	60	4147
2026-01-25 05:33:08.20	302.83	15.93	-44.3	-45.4	26.0	6.03e-01	0	44	0	807403520	60	4044
2026-01-25 05:33:11.22	302.21	15.71	-44.4	-45.5	25.9	6.01e-01	0	44	0	813170688	60	4098
2026-01-25 05:33:14.25	301.61	15.49	-45.0	-46.2	25.4	6.02e-01	0	44	0	818937856	60	4424
2026-01-25 05:33:17.27	301.01	15.27	-45.4	-46.7	24.9	6.04e-01	0	44	0	824705024	61	4419
2026-01-25 05:33:20.29	300.43	15.05	-45.6	-46.9	24.7	6.04e-01	0	44	0	829947904	61	4515
2026-01-25 05:33:23.32	299.85	14.83	-45.2	-46.5	25.0	6.03e-01	0	44	0	835715072	61	4318
2026-01-25 05:33:26.34	299.29	14.61	-45.1	-46.3	23.0	6.03e-01	0	44	0	841482240	61	4218
2026-01-25 05:33:29.36	298.73	14.38	-44.6	-45.8	25.6	6.02e-01	0	44	0	847249408	61	3987
2026-01-25 05:33:32.39	298.18	14.16	-44.5	-45.7	25.7	6.03e-01	0	44	0	853016576	60	4174
2026-01-25 05:33:35.41	297.64	13.94	-44.8	-46.0	25.4	6.03e-01	0	44	0	858783744	61	4094
2026-01-25 05:33:38.44	297.11	13.71	-44.3	-45.4	26.0	6.03e-01	0	44	0	864026624	60	4048
2026-01-25 05:33:41.46	296.58	13.49	-44.5	-45.7	25.6	6.03e-01	0	44	0	869793792	60	4164
2026-01-25 05:33:44.49	296.07	13.27	-45.2	-46.5	24.6	6.01e-01	0	44	0	875560960	61	4308
2026-01-25 05:33:47.51	295.56	13.04	-45.0	-46.3	25.2	6.02e-01	0	44	0	881328128	61	4204
2026-01-25 05:33:50.53	295.07	12.82	-45.3	-46.6	25.0	6.01e-01	0	44	0	887095296	61	4359
2026-01-25 05:33:53.55	294.58	12.60	-45.6	-46.9	24.5	6.00e-01	0	44	0	892338176	61	4534
2026-01-25 05:33:56.58	294.10	12.38	-45.4	-46.6	24.9	6.01e-01	0	44	0	898105344	62	4145
2026-01-25 05:33:59.60	293.62	12.15	-45.2	-46.5	24.7	6.02e-01	0	44	0	903872512	62	4054
2026-01-25 05:34:02.63	293.16	11.93	-45.6	-47.0	24.6	6.01e-01	0	44	0	909639680	61	4551
2026-01-25 05:34:05.65	292.70	11.71	-45.7	-47.0	24.5	6.02e-01	0	44	0	915406848	61	4562
2026-01-25 05:34:08.67	292.25	11.49	-44.8	-46.0	25.1	6.01e-01	0	44	0	920649728	61	4098
2026-01-25 05:34:11.70	291.80	11.27	-45.4	-46.7	24.6	6.03e-01	0	44	0	926416896	61	4441
2026-01-25 05:34:14.73	291.37	11.05	-45.4	-46.7	24.4	6.02e-01	0	44	0	932184064	61	4424
2026-01-25 05:34:17.75	290.94	10.83	-45.4	-46.8	24.4	6.01e-01	0	44	0	937951232	61	4442
2026-01-25 05:34:20.78	290.52	10.61	-45.2	-46.5	24.8	6.00e-01	0	44	0	943718400	61	4324
2026-01-25 05:34:23.80	290.10	10.39	-45.3	-46.6	24.6	6.03e-01	0	44	0	948961280	61	4369
2026-01-25 05:34:26.83	289.69	10.18	-45.2	-46.5	24.8	6.00e-01	0	44	0	955252736	61	4316
2026-01-25 05:34:29.85	289.29	9.96	-45.4	-46.8	24.4	6.01e-01	0	44	0	960495616	61	4453
2026-01-25 05:34:32.87	288.90	9.75	-45.2	-46.5	24.6	6.00e-01	0	44	0	966262784	61	4307
2026-01-25 05:34:35.90	288.51	9.53	-45.9	-47.3	24.0	6.01e-01	0	44	0	972029952	62	4472
2026-01-25 05:34:38.92	288.13	9.32	-45.7	-47.0	24.2	6.04e-01	0	44	0	977797120	62	4323
2026-01-25 05:34:41.95	287.75	9.11	-45.8	-47.2	24.0	6.02e-01	0	44	0	983564288	62	4406
2026-01-25 05:34:44.97	287.38	8.90	-45.9	-47.3	23.9	6.01e-01	0	44	0	988807168	62	4461
2026-01-25 05:34:47.99	287.01	8.69	-45.9	-47.2	24.0	6.01e-01	0	44	0	994574336	62	4440
2026-01-25 05:34:51.02	286.65	8.47	-45.8	-47.2	24.0	6.03e-01	0	44	0	1000341504	62	4414
2026-01-25 05:34:54.04	286.30	8.27	-45.8	-47.2	24.0	6.02e-01	0	44	0	1006108672	62	4405
2026-01-25 05:34:57.07	285.95	8.06	-45.8	-47.2	23.7	6.03e-01	0	44	0	1011875840	62	4413
2026-01-25 05:35:00.09	285.61	7.85	-46.0	-47.5	23.7	6.02e-01	0	44	0	1017118720	62	4551
2026-01-25 05:35:03.12	285.27	7.65	-46.2	-47.6	23.7	6.01e-01	0	44	0	1022885888	62	4631
2026-01-25 05:35:06.14	284.94	7.44	-46.1	-47.6	23.6	6.00e-01	0	44	0	1028653056	63	4357
2026-01-25 05:35:09.17	284.62	7.24	-46.1	-47.5	23.8	6.02e-01	0	44	0	1034420224	63	4319
2026-01-25 05:35:12.19	284.30	7.03	-46.1	-47.5	23.7	6.02e-01	0	44	0	1040187392	63	4310
2026-01-25 05:35:15.22	283.98	6.83	-46.3	-47.8	23.4	6.02e-01	0	44	0	1045954560	63	4475
2026-01-25 05:35:18.24	283.67	6.63	-46.5	-48.1	23.1	6.00e-01	0	44	0	1051197440	63	4613
2026-01-25 05:35:21.27	283.36	6.43	-46.6	-48.1	23.0	6.03e-01	0	44	0	1056964608	63	4642
2026-01-25 05:35:24.29	283.06	6.23	-46.3	-47.8	23.4	6.02e-01	0	44	0	1062731776	63	4455
2026-01-25 05:35:27.32	282.76	6.03	-46.4	-47.9	23.2	6.02e-01	0	44	0	1068498944	63	4514
2026-01-25 05:35:30.34	282.47	5.84	-46.7	-48.4	22.7	6.02e-01	0	44	0	1074266112	64	4495
2026-01-25 05:35:33.37	282.18	5.64	-46.6	-48.2	22.8	6.02e-01	0	44	0	1079508992	64	4435
2026-01-25 05:35:36.39	281.90	5.44	-46.5	-48.1	22.9	6.02e-01	0	44	0	1085276160	64	4359
2026-01-25 05:35:39.41	281.62	5.25	-46.7	-48.3	22.6	6.02e-01	0	44	0	1091043328	64	4475
2026-01-25 05:35:42.44	281.34	5.06	-46.8	-48.5	22.4	6.03e-01	0	44	0	1096810496	64	4578
2026-01-25 05:35:45.46	281.07	4.86	-54.7	-72.4	3.8	7.48e-01	0	44	104	1099956224	79	30248
2026-01-25 05:35:48.49	280.80	4.67	-55.1	-72.9	3.8	7.42e-01	0	45	104	1099956224	80	30235
2026-01-25 05:35:51.51	280.54	4.48	-55.4	-73.2	3.8	7.44e-01	0	44	104	1099956224	81	29579
2026-01-25 05:35:54.53	280.28	4.29	-55.6	-73.4	3.8	7.46e-01	0	45	104	1099956224	81	30274
2026-01-25 05:35:57.56	280.02	4.10	-55.8	-73.6	3.8	7.44e-01	0	44	104	1099956224	82	29142
2026-01-25 05:36:00.58	279.77	3.92	-55.8	-73.6	3.8	7.46e-01	0	44	104	1099956224	82	29250
2026-01-25 05:36:03.60	279.52	3.73	-55.7	-73.6	3.8	7.47e-01	0	45	104	1099956224	82	29059
2026-01-25 05:36:06.63	279.28	3.55	-55.7	-73.5	3.8	7.45e-01	0	45	104	1099956224	82	28915
2026-01-25 05:36:09.65	279.03	3.36	-55.6	-73.4	3.8	7.43e-01	0	45	104	1099956224	82	28666
2026-01-25 05:36:12.68	278.80	3.18	-55.5	-73.4	3.8	7.45e-01	0	44	104	1099956224	82	28396
2026-01-25 05:36:15.70	278.56	2.99	-55.5	-73.3	3.8	7.42e-01	0	45	104	1099956224	82	28231
2026-01-25 05:36:18.73	278.33	2.81	-55.4	-73.3	3.8	7.47e-01	0	45	104	1099956224	82	28144
2026-01-25 05:36:21.75	278.10	2.63	-55.4	-73.3	3.8	7.40e-01	0	45	104	1099956224	82	28068
2026-01-25 05:36:24.77	277.88	2.45	-55.4	-73.3	3.8	7.51e-01	0	44	104	1099956224	82	28052
2026-01-25 05:36:27.80	277.65	2.27	-55.4	-73.2	3.8	7.44e-01	0	45	104	1099956224	82	27961
2026-01-25 05:36:30.82	277.43	2.09	-55.4	-73.2	3.8	7.46e-01	0	45	104	1099956224	82	27938

#Closed at: 2026-01-25 05:36:33
#Recorded file [1099 MB]: D:/lorett/data/31041_260125_082519.dat