passes_logs/2026/01/25/R3.2S_Murmansk/R3.2S_Murmansk__20260125_074816_TY-42_rec.log

#Pass ID: 20260125_074816_TY-42
#Satellite: TY-42
#Configuration: TY-42_900M
#almurnet v.1.7.20251203
#Start time: 2026-01-25 07:48:17

#Version: 2.2.20231116
#Station: R3.2S_Murmansk
#Location: 33.079688 lon 68.888172 lat
#TLE: 1 64048U 25103A   26024.92006944  .00008009  00000-0  38191-3 0 09993
#TLE: 2 64048 097.4112 100.1510 0001739 092.3265 306.2865 15.19163302 38320

#Time	Az	El	Level	Level2	SNR	BER	BlckErr	Temp	State	Recorded	gain1	gain2
2026-01-25 07:48:17.72	22.36	2.07	-52.6	-54.7	6.2	0.00e+00	0	51	0	0	77	17741
2026-01-25 07:48:20.73	22.61	2.26	-52.6	-54.7	6.2	0.00e+00	0	51	104	0	76	18729
2026-01-25 07:48:23.76	22.86	2.45	-52.6	-54.7	6.2	0.00e+00	0	51	104	0	76	18769
2026-01-25 07:48:26.79	23.11	2.64	-52.6	-54.7	6.2	0.00e+00	0	51	104	0	76	18702
2026-01-25 07:48:29.81	23.37	2.84	-52.6	-54.7	6.2	0.00e+00	0	51	104	0	76	18681
2026-01-25 07:48:32.84	23.64	3.03	-52.6	-54.7	6.2	0.00e+00	0	51	104	0	76	18705
2026-01-25 07:48:35.86	23.90	3.23	-52.6	-54.7	6.2	0.00e+00	0	52	104	0	76	18687
2026-01-25 07:48:38.89	24.17	3.43	-52.6	-54.7	6.2	0.00e+00	0	52	104	0	76	18689
2026-01-25 07:48:41.91	24.45	3.62	-52.6	-54.7	6.2	0.00e+00	0	52	104	0	76	18739
2026-01-25 07:48:44.94	24.73	3.83	-52.6	-54.7	6.2	0.00e+00	0	52	104	0	76	18699
2026-01-25 07:48:47.97	25.01	4.03	-52.6	-54.7	6.2	0.00e+00	0	52	104	0	76	18683
2026-01-25 07:48:50.99	25.30	4.23	-52.6	-54.7	6.2	0.00e+00	0	52	104	0	76	18679
2026-01-25 07:48:54.01	25.60	4.44	-52.6	-54.7	6.2	0.00e+00	0	53	104	0	76	18683
2026-01-25 07:48:57.04	25.90	4.64	-52.6	-54.7	6.2	0.00e+00	0	53	104	0	76	18666
2026-01-25 07:49:00.07	26.20	4.85	-52.5	-54.7	6.2	0.00e+00	0	53	104	0	76	18645
2026-01-25 07:49:03.10	26.51	5.06	-52.5	-54.7	6.2	0.00e+00	0	53	104	0	76	18683
2026-01-25 07:49:06.12	26.83	5.27	-52.5	-54.7	6.2	0.00e+00	0	53	104	0	76	18721
2026-01-25 07:49:09.14	27.15	5.49	-52.7	-54.8	6.2	0.00e+00	0	53	104	0	76	18940
2026-01-25 07:49:12.16	27.48	5.70	-52.8	-54.9	6.2	0.00e+00	0	53	104	0	76	19150
2026-01-25 07:49:15.19	27.81	5.92	-52.6	-54.7	6.2	0.00e+00	0	53	104	0	76	18812
2026-01-25 07:49:18.21	28.15	6.14	-39.3	-39.2	13.3	5.83e-02	0	55	0	234881024	50	14065
2026-01-25 07:49:21.24	28.49	6.36	-36.2	-36.1	14.1	6.46e-02	0	55	0	587202560	44	13930
2026-01-25 07:49:24.26	28.84	6.58	-35.6	-35.5	14.5	3.14e-02	0	55	0	922746880	43	13777
2026-01-25 07:49:27.28	29.20	6.80	-35.1	-35.0	14.8	1.91e-02	0	56	0	1258291200	42	13757
2026-01-25 07:49:30.31	29.56	7.03	-34.9	-34.8	14.7	1.40e-02	0	56	0	1593835520	41	14220
2026-01-25 07:49:33.33	29.93	7.25	-34.8	-34.7	14.8	8.62e-03	0	56	0	1946157056	41	14077
2026-01-25 07:49:36.36	30.31	7.48	-34.7	-34.6	14.9	7.78e-03	0	56	0	2281701376	41	13828
2026-01-25 07:49:39.38	30.70	7.71	-34.7	-34.7	14.8	7.48e-03	0	56	0	2625634304	41	13953
2026-01-25 07:49:42.40	31.09	7.95	-34.6	-34.5	14.9	8.51e-03	0	56	0	2961178624	41	13757
2026-01-25 07:49:45.43	31.49	8.18	-34.4	-34.3	15.0	7.51e-03	0	56	0	3305111552	40	14121
2026-01-25 07:49:48.45	31.90	8.42	-34.4	-34.3	15.0	6.39e-03	0	57	0	3649044480	40	14125
2026-01-25 07:49:51.48	32.31	8.66	-34.5	-34.4	14.9	5.57e-03	0	57	0	3984588800	40	14431
2026-01-25 07:49:54.50	32.74	8.90	-34.3	-34.2	15.1	5.40e-03	0	57	0	4320133120	40	13989
2026-01-25 07:49:57.52	33.17	9.14	-34.3	-34.2	15.1	5.16e-03	0	57	0	4672454656	40	13984
2026-01-25 07:50:00.54	33.61	9.38	-34.1	-34.1	15.2	4.43e-03	0	57	0	5007998976	40	13805
2026-01-25 07:50:03.57	34.06	9.63	-34.1	-34.0	15.2	4.09e-03	0	57	0	5343543296	40	13710
2026-01-25 07:50:06.59	34.52	9.88	-34.0	-33.9	15.3	3.61e-03	0	57	0	5679087616	39	14380
2026-01-25 07:50:09.62	34.99	10.13	-33.8	-33.7	15.4	3.26e-03	0	57	0	6031409152	39	14111
2026-01-25 07:50:12.64	35.46	10.38	-33.7	-33.6	15.4	3.21e-03	0	58	0	6366953472	39	13917
2026-01-25 07:50:15.67	35.95	10.63	-33.6	-33.5	15.5	2.47e-03	0	58	0	6702497792	39	13756
2026-01-25 07:50:18.69	36.45	10.89	-33.3	-33.2	15.6	2.30e-03	0	58	0	7046430720	38	14044
2026-01-25 07:50:21.72	36.96	11.15	-33.3	-33.2	15.6	1.74e-03	0	58	0	7381975040	38	13974
2026-01-25 07:50:24.74	37.48	11.41	-33.1	-33.0	15.7	1.56e-03	0	58	0	7725907968	38	13689
2026-01-25 07:50:27.76	38.01	11.67	-33.0	-32.9	15.7	1.38e-03	0	58	0	8069840896	37	14285
2026-01-25 07:50:30.78	38.55	11.93	-32.7	-32.6	15.8	1.07e-03	0	59	0	8405385216	37	13921
2026-01-25 07:50:33.81	39.10	12.20	-32.6	-32.5	15.9	8.44e-04	0	58	0	8740929536	37	13776
2026-01-25 07:50:36.83	39.67	12.46	-32.5	-32.4	15.9	7.68e-04	0	59	0	9093251072	37	13565
2026-01-25 07:50:39.85	40.24	12.73	-32.3	-32.2	16.0	5.67e-04	0	59	0	9428795392	36	14048
2026-01-25 07:50:42.88	40.83	13.00	-32.3	-32.2	16.0	5.34e-04	0	59	0	9764339712	36	13962
2026-01-25 07:50:45.90	41.43	13.27	-32.0	-31.9	16.1	4.82e-04	0	59	0	10099884032	36	13579
2026-01-25 07:50:48.92	42.05	13.54	-29.6	-29.5	15.7	5.43e-04	0	59	0	10452205568	31	13653
2026-01-25 07:50:51.95	42.68	13.82	-29.5	-29.4	15.7	1.04e-03	0	59	0	10787749888	31	13572
2026-01-25 07:50:54.98	43.32	14.09	-29.4	-29.3	15.8	1.11e-03	0	59	0	11123294208	30	14172
2026-01-25 07:50:58.00	43.98	14.37	-29.2	-29.1	15.8	1.07e-03	0	59	0	11467227136	30	13916
2026-01-25 07:51:01.02	44.65	14.64	-29.1	-29.0	15.9	1.02e-03	0	59	0	11811160064	30	13747
2026-01-25 07:51:04.05	45.33	14.92	-28.9	-28.9	15.9	6.48e-04	0	59	0	12146704384	29	14285
2026-01-25 07:51:07.07	46.03	15.20	-28.9	-28.8	15.9	6.05e-04	0	59	0	12490637312	29	14227
2026-01-25 07:51:10.10	46.75	15.48	-28.8	-28.7	16.0	4.82e-04	0	59	0	12826181632	29	13972
2026-01-25 07:51:13.12	47.48	15.76	-28.7	-28.6	16.0	4.67e-04	0	60	0	13170114560	29	13846
2026-01-25 07:51:16.14	48.22	16.04	-28.6	-28.5	16.0	4.67e-04	0	59	0	13514047488	29	13677
2026-01-25 07:51:19.17	48.99	16.32	-28.5	-28.4	16.1	4.43e-04	0	60	0	13849591808	29	13596
2026-01-25 07:51:22.20	49.77	16.60	-28.4	-28.3	16.1	3.00e-04	0	59	0	14185136128	28	14237
2026-01-25 07:51:25.22	50.56	16.87	-28.3	-28.2	16.1	3.34e-04	0	59	0	14537457664	28	14103
2026-01-25 07:51:28.25	51.38	17.15	-28.3	-28.2	16.1	3.48e-04	0	59	0	14873001984	28	14012
2026-01-25 07:51:31.27	52.20	17.43	-28.3	-28.2	16.1	3.48e-04	0	60	0	15208546304	28	13976
2026-01-25 07:51:34.30	53.05	17.71	-28.0	-28.0	16.2	3.10e-04	0	60	0	15544090624	28	13641
2026-01-25 07:51:37.32	53.92	17.98	-27.9	-27.9	16.2	3.00e-04	0	60	0	15896412160	27	14278
2026-01-25 07:51:40.34	54.80	18.25	-27.9	-27.8	16.2	3.10e-04	0	60	0	16231956480	27	14141
2026-01-25 07:51:43.37	55.70	18.52	-27.8	-27.7	16.2	2.86e-04	0	60	0	16575889408	27	14045
2026-01-25 07:51:46.39	56.62	18.79	-27.8	-27.7	16.2	2.19e-04	0	60	0	16911433728	27	14055
2026-01-25 07:51:49.42	57.56	19.05	-27.7	-27.6	16.3	1.67e-04	0	60	0	17246978048	27	13822
2026-01-25 07:51:52.44	58.52	19.31	-27.5	-27.4	16.3	1.19e-04	0	60	0	17599299584	26	14321
2026-01-25 07:51:55.46	59.49	19.57	-27.5	-27.4	16.3	1.62e-04	0	60	0	17934843904	26	14402
2026-01-25 07:51:58.49	60.49	19.82	-27.3	-27.2	16.3	1.33e-04	0	60	0	18270388224	26	14078
2026-01-25 07:52:01.51	61.50	20.07	-27.3	-27.2	16.4	1.19e-04	0	60	0	18605932544	26	13998
2026-01-25 07:52:04.53	62.53	20.32	-27.2	-27.1	16.4	8.58e-05	0	60	0	18958254080	26	13807
2026-01-25 07:52:07.56	63.58	20.55	-27.1	-27.0	16.4	1.14e-04	0	60	0	19293798400	26	13788
2026-01-25 07:52:10.58	64.64	20.78	-27.0	-26.9	16.5	7.62e-05	0	60	0	19629342720	26	13527
2026-01-25 07:52:13.60	65.73	21.01	-26.8	-26.7	16.5	5.72e-05	0	60	0	19973275648	25	14054
2026-01-25 07:52:16.63	66.83	21.23	-26.7	-26.6	16.5	4.29e-05	0	60	0	20317208576	25	13825
2026-01-25 07:52:19.65	67.95	21.44	-26.6	-26.5	16.6	1.90e-05	0	60	0	20652752896	25	13695
2026-01-25 07:52:22.68	69.09	21.64	-26.5	-26.4	16.6	9.50e-06	0	60	0	20996685824	25	13575
2026-01-25 07:52:25.70	70.24	21.83	-26.7	-26.6	16.5	3.33e-05	0	60	0	21332230144	25	13858
2026-01-25 07:52:28.73	71.41	22.02	-26.6	-26.5	16.5	7.15e-05	0	60	0	21676163072	25	13704
2026-01-25 07:52:31.75	72.59	22.19	-26.5	-26.4	16.5	3.33e-05	0	60	0	22020096000	25	13500
2026-01-25 07:52:34.78	73.80	22.36	-26.7	-26.6	16.5	4.76e-05	0	60	0	22355640320	25	13844
2026-01-25 07:52:37.81	75.01	22.51	-26.5	-26.4	16.5	4.29e-05	0	60	0	22691184640	25	13563
2026-01-25 07:52:40.84	76.24	22.66	-26.5	-26.4	16.5	8.10e-05	0	60	0	23043506176	24	14425
2026-01-25 07:52:43.86	77.48	22.79	-26.4	-26.3	16.5	3.33e-05	0	60	0	23379050496	24	14192
2026-01-25 07:52:46.89	78.73	22.91	-26.4	-26.3	16.5	3.81e-05	0	60	0	23714594816	24	14267
2026-01-25 07:52:49.92	79.99	23.02	-26.4	-26.3	16.5	6.19e-05	0	60	0	24050139136	24	14213
2026-01-25 07:52:52.94	81.26	23.11	-26.4	-26.3	16.5	2.38e-05	0	60	0	24402460672	24	14173
2026-01-25 07:52:55.97	82.53	23.20	-26.3	-26.2	16.5	4.29e-05	0	60	0	24738004992	24	14055
2026-01-25 07:52:59.00	83.82	23.26	-26.3	-26.2	16.5	3.81e-05	0	60	0	25073549312	24	14094
2026-01-25 07:53:02.02	85.11	23.32	-26.3	-26.1	16.4	3.33e-05	0	60	0	25425870848	24	13942
2026-01-25 07:53:05.04	86.40	23.36	-26.3	-26.2	16.4	3.33e-05	0	60	0	25761415168	24	14088
2026-01-25 07:53:08.06	87.70	23.39	-26.5	-26.4	16.4	3.81e-05	0	60	0	26096959488	24	14307
2026-01-25 07:53:11.09	89.00	23.41	-26.3	-26.2	16.4	3.33e-05	0	60	0	26440892416	24	14073
2026-01-25 07:53:14.12	90.30	23.41	-26.2	-26.1	16.4	4.29e-05	0	60	0	26776436736	24	13887
2026-01-25 07:53:17.14	91.60	23.39	-26.4	-26.2	16.4	5.24e-05	0	60	0	27120369664	24	14102
2026-01-25 07:53:20.16	92.90	23.37	-26.5	-26.4	16.3	6.67e-05	0	60	0	27464302592	24	14286
2026-01-25 07:53:23.19	94.19	23.33	-26.6	-26.4	16.3	3.33e-05	0	60	0	27799846912	24	14437
2026-01-25 07:53:26.21	95.48	23.27	-26.5	-26.4	16.3	7.15e-05	0	60	0	28135391232	24	14362
2026-01-25 07:53:29.24	96.77	23.20	-26.5	-26.4	16.3	8.10e-05	0	60	0	28487712768	24	14412
2026-01-25 07:53:32.26	98.05	23.12	-26.6	-26.4	16.3	7.15e-05	0	60	0	28823257088	24	14438
2026-01-25 07:53:35.29	99.32	23.03	-26.7	-26.6	16.2	1.33e-04	0	60	0	29158801408	24	14632
2026-01-25 07:53:38.31	100.58	22.92	-26.6	-26.5	16.3	1.33e-04	0	60	0	29494345728	24	14470
2026-01-25 07:53:41.34	101.84	22.80	-26.7	-26.6	16.3	8.10e-05	0	60	0	29846667264	24	14610
2026-01-25 07:53:44.36	103.08	22.67	-26.8	-26.7	16.3	4.76e-05	0	60	0	30182211584	24	14795
2026-01-25 07:53:47.38	104.31	22.53	-26.8	-26.7	16.3	9.53e-05	0	60	0	30517755904	24	14783
2026-01-25 07:53:50.40	105.52	22.37	-26.8	-26.7	16.3	9.53e-05	0	60	0	30861688832	24	14877
2026-01-25 07:53:53.43	106.73	22.21	-26.8	-26.6	16.4	4.29e-05	0	60	0	31205621760	24	14766
2026-01-25 07:53:56.46	107.92	22.03	-26.9	-26.8	16.4	9.05e-05	0	60	0	31549554688	24	14995
2026-01-25 07:53:59.48	109.09	21.85	-26.9	-26.8	16.4	1.24e-04	0	60	0	31885099008	24	14964
2026-01-25 07:54:02.50	110.25	21.66	-27.1	-27.0	16.4	6.19e-05	0	60	0	32220643328	24	15298
2026-01-25 07:54:05.53	111.39	21.45	-27.1	-26.9	16.4	3.33e-05	0	60	0	32572964864	24	15294
2026-01-25 07:54:08.55	112.52	21.24	-27.1	-27.0	16.4	8.58e-05	0	60	0	32908509184	24	15432
2026-01-25 07:54:11.58	113.63	21.03	-27.2	-27.1	16.4	1.00e-04	0	60	0	33244053504	25	14737
2026-01-25 07:54:14.61	114.72	20.80	-27.2	-27.1	16.5	1.14e-04	0	60	0	33579597824	25	14667
2026-01-25 07:54:17.63	115.79	20.57	-27.3	-27.2	16.5	1.14e-04	0	60	0	33931919360	25	14887
2026-01-25 07:54:20.66	116.85	20.33	-27.3	-27.2	16.5	7.62e-05	0	60	0	34267463680	25	14872
2026-01-25 07:54:23.68	117.88	20.09	-27.4	-27.3	16.5	1.05e-04	0	60	0	34603008000	25	14993
2026-01-25 07:54:26.70	118.90	19.84	-27.5	-27.4	16.5	1.19e-04	0	60	0	34946940928	25	15169
2026-01-25 07:54:29.73	119.90	19.58	-27.4	-27.3	16.6	1.10e-04	0	60	0	35290873856	25	15075
2026-01-25 07:54:32.75	120.88	19.32	-27.6	-27.5	16.5	1.14e-04	0	60	0	35626418176	25	15323
2026-01-25 07:54:35.78	121.84	19.06	-27.6	-27.5	16.5	1.29e-04	0	60	0	35970351104	25	15452
2026-01-25 07:54:38.80	122.79	18.80	-27.8	-27.7	16.5	1.38e-04	0	60	0	36305895424	26	14786
2026-01-25 07:54:41.82	123.71	18.53	-27.8	-27.7	16.5	1.29e-04	0	60	0	36649828352	26	14909
2026-01-25 07:54:44.85	124.62	18.26	-28.0	-27.9	16.4	1.52e-04	0	60	0	36993761280	26	15197
2026-01-25 07:54:47.87	125.51	17.98	-28.0	-27.9	16.4	1.62e-04	0	60	0	37329305600	26	15277
2026-01-25 07:54:50.89	126.38	17.71	-28.1	-28.0	16.5	2.91e-04	0	60	0	37664849920	26	15427
2026-01-25 07:54:53.91	127.23	17.43	-28.3	-28.2	16.5	2.91e-04	0	60	0	38000394240	27	14790
2026-01-25 07:54:56.94	128.06	17.15	-28.2	-28.1	16.5	2.38e-04	0	60	0	38352715776	27	14734
2026-01-25 07:54:59.97	128.88	16.87	-53.5	-55.6	6.2	3.48e-04	0	59	104	38403047424	77	19655
2026-01-25 07:55:02.99	129.68	16.59	-53.4	-55.6	6.2	3.48e-04	0	58	104	38403047424	77	19550
2026-01-25 07:55:06.01	130.47	16.31	-53.4	-55.5	6.2	3.48e-04	0	59	104	38403047424	77	19398
2026-01-25 07:55:09.04	131.24	16.03	-53.4	-55.5	6.2	3.48e-04	0	58	104	38403047424	77	19405
2026-01-25 07:55:12.06	131.99	15.75	-53.4	-55.5	6.2	1.90e-05	0	58	104	38403047424	77	19423
2026-01-25 07:55:15.09	132.72	15.47	-53.3	-55.4	6.2	1.90e-05	0	58	104	38403047424	77	19182
2026-01-25 07:55:18.11	133.44	15.18	-53.3	-55.4	6.2	1.90e-05	0	58	104	38403047424	77	19239
2026-01-25 07:55:21.13	134.14	14.90	-53.3	-55.4	6.2	1.90e-05	0	58	104	38403047424	77	19231
2026-01-25 07:55:24.16	134.84	14.62	-53.3	-55.4	6.2	0.00e+00	0	58	104	38403047424	77	19178
2026-01-25 07:55:27.18	135.51	14.35	-53.2	-55.3	6.2	0.00e+00	0	57	104	38403047424	77	19031
2026-01-25 07:55:30.20	136.17	14.07	-53.2	-55.3	6.2	0.00e+00	0	58	104	38403047424	77	19015
2026-01-25 07:55:33.23	136.81	13.79	-53.2	-55.4	6.2	0.00e+00	0	58	104	38403047424	77	19048
2026-01-25 07:55:36.25	137.45	13.52	-53.2	-55.3	6.2	0.00e+00	0	58	104	38403047424	77	18989
2026-01-25 07:55:39.28	138.07	13.24	-53.1	-55.3	6.2	0.00e+00	0	58	104	38403047424	77	18845
2026-01-25 07:55:42.30	138.67	12.97	-53.1	-55.3	6.2	0.00e+00	0	57	104	38403047424	77	18854
2026-01-25 07:55:45.32	139.26	12.70	-53.1	-55.3	6.2	0.00e+00	0	57	104	38403047424	77	18824
2026-01-25 07:55:48.35	139.84	12.43	-53.1	-55.3	6.2	0.00e+00	0	57	104	38403047424	77	18821
2026-01-25 07:55:51.37	140.41	12.16	-53.1	-55.2	6.2	0.00e+00	0	57	104	38403047424	77	18734
2026-01-25 07:55:54.40	140.97	11.89	-53.0	-55.2	6.2	0.00e+00	0	57	104	38403047424	77	18708
2026-01-25 07:55:57.43	141.51	11.63	-53.0	-55.2	6.2	0.00e+00	0	57	104	38403047424	77	18729
2026-01-25 07:56:00.45	142.04	11.36	-53.1	-55.2	6.2	0.00e+00	0	57	104	38403047424	77	18676
2026-01-25 07:56:03.48	142.57	11.10	-53.0	-55.2	6.2	0.00e+00	0	57	104	38403047424	77	18677
2026-01-25 07:56:06.50	143.08	10.84	-53.0	-55.1	6.2	0.00e+00	0	57	104	38403047424	77	18556
2026-01-25 07:56:09.52	143.58	10.59	-53.0	-55.1	6.2	0.00e+00	0	57	104	38403047424	77	18526
2026-01-25 07:56:12.55	144.07	10.33	-53.0	-55.1	6.2	0.00e+00	0	57	104	38403047424	77	18568
2026-01-25 07:56:15.57	144.55	10.08	-53.0	-55.1	6.2	0.00e+00	0	57	104	38403047424	77	18534
2026-01-25 07:56:18.60	145.02	9.82	-52.9	-55.1	6.2	0.00e+00	0	57	104	38403047424	77	18430
2026-01-25 07:56:21.62	145.48	9.57	-52.9	-55.0	6.2	0.00e+00	0	57	104	38403047424	77	18345
2026-01-25 07:56:24.65	145.93	9.33	-52.9	-55.0	6.2	0.00e+00	0	57	104	38403047424	77	18366
2026-01-25 07:56:27.68	146.37	9.08	-52.9	-55.0	6.2	0.00e+00	0	57	104	38403047424	77	18382
2026-01-25 07:56:30.71	146.81	8.83	-52.8	-55.0	6.2	0.00e+00	0	57	104	38403047424	77	18201
2026-01-25 07:56:33.73	147.23	8.59	-52.8	-55.0	6.2	0.00e+00	0	57	104	38403047424	77	18200
2026-01-25 07:56:36.76	147.65	8.35	-52.8	-54.9	6.2	0.00e+00	0	57	104	38403047424	77	18125
2026-01-25 07:56:39.78	148.06	8.11	-52.8	-55.0	6.2	0.00e+00	0	57	104	38403047424	77	18244
2026-01-25 07:56:42.80	148.46	7.88	-52.7	-54.9	6.2	0.00e+00	0	57	104	38403047424	77	18001
2026-01-25 07:56:45.83	148.85	7.64	-52.7	-54.8	6.2	0.00e+00	0	57	104	38403047424	77	17953
2026-01-25 07:56:48.85	149.24	7.41	-52.7	-54.8	6.2	0.00e+00	0	57	104	38403047424	77	17859
2026-01-25 07:56:51.88	149.62	7.18	-52.7	-54.8	6.2	0.00e+00	0	57	104	38403047424	77	17957
2026-01-25 07:56:54.90	149.99	6.95	-52.6	-54.7	6.2	0.00e+00	0	56	104	38403047424	77	17681
2026-01-25 07:56:57.93	150.36	6.72	-52.6	-54.7	6.2	0.00e+00	0	56	104	38403047424	77	17760
2026-01-25 07:57:00.95	150.71	6.50	-52.5	-54.7	6.2	0.00e+00	0	57	104	38403047424	77	17624
2026-01-25 07:57:03.98	151.07	6.28	-52.6	-54.8	6.2	0.00e+00	0	57	104	38403047424	77	17820
2026-01-25 07:57:07.00	151.41	6.05	-52.4	-54.6	6.2	0.00e+00	0	56	104	38403047424	76	18396
2026-01-25 07:57:10.03	151.75	5.83	-52.5	-54.6	6.2	0.00e+00	0	57	104	38403047424	76	18505
2026-01-25 07:57:13.05	152.08	5.62	-52.4	-54.5	6.2	0.00e+00	0	57	104	38403047424	76	18253
2026-01-25 07:57:16.08	152.41	5.40	-52.5	-54.6	6.2	0.00e+00	0	57	104	38403047424	76	18483
2026-01-25 07:57:19.11	152.73	5.18	-52.2	-54.3	6.2	0.00e+00	0	56	104	38403047424	76	17853
2026-01-25 07:57:22.13	153.05	4.97	-52.6	-54.7	6.2	0.00e+00	0	56	104	38403047424	76	18690
2026-01-25 07:57:25.16	153.36	4.76	-53.5	-55.6	6.2	0.00e+00	0	57	104	38403047424	77	19703
2026-01-25 07:57:28.18	153.66	4.55	-53.9	-56.1	6.2	0.00e+00	0	56	104	38403047424	78	19547
2026-01-25 07:57:31.21	153.96	4.34	-54.2	-56.4	6.2	0.00e+00	0	56	104	38403047424	78	20172
2026-01-25 07:57:34.24	154.26	4.14	-54.4	-56.5	6.2	0.00e+00	0	57	104	38403047424	79	19478
2026-01-25 07:57:37.26	154.54	3.93	-54.6	-56.7	6.2	0.00e+00	0	56	104	38403047424	79	19872
2026-01-25 07:57:40.29	154.83	3.73	-54.6	-56.7	6.2	0.00e+00	0	57	104	38403047424	79	19884
2026-01-25 07:57:43.31	155.11	3.53	-54.6	-56.7	6.2	0.00e+00	0	56	104	38403047424	79	19823
2026-01-25 07:57:46.34	155.38	3.33	-54.5	-56.6	6.2	0.00e+00	0	56	104	38403047424	79	19631
2026-01-25 07:57:49.36	155.65	3.13	-54.5	-56.6	6.2	0.00e+00	0	56	104	38403047424	79	19549
2026-01-25 07:57:52.39	155.92	2.93	-54.4	-56.6	6.2	0.00e+00	0	56	104	38403047424	79	19499
2026-01-25 07:57:55.42	156.18	2.73	-54.4	-56.5	6.2	0.00e+00	0	57	104	38403047424	79	19476
2026-01-25 07:57:58.44	156.44	2.54	-54.4	-56.5	6.2	0.00e+00	0	57	104	38403047424	79	19433
2026-01-25 07:58:01.47	156.70	2.34	-54.4	-56.5	6.2	0.00e+00	0	56	104	38403047424	79	19422
2026-01-25 07:58:04.50	156.95	2.15	-54.4	-56.5	6.2	0.00e+00	0	56	104	38403047424	79	19416
2026-01-25 07:58:07.52	157.19	1.96	-54.4	-56.5	6.2	0.00e+00	0	56	104	38403047424	79	19352

#Closed at: 2026-01-25 07:58:07
#Recorded file [38403 MB]: D:/lorett/data/31041_260125_104817.dat