passes_logs/2026/01/25/R3.2S_Murmansk/R3.2S_Murmansk__20260125_021040_AQUA_rec.log

#Pass ID: 20260125_021040_AQUA
#Satellite: AQUA
#Configuration: AQUA
#almurnet v.1.7.20251203
#Start time: 2026-01-25 02:10:42

#Version: 2.2.20231116
#Station: R3.2S_Murmansk
#Location: 33.079688 lon 68.888172 lat
#TLE: 1 27424U 02022A   26024.53919639  .00001970  00000+0  40397-3 0  9996
#TLE: 2 27424  98.4098 351.1277 0001915  66.8561 358.4840 14.61855303262281

#Time	Az	El	Level	Level2	SNR	BER	BlckErr	Temp	State	Recorded	gain1	gain2
2026-01-25 02:10:42.41	23.17	2.11	-53.7	-71.3	3.8	7.46e-01	0	42	0	0	78	28318
2026-01-25 02:10:45.42	23.20	2.31	-53.6	-70.9	3.8	7.45e-01	0	42	104	0	77	28614
2026-01-25 02:10:48.45	23.23	2.51	-53.6	-70.4	3.8	7.44e-01	0	42	104	0	77	26810
2026-01-25 02:10:51.48	23.26	2.72	-53.6	-70.5	3.8	7.48e-01	0	42	104	0	77	27351
2026-01-25 02:10:54.51	23.29	2.93	-53.6	-70.8	3.8	7.44e-01	0	42	104	0	77	28174
2026-01-25 02:10:57.53	23.32	3.13	-53.6	-70.8	3.8	7.45e-01	0	42	104	0	77	28229
2026-01-25 02:11:00.56	23.35	3.34	-53.5	-70.5	3.8	7.46e-01	0	42	104	0	77	27119
2026-01-25 02:11:03.58	23.38	3.55	-53.3	-69.8	3.8	7.46e-01	0	42	104	0	77	25238
2026-01-25 02:11:06.61	23.41	3.77	-52.2	-66.5	3.9	7.41e-01	0	42	104	0	76	18245
2026-01-25 02:11:09.63	23.44	3.98	-49.9	-62.1	3.8	7.45e-01	0	42	104	0	71	14624
2026-01-25 02:11:12.66	23.47	4.20	-47.9	-59.3	3.8	7.43e-01	0	42	104	0	67	13319
2026-01-25 02:11:15.69	23.50	4.42	-46.9	-58.0	3.8	7.43e-01	0	42	104	0	65	12958
2026-01-25 02:11:18.71	23.53	4.64	-46.8	-58.0	3.8	7.46e-01	0	42	104	0	64	13642
2026-01-25 02:11:21.74	23.56	4.86	-48.2	-59.7	3.8	7.40e-01	0	42	104	0	66	14829
2026-01-25 02:11:24.77	23.60	5.09	-46.8	-58.0	3.8	7.45e-01	0	43	104	0	65	12817
2026-01-25 02:11:27.79	23.63	5.32	-47.4	-58.5	3.9	7.45e-01	0	42	104	0	66	12841
2026-01-25 02:11:30.82	23.66	5.55	-46.5	-57.6	3.8	7.45e-01	0	42	104	0	64	13097
2026-01-25 02:11:33.84	23.69	5.78	-46.3	-57.3	3.8	7.47e-01	0	42	104	0	64	12630
2026-01-25 02:11:36.87	23.73	6.01	-49.1	-60.8	3.8	7.46e-01	0	42	104	0	68	15025
2026-01-25 02:11:39.89	23.76	6.25	-46.1	-57.2	3.8	7.44e-01	0	43	104	0	64	12460
2026-01-25 02:11:42.92	23.79	6.49	-53.7	-70.4	3.8	7.45e-01	0	43	104	0	77	27005
2026-01-25 02:11:45.94	23.83	6.73	-46.0	-57.1	3.8	7.44e-01	0	43	104	0	64	12240
2026-01-25 02:11:48.97	23.86	6.97	-48.2	-59.6	3.8	7.43e-01	0	43	104	0	66	14663
2026-01-25 02:11:52.00	23.90	7.22	-47.5	-58.7	3.8	7.42e-01	0	43	104	0	67	12445
2026-01-25 02:11:55.02	23.93	7.47	-46.1	-57.1	3.8	7.47e-01	0	43	104	0	63	13093
2026-01-25 02:11:58.05	23.97	7.72	-46.1	-57.2	3.8	7.46e-01	0	43	104	0	63	13134
2026-01-25 02:12:01.08	24.01	7.97	-49.6	-61.4	3.8	7.44e-01	0	43	104	0	69	15120
2026-01-25 02:12:04.10	24.04	8.23	-45.7	-56.6	3.9	7.43e-01	0	43	104	0	63	12329
2026-01-25 02:12:07.13	24.08	8.49	-53.9	-71.0	3.8	7.44e-01	0	43	104	0	78	27184
2026-01-25 02:12:10.16	24.12	8.76	-45.6	-56.5	3.8	7.42e-01	0	43	104	0	63	12104
2026-01-25 02:12:13.19	24.16	9.02	-47.2	-58.4	3.8	7.45e-01	0	43	104	0	65	13543
2026-01-25 02:12:16.21	24.19	9.29	-46.4	-57.1	3.9	7.44e-01	0	43	104	0	64	12316
2026-01-25 02:12:19.23	24.23	9.56	-45.3	-56.2	3.8	7.47e-01	0	43	104	0	62	12441
2026-01-25 02:12:22.25	24.27	9.84	-45.3	-56.1	3.8	7.44e-01	0	43	104	0	62	12343
2026-01-25 02:12:25.28	24.31	10.12	-48.4	-59.9	3.8	7.43e-01	0	43	104	0	68	13431
2026-01-25 02:12:28.31	24.35	10.41	-45.1	-55.9	3.9	7.45e-01	0	43	104	0	62	12094
2026-01-25 02:12:31.33	24.40	10.69	-53.4	-68.9	3.9	7.42e-01	0	43	104	0	78	21362
2026-01-25 02:12:34.36	24.44	10.98	-45.2	-56.1	3.8	7.45e-01	0	43	104	0	62	12329
2026-01-25 02:12:37.38	24.48	11.28	-46.8	-57.9	3.8	7.45e-01	0	43	104	0	65	12783
2026-01-25 02:12:40.41	24.52	11.58	-45.3	-56.2	3.9	7.43e-01	0	43	104	0	62	12434
2026-01-25 02:12:43.43	24.57	11.88	-44.9	-55.7	3.8	7.44e-01	0	43	104	0	61	12423
2026-01-25 02:12:46.45	24.61	12.19	-46.3	-57.2	3.8	7.46e-01	0	43	104	0	62	13963
2026-01-25 02:12:49.48	24.66	12.50	-47.1	-58.3	3.9	7.42e-01	0	43	104	0	66	12533
2026-01-25 02:12:52.51	24.70	12.82	-45.2	-56.0	3.8	7.45e-01	0	43	104	0	61	12932
2026-01-25 02:12:55.53	24.75	13.14	-48.5	-60.0	3.9	7.43e-01	0	43	104	0	69	12860
2026-01-25 02:12:58.56	24.80	13.46	-44.5	-55.3	3.8	7.40e-01	0	43	104	0	61	11830
2026-01-25 02:13:01.58	24.85	13.79	-44.6	-55.4	3.8	7.45e-01	0	43	104	0	61	11986
2026-01-25 02:13:04.61	24.90	14.13	-45.7	-56.6	3.8	7.43e-01	0	43	104	0	61	13787
2026-01-25 02:13:07.64	24.95	14.47	-44.4	-55.1	3.8	7.45e-01	0	43	104	0	60	12355
2026-01-25 02:13:10.66	25.00	14.81	-51.1	-63.5	3.8	7.44e-01	0	43	104	0	72	16206
2026-01-25 02:13:13.69	25.05	15.17	-45.1	-56.0	3.8	7.41e-01	0	43	104	0	62	12169
2026-01-25 02:13:16.71	25.10	15.52	-47.2	-58.2	3.9	7.45e-01	0	43	104	0	64	14027
2026-01-25 02:13:19.74	25.16	15.89	-46.0	-56.8	3.8	7.48e-01	0	43	104	0	63	12531
2026-01-25 02:13:22.76	25.21	16.26	-44.3	-55.0	3.8	7.42e-01	0	43	104	0	60	12207
2026-01-25 02:13:25.79	25.27	16.63	-44.6	-55.4	3.8	7.40e-01	0	43	104	0	60	12678
2026-01-25 02:13:28.81	25.33	17.01	-47.8	-59.2	3.8	7.44e-01	0	43	104	0	66	14020
2026-01-25 02:13:31.83	25.38	17.40	-44.1	-54.8	3.8	7.47e-01	0	43	104	0	60	11916
2026-01-25 02:13:34.86	25.45	17.80	-54.1	-69.7	3.7	7.45e-01	0	43	104	0	78	23512
2026-01-25 02:13:37.89	25.51	18.20	-44.5	-55.3	3.8	7.44e-01	0	43	104	0	61	11890
2026-01-25 02:13:40.91	25.57	18.61	-46.4	-57.3	3.8	7.42e-01	0	43	104	0	63	13363
2026-01-25 02:13:43.94	25.63	19.03	-46.4	-57.3	3.8	7.40e-01	0	43	104	0	64	12650
2026-01-25 02:13:46.96	25.70	19.45	-44.3	-55.1	3.8	7.47e-01	0	44	104	0	60	12240
2026-01-25 02:13:49.99	25.77	19.89	-45.2	-56.1	3.8	7.46e-01	0	43	104	0	62	12237
2026-01-25 02:13:53.01	25.84	20.33	-48.8	-60.3	3.9	7.46e-01	0	43	104	0	68	14100
2026-01-25 02:13:56.03	25.91	20.78	-44.3	-55.1	3.8	7.42e-01	0	43	104	0	60	12235
2026-01-25 02:13:59.06	25.98	21.24	-54.5	-71.1	3.8	7.43e-01	0	44	104	0	79	26046
2026-01-25 02:14:02.09	26.05	21.71	-45.3	-56.1	3.9	7.41e-01	0	43	104	0	62	12339
2026-01-25 02:14:05.11	26.13	22.19	-48.2	-59.5	3.8	7.45e-01	0	43	104	0	67	13634
2026-01-25 02:14:08.14	26.21	22.68	-46.6	-57.6	3.8	7.44e-01	0	44	104	0	65	12277
2026-01-25 02:14:11.16	26.29	23.17	-45.0	-55.7	3.8	7.43e-01	0	44	104	0	61	12503
2026-01-25 02:14:14.19	26.37	23.68	-45.2	-56.0	3.8	7.45e-01	0	43	104	0	62	12181
2026-01-25 02:14:17.21	26.46	24.20	-49.1	-60.6	3.8	7.41e-01	0	44	104	0	70	13049
2026-01-25 02:14:20.23	26.55	24.73	-44.8	-55.6	3.8	7.44e-01	0	43	104	0	61	12245
2026-01-25 02:14:23.26	26.64	25.28	-54.3	-70.5	3.9	7.44e-01	0	44	104	0	79	24225
2026-01-25 02:14:26.29	26.73	25.84	-45.2	-56.0	3.8	7.46e-01	0	44	104	0	62	12139
2026-01-25 02:14:29.31	26.83	26.41	-45.9	-56.8	3.9	7.43e-01	0	44	104	0	63	12548
2026-01-25 02:14:32.34	26.93	26.99	-45.1	-55.9	3.9	7.41e-01	0	43	104	0	62	11973
2026-01-25 02:14:35.36	27.03	27.58	-44.4	-55.2	3.8	7.44e-01	0	43	104	0	60	12403
2026-01-25 02:14:38.38	27.14	28.19	-44.3	-55.1	3.8	7.47e-01	0	43	104	0	60	12239
2026-01-25 02:14:41.41	27.25	28.82	-46.5	-57.5	3.8	7.44e-01	0	43	104	0	65	12232
2026-01-25 02:14:44.44	27.37	29.46	-44.4	-55.1	3.8	7.46e-01	0	43	104	0	60	12286
2026-01-25 02:14:47.46	27.49	30.12	-50.4	-62.4	3.9	7.42e-01	0	44	104	0	73	13549
2026-01-25 02:14:50.49	27.61	30.79	-44.3	-55.0	3.8	7.42e-01	0	43	104	0	60	12156
2026-01-25 02:14:53.51	27.74	31.48	-45.9	-56.7	3.9	7.46e-01	0	43	104	0	63	12519
2026-01-25 02:14:56.53	27.87	32.18	-44.7	-55.3	3.8	7.47e-01	0	44	104	0	60	12655
2026-01-25 02:14:59.56	28.01	32.91	-44.9	-55.6	3.8	7.48e-01	0	44	104	0	61	12302
2026-01-25 02:15:02.59	28.16	33.66	-47.7	-58.7	3.8	7.45e-01	0	44	104	0	65	13938
2026-01-25 02:15:05.61	28.31	34.42	-45.8	-56.6	3.8	7.45e-01	0	44	104	0	63	12333
2026-01-25 02:15:08.64	28.47	35.21	-46.0	-56.8	3.8	7.45e-01	0	43	104	0	62	13363
2026-01-25 02:15:11.67	28.64	36.01	-48.3	-59.6	3.8	7.44e-01	0	44	104	0	68	12965
2026-01-25 02:15:14.70	28.82	36.84	-46.1	-57.0	3.8	7.44e-01	0	43	104	0	63	12825
2026-01-25 02:15:17.73	29.00	37.69	-47.6	-58.7	3.8	7.45e-01	0	44	104	0	67	12445
2026-01-25 02:15:20.75	29.19	38.57	-49.5	-61.0	3.8	7.43e-01	0	44	104	0	69	14476
2026-01-25 02:15:23.78	29.40	39.47	-46.6	-57.4	3.8	7.47e-01	0	44	104	0	65	12058
2026-01-25 02:15:26.80	29.61	40.39	-53.1	-66.5	3.8	7.49e-01	0	44	104	0	76	18235
2026-01-25 02:15:29.83	29.84	41.34	-45.8	-56.6	3.8	7.48e-01	0	44	104	0	63	12359
2026-01-25 02:15:32.85	30.08	42.31	-48.4	-59.6	3.8	7.45e-01	0	44	104	0	67	13732
2026-01-25 02:15:35.88	30.34	43.31	-47.9	-58.9	3.8	7.45e-01	0	43	104	0	66	13499
2026-01-25 02:15:38.90	30.61	44.34	-44.5	-55.2	3.8	7.43e-01	0	44	104	0	61	11799
2026-01-25 02:15:41.92	30.90	45.39	-46.2	-57.2	3.8	7.45e-01	0	44	104	0	63	13185
2026-01-25 02:15:44.95	31.21	46.48	-50.0	-61.6	3.8	7.43e-01	0	44	104	0	70	14598
2026-01-25 02:15:47.98	31.54	47.60	-44.6	-55.3	3.8	7.48e-01	0	44	104	0	61	11874
2026-01-25 02:15:51.00	31.90	48.75	-54.4	-69.4	3.8	7.45e-01	0	43	104	0	79	21295
2026-01-25 02:15:54.03	32.28	49.93	-44.5	-55.2	3.8	7.43e-01	0	44	104	0	61	11802
2026-01-25 02:15:57.06	32.69	51.14	-48.3	-59.5	3.8	7.46e-01	0	44	104	0	67	13637
2026-01-25 02:16:00.08	33.14	52.38	-48.1	-59.4	3.8	7.44e-01	0	44	104	0	67	13459
2026-01-25 02:16:03.11	33.63	53.66	-43.5	-44.5	25.1	6.02e-01	0	44	0	0	58	4083
2026-01-25 02:16:06.13	34.16	54.96	-43.6	-44.7	27.2	6.04e-01	0	44	0	5767168	58	4174
2026-01-25 02:16:09.16	34.75	56.30	-44.2	-45.3	26.7	6.04e-01	0	44	0	11534336	58	4482
2026-01-25 02:16:12.18	35.39	57.67	-44.9	-46.1	26.1	6.02e-01	0	44	0	17301504	60	4359
2026-01-25 02:16:15.21	36.10	59.07	-45.3	-46.5	25.7	6.02e-01	0	44	0	22544384	61	4303
2026-01-25 02:16:18.23	36.89	60.50	-45.8	-47.0	25.3	6.02e-01	0	44	0	28311552	62	4325
2026-01-25 02:16:21.25	37.77	61.96	-46.3	-47.7	24.7	6.00e-01	0	44	0	34078720	63	4394
2026-01-25 02:16:24.28	38.77	63.44	-47.2	-48.6	23.7	6.01e-01	0	44	0	39845888	64	4650
2026-01-25 02:16:27.30	39.90	64.95	-48.1	-49.7	22.7	6.00e-01	0	44	0	45613056	66	4676
2026-01-25 02:16:30.33	41.20	66.49	-48.5	-50.3	22.0	6.03e-01	0	44	0	51380224	68	4447
2026-01-25 02:16:33.35	42.69	68.03	-49.2	-51.2	21.1	5.98e-01	0	44	0	56623104	69	4658
2026-01-25 02:16:36.37	44.43	69.59	-49.2	-51.2	21.1	6.01e-01	0	44	0	62390272	69	4657
2026-01-25 02:16:39.40	46.48	71.17	-48.8	-50.7	21.6	5.99e-01	0	43	0	68157440	69	4410
2026-01-25 02:16:42.42	48.93	72.73	-47.9	-49.5	22.8	6.00e-01	0	44	0	73924608	67	4318
2026-01-25 02:16:45.45	51.90	74.29	-47.4	-49.0	23.3	6.03e-01	0	44	0	79691776	66	4296
2026-01-25 02:16:48.47	55.53	75.81	-46.7	-48.1	24.1	6.00e-01	0	44	0	84934656	65	4109
2026-01-25 02:16:51.49	60.04	77.28	-46.7	-48.1	24.1	6.01e-01	0	44	0	90701824	65	4127
2026-01-25 02:16:54.52	65.76	78.67	-46.2	-47.6	24.6	6.00e-01	0	44	0	96468992	64	4108
2026-01-25 02:16:57.54	73.00	79.93	-45.6	-46.9	25.4	6.04e-01	0	44	0	102236160	63	4007
2026-01-25 02:17:00.56	82.16	81.00	-44.6	-45.8	26.3	6.04e-01	0	44	0	108003328	61	3962
2026-01-25 02:17:03.59	93.48	81.79	-44.9	-46.1	26.0	6.02e-01	0	44	0	113246208	60	4357
2026-01-25 02:17:06.61	106.57	82.21	-45.1	-46.3	25.8	5.98e-01	0	44	0	119013376	60	4490
2026-01-25 02:17:09.64	120.40	82.19	-45.1	-46.3	25.8	6.01e-01	0	44	0	124780544	61	4239
2026-01-25 02:17:12.66	133.38	81.74	-44.9	-46.1	26.0	6.04e-01	0	44	0	130547712	61	4134
2026-01-25 02:17:15.68	144.52	80.93	-44.7	-45.8	26.3	6.03e-01	0	44	0	136314880	60	4229
2026-01-25 02:17:18.71	153.57	79.85	-45.6	-46.8	25.3	6.00e-01	0	43	0	142082048	61	4466
2026-01-25 02:17:21.73	160.69	78.58	-45.7	-46.9	25.3	6.00e-01	0	44	0	147324928	62	4282
2026-01-25 02:17:24.76	166.31	77.17	-46.1	-47.4	24.8	6.02e-01	0	44	0	153092096	63	4258
2026-01-25 02:17:27.79	170.76	75.69	-46.8	-48.2	23.9	6.05e-01	0	44	0	158859264	64	4410
2026-01-25 02:17:30.81	174.34	74.16	-47.0	-48.4	23.9	5.99e-01	0	44	0	164626432	64	4538
2026-01-25 02:17:33.83	177.25	72.61	-47.3	-48.8	23.5	6.04e-01	0	44	0	170393600	65	4446
2026-01-25 02:17:36.86	179.67	71.04	-47.2	-48.7	23.5	6.00e-01	0	44	0	175636480	66	4164
2026-01-25 02:17:39.89	181.70	69.46	-47.6	-49.2	23.2	5.99e-01	0	44	0	181403648	66	4394
2026-01-25 02:17:42.91	183.42	67.90	-48.5	-50.2	21.9	6.04e-01	0	43	0	187170816	67	4695
2026-01-25 02:17:45.93	184.90	66.35	-47.3	-48.7	23.6	6.03e-01	0	44	0	192937984	66	4171
2026-01-25 02:17:48.96	186.18	64.82	-46.6	-47.9	24.2	5.99e-01	0	44	0	198705152	65	4037
2026-01-25 02:17:51.98	187.30	63.31	-46.0	-47.3	24.8	6.01e-01	0	44	0	203948032	63	4224
2026-01-25 02:17:55.01	188.29	61.82	-46.1	-47.4	24.9	6.01e-01	0	44	0	210239488	63	4270
2026-01-25 02:17:58.04	189.17	60.36	-45.4	-46.6	25.6	6.03e-01	0	44	0	215482368	62	4117
2026-01-25 02:18:01.06	189.95	58.93	-45.3	-46.5	25.7	6.00e-01	0	44	0	221249536	61	4321
2026-01-25 02:18:04.09	190.65	57.52	-44.9	-46.0	26.1	6.02e-01	0	44	0	227016704	61	4088
2026-01-25 02:18:07.11	191.29	56.16	-44.0	-45.1	26.9	6.05e-01	0	44	0	232783872	60	3888
2026-01-25 02:18:10.13	191.87	54.82	-44.0	-45.1	26.7	6.00e-01	0	44	0	238551040	59	4111
2026-01-25 02:18:13.16	192.40	53.51	-43.7	-44.7	27.1	6.01e-01	0	44	0	243793920	59	3954
2026-01-25 02:18:16.18	192.88	52.24	-43.8	-44.9	26.9	6.04e-01	0	44	0	249561088	59	4023
2026-01-25 02:18:19.21	193.33	50.99	-44.6	-45.8	26.2	5.98e-01	0	44	0	255328256	59	4442
2026-01-25 02:18:22.23	193.74	49.79	-44.6	-45.7	26.1	6.04e-01	0	44	0	261095424	59	4433
2026-01-25 02:18:25.25	194.12	48.61	-44.6	-45.8	26.2	6.02e-01	0	44	0	266862592	60	4200
2026-01-25 02:18:28.28	194.47	47.46	-44.4	-45.5	26.5	6.02e-01	0	44	0	272105472	60	4085
2026-01-25 02:18:31.30	194.80	46.34	-44.7	-45.9	26.1	6.02e-01	0	44	0	277872640	60	4253
2026-01-25 02:18:34.33	195.11	45.25	-44.8	-46.0	25.8	6.01e-01	0	44	0	283639808	60	4313
2026-01-25 02:18:37.35	195.39	44.20	-44.6	-45.8	26.1	6.01e-01	0	44	0	289406976	60	4206
2026-01-25 02:18:40.38	195.66	43.17	-44.7	-45.9	25.9	6.03e-01	0	44	0	295174144	60	4260
2026-01-25 02:18:43.40	195.92	42.17	-44.6	-45.7	26.2	6.01e-01	0	43	0	300417024	60	4174
2026-01-25 02:18:46.42	196.16	41.19	-45.3	-46.5	25.4	6.01e-01	0	44	0	306184192	61	4335
2026-01-25 02:18:49.45	196.38	40.24	-45.3	-46.5	25.4	6.02e-01	0	44	0	311951360	61	4310
2026-01-25 02:18:52.47	196.60	39.32	-45.8	-47.1	24.8	6.01e-01	0	44	0	317718528	62	4382
2026-01-25 02:18:55.50	196.80	38.42	-45.6	-46.8	25.0	6.04e-01	0	43	0	323485696	62	4242
2026-01-25 02:18:58.53	196.99	37.55	-45.2	-46.5	25.4	6.02e-01	0	44	0	329252864	62	4066
2026-01-25 02:19:01.55	197.18	36.70	-44.9	-46.0	25.7	6.03e-01	0	43	0	334495744	61	4084
2026-01-25 02:19:04.58	197.35	35.87	-44.7	-45.9	25.9	5.99e-01	0	43	0	340262912	61	4021
2026-01-25 02:19:07.60	197.52	35.06	-44.5	-45.7	26.2	6.01e-01	0	44	0	346030080	61	3927
2026-01-25 02:19:10.63	197.67	34.28	-44.0	-45.1	26.7	6.02e-01	0	43	0	351797248	60	3910
2026-01-25 02:19:13.65	197.83	33.51	-44.1	-45.2	26.4	6.03e-01	0	44	0	357564416	59	4165
2026-01-25 02:19:16.68	197.97	32.77	-43.6	-44.8	26.8	6.01e-01	0	44	0	362807296	59	3959
2026-01-25 02:19:19.70	198.11	32.04	-43.4	-44.5	26.9	6.03e-01	0	44	0	368574464	58	4086
2026-01-25 02:19:22.73	198.24	31.33	-43.4	-44.5	27.0	6.05e-01	0	44	0	374341632	58	4058
2026-01-25 02:19:25.75	198.37	30.65	-43.7	-44.8	26.7	6.02e-01	0	43	0	380108800	58	4228
2026-01-25 02:19:28.78	198.49	29.97	-43.5	-44.6	26.9	6.06e-01	0	44	0	385875968	58	4137
2026-01-25 02:19:31.80	198.61	29.32	-43.8	-44.9	26.6	6.02e-01	0	44	0	391118848	58	4259
2026-01-25 02:19:34.83	198.73	28.67	-43.9	-45.1	26.4	6.02e-01	0	44	0	396886016	58	4360
2026-01-25 02:19:37.85	198.84	28.05	-43.8	-44.9	26.5	6.01e-01	0	44	0	402653184	58	4284
2026-01-25 02:19:40.87	198.94	27.44	-43.8	-44.9	26.5	6.02e-01	0	44	0	408420352	58	4265
2026-01-25 02:19:43.90	199.05	26.84	-43.8	-44.9	26.5	6.03e-01	0	44	0	414187520	58	4282
2026-01-25 02:19:46.93	199.14	26.26	-44.0	-45.1	26.3	6.01e-01	0	44	0	419954688	58	4372
2026-01-25 02:19:49.95	199.24	25.69	-44.2	-45.3	25.3	6.00e-01	0	44	0	425197568	59	4230
2026-01-25 02:19:52.98	199.33	25.13	-44.5	-45.7	25.9	5.99e-01	0	44	0	430964736	59	4402
2026-01-25 02:19:56.00	199.42	24.59	-44.6	-45.8	25.7	6.03e-01	0	44	0	436731904	59	4442
2026-01-25 02:19:59.03	199.51	24.06	-44.7	-45.9	25.7	6.02e-01	0	44	0	442499072	60	4272
2026-01-25 02:20:02.05	199.59	23.54	-44.6	-45.8	25.8	6.01e-01	0	44	0	448266240	60	4200
2026-01-25 02:20:05.08	199.68	23.03	-44.5	-45.7	25.8	6.01e-01	0	44	0	453509120	60	4156
2026-01-25 02:20:08.11	199.76	22.53	-44.4	-45.6	25.9	6.01e-01	0	44	0	459276288	60	4115
2026-01-25 02:20:11.13	199.83	22.04	-44.1	-45.3	26.1	6.03e-01	0	44	0	465043456	60	3983
2026-01-25 02:20:14.16	199.91	21.56	-44.1	-45.2	26.2	6.01e-01	0	44	0	470810624	60	3931
2026-01-25 02:20:17.18	199.98	21.09	-44.1	-45.2	26.2	6.00e-01	0	44	0	476577792	59	4173
2026-01-25 02:20:20.21	200.05	20.63	-44.1	-45.2	26.2	6.04e-01	0	44	0	482344960	59	4171
2026-01-25 02:20:23.24	200.12	20.18	-44.1	-45.2	26.1	5.97e-01	0	44	0	488112128	59	4180
2026-01-25 02:20:26.26	200.19	19.74	-53.2	-59.0	12.7	6.07e-01	0	44	0	493355008	77	7271
2026-01-25 02:20:29.29	200.26	19.30	-51.3	-54.6	17.1	6.02e-01	0	44	0	499122176	74	5182
2026-01-25 02:20:32.31	200.32	18.88	-48.8	-50.8	20.7	6.00e-01	0	44	0	504889344	69	4491
2026-01-25 02:20:35.33	200.38	18.46	-46.4	-47.8	23.8	6.02e-01	0	44	0	510656512	63	4464
2026-01-25 02:20:38.36	200.45	18.05	-44.6	-45.8	25.6	6.03e-01	0	44	0	516423680	61	3993
2026-01-25 02:20:41.38	200.51	17.65	-44.2	-45.4	26.0	6.03e-01	0	44	0	521666560	60	4005
2026-01-25 02:20:44.41	200.57	17.25	-44.3	-45.5	25.9	6.02e-01	0	44	0	527433728	60	4058
2026-01-25 02:20:47.43	200.62	16.86	-44.2	-45.5	25.9	6.05e-01	0	43	0	533200896	60	4052
2026-01-25 02:20:50.45	200.68	16.48	-44.3	-45.5	25.9	6.00e-01	0	44	0	538968064	60	4058
2026-01-25 02:20:53.48	200.73	16.10	-44.2	-45.4	25.9	6.04e-01	0	44	0	544735232	60	4045
2026-01-25 02:20:56.51	200.79	15.73	-44.3	-45.5	25.8	6.01e-01	0	44	0	550502400	60	4086
2026-01-25 02:20:59.54	200.84	15.37	-44.2	-45.4	25.7	6.02e-01	0	44	0	555745280	60	4049
2026-01-25 02:21:02.56	200.89	15.01	-44.2	-45.4	25.8	6.03e-01	0	44	0	561512448	60	4005
2026-01-25 02:21:05.58	200.94	14.66	-44.1	-45.3	25.9	6.01e-01	0	43	0	567279616	60	3965
2026-01-25 02:21:08.61	200.99	14.32	-44.1	-45.3	25.8	6.05e-01	0	44	0	573046784	59	4218
2026-01-25 02:21:11.63	201.04	13.98	-44.0	-45.2	25.8	6.02e-01	0	44	0	578813952	59	4174
2026-01-25 02:21:14.66	201.09	13.64	-43.9	-45.1	26.0	6.01e-01	0	43	0	584056832	59	4099
2026-01-25 02:21:17.69	201.14	13.31	-43.9	-45.1	26.0	6.04e-01	0	44	0	589824000	59	4099
2026-01-25 02:21:20.71	201.18	12.98	-43.9	-45.0	26.1	6.02e-01	0	44	0	595591168	59	4088
2026-01-25 02:21:23.73	201.23	12.66	-43.8	-45.0	26.1	6.02e-01	0	44	0	601358336	59	4063
2026-01-25 02:21:26.76	201.27	12.35	-43.9	-45.1	26.0	6.02e-01	0	44	0	607125504	59	4103
2026-01-25 02:21:29.78	201.32	12.03	-44.1	-45.3	25.8	6.03e-01	0	44	0	612368384	59	4214
2026-01-25 02:21:32.80	201.36	11.73	-44.2	-45.4	25.7	6.01e-01	0	44	0	618135552	59	4273
2026-01-25 02:21:35.83	201.40	11.42	-44.1	-45.3	25.7	6.01e-01	0	43	0	623902720	59	4225
2026-01-25 02:21:38.85	201.44	11.13	-44.2	-45.4	25.6	6.02e-01	0	44	0	629669888	59	4284
2026-01-25 02:21:41.88	201.48	10.83	-44.3	-45.5	25.6	6.00e-01	0	44	0	635437056	59	4311
2026-01-25 02:21:44.91	201.52	10.54	-44.4	-45.7	25.4	6.01e-01	0	44	0	641204224	59	4393
2026-01-25 02:21:47.94	201.56	10.25	-44.5	-45.7	25.3	6.01e-01	0	44	0	646447104	59	4440
2026-01-25 02:21:50.96	201.60	9.97	-44.5	-45.7	25.3	6.01e-01	0	44	0	652214272	59	4420
2026-01-25 02:21:53.99	201.64	9.69	-44.6	-45.9	25.1	6.01e-01	0	43	0	657981440	59	4499
2026-01-25 02:21:57.01	201.68	9.41	-44.6	-45.8	25.2	6.01e-01	0	44	0	663748608	60	4240
2026-01-25 02:22:00.04	201.72	9.14	-44.8	-46.1	24.9	6.01e-01	0	44	0	669515776	60	4345
2026-01-25 02:22:03.07	201.75	8.87	-44.7	-45.9	25.1	6.05e-01	0	44	0	674758656	60	4289
2026-01-25 02:22:06.10	201.79	8.60	-44.8	-46.1	24.9	6.04e-01	0	44	0	680525824	60	4354
2026-01-25 02:22:09.12	201.83	8.34	-44.9	-46.2	24.8	6.03e-01	0	44	0	686292992	60	4414
2026-01-25 02:22:12.15	201.86	8.07	-45.0	-46.3	24.7	6.03e-01	0	44	0	692060160	60	4470
2026-01-25 02:22:15.17	201.90	7.82	-45.0	-46.3	24.6	6.01e-01	0	44	0	697827328	60	4455
2026-01-25 02:22:18.20	201.93	7.56	-45.2	-46.5	24.4	6.00e-01	0	44	0	703070208	60	4585
2026-01-25 02:22:21.23	201.96	7.31	-45.2	-46.6	24.3	6.02e-01	0	44	0	709361664	61	4367
2026-01-25 02:22:24.25	202.00	7.06	-45.3	-46.7	24.2	6.01e-01	0	44	0	714604544	61	4429
2026-01-25 02:22:27.28	202.03	6.81	-45.4	-46.8	24.1	6.01e-01	0	44	0	720371712	61	4478
2026-01-25 02:22:30.30	202.06	6.57	-45.5	-46.9	24.0	6.02e-01	0	44	0	726138880	61	4510
2026-01-25 02:22:33.33	202.10	6.33	-45.7	-47.2	23.7	6.01e-01	0	44	0	731906048	62	4401
2026-01-25 02:22:36.36	202.13	6.09	-45.8	-47.3	23.6	5.99e-01	0	44	0	737673216	62	4460
2026-01-25 02:22:39.38	202.16	5.85	-45.7	-47.2	23.6	6.02e-01	0	44	0	742916096	62	4402
2026-01-25 02:22:42.41	202.19	5.62	-46.0	-47.5	23.3	6.03e-01	0	44	0	748683264	62	4574
2026-01-25 02:22:45.43	202.22	5.39	-46.1	-47.7	23.0	6.02e-01	0	44	0	754450432	63	4398
2026-01-25 02:22:48.46	202.25	5.16	-46.3	-47.9	22.8	6.01e-01	0	44	0	760217600	63	4502
2026-01-25 02:22:51.49	202.28	4.93	-54.2	-71.2	3.8	7.46e-01	0	44	104	764411904	78	27918
2026-01-25 02:22:54.51	202.31	4.70	-54.9	-72.7	3.8	7.45e-01	0	44	104	764411904	80	29575
2026-01-25 02:22:57.54	202.34	4.48	-55.2	-73.0	3.8	7.42e-01	0	44	104	764411904	80	30555
2026-01-25 02:23:00.56	202.37	4.26	-55.4	-73.2	3.8	7.45e-01	0	44	104	764411904	81	29670
2026-01-25 02:23:03.59	202.40	4.04	-55.5	-73.3	3.8	7.44e-01	0	44	104	764411904	81	30022
2026-01-25 02:23:06.61	202.43	3.82	-55.6	-73.4	3.8	7.43e-01	0	44	104	764411904	81	30211
2026-01-25 02:23:09.64	202.46	3.61	-55.6	-73.4	3.8	7.46e-01	0	44	104	764411904	81	30174
2026-01-25 02:23:12.67	202.48	3.39	-55.5	-73.3	3.8	7.45e-01	0	44	104	764411904	81	30031
2026-01-25 02:23:15.69	202.51	3.18	-55.5	-73.3	3.8	7.46e-01	0	44	104	764411904	81	29861
2026-01-25 02:23:18.72	202.54	2.97	-55.4	-73.2	3.8	7.45e-01	0	44	104	764411904	81	29481
2026-01-25 02:23:21.74	202.57	2.77	-55.3	-73.1	3.8	7.44e-01	0	44	104	764411904	81	29238
2026-01-25 02:23:24.77	202.59	2.56	-55.3	-73.1	3.8	7.45e-01	0	44	104	764411904	81	29195
2026-01-25 02:23:27.80	202.62	2.35	-55.2	-73.1	3.8	7.43e-01	0	44	104	764411904	81	29139
2026-01-25 02:23:30.82	202.65	2.15	-55.2	-73.1	3.8	7.46e-01	0	44	104	764411904	81	29053
2026-01-25 02:23:33.85	202.67	1.95	-55.2	-73.1	3.8	7.42e-01	0	44	104	764411904	81	29035

#Closed at: 2026-01-25 02:23:36
#Recorded file [764 MB]: D:/lorett/data/31041_260125_051042.dat