passes_logs/2026/01/25/R3.2S_Murmansk/R3.2S_Murmansk__20260125_132959_AQUA_rec.log

#Pass ID: 20260125_132959_AQUA
#Satellite: AQUA
#Configuration: AQUA
#almurnet v.1.7.20251203
#Start time: 2026-01-25 13:29:59

#Version: 2.2.20231116
#Station: R3.2S_Murmansk
#Location: 33.079688 lon 68.888172 lat
#TLE: 1 27424U 02022A   26024.95125529  .00001998  00000+0  40952-3 0  9996
#TLE: 2 27424  98.4098 351.5468 0001900  66.2876   6.3059 14.61857159262343

#Time	Az	El	Level	Level2	SNR	BER	BlckErr	Temp	State	Recorded	gain1	gain2
2026-01-25 13:29:59.59	210.50	2.00	-54.3	-72.1	3.8	7.46e-01	0	41	0	0	80	27647
2026-01-25 13:30:02.57	210.74	2.17	-53.9	-71.7	3.8	7.44e-01	0	41	104	0	78	29571
2026-01-25 13:30:05.55	210.97	2.34	-53.9	-71.7	3.8	7.47e-01	0	41	104	0	78	29444
2026-01-25 13:30:08.52	211.21	2.52	-53.9	-71.7	3.8	7.45e-01	0	41	104	0	78	29534
2026-01-25 13:30:11.50	211.45	2.69	-53.9	-71.6	3.8	7.42e-01	0	41	104	0	78	29273
2026-01-25 13:30:14.48	211.70	2.87	-53.9	-71.6	3.8	7.46e-01	0	41	104	0	78	29053
2026-01-25 13:30:17.45	211.94	3.04	-53.9	-71.7	3.8	7.46e-01	0	41	104	0	78	29410
2026-01-25 13:30:20.42	212.19	3.22	-53.9	-71.7	3.8	7.47e-01	0	42	104	0	78	29430
2026-01-25 13:30:23.40	212.45	3.39	-53.8	-71.4	3.8	7.45e-01	0	42	104	0	78	28524
2026-01-25 13:30:26.36	212.70	3.57	-53.8	-71.2	3.8	7.46e-01	0	42	104	0	78	27740
2026-01-25 13:30:29.33	212.96	3.75	-53.8	-71.4	3.8	7.45e-01	0	42	104	0	78	28590
2026-01-25 13:30:32.29	213.22	3.93	-53.8	-71.5	3.8	7.42e-01	0	42	104	0	78	28715
2026-01-25 13:30:35.27	213.49	4.11	-53.8	-70.7	3.8	7.42e-01	0	42	104	0	78	26218
2026-01-25 13:30:38.24	213.76	4.29	-53.6	-65.2	5.5	6.97e-01	34	42	0	0	78	14045
2026-01-25 13:30:41.22	214.04	4.47	-53.4	-63.2	7.2	6.59e-01	184	42	0	5242880	78	11035
2026-01-25 13:30:44.19	214.31	4.66	-52.1	-57.3	13.1	6.09e-01	0	42	0	10485760	76	6323
2026-01-25 13:30:47.15	214.59	4.84	-49.7	-52.4	18.2	6.04e-01	0	42	0	16252928	71	4806
2026-01-25 13:30:50.14	214.88	5.02	-48.7	-51.1	19.6	6.06e-01	0	42	0	22020096	69	4608
2026-01-25 13:30:53.11	215.17	5.21	-52.1	-57.5	13.1	6.08e-01	0	42	0	27787264	74	7248
2026-01-25 13:30:56.08	215.46	5.40	-46.3	-47.9	22.8	6.06e-01	0	42	0	33030144	64	4269
2026-01-25 13:30:59.04	215.75	5.58	-46.2	-47.7	23.1	6.07e-01	0	42	0	38797312	64	4183
2026-01-25 13:31:02.01	216.05	5.77	-46.4	-48.0	22.8	6.05e-01	0	42	0	44040192	64	4320
2026-01-25 13:31:04.98	216.36	5.96	-46.4	-48.0	22.8	6.06e-01	0	42	0	49807360	64	4319
2026-01-25 13:31:07.94	216.66	6.15	-46.3	-47.9	22.9	6.04e-01	0	43	0	55574528	64	4265
2026-01-25 13:31:10.91	216.98	6.34	-46.1	-47.6	23.3	6.06e-01	0	42	0	60817408	63	4378
2026-01-25 13:31:13.88	217.29	6.53	-46.1	-47.5	23.4	6.06e-01	0	42	0	66584576	63	4338
2026-01-25 13:31:16.84	217.61	6.73	-46.1	-47.6	23.3	6.06e-01	0	42	0	71827456	63	4391
2026-01-25 13:31:19.82	217.94	6.92	-46.0	-47.4	23.6	6.04e-01	0	42	0	77594624	63	4280
2026-01-25 13:31:22.81	218.27	7.12	-46.0	-47.4	23.6	6.08e-01	0	42	0	83361792	63	4286
2026-01-25 13:31:25.79	218.61	7.31	-45.9	-47.4	23.6	6.03e-01	0	42	0	89128960	63	4246
2026-01-25 13:31:28.78	218.95	7.51	-46.0	-47.5	23.6	6.09e-01	0	43	0	94371840	63	4319
2026-01-25 13:31:31.76	219.29	7.71	-45.7	-47.1	23.9	6.06e-01	0	42	0	100139008	63	4124
2026-01-25 13:31:34.72	219.64	7.90	-45.9	-47.4	23.7	6.06e-01	0	42	0	105381888	63	4255
2026-01-25 13:31:37.69	220.00	8.10	-45.7	-47.1	24.0	6.06e-01	0	42	0	111149056	63	4127
2026-01-25 13:31:40.66	220.36	8.30	-45.7	-47.0	24.1	6.08e-01	0	42	0	116391936	63	4098
2026-01-25 13:31:43.64	220.72	8.51	-45.6	-47.0	24.1	6.06e-01	0	42	0	122159104	63	4075
2026-01-25 13:31:46.60	221.09	8.71	-45.4	-46.8	24.3	6.07e-01	0	43	0	127926272	62	4219
2026-01-25 13:31:49.57	221.46	8.91	-45.5	-46.8	24.4	6.04e-01	0	43	0	133169152	62	4223
2026-01-25 13:31:52.54	221.85	9.11	-45.5	-46.9	24.3	6.05e-01	0	43	0	138936320	62	4257
2026-01-25 13:31:55.51	222.23	9.32	-45.3	-46.6	24.5	6.05e-01	0	43	0	144703488	62	4130
2026-01-25 13:31:58.47	222.62	9.52	-45.2	-46.5	24.7	6.05e-01	0	43	0	149946368	62	4075
2026-01-25 13:32:01.45	223.02	9.73	-45.5	-46.9	24.3	6.06e-01	0	43	0	155713536	62	4262
2026-01-25 13:32:04.41	223.42	9.93	-45.2	-46.5	24.7	6.05e-01	0	43	0	161480704	62	4061
2026-01-25 13:32:07.38	223.83	10.14	-45.2	-46.5	24.7	6.06e-01	0	43	0	166723584	62	4083
2026-01-25 13:32:10.36	224.25	10.35	-45.3	-46.7	24.5	6.07e-01	0	43	0	172490752	62	4147
2026-01-25 13:32:13.33	224.67	10.56	-45.2	-46.5	24.7	6.08e-01	0	43	0	177733632	62	4092
2026-01-25 13:32:16.30	225.10	10.77	-44.9	-46.2	25.1	6.05e-01	0	43	0	183500800	61	4147
2026-01-25 13:32:19.27	225.54	10.98	-45.0	-46.3	24.9	6.04e-01	0	43	0	189267968	61	4210
2026-01-25 13:32:22.24	225.98	11.19	-45.1	-46.4	24.8	6.07e-01	0	43	0	194510848	61	4268
2026-01-25 13:32:25.21	226.42	11.40	-44.9	-46.2	25.0	6.06e-01	0	43	0	200278016	61	4154
2026-01-25 13:32:28.20	226.88	11.61	-44.9	-46.2	25.0	6.08e-01	0	43	0	206045184	61	4182
2026-01-25 13:32:31.18	227.35	11.82	-44.8	-46.0	25.2	6.04e-01	0	42	0	211288064	61	4078
2026-01-25 13:32:34.17	227.82	12.04	-44.7	-45.9	25.3	6.05e-01	0	43	0	217055232	61	4040
2026-01-25 13:32:37.16	228.30	12.25	-44.6	-45.8	25.4	6.07e-01	0	43	0	222822400	61	4004
2026-01-25 13:32:40.15	228.78	12.47	-44.6	-45.9	25.4	6.07e-01	0	43	0	228065280	61	4016
2026-01-25 13:32:43.13	229.27	12.68	-44.6	-45.8	25.4	6.03e-01	0	43	0	233832448	61	3992
2026-01-25 13:32:46.10	229.77	12.90	-44.4	-45.6	25.6	6.05e-01	0	43	0	239599616	60	4139
2026-01-25 13:32:49.07	230.28	13.11	-44.4	-45.6	25.6	6.05e-01	0	43	0	244842496	60	4120
2026-01-25 13:32:52.06	230.79	13.33	-44.4	-45.6	25.7	6.03e-01	0	43	0	250609664	60	4106
2026-01-25 13:32:55.03	231.31	13.54	-44.4	-45.6	25.6	6.06e-01	0	43	0	256376832	60	4130
2026-01-25 13:32:58.01	231.85	13.76	-44.4	-45.6	25.7	6.08e-01	0	43	0	261619712	60	4110
2026-01-25 13:33:00.98	232.38	13.97	-44.2	-45.4	25.9	6.06e-01	0	43	0	267386880	60	4014
2026-01-25 13:33:03.95	232.93	14.18	-44.5	-45.7	25.6	6.06e-01	0	43	0	272629760	60	4166
2026-01-25 13:33:06.93	233.48	14.40	-44.3	-45.5	25.8	6.04e-01	0	43	0	278396928	60	4084
2026-01-25 13:33:09.91	234.05	14.61	-44.3	-45.5	25.8	6.05e-01	0	43	0	284164096	60	4080
2026-01-25 13:33:12.88	234.62	14.83	-44.2	-45.3	25.9	6.06e-01	0	43	0	289406976	60	4002
2026-01-25 13:33:15.86	235.20	15.04	-44.4	-45.6	25.8	6.06e-01	0	43	0	295174144	60	4105
2026-01-25 13:33:18.84	235.79	15.25	-44.2	-45.3	25.9	6.04e-01	0	43	0	300941312	60	4002
2026-01-25 13:33:21.83	236.39	15.47	-44.1	-45.3	26.0	6.07e-01	0	43	0	306184192	60	3967
2026-01-25 13:33:24.82	236.99	15.68	-44.0	-45.2	26.1	6.05e-01	0	43	0	311951360	60	3922
2026-01-25 13:33:27.79	237.61	15.89	-44.1	-45.3	26.0	6.05e-01	0	43	0	317718528	60	3989
2026-01-25 13:33:30.77	238.23	16.10	-44.0	-45.2	26.1	6.06e-01	0	43	0	322961408	60	3924
2026-01-25 13:33:33.73	238.86	16.30	-44.2	-45.4	25.9	6.04e-01	0	43	0	328728576	60	4012
2026-01-25 13:33:36.71	239.50	16.51	-44.1	-45.3	26.0	6.07e-01	0	43	0	334495744	60	3981
2026-01-25 13:33:39.69	240.16	16.72	-44.1	-45.2	26.1	6.06e-01	0	43	0	339738624	60	3956
2026-01-25 13:33:42.66	240.82	16.92	-44.2	-45.3	26.0	6.06e-01	0	43	0	345505792	60	4004
2026-01-25 13:33:45.63	241.48	17.12	-44.1	-45.2	26.0	6.05e-01	0	43	0	351272960	59	4189
2026-01-25 13:33:48.60	242.16	17.32	-44.2	-45.4	26.0	6.04e-01	0	43	0	356515840	59	4245
2026-01-25 13:33:51.58	242.85	17.52	-44.1	-45.3	26.1	6.08e-01	0	43	0	362283008	59	4196
2026-01-25 13:33:54.54	243.54	17.72	-44.1	-45.3	26.1	6.06e-01	0	43	0	367525888	59	4198
2026-01-25 13:33:57.52	244.25	17.91	-44.2	-45.4	26.0	6.05e-01	0	43	0	373293056	59	4261
2026-01-25 13:34:00.50	244.97	18.10	-44.4	-45.6	25.8	6.05e-01	0	43	0	379060224	59	4363
2026-01-25 13:34:03.48	245.70	18.29	-44.2	-45.4	26.1	6.03e-01	0	43	0	384303104	59	4245
2026-01-25 13:34:06.46	246.43	18.48	-44.3	-45.5	25.9	6.05e-01	0	43	0	390070272	59	4311
2026-01-25 13:34:09.44	247.18	18.66	-44.3	-45.5	25.8	6.05e-01	0	43	0	395837440	59	4337
2026-01-25 13:34:12.42	247.93	18.84	-44.2	-45.3	26.0	6.07e-01	0	43	0	401080320	59	4238
2026-01-25 13:34:15.39	248.69	19.02	-44.4	-45.6	25.8	6.07e-01	0	43	0	406847488	59	4356
2026-01-25 13:34:18.37	249.47	19.19	-44.2	-45.4	26.0	6.05e-01	0	43	0	412090368	59	4257
2026-01-25 13:34:21.34	250.24	19.36	-44.2	-45.3	26.0	6.04e-01	0	43	0	417857536	59	4241
2026-01-25 13:34:24.30	251.03	19.53	-44.3	-45.4	26.0	6.05e-01	0	43	0	423624704	59	4285
2026-01-25 13:34:27.27	251.83	19.69	-44.2	-45.4	26.0	6.04e-01	0	43	0	428867584	59	4265
2026-01-25 13:34:30.25	252.63	19.85	-44.2	-45.4	26.0	6.03e-01	0	43	0	434634752	59	4254
2026-01-25 13:34:33.24	253.45	20.00	-44.3	-45.5	25.9	6.06e-01	0	43	0	440401920	59	4301
2026-01-25 13:34:36.21	254.28	20.15	-44.3	-45.5	25.9	6.05e-01	0	43	0	445644800	59	4317
2026-01-25 13:34:39.18	255.11	20.30	-44.4	-45.6	25.8	6.06e-01	0	43	0	451411968	59	4367
2026-01-25 13:34:42.16	255.95	20.44	-44.4	-45.6	25.9	6.03e-01	0	43	0	457179136	59	4345
2026-01-25 13:34:45.15	256.80	20.57	-44.4	-45.6	25.8	6.08e-01	0	43	0	462422016	59	4356
2026-01-25 13:34:48.12	257.65	20.70	-44.3	-45.5	25.9	6.05e-01	0	43	0	468189184	59	4323
2026-01-25 13:34:51.10	258.51	20.82	-44.3	-45.5	25.9	6.06e-01	0	43	0	473956352	59	4305
2026-01-25 13:34:54.08	259.38	20.94	-44.4	-45.6	25.8	6.05e-01	0	43	0	479199232	59	4352
2026-01-25 13:34:57.05	260.26	21.05	-44.4	-45.6	25.8	6.03e-01	0	43	0	484966400	59	4372
2026-01-25 13:35:00.02	261.14	21.16	-44.5	-45.7	25.7	6.05e-01	0	43	0	490733568	59	4423
2026-01-25 13:35:02.98	262.02	21.26	-44.4	-45.6	25.7	6.07e-01	0	43	0	495976448	59	4387
2026-01-25 13:35:05.96	262.92	21.35	-44.6	-45.9	25.5	6.05e-01	0	43	0	501743616	59	4500
2026-01-25 13:35:08.93	263.81	21.44	-44.5	-45.7	25.8	6.05e-01	0	43	0	506986496	60	4149
2026-01-25 13:35:11.91	264.72	21.52	-44.6	-45.8	25.6	6.04e-01	0	43	0	512753664	60	4204
2026-01-25 13:35:14.88	265.62	21.59	-44.4	-45.5	25.6	6.04e-01	0	43	0	518520832	60	4089
2026-01-25 13:35:17.85	266.54	21.66	-44.4	-45.6	25.2	6.05e-01	0	43	0	523763712	60	4116
2026-01-25 13:35:20.83	267.45	21.72	-44.6	-45.7	25.0	6.04e-01	0	43	0	529530880	60	4190
2026-01-25 13:35:23.80	268.37	21.77	-44.3	-45.5	25.6	6.03e-01	0	43	0	535298048	60	4077
2026-01-25 13:35:26.78	269.29	21.82	-44.5	-45.7	25.7	6.07e-01	0	43	0	540540928	60	4186
2026-01-25 13:35:29.74	270.22	21.86	-44.3	-45.5	26.0	6.06e-01	0	43	0	546308096	60	4064
2026-01-25 13:35:32.71	271.14	21.89	-44.5	-45.7	25.8	6.05e-01	0	43	0	552075264	60	4173
2026-01-25 13:35:35.69	272.07	21.92	-44.4	-45.6	26.0	6.05e-01	0	43	0	557318144	60	4099
2026-01-25 13:35:38.65	273.00	21.93	-44.3	-45.5	26.1	6.05e-01	0	43	0	563085312	60	4079
2026-01-25 13:35:41.62	273.93	21.94	-44.4	-45.5	26.0	6.05e-01	0	43	0	568328192	60	4085
2026-01-25 13:35:44.59	274.86	21.95	-44.5	-45.7	25.9	6.05e-01	0	43	0	574095360	60	4152
2026-01-25 13:35:47.58	275.79	21.94	-44.4	-45.5	26.0	6.03e-01	0	43	0	579338240	60	4086
2026-01-25 13:35:50.55	276.72	21.93	-44.4	-45.6	25.9	6.06e-01	0	43	0	585105408	60	4099
2026-01-25 13:35:53.53	277.65	21.91	-44.4	-45.6	26.0	6.05e-01	0	43	0	590872576	60	4113
2026-01-25 13:35:56.49	278.57	21.88	-44.4	-45.5	26.0	6.05e-01	0	43	0	596639744	60	4087
2026-01-25 13:35:59.47	279.50	21.85	-44.3	-45.4	26.2	6.05e-01	0	43	0	601882624	60	4043
2026-01-25 13:36:02.44	280.42	21.81	-44.5	-45.7	26.0	6.04e-01	0	43	0	607649792	60	4163
2026-01-25 13:36:05.40	281.34	21.76	-44.3	-45.5	26.1	6.04e-01	0	43	0	612892672	60	4082
2026-01-25 13:36:08.38	282.26	21.70	-44.4	-45.6	26.1	6.05e-01	0	43	0	618659840	60	4111
2026-01-25 13:36:11.36	283.17	21.64	-44.4	-45.6	26.0	6.05e-01	0	43	0	624427008	60	4125
2026-01-25 13:36:14.33	284.08	21.57	-44.3	-45.4	26.2	6.03e-01	0	43	0	629669888	60	4038
2026-01-25 13:36:17.30	284.99	21.50	-44.3	-45.5	26.2	6.04e-01	0	43	0	635437056	60	4067
2026-01-25 13:36:20.25	285.88	21.41	-44.3	-45.4	26.2	6.05e-01	0	43	0	640679936	60	4036
2026-01-25 13:36:23.22	286.77	21.33	-44.4	-45.6	26.1	6.04e-01	0	43	0	646447104	60	4107
2026-01-25 13:36:26.18	287.66	21.23	-44.4	-45.5	26.1	6.06e-01	0	43	0	652214272	60	4088
2026-01-25 13:36:29.15	288.54	21.13	-44.3	-45.4	26.2	6.04e-01	0	43	0	657457152	60	4036
2026-01-25 13:36:32.12	289.42	21.02	-44.1	-45.2	26.4	6.06e-01	0	43	0	663224320	60	3939
2026-01-25 13:36:35.10	290.29	20.91	-44.3	-45.4	26.2	6.06e-01	0	43	0	668991488	60	4048
2026-01-25 13:36:38.06	291.15	20.79	-44.3	-45.5	26.2	6.06e-01	0	43	0	674234368	60	4058
2026-01-25 13:36:41.04	292.01	20.67	-44.2	-45.3	26.4	6.04e-01	0	43	0	680001536	60	3986
2026-01-25 13:36:44.01	292.86	20.54	-44.2	-45.3	26.4	6.05e-01	0	43	0	685768704	60	4000
2026-01-25 13:36:46.99	293.70	20.40	-44.3	-45.4	26.2	6.03e-01	0	43	0	691011584	60	4035
2026-01-25 13:36:49.97	294.54	20.26	-44.0	-45.2	26.5	6.04e-01	0	43	0	696778752	60	3928
2026-01-25 13:36:52.95	295.37	20.11	-44.2	-45.3	26.3	6.02e-01	0	43	0	702021632	60	3992
2026-01-25 13:36:55.93	296.19	19.97	-44.0	-45.2	26.5	6.04e-01	0	43	0	707788800	60	3919
2026-01-25 13:36:58.89	296.99	19.81	-44.0	-45.1	26.3	6.02e-01	0	43	0	713031680	59	4144
2026-01-25 13:37:01.85	297.79	19.65	-44.2	-45.3	26.1	6.05e-01	0	43	0	718798848	59	4240
2026-01-25 13:37:04.82	298.58	19.49	-44.0	-45.1	26.3	6.01e-01	0	43	0	724566016	59	4142
2026-01-25 13:37:07.78	299.36	19.33	-44.0	-45.1	26.3	6.04e-01	0	43	0	729808896	59	4142
2026-01-25 13:37:10.74	300.13	19.16	-44.0	-45.1	26.3	6.03e-01	0	43	0	735576064	59	4143
2026-01-25 13:37:13.71	300.90	18.98	-44.0	-45.2	26.3	6.03e-01	0	43	0	741343232	59	4152
2026-01-25 13:37:16.68	301.65	18.81	-44.1	-45.3	26.2	6.03e-01	0	43	0	746586112	59	4195
2026-01-25 13:37:19.64	302.40	18.63	-43.8	-44.9	26.5	6.02e-01	0	43	0	752353280	59	4032
2026-01-25 13:37:22.59	303.13	18.45	-44.0	-45.2	26.2	6.04e-01	0	43	0	757596160	59	4146
2026-01-25 13:37:25.56	303.86	18.26	-43.9	-45.1	26.1	6.02e-01	0	43	0	763363328	59	4106
2026-01-25 13:37:28.52	304.58	18.07	-43.7	-44.9	26.2	6.04e-01	0	43	0	769130496	59	4009
2026-01-25 13:37:31.50	305.29	17.88	-43.8	-45.0	26.1	6.01e-01	0	43	0	774373376	59	4066
2026-01-25 13:37:34.49	305.99	17.69	-43.9	-45.1	26.2	6.06e-01	0	43	0	780140544	59	4110
2026-01-25 13:37:37.48	306.69	17.49	-43.9	-45.0	26.3	6.04e-01	0	43	0	785907712	59	4072
2026-01-25 13:37:40.46	307.37	17.29	-43.7	-44.9	26.5	6.04e-01	0	43	0	791150592	59	4007
2026-01-25 13:37:43.42	308.04	17.09	-43.8	-45.0	26.4	6.02e-01	0	43	0	796917760	59	4069
2026-01-25 13:37:46.40	308.71	16.89	-43.8	-45.0	26.3	6.02e-01	0	43	0	802684928	59	4058
2026-01-25 13:37:49.35	309.36	16.69	-43.9	-45.1	26.2	6.02e-01	0	43	0	807927808	59	4105
2026-01-25 13:37:52.34	310.01	16.49	-43.8	-45.0	26.2	6.02e-01	0	43	0	813694976	59	4063
2026-01-25 13:37:55.30	310.64	16.28	-43.9	-45.0	26.3	6.04e-01	0	43	0	819462144	59	4086
2026-01-25 13:37:58.27	311.27	16.07	-43.8	-44.9	26.3	6.02e-01	0	43	0	824705024	59	4045
2026-01-25 13:38:01.25	311.89	15.87	-43.9	-45.0	26.2	6.01e-01	0	43	0	830472192	59	4079
2026-01-25 13:38:04.24	312.50	15.66	-43.6	-44.8	26.4	6.02e-01	0	43	0	835715072	59	3967
2026-01-25 13:38:07.22	313.10	15.45	-43.8	-44.9	26.2	6.02e-01	0	43	0	841482240	59	4040
2026-01-25 13:38:10.20	313.70	15.24	-43.8	-44.9	26.2	6.03e-01	0	43	0	847249408	59	4050
2026-01-25 13:38:13.17	314.28	15.02	-43.8	-44.9	26.1	6.04e-01	0	43	0	852492288	59	4023
2026-01-25 13:38:16.14	314.86	14.81	-43.8	-44.9	26.1	6.04e-01	0	43	0	858259456	59	4027
2026-01-25 13:38:19.12	315.42	14.60	-43.7	-44.9	26.1	6.02e-01	0	43	0	864026624	59	4010
2026-01-25 13:38:22.10	315.98	14.39	-43.8	-44.9	26.0	6.02e-01	0	43	0	869269504	59	4051
2026-01-25 13:38:25.06	316.53	14.18	-43.8	-45.0	25.9	6.01e-01	0	43	0	875036672	59	4052
2026-01-25 13:38:28.03	317.07	13.96	-43.8	-45.0	25.9	6.03e-01	0	43	0	880279552	59	4069
2026-01-25 13:38:31.01	317.61	13.75	-43.8	-45.0	26.0	6.05e-01	0	43	0	886046720	59	4063
2026-01-25 13:38:34.01	318.14	13.53	-43.8	-44.9	26.0	6.03e-01	0	43	0	891813888	59	4046
2026-01-25 13:38:36.98	318.65	13.32	-43.9	-45.0	25.7	6.03e-01	0	43	0	897056768	59	4098
2026-01-25 13:38:39.95	319.16	13.11	-43.9	-45.1	25.7	6.02e-01	0	43	0	902823936	59	4130
2026-01-25 13:38:42.94	319.67	12.89	-44.0	-45.1	25.6	6.02e-01	0	43	0	908591104	59	4140
2026-01-25 13:38:45.93	320.17	12.68	-43.9	-45.1	25.7	6.03e-01	0	43	0	913833984	59	4133
2026-01-25 13:38:48.91	320.66	12.47	-44.0	-45.2	25.7	6.04e-01	0	43	0	919601152	59	4176
2026-01-25 13:38:51.88	321.13	12.26	-44.0	-45.2	25.7	6.02e-01	0	43	0	925368320	59	4151
2026-01-25 13:38:54.85	321.61	12.05	-44.1	-45.3	25.6	6.04e-01	0	43	0	930611200	59	4228
2026-01-25 13:38:57.83	322.07	11.83	-44.1	-45.3	25.7	6.04e-01	0	43	0	936378368	59	4219
2026-01-25 13:39:00.81	322.54	11.62	-44.0	-45.2	25.8	6.03e-01	0	43	0	942145536	59	4182
2026-01-25 13:39:03.79	322.99	11.41	-44.1	-45.3	25.8	6.00e-01	0	43	0	947388416	59	4219
2026-01-25 13:39:06.77	323.44	11.20	-44.3	-45.5	25.6	6.02e-01	0	43	0	953155584	59	4298
2026-01-25 13:39:09.74	323.87	10.99	-44.3	-45.5	25.5	6.01e-01	0	43	0	958922752	59	4332
2026-01-25 13:39:12.73	324.31	10.78	-44.4	-45.7	25.3	6.04e-01	0	43	0	964165632	59	4400
2026-01-25 13:39:15.70	324.73	10.58	-44.3	-45.5	25.4	6.02e-01	0	43	0	969932800	59	4313
2026-01-25 13:39:18.68	325.16	10.37	-44.2	-45.5	25.3	6.05e-01	0	43	0	975175680	59	4294
2026-01-25 13:39:21.66	325.57	10.16	-44.4	-45.6	25.2	6.01e-01	0	43	0	980942848	59	4367
2026-01-25 13:39:24.63	325.98	9.96	-44.4	-45.7	25.2	6.03e-01	0	43	0	986710016	59	4392
2026-01-25 13:39:27.61	326.38	9.75	-44.5	-45.8	25.2	6.01e-01	0	43	0	992477184	59	4469
2026-01-25 13:39:30.59	326.78	9.55	-44.4	-45.7	25.2	6.02e-01	0	43	0	997720064	60	4173
2026-01-25 13:39:33.57	327.17	9.34	-44.6	-45.9	25.1	6.05e-01	0	43	0	1003487232	60	4254
2026-01-25 13:39:36.56	327.56	9.14	-44.7	-46.0	25.0	6.03e-01	0	43	0	1008730112	60	4325
2026-01-25 13:39:39.54	327.94	8.94	-44.7	-46.0	24.9	6.03e-01	0	43	0	1014497280	60	4325
2026-01-25 13:39:42.52	328.31	8.73	-44.7	-46.0	24.8	6.03e-01	0	43	0	1020264448	60	4333
2026-01-25 13:39:45.50	328.68	8.53	-44.4	-45.6	25.3	6.02e-01	0	43	0	1026031616	60	4135
2026-01-25 13:39:48.50	329.05	8.33	-44.6	-45.8	25.0	6.01e-01	0	43	0	1031274496	60	4238
2026-01-25 13:39:51.47	329.40	8.13	-44.7	-46.0	24.9	6.02e-01	0	43	0	1037041664	60	4324
2026-01-25 13:39:54.46	329.76	7.94	-44.8	-46.1	24.8	6.02e-01	0	43	0	1042284544	60	4359
2026-01-25 13:39:57.45	330.11	7.74	-44.9	-46.3	24.5	6.04e-01	0	43	0	1048051712	60	4452
2026-01-25 13:40:00.44	330.45	7.54	-45.1	-46.5	24.4	6.04e-01	0	43	0	1053818880	60	4554
2026-01-25 13:40:03.42	330.79	7.34	-45.4	-46.8	24.1	6.05e-01	0	43	0	1059586048	61	4449
2026-01-25 13:40:06.41	331.13	7.15	-45.1	-46.5	24.3	6.03e-01	0	43	0	1064828928	61	4316
2026-01-25 13:40:09.39	331.46	6.96	-45.2	-46.5	24.3	6.02e-01	0	43	0	1070596096	61	4336
2026-01-25 13:40:12.37	331.78	6.76	-45.4	-46.8	23.9	6.03e-01	0	43	0	1075838976	61	4489
2026-01-25 13:40:15.36	332.10	6.57	-45.2	-46.5	24.2	6.04e-01	0	43	0	1081606144	61	4329
2026-01-25 13:40:18.33	332.42	6.38	-45.0	-46.3	24.4	6.02e-01	0	43	0	1087373312	61	4239
2026-01-25 13:40:21.30	332.73	6.19	-45.4	-46.8	23.9	6.03e-01	0	43	0	1093140480	62	4222
2026-01-25 13:40:24.28	333.04	6.00	-45.6	-47.0	23.7	6.05e-01	0	43	0	1098383360	62	4332
2026-01-25 13:40:27.25	333.34	5.81	-45.1	-46.5	24.3	6.01e-01	0	43	0	1104150528	62	4066
2026-01-25 13:40:30.22	333.64	5.63	-46.0	-47.5	23.2	6.04e-01	0	43	0	1109393408	62	4570
2026-01-25 13:40:33.20	333.94	5.44	-45.6	-47.0	23.6	6.04e-01	0	43	0	1115160576	62	4331
2026-01-25 13:40:36.18	334.23	5.26	-45.9	-47.5	22.8	6.02e-01	0	44	0	1120927744	62	4583
2026-01-25 13:40:39.16	334.52	5.07	-46.6	-48.4	21.9	6.03e-01	0	43	0	1126170624	63	4764
2026-01-25 13:40:42.14	334.80	4.89	-54.3	-72.1	3.8	7.47e-01	0	43	104	1129316352	79	29251
2026-01-25 13:40:45.13	335.08	4.70	-54.7	-72.5	3.8	7.46e-01	0	43	104	1129316352	79	30706
2026-01-25 13:40:48.12	335.36	4.52	-54.8	-72.7	3.8	7.46e-01	0	43	104	1129316352	80	29445
2026-01-25 13:40:51.10	335.63	4.34	-54.7	-72.6	3.8	7.42e-01	0	43	104	1129316352	80	29110
2026-01-25 13:40:54.08	335.91	4.16	-54.5	-72.4	3.8	7.48e-01	0	43	104	1129316352	80	28358
2026-01-25 13:40:57.06	336.17	3.98	-54.6	-72.4	3.8	7.48e-01	0	43	104	1129316352	80	28651
2026-01-25 13:41:00.03	336.43	3.80	-54.7	-72.5	3.8	7.46e-01	0	44	104	1129316352	80	28851
2026-01-25 13:41:03.01	336.69	3.63	-54.6	-72.4	3.8	7.50e-01	0	44	104	1129316352	80	28646
2026-01-25 13:41:06.00	336.95	3.45	-54.5	-72.4	3.8	7.45e-01	0	44	104	1129316352	80	28492
2026-01-25 13:41:08.99	337.21	3.27	-54.5	-72.4	3.8	7.44e-01	0	44	104	1129316352	80	28435
2026-01-25 13:41:11.97	337.46	3.10	-54.5	-72.3	3.8	7.43e-01	0	44	104	1129316352	80	28346
2026-01-25 13:41:14.95	337.71	2.92	-54.5	-72.3	3.8	7.46e-01	0	44	104	1129316352	80	28318
2026-01-25 13:41:17.93	337.95	2.75	-54.5	-72.3	3.8	7.47e-01	0	44	104	1129316352	80	28273
2026-01-25 13:41:20.91	338.19	2.58	-54.5	-72.3	3.8	7.44e-01	0	44	104	1129316352	80	28200
2026-01-25 13:41:23.88	338.43	2.41	-54.5	-72.3	3.8	7.44e-01	0	43	104	1129316352	80	28248
2026-01-25 13:41:26.86	338.67	2.23	-54.4	-72.3	3.8	7.44e-01	0	43	104	1129316352	80	28126
2026-01-25 13:41:29.83	338.90	2.07	-54.4	-72.3	3.8	7.44e-01	0	44	104	1129316352	80	28148

#Closed at: 2026-01-25 13:41:31
#Recorded file [1129 MB]: D:/lorett/data/31041_260125_162959.dat