passes_logs/2026/01/25/R3.2S_Murmansk/R3.2S_Murmansk__20260125_044351_SUOMI_NPP_rec.log

#Pass ID: 20260125_044351_SUOMI NPP
#Satellite: SUOMI NPP
#Configuration: NPP
#almurnet v.1.7.20251203
#Start time: 2026-01-25 04:43:51

#Version: 2.2.20231116
#Station: R3.2S_Murmansk
#Location: 33.079688 lon 68.888172 lat
#TLE: 1 37849U 11061A   26024.54906732  .00000185  00000+0  10878-3 0  9990
#TLE: 2 37849  98.7821 326.5159 0002200  47.3746 312.7615 14.19529340738061

#Time	Az	El	Level	Level2	SNR	BER	BlckErr	Temp	State	Recorded	gain1	gain2
2026-01-25 04:43:51.83	54.96	2.04	-52.1	-67.0	3.8	1.49e+00	0	42	0	0	76	19363
2026-01-25 04:43:54.85	54.77	2.21	-52.0	-67.0	3.8	1.49e+00	0	43	104	0	74	21597
2026-01-25 04:43:57.88	54.58	2.39	-52.0	-67.0	3.8	1.49e+00	0	43	104	0	74	21531
2026-01-25 04:44:00.90	54.38	2.56	-52.0	-67.0	3.8	1.49e+00	0	43	104	0	74	21561
2026-01-25 04:44:03.93	54.18	2.73	-52.0	-67.0	3.8	1.49e+00	0	43	104	0	74	21565
2026-01-25 04:44:06.96	53.98	2.91	-52.0	-66.9	3.8	1.49e+00	0	43	104	0	74	21445
2026-01-25 04:44:09.99	53.78	3.09	-52.0	-67.0	3.8	1.49e+00	0	43	104	0	74	21532
2026-01-25 04:44:13.01	53.57	3.26	-52.0	-67.0	3.8	1.49e+00	0	43	104	0	74	21519
2026-01-25 04:44:16.04	53.36	3.44	-52.0	-66.9	3.8	1.49e+00	0	43	104	0	74	21398
2026-01-25 04:44:19.06	53.15	3.62	-52.0	-67.0	3.8	1.49e+00	0	43	104	0	74	21532
2026-01-25 04:44:22.09	52.93	3.80	-52.0	-66.9	3.8	1.49e+00	0	43	104	0	74	21371
2026-01-25 04:44:25.11	52.72	3.98	-52.0	-66.9	3.8	1.49e+00	0	43	104	0	74	21480
2026-01-25 04:44:28.14	52.50	4.16	-52.0	-66.2	3.8	1.49e+00	0	44	104	0	74	19766
2026-01-25 04:44:31.17	52.27	4.34	-51.9	-64.3	4.0	1.49e+00	0	44	104	0	74	15812
2026-01-25 04:44:34.19	52.05	4.52	-51.9	-64.4	3.8	1.45e+00	0	43	104	0	74	15988
2026-01-25 04:44:37.22	51.82	4.71	-51.7	-61.6	4.9	9.38e-01	0	43	0	1048576	74	11625
2026-01-25 04:44:40.25	51.59	4.89	-50.7	-56.7	8.9	3.48e-02	0	44	0	7340032	73	6962
2026-01-25 04:44:43.27	51.35	5.08	-49.8	-54.1	11.7	8.22e-04	0	44	0	12582912	71	5811
2026-01-25 04:44:46.30	51.11	5.26	-50.0	-54.5	11.1	8.49e-03	0	44	0	17825792	71	6123
2026-01-25 04:44:49.32	50.87	5.45	-47.5	-50.0	15.8	0.00e+00	0	44	0	20971520	66	4828
2026-01-25 04:44:52.35	50.63	5.64	-47.6	-50.1	15.9	0.00e+00	0	44	0	26214400	66	4887
2026-01-25 04:44:55.37	50.38	5.82	-47.7	-50.2	15.8	0.00e+00	0	44	0	32505856	66	4967
2026-01-25 04:44:58.40	50.13	6.01	-47.6	-50.0	16.0	0.00e+00	0	44	0	37748736	66	4856
2026-01-25 04:45:01.42	49.87	6.20	-47.6	-49.9	16.1	0.00e+00	0	44	0	44040192	66	4812
2026-01-25 04:45:04.45	49.61	6.39	-47.4	-49.7	16.4	0.00e+00	0	44	0	49283072	66	4652
2026-01-25 04:45:07.47	49.35	6.58	-47.2	-49.4	16.7	0.00e+00	0	44	0	54525952	66	4518
2026-01-25 04:45:10.50	49.09	6.78	-47.3	-49.5	16.6	0.00e+00	0	44	0	60817408	66	4565
2026-01-25 04:45:13.52	48.82	6.97	-47.7	-50.1	16.1	0.00e+00	0	44	0	66060288	66	4884
2026-01-25 04:45:16.55	48.54	7.16	-47.5	-49.9	16.2	0.00e+00	0	44	0	72351744	66	4797
2026-01-25 04:45:19.57	48.27	7.36	-47.7	-50.2	16.0	0.00e+00	0	44	0	77594624	66	4940
2026-01-25 04:45:22.60	47.99	7.55	-47.6	-50.0	16.3	0.00e+00	0	44	0	82837504	66	4825
2026-01-25 04:45:25.62	47.70	7.75	-47.5	-49.9	16.3	0.00e+00	0	44	0	89128960	66	4783
2026-01-25 04:45:28.65	47.41	7.95	-47.3	-49.5	16.8	0.00e+00	0	44	0	94371840	66	4553
2026-01-25 04:45:31.67	47.12	8.15	-47.1	-49.2	17.0	0.00e+00	0	44	0	100663296	66	4428
2026-01-25 04:45:34.70	46.82	8.35	-46.9	-48.9	17.4	0.00e+00	0	45	0	105906176	65	4507
2026-01-25 04:45:37.73	46.52	8.55	-46.7	-48.6	17.6	0.00e+00	0	44	0	111149056	65	4382
2026-01-25 04:45:40.75	46.22	8.75	-46.6	-48.5	17.8	0.00e+00	0	44	0	117440512	65	4309
2026-01-25 04:45:43.78	45.91	8.95	-46.6	-48.5	17.7	0.00e+00	0	44	0	122683392	64	4597
2026-01-25 04:45:46.80	45.59	9.15	-46.5	-48.4	17.9	0.00e+00	0	44	0	128974848	64	4531
2026-01-25 04:45:49.83	45.28	9.35	-46.7	-48.6	17.7	0.00e+00	0	44	0	134217728	64	4633
2026-01-25 04:45:52.85	44.95	9.56	-46.8	-48.8	17.5	0.00e+00	0	45	0	140509184	64	4736
2026-01-25 04:45:55.88	44.62	9.76	-46.8	-48.7	17.6	0.00e+00	0	44	0	145752064	64	4683
2026-01-25 04:45:58.90	44.29	9.97	-46.7	-48.6	17.8	0.00e+00	0	44	0	150994944	64	4619
2026-01-25 04:46:01.92	43.96	10.17	-46.9	-48.9	17.6	0.00e+00	0	44	0	157286400	64	4765
2026-01-25 04:46:04.95	43.61	10.38	-47.0	-49.0	17.5	0.00e+00	0	44	0	162529280	64	4817
2026-01-25 04:46:07.97	43.27	10.59	-47.0	-48.9	17.5	0.00e+00	0	44	0	168820736	64	4808
2026-01-25 04:46:11.00	42.91	10.79	-46.8	-48.8	17.6	0.00e+00	0	44	0	174063616	64	4712
2026-01-25 04:46:14.02	42.56	11.00	-47.1	-49.0	17.5	0.00e+00	0	44	0	179306496	64	4864
2026-01-25 04:46:17.05	42.19	11.21	-46.8	-48.6	17.8	0.00e+00	0	44	0	185597952	64	4645
2026-01-25 04:46:20.07	41.82	11.42	-46.5	-48.3	18.1	0.00e+00	0	45	0	190840832	64	4490
2026-01-25 04:46:23.10	41.45	11.63	-46.3	-48.1	18.4	0.00e+00	0	44	0	197132288	64	4354
2026-01-25 04:46:26.13	41.07	11.84	-46.1	-47.8	18.7	0.00e+00	0	45	0	202375168	64	4206
2026-01-25 04:46:29.15	40.69	12.06	-46.2	-47.9	18.6	0.00e+00	0	45	0	208666624	63	4528
2026-01-25 04:46:32.18	40.29	12.27	-46.1	-47.7	18.9	0.00e+00	0	45	0	213909504	63	4416
2026-01-25 04:46:35.20	39.90	12.48	-46.1	-47.7	18.8	0.00e+00	0	44	0	219152384	63	4441
2026-01-25 04:46:38.23	39.49	12.70	-46.0	-47.6	18.9	0.00e+00	0	45	0	225443840	63	4368
2026-01-25 04:46:41.25	39.09	12.91	-46.0	-47.7	18.9	0.00e+00	0	44	0	230686720	63	4399
2026-01-25 04:46:44.27	38.67	13.12	-46.1	-47.7	18.9	0.00e+00	0	45	0	236978176	63	4423
2026-01-25 04:46:47.30	38.25	13.34	-45.9	-47.6	19.0	0.00e+00	0	45	0	242221056	63	4347
2026-01-25 04:46:50.33	37.82	13.55	-45.8	-47.4	19.2	0.00e+00	0	45	0	247463936	63	4265
2026-01-25 04:46:53.35	37.39	13.77	-45.9	-47.6	19.0	0.00e+00	0	45	0	253755392	63	4351
2026-01-25 04:46:56.38	36.95	13.98	-46.0	-47.6	18.9	0.00e+00	0	45	0	258998272	63	4370
2026-01-25 04:46:59.40	36.50	14.20	-46.2	-47.9	18.7	0.00e+00	0	45	0	265289728	63	4517
2026-01-25 04:47:02.43	36.05	14.41	-46.4	-48.2	18.4	0.00e+00	0	45	0	270532608	63	4664
2026-01-25 04:47:05.46	35.59	14.63	-46.4	-48.1	18.5	0.00e+00	0	45	0	275775488	63	4641
2026-01-25 04:47:08.48	35.12	14.85	-46.3	-48.0	18.7	0.00e+00	0	44	0	282066944	63	4554
2026-01-25 04:47:11.51	34.65	15.06	-46.2	-47.9	18.7	0.00e+00	0	45	0	287309824	63	4509
2026-01-25 04:47:14.53	34.17	15.28	-46.4	-48.1	18.6	0.00e+00	0	45	0	293601280	63	4614
2026-01-25 04:47:17.55	33.68	15.49	-46.6	-48.4	18.1	0.00e+00	0	44	0	298844160	64	4542
2026-01-25 04:47:20.58	33.19	15.71	-46.7	-48.6	17.9	0.00e+00	0	44	0	304087040	64	4629
2026-01-25 04:47:23.60	32.69	15.92	-46.5	-48.2	18.3	0.00e+00	0	44	0	310378496	64	4428
2026-01-25 04:47:26.63	32.18	16.14	-46.5	-48.3	18.2	0.00e+00	0	45	0	315621376	64	4483
2026-01-25 04:47:29.66	31.66	16.35	-46.2	-47.9	18.7	0.00e+00	0	45	0	321912832	64	4267
2026-01-25 04:47:32.68	31.13	16.56	-46.4	-48.2	18.4	0.00e+00	0	45	0	327155712	64	4397
2026-01-25 04:47:35.71	30.60	16.78	-46.0	-47.5	19.1	0.00e+00	0	45	0	332398592	63	4340
2026-01-25 04:47:38.73	30.06	16.99	-46.3	-48.0	18.7	0.00e+00	0	45	0	338690048	63	4550
2026-01-25 04:47:41.76	29.51	17.20	-46.4	-48.2	18.5	0.00e+00	0	45	0	343932928	63	4654
2026-01-25 04:47:44.78	28.96	17.41	-46.6	-48.4	18.3	0.00e+00	0	45	0	350224384	63	4778
2026-01-25 04:47:47.81	28.39	17.62	-46.5	-48.3	18.4	0.00e+00	0	45	0	355467264	64	4443
2026-01-25 04:47:50.84	27.82	17.83	-45.8	-47.4	19.3	0.00e+00	0	44	0	361758720	63	4255
2026-01-25 04:47:53.86	27.24	18.03	-45.5	-46.9	19.7	0.00e+00	0	44	0	367001600	62	4285
2026-01-25 04:47:56.89	26.65	18.24	-45.7	-47.2	19.5	0.00e+00	0	45	0	372244480	62	4433
2026-01-25 04:47:59.91	26.06	18.44	-45.5	-47.0	19.6	0.00e+00	0	44	0	378535936	62	4310
2026-01-25 04:48:02.94	25.46	18.65	-45.3	-46.8	19.8	0.00e+00	0	44	0	383778816	62	4226
2026-01-25 04:48:05.97	24.84	18.85	-44.8	-46.1	20.4	0.00e+00	0	45	0	390070272	61	4142
2026-01-25 04:48:08.99	24.22	19.05	-44.8	-46.2	20.4	0.00e+00	0	45	0	395313152	61	4177
2026-01-25 04:48:12.01	23.60	19.24	-44.7	-46.1	20.5	0.00e+00	0	45	0	400556032	61	4122
2026-01-25 04:48:15.04	22.96	19.44	-44.6	-46.0	20.6	0.00e+00	0	45	0	406847488	61	4060
2026-01-25 04:48:18.07	22.31	19.63	-44.4	-45.7	20.8	0.00e+00	0	44	0	412090368	60	4167
2026-01-25 04:48:21.09	21.66	19.82	-44.3	-45.6	20.9	0.00e+00	0	45	0	418381824	60	4117
2026-01-25 04:48:24.12	21.00	20.01	-44.4	-45.7	20.8	0.00e+00	0	45	0	423624704	60	4181
2026-01-25 04:48:27.14	20.33	20.19	-44.7	-46.1	20.4	0.00e+00	0	44	0	429916160	60	4386
2026-01-25 04:48:30.17	19.65	20.37	-44.3	-45.6	21.0	0.00e+00	0	44	0	435159040	60	4102
2026-01-25 04:48:33.19	18.97	20.55	-44.2	-45.4	21.1	0.00e+00	0	45	0	440401920	60	4051
2026-01-25 04:48:36.22	18.27	20.73	-44.3	-45.6	21.3	0.00e+00	0	44	0	446693376	59	4349
2026-01-25 04:48:39.25	17.57	20.90	-44.4	-45.7	21.2	0.00e+00	0	45	0	451936256	59	4394
2026-01-25 04:48:42.27	16.86	21.07	-44.0	-45.2	21.6	0.00e+00	0	44	0	458227712	59	4177
2026-01-25 04:48:45.30	16.15	21.24	-44.1	-45.3	21.5	0.00e+00	0	45	0	463470592	59	4231
2026-01-25 04:48:48.32	15.42	21.40	-44.2	-45.3	21.5	0.00e+00	0	44	0	468713472	59	4231
2026-01-25 04:48:51.35	14.69	21.55	-44.1	-45.2	21.6	0.00e+00	0	45	0	475004928	59	4184
2026-01-25 04:48:54.38	13.95	21.71	-44.4	-45.6	21.4	0.00e+00	0	44	0	480247808	59	4361
2026-01-25 04:48:57.40	13.20	21.86	-44.3	-45.5	21.5	0.00e+00	0	44	0	486539264	59	4293
2026-01-25 04:49:00.43	12.45	22.00	-44.5	-45.7	21.2	0.00e+00	0	44	0	491782144	59	4425
2026-01-25 04:49:03.45	11.69	22.14	-44.2	-45.4	21.5	0.00e+00	0	44	0	497025024	59	4267
2026-01-25 04:49:06.47	10.92	22.28	-44.4	-45.6	21.3	0.00e+00	0	44	0	503316480	59	4360
2026-01-25 04:49:09.50	10.14	22.41	-43.8	-45.0	21.9	0.00e+00	0	44	0	508559360	59	4060
2026-01-25 04:49:12.52	9.36	22.54	-44.3	-45.5	21.5	0.00e+00	0	44	0	514850816	59	4335
2026-01-25 04:49:15.55	8.57	22.66	-43.7	-44.8	22.0	0.00e+00	0	44	0	520093696	59	3987
2026-01-25 04:49:18.57	7.78	22.77	-44.5	-45.7	21.3	0.00e+00	0	44	0	525336576	59	4410
2026-01-25 04:49:21.60	6.98	22.88	-44.4	-45.6	21.1	0.00e+00	0	44	0	531628032	60	4099
2026-01-25 04:49:24.63	6.17	22.99	-45.6	-47.1	19.8	0.00e+00	0	45	0	536870912	61	4633
2026-01-25 04:49:27.65	5.37	23.08	-45.7	-47.2	19.7	0.00e+00	0	44	0	543162368	62	4406
2026-01-25 04:49:30.67	4.55	23.18	-45.4	-46.9	19.9	0.00e+00	0	44	0	548405248	62	4244
2026-01-25 04:49:33.70	3.73	23.26	-45.1	-46.4	20.4	0.00e+00	0	45	0	553648128	62	4032
2026-01-25 04:49:36.72	2.91	23.34	-44.9	-46.2	20.5	0.00e+00	0	44	0	559939584	61	4175
2026-01-25 04:49:39.75	2.08	23.42	-45.2	-46.6	20.2	0.00e+00	0	44	0	565182464	61	4353
2026-01-25 04:49:42.77	1.25	23.48	-45.3	-46.7	20.1	0.00e+00	0	44	0	571473920	61	4409
2026-01-25 04:49:45.80	0.41	23.55	-45.9	-47.4	19.4	0.00e+00	0	44	0	576716800	62	4529
2026-01-25 04:49:48.83	359.57	23.60	-45.7	-47.2	19.6	0.00e+00	0	44	0	581959680	62	4399
2026-01-25 04:49:51.85	358.73	23.65	-46.4	-48.1	18.8	0.00e+00	0	44	0	588251136	63	4632
2026-01-25 04:49:54.87	357.89	23.69	-45.8	-47.3	19.5	0.00e+00	0	44	0	593494016	63	4242
2026-01-25 04:49:57.90	357.04	23.73	-46.2	-47.8	19.1	0.00e+00	0	44	0	599785472	63	4490
2026-01-25 04:50:00.93	356.19	23.76	-46.7	-48.5	18.3	0.00e+00	0	44	0	605028352	64	4570
2026-01-25 04:50:03.95	355.34	23.78	-46.5	-48.2	18.6	0.00e+00	0	44	0	611319808	64	4436
2026-01-25 04:50:06.98	354.49	23.79	-45.6	-47.1	19.6	0.00e+00	0	44	0	616562688	63	4122
2026-01-25 04:50:10.01	353.64	23.80	-45.0	-46.3	20.4	0.00e+00	0	44	0	621805568	61	4241
2026-01-25 04:50:13.03	352.79	23.80	-45.5	-47.0	19.8	0.00e+00	0	44	0	628097024	61	4558
2026-01-25 04:50:16.05	351.94	23.79	-45.6	-47.1	19.7	0.00e+00	0	44	0	633339904	62	4355
2026-01-25 04:50:19.08	351.08	23.78	-45.0	-46.3	20.4	0.00e+00	0	44	0	639631360	61	4239
2026-01-25 04:50:22.11	350.23	23.76	-44.9	-46.3	20.4	0.00e+00	0	44	0	644874240	61	4209
2026-01-25 04:50:25.13	349.39	23.74	-44.9	-46.3	20.4	0.00e+00	0	44	0	651165696	61	4209
2026-01-25 04:50:28.16	348.54	23.70	-44.2	-45.4	21.3	0.00e+00	0	44	0	656408576	60	4013
2026-01-25 04:50:31.19	347.69	23.66	-44.7	-46.0	20.7	0.00e+00	0	44	0	661651456	60	4338
2026-01-25 04:50:34.21	346.85	23.62	-44.5	-45.7	21.1	0.00e+00	0	44	0	667942912	60	4176
2026-01-25 04:50:37.24	346.01	23.56	-44.3	-45.5	21.5	0.00e+00	0	44	0	673185792	59	4304
2026-01-25 04:50:40.26	345.17	23.50	-44.2	-45.3	21.7	0.00e+00	0	44	0	679477248	59	4220
2026-01-25 04:50:43.29	344.34	23.44	-44.2	-45.4	21.6	0.00e+00	0	44	0	684720128	59	4269
2026-01-25 04:50:46.31	343.51	23.37	-44.0	-45.2	21.8	0.00e+00	0	44	0	689963008	59	4159
2026-01-25 04:50:49.34	342.68	23.29	-44.3	-45.5	21.6	0.00e+00	0	44	0	696254464	59	4292
2026-01-25 04:50:52.37	341.86	23.20	-44.4	-45.6	21.2	0.00e+00	0	44	0	701497344	60	4102
2026-01-25 04:50:55.39	341.04	23.11	-44.6	-45.8	21.0	0.00e+00	0	44	0	707788800	60	4240
2026-01-25 04:50:58.41	340.23	23.02	-44.3	-45.5	21.5	0.00e+00	0	44	0	713031680	59	4313
2026-01-25 04:51:01.44	339.43	22.91	-44.5	-45.7	21.0	0.00e+00	0	44	0	718274560	60	4166
2026-01-25 04:51:04.46	338.63	22.80	-44.5	-45.7	21.1	0.00e+00	0	44	0	724566016	60	4155
2026-01-25 04:51:07.49	337.83	22.69	-44.5	-45.7	21.0	0.00e+00	0	44	0	729808896	60	4191
2026-01-25 04:51:10.51	337.04	22.57	-44.5	-45.7	21.1	0.00e+00	0	44	0	736100352	60	4171
2026-01-25 04:51:13.54	336.26	22.45	-44.8	-46.1	20.7	0.00e+00	0	44	0	741343232	60	4345
2026-01-25 04:51:16.57	335.48	22.32	-45.5	-46.9	20.0	0.00e+00	0	44	0	746586112	61	4535
2026-01-25 04:51:19.59	334.71	22.18	-46.0	-47.6	19.3	0.00e+00	0	44	0	752877568	62	4640
2026-01-25 04:51:22.62	333.94	22.04	-45.8	-47.4	19.5	0.00e+00	0	44	0	758120448	62	4504
2026-01-25 04:51:25.65	333.19	21.90	-45.4	-46.8	20.0	0.00e+00	0	44	0	764411904	62	4235
2026-01-25 04:51:28.67	332.44	21.75	-45.3	-46.7	20.0	0.00e+00	0	44	0	769654784	62	4189
2026-01-25 04:51:31.70	331.70	21.60	-45.1	-46.5	20.3	0.00e+00	0	44	0	774897664	62	4071
2026-01-25 04:51:34.72	330.96	21.44	-45.2	-46.5	20.2	3.80e-06	0	44	0	781189120	62	4088
2026-01-25 04:51:37.75	330.23	21.28	-45.0	-46.4	20.4	0.00e+00	0	44	0	786432000	62	4029
2026-01-25 04:51:40.77	329.52	21.12	-45.9	-47.5	19.4	0.00e+00	0	44	0	792723456	62	4569
2026-01-25 04:51:43.80	328.80	20.95	-45.9	-47.5	19.3	0.00e+00	0	44	0	797966336	62	4553
2026-01-25 04:51:46.82	328.10	20.78	-45.8	-47.3	19.5	0.00e+00	0	44	0	803209216	62	4457
2026-01-25 04:51:49.85	327.40	20.61	-46.2	-48.0	18.9	0.00e+00	0	44	0	809500672	63	4550
2026-01-25 04:51:52.87	326.72	20.43	-47.3	-49.4	17.4	0.00e+00	0	44	0	814743552	65	4795
2026-01-25 04:51:55.90	326.04	20.25	-46.2	-47.9	18.9	0.00e+00	0	44	0	821035008	64	4267
2026-01-25 04:51:58.92	325.37	20.06	-45.4	-46.9	19.9	0.00e+00	0	44	0	826277888	62	4263
2026-01-25 04:52:01.95	324.70	19.88	-45.1	-46.5	20.2	0.00e+00	0	44	0	832569344	62	4085
2026-01-25 04:52:04.98	324.05	19.69	-44.6	-46.0	20.6	0.00e+00	0	44	0	837812224	61	4054
2026-01-25 04:52:08.00	323.40	19.49	-44.4	-45.7	20.9	1.50e-06	0	44	0	843055104	60	4169
2026-01-25 04:52:11.03	322.76	19.30	-44.3	-45.5	21.3	0.00e+00	0	44	0	849346560	59	4302
2026-01-25 04:52:14.05	322.13	19.10	-44.4	-45.7	21.2	0.00e+00	0	44	0	854589440	59	4397
2026-01-25 04:52:17.07	321.51	18.91	-45.1	-46.5	20.1	0.00e+00	0	44	0	860880896	60	4579
2026-01-25 04:52:20.10	320.89	18.71	-45.9	-47.5	19.2	0.00e+00	0	44	0	866123776	62	4565
2026-01-25 04:52:23.13	320.29	18.50	-46.0	-47.7	19.0	0.00e+00	0	44	0	871366656	63	4407
2026-01-25 04:52:26.15	319.69	18.30	-45.5	-47.1	19.6	7.00e-07	0	44	0	877658112	63	4108
2026-01-25 04:52:29.18	319.10	18.10	-45.1	-46.5	20.1	0.00e+00	0	44	0	882900992	62	4090
2026-01-25 04:52:32.21	318.52	17.89	-44.6	-45.9	20.6	0.00e+00	0	44	0	889192448	61	4027
2026-01-25 04:52:35.23	317.94	17.68	-44.8	-46.2	20.4	0.00e+00	0	44	0	894435328	60	4417
2026-01-25 04:52:38.26	317.38	17.47	-45.6	-47.2	19.5	0.00e+00	0	44	0	900726784	61	4672
2026-01-25 04:52:41.28	316.82	17.26	-45.1	-46.5	20.2	0.00e+00	0	44	0	905969664	61	4300
2026-01-25 04:52:44.31	316.27	17.05	-45.3	-46.7	20.0	0.00e+00	0	44	0	911212544	61	4416
2026-01-25 04:52:47.33	315.73	16.84	-45.4	-46.9	19.8	0.00e+00	0	44	0	917504000	61	4516
2026-01-25 04:52:50.36	315.19	16.63	-45.0	-46.4	20.3	0.00e+00	0	44	0	922746880	61	4254
2026-01-25 04:52:53.39	314.66	16.41	-44.7	-46.1	20.5	0.00e+00	0	44	0	929038336	61	4117
2026-01-25 04:52:56.41	314.14	16.20	-44.3	-45.6	21.0	0.00e+00	0	44	0	934281216	60	4115
2026-01-25 04:52:59.44	313.63	15.99	-44.4	-45.7	20.9	0.00e+00	0	44	0	939524096	60	4150
2026-01-25 04:53:02.47	313.13	15.77	-44.4	-45.7	20.9	0.00e+00	0	44	0	945815552	60	4158
2026-01-25 04:53:05.49	312.63	15.56	-44.1	-45.3	21.5	0.00e+00	0	44	0	951058432	59	4206
2026-01-25 04:53:08.51	312.14	15.34	-43.9	-45.0	21.7	0.00e+00	0	44	0	957349888	59	4096
2026-01-25 04:53:11.54	311.66	15.13	-44.2	-45.4	21.3	0.00e+00	0	44	0	962592768	59	4281
2026-01-25 04:53:14.57	311.18	14.91	-44.3	-45.5	21.0	0.00e+00	0	44	0	967835648	60	4078
2026-01-25 04:53:17.59	310.71	14.69	-44.6	-45.9	20.7	0.00e+00	0	44	0	974127104	60	4247
2026-01-25 04:53:20.61	310.25	14.48	-44.4	-45.6	20.9	0.00e+00	0	44	0	979369984	60	4120
2026-01-25 04:53:23.64	309.80	14.26	-44.2	-45.4	21.4	0.00e+00	0	44	0	985661440	59	4268
2026-01-25 04:53:26.67	309.35	14.05	-44.4	-45.7	20.9	0.00e+00	0	44	0	990904320	60	4164
2026-01-25 04:53:29.69	308.90	13.83	-45.1	-46.5	20.1	0.00e+00	0	44	0	996147200	60	4568
2026-01-25 04:53:32.72	308.47	13.62	-45.3	-46.7	20.0	0.00e+00	0	44	0	1002438656	61	4405
2026-01-25 04:53:35.74	308.04	13.40	-45.2	-46.6	20.0	0.00e+00	0	44	0	1007681536	61	4374
2026-01-25 04:53:38.77	307.62	13.19	-45.2	-46.6	20.0	0.00e+00	0	44	0	1013972992	61	4363
2026-01-25 04:53:41.79	307.20	12.97	-44.6	-45.8	20.7	0.00e+00	0	44	0	1019215872	61	3996
2026-01-25 04:53:44.82	306.79	12.76	-44.8	-46.1	20.4	0.00e+00	0	44	0	1024458752	60	4358
2026-01-25 04:53:47.84	306.39	12.55	-45.3	-46.7	19.9	0.00e+00	0	44	0	1030750208	61	4417
2026-01-25 04:53:50.87	305.99	12.33	-46.1	-47.7	19.0	0.00e+00	0	44	0	1035993088	62	4665
2026-01-25 04:53:53.89	305.59	12.12	-46.0	-47.6	19.0	0.00e+00	0	44	0	1042284544	63	4349
2026-01-25 04:53:56.91	305.21	11.91	-45.4	-46.9	19.6	0.00e+00	0	44	0	1047527424	62	4268
2026-01-25 04:53:59.94	304.83	11.70	-45.0	-46.4	20.1	0.00e+00	0	44	0	1053818880	62	4022
2026-01-25 04:54:02.97	304.45	11.49	-45.3	-46.7	19.9	0.00e+00	0	44	0	1059061760	61	4398
2026-01-25 04:54:05.99	304.08	11.28	-45.2	-46.6	19.9	0.00e+00	0	44	0	1064304640	61	4360
2026-01-25 04:54:09.01	303.72	11.07	-45.2	-46.6	19.9	0.00e+00	0	44	0	1070596096	61	4359
2026-01-25 04:54:12.04	303.36	10.86	-45.5	-47.0	19.5	0.00e+00	0	44	0	1075838976	61	4562
2026-01-25 04:54:15.06	303.00	10.65	-46.0	-47.6	19.0	0.00e+00	0	44	0	1082130432	62	4601
2026-01-25 04:54:18.09	302.65	10.44	-46.1	-47.7	18.8	0.00e+00	0	44	0	1087373312	63	4436
2026-01-25 04:54:21.11	302.31	10.23	-46.0	-47.6	19.0	0.00e+00	0	44	0	1092616192	63	4356
2026-01-25 04:54:24.14	301.97	10.03	-46.4	-48.1	18.4	0.00e+00	0	44	0	1098907648	63	4630
2026-01-25 04:54:27.16	301.64	9.82	-46.6	-48.5	17.9	0.00e+00	0	44	0	1104150528	64	4572
2026-01-25 04:54:30.19	301.31	9.62	-46.6	-48.5	17.9	0.00e+00	0	44	0	1110441984	64	4575
2026-01-25 04:54:33.22	300.98	9.41	-46.4	-48.1	18.4	0.00e+00	0	44	0	1115684864	64	4354
2026-01-25 04:54:36.25	300.66	9.21	-45.8	-47.4	19.1	0.00e+00	0	44	0	1121976320	63	4260
2026-01-25 04:54:39.27	300.35	9.01	-45.9	-47.4	19.0	0.00e+00	0	44	0	1127219200	63	4284
2026-01-25 04:54:42.29	300.04	8.81	-46.0	-47.6	18.9	0.00e+00	0	44	0	1132462080	63	4351
2026-01-25 04:54:45.32	299.73	8.61	-46.2	-47.9	18.5	0.00e+00	0	44	0	1138753536	63	4523
2026-01-25 04:54:48.34	299.43	8.41	-46.5	-48.2	18.2	0.00e+00	0	44	0	1143996416	63	4699
2026-01-25 04:54:51.37	299.13	8.21	-46.3	-47.9	18.5	0.00e+00	0	44	0	1150287872	63	4540
2026-01-25 04:54:54.39	298.83	8.01	-46.2	-47.9	18.5	0.00e+00	0	44	0	1155530752	63	4507
2026-01-25 04:54:57.41	298.54	7.81	-45.9	-47.5	18.8	0.00e+00	0	44	0	1160773632	63	4332
2026-01-25 04:55:00.44	298.26	7.61	-46.1	-47.8	18.5	0.00e+00	0	44	0	1167065088	63	4475
2026-01-25 04:55:03.46	297.98	7.42	-46.3	-48.0	18.3	0.00e+00	0	44	0	1172307968	63	4592
2026-01-25 04:55:06.49	297.70	7.22	-46.5	-48.3	17.9	0.00e+00	0	44	0	1178599424	64	4471
2026-01-25 04:55:09.51	297.42	7.03	-47.0	-49.0	17.3	0.00e+00	0	44	0	1183842304	64	4839
2026-01-25 04:55:12.53	297.15	6.84	-47.5	-49.7	16.5	0.00e+00	0	44	0	1189085184	65	4964
2026-01-25 04:55:15.56	296.89	6.64	-47.6	-49.9	16.3	0.00e+00	0	44	0	1195376640	65	5093
2026-01-25 04:55:18.58	296.62	6.45	-47.8	-50.2	16.0	0.00e+00	0	44	0	1200619520	66	4958
2026-01-25 04:55:21.61	296.36	6.26	-47.9	-50.3	15.8	0.00e+00	0	44	0	1206910976	66	5035
2026-01-25 04:55:24.63	296.11	6.07	-47.9	-50.4	15.8	0.00e+00	0	44	0	1212153856	66	5050
2026-01-25 04:55:27.65	295.86	5.88	-47.7	-50.0	16.1	0.00e+00	0	44	0	1217396736	66	4869
2026-01-25 04:55:30.68	295.61	5.69	-47.8	-50.3	15.9	0.00e+00	0	44	0	1223688192	66	4990
2026-01-25 04:55:33.70	295.36	5.51	-48.1	-50.7	15.4	0.00e+00	0	44	0	1228931072	66	5237
2026-01-25 04:55:36.73	295.12	5.32	-48.2	-50.9	15.2	0.00e+00	0	44	0	1235222528	67	5071
2026-01-25 04:55:39.75	294.88	5.13	-48.6	-51.5	14.5	0.00e+00	0	44	0	1240465408	67	5447
2026-01-25 04:55:42.77	294.64	4.95	-52.8	-67.7	3.8	1.49e+00	0	45	104	1244659712	76	20838
2026-01-25 04:55:45.80	294.41	4.77	-53.4	-68.4	3.8	1.49e+00	0	44	104	1244659712	77	21420
2026-01-25 04:55:48.82	294.18	4.58	-53.8	-68.8	3.8	1.49e+00	0	44	104	1244659712	78	21025
2026-01-25 04:55:51.85	293.95	4.40	-54.0	-69.0	3.8	1.49e+00	0	45	104	1244659712	78	21609
2026-01-25 04:55:54.87	293.73	4.22	-54.1	-69.1	3.8	1.49e+00	0	44	104	1244659712	78	21918
2026-01-25 04:55:57.90	293.51	4.04	-54.2	-69.2	3.8	1.49e+00	0	44	104	1244659712	78	22087
2026-01-25 04:56:00.93	293.29	3.86	-54.2	-69.2	3.8	1.49e+00	0	44	104	1244659712	78	22036
2026-01-25 04:56:03.95	293.07	3.68	-54.2	-69.1	3.8	1.49e+00	0	45	104	1244659712	78	21917
2026-01-25 04:56:06.98	292.86	3.50	-54.1	-69.1	3.8	1.49e+00	0	44	104	1244659712	78	21777
2026-01-25 04:56:10.00	292.65	3.32	-54.0	-69.0	3.8	1.49e+00	0	44	104	1244659712	78	21582
2026-01-25 04:56:13.03	292.44	3.14	-53.9	-68.9	3.8	1.49e+00	0	45	104	1244659712	78	21296
2026-01-25 04:56:16.05	292.24	2.97	-53.8	-68.8	3.8	1.49e+00	0	44	104	1244659712	78	21166
2026-01-25 04:56:19.08	292.03	2.79	-53.8	-68.8	3.8	1.49e+00	0	44	104	1244659712	78	21114
2026-01-25 04:56:22.10	291.83	2.62	-53.8	-68.8	3.8	1.49e+00	0	44	104	1244659712	78	21096
2026-01-25 04:56:25.13	291.64	2.44	-53.8	-68.8	3.8	1.49e+00	0	44	104	1244659712	78	21091
2026-01-25 04:56:28.15	291.44	2.27	-53.8	-68.7	3.8	1.49e+00	0	44	104	1244659712	78	21013
2026-01-25 04:56:31.18	291.25	2.10	-53.8	-68.7	3.8	1.49e+00	0	45	104	1244659712	78	20992

#Closed at: 2026-01-25 04:56:33
#Recorded file [1244 MB]: D:/lorett/data/31041_260125_074351.dat