passes_logs/2026/01/25/R3.2S_Murmansk/R3.2S_Murmansk__20260125_094115_SUOMI_NPP_rec.log

#Pass ID: 20260125_094115_SUOMI NPP
#Satellite: SUOMI NPP
#Configuration: NPP
#almurnet v.1.7.20251203
#Start time: 2026-01-25 09:41:17

#Version: 2.2.20231116
#Station: R3.2S_Murmansk
#Location: 33.079688 lon 68.888172 lat
#TLE: 1 37849U 11061A   26024.97198022  .00000188  00000+0  11029-3 0  9994
#TLE: 2 37849  98.7821 326.9352 0002187  46.6646 313.4712 14.19529581738125

#Time	Az	El	Level	Level2	SNR	BER	BlckErr	Temp	State	Recorded	gain1	gain2
2026-01-25 09:41:17.44	153.75	2.12	-52.1	-67.0	3.8	1.49e+00	0	42	0	0	76	19312
2026-01-25 09:41:21.47	153.78	2.38	-52.0	-67.0	3.8	1.49e+00	0	42	104	0	74	21570
2026-01-25 09:41:25.50	153.80	2.64	-52.0	-67.0	3.8	1.49e+00	0	42	104	0	74	21528
2026-01-25 09:41:29.54	153.82	2.91	-52.0	-66.9	3.8	1.49e+00	0	42	104	0	74	21330
2026-01-25 09:41:33.57	153.84	3.18	-52.0	-66.5	3.8	1.49e+00	0	42	104	0	74	20495
2026-01-25 09:41:37.60	153.86	3.45	-52.0	-66.6	3.8	1.49e+00	0	42	104	0	74	20546
2026-01-25 09:41:41.64	153.88	3.72	-51.9	-64.4	4.0	1.48e+00	0	42	104	0	74	15992
2026-01-25 09:41:45.68	153.91	4.00	-51.1	-58.2	7.4	1.98e-01	0	42	0	5242880	74	7884
2026-01-25 09:41:49.71	153.93	4.28	-49.9	-54.3	11.5	1.45e-03	0	42	0	12582912	71	5979
2026-01-25 09:41:53.74	153.95	4.56	-49.2	-52.7	13.2	2.05e-05	0	43	0	19922944	70	5264
2026-01-25 09:41:57.78	153.98	4.85	-49.3	-52.9	13.0	8.30e-06	0	43	0	27262976	69	5663
2026-01-25 09:42:01.81	154.00	5.14	-49.1	-52.2	13.9	2.51e-05	0	43	0	34603008	70	4967
2026-01-25 09:42:05.85	154.02	5.43	-49.0	-52.1	14.0	2.13e-05	0	43	0	39845888	69	5187
2026-01-25 09:42:09.88	154.05	5.72	-48.8	-51.8	14.4	0.00e+00	0	43	0	47185920	69	4997
2026-01-25 09:42:13.91	154.07	6.02	-48.8	-51.7	14.5	0.00e+00	0	43	0	54525952	69	4982
2026-01-25 09:42:17.95	154.09	6.33	-48.7	-51.5	14.8	0.00e+00	0	43	0	61865984	69	4836
2026-01-25 09:42:21.99	154.12	6.63	-48.7	-51.4	14.9	0.00e+00	0	43	0	70254592	69	4804
2026-01-25 09:42:26.02	154.14	6.94	-48.8	-51.6	14.8	0.00e+00	0	43	0	77594624	69	4915
2026-01-25 09:42:30.05	154.17	7.25	-48.6	-51.2	15.2	0.00e+00	0	43	0	84934656	68	4943
2026-01-25 09:42:34.08	154.19	7.57	-48.5	-51.1	15.3	0.00e+00	0	43	0	92274688	68	4901
2026-01-25 09:42:38.12	154.22	7.89	-48.4	-50.9	15.6	0.00e+00	0	43	0	99614720	68	4780
2026-01-25 09:42:42.15	154.24	8.22	-48.4	-50.9	15.6	0.00e+00	0	43	0	108003328	68	4772
2026-01-25 09:42:46.19	154.27	8.55	-48.3	-50.7	15.8	0.00e+00	0	43	0	115343360	68	4685
2026-01-25 09:42:50.21	154.29	8.88	-48.3	-50.7	15.9	0.00e+00	0	43	0	122683392	68	4654
2026-01-25 09:42:54.25	154.32	9.22	-48.1	-50.5	16.1	0.00e+00	0	43	0	130023424	68	4558
2026-01-25 09:42:58.28	154.35	9.56	-47.8	-50.0	16.5	0.00e+00	0	43	0	137363456	67	4591
2026-01-25 09:43:02.32	154.37	9.91	-47.7	-49.9	16.7	0.00e+00	0	43	0	145752064	67	4504
2026-01-25 09:43:06.35	154.40	10.26	-47.6	-49.7	16.8	0.00e+00	0	43	0	153092096	67	4418
2026-01-25 09:43:10.39	154.43	10.62	-47.6	-49.7	16.9	0.00e+00	0	43	0	160432128	67	4396
2026-01-25 09:43:14.42	154.45	10.98	-47.4	-49.4	17.2	0.00e+00	0	43	0	167772160	66	4512
2026-01-25 09:43:18.45	154.48	11.35	-47.2	-49.2	17.4	0.00e+00	0	43	0	176160768	66	4392
2026-01-25 09:43:22.48	154.51	11.73	-47.1	-49.0	17.6	0.00e+00	0	43	0	183500800	66	4321
2026-01-25 09:43:26.52	154.54	12.11	-46.9	-48.7	18.0	0.00e+00	0	43	0	190840832	65	4408
2026-01-25 09:43:30.55	154.57	12.49	-46.8	-48.5	18.2	0.00e+00	0	44	0	198180864	65	4303
2026-01-25 09:43:34.58	154.60	12.89	-46.4	-48.0	18.6	0.00e+00	0	44	0	205520896	64	4312
2026-01-25 09:43:38.61	154.63	13.28	-46.5	-48.1	18.6	0.00e+00	0	43	0	213909504	64	4368
2026-01-25 09:43:42.65	154.66	13.69	-46.3	-47.8	18.9	0.00e+00	0	43	0	221249536	64	4230
2026-01-25 09:43:46.68	154.69	14.10	-46.2	-47.7	18.9	0.00e+00	0	44	0	228589568	64	4177
2026-01-25 09:43:50.71	154.72	14.52	-45.7	-47.2	19.6	0.00e+00	0	44	0	235929600	63	4154
2026-01-25 09:43:54.74	154.75	14.95	-45.6	-47.1	19.7	0.00e+00	0	44	0	244318208	63	4102
2026-01-25 09:43:58.78	154.79	15.38	-45.3	-46.7	20.0	0.00e+00	0	44	0	251658240	62	4153
2026-01-25 09:44:02.81	154.82	15.82	-45.4	-46.8	20.0	0.00e+00	0	43	0	258998272	62	4196
2026-01-25 09:44:06.84	154.85	16.28	-45.2	-46.4	20.3	0.00e+00	0	44	0	266338304	62	4049
2026-01-25 09:44:10.87	154.89	16.73	-45.1	-46.4	20.3	0.00e+00	0	44	0	273678336	62	4014
2026-01-25 09:44:14.90	154.92	17.20	-44.9	-46.2	20.5	0.00e+00	0	44	0	281018368	61	4165
2026-01-25 09:44:18.94	154.96	17.68	-44.7	-45.9	20.8	0.00e+00	0	44	0	289406976	61	4050
2026-01-25 09:44:22.97	154.99	18.17	-44.6	-45.8	20.9	0.00e+00	0	44	0	296747008	61	3980
2026-01-25 09:44:27.00	155.03	18.66	-44.7	-45.9	20.9	0.00e+00	0	44	0	304087040	61	4020
2026-01-25 09:44:31.03	155.07	19.17	-44.8	-46.1	20.7	0.00e+00	0	44	0	311427072	61	4101
2026-01-25 09:44:35.06	155.10	19.68	-44.9	-46.1	20.7	0.00e+00	0	44	0	319815680	61	4138
2026-01-25 09:44:39.10	155.14	20.21	-44.8	-46.0	20.7	0.00e+00	0	44	0	327155712	61	4096
2026-01-25 09:44:43.13	155.18	20.75	-44.9	-46.1	20.6	0.00e+00	0	44	0	334495744	61	4128
2026-01-25 09:44:47.16	155.22	21.30	-45.1	-46.3	20.5	0.00e+00	0	44	0	341835776	61	4235
2026-01-25 09:44:51.19	155.27	21.86	-45.4	-46.7	20.1	0.00e+00	0	44	0	349175808	61	4433
2026-01-25 09:44:55.23	155.31	22.44	-45.3	-46.7	20.2	0.00e+00	0	44	0	357564416	61	4400
2026-01-25 09:44:59.25	155.35	23.03	-45.3	-46.6	20.3	0.00e+00	0	44	0	364904448	61	4357
2026-01-25 09:45:03.29	155.40	23.63	-45.3	-46.6	20.3	0.00e+00	0	44	0	372244480	61	4361
2026-01-25 09:45:07.32	155.44	24.25	-45.4	-46.7	20.3	0.00e+00	0	44	0	379584512	61	4406
2026-01-25 09:45:11.35	155.49	24.88	-45.3	-46.5	20.4	0.00e+00	0	44	0	386924544	61	4330
2026-01-25 09:45:15.38	155.54	25.53	-45.1	-46.3	20.6	0.00e+00	0	44	0	395313152	61	4214
2026-01-25 09:45:19.42	155.59	26.20	-45.4	-46.6	20.3	0.00e+00	0	44	0	402653184	61	4390
2026-01-25 09:45:23.45	155.64	26.88	-45.5	-46.8	20.2	0.00e+00	0	44	0	409993216	62	4201
2026-01-25 09:45:27.48	155.70	27.58	-45.6	-46.8	20.3	0.00e+00	0	44	0	417333248	62	4236
2026-01-25 09:45:31.51	155.75	28.29	-45.8	-47.1	20.0	0.00e+00	0	44	0	424673280	62	4383
2026-01-25 09:45:35.54	155.81	29.03	-46.7	-48.3	18.8	0.00e+00	0	44	0	433061888	64	4468
2026-01-25 09:45:39.57	155.87	29.78	-46.9	-48.5	18.6	0.00e+00	0	44	0	440401920	65	4337
2026-01-25 09:45:43.61	155.93	30.56	-47.1	-48.8	18.4	0.00e+00	0	44	0	447741952	65	4445
2026-01-25 09:45:47.64	155.99	31.36	-47.3	-49.1	18.1	0.00e+00	0	44	0	455081984	65	4603
2026-01-25 09:45:51.67	156.06	32.18	-47.0	-48.6	18.6	0.00e+00	0	44	0	463470592	65	4373
2026-01-25 09:45:55.70	156.13	33.02	-47.2	-48.9	18.3	0.00e+00	0	44	0	470810624	65	4524
2026-01-25 09:45:59.74	156.20	33.89	-47.1	-48.8	18.4	0.00e+00	0	44	0	478150656	65	4461
2026-01-25 09:46:03.77	156.27	34.78	-46.1	-47.5	19.7	0.00e+00	0	44	0	485490688	63	4322
2026-01-25 09:46:07.80	156.35	35.70	-45.2	-46.4	20.7	0.00e+00	0	44	0	492830720	62	4039
2026-01-25 09:46:11.83	156.43	36.64	-44.2	-45.3	21.7	0.00e+00	0	44	0	501219328	60	3983
2026-01-25 09:46:15.86	156.52	37.61	-44.1	-45.2	22.1	0.00e+00	0	44	0	508559360	59	4161
2026-01-25 09:46:19.90	156.61	38.62	-43.8	-44.7	22.4	0.00e+00	0	44	0	515899392	59	3958
2026-01-25 09:46:23.93	156.70	39.65	-44.6	-45.7	21.6	0.00e+00	0	44	0	523239424	59	4430
2026-01-25 09:46:27.96	156.80	40.71	-44.5	-45.7	21.4	0.00e+00	0	44	0	530579456	60	4154
2026-01-25 09:46:31.99	156.91	41.81	-44.9	-46.1	21.1	0.00e+00	0	44	0	538968064	61	4141
2026-01-25 09:46:36.02	157.02	42.94	-45.5	-46.8	20.5	0.00e+00	0	44	0	546308096	62	4225
2026-01-25 09:46:40.05	157.14	44.10	-45.7	-47.0	20.4	0.00e+00	0	44	0	553648128	62	4297
2026-01-25 09:46:44.09	157.27	45.30	-46.6	-48.1	19.2	0.00e+00	0	44	0	560988160	64	4357
2026-01-25 09:46:48.12	157.41	46.54	-46.8	-48.3	19.0	0.00e+00	0	44	0	568328192	65	4229
2026-01-25 09:46:52.15	157.56	47.82	-47.3	-49.0	18.4	0.00e+00	0	44	0	576716800	65	4550
2026-01-25 09:46:56.18	157.71	49.13	-46.6	-48.0	19.1	0.00e+00	0	44	0	584056832	64	4335
2026-01-25 09:47:00.22	157.89	50.49	-46.0	-47.4	20.0	0.00e+00	0	44	0	591396864	63	4258
2026-01-25 09:47:04.25	158.07	51.88	-44.3	-45.3	21.8	0.00e+00	0	44	0	598736896	60	3998
2026-01-25 09:47:08.29	158.28	53.32	-44.7	-45.8	21.3	0.00e+00	0	44	0	607125504	60	4233
2026-01-25 09:47:12.32	158.50	54.80	-45.3	-46.5	20.8	0.00e+00	0	44	0	614465536	61	4321
2026-01-25 09:47:16.35	158.75	56.31	-44.3	-45.3	22.1	0.00e+00	0	44	0	621805568	59	4226
2026-01-25 09:47:20.38	159.02	57.88	-45.1	-46.4	20.8	0.00e+00	0	44	0	629145600	60	4498
2026-01-25 09:47:24.42	159.33	59.48	-44.9	-46.0	21.3	0.00e+00	0	44	0	636485632	60	4334
2026-01-25 09:47:28.45	159.67	61.13	-43.8	-44.8	22.5	0.00e+00	0	44	0	644874240	59	3982
2026-01-25 09:47:32.49	160.06	62.82	-43.1	-44.0	23.1	0.00e+00	0	44	0	652214272	57	4095
2026-01-25 09:47:36.52	160.51	64.55	-43.0	-43.9	23.2	0.00e+00	0	44	0	659554304	57	4039
2026-01-25 09:47:40.56	161.03	66.32	-43.8	-44.8	22.6	0.00e+00	0	44	0	666894336	58	4216
2026-01-25 09:47:44.59	161.64	68.12	-45.9	-47.2	20.3	0.00e+00	0	44	0	674234368	62	4401
2026-01-25 09:47:48.62	162.37	69.96	-47.8	-49.6	17.9	0.00e+00	0	44	0	682622976	67	4348
2026-01-25 09:47:52.66	163.26	71.83	-47.7	-49.4	17.9	0.00e+00	0	44	0	689963008	66	4525
2026-01-25 09:47:56.69	164.37	73.73	-44.3	-45.3	22.1	0.00e+00	0	44	0	697303040	59	4211
2026-01-25 09:48:00.72	165.77	75.65	-46.7	-48.2	19.2	0.00e+00	0	44	0	704643072	64	4428
2026-01-25 09:48:04.76	167.64	77.60	-45.4	-46.6	20.8	0.00e+00	0	44	0	713031680	61	4384
2026-01-25 09:48:08.79	170.20	79.54	-47.3	-48.9	18.7	0.00e+00	0	44	0	720371712	66	4291
2026-01-25 09:48:12.82	173.95	81.48	-48.0	-49.9	17.7	0.00e+00	0	44	0	727711744	66	4764
2026-01-25 09:48:16.86	179.91	83.38	-47.3	-48.9	18.6	0.00e+00	0	44	0	735051776	66	4262
2026-01-25 09:48:20.89	190.45	85.15	-45.2	-46.3	21.0	0.00e+00	0	44	0	742391808	62	3978
2026-01-25 09:48:24.92	211.40	86.61	-48.2	-50.2	17.4	0.00e+00	0	44	0	750780416	67	4652
2026-01-25 09:48:28.95	248.91	87.15	-47.4	-49.1	18.4	0.00e+00	0	44	0	758120448	66	4343
2026-01-25 09:48:32.98	283.48	86.36	-47.1	-48.8	18.8	0.00e+00	0	44	0	765460480	64	4713
2026-01-25 09:48:37.01	301.59	84.81	-45.7	-47.0	20.5	0.00e+00	0	44	0	772800512	62	4318
2026-01-25 09:48:41.04	310.87	83.00	-45.4	-46.6	20.8	0.00e+00	0	44	0	780140544	61	4362
2026-01-25 09:48:45.08	316.26	81.09	-46.9	-48.4	19.0	0.00e+00	0	44	0	788529152	65	4248
2026-01-25 09:48:49.11	319.71	79.15	-46.0	-47.3	20.4	0.00e+00	0	44	0	795869184	62	4464
2026-01-25 09:48:53.14	322.11	77.21	-48.2	-50.0	17.9	0.00e+00	0	44	0	803209216	67	4591
2026-01-25 09:48:57.17	323.86	75.28	-46.6	-48.0	19.6	0.00e+00	0	44	0	810549248	64	4328
2026-01-25 09:49:01.20	325.19	73.36	-46.4	-47.7	19.8	0.00e+00	0	44	0	817889280	64	4189
2026-01-25 09:49:05.23	326.25	71.47	-48.7	-50.7	17.0	0.00e+00	0	44	0	826277888	68	4688
2026-01-25 09:49:09.26	327.10	69.61	-48.6	-50.6	17.2	0.00e+00	0	44	0	833617920	69	4344
2026-01-25 09:49:13.30	327.80	67.78	-46.6	-48.0	19.5	0.00e+00	0	44	0	840957952	65	4081
2026-01-25 09:49:17.33	328.40	65.98	-46.1	-47.4	20.2	0.00e+00	0	44	0	848297984	63	4260
2026-01-25 09:49:21.36	328.90	64.23	-44.2	-45.3	22.3	0.00e+00	0	44	0	856686592	59	4204
2026-01-25 09:49:25.39	329.34	62.51	-44.2	-45.2	22.4	0.00e+00	0	44	0	864026624	59	4169
2026-01-25 09:49:29.42	329.72	60.84	-47.4	-49.1	18.6	0.00e+00	0	44	0	871366656	65	4615
2026-01-25 09:49:33.45	330.06	59.20	-45.6	-46.9	20.7	0.00e+00	0	44	0	878706688	62	4250
2026-01-25 09:49:37.48	330.36	57.61	-46.8	-48.4	19.2	0.00e+00	0	44	0	886046720	64	4503
2026-01-25 09:49:41.51	330.62	56.06	-46.0	-47.3	20.3	0.00e+00	0	44	0	893386752	62	4480
2026-01-25 09:49:45.55	330.87	54.55	-45.4	-46.6	20.9	0.00e+00	0	44	0	901775360	61	4389
2026-01-25 09:49:49.58	331.09	53.09	-45.3	-46.4	21.1	0.00e+00	0	44	0	909115392	61	4280
2026-01-25 09:49:53.62	331.29	51.66	-47.8	-49.6	17.9	0.00e+00	0	44	0	916455424	66	4642
2026-01-25 09:49:57.65	331.47	50.28	-46.1	-47.4	20.0	0.00e+00	0	44	0	923795456	64	4044
2026-01-25 09:50:01.68	331.64	48.94	-47.4	-49.0	18.4	0.00e+00	0	44	0	932184064	65	4571
2026-01-25 09:50:05.72	331.80	47.63	-47.4	-49.1	18.3	0.00e+00	0	44	0	939524096	67	4130
2026-01-25 09:50:09.75	331.94	46.37	-45.4	-46.7	20.7	0.00e+00	0	44	0	946864128	61	4403
2026-01-25 09:50:13.78	332.08	45.14	-47.1	-48.8	18.8	0.00e+00	0	44	0	954204160	64	4711
2026-01-25 09:50:17.82	332.21	43.95	-45.0	-46.2	21.2	0.00e+00	0	44	0	961544192	62	3926
2026-01-25 09:50:21.85	332.33	42.80	-44.8	-45.9	21.4	0.00e+00	0	44	0	969932800	60	4243
2026-01-25 09:50:25.88	332.44	41.68	-47.8	-49.7	17.8	0.00e+00	0	44	0	977272832	66	4700
2026-01-25 09:50:29.92	332.55	40.59	-46.0	-47.3	20.1	0.00e+00	0	44	0	984612864	63	4223
2026-01-25 09:50:33.96	332.65	39.53	-46.5	-48.0	19.3	0.00e+00	0	44	0	991952896	64	4300
2026-01-25 09:50:37.99	332.74	38.51	-49.8	-52.7	14.8	0.00e+00	0	44	0	1000341504	70	5265
2026-01-25 09:50:42.02	332.83	37.51	-48.7	-51.0	16.6	0.00e+00	0	44	0	1007681536	68	4829
2026-01-25 09:50:46.06	332.92	36.55	-48.5	-50.6	17.0	0.00e+00	0	44	0	1015021568	68	4604
2026-01-25 09:50:50.09	333.00	35.61	-48.1	-50.0	17.5	0.00e+00	0	44	0	1022361600	67	4549
2026-01-25 09:50:54.13	333.08	34.70	-49.9	-52.8	14.8	0.00e+00	0	44	0	1029701632	70	5287
2026-01-25 09:50:58.16	333.15	33.81	-50.3	-53.6	13.9	8.30e-06	0	44	0	1038090240	72	5201
2026-01-25 09:51:02.19	333.23	32.96	-49.8	-52.5	15.1	0.00e+00	0	44	0	1045430272	71	4831
2026-01-25 09:51:06.23	333.29	32.12	-47.3	-48.9	18.3	0.00e+00	0	44	0	1052770304	66	4275
2026-01-25 09:51:10.26	333.36	31.31	-46.1	-47.5	19.7	0.00e+00	0	44	0	1060110336	64	4070
2026-01-25 09:51:14.29	333.43	30.52	-47.8	-49.7	17.7	0.00e+00	0	44	0	1067450368	66	4681
2026-01-25 09:51:18.33	333.49	29.74	-50.0	-53.0	14.6	7.00e-07	0	44	0	1075838976	70	5414
2026-01-25 09:51:22.37	333.55	28.99	-48.4	-50.5	16.8	0.00e+00	0	44	0	1083179008	68	4581
2026-01-25 09:51:26.40	333.61	28.26	-46.9	-48.5	18.7	0.00e+00	0	44	0	1090519040	65	4309
2026-01-25 09:51:30.44	333.66	27.55	-45.9	-47.2	20.0	0.00e+00	0	44	0	1097859072	63	4159
2026-01-25 09:51:34.47	333.72	26.86	-45.6	-46.8	20.3	0.00e+00	0	44	0	1106247680	62	4236
2026-01-25 09:51:38.50	333.77	26.18	-45.2	-46.4	20.6	0.00e+00	0	44	0	1113587712	61	4276
2026-01-25 09:51:42.53	333.82	25.52	-44.4	-45.6	21.4	0.00e+00	0	44	0	1120927744	60	4123
2026-01-25 09:51:46.57	333.87	24.88	-44.9	-46.1	20.9	0.00e+00	0	44	0	1128267776	60	4352
2026-01-25 09:51:50.60	333.92	24.25	-45.3	-46.6	20.5	0.00e+00	0	44	0	1135607808	61	4364
2026-01-25 09:51:54.63	333.97	23.64	-44.9	-46.0	20.9	0.00e+00	0	44	0	1142947840	61	4096
2026-01-25 09:51:58.67	334.01	23.04	-44.1	-45.2	21.6	0.00e+00	0	44	0	1151336448	60	3944
2026-01-25 09:52:02.70	334.06	22.45	-44.4	-45.5	21.7	0.00e+00	0	44	0	1158676480	59	4308
2026-01-25 09:52:06.74	334.10	21.88	-44.6	-45.8	21.4	0.00e+00	0	44	0	1166016512	59	4467
2026-01-25 09:52:10.77	334.15	21.32	-44.4	-45.5	21.3	0.00e+00	0	44	0	1173356544	60	4085
2026-01-25 09:52:14.80	334.19	20.77	-44.8	-46.0	20.9	0.00e+00	0	44	0	1181745152	60	4313
2026-01-25 09:52:18.84	334.23	20.24	-45.0	-46.2	20.7	0.00e+00	0	44	0	1189085184	60	4430
2026-01-25 09:52:22.87	334.27	19.71	-45.0	-46.2	20.7	0.00e+00	0	44	0	1196425216	60	4439
2026-01-25 09:52:26.91	334.31	19.20	-44.9	-46.1	20.7	0.00e+00	0	44	0	1203765248	60	4375
2026-01-25 09:52:30.94	334.35	18.70	-44.7	-45.9	20.9	0.00e+00	0	44	0	1212153856	60	4257
2026-01-25 09:52:34.97	334.39	18.20	-44.8	-46.0	20.8	0.00e+00	0	44	0	1219493888	60	4327
2026-01-25 09:52:39.01	334.43	17.72	-44.8	-46.0	20.8	0.00e+00	0	44	0	1226833920	60	4313
2026-01-25 09:52:43.04	334.46	17.25	-45.1	-46.4	20.4	0.00e+00	0	44	0	1234173952	60	4499
2026-01-25 09:52:47.08	334.50	16.78	-45.0	-46.2	20.5	0.00e+00	0	44	0	1241513984	60	4437
2026-01-25 09:52:51.11	334.54	16.32	-45.1	-46.4	20.4	0.00e+00	0	44	0	1249902592	60	4500
2026-01-25 09:52:55.14	334.57	15.88	-45.3	-46.6	20.2	0.00e+00	0	44	0	1257242624	61	4354
2026-01-25 09:52:59.18	334.61	15.44	-45.2	-46.5	20.2	0.00e+00	0	44	0	1264582656	61	4333
2026-01-25 09:53:03.21	334.64	15.00	-45.5	-46.9	19.9	0.00e+00	0	44	0	1271922688	61	4503
2026-01-25 09:53:07.24	334.67	14.58	-45.7	-47.1	19.6	0.00e+00	0	44	0	1279262720	61	4635
2026-01-25 09:53:11.27	334.71	14.16	-45.8	-47.3	19.5	0.00e+00	0	44	0	1287651328	62	4444
2026-01-25 09:53:15.30	334.74	13.75	-45.8	-47.2	19.5	0.00e+00	0	44	0	1294991360	62	4415
2026-01-25 09:53:19.34	334.77	13.35	-45.8	-47.3	19.5	0.00e+00	0	44	0	1302331392	62	4460
2026-01-25 09:53:23.37	334.81	12.95	-45.5	-46.9	19.7	0.00e+00	0	44	0	1309671424	62	4286
2026-01-25 09:53:27.40	334.84	12.56	-45.5	-46.8	19.8	0.00e+00	0	44	0	1317011456	62	4242
2026-01-25 09:53:31.43	334.87	12.18	-45.5	-46.9	19.7	0.00e+00	0	44	0	1325400064	62	4284
2026-01-25 09:53:35.46	334.90	11.80	-45.5	-46.9	19.7	0.00e+00	0	44	0	1332740096	62	4283
2026-01-25 09:53:39.50	334.93	11.43	-45.5	-46.9	19.7	0.00e+00	0	44	0	1340080128	62	4288
2026-01-25 09:53:43.53	334.96	11.06	-45.5	-46.9	19.6	0.00e+00	0	44	0	1347420160	62	4284
2026-01-25 09:53:47.56	334.99	10.70	-45.5	-47.0	19.6	0.00e+00	0	44	0	1355808768	62	4296
2026-01-25 09:53:51.60	335.02	10.34	-45.7	-47.2	19.3	0.00e+00	0	44	0	1363148800	62	4399
2026-01-25 09:53:55.63	335.05	9.99	-45.7	-47.2	19.3	0.00e+00	0	44	0	1370488832	62	4424
2026-01-25 09:53:59.66	335.08	9.65	-45.9	-47.4	19.1	0.00e+00	0	44	0	1377828864	62	4509
2026-01-25 09:54:03.70	335.11	9.31	-46.0	-47.5	18.9	0.00e+00	0	44	0	1385168896	62	4598
2026-01-25 09:54:07.73	335.14	8.97	-46.0	-47.6	18.9	0.00e+00	0	44	0	1392508928	62	4631
2026-01-25 09:54:11.76	335.17	8.64	-46.0	-47.6	18.8	0.00e+00	0	44	0	1400897536	62	4627
2026-01-25 09:54:15.79	335.19	8.31	-46.2	-47.9	18.5	0.00e+00	0	44	0	1408237568	63	4512
2026-01-25 09:54:19.83	335.22	7.99	-46.2	-47.8	18.5	0.00e+00	0	44	0	1415577600	63	4490
2026-01-25 09:54:23.86	335.25	7.67	-46.3	-48.0	18.3	0.00e+00	0	44	0	1422917632	63	4570
2026-01-25 09:54:27.90	335.28	7.35	-46.2	-47.9	18.4	0.00e+00	0	44	0	1431306240	63	4517
2026-01-25 09:54:31.93	335.30	7.04	-46.4	-48.2	18.2	0.00e+00	0	44	0	1438646272	63	4660
2026-01-25 09:54:35.96	335.33	6.73	-46.3	-48.0	18.2	0.00e+00	0	44	0	1445986304	63	4584
2026-01-25 09:54:39.99	335.36	6.43	-46.3	-48.1	18.1	0.00e+00	0	44	0	1453326336	64	4355
2026-01-25 09:54:44.02	335.38	6.13	-46.3	-48.1	18.0	0.00e+00	0	44	0	1460666368	64	4357
2026-01-25 09:54:48.06	335.41	5.83	-46.5	-48.4	17.7	0.00e+00	0	44	0	1469054976	64	4516
2026-01-25 09:54:52.09	335.44	5.53	-46.2	-47.9	18.1	0.00e+00	0	44	0	1476395008	64	4288
2026-01-25 09:54:56.12	335.46	5.24	-46.5	-48.3	17.6	0.00e+00	0	44	0	1483735040	64	4487
2026-01-25 09:55:00.16	335.49	4.95	-52.5	-67.5	3.8	5.88e-01	0	44	104	1491075072	75	21575
2026-01-25 09:55:04.19	335.52	4.67	-53.4	-68.4	3.8	1.49e+00	0	44	104	1491075072	77	21436
2026-01-25 09:55:08.23	335.54	4.39	-53.9	-68.9	3.8	1.49e+00	0	44	104	1491075072	78	21350
2026-01-25 09:55:12.26	335.57	4.11	-54.1	-69.1	3.8	1.49e+00	0	44	104	1491075072	78	21896
2026-01-25 09:55:16.29	335.59	3.83	-54.2	-69.2	3.8	1.49e+00	0	44	104	1491075072	79	20872
2026-01-25 09:55:20.32	335.62	3.56	-54.2	-69.2	3.8	1.49e+00	0	44	104	1491075072	79	20875
2026-01-25 09:55:24.36	335.64	3.29	-54.1	-69.1	3.8	1.49e+00	0	44	104	1491075072	79	20628
2026-01-25 09:55:28.40	335.67	3.02	-54.0	-69.0	3.8	1.49e+00	0	44	104	1491075072	79	20437
2026-01-25 09:55:32.43	335.69	2.76	-54.0	-69.0	3.8	1.49e+00	0	44	104	1491075072	79	20402
2026-01-25 09:55:36.46	335.72	2.49	-54.0	-68.9	3.8	1.49e+00	0	44	104	1491075072	79	20277
2026-01-25 09:55:40.50	335.74	2.23	-54.0	-69.0	3.8	1.49e+00	0	44	104	1491075072	79	20309

#Closed at: 2026-01-25 09:55:44
#Recorded file [1491 MB]: D:/lorett/data/31041_260125_124117.dat