passes_logs/2026/01/25/R3.2S_Murmansk/R3.2S_Murmansk__20260125_105617_TY-42_rec.log

#Pass ID: 20260125_105617_TY-42
#Satellite: TY-42
#Configuration: TY-42_900M
#almurnet v.1.7.20251203
#Start time: 2026-01-25 10:56:18

#Version: 2.2.20231116
#Station: R3.2S_Murmansk
#Location: 33.079688 lon 68.888172 lat
#TLE: 1 64048U 25103A   26024.92006944  .00008009  00000-0  38191-3 0 09993
#TLE: 2 64048 097.4112 100.1510 0001739 092.3265 306.2865 15.19163302 38320

#Time	Az	El	Level	Level2	SNR	BER	BlckErr	Temp	State	Recorded	gain1	gain2
2026-01-25 10:56:18.25	23.09	2.05	-52.5	-54.7	6.2	0.00e+00	0	50	0	0	77	17600
2026-01-25 10:56:21.27	22.90	2.25	-52.5	-54.6	6.2	0.00e+00	0	50	104	0	76	18566
2026-01-25 10:56:24.29	22.72	2.45	-52.5	-54.6	6.2	0.00e+00	0	50	104	0	76	18507
2026-01-25 10:56:27.32	22.53	2.66	-52.5	-54.6	6.2	0.00e+00	0	51	104	0	76	18512
2026-01-25 10:56:30.34	22.34	2.86	-52.5	-54.6	6.2	0.00e+00	0	51	104	0	76	18566
2026-01-25 10:56:33.36	22.14	3.07	-52.5	-54.6	6.2	0.00e+00	0	51	104	0	76	18510
2026-01-25 10:56:36.39	21.94	3.28	-52.5	-54.6	6.2	0.00e+00	0	51	104	0	76	18498
2026-01-25 10:56:39.42	21.73	3.49	-52.4	-54.5	6.2	0.00e+00	0	51	104	0	75	19453
2026-01-25 10:56:42.44	21.53	3.70	-52.3	-54.4	6.2	0.00e+00	0	52	104	0	75	19193
2026-01-25 10:56:45.46	21.31	3.91	-52.2	-54.3	6.2	0.00e+00	0	52	104	0	75	18910
2026-01-25 10:56:48.48	21.10	4.13	-52.1	-54.1	6.2	0.00e+00	0	52	104	0	75	18548
2026-01-25 10:56:51.50	20.88	4.34	-52.2	-54.2	6.2	0.00e+00	0	52	104	0	75	18791
2026-01-25 10:56:54.52	20.65	4.56	-52.3	-54.4	6.2	0.00e+00	0	52	104	0	75	19209
2026-01-25 10:56:57.55	20.42	4.78	-52.4	-54.5	6.2	0.00e+00	0	52	104	0	75	19436
2026-01-25 10:57:00.57	20.19	5.01	-52.4	-54.6	6.2	0.00e+00	0	52	104	0	75	19542
2026-01-25 10:57:03.59	19.95	5.23	-52.5	-54.6	6.2	0.00e+00	0	53	104	0	75	19574
2026-01-25 10:57:06.61	19.70	5.46	-48.5	-49.1	7.3	0.00e+00	0	52	104	0	69	14659
2026-01-25 10:57:09.64	19.45	5.69	-46.4	-46.9	8.6	0.00e+00	10954	55	0	83886080	62	16966
2026-01-25 10:57:12.66	19.20	5.92	-36.5	-36.4	13.7	0.00e+00	0	55	0	226492416	44	14381
2026-01-25 10:57:15.68	18.94	6.16	-37.1	-37.0	13.4	4.64e-02	0	55	0	570425344	44	15444
2026-01-25 10:57:18.70	18.67	6.39	-36.9	-36.9	13.6	5.14e-02	0	55	0	905969664	45	14321
2026-01-25 10:57:21.72	18.40	6.63	-36.3	-36.2	13.9	3.92e-02	0	55	0	1241513984	44	14092
2026-01-25 10:57:24.75	18.13	6.87	-36.1	-36.1	13.9	3.22e-02	0	56	0	1577058304	44	13851
2026-01-25 10:57:27.77	17.84	7.12	-36.1	-36.1	13.9	2.44e-02	0	55	0	1929379840	44	13863
2026-01-25 10:57:30.80	17.55	7.36	-36.0	-36.0	14.0	2.44e-02	0	56	0	2264924160	43	14442
2026-01-25 10:57:33.82	17.26	7.61	-36.0	-35.9	14.1	2.35e-02	0	56	0	2600468480	43	14432
2026-01-25 10:57:36.84	16.95	7.87	-35.7	-35.6	14.3	2.06e-02	0	56	0	2944401408	43	13903
2026-01-25 10:57:39.87	16.64	8.12	-35.4	-35.4	14.4	1.63e-02	0	56	0	3288334336	42	14308
2026-01-25 10:57:42.89	16.33	8.38	-35.2	-35.2	14.5	1.50e-02	0	56	0	3623878656	42	13973
2026-01-25 10:57:45.91	16.01	8.64	-35.4	-35.3	14.4	1.36e-02	0	57	0	3967811584	42	14177
2026-01-25 10:57:48.93	15.67	8.90	-35.5	-35.4	14.4	1.41e-02	0	57	0	4303355904	42	14361
2026-01-25 10:57:51.96	15.34	9.17	-34.9	-34.8	14.7	1.39e-02	0	57	0	4655677440	41	14214
2026-01-25 10:57:54.98	14.99	9.43	-34.9	-34.8	14.7	9.90e-03	0	57	0	4991221760	41	14230
2026-01-25 10:57:58.00	14.63	9.70	-34.5	-34.5	14.8	8.67e-03	0	57	0	5326766080	40	14476
2026-01-25 10:58:01.02	14.27	9.98	-34.5	-34.4	14.8	7.41e-03	0	57	0	5662310400	40	14373
2026-01-25 10:58:04.04	13.90	10.26	-34.3	-34.2	15.0	6.94e-03	0	57	0	5997854720	40	14089
2026-01-25 10:58:07.06	13.52	10.54	-34.2	-34.1	15.0	5.78e-03	0	57	0	6350176256	40	13878
2026-01-25 10:58:10.08	13.13	10.82	-33.9	-33.8	15.2	5.04e-03	0	57	0	6685720576	39	14224
2026-01-25 10:58:13.10	12.73	11.11	-33.8	-33.7	15.2	4.32e-03	0	57	0	7029653504	39	14046
2026-01-25 10:58:16.12	12.32	11.40	-33.8	-33.8	15.2	3.91e-03	0	58	0	7365197824	39	14140
2026-01-25 10:58:19.15	11.90	11.69	-33.7	-33.6	15.3	3.40e-03	0	58	0	7700742144	39	13934
2026-01-25 10:58:22.17	11.47	11.99	-33.5	-33.4	15.4	3.08e-03	0	58	0	8053063680	38	14301
2026-01-25 10:58:25.18	11.03	12.29	-33.2	-33.1	15.5	2.43e-03	0	58	0	8388608000	38	13924
2026-01-25 10:58:28.21	10.57	12.59	-32.8	-32.7	15.7	1.90e-03	0	58	0	8724152320	37	14099
2026-01-25 10:58:31.23	10.11	12.90	-32.9	-32.8	15.7	1.74e-03	0	58	0	9059696640	37	14233
2026-01-25 10:58:34.25	9.63	13.21	-32.8	-32.7	15.7	1.39e-03	0	58	0	9403629568	37	13993
2026-01-25 10:58:37.27	9.14	13.52	-32.6	-32.5	15.8	9.96e-04	0	58	0	9747562496	36	14452
2026-01-25 10:58:40.29	8.64	13.84	-32.2	-32.1	16.0	8.92e-04	0	58	0	10083106816	36	13820
2026-01-25 10:58:43.30	8.13	14.16	-32.2	-32.1	15.9	7.30e-04	0	58	0	10427039744	36	13810
2026-01-25 10:58:46.32	7.60	14.48	-32.1	-32.0	16.0	5.67e-04	0	58	0	10762584064	36	13689
2026-01-25 10:58:49.34	7.06	14.81	-29.5	-29.4	15.7	9.73e-04	0	58	0	11098128384	31	13590
2026-01-25 10:58:52.36	6.50	15.14	-29.4	-29.3	15.7	1.55e-03	0	58	0	11450449920	30	14232
2026-01-25 10:58:55.39	5.93	15.48	-29.3	-29.2	15.8	1.28e-03	0	58	0	11785994240	30	14094
2026-01-25 10:58:58.41	5.34	15.81	-29.2	-29.1	15.9	1.28e-03	0	59	0	12121538560	30	13906
2026-01-25 10:59:01.43	4.74	16.15	-29.3	-29.2	15.9	1.05e-03	0	59	0	12457082880	30	13961
2026-01-25 10:59:04.45	4.12	16.50	-29.0	-28.9	16.0	9.20e-04	0	58	0	12801015808	30	13503
2026-01-25 10:59:07.47	3.48	16.85	-28.9	-28.8	16.0	9.20e-04	0	59	0	13144948736	29	14188
2026-01-25 10:59:10.50	2.82	17.20	-28.7	-28.6	16.1	5.34e-04	0	59	0	13480493056	29	13925
2026-01-25 10:59:13.52	2.15	17.55	-28.7	-28.6	16.1	5.34e-04	0	59	0	13824425984	29	13865
2026-01-25 10:59:16.54	1.45	17.91	-28.5	-28.4	16.2	5.05e-04	0	58	0	14159970304	29	13536
2026-01-25 10:59:19.56	0.74	18.26	-28.3	-28.2	16.2	2.96e-04	0	58	0	14503903232	28	13978
2026-01-25 10:59:22.59	0.01	18.63	-28.3	-28.2	16.2	2.57e-04	0	59	0	14847836160	28	13960
2026-01-25 10:59:25.60	359.26	18.99	-28.0	-27.9	16.3	2.05e-04	0	58	0	15183380480	27	14337
2026-01-25 10:59:28.62	358.48	19.35	-27.8	-27.6	16.4	1.24e-04	0	59	0	15518924800	27	13940
2026-01-25 10:59:31.64	357.69	19.72	-27.7	-27.6	16.4	1.57e-04	0	59	0	15854469120	27	13875
2026-01-25 10:59:34.66	356.87	20.09	-27.7	-27.6	16.4	9.05e-05	0	59	0	16206790656	27	13799
2026-01-25 10:59:37.69	356.02	20.46	-27.4	-27.3	16.4	1.00e-04	0	59	0	16542334976	26	14213
2026-01-25 10:59:40.71	355.16	20.83	-27.2	-27.1	16.4	1.24e-04	0	59	0	16877879296	26	13911
2026-01-25 10:59:43.73	354.27	21.20	-27.2	-27.1	16.5	5.24e-05	0	58	0	17221812224	26	13884
2026-01-25 10:59:46.76	353.35	21.57	-27.2	-27.1	16.5	1.00e-04	0	59	0	17565745152	26	13819
2026-01-25 10:59:49.78	352.41	21.94	-26.9	-26.7	16.6	5.24e-05	0	58	0	17901289472	25	14092
2026-01-25 10:59:52.80	351.45	22.31	-26.7	-26.6	16.6	2.38e-05	0	59	0	18245222400	25	13890
2026-01-25 10:59:55.83	350.45	22.68	-26.6	-26.5	16.6	5.72e-05	0	59	0	18580766720	25	13755
2026-01-25 10:59:58.84	349.44	23.05	-26.5	-26.4	16.6	2.86e-05	0	59	0	18916311040	24	14374
2026-01-25 11:00:01.86	348.39	23.41	-26.4	-26.3	16.6	1.43e-05	0	59	0	19268632576	24	14156
2026-01-25 11:00:04.88	347.32	23.77	-26.3	-26.2	16.7	4.29e-05	0	59	0	19604176896	24	14086
2026-01-25 11:00:07.90	346.22	24.13	-26.2	-26.1	16.7	2.38e-05	0	59	0	19939721216	24	13817
2026-01-25 11:00:10.92	345.09	24.48	-26.2	-26.1	16.7	2.38e-05	0	59	0	20275265536	24	13792
2026-01-25 11:00:13.95	343.93	24.82	-26.1	-25.9	16.7	2.86e-05	0	59	0	20619198464	24	13623
2026-01-25 11:00:16.97	342.74	25.16	-26.1	-26.0	16.7	2.38e-05	0	59	0	20963131392	24	13683
2026-01-25 11:00:19.99	341.53	25.49	-26.0	-25.8	16.7	2.38e-05	0	59	0	21298675712	23	14263
2026-01-25 11:00:23.02	340.28	25.82	-25.9	-25.7	16.8	3.33e-05	0	59	0	21642608640	23	14087
2026-01-25 11:00:26.03	339.01	26.13	-25.7	-25.6	16.8	3.33e-05	0	59	0	21978152960	23	13822
2026-01-25 11:00:29.06	337.71	26.43	-25.6	-25.5	16.8	9.50e-06	0	59	0	22322085888	23	13658
2026-01-25 11:00:32.08	336.39	26.72	-25.4	-25.3	16.8	4.70e-06	0	59	0	22666018816	22	14178
2026-01-25 11:00:35.09	335.04	27.00	-25.5	-25.4	16.8	9.50e-06	0	59	0	23001563136	22	14336
2026-01-25 11:00:38.11	333.66	27.27	-25.4	-25.3	16.7	4.70e-06	0	59	0	23337107456	22	14139
2026-01-25 11:00:41.12	332.26	27.52	-25.2	-25.1	16.7	1.43e-05	0	59	0	23672651776	22	13922
2026-01-25 11:00:44.15	330.83	27.76	-25.3	-25.2	16.7	4.70e-06	0	59	0	24016584704	22	13972
2026-01-25 11:00:47.16	329.38	27.98	-25.1	-25.0	16.7	4.70e-06	0	59	0	24360517632	22	13702
2026-01-25 11:00:50.19	327.91	28.18	-25.2	-25.1	16.7	4.70e-06	0	59	0	24696061952	22	13804
2026-01-25 11:00:53.21	326.42	28.36	-25.1	-25.0	16.7	4.70e-06	0	59	0	25039994880	22	13711
2026-01-25 11:00:56.23	324.91	28.53	-25.1	-25.0	16.6	9.50e-06	0	59	0	25375539200	22	13714
2026-01-25 11:00:59.25	323.38	28.68	-25.1	-25.0	16.6	0.00e+00	0	59	0	25711083520	22	13708
2026-01-25 11:01:02.27	321.84	28.80	-25.0	-24.9	16.6	4.70e-06	0	59	0	26063405056	22	13594
2026-01-25 11:01:05.29	320.29	28.91	-25.1	-25.0	16.5	2.86e-05	0	59	0	26398949376	22	13652
2026-01-25 11:01:08.32	318.73	28.99	-25.1	-25.0	16.5	9.50e-06	0	59	0	26734493696	22	13673
2026-01-25 11:01:11.34	317.16	29.05	-25.0	-24.9	16.5	1.43e-05	0	59	0	27070038016	22	13537
2026-01-25 11:01:14.36	315.58	29.09	-25.1	-24.9	16.6	1.43e-05	0	59	0	27422359552	22	13627
2026-01-25 11:01:17.38	314.00	29.11	-25.2	-25.1	16.6	4.70e-06	0	59	0	27757903872	22	13862
2026-01-25 11:01:20.40	312.42	29.10	-25.0	-24.9	16.6	9.50e-06	0	59	0	28093448192	21	14286
2026-01-25 11:01:23.42	310.85	29.07	-24.9	-24.8	16.6	1.43e-05	0	59	0	28437381120	21	14233
2026-01-25 11:01:26.45	309.27	29.02	-25.0	-24.9	16.6	9.50e-06	0	59	0	28772925440	21	14338
2026-01-25 11:01:29.47	307.70	28.95	-24.9	-24.8	16.6	9.50e-06	0	58	0	29116858368	21	14236
2026-01-25 11:01:32.50	306.14	28.85	-25.0	-24.9	16.6	1.43e-05	0	58	0	29460791296	21	14396
2026-01-25 11:01:35.52	304.59	28.74	-25.0	-24.9	16.6	0.00e+00	0	59	0	29796335616	21	14301
2026-01-25 11:01:38.54	303.06	28.60	-25.0	-24.9	16.5	0.00e+00	0	59	0	30131879936	21	14353
2026-01-25 11:01:41.56	301.54	28.44	-25.0	-24.9	16.6	4.70e-06	0	59	0	30484201472	21	14409
2026-01-25 11:01:44.58	300.04	28.27	-25.0	-24.9	16.6	9.50e-06	0	59	0	30819745792	21	14427
2026-01-25 11:01:47.59	298.56	28.07	-25.2	-25.1	16.6	4.70e-06	0	59	0	31155290112	21	14754
2026-01-25 11:01:50.60	297.10	27.86	-25.2	-25.0	16.7	4.70e-06	0	59	0	31490834432	21	14606
2026-01-25 11:01:53.63	295.66	27.63	-25.2	-25.1	16.7	1.43e-05	0	59	0	31834767360	21	14709
2026-01-25 11:01:56.65	294.24	27.39	-25.3	-25.2	16.6	1.43e-05	0	58	0	32170311680	21	14872
2026-01-25 11:01:59.67	292.85	27.13	-25.4	-25.3	16.6	4.70e-06	0	58	0	32514244608	21	14974
2026-01-25 11:02:02.69	291.48	26.85	-25.5	-25.4	16.6	4.70e-06	0	58	0	32858177536	21	15185
2026-01-25 11:02:05.72	290.14	26.56	-25.5	-25.4	16.6	1.43e-05	0	58	0	33193721856	21	15160
2026-01-25 11:02:08.74	288.82	26.26	-25.6	-25.5	16.7	9.50e-06	0	59	0	33529266176	21	15303
2026-01-25 11:02:11.76	287.53	25.96	-25.5	-25.4	16.7	9.50e-06	0	59	0	33881587712	21	15263
2026-01-25 11:02:14.79	286.27	25.64	-25.6	-25.5	16.7	4.70e-06	0	59	0	34217132032	21	15353
2026-01-25 11:02:17.81	285.04	25.31	-25.6	-25.5	16.7	4.70e-06	0	58	0	34552676352	21	15437
2026-01-25 11:02:20.83	283.84	24.97	-25.9	-25.8	16.8	3.81e-05	0	59	0	34888220672	22	14954
2026-01-25 11:02:23.86	282.66	24.63	-25.9	-25.8	16.8	0.00e+00	0	58	0	35240542208	22	15019
2026-01-25 11:02:26.88	281.52	24.28	-25.9	-25.8	16.8	1.90e-05	0	58	0	35576086528	22	15091
2026-01-25 11:02:29.90	280.40	23.92	-26.1	-26.0	16.7	9.50e-06	0	58	0	35911630848	22	15362
2026-01-25 11:02:32.93	279.31	23.56	-26.1	-26.0	16.7	0.00e+00	0	58	0	36255563776	22	15387
2026-01-25 11:02:35.95	278.24	23.20	-26.3	-26.2	16.8	5.72e-05	0	59	0	36591108096	23	14814
2026-01-25 11:02:38.97	277.21	22.83	-26.5	-26.4	16.7	2.86e-05	0	58	0	36943429632	23	15166
2026-01-25 11:02:42.00	276.20	22.46	-26.6	-26.5	16.7	1.90e-05	0	58	0	37278973952	23	15336
2026-01-25 11:02:45.02	275.22	22.09	-26.8	-26.7	16.5	2.86e-05	0	59	0	37614518272	24	14809
2026-01-25 11:02:48.04	274.27	21.72	-26.8	-26.7	16.4	5.24e-05	0	59	0	37950062592	24	14942
2026-01-25 11:02:51.06	273.34	21.35	-27.0	-26.9	16.4	7.15e-05	0	59	0	38302384128	24	15153
2026-01-25 11:02:54.08	272.43	20.98	-53.9	-56.1	6.2	6.67e-05	0	58	104	38562430976	78	19700
2026-01-25 11:02:57.11	271.55	20.60	-53.9	-56.0	6.2	6.67e-05	0	57	104	38562430976	78	19454
2026-01-25 11:03:00.13	270.70	20.23	-53.9	-56.0	6.2	6.67e-05	0	57	104	38562430976	78	19356
2026-01-25 11:03:03.16	269.86	19.86	-53.8	-56.0	6.2	6.67e-05	0	57	104	38562430976	78	19331
2026-01-25 11:03:06.18	269.05	19.49	-53.8	-56.0	6.2	1.90e-05	0	57	104	38562430976	78	19276
2026-01-25 11:03:09.20	268.27	19.12	-53.8	-55.9	6.2	1.90e-05	0	57	104	38562430976	78	19244
2026-01-25 11:03:12.22	267.50	18.76	-53.8	-55.9	6.2	1.90e-05	0	57	104	38562430976	78	19234
2026-01-25 11:03:15.24	266.76	18.40	-53.8	-55.9	6.2	1.90e-05	0	57	104	38562430976	78	19192
2026-01-25 11:03:18.27	266.03	18.03	-53.8	-55.9	6.2	1.90e-05	0	57	104	38562430976	78	19105
2026-01-25 11:03:21.29	265.33	17.67	-53.7	-55.9	6.2	1.90e-05	0	56	104	38562430976	78	19094
2026-01-25 11:03:24.31	264.64	17.32	-53.7	-55.8	6.2	0.00e+00	0	56	104	38562430976	78	18972
2026-01-25 11:03:27.33	263.98	16.97	-53.7	-55.8	6.2	0.00e+00	0	56	104	38562430976	78	18924
2026-01-25 11:03:30.36	263.33	16.62	-53.7	-55.8	6.2	0.00e+00	0	56	104	38562430976	78	19003
2026-01-25 11:03:33.38	262.70	16.27	-53.6	-55.8	6.2	0.00e+00	0	56	104	38562430976	78	18826
2026-01-25 11:03:36.40	262.08	15.92	-53.6	-55.8	6.2	0.00e+00	0	56	104	38562430976	78	18834
2026-01-25 11:03:39.42	261.48	15.58	-53.6	-55.7	6.2	0.00e+00	0	56	104	38562430976	78	18765
2026-01-25 11:03:42.44	260.90	15.25	-53.6	-55.7	6.2	0.00e+00	0	56	104	38562430976	78	18787
2026-01-25 11:03:45.46	260.34	14.91	-53.6	-55.7	6.2	0.00e+00	0	56	104	38562430976	78	18720
2026-01-25 11:03:48.48	259.79	14.58	-53.5	-55.7	6.2	0.00e+00	0	56	104	38562430976	78	18675
2026-01-25 11:03:51.49	259.25	14.26	-53.5	-55.7	6.2	0.00e+00	0	56	104	38562430976	78	18650
2026-01-25 11:03:54.51	258.73	13.94	-53.5	-55.7	6.2	0.00e+00	0	56	104	38562430976	78	18621
2026-01-25 11:03:57.53	258.22	13.62	-53.5	-55.7	6.2	0.00e+00	0	56	104	38562430976	78	18613
2026-01-25 11:04:00.56	257.72	13.30	-53.5	-55.6	6.2	0.00e+00	0	56	104	38562430976	78	18526
2026-01-25 11:04:03.58	257.24	12.99	-53.5	-55.6	6.2	0.00e+00	0	56	104	38562430976	78	18567
2026-01-25 11:04:06.60	256.76	12.68	-53.5	-55.6	6.2	0.00e+00	0	56	104	38562430976	78	18546
2026-01-25 11:04:09.62	256.30	12.37	-53.5	-55.6	6.2	0.00e+00	0	56	104	38562430976	78	18468
2026-01-25 11:04:12.65	255.85	12.07	-53.4	-55.6	6.2	0.00e+00	0	55	104	38562430976	78	18418
2026-01-25 11:04:15.67	255.42	11.77	-53.4	-55.5	6.2	0.00e+00	0	56	104	38562430976	78	18377
2026-01-25 11:04:18.69	254.99	11.47	-53.4	-55.5	6.2	0.00e+00	0	56	104	38562430976	78	18365
2026-01-25 11:04:21.71	254.57	11.18	-53.4	-55.5	6.2	0.00e+00	0	55	104	38562430976	78	18282
2026-01-25 11:04:24.73	254.17	10.89	-53.3	-55.4	6.2	0.00e+00	0	56	104	38562430976	78	18172
2026-01-25 11:04:27.76	253.77	10.60	-53.3	-55.4	6.2	0.00e+00	0	55	104	38562430976	78	18148
2026-01-25 11:04:30.78	253.38	10.32	-53.3	-55.5	6.2	0.00e+00	0	55	104	38562430976	78	18184
2026-01-25 11:04:33.80	253.01	10.04	-53.3	-55.4	6.2	0.00e+00	0	55	104	38562430976	78	18108
2026-01-25 11:04:36.82	252.64	9.76	-53.2	-55.4	6.2	0.00e+00	0	55	104	38562430976	78	17985
2026-01-25 11:04:39.85	252.28	9.49	-53.2	-55.4	6.2	0.00e+00	0	55	104	38562430976	78	17997
2026-01-25 11:04:42.87	251.92	9.22	-53.3	-55.4	6.2	0.00e+00	0	55	104	38562430976	78	18001
2026-01-25 11:04:45.89	251.58	8.95	-53.2	-55.4	6.2	0.00e+00	0	55	104	38562430976	78	18001
2026-01-25 11:04:48.91	251.25	8.69	-53.1	-55.3	6.2	0.00e+00	0	55	104	38562430976	78	17876
2026-01-25 11:04:51.93	250.92	8.43	-53.1	-55.3	6.2	0.00e+00	0	55	104	38562430976	78	17773
2026-01-25 11:04:54.95	250.60	8.17	-53.2	-55.3	6.2	0.00e+00	0	55	104	38562430976	78	17842
2026-01-25 11:04:57.97	250.28	7.91	-53.1	-55.3	6.2	0.00e+00	0	55	104	38562430976	78	17833
2026-01-25 11:05:01.00	249.97	7.66	-53.1	-55.2	6.2	0.00e+00	0	55	104	38562430976	78	17629
2026-01-25 11:05:04.02	249.67	7.41	-53.0	-55.1	6.2	0.00e+00	0	55	104	38562430976	78	17562
2026-01-25 11:05:07.04	249.38	7.16	-53.1	-55.2	6.2	0.00e+00	0	55	104	38562430976	78	17635
2026-01-25 11:05:10.07	249.09	6.91	-53.0	-55.1	6.2	0.00e+00	0	55	104	38562430976	77	18554
2026-01-25 11:05:13.09	248.81	6.67	-52.9	-55.0	6.2	0.00e+00	0	55	104	38562430976	77	18357
2026-01-25 11:05:16.11	248.53	6.43	-52.8	-55.0	6.2	0.00e+00	0	55	104	38562430976	77	18222
2026-01-25 11:05:19.14	248.26	6.19	-52.9	-55.0	6.2	0.00e+00	0	55	104	38562430976	77	18346
2026-01-25 11:05:22.16	248.00	5.95	-52.9	-55.0	6.2	0.00e+00	0	55	104	38562430976	77	18211
2026-01-25 11:05:25.18	247.74	5.72	-52.7	-54.9	6.2	0.00e+00	0	55	104	38562430976	77	17979
2026-01-25 11:05:28.21	247.49	5.49	-52.7	-54.8	6.2	0.00e+00	0	55	104	38562430976	77	17957
2026-01-25 11:05:31.23	247.24	5.26	-52.8	-54.9	6.2	0.00e+00	0	55	104	38562430976	77	18080
2026-01-25 11:05:34.25	247.00	5.03	-52.7	-54.9	6.2	0.00e+00	0	55	104	38562430976	77	17978
2026-01-25 11:05:37.27	246.76	4.81	-53.7	-55.8	6.2	0.00e+00	0	55	104	38562430976	77	20020
2026-01-25 11:05:40.30	246.52	4.59	-54.1	-56.2	6.2	0.00e+00	0	55	104	38562430976	78	19919
2026-01-25 11:05:43.33	246.29	4.36	-54.4	-56.5	6.2	0.00e+00	0	55	104	38562430976	79	19431
2026-01-25 11:05:46.35	246.07	4.15	-54.6	-56.7	6.2	0.00e+00	0	55	104	38562430976	79	19787
2026-01-25 11:05:49.37	245.85	3.93	-54.6	-56.8	6.2	0.00e+00	0	55	104	38562430976	79	20020
2026-01-25 11:05:52.40	245.63	3.71	-54.6	-56.7	6.2	0.00e+00	0	55	104	38562430976	79	19921
2026-01-25 11:05:55.42	245.42	3.50	-54.6	-56.7	6.2	0.00e+00	0	55	104	38562430976	79	19871
2026-01-25 11:05:58.44	245.21	3.29	-54.5	-56.7	6.2	0.00e+00	0	55	104	38562430976	79	19706
2026-01-25 11:06:01.46	245.01	3.08	-54.5	-56.6	6.2	0.00e+00	0	55	104	38562430976	79	19559
2026-01-25 11:06:04.48	244.81	2.87	-54.4	-56.6	6.2	0.00e+00	0	55	104	38562430976	79	19548
2026-01-25 11:06:07.51	244.61	2.67	-54.4	-56.5	6.2	0.00e+00	0	55	104	38562430976	79	19449
2026-01-25 11:06:10.53	244.42	2.46	-54.4	-56.5	6.2	0.00e+00	0	55	104	38562430976	79	19464
2026-01-25 11:06:13.56	244.23	2.26	-54.4	-56.5	6.2	0.00e+00	0	55	104	38562430976	79	19288
2026-01-25 11:06:16.58	244.05	2.06	-54.3	-56.5	6.2	0.00e+00	0	55	104	38562430976	79	19284
2026-01-25 11:06:19.60	243.86	1.86	-54.3	-56.5	6.2	0.00e+00	0	55	104	38562430976	79	19267

#Closed at: 2026-01-25 11:06:19
#Recorded file [38562 MB]: D:/lorett/data/31041_260125_135618.dat