passes_logs/2026/01/25/R3.2S_Murmansk/R3.2S_Murmansk__20260125_050406_NOAA_20_JPSS-1_rec.log

#Pass ID: 20260125_050406_NOAA 20 (JPSS-1)
#Satellite: NOAA 20 (JPSS-1)
#Configuration: NOAA 20
#almurnet v.1.7.20251203
#Start time: 2026-01-25 05:04:06

#Version: 2.2.20231116
#Station: R3.2S_Murmansk
#Location: 33.079688 lon 68.888172 lat
#TLE: 1 43013U 17073A   26024.42258823  .00000183  00000+0  10747-3 0  9990
#TLE: 2 43013  98.7646 325.2629 0001105  25.8644 334.2587 14.19539754424075

#Time	Az	El	Level	Level2	SNR	BER	BlckErr	Temp	State	Recorded	gain1	gain2
2026-01-25 05:04:06.89	60.68	2.03	-52.0	-67.0	3.8	1.49e+00	0	42	0	0	76	19281
2026-01-25 05:04:09.91	60.48	2.20	-52.0	-67.0	3.8	1.49e+00	0	42	104	0	74	21630
2026-01-25 05:04:12.93	60.29	2.38	-52.0	-67.0	3.8	1.49e+00	0	42	104	0	74	21513
2026-01-25 05:04:15.96	60.09	2.55	-52.0	-67.0	3.8	1.49e+00	0	42	104	0	74	21518
2026-01-25 05:04:18.98	59.88	2.72	-52.0	-67.0	3.8	1.49e+00	0	42	104	0	74	21555
2026-01-25 05:04:22.00	59.68	2.90	-52.0	-67.0	3.8	1.49e+00	0	42	104	0	74	21518
2026-01-25 05:04:25.03	59.47	3.07	-52.0	-67.0	3.8	1.49e+00	0	42	104	0	74	21533
2026-01-25 05:04:28.06	59.26	3.25	-52.0	-66.9	3.8	1.49e+00	0	42	104	0	74	21494
2026-01-25 05:04:31.09	59.05	3.42	-52.0	-66.9	3.8	1.49e+00	0	43	104	0	74	21322
2026-01-25 05:04:34.11	58.84	3.60	-52.0	-67.0	3.8	1.49e+00	0	43	104	0	74	21550
2026-01-25 05:04:37.14	58.62	3.78	-52.0	-66.9	3.8	1.49e+00	0	43	104	0	74	21370
2026-01-25 05:04:40.17	58.40	3.96	-52.0	-66.9	3.8	1.49e+00	0	43	104	0	74	21471
2026-01-25 05:04:43.19	58.18	4.14	-52.0	-66.4	3.8	1.49e+00	0	43	104	0	74	20172
2026-01-25 05:04:46.21	57.95	4.32	-51.9	-64.6	3.8	1.48e+00	0	43	104	0	74	16458
2026-01-25 05:04:49.24	57.72	4.50	-51.9	-64.4	4.0	1.47e+00	0	43	104	0	74	16096
2026-01-25 05:04:52.27	57.49	4.68	-51.6	-61.3	5.0	8.91e-01	0	43	0	1048576	74	11261
2026-01-25 05:04:55.30	57.25	4.87	-50.7	-56.4	9.3	3.94e-02	0	43	0	7340032	73	6756
2026-01-25 05:04:58.32	57.02	5.05	-49.7	-53.6	12.2	2.30e-03	0	43	0	12582912	71	5521
2026-01-25 05:05:01.35	56.77	5.24	-51.8	-62.9	4.0	1.48e+00	0	43	104	16777216	74	13488
2026-01-25 05:05:04.37	56.53	5.42	-48.2	-50.8	15.3	0.00e+00	0	43	0	20971520	68	4728
2026-01-25 05:05:07.40	56.28	5.61	-47.8	-50.2	15.9	0.00e+00	0	43	0	26214400	67	4675
2026-01-25 05:05:10.43	56.03	5.79	-47.8	-50.3	15.8	0.00e+00	0	43	0	32505856	67	4719
2026-01-25 05:05:13.45	55.78	5.98	-47.8	-50.2	16.0	0.00e+00	0	43	0	37748736	67	4652
2026-01-25 05:05:16.48	55.52	6.17	-48.0	-50.5	15.6	0.00e+00	0	43	0	42991616	67	4857
2026-01-25 05:05:19.50	55.26	6.36	-47.8	-50.1	16.1	0.00e+00	0	43	0	49283072	66	4910
2026-01-25 05:05:22.53	54.99	6.55	-47.8	-50.1	16.1	0.00e+00	0	43	0	54525952	66	4902
2026-01-25 05:05:25.55	54.72	6.74	-47.6	-49.9	16.4	0.00e+00	0	43	0	60817408	66	4783
2026-01-25 05:05:28.58	54.45	6.93	-47.8	-50.1	16.3	0.00e+00	0	44	0	66060288	66	4871
2026-01-25 05:05:31.60	54.18	7.12	-47.7	-50.0	16.4	0.00e+00	0	43	0	72351744	66	4825
2026-01-25 05:05:34.63	53.90	7.32	-47.8	-50.1	16.2	0.00e+00	0	44	0	77594624	66	4899
2026-01-25 05:05:37.66	53.61	7.51	-47.6	-49.8	16.6	0.00e+00	0	43	0	82837504	66	4714
2026-01-25 05:05:40.68	53.33	7.71	-47.7	-49.9	16.5	0.00e+00	0	43	0	89128960	66	4797
2026-01-25 05:05:43.71	53.03	7.90	-47.4	-49.5	17.0	0.00e+00	0	44	0	94371840	66	4547
2026-01-25 05:05:46.74	52.74	8.10	-47.4	-49.5	16.9	0.00e+00	0	44	0	100663296	66	4579
2026-01-25 05:05:49.76	52.44	8.30	-47.3	-49.4	17.1	0.00e+00	0	44	0	105906176	66	4510
2026-01-25 05:05:52.79	52.13	8.50	-47.3	-49.3	17.1	0.00e+00	0	43	0	111149056	66	4480
2026-01-25 05:05:55.81	51.83	8.69	-47.2	-49.1	17.3	0.00e+00	0	44	0	117440512	66	4391
2026-01-25 05:05:58.84	51.51	8.89	-47.2	-49.2	17.3	0.00e+00	0	44	0	122683392	66	4396
2026-01-25 05:06:01.86	51.20	9.09	-47.2	-49.1	17.4	0.00e+00	0	43	0	128974848	66	4383
2026-01-25 05:06:04.88	50.87	9.29	-47.3	-49.3	17.3	0.00e+00	0	44	0	134217728	66	4449
2026-01-25 05:06:07.91	50.55	9.50	-47.3	-49.3	17.3	0.00e+00	0	44	0	139460608	66	4470
2026-01-25 05:06:10.93	50.22	9.70	-47.4	-49.4	17.2	0.00e+00	0	44	0	145752064	66	4509
2026-01-25 05:06:13.96	49.88	9.90	-47.4	-49.4	17.2	0.00e+00	0	44	0	150994944	66	4504
2026-01-25 05:06:16.98	49.54	10.11	-47.5	-49.5	17.1	0.00e+00	0	44	0	157286400	66	4567
2026-01-25 05:06:20.01	49.19	10.31	-47.3	-49.3	17.4	0.00e+00	0	44	0	162529280	66	4458
2026-01-25 05:06:23.04	48.84	10.52	-47.3	-49.3	17.4	0.00e+00	0	44	0	167772160	66	4449
2026-01-25 05:06:26.06	48.49	10.72	-47.2	-49.1	17.6	0.00e+00	0	44	0	174063616	66	4348
2026-01-25 05:06:29.09	48.13	10.93	-47.0	-48.8	17.9	0.00e+00	0	44	0	179306496	65	4464
2026-01-25 05:06:32.11	47.76	11.14	-46.9	-48.7	17.9	0.00e+00	0	44	0	185597952	65	4416
2026-01-25 05:06:35.13	47.39	11.34	-46.9	-48.7	18.0	0.00e+00	0	44	0	190840832	65	4405
2026-01-25 05:06:38.16	47.01	11.55	-46.6	-48.2	18.5	0.00e+00	0	44	0	196083712	65	4177
2026-01-25 05:06:41.19	46.63	11.76	-46.7	-48.4	18.3	0.00e+00	0	44	0	202375168	65	4255
2026-01-25 05:06:44.21	46.24	11.97	-46.7	-48.4	18.3	0.00e+00	0	44	0	207618048	65	4255
2026-01-25 05:06:47.24	45.85	12.18	-46.7	-48.4	18.4	0.00e+00	0	44	0	213909504	65	4257
2026-01-25 05:06:50.26	45.45	12.39	-46.5	-48.2	18.6	0.00e+00	0	44	0	219152384	65	4178
2026-01-25 05:06:53.29	45.05	12.60	-46.5	-48.2	18.6	0.00e+00	0	44	0	224395264	64	4416
2026-01-25 05:06:56.31	44.63	12.81	-46.3	-47.9	18.9	0.00e+00	0	44	0	230686720	64	4256
2026-01-25 05:06:59.34	44.22	13.02	-46.1	-47.7	19.1	0.00e+00	0	44	0	235929600	64	4146
2026-01-25 05:07:02.36	43.79	13.23	-46.1	-47.6	19.1	0.00e+00	0	44	0	242221056	64	4120
2026-01-25 05:07:05.39	43.36	13.45	-46.1	-47.6	19.2	0.00e+00	0	44	0	247463936	64	4103
2026-01-25 05:07:08.41	42.93	13.66	-46.2	-47.7	19.2	0.00e+00	0	44	0	253755392	63	4400
2026-01-25 05:07:11.44	42.49	13.87	-46.2	-47.7	19.2	0.00e+00	0	44	0	258998272	63	4427
2026-01-25 05:07:14.46	42.04	14.08	-46.4	-47.9	18.9	0.00e+00	0	44	0	264241152	63	4545
2026-01-25 05:07:17.49	41.58	14.29	-46.3	-47.9	19.0	0.00e+00	0	44	0	270532608	63	4504
2026-01-25 05:07:20.51	41.12	14.51	-46.5	-48.1	18.8	0.00e+00	0	44	0	275775488	63	4627
2026-01-25 05:07:23.54	40.65	14.72	-46.6	-48.2	18.7	0.00e+00	0	44	0	282066944	63	4703
2026-01-25 05:07:26.57	40.17	14.93	-46.6	-48.3	18.7	0.00e+00	0	44	0	287309824	63	4725
2026-01-25 05:07:29.59	39.69	15.14	-46.7	-48.4	18.5	0.00e+00	0	44	0	292552704	64	4513
2026-01-25 05:07:32.61	39.20	15.35	-46.8	-48.5	18.4	0.00e+00	0	44	0	298844160	64	4549
2026-01-25 05:07:35.64	38.71	15.56	-46.7	-48.3	18.5	0.00e+00	0	44	0	304087040	64	4471
2026-01-25 05:07:38.66	38.20	15.78	-46.7	-48.4	18.5	0.00e+00	0	44	0	310378496	64	4519
2026-01-25 05:07:41.69	37.69	15.99	-46.7	-48.4	18.5	0.00e+00	0	44	0	315621376	64	4503
2026-01-25 05:07:44.71	37.17	16.20	-47.0	-48.7	18.3	0.00e+00	0	44	0	321912832	64	4673
2026-01-25 05:07:47.73	36.65	16.40	-46.8	-48.5	18.5	0.00e+00	0	44	0	327155712	64	4551
2026-01-25 05:07:50.76	36.11	16.61	-46.8	-48.5	18.4	0.00e+00	0	44	0	332398592	64	4574
2026-01-25 05:07:53.79	35.57	16.82	-46.8	-48.4	18.5	0.00e+00	0	44	0	338690048	64	4534
2026-01-25 05:07:56.81	35.02	17.03	-46.8	-48.5	18.4	0.00e+00	0	44	0	343932928	64	4593
2026-01-25 05:07:59.84	34.47	17.23	-46.8	-48.4	18.6	0.00e+00	0	44	0	350224384	64	4529
2026-01-25 05:08:02.86	33.90	17.44	-46.5	-48.1	18.8	0.00e+00	0	44	0	355467264	64	4370
2026-01-25 05:08:05.89	33.33	17.64	-46.4	-47.9	19.0	0.00e+00	0	44	0	360710144	64	4274
2026-01-25 05:08:08.91	32.75	17.84	-46.0	-47.5	19.6	0.00e+00	0	44	0	367001600	63	4297
2026-01-25 05:08:11.94	32.16	18.04	-45.7	-47.0	20.0	0.00e+00	0	44	0	372244480	63	4097
2026-01-25 05:08:14.97	31.57	18.24	-45.4	-46.8	20.3	0.00e+00	0	44	0	378535936	62	4196
2026-01-25 05:08:18.00	30.96	18.44	-45.0	-46.3	20.7	0.00e+00	0	44	0	383778816	62	3983
2026-01-25 05:08:21.03	30.35	18.64	-45.0	-46.2	20.8	0.00e+00	0	44	0	389021696	61	4184
2026-01-25 05:08:24.05	29.73	18.83	-44.9	-46.2	20.8	0.00e+00	0	44	0	395313152	61	4150
2026-01-25 05:08:27.08	29.11	19.02	-44.7	-45.9	21.1	0.00e+00	0	44	0	400556032	61	4005
2026-01-25 05:08:30.10	28.47	19.21	-44.6	-45.8	21.2	0.00e+00	0	44	0	406847488	61	3989
2026-01-25 05:08:33.13	27.83	19.40	-44.5	-45.7	21.3	0.00e+00	0	44	0	412090368	61	3934
2026-01-25 05:08:36.15	27.18	19.58	-44.5	-45.6	21.4	0.00e+00	0	44	0	417333248	60	4133
2026-01-25 05:08:39.17	26.52	19.76	-44.3	-45.4	21.5	0.00e+00	0	44	0	423624704	60	4033
2026-01-25 05:08:42.20	25.85	19.94	-44.4	-45.5	21.4	0.00e+00	0	44	0	428867584	60	4095
2026-01-25 05:08:45.22	25.18	20.12	-44.3	-45.5	21.5	0.00e+00	0	44	0	435159040	60	4064
2026-01-25 05:08:48.24	24.50	20.29	-44.6	-45.7	21.3	0.00e+00	0	44	0	440401920	60	4193
2026-01-25 05:08:51.27	23.81	20.46	-44.4	-45.6	21.4	0.00e+00	0	44	0	445644800	60	4103
2026-01-25 05:08:54.29	23.11	20.63	-44.6	-45.8	21.2	0.00e+00	0	44	0	451936256	60	4201
2026-01-25 05:08:57.32	22.40	20.79	-44.6	-45.8	21.2	0.00e+00	0	44	0	457179136	60	4213
2026-01-25 05:09:00.35	21.69	20.95	-44.6	-45.8	21.2	0.00e+00	0	44	0	463470592	60	4205
2026-01-25 05:09:03.37	20.97	21.11	-44.3	-45.4	21.8	0.00e+00	0	44	0	468713472	59	4288
2026-01-25 05:09:06.40	20.24	21.26	-44.2	-45.3	22.0	0.00e+00	0	44	0	475004928	59	4225
2026-01-25 05:09:09.43	19.50	21.41	-44.2	-45.3	22.0	0.00e+00	0	44	0	480247808	59	4233
2026-01-25 05:09:12.45	18.76	21.55	-44.3	-45.4	21.9	0.00e+00	0	44	0	485490688	59	4289
2026-01-25 05:09:15.48	18.01	21.69	-44.1	-45.2	22.2	0.00e+00	0	44	0	491782144	59	4146
2026-01-25 05:09:18.51	17.26	21.83	-44.3	-45.4	22.0	0.00e+00	0	44	0	497025024	59	4263
2026-01-25 05:09:21.53	16.49	21.96	-44.2	-45.3	22.0	0.00e+00	0	44	0	503316480	59	4229
2026-01-25 05:09:24.56	15.72	22.08	-44.1	-45.2	22.1	0.00e+00	0	44	0	508559360	59	4181
2026-01-25 05:09:27.59	14.95	22.20	-44.5	-45.6	21.8	0.00e+00	0	44	0	513802240	59	4355
2026-01-25 05:09:30.61	14.17	22.32	-44.6	-45.7	21.7	0.00e+00	0	44	0	520093696	59	4428
2026-01-25 05:09:33.64	13.38	22.43	-44.5	-45.6	21.8	0.00e+00	0	44	0	525336576	59	4356
2026-01-25 05:09:36.66	12.59	22.53	-44.4	-45.5	21.6	0.00e+00	0	44	0	531628032	60	4076
2026-01-25 05:09:39.69	11.79	22.63	-44.9	-46.1	21.0	0.00e+00	0	44	0	536870912	60	4372
2026-01-25 05:09:42.71	10.99	22.73	-45.2	-46.4	20.7	0.00e+00	0	44	0	543162368	60	4534
2026-01-25 05:09:45.73	10.19	22.81	-45.3	-46.5	20.6	0.00e+00	0	44	0	548405248	61	4330
2026-01-25 05:09:48.76	9.37	22.90	-45.3	-46.6	20.6	0.00e+00	0	44	0	553648128	61	4357
2026-01-25 05:09:51.78	8.56	22.97	-45.6	-46.9	20.3	0.00e+00	0	44	0	559939584	61	4505
2026-01-25 05:09:54.81	7.74	23.04	-45.7	-47.1	20.1	0.00e+00	0	44	0	565182464	62	4365
2026-01-25 05:09:57.84	6.92	23.11	-46.2	-47.7	19.6	0.00e+00	0	44	0	571473920	62	4670
2026-01-25 05:10:00.86	6.09	23.16	-46.1	-47.5	19.8	0.00e+00	0	44	0	576716800	63	4319
2026-01-25 05:10:03.89	5.26	23.21	-46.4	-47.8	19.4	0.00e+00	0	44	0	581959680	63	4493
2026-01-25 05:10:06.91	4.43	23.26	-46.1	-47.5	19.7	0.00e+00	0	44	0	588251136	63	4330
2026-01-25 05:10:09.94	3.60	23.30	-45.9	-47.2	20.0	0.00e+00	0	44	0	593494016	63	4182
2026-01-25 05:10:12.97	2.76	23.33	-46.1	-47.5	19.7	0.00e+00	0	44	0	599785472	63	4321
2026-01-25 05:10:15.99	1.92	23.35	-45.8	-47.1	20.1	0.00e+00	0	44	0	605028352	63	4140
2026-01-25 05:10:19.01	1.09	23.37	-46.0	-47.4	19.8	0.00e+00	0	44	0	610271232	63	4263
2026-01-25 05:10:22.04	0.25	23.38	-45.7	-47.0	20.2	0.00e+00	0	44	0	616562688	63	4085
2026-01-25 05:10:25.06	359.41	23.39	-45.7	-47.1	20.1	0.00e+00	0	44	0	621805568	63	4117
2026-01-25 05:10:28.08	358.57	23.39	-45.6	-47.0	20.3	0.00e+00	0	44	0	628097024	63	4054
2026-01-25 05:10:31.11	357.73	23.38	-45.2	-46.4	20.8	0.00e+00	0	44	0	633339904	62	4035
2026-01-25 05:10:34.13	356.89	23.36	-45.1	-46.4	20.8	0.00e+00	0	44	0	638582784	62	4016
2026-01-25 05:10:37.16	356.05	23.34	-44.9	-46.1	21.1	0.00e+00	0	44	0	644874240	61	4115
2026-01-25 05:10:40.18	355.22	23.32	-44.7	-45.9	21.3	0.00e+00	0	44	0	650117120	61	4040
2026-01-25 05:10:43.21	354.38	23.28	-44.4	-45.5	21.7	0.00e+00	0	44	0	656408576	60	4061
2026-01-25 05:10:46.24	353.55	23.24	-44.1	-45.2	21.9	0.00e+00	0	44	0	661651456	60	3949
2026-01-25 05:10:49.26	352.72	23.19	-44.3	-45.4	22.1	0.00e+00	0	44	0	666894336	59	4251
2026-01-25 05:10:52.29	351.89	23.14	-43.9	-45.0	22.4	0.00e+00	0	44	0	673185792	59	4067
2026-01-25 05:10:55.31	351.07	23.08	-44.0	-45.1	22.3	0.00e+00	0	44	0	678428672	59	4100
2026-01-25 05:10:58.34	350.25	23.01	-43.6	-44.6	22.7	0.00e+00	0	44	0	684720128	59	3888
2026-01-25 05:11:01.36	349.43	22.94	-43.7	-44.7	22.7	0.00e+00	0	44	0	689963008	59	3934
2026-01-25 05:11:04.39	348.61	22.86	-43.9	-45.0	22.4	0.00e+00	0	44	0	695205888	59	4062
2026-01-25 05:11:07.41	347.81	22.78	-44.0	-45.1	22.3	0.00e+00	0	44	0	701497344	59	4103
2026-01-25 05:11:10.44	347.00	22.69	-43.9	-44.9	22.4	0.00e+00	0	44	0	706740224	59	4034
2026-01-25 05:11:13.46	346.20	22.59	-44.4	-45.5	21.9	0.00e+00	0	44	0	713031680	59	4321
2026-01-25 05:11:16.49	345.41	22.49	-44.5	-45.6	21.7	0.00e+00	0	44	0	718274560	59	4384
2026-01-25 05:11:19.52	344.62	22.38	-44.4	-45.5	21.6	0.00e+00	0	44	0	724566016	60	4064
2026-01-25 05:11:22.55	343.83	22.27	-44.6	-45.8	21.3	0.00e+00	0	44	0	729808896	60	4218
2026-01-25 05:11:25.57	343.05	22.15	-44.8	-45.9	21.2	0.00e+00	0	44	0	735051776	60	4290
2026-01-25 05:11:28.60	342.28	22.03	-45.0	-46.2	20.9	0.00e+00	0	44	0	741343232	60	4434
2026-01-25 05:11:31.63	341.51	21.90	-45.2	-46.5	20.7	0.00e+00	0	44	0	746586112	61	4295
2026-01-25 05:11:34.65	340.76	21.77	-45.1	-46.4	20.8	0.00e+00	0	44	0	752877568	61	4252
2026-01-25 05:11:37.68	340.00	21.63	-45.2	-46.5	20.6	0.00e+00	0	44	0	758120448	61	4326
2026-01-25 05:11:40.70	339.26	21.49	-45.5	-46.8	20.3	0.00e+00	0	44	0	764411904	61	4493
2026-01-25 05:11:43.73	338.52	21.35	-45.8	-47.2	20.1	0.00e+00	0	44	0	769654784	62	4393
2026-01-25 05:11:46.75	337.79	21.20	-45.9	-47.3	20.0	0.00e+00	0	44	0	774897664	62	4455
2026-01-25 05:11:49.78	337.06	21.04	-45.7	-47.1	20.1	0.00e+00	0	44	0	781189120	62	4363
2026-01-25 05:11:52.80	336.35	20.88	-45.5	-46.8	20.3	0.00e+00	0	44	0	786432000	62	4240
2026-01-25 05:11:55.83	335.64	20.72	-45.9	-47.3	19.9	0.00e+00	0	44	0	792723456	62	4481
2026-01-25 05:11:58.85	334.93	20.56	-45.7	-47.0	20.2	0.00e+00	0	44	0	797966336	62	4327
2026-01-25 05:12:01.88	334.24	20.39	-45.5	-46.8	20.4	0.00e+00	0	44	0	803209216	62	4238
2026-01-25 05:12:04.90	333.55	20.22	-45.6	-46.9	20.3	0.00e+00	0	44	0	809500672	62	4282
2026-01-25 05:12:07.93	332.87	20.04	-45.6	-46.9	20.3	0.00e+00	0	44	0	814743552	62	4275
2026-01-25 05:12:10.95	332.20	19.87	-45.5	-46.8	20.4	0.00e+00	0	44	0	821035008	62	4196
2026-01-25 05:12:13.98	331.54	19.68	-45.2	-46.5	20.6	0.00e+00	0	44	0	826277888	62	4080
2026-01-25 05:12:17.00	330.88	19.50	-45.2	-46.4	20.7	0.00e+00	0	44	0	831520768	62	4040
2026-01-25 05:12:20.03	330.24	19.32	-45.3	-46.6	20.6	0.00e+00	0	44	0	837812224	62	4099
2026-01-25 05:12:23.05	329.60	19.13	-45.4	-46.7	20.5	0.00e+00	0	44	0	843055104	62	4165
2026-01-25 05:12:26.08	328.97	18.94	-45.3	-46.5	20.6	0.00e+00	0	44	0	849346560	62	4091
2026-01-25 05:12:29.10	328.34	18.75	-45.3	-46.6	20.5	0.00e+00	0	44	0	854589440	62	4138
2026-01-25 05:12:32.13	327.73	18.55	-45.3	-46.6	20.5	0.00e+00	0	44	0	859832320	62	4130
2026-01-25 05:12:35.16	327.12	18.35	-45.5	-46.8	20.4	0.00e+00	0	44	0	866123776	62	4202
2026-01-25 05:12:38.19	326.52	18.16	-45.4	-46.8	20.4	0.00e+00	0	44	0	871366656	62	4198
2026-01-25 05:12:41.22	325.93	17.96	-45.5	-46.8	20.3	0.00e+00	0	44	0	877658112	62	4214
2026-01-25 05:12:44.24	325.34	17.75	-45.6	-47.0	20.1	0.00e+00	0	44	0	882900992	62	4301
2026-01-25 05:12:47.27	324.77	17.55	-45.4	-46.7	20.4	0.00e+00	0	44	0	888143872	62	4170
2026-01-25 05:12:50.30	324.20	17.35	-45.4	-46.7	20.4	0.00e+00	0	44	0	894435328	62	4184
2026-01-25 05:12:53.33	323.64	17.14	-45.5	-46.8	20.3	0.00e+00	0	44	0	899678208	62	4205
2026-01-25 05:12:56.35	323.08	16.94	-45.4	-46.7	20.3	0.00e+00	0	44	0	905969664	62	4188
2026-01-25 05:12:59.37	322.54	16.73	-45.3	-46.6	20.5	0.00e+00	0	44	0	911212544	62	4129
2026-01-25 05:13:02.40	322.00	16.52	-45.1	-46.3	20.7	0.00e+00	0	44	0	917504000	62	3998
2026-01-25 05:13:05.43	321.47	16.31	-44.8	-46.0	21.0	0.00e+00	0	44	0	922746880	61	4061
2026-01-25 05:13:08.45	320.95	16.10	-44.9	-46.1	20.9	0.00e+00	0	44	0	927989760	61	4124
2026-01-25 05:13:11.48	320.43	15.89	-45.0	-46.2	20.8	0.00e+00	0	44	0	934281216	61	4177
2026-01-25 05:13:14.50	319.93	15.68	-44.8	-46.1	20.9	0.00e+00	0	44	0	939524096	61	4106
2026-01-25 05:13:17.53	319.42	15.47	-44.7	-45.9	21.0	0.00e+00	0	44	0	945815552	61	4035
2026-01-25 05:13:20.55	318.93	15.26	-44.4	-45.6	21.3	0.00e+00	0	44	0	951058432	60	4113
2026-01-25 05:13:23.58	318.44	15.05	-44.6	-45.8	21.2	0.00e+00	0	44	0	956301312	60	4210
2026-01-25 05:13:26.61	317.96	14.84	-44.6	-45.8	21.1	0.00e+00	0	44	0	962592768	60	4202
2026-01-25 05:13:29.63	317.49	14.62	-44.6	-45.8	21.1	0.00e+00	0	44	0	967835648	60	4216
2026-01-25 05:13:32.66	317.03	14.41	-44.5	-45.7	21.2	0.00e+00	0	44	0	974127104	60	4162
2026-01-25 05:13:35.69	316.57	14.20	-44.7	-45.9	20.9	0.00e+00	0	44	0	979369984	60	4283
2026-01-25 05:13:38.72	316.11	13.99	-44.8	-46.0	20.8	0.00e+00	0	44	0	985661440	60	4336
2026-01-25 05:13:41.74	315.67	13.78	-44.8	-46.1	20.8	0.00e+00	0	44	0	990904320	60	4341
2026-01-25 05:13:44.77	315.23	13.56	-44.9	-46.2	20.7	0.00e+00	0	44	0	996147200	60	4401
2026-01-25 05:13:47.79	314.80	13.35	-45.1	-46.4	20.5	0.00e+00	0	44	0	1002438656	60	4508
2026-01-25 05:13:50.82	314.37	13.14	-45.3	-46.6	20.2	0.00e+00	0	44	0	1007681536	61	4389
2026-01-25 05:13:53.84	313.95	12.93	-45.2	-46.6	20.3	0.00e+00	0	44	0	1013972992	61	4346
2026-01-25 05:13:56.87	313.53	12.72	-45.2	-46.5	20.4	0.00e+00	0	44	0	1019215872	61	4304
2026-01-25 05:13:59.89	313.13	12.51	-45.1	-46.4	20.5	0.00e+00	0	44	0	1024458752	61	4243
2026-01-25 05:14:02.92	312.72	12.30	-45.3	-46.6	20.2	0.00e+00	0	44	0	1030750208	61	4369
2026-01-25 05:14:05.94	312.33	12.09	-45.5	-46.9	19.9	0.00e+00	0	44	0	1035993088	61	4514
2026-01-25 05:14:08.97	311.94	11.88	-45.6	-47.0	19.8	0.00e+00	0	44	0	1042284544	61	4568
2026-01-25 05:14:12.00	311.55	11.67	-45.6	-47.1	19.7	0.00e+00	0	44	0	1047527424	61	4603
2026-01-25 05:14:15.02	311.17	11.46	-45.7	-47.2	19.6	0.00e+00	0	44	0	1052770304	62	4398
2026-01-25 05:14:18.05	310.80	11.25	-45.8	-47.2	19.6	0.00e+00	0	44	0	1059061760	62	4410
2026-01-25 05:14:21.08	310.43	11.04	-45.8	-47.3	19.5	0.00e+00	0	44	0	1064304640	62	4458
2026-01-25 05:14:24.10	310.06	10.84	-45.9	-47.4	19.4	0.00e+00	0	44	0	1070596096	62	4503
2026-01-25 05:14:27.13	309.70	10.63	-45.9	-47.4	19.3	0.00e+00	0	44	0	1075838976	62	4529
2026-01-25 05:14:30.15	309.35	10.43	-46.1	-47.7	19.1	0.00e+00	0	44	0	1081081856	62	4654
2026-01-25 05:14:33.17	309.00	10.22	-46.3	-47.9	18.9	0.00e+00	0	44	0	1087373312	63	4511
2026-01-25 05:14:36.20	308.66	10.02	-46.2	-47.8	18.9	0.00e+00	0	45	0	1092616192	63	4480
2026-01-25 05:14:39.22	308.32	9.81	-46.4	-48.0	18.7	0.00e+00	0	44	0	1098907648	63	4563
2026-01-25 05:14:42.25	307.99	9.61	-46.2	-47.8	18.9	0.00e+00	0	44	0	1104150528	63	4462
2026-01-25 05:14:45.28	307.66	9.41	-46.2	-47.8	18.9	0.00e+00	0	45	0	1109393408	63	4469
2026-01-25 05:14:48.30	307.34	9.21	-46.4	-48.1	18.6	0.00e+00	0	44	0	1115684864	63	4618
2026-01-25 05:14:51.33	307.02	9.01	-46.6	-48.3	18.4	0.00e+00	0	44	0	1120927744	63	4741
2026-01-25 05:14:54.35	306.70	8.81	-46.7	-48.5	18.1	0.00e+00	0	44	0	1127219200	64	4566
2026-01-25 05:14:57.38	306.39	8.61	-46.8	-48.6	17.9	0.00e+00	0	44	0	1132462080	64	4640
2026-01-25 05:15:00.40	306.08	8.41	-46.7	-48.5	18.0	0.00e+00	0	44	0	1138753536	64	4566
2026-01-25 05:15:03.42	305.78	8.21	-46.8	-48.7	17.8	0.00e+00	0	44	0	1143996416	64	4669
2026-01-25 05:15:06.45	305.48	8.01	-47.0	-48.9	17.6	0.00e+00	0	44	0	1149239296	64	4804
2026-01-25 05:15:09.47	305.19	7.82	-47.3	-49.3	17.2	0.00e+00	0	44	0	1155530752	65	4707
2026-01-25 05:15:12.49	304.90	7.62	-47.2	-49.2	17.3	0.00e+00	0	44	0	1160773632	65	4671
2026-01-25 05:15:15.52	304.62	7.43	-47.1	-49.0	17.4	0.00e+00	0	44	0	1167065088	65	4594
2026-01-25 05:15:18.54	304.33	7.24	-47.1	-49.1	17.3	0.00e+00	0	44	0	1172307968	65	4618
2026-01-25 05:15:21.57	304.06	7.04	-47.1	-49.1	17.3	0.00e+00	0	44	0	1177550848	65	4601
2026-01-25 05:15:24.60	303.78	6.85	-47.1	-49.1	17.3	0.00e+00	0	44	0	1183842304	65	4635
2026-01-25 05:15:27.62	303.51	6.66	-47.3	-49.4	16.9	0.00e+00	0	44	0	1189085184	65	4791
2026-01-25 05:15:30.65	303.24	6.47	-47.5	-49.6	16.8	0.00e+00	0	44	0	1195376640	65	4913
2026-01-25 05:15:33.68	302.98	6.28	-47.6	-49.8	16.6	0.00e+00	0	44	0	1200619520	65	4985
2026-01-25 05:15:36.70	302.72	6.09	-47.6	-49.9	16.4	0.00e+00	0	44	0	1206910976	65	5061
2026-01-25 05:15:39.73	302.47	5.90	-47.5	-49.7	16.5	0.00e+00	0	44	0	1212153856	65	4973
2026-01-25 05:15:42.75	302.21	5.71	-47.7	-49.9	16.3	0.00e+00	0	45	0	1217396736	65	5091
2026-01-25 05:15:45.78	301.96	5.53	-47.8	-50.1	16.1	0.00e+00	0	44	0	1223688192	66	4903
2026-01-25 05:15:48.80	301.72	5.34	-47.8	-50.2	16.0	0.00e+00	0	44	0	1228931072	66	4963
2026-01-25 05:15:51.83	301.47	5.16	-48.1	-50.7	15.5	0.00e+00	0	44	0	1235222528	66	5230
2026-01-25 05:15:54.85	301.23	4.97	-52.2	-63.8	4.6	1.37e-01	22	44	0	1240465408	74	14979
2026-01-25 05:15:57.88	301.00	4.79	-53.2	-68.1	3.8	1.49e+00	0	45	104	1240465408	76	21935
2026-01-25 05:16:00.91	300.76	4.61	-53.6	-68.6	3.8	1.49e+00	0	44	104	1240465408	77	21898
2026-01-25 05:16:03.93	300.53	4.43	-54.0	-68.9	3.8	1.49e+00	0	45	104	1240465408	78	21387
2026-01-25 05:16:06.95	300.31	4.24	-54.1	-69.1	3.8	1.49e+00	0	45	104	1240465408	78	21852
2026-01-25 05:16:09.98	300.08	4.06	-54.3	-69.2	3.8	1.49e+00	0	45	104	1240465408	79	20900
2026-01-25 05:16:13.00	299.86	3.89	-54.3	-69.3	3.8	1.49e+00	0	45	104	1240465408	79	21067
2026-01-25 05:16:16.03	299.64	3.71	-54.3	-69.2	3.8	1.49e+00	0	45	104	1240465408	79	21005
2026-01-25 05:16:19.05	299.42	3.53	-54.2	-69.2	3.8	1.49e+00	0	44	104	1240465408	79	20786
2026-01-25 05:16:22.08	299.21	3.35	-54.1	-69.0	3.8	1.49e+00	0	44	104	1240465408	79	20521
2026-01-25 05:16:25.11	299.00	3.17	-54.0	-68.9	3.8	1.49e+00	0	45	104	1240465408	79	20296
2026-01-25 05:16:28.14	298.79	3.00	-54.0	-68.9	3.8	1.49e+00	0	45	104	1240465408	79	20273
2026-01-25 05:16:31.16	298.59	2.82	-53.9	-68.9	3.8	1.49e+00	0	45	104	1240465408	79	20259
2026-01-25 05:16:34.19	298.38	2.65	-53.9	-68.9	3.8	1.49e+00	0	45	104	1240465408	79	20173
2026-01-25 05:16:37.22	298.18	2.48	-53.9	-68.9	3.8	1.49e+00	0	45	104	1240465408	79	20203
2026-01-25 05:16:40.24	297.98	2.30	-53.9	-68.9	3.8	1.49e+00	0	45	104	1240465408	79	20129
2026-01-25 05:16:43.27	297.79	2.13	-53.9	-68.9	3.8	1.49e+00	0	45	104	1240465408	79	20075
2026-01-25 05:16:46.30	297.59	1.96	-53.9	-68.9	3.8	1.49e+00	0	45	104	1240465408	79	20138

#Closed at: 2026-01-25 05:16:48
#Recorded file [1240 MB]: D:/lorett/data/31041_260125_080406.dat