passes_logs/2026/01/25/R3.2S_Murmansk/R3.2S_Murmansk__20260125_032446_NOAA_20_JPSS-1_rec.log

#Pass ID: 20260125_032446_NOAA 20 (JPSS-1)
#Satellite: NOAA 20 (JPSS-1)
#Configuration: NOAA 20
#almurnet v.1.7.20251203
#Start time: 2026-01-25 03:24:48

#Version: 2.2.20231116
#Station: R3.2S_Murmansk
#Location: 33.079688 lon 68.888172 lat
#TLE: 1 43013U 17073A   26024.42258823  .00000183  00000+0  10747-3 0  9990
#TLE: 2 43013  98.7646 325.2629 0001105  25.8644 334.2587 14.19539754424075

#Time	Az	El	Level	Level2	SNR	BER	BlckErr	Temp	State	Recorded	gain1	gain2
2026-01-25 03:24:48.05	41.12	2.07	-52.1	-67.0	3.8	1.49e+00	0	44	0	0	76	19355
2026-01-25 03:24:52.08	40.91	2.31	-52.1	-67.0	3.8	1.49e+00	0	44	104	0	74	21574
2026-01-25 03:24:56.11	40.69	2.55	-52.1	-67.0	3.8	1.49e+00	0	44	104	0	74	21642
2026-01-25 03:25:00.15	40.47	2.79	-52.1	-66.9	3.8	1.49e+00	0	45	104	0	74	21468
2026-01-25 03:25:04.18	40.24	3.04	-52.1	-67.0	3.8	1.49e+00	0	45	104	0	74	21553
2026-01-25 03:25:08.22	40.01	3.28	-52.0	-66.9	3.8	1.49e+00	0	45	104	0	74	21376
2026-01-25 03:25:12.25	39.78	3.53	-52.1	-66.9	3.8	1.49e+00	0	45	104	0	74	21432
2026-01-25 03:25:16.28	39.54	3.78	-52.0	-66.4	3.8	1.49e+00	0	45	104	0	74	20074
2026-01-25 03:25:20.31	39.30	4.03	-51.9	-64.4	3.8	1.47e+00	0	45	104	0	74	15967
2026-01-25 03:25:24.35	39.05	4.28	-51.9	-63.4	4.2	1.43e+00	0	46	0	0	74	14351
2026-01-25 03:25:28.38	38.80	4.54	-50.9	-57.3	8.4	1.09e-01	0	46	0	6291456	73	7476
2026-01-25 03:25:32.41	38.54	4.80	-50.3	-55.1	10.6	3.93e-03	0	46	0	13631488	72	6191
2026-01-25 03:25:36.44	38.28	5.05	-50.3	-55.2	10.5	9.78e-03	0	46	0	20971520	72	6272
2026-01-25 03:25:40.47	38.02	5.31	-47.8	-50.1	16.0	4.50e-06	0	46	0	26214400	67	4625
2026-01-25 03:25:44.51	37.75	5.58	-47.8	-50.1	16.1	0.00e+00	0	46	0	34603008	67	4641
2026-01-25 03:25:48.55	37.47	5.84	-47.8	-50.1	16.1	0.00e+00	0	46	0	41943040	67	4639
2026-01-25 03:25:52.58	37.19	6.11	-47.7	-50.0	16.2	0.00e+00	0	46	0	49283072	67	4586
2026-01-25 03:25:56.61	36.90	6.38	-47.6	-49.8	16.5	0.00e+00	0	46	0	56623104	66	4735
2026-01-25 03:26:00.65	36.61	6.65	-47.5	-49.6	16.7	0.00e+00	0	46	0	63963136	66	4628
2026-01-25 03:26:04.68	36.31	6.92	-47.4	-49.5	16.8	0.00e+00	0	46	0	72351744	66	4592
2026-01-25 03:26:08.71	36.01	7.19	-47.5	-49.6	16.8	0.00e+00	0	46	0	79691776	66	4612
2026-01-25 03:26:12.74	35.69	7.47	-47.2	-49.2	17.2	0.00e+00	0	46	0	87031808	66	4440
2026-01-25 03:26:16.77	35.38	7.75	-47.2	-49.2	17.3	0.00e+00	0	46	0	94371840	66	4406
2026-01-25 03:26:20.81	35.05	8.03	-47.2	-49.2	17.3	0.00e+00	0	47	0	102760448	66	4403
2026-01-25 03:26:24.84	34.72	8.32	-47.1	-49.0	17.6	0.00e+00	0	47	0	110100480	66	4298
2026-01-25 03:26:28.87	34.39	8.60	-47.0	-48.8	17.7	0.00e+00	0	47	0	117440512	65	4472
2026-01-25 03:26:32.90	34.04	8.89	-46.9	-48.8	17.8	0.00e+00	0	46	0	124780544	65	4469
2026-01-25 03:26:36.93	33.69	9.18	-46.9	-48.8	17.8	0.00e+00	0	47	0	132120576	65	4452
2026-01-25 03:26:40.97	33.34	9.47	-46.9	-48.7	17.9	0.00e+00	0	47	0	140509184	65	4413
2026-01-25 03:26:45.00	32.97	9.77	-46.8	-48.5	18.1	0.00e+00	0	47	0	147849216	65	4328
2026-01-25 03:26:49.03	32.60	10.06	-46.9	-48.7	17.9	0.00e+00	0	47	0	155189248	65	4437
2026-01-25 03:26:53.07	32.21	10.36	-46.8	-48.5	18.2	0.00e+00	0	47	0	162529280	65	4316
2026-01-25 03:26:57.10	31.82	10.67	-46.7	-48.5	18.3	0.00e+00	0	47	0	169869312	65	4292
2026-01-25 03:27:01.14	31.43	10.97	-46.8	-48.5	18.2	0.00e+00	0	47	0	178257920	65	4337
2026-01-25 03:27:05.17	31.02	11.28	-46.8	-48.5	18.3	0.00e+00	0	47	0	185597952	65	4310
2026-01-25 03:27:09.20	30.60	11.59	-46.8	-48.5	18.3	0.00e+00	0	47	0	192937984	65	4321
2026-01-25 03:27:13.24	30.18	11.90	-46.7	-48.5	18.3	0.00e+00	0	47	0	200278016	65	4292
2026-01-25 03:27:17.27	29.74	12.21	-46.8	-48.5	18.3	0.00e+00	0	47	0	208666624	65	4337
2026-01-25 03:27:21.30	29.30	12.53	-46.9	-48.6	18.2	0.00e+00	0	47	0	216006656	65	4372
2026-01-25 03:27:25.34	28.85	12.85	-46.9	-48.6	18.2	0.00e+00	0	47	0	223346688	65	4365
2026-01-25 03:27:29.37	28.38	13.17	-46.7	-48.4	18.4	0.00e+00	0	47	0	230686720	65	4282
2026-01-25 03:27:33.41	27.91	13.49	-46.8	-48.5	18.4	0.00e+00	0	47	0	238026752	65	4309
2026-01-25 03:27:37.45	27.42	13.82	-46.6	-48.2	18.7	0.00e+00	0	47	0	246415360	65	4169
2026-01-25 03:27:41.48	26.92	14.15	-46.5	-48.0	18.9	0.00e+00	0	47	0	253755392	64	4337
2026-01-25 03:27:45.51	26.41	14.48	-46.3	-47.9	19.0	0.00e+00	0	47	0	261095424	64	4258
2026-01-25 03:27:49.54	25.89	14.81	-46.4	-48.0	18.9	0.00e+00	0	47	0	268435456	64	4316
2026-01-25 03:27:53.57	25.36	15.14	-46.5	-48.1	18.8	0.00e+00	0	47	0	275775488	64	4372
2026-01-25 03:27:57.61	24.82	15.48	-46.3	-47.9	19.1	0.00e+00	0	47	0	284164096	64	4254
2026-01-25 03:28:01.64	24.26	15.82	-46.1	-47.6	19.3	0.00e+00	0	47	0	291504128	64	4131
2026-01-25 03:28:05.67	23.69	16.16	-46.0	-47.5	19.6	0.00e+00	0	47	0	298844160	63	4293
2026-01-25 03:28:09.71	23.11	16.50	-46.0	-47.4	19.6	0.00e+00	0	47	0	306184192	63	4275
2026-01-25 03:28:13.74	22.51	16.84	-45.9	-47.4	19.7	0.00e+00	0	47	0	313524224	63	4244
2026-01-25 03:28:17.77	21.90	17.19	-45.8	-47.2	19.8	0.00e+00	0	47	0	321912832	63	4173
2026-01-25 03:28:21.81	21.27	17.54	-45.8	-47.2	19.9	0.00e+00	0	47	0	329252864	63	4170
2026-01-25 03:28:25.84	20.63	17.88	-45.8	-47.1	20.0	0.00e+00	0	47	0	336592896	63	4136
2026-01-25 03:28:29.87	19.98	18.23	-45.8	-47.2	20.0	0.00e+00	0	46	0	343932928	63	4155
2026-01-25 03:28:33.91	19.30	18.58	-45.8	-47.2	20.0	0.00e+00	0	46	0	352321536	63	4167
2026-01-25 03:28:37.94	18.62	18.93	-45.7	-47.1	20.0	0.00e+00	0	46	0	359661568	63	4128
2026-01-25 03:28:41.97	17.91	19.28	-46.1	-47.5	19.7	0.00e+00	0	47	0	367001600	63	4305
2026-01-25 03:28:46.01	17.19	19.63	-46.2	-47.6	19.6	0.00e+00	0	46	0	374341632	63	4365
2026-01-25 03:28:50.04	16.45	19.99	-46.2	-47.7	19.6	0.00e+00	0	46	0	381681664	63	4393
2026-01-25 03:28:54.07	15.70	20.34	-46.1	-47.5	19.7	0.00e+00	0	46	0	390070272	63	4313
2026-01-25 03:28:58.10	14.93	20.69	-46.0	-47.3	19.9	0.00e+00	0	46	0	397410304	63	4242
2026-01-25 03:29:02.13	14.14	21.04	-45.8	-47.2	20.0	0.00e+00	0	46	0	404750336	63	4171
2026-01-25 03:29:06.17	13.33	21.38	-45.8	-47.2	20.1	0.00e+00	0	46	0	412090368	63	4158
2026-01-25 03:29:10.20	12.50	21.73	-45.7	-47.0	20.2	0.00e+00	0	47	0	419430400	63	4067
2026-01-25 03:29:14.23	11.65	22.08	-45.4	-46.7	20.5	0.00e+00	0	46	0	427819008	62	4189
2026-01-25 03:29:18.27	10.79	22.42	-45.2	-46.4	20.7	0.00e+00	0	46	0	435159040	62	4051
2026-01-25 03:29:22.30	9.90	22.76	-45.1	-46.3	20.9	0.00e+00	0	46	0	442499072	62	3972
2026-01-25 03:29:26.33	9.00	23.10	-44.7	-45.9	21.3	0.00e+00	0	46	0	449839104	61	4027
2026-01-25 03:29:30.36	8.07	23.43	-44.9	-46.1	21.1	0.00e+00	0	46	0	458227712	61	4106
2026-01-25 03:29:34.40	7.13	23.76	-44.6	-45.7	21.5	0.00e+00	0	46	0	465567744	61	3940
2026-01-25 03:29:38.43	6.16	24.09	-44.6	-45.7	21.5	0.00e+00	0	46	0	472907776	60	4173
2026-01-25 03:29:42.47	5.18	24.41	-44.7	-45.9	21.3	0.00e+00	0	46	0	480247808	60	4268
2026-01-25 03:29:46.50	4.17	24.72	-44.8	-46.0	21.2	0.00e+00	0	46	0	487587840	60	4336
2026-01-25 03:29:50.54	3.14	25.03	-45.0	-46.2	21.0	0.00e+00	0	46	0	495976448	60	4422
2026-01-25 03:29:54.57	2.10	25.33	-44.9	-46.1	21.2	0.00e+00	0	46	0	503316480	60	4345
2026-01-25 03:29:58.61	1.03	25.63	-45.0	-46.2	21.1	0.00e+00	0	46	0	510656512	60	4441
2026-01-25 03:30:02.64	359.94	25.91	-45.4	-46.6	20.7	0.00e+00	0	47	0	517996544	61	4388
2026-01-25 03:30:06.67	358.84	26.19	-45.2	-46.4	21.0	0.00e+00	0	47	0	525336576	61	4258
2026-01-25 03:30:10.70	357.71	26.46	-45.0	-46.2	21.1	0.00e+00	0	47	0	533725184	61	4168
2026-01-25 03:30:14.73	356.57	26.72	-45.0	-46.2	21.1	0.00e+00	0	47	0	541065216	61	4172
2026-01-25 03:30:18.77	355.41	26.96	-45.2	-46.5	20.8	0.00e+00	0	46	0	548405248	61	4300
2026-01-25 03:30:22.80	354.23	27.20	-45.2	-46.4	20.9	0.00e+00	0	47	0	555745280	61	4282
2026-01-25 03:30:26.84	353.03	27.43	-45.3	-46.6	20.8	0.00e+00	0	47	0	563085312	61	4372
2026-01-25 03:30:30.87	351.81	27.64	-45.7	-47.0	20.4	0.00e+00	0	47	0	571473920	62	4304
2026-01-25 03:30:34.91	350.58	27.84	-45.9	-47.2	20.2	0.00e+00	0	47	0	578813952	62	4411
2026-01-25 03:30:38.94	349.33	28.03	-46.4	-47.8	19.6	0.00e+00	0	47	0	586153984	63	4477
2026-01-25 03:30:42.98	348.07	28.20	-46.1	-47.5	20.0	0.00e+00	0	47	0	593494016	63	4296
2026-01-25 03:30:47.01	346.80	28.35	-46.1	-47.4	20.0	0.00e+00	0	47	0	601882624	63	4278
2026-01-25 03:30:51.05	345.51	28.50	-46.5	-47.9	19.6	0.00e+00	0	47	0	609222656	63	4529
2026-01-25 03:30:55.08	344.22	28.62	-46.2	-47.5	19.9	0.00e+00	0	47	0	616562688	63	4338
2026-01-25 03:30:59.11	342.91	28.73	-46.7	-48.2	19.2	0.00e+00	0	47	0	623902720	64	4430
2026-01-25 03:31:03.14	341.60	28.83	-46.8	-48.4	19.0	0.00e+00	0	47	0	631242752	64	4503
2026-01-25 03:31:07.18	340.27	28.91	-47.0	-48.5	18.9	0.00e+00	0	47	0	639631360	65	4335
2026-01-25 03:31:11.21	338.95	28.97	-47.1	-48.7	18.7	0.00e+00	0	47	0	646971392	65	4412
2026-01-25 03:31:15.25	337.61	29.01	-46.8	-48.4	19.1	0.00e+00	0	47	0	654311424	65	4256
2026-01-25 03:31:19.28	336.28	29.04	-47.1	-48.7	18.8	0.00e+00	0	47	0	661651456	65	4418
2026-01-25 03:31:23.32	334.94	29.05	-47.0	-48.5	19.0	0.00e+00	0	47	0	668991488	65	4329
2026-01-25 03:31:27.35	333.60	29.04	-46.9	-48.5	19.0	0.00e+00	0	47	0	677380096	65	4330
2026-01-25 03:31:31.38	332.27	29.01	-46.5	-47.9	19.5	0.00e+00	0	47	0	684720128	64	4276
2026-01-25 03:31:35.41	330.94	28.97	-46.6	-48.1	19.4	0.00e+00	0	47	0	692060160	64	4353
2026-01-25 03:31:39.45	329.61	28.91	-46.3	-47.7	19.7	0.00e+00	0	47	0	699400192	64	4182
2026-01-25 03:31:43.48	328.29	28.83	-46.0	-47.4	20.2	0.00e+00	0	47	0	707788800	63	4257
2026-01-25 03:31:47.51	326.97	28.73	-45.9	-47.3	20.3	0.00e+00	0	47	0	715128832	63	4204
2026-01-25 03:31:51.55	325.66	28.62	-45.8	-47.1	20.4	0.00e+00	0	47	0	722468864	63	4138
2026-01-25 03:31:55.58	324.37	28.50	-45.8	-47.1	20.5	0.00e+00	0	47	0	729808896	63	4108
2026-01-25 03:31:59.61	323.08	28.35	-45.6	-46.9	20.7	0.00e+00	0	47	0	737148928	63	4018
2026-01-25 03:32:03.64	321.81	28.20	-45.6	-46.8	20.7	0.00e+00	0	47	0	745537536	62	4224
2026-01-25 03:32:07.68	320.55	28.02	-45.8	-47.2	20.4	0.00e+00	0	47	0	752877568	62	4396
2026-01-25 03:32:11.72	319.30	27.84	-46.1	-47.5	20.2	0.00e+00	0	47	0	760217600	62	4553
2026-01-25 03:32:15.75	318.07	27.64	-46.5	-47.9	19.7	0.00e+00	0	47	0	767557632	63	4544
2026-01-25 03:32:19.79	316.85	27.42	-46.4	-47.9	19.7	0.00e+00	0	47	0	774897664	63	4498
2026-01-25 03:32:23.82	315.65	27.20	-46.7	-48.2	19.3	0.00e+00	0	47	0	783286272	64	4405
2026-01-25 03:32:27.85	314.47	26.96	-46.5	-47.9	19.5	0.00e+00	0	47	0	790626304	64	4280
2026-01-25 03:32:31.88	313.31	26.71	-46.9	-48.4	19.1	0.00e+00	0	47	0	797966336	64	4523
2026-01-25 03:32:35.92	312.16	26.45	-46.7	-48.2	19.2	0.00e+00	0	47	0	805306368	64	4409
2026-01-25 03:32:39.95	311.03	26.19	-46.6	-48.1	19.3	0.00e+00	0	47	0	812646400	64	4391
2026-01-25 03:32:43.99	309.93	25.91	-46.6	-48.1	19.4	0.00e+00	0	47	0	821035008	64	4371
2026-01-25 03:32:48.02	308.84	25.62	-46.4	-47.8	19.7	0.00e+00	0	46	0	828375040	64	4217
2026-01-25 03:32:52.05	307.77	25.33	-46.2	-47.6	19.9	0.00e+00	0	47	0	835715072	64	4100
2026-01-25 03:32:56.09	306.72	25.02	-46.0	-47.4	20.0	0.00e+00	0	47	0	843055104	64	4039
2026-01-25 03:33:00.12	305.70	24.72	-45.9	-47.2	20.3	0.00e+00	0	47	0	851443712	63	4181
2026-01-25 03:33:04.15	304.69	24.40	-45.6	-46.9	20.6	0.00e+00	0	47	0	858783744	63	4032
2026-01-25 03:33:08.18	303.70	24.08	-45.5	-46.8	20.7	0.00e+00	0	47	0	866123776	62	4204
2026-01-25 03:33:12.21	302.74	23.76	-45.3	-46.5	21.0	0.00e+00	0	47	0	873463808	62	4056
2026-01-25 03:33:16.25	301.79	23.42	-45.1	-46.4	21.1	0.00e+00	0	47	0	880803840	62	4006
2026-01-25 03:33:20.28	300.87	23.09	-45.1	-46.3	21.2	0.00e+00	0	47	0	889192448	62	3983
2026-01-25 03:33:24.31	299.96	22.75	-44.7	-45.8	21.5	0.00e+00	0	47	0	896532480	61	3994
2026-01-25 03:33:28.35	299.07	22.41	-44.5	-45.7	21.7	0.00e+00	0	47	0	903872512	61	3921
2026-01-25 03:33:32.38	298.21	22.07	-44.2	-45.3	22.0	0.00e+00	0	47	0	911212544	60	3961
2026-01-25 03:33:36.41	297.36	21.72	-44.1	-45.2	22.1	0.00e+00	0	47	0	918552576	60	3921
2026-01-25 03:33:40.44	296.53	21.38	-44.4	-45.5	22.1	0.00e+00	0	47	0	926941184	59	4323
2026-01-25 03:33:44.47	295.72	21.03	-43.9	-44.9	22.6	0.00e+00	0	47	0	934281216	59	4048
2026-01-25 03:33:48.51	294.93	20.68	-44.2	-45.2	22.3	0.00e+00	0	47	0	941621248	59	4180
2026-01-25 03:33:52.54	294.15	20.33	-44.1	-45.2	22.4	0.00e+00	0	47	0	948961280	59	4158
2026-01-25 03:33:56.57	293.40	19.97	-44.0	-45.1	22.5	0.00e+00	0	47	0	957349888	59	4121
2026-01-25 03:34:00.61	292.66	19.62	-44.0	-45.1	22.5	0.00e+00	0	47	0	964689920	59	4108
2026-01-25 03:34:04.64	291.94	19.27	-44.2	-45.3	22.3	0.00e+00	0	47	0	972029952	59	4215
2026-01-25 03:34:08.68	291.23	18.92	-44.4	-45.5	22.1	0.00e+00	0	47	0	979369984	59	4305
2026-01-25 03:34:12.72	290.54	18.57	-44.6	-45.7	21.9	0.00e+00	0	47	0	986710016	59	4398
2026-01-25 03:34:16.75	289.87	18.22	-44.4	-45.5	21.7	0.00e+00	0	46	0	995098624	60	4097
2026-01-25 03:34:20.79	289.21	17.87	-44.9	-46.1	21.1	0.00e+00	0	47	0	1002438656	60	4365
2026-01-25 03:34:24.83	288.57	17.52	-45.0	-46.2	21.0	0.00e+00	0	47	0	1009778688	60	4417
2026-01-25 03:34:28.86	287.94	17.17	-45.1	-46.3	20.9	0.00e+00	0	47	0	1017118720	61	4225
2026-01-25 03:34:32.90	287.33	16.83	-45.1	-46.3	20.9	0.00e+00	0	47	0	1024458752	61	4229
2026-01-25 03:34:36.93	286.73	16.48	-45.0	-46.2	21.0	0.00e+00	0	47	0	1032847360	61	4162
2026-01-25 03:34:40.97	286.14	16.14	-45.3	-46.5	20.7	0.00e+00	0	47	0	1040187392	61	4329
2026-01-25 03:34:45.00	285.57	15.80	-45.4	-46.7	20.5	0.00e+00	0	47	0	1047527424	61	4425
2026-01-25 03:34:49.03	285.01	15.46	-45.4	-46.7	20.5	0.00e+00	0	46	0	1054867456	61	4412
2026-01-25 03:34:53.06	284.47	15.12	-45.6	-46.9	20.2	0.00e+00	0	47	0	1063256064	61	4522
2026-01-25 03:34:57.10	283.93	14.79	-45.8	-47.1	20.0	0.00e+00	0	47	0	1070596096	62	4386
2026-01-25 03:35:01.13	283.41	14.46	-45.7	-47.1	20.1	0.00e+00	0	47	0	1077936128	62	4341
2026-01-25 03:35:05.17	282.90	14.12	-45.9	-47.2	19.9	0.00e+00	0	46	0	1085276160	62	4438
2026-01-25 03:35:09.21	282.40	13.80	-46.2	-47.7	19.5	0.00e+00	0	47	0	1092616192	63	4392
2026-01-25 03:35:13.24	281.92	13.47	-46.4	-47.9	19.2	0.00e+00	0	47	0	1101004800	63	4529
2026-01-25 03:35:17.27	281.44	13.15	-46.5	-48.1	19.0	0.00e+00	0	47	0	1108344832	63	4602
2026-01-25 03:35:21.30	280.98	12.83	-46.6	-48.3	18.7	0.00e+00	0	47	0	1115684864	64	4442
2026-01-25 03:35:25.33	280.52	12.51	-46.6	-48.3	18.7	0.00e+00	0	47	0	1123024896	64	4444
2026-01-25 03:35:29.37	280.08	12.19	-46.7	-48.3	18.6	0.00e+00	0	46	0	1131413504	64	4489
2026-01-25 03:35:33.40	279.64	11.87	-46.5	-48.1	18.8	0.00e+00	0	47	0	1138753536	64	4367
2026-01-25 03:35:37.43	279.21	11.56	-46.8	-48.5	18.4	0.00e+00	0	47	0	1146093568	64	4578
2026-01-25 03:35:41.47	278.80	11.25	-46.7	-48.3	18.6	0.00e+00	0	47	0	1153433600	64	4484
2026-01-25 03:35:45.50	278.39	10.95	-46.7	-48.3	18.5	0.00e+00	0	47	0	1160773632	64	4484
2026-01-25 03:35:49.53	277.99	10.64	-46.8	-48.5	18.4	0.00e+00	0	47	0	1168113664	64	4565
2026-01-25 03:35:53.57	277.60	10.34	-47.1	-48.8	18.0	0.00e+00	0	46	0	1176502272	64	4756
2026-01-25 03:35:57.60	277.21	10.04	-47.2	-49.0	17.8	0.00e+00	0	47	0	1183842304	65	4561
2026-01-25 03:36:01.64	276.84	9.74	-47.1	-49.0	17.8	0.00e+00	0	47	0	1191182336	65	4554
2026-01-25 03:36:05.67	276.47	9.45	-47.5	-49.4	17.4	0.00e+00	0	47	0	1198522368	65	4791
2026-01-25 03:36:09.70	276.11	9.15	-47.7	-49.7	17.0	0.00e+00	0	46	0	1206910976	65	4960
2026-01-25 03:36:13.73	275.76	8.86	-47.6	-49.6	17.1	0.00e+00	0	47	0	1214251008	66	4629
2026-01-25 03:36:17.77	275.42	8.57	-47.5	-49.5	17.2	0.00e+00	0	47	0	1221591040	66	4573
2026-01-25 03:36:21.80	275.08	8.29	-47.4	-49.3	17.4	0.00e+00	0	46	0	1228931072	66	4484
2026-01-25 03:36:25.84	274.75	8.00	-47.4	-49.3	17.3	0.00e+00	0	47	0	1236271104	66	4493
2026-01-25 03:36:29.87	274.42	7.72	-47.7	-49.8	16.9	0.00e+00	0	47	0	1244659712	66	4717
2026-01-25 03:36:33.91	274.10	7.44	-47.8	-49.9	16.7	0.00e+00	0	47	0	1251999744	66	4775
2026-01-25 03:36:37.94	273.79	7.16	-47.8	-49.9	16.6	0.00e+00	0	47	0	1259339776	66	4789
2026-01-25 03:36:41.97	273.49	6.89	-48.0	-50.3	16.2	0.00e+00	0	47	0	1266679808	66	5026
2026-01-25 03:36:46.01	273.19	6.62	-48.4	-50.9	15.6	0.00e+00	0	47	0	1274019840	67	5088
2026-01-25 03:36:50.04	272.89	6.35	-48.5	-51.1	15.3	0.00e+00	0	47	0	1282408448	67	5210
2026-01-25 03:36:54.07	272.60	6.08	-48.4	-50.9	15.5	0.00e+00	0	47	0	1289748480	67	5064
2026-01-25 03:36:58.11	272.32	5.81	-48.4	-51.0	15.3	0.00e+00	0	47	0	1297088512	67	5147
2026-01-25 03:37:02.14	272.04	5.55	-48.3	-50.9	15.4	0.00e+00	0	47	0	1304428544	67	5075
2026-01-25 03:37:06.18	271.77	5.28	-48.4	-51.0	15.2	0.00e+00	0	47	0	1312817152	67	5140
2026-01-25 03:37:10.20	271.50	5.02	-48.6	-51.5	14.6	0.00e+00	0	46	0	1320157184	67	5407
2026-01-25 03:37:14.24	271.24	4.76	-53.4	-68.3	3.8	1.49e+00	0	47	104	1321205760	77	21188
2026-01-25 03:37:18.27	270.98	4.51	-53.9	-68.8	3.8	1.49e+00	0	47	104	1321205760	78	21196
2026-01-25 03:37:22.30	270.73	4.25	-54.1	-69.1	3.8	1.49e+00	0	47	104	1321205760	78	21907
2026-01-25 03:37:26.33	270.48	4.00	-54.3	-69.3	3.8	1.49e+00	0	47	104	1321205760	79	21097
2026-01-25 03:37:30.37	270.24	3.75	-54.2	-69.2	3.8	1.49e+00	0	47	104	1321205760	79	20873
2026-01-25 03:37:34.40	270.00	3.50	-54.1	-69.1	3.8	1.49e+00	0	47	104	1321205760	79	20587
2026-01-25 03:37:38.44	269.76	3.25	-53.9	-68.9	3.8	1.49e+00	0	47	104	1321205760	79	20242
2026-01-25 03:37:42.48	269.53	3.00	-53.9	-68.9	3.8	1.49e+00	0	47	104	1321205760	79	20094
2026-01-25 03:37:46.51	269.30	2.76	-53.9	-68.9	3.8	1.49e+00	0	47	104	1321205760	79	20095
2026-01-25 03:37:50.55	269.08	2.52	-53.9	-68.8	3.8	1.49e+00	0	47	104	1321205760	79	20048
2026-01-25 03:37:54.58	268.86	2.28	-53.8	-68.8	3.8	1.49e+00	0	47	104	1321205760	79	19933
2026-01-25 03:37:58.61	268.64	2.04	-53.8	-68.8	3.8	1.49e+00	0	47	104	1321205760	79	19990

#Closed at: 2026-01-25 03:37:59
#Recorded file [1321 MB]: D:/lorett/data/31041_260125_062447.dat