passes_logs/2026/01/25/R3.2S_Murmansk/R3.2S_Murmansk__20260125_023442_NOAA_21_JPSS-2_rec.log

#Pass ID: 20260125_023442_NOAA 21 (JPSS-2)
#Satellite: NOAA 21 (JPSS-2)
#Configuration: NOAA-21
#almurnet v.1.7.20251203
#Start time: 2026-01-25 02:34:43

#Version: 2.2.20231116
#Station: R3.2S_Murmansk
#Location: 33.079688 lon 68.888172 lat
#TLE: 1 54234U 22150A   26024.45772595  .00000201  00000+0  11607-3 0  9996
#TLE: 2 54234  98.7508 325.2435 0000728 220.7365 139.3757 14.19538765166156

#Time	Az	El	Level	Level2	SNR	BER	BlckErr	Temp	State	Recorded	gain1	gain2
2026-01-25 02:34:43.34	34.44	2.03	-52.1	-64.8	3.8	1.49e+00	0	42	0	0	76	14951
2026-01-25 02:34:47.38	34.28	2.27	-52.1	-64.8	3.8	1.49e+00	0	42	104	0	74	16809
2026-01-25 02:34:51.41	34.11	2.52	-52.1	-64.8	3.8	1.49e+00	0	42	104	0	74	16729
2026-01-25 02:34:55.44	33.95	2.77	-52.1	-64.7	3.8	1.49e+00	0	43	104	0	74	16683
2026-01-25 02:34:59.48	33.78	3.03	-52.1	-64.7	3.8	1.49e+00	0	43	104	0	74	16604
2026-01-25 02:35:03.51	33.60	3.28	-52.1	-64.6	3.8	1.49e+00	0	43	104	0	74	16342
2026-01-25 02:35:07.54	33.43	3.54	-52.1	-64.8	3.8	1.49e+00	0	43	104	0	74	16773
2026-01-25 02:35:11.57	33.25	3.80	-52.0	-63.6	3.8	1.49e+00	0	43	104	0	74	14692
2026-01-25 02:35:15.60	33.06	4.06	-51.7	-60.8	4.3	1.46e+00	0	43	104	0	74	10604
2026-01-25 02:35:19.64	32.88	4.33	-50.6	-55.6	7.8	9.62e-02	0	43	0	7340032	73	6192
2026-01-25 02:35:23.67	32.68	4.59	-47.6	-49.8	13.9	1.06e-05	0	43	0	19922944	67	4477
2026-01-25 02:35:27.71	32.49	4.86	-45.7	-47.2	16.6	0.00e+00	0	43	0	32505856	63	4148
2026-01-25 02:35:31.74	32.29	5.13	-47.2	-49.3	14.5	3.00e-06	0	43	0	45088768	66	4452
2026-01-25 02:35:35.77	32.09	5.41	-45.0	-46.2	17.4	6.00e-04	0	43	0	57671680	62	3948
2026-01-25 02:35:39.81	31.88	5.68	-44.5	-45.8	18.1	0.00e+00	0	43	0	70254592	61	3961
2026-01-25 02:35:43.84	31.67	5.96	-44.3	-45.5	18.4	0.00e+00	0	43	0	82837504	60	4055
2026-01-25 02:35:47.87	31.45	6.24	-44.6	-45.8	18.1	0.00e+00	0	43	0	95420416	60	4235
2026-01-25 02:35:51.91	31.23	6.53	-44.4	-45.6	18.3	0.00e+00	0	43	0	108003328	60	4119
2026-01-25 02:35:55.94	31.01	6.81	-44.2	-45.4	18.6	0.00e+00	0	43	0	120586240	60	4037
2026-01-25 02:35:59.97	30.78	7.10	-44.3	-45.5	18.5	0.00e+00	0	43	0	133169152	60	4086
2026-01-25 02:36:04.01	30.54	7.39	-44.0	-45.1	18.9	0.00e+00	0	44	0	145752064	60	3906
2026-01-25 02:36:08.04	30.30	7.69	-44.4	-45.6	18.8	0.00e+00	0	44	0	158334976	59	4343
2026-01-25 02:36:12.08	30.06	7.99	-44.1	-45.2	19.2	0.00e+00	0	44	0	170917888	59	4168
2026-01-25 02:36:16.11	29.81	8.29	-44.0	-45.1	19.3	0.00e+00	0	44	0	183500800	59	4122
2026-01-25 02:36:20.15	29.55	8.59	-44.0	-45.1	19.4	0.00e+00	0	44	0	196083712	59	4110
2026-01-25 02:36:24.19	29.29	8.90	-43.8	-44.9	19.6	0.00e+00	0	44	0	208666624	59	4014
2026-01-25 02:36:28.22	29.02	9.21	-43.8	-44.8	19.7	0.00e+00	0	44	0	221249536	59	3986
2026-01-25 02:36:32.26	28.75	9.52	-43.6	-44.7	19.9	0.00e+00	0	44	0	233832448	59	3924
2026-01-25 02:36:36.30	28.47	9.84	-43.6	-44.6	19.9	0.00e+00	0	44	0	246415360	59	3886
2026-01-25 02:36:40.34	28.18	10.16	-43.3	-44.3	20.2	0.00e+00	0	44	0	258998272	58	3961
2026-01-25 02:36:44.37	27.89	10.48	-43.2	-44.2	20.3	0.00e+00	0	44	0	272629760	58	3915
2026-01-25 02:36:48.40	27.59	10.81	-43.3	-44.2	20.2	0.00e+00	0	44	0	284164096	58	3949
2026-01-25 02:36:52.43	27.28	11.14	-43.1	-44.0	20.5	0.00e+00	0	44	0	296747008	58	3868
2026-01-25 02:36:56.47	26.97	11.48	-43.1	-44.0	20.6	0.00e+00	0	44	0	310378496	58	3858
2026-01-25 02:37:00.50	26.64	11.81	-42.9	-43.8	20.7	0.00e+00	0	44	0	321912832	57	4003
2026-01-25 02:37:04.53	26.32	12.16	-42.8	-43.7	20.8	0.00e+00	0	44	0	334495744	57	3952
2026-01-25 02:37:08.57	25.98	12.50	-42.7	-43.6	20.9	0.00e+00	0	44	0	348127232	57	3906
2026-01-25 02:37:12.60	25.63	12.85	-42.6	-43.6	21.0	0.00e+00	0	44	0	360710144	57	3875
2026-01-25 02:37:16.64	25.27	13.21	-42.6	-43.5	21.0	0.00e+00	0	44	0	373293056	57	3867
2026-01-25 02:37:20.68	24.91	13.56	-42.5	-43.4	21.1	0.00e+00	0	44	0	385875968	57	3817
2026-01-25 02:37:24.71	24.54	13.92	-42.6	-43.5	21.1	0.00e+00	0	44	0	398458880	56	4071
2026-01-25 02:37:28.75	24.15	14.29	-42.5	-43.3	21.3	0.00e+00	0	44	0	411041792	56	4003
2026-01-25 02:37:32.78	23.76	14.66	-42.5	-43.4	21.2	0.00e+00	0	44	0	423624704	56	4030
2026-01-25 02:37:36.81	23.35	15.03	-42.6	-43.5	21.1	0.00e+00	0	44	0	436207616	56	4079
2026-01-25 02:37:40.85	22.94	15.41	-42.6	-43.5	21.2	0.00e+00	0	44	0	448790528	56	4074
2026-01-25 02:37:44.89	22.51	15.80	-42.6	-43.5	21.2	0.00e+00	0	44	0	461373440	56	4092
2026-01-25 02:37:48.92	22.08	16.18	-42.8	-43.7	21.0	0.00e+00	0	44	0	473956352	56	4172
2026-01-25 02:37:52.96	21.63	16.58	-42.7	-43.6	21.1	0.00e+00	0	44	0	486539264	56	4138
2026-01-25 02:37:57.00	21.17	16.97	-42.9	-43.8	21.0	0.00e+00	0	44	0	499122176	56	4203
2026-01-25 02:38:01.03	20.69	17.37	-42.8	-43.7	21.0	0.00e+00	0	44	0	511705088	56	4189
2026-01-25 02:38:05.07	20.20	17.78	-42.8	-43.6	21.1	0.00e+00	0	44	0	524288000	56	4142
2026-01-25 02:38:09.11	19.70	18.19	-42.7	-43.6	21.2	0.00e+00	0	44	0	536870912	56	4104
2026-01-25 02:38:13.14	19.19	18.60	-42.7	-43.6	21.1	0.00e+00	0	44	0	549453824	56	4140
2026-01-25 02:38:17.18	18.66	19.02	-42.8	-43.7	21.1	0.00e+00	0	44	0	562036736	56	4182
2026-01-25 02:38:21.22	18.11	19.44	-42.4	-43.3	21.5	0.00e+00	0	44	0	574619648	56	3961
2026-01-25 02:38:25.25	17.55	19.87	-42.2	-43.1	21.7	0.00e+00	0	44	0	587202560	56	3886
2026-01-25 02:38:29.29	16.97	20.30	-42.2	-43.1	21.6	0.00e+00	0	44	0	599785472	56	3891
2026-01-25 02:38:33.32	16.38	20.74	-42.3	-43.1	21.7	0.00e+00	0	44	0	612368384	56	3894
2026-01-25 02:38:37.36	15.77	21.18	-42.0	-42.8	21.9	0.00e+00	0	44	0	624951296	56	3763
2026-01-25 02:38:41.39	15.14	21.62	-41.8	-42.6	22.0	0.00e+00	0	44	0	637534208	55	3891
2026-01-25 02:38:45.43	14.49	22.07	-41.9	-42.8	21.9	0.00e+00	0	44	0	650117120	55	3962
2026-01-25 02:38:49.46	13.82	22.52	-41.5	-42.3	22.3	0.00e+00	0	44	0	662700032	55	3766
2026-01-25 02:38:53.50	13.14	22.98	-41.5	-42.3	22.4	0.00e+00	0	44	0	675282944	54	3968
2026-01-25 02:38:57.54	12.43	23.44	-41.3	-42.1	22.5	0.00e+00	0	44	0	687865856	54	3894
2026-01-25 02:39:01.57	11.70	23.90	-41.3	-42.1	22.6	0.00e+00	0	44	0	700448768	54	3883
2026-01-25 02:39:05.60	10.94	24.37	-41.3	-42.1	22.6	0.00e+00	0	44	0	713031680	54	3877
2026-01-25 02:39:09.64	10.17	24.84	-41.5	-42.2	22.4	0.00e+00	0	44	0	726663168	54	3954
2026-01-25 02:39:13.68	9.37	25.31	-42.1	-42.9	21.9	0.00e+00	0	44	0	738197504	54	4271
2026-01-25 02:39:17.71	8.54	25.78	-42.0	-42.8	22.0	0.00e+00	0	44	0	750780416	54	4198
2026-01-25 02:39:21.75	7.69	26.26	-41.9	-42.8	21.9	0.00e+00	0	44	0	764411904	54	4200
2026-01-25 02:39:25.78	6.82	26.73	-42.0	-42.8	21.9	0.00e+00	0	44	0	776994816	54	4228
2026-01-25 02:39:29.82	5.91	27.21	-42.1	-43.0	21.9	0.00e+00	0	44	0	788529152	54	4292
2026-01-25 02:39:33.85	4.98	27.68	-42.6	-43.5	21.4	0.00e+00	0	44	0	802160640	55	4326
2026-01-25 02:39:37.89	4.02	28.16	-42.4	-43.2	21.7	0.00e+00	0	44	0	814743552	55	4180
2026-01-25 02:39:41.93	3.03	28.64	-42.5	-43.3	21.5	0.00e+00	0	44	0	827326464	55	4233
2026-01-25 02:39:45.97	2.01	29.11	-42.7	-43.6	21.4	0.00e+00	0	44	0	839909376	56	4104
2026-01-25 02:39:50.00	0.97	29.58	-42.9	-43.8	21.2	0.00e+00	0	44	0	852492288	56	4228
2026-01-25 02:39:54.04	359.88	30.05	-42.7	-43.5	21.6	0.00e+00	0	44	0	865075200	56	4080
2026-01-25 02:39:58.08	358.77	30.51	-42.6	-43.4	21.6	0.00e+00	0	44	0	877658112	56	4051
2026-01-25 02:40:02.12	357.62	30.97	-42.6	-43.4	21.7	0.00e+00	0	44	0	890241024	56	4026
2026-01-25 02:40:06.15	356.45	31.42	-42.6	-43.4	21.7	0.00e+00	0	44	0	902823936	56	4025
2026-01-25 02:40:10.19	355.23	31.86	-42.5	-43.3	21.7	0.00e+00	0	44	0	915406848	56	4000
2026-01-25 02:40:14.22	353.99	32.30	-42.5	-43.3	21.7	0.00e+00	0	44	0	927989760	56	3990
2026-01-25 02:40:18.26	352.71	32.73	-43.1	-44.0	21.0	0.00e+00	0	44	0	940572672	56	4308
2026-01-25 02:40:22.29	351.40	33.14	-43.3	-44.2	20.9	0.00e+00	0	44	0	953155584	57	4183
2026-01-25 02:40:26.32	350.05	33.54	-43.3	-44.2	21.1	0.00e+00	0	44	0	965738496	57	4146
2026-01-25 02:40:30.36	348.67	33.93	-43.5	-44.4	21.0	0.00e+00	0	44	0	978321408	57	4274
2026-01-25 02:40:34.39	347.26	34.31	-43.9	-44.8	20.7	0.00e+00	0	44	0	990904320	58	4230
2026-01-25 02:40:38.42	345.82	34.67	-43.3	-44.2	21.1	0.00e+00	0	44	0	1003487232	58	3950
2026-01-25 02:40:42.46	344.34	35.01	-43.4	-44.3	21.1	0.00e+00	0	44	0	1016070144	58	3965
2026-01-25 02:40:46.49	342.83	35.33	-43.9	-44.9	20.6	0.00e+00	0	44	0	1028653056	58	4248
2026-01-25 02:40:50.53	341.29	35.63	-43.3	-44.1	21.3	0.00e+00	0	44	0	1041235968	58	3894
2026-01-25 02:40:54.56	339.73	35.91	-43.4	-44.2	21.2	0.00e+00	0	44	0	1053818880	58	3956
2026-01-25 02:40:58.59	338.14	36.17	-44.1	-45.1	20.4	0.00e+00	0	44	0	1066401792	58	4364
2026-01-25 02:41:02.63	336.52	36.41	-44.1	-45.1	20.3	0.00e+00	0	44	0	1078984704	59	4127
2026-01-25 02:41:06.66	334.88	36.62	-44.2	-45.2	20.1	0.00e+00	0	44	0	1091567616	59	4161
2026-01-25 02:41:10.69	333.23	36.80	-44.4	-45.4	20.2	0.00e+00	0	44	0	1104150528	59	4286
2026-01-25 02:41:14.72	331.55	36.96	-44.3	-45.2	20.4	0.00e+00	0	44	0	1116733440	59	4179
2026-01-25 02:41:18.75	329.86	37.09	-43.9	-44.8	20.7	0.00e+00	0	44	0	1129316352	59	3988
2026-01-25 02:41:22.79	328.16	37.19	-43.5	-44.4	21.0	0.00e+00	0	44	0	1141899264	59	3819
2026-01-25 02:41:26.83	326.44	37.27	-43.7	-44.6	20.8	0.00e+00	0	44	0	1154482176	58	4133
2026-01-25 02:41:30.86	324.72	37.31	-43.9	-44.8	20.7	0.00e+00	0	44	0	1167065088	58	4226
2026-01-25 02:41:34.90	323.00	37.32	-44.2	-45.2	20.3	0.00e+00	0	44	0	1179648000	59	4173
2026-01-25 02:41:38.93	321.28	37.31	-44.1	-45.0	20.4	0.00e+00	0	44	0	1192230912	59	4097
2026-01-25 02:41:42.97	319.56	37.26	-44.4	-45.4	20.2	0.00e+00	0	44	0	1204813824	59	4269
2026-01-25 02:41:47.00	317.84	37.19	-44.2	-45.2	20.2	0.00e+00	0	44	0	1217396736	59	4154
2026-01-25 02:41:51.04	316.14	37.09	-44.2	-45.2	20.3	0.00e+00	0	44	0	1231028224	59	4169
2026-01-25 02:41:55.08	314.44	36.95	-44.2	-45.2	20.0	0.00e+00	0	44	0	1242562560	60	3938
2026-01-25 02:41:59.11	312.77	36.80	-43.6	-44.5	20.9	0.00e+00	0	44	0	1255145472	59	3865
2026-01-25 02:42:03.15	311.11	36.61	-43.6	-44.5	20.9	0.00e+00	0	44	0	1268776960	59	3847
2026-01-25 02:42:07.18	309.47	36.40	-43.8	-44.7	20.7	0.00e+00	0	44	0	1281359872	59	3948
2026-01-25 02:42:11.22	307.85	36.16	-44.0	-44.9	20.6	0.00e+00	0	44	0	1292894208	59	4034
2026-01-25 02:42:15.25	306.26	35.90	-43.9	-44.9	20.5	0.00e+00	0	44	0	1306525696	59	4005
2026-01-25 02:42:19.29	304.69	35.62	-43.9	-44.9	20.6	0.00e+00	0	44	0	1319108608	59	4011
2026-01-25 02:42:23.33	303.15	35.31	-44.3	-45.4	20.1	0.00e+00	0	45	0	1331691520	59	4243
2026-01-25 02:42:27.37	301.64	34.99	-44.2	-45.2	20.2	0.00e+00	0	44	0	1344274432	59	4168
2026-01-25 02:42:31.40	300.17	34.64	-43.1	-44.0	21.3	0.00e+00	0	45	0	1356857344	58	3828
2026-01-25 02:42:35.44	298.72	34.28	-43.5	-44.4	20.9	0.00e+00	0	44	0	1369440256	57	4290
2026-01-25 02:42:39.47	297.31	33.91	-43.3	-44.1	21.2	0.00e+00	0	45	0	1382023168	58	3905
2026-01-25 02:42:43.50	295.93	33.52	-43.1	-44.0	21.2	0.00e+00	0	44	0	1394606080	57	4066
2026-01-25 02:42:47.54	294.58	33.11	-43.6	-44.5	20.9	0.00e+00	0	44	0	1407188992	58	4064
2026-01-25 02:42:51.58	293.26	32.69	-42.5	-43.4	21.9	0.00e+00	0	44	0	1419771904	57	3782
2026-01-25 02:42:55.62	291.98	32.27	-43.6	-44.5	20.8	0.00e+00	0	45	0	1432354816	57	4328
2026-01-25 02:42:59.65	290.74	31.83	-42.9	-43.7	21.5	0.00e+00	0	44	0	1444937728	57	3938
2026-01-25 02:43:03.69	289.53	31.38	-42.9	-43.8	21.3	0.00e+00	0	44	0	1457520640	57	3981
2026-01-25 02:43:07.72	288.35	30.93	-42.7	-43.5	21.6	0.00e+00	0	44	0	1470103552	57	3861
2026-01-25 02:43:11.76	287.20	30.47	-43.5	-44.4	20.9	0.00e+00	0	44	0	1482686464	57	4274
2026-01-25 02:43:15.80	286.09	30.01	-43.0	-43.9	21.3	0.00e+00	0	44	0	1495269376	57	4036
2026-01-25 02:43:19.84	285.01	29.54	-43.2	-44.1	21.1	0.00e+00	0	44	0	1507852288	57	4118
2026-01-25 02:43:23.87	283.96	29.07	-42.8	-43.6	21.4	0.00e+00	0	44	0	1520435200	57	3901
2026-01-25 02:43:27.91	282.94	28.59	-42.1	-42.9	22.1	0.00e+00	0	45	0	1533018112	56	3821
2026-01-25 02:43:31.94	281.95	28.12	-42.5	-43.3	21.7	0.00e+00	0	44	0	1545601024	56	3985
2026-01-25 02:43:35.97	280.99	27.64	-42.5	-43.3	21.7	0.00e+00	0	44	0	1558183936	56	3991
2026-01-25 02:43:40.01	280.06	27.16	-42.2	-43.1	21.9	0.00e+00	0	44	0	1570766848	56	3875
2026-01-25 02:43:44.04	279.15	26.68	-42.4	-43.2	21.8	0.00e+00	0	45	0	1583349760	56	3940
2026-01-25 02:43:48.07	278.28	26.21	-42.6	-43.4	21.6	0.00e+00	0	45	0	1595932672	56	4041
2026-01-25 02:43:52.11	277.43	25.73	-42.9	-43.8	21.1	0.00e+00	0	44	0	1608515584	56	4238
2026-01-25 02:43:56.14	276.60	25.26	-42.5	-43.4	21.6	0.00e+00	0	44	0	1621098496	56	4028
2026-01-25 02:44:00.17	275.80	24.79	-42.5	-43.3	21.7	0.00e+00	0	45	0	1633681408	56	4000
2026-01-25 02:44:04.21	275.02	24.32	-42.2	-43.0	22.0	0.00e+00	0	44	0	1646264320	56	3832
2026-01-25 02:44:08.24	274.27	23.85	-41.5	-42.2	22.5	0.00e+00	0	45	0	1658847232	55	3732
2026-01-25 02:44:12.28	273.54	23.39	-41.5	-42.3	22.5	0.00e+00	0	45	0	1671430144	54	3972
2026-01-25 02:44:16.31	272.83	22.93	-41.8	-42.6	22.2	0.00e+00	0	45	0	1684013056	54	4114
2026-01-25 02:44:20.35	272.14	22.47	-42.1	-42.9	21.9	0.00e+00	0	44	0	1697644544	54	4283
2026-01-25 02:44:24.38	271.47	22.01	-42.2	-43.0	21.8	0.00e+00	0	44	0	1709178880	55	4065
2026-01-25 02:44:28.41	270.82	21.57	-42.2	-43.0	21.7	0.00e+00	0	45	0	1721761792	55	4095
2026-01-25 02:44:32.45	270.19	21.12	-42.2	-43.0	21.7	0.00e+00	0	45	0	1735393280	55	4077
2026-01-25 02:44:36.49	269.58	20.68	-42.4	-43.2	21.5	0.00e+00	0	44	0	1746927616	55	4188
2026-01-25 02:44:40.53	268.98	20.24	-42.5	-43.4	21.4	0.00e+00	0	44	0	1759510528	55	4254
2026-01-25 02:44:44.57	268.40	19.81	-42.2	-43.0	21.6	0.00e+00	0	44	0	1773142016	55	4098
2026-01-25 02:44:48.60	267.84	19.38	-41.8	-42.6	22.0	0.00e+00	0	44	0	1785724928	55	3911
2026-01-25 02:44:52.64	267.30	18.95	-41.7	-42.5	22.1	0.00e+00	0	44	0	1797259264	55	3853
2026-01-25 02:44:56.67	266.77	18.54	-41.8	-42.6	22.1	0.00e+00	0	44	0	1810890752	55	3878
2026-01-25 02:45:00.71	266.25	18.12	-42.1	-42.9	21.7	0.00e+00	0	44	0	1823473664	55	4032
2026-01-25 02:45:04.74	265.75	17.71	-42.1	-42.9	21.7	0.00e+00	0	44	0	1836056576	55	4037
2026-01-25 02:45:08.77	265.26	17.31	-42.2	-43.0	21.6	0.00e+00	0	44	0	1848639488	55	4091
2026-01-25 02:45:12.81	264.78	16.90	-42.5	-43.4	21.3	0.00e+00	0	45	0	1861222400	55	4256
2026-01-25 02:45:16.84	264.32	16.51	-42.9	-43.9	21.0	0.00e+00	0	44	0	1873805312	56	4245
2026-01-25 02:45:20.88	263.87	16.11	-43.3	-44.2	20.7	0.00e+00	0	44	0	1886388224	57	4172
2026-01-25 02:45:24.92	263.43	15.73	-43.2	-44.1	20.8	0.00e+00	0	44	0	1898971136	57	4115
2026-01-25 02:45:28.95	263.01	15.34	-43.0	-43.9	20.8	0.00e+00	0	44	0	1911554048	57	4046
2026-01-25 02:45:32.99	262.59	14.96	-43.0	-43.9	20.8	0.00e+00	0	44	0	1924136960	57	4045
2026-01-25 02:45:37.03	262.18	14.59	-43.1	-44.0	20.8	0.00e+00	0	44	0	1936719872	57	4090
2026-01-25 02:45:41.07	261.79	14.22	-43.3	-44.3	20.6	0.00e+00	0	44	0	1949302784	57	4207
2026-01-25 02:45:45.11	261.40	13.85	-43.6	-44.5	20.3	0.00e+00	0	45	0	1961885696	57	4336
2026-01-25 02:45:49.14	261.03	13.49	-43.4	-44.4	20.3	0.00e+00	0	44	0	1974468608	57	4261
2026-01-25 02:45:53.17	260.66	13.13	-43.0	-43.9	20.7	0.00e+00	0	44	0	1987051520	57	4048
2026-01-25 02:45:57.20	260.31	12.78	-42.9	-43.8	20.8	0.00e+00	0	44	0	1999634432	57	3977
2026-01-25 02:46:01.24	259.96	12.43	-43.1	-44.0	20.7	0.00e+00	0	45	0	2012217344	57	4076
2026-01-25 02:46:05.27	259.62	12.08	-43.3	-44.2	20.5	0.00e+00	0	44	0	2024800256	57	4182
2026-01-25 02:46:09.30	259.29	11.74	-43.5	-44.4	20.3	0.00e+00	0	44	0	2037383168	57	4290
2026-01-25 02:46:13.34	258.96	11.40	-43.6	-44.6	20.1	0.00e+00	0	44	0	2049966080	57	4379
2026-01-25 02:46:17.38	258.65	11.06	-43.7	-44.7	20.0	0.00e+00	0	44	0	2062548992	58	4185
2026-01-25 02:46:21.41	258.34	10.73	-43.7	-44.8	19.9	0.00e+00	0	44	0	2075131904	58	4196
2026-01-25 02:46:25.45	258.04	10.40	-43.7	-44.7	20.0	0.00e+00	0	44	0	2087714816	58	4168
2026-01-25 02:46:29.48	257.74	10.08	-43.8	-44.8	19.8	0.00e+00	0	45	0	2100297728	58	4237
2026-01-25 02:46:33.52	257.45	9.76	-43.7	-44.7	19.9	0.00e+00	0	45	0	2112880640	58	4179
2026-01-25 02:46:37.55	257.17	9.44	-43.8	-44.9	19.8	0.00e+00	0	45	0	2125463552	58	4246
2026-01-25 02:46:41.59	256.90	9.13	-44.0	-45.1	19.6	0.00e+00	0	44	0	2138046464	58	4354
2026-01-25 02:46:45.62	256.63	8.82	-43.9	-45.0	19.6	0.00e+00	0	44	0	2150629376	58	4305
2026-01-25 02:46:49.65	256.36	8.51	-44.2	-45.3	19.3	0.00e+00	0	44	0	2163212288	59	4215
2026-01-25 02:46:53.69	256.10	8.21	-44.5	-45.6	19.0	0.00e+00	0	44	0	2175795200	59	4374
2026-01-25 02:46:57.73	255.85	7.90	-44.5	-45.6	19.0	0.00e+00	0	44	0	2188378112	59	4367
2026-01-25 02:47:01.76	255.61	7.61	-44.2	-45.3	18.9	0.00e+00	0	44	0	2202009600	60	3981
2026-01-25 02:47:05.80	255.36	7.31	-44.4	-45.5	18.7	0.00e+00	0	44	0	2213543936	60	4071
2026-01-25 02:47:09.83	255.13	7.02	-44.4	-45.6	18.6	0.00e+00	0	44	0	2226126848	60	4128
2026-01-25 02:47:13.86	254.90	6.73	-44.5	-45.7	18.5	0.00e+00	0	44	0	2239758336	60	4152
2026-01-25 02:47:17.89	254.67	6.44	-44.8	-46.1	18.1	0.00e+00	0	44	0	2251292672	60	4346
2026-01-25 02:47:21.93	254.45	6.16	-44.8	-46.1	18.0	0.00e+00	0	45	0	2263875584	60	4367
2026-01-25 02:47:25.96	254.23	5.88	-44.9	-46.2	17.9	0.00e+00	0	44	0	2277507072	60	4418
2026-01-25 02:47:30.00	254.02	5.60	-44.9	-46.2	17.8	0.00e+00	0	44	0	2290089984	60	4431
2026-01-25 02:47:34.03	253.81	5.32	-45.2	-46.6	17.4	0.00e+00	0	44	0	2301624320	61	4342
2026-01-25 02:47:38.07	253.60	5.05	-45.5	-46.9	17.0	0.00e+00	0	45	0	2315255808	61	4529
2026-01-25 02:47:42.10	253.40	4.77	-53.4	-66.1	3.8	1.49e+00	0	45	104	2317352960	77	16469
2026-01-25 02:47:46.13	253.21	4.51	-53.9	-66.6	3.8	1.49e+00	0	45	104	2317352960	78	16444
2026-01-25 02:47:50.17	253.01	4.24	-54.2	-66.9	3.8	1.49e+00	0	44	104	2317352960	78	17029
2026-01-25 02:47:54.20	252.82	3.97	-54.3	-67.0	3.8	1.49e+00	0	44	104	2317352960	79	16271
2026-01-25 02:47:58.23	252.64	3.71	-54.1	-66.9	3.8	1.49e+00	0	45	104	2317352960	79	15984
2026-01-25 02:48:02.26	252.46	3.45	-54.0	-66.7	3.8	1.49e+00	0	45	104	2317352960	79	15685
2026-01-25 02:48:06.29	252.28	3.20	-53.9	-66.6	3.8	1.49e+00	0	45	104	2317352960	79	15548
2026-01-25 02:48:10.33	252.10	2.94	-53.8	-66.6	3.8	1.49e+00	0	45	104	2317352960	79	15440
2026-01-25 02:48:14.36	251.93	2.69	-53.8	-66.6	3.8	1.49e+00	0	45	104	2317352960	79	15410
2026-01-25 02:48:18.39	251.76	2.43	-53.8	-66.5	3.8	1.49e+00	0	45	104	2317352960	79	15382
2026-01-25 02:48:22.43	251.59	2.18	-53.8	-66.5	3.8	1.49e+00	0	45	104	2317352960	79	15385
2026-01-25 02:48:26.46	251.43	1.94	-53.8	-66.5	3.8	1.49e+00	0	45	104	2317352960	79	15394

#Closed at: 2026-01-25 02:48:28
#Recorded file [2317 MB]: D:/lorett/data/31041_260125_053443.dat