passes_logs/2026/01/25/R3.2S_Murmansk/R3.2S_Murmansk__20260125_080134_SUOMI_NPP_rec.log

#Pass ID: 20260125_080134_SUOMI NPP
#Satellite: SUOMI NPP
#Configuration: NPP
#almurnet v.1.7.20251203
#Start time: 2026-01-25 08:01:34

#Version: 2.2.20231116
#Station: R3.2S_Murmansk
#Location: 33.079688 lon 68.888172 lat
#TLE: 1 37849U 11061A   26024.97198022  .00000188  00000+0  11029-3 0  9994
#TLE: 2 37849  98.7821 326.9352 0002187  46.6646 313.4712 14.19529581738125

#Time	Az	El	Level	Level2	SNR	BER	BlckErr	Temp	State	Recorded	gain1	gain2
2026-01-25 08:01:34.42	115.21	2.01	-52.1	-67.0	3.8	1.49e+00	0	43	0	0	76	19277
2026-01-25 08:01:38.35	115.07	2.26	-52.1	-67.0	3.8	1.49e+00	0	43	104	0	74	21630
2026-01-25 08:01:42.28	114.93	2.50	-52.1	-67.0	3.8	1.49e+00	0	43	104	0	74	21602
2026-01-25 08:01:46.20	114.79	2.75	-52.0	-66.9	3.8	1.49e+00	0	43	104	0	74	21499
2026-01-25 08:01:50.12	114.65	3.00	-52.0	-66.9	3.8	1.49e+00	0	43	104	0	74	21403
2026-01-25 08:01:54.05	114.50	3.26	-52.0	-66.9	3.8	1.49e+00	0	44	104	0	74	21490
2026-01-25 08:01:57.97	114.35	3.51	-52.0	-66.8	3.8	1.49e+00	0	43	104	0	74	21141
2026-01-25 08:02:01.89	114.20	3.77	-52.0	-66.0	3.8	1.49e+00	0	44	104	0	74	19227
2026-01-25 08:02:05.81	114.04	4.03	-52.0	-65.8	3.8	1.49e+00	0	44	104	0	74	18887
2026-01-25 08:02:09.75	113.88	4.29	-51.3	-58.7	6.9	3.62e-01	0	44	0	3145728	74	8358
2026-01-25 08:02:13.67	113.72	4.56	-49.6	-53.4	12.5	3.28e-04	0	44	0	10485760	71	5376
2026-01-25 08:02:17.59	113.56	4.82	-47.6	-50.0	15.8	0.00e+00	0	44	0	17825792	67	4574
2026-01-25 08:02:21.50	113.39	5.09	-47.7	-50.1	15.8	0.00e+00	0	44	0	25165824	66	4893
2026-01-25 08:02:25.41	113.22	5.36	-47.8	-50.0	16.2	0.00e+00	0	44	0	32505856	67	4584
2026-01-25 08:02:29.33	113.04	5.63	-47.6	-49.9	16.3	0.00e+00	0	44	0	39845888	67	4504
2026-01-25 08:02:33.24	112.87	5.91	-47.4	-49.5	16.7	0.00e+00	0	44	0	47185920	66	4577
2026-01-25 08:02:37.17	112.69	6.19	-47.1	-49.1	17.1	0.00e+00	0	44	0	54525952	66	4385
2026-01-25 08:02:41.09	112.50	6.47	-47.4	-49.5	16.8	0.00e+00	0	44	0	61865984	66	4568
2026-01-25 08:02:45.00	112.31	6.75	-46.9	-48.8	17.4	0.00e+00	0	44	0	69206016	65	4492
2026-01-25 08:02:48.90	112.12	7.04	-46.8	-48.6	17.7	0.00e+00	0	44	0	76546048	65	4381
2026-01-25 08:02:52.82	111.92	7.33	-46.8	-48.6	17.7	0.00e+00	0	44	0	83886080	65	4382
2026-01-25 08:02:56.75	111.72	7.63	-47.0	-48.9	17.5	0.00e+00	0	44	0	91226112	65	4524
2026-01-25 08:03:00.67	111.51	7.92	-46.7	-48.5	17.9	0.00e+00	0	44	0	98566144	65	4332
2026-01-25 08:03:04.60	111.30	8.22	-46.6	-48.3	18.1	0.00e+00	0	44	0	105906176	65	4212
2026-01-25 08:03:08.51	111.09	8.52	-46.7	-48.5	17.9	0.00e+00	0	44	0	113246208	65	4334
2026-01-25 08:03:12.42	110.87	8.83	-46.8	-48.6	17.9	0.00e+00	0	44	0	120586240	65	4344
2026-01-25 08:03:16.33	110.64	9.14	-46.8	-48.6	17.9	0.00e+00	0	44	0	127926272	65	4367
2026-01-25 08:03:20.25	110.41	9.45	-47.1	-49.0	17.6	0.00e+00	0	44	0	135266304	65	4546
2026-01-25 08:03:24.15	110.18	9.76	-46.6	-48.4	18.1	0.00e+00	0	44	0	142606336	65	4254
2026-01-25 08:03:28.06	109.94	10.08	-46.1	-47.7	18.7	0.00e+00	0	44	0	149946368	64	4180
2026-01-25 08:03:31.98	109.69	10.41	-45.9	-47.4	19.1	0.00e+00	0	44	0	157286400	63	4281
2026-01-25 08:03:35.90	109.44	10.73	-46.3	-47.9	18.7	0.00e+00	0	44	0	164626432	63	4527
2026-01-25 08:03:39.81	109.18	11.06	-46.1	-47.6	19.0	0.00e+00	0	44	0	171966464	63	4381
2026-01-25 08:03:43.73	108.92	11.40	-46.2	-47.7	18.9	0.00e+00	0	44	0	179306496	63	4438
2026-01-25 08:03:47.63	108.65	11.74	-46.5	-48.2	18.5	0.00e+00	0	45	0	186646528	63	4685
2026-01-25 08:03:51.54	108.37	12.08	-46.1	-47.7	19.0	0.00e+00	0	44	0	193986560	63	4393
2026-01-25 08:03:55.45	108.09	12.42	-46.0	-47.5	19.1	0.00e+00	0	44	0	201326592	63	4323
2026-01-25 08:03:59.37	107.80	12.78	-45.8	-47.3	19.4	0.00e+00	0	44	0	208666624	63	4194
2026-01-25 08:04:03.28	107.50	13.13	-45.7	-47.2	19.5	0.00e+00	0	44	0	216006656	63	4162
2026-01-25 08:04:07.20	107.19	13.49	-45.7	-47.2	19.5	0.00e+00	0	44	0	223346688	63	4148
2026-01-25 08:04:11.12	106.88	13.85	-46.1	-47.6	19.1	0.00e+00	0	44	0	230686720	63	4361
2026-01-25 08:04:15.04	106.55	14.22	-46.2	-47.8	18.9	0.00e+00	0	44	0	238026752	63	4462
2026-01-25 08:04:18.96	106.22	14.60	-45.8	-47.3	19.2	0.00e+00	0	44	0	245366784	63	4239
2026-01-25 08:04:22.88	105.88	14.98	-45.9	-47.6	19.0	0.00e+00	0	44	0	252706816	63	4347
2026-01-25 08:04:26.79	105.54	15.36	-45.7	-47.3	19.3	0.00e+00	0	44	0	260046848	62	4449
2026-01-25 08:04:30.71	105.18	15.75	-45.6	-47.1	19.5	0.00e+00	0	44	0	267386880	62	4365
2026-01-25 08:04:34.62	104.81	16.14	-45.7	-47.2	19.4	0.00e+00	0	44	0	274726912	62	4439
2026-01-25 08:04:38.53	104.43	16.54	-45.6	-47.1	19.5	0.00e+00	0	44	0	282066944	62	4351
2026-01-25 08:04:42.44	104.05	16.94	-45.5	-46.9	19.7	0.00e+00	0	44	0	289406976	62	4289
2026-01-25 08:04:46.36	103.65	17.35	-45.8	-47.4	19.2	0.00e+00	0	44	0	296747008	62	4530
2026-01-25 08:04:50.27	103.24	17.76	-45.7	-47.2	19.5	0.00e+00	0	44	0	304087040	62	4405
2026-01-25 08:04:54.18	102.81	18.18	-45.9	-47.4	19.3	0.00e+00	0	44	0	311427072	62	4500
2026-01-25 08:04:58.08	102.38	18.61	-45.9	-47.5	19.2	0.00e+00	0	44	0	318767104	62	4564
2026-01-25 08:05:01.98	101.94	19.04	-45.6	-47.0	19.6	0.00e+00	0	44	0	326107136	62	4333
2026-01-25 08:05:05.90	101.48	19.47	-45.4	-46.8	19.8	0.00e+00	0	44	0	333447168	62	4242
2026-01-25 08:05:09.82	101.00	19.91	-45.5	-46.9	19.8	0.00e+00	0	44	0	340787200	62	4260
2026-01-25 08:05:13.73	100.51	20.36	-45.6	-47.1	19.7	0.00e+00	0	44	0	348127232	62	4342
2026-01-25 08:05:17.65	100.01	20.82	-46.3	-48.0	18.8	0.00e+00	0	44	0	355467264	63	4549
2026-01-25 08:05:21.57	99.49	21.28	-46.2	-47.8	19.0	0.00e+00	0	44	0	362807296	63	4465
2026-01-25 08:05:25.50	98.95	21.74	-46.4	-48.1	18.7	0.00e+00	0	44	0	370147328	63	4611
2026-01-25 08:05:29.43	98.40	22.22	-45.7	-47.2	19.5	0.00e+00	0	44	0	377487360	62	4437
2026-01-25 08:05:33.35	97.83	22.69	-46.3	-48.1	18.7	0.00e+00	0	44	0	384827392	63	4635
2026-01-25 08:05:37.28	97.24	23.18	-46.3	-48.0	18.7	0.00e+00	0	44	0	392167424	63	4598
2026-01-25 08:05:41.20	96.64	23.67	-45.8	-47.4	19.4	0.00e+00	0	44	0	399507456	63	4243
2026-01-25 08:05:45.11	96.01	24.16	-46.1	-47.7	19.2	0.00e+00	0	44	0	406847488	63	4396
2026-01-25 08:05:49.04	95.36	24.66	-45.7	-47.2	19.6	0.00e+00	0	44	0	414187520	63	4152
2026-01-25 08:05:52.95	94.70	25.17	-46.3	-47.9	19.0	0.00e+00	0	44	0	421527552	63	4508
2026-01-25 08:05:56.88	94.00	25.68	-45.6	-47.1	19.6	0.00e+00	0	44	0	428867584	63	4111
2026-01-25 08:06:00.80	93.29	26.20	-45.4	-46.8	20.0	0.00e+00	0	44	0	436207616	61	4479
2026-01-25 08:06:04.73	92.55	26.72	-46.3	-48.0	18.8	0.00e+00	0	45	0	443547648	63	4581
2026-01-25 08:06:08.66	91.79	27.25	-46.5	-48.3	18.5	0.00e+00	0	44	0	450887680	64	4450
2026-01-25 08:06:12.60	91.00	27.78	-46.9	-48.8	18.1	0.00e+00	0	44	0	458227712	64	4725
2026-01-25 08:06:16.53	90.18	28.31	-47.5	-49.6	17.2	0.00e+00	0	44	0	465567744	65	4904
2026-01-25 08:06:20.45	89.33	28.85	-48.1	-50.5	16.4	0.00e+00	0	44	0	472907776	66	5158
2026-01-25 08:06:24.38	88.46	29.39	-48.2	-50.7	16.2	0.00e+00	0	45	0	480247808	67	4980
2026-01-25 08:06:28.32	87.55	29.94	-48.3	-50.9	16.1	0.00e+00	0	44	0	487587840	67	5046
2026-01-25 08:06:32.25	86.61	30.49	-48.0	-50.4	16.6	0.00e+00	0	45	0	495976448	67	4769
2026-01-25 08:06:36.18	85.64	31.04	-47.0	-48.8	18.1	0.00e+00	0	45	0	503316480	65	4480
2026-01-25 08:06:40.11	84.64	31.58	-47.0	-48.9	18.1	0.00e+00	0	44	0	509607936	65	4494
2026-01-25 08:06:44.03	83.61	32.13	-47.5	-49.5	17.5	0.00e+00	0	44	0	517996544	65	4856
2026-01-25 08:06:47.96	82.53	32.68	-47.0	-48.8	18.1	0.00e+00	0	44	0	525336576	65	4491
2026-01-25 08:06:51.89	81.42	33.22	-47.0	-48.9	18.1	0.00e+00	0	44	0	532676608	65	4496
2026-01-25 08:06:55.82	80.27	33.77	-46.9	-48.7	18.2	0.00e+00	0	44	0	540016640	65	4411
2026-01-25 08:06:59.74	79.09	34.30	-46.7	-48.5	18.5	0.00e+00	0	45	0	547356672	64	4568
2026-01-25 08:07:03.67	77.86	34.84	-46.9	-48.7	18.1	0.00e+00	0	44	0	554696704	64	4688
2026-01-25 08:07:07.59	76.59	35.36	-47.4	-49.5	17.4	0.00e+00	0	44	0	562036736	65	4826
2026-01-25 08:07:11.51	75.29	35.88	-48.4	-51.1	15.7	0.00e+00	0	45	0	569376768	67	5173
2026-01-25 08:07:15.44	73.93	36.39	-48.3	-50.9	16.1	0.00e+00	0	44	0	576716800	67	5049
2026-01-25 08:07:19.37	72.54	36.89	-47.2	-49.2	17.7	0.00e+00	0	44	0	584056832	66	4421
2026-01-25 08:07:23.29	71.11	37.37	-47.8	-50.0	16.9	0.00e+00	0	44	0	591396864	66	4864
2026-01-25 08:07:27.21	69.63	37.84	-46.1	-47.8	19.0	0.00e+00	0	45	0	598736896	64	4207
2026-01-25 08:07:31.13	68.11	38.29	-46.9	-48.8	18.1	0.00e+00	0	45	0	606076928	64	4710
2026-01-25 08:07:35.06	66.54	38.73	-45.4	-46.9	19.8	0.00e+00	0	45	0	613416960	62	4263
2026-01-25 08:07:38.98	64.94	39.15	-45.7	-47.3	19.5	0.00e+00	0	44	0	620756992	62	4474
2026-01-25 08:07:42.91	63.29	39.54	-45.3	-46.8	19.9	0.00e+00	0	44	0	628097024	61	4480
2026-01-25 08:07:46.83	61.61	39.91	-45.2	-46.7	20.0	0.00e+00	0	44	0	635437056	61	4424
2026-01-25 08:07:50.74	59.89	40.26	-44.1	-45.3	21.6	0.00e+00	0	44	0	642777088	59	4224
2026-01-25 08:07:54.66	58.13	40.58	-44.1	-45.3	21.6	0.00e+00	0	44	0	650117120	59	4207
2026-01-25 08:07:58.59	56.34	40.87	-45.3	-46.8	20.0	0.00e+00	0	45	0	657457152	61	4471
2026-01-25 08:08:02.52	54.51	41.13	-45.5	-47.0	19.9	0.00e+00	0	44	0	664797184	62	4329
2026-01-25 08:08:06.45	52.66	41.36	-45.8	-47.4	19.6	0.00e+00	0	45	0	672137216	62	4523
2026-01-25 08:08:10.38	50.78	41.56	-45.4	-46.9	20.1	0.00e+00	0	44	0	679477248	62	4262
2026-01-25 08:08:14.31	48.88	41.72	-44.9	-46.2	20.6	0.00e+00	0	45	0	686817280	61	4157
2026-01-25 08:08:18.23	46.97	41.84	-45.8	-47.3	19.8	0.00e+00	0	44	0	694157312	62	4464
2026-01-25 08:08:22.16	45.04	41.93	-46.4	-48.1	18.9	0.00e+00	0	44	0	701497344	63	4636
2026-01-25 08:08:26.08	43.11	41.99	-46.9	-48.9	18.1	0.00e+00	0	44	0	708837376	64	4760
2026-01-25 08:08:29.99	41.18	42.00	-46.1	-47.7	19.3	0.00e+00	0	45	0	716177408	63	4419
2026-01-25 08:08:33.91	39.24	41.98	-46.6	-48.4	18.6	0.00e+00	0	44	0	723517440	63	4794
2026-01-25 08:08:37.83	37.31	41.92	-48.2	-50.7	16.3	0.00e+00	0	44	0	730857472	67	4982
2026-01-25 08:08:41.74	35.39	41.83	-48.3	-50.7	16.3	0.00e+00	0	45	0	738197504	67	4983
2026-01-25 08:08:45.66	33.48	41.70	-48.3	-50.8	16.3	0.00e+00	0	45	0	745537536	68	4729
2026-01-25 08:08:49.57	31.60	41.54	-48.9	-51.8	15.2	0.00e+00	0	45	0	752877568	69	5022
2026-01-25 08:08:53.50	29.72	41.34	-48.4	-51.1	15.7	0.00e+00	0	45	0	760217600	68	4920
2026-01-25 08:08:57.41	27.88	41.11	-48.5	-51.4	15.6	0.00e+00	0	44	0	767557632	68	5074
2026-01-25 08:09:01.34	26.06	40.84	-46.9	-48.8	18.1	0.00e+00	0	44	0	774897664	65	4465
2026-01-25 08:09:05.26	24.28	40.55	-45.3	-46.7	20.2	0.00e+00	0	44	0	782237696	62	4166
2026-01-25 08:09:09.20	22.52	40.23	-45.3	-46.7	20.2	0.00e+00	0	45	0	789577728	61	4432
2026-01-25 08:09:13.12	20.80	39.88	-44.2	-45.4	21.3	0.00e+00	0	45	0	796917760	60	4022
2026-01-25 08:09:17.03	19.13	39.50	-44.4	-45.6	21.4	0.00e+00	0	45	0	804257792	59	4378
2026-01-25 08:09:20.96	17.49	39.11	-43.0	-44.0	22.8	0.00e+00	0	44	0	811597824	58	3844
2026-01-25 08:09:24.88	15.89	38.69	-44.6	-45.9	20.9	0.00e+00	0	45	0	818937856	60	4267
2026-01-25 08:09:28.79	14.34	38.25	-44.1	-45.4	21.4	0.00e+00	0	45	0	826277888	60	4020
2026-01-25 08:09:32.71	12.83	37.80	-44.9	-46.2	20.7	0.00e+00	0	44	0	833617920	60	4439
2026-01-25 08:09:36.64	11.36	37.33	-43.7	-44.7	22.2	0.00e+00	0	45	0	840957952	58	4182
2026-01-25 08:09:40.56	9.93	36.84	-44.9	-46.3	20.8	0.00e+00	0	44	0	848297984	60	4450
2026-01-25 08:09:44.47	8.55	36.35	-44.8	-46.1	20.8	0.00e+00	0	45	0	855638016	61	4112
2026-01-25 08:09:48.39	7.21	35.84	-45.6	-47.0	20.1	0.00e+00	0	45	0	862978048	62	4323
2026-01-25 08:09:52.31	5.91	35.32	-46.5	-48.1	19.0	0.00e+00	0	45	0	870318080	64	4368
2026-01-25 08:09:56.24	4.64	34.80	-47.4	-49.3	17.9	0.00e+00	0	45	0	877658112	65	4722
2026-01-25 08:10:00.16	3.43	34.27	-45.8	-47.2	19.9	0.00e+00	0	45	0	884998144	63	4178
2026-01-25 08:10:04.09	2.24	33.73	-45.3	-46.6	20.4	0.00e+00	0	45	0	892338176	61	4360
2026-01-25 08:10:08.01	1.11	33.19	-46.5	-48.1	18.9	0.00e+00	0	45	0	899678208	64	4371
2026-01-25 08:10:11.93	0.00	32.65	-47.2	-49.1	18.0	0.00e+00	0	45	0	907018240	65	4627
2026-01-25 08:10:15.85	358.94	32.10	-49.9	-53.4	13.9	0.00e+00	0	45	0	914358272	70	5703
2026-01-25 08:10:19.77	357.91	31.56	-46.6	-48.2	18.8	0.00e+00	0	45	0	921698304	65	4186
2026-01-25 08:10:23.69	356.91	31.01	-47.6	-49.7	17.3	0.00e+00	0	45	0	929038336	66	4669
2026-01-25 08:10:27.61	355.95	30.47	-46.7	-48.4	18.6	0.00e+00	0	45	0	936378368	65	4282
2026-01-25 08:10:31.53	355.02	29.92	-47.4	-49.3	17.8	0.00e+00	0	45	0	943718400	65	4745
2026-01-25 08:10:35.43	354.13	29.38	-47.5	-49.5	17.6	0.00e+00	0	45	0	951058432	66	4551
2026-01-25 08:10:39.35	353.26	28.84	-46.1	-47.7	19.2	0.00e+00	0	45	0	958398464	64	4178
2026-01-25 08:10:43.27	352.42	28.31	-45.7	-47.2	19.8	0.00e+00	0	45	0	965738496	63	4151
2026-01-25 08:10:47.20	351.61	27.78	-45.8	-47.2	19.8	0.00e+00	0	45	0	973078528	62	4414
2026-01-25 08:10:51.10	350.83	27.25	-46.3	-48.0	18.9	0.00e+00	0	45	0	980418560	64	4301
2026-01-25 08:10:55.02	350.07	26.73	-46.6	-48.3	18.6	0.00e+00	0	45	0	987758592	64	4458
2026-01-25 08:10:58.94	349.34	26.21	-46.0	-47.5	19.4	0.00e+00	0	45	0	995098624	63	4328
2026-01-25 08:11:02.86	348.63	25.69	-45.2	-46.5	20.3	0.00e+00	0	45	0	1002438656	62	4088
2026-01-25 08:11:06.78	347.94	25.18	-44.9	-46.2	20.6	0.00e+00	0	45	0	1009778688	61	4160
2026-01-25 08:11:10.70	347.27	24.68	-45.9	-47.3	19.6	0.00e+00	0	45	0	1017118720	62	4483
2026-01-25 08:11:14.61	346.63	24.18	-45.0	-46.3	20.5	0.00e+00	0	45	0	1024458752	61	4223
2026-01-25 08:11:18.52	346.01	23.69	-45.0	-46.3	20.5	0.00e+00	0	45	0	1031798784	60	4479
2026-01-25 08:11:22.44	345.41	23.20	-46.9	-48.7	18.2	0.00e+00	0	45	0	1039138816	64	4689
2026-01-25 08:11:26.36	344.82	22.72	-46.8	-48.5	18.4	0.00e+00	0	45	0	1046478848	64	4575
2026-01-25 08:11:30.27	344.26	22.25	-47.1	-48.9	18.0	0.00e+00	0	45	0	1053818880	64	4795
2026-01-25 08:11:34.18	343.71	21.78	-46.7	-48.4	18.4	0.00e+00	0	45	0	1061158912	64	4538
2026-01-25 08:11:38.10	343.18	21.31	-46.1	-47.7	19.2	0.00e+00	0	45	0	1068498944	63	4395
2026-01-25 08:11:42.01	342.66	20.86	-45.5	-46.9	19.9	0.00e+00	0	45	0	1075838976	62	4255
2026-01-25 08:11:45.93	342.16	20.40	-45.4	-46.8	20.0	0.00e+00	0	45	0	1083179008	62	4206
2026-01-25 08:11:49.84	341.67	19.96	-46.1	-47.7	19.2	0.00e+00	0	45	0	1090519040	63	4406
2026-01-25 08:11:53.74	341.20	19.52	-46.3	-48.0	18.7	0.00e+00	0	45	0	1097859072	64	4308
2026-01-25 08:11:57.64	340.75	19.08	-46.1	-47.6	19.1	0.00e+00	0	45	0	1105199104	64	4124
2026-01-25 08:12:01.56	340.30	18.65	-46.4	-48.0	18.8	0.00e+00	0	45	0	1112539136	63	4564
2026-01-25 08:12:05.47	339.87	18.23	-46.7	-48.5	18.2	0.00e+00	0	45	0	1119879168	64	4580
2026-01-25 08:12:09.38	339.45	17.81	-47.0	-48.9	17.9	0.00e+00	0	45	0	1127219200	64	4770
2026-01-25 08:12:13.29	339.05	17.40	-46.9	-48.7	18.0	0.00e+00	0	45	0	1134559232	65	4438
2026-01-25 08:12:17.20	338.65	16.99	-46.2	-47.8	18.9	0.00e+00	0	45	0	1141899264	64	4210
2026-01-25 08:12:21.10	338.26	16.59	-45.6	-47.1	19.6	0.00e+00	0	45	0	1149239296	63	4105
2026-01-25 08:12:25.01	337.89	16.20	-45.4	-46.9	19.8	0.00e+00	0	45	0	1156579328	62	4250
2026-01-25 08:12:28.92	337.52	15.81	-45.9	-47.5	19.2	0.00e+00	0	45	0	1163919360	62	4560
2026-01-25 08:12:32.82	337.17	15.42	-46.2	-47.9	18.8	0.00e+00	0	45	0	1171259392	63	4506
2026-01-25 08:12:36.74	336.82	15.04	-46.0	-47.5	19.2	0.00e+00	0	45	0	1178599424	63	4330
2026-01-25 08:12:40.65	336.49	14.66	-46.3	-48.0	18.8	0.00e+00	0	45	0	1185939456	63	4553
2026-01-25 08:12:44.56	336.16	14.29	-46.9	-48.8	17.8	0.00e+00	0	45	0	1193279488	64	4728
2026-01-25 08:12:48.46	335.84	13.92	-47.6	-49.8	16.9	0.00e+00	0	45	0	1200619520	66	4708
2026-01-25 08:12:52.38	335.53	13.56	-47.7	-49.9	16.7	0.00e+00	0	45	0	1207959552	66	4770
2026-01-25 08:12:56.29	335.22	13.20	-47.3	-49.3	17.3	3.80e-06	0	45	0	1215299584	66	4469
2026-01-25 08:13:00.21	334.93	12.85	-46.9	-48.8	17.8	0.00e+00	0	45	0	1222639616	65	4461
2026-01-25 08:13:04.12	334.64	12.50	-46.6	-48.4	18.1	0.00e+00	0	45	0	1229979648	65	4257
2026-01-25 08:13:08.04	334.36	12.15	-46.6	-48.4	18.1	0.00e+00	0	45	0	1237319680	65	4274
2026-01-25 08:13:11.96	334.08	11.81	-46.9	-48.7	17.8	0.00e+00	0	45	0	1244659712	65	4439
2026-01-25 08:13:15.88	333.81	11.47	-46.9	-48.8	17.7	0.00e+00	0	45	0	1251999744	65	4448
2026-01-25 08:13:19.80	333.55	11.14	-47.1	-49.0	17.5	0.00e+00	0	44	0	1259339776	65	4581
2026-01-25 08:13:23.72	333.29	10.81	-47.2	-49.3	17.2	0.00e+00	0	45	0	1266679808	65	4712
2026-01-25 08:13:27.62	333.04	10.48	-47.0	-49.0	17.3	0.00e+00	0	45	0	1274019840	65	4559
2026-01-25 08:13:31.53	332.80	10.16	-47.2	-49.3	17.1	0.00e+00	0	45	0	1281359872	65	4724
2026-01-25 08:13:35.43	332.56	9.84	-47.2	-49.2	17.1	0.00e+00	0	45	0	1288699904	65	4682
2026-01-25 08:13:39.34	332.33	9.53	-47.1	-49.1	17.3	0.00e+00	0	45	0	1296039936	65	4601
2026-01-25 08:13:43.25	332.10	9.22	-47.1	-49.1	17.3	0.00e+00	0	45	0	1303379968	65	4605
2026-01-25 08:13:47.16	331.88	8.91	-47.3	-49.4	16.9	0.00e+00	0	45	0	1310720000	65	4776
2026-01-25 08:13:51.07	331.66	8.60	-47.4	-49.6	16.7	0.00e+00	0	45	0	1318060032	65	4878
2026-01-25 08:13:54.97	331.45	8.30	-47.4	-49.6	16.7	0.00e+00	0	45	0	1325400064	65	4876
2026-01-25 08:13:58.88	331.24	8.01	-47.5	-49.7	16.5	0.00e+00	0	45	0	1332740096	65	4956
2026-01-25 08:14:02.79	331.04	7.71	-47.4	-49.6	16.7	0.00e+00	0	45	0	1340080128	65	4881
2026-01-25 08:14:06.71	330.84	7.42	-47.4	-49.6	16.6	0.00e+00	0	44	0	1347420160	65	4876
2026-01-25 08:14:10.63	330.64	7.13	-47.4	-49.6	16.5	0.00e+00	0	45	0	1354760192	65	4924
2026-01-25 08:14:14.54	330.45	6.84	-47.5	-49.7	16.4	0.00e+00	0	45	0	1362100224	65	4967
2026-01-25 08:14:18.44	330.27	6.56	-47.6	-49.9	16.3	0.00e+00	0	45	0	1369440256	66	4783
2026-01-25 08:14:22.35	330.08	6.28	-47.8	-50.2	15.9	0.00e+00	0	45	0	1376780288	66	4975
2026-01-25 08:14:26.25	329.91	6.00	-48.1	-50.6	15.5	0.00e+00	0	45	0	1384120320	67	4916
2026-01-25 08:14:30.17	329.73	5.73	-48.1	-50.7	15.3	0.00e+00	0	45	0	1391460352	67	4950
2026-01-25 08:14:34.08	329.56	5.45	-48.4	-51.2	14.8	7.00e-07	0	45	0	1398800384	67	5232
2026-01-25 08:14:37.99	329.39	5.18	-48.3	-51.1	14.8	7.00e-07	0	45	0	1406140416	67	5217
2026-01-25 08:14:41.89	329.22	4.92	-52.7	-67.7	3.8	1.49e+00	0	45	104	1411383296	75	22070
2026-01-25 08:14:45.80	329.06	4.65	-53.4	-68.4	3.8	1.49e+00	0	45	104	1411383296	77	21415
2026-01-25 08:14:49.71	328.90	4.39	-53.9	-68.9	3.8	1.49e+00	0	45	104	1411383296	78	21271
2026-01-25 08:14:53.62	328.75	4.13	-54.1	-69.1	3.8	1.49e+00	0	45	104	1411383296	78	21866
2026-01-25 08:14:57.53	328.60	3.87	-54.2	-69.2	3.8	1.49e+00	0	45	104	1411383296	79	20835
2026-01-25 08:15:01.44	328.45	3.61	-54.2	-69.2	3.8	1.49e+00	0	45	104	1411383296	79	20930
2026-01-25 08:15:05.35	328.30	3.36	-54.1	-69.1	3.8	1.49e+00	0	45	104	1411383296	79	20685
2026-01-25 08:15:09.26	328.15	3.11	-54.1	-69.1	3.8	1.49e+00	0	45	104	1411383296	79	20549
2026-01-25 08:15:13.17	328.01	2.86	-54.0	-69.0	3.8	1.49e+00	0	45	104	1411383296	79	20464
2026-01-25 08:15:17.06	327.88	2.61	-54.0	-69.0	3.8	1.49e+00	0	45	104	1411383296	79	20487
2026-01-25 08:15:20.96	327.74	2.37	-54.0	-69.0	3.8	1.49e+00	0	45	104	1411383296	79	20437
2026-01-25 08:15:24.86	327.61	2.12	-54.0	-69.0	3.8	1.49e+00	0	45	104	1411383296	79	20361

#Closed at: 2026-01-25 08:15:27
#Recorded file [1411 MB]: D:/lorett/data/31041_260125_110134.dat