passes_logs/2026/01/25/R3.2S_Murmansk/R3.2S_Murmansk__20260125_234534_NOAA_20_JPSS-1_rec.log

#Pass ID: 20260125_234534_NOAA 20 (JPSS-1)
#Satellite: NOAA 20 (JPSS-1)
#Configuration: NOAA 20
#almurnet v.1.7.20251203
#Start time: 2026-01-25 23:45:35

#Version: 2.2.20231116
#Station: R3.2S_Murmansk
#Location: 33.079688 lon 68.888172 lat
#TLE: 1 43013U 17073A   26025.47986292  .00000161  00000+0  97249-4 0  9993
#TLE: 2 43013  98.7646 326.3091 0001052  24.2709 335.8516 14.19540188424225

#Time	Az	El	Level	Level2	SNR	BER	BlckErr	Temp	State	Recorded	gain1	gain2
2026-01-25 23:45:35.21	21.54	2.06	-53.8	-68.8	3.8	1.49e+00	0	41	0	0	78	21160
2026-01-25 23:45:39.23	21.66	2.31	-54.0	-69.0	3.8	1.49e+00	0	41	104	0	78	21516
2026-01-25 23:45:43.26	21.78	2.57	-54.0	-69.0	3.8	1.49e+00	0	42	104	0	78	21697
2026-01-25 23:45:47.30	21.91	2.82	-53.9	-68.9	3.8	1.49e+00	0	42	104	0	78	21448
2026-01-25 23:45:51.33	22.03	3.08	-53.9	-68.8	3.8	1.49e+00	0	42	104	0	78	21201
2026-01-25 23:45:55.37	22.16	3.34	-53.6	-68.5	3.8	1.49e+00	0	42	104	0	78	20506
2026-01-25 23:45:59.40	22.29	3.61	-52.9	-67.9	3.8	1.49e+00	0	42	104	0	77	20146
2026-01-25 23:46:03.42	22.42	3.87	-51.2	-58.4	7.3	1.58e-01	0	42	0	2097152	74	8071
2026-01-25 23:46:07.46	22.55	4.14	-49.1	-52.4	13.5	2.13e-05	0	42	0	9437184	70	5077
2026-01-25 23:46:11.49	22.69	4.42	-47.6	-49.9	16.0	0.00e+00	0	42	0	16777216	67	4520
2026-01-25 23:46:15.52	22.82	4.69	-47.9	-50.5	15.5	0.00e+00	0	42	0	25165824	66	5112
2026-01-25 23:46:19.55	22.96	4.97	-49.9	-54.1	11.9	2.04e-04	0	42	0	32505856	70	6192
2026-01-25 23:46:23.58	23.11	5.25	-50.8	-56.8	9.8	2.20e-06	0	43	0	39845888	72	7470
2026-01-25 23:46:27.61	23.25	5.53	-47.5	-49.8	16.4	0.00e+00	0	42	0	44040192	66	4720
2026-01-25 23:46:31.64	23.40	5.82	-47.2	-49.3	16.9	0.00e+00	0	43	0	52428800	66	4472
2026-01-25 23:46:35.67	23.55	6.10	-47.4	-49.6	16.6	0.00e+00	0	43	0	59768832	66	4607
2026-01-25 23:46:39.69	23.70	6.40	-47.0	-49.1	17.2	0.00e+00	0	43	0	67108864	65	4601
2026-01-25 23:46:43.71	23.85	6.69	-46.8	-48.8	17.5	0.00e+00	0	43	0	74448896	65	4445
2026-01-25 23:46:47.74	24.01	6.99	-46.8	-48.7	17.6	0.00e+00	0	43	0	81788928	65	4415
2026-01-25 23:46:51.76	24.17	7.29	-46.8	-48.7	17.6	0.00e+00	0	43	0	89128960	65	4408
2026-01-25 23:46:55.79	24.33	7.59	-46.7	-48.5	17.9	0.00e+00	0	43	0	97517568	65	4306
2026-01-25 23:46:59.81	24.50	7.90	-46.8	-48.7	17.7	0.00e+00	0	43	0	104857600	65	4415
2026-01-25 23:47:03.84	24.67	8.21	-46.5	-48.3	18.1	0.00e+00	0	43	0	112197632	65	4211
2026-01-25 23:47:07.86	24.84	8.53	-46.6	-48.4	18.0	0.00e+00	0	43	0	119537664	64	4509
2026-01-25 23:47:11.89	25.02	8.85	-46.2	-47.9	18.5	0.00e+00	0	43	0	126877696	64	4254
2026-01-25 23:47:15.92	25.20	9.17	-46.4	-48.1	18.4	0.00e+00	0	43	0	135266304	64	4351
2026-01-25 23:47:19.95	25.38	9.50	-46.2	-47.8	18.7	0.00e+00	0	43	0	142606336	64	4231
2026-01-25 23:47:23.96	25.56	9.83	-46.1	-47.7	18.9	0.00e+00	0	43	0	149946368	64	4158
2026-01-25 23:47:27.98	25.76	10.17	-46.1	-47.7	18.8	0.00e+00	0	43	0	157286400	64	4192
2026-01-25 23:47:32.01	25.95	10.51	-46.0	-47.6	19.1	0.00e+00	0	43	0	165675008	63	4349
2026-01-25 23:47:36.04	26.15	10.85	-46.1	-47.6	19.0	0.00e+00	0	43	0	173015040	63	4385
2026-01-25 23:47:40.06	26.35	11.20	-45.9	-47.5	19.2	0.00e+00	0	43	0	180355072	63	4299
2026-01-25 23:47:44.08	26.56	11.55	-46.1	-47.7	19.0	0.00e+00	0	43	0	187695104	63	4410
2026-01-25 23:47:48.10	26.77	11.91	-45.8	-47.3	19.4	0.00e+00	0	43	0	195035136	63	4227
2026-01-25 23:47:52.13	26.99	12.28	-45.6	-47.0	19.7	0.00e+00	0	43	0	203423744	63	4098
2026-01-25 23:47:56.15	27.21	12.64	-45.3	-46.7	20.0	0.00e+00	0	43	0	210763776	62	4151
2026-01-25 23:48:00.18	27.44	13.02	-45.5	-46.9	19.9	0.00e+00	0	43	0	218103808	62	4270
2026-01-25 23:48:04.20	27.67	13.40	-45.3	-46.6	20.2	0.00e+00	0	43	0	225443840	62	4130
2026-01-25 23:48:08.23	27.91	13.78	-45.3	-46.7	20.2	0.00e+00	0	43	0	232783872	62	4149
2026-01-25 23:48:12.26	28.15	14.18	-45.0	-46.3	20.5	0.00e+00	0	43	0	240123904	62	3965
2026-01-25 23:48:16.28	28.40	14.57	-44.9	-46.2	20.6	0.00e+00	0	43	0	248512512	61	4174
2026-01-25 23:48:20.30	28.66	14.98	-45.0	-46.3	20.6	0.00e+00	0	43	0	255852544	61	4200
2026-01-25 23:48:24.33	28.92	15.39	-44.7	-46.0	20.9	0.00e+00	0	43	0	263192576	61	4064
2026-01-25 23:48:28.36	29.19	15.80	-44.7	-46.0	20.8	0.00e+00	0	43	0	270532608	61	4058
2026-01-25 23:48:32.38	29.47	16.23	-44.5	-45.7	21.1	0.00e+00	0	43	0	277872640	61	3951
2026-01-25 23:48:36.41	29.75	16.66	-44.6	-45.8	21.1	0.00e+00	0	43	0	286261248	61	3968
2026-01-25 23:48:40.44	30.05	17.09	-44.2	-45.4	21.5	0.00e+00	0	43	0	293601280	60	4020
2026-01-25 23:48:44.46	30.35	17.54	-44.3	-45.4	21.4	0.00e+00	0	43	0	300941312	60	4036
2026-01-25 23:48:48.49	30.66	17.99	-44.1	-45.3	21.6	0.00e+00	0	43	0	308281344	60	3969
2026-01-25 23:48:52.52	30.97	18.45	-44.4	-45.6	21.6	0.00e+00	0	43	0	316669952	59	4364
2026-01-25 23:48:56.55	31.30	18.92	-44.5	-45.6	21.6	0.00e+00	0	43	0	324009984	59	4384
2026-01-25 23:49:00.58	31.64	19.39	-44.5	-45.7	21.6	0.00e+00	0	43	0	331350016	59	4400
2026-01-25 23:49:04.60	31.98	19.88	-44.2	-45.3	21.6	0.00e+00	0	43	0	338690048	60	3993
2026-01-25 23:49:08.63	32.34	20.37	-44.2	-45.4	21.6	0.00e+00	0	43	0	346030080	60	4012
2026-01-25 23:49:12.66	32.71	20.87	-44.4	-45.5	21.4	0.00e+00	0	43	0	353370112	60	4081
2026-01-25 23:49:16.68	33.09	21.38	-44.3	-45.4	21.5	0.00e+00	0	43	0	361758720	60	4051
2026-01-25 23:49:20.71	33.48	21.90	-44.2	-45.3	22.0	0.00e+00	0	43	0	369098752	59	4205
2026-01-25 23:49:24.74	33.89	22.43	-44.2	-45.3	22.0	0.00e+00	0	43	0	376438784	59	4195
2026-01-25 23:49:28.77	34.31	22.97	-44.4	-45.5	21.8	0.00e+00	0	43	0	383778816	59	4316
2026-01-25 23:49:32.80	34.74	23.52	-44.3	-45.4	21.9	0.00e+00	0	43	0	391118848	59	4279
2026-01-25 23:49:36.83	35.19	24.08	-44.2	-45.3	22.0	0.00e+00	0	43	0	399507456	59	4200
2026-01-25 23:49:40.85	35.65	24.65	-44.6	-45.7	21.6	0.00e+00	0	43	0	406847488	59	4434
2026-01-25 23:49:44.88	36.13	25.23	-44.7	-45.9	21.2	0.00e+00	0	43	0	414187520	60	4274
2026-01-25 23:49:48.91	36.63	25.82	-44.9	-46.1	21.0	0.00e+00	0	43	0	421527552	60	4381
2026-01-25 23:49:52.94	37.15	26.42	-45.1	-46.4	20.8	0.00e+00	0	43	0	429916160	60	4497
2026-01-25 23:49:56.98	37.68	27.04	-45.2	-46.5	20.6	0.00e+00	0	43	0	437256192	61	4312
2026-01-25 23:50:01.01	38.24	27.66	-45.3	-46.6	20.5	0.00e+00	0	43	0	444596224	61	4368
2026-01-25 23:50:05.04	38.82	28.30	-45.4	-46.7	20.5	0.00e+00	0	43	0	451936256	61	4429
2026-01-25 23:50:09.07	39.42	28.95	-45.9	-47.2	20.0	0.00e+00	0	43	0	459276288	62	4428
2026-01-25 23:50:13.10	40.05	29.61	-46.6	-48.2	19.0	0.00e+00	0	43	0	466616320	64	4420
2026-01-25 23:50:17.13	40.70	30.28	-46.9	-48.6	18.6	0.00e+00	0	43	0	475004928	64	4626
2026-01-25 23:50:21.15	41.37	30.97	-47.1	-48.8	18.4	0.00e+00	0	43	0	482344960	64	4709
2026-01-25 23:50:25.18	42.08	31.67	-46.9	-48.5	18.7	0.00e+00	0	43	0	489684992	64	4583
2026-01-25 23:50:29.21	42.82	32.38	-47.2	-49.0	18.3	0.00e+00	0	44	0	497025024	65	4549
2026-01-25 23:50:33.24	43.59	33.10	-47.0	-48.6	18.6	0.00e+00	0	43	0	505413632	65	4370
2026-01-25 23:50:37.26	44.39	33.83	-46.2	-47.6	19.6	0.00e+00	0	44	0	512753664	64	4127
2026-01-25 23:50:41.29	45.23	34.57	-46.3	-47.8	19.6	0.00e+00	0	44	0	520093696	63	4466
2026-01-25 23:50:45.32	46.11	35.33	-45.1	-47.1	20.2	0.00e+00	0	44	0	527433728	62	4359
2026-01-25 23:50:49.35	47.03	36.09	-45.5	-46.8	20.5	0.00e+00	0	43	0	534773760	62	4230
2026-01-25 23:50:53.38	47.99	36.87	-45.3	-46.6	20.8	0.00e+00	0	43	0	543162368	62	4106
2026-01-25 23:50:57.40	49.00	37.66	-44.9	-46.1	21.2	0.00e+00	0	43	0	550502400	61	4141
2026-01-25 23:51:01.41	50.05	38.45	-44.7	-45.9	21.5	0.00e+00	0	43	0	557842432	61	4010
2026-01-25 23:51:05.44	51.16	39.25	-44.3	-45.4	22.2	0.00e+00	0	43	0	565182464	59	4256
2026-01-25 23:51:09.46	52.33	40.06	-44.7	-45.9	21.5	0.00e+00	0	43	0	572522496	60	4246
2026-01-25 23:51:13.49	53.55	40.87	-44.4	-45.5	21.8	0.00e+00	0	44	0	579862528	60	4058
2026-01-25 23:51:17.52	54.84	41.69	-44.6	-45.7	21.6	0.00e+00	0	44	0	588251136	60	4174
2026-01-25 23:51:21.55	56.19	42.51	-45.1	-46.3	21.1	0.00e+00	0	44	0	595591168	60	4454
2026-01-25 23:51:25.58	57.62	43.33	-45.4	-46.6	20.8	0.00e+00	0	44	0	602931200	61	4369
2026-01-25 23:51:29.61	59.12	44.14	-45.5	-46.7	20.7	0.00e+00	0	44	0	610271232	62	4189
2026-01-25 23:51:33.64	60.69	44.95	-46.6	-48.1	19.4	0.00e+00	0	43	0	618659840	63	4643
2026-01-25 23:51:37.67	62.35	45.76	-46.9	-48.5	18.9	0.00e+00	0	44	0	625999872	64	4547
2026-01-25 23:51:41.69	64.08	46.55	-47.5	-49.2	18.2	0.00e+00	0	44	0	633339904	65	4698
2026-01-25 23:51:45.73	65.92	47.33	-46.1	-47.5	19.9	0.00e+00	0	43	0	640679936	64	4071
2026-01-25 23:51:49.76	67.84	48.09	-46.7	-48.2	19.2	0.00e+00	0	44	0	648019968	64	4423
2026-01-25 23:51:53.78	69.85	48.82	-45.8	-47.1	20.4	0.00e+00	0	43	0	656408576	63	4138
2026-01-25 23:51:57.80	71.96	49.53	-45.8	-47.1	20.4	0.00e+00	0	43	0	663748608	63	4141
2026-01-25 23:52:01.83	74.16	50.21	-45.5	-46.8	20.7	0.00e+00	0	43	0	671088640	62	4214
2026-01-25 23:52:05.86	76.47	50.85	-44.2	-45.3	22.1	0.00e+00	0	43	0	678428672	60	3960
2026-01-25 23:52:09.89	78.87	51.45	-44.7	-45.9	21.6	0.00e+00	0	43	0	685768704	60	4246
2026-01-25 23:52:13.92	81.37	52.00	-44.4	-45.4	22.0	0.00e+00	0	43	0	694157312	59	4278
2026-01-25 23:52:17.94	83.95	52.50	-44.5	-45.7	21.7	0.00e+00	0	43	0	701497344	60	4148
2026-01-25 23:52:21.97	86.62	52.95	-44.2	-45.3	22.4	0.00e+00	0	43	0	708837376	59	4195
2026-01-25 23:52:26.00	89.37	53.33	-44.8	-45.9	21.5	0.00e+00	0	44	0	716177408	60	4279
2026-01-25 23:52:30.02	92.17	53.65	-44.6	-45.7	21.7	0.00e+00	0	44	0	723517440	60	4185
2026-01-25 23:52:34.05	95.04	53.90	-44.6	-45.7	21.7	0.00e+00	0	44	0	731906048	61	3951
2026-01-25 23:52:38.07	97.95	54.08	-44.1	-45.1	22.6	0.00e+00	0	44	0	739246080	59	4119
2026-01-25 23:52:42.10	100.89	54.19	-45.2	-46.5	21.0	0.00e+00	0	44	0	746586112	61	4297
2026-01-25 23:52:46.13	103.85	54.22	-44.7	-45.8	21.6	0.00e+00	0	44	0	753926144	60	4221
2026-01-25 23:52:50.15	106.80	54.18	-44.4	-45.5	21.9	0.00e+00	0	43	0	761266176	60	4054
2026-01-25 23:52:54.18	109.74	54.06	-44.3	-45.4	22.3	0.00e+00	0	43	0	769654784	59	4254
2026-01-25 23:52:58.22	112.65	53.87	-43.1	-44.1	23.4	0.00e+00	0	43	0	776994816	58	3873
2026-01-25 23:53:02.25	115.51	53.60	-44.5	-45.6	21.8	0.00e+00	0	43	0	784334848	60	4127
2026-01-25 23:53:06.27	118.31	53.27	-44.3	-45.4	21.9	0.00e+00	0	43	0	791674880	60	4042
2026-01-25 23:53:10.30	121.05	52.88	-44.0	-45.1	22.6	0.00e+00	0	43	0	799014912	59	4104
2026-01-25 23:53:14.33	123.71	52.42	-44.5	-45.6	22.0	0.00e+00	0	43	0	807403520	59	4364
2026-01-25 23:53:18.37	126.29	51.91	-44.5	-45.6	22.0	0.00e+00	0	43	0	814743552	59	4387
2026-01-25 23:53:22.39	128.77	51.35	-44.4	-45.4	22.2	0.00e+00	0	43	0	822083584	59	4279
2026-01-25 23:53:26.42	131.16	50.74	-45.1	-46.3	21.1	0.00e+00	0	44	0	829423616	60	4466
2026-01-25 23:53:30.44	133.45	50.09	-47.3	-49.0	18.4	0.00e+00	0	44	0	836763648	66	4319
2026-01-25 23:53:34.46	135.64	49.41	-50.8	-54.5	12.9	1.46e-04	0	43	0	845152256	72	5768
2026-01-25 23:53:38.49	137.73	48.69	-49.7	-52.3	15.1	0.00e+00	0	44	0	852492288	69	5322
2026-01-25 23:53:42.51	139.73	47.95	-47.4	-49.1	18.3	0.00e+00	0	44	0	859832320	66	4347
2026-01-25 23:53:46.53	141.64	47.19	-48.8	-51.0	16.4	0.00e+00	0	43	0	867172352	69	4587
2026-01-25 23:53:50.56	143.45	46.40	-48.0	-49.9	17.6	0.00e+00	0	43	0	874512384	66	4797
2026-01-25 23:53:54.59	145.18	45.61	-45.4	-46.6	20.7	0.00e+00	0	44	0	882900992	62	4126
2026-01-25 23:53:58.62	146.83	44.80	-48.2	-50.2	17.2	0.00e+00	0	43	0	890241024	67	4683
2026-01-25 23:54:02.65	148.39	43.98	-45.5	-46.8	20.6	0.00e+00	0	44	0	897581056	62	4209
2026-01-25 23:54:06.67	149.88	43.17	-48.1	-50.2	17.2	0.00e+00	0	44	0	904921088	67	4652
2026-01-25 23:54:10.71	151.29	42.34	-48.4	-50.5	17.0	0.00e+00	0	43	0	912261120	67	4815
2026-01-25 23:54:14.74	152.64	41.52	-49.6	-52.3	15.1	0.00e+00	0	44	0	920649728	71	4751
2026-01-25 23:54:18.76	153.91	40.70	-49.9	-52.8	14.7	0.00e+00	0	44	0	927989760	70	5285
2026-01-25 23:54:22.79	155.13	39.88	-47.4	-49.0	18.2	0.00e+00	0	43	0	935329792	66	4340
2026-01-25 23:54:26.82	156.29	39.07	-48.1	-50.1	17.3	0.00e+00	0	44	0	942669824	67	4604
2026-01-25 23:54:30.84	157.39	38.27	-48.2	-50.3	17.0	0.00e+00	0	43	0	950009856	67	4718
2026-01-25 23:54:34.86	158.44	37.48	-47.4	-49.1	18.2	0.00e+00	0	44	0	958398464	65	4644
2026-01-25 23:54:38.89	159.44	36.69	-46.6	-48.2	19.1	0.00e+00	0	44	0	965738496	65	4166
2026-01-25 23:54:42.91	160.40	35.91	-45.9	-47.2	20.0	0.00e+00	0	44	0	973078528	62	4431
2026-01-25 23:54:46.94	161.31	35.14	-47.5	-49.3	17.9	0.00e+00	0	44	0	980418560	66	4470
2026-01-25 23:54:50.96	162.18	34.39	-45.6	-46.9	20.4	0.00e+00	0	44	0	987758592	63	4027
2026-01-25 23:54:54.99	163.02	33.64	-47.9	-49.9	17.4	0.00e+00	0	44	0	996147200	66	4773
2026-01-25 23:54:59.01	163.81	32.91	-47.0	-48.7	18.5	0.00e+00	0	44	0	1003487232	66	4175
2026-01-25 23:55:03.04	164.58	32.19	-46.0	-47.4	19.8	0.00e+00	0	44	0	1010827264	63	4268
2026-01-25 23:55:07.06	165.31	31.48	-47.7	-49.6	17.6	0.00e+00	0	44	0	1018167296	66	4625
2026-01-25 23:55:11.08	166.01	30.79	-47.8	-49.7	17.5	0.00e+00	0	44	0	1025507328	66	4695
2026-01-25 23:55:15.10	166.68	30.10	-47.2	-48.9	18.3	0.00e+00	0	44	0	1032847360	66	4271
2026-01-25 23:55:19.13	167.32	29.43	-46.7	-48.3	18.8	0.00e+00	0	44	0	1041235968	65	4206
2026-01-25 23:55:23.15	167.94	28.77	-46.5	-48.1	19.0	0.00e+00	0	44	0	1048576000	64	4345
2026-01-25 23:55:27.17	168.54	28.12	-46.7	-48.3	18.7	0.00e+00	0	44	0	1055916032	64	4492
2026-01-25 23:55:31.21	169.11	27.48	-46.0	-47.4	19.7	0.00e+00	0	43	0	1063256064	63	4254
2026-01-25 23:55:35.24	169.67	26.85	-46.5	-48.0	19.1	0.00e+00	0	44	0	1071644672	63	4578
2026-01-25 23:55:39.26	170.20	26.24	-47.0	-48.8	18.3	0.00e+00	0	43	0	1078984704	65	4475
2026-01-25 23:55:43.29	170.71	25.64	-47.0	-48.7	18.4	0.00e+00	0	44	0	1086324736	65	4413
2026-01-25 23:55:47.31	171.20	25.04	-46.5	-48.1	18.9	0.00e+00	0	44	0	1093664768	64	4347
2026-01-25 23:55:51.34	171.68	24.46	-45.9	-47.3	19.8	0.00e+00	0	44	0	1101004800	63	4198
2026-01-25 23:55:55.37	172.14	23.89	-45.8	-47.2	19.9	0.00e+00	0	44	0	1109393408	63	4180
2026-01-25 23:55:59.39	172.59	23.33	-46.4	-48.0	19.1	0.00e+00	0	44	0	1116733440	63	4583
2026-01-25 23:56:03.41	173.02	22.79	-46.5	-48.1	18.9	0.00e+00	0	44	0	1124073472	63	4636
2026-01-25 23:56:07.43	173.43	22.25	-45.4	-46.7	20.3	0.00e+00	0	44	0	1131413504	62	4167
2026-01-25 23:56:11.46	173.83	21.72	-45.2	-46.5	20.5	0.00e+00	0	44	0	1138753536	62	4055
2026-01-25 23:56:15.49	174.22	21.20	-45.3	-46.6	20.3	0.00e+00	0	43	0	1146093568	62	4131
2026-01-25 23:56:19.52	174.60	20.69	-45.3	-46.6	20.3	0.00e+00	0	44	0	1154482176	62	4119
2026-01-25 23:56:23.54	174.97	20.18	-45.1	-46.3	20.6	0.00e+00	0	44	0	1161822208	62	4001
2026-01-25 23:56:27.57	175.32	19.69	-44.7	-46.0	20.9	0.00e+00	0	43	0	1169162240	61	4062
2026-01-25 23:56:31.59	175.66	19.21	-44.5	-45.7	21.2	0.00e+00	0	43	0	1176502272	60	4161
2026-01-25 23:56:35.62	176.00	18.73	-44.4	-45.5	21.3	0.00e+00	0	43	0	1184890880	60	4098
2026-01-25 23:56:39.65	176.32	18.26	-44.5	-45.6	21.2	0.00e+00	0	43	0	1192230912	60	4144
2026-01-25 23:56:43.69	176.64	17.80	-44.8	-46.0	20.8	0.00e+00	0	44	0	1199570944	60	4326
2026-01-25 23:56:47.71	176.94	17.35	-45.1	-46.4	20.5	0.00e+00	0	43	0	1206910976	60	4501
2026-01-25 23:56:51.74	177.24	16.91	-45.1	-46.4	20.4	0.00e+00	0	44	0	1214251008	60	4514
2026-01-25 23:56:55.76	177.53	16.47	-45.0	-46.3	20.5	0.00e+00	0	43	0	1222639616	60	4456
2026-01-25 23:56:59.78	177.81	16.04	-44.7	-45.9	20.8	0.00e+00	0	43	0	1229979648	60	4282
2026-01-25 23:57:03.80	178.08	15.62	-44.6	-45.8	21.0	0.00e+00	0	44	0	1237319680	60	4219
2026-01-25 23:57:07.83	178.35	15.20	-44.6	-45.9	20.9	0.00e+00	0	44	0	1244659712	60	4246
2026-01-25 23:57:11.86	178.61	14.79	-44.9	-46.2	20.5	0.00e+00	0	44	0	1251999744	60	4404
2026-01-25 23:57:15.89	178.87	14.39	-45.1	-46.4	20.3	0.00e+00	0	43	0	1259339776	60	4536
2026-01-25 23:57:19.91	179.11	13.99	-45.4	-46.8	19.9	0.00e+00	0	44	0	1267728384	61	4459
2026-01-25 23:57:23.94	179.35	13.60	-45.5	-46.9	19.8	0.00e+00	0	43	0	1275068416	61	4504
2026-01-25 23:57:27.96	179.59	13.21	-45.6	-47.0	19.7	0.00e+00	0	44	0	1282408448	61	4596
2026-01-25 23:57:31.99	179.82	12.83	-45.6	-47.0	19.7	0.00e+00	0	44	0	1289748480	61	4581
2026-01-25 23:57:36.02	180.04	12.45	-45.5	-46.9	19.7	0.00e+00	0	44	0	1298137088	61	4537
2026-01-25 23:57:40.04	180.26	12.09	-45.4	-46.8	19.9	0.00e+00	0	44	0	1305477120	61	4458
2026-01-25 23:57:44.07	180.48	11.72	-45.6	-47.1	19.6	0.00e+00	0	44	0	1312817152	61	4609
2026-01-25 23:57:48.10	180.69	11.36	-45.5	-46.9	19.7	0.00e+00	0	43	0	1320157184	61	4507
2026-01-25 23:57:52.13	180.89	11.01	-45.3	-46.7	19.8	0.00e+00	0	44	0	1327497216	61	4437
2026-01-25 23:57:56.15	181.09	10.66	-45.6	-47.1	19.5	0.00e+00	0	44	0	1335885824	61	4603
2026-01-25 23:58:00.18	181.29	10.31	-45.7	-47.1	19.4	0.00e+00	0	43	0	1343225856	61	4638
2026-01-25 23:58:04.21	181.48	9.97	-45.9	-47.5	19.1	0.00e+00	0	44	0	1350565888	62	4569
2026-01-25 23:58:08.24	181.67	9.64	-46.0	-47.5	19.0	0.00e+00	0	44	0	1357905920	62	4585
2026-01-25 23:58:12.25	181.85	9.30	-46.4	-48.1	18.4	0.00e+00	0	44	0	1365245952	63	4628
2026-01-25 23:58:16.29	182.03	8.98	-46.5	-48.2	18.3	0.00e+00	0	44	0	1372585984	63	4662
2026-01-25 23:58:20.31	182.21	8.65	-46.6	-48.3	18.1	0.00e+00	0	44	0	1380974592	63	4750
2026-01-25 23:58:24.33	182.38	8.33	-46.5	-48.2	18.3	0.00e+00	0	44	0	1388314624	63	4665
2026-01-25 23:58:28.37	182.55	8.02	-46.4	-48.2	18.3	0.00e+00	0	44	0	1395654656	63	4652
2026-01-25 23:58:32.40	182.72	7.70	-46.4	-48.1	18.3	0.00e+00	0	43	0	1402994688	63	4618
2026-01-25 23:58:36.43	182.88	7.40	-46.5	-48.2	18.1	0.00e+00	0	44	0	1411383296	63	4696
2026-01-25 23:58:40.46	183.04	7.09	-46.5	-48.3	18.1	0.00e+00	0	44	0	1418723328	63	4732
2026-01-25 23:58:44.49	183.20	6.79	-46.4	-48.1	18.2	0.00e+00	0	44	0	1426063360	63	4638
2026-01-25 23:58:48.52	183.35	6.49	-46.5	-48.2	18.0	0.00e+00	0	44	0	1433403392	63	4699
2026-01-25 23:58:52.55	183.50	6.19	-46.4	-48.2	18.0	0.00e+00	0	44	0	1440743424	63	4689
2026-01-25 23:58:56.58	183.65	5.90	-46.4	-48.2	18.0	0.00e+00	0	44	0	1449132032	63	4659
2026-01-25 23:59:00.61	183.79	5.61	-46.5	-48.4	17.8	0.00e+00	0	44	0	1456472064	63	4770
2026-01-25 23:59:04.63	183.94	5.33	-46.0	-47.7	18.2	0.00e+00	0	44	0	1463812096	64	4192
2026-01-25 23:59:08.65	184.08	5.05	-46.7	-48.7	17.3	0.00e+00	0	44	0	1471152128	64	4681
2026-01-25 23:59:12.68	184.22	4.77	-53.2	-68.2	3.8	1.49e+00	0	44	104	1473249280	76	22037
2026-01-25 23:59:16.70	184.35	4.49	-53.6	-68.6	3.8	1.49e+00	0	44	104	1473249280	77	21880
2026-01-25 23:59:20.73	184.49	4.21	-53.9	-68.9	3.8	1.49e+00	0	44	104	1473249280	78	21449
2026-01-25 23:59:24.76	184.62	3.94	-54.1	-69.1	3.8	1.49e+00	0	44	104	1473249280	78	21802
2026-01-25 23:59:28.79	184.75	3.67	-54.2	-69.2	3.8	1.49e+00	0	44	104	1473249280	78	22055
2026-01-25 23:59:32.81	184.87	3.41	-54.2	-69.2	3.8	1.49e+00	0	44	104	1473249280	78	22029
2026-01-25 23:59:36.85	185.00	3.14	-54.0	-69.0	3.8	1.49e+00	0	44	104	1473249280	78	21605
2026-01-25 23:59:40.88	185.12	2.88	-53.7	-68.7	3.8	1.49e+00	0	44	104	1473249280	78	20893
2026-01-25 23:59:44.91	185.24	2.62	-53.3	-68.2	3.8	1.49e+00	0	44	104	1473249280	78	19777
2026-01-25 23:59:48.94	185.36	2.36	-53.2	-68.2	3.8	1.49e+00	0	44	104	1473249280	78	19726
2026-01-25 23:59:52.97	185.48	2.11	-53.2	-68.2	3.8	1.49e+00	0	44	104	1473249280	78	19683

#Closed at: 2026-01-25 23:59:55
#Recorded file [1473 MB]: D:/lorett/data/31041_260126_024535.dat