passes_logs/2026/01/25/R3.2S_Murmansk/R3.2S_Murmansk__20260125_082151_NOAA_20_JPSS-1_rec.log

#Pass ID: 20260125_082151_NOAA 20 (JPSS-1)
#Satellite: NOAA 20 (JPSS-1)
#Configuration: NOAA 20
#almurnet v.1.7.20251203
#Start time: 2026-01-25 08:21:52

#Version: 2.2.20231116
#Station: R3.2S_Murmansk
#Location: 33.079688 lon 68.888172 lat
#TLE: 1 43013U 17073A   26024.91598314  .00000178  00000+0  10511-3 0  9999
#TLE: 2 43013  98.7646 325.7511 0001081  25.0859 335.0369 14.19539982424141

#Time	Az	El	Level	Level2	SNR	BER	BlckErr	Temp	State	Recorded	gain1	gain2
2026-01-25 08:21:52.73	124.45	2.05	-51.9	-66.8	3.8	1.49e+00	0	42	0	0	75	20016
2026-01-25 08:21:56.64	124.35	2.30	-51.9	-66.8	3.8	1.49e+00	0	43	104	0	74	21190
2026-01-25 08:22:00.54	124.25	2.55	-51.9	-66.8	3.8	1.49e+00	0	43	104	0	74	21153
2026-01-25 08:22:04.45	124.14	2.80	-51.9	-66.8	3.8	1.49e+00	0	43	104	0	74	21178
2026-01-25 08:22:08.37	124.03	3.06	-51.9	-66.6	3.8	1.49e+00	0	43	104	0	74	20713
2026-01-25 08:22:12.28	123.92	3.31	-51.9	-66.8	3.8	1.49e+00	0	43	104	0	74	21052
2026-01-25 08:22:16.19	123.81	3.57	-51.8	-66.1	3.8	1.49e+00	0	43	104	0	74	19428
2026-01-25 08:22:20.10	123.70	3.83	-51.9	-66.7	3.8	1.49e+00	0	43	104	0	74	20801
2026-01-25 08:22:24.02	123.58	4.10	-51.5	-61.5	4.8	1.02e+00	0	44	0	0	74	11459
2026-01-25 08:22:27.93	123.46	4.37	-49.7	-53.8	11.9	1.15e-03	0	44	0	8388608	71	5639
2026-01-25 08:22:31.85	123.34	4.63	-47.2	-49.5	16.3	0.00e+00	0	44	0	14680064	66	4548
2026-01-25 08:22:35.76	123.21	4.91	-47.0	-49.1	16.6	0.00e+00	0	44	0	22020096	65	4651
2026-01-25 08:22:39.69	123.09	5.18	-46.8	-48.7	17.2	3.34e-04	0	44	0	29360128	65	4437
2026-01-25 08:22:43.60	122.96	5.46	-48.0	-50.6	15.1	1.69e-02	0	44	0	36700160	68	4617
2026-01-25 08:22:47.53	122.82	5.74	-46.7	-48.6	17.4	0.00e+00	0	44	0	45088768	65	4388
2026-01-25 08:22:51.44	122.69	6.02	-46.6	-48.5	17.6	0.00e+00	0	44	0	52428800	65	4330
2026-01-25 08:22:55.35	122.55	6.31	-46.4	-48.2	18.0	0.00e+00	0	44	0	59768832	64	4399
2026-01-25 08:22:59.27	122.41	6.60	-46.3	-48.0	18.1	0.00e+00	0	44	0	66060288	64	4340
2026-01-25 08:23:03.19	122.27	6.89	-46.3	-48.0	18.2	0.00e+00	0	44	0	73400320	64	4312
2026-01-25 08:23:07.11	122.12	7.18	-46.3	-48.1	18.2	0.00e+00	0	44	0	80740352	64	4364
2026-01-25 08:23:11.02	121.97	7.48	-46.3	-48.0	18.3	0.00e+00	0	44	0	88080384	64	4310
2026-01-25 08:23:14.94	121.81	7.78	-46.1	-47.8	18.5	0.00e+00	0	44	0	96468992	64	4227
2026-01-25 08:23:18.85	121.66	8.09	-46.3	-48.0	18.4	0.00e+00	0	44	0	103809024	64	4309
2026-01-25 08:23:22.78	121.50	8.40	-46.1	-47.7	18.7	0.00e+00	0	44	0	110100480	64	4183
2026-01-25 08:23:26.71	121.33	8.71	-46.1	-47.7	18.8	0.00e+00	0	44	0	117440512	63	4408
2026-01-25 08:23:30.63	121.16	9.02	-46.1	-47.7	18.8	0.00e+00	0	44	0	125829120	63	4418
2026-01-25 08:23:34.55	120.99	9.34	-46.0	-47.6	19.0	0.00e+00	0	44	0	133169152	63	4355
2026-01-25 08:23:38.46	120.81	9.67	-46.0	-47.5	19.1	0.00e+00	0	44	0	140509184	63	4336
2026-01-25 08:23:42.38	120.63	9.99	-45.8	-47.3	19.3	0.00e+00	0	44	0	147849216	63	4233
2026-01-25 08:23:46.31	120.44	10.33	-46.0	-47.5	19.2	0.00e+00	0	44	0	155189248	63	4312
2026-01-25 08:23:50.23	120.25	10.66	-45.8	-47.3	19.4	0.00e+00	0	44	0	162529280	63	4199
2026-01-25 08:23:54.15	120.06	11.00	-45.8	-47.2	19.5	0.00e+00	0	44	0	169869312	63	4171
2026-01-25 08:23:58.08	119.86	11.35	-45.9	-47.3	19.5	0.00e+00	0	44	0	177209344	63	4233
2026-01-25 08:24:01.99	119.65	11.70	-45.7	-47.2	19.7	0.00e+00	0	45	0	184549376	63	4154
2026-01-25 08:24:05.91	119.44	12.05	-45.7	-47.1	19.7	0.00e+00	0	44	0	191889408	63	4136
2026-01-25 08:24:09.83	119.23	12.41	-45.5	-46.9	20.0	0.00e+00	0	44	0	199229440	62	4250
2026-01-25 08:24:13.74	119.01	12.77	-45.5	-46.8	20.0	0.00e+00	0	44	0	206569472	62	4226
2026-01-25 08:24:17.65	118.78	13.14	-45.4	-46.7	20.2	0.00e+00	0	45	0	213909504	62	4184
2026-01-25 08:24:21.56	118.55	13.51	-45.4	-46.7	20.2	0.00e+00	0	44	0	221249536	62	4185
2026-01-25 08:24:25.48	118.31	13.89	-45.2	-46.5	20.4	0.00e+00	0	45	0	228589568	62	4058
2026-01-25 08:24:29.40	118.06	14.27	-45.3	-46.6	20.4	0.00e+00	0	45	0	235929600	62	4114
2026-01-25 08:24:33.32	117.81	14.66	-45.2	-46.4	20.6	0.00e+00	0	45	0	243269632	62	4040
2026-01-25 08:24:37.25	117.55	15.06	-45.1	-46.4	20.6	0.00e+00	0	44	0	250609664	62	4011
2026-01-25 08:24:41.16	117.28	15.46	-44.9	-46.1	20.8	0.00e+00	0	44	0	257949696	61	4141
2026-01-25 08:24:45.07	117.01	15.87	-45.0	-46.2	20.8	0.00e+00	0	44	0	265289728	61	4187
2026-01-25 08:24:48.99	116.72	16.28	-45.0	-46.2	20.8	0.00e+00	0	44	0	272629760	61	4192
2026-01-25 08:24:52.90	116.43	16.70	-45.0	-46.2	20.8	0.00e+00	0	45	0	279969792	61	4183
2026-01-25 08:24:56.83	116.13	17.13	-45.1	-46.4	20.7	0.00e+00	0	44	0	287309824	61	4244
2026-01-25 08:25:00.74	115.82	17.56	-45.0	-46.2	20.8	0.00e+00	0	44	0	294649856	61	4190
2026-01-25 08:25:04.66	115.51	18.00	-45.0	-46.3	20.8	0.00e+00	0	44	0	301989888	61	4198
2026-01-25 08:25:08.58	115.18	18.45	-45.3	-46.6	20.5	0.00e+00	0	44	0	309329920	61	4353
2026-01-25 08:25:12.50	114.84	18.90	-45.3	-46.6	20.5	0.00e+00	0	44	0	316669952	61	4361
2026-01-25 08:25:16.42	114.49	19.36	-45.6	-46.9	20.3	0.00e+00	0	44	0	324009984	61	4512
2026-01-25 08:25:20.34	114.13	19.83	-45.6	-47.0	20.2	0.00e+00	0	45	0	331350016	61	4569
2026-01-25 08:25:24.26	113.76	20.31	-45.7	-47.1	20.1	0.00e+00	0	44	0	338690048	62	4364
2026-01-25 08:25:28.17	113.38	20.79	-45.9	-47.3	19.9	0.00e+00	0	44	0	346030080	62	4490
2026-01-25 08:25:32.08	112.98	21.28	-46.2	-47.6	19.6	0.00e+00	0	44	0	353370112	62	4645
2026-01-25 08:25:36.00	112.57	21.78	-46.1	-47.5	19.7	0.00e+00	0	45	0	360710144	63	4335
2026-01-25 08:25:39.92	112.15	22.29	-46.2	-47.7	19.6	0.00e+00	0	44	0	368050176	63	4412
2026-01-25 08:25:43.85	111.71	22.81	-46.1	-47.5	19.7	0.00e+00	0	44	0	375390208	63	4335
2026-01-25 08:25:47.76	111.25	23.34	-46.2	-47.6	19.6	0.00e+00	0	45	0	382730240	63	4375
2026-01-25 08:25:51.68	110.78	23.87	-46.3	-47.8	19.5	0.00e+00	0	44	0	390070272	63	4461
2026-01-25 08:25:55.61	110.30	24.42	-46.4	-47.9	19.4	0.00e+00	0	44	0	397410304	63	4521
2026-01-25 08:25:59.52	109.79	24.97	-46.3	-47.7	19.6	0.00e+00	0	44	0	404750336	63	4416
2026-01-25 08:26:03.43	109.27	25.53	-46.5	-48.1	19.2	0.00e+00	0	44	0	412090368	63	4608
2026-01-25 08:26:07.35	108.73	26.10	-46.4	-47.8	19.4	0.00e+00	0	44	0	419430400	63	4492
2026-01-25 08:26:11.26	108.17	26.68	-46.4	-47.8	19.4	0.00e+00	0	44	0	426770432	63	4490
2026-01-25 08:26:15.18	107.58	27.27	-46.5	-48.0	19.3	0.00e+00	0	44	0	434110464	63	4582
2026-01-25 08:26:19.09	106.98	27.87	-46.6	-48.1	19.2	0.00e+00	0	45	0	441450496	63	4625
2026-01-25 08:26:23.01	106.35	28.48	-46.4	-47.8	19.5	0.00e+00	0	45	0	448790528	63	4477
2026-01-25 08:26:26.92	105.69	29.10	-46.2	-47.6	19.7	0.00e+00	0	45	0	456130560	63	4349
2026-01-25 08:26:30.82	105.02	29.72	-46.5	-48.0	19.3	0.00e+00	0	44	0	463470592	63	4564
2026-01-25 08:26:34.73	104.31	30.36	-46.7	-48.3	18.9	0.00e+00	0	45	0	470810624	64	4469
2026-01-25 08:26:38.65	103.57	31.00	-47.1	-48.8	18.5	0.00e+00	0	45	0	478150656	64	4732
2026-01-25 08:26:42.54	102.81	31.65	-47.3	-49.0	18.3	0.00e+00	0	45	0	485490688	65	4558
2026-01-25 08:26:46.46	102.01	32.31	-47.2	-48.9	18.4	0.00e+00	0	45	0	492830720	65	4539
2026-01-25 08:26:50.37	101.17	32.98	-47.1	-48.8	18.5	0.00e+00	0	45	0	500170752	65	4463
2026-01-25 08:26:54.28	100.31	33.66	-47.4	-49.1	18.2	0.00e+00	0	45	0	507510784	65	4632
2026-01-25 08:26:58.17	99.40	34.34	-47.0	-48.6	18.7	0.00e+00	0	45	0	514850816	65	4357
2026-01-25 08:27:02.08	98.46	35.03	-47.0	-48.6	18.7	0.00e+00	0	44	0	522190848	65	4356
2026-01-25 08:27:05.99	97.47	35.73	-47.3	-49.0	18.4	0.00e+00	0	45	0	529530880	65	4559
2026-01-25 08:27:09.90	96.44	36.43	-47.1	-48.8	18.6	0.00e+00	0	45	0	536870912	65	4461
2026-01-25 08:27:13.82	95.36	37.14	-47.2	-48.8	18.5	0.00e+00	0	45	0	544210944	65	4488
2026-01-25 08:27:17.75	94.23	37.86	-47.0	-48.7	18.7	0.00e+00	0	45	0	551550976	65	4392
2026-01-25 08:27:21.68	93.05	38.57	-47.4	-49.1	18.2	0.00e+00	0	45	0	558891008	65	4648
2026-01-25 08:27:25.60	91.82	39.28	-46.8	-48.4	19.0	0.00e+00	0	45	0	566231040	65	4251
2026-01-25 08:27:29.51	90.54	39.99	-46.9	-48.5	19.0	0.00e+00	0	45	0	573571072	65	4296
2026-01-25 08:27:33.43	89.19	40.70	-47.3	-49.0	18.5	0.00e+00	0	45	0	580911104	65	4549
2026-01-25 08:27:37.35	87.78	41.41	-47.7	-49.5	17.9	0.00e+00	0	45	0	588251136	65	4834
2026-01-25 08:27:41.26	86.32	42.10	-47.7	-49.5	18.0	0.00e+00	0	45	0	595591168	66	4557
2026-01-25 08:27:45.17	84.79	42.79	-47.2	-48.9	18.6	0.00e+00	0	45	0	602931200	66	4264
2026-01-25 08:27:49.08	83.20	43.46	-47.2	-48.9	18.6	0.00e+00	0	45	0	610271232	66	4252
2026-01-25 08:27:52.99	81.53	44.12	-46.8	-48.4	19.0	0.00e+00	0	45	0	617611264	65	4265
2026-01-25 08:27:56.90	79.80	44.76	-45.7	-47.0	20.4	0.00e+00	0	45	0	624951296	63	4086
2026-01-25 08:28:00.80	78.00	45.38	-45.6	-46.9	20.6	0.00e+00	0	45	0	632291328	62	4245
2026-01-25 08:28:04.71	76.12	45.98	-45.6	-46.9	20.6	0.00e+00	0	45	0	639631360	62	4259
2026-01-25 08:28:08.62	74.18	46.55	-45.9	-47.3	20.3	0.00e+00	0	45	0	646971392	62	4442
2026-01-25 08:28:12.53	72.16	47.10	-46.7	-48.2	19.4	0.00e+00	0	45	0	654311424	63	4667
2026-01-25 08:28:16.44	70.08	47.60	-47.6	-49.4	18.1	0.00e+00	0	45	0	661651456	65	4800
2026-01-25 08:28:20.35	67.92	48.07	-47.9	-49.8	17.8	0.00e+00	0	45	0	668991488	66	4723
2026-01-25 08:28:24.27	65.70	48.50	-48.6	-50.6	16.9	0.00e+00	0	45	0	676331520	68	4644
2026-01-25 08:28:28.19	63.42	48.89	-48.3	-50.2	17.4	0.00e+00	0	45	0	683671552	68	4431
2026-01-25 08:28:32.10	61.09	49.23	-48.4	-50.4	17.3	0.00e+00	0	45	0	691011584	68	4529
2026-01-25 08:28:36.01	58.71	49.52	-46.8	-48.3	19.3	0.00e+00	0	45	0	698351616	65	4195
2026-01-25 08:28:39.93	56.29	49.75	-46.5	-48.0	19.6	0.00e+00	0	45	0	705691648	65	4055
2026-01-25 08:28:43.84	53.84	49.93	-46.1	-47.4	20.2	0.00e+00	0	45	0	713031680	63	4274
2026-01-25 08:28:47.75	51.36	50.06	-45.9	-47.2	20.4	0.00e+00	0	45	0	720371712	63	4153
2026-01-25 08:28:51.65	48.87	50.13	-45.9	-47.2	20.5	0.00e+00	0	45	0	727711744	63	4169
2026-01-25 08:28:55.56	46.37	50.14	-45.9	-47.2	20.4	0.00e+00	0	45	0	735051776	62	4437
2026-01-25 08:28:59.47	43.88	50.09	-45.9	-47.2	20.4	0.00e+00	0	45	0	742391808	63	4169
2026-01-25 08:29:03.37	41.40	49.98	-46.0	-47.3	20.2	0.00e+00	0	45	0	749731840	63	4233
2026-01-25 08:29:07.27	38.95	49.82	-46.0	-47.4	20.3	0.00e+00	0	45	0	757071872	63	4250
2026-01-25 08:29:11.18	36.52	49.61	-45.7	-46.9	20.7	0.00e+00	0	45	0	764411904	63	4025
2026-01-25 08:29:15.09	34.12	49.34	-46.0	-47.4	20.2	0.00e+00	0	45	0	770703360	63	4245
2026-01-25 08:29:19.00	31.78	49.02	-46.3	-47.7	19.9	0.00e+00	0	45	0	778043392	63	4415
2026-01-25 08:29:22.90	29.49	48.65	-47.1	-48.8	18.8	0.00e+00	0	45	0	785383424	65	4445
2026-01-25 08:29:26.81	27.25	48.24	-47.2	-48.8	18.8	0.00e+00	0	45	0	792723456	65	4474
2026-01-25 08:29:30.72	25.08	47.78	-47.8	-49.6	18.0	0.00e+00	0	45	0	800063488	66	4643
2026-01-25 08:29:34.62	22.98	47.29	-47.5	-49.2	18.4	0.00e+00	0	45	0	807403520	66	4428
2026-01-25 08:29:38.53	20.94	46.76	-46.7	-48.3	19.3	0.00e+00	0	45	0	815792128	65	4195
2026-01-25 08:29:42.43	18.98	46.20	-46.1	-47.4	20.1	0.00e+00	0	45	0	822083584	64	4043
2026-01-25 08:29:46.33	17.08	45.62	-46.5	-48.0	19.6	0.00e+00	0	45	0	829423616	63	4576
2026-01-25 08:29:50.23	15.26	45.01	-46.5	-47.9	19.7	0.00e+00	0	45	0	836763648	63	4510
2026-01-25 08:29:54.13	13.51	44.38	-46.3	-47.7	19.8	0.00e+00	0	45	0	844103680	64	4167
2026-01-25 08:29:58.03	11.82	43.72	-46.9	-48.5	19.1	0.00e+00	0	45	0	851443712	64	4570
2026-01-25 08:30:01.94	10.21	43.06	-46.4	-47.8	19.7	0.00e+00	0	45	0	858783744	64	4239
2026-01-25 08:30:05.84	8.66	42.38	-45.7	-46.9	20.6	0.00e+00	0	45	0	866123776	63	4039
2026-01-25 08:30:09.74	7.18	41.69	-46.2	-47.6	20.0	0.00e+00	0	45	0	873463808	63	4345
2026-01-25 08:30:13.64	5.76	40.99	-46.5	-47.9	19.7	0.00e+00	0	45	0	880803840	63	4544
2026-01-25 08:30:17.55	4.40	40.29	-47.2	-48.9	18.7	0.00e+00	0	45	0	888143872	64	4771
2026-01-25 08:30:21.45	3.10	39.59	-48.0	-49.9	17.7	0.00e+00	0	45	0	895483904	66	4760
2026-01-25 08:30:25.37	1.84	38.87	-47.5	-49.2	18.4	0.00e+00	0	45	0	902823936	66	4398
2026-01-25 08:30:29.28	0.65	38.17	-48.3	-50.2	17.4	0.00e+00	0	45	0	910163968	67	4673
2026-01-25 08:30:33.18	359.51	37.46	-48.3	-50.2	17.3	0.00e+00	0	45	0	917504000	67	4695
2026-01-25 08:30:37.10	358.42	36.75	-48.6	-50.7	16.8	0.00e+00	0	45	0	924844032	67	4974
2026-01-25 08:30:41.01	357.37	36.05	-48.3	-50.3	17.2	0.00e+00	0	45	0	932184064	67	4748
2026-01-25 08:30:44.92	356.37	35.35	-48.2	-50.2	17.3	0.00e+00	0	45	0	939524096	67	4682
2026-01-25 08:30:48.83	355.41	34.66	-47.8	-49.6	17.9	0.00e+00	0	45	0	946864128	67	4379
2026-01-25 08:30:52.74	354.49	33.98	-47.7	-49.5	18.0	0.00e+00	0	45	0	954204160	66	4583
2026-01-25 08:30:56.66	353.60	33.30	-47.3	-48.9	18.5	0.00e+00	0	45	0	961544192	66	4276
2026-01-25 08:31:00.58	352.76	32.62	-47.1	-48.6	18.8	0.00e+00	0	45	0	968884224	65	4391
2026-01-25 08:31:04.50	351.95	31.96	-47.7	-49.4	18.1	0.00e+00	0	45	0	976224256	66	4537
2026-01-25 08:31:08.40	351.17	31.30	-47.6	-49.4	18.1	0.00e+00	0	45	0	983564288	66	4495
2026-01-25 08:31:12.32	350.42	30.66	-47.8	-49.6	17.8	0.00e+00	0	45	0	990904320	66	4637
2026-01-25 08:31:16.22	349.71	30.02	-47.6	-49.5	18.0	0.00e+00	0	45	0	998244352	66	4550
2026-01-25 08:31:20.13	349.02	29.39	-47.6	-49.4	18.0	0.00e+00	0	45	0	1005584384	66	4530
2026-01-25 08:31:24.03	348.36	28.78	-47.1	-48.8	18.6	0.00e+00	0	45	0	1012924416	66	4211
2026-01-25 08:31:27.94	347.72	28.17	-46.6	-48.2	19.2	0.00e+00	0	45	0	1020264448	65	4162
2026-01-25 08:31:31.84	347.11	27.57	-46.4	-47.8	19.5	0.00e+00	0	45	0	1027604480	64	4238
2026-01-25 08:31:35.75	346.52	26.98	-46.6	-48.1	19.2	0.00e+00	0	45	0	1034944512	64	4366
2026-01-25 08:31:39.67	345.95	26.39	-46.2	-47.6	19.7	0.00e+00	0	45	0	1042284544	64	4119
2026-01-25 08:31:43.57	345.41	25.82	-46.1	-47.5	19.7	0.00e+00	0	45	0	1049624576	64	4087
2026-01-25 08:31:47.48	344.88	25.26	-45.9	-47.3	20.0	0.00e+00	0	45	0	1056964608	63	4207
2026-01-25 08:31:51.39	344.37	24.71	-46.0	-47.3	20.0	0.00e+00	0	45	0	1064304640	63	4237
2026-01-25 08:31:55.30	343.88	24.16	-46.3	-47.8	19.6	0.00e+00	0	45	0	1071644672	63	4456
2026-01-25 08:31:59.22	343.40	23.62	-46.1	-47.5	19.8	0.00e+00	0	45	0	1078984704	63	4307
2026-01-25 08:32:03.13	342.95	23.10	-45.8	-47.1	20.1	0.00e+00	0	45	0	1086324736	63	4140
2026-01-25 08:32:07.05	342.50	22.58	-45.8	-47.2	20.1	0.00e+00	0	45	0	1093664768	63	4157
2026-01-25 08:32:10.96	342.08	22.07	-45.9	-47.3	19.9	0.00e+00	0	45	0	1101004800	63	4231
2026-01-25 08:32:14.88	341.66	21.57	-45.9	-47.3	20.0	0.00e+00	0	45	0	1108344832	63	4196
2026-01-25 08:32:18.79	341.26	21.07	-45.8	-47.1	20.1	0.00e+00	0	45	0	1115684864	63	4123
2026-01-25 08:32:22.69	340.88	20.59	-45.8	-47.1	20.1	0.00e+00	0	45	0	1123024896	63	4128
2026-01-25 08:32:26.61	340.50	20.11	-46.0	-47.4	19.8	0.00e+00	0	45	0	1130364928	63	4274
2026-01-25 08:32:30.52	340.14	19.64	-46.3	-47.7	19.4	0.00e+00	0	45	0	1137704960	63	4433
2026-01-25 08:32:34.43	339.79	19.18	-46.4	-47.9	19.3	0.00e+00	0	45	0	1145044992	63	4526
2026-01-25 08:32:38.34	339.45	18.72	-46.2	-47.7	19.5	0.00e+00	0	45	0	1152385024	63	4397
2026-01-25 08:32:42.26	339.12	18.27	-45.9	-47.3	19.8	0.00e+00	0	45	0	1159725056	63	4229
2026-01-25 08:32:46.18	338.80	17.83	-45.8	-47.2	19.9	0.00e+00	0	45	0	1167065088	63	4153
2026-01-25 08:32:50.10	338.49	17.40	-46.0	-47.4	19.7	0.00e+00	0	44	0	1174405120	63	4259
2026-01-25 08:32:54.01	338.18	16.97	-46.0	-47.5	19.6	0.00e+00	0	45	0	1181745152	63	4301
2026-01-25 08:32:57.92	337.89	16.55	-46.3	-47.8	19.3	0.00e+00	0	45	0	1189085184	63	4451
2026-01-25 08:33:01.83	337.61	16.13	-46.5	-48.1	18.9	0.00e+00	0	45	0	1196425216	63	4637
2026-01-25 08:33:05.74	337.33	15.73	-46.7	-48.3	18.7	0.00e+00	0	45	0	1203765248	64	4468
2026-01-25 08:33:09.65	337.06	15.32	-46.8	-48.5	18.5	0.00e+00	0	45	0	1211105280	64	4559
2026-01-25 08:33:13.56	336.80	14.93	-46.6	-48.3	18.6	0.00e+00	0	45	0	1218445312	64	4456
2026-01-25 08:33:17.48	336.55	14.54	-46.6	-48.2	18.7	0.00e+00	0	45	0	1225785344	64	4416
2026-01-25 08:33:21.40	336.30	14.15	-46.7	-48.4	18.5	0.00e+00	0	45	0	1233125376	64	4501
2026-01-25 08:33:25.31	336.06	13.77	-46.7	-48.3	18.6	0.00e+00	0	45	0	1240465408	64	4486
2026-01-25 08:33:29.22	335.83	13.40	-46.6	-48.2	18.7	0.00e+00	0	45	0	1247805440	64	4419
2026-01-25 08:33:33.14	335.60	13.03	-46.6	-48.3	18.6	0.00e+00	0	45	0	1255145472	64	4443
2026-01-25 08:33:37.06	335.38	12.66	-46.6	-48.3	18.5	0.00e+00	0	45	0	1262485504	64	4470
2026-01-25 08:33:40.98	335.16	12.30	-46.6	-48.3	18.5	0.00e+00	0	45	0	1269825536	64	4469
2026-01-25 08:33:44.90	334.95	11.95	-46.5	-48.2	18.6	0.00e+00	0	45	0	1277165568	64	4407
2026-01-25 08:33:48.82	334.75	11.60	-46.8	-48.5	18.2	0.00e+00	0	45	0	1284505600	64	4580
2026-01-25 08:33:52.73	334.55	11.25	-46.9	-48.6	18.2	0.00e+00	0	45	0	1291845632	64	4632
2026-01-25 08:33:56.65	334.35	10.91	-47.0	-48.8	17.9	0.00e+00	0	45	0	1299185664	64	4730
2026-01-25 08:34:00.57	334.16	10.57	-47.1	-48.9	17.8	0.00e+00	0	45	0	1306525696	64	4786
2026-01-25 08:34:04.49	333.98	10.24	-47.0	-48.8	17.9	0.00e+00	0	45	0	1313865728	64	4757
2026-01-25 08:34:08.42	333.79	9.91	-47.1	-49.0	17.7	0.00e+00	0	45	0	1321205760	64	4840
2026-01-25 08:34:12.36	333.62	9.58	-47.1	-49.0	17.6	0.00e+00	0	45	0	1328545792	64	4849
2026-01-25 08:34:16.27	333.44	9.26	-47.3	-49.2	17.4	0.00e+00	0	45	0	1335885824	65	4694
2026-01-25 08:34:20.20	333.28	8.95	-47.2	-49.1	17.5	0.00e+00	0	45	0	1343225856	65	4611
2026-01-25 08:34:24.13	333.11	8.63	-47.2	-49.1	17.4	0.00e+00	0	45	0	1350565888	65	4640
2026-01-25 08:34:28.06	332.95	8.32	-47.5	-49.5	17.0	0.00e+00	0	45	0	1357905920	65	4868
2026-01-25 08:34:31.99	332.79	8.02	-47.6	-49.7	16.8	0.00e+00	0	45	0	1365245952	66	4675
2026-01-25 08:34:35.91	332.64	7.71	-47.8	-49.9	16.6	0.00e+00	0	45	0	1372585984	66	4808
2026-01-25 08:34:39.83	332.49	7.41	-48.0	-50.4	16.0	0.00e+00	0	45	0	1379926016	66	5055
2026-01-25 08:34:43.76	332.34	7.12	-47.8	-50.1	16.3	0.00e+00	0	45	0	1387266048	66	4896
2026-01-25 08:34:47.68	332.20	6.82	-48.0	-50.4	16.0	0.00e+00	0	45	0	1394606080	66	5077
2026-01-25 08:34:51.60	332.06	6.53	-48.0	-50.5	15.9	0.00e+00	0	45	0	1401946112	67	4818
2026-01-25 08:34:55.52	331.92	6.25	-48.1	-50.5	15.8	0.00e+00	0	45	0	1409286144	67	4847
2026-01-25 08:34:59.44	331.79	5.96	-48.2	-50.7	15.5	0.00e+00	0	45	0	1416626176	67	4980
2026-01-25 08:35:03.36	331.65	5.68	-48.0	-50.5	15.7	0.00e+00	0	45	0	1423966208	67	4851
2026-01-25 08:35:07.28	331.53	5.40	-48.2	-50.8	15.4	0.00e+00	0	45	0	1431306240	67	5004
2026-01-25 08:35:11.21	331.40	5.13	-48.3	-51.0	15.1	0.00e+00	0	45	0	1438646272	67	5115
2026-01-25 08:35:15.14	331.28	4.86	-52.9	-67.9	3.8	1.49e+00	0	45	104	1443889152	76	21359
2026-01-25 08:35:19.07	331.16	4.58	-53.5	-68.5	3.8	1.49e+00	0	45	104	1443889152	77	21630
2026-01-25 08:35:23.01	331.04	4.32	-53.9	-68.9	3.8	1.49e+00	0	45	104	1443889152	78	21420
2026-01-25 08:35:26.93	330.92	4.05	-54.1	-69.1	3.8	1.49e+00	0	45	104	1443889152	78	21831
2026-01-25 08:35:30.85	330.81	3.79	-54.2	-69.2	3.8	1.49e+00	0	45	104	1443889152	78	22064
2026-01-25 08:35:34.78	330.70	3.53	-54.2	-69.2	3.8	1.49e+00	0	45	104	1443889152	79	20946
2026-01-25 08:35:38.71	330.59	3.27	-54.1	-69.1	3.8	1.49e+00	0	45	104	1443889152	79	20593
2026-01-25 08:35:42.64	330.48	3.01	-54.1	-69.0	3.8	1.49e+00	0	45	104	1443889152	79	20476
2026-01-25 08:35:46.57	330.38	2.76	-54.0	-69.0	3.8	1.49e+00	0	45	104	1443889152	79	20410
2026-01-25 08:35:50.51	330.27	2.51	-54.0	-69.0	3.8	1.49e+00	0	45	104	1443889152	79	20402
2026-01-25 08:35:54.43	330.17	2.26	-54.0	-68.9	3.8	1.49e+00	0	45	104	1443889152	79	20261
2026-01-25 08:35:58.37	330.07	2.01	-54.0	-68.9	3.8	1.49e+00	0	45	104	1443889152	79	20215

#Closed at: 2026-01-25 08:36:00
#Recorded file [1443 MB]: D:/lorett/data/31041_260125_112152.dat