passes_logs/2026/01/25/R3.2S_Murmansk/R3.2S_Murmansk__20260125_214247_JL1KF02B03_rec.log

#Pass ID: 20260125_214247_JL1KF02B03
#Satellite: JL1KF02B03
#Configuration: 01B_900M
#almurnet v.1.7.20251203
#Start time: 2026-01-25 21:42:47

#Version: 2.2.20231116
#Station: R3.2S_Murmansk
#Location: 33.079688 lon 68.888172 lat
#TLE: 1 61190U 24169B   26025.49781411  .00007847  00000+0  49160-3 0  9997
#TLE: 2 61190  97.5617 116.4795 0014988 146.5321 213.6858 15.09541703 74301

#Time	Az	El	Level	Level2	SNR	BER	BlckErr	Temp	State	Recorded	gain1	gain2
2026-01-25 21:42:47.82	210.08	2.05	-54.3	-56.4	6.3	0.00e+00	0	44	0	0	79	19040
2026-01-25 21:42:50.79	210.34	2.22	-54.6	-56.6	6.2	0.00e+00	0	44	104	0	80	18586
2026-01-25 21:42:53.79	210.62	2.41	-54.6	-56.7	6.2	0.00e+00	0	44	104	0	80	18662
2026-01-25 21:42:56.77	210.89	2.59	-54.5	-56.6	6.2	0.00e+00	0	44	104	0	80	18533
2026-01-25 21:42:59.83	211.18	2.77	-54.5	-56.6	6.2	0.00e+00	0	45	104	0	80	18403
2026-01-25 21:43:02.82	211.46	2.96	-54.4	-56.4	6.2	0.00e+00	0	45	104	0	80	18166
2026-01-25 21:43:05.84	211.75	3.14	-54.2	-56.2	6.2	0.00e+00	0	45	104	0	80	17760
2026-01-25 21:43:08.77	212.04	3.33	-53.9	-56.0	6.2	0.00e+00	0	45	104	0	79	18382
2026-01-25 21:43:11.67	212.33	3.51	-53.2	-55.3	6.2	0.00e+00	0	45	104	0	78	17918
2026-01-25 21:43:14.57	212.62	3.69	-53.2	-55.3	6.2	0.00e+00	0	45	104	0	78	17802
2026-01-25 21:43:17.47	212.92	3.87	-53.2	-55.3	6.2	0.00e+00	0	45	104	0	78	17819
2026-01-25 21:43:20.37	213.22	4.06	-53.2	-55.3	6.2	0.00e+00	0	45	104	0	78	17796
2026-01-25 21:43:23.27	213.53	4.24	-53.2	-55.2	6.2	0.00e+00	0	45	104	0	78	17764
2026-01-25 21:43:26.18	213.84	4.43	-53.2	-55.3	6.2	0.00e+00	0	45	104	0	78	17791
2026-01-25 21:43:29.08	214.16	4.62	-53.1	-55.2	6.2	0.00e+00	0	45	104	0	78	17738
2026-01-25 21:43:31.99	214.48	4.81	-53.1	-55.2	6.2	0.00e+00	0	45	104	0	78	17693
2026-01-25 21:43:34.89	214.80	5.00	-53.1	-55.2	6.2	0.00e+00	0	46	104	0	78	17693
2026-01-25 21:43:37.79	215.13	5.19	-53.1	-55.2	6.2	0.00e+00	0	45	104	0	78	17763
2026-01-25 21:43:40.69	215.47	5.38	-53.2	-55.3	6.2	0.00e+00	0	45	104	0	78	17889
2026-01-25 21:43:43.59	215.81	5.57	-53.1	-55.2	6.2	0.00e+00	0	45	104	0	78	17672
2026-01-25 21:43:46.50	216.16	5.77	-53.1	-55.2	6.2	0.00e+00	0	46	104	0	78	17646
2026-01-25 21:43:49.40	216.51	5.96	-53.1	-55.2	6.2	0.00e+00	0	46	104	0	78	17692
2026-01-25 21:43:52.29	216.86	6.16	-53.2	-55.3	6.2	0.00e+00	0	46	104	0	78	17860
2026-01-25 21:43:55.20	217.23	6.36	-53.1	-55.2	6.2	0.00e+00	0	46	104	0	78	17590
2026-01-25 21:43:58.10	217.60	6.56	-53.1	-55.2	6.2	0.00e+00	0	46	104	0	78	17612
2026-01-25 21:44:01.00	217.97	6.76	-53.2	-55.2	6.2	0.00e+00	0	46	104	0	78	17743
2026-01-25 21:44:03.91	218.36	6.96	-53.2	-55.3	6.2	0.00e+00	0	46	104	0	78	17774
2026-01-25 21:44:06.81	218.74	7.16	-53.1	-55.2	6.2	0.00e+00	0	46	104	0	78	17593
2026-01-25 21:44:09.72	219.14	7.36	-53.1	-55.2	6.2	0.00e+00	0	46	104	0	78	17674
2026-01-25 21:44:12.62	219.54	7.57	-53.2	-55.3	6.2	0.00e+00	0	46	104	0	78	17821
2026-01-25 21:44:15.52	219.94	7.77	-53.1	-55.2	6.2	0.00e+00	0	46	104	0	78	17618
2026-01-25 21:44:18.43	220.36	7.98	-53.1	-55.2	6.2	0.00e+00	0	46	104	0	78	17633
2026-01-25 21:44:21.33	220.78	8.19	-53.2	-55.3	6.2	0.00e+00	0	46	104	0	78	17811
2026-01-25 21:44:24.23	221.21	8.40	-53.2	-55.3	6.2	0.00e+00	0	46	104	0	78	17916
2026-01-25 21:44:27.13	221.64	8.60	-53.1	-55.2	6.2	0.00e+00	0	46	104	0	78	17694
2026-01-25 21:44:30.03	222.09	8.81	-53.2	-55.3	6.2	0.00e+00	0	46	104	0	78	17769
2026-01-25 21:44:32.93	222.54	9.03	-53.2	-55.3	6.2	0.00e+00	0	46	104	0	78	17924
2026-01-25 21:44:35.83	222.99	9.24	-53.2	-55.3	6.2	0.00e+00	0	46	104	0	78	17842
2026-01-25 21:44:38.73	223.46	9.45	-42.8	-42.7	11.8	6.03e-03	0	46	0	25165824	55	15678
2026-01-25 21:44:41.63	223.93	9.67	-33.3	-33.1	15.4	1.03e-04	0	46	0	318767104	38	13888
2026-01-25 21:44:44.53	224.41	9.88	-32.9	-32.7	15.5	4.76e-05	0	47	0	637534208	37	14075
2026-01-25 21:44:47.43	224.90	10.10	-32.8	-32.6	15.6	7.43e-05	0	47	0	964689920	37	13845
2026-01-25 21:44:50.33	225.40	10.31	-32.8	-32.6	15.6	5.34e-05	0	47	0	1291845632	37	13940
2026-01-25 21:44:53.23	225.91	10.53	-32.5	-32.3	15.6	5.72e-05	0	47	0	1619001344	36	14120
2026-01-25 21:44:56.14	226.43	10.75	-32.6	-32.4	15.6	3.43e-05	0	47	0	1946157056	36	14310
2026-01-25 21:44:59.04	226.95	10.97	-32.6	-32.4	15.6	4.95e-05	0	47	0	2273312768	36	14306
2026-01-25 21:45:01.94	227.49	11.19	-32.4	-32.2	15.6	3.62e-05	0	47	0	2600468480	36	14065
2026-01-25 21:45:04.84	228.03	11.41	-32.3	-32.1	15.7	3.62e-05	0	47	0	2927624192	36	13932
2026-01-25 21:45:07.74	228.58	11.63	-32.3	-32.1	15.7	2.86e-05	0	47	0	3254779904	36	13870
2026-01-25 21:45:10.64	229.15	11.85	-32.2	-32.0	15.6	4.95e-05	0	47	0	3573547008	36	13728
2026-01-25 21:45:13.55	229.72	12.07	-32.1	-31.9	15.7	3.05e-05	0	47	0	3917479936	36	13620
2026-01-25 21:45:16.45	230.30	12.29	-32.0	-31.8	15.7	3.62e-05	0	47	0	4244635648	36	13471
2026-01-25 21:45:19.35	230.90	12.51	-29.6	-29.4	15.4	5.91e-05	0	47	0	4563402752	31	13564
2026-01-25 21:45:22.25	231.50	12.73	-29.7	-29.5	15.4	7.62e-05	0	47	0	4890558464	31	13718
2026-01-25 21:45:25.15	232.11	12.95	-29.6	-29.4	15.4	8.77e-05	0	47	0	5217714176	31	13487
2026-01-25 21:45:28.05	232.74	13.18	-29.5	-29.3	15.3	6.86e-05	0	47	0	5544869888	30	14269
2026-01-25 21:45:30.96	233.38	13.40	-29.5	-29.3	15.4	9.15e-05	0	47	0	5872025600	30	14143
2026-01-25 21:45:33.86	234.02	13.62	-29.5	-29.3	15.4	8.96e-05	0	47	0	6199181312	30	14168
2026-01-25 21:45:36.76	234.68	13.84	-29.3	-29.1	15.4	7.43e-05	0	47	0	6526337024	30	13925
2026-01-25 21:45:39.67	235.35	14.06	-29.3	-29.1	15.5	6.48e-05	0	47	0	6853492736	30	13807
2026-01-25 21:45:42.57	236.03	14.28	-29.2	-29.0	15.5	5.72e-05	0	47	0	7180648448	30	13664
2026-01-25 21:45:45.48	236.72	14.49	-29.2	-29.0	15.5	4.00e-05	0	47	0	7499415552	30	13683
2026-01-25 21:45:48.37	237.42	14.71	-29.0	-28.8	15.5	6.48e-05	0	47	0	7826571264	30	13444
2026-01-25 21:45:51.27	238.14	14.93	-29.0	-28.8	15.5	4.95e-05	0	47	0	8153726976	30	13364
2026-01-25 21:45:54.17	238.86	15.14	-29.0	-28.8	15.4	6.10e-05	0	47	0	8480882688	29	14157
2026-01-25 21:45:57.08	239.60	15.35	-28.9	-28.8	15.4	5.14e-05	0	47	0	8808038400	29	14132
2026-01-25 21:45:59.98	240.35	15.56	-28.8	-28.6	15.5	5.34e-05	0	47	0	9135194112	29	13908
2026-01-25 21:46:02.88	241.12	15.77	-28.7	-28.5	15.6	3.05e-05	0	47	0	9462349824	29	13661
2026-01-25 21:46:05.78	241.89	15.98	-28.8	-28.6	15.6	5.34e-05	0	47	0	9789505536	29	13817
2026-01-25 21:46:08.68	242.68	16.18	-28.6	-28.4	15.6	3.43e-05	0	47	0	10116661248	29	13622
2026-01-25 21:46:11.58	243.47	16.38	-28.8	-28.6	15.6	3.62e-05	0	47	0	10443816960	29	13862
2026-01-25 21:46:14.48	244.28	16.58	-28.6	-28.4	15.6	3.24e-05	0	47	0	10762584064	29	13603
2026-01-25 21:46:17.39	245.11	16.78	-28.5	-28.3	15.5	4.76e-05	0	47	0	11089739776	29	13466
2026-01-25 21:46:20.29	245.94	16.97	-28.5	-28.3	15.6	5.14e-05	0	47	0	11416895488	28	14190
2026-01-25 21:46:23.19	246.79	17.16	-28.4	-28.2	15.6	4.19e-05	0	47	0	11744051200	28	13986
2026-01-25 21:46:26.09	247.65	17.35	-28.3	-28.1	15.7	4.00e-05	0	47	0	12071206912	28	13916
2026-01-25 21:46:28.98	248.52	17.53	-28.2	-28.0	15.7	1.33e-05	0	47	0	12398362624	28	13784
2026-01-25 21:46:31.88	249.40	17.70	-28.3	-28.1	15.6	4.00e-05	0	47	0	12725518336	28	13937
2026-01-25 21:46:34.78	250.29	17.88	-28.3	-28.1	15.7	3.43e-05	0	47	0	13052674048	28	13868
2026-01-25 21:46:37.69	251.20	18.05	-28.4	-28.2	15.6	3.05e-05	0	47	0	13379829760	28	13982
2026-01-25 21:46:40.58	252.11	18.21	-28.3	-28.1	15.8	2.67e-05	0	47	0	13698596864	28	13894
2026-01-25 21:46:43.49	253.04	18.37	-28.1	-27.9	15.8	2.09e-05	0	47	0	14025752576	28	13577
2026-01-25 21:46:46.39	253.98	18.52	-28.1	-27.9	15.7	1.52e-05	0	47	0	14352908288	28	13562
2026-01-25 21:46:49.30	254.93	18.66	-28.1	-27.9	15.7	2.67e-05	0	47	0	14680064000	28	13581
2026-01-25 21:46:52.21	255.89	18.81	-28.1	-27.9	15.7	1.71e-05	0	47	0	15007219712	27	14436
2026-01-25 21:46:55.11	256.86	18.94	-28.1	-27.9	15.7	2.67e-05	0	47	0	15334375424	27	14384
2026-01-25 21:46:58.02	257.84	19.07	-28.1	-27.9	15.7	2.86e-05	0	48	0	15661531136	27	14337
2026-01-25 21:47:00.93	258.83	19.19	-28.0	-27.8	15.8	2.47e-05	0	47	0	15988686848	27	14223
2026-01-25 21:47:03.83	259.82	19.30	-27.9	-27.7	15.9	1.90e-05	0	47	0	16315842560	27	14047
2026-01-25 21:47:06.74	260.83	19.41	-28.0	-27.8	15.8	1.52e-05	0	47	0	16634609664	27	14153
2026-01-25 21:47:09.64	261.84	19.51	-27.8	-27.6	15.8	2.47e-05	0	47	0	16961765376	27	13935
2026-01-25 21:47:12.55	262.86	19.60	-27.9	-27.7	15.9	2.47e-05	0	47	0	17305698304	27	13987
2026-01-25 21:47:15.46	263.88	19.69	-27.9	-27.7	15.8	3.43e-05	0	47	0	17624465408	27	14062
2026-01-25 21:47:18.37	264.91	19.76	-27.9	-27.7	15.9	9.50e-06	0	47	0	17951621120	27	14057
2026-01-25 21:47:21.28	265.95	19.83	-27.9	-27.7	16.0	1.90e-05	0	47	0	18278776832	27	14046
2026-01-25 21:47:24.19	267.00	19.89	-27.9	-27.7	15.9	1.90e-05	0	48	0	18605932544	27	14077
2026-01-25 21:47:27.09	268.04	19.94	-27.9	-27.7	16.0	1.71e-05	0	47	0	18933088256	27	14080
2026-01-25 21:47:30.00	269.09	19.98	-27.9	-27.7	15.9	1.71e-05	0	48	0	19260243968	27	14098
2026-01-25 21:47:32.90	270.14	20.02	-27.9	-27.7	16.0	2.28e-05	0	48	0	19587399680	27	14028
2026-01-25 21:47:35.81	271.19	20.04	-27.9	-27.7	15.9	2.09e-05	0	47	0	19914555392	27	14093
2026-01-25 21:47:38.71	272.25	20.06	-28.0	-27.8	16.0	1.14e-05	0	48	0	20241711104	27	14169
2026-01-25 21:47:41.62	273.31	20.06	-28.1	-27.9	16.0	2.09e-05	0	48	0	20568866816	27	14276
2026-01-25 21:47:44.53	274.36	20.06	-28.0	-27.8	16.0	2.09e-05	0	48	0	20887633920	27	14137
2026-01-25 21:47:47.44	275.42	20.05	-27.9	-27.7	16.1	9.50e-06	0	48	0	21214789632	27	14065
2026-01-25 21:47:50.35	276.48	20.03	-28.0	-27.8	16.2	9.50e-06	0	48	0	21541945344	27	14140
2026-01-25 21:47:53.25	277.53	20.00	-28.1	-27.9	16.1	7.60e-06	0	47	0	21877489664	27	14340
2026-01-25 21:47:56.16	278.58	19.97	-28.1	-27.9	16.2	1.14e-05	0	47	0	22204645376	27	14379
2026-01-25 21:47:59.07	279.63	19.92	-28.1	-27.9	16.2	1.90e-05	0	48	0	22531801088	27	14440
2026-01-25 21:48:01.99	280.68	19.87	-28.1	-27.9	16.3	1.14e-05	0	48	0	22858956800	27	14416
2026-01-25 21:48:04.90	281.72	19.81	-28.1	-27.9	16.3	1.71e-05	0	48	0	23186112512	27	14426
2026-01-25 21:48:07.81	282.76	19.73	-28.2	-28.0	16.4	7.60e-06	0	48	0	23513268224	27	14500
2026-01-25 21:48:10.72	283.79	19.66	-28.2	-28.0	16.4	7.60e-06	0	47	0	23840423936	27	14447
2026-01-25 21:48:13.63	284.81	19.57	-28.3	-28.1	16.4	1.14e-05	0	47	0	24167579648	27	14670
2026-01-25 21:48:16.54	285.83	19.47	-28.3	-28.1	16.6	3.80e-06	0	47	0	24494735360	27	14645
2026-01-25 21:48:19.45	286.84	19.37	-28.3	-28.1	16.6	5.70e-06	0	47	0	24830279680	27	14644
2026-01-25 21:48:22.37	287.85	19.26	-28.4	-28.2	16.7	1.14e-05	0	47	0	25157435392	27	14844
2026-01-25 21:48:25.28	288.84	19.15	-28.3	-28.1	16.8	1.14e-05	0	47	0	25484591104	27	14634
2026-01-25 21:48:28.19	289.83	19.02	-28.4	-28.2	16.9	7.60e-06	0	48	0	25803358208	27	14927
2026-01-25 21:48:31.10	290.80	18.89	-28.6	-28.4	17.0	5.70e-06	0	47	0	26130513920	27	15192
2026-01-25 21:48:34.02	291.78	18.75	-28.6	-28.4	17.0	0.00e+00	0	47	0	26457669632	27	15250
2026-01-25 21:48:36.93	292.73	18.61	-28.4	-28.2	17.2	1.90e-06	0	47	0	26784825344	28	14072
2026-01-25 21:48:39.84	293.68	18.46	-28.5	-28.4	17.2	5.70e-06	0	48	0	27111981056	28	14277
2026-01-25 21:48:42.75	294.62	18.31	-28.7	-28.5	17.3	1.90e-06	0	48	0	27447525376	28	14474
2026-01-25 21:48:45.66	295.54	18.15	-28.5	-28.4	17.4	7.60e-06	0	48	0	27774681088	28	14284
2026-01-25 21:48:48.57	296.46	17.98	-28.7	-28.5	17.4	5.70e-06	0	47	0	28101836800	28	14556
2026-01-25 21:48:51.48	297.36	17.81	-28.7	-28.5	17.5	1.90e-06	0	47	0	28428992512	28	14455
2026-01-25 21:48:54.39	298.25	17.64	-28.9	-28.7	17.5	1.90e-06	0	48	0	28756148224	28	14901
2026-01-25 21:48:57.30	299.13	17.46	-28.8	-28.6	17.7	0.00e+00	0	48	0	29083303936	28	14686
2026-01-25 21:49:00.20	300.00	17.27	-28.9	-28.7	17.7	0.00e+00	0	48	0	29410459648	28	14899
2026-01-25 21:49:03.12	300.86	17.09	-29.3	-29.1	17.5	1.90e-06	0	48	0	29737615360	29	14718
2026-01-25 21:49:06.03	301.70	16.89	-29.2	-29.0	17.7	1.90e-06	0	47	0	30056382464	29	14532
2026-01-25 21:49:08.94	302.54	16.70	-29.2	-29.0	17.8	0.00e+00	0	47	0	30383538176	29	14576
2026-01-25 21:49:11.85	303.36	16.50	-29.3	-29.1	17.8	0.00e+00	0	48	0	30727471104	29	14664
2026-01-25 21:49:14.76	304.17	16.30	-29.0	-28.8	17.9	0.00e+00	0	48	0	31046238208	29	14192
2026-01-25 21:49:17.68	304.96	16.10	-29.2	-29.0	17.9	3.80e-06	0	47	0	31373393920	29	14449
2026-01-25 21:49:20.58	305.75	15.89	-29.3	-29.1	17.9	5.70e-06	0	48	0	31700549632	29	14719
2026-01-25 21:49:23.49	306.52	15.68	-29.3	-29.1	17.9	0.00e+00	0	48	0	32027705344	29	14649
2026-01-25 21:49:26.40	307.28	15.47	-29.2	-29.0	18.0	3.80e-06	0	48	0	32354861056	29	14577
2026-01-25 21:49:29.31	308.03	15.26	-29.4	-29.2	17.9	3.80e-06	0	48	0	32682016768	29	14810
2026-01-25 21:49:32.22	308.76	15.05	-29.6	-29.4	17.8	1.90e-06	0	48	0	33009172480	29	15196
2026-01-25 21:49:35.13	309.49	14.83	-29.5	-29.3	17.9	1.90e-06	0	48	0	33336328192	29	15071
2026-01-25 21:49:38.04	310.20	14.62	-29.7	-29.5	17.8	3.80e-06	0	48	0	33663483904	29	15377
2026-01-25 21:49:40.95	310.90	14.40	-29.7	-29.5	17.8	0.00e+00	0	47	0	33999028224	30	14543
2026-01-25 21:49:43.86	311.59	14.18	-29.9	-29.7	17.7	1.90e-06	0	48	0	34326183936	30	14807
2026-01-25 21:49:46.77	312.26	13.96	-29.9	-29.7	17.7	1.90e-06	0	48	0	34653339648	30	14903
2026-01-25 21:49:49.68	312.93	13.74	-29.9	-29.8	17.7	7.60e-06	0	48	0	34972106752	30	14962
2026-01-25 21:49:52.59	313.59	13.52	-30.1	-29.9	17.6	1.90e-06	0	47	0	35299262464	30	15143
2026-01-25 21:49:55.51	314.23	13.30	-30.0	-29.8	17.6	1.90e-06	0	47	0	35626418176	30	15074
2026-01-25 21:49:58.42	314.86	13.08	-30.1	-29.9	17.6	3.80e-06	0	48	0	35953573888	30	15180
2026-01-25 21:50:01.33	315.49	12.85	-30.1	-30.0	17.5	7.60e-06	0	48	0	36280729600	30	15306
2026-01-25 21:50:04.24	316.10	12.63	-30.2	-30.0	17.5	3.80e-06	0	48	0	36607885312	31	14486
2026-01-25 21:50:07.15	316.70	12.41	-30.3	-30.1	17.5	9.50e-06	0	48	0	36943429632	31	14634
2026-01-25 21:50:10.06	317.29	12.19	-30.4	-30.2	17.4	0.00e+00	0	47	0	37270585344	31	14823
2026-01-25 21:50:12.97	317.87	11.97	-30.6	-30.4	17.3	1.14e-05	0	48	0	37597741056	31	15208
2026-01-25 21:50:15.88	318.44	11.75	-30.4	-30.2	17.4	7.60e-06	0	48	0	37924896768	31	14888
2026-01-25 21:50:18.80	319.00	11.52	-53.1	-54.9	6.2	0.00e+00	0	47	104	38193332224	76	19243
2026-01-25 21:50:21.71	319.55	11.30	-53.7	-55.8	6.2	0.00e+00	0	47	104	38193332224	77	20072
2026-01-25 21:50:24.62	320.10	11.08	-53.9	-55.9	6.2	0.00e+00	0	47	104	38193332224	78	19255
2026-01-25 21:50:27.53	320.63	10.86	-53.8	-55.9	6.2	0.00e+00	0	47	104	38193332224	78	19144
2026-01-25 21:50:30.45	321.15	10.64	-53.8	-55.9	6.2	0.00e+00	0	47	104	38193332224	78	19086
2026-01-25 21:50:33.36	321.67	10.43	-53.6	-55.7	6.2	0.00e+00	0	47	104	38193332224	78	18783
2026-01-25 21:50:36.27	322.17	10.21	-53.6	-55.7	6.2	0.00e+00	0	47	104	38193332224	78	18772
2026-01-25 21:50:39.18	322.67	9.99	-53.6	-55.7	6.2	0.00e+00	0	47	104	38193332224	78	18799
2026-01-25 21:50:42.09	323.16	9.78	-53.5	-55.6	6.2	0.00e+00	0	47	104	38193332224	78	18551
2026-01-25 21:50:45.00	323.64	9.56	-53.5	-55.6	6.2	0.00e+00	0	47	104	38193332224	78	18415
2026-01-25 21:50:47.91	324.11	9.35	-53.5	-55.6	6.2	0.00e+00	0	47	104	38193332224	78	18497
2026-01-25 21:50:50.82	324.58	9.13	-53.5	-55.6	6.2	0.00e+00	0	47	104	38193332224	78	18520
2026-01-25 21:50:53.74	325.03	8.92	-53.4	-55.5	6.2	0.00e+00	0	47	104	38193332224	78	18318
2026-01-25 21:50:56.65	325.48	8.71	-53.4	-55.4	6.2	0.00e+00	0	47	104	38193332224	78	18159
2026-01-25 21:50:59.56	325.92	8.50	-53.3	-55.4	6.2	0.00e+00	0	47	104	38193332224	78	18116
2026-01-25 21:51:02.48	326.36	8.29	-53.3	-55.4	6.2	0.00e+00	0	47	104	38193332224	78	18125
2026-01-25 21:51:05.39	326.78	8.08	-53.2	-55.3	6.2	0.00e+00	0	47	104	38193332224	78	17873
2026-01-25 21:51:08.30	327.20	7.87	-53.2	-55.3	6.2	0.00e+00	0	47	104	38193332224	78	17908
2026-01-25 21:51:11.21	327.62	7.67	-53.2	-55.4	6.2	0.00e+00	0	47	104	38193332224	78	17988
2026-01-25 21:51:14.12	328.02	7.46	-53.2	-55.2	6.2	0.00e+00	0	47	104	38193332224	78	17758
2026-01-25 21:51:17.04	328.42	7.26	-53.2	-55.3	6.2	0.00e+00	0	47	104	38193332224	78	17779
2026-01-25 21:51:19.95	328.82	7.05	-53.1	-55.2	6.2	0.00e+00	0	47	104	38193332224	78	17716
2026-01-25 21:51:22.86	329.20	6.85	-53.2	-55.3	6.2	0.00e+00	0	47	104	38193332224	78	17838
2026-01-25 21:51:25.77	329.58	6.65	-53.1	-55.1	6.2	0.00e+00	0	47	104	38193332224	78	17543
2026-01-25 21:51:28.67	329.96	6.45	-53.1	-55.2	6.2	0.00e+00	0	47	104	38193332224	78	17628
2026-01-25 21:51:31.58	330.32	6.25	-53.0	-55.1	6.2	0.00e+00	0	47	104	38193332224	78	17541
2026-01-25 21:51:34.49	330.69	6.06	-53.0	-55.1	6.2	0.00e+00	0	47	104	38193332224	77	18486
2026-01-25 21:51:37.39	331.04	5.86	-52.9	-55.0	6.2	0.00e+00	0	47	104	38193332224	77	18305
2026-01-25 21:51:40.31	331.40	5.67	-52.9	-55.0	6.2	0.00e+00	0	47	104	38193332224	77	18216
2026-01-25 21:51:43.22	331.74	5.47	-53.0	-55.0	6.2	0.00e+00	0	47	104	38193332224	77	18369
2026-01-25 21:51:46.13	332.08	5.28	-52.8	-54.9	6.2	0.00e+00	0	47	104	38193332224	77	17985
2026-01-25 21:51:49.04	332.42	5.09	-52.8	-54.9	6.2	0.00e+00	0	47	104	38193332224	77	18116
2026-01-25 21:51:51.94	332.75	4.90	-53.4	-55.5	6.2	0.00e+00	0	47	104	38193332224	77	19268
2026-01-25 21:51:54.85	333.07	4.71	-54.1	-56.2	6.2	0.00e+00	0	47	104	38193332224	78	19781
2026-01-25 21:51:57.77	333.39	4.52	-54.3	-56.4	6.2	0.00e+00	0	47	104	38193332224	79	19076
2026-01-25 21:52:00.69	333.71	4.33	-54.1	-56.2	6.2	0.00e+00	0	47	104	38193332224	79	18756
2026-01-25 21:52:03.60	334.02	4.14	-53.9	-56.0	6.2	0.00e+00	0	47	104	38193332224	79	18354
2026-01-25 21:52:06.51	334.33	3.96	-53.9	-56.1	6.2	0.00e+00	0	47	104	38193332224	79	18391
2026-01-25 21:52:09.42	334.63	3.77	-53.9	-56.0	6.2	0.00e+00	0	47	104	38193332224	79	18383
2026-01-25 21:52:12.34	334.93	3.59	-53.9	-56.0	6.2	0.00e+00	0	47	104	38193332224	79	18222
2026-01-25 21:52:15.26	335.22	3.41	-53.7	-55.8	6.2	0.00e+00	0	47	104	38193332224	79	17934
2026-01-25 21:52:18.17	335.51	3.23	-53.7	-55.8	6.2	0.00e+00	0	47	104	38193332224	79	17849
2026-01-25 21:52:21.07	335.79	3.05	-53.7	-55.8	6.2	0.00e+00	0	47	104	38193332224	79	17854
2026-01-25 21:52:23.98	336.07	2.87	-53.6	-55.8	6.2	0.00e+00	0	47	104	38193332224	79	17777
2026-01-25 21:52:26.90	336.35	2.69	-53.6	-55.7	6.2	0.00e+00	0	47	104	38193332224	79	17693
2026-01-25 21:52:29.81	336.62	2.51	-53.6	-55.7	6.2	0.00e+00	0	47	104	38193332224	79	17692
2026-01-25 21:52:32.73	336.89	2.34	-53.6	-55.7	6.2	0.00e+00	0	47	104	38193332224	79	17694
2026-01-25 21:52:35.64	337.16	2.16	-53.6	-55.7	6.2	0.00e+00	0	47	104	38193332224	79	17596
2026-01-25 21:52:38.55	337.42	1.99	-53.6	-55.7	6.2	0.00e+00	0	47	104	38193332224	79	17578

#Closed at: 2026-01-25 21:52:40
#Recorded file [38193 MB]: D:/lorett/data/31041_260126_004247.dat