passes_logs/2026/01/25/R3.2S_Murmansk/R3.2S_Murmansk__20260125_034811_AQUA_rec.log

#Pass ID: 20260125_034811_AQUA
#Satellite: AQUA
#Configuration: AQUA
#almurnet v.1.7.20251203
#Start time: 2026-01-25 03:48:12

#Version: 2.2.20231116
#Station: R3.2S_Murmansk
#Location: 33.079688 lon 68.888172 lat
#TLE: 1 27424U 02022A   26024.53919639  .00001970  00000+0  40397-3 0  9996
#TLE: 2 27424  98.4098 351.1277 0001915  66.8561 358.4840 14.61855303262281

#Time	Az	El	Level	Level2	SNR	BER	BlckErr	Temp	State	Recorded	gain1	gain2
2026-01-25 03:48:12.45	28.98	2.09	-53.7	-70.4	3.8	7.43e-01	0	43	0	0	79	24108
2026-01-25 03:48:15.48	28.85	2.29	-53.8	-71.2	3.8	7.45e-01	0	43	104	0	78	27979
2026-01-25 03:48:18.50	28.73	2.48	-53.7	-71.3	3.8	7.42e-01	0	44	104	0	78	28276
2026-01-25 03:48:21.53	28.61	2.68	-53.7	-71.1	3.8	7.43e-01	0	44	104	0	78	27411
2026-01-25 03:48:24.56	28.48	2.88	-53.7	-70.8	3.8	7.44e-01	0	44	104	0	78	26634
2026-01-25 03:48:27.58	28.36	3.08	-53.7	-71.3	3.8	7.43e-01	0	44	104	0	78	28148
2026-01-25 03:48:30.60	28.23	3.28	-53.7	-71.4	3.8	7.44e-01	0	44	104	0	78	28603
2026-01-25 03:48:33.63	28.09	3.48	-53.7	-71.1	3.8	7.45e-01	0	44	104	0	78	27647
2026-01-25 03:48:36.66	27.96	3.69	-53.7	-71.2	3.8	7.47e-01	0	44	104	0	78	27796
2026-01-25 03:48:39.69	27.82	3.90	-53.7	-70.8	3.8	7.44e-01	0	45	104	0	78	26685
2026-01-25 03:48:42.71	27.68	4.10	-53.4	-69.9	3.8	7.44e-01	0	45	104	0	78	23963
2026-01-25 03:48:45.74	27.54	4.31	-53.2	-69.1	3.8	7.45e-01	0	45	104	0	78	21852
2026-01-25 03:48:48.77	27.40	4.53	-52.6	-67.3	3.8	7.44e-01	0	45	104	0	77	18814
2026-01-25 03:48:51.79	27.25	4.74	-51.1	-64.2	3.8	7.44e-01	0	45	104	0	74	15663
2026-01-25 03:48:54.81	27.10	4.95	-50.2	-62.5	3.8	7.45e-01	0	45	104	0	72	14518
2026-01-25 03:48:57.84	26.95	5.17	-47.0	-58.2	3.8	7.40e-01	0	45	104	0	66	12484
2026-01-25 03:49:00.86	26.80	5.39	-47.8	-59.2	3.8	7.44e-01	0	45	104	0	66	14033
2026-01-25 03:49:03.89	26.64	5.61	-46.6	-57.7	3.8	7.43e-01	0	45	104	0	65	12487
2026-01-25 03:49:06.91	26.48	5.83	-53.7	-71.5	3.7	7.43e-01	0	45	104	0	78	28707
2026-01-25 03:49:09.93	26.32	6.05	-46.3	-57.4	3.8	7.46e-01	0	45	104	0	64	12758
2026-01-25 03:49:12.96	26.15	6.28	-46.9	-58.1	3.8	7.48e-01	0	45	104	0	64	13798
2026-01-25 03:49:15.98	25.98	6.51	-51.4	-64.4	3.9	7.47e-01	0	45	104	0	73	17016
2026-01-25 03:49:19.00	25.81	6.74	-45.8	-56.7	3.8	7.42e-01	0	45	104	0	63	12454
2026-01-25 03:49:22.03	25.64	6.97	-46.1	-57.1	3.8	7.45e-01	0	45	104	0	63	12980
2026-01-25 03:49:25.05	25.46	7.20	-46.8	-57.9	3.9	7.46e-01	0	46	104	0	64	13429
2026-01-25 03:49:28.07	25.28	7.44	-45.3	-56.1	3.9	7.43e-01	0	46	104	0	62	12325
2026-01-25 03:49:31.10	25.09	7.67	-54.0	-71.5	3.8	7.47e-01	0	45	104	0	78	28938
2026-01-25 03:49:34.12	24.90	7.91	-45.5	-56.5	3.8	7.43e-01	0	46	104	0	63	12131
2026-01-25 03:49:37.15	24.71	8.16	-45.2	-56.1	3.8	7.42e-01	0	46	104	0	62	12351
2026-01-25 03:49:40.18	24.51	8.40	-49.9	-61.8	3.9	7.41e-01	0	45	104	0	71	14077
2026-01-25 03:49:43.21	24.31	8.65	-45.1	-56.0	3.9	7.45e-01	0	46	104	0	62	12116
2026-01-25 03:49:46.23	24.11	8.90	-45.4	-56.3	3.9	7.45e-01	0	46	104	0	62	12607
2026-01-25 03:49:49.25	23.90	9.15	-46.1	-57.1	3.8	7.44e-01	0	46	104	0	63	12994
2026-01-25 03:49:52.28	23.69	9.41	-44.8	-55.6	3.8	7.46e-01	0	46	104	0	61	12327
2026-01-25 03:49:55.30	23.48	9.66	-53.8	-70.3	3.9	7.42e-01	0	46	104	0	78	24981
2026-01-25 03:49:58.32	23.26	9.92	-45.2	-56.1	3.8	7.44e-01	0	46	104	0	62	12339
2026-01-25 03:50:01.35	23.03	10.19	-46.2	-57.2	3.8	7.43e-01	0	46	104	0	64	12389
2026-01-25 03:50:04.38	22.80	10.45	-47.2	-58.3	3.8	7.48e-01	0	46	104	0	66	12562
2026-01-25 03:50:07.40	22.57	10.72	-44.6	-55.4	3.8	7.47e-01	0	46	104	0	61	11984
2026-01-25 03:50:10.43	22.33	10.99	-45.8	-57.0	3.9	7.42e-01	0	46	104	0	62	13605
2026-01-25 03:50:13.46	22.08	11.26	-45.3	-56.1	3.8	7.48e-01	0	46	104	0	62	12373
2026-01-25 03:50:16.49	21.83	11.54	-44.9	-55.7	3.8	7.47e-01	0	46	104	0	60	13238
2026-01-25 03:50:19.51	21.58	11.82	-51.5	-64.5	3.9	7.42e-01	0	46	104	0	75	15392
2026-01-25 03:50:22.53	21.31	12.10	-45.0	-55.8	3.8	7.44e-01	0	46	104	0	61	12550
2026-01-25 03:50:25.56	21.05	12.39	-45.1	-56.0	3.9	7.43e-01	0	46	104	0	60	13618
2026-01-25 03:50:28.59	20.77	12.68	-44.4	-54.9	3.8	7.45e-01	0	46	104	0	60	12076
2026-01-25 03:50:31.61	20.50	12.97	-44.0	-54.7	3.8	7.47e-01	0	46	104	0	60	11787
2026-01-25 03:50:34.63	20.21	13.26	-50.3	-62.2	3.8	7.41e-01	0	46	104	0	70	15688
2026-01-25 03:50:37.66	19.92	13.56	-44.6	-55.4	3.9	7.45e-01	0	46	104	0	61	12044
2026-01-25 03:50:40.68	19.62	13.86	-46.9	-58.0	3.8	7.44e-01	0	46	104	0	64	13615
2026-01-25 03:50:43.71	19.32	14.17	-50.2	-62.2	3.9	7.46e-01	0	46	104	0	72	13894
2026-01-25 03:50:46.73	19.01	14.48	-44.5	-55.3	3.8	7.43e-01	0	46	104	0	60	12654
2026-01-25 03:50:49.76	18.69	14.79	-45.3	-56.2	3.8	7.43e-01	0	46	104	0	61	13199
2026-01-25 03:50:52.79	18.36	15.11	-44.6	-55.3	3.8	7.41e-01	0	46	104	0	60	12556
2026-01-25 03:50:55.81	18.03	15.43	-44.2	-54.9	3.8	7.44e-01	0	46	104	0	60	12060
2026-01-25 03:50:58.83	17.69	15.75	-53.9	-69.4	3.8	7.46e-01	0	46	104	0	78	22522
2026-01-25 03:51:01.86	17.34	16.08	-44.5	-55.3	3.8	7.41e-01	0	46	104	0	61	11839
2026-01-25 03:51:04.88	16.98	16.41	-45.1	-55.9	3.8	7.45e-01	0	46	104	0	60	13457
2026-01-25 03:51:07.91	16.61	16.74	-51.3	-63.8	3.8	7.40e-01	0	46	104	0	73	15804
2026-01-25 03:51:10.93	16.23	17.08	-45.2	-56.0	3.8	7.43e-01	0	46	104	0	62	12223
2026-01-25 03:51:13.95	15.85	17.42	-48.8	-60.3	3.8	7.44e-01	0	46	104	0	68	14148
2026-01-25 03:51:16.98	15.45	17.77	-54.6	-71.8	3.8	7.47e-01	0	46	104	0	79	28088
2026-01-25 03:51:20.00	15.04	18.12	-44.7	-55.4	3.9	7.46e-01	0	46	104	0	61	12092
2026-01-25 03:51:23.03	14.63	18.47	-54.6	-71.8	3.8	7.45e-01	0	46	104	0	79	28164
2026-01-25 03:51:26.05	14.20	18.83	-45.2	-56.1	3.8	7.44e-01	0	46	104	0	62	12264
2026-01-25 03:51:29.08	13.76	19.20	-44.1	-54.8	3.9	7.43e-01	0	46	104	0	59	12618
2026-01-25 03:51:32.10	13.31	19.56	-45.5	-56.3	3.9	7.46e-01	0	46	104	0	63	11950
2026-01-25 03:51:35.13	12.85	19.93	-45.2	-56.0	3.8	7.47e-01	0	46	104	0	62	12158
2026-01-25 03:51:38.15	12.38	20.31	-45.4	-56.3	3.9	7.48e-01	0	46	104	0	62	12582
2026-01-25 03:51:41.17	11.89	20.69	-46.1	-56.9	3.8	7.44e-01	0	46	104	0	62	13562
2026-01-25 03:51:44.20	11.39	21.07	-44.5	-55.3	3.8	7.44e-01	0	46	104	0	61	11882
2026-01-25 03:51:47.22	10.88	21.46	-51.8	-64.6	3.9	7.43e-01	0	46	104	0	75	15562
2026-01-25 03:51:50.25	10.35	21.85	-45.5	-56.2	3.8	7.46e-01	0	46	104	0	63	11816
2026-01-25 03:51:53.27	9.81	22.25	-49.5	-61.1	3.8	7.44e-01	0	46	104	0	71	13096
2026-01-25 03:51:56.29	9.25	22.64	-49.1	-60.7	3.8	7.41e-01	0	46	104	0	70	13122
2026-01-25 03:51:59.31	8.68	23.05	-44.5	-55.3	3.9	7.50e-01	0	46	104	0	60	12588
2026-01-25 03:52:02.34	8.09	23.46	-45.6	-56.5	3.8	7.45e-01	0	46	104	0	63	12167
2026-01-25 03:52:05.36	7.49	23.87	-45.8	-56.7	3.8	7.47e-01	0	46	104	0	62	13111
2026-01-25 03:52:08.39	6.87	24.28	-44.2	-54.9	3.8	7.44e-01	0	46	104	0	60	12020
2026-01-25 03:52:11.41	6.23	24.70	-49.8	-61.4	3.9	7.45e-01	0	46	104	0	71	13545
2026-01-25 03:52:14.44	5.57	25.12	-45.6	-56.4	3.8	7.44e-01	0	46	104	0	63	12031
2026-01-25 03:52:17.46	4.89	25.55	-48.7	-60.1	3.9	7.41e-01	0	46	104	0	69	13055
2026-01-25 03:52:20.49	4.20	25.98	-46.0	-57.0	3.8	7.44e-01	0	46	104	0	64	12104
2026-01-25 03:52:23.51	3.48	26.41	-44.6	-55.3	3.8	7.47e-01	0	46	104	0	61	11847
2026-01-25 03:52:26.54	2.74	26.84	-47.3	-58.4	3.8	7.45e-01	0	46	104	0	65	13419
2026-01-25 03:52:29.57	1.98	27.28	-48.1	-59.3	3.9	7.43e-01	0	46	104	0	68	12625
2026-01-25 03:52:32.60	1.20	27.71	-51.3	-63.1	3.8	7.42e-01	0	46	104	0	72	15519
2026-01-25 03:52:35.63	0.39	28.15	-51.5	-63.9	3.8	7.43e-01	0	46	104	0	75	14335
2026-01-25 03:52:38.65	359.57	28.59	-44.4	-55.1	3.8	7.46e-01	0	46	104	0	60	12345
2026-01-25 03:52:41.68	358.71	29.04	-45.4	-56.2	3.8	7.43e-01	0	46	104	0	61	13248
2026-01-25 03:52:44.71	357.84	29.48	-52.5	-65.5	3.8	7.47e-01	0	46	104	0	75	17129
2026-01-25 03:52:47.73	356.94	29.92	-44.9	-55.6	3.8	7.45e-01	0	46	104	0	61	12290
2026-01-25 03:52:50.76	356.01	30.36	-54.1	-68.8	3.8	7.46e-01	0	46	104	0	78	21198
2026-01-25 03:52:53.78	355.05	30.80	-44.0	-54.7	3.8	7.44e-01	0	46	104	0	59	12386
2026-01-25 03:52:56.81	354.07	31.24	-44.6	-55.4	3.8	7.51e-01	0	46	104	0	59	13419
2026-01-25 03:52:59.84	353.06	31.67	-46.3	-57.2	3.9	7.45e-01	0	46	104	0	64	12438
2026-01-25 03:53:02.87	352.02	32.10	-44.8	-55.5	3.8	7.46e-01	0	46	104	0	61	12196
2026-01-25 03:53:05.89	350.95	32.53	-46.8	-57.8	3.9	7.48e-01	0	46	104	0	65	12566
2026-01-25 03:53:08.92	349.85	32.95	-44.4	-55.0	3.8	7.45e-01	0	46	104	0	59	12862
2026-01-25 03:53:11.95	348.72	33.37	-44.1	-54.7	3.8	7.45e-01	0	46	104	0	60	11813
2026-01-25 03:53:14.98	347.57	33.78	-53.2	-66.7	3.8	7.43e-01	0	46	104	0	76	18574
2026-01-25 03:53:18.00	346.38	34.18	-45.7	-56.4	3.8	7.47e-01	0	46	104	0	63	12070
2026-01-25 03:53:21.03	345.16	34.58	-51.9	-64.5	3.8	7.43e-01	0	46	104	0	74	16172
2026-01-25 03:53:24.05	343.92	34.96	-52.3	-65.1	3.8	7.43e-01	0	46	104	0	76	15490
2026-01-25 03:53:27.08	342.64	35.33	-45.2	-56.0	3.8	7.42e-01	0	46	104	0	61	12841
2026-01-25 03:53:30.11	341.33	35.69	-47.0	-58.0	3.8	7.45e-01	0	46	104	0	64	13582
2026-01-25 03:53:33.14	339.98	36.04	-54.9	-71.6	3.8	7.44e-01	0	46	104	0	80	26096
2026-01-25 03:53:36.16	338.62	36.38	-45.2	-55.9	3.8	7.46e-01	0	46	104	0	62	12067
2026-01-25 03:53:39.19	337.22	36.70	-52.7	-65.7	3.9	7.42e-01	0	46	104	0	77	15718
2026-01-25 03:53:42.22	335.80	37.00	-45.6	-56.4	3.8	7.44e-01	0	46	104	0	63	12024
2026-01-25 03:53:45.24	334.35	37.29	-51.7	-64.0	3.9	7.46e-01	0	46	104	0	75	14519
2026-01-25 03:53:48.27	332.87	37.55	-50.3	-61.8	3.8	7.43e-01	0	46	104	0	72	13300
2026-01-25 03:53:51.30	331.37	37.80	-46.1	-57.0	3.8	7.44e-01	0	46	104	0	63	12926
2026-01-25 03:53:54.32	329.85	38.03	-46.5	-47.9	23.5	6.03e-01	0	46	0	524288	65	4038
2026-01-25 03:53:57.35	328.30	38.24	-53.4	-58.2	12.8	6.03e-01	0	46	0	5767168	79	5908
2026-01-25 03:54:00.37	326.74	38.42	-45.1	-46.3	26.0	6.02e-01	0	46	0	12058624	62	3993
2026-01-25 03:54:03.40	325.16	38.58	-45.0	-46.2	26.0	6.04e-01	0	46	0	17301504	61	4159
2026-01-25 03:54:06.42	323.56	38.71	-44.8	-45.9	26.3	6.01e-01	0	46	0	23068672	61	4045
2026-01-25 03:54:09.45	321.95	38.83	-44.9	-46.1	26.1	5.99e-01	0	46	0	28835840	61	4130
2026-01-25 03:54:12.47	320.34	38.91	-45.1	-46.2	25.9	6.01e-01	0	46	0	34603008	61	4188
2026-01-25 03:54:15.49	318.72	38.97	-44.8	-46.0	26.2	6.02e-01	0	46	0	40370176	61	4072
2026-01-25 03:54:18.52	317.08	39.01	-45.0	-46.2	26.0	6.02e-01	0	46	0	45613056	61	4149
2026-01-25 03:54:21.54	315.45	39.02	-45.1	-46.3	25.9	5.99e-01	0	46	0	51380224	61	4223
2026-01-25 03:54:24.56	313.82	39.00	-44.9	-46.1	26.1	6.00e-01	0	46	0	57147392	61	4122
2026-01-25 03:54:27.59	312.19	38.96	-44.9	-46.1	26.1	6.03e-01	0	46	0	62914560	61	4139
2026-01-25 03:54:30.62	310.56	38.89	-44.6	-45.8	26.5	6.01e-01	0	46	0	68681728	61	3961
2026-01-25 03:54:33.65	308.95	38.80	-45.0	-46.2	26.0	6.00e-01	0	46	0	73924608	61	4150
2026-01-25 03:54:36.68	307.34	38.68	-44.7	-45.9	26.3	6.03e-01	0	46	0	79691776	61	4013
2026-01-25 03:54:39.70	305.75	38.53	-45.0	-46.2	26.0	6.05e-01	0	46	0	85458944	61	4176
2026-01-25 03:54:42.73	304.17	38.37	-45.4	-46.6	25.7	6.00e-01	0	46	0	91226112	61	4361
2026-01-25 03:54:45.75	302.61	38.18	-45.2	-46.4	25.7	6.03e-01	0	46	0	96993280	61	4279
2026-01-25 03:54:48.77	301.08	37.97	-44.7	-45.9	26.3	6.00e-01	0	46	0	102760448	61	4012
2026-01-25 03:54:51.80	299.56	37.73	-45.4	-46.6	25.6	6.01e-01	0	46	0	108003328	61	4369
2026-01-25 03:54:54.82	298.06	37.48	-44.9	-46.0	26.2	6.01e-01	0	46	0	113770496	61	4090
2026-01-25 03:54:57.85	296.59	37.20	-44.9	-46.1	26.0	6.02e-01	0	46	0	119537664	61	4106
2026-01-25 03:55:00.88	295.14	36.91	-44.8	-46.0	26.1	6.02e-01	0	46	0	125304832	61	4056
2026-01-25 03:55:03.90	293.73	36.61	-44.7	-45.8	26.3	6.01e-01	0	46	0	131072000	61	3986
2026-01-25 03:55:06.93	292.34	36.28	-45.2	-46.4	25.4	5.99e-01	0	46	0	136314880	62	4015
2026-01-25 03:55:09.95	290.98	35.94	-44.6	-45.7	26.2	6.01e-01	0	46	0	142082048	60	4190
2026-01-25 03:55:12.98	289.65	35.59	-45.4	-46.6	25.6	6.02e-01	0	46	0	147849216	61	4391
2026-01-25 03:55:16.01	288.34	35.22	-45.3	-46.6	24.9	6.00e-01	0	46	0	153616384	62	4120
2026-01-25 03:55:19.03	287.07	34.84	-44.4	-45.5	26.4	6.00e-01	0	46	0	159383552	60	4076
2026-01-25 03:55:22.06	285.83	34.46	-45.7	-47.0	25.2	6.02e-01	0	46	0	165150720	61	4571
2026-01-25 03:55:25.08	284.62	34.06	-45.0	-46.2	25.6	6.05e-01	0	46	0	170393600	61	4168
2026-01-25 03:55:28.11	283.44	33.65	-44.8	-45.9	25.6	6.01e-01	0	46	0	176160768	61	4044
2026-01-25 03:55:31.13	282.29	33.24	-44.3	-45.4	26.3	6.01e-01	0	46	0	181927936	60	4011
2026-01-25 03:55:34.16	281.17	32.82	-44.3	-45.3	26.6	6.00e-01	0	46	0	187695104	60	3994
2026-01-25 03:55:37.18	280.08	32.40	-44.1	-45.2	26.5	6.01e-01	0	46	0	193462272	60	3931
2026-01-25 03:55:40.21	279.01	31.97	-44.9	-46.1	25.3	6.01e-01	0	46	0	198705152	61	4107
2026-01-25 03:55:43.23	277.98	31.54	-45.7	-47.0	25.0	6.02e-01	0	46	0	204472320	61	4593
2026-01-25 03:55:46.25	276.98	31.10	-44.7	-45.8	25.3	6.00e-01	0	46	0	210239488	59	4475
2026-01-25 03:55:49.28	276.00	30.66	-44.3	-45.4	25.9	5.99e-01	0	46	0	216006656	60	4019
2026-01-25 03:55:52.31	275.05	30.22	-45.3	-46.6	25.2	6.02e-01	0	46	0	221773824	61	4344
2026-01-25 03:55:55.33	274.13	29.78	-45.1	-46.3	25.4	6.03e-01	0	46	0	227016704	61	4206
2026-01-25 03:55:58.36	273.23	29.33	-44.5	-45.6	26.3	6.02e-01	0	46	0	233308160	60	4118
2026-01-25 03:56:01.39	272.36	28.89	-45.3	-46.6	25.5	6.00e-01	0	46	0	238551040	61	4361
2026-01-25 03:56:04.41	271.51	28.45	-44.5	-45.7	26.2	6.02e-01	0	46	0	244318208	60	4164
2026-01-25 03:56:07.44	270.69	28.01	-45.1	-46.4	25.6	6.00e-01	0	46	0	250085376	60	4500
2026-01-25 03:56:10.47	269.89	27.57	-45.0	-46.1	25.7	6.02e-01	0	46	0	255852544	60	4390
2026-01-25 03:56:13.49	269.11	27.13	-44.9	-46.1	25.8	6.02e-01	0	46	0	261619712	60	4367
2026-01-25 03:56:16.51	268.36	26.69	-44.9	-46.1	25.7	6.04e-01	0	46	0	266862592	60	4384
2026-01-25 03:56:19.54	267.63	26.26	-44.6	-45.8	26.1	6.00e-01	0	46	0	272629760	60	4217
2026-01-25 03:56:22.56	266.91	25.83	-44.9	-46.1	25.8	6.01e-01	0	46	0	278396928	60	4344
2026-01-25 03:56:25.59	266.22	25.40	-44.7	-45.9	26.0	6.04e-01	0	46	0	284164096	60	4256
2026-01-25 03:56:28.61	265.55	24.98	-44.9	-46.1	25.8	6.00e-01	0	46	0	289931264	60	4354
2026-01-25 03:56:31.64	264.89	24.55	-44.9	-46.1	25.7	6.01e-01	0	46	0	295174144	60	4390
2026-01-25 03:56:34.67	264.26	24.13	-44.8	-45.9	25.9	6.02e-01	0	46	0	300941312	60	4286
2026-01-25 03:56:37.69	263.64	23.72	-45.0	-46.2	25.7	6.01e-01	0	46	0	306708480	60	4398
2026-01-25 03:56:40.71	263.04	23.31	-44.9	-46.1	25.7	6.01e-01	0	46	0	312475648	60	4356
2026-01-25 03:56:43.74	262.45	22.90	-44.9	-46.1	25.8	6.00e-01	0	46	0	318242816	60	4341
2026-01-25 03:56:46.77	261.88	22.50	-45.0	-46.3	25.6	6.02e-01	0	46	0	324009984	60	4448
2026-01-25 03:56:49.79	261.33	22.10	-44.9	-46.1	25.7	6.02e-01	0	46	0	329252864	60	4358
2026-01-25 03:56:52.82	260.79	21.70	-44.7	-45.9	25.9	6.01e-01	0	46	0	335020032	60	4247
2026-01-25 03:56:55.85	260.26	21.31	-44.8	-46.1	25.7	6.02e-01	0	46	0	340787200	60	4342
2026-01-25 03:56:58.88	259.75	20.92	-44.6	-45.7	26.0	6.00e-01	0	46	0	346554368	60	4191
2026-01-25 03:57:01.91	259.25	20.54	-44.7	-45.9	25.9	6.00e-01	0	46	0	352321536	60	4273
2026-01-25 03:57:04.93	258.77	20.16	-44.4	-45.6	26.2	6.02e-01	0	46	0	357564416	60	4101
2026-01-25 03:57:07.96	258.30	19.78	-44.7	-45.9	25.9	6.03e-01	0	46	0	363331584	60	4249
2026-01-25 03:57:10.99	257.84	19.41	-44.6	-45.8	25.8	6.02e-01	0	46	0	369098752	60	4231
2026-01-25 03:57:14.01	257.39	19.04	-44.6	-45.8	25.8	5.99e-01	0	46	0	374865920	60	4241
2026-01-25 03:57:17.04	256.95	18.68	-44.8	-46.0	25.7	6.03e-01	0	46	0	380633088	60	4317
2026-01-25 03:57:20.07	256.52	18.32	-44.4	-45.5	26.2	6.00e-01	0	46	0	386400256	60	4087
2026-01-25 03:57:23.09	256.11	17.97	-44.6	-45.8	25.8	6.01e-01	0	46	0	391643136	60	4241
2026-01-25 03:57:26.12	255.71	17.62	-44.5	-45.7	25.9	6.00e-01	0	46	0	397410304	60	4174
2026-01-25 03:57:29.14	255.31	17.27	-44.7	-45.9	25.8	6.02e-01	0	46	0	403177472	60	4244
2026-01-25 03:57:32.17	254.93	16.93	-44.7	-45.9	25.7	6.01e-01	0	46	0	408944640	60	4252
2026-01-25 03:57:35.19	254.55	16.59	-44.5	-45.7	25.9	6.02e-01	0	46	0	414711808	60	4161
2026-01-25 03:57:38.21	254.18	16.26	-44.7	-45.9	25.7	6.02e-01	0	46	0	419954688	60	4251
2026-01-25 03:57:41.24	253.83	15.93	-44.8	-46.0	25.6	6.01e-01	0	46	0	425721856	60	4316
2026-01-25 03:57:44.26	253.48	15.60	-44.5	-45.7	25.8	6.01e-01	0	46	0	431489024	60	4180
2026-01-25 03:57:47.28	253.14	15.28	-44.5	-45.7	25.8	6.04e-01	0	46	0	437256192	60	4187
2026-01-25 03:57:50.31	252.80	14.96	-44.8	-46.0	25.5	6.01e-01	0	46	0	443023360	60	4321
2026-01-25 03:57:53.33	252.48	14.64	-44.7	-45.9	25.6	6.02e-01	0	46	0	448266240	60	4285
2026-01-25 03:57:56.36	252.16	14.33	-44.5	-45.7	25.8	6.02e-01	0	46	0	454557696	60	4170
2026-01-25 03:57:59.38	251.85	14.02	-44.7	-45.9	25.6	6.01e-01	0	46	0	459800576	60	4286
2026-01-25 03:58:02.41	251.54	13.72	-45.0	-46.3	25.2	6.01e-01	0	46	0	465567744	60	4461
2026-01-25 03:58:05.43	251.25	13.42	-44.8	-46.1	25.4	6.00e-01	0	46	0	471334912	60	4363
2026-01-25 03:58:08.46	250.96	13.12	-45.1	-46.3	25.2	6.03e-01	0	46	0	477102080	60	4484
2026-01-25 03:58:11.48	250.67	12.82	-44.9	-46.2	25.3	6.03e-01	0	46	0	482869248	60	4411
2026-01-25 03:58:14.51	250.39	12.53	-44.8	-46.1	25.4	6.00e-01	0	46	0	488112128	60	4353
2026-01-25 03:58:17.53	250.12	12.24	-45.1	-46.4	25.1	6.03e-01	0	46	0	493879296	60	4494
2026-01-25 03:58:20.56	249.86	11.96	-45.1	-46.4	25.1	6.01e-01	0	46	0	499646464	61	4273
2026-01-25 03:58:23.59	249.59	11.68	-45.1	-46.4	25.0	6.00e-01	0	46	0	505413632	61	4275
2026-01-25 03:58:26.61	249.34	11.40	-45.0	-46.2	25.2	6.02e-01	0	46	0	511180800	61	4189
2026-01-25 03:58:29.64	249.09	11.12	-45.1	-46.3	25.1	6.04e-01	0	46	0	516423680	61	4232
2026-01-25 03:58:32.66	248.85	10.85	-45.2	-46.5	25.0	6.01e-01	0	46	0	522190848	61	4305
2026-01-25 03:58:35.69	248.61	10.58	-45.3	-46.6	24.8	6.00e-01	0	46	0	527958016	61	4390
2026-01-25 03:58:38.71	248.37	10.31	-45.4	-46.8	24.6	6.03e-01	0	46	0	533725184	61	4457
2026-01-25 03:58:41.73	248.14	10.05	-45.3	-46.6	24.7	6.01e-01	0	46	0	539492352	61	4381
2026-01-25 03:58:44.76	247.92	9.78	-45.3	-46.6	24.8	6.02e-01	0	46	0	545259520	61	4364
2026-01-25 03:58:47.78	247.69	9.52	-45.1	-46.3	25.0	6.03e-01	0	46	0	550502400	61	4240
2026-01-25 03:58:50.80	247.48	9.27	-45.1	-46.4	24.9	6.00e-01	0	46	0	556269568	61	4278
2026-01-25 03:58:53.83	247.27	9.01	-45.2	-46.5	24.8	6.02e-01	0	46	0	562036736	61	4303
2026-01-25 03:58:56.86	247.06	8.76	-45.4	-46.8	24.5	6.00e-01	0	46	0	567803904	61	4446
2026-01-25 03:58:59.89	246.85	8.51	-45.5	-46.8	24.5	6.00e-01	0	46	0	573571072	61	4464
2026-01-25 03:59:02.91	246.65	8.26	-45.6	-47.0	24.2	6.00e-01	0	46	0	578813952	61	4577
2026-01-25 03:59:05.94	246.46	8.02	-45.6	-47.0	24.3	5.99e-01	0	46	0	584581120	62	4294
2026-01-25 03:59:08.97	246.26	7.78	-45.8	-47.2	24.1	6.04e-01	0	46	0	590348288	62	4403
2026-01-25 03:59:11.99	246.07	7.54	-45.9	-47.4	23.9	6.02e-01	0	46	0	596115456	62	4496
2026-01-25 03:59:15.02	245.89	7.30	-45.7	-47.1	24.1	6.00e-01	0	46	0	601882624	62	4381
2026-01-25 03:59:18.05	245.71	7.06	-46.1	-47.6	23.6	6.03e-01	0	45	0	607649792	63	4341
2026-01-25 03:59:21.08	245.53	6.83	-46.0	-47.5	23.7	6.02e-01	0	46	0	612892672	63	4308
2026-01-25 03:59:24.10	245.35	6.60	-46.1	-47.6	23.5	6.02e-01	0	46	0	618659840	63	4366
2026-01-25 03:59:27.13	245.18	6.37	-46.3	-47.8	23.3	6.02e-01	0	46	0	624427008	63	4468
2026-01-25 03:59:30.15	245.01	6.14	-46.1	-47.6	23.5	6.01e-01	0	46	0	630194176	63	4373
2026-01-25 03:59:33.18	244.84	5.91	-46.3	-47.8	23.2	6.01e-01	0	46	0	635961344	64	4213
2026-01-25 03:59:36.20	244.68	5.69	-46.2	-47.8	23.2	6.03e-01	0	46	0	641204224	64	4205
2026-01-25 03:59:39.23	244.52	5.47	-46.3	-47.9	23.1	6.01e-01	0	46	0	646971392	64	4259
2026-01-25 03:59:42.25	244.36	5.25	-46.3	-47.9	23.0	6.02e-01	0	46	0	652738560	64	4258
2026-01-25 03:59:45.28	244.21	5.03	-46.4	-48.0	22.9	6.01e-01	0	46	0	658505728	64	4337
2026-01-25 03:59:48.31	244.05	4.81	-55.0	-72.8	3.8	7.46e-01	0	46	104	659554304	80	29763
2026-01-25 03:59:51.33	243.90	4.60	-55.3	-73.1	3.8	7.47e-01	0	46	104	659554304	81	29328
2026-01-25 03:59:54.35	243.76	4.39	-55.6	-73.4	3.8	7.48e-01	0	46	104	659554304	81	30122
2026-01-25 03:59:57.38	243.61	4.18	-55.7	-73.5	3.8	7.46e-01	0	46	104	659554304	81	30642
2026-01-25 04:00:00.40	243.47	3.97	-55.7	-73.6	3.8	7.45e-01	0	46	104	659554304	82	29063
2026-01-25 04:00:03.43	243.33	3.76	-55.7	-73.5	3.8	7.46e-01	0	46	104	659554304	82	28959
2026-01-25 04:00:06.45	243.19	3.55	-55.6	-73.5	3.8	7.42e-01	0	46	104	659554304	82	28731
2026-01-25 04:00:09.48	243.06	3.35	-55.5	-73.4	3.8	7.41e-01	0	46	104	659554304	82	28411
2026-01-25 04:00:12.51	242.92	3.14	-55.4	-73.3	3.8	7.49e-01	0	46	104	659554304	82	28166
2026-01-25 04:00:15.53	242.79	2.94	-55.4	-73.3	3.8	7.45e-01	0	46	104	659554304	82	28035
2026-01-25 04:00:18.56	242.66	2.74	-55.4	-73.2	3.8	7.44e-01	0	46	104	659554304	82	27998
2026-01-25 04:00:21.58	242.54	2.54	-55.4	-73.2	3.8	7.43e-01	0	46	104	659554304	82	27847
2026-01-25 04:00:24.61	242.41	2.35	-55.4	-73.2	3.8	7.41e-01	0	46	104	659554304	82	27863
2026-01-25 04:00:27.63	242.29	2.15	-55.4	-73.2	3.8	7.48e-01	0	46	104	659554304	82	27857
2026-01-25 04:00:30.66	242.17	1.96	-55.3	-73.2	3.8	7.44e-01	0	46	104	659554304	82	27819

#Closed at: 2026-01-25 04:00:33
#Recorded file [659 MB]: D:/lorett/data/31041_260125_064812.dat