passes_logs/2026/01/25/R3.2S_Murmansk/R3.2S_Murmansk__20260125_091132_NOAA_21_JPSS-2_rec.log

#Pass ID: 20260125_091132_NOAA 21 (JPSS-2)
#Satellite: NOAA 21 (JPSS-2)
#Configuration: NOAA-21
#almurnet v.1.7.20251203
#Start time: 2026-01-25 09:11:34

#Version: 2.2.20231116
#Station: R3.2S_Murmansk
#Location: 33.079688 lon 68.888172 lat
#TLE: 1 54234U 22150A   26024.88063640  .00000198  00000+0  11499-3 0  9991
#TLE: 2 54234  98.7509 325.6613 0000743 218.4833 141.6291 14.19538975166219

#Time	Az	El	Level	Level2	SNR	BER	BlckErr	Temp	State	Recorded	gain1	gain2
2026-01-25 09:11:34.29	143.76	2.10	-52.1	-64.8	3.8	1.49e+00	0	42	0	0	76	14973
2026-01-25 09:11:38.24	143.73	2.35	-52.1	-64.8	3.8	1.49e+00	0	42	104	0	74	16696
2026-01-25 09:11:42.19	143.71	2.61	-52.0	-64.7	3.8	1.49e+00	0	42	104	0	74	16693
2026-01-25 09:11:46.15	143.68	2.87	-52.0	-64.6	3.8	1.49e+00	0	42	104	0	74	16455
2026-01-25 09:11:50.11	143.66	3.13	-52.0	-63.9	3.8	1.49e+00	0	43	104	0	74	15059
2026-01-25 09:11:54.06	143.63	3.40	-51.9	-62.9	3.8	1.49e+00	0	43	104	0	74	13555
2026-01-25 09:11:58.03	143.61	3.67	-51.9	-63.0	3.8	1.49e+00	0	43	104	0	74	13708
2026-01-25 09:12:01.99	143.58	3.94	-50.7	-56.2	7.3	1.51e-01	0	43	0	5242880	73	6601
2026-01-25 09:12:05.93	143.55	4.21	-47.8	-50.1	13.6	2.28e-05	0	43	0	17825792	67	4604
2026-01-25 09:12:09.89	143.52	4.49	-45.4	-46.9	16.9	0.00e+00	0	43	0	30408704	62	4256
2026-01-25 09:12:13.86	143.49	4.77	-45.0	-46.4	17.3	0.00e+00	0	43	0	41943040	61	4253
2026-01-25 09:12:17.81	143.46	5.05	-46.6	-48.4	15.3	0.00e+00	0	43	0	54525952	63	4793
2026-01-25 09:12:21.76	143.43	5.33	-46.8	-48.6	15.0	4.12e-02	0	43	0	63963136	65	4362
2026-01-25 09:12:25.72	143.39	5.62	-45.3	-46.6	17.2	0.00e+00	0	43	0	76546048	62	4141
2026-01-25 09:12:29.68	143.36	5.91	-44.9	-46.2	17.7	0.00e+00	0	43	0	88080384	61	4178
2026-01-25 09:12:33.64	143.33	6.21	-44.8	-46.1	17.9	0.00e+00	0	43	0	100663296	61	4132
2026-01-25 09:12:37.59	143.29	6.50	-44.7	-45.9	18.1	0.00e+00	0	43	0	113246208	61	4048
2026-01-25 09:12:41.55	143.25	6.80	-44.4	-45.6	18.4	0.00e+00	0	43	0	125829120	60	4111
2026-01-25 09:12:45.50	143.22	7.11	-44.5	-45.7	18.4	0.00e+00	0	43	0	138412032	60	4150
2026-01-25 09:12:49.47	143.18	7.42	-44.3	-45.5	18.6	0.00e+00	0	43	0	149946368	60	4072
2026-01-25 09:12:53.44	143.14	7.73	-44.4	-45.6	18.6	0.00e+00	0	44	0	162529280	60	4107
2026-01-25 09:12:57.39	143.10	8.05	-44.3	-45.4	18.7	0.00e+00	0	43	0	175112192	60	4029
2026-01-25 09:13:01.34	143.05	8.37	-44.0	-45.1	19.0	0.00e+00	0	43	0	187695104	60	3901
2026-01-25 09:13:05.29	143.01	8.69	-44.3	-45.4	19.1	0.00e+00	0	43	0	200278016	59	4267
2026-01-25 09:13:09.24	142.97	9.02	-44.2	-45.3	19.2	0.00e+00	0	44	0	211812352	59	4237
2026-01-25 09:13:13.20	142.92	9.35	-44.0	-45.1	19.4	0.00e+00	0	44	0	224395264	59	4131
2026-01-25 09:13:17.15	142.87	9.69	-44.0	-45.1	19.5	0.00e+00	0	44	0	236978176	59	4118
2026-01-25 09:13:21.11	142.83	10.03	-43.7	-44.8	19.8	0.00e+00	0	44	0	249561088	59	3966
2026-01-25 09:13:25.07	142.77	10.38	-43.7	-44.8	19.9	0.00e+00	0	43	0	262144000	59	3959
2026-01-25 09:13:29.02	142.72	10.73	-43.5	-44.5	20.0	0.00e+00	0	44	0	273678336	59	3868
2026-01-25 09:13:32.98	142.67	11.09	-43.5	-44.5	20.1	0.00e+00	0	43	0	286261248	58	4065
2026-01-25 09:13:36.93	142.61	11.45	-43.4	-44.4	20.2	0.00e+00	0	44	0	298844160	58	4019
2026-01-25 09:13:40.88	142.56	11.81	-43.3	-44.3	20.3	0.00e+00	0	44	0	311427072	58	3974
2026-01-25 09:13:44.85	142.50	12.19	-43.2	-44.2	20.5	0.00e+00	0	44	0	324009984	58	3922
2026-01-25 09:13:48.81	142.44	12.57	-42.9	-43.9	20.8	0.00e+00	0	44	0	336592896	57	4010
2026-01-25 09:13:52.75	142.38	12.95	-43.0	-43.9	20.7	0.00e+00	0	44	0	348127232	57	4039
2026-01-25 09:13:56.71	142.31	13.34	-42.8	-43.7	20.9	0.00e+00	0	44	0	360710144	57	3947
2026-01-25 09:14:00.67	142.25	13.74	-42.8	-43.8	20.9	0.00e+00	0	44	0	373293056	57	3962
2026-01-25 09:14:04.63	142.18	14.14	-42.8	-43.8	20.9	0.00e+00	0	44	0	385875968	57	3959
2026-01-25 09:14:08.58	142.11	14.55	-42.9	-43.9	20.8	0.00e+00	0	44	0	397410304	57	4009
2026-01-25 09:14:12.54	142.03	14.97	-42.8	-43.7	21.0	0.00e+00	0	44	0	409993216	57	3947
2026-01-25 09:14:16.50	141.96	15.39	-42.9	-43.9	20.9	0.00e+00	0	44	0	422576128	57	4006
2026-01-25 09:14:20.46	141.88	15.82	-43.0	-43.9	20.8	0.00e+00	0	44	0	435159040	57	4021
2026-01-25 09:14:24.43	141.80	16.27	-43.0	-43.9	20.8	0.00e+00	0	44	0	447741952	57	4048
2026-01-25 09:14:28.40	141.71	16.71	-43.0	-44.0	20.8	0.00e+00	0	44	0	460324864	57	4057
2026-01-25 09:14:32.36	141.63	17.17	-43.2	-44.1	20.6	0.00e+00	0	44	0	471859200	57	4124
2026-01-25 09:14:36.34	141.54	17.64	-43.2	-44.2	20.6	0.00e+00	0	44	0	484442112	57	4161
2026-01-25 09:14:40.30	141.44	18.11	-43.2	-44.1	20.7	0.00e+00	0	44	0	497025024	57	4141
2026-01-25 09:14:44.27	141.35	18.60	-43.2	-44.2	20.7	0.00e+00	0	44	0	509607936	57	4174
2026-01-25 09:14:48.24	141.25	19.09	-43.2	-44.2	20.7	0.00e+00	0	44	0	522190848	57	4146
2026-01-25 09:14:52.21	141.14	19.59	-43.1	-44.0	20.9	0.00e+00	0	44	0	533725184	57	4069
2026-01-25 09:14:56.17	141.04	20.11	-43.0	-43.9	21.0	0.00e+00	0	44	0	546308096	57	4015
2026-01-25 09:15:00.13	140.92	20.63	-42.5	-43.4	21.5	0.00e+00	0	44	0	558891008	57	3787
2026-01-25 09:15:04.10	140.81	21.16	-42.2	-43.0	21.8	0.00e+00	0	44	0	571473920	56	3868
2026-01-25 09:15:08.06	140.69	21.71	-42.0	-42.8	22.0	0.00e+00	0	44	0	584056832	56	3757
2026-01-25 09:15:12.03	140.56	22.27	-41.6	-42.4	22.3	0.00e+00	0	44	0	595591168	55	3781
2026-01-25 09:15:15.99	140.43	22.84	-41.4	-42.2	22.4	0.00e+00	0	44	0	608174080	54	3918
2026-01-25 09:15:19.97	140.29	23.42	-41.1	-41.9	22.6	0.00e+00	0	44	0	620756992	54	3802
2026-01-25 09:15:23.93	140.15	24.02	-41.2	-41.9	22.6	0.00e+00	0	44	0	633339904	54	3815
2026-01-25 09:15:27.90	140.00	24.63	-41.4	-42.1	22.5	0.00e+00	0	44	0	645922816	54	3912
2026-01-25 09:15:31.88	139.85	25.26	-41.7	-42.5	22.2	0.00e+00	0	44	0	657457152	54	4073
2026-01-25 09:15:35.85	139.68	25.90	-41.9	-42.7	22.1	0.00e+00	0	44	0	670040064	54	4191
2026-01-25 09:15:39.82	139.51	26.55	-42.2	-43.1	21.8	0.00e+00	0	44	0	682622976	55	4109
2026-01-25 09:15:43.80	139.34	27.22	-42.7	-43.5	21.4	0.00e+00	0	44	0	695205888	55	4328
2026-01-25 09:15:47.78	139.15	27.91	-43.0	-43.8	21.2	0.00e+00	0	44	0	707788800	56	4239
2026-01-25 09:15:51.76	138.96	28.62	-43.0	-43.9	21.1	0.00e+00	0	44	0	720371712	56	4279
2026-01-25 09:15:55.74	138.75	29.34	-43.0	-43.9	21.1	0.00e+00	0	44	0	732954624	56	4247
2026-01-25 09:15:59.72	138.54	30.09	-42.4	-43.2	21.7	0.00e+00	0	44	0	745537536	56	3951
2026-01-25 09:16:03.70	138.31	30.85	-42.3	-43.2	21.8	0.00e+00	0	44	0	758120448	56	3922
2026-01-25 09:16:07.68	138.07	31.63	-42.2	-43.0	22.0	0.00e+00	0	44	0	769654784	56	3859
2026-01-25 09:16:11.66	137.83	32.44	-42.4	-43.2	21.8	0.00e+00	0	44	0	782237696	56	3949
2026-01-25 09:16:15.66	137.56	33.26	-42.8	-43.6	21.5	0.00e+00	0	44	0	794820608	56	4139
2026-01-25 09:16:19.64	137.28	34.11	-43.1	-44.0	21.1	0.00e+00	0	44	0	807403520	56	4337
2026-01-25 09:16:23.63	136.99	34.98	-43.4	-44.4	20.9	0.00e+00	0	44	0	819986432	57	4244
2026-01-25 09:16:27.62	136.68	35.88	-44.0	-44.9	20.4	0.00e+00	0	44	0	832569344	58	4281
2026-01-25 09:16:31.61	136.35	36.80	-44.3	-45.3	20.0	0.00e+00	0	44	0	845152256	59	4229
2026-01-25 09:16:35.60	136.00	37.74	-44.4	-45.4	19.9	0.00e+00	0	44	0	857735168	59	4274
2026-01-25 09:16:39.58	135.63	38.71	-44.2	-45.2	20.2	0.00e+00	0	44	0	869269504	59	4161
2026-01-25 09:16:43.57	135.23	39.71	-44.5	-45.5	19.9	0.00e+00	0	44	0	881852416	59	4322
2026-01-25 09:16:47.54	134.81	40.73	-44.6	-45.7	19.4	0.00e+00	0	44	0	894435328	60	4175
2026-01-25 09:16:51.53	134.36	41.78	-44.6	-45.7	19.4	0.00e+00	0	44	0	907018240	60	4170
2026-01-25 09:16:55.52	133.88	42.87	-45.1	-46.3	18.9	0.00e+00	0	44	0	919601152	60	4447
2026-01-25 09:16:59.51	133.36	43.98	-44.9	-45.9	19.1	0.00e+00	0	44	0	932184064	61	4049
2026-01-25 09:17:03.50	132.81	45.12	-45.2	-46.3	18.9	0.00e+00	0	44	0	944766976	61	4210
2026-01-25 09:17:07.50	132.21	46.29	-44.7	-45.7	19.3	0.00e+00	0	44	0	957349888	61	3943
2026-01-25 09:17:11.50	131.56	47.50	-44.2	-45.2	20.2	0.00e+00	0	44	0	969932800	59	4159
2026-01-25 09:17:15.50	130.85	48.73	-44.5	-45.5	19.7	0.00e+00	0	44	0	982515712	59	4335
2026-01-25 09:17:19.49	130.09	50.00	-44.0	-45.0	20.4	0.00e+00	0	44	0	994050048	59	4068
2026-01-25 09:17:23.49	129.26	51.29	-44.4	-45.4	20.1	0.00e+00	0	44	0	1006632960	59	4246
2026-01-25 09:17:27.49	128.35	52.62	-43.9	-44.8	20.6	0.00e+00	0	44	0	1019215872	59	4003
2026-01-25 09:17:31.48	127.36	53.97	-43.9	-44.9	20.6	0.00e+00	0	44	0	1031798784	59	4013
2026-01-25 09:17:35.47	126.26	55.34	-42.8	-43.7	21.6	0.00e+00	0	44	0	1044381696	57	3937
2026-01-25 09:17:39.47	125.05	56.74	-41.8	-42.6	22.4	0.00e+00	0	44	0	1056964608	55	3870
2026-01-25 09:17:43.47	123.71	58.17	-42.0	-42.8	22.1	0.00e+00	0	44	0	1069547520	54	4205
2026-01-25 09:17:47.49	122.20	59.62	-42.0	-42.8	22.3	0.00e+00	0	44	0	1082130432	54	4215
2026-01-25 09:17:51.50	120.52	61.08	-41.7	-42.5	22.6	0.00e+00	0	44	0	1094713344	54	4068
2026-01-25 09:17:55.51	118.63	62.55	-41.5	-42.3	22.7	0.00e+00	0	44	0	1107296256	54	3967
2026-01-25 09:17:59.53	116.48	64.02	-41.2	-41.9	23.0	0.00e+00	0	44	0	1119879168	53	4050
2026-01-25 09:18:03.55	114.04	65.48	-41.3	-42.0	22.8	0.00e+00	0	44	0	1132462080	53	4079
2026-01-25 09:18:07.57	111.26	66.93	-41.5	-42.2	22.7	0.00e+00	0	44	0	1145044992	53	4192
2026-01-25 09:18:11.60	108.07	68.34	-41.1	-41.8	23.0	0.00e+00	0	44	0	1157627904	53	3985
2026-01-25 09:18:15.62	104.40	69.71	-41.0	-41.8	23.1	0.00e+00	0	44	0	1170210816	53	3969
2026-01-25 09:18:19.65	100.17	71.00	-40.7	-41.4	23.3	0.00e+00	0	44	0	1182793728	53	3822
2026-01-25 09:18:23.67	95.32	72.19	-40.4	-41.1	23.2	0.00e+00	0	44	0	1194328064	52	3895
2026-01-25 09:18:27.70	89.75	73.26	-41.1	-41.9	23.0	0.00e+00	0	44	0	1207959552	52	4243
2026-01-25 09:18:31.73	83.45	74.17	-41.4	-42.2	22.8	0.00e+00	0	44	0	1220542464	53	4171
2026-01-25 09:18:35.75	76.47	74.87	-41.7	-42.5	22.5	0.00e+00	0	44	0	1233125376	54	4068
2026-01-25 09:18:39.77	68.90	75.34	-41.3	-42.1	23.0	0.00e+00	0	44	0	1244659712	54	3875
2026-01-25 09:18:43.80	60.94	75.54	-41.8	-42.6	22.5	0.00e+00	0	44	0	1258291200	54	4101
2026-01-25 09:18:47.82	52.92	75.48	-41.7	-42.5	22.4	0.00e+00	0	44	0	1270874112	55	3857
2026-01-25 09:18:51.84	45.13	75.14	-41.9	-42.6	22.6	0.00e+00	0	44	0	1283457024	54	4141
2026-01-25 09:18:55.83	37.88	74.56	-41.9	-42.7	22.6	0.00e+00	0	44	0	1294991360	54	4168
2026-01-25 09:18:59.84	31.24	73.76	-41.3	-42.0	23.0	0.00e+00	0	44	0	1307574272	54	3859
2026-01-25 09:19:03.86	25.31	72.78	-41.6	-42.3	22.8	0.00e+00	0	44	0	1320157184	54	3983
2026-01-25 09:19:07.88	20.10	71.65	-41.3	-42.1	22.9	0.00e+00	0	44	0	1332740096	53	4101
2026-01-25 09:19:11.92	15.53	70.40	-41.6	-42.3	22.8	0.00e+00	0	44	0	1345323008	54	3993
2026-01-25 09:19:15.94	11.58	69.08	-41.6	-42.4	22.8	0.00e+00	0	44	0	1357905920	53	4271
2026-01-25 09:19:19.93	8.18	67.70	-40.7	-41.4	23.4	0.00e+00	0	44	0	1370488832	53	3812
2026-01-25 09:19:23.94	5.20	66.28	-42.3	-43.1	21.9	0.00e+00	0	44	0	1383071744	55	4143
2026-01-25 09:19:27.94	2.60	64.83	-40.9	-41.6	23.1	0.00e+00	0	44	0	1395654656	53	3890
2026-01-25 09:19:31.92	0.32	63.38	-41.7	-42.5	22.1	0.00e+00	0	44	0	1408237568	55	3831
2026-01-25 09:19:35.91	358.31	61.92	-40.6	-41.3	23.4	0.00e+00	0	44	0	1420820480	53	3758
2026-01-25 09:19:39.90	356.52	60.46	-42.4	-43.2	20.4	0.00e+00	0	44	0	1433403392	55	4168
2026-01-25 09:19:43.90	354.93	59.02	-41.9	-42.6	22.1	0.00e+00	0	44	0	1445986304	54	4145
2026-01-25 09:19:47.92	353.49	57.58	-44.5	-45.6	19.5	0.00e+00	0	44	0	1458569216	59	4375
2026-01-25 09:19:51.95	352.20	56.15	-41.9	-42.6	22.0	0.00e+00	0	44	0	1471152128	55	3910
2026-01-25 09:19:55.98	351.03	54.75	-44.1	-45.1	20.4	0.00e+00	0	44	0	1483735040	58	4370
2026-01-25 09:20:00.01	349.97	53.38	-44.1	-45.0	20.4	0.00e+00	0	44	0	1496317952	59	4082
2026-01-25 09:20:04.05	349.01	52.03	-43.6	-44.5	20.8	0.00e+00	0	44	0	1508900864	58	4091
2026-01-25 09:20:08.08	348.13	50.71	-44.6	-45.6	19.3	0.00e+00	0	44	0	1521483776	60	4119
2026-01-25 09:20:12.12	347.33	49.42	-44.0	-44.9	20.6	0.00e+00	0	44	0	1534066688	59	4044
2026-01-25 09:20:16.15	346.59	48.16	-44.2	-45.2	20.0	0.00e+00	0	44	0	1546649600	60	3918
2026-01-25 09:20:20.18	345.91	46.94	-44.8	-45.8	19.5	0.00e+00	0	44	0	1559232512	60	4242
2026-01-25 09:20:24.22	345.28	45.74	-43.6	-44.5	20.3	0.00e+00	0	44	0	1571815424	59	3854
2026-01-25 09:20:28.25	344.70	44.58	-44.8	-45.8	19.4	0.00e+00	0	44	0	1584398336	60	4240
2026-01-25 09:20:32.28	344.16	43.44	-44.6	-45.6	19.6	0.00e+00	0	44	0	1596981248	60	4122
2026-01-25 09:20:36.31	343.66	42.34	-44.8	-45.9	19.4	0.00e+00	0	44	0	1609564160	60	4266
2026-01-25 09:20:40.34	343.19	41.26	-44.3	-45.3	19.5	0.00e+00	0	44	0	1622147072	59	4208
2026-01-25 09:20:44.38	342.75	40.21	-44.3	-45.3	20.1	0.00e+00	0	44	0	1634729984	59	4207
2026-01-25 09:20:48.41	342.34	39.20	-44.5	-45.6	20.0	0.00e+00	0	44	0	1647312896	59	4350
2026-01-25 09:20:52.44	341.96	38.21	-44.7	-45.7	19.4	0.00e+00	0	44	0	1659895808	60	4186
2026-01-25 09:20:56.47	341.60	37.24	-44.3	-45.4	19.8	0.00e+00	0	44	0	1672478720	60	4005
2026-01-25 09:21:00.50	341.26	36.31	-44.2	-45.2	19.9	0.00e+00	0	45	0	1685061632	60	3933
2026-01-25 09:21:04.53	340.94	35.40	-43.7	-44.7	20.8	0.00e+00	0	44	0	1697644544	59	3919
2026-01-25 09:21:08.57	340.64	34.51	-43.8	-44.7	20.7	0.00e+00	0	44	0	1710227456	59	3948
2026-01-25 09:21:12.60	340.35	33.64	-44.2	-45.2	20.2	0.00e+00	0	44	0	1722810368	59	4181
2026-01-25 09:21:16.64	340.08	32.80	-43.6	-44.5	20.6	0.00e+00	0	44	0	1735393280	59	3862
2026-01-25 09:21:20.67	339.82	31.98	-43.1	-43.9	21.0	0.00e+00	0	44	0	1747976192	58	3818
2026-01-25 09:21:24.71	339.58	31.18	-42.5	-43.3	21.7	0.00e+00	0	44	0	1760559104	56	3975
2026-01-25 09:21:28.74	339.35	30.41	-42.0	-42.8	22.2	0.00e+00	0	44	0	1773142016	56	3753
2026-01-25 09:21:32.78	339.13	29.65	-41.9	-42.7	22.2	0.00e+00	0	44	0	1785724928	55	3933
2026-01-25 09:21:36.81	338.92	28.91	-42.0	-42.8	22.1	0.00e+00	0	45	0	1798307840	55	3990
2026-01-25 09:21:40.84	338.72	28.19	-41.9	-42.7	22.2	0.00e+00	0	44	0	1810890752	55	3925
2026-01-25 09:21:44.88	338.53	27.49	-42.0	-42.8	22.1	0.00e+00	0	44	0	1823473664	55	3967
2026-01-25 09:21:48.91	338.35	26.81	-42.2	-43.0	21.8	0.00e+00	0	44	0	1836056576	55	4064
2026-01-25 09:21:52.94	338.18	26.14	-42.3	-43.1	21.7	0.00e+00	0	44	0	1848639488	55	4117
2026-01-25 09:21:56.98	338.02	25.49	-42.3	-43.2	21.6	0.00e+00	0	44	0	1861222400	55	4160
2026-01-25 09:22:01.01	337.86	24.85	-42.4	-43.2	21.5	0.00e+00	0	44	0	1873805312	55	4174
2026-01-25 09:22:05.05	337.71	24.23	-42.3	-43.1	21.4	0.00e+00	0	44	0	1886388224	55	4139
2026-01-25 09:22:09.08	337.56	23.62	-42.2	-43.0	21.5	0.00e+00	0	44	0	1898971136	55	4083
2026-01-25 09:22:13.11	337.43	23.03	-42.1	-43.0	21.6	0.00e+00	0	44	0	1911554048	55	4063
2026-01-25 09:22:17.14	337.29	22.45	-42.0	-42.8	21.8	0.00e+00	0	44	0	1924136960	55	3981
2026-01-25 09:22:21.18	337.17	21.88	-41.7	-42.5	22.1	0.00e+00	0	44	0	1936719872	55	3860
2026-01-25 09:22:25.21	337.04	21.32	-41.7	-42.5	22.2	0.00e+00	0	44	0	1950351360	55	3836
2026-01-25 09:22:29.24	336.93	20.78	-41.7	-42.5	22.1	0.00e+00	0	44	0	1961885696	55	3863
2026-01-25 09:22:33.27	336.81	20.25	-41.7	-42.5	22.1	0.00e+00	0	45	0	1974468608	55	3860
2026-01-25 09:22:37.30	336.71	19.72	-41.9	-42.7	22.0	0.00e+00	0	45	0	1988100096	55	3948
2026-01-25 09:22:41.34	336.60	19.21	-42.1	-42.9	21.9	0.00e+00	0	44	0	1999634432	55	4024
2026-01-25 09:22:45.37	336.50	18.71	-42.3	-43.2	21.6	0.00e+00	0	44	0	2012217344	55	4147
2026-01-25 09:22:49.40	336.40	18.22	-42.4	-43.3	21.5	0.00e+00	0	45	0	2025848832	55	4202
2026-01-25 09:22:53.44	336.31	17.74	-42.5	-43.4	21.3	0.00e+00	0	44	0	2038431744	55	4270
2026-01-25 09:22:57.47	336.22	17.27	-42.9	-43.9	21.0	0.00e+00	0	44	0	2049966080	56	4251
2026-01-25 09:23:01.50	336.14	16.81	-43.0	-44.0	20.9	0.00e+00	0	44	0	2063597568	56	4298
2026-01-25 09:23:05.53	336.05	16.35	-43.1	-44.0	20.8	0.00e+00	0	45	0	2076180480	56	4325
2026-01-25 09:23:09.57	335.97	15.90	-43.2	-44.1	20.7	0.00e+00	0	45	0	2088763392	57	4137
2026-01-25 09:23:13.60	335.89	15.47	-43.1	-44.1	20.8	0.00e+00	0	45	0	2101346304	57	4109
2026-01-25 09:23:17.63	335.82	15.03	-43.2	-44.2	20.7	0.00e+00	0	45	0	2113929216	57	4150
2026-01-25 09:23:21.66	335.75	14.61	-43.3	-44.3	20.5	0.00e+00	0	45	0	2126512128	57	4210
2026-01-25 09:23:25.69	335.68	14.20	-43.2	-44.1	20.6	0.00e+00	0	45	0	2139095040	57	4145
2026-01-25 09:23:29.73	335.61	13.79	-43.3	-44.3	20.5	0.00e+00	0	45	0	2151677952	57	4194
2026-01-25 09:23:33.77	335.55	13.38	-43.4	-44.4	20.4	0.00e+00	0	45	0	2164260864	57	4243
2026-01-25 09:23:37.80	335.48	12.99	-43.3	-44.3	20.5	0.00e+00	0	45	0	2176843776	57	4201
2026-01-25 09:23:41.83	335.42	12.60	-43.3	-44.3	20.4	0.00e+00	0	45	0	2189426688	57	4211
2026-01-25 09:23:45.86	335.36	12.21	-43.5	-44.4	20.2	0.00e+00	0	44	0	2202009600	57	4282
2026-01-25 09:23:49.89	335.31	11.84	-43.5	-44.5	20.2	0.00e+00	0	45	0	2214592512	57	4323
2026-01-25 09:23:53.92	335.25	11.46	-43.6	-44.6	20.0	0.00e+00	0	44	0	2227175424	57	4388
2026-01-25 09:23:57.96	335.20	11.10	-43.8	-44.8	19.8	0.00e+00	0	45	0	2239758336	58	4238
2026-01-25 09:24:01.99	335.15	10.74	-43.7	-44.8	19.9	0.00e+00	0	45	0	2252341248	58	4199
2026-01-25 09:24:06.02	335.10	10.38	-43.9	-45.0	19.6	0.00e+00	0	45	0	2264924160	58	4304
2026-01-25 09:24:10.06	335.05	10.03	-44.0	-45.0	19.6	0.00e+00	0	45	0	2277507072	58	4320
2026-01-25 09:24:14.08	335.00	9.68	-43.9	-45.0	19.6	0.00e+00	0	45	0	2290089984	58	4315
2026-01-25 09:24:18.12	334.96	9.34	-44.1	-45.2	19.4	0.00e+00	0	45	0	2302672896	58	4397
2026-01-25 09:24:22.15	334.91	9.00	-44.1	-45.2	19.4	0.00e+00	0	45	0	2315255808	59	4150
2026-01-25 09:24:26.18	334.87	8.67	-44.2	-45.3	19.2	0.00e+00	0	45	0	2327838720	59	4202
2026-01-25 09:24:30.21	334.83	8.35	-44.4	-45.5	19.0	0.00e+00	0	45	0	2340421632	59	4312
2026-01-25 09:24:34.26	334.79	8.02	-44.5	-45.7	18.9	0.00e+00	0	45	0	2353004544	59	4408
2026-01-25 09:24:38.29	334.75	7.70	-44.6	-45.8	18.7	0.00e+00	0	45	0	2365587456	59	4470
2026-01-25 09:24:42.33	334.71	7.38	-44.4	-45.6	18.6	0.00e+00	0	45	0	2378170368	60	4110
2026-01-25 09:24:46.36	334.68	7.07	-44.7	-45.9	18.2	0.00e+00	0	45	0	2390753280	60	4263
2026-01-25 09:24:50.39	334.64	6.76	-44.5	-45.7	18.3	0.00e+00	0	44	0	2403336192	60	4183
2026-01-25 09:24:54.42	334.61	6.46	-44.8	-46.0	18.1	0.00e+00	0	44	0	2415919104	60	4320
2026-01-25 09:24:58.46	334.57	6.16	-44.8	-46.0	18.0	0.00e+00	0	45	0	2428502016	60	4333
2026-01-25 09:25:02.49	334.54	5.86	-44.9	-46.2	17.7	0.00e+00	0	45	0	2441084928	60	4429
2026-01-25 09:25:06.51	334.51	5.57	-45.2	-46.5	17.4	0.00e+00	0	44	0	2453667840	61	4319
2026-01-25 09:25:10.55	334.48	5.28	-45.0	-46.4	17.1	0.00e+00	0	44	0	2466250752	61	4278
2026-01-25 09:25:14.58	334.45	4.99	-49.9	-53.8	10.3	9.10e-06	0	45	0	2478833664	70	5963
2026-01-25 09:25:18.61	334.43	4.70	-53.4	-66.2	3.8	1.49e+00	0	45	104	2478833664	77	16552
2026-01-25 09:25:22.64	334.40	4.42	-53.9	-66.6	3.8	1.49e+00	0	45	104	2478833664	78	16501
2026-01-25 09:25:26.68	334.37	4.14	-54.2	-66.9	3.8	1.49e+00	0	45	104	2478833664	78	17036
2026-01-25 09:25:30.73	334.35	3.86	-54.2	-67.0	3.8	1.49e+00	0	45	104	2478833664	79	16236
2026-01-25 09:25:34.76	334.32	3.59	-54.3	-67.0	3.8	1.49e+00	0	45	104	2478833664	79	16275
2026-01-25 09:25:38.79	334.30	3.32	-54.2	-66.9	3.8	1.49e+00	0	45	104	2478833664	79	16103
2026-01-25 09:25:42.83	334.27	3.05	-54.1	-66.9	3.8	1.49e+00	0	45	104	2478833664	79	15954
2026-01-25 09:25:46.86	334.25	2.79	-54.1	-66.8	3.8	1.49e+00	0	45	104	2478833664	79	15898
2026-01-25 09:25:50.89	334.23	2.52	-54.1	-66.8	3.8	1.49e+00	0	45	104	2478833664	79	15873
2026-01-25 09:25:54.92	334.21	2.26	-54.0	-66.8	3.8	1.49e+00	0	45	104	2478833664	79	15802
2026-01-25 09:25:58.97	334.19	2.00	-54.0	-66.8	3.8	1.49e+00	0	45	104	2478833664	79	15782

#Closed at: 2026-01-25 09:26:01
#Recorded file [2478 MB]: D:/lorett/data/31041_260125_121134.dat