passes_logs/2026/01/25/R3.2S_Murmansk/R3.2S_Murmansk__20260125_062243_SUOMI_NPP_rec.log

#Pass ID: 20260125_062243_SUOMI NPP
#Satellite: SUOMI NPP
#Configuration: NPP
#almurnet v.1.7.20251203
#Start time: 2026-01-25 06:22:44

#Version: 2.2.20231116
#Station: R3.2S_Murmansk
#Location: 33.079688 lon 68.888172 lat
#TLE: 1 37849U 11061A   26024.97198022  .00000188  00000+0  11029-3 0  9994
#TLE: 2 37849  98.7821 326.9352 0002187  46.6646 313.4712 14.19529581738125

#Time	Az	El	Level	Level2	SNR	BER	BlckErr	Temp	State	Recorded	gain1	gain2
2026-01-25 06:22:44.23	81.30	2.02	-52.2	-67.1	3.8	1.49e+00	0	42	0	0	76	19577
2026-01-25 06:22:48.26	81.06	2.26	-52.2	-67.1	3.8	1.49e+00	0	43	104	0	74	21903
2026-01-25 06:22:52.30	80.81	2.50	-52.2	-67.1	3.8	1.49e+00	0	43	104	0	74	21853
2026-01-25 06:22:56.33	80.57	2.73	-52.1	-67.1	3.8	1.49e+00	0	43	104	0	74	21772
2026-01-25 06:23:00.37	80.32	2.97	-52.1	-67.1	3.8	1.49e+00	0	43	104	0	74	21862
2026-01-25 06:23:04.40	80.06	3.21	-52.1	-67.0	3.8	1.49e+00	0	43	104	0	74	21739
2026-01-25 06:23:08.44	79.80	3.45	-52.2	-67.1	3.8	1.49e+00	0	43	104	0	74	21909
2026-01-25 06:23:12.47	79.54	3.70	-52.1	-67.0	3.8	1.49e+00	0	43	104	0	74	21586
2026-01-25 06:23:16.50	79.27	3.94	-52.2	-67.0	3.8	1.49e+00	0	43	104	0	74	21706
2026-01-25 06:23:20.54	78.99	4.19	-52.1	-65.2	3.8	1.49e+00	0	43	104	0	74	17543
2026-01-25 06:23:24.57	78.72	4.44	-51.9	-64.0	4.1	1.43e+00	0	44	0	0	74	15244
2026-01-25 06:23:28.60	78.43	4.69	-51.1	-57.6	8.2	1.03e-01	0	43	0	5242880	74	7348
2026-01-25 06:23:32.64	78.14	4.94	-49.2	-52.5	13.5	3.50e-05	0	43	0	12582912	70	5133
2026-01-25 06:23:36.67	77.85	5.19	-50.3	-55.2	11.2	2.20e-06	0	44	0	19922944	71	6628
2026-01-25 06:23:40.71	77.55	5.45	-47.9	-50.5	15.4	0.00e+00	0	44	0	27262976	67	4839
2026-01-25 06:23:44.74	77.24	5.70	-47.6	-50.0	16.1	0.00e+00	0	44	0	34603008	67	4552
2026-01-25 06:23:48.77	76.93	5.96	-47.1	-49.2	16.8	0.00e+00	0	44	0	42991616	65	4700
2026-01-25 06:23:52.80	76.62	6.22	-47.3	-49.6	16.4	0.00e+00	0	44	0	50331648	65	4898
2026-01-25 06:23:56.83	76.30	6.48	-47.2	-49.5	16.7	0.00e+00	0	44	0	57671680	65	4820
2026-01-25 06:24:00.87	75.97	6.75	-47.2	-49.4	16.7	0.00e+00	0	44	0	65011712	65	4804
2026-01-25 06:24:04.90	75.63	7.01	-47.1	-49.3	16.8	0.00e+00	0	44	0	72351744	65	4717
2026-01-25 06:24:08.93	75.29	7.28	-47.2	-49.3	16.9	0.00e+00	0	44	0	80740352	65	4745
2026-01-25 06:24:12.96	74.94	7.55	-46.9	-49.0	17.2	0.00e+00	0	44	0	88080384	65	4568
2026-01-25 06:24:16.99	74.59	7.82	-47.0	-49.0	17.2	0.00e+00	0	44	0	95420416	65	4585
2026-01-25 06:24:21.02	74.23	8.09	-47.1	-49.1	17.1	0.00e+00	0	44	0	102760448	65	4633
2026-01-25 06:24:25.05	73.86	8.37	-47.5	-49.7	16.6	0.00e+00	0	44	0	111149056	65	4969
2026-01-25 06:24:29.09	73.48	8.64	-47.3	-49.6	16.7	0.00e+00	0	44	0	118489088	65	4878
2026-01-25 06:24:33.12	73.10	8.92	-47.4	-49.6	16.7	0.00e+00	0	44	0	125829120	65	4908
2026-01-25 06:24:37.15	72.71	9.20	-47.0	-49.1	17.1	0.00e+00	0	44	0	133169152	65	4643
2026-01-25 06:24:41.18	72.31	9.48	-46.4	-48.3	18.0	0.00e+00	0	44	0	140509184	64	4453
2026-01-25 06:24:45.21	71.91	9.77	-46.7	-48.7	17.6	0.00e+00	0	44	0	147849216	64	4685
2026-01-25 06:24:49.25	71.49	10.05	-46.4	-48.2	18.1	0.00e+00	0	44	0	156237824	64	4433
2026-01-25 06:24:53.28	71.07	10.34	-46.6	-48.5	17.9	0.00e+00	0	44	0	163577856	64	4595
2026-01-25 06:24:57.31	70.64	10.63	-46.7	-48.6	17.8	0.00e+00	0	44	0	170917888	64	4651
2026-01-25 06:25:01.35	70.19	10.92	-46.4	-48.1	18.3	0.00e+00	0	44	0	178257920	64	4381
2026-01-25 06:25:05.38	69.75	11.21	-46.5	-48.3	18.1	0.00e+00	0	44	0	186646528	64	4465
2026-01-25 06:25:09.41	69.29	11.51	-46.8	-48.7	17.8	0.00e+00	0	44	0	193986560	64	4700
2026-01-25 06:25:13.44	68.82	11.80	-46.8	-48.8	17.8	0.00e+00	0	44	0	201326592	64	4713
2026-01-25 06:25:17.48	68.34	12.10	-47.1	-49.2	17.4	0.00e+00	0	44	0	208666624	64	4936
2026-01-25 06:25:21.51	67.85	12.40	-47.1	-49.1	17.4	0.00e+00	0	45	0	216006656	65	4614
2026-01-25 06:25:25.54	67.35	12.70	-46.5	-48.3	18.2	0.00e+00	0	44	0	224395264	64	4464
2026-01-25 06:25:29.57	66.84	13.00	-46.1	-47.8	18.7	0.00e+00	0	45	0	231735296	64	4211
2026-01-25 06:25:33.61	66.32	13.31	-45.5	-47.0	19.5	0.00e+00	0	45	0	239075328	62	4310
2026-01-25 06:25:37.64	65.79	13.61	-45.8	-47.4	19.2	0.00e+00	0	45	0	246415360	62	4516
2026-01-25 06:25:41.67	65.25	13.92	-45.9	-47.4	19.2	0.00e+00	0	45	0	254803968	62	4540
2026-01-25 06:25:45.71	64.69	14.23	-45.8	-47.4	19.2	0.00e+00	0	45	0	262144000	62	4515
2026-01-25 06:25:49.74	64.13	14.53	-45.6	-47.1	19.6	0.00e+00	0	45	0	269484032	62	4341
2026-01-25 06:25:53.78	63.55	14.85	-45.7	-47.2	19.3	0.00e+00	0	45	0	276824064	62	4440
2026-01-25 06:25:57.81	62.96	15.16	-45.7	-47.2	19.4	0.00e+00	0	45	0	284164096	62	4427
2026-01-25 06:26:01.84	62.35	15.47	-45.6	-47.2	19.4	0.00e+00	0	45	0	292552704	62	4396
2026-01-25 06:26:05.88	61.74	15.78	-46.1	-47.8	18.9	0.00e+00	0	45	0	299892736	62	4727
2026-01-25 06:26:09.91	61.11	16.09	-46.1	-47.8	18.8	0.00e+00	0	45	0	307232768	62	4752
2026-01-25 06:26:13.95	60.46	16.41	-46.5	-48.3	18.4	0.00e+00	0	45	0	314572800	63	4743
2026-01-25 06:26:17.98	59.81	16.72	-46.6	-48.5	18.3	0.00e+00	0	45	0	321912832	63	4823
2026-01-25 06:26:22.02	59.13	17.03	-46.3	-48.1	18.6	0.00e+00	0	45	0	330301440	64	4354
2026-01-25 06:26:26.05	58.45	17.35	-46.4	-48.2	18.4	0.00e+00	0	45	0	337641472	64	4423
2026-01-25 06:26:30.09	57.75	17.66	-46.1	-47.7	18.9	0.00e+00	0	45	0	344981504	64	4191
2026-01-25 06:26:34.13	57.03	17.97	-45.9	-47.5	19.2	0.00e+00	0	45	0	352321536	63	4303
2026-01-25 06:26:38.16	56.30	18.28	-46.1	-47.8	19.0	0.00e+00	0	45	0	360710144	63	4451
2026-01-25 06:26:42.20	55.56	18.60	-46.0	-47.7	19.0	0.00e+00	0	45	0	368050176	63	4395
2026-01-25 06:26:46.23	54.80	18.90	-45.9	-47.5	19.3	0.00e+00	0	45	0	375390208	63	4309
2026-01-25 06:26:50.27	54.02	19.21	-46.2	-47.8	19.0	0.00e+00	0	45	0	382730240	63	4479
2026-01-25 06:26:54.31	53.23	19.52	-46.1	-47.7	19.1	0.00e+00	0	45	0	390070272	63	4427
2026-01-25 06:26:58.34	52.42	19.82	-45.8	-47.3	19.4	0.00e+00	0	45	0	398458880	63	4219
2026-01-25 06:27:02.37	51.59	20.12	-45.2	-46.6	20.0	0.00e+00	0	45	0	405798912	62	4141
2026-01-25 06:27:06.41	50.75	20.42	-45.1	-46.5	20.1	0.00e+00	0	45	0	413138944	61	4313
2026-01-25 06:27:10.44	49.89	20.72	-44.8	-46.2	20.5	0.00e+00	0	45	0	420478976	61	4173
2026-01-25 06:27:14.47	49.02	21.01	-44.3	-45.5	21.0	0.00e+00	0	45	0	427819008	60	4083
2026-01-25 06:27:18.50	48.13	21.30	-44.4	-45.7	20.9	0.00e+00	0	45	0	436207616	60	4167
2026-01-25 06:27:22.53	47.22	21.58	-44.5	-45.8	20.8	0.00e+00	0	45	0	443547648	60	4227
2026-01-25 06:27:26.56	46.30	21.86	-44.1	-45.3	21.2	0.00e+00	0	45	0	450887680	60	3999
2026-01-25 06:27:30.59	45.36	22.13	-44.4	-45.7	21.2	0.00e+00	0	45	0	458227712	59	4410
2026-01-25 06:27:34.63	44.40	22.40	-44.6	-45.9	21.1	0.00e+00	0	45	0	465567744	59	4502
2026-01-25 06:27:38.66	43.42	22.66	-44.1	-45.3	21.6	0.00e+00	0	45	0	473956352	59	4228
2026-01-25 06:27:42.69	42.43	22.92	-44.4	-45.6	21.4	0.00e+00	0	45	0	481296384	59	4353
2026-01-25 06:27:46.73	41.42	23.17	-44.4	-45.7	21.3	0.00e+00	0	45	0	488636416	59	4392
2026-01-25 06:27:50.76	40.40	23.41	-44.4	-45.6	21.4	0.00e+00	0	45	0	495976448	59	4351
2026-01-25 06:27:54.79	39.36	23.64	-44.1	-45.3	21.7	0.00e+00	0	45	0	504365056	59	4203
2026-01-25 06:27:58.83	38.31	23.86	-44.1	-45.3	21.4	0.00e+00	0	45	0	511705088	60	3973
2026-01-25 06:28:02.87	37.23	24.08	-44.5	-45.8	21.2	0.00e+00	0	45	0	519045120	59	4448
2026-01-25 06:28:06.90	36.15	24.29	-44.2	-45.4	21.6	0.00e+00	0	45	0	526385152	59	4259
2026-01-25 06:28:10.93	35.05	24.48	-43.9	-45.0	21.9	0.00e+00	0	45	0	533725184	59	4085
2026-01-25 06:28:14.97	33.94	24.67	-43.9	-45.1	21.9	0.00e+00	0	45	0	542113792	59	4109
2026-01-25 06:28:18.99	32.82	24.85	-44.6	-45.8	21.3	0.00e+00	0	45	0	549453824	59	4448
2026-01-25 06:28:23.03	31.68	25.01	-44.8	-46.1	20.8	0.00e+00	0	45	0	556793856	60	4347
2026-01-25 06:28:27.06	30.53	25.17	-46.0	-47.5	19.4	0.00e+00	0	45	0	564133888	62	4591
2026-01-25 06:28:31.09	29.37	25.31	-45.1	-46.5	20.4	0.00e+00	0	45	0	571473920	62	4059
2026-01-25 06:28:35.13	28.20	25.44	-45.5	-47.0	20.0	0.00e+00	0	45	0	579862528	61	4548
2026-01-25 06:28:39.16	27.02	25.55	-45.6	-47.1	19.7	0.00e+00	0	45	0	587202560	62	4350
2026-01-25 06:28:43.19	25.84	25.66	-45.6	-47.1	19.7	0.00e+00	0	45	0	594542592	62	4368
2026-01-25 06:28:47.23	24.64	25.75	-46.1	-47.7	19.2	0.00e+00	0	45	0	601882624	63	4392
2026-01-25 06:28:51.27	23.44	25.82	-45.5	-46.9	19.9	0.00e+00	0	45	0	610271232	62	4276
2026-01-25 06:28:55.30	22.23	25.89	-45.4	-46.8	20.0	0.00e+00	0	45	0	617611264	62	4220
2026-01-25 06:28:59.33	21.02	25.94	-46.1	-47.7	19.2	0.00e+00	0	45	0	624951296	63	4416
2026-01-25 06:29:03.36	19.81	25.97	-45.6	-47.0	19.9	0.00e+00	0	45	0	632291328	63	4088
2026-01-25 06:29:07.39	18.59	25.99	-45.1	-46.4	20.4	0.00e+00	0	45	0	639631360	61	4265
2026-01-25 06:29:11.43	17.37	26.00	-46.2	-47.9	19.0	0.00e+00	0	45	0	646971392	63	4505
2026-01-25 06:29:15.46	16.16	25.99	-46.1	-47.7	19.3	0.00e+00	0	45	0	655360000	63	4400
2026-01-25 06:29:19.50	14.94	25.97	-45.0	-46.4	20.4	0.00e+00	0	45	0	662700032	62	4021
2026-01-25 06:29:23.53	13.73	25.94	-44.5	-45.7	21.1	0.00e+00	0	45	0	670040064	60	4185
2026-01-25 06:29:27.56	12.52	25.89	-44.5	-45.7	21.0	0.00e+00	0	45	0	677380096	60	4180
2026-01-25 06:29:31.60	11.31	25.82	-43.4	-44.4	22.5	0.00e+00	0	45	0	685768704	58	4050
2026-01-25 06:29:35.63	10.11	25.75	-44.0	-45.1	21.9	0.00e+00	0	45	0	693108736	58	4371
2026-01-25 06:29:39.67	8.92	25.66	-43.9	-45.0	21.9	0.00e+00	0	45	0	700448768	58	4298
2026-01-25 06:29:43.70	7.73	25.55	-44.5	-45.6	21.5	0.00e+00	0	45	0	707788800	59	4372
2026-01-25 06:29:47.73	6.55	25.43	-44.5	-45.7	21.4	0.00e+00	0	45	0	715128832	59	4414
2026-01-25 06:29:51.76	5.39	25.31	-45.0	-46.3	20.6	0.00e+00	0	45	0	723517440	60	4462
2026-01-25 06:29:55.80	4.23	25.16	-45.1	-46.3	20.5	0.00e+00	0	45	0	730857472	60	4487
2026-01-25 06:29:59.83	3.08	25.01	-44.5	-45.7	21.1	0.00e+00	0	45	0	738197504	60	4174
2026-01-25 06:30:03.86	1.94	24.84	-45.2	-46.6	20.4	0.00e+00	0	45	0	745537536	61	4347
2026-01-25 06:30:07.89	0.82	24.67	-45.3	-46.7	20.2	0.00e+00	0	45	0	753926144	61	4413
2026-01-25 06:30:11.92	359.71	24.48	-46.3	-48.0	19.1	0.00e+00	0	45	0	761266176	63	4563
2026-01-25 06:30:15.96	358.61	24.28	-45.7	-47.1	19.8	0.00e+00	0	45	0	768606208	63	4140
2026-01-25 06:30:19.99	357.53	24.08	-46.0	-47.6	19.4	0.00e+00	0	45	0	775946240	62	4613
2026-01-25 06:30:24.02	356.46	23.86	-46.3	-47.9	19.0	0.00e+00	0	45	0	783286272	63	4508
2026-01-25 06:30:28.05	355.41	23.64	-45.7	-47.1	19.8	0.00e+00	0	45	0	791674880	63	4127
2026-01-25 06:30:32.09	354.37	23.40	-46.2	-47.8	19.2	0.00e+00	0	45	0	799014912	63	4462
2026-01-25 06:30:36.12	353.35	23.16	-45.5	-47.0	19.9	0.00e+00	0	45	0	806354944	63	4054
2026-01-25 06:30:40.15	352.34	22.92	-45.6	-47.1	19.8	0.00e+00	0	45	0	813694976	62	4350
2026-01-25 06:30:44.18	351.35	22.66	-46.5	-48.3	18.7	0.00e+00	0	45	0	821035008	63	4723
2026-01-25 06:30:48.21	350.38	22.40	-45.6	-47.0	19.8	0.00e+00	0	45	0	829423616	62	4335
2026-01-25 06:30:52.25	349.42	22.13	-45.0	-46.3	20.4	0.00e+00	0	45	0	836763648	61	4228
2026-01-25 06:30:56.28	348.48	21.86	-45.9	-47.5	19.3	0.00e+00	0	45	0	844103680	62	4575
2026-01-25 06:31:00.31	347.56	21.58	-44.8	-46.1	20.6	0.00e+00	0	45	0	851443712	61	4101
2026-01-25 06:31:04.34	346.66	21.30	-44.0	-45.1	21.8	0.00e+00	0	45	0	859832320	59	4134
2026-01-25 06:31:08.37	345.77	21.01	-44.5	-45.7	20.4	0.00e+00	0	45	0	867172352	60	4183
2026-01-25 06:31:12.40	344.90	20.72	-44.8	-46.1	20.6	0.00e+00	0	45	0	874512384	60	4361
2026-01-25 06:31:16.44	344.04	20.42	-44.6	-45.9	20.7	0.00e+00	0	45	0	881852416	60	4290
2026-01-25 06:31:20.47	343.20	20.13	-44.7	-46.0	20.6	0.00e+00	0	45	0	889192448	60	4334
2026-01-25 06:31:24.50	342.38	19.82	-44.6	-45.9	20.8	0.00e+00	0	45	0	896532480	60	4266
2026-01-25 06:31:28.53	341.57	19.52	-44.9	-46.2	20.4	0.00e+00	0	45	0	904921088	60	4438
2026-01-25 06:31:32.56	340.78	19.22	-44.5	-45.8	20.8	0.00e+00	0	45	0	912261120	60	4215
2026-01-25 06:31:36.59	340.01	18.91	-44.4	-45.7	20.9	0.00e+00	0	45	0	919601152	60	4169
2026-01-25 06:31:40.63	339.25	18.60	-44.3	-45.5	21.4	0.00e+00	0	45	0	926941184	59	4298
2026-01-25 06:31:44.65	338.51	18.29	-44.2	-45.4	21.5	0.00e+00	0	45	0	935329792	59	4261
2026-01-25 06:31:48.69	337.78	17.98	-44.6	-45.8	21.2	0.00e+00	0	45	0	942669824	59	4461
2026-01-25 06:31:52.72	337.06	17.67	-44.0	-45.2	21.7	0.00e+00	0	45	0	950009856	59	4151
2026-01-25 06:31:56.75	336.37	17.36	-44.2	-45.3	21.5	0.00e+00	0	45	0	957349888	59	4229
2026-01-25 06:32:00.78	335.68	17.04	-44.6	-45.8	21.2	0.00e+00	0	45	0	964689920	59	4457
2026-01-25 06:32:04.81	335.01	16.73	-44.5	-45.7	21.0	0.00e+00	0	45	0	973078528	60	4157
2026-01-25 06:32:08.85	334.36	16.42	-44.1	-45.2	21.7	0.00e+00	0	45	0	980418560	59	4160
2026-01-25 06:32:12.88	333.72	16.11	-44.6	-45.8	20.8	0.00e+00	0	45	0	987758592	60	4226
2026-01-25 06:32:16.91	333.09	15.79	-45.3	-46.7	20.0	0.00e+00	0	45	0	995098624	61	4421
2026-01-25 06:32:20.94	332.47	15.48	-44.6	-45.9	20.7	0.00e+00	0	45	0	1003487232	61	4017
2026-01-25 06:32:24.98	331.87	15.17	-44.6	-45.9	20.7	0.00e+00	0	45	0	1010827264	60	4278
2026-01-25 06:32:29.01	331.28	14.86	-44.9	-46.2	20.4	0.00e+00	0	45	0	1018167296	60	4413
2026-01-25 06:32:33.05	330.70	14.55	-45.9	-47.5	19.3	0.00e+00	0	45	0	1025507328	62	4574
2026-01-25 06:32:37.08	330.14	14.24	-45.6	-47.0	19.7	0.00e+00	0	45	0	1032847360	62	4325
2026-01-25 06:32:41.11	329.59	13.94	-44.9	-46.2	20.4	0.00e+00	0	45	0	1040187392	61	4164
2026-01-25 06:32:45.14	329.05	13.63	-44.8	-46.1	20.5	0.00e+00	0	45	0	1048576000	61	4126
2026-01-25 06:32:49.17	328.52	13.33	-44.9	-46.2	20.4	0.00e+00	0	45	0	1055916032	61	4174
2026-01-25 06:32:53.20	328.00	13.02	-45.0	-46.3	20.3	0.00e+00	0	45	0	1063256064	61	4218
2026-01-25 06:32:57.23	327.49	12.72	-45.2	-46.6	20.0	0.00e+00	0	45	0	1070596096	61	4366
2026-01-25 06:33:01.27	326.99	12.42	-45.3	-46.7	19.9	0.00e+00	0	45	0	1078984704	61	4421
2026-01-25 06:33:05.30	326.50	12.12	-45.5	-46.9	19.6	0.00e+00	0	45	0	1086324736	61	4538
2026-01-25 06:33:09.33	326.03	11.82	-46.3	-48.0	18.7	0.00e+00	0	45	0	1093664768	63	4564
2026-01-25 06:33:13.36	325.56	11.53	-45.7	-47.2	19.3	0.00e+00	0	45	0	1101004800	63	4175
2026-01-25 06:33:17.39	325.10	11.24	-45.6	-47.1	19.5	0.00e+00	0	45	0	1108344832	63	4105
2026-01-25 06:33:21.43	324.65	10.94	-46.0	-47.6	19.0	0.00e+00	0	45	0	1116733440	62	4628
2026-01-25 06:33:25.46	324.21	10.65	-46.9	-48.7	17.8	0.00e+00	0	45	0	1124073472	64	4700
2026-01-25 06:33:29.49	323.78	10.36	-46.3	-48.0	18.5	0.00e+00	0	45	0	1131413504	64	4310
2026-01-25 06:33:33.52	323.36	10.08	-45.6	-47.1	19.5	0.00e+00	0	45	0	1138753536	63	4102
2026-01-25 06:33:37.55	322.95	9.79	-45.8	-47.3	19.2	0.00e+00	0	45	0	1146093568	63	4241
2026-01-25 06:33:41.59	322.54	9.51	-46.4	-48.1	18.5	0.00e+00	0	45	0	1154482176	63	4608
2026-01-25 06:33:45.62	322.14	9.23	-46.6	-48.4	18.0	0.00e+00	0	45	0	1161822208	64	4536
2026-01-25 06:33:49.65	321.76	8.95	-46.9	-48.8	17.7	0.00e+00	0	45	0	1169162240	64	4718
2026-01-25 06:33:53.69	321.37	8.67	-47.1	-49.1	17.3	0.00e+00	0	45	0	1176502272	65	4602
2026-01-25 06:33:57.72	321.00	8.39	-47.0	-48.9	17.5	0.00e+00	0	45	0	1183842304	65	4519
2026-01-25 06:34:01.75	320.63	8.12	-46.9	-48.8	17.5	0.00e+00	0	45	0	1192230912	65	4483
2026-01-25 06:34:05.78	320.27	7.85	-47.2	-49.3	17.0	0.00e+00	0	45	0	1199570944	65	4723
2026-01-25 06:34:09.81	319.92	7.58	-48.0	-50.4	16.0	0.00e+00	0	45	0	1206910976	66	5071
2026-01-25 06:34:13.84	319.57	7.31	-48.1	-50.6	15.8	0.00e+00	0	45	0	1214251008	66	5191
2026-01-25 06:34:17.88	319.23	7.04	-47.6	-49.8	16.5	0.00e+00	0	45	0	1222639616	66	4747
2026-01-25 06:34:21.91	318.90	6.78	-46.7	-48.6	17.7	0.00e+00	0	45	0	1229979648	65	4384
2026-01-25 06:34:25.95	318.57	6.51	-46.2	-47.9	18.3	0.00e+00	0	45	0	1237319680	64	4291
2026-01-25 06:34:29.98	318.25	6.25	-46.3	-48.1	18.1	0.00e+00	0	45	0	1244659712	64	4350
2026-01-25 06:34:34.02	317.93	5.99	-46.7	-48.7	17.5	0.00e+00	0	45	0	1251999744	64	4667
2026-01-25 06:34:38.05	317.63	5.73	-47.5	-49.7	16.4	0.00e+00	0	45	0	1260388352	65	4978
2026-01-25 06:34:42.08	317.32	5.48	-47.9	-50.3	15.8	0.00e+00	0	45	0	1267728384	66	5031
2026-01-25 06:34:46.11	317.02	5.22	-48.3	-51.0	15.1	0.00e+00	0	45	0	1275068416	67	5116
2026-01-25 06:34:50.15	316.73	4.97	-52.6	-67.6	3.8	1.34e+00	0	45	104	1282408448	75	21823
2026-01-25 06:34:54.19	316.44	4.72	-53.5	-68.5	3.8	1.49e+00	0	45	104	1282408448	77	21551
2026-01-25 06:34:58.22	316.16	4.47	-54.0	-68.9	3.8	1.49e+00	0	45	104	1282408448	78	21481
2026-01-25 06:35:02.25	315.88	4.22	-54.2	-69.2	3.8	1.49e+00	0	45	104	1282408448	79	20943
2026-01-25 06:35:06.29	315.61	3.97	-54.3	-69.3	3.8	1.49e+00	0	45	104	1282408448	79	21037
2026-01-25 06:35:10.32	315.34	3.73	-54.2	-69.2	3.8	1.49e+00	0	45	104	1282408448	79	20996
2026-01-25 06:35:14.36	315.08	3.49	-54.1	-69.1	3.8	1.49e+00	0	45	104	1282408448	79	20707
2026-01-25 06:35:18.40	314.82	3.24	-54.1	-69.1	3.8	1.49e+00	0	45	104	1282408448	79	20605
2026-01-25 06:35:22.43	314.57	3.00	-54.1	-69.1	3.8	1.49e+00	0	45	104	1282408448	79	20544
2026-01-25 06:35:26.47	314.32	2.77	-54.0	-69.0	3.8	1.49e+00	0	45	104	1282408448	79	20531
2026-01-25 06:35:30.50	314.07	2.53	-54.0	-69.0	3.8	1.49e+00	0	45	104	1282408448	79	20417
2026-01-25 06:35:34.53	313.83	2.29	-54.0	-69.0	3.8	1.49e+00	0	45	104	1282408448	79	20394
2026-01-25 06:35:38.57	313.59	2.06	-54.0	-68.9	3.8	1.49e+00	0	45	104	1282408448	79	20294

#Closed at: 2026-01-25 06:35:40
#Recorded file [1282 MB]: D:/lorett/data/31041_260125_092244.dat