passes_logs/2026/01/25/R3.2S_Murmansk/R3.2S_Murmansk__20260125_054143_FENGYUN_3D_rec.log

#Pass ID: 20260125_054143_FENGYUN 3D
#Satellite: FENGYUN 3D
#Configuration: FENGYUN 3D
#almurnet v.1.7.20251203
#Start time: 2026-01-25 05:41:45

#Version: 2.2.20231116
#Station: R3.2S_Murmansk
#Location: 33.079688 lon 68.888172 lat
#TLE: 1 43010U 17072A   26024.51794477  .00000040  00000+0  40682-4 0  9990
#TLE: 2 43010  98.9961 356.4820 0002494  91.2631 268.8830 14.19699550424601

#Time	Az	El	Level	Level2	SNR	BER	BlckErr	Temp	State	Recorded	gain1	gain2
2026-01-25 05:41:45.59	43.54	2.14	-52.1	-64.0	3.8	8.45e-01	0	42	0	0	76	13656
2026-01-25 05:41:49.63	43.32	2.38	-52.1	-64.0	3.8	8.46e-01	0	42	104	0	74	15243
2026-01-25 05:41:53.66	43.10	2.62	-52.1	-64.0	3.8	8.46e-01	0	43	104	0	74	15236
2026-01-25 05:41:57.70	42.87	2.86	-52.0	-63.9	3.8	8.47e-01	0	43	104	0	74	15057
2026-01-25 05:42:01.73	42.63	3.10	-52.1	-63.9	3.8	8.46e-01	0	43	104	0	74	15218
2026-01-25 05:42:05.76	42.40	3.35	-52.0	-63.8	3.8	8.45e-01	0	43	104	0	74	14978
2026-01-25 05:42:09.80	42.15	3.60	-52.1	-63.9	3.8	8.46e-01	0	43	104	0	74	15090
2026-01-25 05:42:13.83	41.91	3.84	-51.9	-62.4	3.8	8.45e-01	0	43	104	0	74	12808
2026-01-25 05:42:17.86	41.66	4.10	-51.6	-59.7	4.4	8.26e-01	0	43	0	0	74	9288
2026-01-25 05:42:21.90	41.40	4.35	-51.3	-58.4	5.0	7.85e-01	0	43	0	0	74	8048
2026-01-25 05:42:25.93	41.14	4.60	-49.3	-52.7	10.2	1.06e-02	0	43	0	16777216	70	5221
2026-01-25 05:42:29.97	40.88	4.86	-47.6	-49.8	13.1	6.86e-05	0	43	0	39845888	67	4484
2026-01-25 05:42:34.00	40.61	5.12	-48.0	-50.5	12.4	3.22e-04	0	43	0	62914560	67	4855
2026-01-25 05:42:38.03	40.34	5.37	-52.0	-62.9	3.8	3.31e-01	0	43	104	80740352	74	13560
2026-01-25 05:42:42.06	40.06	5.64	-42.6	-43.6	20.0	0.00e+00	0	44	0	97517568	57	3870
2026-01-25 05:42:46.10	39.77	5.90	-42.7	-43.7	19.9	0.00e+00	0	43	0	120586240	57	3955
2026-01-25 05:42:50.13	39.48	6.17	-42.6	-43.6	20.0	0.00e+00	0	43	0	142606336	56	4108
2026-01-25 05:42:54.17	39.19	6.43	-42.7	-43.7	20.0	0.00e+00	0	44	0	165675008	56	4164
2026-01-25 05:42:58.20	38.88	6.70	-42.6	-43.5	20.2	0.00e+00	0	44	0	188743680	56	4093
2026-01-25 05:43:02.23	38.58	6.97	-42.7	-43.7	20.0	0.00e+00	0	44	0	210763776	56	4189
2026-01-25 05:43:06.26	38.26	7.25	-42.5	-43.4	20.3	0.00e+00	0	44	0	233832448	56	4050
2026-01-25 05:43:10.29	37.94	7.52	-42.6	-43.6	20.2	0.00e+00	0	44	0	256901120	56	4102
2026-01-25 05:43:14.33	37.62	7.80	-42.4	-43.3	20.5	0.00e+00	0	44	0	278921216	56	4003
2026-01-25 05:43:18.37	37.28	8.08	-42.7	-43.7	20.2	0.00e+00	0	44	0	301989888	56	4167
2026-01-25 05:43:22.41	36.94	8.36	-42.4	-43.4	20.5	0.00e+00	0	44	0	325058560	56	4015
2026-01-25 05:43:26.44	36.59	8.65	-42.6	-43.6	20.3	0.00e+00	0	44	0	347078656	56	4137
2026-01-25 05:43:30.47	36.24	8.93	-42.0	-42.9	21.0	0.00e+00	0	44	0	369098752	56	3811
2026-01-25 05:43:34.50	35.88	9.22	-41.9	-42.8	21.1	0.00e+00	0	44	0	392167424	55	3968
2026-01-25 05:43:38.54	35.51	9.51	-41.8	-42.7	21.2	0.00e+00	0	44	0	415236096	55	3915
2026-01-25 05:43:42.57	35.13	9.81	-41.7	-42.6	21.3	0.00e+00	0	44	0	437256192	55	3895
2026-01-25 05:43:46.61	34.75	10.10	-41.7	-42.6	21.2	0.00e+00	0	44	0	460324864	55	3899
2026-01-25 05:43:50.65	34.36	10.40	-41.6	-42.5	21.4	0.00e+00	0	44	0	483393536	54	4060
2026-01-25 05:43:54.68	33.95	10.70	-41.4	-42.2	21.7	0.00e+00	0	44	0	505413632	54	3958
2026-01-25 05:43:58.71	33.55	11.00	-41.3	-42.1	21.8	0.00e+00	0	44	0	528482304	54	3892
2026-01-25 05:44:02.74	33.13	11.31	-41.2	-42.0	21.9	0.00e+00	0	44	0	551550976	54	3851
2026-01-25 05:44:06.77	32.70	11.61	-41.1	-41.9	22.0	0.00e+00	0	44	0	573571072	54	3812
2026-01-25 05:44:10.81	32.26	11.92	-41.1	-41.9	22.0	0.00e+00	0	44	0	596639744	53	4037
2026-01-25 05:44:14.84	31.82	12.23	-41.3	-42.2	21.8	0.00e+00	0	44	0	619708416	53	4166
2026-01-25 05:44:18.87	31.36	12.54	-41.1	-42.0	22.0	0.00e+00	0	44	0	641728512	53	4070
2026-01-25 05:44:22.90	30.89	12.86	-40.9	-41.8	22.2	0.00e+00	0	44	0	664797184	53	3966
2026-01-25 05:44:26.93	30.42	13.18	-40.9	-41.7	22.2	0.00e+00	0	44	0	687865856	53	3957
2026-01-25 05:44:30.97	29.93	13.50	-40.7	-41.6	22.4	0.00e+00	0	44	0	709885952	53	3869
2026-01-25 05:44:35.00	29.43	13.82	-40.6	-41.4	22.6	0.00e+00	0	44	0	732954624	53	3817
2026-01-25 05:44:39.04	28.92	14.14	-40.7	-41.5	22.5	0.00e+00	0	44	0	754974720	53	3857
2026-01-25 05:44:43.08	28.40	14.47	-40.5	-41.3	22.7	0.00e+00	0	44	0	778043392	53	3759
2026-01-25 05:44:47.11	27.86	14.80	-40.2	-41.0	23.0	0.00e+00	0	44	0	801112064	52	3844
2026-01-25 05:44:51.14	27.32	15.13	-40.1	-40.9	23.1	0.00e+00	0	44	0	823132160	52	3787
2026-01-25 05:44:55.17	26.76	15.46	-40.1	-40.8	23.3	0.00e+00	0	44	0	846200832	51	3996
2026-01-25 05:44:59.21	26.19	15.79	-39.9	-40.7	23.4	0.00e+00	0	44	0	869269504	51	3929
2026-01-25 05:45:03.24	25.60	16.12	-39.9	-40.6	23.5	0.00e+00	0	44	0	891289600	51	3906
2026-01-25 05:45:07.28	25.00	16.46	-39.9	-40.7	23.5	0.00e+00	0	44	0	914358272	51	3924
2026-01-25 05:45:11.31	24.39	16.80	-39.8	-40.5	23.6	0.00e+00	0	44	0	937426944	51	3855
2026-01-25 05:45:15.35	23.77	17.14	-39.9	-40.6	23.5	0.00e+00	0	44	0	959447040	51	3913
2026-01-25 05:45:19.38	23.13	17.48	-39.8	-40.5	23.6	0.00e+00	0	44	0	982515712	51	3863
2026-01-25 05:45:23.41	22.47	17.82	-39.5	-40.2	23.9	0.00e+00	0	44	0	1005584384	51	3726
2026-01-25 05:45:27.45	21.80	18.16	-39.4	-40.2	24.0	0.00e+00	0	44	0	1027604480	50	3915
2026-01-25 05:45:31.48	21.11	18.50	-39.6	-40.3	23.8	0.00e+00	0	44	0	1050673152	50	4000
2026-01-25 05:45:35.51	20.41	18.84	-39.3	-40.1	24.1	0.00e+00	0	44	0	1073741824	50	3869
2026-01-25 05:45:39.55	19.69	19.18	-39.0	-39.7	24.4	0.00e+00	0	44	0	1095761920	49	3923
2026-01-25 05:45:43.59	18.96	19.53	-39.3	-40.1	24.1	0.00e+00	0	44	0	1117782016	49	4102
2026-01-25 05:45:47.62	18.21	19.87	-39.3	-40.0	24.2	0.00e+00	0	44	0	1140850688	49	4069
2026-01-25 05:45:51.65	17.44	20.21	-39.3	-40.0	24.1	0.00e+00	0	44	0	1163919360	49	4096
2026-01-25 05:45:55.69	16.65	20.55	-39.2	-39.9	24.3	0.00e+00	0	44	0	1185939456	49	4033
2026-01-25 05:45:59.72	15.85	20.89	-39.1	-39.8	24.4	0.00e+00	0	44	0	1209008128	49	3981
2026-01-25 05:46:03.75	15.03	21.22	-38.9	-39.6	24.5	0.00e+00	0	44	0	1232076800	49	3891
2026-01-25 05:46:07.79	14.18	21.56	-38.6	-39.4	24.8	0.00e+00	0	44	0	1254096896	49	3786
2026-01-25 05:46:11.82	13.33	21.89	-38.6	-39.3	24.8	0.00e+00	0	44	0	1277165568	49	3763
2026-01-25 05:46:15.86	12.45	22.22	-38.5	-39.2	24.9	0.00e+00	0	44	0	1300234240	48	3931
2026-01-25 05:46:19.89	11.55	22.55	-38.7	-39.4	24.7	0.00e+00	0	44	0	1323302912	48	4051
2026-01-25 05:46:23.93	10.63	22.87	-38.6	-39.3	24.8	0.00e+00	0	44	0	1345323008	48	4003
2026-01-25 05:46:27.97	9.70	23.19	-38.5	-39.2	24.9	0.00e+00	0	44	0	1368391680	48	3945
2026-01-25 05:46:32.00	8.74	23.51	-38.4	-39.1	25.0	0.00e+00	0	44	0	1391460352	48	3912
2026-01-25 05:46:36.04	7.77	23.82	-38.4	-39.1	25.0	0.00e+00	0	44	0	1413480448	48	3899
2026-01-25 05:46:40.07	6.77	24.12	-38.6	-39.4	24.8	0.00e+00	0	44	0	1436549120	48	4013
2026-01-25 05:46:44.11	5.76	24.42	-38.2	-38.9	25.2	0.00e+00	0	44	0	1459617792	48	3810
2026-01-25 05:46:48.14	4.73	24.71	-38.3	-39.0	25.1	0.00e+00	0	44	0	1481637888	48	3853
2026-01-25 05:46:52.17	3.67	24.99	-38.5	-39.2	25.0	0.00e+00	0	44	0	1503657984	48	3934
2026-01-25 05:46:56.21	2.60	25.27	-38.4	-39.1	25.1	0.00e+00	0	44	0	1526726656	48	3883
2026-01-25 05:47:00.24	1.51	25.54	-37.6	-38.3	25.3	0.00e+00	0	44	0	1549795328	47	3776
2026-01-25 05:47:04.27	0.41	25.79	-37.8	-38.6	25.1	0.00e+00	0	44	0	1571815424	47	3874
2026-01-25 05:47:08.31	359.28	26.04	-38.0	-38.7	25.0	0.00e+00	0	44	0	1594884096	47	3932
2026-01-25 05:47:12.35	358.13	26.28	-37.9	-38.6	25.1	0.00e+00	0	44	0	1617952768	47	3875
2026-01-25 05:47:16.39	356.97	26.51	-37.8	-38.6	25.1	0.00e+00	0	44	0	1639972864	47	3881
2026-01-25 05:47:20.42	355.79	26.73	-37.7	-38.4	25.2	0.00e+00	0	44	0	1663041536	47	3820
2026-01-25 05:47:24.46	354.60	26.93	-37.7	-38.5	25.2	0.00e+00	0	44	0	1686110208	47	3829
2026-01-25 05:47:28.50	353.38	27.13	-37.6	-38.3	25.3	0.00e+00	0	44	0	1709178880	47	3769
2026-01-25 05:47:32.53	352.16	27.31	-37.6	-38.3	25.3	0.00e+00	0	44	0	1731198976	47	3769
2026-01-25 05:47:36.57	350.92	27.47	-37.3	-38.0	25.6	0.00e+00	0	44	0	1754267648	46	3831
2026-01-25 05:47:40.60	349.68	27.62	-37.4	-38.1	25.5	0.00e+00	0	44	0	1777336320	46	3905
2026-01-25 05:47:44.64	348.41	27.76	-37.3	-38.0	25.6	0.00e+00	0	44	0	1799356416	46	3868
2026-01-25 05:47:48.67	347.14	27.88	-37.3	-38.0	25.6	0.00e+00	0	44	0	1822425088	46	3838
2026-01-25 05:47:52.71	345.86	27.99	-37.3	-38.0	25.6	0.00e+00	0	44	0	1845493760	46	3832
2026-01-25 05:47:56.74	344.57	28.08	-37.1	-37.7	25.9	0.00e+00	0	44	0	1867513856	46	3731
2026-01-25 05:48:00.77	343.28	28.16	-37.0	-37.7	25.9	0.00e+00	0	44	0	1889533952	46	3723
2026-01-25 05:48:04.80	341.98	28.22	-36.9	-37.6	26.0	0.00e+00	0	44	0	1912602624	45	3885
2026-01-25 05:48:08.83	340.68	28.26	-37.2	-37.9	25.7	0.00e+00	0	44	0	1935671296	45	4028
2026-01-25 05:48:12.87	339.37	28.28	-37.2	-37.9	25.8	0.00e+00	0	44	0	1957691392	45	4013
2026-01-25 05:48:16.90	338.06	28.29	-37.2	-37.9	25.7	0.00e+00	0	44	0	1980760064	45	4029
2026-01-25 05:48:20.93	336.75	28.29	-37.3	-38.0	25.6	0.00e+00	0	44	0	2003828736	45	4063
2026-01-25 05:48:24.97	335.44	28.26	-37.3	-38.0	25.7	0.00e+00	0	44	0	2025848832	45	4061
2026-01-25 05:48:29.01	334.13	28.22	-37.2	-37.8	25.8	0.00e+00	0	44	0	2048917504	45	3998
2026-01-25 05:48:33.04	332.83	28.17	-37.3	-38.0	25.7	0.00e+00	0	45	0	2071986176	45	4054
2026-01-25 05:48:37.08	331.53	28.09	-37.3	-38.0	25.7	0.00e+00	0	44	0	2094006272	45	4057
2026-01-25 05:48:41.12	330.24	28.00	-37.4	-38.1	25.5	0.00e+00	0	44	0	2117074944	45	4135
2026-01-25 05:48:45.15	328.96	27.90	-37.1	-37.8	25.8	0.00e+00	0	44	0	2140143616	45	3985
2026-01-25 05:48:49.19	327.69	27.78	-37.3	-38.0	25.7	0.00e+00	0	44	0	2162163712	45	4054
2026-01-25 05:48:53.22	326.42	27.64	-37.1	-37.8	25.8	0.00e+00	0	44	0	2185232384	45	3990
2026-01-25 05:48:57.25	325.17	27.49	-37.2	-37.9	25.7	0.00e+00	0	44	0	2208301056	45	4032
2026-01-25 05:49:01.29	323.93	27.33	-37.2	-37.9	25.7	0.00e+00	0	44	0	2230321152	45	4031
2026-01-25 05:49:05.32	322.71	27.15	-37.0	-37.7	25.9	0.00e+00	0	44	0	2253389824	45	3924
2026-01-25 05:49:09.35	321.50	26.96	-37.1	-37.8	25.8	0.00e+00	0	44	0	2275409920	45	3987
2026-01-25 05:49:13.39	320.30	26.76	-37.5	-38.2	25.5	0.00e+00	0	45	0	2298478592	45	4155
2026-01-25 05:49:17.42	319.12	26.54	-37.4	-38.1	25.6	0.00e+00	0	44	0	2321547264	45	4125
2026-01-25 05:49:21.46	317.95	26.31	-37.3	-38.0	25.7	0.00e+00	0	44	0	2343567360	45	4061
2026-01-25 05:49:25.49	316.81	26.08	-37.3	-37.9	25.7	0.00e+00	0	44	0	2366636032	45	4048
2026-01-25 05:49:29.53	315.67	25.83	-37.5	-38.2	25.4	0.00e+00	0	44	0	2389704704	45	4184
2026-01-25 05:49:33.56	314.56	25.57	-37.4	-38.1	25.6	0.00e+00	0	44	0	2411724800	45	4115
2026-01-25 05:49:37.59	313.47	25.30	-37.7	-38.4	25.3	0.00e+00	0	45	0	2434793472	45	4282
2026-01-25 05:49:41.63	312.39	25.03	-37.9	-38.6	25.1	0.00e+00	0	44	0	2457862144	46	4129
2026-01-25 05:49:45.67	311.34	24.74	-38.0	-38.7	25.1	0.00e+00	0	44	0	2479882240	46	4170
2026-01-25 05:49:49.70	310.30	24.45	-37.7	-38.4	25.3	0.00e+00	0	45	0	2502950912	46	4047
2026-01-25 05:49:53.74	309.28	24.16	-37.7	-38.4	25.3	0.00e+00	0	45	0	2526019584	46	4045
2026-01-25 05:49:57.77	308.28	23.85	-37.6	-38.3	25.4	0.00e+00	0	44	0	2548039680	46	4000
2026-01-25 05:50:01.81	307.30	23.54	-37.6	-38.3	25.4	0.00e+00	0	44	0	2571108352	46	3988
2026-01-25 05:50:05.85	306.34	23.23	-38.0	-38.7	25.0	0.00e+00	0	44	0	2594177024	46	4183
2026-01-25 05:50:09.88	305.41	22.91	-37.8	-38.5	25.2	0.00e+00	0	45	0	2616197120	46	4093
2026-01-25 05:50:13.92	304.48	22.58	-37.9	-38.7	25.1	0.00e+00	0	44	0	2639265792	46	4147
2026-01-25 05:50:17.96	303.58	22.26	-38.3	-39.1	24.7	0.00e+00	0	44	0	2661285888	47	4103
2026-01-25 05:50:21.99	302.70	21.93	-38.3	-39.0	24.8	0.00e+00	0	44	0	2684354560	47	4084
2026-01-25 05:50:26.03	301.84	21.59	-38.6	-39.3	24.5	0.00e+00	0	44	0	2707423232	47	4222
2026-01-25 05:50:30.07	300.99	21.26	-38.6	-39.4	24.4	0.00e+00	0	44	0	2729443328	47	4261
2026-01-25 05:50:34.10	300.17	20.92	-38.9	-39.7	24.7	0.00e+00	0	44	0	2752512000	48	4152
2026-01-25 05:50:38.14	299.36	20.58	-39.1	-39.8	24.5	0.00e+00	0	45	0	2775580672	48	4225
2026-01-25 05:50:42.17	298.57	20.24	-38.9	-39.6	24.7	0.00e+00	0	44	0	2797600768	48	4115
2026-01-25 05:50:46.21	297.79	19.90	-39.1	-39.8	24.6	0.00e+00	0	44	0	2820669440	48	4213
2026-01-25 05:50:50.25	297.04	19.56	-39.2	-39.9	24.4	0.00e+00	0	44	0	2843738112	49	4042
2026-01-25 05:50:54.28	296.30	19.22	-39.0	-39.7	24.6	0.00e+00	0	44	0	2865758208	49	3923
2026-01-25 05:50:58.31	295.58	18.87	-39.0	-39.8	24.6	0.00e+00	0	44	0	2888826880	49	3966
2026-01-25 05:51:02.35	294.87	18.53	-39.3	-40.1	24.3	0.00e+00	0	44	0	2911895552	49	4107
2026-01-25 05:51:06.38	294.18	18.19	-39.5	-40.3	24.1	0.00e+00	0	44	0	2933915648	49	4209
2026-01-25 05:51:10.41	293.51	17.85	-39.8	-40.5	23.9	0.00e+00	0	44	0	2956984320	50	4077
2026-01-25 05:51:14.45	292.85	17.51	-40.0	-40.7	23.7	0.00e+00	0	44	0	2980052992	50	4193
2026-01-25 05:51:18.48	292.21	17.17	-39.9	-40.6	23.7	0.00e+00	0	44	0	3002073088	50	4141
2026-01-25 05:51:22.52	291.58	16.83	-39.9	-40.7	23.7	0.00e+00	0	44	0	3025141760	50	4147
2026-01-25 05:51:26.56	290.96	16.49	-40.0	-40.7	23.6	0.00e+00	0	44	0	3047161856	50	4192
2026-01-25 05:51:30.59	290.36	16.15	-40.1	-40.9	23.5	0.00e+00	0	44	0	3070230528	50	4260
2026-01-25 05:51:34.63	289.77	15.82	-40.4	-41.1	23.3	0.00e+00	0	45	0	3093299200	51	4141
2026-01-25 05:51:38.66	289.20	15.48	-40.4	-41.2	23.2	0.00e+00	0	44	0	3115319296	51	4153
2026-01-25 05:51:42.70	288.64	15.15	-40.4	-41.2	23.1	0.00e+00	0	44	0	3138387968	51	4178
2026-01-25 05:51:46.74	288.09	14.82	-40.6	-41.4	23.0	0.00e+00	0	44	0	3161456640	51	4266
2026-01-25 05:51:50.77	287.55	14.49	-40.8	-41.7	22.6	0.00e+00	0	44	0	3183476736	52	4157
2026-01-25 05:51:54.81	287.03	14.16	-40.9	-41.7	22.6	0.00e+00	0	44	0	3206545408	52	4162
2026-01-25 05:51:58.84	286.51	13.84	-40.7	-41.5	22.8	0.00e+00	0	45	0	3229614080	52	4059
2026-01-25 05:52:02.87	286.01	13.52	-40.8	-41.6	22.6	0.00e+00	0	44	0	3251634176	52	4132
2026-01-25 05:52:06.91	285.52	13.20	-40.8	-41.6	22.6	0.00e+00	0	45	0	3274702848	52	4108
2026-01-25 05:52:10.94	285.04	12.88	-40.8	-41.6	22.6	0.00e+00	0	44	0	3297771520	52	4141
2026-01-25 05:52:14.98	284.57	12.56	-41.2	-42.0	22.2	0.00e+00	0	45	0	3319791616	52	4316
2026-01-25 05:52:19.01	284.11	12.25	-41.2	-42.1	22.1	0.00e+00	0	45	0	3342860288	53	4113
2026-01-25 05:52:23.05	283.66	11.94	-41.2	-42.1	22.1	0.00e+00	0	44	0	3365928960	53	4111
2026-01-25 05:52:27.08	283.23	11.63	-41.6	-42.5	21.7	0.00e+00	0	44	0	3387949056	53	4322
2026-01-25 05:52:31.12	282.79	11.32	-41.4	-42.3	21.9	0.00e+00	0	44	0	3411017728	53	4213
2026-01-25 05:52:35.15	282.37	11.02	-41.6	-42.4	21.7	0.00e+00	0	44	0	3433037824	53	4271
2026-01-25 05:52:39.18	281.96	10.71	-41.7	-42.5	21.6	0.00e+00	0	44	0	3456106496	53	4330
2026-01-25 05:52:43.21	281.56	10.41	-41.7	-42.6	21.5	0.00e+00	0	44	0	3479175168	54	4133
2026-01-25 05:52:47.25	281.16	10.11	-42.0	-42.9	21.2	0.00e+00	0	44	0	3501195264	54	4272
2026-01-25 05:52:51.28	280.78	9.82	-42.0	-42.9	21.2	0.00e+00	0	45	0	3524263936	54	4250
2026-01-25 05:52:55.32	280.40	9.52	-41.8	-42.7	21.4	0.00e+00	0	44	0	3547332608	54	4160
2026-01-25 05:52:59.35	280.03	9.23	-41.9	-42.8	21.2	0.00e+00	0	44	0	3569352704	54	4240
2026-01-25 05:53:03.38	279.66	8.94	-42.0	-42.9	21.1	0.00e+00	0	44	0	3592421376	54	4263
2026-01-25 05:53:07.42	279.31	8.66	-41.9	-42.8	21.2	0.00e+00	0	44	0	3615490048	54	4238
2026-01-25 05:53:11.46	278.96	8.37	-42.0	-42.9	21.1	0.00e+00	0	45	0	3637510144	54	4251
2026-01-25 05:53:15.49	278.62	8.09	-42.2	-43.1	20.9	0.00e+00	0	44	0	3660578816	55	4117
2026-01-25 05:53:19.53	278.28	7.81	-42.3	-43.2	20.7	0.00e+00	0	44	0	3683647488	55	4175
2026-01-25 05:53:23.56	277.95	7.53	-42.2	-43.2	20.7	0.00e+00	0	45	0	3705667584	55	4153
2026-01-25 05:53:27.60	277.63	7.25	-42.4	-43.3	20.5	0.00e+00	0	45	0	3728736256	55	4226
2026-01-25 05:53:31.63	277.31	6.98	-42.3	-43.2	20.6	0.00e+00	0	45	0	3751804928	55	4160
2026-01-25 05:53:35.66	277.00	6.71	-42.4	-43.3	20.5	0.00e+00	0	44	0	3773825024	55	4217
2026-01-25 05:53:39.69	276.70	6.44	-42.4	-43.3	20.4	0.00e+00	0	44	0	3796893696	55	4241
2026-01-25 05:53:43.73	276.40	6.17	-42.6	-43.6	20.1	0.00e+00	0	45	0	3818913792	55	4370
2026-01-25 05:53:47.76	276.11	5.90	-42.8	-43.8	20.0	0.00e+00	0	45	0	3841982464	56	4210
2026-01-25 05:53:51.80	275.82	5.64	-43.0	-44.0	19.7	0.00e+00	0	45	0	3865051136	56	4335
2026-01-25 05:53:55.84	275.54	5.38	-43.0	-44.1	19.6	0.00e+00	0	45	0	3887071232	56	4361
2026-01-25 05:53:59.87	275.26	5.12	-43.1	-44.2	19.5	0.00e+00	0	45	0	3910139904	57	4154
2026-01-25 05:54:03.90	274.99	4.86	-53.0	-64.9	3.8	8.46e-01	0	45	104	3921674240	76	15154
2026-01-25 05:54:07.94	274.73	4.60	-53.7	-65.7	3.8	8.46e-01	0	45	104	3921674240	77	15601
2026-01-25 05:54:11.97	274.46	4.35	-54.0	-66.0	3.8	8.47e-01	0	45	104	3921674240	78	15304
2026-01-25 05:54:16.01	274.21	4.09	-54.3	-66.2	3.8	8.45e-01	0	45	104	3921674240	79	14833
2026-01-25 05:54:20.04	273.96	3.84	-54.3	-66.3	3.8	8.46e-01	0	45	104	3921674240	79	14884
2026-01-25 05:54:24.07	273.71	3.60	-54.2	-66.2	3.8	8.46e-01	0	45	104	3921674240	79	14722
2026-01-25 05:54:28.11	273.46	3.35	-54.1	-66.0	3.8	8.46e-01	0	45	104	3921674240	79	14479
2026-01-25 05:54:32.14	273.23	3.10	-54.0	-66.0	3.8	8.47e-01	0	45	104	3921674240	79	14379
2026-01-25 05:54:36.18	272.99	2.86	-54.0	-65.9	3.8	8.46e-01	0	45	104	3921674240	79	14322
2026-01-25 05:54:40.21	272.76	2.62	-53.9	-65.9	3.8	8.47e-01	0	45	104	3921674240	79	14249
2026-01-25 05:54:44.24	272.53	2.38	-53.9	-65.9	3.8	8.45e-01	0	45	104	3921674240	79	14267
2026-01-25 05:54:48.28	272.31	2.14	-53.9	-65.9	3.8	8.46e-01	0	45	104	3921674240	79	14260

#Closed at: 2026-01-25 05:54:51
#Recorded file [3921 MB]: D:/lorett/data/31041_260125_084145.dat