passes_logs/2026/01/25/R3.2S_Murmansk/R3.2S_Murmansk__20260125_130558_SUOMI_NPP_rec.log

#Pass ID: 20260125_130558_SUOMI NPP
#Satellite: SUOMI NPP
#Configuration: NPP
#almurnet v.1.7.20251203
#Start time: 2026-01-25 13:06:00

#Version: 2.2.20231116
#Station: R3.2S_Murmansk
#Location: 33.079688 lon 68.888172 lat
#TLE: 1 37849U 11061A   26024.97198022  .00000188  00000+0  11029-3 0  9994
#TLE: 2 37849  98.7821 326.9352 0002187  46.6646 313.4712 14.19529581738125

#Time	Az	El	Level	Level2	SNR	BER	BlckErr	Temp	State	Recorded	gain1	gain2
2026-01-25 13:06:00.61	243.57	2.09	-52.2	-67.2	3.8	1.49e+00	0	41	0	0	76	19712
2026-01-25 13:06:03.58	243.87	2.22	-52.2	-67.2	3.8	1.49e+00	0	41	104	0	75	20813
2026-01-25 13:06:06.54	244.17	2.35	-52.2	-67.2	3.8	1.49e+00	0	41	104	0	75	20797
2026-01-25 13:06:09.50	244.47	2.48	-52.2	-67.2	3.8	1.49e+00	0	41	104	0	75	20783
2026-01-25 13:06:12.46	244.78	2.61	-52.2	-67.2	3.8	1.49e+00	0	41	104	0	75	20796
2026-01-25 13:06:15.42	245.08	2.74	-52.2	-67.1	3.8	1.49e+00	0	41	104	0	75	20770
2026-01-25 13:06:18.39	245.39	2.88	-52.2	-67.1	3.8	1.49e+00	0	42	104	0	75	20722
2026-01-25 13:06:21.34	245.71	3.01	-52.2	-67.2	3.8	1.49e+00	0	42	104	0	75	20828
2026-01-25 13:06:24.29	246.02	3.14	-52.2	-67.2	3.8	1.49e+00	0	42	104	0	75	20845
2026-01-25 13:06:27.25	246.34	3.27	-52.2	-67.2	3.8	1.49e+00	0	42	104	0	75	20802
2026-01-25 13:06:30.20	246.66	3.40	-52.2	-67.2	3.8	1.49e+00	0	42	104	0	75	20793
2026-01-25 13:06:33.16	246.98	3.53	-52.2	-67.1	3.8	1.49e+00	0	42	104	0	75	20693
2026-01-25 13:06:36.14	247.31	3.66	-52.2	-67.1	3.8	1.49e+00	0	42	104	0	75	20615
2026-01-25 13:06:39.10	247.64	3.79	-52.2	-67.1	3.8	1.49e+00	0	42	104	0	75	20644
2026-01-25 13:06:42.06	247.97	3.92	-52.2	-67.1	3.8	1.49e+00	0	42	104	0	75	20605
2026-01-25 13:06:45.03	248.30	4.05	-52.2	-66.9	3.8	1.49e+00	0	42	104	0	75	20208
2026-01-25 13:06:48.00	248.64	4.18	-52.2	-67.0	3.8	1.49e+00	0	42	104	0	75	20527
2026-01-25 13:06:50.96	248.98	4.31	-52.2	-67.2	3.8	1.49e+00	0	42	104	0	75	20811
2026-01-25 13:06:53.93	249.33	4.44	-52.2	-67.1	3.8	1.49e+00	0	42	104	0	75	20543
2026-01-25 13:06:56.89	249.67	4.57	-52.1	-65.5	3.8	1.49e+00	0	42	104	0	75	17157
2026-01-25 13:06:59.85	250.02	4.70	-52.1	-65.3	3.8	1.49e+00	0	42	104	0	75	16768
2026-01-25 13:07:02.80	250.37	4.83	-51.1	-57.5	8.3	2.41e-01	0	42	0	3145728	74	7230
2026-01-25 13:07:05.77	250.73	4.95	-48.5	-51.3	14.8	3.80e-06	0	42	0	8388608	69	4740
2026-01-25 13:07:08.73	251.09	5.08	-51.4	-59.2	6.9	1.31e-04	0	43	0	13631488	73	9368
2026-01-25 13:07:11.70	251.45	5.21	-47.2	-49.2	16.9	2.05e-05	0	42	0	18874368	66	4428
2026-01-25 13:07:14.65	251.81	5.34	-47.2	-49.3	16.7	0.00e+00	0	42	0	25165824	66	4490
2026-01-25 13:07:17.61	252.18	5.47	-46.5	-48.3	17.7	0.00e+00	0	42	0	30408704	65	4228
2026-01-25 13:07:20.58	252.55	5.59	-46.5	-48.3	17.8	0.00e+00	0	42	0	35651584	64	4469
2026-01-25 13:07:23.53	252.92	5.72	-46.3	-48.1	18.0	0.00e+00	0	42	0	41943040	64	4373
2026-01-25 13:07:26.48	253.30	5.84	-46.6	-48.5	17.6	0.00e+00	0	43	0	47185920	64	4563
2026-01-25 13:07:29.43	253.67	5.97	-46.5	-48.3	17.9	0.00e+00	0	43	0	52428800	64	4473
2026-01-25 13:07:32.38	254.05	6.09	-46.2	-47.9	18.2	0.00e+00	0	42	0	57671680	64	4266
2026-01-25 13:07:35.34	254.44	6.22	-46.2	-47.9	18.2	0.00e+00	0	42	0	63963136	64	4280
2026-01-25 13:07:38.31	254.83	6.34	-46.4	-48.2	18.1	0.00e+00	0	43	0	69206016	63	4660
2026-01-25 13:07:41.26	255.22	6.47	-46.7	-48.6	17.6	0.00e+00	0	42	0	74448896	64	4627
2026-01-25 13:07:44.21	255.61	6.59	-46.6	-48.4	17.7	0.00e+00	0	43	0	80740352	64	4542
2026-01-25 13:07:47.17	256.01	6.71	-46.4	-48.2	18.1	0.00e+00	0	43	0	85983232	64	4395
2026-01-25 13:07:50.13	256.41	6.83	-46.3	-48.1	18.1	0.00e+00	0	43	0	91226112	64	4347
2026-01-25 13:07:53.09	256.82	6.96	-46.5	-48.2	18.0	0.00e+00	0	43	0	97517568	64	4430
2026-01-25 13:07:56.06	257.23	7.08	-46.5	-48.2	18.0	0.00e+00	0	42	0	102760448	64	4440
2026-01-25 13:07:59.01	257.64	7.20	-46.7	-48.5	17.8	0.00e+00	0	43	0	108003328	64	4556
2026-01-25 13:08:01.96	258.05	7.32	-46.3	-48.0	18.2	0.00e+00	0	43	0	113246208	64	4334
2026-01-25 13:08:04.92	258.47	7.43	-46.3	-48.0	18.2	0.00e+00	0	43	0	119537664	64	4336
2026-01-25 13:08:07.88	258.89	7.55	-46.3	-48.1	18.2	0.00e+00	0	42	0	124780544	64	4343
2026-01-25 13:08:10.84	259.31	7.67	-46.5	-48.2	18.0	0.00e+00	0	43	0	130023424	64	4437
2026-01-25 13:08:13.79	259.74	7.79	-46.3	-48.1	18.2	0.00e+00	0	43	0	136314880	64	4341
2026-01-25 13:08:16.74	260.17	7.90	-46.4	-48.1	18.2	0.00e+00	0	43	0	141557760	64	4354
2026-01-25 13:08:19.70	260.60	8.02	-46.6	-48.4	17.9	0.00e+00	0	43	0	146800640	64	4500
2026-01-25 13:08:22.66	261.04	8.13	-46.7	-48.5	17.8	0.00e+00	0	43	0	152043520	64	4594
2026-01-25 13:08:25.63	261.48	8.24	-46.6	-48.4	18.0	0.00e+00	0	43	0	158334976	64	4495
2026-01-25 13:08:28.59	261.93	8.35	-46.5	-48.2	18.1	0.00e+00	0	43	0	163577856	64	4419
2026-01-25 13:08:31.56	262.38	8.47	-46.4	-48.1	18.3	0.00e+00	0	43	0	168820736	64	4358
2026-01-25 13:08:34.53	262.83	8.58	-47.0	-48.9	17.4	0.00e+00	0	43	0	175112192	64	4804
2026-01-25 13:08:37.49	263.28	8.68	-47.1	-49.0	17.4	0.00e+00	0	43	0	180355072	65	4575
2026-01-25 13:08:40.46	263.74	8.79	-47.0	-48.9	17.5	0.00e+00	0	43	0	185597952	65	4518
2026-01-25 13:08:43.44	264.20	8.90	-46.7	-48.5	17.8	0.00e+00	0	43	0	191889408	65	4335
2026-01-25 13:08:46.41	264.67	9.01	-46.8	-48.6	17.8	0.00e+00	0	43	0	197132288	65	4346
2026-01-25 13:08:49.37	265.14	9.11	-47.2	-49.2	17.3	0.00e+00	0	43	0	202375168	65	4657
2026-01-25 13:08:52.33	265.61	9.21	-47.0	-48.9	17.5	0.00e+00	0	43	0	208666624	65	4540
2026-01-25 13:08:55.30	266.08	9.32	-47.2	-49.1	17.3	0.00e+00	0	43	0	213909504	65	4625
2026-01-25 13:08:58.27	266.56	9.42	-47.7	-49.9	16.5	0.00e+00	0	43	0	219152384	66	4781
2026-01-25 13:09:01.24	267.04	9.52	-48.6	-51.5	14.6	0.00e+00	0	43	0	224395264	67	5425
2026-01-25 13:09:04.19	267.52	9.61	-49.0	-52.3	13.5	3.00e-06	0	43	0	230686720	68	5629
2026-01-25 13:09:07.14	268.01	9.71	-49.0	-52.5	13.1	3.66e-05	0	43	0	235929600	68	5785
2026-01-25 13:09:10.11	268.50	9.81	-49.0	-52.4	13.5	1.14e-05	0	43	0	241172480	68	5676
2026-01-25 13:09:13.07	268.99	9.90	-48.7	-51.6	14.4	0.00e+00	0	43	0	247463936	68	5217
2026-01-25 13:09:16.03	269.48	9.99	-48.1	-50.7	15.2	0.00e+00	0	43	0	252706816	68	4701
2026-01-25 13:09:18.99	269.98	10.08	-48.2	-50.7	15.4	0.00e+00	0	43	0	257949696	68	4703
2026-01-25 13:09:21.95	270.48	10.17	-47.5	-49.6	16.8	0.00e+00	0	43	0	263192576	67	4369
2026-01-25 13:09:24.92	270.99	10.26	-46.6	-48.4	18.1	0.00e+00	0	43	0	269484032	65	4243
2026-01-25 13:09:27.88	271.49	10.34	-46.4	-48.1	18.4	0.00e+00	0	43	0	274726912	64	4346
2026-01-25 13:09:30.84	272.00	10.43	-46.9	-48.7	17.8	0.00e+00	0	43	0	279969792	64	4689
2026-01-25 13:09:33.79	272.51	10.51	-46.6	-48.4	18.1	0.00e+00	0	43	0	286261248	64	4501
2026-01-25 13:09:36.75	273.03	10.59	-46.8	-48.6	18.0	0.00e+00	0	43	0	291504128	64	4599
2026-01-25 13:09:39.71	273.55	10.67	-46.8	-48.5	18.0	0.00e+00	0	43	0	296747008	64	4581
2026-01-25 13:09:42.67	274.07	10.75	-46.9	-48.6	17.9	0.00e+00	0	43	0	301989888	64	4649
2026-01-25 13:09:45.62	274.59	10.82	-46.4	-48.1	18.4	0.00e+00	0	43	0	308281344	64	4368
2026-01-25 13:09:48.57	275.11	10.89	-46.4	-48.0	18.5	0.00e+00	0	43	0	313524224	64	4337
2026-01-25 13:09:51.54	275.64	10.96	-46.6	-48.4	18.2	0.00e+00	0	43	0	318767104	64	4495
2026-01-25 13:09:54.50	276.17	11.03	-47.1	-48.9	17.7	0.00e+00	0	43	0	325058560	64	4804
2026-01-25 13:09:57.45	276.70	11.10	-47.1	-49.0	17.6	0.00e+00	0	43	0	330301440	65	4571
2026-01-25 13:10:00.41	277.24	11.17	-46.5	-48.2	18.4	0.00e+00	0	43	0	335544320	65	4166
2026-01-25 13:10:03.36	277.77	11.23	-46.4	-48.1	18.5	0.00e+00	0	43	0	341835776	64	4362
2026-01-25 13:10:06.33	278.31	11.29	-46.7	-48.4	18.2	0.00e+00	0	43	0	347078656	64	4538
2026-01-25 13:10:09.31	278.86	11.35	-46.2	-47.8	18.7	0.00e+00	0	43	0	352321536	64	4221
2026-01-25 13:10:12.29	279.41	11.41	-46.0	-47.5	19.2	0.00e+00	0	43	0	357564416	63	4297
2026-01-25 13:10:15.28	279.96	11.46	-46.7	-48.4	18.2	0.00e+00	0	43	0	363855872	64	4538
2026-01-25 13:10:18.25	280.51	11.52	-46.7	-48.4	18.2	0.00e+00	0	43	0	369098752	64	4545
2026-01-25 13:10:21.21	281.06	11.57	-46.7	-48.3	18.3	0.00e+00	0	43	0	374341632	64	4491
2026-01-25 13:10:24.18	281.61	11.61	-47.9	-50.0	16.9	0.00e+00	0	43	0	380633088	66	4833
2026-01-25 13:10:27.14	282.16	11.66	-47.8	-49.9	17.0	0.00e+00	0	43	0	385875968	67	4498
2026-01-25 13:10:30.11	282.72	11.70	-47.0	-48.7	18.1	0.00e+00	0	43	0	391118848	66	4180
2026-01-25 13:10:33.08	283.28	11.74	-47.2	-49.0	17.9	0.00e+00	0	43	0	397410304	65	4567
2026-01-25 13:10:36.05	283.83	11.78	-47.8	-49.8	17.1	0.00e+00	0	43	0	402653184	66	4710
2026-01-25 13:10:39.02	284.40	11.82	-47.5	-49.3	17.6	0.00e+00	0	43	0	407896064	66	4493
2026-01-25 13:10:41.98	284.96	11.85	-48.0	-50.1	16.8	0.00e+00	0	43	0	414187520	66	4882
2026-01-25 13:10:44.94	285.52	11.88	-48.7	-51.2	15.8	0.00e+00	0	43	0	419430400	68	4939
2026-01-25 13:10:47.90	286.08	11.91	-48.4	-50.7	16.2	0.00e+00	0	43	0	424673280	68	4684
2026-01-25 13:10:50.87	286.64	11.94	-47.3	-49.2	17.7	0.00e+00	0	43	0	429916160	66	4400
2026-01-25 13:10:53.83	287.21	11.96	-47.4	-49.3	17.7	0.00e+00	0	43	0	436207616	66	4445
2026-01-25 13:10:56.79	287.77	11.99	-47.3	-49.1	17.8	0.00e+00	0	43	0	441450496	66	4370
2026-01-25 13:10:59.75	288.34	12.01	-46.8	-48.5	18.4	0.00e+00	0	43	0	446693376	65	4292
2026-01-25 13:11:02.71	288.91	12.02	-46.5	-48.1	18.7	0.00e+00	0	43	0	452984832	64	4368
2026-01-25 13:11:05.67	289.47	12.04	-46.3	-47.9	19.0	0.00e+00	0	43	0	458227712	64	4248
2026-01-25 13:11:08.66	290.05	12.05	-46.1	-47.5	19.3	0.00e+00	0	43	0	463470592	64	4091
2026-01-25 13:11:11.64	290.62	12.06	-46.3	-47.8	19.0	0.00e+00	0	43	0	469762048	64	4228
2026-01-25 13:11:14.63	291.19	12.06	-46.5	-48.1	18.7	0.00e+00	0	43	0	475004928	64	4386
2026-01-25 13:11:17.62	291.77	12.07	-46.1	-47.6	19.2	0.00e+00	0	43	0	480247808	64	4135
2026-01-25 13:11:20.62	292.34	12.07	-46.2	-47.7	19.2	0.00e+00	0	43	0	486539264	63	4399
2026-01-25 13:11:23.61	292.92	12.07	-46.3	-47.8	19.1	0.00e+00	0	43	0	491782144	63	4462
2026-01-25 13:11:26.56	293.48	12.06	-46.2	-47.7	19.1	0.00e+00	0	43	0	497025024	63	4428
2026-01-25 13:11:29.51	294.05	12.06	-46.1	-47.6	19.3	0.00e+00	0	43	0	502267904	63	4352
2026-01-25 13:11:32.47	294.62	12.05	-46.1	-47.7	19.2	0.00e+00	0	43	0	508559360	63	4396
2026-01-25 13:11:35.42	295.18	12.04	-46.1	-47.6	19.3	0.00e+00	0	43	0	513802240	63	4346
2026-01-25 13:11:38.38	295.75	12.03	-46.0	-47.5	19.3	0.00e+00	0	43	0	519045120	63	4326
2026-01-25 13:11:41.33	296.31	12.01	-46.5	-48.1	18.8	0.00e+00	0	43	0	525336576	63	4616
2026-01-25 13:11:44.27	296.87	11.99	-46.0	-47.4	19.3	0.00e+00	0	43	0	530579456	63	4280
2026-01-25 13:11:47.24	297.44	11.97	-45.5	-46.8	19.9	0.00e+00	0	43	0	535822336	63	3999
2026-01-25 13:11:50.19	298.00	11.95	-45.4	-46.8	19.9	0.00e+00	0	43	0	541065216	62	4204
2026-01-25 13:11:53.15	298.56	11.92	-45.7	-47.1	19.6	0.00e+00	0	43	0	547356672	62	4361
2026-01-25 13:11:56.10	299.12	11.89	-45.3	-46.7	20.0	0.00e+00	0	43	0	552599552	62	4170
2026-01-25 13:11:59.06	299.69	11.86	-45.3	-46.6	20.1	0.00e+00	0	43	0	557842432	62	4123
2026-01-25 13:12:02.02	300.25	11.83	-45.7	-47.1	19.6	0.00e+00	0	43	0	564133888	62	4376
2026-01-25 13:12:04.98	300.80	11.79	-45.6	-47.0	19.7	0.00e+00	0	43	0	569376768	62	4304
2026-01-25 13:12:07.94	301.36	11.75	-45.1	-46.4	20.2	0.00e+00	0	43	0	574619648	62	4011
2026-01-25 13:12:10.90	301.92	11.71	-45.2	-46.5	20.1	0.00e+00	0	43	0	579862528	61	4313
2026-01-25 13:12:13.87	302.47	11.67	-45.4	-46.8	19.9	0.00e+00	0	43	0	586153984	61	4455
2026-01-25 13:12:16.84	303.03	11.63	-45.1	-46.4	20.2	0.00e+00	0	43	0	591396864	61	4268
2026-01-25 13:12:19.80	303.58	11.58	-45.1	-46.4	20.2	0.00e+00	0	43	0	596639744	61	4264
2026-01-25 13:12:22.77	304.13	11.53	-45.2	-46.6	20.1	0.00e+00	0	43	0	602931200	61	4353
2026-01-25 13:12:25.73	304.67	11.48	-45.4	-46.8	19.8	0.00e+00	0	43	0	608174080	61	4484
2026-01-25 13:12:28.71	305.22	11.42	-45.4	-46.8	19.8	0.00e+00	0	43	0	613416960	61	4474
2026-01-25 13:12:31.68	305.77	11.37	-45.6	-47.0	19.6	0.00e+00	0	43	0	619708416	61	4580
2026-01-25 13:12:34.65	306.31	11.31	-45.7	-47.2	19.4	0.00e+00	0	43	0	624951296	62	4416
2026-01-25 13:12:37.61	306.85	11.25	-45.7	-47.1	19.4	0.00e+00	0	43	0	630194176	62	4380
2026-01-25 13:12:40.56	307.38	11.19	-45.0	-46.3	20.3	0.00e+00	0	43	0	636485632	61	4196
2026-01-25 13:12:43.51	307.92	11.12	-44.8	-46.1	20.4	0.00e+00	0	43	0	641728512	61	4125
2026-01-25 13:12:46.46	308.45	11.06	-44.8	-46.0	20.5	0.00e+00	0	43	0	646971392	61	4082
2026-01-25 13:12:49.40	308.97	10.99	-44.6	-45.9	20.6	0.00e+00	0	43	0	652214272	61	4013
2026-01-25 13:12:52.36	309.50	10.92	-44.5	-45.7	20.7	0.00e+00	0	43	0	658505728	60	4173
2026-01-25 13:12:55.31	310.02	10.85	-44.9	-46.2	20.4	0.00e+00	0	43	0	663748608	60	4399
2026-01-25 13:12:58.27	310.54	10.77	-45.0	-46.3	20.1	0.00e+00	0	43	0	668991488	60	4488
2026-01-25 13:13:01.23	311.06	10.70	-45.0	-46.3	20.3	0.00e+00	0	43	0	675282944	60	4450
2026-01-25 13:13:04.19	311.58	10.62	-44.7	-46.0	20.5	0.00e+00	0	43	0	680525824	60	4301
2026-01-25 13:13:07.13	312.09	10.54	-44.6	-45.9	20.5	0.00e+00	0	43	0	685768704	60	4268
2026-01-25 13:13:10.07	312.60	10.46	-44.9	-46.2	20.2	0.00e+00	0	43	0	691011584	60	4397
2026-01-25 13:13:13.01	313.10	10.38	-44.7	-45.9	20.4	0.00e+00	0	43	0	697303040	60	4278
2026-01-25 13:13:15.97	313.61	10.29	-44.7	-46.0	20.4	0.00e+00	0	43	0	702545920	60	4293
2026-01-25 13:13:18.91	314.11	10.20	-44.7	-46.0	20.4	0.00e+00	0	43	0	707788800	60	4296
2026-01-25 13:13:21.85	314.61	10.12	-44.7	-46.0	20.3	0.00e+00	0	43	0	713031680	60	4331
2026-01-25 13:13:24.78	315.10	10.03	-44.9	-46.3	20.2	0.00e+00	0	43	0	719323136	60	4445
2026-01-25 13:13:27.72	315.59	9.94	-45.0	-46.3	20.1	0.00e+00	0	43	0	724566016	60	4471
2026-01-25 13:13:30.66	316.08	9.85	-45.7	-47.1	19.3	0.00e+00	0	43	0	729808896	61	4638
2026-01-25 13:13:33.59	316.56	9.75	-46.1	-47.7	18.8	0.00e+00	0	43	0	735051776	62	4657
2026-01-25 13:13:36.54	317.04	9.66	-46.0	-47.6	18.9	0.00e+00	0	43	0	741343232	62	4613
2026-01-25 13:13:39.48	317.52	9.56	-46.3	-48.0	18.5	0.00e+00	0	43	0	746586112	63	4553
2026-01-25 13:13:42.43	318.00	9.46	-46.3	-48.0	18.5	0.00e+00	0	43	0	751828992	63	4550
2026-01-25 13:13:45.38	318.47	9.37	-46.3	-47.9	18.5	0.00e+00	0	43	0	757071872	63	4516
2026-01-25 13:13:48.34	318.95	9.27	-46.3	-48.0	18.5	0.00e+00	0	43	0	763363328	63	4547
2026-01-25 13:13:51.29	319.41	9.16	-46.5	-48.2	18.2	0.00e+00	0	43	0	768606208	63	4662
2026-01-25 13:13:54.24	319.88	9.06	-46.7	-48.6	17.8	0.00e+00	0	43	0	773849088	64	4599
2026-01-25 13:13:57.20	320.34	8.96	-46.9	-48.7	17.6	0.00e+00	0	43	0	780140544	64	4696
2026-01-25 13:14:00.16	320.80	8.85	-46.6	-48.4	18.0	0.00e+00	0	43	0	785383424	64	4522
2026-01-25 13:14:03.12	321.26	8.74	-47.4	-49.4	17.0	0.00e+00	0	43	0	790626304	65	4786
2026-01-25 13:14:06.09	321.71	8.64	-48.1	-50.5	15.9	0.00e+00	0	43	0	795869184	66	5150
2026-01-25 13:14:09.05	322.16	8.53	-48.0	-50.3	16.2	0.00e+00	0	43	0	802160640	67	4713
2026-01-25 13:14:12.01	322.61	8.42	-47.5	-49.6	16.8	0.00e+00	0	43	0	807403520	66	4613
2026-01-25 13:14:14.96	323.05	8.31	-47.4	-49.5	16.8	0.00e+00	0	43	0	812646400	66	4554
2026-01-25 13:14:17.91	323.49	8.20	-47.4	-49.5	16.9	0.00e+00	0	43	0	818937856	66	4597
2026-01-25 13:14:20.87	323.93	8.08	-47.6	-49.7	16.6	0.00e+00	0	43	0	824180736	66	4703
2026-01-25 13:14:23.83	324.36	7.97	-47.7	-49.9	16.4	0.00e+00	0	43	0	829423616	66	4806
2026-01-25 13:14:26.78	324.79	7.86	-47.7	-50.0	16.3	0.00e+00	0	43	0	834666496	66	4839
2026-01-25 13:14:29.74	325.22	7.74	-47.8	-50.0	16.2	0.00e+00	0	43	0	840957952	66	4867
2026-01-25 13:14:32.68	325.64	7.63	-47.7	-49.9	16.5	0.00e+00	0	43	0	846200832	66	4762
2026-01-25 13:14:35.65	326.06	7.51	-47.6	-49.7	16.7	0.00e+00	0	43	0	851443712	66	4701
2026-01-25 13:14:38.61	326.48	7.39	-47.3	-49.4	16.9	0.00e+00	0	43	0	857735168	66	4522
2026-01-25 13:14:41.56	326.89	7.27	-47.0	-48.9	17.3	0.00e+00	0	43	0	862978048	66	4287
2026-01-25 13:14:44.50	327.30	7.16	-46.9	-48.8	17.4	0.00e+00	0	43	0	868220928	65	4492
2026-01-25 13:14:47.43	327.71	7.04	-46.7	-48.5	17.6	0.00e+00	0	43	0	874512384	65	4328
2026-01-25 13:14:50.38	328.11	6.92	-46.5	-48.4	17.8	0.00e+00	0	43	0	879755264	64	4494
2026-01-25 13:14:53.34	328.51	6.80	-46.9	-48.9	17.2	0.00e+00	0	43	0	884998144	64	4788
2026-01-25 13:14:56.29	328.91	6.68	-47.1	-49.1	16.9	0.00e+00	0	43	0	890241024	64	4906
2026-01-25 13:14:59.25	329.30	6.55	-47.0	-49.1	17.0	0.00e+00	0	43	0	896532480	65	4599
2026-01-25 13:15:02.20	329.69	6.43	-46.9	-48.9	17.1	0.00e+00	0	43	0	901775360	65	4528
2026-01-25 13:15:05.16	330.08	6.31	-46.8	-48.8	17.3	0.00e+00	0	43	0	907018240	65	4458
2026-01-25 13:15:08.11	330.47	6.19	-46.8	-48.8	17.3	0.00e+00	0	43	0	912261120	65	4443
2026-01-25 13:15:11.06	330.85	6.06	-46.6	-48.5	17.5	0.00e+00	0	43	0	918552576	65	4293
2026-01-25 13:15:14.01	331.23	5.94	-46.4	-48.3	17.8	0.00e+00	0	43	0	923795456	64	4458
2026-01-25 13:15:16.96	331.60	5.82	-45.9	-47.6	18.4	0.00e+00	0	43	0	929038336	63	4363
2026-01-25 13:15:19.91	331.97	5.69	-46.2	-48.0	18.1	0.00e+00	0	43	0	934281216	63	4572
2026-01-25 13:15:22.85	332.34	5.57	-46.4	-48.2	17.8	0.00e+00	0	43	0	940572672	63	4667
2026-01-25 13:15:25.81	332.71	5.44	-46.3	-48.1	17.9	0.00e+00	0	43	0	945815552	63	4633
2026-01-25 13:15:28.74	333.07	5.31	-45.9	-47.6	18.3	0.00e+00	0	43	0	951058432	63	4356
2026-01-25 13:15:31.68	333.43	5.19	-46.3	-48.1	17.8	0.00e+00	0	43	0	957349888	63	4650
2026-01-25 13:15:34.63	333.78	5.06	-46.3	-48.2	17.5	0.00e+00	0	43	0	962592768	63	4659
2026-01-25 13:15:37.57	334.14	4.94	-52.5	-67.5	3.8	1.49e+00	0	43	104	966787072	75	21640
2026-01-25 13:15:40.51	334.49	4.81	-53.1	-67.9	3.8	1.49e+00	0	43	104	966787072	76	21441
2026-01-25 13:15:43.47	334.84	4.68	-53.3	-68.2	3.8	1.49e+00	0	43	104	966787072	77	20965
2026-01-25 13:15:46.41	335.18	4.56	-53.2	-68.2	3.8	1.49e+00	0	43	104	966787072	77	20889
2026-01-25 13:15:49.37	335.52	4.43	-53.0	-67.9	3.8	1.49e+00	0	43	104	966787072	77	20225
2026-01-25 13:15:52.34	335.87	4.30	-53.1	-68.1	3.8	1.49e+00	0	43	104	966787072	77	20557
2026-01-25 13:15:55.28	336.20	4.17	-53.1	-68.1	3.8	1.49e+00	0	44	104	966787072	77	20611
2026-01-25 13:15:58.24	336.54	4.04	-53.1	-68.1	3.8	1.49e+00	0	44	104	966787072	77	20608
2026-01-25 13:16:01.19	336.87	3.91	-53.1	-68.0	3.8	1.49e+00	0	43	104	966787072	77	20518
2026-01-25 13:16:04.14	337.20	3.79	-53.1	-68.0	3.8	1.49e+00	0	44	104	966787072	77	20407
2026-01-25 13:16:07.09	337.52	3.66	-53.0	-68.0	3.8	1.49e+00	0	44	104	966787072	77	20427
2026-01-25 13:16:10.05	337.85	3.53	-53.0	-68.0	3.8	1.49e+00	0	43	104	966787072	77	20425
2026-01-25 13:16:13.00	338.17	3.40	-53.0	-68.0	3.8	1.49e+00	0	44	104	966787072	77	20389
2026-01-25 13:16:15.94	338.48	3.27	-53.0	-68.0	3.8	1.49e+00	0	44	104	966787072	77	20376
2026-01-25 13:16:18.89	338.80	3.14	-53.0	-68.0	3.8	1.49e+00	0	44	104	966787072	77	20368
2026-01-25 13:16:21.84	339.11	3.01	-53.0	-67.9	3.8	1.49e+00	0	44	104	966787072	77	20285
2026-01-25 13:16:24.78	339.42	2.88	-53.0	-67.9	3.8	1.49e+00	0	44	104	966787072	77	20276
2026-01-25 13:16:27.74	339.73	2.75	-53.0	-67.9	3.8	1.49e+00	0	43	104	966787072	77	20268
2026-01-25 13:16:30.69	340.03	2.62	-53.0	-67.9	3.8	1.49e+00	0	44	104	966787072	77	20302
2026-01-25 13:16:33.64	340.34	2.49	-52.9	-67.9	3.8	1.49e+00	0	44	104	966787072	77	20136
2026-01-25 13:16:36.58	340.63	2.37	-52.9	-67.9	3.8	1.49e+00	0	44	104	966787072	77	20166
2026-01-25 13:16:39.52	340.93	2.24	-52.9	-67.9	3.8	1.49e+00	0	44	104	966787072	77	20079
2026-01-25 13:16:42.46	341.22	2.11	-52.9	-67.9	3.8	1.49e+00	0	44	104	966787072	77	20177
2026-01-25 13:16:45.41	341.52	1.98	-52.9	-67.8	3.8	1.49e+00	0	44	104	966787072	77	20051

#Closed at: 2026-01-25 13:16:47
#Recorded file [966 MB]: D:/lorett/data/31041_260125_160600.dat