passes_logs/2026/01/25/R3.2S_Murmansk/R3.2S_Murmansk__20260125_083840_KANOPUS-V_5_rec.log

#Pass ID: 20260125_083840_KANOPUS-V 5
#Satellite: KANOPUS-V 5
#Configuration: KANOPUS-V_8320
#almurnet v.1.7.20251203
#Start time: 2026-01-25 08:38:42

#Version: 2.2.20231116
#Station: R3.2S_Murmansk
#Location: 33.079688 lon 68.888172 lat
#TLE: 1 43876U 18111A   26024.95715628  .00005617  00000+0  23806-3 0  9997
#TLE: 2 43876  97.3675 293.2916 0001833  88.4697 271.6750 15.23533298392986

#Time	Az	El	Level	Level2	SNR	BER	BlckErr	Temp	State	Recorded	gain1	gain2
2026-01-25 08:38:42.17	184.27	2.11	-53.3	-62.1	3.8	7.45e-01	0	44	0	0	78	9777
2026-01-25 08:38:45.10	184.42	2.31	-53.2	-62.1	3.8	7.45e-01	0	43	104	0	77	10349
2026-01-25 08:38:48.06	184.58	2.51	-53.2	-62.1	3.8	7.44e-01	0	43	104	0	77	10312
2026-01-25 08:38:51.02	184.74	2.72	-53.2	-62.1	3.8	7.45e-01	0	43	104	0	77	10313
2026-01-25 08:38:53.97	184.90	2.92	-53.2	-62.1	3.8	7.46e-01	0	44	104	0	77	10309
2026-01-25 08:38:56.92	185.06	3.13	-53.2	-62.1	3.8	7.46e-01	0	43	104	0	77	10308
2026-01-25 08:38:59.88	185.23	3.34	-53.2	-62.0	3.8	7.46e-01	0	44	104	0	77	10226
2026-01-25 08:39:02.83	185.40	3.56	-53.2	-62.0	3.8	7.45e-01	0	44	104	0	77	10265
2026-01-25 08:39:05.79	185.57	3.77	-53.1	-61.7	3.8	7.46e-01	0	44	104	0	77	9884
2026-01-25 08:39:08.74	185.75	3.99	-53.1	-61.5	3.8	7.46e-01	0	44	104	0	77	9711
2026-01-25 08:39:11.69	185.93	4.21	-52.9	-60.9	3.8	7.44e-01	0	44	104	0	77	8971
2026-01-25 08:39:14.64	186.11	4.43	-50.9	-55.5	5.7	6.89e-01	0	44	0	2097152	73	6081
2026-01-25 08:39:17.59	186.29	4.65	-48.4	-51.6	9.2	6.31e-01	0	44	0	8388608	68	5160
2026-01-25 08:39:20.54	186.48	4.88	-48.4	-51.7	9.4	5.97e-01	0	44	0	52428800	67	5541
2026-01-25 08:39:23.48	186.67	5.11	-46.0	-48.6	12.6	5.78e-01	0	44	0	98566144	63	4887
2026-01-25 08:39:26.42	186.87	5.34	-45.2	-47.6	13.3	5.78e-01	0	44	0	109051904	62	4613
2026-01-25 08:39:29.37	187.07	5.57	-45.2	-47.6	13.3	5.77e-01	0	44	0	155189248	62	4632
2026-01-25 08:39:32.32	187.27	5.81	-45.3	-47.7	13.3	5.77e-01	0	44	0	199229440	62	4690
2026-01-25 08:39:35.26	187.48	6.05	-44.8	-47.2	13.7	5.78e-01	0	44	0	245366784	61	4685
2026-01-25 08:39:38.21	187.69	6.29	-45.1	-47.6	13.5	5.77e-01	0	44	0	289406976	61	4877
2026-01-25 08:39:41.16	187.91	6.53	-44.9	-47.2	13.8	5.77e-01	0	44	0	335544320	61	4704
2026-01-25 08:39:44.11	188.13	6.78	-44.9	-47.2	13.8	5.77e-01	0	45	0	379584512	61	4690
2026-01-25 08:39:47.06	188.35	7.03	-44.6	-46.9	14.1	5.76e-01	0	44	0	425721856	61	4542
2026-01-25 08:39:50.01	188.58	7.28	-44.5	-46.7	14.3	5.76e-01	0	45	0	471859200	60	4695
2026-01-25 08:39:52.96	188.81	7.54	-44.4	-46.7	14.3	6.00e-01	0	44	0	515899392	60	4656
2026-01-25 08:39:55.89	189.05	7.80	-44.2	-46.4	14.6	6.02e-01	0	44	0	562036736	60	4499
2026-01-25 08:39:58.85	189.30	8.06	-44.3	-46.5	14.5	6.02e-01	0	44	0	606076928	60	4554
2026-01-25 08:40:01.78	189.55	8.32	-44.2	-46.3	14.7	6.01e-01	0	44	0	652214272	59	4738
2026-01-25 08:40:04.73	189.80	8.59	-44.1	-46.2	14.8	5.99e-01	0	44	0	696254464	59	4684
2026-01-25 08:40:07.67	190.06	8.86	-43.9	-46.0	14.9	6.01e-01	0	45	0	742391808	59	4589
2026-01-25 08:40:10.61	190.33	9.14	-43.9	-46.0	15.0	5.99e-01	0	45	0	786432000	59	4590
2026-01-25 08:40:13.56	190.60	9.42	-43.8	-45.9	15.1	5.98e-01	0	45	0	832569344	59	4526
2026-01-25 08:40:16.50	190.88	9.70	-43.6	-45.8	15.2	5.98e-01	0	44	0	878706688	59	4452
2026-01-25 08:40:19.44	191.16	9.99	-43.4	-45.6	15.4	5.95e-01	0	45	0	922746880	58	4618
2026-01-25 08:40:22.38	191.45	10.28	-43.4	-45.6	15.4	5.98e-01	0	45	0	968884224	58	4618
2026-01-25 08:40:25.34	191.75	10.58	-43.3	-45.5	15.5	5.97e-01	0	45	0	1012924416	58	4579
2026-01-25 08:40:28.29	192.06	10.88	-43.2	-45.4	15.6	5.97e-01	0	45	0	1059061760	58	4538
2026-01-25 08:40:31.24	192.38	11.18	-43.2	-45.4	15.6	5.97e-01	0	45	0	1103101952	58	4494
2026-01-25 08:40:34.19	192.70	11.49	-43.0	-45.1	15.8	5.93e-01	0	45	0	1149239296	57	4651
2026-01-25 08:40:37.15	193.03	11.81	-42.6	-44.7	16.2	5.99e-01	0	44	0	1195376640	57	4421
2026-01-25 08:40:40.10	193.37	12.13	-42.5	-44.5	16.3	5.97e-01	0	44	0	1241513984	56	4591
2026-01-25 08:40:43.06	193.72	12.45	-42.4	-44.4	16.4	5.96e-01	0	45	0	1285554176	56	4543
2026-01-25 08:40:46.02	194.07	12.78	-42.6	-44.6	16.3	5.98e-01	0	45	0	1331691520	56	4614
2026-01-25 08:40:48.97	194.44	13.11	-42.7	-44.8	16.1	5.97e-01	0	45	0	1377828864	56	4708
2026-01-25 08:40:51.93	194.82	13.45	-42.1	-44.1	16.7	5.93e-01	0	45	0	1421869056	56	4389
2026-01-25 08:40:54.87	195.20	13.79	-42.0	-44.1	16.7	5.96e-01	0	45	0	1468006400	56	4372
2026-01-25 08:40:57.82	195.60	14.14	-42.1	-44.2	16.8	5.95e-01	0	45	0	1512046592	55	4695
2026-01-25 08:41:00.77	196.01	14.50	-42.1	-44.2	16.7	5.99e-01	0	44	0	1558183936	55	4694
2026-01-25 08:41:03.73	196.43	14.86	-41.8	-43.9	17.0	5.95e-01	0	45	0	1602224128	55	4544
2026-01-25 08:41:06.68	196.86	15.23	-41.8	-43.8	17.1	5.96e-01	0	45	0	1648361472	55	4492
2026-01-25 08:41:09.63	197.30	15.60	-41.4	-43.4	17.4	6.04e-01	0	45	0	1694498816	54	4512
2026-01-25 08:41:12.59	197.76	15.98	-41.5	-43.5	17.4	5.97e-01	0	44	0	1740636160	54	4571
2026-01-25 08:41:15.54	198.23	16.36	-41.2	-43.2	17.6	5.96e-01	0	45	0	1784676352	54	4417
2026-01-25 08:41:18.49	198.72	16.75	-41.2	-43.2	17.6	5.95e-01	0	45	0	1830813696	54	4408
2026-01-25 08:41:21.44	199.21	17.15	-41.2	-43.2	17.6	5.95e-01	0	45	0	1874853888	54	4413
2026-01-25 08:41:24.39	199.73	17.56	-41.1	-43.0	17.8	5.99e-01	0	45	0	1920991232	54	4308
2026-01-25 08:41:27.35	200.26	17.97	-41.0	-42.9	17.8	5.95e-01	0	45	0	1965031424	54	4289
2026-01-25 08:41:30.30	200.81	18.39	-40.7	-42.6	18.0	5.97e-01	0	45	0	2011168768	53	4390
2026-01-25 08:41:33.24	201.37	18.81	-40.7	-42.6	18.0	5.96e-01	0	45	0	2055208960	53	4351
2026-01-25 08:41:36.19	201.95	19.24	-40.6	-42.5	18.1	5.98e-01	0	45	0	2101346304	53	4308
2026-01-25 08:41:39.14	202.55	19.68	-40.6	-42.5	18.1	5.96e-01	0	45	0	2147483648	53	4292
2026-01-25 08:41:42.09	203.17	20.13	-40.4	-42.3	18.3	5.98e-01	0	45	0	2193620992	52	4457
2026-01-25 08:41:45.04	203.82	20.58	-40.4	-42.3	18.3	5.97e-01	0	45	0	2237661184	52	4471
2026-01-25 08:41:47.99	204.48	21.04	-40.6	-42.5	18.1	5.98e-01	0	45	0	2283798528	52	4574
2026-01-25 08:41:50.94	205.17	21.51	-40.4	-42.3	18.3	5.97e-01	0	45	0	2327838720	52	4468
2026-01-25 08:41:53.88	205.87	21.98	-40.3	-42.1	18.5	5.96e-01	0	45	0	2373976064	52	4378
2026-01-25 08:41:56.82	206.60	22.46	-40.2	-42.1	18.5	5.98e-01	0	45	0	2418016256	52	4341
2026-01-25 08:41:59.77	207.36	22.95	-40.4	-42.2	18.4	5.96e-01	0	45	0	2464153600	52	4418
2026-01-25 08:42:02.72	208.15	23.44	-40.7	-42.6	18.1	5.98e-01	0	45	0	2510290944	52	4606
2026-01-25 08:42:05.68	208.97	23.94	-40.6	-42.3	18.3	5.98e-01	0	45	0	2556428288	52	4487
2026-01-25 08:42:08.63	209.81	24.45	-40.5	-42.2	18.4	5.97e-01	0	45	0	2600468480	52	4425
2026-01-25 08:42:11.57	210.68	24.96	-40.4	-42.0	18.5	5.98e-01	0	45	0	2646605824	52	4340
2026-01-25 08:42:14.52	211.59	25.48	-40.5	-42.3	18.4	5.96e-01	0	45	0	2690646016	52	4451
2026-01-25 08:42:17.47	212.53	26.01	-40.5	-42.2	18.4	5.96e-01	0	45	0	2736783360	52	4437
2026-01-25 08:42:20.42	213.50	26.54	-40.7	-42.4	18.2	5.97e-01	0	45	0	2780823552	52	4539
2026-01-25 08:42:23.37	214.51	27.07	-40.7	-42.4	18.3	5.96e-01	0	45	0	2826960896	52	4499
2026-01-25 08:42:26.32	215.56	27.61	-40.9	-42.9	18.0	5.96e-01	0	45	0	2871001088	52	4770
2026-01-25 08:42:29.27	216.65	28.15	-40.9	-42.8	18.0	5.97e-01	0	45	0	2917138432	52	4755
2026-01-25 08:42:32.22	217.78	28.70	-40.8	-42.5	18.2	5.96e-01	0	45	0	2963275776	52	4597
2026-01-25 08:42:35.17	218.95	29.24	-41.1	-42.8	18.0	5.94e-01	0	45	0	3009413120	52	4755
2026-01-25 08:42:38.11	220.15	29.79	-41.1	-42.8	18.0	5.96e-01	0	45	0	3053453312	52	4724
2026-01-25 08:42:41.07	221.41	30.33	-40.8	-42.7	18.1	6.00e-01	0	45	0	3099590656	52	4665
2026-01-25 08:42:44.02	222.72	30.87	-41.0	-42.9	18.0	5.95e-01	0	45	0	3143630848	52	4787
2026-01-25 08:42:46.97	224.07	31.41	-40.9	-42.6	18.2	6.00e-01	0	45	0	3189768192	52	4628
2026-01-25 08:42:49.91	225.46	31.94	-40.8	-42.7	18.1	5.97e-01	0	45	0	3233808384	52	4672
2026-01-25 08:42:52.86	226.91	32.47	-40.9	-42.7	18.0	5.98e-01	0	45	0	3277848576	52	4703
2026-01-25 08:42:55.80	228.40	32.98	-40.8	-42.8	18.1	5.99e-01	0	45	0	3323985920	52	4721
2026-01-25 08:42:58.75	229.95	33.49	-40.7	-42.6	18.2	5.98e-01	0	45	0	3370123264	52	4600
2026-01-25 08:43:01.70	231.55	33.98	-40.1	-42.2	18.5	5.99e-01	0	45	0	3416260608	52	4393
2026-01-25 08:43:04.65	233.20	34.46	-40.2	-42.2	18.5	6.03e-01	0	45	0	3460300800	52	4400
2026-01-25 08:43:07.60	234.90	34.92	-40.3	-42.3	18.5	6.01e-01	0	45	0	3506438144	51	4712
2026-01-25 08:43:10.56	236.66	35.36	-39.9	-42.0	18.6	6.01e-01	0	45	0	3550478336	51	4583
2026-01-25 08:43:13.50	238.45	35.78	-39.7	-41.9	18.7	6.03e-01	0	45	0	3596615680	51	4520
2026-01-25 08:43:16.45	240.30	36.17	-39.6	-41.6	19.0	6.05e-01	0	45	0	3640655872	51	4343
2026-01-25 08:43:19.39	242.18	36.54	-39.2	-41.3	19.1	6.05e-01	0	45	0	3686793216	50	4475
2026-01-25 08:43:22.34	244.12	36.88	-39.3	-41.6	18.9	6.03e-01	0	45	0	3732930560	50	4609
2026-01-25 08:43:25.29	246.10	37.18	-39.3	-41.5	19.0	5.77e-01	0	45	0	3779067904	50	4581
2026-01-25 08:43:28.24	248.11	37.46	-39.0	-41.3	19.2	5.76e-01	0	45	0	3823108096	50	4460
2026-01-25 08:43:31.19	250.16	37.69	-39.0	-41.3	19.1	5.76e-01	0	45	0	3869245440	49	4754
2026-01-25 08:43:34.13	252.23	37.89	-38.9	-41.1	19.2	5.76e-01	0	45	0	3913285632	49	4631
2026-01-25 08:43:37.09	254.33	38.05	-38.8	-41.2	19.2	5.74e-01	0	45	0	3959422976	49	4654
2026-01-25 08:43:40.04	256.45	38.17	-38.7	-41.0	19.3	5.76e-01	0	45	0	4003463168	49	4567
2026-01-25 08:43:42.98	258.58	38.25	-38.6	-40.7	19.5	5.76e-01	0	45	0	4049600512	49	4413
2026-01-25 08:43:45.93	260.71	38.28	-38.8	-41.1	19.3	5.75e-01	0	45	0	4093640704	49	4599
2026-01-25 08:43:48.87	262.85	38.27	-38.8	-41.1	19.2	6.01e-01	0	45	0	4139778048	49	4610
2026-01-25 08:43:51.83	264.99	38.23	-39.0	-41.1	19.2	5.98e-01	0	45	0	4185915392	49	4631
2026-01-25 08:43:54.77	267.11	38.13	-38.8	-41.0	19.3	5.95e-01	0	45	0	4232052736	49	4592
2026-01-25 08:43:57.70	269.21	38.00	-38.9	-41.2	19.2	5.96e-01	0	45	0	4276092928	49	4667
2026-01-25 08:44:00.65	271.30	37.83	-39.2	-41.3	19.1	6.00e-01	0	45	0	4320133120	49	4739
2026-01-25 08:44:03.59	273.35	37.62	-39.2	-41.4	19.1	5.96e-01	0	45	0	4366270464	49	4780
2026-01-25 08:44:06.54	275.39	37.37	-39.3	-41.5	19.1	5.91e-01	0	45	0	4410310656	49	4849
2026-01-25 08:44:09.48	277.38	37.09	-39.1	-41.2	19.2	5.97e-01	0	45	0	4456448000	49	4694
2026-01-25 08:44:12.43	279.34	36.78	-39.1	-41.2	19.2	5.94e-01	0	44	0	4500488192	49	4677
2026-01-25 08:44:15.38	281.26	36.43	-39.6	-41.8	18.9	5.92e-01	0	45	0	4546625536	49	5035
2026-01-25 08:44:18.33	283.13	36.05	-39.5	-41.9	18.7	5.95e-01	0	45	0	4592762880	49	5042
2026-01-25 08:44:21.26	284.95	35.66	-39.6	-41.8	18.9	5.99e-01	0	45	0	4638900224	50	4738
2026-01-25 08:44:24.21	286.73	35.23	-39.9	-42.0	18.6	5.97e-01	0	45	0	4682940416	50	4859
2026-01-25 08:44:27.15	288.46	34.79	-39.8	-41.8	18.9	5.99e-01	0	45	0	4726980608	50	4714
2026-01-25 08:44:30.10	290.14	34.32	-39.7	-41.6	19.0	5.95e-01	0	45	0	4773117952	50	4615
2026-01-25 08:44:33.05	291.77	33.84	-40.3	-42.3	18.6	5.99e-01	0	45	0	4817158144	51	4740
2026-01-25 08:44:35.99	293.34	33.35	-40.2	-42.0	18.7	5.97e-01	0	45	0	4863295488	51	4580
2026-01-25 08:44:38.95	294.87	32.84	-40.3	-42.0	18.8	6.00e-01	0	45	0	4909432832	51	4576
2026-01-25 08:44:41.89	296.35	32.32	-40.6	-42.6	18.3	6.00e-01	0	45	0	4955570176	52	4641
2026-01-25 08:44:44.83	297.77	31.80	-40.6	-42.6	18.3	5.99e-01	0	45	0	4999610368	52	4605
2026-01-25 08:44:47.78	299.15	31.27	-40.8	-42.7	18.2	5.94e-01	0	45	0	5045747712	52	4686
2026-01-25 08:44:50.72	300.48	30.73	-40.8	-42.6	18.2	5.96e-01	0	45	0	5089787904	52	4651
2026-01-25 08:44:53.67	301.76	30.19	-40.6	-42.5	18.3	5.97e-01	0	45	0	5135925248	52	4563
2026-01-25 08:44:56.62	303.00	29.65	-40.7	-42.5	18.5	6.00e-01	0	45	0	5179965440	52	4578
2026-01-25 08:44:59.57	304.19	29.11	-40.7	-42.5	18.4	5.97e-01	0	45	0	5226102784	52	4549
2026-01-25 08:45:02.52	305.35	28.57	-40.7	-42.6	18.4	5.98e-01	0	45	0	5270142976	52	4610
2026-01-25 08:45:05.47	306.46	28.03	-40.3	-42.3	18.4	5.94e-01	0	45	0	5316280320	52	4446
2026-01-25 08:45:08.41	307.53	27.49	-40.3	-42.1	18.6	5.97e-01	0	45	0	5362417664	52	4383
2026-01-25 08:45:11.37	308.56	26.95	-40.2	-42.0	18.6	5.94e-01	0	45	0	5408555008	52	4327
2026-01-25 08:45:14.30	309.55	26.43	-40.3	-42.1	18.6	5.95e-01	0	45	0	5452595200	52	4372
2026-01-25 08:45:17.25	310.51	25.90	-40.5	-42.3	18.5	6.02e-01	0	45	0	5496635392	52	4485
2026-01-25 08:45:20.19	311.44	25.38	-40.4	-42.2	18.5	6.01e-01	0	45	0	5542772736	52	4428
2026-01-25 08:45:23.15	312.33	24.86	-40.2	-42.0	18.6	6.02e-01	0	45	0	5586812928	52	4335
2026-01-25 08:45:26.09	313.20	24.36	-40.2	-42.1	18.5	6.03e-01	0	45	0	5632950272	52	4377
2026-01-25 08:45:29.03	314.03	23.85	-40.4	-42.3	18.3	6.03e-01	0	45	0	5679087616	52	4480
2026-01-25 08:45:31.97	314.83	23.36	-40.4	-42.4	18.3	6.02e-01	0	45	0	5723127808	52	4541
2026-01-25 08:45:34.91	315.60	22.87	-40.5	-42.6	18.1	5.98e-01	0	45	0	5769265152	52	4608
2026-01-25 08:45:37.86	316.35	22.39	-40.4	-42.4	18.3	6.01e-01	0	45	0	5813305344	52	4517
2026-01-25 08:45:40.80	317.07	21.91	-40.3	-42.2	18.4	6.02e-01	0	45	0	5859442688	52	4408
2026-01-25 08:45:43.75	317.78	21.44	-40.1	-41.9	18.7	5.99e-01	0	45	0	5903482880	52	4266
2026-01-25 08:45:46.69	318.45	20.98	-40.1	-42.0	18.6	5.98e-01	0	45	0	5949620224	51	4556
2026-01-25 08:45:49.64	319.11	20.53	-40.2	-42.1	18.4	6.03e-01	0	45	0	5993660416	51	4644
2026-01-25 08:45:52.59	319.74	20.08	-40.3	-42.3	18.3	6.05e-01	0	45	0	6039797760	51	4734
2026-01-25 08:45:55.53	320.35	19.64	-40.4	-42.5	18.1	6.05e-01	0	45	0	6085935104	51	4819
2026-01-25 08:45:58.49	320.95	19.20	-40.6	-42.6	18.0	6.00e-01	0	45	0	6132072448	52	4636
2026-01-25 08:46:01.44	321.53	18.77	-40.6	-42.6	18.1	5.99e-01	0	45	0	6176112640	52	4603
2026-01-25 08:46:04.38	322.08	18.35	-40.7	-42.6	18.0	5.97e-01	0	45	0	6222249984	52	4651
2026-01-25 08:46:07.33	322.63	17.94	-40.8	-42.8	17.9	6.00e-01	0	45	0	6266290176	52	4727
2026-01-25 08:46:10.29	323.15	17.53	-40.8	-42.8	17.9	6.01e-01	0	45	0	6312427520	52	4718
2026-01-25 08:46:13.24	323.66	17.13	-40.9	-42.9	17.8	5.75e-01	0	45	0	6356467712	52	4792
2026-01-25 08:46:16.19	324.16	16.74	-40.9	-42.8	17.8	5.75e-01	0	45	0	6402605056	52	4759
2026-01-25 08:46:19.14	324.64	16.35	-40.9	-42.9	17.8	5.76e-01	0	45	0	6446645248	52	4803
2026-01-25 08:46:22.09	325.10	15.97	-41.1	-43.1	17.6	5.76e-01	0	45	0	6492782592	52	4917
2026-01-25 08:46:25.04	325.55	15.59	-54.1	-63.1	3.8	7.43e-01	0	45	104	6534725632	78	10909
2026-01-25 08:46:27.99	325.99	15.23	-54.1	-62.9	3.8	7.46e-01	0	45	104	6534725632	78	10771
2026-01-25 08:46:30.94	326.42	14.86	-54.1	-62.9	3.8	7.44e-01	0	45	104	6534725632	78	10767
2026-01-25 08:46:33.90	326.84	14.50	-54.1	-62.9	3.8	7.44e-01	0	45	104	6534725632	78	10712
2026-01-25 08:46:36.84	327.24	14.15	-54.1	-62.9	3.8	7.46e-01	0	45	104	6534725632	78	10708
2026-01-25 08:46:39.79	327.64	13.81	-54.0	-62.9	3.8	7.45e-01	0	45	104	6534725632	78	10682
2026-01-25 08:46:42.75	328.02	13.47	-54.0	-62.9	3.8	7.45e-01	0	45	104	6534725632	78	10673
2026-01-25 08:46:45.70	328.39	13.13	-54.0	-62.8	3.8	7.44e-01	0	45	104	6534725632	78	10586
2026-01-25 08:46:48.65	328.76	12.80	-54.0	-62.8	3.8	7.46e-01	0	45	104	6534725632	78	10571
2026-01-25 08:46:51.60	329.11	12.47	-53.9	-62.8	3.8	7.46e-01	0	44	104	6534725632	78	10559
2026-01-25 08:46:54.55	329.46	12.15	-53.9	-62.7	3.8	7.46e-01	0	44	104	6534725632	78	10530
2026-01-25 08:46:57.49	329.79	11.84	-53.9	-62.7	3.8	7.46e-01	0	45	104	6534725632	78	10434
2026-01-25 08:47:00.43	330.12	11.53	-53.9	-62.7	3.8	7.45e-01	0	45	104	6534725632	78	10442
2026-01-25 08:47:03.39	330.44	11.22	-53.8	-62.7	3.8	7.45e-01	0	45	104	6534725632	78	10437
2026-01-25 08:47:06.35	330.76	10.92	-53.8	-62.6	3.8	7.46e-01	0	45	104	6534725632	78	10354
2026-01-25 08:47:09.29	331.06	10.62	-53.8	-62.6	3.8	7.45e-01	0	45	104	6534725632	78	10375
2026-01-25 08:47:12.24	331.36	10.33	-53.8	-62.6	3.8	7.46e-01	0	45	104	6534725632	78	10328
2026-01-25 08:47:15.19	331.65	10.04	-53.7	-62.6	3.8	7.46e-01	0	45	104	6534725632	78	10331
2026-01-25 08:47:18.13	331.93	9.75	-52.9	-62.5	3.8	7.46e-01	0	45	104	6534725632	77	10856
2026-01-25 08:47:21.06	332.21	9.47	-52.7	-62.4	3.8	7.44e-01	0	45	104	6534725632	76	11403
2026-01-25 08:47:24.01	332.48	9.19	-52.7	-62.4	3.8	7.45e-01	0	45	104	6534725632	77	10756
2026-01-25 08:47:26.96	332.75	8.92	-53.6	-62.5	3.8	7.45e-01	0	45	104	6534725632	77	10820
2026-01-25 08:47:29.90	333.01	8.65	-53.4	-62.4	3.8	7.46e-01	0	45	104	6534725632	77	10678
2026-01-25 08:47:32.85	333.26	8.38	-53.6	-62.4	3.8	7.43e-01	0	45	104	6534725632	77	10764
2026-01-25 08:47:35.79	333.51	8.12	-53.5	-62.4	3.8	7.46e-01	0	45	104	6534725632	77	10658
2026-01-25 08:47:38.73	333.76	7.86	-53.5	-62.4	3.8	7.47e-01	0	45	104	6534725632	77	10662
2026-01-25 08:47:41.67	333.99	7.60	-53.4	-62.3	3.8	7.45e-01	0	45	104	6534725632	77	10543
2026-01-25 08:47:44.61	334.23	7.35	-53.5	-62.3	3.8	7.45e-01	0	45	104	6534725632	77	10622
2026-01-25 08:47:47.56	334.46	7.10	-53.4	-62.2	3.8	7.44e-01	0	45	104	6534725632	77	10517
2026-01-25 08:47:50.51	334.68	6.85	-53.4	-62.3	3.8	7.44e-01	0	45	104	6534725632	77	10564
2026-01-25 08:47:53.45	334.90	6.60	-53.4	-62.2	3.8	7.44e-01	0	45	104	6534725632	77	10456
2026-01-25 08:47:56.40	335.12	6.36	-53.4	-62.2	3.8	7.48e-01	0	45	104	6534725632	77	10460
2026-01-25 08:47:59.35	335.33	6.12	-53.4	-62.2	3.8	7.46e-01	0	45	104	6534725632	77	10474
2026-01-25 08:48:02.30	335.54	5.88	-53.3	-62.1	3.8	7.45e-01	0	45	104	6534725632	77	10345
2026-01-25 08:48:05.25	335.74	5.65	-53.3	-62.1	3.8	7.45e-01	0	44	104	6534725632	77	10375
2026-01-25 08:48:08.20	335.94	5.42	-53.2	-62.0	3.8	7.46e-01	0	45	104	6534725632	77	10247
2026-01-25 08:48:11.14	336.14	5.19	-53.3	-62.1	3.8	7.45e-01	0	45	104	6534725632	77	10321
2026-01-25 08:48:14.10	336.33	4.96	-53.5	-62.3	3.8	7.44e-01	0	45	104	6534725632	77	10556
2026-01-25 08:48:17.04	336.52	4.74	-54.2	-63.1	3.8	7.44e-01	0	45	104	6534725632	79	10310
2026-01-25 08:48:19.98	336.70	4.52	-54.6	-63.4	3.8	7.45e-01	0	45	104	6534725632	79	10712
2026-01-25 08:48:22.93	336.88	4.30	-54.8	-63.6	3.8	7.45e-01	0	45	104	6534725632	80	10382
2026-01-25 08:48:25.87	337.06	4.08	-54.9	-63.7	3.8	7.45e-01	0	45	104	6534725632	80	10482
2026-01-25 08:48:28.81	337.24	3.86	-55.0	-63.8	3.8	7.45e-01	0	45	104	6534725632	80	10626
2026-01-25 08:48:31.76	337.41	3.65	-55.1	-63.9	3.8	7.46e-01	0	45	104	6534725632	80	10729
2026-01-25 08:48:34.70	337.58	3.44	-55.1	-63.9	3.8	7.46e-01	0	45	104	6534725632	80	10729
2026-01-25 08:48:37.65	337.75	3.23	-55.0	-63.8	3.8	7.46e-01	0	45	104	6534725632	80	10616
2026-01-25 08:48:40.59	337.91	3.02	-54.9	-63.8	3.8	7.47e-01	0	45	104	6534725632	80	10570
2026-01-25 08:48:43.53	338.07	2.82	-54.9	-63.7	3.8	7.44e-01	0	45	104	6534725632	80	10515
2026-01-25 08:48:46.49	338.23	2.61	-54.9	-63.7	3.8	7.45e-01	0	45	104	6534725632	80	10434
2026-01-25 08:48:49.45	338.39	2.41	-54.8	-63.6	3.8	7.43e-01	0	44	104	6534725632	80	10337
2026-01-25 08:48:52.39	338.55	2.21	-54.8	-63.6	3.8	7.47e-01	0	45	104	6534725632	80	10397
2026-01-25 08:48:55.34	338.70	2.01	-54.8	-63.6	3.8	7.43e-01	0	45	104	6534725632	80	10330

#Closed at: 2026-01-25 08:48:55
#Recorded file [6534 MB]: D:/lorett/data/31041_260125_113841.dat