passes_logs/2026/01/25/R3.2S_Murmansk/R3.2S_Murmansk__20260125_040150_FENGYUN_3D_rec.log

#Pass ID: 20260125_040150_FENGYUN 3D
#Satellite: FENGYUN 3D
#Configuration: FENGYUN 3D
#almurnet v.1.7.20251203
#Start time: 2026-01-25 04:01:50

#Version: 2.2.20231116
#Station: R3.2S_Murmansk
#Location: 33.079688 lon 68.888172 lat
#TLE: 1 43010U 17072A   26024.51794477  .00000040  00000+0  40682-4 0  9990
#TLE: 2 43010  98.9961 356.4820 0002494  91.2631 268.8830 14.19699550424601

#Time	Az	El	Level	Level2	SNR	BER	BlckErr	Temp	State	Recorded	gain1	gain2
2026-01-25 04:01:50.16	30.99	1.98	-52.2	-64.1	3.8	8.45e-01	0	45	0	0	76	13786
2026-01-25 04:01:54.18	30.89	2.24	-52.1	-64.0	3.8	8.45e-01	0	45	104	0	74	15383
2026-01-25 04:01:58.22	30.78	2.49	-52.1	-64.0	3.8	8.46e-01	0	45	104	0	74	15278
2026-01-25 04:02:02.25	30.67	2.75	-52.1	-63.8	3.8	8.46e-01	0	45	104	0	74	14964
2026-01-25 04:02:06.29	30.56	3.01	-52.1	-63.6	3.8	8.47e-01	0	45	104	0	74	14696
2026-01-25 04:02:10.33	30.45	3.28	-52.1	-63.9	3.8	8.46e-01	0	45	104	0	74	15084
2026-01-25 04:02:14.36	30.33	3.54	-52.1	-63.8	3.8	8.46e-01	0	45	104	0	74	14969
2026-01-25 04:02:18.39	30.21	3.81	-51.8	-60.8	4.1	8.42e-01	0	45	0	0	74	10652
2026-01-25 04:02:22.43	30.09	4.08	-51.2	-57.8	5.4	7.40e-01	0	45	0	0	74	7541
2026-01-25 04:02:26.47	29.97	4.35	-49.8	-53.6	9.3	2.11e-02	0	45	0	20971520	71	5494
2026-01-25 04:02:30.50	29.84	4.63	-46.9	-48.8	14.2	9.10e-06	0	45	0	44040192	65	4469
2026-01-25 04:02:34.53	29.71	4.91	-46.1	-47.7	15.4	0.00e+00	0	45	0	66060288	63	4440
2026-01-25 04:02:38.57	29.58	5.19	-47.0	-49.0	14.1	1.10e-06	0	45	0	89128960	64	4849
2026-01-25 04:02:42.60	29.44	5.47	-43.7	-44.9	18.7	0.00e+00	0	45	0	109051904	59	4008
2026-01-25 04:02:46.63	29.31	5.76	-43.2	-44.2	19.4	0.00e+00	0	45	0	132120576	58	3942
2026-01-25 04:02:50.67	29.16	6.05	-42.7	-43.7	20.0	0.00e+00	0	46	0	155189248	57	3930
2026-01-25 04:02:54.70	29.02	6.34	-42.8	-43.8	19.8	0.00e+00	0	45	0	177209344	57	3990
2026-01-25 04:02:58.74	28.87	6.64	-42.7	-43.7	20.0	0.00e+00	0	45	0	200278016	57	3939
2026-01-25 04:03:02.75	28.72	6.93	-42.5	-43.5	20.2	0.00e+00	0	45	0	222298112	56	4055
2026-01-25 04:03:06.79	28.57	7.24	-42.5	-43.5	20.2	0.00e+00	0	45	0	245366784	56	4075
2026-01-25 04:03:10.82	28.41	7.54	-42.2	-43.1	20.6	0.00e+00	0	45	0	268435456	56	3913
2026-01-25 04:03:14.86	28.25	7.85	-42.2	-43.2	20.6	0.00e+00	0	45	0	291504128	56	3915
2026-01-25 04:03:18.89	28.08	8.17	-42.3	-43.3	20.5	0.00e+00	0	45	0	313524224	56	3976
2026-01-25 04:03:22.92	27.91	8.48	-42.6	-43.5	20.3	0.00e+00	0	45	0	335544320	56	4094
2026-01-25 04:03:26.96	27.74	8.80	-42.0	-42.9	20.9	0.00e+00	0	45	0	358612992	56	3819
2026-01-25 04:03:30.99	27.56	9.13	-42.4	-43.4	20.5	0.00e+00	0	45	0	381681664	56	4013
2026-01-25 04:03:35.03	27.38	9.46	-42.3	-43.3	20.7	0.00e+00	0	45	0	403701760	56	3961
2026-01-25 04:03:39.06	27.19	9.79	-41.9	-42.8	21.1	0.00e+00	0	45	0	426770432	55	3977
2026-01-25 04:03:43.09	27.00	10.12	-42.2	-43.2	20.7	0.00e+00	0	45	0	449839104	55	4162
2026-01-25 04:03:47.13	26.80	10.46	-41.6	-42.5	21.3	0.00e+00	0	45	0	471859200	55	3868
2026-01-25 04:03:51.16	26.60	10.81	-41.7	-42.6	21.4	0.00e+00	0	45	0	494927872	54	4107
2026-01-25 04:03:55.19	26.40	11.16	-41.5	-42.3	21.6	0.00e+00	0	45	0	517996544	54	3993
2026-01-25 04:03:59.23	26.18	11.51	-41.3	-42.2	21.7	0.00e+00	0	45	0	540016640	54	3938
2026-01-25 04:04:03.27	25.97	11.87	-41.0	-41.8	22.1	0.00e+00	0	45	0	563085312	54	3777
2026-01-25 04:04:07.31	25.74	12.24	-41.1	-41.9	22.0	0.00e+00	0	45	0	586153984	53	4025
2026-01-25 04:04:11.34	25.51	12.61	-40.9	-41.7	22.2	0.00e+00	0	45	0	608174080	53	3930
2026-01-25 04:04:15.38	25.28	12.98	-40.8	-41.7	22.3	0.00e+00	0	45	0	631242752	53	3914
2026-01-25 04:04:19.42	25.03	13.36	-40.9	-41.7	22.3	0.00e+00	0	45	0	654311424	53	3934
2026-01-25 04:04:23.45	24.79	13.75	-40.8	-41.6	22.4	0.00e+00	0	45	0	676331520	53	3899
2026-01-25 04:04:27.48	24.53	14.14	-40.8	-41.7	22.4	0.00e+00	0	45	0	699400192	53	3919
2026-01-25 04:04:31.52	24.27	14.53	-40.7	-41.5	22.5	0.00e+00	0	45	0	721420288	53	3845
2026-01-25 04:04:35.55	23.99	14.93	-40.4	-41.2	22.8	0.00e+00	0	45	0	744488960	52	3933
2026-01-25 04:04:39.59	23.72	15.34	-40.2	-41.0	23.0	0.00e+00	0	45	0	767557632	52	3844
2026-01-25 04:04:43.62	23.43	15.76	-40.1	-40.9	23.1	0.00e+00	0	45	0	789577728	52	3790
2026-01-25 04:04:47.66	23.13	16.18	-40.1	-40.9	23.1	0.00e+00	0	45	0	812646400	52	3804
2026-01-25 04:04:51.69	22.83	16.61	-40.2	-41.0	23.1	0.00e+00	0	45	0	835715072	51	4074
2026-01-25 04:04:55.73	22.51	17.04	-40.0	-40.8	23.4	0.00e+00	0	45	0	857735168	51	3986
2026-01-25 04:04:59.77	22.19	17.48	-39.8	-40.5	23.6	0.00e+00	0	45	0	880803840	51	3854
2026-01-25 04:05:03.81	21.86	17.93	-39.6	-40.3	23.8	0.00e+00	0	45	0	903872512	51	3760
2026-01-25 04:05:07.84	21.51	18.38	-39.5	-40.2	23.9	0.00e+00	0	45	0	925892608	51	3720
2026-01-25 04:05:11.87	21.16	18.85	-39.4	-40.2	24.0	0.00e+00	0	45	0	948961280	50	3925
2026-01-25 04:05:15.91	20.79	19.32	-39.6	-40.3	23.8	0.00e+00	0	45	0	972029952	50	4000
2026-01-25 04:05:19.95	20.41	19.80	-39.3	-40.0	24.2	0.00e+00	0	45	0	994050048	50	3850
2026-01-25 04:05:23.98	20.02	20.28	-39.1	-39.8	24.3	0.00e+00	0	45	0	1017118720	50	3774
2026-01-25 04:05:28.01	19.62	20.78	-39.0	-39.7	24.4	0.00e+00	0	45	0	1040187392	49	3945
2026-01-25 04:05:32.05	19.20	21.28	-39.0	-39.7	24.4	0.00e+00	0	45	0	1062207488	49	3950
2026-01-25 04:05:36.09	18.76	21.79	-38.9	-39.6	24.5	0.00e+00	0	45	0	1085276160	49	3903
2026-01-25 04:05:40.12	18.32	22.31	-38.5	-39.2	24.9	0.00e+00	0	45	0	1108344832	49	3708
2026-01-25 04:05:44.15	17.85	22.84	-38.6	-39.3	24.9	0.00e+00	0	45	0	1130364928	48	3975
2026-01-25 04:05:48.19	17.37	23.37	-38.5	-39.2	24.9	0.00e+00	0	45	0	1153433600	48	3958
2026-01-25 04:05:52.23	16.87	23.92	-38.5	-39.2	24.9	0.00e+00	0	45	0	1175453696	48	3945
2026-01-25 04:05:56.26	16.36	24.47	-38.2	-38.9	25.2	0.00e+00	0	45	0	1198522368	48	3793
2026-01-25 04:06:00.30	15.82	25.04	-38.4	-39.1	25.0	0.00e+00	0	45	0	1221591040	48	3908
2026-01-25 04:06:04.34	15.26	25.61	-38.4	-39.1	25.1	0.00e+00	0	45	0	1243611136	48	3904
2026-01-25 04:06:08.37	14.69	26.20	-38.3	-39.0	25.2	0.00e+00	0	45	0	1266679808	48	3837
2026-01-25 04:06:12.41	14.09	26.79	-37.8	-38.5	25.2	0.00e+00	0	45	0	1289748480	47	3838
2026-01-25 04:06:16.45	13.47	27.39	-37.7	-38.4	25.3	0.00e+00	0	45	0	1311768576	47	3795
2026-01-25 04:06:20.48	12.82	28.00	-37.8	-38.5	25.1	0.00e+00	0	45	0	1334837248	47	3851
2026-01-25 04:06:24.52	12.14	28.63	-37.9	-38.6	25.1	0.00e+00	0	45	0	1357905920	47	3890
2026-01-25 04:06:28.55	11.44	29.26	-37.5	-38.2	25.4	0.00e+00	0	45	0	1379926016	46	3947
2026-01-25 04:06:32.59	10.71	29.90	-37.6	-38.4	25.3	0.00e+00	0	45	0	1402994688	46	4007
2026-01-25 04:06:36.62	9.96	30.54	-37.8	-38.5	25.2	0.00e+00	0	45	0	1426063360	46	4076
2026-01-25 04:06:40.66	9.16	31.20	-37.5	-38.2	25.5	0.00e+00	0	45	0	1449132032	46	3941
2026-01-25 04:06:44.69	8.34	31.87	-37.4	-38.1	25.6	0.00e+00	0	45	0	1471152128	46	3899
2026-01-25 04:06:48.73	7.48	32.54	-37.4	-38.1	25.6	0.00e+00	0	45	0	1494220800	46	3886
2026-01-25 04:06:52.77	6.58	33.23	-37.1	-37.8	25.9	0.00e+00	0	45	0	1517289472	46	3750
2026-01-25 04:06:56.80	5.64	33.91	-37.1	-37.8	25.8	0.00e+00	0	45	0	1539309568	46	3771
2026-01-25 04:07:00.84	4.66	34.61	-37.3	-37.9	25.7	0.00e+00	0	45	0	1561329664	46	3817
2026-01-25 04:07:04.88	3.64	35.31	-37.7	-38.4	25.4	0.00e+00	0	45	0	1584398336	46	4015
2026-01-25 04:07:08.91	2.57	36.02	-37.3	-38.0	25.8	0.00e+00	0	45	0	1607467008	46	3834
2026-01-25 04:07:12.94	1.46	36.72	-37.4	-38.1	25.7	0.00e+00	0	45	0	1629487104	46	3875
2026-01-25 04:07:16.97	0.30	37.43	-37.4	-38.1	25.7	0.00e+00	0	45	0	1652555776	46	3893
2026-01-25 04:07:21.01	359.08	38.15	-37.3	-38.0	25.8	0.00e+00	0	45	0	1675624448	46	3851
2026-01-25 04:07:25.04	357.81	38.86	-37.2	-37.9	25.9	0.00e+00	0	45	0	1697644544	46	3807
2026-01-25 04:07:29.08	356.47	39.57	-37.5	-38.2	25.6	0.00e+00	0	45	0	1720713216	46	3941
2026-01-25 04:07:33.12	355.08	40.28	-37.5	-38.2	25.7	0.00e+00	0	45	0	1743781888	46	3933
2026-01-25 04:07:37.15	353.63	40.97	-37.5	-38.2	25.7	0.00e+00	0	45	0	1765801984	46	3932
2026-01-25 04:07:41.19	352.11	41.67	-37.8	-38.6	25.4	0.00e+00	0	45	0	1788870656	46	4102
2026-01-25 04:07:45.23	350.52	42.35	-37.3	-38.0	25.9	0.00e+00	0	45	0	1811939328	46	3840
2026-01-25 04:07:49.26	348.87	43.01	-37.6	-38.3	25.6	0.00e+00	0	45	0	1835008000	46	3997
2026-01-25 04:07:53.30	347.15	43.66	-37.8	-38.5	25.5	0.00e+00	0	45	0	1857028096	46	4085
2026-01-25 04:07:57.34	345.36	44.30	-37.5	-38.2	25.8	0.00e+00	0	45	0	1880096768	46	3923
2026-01-25 04:08:01.38	343.49	44.90	-37.4	-38.1	25.8	0.00e+00	0	45	0	1903165440	46	3903
2026-01-25 04:08:05.41	341.55	45.48	-37.6	-38.3	25.7	0.00e+00	0	45	0	1925185536	46	3993
2026-01-25 04:08:09.45	339.54	46.04	-37.7	-38.4	25.6	0.00e+00	0	45	0	1947205632	46	4024
2026-01-25 04:08:13.48	337.47	46.55	-37.8	-38.5	25.5	0.00e+00	0	45	0	1970274304	46	4078
2026-01-25 04:08:17.52	335.32	47.04	-38.3	-39.0	25.1	0.00e+00	0	45	0	1993342976	47	4085
2026-01-25 04:08:21.55	333.12	47.48	-38.5	-39.3	24.9	0.00e+00	0	45	0	2015363072	47	4208
2026-01-25 04:08:25.59	330.84	47.87	-38.4	-39.1	25.1	0.00e+00	0	45	0	2038431744	47	4118
2026-01-25 04:08:29.63	328.51	48.23	-38.6	-39.3	24.9	0.00e+00	0	45	0	2061500416	47	4222
2026-01-25 04:08:33.66	326.14	48.53	-38.5	-39.2	24.9	0.00e+00	0	45	0	2084569088	47	4170
2026-01-25 04:08:37.70	323.72	48.77	-38.2	-38.9	25.2	0.00e+00	0	45	0	2106589184	47	4011
2026-01-25 04:08:41.73	321.27	48.97	-38.0	-38.7	25.3	0.00e+00	0	45	0	2129657856	47	3950
2026-01-25 04:08:45.77	318.78	49.10	-38.3	-39.0	25.1	0.00e+00	0	45	0	2152726528	47	4062
2026-01-25 04:08:49.80	316.29	49.18	-38.3	-39.0	25.1	0.00e+00	0	45	0	2174746624	47	4074
2026-01-25 04:08:53.83	313.78	49.20	-38.4	-39.2	24.9	0.00e+00	0	45	0	2197815296	47	4164
2026-01-25 04:08:57.87	311.27	49.16	-38.2	-38.9	25.1	0.00e+00	0	45	0	2220883968	47	4041
2026-01-25 04:09:01.91	308.78	49.06	-38.4	-39.1	25.0	0.00e+00	0	45	0	2242904064	47	4109
2026-01-25 04:09:05.95	306.30	48.90	-38.6	-39.3	24.8	0.00e+00	0	45	0	2265972736	47	4211
2026-01-25 04:09:09.98	303.86	48.69	-38.0	-38.7	25.4	0.00e+00	0	45	0	2289041408	47	3920
2026-01-25 04:09:14.01	301.46	48.43	-38.1	-38.8	25.3	0.00e+00	0	45	0	2311061504	47	3971
2026-01-25 04:09:18.05	299.09	48.11	-38.3	-39.1	25.0	0.00e+00	0	45	0	2333081600	47	4103
2026-01-25 04:09:22.09	296.78	47.74	-37.8	-38.5	25.5	0.00e+00	0	45	0	2356150272	47	3829
2026-01-25 04:09:26.12	294.53	47.33	-37.8	-38.5	25.5	0.00e+00	0	45	0	2379218944	47	3853
2026-01-25 04:09:30.15	292.34	46.87	-38.2	-38.9	25.1	0.00e+00	0	45	0	2401239040	47	4035
2026-01-25 04:09:34.19	290.22	46.38	-37.9	-38.6	25.4	0.00e+00	0	45	0	2424307712	47	3880
2026-01-25 04:09:38.22	288.16	45.85	-37.7	-38.4	25.6	0.00e+00	0	45	0	2447376384	47	3819
2026-01-25 04:09:42.26	286.18	45.28	-37.6	-38.3	25.6	0.00e+00	0	45	0	2470445056	47	3765
2026-01-25 04:09:46.29	284.26	44.69	-37.3	-38.0	26.0	0.00e+00	0	45	0	2492465152	46	3830
2026-01-25 04:09:50.33	282.42	44.07	-37.5	-38.2	25.8	0.00e+00	0	45	0	2515533824	46	3915
2026-01-25 04:09:54.36	280.65	43.44	-37.4	-38.1	25.8	0.00e+00	0	45	0	2538602496	46	3887
2026-01-25 04:09:58.39	278.95	42.78	-37.1	-37.8	26.1	0.00e+00	0	45	0	2560622592	46	3756
2026-01-25 04:10:02.43	277.32	42.11	-37.3	-38.1	25.8	0.00e+00	0	45	0	2583691264	46	3871
2026-01-25 04:10:06.46	275.76	41.42	-37.6	-38.3	25.6	0.00e+00	0	45	0	2606759936	46	3978
2026-01-25 04:10:10.49	274.26	40.73	-37.5	-38.2	25.7	0.00e+00	0	45	0	2628780032	46	3916
2026-01-25 04:10:14.52	272.83	40.02	-37.7	-38.5	25.5	0.00e+00	0	45	0	2651848704	46	4053
2026-01-25 04:10:18.55	271.46	39.31	-37.6	-38.3	25.5	0.00e+00	0	45	0	2673868800	46	4000
2026-01-25 04:10:22.59	270.14	38.60	-37.7	-38.4	25.5	0.00e+00	0	45	0	2696937472	46	4011
2026-01-25 04:10:26.63	268.89	37.89	-37.1	-37.8	26.0	0.00e+00	0	45	0	2718957568	46	3756
2026-01-25 04:10:30.66	267.68	37.17	-37.1	-37.8	26.0	0.00e+00	0	45	0	2742026240	46	3773
2026-01-25 04:10:34.70	266.53	36.46	-37.1	-37.8	26.0	0.00e+00	0	45	0	2765094912	46	3750
2026-01-25 04:10:38.73	265.43	35.75	-37.2	-38.0	25.8	0.00e+00	0	45	0	2787115008	46	3825
2026-01-25 04:10:42.77	264.38	35.04	-37.2	-37.9	25.9	0.00e+00	0	45	0	2810183680	46	3795
2026-01-25 04:10:46.80	263.37	34.34	-37.2	-37.9	25.9	0.00e+00	0	45	0	2833252352	46	3821
2026-01-25 04:10:50.83	262.41	33.65	-37.1	-37.8	25.9	0.00e+00	0	45	0	2855272448	46	3762
2026-01-25 04:10:54.87	261.48	32.96	-37.5	-38.2	25.6	0.00e+00	0	45	0	2878341120	46	3947
2026-01-25 04:10:58.90	260.59	32.28	-37.5	-38.2	25.6	0.00e+00	0	45	0	2901409792	46	3916
2026-01-25 04:11:02.93	259.74	31.61	-37.6	-38.3	25.5	0.00e+00	0	45	0	2923429888	46	3976
2026-01-25 04:11:06.97	258.93	30.94	-37.7	-38.4	25.4	0.00e+00	0	45	0	2946498560	46	4017
2026-01-25 04:11:11.00	258.15	30.29	-37.9	-38.6	25.2	0.00e+00	0	45	0	2969567232	46	4117
2026-01-25 04:11:15.04	257.39	29.64	-37.6	-38.3	25.5	0.00e+00	0	45	0	2991587328	46	3983
2026-01-25 04:11:19.07	256.67	29.00	-37.8	-38.6	25.2	0.00e+00	0	45	0	3014656000	46	4099
2026-01-25 04:11:23.11	255.98	28.37	-37.6	-38.3	25.4	0.00e+00	0	45	0	3037724672	46	3992
2026-01-25 04:11:27.15	255.31	27.75	-37.9	-38.6	25.2	0.00e+00	0	45	0	3059744768	46	4122
2026-01-25 04:11:31.18	254.67	27.14	-38.0	-38.8	25.0	0.00e+00	0	45	0	3082813440	46	4204
2026-01-25 04:11:35.22	254.06	26.54	-38.0	-38.7	25.0	0.00e+00	0	45	0	3104833536	46	4180
2026-01-25 04:11:39.25	253.46	25.95	-37.7	-38.4	25.3	0.00e+00	0	45	0	3127902208	46	4050
2026-01-25 04:11:43.29	252.89	25.37	-37.8	-38.5	25.2	0.00e+00	0	45	0	3150970880	46	4087
2026-01-25 04:11:47.32	252.34	24.80	-37.8	-38.5	25.2	0.00e+00	0	45	0	3172990976	46	4068
2026-01-25 04:11:51.35	251.81	24.23	-37.9	-38.6	25.1	0.00e+00	0	45	0	3196059648	46	4127
2026-01-25 04:11:55.39	251.30	23.68	-37.9	-38.6	25.0	0.00e+00	0	45	0	3219128320	46	4140
2026-01-25 04:11:59.43	250.80	23.14	-38.1	-38.9	24.8	0.00e+00	0	45	0	3241148416	46	4244
2026-01-25 04:12:03.46	250.33	22.60	-38.2	-38.9	24.8	0.00e+00	0	45	0	3264217088	47	4041
2026-01-25 04:12:07.50	249.87	22.07	-38.4	-39.1	24.6	0.00e+00	0	45	0	3287285760	47	4128
2026-01-25 04:12:11.54	249.42	21.56	-38.5	-39.2	24.5	0.00e+00	0	45	0	3309305856	47	4184
2026-01-25 04:12:15.57	248.99	21.05	-38.4	-39.1	24.6	0.00e+00	0	45	0	3332374528	47	4117
2026-01-25 04:12:19.61	248.58	20.55	-38.3	-39.0	24.6	0.00e+00	0	45	0	3355443200	47	4092
2026-01-25 04:12:23.64	248.18	20.05	-38.5	-39.3	24.4	0.00e+00	0	45	0	3377463296	47	4207
2026-01-25 04:12:27.68	247.79	19.57	-39.0	-39.8	24.5	0.00e+00	0	45	0	3400531968	48	4197
2026-01-25 04:12:31.72	247.41	19.09	-39.3	-40.0	24.2	0.00e+00	0	45	0	3423600640	49	4098
2026-01-25 04:12:35.75	247.05	18.62	-39.5	-40.3	24.0	0.00e+00	0	45	0	3445620736	49	4202
2026-01-25 04:12:39.79	246.69	18.16	-39.8	-40.5	23.7	0.00e+00	0	45	0	3468689408	50	4097
2026-01-25 04:12:43.83	246.35	17.71	-39.7	-40.5	23.8	0.00e+00	0	45	0	3490709504	50	4078
2026-01-25 04:12:47.86	246.02	17.26	-39.6	-40.3	23.9	0.00e+00	0	45	0	3513778176	50	3994
2026-01-25 04:12:51.89	245.70	16.82	-39.7	-40.4	23.8	0.00e+00	0	45	0	3536846848	50	4044
2026-01-25 04:12:55.93	245.38	16.39	-40.0	-40.7	23.5	0.00e+00	0	45	0	3558866944	50	4189
2026-01-25 04:12:59.97	245.08	15.96	-39.9	-40.6	23.6	0.00e+00	0	45	0	3581935616	50	4141
2026-01-25 04:13:03.99	244.79	15.55	-40.1	-40.8	23.4	0.00e+00	0	45	0	3605004288	50	4236
2026-01-25 04:13:08.02	244.50	15.13	-40.2	-41.0	23.2	0.00e+00	0	45	0	3627024384	50	4302
2026-01-25 04:13:12.06	244.22	14.73	-40.4	-41.2	23.0	0.00e+00	0	45	0	3650093056	51	4170
2026-01-25 04:13:16.10	243.95	14.32	-40.7	-41.5	22.8	0.00e+00	0	45	0	3673161728	51	4302
2026-01-25 04:13:20.13	243.69	13.93	-40.7	-41.6	22.6	0.00e+00	0	45	0	3695181824	52	4117
2026-01-25 04:13:24.16	243.43	13.54	-41.0	-41.9	22.3	0.00e+00	0	45	0	3718250496	52	4257
2026-01-25 04:13:28.20	243.18	13.16	-40.9	-41.7	22.4	0.00e+00	0	45	0	3741319168	52	4186
2026-01-25 04:13:32.24	242.94	12.78	-40.8	-41.6	22.5	0.00e+00	0	45	0	3763339264	52	4102
2026-01-25 04:13:36.27	242.71	12.40	-40.7	-41.5	22.6	0.00e+00	0	45	0	3786407936	52	4063
2026-01-25 04:13:40.30	242.48	12.04	-40.8	-41.6	22.4	0.00e+00	0	45	0	3808428032	52	4135
2026-01-25 04:13:44.33	242.25	11.67	-40.7	-41.5	22.5	0.00e+00	0	45	0	3831496704	52	4090
2026-01-25 04:13:48.36	242.04	11.32	-40.9	-41.7	22.3	0.00e+00	0	45	0	3854565376	52	4162
2026-01-25 04:13:52.39	241.82	10.96	-41.2	-42.0	22.0	0.00e+00	0	45	0	3876585472	52	4312
2026-01-25 04:13:56.42	241.62	10.62	-41.1	-42.0	22.0	0.00e+00	0	45	0	3899654144	53	4065
2026-01-25 04:14:00.46	241.41	10.27	-41.3	-42.2	21.8	0.00e+00	0	45	0	3922722816	53	4162
2026-01-25 04:14:04.50	241.22	9.93	-41.5	-42.3	21.7	0.00e+00	0	45	0	3944742912	53	4228
2026-01-25 04:14:08.53	241.03	9.60	-41.4	-42.3	21.7	0.00e+00	0	45	0	3967811584	53	4206
2026-01-25 04:14:12.57	240.84	9.26	-41.7	-42.5	21.4	0.00e+00	0	45	0	3990880256	53	4337
2026-01-25 04:14:16.60	240.66	8.94	-41.6	-42.5	21.4	0.00e+00	0	45	0	4012900352	53	4316
2026-01-25 04:14:20.63	240.48	8.61	-41.8	-42.7	21.2	0.00e+00	0	45	0	4035969024	54	4154
2026-01-25 04:14:24.67	240.30	8.29	-41.8	-42.7	21.2	0.00e+00	0	45	0	4059037696	54	4165
2026-01-25 04:14:28.70	240.13	7.98	-42.0	-42.9	21.0	0.00e+00	0	45	0	4081057792	54	4272
2026-01-25 04:14:32.74	239.97	7.67	-42.1	-43.0	20.8	0.00e+00	0	45	0	4104126464	54	4332
2026-01-25 04:14:36.77	239.80	7.36	-42.2	-43.1	20.7	0.00e+00	0	45	0	4127195136	55	4132
2026-01-25 04:14:40.81	239.64	7.05	-42.2	-43.1	20.6	0.00e+00	0	45	0	4149215232	55	4130
2026-01-25 04:14:44.85	239.49	6.75	-42.4	-43.3	20.4	0.00e+00	0	45	0	4171235328	55	4236
2026-01-25 04:14:48.88	239.34	6.45	-42.3	-43.3	20.4	0.00e+00	0	45	0	4194304000	55	4218
2026-01-25 04:14:52.92	239.19	6.15	-42.4	-43.4	20.3	0.00e+00	0	45	0	4217372672	55	4253
2026-01-25 04:14:56.95	239.04	5.86	-42.6	-43.6	20.0	0.00e+00	0	45	0	4239392768	55	4361
2026-01-25 04:15:00.98	238.90	5.57	-42.8	-43.8	19.9	0.00e+00	0	45	0	4262461440	56	4203
2026-01-25 04:15:05.02	238.76	5.29	-42.5	-43.5	20.1	0.00e+00	0	45	0	4285530112	56	4092
2026-01-25 04:15:09.05	238.62	5.00	-42.9	-44.0	19.6	0.00e+00	0	45	0	4307550208	56	4297
2026-01-25 04:15:13.08	238.49	4.72	-53.5	-65.5	3.8	8.46e-01	0	45	104	4311744512	77	15241
2026-01-25 04:15:17.11	238.36	4.45	-53.9	-65.9	3.8	8.46e-01	0	45	104	4311744512	78	15112
2026-01-25 04:15:21.15	238.23	4.17	-54.1	-66.1	3.8	8.46e-01	0	45	104	4311744512	78	15414
2026-01-25 04:15:25.19	238.11	3.90	-54.2	-66.1	3.8	8.46e-01	0	45	104	4311744512	78	15571
2026-01-25 04:15:29.22	237.98	3.63	-54.1	-66.1	3.8	8.46e-01	0	45	104	4311744512	78	15469
2026-01-25 04:15:33.25	237.86	3.36	-54.0	-66.0	3.8	8.47e-01	0	45	104	4311744512	78	15303
2026-01-25 04:15:37.29	237.74	3.10	-54.0	-65.9	3.8	8.46e-01	0	45	104	4311744512	78	15170
2026-01-25 04:15:41.33	237.63	2.83	-53.9	-65.9	3.8	8.47e-01	0	45	104	4311744512	78	15100
2026-01-25 04:15:45.36	237.51	2.57	-53.9	-65.8	3.8	8.46e-01	0	45	104	4311744512	78	15028
2026-01-25 04:15:49.40	237.40	2.32	-53.9	-65.8	3.8	8.44e-01	0	45	104	4311744512	78	15003
2026-01-25 04:15:53.43	237.29	2.06	-53.8	-65.8	3.8	8.46e-01	0	45	104	4311744512	78	14932

#Closed at: 2026-01-25 04:15:56
#Recorded file [4311 MB]: D:/lorett/data/31041_260125_070149.dat