passes_logs/2026/01/25/R3.2S_Murmansk/R3.2S_Murmansk__20260125_014448_NOAA_20_JPSS-1_rec.log

#Pass ID: 20260125_014448_NOAA 20 (JPSS-1)
#Satellite: NOAA 20 (JPSS-1)
#Configuration: NOAA 20
#almurnet v.1.7.20251203
#Start time: 2026-01-25 01:44:50

#Version: 2.2.20231116
#Station: R3.2S_Murmansk
#Location: 33.079688 lon 68.888172 lat
#TLE: 1 43013U 17073A   26024.42258823  .00000183  00000+0  10747-3 0  9990
#TLE: 2 43013  98.7646 325.2629 0001105  25.8644 334.2587 14.19539754424075

#Time	Az	El	Level	Level2	SNR	BER	BlckErr	Temp	State	Recorded	gain1	gain2
2026-01-25 01:44:50.22	29.27	2.12	-52.1	-67.1	3.8	1.49e+00	0	41	0	0	76	19439
2026-01-25 01:44:54.24	29.18	2.38	-52.1	-67.0	3.8	1.49e+00	0	41	104	0	74	21733
2026-01-25 01:44:58.28	29.08	2.64	-52.1	-66.9	3.8	1.49e+00	0	41	104	0	74	21431
2026-01-25 01:45:02.31	28.99	2.90	-52.1	-66.8	3.8	1.49e+00	0	42	104	0	74	21067
2026-01-25 01:45:06.34	28.89	3.16	-52.1	-66.9	3.8	1.49e+00	0	42	104	0	74	21466
2026-01-25 01:45:10.37	28.79	3.43	-52.1	-67.0	3.8	1.49e+00	0	42	104	0	74	21706
2026-01-25 01:45:14.41	28.69	3.70	-52.0	-65.8	3.8	1.49e+00	0	42	104	0	74	18737
2026-01-25 01:45:18.44	28.58	3.97	-51.8	-62.2	4.6	1.03e+00	0	42	0	1048576	74	12474
2026-01-25 01:45:22.48	28.48	4.24	-50.7	-56.3	9.4	3.43e-02	0	42	0	8388608	73	6691
2026-01-25 01:45:26.51	28.37	4.51	-48.7	-51.7	14.4	1.50e-06	0	42	0	15728640	69	4934
2026-01-25 01:45:30.55	28.26	4.79	-47.2	-49.3	16.7	0.00e+00	0	43	0	23068672	66	4482
2026-01-25 01:45:34.58	28.14	5.07	-46.7	-48.6	17.4	0.00e+00	0	42	0	31457280	65	4383
2026-01-25 01:45:38.61	28.03	5.36	-46.4	-48.2	17.9	0.00e+00	0	43	0	38797312	64	4423
2026-01-25 01:45:42.65	27.91	5.65	-46.2	-47.9	18.3	0.00e+00	0	43	0	46137344	63	4517
2026-01-25 01:45:46.68	27.78	5.94	-46.1	-47.7	18.5	0.00e+00	0	43	0	53477376	63	4432
2026-01-25 01:45:50.71	27.66	6.23	-46.1	-47.7	18.6	0.00e+00	0	43	0	60817408	63	4418
2026-01-25 01:45:54.74	27.53	6.52	-46.1	-47.8	18.5	0.00e+00	0	43	0	69206016	63	4461
2026-01-25 01:45:58.77	27.40	6.82	-46.0	-47.6	18.7	0.00e+00	0	43	0	76546048	63	4387
2026-01-25 01:46:02.80	27.27	7.13	-45.8	-47.4	19.0	0.00e+00	0	43	0	83886080	63	4263
2026-01-25 01:46:06.84	27.13	7.43	-45.7	-47.3	19.2	0.00e+00	0	43	0	91226112	63	4199
2026-01-25 01:46:10.88	26.99	7.74	-45.7	-47.2	19.2	0.00e+00	0	43	0	99614720	63	4173
2026-01-25 01:46:14.92	26.85	8.06	-45.8	-47.3	19.2	0.00e+00	0	43	0	106954752	63	4225
2026-01-25 01:46:18.95	26.70	8.38	-45.9	-47.4	19.1	0.00e+00	0	43	0	114294784	63	4277
2026-01-25 01:46:22.98	26.55	8.70	-45.5	-47.0	19.6	0.00e+00	0	43	0	121634816	62	4310
2026-01-25 01:46:27.01	26.40	9.02	-45.3	-46.7	19.8	0.00e+00	0	43	0	128974848	62	4173
2026-01-25 01:46:31.05	26.24	9.35	-45.3	-46.7	19.8	0.00e+00	0	43	0	137363456	62	4183
2026-01-25 01:46:35.07	26.08	9.68	-45.3	-46.7	19.9	0.00e+00	0	43	0	144703488	62	4162
2026-01-25 01:46:39.11	25.91	10.02	-45.2	-46.5	20.1	0.00e+00	0	43	0	152043520	62	4090
2026-01-25 01:46:43.14	25.74	10.36	-45.1	-46.4	20.2	0.00e+00	0	43	0	159383552	62	4041
2026-01-25 01:46:47.18	25.56	10.71	-45.2	-46.5	20.2	0.00e+00	0	43	0	166723584	62	4074
2026-01-25 01:46:51.21	25.39	11.06	-45.3	-46.7	20.0	0.00e+00	0	43	0	175112192	62	4156
2026-01-25 01:46:55.25	25.20	11.42	-45.1	-46.4	20.3	0.00e+00	0	43	0	182452224	61	4265
2026-01-25 01:46:59.28	25.01	11.78	-45.2	-46.5	20.2	0.00e+00	0	43	0	189792256	61	4334
2026-01-25 01:47:03.31	24.82	12.14	-45.1	-46.4	20.4	0.00e+00	0	43	0	197132288	61	4254
2026-01-25 01:47:07.35	24.62	12.52	-45.0	-46.3	20.5	0.00e+00	0	43	0	205520896	61	4209
2026-01-25 01:47:11.38	24.41	12.89	-45.0	-46.3	20.5	0.00e+00	0	43	0	212860928	61	4203
2026-01-25 01:47:15.41	24.20	13.27	-44.9	-46.1	20.7	0.00e+00	0	43	0	220200960	61	4139
2026-01-25 01:47:19.45	23.98	13.66	-44.9	-46.2	20.6	0.00e+00	0	43	0	227540992	61	4153
2026-01-25 01:47:23.48	23.76	14.05	-44.9	-46.2	20.7	0.00e+00	0	43	0	234881024	61	4157
2026-01-25 01:47:27.52	23.53	14.45	-44.7	-46.0	20.9	0.00e+00	0	43	0	243269632	61	4054
2026-01-25 01:47:31.55	23.29	14.86	-44.8	-46.0	20.9	0.00e+00	0	43	0	250609664	61	4082
2026-01-25 01:47:35.58	23.05	15.27	-44.7	-45.9	21.0	0.00e+00	0	43	0	257949696	61	4034
2026-01-25 01:47:39.61	22.80	15.69	-44.7	-45.9	20.9	0.00e+00	0	43	0	265289728	61	4045
2026-01-25 01:47:43.64	22.54	16.11	-44.9	-46.1	20.9	0.00e+00	0	43	0	272629760	61	4128
2026-01-25 01:47:47.67	22.28	16.54	-44.8	-46.0	21.0	0.00e+00	0	43	0	281018368	61	4059
2026-01-25 01:47:51.71	22.00	16.98	-44.7	-45.9	21.0	0.00e+00	0	43	0	288358400	61	4048
2026-01-25 01:47:55.74	21.72	17.43	-44.6	-45.8	21.1	0.00e+00	0	43	0	295698432	61	4000
2026-01-25 01:47:59.77	21.43	17.88	-44.6	-45.8	21.1	0.00e+00	0	43	0	303038464	61	3999
2026-01-25 01:48:03.80	21.13	18.34	-44.6	-45.7	21.2	0.00e+00	0	43	0	310378496	61	3954
2026-01-25 01:48:07.83	20.81	18.81	-44.6	-45.8	21.3	0.00e+00	0	43	0	318767104	61	3959
2026-01-25 01:48:11.87	20.49	19.29	-44.6	-45.8	21.3	0.00e+00	0	43	0	326107136	61	3972
2026-01-25 01:48:15.90	20.16	19.78	-44.7	-45.9	21.2	0.00e+00	0	44	0	333447168	61	4006
2026-01-25 01:48:19.94	19.82	20.27	-44.7	-45.9	21.2	0.00e+00	0	44	0	340787200	61	4024
2026-01-25 01:48:23.98	19.46	20.77	-44.9	-46.1	21.0	0.00e+00	0	43	0	349175808	61	4115
2026-01-25 01:48:28.02	19.09	21.29	-44.9	-46.2	21.0	0.00e+00	0	43	0	356515840	61	4146
2026-01-25 01:48:32.05	18.71	21.81	-45.0	-46.2	20.9	0.00e+00	0	43	0	363855872	61	4183
2026-01-25 01:48:36.09	18.32	22.34	-45.2	-46.5	20.7	0.00e+00	0	43	0	371195904	61	4299
2026-01-25 01:48:40.12	17.91	22.88	-45.3	-46.6	20.6	0.00e+00	0	44	0	378535936	61	4349
2026-01-25 01:48:44.15	17.48	23.43	-45.6	-46.9	20.3	0.00e+00	0	44	0	386924544	61	4504
2026-01-25 01:48:48.19	17.04	23.99	-46.0	-47.4	19.8	0.00e+00	0	44	0	394264576	62	4527
2026-01-25 01:48:52.22	16.59	24.56	-46.3	-47.8	19.5	0.00e+00	0	43	0	401604608	63	4458
2026-01-25 01:48:56.26	16.11	25.14	-46.3	-47.7	19.6	0.00e+00	0	44	0	408944640	63	4434
2026-01-25 01:49:00.29	15.62	25.73	-46.6	-48.1	19.3	0.00e+00	0	44	0	416284672	63	4599
2026-01-25 01:49:04.32	15.11	26.33	-46.6	-48.1	19.1	0.00e+00	0	44	0	424673280	64	4389
2026-01-25 01:49:08.36	14.57	26.95	-46.9	-48.5	18.8	0.00e+00	0	43	0	432013312	64	4548
2026-01-25 01:49:12.39	14.02	27.57	-47.2	-48.9	18.3	0.00e+00	0	44	0	439353344	65	4544
2026-01-25 01:49:16.43	13.44	28.21	-47.3	-49.0	18.3	0.00e+00	0	44	0	446693376	65	4592
2026-01-25 01:49:20.46	12.84	28.86	-47.4	-49.1	18.2	0.00e+00	0	43	0	455081984	65	4646
2026-01-25 01:49:24.49	12.21	29.51	-46.9	-48.5	18.9	0.00e+00	0	44	0	462422016	65	4295
2026-01-25 01:49:28.52	11.56	30.18	-46.7	-48.3	19.1	0.00e+00	0	43	0	469762048	65	4202
2026-01-25 01:49:32.56	10.88	30.87	-46.8	-48.3	19.0	0.00e+00	0	44	0	477102080	65	4227
2026-01-25 01:49:36.59	10.17	31.56	-47.0	-48.6	18.7	0.00e+00	0	44	0	484442112	65	4377
2026-01-25 01:49:40.63	9.42	32.26	-47.2	-48.8	18.6	0.00e+00	0	43	0	492830720	65	4470
2026-01-25 01:49:44.66	8.64	32.98	-47.3	-49.0	18.4	0.00e+00	0	43	0	500170752	65	4582
2026-01-25 01:49:48.69	7.83	33.71	-47.6	-49.4	18.1	0.00e+00	0	44	0	507510784	65	4771
2026-01-25 01:49:52.73	6.98	34.44	-47.8	-49.6	17.8	0.00e+00	0	44	0	514850816	66	4646
2026-01-25 01:49:56.75	6.09	35.19	-47.9	-49.8	17.6	0.00e+00	0	44	0	522190848	66	4757
2026-01-25 01:50:00.79	5.15	35.94	-47.5	-49.2	18.3	0.00e+00	0	44	0	530579456	66	4410
2026-01-25 01:50:04.82	4.17	36.71	-47.1	-48.7	18.7	0.00e+00	0	44	0	537919488	66	4191
2026-01-25 01:50:08.85	3.14	37.48	-47.0	-48.6	18.9	0.00e+00	0	44	0	545259520	65	4367
2026-01-25 01:50:12.89	2.06	38.26	-47.3	-48.9	18.5	0.00e+00	0	44	0	552599552	65	4543
2026-01-25 01:50:16.91	0.93	39.05	-47.4	-49.1	18.5	0.00e+00	0	44	0	559939584	65	4602
2026-01-25 01:50:20.95	359.74	39.84	-47.3	-48.9	18.7	0.00e+00	0	44	0	568328192	65	4529
2026-01-25 01:50:24.98	358.49	40.63	-47.4	-49.1	18.5	0.00e+00	0	44	0	575668224	65	4622
2026-01-25 01:50:29.01	357.18	41.42	-47.1	-48.7	18.9	0.00e+00	0	44	0	583008256	65	4402
2026-01-25 01:50:33.05	355.79	42.22	-46.8	-48.3	19.3	0.00e+00	0	44	0	590348288	65	4224
2026-01-25 01:50:37.08	354.34	43.01	-48.1	-49.9	17.8	0.00e+00	0	44	0	598736896	66	4802
2026-01-25 01:50:41.12	352.82	43.80	-47.9	-49.6	18.1	0.00e+00	0	44	0	606076928	66	4642
2026-01-25 01:50:45.15	351.22	44.57	-47.5	-49.2	18.5	0.00e+00	0	44	0	613416960	66	4418
2026-01-25 01:50:49.18	349.54	45.34	-48.1	-49.9	17.9	0.00e+00	0	44	0	620756992	66	4797
2026-01-25 01:50:53.21	347.77	46.09	-48.3	-50.2	17.5	0.00e+00	0	44	0	628097024	67	4687
2026-01-25 01:50:57.25	345.92	46.82	-48.0	-49.8	18.1	0.00e+00	0	44	0	636485632	67	4487
2026-01-25 01:51:01.28	343.98	47.53	-47.1	-48.7	19.2	0.00e+00	0	44	0	643825664	66	4151
2026-01-25 01:51:05.32	341.95	48.22	-47.2	-48.7	19.1	0.00e+00	0	44	0	651165696	66	4172
2026-01-25 01:51:09.36	339.82	48.88	-46.2	-47.6	20.2	0.00e+00	0	44	0	658505728	64	4117
2026-01-25 01:51:13.39	337.61	49.50	-47.1	-48.7	19.1	0.00e+00	0	44	0	665845760	64	4664
2026-01-25 01:51:17.43	335.31	50.08	-48.0	-49.8	18.0	0.00e+00	0	44	0	674234368	66	4724
2026-01-25 01:51:21.46	332.93	50.61	-47.6	-49.2	18.6	0.00e+00	0	44	0	681574400	66	4440
2026-01-25 01:51:25.49	330.46	51.10	-46.8	-48.3	19.5	0.00e+00	0	44	0	688914432	65	4207
2026-01-25 01:51:29.53	327.91	51.53	-46.7	-48.2	19.6	0.00e+00	0	44	0	696254464	65	4170
2026-01-25 01:51:33.56	325.30	51.91	-46.8	-48.3	19.5	0.00e+00	0	44	0	704643072	64	4465
2026-01-25 01:51:37.60	322.61	52.22	-44.5	-45.6	22.1	0.00e+00	0	44	0	711983104	60	4103
2026-01-25 01:51:41.63	319.88	52.47	-44.0	-45.0	22.9	0.00e+00	0	44	0	719323136	59	4069
2026-01-25 01:51:45.67	317.11	52.66	-43.1	-44.1	23.7	0.00e+00	0	44	0	726663168	58	3873
2026-01-25 01:51:49.70	314.31	52.77	-43.2	-44.1	23.7	0.00e+00	0	44	0	734003200	57	4124
2026-01-25 01:51:53.73	311.50	52.81	-43.1	-44.0	23.7	0.00e+00	0	44	0	742391808	57	4097
2026-01-25 01:51:57.76	308.68	52.78	-43.7	-44.7	23.2	0.00e+00	0	44	0	749731840	58	4152
2026-01-25 01:52:01.79	305.88	52.68	-43.8	-44.8	23.0	0.00e+00	0	44	0	757071872	58	4203
2026-01-25 01:52:05.83	303.10	52.51	-44.1	-45.1	22.8	0.00e+00	0	44	0	764411904	58	4386
2026-01-25 01:52:09.85	300.36	52.28	-43.6	-44.5	23.3	0.00e+00	0	44	0	772800512	58	4082
2026-01-25 01:52:13.89	297.67	51.97	-43.9	-44.9	22.9	0.00e+00	0	44	0	780140544	58	4282
2026-01-25 01:52:17.92	295.04	51.61	-43.5	-44.5	23.3	0.00e+00	0	44	0	787480576	58	4061
2026-01-25 01:52:21.95	292.48	51.18	-44.8	-46.0	21.6	0.00e+00	0	44	0	794820608	60	4304
2026-01-25 01:52:25.99	289.99	50.71	-45.4	-46.6	21.1	0.00e+00	0	44	0	802160640	61	4353
2026-01-25 01:52:30.02	287.59	50.18	-47.1	-48.7	19.0	0.00e+00	0	44	0	809500672	64	4671
2026-01-25 01:52:34.06	285.26	49.60	-46.8	-48.3	19.3	0.00e+00	0	44	0	817889280	64	4482
2026-01-25 01:52:38.09	283.04	48.99	-47.7	-49.4	18.3	0.00e+00	0	44	0	825229312	66	4529
2026-01-25 01:52:42.13	280.89	48.34	-46.8	-48.3	19.3	0.00e+00	0	44	0	832569344	65	4220
2026-01-25 01:52:46.16	278.85	47.66	-47.5	-49.2	18.4	0.00e+00	0	44	0	839909376	67	4174
2026-01-25 01:52:50.19	276.89	46.95	-47.2	-48.8	18.9	0.00e+00	0	44	0	848297984	65	4461
2026-01-25 01:52:54.23	275.02	46.22	-48.2	-50.0	17.6	0.00e+00	0	44	0	855638016	67	4593
2026-01-25 01:52:58.26	273.23	45.47	-47.8	-49.5	18.1	0.00e+00	0	44	0	862978048	67	4339
2026-01-25 01:53:02.29	271.53	44.71	-47.7	-49.5	18.2	0.00e+00	0	44	0	870318080	67	4292
2026-01-25 01:53:06.33	269.91	43.93	-46.9	-48.4	19.2	0.00e+00	0	44	0	878706688	65	4251
2026-01-25 01:53:10.37	268.37	43.14	-47.6	-49.3	18.3	0.00e+00	0	44	0	886046720	65	4719
2026-01-25 01:53:14.40	266.90	42.35	-46.7	-48.2	19.4	0.00e+00	0	44	0	893386752	64	4403
2026-01-25 01:53:18.43	265.51	41.55	-47.9	-49.8	17.8	0.00e+00	0	44	0	900726784	66	4716
2026-01-25 01:53:22.47	264.18	40.76	-48.4	-50.5	17.1	0.00e+00	0	44	0	908066816	67	4818
2026-01-25 01:53:26.51	262.91	39.96	-48.7	-50.8	16.9	0.00e+00	0	44	0	915406848	68	4706
2026-01-25 01:53:30.55	261.71	39.17	-49.2	-51.5	16.2	0.00e+00	0	44	0	923795456	68	5153
2026-01-25 01:53:34.58	260.56	38.38	-48.7	-50.8	16.9	0.00e+00	0	44	0	931135488	69	4466
2026-01-25 01:53:38.61	259.47	37.60	-48.9	-51.1	16.6	0.00e+00	0	44	0	938475520	69	4605
2026-01-25 01:53:42.65	258.43	36.82	-48.4	-50.4	17.2	0.00e+00	0	44	0	945815552	68	4518
2026-01-25 01:53:46.68	257.44	36.05	-47.9	-49.7	17.8	0.00e+00	0	44	0	954204160	66	4694
2026-01-25 01:53:50.71	256.50	35.29	-48.0	-49.9	17.6	0.00e+00	0	44	0	961544192	67	4501
2026-01-25 01:53:54.75	255.59	34.54	-47.8	-49.6	17.9	0.00e+00	0	44	0	968884224	67	4374
2026-01-25 01:53:58.78	254.73	33.80	-47.3	-49.0	18.5	0.00e+00	0	44	0	976224256	66	4298
2026-01-25 01:54:02.82	253.91	33.07	-47.3	-48.9	18.5	0.00e+00	0	44	0	983564288	66	4282
2026-01-25 01:54:06.86	253.12	32.35	-47.4	-49.1	18.3	0.00e+00	0	44	0	991952896	66	4370
2026-01-25 01:54:10.89	252.37	31.64	-47.2	-48.8	18.4	0.00e+00	0	44	0	999292928	66	4226
2026-01-25 01:54:14.92	251.65	30.95	-47.7	-49.5	17.9	0.00e+00	0	44	0	1006632960	66	4568
2026-01-25 01:54:18.95	250.96	30.26	-47.6	-49.4	18.0	0.00e+00	0	44	0	1013972992	66	4497
2026-01-25 01:54:22.98	250.30	29.59	-47.5	-49.3	18.1	0.00e+00	0	44	0	1022361600	66	4446
2026-01-25 01:54:27.01	249.67	28.93	-46.7	-48.2	19.2	0.00e+00	0	44	0	1029701632	65	4167
2026-01-25 01:54:31.05	249.06	28.27	-47.0	-48.6	18.8	0.00e+00	0	44	0	1037041664	65	4359
2026-01-25 01:54:35.08	248.48	27.63	-46.9	-48.5	18.9	0.00e+00	0	44	0	1044381696	65	4302
2026-01-25 01:54:39.12	247.92	27.01	-46.6	-48.1	19.2	0.00e+00	0	44	0	1051721728	65	4142
2026-01-25 01:54:43.15	247.38	26.39	-46.4	-47.9	19.4	0.00e+00	0	44	0	1060110336	64	4278
2026-01-25 01:54:47.18	246.86	25.78	-46.4	-47.9	19.4	0.00e+00	0	44	0	1067450368	64	4261
2026-01-25 01:54:51.22	246.36	25.19	-45.9	-47.3	20.0	0.00e+00	0	44	0	1074790400	63	4229
2026-01-25 01:54:55.25	245.88	24.60	-46.4	-47.9	19.4	0.00e+00	0	44	0	1082130432	63	4520
2026-01-25 01:54:59.29	245.42	24.03	-46.5	-48.1	19.1	0.00e+00	0	44	0	1089470464	64	4357
2026-01-25 01:55:03.32	244.98	23.47	-46.3	-47.7	19.5	0.00e+00	0	44	0	1097859072	64	4192
2026-01-25 01:55:07.35	244.55	22.91	-46.1	-47.5	19.8	0.00e+00	0	44	0	1105199104	63	4315
2026-01-25 01:55:11.39	244.14	22.37	-46.2	-47.6	19.7	0.00e+00	0	44	0	1112539136	63	4372
2026-01-25 01:55:15.43	243.74	21.84	-46.3	-47.7	19.5	0.00e+00	0	44	0	1119879168	63	4430
2026-01-25 01:55:19.46	243.35	21.31	-46.1	-47.5	19.7	0.00e+00	0	44	0	1128267776	63	4323
2026-01-25 01:55:23.49	242.98	20.80	-46.3	-47.7	19.5	0.00e+00	0	44	0	1135607808	63	4429
2026-01-25 01:55:27.53	242.62	20.29	-46.2	-47.7	19.5	0.00e+00	0	44	0	1142947840	63	4419
2026-01-25 01:55:31.56	242.27	19.80	-46.3	-47.8	19.3	0.00e+00	0	44	0	1150287872	63	4482
2026-01-25 01:55:35.59	241.94	19.31	-46.3	-47.8	19.3	0.00e+00	0	44	0	1157627904	63	4493
2026-01-25 01:55:39.62	241.61	18.83	-46.4	-48.0	19.2	0.00e+00	0	44	0	1164967936	63	4555
2026-01-25 01:55:43.65	241.30	18.36	-46.4	-48.0	19.2	0.00e+00	0	44	0	1173356544	63	4554
2026-01-25 01:55:47.68	240.99	17.89	-46.0	-47.5	19.7	0.00e+00	0	44	0	1180696576	63	4306
2026-01-25 01:55:51.71	240.70	17.44	-45.8	-47.1	20.0	0.00e+00	0	44	0	1188036608	63	4135
2026-01-25 01:55:55.75	240.41	16.99	-46.0	-47.4	19.7	0.00e+00	0	44	0	1195376640	63	4276
2026-01-25 01:55:59.78	240.13	16.55	-46.4	-47.9	19.1	0.00e+00	0	44	0	1203765248	63	4539
2026-01-25 01:56:03.81	239.86	16.12	-46.7	-48.3	18.7	0.00e+00	0	44	0	1211105280	64	4489
2026-01-25 01:56:07.85	239.60	15.69	-46.8	-48.5	18.5	0.00e+00	0	44	0	1218445312	64	4550
2026-01-25 01:56:11.88	239.35	15.27	-46.7	-48.4	18.5	0.00e+00	0	44	0	1225785344	64	4522
2026-01-25 01:56:15.92	239.10	14.85	-46.8	-48.4	18.5	0.00e+00	0	44	0	1233125376	64	4536
2026-01-25 01:56:19.96	238.86	14.45	-46.9	-48.6	18.3	0.00e+00	0	44	0	1241513984	64	4632
2026-01-25 01:56:23.99	238.63	14.05	-46.9	-48.6	18.3	0.00e+00	0	44	0	1248854016	64	4620
2026-01-25 01:56:28.02	238.40	13.65	-46.8	-48.5	18.4	0.00e+00	0	44	0	1256194048	64	4591
2026-01-25 01:56:32.05	238.18	13.26	-46.7	-48.4	18.5	0.00e+00	0	44	0	1263534080	64	4518
2026-01-25 01:56:36.09	237.97	12.88	-46.8	-48.5	18.4	0.00e+00	0	44	0	1271922688	64	4560
2026-01-25 01:56:40.12	237.76	12.50	-46.7	-48.4	18.4	0.00e+00	0	44	0	1279262720	64	4539
2026-01-25 01:56:44.15	237.56	12.13	-46.8	-48.5	18.3	0.00e+00	0	44	0	1286602752	64	4583
2026-01-25 01:56:48.19	237.36	11.76	-47.0	-48.7	18.1	0.00e+00	0	44	0	1293942784	64	4692
2026-01-25 01:56:52.22	237.17	11.40	-47.0	-48.8	18.0	0.00e+00	0	44	0	1301282816	64	4750
2026-01-25 01:56:56.26	236.98	11.04	-46.9	-48.6	18.1	0.00e+00	0	44	0	1309671424	64	4643
2026-01-25 01:57:00.29	236.80	10.69	-46.9	-48.7	18.0	0.00e+00	0	44	0	1317011456	64	4673
2026-01-25 01:57:04.33	236.62	10.34	-46.8	-48.6	18.1	0.00e+00	0	44	0	1324351488	64	4621
2026-01-25 01:57:08.36	236.45	10.00	-47.1	-48.9	17.7	0.00e+00	0	44	0	1331691520	64	4813
2026-01-25 01:57:12.39	236.28	9.66	-47.2	-49.1	17.6	0.00e+00	0	44	0	1339031552	65	4601
2026-01-25 01:57:16.43	236.11	9.32	-47.3	-49.3	17.3	0.00e+00	0	44	0	1347420160	65	4723
2026-01-25 01:57:20.46	235.95	8.99	-47.4	-49.4	17.2	0.00e+00	0	44	0	1354760192	65	4784
2026-01-25 01:57:24.49	235.79	8.67	-47.3	-49.3	17.3	0.00e+00	0	44	0	1362100224	65	4719
2026-01-25 01:57:28.53	235.64	8.34	-47.4	-49.5	17.0	0.00e+00	0	44	0	1369440256	65	4831
2026-01-25 01:57:32.56	235.49	8.03	-47.3	-49.3	17.2	0.00e+00	0	44	0	1377828864	65	4722
2026-01-25 01:57:36.59	235.34	7.71	-47.4	-49.5	16.9	0.00e+00	0	44	0	1385168896	65	4858
2026-01-25 01:57:40.63	235.20	7.40	-47.4	-49.5	16.9	0.00e+00	0	44	0	1392508928	65	4843
2026-01-25 01:57:44.66	235.06	7.09	-47.5	-49.7	16.7	0.00e+00	0	44	0	1399848960	66	4665
2026-01-25 01:57:48.69	234.93	6.79	-47.8	-50.1	16.3	0.00e+00	0	44	0	1407188992	66	4889
2026-01-25 01:57:52.73	234.79	6.49	-48.0	-50.3	15.9	0.00e+00	0	44	0	1415577600	66	5038
2026-01-25 01:57:56.77	234.66	6.19	-48.1	-50.6	15.6	0.00e+00	0	44	0	1422917632	66	5213
2026-01-25 01:58:00.80	234.53	5.90	-48.2	-50.7	15.6	0.00e+00	0	44	0	1430257664	67	4929
2026-01-25 01:58:04.83	234.41	5.60	-48.4	-51.0	15.2	0.00e+00	0	44	0	1437597696	67	5155
2026-01-25 01:58:08.87	234.29	5.32	-48.3	-51.0	15.2	0.00e+00	0	44	0	1444937728	67	5103
2026-01-25 01:58:12.91	234.17	5.03	-48.5	-51.3	14.8	0.00e+00	0	44	0	1453326336	67	5298
2026-01-25 01:58:16.94	234.05	4.75	-53.4	-68.4	3.8	1.49e+00	0	44	104	1454374912	77	21347
2026-01-25 01:58:20.98	233.94	4.47	-53.9	-68.9	3.8	1.49e+00	0	44	104	1454374912	78	21337
2026-01-25 01:58:25.02	233.82	4.19	-54.1	-69.0	3.8	1.49e+00	0	44	104	1454374912	78	21691
2026-01-25 01:58:29.05	233.71	3.92	-54.1	-69.1	3.8	1.49e+00	0	44	104	1454374912	78	21879
2026-01-25 01:58:33.09	233.61	3.65	-54.1	-69.0	3.8	1.49e+00	0	44	104	1454374912	78	21751
2026-01-25 01:58:37.12	233.50	3.38	-53.9	-68.9	3.8	1.49e+00	0	44	104	1454374912	78	21329
2026-01-25 01:58:41.15	233.40	3.11	-53.9	-68.9	3.8	1.49e+00	0	44	104	1454374912	78	21320
2026-01-25 01:58:45.19	233.30	2.85	-53.8	-68.7	3.8	1.49e+00	0	44	104	1454374912	78	20979
2026-01-25 01:58:49.22	233.20	2.59	-53.7	-68.7	3.8	1.49e+00	0	44	104	1454374912	78	20941
2026-01-25 01:58:53.25	233.10	2.33	-53.7	-68.7	3.8	1.49e+00	0	44	104	1454374912	78	20846
2026-01-25 01:58:57.29	233.01	2.07	-53.7	-68.7	3.8	1.49e+00	0	44	104	1454374912	78	20848

#Closed at: 2026-01-25 01:58:59
#Recorded file [1454 MB]: D:/lorett/data/31041_260125_044450.dat