passes_logs/2026/01/25/R3.2S_Murmansk/R3.2S_Murmansk__20260125_195826_TY-39_rec.log

#Pass ID: 20260125_195826_TY-39
#Satellite: TY-39
#Configuration: TY-39
#almurnet v.1.7.20251203
#Start time: 2026-01-25 19:58:28

#Version: 2.2.20231116
#Station: R3.2S_Murmansk
#Location: 33.079688 lon 68.888172 lat
#TLE: 1 51832U 22019J   26024.96711751  .00003048  00000-0  14574-3 0  9993
#TLE: 2 51832  97.3626  91.4130 0009162  21.3948 338.7669 15.19714183216042

#Time	Az	El	Level	Level2	SNR	BER	BlckErr	Temp	State	Recorded	gain1	gain2
2026-01-25 19:58:28.81	207.68	2.13	-53.9	-56.0	3.7	0.00e+00	0	47	0	0	78	19367
2026-01-25 19:58:31.83	207.95	2.32	-53.9	-56.0	3.7	0.00e+00	0	47	104	0	79	18328
2026-01-25 19:58:34.85	208.23	2.51	-54.0	-56.1	3.7	0.00e+00	0	47	104	0	79	18544
2026-01-25 19:58:37.86	208.51	2.70	-54.2	-56.3	3.7	0.00e+00	0	47	104	0	79	18994
2026-01-25 19:58:40.89	208.80	2.89	-54.2	-56.3	3.7	0.00e+00	0	47	104	0	79	18972
2026-01-25 19:58:43.90	209.09	3.08	-54.1	-56.2	3.7	0.00e+00	0	47	104	0	79	18769
2026-01-25 19:58:46.93	209.39	3.28	-54.0	-56.1	3.7	0.00e+00	0	47	104	0	79	18523
2026-01-25 19:58:49.94	209.68	3.47	-53.9	-56.1	3.7	0.00e+00	0	48	104	0	79	18399
2026-01-25 19:58:52.96	209.99	3.67	-53.6	-55.7	3.7	0.00e+00	0	48	104	0	78	18809
2026-01-25 19:58:55.98	210.30	3.87	-53.0	-55.1	3.7	0.00e+00	0	48	104	0	78	17546
2026-01-25 19:58:59.01	210.62	4.07	-52.6	-54.7	3.7	0.00e+00	0	48	104	0	77	17657
2026-01-25 19:59:02.03	210.94	4.27	-52.5	-54.7	3.7	0.00e+00	0	48	104	0	77	17687
2026-01-25 19:59:05.05	211.26	4.47	-52.5	-54.7	3.7	0.00e+00	0	48	104	0	77	17609
2026-01-25 19:59:08.07	211.60	4.67	-52.5	-54.6	3.7	0.00e+00	0	48	104	0	77	17511
2026-01-25 19:59:11.09	211.93	4.88	-52.5	-54.6	3.7	0.00e+00	0	49	104	0	77	17473
2026-01-25 19:59:14.11	212.28	5.08	-52.5	-54.6	3.7	0.00e+00	0	49	104	0	77	17539
2026-01-25 19:59:17.13	212.63	5.29	-52.4	-54.6	3.7	0.00e+00	0	49	104	0	76	18487
2026-01-25 19:59:20.14	212.98	5.50	-52.5	-54.6	3.7	0.00e+00	0	49	104	0	76	18529
2026-01-25 19:59:23.15	213.34	5.71	-52.5	-54.6	3.7	0.00e+00	0	49	104	0	76	18517
2026-01-25 19:59:26.17	213.71	5.92	-52.5	-54.7	3.7	0.00e+00	0	49	104	0	76	18654
2026-01-25 19:59:29.19	214.09	6.13	-52.4	-54.6	3.7	0.00e+00	0	49	104	0	76	18454
2026-01-25 19:59:32.22	214.47	6.35	-52.4	-54.6	3.7	0.00e+00	0	49	104	0	76	18447
2026-01-25 19:59:35.23	214.85	6.56	-52.5	-54.7	3.7	0.00e+00	0	49	104	0	76	18631
2026-01-25 19:59:38.25	215.25	6.78	-37.2	-37.0	13.1	2.19e-02	0	50	0	67108864	46	13772
2026-01-25 19:59:41.26	215.65	7.00	-37.4	-37.3	13.0	0.00e+00	0	50	0	293601280	46	14224
2026-01-25 19:59:44.28	216.06	7.22	-37.3	-37.2	13.2	0.00e+00	0	50	0	520093696	46	14037
2026-01-25 19:59:47.31	216.48	7.44	-37.1	-37.0	13.3	0.00e+00	0	50	0	746586112	46	13710
2026-01-25 19:59:50.33	216.91	7.67	-36.9	-36.8	13.5	0.00e+00	0	51	0	973078528	45	14169
2026-01-25 19:59:53.35	217.34	7.89	-36.7	-36.6	13.6	0.00e+00	0	50	0	1199570944	45	13932
2026-01-25 19:59:56.36	217.78	8.12	-36.6	-36.6	13.7	0.00e+00	0	50	0	1426063360	45	13812
2026-01-25 19:59:59.38	218.23	8.35	-36.7	-36.6	13.7	1.38e-05	0	51	0	1652555776	45	13889
2026-01-25 20:00:02.40	218.69	8.58	-36.5	-36.4	13.8	0.00e+00	0	51	0	1870659584	45	13594
2026-01-25 20:00:05.42	219.15	8.81	-36.5	-36.4	13.8	0.00e+00	0	51	0	2105540608	44	14389
2026-01-25 20:00:08.43	219.63	9.04	-36.5	-36.4	13.8	0.00e+00	0	51	0	2332033024	44	14330
2026-01-25 20:00:11.46	220.11	9.28	-36.3	-36.2	14.0	6.90e-06	0	51	0	2558525440	44	14003
2026-01-25 20:00:14.48	220.61	9.51	-36.2	-36.1	14.0	0.00e+00	0	51	0	2785017856	44	13924
2026-01-25 20:00:17.50	221.11	9.75	-36.1	-36.0	14.0	0.00e+00	0	51	0	3003121664	44	13756
2026-01-25 20:00:20.52	221.63	9.99	-36.2	-36.2	14.0	0.00e+00	0	51	0	3238002688	43	14812
2026-01-25 20:00:23.54	222.15	10.22	-36.0	-36.0	14.2	0.00e+00	0	51	0	3464495104	43	14444
2026-01-25 20:00:26.56	222.69	10.47	-36.3	-36.2	14.0	0.00e+00	0	51	0	3690987520	43	14897
2026-01-25 20:00:29.58	223.23	10.71	-35.9	-35.9	14.1	0.00e+00	0	51	0	3917479936	43	14305
2026-01-25 20:00:32.60	223.79	10.95	-35.6	-35.6	14.3	0.00e+00	0	51	0	4135583744	43	13816
2026-01-25 20:00:35.61	224.35	11.19	-35.7	-35.6	14.4	0.00e+00	0	51	0	4370464768	43	13908
2026-01-25 20:00:38.64	224.93	11.44	-35.6	-35.6	14.4	0.00e+00	0	52	0	4596957184	43	13818
2026-01-25 20:00:41.66	225.52	11.68	-35.5	-35.4	14.5	0.00e+00	0	51	0	4823449600	43	13576
2026-01-25 20:00:44.68	226.12	11.93	-35.6	-35.5	14.4	0.00e+00	0	52	0	5049942016	42	14520
2026-01-25 20:00:47.70	226.73	12.18	-35.3	-35.2	14.6	0.00e+00	0	52	0	5268045824	42	14066
2026-01-25 20:00:50.72	227.36	12.43	-35.4	-35.4	14.5	0.00e+00	0	52	0	5502926848	42	14281
2026-01-25 20:00:53.73	228.00	12.68	-35.2	-35.1	14.7	0.00e+00	0	52	0	5729419264	42	13847
2026-01-25 20:00:56.75	228.65	12.92	-35.2	-35.2	14.7	0.00e+00	0	52	0	5955911680	42	13970
2026-01-25 20:00:59.76	229.31	13.17	-35.0	-34.9	14.8	0.00e+00	0	52	0	6182404096	41	14306
2026-01-25 20:01:02.78	229.98	13.42	-34.9	-34.8	14.8	0.00e+00	0	52	0	6400507904	41	14244
2026-01-25 20:01:05.80	230.67	13.67	-35.0	-35.0	14.8	0.00e+00	0	52	0	6627000320	41	14448
2026-01-25 20:01:08.82	231.38	13.92	-35.0	-34.9	14.8	0.00e+00	0	52	0	6861881344	41	14337
2026-01-25 20:01:11.84	232.10	14.17	-34.7	-34.7	14.9	0.00e+00	0	52	0	7088373760	41	13954
2026-01-25 20:01:14.85	232.82	14.42	-34.7	-34.6	14.9	0.00e+00	0	52	0	7314866176	40	14674
2026-01-25 20:01:17.88	233.57	14.67	-34.5	-34.4	15.0	0.00e+00	0	52	0	7532969984	40	14415
2026-01-25 20:01:20.89	234.33	14.92	-34.5	-34.5	14.9	0.00e+00	0	52	0	7759462400	40	14459
2026-01-25 20:01:23.91	235.11	15.17	-34.3	-34.2	15.1	0.00e+00	0	52	0	7994343424	40	14035
2026-01-25 20:01:26.94	235.90	15.41	-34.2	-34.1	15.2	0.00e+00	0	52	0	8220835840	40	13824
2026-01-25 20:01:29.96	236.70	15.66	-34.2	-34.1	15.2	0.00e+00	0	52	0	8447328256	40	13867
2026-01-25 20:01:32.98	237.52	15.90	-34.3	-34.2	15.2	0.00e+00	0	52	0	8665432064	40	13998
2026-01-25 20:01:35.99	238.36	16.14	-34.0	-34.0	15.2	0.00e+00	0	52	0	8891924480	40	13634
2026-01-25 20:01:39.00	239.21	16.38	-34.0	-34.0	15.3	0.00e+00	0	52	0	9118416896	39	14450
2026-01-25 20:01:42.02	240.07	16.61	-34.1	-34.0	15.3	0.00e+00	0	52	0	9353297920	39	14503
2026-01-25 20:01:45.03	240.95	16.85	-33.9	-33.8	15.4	0.00e+00	0	52	0	9579790336	39	14211
2026-01-25 20:01:48.04	241.85	17.07	-33.9	-33.8	15.3	0.00e+00	0	52	0	9797894144	39	14268
2026-01-25 20:01:51.06	242.76	17.30	-34.0	-33.9	15.3	0.00e+00	0	52	0	10024386560	39	14419
2026-01-25 20:01:54.08	243.69	17.52	-34.0	-33.9	15.4	0.00e+00	0	52	0	10250878976	39	14312
2026-01-25 20:01:57.10	244.63	17.74	-33.6	-33.5	15.5	0.00e+00	0	52	0	10477371392	39	13787
2026-01-25 20:02:00.11	245.59	17.96	-33.7	-33.6	15.5	0.00e+00	0	52	0	10712252416	39	13905
2026-01-25 20:02:03.12	246.56	18.17	-33.6	-33.5	15.5	0.00e+00	0	52	0	10930356224	39	13751
2026-01-25 20:02:06.13	247.55	18.37	-33.6	-33.5	15.5	0.00e+00	0	52	0	11156848640	39	13652
2026-01-25 20:02:09.14	248.55	18.57	-33.6	-33.5	15.5	0.00e+00	0	52	0	11383341056	39	13721
2026-01-25 20:02:12.15	249.56	18.76	-33.5	-33.4	15.6	0.00e+00	0	52	0	11609833472	38	14335
2026-01-25 20:02:15.17	250.60	18.95	-33.4	-33.3	15.6	0.00e+00	0	52	0	11836325888	38	14202
2026-01-25 20:02:18.19	251.64	19.13	-33.3	-33.2	15.5	0.00e+00	0	52	0	12062818304	38	14012
2026-01-25 20:02:21.21	252.71	19.30	-33.3	-33.2	15.7	0.00e+00	0	52	0	12289310720	38	14030
2026-01-25 20:02:24.23	253.78	19.47	-33.2	-33.1	15.7	0.00e+00	0	52	0	12515803136	38	13881
2026-01-25 20:02:27.24	254.86	19.63	-33.2	-33.1	15.7	0.00e+00	0	52	0	12742295552	38	13860
2026-01-25 20:02:30.26	255.96	19.78	-33.3	-33.2	15.7	0.00e+00	0	52	0	12968787968	38	13990
2026-01-25 20:02:33.29	257.08	19.92	-33.1	-33.0	15.7	0.00e+00	0	52	0	13195280384	38	13775
2026-01-25 20:02:36.31	258.20	20.06	-33.2	-33.1	15.4	0.00e+00	0	52	0	13421772800	38	13897
2026-01-25 20:02:39.32	259.33	20.18	-33.1	-33.0	15.7	0.00e+00	0	52	0	13648265216	38	13775
2026-01-25 20:02:42.34	260.47	20.29	-33.0	-32.9	15.7	0.00e+00	0	52	0	13874757632	38	13567
2026-01-25 20:02:45.36	261.63	20.40	-32.9	-32.8	15.8	0.00e+00	0	52	0	14101250048	37	14215
2026-01-25 20:02:48.38	262.79	20.49	-32.9	-32.8	15.8	0.00e+00	0	52	0	14327742464	37	14218
2026-01-25 20:02:51.40	263.95	20.58	-33.0	-32.9	15.7	0.00e+00	0	52	0	14545846272	37	14397
2026-01-25 20:02:54.42	265.13	20.65	-32.9	-32.8	15.8	0.00e+00	0	52	0	14780727296	37	14221
2026-01-25 20:02:57.43	266.30	20.72	-32.9	-32.8	15.8	0.00e+00	0	52	0	15007219712	37	14252
2026-01-25 20:03:00.44	267.48	20.77	-32.9	-32.8	15.8	0.00e+00	0	52	0	15233712128	37	14238
2026-01-25 20:03:03.46	268.67	20.81	-33.0	-32.9	15.8	0.00e+00	0	52	0	15460204544	37	14380
2026-01-25 20:03:06.49	269.87	20.84	-33.0	-33.0	15.7	0.00e+00	0	52	0	15678308352	37	14443
2026-01-25 20:03:09.50	271.06	20.86	-32.9	-32.8	15.8	0.00e+00	0	52	0	15904800768	37	14228
2026-01-25 20:03:12.52	272.25	20.87	-33.0	-32.9	15.8	0.00e+00	0	52	0	16139681792	37	14355
2026-01-25 20:03:15.53	273.44	20.86	-33.0	-32.9	15.8	0.00e+00	0	53	0	16366174208	37	14295
2026-01-25 20:03:18.55	274.64	20.85	-33.0	-32.9	15.8	0.00e+00	0	52	0	16592666624	37	14288
2026-01-25 20:03:21.56	275.82	20.82	-32.9	-32.8	15.7	0.00e+00	0	53	0	16810770432	37	14211
2026-01-25 20:03:24.58	277.01	20.78	-33.0	-32.9	15.6	0.00e+00	0	53	0	17037262848	37	14358
2026-01-25 20:03:27.61	278.20	20.74	-32.9	-32.8	15.6	0.00e+00	0	53	0	17272143872	37	14242
2026-01-25 20:03:30.63	279.38	20.68	-33.1	-33.0	15.6	0.00e+00	0	52	0	17498636288	37	14554
2026-01-25 20:03:33.65	280.55	20.61	-33.0	-32.9	15.6	0.00e+00	0	52	0	17725128704	37	14423
2026-01-25 20:03:36.67	281.72	20.53	-33.1	-33.1	15.6	0.00e+00	0	53	0	17943232512	37	14609
2026-01-25 20:03:39.69	282.88	20.44	-33.0	-32.9	15.6	0.00e+00	0	53	0	18169724928	37	14439
2026-01-25 20:03:42.71	284.03	20.34	-33.1	-33.0	15.6	0.00e+00	0	53	0	18404605952	37	14472
2026-01-25 20:03:45.73	285.18	20.22	-33.2	-33.1	15.6	0.00e+00	0	53	0	18631098368	37	14692
2026-01-25 20:03:48.74	286.31	20.11	-33.1	-33.0	15.6	0.00e+00	0	53	0	18857590784	37	14572
2026-01-25 20:03:51.76	287.43	19.98	-33.1	-33.0	15.6	0.00e+00	0	53	0	19075694592	37	14557
2026-01-25 20:03:54.79	288.54	19.84	-33.2	-33.1	15.5	0.00e+00	0	53	0	19302187008	37	14748
2026-01-25 20:03:57.80	289.64	19.69	-33.2	-33.1	15.6	0.00e+00	0	53	0	19528679424	37	14775
2026-01-25 20:04:00.82	290.73	19.54	-33.3	-33.2	15.6	0.00e+00	0	53	0	19763560448	37	14816
2026-01-25 20:04:03.83	291.80	19.38	-33.4	-33.3	15.5	0.00e+00	0	53	0	19990052864	37	14983
2026-01-25 20:04:06.85	292.86	19.21	-33.4	-33.3	15.5	0.00e+00	0	53	0	20208156672	37	15116
2026-01-25 20:04:09.87	293.91	19.03	-33.4	-33.3	15.5	0.00e+00	0	53	0	20434649088	37	15105
2026-01-25 20:04:12.88	294.94	18.85	-33.6	-33.5	15.4	0.00e+00	0	53	0	20661141504	37	15461
2026-01-25 20:04:15.90	295.96	18.66	-33.6	-33.5	15.4	0.00e+00	0	53	0	20887633920	37	15413
2026-01-25 20:04:18.92	296.96	18.46	-33.7	-33.6	15.4	0.00e+00	0	53	0	21122514944	37	15574
2026-01-25 20:04:21.94	297.95	18.26	-33.7	-33.6	15.4	0.00e+00	0	53	0	21340618752	38	14649
2026-01-25 20:04:24.96	298.93	18.05	-33.8	-33.7	15.3	0.00e+00	0	53	0	21567111168	38	14940
2026-01-25 20:04:27.97	299.88	17.84	-33.8	-33.7	15.4	0.00e+00	0	53	0	21793603584	38	14805
2026-01-25 20:04:30.99	300.83	17.63	-33.8	-33.7	15.3	0.00e+00	0	53	0	22020096000	38	14923
2026-01-25 20:04:33.99	301.75	17.41	-33.9	-33.8	15.3	0.00e+00	0	53	0	22246588416	38	15005
2026-01-25 20:04:37.01	302.66	17.19	-34.0	-33.9	15.2	0.00e+00	0	53	0	22473080832	38	15164
2026-01-25 20:04:40.03	303.56	16.96	-34.0	-33.9	15.2	0.00e+00	0	53	0	22699573248	38	15242
2026-01-25 20:04:43.05	304.44	16.73	-34.1	-34.0	15.2	0.00e+00	0	53	0	22926065664	38	15331
2026-01-25 20:04:46.07	305.31	16.50	-34.2	-34.1	15.2	0.00e+00	0	53	0	23152558080	38	15577
2026-01-25 20:04:49.07	306.15	16.26	-34.3	-34.2	15.1	0.00e+00	0	53	0	23379050496	39	14859
2026-01-25 20:04:52.10	306.99	16.02	-34.3	-34.2	15.1	0.00e+00	0	53	0	23605542912	39	14824
2026-01-25 20:04:55.12	307.81	15.78	-34.5	-34.4	15.1	0.00e+00	0	53	0	23832035328	39	15149
2026-01-25 20:04:58.14	308.62	15.54	-34.6	-34.5	15.0	0.00e+00	0	53	0	24058527744	39	15393
2026-01-25 20:05:01.15	309.40	15.30	-34.6	-34.5	15.0	0.00e+00	0	53	0	24285020160	39	15450
2026-01-25 20:05:04.17	310.18	15.06	-34.6	-34.5	15.0	0.00e+00	0	53	0	24511512576	39	15345
2026-01-25 20:05:07.19	310.94	14.81	-34.7	-34.6	14.9	0.00e+00	0	53	0	24738004992	40	14736
2026-01-25 20:05:10.21	311.69	14.57	-34.8	-34.7	14.8	0.00e+00	0	53	0	24964497408	40	14926
2026-01-25 20:05:13.23	312.42	14.32	-34.8	-34.7	14.8	0.00e+00	0	53	0	25190989824	40	14911
2026-01-25 20:05:16.24	313.13	14.07	-34.9	-34.8	14.8	0.00e+00	0	53	0	25417482240	40	15079
2026-01-25 20:05:19.26	313.84	13.83	-34.8	-34.7	14.8	0.00e+00	0	53	0	25643974656	40	14882
2026-01-25 20:05:22.27	314.52	13.58	-34.9	-34.8	14.8	0.00e+00	0	53	0	25870467072	40	15009
2026-01-25 20:05:25.29	315.20	13.33	-35.0	-35.0	14.7	0.00e+00	0	53	0	26088570880	40	15303
2026-01-25 20:05:28.31	315.87	13.09	-35.3	-35.2	14.6	0.00e+00	0	53	0	26323451904	41	14822
2026-01-25 20:05:31.33	316.52	12.84	-35.2	-35.2	14.6	0.00e+00	0	53	0	26549944320	41	14809
2026-01-25 20:05:34.34	317.15	12.59	-35.3	-35.2	14.5	0.00e+00	0	53	0	26776436736	41	14899
2026-01-25 20:05:37.36	317.78	12.35	-35.5	-35.4	14.4	0.00e+00	0	53	0	27002929152	41	15233
2026-01-25 20:05:40.38	318.39	12.10	-35.3	-35.3	14.5	0.00e+00	0	53	0	27221032960	41	14966
2026-01-25 20:05:43.40	318.99	11.86	-35.6	-35.5	14.4	0.00e+00	0	53	0	27447525376	41	15364
2026-01-25 20:05:46.41	319.58	11.61	-35.5	-35.4	14.4	0.00e+00	0	53	0	27682406400	41	15277
2026-01-25 20:05:49.43	320.16	11.37	-35.9	-35.8	14.2	0.00e+00	0	53	0	27908898816	42	15061
2026-01-25 20:05:52.45	320.73	11.13	-35.8	-35.7	14.3	0.00e+00	0	53	0	28135391232	42	14883
2026-01-25 20:05:55.47	321.28	10.89	-35.8	-35.8	14.2	0.00e+00	0	53	0	28353495040	42	14949
2026-01-25 20:05:58.49	321.83	10.65	-35.9	-35.8	14.2	0.00e+00	0	53	0	28579987456	42	15075
2026-01-25 20:06:01.50	322.36	10.41	-35.9	-35.9	14.1	0.00e+00	0	53	0	28806479872	42	15153
2026-01-25 20:06:04.52	322.89	10.18	-36.2	-36.1	14.0	0.00e+00	0	53	0	29041360896	43	14769
2026-01-25 20:06:07.53	323.40	9.94	-36.2	-36.2	14.0	0.00e+00	0	53	0	29267853312	43	14821
2026-01-25 20:06:10.54	323.90	9.71	-36.3	-36.2	14.0	0.00e+00	0	53	0	29485957120	43	14870
2026-01-25 20:06:13.57	324.40	9.47	-36.4	-36.3	13.9	0.00e+00	0	53	0	29712449536	43	15112
2026-01-25 20:06:16.59	324.89	9.24	-36.5	-36.4	13.8	0.00e+00	0	53	0	29938941952	43	15180
2026-01-25 20:06:19.61	325.36	9.01	-52.9	-55.2	3.7	1.38e-05	0	53	104	30148657152	76	19863
2026-01-25 20:06:22.63	325.83	8.78	-52.9	-55.0	3.7	1.38e-05	0	52	104	30148657152	76	19457
2026-01-25 20:06:25.64	326.29	8.55	-52.9	-55.1	3.7	1.38e-05	0	52	104	30148657152	76	19488
2026-01-25 20:06:28.66	326.74	8.33	-52.8	-54.9	3.7	1.38e-05	0	52	104	30148657152	76	19193
2026-01-25 20:06:31.68	327.18	8.10	-52.8	-55.0	3.7	1.38e-05	0	52	104	30148657152	76	19277
2026-01-25 20:06:34.70	327.62	7.88	-52.8	-54.9	3.7	1.38e-05	0	52	104	30148657152	76	19190
2026-01-25 20:06:37.71	328.04	7.66	-52.8	-54.9	3.7	1.38e-05	0	52	104	30148657152	76	19193
2026-01-25 20:06:40.72	328.46	7.44	-52.6	-54.8	3.7	1.38e-05	0	52	104	30148657152	76	18878
2026-01-25 20:06:43.73	328.87	7.22	-52.7	-54.8	3.7	1.38e-05	0	52	104	30148657152	76	18905
2026-01-25 20:06:46.75	329.27	7.00	-52.6	-54.8	3.7	1.38e-05	0	52	104	30148657152	76	18823
2026-01-25 20:06:49.75	329.67	6.78	-52.7	-54.8	3.7	1.38e-05	0	52	104	30148657152	76	18928
2026-01-25 20:06:52.77	330.06	6.57	-52.6	-54.7	3.7	1.38e-05	0	51	104	30148657152	76	18633
2026-01-25 20:06:55.79	330.44	6.36	-52.6	-54.7	3.7	1.38e-05	0	51	104	30148657152	76	18731
2026-01-25 20:06:58.79	330.81	6.15	-52.5	-54.6	3.7	1.38e-05	0	51	104	30148657152	76	18592
2026-01-25 20:07:01.81	331.18	5.94	-52.6	-54.7	3.7	1.38e-05	0	51	104	30148657152	76	18755
2026-01-25 20:07:04.83	331.55	5.73	-52.5	-54.6	3.7	1.38e-05	0	51	104	30148657152	76	18479
2026-01-25 20:07:07.85	331.90	5.52	-52.5	-54.6	3.7	1.38e-05	0	51	104	30148657152	76	18497
2026-01-25 20:07:10.87	332.25	5.31	-52.5	-54.6	3.7	1.38e-05	0	51	104	30148657152	76	18468
2026-01-25 20:07:13.89	332.60	5.11	-52.5	-54.6	3.7	1.38e-05	0	51	104	30148657152	76	18555
2026-01-25 20:07:16.89	332.94	4.91	-52.8	-54.9	3.7	1.38e-05	0	51	104	30148657152	76	19169
2026-01-25 20:07:19.91	333.27	4.70	-53.4	-55.5	3.7	1.38e-05	0	51	104	30148657152	77	19400
2026-01-25 20:07:22.93	333.60	4.50	-53.5	-55.6	3.7	1.38e-05	0	51	104	30148657152	77	19498
2026-01-25 20:07:25.95	333.92	4.30	-53.4	-55.6	3.7	1.38e-05	0	51	104	30148657152	77	19522
2026-01-25 20:07:28.98	334.24	4.10	-53.3	-55.4	3.7	1.38e-05	0	51	104	30148657152	77	19182
2026-01-25 20:07:32.00	334.55	3.91	-53.4	-55.5	3.7	1.38e-05	0	51	104	30148657152	77	19382
2026-01-25 20:07:35.01	334.86	3.71	-53.4	-55.5	3.7	1.38e-05	0	51	104	30148657152	77	19422
2026-01-25 20:07:38.03	335.16	3.52	-53.3	-55.4	3.7	1.38e-05	0	51	104	30148657152	77	19117
2026-01-25 20:07:41.05	335.46	3.33	-53.2	-55.3	3.7	0.00e+00	0	51	104	30148657152	77	18906
2026-01-25 20:07:44.07	335.75	3.14	-53.1	-55.3	3.7	0.00e+00	0	51	104	30148657152	77	18853
2026-01-25 20:07:47.10	336.04	2.94	-53.1	-55.2	3.7	0.00e+00	0	51	104	30148657152	77	18749
2026-01-25 20:07:50.12	336.32	2.76	-53.1	-55.2	3.7	0.00e+00	0	51	104	30148657152	77	18802
2026-01-25 20:07:53.14	336.60	2.57	-53.1	-55.2	3.7	0.00e+00	0	51	104	30148657152	77	18761
2026-01-25 20:07:56.17	336.88	2.38	-53.1	-55.2	3.7	0.00e+00	0	51	104	30148657152	77	18754
2026-01-25 20:07:59.19	337.15	2.20	-53.1	-55.2	3.7	0.00e+00	0	51	104	30148657152	77	18798
2026-01-25 20:08:02.21	337.42	2.01	-53.1	-55.2	3.7	0.00e+00	0	51	104	30148657152	77	18792

#Closed at: 2026-01-25 20:08:03
#Recorded file [30148 MB]: D:/lorett/data/31041_260125_225828.dat