passes_logs/2026/01/25/R3.2S_Murmansk/R3.2S_Murmansk__20260125_005429_NOAA_21_JPSS-2_rec.log

#Pass ID: 20260125_005429_NOAA 21 (JPSS-2)
#Satellite: NOAA 21 (JPSS-2)
#Configuration: NOAA-21
#almurnet v.1.7.20251203
#Start time: 2026-01-25 00:54:30

#Version: 2.2.20231116
#Station: R3.2S_Murmansk
#Location: 33.079688 lon 68.888172 lat
#TLE: 1 54234U 22150A   26024.45772595  .00000201  00000+0  11607-3 0  9996
#TLE: 2 54234  98.7508 325.2435 0000728 220.7365 139.3757 14.19538765166156

#Time	Az	El	Level	Level2	SNR	BER	BlckErr	Temp	State	Recorded	gain1	gain2
2026-01-25 00:54:30.27	25.35	2.03	-52.1	-64.8	3.8	1.49e+00	0	41	0	0	76	14903
2026-01-25 00:54:34.29	25.34	2.29	-52.0	-64.8	3.8	1.49e+00	0	41	104	0	74	16707
2026-01-25 00:54:38.32	25.33	2.55	-52.0	-64.8	3.8	1.49e+00	0	41	104	0	74	16698
2026-01-25 00:54:42.36	25.32	2.81	-52.0	-64.6	3.8	1.49e+00	0	41	104	0	74	16463
2026-01-25 00:54:46.39	25.31	3.08	-52.0	-64.4	3.8	1.49e+00	0	42	104	0	74	16121
2026-01-25 00:54:50.42	25.30	3.35	-51.9	-63.4	3.8	1.49e+00	0	41	104	0	74	14336
2026-01-25 00:54:54.45	25.29	3.62	-51.4	-58.9	5.1	1.09e+00	0	42	104	0	74	8561
2026-01-25 00:54:58.49	25.28	3.89	-49.6	-53.3	10.3	8.03e-03	0	42	0	11534336	71	5306
2026-01-25 00:55:02.52	25.27	4.17	-46.3	-48.1	15.5	0.00e+00	0	42	0	24117248	64	4352
2026-01-25 00:55:06.53	25.25	4.45	-45.7	-47.2	16.5	0.00e+00	0	42	0	36700160	63	4175
2026-01-25 00:55:10.55	25.24	4.73	-46.1	-47.7	16.0	0.00e+00	0	42	0	49283072	63	4429
2026-01-25 00:55:14.57	25.23	5.01	-48.2	-50.9	12.8	3.35e-05	0	42	0	61865984	66	5353
2026-01-25 00:55:18.59	25.21	5.30	-46.0	-47.6	16.0	1.34e-03	0	42	0	74448896	64	4117
2026-01-25 00:55:22.62	25.20	5.59	-44.6	-45.9	18.0	0.00e+00	0	42	0	82837504	61	4005
2026-01-25 00:55:26.63	25.18	5.88	-44.8	-46.1	17.9	0.00e+00	0	42	0	95420416	61	4102
2026-01-25 00:55:30.65	25.16	6.18	-44.5	-45.7	18.2	0.00e+00	0	42	0	108003328	60	4182
2026-01-25 00:55:34.66	25.14	6.48	-44.6	-45.8	18.2	0.00e+00	0	42	0	120586240	60	4221
2026-01-25 00:55:38.68	25.13	6.78	-44.2	-45.3	18.6	0.00e+00	0	42	0	133169152	60	4003
2026-01-25 00:55:42.71	25.11	7.09	-44.5	-45.7	18.4	0.00e+00	0	42	0	145752064	60	4174
2026-01-25 00:55:46.72	25.09	7.40	-44.6	-45.8	18.3	0.00e+00	0	42	0	158334976	60	4199
2026-01-25 00:55:50.74	25.07	7.72	-44.2	-45.3	18.8	0.00e+00	0	42	0	170917888	60	3981
2026-01-25 00:55:54.75	25.04	8.04	-44.3	-45.5	19.0	0.00e+00	0	42	0	183500800	59	4292
2026-01-25 00:55:58.77	25.02	8.36	-44.2	-45.3	19.2	0.00e+00	0	42	0	196083712	59	4225
2026-01-25 00:56:02.78	25.00	8.69	-44.1	-45.2	19.3	0.00e+00	0	43	0	208666624	59	4155
2026-01-25 00:56:06.80	24.97	9.02	-44.0	-45.1	19.5	0.00e+00	0	42	0	221249536	59	4112
2026-01-25 00:56:10.82	24.95	9.36	-44.0	-45.1	19.5	0.00e+00	0	42	0	233832448	59	4105
2026-01-25 00:56:14.84	24.92	9.70	-43.7	-44.8	19.8	0.00e+00	0	43	0	246415360	59	3974
2026-01-25 00:56:18.86	24.90	10.04	-43.8	-44.9	19.7	0.00e+00	0	43	0	258998272	59	4005
2026-01-25 00:56:22.89	24.87	10.39	-44.1	-45.1	19.5	0.00e+00	0	43	0	271581184	59	4134
2026-01-25 00:56:26.91	24.84	10.75	-43.5	-44.5	20.1	0.00e+00	0	43	0	284164096	58	4086
2026-01-25 00:56:30.93	24.81	11.11	-43.4	-44.3	20.3	0.00e+00	0	43	0	296747008	58	3994
2026-01-25 00:56:34.95	24.78	11.48	-43.1	-44.0	20.6	0.00e+00	0	43	0	309329920	58	3861
2026-01-25 00:56:38.97	24.74	11.85	-43.1	-44.0	20.6	0.00e+00	0	43	0	321912832	58	3859
2026-01-25 00:56:42.99	24.71	12.22	-43.1	-44.0	20.6	0.00e+00	0	42	0	334495744	58	3849
2026-01-25 00:56:47.01	24.67	12.61	-43.0	-43.9	20.7	0.00e+00	0	43	0	347078656	57	4033
2026-01-25 00:56:51.03	24.63	13.00	-42.8	-43.7	20.9	0.00e+00	0	43	0	359661568	57	3942
2026-01-25 00:56:55.06	24.60	13.39	-42.7	-43.6	21.0	0.00e+00	0	43	0	372244480	57	3886
2026-01-25 00:56:59.09	24.56	13.80	-42.6	-43.5	21.1	0.00e+00	0	43	0	384827392	57	3859
2026-01-25 00:57:03.12	24.51	14.21	-42.7	-43.6	21.0	0.00e+00	0	43	0	397410304	57	3905
2026-01-25 00:57:07.15	24.47	14.62	-42.6	-43.4	21.2	0.00e+00	0	43	0	409993216	57	3817
2026-01-25 00:57:11.17	24.43	15.05	-42.5	-43.4	21.3	0.00e+00	0	43	0	422576128	57	3802
2026-01-25 00:57:15.19	24.38	15.48	-42.7	-43.6	21.0	0.00e+00	0	43	0	435159040	57	3904
2026-01-25 00:57:19.20	24.33	15.91	-42.7	-43.5	21.1	0.00e+00	0	43	0	447741952	57	3865
2026-01-25 00:57:23.20	24.28	16.36	-42.8	-43.7	21.0	0.00e+00	0	43	0	460324864	57	3947
2026-01-25 00:57:27.20	24.23	16.81	-42.8	-43.7	21.0	0.00e+00	0	43	0	472907776	57	3945
2026-01-25 00:57:31.21	24.17	17.27	-42.9	-43.8	21.0	0.00e+00	0	43	0	485490688	57	3968
2026-01-25 00:57:35.25	24.11	17.75	-42.9	-43.8	20.9	0.00e+00	0	43	0	498073600	57	3988
2026-01-25 00:57:39.28	24.05	18.23	-42.7	-43.6	21.1	0.00e+00	0	43	0	510656512	57	3904
2026-01-25 00:57:43.31	23.99	18.72	-42.7	-43.6	21.1	0.00e+00	0	43	0	523239424	57	3903
2026-01-25 00:57:47.33	23.93	19.22	-42.7	-43.6	21.2	0.00e+00	0	43	0	535822336	57	3870
2026-01-25 00:57:51.35	23.86	19.73	-42.5	-43.3	21.4	0.00e+00	0	43	0	548405248	56	3997
2026-01-25 00:57:55.38	23.79	20.26	-42.5	-43.3	21.4	0.00e+00	0	43	0	560988160	56	3999
2026-01-25 00:57:59.40	23.72	20.79	-42.2	-43.1	21.6	0.00e+00	0	43	0	573571072	56	3883
2026-01-25 00:58:03.42	23.64	21.33	-42.2	-43.0	21.7	0.00e+00	0	43	0	586153984	56	3845
2026-01-25 00:58:07.45	23.56	21.89	-41.7	-42.5	22.1	0.00e+00	0	43	0	598736896	55	3836
2026-01-25 00:58:11.48	23.48	22.46	-41.4	-42.2	22.3	0.00e+00	0	43	0	611319808	54	3956
2026-01-25 00:58:15.50	23.39	23.04	-41.2	-41.9	22.5	0.00e+00	0	43	0	623902720	54	3816
2026-01-25 00:58:19.53	23.30	23.64	-41.1	-41.8	22.6	0.00e+00	0	43	0	636485632	54	3774
2026-01-25 00:58:23.54	23.20	24.25	-41.1	-41.9	22.7	0.00e+00	0	43	0	649068544	54	3782
2026-01-25 00:58:27.56	23.10	24.87	-41.2	-42.0	22.6	0.00e+00	0	43	0	660602880	54	3840
2026-01-25 00:58:31.57	23.00	25.51	-41.3	-42.1	22.6	0.00e+00	0	43	0	674234368	54	3884
2026-01-25 00:58:35.59	22.89	26.16	-41.6	-42.4	22.3	0.00e+00	0	43	0	686817280	54	4035
2026-01-25 00:58:39.62	22.77	26.83	-42.0	-42.8	22.0	0.00e+00	0	43	0	699400192	54	4214
2026-01-25 00:58:43.65	22.65	27.52	-42.3	-43.2	21.6	0.00e+00	0	43	0	710934528	55	4152
2026-01-25 00:58:47.68	22.53	28.23	-42.5	-43.4	21.4	0.00e+00	0	43	0	724566016	55	4249
2026-01-25 00:58:51.72	22.39	28.95	-42.5	-43.4	21.4	0.00e+00	0	43	0	737148928	55	4260
2026-01-25 00:58:55.75	22.25	29.70	-42.6	-43.4	21.5	0.00e+00	0	43	0	748683264	55	4290
2026-01-25 00:58:59.78	22.10	30.46	-42.3	-43.1	21.8	0.00e+00	0	43	0	762314752	55	4137
2026-01-25 00:59:03.82	21.95	31.24	-42.1	-42.9	22.0	0.00e+00	0	43	0	774897664	55	4050
2026-01-25 00:59:07.86	21.78	32.05	-42.3	-43.1	21.8	0.00e+00	0	43	0	787480576	55	4144
2026-01-25 00:59:11.89	21.61	32.88	-42.6	-43.4	21.6	0.00e+00	0	43	0	800063488	55	4271
2026-01-25 00:59:15.93	21.42	33.73	-43.0	-43.9	21.3	0.00e+00	0	43	0	812646400	56	4253
2026-01-25 00:59:19.96	21.23	34.61	-43.7	-44.6	20.7	0.00e+00	0	43	0	825229312	57	4361
2026-01-25 00:59:24.00	21.02	35.51	-44.4	-45.4	20.0	0.00e+00	0	43	0	837812224	59	4268
2026-01-25 00:59:28.04	20.80	36.43	-44.3	-45.3	20.1	0.00e+00	0	43	0	850395136	59	4216
2026-01-25 00:59:32.08	20.57	37.39	-44.2	-45.2	20.2	0.00e+00	0	43	0	862978048	59	4146
2026-01-25 00:59:36.11	20.32	38.37	-43.9	-44.8	20.6	0.00e+00	0	43	0	875560960	59	3968
2026-01-25 00:59:40.15	20.05	39.38	-44.0	-45.0	20.3	0.00e+00	0	43	0	888143872	59	4052
2026-01-25 00:59:44.19	19.77	40.42	-44.0	-44.9	20.4	0.00e+00	0	43	0	900726784	59	4049
2026-01-25 00:59:48.22	19.46	41.48	-44.4	-45.4	20.0	0.00e+00	0	43	0	913309696	59	4265
2026-01-25 00:59:52.26	19.14	42.58	-44.5	-45.6	19.5	0.00e+00	0	43	0	925892608	60	4110
2026-01-25 00:59:56.29	18.78	43.71	-44.9	-46.0	19.1	0.00e+00	0	43	0	938475520	60	4318
2026-01-25 01:00:00.33	18.41	44.88	-45.3	-46.5	18.7	0.00e+00	0	43	0	951058432	61	4293
2026-01-25 01:00:04.36	18.00	46.08	-45.2	-46.3	18.8	0.00e+00	0	43	0	963641344	61	4208
2026-01-25 01:00:08.40	17.55	47.31	-44.7	-45.8	19.5	0.00e+00	0	43	0	976224256	61	3978
2026-01-25 01:00:12.44	17.07	48.58	-44.2	-45.2	20.0	0.00e+00	0	43	0	988807168	60	3934
2026-01-25 01:00:16.47	16.55	49.88	-44.7	-45.8	19.5	0.00e+00	0	43	0	1001390080	60	4240
2026-01-25 01:00:20.51	15.97	51.22	-44.6	-45.6	19.7	0.00e+00	0	43	0	1013972992	60	4126
2026-01-25 01:00:24.54	15.34	52.59	-44.3	-45.3	20.3	0.00e+00	0	43	0	1026555904	59	4210
2026-01-25 01:00:28.58	14.65	54.00	-43.4	-44.3	21.1	0.00e+00	0	43	0	1039138816	58	3970
2026-01-25 01:00:32.61	13.88	55.45	-43.5	-44.4	21.0	0.00e+00	0	43	0	1051721728	58	4009
2026-01-25 01:00:36.65	13.03	56.93	-42.7	-43.6	21.8	0.00e+00	0	43	0	1064304640	57	3871
2026-01-25 01:00:40.68	12.08	58.44	-42.5	-43.3	21.8	0.00e+00	0	43	0	1076887552	56	3992
2026-01-25 01:00:44.72	11.00	59.98	-42.2	-43.1	22.2	0.00e+00	0	43	0	1089470464	56	3869
2026-01-25 01:00:48.75	9.79	61.55	-41.3	-42.1	22.6	0.00e+00	0	43	0	1102053376	54	3893
2026-01-25 01:00:52.79	8.41	63.14	-41.2	-41.9	22.8	0.00e+00	0	43	0	1114636288	53	4043
2026-01-25 01:00:56.83	6.83	64.76	-41.6	-42.4	22.5	0.00e+00	0	43	0	1127219200	53	4262
2026-01-25 01:01:00.84	5.02	66.38	-41.1	-41.9	23.0	0.00e+00	0	43	0	1139802112	53	4020
2026-01-25 01:01:04.88	2.88	68.02	-40.5	-41.2	23.6	0.00e+00	0	43	0	1153433600	52	3925
2026-01-25 01:01:08.91	0.38	69.65	-41.1	-41.8	22.8	0.00e+00	0	43	0	1164967936	52	4225
2026-01-25 01:01:12.95	357.40	71.28	-40.9	-41.6	22.9	0.00e+00	0	43	0	1177550848	52	4126
2026-01-25 01:01:16.98	353.82	72.86	-40.4	-41.1	23.3	0.00e+00	0	43	0	1191182336	52	3911
2026-01-25 01:01:21.02	349.48	74.39	-40.3	-41.0	23.7	0.00e+00	0	43	0	1203765248	52	3852
2026-01-25 01:01:25.05	344.19	75.83	-40.6	-41.3	23.6	0.00e+00	0	43	0	1215299584	51	4242
2026-01-25 01:01:29.09	337.70	77.15	-41.0	-41.7	23.2	0.00e+00	0	43	0	1228931072	52	4177
2026-01-25 01:01:33.12	329.82	78.27	-40.6	-41.3	23.5	0.00e+00	0	43	0	1241513984	52	3999
2026-01-25 01:01:37.16	320.42	79.14	-41.5	-42.3	22.6	0.00e+00	0	43	0	1254096896	53	4228
2026-01-25 01:01:41.19	309.72	79.68	-41.7	-42.5	22.5	0.00e+00	0	43	0	1266679808	54	4073
2026-01-25 01:01:45.22	298.26	79.84	-41.6	-42.5	22.4	0.00e+00	0	43	0	1279262720	54	4053
2026-01-25 01:01:49.25	286.90	79.59	-41.4	-42.1	22.8	0.00e+00	0	43	0	1291845632	53	4131
2026-01-25 01:01:53.29	276.44	78.96	-40.5	-41.2	23.5	0.00e+00	0	43	0	1304428544	52	3921
2026-01-25 01:01:57.32	267.40	78.03	-41.2	-41.9	23.1	0.00e+00	0	43	0	1317011456	52	4290
2026-01-25 01:02:01.35	259.86	76.86	-40.9	-41.6	23.3	0.00e+00	0	43	0	1329594368	53	3886
2026-01-25 01:02:05.39	253.66	75.51	-41.0	-41.8	22.8	0.00e+00	0	43	0	1342177280	53	3985
2026-01-25 01:02:09.43	248.60	74.04	-41.2	-42.0	22.9	0.00e+00	0	43	0	1354760192	53	4052
2026-01-25 01:02:13.46	244.46	72.49	-40.4	-41.1	23.6	0.00e+00	0	43	0	1367343104	52	3906
2026-01-25 01:02:17.49	241.03	70.90	-40.4	-41.1	23.3	0.00e+00	0	43	0	1379926016	52	3908
2026-01-25 01:02:21.52	238.17	69.27	-41.6	-42.4	22.6	0.00e+00	0	43	0	1392508928	53	4243
2026-01-25 01:02:25.56	235.76	67.63	-41.3	-42.1	22.8	0.00e+00	0	43	0	1405091840	54	3883
2026-01-25 01:02:29.59	233.71	65.99	-42.0	-42.8	22.3	0.00e+00	0	43	0	1417674752	54	4241
2026-01-25 01:02:33.62	231.94	64.36	-40.8	-41.6	23.2	0.00e+00	0	43	0	1430257664	53	3873
2026-01-25 01:02:37.66	230.41	62.75	-42.6	-43.5	21.6	0.00e+00	0	43	0	1442840576	55	4298
2026-01-25 01:02:41.69	229.07	61.16	-41.7	-42.4	22.6	0.00e+00	0	43	0	1455423488	55	3803
2026-01-25 01:02:45.73	227.89	59.59	-43.1	-44.0	20.9	0.00e+00	0	43	0	1468006400	56	4325
2026-01-25 01:02:49.76	226.85	58.05	-42.5	-43.4	21.5	0.00e+00	0	43	0	1480589312	57	3784
2026-01-25 01:02:53.80	225.92	56.54	-44.6	-45.7	19.9	0.00e+00	0	43	0	1493172224	59	4401
2026-01-25 01:02:57.84	225.09	55.06	-42.7	-43.5	21.7	0.00e+00	0	43	0	1505755136	57	3853
2026-01-25 01:03:01.88	224.34	53.62	-42.6	-43.4	21.8	0.00e+00	0	43	0	1518338048	55	4253
2026-01-25 01:03:05.91	223.66	52.22	-45.0	-46.1	19.1	0.00e+00	0	43	0	1530920960	60	4363
2026-01-25 01:03:09.95	223.04	50.85	-43.8	-44.7	20.6	0.00e+00	0	43	0	1543503872	59	3940
2026-01-25 01:03:13.98	222.48	49.52	-44.4	-45.4	19.8	0.00e+00	0	43	0	1556086784	60	4020
2026-01-25 01:03:18.02	221.97	48.22	-44.5	-45.5	19.7	0.00e+00	0	43	0	1568669696	60	4087
2026-01-25 01:03:22.05	221.49	46.96	-44.3	-45.3	19.8	0.00e+00	0	43	0	1581252608	59	4213
2026-01-25 01:03:26.09	221.06	45.73	-44.0	-45.0	20.3	0.00e+00	0	43	0	1593835520	59	4055
2026-01-25 01:03:30.12	220.65	44.54	-46.2	-47.1	18.3	0.00e+00	0	43	0	1606418432	62	4347
2026-01-25 01:03:34.15	220.28	43.38	-46.6	-48.1	17.3	0.00e+00	0	43	0	1619001344	63	4608
2026-01-25 01:03:38.19	219.94	42.25	-44.8	-45.8	19.1	0.00e+00	0	43	0	1631584256	61	3998
2026-01-25 01:03:42.22	219.61	41.16	-43.3	-44.2	21.0	0.00e+00	0	43	0	1644167168	58	3930
2026-01-25 01:03:46.25	219.31	40.09	-44.7	-45.8	19.4	0.00e+00	0	43	0	1656750080	60	4209
2026-01-25 01:03:50.29	219.03	39.06	-44.2	-45.2	19.9	0.00e+00	0	43	0	1669332992	60	3942
2026-01-25 01:03:54.33	218.77	38.05	-44.3	-45.4	19.7	0.00e+00	0	43	0	1681915904	60	4015
2026-01-25 01:03:58.36	218.52	37.08	-44.7	-45.8	19.4	0.00e+00	0	43	0	1694498816	60	4200
2026-01-25 01:04:02.40	218.29	36.13	-44.2	-45.2	19.8	0.00e+00	0	43	0	1708130304	60	3955
2026-01-25 01:04:06.44	218.07	35.20	-43.9	-44.8	20.5	0.00e+00	0	43	0	1719664640	59	4001
2026-01-25 01:04:10.47	217.87	34.31	-44.2	-45.2	20.1	0.00e+00	0	43	0	1733296128	59	4186
2026-01-25 01:04:14.50	217.67	33.44	-43.8	-44.8	20.4	0.00e+00	0	43	0	1745879040	59	3977
2026-01-25 01:04:18.53	217.49	32.59	-43.1	-44.0	21.1	0.00e+00	0	43	0	1758461952	58	3843
2026-01-25 01:04:22.57	217.32	31.76	-42.3	-43.1	21.8	0.00e+00	0	43	0	1769996288	56	3907
2026-01-25 01:04:26.60	217.15	30.96	-42.2	-43.0	22.0	0.00e+00	0	43	0	1783627776	56	3828
2026-01-25 01:04:30.63	217.00	30.18	-42.3	-43.1	21.9	0.00e+00	0	43	0	1796210688	56	3899
2026-01-25 01:04:34.66	216.85	29.42	-42.3	-43.1	21.8	0.00e+00	0	43	0	1807745024	56	3903
2026-01-25 01:04:38.69	216.71	28.68	-42.4	-43.2	21.7	0.00e+00	0	43	0	1821376512	56	3951
2026-01-25 01:04:42.72	216.58	27.96	-42.0	-42.8	22.1	0.00e+00	0	43	0	1833959424	56	3766
2026-01-25 01:04:46.76	216.45	27.25	-41.7	-42.5	22.1	0.00e+00	0	43	0	1846542336	55	3849
2026-01-25 01:04:50.79	216.33	26.57	-42.0	-42.8	21.8	0.00e+00	0	43	0	1859125248	55	3976
2026-01-25 01:04:54.82	216.21	25.90	-42.0	-42.8	21.8	0.00e+00	0	43	0	1871708160	55	3989
2026-01-25 01:04:58.85	216.10	25.24	-42.0	-42.8	21.8	0.00e+00	0	43	0	1884291072	55	3987
2026-01-25 01:05:02.88	216.00	24.61	-42.0	-42.8	21.7	0.00e+00	0	43	0	1896873984	55	3981
2026-01-25 01:05:06.92	215.90	23.98	-42.0	-42.9	21.5	0.00e+00	0	43	0	1909456896	55	4012
2026-01-25 01:05:10.95	215.80	23.37	-42.1	-42.9	21.6	0.00e+00	0	43	0	1922039808	55	4048
2026-01-25 01:05:14.99	215.71	22.78	-42.0	-42.9	21.7	0.00e+00	0	43	0	1934622720	55	4013
2026-01-25 01:05:19.02	215.62	22.20	-41.9	-42.7	21.9	0.00e+00	0	43	0	1947205632	55	3920
2026-01-25 01:05:23.06	215.54	21.63	-41.8	-42.7	22.0	0.00e+00	0	43	0	1959788544	55	3914
2026-01-25 01:05:27.09	215.46	21.07	-41.6	-42.4	22.2	0.00e+00	0	43	0	1972371456	55	3817
2026-01-25 01:05:31.13	215.38	20.53	-41.6	-42.4	22.2	0.00e+00	0	43	0	1984954368	55	3803
2026-01-25 01:05:35.17	215.30	19.99	-41.7	-42.5	22.1	0.00e+00	0	43	0	1997537280	55	3847
2026-01-25 01:05:39.21	215.23	19.47	-41.9	-42.7	21.9	0.00e+00	0	43	0	2010120192	55	3926
2026-01-25 01:05:43.24	215.16	18.96	-41.9	-42.7	21.8	0.00e+00	0	43	0	2022703104	55	3958
2026-01-25 01:05:47.27	215.10	18.46	-42.1	-42.9	21.7	0.00e+00	0	43	0	2035286016	55	4023
2026-01-25 01:05:51.30	215.03	17.97	-42.2	-43.0	21.6	0.00e+00	0	43	0	2047868928	55	4076
2026-01-25 01:05:55.33	214.97	17.49	-42.3	-43.1	21.5	0.00e+00	0	43	0	2060451840	55	4145
2026-01-25 01:05:59.37	214.91	17.02	-42.5	-43.3	21.3	0.00e+00	0	43	0	2073034752	55	4231
2026-01-25 01:06:03.41	214.86	16.55	-42.6	-43.5	21.1	0.00e+00	0	43	0	2085617664	55	4321
2026-01-25 01:06:07.44	214.80	16.10	-42.9	-43.8	20.9	0.00e+00	0	43	0	2098200576	56	4208
2026-01-25 01:06:11.47	214.75	15.65	-43.0	-44.0	20.7	0.00e+00	0	43	0	2110783488	56	4298
2026-01-25 01:06:15.51	214.70	15.21	-43.2	-44.2	20.5	0.00e+00	0	43	0	2123366400	57	4169
2026-01-25 01:06:19.54	214.65	14.78	-43.2	-44.1	20.6	0.00e+00	0	43	0	2135949312	57	4120
2026-01-25 01:06:23.57	214.61	14.36	-42.9	-43.8	20.8	0.00e+00	0	43	0	2148532224	57	3993
2026-01-25 01:06:27.60	214.56	13.94	-43.2	-44.1	20.5	0.00e+00	0	43	0	2161115136	57	4142
2026-01-25 01:06:31.64	214.52	13.53	-43.1	-44.1	20.5	0.00e+00	0	43	0	2173698048	57	4100
2026-01-25 01:06:35.67	214.48	13.13	-43.1	-44.0	20.6	0.00e+00	0	43	0	2186280960	57	4067
2026-01-25 01:06:39.70	214.44	12.74	-43.0	-43.9	20.7	0.00e+00	0	43	0	2198863872	57	4037
2026-01-25 01:06:43.74	214.40	12.35	-43.0	-44.0	20.6	0.00e+00	0	43	0	2211446784	57	4060
2026-01-25 01:06:47.77	214.36	11.96	-43.1	-44.0	20.5	0.00e+00	0	43	0	2224029696	57	4098
2026-01-25 01:06:51.80	214.32	11.59	-43.1	-44.1	20.5	0.00e+00	0	43	0	2236612608	57	4113
2026-01-25 01:06:55.84	214.29	11.21	-43.2	-44.2	20.4	0.00e+00	0	43	0	2249195520	57	4172
2026-01-25 01:06:59.87	214.25	10.85	-43.3	-44.2	20.3	0.00e+00	0	43	0	2262827008	57	4183
2026-01-25 01:07:03.91	214.22	10.49	-43.4	-44.4	20.1	0.00e+00	0	43	0	2274361344	57	4281
2026-01-25 01:07:07.94	214.19	10.13	-43.6	-44.6	19.9	0.00e+00	0	43	0	2286944256	57	4370
2026-01-25 01:07:11.98	214.16	9.78	-43.5	-44.5	20.0	0.00e+00	0	43	0	2300575744	58	4077
2026-01-25 01:07:16.01	214.13	9.44	-43.6	-44.6	19.8	0.00e+00	0	43	0	2312110080	58	4143
2026-01-25 01:07:20.05	214.10	9.09	-43.7	-44.7	19.8	0.00e+00	0	43	0	2324692992	58	4160
2026-01-25 01:07:24.08	214.07	8.76	-43.9	-45.0	19.5	0.00e+00	0	43	0	2338324480	58	4293
2026-01-25 01:07:28.12	214.05	8.43	-43.9	-44.9	19.5	0.00e+00	0	43	0	2350907392	58	4271
2026-01-25 01:07:32.15	214.02	8.10	-44.2	-45.3	19.2	0.00e+00	0	43	0	2362441728	59	4211
2026-01-25 01:07:36.18	214.00	7.77	-44.5	-45.7	18.5	0.00e+00	0	43	0	2376073216	59	4426
2026-01-25 01:07:40.21	213.97	7.46	-44.4	-45.5	18.7	0.00e+00	0	43	0	2388656128	59	4331
2026-01-25 01:07:44.25	213.95	7.14	-44.3	-45.5	18.4	0.00e+00	0	43	0	2401239040	60	4066
2026-01-25 01:07:48.28	213.93	6.83	-44.5	-45.7	18.3	0.00e+00	0	43	0	2413821952	60	4154
2026-01-25 01:07:52.31	213.90	6.52	-44.6	-45.9	18.1	0.00e+00	0	43	0	2426404864	60	4245
2026-01-25 01:07:56.34	213.88	6.22	-44.9	-46.2	17.8	0.00e+00	0	43	0	2438987776	60	4393
2026-01-25 01:08:00.37	213.86	5.92	-44.9	-46.3	17.7	0.00e+00	0	43	0	2451570688	60	4444
2026-01-25 01:08:04.41	213.84	5.62	-45.2	-46.6	17.3	0.00e+00	0	43	0	2464153600	60	4625
2026-01-25 01:08:08.44	213.82	5.32	-45.3	-46.7	17.2	0.00e+00	0	43	0	2476736512	61	4423
2026-01-25 01:08:12.47	213.81	5.03	-47.9	-50.3	13.9	0.00e+00	0	43	0	2489319424	66	4998
2026-01-25 01:08:16.51	213.79	4.75	-53.4	-66.2	3.8	1.49e+00	0	43	104	2489319424	77	16558
2026-01-25 01:08:20.54	213.77	4.46	-53.8	-66.5	3.8	1.49e+00	0	43	104	2489319424	78	16298
2026-01-25 01:08:24.57	213.75	4.18	-54.0	-66.7	3.8	1.49e+00	0	43	104	2489319424	78	16675
2026-01-25 01:08:28.61	213.74	3.90	-54.0	-66.8	3.8	1.49e+00	0	43	104	2489319424	78	16795
2026-01-25 01:08:32.64	213.72	3.63	-54.0	-66.7	3.8	1.49e+00	0	43	104	2489319424	78	16681
2026-01-25 01:08:36.68	213.71	3.35	-54.0	-66.7	3.8	1.49e+00	0	43	104	2489319424	78	16598
2026-01-25 01:08:40.71	213.69	3.08	-53.9	-66.7	3.8	1.49e+00	0	43	104	2489319424	78	16517
2026-01-25 01:08:44.75	213.68	2.81	-53.8	-66.6	3.8	1.49e+00	0	43	104	2489319424	78	16389
2026-01-25 01:08:48.79	213.67	2.55	-53.8	-66.6	3.8	1.49e+00	0	43	104	2489319424	78	16339
2026-01-25 01:08:52.82	213.65	2.29	-53.8	-66.5	3.8	1.49e+00	0	43	104	2489319424	78	16268
2026-01-25 01:08:56.86	213.64	2.02	-53.8	-66.5	3.8	1.49e+00	0	43	104	2489319424	78	16256

#Closed at: 2026-01-25 01:09:00
#Recorded file [2489 MB]: D:/lorett/data/31041_260125_035430.dat