passes_logs/2026/01/25/R3.2S_Murmansk/R3.2S_Murmansk__20260125_030421_SUOMI_NPP_rec.log

#Pass ID: 20260125_030421_SUOMI NPP
#Satellite: SUOMI NPP
#Configuration: NPP
#almurnet v.1.7.20251203
#Start time: 2026-01-25 03:04:21

#Version: 2.2.20231116
#Station: R3.2S_Murmansk
#Location: 33.079688 lon 68.888172 lat
#TLE: 1 37849U 11061A   26024.54906732  .00000185  00000+0  10878-3 0  9990
#TLE: 2 37849  98.7821 326.5159 0002200  47.3746 312.7615 14.19529340738061

#Time	Az	El	Level	Level2	SNR	BER	BlckErr	Temp	State	Recorded	gain1	gain2
2026-01-25 03:04:21.59	37.62	2.03	-52.0	-67.0	3.8	1.49e+00	0	42	0	0	76	19206
2026-01-25 03:04:25.61	37.43	2.27	-52.0	-67.0	3.8	1.49e+00	0	42	104	0	74	21539
2026-01-25 03:04:29.65	37.23	2.52	-52.0	-66.9	3.8	1.49e+00	0	42	104	0	74	21466
2026-01-25 03:04:33.67	37.04	2.76	-52.0	-66.8	3.8	1.49e+00	0	42	104	0	74	21253
2026-01-25 03:04:37.71	36.84	3.01	-52.0	-67.0	3.8	1.49e+00	0	42	104	0	74	21525
2026-01-25 03:04:41.74	36.64	3.26	-52.0	-66.8	3.8	1.49e+00	0	42	104	0	74	21144
2026-01-25 03:04:45.78	36.43	3.52	-52.0	-66.9	3.8	1.49e+00	0	42	104	0	74	21360
2026-01-25 03:04:49.81	36.22	3.77	-51.9	-65.6	3.8	1.49e+00	0	42	104	0	74	18371
2026-01-25 03:04:53.84	36.00	4.03	-51.8	-64.5	3.8	1.47e+00	0	43	104	0	74	16159
2026-01-25 03:04:57.87	35.78	4.29	-51.6	-62.0	4.7	1.03e+00	0	43	0	2097152	74	12169
2026-01-25 03:05:01.91	35.56	4.55	-50.7	-56.7	8.9	5.01e-02	0	43	0	9437184	73	6994
2026-01-25 03:05:05.94	35.33	4.81	-50.1	-54.9	10.7	4.12e-03	0	43	0	16777216	72	6051
2026-01-25 03:05:09.97	35.10	5.07	-48.9	-52.2	13.8	1.97e-04	0	43	0	25165824	69	5235
2026-01-25 03:05:14.00	34.86	5.34	-50.8	-56.8	8.9	8.30e-06	0	43	0	29360128	72	7498
2026-01-25 03:05:18.03	34.62	5.61	-48.0	-50.7	15.3	0.00e+00	0	43	0	37748736	66	5234
2026-01-25 03:05:22.06	34.38	5.88	-47.9	-50.5	15.5	0.00e+00	0	43	0	45088768	66	5116
2026-01-25 03:05:26.09	34.13	6.15	-47.4	-49.7	16.3	0.00e+00	0	43	0	52428800	66	4699
2026-01-25 03:05:30.13	33.87	6.43	-47.1	-49.2	16.9	0.00e+00	0	43	0	59768832	66	4416
2026-01-25 03:05:34.16	33.61	6.71	-47.1	-49.3	16.8	0.00e+00	0	43	0	67108864	66	4446
2026-01-25 03:05:38.19	33.34	6.99	-47.0	-49.1	17.1	0.00e+00	0	43	0	75497472	65	4613
2026-01-25 03:05:42.23	33.07	7.27	-47.0	-49.1	17.0	0.00e+00	0	43	0	82837504	65	4645
2026-01-25 03:05:46.26	32.79	7.56	-47.1	-49.2	17.0	0.00e+00	0	43	0	90177536	65	4693
2026-01-25 03:05:50.29	32.51	7.85	-47.1	-49.2	17.0	0.00e+00	0	43	0	97517568	65	4691
2026-01-25 03:05:54.32	32.22	8.14	-46.8	-48.8	17.4	0.00e+00	0	44	0	104857600	65	4479
2026-01-25 03:05:58.36	31.92	8.43	-46.6	-48.5	17.7	0.00e+00	0	44	0	113246208	65	4319
2026-01-25 03:06:02.39	31.62	8.73	-46.7	-48.7	17.6	0.00e+00	0	44	0	120586240	65	4394
2026-01-25 03:06:06.43	31.31	9.03	-46.5	-48.4	17.9	0.00e+00	0	43	0	127926272	64	4506
2026-01-25 03:06:10.46	30.99	9.33	-46.5	-48.3	18.0	0.00e+00	0	44	0	135266304	64	4490
2026-01-25 03:06:14.49	30.67	9.64	-46.2	-47.9	18.4	0.00e+00	0	44	0	143654912	64	4271
2026-01-25 03:06:18.53	30.34	9.94	-46.1	-47.8	18.5	0.00e+00	0	43	0	150994944	64	4211
2026-01-25 03:06:22.56	30.01	10.25	-46.0	-47.7	18.7	0.00e+00	0	44	0	158334976	63	4428
2026-01-25 03:06:26.59	29.66	10.57	-46.1	-47.8	18.6	0.00e+00	0	44	0	165675008	63	4488
2026-01-25 03:06:30.62	29.31	10.88	-46.3	-48.1	18.4	0.00e+00	0	44	0	173015040	63	4606
2026-01-25 03:06:34.66	28.95	11.20	-46.2	-47.9	18.6	0.00e+00	0	44	0	180355072	63	4503
2026-01-25 03:06:38.69	28.58	11.52	-46.3	-48.0	18.6	0.00e+00	0	44	0	188743680	63	4560
2026-01-25 03:06:42.72	28.20	11.85	-46.2	-47.8	18.7	0.00e+00	0	44	0	196083712	63	4468
2026-01-25 03:06:46.75	27.82	12.18	-46.2	-47.9	18.7	0.00e+00	0	44	0	203423744	63	4503
2026-01-25 03:06:50.78	27.42	12.51	-45.8	-47.3	19.2	0.00e+00	0	44	0	210763776	63	4242
2026-01-25 03:06:54.82	27.02	12.84	-46.0	-47.6	19.0	0.00e+00	0	44	0	219152384	63	4355
2026-01-25 03:06:58.85	26.60	13.18	-45.7	-47.3	19.3	0.00e+00	0	44	0	226492416	63	4198
2026-01-25 03:07:02.89	26.18	13.52	-45.6	-47.0	19.5	0.00e+00	0	44	0	233832448	63	4094
2026-01-25 03:07:06.92	25.74	13.87	-45.5	-46.9	19.7	0.00e+00	0	44	0	241172480	62	4262
2026-01-25 03:07:10.95	25.30	14.21	-45.5	-46.9	19.7	0.00e+00	0	44	0	248512512	62	4255
2026-01-25 03:07:14.98	24.84	14.57	-45.5	-46.9	19.7	0.00e+00	0	44	0	256901120	62	4279
2026-01-25 03:07:19.02	24.38	14.92	-45.6	-47.1	19.6	0.00e+00	0	44	0	264241152	62	4342
2026-01-25 03:07:23.05	23.90	15.28	-45.7	-47.2	19.5	0.00e+00	0	44	0	271581184	62	4398
2026-01-25 03:07:27.09	23.41	15.64	-45.7	-47.2	19.4	0.00e+00	0	44	0	278921216	62	4403
2026-01-25 03:07:31.12	22.90	16.00	-45.8	-47.3	19.4	0.00e+00	0	44	0	287309824	62	4442
2026-01-25 03:07:35.16	22.39	16.37	-45.8	-47.3	19.4	0.00e+00	0	44	0	294649856	62	4449
2026-01-25 03:07:39.19	21.86	16.74	-45.6	-47.0	19.7	0.00e+00	0	44	0	301989888	62	4330
2026-01-25 03:07:43.23	21.31	17.11	-45.4	-46.8	19.9	0.00e+00	0	44	0	309329920	62	4236
2026-01-25 03:07:47.26	20.76	17.48	-45.7	-47.1	19.7	0.00e+00	0	44	0	316669952	62	4361
2026-01-25 03:07:51.29	20.19	17.86	-46.4	-48.0	18.8	0.00e+00	0	44	0	324009984	63	4582
2026-01-25 03:07:55.33	19.60	18.24	-46.7	-48.5	18.3	0.00e+00	0	44	0	332398592	64	4550
2026-01-25 03:07:59.36	19.00	18.63	-46.2	-47.8	19.0	0.00e+00	0	44	0	339738624	64	4204
2026-01-25 03:08:03.39	18.39	19.01	-46.0	-47.6	19.2	0.00e+00	0	44	0	347078656	63	4343
2026-01-25 03:08:07.43	17.75	19.40	-45.5	-47.0	19.8	0.00e+00	0	44	0	354418688	63	4052
2026-01-25 03:08:11.46	17.10	19.79	-46.1	-47.7	19.2	0.00e+00	0	44	0	362807296	63	4397
2026-01-25 03:08:15.49	16.44	20.19	-46.0	-47.6	19.4	0.00e+00	0	44	0	370147328	63	4346
2026-01-25 03:08:19.53	15.75	20.58	-45.8	-47.3	19.6	0.00e+00	0	44	0	377487360	63	4202
2026-01-25 03:08:23.56	15.05	20.98	-46.0	-47.5	19.6	0.00e+00	0	44	0	384827392	63	4302
2026-01-25 03:08:27.59	14.33	21.38	-46.0	-47.5	19.4	0.00e+00	0	44	0	392167424	63	4327
2026-01-25 03:08:31.62	13.59	21.77	-46.6	-48.3	18.6	0.00e+00	0	44	0	400556032	63	4728
2026-01-25 03:08:35.65	12.83	22.18	-46.0	-47.6	19.3	0.00e+00	0	44	0	407896064	63	4355
2026-01-25 03:08:39.69	12.05	22.58	-46.2	-47.7	19.2	0.00e+00	0	44	0	415236096	63	4440
2026-01-25 03:08:43.73	11.25	22.98	-45.5	-46.9	20.0	0.00e+00	0	44	0	422576128	62	4255
2026-01-25 03:08:47.76	10.42	23.38	-46.0	-47.6	19.4	0.00e+00	0	44	0	429916160	62	4603
2026-01-25 03:08:51.80	9.58	23.78	-45.4	-46.7	20.2	0.00e+00	0	44	0	438304768	62	4177
2026-01-25 03:08:55.83	8.71	24.18	-46.3	-47.8	19.2	0.00e+00	0	44	0	445644800	63	4482
2026-01-25 03:08:59.86	7.83	24.58	-45.7	-47.1	19.8	0.00e+00	0	44	0	452984832	63	4134
2026-01-25 03:09:03.89	6.91	24.98	-46.0	-47.5	19.4	0.00e+00	0	44	0	460324864	63	4336
2026-01-25 03:09:07.93	5.98	25.38	-46.0	-47.5	19.5	0.00e+00	0	44	0	468713472	63	4337
2026-01-25 03:09:11.96	5.02	25.77	-46.2	-47.8	19.3	0.00e+00	0	44	0	476053504	63	4442
2026-01-25 03:09:15.99	4.04	26.16	-45.6	-46.9	20.0	0.00e+00	0	44	0	483393536	62	4276
2026-01-25 03:09:20.03	3.03	26.54	-44.9	-46.2	20.7	0.00e+00	0	44	0	490733568	61	4160
2026-01-25 03:09:24.06	1.99	26.92	-45.1	-46.4	20.5	0.00e+00	0	44	0	498073600	60	4545
2026-01-25 03:09:28.09	0.94	27.30	-45.2	-46.5	20.4	0.00e+00	0	44	0	506462208	61	4305
2026-01-25 03:09:32.13	359.85	27.67	-47.0	-48.9	18.2	0.00e+00	0	44	0	513802240	64	4778
2026-01-25 03:09:36.16	358.74	28.03	-46.7	-48.4	18.7	0.00e+00	0	44	0	521142272	64	4498
2026-01-25 03:09:40.19	357.61	28.39	-46.0	-47.5	19.5	0.00e+00	0	44	0	528482304	63	4332
2026-01-25 03:09:44.23	356.45	28.73	-46.4	-48.1	19.0	0.00e+00	0	44	0	536870912	63	4600
2026-01-25 03:09:48.26	355.27	29.07	-46.4	-48.1	18.9	0.00e+00	0	44	0	544210944	64	4357
2026-01-25 03:09:52.30	354.06	29.40	-48.8	-51.4	15.9	0.00e+00	0	44	0	551550976	68	5075
2026-01-25 03:09:56.33	352.82	29.71	-48.6	-51.1	16.2	0.00e+00	0	44	0	558891008	68	4879
2026-01-25 03:10:00.36	351.56	30.02	-47.1	-48.9	18.2	0.00e+00	0	44	0	566231040	66	4254
2026-01-25 03:10:04.39	350.28	30.31	-47.4	-49.4	17.6	0.00e+00	0	44	0	573571072	65	4782
2026-01-25 03:10:08.43	348.98	30.59	-46.3	-47.9	19.1	0.00e+00	0	44	0	581959680	64	4281
2026-01-25 03:10:12.46	347.65	30.85	-47.1	-49.1	17.9	0.00e+00	0	44	0	589299712	65	4605
2026-01-25 03:10:16.49	346.30	31.10	-46.9	-48.7	18.4	0.00e+00	0	44	0	596639744	64	4673
2026-01-25 03:10:20.53	344.93	31.33	-46.7	-48.4	18.7	0.00e+00	0	44	0	603979776	65	4246
2026-01-25 03:10:24.56	343.54	31.55	-47.6	-49.7	17.5	0.00e+00	0	44	0	612368384	66	4653
2026-01-25 03:10:28.60	342.14	31.74	-46.0	-47.5	19.7	0.00e+00	0	44	0	619708416	63	4317
2026-01-25 03:10:32.63	340.71	31.92	-46.5	-48.2	19.0	0.00e+00	0	44	0	627048448	64	4400
2026-01-25 03:10:36.67	339.27	32.08	-46.2	-47.8	19.4	0.00e+00	0	44	0	634388480	63	4472
2026-01-25 03:10:40.69	337.83	32.22	-45.5	-46.9	20.2	0.00e+00	0	44	0	642777088	63	4035
2026-01-25 03:10:44.72	336.37	32.34	-47.5	-49.5	17.8	0.00e+00	0	44	0	650117120	65	4859
2026-01-25 03:10:48.76	334.89	32.44	-46.6	-48.2	19.0	0.00e+00	0	44	0	657457152	65	4168
2026-01-25 03:10:52.79	333.41	32.51	-47.4	-49.3	17.9	0.00e+00	0	45	0	664797184	65	4743
2026-01-25 03:10:56.83	331.92	32.57	-45.5	-46.8	20.4	0.00e+00	0	45	0	672137216	63	3984
2026-01-25 03:11:00.86	330.43	32.60	-47.0	-48.7	18.6	0.00e+00	0	44	0	679477248	64	4676
2026-01-25 03:11:04.89	328.94	32.61	-47.9	-49.9	17.4	0.00e+00	0	44	0	687865856	66	4796
2026-01-25 03:11:08.92	327.45	32.60	-47.5	-49.5	17.6	0.00e+00	0	44	0	695205888	67	4310
2026-01-25 03:11:12.95	325.96	32.57	-46.0	-47.4	19.8	0.00e+00	0	44	0	702545920	63	4286
2026-01-25 03:11:16.99	324.47	32.51	-46.5	-48.1	19.1	0.00e+00	0	44	0	709885952	64	4341
2026-01-25 03:11:21.02	322.99	32.43	-46.9	-48.6	18.7	0.00e+00	0	44	0	718274560	65	4370
2026-01-25 03:11:25.05	321.52	32.34	-47.3	-49.2	18.1	0.00e+00	0	44	0	725614592	66	4400
2026-01-25 03:11:29.08	320.06	32.22	-46.3	-47.8	19.4	0.00e+00	0	44	0	732954624	64	4239
2026-01-25 03:11:33.11	318.61	32.08	-46.9	-48.7	18.5	0.00e+00	0	44	0	740294656	64	4669
2026-01-25 03:11:37.14	317.17	31.92	-46.2	-47.7	19.4	0.00e+00	0	44	0	747634688	64	4168
2026-01-25 03:11:41.17	315.75	31.74	-46.7	-48.4	18.8	0.00e+00	0	44	0	756023296	63	4771
2026-01-25 03:11:45.21	314.34	31.54	-46.4	-48.0	19.2	0.00e+00	0	44	0	763363328	64	4293
2026-01-25 03:11:49.24	312.95	31.33	-47.0	-48.8	18.5	0.00e+00	0	44	0	770703360	64	4746
2026-01-25 03:11:53.27	311.58	31.09	-46.4	-48.0	19.1	0.00e+00	0	44	0	778043392	64	4315
2026-01-25 03:11:57.30	310.23	30.85	-46.3	-47.8	19.4	0.00e+00	0	44	0	786432000	63	4469
2026-01-25 03:12:01.33	308.91	30.58	-46.7	-48.4	18.8	0.00e+00	0	44	0	793772032	64	4538
2026-01-25 03:12:05.37	307.60	30.30	-47.6	-49.6	17.7	0.00e+00	0	44	0	801112064	66	4604
2026-01-25 03:12:09.40	306.32	30.01	-47.6	-49.5	17.7	0.00e+00	0	44	0	808452096	66	4591
2026-01-25 03:12:13.43	305.06	29.71	-47.0	-48.8	18.4	0.00e+00	0	44	0	815792128	65	4456
2026-01-25 03:12:17.46	303.82	29.39	-47.6	-49.6	17.5	0.00e+00	0	44	0	823132160	65	4922
2026-01-25 03:12:21.50	302.61	29.06	-46.3	-47.9	19.2	0.00e+00	0	44	0	831520768	64	4265
2026-01-25 03:12:25.50	301.44	28.73	-44.9	-46.2	20.8	0.00e+00	0	44	0	838860800	61	4159
2026-01-25 03:12:29.53	300.28	28.38	-45.3	-46.6	20.4	0.00e+00	0	44	0	846200832	61	4390
2026-01-25 03:12:33.55	299.14	28.03	-46.6	-48.3	18.8	0.00e+00	0	45	0	853540864	64	4445
2026-01-25 03:12:37.57	298.04	27.66	-46.6	-48.3	18.9	0.00e+00	0	44	0	860880896	64	4476
2026-01-25 03:12:41.59	296.96	27.30	-47.9	-50.0	17.2	0.00e+00	0	45	0	869269504	66	4842
2026-01-25 03:12:45.61	295.90	26.92	-46.2	-47.8	19.3	0.00e+00	0	44	0	876609536	64	4203
2026-01-25 03:12:49.65	294.86	26.54	-45.9	-47.3	19.8	0.00e+00	0	44	0	883949568	63	4238
2026-01-25 03:12:53.68	293.86	26.15	-44.8	-45.9	21.1	0.00e+00	0	44	0	891289600	61	4050
2026-01-25 03:12:57.72	292.87	25.76	-45.1	-46.4	20.7	0.00e+00	0	45	0	899678208	61	4279
2026-01-25 03:13:01.75	291.91	25.37	-45.8	-47.3	19.9	0.00e+00	0	45	0	907018240	62	4467
2026-01-25 03:13:05.78	290.97	24.97	-45.5	-46.9	20.2	0.00e+00	0	44	0	914358272	62	4285
2026-01-25 03:13:09.82	290.06	24.58	-45.4	-46.7	20.4	0.00e+00	0	45	0	921698304	62	4188
2026-01-25 03:13:13.85	289.17	24.18	-45.0	-46.3	20.7	0.00e+00	0	45	0	929038336	61	4235
2026-01-25 03:13:17.88	288.30	23.77	-43.8	-44.8	22.2	0.00e+00	0	45	0	936378368	59	3994
2026-01-25 03:13:21.91	287.46	23.37	-44.5	-45.7	21.5	0.00e+00	0	45	0	944766976	59	4422
2026-01-25 03:13:25.94	286.63	22.97	-44.7	-45.9	21.0	0.00e+00	0	44	0	952107008	60	4275
2026-01-25 03:13:29.98	285.83	22.57	-44.5	-45.7	21.2	0.00e+00	0	45	0	959447040	60	4178
2026-01-25 03:13:34.01	285.05	22.17	-44.8	-46.1	20.9	0.00e+00	0	44	0	966787072	60	4342
2026-01-25 03:13:38.05	284.29	21.76	-44.9	-46.2	20.7	0.00e+00	0	45	0	975175680	60	4411
2026-01-25 03:13:42.08	283.54	21.36	-44.1	-45.2	21.6	0.00e+00	0	44	0	982515712	60	3939
2026-01-25 03:13:46.11	282.82	20.96	-44.3	-45.5	21.0	0.00e+00	0	44	0	989855744	60	4069
2026-01-25 03:13:50.15	282.12	20.57	-44.9	-46.2	20.7	0.00e+00	0	45	0	997195776	60	4426
2026-01-25 03:13:54.18	281.43	20.17	-44.4	-45.5	21.4	0.00e+00	0	44	0	1004535808	60	4077
2026-01-25 03:13:58.21	280.76	19.78	-44.3	-45.5	21.6	0.00e+00	0	45	0	1012924416	59	4301
2026-01-25 03:14:02.25	280.11	19.39	-45.1	-46.4	20.4	0.00e+00	0	44	0	1020264448	61	4266
2026-01-25 03:14:06.28	279.48	19.00	-46.2	-47.8	19.2	0.00e+00	0	45	0	1027604480	63	4463
2026-01-25 03:14:10.31	278.86	18.61	-45.2	-46.5	20.3	0.00e+00	0	45	0	1034944512	62	4087
2026-01-25 03:14:14.34	278.26	18.23	-45.2	-46.5	20.3	0.00e+00	0	44	0	1042284544	61	4319
2026-01-25 03:14:18.37	277.67	17.84	-45.9	-47.4	19.5	0.00e+00	0	45	0	1050673152	62	4520
2026-01-25 03:14:22.41	277.10	17.47	-45.3	-46.7	20.2	0.00e+00	0	45	0	1058013184	62	4149
2026-01-25 03:14:26.44	276.54	17.09	-44.7	-46.0	20.7	0.00e+00	0	44	0	1065353216	61	4083
2026-01-25 03:14:30.48	276.00	16.72	-44.8	-46.1	20.7	0.00e+00	0	44	0	1072693248	61	4123
2026-01-25 03:14:34.51	275.47	16.35	-45.2	-46.5	20.3	0.00e+00	0	45	0	1081081856	61	4300
2026-01-25 03:14:38.54	274.95	15.98	-44.9	-46.2	20.6	0.00e+00	0	45	0	1088421888	61	4156
2026-01-25 03:14:42.58	274.44	15.62	-44.6	-45.8	20.9	0.00e+00	0	44	0	1095761920	60	4237
2026-01-25 03:14:46.61	273.95	15.26	-45.8	-47.2	19.6	0.00e+00	0	45	0	1103101952	62	4424
2026-01-25 03:14:50.65	273.47	14.90	-47.2	-49.2	17.7	0.00e+00	0	45	0	1110441984	65	4653
2026-01-25 03:14:54.68	273.00	14.54	-45.7	-47.1	19.7	0.00e+00	0	45	0	1118830592	63	4116
2026-01-25 03:14:58.71	272.55	14.19	-44.6	-45.8	20.9	0.00e+00	0	45	0	1126170624	61	3982
2026-01-25 03:15:02.74	272.10	13.85	-45.2	-46.6	20.1	0.00e+00	0	45	0	1133510656	61	4359
2026-01-25 03:15:06.77	271.66	13.50	-46.8	-48.6	18.3	0.00e+00	0	45	0	1140850688	64	4617
2026-01-25 03:15:10.81	271.24	13.16	-47.1	-48.9	17.9	0.00e+00	0	45	0	1149239296	65	4533
2026-01-25 03:15:14.84	270.82	12.82	-47.3	-49.2	17.6	0.00e+00	0	45	0	1156579328	65	4661
2026-01-25 03:15:18.87	270.42	12.49	-46.9	-48.6	18.1	0.00e+00	0	45	0	1163919360	65	4378
2026-01-25 03:15:22.90	270.02	12.15	-46.8	-48.4	18.3	0.00e+00	0	45	0	1171259392	65	4291
2026-01-25 03:15:26.93	269.63	11.83	-47.0	-48.7	18.0	0.00e+00	0	45	0	1178599424	65	4435
2026-01-25 03:15:30.97	269.25	11.50	-47.1	-48.9	17.8	0.00e+00	0	45	0	1185939456	65	4498
2026-01-25 03:15:35.00	268.88	11.18	-46.7	-48.4	18.2	0.00e+00	0	45	0	1194328064	65	4258
2026-01-25 03:15:39.03	268.52	10.86	-46.4	-48.0	18.5	0.00e+00	0	45	0	1201668096	64	4319
2026-01-25 03:15:43.07	268.17	10.54	-46.6	-48.4	18.1	0.00e+00	0	45	0	1209008128	64	4495
2026-01-25 03:15:47.10	267.82	10.23	-47.4	-49.5	16.7	0.00e+00	0	45	0	1216348160	65	4835
2026-01-25 03:15:51.13	267.48	9.92	-48.2	-50.9	15.2	0.00e+00	0	45	0	1224736768	67	5061
2026-01-25 03:15:55.16	267.15	9.61	-49.0	-52.0	14.4	0.00e+00	0	45	0	1232076800	68	5421
2026-01-25 03:15:59.20	266.83	9.30	-48.8	-51.6	14.9	7.00e-07	0	45	0	1239416832	68	5211
2026-01-25 03:16:03.23	266.51	9.00	-48.3	-50.6	16.0	0.00e+00	0	45	0	1246756864	68	4648
2026-01-25 03:16:07.26	266.20	8.70	-47.7	-49.9	16.7	0.00e+00	0	45	0	1254096896	67	4515
2026-01-25 03:16:11.29	265.89	8.40	-47.3	-49.3	17.3	0.00e+00	0	45	0	1262485504	66	4449
2026-01-25 03:16:15.33	265.60	8.11	-47.3	-49.2	17.3	0.00e+00	0	45	0	1269825536	66	4429
2026-01-25 03:16:19.36	265.30	7.82	-46.9	-48.7	17.7	0.00e+00	0	45	0	1277165568	65	4432
2026-01-25 03:16:23.39	265.02	7.53	-47.1	-49.0	17.4	0.00e+00	0	45	0	1284505600	65	4585
2026-01-25 03:16:27.40	264.74	7.25	-47.7	-49.8	16.6	0.00e+00	0	45	0	1291845632	66	4758
2026-01-25 03:16:31.42	264.47	6.96	-48.1	-50.4	16.1	0.00e+00	0	45	0	1300234240	67	4782
2026-01-25 03:16:35.45	264.20	6.68	-48.5	-51.1	15.4	0.00e+00	0	45	0	1307574272	67	5162
2026-01-25 03:16:39.47	263.94	6.40	-48.7	-51.4	15.0	0.00e+00	0	45	0	1314914304	68	5090
2026-01-25 03:16:43.51	263.68	6.13	-48.6	-51.2	15.2	0.00e+00	0	45	0	1322254336	68	4980
2026-01-25 03:16:47.53	263.43	5.85	-48.3	-50.8	15.7	0.00e+00	0	45	0	1329594368	68	4725
2026-01-25 03:16:51.56	263.18	5.58	-48.3	-50.8	15.6	0.00e+00	0	45	0	1337982976	68	4728
2026-01-25 03:16:55.59	262.94	5.31	-48.3	-50.8	15.5	0.00e+00	0	45	0	1345323008	68	4757
2026-01-25 03:16:59.62	262.70	5.05	-48.7	-51.5	14.8	7.00e-07	0	45	0	1352663040	68	5121
2026-01-25 03:17:03.65	262.46	4.78	-53.3	-68.2	3.8	1.49e+00	0	45	104	1354760192	77	21014
2026-01-25 03:17:07.69	262.23	4.52	-53.8	-68.8	3.8	1.49e+00	0	45	104	1354760192	78	21027
2026-01-25 03:17:11.72	262.01	4.26	-54.1	-69.1	3.8	1.49e+00	0	45	104	1354760192	78	21882
2026-01-25 03:17:15.75	261.79	4.00	-54.3	-69.2	3.8	1.49e+00	0	45	104	1354760192	79	20963
2026-01-25 03:17:19.79	261.57	3.74	-54.2	-69.2	3.8	1.49e+00	0	45	104	1354760192	79	20831
2026-01-25 03:17:23.82	261.36	3.49	-54.0	-69.0	3.8	1.49e+00	0	45	104	1354760192	79	20374
2026-01-25 03:17:27.84	261.15	3.23	-54.0	-68.9	3.8	1.49e+00	0	45	104	1354760192	79	20243
2026-01-25 03:17:31.86	260.94	2.98	-53.9	-68.9	3.8	1.49e+00	0	45	104	1354760192	79	20086
2026-01-25 03:17:35.87	260.74	2.74	-53.9	-68.8	3.8	1.49e+00	0	45	104	1354760192	79	20056
2026-01-25 03:17:39.90	260.55	2.49	-53.8	-68.8	3.8	1.49e+00	0	45	104	1354760192	79	19960
2026-01-25 03:17:43.90	260.35	2.25	-53.8	-68.8	3.8	1.49e+00	0	45	104	1354760192	79	19937
2026-01-25 03:17:47.92	260.16	2.00	-53.8	-68.8	3.8	1.49e+00	0	45	104	1354760192	79	19926

#Closed at: 2026-01-25 03:17:48
#Recorded file [1354 MB]: D:/lorett/data/31041_260125_060421.dat