passes_logs/2026/01/08/XPeterburg/XPeterburg__20260108_191600_FENGYUN_3F_rec.log

#Pass ID: 20260108_191600_FENGYUN 3F
#Satellite: FENGYUN 3F
#Configuration: FENGYUN 3F
#Start time: 2026-01-08 19:15:54

#Version: 1.5.20200625
#Station: XPeterburg
#Location: 30.318091 lon 59.932769 lat
#TLE: 1 57490U 23111A   25359.20461847  .00000075  00000+0  55793-4 0  9993
#TLE: 2 57490  98.7067  67.2960 0000833 117.6209 242.5052 14.19896763124173

#Time	Az	El	Level	Level2	SNR	BER	Gain	Gain2
2026-01-08 19:15:54.15	176.36	67.64	-38.2	-40.9	3.3	8388324	93	6660
2026-01-08 19:15:54.55	176.50	67.82	-38.2	-41.7	3.5	8448646	93	7341
2026-01-08 19:15:54.96	176.63	68.00	-38.2	-40.9	3.3	8407333	93	6691
2026-01-08 19:15:55.36	176.77	68.18	-38.2	-42.1	3.6	8440921	93	7648
2026-01-08 19:15:55.76	176.91	68.35	-38.2	-40.9	3.3	8419715	93	6652
2026-01-08 19:15:56.16	177.05	68.53	-38.2	-42.3	3.6	8415355	93	7870
2026-01-08 19:15:56.56	177.19	68.71	-38.3	-40.5	3.3	8415332	94	6358
2026-01-08 19:15:56.97	177.34	68.89	-38.2	-41.6	3.6	8357906	94	7287
2026-01-08 19:15:57.37	177.49	69.07	-38.2	-40.2	3.3	8447067	94	6222
2026-01-08 19:15:57.77	177.64	69.24	-38.1	-41.6	3.6	8388175	94	7349
2026-01-08 19:15:58.17	177.80	69.42	-38.1	-40.4	3.3	8433288	94	6391
2026-01-08 19:15:58.58	177.96	69.60	-38.1	-41.5	3.6	8394802	94	7280
2026-01-08 19:15:58.98	178.12	69.78	-38.2	-40.6	3.4	8430267	94	6529
2026-01-08 19:15:59.38	178.28	69.96	-38.2	-40.2	3.3	8399322	94	6221
2026-01-08 19:15:59.78	178.45	70.14	-38.1	-40.7	3.4	8441070	94	6625
2026-01-08 19:16:00.18	178.62	70.32	-38.1	-40.1	3.3	8392330	94	6173
2026-01-08 19:16:00.59	178.79	70.50	-38.1	-41.0	3.5	8442913	94	6849
2026-01-08 19:16:00.99	178.97	70.68	-38.1	-40.1	3.3	8411579	94	6209
2026-01-08 19:16:01.39	179.15	70.86	-38.1	-41.3	3.6	8430633	94	7094
2026-01-08 19:16:01.79	179.33	71.04	-38.1	-40.2	3.3	8409576	94	6250
2026-01-08 19:16:02.19	179.52	71.22	-38.1	-41.6	3.6	8439857	94	7342
2026-01-08 19:16:02.60	179.72	71.40	-38.1	-40.2	3.3	8403224	94	6264
2026-01-08 19:16:03.00	179.91	71.58	-38.1	-41.6	3.6	8405662	94	7376
2026-01-08 19:16:03.40	180.11	71.76	-38.1	-40.1	3.3	8421169	94	6179
2026-01-08 19:16:03.80	180.31	71.94	-38.1	-41.6	3.6	8407012	94	7353
2026-01-08 19:16:04.20	180.52	72.12	-38.1	-40.2	3.3	8420379	94	6212
2026-01-08 19:16:04.61	180.74	72.31	-38.1	-41.6	3.6	8394401	94	7338
2026-01-08 19:16:05.01	180.95	72.49	-38.1	-40.2	3.3	8431892	94	6234
2026-01-08 19:16:05.41	181.18	72.67	-38.1	-41.6	3.6	8376995	94	7290
2026-01-08 19:16:05.81	181.40	72.85	-38.1	-40.3	3.4	8432842	94	6336
2026-01-08 19:16:06.22	181.64	73.03	-38.1	-41.6	3.6	8396930	94	7366
2026-01-08 19:16:06.62	181.88	73.21	-38.1	-40.5	3.4	8447685	94	6476
2026-01-08 19:16:07.02	182.12	73.39	-38.1	-40.2	3.3	8390727	94	6237
2026-01-08 19:16:07.42	182.36	73.58	-38.1	-40.8	3.4	8444229	94	6670
2026-01-08 19:16:07.82	182.62	73.76	-38.1	-40.2	3.3	8393417	94	6218
2026-01-08 19:16:08.23	182.88	73.94	-38.1	-41.1	3.5	8419406	94	6889
2026-01-08 19:16:08.63	183.15	74.12	-38.1	-40.1	3.3	8411865	94	6199
2026-01-08 19:16:09.03	183.42	74.30	-38.1	-41.4	3.6	8431068	94	7193
2026-01-08 19:16:09.44	183.70	74.49	-38.1	-40.1	3.3	8390659	94	6202
2026-01-08 19:16:09.84	183.99	74.67	-38.1	-41.6	3.6	8408740	94	7344
2026-01-08 19:16:10.24	184.28	74.85	-38.2	-40.1	3.3	8426937	94	6169
2026-01-08 19:16:10.64	184.58	75.02	-38.1	-41.6	3.6	8419017	94	7305
2026-01-08 19:16:11.04	184.89	75.20	-38.1	-40.1	3.3	8408569	94	6188
2026-01-08 19:16:11.45	185.21	75.39	-38.2	-41.6	3.6	8428836	94	7321
2026-01-08 19:16:11.85	185.53	75.57	-38.2	-40.2	3.3	8428962	94	6201
2026-01-08 19:16:12.25	185.86	75.75	-38.2	-41.6	3.6	8384078	94	7295
2026-01-08 19:16:12.65	186.20	75.93	-38.1	-40.2	3.3	8425312	94	6219
2026-01-08 19:16:13.06	186.56	76.11	-38.2	-41.6	3.6	8408821	94	7313
2026-01-08 19:16:13.46	186.92	76.29	-38.1	-40.4	3.4	8448566	94	6373
2026-01-08 19:16:13.86	187.29	76.46	-38.1	-41.6	3.6	8397743	94	7308
2026-01-08 19:16:14.26	187.67	76.64	-38.2	-40.5	3.4	8436733	94	6472
2026-01-08 19:16:14.66	188.05	76.82	-38.2	-40.2	3.3	8400249	94	6215
2026-01-08 19:16:15.07	188.46	77.00	-38.2	-40.8	3.4	8441745	94	6667
2026-01-08 19:16:15.47	188.88	77.18	-38.2	-40.2	3.3	8387500	94	6205
2026-01-08 19:16:15.87	189.30	77.35	-38.2	-41.0	3.5	8438930	94	6827
2026-01-08 19:16:16.27	189.73	77.53	-38.2	-40.1	3.3	8387374	94	6170
2026-01-08 19:16:16.68	190.19	77.71	-38.2	-41.4	3.6	8434490	94	7152
2026-01-08 19:16:17.08	190.65	77.88	-38.2	-40.2	3.3	8406291	94	6197
2026-01-08 19:16:17.48	191.13	78.06	-38.2	-41.6	3.6	8410022	94	7308
2026-01-08 19:16:17.88	191.62	78.23	-38.1	-40.1	3.3	8411693	94	6160
2026-01-08 19:16:18.28	192.12	78.40	-38.4	-41.6	3.6	8370208	95	7097
2026-01-08 19:16:18.66	192.61	78.56	-38.4	-40.2	3.3	8440498	95	6062
2026-01-08 19:16:19.06	193.15	78.74	-38.4	-41.6	3.6	8387363	95	7121
2026-01-08 19:16:19.46	193.70	78.91	-38.4	-40.3	3.3	8420780	95	6159
2026-01-08 19:16:19.86	194.27	79.07	-38.4	-41.5	3.6	8397720	95	7089
2026-01-08 19:16:20.27	194.87	79.25	-38.4	-40.6	3.4	8448497	95	6337
2026-01-08 19:16:20.67	195.48	79.41	-38.4	-41.5	3.6	8391517	95	7079
2026-01-08 19:16:21.07	196.10	79.58	-38.5	-40.6	3.4	8437694	95	6288
2026-01-08 19:16:21.47	196.75	79.75	-38.6	-40.4	3.3	8391632	95	6075
2026-01-08 19:16:21.87	197.42	79.91	-38.5	-41.0	3.5	8382968	95	6575
2026-01-08 19:16:22.28	198.13	80.08	-38.5	-40.3	3.3	8407505	95	6033
2026-01-08 19:16:22.68	198.84	80.24	-38.5	-41.4	3.5	8375644	95	6815
2026-01-08 19:16:23.08	199.58	80.40	-38.5	-40.3	3.3	8401210	95	6015
2026-01-08 19:16:23.48	200.34	80.56	-38.5	-41.7	3.6	8433723	95	7135
2026-01-08 19:16:23.89	201.16	80.72	-38.5	-40.1	3.3	8377613	95	5918
2026-01-08 19:16:24.29	201.97	80.87	-38.5	-41.7	3.6	8335853	95	7124
2026-01-08 19:16:24.69	202.82	81.03	-38.5	-40.3	3.3	8423892	95	6040
2026-01-08 19:16:25.09	203.70	81.18	-38.5	-41.7	3.6	8416454	95	7103
2026-01-08 19:16:25.49	204.60	81.33	-38.5	-40.3	3.3	8389400	95	6085
2026-01-08 19:16:25.89	205.54	81.47	-38.5	-41.7	3.6	8386425	95	7103
2026-01-08 19:16:26.30	206.54	81.62	-38.5	-40.6	3.4	8433780	95	6246
2026-01-08 19:16:26.70	207.55	81.77	-38.5	-41.7	3.6	8396827	95	7098
2026-01-08 19:16:27.10	208.59	81.91	-38.5	-40.7	3.4	8371822	95	6322
2026-01-08 19:16:27.50	209.67	82.04	-38.5	-40.2	3.3	8401622	95	5985
2026-01-08 19:16:27.91	210.82	82.18	-38.5	-41.0	3.4	8441974	95	6577
2026-01-08 19:16:28.31	211.97	82.31	-38.5	-40.3	3.3	8394161	95	6014
2026-01-08 19:16:28.71	213.17	82.44	-38.5	-41.3	3.5	8441253	95	6753
2026-01-08 19:16:29.11	214.41	82.57	-38.5	-40.3	3.3	8411739	95	6063
2026-01-08 19:16:29.51	215.69	82.69	-38.5	-41.6	3.6	8441001	95	7014
2026-01-08 19:16:29.92	217.05	82.81	-38.5	-40.3	3.3	8399963	95	6063
2026-01-08 19:16:30.32	218.42	82.92	-38.5	-41.8	3.6	8446975	95	7168
2026-01-08 19:16:30.72	219.83	83.03	-38.5	-40.4	3.3	8399654	95	6096
2026-01-08 19:16:31.12	221.29	83.14	-38.6	-41.8	3.6	8404655	95	7144
2026-01-08 19:16:31.52	222.80	83.24	-38.5	-40.3	3.3	8416683	95	6025
2026-01-08 19:16:31.93	224.38	83.34	-38.5	-41.9	3.6	8415904	95	7239
2026-01-08 19:16:32.33	225.98	83.43	-38.6	-40.6	3.3	8420711	95	6222
2026-01-08 19:16:32.73	227.62	83.52	-38.5	-41.8	3.6	8384513	95	7215
2026-01-08 19:16:33.13	229.30	83.60	-38.5	-40.5	3.3	8432041	95	6243
2026-01-08 19:16:33.54	231.06	83.67	-38.5	-41.8	3.6	8388668	95	7188
2026-01-08 19:16:33.94	232.83	83.74	-38.5	-40.5	3.4	8433952	95	6228
2026-01-08 19:16:34.34	234.63	83.81	-38.5	-41.7	3.6	8394973	95	7187
2026-01-08 19:16:34.74	236.46	83.86	-38.5	-40.7	3.4	8447902	95	6393
2026-01-08 19:16:35.15	238.38	83.92	-38.5	-40.3	3.3	8392776	95	6065
2026-01-08 19:16:35.55	240.28	83.96	-38.5	-41.0	3.4	8442935	95	6568
2026-01-08 19:16:35.95	242.21	84.00	-38.5	-40.4	3.3	8375827	95	6126
2026-01-08 19:16:36.35	244.16	84.03	-38.5	-41.2	3.5	8423641	95	6725
2026-01-08 19:16:36.76	246.17	84.05	-38.5	-40.3	3.3	8410263	95	6083
2026-01-08 19:16:37.16	248.15	84.07	-38.5	-41.9	3.6	8442020	95	7215
2026-01-08 19:16:37.56	250.14	84.08	-38.6	-40.5	3.3	8393211	95	6157
2026-01-08 19:16:37.96	252.13	84.08	-38.5	-41.6	3.6	8387546	95	7079
2026-01-08 19:16:38.36	254.13	84.08	-38.5	-40.2	3.3	8431549	95	6022
2026-01-08 19:16:38.77	256.16	84.06	-38.4	-41.7	3.6	8403453	95	7170
2026-01-08 19:16:39.17	258.14	84.05	-38.5	-40.3	3.3	8412631	95	6087
2026-01-08 19:16:39.57	260.10	84.02	-38.5	-41.7	3.6	8422817	95	7163
2026-01-08 19:16:39.97	262.04	83.99	-38.5	-40.3	3.3	8434638	95	6089
2026-01-08 19:16:40.37	263.96	83.95	-38.4	-41.7	3.6	8390224	95	7142
2026-01-08 19:16:40.78	265.89	83.90	-38.5	-40.5	3.4	8432338	95	6212
2026-01-08 19:16:41.18	267.75	83.85	-38.4	-41.6	3.6	8391574	95	7049
2026-01-08 19:16:41.58	269.58	83.79	-38.5	-40.6	3.4	8445980	95	6284
2026-01-08 19:16:41.98	271.37	83.72	-38.5	-40.2	3.3	8396770	95	6018
2026-01-08 19:16:42.39	273.16	83.65	-38.5	-40.8	3.4	8434913	95	6463
2026-01-08 19:16:42.79	274.87	83.57	-38.5	-40.2	3.3	8402309	95	6009
2026-01-08 19:16:43.19	276.53	83.49	-38.5	-41.4	3.5	8409393	95	6867
2026-01-08 19:16:43.59	278.16	83.40	-38.5	-40.5	3.3	8414108	95	6208
2026-01-08 19:16:43.99	279.74	83.31	-38.5	-41.7	3.6	8377830	95	7131
2026-01-08 19:16:44.40	281.31	83.21	-38.4	-40.3	3.3	8390544	95	6062
2026-01-08 19:16:44.80	282.80	83.10	-38.4	-41.7	3.6	8448669	95	7184
2026-01-08 19:16:45.20	284.24	83.00	-38.4	-40.3	3.3	8410137	95	6076
2026-01-08 19:16:45.60	285.64	82.89	-38.5	-41.7	3.6	8419647	95	7172
2026-01-08 19:16:46.01	287.02	82.77	-38.4	-40.2	3.3	8417804	95	6053
2026-01-08 19:16:46.41	288.33	82.65	-38.4	-41.7	3.6	8405055	95	7145
2026-01-08 19:16:46.81	289.60	82.53	-38.4	-40.3	3.3	8455799	95	6106
2026-01-08 19:16:47.21	290.83	82.40	-38.4	-41.6	3.6	8397777	95	7129
2026-01-08 19:16:47.62	292.04	82.27	-38.4	-40.5	3.3	8421615	95	6240
2026-01-08 19:16:48.02	293.18	82.13	-38.4	-41.7	3.6	8394733	95	7196
2026-01-08 19:16:48.42	294.29	82.00	-38.5	-40.7	3.4	8381824	95	6382
2026-01-08 19:16:48.82	295.35	81.86	-38.4	-41.7	3.6	8396598	95	7150
2026-01-08 19:16:49.22	296.38	81.72	-38.4	-40.7	3.4	8446369	95	6358
2026-01-08 19:16:49.63	297.40	81.57	-38.5	-40.3	3.3	8392307	95	6041
2026-01-08 19:16:50.03	298.36	81.43	-38.4	-40.8	3.4	8437568	95	6441
2026-01-08 19:16:50.43	299.29	81.28	-38.4	-40.2	3.3	8402046	95	6035
2026-01-08 19:16:50.83	300.19	81.13	-38.6	-41.6	3.5	8433345	95	6964
2026-01-08 19:16:51.23	301.06	80.98	-38.6	-40.6	3.3	8399940	95	6192
2026-01-08 19:16:51.64	301.91	80.82	-38.4	-41.7	3.6	8435863	95	7134
2026-01-08 19:16:52.04	302.72	80.66	-38.5	-40.2	3.3	8423366	95	6027
2026-01-08 19:16:52.44	303.50	80.51	-38.5	-41.7	3.6	8414554	95	7136
2026-01-08 19:16:52.84	304.26	80.35	-38.4	-40.3	3.3	8406326	95	6080
2026-01-08 19:16:53.25	305.01	80.18	-38.5	-41.7	3.6	8428012	95	7127
2026-01-08 19:16:53.65	305.71	80.02	-38.5	-40.2	3.3	8435188	95	6024
2026-01-08 19:16:54.05	306.39	79.86	-38.4	-41.7	3.6	8388599	95	7159
2026-01-08 19:16:54.45	307.06	79.69	-38.5	-40.3	3.3	8414737	95	6119
2026-01-08 19:16:54.86	307.71	79.52	-38.4	-41.6	3.6	8401840	95	7106
2026-01-08 19:16:55.26	308.33	79.36	-38.4	-40.3	3.4	8368652	95	6168
2026-01-08 19:16:55.66	308.93	79.19	-38.4	-41.7	3.6	8397491	95	7179
2026-01-08 19:16:56.06	309.51	79.02	-38.4	-40.6	3.4	8432304	95	6336
2026-01-08 19:16:56.47	310.09	78.85	-38.4	-40.2	3.3	8390522	95	6054
2026-01-08 19:16:56.87	310.63	78.68	-38.4	-40.6	3.4	8439273	95	6320
2026-01-08 19:16:57.27	311.16	78.51	-38.4	-40.2	3.3	8384960	95	6000
2026-01-08 19:16:57.67	311.67	78.34	-38.4	-40.8	3.4	8429878	95	6483
2026-01-08 19:16:58.07	312.17	78.16	-38.4	-40.2	3.3	8390819	95	6021
2026-01-08 19:16:58.48	312.67	77.99	-38.4	-41.1	3.5	8451267	95	6705
2026-01-08 19:16:58.88	313.14	77.81	-38.4	-40.3	3.3	8396198	95	6131
2026-01-08 19:16:59.28	313.59	77.64	-38.4	-41.4	3.6	8406497	95	6977
2026-01-08 19:16:59.68	314.03	77.46	-38.4	-40.3	3.3	8407539	95	6100
2026-01-08 19:17:00.09	314.47	77.28	-38.4	-41.7	3.6	8431297	95	7165
2026-01-08 19:17:00.49	314.89	77.11	-38.4	-40.2	3.3	8405502	95	6070
2026-01-08 19:17:00.89	315.30	76.93	-38.4	-41.6	3.6	8388256	95	7145
2026-01-08 19:17:01.29	315.69	76.75	-38.4	-40.2	3.3	8418079	95	6027
2026-01-08 19:17:01.69	316.08	76.58	-38.4	-41.7	3.6	8395088	95	7143
2026-01-08 19:17:02.10	316.46	76.39	-38.4	-40.3	3.3	8413261	95	6117
2026-01-08 19:17:02.50	316.82	76.22	-38.4	-41.7	3.6	8391780	95	7171
2026-01-08 19:17:02.90	317.18	76.04	-38.4	-40.4	3.3	8430942	95	6186
2026-01-08 19:17:03.30	317.52	75.86	-38.4	-41.6	3.6	8395248	95	7101
2026-01-08 19:17:03.70	317.86	75.68	-38.4	-40.6	3.4	8445030	95	6321
2026-01-08 19:17:04.11	318.19	75.50	-38.4	-40.2	3.3	8383426	95	6041
2026-01-08 19:17:04.51	318.51	75.32	-38.5	-40.8	3.4	8441230	95	6472
2026-01-08 19:17:04.91	318.82	75.14	-38.4	-40.2	3.3	8396381	95	6039
2026-01-08 19:17:05.31	319.13	74.96	-38.4	-41.1	3.5	8461383	95	6719
2026-01-08 19:17:05.71	319.42	74.78	-38.4	-40.2	3.3	8388565	95	6055
2026-01-08 19:17:06.12	319.72	74.60	-38.4	-41.4	3.6	8412631	95	6957
2026-01-08 19:17:06.52	320.00	74.42	-38.4	-40.2	3.3	8410251	95	6028
2026-01-08 19:17:06.92	320.28	74.24	-38.3	-41.4	3.6	8420780	95	7008
2026-01-08 19:17:07.32	320.55	74.06	-38.4	-40.0	3.3	8397811	95	5952
2026-01-08 19:17:07.72	320.81	73.88	-38.4	-41.6	3.6	8383918	95	7084
2026-01-08 19:17:08.12	321.07	73.70	-38.4	-40.2	3.3	8427543	95	6002
2026-01-08 19:17:08.53	321.32	73.51	-38.5	-41.6	3.6	8401359	95	7062
2026-01-08 19:17:08.93	321.57	73.33	-38.4	-40.1	3.3	8429168	95	5989
2026-01-08 19:17:09.33	321.81	73.15	-38.4	-41.6	3.6	8410606	95	7129
2026-01-08 19:17:09.73	322.04	72.97	-38.4	-40.3	3.3	8444068	95	6092
2026-01-08 19:17:10.14	322.28	72.79	-38.4	-41.6	3.6	8395339	95	7129
2026-01-08 19:17:10.54	322.50	72.61	-38.4	-40.4	3.4	8423641	95	6195
2026-01-08 19:17:10.94	322.72	72.43	-38.4	-41.6	3.6	8395717	95	7135
2026-01-08 19:17:11.34	322.93	72.25	-38.4	-40.6	3.4	8441814	95	6333
2026-01-08 19:17:11.74	323.14	72.07	-38.4	-40.2	3.3	8402046	95	6049
2026-01-08 19:17:12.15	323.35	71.89	-38.4	-40.8	3.4	8439525	95	6489
2026-01-08 19:17:12.55	323.56	71.71	-38.4	-40.2	3.3	8388519	95	6076
2026-01-08 19:17:12.95	323.75	71.53	-38.4	-41.0	3.5	8447845	95	6657
2026-01-08 19:17:13.35	323.95	71.35	-38.4	-40.2	3.3	8406097	95	6010
2026-01-08 19:17:13.76	324.14	71.16	-38.5	-41.4	3.6	8419132	95	6917
2026-01-08 19:17:14.16	324.33	70.98	-38.4	-40.2	3.3	8396015	95	6048
2026-01-08 19:17:14.56	324.51	70.81	-38.4	-41.6	3.6	8447376	95	7088
2026-01-08 19:17:14.96	324.69	70.63	-38.4	-40.2	3.3	8437259	95	6005
2026-01-08 19:17:15.37	324.87	70.44	-38.4	-41.6	3.6	8392307	95	7096
2026-01-08 19:17:15.77	325.04	70.26	-38.5	-40.4	3.3	8421100	95	6098
2026-01-08 19:17:16.17	325.21	70.09	-38.4	-41.6	3.6	8356269	95	7088

#Closed at: 2026-01-08 19:17:16