passes_logs/2026/01/08/XPeterburg/XPeterburg__20260108_143047_FENGYUN_3E_rec.log

#Pass ID: 20260108_143047_FENGYUN 3E
#Satellite: FENGYUN 3E
#Configuration: FENGYUN 3E
#Start time: 2026-01-08 14:30:41

#Version: 1.5.20200625
#Station: XPeterburg
#Location: 30.318091 lon 59.932769 lat
#TLE: 1 49008U 21062A   25359.14718215  .00000011  00000+0  25812-4 0  9998
#TLE: 2 49008  98.7476 359.5210 0000940 189.9291 170.1866 14.19881103231888

#Time	Az	El	Level	Level2	SNR	BER	Gain	Gain2
2026-01-08 14:30:41.02	136.38	67.48	-37.5	-40.0	3.3	8398532	92	6561
2026-01-08 14:30:41.43	136.19	67.66	-37.5	-40.9	3.5	8437992	92	7295
2026-01-08 14:30:41.83	135.99	67.83	-37.5	-40.0	3.3	8388381	92	6557
2026-01-08 14:30:42.23	135.80	67.99	-37.5	-41.2	3.6	8437957	92	7564
2026-01-08 14:30:42.63	135.60	68.16	-37.5	-40.0	3.3	8418800	92	6565
2026-01-08 14:30:43.04	135.39	68.34	-37.5	-41.4	3.6	8414440	92	7691
2026-01-08 14:30:43.44	135.18	68.50	-37.5	-39.5	3.3	8410057	93	6179
2026-01-08 14:30:43.84	134.97	68.67	-37.5	-40.9	3.6	8356109	93	7284
2026-01-08 14:30:44.24	134.76	68.84	-37.5	-39.5	3.3	8439159	93	6191
2026-01-08 14:30:44.64	134.54	69.01	-37.5	-41.0	3.6	8395030	93	7374
2026-01-08 14:30:45.04	134.32	69.18	-37.5	-39.6	3.3	8419841	93	6275
2026-01-08 14:30:45.45	134.09	69.35	-37.5	-41.0	3.6	8405136	93	7349
2026-01-08 14:30:45.85	133.86	69.52	-37.5	-39.6	3.4	8440704	93	6291
2026-01-08 14:30:46.25	133.63	69.69	-37.5	-40.9	3.6	8397102	93	7262
2026-01-08 14:30:46.65	133.39	69.86	-37.5	-39.8	3.4	8435131	93	6449
2026-01-08 14:30:47.05	133.15	70.03	-37.5	-39.4	3.3	8397090	93	6146
2026-01-08 14:30:47.46	132.89	70.20	-37.5	-40.1	3.4	8433883	93	6625
2026-01-08 14:30:47.86	132.64	70.37	-37.5	-39.4	3.3	8399654	93	6150
2026-01-08 14:30:48.26	132.39	70.54	-37.5	-40.4	3.5	8444183	93	6857
2026-01-08 14:30:48.66	132.13	70.70	-37.5	-39.5	3.3	8391780	93	6194
2026-01-08 14:30:49.06	131.86	70.87	-37.5	-40.7	3.6	8446872	93	7059
2026-01-08 14:30:49.47	131.58	71.04	-37.5	-39.5	3.3	8398406	93	6209
2026-01-08 14:30:49.87	131.31	71.21	-37.5	-40.7	3.6	8416980	93	7137
2026-01-08 14:30:50.27	131.03	71.38	-37.5	-39.5	3.3	8408397	93	6189
2026-01-08 14:30:50.67	130.74	71.55	-37.5	-41.0	3.6	8427337	93	7340
2026-01-08 14:30:51.08	130.44	71.72	-37.5	-39.5	3.3	8385395	93	6194
2026-01-08 14:30:51.48	130.14	71.89	-37.5	-40.9	3.6	8383907	93	7259
2026-01-08 14:30:51.88	129.84	72.05	-37.5	-39.5	3.3	8419281	93	6221
2026-01-08 14:30:52.28	129.53	72.22	-37.5	-40.9	3.6	8414279	93	7298
2026-01-08 14:30:52.68	129.21	72.39	-37.5	-39.6	3.3	8412357	93	6264
2026-01-08 14:30:53.09	128.88	72.56	-37.5	-41.4	3.6	8396484	92	7695
2026-01-08 14:30:53.49	128.55	72.72	-37.5	-40.2	3.4	8451107	92	6738
2026-01-08 14:30:53.89	128.22	72.89	-37.4	-41.2	3.6	8394607	92	7625
2026-01-08 14:30:54.29	127.88	73.06	-37.5	-40.2	3.4	8432281	92	6735
2026-01-08 14:30:54.70	127.52	73.22	-37.4	-39.8	3.3	8394321	92	6456
2026-01-08 14:30:55.10	127.16	73.39	-37.4	-40.5	3.4	8449195	92	6989
2026-01-08 14:30:55.50	126.79	73.55	-37.4	-39.8	3.3	8391288	92	6485
2026-01-08 14:30:55.90	126.42	73.72	-37.5	-40.5	3.5	8383438	93	6956
2026-01-08 14:30:56.30	126.04	73.88	-37.5	-39.5	3.3	8424648	93	6183
2026-01-08 14:30:56.71	125.64	74.05	-37.5	-40.9	3.6	8386116	93	7276
2026-01-08 14:30:57.11	125.24	74.21	-37.5	-39.5	3.3	8415103	93	6205
2026-01-08 14:30:57.51	124.84	74.37	-37.5	-40.9	3.6	8423252	93	7302
2026-01-08 14:30:57.91	124.42	74.53	-37.6	-39.7	3.3	8394332	93	6306
2026-01-08 14:30:58.32	123.99	74.70	-37.5	-41.0	3.6	8351646	93	7338
2026-01-08 14:30:58.72	123.56	74.86	-37.5	-39.5	3.3	8438335	93	6193
2026-01-08 14:30:59.12	123.11	75.02	-37.5	-40.9	3.6	8414920	93	7287
2026-01-08 14:30:59.52	122.66	75.18	-37.5	-39.6	3.3	8414234	93	6223
2026-01-08 14:30:59.92	122.20	75.33	-37.5	-41.0	3.6	8429706	93	7352
2026-01-08 14:31:00.33	121.71	75.49	-37.5	-39.6	3.3	8441654	93	6284
2026-01-08 14:31:00.73	121.22	75.65	-37.5	-41.0	3.6	8379901	93	7325
2026-01-08 14:31:01.13	120.73	75.81	-37.5	-39.7	3.3	8432407	93	6352
2026-01-08 14:31:01.53	120.22	75.96	-37.5	-40.9	3.6	8394321	93	7299
2026-01-08 14:31:01.93	119.70	76.11	-37.5	-40.1	3.4	8426445	93	6574
2026-01-08 14:31:02.34	119.16	76.27	-37.6	-39.6	3.3	8395603	93	6225
2026-01-08 14:31:02.74	118.61	76.42	-37.5	-40.1	3.5	8443050	93	6682
2026-01-08 14:31:03.14	118.06	76.57	-37.5	-39.4	3.3	8392925	93	6152
2026-01-08 14:31:03.54	117.49	76.72	-37.5	-40.5	3.5	8420219	93	6928
2026-01-08 14:31:03.95	116.89	76.87	-37.5	-39.4	3.3	8419063	93	6137
2026-01-08 14:31:04.35	116.30	77.02	-37.5	-40.7	3.6	8363903	93	7118
2026-01-08 14:31:04.75	115.69	77.17	-37.5	-39.3	3.3	8400833	93	6106
2026-01-08 14:31:05.15	115.06	77.31	-37.4	-40.7	3.6	8394927	93	7166
2026-01-08 14:31:05.55	114.42	77.45	-37.5	-39.3	3.3	8409919	93	6055
2026-01-08 14:31:05.96	113.75	77.60	-37.4	-40.6	3.6	8416511	93	7109
2026-01-08 14:31:06.36	113.08	77.74	-37.4	-39.1	3.3	8416763	93	5994
2026-01-08 14:31:06.76	112.39	77.88	-37.4	-40.4	3.6	8416522	93	7015
2026-01-08 14:31:07.16	111.69	78.02	-37.3	-39.0	3.3	8439033	93	5942
2026-01-08 14:31:07.56	110.97	78.15	-37.3	-40.3	3.6	8399597	93	6928
2026-01-08 14:31:07.97	110.21	78.29	-37.3	-38.9	3.3	8434467	93	5890
2026-01-08 14:31:08.37	109.46	78.42	-37.3	-40.3	3.6	8390350	93	6920
2026-01-08 14:31:08.77	108.69	78.55	-37.3	-39.2	3.4	8414920	93	6087
2026-01-08 14:31:09.17	107.90	78.68	-37.3	-40.4	3.6	8400306	93	7004
2026-01-08 14:31:09.58	107.07	78.81	-37.4	-39.4	3.4	8450408	93	6203
2026-01-08 14:31:09.98	106.24	78.93	-37.4	-39.0	3.3	8387065	93	5960
2026-01-08 14:31:10.38	105.40	79.05	-37.4	-39.7	3.4	8433036	93	6406
2026-01-08 14:31:10.78	104.53	79.17	-37.4	-39.1	3.3	8397994	93	5965
2026-01-08 14:31:11.18	103.65	79.29	-37.4	-40.2	3.5	8440658	93	6774
2026-01-08 14:31:11.59	102.72	79.40	-37.4	-39.2	3.3	8390899	93	6012
2026-01-08 14:31:11.99	101.80	79.51	-37.4	-40.6	3.6	8444469	93	7102
2026-01-08 14:31:12.39	100.85	79.62	-37.4	-39.2	3.3	8431091	93	6039
2026-01-08 14:31:12.79	99.89	79.73	-37.4	-40.7	3.6	8416957	93	7160
2026-01-08 14:31:13.20	98.88	79.83	-37.5	-39.3	3.3	8413421	93	6096
2026-01-08 14:31:13.60	97.87	79.93	-37.5	-40.9	3.6	8423538	93	7284
2026-01-08 14:31:14.00	96.85	80.03	-37.5	-39.5	3.3	8386058	93	6197
2026-01-08 14:31:14.40	95.80	80.12	-37.5	-40.9	3.6	8393222	93	7280
2026-01-08 14:31:14.81	94.71	80.22	-37.5	-39.7	3.3	8446311	93	6302
2026-01-08 14:31:15.21	93.62	80.30	-37.5	-41.0	3.6	8401885	93	7315
2026-01-08 14:31:15.61	92.52	80.39	-37.5	-39.8	3.4	8445327	93	6392
2026-01-08 14:31:16.01	91.39	80.47	-37.5	-40.9	3.6	8390487	93	7284
2026-01-08 14:31:16.41	90.25	80.54	-37.5	-39.9	3.4	8448303	93	6464
2026-01-08 14:31:16.82	89.06	80.62	-37.5	-40.9	3.6	8381126	93	7254
2026-01-08 14:31:17.22	87.88	80.69	-37.5	-39.8	3.4	8429008	93	6441
2026-01-08 14:31:17.62	86.68	80.75	-37.5	-39.4	3.3	8396896	93	6166
2026-01-08 14:31:18.02	85.47	80.81	-37.5	-39.8	3.4	8444915	93	6480
2026-01-08 14:31:18.42	84.23	80.87	-37.4	-39.1	3.3	8394653	93	6005
2026-01-08 14:31:18.83	82.96	80.92	-37.3	-39.8	3.5	8447204	93	6551
2026-01-08 14:31:19.23	81.70	80.97	-37.3	-38.9	3.3	8390567	93	5873
2026-01-08 14:31:19.63	80.43	81.01	-37.3	-40.1	3.6	8414051	93	6784
2026-01-08 14:31:20.03	79.14	81.05	-37.3	-38.9	3.3	8404907	93	5878
2026-01-08 14:31:20.44	77.81	81.09	-37.3	-40.3	3.6	8423343	93	6935
2026-01-08 14:31:20.84	76.51	81.12	-37.4	-39.0	3.3	8397823	93	5924
2026-01-08 14:31:21.24	75.19	81.14	-37.4	-40.6	3.6	8402961	93	7097
2026-01-08 14:31:21.64	73.87	81.16	-37.5	-39.3	3.3	8383255	93	6078
2026-01-08 14:31:22.04	72.55	81.18	-37.4	-40.7	3.6	8341712	93	7126
2026-01-08 14:31:22.45	71.18	81.19	-37.5	-39.5	3.3	8434284	93	6192
2026-01-08 14:31:22.85	69.85	81.20	-37.5	-40.8	3.6	8388874	93	7250
2026-01-08 14:31:23.25	68.52	81.20	-37.5	-39.6	3.4	8444755	93	6287
2026-01-08 14:31:23.65	67.18	81.20	-37.5	-40.8	3.6	8400512	93	7207
2026-01-08 14:31:24.05	65.85	81.19	-37.5	-39.9	3.4	8380817	93	6451
2026-01-08 14:31:24.46	64.49	81.18	-37.5	-39.4	3.3	8406131	93	6134
2026-01-08 14:31:24.86	63.16	81.16	-37.5	-40.1	3.5	8386882	93	6688
2026-01-08 14:31:25.26	61.84	81.14	-37.5	-39.5	3.3	8397571	93	6191
2026-01-08 14:31:25.66	60.53	81.11	-37.5	-40.5	3.5	8424293	93	6916
2026-01-08 14:31:26.07	59.19	81.08	-37.5	-39.5	3.3	8391700	93	6201
2026-01-08 14:31:26.47	57.90	81.05	-37.5	-40.4	3.5	8429683	93	6841
2026-01-08 14:31:26.87	56.62	81.01	-37.5	-39.4	3.3	8406909	93	6113
2026-01-08 14:31:27.27	55.35	80.96	-37.4	-40.5	3.6	8429821	93	6988
2026-01-08 14:31:27.67	54.09	80.91	-37.4	-39.2	3.3	8403511	93	6016
2026-01-08 14:31:28.08	52.82	80.86	-37.4	-40.6	3.6	8445350	93	7113
2026-01-08 14:31:28.48	51.59	80.80	-37.3	-38.9	3.3	8379924	93	5925
2026-01-08 14:31:28.88	50.38	80.74	-37.4	-40.6	3.6	8353717	93	7102
2026-01-08 14:31:29.28	49.18	80.68	-37.5	-39.3	3.3	8431446	93	6059
2026-01-08 14:31:29.69	47.98	80.60	-37.5	-40.7	3.6	8415744	93	7173
2026-01-08 14:31:30.09	46.82	80.53	-37.4	-39.8	3.3	8396301	92	6531
2026-01-08 14:31:30.49	45.68	80.45	-37.5	-40.9	3.6	8384651	93	7268
2026-01-08 14:31:30.89	44.56	80.37	-37.5	-39.8	3.4	8439193	93	6431
2026-01-08 14:31:31.29	43.45	80.29	-37.5	-41.0	3.6	8388050	93	7327
2026-01-08 14:31:31.70	42.35	80.20	-37.5	-39.8	3.4	8439743	93	6407
2026-01-08 14:31:32.10	41.28	80.11	-37.5	-39.3	3.3	8389377	93	6100
2026-01-08 14:31:32.50	40.24	80.01	-37.6	-40.2	3.4	8378345	93	6687
2026-01-08 14:31:32.90	39.22	79.92	-37.6	-39.5	3.3	8395259	93	6163
2026-01-08 14:31:33.30	38.22	79.82	-37.5	-40.4	3.5	8354953	93	6880
2026-01-08 14:31:33.71	37.21	79.71	-37.5	-39.4	3.3	8424579	93	6135
2026-01-08 14:31:34.11	36.25	79.61	-37.5	-40.6	3.6	8436504	93	7030
2026-01-08 14:31:34.51	35.31	79.50	-37.5	-39.3	3.3	8408042	93	6078
2026-01-08 14:31:34.91	34.39	79.38	-37.5	-40.8	3.6	8432693	93	7215
2026-01-08 14:31:35.32	33.47	79.27	-37.5	-39.4	3.3	8419509	93	6156
2026-01-08 14:31:35.72	32.59	79.15	-37.5	-40.9	3.6	8414554	93	7301
2026-01-08 14:31:36.12	31.73	79.03	-37.5	-39.5	3.3	8410274	93	6201
2026-01-08 14:31:36.52	30.88	78.91	-37.5	-41.0	3.6	8416294	93	7305
2026-01-08 14:31:36.92	30.06	78.79	-37.5	-39.6	3.3	8409702	93	6228
2026-01-08 14:31:37.33	29.24	78.66	-37.5	-40.9	3.6	8387866	93	7293
2026-01-08 14:31:37.73	28.45	78.53	-37.5	-39.5	3.3	8448646	93	6216
2026-01-08 14:31:38.13	27.68	78.40	-37.5	-41.0	3.6	8397193	93	7348
2026-01-08 14:31:38.53	26.93	78.27	-37.5	-39.8	3.3	8423412	93	6424
2026-01-08 14:31:38.94	26.18	78.13	-37.5	-41.0	3.6	8396656	93	7348
2026-01-08 14:31:39.34	25.46	78.00	-37.6	-40.1	3.4	8379718	93	6620
2026-01-08 14:31:39.74	24.76	77.86	-37.6	-39.6	3.3	8395477	93	6239
2026-01-08 14:31:40.14	24.08	77.72	-37.5	-40.2	3.5	8442478	93	6733
2026-01-08 14:31:40.54	23.41	77.58	-37.5	-39.5	3.3	8404071	93	6222
2026-01-08 14:31:40.94	22.76	77.44	-37.5	-40.4	3.5	8448280	93	6843
2026-01-08 14:31:41.35	22.11	77.29	-37.5	-39.5	3.3	8399047	93	6162
2026-01-08 14:31:41.75	21.48	77.15	-37.5	-40.8	3.6	8439491	93	7194
2026-01-08 14:31:42.15	20.88	77.00	-37.5	-39.5	3.3	8426044	93	6198
2026-01-08 14:31:42.55	20.28	76.85	-37.5	-41.1	3.6	8409095	93	7410
2026-01-08 14:31:42.95	19.70	76.70	-37.6	-39.8	3.3	8421398	93	6308
2026-01-08 14:31:43.36	19.12	76.55	-37.5	-41.0	3.6	8372863	93	7319
2026-01-08 14:31:43.76	18.57	76.40	-37.5	-39.4	3.3	8435623	93	6139
2026-01-08 14:31:44.16	18.03	76.25	-37.5	-41.0	3.6	8386676	93	7333
2026-01-08 14:31:44.56	17.50	76.10	-37.5	-39.6	3.3	8442924	93	6242
2026-01-08 14:31:44.96	16.98	75.94	-37.5	-41.1	3.6	8394332	93	7386
2026-01-08 14:31:45.37	16.46	75.78	-37.5	-39.7	3.3	8424510	93	6288
2026-01-08 14:31:45.77	15.97	75.63	-37.5	-41.0	3.6	8409667	93	7323
2026-01-08 14:31:46.17	15.49	75.47	-37.5	-39.7	3.4	8454277	93	6331
2026-01-08 14:31:46.57	15.01	75.32	-37.5	-41.0	3.6	8386207	93	7309
2026-01-08 14:31:46.97	14.55	75.16	-37.5	-40.0	3.4	8376045	93	6578
2026-01-08 14:31:47.38	14.09	75.00	-37.5	-39.5	3.3	8384857	93	6176
2026-01-08 14:31:47.78	13.65	74.84	-37.5	-40.2	3.5	8375392	93	6723
2026-01-08 14:31:48.18	13.22	74.68	-37.5	-39.6	3.3	8395523	93	6219
2026-01-08 14:31:48.58	12.79	74.52	-37.6	-40.7	3.5	8430908	93	7067
2026-01-08 14:31:48.99	12.37	74.35	-37.6	-39.7	3.3	8396324	93	6256
2026-01-08 14:31:49.39	11.97	74.19	-37.5	-40.9	3.6	8354782	93	7276
2026-01-08 14:31:49.79	11.57	74.03	-37.5	-39.6	3.3	8401016	93	6215
2026-01-08 14:31:50.19	11.18	73.86	-37.5	-41.0	3.6	8429592	93	7295
2026-01-08 14:31:50.59	10.80	73.70	-37.5	-39.5	3.3	8396209	93	6185
2026-01-08 14:31:51.00	10.42	73.53	-37.5	-41.0	3.6	8384914	93	7340
2026-01-08 14:31:51.40	10.06	73.37	-37.5	-39.5	3.3	8423469	93	6181
2026-01-08 14:31:51.80	9.70	73.21	-37.5	-41.0	3.6	8390899	93	7340
2026-01-08 14:31:52.20	9.35	73.04	-37.5	-39.6	3.3	8425941	93	6232
2026-01-08 14:31:52.61	9.00	72.87	-37.5	-41.0	3.6	8388233	93	7308
2026-01-08 14:31:53.01	8.67	72.71	-37.5	-39.7	3.3	8445522	93	6340
2026-01-08 14:31:53.41	8.34	72.54	-37.5	-41.0	3.6	8393474	93	7339
2026-01-08 14:31:53.81	8.02	72.37	-37.5	-39.9	3.4	8442890	93	6500
2026-01-08 14:31:54.22	7.70	72.20	-37.5	-41.1	3.6	8388416	93	7430
2026-01-08 14:31:54.62	7.39	72.04	-37.5	-39.9	3.4	8426834	93	6491
2026-01-08 14:31:55.02	7.09	71.87	-37.5	-39.6	3.3	8396266	93	6247
2026-01-08 14:31:55.43	6.78	71.70	-37.6	-40.2	3.4	8446872	93	6694
2026-01-08 14:31:55.83	6.49	71.53	-37.5	-39.6	3.3	8396564	93	6251
2026-01-08 14:31:56.23	6.21	71.36	-37.5	-40.5	3.5	8447364	93	6925
2026-01-08 14:31:56.63	5.93	71.20	-37.5	-39.6	3.3	8388427	93	6210
2026-01-08 14:31:57.03	5.65	71.03	-37.5	-40.8	3.6	8431571	93	7153
2026-01-08 14:31:57.43	5.38	70.86	-37.5	-39.5	3.3	8405296	93	6193
2026-01-08 14:31:57.84	5.11	70.69	-37.6	-41.0	3.6	8434833	93	7345
2026-01-08 14:31:58.24	4.85	70.52	-37.6	-39.8	3.3	8371341	93	6332
2026-01-08 14:31:58.64	4.60	70.35	-37.5	-41.0	3.6	8357666	93	7337
2026-01-08 14:31:59.04	4.35	70.18	-37.5	-39.5	3.3	8422519	93	6188

#Closed at: 2026-01-08 14:31:59