passes_logs/2026/01/08/XPeterburg/XPeterburg__20260108_043809_FENGYUN_3E_rec.log

#Pass ID: 20260108_043809_FENGYUN 3E
#Satellite: FENGYUN 3E
#Configuration: FENGYUN 3E
#Start time: 2026-01-08 04:38:04

#Version: 1.5.20200625
#Station: XPeterburg
#Location: 30.318091 lon 59.932769 lat
#TLE: 1 49008U 21062A   25359.14718215  .00000011  00000+0  25812-4 0  9998
#TLE: 2 49008  98.7476 359.5210 0000940 189.9291 170.1866 14.19881103231888

#Time	Az	El	Level	Level2	SNR	BER	Gain	Gain2
2026-01-08 04:38:04.86	28.38	67.81	-37.7	-40.3	3.3	8389308	92	6652
2026-01-08 04:38:05.26	28.47	67.99	-37.6	-41.2	3.5	8427509	92	7384
2026-01-08 04:38:05.66	28.57	68.17	-37.6	-40.2	3.3	8398727	92	6622
2026-01-08 04:38:06.06	28.66	68.35	-37.6	-41.5	3.6	8436847	92	7647
2026-01-08 04:38:06.46	28.75	68.53	-37.7	-40.2	3.3	8420871	92	6627
2026-01-08 04:38:06.86	28.85	68.71	-37.7	-41.7	3.6	8409782	92	7870
2026-01-08 04:38:07.27	28.95	68.90	-37.7	-40.3	3.3	8403499	92	6676
2026-01-08 04:38:07.67	29.05	69.08	-37.7	-41.8	3.6	8423675	92	7888
2026-01-08 04:38:08.07	29.15	69.26	-37.7	-40.3	3.3	8439502	92	6651
2026-01-08 04:38:08.47	29.25	69.44	-37.6	-41.7	3.6	8392879	92	7836
2026-01-08 04:38:08.87	29.36	69.62	-37.7	-40.3	3.3	8436882	92	6662
2026-01-08 04:38:09.28	29.47	69.81	-37.6	-41.6	3.6	8398853	92	7758
2026-01-08 04:38:09.68	29.58	69.99	-37.6	-40.4	3.3	8439743	92	6767
2026-01-08 04:38:10.08	29.69	70.17	-37.6	-41.5	3.6	8397983	92	7717
2026-01-08 04:38:10.48	29.81	70.36	-37.6	-40.1	3.4	8394802	93	6544
2026-01-08 04:38:10.88	29.92	70.54	-37.6	-39.7	3.3	8384696	93	6223
2026-01-08 04:38:11.29	30.04	70.73	-37.6	-40.5	3.5	8440200	93	6821
2026-01-08 04:38:11.69	30.16	70.91	-37.7	-39.8	3.3	8410858	93	6287
2026-01-08 04:38:12.09	30.29	71.10	-37.7	-40.7	3.5	8443748	93	7005
2026-01-08 04:38:12.49	30.41	71.28	-37.7	-39.8	3.3	8390029	93	6302
2026-01-08 04:38:12.90	30.55	71.47	-37.7	-40.7	3.5	8439674	93	7000
2026-01-08 04:38:13.30	30.68	71.66	-37.7	-39.8	3.3	8392650	93	6305
2026-01-08 04:38:13.70	30.81	71.84	-37.7	-41.1	3.6	8414291	93	7295
2026-01-08 04:38:14.10	30.95	72.03	-37.6	-39.8	3.3	8415435	93	6291
2026-01-08 04:38:14.50	31.09	72.21	-37.6	-41.2	3.6	8432865	93	7402
2026-01-08 04:38:14.91	31.24	72.40	-37.6	-39.8	3.3	8409255	93	6290
2026-01-08 04:38:15.31	31.38	72.59	-37.6	-41.2	3.6	8392135	93	7424
2026-01-08 04:38:15.71	31.53	72.77	-37.7	-39.7	3.3	8434364	93	6231
2026-01-08 04:38:16.11	31.69	72.96	-37.6	-41.2	3.6	8398406	93	7408
2026-01-08 04:38:16.52	31.85	73.15	-37.7	-40.0	3.4	8417667	93	6415
2026-01-08 04:38:16.92	32.01	73.34	-37.6	-41.2	3.6	8389881	93	7421
2026-01-08 04:38:17.32	32.17	73.52	-37.7	-40.3	3.4	8398109	93	6637
2026-01-08 04:38:17.72	32.34	73.71	-37.7	-40.0	3.3	8390121	93	6343
2026-01-08 04:38:18.12	32.51	73.90	-37.7	-40.5	3.4	8441585	93	6864
2026-01-08 04:38:18.53	32.69	74.09	-37.7	-39.8	3.3	8413558	93	6295
2026-01-08 04:38:18.93	32.87	74.28	-37.7	-40.7	3.5	8436721	93	7011
2026-01-08 04:38:19.33	33.06	74.47	-37.7	-39.8	3.3	8407779	93	6317
2026-01-08 04:38:19.73	33.25	74.65	-37.7	-41.1	3.6	8446563	93	7306
2026-01-08 04:38:20.14	33.45	74.85	-37.7	-39.8	3.3	8400489	93	6324
2026-01-08 04:38:20.54	33.65	75.03	-37.6	-41.2	3.6	8400249	93	7418
2026-01-08 04:38:20.94	33.86	75.22	-37.7	-39.8	3.3	8426067	93	6288
2026-01-08 04:38:21.34	34.07	75.41	-37.6	-41.2	3.6	8357105	93	7365
2026-01-08 04:38:21.74	34.28	75.60	-37.7	-39.7	3.3	8399654	93	6239
2026-01-08 04:38:22.15	34.51	75.79	-37.6	-41.2	3.6	8423091	93	7374
2026-01-08 04:38:22.55	34.74	75.98	-37.7	-39.9	3.3	8440074	93	6362
2026-01-08 04:38:22.95	34.98	76.17	-37.7	-41.2	3.6	8402160	93	7435
2026-01-08 04:38:23.35	35.22	76.36	-37.7	-40.3	3.4	8388233	93	6583
2026-01-08 04:38:23.75	35.47	76.55	-37.7	-41.3	3.6	8337032	93	7481
2026-01-08 04:38:24.16	35.73	76.74	-37.7	-40.5	3.4	8444458	93	6799
2026-01-08 04:38:24.56	35.99	76.93	-37.7	-39.8	3.3	8401840	93	6282
2026-01-08 04:38:24.96	36.27	77.12	-37.6	-40.8	3.5	8447250	93	7092
2026-01-08 04:38:25.36	36.55	77.30	-37.7	-39.8	3.3	8382053	93	6300
2026-01-08 04:38:25.76	36.83	77.49	-37.7	-41.0	3.6	8410617	93	7239
2026-01-08 04:38:26.17	37.14	77.69	-37.7	-39.8	3.3	8420516	93	6271
2026-01-08 04:38:26.57	37.45	77.87	-37.6	-41.1	3.6	8415504	93	7353
2026-01-08 04:38:26.97	37.76	78.06	-37.6	-39.6	3.3	8396530	93	6185
2026-01-08 04:38:27.37	38.09	78.25	-37.6	-40.9	3.6	8402320	93	7246
2026-01-08 04:38:27.77	38.43	78.44	-37.6	-39.4	3.3	8413639	93	6101
2026-01-08 04:38:28.18	38.79	78.63	-37.5	-40.9	3.6	8393886	93	7214
2026-01-08 04:38:28.58	39.15	78.82	-37.5	-39.5	3.3	8435520	93	6146
2026-01-08 04:38:28.98	39.53	79.00	-37.6	-40.9	3.6	8414543	93	7211
2026-01-08 04:38:29.38	39.91	79.19	-37.6	-39.8	3.4	8434879	93	6349
2026-01-08 04:38:29.78	40.32	79.38	-37.6	-41.1	3.6	8385486	93	7341
2026-01-08 04:38:30.19	40.74	79.57	-37.6	-40.1	3.4	8372714	93	6595
2026-01-08 04:38:30.59	41.17	79.75	-37.6	-39.7	3.3	8396175	93	6241
2026-01-08 04:38:30.99	41.62	79.94	-37.7	-40.6	3.4	8379375	93	6862
2026-01-08 04:38:31.39	42.09	80.12	-37.6	-39.8	3.3	8400192	93	6287
2026-01-08 04:38:31.79	42.57	80.31	-37.6	-41.2	3.6	8443817	93	7417
2026-01-08 04:38:32.20	43.09	80.49	-37.7	-39.7	3.3	8394412	93	6259
2026-01-08 04:38:32.60	43.61	80.68	-37.6	-41.2	3.6	8401290	93	7447
2026-01-08 04:38:33.00	44.15	80.86	-37.7	-40.0	3.3	8369476	93	6380
2026-01-08 04:38:33.40	44.72	81.04	-37.7	-41.2	3.6	8397136	93	7406
2026-01-08 04:38:33.81	45.32	81.23	-37.7	-39.9	3.3	8428184	93	6386
2026-01-08 04:38:34.21	45.94	81.41	-37.6	-41.2	3.6	8408088	93	7378
2026-01-08 04:38:34.61	46.58	81.59	-37.6	-39.9	3.4	8451564	93	6412
2026-01-08 04:38:35.01	47.25	81.77	-37.7	-41.2	3.6	8387260	93	7370
2026-01-08 04:38:35.41	47.95	81.94	-37.7	-40.4	3.4	8394676	93	6678
2026-01-08 04:38:35.81	48.68	82.12	-37.7	-39.9	3.3	8380107	93	6322
2026-01-08 04:38:36.22	49.47	82.30	-37.7	-40.6	3.4	8364257	93	6886
2026-01-08 04:38:36.62	50.27	82.47	-37.7	-39.8	3.3	8403980	93	6310
2026-01-08 04:38:37.02	51.11	82.65	-37.7	-41.1	3.6	8441287	93	7284
2026-01-08 04:38:37.42	51.99	82.82	-37.7	-39.7	3.3	8401599	93	6253
2026-01-08 04:38:37.83	52.94	82.99	-37.7	-41.2	3.6	8392524	93	7437
2026-01-08 04:38:38.23	53.91	83.16	-37.6	-39.7	3.3	8428539	93	6266
2026-01-08 04:38:38.63	54.93	83.32	-37.6	-41.1	3.6	8402080	93	7344
2026-01-08 04:38:39.03	56.00	83.49	-37.6	-39.7	3.3	8418628	93	6263
2026-01-08 04:38:39.44	57.16	83.65	-37.6	-41.2	3.6	8419624	93	7376
2026-01-08 04:38:39.84	58.35	83.81	-37.7	-39.9	3.3	8396438	93	6367
2026-01-08 04:38:40.24	59.60	83.97	-37.7	-41.2	3.6	8393611	93	7406
2026-01-08 04:38:40.64	60.91	84.12	-37.6	-40.0	3.4	8436550	93	6440
2026-01-08 04:38:41.04	62.29	84.27	-37.6	-41.2	3.6	8393302	93	7398
2026-01-08 04:38:41.45	63.79	84.42	-37.7	-40.0	3.4	8424476	93	6470
2026-01-08 04:38:41.85	65.33	84.56	-37.6	-41.2	3.6	8393497	93	7429
2026-01-08 04:38:42.25	66.95	84.70	-37.6	-40.1	3.4	8435428	93	6517
2026-01-08 04:38:42.65	68.66	84.83	-37.6	-39.6	3.3	8394802	93	6191
2026-01-08 04:38:43.05	70.45	84.96	-37.7	-40.4	3.4	8398498	93	6721
2026-01-08 04:38:43.46	72.39	85.09	-37.6	-39.6	3.3	8402080	93	6195
2026-01-08 04:38:43.86	74.38	85.21	-37.6	-40.5	3.5	8383346	93	6900
2026-01-08 04:38:44.26	76.46	85.32	-37.6	-39.5	3.3	8403373	93	6135
2026-01-08 04:38:44.66	78.65	85.43	-37.6	-40.9	3.6	8425128	93	7246
2026-01-08 04:38:45.06	80.93	85.53	-37.6	-39.6	3.3	8430381	93	6192
2026-01-08 04:38:45.47	83.38	85.62	-37.6	-41.1	3.6	8392581	93	7334
2026-01-08 04:38:45.87	85.87	85.70	-37.6	-39.7	3.3	8363513	93	6249
2026-01-08 04:38:46.27	88.45	85.78	-37.7	-41.2	3.6	8342285	93	7435
2026-01-08 04:38:46.67	91.12	85.85	-37.7	-40.1	3.4	8438701	93	6492
2026-01-08 04:38:47.07	93.87	85.90	-37.7	-41.3	3.6	8387226	93	7466
2026-01-08 04:38:47.48	96.76	85.95	-37.6	-40.2	3.4	8437500	93	6607
2026-01-08 04:38:47.88	99.65	85.99	-37.6	-39.8	3.3	8382362	93	6304
2026-01-08 04:38:48.28	102.58	86.02	-37.6	-40.3	3.4	8441001	93	6714
2026-01-08 04:38:48.68	105.54	86.03	-37.6	-39.7	3.3	8393886	93	6264
2026-01-08 04:38:49.09	108.59	86.04	-37.6	-40.6	3.5	8442192	93	6907
2026-01-08 04:38:49.49	111.57	86.03	-37.7	-39.7	3.3	8398647	93	6202
2026-01-08 04:38:49.89	114.54	86.02	-37.7	-41.0	3.6	8444766	93	7240
2026-01-08 04:38:50.29	117.47	85.99	-37.7	-39.7	3.3	8428127	93	6230
2026-01-08 04:38:50.69	120.36	85.96	-37.7	-41.2	3.6	8420230	93	7372
2026-01-08 04:38:51.10	123.26	85.91	-37.6	-39.7	3.3	8424007	93	6224
2026-01-08 04:38:51.50	126.02	85.85	-37.6	-41.2	3.6	8362415	93	7395
2026-01-08 04:38:51.90	128.70	85.79	-37.6	-39.6	3.3	8406074	93	6208
2026-01-08 04:38:52.30	131.29	85.71	-37.6	-41.2	3.6	8374797	93	7397
2026-01-08 04:38:52.71	133.84	85.63	-37.6	-39.7	3.3	8431251	93	6259
2026-01-08 04:38:53.11	136.24	85.54	-37.6	-41.1	3.6	8403671	93	7370
2026-01-08 04:38:53.51	138.53	85.44	-37.6	-39.8	3.4	8419326	93	6333
2026-01-08 04:38:53.91	140.73	85.33	-37.7	-41.2	3.6	8386173	93	7401
2026-01-08 04:38:54.31	142.82	85.22	-37.7	-40.3	3.4	8446758	93	6647
2026-01-08 04:38:54.72	144.87	85.10	-37.7	-39.8	3.3	8398132	93	6310
2026-01-08 04:38:55.12	146.77	84.97	-37.7	-40.4	3.4	8441837	93	6734
2026-01-08 04:38:55.52	148.57	84.85	-37.6	-39.7	3.3	8401004	93	6259
2026-01-08 04:38:55.92	150.29	84.71	-37.6	-40.7	3.5	8432956	93	6971
2026-01-08 04:38:56.32	151.91	84.57	-37.6	-39.6	3.3	8400970	93	6180
2026-01-08 04:38:56.73	153.50	84.43	-37.6	-40.8	3.6	8443016	93	7149
2026-01-08 04:38:57.13	154.96	84.28	-37.6	-39.5	3.3	8396507	93	6120
2026-01-08 04:38:57.53	156.35	84.13	-37.6	-41.0	3.6	8395729	93	7247
2026-01-08 04:38:57.93	157.68	83.98	-37.6	-39.5	3.3	8422794	93	6163
2026-01-08 04:38:58.33	158.93	83.82	-37.6	-41.1	3.6	8413101	93	7365
2026-01-08 04:38:58.74	160.15	83.66	-37.6	-39.7	3.3	8404106	93	6212
2026-01-08 04:38:59.14	161.28	83.50	-37.6	-41.1	3.6	8384513	93	7367
2026-01-08 04:38:59.54	162.36	83.34	-37.7	-39.8	3.3	8435577	93	6287
2026-01-08 04:38:59.94	163.39	83.17	-37.6	-41.1	3.6	8383964	93	7293
2026-01-08 04:39:00.34	164.36	83.00	-37.6	-39.8	3.3	8437831	93	6341
2026-01-08 04:39:00.74	165.29	82.83	-37.6	-41.0	3.6	8383117	93	7272
2026-01-08 04:39:01.15	166.20	82.66	-37.6	-39.7	3.4	8440200	93	6281
2026-01-08 04:39:01.55	167.04	82.49	-37.6	-41.0	3.6	8392845	93	7288
2026-01-08 04:39:01.95	167.85	82.31	-37.6	-40.0	3.4	8448669	93	6485
2026-01-08 04:39:02.35	168.62	82.14	-37.6	-39.7	3.3	8396038	93	6253
2026-01-08 04:39:02.75	169.35	81.96	-37.7	-40.4	3.4	8438301	93	6737
2026-01-08 04:39:03.16	170.08	81.78	-37.7	-39.9	3.3	8404598	93	6334
2026-01-08 04:39:03.56	170.75	81.60	-37.7	-40.7	3.5	8443782	93	7002
2026-01-08 04:39:03.96	171.39	81.42	-37.7	-39.9	3.3	8390441	93	6334
2026-01-08 04:39:04.36	172.01	81.24	-37.7	-41.0	3.6	8403659	93	7218
2026-01-08 04:39:04.76	172.60	81.06	-37.7	-39.7	3.3	8411178	93	6248
2026-01-08 04:39:05.17	173.19	80.87	-37.7	-41.2	3.6	8433494	93	7395
2026-01-08 04:39:05.57	173.73	80.69	-37.7	-39.7	3.3	8405330	93	6255
2026-01-08 04:39:05.97	174.26	80.51	-37.7	-41.3	3.6	8383644	93	7448
2026-01-08 04:39:06.37	174.76	80.32	-37.7	-39.8	3.3	8432292	93	6300
2026-01-08 04:39:06.78	175.26	80.13	-37.7	-41.2	3.6	8402343	93	7384
2026-01-08 04:39:07.18	175.73	79.95	-37.7	-39.9	3.3	8429969	93	6368
2026-01-08 04:39:07.58	176.18	79.76	-37.7	-41.2	3.6	8416019	93	7403
2026-01-08 04:39:07.98	176.61	79.58	-37.7	-40.1	3.4	8442020	93	6505
2026-01-08 04:39:08.38	177.03	79.39	-37.7	-41.2	3.6	8391986	93	7429
2026-01-08 04:39:08.79	177.44	79.20	-37.7	-40.4	3.4	8385555	93	6669
2026-01-08 04:39:09.19	177.83	79.01	-37.7	-39.9	3.3	8385349	93	6349
2026-01-08 04:39:09.59	178.21	78.83	-37.7	-40.5	3.5	8383518	93	6855
2026-01-08 04:39:09.99	178.57	78.64	-37.7	-39.8	3.3	8407825	93	6293
2026-01-08 04:39:10.40	178.93	78.45	-37.7	-40.4	3.4	8447559	93	6763
2026-01-08 04:39:10.80	179.27	78.26	-37.7	-39.8	3.3	8388690	93	6299
2026-01-08 04:39:11.20	179.60	78.07	-37.7	-40.8	3.5	8439319	93	7021
2026-01-08 04:39:11.60	179.92	77.88	-37.7	-39.8	3.3	8411167	93	6271
2026-01-08 04:39:12.00	180.22	77.69	-37.7	-41.3	3.6	8416660	93	7426
2026-01-08 04:39:12.41	180.53	77.50	-37.7	-39.9	3.3	8408786	93	6319
2026-01-08 04:39:12.81	180.82	77.31	-37.7	-41.3	3.6	8374156	93	7478
2026-01-08 04:39:13.21	181.10	77.12	-37.7	-39.9	3.3	8438472	93	6329
2026-01-08 04:39:13.61	181.37	76.94	-37.6	-41.2	3.6	8398029	93	7393
2026-01-08 04:39:14.01	181.64	76.75	-37.7	-39.7	3.3	8438449	93	6254
2026-01-08 04:39:14.42	181.90	76.55	-37.7	-41.2	3.6	8402549	93	7377
2026-01-08 04:39:14.82	182.15	76.36	-37.6	-39.8	3.3	8433849	93	6313
2026-01-08 04:39:15.22	182.39	76.18	-37.7	-41.2	3.6	8401897	93	7437
2026-01-08 04:39:15.62	182.63	75.99	-37.7	-40.0	3.4	8445877	93	6444
2026-01-08 04:39:16.02	182.86	75.80	-37.6	-41.2	3.6	8380096	93	7398
2026-01-08 04:39:16.43	183.09	75.61	-37.6	-40.2	3.4	8433872	93	6582
2026-01-08 04:39:16.83	183.30	75.42	-37.6	-39.8	3.3	8390064	93	6304
2026-01-08 04:39:17.23	183.52	75.23	-37.7	-40.5	3.4	8439525	93	6775
2026-01-08 04:39:17.63	183.72	75.04	-37.7	-39.9	3.3	8404541	93	6316
2026-01-08 04:39:18.03	183.92	74.85	-37.7	-40.7	3.5	8444515	93	6985
2026-01-08 04:39:18.44	184.12	74.66	-37.6	-39.7	3.3	8420333	93	6268
2026-01-08 04:39:18.84	184.31	74.47	-37.8	-41.5	3.6	8434719	93	7546
2026-01-08 04:39:19.24	184.50	74.28	-37.8	-40.0	3.3	8412208	93	6369
2026-01-08 04:39:19.64	184.68	74.09	-37.7	-41.3	3.6	8381526	93	7433
2026-01-08 04:39:20.05	184.86	73.90	-37.7	-39.9	3.3	8397045	93	6326
2026-01-08 04:39:20.45	185.04	73.71	-37.7	-41.2	3.6	8389297	93	7420
2026-01-08 04:39:20.85	185.20	73.53	-37.7	-39.8	3.3	8440612	93	6308
2026-01-08 04:39:21.25	185.37	73.34	-37.6	-41.2	3.6	8401851	93	7409
2026-01-08 04:39:21.66	185.53	73.15	-37.7	-39.9	3.3	8427520	93	6342
2026-01-08 04:39:22.06	185.69	72.96	-37.7	-41.2	3.6	8385131	93	7406
2026-01-08 04:39:22.46	185.84	72.77	-37.8	-40.4	3.4	8386814	93	6623
2026-01-08 04:39:22.86	185.99	72.59	-37.8	-40.1	3.3	8402034	93	6401
2026-01-08 04:39:23.26	186.14	72.40	-37.7	-40.6	3.5	8387237	93	6887
2026-01-08 04:39:23.67	186.29	72.21	-37.7	-39.8	3.3	8409736	93	6304
2026-01-08 04:39:24.07	186.43	72.03	-37.7	-41.2	3.6	8365230	93	7411
2026-01-08 04:39:24.47	186.57	71.84	-37.7	-39.8	3.3	8410503	93	6311
2026-01-08 04:39:24.87	186.70	71.65	-37.7	-41.3	3.6	8434890	93	7461
2026-01-08 04:39:25.27	186.83	71.47	-37.7	-39.9	3.3	8402961	93	6331
2026-01-08 04:39:25.68	186.96	71.28	-37.7	-41.3	3.6	8401473	93	7470
2026-01-08 04:39:26.08	187.09	71.09	-37.8	-40.1	3.3	8375827	93	6441
2026-01-08 04:39:26.48	187.21	70.91	-37.7	-41.3	3.6	8344768	93	7491
2026-01-08 04:39:26.88	187.34	70.73	-37.7	-40.0	3.3	8424339	93	6414
2026-01-08 04:39:27.29	187.46	70.54	-37.7	-41.2	3.6	8384525	93	7425
2026-01-08 04:39:27.69	187.57	70.35	-37.7	-40.1	3.4	8437465	93	6484

#Closed at: 2026-01-08 04:39:27