passes_logs/2025/01/26/XPeterburg/XPeterburg__20250126_114049_FENGYUN_3D_rec.log

#Pass ID: 20250126_114049_FENGYUN 3D
#Satellite: FENGYUN 3D
#Configuration: FENGYUN 3D
#Start time: 2025-01-26 11:40:42

#Version: 1.5.20200625
#Station: XPeterburg
#Location: 30.318091 lon 59.932769 lat
#TLE: 1 43010U 17072A   25024.14915762  .00000341  00000+0  18355-3 0  9995
#TLE: 2 43010  98.9433 346.4677 0002514  73.5220 286.6232 14.19550172372763

#Time	Az	El	Level	Level2	SNR	BER	Gain	Gain2
2025-01-26 11:40:42.88	144.11	67.52	-39.4	-42.3	3.3	8390659	96	3405
2025-01-26 11:40:43.28	143.99	67.70	-38.5	-52.3	3.6	7651805	73	12058
2025-01-26 11:40:43.68	143.86	67.87	-38.8	-41.4	3.4	8400581	94	3306
2025-01-26 11:40:44.08	143.72	68.05	-38.7	-42.2	3.7	8411407	94	3690
2025-01-26 11:40:44.48	143.59	68.23	-38.5	-40.5	3.6	8424247	94	3074
2025-01-26 11:40:44.89	143.45	68.41	-38.3	-40.9	3.7	8402126	94	3339
2025-01-26 11:40:45.29	143.31	68.58	-37.8	-38.2	4.1	8362174	94	2577
2025-01-26 11:40:45.69	143.17	68.76	-37.3	-37.2	4.8	8195571	93	2423
2025-01-26 11:40:46.09	143.03	68.94	-36.5	-36.3	5.8	6249538	91	2418
2025-01-26 11:40:46.49	142.88	69.12	-35.3	-34.7	7.1	3183860	89	2299
2025-01-26 11:40:46.89	142.73	69.29	-33.9	-33.4	8.6	765312	86	2312
2025-01-26 11:40:47.30	142.58	69.48	-32.9	-32.2	9.9	300052	84	2285
2025-01-26 11:40:47.70	142.42	69.66	-32.0	-31.4	11.1	100650	82	2300
2025-01-26 11:40:48.10	142.26	69.83	-31.1	-30.6	12.3	7564	80	2322
2025-01-26 11:40:48.50	142.10	70.01	-30.2	-29.7	13.2	2048	78	2328
2025-01-26 11:40:48.90	141.94	70.19	-29.4	-28.6	14.0	411	77	2251
2025-01-26 11:40:49.31	141.77	70.38	-29.0	-28.3	14.5	34	76	2273
2025-01-26 11:40:49.71	141.60	70.56	-28.4	-27.6	14.9	22	75	2241
2025-01-26 11:40:50.11	141.42	70.74	-28.3	-27.4	15.2	0	75	2222
2025-01-26 11:40:50.51	141.24	70.91	-28.2	-27.7	15.2	0	74	2324
2025-01-26 11:40:50.92	141.06	71.10	-28.2	-27.6	15.3	0	74	2315
2025-01-26 11:40:51.32	140.87	71.28	-28.1	-27.4	15.4	0	74	2284
2025-01-26 11:40:51.72	140.68	71.46	-28.1	-27.5	15.4	0	74	2296
2025-01-26 11:40:52.12	140.49	71.64	-28.1	-27.5	15.5	0	74	2298
2025-01-26 11:40:52.52	140.29	71.82	-28.1	-27.5	15.5	0	74	2294
2025-01-26 11:40:52.93	140.09	72.00	-28.1	-27.5	15.6	0	74	2298
2025-01-26 11:40:53.33	139.88	72.19	-28.2	-27.7	15.7	0	74	2326
2025-01-26 11:40:53.73	139.67	72.37	-28.2	-27.8	15.7	0	74	2335
2025-01-26 11:40:54.13	139.46	72.55	-28.2	-27.8	15.7	0	74	2335
2025-01-26 11:40:54.53	139.24	72.73	-28.2	-27.8	15.7	0	74	2347
2025-01-26 11:40:54.93	139.01	72.91	-28.2	-27.8	15.8	0	74	2342
2025-01-26 11:40:55.34	138.78	73.09	-28.3	-27.9	15.8	0	74	2356
2025-01-26 11:40:55.74	138.54	73.27	-28.3	-28.0	15.7	0	74	2369
2025-01-26 11:40:56.14	138.30	73.45	-28.3	-28.0	15.7	0	74	2376
2025-01-26 11:40:56.54	138.06	73.64	-28.3	-28.0	15.7	0	74	2375
2025-01-26 11:40:56.94	137.80	73.82	-28.3	-28.0	15.7	0	74	2374
2025-01-26 11:40:57.34	137.55	74.00	-28.3	-27.9	15.8	0	74	2357
2025-01-26 11:40:57.75	137.28	74.18	-28.3	-28.0	15.7	0	74	2366
2025-01-26 11:40:58.15	137.01	74.36	-28.3	-28.0	15.7	0	74	2365
2025-01-26 11:40:58.55	136.73	74.54	-28.2	-27.8	15.8	0	74	2342
2025-01-26 11:40:58.95	136.44	74.72	-28.0	-27.3	16.1	0	74	2278
2025-01-26 11:40:59.35	136.15	74.90	-27.7	-27.2	16.3	0	73	2322
2025-01-26 11:40:59.76	135.85	75.09	-27.4	-26.6	16.6	0	73	2247
2025-01-26 11:41:00.16	135.54	75.27	-27.4	-26.6	16.6	0	73	2236
2025-01-26 11:41:00.56	135.23	75.45	-27.4	-26.5	16.6	0	73	2230
2025-01-26 11:41:00.96	134.91	75.63	-27.4	-26.6	16.4	0	73	2246
2025-01-26 11:41:01.36	134.58	75.81	-27.4	-26.6	16.4	0	73	2242
2025-01-26 11:41:01.77	134.23	75.99	-27.4	-26.5	16.4	0	73	2230
2025-01-26 11:41:02.17	133.88	76.17	-27.3	-26.8	16.5	0	72	2336
2025-01-26 11:41:02.57	133.52	76.35	-27.1	-26.4	16.6	0	72	2278
2025-01-26 11:41:02.97	133.15	76.53	-27.0	-26.2	16.7	0	72	2256
2025-01-26 11:41:03.37	132.77	76.70	-26.6	-25.9	16.9	0	71	2272
2025-01-26 11:41:03.77	132.39	76.88	-26.3	-25.4	17.1	0	71	2205
2025-01-26 11:41:04.18	131.98	77.06	-26.2	-25.7	17.3	0	70	2309
2025-01-26 11:41:04.58	131.56	77.24	-26.2	-25.6	17.3	0	70	2299
2025-01-26 11:41:04.98	131.14	77.42	-26.2	-25.5	17.4	0	70	2288
2025-01-26 11:41:05.38	130.70	77.59	-26.1	-25.4	17.5	0	70	2280
2025-01-26 11:41:05.78	130.26	77.77	-26.1	-25.5	17.5	0	70	2286
2025-01-26 11:41:06.19	129.78	77.95	-26.2	-25.6	17.5	0	70	2302
2025-01-26 11:41:06.59	129.31	78.12	-26.3	-25.9	17.5	0	70	2340
2025-01-26 11:41:06.99	128.81	78.29	-26.3	-25.8	17.6	0	70	2329
2025-01-26 11:41:07.39	128.31	78.47	-26.1	-25.5	17.8	0	70	2291
2025-01-26 11:41:07.79	127.79	78.64	-25.9	-25.1	18.1	0	70	2243
2025-01-26 11:41:08.20	127.24	78.81	-25.8	-24.9	18.3	0	70	2220
2025-01-26 11:41:08.60	126.68	78.98	-25.9	-25.0	18.4	0	70	2223
2025-01-26 11:41:09.00	126.11	79.15	-25.9	-25.1	18.4	0	70	2239
2025-01-26 11:41:09.40	125.51	79.32	-26.1	-25.4	18.2	0	70	2286
2025-01-26 11:41:09.80	124.90	79.49	-26.1	-25.4	18.3	0	70	2291
2025-01-26 11:41:10.20	124.27	79.65	-25.9	-25.2	18.4	0	70	2261
2025-01-26 11:41:10.61	123.60	79.82	-25.7	-25.1	18.6	0	69	2315
2025-01-26 11:41:11.01	122.93	79.99	-25.4	-24.6	18.8	0	69	2244
2025-01-26 11:41:11.41	122.23	80.15	-25.3	-24.5	18.9	0	69	2225
2025-01-26 11:41:11.81	121.51	80.31	-25.3	-24.5	18.9	0	69	2230
2025-01-26 11:41:12.21	120.76	80.47	-25.5	-24.8	18.8	0	69	2269
2025-01-26 11:41:12.62	119.97	80.63	-25.6	-24.9	18.7	0	69	2287
2025-01-26 11:41:13.02	119.17	80.79	-25.6	-25.0	18.7	0	69	2302
2025-01-26 11:41:13.42	118.34	80.95	-25.7	-25.2	18.5	0	69	2325
2025-01-26 11:41:13.82	117.49	81.10	-25.6	-25.0	18.6	0	69	2302
2025-01-26 11:41:14.22	116.60	81.25	-25.5	-24.9	18.6	0	69	2284
2025-01-26 11:41:14.63	115.66	81.40	-25.4	-24.7	18.7	0	69	2253
2025-01-26 11:41:15.03	114.71	81.55	-25.3	-24.3	18.9	0	69	2208
2025-01-26 11:41:15.43	113.72	81.69	-25.2	-24.6	19.0	0	68	2305
2025-01-26 11:41:15.83	112.70	81.84	-25.1	-24.6	19.1	0	68	2302
2025-01-26 11:41:16.23	111.64	81.98	-25.1	-24.5	19.1	0	68	2290
2025-01-26 11:41:16.63	110.55	82.11	-25.2	-24.7	19.0	0	68	2320
2025-01-26 11:41:17.04	109.39	82.25	-25.4	-25.1	18.8	0	68	2381
2025-01-26 11:41:17.44	108.21	82.38	-25.4	-25.1	18.8	0	68	2373
2025-01-26 11:41:17.84	107.00	82.51	-25.2	-24.7	18.9	0	68	2328
2025-01-26 11:41:18.24	105.74	82.63	-25.0	-24.3	19.1	0	68	2262
2025-01-26 11:41:18.64	104.44	82.75	-25.0	-24.1	19.2	0	68	2237
2025-01-26 11:41:19.05	103.06	82.87	-25.0	-24.3	19.2	0	68	2259
2025-01-26 11:41:19.45	101.67	82.99	-25.2	-24.6	19.0	0	68	2305
2025-01-26 11:41:19.85	100.24	83.10	-25.3	-24.9	18.8	0	68	2346
2025-01-26 11:41:20.25	98.76	83.20	-25.3	-24.8	18.9	0	68	2332
2025-01-26 11:41:20.65	97.24	83.30	-25.5	-25.1	18.8	0	68	2376
2025-01-26 11:41:21.05	95.67	83.39	-25.4	-25.1	18.8	0	68	2369
2025-01-26 11:41:21.45	94.05	83.48	-25.7	-25.6	18.7	0	68	2445
2025-01-26 11:41:21.86	92.35	83.57	-25.9	-26.0	18.4	0	68	2493
2025-01-26 11:41:22.26	90.65	83.65	-26.0	-25.7	18.3	0	69	2376
2025-01-26 11:41:22.66	88.90	83.72	-26.1	-26.0	18.1	0	69	2433
2025-01-26 11:41:23.06	87.12	83.79	-26.1	-26.0	18.1	0	69	2427
2025-01-26 11:41:23.46	85.30	83.85	-26.1	-25.9	18.0	0	69	2418
2025-01-26 11:41:23.86	83.44	83.91	-26.1	-26.0	18.0	0	69	2423
2025-01-26 11:41:24.27	81.50	83.95	-26.1	-26.0	17.9	0	69	2425
2025-01-26 11:41:24.67	79.58	84.00	-26.2	-26.1	17.9	0	69	2440
2025-01-26 11:41:25.07	77.64	84.03	-26.4	-26.6	17.9	0	69	2516
2025-01-26 11:41:25.47	75.68	84.06	-26.3	-26.3	18.0	0	69	2475
2025-01-26 11:41:25.87	73.70	84.08	-26.2	-26.3	18.1	0	69	2467
2025-01-26 11:41:26.28	71.66	84.09	-26.3	-26.3	18.1	0	69	2472
2025-01-26 11:41:26.68	69.66	84.10	-26.1	-26.0	18.2	0	69	2426
2025-01-26 11:41:27.08	67.66	84.10	-26.1	-26.0	18.2	0	69	2423
2025-01-26 11:41:27.48	65.66	84.09	-26.1	-25.9	18.2	0	69	2408
2025-01-26 11:41:27.88	63.67	84.08	-26.1	-26.0	18.2	0	69	2431
2025-01-26 11:41:28.29	61.65	84.05	-26.3	-26.3	18.1	0	69	2474
2025-01-26 11:41:28.69	59.69	84.03	-26.3	-26.4	18.1	0	69	2489
2025-01-26 11:41:29.09	57.75	83.99	-26.3	-26.3	18.1	0	69	2476
2025-01-26 11:41:29.49	55.84	83.95	-26.4	-26.5	18.0	0	69	2506
2025-01-26 11:41:29.89	53.95	83.90	-26.4	-26.6	18.1	0	69	2513
2025-01-26 11:41:30.29	52.10	83.84	-26.4	-26.5	18.1	0	69	2498
2025-01-26 11:41:30.70	50.24	83.78	-26.1	-26.0	18.2	0	69	2428
2025-01-26 11:41:31.10	48.47	83.71	-26.1	-25.9	18.3	0	69	2418
2025-01-26 11:41:31.50	46.73	83.63	-26.1	-26.0	18.3	0	69	2421
2025-01-26 11:41:31.90	45.04	83.55	-26.1	-25.9	18.2	0	69	2413
2025-01-26 11:41:32.30	43.38	83.47	-26.1	-26.0	18.1	0	69	2423
2025-01-26 11:41:32.71	41.74	83.38	-26.3	-26.3	18.0	0	69	2464
2025-01-26 11:41:33.11	40.18	83.28	-26.3	-26.3	18.1	0	69	2469
2025-01-26 11:41:33.51	38.66	83.18	-26.3	-26.5	18.0	0	69	2500
2025-01-26 11:41:33.91	37.19	83.08	-26.5	-26.8	17.9	0	69	2542
2025-01-26 11:41:34.31	35.76	82.97	-26.5	-26.2	18.0	0	70	2389
2025-01-26 11:41:34.72	34.35	82.85	-26.3	-25.9	18.1	0	70	2343
2025-01-26 11:41:35.12	33.02	82.73	-26.1	-25.5	18.2	0	70	2300
2025-01-26 11:41:35.52	31.72	82.61	-26.0	-25.3	18.3	0	70	2270
2025-01-26 11:41:35.92	30.48	82.49	-25.9	-25.1	18.5	0	70	2237
2025-01-26 11:41:36.32	29.27	82.36	-25.9	-25.2	18.6	0	70	2254
2025-01-26 11:41:36.72	28.10	82.23	-26.0	-25.2	18.5	0	70	2258
2025-01-26 11:41:37.13	26.95	82.09	-26.1	-25.4	18.4	0	70	2288
2025-01-26 11:41:37.53	25.86	81.95	-26.4	-26.1	18.2	0	70	2382
2025-01-26 11:41:37.93	24.81	81.81	-26.4	-26.1	18.2	0	70	2382
2025-01-26 11:41:38.33	23.80	81.67	-26.3	-25.9	18.2	0	70	2351
2025-01-26 11:41:38.73	22.82	81.52	-26.3	-25.9	18.3	0	70	2352
2025-01-26 11:41:39.13	21.87	81.38	-26.3	-26.0	18.4	0	70	2360
2025-01-26 11:41:39.54	20.94	81.22	-26.3	-25.9	18.3	0	70	2351
2025-01-26 11:41:39.94	20.06	81.07	-26.2	-25.7	18.4	0	70	2313
2025-01-26 11:41:40.34	19.21	80.92	-26.2	-25.6	18.4	0	70	2309
2025-01-26 11:41:40.74	18.39	80.76	-26.2	-25.6	18.3	0	70	2305
2025-01-26 11:41:41.15	17.57	80.60	-26.2	-25.6	18.2	0	70	2312
2025-01-26 11:41:41.55	16.80	80.44	-26.3	-25.8	18.2	0	70	2333
2025-01-26 11:41:41.95	16.06	80.28	-26.4	-26.2	18.1	0	70	2389
2025-01-26 11:41:42.35	15.35	80.12	-26.4	-26.1	18.1	0	70	2385
2025-01-26 11:41:42.75	14.65	79.96	-26.5	-26.4	18.0	0	70	2421
2025-01-26 11:41:43.15	13.98	79.80	-26.4	-26.2	18.1	0	70	2389
2025-01-26 11:41:43.56	13.32	79.63	-26.5	-26.2	18.0	0	70	2399
2025-01-26 11:41:43.96	12.69	79.46	-26.7	-26.7	17.9	0	70	2461
2025-01-26 11:41:44.36	12.08	79.29	-26.6	-26.6	17.8	0	70	2444
2025-01-26 11:41:44.76	11.50	79.12	-26.7	-26.7	17.9	0	70	2471
2025-01-26 11:41:45.16	10.93	78.96	-26.8	-26.9	17.8	0	70	2497
2025-01-26 11:41:45.57	10.36	78.78	-26.8	-26.9	17.7	0	70	2496
2025-01-26 11:41:45.97	9.83	78.61	-26.8	-26.9	17.7	0	70	2488
2025-01-26 11:41:46.37	9.31	78.44	-26.7	-26.6	17.7	0	70	2452
2025-01-26 11:41:46.77	8.80	78.27	-26.7	-26.7	17.6	0	70	2465
2025-01-26 11:41:47.17	8.32	78.09	-26.7	-26.6	17.6	0	70	2444
2025-01-26 11:41:47.57	7.84	77.92	-26.7	-26.7	17.5	0	70	2447
2025-01-26 11:41:47.98	7.37	77.74	-26.8	-26.8	17.3	0	70	2469
2025-01-26 11:41:48.38	6.92	77.56	-26.6	-26.5	17.3	0	70	2424
2025-01-26 11:41:48.78	6.49	77.39	-26.6	-26.4	17.4	0	70	2407
2025-01-26 11:41:49.18	6.07	77.21	-26.5	-26.2	17.3	0	70	2378
2025-01-26 11:41:49.58	5.66	77.04	-26.5	-26.3	17.3	0	70	2393
2025-01-26 11:41:49.98	5.26	76.86	-26.6	-26.5	17.1	0	70	2425
2025-01-26 11:41:50.39	4.87	76.68	-26.9	-27.0	16.8	0	70	2503
2025-01-26 11:41:50.79	4.49	76.50	-27.0	-26.7	16.7	0	71	2391
2025-01-26 11:41:51.19	4.12	76.32	-27.1	-27.1	16.7	0	71	2449
2025-01-26 11:41:51.59	3.77	76.14	-27.1	-26.9	16.7	0	71	2419
2025-01-26 11:41:51.99	3.42	75.96	-27.1	-27.1	16.9	0	71	2438
2025-01-26 11:41:52.40	3.08	75.78	-27.2	-27.2	16.9	0	71	2456
2025-01-26 11:41:52.80	2.75	75.60	-27.3	-27.3	16.8	0	71	2481
2025-01-26 11:41:53.20	2.43	75.42	-27.5	-27.7	16.6	0	71	2538
2025-01-26 11:41:53.60	2.11	75.24	-27.9	-28.0	16.4	0	72	2511
2025-01-26 11:41:54.00	1.81	75.06	-28.0	-28.2	16.3	0	72	2540
2025-01-26 11:41:54.41	1.50	74.88	-28.0	-27.9	16.2	0	73	2428
2025-01-26 11:41:54.81	1.22	74.70	-28.0	-27.9	16.2	0	73	2427
2025-01-26 11:41:55.21	0.93	74.52	-28.1	-28.0	16.2	0	73	2436
2025-01-26 11:41:55.61	0.66	74.34	-28.0	-27.9	16.2	0	73	2429
2025-01-26 11:41:56.01	0.39	74.16	-28.2	-28.3	16.2	0	73	2480
2025-01-26 11:41:56.41	0.13	73.98	-28.2	-28.2	16.2	0	73	2469
2025-01-26 11:41:56.82	359.86	73.79	-28.3	-28.5	16.0	0	73	2508
2025-01-26 11:41:57.22	359.61	73.61	-28.4	-28.6	15.9	0	73	2528
2025-01-26 11:41:57.62	359.37	73.43	-28.4	-28.7	15.8	0	73	2537
2025-01-26 11:41:58.02	359.13	73.25	-28.4	-28.7	15.6	0	73	2542
2025-01-26 11:41:58.42	358.89	73.07	-28.6	-28.5	15.5	0	74	2431
2025-01-26 11:41:58.82	358.67	72.89	-28.6	-28.6	15.3	0	74	2449
2025-01-26 11:41:59.23	358.44	72.71	-28.9	-29.2	14.9	0	74	2534
2025-01-26 11:41:59.63	358.22	72.53	-28.9	-29.1	14.9	0	74	2523
2025-01-26 11:42:00.03	358.00	72.35	-28.8	-29.0	14.9	0	74	2499
2025-01-26 11:42:00.43	357.79	72.17	-28.7	-28.6	15.1	0	74	2447
2025-01-26 11:42:00.83	357.59	71.99	-28.7	-28.7	15.2	0	74	2465
2025-01-26 11:42:01.23	357.39	71.81	-28.6	-28.5	15.2	0	74	2444
2025-01-26 11:42:01.64	357.19	71.62	-28.8	-29.0	15.1	0	74	2508
2025-01-26 11:42:02.04	357.00	71.44	-28.9	-29.2	14.9	0	74	2532
2025-01-26 11:42:02.44	356.81	71.26	-29.1	-29.1	14.6	11	75	2456
2025-01-26 11:42:02.84	356.62	71.08	-29.5	-29.4	14.3	22	76	2431
2025-01-26 11:42:03.24	356.44	70.90	-29.8	-30.0	14.1	11	76	2521
2025-01-26 11:42:03.65	356.26	70.72	-29.7	-29.8	14.2	22	76	2486
2025-01-26 11:42:04.05	356.09	70.54	-29.5	-29.4	14.4	11	76	2434

#Closed at: 2025-01-26 11:42:04