passes_logs/2025/01/26/XPeterburg/XPeterburg__20250126_144552_FENGYUN_3E_rec.log

#Pass ID: 20250126_144552_FENGYUN 3E
#Satellite: FENGYUN 3E
#Configuration: FENGYUN 3E
#Start time: 2025-01-26 14:45:46

#Version: 1.5.20200625
#Station: XPeterburg
#Location: 30.318091 lon 59.932769 lat
#TLE: 1 49008U 21062A   25024.13727872  .00000118  00000+0  76315-4 0  9997
#TLE: 2 49008  98.7401  28.5376 0002591 105.8973 254.2489 14.19835318184340

#Time	Az	El	Level	Level2	SNR	BER	Gain	Gain2
2025-01-26 14:45:46.29	188.18	67.89	-38.9	-41.5	3.3	8394435	95	6613
2025-01-26 14:45:46.69	188.41	68.06	-38.0	-51.0	3.5	8327899	73	21991
2025-01-26 14:45:47.09	188.64	68.22	-38.3	-40.6	3.3	8405158	93	6379
2025-01-26 14:45:47.50	188.88	68.39	-38.2	-41.4	3.6	8424247	93	7120
2025-01-26 14:45:47.90	189.12	68.55	-38.1	-39.9	3.4	8408740	93	6035
2025-01-26 14:45:48.30	189.36	68.72	-38.0	-41.0	3.6	8419750	93	6933
2025-01-26 14:45:48.70	189.61	68.88	-37.8	-39.0	3.6	8420860	93	5652
2025-01-26 14:45:49.10	189.86	69.05	-37.6	-39.7	3.7	8375461	93	6294
2025-01-26 14:45:49.51	190.12	69.21	-37.2	-37.8	3.9	8346782	92	5249
2025-01-26 14:45:49.91	190.37	69.38	-36.8	-37.0	4.4	8163494	91	5053
2025-01-26 14:45:50.31	190.64	69.54	-35.9	-35.4	5.0	7505985	90	4637
2025-01-26 14:45:50.71	190.91	69.71	-35.1	-34.7	6.0	6329521	88	4674
2025-01-26 14:45:51.11	191.18	69.87	-34.3	-33.4	7.0	2285533	87	4461
2025-01-26 14:45:51.52	191.46	70.04	-33.4	-32.5	7.8	1052925	85	4474
2025-01-26 14:45:51.92	191.74	70.20	-32.4	-31.6	9.1	419128	83	4472
2025-01-26 14:45:52.32	192.03	70.36	-31.9	-31.0	9.8	193874	82	4436
2025-01-26 14:45:52.72	192.32	70.52	-31.3	-30.4	10.5	56282	81	4430
2025-01-26 14:45:53.13	192.63	70.69	-30.4	-29.5	11.4	15335	79	4441
2025-01-26 14:45:53.53	192.93	70.85	-30.3	-29.7	11.7	5493	78	4606
2025-01-26 14:45:53.93	193.24	71.02	-30.1	-29.4	11.9	4405	78	4525
2025-01-26 14:45:54.33	193.55	71.18	-30.2	-29.6	11.8	2838	78	4611
2025-01-26 14:45:54.73	193.87	71.34	-30.1	-29.4	11.9	2998	78	4538
2025-01-26 14:45:55.14	194.21	71.50	-30.3	-29.7	11.7	3810	78	4617
2025-01-26 14:45:55.54	194.54	71.66	-30.2	-29.6	11.7	4463	78	4592
2025-01-26 14:45:55.94	194.88	71.82	-30.3	-29.8	11.6	4634	78	4660
2025-01-26 14:45:56.34	195.22	71.98	-30.0	-29.2	11.9	5035	78	4464
2025-01-26 14:45:56.74	195.57	72.14	-30.5	-30.1	11.4	4497	78	4737
2025-01-26 14:45:57.15	195.94	72.31	-30.1	-29.9	11.8	4211	77	4806
2025-01-26 14:45:57.55	196.30	72.47	-30.2	-30.1	11.7	4199	77	4865
2025-01-26 14:45:57.95	196.67	72.62	-30.4	-30.4	11.6	3913	77	4956
2025-01-26 14:45:58.35	197.05	72.78	-30.4	-30.6	11.6	4852	77	5030
2025-01-26 14:45:58.76	197.45	72.94	-30.5	-30.6	11.6	4760	77	5016
2025-01-26 14:45:59.16	197.84	73.10	-30.6	-30.5	11.5	5607	78	4841
2025-01-26 14:45:59.56	198.24	73.26	-30.7	-30.7	11.4	7198	78	4886
2025-01-26 14:45:59.96	198.65	73.41	-30.6	-30.5	11.6	5641	78	4846
2025-01-26 14:46:00.37	199.08	73.57	-30.5	-30.3	11.7	5012	78	4776
2025-01-26 14:46:00.77	199.50	73.73	-30.4	-30.0	11.9	3021	78	4699
2025-01-26 14:46:01.17	199.94	73.88	-30.4	-30.0	11.9	3101	78	4695
2025-01-26 14:46:01.57	200.38	74.03	-30.4	-30.1	11.8	3170	78	4719
2025-01-26 14:46:01.98	200.84	74.19	-30.6	-30.4	11.6	3730	78	4811
2025-01-26 14:46:02.38	201.30	74.34	-30.7	-30.6	11.6	7152	78	4869
2025-01-26 14:46:02.78	201.77	74.49	-30.7	-30.2	11.3	9006	79	4616
2025-01-26 14:46:03.18	202.25	74.64	-31.0	-30.8	10.9	11821	79	4801
2025-01-26 14:46:03.59	202.76	74.79	-30.8	-30.2	11.2	12622	79	4628
2025-01-26 14:46:03.99	203.26	74.94	-30.7	-30.1	11.2	11730	79	4600
2025-01-26 14:46:04.39	203.77	75.09	-30.7	-30.0	11.3	9807	79	4569
2025-01-26 14:46:04.79	204.29	75.24	-30.3	-29.6	11.7	7644	78	4572
2025-01-26 14:46:05.20	204.83	75.38	-30.1	-29.3	11.9	4589	78	4494
2025-01-26 14:46:05.60	205.37	75.53	-30.0	-29.0	12.1	2906	78	4417
2025-01-26 14:46:06.00	205.93	75.67	-29.9	-29.4	12.0	2002	77	4648
2025-01-26 14:46:06.40	206.49	75.81	-29.9	-29.3	12.1	2128	77	4636
2025-01-26 14:46:06.80	207.07	75.95	-29.5	-28.6	12.4	1533	77	4431
2025-01-26 14:46:07.21	207.67	76.10	-29.8	-29.1	12.3	1739	77	4572
2025-01-26 14:46:07.61	208.28	76.23	-29.9	-29.3	12.1	4028	77	4608
2025-01-26 14:46:08.01	208.89	76.37	-30.3	-30.2	11.7	3765	77	4887
2025-01-26 14:46:08.41	209.52	76.51	-30.2	-29.9	11.8	3135	77	4776
2025-01-26 14:46:08.82	210.17	76.64	-30.0	-29.5	12.0	3856	77	4662
2025-01-26 14:46:09.22	210.83	76.77	-30.0	-29.6	12.1	4314	77	4675
2025-01-26 14:46:09.62	211.49	76.91	-30.3	-30.3	11.7	3192	77	4875
2025-01-26 14:46:10.02	212.17	77.03	-30.5	-30.6	11.6	4543	77	4990
2025-01-26 14:46:10.42	212.87	77.16	-30.3	-29.8	11.7	3696	78	4629
2025-01-26 14:46:10.83	213.59	77.29	-30.4	-30.0	11.7	6351	78	4680
2025-01-26 14:46:11.23	214.32	77.41	-30.7	-30.6	11.3	8846	78	4859
2025-01-26 14:46:11.63	215.06	77.54	-30.7	-30.1	11.3	8480	79	4592
2025-01-26 14:46:12.03	215.81	77.66	-30.7	-30.0	11.3	12989	79	4556
2025-01-26 14:46:12.44	216.59	77.78	-30.9	-30.5	11.1	15289	79	4700
2025-01-26 14:46:12.84	217.38	77.89	-30.8	-30.4	11.2	12657	79	4673
2025-01-26 14:46:13.24	218.18	78.00	-30.9	-30.5	11.1	14087	79	4663
2025-01-26 14:46:13.64	218.99	78.12	-30.9	-30.3	11.1	15724	79	4628
2025-01-26 14:46:14.05	219.84	78.23	-30.9	-30.4	11.1	14316	79	4644
2025-01-26 14:46:14.45	220.69	78.33	-30.9	-30.6	11.1	15655	79	4717
2025-01-26 14:46:14.85	221.55	78.44	-31.1	-30.8	11.0	16845	79	4783
2025-01-26 14:46:15.25	222.42	78.54	-31.1	-30.9	11.0	17726	79	4812
2025-01-26 14:46:15.65	223.32	78.64	-30.9	-30.5	11.2	16033	79	4670
2025-01-26 14:46:16.06	224.25	78.74	-31.0	-30.5	11.3	11775	79	4680
2025-01-26 14:46:16.46	225.17	78.83	-30.8	-30.3	11.4	10070	79	4616
2025-01-26 14:46:16.86	226.11	78.92	-30.9	-30.4	11.3	8731	79	4654
2025-01-26 14:46:17.26	227.07	79.01	-31.1	-30.9	11.2	9750	79	4798
2025-01-26 14:46:17.66	228.04	79.09	-31.0	-30.7	11.2	11123	79	4755
2025-01-26 14:46:18.07	229.05	79.18	-31.1	-30.8	11.2	12886	79	4754
2025-01-26 14:46:18.47	230.05	79.25	-31.2	-31.0	11.1	15930	79	4800
2025-01-26 14:46:18.87	231.07	79.33	-31.2	-31.2	11.0	15003	79	4872
2025-01-26 14:46:19.27	232.10	79.40	-31.1	-30.9	11.2	15266	79	4808
2025-01-26 14:46:19.67	233.14	79.47	-31.2	-31.0	11.2	14671	79	4821
2025-01-26 14:46:20.08	234.23	79.54	-31.1	-30.9	11.2	12748	79	4783
2025-01-26 14:46:20.48	235.30	79.60	-31.1	-30.9	11.2	11684	79	4817
2025-01-26 14:46:20.88	236.38	79.66	-31.4	-31.6	10.8	18974	79	5005
2025-01-26 14:46:21.28	237.48	79.71	-31.6	-31.3	10.8	23174	80	4791
2025-01-26 14:46:21.68	238.58	79.76	-31.6	-31.5	10.8	19283	80	4847
2025-01-26 14:46:22.09	239.73	79.81	-31.4	-31.0	11.0	16857	80	4705
2025-01-26 14:46:22.49	240.86	79.85	-31.3	-30.7	11.2	14213	80	4596
2025-01-26 14:46:22.89	242.00	79.89	-31.4	-31.0	11.0	13172	80	4669
2025-01-26 14:46:23.29	243.14	79.92	-31.4	-30.9	11.2	11970	80	4645
2025-01-26 14:46:23.70	244.32	79.96	-31.4	-30.9	11.2	14099	80	4657
2025-01-26 14:46:24.10	245.48	79.98	-31.7	-31.5	10.8	14156	80	4814
2025-01-26 14:46:24.50	246.65	80.01	-31.9	-32.1	10.5	24650	80	5017
2025-01-26 14:46:24.90	247.82	80.02	-32.0	-31.6	10.3	28495	81	4714
2025-01-26 14:46:25.30	249.00	80.04	-32.1	-31.8	10.2	56430	81	4748
2025-01-26 14:46:25.71	250.20	80.05	-32.1	-32.0	10.1	60127	81	4837
2025-01-26 14:46:26.11	251.38	80.06	-32.1	-31.9	10.2	58845	81	4806
2025-01-26 14:46:26.51	252.57	80.06	-32.4	-32.6	9.8	68344	81	5003
2025-01-26 14:46:26.91	253.75	80.06	-32.1	-31.9	10.2	79982	81	4782
2025-01-26 14:46:27.32	254.96	80.05	-32.3	-32.3	10.0	63411	81	4914
2025-01-26 14:46:27.72	256.13	80.04	-32.2	-32.1	10.1	62530	81	4854
2025-01-26 14:46:28.12	257.31	80.02	-32.1	-31.9	10.3	69499	81	4819
2025-01-26 14:46:28.52	258.48	80.01	-31.9	-31.5	10.4	57929	81	4675
2025-01-26 14:46:28.93	259.68	79.98	-32.2	-32.1	10.1	57735	81	4885
2025-01-26 14:46:29.33	260.84	79.96	-31.8	-31.2	10.5	57392	81	4593
2025-01-26 14:46:29.73	261.99	79.92	-32.3	-32.2	9.9	52951	81	4901
2025-01-26 14:46:30.13	263.13	79.89	-31.8	-31.3	10.4	49003	81	4634
2025-01-26 14:46:30.53	264.27	79.85	-31.9	-31.5	10.3	39768	81	4692
2025-01-26 14:46:30.94	265.43	79.81	-31.7	-31.1	10.6	40237	81	4602
2025-01-26 14:46:31.34	266.55	79.76	-31.9	-31.4	10.4	40191	81	4639
2025-01-26 14:46:31.74	267.65	79.71	-31.6	-30.9	10.8	33073	81	4526
2025-01-26 14:46:32.14	268.75	79.66	-31.7	-31.0	10.7	26332	81	4534
2025-01-26 14:46:32.54	269.83	79.60	-31.8	-31.2	10.6	26676	81	4602
2025-01-26 14:46:32.94	270.90	79.54	-31.5	-30.6	10.9	26630	81	4428
2025-01-26 14:46:33.35	271.99	79.47	-31.3	-30.3	11.0	21217	81	4373
2025-01-26 14:46:33.75	273.03	79.40	-31.2	-30.5	11.3	16273	80	4530
2025-01-26 14:46:34.15	274.06	79.33	-30.9	-29.9	11.6	7003	80	4401
2025-01-26 14:46:34.55	275.08	79.26	-31.0	-30.1	11.5	6660	80	4430
2025-01-26 14:46:34.95	276.08	79.18	-31.2	-30.4	11.4	8285	80	4507
2025-01-26 14:46:35.36	277.09	79.09	-31.1	-30.3	11.4	9864	80	4464
2025-01-26 14:46:35.76	278.06	79.01	-31.5	-31.0	11.0	9899	80	4672
2025-01-26 14:46:36.16	279.02	78.92	-31.1	-30.2	11.3	10688	80	4447
2025-01-26 14:46:36.56	279.96	78.83	-31.1	-30.3	11.4	8045	80	4510
2025-01-26 14:46:36.97	280.90	78.74	-31.1	-30.5	11.2	9750	80	4554
2025-01-26 14:46:37.37	281.81	78.64	-30.8	-29.8	11.6	9235	80	4373
2025-01-26 14:46:37.77	282.70	78.54	-30.8	-30.4	11.4	7610	79	4670
2025-01-26 14:46:38.17	283.58	78.44	-31.0	-30.7	11.2	9613	79	4740
2025-01-26 14:46:38.57	284.44	78.34	-30.5	-29.6	11.7	8331	79	4406
2025-01-26 14:46:38.98	285.31	78.23	-30.7	-29.9	11.5	6740	79	4516
2025-01-26 14:46:39.38	286.14	78.12	-30.8	-30.1	11.5	7724	79	4557
2025-01-26 14:46:39.78	286.95	78.01	-30.5	-29.5	11.7	5905	79	4397
2025-01-26 14:46:40.18	287.75	77.89	-30.6	-29.9	11.5	4898	79	4525
2025-01-26 14:46:40.59	288.55	77.78	-30.7	-30.0	11.4	6500	79	4544
2025-01-26 14:46:40.99	289.32	77.66	-30.4	-29.3	11.9	4302	79	4347
2025-01-26 14:46:41.39	290.07	77.54	-30.4	-29.5	11.9	3742	79	4433
2025-01-26 14:46:41.79	290.81	77.42	-30.4	-29.5	11.9	3879	79	4413
2025-01-26 14:46:42.20	291.55	77.29	-30.2	-29.4	12.2	2300	78	4501
2025-01-26 14:46:42.60	292.26	77.17	-30.2	-29.5	12.2	2002	78	4549
2025-01-26 14:46:43.00	292.95	77.04	-30.3	-29.6	12.1	2346	78	4552
2025-01-26 14:46:43.40	293.63	76.91	-30.3	-29.6	12.1	2162	78	4566
2025-01-26 14:46:43.80	294.30	76.78	-30.3	-29.6	12.1	2208	78	4574
2025-01-26 14:46:44.21	294.97	76.64	-30.5	-30.1	11.8	3501	78	4707
2025-01-26 14:46:44.61	295.61	76.51	-30.3	-29.7	12.0	3124	78	4607
2025-01-26 14:46:45.01	296.23	76.38	-30.2	-29.6	12.1	2506	78	4565
2025-01-26 14:46:45.41	296.85	76.24	-30.2	-29.6	12.1	2277	78	4597
2025-01-26 14:46:45.82	297.46	76.10	-30.0	-29.3	12.2	2265	78	4525
2025-01-26 14:46:46.22	298.05	75.96	-30.1	-29.4	12.2	2323	78	4544
2025-01-26 14:46:46.62	298.63	75.82	-30.3	-29.8	11.9	3261	78	4649
2025-01-26 14:46:47.02	299.19	75.68	-30.4	-29.9	11.8	4119	78	4659
2025-01-26 14:46:47.42	299.75	75.53	-30.4	-30.1	11.8	4692	78	4708
2025-01-26 14:46:47.83	300.30	75.39	-30.8	-30.7	11.5	6362	78	4900
2025-01-26 14:46:48.23	300.84	75.24	-30.9	-30.9	11.5	7472	78	4942
2025-01-26 14:46:48.63	301.36	75.10	-30.9	-30.9	11.4	7644	78	4937
2025-01-26 14:46:49.03	301.87	74.95	-31.0	-30.6	11.3	7312	79	4699
2025-01-26 14:46:49.44	302.38	74.80	-30.6	-29.8	11.7	6889	79	4484
2025-01-26 14:46:49.84	302.87	74.65	-30.6	-29.7	11.7	5813	79	4465
2025-01-26 14:46:50.24	303.35	74.50	-30.8	-30.1	11.5	6076	79	4584
2025-01-26 14:46:50.64	303.82	74.35	-30.9	-30.4	11.3	9269	79	4644
2025-01-26 14:46:51.04	304.28	74.20	-31.1	-30.8	11.1	10848	79	4796
2025-01-26 14:46:51.45	304.74	74.04	-31.3	-31.4	10.7	20519	79	4955
2025-01-26 14:46:51.85	305.18	73.89	-31.0	-30.8	11.0	20530	79	4766
2025-01-26 14:46:52.25	305.62	73.74	-31.0	-30.6	10.9	17635	79	4711
2025-01-26 14:46:52.65	306.04	73.58	-30.7	-30.0	11.0	19420	79	4551
2025-01-26 14:46:53.05	306.46	73.43	-30.9	-30.5	10.8	20542	79	4675
2025-01-26 14:46:53.46	306.88	73.27	-31.0	-30.7	10.7	26962	79	4733
2025-01-26 14:46:53.86	307.28	73.11	-31.1	-30.8	10.4	29514	79	4767
2025-01-26 14:46:54.26	307.67	72.95	-31.1	-30.8	10.5	38085	79	4768
2025-01-26 14:46:54.66	308.06	72.80	-31.4	-31.4	10.2	52310	79	4943
2025-01-26 14:46:55.07	308.45	72.64	-31.8	-31.8	10.0	82157	80	4945
2025-01-26 14:46:55.47	308.82	72.48	-32.0	-31.6	9.8	79101	81	4700
2025-01-26 14:46:55.87	309.18	72.32	-32.3	-32.2	9.6	91575	81	4901
2025-01-26 14:46:56.27	309.54	72.16	-32.4	-31.9	9.6	130805	82	4690
2025-01-26 14:46:56.68	309.90	72.00	-32.5	-32.3	9.5	92731	82	4783
2025-01-26 14:46:57.08	310.25	71.84	-32.5	-32.2	9.4	133495	82	4747
2025-01-26 14:46:57.48	310.58	71.68	-32.7	-32.7	9.1	136173	82	4917
2025-01-26 14:46:57.88	310.91	71.52	-33.0	-33.1	8.7	175014	82	5024
2025-01-26 14:46:58.29	311.25	71.35	-32.9	-33.1	8.6	197525	82	5025
2025-01-26 14:46:58.69	311.57	71.19	-32.9	-32.6	8.4	275882	83	4734
2025-01-26 14:46:59.09	311.88	71.03	-33.1	-32.9	8.2	312240	83	4806
2025-01-26 14:46:59.49	312.19	70.87	-33.0	-32.8	8.2	451766	83	4761
2025-01-26 14:46:59.89	312.49	70.71	-33.2	-33.0	8.0	506263	83	4827
2025-01-26 14:47:00.29	312.79	70.54	-31.8	-30.6	9.7	435333	82	4294
2025-01-26 14:47:00.70	313.09	70.38	-33.1	-33.0	8.3	393756	83	4849

#Closed at: 2025-01-26 14:47:01