passes_logs/2025/01/26/XPeterburg/XPeterburg__20250126_001256_SUOMI_NPP_rec.log

#Pass ID: 20250126_001256_SUOMI NPP
#Satellite: SUOMI NPP
#Configuration: NPP
#Start time: 2025-01-26 00:12:51

#Version: 1.5.20200625
#Station: XPeterburg
#Location: 30.318091 lon 59.932769 lat
#TLE: 1 37849U 11061A   25024.15339793  .00000271  00000+0  14952-3 0  9996
#TLE: 2 37849  98.7453 325.0263 0001298  26.4282 333.6960 14.19543828686212

#Time	Az	El	Level	Level2	SNR	BER	Gain	Gain2
2025-01-26 00:12:51.60	49.41	68.18	-39.5	-46.2	3.3	15347053	97	2676
2025-01-26 00:12:52.00	49.69	68.33	-39.5	-58.8	3.6	15280960	73	11407
2025-01-26 00:12:52.40	49.98	68.49	-39.5	-46.8	3.4	15231079	96	2870
2025-01-26 00:12:52.80	50.27	68.64	-39.7	-48.1	2.8	15231079	97	3223
2025-01-26 00:12:53.20	50.56	68.79	-39.7	-46.9	3.4	15111557	97	2807
2025-01-26 00:12:53.60	50.87	68.94	-39.5	-47.5	3.6	15218284	97	3097
2025-01-26 00:12:54.00	51.17	69.10	-39.5	-46.4	3.4	15125679	97	2717
2025-01-26 00:12:54.41	51.49	69.25	-39.4	-47.0	3.6	15214828	97	2951
2025-01-26 00:12:54.81	51.80	69.40	-39.5	-46.2	3.5	15170082	97	2644
2025-01-26 00:12:55.21	52.12	69.55	-39.4	-44.6	3.3	15176986	97	2252
2025-01-26 00:12:55.61	52.45	69.70	-39.0	-44.6	3.6	15127349	96	2354
2025-01-26 00:12:56.01	52.78	69.85	-38.8	-42.8	3.5	15109909	96	1967
2025-01-26 00:12:56.42	53.12	70.01	-38.5	-43.0	4.2	14875602	95	2065
2025-01-26 00:12:56.82	53.46	70.16	-37.9	-40.8	4.7	9594238	94	1722
2025-01-26 00:12:57.22	53.81	70.31	-37.3	-40.1	4.9	6594528	93	1711
2025-01-26 00:12:57.62	54.16	70.45	-37.6	-39.9	5.4	6594528	93	1620
2025-01-26 00:12:58.03	54.53	70.61	-37.4	-39.6	5.7	4993339	93	1585
2025-01-26 00:12:58.43	54.89	70.75	-37.4	-40.1	5.8	3861419	92	1669
2025-01-26 00:12:58.83	55.26	70.90	-37.4	-40.0	5.9	3200256	92	1659
2025-01-26 00:12:59.23	55.64	71.05	-37.4	-40.1	5.9	3262619	92	1673
2025-01-26 00:12:59.63	56.02	71.19	-37.3	-39.8	6.0	3283485	92	1634
2025-01-26 00:13:00.04	56.42	71.34	-37.6	-40.6	5.6	3218223	92	1741
2025-01-26 00:13:00.44	56.81	71.49	-37.8	-41.2	5.2	3783813	92	1831
2025-01-26 00:13:00.84	57.21	71.63	-37.9	-41.5	4.9	4941154	92	1868
2025-01-26 00:13:01.24	57.62	71.77	-38.4	-42.5	4.3	6491844	93	1981
2025-01-26 00:13:01.65	58.05	71.92	-38.4	-42.6	4.0	10539176	94	1979
2025-01-26 00:13:02.05	58.47	72.06	-38.5	-42.8	4.0	13326187	94	2015
2025-01-26 00:13:02.45	58.90	72.20	-38.6	-43.1	3.9	13547386	94	2068
2025-01-26 00:13:02.85	59.34	72.34	-38.3	-41.9	4.3	13547386	94	1868
2025-01-26 00:13:03.26	59.79	72.49	-37.9	-40.3	5.2	10964462	94	1633
2025-01-26 00:13:03.66	60.24	72.62	-37.5	-39.8	5.9	5935119	93	1591
2025-01-26 00:13:04.06	60.70	72.76	-37.2	-39.4	6.7	3455352	92	1581
2025-01-26 00:13:04.46	61.17	72.90	-37.1	-39.3	6.9	1966156	92	1585
2025-01-26 00:13:04.87	61.65	73.04	-36.9	-38.7	7.0	1631332	92	1507
2025-01-26 00:13:05.27	62.14	73.17	-37.0	-38.9	7.1	1365585	92	1538
2025-01-26 00:13:05.67	62.63	73.31	-37.1	-39.4	6.8	1339904	92	1592
2025-01-26 00:13:06.07	63.13	73.44	-36.8	-38.6	7.3	1417198	92	1499
2025-01-26 00:13:06.47	63.63	73.57	-37.0	-38.9	7.2	1144256	92	1542
2025-01-26 00:13:06.88	64.16	73.71	-36.7	-38.5	7.8	1019790	91	1524
2025-01-26 00:13:07.28	64.69	73.84	-36.3	-37.6	8.2	647422	91	1428
2025-01-26 00:13:07.68	65.22	73.96	-36.4	-37.8	8.3	647422	91	1456
2025-01-26 00:13:08.08	65.77	74.09	-36.6	-38.4	8.0	470252	91	1515
2025-01-26 00:13:08.49	66.33	74.22	-36.6	-38.4	8.0	643554	91	1516
2025-01-26 00:13:08.89	66.89	74.35	-36.8	-39.1	7.6	635581	91	1601
2025-01-26 00:13:09.29	67.46	74.47	-36.5	-38.2	8.3	708747	91	1491
2025-01-26 00:13:09.69	68.04	74.59	-36.6	-38.4	8.2	647781	91	1512
2025-01-26 00:13:10.10	68.65	74.72	-36.7	-38.6	8.0	581993	91	1539
2025-01-26 00:13:10.50	69.25	74.83	-36.6	-38.5	8.1	551277	91	1530
2025-01-26 00:13:10.90	69.86	74.95	-36.7	-38.9	7.8	553573	91	1569
2025-01-26 00:13:11.30	70.48	75.07	-37.1	-39.8	7.4	729148	91	1676
2025-01-26 00:13:11.70	71.11	75.18	-37.5	-41.0	6.6	1223190	91	1832
2025-01-26 00:13:12.11	71.76	75.30	-37.7	-41.1	6.1	2128074	92	1820
2025-01-26 00:13:12.51	72.41	75.41	-37.9	-41.6	5.8	3345146	92	1880
2025-01-26 00:13:12.91	73.07	75.52	-38.2	-41.8	5.2	3345146	93	1880
2025-01-26 00:13:13.31	73.74	75.63	-37.9	-40.8	5.9	3951393	93	1732
2025-01-26 00:13:13.71	74.42	75.73	-37.8	-40.6	6.0	3914993	93	1708
2025-01-26 00:13:14.12	75.13	75.84	-37.7	-40.4	6.0	3129119	93	1674
2025-01-26 00:13:14.52	75.83	75.94	-37.5	-39.8	6.4	2797645	93	1604
2025-01-26 00:13:14.92	76.55	76.04	-37.4	-39.5	6.8	2314880	93	1568
2025-01-26 00:13:15.32	77.27	76.14	-37.3	-39.2	6.9	1772994	93	1528
2025-01-26 00:13:15.73	78.02	76.24	-37.4	-39.3	6.8	1678833	93	1543
2025-01-26 00:13:16.13	78.76	76.33	-37.2	-39.3	7.1	1460319	92	1577
2025-01-26 00:13:16.53	79.52	76.42	-37.0	-39.0	7.3	1262176	92	1538
2025-01-26 00:13:16.93	80.28	76.51	-36.9	-38.6	7.5	1189346	92	1494
2025-01-26 00:13:17.33	81.06	76.60	-36.9	-38.6	7.5	991920	92	1491
2025-01-26 00:13:17.74	81.86	76.68	-36.8	-38.5	7.6	954116	92	1487
2025-01-26 00:13:18.14	82.66	76.77	-36.7	-38.4	8.0	954116	91	1501
2025-01-26 00:13:18.54	83.47	76.85	-36.5	-38.0	8.4	821647	91	1461
2025-01-26 00:13:18.94	84.28	76.92	-36.5	-38.0	8.4	546211	91	1462
2025-01-26 00:13:19.35	85.13	77.00	-36.7	-38.4	8.1	421531	91	1512
2025-01-26 00:13:19.75	85.97	77.07	-36.9	-38.9	7.6	646263	91	1550
2025-01-26 00:13:20.15	86.81	77.14	-37.4	-40.3	6.7	1010551	91	1722
2025-01-26 00:13:20.55	87.66	77.21	-37.5	-40.2	6.3	1693214	92	1665
2025-01-26 00:13:20.96	88.55	77.27	-37.8	-40.8	5.8	2486946	92	1749
2025-01-26 00:13:21.36	89.42	77.33	-37.8	-40.8	5.7	3447578	92	1732
2025-01-26 00:13:21.76	90.30	77.39	-37.7	-40.4	5.9	3468070	92	1687
2025-01-26 00:13:22.16	91.19	77.45	-37.6	-40.1	6.2	2853576	92	1646
2025-01-26 00:13:22.57	92.11	77.50	-37.2	-39.1	6.8	2267005	92	1531
2025-01-26 00:13:22.97	93.02	77.55	-37.3	-39.3	6.7	2267005	92	1550
2025-01-26 00:13:23.37	93.93	77.60	-37.2	-39.0	6.9	1929031	92	1521
2025-01-26 00:13:23.77	94.85	77.64	-37.1	-38.9	6.9	1772575	92	1511
2025-01-26 00:13:24.17	95.77	77.68	-37.2	-39.0	6.9	1452674	92	1528
2025-01-26 00:13:24.58	96.72	77.72	-37.3	-39.4	6.8	1529724	92	1572
2025-01-26 00:13:24.98	97.66	77.75	-37.4	-39.6	6.7	1719512	92	1588
2025-01-26 00:13:25.38	98.60	77.78	-37.3	-39.5	6.6	1809448	92	1583
2025-01-26 00:13:25.78	99.55	77.81	-37.5	-39.8	6.4	2009864	92	1609
2025-01-26 00:13:26.18	100.50	77.83	-37.9	-40.9	5.6	2632156	92	1753
2025-01-26 00:13:26.59	101.47	77.85	-37.7	-40.5	5.9	3448692	92	1686
2025-01-26 00:13:26.99	102.43	77.87	-37.9	-40.9	5.6	3638694	92	1737
2025-01-26 00:13:27.39	103.39	77.88	-37.8	-40.5	5.7	3851432	92	1678
2025-01-26 00:13:27.79	104.35	77.89	-37.5	-39.8	6.3	2963218	92	1606
2025-01-26 00:13:28.19	105.31	77.90	-37.5	-39.9	6.4	2963218	92	1627
2025-01-26 00:13:28.60	106.30	77.91	-37.6	-40.3	6.1	2357154	92	1676
2025-01-26 00:13:29.00	107.26	77.91	-37.7	-40.6	5.9	2693824	92	1708
2025-01-26 00:13:29.40	108.23	77.90	-37.6	-40.1	6.2	3104797	92	1648
2025-01-26 00:13:29.80	109.19	77.90	-37.2	-39.1	6.7	2777664	92	1531
2025-01-26 00:13:30.21	110.18	77.89	-36.8	-37.9	7.6	1782653	92	1401
2025-01-26 00:13:30.61	111.14	77.88	-36.6	-38.2	7.8	1009262	91	1465
2025-01-26 00:13:31.01	112.10	77.86	-36.4	-37.6	8.3	718818	91	1414
2025-01-26 00:13:31.41	113.05	77.84	-36.0	-37.2	8.6	507308	90	1416
2025-01-26 00:13:31.81	114.00	77.82	-35.8	-36.8	8.8	382270	90	1379
2025-01-26 00:13:32.22	114.97	77.79	-35.5	-36.6	9.3	252746	89	1390
2025-01-26 00:13:32.62	115.92	77.76	-35.9	-37.6	8.7	233474	89	1493
2025-01-26 00:13:33.02	116.85	77.73	-36.4	-38.8	8.0	233474	89	1615
2025-01-26 00:13:33.42	117.79	77.69	-36.9	-39.7	7.0	523208	90	1683
2025-01-26 00:13:33.82	118.72	77.66	-37.7	-40.6	5.7	1089538	92	1715
2025-01-26 00:13:34.23	119.66	77.61	-38.1	-41.1	5.1	3019554	93	1745
2025-01-26 00:13:34.63	120.57	77.57	-38.1	-41.1	5.0	5130775	93	1733
2025-01-26 00:13:35.03	121.48	77.52	-37.9	-40.5	5.3	5843650	93	1658
2025-01-26 00:13:35.43	122.38	77.47	-37.6	-39.5	5.9	4736221	93	1544
2025-01-26 00:13:35.84	123.30	77.41	-37.2	-39.0	6.4	3020462	92	1511
2025-01-26 00:13:36.24	124.18	77.36	-36.6	-38.1	7.6	1860656	91	1461
2025-01-26 00:13:36.64	125.06	77.30	-36.4	-37.7	7.9	941062	91	1425
2025-01-26 00:13:37.04	125.92	77.23	-36.5	-37.9	7.9	678581	91	1440
2025-01-26 00:13:37.45	126.80	77.17	-36.6	-38.2	7.6	821655	91	1480
2025-01-26 00:13:37.85	127.65	77.10	-37.1	-39.6	7.0	1088653	91	1637
2025-01-26 00:13:38.25	128.49	77.03	-37.2	-39.7	6.8	1088653	91	1649
2025-01-26 00:13:38.65	129.32	76.96	-36.8	-38.7	7.3	1629547	91	1526
2025-01-26 00:13:39.06	130.16	76.88	-37.0	-39.1	7.0	1376396	91	1577
2025-01-26 00:13:39.46	130.98	76.80	-37.1	-39.6	6.9	1230987	91	1638
2025-01-26 00:13:39.86	131.78	76.72	-37.5	-40.5	6.3	1612480	91	1745
2025-01-26 00:13:40.26	132.57	76.63	-37.8	-41.1	5.3	2606887	92	1801
2025-01-26 00:13:40.66	133.35	76.55	-37.9	-41.2	5.3	4163200	92	1802
2025-01-26 00:13:41.07	134.14	76.46	-37.9	-41.2	5.3	4709930	92	1800
2025-01-26 00:13:41.47	134.89	76.37	-37.6	-40.5	5.8	4240043	92	1703
2025-01-26 00:13:41.87	135.64	76.27	-37.4	-39.8	6.2	2975280	92	1621
2025-01-26 00:13:42.27	136.38	76.18	-37.1	-39.1	6.6	2378639	92	1547
2025-01-26 00:13:42.67	137.11	76.08	-36.8	-38.4	7.2	1517311	92	1467
2025-01-26 00:13:43.08	137.84	75.98	-36.5	-38.0	8.0	1517311	91	1459
2025-01-26 00:13:43.48	138.55	75.88	-36.1	-37.5	8.4	772781	90	1457
2025-01-26 00:13:43.88	139.25	75.78	-36.2	-37.9	8.3	447120	90	1495
2025-01-26 00:13:44.28	139.93	75.67	-36.6	-39.0	7.6	460487	90	1627
2025-01-26 00:13:44.69	140.62	75.56	-37.3	-40.3	6.6	854064	91	1734
2025-01-26 00:13:45.09	141.29	75.45	-37.4	-40.0	6.3	1829109	92	1654
2025-01-26 00:13:45.49	141.94	75.34	-37.3	-39.6	6.6	2175880	92	1612
2025-01-26 00:13:45.89	142.59	75.23	-37.5	-40.2	6.2	1902496	92	1684
2025-01-26 00:13:46.30	143.24	75.11	-37.2	-39.5	6.8	2199966	92	1596
2025-01-26 00:13:46.70	143.86	75.00	-37.5	-40.2	6.4	1794631	92	1685
2025-01-26 00:13:47.10	144.48	74.88	-37.3	-39.9	6.5	2042457	92	1656
2025-01-26 00:13:47.50	145.08	74.76	-37.2	-39.5	6.7	1836624	92	1604
2025-01-26 00:13:47.91	145.69	74.64	-36.7	-38.6	7.9	1179809	91	1527
2025-01-26 00:13:48.31	146.27	74.52	-36.3	-37.5	8.6	1179809	91	1425
2025-01-26 00:13:48.71	146.85	74.39	-36.1	-37.7	8.6	480056	90	1489
2025-01-26 00:13:49.11	147.41	74.27	-36.1	-37.9	8.5	382453	90	1511
2025-01-26 00:13:49.51	147.97	74.14	-36.4	-38.7	8.0	386245	90	1606
2025-01-26 00:13:49.92	148.53	74.01	-36.4	-38.7	7.9	530906	90	1605
2025-01-26 00:13:50.32	149.07	73.88	-36.3	-38.4	8.2	683967	90	1561
2025-01-26 00:13:50.72	149.60	73.75	-35.8	-37.1	8.9	545265	90	1431
2025-01-26 00:13:51.12	150.12	73.62	-36.0	-37.5	8.7	291397	90	1473
2025-01-26 00:13:51.52	150.63	73.49	-35.9	-37.3	9.0	276473	90	1448
2025-01-26 00:13:51.93	151.14	73.36	-35.9	-37.5	8.9	261924	90	1465
2025-01-26 00:13:52.33	151.64	73.22	-36.2	-38.2	8.4	296340	90	1548
2025-01-26 00:13:52.73	152.12	73.09	-36.7	-39.3	7.5	721176	90	1672
2025-01-26 00:13:53.13	152.60	72.95	-37.4	-40.5	6.6	721176	91	1775
2025-01-26 00:13:53.54	153.08	72.81	-37.3	-39.8	6.5	1468780	92	1640
2025-01-26 00:13:53.94	153.55	72.67	-37.0	-39.1	7.0	2298973	92	1554
2025-01-26 00:13:54.34	154.00	72.53	-36.7	-38.6	7.7	1566261	91	1528
2025-01-26 00:13:54.74	154.45	72.40	-36.3	-37.7	8.3	989112	91	1442
2025-01-26 00:13:55.14	154.89	72.26	-36.6	-38.5	7.8	529708	91	1525
2025-01-26 00:13:55.55	155.33	72.11	-36.6	-38.5	7.7	626342	91	1535
2025-01-26 00:13:55.95	155.76	71.97	-37.3	-40.4	6.5	872787	91	1765
2025-01-26 00:13:56.35	156.18	71.83	-37.7	-41.0	5.7	2311592	92	1815
2025-01-26 00:13:56.75	156.59	71.68	-38.1	-41.7	4.9	4511863	93	1868
2025-01-26 00:13:57.16	157.00	71.54	-38.1	-41.6	4.8	6252799	93	1851
2025-01-26 00:13:57.56	157.40	71.39	-38.1	-41.7	4.7	6694961	93	1861
2025-01-26 00:13:57.96	157.79	71.25	-38.2	-42.1	4.5	7834640	93	1925
2025-01-26 00:13:58.36	158.17	71.10	-38.5	-42.8	3.9	7834640	94	2032
2025-01-26 00:13:58.76	158.55	70.95	-38.5	-43.0	3.8	10567893	94	2048
2025-01-26 00:13:59.17	158.94	70.80	-38.5	-44.2	3.7	13829269	94	2382
2025-01-26 00:13:59.57	159.30	70.65	-38.3	-42.6	4.1	14385566	94	2019
2025-01-26 00:13:59.97	159.66	70.51	-38.1	-41.1	4.5	11142585	94	1746
2025-01-26 00:14:00.37	160.02	70.36	-39.6	-48.1	3.6	8219406	96	3288

#Closed at: 2025-01-26 00:14:00