passes_logs/2025/01/26/XPeterburg/XPeterburg__20250126_045322_FENGYUN_3E_rec.log

#Pass ID: 20250126_045322_FENGYUN 3E
#Satellite: FENGYUN 3E
#Configuration: FENGYUN 3E
#Start time: 2025-01-26 04:53:15

#Version: 1.5.20200625
#Station: XPeterburg
#Location: 30.318091 lon 59.932769 lat
#TLE: 1 49008U 21062A   25024.13727872  .00000118  00000+0  76315-4 0  9997
#TLE: 2 49008  98.7401  28.5376 0002591 105.8973 254.2489 14.19835318184340

#Time	Az	El	Level	Level2	SNR	BER	Gain	Gain2
2025-01-26 04:53:15.97	342.41	67.89	-38.8	-40.7	3.3	8390087	95	6146
2025-01-26 04:53:16.17	342.25	67.95	-37.1	-59.6	2.8	6469814	46	65534
2025-01-26 04:53:16.37	342.08	68.02	-38.0	-51.7	3.5	8284606	72	23600
2025-01-26 04:53:16.57	341.91	68.09	-38.4	-41.0	3.3	8413204	93	6613
2025-01-26 04:53:16.77	341.74	68.16	-38.4	-40.8	3.3	8413204	93	6512
2025-01-26 04:53:16.98	341.56	68.24	-38.3	-41.4	3.6	8386207	94	7037
2025-01-26 04:53:17.18	341.39	68.31	-38.2	-41.2	3.6	8357894	94	6931
2025-01-26 04:53:17.38	341.22	68.37	-38.2	-40.0	3.4	8446380	94	6033
2025-01-26 04:53:17.58	341.05	68.44	-38.2	-39.6	3.3	8400135	94	5823
2025-01-26 04:53:17.78	340.87	68.51	-38.1	-40.7	3.6	8397125	94	6649
2025-01-26 04:53:17.98	340.70	68.58	-38.0	-40.5	3.6	8427852	94	6552
2025-01-26 04:53:18.18	340.52	68.65	-38.0	-39.2	3.5	8433563	94	5704
2025-01-26 04:53:18.38	340.34	68.72	-37.8	-38.4	3.5	8433563	94	5282
2025-01-26 04:53:18.58	340.16	68.79	-37.8	-38.9	3.5	8387134	93	5586
2025-01-26 04:53:18.78	339.98	68.85	-37.7	-40.0	3.6	8384090	93	6391
2025-01-26 04:53:18.99	339.79	68.92	-37.6	-38.7	3.7	8424018	93	5618
2025-01-26 04:53:19.19	339.60	68.99	-37.4	-37.7	3.7	8387763	93	5085
2025-01-26 04:53:19.39	339.42	69.06	-37.2	-37.6	3.8	8350341	92	5156
2025-01-26 04:53:19.59	339.23	69.13	-37.0	-37.0	4.0	8314830	92	4952
2025-01-26 04:53:19.79	339.04	69.19	-36.8	-37.0	4.2	8234813	91	5050
2025-01-26 04:53:19.99	338.86	69.26	-36.5	-36.3	4.4	8234813	91	4809
2025-01-26 04:53:20.19	338.67	69.33	-35.9	-35.5	4.7	8092712	90	4673
2025-01-26 04:53:20.39	338.47	69.40	-35.6	-35.2	5.1	7802341	89	4672
2025-01-26 04:53:20.59	338.28	69.46	-35.3	-34.4	5.4	7355255	89	4454
2025-01-26 04:53:20.80	338.08	69.53	-34.9	-34.1	5.9	5659091	88	4479
2025-01-26 04:53:21.00	337.88	69.60	-34.5	-33.6	6.5	3156394	87	4478
2025-01-26 04:53:21.20	337.68	69.66	-33.8	-33.4	7.0	2091831	85	4684
2025-01-26 04:53:21.40	337.49	69.73	-33.4	-32.4	7.5	1279529	85	4431
2025-01-26 04:53:21.60	337.29	69.80	-32.9	-32.1	8.0	841232	84	4463
2025-01-26 04:53:21.80	337.09	69.86	-32.6	-31.8	8.5	841232	83	4525
2025-01-26 04:53:22.00	336.88	69.93	-32.3	-31.3	8.9	536499	83	4380
2025-01-26 04:53:22.20	336.68	69.99	-32.0	-31.3	9.3	329532	82	4527
2025-01-26 04:53:22.40	336.47	70.06	-31.6	-30.9	9.8	200305	81	4544
2025-01-26 04:53:22.60	336.27	70.12	-31.7	-31.7	9.8	112415	80	4921
2025-01-26 04:53:22.80	336.06	70.19	-31.2	-30.6	10.4	71010	80	4579
2025-01-26 04:53:23.00	335.85	70.25	-31.0	-30.2	10.5	50159	80	4488
2025-01-26 04:53:23.21	335.63	70.32	-30.5	-29.7	11.0	30658	79	4477
2025-01-26 04:53:23.41	335.41	70.38	-30.8	-30.3	10.6	30658	79	4624
2025-01-26 04:53:23.61	335.20	70.44	-30.8	-30.3	10.6	29411	79	4654
2025-01-26 04:53:23.81	334.98	70.51	-30.5	-29.6	11.0	34069	79	4450
2025-01-26 04:53:24.01	334.77	70.57	-30.8	-30.2	10.6	27053	79	4601
2025-01-26 04:53:24.21	334.55	70.63	-31.0	-30.6	10.5	36701	79	4703
2025-01-26 04:53:24.41	334.33	70.70	-30.8	-30.3	10.7	41118	79	4654
2025-01-26 04:53:24.61	334.10	70.76	-30.8	-30.2	10.7	34618	79	4608
2025-01-26 04:53:24.81	333.88	70.82	-30.7	-30.0	10.9	27957	79	4542
2025-01-26 04:53:25.01	333.66	70.88	-30.4	-29.4	11.2	19958	79	4380
2025-01-26 04:53:25.21	333.43	70.95	-30.4	-29.4	11.3	19958	79	4400
2025-01-26 04:53:25.42	333.19	71.01	-30.5	-29.6	11.3	15438	79	4463
2025-01-26 04:53:25.62	332.96	71.07	-30.4	-29.5	11.3	12954	79	4412
2025-01-26 04:53:25.82	332.73	71.13	-30.4	-29.4	11.4	12931	79	4385
2025-01-26 04:53:26.02	332.50	71.19	-30.6	-29.8	11.2	12508	79	4511
2025-01-26 04:53:26.22	332.26	71.25	-30.5	-29.8	11.2	13034	79	4506
2025-01-26 04:53:26.42	332.03	71.31	-30.4	-29.5	11.4	11947	79	4444
2025-01-26 04:53:26.62	331.79	71.37	-30.4	-29.5	11.4	10631	79	4448
2025-01-26 04:53:26.82	331.55	71.43	-30.4	-29.5	11.4	10631	79	4417
2025-01-26 04:53:27.02	331.31	71.49	-30.4	-29.5	11.4	10025	79	4437
2025-01-26 04:53:27.22	331.06	71.55	-30.3	-29.3	11.5	10025	79	4382
2025-01-26 04:53:27.42	330.82	71.61	-30.5	-29.6	11.4	9807	79	4465
2025-01-26 04:53:27.62	330.57	71.67	-30.3	-29.3	11.5	10402	79	4365
2025-01-26 04:53:27.82	330.33	71.73	-30.5	-30.1	11.5	8903	78	4730
2025-01-26 04:53:28.03	330.06	71.79	-30.5	-30.1	11.5	8331	78	4747
2025-01-26 04:53:28.23	329.81	71.85	-30.3	-29.8	11.7	9647	78	4610
2025-01-26 04:53:28.43	329.56	71.90	-30.4	-30.0	11.6	8823	78	4716
2025-01-26 04:53:28.63	329.30	71.96	-30.5	-30.3	11.6	8434	78	4795
2025-01-26 04:53:28.83	329.05	72.02	-30.2	-29.4	11.8	8434	78	4518
2025-01-26 04:53:29.03	328.79	72.07	-30.4	-30.0	11.7	7919	78	4721
2025-01-26 04:53:29.23	328.53	72.13	-30.2	-29.6	12.0	5893	78	4610
2025-01-26 04:53:29.43	328.27	72.19	-30.0	-29.2	12.2	4680	78	4495
2025-01-26 04:53:29.63	328.01	72.24	-29.9	-29.0	12.2	3787	78	4413
2025-01-26 04:53:29.83	327.74	72.30	-29.7	-29.0	12.4	2883	77	4534
2025-01-26 04:53:30.03	327.47	72.35	-29.7	-29.0	12.4	2059	77	4563
2025-01-26 04:53:30.23	327.21	72.41	-29.7	-29.2	12.4	1247	77	4602
2025-01-26 04:53:30.44	326.92	72.46	-29.6	-28.8	12.5	1407	77	4475
2025-01-26 04:53:30.64	326.65	72.52	-29.5	-28.6	12.7	1407	77	4439
2025-01-26 04:53:30.84	326.38	72.57	-29.5	-28.6	12.6	1293	77	4423
2025-01-26 04:53:31.04	326.10	72.62	-29.5	-28.5	12.6	1224	77	4393
2025-01-26 04:53:31.24	325.82	72.68	-29.5	-28.7	12.6	1155	77	4476
2025-01-26 04:53:31.44	325.54	72.73	-29.7	-29.1	12.4	1270	77	4610
2025-01-26 04:53:31.64	325.26	72.78	-29.7	-29.2	12.3	1716	77	4632
2025-01-26 04:53:31.84	324.98	72.83	-29.7	-29.0	12.3	1705	77	4532
2025-01-26 04:53:32.04	324.70	72.88	-29.6	-28.9	12.3	2254	77	4496
2025-01-26 04:53:32.24	324.41	72.94	-29.7	-29.0	12.3	2254	77	4562
2025-01-26 04:53:32.44	324.12	72.99	-29.9	-29.5	12.2	1590	77	4676
2025-01-26 04:53:32.65	323.82	73.04	-29.6	-28.8	12.3	2815	77	4467
2025-01-26 04:53:32.85	323.52	73.09	-29.6	-28.7	12.4	2391	77	4454
2025-01-26 04:53:33.05	323.23	73.14	-29.8	-29.1	12.1	1831	77	4571
2025-01-26 04:53:33.25	322.94	73.19	-29.7	-29.1	12.3	2826	77	4587
2025-01-26 04:53:33.45	322.64	73.23	-29.7	-29.1	12.2	2334	77	4587
2025-01-26 04:53:33.65	322.34	73.28	-29.7	-29.1	12.3	2494	77	4610
2025-01-26 04:53:33.85	322.04	73.33	-29.8	-29.3	12.1	2037	77	4633
2025-01-26 04:53:34.05	321.74	73.38	-29.5	-28.7	12.4	2037	77	4479
2025-01-26 04:53:34.25	321.43	73.42	-29.7	-29.0	12.2	2071	77	4562
2025-01-26 04:53:34.45	321.12	73.47	-29.5	-28.7	12.4	2174	77	4495
2025-01-26 04:53:34.66	320.80	73.52	-29.4	-28.3	12.5	1979	77	4347
2025-01-26 04:53:34.86	320.49	73.56	-29.3	-28.6	12.5	1361	76	4539
2025-01-26 04:53:35.06	320.18	73.61	-29.3	-28.7	12.5	1316	76	4576
2025-01-26 04:53:35.26	319.87	73.65	-29.2	-28.4	12.7	1018	76	4518
2025-01-26 04:53:35.46	319.55	73.70	-29.2	-28.4	12.7	858	76	4494
2025-01-26 04:53:35.66	319.23	73.74	-29.2	-28.4	12.7	858	76	4480
2025-01-26 04:53:35.86	318.91	73.78	-29.1	-28.4	12.8	858	76	4526
2025-01-26 04:53:36.06	318.59	73.83	-29.1	-28.2	12.8	778	76	4456
2025-01-26 04:53:36.26	318.27	73.87	-29.1	-28.2	12.8	617	76	4446
2025-01-26 04:53:36.46	317.95	73.91	-28.9	-27.9	13.0	686	76	4356
2025-01-26 04:53:36.66	317.62	73.95	-29.1	-28.1	12.8	652	76	4425
2025-01-26 04:53:36.87	317.28	74.00	-29.1	-28.2	12.8	480	76	4446
2025-01-26 04:53:37.07	316.95	74.04	-29.0	-27.9	13.0	629	76	4359
2025-01-26 04:53:37.27	316.62	74.08	-29.0	-28.1	13.0	629	76	4428
2025-01-26 04:53:37.47	316.28	74.11	-29.0	-28.0	13.0	389	76	4398
2025-01-26 04:53:37.67	315.95	74.15	-29.1	-28.3	12.9	411	76	4487
2025-01-26 04:53:37.87	315.61	74.19	-29.1	-28.3	12.9	446	76	4463
2025-01-26 04:53:38.07	315.27	74.23	-29.1	-28.3	13.0	514	76	4476
2025-01-26 04:53:38.27	314.93	74.27	-29.2	-28.4	13.1	503	76	4494
2025-01-26 04:53:38.47	314.59	74.30	-29.0	-28.1	13.1	446	76	4410
2025-01-26 04:53:38.67	314.25	74.34	-29.2	-28.5	13.0	446	76	4524
2025-01-26 04:53:38.87	313.90	74.37	-29.2	-28.5	13.1	389	76	4528
2025-01-26 04:53:39.07	313.56	74.41	-29.1	-28.1	13.0	400	76	4419
2025-01-26 04:53:39.28	313.19	74.45	-29.5	-29.3	12.8	400	76	4785
2025-01-26 04:53:39.48	312.84	74.48	-29.2	-28.5	13.0	400	76	4535
2025-01-26 04:53:39.68	312.49	74.51	-29.2	-28.5	13.0	595	76	4532
2025-01-26 04:53:39.88	312.14	74.55	-29.3	-28.7	12.9	411	76	4603
2025-01-26 04:53:40.08	311.78	74.58	-29.4	-28.9	12.8	595	76	4624
2025-01-26 04:53:40.28	311.43	74.61	-29.3	-28.7	12.9	778	76	4566
2025-01-26 04:53:40.48	311.07	74.64	-29.5	-29.1	12.7	652	76	4698
2025-01-26 04:53:40.68	310.71	74.67	-29.5	-29.0	12.7	766	76	4654
2025-01-26 04:53:40.88	310.35	74.70	-29.5	-29.1	12.6	823	76	4675
2025-01-26 04:53:41.08	309.99	74.73	-29.5	-29.1	12.6	823	76	4684
2025-01-26 04:53:41.28	309.63	74.76	-29.5	-29.1	12.6	846	76	4695
2025-01-26 04:53:41.49	309.24	74.79	-29.6	-29.3	12.6	766	76	4744
2025-01-26 04:53:41.69	308.88	74.82	-29.7	-29.5	12.5	1052	76	4825
2025-01-26 04:53:41.89	308.51	74.84	-29.8	-29.6	12.4	1567	76	4841
2025-01-26 04:53:42.09	308.14	74.87	-29.7	-29.4	12.6	1647	76	4782
2025-01-26 04:53:42.29	307.77	74.90	-29.7	-29.4	12.5	1178	76	4787
2025-01-26 04:53:42.49	307.40	74.92	-29.7	-29.5	12.6	1361	76	4801
2025-01-26 04:53:42.69	307.02	74.95	-29.7	-29.5	12.6	1361	76	4810
2025-01-26 04:53:42.89	306.65	74.97	-29.5	-29.1	12.8	1041	76	4687
2025-01-26 04:53:43.09	306.27	74.99	-29.6	-29.3	12.6	1007	76	4762
2025-01-26 04:53:43.29	305.90	75.02	-29.3	-28.7	12.9	1075	76	4579
2025-01-26 04:53:43.49	305.52	75.04	-29.6	-29.2	12.6	881	76	4720
2025-01-26 04:53:43.70	305.12	75.06	-29.6	-29.2	12.6	835	76	4728
2025-01-26 04:53:43.90	304.74	75.08	-29.5	-29.1	12.7	1190	76	4696
2025-01-26 04:53:44.10	304.36	75.10	-29.4	-28.9	12.7	1224	76	4630
2025-01-26 04:53:44.30	303.98	75.12	-29.4	-28.9	12.8	1052	76	4622
2025-01-26 04:53:44.50	303.59	75.14	-29.6	-29.3	12.5	1052	76	4729
2025-01-26 04:53:44.70	303.21	75.16	-29.6	-29.4	12.5	1087	76	4767
2025-01-26 04:53:44.90	302.82	75.18	-29.7	-29.6	12.4	1419	76	4822
2025-01-26 04:53:45.10	302.44	75.19	-29.8	-29.7	12.3	2277	76	4860
2025-01-26 04:53:45.30	302.05	75.21	-29.8	-29.8	12.3	2426	76	4878
2025-01-26 04:53:45.50	301.66	75.23	-29.9	-29.5	12.1	1899	77	4673
2025-01-26 04:53:45.70	301.27	75.24	-29.8	-29.1	12.3	2094	77	4567
2025-01-26 04:53:45.91	300.86	75.26	-29.8	-29.1	12.3	2082	77	4563
2025-01-26 04:53:46.11	300.47	75.27	-29.8	-29.1	12.3	2082	77	4564
2025-01-26 04:53:46.31	300.08	75.28	-29.8	-29.3	12.2	1682	77	4617
2025-01-26 04:53:46.51	299.69	75.30	-30.0	-29.6	12.1	2323	77	4706
2025-01-26 04:53:46.71	299.30	75.31	-29.8	-29.3	12.3	2609	77	4606
2025-01-26 04:53:46.91	298.90	75.32	-29.8	-29.4	12.3	2162	77	4682
2025-01-26 04:53:47.11	298.51	75.33	-29.8	-29.3	12.3	2128	77	4644
2025-01-26 04:53:47.31	298.12	75.34	-29.6	-28.9	12.5	2895	77	4520
2025-01-26 04:53:47.51	297.72	75.35	-30.0	-29.5	12.0	2014	77	4682
2025-01-26 04:53:47.71	297.33	75.36	-29.8	-29.2	12.2	2620	77	4591
2025-01-26 04:53:47.92	296.91	75.36	-30.0	-29.7	12.0	2620	77	4759
2025-01-26 04:53:48.12	296.51	75.37	-30.0	-29.7	12.0	3021	77	4735
2025-01-26 04:53:48.32	296.12	75.38	-30.0	-29.6	11.9	3593	77	4685
2025-01-26 04:53:48.52	295.72	75.38	-30.1	-29.9	11.8	4932	77	4792
2025-01-26 04:53:48.72	295.32	75.39	-30.0	-29.7	11.9	4039	77	4757
2025-01-26 04:53:48.92	294.92	75.39	-30.3	-30.2	11.7	3913	77	4888
2025-01-26 04:53:49.12	294.53	75.40	-29.9	-29.5	12.1	6099	77	4663
2025-01-26 04:53:49.32	294.13	75.40	-30.0	-29.7	11.9	4474	77	4733
2025-01-26 04:53:49.52	293.73	75.40	-30.1	-29.9	11.8	4177	77	4776
2025-01-26 04:53:49.72	293.33	75.40	-30.2	-30.1	11.7	5836	77	4868
2025-01-26 04:53:49.92	292.93	75.40	-30.3	-30.4	11.6	5836	77	4980
2025-01-26 04:53:50.13	292.52	75.40	-30.1	-29.9	11.9	6282	77	4783
2025-01-26 04:53:50.33	292.12	75.40	-30.4	-30.4	11.6	5287	77	4941
2025-01-26 04:53:50.53	291.72	75.40	-30.3	-30.2	11.7	7164	77	4895
2025-01-26 04:53:50.73	291.32	75.40	-30.3	-29.8	11.7	6923	78	4627
2025-01-26 04:53:50.93	290.92	75.40	-30.6	-30.5	11.3	7976	78	4850
2025-01-26 04:53:51.13	290.52	75.39	-30.3	-29.8	11.9	9246	78	4647
2025-01-26 04:53:51.33	290.13	75.39	-30.6	-30.3	11.4	9246	78	4797
2025-01-26 04:53:51.53	289.73	75.39	-30.8	-30.8	11.1	9246	78	4907
2025-01-26 04:53:51.74	289.31	75.38	-30.6	-30.3	11.3	10597	78	4768
2025-01-26 04:53:51.94	288.91	75.37	-30.9	-30.4	10.9	14053	79	4676
2025-01-26 04:53:52.14	288.52	75.37	-30.8	-30.3	11.1	20175	79	4654
2025-01-26 04:53:52.34	288.12	75.36	-30.7	-30.2	11.0	18447	79	4598
2025-01-26 04:53:52.54	287.73	75.35	-30.8	-30.3	11.0	22842	79	4616
2025-01-26 04:53:52.74	287.33	75.34	-30.9	-30.4	10.9	22659	79	4674
2025-01-26 04:53:52.94	286.94	75.33	-30.9	-30.6	10.9	20690	79	4737
2025-01-26 04:53:53.14	286.54	75.32	-30.8	-30.2	11.1	22270	79	4607
2025-01-26 04:53:53.34	286.15	75.31	-30.9	-30.5	10.9	22270	79	4710
2025-01-26 04:53:53.54	285.75	75.30	-30.9	-30.4	10.9	23048	79	4655
2025-01-26 04:53:53.75	285.34	75.29	-31.3	-31.3	10.4	24707	79	4923
2025-01-26 04:53:53.95	284.95	75.28	-31.0	-30.6	10.8	38486	79	4720
2025-01-26 04:53:54.15	284.56	75.26	-30.9	-30.5	10.8	31093	79	4694
2025-01-26 04:53:54.35	284.17	75.25	-31.0	-30.6	10.8	26390	79	4713
2025-01-26 04:53:54.55	283.78	75.23	-30.8	-30.4	10.9	28736	79	4667
2025-01-26 04:53:54.75	283.39	75.22	-31.0	-30.6	10.8	26264	79	4722
2025-01-26 04:53:54.95	283.00	75.20	-30.9	-30.6	10.8	26264	79	4730
2025-01-26 04:53:55.15	282.62	75.19	-30.8	-30.3	11.0	29365	79	4658
2025-01-26 04:53:55.35	282.23	75.17	-31.0	-30.7	10.8	23460	79	4778
2025-01-26 04:53:55.55	281.85	75.15	-30.8	-30.3	11.0	20908	79	4633
2025-01-26 04:53:55.75	281.46	75.13	-31.1	-31.0	10.7	24993	79	4845
2025-01-26 04:53:55.96	281.06	75.11	-31.1	-31.0	10.7	29319	79	4842
2025-01-26 04:53:56.16	280.68	75.09	-31.2	-31.1	10.6	33679	79	4848
2025-01-26 04:53:56.36	280.30	75.07	-31.3	-31.3	10.5	30349	79	4903
2025-01-26 04:53:56.56	279.92	75.05	-31.2	-31.1	10.5	49243	79	4872
2025-01-26 04:53:56.76	279.54	75.03	-31.8	-31.8	10.1	49243	80	4911
2025-01-26 04:53:56.96	279.16	75.01	-31.6	-31.5	10.3	53501	80	4842
2025-01-26 04:53:57.16	278.78	74.98	-31.8	-31.9	10.1	62507	80	4950
2025-01-26 04:53:57.36	278.41	74.96	-31.8	-32.0	10.1	67691	80	4996
2025-01-26 04:53:57.56	278.04	74.93	-31.7	-31.7	10.1	75817	80	4931
2025-01-26 04:53:57.76	277.66	74.91	-31.8	-31.8	10.1	68161	80	4945
2025-01-26 04:53:57.96	277.29	74.88	-31.7	-31.6	10.2	76377	80	4890
2025-01-26 04:53:58.17	276.90	74.86	-31.7	-31.8	10.2	58467	80	4936
2025-01-26 04:53:58.37	276.54	74.83	-31.9	-32.0	10.0	58467	80	4980
2025-01-26 04:53:58.57	276.17	74.80	-32.0	-32.2	9.8	83702	80	5044
2025-01-26 04:53:58.77	275.80	74.77	-31.9	-31.5	9.8	85166	81	4682
2025-01-26 04:53:58.97	275.44	74.75	-32.2	-32.1	9.5	112930	81	4890
2025-01-26 04:53:59.17	275.08	74.72	-32.0	-31.7	9.7	155914	81	4749
2025-01-26 04:53:59.37	274.71	74.69	-32.4	-32.5	9.2	138439	81	4987
2025-01-26 04:53:59.57	274.35	74.66	-32.2	-32.2	9.4	187419	81	4917
2025-01-26 04:53:59.77	274.00	74.63	-32.3	-32.3	9.3	203269	81	4919
2025-01-26 04:53:59.97	273.64	74.59	-32.6	-32.4	8.9	225780	82	4825
2025-01-26 04:54:00.17	273.28	74.56	-32.2	-31.7	9.3	243907	82	4616
2025-01-26 04:54:00.38	272.91	74.53	-32.5	-32.2	9.1	243907	82	4769
2025-01-26 04:54:00.58	272.56	74.50	-32.3	-32.0	9.3	216648	82	4714
2025-01-26 04:54:00.78	272.21	74.46	-32.2	-31.7	9.4	197284	82	4615
2025-01-26 04:54:00.98	271.86	74.43	-32.3	-32.0	9.3	179420	82	4710
2025-01-26 04:54:01.18	271.51	74.39	-31.9	-31.0	9.7	167587	82	4441
2025-01-26 04:54:01.38	271.17	74.36	-32.1	-31.5	9.5	131298	82	4574
2025-01-26 04:54:01.58	270.82	74.32	-32.1	-31.6	9.6	138954	82	4603
2025-01-26 04:54:01.78	270.48	74.28	-32.2	-31.7	9.5	165058	82	4633
2025-01-26 04:54:01.98	270.14	74.25	-32.3	-32.0	9.4	136001	82	4733
2025-01-26 04:54:02.18	269.80	74.21	-32.0	-31.2	9.6	136001	82	4498
2025-01-26 04:54:02.39	269.44	74.17	-32.6	-32.4	8.9	181125	82	4857
2025-01-26 04:54:02.59	269.11	74.13	-32.2	-31.5	9.5	202663	82	4575
2025-01-26 04:54:02.79	268.78	74.09	-32.5	-32.3	9.0	178424	82	4808
2025-01-26 04:54:02.99	268.44	74.05	-32.2	-31.6	9.5	210205	82	4589
2025-01-26 04:54:03.19	268.11	74.01	-32.2	-31.6	9.3	170688	82	4575
2025-01-26 04:54:03.39	267.78	73.97	-32.4	-31.9	9.2	162837	82	4683
2025-01-26 04:54:03.59	267.46	73.93	-32.2	-31.6	9.3	228366	82	4601
2025-01-26 04:54:03.79	267.13	73.89	-32.7	-32.7	8.9	228366	82	4918
2025-01-26 04:54:03.99	266.81	73.85	-32.3	-31.7	9.3	199081	82	4629
2025-01-26 04:54:04.19	266.49	73.81	-32.3	-31.9	9.1	254894	82	4671
2025-01-26 04:54:04.39	266.17	73.76	-32.3	-31.9	9.2	214988	82	4705
2025-01-26 04:54:04.59	265.85	73.72	-32.6	-32.5	8.9	218845	82	4863
2025-01-26 04:54:04.80	265.52	73.67	-32.8	-32.8	8.6	298805	82	4941
2025-01-26 04:54:05.00	265.20	73.63	-32.9	-32.9	8.4	375835	82	4960
2025-01-26 04:54:05.20	264.89	73.58	-32.6	-32.0	8.7	466197	83	4572
2025-01-26 04:54:05.40	264.58	73.54	-33.0	-32.7	8.2	466197	83	4753
2025-01-26 04:54:05.60	264.27	73.49	-32.7	-32.0	8.6	457866	83	4544
2025-01-26 04:54:05.80	263.96	73.45	-32.8	-32.2	8.4	407295	83	4608
2025-01-26 04:54:06.00	263.65	73.40	-32.7	-32.1	8.5	539829	83	4590
2025-01-26 04:54:06.20	263.35	73.35	-32.4	-31.4	8.9	388034	83	4416
2025-01-26 04:54:06.40	263.05	73.31	-32.8	-32.4	8.4	322689	83	4681
2025-01-26 04:54:06.60	262.75	73.26	-32.6	-31.9	8.6	446102	83	4544
2025-01-26 04:54:06.80	262.45	73.21	-32.5	-31.8	8.7	424655	83	4511
2025-01-26 04:54:07.00	262.15	73.16	-32.8	-32.4	8.4	344879	83	4694
2025-01-26 04:54:07.21	261.84	73.11	-32.9	-32.5	8.2	344879	83	4706
2025-01-26 04:54:07.41	261.55	73.06	-32.8	-32.4	8.3	574996	83	4675
2025-01-26 04:54:07.61	261.26	73.01	-32.8	-32.3	8.3	482700	83	4644
2025-01-26 04:54:07.81	260.97	72.96	-32.9	-32.5	8.2	555233	83	4737
2025-01-26 04:54:08.01	260.68	72.91	-32.7	-32.2	8.4	498596	83	4619
2025-01-26 04:54:08.21	260.40	72.86	-33.2	-33.2	7.8	488845	83	4925
2025-01-26 04:54:08.41	260.11	72.81	-32.7	-32.0	8.5	679470	83	4562
2025-01-26 04:54:08.61	259.83	72.75	-32.9	-32.6	8.1	519779	83	4753
2025-01-26 04:54:08.81	259.55	72.70	-32.6	-31.8	8.5	519779	83	4500
2025-01-26 04:54:09.01	259.27	72.65	-32.6	-32.0	8.5	503711	83	4575
2025-01-26 04:54:09.21	259.00	72.60	-32.8	-32.3	8.3	472274	83	4649
2025-01-26 04:54:09.42	258.71	72.54	-33.0	-32.6	8.1	462455	83	4748
2025-01-26 04:54:09.62	258.43	72.49	-32.8	-32.4	8.2	602291	83	4683
2025-01-26 04:54:09.82	258.16	72.43	-32.9	-32.7	8.0	564376	83	4768
2025-01-26 04:54:10.02	257.89	72.38	-32.9	-32.5	8.1	668701	83	4710
2025-01-26 04:54:10.22	257.63	72.32	-33.3	-33.3	7.6	761226	83	4966
2025-01-26 04:54:10.42	257.36	72.27	-33.0	-32.6	8.0	836837	83	4724
2025-01-26 04:54:10.62	257.10	72.21	-32.9	-32.4	8.0	740020	83	4651
2025-01-26 04:54:10.82	256.83	72.16	-33.0	-32.7	7.9	659030	83	4766
2025-01-26 04:54:11.02	256.57	72.10	-33.0	-32.6	7.9	659030	83	4737
2025-01-26 04:54:11.22	256.31	72.04	-33.1	-32.9	7.8	720050	83	4843
2025-01-26 04:54:11.43	256.04	71.98	-33.0	-32.7	8.0	650264	83	4753
2025-01-26 04:54:11.63	255.79	71.93	-33.0	-32.9	7.9	765140	83	4814
2025-01-26 04:54:11.83	255.53	71.87	-33.1	-32.9	7.7	781185	83	4815
2025-01-26 04:54:12.03	255.28	71.81	-32.9	-32.6	8.1	798065	83	4743
2025-01-26 04:54:12.23	255.03	71.75	-32.8	-32.3	8.1	699760	83	4641
2025-01-26 04:54:12.43	254.78	71.70	-32.7	-32.1	8.4	476497	83	4594
2025-01-26 04:54:12.63	254.53	71.64	-32.7	-32.2	8.3	476497	83	4609
2025-01-26 04:54:12.83	254.29	71.58	-32.5	-31.8	8.5	557407	83	4512
2025-01-26 04:54:13.03	254.05	71.52	-32.6	-32.0	8.6	409057	83	4595
2025-01-26 04:54:13.24	253.79	71.46	-32.7	-32.2	8.6	420295	83	4647
2025-01-26 04:54:13.44	253.55	71.40	-32.5	-31.7	8.6	377231	83	4488
2025-01-26 04:54:13.64	253.31	71.34	-32.5	-31.8	8.7	371887	83	4528
2025-01-26 04:54:13.84	253.07	71.28	-32.5	-31.7	8.8	361816	83	4504
2025-01-26 04:54:14.04	252.84	71.22	-32.7	-32.2	8.6	351459	83	4667
2025-01-26 04:54:14.24	252.61	71.16	-32.7	-32.2	8.6	351459	83	4662
2025-01-26 04:54:14.44	252.37	71.09	-32.3	-31.5	9.0	394935	83	4461
2025-01-26 04:54:14.64	252.14	71.03	-32.3	-31.9	8.9	283504	82	4674
2025-01-26 04:54:14.84	251.91	70.97	-32.3	-31.9	9.1	283996	82	4694
2025-01-26 04:54:15.04	251.69	70.91	-32.4	-32.2	8.9	243942	82	4807
2025-01-26 04:54:15.24	251.46	70.85	-32.2	-31.7	9.1	260215	82	4628
2025-01-26 04:54:15.44	251.24	70.79	-32.7	-32.7	8.6	252388	82	4922
2025-01-26 04:54:15.65	251.00	70.72	-32.2	-31.6	9.1	362400	82	4606
2025-01-26 04:54:15.85	250.78	70.66	-32.5	-32.4	8.7	223995	82	4854
2025-01-26 04:54:16.05	250.56	70.59	-32.9	-33.3	8.4	223995	82	5138
2025-01-26 04:54:16.25	250.34	70.53	-38.5	-42.4	3.6	474884	94	7700
2025-01-26 04:54:16.45	250.13	70.47	-38.6	-42.5	3.6	7091949	94	7703
2025-01-26 04:54:16.65	249.91	70.40	-38.7	-41.9	3.4	8438152	94	7080
2025-01-26 04:54:16.85	249.70	70.34	-38.8	-41.8	3.3	8397571	94	6954
2025-01-26 04:54:17.05	249.48	70.28	-38.8	-43.2	3.6	8402938	94	8166
2025-01-26 04:54:17.25	249.27	70.21	-38.9	-43.4	3.6	8443725	94	8315
2025-01-26 04:54:17.45	249.06	70.15	-38.8	-42.4	3.4	8426445	94	7453
2025-01-26 04:54:17.66	248.85	70.08	-38.9	-42.3	3.3	8426445	94	7328

#Closed at: 2025-01-26 04:54:17