passes_logs/2025/01/26/XPeterburg/XPeterburg__20250126_014805_FENGYUN_3D_rec.log

#Pass ID: 20250126_014805_FENGYUN 3D
#Satellite: FENGYUN 3D
#Configuration: FENGYUN 3D
#Start time: 2025-01-26 01:47:59

#Version: 1.5.20200625
#Station: XPeterburg
#Location: 30.318091 lon 59.932769 lat
#TLE: 1 43010U 17072A   25024.14915762  .00000341  00000+0  18355-3 0  9995
#TLE: 2 43010  98.9433 346.4677 0002514  73.5220 286.6232 14.19550172372763

#Time	Az	El	Level	Level2	SNR	BER	Gain	Gain2
2025-01-26 01:47:59.39	28.77	67.38	-39.5	-41.8	3.3	8390075	97	3220
2025-01-26 01:47:59.79	28.86	67.55	-39.6	-54.8	3.5	7485008	73	14270
2025-01-26 01:48:00.20	28.95	67.74	-39.5	-42.5	3.3	8398349	96	3486
2025-01-26 01:48:00.60	29.04	67.91	-39.3	-43.1	3.6	8423286	96	3821
2025-01-26 01:48:01.00	29.13	68.09	-39.0	-40.7	3.4	8424236	96	2982
2025-01-26 01:48:01.40	29.23	68.27	-38.5	-40.7	3.8	8403156	95	3171
2025-01-26 01:48:01.80	29.32	68.45	-37.5	-37.8	4.6	8288429	93	2543
2025-01-26 01:48:02.21	29.42	68.64	-36.5	-36.2	5.9	7787303	91	2380
2025-01-26 01:48:02.61	29.52	68.82	-35.0	-34.6	7.5	2216663	88	2333
2025-01-26 01:48:03.01	29.62	69.00	-33.6	-33.2	9.2	870677	85	2337
2025-01-26 01:48:03.41	29.73	69.18	-32.5	-32.0	10.6	91266	83	2309
2025-01-26 01:48:03.82	29.84	69.37	-31.6	-31.0	11.8	24124	81	2313
2025-01-26 01:48:04.22	29.94	69.55	-30.5	-29.8	12.9	5847	79	2274
2025-01-26 01:48:04.62	30.05	69.73	-29.7	-29.2	13.9	217	77	2317
2025-01-26 01:48:05.02	30.16	69.91	-29.0	-28.4	14.7	80	76	2282
2025-01-26 01:48:05.43	30.28	70.10	-28.3	-27.4	15.2	0	75	2221
2025-01-26 01:48:05.83	30.39	70.28	-28.2	-27.6	15.6	0	74	2313
2025-01-26 01:48:06.23	30.51	70.46	-28.0	-27.2	15.8	0	74	2264
2025-01-26 01:48:06.63	30.63	70.65	-27.8	-27.0	15.8	0	74	2230
2025-01-26 01:48:07.03	30.75	70.83	-28.1	-27.5	15.6	0	74	2293
2025-01-26 01:48:07.44	30.88	71.02	-28.3	-27.8	15.4	0	74	2336
2025-01-26 01:48:07.84	31.01	71.20	-28.2	-27.7	15.4	0	74	2328
2025-01-26 01:48:08.24	31.14	71.39	-28.1	-27.6	15.3	0	74	2304
2025-01-26 01:48:08.64	31.27	71.57	-28.2	-27.7	15.2	0	74	2328
2025-01-26 01:48:09.04	31.41	71.76	-28.3	-27.8	15.2	0	74	2334
2025-01-26 01:48:09.45	31.55	71.95	-28.3	-27.8	15.2	0	74	2335
2025-01-26 01:48:09.85	31.69	72.13	-28.4	-28.0	15.2	0	74	2360
2025-01-26 01:48:10.25	31.84	72.32	-28.4	-28.1	15.2	0	74	2378
2025-01-26 01:48:10.65	31.99	72.50	-28.6	-28.6	15.1	0	74	2441
2025-01-26 01:48:11.05	32.14	72.69	-28.7	-28.7	15.1	11	74	2465
2025-01-26 01:48:11.46	32.30	72.88	-28.6	-28.6	15.2	0	74	2460
2025-01-26 01:48:11.86	32.46	73.06	-28.7	-28.9	15.4	0	74	2498
2025-01-26 01:48:12.26	32.62	73.25	-28.6	-28.6	15.5	0	74	2451
2025-01-26 01:48:12.66	32.79	73.44	-28.7	-28.7	15.4	0	74	2472
2025-01-26 01:48:13.07	32.96	73.63	-28.8	-28.9	15.3	0	74	2504
2025-01-26 01:48:13.47	33.13	73.81	-28.8	-29.0	15.3	0	74	2509
2025-01-26 01:48:13.87	33.31	74.00	-28.8	-29.0	15.3	0	74	2515
2025-01-26 01:48:14.27	33.50	74.19	-28.8	-28.9	15.4	0	74	2494
2025-01-26 01:48:14.68	33.69	74.38	-28.6	-28.5	15.6	0	74	2442
2025-01-26 01:48:15.08	33.88	74.57	-28.5	-28.3	15.6	0	74	2409
2025-01-26 01:48:15.48	34.08	74.76	-28.3	-28.0	15.8	0	74	2363
2025-01-26 01:48:15.88	34.28	74.94	-28.4	-28.2	15.6	0	74	2392
2025-01-26 01:48:16.28	34.49	75.13	-28.6	-28.4	15.4	0	74	2432
2025-01-26 01:48:16.69	34.71	75.32	-28.8	-28.9	15.1	0	74	2503
2025-01-26 01:48:17.09	34.92	75.51	-28.9	-29.1	15.0	0	74	2528
2025-01-26 01:48:17.49	35.15	75.70	-28.9	-29.1	14.9	0	74	2529
2025-01-26 01:48:17.89	35.38	75.89	-28.8	-29.0	14.9	0	74	2510
2025-01-26 01:48:18.29	35.62	76.07	-28.7	-28.8	14.9	0	74	2468
2025-01-26 01:48:18.70	35.87	76.27	-28.5	-28.2	15.1	0	74	2394
2025-01-26 01:48:19.10	36.12	76.46	-28.3	-27.9	15.2	0	74	2339
2025-01-26 01:48:19.50	36.38	76.64	-28.2	-27.7	15.2	0	74	2324
2025-01-26 01:48:19.90	36.64	76.83	-28.1	-27.4	15.3	0	74	2272
2025-01-26 01:48:20.30	36.92	77.02	-28.1	-27.5	15.2	0	74	2282
2025-01-26 01:48:20.71	37.20	77.21	-28.0	-27.3	15.4	0	74	2254
2025-01-26 01:48:21.11	37.50	77.40	-28.0	-27.1	15.6	11	74	2239
2025-01-26 01:48:21.51	37.80	77.59	-27.8	-26.9	15.7	0	74	2206
2025-01-26 01:48:21.91	38.10	77.77	-27.7	-27.2	15.9	0	73	2312
2025-01-26 01:48:22.31	38.42	77.96	-27.9	-27.5	15.9	0	73	2357
2025-01-26 01:48:22.71	38.75	78.15	-28.0	-27.8	15.8	0	73	2397
2025-01-26 01:48:23.12	39.10	78.34	-28.1	-27.9	15.8	0	73	2420
2025-01-26 01:48:23.52	39.45	78.53	-28.0	-27.8	15.9	0	73	2409
2025-01-26 01:48:23.92	39.82	78.72	-28.2	-28.3	15.8	0	73	2478
2025-01-26 01:48:24.32	40.19	78.90	-28.2	-28.2	15.9	0	73	2469
2025-01-26 01:48:24.72	40.58	79.09	-28.1	-28.0	16.1	0	73	2444
2025-01-26 01:48:25.13	40.99	79.28	-28.0	-27.9	16.3	0	73	2425
2025-01-26 01:48:25.53	41.41	79.46	-27.7	-27.3	16.6	0	73	2336
2025-01-26 01:48:25.93	41.84	79.65	-27.8	-27.3	16.7	0	73	2347
2025-01-26 01:48:26.33	42.29	79.83	-27.5	-26.8	17.0	0	73	2269
2025-01-26 01:48:26.74	42.77	80.02	-27.6	-27.0	16.7	0	73	2304
2025-01-26 01:48:27.14	43.25	80.21	-27.7	-27.2	16.5	0	73	2334
2025-01-26 01:48:27.54	43.76	80.39	-27.7	-27.3	16.6	0	73	2341
2025-01-26 01:48:27.94	44.28	80.57	-27.6	-27.0	16.7	0	73	2305
2025-01-26 01:48:28.35	44.84	80.76	-27.4	-26.5	16.9	0	73	2230
2025-01-26 01:48:28.75	45.40	80.94	-27.2	-26.6	17.3	0	72	2316
2025-01-26 01:48:29.15	45.99	81.12	-27.1	-26.4	17.4	0	72	2289
2025-01-26 01:48:29.55	46.60	81.30	-27.0	-26.2	17.4	0	72	2254
2025-01-26 01:48:29.95	47.24	81.48	-26.9	-26.0	17.4	0	72	2230
2025-01-26 01:48:30.36	47.93	81.66	-27.0	-26.3	17.2	0	72	2267
2025-01-26 01:48:30.76	48.63	81.84	-26.9	-26.1	17.4	0	72	2250
2025-01-26 01:48:31.16	49.35	82.01	-26.8	-25.9	17.5	0	72	2213
2025-01-26 01:48:31.56	50.12	82.19	-26.8	-26.5	17.5	0	71	2361
2025-01-26 01:48:31.97	50.93	82.37	-26.6	-25.9	17.7	0	71	2281
2025-01-26 01:48:32.37	51.77	82.54	-26.5	-25.7	17.7	0	71	2255
2025-01-26 01:48:32.77	52.64	82.71	-26.4	-25.5	17.9	0	71	2234
2025-01-26 01:48:33.17	53.56	82.88	-26.3	-25.9	17.9	0	70	2345
2025-01-26 01:48:33.57	54.52	83.04	-26.3	-25.9	18.0	0	70	2355
2025-01-26 01:48:33.97	55.53	83.21	-26.1	-25.5	18.1	0	70	2298
2025-01-26 01:48:34.38	56.61	83.37	-26.0	-25.2	18.2	0	70	2253
2025-01-26 01:48:34.78	57.72	83.53	-25.9	-25.0	18.2	0	70	2224
2025-01-26 01:48:35.18	58.89	83.69	-25.6	-25.0	18.4	0	69	2291
2025-01-26 01:48:35.58	60.12	83.85	-25.7	-25.1	18.4	0	69	2310
2025-01-26 01:48:35.98	61.41	84.00	-25.7	-25.0	18.4	0	69	2293
2025-01-26 01:48:36.39	62.81	84.15	-25.5	-24.8	18.5	0	69	2262
2025-01-26 01:48:36.79	64.24	84.30	-25.5	-24.6	18.6	0	69	2241
2025-01-26 01:48:37.19	65.74	84.44	-25.5	-24.7	18.6	0	69	2247
2025-01-26 01:48:37.59	67.33	84.58	-25.6	-24.9	18.5	0	69	2269
2025-01-26 01:48:37.99	69.00	84.71	-25.7	-25.1	18.3	0	69	2304
2025-01-26 01:48:38.40	70.79	84.85	-25.6	-25.0	18.2	0	69	2281
2025-01-26 01:48:38.80	72.64	84.97	-25.6	-24.8	18.3	0	69	2264
2025-01-26 01:48:39.20	74.57	85.09	-25.4	-24.5	18.4	0	69	2216
2025-01-26 01:48:39.60	76.60	85.20	-25.4	-24.6	18.4	0	69	2231
2025-01-26 01:48:40.01	78.78	85.31	-25.4	-24.4	18.4	0	69	2213
2025-01-26 01:48:40.41	81.00	85.41	-25.3	-24.8	18.5	0	68	2332
2025-01-26 01:48:40.81	83.32	85.51	-25.3	-24.8	18.5	0	68	2322
2025-01-26 01:48:41.21	85.73	85.59	-25.2	-24.5	18.6	0	68	2286
2025-01-26 01:48:41.62	88.30	85.67	-25.2	-24.6	18.6	0	68	2302
2025-01-26 01:48:42.02	90.89	85.74	-25.3	-24.7	18.5	0	68	2311
2025-01-26 01:48:42.42	93.56	85.80	-25.3	-24.9	18.4	0	68	2337
2025-01-26 01:48:42.82	96.30	85.85	-25.4	-25.0	18.4	0	68	2357
2025-01-26 01:48:43.22	99.10	85.89	-25.3	-24.9	18.5	0	68	2337
2025-01-26 01:48:43.62	101.95	85.92	-25.3	-24.7	18.5	0	68	2317
2025-01-26 01:48:44.03	104.91	85.94	-25.1	-24.5	18.6	0	68	2278
2025-01-26 01:48:44.43	107.82	85.95	-25.0	-24.3	18.8	0	68	2255
2025-01-26 01:48:44.83	110.74	85.95	-25.2	-24.6	18.6	0	68	2298
2025-01-26 01:48:45.23	113.64	85.94	-25.2	-24.7	18.6	0	68	2310
2025-01-26 01:48:45.63	116.53	85.92	-25.2	-24.6	18.6	0	68	2300
2025-01-26 01:48:46.04	119.44	85.88	-25.2	-24.6	18.5	0	68	2294
2025-01-26 01:48:46.44	122.24	85.84	-25.1	-24.3	18.6	0	68	2262
2025-01-26 01:48:46.84	124.97	85.79	-25.1	-24.4	18.6	0	68	2273
2025-01-26 01:48:47.24	127.63	85.73	-25.1	-24.4	18.6	0	68	2268
2025-01-26 01:48:47.64	130.21	85.66	-25.2	-24.6	18.5	0	68	2301
2025-01-26 01:48:48.05	132.76	85.58	-25.3	-24.8	18.4	0	68	2327
2025-01-26 01:48:48.45	135.16	85.49	-25.3	-24.8	18.4	0	68	2329
2025-01-26 01:48:48.85	137.47	85.40	-25.4	-24.9	18.4	0	68	2340
2025-01-26 01:48:49.25	139.68	85.30	-25.2	-24.7	18.5	0	68	2304
2025-01-26 01:48:49.66	141.84	85.19	-25.3	-24.7	18.5	0	68	2313
2025-01-26 01:48:50.06	143.86	85.07	-25.2	-24.6	18.5	0	68	2302
2025-01-26 01:48:50.46	145.78	84.95	-25.4	-24.9	18.4	0	68	2342
2025-01-26 01:48:50.86	147.61	84.83	-25.4	-24.9	18.4	0	68	2343
2025-01-26 01:48:51.26	149.35	84.70	-25.4	-25.1	18.4	0	68	2361
2025-01-26 01:48:51.67	151.05	84.56	-25.5	-25.1	18.4	0	68	2369
2025-01-26 01:48:52.07	152.62	84.42	-25.5	-25.1	18.4	0	68	2368
2025-01-26 01:48:52.47	154.12	84.28	-25.5	-25.2	18.4	0	68	2380
2025-01-26 01:48:52.87	155.54	84.13	-25.6	-25.4	18.4	0	68	2403
2025-01-26 01:48:53.27	156.89	83.98	-25.7	-25.6	18.3	0	68	2432
2025-01-26 01:48:53.68	158.21	83.83	-25.6	-25.4	18.4	0	68	2415
2025-01-26 01:48:54.08	159.43	83.67	-25.7	-25.7	18.2	0	68	2459
2025-01-26 01:48:54.48	160.59	83.51	-25.7	-25.6	18.3	0	68	2439
2025-01-26 01:48:54.88	161.69	83.35	-25.8	-25.8	18.2	0	68	2459
2025-01-26 01:48:55.29	162.77	83.18	-25.8	-25.9	18.1	0	68	2475
2025-01-26 01:48:55.69	163.77	83.02	-25.9	-26.0	18.1	0	68	2498
2025-01-26 01:48:56.09	164.72	82.85	-25.9	-25.6	18.0	0	69	2364
2025-01-26 01:48:56.49	165.63	82.68	-26.0	-25.6	17.9	0	69	2372
2025-01-26 01:48:56.89	166.50	82.51	-26.1	-25.9	17.8	0	69	2405
2025-01-26 01:48:57.30	167.35	82.33	-26.1	-26.0	17.8	0	69	2418
2025-01-26 01:48:57.70	168.14	82.16	-26.2	-26.1	17.8	0	69	2446
2025-01-26 01:48:58.10	168.90	81.99	-26.4	-26.6	17.6	0	69	2510
2025-01-26 01:48:58.50	169.62	81.81	-26.6	-26.4	17.5	0	70	2408
2025-01-26 01:48:58.90	170.32	81.63	-26.6	-26.4	17.4	0	70	2410
2025-01-26 01:48:59.30	170.98	81.45	-26.7	-26.6	17.3	0	70	2454
2025-01-26 01:48:59.71	171.63	81.27	-26.8	-26.9	17.1	0	70	2489
2025-01-26 01:49:00.11	172.24	81.09	-26.7	-26.8	17.2	0	70	2474
2025-01-26 01:49:00.51	172.83	80.91	-27.0	-27.3	17.0	0	70	2551
2025-01-26 01:49:00.91	173.39	80.73	-27.2	-27.1	16.8	0	71	2454
2025-01-26 01:49:01.31	173.93	80.55	-27.3	-27.4	16.6	0	71	2489
2025-01-26 01:49:01.72	174.46	80.36	-27.3	-27.5	16.5	0	71	2511
2025-01-26 01:49:02.12	174.96	80.18	-27.4	-27.2	16.7	0	72	2403
2025-01-26 01:49:02.52	175.44	79.99	-27.6	-27.5	16.6	0	72	2447
2025-01-26 01:49:02.92	175.91	79.81	-27.6	-27.6	16.6	0	72	2458
2025-01-26 01:49:03.32	176.35	79.62	-27.6	-27.6	16.6	0	72	2447
2025-01-26 01:49:03.72	176.79	79.44	-27.6	-27.5	16.6	0	72	2437
2025-01-26 01:49:04.13	177.21	79.25	-27.6	-27.5	16.6	0	72	2433
2025-01-26 01:49:04.53	177.61	79.06	-27.6	-27.5	16.6	0	72	2444
2025-01-26 01:49:04.93	178.00	78.87	-27.8	-28.0	16.3	0	72	2506
2025-01-26 01:49:05.33	178.37	78.69	-28.0	-28.3	16.1	0	72	2555
2025-01-26 01:49:05.74	178.75	78.50	-28.1	-28.0	15.9	0	73	2438
2025-01-26 01:49:06.14	179.10	78.31	-28.2	-28.3	15.6	0	73	2477
2025-01-26 01:49:06.54	179.43	78.12	-28.4	-28.6	15.4	0	73	2518
2025-01-26 01:49:06.94	179.76	77.93	-28.4	-28.5	15.4	0	73	2509
2025-01-26 01:49:07.34	180.08	77.75	-28.3	-28.3	15.4	0	73	2471
2025-01-26 01:49:07.75	180.40	77.55	-28.2	-28.1	15.4	0	73	2442
2025-01-26 01:49:08.15	180.69	77.37	-28.2	-28.1	15.4	0	73	2445
2025-01-26 01:49:08.55	180.98	77.18	-28.1	-28.0	15.3	0	73	2421
2025-01-26 01:49:08.95	181.26	76.99	-28.1	-27.9	15.4	0	73	2402
2025-01-26 01:49:09.36	181.54	76.80	-28.0	-27.8	15.3	0	73	2385
2025-01-26 01:49:09.76	181.81	76.61	-28.0	-27.8	15.3	0	73	2391
2025-01-26 01:49:10.16	182.07	76.42	-28.1	-27.8	15.2	0	73	2402
2025-01-26 01:49:10.56	182.32	76.23	-28.0	-27.8	15.2	0	73	2393
2025-01-26 01:49:10.96	182.56	76.04	-28.1	-28.0	15.1	0	73	2421
2025-01-26 01:49:11.37	182.80	75.85	-28.2	-28.2	15.0	0	73	2454
2025-01-26 01:49:11.77	183.03	75.66	-28.4	-28.6	14.8	0	73	2515
2025-01-26 01:49:12.17	183.26	75.47	-28.6	-28.5	14.7	0	74	2430
2025-01-26 01:49:12.57	183.47	75.29	-28.7	-28.6	14.7	0	74	2447
2025-01-26 01:49:12.97	183.69	75.10	-28.8	-28.8	14.7	11	74	2471
2025-01-26 01:49:13.38	183.90	74.91	-28.8	-28.8	14.7	11	74	2480
2025-01-26 01:49:13.78	184.10	74.72	-28.8	-28.9	14.7	0	74	2486
2025-01-26 01:49:14.18	184.30	74.53	-28.9	-29.0	14.7	0	74	2506
2025-01-26 01:49:14.58	184.49	74.34	-28.9	-28.6	14.6	0	75	2384
2025-01-26 01:49:14.99	184.68	74.15	-28.9	-28.6	14.6	22	75	2382
2025-01-26 01:49:15.39	184.86	73.96	-28.9	-28.6	14.7	0	75	2379
2025-01-26 01:49:15.79	185.04	73.78	-28.9	-28.7	14.7	11	75	2397
2025-01-26 01:49:16.19	185.21	73.59	-28.9	-28.8	14.7	0	75	2410
2025-01-26 01:49:16.59	185.38	73.40	-29.1	-29.0	14.6	11	75	2441
2025-01-26 01:49:17.00	185.55	73.21	-29.1	-29.0	14.6	11	75	2447
2025-01-26 01:49:17.40	185.71	73.02	-29.1	-29.1	14.5	0	75	2457
2025-01-26 01:49:17.80	185.87	72.84	-29.1	-29.1	14.5	0	75	2459
2025-01-26 01:49:18.20	186.03	72.65	-29.2	-29.2	14.4	11	75	2471
2025-01-26 01:49:18.60	186.18	72.47	-29.1	-29.1	14.4	11	75	2463
2025-01-26 01:49:19.01	186.33	72.27	-29.2	-29.3	14.4	11	75	2487
2025-01-26 01:49:19.41	186.47	72.09	-29.2	-29.2	14.4	11	75	2477
2025-01-26 01:49:19.81	186.61	71.90	-29.1	-29.1	14.4	0	75	2455
2025-01-26 01:49:20.21	186.75	71.72	-29.1	-29.1	14.4	11	75	2456
2025-01-26 01:49:20.61	186.89	71.53	-29.1	-29.0	14.3	57	75	2434
2025-01-26 01:49:21.01	187.02	71.35	-29.0	-28.8	14.4	0	75	2411
2025-01-26 01:49:21.42	187.15	71.16	-28.9	-28.6	14.4	22	75	2383
2025-01-26 01:49:21.82	187.28	70.98	-28.8	-28.4	14.5	22	75	2344
2025-01-26 01:49:22.22	187.41	70.79	-28.6	-28.1	14.7	34	75	2302
2025-01-26 01:49:22.62	187.53	70.61	-28.5	-27.7	14.7	0	75	2255
2025-01-26 01:49:23.03	187.65	70.42	-28.7	-28.2	14.4	0	75	2323

#Closed at: 2025-01-26 01:49:23