passes_logs/2026/01/07/XPeterburg/XPeterburg__20260107_102253_SUOMI_NPP_rec.log

#Pass ID: 20260107_102253_SUOMI NPP
#Satellite: SUOMI NPP
#Configuration: NPP
#Start time: 2026-01-07 10:22:49

#Version: 1.5.20200625
#Station: XPeterburg
#Location: 30.318091 lon 59.932769 lat
#TLE: 1 37849U 11061A   25356.63219598  .00000089  00000+0  63407-4 0  9994
#TLE: 2 37849  98.7787 293.8852 0002488 103.0781 257.0673 14.19516903733392

#Time	Az	El	Level	Level2	SNR	BER	Gain	Gain2
2026-01-07 10:22:49.25	149.50	68.22	-37.6	-42.6	3.4	15331787	93	2185
2026-01-07 10:22:49.65	149.41	68.40	-36.8	-41.9	4.5	14366439	90	2221
2026-01-07 10:22:50.05	149.32	68.58	-36.8	-41.3	4.4	9548454	90	2061
2026-01-07 10:22:50.46	149.22	68.77	-36.9	-41.2	4.2	8748855	90	2026
2026-01-07 10:22:50.86	149.13	68.95	-36.9	-41.3	4.3	8476844	90	2037
2026-01-07 10:22:51.26	149.03	69.13	-37.3	-42.1	4.0	8476844	91	2126
2026-01-07 10:22:51.66	148.93	69.32	-37.4	-42.5	3.8	11035514	91	2206
2026-01-07 10:22:52.06	148.83	69.50	-37.5	-43.5	3.9	13342239	92	2453
2026-01-07 10:22:52.46	148.73	69.68	-37.6	-43.1	3.6	14608886	92	2321
2026-01-07 10:22:52.87	148.62	69.87	-37.7	-44.6	3.7	14820381	92	2728
2026-01-07 10:22:53.27	148.52	70.05	-37.7	-44.0	3.5	14984405	92	2533
2026-01-07 10:22:53.67	148.41	70.23	-37.8	-45.8	3.6	15182693	92	3085
2026-01-07 10:22:54.07	148.30	70.42	-37.9	-45.0	3.4	15089096	92	2788
2026-01-07 10:22:54.47	148.18	70.60	-37.9	-46.2	3.6	15252685	92	3188
2026-01-07 10:22:54.88	148.06	70.79	-37.9	-45.0	3.4	15093742	92	2792
2026-01-07 10:22:55.28	147.95	70.98	-37.8	-45.2	3.6	15227668	92	2892
2026-01-07 10:22:55.68	147.83	71.16	-37.7	-43.7	3.7	14968276	92	2447
2026-01-07 10:22:56.08	147.70	71.35	-37.7	-44.4	3.6	14968276	92	2659
2026-01-07 10:22:56.48	147.58	71.53	-37.4	-42.2	4.1	14823219	92	2136
2026-01-07 10:22:56.89	147.44	71.72	-37.2	-40.7	4.4	13559341	92	1853
2026-01-07 10:22:57.29	147.31	71.91	-37.1	-40.2	4.5	9791748	92	1760
2026-01-07 10:22:57.69	147.18	72.09	-37.1	-40.0	4.6	7942756	92	1734
2026-01-07 10:22:58.09	147.04	72.28	-37.0	-39.8	4.7	7101196	92	1704
2026-01-07 10:22:58.49	146.90	72.47	-36.9	-39.5	4.8	7004386	92	1649
2026-01-07 10:22:58.89	146.76	72.65	-37.0	-39.8	4.8	6855224	92	1700
2026-01-07 10:22:59.30	146.61	72.84	-37.0	-39.7	4.9	6509605	92	1683
2026-01-07 10:22:59.70	146.46	73.03	-36.9	-39.6	5.0	6125427	92	1668
2026-01-07 10:23:00.10	146.30	73.22	-37.0	-39.5	5.0	5736686	92	1658
2026-01-07 10:23:00.50	146.14	73.41	-36.9	-39.5	5.0	5778892	92	1657
2026-01-07 10:23:00.90	145.98	73.59	-37.1	-40.1	4.9	5868827	92	1727
2026-01-07 10:23:01.31	145.81	73.79	-37.0	-39.6	4.9	5868827	92	1663
2026-01-07 10:23:01.71	145.64	73.97	-37.1	-39.9	4.8	6194190	92	1699
2026-01-07 10:23:02.11	145.47	74.16	-37.2	-40.4	4.6	6354873	92	1776
2026-01-07 10:23:02.51	145.29	74.35	-37.4	-41.0	4.3	7496238	92	1862
2026-01-07 10:23:02.91	145.11	74.54	-37.5	-41.3	4.2	8593635	92	1920
2026-01-07 10:23:03.31	144.92	74.73	-37.6	-41.7	4.1	9526878	92	1975
2026-01-07 10:23:03.72	144.72	74.92	-37.7	-42.1	4.0	10176681	92	2056
2026-01-07 10:23:04.12	144.53	75.11	-37.8	-44.2	3.7	12601882	92	2556
2026-01-07 10:23:04.52	144.32	75.30	-37.8	-43.4	3.9	14293319	92	2325
2026-01-07 10:23:04.92	144.11	75.49	-38.0	-43.0	3.7	14166465	93	2190
2026-01-07 10:23:05.32	143.90	75.68	-38.0	-44.0	3.9	14686546	93	2466
2026-01-07 10:23:05.73	143.67	75.87	-38.0	-43.3	3.7	14442344	93	2256
2026-01-07 10:23:06.13	143.45	76.06	-38.1	-44.9	3.8	14442344	93	2676
2026-01-07 10:23:06.53	143.21	76.25	-38.1	-43.9	3.6	14791030	93	2381
2026-01-07 10:23:06.93	142.97	76.44	-38.3	-45.8	3.6	14828208	93	2935
2026-01-07 10:23:07.33	142.73	76.63	-38.3	-45.0	3.5	14963851	93	2649
2026-01-07 10:23:07.74	142.47	76.82	-38.4	-46.9	3.6	15147544	93	3243
2026-01-07 10:23:08.14	142.20	77.01	-38.5	-45.9	3.4	15115425	93	2909
2026-01-07 10:23:08.54	141.93	77.20	-38.4	-46.5	3.6	15241668	94	3121
2026-01-07 10:23:08.94	141.65	77.39	-38.4	-45.1	3.4	15109092	94	2668
2026-01-07 10:23:09.35	141.36	77.58	-38.3	-45.7	3.6	15251129	94	2882
2026-01-07 10:23:09.75	141.06	77.77	-38.2	-44.0	3.5	15093811	94	2408
2026-01-07 10:23:10.15	140.76	77.96	-38.1	-44.3	3.6	15108116	94	2496
2026-01-07 10:23:10.55	140.44	78.15	-38.1	-43.5	3.7	14928276	94	2281
2026-01-07 10:23:10.95	140.11	78.33	-38.1	-43.8	3.3	14901855	94	2377
2026-01-07 10:23:11.36	139.77	78.53	-38.1	-43.4	3.7	14901855	94	2245
2026-01-07 10:23:11.76	139.42	78.72	-38.1	-42.5	3.6	14882690	94	2045
2026-01-07 10:23:12.16	139.06	78.90	-38.0	-43.0	3.8	14845138	94	2178
2026-01-07 10:23:12.56	138.68	79.09	-38.0	-42.0	3.7	14720870	94	1957
2026-01-07 10:23:12.96	138.29	79.28	-37.9	-41.4	3.8	14495834	94	1841
2026-01-07 10:23:13.37	137.88	79.47	-37.9	-41.3	3.8	13949478	94	1824
2026-01-07 10:23:13.77	137.46	79.66	-37.9	-41.4	3.9	13856933	94	1848
2026-01-07 10:23:14.17	137.03	79.84	-38.0	-41.8	3.8	13674156	94	1922
2026-01-07 10:23:14.57	136.58	80.03	-37.9	-41.8	3.9	13876098	94	1922
2026-01-07 10:23:14.98	136.10	80.22	-38.0	-42.1	3.8	13806617	94	1974
2026-01-07 10:23:15.38	135.62	80.40	-38.0	-42.4	3.8	13971817	94	2040
2026-01-07 10:23:15.78	135.11	80.59	-38.0	-43.7	3.7	14392204	94	2366
2026-01-07 10:23:16.18	134.59	80.77	-38.0	-42.6	3.9	14392204	94	2087
2026-01-07 10:23:16.58	134.04	80.95	-37.9	-42.0	3.9	14054840	94	1960
2026-01-07 10:23:16.98	133.47	81.14	-37.9	-41.7	4.0	13756111	94	1918
2026-01-07 10:23:17.39	132.86	81.32	-37.8	-41.6	4.0	13113113	94	1893
2026-01-07 10:23:17.79	132.24	81.50	-37.9	-41.9	4.2	12707923	93	1970
2026-01-07 10:23:18.19	131.59	81.68	-37.7	-41.3	4.4	9722267	93	1859
2026-01-07 10:23:18.59	130.91	81.86	-37.5	-40.5	4.8	8310920	93	1743
2026-01-07 10:23:18.99	130.21	82.04	-37.4	-40.3	4.9	6849617	93	1714
2026-01-07 10:23:19.40	129.45	82.22	-37.3	-40.0	5.1	6110649	93	1676
2026-01-07 10:23:19.80	128.67	82.40	-37.2	-40.1	5.3	5381149	92	1721
2026-01-07 10:23:20.20	127.86	82.57	-37.5	-41.0	4.9	5090286	92	1856
2026-01-07 10:23:20.60	127.01	82.74	-37.4	-40.7	5.0	6113807	92	1803
2026-01-07 10:23:21.00	126.11	82.91	-37.5	-41.1	4.8	6546661	92	1858
2026-01-07 10:23:21.41	125.15	83.09	-37.5	-41.0	4.9	6546661	92	1836
2026-01-07 10:23:21.81	124.16	83.25	-37.5	-41.0	4.8	6492034	92	1835
2026-01-07 10:23:22.21	123.13	83.42	-37.5	-41.0	4.7	6728088	92	1834
2026-01-07 10:23:22.61	122.03	83.58	-37.5	-40.9	4.8	6786926	92	1830
2026-01-07 10:23:23.01	120.89	83.74	-37.4	-40.5	5.1	6648857	92	1759
2026-01-07 10:23:23.42	119.65	83.91	-37.3	-40.3	5.2	5497428	92	1741
2026-01-07 10:23:23.82	118.37	84.06	-37.3	-40.5	5.1	5117424	92	1765
2026-01-07 10:23:24.22	117.03	84.21	-37.3	-40.2	5.3	5276428	92	1725
2026-01-07 10:23:24.62	115.61	84.36	-37.4	-40.6	5.1	5079406	92	1784
2026-01-07 10:23:25.02	114.12	84.51	-37.4	-40.4	5.2	5332962	92	1755
2026-01-07 10:23:25.43	112.51	84.65	-37.5	-41.1	4.9	5428215	92	1846
2026-01-07 10:23:25.83	110.85	84.79	-37.7	-41.7	4.5	6746971	92	1956
2026-01-07 10:23:26.23	109.10	84.93	-37.8	-42.2	4.3	6746971	92	2037
2026-01-07 10:23:26.63	107.26	85.05	-38.0	-42.5	4.0	8374191	93	2053
2026-01-07 10:23:27.03	105.32	85.18	-38.2	-43.2	3.8	10313598	93	2194
2026-01-07 10:23:27.43	103.29	85.29	-38.3	-44.9	3.7	13603507	93	2653
2026-01-07 10:23:27.84	101.09	85.41	-38.2	-43.9	3.9	14449256	93	2356
2026-01-07 10:23:28.24	98.85	85.51	-38.3	-43.6	3.7	14121231	93	2257
2026-01-07 10:23:28.64	96.50	85.61	-38.2	-43.0	3.9	14036064	93	2133
2026-01-07 10:23:29.04	94.06	85.70	-38.2	-43.0	3.9	13466354	93	2142
2026-01-07 10:23:29.44	91.51	85.78	-38.1	-42.7	4.0	13553459	93	2090
2026-01-07 10:23:29.85	88.80	85.85	-38.1	-42.8	4.0	12603469	93	2102
2026-01-07 10:23:30.25	86.07	85.91	-38.2	-42.9	3.9	11798011	93	2134
2026-01-07 10:23:30.65	83.26	85.97	-38.2	-43.4	3.8	13453598	93	2228
2026-01-07 10:23:31.05	80.38	86.01	-38.3	-43.6	3.8	13652839	93	2280
2026-01-07 10:23:31.45	77.44	86.05	-38.3	-45.2	3.7	13652839	93	2707
2026-01-07 10:23:31.86	74.39	86.07	-38.4	-44.3	3.8	14298995	93	2450
2026-01-07 10:23:32.26	71.38	86.08	-38.3	-43.5	3.8	14137573	93	2263
2026-01-07 10:23:32.66	68.37	86.08	-38.1	-43.1	4.0	13984542	93	2183
2026-01-07 10:23:33.06	65.36	86.07	-38.1	-42.7	4.2	12933387	93	2096
2026-01-07 10:23:33.46	62.38	86.05	-38.2	-43.4	4.0	10066200	93	2223
2026-01-07 10:23:33.86	59.43	86.02	-38.3	-43.6	3.9	11947746	93	2280
2026-01-07 10:23:34.27	56.47	85.98	-38.5	-46.0	3.8	13678421	93	2924
2026-01-07 10:23:34.67	53.64	85.93	-38.6	-45.1	3.5	14796714	94	2617
2026-01-07 10:23:35.07	50.90	85.86	-38.5	-46.1	3.6	15102546	94	2929
2026-01-07 10:23:35.47	48.24	85.79	-38.5	-44.6	3.6	14973892	94	2509
2026-01-07 10:23:35.88	45.61	85.71	-38.3	-44.5	3.7	14857933	94	2533
2026-01-07 10:23:36.28	43.14	85.62	-38.0	-42.5	4.3	14857933	94	2070
2026-01-07 10:23:36.68	40.78	85.53	-37.8	-41.2	4.6	12100578	94	1819
2026-01-07 10:23:37.08	38.51	85.43	-37.8	-41.3	4.6	8520919	94	1837
2026-01-07 10:23:37.48	36.36	85.32	-37.8	-41.4	4.5	7453483	94	1859
2026-01-07 10:23:37.89	34.25	85.20	-37.9	-41.4	4.6	7804962	94	1851
2026-01-07 10:23:38.29	32.29	85.08	-37.6	-41.0	5.0	7545661	93	1802
2026-01-07 10:23:38.69	30.44	84.95	-37.3	-39.9	5.7	5590652	93	1656
2026-01-07 10:23:39.09	28.67	84.82	-36.9	-39.1	6.6	3569648	92	1582
2026-01-07 10:23:39.49	27.00	84.68	-36.8	-39.1	6.8	1996711	92	1591
2026-01-07 10:23:39.89	25.41	84.54	-36.9	-39.2	6.7	1795295	92	1615
2026-01-07 10:23:40.30	23.86	84.39	-37.1	-39.9	6.3	2060081	92	1702
2026-01-07 10:23:40.70	22.43	84.24	-37.2	-40.1	6.0	2715126	92	1730
2026-01-07 10:23:41.10	21.08	84.09	-37.3	-40.4	5.8	3270034	92	1758
2026-01-07 10:23:41.50	19.79	83.94	-37.2	-40.3	5.9	3270034	92	1751
2026-01-07 10:23:41.90	18.57	83.78	-37.0	-39.7	6.3	3212783	92	1674
2026-01-07 10:23:42.31	17.38	83.61	-37.2	-40.4	5.9	2697624	92	1778
2026-01-07 10:23:42.71	16.28	83.45	-37.4	-41.1	5.4	2878166	92	1885
2026-01-07 10:23:43.11	15.24	83.29	-37.7	-42.1	4.8	4043464	92	2037
2026-01-07 10:23:43.51	14.24	83.12	-37.9	-42.6	4.5	6179283	92	2121
2026-01-07 10:23:43.91	13.29	82.95	-37.8	-42.3	4.4	7961509	92	2062
2026-01-07 10:23:44.31	12.39	82.78	-37.7	-41.6	4.8	8237487	92	1940
2026-01-07 10:23:44.71	11.53	82.61	-37.6	-41.4	4.9	6457748	92	1900
2026-01-07 10:23:45.12	10.69	82.43	-37.5	-40.9	5.1	5700920	92	1834
2026-01-07 10:23:45.52	9.91	82.25	-37.5	-41.0	5.2	5288925	92	1846
2026-01-07 10:23:45.92	9.16	82.08	-37.5	-40.9	5.1	5334823	92	1829
2026-01-07 10:23:46.32	8.45	81.90	-37.6	-41.4	4.9	5334823	92	1909
2026-01-07 10:23:46.72	7.76	81.72	-37.6	-41.3	4.8	5304260	92	1889
2026-01-07 10:23:47.12	7.11	81.54	-37.5	-41.1	4.8	5838264	92	1859
2026-01-07 10:23:47.53	6.47	81.36	-37.6	-41.5	4.6	6074806	92	1914
2026-01-07 10:23:47.93	5.87	81.18	-37.8	-42.2	4.3	6819786	92	2043
2026-01-07 10:23:48.33	5.29	80.99	-37.9	-42.5	4.1	8928611	92	2103
2026-01-07 10:23:48.73	4.74	80.81	-38.0	-42.9	3.8	10770469	93	2145
2026-01-07 10:23:49.13	4.21	80.63	-38.1	-44.3	3.7	13794647	93	2533
2026-01-07 10:23:49.54	3.69	80.44	-37.9	-42.6	4.1	13519042	93	2112
2026-01-07 10:23:49.94	3.20	80.26	-37.7	-41.5	4.3	10860359	93	1893
2026-01-07 10:23:50.34	2.73	80.07	-37.8	-41.6	4.2	9041496	93	1914
2026-01-07 10:23:50.74	2.28	79.88	-37.5	-40.5	4.6	8887741	93	1739
2026-01-07 10:23:51.14	1.84	79.70	-37.2	-40.0	5.0	6673507	92	1694
2026-01-07 10:23:51.54	1.42	79.51	-36.9	-39.0	5.7	6673507	92	1568
2026-01-07 10:23:51.95	1.01	79.32	-36.9	-39.1	5.7	4806236	92	1585
2026-01-07 10:23:52.35	0.62	79.13	-36.7	-39.0	6.2	3852706	91	1608
2026-01-07 10:23:52.75	0.24	78.95	-36.5	-38.5	6.6	2943435	91	1551
2026-01-07 10:23:53.15	359.88	78.76	-36.4	-38.2	6.9	2183296	91	1526
2026-01-07 10:23:53.56	359.51	78.57	-36.4	-38.5	6.8	1745452	91	1568
2026-01-07 10:23:53.96	359.17	78.38	-36.4	-38.5	6.9	1625183	91	1563
2026-01-07 10:23:54.36	358.85	78.19	-36.6	-39.0	6.5	1832496	91	1629
2026-01-07 10:23:54.76	358.53	78.00	-36.7	-39.2	6.4	2252349	91	1656
2026-01-07 10:23:55.16	358.22	77.81	-36.7	-39.4	6.3	2388961	91	1669
2026-01-07 10:23:55.57	357.91	77.62	-37.0	-40.1	5.8	2744575	91	1769
2026-01-07 10:23:55.97	357.62	77.43	-36.9	-39.9	5.9	3201400	91	1739
2026-01-07 10:23:56.37	357.34	77.24	-36.9	-39.8	6.0	3201400	91	1721
2026-01-07 10:23:56.77	357.07	77.06	-36.8	-39.7	6.0	3103233	91	1717
2026-01-07 10:23:57.17	356.81	76.87	-37.2	-40.8	5.4	2942039	91	1878
2026-01-07 10:23:57.58	356.55	76.67	-37.1	-40.7	5.4	4089134	91	1844
2026-01-07 10:23:57.98	356.30	76.48	-37.0	-40.1	5.7	4489341	91	1757
2026-01-07 10:23:58.38	356.06	76.30	-36.6	-39.1	6.3	3785202	91	1633
2026-01-07 10:23:58.78	355.82	76.11	-36.3	-38.3	6.9	2402168	91	1536
2026-01-07 10:23:59.18	355.59	75.92	-35.8	-37.6	7.3	1514739	90	1500
2026-01-07 10:23:59.58	355.37	75.73	-35.9	-38.2	7.5	1063926	89	1606
2026-01-07 10:23:59.99	355.15	75.54	-36.0	-38.4	7.1	1108169	89	1633
2026-01-07 10:24:00.39	354.94	75.35	-36.2	-39.0	6.7	1444847	89	1702
2026-01-07 10:24:00.79	354.74	75.16	-36.6	-39.7	5.8	2396606	90	1752
2026-01-07 10:24:01.19	354.54	74.97	-36.7	-40.0	5.4	4247116	90	1786
2026-01-07 10:24:01.59	354.34	74.78	-36.6	-39.5	5.6	3976707	90	1714
2026-01-07 10:24:02.00	354.15	74.59	-36.3	-38.8	6.1	3976707	90	1635
2026-01-07 10:24:02.40	353.97	74.40	-35.9	-37.5	7.0	3055946	90	1488
2026-01-07 10:24:02.80	353.79	74.21	-35.9	-38.1	7.2	1933280	89	1592
2026-01-07 10:24:03.20	353.61	74.03	-35.8	-37.9	7.5	1268272	89	1569
2026-01-07 10:24:03.60	353.44	73.84	-35.8	-38.1	7.2	1058540	89	1599
2026-01-07 10:24:04.01	353.27	73.65	-35.9	-38.4	7.1	1182830	89	1642
2026-01-07 10:24:04.41	353.11	73.46	-36.1	-39.0	6.8	1342399	89	1716
2026-01-07 10:24:04.81	352.95	73.27	-36.3	-39.5	6.5	1569747	89	1782
2026-01-07 10:24:05.21	352.80	73.08	-36.6	-39.8	5.9	2413711	90	1798
2026-01-07 10:24:05.61	352.65	72.90	-36.7	-40.4	5.5	3705459	90	1890
2026-01-07 10:24:06.02	352.49	72.71	-37.0	-41.3	5.0	5152214	90	2013
2026-01-07 10:24:06.42	352.35	72.52	-37.3	-41.6	4.7	5152214	91	2007
2026-01-07 10:24:06.82	352.21	72.33	-37.3	-41.6	4.7	6481765	91	2006
2026-01-07 10:24:07.22	352.07	72.15	-37.4	-41.6	4.6	7048637	91	1994
2026-01-07 10:24:07.62	351.94	71.96	-37.4	-41.4	4.4	7650306	92	1951
2026-01-07 10:24:08.03	351.80	71.77	-37.4	-41.5	4.3	8724578	92	1963
2026-01-07 10:24:08.43	351.67	71.59	-37.5	-41.8	4.1	9013008	92	2015
2026-01-07 10:24:08.83	351.55	71.40	-37.7	-42.4	3.9	11615592	92	2124
2026-01-07 10:24:09.23	351.42	71.22	-37.6	-41.9	4.0	13294471	92	2031
2026-01-07 10:24:09.63	351.30	71.03	-37.5	-41.8	4.0	12942466	92	2019
2026-01-07 10:24:10.04	351.18	70.84	-37.6	-42.2	3.9	12953231	92	2086
2026-01-07 10:24:10.44	351.06	70.66	-37.8	-44.3	3.7	13840148	92	2603
2026-01-07 10:24:10.84	350.95	70.48	-37.9	-43.8	3.7	14745895	92	2450
2026-01-07 10:24:11.24	350.84	70.29	-37.9	-45.1	3.6	14876960	92	2818

#Closed at: 2026-01-07 10:24:11