passes_logs/2026/01/07/XPeterburg/XPeterburg__20260107_144958_FENGYUN_3E_rec.log

#Pass ID: 20260107_144958_FENGYUN 3E
#Satellite: FENGYUN 3E
#Configuration: FENGYUN 3E
#Start time: 2026-01-07 14:49:51

#Version: 1.5.20200625
#Station: XPeterburg
#Location: 30.318091 lon 59.932769 lat
#TLE: 1 49008U 21062A   25359.14718215  .00000011  00000+0  25812-4 0  9998
#TLE: 2 49008  98.7476 359.5210 0000940 189.9291 170.1866 14.19881103231888

#Time	Az	El	Level	Level2	SNR	BER	Gain	Gain2
2026-01-07 14:49:51.65	190.56	67.65	-37.9	-40.8	3.3	8387821	92	6908
2026-01-07 14:49:52.05	190.80	67.81	-37.4	-40.1	3.5	8450099	92	6701
2026-01-07 14:49:52.45	191.05	67.97	-37.0	-37.9	3.4	8400856	92	5473
2026-01-07 14:49:52.85	191.30	68.13	-36.4	-37.7	4.0	8417678	91	5732
2026-01-07 14:49:53.25	191.55	68.29	-35.5	-35.3	4.4	8285694	89	4838
2026-01-07 14:49:53.66	191.81	68.45	-34.7	-34.3	5.2	7723274	87	4741
2026-01-07 14:49:54.06	192.07	68.61	-33.4	-32.6	6.5	3790180	85	4472
2026-01-07 14:49:54.46	192.34	68.77	-32.9	-32.6	7.0	1263519	83	4775
2026-01-07 14:49:54.86	192.61	68.93	-32.0	-31.2	8.3	932270	82	4516
2026-01-07 14:49:55.26	192.88	69.09	-31.2	-30.6	9.5	299743	80	4599
2026-01-07 14:49:55.67	193.17	69.25	-30.5	-29.8	10.0	112781	79	4507
2026-01-07 14:49:56.07	193.45	69.41	-30.2	-29.6	10.5	53581	78	4608
2026-01-07 14:49:56.47	193.74	69.57	-30.0	-29.2	10.7	41130	78	4493
2026-01-07 14:49:56.87	194.03	69.73	-29.9	-29.1	10.8	29674	78	4455
2026-01-07 14:49:57.27	194.33	69.89	-29.9	-29.1	10.9	24604	78	4455
2026-01-07 14:49:57.68	194.64	70.05	-30.1	-29.4	10.6	30097	78	4538
2026-01-07 14:49:58.08	194.94	70.21	-30.2	-29.6	10.4	45433	78	4604
2026-01-07 14:49:58.48	195.26	70.36	-30.7	-30.8	9.9	58490	78	4941
2026-01-07 14:49:58.88	195.57	70.52	-31.0	-31.3	9.5	109657	78	5067
2026-01-07 14:49:59.28	195.90	70.68	-31.1	-30.9	9.3	207378	79	4840
2026-01-07 14:49:59.69	196.24	70.84	-31.0	-30.8	9.4	146347	79	4781
2026-01-07 14:50:00.09	196.57	70.99	-31.0	-30.7	9.5	164222	79	4782
2026-01-07 14:50:00.49	196.91	71.15	-31.1	-30.9	9.3	161155	79	4812
2026-01-07 14:50:00.89	197.26	71.31	-31.0	-30.7	9.4	149024	79	4760
2026-01-07 14:50:01.29	197.61	71.46	-30.8	-30.3	9.7	138885	79	4654
2026-01-07 14:50:01.70	197.98	71.62	-30.7	-30.2	9.8	112232	79	4637
2026-01-07 14:50:02.10	198.35	71.77	-30.5	-29.7	10.1	107151	79	4484
2026-01-07 14:50:02.50	198.72	71.93	-30.4	-29.5	10.2	77327	79	4457
2026-01-07 14:50:02.90	199.10	72.08	-30.3	-29.7	10.5	52265	78	4614
2026-01-07 14:50:03.30	199.49	72.23	-30.2	-29.5	10.6	41633	78	4574
2026-01-07 14:50:03.71	199.89	72.39	-30.2	-29.6	10.6	38188	78	4603
2026-01-07 14:50:04.11	200.29	72.54	-30.0	-29.1	10.8	36552	78	4471
2026-01-07 14:50:04.51	200.70	72.69	-29.8	-29.2	11.0	31505	77	4608
2026-01-07 14:50:04.91	201.11	72.84	-29.8	-29.2	11.1	16948	77	4616
2026-01-07 14:50:05.31	201.54	72.99	-29.5	-28.8	11.3	17795	77	4494
2026-01-07 14:50:05.72	201.98	73.14	-29.5	-28.7	11.4	11695	77	4487
2026-01-07 14:50:06.12	202.42	73.29	-29.6	-29.4	11.5	7347	76	4820
2026-01-07 14:50:06.52	202.86	73.44	-29.6	-29.5	11.5	7953	76	4841
2026-01-07 14:50:06.93	203.33	73.59	-29.8	-29.8	11.4	9006	76	4922
2026-01-07 14:50:07.33	203.80	73.73	-29.7	-29.5	11.6	9464	76	4829
2026-01-07 14:50:07.73	204.27	73.88	-29.6	-29.5	11.6	9063	76	4832
2026-01-07 14:50:08.13	204.75	74.02	-29.5	-29.1	11.9	5699	76	4719
2026-01-07 14:50:08.53	205.24	74.16	-29.3	-28.9	12.1	3582	76	4683
2026-01-07 14:50:08.94	205.75	74.31	-28.8	-27.8	12.7	2517	76	4365
2026-01-07 14:50:09.34	206.26	74.45	-28.8	-27.9	12.6	1636	76	4416
2026-01-07 14:50:09.74	206.78	74.59	-28.5	-27.8	12.7	892	75	4509
2026-01-07 14:50:10.14	207.31	74.73	-28.3	-27.2	13.0	503	75	4337
2026-01-07 14:50:10.54	207.85	74.87	-28.3	-27.7	13.0	663	74	4595
2026-01-07 14:50:10.95	208.42	75.01	-28.2	-27.6	13.1	366	74	4564
2026-01-07 14:50:11.35	208.98	75.14	-28.4	-28.0	12.8	469	74	4694
2026-01-07 14:50:11.75	209.55	75.28	-28.3	-27.8	12.9	423	74	4650
2026-01-07 14:50:12.15	210.13	75.41	-28.0	-27.2	13.1	308	74	4457
2026-01-07 14:50:12.55	210.72	75.54	-27.8	-26.7	13.3	297	74	4345
2026-01-07 14:50:12.96	211.34	75.67	-27.5	-26.7	13.6	183	73	4492
2026-01-07 14:50:13.36	211.96	75.80	-27.5	-26.6	13.7	68	73	4471
2026-01-07 14:50:13.76	212.58	75.93	-27.5	-26.6	13.7	114	73	4460
2026-01-07 14:50:14.16	213.22	76.05	-27.6	-26.9	13.6	91	73	4526
2026-01-07 14:50:14.56	213.87	76.18	-27.6	-26.8	13.5	125	73	4507
2026-01-07 14:50:14.97	214.55	76.30	-27.7	-27.0	13.5	114	73	4555
2026-01-07 14:50:15.37	215.23	76.42	-27.8	-27.2	13.3	160	73	4617
2026-01-07 14:50:15.77	215.92	76.54	-27.5	-26.6	13.7	102	73	4431
2026-01-07 14:50:16.17	216.62	76.66	-27.5	-26.6	13.7	0	73	4429
2026-01-07 14:50:16.57	217.33	76.77	-27.4	-26.4	13.7	68	73	4373
2026-01-07 14:50:16.98	218.07	76.89	-27.4	-26.4	13.8	114	73	4371
2026-01-07 14:50:17.38	218.81	77.00	-27.5	-26.5	13.7	22	73	4397
2026-01-07 14:50:17.78	219.56	77.11	-27.5	-26.5	13.7	45	73	4382
2026-01-07 14:50:18.18	220.33	77.22	-27.6	-26.7	13.6	34	73	4438
2026-01-07 14:50:18.58	221.10	77.32	-27.6	-26.6	13.6	102	73	4429
2026-01-07 14:50:18.99	221.92	77.43	-27.7	-26.9	13.5	160	73	4502
2026-01-07 14:50:19.39	222.72	77.53	-27.6	-26.7	13.5	148	73	4451
2026-01-07 14:50:19.79	223.54	77.62	-27.6	-26.9	13.5	160	73	4533
2026-01-07 14:50:20.19	224.37	77.72	-27.6	-26.9	13.5	228	73	4510
2026-01-07 14:50:20.59	225.21	77.81	-27.6	-26.9	13.5	171	73	4516
2026-01-07 14:50:21.00	226.09	77.91	-27.5	-26.7	13.7	114	73	4474
2026-01-07 14:50:21.40	226.96	77.99	-27.6	-26.8	13.6	91	73	4500
2026-01-07 14:50:21.80	227.84	78.08	-27.4	-26.5	13.8	91	73	4424
2026-01-07 14:50:22.20	228.74	78.16	-27.4	-26.5	13.8	57	73	4416
2026-01-07 14:50:22.60	229.65	78.24	-27.6	-26.8	13.6	57	73	4499
2026-01-07 14:50:23.01	230.59	78.32	-27.7	-27.0	13.5	102	73	4525
2026-01-07 14:50:23.41	231.52	78.39	-27.8	-27.1	13.4	114	73	4549
2026-01-07 14:50:23.81	232.47	78.46	-27.8	-27.2	13.4	297	73	4577
2026-01-07 14:50:24.21	233.43	78.53	-27.9	-27.4	13.3	102	73	4633
2026-01-07 14:50:24.61	234.39	78.59	-27.8	-27.1	13.4	228	73	4553
2026-01-07 14:50:25.02	235.40	78.66	-27.8	-27.2	13.4	171	73	4589
2026-01-07 14:50:25.42	236.39	78.71	-27.8	-27.2	13.4	91	73	4592
2026-01-07 14:50:25.82	237.39	78.77	-27.8	-27.1	13.4	148	73	4566
2026-01-07 14:50:26.22	238.40	78.82	-27.6	-26.7	13.7	114	73	4436
2026-01-07 14:50:26.62	239.41	78.87	-27.5	-26.5	13.8	45	73	4395
2026-01-07 14:50:27.03	240.47	78.91	-27.5	-26.6	13.8	34	73	4423
2026-01-07 14:50:27.43	241.50	78.95	-27.5	-26.5	13.9	57	73	4412
2026-01-07 14:50:27.83	242.54	78.99	-27.6	-26.7	13.8	68	73	4439
2026-01-07 14:50:28.23	243.59	79.02	-27.6	-26.8	13.7	57	73	4478
2026-01-07 14:50:28.63	244.65	79.05	-27.6	-26.8	13.7	45	73	4488
2026-01-07 14:50:29.04	245.74	79.08	-27.9	-27.3	13.4	57	73	4621
2026-01-07 14:50:29.44	246.80	79.10	-27.9	-27.3	13.5	125	73	4596
2026-01-07 14:50:29.84	247.87	79.12	-27.9	-27.3	13.4	263	73	4613
2026-01-07 14:50:30.24	248.95	79.14	-28.0	-27.6	13.3	263	73	4689
2026-01-07 14:50:30.65	250.05	79.15	-28.1	-27.9	13.1	274	73	4763
2026-01-07 14:50:31.05	251.13	79.16	-28.2	-28.0	13.1	343	73	4817
2026-01-07 14:50:31.45	252.21	79.16	-28.2	-28.0	13.1	423	73	4804
2026-01-07 14:50:31.85	253.29	79.16	-28.3	-28.1	13.1	389	73	4830
2026-01-07 14:50:32.25	254.37	79.16	-28.4	-28.3	13.0	560	73	4888
2026-01-07 14:50:32.66	255.47	79.15	-28.3	-28.1	13.1	503	73	4832
2026-01-07 14:50:33.06	256.55	79.14	-28.5	-28.6	12.9	411	73	5004
2026-01-07 14:50:33.46	257.62	79.12	-28.6	-28.3	12.8	617	74	4790
2026-01-07 14:50:33.86	258.69	79.10	-28.8	-28.8	12.6	755	74	4931
2026-01-07 14:50:34.27	259.79	79.08	-28.7	-28.7	12.6	1007	74	4889
2026-01-07 14:50:34.67	260.85	79.05	-28.7	-28.7	12.6	846	74	4888
2026-01-07 14:50:35.07	261.90	79.02	-28.7	-28.6	12.6	1144	74	4875
2026-01-07 14:50:35.47	262.95	78.99	-28.7	-28.6	12.7	995	74	4856
2026-01-07 14:50:35.87	263.99	78.95	-28.8	-28.8	12.5	1110	74	4918
2026-01-07 14:50:36.28	265.06	78.91	-28.9	-28.9	12.4	1270	74	4952
2026-01-07 14:50:36.68	266.08	78.87	-28.8	-28.9	12.5	1785	74	4955
2026-01-07 14:50:37.08	267.10	78.82	-28.9	-28.5	12.3	1728	75	4691
2026-01-07 14:50:37.48	268.11	78.77	-28.9	-28.4	12.4	1693	75	4678
2026-01-07 14:50:37.89	269.13	78.71	-28.8	-28.2	12.4	1613	75	4628
2026-01-07 14:50:38.29	270.12	78.65	-28.7	-28.1	12.5	1510	75	4588
2026-01-07 14:50:38.69	271.10	78.59	-28.7	-28.0	12.5	1144	75	4570
2026-01-07 14:50:39.09	272.07	78.53	-28.8	-28.1	12.4	1544	75	4556
2026-01-07 14:50:39.50	273.05	78.46	-28.8	-28.2	12.4	1350	75	4581
2026-01-07 14:50:39.90	273.99	78.39	-28.8	-28.1	12.4	1808	75	4561
2026-01-07 14:50:40.30	274.93	78.32	-29.0	-28.6	12.1	2494	75	4685
2026-01-07 14:50:40.70	275.85	78.24	-29.1	-28.9	12.0	3456	75	4763
2026-01-07 14:50:41.10	276.75	78.16	-29.3	-29.2	11.8	4028	75	4867
2026-01-07 14:50:41.51	277.67	78.08	-29.3	-29.1	11.8	5813	75	4849
2026-01-07 14:50:41.91	278.55	77.99	-29.4	-29.3	11.7	5596	75	4892
2026-01-07 14:50:42.31	279.42	77.90	-29.3	-29.3	11.7	6031	75	4922
2026-01-07 14:50:42.71	280.28	77.81	-29.3	-29.3	11.8	5573	75	4921
2026-01-07 14:50:43.11	281.12	77.72	-29.2	-29.1	11.8	5630	75	4865
2026-01-07 14:50:43.52	281.97	77.62	-29.3	-29.3	11.7	5847	75	4870
2026-01-07 14:50:43.92	282.79	77.53	-29.4	-29.4	11.6	6248	75	4939
2026-01-07 14:50:44.32	283.59	77.43	-29.7	-29.5	11.5	7804	76	4797
2026-01-07 14:50:44.72	284.38	77.32	-29.7	-29.6	11.4	9086	76	4863
2026-01-07 14:50:45.13	285.18	77.22	-29.8	-29.8	11.3	10803	76	4905
2026-01-07 14:50:45.53	285.94	77.11	-29.9	-29.4	11.2	13652	77	4675
2026-01-07 14:50:45.93	286.70	77.00	-29.9	-29.5	11.2	13526	77	4668
2026-01-07 14:50:46.33	287.43	76.89	-30.1	-29.8	11.0	18905	77	4771
2026-01-07 14:50:46.73	288.16	76.78	-30.3	-30.3	10.7	27626	77	4895
2026-01-07 14:50:47.14	288.89	76.66	-30.5	-30.1	10.6	38681	78	4710
2026-01-07 14:50:47.54	289.59	76.54	-30.7	-30.6	10.3	52997	78	4874
2026-01-07 14:50:47.94	290.27	76.42	-30.8	-30.9	10.1	60058	78	4960
2026-01-07 14:50:48.34	290.95	76.30	-30.9	-31.2	10.0	68939	78	5057
2026-01-07 14:50:48.75	291.63	76.18	-31.0	-30.8	9.8	88623	79	4807
2026-01-07 14:50:49.15	292.28	76.05	-31.3	-31.3	9.6	129043	79	4926
2026-01-07 14:50:49.55	292.92	75.93	-31.4	-31.6	9.4	142890	79	5024
2026-01-07 14:50:49.95	293.54	75.80	-31.8	-31.8	9.2	173538	80	4968
2026-01-07 14:50:50.35	294.16	75.67	-31.9	-32.1	9.1	222770	80	5021
2026-01-07 14:50:50.76	294.78	75.54	-32.0	-31.9	9.0	239101	81	4857
2026-01-07 14:50:51.16	295.37	75.41	-32.1	-32.0	8.8	266921	81	4887
2026-01-07 14:50:51.56	295.95	75.28	-32.3	-32.3	8.7	311347	81	4970
2026-01-07 14:50:51.96	296.52	75.14	-32.2	-32.3	8.7	348655	81	4978
2026-01-07 14:50:52.36	297.08	75.01	-32.2	-32.2	8.6	410396	81	4933
2026-01-07 14:50:52.77	297.64	74.87	-32.3	-32.3	8.5	424701	81	4955
2026-01-07 14:50:53.17	298.18	74.73	-32.1	-32.0	8.6	418647	81	4864
2026-01-07 14:50:53.57	298.71	74.59	-32.2	-32.2	8.5	407386	81	4923
2026-01-07 14:50:53.97	299.23	74.45	-32.4	-32.6	8.3	459045	81	5025
2026-01-07 14:50:54.37	299.74	74.31	-32.4	-32.6	8.2	507202	81	5025
2026-01-07 14:50:54.78	300.25	74.17	-32.7	-32.7	7.8	602233	82	4932
2026-01-07 14:50:55.18	300.74	74.02	-33.1	-32.9	7.2	884010	83	4860
2026-01-07 14:50:55.58	301.22	73.88	-33.2	-33.2	7.0	1312133	83	4918
2026-01-07 14:50:55.98	301.70	73.74	-33.4	-33.2	6.7	1852890	84	4813
2026-01-07 14:50:56.38	302.16	73.59	-33.7	-33.8	6.3	1968727	84	4986
2026-01-07 14:50:56.79	302.63	73.44	-33.7	-33.9	6.4	2431594	84	5004
2026-01-07 14:50:57.19	303.07	73.29	-33.8	-34.1	6.3	2615535	84	5076
2026-01-07 14:50:57.59	303.51	73.15	-34.0	-33.9	6.2	2780090	85	4868
2026-01-07 14:50:57.99	303.94	73.00	-33.7	-33.3	6.5	2124229	85	4705
2026-01-07 14:50:58.39	304.37	72.85	-33.7	-33.2	6.5	2203765	85	4676
2026-01-07 14:50:58.79	304.78	72.70	-33.6	-33.1	6.5	2140594	85	4629
2026-01-07 14:50:59.20	305.20	72.54	-33.6	-32.9	6.6	1882221	85	4570
2026-01-07 14:50:59.60	305.60	72.39	-33.7	-33.2	6.4	2117546	85	4655
2026-01-07 14:51:00.00	305.99	72.24	-33.7	-33.2	6.4	2486457	85	4680
2026-01-07 14:51:00.40	306.38	72.09	-34.0	-33.9	6.0	2599731	85	4888
2026-01-07 14:51:00.80	306.76	71.94	-34.3	-34.7	5.6	3465362	85	5115
2026-01-07 14:51:01.21	307.14	71.78	-34.5	-34.5	5.3	3975162	86	4920
2026-01-07 14:51:01.61	307.50	71.63	-34.7	-35.0	5.1	6489910	86	5063
2026-01-07 14:51:02.01	307.86	71.47	-34.6	-34.6	5.2	6717922	86	4947
2026-01-07 14:51:02.41	308.22	71.32	-34.8	-35.0	5.0	7105327	86	5056
2026-01-07 14:51:02.82	308.57	71.16	-34.7	-34.7	5.1	6420318	86	4950
2026-01-07 14:51:03.22	308.91	71.00	-34.6	-34.7	5.1	6524322	86	4959
2026-01-07 14:51:03.62	309.25	70.85	-34.6	-34.7	5.1	7390766	86	4967
2026-01-07 14:51:04.02	309.58	70.69	-34.6	-33.9	5.5	7536575	87	4554
2026-01-07 14:51:04.42	309.90	70.53	-31.0	-30.5	9.3	2149188	79	4678
2026-01-07 14:51:04.83	310.23	70.37	-36.1	-37.0	4.6	1553821	88	5429
2026-01-07 14:51:05.23	310.54	70.22	-37.4	-40.8	3.6	8159591	91	7247

#Closed at: 2026-01-07 14:51:05