passes_logs/2026/01/03/XPeterburg/XPeterburg__20260103_191127_FENGYUN_3F_rec.log

#Pass ID: 20260103_191127_FENGYUN 3F
#Satellite: FENGYUN 3F
#Configuration: FENGYUN 3F
#Start time: 2026-01-03 19:11:23

#Version: 1.5.20200625
#Station: XPeterburg
#Location: 30.318091 lon 59.932769 lat
#TLE: 1 57490U 23111A   25359.20461847  .00000075  00000+0  55793-4 0  9993
#TLE: 2 57490  98.7067  67.2960 0000833 117.6209 242.5052 14.19896763124173

#Time	Az	El	Level	Level2	SNR	BER	Gain	Gain2
2026-01-03 19:11:23.93	163.76	68.63	-38.5	-40.0	3.3	8383403	95	5897
2026-01-03 19:11:24.33	163.79	68.81	-37.8	-40.7	3.5	8439651	92	6816
2026-01-03 19:11:24.74	163.82	69.00	-37.7	-39.4	3.3	8394378	92	5978
2026-01-03 19:11:25.14	163.86	69.18	-37.4	-39.4	3.7	8425849	92	6216
2026-01-03 19:11:25.54	163.89	69.37	-37.3	-38.1	3.5	8394767	92	5418
2026-01-03 19:11:25.94	163.92	69.55	-37.5	-40.2	3.6	8397251	92	6727
2026-01-03 19:11:26.34	163.95	69.74	-37.6	-39.0	3.4	8411750	92	5777
2026-01-03 19:11:26.75	163.99	69.93	-37.3	-39.6	3.6	8408077	92	6383
2026-01-03 19:11:27.15	164.02	70.12	-37.0	-37.3	3.7	8410194	92	5088
2026-01-03 19:11:27.55	164.06	70.30	-37.1	-38.8	3.7	8340305	92	6037
2026-01-03 19:11:27.95	164.10	70.49	-37.3	-38.5	3.6	8415321	92	5599
2026-01-03 19:11:28.35	164.13	70.68	-37.3	-39.4	3.7	8374832	92	6314
2026-01-03 19:11:28.76	164.17	70.87	-37.3	-38.6	3.6	8422302	92	5688
2026-01-03 19:11:29.16	164.21	71.06	-37.4	-38.6	3.5	8360515	92	5607
2026-01-03 19:11:29.56	164.25	71.24	-37.3	-38.1	3.6	8362323	92	5405
2026-01-03 19:11:29.96	164.29	71.43	-37.0	-37.3	3.8	8348258	92	5110
2026-01-03 19:11:30.36	164.33	71.62	-36.7	-37.0	4.1	8217910	91	5072
2026-01-03 19:11:30.77	164.37	71.82	-36.7	-36.8	4.2	8213493	91	5020
2026-01-03 19:11:31.17	164.41	72.01	-36.6	-36.8	4.2	8199554	91	5007
2026-01-03 19:11:31.57	164.46	72.20	-36.5	-36.4	4.3	8178680	91	4877
2026-01-03 19:11:31.97	164.50	72.39	-36.3	-35.8	4.6	7899089	91	4659
2026-01-03 19:11:32.37	164.55	72.58	-35.9	-35.6	4.7	7734912	90	4747
2026-01-03 19:11:32.77	164.59	72.77	-36.2	-36.3	4.5	7755535	90	4980
2026-01-03 19:11:33.18	164.64	72.96	-36.3	-36.5	4.4	7925079	90	5043
2026-01-03 19:11:33.58	164.69	73.16	-36.3	-36.5	4.4	7986957	90	5034
2026-01-03 19:11:33.98	164.74	73.35	-36.1	-36.1	4.5	7983261	90	4896
2026-01-03 19:11:34.38	164.79	73.54	-36.1	-36.1	4.5	7892063	90	4879
2026-01-03 19:11:34.78	164.84	73.73	-36.3	-36.4	4.4	7894466	90	4996
2026-01-03 19:11:35.19	164.90	73.93	-36.5	-37.0	4.2	8095001	90	5211
2026-01-03 19:11:35.59	164.95	74.12	-36.7	-37.4	4.0	8243774	90	5343
2026-01-03 19:11:35.99	165.01	74.32	-36.6	-37.0	4.1	8247150	90	5183
2026-01-03 19:11:36.39	165.07	74.51	-36.6	-37.2	4.1	8200561	90	5235
2026-01-03 19:11:36.79	165.13	74.70	-37.0	-38.0	3.8	8237926	90	5528
2026-01-03 19:11:37.20	165.19	74.90	-37.7	-40.3	3.6	8426971	92	6656
2026-01-03 19:11:37.60	165.25	75.10	-38.0	-39.7	3.4	8427589	92	6014
2026-01-03 19:11:38.00	165.32	75.29	-37.7	-40.4	3.6	8396759	92	6664
2026-01-03 19:11:38.40	165.38	75.49	-37.5	-38.3	3.6	8389686	92	5392
2026-01-03 19:11:38.80	165.45	75.68	-37.6	-40.0	3.7	8397571	92	6467
2026-01-03 19:11:39.21	165.52	75.88	-37.8	-39.1	3.6	8392787	92	5769
2026-01-03 19:11:39.61	165.59	76.08	-37.7	-40.5	3.6	8368915	92	6739
2026-01-03 19:11:40.01	165.66	76.27	-37.5	-38.7	3.7	8426422	92	5644
2026-01-03 19:11:40.41	165.74	76.47	-37.2	-37.6	3.9	8337467	92	5138
2026-01-03 19:11:40.81	165.82	76.67	-37.0	-37.1	4.0	8271160	92	5005
2026-01-03 19:11:41.22	165.90	76.87	-37.0	-37.3	4.0	8222591	92	5046
2026-01-03 19:11:41.62	165.98	77.07	-37.3	-38.1	3.9	8276756	92	5375
2026-01-03 19:11:42.02	166.07	77.26	-37.4	-39.7	3.7	8335578	92	6425
2026-01-03 19:11:42.42	166.16	77.46	-37.4	-38.7	3.8	8364658	92	5685
2026-01-03 19:11:42.83	166.25	77.66	-37.3	-38.2	3.8	8317382	92	5442
2026-01-03 19:11:43.23	166.34	77.86	-37.7	-40.7	3.7	8356464	92	6923
2026-01-03 19:11:43.63	166.44	78.06	-38.0	-39.9	3.5	8391895	93	6115
2026-01-03 19:11:44.03	166.54	78.26	-38.0	-41.2	3.6	8418628	93	7086
2026-01-03 19:11:44.43	166.65	78.46	-37.8	-39.2	3.6	8385372	93	5757
2026-01-03 19:11:44.84	166.76	78.66	-38.0	-41.0	3.6	8365081	93	6969
2026-01-03 19:11:45.24	166.87	78.86	-38.2	-40.3	3.4	8421192	93	6239
2026-01-03 19:11:45.64	166.98	79.06	-37.9	-40.6	3.6	8388587	93	6727
2026-01-03 19:11:46.04	167.10	79.26	-37.6	-38.3	3.7	8373458	93	5348
2026-01-03 19:11:46.44	167.23	79.46	-37.7	-39.8	3.7	8351314	93	6288
2026-01-03 19:11:46.84	167.36	79.66	-37.9	-39.4	3.6	8405719	93	5871
2026-01-03 19:11:47.25	167.50	79.86	-37.9	-40.6	3.6	8377807	93	6740
2026-01-03 19:11:47.65	167.64	80.06	-38.1	-40.0	3.6	8427371	93	6113
2026-01-03 19:11:48.05	167.78	80.26	-38.2	-40.2	3.4	8384765	93	6177
2026-01-03 19:11:48.45	167.93	80.46	-38.3	-40.9	3.4	8433940	93	6645
2026-01-03 19:11:48.85	168.09	80.66	-38.3	-40.1	3.3	8401142	93	6070
2026-01-03 19:11:49.26	168.26	80.87	-38.4	-41.2	3.5	8437534	93	6861
2026-01-03 19:11:49.66	168.44	81.07	-38.6	-40.6	3.3	8388359	94	6248
2026-01-03 19:11:50.06	168.62	81.27	-38.7	-42.2	3.6	8420711	94	7360
2026-01-03 19:11:50.46	168.81	81.47	-38.8	-41.3	3.3	8406887	94	6550
2026-01-03 19:11:50.86	169.01	81.67	-38.8	-42.6	3.6	8426353	94	7620
2026-01-03 19:11:51.26	169.22	81.87	-38.7	-40.9	3.3	8401050	94	6348
2026-01-03 19:11:51.67	169.44	82.08	-38.7	-42.2	3.6	8393863	94	7368
2026-01-03 19:11:52.07	169.67	82.28	-38.7	-40.8	3.3	8431514	94	6309
2026-01-03 19:11:52.47	169.92	82.48	-38.7	-42.4	3.6	8398097	94	7546
2026-01-03 19:11:52.87	170.17	82.68	-38.6	-40.9	3.4	8422943	94	6352
2026-01-03 19:11:53.27	170.44	82.88	-38.9	-42.2	3.6	8402538	95	7184
2026-01-03 19:11:53.68	170.74	83.09	-38.9	-41.2	3.4	8449825	95	6391
2026-01-03 19:11:54.08	171.05	83.29	-38.8	-40.4	3.3	8399299	95	5913
2026-01-03 19:11:54.48	171.37	83.49	-38.8	-40.9	3.4	8447055	95	6265
2026-01-03 19:11:54.88	171.71	83.69	-38.8	-40.5	3.3	8400455	95	5978
2026-01-03 19:11:55.29	172.09	83.89	-38.8	-41.0	3.4	8434444	95	6319
2026-01-03 19:11:55.69	172.48	84.09	-38.8	-40.5	3.3	8400306	95	5942
2026-01-03 19:11:56.09	172.91	84.29	-39.0	-41.4	3.5	8457378	96	6501
2026-01-03 19:11:56.49	173.36	84.49	-39.2	-41.0	3.3	8405857	96	6065
2026-01-03 19:11:56.89	173.84	84.69	-39.2	-42.5	3.6	8440509	96	7251
2026-01-03 19:11:57.29	174.37	84.89	-39.1	-40.9	3.3	8430828	96	6055
2026-01-03 19:11:57.70	174.95	85.10	-38.9	-41.6	3.6	8402458	96	6710
2026-01-03 19:11:58.10	175.56	85.30	-38.9	-40.0	3.3	8416145	96	5609
2026-01-03 19:11:58.50	176.23	85.50	-38.9	-41.6	3.6	8420631	96	6668
2026-01-03 19:11:58.90	176.97	85.69	-38.9	-40.1	3.3	8444675	96	5683
2026-01-03 19:11:59.30	177.77	85.89	-38.7	-41.3	3.6	8407287	95	6617
2026-01-03 19:11:59.71	178.67	86.09	-38.5	-39.4	3.4	8430690	95	5467
2026-01-03 19:12:00.11	179.65	86.29	-38.6	-41.1	3.6	8396484	95	6527
2026-01-03 19:12:00.51	180.74	86.48	-38.8	-40.8	3.4	8442123	95	6172
2026-01-03 19:12:00.91	181.95	86.67	-39.1	-41.0	3.3	8389102	95	6184
2026-01-03 19:12:01.31	183.31	86.86	-38.8	-40.9	3.4	8445465	95	6217
2026-01-03 19:12:01.71	184.85	87.05	-38.6	-39.5	3.3	8392948	95	5440
2026-01-03 19:12:02.12	186.65	87.24	-38.6	-40.4	3.5	8422611	95	6057
2026-01-03 19:12:02.52	188.65	87.43	-38.9	-40.5	3.3	8396987	95	5907
2026-01-03 19:12:02.92	190.96	87.61	-38.9	-41.7	3.6	8443920	95	6772
2026-01-03 19:12:03.32	193.65	87.78	-38.4	-38.8	3.4	8396278	95	5174
2026-01-03 19:12:03.72	196.79	87.96	-38.0	-39.6	3.6	8387374	94	5947
2026-01-03 19:12:04.13	200.58	88.12	-38.3	-39.2	3.4	8407939	94	5483
2026-01-03 19:12:04.53	204.98	88.28	-38.5	-41.4	3.6	8409141	94	6834
2026-01-03 19:12:04.93	210.19	88.42	-38.4	-39.6	3.3	8411979	94	5617
2026-01-03 19:12:05.33	216.37	88.54	-38.5	-41.4	3.6	8425426	94	6849
2026-01-03 19:12:05.73	223.60	88.65	-38.6	-40.1	3.4	8445190	94	5867
2026-01-03 19:12:06.14	232.14	88.73	-38.6	-41.6	3.6	8388027	94	6930
2026-01-03 19:12:06.54	241.37	88.78	-38.8	-40.7	3.3	8437076	94	6126
2026-01-03 19:12:06.94	251.13	88.80	-39.3	-42.8	3.6	8392284	95	7417
2026-01-03 19:12:07.34	260.87	88.78	-39.4	-42.3	3.4	8436996	95	6841
2026-01-03 19:12:07.74	270.06	88.73	-39.5	-43.1	3.6	8381572	96	7488
2026-01-03 19:12:08.15	278.52	88.64	-39.5	-42.1	3.4	8447330	96	6651
2026-01-03 19:12:08.55	285.69	88.54	-39.4	-41.4	3.3	8387912	96	6177
2026-01-03 19:12:08.95	291.80	88.41	-39.4	-42.0	3.4	8434696	96	6649
2026-01-03 19:12:09.35	296.96	88.27	-39.3	-41.0	3.3	8407779	96	5991
2026-01-03 19:12:09.75	301.31	88.11	-39.2	-41.7	3.5	8442375	96	6528
2026-01-03 19:12:10.15	304.98	87.95	-39.2	-40.6	3.3	8393016	96	5829
2026-01-03 19:12:10.56	308.17	87.77	-39.1	-41.5	3.6	8443405	96	6516
2026-01-03 19:12:10.96	310.83	87.60	-38.9	-39.9	3.3	8421340	96	5486
2026-01-03 19:12:11.36	313.12	87.42	-38.8	-40.9	3.6	8406600	96	6267
2026-01-03 19:12:11.76	315.11	87.23	-38.7	-39.8	3.3	8414234	95	5533
2026-01-03 19:12:12.16	316.85	87.05	-38.7	-41.2	3.6	8422531	95	6547
2026-01-03 19:12:12.56	318.38	86.86	-38.9	-40.5	3.3	8419647	95	5861
2026-01-03 19:12:12.97	319.76	86.66	-38.9	-41.9	3.6	8389286	95	6934
2026-01-03 19:12:13.37	320.97	86.47	-39.1	-41.0	3.3	8431709	95	6133
2026-01-03 19:12:13.77	322.05	86.27	-39.2	-42.6	3.6	8396781	95	7291
2026-01-03 19:12:14.17	323.02	86.08	-39.1	-41.0	3.3	8442272	95	6165
2026-01-03 19:12:14.58	323.92	85.88	-38.9	-41.6	3.6	8380565	95	6721
2026-01-03 19:12:14.98	324.72	85.68	-38.9	-40.7	3.4	8441883	95	6054
2026-01-03 19:12:15.38	325.45	85.48	-39.0	-40.7	3.3	8391002	95	5964
2026-01-03 19:12:15.78	326.11	85.29	-39.1	-41.5	3.4	8435794	95	6532
2026-01-03 19:12:16.18	326.73	85.09	-38.9	-40.5	3.3	8397571	95	5887
2026-01-03 19:12:16.58	327.29	84.89	-38.8	-40.6	3.4	8425998	95	6060
2026-01-03 19:12:16.99	327.82	84.68	-38.8	-40.1	3.3	8396438	95	5690
2026-01-03 19:12:17.39	328.31	84.48	-38.9	-41.2	3.5	8440567	95	6439
2026-01-03 19:12:17.79	328.76	84.28	-38.9	-40.6	3.3	8395248	95	5954
2026-01-03 19:12:18.19	329.18	84.08	-39.0	-42.0	3.6	8421283	95	6944
2026-01-03 19:12:18.60	329.58	83.88	-38.8	-40.2	3.3	8405033	95	5769
2026-01-03 19:12:19.00	329.94	83.68	-38.7	-41.3	3.6	8435039	95	6666
2026-01-03 19:12:19.40	330.29	83.48	-39.1	-41.1	3.3	8414669	95	6199
2026-01-03 19:12:19.80	330.61	83.28	-39.2	-42.5	3.6	8390258	96	7209
2026-01-03 19:12:20.20	330.92	83.08	-39.1	-40.9	3.3	8430393	96	6068
2026-01-03 19:12:20.61	331.21	82.87	-39.1	-42.3	3.6	8395008	96	7101
2026-01-03 19:12:21.01	331.48	82.67	-39.0	-40.8	3.3	8422920	96	6065
2026-01-03 19:12:21.41	331.74	82.47	-39.0	-42.2	3.6	8394298	96	7116
2026-01-03 19:12:21.81	331.98	82.27	-39.0	-40.9	3.4	8447216	96	6112
2026-01-03 19:12:22.21	332.21	82.07	-38.6	-41.2	3.6	8390270	95	6648
2026-01-03 19:12:22.62	332.43	81.86	-38.3	-39.3	3.6	8415836	95	5496
2026-01-03 19:12:23.02	332.64	81.66	-38.2	-39.5	3.4	8390476	94	5706
2026-01-03 19:12:23.42	332.84	81.46	-38.5	-40.9	3.5	8451290	94	6491
2026-01-03 19:12:23.82	333.03	81.26	-38.4	-40.0	3.3	8400169	94	5913
2026-01-03 19:12:24.22	333.21	81.06	-38.3	-40.4	3.5	8425163	94	6307
2026-01-03 19:12:24.63	333.39	80.85	-38.2	-39.5	3.4	8385005	94	5697
2026-01-03 19:12:25.03	333.55	80.65	-38.3	-40.9	3.6	8408706	94	6651
2026-01-03 19:12:25.43	333.71	80.45	-38.3	-39.8	3.4	8415172	94	5832
2026-01-03 19:12:25.83	333.86	80.25	-38.2	-41.0	3.6	8427715	94	6761
2026-01-03 19:12:26.23	334.01	80.05	-38.1	-39.2	3.5	8390453	94	5580
2026-01-03 19:12:26.64	334.15	79.85	-38.2	-40.8	3.6	8439147	94	6635
2026-01-03 19:12:27.04	334.29	79.65	-38.3	-39.8	3.4	8426307	94	5828
2026-01-03 19:12:27.44	334.42	79.45	-38.3	-41.1	3.6	8407012	94	6783
2026-01-03 19:12:27.84	334.54	79.25	-38.2	-39.2	3.3	8406040	94	5521
2026-01-03 19:12:28.24	334.66	79.05	-38.0	-40.1	3.6	8420734	94	6233
2026-01-03 19:12:28.64	334.78	78.85	-38.1	-38.9	3.4	8438049	94	5419
2026-01-03 19:12:29.05	334.89	78.65	-38.1	-40.3	3.6	8380954	94	6338
2026-01-03 19:12:29.45	335.00	78.45	-38.1	-38.9	3.5	8428710	94	5428
2026-01-03 19:12:29.85	335.10	78.25	-38.0	-39.8	3.6	8390705	94	6046
2026-01-03 19:12:30.25	335.20	78.05	-37.7	-38.3	3.7	8432315	93	5266
2026-01-03 19:12:30.65	335.30	77.86	-37.5	-37.3	3.7	8358364	93	4855
2026-01-03 19:12:31.05	335.39	77.66	-37.5	-37.5	3.7	8357654	93	4917
2026-01-03 19:12:31.46	335.49	77.46	-37.6	-39.1	3.7	8403945	93	5856
2026-01-03 19:12:31.86	335.57	77.26	-37.4	-37.4	3.8	8409885	93	4887
2026-01-03 19:12:32.26	335.66	77.06	-37.2	-37.4	3.8	8334915	92	5031
2026-01-03 19:12:32.66	335.74	76.87	-37.4	-37.9	3.7	8308135	92	5232
2026-01-03 19:12:33.06	335.82	76.67	-37.5	-39.8	3.7	8355159	92	6360
2026-01-03 19:12:33.46	335.90	76.47	-37.6	-38.8	3.7	8384239	92	5650
2026-01-03 19:12:33.87	335.98	76.27	-37.4	-38.1	3.7	8368892	92	5324
2026-01-03 19:12:34.27	336.05	76.08	-37.3	-37.8	3.8	8325553	92	5242
2026-01-03 19:12:34.67	336.12	75.88	-37.4	-38.1	3.7	8340419	92	5358
2026-01-03 19:12:35.07	336.19	75.69	-37.2	-38.4	4.0	8381103	92	5634
2026-01-03 19:12:35.47	336.26	75.49	-36.9	-36.9	4.1	8309394	92	4932
2026-01-03 19:12:35.88	336.33	75.29	-36.8	-37.0	4.2	8187995	91	5036
2026-01-03 19:12:36.28	336.39	75.10	-36.8	-37.1	4.2	8122283	91	5070
2026-01-03 19:12:36.68	336.45	74.90	-36.7	-36.9	4.2	8165554	91	5017
2026-01-03 19:12:37.08	336.51	74.71	-36.7	-36.8	4.3	8107772	91	4958
2026-01-03 19:12:37.48	336.57	74.51	-36.8	-37.1	4.1	8129447	91	5069
2026-01-03 19:12:37.89	336.63	74.32	-37.0	-37.7	3.9	8213504	91	5306
2026-01-03 19:12:38.29	336.69	74.12	-37.2	-39.6	3.7	8327201	91	6465
2026-01-03 19:12:38.69	336.74	73.93	-37.2	-38.3	3.8	8348979	91	5540
2026-01-03 19:12:39.09	336.80	73.74	-37.4	-40.0	3.7	8343509	91	6672
2026-01-03 19:12:39.49	336.85	73.55	-37.5	-39.1	3.7	8411727	91	5921
2026-01-03 19:12:39.90	336.90	73.35	-37.5	-40.1	3.7	8368938	91	6694
2026-01-03 19:12:40.30	336.95	73.16	-37.3	-38.8	3.5	8410778	91	5826
2026-01-03 19:12:40.70	337.00	72.97	-37.3	-38.4	3.5	8377487	91	5612
2026-01-03 19:12:41.10	337.05	72.78	-37.3	-38.9	3.8	8423652	91	5935
2026-01-03 19:12:41.50	337.09	72.59	-37.3	-38.3	3.7	8342433	91	5536
2026-01-03 19:12:41.91	337.14	72.39	-37.4	-39.6	3.8	8426902	91	6359
2026-01-03 19:12:42.31	337.18	72.20	-37.3	-38.5	3.7	8379055	91	5613
2026-01-03 19:12:42.71	337.23	72.01	-37.2	-39.4	3.9	8389617	91	6331
2026-01-03 19:12:43.11	337.27	71.82	-37.2	-38.1	3.7	8366065	91	5457
2026-01-03 19:12:43.51	337.31	71.63	-37.2	-39.6	3.7	8390350	91	6485
2026-01-03 19:12:43.92	337.35	71.44	-37.3	-38.4	3.7	8362941	91	5613
2026-01-03 19:12:44.32	337.39	71.25	-37.2	-39.6	3.7	8352264	91	6507
2026-01-03 19:12:44.72	337.43	71.06	-37.2	-38.4	3.7	8365550	91	5665
2026-01-03 19:12:45.12	337.47	70.88	-37.3	-39.9	3.7	8357551	91	6696
2026-01-03 19:12:45.53	337.51	70.68	-37.5	-38.9	3.6	8408432	92	5845
2026-01-03 19:12:45.93	337.54	70.50	-37.6	-40.4	3.6	8376708	92	6820
2026-01-03 19:12:46.33	337.58	70.31	-38.3	-40.7	3.4	8436744	94	6497

#Closed at: 2026-01-03 19:12:46