passes_logs/2026/01/03/XPeterburg/XPeterburg__20260103_043336_FENGYUN_3E_rec.log

#Pass ID: 20260103_043336_FENGYUN 3E
#Satellite: FENGYUN 3E
#Configuration: FENGYUN 3E
#Start time: 2026-01-03 04:33:31

#Version: 1.5.20200625
#Station: XPeterburg
#Location: 30.318091 lon 59.932769 lat
#TLE: 1 49008U 21062A   25359.14718215  .00000011  00000+0  25812-4 0  9998
#TLE: 2 49008  98.7476 359.5210 0000940 189.9291 170.1866 14.19881103231888

#Time	Az	El	Level	Level2	SNR	BER	Gain	Gain2
2026-01-03 04:33:31.84	39.81	67.98	-37.4	-38.7	3.3	8391014	93	5746
2026-01-03 04:33:32.24	40.01	68.14	-35.3	-36.1	4.4	8398670	88	5420
2026-01-03 04:33:32.64	40.21	68.31	-34.6	-34.1	5.1	7894409	87	4684
2026-01-03 04:33:33.04	40.42	68.48	-33.5	-32.6	6.0	5361007	85	4454
2026-01-03 04:33:33.45	40.63	68.65	-32.6	-31.9	7.0	2872867	83	4542
2026-01-03 04:33:33.85	40.84	68.82	-31.9	-30.9	8.1	1141033	82	4417
2026-01-03 04:33:34.25	41.06	68.99	-31.1	-30.3	9.2	387084	80	4494
2026-01-03 04:33:34.65	41.28	69.16	-30.2	-29.7	10.0	116157	78	4597
2026-01-03 04:33:35.06	41.51	69.33	-29.6	-28.9	10.8	64189	77	4513
2026-01-03 04:33:35.46	41.73	69.50	-29.2	-28.6	11.3	23529	76	4581
2026-01-03 04:33:35.86	41.96	69.67	-28.9	-28.0	11.6	9498	76	4435
2026-01-03 04:33:36.26	42.20	69.84	-28.6	-27.9	11.8	6053	75	4548
2026-01-03 04:33:36.66	42.44	70.01	-28.5	-27.6	11.9	5241	75	4446
2026-01-03 04:33:37.06	42.68	70.18	-28.5	-27.6	11.9	5184	75	4451
2026-01-03 04:33:37.47	42.94	70.35	-29.1	-28.8	11.2	8892	75	4762
2026-01-03 04:33:37.87	43.19	70.52	-29.6	-29.3	10.8	21160	76	4775
2026-01-03 04:33:38.27	43.45	70.69	-29.8	-29.3	10.5	47492	77	4651
2026-01-03 04:33:38.67	43.71	70.85	-29.8	-29.4	10.6	41038	77	4680
2026-01-03 04:33:39.07	43.98	71.02	-29.5	-28.6	11.0	31162	77	4457
2026-01-03 04:33:39.48	44.26	71.20	-29.4	-28.5	11.1	22270	77	4436
2026-01-03 04:33:39.88	44.53	71.36	-29.4	-28.4	11.1	17692	77	4395
2026-01-03 04:33:40.28	44.82	71.53	-29.3	-28.3	11.1	18013	77	4369
2026-01-03 04:33:40.68	45.10	71.70	-29.2	-28.6	11.3	13343	76	4590
2026-01-03 04:33:41.08	45.40	71.87	-29.2	-28.5	11.4	12027	76	4539
2026-01-03 04:33:41.49	45.71	72.04	-29.0	-28.1	11.7	8239	76	4433
2026-01-03 04:33:41.89	46.01	72.21	-28.9	-27.8	11.8	8216	76	4367
2026-01-03 04:33:42.29	46.32	72.37	-28.6	-27.8	12.0	4016	75	4492
2026-01-03 04:33:42.69	46.64	72.54	-28.6	-27.9	12.0	4005	75	4511
2026-01-03 04:33:43.09	46.97	72.71	-28.7	-27.9	12.0	3444	75	4538
2026-01-03 04:33:43.50	47.31	72.88	-29.1	-28.8	11.6	4257	75	4764
2026-01-03 04:33:43.90	47.64	73.04	-28.9	-28.5	11.8	5298	75	4682
2026-01-03 04:33:44.30	47.99	73.21	-29.1	-28.8	11.7	5847	75	4802
2026-01-03 04:33:44.70	48.34	73.37	-29.1	-28.9	11.6	7266	75	4824
2026-01-03 04:33:45.10	48.70	73.54	-29.1	-28.9	11.7	6752	75	4816
2026-01-03 04:33:45.50	49.07	73.70	-28.9	-28.5	11.9	5676	75	4697
2026-01-03 04:33:45.90	49.44	73.87	-28.8	-28.2	12.1	3730	75	4602
2026-01-03 04:33:46.31	49.84	74.03	-28.6	-27.9	12.3	2094	75	4529
2026-01-03 04:33:46.71	50.23	74.20	-28.4	-27.5	12.5	1831	75	4417
2026-01-03 04:33:47.11	50.63	74.36	-28.4	-27.6	12.5	1602	75	4462
2026-01-03 04:33:47.51	51.04	74.52	-28.4	-27.6	12.5	1087	75	4466
2026-01-03 04:33:47.91	51.46	74.68	-28.6	-28.3	12.4	1258	74	4762
2026-01-03 04:33:48.32	51.89	74.85	-28.6	-28.3	12.4	1327	74	4776
2026-01-03 04:33:48.72	52.33	75.01	-28.5	-28.3	12.5	1327	74	4786
2026-01-03 04:33:49.12	52.78	75.17	-28.4	-28.1	12.6	1316	74	4724
2026-01-03 04:33:49.52	53.23	75.33	-28.4	-28.0	12.8	926	74	4684
2026-01-03 04:33:49.93	53.71	75.49	-28.3	-27.9	12.8	698	74	4678
2026-01-03 04:33:50.33	54.19	75.65	-28.2	-27.7	12.9	663	74	4610
2026-01-03 04:33:50.73	54.68	75.80	-28.2	-27.5	13.0	617	74	4535
2026-01-03 04:33:51.13	55.18	75.96	-28.0	-27.1	13.2	286	74	4446
2026-01-03 04:33:51.53	55.69	76.11	-28.1	-27.3	13.1	377	74	4489
2026-01-03 04:33:51.94	56.23	76.27	-28.2	-27.6	12.9	320	74	4589
2026-01-03 04:33:52.34	56.76	76.42	-28.2	-27.6	12.9	400	74	4576
2026-01-03 04:33:52.74	57.31	76.58	-27.9	-27.0	13.1	423	74	4428
2026-01-03 04:33:53.14	57.87	76.73	-27.8	-26.7	13.3	377	74	4347
2026-01-03 04:33:53.54	58.45	76.88	-27.7	-27.0	13.3	263	73	4542
2026-01-03 04:33:53.95	59.05	77.03	-27.7	-27.0	13.3	91	73	4542
2026-01-03 04:33:54.35	59.65	77.18	-27.3	-26.3	13.6	205	73	4361
2026-01-03 04:33:54.75	60.27	77.32	-27.5	-26.7	13.4	80	73	4451
2026-01-03 04:33:55.15	60.90	77.47	-27.3	-26.3	13.5	114	73	4364
2026-01-03 04:33:55.55	61.55	77.61	-27.3	-26.8	13.6	160	72	4632
2026-01-03 04:33:55.95	62.21	77.75	-27.1	-26.3	13.7	68	72	4493
2026-01-03 04:33:56.36	62.90	77.90	-27.0	-26.2	13.8	80	72	4481
2026-01-03 04:33:56.76	63.60	78.04	-27.0	-26.1	13.8	57	72	4460
2026-01-03 04:33:57.16	64.31	78.17	-27.0	-26.1	13.9	34	72	4437
2026-01-03 04:33:57.56	65.04	78.31	-26.8	-25.7	14.1	11	72	4322
2026-01-03 04:33:57.97	65.80	78.45	-26.7	-25.9	14.1	45	71	4479
2026-01-03 04:33:58.37	66.56	78.58	-26.8	-26.0	14.1	68	71	4517
2026-01-03 04:33:58.77	67.34	78.71	-27.0	-26.5	13.8	11	71	4654
2026-01-03 04:33:59.17	68.14	78.84	-27.0	-26.5	13.9	57	71	4656
2026-01-03 04:33:59.57	68.96	78.96	-27.1	-26.8	13.9	34	71	4745
2026-01-03 04:33:59.98	69.82	79.09	-27.0	-26.5	14.1	34	71	4654
2026-01-03 04:34:00.38	70.68	79.21	-26.9	-26.4	14.2	34	71	4652
2026-01-03 04:34:00.78	71.56	79.33	-26.9	-26.4	14.2	0	71	4626
2026-01-03 04:34:01.18	72.45	79.45	-26.9	-26.3	14.3	22	71	4610
2026-01-03 04:34:01.58	73.37	79.56	-26.9	-26.3	14.3	11	71	4600
2026-01-03 04:34:01.99	74.33	79.68	-26.9	-26.4	14.2	11	71	4639
2026-01-03 04:34:02.39	75.29	79.79	-27.0	-26.6	14.1	11	71	4705
2026-01-03 04:34:02.79	76.27	79.89	-27.1	-26.7	14.0	34	71	4733
2026-01-03 04:34:03.19	77.27	79.99	-27.0	-26.6	14.1	34	71	4684
2026-01-03 04:34:03.59	78.30	80.09	-27.1	-26.8	14.0	22	71	4764
2026-01-03 04:34:03.99	79.34	80.19	-26.9	-26.5	14.2	22	71	4672
2026-01-03 04:34:04.40	80.43	80.29	-26.9	-26.4	14.2	11	71	4663
2026-01-03 04:34:04.80	81.51	80.38	-26.8	-26.2	14.4	22	71	4597
2026-01-03 04:34:05.20	82.62	80.47	-26.7	-26.0	14.6	0	71	4539
2026-01-03 04:34:05.60	83.74	80.55	-26.8	-26.1	14.5	11	71	4571
2026-01-03 04:34:06.00	84.89	80.63	-26.8	-26.3	14.4	22	71	4613
2026-01-03 04:34:06.41	86.08	80.71	-26.9	-26.4	14.3	0	71	4651
2026-01-03 04:34:06.81	87.27	80.78	-27.1	-26.7	14.1	22	71	4741
2026-01-03 04:34:07.21	88.47	80.85	-27.1	-26.8	14.2	22	71	4754
2026-01-03 04:34:07.61	89.69	80.91	-27.0	-26.6	14.3	11	71	4704
2026-01-03 04:34:08.01	90.93	80.97	-27.0	-26.5	14.3	11	71	4673
2026-01-03 04:34:08.42	92.21	81.03	-26.9	-26.3	14.4	34	71	4631
2026-01-03 04:34:08.82	93.48	81.08	-26.9	-26.4	14.4	11	71	4655
2026-01-03 04:34:09.22	94.77	81.13	-27.0	-26.7	14.2	0	71	4726
2026-01-03 04:34:09.62	96.07	81.17	-26.9	-26.5	14.3	22	71	4669
2026-01-03 04:34:10.02	97.37	81.21	-26.9	-26.4	14.3	0	71	4637
2026-01-03 04:34:10.43	98.73	81.25	-26.9	-26.5	14.3	22	71	4672
2026-01-03 04:34:10.83	100.06	81.27	-26.8	-26.3	14.4	11	71	4610
2026-01-03 04:34:11.23	101.40	81.30	-26.6	-25.8	14.6	11	71	4489
2026-01-03 04:34:11.63	102.74	81.32	-26.5	-25.6	14.8	0	71	4426
2026-01-03 04:34:12.03	104.10	81.33	-26.5	-25.5	14.8	11	71	4416
2026-01-03 04:34:12.44	105.49	81.34	-26.4	-25.4	14.9	0	71	4367
2026-01-03 04:34:12.84	106.84	81.35	-26.3	-25.3	15.0	0	71	4348
2026-01-03 04:34:13.24	108.20	81.35	-26.5	-25.5	14.8	11	71	4412
2026-01-03 04:34:13.64	109.56	81.35	-26.5	-25.5	14.8	0	71	4404
2026-01-03 04:34:14.04	110.92	81.34	-26.6	-25.7	14.6	0	71	4459
2026-01-03 04:34:14.44	112.27	81.32	-26.7	-26.0	14.5	0	71	4534
2026-01-03 04:34:14.85	113.65	81.31	-26.5	-25.5	14.8	22	71	4414
2026-01-03 04:34:15.25	114.99	81.28	-26.4	-25.4	14.8	0	71	4383
2026-01-03 04:34:15.65	116.33	81.25	-26.3	-25.1	15.0	0	71	4297
2026-01-03 04:34:16.05	117.65	81.22	-26.3	-25.2	14.9	0	71	4331
2026-01-03 04:34:16.45	118.96	81.18	-26.4	-25.4	14.8	11	71	4384
2026-01-03 04:34:16.86	120.30	81.14	-26.5	-25.5	14.7	0	71	4416
2026-01-03 04:34:17.26	121.59	81.10	-26.7	-25.9	14.5	0	71	4526
2026-01-03 04:34:17.66	122.86	81.04	-26.5	-25.6	14.7	0	71	4434
2026-01-03 04:34:18.06	124.12	80.99	-26.4	-25.4	14.8	0	71	4387
2026-01-03 04:34:18.46	125.36	80.93	-26.3	-25.2	14.9	11	71	4329
2026-01-03 04:34:18.87	126.62	80.87	-26.4	-25.5	14.8	0	71	4397
2026-01-03 04:34:19.27	127.83	80.80	-26.4	-25.4	14.8	0	71	4387
2026-01-03 04:34:19.67	129.02	80.73	-26.5	-26.1	14.8	0	70	4704
2026-01-03 04:34:20.07	130.19	80.65	-26.5	-26.0	14.8	0	70	4672
2026-01-03 04:34:20.47	131.34	80.57	-26.7	-26.4	14.6	11	70	4787
2026-01-03 04:34:20.88	132.50	80.49	-26.8	-26.6	14.5	0	70	4849
2026-01-03 04:34:21.28	133.61	80.40	-26.9	-27.0	14.3	0	70	4948
2026-01-03 04:34:21.68	134.70	80.31	-27.0	-27.1	14.4	22	70	4971
2026-01-03 04:34:22.08	135.77	80.22	-27.0	-26.6	14.3	0	71	4700
2026-01-03 04:34:22.49	136.85	80.12	-26.9	-26.5	14.4	0	71	4677
2026-01-03 04:34:22.89	137.87	80.02	-27.0	-26.6	14.4	11	71	4694
2026-01-03 04:34:23.29	138.88	79.92	-27.0	-26.5	14.4	11	71	4686
2026-01-03 04:34:23.69	139.87	79.81	-26.9	-26.3	14.5	0	71	4624
2026-01-03 04:34:24.09	140.83	79.71	-26.9	-26.4	14.4	34	71	4646
2026-01-03 04:34:24.50	141.80	79.59	-26.9	-26.4	14.5	0	71	4635
2026-01-03 04:34:24.90	142.73	79.48	-26.9	-26.3	14.5	0	71	4624
2026-01-03 04:34:25.30	143.63	79.36	-26.8	-26.1	14.6	0	71	4566
2026-01-03 04:34:25.70	144.51	79.24	-26.7	-26.0	14.6	0	71	4524
2026-01-03 04:34:26.10	145.38	79.12	-26.6	-25.8	14.6	0	71	4493
2026-01-03 04:34:26.50	146.22	79.00	-26.6	-25.8	14.6	0	71	4478
2026-01-03 04:34:26.91	147.06	78.87	-26.6	-25.7	14.6	0	71	4454
2026-01-03 04:34:27.31	147.87	78.74	-26.5	-25.6	14.6	11	71	4428
2026-01-03 04:34:27.71	148.66	78.61	-26.5	-25.5	14.6	0	71	4397
2026-01-03 04:34:28.11	149.43	78.48	-26.4	-25.4	14.6	0	71	4379
2026-01-03 04:34:28.51	150.18	78.35	-26.3	-25.1	14.7	0	71	4293
2026-01-03 04:34:28.92	150.93	78.21	-26.3	-25.6	14.7	11	70	4553
2026-01-03 04:34:29.32	151.64	78.07	-26.2	-25.3	14.8	0	70	4481
2026-01-03 04:34:29.72	152.34	77.93	-26.2	-25.3	14.8	0	70	4473
2026-01-03 04:34:30.12	153.03	77.79	-25.9	-24.8	15.0	0	70	4332
2026-01-03 04:34:30.52	153.69	77.65	-26.1	-25.3	14.8	11	70	4456
2026-01-03 04:34:30.92	154.34	77.51	-26.0	-25.1	14.8	0	70	4417
2026-01-03 04:34:31.32	154.98	77.36	-26.1	-25.2	14.8	0	70	4426
2026-01-03 04:34:31.73	155.62	77.21	-26.2	-25.4	14.6	11	70	4478
2026-01-03 04:34:32.13	156.22	77.07	-26.4	-25.8	14.5	0	70	4581
2026-01-03 04:34:32.53	156.82	76.92	-26.5	-25.9	14.4	0	70	4622
2026-01-03 04:34:32.93	157.40	76.77	-26.4	-25.8	14.4	22	70	4597
2026-01-03 04:34:33.34	157.97	76.61	-26.5	-26.1	14.3	11	70	4676
2026-01-03 04:34:33.74	158.53	76.46	-26.4	-25.9	14.4	0	70	4616
2026-01-03 04:34:34.14	159.07	76.31	-26.7	-26.4	14.2	45	70	4766
2026-01-03 04:34:34.54	159.59	76.15	-26.8	-26.6	14.0	57	70	4820
2026-01-03 04:34:34.94	160.11	76.00	-26.9	-26.8	14.0	11	70	4862
2026-01-03 04:34:35.34	160.61	75.84	-27.1	-26.8	13.7	0	71	4733
2026-01-03 04:34:35.75	161.12	75.68	-27.1	-26.7	13.7	34	71	4726
2026-01-03 04:34:36.15	161.60	75.53	-27.2	-27.0	13.7	91	71	4804
2026-01-03 04:34:36.55	162.07	75.37	-27.3	-27.2	13.6	68	71	4869
2026-01-03 04:34:36.95	162.53	75.21	-27.3	-27.2	13.5	148	71	4867
2026-01-03 04:34:37.35	162.98	75.05	-27.7	-27.5	13.4	137	72	4818
2026-01-03 04:34:37.76	163.43	74.88	-27.8	-27.7	13.3	263	72	4882
2026-01-03 04:34:38.16	163.86	74.72	-28.0	-28.1	13.1	228	72	4997
2026-01-03 04:34:38.56	164.28	74.56	-28.2	-28.0	12.8	297	73	4832
2026-01-03 04:34:38.96	164.69	74.40	-28.3	-28.2	12.8	675	73	4874
2026-01-03 04:34:39.36	165.09	74.24	-28.4	-28.4	12.6	1087	73	4941
2026-01-03 04:34:39.77	165.50	74.07	-28.6	-28.3	12.4	1144	74	4767
2026-01-03 04:34:40.17	165.88	73.91	-28.7	-28.6	12.3	1510	74	4853
2026-01-03 04:34:40.57	166.26	73.74	-28.6	-28.3	12.4	1853	74	4753
2026-01-03 04:34:40.97	166.63	73.58	-28.5	-28.2	12.4	2185	74	4724
2026-01-03 04:34:41.37	166.99	73.41	-28.5	-28.0	12.4	1419	74	4680
2026-01-03 04:34:41.78	167.36	73.24	-28.4	-27.8	12.5	1693	74	4623
2026-01-03 04:34:42.18	167.70	73.08	-28.3	-27.7	12.5	1533	74	4581
2026-01-03 04:34:42.58	168.04	72.91	-28.3	-27.7	12.5	1510	74	4572
2026-01-03 04:34:42.98	168.38	72.74	-28.4	-27.9	12.4	1956	74	4623
2026-01-03 04:34:43.38	168.70	72.58	-28.4	-27.9	12.2	1647	74	4647
2026-01-03 04:34:43.79	169.03	72.41	-28.4	-28.0	12.2	2552	74	4651
2026-01-03 04:34:44.19	169.35	72.24	-28.4	-27.7	12.0	2391	74	4585
2026-01-03 04:34:44.59	169.65	72.07	-28.4	-27.8	12.2	2288	74	4625
2026-01-03 04:34:44.99	169.96	71.90	-28.4	-27.8	12.2	2918	74	4616
2026-01-03 04:34:45.39	170.25	71.74	-28.4	-27.9	12.1	2929	74	4640
2026-01-03 04:34:45.79	170.54	71.57	-28.4	-27.9	12.1	2380	74	4644
2026-01-03 04:34:46.20	170.83	71.40	-28.3	-27.7	12.2	2071	74	4581
2026-01-03 04:34:46.60	171.11	71.23	-28.4	-27.8	12.2	2380	74	4617
2026-01-03 04:34:47.00	171.39	71.06	-28.4	-27.8	12.2	2311	74	4617
2026-01-03 04:34:47.40	171.65	70.89	-28.7	-28.4	11.9	3089	74	4775
2026-01-03 04:34:47.81	171.93	70.72	-28.8	-28.6	11.8	3753	74	4841
2026-01-03 04:34:48.21	172.18	70.55	-33.8	-35.8	6.3	11901	82	6204
2026-01-03 04:34:48.61	172.44	70.38	-37.8	-40.9	3.5	6728370	93	6974

#Closed at: 2026-01-03 04:34:48