passes_logs/2026/01/03/XPeterburg/XPeterburg__20260103_091855_FENGYUN_3F_rec.log

#Pass ID: 20260103_091855_FENGYUN 3F
#Satellite: FENGYUN 3F
#Configuration: FENGYUN 3F
#Start time: 2026-01-03 09:18:51

#Version: 1.5.20200625
#Station: XPeterburg
#Location: 30.318091 lon 59.932769 lat
#TLE: 1 57490U 23111A   25359.20461847  .00000075  00000+0  55793-4 0  9993
#TLE: 2 57490  98.7067  67.2960 0000833 117.6209 242.5052 14.19896763124173

#Time	Az	El	Level	Level2	SNR	BER	Gain	Gain2
2026-01-03 09:18:51.26	3.42	68.20	-38.2	-40.4	3.3	8393783	94	6367
2026-01-03 09:18:51.67	3.26	68.38	-38.0	-41.2	3.5	8443222	93	7098
2026-01-03 09:18:52.07	3.11	68.56	-38.0	-40.3	3.3	8386150	93	6377
2026-01-03 09:18:52.47	2.95	68.73	-37.9	-41.2	3.6	8444011	93	7192
2026-01-03 09:18:52.87	2.78	68.91	-37.6	-38.9	3.3	8421272	93	5753
2026-01-03 09:18:53.27	2.62	69.08	-37.2	-39.6	3.6	8413696	92	6495
2026-01-03 09:18:53.68	2.44	69.26	-37.0	-37.5	3.6	8380199	92	5228
2026-01-03 09:18:54.08	2.27	69.44	-37.0	-39.1	3.7	8408924	92	6243
2026-01-03 09:18:54.48	2.09	69.61	-37.1	-38.0	3.6	8407333	92	5458
2026-01-03 09:18:54.88	1.92	69.79	-37.0	-39.1	3.6	8372039	92	6228
2026-01-03 09:18:55.28	1.73	69.96	-36.8	-37.0	3.8	8380348	92	5078
2026-01-03 09:18:55.68	1.55	70.14	-36.6	-36.9	3.9	8304553	91	5094
2026-01-03 09:18:56.09	1.35	70.32	-36.7	-37.2	3.8	8275714	91	5200
2026-01-03 09:18:56.49	1.16	70.50	-37.0	-39.4	3.7	8365310	91	6502
2026-01-03 09:18:56.89	0.96	70.67	-37.0	-38.1	3.6	8373161	91	5558
2026-01-03 09:18:57.29	0.76	70.85	-37.0	-39.5	3.7	8392284	91	6510
2026-01-03 09:18:57.69	0.56	71.03	-37.0	-38.1	3.7	8421764	91	5580
2026-01-03 09:18:58.09	0.35	71.20	-37.1	-39.6	3.7	8357357	91	6540
2026-01-03 09:18:58.50	0.13	71.38	-37.2	-38.7	3.6	8401977	91	5820
2026-01-03 09:18:58.90	359.91	71.56	-37.5	-40.7	3.6	8377166	91	7139
2026-01-03 09:18:59.30	359.69	71.74	-37.5	-39.1	3.5	8410560	92	5882
2026-01-03 09:18:59.70	359.46	71.91	-37.6	-40.4	3.6	8383609	92	6826
2026-01-03 09:19:00.11	359.23	72.10	-37.6	-39.3	3.5	8436389	92	6022
2026-01-03 09:19:00.51	358.99	72.27	-37.4	-39.9	3.6	8375793	92	6522
2026-01-03 09:19:00.91	358.75	72.45	-37.4	-38.6	3.6	8424911	92	5657
2026-01-03 09:19:01.31	358.50	72.63	-37.4	-38.3	3.5	8376560	92	5484
2026-01-03 09:19:01.71	358.25	72.80	-37.3	-38.7	3.6	8418045	92	5766
2026-01-03 09:19:02.11	357.99	72.98	-37.3	-38.0	3.6	8376628	92	5331
2026-01-03 09:19:02.52	357.72	73.16	-37.1	-38.2	3.8	8420539	92	5580
2026-01-03 09:19:02.92	357.45	73.34	-37.1	-37.4	3.7	8352756	92	5132
2026-01-03 09:19:03.32	357.17	73.51	-37.2	-39.0	3.8	8383872	92	6060
2026-01-03 09:19:03.72	356.89	73.69	-37.3	-38.0	3.6	8384433	92	5378
2026-01-03 09:19:04.13	356.60	73.87	-37.2	-39.3	3.7	8408111	92	6276
2026-01-03 09:19:04.53	356.30	74.05	-37.2	-37.8	3.7	8374580	92	5314
2026-01-03 09:19:04.93	356.00	74.22	-37.2	-39.4	3.7	8361190	92	6330
2026-01-03 09:19:05.33	355.69	74.40	-37.3	-38.5	3.6	8395076	92	5600
2026-01-03 09:19:05.73	355.37	74.58	-37.3	-39.8	3.7	8376743	92	6534
2026-01-03 09:19:06.13	355.05	74.75	-37.0	-37.5	3.8	8380691	92	5218
2026-01-03 09:19:06.54	354.71	74.93	-36.8	-37.3	4.0	8319774	91	5229
2026-01-03 09:19:06.94	354.37	75.11	-36.8	-37.4	3.9	8262382	91	5238
2026-01-03 09:19:07.34	354.02	75.28	-37.1	-38.0	3.8	8306121	91	5472
2026-01-03 09:19:07.74	353.66	75.45	-37.3	-40.1	3.7	8393154	91	6795
2026-01-03 09:19:08.14	353.29	75.63	-37.3	-38.6	3.7	8369647	91	5731
2026-01-03 09:19:08.54	352.92	75.80	-37.3	-38.6	3.7	8359748	91	5684
2026-01-03 09:19:08.95	352.52	75.98	-37.5	-39.0	3.6	8381172	91	5864
2026-01-03 09:19:09.35	352.12	76.15	-37.6	-39.7	3.7	8425106	92	6240
2026-01-03 09:19:09.75	351.72	76.32	-37.7	-39.0	3.5	8387443	92	5749
2026-01-03 09:19:10.15	351.30	76.50	-37.5	-39.7	3.7	8403362	92	6300
2026-01-03 09:19:10.56	350.86	76.67	-37.6	-38.7	3.5	8386756	92	5580
2026-01-03 09:19:10.96	350.42	76.84	-37.6	-40.0	3.7	8420791	92	6430
2026-01-03 09:19:11.36	349.97	77.01	-37.7	-38.9	3.5	8402240	92	5665
2026-01-03 09:19:11.76	349.50	77.18	-37.6	-40.0	3.6	8437557	92	6495
2026-01-03 09:19:12.17	349.01	77.36	-37.6	-38.6	3.5	8418262	92	5528
2026-01-03 09:19:12.57	348.52	77.52	-37.7	-40.3	3.6	8377487	92	6628
2026-01-03 09:19:12.97	348.02	77.69	-37.8	-39.1	3.5	8425071	92	5719
2026-01-03 09:19:13.37	347.50	77.86	-38.0	-41.1	3.6	8416831	92	7015
2026-01-03 09:19:13.77	346.96	78.02	-38.1	-39.6	3.3	8438152	93	5832
2026-01-03 09:19:14.18	346.40	78.19	-38.3	-41.4	3.6	8404048	93	7052
2026-01-03 09:19:14.58	345.83	78.36	-38.3	-40.5	3.4	8370265	93	6319
2026-01-03 09:19:14.98	345.25	78.52	-38.5	-41.7	3.6	8380805	94	7112
2026-01-03 09:19:15.38	344.65	78.68	-38.5	-40.9	3.4	8383300	94	6485
2026-01-03 09:19:15.79	344.02	78.85	-38.5	-40.6	3.3	8399219	94	6213
2026-01-03 09:19:16.19	343.38	79.01	-38.7	-41.4	3.5	8449768	95	6713
2026-01-03 09:19:16.59	342.73	79.17	-38.6	-40.1	3.3	8404769	95	5844
2026-01-03 09:19:16.99	342.05	79.32	-38.4	-40.6	1.5	8359657	96	6369
2026-01-03 09:19:17.39	341.36	79.48	-38.6	-40.0	3.3	8428836	95	5787
2026-01-03 09:19:17.80	340.62	79.64	-38.4	-41.0	3.6	8348316	95	6666
2026-01-03 09:19:18.20	339.88	79.79	-38.0	-39.2	3.3	8413673	94	5659
2026-01-03 09:19:18.60	339.12	79.94	-38.0	-40.6	3.6	8410846	94	6624
2026-01-03 09:19:19.00	338.33	80.09	-37.9	-39.0	3.5	8431411	94	5592
2026-01-03 09:19:19.40	337.52	80.24	-37.9	-40.4	3.6	8384319	94	6576
2026-01-03 09:19:19.81	336.67	80.39	-37.8	-38.6	3.5	8422405	94	5425
2026-01-03 09:19:20.21	335.80	80.53	-37.9	-40.8	3.6	8380039	93	6874
2026-01-03 09:19:20.61	334.91	80.67	-38.2	-40.4	3.4	8422702	93	6355
2026-01-03 09:19:21.01	334.00	80.81	-38.3	-42.1	3.6	8400753	93	7612
2026-01-03 09:19:21.42	333.03	80.95	-38.3	-41.0	3.4	8439697	93	6671
2026-01-03 09:19:21.82	332.05	81.09	-38.2	-40.0	3.3	8379981	93	6087
2026-01-03 09:19:22.22	331.05	81.22	-38.3	-40.9	3.5	8437339	93	6681
2026-01-03 09:19:22.62	330.01	81.35	-38.5	-41.1	3.3	8403350	93	6640
2026-01-03 09:19:23.02	328.94	81.48	-38.5	-41.8	3.5	8437843	94	7148
2026-01-03 09:19:23.43	327.82	81.60	-38.4	-40.3	3.3	8413833	94	6165
2026-01-03 09:19:23.83	326.68	81.72	-38.3	-41.3	3.6	8435703	94	6939
2026-01-03 09:19:24.23	325.51	81.84	-38.4	-40.3	3.3	8428127	94	6167
2026-01-03 09:19:24.63	324.31	81.95	-38.5	-42.0	3.6	8404117	94	7412
2026-01-03 09:19:25.03	323.08	82.06	-38.5	-40.6	3.3	8412803	94	6308
2026-01-03 09:19:25.44	321.77	82.17	-38.3	-41.6	3.6	8413707	94	7167
2026-01-03 09:19:25.84	320.47	82.28	-38.2	-39.8	3.3	8433826	94	5929
2026-01-03 09:19:26.24	319.13	82.38	-38.3	-41.4	3.6	8385143	94	7024
2026-01-03 09:19:26.64	317.75	82.47	-38.4	-40.2	3.3	8422531	94	6077
2026-01-03 09:19:27.05	316.31	82.56	-38.2	-41.3	3.6	8391551	94	6976
2026-01-03 09:19:27.45	314.86	82.65	-38.1	-39.5	3.4	8431262	94	5798
2026-01-03 09:19:27.85	313.38	82.73	-38.1	-40.7	3.6	8392559	94	6650
2026-01-03 09:19:28.25	311.87	82.80	-38.1	-39.9	3.4	8434032	94	6032
2026-01-03 09:19:28.65	310.33	82.87	-38.3	-40.0	3.3	8394046	94	5967
2026-01-03 09:19:29.06	308.72	82.94	-38.3	-40.5	3.4	8437259	94	6332
2026-01-03 09:19:29.46	307.12	83.00	-38.4	-40.1	3.3	8392044	94	6032
2026-01-03 09:19:29.86	305.49	83.06	-38.5	-41.2	3.4	8433906	94	6706
2026-01-03 09:19:30.26	303.83	83.10	-38.4	-40.5	3.3	8402961	94	6223
2026-01-03 09:19:30.66	302.16	83.15	-38.4	-40.9	3.5	8436870	94	6616
2026-01-03 09:19:31.06	300.46	83.18	-38.3	-40.0	3.3	8403865	94	5967
2026-01-03 09:19:31.47	298.71	83.22	-38.2	-40.7	3.6	8413982	94	6551
2026-01-03 09:19:31.87	296.98	83.24	-38.3	-39.9	3.3	8397834	94	5935
2026-01-03 09:19:32.27	295.24	83.26	-38.2	-41.1	3.6	8422027	94	6831
2026-01-03 09:19:32.67	293.50	83.27	-38.2	-39.6	3.4	8401245	94	5763
2026-01-03 09:19:33.07	291.75	83.28	-38.1	-40.8	3.6	8383678	94	6664
2026-01-03 09:19:33.48	289.95	83.28	-38.1	-39.1	3.4	8419750	94	5545
2026-01-03 09:19:33.88	288.20	83.27	-38.0	-40.3	3.6	8392112	94	6408
2026-01-03 09:19:34.28	286.45	83.26	-37.9	-38.7	3.5	8412414	94	5360
2026-01-03 09:19:34.68	284.71	83.24	-38.1	-40.6	3.6	8387855	94	6574
2026-01-03 09:19:35.08	282.98	83.22	-38.2	-39.8	3.4	8446540	94	5923
2026-01-03 09:19:35.49	281.23	83.18	-38.4	-41.5	3.6	8381595	94	7038
2026-01-03 09:19:35.89	279.53	83.15	-38.2	-40.0	3.4	8439811	94	6054
2026-01-03 09:19:36.29	277.86	83.10	-38.1	-39.2	3.4	8395500	94	5569
2026-01-03 09:19:36.69	276.20	83.06	-38.0	-39.4	3.6	8434535	94	5777
2026-01-03 09:19:37.09	274.58	83.00	-37.9	-38.6	3.5	8387214	94	5317
2026-01-03 09:19:37.50	272.93	82.94	-38.0	-39.6	3.6	8446620	94	5924
2026-01-03 09:19:37.90	271.36	82.87	-38.1	-39.1	3.4	8392753	94	5557
2026-01-03 09:19:38.30	269.82	82.80	-38.2	-40.9	3.6	8423515	94	6681
2026-01-03 09:19:38.70	268.31	82.73	-38.1	-39.4	3.4	8403945	94	5690
2026-01-03 09:19:39.10	266.83	82.65	-38.1	-40.8	3.6	8415733	94	6702
2026-01-03 09:19:39.51	265.35	82.56	-38.1	-39.2	3.3	8401725	94	5625
2026-01-03 09:19:39.91	263.93	82.47	-38.1	-40.9	3.6	8360160	94	6725
2026-01-03 09:19:40.31	262.56	82.38	-38.2	-39.6	3.4	8428939	94	5800
2026-01-03 09:19:40.71	261.22	82.28	-38.1	-40.8	3.6	8399379	94	6725
2026-01-03 09:19:41.11	259.91	82.17	-38.0	-39.3	3.4	8415218	94	5689
2026-01-03 09:19:41.52	258.61	82.06	-38.1	-40.7	3.6	8393177	94	6675
2026-01-03 09:19:41.92	257.37	81.95	-38.0	-39.5	3.4	8447845	94	5823
2026-01-03 09:19:42.32	256.17	81.84	-38.0	-40.8	3.6	8392707	94	6776
2026-01-03 09:19:42.72	255.00	81.72	-38.0	-39.7	3.5	8443382	94	5964
2026-01-03 09:19:43.13	253.84	81.60	-38.0	-39.2	3.4	8380153	94	5672
2026-01-03 09:19:43.53	252.74	81.48	-38.1	-40.1	3.5	8428436	94	6240
2026-01-03 09:19:43.93	251.67	81.35	-38.3	-40.1	3.3	8400329	94	6111
2026-01-03 09:19:44.33	250.63	81.22	-38.4	-41.3	3.5	8431755	94	6902
2026-01-03 09:19:44.73	249.63	81.09	-38.2	-40.0	3.3	8391323	94	6013
2026-01-03 09:19:45.14	248.63	80.95	-38.0	-40.3	3.6	8430553	94	6413
2026-01-03 09:19:45.54	247.68	80.81	-38.0	-39.3	3.4	8406623	94	5684
2026-01-03 09:19:45.94	246.76	80.67	-38.1	-41.1	3.6	8413341	94	6938
2026-01-03 09:19:46.34	245.87	80.53	-38.0	-39.2	3.4	8398155	94	5671
2026-01-03 09:19:46.74	245.01	80.39	-37.8	-40.6	3.6	8430759	93	6761
2026-01-03 09:19:47.15	244.15	80.24	-37.7	-38.9	3.6	8405136	93	5631
2026-01-03 09:19:47.55	243.34	80.09	-37.8	-40.4	3.6	8374603	93	6663
2026-01-03 09:19:47.95	242.56	79.94	-37.8	-39.3	3.5	8409667	93	5838
2026-01-03 09:19:48.35	241.79	79.79	-37.6	-40.0	3.6	8391975	93	6508
2026-01-03 09:19:48.75	241.05	79.63	-37.5	-38.6	3.7	8426158	93	5561
2026-01-03 09:19:49.16	240.32	79.48	-37.8	-40.6	3.6	8368022	93	6775
2026-01-03 09:19:49.56	239.62	79.32	-38.0	-40.1	3.4	8426261	93	6257
2026-01-03 09:19:49.96	238.95	79.16	-38.0	-41.4	3.6	8379638	93	7281
2026-01-03 09:19:50.36	238.29	79.00	-37.9	-40.0	3.5	8418697	93	6249
2026-01-03 09:19:50.76	237.65	78.84	-37.8	-39.4	3.4	8396690	93	5886
2026-01-03 09:19:51.16	237.04	78.68	-37.9	-40.0	3.5	8439868	93	6318
2026-01-03 09:19:51.57	236.42	78.52	-37.9	-39.5	3.4	8394264	93	5896
2026-01-03 09:19:51.97	235.84	78.35	-37.8	-39.8	3.6	8433094	93	6204
2026-01-03 09:19:52.37	235.27	78.19	-37.7	-38.6	3.5	8402000	93	5464
2026-01-03 09:19:52.77	234.72	78.03	-37.8	-40.2	3.7	8405181	93	6476
2026-01-03 09:19:53.17	234.19	77.86	-37.9	-39.3	3.4	8403339	93	5771
2026-01-03 09:19:53.58	233.65	77.69	-37.9	-40.5	3.6	8421958	93	6671
2026-01-03 09:19:53.98	233.15	77.52	-37.6	-38.1	3.6	8418777	93	5216
2026-01-03 09:19:54.38	232.66	77.35	-37.2	-37.5	3.7	8367301	92	5113
2026-01-03 09:19:54.78	232.18	77.18	-37.1	-37.2	3.8	8327808	92	4994
2026-01-03 09:19:55.18	231.71	77.01	-37.2	-39.1	3.7	8348636	92	6074
2026-01-03 09:19:55.59	231.25	76.84	-37.4	-38.3	3.6	8393840	92	5482
2026-01-03 09:19:55.99	230.81	76.67	-37.2	-39.1	3.7	8378585	92	6110
2026-01-03 09:19:56.39	230.38	76.50	-36.8	-36.9	3.9	8416156	92	4968
2026-01-03 09:19:56.79	229.96	76.32	-36.6	-36.5	4.0	8298751	91	4830
2026-01-03 09:19:57.20	229.54	76.15	-37.0	-37.4	3.8	8285636	91	5200
2026-01-03 09:19:57.60	229.15	75.97	-37.2	-38.1	3.7	8320175	91	5459
2026-01-03 09:19:58.00	228.76	75.80	-37.3	-39.0	3.7	8421318	91	5973
2026-01-03 09:19:58.40	228.38	75.63	-37.3	-38.4	3.7	8360870	91	5593
2026-01-03 09:19:58.80	228.02	75.45	-37.4	-39.4	3.8	8409885	91	6195
2026-01-03 09:19:59.21	227.65	75.27	-37.5	-38.7	3.5	8367404	92	5643
2026-01-03 09:19:59.61	227.30	75.10	-37.5	-39.3	3.7	8414176	92	6100
2026-01-03 09:20:00.01	226.96	74.92	-37.1	-37.5	3.7	8373516	92	5140
2026-01-03 09:20:00.41	226.63	74.75	-36.9	-36.9	3.9	8317142	92	4909
2026-01-03 09:20:00.82	226.29	74.57	-36.8	-37.2	4.0	8260253	91	5122
2026-01-03 09:20:01.22	225.98	74.39	-36.7	-37.0	4.0	8264556	91	5088
2026-01-03 09:20:01.62	225.67	74.22	-36.8	-37.2	3.9	8258720	91	5153
2026-01-03 09:20:02.02	225.36	74.04	-36.8	-37.3	3.9	8281036	91	5179
2026-01-03 09:20:02.42	225.07	73.86	-36.6	-36.6	4.1	8256706	91	4952
2026-01-03 09:20:02.82	224.78	73.69	-36.6	-36.6	4.1	8198707	91	4961
2026-01-03 09:20:03.23	224.49	73.51	-36.5	-36.6	4.1	8210025	91	4933
2026-01-03 09:20:03.63	224.21	73.33	-36.8	-37.4	3.9	8234951	91	5242
2026-01-03 09:20:04.03	223.94	73.15	-37.0	-37.9	3.8	8321731	91	5459
2026-01-03 09:20:04.43	223.68	72.97	-37.0	-39.3	3.7	8406784	91	6395
2026-01-03 09:20:04.83	223.42	72.80	-36.9	-37.7	3.8	8373916	91	5366
2026-01-03 09:20:05.24	223.16	72.62	-36.9	-37.5	3.8	8310195	91	5297
2026-01-03 09:20:05.64	222.92	72.44	-36.9	-37.4	3.8	8319580	91	5230
2026-01-03 09:20:06.04	222.67	72.26	-36.9	-38.8	3.7	8375679	91	6143
2026-01-03 09:20:06.44	222.44	72.08	-36.9	-37.6	3.7	8391494	91	5340
2026-01-03 09:20:06.84	222.21	71.91	-36.8	-37.2	3.9	8340831	91	5166
2026-01-03 09:20:07.25	221.97	71.72	-36.8	-37.3	3.8	8321605	91	5186
2026-01-03 09:20:07.65	221.75	71.55	-37.0	-39.1	3.7	8393566	91	6259
2026-01-03 09:20:08.05	221.53	71.37	-37.4	-38.7	3.5	8414909	91	5770
2026-01-03 09:20:08.45	221.32	71.19	-37.3	-39.9	3.6	8375507	91	6621
2026-01-03 09:20:08.85	221.11	71.02	-37.0	-37.8	3.7	8406600	91	5383
2026-01-03 09:20:09.26	220.90	70.83	-36.7	-36.8	3.8	8314636	91	5003
2026-01-03 09:20:09.66	220.70	70.66	-36.8	-37.0	3.8	8310665	91	5077
2026-01-03 09:20:10.06	220.50	70.48	-37.2	-39.7	3.6	8336071	91	6544
2026-01-03 09:20:10.46	220.31	70.30	-37.5	-39.0	3.5	8418033	91	5891

#Closed at: 2026-01-03 09:20:10