passes_logs/2026/01/20/XPeterburg/XPeterburg__20260120_121745_FENGYUN_3D_rec.log

#Pass ID: 20260120_121745_FENGYUN 3D
#Satellite: FENGYUN 3D
#Configuration: FENGYUN 3D
#Start time: 2026-01-20 12:17:41

#Version: 1.5.20200625
#Station: XPeterburg
#Location: 30.318091 lon 59.932769 lat
#TLE: 1 43010U 17072A   26019.93695019 -.00000250  00000+0 -96545-4 0  9996
#TLE: 2 43010  98.9942 351.8290 0002452 100.7901 259.3550 14.19695974423957

#Time	Az	El	Level	Level2	SNR	BER	Gain	Gain2
2026-01-20 12:17:41.51	138.93	68.28	-38.5	-41.0	3.3	8385177	94	3302
2026-01-20 12:17:41.92	138.75	68.46	-37.2	-39.3	4.1	8389526	91	3135
2026-01-20 12:17:42.32	138.57	68.63	-36.6	-36.8	4.5	8190456	91	2507
2026-01-20 12:17:42.72	138.39	68.81	-35.7	-35.7	5.2	7855522	89	2438
2026-01-20 12:17:43.12	138.21	68.98	-34.9	-34.4	6.2	3830829	88	2312
2026-01-20 12:17:43.52	138.02	69.15	-34.0	-33.3	7.2	2383472	86	2290
2026-01-20 12:17:43.92	137.83	69.33	-33.1	-32.5	8.3	1443134	84	2293
2026-01-20 12:17:44.33	137.63	69.50	-32.3	-31.4	9.3	368556	83	2210
2026-01-20 12:17:44.73	137.44	69.68	-31.5	-30.8	10.4	167976	81	2258
2026-01-20 12:17:45.13	137.24	69.85	-30.5	-29.8	11.5	68721	79	2254
2026-01-20 12:17:45.53	137.03	70.03	-29.8	-28.9	12.4	7003	78	2204
2026-01-20 12:17:45.94	136.82	70.20	-29.1	-28.3	13.2	1853	76	2254
2026-01-20 12:17:46.34	136.60	70.38	-28.3	-27.3	13.9	91	75	2192
2026-01-20 12:17:46.74	136.39	70.55	-28.0	-27.2	14.3	57	74	2237
2026-01-20 12:17:47.14	136.17	70.73	-28.0	-27.0	14.4	11	74	2217
2026-01-20 12:17:47.54	135.94	70.90	-28.0	-27.2	14.3	0	74	2234
2026-01-20 12:17:47.95	135.71	71.08	-28.1	-27.3	14.4	22	74	2243
2026-01-20 12:17:48.35	135.47	71.25	-28.2	-27.5	14.3	22	74	2271
2026-01-20 12:17:48.75	135.23	71.43	-28.0	-27.2	14.5	0	74	2235
2026-01-20 12:17:49.15	134.99	71.60	-27.8	-26.8	14.8	34	74	2185
2026-01-20 12:17:49.55	134.74	71.78	-27.6	-26.7	15.0	11	73	2237
2026-01-20 12:17:49.96	134.48	71.96	-27.4	-26.4	15.3	0	73	2194
2026-01-20 12:17:50.36	134.22	72.13	-27.3	-26.2	15.5	0	73	2163
2026-01-20 12:17:50.76	133.95	72.30	-27.4	-26.4	15.4	0	73	2197
2026-01-20 12:17:51.16	133.68	72.48	-27.5	-26.7	15.3	0	73	2238
2026-01-20 12:17:51.56	133.41	72.65	-27.7	-27.1	15.1	0	73	2286
2026-01-20 12:17:51.97	133.12	72.83	-27.8	-27.3	15.1	0	73	2313
2026-01-20 12:17:52.37	132.83	73.00	-27.8	-27.2	15.1	0	73	2305
2026-01-20 12:17:52.77	132.54	73.18	-27.7	-27.1	15.2	0	73	2296
2026-01-20 12:17:53.17	132.23	73.35	-27.7	-27.0	15.4	0	73	2275
2026-01-20 12:17:53.57	131.93	73.52	-27.8	-27.2	15.3	0	73	2307
2026-01-20 12:17:53.98	131.60	73.70	-27.9	-27.5	15.2	0	73	2356
2026-01-20 12:17:54.38	131.28	73.87	-28.0	-27.6	15.2	0	73	2368
2026-01-20 12:17:54.78	130.95	74.05	-27.9	-27.6	15.2	0	73	2365
2026-01-20 12:17:55.18	130.62	74.22	-27.8	-27.3	15.4	0	73	2326
2026-01-20 12:17:55.58	130.27	74.39	-27.5	-26.8	15.6	0	73	2256
2026-01-20 12:17:55.99	129.91	74.56	-27.2	-26.2	15.9	0	73	2176
2026-01-20 12:17:56.39	129.55	74.74	-27.1	-26.5	16.1	0	72	2275
2026-01-20 12:17:56.79	129.18	74.91	-27.1	-26.3	16.2	0	72	2255
2026-01-20 12:17:57.19	128.80	75.08	-27.1	-26.3	16.2	0	72	2255
2026-01-20 12:17:57.59	128.41	75.25	-27.1	-26.3	16.1	0	72	2252
2026-01-20 12:17:58.00	128.01	75.42	-27.0	-26.1	16.2	0	72	2230
2026-01-20 12:17:58.40	127.60	75.59	-26.9	-25.9	16.3	0	72	2198
2026-01-20 12:17:58.80	127.18	75.76	-26.6	-25.8	16.3	0	71	2249
2026-01-20 12:17:59.20	126.76	75.93	-26.4	-25.4	16.5	0	71	2203
2026-01-20 12:17:59.61	126.31	76.10	-26.3	-25.3	16.5	0	71	2178
2026-01-20 12:18:00.01	125.86	76.26	-26.3	-25.7	16.6	0	70	2297
2026-01-20 12:18:00.41	125.40	76.43	-26.2	-25.6	16.7	0	70	2281
2026-01-20 12:18:00.81	124.93	76.59	-26.1	-25.3	16.8	0	70	2244
2026-01-20 12:18:01.21	124.44	76.76	-26.0	-25.1	16.8	0	70	2219
2026-01-20 12:18:01.61	123.95	76.92	-26.0	-25.1	16.8	0	70	2224
2026-01-20 12:18:02.02	123.42	77.09	-25.9	-24.9	17.0	0	70	2184
2026-01-20 12:18:02.42	122.90	77.25	-25.8	-24.7	17.1	0	70	2167
2026-01-20 12:18:02.82	122.36	77.41	-25.3	-24.5	17.2	0	69	2258
2026-01-20 12:18:03.22	121.81	77.57	-25.6	-24.8	17.4	0	69	2240
2026-01-20 12:18:03.62	121.24	77.73	-25.5	-24.7	17.5	0	69	2228
2026-01-20 12:18:04.02	120.66	77.89	-25.4	-24.5	17.7	0	69	2199
2026-01-20 12:18:04.43	120.05	78.05	-25.4	-24.4	17.8	0	69	2192
2026-01-20 12:18:04.83	119.43	78.21	-25.4	-24.4	17.8	0	69	2199
2026-01-20 12:18:05.23	118.80	78.36	-25.4	-24.5	17.8	0	69	2210
2026-01-20 12:18:05.63	118.16	78.52	-25.4	-24.5	17.9	0	69	2204
2026-01-20 12:18:06.03	117.49	78.67	-25.4	-24.4	18.0	0	69	2195
2026-01-20 12:18:06.44	116.79	78.82	-25.4	-24.3	18.0	0	69	2187
2026-01-20 12:18:06.84	116.08	78.97	-25.2	-24.5	18.2	0	68	2275
2026-01-20 12:18:07.24	115.36	79.12	-25.0	-24.0	18.5	0	68	2209
2026-01-20 12:18:07.64	114.61	79.27	-24.9	-23.8	18.6	0	68	2180
2026-01-20 12:18:08.04	113.85	79.41	-24.9	-23.9	18.7	0	68	2192
2026-01-20 12:18:08.45	113.04	79.56	-24.9	-24.0	18.6	0	68	2204
2026-01-20 12:18:08.85	112.23	79.70	-25.0	-24.1	18.5	0	68	2218
2026-01-20 12:18:09.25	111.40	79.83	-25.0	-24.1	18.5	0	68	2223
2026-01-20 12:18:09.65	110.55	79.97	-25.0	-24.0	18.5	0	68	2213
2026-01-20 12:18:10.06	109.64	80.11	-25.0	-24.0	18.5	0	68	2208
2026-01-20 12:18:10.46	108.74	80.24	-24.8	-23.7	18.7	0	68	2177
2026-01-20 12:18:10.86	107.81	80.37	-24.8	-23.7	18.7	0	68	2165
2026-01-20 12:18:11.26	106.86	80.50	-24.9	-23.8	18.7	0	68	2188
2026-01-20 12:18:11.67	105.85	80.63	-25.0	-24.0	18.6	0	68	2216
2026-01-20 12:18:12.07	104.84	80.75	-25.1	-24.4	18.4	0	68	2258
2026-01-20 12:18:12.47	103.81	80.87	-25.3	-24.7	18.2	0	68	2307
2026-01-20 12:18:12.87	102.75	80.98	-25.4	-24.9	18.1	0	68	2337
2026-01-20 12:18:13.27	101.66	81.09	-25.4	-24.9	18.1	0	68	2333
2026-01-20 12:18:13.68	100.51	81.21	-25.3	-24.7	18.2	0	68	2310
2026-01-20 12:18:14.08	99.37	81.31	-25.1	-24.3	18.5	0	68	2254
2026-01-20 12:18:14.48	98.19	81.42	-25.1	-24.2	18.6	0	68	2239
2026-01-20 12:18:14.88	96.99	81.51	-25.0	-24.1	18.7	0	68	2224
2026-01-20 12:18:15.28	95.76	81.61	-25.1	-24.4	18.6	0	68	2257
2026-01-20 12:18:15.69	94.47	81.70	-25.4	-24.9	18.2	0	68	2331
2026-01-20 12:18:16.09	93.18	81.79	-25.6	-25.4	18.0	0	68	2398
2026-01-20 12:18:16.49	91.86	81.87	-25.7	-25.5	18.0	0	68	2412
2026-01-20 12:18:16.89	90.52	81.95	-25.6	-25.3	18.0	0	68	2387
2026-01-20 12:18:17.29	89.15	82.03	-25.5	-25.2	18.1	0	68	2373
2026-01-20 12:18:17.70	87.73	82.10	-25.6	-25.4	18.1	0	68	2393
2026-01-20 12:18:18.10	86.31	82.16	-25.7	-25.6	18.0	0	68	2423
2026-01-20 12:18:18.50	84.87	82.22	-25.7	-25.6	17.9	0	68	2431
2026-01-20 12:18:18.90	83.40	82.28	-25.7	-25.6	17.9	0	68	2424
2026-01-20 12:18:19.30	81.92	82.33	-25.7	-25.5	17.9	0	68	2417
2026-01-20 12:18:19.71	80.38	82.38	-25.8	-25.7	17.8	0	68	2437
2026-01-20 12:18:20.11	78.86	82.41	-25.9	-25.9	17.7	0	68	2464
2026-01-20 12:18:20.51	77.33	82.45	-26.0	-26.1	17.6	0	68	2502
2026-01-20 12:18:20.91	75.78	82.48	-25.9	-25.5	17.6	0	69	2342
2026-01-20 12:18:21.31	74.22	82.50	-26.0	-25.7	17.5	0	69	2368
2026-01-20 12:18:21.72	72.62	82.52	-26.0	-25.6	17.6	0	69	2351
2026-01-20 12:18:22.12	71.04	82.53	-26.0	-25.6	17.6	0	69	2354
2026-01-20 12:18:22.52	69.47	82.54	-25.9	-25.4	17.7	0	69	2327
2026-01-20 12:18:22.92	67.89	82.54	-26.0	-25.6	17.6	0	69	2353
2026-01-20 12:18:23.32	66.31	82.53	-26.0	-25.7	17.6	0	69	2367
2026-01-20 12:18:23.73	64.69	82.52	-26.1	-25.9	17.5	0	69	2403
2026-01-20 12:18:24.13	63.12	82.51	-26.2	-26.0	17.4	0	69	2420
2026-01-20 12:18:24.53	61.56	82.49	-26.2	-26.0	17.5	0	69	2422
2026-01-20 12:18:24.93	60.01	82.46	-26.2	-26.1	17.4	0	69	2425
2026-01-20 12:18:25.33	58.47	82.43	-26.1	-25.9	17.5	0	69	2404
2026-01-20 12:18:25.74	56.91	82.39	-26.3	-26.3	17.3	0	69	2451
2026-01-20 12:18:26.14	55.40	82.34	-26.3	-26.2	17.4	0	69	2441
2026-01-20 12:18:26.54	53.91	82.30	-26.4	-26.5	17.2	0	69	2479
2026-01-20 12:18:26.94	52.45	82.24	-26.3	-26.3	17.3	0	69	2453
2026-01-20 12:18:27.34	51.00	82.18	-26.3	-26.3	17.3	0	69	2459
2026-01-20 12:18:27.75	49.54	82.12	-26.3	-26.2	17.3	0	69	2438
2026-01-20 12:18:28.15	48.14	82.05	-26.3	-26.3	17.3	0	69	2451
2026-01-20 12:18:28.55	46.76	81.98	-26.5	-26.6	17.1	0	69	2500
2026-01-20 12:18:28.95	45.41	81.90	-26.5	-26.6	17.1	0	69	2501
2026-01-20 12:18:29.35	44.09	81.82	-26.6	-26.3	17.0	0	70	2393
2026-01-20 12:18:29.75	42.79	81.73	-26.5	-26.2	17.1	0	70	2374
2026-01-20 12:18:30.16	41.49	81.64	-26.5	-26.1	17.1	0	70	2349
2026-01-20 12:18:30.56	40.25	81.55	-26.4	-25.9	17.2	0	70	2332
2026-01-20 12:18:30.96	39.04	81.45	-26.3	-25.8	17.2	0	70	2317
2026-01-20 12:18:31.36	37.85	81.35	-26.2	-25.5	17.4	0	70	2273
2026-01-20 12:18:31.76	36.70	81.24	-25.9	-25.0	17.6	0	70	2208
2026-01-20 12:18:32.17	35.54	81.13	-25.8	-24.8	17.8	0	70	2177
2026-01-20 12:18:32.57	34.44	81.02	-25.7	-25.0	17.9	0	69	2268
2026-01-20 12:18:32.97	33.37	80.91	-25.9	-25.4	17.7	0	69	2320
2026-01-20 12:18:33.37	32.33	80.79	-26.0	-25.5	17.5	0	69	2342
2026-01-20 12:18:33.77	31.31	80.67	-26.2	-26.0	17.3	0	69	2404
2026-01-20 12:18:34.17	30.32	80.54	-26.4	-26.3	17.1	0	69	2456
2026-01-20 12:18:34.58	29.34	80.41	-26.2	-26.1	17.2	0	69	2432
2026-01-20 12:18:34.98	28.40	80.29	-26.2	-26.0	17.3	0	69	2406
2026-01-20 12:18:35.38	27.49	80.15	-26.1	-25.9	17.4	0	69	2393
2026-01-20 12:18:35.78	26.60	80.02	-26.1	-25.8	17.4	0	69	2378
2026-01-20 12:18:36.18	25.74	79.89	-26.0	-25.7	17.4	0	69	2366
2026-01-20 12:18:36.59	24.88	79.74	-26.2	-26.1	17.2	0	69	2419
2026-01-20 12:18:36.99	24.06	79.61	-26.5	-26.6	17.0	0	69	2491
2026-01-20 12:18:37.39	23.27	79.46	-26.7	-26.6	16.8	0	70	2426
2026-01-20 12:18:37.79	22.49	79.32	-26.6	-26.4	16.8	0	70	2405
2026-01-20 12:18:38.19	21.74	79.17	-26.7	-26.7	16.7	0	70	2442
2026-01-20 12:18:38.60	20.99	79.02	-26.8	-26.7	16.6	0	70	2446
2026-01-20 12:18:39.00	20.28	78.88	-26.7	-26.6	16.6	0	70	2422
2026-01-20 12:18:39.40	19.59	78.73	-26.6	-26.3	16.7	0	70	2391
2026-01-20 12:18:39.80	18.92	78.57	-26.6	-26.3	16.6	0	70	2382
2026-01-20 12:18:40.20	18.26	78.42	-26.4	-26.0	16.8	0	70	2334
2026-01-20 12:18:40.61	17.61	78.26	-26.3	-25.7	16.9	0	70	2293
2026-01-20 12:18:41.01	16.99	78.11	-26.3	-25.7	16.9	0	70	2294
2026-01-20 12:18:41.41	16.39	77.95	-26.3	-25.8	16.8	0	70	2309
2026-01-20 12:18:41.81	15.80	77.79	-26.5	-26.0	16.6	0	70	2345
2026-01-20 12:18:42.21	15.23	77.64	-26.6	-26.3	16.4	0	70	2372
2026-01-20 12:18:42.62	14.66	77.47	-26.5	-26.1	16.5	0	70	2355
2026-01-20 12:18:43.02	14.12	77.31	-26.6	-26.2	16.4	0	70	2364
2026-01-20 12:18:43.42	13.59	77.15	-26.6	-26.3	16.3	0	70	2377
2026-01-20 12:18:43.82	13.07	76.99	-26.5	-26.2	16.4	0	70	2361
2026-01-20 12:18:44.22	12.57	76.82	-26.6	-26.3	16.4	0	70	2372
2026-01-20 12:18:44.63	12.07	76.66	-26.7	-26.5	16.3	0	70	2412
2026-01-20 12:18:45.03	11.60	76.49	-26.7	-26.6	16.3	0	70	2422
2026-01-20 12:18:45.43	11.13	76.32	-26.8	-26.8	16.3	0	70	2449
2026-01-20 12:18:45.83	10.68	76.16	-26.9	-27.0	16.2	0	70	2486
2026-01-20 12:18:46.23	10.24	75.99	-26.8	-26.3	16.3	0	71	2315
2026-01-20 12:18:46.64	9.80	75.82	-26.9	-26.4	16.3	0	71	2332
2026-01-20 12:18:47.04	9.38	75.65	-27.0	-26.6	16.1	0	71	2354
2026-01-20 12:18:47.44	8.97	75.48	-27.1	-26.8	16.0	0	71	2380
2026-01-20 12:18:47.84	8.57	75.31	-27.2	-27.0	15.9	0	71	2407
2026-01-20 12:18:48.24	8.18	75.15	-27.3	-27.3	15.7	0	71	2454
2026-01-20 12:18:48.65	7.79	74.97	-27.7	-27.6	15.5	0	72	2421
2026-01-20 12:18:49.05	7.41	74.80	-27.7	-27.6	15.5	0	72	2430
2026-01-20 12:18:49.45	7.05	74.63	-27.8	-27.9	15.4	0	72	2467
2026-01-20 12:18:49.85	6.70	74.46	-27.8	-27.8	15.4	0	72	2449
2026-01-20 12:18:50.25	6.35	74.29	-27.7	-27.6	15.5	0	72	2427
2026-01-20 12:18:50.66	6.00	74.11	-27.7	-27.7	15.5	0	72	2437
2026-01-20 12:18:51.06	5.67	73.94	-27.8	-27.7	15.4	0	72	2444
2026-01-20 12:18:51.46	5.34	73.77	-27.9	-28.0	15.2	0	72	2491
2026-01-20 12:18:51.86	5.03	73.59	-27.9	-28.1	15.2	0	72	2502
2026-01-20 12:18:52.27	4.71	73.42	-27.9	-27.5	15.1	0	73	2346
2026-01-20 12:18:52.67	4.41	73.25	-27.8	-27.2	15.1	0	73	2308
2026-01-20 12:18:53.07	4.11	73.07	-27.6	-26.9	15.2	0	73	2269
2026-01-20 12:18:53.47	3.82	72.90	-27.5	-26.7	15.3	11	73	2241
2026-01-20 12:18:53.87	3.54	72.73	-27.5	-26.5	15.3	0	73	2210
2026-01-20 12:18:54.28	3.25	72.55	-27.5	-26.7	15.2	0	73	2232
2026-01-20 12:18:54.68	2.98	72.37	-27.4	-26.5	15.3	0	73	2213
2026-01-20 12:18:55.08	2.71	72.20	-27.7	-26.9	15.1	0	73	2269
2026-01-20 12:18:55.48	2.45	72.03	-27.8	-27.1	15.0	0	73	2286
2026-01-20 12:18:55.88	2.20	71.85	-27.9	-27.4	14.9	0	73	2325
2026-01-20 12:18:56.28	1.94	71.68	-28.0	-27.6	14.8	0	73	2353
2026-01-20 12:18:56.69	1.69	71.50	-28.0	-27.6	14.7	0	73	2360
2026-01-20 12:18:57.09	1.45	71.33	-28.3	-28.2	14.6	0	73	2438
2026-01-20 12:18:57.49	1.22	71.15	-28.4	-28.5	14.5	22	73	2480
2026-01-20 12:18:57.89	0.98	70.98	-28.5	-28.6	14.3	0	73	2494
2026-01-20 12:18:58.29	0.76	70.80	-28.9	-29.0	14.0	68	74	2490
2026-01-20 12:18:58.70	0.53	70.63	-29.0	-28.9	13.7	80	75	2408
2026-01-20 12:18:59.10	0.31	70.45	-29.1	-28.9	13.7	137	75	2409
2026-01-20 12:18:59.50	0.10	70.28	-35.2	-35.9	6.4	580329	87	2674

#Closed at: 2026-01-20 12:18:59