passes_logs/2026/01/20/XPeterburg/XPeterburg__20260120_022506_FENGYUN_3D_rec.log

#Pass ID: 20260120_022506_FENGYUN 3D
#Satellite: FENGYUN 3D
#Configuration: FENGYUN 3D
#Start time: 2026-01-20 02:25:01

#Version: 1.5.20200625
#Station: XPeterburg
#Location: 30.318091 lon 59.932769 lat
#TLE: 1 43010U 17072A   26018.95027258  .00000058  00000+0  49274-4 0  9992
#TLE: 2 43010  98.9939 350.8271 0002416 102.0826 258.0620 14.19696908423819

#Time	Az	El	Level	Level2	SNR	BER	Gain	Gain2
2026-01-20 02:25:01.23	34.64	68.01	-38.8	-41.8	3.3	8382339	95	3488
2026-01-20 02:25:01.63	34.79	68.18	-38.4	-42.6	3.5	8419990	93	4007
2026-01-20 02:25:02.04	34.94	68.36	-38.1	-40.6	3.3	8412506	93	3289
2026-01-20 02:25:02.44	35.09	68.54	-37.6	-40.2	3.9	8393428	93	3314
2026-01-20 02:25:02.84	35.25	68.71	-37.0	-37.6	4.3	8253444	92	2640
2026-01-20 02:25:03.24	35.40	68.89	-35.9	-35.8	5.2	7850097	90	2443
2026-01-20 02:25:03.64	35.56	69.07	-34.9	-34.6	6.6	6189010	88	2368
2026-01-20 02:25:04.05	35.73	69.25	-33.6	-33.4	8.1	1308437	85	2389
2026-01-20 02:25:04.45	35.89	69.42	-32.5	-32.1	9.5	534599	83	2338
2026-01-20 02:25:04.85	36.06	69.60	-31.7	-31.3	10.7	198703	81	2367
2026-01-20 02:25:05.25	36.23	69.78	-31.0	-30.4	11.6	23712	80	2306
2026-01-20 02:25:05.65	36.41	69.95	-30.1	-29.7	12.5	7656	78	2342
2026-01-20 02:25:06.05	36.58	70.13	-29.4	-28.7	13.3	812	77	2269
2026-01-20 02:25:06.46	36.77	70.31	-28.9	-28.2	13.9	228	76	2268
2026-01-20 02:25:06.86	36.96	70.49	-28.3	-27.5	14.3	91	75	2235
2026-01-20 02:25:07.26	37.14	70.67	-28.2	-27.7	14.6	0	74	2334
2026-01-20 02:25:07.66	37.34	70.85	-28.1	-27.6	14.6	22	74	2308
2026-01-20 02:25:08.06	37.53	71.02	-28.2	-27.7	14.6	0	74	2337
2026-01-20 02:25:08.46	37.73	71.20	-28.2	-27.8	14.6	0	74	2350
2026-01-20 02:25:08.87	37.94	71.38	-28.2	-27.8	14.6	22	74	2345
2026-01-20 02:25:09.27	38.15	71.56	-28.2	-27.7	14.7	22	74	2336
2026-01-20 02:25:09.67	38.36	71.74	-28.1	-27.6	14.7	11	74	2317
2026-01-20 02:25:10.07	38.58	71.92	-28.1	-27.6	14.8	0	74	2309
2026-01-20 02:25:10.48	38.81	72.10	-28.1	-27.5	14.9	0	74	2305
2026-01-20 02:25:10.88	39.03	72.28	-28.1	-27.6	14.9	0	74	2313
2026-01-20 02:25:11.28	39.26	72.46	-28.2	-27.8	14.8	0	74	2348
2026-01-20 02:25:11.68	39.50	72.64	-28.3	-28.0	14.8	11	74	2378
2026-01-20 02:25:12.08	39.74	72.81	-28.4	-28.3	14.7	0	74	2431
2026-01-20 02:25:12.48	39.99	72.99	-28.6	-28.7	14.6	0	74	2478
2026-01-20 02:25:12.89	40.24	73.18	-28.7	-28.9	14.4	0	74	2516
2026-01-20 02:25:13.29	40.50	73.35	-28.8	-29.0	14.4	22	74	2530
2026-01-20 02:25:13.69	40.77	73.53	-28.7	-28.9	14.5	0	74	2515
2026-01-20 02:25:14.09	41.04	73.71	-28.6	-28.7	14.7	0	74	2479
2026-01-20 02:25:14.49	41.31	73.89	-28.5	-28.4	14.9	0	74	2430
2026-01-20 02:25:14.90	41.60	74.07	-28.4	-28.2	15.0	0	74	2404
2026-01-20 02:25:15.30	41.89	74.25	-28.4	-28.2	15.0	0	74	2408
2026-01-20 02:25:15.70	42.18	74.43	-28.4	-28.3	14.9	0	74	2416
2026-01-20 02:25:16.10	42.49	74.60	-28.4	-28.3	14.8	0	74	2416
2026-01-20 02:25:16.50	42.80	74.78	-28.4	-28.2	14.8	0	74	2408
2026-01-20 02:25:16.91	43.12	74.96	-28.4	-28.2	14.8	11	74	2407
2026-01-20 02:25:17.31	43.45	75.14	-28.5	-28.3	14.8	11	74	2412
2026-01-20 02:25:17.71	43.78	75.32	-28.3	-28.0	14.9	0	74	2380
2026-01-20 02:25:18.11	44.13	75.49	-28.2	-27.8	15.0	0	74	2347
2026-01-20 02:25:18.52	44.49	75.67	-28.1	-27.6	15.1	0	74	2314
2026-01-20 02:25:18.92	44.85	75.85	-28.0	-27.4	15.2	0	74	2283
2026-01-20 02:25:19.32	45.22	76.03	-28.0	-27.3	15.1	0	74	2280
2026-01-20 02:25:19.72	45.59	76.20	-28.0	-27.4	15.0	0	74	2281
2026-01-20 02:25:20.13	45.99	76.38	-27.9	-27.2	14.9	11	74	2253
2026-01-20 02:25:20.53	46.39	76.56	-27.8	-26.9	15.0	11	74	2212
2026-01-20 02:25:20.93	46.80	76.73	-27.6	-26.9	15.2	0	73	2282
2026-01-20 02:25:21.33	47.23	76.90	-27.5	-26.7	15.3	11	73	2252
2026-01-20 02:25:21.73	47.66	77.08	-27.5	-26.7	15.3	0	73	2257
2026-01-20 02:25:22.14	48.12	77.25	-27.6	-26.9	15.2	0	73	2282
2026-01-20 02:25:22.54	48.58	77.43	-27.6	-27.1	15.2	0	73	2309
2026-01-20 02:25:22.94	49.05	77.60	-27.7	-27.2	15.1	0	73	2317
2026-01-20 02:25:23.34	49.53	77.77	-27.7	-27.1	15.2	0	73	2311
2026-01-20 02:25:23.74	50.03	77.94	-27.5	-26.7	15.4	0	73	2256
2026-01-20 02:25:24.15	50.56	78.11	-27.3	-26.3	15.7	0	73	2201
2026-01-20 02:25:24.55	51.09	78.28	-27.3	-26.8	15.8	0	72	2334
2026-01-20 02:25:24.95	51.63	78.45	-27.2	-26.7	16.0	0	72	2322
2026-01-20 02:25:25.35	52.19	78.61	-27.2	-26.7	16.1	0	72	2321
2026-01-20 02:25:25.75	52.77	78.78	-27.3	-26.8	16.1	0	72	2342
2026-01-20 02:25:26.16	53.38	78.95	-27.4	-27.1	16.0	0	72	2390
2026-01-20 02:25:26.56	54.00	79.11	-27.5	-27.4	15.9	0	72	2417
2026-01-20 02:25:26.96	54.63	79.28	-27.4	-27.2	15.9	0	72	2399
2026-01-20 02:25:27.36	55.28	79.44	-27.4	-27.1	16.0	0	72	2379
2026-01-20 02:25:27.76	55.96	79.60	-27.3	-26.9	16.1	0	72	2356
2026-01-20 02:25:28.17	56.67	79.76	-27.0	-26.3	16.3	0	72	2279
2026-01-20 02:25:28.57	57.39	79.92	-26.8	-26.0	16.6	0	72	2231
2026-01-20 02:25:28.97	58.13	80.07	-26.5	-25.8	16.8	0	71	2268
2026-01-20 02:25:29.37	58.90	80.23	-26.4	-25.6	16.8	0	71	2250
2026-01-20 02:25:29.77	59.69	80.38	-26.4	-25.6	16.9	0	71	2240
2026-01-20 02:25:30.18	60.52	80.54	-26.3	-25.4	17.0	0	71	2215
2026-01-20 02:25:30.58	61.37	80.69	-26.3	-25.9	17.0	0	70	2344
2026-01-20 02:25:30.98	62.24	80.83	-26.3	-25.8	17.1	0	70	2341
2026-01-20 02:25:31.38	63.14	80.98	-26.2	-25.8	17.1	0	70	2332
2026-01-20 02:25:31.78	64.07	81.12	-26.3	-25.8	17.1	0	70	2340
2026-01-20 02:25:32.19	65.05	81.27	-26.4	-26.1	17.0	0	70	2377
2026-01-20 02:25:32.59	66.04	81.40	-26.4	-26.2	17.0	0	70	2395
2026-01-20 02:25:32.99	67.07	81.54	-26.4	-26.1	17.1	0	70	2384
2026-01-20 02:25:33.39	68.12	81.67	-26.4	-26.2	17.1	0	70	2397
2026-01-20 02:25:33.80	69.24	81.81	-26.4	-26.1	17.1	0	70	2382
2026-01-20 02:25:34.20	70.37	81.93	-26.4	-26.1	17.1	0	70	2383
2026-01-20 02:25:34.60	71.54	82.06	-26.3	-25.9	17.3	0	70	2353
2026-01-20 02:25:35.00	72.74	82.18	-26.1	-25.6	17.4	0	70	2311
2026-01-20 02:25:35.40	73.98	82.30	-26.0	-25.4	17.5	0	70	2282
2026-01-20 02:25:35.81	75.29	82.41	-25.9	-25.1	17.6	0	70	2246
2026-01-20 02:25:36.21	76.60	82.52	-25.8	-24.9	17.7	0	70	2218
2026-01-20 02:25:36.61	77.96	82.63	-25.6	-25.1	17.8	0	69	2307
2026-01-20 02:25:37.01	79.35	82.73	-25.6	-24.9	17.9	0	69	2284
2026-01-20 02:25:37.42	80.82	82.83	-25.5	-24.9	17.9	0	69	2280
2026-01-20 02:25:37.82	82.30	82.92	-25.5	-24.8	18.0	0	69	2273
2026-01-20 02:25:38.22	83.81	83.01	-25.4	-24.7	18.0	0	69	2254
2026-01-20 02:25:38.62	85.36	83.10	-25.4	-24.6	18.1	0	69	2236
2026-01-20 02:25:39.02	86.95	83.17	-25.5	-24.7	18.0	0	69	2253
2026-01-20 02:25:39.42	88.57	83.25	-25.6	-24.9	17.8	0	69	2287
2026-01-20 02:25:39.83	90.27	83.32	-25.7	-25.2	17.7	0	69	2326
2026-01-20 02:25:40.23	91.96	83.38	-25.8	-25.4	17.6	0	69	2355
2026-01-20 02:25:40.63	93.68	83.43	-25.8	-25.5	17.6	0	69	2362
2026-01-20 02:25:41.03	95.43	83.48	-25.8	-25.4	17.6	0	69	2353
2026-01-20 02:25:41.43	97.21	83.53	-25.8	-25.4	17.6	0	69	2345
2026-01-20 02:25:41.83	99.00	83.56	-25.8	-25.3	17.7	0	69	2335
2026-01-20 02:25:42.24	100.87	83.60	-25.7	-25.2	17.6	0	69	2329
2026-01-20 02:25:42.64	102.70	83.62	-25.7	-25.2	17.7	0	69	2323
2026-01-20 02:25:43.04	104.54	83.64	-25.6	-25.1	17.7	0	69	2309
2026-01-20 02:25:43.44	106.40	83.65	-25.6	-25.0	17.8	0	69	2302
2026-01-20 02:25:43.84	108.26	83.66	-25.6	-25.1	17.8	0	69	2303
2026-01-20 02:25:44.25	110.16	83.65	-25.6	-25.0	17.8	0	69	2291
2026-01-20 02:25:44.65	112.02	83.65	-25.6	-24.9	17.8	0	69	2285
2026-01-20 02:25:45.05	113.87	83.63	-25.6	-25.0	17.8	0	69	2294
2026-01-20 02:25:45.45	115.71	83.61	-25.7	-25.1	17.7	0	69	2313
2026-01-20 02:25:45.85	117.53	83.58	-25.7	-25.1	17.8	0	69	2311
2026-01-20 02:25:46.25	119.34	83.55	-25.7	-25.2	17.7	0	69	2319
2026-01-20 02:25:46.66	121.17	83.50	-25.7	-25.2	17.8	0	69	2317
2026-01-20 02:25:47.06	122.93	83.46	-25.6	-25.1	17.8	0	69	2306
2026-01-20 02:25:47.46	124.67	83.40	-25.5	-24.7	18.0	0	69	2253
2026-01-20 02:25:47.86	126.37	83.34	-25.4	-24.5	18.1	0	69	2225
2026-01-20 02:25:48.26	128.04	83.28	-25.3	-24.4	18.2	0	69	2206
2026-01-20 02:25:48.67	129.72	83.21	-25.3	-24.4	18.2	0	69	2210
2026-01-20 02:25:49.07	131.33	83.13	-25.4	-24.6	18.1	0	69	2239
2026-01-20 02:25:49.47	132.90	83.05	-25.5	-24.8	18.0	0	69	2271
2026-01-20 02:25:49.87	134.43	82.96	-25.6	-25.0	17.8	0	69	2301
2026-01-20 02:25:50.27	135.92	82.87	-25.7	-25.2	17.7	0	69	2322
2026-01-20 02:25:50.68	137.41	82.78	-25.8	-25.5	17.5	0	69	2366
2026-01-20 02:25:51.08	138.82	82.68	-25.9	-25.7	17.4	0	69	2404
2026-01-20 02:25:51.48	140.19	82.57	-25.9	-25.7	17.5	0	69	2397
2026-01-20 02:25:51.88	141.53	82.46	-26.0	-25.8	17.4	0	69	2411
2026-01-20 02:25:52.28	142.82	82.35	-25.9	-25.6	17.5	0	69	2381
2026-01-20 02:25:52.68	144.08	82.23	-25.9	-25.7	17.5	0	69	2391
2026-01-20 02:25:53.09	145.33	82.11	-25.9	-25.5	17.6	0	69	2369
2026-01-20 02:25:53.49	146.51	81.99	-25.8	-25.4	17.7	0	69	2348
2026-01-20 02:25:53.89	147.65	81.86	-25.9	-25.6	17.6	0	69	2379
2026-01-20 02:25:54.29	148.76	81.73	-26.0	-25.8	17.5	0	69	2410
2026-01-20 02:25:54.69	149.84	81.60	-26.1	-26.0	17.4	0	69	2435
2026-01-20 02:25:55.10	150.90	81.46	-26.2	-26.2	17.2	0	69	2460
2026-01-20 02:25:55.50	151.91	81.33	-26.1	-26.0	17.3	0	69	2442
2026-01-20 02:25:55.90	152.89	81.19	-26.1	-25.9	17.3	0	69	2429
2026-01-20 02:25:56.30	153.83	81.04	-26.2	-26.1	17.2	0	69	2456
2026-01-20 02:25:56.71	154.76	80.90	-26.2	-26.1	17.2	0	69	2452
2026-01-20 02:25:57.11	155.65	80.75	-26.4	-26.6	17.0	0	69	2519
2026-01-20 02:25:57.51	156.50	80.60	-26.6	-26.6	16.8	0	70	2452
2026-01-20 02:25:57.91	157.33	80.45	-26.8	-27.0	16.6	0	70	2514
2026-01-20 02:25:58.31	158.13	80.30	-26.8	-26.9	16.6	0	70	2497
2026-01-20 02:25:58.72	158.93	80.14	-26.8	-27.0	16.6	0	70	2507
2026-01-20 02:25:59.12	159.68	79.99	-26.7	-26.8	16.8	0	70	2476
2026-01-20 02:25:59.52	160.41	79.83	-26.7	-26.6	16.8	0	70	2454
2026-01-20 02:25:59.92	161.12	79.67	-26.8	-26.9	16.7	0	70	2487
2026-01-20 02:26:00.33	161.82	79.51	-26.9	-27.2	16.5	0	70	2540
2026-01-20 02:26:00.73	162.48	79.34	-27.1	-27.0	16.3	0	71	2448
2026-01-20 02:26:01.13	163.12	79.18	-27.4	-27.8	15.9	0	71	2553
2026-01-20 02:26:01.53	163.75	79.02	-27.7	-27.8	15.8	0	72	2489
2026-01-20 02:26:01.93	164.35	78.85	-27.9	-28.2	15.6	0	72	2555
2026-01-20 02:26:02.34	164.95	78.68	-27.9	-27.7	15.5	0	73	2400
2026-01-20 02:26:02.74	165.52	78.52	-27.9	-27.7	15.5	0	73	2401
2026-01-20 02:26:03.14	166.07	78.35	-27.9	-27.6	15.5	0	73	2393
2026-01-20 02:26:03.54	166.61	78.18	-28.0	-27.9	15.3	0	73	2437
2026-01-20 02:26:03.94	167.13	78.01	-28.2	-28.2	15.1	0	73	2471
2026-01-20 02:26:04.35	167.65	77.84	-28.1	-28.2	15.1	11	73	2465
2026-01-20 02:26:04.75	168.14	77.67	-28.2	-28.2	15.0	0	73	2468
2026-01-20 02:26:05.15	168.62	77.50	-28.0	-27.8	15.1	0	73	2412
2026-01-20 02:26:05.55	169.08	77.32	-28.0	-27.8	15.1	0	73	2414
2026-01-20 02:26:05.96	169.54	77.15	-28.1	-28.1	14.9	0	73	2450
2026-01-20 02:26:06.36	169.98	76.97	-28.0	-27.7	15.0	0	73	2398
2026-01-20 02:26:06.76	170.41	76.80	-28.0	-27.7	15.0	0	73	2396
2026-01-20 02:26:07.16	170.83	76.63	-28.0	-27.9	14.9	0	73	2422
2026-01-20 02:26:07.57	171.24	76.45	-28.0	-27.9	14.9	0	73	2415
2026-01-20 02:26:07.97	171.64	76.27	-28.0	-27.9	14.8	11	73	2415
2026-01-20 02:26:08.37	172.02	76.10	-28.4	-28.6	14.4	0	73	2516
2026-01-20 02:26:08.77	172.39	75.92	-28.3	-28.4	14.4	11	73	2499
2026-01-20 02:26:09.17	172.76	75.75	-28.4	-28.6	14.4	0	73	2519
2026-01-20 02:26:09.58	173.12	75.56	-28.5	-28.2	14.3	34	74	2399
2026-01-20 02:26:09.98	173.47	75.39	-28.6	-28.5	14.2	0	74	2437
2026-01-20 02:26:10.38	173.81	75.21	-28.6	-28.6	14.2	34	74	2453
2026-01-20 02:26:10.78	174.14	75.03	-28.6	-28.7	14.2	0	74	2466
2026-01-20 02:26:11.18	174.46	74.86	-28.8	-28.9	14.1	11	74	2504
2026-01-20 02:26:11.59	174.78	74.67	-28.8	-29.0	14.1	68	74	2514
2026-01-20 02:26:11.99	175.08	74.50	-28.8	-29.0	14.2	45	74	2512
2026-01-20 02:26:12.39	175.38	74.32	-28.8	-29.0	14.2	22	74	2520
2026-01-20 02:26:12.79	175.67	74.14	-28.8	-29.0	14.2	11	74	2514
2026-01-20 02:26:13.19	175.96	73.96	-28.8	-29.0	14.2	22	74	2528
2026-01-20 02:26:13.59	176.24	73.78	-28.9	-29.3	14.1	11	74	2571
2026-01-20 02:26:14.00	176.52	73.60	-29.0	-29.0	13.9	0	75	2459
2026-01-20 02:26:14.40	176.78	73.42	-29.2	-29.3	13.8	34	75	2495
2026-01-20 02:26:14.80	177.04	73.24	-29.3	-29.6	13.7	102	75	2550
2026-01-20 02:26:15.20	177.30	73.06	-29.5	-30.0	13.5	91	75	2603
2026-01-20 02:26:15.60	177.55	72.89	-29.4	-29.9	13.5	228	75	2595
2026-01-20 02:26:16.01	177.80	72.70	-29.5	-29.9	13.4	183	75	2599
2026-01-20 02:26:16.41	178.04	72.52	-29.6	-29.8	13.4	286	76	2502
2026-01-20 02:26:16.81	178.27	72.34	-29.6	-29.7	13.4	251	76	2482
2026-01-20 02:26:17.21	178.50	72.17	-29.6	-29.7	13.3	331	76	2487
2026-01-20 02:26:17.61	178.72	71.99	-29.5	-29.5	13.4	297	76	2459
2026-01-20 02:26:18.01	178.94	71.81	-29.4	-29.2	13.5	263	76	2410
2026-01-20 02:26:18.42	179.16	71.63	-29.3	-29.0	13.6	205	76	2383
2026-01-20 02:26:18.82	179.37	71.45	-29.2	-28.8	13.6	91	76	2360
2026-01-20 02:26:19.22	179.58	71.27	-29.1	-28.6	13.8	57	76	2330
2026-01-20 02:26:19.62	179.78	71.09	-29.1	-28.6	13.8	137	76	2330
2026-01-20 02:26:20.02	179.98	70.91	-29.0	-28.4	13.9	114	76	2298
2026-01-20 02:26:20.43	180.17	70.73	-29.0	-28.4	13.8	91	76	2297
2026-01-20 02:26:20.83	180.36	70.55	-28.9	-28.2	13.9	45	76	2270
2026-01-20 02:26:21.23	180.55	70.37	-28.9	-28.1	13.9	91	76	2261
2026-01-20 02:26:21.63	180.73	70.20	-37.7	-41.0	3.7	1474937	93	3609

#Closed at: 2026-01-20 02:26:21