passes_logs/2026/01/19/PlanumMoscow/PlanumMoscow__20260119_083355_METOP-C_rec.log

#Pass ID: 20260119_083355_METOP-C
#Satellite: METOP-C
#Configuration: METOP-C
#Start time: 2026-01-19 08:34:00.092481

#LorettStation: 1.0.0 05.05.2024
#Station: PlanumMoscow
#Location: 37.6253844 lon 55.6713361 lat
#TLE: 1 43689U 18087A   25293.88981035  .00000265  00000+0  14109-3 0  9997
#TLE: 2 43689  98.7006 352.4487 0002041 122.1097 238.0279 14.21482740360838

#Time	Az	El	Level	SNR
2026-01-19 08:37:38.536635	353.0	26.4	-61.1	0.0
2026-01-19 08:37:40.781633	352.6	26.7	-61.7	0.0
2026-01-19 08:37:43.026149	352.2	27.0	-62.9	0.0
2026-01-19 08:37:45.269704	351.8	27.3	-62.7	0.0
2026-01-19 08:37:47.514218	351.4	27.6	-63.2	0.0
2026-01-19 08:37:49.758256	350.9	28.0	-62.2	0.0
2026-01-19 08:37:52.003268	350.5	28.3	-60.6	0.0
2026-01-19 08:37:54.246826	350.1	28.6	-62.8	0.0
2026-01-19 08:37:56.490837	349.6	28.9	-63.2	0.0
2026-01-19 08:37:58.735352	349.2	29.3	-62.2	0.0
2026-01-19 08:38:00.978393	348.7	29.6	-64.3	0.0
2026-01-19 08:38:03.225413	348.2	29.9	-63.0	0.0
2026-01-19 08:38:05.469920	347.7	30.3	-64.3	0.0
2026-01-19 08:38:07.714464	347.2	30.6	-64.6	0.0
2026-01-19 08:38:09.960990	346.7	30.9	-64.3	0.0
2026-01-19 08:38:12.205029	346.2	31.3	-63.8	0.0
2026-01-19 08:38:14.449040	345.7	31.6	-64.0	0.0
2026-01-19 08:38:16.692556	345.1	32.0	-62.9	0.0
2026-01-19 08:38:18.939604	344.6	32.3	-64.1	0.0
2026-01-19 08:38:21.183624	344.0	32.7	-64.0	0.0
2026-01-19 08:38:23.427649	343.4	33.0	-64.4	0.0
2026-01-19 08:38:25.672676	342.8	33.3	-65.0	0.0
2026-01-19 08:38:27.919703	342.2	33.7	-65.5	0.0
2026-01-19 08:38:30.164249	341.6	34.0	-65.5	0.0
2026-01-19 08:38:32.408289	341.0	34.4	-65.1	0.0
2026-01-19 08:38:34.657300	340.3	34.7	-65.1	0.0
2026-01-19 08:38:36.901815	339.6	35.1	-64.2	0.0
2026-01-19 08:38:39.146321	339.0	35.4	-64.7	0.0
2026-01-19 08:38:41.389877	338.3	35.8	-64.8	0.0
2026-01-19 08:38:43.638897	337.6	36.1	-64.9	0.0
2026-01-19 08:38:45.882949	336.9	36.4	-64.1	0.0
2026-01-19 08:38:48.127456	336.1	36.8	-64.9	0.0
2026-01-19 08:38:50.371476	335.4	37.1	-64.7	0.0
2026-01-19 08:38:52.643029	334.6	37.4	-65.0	0.0
2026-01-19 08:38:54.887068	333.8	37.8	-66.6	0.0
2026-01-19 08:38:57.131575	333.0	38.1	-66.1	0.0
2026-01-19 08:38:59.375096	332.2	38.4	-67.0	0.0
2026-01-19 08:39:01.619134	331.4	38.8	-68.2	0.0
2026-01-19 08:39:03.862649	330.5	39.1	-67.9	0.0
2026-01-19 08:39:06.105699	329.7	39.4	-67.0	0.0
2026-01-19 08:39:08.351735	328.8	39.7	-66.9	0.0
2026-01-19 08:39:10.594259	327.9	40.0	-64.0	0.0
2026-01-19 08:39:12.835834	327.0	40.3	-66.2	0.0
2026-01-19 08:39:15.079853	326.1	40.6	-67.1	0.0
2026-01-19 08:39:17.323405	325.1	40.9	-68.4	0.0
2026-01-19 08:39:19.566936	324.1	41.1	-67.9	0.0
2026-01-19 08:39:21.810495	323.2	41.4	-68.3	0.0
2026-01-19 08:39:24.054514	322.2	41.7	-68.0	0.0
2026-01-19 08:39:26.299037	321.2	41.9	-67.0	0.0
2026-01-19 08:39:28.542597	320.1	42.2	-67.1	0.0
2026-01-19 08:39:30.785670	319.1	42.4	-67.2	0.0
2026-01-19 08:39:33.032206	318.0	42.6	-67.0	0.0
2026-01-19 08:39:35.276716	316.9	42.9	-67.2	0.0
2026-01-19 08:39:37.518278	315.9	43.1	-67.0	0.0
2026-01-19 08:39:39.764303	314.7	43.3	-67.5	0.0
2026-01-19 08:39:42.008857	313.6	43.5	-66.7	0.0
2026-01-19 08:39:44.260366	312.5	43.6	-67.5	0.0
2026-01-19 08:39:46.503887	311.3	43.8	-66.2	0.0
2026-01-19 08:39:48.748908	310.2	44.0	-66.7	0.0
2026-01-19 08:39:50.992422	309.0	44.1	-67.0	0.0
2026-01-19 08:39:53.234946	307.9	44.2	-66.7	0.0
2026-01-19 08:39:55.478471	306.7	44.3	-67.1	0.0
2026-01-19 08:39:57.721491	305.5	44.4	-66.1	0.0
2026-01-19 08:39:59.964510	304.3	44.5	-66.3	0.0
2026-01-19 08:40:02.208026	303.1	44.6	-66.3	0.0
2026-01-19 08:40:04.452037	301.9	44.6	-66.4	0.0
2026-01-19 08:40:06.695552	300.7	44.7	-66.3	0.0
2026-01-19 08:40:08.938594	299.4	44.7	-66.1	0.0
2026-01-19 08:40:11.181127	298.2	44.7	-65.6	0.0
2026-01-19 08:40:13.424642	297.0	44.7	-65.8	0.0
2026-01-19 08:40:15.669157	295.8	44.7	-66.4	0.0
2026-01-19 08:40:17.913664	294.6	44.7	-66.4	0.0
2026-01-19 08:40:20.157180	293.3	44.6	-66.1	0.0
2026-01-19 08:40:22.400198	292.1	44.6	-65.7	0.0
2026-01-19 08:40:24.643218	290.9	44.5	-65.8	0.0
2026-01-19 08:40:26.884750	289.7	44.4	-66.0	0.0
2026-01-19 08:40:29.128266	288.5	44.3	-65.8	0.0
2026-01-19 08:40:31.376286	287.4	44.2	-66.9	0.0
2026-01-19 08:40:33.619801	286.2	44.1	-67.0	0.0
2026-01-19 08:40:35.862820	285.0	43.9	-66.8	0.0
2026-01-19 08:40:38.106335	283.9	43.8	-66.5	0.0
2026-01-19 08:40:40.350842	282.7	43.6	-66.5	0.0
2026-01-19 08:40:42.595861	281.6	43.5	-65.5	0.0
2026-01-19 08:40:44.840368	280.5	43.3	-65.3	0.0
2026-01-19 08:40:47.083883	279.4	43.1	-65.3	0.0
2026-01-19 08:40:49.328390	278.3	42.9	-65.0	0.0
2026-01-19 08:40:51.572401	277.2	42.6	-65.6	0.0
2026-01-19 08:40:53.822925	276.1	42.4	-65.1	0.0
2026-01-19 08:40:56.063936	275.1	42.2	-65.0	0.0
2026-01-19 08:40:58.305955	274.0	41.9	-64.6	0.0
2026-01-19 08:41:00.553978	273.0	41.7	-64.1	0.0
2026-01-19 08:41:02.796997	272.0	41.4	-64.5	0.0
2026-01-19 08:41:05.040017	271.0	41.1	-64.6	0.0
2026-01-19 08:41:07.285029	270.1	40.8	-63.9	0.0
2026-01-19 08:41:09.528551	269.1	40.6	-63.4	0.0
2026-01-19 08:41:11.770075	268.2	40.3	-63.1	0.0
2026-01-19 08:41:14.014581	267.3	40.0	-63.3	0.0
2026-01-19 08:41:16.261097	266.4	39.7	-63.9	0.0
2026-01-19 08:41:18.507604	265.5	39.4	-63.4	0.0
2026-01-19 08:41:20.749134	264.6	39.0	-62.6	0.0
2026-01-19 08:41:22.997642	263.8	38.7	-62.2	0.0
2026-01-19 08:41:25.241157	262.9	38.4	-62.0	0.0
2026-01-19 08:41:27.485168	262.1	38.1	-62.3	0.0
2026-01-19 08:41:29.728186	261.3	37.7	-62.3	0.0
2026-01-19 08:41:31.973205	260.5	37.4	-60.9	0.0
2026-01-19 08:41:34.216720	259.8	37.1	-60.4	0.0
2026-01-19 08:41:36.460256	259.0	36.7	-59.9	0.0
2026-01-19 08:41:38.705772	258.3	36.4	-60.5	0.0
2026-01-19 08:41:40.950279	257.6	36.1	-60.5	0.0
2026-01-19 08:41:43.193806	256.9	35.7	-59.7	0.0
2026-01-19 08:41:45.435338	256.2	35.4	-59.4	0.0
2026-01-19 08:41:47.679349	255.5	35.0	-58.7	0.0
2026-01-19 08:41:49.923864	254.8	34.7	-58.6	0.0
2026-01-19 08:41:52.167371	254.2	34.3	-58.9	0.0
2026-01-19 08:41:54.409886	253.6	34.0	-58.1	0.0
2026-01-19 08:41:56.652401	252.9	33.6	-57.5	0.0
2026-01-19 08:41:58.896412	252.3	33.3	-58.9	0.0
2026-01-19 08:42:01.137937	251.7	32.9	-57.4	0.0
2026-01-19 08:42:03.379947	251.2	32.6	-59.0	0.0
2026-01-19 08:42:05.622461	250.6	32.3	-58.7	0.0
2026-01-19 08:42:07.866976	250.0	31.9	-58.8	0.0
2026-01-19 08:42:10.113988	249.5	31.6	-57.2	0.0
2026-01-19 08:42:12.355006	248.9	31.2	-57.3	0.0
2026-01-19 08:42:14.597513	248.4	30.9	-57.4	0.0
2026-01-19 08:42:16.841028	247.9	30.5	-56.7	0.0
2026-01-19 08:42:19.084542	247.4	30.2	-56.5	0.0
2026-01-19 08:42:21.328057	246.9	29.9	-57.2	0.0
2026-01-19 08:42:23.570083	246.4	29.5	-57.7	0.0
2026-01-19 08:42:25.811598	246.0	29.2	-58.4	0.0
2026-01-19 08:42:28.055609	245.5	28.9	-56.4	0.0
2026-01-19 08:42:30.295618	245.1	28.5	-57.9	0.0
2026-01-19 08:42:32.537629	244.6	28.2	-57.4	0.0
2026-01-19 08:42:34.778640	244.2	27.9	-56.8	0.0
2026-01-19 08:42:37.020165	243.8	27.6	-58.7	0.0
2026-01-19 08:42:39.265680	243.3	27.2	-58.6	0.0
2026-01-19 08:42:41.509691	242.9	26.9	-58.1	0.0
2026-01-19 08:42:43.750710	242.5	26.6	-56.1	0.0
2026-01-19 08:42:45.993721	242.1	26.3	-57.6	0.0
2026-01-19 08:42:48.232740	241.8	26.0	-58.5	0.0
2026-01-19 08:42:50.474750	241.4	25.7	-57.4	0.0
2026-01-19 08:42:52.718762	241.0	25.4	-58.3	0.0
2026-01-19 08:42:54.962773	240.7	25.1	-58.6	0.0
2026-01-19 08:42:57.206784	240.3	24.8	-57.5	0.0
2026-01-19 08:42:59.450794	240.0	24.5	-57.7	0.0
2026-01-19 08:43:01.700807	239.6	24.2	-54.2	0.0
2026-01-19 08:43:03.948323	239.3	23.9	-57.2	0.0
2026-01-19 08:43:06.192334	238.9	23.6	-57.0	0.0
2026-01-19 08:43:08.434875	238.6	23.3	-57.8	0.0
2026-01-19 08:43:10.680399	238.3	23.0	-56.0	0.0
2026-01-19 08:43:12.921417	238.0	22.7	-60.1	0.0
2026-01-19 08:43:15.162426	237.7	22.4	-56.8	0.0
2026-01-19 08:43:17.403933	237.4	22.1	-57.6	0.0
2026-01-19 08:43:19.644447	237.1	21.8	-57.8	0.0
2026-01-19 08:43:21.885953	236.8	21.6	-57.2	0.0
2026-01-19 08:43:24.128468	236.5	21.3	-57.8	0.0
2026-01-19 08:43:26.370997	236.3	21.0	-57.9	0.0
2026-01-19 08:43:28.610013	236.0	20.7	-57.2	0.0
2026-01-19 08:43:30.851519	235.7	20.5	-56.5	0.0
2026-01-19 08:43:33.095026	235.4	20.2	-57.1	0.0
2026-01-19 08:43:35.338541	235.2	19.9	-56.1	0.0
2026-01-19 08:43:37.575054	234.9	19.7	-58.1	0.0
2026-01-19 08:43:39.815569	234.7	19.4	-57.5	0.0
2026-01-19 08:43:42.057082	234.4	19.2	-56.5	0.0
2026-01-19 08:43:44.296588	234.2	18.9	-57.3	0.0
2026-01-19 08:43:46.537599	234.0	18.7	-57.3	0.0
2026-01-19 08:43:48.775608	233.7	18.4	-57.4	0.0
2026-01-19 08:43:51.017131	233.5	18.2	-56.8	0.0
2026-01-19 08:43:53.255636	233.3	17.9	-55.5	0.0
2026-01-19 08:43:55.496150	233.1	17.7	-58.1	0.0
2026-01-19 08:43:57.732159	232.8	17.4	-57.5	0.0
2026-01-19 08:43:59.968176	232.6	17.2	-56.3	0.0
2026-01-19 08:44:02.210194	232.4	16.9	-57.5	0.0
2026-01-19 08:44:04.450701	232.2	16.7	-56.2	0.0
2026-01-19 08:44:06.693207	232.0	16.5	-57.2	0.0
2026-01-19 08:44:08.933217	231.8	16.2	-56.0	0.0
2026-01-19 08:44:11.171740	231.6	16.0	-58.2	0.0
2026-01-19 08:44:13.410253	231.4	15.8	-57.3	0.0
2026-01-19 08:44:15.650759	231.2	15.5	-57.6	0.0
2026-01-19 08:44:17.890273	231.0	15.3	-57.6	0.0
2026-01-19 08:44:20.129299	230.8	15.1	-59.1	0.0
2026-01-19 08:44:22.368819	230.7	14.9	-57.4	0.0
2026-01-19 08:44:24.611838	230.5	14.6	-59.1	0.0
2026-01-19 08:44:26.857857	230.3	14.4	-58.6	0.0
2026-01-19 08:44:29.101869	230.1	14.2	-58.9	0.0
2026-01-19 08:44:31.346880	230.0	14.0	-58.8	0.0
2026-01-19 08:44:33.590396	229.8	13.8	-58.6	0.0
2026-01-19 08:44:35.834423	229.6	13.6	-59.2	0.0
2026-01-19 08:44:38.076442	229.4	13.4	-59.5	0.0
2026-01-19 08:44:40.317451	229.3	13.1	-59.2	0.0
2026-01-19 08:44:42.560966	229.1	12.9	-59.7	0.0
2026-01-19 08:44:44.804977	229.0	12.7	-59.0	0.0
2026-01-19 08:44:47.048483	228.8	12.5	-60.4	0.0
2026-01-19 08:44:49.291006	228.7	12.3	-60.2	0.0
2026-01-19 08:44:51.534016	228.5	12.1	-59.6	0.0
2026-01-19 08:44:53.776531	228.4	11.9	-58.0	0.0
2026-01-19 08:44:56.018542	228.2	11.7	-60.2	0.0
2026-01-19 08:44:58.263048	228.1	11.5	-58.9	0.0
2026-01-19 08:45:00.505563	227.9	11.3	-59.5	0.0
2026-01-19 08:45:02.747086	227.8	11.1	-59.4	0.0
2026-01-19 08:45:04.990602	227.6	10.9	-61.2	0.0
2026-01-19 08:45:07.231143	227.5	10.7	-60.9	0.0
2026-01-19 08:45:09.475650	227.4	10.6	-59.7	0.0
2026-01-19 08:45:11.719174	227.2	10.4	-59.4	0.0
2026-01-19 08:45:13.963185	227.1	10.2	-60.0	0.0
2026-01-19 08:45:16.207196	227.0	10.0	-61.4	0.0
2026-01-19 08:45:18.450712	226.9	9.8	-61.7	0.0
2026-01-19 08:45:20.694723	226.7	9.6	-59.8	0.0
2026-01-19 08:45:22.937742	226.6	9.4	-60.5	0.0
2026-01-19 08:45:25.181753	226.5	9.3	-61.3	0.0
2026-01-19 08:45:27.425268	226.4	9.1	-60.1	0.0
2026-01-19 08:45:29.668783	226.2	8.9	-60.5	0.0
2026-01-19 08:45:31.910810	226.1	8.7	-61.4	0.0
2026-01-19 08:45:34.153830	226.0	8.5	-61.0	0.0
2026-01-19 08:45:36.397346	225.9	8.4	-60.8	0.0
2026-01-19 08:45:38.639867	225.8	8.2	-61.7	0.0
2026-01-19 08:45:40.883879	225.7	8.0	-61.1	0.0
2026-01-19 08:45:43.126897	225.5	7.8	-61.8	0.0
2026-01-19 08:45:45.367933	225.4	7.7	-61.7	0.0
2026-01-19 08:45:47.611944	225.3	7.5	-61.6	0.0
2026-01-19 08:45:49.856467	225.2	7.3	-62.1	0.0
2026-01-19 08:45:52.099487	225.1	7.2	-61.3	0.0
2026-01-19 08:45:54.349013	225.0	7.0	-61.6	0.0
2026-01-19 08:45:56.592529	224.9	6.8	-60.4	0.0
2026-01-19 08:45:58.834061	224.8	6.7	-62.1	0.0
2026-01-19 08:46:01.079079	224.7	6.5	-62.0	0.0
2026-01-19 08:46:03.323596	224.6	6.3	-62.0	0.0
2026-01-19 08:46:05.567608	224.5	6.2	-61.9	0.0
2026-01-19 08:46:07.811122	224.4	6.0	-61.4	0.6
2026-01-19 08:46:10.059630	224.3	5.8	-60.9	0.0
2026-01-19 08:46:12.302155	224.2	5.7	-61.0	0.0
2026-01-19 08:46:14.545679	224.1	5.5	-62.9	0.0
2026-01-19 08:46:16.788699	224.0	5.4	-65.9	0.0
2026-01-19 08:46:19.034206	223.9	5.2	-68.8	0.0
2026-01-19 08:46:21.278218	223.8	5.0	-69.0	0.0
#Closed at: 2026-01-19 08:33:55.094292