passes_logs/2026/01/19/PlanumMoscow/PlanumMoscow__20260119_093726_METOP-B_rec.log

#Pass ID: 20260119_093726_METOP-B
#Satellite: METOP-B
#Configuration: METOP-B
#Start time: 2026-01-19 09:37:31.496739

#LorettStation: 1.0.0 05.05.2024
#Station: PlanumMoscow
#Location: 37.6253844 lon 55.6713361 lat
#TLE: 1 38771U 12049A   25293.92766658  .00000266  00000+0  14193-3 0  9996
#TLE: 2 38771  98.6882 344.7603 0001609 341.5209  18.5909 14.21379342679275

#Time	Az	El	Level	SNR
2026-01-19 09:41:10.452077	327.2	13.5	-63.1	3.7
2026-01-19 09:41:11.574834	327.0	13.5	-63.3	2.5
2026-01-19 09:41:12.696098	326.7	13.5	-63.4	3.1
2026-01-19 09:41:13.818351	326.5	13.5	-63.4	3.4
2026-01-19 09:41:14.936125	326.3	13.5	-63.5	4.4
2026-01-19 09:41:16.056883	326.1	13.6	-63.0	2.7
2026-01-19 09:41:17.176144	325.8	13.6	-63.1	3.4
2026-01-19 09:41:18.295397	325.6	13.6	-63.1	4.2
2026-01-19 09:41:19.414153	325.4	13.6	-63.1	2.5
2026-01-19 09:41:20.535407	325.2	13.6	-62.6	2.7
2026-01-19 09:41:21.656164	324.9	13.6	-63.3	3.6
2026-01-19 09:41:22.776417	324.7	13.6	-63.1	2.8
2026-01-19 09:41:23.897175	324.5	13.7	-63.1	3.3
2026-01-19 09:41:25.016933	324.3	13.7	-62.9	2.9
2026-01-19 09:41:26.135690	324.0	13.7	-63.1	3.1
2026-01-19 09:41:27.255943	323.8	13.7	-63.6	3.9
2026-01-19 09:41:28.375196	323.6	13.7	-63.2	2.3
2026-01-19 09:41:29.493953	323.3	13.7	-63.4	3.8
2026-01-19 09:41:30.611720	323.1	13.7	-63.4	2.4
2026-01-19 09:41:31.731972	322.9	13.7	-63.4	3.1
2026-01-19 09:41:32.854731	322.7	13.7	-63.5	4.9
2026-01-19 09:41:33.976993	322.4	13.8	-63.2	4.5
2026-01-19 09:41:35.097255	322.2	13.8	-63.4	3.7
2026-01-19 09:41:36.217020	322.0	13.8	-63.6	4.1
2026-01-19 09:41:37.337282	321.7	13.8	-63.6	5.0
2026-01-19 09:41:38.457543	321.5	13.8	-63.7	2.8
2026-01-19 09:41:39.578797	321.3	13.8	-63.5	4.1
2026-01-19 09:41:40.700049	321.1	13.8	-63.5	3.6
2026-01-19 09:41:41.818311	320.8	13.8	-63.8	2.9
2026-01-19 09:41:42.938068	320.6	13.8	-63.7	4.4
2026-01-19 09:41:44.058321	320.4	13.8	-63.7	2.7
2026-01-19 09:41:45.177574	320.1	13.8	-64.2	4.9
2026-01-19 09:41:46.296826	319.9	13.8	-63.6	3.9
2026-01-19 09:41:47.418080	319.7	13.8	-63.7	3.8
2026-01-19 09:41:48.538333	319.5	13.8	-64.1	5.2
2026-01-19 09:41:49.659099	319.2	13.8	-64.2	3.6
2026-01-19 09:41:50.778867	319.0	13.8	-63.5	3.2
2026-01-19 09:41:51.901624	318.8	13.8	-63.7	2.7
2026-01-19 09:41:53.023878	318.5	13.8	-64.1	4.5
2026-01-19 09:41:54.145131	318.3	13.8	-64.0	3.9
2026-01-19 09:41:55.265384	318.1	13.8	-64.1	4.2
2026-01-19 09:41:56.384637	317.8	13.8	-64.4	4.5
2026-01-19 09:41:57.504890	317.6	13.8	-63.6	3.4
2026-01-19 09:41:58.625151	317.4	13.8	-63.1	1.7
2026-01-19 09:41:59.745404	317.2	13.8	-63.9	3.0
2026-01-19 09:42:00.866666	316.9	13.8	-63.0	2.0
2026-01-19 09:42:01.986919	316.7	13.8	-64.1	3.5
2026-01-19 09:42:03.109173	316.5	13.8	-64.2	2.9
2026-01-19 09:42:04.228435	316.2	13.8	-63.6	5.0
2026-01-19 09:42:05.350193	316.0	13.8	-64.0	4.6
2026-01-19 09:42:06.468951	315.8	13.8	-63.5	3.9
2026-01-19 09:42:07.587717	315.5	13.8	-64.0	4.3
2026-01-19 09:42:08.707474	315.3	13.8	-63.6	0.4
2026-01-19 09:42:09.829728	315.1	13.8	-63.7	3.3
2026-01-19 09:42:10.951981	314.9	13.8	-63.4	2.3
2026-01-19 09:42:12.072738	314.6	13.8	-63.5	4.4
2026-01-19 09:42:13.192495	314.4	13.8	-64.1	4.4
2026-01-19 09:42:14.311252	314.2	13.8	-63.9	1.9
2026-01-19 09:42:15.432505	313.9	13.8	-64.2	4.6
2026-01-19 09:42:16.553759	313.7	13.7	-63.7	3.4
2026-01-19 09:42:17.675012	313.5	13.7	-63.9	2.8
2026-01-19 09:42:18.794264	313.3	13.7	-63.7	3.8
2026-01-19 09:42:19.915517	313.0	13.7	-64.2	3.3
2026-01-19 09:42:21.036771	312.8	13.7	-64.1	3.7
2026-01-19 09:42:22.155528	312.6	13.7	-64.1	2.9
2026-01-19 09:42:23.275781	312.3	13.7	-63.6	2.0
2026-01-19 09:42:24.394042	312.1	13.7	-63.6	2.7
2026-01-19 09:42:25.514294	311.9	13.7	-63.8	3.5
2026-01-19 09:42:26.632547	311.7	13.7	-63.6	2.0
2026-01-19 09:42:27.750809	311.4	13.6	-64.0	2.4
2026-01-19 09:42:28.871062	311.2	13.6	-62.9	2.0
2026-01-19 09:42:29.991315	311.0	13.6	-63.0	3.0
2026-01-19 09:42:31.113569	310.8	13.6	-63.4	2.3
2026-01-19 09:42:32.233821	310.5	13.6	-63.1	2.7
2026-01-19 09:42:33.354579	310.3	13.6	-63.6	3.7
2026-01-19 09:42:34.473336	310.1	13.6	-63.5	2.7
2026-01-19 09:42:35.592589	309.9	13.5	-63.7	2.7
2026-01-19 09:42:36.713842	309.6	13.5	-63.3	3.3
2026-01-19 09:42:37.835095	309.4	13.5	-63.8	2.5
2026-01-19 09:42:38.956374	309.2	13.5	-63.2	0.9
2026-01-19 09:42:40.076131	309.0	13.5	-64.2	3.8
2026-01-19 09:42:41.196888	308.7	13.5	-63.2	2.1
2026-01-19 09:42:42.317141	308.5	13.4	-62.9	1.5
2026-01-19 09:42:43.439900	308.3	13.4	-63.4	2.2
2026-01-19 09:42:44.559656	308.1	13.4	-62.9	0.6
2026-01-19 09:42:45.680909	307.8	13.4	-63.9	2.8
2026-01-19 09:42:46.801675	307.6	13.4	-63.6	1.5
2026-01-19 09:42:47.923433	307.4	13.3	-63.2	2.0
2026-01-19 09:42:49.045190	307.2	13.3	-63.9	3.6
2026-01-19 09:42:50.166443	307.0	13.3	-63.5	1.6
2026-01-19 09:42:51.286706	306.7	13.3	-63.4	3.2
2026-01-19 09:42:52.408463	306.5	13.2	-64.2	2.8
2026-01-19 09:42:53.530717	306.3	13.2	-63.1	0.0
2026-01-19 09:42:54.649977	306.1	13.2	-63.2	0.7
2026-01-19 09:42:55.772231	305.8	13.2	-63.0	2.2
2026-01-19 09:42:56.892493	305.6	13.2	-62.9	2.3
2026-01-19 09:42:58.014746	305.4	13.1	-62.8	0.0
2026-01-19 09:42:59.133007	305.2	13.1	-62.6	0.0
2026-01-19 09:43:00.253764	305.0	13.1	-63.4	2.2
2026-01-19 09:43:01.374035	304.8	13.1	-62.4	0.0
2026-01-19 09:43:02.494784	304.5	13.0	-62.8	3.2
2026-01-19 09:43:03.618038	304.3	13.0	-63.0	2.5
2026-01-19 09:43:04.737795	304.1	13.0	-63.1	2.4
2026-01-19 09:43:05.859562	303.9	13.0	-62.8	0.9
2026-01-19 09:43:06.979823	303.7	12.9	-63.6	2.1
2026-01-19 09:43:08.102077	303.4	12.9	-62.3	2.8
2026-01-19 09:43:09.223330	303.2	12.9	-62.7	0.0
2026-01-19 09:43:10.348593	303.0	12.8	-62.8	2.4
2026-01-19 09:43:11.469350	302.8	12.8	-63.1	2.7
2026-01-19 09:43:12.590109	302.6	12.8	-63.2	2.3
2026-01-19 09:43:13.712362	302.4	12.8	-63.2	1.7
2026-01-19 09:43:14.832119	302.2	12.7	-62.6	2.6
2026-01-19 09:43:15.954877	301.9	12.7	-63.0	0.1
2026-01-19 09:43:17.076635	301.7	12.7	-63.3	1.4
2026-01-19 09:43:18.195896	301.5	12.6	-62.8	0.0
2026-01-19 09:43:19.318150	301.3	12.6	-63.1	0.6
2026-01-19 09:43:20.439403	301.1	12.6	-63.2	2.3
2026-01-19 09:43:21.559665	300.9	12.5	-62.6	0.0
2026-01-19 09:43:22.680433	300.7	12.5	-63.4	2.3
2026-01-19 09:43:23.802192	300.5	12.5	-62.9	0.6
2026-01-19 09:43:24.925445	300.3	12.4	-62.2	0.0
2026-01-19 09:43:26.046707	300.0	12.4	-62.3	0.0
2026-01-19 09:43:27.166464	299.8	12.4	-62.1	0.4
2026-01-19 09:43:28.286726	299.6	12.3	-62.2	1.4
2026-01-19 09:43:29.405979	299.4	12.3	-61.9	0.0
2026-01-19 09:43:30.525232	299.2	12.3	-63.3	1.1
2026-01-19 09:43:31.644485	299.0	12.2	-62.9	3.0
2026-01-19 09:43:32.764242	298.8	12.2	-62.1	0.0
2026-01-19 09:43:33.887000	298.6	12.2	-61.8	0.0
2026-01-19 09:43:35.006253	298.4	12.1	-62.3	0.0
2026-01-19 09:43:36.126506	298.2	12.1	-61.8	0.0
2026-01-19 09:43:37.245759	298.0	12.1	-61.9	0.0
2026-01-19 09:43:38.367021	297.8	12.0	-61.9	0.0
2026-01-19 09:43:39.488274	297.6	12.0	-62.2	0.0
2026-01-19 09:43:40.607039	297.4	12.0	-61.8	0.0
2026-01-19 09:43:41.729798	297.2	11.9	-62.2	0.5
2026-01-19 09:43:42.850051	297.0	11.9	-60.9	0.0
2026-01-19 09:43:43.970304	296.8	11.8	-61.9	0.0
2026-01-19 09:43:45.089565	296.6	11.8	-62.5	0.0
2026-01-19 09:43:46.208818	296.4	11.8	-61.8	0.6
2026-01-19 09:43:47.330071	296.2	11.7	-62.2	0.0
2026-01-19 09:43:48.452325	296.0	11.7	-61.7	0.0
2026-01-19 09:43:49.572083	295.8	11.6	-61.8	0.0
2026-01-19 09:43:50.690840	295.6	11.6	-61.6	1.3
2026-01-19 09:43:51.810597	295.4	11.6	-62.3	1.5
2026-01-19 09:43:52.930355	295.2	11.5	-62.1	0.3
2026-01-19 09:43:54.049617	295.0	11.5	-61.1	0.0
2026-01-19 09:43:55.167374	294.8	11.4	-61.9	0.0
2026-01-19 09:43:56.285635	294.6	11.4	-62.4	0.0
2026-01-19 09:43:57.404392	294.4	11.4	-61.3	0.0
2026-01-19 09:43:58.521652	294.2	11.3	-62.4	0.0
2026-01-19 09:43:59.640409	294.0	11.3	-63.1	0.0
2026-01-19 09:44:00.757661	293.8	11.2	-61.8	0.0
2026-01-19 09:44:01.877418	293.6	11.2	-62.8	0.0
2026-01-19 09:44:02.997176	293.4	11.2	-62.8	0.4
2026-01-19 09:44:04.117437	293.3	11.1	-61.5	0.0
2026-01-19 09:44:05.237194	293.1	11.1	-62.4	0.0
2026-01-19 09:44:06.363953	292.9	11.0	-62.6	0.0
2026-01-19 09:44:07.485206	292.7	11.0	-62.5	0.0
2026-01-19 09:44:08.605459	292.5	10.9	-62.6	0.7
2026-01-19 09:44:09.726216	292.3	10.9	-63.0	2.8
2026-01-19 09:44:10.846982	292.1	10.9	-61.7	0.0
2026-01-19 09:44:11.966740	291.9	10.8	-61.4	0.0
2026-01-19 09:44:13.085497	291.7	10.8	-62.0	0.0
2026-01-19 09:44:14.205255	291.6	10.7	-62.2	0.0
2026-01-19 09:44:15.325012	291.4	10.7	-61.9	0.0
2026-01-19 09:44:16.444779	291.2	10.6	-62.0	0.0
2026-01-19 09:44:17.566536	291.0	10.6	-62.5	0.0
2026-01-19 09:44:18.686789	290.8	10.5	-61.7	0.0
2026-01-19 09:44:19.806042	290.6	10.5	-62.3	0.0
2026-01-19 09:44:20.925295	290.5	10.4	-62.6	0.0
2026-01-19 09:44:22.045062	290.3	10.4	-62.1	0.0
2026-01-19 09:44:23.163323	290.1	10.4	-61.8	0.0
2026-01-19 09:44:24.281584	289.9	10.3	-61.5	0.0
2026-01-19 09:44:25.401350	289.7	10.3	-62.6	0.0
2026-01-19 09:44:26.519603	289.5	10.2	-61.9	0.0
2026-01-19 09:44:27.639856	289.4	10.2	-62.2	0.0
2026-01-19 09:44:28.761109	289.2	10.1	-61.4	0.0
2026-01-19 09:44:29.881371	289.0	10.1	-61.0	0.0
2026-01-19 09:44:31.002128	288.8	10.0	-61.1	0.0
2026-01-19 09:44:32.122381	288.7	10.0	-61.1	0.0
2026-01-19 09:44:33.243634	288.5	9.9	-61.3	0.0
2026-01-19 09:44:34.362887	288.3	9.9	-61.6	0.0
2026-01-19 09:44:35.483654	288.1	9.8	-61.6	0.0
2026-01-19 09:44:36.603915	288.0	9.8	-59.9	0.0
2026-01-19 09:44:37.723673	287.8	9.7	-61.0	0.0
2026-01-19 09:44:38.844926	287.6	9.7	-60.8	0.0
2026-01-19 09:44:39.965179	287.4	9.6	-60.7	0.0
2026-01-19 09:44:41.084440	287.3	9.6	-61.5	0.0
2026-01-19 09:44:42.204693	287.1	9.5	-60.7	0.0
2026-01-19 09:44:43.325946	286.9	9.5	-62.0	0.0
2026-01-19 09:44:44.444208	286.8	9.4	-62.1	0.0
2026-01-19 09:44:45.562965	286.6	9.4	-61.5	0.0
2026-01-19 09:44:46.682722	286.4	9.3	-61.1	0.0
2026-01-19 09:44:47.805480	286.2	9.3	-60.2	0.0
2026-01-19 09:44:48.926733	286.1	9.2	-61.4	0.0
2026-01-19 09:44:50.044986	285.9	9.2	-61.6	0.0
2026-01-19 09:44:51.163743	285.7	9.1	-61.5	0.0
2026-01-19 09:44:52.282004	285.6	9.1	-61.1	0.0
2026-01-19 09:44:53.402279	285.4	9.0	-62.0	0.0
2026-01-19 09:44:54.520541	285.2	9.0	-61.7	0.0
2026-01-19 09:44:55.641794	285.1	8.9	-60.9	0.0
2026-01-19 09:44:56.760055	284.9	8.9	-61.9	0.0
2026-01-19 09:44:57.880316	284.8	8.8	-61.7	0.0
2026-01-19 09:44:59.002570	284.6	8.8	-60.7	0.0
2026-01-19 09:45:00.120822	284.4	8.7	-59.8	0.0
2026-01-19 09:45:01.242076	284.3	8.7	-61.5	0.0
2026-01-19 09:45:02.362329	284.1	8.6	-60.7	0.0
2026-01-19 09:45:03.485087	283.9	8.6	-61.0	0.0
2026-01-19 09:45:04.605853	283.8	8.5	-60.8	0.0
2026-01-19 09:45:05.728107	283.6	8.5	-61.2	0.0
2026-01-19 09:45:06.849369	283.5	8.4	-61.8	0.0
2026-01-19 09:45:07.971127	283.3	8.4	-61.7	0.0
2026-01-19 09:45:09.093381	283.2	8.3	-61.5	0.0
2026-01-19 09:45:10.215139	283.0	8.3	-61.9	0.0
2026-01-19 09:45:11.335906	282.8	8.2	-62.1	0.0
2026-01-19 09:45:12.457177	282.7	8.2	-60.7	0.0
2026-01-19 09:45:13.579430	282.5	8.1	-59.7	0.0
2026-01-19 09:45:14.701188	282.4	8.1	-61.5	0.0
2026-01-19 09:45:15.823441	282.2	8.0	-60.8	0.0
2026-01-19 09:45:16.945695	282.1	8.0	-62.3	0.0
2026-01-19 09:45:18.067949	281.9	7.9	-60.8	0.0
2026-01-19 09:45:19.189706	281.8	7.9	-60.7	0.0
2026-01-19 09:45:20.310472	281.6	7.8	-60.7	0.0
2026-01-19 09:45:21.432230	281.5	7.8	-61.4	0.0
2026-01-19 09:45:22.553987	281.3	7.7	-61.7	0.0
2026-01-19 09:45:23.675249	281.2	7.6	-61.3	0.0
2026-01-19 09:45:24.797503	281.0	7.6	-61.2	0.0
2026-01-19 09:45:25.918765	280.9	7.5	-61.2	0.0
2026-01-19 09:45:27.040027	280.7	7.5	-62.7	0.0
2026-01-19 09:45:28.161290	280.6	7.4	-61.3	0.0
2026-01-19 09:45:29.283543	280.4	7.4	-61.2	0.0
2026-01-19 09:45:30.405797	280.3	7.3	-61.2	0.0
2026-01-19 09:45:31.528555	280.1	7.3	-61.0	0.0
2026-01-19 09:45:32.650808	280.0	7.2	-60.0	0.0
2026-01-19 09:45:33.772069	279.8	7.2	-61.2	0.0
2026-01-19 09:45:34.893827	279.7	7.1	-61.4	0.0
2026-01-19 09:45:36.020082	279.5	7.1	-60.9	0.0
2026-01-19 09:45:37.142335	279.4	7.0	-60.0	0.0
2026-01-19 09:45:38.263101	279.2	7.0	-61.5	0.0
2026-01-19 09:45:39.385354	279.1	6.9	-61.1	0.0
2026-01-19 09:45:40.507113	279.0	6.8	-61.2	0.0
2026-01-19 09:45:41.628374	278.8	6.8	-60.9	0.0
2026-01-19 09:45:42.750627	278.7	6.7	-61.1	0.0
2026-01-19 09:45:43.872385	278.5	6.7	-61.0	0.0
2026-01-19 09:45:44.994639	278.4	6.6	-60.4	0.0
2026-01-19 09:45:46.115900	278.3	6.6	-60.2	0.0
2026-01-19 09:45:47.238153	278.1	6.5	-61.2	0.0
2026-01-19 09:45:48.360406	278.0	6.5	-61.6	0.0
2026-01-19 09:45:49.482165	277.8	6.4	-61.5	0.0
2026-01-19 09:45:50.604418	277.7	6.4	-61.8	0.0
2026-01-19 09:45:51.725679	277.6	6.3	-61.5	0.0
2026-01-19 09:45:52.846942	277.4	6.2	-61.0	0.0
2026-01-19 09:45:53.969195	277.3	6.2	-60.0	0.0
2026-01-19 09:45:55.090456	277.2	6.1	-61.0	0.0
2026-01-19 09:45:56.212213	277.0	6.1	-60.6	0.0
2026-01-19 09:45:57.333476	276.9	6.0	-61.4	0.0
2026-01-19 09:45:58.455234	276.8	6.0	-61.8	0.0
2026-01-19 09:45:59.576992	276.6	5.9	-66.1	0.0
2026-01-19 09:46:00.698253	276.5	5.9	-65.8	0.0
2026-01-19 09:46:01.820507	276.4	5.8	-67.0	0.0
2026-01-19 09:46:02.942264	276.2	5.8	-66.3	0.0
2026-01-19 09:46:04.065022	276.1	5.7	-66.5	0.0
2026-01-19 09:46:05.186284	276.0	5.6	-67.5	0.0
2026-01-19 09:46:06.308538	275.8	5.6	-67.4	0.0
2026-01-19 09:46:07.432295	275.7	5.5	-67.8	0.0
2026-01-19 09:46:08.554548	275.6	5.5	-68.1	0.0
2026-01-19 09:46:09.676306	275.4	5.4	-69.0	0.0
2026-01-19 09:46:10.798064	275.3	5.4	-68.4	0.0
2026-01-19 09:46:11.919822	275.2	5.3	-69.2	0.0
2026-01-19 09:46:13.042075	275.1	5.3	-69.7	0.0
2026-01-19 09:46:14.163337	274.9	5.2	-69.5	0.0
2026-01-19 09:46:15.284103	274.8	5.1	-69.5	0.0
2026-01-19 09:46:16.405365	274.7	5.1	-70.2	0.0
2026-01-19 09:46:17.526131	274.6	5.0	-70.2	0.0
#Closed at: 2026-01-19 09:37:26.499094