passes_logs/2026/01/19/PlanumMoscow/PlanumMoscow__20260119_015015_METEOR-M2_4_rec.log

#Pass ID: 20260119_015015_METEOR-M2 4
#Satellite: METEOR-M2 4
#Configuration: METEOR-M2 4
#Start time: 2026-01-19 01:50:20.503928

#LorettStation: 1.0.0 05.05.2024
#Station: PlanumMoscow
#Location: 37.6253844 lon 55.6713361 lat
#TLE: 1 59051U 24039A   25293.94737965  .00000087  00000+0  58459-4 0  9998
#TLE: 2 59051  98.6671 251.7071 0007726 135.4772 224.7028 14.22388966 85257

#Time	Az	El	Level	SNR
2026-01-19 01:53:58.990748	352.7	26.3	-52.5	0.0
2026-01-19 01:54:01.236255	352.3	26.6	-52.7	0.0
2026-01-19 01:54:03.478811	351.9	26.9	-52.7	0.0
2026-01-19 01:54:05.722822	351.5	27.2	-52.5	0.0
2026-01-19 01:54:07.966387	351.0	27.5	-52.3	0.0
2026-01-19 01:54:10.210419	350.6	27.9	-52.3	0.0
2026-01-19 01:54:12.453490	350.2	28.2	-52.1	0.0
2026-01-19 01:54:14.697016	349.7	28.5	-52.5	0.0
2026-01-19 01:54:16.940074	349.3	28.8	-52.9	0.0
2026-01-19 01:54:19.185094	348.8	29.2	-52.6	0.0
2026-01-19 01:54:21.427620	348.4	29.5	-52.3	0.0
2026-01-19 01:54:23.669699	347.9	29.8	-52.1	0.0
2026-01-19 01:54:25.911726	347.4	30.1	-52.0	0.0
2026-01-19 01:54:28.155737	346.9	30.5	-52.1	0.0
2026-01-19 01:54:30.398757	346.4	30.8	-51.9	0.0
2026-01-19 01:54:32.643768	345.8	31.1	-51.8	0.0
2026-01-19 01:54:34.887287	345.3	31.5	-52.0	0.0
2026-01-19 01:54:37.132298	344.8	31.8	-52.1	0.0
2026-01-19 01:54:39.377823	344.2	32.2	-51.9	0.0
2026-01-19 01:54:41.620843	343.6	32.5	-51.8	0.0
2026-01-19 01:54:43.864855	343.1	32.8	-51.9	0.0
2026-01-19 01:54:46.107874	342.5	33.2	-51.7	0.0
2026-01-19 01:54:48.356896	341.9	33.5	-51.9	0.0
2026-01-19 01:54:50.600413	341.2	33.9	-51.7	0.0
2026-01-19 01:54:52.844919	340.6	34.2	-51.6	0.0
2026-01-19 01:54:55.088954	340.0	34.5	-51.5	0.0
2026-01-19 01:54:57.333461	339.3	34.9	-51.7	0.0
2026-01-19 01:54:59.577472	338.6	35.2	-52.0	0.0
2026-01-19 01:55:01.818492	337.9	35.5	-52.1	0.0
2026-01-19 01:55:04.059998	337.2	35.9	-52.1	0.0
2026-01-19 01:55:06.300018	336.5	36.2	-52.0	0.0
2026-01-19 01:55:08.540533	335.8	36.5	-52.0	0.0
2026-01-19 01:55:10.780543	335.0	36.9	-51.9	0.0
2026-01-19 01:55:13.026051	334.3	37.2	-52.2	0.0
2026-01-19 01:55:15.267557	333.5	37.5	-52.8	0.0
2026-01-19 01:55:17.508072	332.7	37.9	-53.0	0.0
2026-01-19 01:55:19.747587	331.9	38.2	-52.8	0.0
2026-01-19 01:55:21.986101	331.1	38.5	-52.7	0.0
2026-01-19 01:55:24.223614	330.2	38.8	-52.9	0.0
2026-01-19 01:55:26.464634	329.4	39.1	-53.3	0.0
2026-01-19 01:55:28.704653	328.5	39.4	-53.4	0.0
2026-01-19 01:55:30.942663	327.6	39.7	-53.4	0.0
2026-01-19 01:55:33.183178	326.7	40.0	-53.9	0.0
2026-01-19 01:55:35.423684	325.8	40.3	-54.4	0.0
2026-01-19 01:55:37.663198	324.8	40.6	-54.6	0.0
2026-01-19 01:55:39.903704	323.9	40.8	-54.8	0.0
2026-01-19 01:55:42.139721	322.9	41.1	-54.8	0.0
2026-01-19 01:55:44.379245	321.9	41.4	-55.0	0.0
2026-01-19 01:55:46.616759	320.9	41.6	-55.6	0.0
2026-01-19 01:55:48.853273	319.9	41.8	-55.8	0.0
2026-01-19 01:55:51.092291	318.8	42.1	-56.3	0.0
2026-01-19 01:55:53.329310	317.8	42.3	-56.3	0.0
2026-01-19 01:55:55.569824	316.7	42.5	-56.8	0.0
2026-01-19 01:55:57.809843	315.6	42.7	-57.7	0.0
2026-01-19 01:56:00.048357	314.6	42.9	-58.4	1.2
2026-01-19 01:56:02.289864	313.4	43.1	-58.7	0.1
2026-01-19 01:56:04.533370	312.3	43.3	-58.9	1.9
2026-01-19 01:56:06.772876	311.2	43.4	-59.3	2.2
2026-01-19 01:56:09.014887	310.1	43.6	-60.0	3.7
2026-01-19 01:56:11.252898	308.9	43.7	-60.2	1.5
2026-01-19 01:56:13.498422	307.7	43.8	-61.1	2.7
2026-01-19 01:56:15.740929	306.6	43.9	-61.2	3.0
2026-01-19 01:56:17.982444	305.4	44.0	-62.0	3.8
2026-01-19 01:56:20.220960	304.2	44.1	-61.4	3.1
2026-01-19 01:56:22.465972	303.0	44.2	-61.7	4.2
2026-01-19 01:56:24.703982	301.8	44.2	-61.5	4.2
2026-01-19 01:56:26.943497	300.6	44.3	-61.9	5.1
2026-01-19 01:56:29.183517	299.4	44.3	-60.8	4.7
2026-01-19 01:56:31.424528	298.2	44.3	-61.3	4.3
2026-01-19 01:56:33.666051	297.0	44.3	-60.8	3.2
2026-01-19 01:56:35.907580	295.8	44.3	-61.1	5.1
2026-01-19 01:56:38.147599	294.6	44.3	-60.7	2.5
2026-01-19 01:56:40.386609	293.4	44.2	-60.5	3.1
2026-01-19 01:56:42.627619	292.2	44.2	-60.0	3.0
2026-01-19 01:56:44.866629	291.0	44.1	-60.0	2.9
2026-01-19 01:56:47.109163	289.9	44.0	-59.5	2.7
2026-01-19 01:56:49.351678	288.7	43.9	-59.5	2.4
2026-01-19 01:56:51.592184	287.5	43.8	-59.2	1.4
2026-01-19 01:56:53.832204	286.3	43.7	-58.8	1.5
2026-01-19 01:56:56.073230	285.2	43.5	-58.9	0.7
2026-01-19 01:56:58.314737	284.0	43.4	-58.9	1.9
2026-01-19 01:57:00.555749	282.9	43.2	-58.7	0.4
2026-01-19 01:57:02.800272	281.8	43.1	-58.7	0.0
2026-01-19 01:57:05.042282	280.7	42.9	-58.4	0.0
2026-01-19 01:57:07.281292	279.6	42.7	-58.3	0.0
2026-01-19 01:57:09.522311	278.5	42.5	-58.2	0.0
2026-01-19 01:57:11.763322	277.4	42.3	-58.4	0.0
2026-01-19 01:57:14.004836	276.4	42.0	-58.7	0.0
2026-01-19 01:57:16.246847	275.4	41.8	-58.4	0.0
2026-01-19 01:57:18.488877	274.3	41.6	-58.3	0.0
2026-01-19 01:57:20.729888	273.3	41.3	-58.1	0.0
2026-01-19 01:57:22.972898	272.3	41.0	-58.4	0.0
2026-01-19 01:57:25.213908	271.4	40.8	-58.2	0.0
2026-01-19 01:57:27.457415	270.4	40.5	-58.4	0.0
2026-01-19 01:57:29.700427	269.5	40.2	-58.7	0.0
2026-01-19 01:57:31.942448	268.5	39.9	-58.9	0.0
2026-01-19 01:57:34.183971	267.6	39.6	-59.2	0.3
2026-01-19 01:57:36.424982	266.7	39.3	-59.1	0.0
2026-01-19 01:57:38.667992	265.9	39.0	-58.7	0.0
2026-01-19 01:57:40.909508	265.0	38.7	-58.9	0.0
2026-01-19 01:57:43.153025	264.2	38.4	-59.2	0.0
2026-01-19 01:57:45.394531	263.3	38.1	-59.1	0.5
2026-01-19 01:57:47.636550	262.5	37.8	-58.9	0.4
2026-01-19 01:57:49.876577	261.7	37.4	-59.2	0.9
2026-01-19 01:57:52.118102	260.9	37.1	-58.9	0.0
2026-01-19 01:57:54.360113	260.2	36.8	-58.4	0.0
2026-01-19 01:57:56.600628	259.4	36.5	-59.3	1.3
2026-01-19 01:57:58.843143	258.7	36.1	-59.0	0.8
2026-01-19 01:58:01.084659	258.0	35.8	-58.7	1.4
2026-01-19 01:58:03.326174	257.3	35.4	-58.8	2.4
2026-01-19 01:58:05.573185	256.6	35.1	-59.3	2.4
2026-01-19 01:58:07.812700	255.9	34.8	-59.2	1.9
2026-01-19 01:58:10.050225	255.2	34.4	-58.8	1.4
2026-01-19 01:58:12.292731	254.6	34.1	-59.2	2.5
2026-01-19 01:58:14.533245	254.0	33.7	-59.0	2.1
2026-01-19 01:58:16.772760	253.3	33.4	-59.2	2.3
2026-01-19 01:58:19.010779	252.7	33.1	-58.7	2.3
2026-01-19 01:58:21.251799	252.1	32.7	-58.9	1.0
2026-01-19 01:58:23.494826	251.6	32.4	-58.9	2.6
2026-01-19 01:58:25.736342	251.0	32.0	-58.6	1.5
2026-01-19 01:58:27.975857	250.4	31.7	-58.4	1.0
2026-01-19 01:58:30.220374	249.9	31.4	-57.6	0.4
2026-01-19 01:58:32.460889	249.4	31.0	-58.4	1.0
2026-01-19 01:58:34.696403	248.8	30.7	-59.2	3.3
2026-01-19 01:58:36.936919	248.3	30.3	-59.4	1.8
2026-01-19 01:58:39.175947	247.8	30.0	-59.5	3.5
2026-01-19 01:58:41.412452	247.3	29.7	-58.4	0.0
2026-01-19 01:58:43.652462	246.8	29.4	-59.5	2.9
2026-01-19 01:58:45.892473	246.4	29.0	-60.0	3.0
2026-01-19 01:58:48.130987	245.9	28.7	-59.3	4.2
2026-01-19 01:58:50.367006	245.5	28.4	-59.4	3.2
2026-01-19 01:58:52.608017	245.0	28.0	-58.1	2.7
2026-01-19 01:58:54.846036	244.6	27.7	-58.1	0.0
2026-01-19 01:58:57.091056	244.2	27.4	-59.9	3.1
2026-01-19 01:58:59.330074	243.7	27.1	-58.8	0.0
2026-01-19 01:59:01.572084	243.3	26.8	-59.1	0.0
2026-01-19 01:59:03.812600	242.9	26.5	-59.5	1.2
2026-01-19 01:59:06.057117	242.5	26.1	-60.8	4.7
2026-01-19 01:59:08.296137	242.1	25.8	-61.3	3.9
2026-01-19 01:59:10.531651	241.8	25.5	-59.7	4.5
2026-01-19 01:59:12.772176	241.4	25.2	-58.7	3.1
2026-01-19 01:59:15.011187	241.0	24.9	-61.5	3.8
2026-01-19 01:59:17.250693	240.7	24.6	-61.7	2.7
2026-01-19 01:59:19.490199	240.3	24.3	-60.8	4.2
2026-01-19 01:59:21.730209	240.0	24.0	-61.3	5.1
2026-01-19 01:59:23.971735	239.7	23.7	-61.1	5.8
2026-01-19 01:59:26.211754	239.3	23.4	-60.0	0.8
2026-01-19 01:59:28.451260	239.0	23.1	-61.2	6.1
2026-01-19 01:59:30.696280	238.7	22.9	-60.7	4.0
2026-01-19 01:59:32.935786	238.4	22.6	-61.4	4.7
2026-01-19 01:59:35.174796	238.1	22.3	-60.8	5.5
2026-01-19 01:59:37.414816	237.8	22.0	-62.6	7.3
2026-01-19 01:59:39.652321	237.5	21.7	-59.2	3.0
2026-01-19 01:59:41.891332	237.2	21.5	-60.7	4.3
2026-01-19 01:59:44.132838	236.9	21.2	-60.2	3.8
2026-01-19 01:59:46.372861	236.6	20.9	-60.5	3.4
2026-01-19 01:59:48.610871	236.3	20.6	-61.2	5.6
2026-01-19 01:59:50.850386	236.1	20.4	-62.5	6.3
2026-01-19 01:59:53.089891	235.8	20.1	-62.6	5.2
2026-01-19 01:59:55.327919	235.5	19.8	-60.3	3.2
2026-01-19 01:59:57.571931	235.3	19.6	-63.2	5.3
2026-01-19 01:59:59.807444	235.0	19.3	-61.9	4.6
2026-01-19 02:00:02.044461	234.8	19.1	-59.4	1.9
2026-01-19 02:00:04.288985	234.5	18.8	-59.2	1.6
2026-01-19 02:00:06.532022	234.3	18.6	-59.8	1.0
2026-01-19 02:00:08.775095	234.1	18.3	-62.0	4.1
2026-01-19 02:00:11.018115	233.8	18.1	-63.0	5.8
2026-01-19 02:00:13.261639	233.6	17.8	-62.8	7.0
2026-01-19 02:00:15.505187	233.4	17.6	-59.2	0.0
2026-01-19 02:00:17.749200	233.2	17.3	-61.5	5.2
2026-01-19 02:00:19.993746	232.9	17.1	-59.6	0.0
2026-01-19 02:00:22.235785	232.7	16.8	-61.9	5.7
2026-01-19 02:00:24.480355	232.5	16.6	-63.4	6.8
2026-01-19 02:00:26.722889	232.3	16.4	-63.8	7.4
2026-01-19 02:00:28.966443	232.1	16.1	-64.2	7.3
2026-01-19 02:00:31.209463	231.9	15.9	-63.1	5.7
2026-01-19 02:00:33.453986	231.7	15.7	-60.7	2.6
2026-01-19 02:00:35.697046	231.5	15.4	-59.9	2.4
2026-01-19 02:00:37.941115	231.3	15.2	-64.2	5.8
2026-01-19 02:00:40.186126	231.1	15.0	-59.5	2.8
2026-01-19 02:00:42.429650	231.0	14.8	-63.6	4.7
2026-01-19 02:00:44.673205	230.8	14.6	-62.7	5.5
2026-01-19 02:00:46.916720	230.6	14.3	-61.9	6.6
2026-01-19 02:00:49.159740	230.4	14.1	-63.9	7.5
2026-01-19 02:00:51.403753	230.2	13.9	-64.2	6.8
2026-01-19 02:00:53.646287	230.1	13.7	-63.8	7.7
2026-01-19 02:00:55.888842	229.9	13.5	-63.3	3.8
2026-01-19 02:00:58.130880	229.7	13.3	-64.2	5.5
2026-01-19 02:01:00.373926	229.6	13.1	-62.2	3.8
2026-01-19 02:01:02.624946	229.4	12.8	-64.2	6.9
2026-01-19 02:01:04.876494	229.3	12.6	-64.1	5.3
2026-01-19 02:01:07.121001	229.1	12.4	-64.2	6.3
2026-01-19 02:01:09.365516	228.9	12.2	-64.9	6.9
2026-01-19 02:01:11.607075	228.8	12.0	-62.1	4.3
2026-01-19 02:01:13.850599	228.6	11.8	-64.2	5.0
2026-01-19 02:01:16.094650	228.5	11.6	-63.5	5.1
2026-01-19 02:01:18.339674	228.3	11.4	-64.2	7.5
2026-01-19 02:01:20.583199	228.2	11.2	-62.5	2.8
2026-01-19 02:01:22.827760	228.1	11.0	-63.6	6.8
2026-01-19 02:01:25.071780	227.9	10.9	-63.8	5.3
2026-01-19 02:01:27.315832	227.8	10.7	-63.3	5.1
2026-01-19 02:01:29.559355	227.6	10.5	-62.9	5.8
2026-01-19 02:01:31.803412	227.5	10.3	-63.2	4.7
2026-01-19 02:01:34.047433	227.4	10.1	-63.5	6.0
2026-01-19 02:01:36.290486	227.2	9.9	-64.9	6.9
2026-01-19 02:01:38.536010	227.1	9.7	-64.3	4.4
2026-01-19 02:01:40.779527	227.0	9.5	-63.7	4.2
2026-01-19 02:01:43.022589	226.9	9.4	-65.0	6.9
2026-01-19 02:01:45.265618	226.7	9.2	-65.0	6.9
2026-01-19 02:01:47.509660	226.6	9.0	-65.0	7.1
2026-01-19 02:01:49.753680	226.5	8.8	-65.0	7.5
2026-01-19 02:01:51.998238	226.4	8.6	-65.5	7.0
2026-01-19 02:01:54.240761	226.3	8.5	-65.7	7.6
2026-01-19 02:01:56.483781	226.1	8.3	-65.8	8.0
2026-01-19 02:01:58.726336	226.0	8.1	-65.6	7.8
2026-01-19 02:02:00.970861	225.9	7.9	-66.0	8.0
2026-01-19 02:02:03.214416	225.8	7.8	-65.4	7.4
2026-01-19 02:02:05.457467	225.7	7.6	-65.8	7.7
2026-01-19 02:02:07.700529	225.6	7.4	-65.7	7.6
2026-01-19 02:02:09.945558	225.5	7.3	-65.5	7.4
2026-01-19 02:02:12.189569	225.4	7.1	-64.8	3.3
2026-01-19 02:02:14.433612	225.3	6.9	-64.6	5.2
2026-01-19 02:02:16.682155	225.2	6.7	-64.2	5.7
2026-01-19 02:02:18.925214	225.0	6.6	-63.7	3.8
2026-01-19 02:02:21.166756	224.9	6.4	-62.7	3.7
2026-01-19 02:02:23.410302	224.8	6.3	-62.8	2.0
2026-01-19 02:02:25.655825	224.7	6.1	-63.4	3.2
2026-01-19 02:02:27.898876	224.6	5.9	-67.5	1.4
2026-01-19 02:02:30.142401	224.5	5.8	-66.4	0.0
2026-01-19 02:02:32.385916	224.5	5.6	-65.2	0.0
2026-01-19 02:02:34.630481	224.4	5.5	-69.1	0.0
2026-01-19 02:02:36.874509	224.3	5.3	-69.5	0.0
2026-01-19 02:02:39.118560	224.2	5.1	-67.3	0.0
2026-01-19 02:02:41.361589	224.1	5.0	-66.3	0.0
#Closed at: 2026-01-19 01:50:15.504880