passes_logs/2026/01/19/PlanumMoscow/PlanumMoscow__20260119_182331_METOP-C_rec.log

#Pass ID: 20260119_182331_METOP-C
#Satellite: METOP-C
#Configuration: METOP-C
#Start time: 2026-01-19 18:23:36.744712

#LorettStation: 1.0.0 05.05.2024
#Station: PlanumMoscow
#Location: 37.6253844 lon 55.6713361 lat
#TLE: 1 43689U 18087A   25293.88981035  .00000265  00000+0  14109-3 0  9997
#TLE: 2 43689  98.7006 352.4487 0002041 122.1097 238.0279 14.21482740360838

#Time	Az	El	Level	SNR
2026-01-19 18:27:15.235936	181.9	29.0	-63.7	0.0
2026-01-19 18:27:17.472477	182.1	29.4	-65.3	0.0
2026-01-19 18:27:19.706982	182.3	29.8	-65.6	0.0
2026-01-19 18:27:21.942000	182.5	30.2	-65.9	0.0
2026-01-19 18:27:24.179009	182.8	30.6	-65.7	0.0
2026-01-19 18:27:26.415514	183.0	31.0	-64.5	0.0
2026-01-19 18:27:28.654020	183.2	31.5	-65.3	0.0
2026-01-19 18:27:30.901527	183.5	31.9	-65.6	0.0
2026-01-19 18:27:33.143033	183.8	32.4	-65.0	0.0
2026-01-19 18:27:35.387540	184.0	32.8	-65.9	0.0
2026-01-19 18:27:37.632047	184.3	33.3	-63.7	0.0
2026-01-19 18:27:39.878058	184.6	33.7	-66.0	0.0
2026-01-19 18:27:42.121069	184.9	34.2	-66.0	0.0
2026-01-19 18:27:44.361575	185.2	34.7	-64.5	0.0
2026-01-19 18:27:46.601585	185.5	35.1	-63.6	0.0
2026-01-19 18:27:48.846092	185.8	35.6	-64.4	0.0
2026-01-19 18:27:51.089598	186.1	36.1	-66.2	0.0
2026-01-19 18:27:53.333610	186.4	36.6	-64.9	0.0
2026-01-19 18:27:55.580126	186.8	37.1	-66.7	0.0
2026-01-19 18:27:57.820632	187.1	37.6	-64.9	0.0
2026-01-19 18:28:00.057137	187.5	38.2	-65.3	0.0
2026-01-19 18:28:02.298643	187.9	38.7	-65.2	0.0
2026-01-19 18:28:04.539158	188.3	39.2	-66.1	0.0
2026-01-19 18:28:06.781664	188.7	39.8	-66.7	0.0
2026-01-19 18:28:09.024179	189.1	40.3	-66.7	0.0
2026-01-19 18:28:11.260188	189.5	40.9	-65.4	0.0
2026-01-19 18:28:13.499205	190.0	41.4	-66.4	0.0
2026-01-19 18:28:15.734718	190.4	42.0	-66.6	0.0
2026-01-19 18:28:17.973236	190.9	42.5	-65.9	0.0
2026-01-19 18:28:20.207253	191.4	43.1	-67.5	0.0
2026-01-19 18:28:22.447767	191.9	43.7	-67.5	0.0
2026-01-19 18:28:24.685776	192.4	44.3	-67.7	0.0
2026-01-19 18:28:26.918281	193.0	44.9	-67.2	0.0
2026-01-19 18:28:29.152785	193.6	45.5	-66.5	0.0
2026-01-19 18:28:31.388290	194.2	46.1	-67.7	0.0
2026-01-19 18:28:33.619802	194.8	46.7	-67.4	0.0
2026-01-19 18:28:35.854315	195.4	47.4	-67.6	0.0
2026-01-19 18:28:38.089323	196.1	48.0	-67.6	0.0
2026-01-19 18:28:40.324845	196.8	48.6	-68.4	0.0
2026-01-19 18:28:42.559365	197.5	49.2	-67.5	0.0
2026-01-19 18:28:44.796879	198.2	49.9	-67.6	0.0
2026-01-19 18:28:47.036393	199.0	50.5	-67.9	0.0
2026-01-19 18:28:49.272402	199.8	51.2	-66.7	0.0
2026-01-19 18:28:51.511412	200.7	51.8	-67.8	0.0
2026-01-19 18:28:53.751421	201.6	52.5	-68.2	0.0
2026-01-19 18:28:55.989439	202.5	53.1	-66.5	0.0
2026-01-19 18:28:58.230450	203.5	53.8	-67.0	0.0
2026-01-19 18:29:00.471469	204.5	54.5	-67.9	0.0
2026-01-19 18:29:02.713489	205.6	55.1	-68.0	0.0
2026-01-19 18:29:04.957500	206.7	55.8	-68.2	0.0
2026-01-19 18:29:07.202016	207.9	56.4	-68.1	0.0
2026-01-19 18:29:09.444539	209.1	57.1	-68.3	0.0
2026-01-19 18:29:11.688551	210.4	57.7	-67.5	0.0
2026-01-19 18:29:13.933080	211.7	58.3	-67.4	0.0
2026-01-19 18:29:16.171594	213.2	59.0	-68.4	0.0
2026-01-19 18:29:18.410604	214.6	59.6	-68.3	0.0
2026-01-19 18:29:20.646126	216.2	60.2	-68.2	0.0
2026-01-19 18:29:22.882135	217.8	60.8	-68.3	0.0
2026-01-19 18:29:25.116648	219.5	61.3	-67.7	0.0
2026-01-19 18:29:27.351169	221.3	61.9	-67.8	0.0
2026-01-19 18:29:29.585673	223.1	62.4	-68.5	0.0
2026-01-19 18:29:31.824683	225.0	62.9	-68.0	0.0
2026-01-19 18:29:34.062692	227.0	63.4	-68.9	0.0
2026-01-19 18:29:36.301212	229.1	63.9	-68.2	0.0
2026-01-19 18:29:38.538231	231.3	64.3	-68.5	0.0
2026-01-19 18:29:40.778248	233.6	64.7	-68.7	0.0
2026-01-19 18:29:43.015769	235.9	65.1	-68.0	0.0
2026-01-19 18:29:45.258788	238.3	65.4	-68.9	0.0
2026-01-19 18:29:47.494798	240.8	65.7	-68.5	0.0
2026-01-19 18:29:49.731303	243.3	65.9	-69.1	0.0
2026-01-19 18:29:51.967320	245.9	66.1	-68.6	0.0
2026-01-19 18:29:54.209836	248.6	66.3	-69.1	0.0
2026-01-19 18:29:56.445341	251.2	66.4	-69.1	0.0
2026-01-19 18:29:58.681846	253.9	66.5	-68.5	0.0
2026-01-19 18:30:00.917854	256.6	66.5	-68.3	0.0
2026-01-19 18:30:03.161864	259.3	66.5	-68.5	0.0
2026-01-19 18:30:05.405876	262.0	66.4	-69.2	0.0
2026-01-19 18:30:07.648932	264.7	66.3	-68.7	0.0
2026-01-19 18:30:09.891005	267.3	66.1	-68.7	0.0
2026-01-19 18:30:12.135076	269.9	65.9	-68.7	0.0
2026-01-19 18:30:14.377634	272.4	65.7	-69.0	0.0
2026-01-19 18:30:16.620663	274.9	65.4	-69.7	0.0
2026-01-19 18:30:18.862730	277.3	65.0	-68.8	0.0
2026-01-19 18:30:21.104763	279.7	64.7	-69.6	0.0
2026-01-19 18:30:23.348775	281.9	64.3	-68.5	0.0
2026-01-19 18:30:25.592319	284.1	63.8	-69.5	0.0
2026-01-19 18:30:27.834859	286.2	63.4	-68.9	0.0
2026-01-19 18:30:30.076429	288.2	62.9	-69.4	0.0
2026-01-19 18:30:32.319454	290.1	62.4	-68.8	0.0
2026-01-19 18:30:34.564503	292.0	61.8	-69.2	0.0
2026-01-19 18:30:36.811027	293.7	61.3	-69.3	0.0
2026-01-19 18:30:39.053587	295.4	60.7	-69.1	0.0
2026-01-19 18:30:41.296114	297.0	60.1	-68.8	0.0
2026-01-19 18:30:43.539636	298.6	59.5	-68.5	0.0
2026-01-19 18:30:45.783198	300.1	58.9	-69.3	0.0
2026-01-19 18:30:48.025721	301.5	58.3	-68.7	0.0
2026-01-19 18:30:50.268740	302.8	57.7	-68.9	0.0
2026-01-19 18:30:52.510776	304.1	57.0	-67.6	0.0
2026-01-19 18:30:54.752848	305.3	56.4	-68.2	0.0
2026-01-19 18:30:56.996866	306.5	55.7	-69.3	0.0
2026-01-19 18:30:59.240877	307.6	55.1	-69.2	0.0
2026-01-19 18:31:01.485926	308.6	54.4	-69.2	0.0
2026-01-19 18:31:03.729448	309.7	53.8	-68.9	0.0
2026-01-19 18:31:05.972503	310.6	53.1	-69.4	0.0
2026-01-19 18:31:08.215034	311.6	52.5	-69.0	0.0
2026-01-19 18:31:10.458615	312.4	51.8	-69.5	0.0
2026-01-19 18:31:12.701146	313.3	51.2	-68.2	0.0
2026-01-19 18:31:14.944697	314.1	50.5	-69.1	0.0
2026-01-19 18:31:17.191725	314.9	49.9	-69.9	0.0
2026-01-19 18:31:19.434742	315.6	49.2	-69.5	0.0
2026-01-19 18:31:21.678789	316.4	48.6	-69.1	0.0
2026-01-19 18:31:23.921318	317.1	48.0	-68.9	0.0
2026-01-19 18:31:26.165368	317.7	47.3	-68.6	0.0
2026-01-19 18:31:28.408891	318.4	46.7	-69.6	0.0
2026-01-19 18:31:30.651451	319.0	46.1	-68.5	0.0
2026-01-19 18:31:32.894973	319.6	45.5	-67.1	0.0
2026-01-19 18:31:35.137541	320.1	44.9	-69.1	0.0
2026-01-19 18:31:37.381063	320.7	44.3	-68.4	0.0
2026-01-19 18:31:39.624578	321.2	43.7	-67.6	0.0
2026-01-19 18:31:41.868626	321.7	43.1	-67.6	0.0
2026-01-19 18:31:44.111652	322.2	42.5	-68.1	0.0
2026-01-19 18:31:46.352725	322.7	42.0	-68.4	0.0
2026-01-19 18:31:48.597744	323.2	41.4	-68.9	0.0
2026-01-19 18:31:50.843297	323.6	40.9	-67.7	0.0
2026-01-19 18:31:53.085332	324.0	40.3	-69.5	0.0
2026-01-19 18:31:55.327359	324.4	39.8	-68.7	0.0
2026-01-19 18:31:57.570888	324.8	39.2	-67.9	0.0
2026-01-19 18:31:59.817900	325.2	38.7	-67.6	0.0
2026-01-19 18:32:02.061950	325.6	38.2	-68.1	0.0
2026-01-19 18:32:04.305502	326.0	37.7	-68.2	0.0
2026-01-19 18:32:06.549513	326.3	37.2	-68.0	0.0
2026-01-19 18:32:08.794027	326.7	36.6	-67.1	0.0
2026-01-19 18:32:11.036093	327.0	36.2	-67.1	0.0
2026-01-19 18:32:13.279616	327.3	35.7	-68.2	0.0
2026-01-19 18:32:15.523162	327.6	35.2	-68.2	0.0
2026-01-19 18:32:17.767182	328.0	34.7	-68.5	0.0
2026-01-19 18:32:20.012193	328.3	34.2	-68.6	0.0
2026-01-19 18:32:22.255742	328.5	33.8	-67.0	0.0
2026-01-19 18:32:24.498264	328.8	33.3	-68.6	0.0
2026-01-19 18:32:26.742320	329.1	32.9	-67.0	0.0
2026-01-19 18:32:28.986339	329.4	32.4	-67.8	0.0
2026-01-19 18:32:31.230385	329.6	32.0	-68.1	0.0
2026-01-19 18:32:33.474899	329.9	31.5	-65.6	0.0
2026-01-19 18:32:35.717431	330.1	31.1	-67.3	0.0
2026-01-19 18:32:37.959480	330.4	30.7	-67.6	0.0
2026-01-19 18:32:40.206012	330.6	30.3	-67.9	0.0
2026-01-19 18:32:42.449554	330.8	29.9	-68.1	0.0
2026-01-19 18:32:44.693572	331.0	29.5	-68.0	0.0
2026-01-19 18:32:46.936618	331.3	29.1	-67.7	0.0
2026-01-19 18:32:49.182150	331.5	28.7	-68.4	0.0
2026-01-19 18:32:51.425701	331.7	28.3	-68.5	0.0
2026-01-19 18:32:53.669719	331.9	27.9	-68.1	0.0
2026-01-19 18:32:55.913740	332.1	27.5	-68.6	0.0
2026-01-19 18:32:58.157787	332.3	27.1	-66.7	0.0
2026-01-19 18:33:00.402302	332.5	26.8	-66.8	0.0
2026-01-19 18:33:02.646348	332.7	26.4	-66.2	0.0
2026-01-19 18:33:04.889913	332.8	26.0	-68.5	0.0
2026-01-19 18:33:07.132978	333.0	25.7	-67.8	0.0
2026-01-19 18:33:09.376989	333.2	25.3	-68.0	0.0
2026-01-19 18:33:11.620512	333.4	25.0	-67.5	0.0
2026-01-19 18:33:13.865064	333.5	24.6	-67.9	0.0
2026-01-19 18:33:16.108090	333.7	24.3	-68.6	0.0
2026-01-19 18:33:18.351129	333.9	24.0	-67.0	0.0
2026-01-19 18:33:20.595194	334.0	23.6	-68.4	0.0
2026-01-19 18:33:22.837229	334.2	23.3	-66.9	0.0
2026-01-19 18:33:25.080255	334.3	23.0	-67.9	0.0
2026-01-19 18:33:27.322778	334.5	22.7	-68.6	0.0
2026-01-19 18:33:29.565834	334.6	22.4	-68.3	0.0
2026-01-19 18:33:31.808872	334.8	22.0	-66.3	0.0
2026-01-19 18:33:34.050441	334.9	21.7	-68.2	0.0
2026-01-19 18:33:36.294467	335.0	21.4	-68.2	0.0
2026-01-19 18:33:38.540531	335.2	21.1	-67.0	0.0
2026-01-19 18:33:40.784557	335.3	20.8	-66.5	0.0
2026-01-19 18:33:43.027600	335.4	20.5	-66.9	0.0
2026-01-19 18:33:45.271122	335.6	20.2	-66.7	0.0
2026-01-19 18:33:47.513150	335.7	20.0	-67.0	0.0
2026-01-19 18:33:49.756703	335.8	19.7	-67.2	0.0
2026-01-19 18:33:51.999729	335.9	19.4	-67.8	0.0
2026-01-19 18:33:54.242800	336.1	19.1	-68.2	0.0
2026-01-19 18:33:56.484835	336.2	18.8	-67.7	0.0
2026-01-19 18:33:58.727898	336.3	18.6	-68.2	0.0
2026-01-19 18:34:00.970464	336.4	18.3	-67.1	0.0
2026-01-19 18:34:03.216483	336.5	18.0	-67.9	0.0
2026-01-19 18:34:05.457525	336.6	17.8	-67.4	0.0
2026-01-19 18:34:07.702031	336.7	17.5	-67.7	0.0
2026-01-19 18:34:09.946095	336.8	17.3	-68.2	0.0
2026-01-19 18:34:12.193134	336.9	17.0	-67.1	0.0
2026-01-19 18:34:14.438183	337.0	16.7	-67.5	0.0
2026-01-19 18:34:16.682201	337.1	16.5	-66.8	0.0
2026-01-19 18:34:18.926260	337.2	16.2	-67.3	0.0
2026-01-19 18:34:21.170278	337.3	16.0	-67.1	0.0
2026-01-19 18:34:23.412847	337.4	15.8	-67.0	0.0
2026-01-19 18:34:25.656866	337.5	15.5	-67.8	0.0
2026-01-19 18:34:27.900877	337.6	15.3	-67.5	0.0
2026-01-19 18:34:30.143925	337.7	15.0	-66.5	0.0
2026-01-19 18:34:32.387450	337.8	14.8	-66.5	0.0
2026-01-19 18:34:34.636001	337.9	14.6	-66.6	0.0
2026-01-19 18:34:36.881516	338.0	14.3	-66.7	0.0
2026-01-19 18:34:39.124572	338.1	14.1	-66.4	0.0
2026-01-19 18:34:41.369088	338.2	13.9	-66.4	0.0
2026-01-19 18:34:43.613639	338.3	13.7	-66.1	0.0
2026-01-19 18:34:45.856658	338.3	13.4	-64.9	0.0
2026-01-19 18:34:48.101702	338.4	13.2	-67.1	0.0
2026-01-19 18:34:50.344720	338.5	13.0	-65.4	0.0
2026-01-19 18:34:52.588731	338.6	12.8	-65.7	0.0
2026-01-19 18:34:54.832267	338.7	12.6	-65.0	0.0
2026-01-19 18:34:57.075791	338.8	12.4	-66.6	0.0
2026-01-19 18:34:59.319839	338.8	12.2	-66.3	0.0
2026-01-19 18:35:01.563856	338.9	12.0	-66.5	0.0
2026-01-19 18:35:03.806910	339.0	11.7	-66.1	0.0
2026-01-19 18:35:06.048441	339.1	11.5	-67.0	0.0
2026-01-19 18:35:08.291965	339.1	11.3	-66.6	0.0
2026-01-19 18:35:10.535502	339.2	11.1	-66.8	0.0
2026-01-19 18:35:12.779025	339.3	10.9	-65.6	0.0
2026-01-19 18:35:15.022085	339.4	10.7	-66.2	0.0
2026-01-19 18:35:17.265113	339.4	10.5	-66.4	0.0
2026-01-19 18:35:19.507681	339.5	10.3	-65.8	0.0
2026-01-19 18:35:21.753195	339.6	10.2	-65.6	0.0
2026-01-19 18:35:23.995720	339.6	10.0	-66.0	0.0
2026-01-19 18:35:26.237791	339.7	9.8	-64.5	0.0
2026-01-19 18:35:28.480315	339.8	9.6	-64.4	0.0
2026-01-19 18:35:30.722379	339.8	9.4	-66.3	0.0
2026-01-19 18:35:32.966903	339.9	9.2	-64.6	0.0
2026-01-19 18:35:35.209455	340.0	9.0	-65.1	0.0
2026-01-19 18:35:37.452978	340.0	8.8	-63.2	0.0
2026-01-19 18:35:39.695523	340.1	8.7	-64.8	0.0
2026-01-19 18:35:41.938557	340.2	8.5	-66.0	0.0
2026-01-19 18:35:44.183065	340.2	8.3	-65.3	0.0
2026-01-19 18:35:46.428122	340.3	8.1	-65.7	0.0
2026-01-19 18:35:48.672141	340.3	7.9	-65.2	0.0
2026-01-19 18:35:50.915693	340.4	7.8	-65.0	0.0
2026-01-19 18:35:53.159258	340.5	7.6	-63.5	0.0
2026-01-19 18:35:55.403827	340.5	7.4	-65.6	0.0
2026-01-19 18:35:57.646372	340.6	7.2	-65.3	0.0
2026-01-19 18:35:59.890416	340.6	7.1	-65.6	0.0
2026-01-19 18:36:02.134945	340.7	6.9	-64.4	0.0
2026-01-19 18:36:04.380468	340.8	6.7	-65.2	0.0
2026-01-19 18:36:06.622025	340.8	6.6	-64.6	0.0
2026-01-19 18:36:08.866053	340.9	6.4	-65.4	0.0
2026-01-19 18:36:11.111093	340.9	6.2	-66.0	0.0
2026-01-19 18:36:13.353624	341.0	6.1	-65.2	0.0
2026-01-19 18:36:15.596664	341.0	5.9	-67.2	0.4
2026-01-19 18:36:17.840683	341.1	5.7	-68.4	0.0
2026-01-19 18:36:20.083702	341.1	5.6	-67.7	0.0
2026-01-19 18:36:22.328246	341.2	5.4	-67.2	0.0
2026-01-19 18:36:24.572263	341.2	5.3	-67.5	0.0
2026-01-19 18:36:26.815312	341.3	5.1	-67.2	0.0
#Closed at: 2026-01-19 18:23:31.746539