passes_logs/2026/01/19/PlanumMoscow/PlanumMoscow__20260119_075636_METOP-B_rec.log

#Pass ID: 20260119_075636_METOP-B
#Satellite: METOP-B
#Configuration: METOP-B
#Start time: 2026-01-19 07:56:41.513123

#LorettStation: 1.0.0 05.05.2024
#Station: PlanumMoscow
#Location: 37.6253844 lon 55.6713361 lat
#TLE: 1 38771U 12049A   25293.92766658  .00000266  00000+0  14193-3 0  9996
#TLE: 2 38771  98.6882 344.7603 0001609 341.5209  18.5909 14.21379342679275

#Time	Az	El	Level	SNR
2026-01-19 08:00:20.005620	355.4	27.1	-60.7	4.0
2026-01-19 08:00:22.250135	355.0	27.4	-60.9	5.9
2026-01-19 08:00:24.492195	354.6	27.7	-60.8	3.3
2026-01-19 08:00:26.735711	354.3	28.1	-60.8	1.5
2026-01-19 08:00:28.984265	353.9	28.4	-60.4	3.9
2026-01-19 08:00:31.228285	353.5	28.8	-61.6	3.9
2026-01-19 08:00:33.471823	353.1	29.1	-60.5	3.5
2026-01-19 08:00:35.719882	352.7	29.5	-61.7	4.5
2026-01-19 08:00:37.963902	352.2	29.8	-61.7	4.4
2026-01-19 08:00:40.207456	351.8	30.2	-60.9	1.6
2026-01-19 08:00:42.450476	351.4	30.5	-61.7	5.8
2026-01-19 08:00:44.694504	350.9	30.9	-61.9	5.0
2026-01-19 08:00:46.938059	350.5	31.3	-61.7	5.2
2026-01-19 08:00:49.181090	350.0	31.6	-62.3	6.1
2026-01-19 08:00:51.424156	349.5	32.0	-62.0	5.9
2026-01-19 08:00:53.666712	349.0	32.4	-61.9	4.5
2026-01-19 08:00:55.909732	348.5	32.8	-62.5	6.3
2026-01-19 08:00:58.152760	348.0	33.1	-60.9	3.6
2026-01-19 08:01:00.396780	347.5	33.5	-62.4	6.6
2026-01-19 08:01:02.639332	346.9	33.9	-62.2	5.4
2026-01-19 08:01:04.881894	346.4	34.3	-62.0	6.2
2026-01-19 08:01:07.125409	345.8	34.7	-62.7	7.0
2026-01-19 08:01:09.372943	345.2	35.1	-62.6	4.8
2026-01-19 08:01:11.615991	344.6	35.4	-62.2	6.2
2026-01-19 08:01:13.860002	344.0	35.8	-62.2	5.5
2026-01-19 08:01:16.103039	343.4	36.2	-62.7	7.8
2026-01-19 08:01:18.350081	342.8	36.6	-62.4	7.8
2026-01-19 08:01:20.594596	342.1	37.0	-62.0	7.2
2026-01-19 08:01:22.838636	341.4	37.4	-62.5	7.6
2026-01-19 08:01:25.085678	340.7	37.8	-62.1	7.1
2026-01-19 08:01:27.328210	340.0	38.2	-61.2	4.9
2026-01-19 08:01:29.571772	339.3	38.6	-61.5	6.3
2026-01-19 08:01:31.814799	338.6	39.0	-61.7	6.5
2026-01-19 08:01:34.060877	337.8	39.3	-62.6	9.0
2026-01-19 08:01:36.304410	337.0	39.7	-62.4	6.9
2026-01-19 08:01:38.548964	336.2	40.1	-60.9	8.1
2026-01-19 08:01:40.796994	335.4	40.5	-62.6	8.4
2026-01-19 08:01:43.040017	334.6	40.9	-62.7	8.4
2026-01-19 08:01:45.283532	333.7	41.2	-62.2	7.8
2026-01-19 08:01:47.528047	332.8	41.6	-62.8	8.4
2026-01-19 08:01:49.771564	331.9	42.0	-62.5	8.1
2026-01-19 08:01:52.015111	331.0	42.4	-62.9	8.5
2026-01-19 08:01:54.258665	330.1	42.7	-63.3	9.7
2026-01-19 08:01:56.502188	329.1	43.1	-62.9	9.2
2026-01-19 08:01:58.744711	328.2	43.4	-63.3	8.3
2026-01-19 08:02:00.988227	327.1	43.8	-63.0	8.2
2026-01-19 08:02:03.231765	326.1	44.1	-63.1	9.7
2026-01-19 08:02:05.474800	325.1	44.4	-62.6	8.5
2026-01-19 08:02:07.724316	324.0	44.7	-63.0	9.7
2026-01-19 08:02:09.968860	322.9	45.1	-62.9	9.4
2026-01-19 08:02:12.212391	321.8	45.4	-62.5	9.8
2026-01-19 08:02:14.454944	320.7	45.6	-62.4	9.9
2026-01-19 08:02:16.698468	319.5	45.9	-62.2	8.9
2026-01-19 08:02:18.941487	318.4	46.2	-62.2	9.3
2026-01-19 08:02:21.185554	317.2	46.4	-62.7	10.3
2026-01-19 08:02:23.429078	315.9	46.7	-62.1	8.4
2026-01-19 08:02:25.672129	314.7	46.9	-61.8	8.2
2026-01-19 08:02:27.916140	313.5	47.1	-62.3	9.4
2026-01-19 08:02:30.158681	312.2	47.3	-62.2	9.1
2026-01-19 08:02:32.403196	310.9	47.5	-62.1	8.4
2026-01-19 08:02:34.646238	309.6	47.7	-62.3	9.1
2026-01-19 08:02:36.889782	308.3	47.9	-62.3	7.5
2026-01-19 08:02:39.132810	307.0	48.0	-62.5	9.0
2026-01-19 08:02:41.373877	305.7	48.1	-61.8	8.3
2026-01-19 08:02:43.616408	304.3	48.3	-61.7	8.2
2026-01-19 08:02:45.860466	302.9	48.3	-62.0	8.2
2026-01-19 08:02:48.102998	301.6	48.4	-61.9	7.0
2026-01-19 08:02:50.346545	300.2	48.5	-62.0	6.9
2026-01-19 08:02:52.590060	298.8	48.5	-62.1	9.1
2026-01-19 08:02:54.833583	297.5	48.5	-62.1	8.2
2026-01-19 08:02:57.078603	296.1	48.5	-62.6	6.2
2026-01-19 08:02:59.322614	294.7	48.5	-62.6	7.9
2026-01-19 08:03:01.566130	293.3	48.5	-61.5	4.0
2026-01-19 08:03:03.810150	292.0	48.5	-62.3	7.1
2026-01-19 08:03:06.053213	290.6	48.4	-62.5	7.9
2026-01-19 08:03:08.299737	289.2	48.3	-62.7	7.2
2026-01-19 08:03:10.544793	287.9	48.2	-62.4	5.8
2026-01-19 08:03:12.788337	286.5	48.1	-63.1	6.3
2026-01-19 08:03:15.032348	285.2	48.0	-63.3	8.6
2026-01-19 08:03:17.275409	283.9	47.8	-62.7	7.7
2026-01-19 08:03:19.519924	282.6	47.6	-62.4	5.1
2026-01-19 08:03:21.765471	281.3	47.5	-62.7	6.6
2026-01-19 08:03:24.009978	280.0	47.3	-62.8	9.2
2026-01-19 08:03:26.254027	278.7	47.0	-62.5	8.5
2026-01-19 08:03:28.498543	277.5	46.8	-62.3	7.3
2026-01-19 08:03:30.742090	276.3	46.6	-62.3	7.2
2026-01-19 08:03:32.986597	275.1	46.3	-62.6	8.1
2026-01-19 08:03:35.231111	273.9	46.1	-62.6	5.5
2026-01-19 08:03:37.479653	272.7	45.8	-62.5	7.3
2026-01-19 08:03:39.724168	271.6	45.5	-62.3	5.8
2026-01-19 08:03:41.968675	270.4	45.2	-61.9	5.8
2026-01-19 08:03:44.211726	269.3	44.9	-60.8	4.4
2026-01-19 08:03:46.460242	268.3	44.6	-62.1	5.2
2026-01-19 08:03:48.703804	267.2	44.3	-61.8	4.7
2026-01-19 08:03:50.948320	266.2	43.9	-61.5	3.2
2026-01-19 08:03:53.193368	265.1	43.6	-61.9	6.6
2026-01-19 08:03:55.437883	264.1	43.2	-61.1	4.1
2026-01-19 08:03:57.682390	263.2	42.9	-61.1	5.5
2026-01-19 08:03:59.926431	262.2	42.5	-61.2	5.5
2026-01-19 08:04:02.171938	261.3	42.2	-60.3	3.8
2026-01-19 08:04:04.415987	260.4	41.8	-60.1	2.9
2026-01-19 08:04:06.659998	259.5	41.4	-60.1	3.9
2026-01-19 08:04:08.907523	258.6	41.1	-60.8	6.1
2026-01-19 08:04:11.152067	257.8	40.7	-59.6	2.8
2026-01-19 08:04:13.396583	256.9	40.3	-59.3	2.9
2026-01-19 08:04:15.640649	256.1	39.9	-58.1	2.3
2026-01-19 08:04:17.886174	255.3	39.5	-59.6	3.8
2026-01-19 08:04:20.130214	254.6	39.1	-59.6	2.7
2026-01-19 08:04:22.374721	253.8	38.7	-59.1	1.4
2026-01-19 08:04:24.624238	253.1	38.4	-57.9	3.1
2026-01-19 08:04:26.868745	252.4	38.0	-57.5	0.0
2026-01-19 08:04:29.113259	251.6	37.6	-57.6	1.2
2026-01-19 08:04:31.356316	251.0	37.2	-56.3	0.0
2026-01-19 08:04:33.605833	250.3	36.8	-57.2	0.0
2026-01-19 08:04:35.850340	249.6	36.4	-57.3	1.2
2026-01-19 08:04:38.094380	249.0	36.0	-57.4	0.0
2026-01-19 08:04:40.338437	248.4	35.6	-57.1	0.0
2026-01-19 08:04:42.585945	247.8	35.2	-57.3	0.0
2026-01-19 08:04:44.830460	247.2	34.8	-55.8	0.0
2026-01-19 08:04:47.073997	246.6	34.4	-56.8	0.0
2026-01-19 08:04:49.320024	246.0	34.1	-56.7	0.0
2026-01-19 08:04:51.564531	245.5	33.7	-56.3	0.0
2026-01-19 08:04:53.809076	245.0	33.3	-56.1	0.0
2026-01-19 08:04:56.053591	244.4	32.9	-56.0	0.0
2026-01-19 08:04:58.300144	243.9	32.5	-56.7	0.0
2026-01-19 08:05:00.544660	243.4	32.2	-57.0	0.0
2026-01-19 08:05:02.789203	242.9	31.8	-56.3	0.0
2026-01-19 08:05:05.036223	242.4	31.4	-56.7	0.0
2026-01-19 08:05:07.280266	242.0	31.0	-57.1	0.0
2026-01-19 08:05:09.524781	241.5	30.7	-57.0	0.0
2026-01-19 08:05:11.769287	241.1	30.3	-56.7	0.0
2026-01-19 08:05:14.012881	240.6	30.0	-56.6	0.0
2026-01-19 08:05:16.257397	240.2	29.6	-56.1	0.0
2026-01-19 08:05:18.501942	239.8	29.2	-55.7	0.0
2026-01-19 08:05:20.746456	239.4	28.9	-57.4	0.0
2026-01-19 08:05:22.989507	239.0	28.5	-55.8	0.0
2026-01-19 08:05:25.234022	238.6	28.2	-55.9	0.0
2026-01-19 08:05:27.478529	238.2	27.8	-55.4	0.0
2026-01-19 08:05:29.721595	237.8	27.5	-56.0	0.0
2026-01-19 08:05:31.966110	237.5	27.2	-55.0	0.0
2026-01-19 08:05:34.210170	237.1	26.8	-56.6	0.0
2026-01-19 08:05:36.454685	236.8	26.5	-56.6	0.0
2026-01-19 08:05:38.698743	236.4	26.2	-56.9	0.0
2026-01-19 08:05:40.942755	236.1	25.8	-55.3	0.0
2026-01-19 08:05:43.186772	235.8	25.5	-58.6	0.0
2026-01-19 08:05:45.431805	235.4	25.2	-56.9	0.0
2026-01-19 08:05:47.676825	235.1	24.9	-57.0	0.0
2026-01-19 08:05:49.920865	234.8	24.6	-57.2	0.0
2026-01-19 08:05:52.164908	234.5	24.3	-55.6	0.0
2026-01-19 08:05:54.414460	234.2	23.9	-55.9	0.0
2026-01-19 08:05:56.658975	233.9	23.6	-56.2	0.0
2026-01-19 08:05:58.903023	233.6	23.3	-55.9	0.0
2026-01-19 08:06:01.147538	233.4	23.0	-57.2	0.0
2026-01-19 08:06:03.393550	233.1	22.7	-57.4	0.0
2026-01-19 08:06:05.638097	232.8	22.4	-58.8	0.0
2026-01-19 08:06:07.882612	232.5	22.1	-57.2	0.0
2026-01-19 08:06:10.126654	232.3	21.9	-57.7	0.0
2026-01-19 08:06:12.375169	232.0	21.6	-57.0	0.0
2026-01-19 08:06:14.619202	231.8	21.3	-58.0	0.0
2026-01-19 08:06:16.863222	231.5	21.0	-59.3	0.0
2026-01-19 08:06:19.108286	231.3	20.7	-58.5	0.0
2026-01-19 08:06:21.352311	231.1	20.4	-58.1	0.0
2026-01-19 08:06:23.595829	230.8	20.2	-58.8	0.0
2026-01-19 08:06:25.839878	230.6	19.9	-59.4	0.0
2026-01-19 08:06:28.088404	230.4	19.6	-58.7	0.0
2026-01-19 08:06:30.332455	230.2	19.4	-59.5	0.0
2026-01-19 08:06:32.576473	229.9	19.1	-59.1	0.0
2026-01-19 08:06:34.819527	229.7	18.8	-58.7	0.0
2026-01-19 08:06:37.065042	229.5	18.6	-58.7	0.0
2026-01-19 08:06:39.308589	229.3	18.3	-58.5	0.0
2026-01-19 08:06:41.553096	229.1	18.1	-58.9	0.0
2026-01-19 08:06:43.800620	228.9	17.8	-59.5	0.0
2026-01-19 08:06:46.044678	228.7	17.6	-59.2	0.0
2026-01-19 08:06:48.290193	228.5	17.3	-59.5	0.0
2026-01-19 08:06:50.535739	228.3	17.1	-59.1	0.0
2026-01-19 08:06:52.780263	228.2	16.8	-60.1	0.0
2026-01-19 08:06:55.024313	228.0	16.6	-59.9	0.0
2026-01-19 08:06:57.268820	227.8	16.3	-59.1	0.0
2026-01-19 08:06:59.512871	227.6	16.1	-59.3	0.0
2026-01-19 08:07:01.756388	227.5	15.9	-59.7	0.0
2026-01-19 08:07:04.000399	227.3	15.6	-60.2	0.0
2026-01-19 08:07:06.243965	227.1	15.4	-60.8	0.0
2026-01-19 08:07:08.487985	227.0	15.2	-60.0	0.0
2026-01-19 08:07:10.732530	226.8	14.9	-60.8	0.0
2026-01-19 08:07:12.976579	226.6	14.7	-60.8	0.0
2026-01-19 08:07:15.221093	226.5	14.5	-60.4	0.0
2026-01-19 08:07:17.465609	226.3	14.3	-59.9	0.0
2026-01-19 08:07:19.709643	226.2	14.0	-59.9	0.0
2026-01-19 08:07:21.954149	226.0	13.8	-60.0	0.0
2026-01-19 08:07:24.198665	225.9	13.6	-61.0	0.0
2026-01-19 08:07:26.442220	225.7	13.4	-61.2	0.0
2026-01-19 08:07:28.686240	225.6	13.2	-62.1	0.0
2026-01-19 08:07:30.930787	225.4	13.0	-61.6	0.0
2026-01-19 08:07:33.176303	225.3	12.8	-61.2	0.0
2026-01-19 08:07:35.420313	225.2	12.5	-61.3	0.0
2026-01-19 08:07:37.664356	225.0	12.3	-61.6	0.0
2026-01-19 08:07:39.908415	224.9	12.1	-61.2	0.0
2026-01-19 08:07:42.157923	224.8	11.9	-61.8	0.0
2026-01-19 08:07:44.401944	224.6	11.7	-62.5	0.0
2026-01-19 08:07:46.645955	224.5	11.5	-61.2	0.0
2026-01-19 08:07:48.890005	224.4	11.3	-61.5	0.0
2026-01-19 08:07:51.134023	224.3	11.1	-62.2	0.0
2026-01-19 08:07:53.378569	224.1	10.9	-61.4	0.0
2026-01-19 08:07:55.623083	224.0	10.7	-60.9	0.0
2026-01-19 08:07:57.867591	223.9	10.5	-62.5	0.0
2026-01-19 08:08:00.115644	223.8	10.4	-62.0	0.0
2026-01-19 08:08:02.361150	223.7	10.2	-61.4	0.0
2026-01-19 08:08:04.604203	223.5	10.0	-61.3	0.0
2026-01-19 08:08:06.848222	223.4	9.8	-61.3	0.0
2026-01-19 08:08:09.096739	223.3	9.6	-62.0	0.0
2026-01-19 08:08:11.341285	223.2	9.4	-62.9	0.0
2026-01-19 08:08:13.586800	223.1	9.2	-62.4	0.0
2026-01-19 08:08:15.830356	223.0	9.0	-62.7	0.0
2026-01-19 08:08:18.073905	222.9	8.9	-62.3	0.0
2026-01-19 08:08:20.318420	222.8	8.7	-63.2	0.0
2026-01-19 08:08:22.562462	222.7	8.5	-63.9	0.0
2026-01-19 08:08:24.805987	222.6	8.3	-64.1	0.0
2026-01-19 08:08:27.050532	222.5	8.1	-64.1	0.1
2026-01-19 08:08:29.295039	222.4	8.0	-64.8	3.8
2026-01-19 08:08:31.539553	222.3	7.8	-65.0	3.1
2026-01-19 08:08:33.787100	222.2	7.6	-65.0	1.5
2026-01-19 08:08:36.030624	222.1	7.5	-64.5	0.0
2026-01-19 08:08:38.274185	222.0	7.3	-65.3	3.3
2026-01-19 08:08:40.517700	221.9	7.1	-64.2	3.4
2026-01-19 08:08:42.765216	221.8	6.9	-65.5	3.2
2026-01-19 08:08:45.010265	221.7	6.8	-65.0	3.5
2026-01-19 08:08:47.254781	221.6	6.6	-65.0	2.7
2026-01-19 08:08:49.502321	221.6	6.4	-64.8	0.4
2026-01-19 08:08:51.746837	221.5	6.3	-65.4	1.1
2026-01-19 08:08:53.993873	221.4	6.1	-64.6	0.5
2026-01-19 08:08:56.238380	221.3	5.9	-64.5	0.0
2026-01-19 08:08:58.481897	221.2	5.8	-62.6	0.0
2026-01-19 08:09:00.727941	221.1	5.6	-62.7	0.0
2026-01-19 08:09:02.971001	221.0	5.5	-64.8	0.0
2026-01-19 08:09:05.247531	221.0	5.3	-68.5	0.0
2026-01-19 08:09:07.492037	220.9	5.1	-70.1	0.0
2026-01-19 08:09:09.736117	220.8	5.0	-69.8	0.0
#Closed at: 2026-01-19 07:56:36.513861