passes_logs/2026/01/03/R3.0SM8_Murmansk_STILSPACE/R3.0SM8_Murmansk_STILSPACE__20260103_015719_NOAA_20_JPSS-1_rec.log

#Pass ID: 20260103_015719_NOAA 20 (JPSS-1)
#Satellite: NOAA 20 (JPSS-1)
#Configuration: NOAA 20
#almurnet v.1.7.20240730
#Start time: 2026-01-03 01:57:19

#Version: 2.2.20231116
#Station: R3.0SM8_Murmansk_STILSPACE
#Location: 33.092731 lon 68.902999 lat
#TLE: 1 43013U 17073A   26002.21975278  .00000202  00000+0  11669-3 0  9999
#TLE: 2 43013  98.7622 303.2950 0001915  57.9213 302.2149 14.19532512420923

#Time	Az	El	Level	Level2	SNR	BER	BlckErr	Temp	State	Recorded	gain1	gain2
2026-01-03 01:57:19.88	30.03	3.05	-53.0	-66.8	3.8	1.49e+00	0	47	0	0	68	18036
2026-01-03 01:57:23.83	29.91	3.31	-52.5	-66.3	3.8	1.49e+00	0	48	104	0	68	17051
2026-01-03 01:57:27.78	29.80	3.57	-51.9	-63.9	3.8	1.49e+00	0	48	104	0	66	14444
2026-01-03 01:57:31.75	29.67	3.83	-51.6	-61.2	4.5	1.12e+00	0	48	0	1048576	66	10554
2026-01-03 01:57:35.71	29.55	4.10	-51.0	-57.8	6.8	2.12e-01	0	48	0	8388608	65	7564
2026-01-03 01:57:39.66	29.42	4.36	-50.3	-55.0	9.6	1.82e-02	0	49	0	15728640	63	6186
2026-01-03 01:57:43.59	29.29	4.63	-49.5	-53.1	11.6	8.89e-04	0	49	0	23068672	62	5249
2026-01-03 01:57:47.55	29.16	4.90	-49.1	-52.2	12.5	1.11e-04	0	49	0	30408704	61	5036
2026-01-03 01:57:51.51	29.03	5.18	-49.1	-52.2	12.7	8.01e-05	0	49	0	38797312	61	4988
2026-01-03 01:57:55.47	28.89	5.46	-49.2	-52.3	12.5	7.09e-05	0	49	0	46137344	61	5066
2026-01-03 01:57:59.42	28.75	5.74	-49.0	-51.9	13.0	5.95e-05	0	50	0	53477376	61	4819
2026-01-03 01:58:03.37	28.60	6.02	-48.6	-51.3	13.6	6.10e-06	0	50	0	60817408	60	4779
2026-01-03 01:58:07.33	28.45	6.31	-48.6	-51.3	13.7	9.10e-06	0	50	0	68157440	60	4791
2026-01-03 01:58:11.28	28.30	6.59	-48.6	-51.2	13.8	5.30e-06	0	50	0	75497472	60	4728
2026-01-03 01:58:15.25	28.15	6.89	-48.7	-51.3	13.7	6.10e-06	0	50	0	82837504	60	4804
2026-01-03 01:58:19.20	27.99	7.18	-48.9	-51.6	13.4	1.67e-05	0	51	0	90177536	60	4970
2026-01-03 01:58:23.18	27.83	7.48	-48.8	-51.5	13.6	3.80e-06	0	51	0	97517568	60	4910
2026-01-03 01:58:27.15	27.67	7.79	-48.5	-51.1	14.0	7.00e-07	0	51	0	104857600	60	4659
2026-01-03 01:58:31.10	27.50	8.09	-48.6	-51.0	14.2	7.00e-07	0	51	0	112197632	59	4924
2026-01-03 01:58:35.06	27.33	8.40	-48.5	-50.9	14.2	0.00e+00	0	51	0	119537664	59	4863
2026-01-03 01:58:39.00	27.15	8.71	-48.7	-51.2	14.1	0.00e+00	0	52	0	126877696	59	4985
2026-01-03 01:58:42.95	26.97	9.02	-48.7	-51.2	14.1	3.80e-06	0	52	0	135266304	59	5011
2026-01-03 01:58:46.92	26.78	9.35	-48.6	-51.0	14.3	0.00e+00	0	52	0	142606336	59	4881
2026-01-03 01:58:50.87	26.59	9.67	-48.7	-51.1	14.2	2.20e-06	0	52	0	149946368	59	4939
2026-01-03 01:58:54.82	26.40	9.99	-48.4	-50.6	14.7	0.00e+00	0	52	0	157286400	59	4675
2026-01-03 01:58:58.78	26.20	10.33	-48.3	-50.5	14.9	0.00e+00	0	52	0	164626432	59	4633
2026-01-03 01:59:02.73	26.00	10.66	-48.5	-50.8	14.5	0.00e+00	0	52	0	171966464	59	4794
2026-01-03 01:59:06.69	25.79	11.00	-48.4	-50.6	14.8	0.00e+00	0	53	0	179306496	59	4657
2026-01-03 01:59:10.65	25.58	11.34	-48.2	-50.3	15.1	0.00e+00	0	53	0	186646528	59	4513
2026-01-03 01:59:14.61	25.36	11.69	-48.2	-50.3	15.1	0.00e+00	0	53	0	193986560	59	4525
2026-01-03 01:59:18.57	25.13	12.05	-48.4	-50.6	14.9	0.00e+00	0	53	0	201326592	59	4652
2026-01-03 01:59:22.54	24.90	12.40	-48.1	-50.1	15.3	0.00e+00	0	53	0	208666624	59	4435
2026-01-03 01:59:26.47	24.66	12.76	-48.1	-50.1	15.3	0.00e+00	0	53	0	216006656	59	4425
2026-01-03 01:59:30.42	24.42	13.13	-48.2	-50.3	15.2	0.00e+00	0	53	0	223346688	59	4500
2026-01-03 01:59:34.40	24.17	13.51	-48.3	-50.3	15.2	0.00e+00	0	53	0	231735296	59	4537
2026-01-03 01:59:38.36	23.91	13.88	-48.1	-50.2	15.3	0.00e+00	0	53	0	239075328	59	4481
2026-01-03 01:59:42.31	23.65	14.27	-48.3	-50.4	15.1	7.00e-07	0	53	0	246415360	59	4553
2026-01-03 01:59:46.26	23.38	14.65	-47.9	-49.7	15.7	0.00e+00	0	53	0	253755392	58	4489
2026-01-03 01:59:50.22	23.10	15.05	-47.8	-49.6	15.9	0.00e+00	0	54	0	261095424	58	4403
2026-01-03 01:59:54.15	22.81	15.44	-47.7	-49.5	16.0	0.00e+00	0	54	0	268435456	58	4374
2026-01-03 01:59:58.10	22.52	15.85	-47.9	-49.8	15.7	0.00e+00	0	54	0	275775488	58	4511
2026-01-03 02:00:02.05	22.22	16.26	-47.9	-49.8	15.8	0.00e+00	0	54	0	283115520	58	4517
2026-01-03 02:00:06.00	21.90	16.68	-48.1	-50.2	15.4	0.00e+00	0	54	0	290455552	58	4712
2026-01-03 02:00:09.97	21.58	17.10	-48.2	-50.2	15.3	0.00e+00	0	54	0	297795584	58	4756
2026-01-03 02:00:13.93	21.25	17.53	-47.8	-49.7	15.9	0.00e+00	0	54	0	305135616	58	4444
2026-01-03 02:00:17.90	20.91	17.97	-47.8	-49.6	16.0	0.00e+00	0	54	0	312475648	58	4408
2026-01-03 02:00:21.86	20.55	18.41	-48.1	-50.0	15.6	0.00e+00	0	54	0	319815680	58	4651
2026-01-03 02:00:25.83	20.19	18.87	-48.1	-50.0	15.6	0.00e+00	0	54	0	327155712	58	4631
2026-01-03 02:00:29.78	19.82	19.32	-48.3	-50.3	15.3	0.00e+00	0	54	0	334495744	58	4775
2026-01-03 02:00:33.74	19.43	19.79	-48.5	-50.6	15.0	0.00e+00	0	55	0	342884352	58	4944
2026-01-03 02:00:37.68	19.03	20.26	-48.6	-50.8	14.9	0.00e+00	0	54	0	350224384	59	4780
2026-01-03 02:00:41.64	18.62	20.74	-48.6	-50.8	14.9	0.00e+00	0	55	0	357564416	59	4780
2026-01-03 02:00:45.60	18.19	21.23	-48.7	-51.0	14.7	0.00e+00	0	55	0	364904448	59	4875
2026-01-03 02:00:49.55	17.76	21.72	-48.8	-51.1	14.5	0.00e+00	0	55	0	372244480	59	4982
2026-01-03 02:00:53.51	17.30	22.22	-48.8	-51.0	14.6	7.00e-07	0	55	0	379584512	59	4923
2026-01-03 02:00:57.47	16.83	22.73	-48.6	-50.8	14.9	0.00e+00	0	55	0	386924544	59	4772
2026-01-03 02:01:01.43	16.34	23.25	-48.7	-50.9	14.8	0.00e+00	0	55	0	394264576	59	4859
2026-01-03 02:01:05.40	15.84	23.78	-49.0	-51.4	14.2	1.50e-06	0	55	0	401604608	59	5154
2026-01-03 02:01:09.36	15.32	24.32	-49.1	-51.5	14.1	2.20e-06	0	55	0	408944640	60	4923
2026-01-03 02:01:13.32	14.78	24.86	-48.9	-51.2	14.4	7.00e-07	0	55	0	416284672	60	4753
2026-01-03 02:01:17.28	14.22	25.42	-48.9	-51.4	14.2	5.30e-06	0	55	0	423624704	60	4822
2026-01-03 02:01:21.22	13.64	25.98	-49.4	-52.6	12.5	7.70e-05	0	55	0	430964736	60	5540
2026-01-03 02:01:25.18	13.04	26.55	-50.3	-55.3	9.2	1.28e-02	0	55	0	439353344	62	6742
2026-01-03 02:01:29.14	12.41	27.12	-50.4	-55.9	8.4	5.26e-02	0	55	0	446693376	62	7238
2026-01-03 02:01:33.09	11.77	27.71	-50.4	-54.9	9.9	1.22e-02	0	55	0	454033408	62	6452
2026-01-03 02:01:37.04	11.10	28.30	-50.3	-53.9	11.6	8.60e-04	0	55	0	461373440	62	5755
2026-01-03 02:01:40.99	10.40	28.91	-49.4	-52.1	13.5	1.90e-05	0	56	0	468713472	61	4962
2026-01-03 02:01:44.96	9.67	29.52	-49.9	-53.0	12.7	3.35e-05	0	55	0	476053504	61	5469
2026-01-03 02:01:48.91	8.92	30.14	-49.3	-51.9	13.8	1.06e-05	0	56	0	483393536	61	4849
2026-01-03 02:01:52.87	8.13	30.76	-49.2	-51.8	13.9	2.20e-06	0	56	0	490733568	61	4797
2026-01-03 02:01:56.82	7.32	31.40	-49.4	-52.1	13.6	7.60e-06	0	56	0	498073600	61	4970
2026-01-03 02:02:00.77	6.47	32.04	-49.7	-52.5	13.2	1.37e-05	0	56	0	505413632	61	5206
2026-01-03 02:02:04.73	5.58	32.69	-49.7	-52.5	13.3	2.67e-05	0	56	0	512753664	61	5175
2026-01-03 02:02:08.69	4.66	33.34	-49.6	-52.4	13.4	1.44e-05	0	56	0	520093696	61	5116
2026-01-03 02:02:12.64	3.70	34.00	-50.1	-53.2	12.5	1.08e-04	0	56	0	527433728	61	5632
2026-01-03 02:02:16.61	2.70	34.66	-50.1	-53.3	12.5	1.32e-04	0	56	0	535822336	62	5368
2026-01-03 02:02:20.56	1.66	35.33	-49.9	-52.9	12.9	8.77e-05	0	56	0	543162368	62	5147
2026-01-03 02:02:24.53	0.57	36.00	-49.6	-52.3	13.5	1.44e-05	0	56	0	550502400	62	4805
2026-01-03 02:02:28.48	359.43	36.67	-49.5	-52.1	13.7	6.10e-06	0	56	0	557842432	61	4963
2026-01-03 02:02:32.42	358.26	37.34	-49.2	-51.6	14.2	3.00e-06	0	56	0	565182464	61	4700
2026-01-03 02:02:36.38	357.03	38.01	-49.2	-51.7	14.1	7.00e-07	0	56	0	572522496	61	4753
2026-01-03 02:02:40.36	355.74	38.68	-48.8	-51.0	14.8	0.00e+00	0	56	0	579862528	60	4645
2026-01-03 02:02:44.31	354.40	39.34	-48.8	-51.1	14.8	0.00e+00	0	56	0	587202560	60	4661
2026-01-03 02:02:48.27	353.01	40.00	-49.4	-52.1	13.8	3.80e-06	0	56	0	594542592	60	5224
2026-01-03 02:02:52.24	351.55	40.66	-49.5	-52.1	13.8	3.00e-06	0	56	0	601882624	61	4946
2026-01-03 02:02:56.20	350.04	41.30	-49.8	-52.7	13.1	2.36e-05	0	56	0	609222656	61	5289
2026-01-03 02:03:00.14	348.47	41.92	-49.4	-52.0	13.8	6.10e-06	0	56	0	616562688	61	4908
2026-01-03 02:03:04.11	346.83	42.53	-49.5	-52.1	13.7	6.10e-06	0	56	0	623902720	61	4981
2026-01-03 02:03:08.06	345.14	43.13	-49.4	-52.0	13.9	4.50e-06	0	56	0	632291328	61	4874
2026-01-03 02:03:12.02	343.37	43.70	-48.3	-50.2	15.7	0.00e+00	0	56	0	639631360	59	4479
2026-01-03 02:03:15.98	341.55	44.25	-48.2	-50.0	15.9	0.00e+00	0	56	0	646971392	59	4363
2026-01-03 02:03:19.95	339.65	44.78	-48.1	-50.0	15.9	0.00e+00	0	56	0	654311424	59	4356
2026-01-03 02:03:23.89	337.71	45.27	-48.0	-49.8	16.1	0.00e+00	0	56	0	661651456	58	4515
2026-01-03 02:03:27.85	335.70	45.74	-49.2	-51.7	14.1	7.00e-07	0	56	0	668991488	60	5026
2026-01-03 02:03:31.80	333.64	46.16	-49.2	-51.6	14.3	1.50e-06	0	56	0	676331520	60	4956
2026-01-03 02:03:35.76	331.51	46.55	-49.9	-52.8	13.1	1.44e-05	0	56	0	683671552	61	5344
2026-01-03 02:03:39.72	329.34	46.90	-50.3	-53.5	12.4	2.62e-04	0	57	0	691011584	62	5516
2026-01-03 02:03:43.68	327.11	47.21	-50.1	-53.2	12.6	6.63e-05	0	56	0	698351616	62	5334
2026-01-03 02:03:47.65	324.85	47.47	-50.2	-53.3	12.6	1.89e-04	0	56	0	705691648	62	5366
2026-01-03 02:03:51.61	322.55	47.68	-50.2	-53.5	12.4	1.88e-04	0	56	0	713031680	62	5492
2026-01-03 02:03:55.56	320.23	47.84	-49.8	-52.7	13.1	5.26e-05	0	56	0	720371712	62	5009
2026-01-03 02:03:59.53	317.88	47.95	-49.4	-52.0	13.8	3.00e-06	0	56	0	728760320	61	4926
2026-01-03 02:04:03.49	315.52	48.00	-50.1	-53.1	12.7	1.36e-04	0	56	0	736100352	62	5262
2026-01-03 02:04:07.44	313.16	48.01	-49.6	-52.3	13.6	1.22e-05	0	56	0	743440384	62	4765
2026-01-03 02:04:11.40	310.80	47.96	-49.5	-52.2	13.7	6.10e-06	0	57	0	750780416	61	5025
2026-01-03 02:04:15.37	308.45	47.85	-50.3	-53.5	12.3	2.61e-04	0	57	0	758120448	62	5494
2026-01-03 02:04:19.32	306.13	47.70	-49.9	-52.8	13.1	4.27e-05	0	57	0	765460480	62	5052
2026-01-03 02:04:23.28	303.82	47.50	-50.6	-54.1	11.7	5.84e-04	0	57	0	772800512	63	5559
2026-01-03 02:04:27.24	301.55	47.24	-49.9	-52.7	13.2	3.66e-05	0	57	0	780140544	62	5029
2026-01-03 02:04:31.17	299.34	46.95	-49.9	-52.9	12.9	3.96e-05	0	57	0	787480576	62	5151
2026-01-03 02:04:35.14	297.15	46.60	-49.8	-52.6	13.2	5.34e-05	0	57	0	794820608	62	4966
2026-01-03 02:04:39.10	295.02	46.22	-49.7	-52.5	13.3	1.14e-05	0	57	0	802160640	62	4918
2026-01-03 02:04:43.05	292.95	45.80	-49.9	-52.8	13.1	2.89e-05	0	57	0	809500672	62	5058
2026-01-03 02:04:47.01	290.92	45.34	-49.4	-52.0	13.8	5.30e-06	0	56	0	816840704	61	4905
2026-01-03 02:04:50.97	288.96	44.84	-49.3	-51.7	14.2	1.50e-06	0	57	0	825229312	61	4744
2026-01-03 02:04:54.91	287.07	44.33	-48.9	-51.1	14.8	0.00e+00	0	57	0	832569344	60	4671
2026-01-03 02:04:58.88	285.23	43.77	-48.4	-50.4	15.5	0.00e+00	0	57	0	839909376	59	4576
2026-01-03 02:05:02.85	283.45	43.20	-47.5	-49.1	16.8	0.00e+00	0	57	0	847249408	58	4152
2026-01-03 02:05:06.79	281.75	42.61	-47.5	-49.1	16.8	0.00e+00	0	57	0	854589440	58	4153
2026-01-03 02:05:10.74	280.11	42.00	-47.3	-48.8	17.2	0.00e+00	0	57	0	861929472	57	4252
2026-01-03 02:05:14.69	278.53	41.37	-47.6	-49.3	16.6	0.00e+00	0	57	0	869269504	57	4504
2026-01-03 02:05:18.66	277.00	40.73	-47.8	-49.6	16.3	0.00e+00	0	57	0	876609536	57	4659
2026-01-03 02:05:22.61	275.54	40.08	-48.3	-50.2	15.7	0.00e+00	0	57	0	883949568	58	4740
2026-01-03 02:05:26.57	274.14	39.42	-47.7	-49.3	16.5	0.00e+00	0	57	0	891289600	58	4289
2026-01-03 02:05:30.53	272.79	38.76	-47.6	-49.2	16.6	0.00e+00	0	57	0	898629632	58	4238
2026-01-03 02:05:34.50	271.49	38.09	-48.1	-49.8	16.1	0.00e+00	0	57	0	905969664	58	4536
2026-01-03 02:05:38.47	270.24	37.41	-48.5	-50.6	15.3	0.00e+00	0	57	0	913309696	59	4658
2026-01-03 02:05:42.44	269.05	36.74	-48.9	-51.1	14.7	0.00e+00	0	57	0	921698304	59	4957
2026-01-03 02:05:46.40	267.91	36.06	-49.4	-52.0	13.9	4.50e-06	0	57	0	929038336	60	5215
2026-01-03 02:05:50.35	266.82	35.39	-50.0	-52.9	13.0	4.11e-05	0	57	0	936378368	61	5453
2026-01-03 02:05:54.31	265.77	34.73	-50.7	-54.5	11.2	1.28e-03	0	57	0	943718400	63	5841
2026-01-03 02:05:58.26	264.76	34.06	-50.9	-54.9	10.8	3.04e-03	0	57	0	951058432	63	6116
2026-01-03 02:06:02.22	263.79	33.40	-50.7	-54.6	11.0	1.92e-03	0	57	0	958398464	64	5591
2026-01-03 02:06:06.17	262.86	32.75	-50.4	-54.1	11.7	5.40e-04	0	57	0	965738496	63	5530
2026-01-03 02:06:10.14	261.97	32.09	-50.4	-53.9	11.8	5.71e-04	0	57	0	973078528	63	5404
2026-01-03 02:06:14.09	261.11	31.45	-49.8	-52.7	13.1	4.73e-05	0	57	0	980418560	62	5020
2026-01-03 02:06:18.03	260.30	30.82	-49.5	-52.2	13.6	6.80e-06	0	57	0	987758592	61	5023
2026-01-03 02:06:22.00	259.50	30.19	-49.9	-52.8	12.9	5.41e-05	0	57	0	995098624	61	5377
2026-01-03 02:06:25.95	258.74	29.56	-49.5	-52.2	13.6	6.10e-06	0	57	0	1002438656	61	4998
2026-01-03 02:06:29.91	258.01	28.95	-49.7	-52.6	13.2	4.19e-05	0	57	0	1009778688	61	5256
2026-01-03 02:06:33.87	257.31	28.34	-49.7	-52.5	13.3	2.74e-05	0	57	0	1018167296	61	5199
2026-01-03 02:06:37.83	256.63	27.75	-49.4	-52.0	13.8	4.50e-06	0	57	0	1025507328	61	4893
2026-01-03 02:06:41.79	255.97	27.16	-49.9	-53.0	12.7	6.33e-05	0	57	0	1032847360	61	5488
2026-01-03 02:06:45.74	255.35	26.58	-49.6	-52.4	13.4	1.67e-05	0	57	0	1040187392	61	5133
2026-01-03 02:06:49.72	254.74	26.00	-49.1	-51.5	14.3	7.00e-07	0	57	0	1047527424	61	4622
2026-01-03 02:06:53.69	254.15	25.44	-49.0	-51.3	14.5	7.00e-07	0	57	0	1054867456	60	4795
2026-01-03 02:06:57.65	253.59	24.88	-49.1	-51.6	14.1	2.20e-06	0	57	0	1062207488	60	4951
2026-01-03 02:07:01.59	253.05	24.34	-49.1	-51.5	14.3	1.50e-06	0	57	0	1069547520	60	4913
2026-01-03 02:07:05.54	252.52	23.80	-49.1	-51.5	14.3	0.00e+00	0	57	0	1076887552	60	4896
2026-01-03 02:07:09.49	252.02	23.27	-48.9	-51.3	14.5	0.00e+00	0	57	0	1084227584	60	4769
2026-01-03 02:07:13.45	251.53	22.75	-48.6	-50.7	15.1	0.00e+00	0	57	0	1091567616	60	4461
2026-01-03 02:07:17.42	251.05	22.24	-48.8	-51.1	14.6	0.00e+00	0	57	0	1098907648	60	4687
2026-01-03 02:07:21.38	250.59	21.73	-49.1	-51.5	14.2	7.00e-07	0	57	0	1106247680	60	4899
2026-01-03 02:07:25.34	250.15	21.23	-49.0	-51.4	14.4	1.50e-06	0	57	0	1114636288	60	4818
2026-01-03 02:07:29.30	249.72	20.74	-49.1	-51.5	14.2	3.80e-06	0	57	0	1121976320	60	4896
2026-01-03 02:07:33.25	249.31	20.26	-49.0	-51.4	14.3	0.00e+00	0	57	0	1129316352	60	4842
2026-01-03 02:07:37.20	248.90	19.79	-49.2	-51.8	13.9	7.00e-07	0	57	0	1136656384	60	5044
2026-01-03 02:07:41.14	248.52	19.33	-49.0	-51.3	14.4	1.50e-06	0	57	0	1143996416	60	4798
2026-01-03 02:07:45.10	248.14	18.87	-48.9	-51.2	14.5	0.00e+00	0	57	0	1151336448	60	4729
2026-01-03 02:07:49.07	247.77	18.41	-49.1	-51.7	14.0	2.20e-06	0	57	0	1158676480	60	4999
2026-01-03 02:07:53.04	247.42	17.97	-49.1	-51.6	14.0	3.80e-06	0	57	0	1166016512	60	4965
2026-01-03 02:07:56.99	247.07	17.53	-49.2	-51.8	13.9	7.00e-07	0	57	0	1173356544	60	5081
2026-01-03 02:08:00.93	246.74	17.10	-49.2	-51.7	13.9	7.00e-07	0	57	0	1180696576	60	5028
2026-01-03 02:08:04.89	246.41	16.67	-49.4	-52.1	13.5	1.14e-05	0	57	0	1188036608	60	5250
2026-01-03 02:08:08.85	246.10	16.25	-49.6	-52.6	13.1	3.20e-05	0	57	0	1195376640	61	5219
2026-01-03 02:08:12.83	245.79	15.84	-49.5	-52.4	13.2	2.67e-05	0	57	0	1202716672	61	5109
2026-01-03 02:08:16.79	245.49	15.43	-49.5	-52.3	13.3	2.89e-05	0	57	0	1211105280	61	5046
2026-01-03 02:08:20.74	245.20	15.03	-49.1	-51.7	13.9	2.20e-06	0	57	0	1218445312	61	4730
2026-01-03 02:08:24.71	244.92	14.63	-49.0	-51.6	14.0	3.80e-06	0	57	0	1225785344	61	4670
2026-01-03 02:08:28.66	244.65	14.24	-49.1	-51.7	13.9	2.20e-06	0	57	0	1233125376	61	4721
2026-01-03 02:08:32.61	244.38	13.86	-49.4	-52.3	13.3	2.36e-05	0	57	0	1240465408	61	5053
2026-01-03 02:08:36.54	244.12	13.48	-49.7	-52.8	12.7	6.10e-05	0	57	0	1247805440	61	5369
2026-01-03 02:08:40.49	243.87	13.11	-49.9	-53.2	12.3	1.25e-04	0	57	0	1255145472	61	5632
2026-01-03 02:08:44.45	243.62	12.74	-49.7	-52.8	12.7	7.47e-05	0	57	0	1262485504	62	5064
2026-01-03 02:08:48.42	243.38	12.38	-49.8	-52.9	12.6	8.62e-05	0	57	0	1269825536	62	5146
2026-01-03 02:08:52.37	243.15	12.02	-49.4	-52.2	13.2	2.82e-05	0	57	0	1277165568	61	5027
2026-01-03 02:08:56.33	242.92	11.67	-49.7	-52.7	12.7	4.50e-05	0	57	0	1284505600	61	5308
2026-01-03 02:09:00.28	242.70	11.32	-49.8	-53.0	12.4	1.29e-04	0	57	0	1291845632	61	5517
2026-01-03 02:09:04.24	242.48	10.97	-50.0	-53.4	12.0	3.18e-04	0	57	0	1299185664	61	5762
2026-01-03 02:09:08.20	242.27	10.63	-50.0	-53.5	11.8	4.64e-04	0	57	0	1307574272	62	5497
2026-01-03 02:09:12.16	242.06	10.29	-49.7	-53.0	12.3	1.82e-04	0	57	0	1314914304	62	5171
2026-01-03 02:09:16.11	241.86	9.96	-49.6	-52.7	12.6	7.85e-05	0	57	0	1322254336	62	5037
2026-01-03 02:09:20.06	241.67	9.64	-49.7	-52.9	12.4	1.36e-04	0	57	0	1329594368	62	5133
2026-01-03 02:09:24.02	241.47	9.31	-49.7	-52.9	12.4	1.55e-04	0	57	0	1336934400	62	5120
2026-01-03 02:09:27.97	241.29	8.99	-49.8	-53.2	12.0	2.36e-04	0	57	0	1344274432	62	5284
2026-01-03 02:09:31.92	241.10	8.67	-49.9	-53.4	11.8	3.93e-04	0	57	0	1351614464	62	5424
2026-01-03 02:09:35.89	240.93	8.36	-50.0	-53.7	11.4	7.77e-04	0	57	0	1358954496	62	5616
2026-01-03 02:09:39.85	240.75	8.05	-50.1	-54.0	11.1	1.59e-03	0	57	0	1366294528	62	5815
2026-01-03 02:09:43.81	240.58	7.75	-50.1	-54.0	11.0	1.57e-03	0	57	0	1373634560	62	5840
2026-01-03 02:09:47.78	240.41	7.44	-50.1	-54.1	10.9	2.64e-03	0	57	0	1380974592	62	5896
2026-01-03 02:09:51.75	240.25	7.14	-50.2	-54.2	10.7	3.19e-03	0	57	0	1388314624	62	5979
2026-01-03 02:09:55.70	240.09	6.85	-50.0	-54.2	10.8	2.66e-03	0	57	0	1395654656	62	5924
2026-01-03 02:09:59.66	239.93	6.55	-50.2	-54.4	10.4	4.92e-03	0	57	0	1404043264	62	6107
2026-01-03 02:10:03.62	239.78	6.26	-50.3	-54.6	10.1	6.40e-03	0	57	0	1411383296	62	6273
2026-01-03 02:10:07.57	239.63	5.98	-50.2	-54.5	10.3	6.16e-03	0	57	0	1418723328	62	6142
2026-01-03 02:10:11.54	239.48	5.69	-50.3	-54.8	9.8	1.10e-02	0	57	0	1426063360	62	6419
2026-01-03 02:10:15.50	239.34	5.41	-50.2	-54.7	9.9	9.26e-03	0	57	0	1433403392	62	6328
2026-01-03 02:10:19.46	239.20	5.13	-50.2	-54.7	9.8	9.77e-03	0	57	0	1440743424	62	6336
2026-01-03 02:10:23.42	239.06	4.86	-52.6	-66.4	3.8	1.49e+00	0	57	104	1443889152	66	19342
2026-01-03 02:10:27.38	238.92	4.58	-52.8	-66.7	3.8	1.49e+00	0	57	104	1443889152	67	18935
2026-01-03 02:10:31.32	238.79	4.31	-52.8	-66.8	3.8	1.49e+00	0	57	104	1443889152	67	19049
2026-01-03 02:10:35.26	238.66	4.05	-53.0	-66.9	3.8	1.49e+00	0	57	104	1443889152	67	19288
2026-01-03 02:10:39.21	238.53	3.78	-53.2	-67.1	3.8	1.49e+00	0	57	104	1443889152	68	18597
2026-01-03 02:10:43.17	238.41	3.52	-53.2	-67.1	3.8	1.49e+00	0	57	104	1443889152	68	18593
2026-01-03 02:10:47.13	238.29	3.26	-53.2	-67.1	3.8	1.49e+00	0	57	104	1443889152	68	18635
2026-01-03 02:10:51.09	238.17	3.00	-53.1	-67.0	3.8	1.49e+00	0	58	104	1443889152	68	18516

#Closed at: 2026-01-03 02:10:52
#Recorded file [1443 MB]: D:/Data/31026_260103_051021.dat