passes_logs/2026/01/03/R3.0SM8_Murmansk_STILSPACE/R3.0SM8_Murmansk_STILSPACE__20260103_024414_FENGYUN_3E_rec.log

#Pass ID: 20260103_024414_FENGYUN 3E
#Satellite: FENGYUN 3E
#Configuration: FENGYUN 3E
#almurnet v.1.7.20240730
#Start time: 2026-01-03 02:51:47

#Version: 2.2.20231116
#Station: R3.0SM8_Murmansk_STILSPACE
#Location: 33.092731 lon 68.902999 lat
#TLE: 1 49008U 21062A   26002.32147302  .00000239  00000+0  13357-3 0  9999
#TLE: 2 49008  98.7477   7.5995 0001398 164.3382 195.7838 14.19884140233041

#Time	Az	El	Level	Level2	SNR	BER	BlckErr	Temp	State	Recorded	gain1	gain2
2026-01-03 02:51:47.76	106.31	23.11	-53.3	-64.2	3.8	8.47e-01	0	56	0	0	68	13272
2026-01-03 02:51:49.72	106.82	23.01	-53.3	-63.6	3.8	8.46e-01	0	57	104	0	69	11621
2026-01-03 02:51:51.70	107.33	22.91	-53.4	-63.6	3.8	8.45e-01	0	57	104	0	69	11623
2026-01-03 02:51:53.68	107.83	22.80	-53.3	-63.6	3.8	8.46e-01	0	57	104	0	69	11574
2026-01-03 02:51:55.67	108.34	22.69	-53.4	-63.6	3.8	8.46e-01	0	57	104	0	69	11601
2026-01-03 02:51:57.65	108.84	22.58	-53.2	-63.5	3.8	8.46e-01	0	57	104	0	69	11476
2026-01-03 02:51:59.62	109.33	22.47	-53.3	-63.5	3.8	8.45e-01	0	57	104	0	69	11534
2026-01-03 02:52:01.60	109.83	22.36	-53.3	-63.5	3.8	8.46e-01	0	57	104	0	69	11532
2026-01-03 02:52:03.57	110.31	22.25	-53.3	-63.6	3.8	8.45e-01	0	57	104	0	69	11556
2026-01-03 02:52:05.56	110.80	22.13	-53.2	-63.5	3.8	8.46e-01	0	57	104	0	69	11484
2026-01-03 02:52:07.54	111.28	22.02	-53.2	-63.4	3.8	8.46e-01	0	57	104	0	69	11391
2026-01-03 02:52:09.51	111.76	21.90	-53.1	-63.0	3.8	8.45e-01	0	57	104	0	69	10888
2026-01-03 02:52:11.50	112.24	21.78	-53.1	-63.2	3.8	8.47e-01	0	57	104	0	68	11713
2026-01-03 02:52:13.47	112.71	21.66	-53.1	-62.8	3.8	8.47e-01	0	57	104	0	68	11257
2026-01-03 02:52:15.45	113.18	21.54	-53.0	-62.8	3.8	8.46e-01	0	57	104	0	68	11254
2026-01-03 02:52:17.44	113.64	21.41	-53.1	-63.2	3.8	8.45e-01	0	57	104	0	68	11787
2026-01-03 02:52:19.42	114.10	21.29	-52.9	-63.0	3.8	8.47e-01	0	57	104	0	68	11506
2026-01-03 02:52:21.40	114.56	21.16	-53.0	-62.5	3.8	8.48e-01	0	57	104	0	68	10899
2026-01-03 02:52:23.38	115.02	21.03	-53.1	-62.9	3.8	8.46e-01	0	57	104	0	68	11417
2026-01-03 02:52:25.36	115.47	20.90	-53.1	-63.2	3.8	8.46e-01	0	57	104	0	68	11752
2026-01-03 02:52:27.32	115.91	20.78	-53.1	-63.1	3.8	8.47e-01	0	57	104	0	68	11656
2026-01-03 02:52:29.29	116.35	20.65	-53.0	-62.7	3.8	8.46e-01	0	57	104	0	68	11063
2026-01-03 02:52:31.26	116.78	20.52	-53.0	-63.3	3.8	8.47e-01	0	57	104	0	68	11945
2026-01-03 02:52:33.23	117.22	20.38	-53.0	-62.1	3.8	8.47e-01	0	57	104	0	68	10365
2026-01-03 02:52:35.21	117.65	20.25	-53.0	-62.6	3.8	8.47e-01	0	57	104	0	68	10960
2026-01-03 02:52:37.19	118.08	20.12	-52.7	-60.6	3.9	8.45e-01	0	57	104	0	68	8671
2026-01-03 02:52:39.17	118.50	19.98	-49.6	-52.0	10.0	1.64e-02	0	57	0	8388608	62	4574
2026-01-03 02:52:41.15	118.92	19.84	-45.9	-47.0	15.2	0.00e+00	0	57	0	22020096	54	4061
2026-01-03 02:52:43.13	119.34	19.71	-44.7	-45.6	16.6	0.00e+00	0	57	0	36700160	52	3875
2026-01-03 02:52:45.11	119.75	19.57	-44.8	-45.6	16.6	0.00e+00	0	57	0	50331648	52	3899
2026-01-03 02:52:47.08	120.16	19.43	-44.5	-45.3	17.0	0.00e+00	0	57	0	65011712	51	3974
2026-01-03 02:52:49.06	120.57	19.29	-44.4	-45.2	17.0	0.00e+00	0	57	0	79691776	51	3941
2026-01-03 02:52:51.04	120.97	19.15	-43.5	-44.2	18.0	0.00e+00	0	57	0	93323264	50	3721
2026-01-03 02:52:53.02	121.37	19.01	-42.9	-43.5	18.7	0.00e+00	0	57	0	108003328	48	3851
2026-01-03 02:52:54.99	121.77	18.87	-42.5	-43.1	19.1	0.00e+00	0	57	0	121634816	48	3661
2026-01-03 02:52:56.96	122.16	18.73	-42.4	-43.0	19.0	0.00e+00	0	57	0	136314880	47	3843
2026-01-03 02:52:58.95	122.55	18.59	-42.7	-43.3	18.7	0.00e+00	0	57	0	149946368	47	3986
2026-01-03 02:53:00.93	122.93	18.45	-42.9	-43.6	18.4	0.00e+00	0	57	0	164626432	47	4106
2026-01-03 02:53:02.90	123.31	18.31	-43.0	-43.6	18.4	0.00e+00	0	57	0	179306496	47	4134
2026-01-03 02:53:04.89	123.69	18.17	-42.8	-43.4	18.5	0.00e+00	0	57	0	192937984	47	4050
2026-01-03 02:53:06.87	124.07	18.02	-42.9	-43.6	18.4	0.00e+00	0	57	0	207618048	47	4101
2026-01-03 02:53:08.84	124.44	17.88	-42.8	-43.4	18.6	0.00e+00	0	57	0	222298112	47	4041
2026-01-03 02:53:10.82	124.80	17.74	-42.4	-42.9	19.0	0.00e+00	0	58	0	235929600	47	3815
2026-01-03 02:53:12.80	125.17	17.59	-42.3	-42.9	19.1	0.00e+00	0	57	0	250609664	47	3785
2026-01-03 02:53:14.78	125.53	17.45	-42.5	-43.1	18.8	0.00e+00	0	57	0	265289728	47	3871
2026-01-03 02:53:16.76	125.89	17.30	-42.8	-43.4	18.6	0.00e+00	0	57	0	278921216	47	4029
2026-01-03 02:53:18.74	126.24	17.16	-43.1	-43.8	18.2	0.00e+00	0	57	0	293601280	47	4199
2026-01-03 02:53:20.71	126.59	17.01	-43.5	-44.2	18.0	0.00e+00	0	57	0	308281344	48	4159
2026-01-03 02:53:22.69	126.94	16.87	-43.6	-44.3	17.9	0.00e+00	0	57	0	321912832	49	3980
2026-01-03 02:53:24.67	127.29	16.72	-43.5	-44.2	18.0	0.00e+00	0	58	0	336592896	49	3924
2026-01-03 02:53:26.65	127.63	16.58	-43.7	-44.4	17.8	0.00e+00	0	57	0	350224384	49	4031
2026-01-03 02:53:28.63	127.97	16.43	-43.5	-44.2	18.0	0.00e+00	0	57	0	364904448	49	3920
2026-01-03 02:53:30.60	128.30	16.29	-43.4	-44.1	18.1	0.00e+00	0	58	0	378535936	49	3869
2026-01-03 02:53:32.58	128.63	16.14	-43.4	-44.1	18.1	0.00e+00	0	57	0	393216000	49	3880
2026-01-03 02:53:34.56	128.96	16.00	-43.7	-44.3	17.8	0.00e+00	0	57	0	407896064	49	4004
2026-01-03 02:53:36.53	129.29	15.85	-43.3	-43.9	18.2	0.00e+00	0	57	0	421527552	49	3820
2026-01-03 02:53:38.51	129.61	15.71	-43.6	-44.3	17.8	0.00e+00	0	58	0	436207616	49	3990
2026-01-03 02:53:40.50	129.93	15.56	-43.9	-44.7	17.5	0.00e+00	0	58	0	450887680	49	4155
2026-01-03 02:53:42.48	130.25	15.42	-44.1	-44.9	17.3	0.00e+00	0	57	0	464519168	50	4032
2026-01-03 02:53:44.47	130.56	15.27	-44.3	-45.1	17.1	0.00e+00	0	57	0	479199232	50	4135
2026-01-03 02:53:46.44	130.87	15.13	-44.5	-45.3	16.9	0.00e+00	0	57	0	492830720	50	4224
2026-01-03 02:53:48.43	131.18	14.98	-44.6	-45.5	16.7	0.00e+00	0	57	0	507510784	51	4053
2026-01-03 02:53:50.41	131.49	14.84	-44.6	-45.5	16.6	0.00e+00	0	57	0	522190848	51	4065
2026-01-03 02:53:52.39	131.79	14.69	-44.4	-45.2	17.0	0.00e+00	0	57	0	535822336	51	3928
2026-01-03 02:53:54.37	132.09	14.55	-44.2	-44.9	17.2	0.00e+00	0	57	0	550502400	51	3823
2026-01-03 02:53:56.35	132.39	14.40	-43.8	-44.5	17.6	0.00e+00	0	57	0	565182464	50	3859
2026-01-03 02:53:58.33	132.68	14.26	-43.9	-44.6	17.6	0.00e+00	0	58	0	578813952	50	3896
2026-01-03 02:54:00.31	132.97	14.11	-43.6	-44.3	17.8	0.00e+00	0	58	0	593494016	50	3760
2026-01-03 02:54:02.29	133.26	13.97	-43.6	-44.3	17.8	0.00e+00	0	58	0	608174080	50	3769
2026-01-03 02:54:04.26	133.55	13.82	-43.8	-44.5	17.6	0.00e+00	0	57	0	621805568	50	3861
2026-01-03 02:54:06.24	133.83	13.68	-43.9	-44.6	17.5	0.00e+00	0	57	0	636485632	50	3887
2026-01-03 02:54:08.22	134.11	13.54	-43.8	-44.6	17.6	0.00e+00	0	58	0	651165696	50	3876
2026-01-03 02:54:10.19	134.39	13.40	-43.8	-44.6	17.5	0.00e+00	0	58	0	664797184	50	3876
2026-01-03 02:54:12.18	134.66	13.25	-43.8	-44.5	17.6	0.00e+00	0	57	0	679477248	50	3853
2026-01-03 02:54:14.15	134.94	13.11	-43.9	-44.6	17.5	0.00e+00	0	58	0	693108736	50	3880
2026-01-03 02:54:16.13	135.21	12.97	-43.9	-44.7	17.4	0.00e+00	0	58	0	707788800	50	3920
2026-01-03 02:54:18.10	135.47	12.83	-44.3	-45.1	17.1	0.00e+00	0	58	0	721420288	50	4109
2026-01-03 02:54:20.07	135.74	12.68	-44.3	-45.0	17.1	0.00e+00	0	58	0	736100352	50	4090
2026-01-03 02:54:22.05	136.00	12.54	-44.4	-45.2	16.9	0.00e+00	0	57	0	750780416	50	4155
2026-01-03 02:54:24.03	136.26	12.40	-44.4	-45.1	16.9	0.00e+00	0	58	0	764411904	50	4145
2026-01-03 02:54:26.00	136.52	12.26	-44.4	-45.1	17.0	0.00e+00	0	58	0	779091968	50	4141
2026-01-03 02:54:27.98	136.77	12.12	-44.0	-44.7	17.4	0.00e+00	0	58	0	793772032	50	3940
2026-01-03 02:54:29.94	137.02	11.98	-43.9	-44.6	17.5	0.00e+00	0	58	0	807403520	50	3893
2026-01-03 02:54:31.93	137.28	11.84	-44.1	-44.8	17.2	0.00e+00	0	57	0	822083584	50	4004
2026-01-03 02:54:33.91	137.52	11.70	-44.1	-44.9	17.2	0.00e+00	0	58	0	835715072	50	4046
2026-01-03 02:54:35.90	137.77	11.56	-44.2	-44.9	17.1	0.00e+00	0	58	0	850395136	50	4051
2026-01-03 02:54:37.87	138.02	11.42	-44.2	-45.0	17.1	0.00e+00	0	58	0	865075200	50	4072
2026-01-03 02:54:39.85	138.26	11.28	-44.5	-45.3	16.7	0.00e+00	0	57	0	878706688	50	4226
2026-01-03 02:54:41.83	138.50	11.14	-44.6	-45.4	16.7	0.00e+00	0	58	0	893386752	50	4282
2026-01-03 02:54:43.82	138.74	11.01	-44.6	-45.4	16.6	0.00e+00	0	58	0	908066816	50	4281
2026-01-03 02:54:45.80	138.97	10.87	-44.8	-45.6	16.4	0.00e+00	0	58	0	921698304	51	4133
2026-01-03 02:54:47.79	139.21	10.73	-44.8	-45.7	16.4	0.00e+00	0	58	0	936378368	51	4147
2026-01-03 02:54:49.78	139.44	10.59	-44.7	-45.6	16.5	0.00e+00	0	58	0	951058432	51	4102
2026-01-03 02:54:51.75	139.67	10.46	-44.7	-45.5	16.5	0.00e+00	0	57	0	964689920	51	4088
2026-01-03 02:54:53.73	139.90	10.32	-44.7	-45.6	16.4	0.00e+00	0	58	0	979369984	51	4112
2026-01-03 02:54:55.71	140.12	10.18	-44.8	-45.7	16.3	0.00e+00	0	58	0	994050048	51	4179
2026-01-03 02:54:57.70	140.34	10.05	-45.0	-45.9	16.1	0.00e+00	0	57	0	1007681536	51	4262
2026-01-03 02:54:59.68	140.57	9.91	-45.0	-45.8	16.1	0.00e+00	0	58	0	1022361600	51	4237
2026-01-03 02:55:01.66	140.79	9.78	-45.0	-45.9	16.0	0.00e+00	0	58	0	1037041664	52	4025
2026-01-03 02:55:03.64	141.00	9.64	-44.8	-45.7	16.2	0.00e+00	0	58	0	1050673152	52	3923
2026-01-03 02:55:05.60	141.22	9.51	-44.7	-45.6	16.3	0.00e+00	0	58	0	1064304640	52	3886
2026-01-03 02:55:07.58	141.43	9.38	-44.8	-45.7	16.2	0.00e+00	0	58	0	1078984704	52	3943
2026-01-03 02:55:09.56	141.64	9.24	-45.1	-46.0	15.9	0.00e+00	0	58	0	1093664768	52	4098
2026-01-03 02:55:11.54	141.85	9.11	-44.9	-45.8	16.0	0.00e+00	0	58	0	1107296256	52	3997
2026-01-03 02:55:13.52	142.06	8.98	-44.9	-45.8	16.0	0.00e+00	0	58	0	1121976320	52	3990
2026-01-03 02:55:15.50	142.27	8.84	-45.0	-45.9	15.9	0.00e+00	0	58	0	1136656384	52	4045
2026-01-03 02:55:17.47	142.47	8.71	-45.1	-46.0	15.8	0.00e+00	0	58	0	1150287872	52	4070
2026-01-03 02:55:19.44	142.67	8.58	-45.2	-46.2	15.6	0.00e+00	0	58	0	1164967936	52	4152
2026-01-03 02:55:21.42	142.87	8.45	-45.2	-46.2	15.6	0.00e+00	0	58	0	1178599424	52	4158
2026-01-03 02:55:23.41	143.07	8.32	-45.4	-46.4	15.4	0.00e+00	0	58	0	1193279488	52	4267
2026-01-03 02:55:25.38	143.27	8.19	-45.1	-46.1	15.7	0.00e+00	0	58	0	1207959552	52	4099
2026-01-03 02:55:27.36	143.47	8.06	-44.8	-45.7	16.0	0.00e+00	0	58	0	1221591040	52	3957
2026-01-03 02:55:29.32	143.66	7.93	-44.8	-45.7	16.1	0.00e+00	0	58	0	1236271104	52	3931
2026-01-03 02:55:31.30	143.85	7.80	-44.6	-45.5	16.2	0.00e+00	0	58	0	1249902592	52	3847
2026-01-03 02:55:33.28	144.04	7.68	-44.8	-45.7	16.0	0.00e+00	0	58	0	1264582656	52	3915
2026-01-03 02:55:35.25	144.23	7.55	-44.9	-45.8	15.9	0.00e+00	0	58	0	1278214144	52	3970
2026-01-03 02:55:37.23	144.42	7.42	-44.9	-45.8	15.9	0.00e+00	0	58	0	1292894208	52	3970
2026-01-03 02:55:39.21	144.60	7.29	-45.2	-46.2	15.5	0.00e+00	0	58	0	1307574272	52	4168
2026-01-03 02:55:41.20	144.79	7.16	-45.3	-46.4	15.3	0.00e+00	0	58	0	1321205760	52	4249
2026-01-03 02:55:43.17	144.97	7.04	-45.4	-46.4	15.3	0.00e+00	0	58	0	1335885824	52	4266
2026-01-03 02:55:45.15	145.15	6.91	-45.5	-46.6	15.1	0.00e+00	0	58	0	1350565888	52	4349
2026-01-03 02:55:47.14	145.34	6.79	-45.7	-46.8	14.8	0.00e+00	0	58	0	1364197376	53	4204
2026-01-03 02:55:49.12	145.51	6.66	-45.5	-46.6	15.0	0.00e+00	0	58	0	1378877440	53	4142
2026-01-03 02:55:51.10	145.69	6.53	-45.8	-46.9	14.7	0.00e+00	0	58	0	1393557504	53	4276
2026-01-03 02:55:53.07	145.87	6.41	-45.6	-46.7	14.8	0.00e+00	0	58	0	1407188992	53	4190
2026-01-03 02:55:55.05	146.04	6.29	-45.6	-46.6	14.9	0.00e+00	0	58	0	1421869056	53	4141
2026-01-03 02:55:57.03	146.21	6.16	-45.5	-46.5	15.0	0.00e+00	0	58	0	1436549120	53	4083
2026-01-03 02:55:59.00	146.38	6.04	-45.2	-46.3	15.3	0.00e+00	0	57	0	1450180608	53	3972
2026-01-03 02:56:00.98	146.55	5.92	-45.2	-46.3	15.2	0.00e+00	0	58	0	1464860672	53	3970
2026-01-03 02:56:02.95	146.72	5.79	-45.4	-46.5	15.0	0.00e+00	0	58	0	1478492160	53	4060
2026-01-03 02:56:04.93	146.89	5.67	-45.5	-46.6	14.9	1.10e-06	0	58	0	1493172224	53	4118
2026-01-03 02:56:06.92	147.06	5.55	-45.3	-46.4	15.0	0.00e+00	0	58	0	1507852288	53	4023
2026-01-03 02:56:08.89	147.22	5.43	-45.4	-46.6	14.8	0.00e+00	0	58	0	1521483776	53	4105
2026-01-03 02:56:10.87	147.39	5.30	-45.7	-46.9	14.5	1.10e-06	0	58	0	1536163840	53	4269
2026-01-03 02:56:12.85	147.55	5.18	-45.7	-46.8	14.5	0.00e+00	0	58	0	1549795328	53	4220
2026-01-03 02:56:14.83	147.71	5.06	-45.8	-46.9	14.4	1.10e-06	0	58	0	1564475392	53	4288
2026-01-03 02:56:16.81	147.87	4.94	-52.6	-62.9	3.8	8.45e-01	0	58	104	1566572544	66	12726
2026-01-03 02:56:18.78	148.03	4.82	-52.9	-63.1	3.8	8.46e-01	0	58	104	1566572544	67	12346
2026-01-03 02:56:20.77	148.18	4.70	-52.9	-63.2	3.8	8.45e-01	0	58	104	1566572544	67	12471
2026-01-03 02:56:22.75	148.34	4.58	-53.1	-63.3	3.8	8.46e-01	0	58	104	1566572544	67	12643
2026-01-03 02:56:24.73	148.50	4.47	-53.1	-63.4	3.8	8.46e-01	0	58	104	1566572544	67	12714
2026-01-03 02:56:26.72	148.65	4.35	-53.2	-63.4	3.8	8.45e-01	0	58	104	1566572544	68	12034
2026-01-03 02:56:28.70	148.80	4.23	-53.3	-63.5	3.8	8.46e-01	0	58	104	1566572544	68	12188
2026-01-03 02:56:30.67	148.95	4.11	-53.3	-63.6	3.8	8.46e-01	0	58	104	1566572544	68	12291
2026-01-03 02:56:32.65	149.10	3.99	-53.3	-63.6	3.8	8.47e-01	0	58	104	1566572544	68	12272
2026-01-03 02:56:34.62	149.25	3.88	-53.4	-63.6	3.8	8.46e-01	0	58	104	1566572544	68	12342
2026-01-03 02:56:36.61	149.40	3.76	-53.4	-63.7	3.8	8.46e-01	0	58	104	1566572544	68	12377
2026-01-03 02:56:38.59	149.55	3.64	-53.4	-63.7	3.8	8.45e-01	0	58	104	1566572544	68	12393
2026-01-03 02:56:40.57	149.69	3.53	-53.4	-63.6	3.8	8.47e-01	0	58	104	1566572544	68	12329
2026-01-03 02:56:42.54	149.84	3.41	-53.4	-63.6	3.8	8.46e-01	0	58	104	1566572544	68	12299
2026-01-03 02:56:44.52	149.98	3.30	-53.3	-63.6	3.8	8.46e-01	0	58	104	1566572544	68	12315
2026-01-03 02:56:46.49	150.12	3.18	-53.3	-63.6	3.8	8.47e-01	0	58	104	1566572544	68	12295
2026-01-03 02:56:48.48	150.26	3.07	-53.4	-63.6	3.8	8.45e-01	0	58	104	1566572544	68	12294
2026-01-03 02:56:50.45	150.40	2.95	-53.4	-63.6	3.8	8.47e-01	0	58	104	1566572544	68	12272

#Closed at: 2026-01-03 02:56:51
#Recorded file [1566 MB]: D:/Data/31026_260103_055615.dat