passes_logs/2026/01/03/R3.0SM8_Murmansk_STILSPACE/R3.0SM8_Murmansk_STILSPACE__20260103_063451_SUOMI_NPP_rec.log

#Pass ID: 20260103_063451_SUOMI NPP
#Satellite: SUOMI NPP
#Configuration: NPP
#almurnet v.1.7.20240730
#Start time: 2026-01-03 06:34:50

#Version: 2.2.20231116
#Station: R3.0SM8_Murmansk_STILSPACE
#Location: 33.092731 lon 68.902999 lat
#TLE: 1 37849U 11061A   26001.07732418  .00000182  00000+0  10735-3 0  9990
#TLE: 2 37849  98.7795 303.2470 0002580  87.2016 272.9455 14.19520779734739

#Time	Az	El	Level	Level2	SNR	BER	BlckErr	Temp	State	Recorded	gain1	gain2
2026-01-03 06:34:50.99	84.27	2.99	-53.0	-66.9	3.8	1.49e+00	0	45	0	0	68	18259
2026-01-03 06:34:53.98	84.09	3.17	-52.8	-66.7	3.8	1.49e+00	0	46	104	0	68	17825
2026-01-03 06:34:56.95	83.91	3.34	-52.5	-66.4	3.8	1.49e+00	0	46	104	0	68	17142
2026-01-03 06:34:59.92	83.72	3.52	-52.1	-65.9	3.8	1.49e+00	0	46	104	0	67	17137
2026-01-03 06:35:02.90	83.53	3.71	-52.0	-66.0	3.8	1.49e+00	0	46	104	0	66	18322
2026-01-03 06:35:05.87	83.34	3.89	-52.1	-65.8	3.8	1.49e+00	0	46	104	0	66	17991
2026-01-03 06:35:08.84	83.15	4.07	-52.1	-64.8	3.8	1.49e+00	0	47	104	0	66	16095
2026-01-03 06:35:11.79	82.95	4.25	-51.9	-62.9	4.1	1.46e+00	0	47	0	0	66	12954
2026-01-03 06:35:14.74	82.76	4.44	-51.6	-59.9	5.2	7.27e-01	0	47	0	3145728	66	9171
2026-01-03 06:35:17.70	82.56	4.62	-51.0	-57.6	7.0	1.80e-01	0	47	0	9437184	65	7416
2026-01-03 06:35:20.68	82.35	4.81	-50.7	-56.1	8.5	5.66e-02	0	48	0	14680064	64	6592
2026-01-03 06:35:23.65	82.14	5.00	-50.6	-55.7	8.9	2.83e-02	0	48	0	19922944	64	6320
2026-01-03 06:35:26.63	81.93	5.19	-50.6	-55.5	9.2	1.93e-02	0	48	0	26214400	63	6540
2026-01-03 06:35:29.60	81.72	5.38	-50.7	-55.9	8.9	2.55e-02	0	48	0	31457280	63	6803
2026-01-03 06:35:32.56	81.51	5.57	-50.7	-55.8	9.0	3.09e-02	0	48	0	36700160	63	6757
2026-01-03 06:35:35.53	81.29	5.76	-50.2	-54.9	9.9	9.90e-03	0	48	0	42991616	63	6110
2026-01-03 06:35:38.50	81.07	5.95	-49.9	-53.9	10.9	1.56e-03	0	49	0	48234496	62	5758
2026-01-03 06:35:41.45	80.85	6.14	-49.9	-53.8	11.0	1.91e-03	0	49	0	53477376	62	5708
2026-01-03 06:35:44.42	80.62	6.34	-49.5	-52.9	12.0	4.05e-04	0	49	0	59768832	62	5144
2026-01-03 06:35:47.39	80.39	6.53	-49.4	-52.8	12.2	2.28e-04	0	49	0	65011712	61	5342
2026-01-03 06:35:50.36	80.15	6.73	-49.3	-52.5	12.4	2.46e-04	0	49	0	70254592	61	5208
2026-01-03 06:35:53.33	79.92	6.93	-49.2	-52.5	12.5	1.20e-04	0	49	0	75497472	61	5199
2026-01-03 06:35:56.29	79.68	7.12	-49.4	-52.8	12.2	1.61e-04	0	50	0	81788928	61	5396
2026-01-03 06:35:59.24	79.43	7.32	-49.4	-52.8	12.2	1.58e-04	0	50	0	87031808	61	5371
2026-01-03 06:36:02.20	79.19	7.52	-49.4	-52.7	12.3	1.58e-04	0	50	0	92274688	61	5288
2026-01-03 06:36:05.15	78.94	7.72	-49.3	-52.7	12.4	1.85e-04	0	50	0	98566144	61	5287
2026-01-03 06:36:08.13	78.68	7.93	-49.7	-53.2	11.8	2.78e-04	0	50	0	103809024	61	5647
2026-01-03 06:36:11.10	78.42	8.13	-49.6	-53.1	12.0	5.47e-04	0	50	0	109051904	61	5549
2026-01-03 06:36:14.07	78.16	8.34	-49.6	-53.1	12.0	3.62e-04	0	50	0	115343360	61	5535
2026-01-03 06:36:17.05	77.90	8.54	-49.8	-53.5	11.6	9.37e-04	0	51	0	120586240	61	5847
2026-01-03 06:36:20.01	77.63	8.75	-49.9	-53.7	11.4	1.32e-03	0	51	0	125829120	62	5641
2026-01-03 06:36:22.97	77.35	8.96	-49.9	-53.9	11.2	9.25e-04	0	51	0	131072000	62	5763
2026-01-03 06:36:25.93	77.08	9.17	-49.8	-53.4	11.8	4.21e-04	0	51	0	137363456	62	5438
2026-01-03 06:36:28.90	76.79	9.38	-50.1	-54.1	11.0	1.34e-03	0	51	0	142606336	62	5918
2026-01-03 06:36:31.85	76.51	9.59	-49.7	-53.3	11.9	5.00e-04	0	51	0	147849216	62	5352
2026-01-03 06:36:34.81	76.22	9.80	-49.3	-52.6	12.6	7.09e-05	0	51	0	154140672	61	5233
2026-01-03 06:36:37.77	75.93	10.01	-49.1	-52.3	12.9	3.73e-05	0	52	0	159383552	61	5068
2026-01-03 06:36:40.75	75.63	10.23	-49.3	-52.5	12.8	5.87e-05	0	52	0	164626432	61	5207
2026-01-03 06:36:43.73	75.32	10.44	-49.3	-52.4	12.9	4.65e-05	0	52	0	170917888	61	5121
2026-01-03 06:36:46.69	75.01	10.66	-49.1	-52.1	13.2	5.18e-05	0	52	0	176160768	61	4948
2026-01-03 06:36:49.68	74.70	10.88	-49.2	-52.2	13.1	3.66e-05	0	52	0	181403648	61	5018
2026-01-03 06:36:52.65	74.38	11.10	-49.5	-52.7	12.6	8.01e-05	0	52	0	187695104	61	5296
2026-01-03 06:36:55.61	74.06	11.32	-49.3	-52.4	12.8	4.65e-05	0	52	0	192937984	61	5137
2026-01-03 06:36:58.56	73.73	11.54	-49.3	-52.4	12.9	4.42e-05	0	52	0	198180864	61	5138
2026-01-03 06:37:01.54	73.40	11.76	-49.2	-52.1	13.2	2.28e-05	0	52	0	203423744	61	4955
2026-01-03 06:37:04.51	73.06	11.99	-49.0	-51.7	13.6	1.67e-05	0	52	0	209715200	61	4757
2026-01-03 06:37:07.47	72.71	12.21	-48.9	-51.6	13.8	4.50e-06	0	52	0	214958080	60	4953
2026-01-03 06:37:10.44	72.36	12.43	-49.1	-52.0	13.4	1.52e-05	0	52	0	220200960	60	5192
2026-01-03 06:37:13.40	72.01	12.66	-49.2	-52.3	13.0	3.20e-05	0	52	0	226492416	60	5374
2026-01-03 06:37:16.37	71.65	12.89	-49.6	-53.0	12.4	1.35e-04	0	52	0	231735296	61	5496
2026-01-03 06:37:19.33	71.28	13.12	-49.6	-52.8	12.5	9.84e-05	0	53	0	236978176	61	5385
2026-01-03 06:37:22.29	70.91	13.34	-49.3	-52.3	13.0	5.41e-05	0	53	0	243269632	61	5096
2026-01-03 06:37:25.25	70.54	13.57	-48.9	-51.6	13.8	3.00e-06	0	53	0	248512512	60	4960
2026-01-03 06:37:28.21	70.15	13.80	-48.8	-51.4	14.0	7.00e-07	0	53	0	253755392	60	4831
2026-01-03 06:37:31.17	69.76	14.04	-49.0	-51.7	13.7	6.80e-06	0	53	0	258998272	60	5012
2026-01-03 06:37:34.15	69.37	14.27	-48.6	-50.9	14.5	2.20e-06	0	53	0	265289728	59	4849
2026-01-03 06:37:37.10	68.97	14.50	-48.7	-51.1	14.3	0.00e+00	0	53	0	270532608	59	4948
2026-01-03 06:37:40.06	68.56	14.74	-48.8	-51.4	14.1	1.50e-06	0	53	0	275775488	59	5108
2026-01-03 06:37:43.03	68.14	14.97	-49.1	-51.9	13.6	3.80e-06	0	53	0	282066944	60	5101
2026-01-03 06:37:46.00	67.72	15.21	-48.5	-51.0	14.5	0.00e+00	0	53	0	287309824	60	4620
2026-01-03 06:37:48.96	67.29	15.44	-48.5	-50.8	14.7	2.20e-06	0	53	0	292552704	59	4804
2026-01-03 06:37:51.91	66.86	15.68	-48.2	-50.3	15.1	0.00e+00	0	53	0	298844160	59	4521
2026-01-03 06:37:54.88	66.41	15.92	-48.1	-50.3	15.1	0.00e+00	0	53	0	304087040	59	4526
2026-01-03 06:37:57.84	65.96	16.15	-48.4	-50.7	14.8	0.00e+00	0	53	0	309329920	59	4753
2026-01-03 06:38:00.80	65.51	16.39	-48.6	-51.2	14.3	7.00e-07	0	53	0	314572800	59	5013
2026-01-03 06:38:03.76	65.04	16.63	-48.9	-51.5	14.0	7.00e-07	0	53	0	320864256	59	5163
2026-01-03 06:38:06.73	64.57	16.87	-49.0	-51.7	13.8	5.30e-06	0	54	0	326107136	59	5320
2026-01-03 06:38:09.67	64.09	17.11	-49.1	-52.0	13.5	1.29e-05	0	54	0	331350016	60	5184
2026-01-03 06:38:12.63	63.60	17.35	-49.4	-52.6	12.9	4.95e-05	0	54	0	337641472	60	5558
2026-01-03 06:38:15.61	63.11	17.59	-49.2	-52.1	13.3	1.90e-05	0	54	0	342884352	61	4979
2026-01-03 06:38:18.57	62.60	17.83	-49.0	-51.7	13.8	3.00e-06	0	54	0	348127232	60	4988
2026-01-03 06:38:21.55	62.09	18.07	-48.8	-51.5	14.0	2.20e-06	0	54	0	354418688	60	4893
2026-01-03 06:38:24.53	61.56	18.31	-48.6	-51.1	14.4	7.00e-07	0	54	0	359661568	60	4662
2026-01-03 06:38:27.48	61.04	18.55	-48.6	-51.0	14.5	0.00e+00	0	54	0	364904448	59	4903
2026-01-03 06:38:30.44	60.50	18.79	-48.5	-50.8	14.7	7.00e-07	0	54	0	370147328	59	4798
2026-01-03 06:38:33.41	59.95	19.03	-48.8	-51.3	14.2	7.00e-07	0	54	0	376438784	59	5084
2026-01-03 06:38:36.38	59.40	19.27	-48.8	-51.4	14.2	2.20e-06	0	54	0	381681664	59	5112
2026-01-03 06:38:39.36	58.83	19.51	-48.7	-51.2	14.4	0.00e+00	0	54	0	386924544	59	4998
2026-01-03 06:38:42.32	58.26	19.74	-48.4	-50.6	15.0	0.00e+00	0	54	0	393216000	59	4657
2026-01-03 06:38:45.27	57.68	19.98	-48.6	-51.0	14.5	7.00e-07	0	54	0	398458880	59	4915
2026-01-03 06:38:48.25	57.08	20.22	-48.9	-51.3	14.3	7.00e-07	0	54	0	403701760	59	5090
2026-01-03 06:38:51.22	56.48	20.45	-48.9	-51.5	14.1	3.00e-06	0	54	0	409993216	60	4921
2026-01-03 06:38:54.19	55.87	20.69	-48.5	-50.9	14.7	0.00e+00	0	54	0	415236096	60	4570
2026-01-03 06:38:57.16	55.25	20.92	-48.3	-50.5	15.1	0.00e+00	0	55	0	420478976	59	4600
2026-01-03 06:39:00.13	54.62	21.15	-48.3	-50.4	15.1	0.00e+00	0	54	0	426770432	58	4843
2026-01-03 06:39:03.08	53.99	21.38	-48.2	-50.4	15.2	0.00e+00	0	54	0	432013312	58	4837
2026-01-03 06:39:06.05	53.34	21.60	-47.7	-49.7	15.9	0.00e+00	0	54	0	437256192	58	4491
2026-01-03 06:39:09.00	52.68	21.83	-47.5	-49.4	16.1	0.00e+00	0	55	0	442499072	58	4333
2026-01-03 06:39:11.98	52.01	22.05	-47.6	-49.5	16.0	0.00e+00	0	55	0	448790528	57	4620
2026-01-03 06:39:14.96	51.33	22.27	-47.6	-49.4	16.1	0.00e+00	0	55	0	454033408	57	4595
2026-01-03 06:39:17.93	50.65	22.49	-47.8	-49.7	15.9	0.00e+00	0	55	0	459276288	57	4713
2026-01-03 06:39:20.89	49.95	22.71	-47.5	-49.3	16.2	0.00e+00	0	55	0	465567744	57	4538
2026-01-03 06:39:23.85	49.25	22.92	-46.7	-48.3	17.2	0.00e+00	0	55	0	470810624	56	4252
2026-01-03 06:39:26.83	48.53	23.13	-47.0	-48.6	16.9	0.00e+00	0	55	0	476053504	56	4405
2026-01-03 06:39:29.78	47.81	23.34	-46.9	-48.5	17.0	0.00e+00	0	55	0	482344960	56	4373
2026-01-03 06:39:32.74	47.07	23.54	-47.0	-48.7	16.9	0.00e+00	0	55	0	487587840	56	4442
2026-01-03 06:39:35.70	46.33	23.74	-47.0	-48.6	16.9	0.00e+00	0	55	0	492830720	56	4429
2026-01-03 06:39:38.67	45.57	23.93	-47.7	-49.6	15.9	0.00e+00	0	55	0	498073600	57	4702
2026-01-03 06:39:41.64	44.81	24.13	-47.8	-49.7	15.9	0.00e+00	0	55	0	504365056	57	4716
2026-01-03 06:39:44.63	44.03	24.32	-48.0	-50.1	15.5	0.00e+00	0	55	0	509607936	58	4692
2026-01-03 06:39:47.59	43.25	24.50	-48.1	-50.0	15.6	0.00e+00	0	55	0	514850816	58	4642
2026-01-03 06:39:50.57	42.45	24.68	-48.2	-50.2	15.4	0.00e+00	0	55	0	521142272	58	4737
2026-01-03 06:39:53.55	41.65	24.85	-47.8	-49.7	16.0	0.00e+00	0	55	0	526385152	58	4462
2026-01-03 06:39:56.51	40.84	25.02	-47.6	-49.3	16.3	0.00e+00	0	55	0	531628032	58	4261
2026-01-03 06:39:59.49	40.02	25.18	-47.2	-48.9	16.8	0.00e+00	0	55	0	537919488	57	4295
2026-01-03 06:40:02.45	39.20	25.34	-47.0	-48.6	17.0	0.00e+00	0	55	0	543162368	57	4157
2026-01-03 06:40:05.42	38.36	25.49	-47.5	-49.2	16.4	0.00e+00	0	55	0	548405248	57	4467
2026-01-03 06:40:08.39	37.52	25.64	-47.4	-49.2	16.4	0.00e+00	0	55	0	554696704	57	4467
2026-01-03 06:40:11.36	36.67	25.78	-47.6	-49.4	16.3	0.00e+00	0	55	0	559939584	57	4564
2026-01-03 06:40:14.32	35.81	25.91	-48.3	-50.4	15.2	0.00e+00	0	55	0	565182464	58	4862
2026-01-03 06:40:17.28	34.95	26.04	-48.3	-50.5	15.1	0.00e+00	0	55	0	570425344	58	4900
2026-01-03 06:40:20.25	34.07	26.16	-48.9	-51.4	14.2	0.00e+00	0	55	0	576716800	59	5131
2026-01-03 06:40:23.22	33.20	26.27	-48.5	-50.8	14.8	0.00e+00	0	55	0	581959680	59	4762
2026-01-03 06:40:26.19	32.31	26.38	-48.2	-50.3	15.3	0.00e+00	0	55	0	587202560	58	4798
2026-01-03 06:40:29.14	31.43	26.48	-48.8	-51.2	14.5	0.00e+00	0	55	0	593494016	59	4996
2026-01-03 06:40:32.10	30.53	26.57	-48.9	-51.4	14.2	0.00e+00	0	55	0	598736896	59	5133
2026-01-03 06:40:35.08	29.63	26.66	-48.6	-50.9	14.7	0.00e+00	0	55	0	603979776	59	4842
2026-01-03 06:40:38.04	28.72	26.73	-48.7	-51.0	14.6	0.00e+00	0	55	0	610271232	59	4879
2026-01-03 06:40:41.01	27.81	26.80	-49.0	-51.6	14.0	1.50e-06	0	55	0	615514112	60	4982
2026-01-03 06:40:43.98	26.90	26.86	-48.6	-51.1	14.5	0.00e+00	0	55	0	620756992	60	4658
2026-01-03 06:40:46.95	25.98	26.92	-48.7	-51.0	14.5	7.00e-07	0	55	0	627048448	59	4925
2026-01-03 06:40:49.91	25.07	26.96	-48.6	-50.9	14.7	0.00e+00	0	55	0	632291328	59	4859
2026-01-03 06:40:52.88	24.14	27.00	-49.1	-51.9	13.7	6.10e-06	0	55	0	637534208	60	5147
2026-01-03 06:40:55.84	23.22	27.03	-48.7	-51.2	14.4	7.00e-07	0	55	0	642777088	60	4735
2026-01-03 06:40:58.80	22.30	27.05	-48.3	-50.3	15.3	0.00e+00	0	55	0	649068544	59	4540
2026-01-03 06:41:01.76	21.38	27.06	-48.4	-50.5	15.1	0.00e+00	0	55	0	654311424	59	4646
2026-01-03 06:41:04.73	20.45	27.07	-48.8	-51.2	14.5	0.00e+00	0	55	0	659554304	59	5007
2026-01-03 06:41:07.70	19.52	27.06	-48.8	-51.2	14.3	0.00e+00	0	55	0	665845760	60	4748
2026-01-03 06:41:10.66	18.60	27.05	-48.4	-50.6	15.0	7.00e-07	0	56	0	671088640	59	4673
2026-01-03 06:41:13.63	17.67	27.03	-48.4	-50.5	15.0	0.00e+00	0	55	0	676331520	59	4638
2026-01-03 06:41:16.60	16.75	27.00	-48.1	-50.3	15.1	0.00e+00	0	55	0	682622976	59	4505
2026-01-03 06:41:19.57	15.83	26.96	-47.9	-50.1	15.0	0.00e+00	0	55	0	687865856	58	4690
2026-01-03 06:41:22.55	14.90	26.92	-47.6	-49.7	15.3	0.00e+00	0	55	0	693108736	58	4452
2026-01-03 06:41:25.52	13.99	26.86	-47.4	-49.3	15.5	0.00e+00	0	55	0	698351616	57	4543
2026-01-03 06:41:28.49	13.07	26.80	-48.9	-52.0	12.6	2.05e-05	0	56	0	704643072	59	5516
2026-01-03 06:41:31.45	12.17	26.73	-49.4	-53.4	11.0	1.00e-03	0	56	0	709885952	60	6099
2026-01-03 06:41:34.41	11.26	26.66	-49.8	-54.4	9.9	7.92e-03	0	56	0	715128832	61	6437
2026-01-03 06:41:37.38	10.36	26.57	-50.0	-55.0	9.3	1.82e-02	0	56	0	721420288	62	6500
2026-01-03 06:41:40.35	9.47	26.48	-50.0	-54.4	10.1	8.26e-03	0	56	0	726663168	62	6083
2026-01-03 06:41:43.32	8.58	26.38	-49.9	-54.0	10.8	4.78e-03	0	56	0	731906048	62	5791
2026-01-03 06:41:46.28	7.69	26.28	-49.2	-52.1	13.1	4.27e-05	0	56	0	738197504	61	4930
2026-01-03 06:41:49.26	6.81	26.16	-49.0	-51.6	13.9	8.30e-06	0	56	0	743440384	61	4684
2026-01-03 06:41:52.22	5.94	26.04	-48.5	-50.7	14.8	7.00e-07	0	56	0	748683264	60	4454
2026-01-03 06:41:55.19	5.08	25.92	-49.2	-52.1	13.3	9.10e-06	0	56	0	754974720	60	5232
2026-01-03 06:41:58.16	4.22	25.78	-50.0	-54.7	9.8	4.98e-03	0	56	0	760217600	61	6677
2026-01-03 06:42:01.14	3.37	25.64	-50.8	-58.1	6.3	2.05e-01	0	56	0	765460480	63	8821
2026-01-03 06:42:04.11	2.52	25.50	-49.9	-53.7	11.4	1.66e-03	0	56	0	771751936	62	5619
2026-01-03 06:42:07.07	1.69	25.34	-49.8	-53.0	12.5	1.52e-04	0	56	0	776994816	62	5218
2026-01-03 06:42:10.04	0.86	25.19	-49.7	-52.8	12.7	8.92e-05	0	56	0	782237696	62	5087
2026-01-03 06:42:13.01	0.05	25.02	-49.6	-52.6	12.9	3.58e-05	0	56	0	787480576	62	4951
2026-01-03 06:42:15.97	359.24	24.86	-48.9	-51.5	14.0	3.80e-06	0	56	0	793772032	61	4626
2026-01-03 06:42:18.93	358.44	24.68	-48.3	-50.5	15.1	0.00e+00	0	56	0	799014912	59	4620
2026-01-03 06:42:21.90	357.65	24.51	-48.6	-51.0	14.6	1.50e-06	0	56	0	804257792	59	4878
2026-01-03 06:42:24.86	356.87	24.32	-48.8	-51.3	14.2	0.00e+00	0	56	0	810549248	59	5082
2026-01-03 06:42:27.82	356.10	24.14	-48.1	-50.2	15.4	0.00e+00	0	56	0	815792128	59	4450
2026-01-03 06:42:30.77	355.34	23.95	-48.6	-50.9	14.6	0.00e+00	0	56	0	821035008	59	4858
2026-01-03 06:42:33.74	354.58	23.75	-49.4	-52.5	13.0	1.83e-05	0	56	0	826277888	60	5473
2026-01-03 06:42:36.70	353.84	23.55	-49.5	-52.7	12.8	3.50e-05	0	56	0	832569344	61	5313
2026-01-03 06:42:39.68	353.10	23.35	-48.9	-51.5	14.0	7.00e-07	0	56	0	837812224	60	4887
2026-01-03 06:42:42.65	352.38	23.14	-48.2	-50.4	15.2	0.00e+00	0	56	0	843055104	59	4546
2026-01-03 06:42:45.62	351.66	22.93	-48.9	-51.5	14.1	1.50e-06	0	56	0	849346560	59	5181
2026-01-03 06:42:48.60	350.95	22.72	-48.5	-50.9	14.5	0.00e+00	0	56	0	854589440	60	4596
2026-01-03 06:42:51.58	350.25	22.50	-47.7	-49.7	15.8	0.00e+00	0	56	0	859832320	58	4460
2026-01-03 06:42:54.54	349.57	22.29	-47.2	-49.0	16.5	0.00e+00	0	56	0	866123776	57	4347
2026-01-03 06:42:57.50	348.89	22.07	-47.6	-49.4	15.9	0.00e+00	0	56	0	871366656	57	4597
2026-01-03 06:43:00.47	348.23	21.84	-47.2	-48.9	16.5	0.00e+00	0	56	0	876609536	57	4317
2026-01-03 06:43:03.44	347.57	21.62	-47.2	-49.0	16.4	0.00e+00	0	56	0	882900992	57	4357
2026-01-03 06:43:06.40	346.92	21.39	-46.5	-48.0	17.2	0.00e+00	0	56	0	888143872	56	4137
2026-01-03 06:43:09.38	346.28	21.16	-47.2	-49.0	16.4	0.00e+00	0	56	0	893386752	56	4601
2026-01-03 06:43:12.36	345.65	20.93	-47.7	-49.8	15.6	0.00e+00	0	56	0	899678208	57	4764
2026-01-03 06:43:15.33	345.03	20.70	-48.2	-50.5	14.9	0.00e+00	0	56	0	904921088	58	4908
2026-01-03 06:43:18.30	344.42	20.46	-48.3	-50.5	14.8	7.00e-07	0	56	0	910163968	58	4903
2026-01-03 06:43:21.28	343.82	20.23	-47.9	-49.9	15.3	0.00e+00	0	56	0	915406848	58	4598
2026-01-03 06:43:24.25	343.23	19.99	-47.4	-49.4	15.8	0.00e+00	0	56	0	921698304	58	4299
2026-01-03 06:43:27.21	342.65	19.76	-47.5	-49.6	15.3	0.00e+00	0	56	0	926941184	58	4407
2026-01-03 06:43:30.17	342.08	19.52	-47.3	-49.4	15.2	0.00e+00	0	56	0	932184064	57	4573
2026-01-03 06:43:33.14	341.51	19.28	-49.1	-52.8	11.6	4.03e-04	0	56	0	938475520	60	5659
2026-01-03 06:43:36.10	340.96	19.04	-49.8	-54.3	9.9	6.41e-03	0	56	0	943718400	61	6406
2026-01-03 06:43:39.08	340.41	18.80	-49.5	-53.0	11.7	8.06e-04	0	56	0	948961280	61	5497
2026-01-03 06:43:42.05	339.87	18.56	-48.8	-51.6	13.3	7.60e-06	0	56	0	955252736	60	4966
2026-01-03 06:43:45.02	339.34	18.33	-48.1	-50.4	14.7	7.00e-07	0	56	0	960495616	58	4815
2026-01-03 06:43:47.98	338.82	18.09	-48.0	-50.2	14.9	0.00e+00	0	56	0	965738496	58	4754
2026-01-03 06:43:50.95	338.31	17.85	-48.2	-50.5	14.8	0.00e+00	0	56	0	972029952	58	4906
2026-01-03 06:43:53.91	337.81	17.61	-48.0	-50.0	15.3	7.00e-07	0	56	0	977272832	58	4628
2026-01-03 06:43:56.87	337.31	17.37	-47.0	-48.7	16.6	0.00e+00	0	56	0	982515712	57	4204
2026-01-03 06:43:59.85	336.82	17.13	-47.0	-48.7	16.6	0.00e+00	0	56	0	987758592	57	4219
2026-01-03 06:44:02.82	336.34	16.89	-47.8	-49.7	15.7	0.00e+00	0	56	0	994050048	57	4741
2026-01-03 06:44:05.78	335.87	16.65	-47.8	-49.8	15.6	0.00e+00	0	56	0	999292928	57	4770
2026-01-03 06:44:08.73	335.41	16.41	-47.5	-49.4	16.0	0.00e+00	0	56	0	1004535808	57	4561
2026-01-03 06:44:11.70	334.95	16.17	-47.5	-49.3	16.1	0.00e+00	0	56	0	1010827264	57	4539
2026-01-03 06:44:14.67	334.50	15.93	-47.6	-49.5	15.9	0.00e+00	0	56	0	1016070144	57	4630
2026-01-03 06:44:17.63	334.06	15.70	-47.9	-49.9	15.5	0.00e+00	0	57	0	1021313024	57	4837
2026-01-03 06:44:20.61	333.62	15.46	-48.6	-50.9	14.5	0.00e+00	0	56	0	1027604480	59	4868
2026-01-03 06:44:23.58	333.19	15.22	-48.5	-50.7	14.8	0.00e+00	0	56	0	1032847360	59	4739
2026-01-03 06:44:26.54	332.77	14.99	-47.7	-49.5	15.9	0.00e+00	0	56	0	1038090240	58	4390
2026-01-03 06:44:29.51	332.36	14.75	-47.6	-49.4	16.1	0.00e+00	0	56	0	1044381696	58	4305
2026-01-03 06:44:32.48	331.95	14.52	-48.3	-50.4	15.0	0.00e+00	0	56	0	1049624576	58	4837
2026-01-03 06:44:35.45	331.55	14.28	-48.5	-50.7	14.8	7.00e-07	0	56	0	1054867456	58	5013
2026-01-03 06:44:38.41	331.15	14.05	-48.1	-50.2	15.2	0.00e+00	0	56	0	1060110336	58	4735
2026-01-03 06:44:41.39	330.76	13.82	-48.2	-50.2	15.2	0.00e+00	0	56	0	1066401792	58	4757
2026-01-03 06:44:44.36	330.38	13.59	-48.4	-50.6	14.9	0.00e+00	0	56	0	1071644672	58	4963
2026-01-03 06:44:47.32	330.00	13.36	-48.0	-50.0	15.4	0.00e+00	0	56	0	1076887552	58	4638
2026-01-03 06:44:50.30	329.63	13.13	-48.0	-50.1	15.3	0.00e+00	0	56	0	1083179008	58	4671
2026-01-03 06:44:53.27	329.27	12.90	-48.4	-50.6	14.8	7.00e-07	0	56	0	1088421888	58	4968
2026-01-03 06:44:56.22	328.91	12.68	-48.4	-50.7	14.7	0.00e+00	0	57	0	1093664768	58	4998
2026-01-03 06:44:59.19	328.55	12.45	-48.5	-50.8	14.6	1.50e-06	0	57	0	1099956224	59	4767
2026-01-03 06:45:02.16	328.21	12.23	-48.4	-50.6	14.7	0.00e+00	0	56	0	1105199104	59	4704
2026-01-03 06:45:05.12	327.86	12.00	-48.7	-51.1	14.2	7.00e-07	0	57	0	1110441984	59	4968
2026-01-03 06:45:08.08	327.53	11.78	-49.0	-51.6	13.8	3.00e-06	0	56	0	1115684864	59	5243
2026-01-03 06:45:11.04	327.20	11.56	-49.2	-52.1	13.3	1.37e-05	0	57	0	1121976320	60	5235
2026-01-03 06:45:14.00	326.87	11.34	-48.9	-51.8	13.6	1.06e-05	0	57	0	1127219200	60	5042
2026-01-03 06:45:16.98	326.55	11.12	-48.5	-50.9	14.5	0.00e+00	0	56	0	1132462080	60	4556
2026-01-03 06:45:19.94	326.23	10.90	-48.4	-50.7	14.6	0.00e+00	0	56	0	1138753536	59	4749
2026-01-03 06:45:22.90	325.92	10.68	-48.4	-50.8	14.5	7.00e-07	0	57	0	1143996416	59	4765
2026-01-03 06:45:25.87	325.61	10.46	-48.9	-51.5	13.8	4.50e-06	0	57	0	1149239296	59	5173
2026-01-03 06:45:28.81	325.31	10.25	-49.3	-52.3	12.9	2.51e-05	0	57	0	1155530752	60	5384
2026-01-03 06:45:31.77	325.01	10.04	-49.5	-52.7	12.5	8.39e-05	0	57	0	1160773632	60	5643
2026-01-03 06:45:34.73	324.72	9.82	-49.6	-52.8	12.3	2.46e-04	0	57	0	1166016512	61	5400
2026-01-03 06:45:37.70	324.43	9.61	-49.9	-53.4	11.8	5.07e-04	0	57	0	1171259392	61	5760
2026-01-03 06:45:40.67	324.14	9.40	-49.7	-53.2	11.9	3.50e-04	0	57	0	1177550848	61	5654
2026-01-03 06:45:43.64	323.86	9.19	-49.6	-53.0	12.2	2.45e-04	0	57	0	1182793728	61	5473
2026-01-03 06:45:46.60	323.59	8.98	-49.5	-52.7	12.4	2.34e-04	0	57	0	1188036608	61	5332
2026-01-03 06:45:49.58	323.31	8.77	-49.8	-53.2	12.0	3.61e-04	0	57	0	1194328064	61	5608
2026-01-03 06:45:52.54	323.04	8.57	-50.1	-53.9	11.2	1.13e-03	0	57	0	1199570944	61	6103
2026-01-03 06:45:55.52	322.78	8.36	-50.3	-54.4	10.7	2.23e-03	0	57	0	1204813824	62	6078
2026-01-03 06:45:58.47	322.52	8.16	-50.3	-54.5	10.5	5.13e-03	0	57	0	1211105280	62	6201
2026-01-03 06:46:01.44	322.26	7.95	-49.6	-53.1	12.0	4.90e-04	0	57	0	1216348160	62	5228
2026-01-03 06:46:04.41	322.01	7.75	-49.3	-52.4	12.7	1.12e-04	0	57	0	1221591040	61	5151
2026-01-03 06:46:07.37	321.76	7.55	-48.9	-51.7	13.4	6.80e-06	0	57	0	1226833920	60	5017
2026-01-03 06:46:10.34	321.51	7.35	-48.6	-51.2	13.9	8.30e-06	0	57	0	1233125376	60	4733
2026-01-03 06:46:13.30	321.27	7.15	-48.7	-51.3	13.8	4.50e-06	0	57	0	1238368256	60	4786
2026-01-03 06:46:16.26	321.03	6.95	-48.9	-51.7	13.3	1.90e-05	0	57	0	1243611136	60	5018
2026-01-03 06:46:19.25	320.79	6.75	-49.2	-52.3	12.7	5.49e-05	0	57	0	1249902592	60	5401
2026-01-03 06:46:22.22	320.56	6.56	-49.5	-52.9	12.1	2.80e-04	0	57	0	1255145472	60	5762
2026-01-03 06:46:25.18	320.33	6.36	-49.9	-53.7	11.2	7.03e-04	0	57	0	1260388352	61	5939
2026-01-03 06:46:28.15	320.11	6.17	-50.1	-54.2	10.6	2.40e-03	0	57	0	1266679808	62	5984
2026-01-03 06:46:31.10	319.88	5.98	-50.0	-54.0	10.9	2.74e-03	0	57	0	1271922688	62	5812
2026-01-03 06:46:34.08	319.66	5.78	-50.1	-54.2	10.7	3.25e-03	0	57	0	1277165568	62	5952
2026-01-03 06:46:37.05	319.45	5.59	-50.1	-54.3	10.5	3.78e-03	0	57	0	1283457024	62	5995
2026-01-03 06:46:40.02	319.23	5.40	-50.1	-54.2	10.6	2.91e-03	0	57	0	1288699904	62	5962
2026-01-03 06:46:42.99	319.02	5.21	-49.9	-54.0	10.8	2.83e-03	0	57	0	1293942784	62	5802
2026-01-03 06:46:45.95	318.81	5.02	-51.2	-58.1	7.0	4.84e-03	0	57	0	1299185664	64	8300
2026-01-03 06:46:48.92	318.61	4.84	-49.0	-62.8	3.8	1.49e+00	0	57	104	1300234240	60	17962
2026-01-03 06:46:51.90	318.40	4.65	-51.5	-66.2	3.8	1.49e+00	0	57	104	1300234240	66	18751
2026-01-03 06:46:54.86	318.20	4.47	-53.0	-66.8	3.8	1.49e+00	0	57	104	1300234240	67	19057
2026-01-03 06:46:57.83	318.01	4.28	-53.0	-66.9	3.8	1.49e+00	0	57	104	1300234240	67	19265
2026-01-03 06:47:00.79	317.81	4.10	-53.2	-67.1	3.8	1.49e+00	0	57	104	1300234240	68	18546
2026-01-03 06:47:03.76	317.62	3.92	-53.1	-67.1	3.8	1.49e+00	0	57	104	1300234240	68	18597
2026-01-03 06:47:06.74	317.43	3.73	-53.2	-67.1	3.8	1.49e+00	0	57	104	1300234240	68	18707
2026-01-03 06:47:09.70	317.24	3.55	-53.3	-67.2	3.8	1.49e+00	0	57	104	1300234240	68	18746
2026-01-03 06:47:12.66	317.06	3.37	-53.1	-67.1	3.8	1.49e+00	0	57	104	1300234240	68	18704
2026-01-03 06:47:15.63	316.88	3.19	-53.3	-67.1	3.8	1.49e+00	0	57	104	1300234240	68	18721
2026-01-03 06:47:18.62	316.69	3.01	-53.2	-67.1	3.8	1.49e+00	0	57	104	1300234240	68	18727

#Closed at: 2026-01-03 06:47:20
#Recorded file [1300 MB]: D:/Data/31026_260103_094646.dat