passes_logs/2026/01/03/R3.0SM8_Murmansk_STILSPACE/R3.0SM8_Murmansk_STILSPACE__20260103_160354_FENGYUN_3E_rec.log

#Pass ID: 20260103_160354_FENGYUN 3E
#Satellite: FENGYUN 3E
#Configuration: FENGYUN 3E
#almurnet v.1.7.20240730
#Start time: 2026-01-03 16:03:54

#Version: 2.2.20231116
#Station: R3.0SM8_Murmansk_STILSPACE
#Location: 33.092731 lon 68.902999 lat
#TLE: 1 49008U 21062A   26002.95568549 -.00000227  00000+0 -86494-4 0  9990
#TLE: 2 49008  98.7475   8.2258 0001442 163.3458 196.7766 14.19882681233131

#Time	Az	El	Level	Level2	SNR	BER	BlckErr	Temp	State	Recorded	gain1	gain2
2026-01-03 16:03:54.62	209.82	3.02	-52.5	-62.7	3.8	8.46e-01	0	45	0	0	66	12509
2026-01-03 16:03:58.58	210.10	3.25	-50.5	-62.4	3.8	8.45e-01	0	46	104	0	63	14291
2026-01-03 16:04:02.55	210.39	3.48	-51.4	-61.3	3.8	8.46e-01	0	46	104	0	65	11260
2026-01-03 16:04:06.51	210.68	3.71	-51.4	-61.3	3.8	8.45e-01	0	47	104	0	65	11196
2026-01-03 16:04:10.48	210.98	3.94	-51.4	-61.2	3.8	8.45e-01	0	47	104	0	65	11062
2026-01-03 16:04:14.43	211.28	4.18	-51.2	-59.5	3.8	8.44e-01	0	47	104	0	65	9165
2026-01-03 16:04:18.38	211.58	4.41	-50.2	-55.0	5.8	5.36e-01	0	47	0	1048576	63	6074
2026-01-03 16:04:22.33	211.89	4.65	-48.5	-51.3	9.2	2.86e-02	0	48	0	29360128	60	4722
2026-01-03 16:04:26.29	212.21	4.89	-46.7	-48.4	12.3	2.55e-04	0	48	0	58720256	56	4250
2026-01-03 16:04:30.24	212.52	5.13	-45.4	-46.7	14.0	3.40e-06	0	48	0	87031808	53	4152
2026-01-03 16:04:34.19	212.85	5.37	-45.1	-46.2	14.5	1.10e-06	0	49	0	115343360	53	3952
2026-01-03 16:04:38.15	213.18	5.61	-45.2	-46.5	14.3	2.20e-06	0	49	0	143654912	52	4304
2026-01-03 16:04:42.12	213.52	5.86	-45.5	-46.8	14.0	2.20e-06	0	49	0	171966464	52	4450
2026-01-03 16:04:46.07	213.86	6.10	-45.6	-46.9	13.9	4.50e-06	0	49	0	200278016	53	4261
2026-01-03 16:04:50.03	214.20	6.35	-45.7	-47.1	13.7	8.00e-06	0	49	0	229638144	53	4347
2026-01-03 16:04:53.98	214.55	6.60	-45.7	-47.0	13.8	5.70e-06	0	50	0	257949696	53	4329
2026-01-03 16:04:57.94	214.91	6.85	-45.3	-46.5	14.4	2.20e-06	0	50	0	286261248	53	4062
2026-01-03 16:05:01.91	215.28	7.10	-44.9	-46.0	14.8	0.00e+00	0	50	0	315621376	52	4094
2026-01-03 16:05:05.86	215.64	7.35	-45.0	-46.1	14.8	0.00e+00	0	50	0	343932928	52	4115
2026-01-03 16:05:09.83	216.02	7.61	-44.9	-46.0	14.9	0.00e+00	0	50	0	372244480	52	4071
2026-01-03 16:05:13.79	216.40	7.87	-45.1	-46.3	14.7	2.20e-06	0	51	0	401604608	52	4205
2026-01-03 16:05:17.74	216.79	8.13	-44.8	-45.9	15.0	0.00e+00	0	51	0	429916160	52	4037
2026-01-03 16:05:21.69	217.19	8.38	-45.2	-46.3	14.6	0.00e+00	0	51	0	458227712	52	4224
2026-01-03 16:05:25.65	217.59	8.65	-45.0	-46.2	14.8	0.00e+00	0	51	0	486539264	52	4146
2026-01-03 16:05:29.60	218.00	8.91	-45.1	-46.2	14.7	1.10e-06	0	51	0	514850816	52	4182
2026-01-03 16:05:33.57	218.41	9.17	-44.8	-45.9	15.1	1.10e-06	0	52	0	543162368	52	4010
2026-01-03 16:05:37.54	218.84	9.44	-44.7	-45.7	15.3	0.00e+00	0	52	0	572522496	52	3941
2026-01-03 16:05:41.49	219.27	9.71	-44.8	-45.9	15.1	0.00e+00	0	52	0	600834048	52	4026
2026-01-03 16:05:45.44	219.71	9.98	-44.9	-46.0	14.9	0.00e+00	0	52	0	629145600	52	4077
2026-01-03 16:05:49.40	220.15	10.25	-44.9	-46.1	14.9	0.00e+00	0	52	0	658505728	52	4099
2026-01-03 16:05:53.37	220.61	10.52	-45.2	-46.3	14.6	1.10e-06	0	52	0	686817280	52	4220
2026-01-03 16:05:57.32	221.07	10.79	-45.3	-46.5	14.4	0.00e+00	0	52	0	715128832	52	4300
2026-01-03 16:06:01.29	221.54	11.07	-45.3	-46.5	14.4	0.00e+00	0	52	0	744488960	52	4324
2026-01-03 16:06:05.26	222.03	11.34	-45.2	-46.3	14.5	0.00e+00	0	52	0	772800512	52	4239
2026-01-03 16:06:09.21	222.51	11.62	-45.3	-46.4	14.5	0.00e+00	0	53	0	801112064	52	4280
2026-01-03 16:06:13.15	223.01	11.90	-45.0	-46.1	14.9	0.00e+00	0	53	0	829423616	52	4115
2026-01-03 16:06:17.10	223.51	12.18	-45.0	-46.1	14.9	0.00e+00	0	53	0	857735168	52	4116
2026-01-03 16:06:21.05	224.03	12.46	-44.9	-46.0	15.0	0.00e+00	0	53	0	886046720	52	4091
2026-01-03 16:06:24.99	224.55	12.74	-45.4	-46.7	14.4	0.00e+00	0	53	0	915406848	52	4397
2026-01-03 16:06:28.93	225.09	13.02	-45.3	-46.5	14.5	0.00e+00	0	53	0	943718400	52	4308
2026-01-03 16:06:32.88	225.63	13.31	-44.5	-45.5	15.5	0.00e+00	0	53	0	972029952	52	3854
2026-01-03 16:06:36.82	226.18	13.59	-44.3	-45.3	15.9	0.00e+00	0	53	0	1000341504	51	3967
2026-01-03 16:06:40.77	226.75	13.88	-43.8	-44.7	16.5	0.00e+00	0	54	0	1028653056	50	3920
2026-01-03 16:06:44.72	227.32	14.16	-43.4	-44.2	16.9	0.00e+00	0	54	0	1058013184	49	3933
2026-01-03 16:06:48.69	227.91	14.45	-43.1	-43.9	17.3	0.00e+00	0	54	0	1086324736	49	3783
2026-01-03 16:06:52.63	228.51	14.74	-43.1	-43.9	17.3	0.00e+00	0	54	0	1114636288	48	4012
2026-01-03 16:06:56.60	229.12	15.03	-42.7	-43.4	17.8	0.00e+00	0	54	0	1142947840	48	3819
2026-01-03 16:07:00.56	229.74	15.32	-42.3	-43.0	18.0	0.00e+00	0	54	0	1171259392	47	3841
2026-01-03 16:07:04.50	230.37	15.61	-42.1	-42.7	18.3	0.00e+00	0	54	0	1200619520	47	3733
2026-01-03 16:07:08.46	231.02	15.90	-41.8	-42.4	18.7	0.00e+00	0	54	0	1228931072	46	3789
2026-01-03 16:07:12.41	231.67	16.18	-41.8	-42.4	18.8	0.00e+00	0	55	0	1257242624	46	3787
2026-01-03 16:07:16.38	232.35	16.47	-41.9	-42.5	18.7	0.00e+00	0	55	0	1286602752	46	3835
2026-01-03 16:07:20.33	233.03	16.76	-41.9	-42.6	18.7	0.00e+00	0	55	0	1314914304	46	3871
2026-01-03 16:07:24.30	233.72	17.05	-41.9	-42.6	18.7	0.00e+00	0	55	0	1343225856	46	3884
2026-01-03 16:07:28.25	234.43	17.34	-42.0	-42.7	18.6	0.00e+00	0	55	0	1371537408	46	3917
2026-01-03 16:07:32.21	235.15	17.63	-41.8	-42.4	18.9	0.00e+00	0	55	0	1399848960	46	3802
2026-01-03 16:07:36.17	235.89	17.91	-41.7	-42.3	19.0	0.00e+00	0	55	0	1429209088	46	3755
2026-01-03 16:07:40.12	236.63	18.20	-41.9	-42.5	18.8	0.00e+00	0	55	0	1457520640	46	3855
2026-01-03 16:07:44.08	237.40	18.48	-41.6	-42.2	19.2	0.00e+00	0	55	0	1485832192	46	3701
2026-01-03 16:07:48.03	238.17	18.76	-41.6	-42.2	19.2	0.00e+00	0	55	0	1514143744	45	3917
2026-01-03 16:07:51.97	238.96	19.04	-41.5	-42.0	19.3	0.00e+00	0	55	0	1542455296	45	3868
2026-01-03 16:07:55.92	239.76	19.32	-41.5	-42.1	19.3	0.00e+00	0	55	0	1570766848	45	3881
2026-01-03 16:07:59.87	240.58	19.59	-41.4	-41.9	19.4	0.00e+00	0	55	0	1600126976	45	3824
2026-01-03 16:08:03.82	241.41	19.86	-41.2	-41.8	19.6	0.00e+00	0	55	0	1628438528	45	3748
2026-01-03 16:08:07.78	242.25	20.13	-41.5	-42.1	19.4	0.00e+00	0	55	0	1656750080	45	3871
2026-01-03 16:08:11.73	243.11	20.40	-41.2	-41.7	19.7	0.00e+00	0	56	0	1686110208	45	3721
2026-01-03 16:08:15.70	243.99	20.66	-41.0	-41.5	19.9	0.00e+00	0	56	0	1714421760	44	3835
2026-01-03 16:08:19.66	244.88	20.92	-41.4	-42.0	19.4	0.00e+00	0	56	0	1742733312	44	4068
2026-01-03 16:08:23.63	245.79	21.17	-41.4	-41.9	19.5	0.00e+00	0	55	0	1772093440	45	3816
2026-01-03 16:08:27.59	246.71	21.42	-41.3	-41.9	19.5	0.00e+00	0	56	0	1800404992	45	3786
2026-01-03 16:08:31.53	247.64	21.66	-40.7	-41.3	20.1	0.00e+00	0	56	0	1828716544	44	3745
2026-01-03 16:08:35.49	248.59	21.90	-40.8	-41.3	20.1	0.00e+00	0	56	0	1857028096	44	3774
2026-01-03 16:08:39.44	249.55	22.13	-41.1	-41.7	19.7	0.00e+00	0	56	0	1885339648	44	3947
2026-01-03 16:08:43.40	250.52	22.36	-40.9	-41.5	19.9	0.00e+00	0	56	0	1913651200	44	3825
2026-01-03 16:08:47.36	251.51	22.58	-40.7	-41.3	20.1	0.00e+00	0	56	0	1943011328	44	3742
2026-01-03 16:08:51.33	252.52	22.79	-40.8	-41.3	20.1	0.00e+00	0	56	0	1971322880	44	3768
2026-01-03 16:08:55.28	253.53	23.00	-40.4	-40.9	20.4	0.00e+00	0	56	0	1999634432	43	3797
2026-01-03 16:08:59.24	254.56	23.20	-40.4	-40.9	20.4	0.00e+00	0	56	0	2028994560	43	3795
2026-01-03 16:09:03.21	255.61	23.39	-40.6	-41.1	20.1	0.00e+00	0	56	0	2057306112	43	3908
2026-01-03 16:09:07.17	256.66	23.57	-40.3	-40.8	20.5	0.00e+00	0	56	0	2085617664	43	3765
2026-01-03 16:09:11.13	257.73	23.74	-40.5	-41.0	20.2	0.00e+00	0	56	0	2114977792	43	3865
2026-01-03 16:09:15.09	258.80	23.90	-40.5	-41.0	20.3	0.00e+00	0	56	0	2143289344	43	3849
2026-01-03 16:09:19.05	259.89	24.06	-40.3	-40.8	20.5	0.00e+00	0	56	0	2171600896	43	3745
2026-01-03 16:09:23.01	260.99	24.20	-40.3	-40.8	20.5	0.00e+00	0	56	0	2199912448	43	3758
2026-01-03 16:09:26.97	262.10	24.33	-40.1	-40.6	20.7	0.00e+00	0	56	0	2228224000	42	3892
2026-01-03 16:09:30.92	263.21	24.46	-40.2	-40.7	20.6	0.00e+00	0	56	0	2256535552	42	3945
2026-01-03 16:09:34.87	264.33	24.57	-40.3	-40.8	20.5	0.00e+00	0	56	0	2285895680	42	3961
2026-01-03 16:09:38.83	265.46	24.67	-40.6	-41.1	20.2	0.00e+00	0	56	0	2314207232	42	4116
2026-01-03 16:09:42.80	266.60	24.76	-40.4	-40.9	20.4	0.00e+00	0	56	0	2342518784	42	4009
2026-01-03 16:09:46.75	267.74	24.84	-40.2	-40.7	20.6	0.00e+00	0	56	0	2371878912	42	3957
2026-01-03 16:09:50.70	268.89	24.91	-40.0	-40.5	20.8	0.00e+00	0	56	0	2400190464	42	3840
2026-01-03 16:09:54.65	270.04	24.96	-40.2	-40.6	20.7	0.00e+00	0	56	0	2428502016	42	3909
2026-01-03 16:09:58.61	271.20	25.01	-40.2	-40.7	20.6	0.00e+00	0	56	0	2456813568	42	3938
2026-01-03 16:10:02.57	272.36	25.04	-40.3	-40.8	20.6	0.00e+00	0	56	0	2485125120	42	3966
2026-01-03 16:10:06.53	273.52	25.06	-40.0	-40.5	20.8	0.00e+00	0	56	0	2514485248	42	3830
2026-01-03 16:10:10.48	274.68	25.06	-40.1	-40.6	20.7	0.00e+00	0	56	0	2542796800	42	3892
2026-01-03 16:10:14.43	275.84	25.06	-40.2	-40.7	20.6	0.00e+00	0	56	0	2571108352	42	3938
2026-01-03 16:10:18.37	276.99	25.04	-40.2	-40.6	20.6	0.00e+00	0	56	0	2599419904	42	3906
2026-01-03 16:10:22.33	278.15	25.01	-40.0	-40.5	20.8	0.00e+00	0	57	0	2628780032	42	3837
2026-01-03 16:10:26.30	279.31	24.97	-40.4	-40.9	20.4	0.00e+00	0	57	0	2657091584	42	4022
2026-01-03 16:10:30.25	280.46	24.92	-40.7	-41.2	20.2	0.00e+00	0	57	0	2685403136	43	3920
2026-01-03 16:10:34.19	281.61	24.85	-41.0	-41.6	19.8	0.00e+00	0	57	0	2713714688	43	4100
2026-01-03 16:10:38.14	282.75	24.78	-40.4	-40.9	20.4	0.00e+00	0	57	0	2742026240	43	3803
2026-01-03 16:10:42.12	283.89	24.69	-40.8	-41.3	19.9	0.00e+00	0	56	0	2771386368	43	3995
2026-01-03 16:10:46.08	285.02	24.59	-40.6	-41.2	20.0	0.00e+00	0	57	0	2799697920	43	3922
2026-01-03 16:10:50.05	286.15	24.48	-40.9	-41.4	19.8	0.00e+00	0	57	0	2828009472	43	4030
2026-01-03 16:10:54.01	287.27	24.36	-41.3	-41.8	19.5	0.00e+00	0	57	0	2857369600	44	3996
2026-01-03 16:10:57.97	288.37	24.23	-41.4	-42.0	19.2	0.00e+00	0	57	0	2885681152	44	4075
2026-01-03 16:11:01.94	289.47	24.08	-41.3	-41.8	19.3	0.00e+00	0	57	0	2913992704	44	4004
2026-01-03 16:11:05.91	290.56	23.93	-41.7	-42.3	18.8	0.00e+00	0	57	0	2942304256	45	3999
2026-01-03 16:11:09.86	291.64	23.77	-41.6	-42.2	19.0	0.00e+00	0	57	0	2971664384	45	3949
2026-01-03 16:11:13.82	292.70	23.60	-41.1	-41.6	19.7	0.00e+00	0	57	0	2999975936	45	3681
2026-01-03 16:11:17.78	293.76	23.42	-40.7	-41.3	20.1	0.00e+00	0	57	0	3028287488	44	3742
2026-01-03 16:11:21.73	294.80	23.24	-40.6	-41.1	20.2	0.00e+00	0	57	0	3057647616	44	3673
2026-01-03 16:11:25.70	295.83	23.04	-40.8	-41.4	20.0	0.00e+00	0	57	0	3085959168	44	3782
2026-01-03 16:11:29.66	296.85	22.84	-41.0	-41.5	19.9	0.00e+00	0	57	0	3114270720	44	3859
2026-01-03 16:11:33.63	297.85	22.63	-40.9	-41.4	20.0	0.00e+00	0	57	0	3143630848	44	3811
2026-01-03 16:11:37.59	298.84	22.41	-40.8	-41.3	20.1	0.00e+00	0	57	0	3171942400	44	3770
2026-01-03 16:11:41.54	299.82	22.18	-40.7	-41.2	20.2	0.00e+00	0	57	0	3200253952	44	3707
2026-01-03 16:11:45.50	300.78	21.95	-41.0	-41.5	19.9	0.00e+00	0	57	0	3228565504	44	3844
2026-01-03 16:11:49.45	301.72	21.72	-41.3	-41.9	19.5	0.00e+00	0	57	0	3256877056	44	4027
2026-01-03 16:11:53.42	302.66	21.48	-41.5	-42.1	19.4	0.00e+00	0	57	0	3285188608	44	4100
2026-01-03 16:11:57.39	303.58	21.23	-41.1	-41.6	19.8	0.00e+00	0	57	0	3314548736	44	3906
2026-01-03 16:12:01.34	304.48	20.98	-41.1	-41.6	19.8	0.00e+00	0	57	0	3342860288	44	3900
2026-01-03 16:12:05.30	305.38	20.72	-41.2	-41.8	19.6	0.00e+00	0	57	0	3371171840	44	3971
2026-01-03 16:12:09.26	306.25	20.46	-41.2	-41.8	19.6	0.00e+00	0	57	0	3400531968	44	3987
2026-01-03 16:12:13.24	307.12	20.20	-41.5	-42.1	19.2	0.00e+00	0	57	0	3428843520	44	4099
2026-01-03 16:12:17.21	307.97	19.93	-41.5	-42.1	19.3	0.00e+00	0	57	0	3457155072	45	3881
2026-01-03 16:12:21.16	308.80	19.66	-41.8	-42.4	19.0	0.00e+00	0	57	0	3486515200	45	4025
2026-01-03 16:12:25.11	309.62	19.39	-41.3	-41.9	19.5	0.00e+00	0	57	0	3514826752	45	3797
2026-01-03 16:12:29.08	310.42	19.11	-41.8	-42.4	19.0	0.00e+00	0	57	0	3543138304	45	4033
2026-01-03 16:12:33.02	311.21	18.84	-41.9	-42.5	18.9	0.00e+00	0	57	0	3571449856	45	4081
2026-01-03 16:12:36.99	311.99	18.56	-41.8	-42.5	18.9	0.00e+00	0	57	0	3600809984	45	4052
2026-01-03 16:12:40.95	312.75	18.27	-41.8	-42.4	19.0	0.00e+00	0	57	0	3629121536	45	4027
2026-01-03 16:12:44.92	313.50	17.99	-42.1	-42.7	18.7	0.00e+00	0	57	0	3657433088	46	3923
2026-01-03 16:12:48.86	314.23	17.71	-42.1	-42.8	18.6	0.00e+00	0	57	0	3685744640	46	3962
2026-01-03 16:12:52.82	314.95	17.42	-42.7	-43.3	18.0	0.00e+00	0	57	0	3714056192	46	4240
2026-01-03 16:12:56.78	315.66	17.14	-42.3	-42.9	18.4	0.00e+00	0	57	0	3743416320	47	3814
2026-01-03 16:13:00.72	316.35	16.85	-42.0	-42.6	18.8	0.00e+00	0	57	0	3771727872	46	3885
2026-01-03 16:13:04.69	317.04	16.56	-41.7	-42.3	19.0	0.00e+00	0	57	0	3800039424	46	3769
2026-01-03 16:13:08.65	317.71	16.27	-41.9	-42.5	18.8	0.00e+00	0	57	0	3829399552	46	3842
2026-01-03 16:13:12.62	318.37	15.99	-42.4	-43.0	18.3	0.00e+00	0	57	0	3857711104	46	4083
2026-01-03 16:13:16.56	319.01	15.70	-42.8	-43.6	17.7	0.00e+00	0	57	0	3886022656	47	4101
2026-01-03 16:13:20.53	319.65	15.41	-42.6	-43.3	18.0	0.00e+00	0	57	0	3914334208	47	3963
2026-01-03 16:13:24.47	320.27	15.12	-42.3	-42.9	18.4	0.00e+00	0	57	0	3942645760	47	3815
2026-01-03 16:13:28.44	320.88	14.84	-42.1	-42.7	18.6	0.00e+00	0	57	0	3972005888	47	3724
2026-01-03 16:13:32.37	321.48	14.55	-42.4	-43.1	18.2	0.00e+00	0	57	0	4000317440	47	3879
2026-01-03 16:13:36.32	322.06	14.27	-42.8	-43.6	17.7	0.00e+00	0	57	0	4028628992	47	4107
2026-01-03 16:13:40.28	322.64	13.98	-43.1	-43.9	17.4	0.00e+00	0	57	0	4056940544	47	4264
2026-01-03 16:13:44.24	323.21	13.70	-43.4	-44.1	17.3	0.00e+00	0	57	0	4086300672	48	4143
2026-01-03 16:13:48.20	323.76	13.41	-43.0	-43.7	17.7	0.00e+00	0	57	0	4114612224	48	3927
2026-01-03 16:13:52.16	324.31	13.13	-42.7	-43.4	18.0	0.00e+00	0	57	0	4142923776	48	3793
2026-01-03 16:13:56.11	324.85	12.85	-42.6	-43.3	18.1	0.00e+00	0	57	0	4171235328	48	3750
2026-01-03 16:14:00.07	325.37	12.57	-42.8	-43.5	17.8	0.00e+00	0	57	0	4199546880	48	3859
2026-01-03 16:14:04.01	325.89	12.29	-43.2	-43.9	17.3	0.00e+00	0	57	0	4228907008	48	4044
2026-01-03 16:14:07.97	326.40	12.01	-43.3	-44.1	17.2	0.00e+00	0	57	0	4257218560	48	4110
2026-01-03 16:14:11.94	326.90	11.73	-43.4	-44.2	17.1	0.00e+00	0	57	0	4285530112	48	4151
2026-01-03 16:14:15.89	327.39	11.46	-43.4	-44.2	17.0	0.00e+00	0	57	0	4313841664	48	4161
2026-01-03 16:14:19.84	327.87	11.18	-43.3	-44.1	17.1	0.00e+00	0	57	0	4343201792	49	3897
2026-01-03 16:14:23.79	328.34	10.91	-43.6	-44.4	16.9	0.00e+00	0	57	0	4371513344	49	4015
2026-01-03 16:14:27.75	328.80	10.64	-43.4	-44.2	17.1	0.00e+00	0	57	0	4399824896	49	3919
2026-01-03 16:14:31.68	329.25	10.37	-43.4	-44.2	16.9	0.00e+00	0	57	0	4428136448	49	3947
2026-01-03 16:14:35.63	329.70	10.10	-43.6	-44.4	16.8	0.00e+00	0	57	0	4456448000	49	4044
2026-01-03 16:14:39.57	330.14	9.84	-43.7	-44.6	16.4	0.00e+00	0	57	0	4485808128	49	4109
2026-01-03 16:14:43.53	330.57	9.57	-44.1	-45.1	16.1	0.00e+00	0	57	0	4514119680	49	4356
2026-01-03 16:14:47.49	331.00	9.31	-44.4	-45.3	15.8	0.00e+00	0	57	0	4542431232	50	4238
2026-01-03 16:14:51.45	331.42	9.04	-44.1	-45.0	16.2	0.00e+00	0	57	0	4570742784	50	4061
2026-01-03 16:14:55.40	331.83	8.78	-44.2	-45.1	15.8	0.00e+00	0	57	0	4599054336	50	4127
2026-01-03 16:14:59.38	332.23	8.52	-44.4	-45.4	15.4	0.00e+00	0	57	0	4628414464	50	4265
2026-01-03 16:15:03.33	332.63	8.26	-44.1	-45.1	14.0	1.10e-06	0	57	0	4656726016	50	4139
2026-01-03 16:15:07.28	333.02	8.01	-43.9	-45.1	12.0	7.43e-05	0	57	0	4685037568	50	4111
2026-01-03 16:15:11.24	333.40	7.75	-44.2	-45.2	14.5	0.00e+00	0	58	0	4714397696	50	4162
2026-01-03 16:15:15.19	333.78	7.50	-44.4	-45.4	15.1	0.00e+00	0	58	0	4742709248	50	4276
2026-01-03 16:15:19.16	334.15	7.24	-44.3	-45.3	15.5	0.00e+00	0	57	0	4771020800	50	4214
2026-01-03 16:15:23.11	334.52	6.99	-44.5	-45.6	15.1	0.00e+00	0	58	0	4799332352	50	4356
2026-01-03 16:15:27.08	334.88	6.74	-44.6	-45.7	14.4	0.00e+00	0	57	0	4828692480	51	4177
2026-01-03 16:15:31.02	335.23	6.50	-45.0	-46.1	14.1	1.10e-06	0	57	0	4857004032	51	4389
2026-01-03 16:15:34.97	335.58	6.25	-44.8	-45.9	14.7	1.10e-06	0	58	0	4885315584	51	4261
2026-01-03 16:15:38.93	335.92	6.01	-45.0	-46.2	14.0	3.40e-06	0	58	0	4913627136	51	4410
2026-01-03 16:15:42.90	336.26	5.76	-44.7	-45.8	14.8	0.00e+00	0	58	0	4941938688	51	4238
2026-01-03 16:15:46.87	336.60	5.52	-44.8	-45.9	14.7	1.10e-06	0	58	0	4971298816	51	4256
2026-01-03 16:15:50.84	336.92	5.28	-44.7	-45.9	14.6	2.20e-06	0	57	0	4999610368	51	4268
2026-01-03 16:15:54.79	337.25	5.04	-45.4	-46.8	13.7	0.00e+00	0	57	0	5027921920	52	4464
2026-01-03 16:15:58.76	337.56	4.80	-49.0	-59.1	3.8	8.46e-01	0	57	104	5030019072	59	12275
2026-01-03 16:16:02.70	337.87	4.57	-52.5	-62.7	3.8	8.46e-01	0	58	104	5030019072	66	12381
2026-01-03 16:16:06.67	338.18	4.33	-52.6	-62.8	3.8	8.46e-01	0	58	104	5030019072	66	12578
2026-01-03 16:16:10.63	338.49	4.10	-52.6	-62.9	3.8	8.45e-01	0	58	104	5030019072	67	12012
2026-01-03 16:16:14.60	338.79	3.87	-52.8	-62.9	3.8	8.46e-01	0	58	104	5030019072	67	12064
2026-01-03 16:16:18.56	339.08	3.64	-52.8	-63.0	3.8	8.46e-01	0	58	104	5030019072	67	12157
2026-01-03 16:16:22.54	339.37	3.41	-52.7	-63.0	3.8	8.46e-01	0	58	104	5030019072	67	12156
2026-01-03 16:16:26.51	339.66	3.18	-52.8	-62.9	3.8	8.44e-01	0	58	104	5030019072	67	12083

#Closed at: 2026-01-03 16:16:30
#Recorded file [5030 MB]: D:/Data/31026_260103_191555.dat