passes_logs/2026/01/03/R3.0SM8_Murmansk_STILSPACE/R3.0SM8_Murmansk_STILSPACE__20260103_065514_NOAA_20_JPSS-1_rec.log

#Pass ID: 20260103_065514_NOAA 20 (JPSS-1)
#Satellite: NOAA 20 (JPSS-1)
#Configuration: NOAA 20
#almurnet v.1.7.20240730
#Start time: 2026-01-03 06:55:14

#Version: 2.2.20231116
#Station: R3.0SM8_Murmansk_STILSPACE
#Location: 33.092731 lon 68.902999 lat
#TLE: 1 43013U 17073A   26002.21975278  .00000202  00000+0  11669-3 0  9999
#TLE: 2 43013  98.7622 303.2950 0001915  57.9213 302.2149 14.19532512420923

#Time	Az	El	Level	Level2	SNR	BER	BlckErr	Temp	State	Recorded	gain1	gain2
2026-01-03 06:55:14.41	92.47	2.98	-53.0	-66.9	3.8	1.49e+00	0	46	0	0	68	18283
2026-01-03 06:55:18.36	92.25	3.22	-52.8	-66.7	3.8	1.49e+00	0	47	104	0	68	17747
2026-01-03 06:55:22.30	92.03	3.47	-51.9	-66.0	3.8	1.49e+00	0	47	104	0	67	17357
2026-01-03 06:55:26.26	91.80	3.71	-52.0	-66.0	3.8	1.49e+00	0	47	104	0	66	18365
2026-01-03 06:55:30.19	91.56	3.96	-52.1	-65.7	3.8	1.49e+00	0	48	104	0	66	17685
2026-01-03 06:55:34.16	91.33	4.21	-51.8	-63.9	3.8	1.49e+00	0	48	104	0	66	14497
2026-01-03 06:55:38.11	91.09	4.46	-51.4	-60.1	5.2	7.02e-01	0	48	0	3145728	66	9385
2026-01-03 06:55:42.07	90.84	4.71	-50.9	-56.7	8.0	9.08e-02	0	48	0	10485760	64	7047
2026-01-03 06:55:46.03	90.59	4.97	-50.4	-55.2	9.6	1.40e-02	0	48	0	17825792	63	6286
2026-01-03 06:55:49.98	90.33	5.22	-50.3	-54.9	9.9	9.22e-03	0	49	0	25165824	63	6093
2026-01-03 06:55:53.94	90.07	5.48	-50.6	-55.5	9.4	1.23e-02	0	49	0	32505856	63	6506
2026-01-03 06:55:57.90	89.81	5.74	-50.0	-54.0	10.9	3.13e-03	0	49	0	39845888	63	5518
2026-01-03 06:56:01.86	89.54	6.01	-49.9	-53.6	11.4	8.24e-04	0	50	0	47185920	62	5544
2026-01-03 06:56:05.81	89.26	6.27	-49.8	-53.5	11.5	7.29e-04	0	50	0	54525952	62	5467
2026-01-03 06:56:09.75	88.98	6.54	-49.9	-53.7	11.2	1.26e-03	0	50	0	61865984	62	5651
2026-01-03 06:56:13.72	88.70	6.81	-50.1	-53.9	11.1	1.87e-03	0	50	0	69206016	62	5764
2026-01-03 06:56:17.66	88.41	7.08	-49.9	-53.5	11.6	6.65e-04	0	50	0	76546048	62	5510
2026-01-03 06:56:21.63	88.11	7.35	-49.6	-53.1	12.0	3.29e-04	0	50	0	83886080	62	5251
2026-01-03 06:56:25.59	87.80	7.63	-49.6	-52.9	12.3	1.91e-04	0	51	0	92274688	62	5125
2026-01-03 06:56:29.54	87.49	7.91	-49.4	-52.6	12.5	9.84e-05	0	51	0	99614720	62	4983
2026-01-03 06:56:33.48	87.18	8.18	-49.5	-52.6	12.6	1.03e-04	0	51	0	106954752	61	5238
2026-01-03 06:56:37.45	86.86	8.47	-49.6	-52.7	12.5	1.31e-04	0	51	0	114294784	61	5317
2026-01-03 06:56:41.43	86.53	8.75	-49.4	-52.3	12.9	4.65e-05	0	51	0	121634816	61	5097
2026-01-03 06:56:45.39	86.19	9.04	-49.2	-52.2	13.1	3.43e-05	0	51	0	128974848	61	5012
2026-01-03 06:56:49.35	85.85	9.33	-49.3	-52.1	13.2	2.21e-05	0	52	0	136314880	61	4971
2026-01-03 06:56:53.31	85.50	9.62	-49.2	-52.1	13.3	2.21e-05	0	52	0	143654912	61	4937
2026-01-03 06:56:57.27	85.14	9.92	-49.1	-51.9	13.4	1.29e-05	0	52	0	150994944	61	4855
2026-01-03 06:57:01.22	84.78	10.21	-49.3	-52.1	13.2	2.21e-05	0	52	0	158334976	61	4979
2026-01-03 06:57:05.18	84.41	10.51	-49.2	-52.0	13.4	2.28e-05	0	52	0	165675008	61	4901
2026-01-03 06:57:09.15	84.03	10.81	-49.1	-52.0	13.4	1.44e-05	0	52	0	173015040	61	4897
2026-01-03 06:57:13.11	83.64	11.12	-49.2	-52.0	13.4	9.10e-06	0	52	0	180355072	61	4895
2026-01-03 06:57:17.07	83.24	11.42	-49.4	-52.2	13.2	1.44e-05	0	52	0	188743680	61	5011
2026-01-03 06:57:21.03	82.84	11.73	-49.2	-52.2	13.2	2.59e-05	0	53	0	196083712	61	5008
2026-01-03 06:57:24.99	82.42	12.04	-49.3	-52.1	13.3	1.90e-05	0	53	0	203423744	61	4965
2026-01-03 06:57:28.95	82.00	12.36	-49.1	-51.8	13.7	6.10e-06	0	53	0	210763776	61	4760
2026-01-03 06:57:32.89	81.57	12.67	-49.2	-51.9	13.5	1.83e-05	0	53	0	218103808	61	4849
2026-01-03 06:57:36.85	81.13	12.99	-49.2	-51.8	13.7	5.30e-06	0	53	0	225443840	61	4796
2026-01-03 06:57:40.80	80.67	13.31	-49.2	-52.0	13.5	8.30e-06	0	53	0	232783872	61	4918
2026-01-03 06:57:44.75	80.21	13.63	-49.2	-51.8	13.7	6.10e-06	0	53	0	240123904	61	4798
2026-01-03 06:57:48.70	79.74	13.96	-49.1	-51.6	13.9	3.80e-06	0	53	0	247463936	61	4685
2026-01-03 06:57:52.64	79.26	14.29	-49.0	-51.7	13.9	5.30e-06	0	53	0	254803968	61	4706
2026-01-03 06:57:56.60	78.76	14.62	-48.9	-51.5	14.0	3.00e-06	0	54	0	262144000	61	4624
2026-01-03 06:58:00.57	78.26	14.95	-49.1	-51.6	13.9	5.30e-06	0	53	0	269484032	60	4978
2026-01-03 06:58:04.51	77.74	15.28	-49.0	-51.5	14.0	2.20e-06	0	54	0	276824064	60	4911
2026-01-03 06:58:08.46	77.21	15.62	-48.8	-51.2	14.3	1.50e-06	0	54	0	284164096	60	4747
2026-01-03 06:58:12.41	76.67	15.96	-48.7	-51.1	14.5	0.00e+00	0	53	0	291504128	60	4695
2026-01-03 06:58:16.38	76.12	16.30	-48.7	-51.1	14.6	0.00e+00	0	54	0	299892736	60	4655
2026-01-03 06:58:20.35	75.55	16.64	-48.6	-50.8	14.8	0.00e+00	0	54	0	307232768	60	4538
2026-01-03 06:58:24.31	74.97	16.99	-48.3	-50.4	15.2	0.00e+00	0	54	0	314572800	59	4570
2026-01-03 06:58:28.26	74.37	17.33	-48.4	-50.6	15.0	0.00e+00	0	54	0	321912832	59	4703
2026-01-03 06:58:32.21	73.76	17.68	-48.4	-50.6	15.1	0.00e+00	0	54	0	329252864	59	4677
2026-01-03 06:58:36.18	73.14	18.03	-48.3	-50.5	15.1	0.00e+00	0	54	0	336592896	59	4650
2026-01-03 06:58:40.14	72.50	18.38	-48.8	-51.0	14.7	0.00e+00	0	54	0	343932928	59	4900
2026-01-03 06:58:44.10	71.85	18.74	-48.8	-51.1	14.6	0.00e+00	0	54	0	351272960	59	4936
2026-01-03 06:58:48.05	71.18	19.09	-48.8	-51.2	14.5	2.20e-06	0	54	0	358612992	59	5004
2026-01-03 06:58:52.01	70.49	19.44	-49.0	-51.4	14.3	7.00e-07	0	54	0	365953024	59	5142
2026-01-03 06:58:55.97	69.79	19.80	-48.9	-51.4	14.3	1.50e-06	0	55	0	373293056	59	5126
2026-01-03 06:58:59.93	69.07	20.16	-48.8	-51.1	14.6	0.00e+00	0	54	0	381681664	59	4966
2026-01-03 06:59:03.87	68.34	20.51	-49.0	-51.3	14.4	7.00e-07	0	55	0	389021696	59	5078
2026-01-03 06:59:07.84	67.59	20.87	-48.7	-51.1	14.6	0.00e+00	0	54	0	396361728	60	4669
2026-01-03 06:59:11.81	66.82	21.22	-48.5	-50.8	14.9	0.00e+00	0	55	0	403701760	60	4504
2026-01-03 06:59:15.76	66.03	21.58	-48.5	-50.6	15.0	0.00e+00	0	55	0	411041792	59	4704
2026-01-03 06:59:19.72	65.22	21.93	-48.5	-50.7	15.0	7.00e-07	0	55	0	418381824	59	4713
2026-01-03 06:59:23.65	64.40	22.28	-48.4	-50.6	15.1	0.00e+00	0	55	0	425721856	59	4684
2026-01-03 06:59:27.60	63.56	22.63	-48.0	-50.0	15.7	0.00e+00	0	55	0	433061888	59	4345
2026-01-03 06:59:31.55	62.70	22.97	-48.0	-49.8	16.0	0.00e+00	0	55	0	440401920	58	4513
2026-01-03 06:59:35.51	61.82	23.32	-47.9	-49.8	16.0	0.00e+00	0	55	0	447741952	58	4505
2026-01-03 06:59:39.46	60.92	23.66	-47.8	-49.7	16.1	0.00e+00	0	55	0	455081984	58	4444
2026-01-03 06:59:43.43	59.99	24.00	-47.8	-49.6	16.1	0.00e+00	0	55	0	462422016	58	4440
2026-01-03 06:59:47.39	59.05	24.34	-47.7	-49.5	16.3	0.00e+00	0	55	0	469762048	58	4360
2026-01-03 06:59:51.37	58.08	24.67	-48.0	-49.9	15.9	0.00e+00	0	55	0	478150656	58	4571
2026-01-03 06:59:55.31	57.10	24.99	-48.1	-49.9	15.8	0.00e+00	0	55	0	484442112	58	4596
2026-01-03 06:59:59.26	56.10	25.31	-47.9	-49.7	16.1	0.00e+00	0	55	0	492830720	58	4475
2026-01-03 07:00:03.22	55.07	25.63	-48.1	-50.0	15.8	0.00e+00	0	56	0	500170752	58	4637
2026-01-03 07:00:07.18	54.02	25.94	-48.2	-50.1	15.7	0.00e+00	0	55	0	507510784	58	4695
2026-01-03 07:00:11.14	52.96	26.24	-48.3	-50.3	15.5	0.00e+00	0	55	0	514850816	58	4790
2026-01-03 07:00:15.10	51.87	26.53	-48.1	-50.0	15.8	0.00e+00	0	55	0	522190848	58	4637
2026-01-03 07:00:19.06	50.76	26.81	-48.2	-50.2	15.5	0.00e+00	0	55	0	529530880	58	4743
2026-01-03 07:00:23.01	49.64	27.09	-47.9	-49.7	16.1	0.00e+00	0	55	0	536870912	58	4487
2026-01-03 07:00:26.98	48.49	27.35	-48.1	-49.9	15.9	0.00e+00	0	55	0	544210944	58	4588
2026-01-03 07:00:30.93	47.33	27.61	-48.2	-50.1	15.7	0.00e+00	0	55	0	551550976	58	4685
2026-01-03 07:00:34.89	46.15	27.85	-48.5	-50.6	15.2	0.00e+00	0	55	0	558891008	58	4968
2026-01-03 07:00:38.83	44.95	28.08	-48.3	-50.4	15.4	0.00e+00	0	56	0	566231040	59	4592
2026-01-03 07:00:42.78	43.74	28.30	-48.7	-50.8	15.0	0.00e+00	0	56	0	573571072	59	4801
2026-01-03 07:00:46.73	42.51	28.50	-49.0	-51.5	14.3	7.00e-07	0	55	0	580911104	60	4872
2026-01-03 07:00:50.68	41.26	28.70	-48.8	-51.1	14.7	7.00e-07	0	55	0	589299712	60	4688
2026-01-03 07:00:54.64	40.00	28.88	-48.9	-51.3	14.5	0.00e+00	0	56	0	596639744	60	4780
2026-01-03 07:00:58.60	38.72	29.04	-49.0	-51.3	14.5	0.00e+00	0	56	0	603979776	60	4808
2026-01-03 07:01:02.56	37.43	29.19	-49.0	-51.3	14.5	7.00e-07	0	56	0	611319808	60	4775
2026-01-03 07:01:06.50	36.14	29.32	-48.9	-51.2	14.6	7.00e-07	0	56	0	618659840	60	4754
2026-01-03 07:01:10.45	34.83	29.44	-49.0	-51.4	14.4	0.00e+00	0	56	0	625999872	60	4858
2026-01-03 07:01:14.39	33.52	29.54	-49.5	-52.2	13.6	1.14e-05	0	56	0	633339904	60	5316
2026-01-03 07:01:18.36	32.18	29.62	-49.7	-52.5	13.3	2.05e-05	0	56	0	640679936	61	5184
2026-01-03 07:01:22.34	30.84	29.69	-49.6	-52.3	13.5	6.80e-06	0	56	0	648019968	61	5043
2026-01-03 07:01:26.29	29.51	29.74	-49.6	-52.4	13.4	2.13e-05	0	56	0	655360000	61	5154
2026-01-03 07:01:30.22	28.18	29.77	-49.5	-52.2	13.5	6.10e-06	0	56	0	662700032	61	5029
2026-01-03 07:01:34.18	26.83	29.78	-49.4	-52.1	13.7	9.10e-06	0	56	0	670040064	61	4950
2026-01-03 07:01:38.14	25.49	29.78	-49.4	-52.0	13.7	4.50e-06	0	56	0	677380096	61	4895
2026-01-03 07:01:42.10	24.14	29.76	-49.2	-51.7	14.0	3.00e-06	0	56	0	684720128	61	4735
2026-01-03 07:01:46.06	22.80	29.72	-49.3	-51.9	13.8	2.20e-06	0	56	0	693108736	61	4852
2026-01-03 07:01:50.01	21.47	29.66	-48.8	-51.2	14.4	7.00e-07	0	56	0	700448768	60	4710
2026-01-03 07:01:53.98	20.14	29.59	-49.1	-51.8	13.6	8.30e-06	0	56	0	707788800	60	5068
2026-01-03 07:01:57.94	18.81	29.49	-49.0	-51.7	13.5	1.22e-05	0	56	0	715128832	60	4992
2026-01-03 07:02:01.88	17.50	29.39	-49.1	-52.1	12.9	2.67e-05	0	56	0	722468864	60	5259
2026-01-03 07:02:05.81	16.21	29.26	-50.3	-55.1	9.4	6.14e-03	0	56	0	729808896	62	6621
2026-01-03 07:02:09.77	14.91	29.12	-50.2	-55.5	8.8	3.34e-02	0	56	0	737148928	62	6908
2026-01-03 07:02:13.74	13.63	28.97	-50.0	-54.2	10.5	6.72e-03	0	56	0	744488960	62	5926
2026-01-03 07:02:17.70	12.36	28.80	-50.0	-53.5	11.8	1.06e-03	0	56	0	751828992	62	5500
2026-01-03 07:02:21.65	11.10	28.61	-49.9	-53.1	12.5	1.88e-04	0	56	0	759169024	62	5265
2026-01-03 07:02:25.61	9.86	28.42	-49.6	-52.5	13.1	4.27e-05	0	56	0	766509056	62	4915
2026-01-03 07:02:29.57	8.64	28.20	-49.3	-52.1	13.5	3.00e-06	0	56	0	773849088	61	4944
2026-01-03 07:02:33.53	7.43	27.98	-49.4	-52.5	13.1	3.58e-05	0	56	0	781189120	61	5178
2026-01-03 07:02:37.48	6.24	27.74	-49.8	-53.0	12.5	1.04e-04	0	56	0	789577728	61	5470
2026-01-03 07:02:41.44	5.07	27.49	-49.6	-52.5	13.1	3.81e-05	0	56	0	796917760	61	5184
2026-01-03 07:02:45.41	3.91	27.24	-50.0	-53.8	11.4	9.68e-04	0	56	0	804257792	62	5685
2026-01-03 07:02:49.35	2.78	26.97	-49.4	-52.2	13.5	1.98e-05	0	56	0	811597824	61	5001
2026-01-03 07:02:53.31	1.66	26.69	-49.2	-51.8	13.9	3.80e-06	0	57	0	818937856	61	4801
2026-01-03 07:02:57.27	0.57	26.40	-49.1	-51.7	14.0	3.00e-06	0	56	0	826277888	61	4735
2026-01-03 07:03:01.23	359.49	26.11	-49.0	-51.5	14.3	3.00e-06	0	56	0	833617920	61	4602
2026-01-03 07:03:05.19	358.44	25.80	-49.1	-51.5	14.2	2.20e-06	0	56	0	840957952	61	4624
2026-01-03 07:03:09.15	357.40	25.49	-48.4	-50.6	15.2	0.00e+00	0	56	0	848297984	60	4396
2026-01-03 07:03:13.10	356.39	25.18	-48.5	-50.5	15.2	0.00e+00	0	56	0	855638016	59	4640
2026-01-03 07:03:17.07	355.39	24.85	-48.0	-49.9	15.8	0.00e+00	0	56	0	862978048	59	4310
2026-01-03 07:03:21.03	354.42	24.53	-47.9	-49.8	15.9	0.00e+00	0	56	0	870318080	59	4257
2026-01-03 07:03:24.99	353.47	24.19	-47.8	-49.6	16.1	0.00e+00	0	56	0	877658112	58	4402
2026-01-03 07:03:28.94	352.54	23.86	-47.4	-49.0	16.7	0.00e+00	0	56	0	886046720	57	4384
2026-01-03 07:03:32.89	351.63	23.52	-47.5	-49.2	16.4	0.00e+00	0	57	0	893386752	57	4493
2026-01-03 07:03:36.85	350.73	23.18	-47.0	-48.6	17.0	0.00e+00	0	56	0	900726784	57	4187
2026-01-03 07:03:40.80	349.86	22.83	-46.9	-48.4	17.2	0.00e+00	0	56	0	908066816	56	4311
2026-01-03 07:03:44.77	349.01	22.48	-46.5	-47.9	17.7	0.00e+00	0	56	0	915406848	56	4081
2026-01-03 07:03:48.75	348.17	22.13	-46.3	-47.6	17.8	0.00e+00	0	57	0	922746880	55	4177
2026-01-03 07:03:52.69	347.36	21.78	-46.5	-47.9	17.6	0.00e+00	0	56	0	930086912	55	4297
2026-01-03 07:03:56.64	346.57	21.43	-45.9	-47.2	18.1	0.00e+00	0	57	0	937426944	55	4000
2026-01-03 07:04:00.60	345.79	21.07	-46.4	-47.8	17.6	0.00e+00	0	56	0	944766976	55	4287
2026-01-03 07:04:04.55	345.03	20.72	-46.8	-48.4	17.0	0.00e+00	0	56	0	952107008	55	4551
2026-01-03 07:04:08.52	344.28	20.36	-47.3	-49.0	16.5	0.00e+00	0	57	0	959447040	56	4627
2026-01-03 07:04:12.49	343.56	20.01	-47.2	-48.9	16.5	0.00e+00	0	57	0	966787072	57	4320
2026-01-03 07:04:16.43	342.85	19.65	-47.4	-49.4	15.7	0.00e+00	0	56	0	974127104	57	4555
2026-01-03 07:04:20.39	342.16	19.30	-48.8	-51.8	12.9	8.30e-06	0	57	0	982515712	59	5349
2026-01-03 07:04:24.34	341.48	18.95	-50.0	-55.1	9.1	2.61e-02	0	57	0	989855744	62	6586
2026-01-03 07:04:28.29	340.83	18.60	-50.0	-54.7	9.6	1.77e-02	0	57	0	997195776	62	6343
2026-01-03 07:04:32.24	340.18	18.25	-49.0	-52.0	13.0	8.31e-05	0	56	0	1004535808	61	4906
2026-01-03 07:04:36.19	339.55	17.90	-48.4	-50.7	14.6	0.00e+00	0	57	0	1011875840	59	4739
2026-01-03 07:04:40.15	338.94	17.55	-48.5	-50.9	14.5	7.00e-07	0	57	0	1019215872	59	4822
2026-01-03 07:04:44.12	338.34	17.20	-48.6	-50.9	14.5	1.50e-06	0	57	0	1026555904	59	4827
2026-01-03 07:04:48.07	337.75	16.86	-48.4	-50.5	15.0	0.00e+00	0	57	0	1033895936	59	4621
2026-01-03 07:04:52.03	337.18	16.51	-48.0	-50.0	15.5	0.00e+00	0	57	0	1041235968	59	4368
2026-01-03 07:04:55.98	336.62	16.17	-48.3	-50.5	15.0	0.00e+00	0	57	0	1048576000	59	4601
2026-01-03 07:04:59.94	336.07	15.83	-48.4	-50.7	14.8	0.00e+00	0	57	0	1055916032	59	4725
2026-01-03 07:05:03.89	335.54	15.50	-48.4	-50.6	14.9	0.00e+00	0	57	0	1063256064	59	4673
2026-01-03 07:05:07.83	335.02	15.16	-48.5	-50.7	14.8	0.00e+00	0	57	0	1070596096	59	4753
2026-01-03 07:05:11.77	334.51	14.83	-48.4	-50.7	14.7	0.00e+00	0	57	0	1077936128	59	4756
2026-01-03 07:05:15.73	334.01	14.50	-48.8	-51.2	14.3	0.00e+00	0	57	0	1086324736	59	5010
2026-01-03 07:05:19.70	333.52	14.17	-48.8	-51.2	14.3	3.00e-06	0	57	0	1093664768	59	5025
2026-01-03 07:05:23.65	333.04	13.84	-49.1	-51.7	13.8	3.80e-06	0	57	0	1101004800	60	5006
2026-01-03 07:05:27.60	332.58	13.52	-49.0	-51.6	13.9	7.60e-06	0	57	0	1108344832	60	4929
2026-01-03 07:05:31.54	332.12	13.20	-49.0	-51.6	13.9	6.10e-06	0	57	0	1115684864	60	4939
2026-01-03 07:05:35.51	331.68	12.88	-48.9	-51.4	14.1	1.50e-06	0	57	0	1123024896	60	4835
2026-01-03 07:05:39.47	331.24	12.56	-48.8	-51.3	14.1	2.20e-06	0	57	0	1130364928	60	4813
2026-01-03 07:05:43.41	330.82	12.25	-49.2	-52.0	13.4	1.52e-05	0	57	0	1137704960	60	5188
2026-01-03 07:05:47.36	330.40	11.94	-49.1	-51.7	13.7	7.60e-06	0	57	0	1145044992	60	5002
2026-01-03 07:05:51.33	329.99	11.63	-49.2	-51.9	13.5	9.90e-06	0	57	0	1152385024	60	5113
2026-01-03 07:05:55.29	329.59	11.32	-49.1	-51.8	13.5	6.10e-06	0	57	0	1159725056	60	5063
2026-01-03 07:05:59.24	329.20	11.02	-49.4	-52.4	12.9	2.13e-05	0	57	0	1167065088	60	5455
2026-01-03 07:06:03.20	328.82	10.72	-49.6	-52.7	12.6	7.55e-05	0	57	0	1174405120	60	5629
2026-01-03 07:06:07.16	328.44	10.42	-49.5	-52.5	12.7	5.49e-05	0	57	0	1181745152	60	5512
2026-01-03 07:06:11.13	328.07	10.12	-49.5	-52.6	12.7	9.23e-05	0	57	0	1190133760	61	5252
2026-01-03 07:06:15.08	327.71	9.82	-49.3	-52.3	13.0	3.66e-05	0	57	0	1197473792	61	5079
2026-01-03 07:06:19.02	327.36	9.53	-49.2	-52.2	13.1	2.67e-05	0	57	0	1204813824	61	4998
2026-01-03 07:06:22.98	327.02	9.24	-49.4	-52.4	12.8	5.95e-05	0	57	0	1212153856	61	5135
2026-01-03 07:06:26.94	326.68	8.95	-49.6	-52.9	12.3	1.53e-04	0	57	0	1219493888	61	5443
2026-01-03 07:06:30.86	326.35	8.67	-49.8	-53.1	12.0	3.58e-04	0	57	0	1226833920	61	5584
2026-01-03 07:06:34.81	326.03	8.39	-49.9	-53.5	11.6	7.26e-04	0	57	0	1234173952	61	5810
2026-01-03 07:06:38.76	325.71	8.11	-49.7	-53.2	11.9	3.90e-04	0	57	0	1241513984	61	5643
2026-01-03 07:06:42.72	325.40	7.83	-49.8	-53.4	11.6	6.85e-04	0	57	0	1248854016	61	5788
2026-01-03 07:06:46.68	325.10	7.55	-49.9	-53.7	11.3	9.98e-04	0	57	0	1256194048	61	5962
2026-01-03 07:06:50.63	324.80	7.28	-49.8	-53.7	11.3	1.16e-03	0	57	0	1263534080	61	5971
2026-01-03 07:06:54.59	324.50	7.01	-49.8	-53.6	11.4	9.47e-04	0	57	0	1270874112	61	5885
2026-01-03 07:06:58.55	324.22	6.74	-49.9	-53.6	11.3	1.04e-03	0	57	0	1278214144	61	5917
2026-01-03 07:07:02.51	323.93	6.47	-49.9	-53.7	11.2	1.41e-03	0	57	0	1285554176	61	5988
2026-01-03 07:07:06.47	323.66	6.20	-50.0	-53.8	11.1	1.57e-03	0	57	0	1293942784	61	6047
2026-01-03 07:07:10.43	323.39	5.94	-49.9	-54.0	10.8	2.27e-03	0	57	0	1301282816	61	6184
2026-01-03 07:07:14.39	323.12	5.68	-50.0	-54.0	10.8	2.45e-03	0	57	0	1308622848	62	5834
2026-01-03 07:07:18.36	322.86	5.42	-50.2	-54.5	10.3	3.91e-03	0	57	0	1315962880	62	6180
2026-01-03 07:07:22.33	322.60	5.16	-50.2	-54.7	10.0	6.86e-03	0	57	0	1323302912	62	6306
2026-01-03 07:07:26.29	322.35	4.90	-48.8	-62.6	3.8	1.49e+00	0	57	104	1326448640	60	17513
2026-01-03 07:07:30.24	322.10	4.65	-52.6	-66.5	3.8	1.49e+00	0	57	104	1326448640	67	18512
2026-01-03 07:07:34.19	321.86	4.40	-53.0	-66.8	3.8	1.49e+00	0	57	104	1326448640	67	19033
2026-01-03 07:07:38.15	321.62	4.15	-53.0	-66.9	3.8	1.49e+00	0	57	104	1326448640	67	19260
2026-01-03 07:07:42.11	321.39	3.90	-53.1	-67.0	3.8	1.49e+00	0	57	104	1326448640	68	18496
2026-01-03 07:07:46.07	321.16	3.65	-53.1	-67.1	3.8	1.49e+00	0	57	104	1326448640	68	18612
2026-01-03 07:07:50.02	320.93	3.41	-53.3	-67.1	3.8	1.49e+00	0	57	104	1326448640	68	18649
2026-01-03 07:07:53.97	320.71	3.16	-53.2	-67.1	3.8	1.49e+00	0	58	104	1326448640	68	18565
2026-01-03 07:07:57.94	320.49	2.92	-53.2	-67.1	3.8	1.49e+00	0	57	104	1326448640	68	18559

#Closed at: 2026-01-03 07:07:58
#Recorded file [1326 MB]: D:/Data/31026_260103_100724.dat