passes_logs/2026/01/03/R3.0SM8_Murmansk_STILSPACE/R3.0SM8_Murmansk_STILSPACE__20260103_013632_SUOMI_NPP_rec.log

#Pass ID: 20260103_013632_SUOMI NPP
#Satellite: SUOMI NPP
#Configuration: NPP
#almurnet v.1.7.20240730
#Start time: 2026-01-03 01:36:35

#Version: 2.2.20231116
#Station: R3.0SM8_Murmansk_STILSPACE
#Location: 33.092731 lon 68.902999 lat
#TLE: 1 37849U 11061A   26001.07732418  .00000182  00000+0  10735-3 0  9990
#TLE: 2 37849  98.7795 303.2470 0002580  87.2016 272.9455 14.19520779734739

#Time	Az	El	Level	Level2	SNR	BER	BlckErr	Temp	State	Recorded	gain1	gain2
2026-01-03 01:36:35.06	27.94	3.17	-53.0	-66.9	3.8	1.49e+00	0	46	0	0	68	18259
2026-01-03 01:36:39.01	27.87	3.43	-52.2	-65.5	3.8	1.49e+00	0	47	104	0	67	16327
2026-01-03 01:36:42.99	27.79	3.70	-51.8	-61.9	4.3	1.38e+00	0	47	0	0	66	11496
2026-01-03 01:36:46.94	27.71	3.96	-51.3	-59.1	5.8	5.38e-01	0	47	0	7340032	65	8834
2026-01-03 01:36:50.89	27.63	4.23	-50.7	-56.3	8.3	7.43e-02	0	48	0	14680064	64	6749
2026-01-03 01:36:54.85	27.54	4.50	-50.0	-54.1	10.6	3.93e-03	0	48	0	22020096	63	5579
2026-01-03 01:36:58.81	27.46	4.78	-49.4	-52.8	12.0	3.20e-04	0	48	0	29360128	61	5342
2026-01-03 01:37:02.77	27.37	5.06	-49.0	-52.1	12.7	7.32e-05	0	48	0	36700160	61	4936
2026-01-03 01:37:06.73	27.28	5.34	-49.0	-52.1	12.8	6.63e-05	0	49	0	44040192	61	4939
2026-01-03 01:37:10.69	27.18	5.62	-49.0	-52.1	12.9	5.11e-05	0	49	0	51380224	61	4933
2026-01-03 01:37:14.66	27.09	5.91	-48.8	-51.6	13.4	1.60e-05	0	49	0	58720256	60	4931
2026-01-03 01:37:18.61	26.99	6.20	-48.6	-51.2	13.8	3.00e-06	0	49	0	66060288	60	4731
2026-01-03 01:37:22.58	26.89	6.49	-48.5	-51.1	13.9	1.50e-06	0	50	0	73400320	60	4678
2026-01-03 01:37:26.54	26.79	6.79	-48.5	-51.0	14.1	3.80e-06	0	50	0	80740352	59	4885
2026-01-03 01:37:30.48	26.69	7.09	-48.7	-51.2	13.9	3.80e-06	0	50	0	88080384	59	5038
2026-01-03 01:37:34.44	26.58	7.39	-48.7	-51.4	13.8	2.20e-06	0	50	0	95420416	59	5102
2026-01-03 01:37:38.40	26.47	7.70	-48.5	-51.1	14.1	3.80e-06	0	50	0	103809024	60	4666
2026-01-03 01:37:42.35	26.36	8.01	-48.3	-50.6	14.6	7.00e-07	0	51	0	111149056	59	4673
2026-01-03 01:37:46.30	26.25	8.32	-48.3	-50.6	14.6	0.00e+00	0	51	0	118489088	59	4686
2026-01-03 01:37:50.27	26.13	8.64	-48.2	-50.5	14.8	0.00e+00	0	51	0	125829120	59	4612
2026-01-03 01:37:54.23	26.01	8.96	-48.2	-50.4	14.7	7.00e-07	0	51	0	133169152	59	4591
2026-01-03 01:37:58.19	25.89	9.29	-48.4	-50.8	14.5	0.00e+00	0	51	0	140509184	59	4775
2026-01-03 01:38:02.16	25.76	9.62	-48.3	-50.6	14.7	0.00e+00	0	51	0	147849216	59	4679
2026-01-03 01:38:06.11	25.63	9.95	-48.0	-50.1	15.2	0.00e+00	0	51	0	155189248	59	4413
2026-01-03 01:38:10.09	25.50	10.29	-47.7	-49.7	15.6	0.00e+00	0	52	0	162529280	58	4452
2026-01-03 01:38:14.05	25.36	10.63	-47.6	-49.5	15.8	0.00e+00	0	52	0	169869312	58	4387
2026-01-03 01:38:18.02	25.22	10.98	-47.9	-49.9	15.5	0.00e+00	0	52	0	177209344	58	4576
2026-01-03 01:38:21.98	25.08	11.33	-47.7	-49.7	15.7	0.00e+00	0	52	0	185597952	58	4443
2026-01-03 01:38:25.94	24.93	11.69	-47.4	-49.2	16.1	0.00e+00	0	52	0	192937984	58	4216
2026-01-03 01:38:29.89	24.78	12.05	-47.1	-48.8	16.6	0.00e+00	0	52	0	200278016	57	4262
2026-01-03 01:38:33.83	24.62	12.42	-47.1	-48.7	16.7	0.00e+00	0	52	0	207618048	56	4492
2026-01-03 01:38:37.80	24.46	12.79	-47.3	-49.1	16.3	0.00e+00	0	53	0	214958080	56	4669
2026-01-03 01:38:41.77	24.29	13.17	-47.5	-49.2	16.2	0.00e+00	0	53	0	222298112	56	4757
2026-01-03 01:38:45.72	24.13	13.56	-47.6	-49.5	15.9	0.00e+00	0	53	0	229638144	57	4648
2026-01-03 01:38:49.68	23.95	13.95	-47.7	-49.5	15.9	0.00e+00	0	53	0	236978176	57	4641
2026-01-03 01:38:53.64	23.77	14.34	-47.4	-49.2	16.2	0.00e+00	0	53	0	244318208	57	4483
2026-01-03 01:38:57.62	23.58	14.75	-47.6	-49.5	16.0	0.00e+00	0	53	0	251658240	57	4615
2026-01-03 01:39:01.56	23.39	15.15	-47.7	-49.5	15.9	0.00e+00	0	53	0	258998272	57	4624
2026-01-03 01:39:05.52	23.20	15.57	-47.2	-48.9	16.6	0.00e+00	0	53	0	266338304	57	4310
2026-01-03 01:39:09.49	22.99	15.99	-47.2	-48.9	16.6	0.00e+00	0	53	0	273678336	57	4293
2026-01-03 01:39:13.45	22.79	16.42	-47.3	-49.0	16.5	0.00e+00	0	53	0	282066944	57	4362
2026-01-03 01:39:17.39	22.57	16.86	-47.1	-48.7	16.7	0.00e+00	0	53	0	289406976	57	4241
2026-01-03 01:39:21.35	22.35	17.30	-47.1	-48.7	16.8	0.00e+00	0	54	0	296747008	56	4461
2026-01-03 01:39:25.30	22.12	17.75	-47.2	-48.9	16.6	0.00e+00	0	54	0	304087040	56	4590
2026-01-03 01:39:29.27	21.88	18.21	-47.3	-49.0	16.6	0.00e+00	0	54	0	311427072	56	4602
2026-01-03 01:39:33.24	21.64	18.68	-47.5	-49.3	16.3	0.00e+00	0	54	0	318767104	57	4517
2026-01-03 01:39:37.21	21.38	19.16	-47.8	-49.6	16.0	0.00e+00	0	54	0	326107136	57	4696
2026-01-03 01:39:41.16	21.12	19.65	-47.5	-49.2	16.4	0.00e+00	0	54	0	333447168	57	4484
2026-01-03 01:39:45.13	20.85	20.14	-47.1	-48.6	17.0	0.00e+00	0	54	0	340787200	57	4173
2026-01-03 01:39:49.08	20.57	20.64	-47.2	-48.8	16.8	0.00e+00	0	54	0	348127232	56	4528
2026-01-03 01:39:53.03	20.28	21.15	-47.6	-49.3	16.3	0.00e+00	0	54	0	355467264	57	4517
2026-01-03 01:39:56.99	19.98	21.68	-48.1	-50.1	15.5	0.00e+00	0	54	0	362807296	58	4694
2026-01-03 01:40:00.95	19.67	22.21	-48.0	-50.0	15.6	0.00e+00	0	54	0	370147328	58	4632
2026-01-03 01:40:04.91	19.35	22.75	-47.7	-49.6	16.1	0.00e+00	0	54	0	378535936	58	4394
2026-01-03 01:40:08.87	19.01	23.31	-47.7	-49.7	16.0	0.00e+00	0	55	0	385875968	58	4458
2026-01-03 01:40:12.85	18.66	23.88	-48.1	-50.1	15.6	0.00e+00	0	54	0	393216000	58	4659
2026-01-03 01:40:16.81	18.30	24.45	-48.4	-50.6	15.0	7.00e-07	0	55	0	400556032	58	4983
2026-01-03 01:40:20.75	17.93	25.04	-48.8	-51.1	14.6	7.00e-07	0	55	0	407896064	59	4956
2026-01-03 01:40:24.70	17.54	25.63	-48.6	-50.9	14.7	1.50e-06	0	55	0	415236096	59	4858
2026-01-03 01:40:28.67	17.13	26.25	-48.7	-51.0	14.6	0.00e+00	0	55	0	422576128	59	4904
2026-01-03 01:40:32.62	16.71	26.87	-48.4	-50.6	14.9	0.00e+00	0	55	0	429916160	59	4703
2026-01-03 01:40:36.59	16.27	27.51	-48.9	-51.5	13.7	1.50e-06	0	55	0	437256192	59	5186
2026-01-03 01:40:40.55	15.81	28.16	-49.5	-53.1	11.6	3.37e-04	0	55	0	444596224	60	5916
2026-01-03 01:40:44.51	15.33	28.82	-50.7	-57.2	7.1	1.30e-01	0	55	0	451936256	63	7901
2026-01-03 01:40:48.47	14.83	29.50	-50.8	-56.6	7.9	1.00e-01	0	55	0	459276288	63	7447
2026-01-03 01:40:52.44	14.31	30.19	-49.9	-53.6	11.3	2.62e-03	0	55	0	467664896	62	5586
2026-01-03 01:40:56.40	13.76	30.90	-49.7	-52.9	12.6	1.50e-04	0	55	0	475004928	62	5154
2026-01-03 01:41:00.36	13.19	31.62	-50.0	-53.2	12.4	3.41e-04	0	55	0	482344960	62	5316
2026-01-03 01:41:04.33	12.59	32.35	-49.1	-51.6	14.1	6.10e-06	0	55	0	489684992	61	4692
2026-01-03 01:41:08.27	11.97	33.10	-49.1	-51.7	14.0	1.50e-06	0	55	0	497025024	60	4993
2026-01-03 01:41:12.22	11.31	33.86	-49.4	-52.2	13.6	3.81e-05	0	55	0	504365056	61	4991
2026-01-03 01:41:16.18	10.62	34.64	-49.1	-51.6	14.1	0.00e+00	0	56	0	511705088	61	4678
2026-01-03 01:41:20.13	9.90	35.43	-49.7	-52.8	12.8	1.62e-04	0	55	0	519045120	62	5088
2026-01-03 01:41:24.08	9.14	36.24	-49.8	-53.4	12.3	2.24e-04	0	55	0	526385152	62	5423
2026-01-03 01:41:28.04	8.34	37.06	-51.1	-56.5	8.9	1.45e-02	0	56	0	533725184	64	6951
2026-01-03 01:41:32.00	7.50	37.89	-50.5	-54.6	10.9	4.69e-03	0	56	0	541065216	64	5592
2026-01-03 01:41:35.97	6.60	38.74	-49.4	-52.2	13.4	1.37e-05	0	56	0	548405248	62	4756
2026-01-03 01:41:39.93	5.67	39.61	-49.5	-52.6	13.2	1.37e-05	0	56	0	555745280	61	5229
2026-01-03 01:41:43.90	4.67	40.48	-49.4	-52.3	13.5	1.04e-04	0	56	0	564133888	62	4795
2026-01-03 01:41:47.85	3.63	41.37	-50.1	-53.6	12.1	1.43e-04	0	56	0	571473920	62	5561
2026-01-03 01:41:51.82	2.52	42.27	-50.4	-54.1	11.6	8.38e-04	0	56	0	578813952	63	5579
2026-01-03 01:41:55.77	1.35	43.17	-50.2	-53.7	12.1	3.20e-04	0	56	0	586153984	63	5299
2026-01-03 01:41:59.74	0.11	44.09	-49.7	-52.7	13.1	1.52e-05	0	56	0	593494016	61	5305
2026-01-03 01:42:03.71	358.79	45.01	-49.8	-52.7	13.1	4.73e-05	0	56	0	600834048	62	5037
2026-01-03 01:42:07.67	357.40	45.93	-49.5	-52.5	13.3	1.37e-05	0	56	0	608174080	61	5161
2026-01-03 01:42:11.62	355.92	46.85	-49.7	-52.8	12.9	1.67e-05	0	56	0	615514112	61	5396
2026-01-03 01:42:15.58	354.35	47.77	-48.8	-51.3	14.5	7.00e-07	0	56	0	622854144	60	4768
2026-01-03 01:42:19.54	352.69	48.69	-49.4	-52.4	13.3	6.10e-06	0	56	0	630194176	60	5438
2026-01-03 01:42:23.49	350.93	49.59	-49.3	-52.1	13.5	9.10e-06	0	56	0	637534208	60	5275
2026-01-03 01:42:27.45	349.05	50.49	-48.3	-50.5	15.3	0.00e+00	0	56	0	644874240	59	4600
2026-01-03 01:42:31.40	347.06	51.36	-47.8	-49.7	16.0	0.00e+00	0	56	0	652214272	58	4467
2026-01-03 01:42:35.36	344.95	52.21	-47.6	-49.5	16.2	0.00e+00	0	56	0	660602880	57	4615
2026-01-03 01:42:39.32	342.72	53.04	-47.5	-49.3	16.5	0.00e+00	0	56	0	667942912	57	4497
2026-01-03 01:42:43.28	340.36	53.83	-48.8	-51.3	14.6	0.00e+00	0	56	0	675282944	59	5058
2026-01-03 01:42:47.23	337.88	54.58	-48.7	-51.2	14.7	7.00e-07	0	56	0	682622976	60	4725
2026-01-03 01:42:51.19	335.25	55.28	-46.9	-48.5	17.2	0.00e+00	0	56	0	689963008	56	4341
2026-01-03 01:42:55.15	332.50	55.93	-47.5	-49.2	16.5	0.00e+00	0	56	0	697303040	58	4241
2026-01-03 01:42:59.12	329.62	56.52	-49.6	-52.9	12.9	2.20e-06	0	56	0	704643072	60	5741
2026-01-03 01:43:03.09	326.61	57.04	-47.4	-49.3	16.4	0.00e+00	0	57	0	711983104	57	4518
2026-01-03 01:43:07.05	323.51	57.49	-48.1	-50.2	15.5	0.00e+00	0	56	0	719323136	58	4753
2026-01-03 01:43:11.01	320.31	57.86	-46.9	-48.4	17.2	0.00e+00	0	56	0	726663168	56	4330
2026-01-03 01:43:14.96	317.04	58.14	-48.5	-51.0	14.8	0.00e+00	0	56	0	734003200	58	5164
2026-01-03 01:43:18.92	313.70	58.33	-46.0	-47.4	18.1	0.00e+00	0	56	0	742391808	55	4080
2026-01-03 01:43:22.89	310.32	58.43	-46.7	-48.2	17.4	0.00e+00	0	56	0	749731840	55	4482
2026-01-03 01:43:26.85	306.93	58.44	-45.7	-46.9	18.7	0.00e+00	0	56	0	757071872	54	4067
2026-01-03 01:43:30.79	303.57	58.36	-46.1	-47.6	18.0	0.00e+00	0	57	0	764411904	54	4404
2026-01-03 01:43:34.75	300.22	58.18	-45.2	-46.4	19.0	0.00e+00	0	56	0	771751936	53	4057
2026-01-03 01:43:38.71	296.93	57.91	-45.2	-46.4	19.0	0.00e+00	0	57	0	779091968	53	4089
2026-01-03 01:43:42.67	293.71	57.56	-45.9	-47.2	18.3	0.00e+00	0	57	0	786432000	53	4462
2026-01-03 01:43:46.62	290.60	57.13	-46.8	-48.3	17.3	0.00e+00	0	57	0	793772032	56	4278
2026-01-03 01:43:50.57	287.58	56.62	-47.2	-48.9	16.9	0.00e+00	0	57	0	801112064	56	4579
2026-01-03 01:43:54.53	284.68	56.05	-47.6	-49.4	16.4	0.00e+00	0	56	0	808452096	57	4567
2026-01-03 01:43:58.49	281.90	55.41	-49.2	-51.9	13.9	3.96e-05	0	56	0	815792128	61	4861
2026-01-03 01:44:02.46	279.25	54.71	-47.6	-49.3	16.6	0.00e+00	0	57	0	823132160	57	4496
2026-01-03 01:44:06.42	276.73	53.97	-45.9	-47.2	18.4	0.00e+00	0	57	0	830472192	54	4209
2026-01-03 01:44:10.38	274.34	53.18	-47.6	-49.4	16.3	0.00e+00	0	57	0	838860800	57	4568
2026-01-03 01:44:14.35	272.07	52.36	-47.1	-48.7	17.1	0.00e+00	0	57	0	846200832	57	4223
2026-01-03 01:44:18.30	269.95	51.51	-47.8	-49.8	16.0	0.00e+00	0	57	0	853540864	57	4786
2026-01-03 01:44:22.27	267.93	50.64	-49.2	-51.9	13.9	8.30e-06	0	57	0	860880896	60	5146
2026-01-03 01:44:26.22	266.03	49.75	-49.1	-51.7	14.2	7.00e-07	0	57	0	868220928	59	5331
2026-01-03 01:44:30.17	264.25	48.84	-48.6	-51.0	14.7	1.50e-06	0	57	0	875560960	60	4606
2026-01-03 01:44:34.13	262.56	47.92	-49.5	-52.2	13.7	6.10e-06	0	57	0	882900992	61	5041
2026-01-03 01:44:38.10	260.97	47.00	-49.7	-52.5	13.3	2.05e-05	0	57	0	890241024	62	4910
2026-01-03 01:44:42.05	259.47	46.08	-51.0	-55.6	10.0	7.28e-03	0	57	0	897581056	64	6212
2026-01-03 01:44:46.03	258.06	45.15	-51.2	-55.8	9.9	7.29e-03	0	57	0	904921088	64	6349
2026-01-03 01:44:49.99	256.73	44.23	-48.6	-50.9	14.8	2.20e-06	0	57	0	912261120	60	4548
2026-01-03 01:44:53.94	255.48	43.31	-48.2	-50.2	15.6	0.00e+00	0	57	0	919601152	58	4725
2026-01-03 01:44:57.90	254.29	42.40	-49.9	-53.1	12.7	3.58e-05	0	57	0	926941184	61	5541
2026-01-03 01:45:01.87	253.17	41.50	-49.8	-52.8	13.0	9.68e-05	0	57	0	935329792	62	5052
2026-01-03 01:45:05.84	252.11	40.61	-49.7	-52.6	13.1	8.16e-05	0	57	0	942669824	62	4977
2026-01-03 01:45:09.80	251.10	39.73	-50.3	-54.1	11.7	2.01e-04	0	57	0	950009856	62	5869
2026-01-03 01:45:13.76	250.16	38.86	-51.0	-55.6	10.1	3.27e-03	0	57	0	957349888	63	6626
2026-01-03 01:45:17.72	249.26	38.01	-50.5	-54.1	11.7	4.45e-04	0	57	0	964689920	63	5558
2026-01-03 01:45:21.66	248.41	37.17	-50.9	-55.1	10.6	3.42e-03	0	57	0	972029952	63	6269
2026-01-03 01:45:25.62	247.60	36.34	-50.8	-55.1	10.5	4.91e-03	0	57	0	979369984	64	5898
2026-01-03 01:45:29.56	246.83	35.54	-49.9	-53.0	12.8	9.68e-05	0	57	0	986710016	63	4904
2026-01-03 01:45:33.52	246.10	34.74	-50.6	-54.4	11.3	1.30e-03	0	57	0	994050048	63	5770
2026-01-03 01:45:37.48	245.40	33.96	-50.6	-54.7	11.0	1.19e-03	0	57	0	1001390080	63	5992
2026-01-03 01:45:41.45	244.74	33.19	-49.2	-52.0	13.8	4.50e-06	0	57	0	1008730112	61	4890
2026-01-03 01:45:45.42	244.10	32.43	-49.6	-52.6	13.2	5.56e-05	0	57	0	1016070144	62	4954
2026-01-03 01:45:49.39	243.49	31.69	-48.6	-50.8	15.0	0.00e+00	0	57	0	1024458752	59	4799
2026-01-03 01:45:53.35	242.92	30.97	-49.3	-52.0	13.7	1.52e-05	0	57	0	1031798784	61	4896
2026-01-03 01:45:57.31	242.37	30.26	-49.0	-51.4	14.4	0.00e+00	0	57	0	1039138816	59	5117
2026-01-03 01:46:01.27	241.84	29.56	-48.7	-51.1	14.7	7.00e-07	0	57	0	1046478848	60	4676
2026-01-03 01:46:05.23	241.33	28.88	-48.9	-51.3	14.5	7.00e-07	0	57	0	1053818880	60	4790
2026-01-03 01:46:09.20	240.85	28.21	-49.6	-52.5	13.2	5.34e-05	0	57	0	1061158912	61	5201
2026-01-03 01:46:13.15	240.39	27.56	-49.3	-52.1	13.7	7.00e-07	0	57	0	1068498944	61	4928
2026-01-03 01:46:17.11	239.94	26.92	-49.0	-51.4	14.3	2.20e-06	0	57	0	1075838976	61	4591
2026-01-03 01:46:21.07	239.51	26.29	-48.1	-50.0	15.8	0.00e+00	0	57	0	1083179008	59	4346
2026-01-03 01:46:25.03	239.10	25.67	-48.9	-51.3	14.6	0.00e+00	0	57	0	1090519040	59	5050
2026-01-03 01:46:29.00	238.71	25.07	-49.5	-52.2	13.6	1.44e-05	0	57	0	1097859072	61	5020
2026-01-03 01:46:32.94	238.33	24.48	-49.4	-52.0	13.8	2.20e-06	0	57	0	1105199104	61	4913
2026-01-03 01:46:36.90	237.96	23.90	-49.7	-52.5	13.4	1.52e-05	0	57	0	1112539136	61	5206
2026-01-03 01:46:40.85	237.61	23.34	-49.2	-51.7	14.1	7.00e-07	0	57	0	1120927744	61	4745
2026-01-03 01:46:44.81	237.28	22.78	-49.0	-51.4	14.4	1.50e-06	0	57	0	1128267776	60	4821
2026-01-03 01:46:48.76	236.95	22.23	-49.1	-51.5	14.3	1.50e-06	0	57	0	1135607808	60	4879
2026-01-03 01:46:52.72	236.63	21.70	-48.4	-50.3	15.5	0.00e+00	0	57	0	1142947840	59	4518
2026-01-03 01:46:56.68	236.33	21.17	-48.1	-49.9	15.9	0.00e+00	0	57	0	1150287872	59	4320
2026-01-03 01:47:00.63	236.04	20.66	-48.4	-50.4	15.3	0.00e+00	0	57	0	1157627904	59	4565
2026-01-03 01:47:04.58	235.76	20.15	-49.4	-52.0	13.7	4.50e-06	0	57	0	1164967936	60	5212
2026-01-03 01:47:08.54	235.48	19.66	-49.8	-53.0	12.6	9.38e-05	0	57	0	1172307968	61	5511
2026-01-03 01:47:12.51	235.22	19.17	-49.8	-52.9	12.8	9.68e-05	0	57	0	1179648000	62	5107
2026-01-03 01:47:16.48	234.96	18.69	-49.4	-52.1	13.4	1.29e-05	0	57	0	1186988032	61	4978
2026-01-03 01:47:20.45	234.71	18.21	-49.4	-52.1	13.4	2.89e-05	0	57	0	1194328064	61	4952
2026-01-03 01:47:24.41	234.47	17.75	-48.3	-50.4	15.3	0.00e+00	0	57	0	1201668096	59	4546
2026-01-03 01:47:28.37	234.24	17.30	-48.3	-50.4	15.1	0.00e+00	0	57	0	1210056704	59	4586
2026-01-03 01:47:32.33	234.01	16.85	-48.9	-51.4	14.1	2.20e-06	0	57	0	1217396736	59	5106
2026-01-03 01:47:36.29	233.79	16.41	-49.0	-51.6	13.9	6.10e-06	0	57	0	1224736768	60	4955
2026-01-03 01:47:40.25	233.58	15.98	-48.9	-51.3	14.1	7.00e-07	0	57	0	1232076800	60	4798
2026-01-03 01:47:44.21	233.38	15.56	-48.9	-51.4	14.0	3.80e-06	0	57	0	1239416832	60	4851
2026-01-03 01:47:48.17	233.18	15.14	-49.1	-51.8	13.7	6.10e-06	0	57	0	1246756864	60	5044
2026-01-03 01:47:52.14	232.98	14.73	-49.4	-52.3	13.1	2.97e-05	0	57	0	1254096896	60	5357
2026-01-03 01:47:56.10	232.79	14.32	-49.6	-52.6	12.7	8.01e-05	0	57	0	1261436928	61	5271
2026-01-03 01:48:00.05	232.61	13.93	-49.9	-53.4	11.9	3.54e-04	0	57	0	1268776960	61	5753
2026-01-03 01:48:04.01	232.43	13.53	-50.1	-53.8	11.4	1.35e-03	0	57	0	1276116992	62	5690
2026-01-03 01:48:07.98	232.26	13.15	-50.0	-53.5	11.6	7.45e-04	0	57	0	1283457024	62	5526
2026-01-03 01:48:11.94	232.09	12.77	-49.8	-53.3	11.8	3.60e-04	0	57	0	1290797056	62	5389
2026-01-03 01:48:15.89	231.93	12.39	-49.3	-52.4	12.7	7.85e-05	0	57	0	1298137088	61	5142
2026-01-03 01:48:19.84	231.77	12.02	-49.1	-52.1	13.0	5.95e-05	0	57	0	1306525696	61	4954
2026-01-03 01:48:23.80	231.62	11.66	-49.4	-52.5	12.5	1.13e-04	0	57	0	1313865728	61	5213
2026-01-03 01:48:27.76	231.47	11.30	-49.4	-52.7	12.3	2.14e-04	0	57	0	1321205760	61	5309
2026-01-03 01:48:31.70	231.32	10.95	-49.7	-53.3	11.6	5.71e-04	0	57	0	1328545792	61	5669
2026-01-03 01:48:35.65	231.18	10.60	-49.7	-53.6	11.2	1.22e-03	0	57	0	1335885824	61	5862
2026-01-03 01:48:39.63	231.04	10.25	-49.8	-53.5	11.2	1.73e-03	0	57	0	1343225856	61	5817
2026-01-03 01:48:43.58	230.90	9.92	-49.8	-53.9	10.8	1.97e-03	0	58	0	1350565888	61	6108
2026-01-03 01:48:47.54	230.77	9.58	-49.9	-54.1	10.6	4.56e-03	0	58	0	1357905920	61	6237
2026-01-03 01:48:51.51	230.64	9.25	-50.2	-55.1	9.5	1.36e-02	0	57	0	1365245952	62	6579
2026-01-03 01:48:55.48	230.51	8.92	-50.3	-55.3	9.1	2.06e-02	0	58	0	1372585984	62	6755
2026-01-03 01:48:59.44	230.39	8.60	-50.6	-56.0	8.4	4.17e-02	0	57	0	1379926016	63	6903
2026-01-03 01:49:03.39	230.27	8.28	-50.4	-55.8	8.6	3.97e-02	0	57	0	1387266048	63	6760
2026-01-03 01:49:07.33	230.15	7.97	-50.6	-56.3	8.0	6.92e-02	0	58	0	1394606080	63	7167
2026-01-03 01:49:11.30	230.04	7.65	-50.7	-56.9	7.4	1.05e-01	0	57	0	1402994688	63	7668
2026-01-03 01:49:15.27	229.93	7.35	-50.7	-57.2	7.1	1.45e-01	0	58	0	1410334720	63	7944
2026-01-03 01:49:19.24	229.82	7.04	-50.8	-57.4	6.9	1.73e-01	0	57	0	1417674752	63	8142
2026-01-03 01:49:23.21	229.71	6.74	-50.8	-57.7	6.6	2.10e-01	0	58	0	1425014784	63	8394
2026-01-03 01:49:27.17	229.61	6.44	-50.8	-58.0	6.3	2.56e-01	0	57	0	1432354816	63	8665
2026-01-03 01:49:31.13	229.50	6.15	-50.8	-58.1	6.1	3.11e-01	0	57	0	1439694848	63	8836
2026-01-03 01:49:35.09	229.40	5.86	-50.8	-58.9	5.5	4.47e-01	0	58	0	1447034880	63	9686
2026-01-03 01:49:39.05	229.31	5.57	-50.8	-58.5	5.8	3.87e-01	0	57	0	1454374912	63	9211
2026-01-03 01:49:43.02	229.21	5.28	-50.9	-58.9	5.5	4.65e-01	0	57	0	1461714944	63	9637
2026-01-03 01:49:46.99	229.12	5.00	-51.0	-61.7	4.2	6.33e-01	0	58	0	1469054976	64	12545
2026-01-03 01:49:50.96	229.03	4.72	-52.6	-66.6	3.8	1.49e+00	0	58	104	1469054976	67	18692
2026-01-03 01:49:54.92	228.94	4.45	-53.0	-66.9	3.8	1.49e+00	0	58	104	1469054976	67	19187
2026-01-03 01:49:58.88	228.85	4.17	-53.2	-67.0	3.8	1.49e+00	0	57	104	1469054976	68	18481
2026-01-03 01:50:02.85	228.77	3.90	-53.2	-67.1	3.8	1.49e+00	0	58	104	1469054976	68	18625
2026-01-03 01:50:06.81	228.68	3.63	-53.3	-67.2	3.8	1.49e+00	0	57	104	1469054976	68	18758
2026-01-03 01:50:10.78	228.60	3.37	-53.2	-67.2	3.8	1.49e+00	0	58	104	1469054976	68	18817
2026-01-03 01:50:14.74	228.52	3.10	-53.2	-67.2	3.8	1.49e+00	0	57	104	1469054976	68	18778

#Closed at: 2026-01-03 01:50:16
#Recorded file [1469 MB]: D:/Data/31026_260103_044947.dat