passes_logs/2026/01/03/R3.0SM8_Murmansk_STILSPACE/R3.0SM8_Murmansk_STILSPACE__20260103_221737_NOAA_20_JPSS-1_rec.log

#Pass ID: 20260103_221737_NOAA 20 (JPSS-1)
#Satellite: NOAA 20 (JPSS-1)
#Configuration: NOAA 20
#almurnet v.1.7.20240730
#Start time: 2026-01-03 22:17:37

#Version: 2.2.20231116
#Station: R3.0SM8_Murmansk_STILSPACE
#Location: 33.092731 lon 68.902999 lat
#TLE: 1 43013U 17073A   26003.41800368  .00000169  00000+0  10117-3 0  9998
#TLE: 2 43013  98.7624 304.4804 0001884  56.1176 304.0179 14.19532918421092

#Time	Az	El	Level	Level2	SNR	BER	BlckErr	Temp	State	Recorded	gain1	gain2
2026-01-03 22:17:37.59	20.11	3.02	-52.2	-66.1	3.8	1.49e+00	0	45	0	0	66	18518
2026-01-03 22:17:40.57	20.34	3.19	-52.0	-65.9	3.8	1.49e+00	0	46	104	0	66	18205
2026-01-03 22:17:43.54	20.57	3.36	-51.8	-65.6	3.8	1.49e+00	0	46	104	0	66	17572
2026-01-03 22:17:46.49	20.80	3.52	-51.1	-65.0	3.8	1.49e+00	0	46	104	0	65	17382
2026-01-03 22:17:49.45	21.03	3.69	-51.2	-65.0	3.8	1.49e+00	0	46	104	0	65	17368
2026-01-03 22:17:52.43	21.27	3.86	-51.2	-65.0	3.8	1.49e+00	0	46	104	0	65	17449
2026-01-03 22:17:55.39	21.50	4.03	-51.1	-64.9	3.8	1.49e+00	0	47	104	0	65	17192
2026-01-03 22:17:58.35	21.75	4.20	-51.2	-64.9	3.8	1.49e+00	0	47	104	0	65	17256
2026-01-03 22:18:01.33	21.99	4.37	-51.1	-64.9	3.8	1.49e+00	0	47	104	0	65	17243
2026-01-03 22:18:04.28	22.24	4.54	-51.1	-64.9	3.8	1.49e+00	0	48	104	0	65	17240
2026-01-03 22:18:07.25	22.48	4.71	-51.1	-64.3	3.8	1.49e+00	0	48	104	0	65	16057
2026-01-03 22:18:10.22	22.74	4.88	-51.0	-61.4	4.2	1.45e+00	0	48	0	0	64	12143
2026-01-03 22:18:13.19	22.99	5.06	-50.2	-56.7	7.2	1.93e-01	0	48	0	4194304	63	7510
2026-01-03 22:18:16.18	23.25	5.23	-50.2	-56.4	7.6	1.17e-01	0	48	0	10485760	63	7205
2026-01-03 22:18:19.14	23.51	5.41	-50.0	-55.2	8.8	3.74e-02	0	48	0	15728640	63	6309
2026-01-03 22:18:22.10	23.77	5.58	-49.7	-54.5	9.5	1.51e-02	0	49	0	20971520	62	6193
2026-01-03 22:18:25.06	24.04	5.76	-49.1	-52.8	11.3	1.58e-03	0	49	0	27262976	61	5384
2026-01-03 22:18:28.04	24.31	5.93	-48.5	-51.7	12.5	1.50e-04	0	49	0	32505856	60	4998
2026-01-03 22:18:30.99	24.58	6.11	-48.5	-51.7	12.5	1.32e-04	0	49	0	37748736	60	5010
2026-01-03 22:18:33.95	24.86	6.29	-48.5	-51.6	12.6	9.68e-05	0	49	0	44040192	59	5273
2026-01-03 22:18:36.91	25.14	6.46	-48.6	-51.7	12.6	9.07e-05	0	49	0	49283072	59	5291
2026-01-03 22:18:39.89	25.42	6.64	-48.8	-52.0	12.3	1.46e-04	0	50	0	54525952	59	5477
2026-01-03 22:18:42.86	25.71	6.82	-49.0	-52.4	11.9	2.81e-04	0	50	0	60817408	59	5748
2026-01-03 22:18:45.83	25.99	7.01	-49.1	-52.5	11.8	4.48e-04	0	50	0	66060288	59	5854
2026-01-03 22:18:48.78	26.29	7.19	-49.1	-52.8	11.5	1.11e-03	0	50	0	71303168	60	5691
2026-01-03 22:18:51.76	26.58	7.37	-49.0	-52.4	11.9	5.63e-04	0	50	0	76546048	60	5431
2026-01-03 22:18:54.71	26.88	7.55	-49.1	-52.6	11.8	3.71e-04	0	50	0	82837504	60	5549
2026-01-03 22:18:57.68	27.18	7.73	-49.1	-52.7	11.7	5.73e-04	0	50	0	88080384	60	5606
2026-01-03 22:19:00.66	27.49	7.92	-49.1	-52.5	11.9	4.20e-04	0	51	0	93323264	60	5512
2026-01-03 22:19:03.63	27.80	8.10	-48.8	-52.0	12.4	1.72e-04	0	50	0	99614720	60	5186
2026-01-03 22:19:06.59	28.12	8.29	-48.9	-52.1	12.4	7.93e-05	0	51	0	104857600	60	5220
2026-01-03 22:19:09.56	28.43	8.48	-48.4	-51.2	13.3	2.97e-05	0	51	0	110100480	59	5024
2026-01-03 22:19:12.53	28.76	8.66	-48.2	-50.8	13.7	4.50e-06	0	51	0	116391936	59	4801
2026-01-03 22:19:15.51	29.08	8.85	-48.2	-50.8	13.7	3.80e-06	0	51	0	121634816	59	4791
2026-01-03 22:19:18.47	29.41	9.04	-48.1	-50.7	13.9	3.80e-06	0	51	0	126877696	59	4713
2026-01-03 22:19:21.44	29.75	9.23	-48.0	-50.4	14.2	1.50e-06	0	51	0	132120576	59	4585
2026-01-03 22:19:24.41	30.09	9.42	-48.2	-50.8	13.8	1.50e-06	0	51	0	138412032	59	4787
2026-01-03 22:19:27.38	30.43	9.61	-47.9	-50.3	14.4	7.00e-07	0	51	0	143654912	58	4776
2026-01-03 22:19:30.33	30.77	9.80	-47.8	-50.2	14.4	7.00e-07	0	51	0	148897792	58	4753
2026-01-03 22:19:33.30	31.12	9.99	-48.0	-50.5	14.2	7.00e-07	0	52	0	155189248	58	4871
2026-01-03 22:19:36.26	31.48	10.18	-48.2	-50.8	13.9	3.80e-06	0	52	0	160432128	58	5050
2026-01-03 22:19:39.24	31.84	10.37	-48.2	-50.7	13.9	4.50e-06	0	52	0	165675008	58	5041
2026-01-03 22:19:42.21	32.20	10.56	-48.3	-50.9	13.8	3.00e-06	0	52	0	171966464	58	5148
2026-01-03 22:19:45.19	32.58	10.76	-48.0	-50.4	14.3	7.00e-07	0	52	0	177209344	58	4851
2026-01-03 22:19:48.17	32.95	10.95	-48.2	-50.7	14.0	7.00e-07	0	52	0	182452224	58	5006
2026-01-03 22:19:51.15	33.33	11.15	-48.1	-50.4	14.3	7.00e-07	0	52	0	188743680	58	4855
2026-01-03 22:19:54.12	33.72	11.34	-48.1	-50.5	14.2	7.00e-07	0	52	0	193986560	58	4899
2026-01-03 22:19:57.08	34.10	11.54	-48.0	-50.3	14.4	0.00e+00	0	52	0	199229440	58	4790
2026-01-03 22:20:00.05	34.50	11.73	-47.7	-49.8	15.0	0.00e+00	0	52	0	205520896	58	4518
2026-01-03 22:20:03.03	34.90	11.93	-47.5	-49.6	15.1	0.00e+00	0	53	0	210763776	58	4431
2026-01-03 22:20:05.98	35.30	12.12	-47.6	-49.6	15.2	0.00e+00	0	53	0	216006656	58	4428
2026-01-03 22:20:08.94	35.71	12.32	-47.6	-49.7	15.1	7.00e-07	0	53	0	221249536	58	4488
2026-01-03 22:20:11.91	36.12	12.51	-47.9	-50.1	14.6	0.00e+00	0	53	0	227540992	58	4691
2026-01-03 22:20:14.89	36.54	12.71	-47.8	-50.0	14.8	1.50e-06	0	53	0	232783872	58	4627
2026-01-03 22:20:17.85	36.97	12.91	-47.6	-49.6	15.2	0.00e+00	0	53	0	238026752	58	4438
2026-01-03 22:20:20.82	37.40	13.11	-47.4	-49.5	15.3	0.00e+00	0	53	0	244318208	58	4355
2026-01-03 22:20:23.78	37.83	13.30	-47.5	-49.6	15.3	0.00e+00	0	53	0	249561088	58	4395
2026-01-03 22:20:26.75	38.27	13.50	-47.7	-49.8	15.0	0.00e+00	0	53	0	254803968	58	4531
2026-01-03 22:20:29.71	38.72	13.70	-47.7	-49.8	15.1	0.00e+00	0	53	0	261095424	58	4499
2026-01-03 22:20:32.67	39.17	13.90	-47.7	-49.8	15.0	0.00e+00	0	53	0	266338304	58	4530
2026-01-03 22:20:35.64	39.63	14.09	-47.4	-49.3	15.5	0.00e+00	0	53	0	271581184	57	4521
2026-01-03 22:20:38.62	40.10	14.29	-47.4	-49.4	15.4	0.00e+00	0	53	0	277872640	57	4597
2026-01-03 22:20:41.59	40.57	14.49	-47.6	-49.6	15.3	0.00e+00	0	54	0	283115520	57	4688
2026-01-03 22:20:44.57	41.05	14.69	-47.7	-49.8	15.1	0.00e+00	0	53	0	288358400	57	4785
2026-01-03 22:20:47.54	41.53	14.88	-47.8	-49.9	14.9	0.00e+00	0	53	0	293601280	57	4863
2026-01-03 22:20:50.50	42.02	15.08	-48.1	-50.3	14.6	0.00e+00	0	53	0	299892736	58	4778
2026-01-03 22:20:53.47	42.52	15.28	-48.2	-50.6	14.4	1.50e-06	0	53	0	305135616	58	4931
2026-01-03 22:20:56.43	43.02	15.47	-47.7	-49.8	15.1	0.00e+00	0	54	0	310378496	58	4541
2026-01-03 22:20:59.41	43.53	15.67	-47.8	-50.0	14.9	0.00e+00	0	54	0	316669952	58	4637
2026-01-03 22:21:02.39	44.05	15.86	-47.3	-49.2	15.7	0.00e+00	0	54	0	321912832	57	4458
2026-01-03 22:21:05.38	44.57	16.06	-47.2	-49.1	15.8	0.00e+00	0	54	0	327155712	57	4438
2026-01-03 22:21:08.34	45.10	16.25	-47.1	-48.8	16.1	0.00e+00	0	54	0	333447168	57	4289
2026-01-03 22:21:11.31	45.64	16.45	-46.8	-48.5	16.4	0.00e+00	0	54	0	338690048	56	4357
2026-01-03 22:21:14.28	46.18	16.64	-46.8	-48.5	16.4	0.00e+00	0	54	0	343932928	56	4366
2026-01-03 22:21:17.25	46.73	16.83	-46.5	-48.2	16.8	0.00e+00	0	54	0	350224384	56	4202
2026-01-03 22:21:20.21	47.28	17.02	-46.5	-48.2	16.8	0.00e+00	0	54	0	355467264	56	4196
2026-01-03 22:21:23.18	47.84	17.21	-46.7	-48.3	16.6	0.00e+00	0	54	0	360710144	56	4262
2026-01-03 22:21:26.15	48.41	17.40	-46.6	-48.2	16.7	0.00e+00	0	54	0	367001600	56	4212
2026-01-03 22:21:29.12	48.99	17.58	-46.7	-48.3	16.6	0.00e+00	0	54	0	372244480	56	4290
2026-01-03 22:21:32.09	49.57	17.77	-46.7	-48.4	16.6	0.00e+00	0	54	0	377487360	56	4294
2026-01-03 22:21:35.07	50.17	17.95	-47.0	-48.8	16.2	0.00e+00	0	54	0	382730240	56	4530
2026-01-03 22:21:38.04	50.76	18.13	-47.2	-49.1	15.8	0.00e+00	0	54	0	389021696	56	4696
2026-01-03 22:21:41.02	51.37	18.31	-47.1	-48.9	16.0	0.00e+00	0	54	0	394264576	56	4590
2026-01-03 22:21:43.99	51.98	18.49	-47.3	-49.3	15.7	0.00e+00	0	54	0	399507456	56	4779
2026-01-03 22:21:46.96	52.60	18.67	-47.8	-49.9	15.1	0.00e+00	0	54	0	405798912	57	4841
2026-01-03 22:21:49.93	53.23	18.85	-47.8	-49.8	15.1	0.00e+00	0	54	0	411041792	57	4809
2026-01-03 22:21:52.90	53.86	19.02	-47.9	-50.1	14.9	0.00e+00	0	55	0	416284672	57	4950
2026-01-03 22:21:55.86	54.50	19.19	-48.4	-50.9	14.1	0.00e+00	0	55	0	422576128	58	5119
2026-01-03 22:21:58.84	55.14	19.36	-48.6	-51.2	13.8	8.30e-06	0	55	0	427819008	59	5028
2026-01-03 22:22:01.81	55.80	19.52	-48.6	-51.2	13.8	1.50e-06	0	55	0	433061888	59	4985
2026-01-03 22:22:04.77	56.46	19.68	-48.7	-51.4	13.6	1.75e-05	0	55	0	439353344	59	5125
2026-01-03 22:22:07.75	57.13	19.85	-48.6	-51.2	13.7	2.20e-06	0	55	0	444596224	59	5036
2026-01-03 22:22:10.73	57.80	20.00	-48.9	-51.8	13.2	1.90e-05	0	55	0	449839104	59	5356
2026-01-03 22:22:13.70	58.48	20.16	-49.0	-51.9	13.1	2.59e-05	0	55	0	456130560	59	5404
2026-01-03 22:22:16.68	59.17	20.31	-48.7	-51.4	13.6	3.80e-06	0	55	0	461373440	59	5114
2026-01-03 22:22:19.65	59.87	20.46	-49.0	-51.9	13.1	2.05e-05	0	55	0	466616320	59	5420
2026-01-03 22:22:22.62	60.57	20.60	-48.6	-51.1	13.8	7.60e-06	0	55	0	472907776	59	4976
2026-01-03 22:22:25.60	61.28	20.75	-47.9	-50.0	15.0	7.00e-07	0	55	0	478150656	58	4617
2026-01-03 22:22:28.57	61.99	20.88	-47.8	-49.9	15.1	0.00e+00	0	55	0	483393536	58	4572
2026-01-03 22:22:31.54	62.71	21.02	-48.1	-50.3	14.7	0.00e+00	0	55	0	488636416	58	4784
2026-01-03 22:22:34.51	63.44	21.15	-48.0	-50.1	14.9	0.00e+00	0	55	0	494927872	58	4699
2026-01-03 22:22:37.48	64.17	21.28	-47.9	-50.0	15.0	0.00e+00	0	55	0	500170752	58	4620
2026-01-03 22:22:40.45	64.91	21.40	-47.7	-49.8	15.2	0.00e+00	0	55	0	505413632	58	4543
2026-01-03 22:22:43.41	65.65	21.52	-47.6	-49.5	15.5	0.00e+00	0	55	0	511705088	58	4388
2026-01-03 22:22:46.38	66.40	21.63	-47.3	-49.1	15.9	0.00e+00	0	55	0	516947968	57	4417
2026-01-03 22:22:49.33	67.14	21.74	-47.1	-48.9	16.2	0.00e+00	0	55	0	522190848	57	4294
2026-01-03 22:22:52.29	67.90	21.84	-47.4	-49.3	15.6	0.00e+00	0	55	0	528482304	57	4542
2026-01-03 22:22:55.26	68.66	21.94	-47.4	-49.5	15.6	0.00e+00	0	55	0	533725184	57	4599
2026-01-03 22:22:58.24	69.44	22.04	-47.3	-49.3	15.8	0.00e+00	0	55	0	538968064	57	4498
2026-01-03 22:23:01.21	70.21	22.13	-47.7	-49.7	15.3	0.00e+00	0	55	0	545259520	57	4751
2026-01-03 22:23:04.18	70.99	22.22	-48.1	-50.3	14.7	0.00e+00	0	55	0	550502400	58	4783
2026-01-03 22:23:07.16	71.77	22.30	-48.1	-50.3	14.8	0.00e+00	0	56	0	555745280	58	4771
2026-01-03 22:23:10.13	72.56	22.37	-48.2	-50.5	14.5	1.50e-06	0	55	0	560988160	58	4915
2026-01-03 22:23:13.10	73.35	22.44	-47.8	-49.8	15.2	0.00e+00	0	55	0	567279616	58	4516
2026-01-03 22:23:16.07	74.14	22.51	-47.8	-49.9	15.1	0.00e+00	0	56	0	572522496	58	4572
2026-01-03 22:23:19.03	74.93	22.57	-47.8	-49.9	15.1	0.00e+00	0	55	0	577765376	58	4573
2026-01-03 22:23:22.01	75.74	22.62	-48.2	-50.5	14.6	0.00e+00	0	55	0	584056832	58	4889
2026-01-03 22:23:24.99	76.54	22.67	-48.5	-51.0	14.1	3.00e-06	0	55	0	589299712	58	5176
2026-01-03 22:23:27.94	77.34	22.71	-48.5	-51.2	13.9	4.50e-06	0	55	0	594542592	59	4986
2026-01-03 22:23:30.90	78.14	22.75	-48.1	-50.3	14.7	1.50e-06	0	56	0	600834048	59	4529
2026-01-03 22:23:33.87	78.95	22.78	-47.1	-48.9	16.2	0.00e+00	0	56	0	606076928	57	4315
2026-01-03 22:23:36.84	79.76	22.81	-47.5	-49.5	15.5	0.00e+00	0	56	0	611319808	57	4625
2026-01-03 22:23:39.82	80.57	22.83	-47.9	-50.0	15.1	0.00e+00	0	56	0	617611264	57	4875
2026-01-03 22:23:42.78	81.38	22.84	-47.4	-49.3	15.7	0.00e+00	0	56	0	622854144	57	4538
2026-01-03 22:23:45.74	82.19	22.85	-47.4	-49.3	15.7	7.00e-07	0	55	0	628097024	57	4518
2026-01-03 22:23:48.72	83.01	22.85	-47.9	-50.1	15.0	7.00e-07	0	56	0	633339904	57	4936
2026-01-03 22:23:51.69	83.82	22.85	-48.1	-50.4	14.7	0.00e+00	0	56	0	639631360	58	4832
2026-01-03 22:23:54.65	84.63	22.84	-48.3	-50.7	14.4	1.50e-06	0	56	0	644874240	58	5005
2026-01-03 22:23:57.62	85.44	22.82	-48.4	-50.8	14.3	0.00e+00	0	56	0	650117120	58	5061
2026-01-03 22:24:00.59	86.25	22.80	-48.3	-50.6	14.5	7.00e-07	0	56	0	656408576	58	4930
2026-01-03 22:24:03.57	87.06	22.78	-47.7	-49.7	15.4	0.00e+00	0	56	0	661651456	58	4468
2026-01-03 22:24:06.54	87.87	22.75	-48.0	-50.2	14.9	0.00e+00	0	56	0	666894336	58	4735
2026-01-03 22:24:09.51	88.68	22.71	-47.9	-50.0	15.1	0.00e+00	0	56	0	673185792	58	4642
2026-01-03 22:24:12.47	89.48	22.66	-48.1	-50.3	14.8	7.00e-07	0	56	0	678428672	58	4782
2026-01-03 22:24:15.44	90.28	22.61	-47.5	-49.5	15.6	0.00e+00	0	56	0	683671552	58	4343
2026-01-03 22:24:18.41	91.08	22.56	-47.2	-49.0	16.0	0.00e+00	0	56	0	689963008	57	4368
2026-01-03 22:24:21.37	91.87	22.50	-47.4	-49.3	15.7	0.00e+00	0	56	0	695205888	57	4524
2026-01-03 22:24:24.34	92.67	22.43	-47.1	-48.9	16.1	0.00e+00	0	56	0	700448768	57	4331
2026-01-03 22:24:27.31	93.46	22.36	-47.0	-48.7	16.4	0.00e+00	0	56	0	705691648	56	4452
2026-01-03 22:24:30.27	94.24	22.29	-47.3	-49.1	15.9	2.21e-05	0	56	0	711983104	56	4699
2026-01-03 22:24:33.23	95.02	22.21	-47.2	-49.0	16.0	0.00e+00	0	56	0	717225984	56	4637
2026-01-03 22:24:36.20	95.80	22.12	-47.0	-48.7	16.3	0.00e+00	0	56	0	722468864	56	4466
2026-01-03 22:24:39.18	96.58	22.03	-46.6	-48.2	16.8	0.00e+00	0	56	0	728760320	56	4227
2026-01-03 22:24:42.15	97.35	21.93	-46.0	-47.5	17.4	0.00e+00	0	56	0	734003200	55	4108
2026-01-03 22:24:45.11	98.11	21.83	-46.4	-47.9	17.0	0.00e+00	0	56	0	739246080	55	4322
2026-01-03 22:24:48.06	98.86	21.72	-46.5	-48.0	16.9	0.00e+00	0	56	0	745537536	55	4363
2026-01-03 22:24:51.04	99.62	21.61	-46.3	-47.8	17.1	0.00e+00	0	56	0	750780416	55	4285
2026-01-03 22:24:54.01	100.37	21.50	-45.7	-47.1	17.8	0.00e+00	0	56	0	756023296	54	4172
2026-01-03 22:24:56.98	101.12	21.38	-45.6	-46.9	18.0	0.00e+00	0	56	0	762314752	54	4068
2026-01-03 22:24:59.94	101.85	21.26	-45.8	-47.2	17.7	0.00e+00	0	56	0	767557632	54	4212
2026-01-03 22:25:02.92	102.59	21.13	-46.0	-47.4	17.5	0.00e+00	0	56	0	772800512	54	4309
2026-01-03 22:25:05.90	103.32	21.00	-46.4	-48.0	17.0	0.00e+00	0	56	0	779091968	54	4612
2026-01-03 22:25:08.87	104.04	20.86	-46.8	-48.4	16.5	0.00e+00	0	56	0	784334848	55	4581
2026-01-03 22:25:11.84	104.75	20.72	-46.5	-48.1	16.9	0.00e+00	0	56	0	789577728	55	4393
2026-01-03 22:25:14.83	105.46	20.58	-46.0	-47.5	17.4	0.00e+00	0	56	0	794820608	55	4112
2026-01-03 22:25:17.79	106.16	20.43	-46.1	-47.6	17.4	0.00e+00	0	56	0	801112064	55	4150
2026-01-03 22:25:20.74	106.85	20.29	-46.4	-47.9	17.0	0.00e+00	0	56	0	806354944	55	4304
2026-01-03 22:25:23.70	107.54	20.13	-47.2	-49.0	16.0	0.00e+00	0	56	0	811597824	56	4643
2026-01-03 22:25:26.67	108.22	19.98	-47.6	-49.5	15.5	0.00e+00	0	56	0	817889280	56	4908
2026-01-03 22:25:29.62	108.89	19.82	-47.7	-49.7	15.3	0.00e+00	0	56	0	823132160	57	4739
2026-01-03 22:25:32.59	109.56	19.66	-47.4	-49.3	15.6	0.00e+00	0	56	0	828375040	57	4545
2026-01-03 22:25:35.55	110.22	19.49	-46.9	-48.7	16.3	0.00e+00	0	56	0	834666496	56	4443
2026-01-03 22:25:38.52	110.88	19.33	-47.2	-49.0	16.0	0.00e+00	0	56	0	839909376	56	4639
2026-01-03 22:25:41.49	111.52	19.16	-47.6	-49.5	15.5	0.00e+00	0	56	0	845152256	56	4909
2026-01-03 22:25:44.46	112.16	18.99	-47.9	-50.0	15.0	0.00e+00	0	56	0	850395136	57	4880
2026-01-03 22:25:47.43	112.80	18.81	-47.7	-49.8	15.2	0.00e+00	0	56	0	856686592	57	4803
2026-01-03 22:25:50.40	113.42	18.64	-47.2	-49.0	16.0	0.00e+00	0	56	0	861929472	57	4371
2026-01-03 22:25:53.36	114.04	18.46	-46.9	-48.6	16.5	0.00e+00	0	56	0	867172352	56	4393
2026-01-03 22:25:56.34	114.66	18.28	-47.3	-49.2	15.8	0.00e+00	0	56	0	873463808	56	4714
2026-01-03 22:25:59.31	115.26	18.10	-47.1	-48.9	16.1	0.00e+00	0	56	0	878706688	56	4553
2026-01-03 22:26:02.28	115.86	17.91	-47.5	-49.4	15.6	0.00e+00	0	56	0	883949568	56	4861
2026-01-03 22:26:05.26	116.45	17.73	-47.7	-49.8	15.2	0.00e+00	0	56	0	890241024	57	4800
2026-01-03 22:26:08.23	117.04	17.54	-48.0	-50.1	14.9	7.00e-07	0	56	0	895483904	57	4974
2026-01-03 22:26:11.19	117.61	17.35	-47.9	-50.1	14.9	0.00e+00	0	56	0	900726784	58	4685
2026-01-03 22:26:14.17	118.19	17.17	-47.9	-50.1	14.8	0.00e+00	0	56	0	907018240	58	4687
2026-01-03 22:26:17.13	118.75	16.98	-47.8	-49.9	15.1	0.00e+00	0	56	0	912261120	58	4586
2026-01-03 22:26:20.09	119.30	16.78	-47.7	-49.7	15.3	0.00e+00	0	56	0	917504000	58	4460
2026-01-03 22:26:23.05	119.85	16.59	-48.2	-50.6	14.4	2.20e-06	0	57	0	922746880	58	4936
2026-01-03 22:26:26.02	120.39	16.40	-47.9	-50.2	14.8	0.00e+00	0	56	0	929038336	58	4710
2026-01-03 22:26:28.99	120.93	16.21	-47.7	-49.8	15.1	0.00e+00	0	56	0	934281216	58	4538
2026-01-03 22:26:31.96	121.46	16.01	-47.9	-50.1	14.8	0.00e+00	0	56	0	939524096	58	4689
2026-01-03 22:26:34.94	121.98	15.81	-47.7	-49.8	15.2	0.00e+00	0	56	0	945815552	58	4494
2026-01-03 22:26:37.91	122.50	15.62	-47.1	-48.9	16.0	0.00e+00	0	56	0	951058432	57	4335
2026-01-03 22:26:40.88	123.01	15.42	-47.3	-49.1	15.8	0.00e+00	0	57	0	956301312	57	4425
2026-01-03 22:26:43.85	123.51	15.22	-47.7	-49.8	15.2	0.00e+00	0	56	0	962592768	57	4775
2026-01-03 22:26:46.83	124.01	15.02	-47.7	-49.8	15.1	0.00e+00	0	57	0	967835648	57	4773
2026-01-03 22:26:49.78	124.50	14.83	-47.6	-49.6	15.3	0.00e+00	0	56	0	973078528	57	4656
2026-01-03 22:26:52.76	124.99	14.63	-48.0	-50.3	14.6	0.00e+00	0	57	0	979369984	57	5099
2026-01-03 22:26:55.73	125.46	14.43	-48.1	-50.5	14.4	0.00e+00	0	57	0	984612864	58	4889
2026-01-03 22:26:58.71	125.94	14.23	-47.7	-49.8	15.1	0.00e+00	0	57	0	989855744	58	4540
2026-01-03 22:27:01.67	126.40	14.03	-47.9	-50.1	14.8	0.00e+00	0	56	0	995098624	58	4688
2026-01-03 22:27:04.65	126.86	13.83	-48.2	-50.7	14.2	0.00e+00	0	57	0	1001390080	58	4994
2026-01-03 22:27:07.62	127.32	13.63	-48.2	-50.5	14.3	1.50e-06	0	56	0	1006632960	58	4921
2026-01-03 22:27:10.58	127.77	13.43	-47.9	-50.0	14.9	0.00e+00	0	57	0	1011875840	58	4629
2026-01-03 22:27:13.53	128.20	13.24	-47.9	-50.0	14.9	7.00e-07	0	57	0	1018167296	58	4637
2026-01-03 22:27:16.50	128.64	13.04	-48.2	-50.7	14.2	1.50e-06	0	57	0	1023410176	58	4991
2026-01-03 22:27:19.48	129.07	12.84	-48.5	-51.0	13.9	1.50e-06	0	57	0	1028653056	58	5194
2026-01-03 22:27:22.45	129.50	12.64	-48.4	-50.9	13.9	2.20e-06	0	57	0	1034944512	58	5156
2026-01-03 22:27:25.42	129.92	12.44	-48.6	-51.2	13.7	5.30e-06	0	56	0	1040187392	59	4999
2026-01-03 22:27:28.38	130.33	12.24	-48.9	-51.7	13.1	2.74e-05	0	56	0	1045430272	59	5323
2026-01-03 22:27:31.32	130.74	12.05	-48.5	-51.2	13.5	9.90e-06	0	56	0	1051721728	60	4755
2026-01-03 22:27:34.30	131.14	11.85	-48.0	-50.3	14.5	7.00e-07	0	57	0	1056964608	59	4517
2026-01-03 22:27:37.27	131.54	11.65	-47.8	-49.9	14.9	0.00e+00	0	56	0	1062207488	58	4598
2026-01-03 22:27:40.24	131.94	11.46	-47.7	-49.8	15.0	0.00e+00	0	57	0	1067450368	58	4541
2026-01-03 22:27:43.21	132.32	11.26	-47.8	-50.1	14.8	0.00e+00	0	57	0	1073741824	58	4652
2026-01-03 22:27:46.19	132.71	11.06	-48.0	-50.2	14.6	7.00e-07	0	57	0	1078984704	58	4754
2026-01-03 22:27:49.16	133.09	10.87	-48.1	-50.4	14.4	4.50e-06	0	57	0	1084227584	58	4846
2026-01-03 22:27:52.14	133.46	10.67	-48.3	-50.8	14.0	2.20e-06	0	57	0	1090519040	58	5077
2026-01-03 22:27:55.10	133.83	10.48	-48.5	-51.2	13.6	6.10e-06	0	57	0	1095761920	58	5280
2026-01-03 22:27:58.08	134.20	10.28	-48.7	-51.4	13.3	1.22e-05	0	56	0	1101004800	59	5156
2026-01-03 22:28:01.06	134.56	10.09	-48.5	-51.1	13.7	4.50e-06	0	57	0	1107296256	59	4947
2026-01-03 22:28:04.03	134.91	9.90	-48.3	-50.8	13.9	6.10e-06	0	56	0	1112539136	59	4795
2026-01-03 22:28:07.00	135.27	9.70	-48.2	-50.7	14.0	1.50e-06	0	57	0	1117782016	59	4756
2026-01-03 22:28:09.98	135.61	9.51	-48.5	-51.2	13.5	7.60e-06	0	57	0	1124073472	59	5027
2026-01-03 22:28:12.96	135.96	9.32	-48.6	-51.4	13.2	1.44e-05	0	57	0	1129316352	59	5153
2026-01-03 22:28:15.92	136.29	9.13	-48.8	-51.8	12.8	4.65e-05	0	57	0	1134559232	59	5386
2026-01-03 22:28:18.90	136.63	8.94	-49.0	-52.1	12.5	1.24e-04	0	57	0	1140850688	59	5583
2026-01-03 22:28:21.87	136.96	8.75	-49.1	-52.6	12.0	2.16e-04	0	57	0	1146093568	60	5557
2026-01-03 22:28:24.85	137.28	8.56	-49.3	-52.9	11.7	4.54e-04	0	57	0	1151336448	60	5762
2026-01-03 22:28:27.82	137.61	8.37	-49.1	-52.6	12.0	2.72e-04	0	57	0	1157627904	60	5542
2026-01-03 22:28:30.77	137.92	8.19	-49.1	-52.6	12.0	3.01e-04	0	57	0	1162870784	60	5550
2026-01-03 22:28:33.74	138.23	8.00	-49.1	-52.6	12.0	4.52e-04	0	57	0	1168113664	60	5548
2026-01-03 22:28:36.71	138.54	7.81	-49.0	-52.4	12.2	3.78e-04	0	57	0	1173356544	60	5405
2026-01-03 22:28:39.68	138.85	7.63	-48.7	-51.8	12.7	7.40e-05	0	57	0	1179648000	60	5075
2026-01-03 22:28:42.65	139.15	7.44	-48.6	-51.5	13.0	2.59e-05	0	57	0	1184890880	60	4919
2026-01-03 22:28:45.62	139.45	7.26	-48.6	-51.6	13.0	3.89e-05	0	57	0	1190133760	60	4937
2026-01-03 22:28:48.57	139.75	7.08	-48.8	-52.0	12.5	7.09e-05	0	57	0	1196425216	60	5165
2026-01-03 22:28:51.54	140.04	6.89	-49.0	-52.4	12.0	1.94e-04	0	57	0	1201668096	60	5448
2026-01-03 22:28:54.51	140.33	6.71	-48.9	-52.3	12.2	2.46e-04	0	57	0	1206910976	60	5349
2026-01-03 22:28:57.48	140.61	6.53	-49.0	-52.5	11.9	3.04e-04	0	57	0	1213202432	60	5508
2026-01-03 22:29:00.46	140.89	6.35	-49.1	-52.7	11.7	5.34e-04	0	57	0	1218445312	60	5616
2026-01-03 22:29:03.42	141.17	6.17	-48.9	-52.4	12.0	2.86e-04	0	57	0	1223688192	60	5413
2026-01-03 22:29:06.39	141.44	5.99	-48.8	-52.2	12.2	3.88e-04	0	57	0	1228931072	60	5298
2026-01-03 22:29:09.35	141.72	5.81	-48.6	-51.8	12.6	8.77e-05	0	57	0	1235222528	60	5045
2026-01-03 22:29:12.33	141.99	5.63	-48.5	-51.7	12.6	6.79e-05	0	57	0	1240465408	60	4984
2026-01-03 22:29:15.30	142.25	5.46	-48.6	-51.8	12.5	9.91e-05	0	57	0	1245708288	60	5050
2026-01-03 22:29:18.27	142.51	5.28	-48.8	-52.3	11.9	3.17e-04	0	57	0	1251999744	60	5371
2026-01-03 22:29:21.23	142.77	5.11	-48.8	-52.2	12.0	3.29e-04	0	57	0	1257242624	60	5328
2026-01-03 22:29:24.19	143.03	4.93	-51.7	-65.6	3.8	1.49e+00	0	57	104	1259339776	65	18660
2026-01-03 22:29:27.15	143.28	4.76	-52.1	-66.0	3.8	1.49e+00	0	57	104	1259339776	66	18364
2026-01-03 22:29:30.12	143.53	4.58	-52.1	-66.1	3.8	1.49e+00	0	57	104	1259339776	66	18645
2026-01-03 22:29:33.09	143.78	4.41	-52.2	-66.2	3.8	1.49e+00	0	57	104	1259339776	66	18750
2026-01-03 22:29:36.05	144.02	4.24	-52.3	-66.2	3.8	1.49e+00	0	57	104	1259339776	66	18908
2026-01-03 22:29:39.03	144.27	4.07	-52.4	-66.3	3.8	1.49e+00	0	57	104	1259339776	66	19069
2026-01-03 22:29:42.00	144.51	3.90	-52.4	-66.3	3.8	1.49e+00	0	57	104	1259339776	66	19089
2026-01-03 22:29:44.96	144.74	3.73	-52.5	-66.3	3.8	1.49e+00	0	57	104	1259339776	66	19152
2026-01-03 22:29:47.92	144.98	3.56	-52.4	-66.4	3.8	1.49e+00	0	57	104	1259339776	66	19176
2026-01-03 22:29:50.89	145.21	3.39	-52.5	-66.3	3.8	1.49e+00	0	57	104	1259339776	66	19159
2026-01-03 22:29:53.86	145.44	3.22	-52.4	-66.3	3.8	1.49e+00	0	57	104	1259339776	66	19072
2026-01-03 22:29:56.82	145.66	3.05	-52.4	-66.3	3.8	1.49e+00	0	57	104	1259339776	66	19143

#Closed at: 2026-01-03 22:29:58
#Recorded file [1259 MB]: D:/Data/31026_260104_012922.dat