passes_logs/2026/01/03/R3.0SM8_Murmansk_STILSPACE/R3.0SM8_Murmansk_STILSPACE__20260103_230741_NOAA_21_JPSS-2_rec.log

#Pass ID: 20260103_230741_NOAA 21 (JPSS-2)
#Satellite: NOAA 21 (JPSS-2)
#Configuration: NOAA-21
#almurnet v.1.7.20240730
#Start time: 2026-01-03 23:07:40

#Version: 2.2.20231116
#Station: R3.0SM8_Murmansk_STILSPACE
#Location: 33.092731 lon 68.902999 lat
#TLE: 1 54234U 22150A   26003.45311712  .00000198  00000+0  11468-3 0  9993
#TLE: 2 54234  98.7487 304.4932 0001159 347.5017  12.6130 14.19531745163172

#Time	Az	El	Level	Level2	SNR	BER	BlckErr	Temp	State	Recorded	gain1	gain2
2026-01-03 23:07:40.60	20.78	2.97	-52.1	-63.5	3.8	1.49e+00	0	45	0	0	66	13834
2026-01-03 23:07:44.55	20.97	3.22	-52.1	-63.6	3.8	1.49e+00	0	46	104	0	67	13159
2026-01-03 23:07:48.51	21.18	3.47	-50.1	-60.9	3.8	1.49e+00	0	46	104	0	63	12136
2026-01-03 23:07:52.47	21.38	3.72	-50.0	-61.0	3.8	1.49e+00	0	46	104	0	62	13035
2026-01-03 23:07:56.43	21.59	3.97	-50.0	-61.0	3.8	1.49e+00	0	47	104	0	62	12977
2026-01-03 23:08:00.40	21.81	4.22	-50.0	-60.8	3.8	1.49e+00	0	47	104	0	62	12680
2026-01-03 23:08:04.36	22.02	4.48	-49.5	-56.9	4.6	1.44e+00	0	47	104	0	62	8106
2026-01-03 23:08:08.33	22.24	4.73	-49.1	-55.2	5.5	5.34e-01	0	48	0	2097152	61	7102
2026-01-03 23:08:12.28	22.46	4.99	-48.8	-53.6	6.8	1.66e-01	0	48	0	13631488	59	6599
2026-01-03 23:08:16.23	22.69	5.25	-48.7	-52.9	7.6	1.02e-01	0	48	0	26214400	59	6118
2026-01-03 23:08:20.20	22.92	5.52	-48.5	-52.0	9.0	2.31e-02	0	48	0	38797312	59	5507
2026-01-03 23:08:24.16	23.16	5.78	-47.6	-50.1	11.2	1.81e-03	0	48	0	51380224	58	4678
2026-01-03 23:08:28.11	23.39	6.05	-46.4	-48.2	13.4	2.74e-05	0	49	0	63963136	56	4238
2026-01-03 23:08:32.06	23.64	6.32	-46.5	-48.4	13.3	1.29e-05	0	49	0	75497472	55	4555
2026-01-03 23:08:36.01	23.88	6.60	-46.3	-48.1	13.7	6.80e-06	0	49	0	88080384	55	4416
2026-01-03 23:08:39.98	24.13	6.87	-46.2	-47.8	14.1	1.50e-06	0	49	0	100663296	55	4258
2026-01-03 23:08:43.95	24.39	7.15	-46.2	-47.7	14.3	2.20e-06	0	50	0	113246208	55	4220
2026-01-03 23:08:47.92	24.65	7.43	-46.1	-47.6	14.3	1.50e-06	0	50	0	125829120	55	4183
2026-01-03 23:08:51.87	24.91	7.72	-46.2	-47.7	14.3	7.00e-07	0	50	0	137363456	55	4202
2026-01-03 23:08:55.82	25.18	8.00	-45.8	-47.1	14.9	0.00e+00	0	50	0	149946368	54	4187
2026-01-03 23:08:59.78	25.46	8.29	-45.8	-47.2	14.9	0.00e+00	0	50	0	162529280	54	4230
2026-01-03 23:09:03.73	25.74	8.58	-46.0	-47.5	14.6	0.00e+00	0	50	0	175112192	54	4363
2026-01-03 23:09:07.70	26.02	8.88	-46.1	-47.6	14.6	0.00e+00	0	50	0	186646528	54	4394
2026-01-03 23:09:11.64	26.31	9.18	-46.1	-47.6	14.5	0.00e+00	0	51	0	199229440	54	4418
2026-01-03 23:09:15.58	26.61	9.48	-45.8	-47.2	15.0	0.00e+00	0	51	0	211812352	54	4209
2026-01-03 23:09:19.54	26.91	9.78	-46.0	-47.4	14.8	0.00e+00	0	51	0	224395264	54	4329
2026-01-03 23:09:23.50	27.21	10.09	-45.9	-47.2	15.0	0.00e+00	0	51	0	236978176	54	4229
2026-01-03 23:09:27.45	27.53	10.40	-45.6	-46.9	15.3	0.00e+00	0	51	0	248512512	54	4092
2026-01-03 23:09:31.38	27.85	10.71	-45.2	-46.5	15.8	0.00e+00	0	52	0	261095424	53	4101
2026-01-03 23:09:35.34	28.17	11.03	-45.3	-46.5	15.7	0.00e+00	0	51	0	273678336	53	4139
2026-01-03 23:09:39.31	28.51	11.35	-45.5	-46.8	15.4	0.00e+00	0	52	0	286261248	53	4274
2026-01-03 23:09:43.27	28.85	11.67	-45.6	-46.9	15.3	0.00e+00	0	52	0	298844160	53	4328
2026-01-03 23:09:47.22	29.19	12.00	-45.3	-46.4	15.8	0.00e+00	0	52	0	310378496	53	4097
2026-01-03 23:09:51.18	29.55	12.33	-45.2	-46.4	15.9	0.00e+00	0	52	0	322961408	53	4070
2026-01-03 23:09:55.15	29.91	12.66	-45.0	-46.0	16.3	0.00e+00	0	52	0	335544320	53	3913
2026-01-03 23:09:59.11	30.28	13.00	-45.0	-46.2	16.2	0.00e+00	0	52	0	348127232	53	3970
2026-01-03 23:10:03.08	30.66	13.34	-45.1	-46.2	16.1	0.00e+00	0	53	0	360710144	53	4000
2026-01-03 23:10:07.06	31.05	13.69	-45.0	-46.2	16.2	0.00e+00	0	53	0	372244480	52	4195
2026-01-03 23:10:11.02	31.45	14.04	-44.9	-46.0	16.4	0.00e+00	0	53	0	384827392	52	4109
2026-01-03 23:10:14.97	31.85	14.39	-45.3	-46.5	15.9	0.00e+00	0	53	0	397410304	52	4350
2026-01-03 23:10:18.93	32.27	14.75	-45.1	-46.2	16.2	0.00e+00	0	53	0	409993216	52	4207
2026-01-03 23:10:22.89	32.69	15.11	-45.1	-46.3	16.2	7.00e-07	0	53	0	422576128	52	4256
2026-01-03 23:10:26.83	33.12	15.47	-45.0	-46.1	16.3	0.00e+00	0	53	0	434110464	52	4193
2026-01-03 23:10:30.78	33.57	15.84	-45.5	-46.7	15.8	0.00e+00	0	53	0	446693376	52	4460
2026-01-03 23:10:34.75	34.02	16.21	-45.0	-46.0	16.4	0.00e+00	0	53	0	459276288	52	4141
2026-01-03 23:10:38.70	34.49	16.59	-45.3	-46.5	16.0	0.00e+00	0	53	0	471859200	52	4372
2026-01-03 23:10:42.66	34.96	16.97	-45.1	-46.2	16.3	0.00e+00	0	53	0	484442112	52	4234
2026-01-03 23:10:46.61	35.45	17.35	-45.2	-46.3	16.2	0.00e+00	0	54	0	495976448	52	4278
2026-01-03 23:10:50.58	35.95	17.74	-45.1	-46.1	16.4	0.00e+00	0	54	0	508559360	52	4193
2026-01-03 23:10:54.53	36.47	18.14	-45.0	-46.1	16.4	0.00e+00	0	54	0	521142272	52	4173
2026-01-03 23:10:58.50	36.99	18.54	-45.1	-46.2	16.3	0.00e+00	0	54	0	533725184	52	4216
2026-01-03 23:11:02.45	37.53	18.94	-45.2	-46.3	16.2	0.00e+00	0	54	0	545259520	52	4272
2026-01-03 23:11:06.41	38.09	19.34	-45.0	-46.0	16.5	0.00e+00	0	54	0	557842432	52	4131
2026-01-03 23:11:10.37	38.66	19.75	-45.3	-46.5	16.1	0.00e+00	0	54	0	570425344	52	4343
2026-01-03 23:11:14.33	39.24	20.17	-44.4	-45.4	17.2	0.00e+00	0	54	0	583008256	51	4059
2026-01-03 23:11:18.29	39.84	20.59	-44.3	-45.3	17.4	0.00e+00	0	54	0	595591168	51	4013
2026-01-03 23:11:22.25	40.45	21.01	-44.5	-45.5	17.1	0.00e+00	0	54	0	607125504	51	4125
2026-01-03 23:11:26.19	41.08	21.43	-44.3	-45.2	17.4	0.00e+00	0	54	0	619708416	51	3983
2026-01-03 23:11:30.13	41.73	21.86	-44.6	-45.6	17.1	0.00e+00	0	54	0	632291328	51	4146
2026-01-03 23:11:34.10	42.40	22.29	-44.8	-45.8	16.9	0.00e+00	0	54	0	644874240	51	4271
2026-01-03 23:11:38.07	43.08	22.73	-43.6	-44.4	18.3	0.00e+00	0	54	0	657457152	50	3832
2026-01-03 23:11:42.03	43.79	23.17	-43.9	-44.7	17.9	0.00e+00	0	54	0	668991488	50	3992
2026-01-03 23:11:45.98	44.51	23.61	-43.9	-44.8	17.8	0.00e+00	0	54	0	681574400	50	4038
2026-01-03 23:11:49.95	45.26	24.06	-43.4	-44.2	18.4	0.00e+00	0	55	0	694157312	50	3749
2026-01-03 23:11:53.90	46.02	24.51	-43.6	-44.4	18.2	0.00e+00	0	55	0	706740224	49	4097
2026-01-03 23:11:57.86	46.81	24.96	-43.8	-44.6	18.0	0.00e+00	0	55	0	719323136	49	4166
2026-01-03 23:12:01.82	47.61	25.41	-43.5	-44.3	18.3	0.00e+00	0	55	0	730857472	49	4051
2026-01-03 23:12:05.77	48.44	25.87	-44.4	-45.3	17.4	0.00e+00	0	55	0	743440384	50	4281
2026-01-03 23:12:09.73	49.30	26.32	-44.5	-45.4	17.3	0.00e+00	0	55	0	756023296	51	4071
2026-01-03 23:12:13.69	50.18	26.78	-44.5	-45.4	17.3	0.00e+00	0	55	0	768606208	51	4073
2026-01-03 23:12:17.64	51.08	27.24	-44.8	-45.8	17.0	0.00e+00	0	55	0	781189120	51	4251
2026-01-03 23:12:21.60	52.01	27.70	-44.7	-45.6	17.1	0.00e+00	0	55	0	792723456	51	4178
2026-01-03 23:12:25.57	52.97	28.16	-45.0	-46.0	16.8	0.00e+00	0	55	0	805306368	51	4354
2026-01-03 23:12:29.51	53.95	28.61	-44.5	-45.5	17.1	0.00e+00	0	55	0	817889280	52	3896
2026-01-03 23:12:33.44	54.96	29.06	-44.3	-45.1	17.6	0.00e+00	0	55	0	830472192	51	3954
2026-01-03 23:12:37.41	56.00	29.51	-44.2	-45.2	17.6	0.00e+00	0	55	0	843055104	51	3963
2026-01-03 23:12:41.36	57.07	29.96	-44.4	-45.3	17.5	0.00e+00	0	55	0	854589440	51	4011
2026-01-03 23:12:45.32	58.16	30.41	-44.6	-45.5	17.2	0.00e+00	0	55	0	867172352	51	4144
2026-01-03 23:12:49.28	59.29	30.85	-44.4	-45.3	17.5	0.00e+00	0	55	0	879755264	51	4029
2026-01-03 23:12:53.24	60.45	31.28	-44.5	-45.4	17.3	0.00e+00	0	55	0	892338176	51	4088
2026-01-03 23:12:57.21	61.65	31.71	-44.6	-45.5	17.2	0.00e+00	0	55	0	904921088	51	4143
2026-01-03 23:13:01.16	62.86	32.13	-45.0	-46.1	16.7	0.00e+00	0	55	0	916455424	51	4404
2026-01-03 23:13:05.11	64.11	32.55	-45.2	-46.3	16.4	0.00e+00	0	55	0	929038336	52	4262
2026-01-03 23:13:09.08	65.40	32.95	-45.4	-46.5	16.2	0.00e+00	0	55	0	941621248	52	4354
2026-01-03 23:13:13.04	66.72	33.34	-45.8	-47.1	15.7	0.00e+00	0	55	0	954204160	53	4392
2026-01-03 23:13:16.99	68.06	33.72	-46.1	-47.4	15.3	0.00e+00	0	55	0	965738496	53	4553
2026-01-03 23:13:20.94	69.43	34.09	-46.0	-47.3	15.4	0.00e+00	0	55	0	978321408	54	4269
2026-01-03 23:13:24.89	70.84	34.44	-46.3	-47.6	15.1	0.00e+00	0	55	0	990904320	54	4439
2026-01-03 23:13:28.85	72.27	34.78	-46.0	-47.3	15.5	0.00e+00	0	56	0	1003487232	54	4262
2026-01-03 23:13:32.80	73.74	35.10	-45.4	-46.5	16.2	0.00e+00	0	56	0	1016070144	54	3901
2026-01-03 23:13:36.76	75.23	35.40	-45.8	-47.0	15.7	0.00e+00	0	56	0	1027604480	53	4389
2026-01-03 23:13:40.72	76.75	35.69	-45.4	-46.6	16.2	0.00e+00	0	56	0	1040187392	53	4146
2026-01-03 23:13:44.68	78.30	35.95	-45.4	-46.5	16.2	0.00e+00	0	56	0	1052770304	53	4135
2026-01-03 23:13:48.65	79.88	36.20	-45.5	-46.6	16.1	0.00e+00	0	56	0	1065353216	53	4163
2026-01-03 23:13:52.61	81.47	36.42	-45.8	-47.0	15.7	0.00e+00	0	56	0	1077936128	53	4387
2026-01-03 23:13:56.56	83.08	36.61	-46.3	-47.7	15.1	0.00e+00	0	56	0	1089470464	54	4443
2026-01-03 23:14:00.52	84.71	36.79	-45.6	-46.7	16.0	0.00e+00	0	56	0	1102053376	54	3998
2026-01-03 23:14:04.48	86.36	36.93	-45.7	-46.9	15.9	0.00e+00	0	56	0	1114636288	54	4075
2026-01-03 23:14:08.44	88.02	37.06	-45.7	-46.9	15.9	0.00e+00	0	56	0	1127219200	54	4068
2026-01-03 23:14:12.40	89.69	37.15	-46.0	-47.3	15.5	0.00e+00	0	56	0	1139802112	54	4274
2026-01-03 23:14:16.36	91.38	37.22	-45.6	-46.8	16.0	0.00e+00	0	56	0	1151336448	54	4028
2026-01-03 23:14:20.32	93.06	37.27	-46.0	-47.2	15.5	0.00e+00	0	56	0	1163919360	54	4240
2026-01-03 23:14:24.28	94.75	37.28	-45.7	-46.9	15.9	0.00e+00	0	56	0	1176502272	54	4072
2026-01-03 23:14:28.23	96.44	37.27	-45.6	-46.7	16.1	0.00e+00	0	56	0	1189085184	54	3992
2026-01-03 23:14:32.17	98.12	37.23	-45.8	-46.9	15.8	0.00e+00	0	56	0	1201668096	54	4095
2026-01-03 23:14:36.13	99.80	37.16	-45.7	-46.9	15.9	0.00e+00	0	56	0	1213202432	54	4089
2026-01-03 23:14:40.09	101.48	37.07	-45.7	-46.8	15.9	0.00e+00	0	56	0	1225785344	54	4038
2026-01-03 23:14:44.06	103.15	36.95	-46.1	-47.3	15.5	0.00e+00	0	56	0	1238368256	54	4287
2026-01-03 23:14:48.01	104.79	36.80	-46.4	-47.7	15.1	0.00e+00	0	56	0	1250951168	55	4232
2026-01-03 23:14:51.96	106.42	36.63	-46.4	-47.7	15.1	0.00e+00	0	56	0	1263534080	55	4228
2026-01-03 23:14:55.91	108.04	36.44	-46.0	-47.3	15.5	0.00e+00	0	56	0	1275068416	55	4018
2026-01-03 23:14:59.87	109.63	36.22	-46.0	-47.3	15.5	0.00e+00	0	56	0	1287651328	54	4270
2026-01-03 23:15:03.81	111.20	35.98	-46.1	-47.4	15.4	0.00e+00	0	56	0	1300234240	54	4294
2026-01-03 23:15:07.78	112.76	35.71	-46.0	-47.3	15.5	0.00e+00	0	56	0	1312817152	54	4268
2026-01-03 23:15:11.73	114.28	35.43	-45.1	-46.2	16.5	0.00e+00	0	56	0	1324351488	53	3981
2026-01-03 23:15:15.70	115.78	35.13	-45.0	-46.1	16.6	0.00e+00	0	56	0	1336934400	52	4175
2026-01-03 23:15:19.65	117.25	34.81	-45.2	-46.3	16.5	0.00e+00	0	56	0	1349517312	52	4246
2026-01-03 23:15:23.61	118.70	34.47	-45.1	-46.1	16.7	0.00e+00	0	56	0	1362100224	52	4157
2026-01-03 23:15:27.57	120.11	34.12	-44.5	-45.4	17.3	0.00e+00	0	56	0	1374683136	52	3868
2026-01-03 23:15:31.51	121.49	33.75	-44.6	-45.5	17.2	0.00e+00	0	56	0	1386217472	52	3901
2026-01-03 23:15:35.46	122.84	33.37	-44.3	-45.2	17.5	0.00e+00	0	56	0	1398800384	51	3990
2026-01-03 23:15:39.41	124.15	32.98	-44.6	-45.5	17.3	0.00e+00	0	56	0	1411383296	51	4134
2026-01-03 23:15:43.37	125.44	32.58	-44.7	-45.7	17.1	0.00e+00	0	56	0	1423966208	51	4204
2026-01-03 23:15:47.33	126.70	32.16	-44.7	-45.7	17.1	0.00e+00	0	56	0	1435500544	51	4200
2026-01-03 23:15:51.28	127.93	31.74	-44.3	-45.2	17.6	0.00e+00	0	56	0	1448083456	51	3969
2026-01-03 23:15:55.25	129.13	31.31	-44.6	-45.5	17.3	0.00e+00	0	56	0	1460666368	51	4113
2026-01-03 23:15:59.20	130.29	30.88	-44.9	-46.0	16.8	0.00e+00	0	56	0	1473249280	52	4106
2026-01-03 23:16:03.16	131.42	30.43	-45.0	-46.0	16.7	0.00e+00	0	56	0	1485832192	52	4111
2026-01-03 23:16:07.13	132.53	29.99	-44.6	-45.6	17.2	0.00e+00	0	56	0	1498415104	52	3917
2026-01-03 23:16:11.09	133.61	29.53	-45.3	-46.3	16.4	0.00e+00	0	56	0	1509949440	52	4285
2026-01-03 23:16:15.05	134.65	29.08	-44.9	-45.9	16.8	0.00e+00	0	56	0	1522532352	52	4085
2026-01-03 23:16:19.01	135.67	28.62	-44.8	-45.8	16.9	0.00e+00	0	56	0	1535115264	52	4009
2026-01-03 23:16:22.98	136.66	28.16	-44.3	-45.2	17.5	0.00e+00	0	56	0	1547698176	51	3981
2026-01-03 23:16:26.92	137.62	27.70	-44.7	-45.7	17.0	0.00e+00	0	56	0	1560281088	51	4223
2026-01-03 23:16:30.87	138.55	27.25	-44.5	-45.4	17.3	0.00e+00	0	56	0	1571815424	51	4078
2026-01-03 23:16:34.82	139.46	26.79	-44.2	-45.1	17.6	0.00e+00	0	56	0	1584398336	51	3955
2026-01-03 23:16:38.78	140.34	26.33	-43.7	-44.5	18.2	0.00e+00	0	56	0	1596981248	50	3892
2026-01-03 23:16:42.73	141.20	25.87	-43.7	-44.6	18.1	0.00e+00	0	56	0	1609564160	50	3920
2026-01-03 23:16:46.68	142.03	25.41	-43.7	-44.5	18.2	0.00e+00	0	56	0	1621098496	50	3898
2026-01-03 23:16:50.63	142.84	24.96	-43.9	-44.7	17.9	0.00e+00	0	57	0	1633681408	50	4000
2026-01-03 23:16:54.59	143.63	24.50	-44.1	-44.9	17.8	0.00e+00	0	57	0	1646264320	50	4085
2026-01-03 23:16:58.56	144.40	24.05	-44.1	-45.0	17.7	0.00e+00	0	57	0	1658847232	50	4121
2026-01-03 23:17:02.52	145.15	23.60	-44.7	-45.7	17.1	0.00e+00	0	56	0	1671430144	51	4194
2026-01-03 23:17:06.48	145.88	23.15	-44.1	-45.0	17.7	0.00e+00	0	56	0	1682964480	51	3871
2026-01-03 23:17:10.45	146.59	22.71	-44.1	-45.0	17.7	0.00e+00	0	56	0	1695547392	51	3879
2026-01-03 23:17:14.41	147.27	22.27	-44.3	-45.2	17.5	0.00e+00	0	56	0	1708130304	51	3975
2026-01-03 23:17:18.38	147.95	21.83	-44.6	-45.5	17.2	0.00e+00	0	56	0	1720713216	51	4131
2026-01-03 23:17:22.33	148.59	21.40	-44.6	-45.6	17.1	0.00e+00	0	56	0	1733296128	51	4173
2026-01-03 23:17:26.29	149.23	20.97	-44.8	-45.8	16.9	0.00e+00	0	56	0	1744830464	51	4272
2026-01-03 23:17:30.23	149.84	20.55	-44.6	-45.5	17.1	0.00e+00	0	56	0	1757413376	51	4133
2026-01-03 23:17:34.19	150.44	20.13	-44.3	-45.2	17.4	0.00e+00	0	57	0	1769996288	51	3995
2026-01-03 23:17:38.14	151.03	19.72	-44.3	-45.2	17.5	0.00e+00	0	56	0	1782579200	51	3966
2026-01-03 23:17:42.10	151.60	19.30	-44.1	-45.0	17.6	0.00e+00	0	56	0	1795162112	51	3870
2026-01-03 23:17:46.07	152.16	18.89	-44.3	-45.2	17.4	0.00e+00	0	56	0	1806696448	51	3974
2026-01-03 23:17:50.02	152.70	18.49	-44.3	-45.3	17.3	0.00e+00	0	57	0	1819279360	51	4014
2026-01-03 23:17:53.98	153.22	18.09	-44.4	-45.4	17.2	0.00e+00	0	57	0	1831862272	51	4055
2026-01-03 23:17:57.93	153.74	17.69	-45.0	-46.0	16.6	0.00e+00	0	57	0	1844445184	51	4360
2026-01-03 23:18:01.90	154.24	17.30	-45.3	-46.4	16.1	0.00e+00	0	57	0	1857028096	52	4319
2026-01-03 23:18:05.86	154.73	16.91	-45.3	-46.4	16.1	0.00e+00	0	57	0	1868562432	53	4098
2026-01-03 23:18:09.83	155.21	16.53	-45.3	-46.5	16.0	0.00e+00	0	56	0	1881145344	53	4129
2026-01-03 23:18:13.79	155.67	16.15	-44.7	-45.7	16.8	0.00e+00	0	57	0	1893728256	52	3997
2026-01-03 23:18:17.74	156.13	15.78	-44.9	-46.0	16.5	0.00e+00	0	57	0	1906311168	52	4102
2026-01-03 23:18:21.69	156.57	15.41	-45.2	-46.3	16.2	0.00e+00	0	57	0	1918894080	52	4265
2026-01-03 23:18:25.65	157.01	15.04	-45.0	-46.1	16.3	0.00e+00	0	57	0	1930428416	52	4187
2026-01-03 23:18:29.60	157.43	14.68	-44.9	-46.0	16.4	0.00e+00	0	57	0	1943011328	52	4121
2026-01-03 23:18:33.54	157.84	14.32	-45.5	-46.8	15.7	0.00e+00	0	57	0	1955594240	52	4507
2026-01-03 23:18:37.51	158.25	13.96	-45.9	-47.2	15.2	0.00e+00	0	57	0	1968177152	53	4461
2026-01-03 23:18:41.47	158.64	13.61	-45.8	-47.0	15.4	0.00e+00	0	57	0	1979711488	53	4391
2026-01-03 23:18:45.44	159.03	13.27	-45.2	-46.4	16.0	0.00e+00	0	57	0	1992294400	53	4080
2026-01-03 23:18:49.39	159.41	12.92	-45.3	-46.5	15.9	0.00e+00	0	57	0	2004877312	53	4127
2026-01-03 23:18:53.34	159.78	12.58	-45.7	-46.9	15.4	0.00e+00	0	57	0	2017460224	53	4328
2026-01-03 23:18:57.32	160.14	12.25	-45.4	-46.6	15.8	0.00e+00	0	57	0	2030043136	53	4150
2026-01-03 23:19:01.27	160.50	11.91	-45.2	-46.3	16.0	0.00e+00	0	57	0	2042626048	53	4032
2026-01-03 23:19:05.24	160.84	11.58	-45.3	-46.5	15.8	0.00e+00	0	57	0	2054160384	53	4136
2026-01-03 23:19:09.19	161.18	11.26	-45.5	-46.8	15.5	0.00e+00	0	57	0	2066743296	53	4261
2026-01-03 23:19:13.16	161.52	10.94	-46.1	-47.6	14.8	0.00e+00	0	57	0	2079326208	54	4393
2026-01-03 23:19:17.13	161.84	10.62	-46.1	-47.5	14.8	0.00e+00	0	57	0	2091909120	54	4387
2026-01-03 23:19:21.10	162.16	10.30	-46.1	-47.5	14.8	0.00e+00	0	57	0	2104492032	54	4356
2026-01-03 23:19:25.05	162.47	9.99	-46.3	-47.8	14.5	0.00e+00	0	57	0	2116026368	54	4495
2026-01-03 23:19:28.99	162.78	9.68	-46.1	-47.5	14.7	0.00e+00	0	57	0	2128609280	54	4364
2026-01-03 23:19:32.92	163.08	9.38	-46.0	-47.4	14.8	0.00e+00	0	57	0	2141192192	54	4298
2026-01-03 23:19:36.89	163.37	9.07	-46.1	-47.6	14.6	0.00e+00	0	57	0	2153775104	54	4405
2026-01-03 23:19:40.84	163.66	8.78	-46.2	-47.7	14.4	0.00e+00	0	57	0	2166358016	54	4478
2026-01-03 23:19:44.80	163.94	8.48	-46.3	-47.9	14.2	0.00e+00	0	57	0	2177892352	54	4564
2026-01-03 23:19:48.75	164.22	8.19	-46.0	-47.5	14.6	0.00e+00	0	57	0	2190475264	54	4341
2026-01-03 23:19:52.72	164.49	7.89	-46.2	-47.7	14.3	7.00e-07	0	57	0	2203058176	54	4491
2026-01-03 23:19:56.67	164.76	7.61	-46.6	-48.3	13.7	2.20e-06	0	57	0	2215641088	55	4540
2026-01-03 23:20:00.64	165.03	7.32	-46.4	-48.0	14.0	3.00e-06	0	57	0	2228224000	55	4356
2026-01-03 23:20:04.61	165.28	7.04	-46.7	-48.5	13.3	1.14e-05	0	57	0	2239758336	55	4607
2026-01-03 23:20:08.56	165.54	6.76	-46.6	-48.3	13.6	6.10e-06	0	57	0	2252341248	56	4252
2026-01-03 23:20:12.53	165.79	6.48	-47.1	-49.1	12.6	4.27e-05	0	57	0	2264924160	56	4667
2026-01-03 23:20:16.48	166.03	6.20	-46.3	-48.0	13.5	1.60e-05	0	57	0	2277507072	55	4375
2026-01-03 23:20:20.45	166.27	5.93	-46.4	-48.4	12.7	6.17e-05	0	57	0	2290089984	55	4573
2026-01-03 23:20:24.42	166.51	5.66	-47.5	-50.4	10.3	5.26e-03	0	57	0	2301624320	56	5419
2026-01-03 23:20:28.38	166.74	5.39	-48.5	-53.2	7.0	1.45e-01	0	57	0	2314207232	58	6651
2026-01-03 23:20:32.32	166.97	5.13	-48.5	-54.8	5.3	5.67e-01	0	57	0	2326790144	59	7599
2026-01-03 23:20:36.28	167.19	4.87	-51.9	-63.4	3.8	1.49e+00	0	57	104	2329935872	65	14478
2026-01-03 23:20:40.24	167.41	4.60	-52.1	-63.9	3.8	1.49e+00	0	57	104	2329935872	66	14377
2026-01-03 23:20:44.21	167.63	4.35	-52.5	-64.0	3.8	1.49e+00	0	57	104	2329935872	66	14640
2026-01-03 23:20:48.17	167.84	4.09	-52.6	-64.0	3.8	1.49e+00	0	57	104	2329935872	67	13874
2026-01-03 23:20:52.12	168.05	3.84	-52.5	-64.1	3.8	1.49e+00	0	57	104	2329935872	67	13985
2026-01-03 23:20:56.08	168.26	3.58	-52.7	-64.1	3.8	1.49e+00	0	57	104	2329935872	67	13974
2026-01-03 23:21:00.04	168.46	3.33	-52.7	-64.1	3.8	1.49e+00	0	57	104	2329935872	67	13955
2026-01-03 23:21:03.99	168.66	3.09	-52.6	-64.1	3.8	1.49e+00	0	57	104	2329935872	67	13985

#Closed at: 2026-01-03 23:21:06
#Recorded file [2329 MB]: D:/Data/31026_260104_022033.dat