passes_logs/2026/01/03/R3.0SM8_Murmansk_STILSPACE/R3.0SM8_Murmansk_STILSPACE__20260103_091718_AQUA_rec.log

#Pass ID: 20260103_091718_AQUA
#Satellite: AQUA
#Configuration: AQUA
#almurnet v.1.7.20240730
#Start time: 2026-01-03 09:17:19

#Version: 2.2.20231116
#Station: R3.0SM8_Murmansk_STILSPACE
#Location: 33.092731 lon 68.902999 lat
#TLE: 1 27424U 02022A   25365.92641127  .00002078  00000+0  42628-3 0  9999
#TLE: 2 27424  98.4058 327.1196 0001962  94.7781 340.6230 14.61783896258835

#Time	Az	El	Level	Level2	SNR	BER	BlckErr	Temp	State	Recorded	gain1	gain2
2026-01-03 09:17:19.23	104.09	3.07	-54.6	-74.6	3.8	7.44e-01	0	46	0	0	71	37849
2026-01-03 09:17:22.19	103.92	3.26	-54.1	-73.2	3.9	7.43e-01	0	46	104	0	71	32285
2026-01-03 09:17:25.14	103.75	3.45	-53.8	-73.1	3.8	7.46e-01	0	47	104	0	71	31847
2026-01-03 09:17:28.10	103.57	3.65	-53.8	-73.5	3.8	7.47e-01	0	47	104	0	71	33377
2026-01-03 09:17:31.06	103.39	3.84	-53.8	-73.2	3.8	7.46e-01	0	47	104	0	71	32395
2026-01-03 09:17:34.03	103.21	4.04	-53.7	-71.2	3.9	7.41e-01	0	47	104	0	71	25613
2026-01-03 09:17:37.00	103.02	4.24	-53.6	-66.2	6.3	6.78e-01	91	47	0	524288	70	15274
2026-01-03 09:17:39.98	102.83	4.44	-53.2	-62.3	10.0	6.23e-01	0	48	0	6291456	70	9774
2026-01-03 09:17:42.96	102.64	4.64	-52.5	-58.8	13.8	6.08e-01	0	48	0	11534336	68	7325
2026-01-03 09:17:45.92	102.44	4.84	-51.7	-56.4	16.0	6.04e-01	0	48	0	17301504	67	5922
2026-01-03 09:17:48.89	102.24	5.05	-51.3	-55.6	17.0	6.06e-01	0	48	0	22544384	66	5669
2026-01-03 09:17:51.87	102.04	5.26	-51.3	-55.5	17.1	6.05e-01	0	48	0	28311552	66	5636
2026-01-03 09:17:54.85	101.83	5.46	-51.4	-55.6	17.1	6.05e-01	0	49	0	34078720	66	5666
2026-01-03 09:17:57.81	101.63	5.67	-51.2	-55.1	17.2	6.06e-01	0	49	0	39321600	66	5389
2026-01-03 09:18:00.78	101.42	5.88	-50.3	-53.4	19.2	6.05e-01	0	49	0	45088768	64	4954
2026-01-03 09:18:03.75	101.20	6.09	-49.8	-52.5	20.2	6.07e-01	0	49	0	50855936	63	4725
2026-01-03 09:18:06.72	100.98	6.31	-49.6	-52.2	20.5	6.06e-01	0	49	0	56098816	62	4841
2026-01-03 09:18:09.70	100.76	6.52	-49.7	-52.4	20.4	6.06e-01	0	49	0	61865984	62	4929
2026-01-03 09:18:12.67	100.53	6.74	-49.5	-52.0	20.7	6.05e-01	0	50	0	67108864	62	4731
2026-01-03 09:18:15.65	100.30	6.96	-49.6	-52.0	20.7	6.08e-01	0	49	0	72876032	62	4748
2026-01-03 09:18:18.62	100.07	7.18	-49.6	-52.0	20.8	6.07e-01	0	50	0	78643200	62	4748
2026-01-03 09:18:21.59	99.83	7.40	-49.4	-51.8	21.0	6.07e-01	0	50	0	83886080	62	4636
2026-01-03 09:18:24.53	99.59	7.62	-49.6	-52.0	20.9	6.05e-01	0	50	0	89653248	62	4739
2026-01-03 09:18:27.50	99.34	7.85	-49.8	-52.3	20.6	6.05e-01	0	50	0	94896128	62	4901
2026-01-03 09:18:30.46	99.09	8.07	-49.7	-52.2	20.7	6.06e-01	0	50	0	100663296	62	4829
2026-01-03 09:18:33.42	98.83	8.30	-49.7	-52.3	20.7	6.05e-01	0	50	0	106430464	62	4872
2026-01-03 09:18:36.39	98.57	8.53	-49.5	-51.9	21.1	6.07e-01	0	50	0	111673344	62	4655
2026-01-03 09:18:39.37	98.31	8.77	-49.4	-51.7	21.3	6.06e-01	0	51	0	117440512	62	4563
2026-01-03 09:18:42.35	98.04	9.00	-49.4	-51.7	21.3	6.07e-01	0	51	0	123207680	62	4573
2026-01-03 09:18:45.32	97.76	9.24	-49.1	-51.2	21.6	6.08e-01	0	51	0	128450560	61	4593
2026-01-03 09:18:48.30	97.48	9.48	-49.0	-51.2	21.8	6.05e-01	0	51	0	134217728	61	4546
2026-01-03 09:18:51.27	97.20	9.72	-49.1	-51.3	21.7	6.06e-01	0	51	0	139460608	61	4616
2026-01-03 09:18:54.23	96.91	9.96	-49.3	-51.5	21.6	6.04e-01	0	51	0	145227776	61	4707
2026-01-03 09:18:57.21	96.61	10.20	-49.1	-51.3	21.8	6.07e-01	0	51	0	150994944	61	4599
2026-01-03 09:19:00.17	96.31	10.45	-49.2	-51.3	21.7	6.05e-01	0	51	0	156237824	61	4630
2026-01-03 09:19:03.13	96.01	10.69	-49.3	-51.5	21.6	6.08e-01	0	52	0	162004992	61	4721
2026-01-03 09:19:06.11	95.69	10.94	-49.2	-51.4	21.8	6.06e-01	0	51	0	167247872	61	4652
2026-01-03 09:19:09.08	95.38	11.19	-49.4	-51.6	21.5	6.05e-01	0	52	0	173015040	61	4776
2026-01-03 09:19:12.04	95.05	11.45	-48.8	-50.8	22.3	6.06e-01	0	52	0	178782208	61	4359
2026-01-03 09:19:15.02	94.72	11.70	-48.8	-50.8	22.3	6.08e-01	0	52	0	184025088	61	4352
2026-01-03 09:19:17.99	94.38	11.96	-48.7	-50.7	22.4	6.09e-01	0	52	0	189792256	61	4309
2026-01-03 09:19:20.97	94.04	12.22	-48.9	-51.0	22.2	6.06e-01	0	52	0	195559424	61	4443
2026-01-03 09:19:23.94	93.69	12.49	-49.3	-51.4	21.8	6.06e-01	0	52	0	200802304	61	4678
2026-01-03 09:19:26.91	93.33	12.75	-49.1	-51.2	22.0	6.06e-01	0	52	0	206569472	61	4554
2026-01-03 09:19:29.87	92.97	13.02	-48.7	-50.6	22.6	6.07e-01	0	52	0	211812352	61	4254
2026-01-03 09:19:32.84	92.60	13.28	-48.6	-50.5	22.6	6.06e-01	0	52	0	217579520	60	4463
2026-01-03 09:19:35.82	92.21	13.56	-48.5	-50.3	22.8	6.03e-01	0	52	0	223346688	60	4366
2026-01-03 09:19:38.79	91.83	13.83	-48.5	-50.4	22.8	6.05e-01	0	52	0	228589568	60	4410
2026-01-03 09:19:41.75	91.43	14.10	-48.5	-50.3	22.8	6.07e-01	0	53	0	234356736	60	4389
2026-01-03 09:19:44.72	91.03	14.38	-48.7	-50.6	22.5	6.08e-01	0	53	0	240123904	60	4543
2026-01-03 09:19:47.69	90.62	14.66	-48.9	-50.8	22.4	6.07e-01	0	53	0	245366784	60	4627
2026-01-03 09:19:50.66	90.20	14.94	-48.8	-50.7	22.6	6.05e-01	0	53	0	251133952	60	4552
2026-01-03 09:19:53.63	89.77	15.22	-48.7	-50.7	22.6	6.06e-01	0	53	0	256901120	60	4546
2026-01-03 09:19:56.61	89.33	15.51	-48.4	-50.2	23.1	6.05e-01	0	53	0	262144000	60	4295
2026-01-03 09:19:59.58	88.88	15.80	-48.4	-50.2	23.0	6.03e-01	0	53	0	267911168	60	4323
2026-01-03 09:20:02.56	88.43	16.09	-49.0	-60.4	3.9	7.43e-01	0	53	104	270532608	60	14024
2026-01-03 09:20:05.54	87.96	16.38	-49.9	-61.6	3.8	7.44e-01	0	53	104	270532608	61	15194
2026-01-03 09:20:08.51	87.48	16.67	-50.6	-62.9	3.8	7.49e-01	0	53	104	270532608	63	15589
2026-01-03 09:20:11.47	87.00	16.97	-51.0	-63.5	3.8	7.44e-01	0	53	104	270532608	64	15924
2026-01-03 09:20:14.45	86.50	17.27	-52.1	-65.4	4.1	7.33e-01	0	53	104	270532608	66	17673
2026-01-03 09:20:17.42	85.99	17.56	-51.3	-63.9	3.8	7.49e-01	0	54	104	270532608	66	14867
2026-01-03 09:20:20.39	85.47	17.87	-51.0	-63.5	3.8	7.49e-01	0	54	104	270532608	65	14900
2026-01-03 09:20:23.36	84.94	18.17	-50.2	-62.1	3.8	7.48e-01	0	54	104	270532608	63	14334
2026-01-03 09:20:26.33	84.40	18.47	-49.4	-61.1	3.8	7.45e-01	0	54	104	270532608	62	13472
2026-01-03 09:20:29.29	83.85	18.78	-49.2	-60.8	3.8	7.46e-01	0	54	104	270532608	61	13833
2026-01-03 09:20:32.24	83.29	19.08	-50.1	-62.0	3.8	7.45e-01	0	54	104	270532608	62	15030
2026-01-03 09:20:35.22	82.71	19.39	-50.2	-62.1	3.8	7.44e-01	0	54	104	270532608	62	15218
2026-01-03 09:20:38.19	82.12	19.70	-50.8	-63.2	3.8	7.44e-01	0	54	104	270532608	64	15347
2026-01-03 09:20:41.17	81.52	20.01	-52.1	-65.5	3.8	7.47e-01	0	54	104	270532608	66	17684
2026-01-03 09:20:44.13	80.91	20.32	-53.5	-68.9	3.8	7.47e-01	0	54	104	270532608	69	22183
2026-01-03 09:20:47.10	80.28	20.64	-53.6	-69.4	3.8	7.46e-01	0	54	104	270532608	69	23368
2026-01-03 09:20:50.06	79.64	20.95	-53.3	-68.1	3.8	7.45e-01	0	54	104	270532608	69	20173
2026-01-03 09:20:53.03	78.98	21.26	-53.7	-69.5	3.8	7.45e-01	0	54	104	270532608	70	22270
2026-01-03 09:20:55.99	78.31	21.57	-52.2	-65.7	3.8	7.43e-01	0	54	104	270532608	68	16182
2026-01-03 09:20:58.96	77.62	21.89	-51.5	-64.4	3.8	7.41e-01	0	54	104	270532608	66	15611
2026-01-03 09:21:01.91	76.93	22.20	-51.7	-64.6	3.8	7.48e-01	0	55	104	270532608	66	16082
2026-01-03 09:21:04.89	76.21	22.51	-51.0	-63.4	3.8	7.43e-01	0	55	104	270532608	65	14828
2026-01-03 09:21:07.87	75.48	22.83	-50.1	-62.0	3.8	7.46e-01	0	55	104	270532608	63	14066
2026-01-03 09:21:10.85	74.73	23.14	-50.5	-62.6	3.8	7.46e-01	0	54	104	270532608	63	15072
2026-01-03 09:21:13.82	73.97	23.45	-49.7	-61.4	3.8	7.41e-01	0	55	104	270532608	62	13915
2026-01-03 09:21:16.79	73.19	23.76	-49.3	-60.9	3.8	7.47e-01	0	55	104	270532608	62	13189
2026-01-03 09:21:19.75	72.40	24.07	-50.1	-62.0	3.8	7.42e-01	0	55	104	270532608	62	14939
2026-01-03 09:21:22.72	71.58	24.38	-50.9	-63.2	3.8	7.45e-01	0	55	104	270532608	64	15284
2026-01-03 09:21:25.68	70.76	24.68	-51.0	-63.3	3.8	7.45e-01	0	55	104	270532608	64	15573
2026-01-03 09:21:28.65	69.91	24.98	-51.8	-64.7	3.8	7.46e-01	0	55	104	270532608	65	17185
2026-01-03 09:21:31.61	69.05	25.28	-53.3	-68.0	3.8	7.49e-01	0	55	104	270532608	68	21230
2026-01-03 09:21:34.58	68.18	25.57	-54.2	-71.4	3.8	7.46e-01	0	55	104	270532608	70	27782
2026-01-03 09:21:37.54	67.28	25.86	-54.2	-71.3	3.8	7.42e-01	0	55	104	270532608	70	27618
2026-01-03 09:21:40.52	66.37	26.15	-53.7	-69.3	3.8	7.49e-01	0	55	104	270532608	70	21997
2026-01-03 09:21:43.49	65.44	26.43	-52.2	-65.5	3.8	7.45e-01	0	55	104	270532608	68	15869
2026-01-03 09:21:46.45	64.49	26.71	-50.6	-62.8	3.8	7.45e-01	0	55	104	270532608	64	14670
2026-01-03 09:21:49.43	63.52	26.98	-50.1	-61.9	3.8	7.45e-01	0	55	104	270532608	63	14020
2026-01-03 09:21:52.40	62.54	27.24	-50.4	-62.4	3.8	7.44e-01	0	55	104	270532608	63	14740
2026-01-03 09:21:55.37	61.54	27.50	-49.8	-61.5	3.8	7.44e-01	0	55	104	270532608	63	13276
2026-01-03 09:21:58.33	60.53	27.75	-49.2	-60.7	3.8	7.45e-01	0	55	104	270532608	62	12910
2026-01-03 09:22:01.30	59.50	28.00	-50.0	-61.8	3.8	7.48e-01	0	55	104	270532608	62	14707
2026-01-03 09:22:04.28	58.45	28.23	-48.9	-60.4	3.8	7.45e-01	0	55	104	270532608	61	13152
2026-01-03 09:22:07.24	57.38	28.46	-49.4	-60.9	3.8	7.45e-01	0	55	104	270532608	61	13993
2026-01-03 09:22:10.21	56.30	28.68	-50.4	-62.4	3.8	7.45e-01	0	55	104	270532608	62	15616
2026-01-03 09:22:13.18	55.21	28.89	-51.2	-63.6	3.8	7.47e-01	0	55	104	270532608	64	16082
2026-01-03 09:22:16.16	54.10	29.09	-51.4	-64.4	3.8	7.44e-01	0	56	104	270532608	65	16585
2026-01-03 09:22:19.11	52.98	29.28	-52.4	-66.3	3.8	7.46e-01	0	56	104	270532608	67	18372
2026-01-03 09:22:22.08	51.84	29.46	-53.8	-69.5	3.8	7.44e-01	0	55	104	270532608	69	23749
2026-01-03 09:22:25.05	50.69	29.62	-53.2	-67.7	3.8	7.45e-01	0	55	104	270532608	69	19292
2026-01-03 09:22:28.02	49.53	29.78	-52.9	-66.9	3.8	7.46e-01	0	55	104	270532608	69	17522
2026-01-03 09:22:30.98	48.36	29.92	-51.8	-64.6	3.8	7.47e-01	0	55	104	270532608	67	15225
2026-01-03 09:22:33.94	47.18	30.05	-50.3	-62.3	3.8	7.46e-01	0	55	104	270532608	64	13870
2026-01-03 09:22:36.92	45.99	30.17	-49.6	-61.2	3.8	7.44e-01	0	55	104	270532608	62	13581
2026-01-03 09:22:39.87	44.80	30.27	-49.1	-60.5	3.8	7.47e-01	0	56	104	270532608	61	13399
2026-01-03 09:22:42.83	43.59	30.36	-49.4	-61.0	3.8	7.44e-01	0	56	104	270532608	61	14086
2026-01-03 09:22:45.81	42.37	30.44	-49.1	-60.6	3.8	7.45e-01	0	56	104	270532608	61	13559
2026-01-03 09:22:48.78	41.15	30.51	-49.4	-61.0	3.8	7.44e-01	0	56	104	270532608	61	14208
2026-01-03 09:22:51.75	39.93	30.55	-49.9	-61.7	3.8	7.42e-01	0	56	104	270532608	62	14415
2026-01-03 09:22:54.72	38.70	30.59	-49.2	-60.6	3.9	7.43e-01	0	56	104	270532608	61	13517
2026-01-03 09:22:57.70	37.46	30.61	-49.9	-61.7	3.8	7.46e-01	0	56	104	270532608	61	15292
2026-01-03 09:23:00.65	36.24	30.62	-51.0	-63.3	3.8	7.47e-01	0	56	104	270532608	64	15509
2026-01-03 09:23:03.62	35.01	30.61	-51.6	-64.4	3.8	7.40e-01	0	56	104	270532608	65	16667
2026-01-03 09:23:06.58	33.79	30.59	-51.9	-65.0	3.8	7.47e-01	0	56	104	270532608	66	16773
2026-01-03 09:23:09.54	32.56	30.55	-53.0	-67.2	3.8	7.45e-01	0	56	104	270532608	68	19221
2026-01-03 09:23:12.51	31.34	30.50	-52.2	-65.5	3.8	7.43e-01	0	56	104	270532608	68	15915
2026-01-03 09:23:15.46	30.13	30.43	-51.9	-65.0	3.8	7.43e-01	0	56	104	270532608	66	16818
2026-01-03 09:23:18.43	28.91	30.35	-51.3	-63.9	3.8	7.44e-01	0	56	104	270532608	66	14752
2026-01-03 09:23:21.41	27.70	30.26	-50.3	-62.3	3.8	7.45e-01	0	56	104	270532608	64	13849
2026-01-03 09:23:24.38	26.51	30.15	-49.8	-61.4	3.8	7.46e-01	0	56	104	270532608	63	13128
2026-01-03 09:23:27.35	25.31	30.03	-49.8	-61.5	3.8	7.42e-01	0	56	104	270532608	63	13410
2026-01-03 09:23:30.31	24.14	29.90	-49.2	-60.7	3.8	7.45e-01	0	56	104	270532608	62	12866
2026-01-03 09:23:33.28	22.97	29.76	-49.3	-60.9	3.8	7.44e-01	0	56	104	270532608	61	14028
2026-01-03 09:23:36.25	21.81	29.60	-49.2	-60.6	3.8	7.44e-01	0	56	104	270532608	61	13473
2026-01-03 09:23:39.22	20.66	29.43	-49.7	-61.7	3.8	7.44e-01	0	56	104	270532608	61	15281
2026-01-03 09:23:42.18	19.53	29.25	-49.9	-61.9	3.8	7.45e-01	0	56	104	270532608	62	14715
2026-01-03 09:23:45.15	18.41	29.06	-49.8	-61.9	3.8	7.44e-01	0	56	104	270532608	62	14779
2026-01-03 09:23:48.11	17.31	28.86	-50.7	-63.4	3.8	7.43e-01	0	56	104	270532608	63	16540
2026-01-03 09:23:51.08	16.22	28.65	-51.9	-66.6	3.8	7.44e-01	0	56	104	270532608	66	20299
2026-01-03 09:23:54.04	15.15	28.43	-52.4	-68.4	3.8	7.44e-01	0	56	104	270532608	67	23572
2026-01-03 09:23:57.01	14.09	28.20	-53.0	-70.0	3.9	7.45e-01	0	56	104	270532608	68	26539
2026-01-03 09:23:59.98	13.04	27.97	-52.7	-68.5	3.8	7.43e-01	0	56	104	270532608	68	22346
2026-01-03 09:24:02.96	12.01	27.72	-52.7	-68.5	3.8	7.45e-01	0	56	104	270532608	68	22508
2026-01-03 09:24:05.93	11.00	27.47	-52.7	-67.9	3.8	7.48e-01	0	56	104	270532608	68	20893
2026-01-03 09:24:08.89	10.01	27.21	-51.7	-65.3	3.8	7.43e-01	0	56	104	270532608	67	16358
2026-01-03 09:24:11.86	9.03	26.94	-50.9	-63.5	3.8	7.45e-01	0	56	104	270532608	65	14942
2026-01-03 09:24:14.85	8.06	26.67	-50.3	-62.7	3.8	7.44e-01	0	56	104	270532608	64	14394
2026-01-03 09:24:17.81	7.12	26.39	-50.2	-62.3	3.8	7.44e-01	0	56	104	270532608	64	13810
2026-01-03 09:24:20.79	6.20	26.11	-50.0	-61.8	3.8	7.45e-01	0	56	104	270532608	63	13819
2026-01-03 09:24:23.75	5.29	25.83	-50.2	-62.3	3.8	7.47e-01	0	56	104	270532608	63	14619
2026-01-03 09:24:26.72	4.40	25.53	-52.0	-67.6	3.8	7.42e-01	0	56	104	270532608	66	22521
2026-01-03 09:24:29.68	3.53	25.24	-52.1	-67.0	3.8	7.50e-01	0	56	104	270532608	66	21063
2026-01-03 09:24:32.64	2.67	24.94	-50.4	-62.7	3.8	7.47e-01	0	56	104	270532608	64	14452
2026-01-03 09:24:35.60	1.83	24.64	-49.9	-61.9	3.8	7.45e-01	0	56	104	270532608	63	13902
2026-01-03 09:24:38.56	1.01	24.34	-50.8	-63.1	3.8	7.46e-01	0	56	104	270532608	63	16001
2026-01-03 09:24:41.53	0.21	24.04	-50.7	-63.0	3.8	7.42e-01	0	56	104	270532608	65	14073
2026-01-03 09:24:44.50	359.42	23.73	-50.6	-62.8	3.8	7.45e-01	0	56	104	270532608	64	14581
2026-01-03 09:24:47.47	358.64	23.42	-51.4	-64.1	3.8	7.46e-01	0	56	104	270532608	64	16973
2026-01-03 09:24:50.44	357.88	23.11	-51.1	-63.4	3.8	7.45e-01	0	56	104	270532608	65	14793
2026-01-03 09:24:53.42	357.14	22.80	-51.1	-63.9	3.8	7.46e-01	0	56	104	270532608	65	15658
2026-01-03 09:24:56.39	356.41	22.48	-51.8	-64.9	3.8	7.44e-01	0	56	104	270532608	66	16663
2026-01-03 09:24:59.37	355.70	22.17	-50.6	-62.9	3.8	7.45e-01	0	57	104	270532608	64	14781
2026-01-03 09:25:02.35	355.00	21.86	-50.8	-62.9	3.8	7.42e-01	0	57	104	270532608	64	14844
2026-01-03 09:25:05.30	354.32	21.55	-50.8	-62.7	3.8	7.46e-01	0	57	104	270532608	64	14517
2026-01-03 09:25:08.27	353.66	21.23	-50.2	-61.9	3.8	7.47e-01	0	56	104	270532608	63	14018
2026-01-03 09:25:11.22	353.01	20.92	-49.6	-61.8	3.8	7.42e-01	0	56	104	270532608	62	14614
2026-01-03 09:25:14.21	352.36	20.61	-49.4	-62.2	3.8	7.43e-01	0	56	104	270532608	62	15327
2026-01-03 09:25:17.18	351.74	20.30	-49.4	-60.5	3.8	7.46e-01	0	56	104	270532608	62	12637
2026-01-03 09:25:20.16	351.13	19.98	-49.9	-61.2	3.8	7.45e-01	0	57	104	270532608	62	13671
2026-01-03 09:25:23.12	350.53	19.68	-49.8	-62.6	3.8	7.44e-01	0	57	104	270532608	62	15980
2026-01-03 09:25:26.10	349.94	19.37	-49.9	-61.3	3.8	7.45e-01	0	56	104	270532608	62	13879
2026-01-03 09:25:29.05	349.37	19.06	-50.2	-62.4	3.8	7.45e-01	0	56	104	270532608	63	14875
2026-01-03 09:25:32.02	348.81	18.75	-49.5	-60.9	3.8	7.42e-01	0	57	104	270532608	62	13236
2026-01-03 09:25:34.99	348.26	18.45	-50.0	-62.4	3.8	7.44e-01	0	57	104	270532608	62	15642
2026-01-03 09:25:37.97	347.72	18.15	-51.3	-64.0	3.8	7.43e-01	0	57	104	270532608	64	16845
2026-01-03 09:25:40.93	347.20	17.85	-52.1	-66.8	3.8	7.47e-01	0	57	104	270532608	66	20566
2026-01-03 09:25:43.91	346.68	17.54	-52.4	-69.1	3.8	7.46e-01	0	57	104	270532608	67	25419
2026-01-03 09:25:46.86	346.18	17.25	-52.5	-71.0	3.8	7.43e-01	0	57	104	270532608	67	31577
2026-01-03 09:25:49.83	345.69	16.95	-51.1	-66.9	3.8	7.42e-01	0	57	104	270532608	65	22161
2026-01-03 09:25:52.79	345.21	16.66	-51.2	-67.5	3.8	7.46e-01	0	56	104	270532608	65	23616
2026-01-03 09:25:55.75	344.74	16.37	-49.7	-62.7	3.8	7.44e-01	0	57	104	270532608	63	15252
2026-01-03 09:25:58.71	344.27	16.08	-49.3	-61.6	3.8	7.43e-01	0	57	104	270532608	62	14310
2026-01-03 09:26:01.68	343.82	15.79	-49.3	-62.0	3.8	7.45e-01	0	57	104	270532608	61	15826
2026-01-03 09:26:04.65	343.38	15.50	-49.9	-63.3	3.8	7.46e-01	0	57	104	270532608	61	18514
2026-01-03 09:26:07.63	342.94	15.22	-50.8	-65.0	3.8	7.48e-01	0	57	104	270532608	63	20040
2026-01-03 09:26:10.59	342.51	14.94	-51.1	-66.6	3.8	7.44e-01	0	57	104	270532608	64	22648
2026-01-03 09:26:13.56	342.10	14.66	-51.2	-67.7	3.8	7.44e-01	0	57	104	270532608	64	25823
2026-01-03 09:26:16.53	341.69	14.38	-51.3	-68.7	3.8	7.44e-01	0	57	104	270532608	64	28943
2026-01-03 09:26:19.49	341.29	14.10	-50.9	-69.2	3.8	7.48e-01	0	57	104	270532608	64	30671
2026-01-03 09:26:22.47	340.90	13.83	-50.6	-69.6	3.8	7.44e-01	0	57	104	270532608	64	31851
2026-01-03 09:26:25.43	340.51	13.56	-50.6	-70.0	3.8	7.45e-01	0	57	104	270532608	64	33495
2026-01-03 09:26:28.40	340.14	13.29	-50.5	-70.1	3.8	7.43e-01	0	57	104	270532608	64	33953
2026-01-03 09:26:31.36	339.77	13.02	-50.3	-69.9	3.8	7.48e-01	0	57	104	270532608	64	33233
2026-01-03 09:26:34.33	339.40	12.76	-50.3	-69.9	3.8	7.46e-01	0	57	104	270532608	63	35222
2026-01-03 09:26:37.30	339.05	12.49	-50.2	-69.7	3.8	7.44e-01	0	57	104	270532608	63	34336
2026-01-03 09:26:40.28	338.70	12.23	-50.3	-68.7	3.8	7.44e-01	0	57	104	270532608	63	30386
2026-01-03 09:26:43.24	338.36	11.97	-50.3	-59.3	10.2	6.22e-01	0	57	0	2097152	63	10313
2026-01-03 09:26:46.22	338.02	11.71	-49.5	-53.4	17.5	6.04e-01	0	57	0	7864320	62	5543
2026-01-03 09:26:49.19	337.70	11.46	-49.8	-52.7	19.4	6.02e-01	0	57	0	13107200	62	5142
2026-01-03 09:26:52.16	337.37	11.21	-49.9	-52.7	19.8	6.05e-01	0	57	0	18874368	62	5153
2026-01-03 09:26:55.12	337.06	10.96	-49.4	-51.9	20.9	6.01e-01	0	57	0	24117248	62	4653
2026-01-03 09:26:58.10	336.75	10.71	-49.6	-52.1	20.7	6.04e-01	0	57	0	29884416	62	4797
2026-01-03 09:27:01.06	336.44	10.46	-49.6	-52.1	20.7	6.05e-01	0	57	0	35651584	62	4802
2026-01-03 09:27:04.04	336.14	10.21	-49.6	-52.0	20.8	6.02e-01	0	57	0	40894464	62	4759
2026-01-03 09:27:07.02	335.85	9.97	-49.5	-51.9	20.9	6.04e-01	0	57	0	46661632	62	4670
2026-01-03 09:27:09.98	335.56	9.73	-49.5	-51.9	20.9	6.04e-01	0	57	0	52428800	62	4693
2026-01-03 09:27:12.93	335.28	9.49	-49.5	-51.9	20.9	6.01e-01	0	57	0	57671680	62	4705
2026-01-03 09:27:15.89	335.01	9.26	-49.5	-51.9	20.9	6.02e-01	0	57	0	63438848	62	4679
2026-01-03 09:27:18.85	334.73	9.02	-49.7	-52.2	20.6	6.04e-01	0	57	0	68681728	62	4866
2026-01-03 09:27:21.81	334.47	8.79	-49.7	-52.2	20.6	6.03e-01	0	57	0	74448896	62	4823
2026-01-03 09:27:24.78	334.20	8.56	-49.6	-52.1	20.6	6.04e-01	0	57	0	80216064	62	4792
2026-01-03 09:27:27.74	333.95	8.33	-49.8	-52.3	20.4	6.04e-01	0	57	0	85458944	62	4924
2026-01-03 09:27:30.69	333.70	8.10	-49.9	-52.6	20.2	6.02e-01	0	57	0	91226112	62	5077
2026-01-03 09:27:33.65	333.45	7.88	-50.1	-53.0	19.8	6.01e-01	0	57	0	96468992	62	5299
2026-01-03 09:27:36.61	333.20	7.65	-50.1	-52.9	19.9	6.03e-01	0	57	0	102236160	62	5243
2026-01-03 09:27:39.58	332.96	7.43	-50.2	-53.1	19.7	6.05e-01	0	57	0	108003328	62	5341
2026-01-03 09:27:42.55	332.73	7.21	-50.2	-53.1	19.7	6.02e-01	0	57	0	113246208	62	5371
2026-01-03 09:27:45.51	332.49	6.99	-49.9	-52.7	20.0	6.04e-01	0	57	0	119013376	62	5136
2026-01-03 09:27:48.48	332.27	6.77	-50.0	-52.9	19.8	6.03e-01	0	57	0	124256256	62	5238
2026-01-03 09:27:51.44	332.04	6.56	-50.1	-53.0	19.6	6.03e-01	0	57	0	130023424	62	5340
2026-01-03 09:27:54.41	331.82	6.34	-50.1	-53.0	19.7	6.02e-01	0	57	0	135790592	62	5281
2026-01-03 09:27:57.38	331.60	6.13	-50.3	-53.3	19.2	6.03e-01	0	57	0	141033472	62	5516
2026-01-03 09:28:00.35	331.39	5.92	-50.4	-53.6	18.9	6.04e-01	0	57	0	146800640	63	5395
2026-01-03 09:28:03.32	331.18	5.71	-50.6	-54.0	18.5	6.04e-01	0	57	0	152043520	63	5642
2026-01-03 09:28:06.29	330.97	5.50	-50.4	-53.5	19.0	6.05e-01	0	57	0	157810688	63	5330
2026-01-03 09:28:09.25	330.77	5.29	-50.4	-53.7	18.8	6.03e-01	0	57	0	163577856	63	5442
2026-01-03 09:28:12.22	330.57	5.09	-50.6	-53.9	18.5	6.03e-01	0	56	0	168820736	63	5591
2026-01-03 09:28:15.20	330.37	4.88	-54.1	-73.1	3.8	7.47e-01	0	57	104	170917888	70	33953
2026-01-03 09:28:18.15	330.18	4.68	-54.0	-73.9	3.8	7.41e-01	0	57	104	170917888	70	37332
2026-01-03 09:28:21.11	329.99	4.48	-54.7	-74.6	3.8	7.44e-01	0	57	104	170917888	71	37837
2026-01-03 09:28:24.08	329.80	4.28	-54.8	-74.7	3.8	7.48e-01	0	56	104	170917888	71	38428
2026-01-03 09:28:27.04	329.62	4.08	-54.9	-74.8	3.8	7.47e-01	0	57	104	170917888	71	38779
2026-01-03 09:28:29.99	329.44	3.89	-54.8	-74.8	3.8	7.48e-01	0	57	104	170917888	72	36634
2026-01-03 09:28:32.96	329.26	3.69	-54.9	-74.8	3.8	7.44e-01	0	57	104	170917888	72	36729
2026-01-03 09:28:35.93	329.08	3.50	-54.9	-74.8	3.8	7.46e-01	0	57	104	170917888	72	36867
2026-01-03 09:28:38.90	328.91	3.30	-54.9	-74.9	3.8	7.49e-01	0	57	104	170917888	72	36990
2026-01-03 09:28:41.87	328.74	3.11	-54.9	-74.8	3.8	7.48e-01	0	57	104	170917888	72	36875
2026-01-03 09:28:44.82	328.57	2.92	-54.9	-74.8	3.8	7.46e-01	0	57	104	170917888	72	36849

#Closed at: 2026-01-03 09:28:45
#Recorded file [170 MB]: D:/Data/31026_260103_122813.dat