passes_logs/2026/01/03/R3.0SM8_Murmansk_STILSPACE/R3.0SM8_Murmansk_STILSPACE__20260103_055743_FENGYUN_3D_rec.log

#Pass ID: 20260103_055743_FENGYUN 3D
#Satellite: FENGYUN 3D
#Configuration: FENGYUN 3D
#almurnet v.1.7.20240730
#Start time: 2026-01-03 05:57:43

#Version: 2.2.20231116
#Station: R3.0SM8_Murmansk_STILSPACE
#Location: 33.092731 lon 68.902999 lat
#TLE: 1 43010U 17072A   26002.31768531  .00000715  00000+0  35975-3 0  9993
#TLE: 2 43010  98.9910 333.9388 0001871 131.0716 229.0622 14.19693418421454

#Time	Az	El	Level	Level2	SNR	BER	BlckErr	Temp	State	Recorded	gain1	gain2
2026-01-03 05:57:43.78	45.84	3.01	-53.3	-63.9	3.8	8.46e-01	0	45	0	0	68	12955
2026-01-03 05:57:47.72	45.60	3.24	-52.9	-63.7	3.8	8.47e-01	0	46	104	0	68	12647
2026-01-03 05:57:51.70	45.35	3.48	-52.0	-62.8	3.8	8.46e-01	0	46	104	0	67	12002
2026-01-03 05:57:55.66	45.10	3.72	-52.1	-62.8	3.8	8.45e-01	0	46	104	0	67	12014
2026-01-03 05:57:59.62	44.84	3.96	-52.0	-62.1	3.8	8.45e-01	0	47	104	0	66	11748
2026-01-03 05:58:03.58	44.58	4.21	-51.5	-58.9	4.3	8.36e-01	0	47	0	0	66	8126
2026-01-03 05:58:07.56	44.31	4.45	-50.1	-54.1	7.5	1.80e-01	0	47	0	9437184	63	5571
2026-01-03 05:58:11.53	44.04	4.70	-48.2	-50.4	11.4	2.16e-03	0	47	0	32505856	59	4557
2026-01-03 05:58:15.48	43.76	4.95	-46.6	-48.1	13.7	1.71e-05	0	48	0	54525952	56	4187
2026-01-03 05:58:19.45	43.48	5.20	-46.6	-48.1	13.8	1.14e-05	0	48	0	76546048	56	4168
2026-01-03 05:58:23.39	43.20	5.45	-46.5	-48.0	13.9	3.40e-06	0	48	0	99614720	56	4124
2026-01-03 05:58:27.34	42.91	5.70	-46.0	-47.3	14.5	1.10e-06	0	49	0	121634816	55	4040
2026-01-03 05:58:31.29	42.61	5.96	-45.8	-47.2	14.7	0.00e+00	0	49	0	143654912	54	4197
2026-01-03 05:58:35.23	42.31	6.21	-46.0	-47.3	14.6	1.10e-06	0	49	0	165675008	54	4282
2026-01-03 05:58:39.19	42.00	6.47	-46.0	-47.4	14.6	2.20e-06	0	49	0	187695104	54	4309
2026-01-03 05:58:43.13	41.69	6.73	-45.6	-47.0	15.0	0.00e+00	0	49	0	209715200	54	4133
2026-01-03 05:58:47.10	41.37	6.99	-45.9	-47.2	14.8	1.10e-06	0	49	0	232783872	54	4217
2026-01-03 05:58:51.06	41.05	7.26	-45.7	-47.0	15.1	0.00e+00	0	50	0	254803968	54	4102
2026-01-03 05:58:55.02	40.71	7.52	-45.5	-46.7	15.4	0.00e+00	0	50	0	276824064	54	3984
2026-01-03 05:58:58.98	40.38	7.79	-45.7	-46.9	15.3	0.00e+00	0	50	0	298844160	54	4063
2026-01-03 05:59:02.95	40.03	8.06	-45.4	-46.5	15.6	0.00e+00	0	50	0	321912832	53	4138
2026-01-03 05:59:06.91	39.68	8.33	-45.3	-46.4	15.7	0.00e+00	0	51	0	343932928	53	4090
2026-01-03 05:59:10.88	39.32	8.61	-45.4	-46.6	15.6	0.00e+00	0	51	0	365953024	53	4168
2026-01-03 05:59:14.85	38.95	8.88	-45.7	-46.9	15.4	0.00e+00	0	51	0	389021696	53	4314
2026-01-03 05:59:18.81	38.58	9.16	-45.2	-46.3	16.0	0.00e+00	0	51	0	411041792	53	4020
2026-01-03 05:59:22.77	38.20	9.44	-45.3	-46.4	15.9	0.00e+00	0	51	0	433061888	53	4055
2026-01-03 05:59:26.73	37.81	9.72	-45.0	-46.0	16.3	0.00e+00	0	52	0	455081984	52	4119
2026-01-03 05:59:30.67	37.42	10.00	-44.9	-45.9	16.4	0.00e+00	0	52	0	477102080	52	4063
2026-01-03 05:59:34.63	37.02	10.28	-44.8	-45.8	16.5	0.00e+00	0	52	0	500170752	52	4024
2026-01-03 05:59:38.61	36.60	10.57	-44.7	-45.7	16.7	0.00e+00	0	52	0	522190848	52	3959
2026-01-03 05:59:42.55	36.19	10.86	-44.6	-45.6	16.7	0.00e+00	0	52	0	544210944	52	3942
2026-01-03 05:59:46.51	35.76	11.15	-44.6	-45.6	16.8	0.00e+00	0	52	0	566231040	52	3925
2026-01-03 05:59:50.46	35.32	11.44	-44.6	-45.6	16.8	0.00e+00	0	52	0	588251136	52	3951
2026-01-03 05:59:54.41	34.87	11.73	-44.9	-46.0	16.4	0.00e+00	0	52	0	611319808	52	4118
2026-01-03 05:59:58.37	34.42	12.03	-44.5	-45.5	16.9	0.00e+00	0	53	0	633339904	52	3872
2026-01-03 06:00:02.33	33.95	12.32	-44.4	-45.3	17.1	0.00e+00	0	53	0	655360000	52	3822
2026-01-03 06:00:06.28	33.48	12.62	-44.5	-45.5	17.0	0.00e+00	0	53	0	678428672	51	4112
2026-01-03 06:00:10.24	32.99	12.92	-44.3	-45.2	17.3	0.00e+00	0	53	0	700448768	51	4001
2026-01-03 06:00:14.20	32.50	13.22	-44.1	-45.0	17.5	0.00e+00	0	53	0	722468864	51	3891
2026-01-03 06:00:18.15	31.99	13.53	-44.3	-45.2	17.4	0.00e+00	0	53	0	744488960	51	3980
2026-01-03 06:00:22.12	31.48	13.83	-44.2	-45.0	17.5	0.00e+00	0	53	0	766509056	51	3899
2026-01-03 06:00:26.08	30.95	14.14	-44.1	-45.0	17.6	0.00e+00	0	53	0	789577728	51	3891
2026-01-03 06:00:30.03	30.41	14.45	-43.9	-44.7	17.9	0.00e+00	0	53	0	811597824	50	3978
2026-01-03 06:00:33.97	29.86	14.75	-43.7	-44.5	18.1	0.00e+00	0	54	0	833617920	50	3903
2026-01-03 06:00:37.93	29.30	15.06	-43.9	-44.7	17.9	0.00e+00	0	54	0	855638016	50	3998
2026-01-03 06:00:41.89	28.72	15.38	-43.5	-44.3	18.3	0.00e+00	0	54	0	877658112	50	3791
2026-01-03 06:00:45.85	28.14	15.69	-43.8	-44.6	18.0	0.00e+00	0	54	0	900726784	50	3951
2026-01-03 06:00:49.81	27.54	16.00	-43.7	-44.5	18.1	0.00e+00	0	54	0	922746880	50	3898
2026-01-03 06:00:53.77	26.93	16.32	-43.4	-44.1	18.5	0.00e+00	0	54	0	944766976	49	3950
2026-01-03 06:00:57.73	26.30	16.63	-43.2	-43.9	18.7	0.00e+00	0	54	0	967835648	49	3863
2026-01-03 06:01:01.68	25.66	16.94	-43.0	-43.8	18.8	0.00e+00	0	54	0	989855744	49	3798
2026-01-03 06:01:05.63	25.01	17.26	-43.4	-44.2	18.5	0.00e+00	0	54	0	1011875840	49	3966
2026-01-03 06:01:09.61	24.34	17.58	-42.9	-43.6	19.0	0.00e+00	0	54	0	1033895936	48	3945
2026-01-03 06:01:13.58	23.66	17.89	-43.0	-43.7	18.9	0.00e+00	0	54	0	1055916032	48	3994
2026-01-03 06:01:17.53	22.96	18.21	-43.1	-43.8	18.8	0.00e+00	0	54	0	1078984704	48	4036
2026-01-03 06:01:21.49	22.25	18.52	-42.9	-43.6	19.0	0.00e+00	0	54	0	1101004800	48	3954
2026-01-03 06:01:25.45	21.53	18.83	-42.8	-43.5	19.2	0.00e+00	0	54	0	1123024896	48	3885
2026-01-03 06:01:29.41	20.78	19.15	-42.7	-43.4	19.3	0.00e+00	0	54	0	1145044992	48	3825
2026-01-03 06:01:33.36	20.03	19.46	-42.6	-43.3	19.3	0.00e+00	0	55	0	1167065088	48	3822
2026-01-03 06:01:37.31	19.26	19.77	-43.0	-43.7	19.0	0.00e+00	0	55	0	1190133760	48	3983
2026-01-03 06:01:41.27	18.47	20.08	-42.5	-43.2	19.5	0.00e+00	0	55	0	1212153856	48	3738
2026-01-03 06:01:45.22	17.67	20.38	-42.4	-43.1	19.6	0.00e+00	0	55	0	1234173952	48	3709
2026-01-03 06:01:49.18	16.85	20.68	-42.1	-42.7	19.7	0.00e+00	0	55	0	1257242624	47	3775
2026-01-03 06:01:53.14	16.01	20.99	-42.1	-42.7	19.8	0.00e+00	0	55	0	1279262720	47	3761
2026-01-03 06:01:57.10	15.15	21.28	-42.1	-42.7	19.7	0.00e+00	0	55	0	1301282816	47	3776
2026-01-03 06:02:01.07	14.28	21.58	-42.3	-43.0	19.5	0.00e+00	0	55	0	1323302912	47	3882
2026-01-03 06:02:05.03	13.39	21.87	-42.3	-43.0	19.5	0.00e+00	0	55	0	1345323008	47	3888
2026-01-03 06:02:08.99	12.49	22.16	-42.4	-43.1	19.4	0.00e+00	0	55	0	1368391680	47	3922
2026-01-03 06:02:12.94	11.57	22.44	-42.6	-43.3	19.2	0.00e+00	0	55	0	1390411776	47	4034
2026-01-03 06:02:16.90	10.63	22.71	-42.0	-42.7	19.7	0.00e+00	0	55	0	1412431872	47	3744
2026-01-03 06:02:20.86	9.67	22.99	-41.8	-42.4	19.7	0.00e+00	0	55	0	1434451968	46	3867
2026-01-03 06:02:24.82	8.70	23.25	-42.7	-43.5	18.2	0.00e+00	0	55	0	1456472064	47	4112
2026-01-03 06:02:28.78	7.71	23.51	-45.2	-46.4	15.1	0.00e+00	0	55	0	1479540736	52	4320
2026-01-03 06:02:32.71	6.71	23.76	-44.5	-45.7	15.6	0.00e+00	0	55	0	1501560832	52	3996
2026-01-03 06:02:36.65	5.70	24.00	-43.1	-44.0	17.6	0.00e+00	0	56	0	1523580928	49	3871
2026-01-03 06:02:40.62	4.66	24.24	-45.1	-46.3	15.4	0.00e+00	0	56	0	1545601024	51	4507
2026-01-03 06:02:44.57	3.61	24.47	-48.8	-51.6	9.8	1.19e-02	0	56	0	1567621120	59	5258
2026-01-03 06:02:48.53	2.54	24.69	-44.2	-45.1	17.5	0.00e+00	0	56	0	1590689792	51	3917
2026-01-03 06:02:52.48	1.46	24.90	-41.4	-42.0	20.4	0.00e+00	0	56	0	1612709888	46	3678
2026-01-03 06:02:56.45	0.36	25.10	-41.2	-41.8	20.7	0.00e+00	0	56	0	1634729984	45	3796
2026-01-03 06:03:00.41	359.25	25.29	-41.5	-42.1	20.4	0.00e+00	0	56	0	1656750080	45	3923
2026-01-03 06:03:04.35	358.13	25.47	-41.5	-42.1	20.4	0.00e+00	0	56	0	1679818752	45	3932
2026-01-03 06:03:08.32	356.99	25.64	-41.8	-42.5	20.0	0.00e+00	0	56	0	1701838848	45	4119
2026-01-03 06:03:12.28	355.84	25.79	-42.0	-42.7	19.8	0.00e+00	0	56	0	1723858944	46	3986
2026-01-03 06:03:16.23	354.68	25.94	-41.6	-42.2	20.4	0.00e+00	0	56	0	1745879040	46	3752
2026-01-03 06:03:20.20	353.51	26.07	-41.1	-41.7	20.8	0.00e+00	0	56	0	1768947712	45	3768
2026-01-03 06:03:24.15	352.33	26.19	-41.3	-41.8	20.6	0.00e+00	0	56	0	1790967808	45	3822
2026-01-03 06:03:28.11	351.14	26.30	-41.2	-41.8	20.7	0.00e+00	0	56	0	1812987904	45	3823
2026-01-03 06:03:32.05	349.95	26.39	-41.2	-41.8	20.7	0.00e+00	0	56	0	1835008000	45	3806
2026-01-03 06:03:36.00	348.75	26.47	-41.5	-42.1	20.4	0.00e+00	0	56	0	1857028096	45	3945
2026-01-03 06:03:39.95	347.54	26.54	-41.6	-42.2	20.3	0.00e+00	0	56	0	1880096768	45	3976
2026-01-03 06:03:43.92	346.33	26.59	-41.2	-41.8	20.7	0.00e+00	0	56	0	1902116864	45	3798
2026-01-03 06:03:47.87	345.11	26.63	-40.8	-41.4	21.1	0.00e+00	0	56	0	1924136960	44	3860
2026-01-03 06:03:51.84	343.89	26.66	-41.3	-41.9	20.6	0.00e+00	0	56	0	1946157056	44	4061
2026-01-03 06:03:55.82	342.66	26.67	-41.9	-42.5	20.0	0.00e+00	0	56	0	1969225728	45	4144
2026-01-03 06:03:59.78	341.44	26.66	-42.0	-42.7	19.9	0.00e+00	0	56	0	1991245824	46	3975
2026-01-03 06:04:03.73	340.23	26.64	-41.1	-41.7	20.8	0.00e+00	0	56	0	2013265920	45	3760
2026-01-03 06:04:07.70	339.00	26.61	-41.0	-41.5	20.9	0.00e+00	0	56	0	2035286016	45	3692
2026-01-03 06:04:11.66	337.79	26.56	-41.3	-41.9	20.6	0.00e+00	0	56	0	2058354688	45	3839
2026-01-03 06:04:15.62	336.58	26.50	-41.5	-42.1	20.4	0.00e+00	0	56	0	2080374784	45	3933
2026-01-03 06:04:19.58	335.37	26.43	-41.4	-42.0	20.5	0.00e+00	0	56	0	2102394880	45	3908
2026-01-03 06:04:23.54	334.17	26.34	-41.4	-42.0	20.5	0.00e+00	0	56	0	2125463552	45	3899
2026-01-03 06:04:27.50	332.98	26.23	-41.0	-41.6	21.0	0.00e+00	0	56	0	2147483648	44	3918
2026-01-03 06:04:31.45	331.80	26.12	-41.5	-42.1	20.4	0.00e+00	0	56	0	2169503744	44	4182
2026-01-03 06:04:35.40	330.63	25.99	-41.1	-41.7	20.9	0.00e+00	0	56	0	2191523840	44	3960
2026-01-03 06:04:39.37	329.46	25.85	-40.9	-41.5	21.0	0.00e+00	0	56	0	2213543936	44	3874
2026-01-03 06:04:43.32	328.31	25.70	-41.1	-41.7	20.8	0.00e+00	0	57	0	2235564032	44	3994
2026-01-03 06:04:47.29	327.16	25.53	-41.4	-42.0	20.5	0.00e+00	0	56	0	2258632704	45	3891
2026-01-03 06:04:51.24	326.04	25.36	-41.3	-41.9	20.7	0.00e+00	0	57	0	2280652800	45	3856
2026-01-03 06:04:55.21	324.92	25.17	-41.4	-42.0	20.5	0.00e+00	0	56	0	2302672896	45	3885
2026-01-03 06:04:59.16	323.81	24.97	-41.0	-41.6	20.9	0.00e+00	0	56	0	2324692992	45	3712
2026-01-03 06:05:03.12	322.73	24.77	-41.2	-41.8	20.8	0.00e+00	0	57	0	2347761664	45	3803
2026-01-03 06:05:07.07	321.65	24.55	-41.1	-41.6	20.9	0.00e+00	0	57	0	2369781760	45	3734
2026-01-03 06:05:11.03	320.59	24.32	-41.2	-41.8	20.7	0.00e+00	0	57	0	2391801856	45	3811
2026-01-03 06:05:15.01	319.54	24.09	-41.3	-41.9	20.6	0.00e+00	0	57	0	2414870528	45	3866
2026-01-03 06:05:18.96	318.52	23.85	-41.5	-42.1	20.4	0.00e+00	0	57	0	2436890624	45	3952
2026-01-03 06:05:22.93	317.50	23.60	-41.1	-41.7	20.8	0.00e+00	0	57	0	2458910720	45	3754
2026-01-03 06:05:26.88	316.51	23.34	-41.6	-42.3	20.3	0.00e+00	0	57	0	2480930816	45	4006
2026-01-03 06:05:30.84	315.53	23.08	-41.3	-41.9	20.6	0.00e+00	0	57	0	2503999488	45	3855
2026-01-03 06:05:34.80	314.57	22.81	-41.3	-41.9	20.6	0.00e+00	0	57	0	2526019584	45	3843
2026-01-03 06:05:38.76	313.62	22.53	-41.6	-42.3	20.3	0.00e+00	0	57	0	2548039680	45	4012
2026-01-03 06:05:42.71	312.69	22.25	-41.8	-42.4	20.1	0.00e+00	0	57	0	2570059776	45	4083
2026-01-03 06:05:46.67	311.78	21.97	-41.6	-42.2	20.3	0.00e+00	0	57	0	2592079872	45	3977
2026-01-03 06:05:50.63	310.89	21.68	-41.6	-42.2	20.4	0.00e+00	0	57	0	2615148544	45	3977
2026-01-03 06:05:54.60	310.00	21.38	-41.5	-42.1	20.4	0.00e+00	0	57	0	2637168640	45	3941
2026-01-03 06:05:58.56	309.14	21.09	-42.0	-42.6	19.9	0.00e+00	0	57	0	2659188736	45	4190
2026-01-03 06:06:02.52	308.30	20.79	-42.0	-42.6	19.9	0.00e+00	0	57	0	2681208832	45	4187
2026-01-03 06:06:06.46	307.47	20.48	-42.1	-42.7	19.8	0.00e+00	0	57	0	2704277504	46	3976
2026-01-03 06:06:10.41	306.66	20.18	-42.4	-43.1	19.4	0.00e+00	0	57	0	2726297600	46	4184
2026-01-03 06:06:14.38	305.87	19.87	-42.3	-43.0	19.5	0.00e+00	0	57	0	2748317696	46	4123
2026-01-03 06:06:18.34	305.09	19.56	-42.7	-43.4	19.1	0.00e+00	0	57	0	2770337792	47	4064
2026-01-03 06:06:22.31	304.32	19.25	-42.5	-43.2	19.3	0.00e+00	0	57	0	2793406464	47	3989
2026-01-03 06:06:26.27	303.57	18.93	-42.1	-42.8	19.7	0.00e+00	0	57	0	2815426560	47	3788
2026-01-03 06:06:30.22	302.84	18.62	-42.3	-42.9	19.6	0.00e+00	0	57	0	2837446656	47	3860
2026-01-03 06:06:34.17	302.13	18.31	-42.4	-43.1	19.4	0.00e+00	0	57	0	2859466752	47	3916
2026-01-03 06:06:38.13	301.42	17.99	-42.6	-43.4	19.1	0.00e+00	0	57	0	2882535424	47	4069
2026-01-03 06:06:42.09	300.73	17.68	-43.3	-44.0	18.7	0.00e+00	0	57	0	2904555520	48	4126
2026-01-03 06:06:46.05	300.06	17.36	-43.5	-44.3	18.4	0.00e+00	0	57	0	2926575616	48	4250
2026-01-03 06:06:50.02	299.40	17.04	-43.8	-44.6	18.1	0.00e+00	0	57	0	2948595712	50	3923
2026-01-03 06:06:53.98	298.75	16.73	-43.0	-43.8	18.9	0.00e+00	0	57	0	2970615808	49	3798
2026-01-03 06:06:57.94	298.12	16.41	-43.0	-43.7	18.9	0.00e+00	0	57	0	2993684480	49	3761
2026-01-03 06:07:01.90	297.50	16.10	-43.4	-44.2	18.4	0.00e+00	0	57	0	3015704576	49	3990
2026-01-03 06:07:05.86	296.90	15.78	-43.6	-44.4	18.2	0.00e+00	0	57	0	3037724672	49	4084
2026-01-03 06:07:09.83	296.30	15.47	-43.6	-44.4	18.2	0.00e+00	0	57	0	3059744768	49	4074
2026-01-03 06:07:13.78	295.73	15.16	-43.7	-44.5	18.1	0.00e+00	0	57	0	3082813440	49	4138
2026-01-03 06:07:17.75	295.16	14.85	-43.3	-44.1	18.5	0.00e+00	0	57	0	3104833536	49	3937
2026-01-03 06:07:21.71	294.60	14.54	-43.7	-44.5	18.0	0.00e+00	0	57	0	3126853632	49	4145
2026-01-03 06:07:25.68	294.05	14.23	-44.0	-44.9	17.6	0.00e+00	0	57	0	3148873728	49	4298
2026-01-03 06:07:29.62	293.52	13.92	-43.9	-44.7	17.7	0.00e+00	0	57	0	3171942400	49	4230
2026-01-03 06:07:33.58	293.00	13.61	-44.3	-45.2	17.2	0.00e+00	0	57	0	3193962496	50	4199
2026-01-03 06:07:37.54	292.49	13.31	-44.5	-45.4	16.9	0.00e+00	0	57	0	3215982592	50	4340
2026-01-03 06:07:41.49	291.99	13.01	-45.0	-46.1	16.2	0.00e+00	0	57	0	3238002688	51	4397
2026-01-03 06:07:45.44	291.50	12.71	-45.4	-46.6	15.4	0.00e+00	0	57	0	3261071360	52	4408
2026-01-03 06:07:49.40	291.02	12.41	-45.7	-47.0	14.7	1.10e-06	0	57	0	3283091456	53	4384
2026-01-03 06:07:53.35	290.55	12.11	-46.2	-47.7	13.8	6.80e-06	0	57	0	3305111552	54	4486
2026-01-03 06:07:57.32	290.09	11.81	-46.7	-48.4	13.0	6.06e-05	0	57	0	3327131648	55	4576
2026-01-03 06:08:01.28	289.64	11.52	-47.3	-49.3	12.0	3.42e-04	0	57	0	3350200320	56	4797
2026-01-03 06:08:05.25	289.20	11.22	-47.9	-50.3	10.9	2.94e-03	0	57	0	3372220416	57	5076
2026-01-03 06:08:09.22	288.76	10.93	-48.2	-50.8	10.3	6.33e-03	0	57	0	3394240512	58	5081
2026-01-03 06:08:13.17	288.34	10.64	-48.6	-51.4	9.6	1.63e-02	0	57	0	3416260608	59	5150
2026-01-03 06:08:17.13	287.93	10.36	-48.8	-52.0	8.9	3.26e-02	0	57	0	3438280704	59	5507
2026-01-03 06:08:21.08	287.52	10.07	-49.4	-53.2	7.7	8.32e-02	0	57	0	3461349376	60	5946
2026-01-03 06:08:25.05	287.12	9.79	-48.0	-50.4	10.6	5.45e-03	0	57	0	3483369472	59	4590
2026-01-03 06:08:28.99	286.73	9.51	-47.5	-49.6	11.5	1.07e-03	0	57	0	3505389568	57	4705
2026-01-03 06:08:32.95	286.35	9.23	-47.3	-49.3	12.0	4.93e-04	0	57	0	3527409664	57	4497
2026-01-03 06:08:36.90	285.97	8.95	-47.5	-49.5	11.9	5.30e-04	0	57	0	3550478336	57	4628
2026-01-03 06:08:40.85	285.60	8.68	-47.2	-49.2	12.3	2.57e-04	0	57	0	3572498432	57	4466
2026-01-03 06:08:44.81	285.24	8.40	-46.9	-48.5	13.1	7.32e-05	0	57	0	3594518528	56	4388
2026-01-03 06:08:48.78	284.88	8.13	-46.3	-47.8	13.8	1.14e-05	0	57	0	3616538624	55	4270
2026-01-03 06:08:52.73	284.54	7.86	-46.1	-47.6	14.0	4.50e-06	0	57	0	3638558720	55	4162
2026-01-03 06:08:56.69	284.20	7.59	-46.1	-47.6	13.9	4.50e-06	0	57	0	3661627392	55	4169
2026-01-03 06:09:00.64	283.86	7.32	-45.9	-47.3	14.1	5.70e-06	0	57	0	3683647488	55	4036
2026-01-03 06:09:04.59	283.53	7.06	-45.7	-47.1	14.2	0.00e+00	0	57	0	3705667584	54	4167
2026-01-03 06:09:08.55	283.21	6.80	-45.7	-47.1	14.1	2.20e-06	0	57	0	3727687680	54	4178
2026-01-03 06:09:12.52	282.89	6.53	-45.8	-47.4	13.6	1.25e-05	0	57	0	3750756352	54	4319
2026-01-03 06:09:16.49	282.58	6.27	-46.0	-47.6	13.2	4.00e-05	0	57	0	3772776448	54	4434
2026-01-03 06:09:20.45	282.28	6.02	-46.3	-48.2	12.3	2.64e-04	0	57	0	3794796544	54	4753
2026-01-03 06:09:24.40	281.98	5.76	-46.8	-49.1	11.2	1.57e-03	0	57	0	3816816640	55	4945
2026-01-03 06:09:28.37	281.68	5.51	-47.4	-50.1	10.1	1.06e-02	0	57	0	3839885312	56	5253
2026-01-03 06:09:32.33	281.39	5.25	-47.7	-50.9	8.9	2.79e-02	0	57	0	3861905408	57	5428
2026-01-03 06:09:36.29	281.11	5.00	-50.7	-61.3	3.8	5.47e-01	0	57	104	3882876928	63	12689
2026-01-03 06:09:40.23	280.83	4.75	-52.9	-63.7	3.8	8.46e-01	0	57	104	3882876928	67	13319
2026-01-03 06:09:44.19	280.56	4.51	-53.2	-63.9	3.8	8.46e-01	0	57	104	3882876928	68	12938
2026-01-03 06:09:48.14	280.29	4.26	-53.3	-64.1	3.8	8.45e-01	0	57	104	3882876928	68	13141
2026-01-03 06:09:52.10	280.03	4.02	-53.3	-64.1	3.8	8.46e-01	0	57	104	3882876928	68	13233
2026-01-03 06:09:56.07	279.77	3.77	-53.4	-64.2	3.8	8.46e-01	0	57	104	3882876928	68	13328
2026-01-03 06:10:00.03	279.51	3.53	-53.5	-64.2	3.8	8.47e-01	0	57	104	3882876928	68	13396
2026-01-03 06:10:03.99	279.26	3.29	-53.5	-64.2	3.8	8.47e-01	0	57	104	3882876928	68	13363
2026-01-03 06:10:07.94	279.01	3.06	-53.5	-64.2	3.8	8.46e-01	0	57	104	3882876928	68	13313

#Closed at: 2026-01-03 06:10:10
#Recorded file [3882 MB]: D:/Data/31026_260103_090936.dat