passes_logs/2026/01/03/R3.0SM8_Murmansk_STILSPACE/R3.0SM8_Murmansk_STILSPACE__20260103_081344_SUOMI_NPP_rec.log

#Pass ID: 20260103_081344_SUOMI NPP
#Satellite: SUOMI NPP
#Configuration: NPP
#almurnet v.1.7.20240730
#Start time: 2026-01-03 08:13:45

#Version: 2.2.20231116
#Station: R3.0SM8_Murmansk_STILSPACE
#Location: 33.092731 lon 68.902999 lat
#TLE: 1 37849U 11061A   26001.07732418  .00000182  00000+0  10735-3 0  9990
#TLE: 2 37849  98.7795 303.2470 0002580  87.2016 272.9455 14.19520779734739

#Time	Az	El	Level	Level2	SNR	BER	BlckErr	Temp	State	Recorded	gain1	gain2
2026-01-03 08:13:45.13	119.34	3.07	-52.8	-66.7	3.8	1.49e+00	0	46	0	0	68	17878
2026-01-03 08:13:49.09	119.21	3.32	-52.4	-66.2	3.8	1.49e+00	0	46	104	0	67	17756
2026-01-03 08:13:53.06	119.08	3.59	-51.9	-65.2	3.8	1.49e+00	0	46	104	0	66	16708
2026-01-03 08:13:57.03	118.94	3.85	-51.9	-64.2	3.8	1.49e+00	0	46	104	0	66	14896
2026-01-03 08:14:00.99	118.80	4.11	-51.8	-62.2	4.2	1.36e+00	0	47	0	0	66	11937
2026-01-03 08:14:04.94	118.66	4.38	-51.4	-59.2	5.7	4.61e-01	0	47	0	6291456	65	8914
2026-01-03 08:14:08.91	118.52	4.65	-50.8	-56.5	8.0	7.60e-02	0	47	0	13631488	64	6944
2026-01-03 08:14:12.88	118.37	4.92	-50.3	-55.0	9.7	1.12e-02	0	48	0	20971520	63	6138
2026-01-03 08:14:16.83	118.22	5.20	-50.1	-54.5	10.2	7.06e-03	0	48	0	28311552	63	5847
2026-01-03 08:14:20.78	118.07	5.48	-50.0	-54.0	10.8	3.27e-03	0	48	0	35651584	63	5500
2026-01-03 08:14:24.75	117.91	5.76	-49.2	-52.5	12.3	2.01e-04	0	48	0	42991616	61	5168
2026-01-03 08:14:28.72	117.75	6.04	-48.8	-51.6	13.3	2.89e-05	0	49	0	50331648	60	4941
2026-01-03 08:14:32.66	117.59	6.33	-49.0	-52.0	12.9	4.50e-05	0	49	0	57671680	60	5194
2026-01-03 08:14:36.59	117.43	6.61	-49.2	-52.2	12.7	5.87e-05	0	49	0	65011712	60	5333
2026-01-03 08:14:40.56	117.26	6.91	-49.0	-51.8	13.1	4.42e-05	0	49	0	73400320	60	5088
2026-01-03 08:14:44.52	117.08	7.20	-48.9	-51.8	13.1	2.89e-05	0	49	0	80740352	60	5074
2026-01-03 08:14:48.47	116.90	7.50	-48.7	-51.4	13.6	9.90e-06	0	50	0	88080384	60	4834
2026-01-03 08:14:52.44	116.72	7.80	-48.9	-51.8	13.2	2.44e-05	0	50	0	95420416	60	5066
2026-01-03 08:14:56.41	116.54	8.11	-48.7	-51.4	13.7	3.80e-06	0	50	0	102760448	60	4860
2026-01-03 08:15:00.37	116.35	8.42	-48.7	-51.4	13.7	8.30e-06	0	50	0	110100480	60	4845
2026-01-03 08:15:04.32	116.15	8.73	-48.7	-51.3	13.8	2.20e-06	0	50	0	117440512	60	4804
2026-01-03 08:15:08.29	115.95	9.04	-48.6	-51.2	14.0	6.10e-06	0	50	0	124780544	60	4710
2026-01-03 08:15:12.23	115.75	9.36	-48.7	-51.3	13.9	2.20e-06	0	51	0	132120576	60	4795
2026-01-03 08:15:16.20	115.54	9.69	-48.4	-50.7	14.5	7.00e-07	0	51	0	139460608	59	4724
2026-01-03 08:15:20.15	115.33	10.01	-48.4	-50.8	14.4	1.50e-06	0	51	0	146800640	59	4778
2026-01-03 08:15:24.11	115.11	10.34	-48.5	-50.9	14.3	3.80e-06	0	51	0	154140672	59	4836
2026-01-03 08:15:28.06	114.89	10.68	-48.4	-50.7	14.5	0.00e+00	0	51	0	161480704	59	4752
2026-01-03 08:15:32.00	114.66	11.01	-48.5	-50.9	14.3	7.00e-07	0	51	0	169869312	59	4821
2026-01-03 08:15:35.95	114.43	11.36	-48.4	-50.9	14.3	7.00e-07	0	51	0	177209344	59	4866
2026-01-03 08:15:39.89	114.19	11.70	-48.6	-51.1	14.2	2.20e-06	0	52	0	184549376	59	4948
2026-01-03 08:15:43.84	113.94	12.05	-48.3	-50.5	14.7	0.00e+00	0	52	0	191889408	59	4649
2026-01-03 08:15:47.80	113.69	12.41	-48.4	-50.9	14.3	7.00e-07	0	52	0	199229440	59	4870
2026-01-03 08:15:51.74	113.43	12.77	-48.7	-51.3	14.0	2.20e-06	0	52	0	206569472	59	5059
2026-01-03 08:15:55.70	113.17	13.14	-48.7	-51.3	14.0	4.50e-06	0	52	0	213909504	59	5060
2026-01-03 08:15:59.66	112.89	13.51	-48.5	-51.0	14.3	1.50e-06	0	52	0	221249536	59	4892
2026-01-03 08:16:03.61	112.61	13.88	-48.0	-50.2	15.1	0.00e+00	0	52	0	228589568	59	4471
2026-01-03 08:16:07.58	112.33	14.27	-48.0	-50.1	15.3	0.00e+00	0	52	0	235929600	58	4684
2026-01-03 08:16:11.54	112.03	14.65	-47.9	-49.9	15.5	0.00e+00	0	53	0	243269632	58	4577
2026-01-03 08:16:15.49	111.73	15.04	-48.0	-50.1	15.3	7.00e-07	0	53	0	250609664	58	4693
2026-01-03 08:16:19.46	111.41	15.44	-48.1	-50.3	15.1	0.00e+00	0	53	0	257949696	58	4785
2026-01-03 08:16:23.43	111.09	15.85	-48.5	-50.9	14.5	7.00e-07	0	53	0	266338304	59	4855
2026-01-03 08:16:27.38	110.76	16.25	-47.7	-49.7	15.6	0.00e+00	0	53	0	273678336	58	4493
2026-01-03 08:16:31.33	110.42	16.67	-47.5	-49.4	16.0	0.00e+00	0	53	0	281018368	58	4332
2026-01-03 08:16:35.29	110.07	17.09	-47.8	-49.9	15.5	0.00e+00	0	53	0	288358400	58	4565
2026-01-03 08:16:39.25	109.71	17.52	-48.0	-50.2	15.3	0.00e+00	0	53	0	295698432	58	4706
2026-01-03 08:16:43.19	109.35	17.95	-48.3	-50.6	14.9	0.00e+00	0	53	0	303038464	59	4654
2026-01-03 08:16:47.15	108.96	18.39	-48.3	-50.6	14.8	7.00e-07	0	53	0	310378496	59	4691
2026-01-03 08:16:51.10	108.57	18.83	-48.1	-50.3	15.1	0.00e+00	0	53	0	317718528	59	4509
2026-01-03 08:16:55.05	108.17	19.28	-48.5	-50.9	14.5	7.00e-07	0	53	0	325058560	59	4840
2026-01-03 08:16:59.01	107.75	19.74	-48.5	-50.8	14.6	2.20e-06	0	54	0	332398592	59	4805
2026-01-03 08:17:02.96	107.32	20.21	-48.1	-50.3	15.1	0.00e+00	0	54	0	339738624	59	4542
2026-01-03 08:17:06.90	106.87	20.68	-48.4	-50.8	14.8	7.00e-07	0	54	0	347078656	59	4764
2026-01-03 08:17:10.86	106.41	21.16	-47.8	-49.9	15.6	0.00e+00	0	54	0	354418688	58	4546
2026-01-03 08:17:14.83	105.94	21.65	-48.2	-50.3	15.2	0.00e+00	0	54	0	361758720	58	4808
2026-01-03 08:17:18.79	105.45	22.15	-48.5	-50.8	14.7	0.00e+00	0	54	0	369098752	59	4812
2026-01-03 08:17:22.74	104.94	22.65	-48.6	-51.0	14.5	7.00e-07	0	54	0	377487360	59	4909
2026-01-03 08:17:26.71	104.42	23.16	-48.2	-50.4	15.1	0.00e+00	0	54	0	384827392	59	4592
2026-01-03 08:17:30.66	103.88	23.68	-48.3	-50.6	14.9	0.00e+00	0	54	0	392167424	59	4675
2026-01-03 08:17:34.61	103.32	24.20	-48.9	-51.5	14.1	3.00e-06	0	54	0	399507456	59	5170
2026-01-03 08:17:38.57	102.74	24.73	-48.6	-51.1	14.4	7.00e-07	0	54	0	406847488	59	4952
2026-01-03 08:17:42.54	102.14	25.27	-48.7	-51.2	14.3	3.80e-06	0	54	0	414187520	60	4735
2026-01-03 08:17:46.51	101.51	25.82	-49.1	-52.0	13.5	4.50e-06	0	54	0	421527552	60	5188
2026-01-03 08:17:50.48	100.87	26.38	-49.0	-52.0	13.6	1.90e-05	0	54	0	428867584	60	5165
2026-01-03 08:17:54.42	100.21	26.94	-48.8	-51.4	14.1	7.00e-07	0	54	0	436207616	59	5142
2026-01-03 08:17:58.38	99.51	27.51	-48.5	-50.9	14.6	0.00e+00	0	54	0	443547648	59	4830
2026-01-03 08:18:02.35	98.79	28.09	-49.0	-51.7	13.9	7.00e-07	0	55	0	450887680	59	5329
2026-01-03 08:18:06.29	98.05	28.67	-49.1	-52.1	13.5	4.50e-06	0	55	0	458227712	60	5247
2026-01-03 08:18:10.26	97.28	29.26	-49.6	-52.9	12.6	3.81e-05	0	55	0	465567744	60	5787
2026-01-03 08:18:14.20	96.48	29.86	-49.3	-52.3	13.2	1.60e-05	0	55	0	473956352	61	5092
2026-01-03 08:18:18.15	95.65	30.46	-49.6	-53.0	12.4	8.16e-05	0	55	0	481296384	61	5466
2026-01-03 08:18:22.11	94.78	31.07	-49.7	-53.2	12.4	1.01e-04	0	55	0	488636416	62	5286
2026-01-03 08:18:26.08	93.88	31.68	-49.3	-52.4	13.3	1.06e-05	0	55	0	495976448	61	5103
2026-01-03 08:18:30.02	92.96	32.30	-50.1	-53.7	11.8	1.92e-04	0	55	0	503316480	61	5963
2026-01-03 08:18:33.99	91.98	32.92	-50.0	-53.7	11.8	4.05e-04	0	55	0	510656512	62	5633
2026-01-03 08:18:37.95	90.97	33.55	-50.1	-53.7	11.8	2.33e-04	0	55	0	517996544	62	5648
2026-01-03 08:18:41.92	89.92	34.17	-50.4	-54.4	11.1	1.97e-03	0	55	0	525336576	63	5774
2026-01-03 08:18:45.88	88.83	34.80	-49.7	-52.9	12.7	1.78e-04	0	55	0	532676608	62	5132
2026-01-03 08:18:49.84	87.70	35.43	-49.3	-52.0	13.6	2.20e-06	0	55	0	540016640	60	5171
2026-01-03 08:18:53.79	86.52	36.06	-48.5	-50.8	14.8	7.00e-07	0	55	0	547356672	59	4802
2026-01-03 08:18:57.74	85.30	36.68	-49.7	-53.1	12.5	1.13e-04	0	55	0	554696704	61	5557
2026-01-03 08:19:01.71	84.03	37.30	-49.9	-53.6	12.0	1.21e-04	0	55	0	562036736	61	5860
2026-01-03 08:19:05.67	82.70	37.92	-49.1	-51.8	13.9	6.10e-06	0	55	0	570425344	60	5061
2026-01-03 08:19:09.64	81.33	38.53	-50.1	-53.8	11.7	2.96e-04	0	55	0	577765376	62	5704
2026-01-03 08:19:13.60	79.90	39.13	-50.1	-54.0	11.5	1.58e-03	0	55	0	585105408	62	5796
2026-01-03 08:19:17.54	78.43	39.72	-49.2	-52.1	13.5	1.52e-05	0	56	0	592445440	61	4954
2026-01-03 08:19:21.51	76.89	40.30	-49.6	-52.7	12.8	9.76e-05	0	56	0	599785472	61	5321
2026-01-03 08:19:25.46	75.31	40.86	-49.4	-52.4	13.2	1.06e-05	0	56	0	607125504	61	5115
2026-01-03 08:19:29.41	73.67	41.40	-49.5	-52.7	12.9	7.47e-05	0	56	0	614465536	61	5294
2026-01-03 08:19:33.35	71.98	41.92	-48.1	-50.2	15.4	0.00e+00	0	56	0	621805568	59	4446
2026-01-03 08:19:37.32	70.22	42.43	-47.0	-48.6	16.9	0.00e+00	0	55	0	629145600	57	4174
2026-01-03 08:19:41.28	68.41	42.90	-47.5	-49.5	16.1	0.00e+00	0	56	0	636485632	57	4622
2026-01-03 08:19:45.24	66.55	43.35	-48.4	-50.8	14.7	0.00e+00	0	56	0	643825664	58	5079
2026-01-03 08:19:49.19	64.64	43.77	-48.7	-51.4	14.2	0.00e+00	0	56	0	651165696	59	5102
2026-01-03 08:19:53.15	62.67	44.16	-48.9	-51.8	13.7	8.30e-06	0	56	0	658505728	60	5067
2026-01-03 08:19:57.11	60.67	44.51	-47.9	-49.9	15.7	0.00e+00	0	56	0	666894336	58	4573
2026-01-03 08:20:01.06	58.62	44.83	-48.3	-50.5	15.2	0.00e+00	0	56	0	674234368	59	4607
2026-01-03 08:20:05.04	56.52	45.10	-50.1	-53.8	11.7	5.96e-04	0	56	0	681574400	62	5699
2026-01-03 08:20:09.00	54.40	45.34	-48.7	-51.2	14.3	0.00e+00	0	56	0	688914432	60	4755
2026-01-03 08:20:12.97	52.24	45.53	-48.8	-51.4	14.2	7.00e-07	0	56	0	696254464	60	4834
2026-01-03 08:20:16.93	50.06	45.67	-49.8	-53.5	12.1	4.41e-04	0	56	0	703594496	62	5495
2026-01-03 08:20:20.89	47.87	45.77	-49.4	-52.6	12.6	5.03e-05	0	56	0	710934528	62	4978
2026-01-03 08:20:24.84	45.67	45.83	-49.7	-53.5	12.1	8.54e-05	0	56	0	718274560	61	5804
2026-01-03 08:20:28.80	43.46	45.83	-48.2	-50.4	15.1	0.00e+00	0	56	0	725614592	59	4567
2026-01-03 08:20:32.75	41.27	45.79	-49.3	-52.5	13.0	5.30e-06	0	56	0	732954624	60	5469
2026-01-03 08:20:36.70	39.08	45.71	-48.8	-51.6	13.9	2.20e-06	0	56	0	740294656	60	4974
2026-01-03 08:20:40.67	36.89	45.57	-48.9	-51.9	13.7	4.50e-06	0	56	0	748683264	60	5112
2026-01-03 08:20:44.61	34.74	45.40	-49.0	-52.0	13.5	1.22e-05	0	56	0	754974720	60	5215
2026-01-03 08:20:48.57	32.61	45.18	-49.2	-52.2	13.5	8.30e-06	0	56	0	763363328	60	5300
2026-01-03 08:20:52.52	30.52	44.91	-49.1	-51.9	13.7	6.80e-06	0	56	0	770703360	60	5110
2026-01-03 08:20:56.46	28.47	44.61	-49.5	-52.8	12.8	1.14e-05	0	56	0	778043392	60	5682
2026-01-03 08:21:00.43	26.44	44.27	-49.2	-52.3	13.3	3.28e-05	0	56	0	785383424	61	5075
2026-01-03 08:21:04.38	24.47	43.89	-49.0	-51.7	13.9	4.11e-05	0	56	0	792723456	61	4745
2026-01-03 08:21:08.33	22.55	43.48	-48.2	-50.5	15.1	0.00e+00	0	56	0	800063488	58	4874
2026-01-03 08:21:12.29	20.67	43.04	-47.7	-49.7	15.8	0.00e+00	0	56	0	807403520	58	4488
2026-01-03 08:21:16.26	18.85	42.57	-47.7	-49.8	15.8	0.00e+00	0	56	0	814743552	58	4495
2026-01-03 08:21:20.22	17.08	42.08	-46.2	-47.6	17.8	0.00e+00	0	56	0	822083584	55	4188
2026-01-03 08:21:24.18	15.37	41.56	-45.5	-46.7	18.6	0.00e+00	0	56	0	829423616	53	4235
2026-01-03 08:21:28.13	13.71	41.03	-45.9	-47.3	18.1	0.00e+00	0	56	0	836763648	54	4259
2026-01-03 08:21:32.08	12.11	40.47	-46.3	-47.7	17.7	0.00e+00	0	56	0	844103680	54	4486
2026-01-03 08:21:36.05	10.56	39.90	-47.8	-49.8	15.8	0.00e+00	0	56	0	851443712	58	4518
2026-01-03 08:21:40.02	9.07	39.31	-47.6	-49.5	16.1	0.00e+00	0	56	0	859832320	57	4632
2026-01-03 08:21:43.97	7.63	38.72	-48.0	-50.0	15.6	0.00e+00	0	56	0	867172352	58	4628
2026-01-03 08:21:47.93	6.25	38.11	-47.9	-49.9	15.7	0.00e+00	0	56	0	874512384	58	4575
2026-01-03 08:21:51.87	4.92	37.50	-47.9	-49.8	15.8	0.00e+00	0	56	0	881852416	58	4519
2026-01-03 08:21:55.81	3.64	36.89	-48.3	-50.5	15.2	0.00e+00	0	56	0	889192448	58	4875
2026-01-03 08:21:59.78	2.40	36.26	-49.5	-52.5	13.1	6.25e-05	0	56	0	896532480	61	5174
2026-01-03 08:22:03.74	1.21	35.64	-49.9	-53.4	12.1	3.47e-04	0	56	0	903872512	61	5742
2026-01-03 08:22:07.70	0.07	35.01	-50.8	-55.2	10.3	3.20e-03	0	56	0	911212544	63	6283
2026-01-03 08:22:11.66	358.97	34.38	-49.3	-52.1	13.4	6.10e-06	0	56	0	918552576	61	4951
2026-01-03 08:22:15.62	357.91	33.76	-50.8	-55.7	9.6	1.60e-02	0	56	0	925892608	64	6336
2026-01-03 08:22:19.57	356.89	33.13	-50.4	-54.3	11.3	1.09e-03	0	56	0	933232640	63	5660
2026-01-03 08:22:23.53	355.91	32.51	-50.3	-54.0	11.6	3.81e-04	0	56	0	940572672	62	5809
2026-01-03 08:22:27.48	354.97	31.90	-49.1	-51.8	13.8	8.30e-06	0	57	0	947912704	61	4769
2026-01-03 08:22:31.43	354.07	31.28	-50.6	-54.7	10.9	2.21e-03	0	56	0	956301312	62	6312
2026-01-03 08:22:35.38	353.20	30.68	-49.8	-53.1	12.4	3.22e-04	0	56	0	963641344	62	5261
2026-01-03 08:22:39.34	352.36	30.07	-50.0	-53.3	12.3	3.11e-04	0	57	0	970981376	62	5357
2026-01-03 08:22:43.29	351.55	29.48	-48.8	-51.5	14.0	7.00e-07	0	56	0	978321408	60	4883
2026-01-03 08:22:47.25	350.77	28.89	-49.1	-51.7	13.8	6.80e-06	0	56	0	985661440	60	4992
2026-01-03 08:22:51.21	350.02	28.30	-48.4	-50.6	14.9	0.00e+00	0	56	0	993001472	59	4670
2026-01-03 08:22:55.16	349.30	27.73	-49.1	-51.6	13.9	7.00e-07	0	57	0	1000341504	59	5277
2026-01-03 08:22:59.12	348.60	27.16	-50.3	-54.1	11.3	1.40e-03	0	57	0	1007681536	62	5913
2026-01-03 08:23:03.08	347.93	26.59	-49.6	-52.8	12.7	1.27e-04	0	57	0	1015021568	62	5075
2026-01-03 08:23:07.05	347.28	26.03	-48.7	-51.1	14.4	7.00e-07	0	57	0	1022361600	59	4973
2026-01-03 08:23:11.00	346.65	25.49	-49.4	-52.3	13.1	1.90e-05	0	57	0	1029701632	60	5374
2026-01-03 08:23:14.97	346.05	24.94	-49.5	-52.5	12.9	1.83e-05	0	56	0	1037041664	60	5514
2026-01-03 08:23:18.93	345.46	24.41	-50.1	-53.7	11.7	5.42e-04	0	56	0	1044381696	62	5635
2026-01-03 08:23:22.88	344.90	23.89	-49.2	-52.1	13.3	2.82e-05	0	56	0	1052770304	61	4940
2026-01-03 08:23:26.83	344.35	23.37	-48.6	-50.9	14.5	1.50e-06	0	56	0	1060110336	60	4585
2026-01-03 08:23:30.77	343.83	22.86	-48.6	-51.0	14.4	1.50e-06	0	56	0	1067450368	60	4648
2026-01-03 08:23:34.72	343.32	22.36	-48.7	-51.2	14.1	7.00e-07	0	56	0	1074790400	59	5037
2026-01-03 08:23:38.67	342.83	21.86	-48.5	-51.0	14.4	0.00e+00	0	56	0	1082130432	59	4884
2026-01-03 08:23:42.62	342.35	21.37	-48.5	-50.8	14.6	1.50e-06	0	56	0	1089470464	59	4782
2026-01-03 08:23:46.57	341.89	20.89	-49.2	-52.2	13.1	2.13e-05	0	57	0	1096810496	60	5290
2026-01-03 08:23:50.52	341.44	20.42	-49.7	-53.2	11.9	4.33e-04	0	57	0	1104150528	61	5605
2026-01-03 08:23:54.48	341.01	19.95	-49.7	-53.5	11.4	7.74e-04	0	56	0	1111490560	61	5803
2026-01-03 08:23:58.44	340.59	19.49	-49.9	-54.2	10.4	4.29e-03	0	57	0	1118830592	61	6306
2026-01-03 08:24:02.40	340.18	19.04	-50.0	-54.3	10.3	6.48e-03	0	56	0	1126170624	62	6003
2026-01-03 08:24:06.37	339.79	18.59	-49.2	-52.6	12.2	2.71e-04	0	57	0	1133510656	61	5252
2026-01-03 08:24:10.34	339.40	18.15	-48.7	-51.5	13.5	1.52e-05	0	57	0	1140850688	60	4904
2026-01-03 08:24:14.30	339.03	17.71	-48.8	-51.5	13.6	9.90e-06	0	56	0	1148190720	60	4892
2026-01-03 08:24:18.26	338.67	17.28	-48.8	-51.5	13.7	3.00e-06	0	56	0	1156579328	60	4884
2026-01-03 08:24:22.21	338.32	16.86	-48.8	-51.6	13.6	8.30e-06	0	57	0	1163919360	60	4942
2026-01-03 08:24:26.17	337.98	16.45	-49.0	-51.8	13.4	1.60e-05	0	57	0	1171259392	60	5059
2026-01-03 08:24:30.13	337.64	16.04	-49.1	-52.0	13.1	2.44e-05	0	56	0	1178599424	60	5192
2026-01-03 08:24:34.10	337.32	15.63	-48.7	-51.5	13.7	9.90e-06	0	57	0	1185939456	60	4893
2026-01-03 08:24:38.06	337.01	15.23	-48.9	-51.7	13.5	9.10e-06	0	56	0	1193279488	60	5000
2026-01-03 08:24:42.01	336.70	14.84	-48.6	-51.1	14.0	5.30e-06	0	56	0	1200619520	60	4687
2026-01-03 08:24:45.97	336.41	14.45	-49.0	-51.7	13.5	2.21e-05	0	56	0	1207959552	60	5034
2026-01-03 08:24:49.92	336.12	14.07	-49.1	-52.1	13.1	1.98e-05	0	56	0	1215299584	60	5247
2026-01-03 08:24:53.87	335.84	13.70	-49.1	-52.2	13.0	2.36e-05	0	56	0	1222639616	60	5293
2026-01-03 08:24:57.84	335.57	13.32	-49.1	-52.2	13.0	5.79e-05	0	57	0	1229979648	60	5295
2026-01-03 08:25:01.78	335.30	12.96	-49.2	-52.1	13.1	2.44e-05	0	56	0	1237319680	60	5222
2026-01-03 08:25:05.74	335.04	12.60	-49.4	-52.5	12.6	9.99e-05	0	56	0	1244659712	60	5477
2026-01-03 08:25:09.72	334.79	12.24	-49.5	-52.8	12.3	2.39e-04	0	57	0	1253048320	61	5361
2026-01-03 08:25:13.67	334.54	11.89	-49.4	-52.5	12.6	1.07e-04	0	57	0	1260388352	61	5199
2026-01-03 08:25:17.63	334.30	11.54	-49.3	-52.4	12.7	7.55e-05	0	57	0	1267728384	61	5155
2026-01-03 08:25:21.60	334.07	11.19	-49.3	-52.6	12.5	1.09e-04	0	57	0	1275068416	61	5237
2026-01-03 08:25:25.54	333.84	10.85	-49.0	-52.1	13.0	5.95e-05	0	57	0	1282408448	61	4956
2026-01-03 08:25:29.50	333.62	10.52	-49.3	-52.4	12.6	8.39e-05	0	57	0	1289748480	60	5452
2026-01-03 08:25:33.45	333.40	10.19	-49.2	-52.3	12.8	9.46e-05	0	56	0	1297088512	60	5354
2026-01-03 08:25:37.41	333.19	9.86	-49.3	-52.4	12.6	6.33e-05	0	57	0	1304428544	60	5442
2026-01-03 08:25:41.37	332.98	9.54	-49.4	-52.8	12.2	1.85e-04	0	57	0	1311768576	60	5706
2026-01-03 08:25:45.33	332.78	9.22	-49.6	-53.2	11.8	4.53e-04	0	56	0	1319108608	61	5629
2026-01-03 08:25:49.29	332.58	8.90	-50.0	-54.0	11.0	1.97e-03	0	57	0	1326448640	61	6165
2026-01-03 08:25:53.24	332.39	8.59	-50.1	-54.4	10.6	4.11e-03	0	57	0	1333788672	62	6075
2026-01-03 08:25:57.20	332.20	8.28	-50.2	-54.4	10.5	4.67e-03	0	57	0	1341128704	62	6070
2026-01-03 08:26:01.16	332.01	7.97	-50.2	-54.5	10.4	4.08e-03	0	57	0	1349517312	62	6132
2026-01-03 08:26:05.12	331.83	7.67	-49.8	-53.5	11.4	1.53e-03	0	56	0	1356857344	62	5502
2026-01-03 08:26:09.07	331.66	7.37	-49.8	-53.7	11.2	1.10e-03	0	57	0	1364197376	62	5622
2026-01-03 08:26:13.02	331.48	7.08	-49.8	-53.6	11.2	1.52e-03	0	57	0	1371537408	62	5565
2026-01-03 08:26:16.98	331.32	6.79	-49.9	-54.0	10.8	3.19e-03	0	56	0	1378877440	62	5808
2026-01-03 08:26:20.93	331.15	6.50	-49.8	-54.0	10.7	2.77e-03	0	57	0	1386217472	62	5790
2026-01-03 08:26:24.89	330.99	6.21	-49.5	-53.3	11.4	1.63e-03	0	57	0	1393557504	62	5368
2026-01-03 08:26:28.83	330.83	5.93	-49.5	-53.4	11.3	6.68e-04	0	57	0	1400897536	61	5729
2026-01-03 08:26:32.78	330.68	5.65	-49.5	-53.3	11.4	9.37e-04	0	56	0	1408237568	61	5677
2026-01-03 08:26:36.74	330.53	5.37	-49.7	-53.6	11.0	1.68e-03	0	57	0	1415577600	61	5890
2026-01-03 08:26:40.70	330.38	5.09	-49.8	-53.7	10.8	2.29e-03	0	57	0	1422917632	61	5981
2026-01-03 08:26:44.67	330.23	4.82	-52.3	-66.2	3.8	1.49e+00	0	57	104	1426063360	66	18849
2026-01-03 08:26:48.64	330.09	4.55	-52.6	-66.5	3.8	1.49e+00	0	56	104	1426063360	67	18492
2026-01-03 08:26:52.60	329.95	4.28	-52.8	-66.7	3.8	1.49e+00	0	57	104	1426063360	67	18802
2026-01-03 08:26:56.55	329.81	4.02	-52.9	-66.8	3.8	1.49e+00	0	56	104	1426063360	67	19096
2026-01-03 08:27:00.51	329.68	3.75	-52.9	-66.9	3.8	1.49e+00	0	57	104	1426063360	67	19205
2026-01-03 08:27:04.47	329.55	3.49	-52.9	-66.9	3.8	1.49e+00	0	57	104	1426063360	67	19303
2026-01-03 08:27:08.43	329.42	3.23	-52.8	-66.9	3.8	1.49e+00	0	57	104	1426063360	67	19272
2026-01-03 08:27:12.38	329.29	2.98	-52.9	-66.9	3.8	1.49e+00	0	56	104	1426063360	67	19231

#Closed at: 2026-01-03 08:27:14
#Recorded file [1426 MB]: D:/Data/31026_260103_112642.dat