passes_logs/2026/01/03/R3.0SM8_Murmansk_STILSPACE/R3.0SM8_Murmansk_STILSPACE__20260103_023740_FENGYUN_3D_rec.log

#Pass ID: 20260103_023740_FENGYUN 3D
#Satellite: FENGYUN 3D
#Configuration: FENGYUN 3D
#almurnet v.1.7.20240730
#Start time: 2026-01-03 02:37:40

#Version: 2.2.20231116
#Station: R3.0SM8_Murmansk_STILSPACE
#Location: 33.092731 lon 68.902999 lat
#TLE: 1 43010U 17072A   26002.31768531  .00000715  00000+0  35975-3 0  9993
#TLE: 2 43010  98.9910 333.9388 0001871 131.0716 229.0622 14.19693418421454

#Time	Az	El	Level	Level2	SNR	BER	BlckErr	Temp	State	Recorded	gain1	gain2
2026-01-03 02:37:40.88	24.80	3.05	-53.0	-63.8	3.8	8.47e-01	0	46	0	0	67	13444
2026-01-03 02:37:44.84	24.83	3.31	-52.5	-63.4	3.8	8.46e-01	0	46	104	0	68	12103
2026-01-03 02:37:48.79	24.86	3.58	-48.4	-50.8	10.8	4.64e-03	0	46	0	13631488	59	4766
2026-01-03 02:37:52.75	24.89	3.84	-47.7	-49.7	12.0	6.42e-04	0	47	0	35651584	58	4457
2026-01-03 02:37:56.69	24.92	4.11	-47.2	-49.0	12.7	9.26e-05	0	47	0	57671680	57	4371
2026-01-03 02:38:00.66	24.95	4.39	-46.2	-47.7	13.9	8.00e-06	0	47	0	79691776	55	4223
2026-01-03 02:38:04.63	24.98	4.66	-45.8	-47.2	14.5	1.10e-06	0	48	0	101711872	54	4208
2026-01-03 02:38:08.59	25.02	4.94	-45.9	-47.2	14.4	0.00e+00	0	48	0	124780544	54	4241
2026-01-03 02:38:12.54	25.05	5.23	-46.0	-47.3	14.4	1.10e-06	0	48	0	146800640	54	4281
2026-01-03 02:38:16.49	25.08	5.51	-45.5	-46.7	15.1	2.20e-06	0	48	0	168820736	54	4002
2026-01-03 02:38:20.44	25.12	5.80	-45.4	-46.6	15.2	0.00e+00	0	48	0	190840832	54	3958
2026-01-03 02:38:24.40	25.15	6.09	-45.6	-46.9	15.0	1.10e-06	0	49	0	213909504	53	4316
2026-01-03 02:38:28.36	25.18	6.38	-45.9	-47.2	14.7	0.00e+00	0	49	0	235929600	53	4490
2026-01-03 02:38:32.31	25.22	6.68	-45.5	-46.7	15.2	0.00e+00	0	49	0	257949696	53	4240
2026-01-03 02:38:36.28	25.25	6.98	-45.2	-46.3	15.7	0.00e+00	0	49	0	279969792	53	4027
2026-01-03 02:38:40.24	25.29	7.29	-44.9	-46.1	16.0	0.00e+00	0	50	0	303038464	53	3930
2026-01-03 02:38:44.18	25.32	7.60	-45.0	-46.1	16.0	0.00e+00	0	50	0	325058560	52	4176
2026-01-03 02:38:48.14	25.36	7.91	-45.1	-46.2	15.9	0.00e+00	0	50	0	347078656	52	4241
2026-01-03 02:38:52.10	25.39	8.23	-45.1	-46.2	15.9	0.00e+00	0	50	0	369098752	52	4235
2026-01-03 02:38:56.05	25.43	8.55	-45.0	-46.1	16.1	0.00e+00	0	50	0	391118848	52	4154
2026-01-03 02:39:00.02	25.47	8.87	-45.2	-46.3	15.9	0.00e+00	0	50	0	414187520	52	4249
2026-01-03 02:39:03.98	25.50	9.20	-45.4	-46.5	15.7	0.00e+00	0	51	0	436207616	52	4369
2026-01-03 02:39:07.95	25.54	9.54	-45.5	-46.6	15.6	0.00e+00	0	51	0	458227712	52	4422
2026-01-03 02:39:11.91	25.58	9.88	-44.9	-45.9	16.3	0.00e+00	0	51	0	480247808	52	4098
2026-01-03 02:39:15.85	25.62	10.22	-45.2	-46.3	16.0	0.00e+00	0	51	0	503316480	52	4273
2026-01-03 02:39:19.79	25.66	10.56	-45.1	-46.2	16.1	0.00e+00	0	51	0	525336576	52	4227
2026-01-03 02:39:23.74	25.70	10.91	-44.6	-45.7	16.7	0.00e+00	0	51	0	547356672	52	3959
2026-01-03 02:39:27.70	25.74	11.27	-44.5	-45.5	16.8	0.00e+00	0	51	0	569376768	52	3896
2026-01-03 02:39:31.64	25.78	11.63	-44.7	-45.7	16.7	0.00e+00	0	52	0	591396864	52	3983
2026-01-03 02:39:35.59	25.82	12.00	-44.6	-45.6	16.8	0.00e+00	0	52	0	614465536	52	3921
2026-01-03 02:39:39.54	25.86	12.37	-44.5	-45.4	17.0	0.00e+00	0	52	0	636485632	52	3855
2026-01-03 02:39:43.49	25.90	12.75	-44.7	-45.6	16.9	0.00e+00	0	52	0	658505728	51	4185
2026-01-03 02:39:47.45	25.95	13.14	-44.6	-45.6	17.0	0.00e+00	0	52	0	680525824	51	4162
2026-01-03 02:39:51.40	25.99	13.53	-44.8	-45.8	16.8	0.00e+00	0	52	0	702545920	51	4263
2026-01-03 02:39:55.35	26.04	13.93	-44.3	-45.2	17.4	0.00e+00	0	52	0	724566016	51	3971
2026-01-03 02:39:59.32	26.08	14.34	-44.1	-44.9	17.6	0.00e+00	0	53	0	747634688	51	3858
2026-01-03 02:40:03.27	26.13	14.75	-44.0	-44.8	17.8	0.00e+00	0	53	0	769654784	50	4037
2026-01-03 02:40:07.21	26.17	15.16	-43.8	-44.6	18.0	0.00e+00	0	53	0	791674880	50	3941
2026-01-03 02:40:11.16	26.22	15.59	-43.6	-44.4	18.2	0.00e+00	0	53	0	813694976	50	3829
2026-01-03 02:40:15.12	26.27	16.02	-43.1	-43.9	18.7	0.00e+00	0	53	0	835715072	49	3835
2026-01-03 02:40:19.08	26.32	16.47	-43.4	-44.2	18.4	0.00e+00	0	53	0	858783744	49	3961
2026-01-03 02:40:23.04	26.37	16.92	-43.4	-44.2	18.4	0.00e+00	0	53	0	880803840	49	3989
2026-01-03 02:40:26.99	26.42	17.37	-43.0	-43.7	18.9	0.00e+00	0	53	0	902823936	49	3774
2026-01-03 02:40:30.93	26.48	17.84	-42.8	-43.5	19.1	0.00e+00	0	53	0	924844032	48	3885
2026-01-03 02:40:34.87	26.53	18.31	-42.8	-43.5	19.2	0.00e+00	0	53	0	946864128	48	3873
2026-01-03 02:40:38.83	26.59	18.80	-42.7	-43.4	19.2	0.00e+00	0	54	0	969932800	48	3852
2026-01-03 02:40:42.79	26.64	19.30	-42.6	-43.3	19.4	0.00e+00	0	54	0	991952896	48	3803
2026-01-03 02:40:46.74	26.70	19.80	-42.6	-43.3	19.4	0.00e+00	0	54	0	1013972992	48	3807
2026-01-03 02:40:50.70	26.76	20.32	-42.8	-43.5	19.2	0.00e+00	0	54	0	1035993088	48	3903
2026-01-03 02:40:54.65	26.82	20.84	-42.2	-42.9	19.6	0.00e+00	0	54	0	1059061760	47	3837
2026-01-03 02:40:58.61	26.88	21.38	-41.8	-42.4	20.1	0.00e+00	0	54	0	1081081856	46	3851
2026-01-03 02:41:02.58	26.95	21.93	-42.1	-42.8	19.7	0.00e+00	0	54	0	1103101952	46	4039
2026-01-03 02:41:06.54	27.01	22.50	-42.4	-43.1	19.4	0.00e+00	0	54	0	1125122048	46	4177
2026-01-03 02:41:10.50	27.08	23.07	-41.9	-42.6	20.0	0.00e+00	0	54	0	1148190720	46	3929
2026-01-03 02:41:14.47	27.15	23.66	-41.7	-42.3	20.3	0.00e+00	0	54	0	1170210816	46	3792
2026-01-03 02:41:18.41	27.22	24.26	-41.3	-41.9	20.6	0.00e+00	0	54	0	1192230912	45	3836
2026-01-03 02:41:22.37	27.29	24.88	-41.3	-41.9	20.6	0.00e+00	0	54	0	1214251008	45	3865
2026-01-03 02:41:26.33	27.37	25.51	-41.7	-42.3	20.2	0.00e+00	0	54	0	1236271104	45	4036
2026-01-03 02:41:30.29	27.45	26.16	-41.8	-42.5	20.1	0.00e+00	0	54	0	1259339776	45	4111
2026-01-03 02:41:34.25	27.53	26.82	-41.7	-42.3	20.2	0.00e+00	0	55	0	1281359872	45	4050
2026-01-03 02:41:38.21	27.61	27.50	-41.3	-41.9	20.6	0.00e+00	0	55	0	1303379968	45	3850
2026-01-03 02:41:42.16	27.70	28.19	-41.5	-42.1	20.5	0.00e+00	0	55	0	1325400064	45	3926
2026-01-03 02:41:46.13	27.79	28.91	-41.7	-42.3	20.3	0.00e+00	0	55	0	1348468736	45	4028
2026-01-03 02:41:50.08	27.88	29.64	-41.3	-41.9	20.6	0.00e+00	0	55	0	1370488832	45	3848
2026-01-03 02:41:54.04	27.98	30.39	-41.4	-42.0	20.5	0.00e+00	0	55	0	1392508928	45	3901
2026-01-03 02:41:57.99	28.08	31.16	-40.9	-41.5	21.1	0.00e+00	0	55	0	1414529024	44	3878
2026-01-03 02:42:01.94	28.18	31.95	-41.2	-41.8	20.8	0.00e+00	0	55	0	1437597696	44	4036
2026-01-03 02:42:05.89	28.29	32.77	-41.5	-42.2	20.4	0.00e+00	0	55	0	1459617792	44	4197
2026-01-03 02:42:09.84	28.41	33.60	-41.2	-41.8	20.7	0.00e+00	0	55	0	1481637888	44	4044
2026-01-03 02:42:13.81	28.53	34.47	-41.1	-41.7	20.9	0.00e+00	0	55	0	1503657984	44	3959
2026-01-03 02:42:17.75	28.65	35.35	-40.6	-41.2	21.4	0.00e+00	0	55	0	1525678080	44	3746
2026-01-03 02:42:21.69	28.78	36.25	-40.7	-41.2	21.3	0.00e+00	0	55	0	1548746752	43	3991
2026-01-03 02:42:25.65	28.92	37.19	-40.0	-40.5	21.9	0.00e+00	0	55	0	1570766848	43	3691
2026-01-03 02:42:29.60	29.06	38.15	-40.3	-40.8	21.7	0.00e+00	0	56	0	1592786944	43	3804
2026-01-03 02:42:33.57	29.22	39.15	-40.7	-41.3	21.2	0.00e+00	0	55	0	1614807040	43	4005
2026-01-03 02:42:37.54	29.38	40.17	-40.6	-41.1	21.4	0.00e+00	0	55	0	1637875712	43	3942
2026-01-03 02:42:41.50	29.55	41.23	-41.0	-41.6	20.9	0.00e+00	0	55	0	1659895808	43	4176
2026-01-03 02:42:45.45	29.73	42.31	-41.1	-41.7	21.0	0.00e+00	0	56	0	1681915904	44	3959
2026-01-03 02:42:49.39	29.92	43.42	-41.1	-41.7	20.9	0.00e+00	0	55	0	1703936000	44	3987
2026-01-03 02:42:53.36	30.13	44.57	-41.6	-42.2	20.5	0.00e+00	0	56	0	1725956096	45	3965
2026-01-03 02:42:57.29	30.35	45.75	-41.0	-41.5	21.1	0.00e+00	0	56	0	1749024768	45	3688
2026-01-03 02:43:01.23	30.58	46.96	-41.5	-42.1	20.6	0.00e+00	0	56	0	1769996288	45	3927
2026-01-03 02:43:05.18	30.84	48.21	-41.2	-41.8	20.9	0.00e+00	0	56	0	1793064960	45	3783
2026-01-03 02:43:09.15	31.12	49.51	-41.0	-41.5	21.1	0.00e+00	0	56	0	1815085056	45	3681
2026-01-03 02:43:13.10	31.41	50.83	-41.9	-42.5	20.2	0.00e+00	0	56	0	1837105152	45	4114
2026-01-03 02:43:17.05	31.74	52.20	-43.0	-43.7	19.1	0.00e+00	0	56	0	1859125248	47	4218
2026-01-03 02:43:21.02	32.09	53.61	-42.9	-43.6	19.2	0.00e+00	0	56	0	1882193920	47	4160
2026-01-03 02:43:25.00	32.49	55.06	-43.6	-44.4	18.6	0.00e+00	0	56	0	1904214016	49	4078
2026-01-03 02:43:28.95	32.92	56.54	-42.8	-43.5	19.5	0.00e+00	0	56	0	1926234112	48	3875
2026-01-03 02:43:32.91	33.40	58.07	-41.7	-42.3	20.4	0.00e+00	0	56	0	1949302784	46	3811
2026-01-03 02:43:36.89	33.94	59.64	-41.4	-42.0	20.8	0.00e+00	0	56	0	1971322880	45	3874
2026-01-03 02:43:40.84	34.54	61.24	-40.4	-40.9	21.8	0.00e+00	0	56	0	1993342976	44	3617
2026-01-03 02:43:44.82	35.23	62.88	-40.4	-41.0	21.6	0.00e+00	0	56	0	2015363072	43	3869
2026-01-03 02:43:48.76	36.01	64.55	-40.2	-40.7	21.8	0.00e+00	0	56	0	2038431744	43	3753
2026-01-03 02:43:52.72	36.92	66.26	-40.6	-41.2	21.4	0.00e+00	0	56	0	2060451840	43	3972
2026-01-03 02:43:56.68	37.98	67.99	-40.3	-40.9	21.7	0.00e+00	0	56	0	2082471936	43	3829
2026-01-03 02:44:00.62	39.24	69.75	-40.5	-41.0	21.5	0.00e+00	0	56	0	2104492032	43	3913
2026-01-03 02:44:04.58	40.76	71.54	-40.1	-40.7	21.9	0.00e+00	0	56	0	2127560704	43	3749
2026-01-03 02:44:08.54	42.63	73.34	-39.5	-39.9	22.5	0.00e+00	0	56	0	2149580800	41	3868
2026-01-03 02:44:12.49	44.96	75.15	-39.4	-39.9	22.6	0.00e+00	0	56	0	2171600896	41	3849
2026-01-03 02:44:16.45	47.97	76.96	-38.9	-39.4	23.0	0.00e+00	0	56	0	2193620992	41	3639
2026-01-03 02:44:20.41	51.97	78.74	-38.7	-39.2	23.2	0.00e+00	0	56	0	2215641088	40	3742
2026-01-03 02:44:24.37	57.48	80.47	-38.5	-39.0	23.4	0.00e+00	0	56	0	2238709760	40	3679
2026-01-03 02:44:28.33	65.37	82.08	-38.3	-38.7	23.7	0.00e+00	0	56	0	2260729856	39	3778
2026-01-03 02:44:32.27	76.92	83.48	-38.4	-38.9	23.6	0.00e+00	0	56	0	2282749952	39	3851
2026-01-03 02:44:36.23	93.79	84.50	-38.3	-38.7	23.7	0.00e+00	0	56	0	2304770048	39	3776
2026-01-03 02:44:40.19	115.48	84.87	-38.5	-39.0	23.5	0.00e+00	0	56	0	2327838720	39	3886
2026-01-03 02:44:44.15	137.11	84.48	-38.8	-39.3	23.1	0.00e+00	0	56	0	2349858816	40	3785
2026-01-03 02:44:48.12	153.89	83.45	-38.5	-39.0	23.4	0.00e+00	0	56	0	2371878912	40	3668
2026-01-03 02:44:52.08	165.38	82.03	-38.9	-39.4	23.0	0.00e+00	0	56	0	2393899008	40	3862
2026-01-03 02:44:56.04	173.17	80.41	-38.4	-38.9	23.6	0.00e+00	0	56	0	2416967680	39	3842
2026-01-03 02:45:00.00	178.63	78.68	-38.8	-39.3	23.1	0.00e+00	0	56	0	2438987776	40	3806
2026-01-03 02:45:03.96	182.59	76.90	-38.5	-38.9	23.5	0.00e+00	0	56	0	2461007872	40	3631
2026-01-03 02:45:07.91	185.58	75.09	-39.5	-40.0	22.5	0.00e+00	0	56	0	2483027968	40	4122
2026-01-03 02:45:11.88	187.91	73.27	-39.5	-40.0	22.5	0.00e+00	0	56	0	2505048064	42	3664
2026-01-03 02:45:15.83	189.75	71.47	-40.1	-40.6	21.9	0.00e+00	0	56	0	2528116736	42	3929
2026-01-03 02:45:19.78	191.26	69.69	-40.4	-41.0	21.6	0.00e+00	0	56	0	2550136832	42	4110
2026-01-03 02:45:23.73	192.51	67.92	-40.2	-40.7	21.9	0.00e+00	0	56	0	2572156928	43	3758
2026-01-03 02:45:27.68	193.57	66.19	-40.2	-40.7	21.8	0.00e+00	0	56	0	2594177024	43	3765
2026-01-03 02:45:31.63	194.47	64.48	-40.0	-40.5	22.1	0.00e+00	0	56	0	2616197120	43	3668
2026-01-03 02:45:35.57	195.25	62.81	-40.5	-41.0	21.5	0.00e+00	0	56	0	2638217216	43	3907
2026-01-03 02:45:39.53	195.93	61.17	-40.5	-41.0	21.5	0.00e+00	0	56	0	2661285888	43	3897
2026-01-03 02:45:43.50	196.54	59.56	-40.7	-41.2	21.4	0.00e+00	0	56	0	2683305984	43	3988
2026-01-03 02:45:47.47	197.07	57.99	-41.1	-41.7	21.0	0.00e+00	0	57	0	2705326080	44	3990
2026-01-03 02:45:51.42	197.55	56.47	-42.0	-42.7	20.1	0.00e+00	0	57	0	2727346176	45	4195
2026-01-03 02:45:55.37	197.98	54.98	-42.4	-43.1	19.7	0.00e+00	0	57	0	2750414848	46	4181
2026-01-03 02:45:59.32	198.37	53.54	-41.8	-42.4	20.3	0.00e+00	0	57	0	2772434944	46	3851
2026-01-03 02:46:03.29	198.73	52.12	-42.0	-42.6	20.1	0.00e+00	0	56	0	2794455040	46	3956
2026-01-03 02:46:07.24	199.05	50.76	-41.6	-42.3	20.5	0.00e+00	0	57	0	2817523712	46	3781
2026-01-03 02:46:11.20	199.35	49.42	-41.1	-41.7	21.0	0.00e+00	0	57	0	2839543808	45	3756
2026-01-03 02:46:15.16	199.62	48.13	-41.3	-41.9	20.8	0.00e+00	0	57	0	2861563904	45	3839
2026-01-03 02:46:19.11	199.87	46.88	-41.0	-41.6	21.1	0.00e+00	0	56	0	2883584000	45	3708
2026-01-03 02:46:23.06	200.11	45.66	-41.4	-41.9	20.7	0.00e+00	0	57	0	2905604096	45	3868
2026-01-03 02:46:27.02	200.33	44.47	-41.9	-42.5	20.2	0.00e+00	0	57	0	2927624192	45	4133
2026-01-03 02:46:30.97	200.53	43.32	-40.6	-41.1	21.5	0.00e+00	0	57	0	2950692864	44	3727
2026-01-03 02:46:34.93	200.73	42.20	-40.9	-41.4	21.2	0.00e+00	0	57	0	2972712960	44	3868
2026-01-03 02:46:38.89	200.91	41.12	-40.6	-41.2	21.5	0.00e+00	0	56	0	2994733056	44	3739
2026-01-03 02:46:42.85	201.08	40.06	-40.5	-41.0	21.6	0.00e+00	0	57	0	3016753152	44	3692
2026-01-03 02:46:46.81	201.24	39.04	-40.5	-41.1	21.5	0.00e+00	0	57	0	3039821824	43	3915
2026-01-03 02:46:50.77	201.39	38.04	-40.8	-41.4	21.2	0.00e+00	0	57	0	3061841920	43	4058
2026-01-03 02:46:54.74	201.53	37.07	-40.3	-40.9	21.7	0.00e+00	0	56	0	3083862016	43	3827
2026-01-03 02:46:58.70	201.67	36.13	-40.7	-41.3	21.3	0.00e+00	0	57	0	3106930688	43	4005
2026-01-03 02:47:02.65	201.80	35.22	-40.9	-41.5	21.0	0.00e+00	0	57	0	3128950784	43	4141
2026-01-03 02:47:06.60	201.92	34.34	-41.3	-41.9	20.8	0.00e+00	0	57	0	3150970880	44	4079
2026-01-03 02:47:10.54	202.04	33.48	-41.1	-41.7	20.9	0.00e+00	0	57	0	3172990976	44	3994
2026-01-03 02:47:14.52	202.15	32.63	-41.0	-41.6	21.1	0.00e+00	0	56	0	3195011072	44	3915
2026-01-03 02:47:18.48	202.26	31.82	-41.0	-41.6	21.0	0.00e+00	0	56	0	3217031168	44	3940
2026-01-03 02:47:22.44	202.37	31.02	-41.0	-41.6	21.0	0.00e+00	0	56	0	3240099840	44	3935
2026-01-03 02:47:26.40	202.46	30.25	-40.9	-41.5	21.1	0.00e+00	0	57	0	3262119936	44	3893
2026-01-03 02:47:30.36	202.56	29.50	-41.2	-41.8	20.8	0.00e+00	0	56	0	3284140032	44	4040
2026-01-03 02:47:34.30	202.65	28.77	-41.4	-42.0	20.6	0.00e+00	0	57	0	3306160128	45	3897
2026-01-03 02:47:38.26	202.74	28.05	-41.8	-42.4	20.2	0.00e+00	0	57	0	3329228800	45	4082
2026-01-03 02:47:42.21	202.82	27.35	-41.2	-41.8	20.9	0.00e+00	0	56	0	3351248896	45	3782
2026-01-03 02:47:46.17	202.91	26.67	-40.9	-41.5	21.1	0.00e+00	0	57	0	3373268992	44	3898
2026-01-03 02:47:50.15	202.99	26.01	-41.0	-41.6	21.0	0.00e+00	0	56	0	3396337664	44	3936
2026-01-03 02:47:54.10	203.06	25.36	-41.4	-42.0	20.6	0.00e+00	0	57	0	3418357760	44	4128
2026-01-03 02:47:58.06	203.14	24.73	-41.5	-42.2	20.4	0.00e+00	0	57	0	3440377856	45	3959
2026-01-03 02:48:02.02	203.21	24.11	-42.0	-42.7	19.9	0.00e+00	0	57	0	3462397952	45	4197
2026-01-03 02:48:05.98	203.28	23.51	-41.8	-42.4	20.2	0.00e+00	0	56	0	3484418048	46	3858
2026-01-03 02:48:09.93	203.35	22.92	-42.4	-43.0	19.6	0.00e+00	0	56	0	3507486720	46	4133
2026-01-03 02:48:13.89	203.41	22.35	-41.7	-42.3	20.3	0.00e+00	0	57	0	3529506816	46	3795
2026-01-03 02:48:17.86	203.48	21.78	-41.8	-42.4	20.2	0.00e+00	0	57	0	3551526912	46	3851
2026-01-03 02:48:21.81	203.54	21.23	-42.1	-42.8	19.9	0.00e+00	0	57	0	3573547008	46	4009
2026-01-03 02:48:25.77	203.60	20.69	-42.8	-43.5	19.1	0.00e+00	0	57	0	3595567104	47	4131
2026-01-03 02:48:29.71	203.66	20.17	-42.4	-43.1	19.5	0.00e+00	0	57	0	3618635776	47	3941
2026-01-03 02:48:33.66	203.72	19.65	-42.8	-43.5	19.1	0.00e+00	0	57	0	3640655872	47	4128
2026-01-03 02:48:37.62	203.77	19.14	-42.7	-43.4	19.3	0.00e+00	0	57	0	3662675968	48	3856
2026-01-03 02:48:41.58	203.83	18.65	-42.8	-43.5	19.3	0.00e+00	0	57	0	3684696064	48	3878
2026-01-03 02:48:45.54	203.88	18.16	-42.6	-43.3	19.5	0.00e+00	0	57	0	3707764736	48	3798
2026-01-03 02:48:49.50	203.93	17.68	-42.9	-43.6	19.1	0.00e+00	0	57	0	3729784832	48	3949
2026-01-03 02:48:53.45	203.98	17.21	-43.1	-43.9	18.9	0.00e+00	0	57	0	3751804928	48	4060
2026-01-03 02:48:57.40	204.03	16.76	-43.3	-44.0	18.7	0.00e+00	0	57	0	3773825024	48	4138
2026-01-03 02:49:01.37	204.08	16.30	-43.6	-44.4	18.3	0.00e+00	0	57	0	3795845120	49	4079
2026-01-03 02:49:05.33	204.13	15.86	-44.2	-45.0	17.7	0.00e+00	0	57	0	3818913792	50	4138
2026-01-03 02:49:09.30	204.18	15.43	-43.9	-44.8	18.0	0.00e+00	0	57	0	3840933888	50	4005
2026-01-03 02:49:13.25	204.22	15.00	-44.0	-44.8	17.9	0.00e+00	0	57	0	3862953984	50	4021
2026-01-03 02:49:17.21	204.27	14.58	-43.6	-44.4	18.3	0.00e+00	0	57	0	3884974080	50	3830
2026-01-03 02:49:21.17	204.31	14.17	-43.9	-44.7	17.9	0.00e+00	0	57	0	3908042752	50	3995
2026-01-03 02:49:25.12	204.35	13.76	-44.0	-44.8	17.8	0.00e+00	0	57	0	3930062848	50	4035
2026-01-03 02:49:29.07	204.40	13.36	-44.2	-45.0	17.7	0.00e+00	0	57	0	3952082944	50	4131
2026-01-03 02:49:33.02	204.44	12.97	-44.0	-44.8	17.8	0.00e+00	0	57	0	3974103040	50	4024
2026-01-03 02:49:36.99	204.48	12.58	-44.0	-44.8	17.8	0.00e+00	0	57	0	3997171712	50	4022
2026-01-03 02:49:40.94	204.52	12.20	-44.4	-45.3	17.4	0.00e+00	0	57	0	4019191808	50	4244
2026-01-03 02:49:44.91	204.56	11.83	-44.5	-45.4	17.2	0.00e+00	0	57	0	4041211904	50	4316
2026-01-03 02:49:48.86	204.60	11.46	-44.3	-45.2	17.4	0.00e+00	0	57	0	4063232000	50	4195
2026-01-03 02:49:52.80	204.64	11.10	-44.7	-45.6	17.0	0.00e+00	0	57	0	4085252096	51	4163
2026-01-03 02:49:56.74	204.68	10.74	-45.1	-46.1	16.5	0.00e+00	0	57	0	4108320768	51	4416
2026-01-03 02:50:00.71	204.71	10.39	-45.3	-46.4	16.0	0.00e+00	0	57	0	4130340864	52	4307
2026-01-03 02:50:04.66	204.75	10.04	-45.4	-46.5	15.9	0.00e+00	0	57	0	4152360960	52	4390
2026-01-03 02:50:08.61	204.79	9.70	-44.8	-45.8	16.6	0.00e+00	0	57	0	4174381056	52	4039
2026-01-03 02:50:12.56	204.82	9.36	-44.8	-45.8	16.6	0.00e+00	0	57	0	4196401152	52	4022
2026-01-03 02:50:16.50	204.86	9.03	-44.7	-45.7	16.7	0.00e+00	0	57	0	4219469824	52	3983
2026-01-03 02:50:20.48	204.89	8.70	-44.9	-46.0	16.4	0.00e+00	0	57	0	4241489920	52	4104
2026-01-03 02:50:24.44	204.93	8.37	-45.1	-46.1	16.2	0.00e+00	0	57	0	4263510016	52	4184
2026-01-03 02:50:28.37	204.96	8.05	-45.1	-46.2	16.2	0.00e+00	0	57	0	4285530112	52	4195
2026-01-03 02:50:32.33	204.99	7.74	-45.5	-46.7	15.6	0.00e+00	0	57	0	4307550208	52	4464
2026-01-03 02:50:36.29	205.03	7.42	-45.4	-46.5	15.8	0.00e+00	0	57	0	4330618880	52	4356
2026-01-03 02:50:40.25	205.06	7.11	-45.8	-47.0	15.2	0.00e+00	0	57	0	4352638976	53	4388
2026-01-03 02:50:44.20	205.09	6.81	-45.4	-46.5	15.7	0.00e+00	0	57	0	4374659072	53	4100
2026-01-03 02:50:48.15	205.12	6.51	-45.5	-46.7	15.5	0.00e+00	0	57	0	4396679168	53	4194
2026-01-03 02:50:52.11	205.15	6.21	-45.7	-46.9	15.2	0.00e+00	0	57	0	4419747840	53	4314
2026-01-03 02:50:56.07	205.18	5.91	-46.0	-47.4	14.7	0.00e+00	0	57	0	4441767936	53	4553
2026-01-03 02:51:00.04	205.21	5.62	-46.2	-47.6	14.4	1.10e-06	0	57	0	4463788032	54	4432
2026-01-03 02:51:03.98	205.24	5.33	-46.4	-47.9	14.1	4.50e-06	0	57	0	4485808128	54	4553
2026-01-03 02:51:07.95	205.27	5.05	-47.1	-48.8	13.4	1.10e-06	0	57	0	4508876800	55	4761
2026-01-03 02:51:11.91	205.30	4.76	-52.8	-63.7	3.8	8.45e-01	0	57	104	4509925376	67	13278
2026-01-03 02:51:15.86	205.33	4.48	-53.3	-64.0	3.8	8.46e-01	0	57	104	4509925376	68	13003
2026-01-03 02:51:19.81	205.36	4.21	-53.4	-64.1	3.8	8.47e-01	0	57	104	4509925376	68	13209
2026-01-03 02:51:23.78	205.39	3.93	-53.3	-64.2	3.8	8.46e-01	0	57	104	4509925376	68	13277
2026-01-03 02:51:27.74	205.42	3.66	-53.4	-64.2	3.8	8.47e-01	0	57	104	4509925376	68	13325
2026-01-03 02:51:31.69	205.45	3.39	-53.4	-64.2	3.8	8.45e-01	0	57	104	4509925376	68	13314
2026-01-03 02:51:35.63	205.48	3.13	-53.4	-64.2	3.8	8.46e-01	0	57	104	4509925376	68	13266
2026-01-03 02:51:39.59	205.50	2.87	-53.4	-64.2	3.8	8.46e-01	0	57	104	4509925376	68	13306

#Closed at: 2026-01-03 02:51:40
#Recorded file [4509 MB]: D:/Data/31026_260103_055108.dat