passes_logs/2026/01/03/R3.0SM8_Murmansk_STILSPACE/R3.0SM8_Murmansk_STILSPACE__20260103_010659_NOAA_21_JPSS-2_rec.log

#Pass ID: 20260103_010659_NOAA 21 (JPSS-2)
#Satellite: NOAA 21 (JPSS-2)
#Configuration: NOAA-21
#almurnet v.1.7.20240730
#Start time: 2026-01-03 01:12:37

#Version: 2.2.20231116
#Station: R3.0SM8_Murmansk_STILSPACE
#Location: 33.092731 lon 68.902999 lat
#TLE: 1 54234U 22150A   26002.25486487  .00000200  00000+0  11573-3 0  9993
#TLE: 2 54234  98.7485 303.3096 0001220 350.9074   9.2080 14.19531212163006

#Time	Az	El	Level	Level2	SNR	BER	BlckErr	Temp	State	Recorded	gain1	gain2
2026-01-03 01:12:37.93	7.71	51.00	-53.4	-63.6	3.8	8.47e-01	0	57	0	0	68	12331
2026-01-03 01:12:40.89	6.89	51.93	-53.5	-65.0	3.8	1.49e+00	0	57	104	0	69	13789
2026-01-03 01:12:43.84	6.02	52.87	-53.5	-65.0	3.8	1.49e+00	0	57	104	0	69	13804
2026-01-03 01:12:46.80	5.08	53.83	-53.5	-65.0	3.8	1.49e+00	0	57	104	0	69	13823
2026-01-03 01:12:49.78	4.07	54.80	-53.5	-65.0	3.8	1.49e+00	0	57	104	0	69	13807
2026-01-03 01:12:52.75	3.00	55.77	-53.5	-65.0	3.8	1.49e+00	0	57	104	0	69	13826
2026-01-03 01:12:55.73	1.83	56.76	-53.5	-65.0	3.8	1.49e+00	0	57	104	0	69	13864
2026-01-03 01:12:58.69	0.60	57.75	-53.5	-65.0	3.8	1.49e+00	0	57	104	0	69	13819
2026-01-03 01:13:01.66	359.26	58.74	-53.5	-65.0	3.8	1.49e+00	0	57	104	0	69	13800
2026-01-03 01:13:04.64	357.81	59.73	-53.5	-65.0	3.8	1.49e+00	0	57	104	0	69	13799
2026-01-03 01:13:07.61	356.25	60.72	-53.4	-65.0	3.8	1.49e+00	0	57	104	0	69	13761
2026-01-03 01:13:10.59	354.56	61.71	-53.5	-65.0	3.8	1.49e+00	0	57	104	0	69	13817
2026-01-03 01:13:13.55	352.73	62.68	-53.4	-65.0	3.8	1.49e+00	0	57	104	0	69	13737
2026-01-03 01:13:16.52	350.75	63.65	-53.5	-65.0	3.8	1.49e+00	0	57	104	0	69	13765
2026-01-03 01:13:19.49	348.60	64.59	-53.5	-64.8	3.8	1.49e+00	0	57	104	0	69	13537
2026-01-03 01:13:22.46	346.26	65.51	-53.3	-63.7	3.8	1.49e+00	0	57	104	0	69	11918
2026-01-03 01:13:25.43	343.73	66.40	-53.4	-64.1	3.8	1.49e+00	0	57	104	0	69	12410
2026-01-03 01:13:28.38	340.99	67.25	-53.4	-64.0	3.8	1.49e+00	0	57	104	0	69	12284
2026-01-03 01:13:31.34	338.02	68.06	-45.8	-46.8	16.8	0.00e+00	0	57	0	4194304	54	4039
2026-01-03 01:13:34.30	334.81	68.82	-44.4	-45.2	18.5	0.00e+00	0	57	0	13631488	50	4212
2026-01-03 01:13:37.26	331.35	69.51	-44.1	-44.8	18.8	0.00e+00	0	57	0	23068672	50	4051
2026-01-03 01:13:40.24	327.61	70.14	-44.3	-45.1	18.4	0.00e+00	0	57	0	32505856	50	4173
2026-01-03 01:13:43.20	323.66	70.68	-44.3	-45.0	18.6	0.00e+00	0	57	0	40894464	51	3898
2026-01-03 01:13:46.17	319.47	71.14	-44.9	-45.8	17.9	0.00e+00	0	57	0	50331648	51	4244
2026-01-03 01:13:49.15	315.07	71.50	-44.3	-45.1	18.6	0.00e+00	0	57	0	59768832	51	3922
2026-01-03 01:13:52.11	310.54	71.75	-44.6	-45.4	18.3	0.00e+00	0	57	0	69206016	51	4072
2026-01-03 01:13:55.07	305.91	71.89	-43.6	-44.2	19.4	0.00e+00	0	57	0	78643200	50	3768
2026-01-03 01:13:58.03	301.23	71.92	-44.8	-45.6	18.1	0.00e+00	0	57	0	88080384	51	4179
2026-01-03 01:14:01.01	296.54	71.83	-44.3	-45.0	18.6	0.00e+00	0	57	0	96468992	51	3911
2026-01-03 01:14:03.98	291.94	71.63	-44.3	-45.1	18.6	0.00e+00	0	57	0	105906176	51	3942
2026-01-03 01:14:06.95	287.47	71.32	-44.6	-45.4	18.3	0.00e+00	0	57	0	115343360	51	4068
2026-01-03 01:14:09.91	283.20	70.91	-45.3	-46.3	17.4	0.00e+00	0	57	0	124780544	52	4251
2026-01-03 01:14:12.89	279.11	70.40	-44.5	-45.3	18.3	0.00e+00	0	57	0	134217728	52	3801
2026-01-03 01:14:15.86	275.28	69.81	-44.7	-45.5	18.1	0.00e+00	0	57	0	143654912	51	4145
2026-01-03 01:14:18.83	271.69	69.14	-44.4	-45.2	18.5	0.00e+00	0	57	0	153092096	51	3978
2026-01-03 01:14:21.80	268.35	68.41	-44.6	-45.4	18.2	0.00e+00	0	57	0	161480704	51	4070
2026-01-03 01:14:24.76	265.27	67.62	-44.5	-45.3	18.2	0.00e+00	0	57	0	170917888	52	3793
2026-01-03 01:14:27.73	262.42	66.78	-46.1	-47.1	16.6	0.00e+00	0	57	0	180355072	53	4439
2026-01-03 01:14:30.70	259.78	65.91	-44.9	-45.7	17.8	0.00e+00	0	57	0	189792256	53	3773
2026-01-03 01:14:33.67	257.36	65.00	-45.7	-46.7	16.8	0.00e+00	0	57	0	199229440	53	4218
2026-01-03 01:14:36.63	255.13	64.06	-46.8	-48.0	15.7	0.00e+00	0	57	0	208666624	56	4130
2026-01-03 01:14:39.59	253.08	63.11	-44.8	-45.6	18.1	0.00e+00	0	57	0	217055232	51	4182
2026-01-03 01:14:42.56	251.18	62.14	-46.3	-47.5	16.2	0.00e+00	0	57	0	226492416	55	4102
2026-01-03 01:14:45.53	249.43	61.15	-44.2	-45.0	18.7	0.00e+00	0	57	0	235929600	51	3880
2026-01-03 01:14:48.50	247.81	60.16	-45.6	-46.5	17.1	0.00e+00	0	57	0	245366784	52	4372
2026-01-03 01:14:51.47	246.32	59.17	-45.8	-46.8	16.9	0.00e+00	0	57	0	254803968	54	4005
2026-01-03 01:14:54.42	244.94	58.18	-43.9	-44.6	19.0	0.00e+00	0	57	0	264241152	50	3937
2026-01-03 01:14:57.38	243.66	57.19	-45.6	-46.5	16.9	0.00e+00	0	57	0	273678336	52	4376
2026-01-03 01:15:00.35	242.46	56.21	-45.1	-46.0	17.6	0.00e+00	0	57	0	282066944	53	3874
2026-01-03 01:15:03.32	241.35	55.22	-45.6	-46.6	17.0	0.00e+00	0	57	0	291504128	53	4181
2026-01-03 01:15:06.30	240.31	54.25	-47.3	-48.7	15.1	0.00e+00	0	57	0	300941312	56	4461
2026-01-03 01:15:09.28	239.33	53.28	-46.4	-47.5	16.1	0.00e+00	0	57	0	310378496	56	3908
2026-01-03 01:15:12.23	238.43	52.33	-45.7	-46.6	16.9	0.00e+00	0	57	0	319815680	54	3937
2026-01-03 01:15:15.20	237.58	51.39	-46.6	-47.8	15.8	0.00e+00	0	57	0	329252864	55	4275
2026-01-03 01:15:18.17	236.78	50.45	-48.3	-50.0	13.8	3.00e-06	0	57	0	338690048	58	4608
2026-01-03 01:15:21.15	236.03	49.53	-46.6	-47.7	16.0	0.00e+00	0	57	0	347078656	56	3989
2026-01-03 01:15:24.13	235.32	48.63	-46.8	-48.1	15.6	0.00e+00	0	57	0	356515840	55	4394
2026-01-03 01:15:27.09	234.66	47.74	-48.2	-49.8	13.9	1.50e-06	0	57	0	365953024	58	4524
2026-01-03 01:15:30.04	234.03	46.87	-48.3	-50.0	13.6	3.80e-06	0	57	0	375390208	58	4642
2026-01-03 01:15:33.02	233.44	46.00	-47.0	-48.2	15.4	0.00e+00	0	57	0	384827392	57	3996
2026-01-03 01:15:35.99	232.87	45.15	-46.1	-47.1	16.5	0.00e+00	0	57	0	394264576	54	4175
2026-01-03 01:15:38.97	232.34	44.32	-48.3	-50.0	13.7	3.80e-06	0	57	0	403701760	58	4626
2026-01-03 01:15:41.94	231.83	43.50	-48.5	-50.2	13.5	1.06e-05	0	57	0	412090368	59	4475
2026-01-03 01:15:44.91	231.35	42.69	-47.8	-49.3	14.4	7.00e-07	0	57	0	421527552	58	4289
2026-01-03 01:15:47.87	230.90	41.91	-47.8	-49.3	14.5	1.50e-06	0	57	0	430964736	58	4257
2026-01-03 01:15:50.84	230.47	41.13	-47.5	-49.0	14.8	7.00e-07	0	57	0	440401920	58	4104
2026-01-03 01:15:53.82	230.05	40.37	-48.5	-50.2	13.5	1.14e-05	0	57	0	449839104	58	4743
2026-01-03 01:15:56.79	229.66	39.62	-49.8	-52.3	11.4	4.49e-04	0	57	0	459276288	61	5042
2026-01-03 01:15:59.75	229.28	38.89	-49.6	-52.0	11.7	8.10e-04	0	57	0	467664896	62	4603
2026-01-03 01:16:02.72	228.92	38.18	-47.4	-48.7	15.0	0.00e+00	0	57	0	477102080	58	4000
2026-01-03 01:16:05.70	228.58	37.47	-47.1	-48.3	15.4	0.00e+00	0	57	0	486539264	57	4051
2026-01-03 01:16:08.67	228.25	36.78	-46.0	-47.1	16.5	0.00e+00	0	57	0	495976448	55	3957
2026-01-03 01:16:11.63	227.93	36.10	-46.1	-47.2	16.4	0.00e+00	0	57	0	505413632	55	3964
2026-01-03 01:16:14.60	227.63	35.44	-45.9	-46.9	16.7	0.00e+00	0	57	0	514850816	54	4064
2026-01-03 01:16:17.56	227.34	34.79	-45.8	-46.8	16.8	0.00e+00	0	57	0	523239424	54	4031
2026-01-03 01:16:20.53	227.06	34.15	-45.5	-46.5	17.1	0.00e+00	0	57	0	532676608	54	3885
2026-01-03 01:16:23.50	226.80	33.52	-45.8	-46.8	16.7	0.00e+00	0	57	0	542113792	54	4045
2026-01-03 01:16:26.47	226.54	32.91	-46.0	-47.0	16.5	0.00e+00	0	57	0	551550976	54	4140
2026-01-03 01:16:29.44	226.29	32.30	-46.2	-47.3	16.2	0.00e+00	0	57	0	560988160	54	4278
2026-01-03 01:16:32.41	226.05	31.71	-45.7	-46.6	16.9	0.00e+00	0	57	0	570425344	54	3950
2026-01-03 01:16:35.38	225.83	31.13	-45.8	-46.9	16.7	0.00e+00	0	57	0	579862528	54	4065
2026-01-03 01:16:38.34	225.61	30.56	-46.1	-47.3	16.3	0.00e+00	0	57	0	588251136	54	4245
2026-01-03 01:16:41.30	225.39	30.00	-46.1	-47.2	16.4	0.00e+00	0	57	0	597688320	54	4212
2026-01-03 01:16:44.27	225.19	29.45	-46.3	-47.4	16.2	0.00e+00	0	57	0	607125504	54	4313
2026-01-03 01:16:47.24	224.99	28.91	-45.2	-46.1	17.4	0.00e+00	0	57	0	616562688	53	3933
2026-01-03 01:16:50.21	224.80	28.38	-44.7	-45.5	18.0	0.00e+00	0	57	0	625999872	52	3897
2026-01-03 01:16:53.19	224.61	27.86	-44.5	-45.2	18.3	0.00e+00	0	57	0	635437056	51	3993
2026-01-03 01:16:56.16	224.43	27.35	-44.3	-45.1	18.4	0.00e+00	0	57	0	643825664	51	3945
2026-01-03 01:16:59.13	224.26	26.84	-44.3	-45.1	18.5	0.00e+00	0	57	0	653262848	51	3916
2026-01-03 01:17:02.10	224.09	26.35	-44.6	-45.4	18.2	0.00e+00	0	57	0	662700032	51	4063
2026-01-03 01:17:05.06	223.93	25.87	-45.0	-45.8	17.8	0.00e+00	0	57	0	672137216	51	4286
2026-01-03 01:17:08.03	223.78	25.39	-45.3	-46.2	17.3	0.00e+00	0	57	0	681574400	52	4236
2026-01-03 01:17:10.98	223.63	24.93	-45.3	-46.2	17.3	0.00e+00	0	57	0	691011584	52	4228
2026-01-03 01:17:13.95	223.48	24.47	-45.5	-46.5	17.0	0.00e+00	0	57	0	699400192	52	4355
2026-01-03 01:17:16.92	223.34	24.01	-45.7	-46.7	16.8	0.00e+00	0	57	0	708837376	53	4229
2026-01-03 01:17:19.88	223.20	23.57	-45.8	-46.8	16.7	0.00e+00	0	57	0	718274560	53	4291
2026-01-03 01:17:22.86	223.06	23.13	-45.7	-46.7	16.8	0.00e+00	0	57	0	727711744	53	4204
2026-01-03 01:17:25.82	222.93	22.70	-45.9	-46.9	16.5	0.00e+00	0	57	0	737148928	53	4336
2026-01-03 01:17:28.78	222.81	22.28	-45.2	-46.1	17.3	0.00e+00	0	57	0	746586112	53	3946
2026-01-03 01:17:31.75	222.68	21.86	-45.2	-46.1	17.3	0.00e+00	0	57	0	756023296	53	3941
2026-01-03 01:17:34.73	222.56	21.45	-45.3	-46.3	17.1	0.00e+00	0	57	0	764411904	53	4044
2026-01-03 01:17:37.69	222.45	21.05	-45.4	-46.4	17.1	0.00e+00	0	57	0	773849088	53	4065
2026-01-03 01:17:40.66	222.34	20.65	-45.4	-46.3	17.1	0.00e+00	0	57	0	783286272	53	4047
2026-01-03 01:17:43.64	222.23	20.26	-45.2	-46.1	17.2	0.00e+00	0	57	0	792723456	53	3958
2026-01-03 01:17:46.60	222.12	19.87	-45.2	-46.1	17.3	0.00e+00	0	57	0	802160640	53	3937
2026-01-03 01:17:49.57	222.02	19.49	-45.3	-46.2	17.1	0.00e+00	0	57	0	811597824	53	3989
2026-01-03 01:17:52.55	221.91	19.11	-45.5	-46.5	16.9	0.00e+00	0	57	0	821035008	53	4101
2026-01-03 01:17:55.52	221.82	18.75	-45.6	-46.6	16.8	0.00e+00	0	57	0	829423616	53	4174
2026-01-03 01:17:58.49	221.72	18.38	-45.6	-46.6	16.8	0.00e+00	0	57	0	838860800	53	4165
2026-01-03 01:18:01.46	221.63	18.02	-45.7	-46.8	16.6	0.00e+00	0	57	0	848297984	53	4255
2026-01-03 01:18:04.42	221.54	17.67	-45.9	-47.0	16.3	0.00e+00	0	57	0	857735168	53	4388
2026-01-03 01:18:07.39	221.45	17.32	-45.8	-46.9	16.4	0.00e+00	0	57	0	867172352	54	4086
2026-01-03 01:18:10.36	221.36	16.98	-46.1	-47.2	16.1	0.00e+00	0	57	0	876609536	54	4229
2026-01-03 01:18:13.32	221.28	16.64	-46.4	-47.5	15.8	0.00e+00	0	57	0	884998144	54	4390
2026-01-03 01:18:16.29	221.19	16.31	-46.6	-47.9	15.4	0.00e+00	0	57	0	894435328	55	4301
2026-01-03 01:18:19.25	221.11	15.98	-47.0	-48.3	14.9	0.00e+00	0	57	0	903872512	55	4542
2026-01-03 01:18:22.22	221.04	15.65	-47.4	-48.9	14.5	0.00e+00	0	57	0	913309696	56	4570
2026-01-03 01:18:25.19	220.96	15.33	-47.1	-48.5	14.9	0.00e+00	0	57	0	922746880	56	4345
2026-01-03 01:18:28.15	220.89	15.01	-47.2	-48.7	14.7	0.00e+00	0	57	0	932184064	56	4461
2026-01-03 01:18:31.11	220.81	14.70	-47.2	-48.6	14.7	0.00e+00	0	57	0	940572672	56	4432
2026-01-03 01:18:34.08	220.74	14.39	-47.3	-48.8	14.6	7.00e-07	0	57	0	950009856	56	4495
2026-01-03 01:18:37.05	220.67	14.09	-47.4	-48.9	14.4	7.00e-07	0	57	0	959447040	56	4552
2026-01-03 01:18:40.02	220.60	13.78	-47.2	-48.8	14.5	0.00e+00	0	57	0	968884224	56	4496
2026-01-03 01:18:42.98	220.54	13.49	-47.3	-48.8	14.4	0.00e+00	0	57	0	978321408	56	4542
2026-01-03 01:18:45.95	220.47	13.19	-47.4	-48.9	14.4	0.00e+00	0	57	0	987758592	56	4551
2026-01-03 01:18:48.92	220.41	12.90	-47.5	-49.0	14.2	7.00e-07	0	57	0	997195776	57	4381
2026-01-03 01:18:51.88	220.35	12.61	-47.6	-49.2	13.9	3.80e-06	0	57	0	1005584384	57	4471
2026-01-03 01:18:54.86	220.29	12.33	-47.9	-49.7	13.5	1.06e-05	0	57	0	1015021568	57	4710
2026-01-03 01:18:57.82	220.23	12.05	-47.5	-49.0	14.1	3.00e-06	0	57	0	1024458752	57	4384
2026-01-03 01:19:00.80	220.17	11.77	-47.6	-49.2	13.9	2.20e-06	0	57	0	1033895936	57	4468
2026-01-03 01:19:03.78	220.11	11.49	-47.6	-49.3	13.8	1.50e-06	0	57	0	1043333120	57	4514
2026-01-03 01:19:06.75	220.06	11.22	-47.7	-49.5	13.6	8.30e-06	0	57	0	1052770304	57	4602
2026-01-03 01:19:09.72	220.00	10.95	-48.0	-49.8	13.2	2.21e-05	0	57	0	1062207488	57	4779
2026-01-03 01:19:12.70	219.95	10.69	-48.1	-49.9	13.1	3.43e-05	0	57	0	1070596096	58	4588
2026-01-03 01:19:15.67	219.90	10.42	-47.8	-49.5	13.5	9.90e-06	0	57	0	1080033280	58	4363
2026-01-03 01:19:18.65	219.85	10.16	-47.8	-49.6	13.4	1.06e-05	0	57	0	1089470464	58	4397
2026-01-03 01:19:21.61	219.80	9.90	-47.9	-49.8	13.2	1.75e-05	0	57	0	1098907648	58	4494
2026-01-03 01:19:24.58	219.75	9.65	-48.0	-50.0	13.0	5.03e-05	0	57	0	1108344832	58	4615
2026-01-03 01:19:27.56	219.70	9.40	-48.1	-50.0	13.0	3.05e-05	0	57	0	1117782016	58	4619
2026-01-03 01:19:30.52	219.66	9.15	-48.1	-50.1	12.8	4.95e-05	0	57	0	1127219200	58	4671
2026-01-03 01:19:33.48	219.61	8.90	-48.0	-49.9	13.0	2.74e-05	0	57	0	1135607808	58	4559
2026-01-03 01:19:36.45	219.57	8.65	-48.2	-50.1	12.8	5.34e-05	0	57	0	1145044992	58	4690
2026-01-03 01:19:39.42	219.52	8.41	-48.3	-50.4	12.5	1.37e-04	0	57	0	1154482176	58	4826
2026-01-03 01:19:42.39	219.48	8.17	-48.2	-50.2	12.6	8.46e-05	0	57	0	1163919360	58	4747
2026-01-03 01:19:45.36	219.44	7.93	-48.4	-50.5	12.3	1.68e-04	0	57	0	1173356544	58	4892
2026-01-03 01:19:48.34	219.39	7.70	-48.3	-50.4	12.4	1.54e-04	0	57	0	1182793728	58	4851
2026-01-03 01:19:51.31	219.35	7.46	-48.3	-50.4	12.3	1.55e-04	0	57	0	1191182336	58	4849
2026-01-03 01:19:54.29	219.31	7.23	-48.4	-50.5	12.2	2.10e-04	0	57	0	1200619520	58	4918
2026-01-03 01:19:57.27	219.28	7.00	-48.5	-50.8	11.8	4.61e-04	0	57	0	1210056704	58	5080
2026-01-03 01:20:00.24	219.24	6.77	-48.6	-51.0	11.6	6.56e-04	0	57	0	1219493888	59	4904
2026-01-03 01:20:03.20	219.20	6.55	-48.7	-51.1	11.5	8.77e-04	0	57	0	1228931072	59	4958
2026-01-03 01:20:06.19	219.16	6.32	-48.8	-51.4	11.1	1.67e-03	0	57	0	1238368256	59	5149
2026-01-03 01:20:09.15	219.13	6.10	-48.7	-51.1	11.5	9.87e-04	0	57	0	1247805440	59	4953
2026-01-03 01:20:12.13	219.09	5.88	-48.8	-51.3	11.2	1.44e-03	0	57	0	1257242624	59	5047
2026-01-03 01:20:15.10	219.06	5.66	-48.9	-51.6	10.9	2.27e-03	0	57	0	1265631232	59	5240
2026-01-03 01:20:18.07	219.02	5.44	-49.1	-52.0	10.4	3.42e-03	0	57	0	1275068416	60	5187
2026-01-03 01:20:21.02	218.99	5.23	-49.2	-52.2	10.2	6.46e-03	0	57	0	1284505600	60	5282
2026-01-03 01:20:24.00	218.96	5.02	-51.0	-57.0	5.8	8.56e-02	0	57	0	1293942784	64	7357
2026-01-03 01:20:26.95	218.92	4.81	-52.9	-64.4	3.8	1.49e+00	0	57	104	1293942784	67	14466
2026-01-03 01:20:29.90	218.89	4.60	-53.2	-64.7	3.8	1.49e+00	0	57	104	1293942784	68	14186
2026-01-03 01:20:32.87	218.86	4.39	-53.4	-64.9	3.8	1.49e+00	0	57	104	1293942784	68	14375
2026-01-03 01:20:35.84	218.83	4.18	-53.2	-64.8	3.8	1.49e+00	0	57	104	1293942784	68	14359
2026-01-03 01:20:38.81	218.80	3.98	-53.4	-64.9	3.8	1.49e+00	0	57	104	1293942784	68	14470
2026-01-03 01:20:41.78	218.77	3.77	-53.4	-65.0	3.8	1.49e+00	0	57	104	1293942784	68	14585
2026-01-03 01:20:44.75	218.74	3.57	-53.4	-65.0	3.8	1.49e+00	0	57	104	1293942784	68	14630
2026-01-03 01:20:47.72	218.72	3.37	-53.6	-65.0	3.8	1.49e+00	0	57	104	1293942784	68	14651
2026-01-03 01:20:50.68	218.69	3.17	-53.5	-65.0	3.8	1.49e+00	0	57	104	1293942784	68	14689
2026-01-03 01:20:53.66	218.66	2.98	-53.4	-65.0	3.8	1.49e+00	0	57	104	1293942784	68	14583

#Closed at: 2026-01-03 01:20:54
#Recorded file [1293 MB]: D:/Data/31026_260103_042024.dat