passes_logs/2026/01/03/R3.0SM8_Murmansk_STILSPACE/R3.0SM8_Murmansk_STILSPACE__20260103_045601_SUOMI_NPP_rec.log

#Pass ID: 20260103_045601_SUOMI NPP
#Satellite: SUOMI NPP
#Configuration: NPP
#almurnet v.1.7.20240730
#Start time: 2026-01-03 04:56:04

#Version: 2.2.20231116
#Station: R3.0SM8_Murmansk_STILSPACE
#Location: 33.092731 lon 68.902999 lat
#TLE: 1 37849U 11061A   26001.07732418  .00000182  00000+0  10735-3 0  9990
#TLE: 2 37849  98.7795 303.2470 0002580  87.2016 272.9455 14.19520779734739

#Time	Az	El	Level	Level2	SNR	BER	BlckErr	Temp	State	Recorded	gain1	gain2
2026-01-03 04:56:04.56	56.51	3.16	-52.9	-66.8	3.8	1.49e+00	0	46	0	0	68	18070
2026-01-03 04:56:07.53	56.30	3.33	-52.0	-66.1	3.8	1.49e+00	0	46	104	0	67	17614
2026-01-03 04:56:10.49	56.10	3.50	-51.7	-65.7	3.8	1.49e+00	0	46	104	0	66	17793
2026-01-03 04:56:13.47	55.88	3.68	-51.9	-65.7	3.8	1.49e+00	0	47	104	0	66	17782
2026-01-03 04:56:16.42	55.67	3.85	-51.9	-65.7	3.8	1.49e+00	0	47	104	0	66	17830
2026-01-03 04:56:19.40	55.45	4.03	-51.8	-65.5	3.8	1.49e+00	0	47	104	0	66	17293
2026-01-03 04:56:22.37	55.24	4.21	-51.7	-64.2	3.8	1.49e+00	0	47	104	0	66	15028
2026-01-03 04:56:25.34	55.01	4.38	-51.3	-61.4	4.4	1.30e+00	0	47	0	0	65	11517
2026-01-03 04:56:28.30	54.79	4.56	-51.1	-58.4	6.1	3.72e-01	0	48	0	6291456	65	8163
2026-01-03 04:56:31.27	54.56	4.74	-50.5	-55.9	8.5	5.00e-02	0	48	0	11534336	63	6862
2026-01-03 04:56:34.23	54.33	4.92	-50.1	-54.8	9.6	1.26e-02	0	48	0	16777216	63	6054
2026-01-03 04:56:37.20	54.10	5.10	-50.0	-54.7	9.8	9.84e-03	0	48	0	22020096	63	5953
2026-01-03 04:56:40.17	53.86	5.28	-50.0	-54.4	10.1	7.66e-03	0	48	0	28311552	62	6126
2026-01-03 04:56:43.14	53.62	5.47	-50.1	-54.5	10.1	5.86e-03	0	48	0	33554432	62	6171
2026-01-03 04:56:46.10	53.38	5.65	-49.8	-53.9	10.8	3.66e-03	0	49	0	38797312	62	5762
2026-01-03 04:56:49.08	53.13	5.83	-49.3	-52.9	11.8	6.22e-04	0	49	0	45088768	61	5436
2026-01-03 04:56:52.06	52.88	6.02	-49.4	-53.0	11.7	6.04e-04	0	49	0	50331648	61	5495
2026-01-03 04:56:55.02	52.63	6.21	-49.7	-53.6	11.2	8.54e-04	0	49	0	55574528	61	5865
2026-01-03 04:56:58.00	52.38	6.39	-49.5	-53.4	11.3	1.08e-03	0	50	0	61865984	61	5726
2026-01-03 04:57:00.96	52.12	6.58	-49.5	-53.3	11.4	8.08e-04	0	50	0	67108864	61	5712
2026-01-03 04:57:03.92	51.86	6.77	-49.7	-53.7	11.1	1.55e-03	0	50	0	72351744	61	5965
2026-01-03 04:57:06.90	51.59	6.96	-49.8	-53.8	11.0	1.49e-03	0	50	0	78643200	61	6048
2026-01-03 04:57:09.86	51.32	7.14	-50.0	-54.0	10.8	2.19e-03	0	50	0	83886080	61	6196
2026-01-03 04:57:12.84	51.04	7.34	-49.7	-53.6	11.3	1.33e-03	0	50	0	89128960	61	5893
2026-01-03 04:57:15.80	50.77	7.53	-49.8	-53.6	11.3	1.53e-03	0	50	0	94371840	61	5887
2026-01-03 04:57:18.77	50.49	7.72	-49.6	-53.1	11.9	7.23e-04	0	51	0	100663296	61	5588
2026-01-03 04:57:21.75	50.20	7.91	-49.6	-53.1	12.0	2.84e-04	0	51	0	105906176	61	5534
2026-01-03 04:57:24.72	49.91	8.11	-49.3	-52.7	12.4	1.43e-04	0	51	0	111149056	61	5286
2026-01-03 04:57:27.69	49.62	8.30	-49.5	-52.9	12.2	1.75e-04	0	51	0	117440512	61	5421
2026-01-03 04:57:30.66	49.32	8.49	-49.3	-52.5	12.5	7.70e-05	0	51	0	122683392	61	5189
2026-01-03 04:57:33.63	49.02	8.69	-49.3	-52.5	12.6	1.78e-04	0	51	0	127926272	61	5178
2026-01-03 04:57:36.60	48.71	8.89	-49.3	-52.4	12.7	6.40e-05	0	51	0	134217728	61	5132
2026-01-03 04:57:39.59	48.40	9.09	-49.2	-52.3	12.8	8.31e-05	0	51	0	139460608	61	5094
2026-01-03 04:57:42.55	48.09	9.28	-49.5	-52.8	12.3	1.30e-04	0	52	0	144703488	61	5391
2026-01-03 04:57:45.52	47.77	9.48	-49.5	-53.0	12.2	2.22e-04	0	52	0	150994944	61	5467
2026-01-03 04:57:48.50	47.45	9.68	-49.7	-53.3	11.9	3.11e-04	0	52	0	156237824	61	5689
2026-01-03 04:57:51.46	47.12	9.88	-50.0	-53.7	11.5	5.44e-04	0	52	0	161480704	61	5951
2026-01-03 04:57:54.43	46.79	10.08	-49.6	-53.2	12.0	2.10e-04	0	52	0	167772160	62	5288
2026-01-03 04:57:57.40	46.45	10.28	-49.8	-53.5	11.7	7.24e-04	0	52	0	173015040	62	5470
2026-01-03 04:58:00.37	46.11	10.49	-49.6	-52.9	12.3	2.75e-04	0	52	0	178257920	62	5147
2026-01-03 04:58:03.35	45.76	10.69	-49.8	-53.1	12.1	2.39e-04	0	52	0	183500800	62	5279
2026-01-03 04:58:06.31	45.41	10.89	-49.6	-53.0	12.3	1.67e-04	0	52	0	189792256	62	5163
2026-01-03 04:58:09.28	45.05	11.10	-49.8	-53.1	12.1	3.62e-04	0	52	0	195035136	62	5272
2026-01-03 04:58:12.25	44.69	11.30	-49.5	-52.7	12.5	1.33e-04	0	52	0	200278016	62	5030
2026-01-03 04:58:15.23	44.32	11.51	-49.5	-52.7	12.6	1.04e-04	0	53	0	206569472	61	5304
2026-01-03 04:58:18.18	43.95	11.71	-49.3	-52.2	13.0	4.19e-05	0	53	0	211812352	61	5036
2026-01-03 04:58:21.14	43.58	11.92	-49.0	-51.7	13.6	8.30e-06	0	53	0	217055232	60	5020
2026-01-03 04:58:24.12	43.19	12.12	-48.7	-51.3	14.1	3.00e-06	0	53	0	223346688	60	4762
2026-01-03 04:58:27.08	42.80	12.33	-48.7	-51.3	14.0	4.50e-06	0	53	0	228589568	60	4794
2026-01-03 04:58:30.05	42.41	12.54	-48.7	-51.2	14.1	7.00e-07	0	53	0	233832448	60	4745
2026-01-03 04:58:33.01	42.01	12.75	-48.6	-51.1	14.2	7.00e-07	0	53	0	240123904	60	4693
2026-01-03 04:58:35.97	41.61	12.95	-48.7	-51.2	14.2	1.50e-06	0	53	0	245366784	59	4996
2026-01-03 04:58:38.95	41.19	13.16	-48.7	-51.2	14.2	7.00e-07	0	54	0	250609664	59	4993
2026-01-03 04:58:41.93	40.77	13.37	-48.5	-50.9	14.5	7.00e-07	0	54	0	255852544	59	4822
2026-01-03 04:58:44.91	40.35	13.58	-48.8	-51.4	14.1	7.00e-07	0	54	0	262144000	59	5108
2026-01-03 04:58:47.88	39.92	13.79	-48.7	-51.2	14.1	7.00e-07	0	54	0	267386880	59	5008
2026-01-03 04:58:50.86	39.48	14.00	-48.8	-51.3	14.0	3.80e-06	0	54	0	272629760	59	5100
2026-01-03 04:58:53.84	39.03	14.21	-49.1	-52.0	13.4	9.10e-06	0	54	0	278921216	60	5187
2026-01-03 04:58:56.80	38.59	14.42	-48.9	-51.6	13.7	4.50e-06	0	54	0	284164096	60	4979
2026-01-03 04:58:59.77	38.13	14.63	-48.8	-51.3	14.0	1.50e-06	0	54	0	289406976	60	4809
2026-01-03 04:59:02.74	37.67	14.84	-48.9	-51.6	13.8	4.50e-06	0	54	0	295698432	60	4967
2026-01-03 04:59:05.71	37.20	15.05	-48.8	-51.4	14.0	3.80e-06	0	54	0	300941312	60	4847
2026-01-03 04:59:08.69	36.72	15.26	-49.1	-52.0	13.4	1.06e-05	0	54	0	306184192	60	5192
2026-01-03 04:59:11.65	36.24	15.47	-49.2	-52.1	13.2	2.74e-05	0	54	0	312475648	60	5256
2026-01-03 04:59:14.61	35.75	15.68	-48.8	-51.5	13.8	3.00e-06	0	54	0	317718528	60	4920
2026-01-03 04:59:17.57	35.26	15.89	-49.1	-52.0	13.5	1.37e-05	0	54	0	322961408	60	5173
2026-01-03 04:59:20.54	34.75	16.09	-48.9	-51.5	13.9	3.00e-06	0	54	0	329252864	60	4912
2026-01-03 04:59:23.51	34.24	16.30	-49.3	-52.2	13.2	1.37e-05	0	54	0	334495744	60	5289
2026-01-03 04:59:26.48	33.72	16.51	-49.2	-52.1	13.4	1.37e-05	0	54	0	339738624	60	5219
2026-01-03 04:59:29.45	33.20	16.71	-49.0	-51.8	13.7	6.10e-06	0	54	0	344981504	60	5075
2026-01-03 04:59:32.41	32.67	16.92	-49.2	-52.1	13.3	1.37e-05	0	55	0	351272960	60	5256
2026-01-03 04:59:35.39	32.13	17.12	-49.4	-52.5	12.9	3.20e-05	0	54	0	356515840	60	5509
2026-01-03 04:59:38.36	31.58	17.33	-49.4	-52.4	13.1	3.28e-05	0	55	0	361758720	60	5430
2026-01-03 04:59:41.33	31.02	17.53	-48.8	-51.4	14.1	7.00e-07	0	55	0	368050176	60	4846
2026-01-03 04:59:44.29	30.46	17.73	-48.4	-50.8	14.7	0.00e+00	0	55	0	373293056	59	4767
2026-01-03 04:59:47.26	29.89	17.93	-48.5	-50.9	14.6	7.00e-07	0	55	0	378535936	59	4819
2026-01-03 04:59:50.21	29.32	18.13	-48.3	-50.7	14.8	0.00e+00	0	55	0	384827392	59	4735
2026-01-03 04:59:53.18	28.73	18.33	-48.3	-50.6	14.9	0.00e+00	0	55	0	390070272	59	4667
2026-01-03 04:59:56.16	28.14	18.52	-48.4	-50.7	14.8	0.00e+00	0	55	0	395313152	59	4708
2026-01-03 04:59:59.14	27.53	18.72	-48.0	-50.1	15.4	0.00e+00	0	55	0	401604608	58	4667
2026-01-03 05:00:02.10	26.93	18.91	-48.1	-50.2	15.4	0.00e+00	0	55	0	406847488	58	4725
2026-01-03 05:00:05.07	26.31	19.10	-47.5	-49.4	16.0	0.00e+00	0	55	0	412090368	58	4319
2026-01-03 05:00:08.03	25.69	19.29	-47.5	-49.4	16.1	0.00e+00	0	55	0	417333248	58	4303
2026-01-03 05:00:11.00	25.06	19.47	-47.5	-49.3	16.1	0.00e+00	0	55	0	423624704	57	4528
2026-01-03 05:00:13.98	24.41	19.66	-47.6	-49.5	16.0	0.00e+00	0	55	0	428867584	57	4611
2026-01-03 05:00:16.93	23.77	19.84	-47.5	-49.3	16.1	0.00e+00	0	55	0	434110464	57	4540
2026-01-03 05:00:19.91	23.11	20.01	-47.4	-49.2	16.2	0.00e+00	0	55	0	440401920	57	4474
2026-01-03 05:00:22.88	22.45	20.19	-47.2	-48.9	16.5	0.00e+00	0	55	0	445644800	57	4326
2026-01-03 05:00:25.85	21.78	20.36	-47.2	-49.0	16.5	0.00e+00	0	55	0	450887680	57	4348
2026-01-03 05:00:28.82	21.10	20.53	-47.3	-49.1	16.4	0.00e+00	0	55	0	457179136	57	4421
2026-01-03 05:00:31.77	20.42	20.70	-47.1	-48.8	16.6	0.00e+00	0	55	0	462422016	57	4263
2026-01-03 05:00:34.74	19.73	20.86	-47.1	-48.8	16.7	0.00e+00	0	56	0	467664896	57	4251
2026-01-03 05:00:37.71	19.03	21.02	-47.1	-48.7	16.7	0.00e+00	0	55	0	473956352	56	4485
2026-01-03 05:00:40.68	18.32	21.18	-47.0	-48.7	16.8	0.00e+00	0	56	0	479199232	56	4467
2026-01-03 05:00:43.65	17.60	21.33	-47.0	-48.6	16.9	0.00e+00	0	55	0	484442112	56	4412
2026-01-03 05:00:46.61	16.88	21.48	-47.2	-48.8	16.7	0.00e+00	0	56	0	489684992	56	4527
2026-01-03 05:00:49.57	16.16	21.62	-46.9	-48.5	17.0	0.00e+00	0	56	0	495976448	56	4359
2026-01-03 05:00:52.54	15.42	21.76	-47.3	-48.9	16.5	0.00e+00	0	56	0	501219328	56	4593
2026-01-03 05:00:55.51	14.68	21.90	-47.7	-49.6	15.9	0.00e+00	0	56	0	506462208	57	4682
2026-01-03 05:00:58.47	13.93	22.03	-47.6	-49.5	16.0	0.00e+00	0	56	0	512753664	57	4622
2026-01-03 05:01:01.45	13.17	22.16	-47.6	-49.5	16.1	0.00e+00	0	56	0	517996544	57	4603
2026-01-03 05:01:04.42	12.41	22.28	-47.0	-48.6	16.9	0.00e+00	0	56	0	523239424	57	4166
2026-01-03 05:01:07.39	11.64	22.40	-47.0	-48.7	16.8	0.00e+00	0	56	0	529530880	57	4198
2026-01-03 05:01:10.36	10.87	22.51	-46.9	-48.4	17.0	0.00e+00	0	56	0	534773760	56	4336
2026-01-03 05:01:13.33	10.09	22.62	-47.7	-49.5	15.8	0.00e+00	0	56	0	540016640	57	4642
2026-01-03 05:01:16.30	9.31	22.72	-48.3	-50.7	14.6	0.00e+00	0	56	0	545259520	58	4997
2026-01-03 05:01:19.27	8.52	22.81	-48.9	-51.8	13.2	2.67e-05	0	56	0	551550976	59	5375
2026-01-03 05:01:22.23	7.73	22.90	-49.4	-53.1	11.6	3.81e-04	0	56	0	556793856	60	5899
2026-01-03 05:01:25.19	6.93	22.99	-50.2	-56.0	8.0	4.45e-02	0	56	0	562036736	62	7328
2026-01-03 05:01:28.16	6.13	23.07	-50.4	-57.7	6.2	2.57e-01	0	56	0	568328192	62	8866
2026-01-03 05:01:31.13	5.32	23.14	-50.0	-55.8	8.0	8.94e-02	0	56	0	573571072	62	7162
2026-01-03 05:01:34.11	4.51	23.21	-50.3	-57.0	7.0	1.21e-01	0	56	0	578813952	62	8185
2026-01-03 05:01:37.07	3.70	23.27	-50.7	-58.0	6.3	2.27e-01	0	56	0	585105408	63	8734
2026-01-03 05:01:40.03	2.88	23.33	-50.1	-54.6	10.1	1.44e-02	0	56	0	590348288	63	5857
2026-01-03 05:01:43.00	2.06	23.37	-50.0	-53.5	11.9	3.91e-04	0	56	0	595591168	62	5507
2026-01-03 05:01:45.97	1.24	23.42	-48.9	-51.5	14.0	2.20e-06	0	56	0	601882624	60	4877
2026-01-03 05:01:48.93	0.42	23.45	-49.1	-52.0	13.5	9.10e-06	0	56	0	607125504	60	5185
2026-01-03 05:01:51.89	359.60	23.48	-49.0	-51.8	13.7	8.30e-06	0	56	0	612368384	60	5063
2026-01-03 05:01:54.87	358.77	23.51	-49.1	-52.1	13.4	3.00e-06	0	56	0	618659840	60	5224
2026-01-03 05:01:57.83	357.94	23.52	-49.1	-51.9	13.5	2.59e-05	0	56	0	623902720	60	5137
2026-01-03 05:02:00.81	357.11	23.54	-47.8	-49.7	15.8	0.00e+00	0	56	0	629145600	58	4460
2026-01-03 05:02:03.77	356.28	23.54	-48.2	-50.5	15.1	0.00e+00	0	56	0	634388480	58	4872
2026-01-03 05:02:06.73	355.46	23.54	-48.3	-50.7	14.8	0.00e+00	0	56	0	640679936	59	4708
2026-01-03 05:02:09.70	354.63	23.53	-47.9	-50.0	15.5	0.00e+00	0	56	0	645922816	58	4628
2026-01-03 05:02:12.67	353.80	23.51	-48.1	-50.3	15.2	0.00e+00	0	56	0	651165696	58	4802
2026-01-03 05:02:15.64	352.97	23.49	-47.7	-49.7	15.8	0.00e+00	0	56	0	657457152	58	4451
2026-01-03 05:02:18.61	352.14	23.46	-47.4	-49.2	16.2	0.00e+00	0	56	0	662700032	57	4460
2026-01-03 05:02:21.57	351.32	23.43	-47.2	-48.9	16.5	0.00e+00	0	56	0	667942912	57	4339
2026-01-03 05:02:24.52	350.51	23.39	-47.9	-50.0	15.5	0.00e+00	0	56	0	674234368	57	4873
2026-01-03 05:02:27.48	349.69	23.34	-47.2	-48.8	16.6	0.00e+00	0	56	0	679477248	57	4284
2026-01-03 05:02:30.43	348.88	23.29	-47.0	-48.6	16.8	0.00e+00	0	56	0	684720128	57	4170
2026-01-03 05:02:33.39	348.06	23.23	-47.0	-48.6	16.8	0.00e+00	0	56	0	689963008	57	4163
2026-01-03 05:02:36.36	347.25	23.16	-46.7	-48.3	17.2	0.00e+00	0	56	0	696254464	56	4245
2026-01-03 05:02:39.33	346.44	23.09	-46.8	-48.3	17.1	0.00e+00	0	57	0	701497344	56	4284
2026-01-03 05:02:42.30	345.64	23.02	-47.2	-48.8	16.7	0.00e+00	0	57	0	706740224	56	4517
2026-01-03 05:02:45.28	344.84	22.93	-47.4	-49.1	16.3	0.00e+00	0	57	0	713031680	56	4702
2026-01-03 05:02:48.24	344.04	22.84	-47.3	-49.0	16.5	0.00e+00	0	57	0	718274560	57	4345
2026-01-03 05:02:51.21	343.25	22.75	-46.8	-48.2	17.1	0.00e+00	0	57	0	723517440	56	4239
2026-01-03 05:02:54.17	342.47	22.65	-47.5	-49.2	16.2	0.00e+00	0	57	0	729808896	56	4750
2026-01-03 05:02:57.15	341.69	22.54	-47.5	-49.3	16.1	0.00e+00	0	57	0	735051776	57	4539
2026-01-03 05:03:00.11	340.91	22.43	-47.4	-49.2	16.3	0.00e+00	0	57	0	740294656	57	4445
2026-01-03 05:03:03.08	340.14	22.32	-47.4	-49.2	16.2	0.00e+00	0	57	0	745537536	57	4476
2026-01-03 05:03:06.05	339.38	22.20	-48.0	-50.1	15.3	0.00e+00	0	57	0	751828992	57	4941
2026-01-03 05:03:09.02	338.62	22.07	-48.1	-50.2	15.1	0.00e+00	0	57	0	757071872	58	4758
2026-01-03 05:03:11.99	337.87	21.94	-48.5	-51.0	14.3	1.50e-06	0	57	0	762314752	58	5180
2026-01-03 05:03:14.96	337.13	21.81	-49.0	-51.8	13.3	1.22e-05	0	57	0	768606208	59	5369
2026-01-03 05:03:17.92	336.39	21.67	-49.1	-52.2	12.8	5.03e-05	0	57	0	773849088	60	5300
2026-01-03 05:03:20.90	335.66	21.53	-49.4	-52.8	12.1	1.83e-04	0	57	0	779091968	60	5702
2026-01-03 05:03:23.88	334.93	21.38	-49.3	-52.6	12.3	1.62e-04	0	57	0	785383424	60	5577
2026-01-03 05:03:26.84	334.21	21.23	-49.7	-53.4	11.4	6.09e-04	0	57	0	790626304	61	5756
2026-01-03 05:03:29.79	333.51	21.07	-48.5	-51.1	14.2	1.75e-05	0	57	0	795869184	60	4672
2026-01-03 05:03:32.75	332.81	20.92	-48.6	-50.9	14.6	0.00e+00	0	57	0	801112064	59	4865
2026-01-03 05:03:35.72	332.11	20.75	-48.5	-50.9	14.7	3.80e-06	0	57	0	807403520	60	4548
2026-01-03 05:03:38.69	331.42	20.59	-48.9	-51.4	14.1	7.00e-07	0	57	0	812646400	60	4865
2026-01-03 05:03:41.67	330.74	20.42	-49.1	-51.9	13.6	9.10e-06	0	57	0	817889280	60	5148
2026-01-03 05:03:44.64	330.07	20.25	-50.0	-53.8	11.7	1.79e-04	0	57	0	824180736	61	5993
2026-01-03 05:03:47.61	329.40	20.07	-49.3	-52.3	13.2	5.11e-05	0	57	0	829423616	61	5058
2026-01-03 05:03:50.57	328.74	19.90	-48.8	-51.4	14.1	4.50e-06	0	57	0	834666496	60	4862
2026-01-03 05:03:53.55	328.09	19.72	-48.5	-50.9	14.6	7.00e-07	0	57	0	840957952	60	4569
2026-01-03 05:03:56.52	327.45	19.53	-47.8	-49.8	15.7	0.00e+00	0	57	0	846200832	58	4543
2026-01-03 05:03:59.50	326.81	19.35	-47.5	-49.3	16.1	0.00e+00	0	57	0	851443712	58	4263
2026-01-03 05:04:02.47	326.18	19.16	-47.4	-49.2	16.3	0.00e+00	0	57	0	857735168	57	4475
2026-01-03 05:04:05.44	325.57	18.97	-46.8	-48.4	17.0	0.00e+00	0	57	0	862978048	56	4320
2026-01-03 05:04:08.41	324.95	18.78	-47.3	-49.2	16.3	0.00e+00	0	57	0	868220928	56	4713
2026-01-03 05:04:11.38	324.35	18.59	-48.4	-50.8	14.8	0.00e+00	0	57	0	874512384	58	5049
2026-01-03 05:04:14.34	323.76	18.39	-48.6	-51.1	14.4	7.00e-07	0	57	0	879755264	59	4956
2026-01-03 05:04:17.30	323.17	18.19	-48.3	-50.6	14.9	7.00e-07	0	57	0	884998144	59	4670
2026-01-03 05:04:20.27	322.59	18.00	-48.1	-50.2	15.3	0.00e+00	0	57	0	891289600	59	4449
2026-01-03 05:04:23.24	322.02	17.80	-47.7	-49.6	15.8	0.00e+00	0	57	0	896532480	58	4438
2026-01-03 05:04:26.21	321.45	17.60	-48.1	-50.2	15.4	0.00e+00	0	57	0	901775360	58	4721
2026-01-03 05:04:29.17	320.90	17.39	-48.5	-50.8	14.7	0.00e+00	0	57	0	907018240	58	5072
2026-01-03 05:04:32.13	320.35	17.19	-49.0	-51.6	13.8	6.80e-06	0	57	0	913309696	60	4976
2026-01-03 05:04:35.09	319.81	16.99	-48.3	-50.6	14.9	0.00e+00	0	57	0	918552576	59	4666
2026-01-03 05:04:38.06	319.27	16.78	-48.6	-51.0	14.5	7.00e-07	0	57	0	923795456	59	4891
2026-01-03 05:04:41.04	318.74	16.58	-48.6	-51.1	14.4	0.00e+00	0	57	0	930086912	59	4936
2026-01-03 05:04:44.01	318.22	16.37	-48.3	-50.6	14.9	0.00e+00	0	57	0	935329792	59	4686
2026-01-03 05:04:46.97	317.71	16.16	-48.1	-50.3	15.2	0.00e+00	0	57	0	940572672	59	4500
2026-01-03 05:04:49.94	317.20	15.96	-47.7	-49.6	15.9	0.00e+00	0	57	0	946864128	58	4405
2026-01-03 05:04:52.92	316.70	15.75	-48.1	-50.1	15.3	0.00e+00	0	57	0	952107008	58	4695
2026-01-03 05:04:55.88	316.21	15.54	-47.6	-49.5	16.0	0.00e+00	0	57	0	957349888	58	4359
2026-01-03 05:04:58.87	315.72	15.33	-47.5	-49.2	16.2	0.00e+00	0	57	0	963641344	57	4473
2026-01-03 05:05:01.82	315.25	15.12	-47.5	-49.2	16.2	0.00e+00	0	57	0	968884224	57	4481
2026-01-03 05:05:04.79	314.78	14.91	-47.7	-49.5	16.0	0.00e+00	0	57	0	974127104	57	4632
2026-01-03 05:05:07.76	314.31	14.70	-48.1	-50.1	15.4	0.00e+00	0	57	0	979369984	58	4678
2026-01-03 05:05:10.73	313.85	14.49	-48.1	-50.1	15.3	0.00e+00	0	57	0	985661440	58	4702
2026-01-03 05:05:13.69	313.40	14.28	-47.6	-49.5	16.0	0.00e+00	0	57	0	990904320	58	4348
2026-01-03 05:05:16.68	312.96	14.07	-47.7	-49.5	15.9	0.00e+00	0	57	0	996147200	58	4356
2026-01-03 05:05:19.64	312.52	13.86	-47.7	-49.6	15.9	0.00e+00	0	57	0	1002438656	58	4412
2026-01-03 05:05:22.61	312.09	13.65	-48.0	-50.0	15.4	0.00e+00	0	57	0	1007681536	58	4648
2026-01-03 05:05:25.58	311.66	13.44	-48.2	-50.3	15.1	0.00e+00	0	57	0	1012924416	59	4539
2026-01-03 05:05:28.55	311.24	13.23	-47.9	-49.9	15.5	0.00e+00	0	57	0	1019215872	58	4569
2026-01-03 05:05:31.51	310.83	13.03	-47.6	-49.5	15.9	0.00e+00	0	57	0	1024458752	58	4384
2026-01-03 05:05:34.48	310.42	12.82	-47.4	-49.2	16.2	0.00e+00	0	57	0	1029701632	57	4466
2026-01-03 05:05:37.45	310.02	12.61	-47.1	-48.7	16.6	0.00e+00	0	57	0	1034944512	56	4482
2026-01-03 05:05:40.43	309.62	12.40	-47.6	-49.6	15.8	0.00e+00	0	57	0	1041235968	57	4653
2026-01-03 05:05:43.39	309.23	12.19	-48.3	-50.5	14.9	0.00e+00	0	57	0	1046478848	58	4897
2026-01-03 05:05:46.37	308.84	11.99	-48.5	-50.8	14.6	0.00e+00	0	57	0	1051721728	59	4798
2026-01-03 05:05:49.34	308.46	11.78	-48.5	-50.7	14.7	0.00e+00	0	58	0	1058013184	59	4753
2026-01-03 05:05:52.29	308.09	11.57	-47.8	-49.8	15.6	0.00e+00	0	57	0	1063256064	58	4500
2026-01-03 05:05:55.27	307.72	11.37	-48.1	-50.2	15.2	0.00e+00	0	57	0	1068498944	58	4723
2026-01-03 05:05:58.24	307.36	11.16	-48.2	-50.4	14.9	1.50e-06	0	57	0	1074790400	58	4835
2026-01-03 05:06:01.20	307.00	10.96	-48.2	-50.4	15.0	7.00e-07	0	57	0	1080033280	58	4816
2026-01-03 05:06:04.17	306.65	10.76	-48.5	-50.8	14.5	7.00e-07	0	57	0	1085276160	58	5098
2026-01-03 05:06:07.14	306.30	10.55	-48.8	-51.3	14.0	3.00e-06	0	57	0	1091567616	59	5073
2026-01-03 05:06:10.12	305.95	10.35	-49.0	-51.6	13.7	3.00e-06	0	57	0	1096810496	59	5260
2026-01-03 05:06:13.09	305.61	10.15	-49.3	-52.2	13.0	3.20e-05	0	57	0	1102053376	60	5322
2026-01-03 05:06:16.06	305.28	9.95	-49.2	-52.2	13.0	3.05e-05	0	58	0	1108344832	60	5331
2026-01-03 05:06:19.03	304.95	9.75	-49.8	-53.4	11.7	3.68e-04	0	57	0	1113587712	61	5761
2026-01-03 05:06:22.00	304.62	9.55	-49.5	-52.8	12.4	1.81e-04	0	57	0	1118830592	61	5341
2026-01-03 05:06:24.97	304.30	9.35	-49.2	-52.3	12.9	8.92e-05	0	57	0	1124073472	61	5047
2026-01-03 05:06:27.95	303.99	9.15	-48.8	-51.5	13.5	4.50e-06	0	57	0	1130364928	60	4920
2026-01-03 05:06:30.91	303.68	8.95	-48.7	-51.4	13.5	6.10e-06	0	57	0	1135607808	60	4843
2026-01-03 05:06:33.89	303.37	8.75	-48.7	-51.4	13.5	1.22e-05	0	57	0	1140850688	59	5153
2026-01-03 05:06:36.86	303.07	8.56	-48.9	-51.8	13.0	3.58e-05	0	58	0	1147142144	59	5378
2026-01-03 05:06:39.83	302.77	8.36	-49.1	-52.2	12.5	1.16e-04	0	58	0	1152385024	60	5324
2026-01-03 05:06:42.80	302.47	8.17	-49.2	-52.6	12.0	2.30e-04	0	57	0	1157627904	60	5575
2026-01-03 05:06:45.77	302.18	7.97	-49.2	-52.7	11.7	5.71e-04	0	57	0	1163919360	60	5638
2026-01-03 05:06:48.75	301.90	7.78	-49.0	-52.6	11.6	5.19e-04	0	57	0	1169162240	60	5558
2026-01-03 05:06:51.72	301.61	7.59	-49.2	-53.2	10.9	1.89e-03	0	57	0	1174405120	60	5954
2026-01-03 05:06:54.70	301.33	7.40	-49.3	-53.7	10.2	6.02e-03	0	57	0	1180696576	60	6311
2026-01-03 05:06:57.66	301.06	7.21	-49.5	-54.4	9.3	1.41e-02	0	58	0	1185939456	60	6812
2026-01-03 05:07:00.64	300.79	7.02	-49.6	-55.1	8.4	4.43e-02	0	58	0	1191182336	61	7019
2026-01-03 05:07:03.60	300.52	6.83	-49.8	-56.1	7.4	1.14e-01	0	57	0	1197473792	61	7810
2026-01-03 05:07:06.57	300.26	6.64	-49.8	-56.9	6.4	2.42e-01	0	57	0	1202716672	61	8654
2026-01-03 05:07:09.54	299.99	6.45	-49.9	-57.6	5.7	3.90e-01	0	58	0	1207959552	61	9283
2026-01-03 05:07:12.51	299.74	6.26	-49.8	-58.5	5.1	5.99e-01	0	58	0	1214251008	61	10400
2026-01-03 05:07:15.50	299.48	6.08	-49.7	-58.8	4.8	7.57e-01	0	58	0	1219493888	61	10703
2026-01-03 05:07:18.47	299.23	5.89	-49.7	-59.7	4.4	1.23e+00	0	57	0	1224736768	61	11894
2026-01-03 05:07:21.44	298.98	5.71	-49.6	-60.5	4.1	1.42e+00	0	57	0	1226833920	61	12998
2026-01-03 05:07:24.40	298.74	5.52	-49.6	-61.0	3.8	1.48e+00	0	58	104	1226833920	61	13795
2026-01-03 05:07:27.37	298.50	5.34	-49.6	-62.0	3.8	1.49e+00	0	57	104	1226833920	61	15464
2026-01-03 05:07:30.34	298.26	5.16	-49.4	-62.7	3.8	1.49e+00	0	58	104	1226833920	61	16805
2026-01-03 05:07:33.30	298.03	4.98	-51.9	-65.8	3.8	1.49e+00	0	57	104	1226833920	65	18955
2026-01-03 05:07:36.28	297.80	4.80	-50.9	-64.8	3.8	1.49e+00	0	57	104	1226833920	65	17058
2026-01-03 05:07:39.24	297.57	4.62	-52.8	-66.7	3.8	1.49e+00	0	57	104	1226833920	67	18812
2026-01-03 05:07:42.21	297.34	4.44	-53.0	-66.8	3.8	1.49e+00	0	57	104	1226833920	67	19107
2026-01-03 05:07:45.17	297.12	4.26	-53.0	-66.9	3.8	1.49e+00	0	58	104	1226833920	67	19288
2026-01-03 05:07:48.15	296.90	4.08	-53.1	-67.1	3.8	1.49e+00	0	58	104	1226833920	68	18565
2026-01-03 05:07:51.12	296.68	3.91	-53.2	-67.1	3.8	1.49e+00	0	58	104	1226833920	68	18592
2026-01-03 05:07:54.10	296.47	3.73	-53.3	-67.1	3.8	1.49e+00	0	58	104	1226833920	68	18717
2026-01-03 05:07:57.07	296.26	3.56	-53.3	-67.2	3.8	1.49e+00	0	58	104	1226833920	68	18740
2026-01-03 05:08:00.03	296.05	3.38	-53.2	-67.1	3.8	1.49e+00	0	58	104	1226833920	68	18693
2026-01-03 05:08:03.01	295.84	3.21	-53.3	-67.1	3.8	1.49e+00	0	58	104	1226833920	68	18717
2026-01-03 05:08:05.98	295.64	3.04	-53.2	-67.1	3.8	1.49e+00	0	57	104	1226833920	68	18683

#Closed at: 2026-01-03 05:08:06
#Recorded file [1226 MB]: D:/Data/31026_260103_080724.dat