passes_logs/2026/01/03/R3.0SM8_Murmansk_STILSPACE/R3.0SM8_Murmansk_STILSPACE__20260103_235807_NOAA_20_JPSS-1_rec.log

#Pass ID: 20260103_235807_NOAA 20 (JPSS-1)
#Satellite: NOAA 20 (JPSS-1)
#Configuration: NOAA 20
#almurnet v.1.7.20240730
#Start time: 2026-01-03 23:58:08

#Version: 2.2.20231116
#Station: R3.0SM8_Murmansk_STILSPACE
#Location: 33.092731 lon 68.902999 lat
#TLE: 1 43013U 17073A   26003.41800368  .00000169  00000+0  10117-3 0  9998
#TLE: 2 43013  98.7624 304.4804 0001884  56.1176 304.0179 14.19532918421092

#Time	Az	El	Level	Level2	SNR	BER	BlckErr	Temp	State	Recorded	gain1	gain2
2026-01-03 23:58:08.87	22.52	3.07	-52.2	-66.2	3.8	1.49e+00	0	47	0	0	66	18915
2026-01-03 23:58:12.82	22.61	3.33	-51.8	-65.6	3.8	1.49e+00	0	48	104	0	66	17611
2026-01-03 23:58:16.79	22.71	3.59	-50.2	-57.4	6.2	2.67e-01	0	48	0	4194304	63	8159
2026-01-03 23:58:20.74	22.82	3.85	-50.3	-58.1	5.7	4.00e-01	0	48	0	11534336	63	8828
2026-01-03 23:58:24.70	22.92	4.12	-50.1	-57.4	6.2	3.45e-01	0	48	0	18874368	63	8097
2026-01-03 23:58:28.65	23.03	4.39	-49.7	-55.7	7.7	9.97e-02	0	49	0	26214400	62	7084
2026-01-03 23:58:32.59	23.13	4.66	-50.0	-56.5	7.0	1.44e-01	0	49	0	33554432	62	7766
2026-01-03 23:58:36.55	23.24	4.93	-50.3	-58.2	5.6	4.45e-01	0	49	0	40894464	62	9496
2026-01-03 23:58:40.52	23.35	5.21	-50.0	-56.5	7.0	1.50e-01	0	49	0	48234496	62	7767
2026-01-03 23:58:44.47	23.46	5.49	-49.8	-55.2	8.4	6.00e-02	0	50	0	55574528	62	6670
2026-01-03 23:58:48.43	23.58	5.78	-49.3	-53.6	10.4	5.37e-03	0	50	0	62914560	61	5865
2026-01-03 23:58:52.38	23.69	6.06	-49.0	-52.8	11.3	2.06e-03	0	50	0	71303168	61	5359
2026-01-03 23:58:56.33	23.81	6.35	-48.5	-51.5	12.8	6.94e-05	0	50	0	78643200	60	4876
2026-01-03 23:59:00.31	23.93	6.64	-48.7	-51.8	12.5	9.61e-05	0	50	0	85983232	59	5387
2026-01-03 23:59:04.25	24.05	6.94	-48.2	-50.9	13.6	9.10e-06	0	51	0	93323264	59	4844
2026-01-03 23:59:08.21	24.17	7.24	-48.2	-50.8	13.8	7.60e-06	0	51	0	100663296	59	4774
2026-01-03 23:59:12.15	24.30	7.54	-48.2	-50.7	13.9	2.20e-06	0	51	0	108003328	59	4748
2026-01-03 23:59:16.11	24.43	7.85	-48.2	-50.7	13.9	3.80e-06	0	51	0	115343360	59	4723
2026-01-03 23:59:20.06	24.56	8.16	-48.2	-50.8	13.8	2.20e-06	0	51	0	122683392	59	4773
2026-01-03 23:59:24.03	24.69	8.47	-48.2	-50.7	14.0	1.50e-06	0	52	0	130023424	59	4723
2026-01-03 23:59:27.98	24.83	8.79	-48.1	-50.5	14.2	0.00e+00	0	52	0	137363456	59	4614
2026-01-03 23:59:31.92	24.96	9.11	-48.3	-50.9	13.8	3.00e-06	0	51	0	144703488	59	4821
2026-01-03 23:59:35.87	25.11	9.43	-48.3	-50.8	13.9	4.50e-06	0	52	0	152043520	59	4800
2026-01-03 23:59:39.83	25.25	9.76	-48.2	-50.8	14.0	1.50e-06	0	52	0	159383552	59	4772
2026-01-03 23:59:43.80	25.40	10.10	-47.8	-50.0	14.8	0.00e+00	0	52	0	166723584	58	4647
2026-01-03 23:59:47.76	25.55	10.44	-47.9	-50.2	14.7	0.00e+00	0	52	0	174063616	58	4709
2026-01-03 23:59:51.73	25.70	10.78	-47.9	-50.1	14.8	7.00e-07	0	52	0	182452224	58	4655
2026-01-03 23:59:55.70	25.85	11.13	-47.7	-49.9	15.0	0.00e+00	0	52	0	189792256	58	4548
2026-01-03 23:59:59.66	26.01	11.48	-47.8	-49.9	14.9	0.00e+00	0	53	0	197132288	58	4583
2026-01-04 00:00:03.62	26.18	11.84	-47.8	-49.9	15.0	0.00e+00	0	53	0	204472320	58	4547
2026-01-04 00:00:07.57	26.34	12.20	-47.7	-49.8	15.1	7.00e-07	0	53	0	211812352	58	4505
2026-01-04 00:00:11.53	26.51	12.57	-48.0	-50.2	14.7	0.00e+00	0	53	0	219152384	58	4749
2026-01-04 00:00:15.47	26.69	12.94	-47.6	-49.6	15.3	0.00e+00	0	53	0	226492416	58	4431
2026-01-04 00:00:19.42	26.86	13.32	-47.7	-49.8	15.2	0.00e+00	0	53	0	233832448	58	4500
2026-01-04 00:00:23.36	27.04	13.71	-47.6	-49.6	15.4	0.00e+00	0	53	0	241172480	58	4396
2026-01-04 00:00:27.31	27.23	14.10	-47.7	-49.7	15.3	0.00e+00	0	53	0	248512512	58	4468
2026-01-04 00:00:31.26	27.42	14.49	-47.9	-50.0	15.0	0.00e+00	0	54	0	255852544	58	4616
2026-01-04 00:00:35.23	27.62	14.90	-47.8	-49.9	15.1	0.00e+00	0	54	0	263192576	58	4591
2026-01-04 00:00:39.19	27.82	15.31	-47.6	-49.6	15.4	0.00e+00	0	53	0	270532608	58	4423
2026-01-04 00:00:43.15	28.02	15.72	-47.6	-49.6	15.5	0.00e+00	0	54	0	278921216	58	4401
2026-01-04 00:00:47.12	28.23	16.15	-47.6	-49.5	15.5	0.00e+00	0	54	0	286261248	58	4373
2026-01-04 00:00:51.08	28.45	16.58	-47.5	-49.5	15.6	0.00e+00	0	54	0	293601280	58	4369
2026-01-04 00:00:55.02	28.67	17.02	-47.8	-49.9	15.2	0.00e+00	0	54	0	300941312	58	4578
2026-01-04 00:00:58.98	28.90	17.46	-47.8	-49.8	15.3	0.00e+00	0	54	0	308281344	58	4513
2026-01-04 00:01:02.94	29.14	17.92	-47.8	-49.8	15.3	0.00e+00	0	54	0	315621376	58	4534
2026-01-04 00:01:06.90	29.38	18.38	-47.5	-49.4	15.7	0.00e+00	0	54	0	322961408	58	4331
2026-01-04 00:01:10.86	29.63	18.85	-47.6	-49.6	15.6	0.00e+00	0	54	0	330301440	58	4396
2026-01-04 00:01:14.82	29.88	19.33	-47.4	-49.2	16.0	0.00e+00	0	54	0	337641472	57	4483
2026-01-04 00:01:18.79	30.14	19.82	-47.3	-49.0	16.1	0.00e+00	0	54	0	344981504	57	4391
2026-01-04 00:01:22.74	30.42	20.31	-47.0	-48.7	16.5	0.00e+00	0	54	0	352321536	57	4228
2026-01-04 00:01:26.71	30.70	20.82	-46.9	-48.5	16.7	0.00e+00	0	55	0	359661568	57	4142
2026-01-04 00:01:30.65	30.98	21.34	-47.0	-48.7	16.5	0.00e+00	0	55	0	367001600	56	4475
2026-01-04 00:01:34.62	31.28	21.87	-46.4	-47.9	17.3	0.00e+00	0	54	0	375390208	56	4080
2026-01-04 00:01:38.60	31.59	22.41	-46.4	-47.9	17.2	0.00e+00	0	55	0	382730240	55	4322
2026-01-04 00:01:42.55	31.91	22.95	-46.2	-47.6	17.5	0.00e+00	0	55	0	390070272	55	4161
2026-01-04 00:01:46.51	32.24	23.51	-46.0	-47.4	17.6	0.00e+00	0	55	0	397410304	55	4097
2026-01-04 00:01:50.47	32.58	24.08	-46.1	-47.4	17.7	0.00e+00	0	55	0	404750336	55	4096
2026-01-04 00:01:54.41	32.93	24.66	-46.1	-47.5	17.6	0.00e+00	0	55	0	412090368	55	4143
2026-01-04 00:01:58.37	33.29	25.26	-46.4	-47.8	17.3	0.00e+00	0	55	0	419430400	55	4291
2026-01-04 00:02:02.34	33.67	25.86	-46.4	-47.9	17.2	0.00e+00	0	55	0	426770432	55	4325
2026-01-04 00:02:06.29	34.06	26.48	-46.2	-47.6	17.5	0.00e+00	0	55	0	434110464	55	4177
2026-01-04 00:02:10.25	34.47	27.12	-46.4	-47.9	17.3	0.00e+00	0	55	0	441450496	55	4302
2026-01-04 00:02:14.21	34.90	27.76	-46.5	-48.0	17.1	0.00e+00	0	55	0	448790528	55	4385
2026-01-04 00:02:18.16	35.33	28.42	-47.0	-48.7	16.5	0.00e+00	0	55	0	456130560	55	4743
2026-01-04 00:02:22.11	35.79	29.09	-47.9	-49.9	15.3	0.00e+00	0	55	0	464519168	57	4862
2026-01-04 00:02:26.07	36.27	29.78	-48.4	-50.6	14.7	0.00e+00	0	55	0	471859200	58	4970
2026-01-04 00:02:30.00	36.76	30.48	-48.8	-51.3	14.0	1.50e-06	0	55	0	479199232	59	5055
2026-01-04 00:02:33.97	37.28	31.20	-49.4	-52.5	12.8	4.88e-05	0	55	0	486539264	60	5472
2026-01-04 00:02:37.91	37.82	31.93	-49.6	-52.7	12.6	1.15e-04	0	55	0	493879296	61	5299
2026-01-04 00:02:41.86	38.39	32.68	-49.7	-52.9	12.4	1.62e-04	0	55	0	501219328	61	5413
2026-01-04 00:02:45.80	38.98	33.45	-49.7	-53.0	12.2	4.31e-04	0	55	0	508559360	61	5514
2026-01-04 00:02:49.77	39.60	34.23	-49.9	-53.3	12.0	2.60e-04	0	56	0	515899392	61	5661
2026-01-04 00:02:53.74	40.25	35.03	-49.6	-53.1	12.2	2.53e-04	0	55	0	523239424	61	5554
2026-01-04 00:02:57.71	40.94	35.85	-49.4	-52.3	13.0	4.34e-05	0	56	0	530579456	61	5097
2026-01-04 00:03:01.66	41.65	36.68	-48.7	-51.2	14.2	1.50e-06	0	56	0	537919488	60	4709
2026-01-04 00:03:05.62	42.41	37.53	-48.3	-50.5	14.9	0.00e+00	0	56	0	545259520	59	4621
2026-01-04 00:03:09.58	43.20	38.40	-48.0	-50.0	15.4	0.00e+00	0	56	0	552599552	59	4356
2026-01-04 00:03:13.55	44.04	39.28	-48.5	-50.7	14.7	0.00e+00	0	55	0	560988160	59	4736
2026-01-04 00:03:17.52	44.93	40.19	-47.7	-49.7	15.8	0.00e+00	0	56	0	568328192	58	4451
2026-01-04 00:03:21.48	45.86	41.10	-47.6	-49.4	16.0	0.00e+00	0	56	0	575668224	58	4314
2026-01-04 00:03:25.45	46.85	42.03	-48.3	-50.5	15.0	0.00e+00	0	56	0	583008256	58	4887
2026-01-04 00:03:29.38	47.89	42.97	-47.8	-49.7	15.8	0.00e+00	0	56	0	590348288	58	4457
2026-01-04 00:03:33.32	48.99	43.92	-48.3	-50.5	15.0	0.00e+00	0	56	0	597688320	58	4872
2026-01-04 00:03:37.26	50.16	44.88	-48.8	-51.1	14.3	7.00e-07	0	56	0	605028352	59	4953
2026-01-04 00:03:41.22	51.41	45.86	-48.8	-51.2	14.3	1.50e-06	0	56	0	612368384	59	5009
2026-01-04 00:03:45.18	52.73	46.85	-49.7	-52.8	12.5	6.79e-05	0	56	0	619708416	61	5369
2026-01-04 00:03:49.13	54.14	47.84	-49.2	-51.8	13.5	3.00e-06	0	56	0	627048448	60	5095
2026-01-04 00:03:53.10	55.65	48.84	-49.9	-53.2	12.1	3.13e-04	0	56	0	634388480	61	5640
2026-01-04 00:03:57.05	57.25	49.83	-49.1	-51.7	13.7	1.14e-05	0	56	0	641728512	61	4717
2026-01-04 00:04:01.01	58.96	50.83	-48.7	-51.1	14.3	3.80e-06	0	56	0	649068544	60	4688
2026-01-04 00:04:04.97	60.79	51.82	-48.5	-50.6	14.8	0.00e+00	0	56	0	656408576	59	4699
2026-01-04 00:04:08.93	62.74	52.79	-47.9	-49.8	15.7	0.00e+00	0	56	0	664797184	58	4522
2026-01-04 00:04:12.91	64.84	53.76	-47.2	-48.9	16.6	0.00e+00	0	56	0	672137216	57	4302
2026-01-04 00:04:16.85	67.05	54.69	-47.6	-49.4	16.1	0.00e+00	0	56	0	679477248	57	4575
2026-01-04 00:04:20.81	69.42	55.60	-47.6	-49.4	16.1	0.00e+00	0	56	0	686817280	57	4555
2026-01-04 00:04:24.77	71.94	56.47	-48.5	-50.7	14.7	0.00e+00	0	56	0	694157312	58	5025
2026-01-04 00:04:28.71	74.61	57.30	-48.6	-50.8	14.7	0.00e+00	0	56	0	701497344	59	4786
2026-01-04 00:04:32.66	77.45	58.08	-48.5	-50.7	14.8	1.50e-06	0	56	0	708837376	59	4739
2026-01-04 00:04:36.61	80.45	58.80	-47.8	-49.6	15.8	0.00e+00	0	56	0	716177408	58	4422
2026-01-04 00:04:40.57	83.62	59.45	-48.2	-50.4	15.1	0.00e+00	0	56	0	723517440	58	4841
2026-01-04 00:04:44.53	86.94	60.03	-46.9	-48.5	16.9	0.00e+00	0	56	0	730857472	56	4368
2026-01-04 00:04:48.50	90.41	60.52	-48.1	-50.1	15.4	0.00e+00	0	56	0	738197504	57	4932
2026-01-04 00:04:52.44	93.98	60.92	-47.1	-48.7	16.8	0.00e+00	0	56	0	745537536	56	4460
2026-01-04 00:04:56.39	97.65	61.22	-47.8	-49.7	15.7	0.00e+00	0	56	0	752877568	58	4481
2026-01-04 00:05:00.35	101.41	61.42	-47.5	-49.3	16.1	0.00e+00	0	56	0	760217600	57	4524
2026-01-04 00:05:04.30	105.21	61.51	-47.1	-48.7	16.7	0.00e+00	0	56	0	768606208	57	4228
2026-01-04 00:05:08.25	109.01	61.49	-46.7	-48.1	17.3	0.00e+00	0	56	0	775946240	56	4189
2026-01-04 00:05:12.21	112.81	61.37	-46.0	-47.3	18.0	0.00e+00	0	56	0	783286272	55	4032
2026-01-04 00:05:16.15	116.53	61.14	-47.5	-49.3	16.1	0.00e+00	0	56	0	790626304	57	4539
2026-01-04 00:05:20.13	120.21	60.80	-47.7	-49.6	15.9	0.00e+00	0	56	0	797966336	58	4395
2026-01-04 00:05:24.08	123.75	60.38	-48.6	-50.9	14.5	7.00e-07	0	56	0	805306368	59	4862
2026-01-04 00:05:28.03	127.17	59.86	-49.0	-51.6	13.9	7.00e-07	0	56	0	812646400	59	5235
2026-01-04 00:05:31.98	130.44	59.26	-48.8	-51.2	14.2	0.00e+00	0	56	0	819986432	59	5034
2026-01-04 00:05:35.92	133.54	58.59	-49.2	-51.9	13.5	3.80e-06	0	56	0	827326464	60	5136
2026-01-04 00:05:39.88	136.51	57.85	-48.9	-51.5	13.9	1.50e-06	0	56	0	834666496	60	4887
2026-01-04 00:05:43.84	139.31	57.05	-48.9	-51.3	14.2	1.50e-06	0	57	0	842006528	59	5070
2026-01-04 00:05:47.79	141.94	56.21	-47.7	-49.6	15.9	0.00e+00	0	57	0	849346560	58	4408
2026-01-04 00:05:51.74	144.41	55.32	-47.2	-48.8	16.7	0.00e+00	0	56	0	856686592	57	4263
2026-01-04 00:05:55.69	146.74	54.40	-45.0	-46.1	19.1	0.00e+00	0	56	0	864026624	53	3952
2026-01-04 00:05:59.64	148.91	53.46	-44.6	-45.6	19.7	0.00e+00	0	56	0	872415232	51	4173
2026-01-04 00:06:03.59	150.95	52.49	-45.1	-46.2	19.0	0.00e+00	0	56	0	879755264	52	4229
2026-01-04 00:06:07.54	152.86	51.51	-45.6	-46.8	18.5	0.00e+00	0	56	0	887095296	52	4511
2026-01-04 00:06:11.51	154.66	50.52	-47.2	-48.8	16.7	0.00e+00	0	56	0	894435328	56	4529
2026-01-04 00:06:15.46	156.34	49.52	-49.2	-51.9	13.5	4.50e-06	0	56	0	901775360	60	5105
2026-01-04 00:06:19.42	157.92	48.52	-49.1	-51.8	13.7	5.30e-06	0	56	0	909115392	60	5062
2026-01-04 00:06:23.39	159.40	47.52	-50.5	-54.5	10.9	7.77e-04	0	57	0	916455424	62	6151
2026-01-04 00:06:27.34	160.78	46.53	-50.7	-55.0	10.3	1.46e-03	0	57	0	923795456	63	6198
2026-01-04 00:06:31.29	162.08	45.54	-50.2	-53.8	11.6	6.12e-04	0	57	0	931135488	63	5346
2026-01-04 00:06:35.24	163.31	44.56	-49.6	-52.8	12.6	2.38e-04	0	57	0	938475520	62	5049
2026-01-04 00:06:39.20	164.46	43.60	-48.7	-51.1	14.3	1.50e-06	0	56	0	945815552	60	4700
2026-01-04 00:06:43.15	165.55	42.64	-48.0	-50.0	15.4	0.00e+00	0	57	0	953155584	59	4389
2026-01-04 00:06:47.10	166.57	41.70	-47.5	-49.2	16.2	0.00e+00	0	57	0	960495616	56	4747
2026-01-04 00:06:51.04	167.54	40.78	-47.3	-49.0	16.4	0.00e+00	0	56	0	967835648	57	4373
2026-01-04 00:06:55.00	168.46	39.87	-46.4	-47.9	17.4	0.00e+00	0	57	0	975175680	54	4564
2026-01-04 00:06:58.96	169.33	38.97	-48.1	-50.2	15.2	0.00e+00	0	57	0	983564288	58	4728
2026-01-04 00:07:02.92	170.15	38.09	-47.0	-48.6	16.7	0.00e+00	0	57	0	990904320	57	4187
2026-01-04 00:07:06.88	170.94	37.22	-47.9	-49.9	15.5	0.00e+00	0	56	0	998244352	57	4819
2026-01-04 00:07:10.85	171.68	36.37	-48.2	-50.2	15.2	0.00e+00	0	57	0	1005584384	59	4491
2026-01-04 00:07:14.80	172.39	35.54	-48.0	-49.9	15.5	7.00e-07	0	57	0	1012924416	58	4582
2026-01-04 00:07:18.76	173.06	34.73	-48.3	-50.4	15.0	0.00e+00	0	57	0	1020264448	58	4856
2026-01-04 00:07:22.72	173.70	33.93	-47.8	-49.7	15.6	0.00e+00	0	56	0	1027604480	58	4486
2026-01-04 00:07:26.67	174.31	33.15	-47.9	-49.8	15.6	0.00e+00	0	57	0	1034944512	58	4508
2026-01-04 00:07:30.62	174.90	32.39	-48.5	-50.8	14.6	7.00e-07	0	57	0	1042284544	58	5071
2026-01-04 00:07:34.58	175.45	31.64	-49.0	-51.6	13.8	4.50e-06	0	57	0	1049624576	60	4927
2026-01-04 00:07:38.54	175.99	30.91	-49.4	-52.3	13.0	3.96e-05	0	57	0	1056964608	60	5369
2026-01-04 00:07:42.49	176.50	30.19	-49.2	-52.0	13.3	1.60e-05	0	57	0	1064304640	60	5190
2026-01-04 00:07:46.45	176.99	29.49	-48.7	-51.3	14.1	1.50e-06	0	57	0	1071644672	60	4786
2026-01-04 00:07:50.40	177.46	28.81	-48.5	-50.8	14.5	7.00e-07	0	57	0	1080033280	60	4528
2026-01-04 00:07:54.37	177.91	28.13	-48.4	-50.8	14.6	0.00e+00	0	57	0	1087373312	60	4504
2026-01-04 00:07:58.32	178.35	27.48	-48.6	-51.0	14.4	0.00e+00	0	57	0	1094713344	60	4605
2026-01-04 00:08:02.27	178.76	26.83	-47.9	-49.9	15.5	0.00e+00	0	57	0	1102053376	59	4312
2026-01-04 00:08:06.23	179.17	26.20	-47.3	-49.0	16.3	0.00e+00	0	57	0	1109393408	57	4368
2026-01-04 00:08:10.19	179.55	25.58	-47.5	-49.3	16.0	0.00e+00	0	57	0	1116733440	57	4532
2026-01-04 00:08:14.14	179.93	24.98	-48.0	-50.1	15.2	0.00e+00	0	57	0	1124073472	57	4978
2026-01-04 00:08:18.10	180.29	24.39	-47.8	-49.8	15.6	0.00e+00	0	57	0	1131413504	58	4502
2026-01-04 00:08:22.05	180.63	23.81	-47.3	-49.0	16.3	0.00e+00	0	57	0	1138753536	57	4372
2026-01-04 00:08:26.02	180.97	23.24	-46.8	-48.4	16.9	0.00e+00	0	57	0	1146093568	56	4299
2026-01-04 00:08:29.96	181.29	22.68	-46.1	-47.5	17.7	0.00e+00	0	57	0	1153433600	55	4114
2026-01-04 00:08:33.90	181.60	22.14	-46.4	-47.9	17.3	0.00e+00	0	57	0	1160773632	55	4307
2026-01-04 00:08:37.85	181.91	21.61	-46.8	-48.5	16.7	0.00e+00	0	57	0	1168113664	55	4602
2026-01-04 00:08:41.82	182.20	21.08	-47.2	-48.9	16.4	0.00e+00	0	57	0	1175453696	56	4563
2026-01-04 00:08:45.78	182.48	20.56	-46.8	-48.3	16.9	0.00e+00	0	57	0	1183842304	56	4288
2026-01-04 00:08:49.74	182.76	20.06	-46.8	-48.4	16.9	0.00e+00	0	57	0	1191182336	56	4295
2026-01-04 00:08:53.70	183.03	19.56	-46.9	-48.5	16.7	0.00e+00	0	57	0	1198522368	56	4367
2026-01-04 00:08:57.66	183.29	19.08	-47.5	-49.4	15.8	0.00e+00	0	57	0	1205862400	56	4840
2026-01-04 00:09:01.60	183.54	18.60	-47.0	-48.7	16.5	0.00e+00	0	57	0	1213202432	57	4203
2026-01-04 00:09:05.56	183.78	18.13	-47.2	-49.0	16.2	0.00e+00	0	57	0	1220542464	57	4365
2026-01-04 00:09:09.51	184.02	17.67	-47.3	-49.0	16.2	0.00e+00	0	57	0	1227882496	57	4386
2026-01-04 00:09:13.46	184.25	17.22	-47.2	-49.0	16.2	0.00e+00	0	57	0	1235222528	57	4362
2026-01-04 00:09:17.41	184.47	16.77	-47.4	-49.2	16.0	0.00e+00	0	57	0	1242562560	57	4455
2026-01-04 00:09:21.37	184.69	16.34	-47.7	-49.7	15.5	0.00e+00	0	57	0	1249902592	57	4733
2026-01-04 00:09:25.35	184.91	15.90	-47.6	-49.6	15.6	0.00e+00	0	57	0	1257242624	57	4668
2026-01-04 00:09:29.29	185.11	15.48	-47.8	-49.8	15.4	0.00e+00	0	57	0	1264582656	57	4771
2026-01-04 00:09:33.24	185.32	15.07	-48.4	-50.7	14.4	0.00e+00	0	57	0	1271922688	58	5026
2026-01-04 00:09:37.19	185.51	14.66	-48.3	-50.6	14.5	0.00e+00	0	57	0	1280311296	58	4954
2026-01-04 00:09:41.16	185.70	14.26	-48.2	-50.5	14.6	0.00e+00	0	57	0	1287651328	58	4889
2026-01-04 00:09:45.13	185.89	13.86	-48.1	-50.3	14.8	0.00e+00	0	57	0	1294991360	58	4809
2026-01-04 00:09:49.11	186.08	13.47	-48.5	-50.9	14.2	1.50e-06	0	57	0	1302331392	58	5126
2026-01-04 00:09:53.06	186.26	13.08	-48.1	-50.3	14.8	0.00e+00	0	57	0	1309671424	58	4770
2026-01-04 00:09:57.03	186.43	12.70	-48.0	-50.1	15.0	0.00e+00	0	57	0	1317011456	58	4668
2026-01-04 00:10:00.98	186.60	12.33	-48.0	-50.2	14.9	0.00e+00	0	57	0	1324351488	58	4708
2026-01-04 00:10:04.94	186.77	11.96	-48.1	-50.2	14.8	0.00e+00	0	57	0	1331691520	58	4758
2026-01-04 00:10:08.90	186.93	11.60	-48.0	-50.1	14.9	0.00e+00	0	57	0	1339031552	58	4689
2026-01-04 00:10:12.87	187.09	11.24	-48.0	-50.2	14.8	7.00e-07	0	57	0	1346371584	58	4718
2026-01-04 00:10:16.83	187.24	10.89	-48.1	-50.4	14.6	0.00e+00	0	57	0	1353711616	58	4844
2026-01-04 00:10:20.80	187.40	10.54	-48.1	-50.4	14.5	7.00e-07	0	57	0	1361051648	58	4836
2026-01-04 00:10:24.77	187.55	10.20	-48.0	-50.2	14.8	0.00e+00	0	57	0	1369440256	58	4716
2026-01-04 00:10:28.73	187.69	9.86	-48.0	-50.2	14.7	7.00e-07	0	57	0	1376780288	58	4753
2026-01-04 00:10:32.67	187.84	9.53	-47.6	-49.6	15.3	0.00e+00	0	57	0	1384120320	58	4425
2026-01-04 00:10:36.63	187.98	9.20	-47.8	-49.8	15.0	0.00e+00	0	57	0	1391460352	58	4545
2026-01-04 00:10:40.58	188.11	8.87	-47.9	-50.0	14.8	0.00e+00	0	57	0	1398800384	58	4647
2026-01-04 00:10:44.54	188.25	8.55	-47.9	-50.1	14.7	0.00e+00	0	57	0	1406140416	58	4683
2026-01-04 00:10:48.49	188.38	8.23	-47.9	-50.1	14.7	0.00e+00	0	57	0	1413480448	58	4666
2026-01-04 00:10:52.44	188.51	7.92	-48.0	-50.3	14.5	7.00e-07	0	57	0	1420820480	58	4784
2026-01-04 00:10:56.39	188.64	7.61	-48.2	-50.7	14.0	1.50e-06	0	57	0	1428160512	58	4999
2026-01-04 00:11:00.33	188.76	7.31	-48.1	-50.5	14.3	7.00e-07	0	57	0	1435500544	58	4875
2026-01-04 00:11:04.28	188.88	7.01	-48.1	-50.5	14.1	7.00e-07	0	57	0	1442840576	58	4923
2026-01-04 00:11:08.24	189.00	6.71	-48.4	-51.0	13.5	7.60e-06	0	57	0	1450180608	58	5218
2026-01-04 00:11:12.20	189.12	6.41	-48.6	-51.5	13.1	1.90e-05	0	57	0	1457520640	59	5179
2026-01-04 00:11:16.16	189.24	6.12	-48.6	-51.5	13.0	4.11e-05	0	57	0	1464860672	59	5214
2026-01-04 00:11:20.12	189.35	5.83	-48.9	-52.0	12.5	9.53e-05	0	57	0	1473249280	59	5473
2026-01-04 00:11:24.06	189.46	5.54	-48.9	-52.1	12.3	1.76e-04	0	57	0	1480589312	60	5243
2026-01-04 00:11:28.00	189.57	5.26	-48.5	-51.5	12.9	4.27e-05	0	57	0	1487929344	60	4893
2026-01-04 00:11:31.95	189.68	4.98	-51.8	-65.5	3.8	1.49e+00	0	57	104	1493172224	65	18485
2026-01-04 00:11:35.91	189.79	4.71	-52.4	-66.2	3.8	1.49e+00	0	57	104	1493172224	66	18833
2026-01-04 00:11:39.87	189.89	4.43	-52.5	-66.4	3.8	1.49e+00	0	57	104	1493172224	66	19233
2026-01-04 00:11:43.83	190.00	4.16	-52.6	-66.5	3.8	1.49e+00	0	57	104	1493172224	67	18318
2026-01-04 00:11:47.79	190.10	3.89	-52.7	-66.5	3.8	1.49e+00	0	57	104	1493172224	67	18382
2026-01-04 00:11:51.75	190.20	3.62	-52.7	-66.5	3.8	1.49e+00	0	57	104	1493172224	67	18499
2026-01-04 00:11:55.72	190.30	3.36	-52.6	-66.5	3.8	1.49e+00	0	57	104	1493172224	67	18486
2026-01-04 00:11:59.69	190.39	3.10	-52.7	-66.5	3.8	1.49e+00	0	57	104	1493172224	67	18440

#Closed at: 2026-01-04 00:12:02
#Recorded file [1493 MB]: D:/Data/31026_260104_031131.dat