passes_logs/2026/01/03/R3.0SM8_Murmansk_STILSPACE/R3.0SM8_Murmansk_STILSPACE__20260103_051629_NOAA_20_JPSS-1_rec.log

#Pass ID: 20260103_051629_NOAA 20 (JPSS-1)
#Satellite: NOAA 20 (JPSS-1)
#Configuration: NOAA 20
#almurnet v.1.7.20240730
#Start time: 2026-01-03 05:16:31

#Version: 2.2.20231116
#Station: R3.0SM8_Murmansk_STILSPACE
#Location: 33.092731 lon 68.902999 lat
#TLE: 1 43013U 17073A   26002.21975278  .00000202  00000+0  11669-3 0  9999
#TLE: 2 43013  98.7622 303.2950 0001915  57.9213 302.2149 14.19532512420923

#Time	Az	El	Level	Level2	SNR	BER	BlckErr	Temp	State	Recorded	gain1	gain2
2026-01-03 05:16:31.56	62.55	3.11	-52.9	-66.9	3.8	1.49e+00	0	47	0	0	68	18131
2026-01-03 05:16:34.54	62.35	3.29	-52.5	-66.5	3.8	1.49e+00	0	47	104	0	68	17322
2026-01-03 05:16:37.52	62.14	3.46	-51.9	-65.8	3.8	1.49e+00	0	48	104	0	66	17909
2026-01-03 05:16:40.49	61.93	3.64	-52.0	-65.7	3.8	1.49e+00	0	48	104	0	66	17837
2026-01-03 05:16:43.46	61.71	3.81	-52.0	-65.8	3.8	1.49e+00	0	48	104	0	66	17952
2026-01-03 05:16:46.42	61.50	3.99	-52.0	-65.8	3.8	1.49e+00	0	48	104	0	66	17914
2026-01-03 05:16:49.38	61.28	4.16	-51.9	-64.8	3.8	1.49e+00	0	48	104	0	66	16123
2026-01-03 05:16:52.36	61.05	4.34	-51.8	-62.9	3.9	1.47e+00	0	48	104	0	66	12879
2026-01-03 05:16:55.32	60.83	4.52	-51.3	-59.5	5.5	5.81e-01	0	49	0	3145728	65	9179
2026-01-03 05:16:58.30	60.60	4.70	-50.9	-57.2	7.4	1.35e-01	0	49	0	8388608	64	7464
2026-01-03 05:17:01.26	60.37	4.88	-50.5	-55.4	9.2	1.98e-02	0	49	0	14680064	63	6451
2026-01-03 05:17:04.24	60.14	5.06	-50.4	-55.2	9.5	1.28e-02	0	49	0	19922944	63	6306
2026-01-03 05:17:07.20	59.90	5.24	-50.4	-55.1	9.5	1.29e-02	0	49	0	25165824	63	6260
2026-01-03 05:17:10.17	59.66	5.42	-50.4	-55.2	9.4	1.64e-02	0	50	0	31457280	63	6329
2026-01-03 05:17:13.13	59.42	5.60	-50.0	-54.2	10.5	4.88e-03	0	50	0	36700160	63	5627
2026-01-03 05:17:16.09	59.17	5.79	-50.0	-54.0	10.7	2.54e-03	0	50	0	41943040	62	5847
2026-01-03 05:17:19.06	58.92	5.97	-49.8	-53.7	11.1	1.55e-03	0	50	0	47185920	62	5643
2026-01-03 05:17:22.01	58.67	6.16	-49.9	-53.7	11.2	1.34e-03	0	50	0	53477376	62	5596
2026-01-03 05:17:24.98	58.42	6.34	-49.8	-53.4	11.5	7.58e-04	0	50	0	58720256	62	5464
2026-01-03 05:17:27.95	58.16	6.53	-49.9	-53.6	11.3	9.98e-04	0	50	0	63963136	62	5571
2026-01-03 05:17:30.91	57.90	6.72	-50.1	-54.1	10.8	1.89e-03	0	50	0	70254592	62	5901
2026-01-03 05:17:33.88	57.63	6.90	-50.2	-54.3	10.7	2.59e-03	0	51	0	75497472	62	6002
2026-01-03 05:17:36.86	57.36	7.09	-50.1	-54.1	10.9	2.57e-03	0	51	0	80740352	62	5871
2026-01-03 05:17:39.83	57.08	7.28	-50.0	-53.7	11.3	1.16e-03	0	51	0	87031808	62	5646
2026-01-03 05:17:42.80	56.81	7.47	-50.1	-54.0	11.0	2.23e-03	0	51	0	92274688	62	5854
2026-01-03 05:17:45.77	56.53	7.67	-50.0	-53.6	11.5	9.09e-04	0	51	0	97517568	62	5569
2026-01-03 05:17:48.75	56.24	7.86	-50.0	-53.8	11.3	9.08e-04	0	51	0	102760448	62	5675
2026-01-03 05:17:51.71	55.95	8.05	-49.9	-53.5	11.7	7.88e-04	0	51	0	109051904	62	5492
2026-01-03 05:17:54.68	55.66	8.25	-49.6	-52.8	12.3	1.70e-04	0	51	0	114294784	62	5073
2026-01-03 05:17:57.65	55.36	8.44	-49.5	-52.7	12.5	1.07e-04	0	52	0	119537664	62	5024
2026-01-03 05:18:00.62	55.06	8.63	-49.7	-52.9	12.3	2.14e-04	0	52	0	125829120	62	5140
2026-01-03 05:18:03.60	54.75	8.83	-49.5	-52.7	12.5	1.19e-04	0	52	0	131072000	62	5016
2026-01-03 05:18:06.56	54.44	9.03	-49.4	-52.6	12.6	1.08e-04	0	52	0	136314880	61	5274
2026-01-03 05:18:09.52	54.13	9.22	-49.7	-53.0	12.2	1.63e-04	0	52	0	142606336	61	5485
2026-01-03 05:18:12.49	53.81	9.42	-49.7	-53.0	12.2	2.48e-04	0	52	0	147849216	61	5528
2026-01-03 05:18:15.46	53.49	9.62	-49.8	-53.3	11.9	3.96e-04	0	52	0	153092096	61	5714
2026-01-03 05:18:18.42	53.16	9.82	-49.8	-53.2	12.1	3.34e-04	0	52	0	159383552	61	5595
2026-01-03 05:18:21.38	52.83	10.02	-49.9	-53.4	11.9	4.39e-04	0	52	0	164626432	61	5746
2026-01-03 05:18:24.34	52.50	10.22	-50.0	-53.5	11.8	4.43e-04	0	52	0	169869312	61	5816
2026-01-03 05:18:27.31	52.15	10.42	-49.9	-53.2	12.0	3.68e-04	0	53	0	175112192	61	5652
2026-01-03 05:18:30.27	51.81	10.62	-49.9	-53.3	12.0	3.19e-04	0	52	0	181403648	61	5697
2026-01-03 05:18:33.24	51.46	10.83	-49.6	-52.6	12.7	1.07e-04	0	53	0	186646528	61	5279
2026-01-03 05:18:36.19	51.10	11.03	-49.4	-52.4	13.0	3.66e-05	0	53	0	191889408	61	5130
2026-01-03 05:18:39.16	50.74	11.23	-49.6	-52.7	12.7	7.93e-05	0	53	0	198180864	61	5292
2026-01-03 05:18:42.13	50.38	11.44	-49.3	-52.1	13.3	1.90e-05	0	53	0	203423744	61	4961
2026-01-03 05:18:45.09	50.00	11.64	-49.3	-52.2	13.2	2.59e-05	0	53	0	208666624	61	5000
2026-01-03 05:18:48.06	49.63	11.85	-49.6	-52.7	12.7	5.11e-05	0	53	0	214958080	61	5289
2026-01-03 05:18:51.03	49.24	12.05	-49.8	-52.9	12.5	1.03e-04	0	53	0	220200960	61	5458
2026-01-03 05:18:54.00	48.86	12.26	-49.6	-52.7	12.8	9.68e-05	0	53	0	225443840	61	5296
2026-01-03 05:18:56.97	48.46	12.47	-49.5	-52.5	12.9	6.86e-05	0	53	0	230686720	61	5211
2026-01-03 05:18:59.93	48.06	12.67	-49.3	-52.0	13.4	2.21e-05	0	53	0	236978176	61	4920
2026-01-03 05:19:02.91	47.66	12.88	-48.9	-51.4	14.1	3.00e-06	0	53	0	242221056	60	4846
2026-01-03 05:19:05.87	47.25	13.09	-48.9	-51.4	14.1	7.00e-07	0	54	0	247463936	60	4850
2026-01-03 05:19:08.82	46.83	13.29	-48.8	-51.2	14.3	0.00e+00	0	54	0	253755392	60	4711
2026-01-03 05:19:11.80	46.41	13.50	-48.8	-51.3	14.2	7.00e-07	0	54	0	258998272	60	4797
2026-01-03 05:19:14.78	45.98	13.71	-48.9	-51.4	14.2	1.50e-06	0	54	0	264241152	60	4833
2026-01-03 05:19:17.74	45.54	13.92	-49.0	-51.6	13.9	5.30e-06	0	54	0	270532608	60	4959
2026-01-03 05:19:20.70	45.10	14.13	-49.1	-51.7	13.9	4.50e-06	0	54	0	275775488	60	4986
2026-01-03 05:19:23.66	44.66	14.34	-49.3	-52.0	13.5	6.80e-06	0	54	0	281018368	60	5192
2026-01-03 05:19:26.62	44.20	14.55	-49.3	-52.0	13.5	1.06e-05	0	54	0	287309824	60	5198
2026-01-03 05:19:29.57	43.74	14.75	-49.1	-51.8	13.7	3.80e-06	0	54	0	292552704	60	5079
2026-01-03 05:19:32.52	43.28	14.96	-49.2	-51.9	13.6	1.22e-05	0	54	0	297795584	60	5143
2026-01-03 05:19:35.47	42.81	15.17	-49.4	-52.1	13.4	1.37e-05	0	54	0	303038464	60	5271
2026-01-03 05:19:38.44	42.33	15.38	-49.4	-52.2	13.3	1.29e-05	0	54	0	309329920	60	5315
2026-01-03 05:19:41.41	41.84	15.58	-49.4	-52.2	13.3	3.12e-05	0	54	0	314572800	61	5018
2026-01-03 05:19:44.38	41.34	15.79	-49.3	-52.1	13.5	8.30e-06	0	54	0	319815680	61	4972
2026-01-03 05:19:47.35	40.84	16.00	-49.3	-52.0	13.5	9.90e-06	0	55	0	326107136	61	4915
2026-01-03 05:19:50.31	40.33	16.20	-49.3	-52.2	13.4	1.52e-05	0	54	0	331350016	61	4996
2026-01-03 05:19:53.28	39.82	16.41	-49.6	-52.4	13.2	2.36e-05	0	55	0	336592896	61	5124
2026-01-03 05:19:56.25	39.29	16.61	-49.6	-52.5	13.1	4.11e-05	0	55	0	341835776	61	5184
2026-01-03 05:19:59.21	38.76	16.82	-49.4	-52.2	13.4	1.60e-05	0	55	0	348127232	61	5024
2026-01-03 05:20:02.19	38.22	17.02	-49.6	-52.6	13.0	2.97e-05	0	55	0	353370112	61	5253
2026-01-03 05:20:05.17	37.68	17.23	-49.4	-52.1	13.6	1.60e-05	0	55	0	358612992	61	4929
2026-01-03 05:20:08.14	37.12	17.43	-49.4	-52.1	13.5	6.80e-06	0	55	0	364904448	61	4965
2026-01-03 05:20:11.11	36.56	17.63	-49.2	-51.8	13.9	3.00e-06	0	55	0	370147328	61	4762
2026-01-03 05:20:14.08	36.00	17.83	-49.0	-51.4	14.3	2.20e-06	0	55	0	375390208	61	4556
2026-01-03 05:20:17.04	35.42	18.02	-48.9	-51.3	14.4	7.00e-07	0	55	0	381681664	60	4778
2026-01-03 05:20:20.01	34.84	18.22	-48.3	-50.3	15.3	0.00e+00	0	55	0	386924544	59	4527
2026-01-03 05:20:22.97	34.25	18.42	-48.3	-50.3	15.3	0.00e+00	0	55	0	392167424	59	4543
2026-01-03 05:20:25.93	33.65	18.61	-47.8	-49.6	16.1	0.00e+00	0	55	0	398458880	58	4393
2026-01-03 05:20:28.89	33.05	18.80	-47.7	-49.5	16.2	0.00e+00	0	55	0	403701760	58	4369
2026-01-03 05:20:31.85	32.44	18.99	-47.6	-49.4	16.2	0.00e+00	0	55	0	408944640	58	4332
2026-01-03 05:20:34.82	31.81	19.17	-47.5	-49.2	16.5	0.00e+00	0	55	0	414187520	58	4213
2026-01-03 05:20:37.79	31.19	19.36	-47.7	-49.4	16.3	0.00e+00	0	55	0	420478976	58	4329
2026-01-03 05:20:40.75	30.55	19.54	-47.3	-48.9	16.7	0.00e+00	0	55	0	425721856	57	4333
2026-01-03 05:20:43.72	29.91	19.72	-47.4	-49.0	16.6	0.00e+00	0	55	0	430964736	57	4377
2026-01-03 05:20:46.69	29.25	19.90	-47.6	-49.3	16.3	0.00e+00	0	55	0	437256192	57	4523
2026-01-03 05:20:49.65	28.59	20.07	-47.4	-49.0	16.7	0.00e+00	0	55	0	442499072	57	4375
2026-01-03 05:20:52.61	27.93	20.25	-47.4	-49.1	16.6	0.00e+00	0	55	0	447741952	57	4401
2026-01-03 05:20:55.58	27.25	20.42	-47.7	-49.4	16.2	0.00e+00	0	55	0	454033408	57	4573
2026-01-03 05:20:58.54	26.57	20.58	-47.4	-49.0	16.6	0.00e+00	0	55	0	459276288	57	4390
2026-01-03 05:21:01.50	25.89	20.74	-47.6	-49.3	16.5	0.00e+00	0	55	0	464519168	57	4499
2026-01-03 05:21:04.47	25.19	20.90	-47.7	-49.5	16.1	0.00e+00	0	55	0	469762048	57	4631
2026-01-03 05:21:07.44	24.48	21.06	-47.7	-49.4	16.3	0.00e+00	0	55	0	476053504	57	4567
2026-01-03 05:21:10.40	23.77	21.21	-47.2	-48.8	16.9	0.00e+00	0	56	0	481296384	57	4245
2026-01-03 05:21:13.36	23.06	21.36	-47.4	-49.1	16.6	0.00e+00	0	56	0	486539264	57	4405
2026-01-03 05:21:16.33	22.33	21.50	-47.2	-48.7	17.0	0.00e+00	0	56	0	492830720	57	4231
2026-01-03 05:21:19.30	21.60	21.64	-47.0	-48.6	17.1	0.00e+00	0	56	0	498073600	57	4150
2026-01-03 05:21:22.27	20.86	21.78	-47.0	-48.6	17.1	0.00e+00	0	56	0	503316480	57	4180
2026-01-03 05:21:25.23	20.12	21.91	-46.9	-48.4	17.3	0.00e+00	0	56	0	509607936	56	4328
2026-01-03 05:21:28.19	19.37	22.04	-47.1	-48.6	17.1	0.00e+00	0	56	0	514850816	56	4431
2026-01-03 05:21:31.15	18.61	22.16	-47.1	-48.6	17.1	0.00e+00	0	56	0	520093696	56	4435
2026-01-03 05:21:34.13	17.85	22.28	-47.4	-49.1	16.6	0.00e+00	0	56	0	525336576	56	4680
2026-01-03 05:21:37.10	17.08	22.39	-47.3	-48.9	16.8	0.00e+00	0	56	0	531628032	56	4553
2026-01-03 05:21:40.06	16.30	22.50	-47.4	-49.0	16.7	0.00e+00	0	56	0	536870912	56	4632
2026-01-03 05:21:43.03	15.52	22.60	-47.6	-49.4	16.3	0.00e+00	0	56	0	542113792	57	4561
2026-01-03 05:21:45.99	14.74	22.69	-48.1	-50.1	15.6	0.00e+00	0	56	0	548405248	58	4661
2026-01-03 05:21:48.96	13.95	22.78	-48.2	-50.2	15.5	0.00e+00	0	56	0	553648128	58	4719
2026-01-03 05:21:51.94	13.15	22.87	-48.3	-50.3	15.4	0.00e+00	0	56	0	558891008	58	4780
2026-01-03 05:21:54.90	12.36	22.95	-48.3	-50.3	15.3	0.00e+00	0	56	0	565182464	59	4525
2026-01-03 05:21:57.88	11.55	23.02	-48.4	-50.5	15.1	0.00e+00	0	56	0	570425344	59	4612
2026-01-03 05:22:00.85	10.75	23.09	-48.9	-51.3	14.2	1.50e-06	0	56	0	575668224	59	5091
2026-01-03 05:22:03.82	9.94	23.15	-48.8	-51.3	14.0	1.50e-06	0	56	0	581959680	59	5043
2026-01-03 05:22:06.79	9.12	23.21	-48.8	-51.5	13.3	1.06e-05	0	56	0	587202560	59	5203
2026-01-03 05:22:09.75	8.31	23.26	-49.0	-52.3	12.3	1.23e-04	0	56	0	592445440	60	5377
2026-01-03 05:22:12.72	7.49	23.30	-49.8	-54.4	10.0	3.07e-03	0	56	0	598736896	61	6429
2026-01-03 05:22:15.68	6.67	23.34	-50.3	-56.1	8.1	5.82e-02	0	56	0	603979776	62	7397
2026-01-03 05:22:18.63	5.86	23.37	-50.2	-55.3	9.1	3.25e-02	0	56	0	609222656	62	6738
2026-01-03 05:22:21.60	5.03	23.40	-50.4	-55.2	9.4	1.69e-02	0	56	0	614465536	62	6683
2026-01-03 05:22:24.57	4.21	23.42	-50.4	-56.1	8.1	6.31e-02	0	56	0	620756992	62	7411
2026-01-03 05:22:27.54	3.38	23.43	-49.9	-54.2	10.4	1.18e-02	0	56	0	625999872	62	5972
2026-01-03 05:22:30.52	2.56	23.43	-49.8	-53.0	12.5	1.51e-04	0	56	0	631242752	62	5167
2026-01-03 05:22:33.49	1.73	23.43	-48.8	-51.2	14.4	7.00e-07	0	56	0	637534208	60	4708
2026-01-03 05:22:36.47	0.90	23.43	-48.7	-50.9	14.8	7.00e-07	0	56	0	642777088	60	4575
2026-01-03 05:22:39.44	0.07	23.41	-48.8	-51.2	14.5	0.00e+00	0	56	0	648019968	60	4720
2026-01-03 05:22:42.41	359.25	23.39	-47.8	-49.7	16.0	0.00e+00	0	56	0	654311424	58	4451
2026-01-03 05:22:45.38	358.43	23.37	-47.5	-49.2	16.5	0.00e+00	0	56	0	659554304	58	4209
2026-01-03 05:22:48.34	357.61	23.33	-47.4	-49.1	16.6	0.00e+00	0	56	0	664797184	57	4398
2026-01-03 05:22:51.31	356.79	23.29	-47.2	-48.7	17.0	0.00e+00	0	56	0	671088640	57	4223
2026-01-03 05:22:54.28	355.97	23.25	-46.8	-48.3	17.3	0.00e+00	0	56	0	676331520	56	4266
2026-01-03 05:22:57.25	355.16	23.20	-46.7	-48.2	17.5	0.00e+00	0	56	0	681574400	56	4200
2026-01-03 05:23:00.21	354.35	23.14	-46.7	-48.1	17.6	0.00e+00	0	56	0	686817280	56	4150
2026-01-03 05:23:03.17	353.54	23.08	-46.7	-48.1	17.5	0.00e+00	0	56	0	693108736	56	4187
2026-01-03 05:23:06.12	352.74	23.01	-46.2	-47.6	17.9	0.00e+00	0	56	0	698351616	55	4157
2026-01-03 05:23:09.09	351.94	22.93	-46.5	-47.9	17.6	0.00e+00	0	56	0	703594496	55	4334
2026-01-03 05:23:12.04	351.15	22.85	-46.7	-48.2	17.3	0.00e+00	0	56	0	709885952	55	4448
2026-01-03 05:23:15.01	350.35	22.76	-47.1	-48.7	16.9	0.00e+00	0	56	0	715128832	55	4713
2026-01-03 05:23:17.97	349.57	22.67	-46.9	-48.4	17.1	0.00e+00	0	56	0	720371712	55	4582
2026-01-03 05:23:20.93	348.79	22.57	-47.0	-48.6	16.9	0.00e+00	0	56	0	725614592	55	4700
2026-01-03 05:23:23.91	348.00	22.47	-47.4	-49.1	16.6	0.00e+00	0	56	0	731906048	56	4679
2026-01-03 05:23:26.88	347.23	22.36	-47.7	-49.5	16.1	0.00e+00	0	56	0	737148928	57	4619
2026-01-03 05:23:29.83	346.47	22.25	-47.9	-49.8	15.8	0.00e+00	0	56	0	742391808	57	4763
2026-01-03 05:23:32.78	345.71	22.13	-48.2	-50.1	15.5	0.00e+00	0	56	0	748683264	58	4694
2026-01-03 05:23:35.75	344.95	22.01	-48.5	-50.6	15.0	0.00e+00	0	56	0	753926144	58	4952
2026-01-03 05:23:38.72	344.20	21.88	-48.3	-50.4	15.2	0.00e+00	0	56	0	759169024	59	4566
2026-01-03 05:23:41.69	343.46	21.75	-48.0	-49.9	15.7	0.00e+00	0	56	0	765460480	59	4338
2026-01-03 05:23:44.66	342.72	21.61	-48.2	-50.2	15.4	0.00e+00	0	57	0	770703360	59	4470
2026-01-03 05:23:47.63	341.99	21.47	-48.3	-50.4	15.1	0.00e+00	0	56	0	775946240	59	4594
2026-01-03 05:23:50.59	341.27	21.33	-48.6	-50.9	14.7	0.00e+00	0	56	0	781189120	59	4822
2026-01-03 05:23:53.56	340.55	21.18	-48.8	-51.2	14.3	3.80e-06	0	56	0	787480576	59	5030
2026-01-03 05:23:56.52	339.85	21.02	-48.5	-50.7	14.6	1.50e-06	0	56	0	792723456	59	4740
2026-01-03 05:23:59.47	339.15	20.87	-49.2	-52.2	12.8	2.67e-05	0	56	0	797966336	60	5327
2026-01-03 05:24:02.44	338.45	20.71	-49.6	-53.0	12.0	2.93e-04	0	57	0	804257792	60	5799
2026-01-03 05:24:05.41	337.76	20.54	-49.7	-53.3	11.7	5.08e-04	0	56	0	809500672	61	5686
2026-01-03 05:24:08.38	337.08	20.38	-49.6	-53.1	11.9	3.78e-04	0	56	0	814743552	61	5533
2026-01-03 05:24:11.35	336.41	20.21	-49.6	-52.9	12.0	4.34e-04	0	56	0	821035008	61	5460
2026-01-03 05:24:14.31	335.75	20.04	-48.7	-51.2	13.9	2.20e-06	0	56	0	826277888	60	4727
2026-01-03 05:24:17.26	335.09	19.86	-48.1	-50.1	15.1	0.00e+00	0	56	0	831520768	59	4433
2026-01-03 05:24:20.22	334.44	19.68	-47.7	-49.5	15.7	0.00e+00	0	56	0	837812224	58	4384
2026-01-03 05:24:23.18	333.80	19.50	-48.6	-50.8	14.7	0.00e+00	0	57	0	843055104	58	5092
2026-01-03 05:24:26.15	333.17	19.32	-48.2	-50.2	15.5	0.00e+00	0	57	0	848297984	59	4449
2026-01-03 05:24:29.10	332.55	19.14	-48.2	-50.2	15.5	0.00e+00	0	57	0	853540864	59	4448
2026-01-03 05:24:32.06	331.93	18.95	-48.3	-50.3	15.4	0.00e+00	0	57	0	859832320	59	4506
2026-01-03 05:24:35.03	331.32	18.76	-48.4	-50.4	15.3	0.00e+00	0	57	0	865075200	59	4574
2026-01-03 05:24:37.97	330.72	18.57	-48.3	-50.3	15.3	0.00e+00	0	57	0	870318080	59	4543
2026-01-03 05:24:40.93	330.12	18.38	-48.5	-50.6	15.1	0.00e+00	0	56	0	876609536	59	4679
2026-01-03 05:24:43.90	329.53	18.18	-48.5	-50.6	15.1	0.00e+00	0	57	0	881852416	59	4654
2026-01-03 05:24:46.87	328.95	17.99	-48.4	-50.5	15.2	0.00e+00	0	57	0	887095296	59	4614
2026-01-03 05:24:49.84	328.38	17.79	-48.4	-50.5	15.2	7.00e-07	0	57	0	892338176	59	4637
2026-01-03 05:24:52.82	327.81	17.59	-48.5	-50.6	15.0	0.00e+00	0	57	0	898629632	59	4703
2026-01-03 05:24:55.79	327.25	17.39	-48.5	-50.7	15.0	0.00e+00	0	57	0	903872512	59	4707
2026-01-03 05:24:58.76	326.70	17.18	-48.2	-50.2	15.4	0.00e+00	0	57	0	909115392	59	4458
2026-01-03 05:25:01.71	326.16	16.98	-48.4	-50.5	15.2	0.00e+00	0	57	0	915406848	59	4612
2026-01-03 05:25:04.68	325.62	16.78	-48.3	-50.3	15.4	0.00e+00	0	57	0	920649728	59	4502
2026-01-03 05:25:07.65	325.09	16.57	-48.1	-50.1	15.6	0.00e+00	0	57	0	925892608	59	4405
2026-01-03 05:25:10.62	324.57	16.37	-48.0	-49.9	15.7	0.00e+00	0	57	0	932184064	59	4332
2026-01-03 05:25:13.58	324.06	16.16	-48.1	-50.0	15.6	0.00e+00	0	57	0	937426944	59	4383
2026-01-03 05:25:16.54	323.55	15.96	-48.2	-50.3	15.3	0.00e+00	0	57	0	942669824	59	4511
2026-01-03 05:25:19.51	323.05	15.75	-47.8	-49.6	16.0	0.00e+00	0	57	0	948961280	58	4399
2026-01-03 05:25:22.47	322.56	15.54	-47.6	-49.4	16.2	0.00e+00	0	57	0	954204160	58	4298
2026-01-03 05:25:25.44	322.08	15.34	-47.4	-49.0	16.5	0.00e+00	0	57	0	959447040	57	4386
2026-01-03 05:25:28.40	321.60	15.13	-47.6	-49.4	16.2	0.00e+00	0	57	0	964689920	57	4557
2026-01-03 05:25:31.35	321.13	14.92	-47.5	-49.3	16.3	0.00e+00	0	57	0	970981376	57	4495
2026-01-03 05:25:34.33	320.66	14.71	-47.5	-49.2	16.4	0.00e+00	0	57	0	976224256	57	4444
2026-01-03 05:25:37.30	320.20	14.50	-47.6	-49.3	16.3	0.00e+00	0	57	0	981467136	57	4511
2026-01-03 05:25:40.28	319.75	14.29	-47.5	-49.2	16.4	0.00e+00	0	57	0	987758592	57	4462
2026-01-03 05:25:43.24	319.30	14.09	-47.7	-49.5	16.0	0.00e+00	0	57	0	993001472	57	4648
2026-01-03 05:25:46.21	318.86	13.88	-48.0	-49.9	15.6	0.00e+00	0	57	0	998244352	57	4850
2026-01-03 05:25:49.18	318.43	13.67	-48.3	-50.4	15.1	0.00e+00	0	57	0	1004535808	58	4836
2026-01-03 05:25:52.14	318.00	13.46	-48.1	-50.1	15.4	0.00e+00	0	57	0	1009778688	58	4677
2026-01-03 05:25:55.11	317.58	13.25	-48.4	-50.7	14.8	0.00e+00	0	57	0	1015021568	58	5027
2026-01-03 05:25:58.07	317.16	13.05	-48.1	-50.1	15.4	0.00e+00	0	57	0	1020264448	58	4665
2026-01-03 05:26:01.02	316.76	12.84	-48.0	-50.0	15.5	0.00e+00	0	57	0	1026555904	58	4631
2026-01-03 05:26:03.99	316.35	12.63	-48.3	-50.3	15.2	0.00e+00	0	57	0	1031798784	58	4814
2026-01-03 05:26:06.96	315.96	12.43	-48.1	-50.1	15.3	0.00e+00	0	57	0	1037041664	58	4700
2026-01-03 05:26:09.93	315.56	12.22	-48.3	-50.4	15.1	0.00e+00	0	57	0	1043333120	58	4836
2026-01-03 05:26:12.89	315.18	12.01	-48.3	-50.4	15.0	0.00e+00	0	57	0	1048576000	58	4860
2026-01-03 05:26:15.86	314.80	11.81	-48.5	-50.7	14.8	7.00e-07	0	57	0	1053818880	58	5022
2026-01-03 05:26:18.83	314.42	11.60	-48.5	-50.7	14.7	0.00e+00	0	57	0	1060110336	58	5025
2026-01-03 05:26:21.79	314.05	11.40	-48.6	-50.8	14.6	7.00e-07	0	57	0	1065353216	59	4814
2026-01-03 05:26:24.75	313.69	11.19	-48.5	-50.7	14.7	0.00e+00	0	57	0	1070596096	59	4740
2026-01-03 05:26:27.71	313.33	10.99	-48.7	-51.0	14.4	7.00e-07	0	57	0	1075838976	59	4910
2026-01-03 05:26:30.65	312.98	10.79	-48.9	-51.4	14.0	1.50e-06	0	57	0	1082130432	59	5137
2026-01-03 05:26:33.62	312.63	10.59	-49.1	-51.7	13.7	7.60e-06	0	57	0	1087373312	60	5034
2026-01-03 05:26:36.59	312.28	10.39	-49.3	-52.2	13.2	1.75e-05	0	57	0	1092616192	60	5327
2026-01-03 05:26:39.56	311.94	10.18	-49.1	-51.8	13.5	1.06e-05	0	57	0	1098907648	60	5088
2026-01-03 05:26:42.53	311.60	9.98	-49.1	-51.9	13.4	9.10e-06	0	57	0	1104150528	60	5144
2026-01-03 05:26:45.51	311.27	9.78	-48.8	-51.4	14.0	2.20e-06	0	57	0	1109393408	60	4816
2026-01-03 05:26:48.49	310.94	9.58	-48.8	-51.4	13.9	3.00e-06	0	57	0	1115684864	60	4859
2026-01-03 05:26:51.46	310.62	9.38	-49.0	-51.7	13.6	7.60e-06	0	57	0	1120927744	60	5010
2026-01-03 05:26:54.42	310.31	9.19	-49.1	-52.1	13.2	1.75e-05	0	57	0	1126170624	60	5237
2026-01-03 05:26:57.39	309.99	8.99	-49.5	-52.5	12.8	6.71e-05	0	57	0	1132462080	60	5514
2026-01-03 05:27:00.37	309.68	8.79	-49.6	-53.0	12.3	2.23e-04	0	57	0	1137704960	61	5468
2026-01-03 05:27:03.35	309.38	8.60	-49.5	-52.6	12.7	8.16e-05	0	57	0	1142947840	61	5228
2026-01-03 05:27:06.31	309.08	8.40	-49.6	-52.8	12.4	1.04e-04	0	57	0	1149239296	61	5387
2026-01-03 05:27:09.28	308.78	8.21	-49.5	-52.7	12.5	1.27e-04	0	57	0	1154482176	61	5302
2026-01-03 05:27:12.25	308.49	8.01	-49.5	-52.9	12.2	1.87e-04	0	57	0	1159725056	61	5433
2026-01-03 05:27:15.21	308.20	7.82	-49.8	-53.5	11.6	6.60e-04	0	57	0	1164967936	61	5811
2026-01-03 05:27:18.18	307.92	7.63	-49.4	-52.7	12.4	1.60e-04	0	57	0	1171259392	61	5332
2026-01-03 05:27:21.15	307.64	7.44	-49.5	-52.7	12.4	1.38e-04	0	57	0	1176502272	61	5290
2026-01-03 05:27:24.12	307.36	7.25	-49.5	-52.8	12.2	2.84e-04	0	57	0	1181745152	61	5380
2026-01-03 05:27:27.09	307.09	7.06	-49.6	-53.1	11.9	3.81e-04	0	57	0	1188036608	61	5529
2026-01-03 05:27:30.05	306.82	6.87	-49.7	-53.4	11.4	8.86e-04	0	57	0	1193279488	61	5752
2026-01-03 05:27:33.01	306.56	6.68	-49.9	-53.9	10.7	2.62e-03	0	57	0	1198522368	61	6128
2026-01-03 05:27:35.98	306.30	6.50	-50.0	-54.3	10.3	5.37e-03	0	57	0	1204813824	61	6400
2026-01-03 05:27:38.95	306.04	6.31	-50.1	-54.6	10.0	9.39e-03	0	57	0	1210056704	62	6254
2026-01-03 05:27:41.92	305.78	6.12	-50.1	-54.7	9.9	9.89e-03	0	57	0	1215299584	62	6279
2026-01-03 05:27:44.88	305.53	5.94	-50.2	-55.0	9.5	1.64e-02	0	57	0	1220542464	62	6553
2026-01-03 05:27:47.85	305.28	5.76	-50.2	-55.0	9.4	1.11e-02	0	57	0	1226833920	62	6535
2026-01-03 05:27:50.81	305.04	5.57	-50.2	-55.3	8.9	2.27e-02	0	57	0	1232076800	62	6799
2026-01-03 05:27:53.78	304.80	5.39	-50.4	-56.2	8.0	5.89e-02	0	57	0	1237319680	62	7468
2026-01-03 05:27:56.75	304.56	5.21	-50.3	-56.0	8.1	6.00e-02	0	57	0	1243611136	62	7359
2026-01-03 05:27:59.70	304.32	5.03	-50.3	-56.2	7.9	6.63e-02	0	57	0	1248854016	62	7463
2026-01-03 05:28:02.68	304.09	4.85	-52.5	-66.5	3.8	1.49e+00	0	57	104	1249902592	66	19394
2026-01-03 05:28:05.64	303.86	4.67	-52.6	-66.5	3.8	1.49e+00	0	57	104	1249902592	67	18484
2026-01-03 05:28:08.61	303.63	4.49	-52.8	-66.8	3.8	1.49e+00	0	57	104	1249902592	67	19072
2026-01-03 05:28:11.58	303.41	4.31	-53.0	-66.9	3.8	1.49e+00	0	57	104	1249902592	67	19261
2026-01-03 05:28:14.55	303.19	4.13	-53.2	-67.1	3.8	1.49e+00	0	57	104	1249902592	68	18519
2026-01-03 05:28:17.51	302.97	3.96	-53.3	-67.1	3.8	1.49e+00	0	57	104	1249902592	68	18630
2026-01-03 05:28:20.48	302.75	3.78	-53.1	-67.1	3.8	1.49e+00	0	57	104	1249902592	68	18652
2026-01-03 05:28:23.45	302.54	3.61	-53.2	-67.2	3.8	1.49e+00	0	57	104	1249902592	68	18784
2026-01-03 05:28:26.41	302.33	3.43	-53.2	-67.2	3.8	1.49e+00	0	57	104	1249902592	68	18746
2026-01-03 05:28:29.38	302.12	3.26	-53.2	-67.1	3.8	1.49e+00	0	57	104	1249902592	68	18711
2026-01-03 05:28:32.34	301.92	3.09	-53.3	-67.1	3.8	1.49e+00	0	57	104	1249902592	68	18686
2026-01-03 05:28:35.30	301.72	2.92	-53.3	-67.1	3.8	1.49e+00	0	57	104	1249902592	68	18691

#Closed at: 2026-01-03 05:28:36
#Recorded file [1249 MB]: D:/Data/31026_260103_082800.dat