passes_logs/2026/01/03/R3.0SM8_Murmansk_STILSPACE/R3.0SM8_Murmansk_STILSPACE__20260103_041756_FENGYUN_3D_rec.log

#Pass ID: 20260103_041756_FENGYUN 3D
#Satellite: FENGYUN 3D
#Configuration: FENGYUN 3D
#almurnet v.1.7.20240730
#Start time: 2026-01-03 04:17:56

#Version: 2.2.20231116
#Station: R3.0SM8_Murmansk_STILSPACE
#Location: 33.092731 lon 68.902999 lat
#TLE: 1 43010U 17072A   26002.31768531  .00000715  00000+0  35975-3 0  9993
#TLE: 2 43010  98.9910 333.9388 0001871 131.0716 229.0622 14.19693418421454

#Time	Az	El	Level	Level2	SNR	BER	BlckErr	Temp	State	Recorded	gain1	gain2
2026-01-03 04:17:56.32	32.35	3.00	-53.2	-64.0	3.8	8.45e-01	0	45	0	0	68	13031
2026-01-03 04:18:00.28	32.21	3.25	-53.0	-63.6	3.8	8.46e-01	0	46	104	0	68	12506
2026-01-03 04:18:04.25	32.07	3.51	-52.2	-62.7	3.8	8.45e-01	0	46	104	0	67	11896
2026-01-03 04:18:08.20	31.92	3.77	-51.9	-60.8	3.8	8.46e-01	0	46	104	0	66	10099
2026-01-03 04:18:12.14	31.78	4.03	-51.1	-56.8	5.3	7.47e-01	0	47	0	0	65	6786
2026-01-03 04:18:16.09	31.63	4.29	-50.0	-53.7	8.0	9.00e-02	0	47	0	16777216	63	5317
2026-01-03 04:18:20.04	31.48	4.56	-48.4	-50.7	11.1	3.70e-03	0	47	0	38797312	59	4743
2026-01-03 04:18:24.00	31.32	4.83	-47.0	-48.6	13.3	5.14e-05	0	47	0	60817408	57	4175
2026-01-03 04:18:27.95	31.16	5.10	-46.5	-48.0	13.9	5.70e-06	0	48	0	83886080	56	4142
2026-01-03 04:18:31.92	31.00	5.37	-46.3	-47.7	14.2	4.50e-06	0	48	0	105906176	55	4211
2026-01-03 04:18:35.86	30.83	5.65	-46.4	-47.8	14.1	6.80e-06	0	48	0	127926272	55	4266
2026-01-03 04:18:39.81	30.66	5.93	-46.1	-47.5	14.5	1.10e-06	0	48	0	149946368	54	4354
2026-01-03 04:18:43.78	30.49	6.21	-46.1	-47.5	14.6	0.00e+00	0	49	0	173015040	54	4346
2026-01-03 04:18:47.74	30.31	6.49	-46.4	-47.8	14.3	2.20e-06	0	49	0	195035136	54	4497
2026-01-03 04:18:51.69	30.13	6.78	-45.9	-47.2	14.9	0.00e+00	0	49	0	217055232	54	4236
2026-01-03 04:18:55.65	29.95	7.07	-46.0	-47.3	14.8	0.00e+00	0	49	0	239075328	54	4262
2026-01-03 04:18:59.61	29.76	7.36	-45.4	-46.5	15.6	0.00e+00	0	49	0	261095424	53	4124
2026-01-03 04:19:03.57	29.57	7.66	-45.3	-46.4	15.7	0.00e+00	0	50	0	284164096	53	4098
2026-01-03 04:19:07.52	29.37	7.96	-45.2	-46.3	15.9	1.10e-06	0	50	0	306184192	53	4024
2026-01-03 04:19:11.47	29.17	8.26	-45.4	-46.5	15.7	0.00e+00	0	50	0	328204288	53	4136
2026-01-03 04:19:15.40	28.96	8.57	-45.2	-46.3	15.9	0.00e+00	0	50	0	350224384	53	4034
2026-01-03 04:19:19.35	28.75	8.87	-45.2	-46.3	16.0	0.00e+00	0	50	0	372244480	53	4023
2026-01-03 04:19:23.29	28.54	9.19	-45.2	-46.3	16.0	0.00e+00	0	51	0	395313152	53	4020
2026-01-03 04:19:27.23	28.32	9.50	-45.2	-46.3	16.0	0.00e+00	0	51	0	417333248	53	4039
2026-01-03 04:19:31.17	28.09	9.82	-45.2	-46.3	16.0	0.00e+00	0	51	0	439353344	53	4020
2026-01-03 04:19:35.12	27.86	10.14	-45.1	-46.2	16.1	0.00e+00	0	51	0	461373440	53	3987
2026-01-03 04:19:39.09	27.62	10.47	-45.0	-46.0	16.4	0.00e+00	0	51	0	483393536	53	3908
2026-01-03 04:19:43.05	27.38	10.80	-44.8	-45.8	16.6	0.00e+00	0	51	0	506462208	52	4028
2026-01-03 04:19:47.00	27.13	11.14	-44.9	-45.9	16.5	0.00e+00	0	51	0	528482304	52	4079
2026-01-03 04:19:50.97	26.88	11.48	-44.5	-45.4	16.9	0.00e+00	0	52	0	550502400	52	3866
2026-01-03 04:19:54.93	26.62	11.82	-44.6	-45.6	16.9	0.00e+00	0	52	0	572522496	52	3920
2026-01-03 04:19:58.87	26.35	12.17	-44.5	-45.4	17.1	0.00e+00	0	52	0	594542592	52	3837
2026-01-03 04:20:02.82	26.08	12.52	-44.6	-45.5	17.0	0.00e+00	0	52	0	617611264	52	3896
2026-01-03 04:20:06.78	25.79	12.88	-44.5	-45.5	17.0	0.00e+00	0	52	0	639631360	52	3879
2026-01-03 04:20:10.74	25.51	13.24	-44.5	-45.5	17.0	0.00e+00	0	52	0	661651456	52	3869
2026-01-03 04:20:14.68	25.21	13.60	-44.4	-45.4	17.2	0.00e+00	0	53	0	683671552	51	4052
2026-01-03 04:20:18.64	24.91	13.97	-44.1	-44.9	17.7	0.00e+00	0	52	0	705691648	51	3857
2026-01-03 04:20:22.60	24.59	14.35	-44.2	-45.1	17.5	0.00e+00	0	53	0	728760320	51	3944
2026-01-03 04:20:26.55	24.27	14.73	-44.5	-45.4	17.3	0.00e+00	0	53	0	750780416	51	4076
2026-01-03 04:20:30.48	23.95	15.11	-44.4	-45.3	17.4	0.00e+00	0	53	0	772800512	51	4010
2026-01-03 04:20:34.44	23.61	15.50	-44.5	-45.4	17.2	0.00e+00	0	53	0	794820608	51	4086
2026-01-03 04:20:38.41	23.26	15.90	-43.8	-44.6	18.0	0.00e+00	0	53	0	816840704	50	3948
2026-01-03 04:20:42.36	22.90	16.30	-43.2	-43.9	18.7	0.00e+00	0	53	0	839909376	49	3849
2026-01-03 04:20:46.32	22.53	16.70	-43.6	-44.3	18.3	0.00e+00	0	53	0	861929472	49	4041
2026-01-03 04:20:50.29	22.15	17.12	-43.7	-44.5	18.1	0.00e+00	0	54	0	883949568	49	4133
2026-01-03 04:20:54.24	21.77	17.54	-43.2	-43.9	18.7	0.00e+00	0	53	0	905969664	49	3848
2026-01-03 04:20:58.21	21.36	17.96	-43.1	-43.8	18.8	0.00e+00	0	54	0	929038336	49	3819
2026-01-03 04:21:02.16	20.95	18.39	-42.9	-43.6	19.1	0.00e+00	0	54	0	951058432	49	3721
2026-01-03 04:21:06.12	20.53	18.82	-42.9	-43.6	19.1	0.00e+00	0	54	0	973078528	48	3949
2026-01-03 04:21:10.07	20.09	19.27	-42.8	-43.5	19.1	0.00e+00	0	54	0	995098624	48	3905
2026-01-03 04:21:14.02	19.64	19.71	-42.5	-43.2	19.5	0.00e+00	0	54	0	1017118720	48	3752
2026-01-03 04:21:17.99	19.17	20.17	-42.4	-43.1	19.6	0.00e+00	0	54	0	1040187392	48	3711
2026-01-03 04:21:21.94	18.70	20.63	-42.5	-43.1	19.6	0.00e+00	0	54	0	1062207488	48	3727
2026-01-03 04:21:25.90	18.20	21.09	-42.9	-43.6	19.1	0.00e+00	0	54	0	1084227584	48	3951
2026-01-03 04:21:29.86	17.69	21.57	-42.8	-43.5	19.3	0.00e+00	0	54	0	1106247680	48	3877
2026-01-03 04:21:33.81	17.16	22.04	-42.8	-43.5	19.2	0.00e+00	0	54	0	1129316352	48	3909
2026-01-03 04:21:37.77	16.62	22.53	-43.1	-43.8	18.9	0.00e+00	0	54	0	1151336448	48	4043
2026-01-03 04:21:41.73	16.06	23.02	-42.5	-43.1	19.6	0.00e+00	0	54	0	1173356544	48	3731
2026-01-03 04:21:45.68	15.48	23.52	-42.1	-42.8	19.8	0.00e+00	0	55	0	1195376640	47	3793
2026-01-03 04:21:49.64	14.88	24.02	-41.8	-42.5	20.1	0.00e+00	0	55	0	1218445312	46	3873
2026-01-03 04:21:53.59	14.26	24.53	-42.2	-42.9	19.6	0.00e+00	0	55	0	1240465408	46	4090
2026-01-03 04:21:57.54	13.62	25.05	-41.8	-42.5	19.9	0.00e+00	0	55	0	1262485504	46	3881
2026-01-03 04:22:01.50	12.96	25.57	-41.8	-42.5	19.5	0.00e+00	0	55	0	1284505600	45	4125
2026-01-03 04:22:05.44	12.28	26.10	-44.0	-45.0	16.8	0.00e+00	0	55	0	1306525696	49	4362
2026-01-03 04:22:09.40	11.57	26.64	-46.6	-48.3	13.2	3.43e-05	0	55	0	1329594368	55	4498
2026-01-03 04:22:13.36	10.84	27.18	-44.8	-46.0	15.7	0.00e+00	0	55	0	1351614464	52	4100
2026-01-03 04:22:17.31	10.08	27.72	-43.6	-44.4	17.8	0.00e+00	0	55	0	1373634560	50	3848
2026-01-03 04:22:21.27	9.29	28.27	-42.7	-43.4	19.1	0.00e+00	0	55	0	1395654656	48	3859
2026-01-03 04:22:25.23	8.48	28.83	-41.8	-42.4	20.1	0.00e+00	0	55	0	1418723328	46	3845
2026-01-03 04:22:29.18	7.63	29.39	-41.8	-42.4	20.2	0.00e+00	0	55	0	1440743424	46	3848
2026-01-03 04:22:33.14	6.76	29.96	-41.4	-42.0	20.6	0.00e+00	0	55	0	1462763520	45	3890
2026-01-03 04:22:37.09	5.85	30.52	-41.3	-41.9	20.6	0.00e+00	0	55	0	1484783616	45	3857
2026-01-03 04:22:41.05	4.92	31.09	-41.3	-41.9	20.7	0.00e+00	0	55	0	1506803712	45	3841
2026-01-03 04:22:45.01	3.94	31.67	-41.4	-42.0	20.6	0.00e+00	0	56	0	1529872384	45	3899
2026-01-03 04:22:48.97	2.93	32.24	-41.2	-41.8	20.8	0.00e+00	0	56	0	1551892480	45	3789
2026-01-03 04:22:52.92	1.89	32.81	-40.8	-41.3	21.2	0.00e+00	0	56	0	1573912576	44	3814
2026-01-03 04:22:56.88	0.81	33.39	-41.3	-41.9	20.7	0.00e+00	0	55	0	1595932672	44	4087
2026-01-03 04:23:00.84	359.68	33.96	-41.0	-41.6	21.0	0.00e+00	0	55	0	1619001344	44	3938
2026-01-03 04:23:04.80	358.52	34.53	-41.3	-41.9	20.7	0.00e+00	0	56	0	1641021440	44	4076
2026-01-03 04:23:08.75	357.31	35.10	-40.8	-41.3	21.3	0.00e+00	0	56	0	1663041536	44	3815
2026-01-03 04:23:12.71	356.07	35.66	-40.8	-41.4	21.2	0.00e+00	0	56	0	1685061632	44	3826
2026-01-03 04:23:16.66	354.78	36.21	-40.9	-41.4	21.1	0.00e+00	0	56	0	1707081728	44	3858
2026-01-03 04:23:20.62	353.44	36.76	-41.5	-42.1	20.6	0.00e+00	0	55	0	1730150400	44	4153
2026-01-03 04:23:24.58	352.06	37.30	-40.9	-41.4	21.1	0.00e+00	0	56	0	1752170496	45	3652
2026-01-03 04:23:28.53	350.63	37.83	-41.2	-41.8	20.8	0.00e+00	0	56	0	1774190592	44	4020
2026-01-03 04:23:32.49	349.15	38.34	-41.0	-41.5	21.1	0.00e+00	0	56	0	1796210688	44	3913
2026-01-03 04:23:36.44	347.63	38.84	-41.2	-41.8	20.8	0.00e+00	0	56	0	1819279360	44	4026
2026-01-03 04:23:40.40	346.06	39.32	-41.1	-41.7	21.0	0.00e+00	0	56	0	1841299456	44	3979
2026-01-03 04:23:44.37	344.44	39.79	-40.9	-41.5	21.2	0.00e+00	0	56	0	1863319552	45	3659
2026-01-03 04:23:48.31	342.78	40.23	-40.9	-41.5	21.1	0.00e+00	0	56	0	1885339648	44	3879
2026-01-03 04:23:52.26	341.08	40.65	-40.9	-41.4	21.2	0.00e+00	0	56	0	1907359744	44	3861
2026-01-03 04:23:56.23	339.32	41.04	-41.3	-41.9	20.7	0.00e+00	0	56	0	1930428416	44	4098
2026-01-03 04:24:00.19	337.53	41.41	-40.4	-41.0	21.6	0.00e+00	0	56	0	1952448512	44	3665
2026-01-03 04:24:04.15	335.69	41.75	-40.8	-41.3	21.3	0.00e+00	0	56	0	1974468608	44	3814
2026-01-03 04:24:08.12	333.81	42.06	-40.7	-41.3	21.4	0.00e+00	0	56	0	1996488704	44	3785
2026-01-03 04:24:12.07	331.91	42.33	-40.5	-41.1	21.6	0.00e+00	0	56	0	2019557376	44	3700
2026-01-03 04:24:16.03	329.97	42.57	-40.7	-41.3	21.4	0.00e+00	0	56	0	2041577472	44	3789
2026-01-03 04:24:20.00	328.00	42.78	-41.3	-41.9	20.8	0.00e+00	0	56	0	2063597568	44	4077
2026-01-03 04:24:23.95	326.02	42.94	-41.1	-41.6	21.0	0.00e+00	0	56	0	2085617664	44	3955
2026-01-03 04:24:27.91	324.01	43.07	-40.9	-41.5	21.1	0.00e+00	0	56	0	2108686336	44	3891
2026-01-03 04:24:31.84	322.01	43.16	-40.6	-41.1	21.5	0.00e+00	0	56	0	2130706432	44	3726
2026-01-03 04:24:35.79	319.98	43.21	-40.7	-41.3	21.4	0.00e+00	0	56	0	2152726528	44	3802
2026-01-03 04:24:39.74	317.96	43.22	-40.7	-41.3	21.4	0.00e+00	0	56	0	2174746624	44	3790
2026-01-03 04:24:43.70	315.92	43.18	-40.0	-40.6	21.9	0.00e+00	0	56	0	2196766720	42	3919
2026-01-03 04:24:47.66	313.90	43.11	-40.6	-41.2	21.3	0.00e+00	0	56	0	2219835392	43	3971
2026-01-03 04:24:51.63	311.88	43.00	-40.4	-41.0	21.5	0.00e+00	0	56	0	2241855488	43	3881
2026-01-03 04:24:55.59	309.88	42.85	-40.4	-40.9	21.6	0.00e+00	0	56	0	2263875584	43	3865
2026-01-03 04:24:59.54	307.91	42.66	-40.1	-40.6	21.9	0.00e+00	0	56	0	2285895680	43	3720
2026-01-03 04:25:03.51	305.96	42.43	-40.3	-40.8	21.7	0.00e+00	0	56	0	2308964352	43	3809
2026-01-03 04:25:07.45	304.04	42.17	-40.4	-40.9	21.6	0.00e+00	0	56	0	2330984448	43	3847
2026-01-03 04:25:11.43	302.15	41.87	-40.6	-41.2	21.3	0.00e+00	0	56	0	2353004544	43	3970
2026-01-03 04:25:15.37	300.30	41.55	-40.4	-41.0	21.5	0.00e+00	0	56	0	2375024640	43	3873
2026-01-03 04:25:19.33	298.49	41.19	-40.6	-41.2	21.3	0.00e+00	0	56	0	2398093312	43	3967
2026-01-03 04:25:23.28	296.72	40.80	-40.4	-40.9	21.6	0.00e+00	0	56	0	2420113408	43	3851
2026-01-03 04:25:27.25	294.99	40.39	-40.7	-41.2	21.3	0.00e+00	0	56	0	2442133504	43	3987
2026-01-03 04:25:31.18	293.32	39.96	-40.2	-40.7	21.8	0.00e+00	0	56	0	2464153600	43	3769
2026-01-03 04:25:35.14	291.68	39.50	-40.7	-41.3	21.3	0.00e+00	0	56	0	2486173696	43	4012
2026-01-03 04:25:39.09	290.09	39.03	-40.5	-41.0	21.5	0.00e+00	0	56	0	2509242368	43	3904
2026-01-03 04:25:43.05	288.55	38.53	-40.4	-41.0	21.5	0.00e+00	0	56	0	2531262464	43	3882
2026-01-03 04:25:47.01	287.05	38.02	-40.6	-41.2	21.3	0.00e+00	0	57	0	2553282560	43	3971
2026-01-03 04:25:50.96	285.60	37.50	-40.5	-41.1	21.4	0.00e+00	0	56	0	2575302656	43	3930
2026-01-03 04:25:54.91	284.20	36.96	-40.5	-41.0	21.4	0.00e+00	0	57	0	2597322752	43	3911
2026-01-03 04:25:58.87	282.84	36.42	-40.8	-41.4	21.1	0.00e+00	0	56	0	2620391424	43	4071
2026-01-03 04:26:02.83	281.53	35.86	-40.9	-41.4	21.1	0.00e+00	0	56	0	2642411520	43	4086
2026-01-03 04:26:06.78	280.27	35.30	-40.3	-40.9	21.6	0.00e+00	0	56	0	2664431616	43	3838
2026-01-03 04:26:10.73	279.04	34.74	-39.9	-40.4	22.1	0.00e+00	0	56	0	2686451712	42	3826
2026-01-03 04:26:14.70	277.86	34.17	-40.4	-40.9	21.5	0.00e+00	0	56	0	2709520384	42	4091
2026-01-03 04:26:18.64	276.72	33.60	-40.7	-41.2	21.3	0.00e+00	0	57	0	2731540480	43	3990
2026-01-03 04:26:22.59	275.62	33.02	-40.4	-40.9	21.6	0.00e+00	0	56	0	2753560576	43	3849
2026-01-03 04:26:26.55	274.56	32.44	-40.5	-41.1	21.4	0.00e+00	0	57	0	2775580672	43	3923
2026-01-03 04:26:30.49	273.54	31.87	-40.4	-40.9	21.6	0.00e+00	0	57	0	2797600768	43	3846
2026-01-03 04:26:34.45	272.55	31.30	-40.5	-41.0	21.5	0.00e+00	0	56	0	2819620864	43	3886
2026-01-03 04:26:38.41	271.59	30.72	-40.7	-41.3	21.2	0.00e+00	0	57	0	2842689536	43	4035
2026-01-03 04:26:42.37	270.67	30.15	-40.6	-41.2	21.3	0.00e+00	0	57	0	2864709632	43	3964
2026-01-03 04:26:46.33	269.78	29.58	-40.8	-41.4	21.1	0.00e+00	0	57	0	2886729728	43	4067
2026-01-03 04:26:50.30	268.92	29.02	-41.4	-42.0	20.6	0.00e+00	0	57	0	2908749824	44	4136
2026-01-03 04:26:54.26	268.09	28.46	-41.2	-41.7	20.9	0.00e+00	0	57	0	2931818496	44	3996
2026-01-03 04:26:58.22	267.29	27.90	-41.2	-41.8	20.8	0.00e+00	0	57	0	2953838592	44	4034
2026-01-03 04:27:02.18	266.52	27.35	-41.8	-42.5	20.1	0.00e+00	0	57	0	2975858688	45	4101
2026-01-03 04:27:06.14	265.77	26.81	-41.8	-42.5	20.1	0.00e+00	0	57	0	2998927360	45	4101
2026-01-03 04:27:10.10	265.05	26.27	-41.2	-41.8	20.7	0.00e+00	0	57	0	3020947456	45	3805
2026-01-03 04:27:14.05	264.36	25.74	-41.7	-42.4	20.2	0.00e+00	0	57	0	3042967552	45	4053
2026-01-03 04:27:17.99	263.69	25.21	-42.2	-42.8	19.8	0.00e+00	0	57	0	3064987648	46	4040
2026-01-03 04:27:21.95	263.04	24.69	-41.4	-42.1	20.5	0.00e+00	0	57	0	3087007744	46	3701
2026-01-03 04:27:25.90	262.41	24.18	-41.5	-42.1	20.4	0.00e+00	0	57	0	3109027840	46	3724
2026-01-03 04:27:29.85	261.80	23.67	-41.5	-42.1	20.4	0.00e+00	0	57	0	3132096512	45	3941
2026-01-03 04:27:33.81	261.21	23.17	-41.7	-42.3	20.3	0.00e+00	0	57	0	3154116608	45	4021
2026-01-03 04:27:37.77	260.64	22.67	-41.7	-42.3	20.3	0.00e+00	0	57	0	3176136704	45	4015
2026-01-03 04:27:41.74	260.09	22.18	-41.4	-42.1	20.5	0.00e+00	0	57	0	3198156800	45	3914
2026-01-03 04:27:45.69	259.55	21.70	-41.9	-42.6	20.0	0.00e+00	0	57	0	3221225472	45	4162
2026-01-03 04:27:49.65	259.03	21.22	-42.0	-42.6	19.9	0.00e+00	0	57	0	3243245568	46	3946
2026-01-03 04:27:53.61	258.53	20.75	-41.9	-42.5	20.0	0.00e+00	0	57	0	3265265664	46	3906
2026-01-03 04:27:57.58	258.04	20.29	-41.8	-42.5	20.1	0.00e+00	0	57	0	3288334336	46	3873
2026-01-03 04:28:01.53	257.57	19.83	-41.9	-42.5	20.0	0.00e+00	0	57	0	3310354432	46	3902
2026-01-03 04:28:05.49	257.11	19.38	-42.4	-43.1	19.5	0.00e+00	0	57	0	3332374528	46	4147
2026-01-03 04:28:09.45	256.67	18.93	-42.7	-43.5	19.1	0.00e+00	0	57	0	3354394624	47	4105
2026-01-03 04:28:13.40	256.24	18.49	-42.7	-43.4	19.3	0.00e+00	0	57	0	3376414720	48	3826
2026-01-03 04:28:17.34	255.82	18.06	-42.8	-43.5	19.2	0.00e+00	0	57	0	3398434816	48	3890
2026-01-03 04:28:21.29	255.41	17.64	-42.9	-43.6	19.1	0.00e+00	0	57	0	3421503488	48	3949
2026-01-03 04:28:25.24	255.02	17.22	-43.0	-43.7	19.0	0.00e+00	0	57	0	3443523584	48	3967
2026-01-03 04:28:29.19	254.63	16.80	-43.2	-43.9	18.8	0.00e+00	0	57	0	3465543680	48	4081
2026-01-03 04:28:33.13	254.26	16.39	-43.5	-44.3	18.4	0.00e+00	0	57	0	3487563776	48	4256
2026-01-03 04:28:37.09	253.90	15.99	-43.6	-44.4	18.3	0.00e+00	0	57	0	3509583872	48	4302
2026-01-03 04:28:41.04	253.55	15.59	-43.7	-44.5	18.2	0.00e+00	0	57	0	3532652544	49	4132
2026-01-03 04:28:44.99	253.20	15.20	-43.7	-44.5	18.1	0.00e+00	0	57	0	3554672640	49	4139
2026-01-03 04:28:48.95	252.87	14.81	-43.5	-44.3	18.4	0.00e+00	0	57	0	3576692736	49	4005
2026-01-03 04:28:52.92	252.54	14.43	-43.6	-44.3	18.3	0.00e+00	0	57	0	3598712832	49	4041
2026-01-03 04:28:56.88	252.22	14.05	-43.7	-44.5	18.1	0.00e+00	0	57	0	3621781504	49	4137
2026-01-03 04:29:00.84	251.91	13.67	-44.0	-44.8	17.8	0.00e+00	0	57	0	3643801600	50	4030
2026-01-03 04:29:04.80	251.61	13.31	-44.0	-44.9	17.7	0.00e+00	0	57	0	3665821696	50	4074
2026-01-03 04:29:08.77	251.32	12.94	-44.1	-44.9	17.7	0.00e+00	0	57	0	3687841792	50	4090
2026-01-03 04:29:12.73	251.03	12.58	-44.1	-45.0	17.7	0.00e+00	0	57	0	3710910464	50	4106
2026-01-03 04:29:16.68	250.75	12.23	-44.1	-44.9	17.7	0.00e+00	0	57	0	3732930560	50	4086
2026-01-03 04:29:20.65	250.48	11.88	-44.4	-45.3	17.3	0.00e+00	0	57	0	3754950656	50	4275
2026-01-03 04:29:24.61	250.21	11.53	-44.6	-45.5	17.1	0.00e+00	0	57	0	3776970752	51	4135
2026-01-03 04:29:28.55	249.96	11.19	-44.7	-45.7	16.9	0.00e+00	0	57	0	3798990848	51	4218
2026-01-03 04:29:32.49	249.71	10.85	-44.5	-45.4	17.1	0.00e+00	0	57	0	3822059520	51	4084
2026-01-03 04:29:36.45	249.46	10.52	-44.5	-45.5	17.1	0.00e+00	0	57	0	3844079616	51	4103
2026-01-03 04:29:40.41	249.22	10.19	-44.6	-45.6	16.9	0.00e+00	0	57	0	3866099712	51	4167
2026-01-03 04:29:44.36	248.98	9.86	-44.6	-45.6	16.9	0.00e+00	0	57	0	3888119808	51	4167
2026-01-03 04:29:48.31	248.75	9.54	-44.8	-45.8	16.7	0.00e+00	0	57	0	3910139904	51	4266
2026-01-03 04:29:52.25	248.53	9.23	-44.8	-45.8	16.7	0.00e+00	0	57	0	3933208576	51	4273
2026-01-03 04:29:56.20	248.31	8.91	-45.1	-46.1	16.3	0.00e+00	0	57	0	3955228672	51	4416
2026-01-03 04:30:00.17	248.09	8.60	-45.0	-46.1	16.2	0.00e+00	0	57	0	3977248768	52	4169
2026-01-03 04:30:04.12	247.88	8.29	-44.8	-45.9	16.5	0.00e+00	0	57	0	3999268864	52	4054
2026-01-03 04:30:08.08	247.68	7.99	-45.0	-46.1	16.2	0.00e+00	0	57	0	4022337536	52	4152
2026-01-03 04:30:12.03	247.48	7.69	-45.0	-46.1	16.2	0.00e+00	0	57	0	4044357632	52	4163
2026-01-03 04:30:15.99	247.28	7.39	-45.2	-46.3	16.0	0.00e+00	0	57	0	4066377728	52	4262
2026-01-03 04:30:19.94	247.09	7.09	-45.3	-46.4	15.8	0.00e+00	0	57	0	4088397824	52	4321
2026-01-03 04:30:23.90	246.90	6.80	-45.5	-46.7	15.5	0.00e+00	0	57	0	4110417920	52	4444
2026-01-03 04:30:27.85	246.72	6.51	-45.5	-46.7	15.4	0.00e+00	0	57	0	4132438016	52	4480
2026-01-03 04:30:31.80	246.54	6.23	-45.4	-46.6	15.5	0.00e+00	0	57	0	4155506688	53	4160
2026-01-03 04:30:35.76	246.36	5.94	-45.6	-46.8	15.2	0.00e+00	0	57	0	4177526784	53	4284
2026-01-03 04:30:39.71	246.19	5.66	-45.8	-47.1	15.0	0.00e+00	0	57	0	4199546880	54	4153
2026-01-03 04:30:43.66	246.02	5.39	-46.0	-47.3	14.7	1.10e-06	0	57	0	4221566976	54	4253
2026-01-03 04:30:47.60	245.85	5.11	-46.1	-47.4	14.5	0.00e+00	0	57	0	4243587072	54	4317
2026-01-03 04:30:51.55	245.69	4.84	-52.6	-63.4	3.8	8.47e-01	0	57	104	4253024256	67	12855
2026-01-03 04:30:55.51	245.53	4.57	-53.1	-63.8	3.8	8.46e-01	0	57	104	4253024256	67	13489
2026-01-03 04:30:59.46	245.37	4.30	-53.1	-64.0	3.8	8.47e-01	0	57	104	4253024256	68	13053
2026-01-03 04:31:03.42	245.22	4.04	-53.4	-64.1	3.8	8.48e-01	0	57	104	4253024256	68	13166
2026-01-03 04:31:07.38	245.07	3.78	-53.4	-64.1	3.8	8.46e-01	0	57	104	4253024256	68	13249
2026-01-03 04:31:11.34	244.92	3.52	-53.5	-64.2	3.8	8.46e-01	0	57	104	4253024256	68	13346
2026-01-03 04:31:15.30	244.78	3.26	-53.4	-64.2	3.8	8.46e-01	0	57	104	4253024256	68	13349
2026-01-03 04:31:19.25	244.64	3.00	-53.4	-64.2	3.8	8.45e-01	0	57	104	4253024256	68	13343

#Closed at: 2026-01-03 04:31:19
#Recorded file [4253 MB]: D:/Data/31026_260103_073049.dat