passes_logs/2026/01/03/R3.0SM8_Murmansk_STILSPACE/R3.0SM8_Murmansk_STILSPACE__20260103_042443_FENGYUN_3E_rec.log

#Pass ID: 20260103_042443_FENGYUN 3E
#Satellite: FENGYUN 3E
#Configuration: FENGYUN 3E
#almurnet v.1.7.20240730
#Start time: 2026-01-03 04:31:27

#Version: 2.2.20231116
#Station: R3.0SM8_Murmansk_STILSPACE
#Location: 33.092731 lon 68.902999 lat
#TLE: 1 49008U 21062A   26002.32147302  .00000239  00000+0  13357-3 0  9999
#TLE: 2 49008  98.7477   7.5995 0001398 164.3382 195.7838 14.19884140233041

#Time	Az	El	Level	Level2	SNR	BER	BlckErr	Temp	State	Recorded	gain1	gain2
2026-01-03 04:31:27.12	89.56	66.60	-53.4	-64.2	3.8	8.46e-01	0	56	0	0	68	13287
2026-01-03 04:31:29.08	91.81	66.87	-53.4	-63.5	3.8	8.46e-01	0	57	104	0	69	11543
2026-01-03 04:31:31.05	94.14	67.11	-53.4	-63.6	3.8	8.47e-01	0	57	104	0	69	11591
2026-01-03 04:31:33.03	96.52	67.32	-53.4	-63.6	3.8	8.46e-01	0	57	104	0	69	11617
2026-01-03 04:31:35.00	98.94	67.49	-53.4	-63.6	3.8	8.47e-01	0	57	104	0	69	11585
2026-01-03 04:31:36.96	101.38	67.62	-53.3	-63.6	3.8	8.47e-01	0	57	104	0	69	11561
2026-01-03 04:31:38.93	103.86	67.72	-53.4	-63.6	3.8	8.47e-01	0	57	104	0	69	11640
2026-01-03 04:31:40.92	106.39	67.77	-53.4	-63.6	3.8	8.48e-01	0	57	104	0	69	11620
2026-01-03 04:31:42.89	108.89	67.79	-53.3	-63.6	3.8	8.46e-01	0	57	104	0	69	11603
2026-01-03 04:31:44.87	111.41	67.77	-53.4	-63.5	3.8	8.46e-01	0	57	104	0	69	11532
2026-01-03 04:31:46.85	113.92	67.71	-53.4	-63.6	3.8	8.46e-01	0	57	104	0	69	11644
2026-01-03 04:31:48.81	116.39	67.61	-53.4	-63.6	3.8	8.46e-01	0	57	104	0	69	11622
2026-01-03 04:31:50.79	118.85	67.48	-53.4	-63.6	3.8	8.46e-01	0	57	104	0	69	11567
2026-01-03 04:31:52.76	121.27	67.30	-53.4	-63.6	3.8	8.46e-01	0	57	104	0	69	11582
2026-01-03 04:31:54.74	123.65	67.09	-53.3	-63.5	3.8	8.45e-01	0	57	104	0	69	11524
2026-01-03 04:31:56.73	126.00	66.85	-53.4	-63.6	3.8	8.46e-01	0	57	104	0	69	11557
2026-01-03 04:31:58.72	128.28	66.57	-53.3	-63.5	3.8	8.47e-01	0	57	104	0	69	11509
2026-01-03 04:32:00.71	130.51	66.26	-53.3	-63.5	3.8	8.45e-01	0	57	104	0	69	11427
2026-01-03 04:32:02.69	132.66	65.92	-53.3	-63.0	3.8	8.46e-01	0	57	104	0	69	10896
2026-01-03 04:32:04.67	134.74	65.55	-53.2	-63.3	3.8	8.47e-01	0	57	104	0	69	11240
2026-01-03 04:32:06.64	136.74	65.16	-53.3	-63.3	3.8	8.45e-01	0	57	104	0	69	11167
2026-01-03 04:32:08.61	138.67	64.75	-53.3	-63.2	3.8	8.46e-01	0	57	104	0	69	11059
2026-01-03 04:32:10.59	140.54	64.31	-53.1	-61.8	3.8	8.45e-01	0	57	104	0	68	10013
2026-01-03 04:32:12.56	142.33	63.85	-52.8	-61.5	3.8	8.45e-01	0	57	104	0	68	9617
2026-01-03 04:32:14.54	144.05	63.37	-53.3	-62.8	3.8	8.46e-01	0	57	104	0	68	11171
2026-01-03 04:32:16.52	145.71	62.88	-53.1	-61.7	3.8	8.45e-01	0	57	104	0	68	9867
2026-01-03 04:32:18.49	147.29	62.37	-52.7	-59.4	4.0	8.43e-01	0	57	104	0	68	7630
2026-01-03 04:32:20.47	148.82	61.85	-44.5	-45.3	17.1	0.00e+00	0	57	0	11534336	52	3744
2026-01-03 04:32:22.45	150.28	61.31	-43.2	-43.8	18.5	0.00e+00	0	57	0	25165824	47	4235
2026-01-03 04:32:24.42	151.67	60.77	-43.1	-43.7	18.7	0.00e+00	0	57	0	39845888	49	3720
2026-01-03 04:32:26.41	153.02	60.21	-42.4	-43.0	19.2	0.00e+00	0	57	0	53477376	47	3855
2026-01-03 04:32:28.38	154.29	59.64	-42.8	-43.4	18.9	0.00e+00	0	57	0	68157440	47	4011
2026-01-03 04:32:30.35	155.51	59.07	-42.5	-43.1	19.1	0.00e+00	0	57	0	82837504	47	3870
2026-01-03 04:32:32.34	156.70	58.49	-42.7	-43.3	19.0	0.00e+00	0	57	0	96468992	47	3959
2026-01-03 04:32:34.31	157.82	57.91	-42.6	-43.2	19.0	0.00e+00	0	57	0	111149056	47	3934
2026-01-03 04:32:36.29	158.89	57.32	-42.7	-43.3	18.9	0.00e+00	0	58	0	125829120	47	3963
2026-01-03 04:32:38.27	159.93	56.73	-42.7	-43.4	18.8	0.00e+00	0	57	0	139460608	47	4010
2026-01-03 04:32:40.25	160.92	56.14	-43.4	-44.0	18.4	0.00e+00	0	57	0	154140672	48	4078
2026-01-03 04:32:42.23	161.87	55.55	-43.5	-44.1	18.3	0.00e+00	0	57	0	168820736	49	3884
2026-01-03 04:32:44.20	162.77	54.96	-43.1	-43.6	18.8	0.00e+00	0	58	0	182452224	49	3694
2026-01-03 04:32:46.18	163.65	54.36	-43.2	-43.9	18.6	0.00e+00	0	57	0	197132288	48	4008
2026-01-03 04:32:48.15	164.48	53.77	-42.9	-43.5	18.9	0.00e+00	0	57	0	210763776	48	3850
2026-01-03 04:32:50.13	165.29	53.18	-42.6	-43.2	19.2	0.00e+00	0	57	0	225443840	48	3725
2026-01-03 04:32:52.10	166.06	52.59	-42.7	-43.3	19.2	0.00e+00	0	57	0	239075328	48	3763
2026-01-03 04:32:54.07	166.80	52.00	-42.7	-43.3	19.2	0.00e+00	0	58	0	253755392	48	3749
2026-01-03 04:32:56.05	167.51	51.42	-42.2	-42.8	19.4	0.00e+00	0	57	0	268435456	47	3743
2026-01-03 04:32:58.01	168.20	50.84	-42.4	-43.0	19.2	0.00e+00	0	57	0	282066944	47	3847
2026-01-03 04:32:59.99	168.86	50.26	-42.6	-43.2	19.1	0.00e+00	0	57	0	296747008	47	3917
2026-01-03 04:33:01.97	169.50	49.68	-42.4	-43.0	19.1	0.00e+00	0	58	0	310378496	47	3865
2026-01-03 04:33:03.95	170.11	49.11	-42.6	-43.2	19.0	0.00e+00	0	58	0	325058560	47	3933
2026-01-03 04:33:05.92	170.70	48.54	-42.8	-43.5	18.7	0.00e+00	0	58	0	339738624	47	4059
2026-01-03 04:33:07.89	171.27	47.98	-42.8	-43.4	18.8	0.00e+00	0	57	0	353370112	47	4020
2026-01-03 04:33:09.87	171.82	47.41	-42.3	-42.9	19.3	0.00e+00	0	58	0	368050176	47	3799
2026-01-03 04:33:11.85	172.35	46.86	-41.8	-42.3	19.9	0.00e+00	0	57	0	381681664	46	3770
2026-01-03 04:33:13.83	172.87	46.31	-41.6	-42.1	20.1	0.00e+00	0	57	0	396361728	46	3694
2026-01-03 04:33:15.80	173.36	45.76	-41.4	-41.9	20.3	0.00e+00	0	57	0	409993216	45	3782
2026-01-03 04:33:17.78	173.85	45.22	-41.1	-41.6	20.6	0.00e+00	0	58	0	424673280	45	3661
2026-01-03 04:33:19.75	174.31	44.69	-41.2	-41.7	20.4	0.00e+00	0	58	0	439353344	45	3727
2026-01-03 04:33:21.74	174.76	44.15	-41.2	-41.7	20.2	0.00e+00	0	58	0	452984832	45	3727
2026-01-03 04:33:23.72	175.20	43.63	-41.5	-42.1	20.1	0.00e+00	0	58	0	467664896	44	4100
2026-01-03 04:33:25.70	175.62	43.11	-41.0	-41.5	20.6	0.00e+00	0	57	0	482344960	44	3848
2026-01-03 04:33:27.69	176.03	42.59	-40.9	-41.4	20.7	0.00e+00	0	57	0	495976448	44	3813
2026-01-03 04:33:29.66	176.42	42.08	-41.1	-41.6	20.6	0.00e+00	0	57	0	510656512	44	3873
2026-01-03 04:33:31.63	176.80	41.58	-41.2	-41.7	20.1	0.00e+00	0	57	0	525336576	44	3958
2026-01-03 04:33:33.61	177.18	41.08	-41.3	-41.8	20.3	0.00e+00	0	57	0	538968064	44	3993
2026-01-03 04:33:35.58	177.54	40.59	-40.9	-41.4	20.7	0.00e+00	0	57	0	553648128	44	3811
2026-01-03 04:33:37.56	177.89	40.11	-40.8	-41.3	20.7	0.00e+00	0	58	0	567279616	44	3768
2026-01-03 04:33:39.54	178.23	39.62	-41.0	-41.4	20.7	0.00e+00	0	57	0	581959680	44	3810
2026-01-03 04:33:41.51	178.56	39.15	-40.9	-41.3	20.8	0.00e+00	0	58	0	595591168	44	3778
2026-01-03 04:33:43.50	178.88	38.68	-41.1	-41.6	20.4	0.00e+00	0	57	0	610271232	44	3876
2026-01-03 04:33:45.48	179.20	38.21	-41.0	-41.5	20.6	0.00e+00	0	58	0	624951296	44	3831
2026-01-03 04:33:47.45	179.50	37.75	-41.1	-41.6	20.5	0.00e+00	0	58	0	638582784	44	3881
2026-01-03 04:33:49.42	179.80	37.30	-40.8	-41.3	20.8	0.00e+00	0	57	0	653262848	44	3743
2026-01-03 04:33:51.41	180.09	36.85	-40.9	-41.4	20.7	0.00e+00	0	58	0	667942912	44	3795
2026-01-03 04:33:53.39	180.37	36.41	-41.0	-41.5	20.6	0.00e+00	0	58	0	681574400	44	3843
2026-01-03 04:33:55.37	180.64	35.97	-41.1	-41.6	20.5	0.00e+00	0	57	0	696254464	44	3900
2026-01-03 04:33:57.34	180.91	35.54	-41.2	-41.7	20.4	0.00e+00	0	58	0	710934528	44	3951
2026-01-03 04:33:59.32	181.17	35.11	-41.1	-41.5	20.6	0.00e+00	0	57	0	724566016	44	3867
2026-01-03 04:34:01.30	181.42	34.69	-40.9	-41.3	20.8	0.00e+00	0	58	0	739246080	44	3775
2026-01-03 04:34:03.29	181.67	34.27	-41.1	-41.6	20.3	0.00e+00	0	57	0	752877568	44	3899
2026-01-03 04:34:05.28	181.91	33.85	-40.8	-41.3	20.8	0.00e+00	0	58	0	767557632	44	3769
2026-01-03 04:34:07.26	182.15	33.44	-41.1	-41.6	20.4	0.00e+00	0	58	0	782237696	44	3905
2026-01-03 04:34:09.24	182.38	33.04	-41.2	-41.7	20.3	0.00e+00	0	58	0	795869184	44	3955
2026-01-03 04:34:11.22	182.61	32.64	-41.1	-41.6	20.5	0.00e+00	0	58	0	810549248	44	3874
2026-01-03 04:34:13.20	182.82	32.25	-40.6	-41.1	21.0	0.00e+00	0	57	0	825229312	44	3657
2026-01-03 04:34:15.18	183.04	31.86	-40.5	-40.9	20.7	0.00e+00	0	58	0	838860800	44	3609
2026-01-03 04:34:17.15	183.25	31.48	-40.6	-41.0	21.0	0.00e+00	0	57	0	853540864	44	3637
2026-01-03 04:34:19.13	183.45	31.10	-40.7	-41.1	20.9	0.00e+00	0	57	0	868220928	44	3677
2026-01-03 04:34:21.10	183.65	30.72	-40.7	-41.1	21.0	0.00e+00	0	58	0	881852416	44	3685
2026-01-03 04:34:23.07	183.85	30.36	-40.8	-41.2	20.8	0.00e+00	0	58	0	896532480	44	3730
2026-01-03 04:34:25.05	184.04	29.99	-40.7	-41.2	20.8	0.00e+00	0	58	0	910163968	44	3699
2026-01-03 04:34:27.03	184.23	29.63	-40.8	-41.2	20.8	0.00e+00	0	57	0	924844032	44	3733
2026-01-03 04:34:29.00	184.41	29.27	-41.1	-41.6	20.5	0.00e+00	0	58	0	938475520	44	3883
2026-01-03 04:34:30.96	184.59	28.92	-41.2	-41.7	20.4	0.00e+00	0	57	0	953155584	44	3920
2026-01-03 04:34:32.94	184.77	28.57	-41.2	-41.7	20.3	0.00e+00	0	58	0	967835648	44	3948
2026-01-03 04:34:34.92	184.94	28.23	-41.4	-41.9	20.2	0.00e+00	0	58	0	981467136	44	4039
2026-01-03 04:34:36.90	185.11	27.88	-41.4	-41.9	20.1	0.00e+00	0	57	0	996147200	44	4051
2026-01-03 04:34:38.87	185.27	27.55	-41.5	-42.0	20.0	0.00e+00	0	58	0	1010827264	45	3855
2026-01-03 04:34:40.85	185.43	27.21	-41.5	-42.0	20.1	0.00e+00	0	57	0	1024458752	45	3843
2026-01-03 04:34:42.83	185.59	26.89	-42.0	-42.6	19.5	0.00e+00	0	57	0	1039138816	45	4100
2026-01-03 04:34:44.80	185.75	26.56	-41.9	-42.5	19.4	0.00e+00	0	57	0	1052770304	45	4071
2026-01-03 04:34:46.78	185.90	26.24	-42.0	-42.6	19.3	0.00e+00	0	57	0	1067450368	46	3893
2026-01-03 04:34:48.76	186.05	25.92	-41.7	-42.3	19.8	0.00e+00	0	58	0	1081081856	46	3739
2026-01-03 04:34:50.74	186.20	25.60	-41.9	-42.5	19.6	0.00e+00	0	57	0	1095761920	46	3827
2026-01-03 04:34:52.72	186.35	25.29	-41.4	-41.9	20.2	0.00e+00	0	57	0	1110441984	45	3786
2026-01-03 04:34:54.69	186.49	24.99	-41.0	-41.5	20.5	0.00e+00	0	57	0	1124073472	45	3631
2026-01-03 04:34:56.68	186.63	24.68	-41.1	-41.6	20.5	0.00e+00	0	57	0	1138753536	45	3660
2026-01-03 04:34:58.65	186.77	24.38	-41.2	-41.7	20.3	0.00e+00	0	58	0	1153433600	45	3697
2026-01-03 04:35:00.64	186.90	24.08	-41.1	-41.6	20.4	0.00e+00	0	57	0	1167065088	45	3667
2026-01-03 04:35:02.62	187.03	23.78	-41.3	-41.8	20.2	0.00e+00	0	58	0	1181745152	45	3751
2026-01-03 04:35:04.58	187.16	23.50	-41.5	-42.0	20.0	0.00e+00	0	57	0	1195376640	45	3858
2026-01-03 04:35:06.55	187.29	23.21	-41.6	-42.1	20.0	0.00e+00	0	58	0	1210056704	45	3874
2026-01-03 04:35:08.53	187.41	22.92	-41.5	-42.0	20.0	0.00e+00	0	57	0	1224736768	45	3845
2026-01-03 04:35:10.50	187.54	22.64	-41.7	-42.3	19.7	0.00e+00	0	58	0	1238368256	45	3972
2026-01-03 04:35:12.48	187.66	22.36	-41.6	-42.2	19.8	0.00e+00	0	58	0	1253048320	45	3916
2026-01-03 04:35:14.46	187.78	22.08	-41.5	-42.1	19.9	0.00e+00	0	58	0	1266679808	45	3872
2026-01-03 04:35:16.44	187.90	21.81	-41.8	-42.3	19.6	0.00e+00	0	58	0	1281359872	45	4003
2026-01-03 04:35:18.42	188.01	21.54	-41.8	-42.3	19.7	0.00e+00	0	58	0	1296039936	45	3999
2026-01-03 04:35:20.39	188.12	21.27	-41.8	-42.3	19.6	0.00e+00	0	57	0	1309671424	45	4003
2026-01-03 04:35:22.37	188.24	21.01	-41.8	-42.3	19.6	0.00e+00	0	57	0	1324351488	45	3998
2026-01-03 04:35:24.35	188.35	20.74	-42.0	-42.5	19.5	0.00e+00	0	57	0	1337982976	45	4093
2026-01-03 04:35:26.33	188.46	20.48	-41.6	-42.1	19.9	0.00e+00	0	57	0	1352663040	45	3895
2026-01-03 04:35:28.31	188.56	20.23	-41.5	-42.1	19.9	0.00e+00	0	58	0	1367343104	45	3881
2026-01-03 04:35:30.28	188.67	19.97	-41.7	-42.2	19.7	0.00e+00	0	58	0	1380974592	45	3944
2026-01-03 04:35:32.26	188.77	19.72	-41.7	-42.2	19.8	0.00e+00	0	58	0	1395654656	45	3936
2026-01-03 04:35:34.24	188.87	19.47	-42.0	-42.6	19.4	0.00e+00	0	58	0	1410334720	45	4128
2026-01-03 04:35:36.21	188.97	19.22	-42.2	-42.8	19.2	0.00e+00	0	58	0	1423966208	46	3983
2026-01-03 04:35:38.19	189.07	18.98	-42.3	-42.8	19.1	0.00e+00	0	58	0	1438646272	46	4000
2026-01-03 04:35:40.17	189.17	18.73	-42.4	-43.0	19.0	0.00e+00	0	58	0	1453326336	46	4073
2026-01-03 04:35:42.14	189.26	18.49	-42.7	-43.4	18.6	0.00e+00	0	57	0	1466957824	47	4010
2026-01-03 04:35:44.12	189.36	18.26	-42.8	-43.4	18.5	0.00e+00	0	58	0	1481637888	47	4043
2026-01-03 04:35:46.10	189.45	18.02	-42.5	-43.1	18.9	0.00e+00	0	58	0	1495269376	47	3881
2026-01-03 04:35:48.08	189.54	17.78	-42.5	-43.1	18.8	0.00e+00	0	58	0	1509949440	47	3901
2026-01-03 04:35:50.06	189.64	17.55	-42.6	-43.2	18.8	0.00e+00	0	58	0	1523580928	47	3954
2026-01-03 04:35:52.04	189.73	17.32	-42.5	-43.1	18.9	0.00e+00	0	58	0	1538260992	47	3883
2026-01-03 04:35:54.01	189.81	17.10	-42.7	-43.3	18.6	0.00e+00	0	57	0	1552941056	47	3986
2026-01-03 04:35:55.99	189.90	16.87	-42.7	-43.3	18.7	0.00e+00	0	58	0	1566572544	47	3984
2026-01-03 04:35:57.97	189.99	16.65	-42.8	-43.4	18.5	0.00e+00	0	58	0	1581252608	47	4034
2026-01-03 04:35:59.95	190.07	16.42	-43.4	-44.1	18.1	0.00e+00	0	58	0	1594884096	48	4119
2026-01-03 04:36:01.93	190.15	16.21	-43.3	-44.0	18.2	0.00e+00	0	57	0	1609564160	48	4073
2026-01-03 04:36:03.91	190.24	15.99	-43.0	-43.7	18.5	0.00e+00	0	58	0	1624244224	48	3919
2026-01-03 04:36:05.88	190.32	15.77	-43.1	-43.7	18.4	0.00e+00	0	58	0	1637875712	48	3929
2026-01-03 04:36:07.85	190.40	15.56	-43.2	-43.9	18.2	0.00e+00	0	58	0	1652555776	48	4031
2026-01-03 04:36:09.82	190.48	15.35	-42.9	-43.6	18.6	0.00e+00	0	58	0	1667235840	48	3875
2026-01-03 04:36:11.81	190.56	15.14	-42.9	-43.5	18.5	0.00e+00	0	58	0	1680867328	48	3847
2026-01-03 04:36:13.78	190.63	14.93	-43.1	-43.8	18.3	0.00e+00	0	58	0	1695547392	48	3980
2026-01-03 04:36:15.77	190.71	14.72	-43.1	-43.8	18.3	0.00e+00	0	58	0	1710227456	48	3970
2026-01-03 04:36:17.74	190.78	14.52	-43.3	-43.9	18.2	0.00e+00	0	58	0	1723858944	48	4048
2026-01-03 04:36:19.72	190.86	14.31	-43.5	-44.2	18.0	0.00e+00	0	58	0	1738539008	48	4150
2026-01-03 04:36:21.70	190.93	14.11	-43.1	-43.8	18.3	0.00e+00	0	58	0	1752170496	48	3983
2026-01-03 04:36:23.67	191.01	13.91	-43.2	-43.8	18.3	0.00e+00	0	58	0	1766850560	48	3995
2026-01-03 04:36:25.65	191.08	13.71	-43.3	-43.9	18.2	0.00e+00	0	58	0	1780482048	48	4044
2026-01-03 04:36:27.63	191.15	13.51	-43.3	-44.0	18.1	0.00e+00	0	58	0	1795162112	48	4064
2026-01-03 04:36:29.61	191.22	13.32	-43.3	-43.9	18.1	0.00e+00	0	58	0	1809842176	48	4045
2026-01-03 04:36:31.58	191.29	13.13	-43.5	-44.2	17.9	0.00e+00	0	58	0	1823473664	48	4163
2026-01-03 04:36:33.56	191.36	12.93	-43.7	-44.4	17.7	0.00e+00	0	57	0	1838153728	49	4023
2026-01-03 04:36:35.54	191.42	12.74	-43.7	-44.4	17.6	0.00e+00	0	58	0	1852833792	49	4037
2026-01-03 04:36:37.52	191.49	12.55	-43.8	-44.5	17.6	0.00e+00	0	58	0	1866465280	49	4068
2026-01-03 04:36:39.50	191.56	12.36	-44.0	-44.7	17.3	0.00e+00	0	58	0	1881145344	49	4180
2026-01-03 04:36:41.49	191.62	12.18	-43.7	-44.4	17.6	0.00e+00	0	58	0	1895825408	49	4029
2026-01-03 04:36:43.48	191.69	11.99	-43.8	-44.5	17.5	0.00e+00	0	58	0	1909456896	49	4061
2026-01-03 04:36:45.45	191.75	11.81	-44.1	-44.8	17.2	0.00e+00	0	58	0	1924136960	49	4233
2026-01-03 04:36:47.43	191.81	11.62	-44.1	-44.8	17.2	0.00e+00	0	58	0	1937768448	49	4241
2026-01-03 04:36:49.41	191.88	11.44	-43.9	-44.7	17.3	0.00e+00	0	58	0	1952448512	49	4147
2026-01-03 04:36:51.39	191.94	11.26	-43.9	-44.7	17.3	0.00e+00	0	58	0	1967128576	49	4172
2026-01-03 04:36:53.36	192.00	11.09	-44.0	-44.8	17.2	0.00e+00	0	58	0	1980760064	49	4207
2026-01-03 04:36:55.34	192.06	10.91	-44.3	-45.1	16.9	0.00e+00	0	58	0	1995440128	50	4111
2026-01-03 04:36:57.30	192.12	10.73	-44.1	-44.9	17.1	0.00e+00	0	58	0	2009071616	50	4032
2026-01-03 04:36:59.29	192.18	10.56	-44.4	-45.2	16.7	0.00e+00	0	58	0	2023751680	50	4184
2026-01-03 04:37:01.26	192.24	10.38	-44.3	-45.0	16.9	0.00e+00	0	58	0	2037383168	50	4095
2026-01-03 04:37:03.24	192.30	10.21	-44.2	-45.0	17.0	0.00e+00	0	58	0	2052063232	50	4056
2026-01-03 04:37:05.23	192.35	10.04	-44.3	-45.1	16.8	0.00e+00	0	58	0	2066743296	50	4123
2026-01-03 04:37:07.20	192.41	9.87	-44.4	-45.2	16.7	0.00e+00	0	58	0	2080374784	50	4173
2026-01-03 04:37:09.17	192.47	9.70	-44.4	-45.2	16.8	0.00e+00	0	58	0	2095054848	50	4156
2026-01-03 04:37:11.15	192.52	9.53	-44.4	-45.2	16.7	0.00e+00	0	58	0	2109734912	50	4175
2026-01-03 04:37:13.13	192.58	9.37	-44.8	-45.6	16.3	0.00e+00	0	58	0	2123366400	51	4132
2026-01-03 04:37:15.11	192.63	9.20	-44.8	-45.7	16.2	0.00e+00	0	58	0	2138046464	51	4147
2026-01-03 04:37:17.10	192.69	9.04	-45.0	-46.0	15.9	0.00e+00	0	58	0	2152726528	51	4301
2026-01-03 04:37:19.08	192.74	8.87	-45.1	-46.0	15.7	0.00e+00	0	58	0	2166358016	52	4096
2026-01-03 04:37:21.06	192.79	8.71	-45.3	-46.3	15.4	0.00e+00	0	58	0	2181038080	52	4241
2026-01-03 04:37:23.04	192.85	8.55	-45.5	-46.6	15.1	0.00e+00	0	58	0	2195718144	52	4360
2026-01-03 04:37:25.01	192.90	8.39	-45.1	-46.1	15.7	0.00e+00	0	58	0	2209349632	52	4103
2026-01-03 04:37:26.99	192.95	8.23	-44.8	-45.7	16.0	0.00e+00	0	58	0	2224029696	52	3953
2026-01-03 04:37:28.96	193.00	8.07	-44.7	-45.6	16.1	0.00e+00	0	58	0	2237661184	52	3887
2026-01-03 04:37:30.93	193.05	7.91	-44.7	-45.6	16.1	0.00e+00	0	58	0	2252341248	52	3882
2026-01-03 04:37:32.92	193.10	7.76	-44.8	-45.8	15.9	0.00e+00	0	58	0	2265972736	52	3970
2026-01-03 04:37:34.90	193.15	7.60	-44.9	-45.9	15.8	0.00e+00	0	58	0	2280652800	52	4014
2026-01-03 04:37:36.88	193.20	7.45	-45.1	-46.0	15.6	0.00e+00	0	58	0	2295332864	52	4098
2026-01-03 04:37:38.87	193.25	7.29	-44.7	-45.7	16.0	0.00e+00	0	58	0	2310012928	52	3922
2026-01-03 04:37:40.85	193.30	7.14	-45.1	-46.1	15.5	0.00e+00	0	58	0	2323644416	52	4117
2026-01-03 04:37:42.85	193.35	6.98	-45.2	-46.2	15.3	0.00e+00	0	58	0	2338324480	52	4191
2026-01-03 04:37:44.82	193.39	6.83	-45.1	-46.1	15.4	0.00e+00	0	58	0	2353004544	52	4144
2026-01-03 04:37:46.80	193.44	6.68	-45.1	-46.1	15.4	0.00e+00	0	58	0	2366636032	52	4142
2026-01-03 04:37:48.78	193.49	6.53	-45.3	-46.4	15.2	0.00e+00	0	58	0	2381316096	52	4250
2026-01-03 04:37:50.75	193.53	6.39	-45.4	-46.5	15.0	0.00e+00	0	58	0	2394947584	52	4300
2026-01-03 04:37:52.73	193.58	6.24	-45.2	-46.2	15.4	0.00e+00	0	58	0	2409627648	52	4157
2026-01-03 04:37:54.72	193.63	6.09	-45.1	-46.1	15.4	0.00e+00	0	58	0	2424307712	52	4135
2026-01-03 04:37:56.70	193.67	5.95	-45.3	-46.3	15.1	0.00e+00	0	58	0	2437939200	52	4235
2026-01-03 04:37:58.68	193.72	5.80	-45.3	-46.4	15.0	0.00e+00	0	58	0	2452619264	52	4264
2026-01-03 04:38:00.67	193.76	5.66	-45.5	-46.6	14.8	0.00e+00	0	58	0	2466250752	52	4380
2026-01-03 04:38:02.64	193.80	5.51	-45.4	-46.4	15.0	1.10e-06	0	58	0	2480930816	52	4280
2026-01-03 04:38:04.62	193.85	5.37	-45.4	-46.5	14.9	0.00e+00	0	58	0	2495610880	52	4336
2026-01-03 04:38:06.60	193.89	5.23	-45.2	-46.3	15.1	0.00e+00	0	58	0	2509242368	52	4211
2026-01-03 04:38:08.58	193.93	5.09	-45.2	-46.2	15.1	0.00e+00	0	58	0	2523922432	52	4183
2026-01-03 04:38:10.56	193.98	4.95	-52.5	-62.7	3.8	8.46e-01	0	58	104	2528116736	66	12391
2026-01-03 04:38:12.55	194.02	4.80	-52.9	-63.1	3.8	8.47e-01	0	58	104	2528116736	67	12274
2026-01-03 04:38:14.54	194.06	4.66	-53.0	-63.2	3.8	8.46e-01	0	58	104	2528116736	67	12423
2026-01-03 04:38:16.52	194.10	4.53	-53.1	-63.3	3.8	8.47e-01	0	58	104	2528116736	67	12552
2026-01-03 04:38:18.50	194.14	4.39	-53.2	-63.3	3.8	8.47e-01	0	58	104	2528116736	67	12637
2026-01-03 04:38:20.46	194.18	4.25	-53.3	-63.5	3.8	8.47e-01	0	58	104	2528116736	68	12171
2026-01-03 04:38:22.44	194.23	4.12	-53.3	-63.6	3.8	8.46e-01	0	58	104	2528116736	68	12235
2026-01-03 04:38:24.40	194.27	3.98	-53.2	-63.6	3.8	8.47e-01	0	58	104	2528116736	68	12257
2026-01-03 04:38:26.38	194.31	3.85	-53.1	-63.5	3.8	8.45e-01	0	58	104	2528116736	68	12205
2026-01-03 04:38:28.35	194.34	3.71	-53.2	-63.6	3.8	8.46e-01	0	58	104	2528116736	68	12240
2026-01-03 04:38:30.33	194.38	3.58	-53.3	-63.6	3.8	8.47e-01	0	58	104	2528116736	68	12256
2026-01-03 04:38:32.30	194.42	3.45	-53.3	-63.6	3.8	8.46e-01	0	58	104	2528116736	68	12285
2026-01-03 04:38:34.26	194.46	3.32	-53.3	-63.6	3.8	8.46e-01	0	58	104	2528116736	68	12275
2026-01-03 04:38:36.24	194.50	3.18	-53.3	-63.5	3.8	8.46e-01	0	58	104	2528116736	68	12216
2026-01-03 04:38:38.23	194.54	3.05	-53.3	-63.5	3.8	8.46e-01	0	58	104	2528116736	68	12222
2026-01-03 04:38:40.20	194.58	2.92	-53.2	-63.6	3.8	8.45e-01	0	58	104	2528116736	68	12273

#Closed at: 2026-01-03 04:38:41
#Recorded file [2528 MB]: D:/Data/31026_260103_073809.dat