passes_logs/2026/01/03/R3.0SM8_Murmansk_STILSPACE/R3.0SM8_Murmansk_STILSPACE__20260103_105350_AQUA_rec.log

#Pass ID: 20260103_105350_AQUA
#Satellite: AQUA
#Configuration: AQUA
#almurnet v.1.7.20240730
#Start time: 2026-01-03 10:53:50

#Version: 2.2.20231116
#Station: R3.0SM8_Murmansk_STILSPACE
#Location: 33.092731 lon 68.902999 lat
#TLE: 1 27424U 02022A   25365.92641127  .00002078  00000+0  42628-3 0  9999
#TLE: 2 27424  98.4058 327.1196 0001962  94.7781 340.6230 14.61783896258835

#Time	Az	El	Level	Level2	SNR	BER	BlckErr	Temp	State	Recorded	gain1	gain2
2026-01-03 10:53:50.99	143.10	3.04	-54.5	-74.5	3.8	7.47e-01	0	45	0	0	71	37399
2026-01-03 10:53:54.94	143.06	3.31	-54.2	-74.1	3.8	7.47e-01	0	45	104	0	71	35980
2026-01-03 10:53:58.90	143.02	3.59	-53.5	-70.6	4.0	7.46e-01	0	46	104	0	70	25436
2026-01-03 10:54:02.87	142.97	3.88	-53.4	-67.4	5.3	7.04e-01	0	46	0	0	70	17554
2026-01-03 10:54:06.83	142.93	4.16	-53.3	-64.8	7.3	6.55e-01	93	46	0	5767168	70	12980
2026-01-03 10:54:10.79	142.88	4.45	-53.0	-62.2	9.9	6.25e-01	0	46	0	13107200	69	10255
2026-01-03 10:54:14.75	142.83	4.74	-52.4	-59.2	13.1	6.08e-01	0	47	0	20447232	68	7645
2026-01-03 10:54:18.70	142.78	5.04	-51.6	-56.6	15.8	6.06e-01	0	47	0	27787264	66	6365
2026-01-03 10:54:22.65	142.73	5.33	-51.4	-56.1	16.3	6.08e-01	0	47	0	35127296	66	6013
2026-01-03 10:54:26.60	142.67	5.64	-51.3	-55.8	16.6	6.06e-01	0	48	0	42991616	66	5831
2026-01-03 10:54:30.55	142.62	5.94	-50.9	-54.7	17.7	6.06e-01	0	48	0	50331648	65	5436
2026-01-03 10:54:34.50	142.56	6.25	-49.9	-52.7	19.8	6.07e-01	0	48	0	57671680	63	4860
2026-01-03 10:54:38.46	142.50	6.57	-49.7	-52.4	20.2	6.05e-01	0	48	0	65011712	62	4978
2026-01-03 10:54:42.42	142.44	6.89	-49.4	-52.0	20.6	6.06e-01	0	48	0	72351744	62	4720
2026-01-03 10:54:46.38	142.38	7.21	-49.6	-52.2	20.5	6.05e-01	0	49	0	79691776	62	4833
2026-01-03 10:54:50.33	142.32	7.54	-49.5	-52.1	20.6	6.08e-01	0	49	0	87031808	62	4768
2026-01-03 10:54:54.30	142.25	7.87	-49.4	-51.9	20.8	6.07e-01	0	49	0	94896128	62	4658
2026-01-03 10:54:58.24	142.19	8.21	-49.2	-51.5	21.2	6.07e-01	0	49	0	102236160	61	4735
2026-01-03 10:55:02.20	142.12	8.55	-49.1	-51.3	21.4	6.04e-01	0	49	0	109576192	61	4637
2026-01-03 10:55:06.16	142.05	8.90	-49.2	-51.5	21.3	6.05e-01	0	50	0	116916224	61	4734
2026-01-03 10:55:10.12	141.97	9.25	-49.2	-51.4	21.4	6.06e-01	0	50	0	124256256	61	4684
2026-01-03 10:55:14.08	141.90	9.61	-48.9	-51.0	21.8	6.09e-01	0	50	0	131596288	61	4467
2026-01-03 10:55:18.03	141.82	9.98	-48.9	-51.0	21.8	6.07e-01	0	50	0	138936320	61	4479
2026-01-03 10:55:21.98	141.74	10.35	-48.9	-50.9	21.9	6.07e-01	0	50	0	146800640	61	4435
2026-01-03 10:55:25.93	141.66	10.72	-49.1	-51.2	21.7	6.06e-01	0	50	0	154140672	61	4584
2026-01-03 10:55:29.87	141.57	11.11	-49.0	-51.1	21.8	6.08e-01	0	50	0	161480704	61	4530
2026-01-03 10:55:33.83	141.48	11.50	-48.8	-50.9	22.0	6.08e-01	0	51	0	168820736	61	4411
2026-01-03 10:55:37.79	141.39	11.89	-48.8	-50.8	22.1	6.05e-01	0	51	0	176160768	61	4388
2026-01-03 10:55:41.74	141.29	12.30	-49.2	-51.4	21.7	6.06e-01	0	51	0	183500800	61	4655
2026-01-03 10:55:45.69	141.19	12.71	-49.2	-51.3	21.7	6.07e-01	0	51	0	190840832	61	4643
2026-01-03 10:55:49.66	141.09	13.13	-49.2	-51.4	21.6	6.08e-01	0	51	0	198705152	61	4662
2026-01-03 10:55:53.62	140.99	13.56	-48.5	-50.4	22.6	6.06e-01	0	51	0	206045184	60	4395
2026-01-03 10:55:57.57	140.88	13.99	-48.2	-50.0	23.0	6.05e-01	0	52	0	213385216	60	4231
2026-01-03 10:56:01.50	140.76	14.44	-48.7	-50.5	22.9	6.06e-01	0	52	0	220725248	59	4731
2026-01-03 10:56:05.47	140.65	14.89	-48.7	-50.7	22.4	6.06e-01	0	52	0	228065280	60	4567
2026-01-03 10:56:09.42	140.53	15.35	-49.0	-51.0	22.1	6.05e-01	0	52	0	235405312	60	4749
2026-01-03 10:56:13.37	140.40	15.83	-48.6	-50.4	22.6	6.06e-01	0	52	0	242745344	60	4433
2026-01-03 10:56:17.32	140.27	16.31	-48.6	-50.5	22.6	6.06e-01	0	52	0	250085376	60	4453
2026-01-03 10:56:21.28	140.13	16.80	-48.6	-50.5	22.6	6.06e-01	0	52	0	257949696	60	4446
2026-01-03 10:56:25.23	139.99	17.31	-48.9	-50.8	22.3	6.03e-01	0	52	0	265289728	60	4638
2026-01-03 10:56:29.20	139.84	17.83	-48.8	-50.8	22.3	6.07e-01	0	52	0	272629760	60	4630
2026-01-03 10:56:33.15	139.69	18.35	-48.5	-50.3	22.8	6.07e-01	0	52	0	279969792	60	4369
2026-01-03 10:56:37.10	139.53	18.89	-48.5	-50.3	22.8	6.07e-01	0	52	0	287309824	60	4388
2026-01-03 10:56:41.06	139.36	19.45	-48.9	-50.9	22.3	6.06e-01	0	53	0	294649856	60	4674
2026-01-03 10:56:45.02	139.19	20.02	-48.7	-50.6	22.6	6.06e-01	0	52	0	302514176	60	4502
2026-01-03 10:56:48.98	139.01	20.60	-48.7	-50.5	22.7	6.08e-01	0	53	0	309854208	60	4475
2026-01-03 10:56:52.94	138.82	21.20	-48.6	-50.4	22.8	6.07e-01	0	53	0	317194240	60	4427
2026-01-03 10:56:56.90	138.62	21.81	-48.3	-50.0	23.1	6.07e-01	0	53	0	324534272	60	4234
2026-01-03 10:57:00.87	138.42	22.44	-48.7	-50.5	22.7	6.06e-01	0	53	0	331874304	60	4480
2026-01-03 10:57:04.82	138.20	23.08	-48.8	-50.7	22.5	6.04e-01	0	53	0	339214336	60	4598
2026-01-03 10:57:08.79	137.97	23.75	-49.2	-51.2	22.1	6.08e-01	0	53	0	346554368	60	4837
2026-01-03 10:57:12.73	137.74	24.43	-49.2	-51.3	22.1	6.06e-01	0	53	0	354418688	60	4885
2026-01-03 10:57:16.68	137.49	25.13	-49.1	-51.1	22.2	6.04e-01	0	53	0	361758720	60	4787
2026-01-03 10:57:20.64	137.23	25.85	-49.9	-61.7	3.9	7.47e-01	0	53	104	362283008	61	15321
2026-01-03 10:57:24.61	136.95	26.59	-51.7	-64.7	3.8	7.46e-01	0	53	104	362283008	65	17232
2026-01-03 10:57:28.56	136.66	27.35	-52.3	-65.9	3.9	7.42e-01	0	54	104	362283008	67	17571
2026-01-03 10:57:32.51	136.36	28.13	-52.5	-66.3	3.9	7.44e-01	0	53	104	362283008	67	18508
2026-01-03 10:57:36.46	136.04	28.94	-54.1	-71.3	3.8	7.45e-01	0	54	104	362283008	70	27426
2026-01-03 10:57:40.42	135.70	29.78	-54.4	-72.8	3.8	7.45e-01	0	54	104	362283008	70	32767
2026-01-03 10:57:44.37	135.34	30.63	-54.5	-74.1	3.8	7.45e-01	0	54	104	362283008	71	35726
2026-01-03 10:57:48.32	134.96	31.52	-53.7	-69.8	3.8	7.44e-01	0	54	104	362283008	71	21778
2026-01-03 10:57:52.27	134.56	32.43	-53.4	-68.7	3.8	7.44e-01	0	54	104	362283008	69	21581
2026-01-03 10:57:56.23	134.13	33.37	-52.4	-66.2	3.8	7.44e-01	0	54	104	362283008	68	17094
2026-01-03 10:58:00.17	133.67	34.34	-50.8	-63.1	3.8	7.44e-01	0	54	104	362283008	65	14354
2026-01-03 10:58:04.14	133.18	35.35	-49.9	-61.8	3.8	7.46e-01	0	54	104	362283008	63	13830
2026-01-03 10:58:08.10	132.66	36.39	-50.5	-62.6	3.8	7.43e-01	0	54	104	362283008	63	15070
2026-01-03 10:58:12.06	132.11	37.46	-51.8	-64.8	3.8	7.46e-01	0	54	104	362283008	65	17288
2026-01-03 10:58:16.02	131.51	38.56	-53.4	-68.5	3.8	7.46e-01	0	54	104	362283008	68	22292
2026-01-03 10:58:19.98	130.87	39.70	-52.9	-67.4	3.8	7.46e-01	0	54	104	362283008	68	19726
2026-01-03 10:58:23.94	130.18	40.88	-53.8	-70.1	3.8	7.46e-01	0	55	104	362283008	69	25372
2026-01-03 10:58:27.89	129.44	42.09	-54.6	-73.8	3.8	7.47e-01	0	55	104	362283008	71	34528
2026-01-03 10:58:31.84	128.63	43.33	-54.6	-74.1	3.8	7.48e-01	0	55	104	362283008	71	36033
2026-01-03 10:58:35.81	127.75	44.62	-54.4	-72.7	3.8	7.46e-01	0	55	104	362283008	71	30571
2026-01-03 10:58:39.76	126.81	45.94	-53.6	-69.2	3.8	7.44e-01	0	55	104	362283008	70	21690
2026-01-03 10:58:43.71	125.77	47.30	-52.9	-67.1	3.8	7.48e-01	0	55	104	362283008	69	18009
2026-01-03 10:58:47.67	124.63	48.69	-51.4	-64.0	3.8	7.43e-01	0	55	104	362283008	66	15018
2026-01-03 10:58:51.63	123.39	50.12	-49.7	-61.4	3.8	7.44e-01	0	55	104	362283008	63	13140
2026-01-03 10:58:55.57	122.02	51.57	-49.0	-60.5	3.8	7.44e-01	0	55	104	362283008	61	13264
2026-01-03 10:58:59.54	120.49	53.07	-49.2	-60.7	3.8	7.43e-01	0	55	104	362283008	61	13605
2026-01-03 10:59:03.50	118.81	54.58	-51.2	-63.8	3.8	7.43e-01	0	55	104	362283008	64	16412
2026-01-03 10:59:07.46	116.93	56.11	-51.7	-64.7	3.8	7.46e-01	0	55	104	362283008	66	16137
2026-01-03 10:59:11.44	114.81	57.66	-52.5	-66.2	3.8	7.45e-01	0	55	104	362283008	67	18170
2026-01-03 10:59:15.39	112.45	59.20	-54.3	-71.9	3.8	7.47e-01	0	55	104	362283008	70	29516
2026-01-03 10:59:19.35	109.80	60.73	-54.5	-72.9	3.8	7.46e-01	0	55	104	362283008	71	31222
2026-01-03 10:59:23.31	106.79	62.24	-54.4	-72.5	3.8	7.49e-01	0	55	104	362283008	71	29960
2026-01-03 10:59:27.26	103.41	63.70	-54.0	-70.4	3.8	7.45e-01	0	55	104	362283008	71	23364
2026-01-03 10:59:31.21	99.57	65.10	-53.4	-68.2	3.8	7.44e-01	0	55	104	362283008	70	19357
2026-01-03 10:59:35.17	95.23	66.41	-53.1	-67.4	3.8	7.45e-01	0	56	104	362283008	69	18706
2026-01-03 10:59:39.13	90.35	67.61	-52.1	-65.2	3.8	7.46e-01	0	55	104	362283008	67	16291
2026-01-03 10:59:43.08	84.92	68.64	-51.9	-64.8	3.8	7.49e-01	0	55	104	362283008	66	16502
2026-01-03 10:59:47.05	78.91	69.50	-52.1	-65.1	3.8	7.44e-01	0	55	104	362283008	67	15981
2026-01-03 10:59:51.02	72.42	70.13	-51.9	-64.6	3.8	7.44e-01	0	55	104	362283008	67	15179
2026-01-03 10:59:54.99	65.55	70.52	-53.0	-67.5	3.8	7.48e-01	0	56	104	362283008	68	20062
2026-01-03 10:59:58.95	58.52	70.63	-53.0	-67.2	3.8	7.44e-01	0	55	104	362283008	68	19284
2026-01-03 11:00:02.91	51.50	70.47	-53.8	-69.4	3.8	7.47e-01	0	56	104	362283008	69	23391
2026-01-03 11:00:06.87	44.72	70.04	-54.5	-72.6	3.8	7.43e-01	0	55	104	362283008	71	30080
2026-01-03 11:00:10.81	38.35	69.36	-54.6	-73.2	3.8	7.46e-01	0	56	104	362283008	71	32315
2026-01-03 11:00:14.74	32.50	68.48	-54.3	-71.7	3.8	7.45e-01	0	56	104	362283008	71	27146
2026-01-03 11:00:18.70	27.15	67.42	-53.4	-68.2	3.8	7.44e-01	0	56	104	362283008	70	19368
2026-01-03 11:00:22.66	22.37	66.20	-52.6	-66.3	3.8	7.45e-01	0	56	104	362283008	68	17452
2026-01-03 11:00:26.63	18.11	64.87	-52.7	-66.6	3.8	7.44e-01	0	56	104	362283008	68	18049
2026-01-03 11:00:30.56	14.38	63.47	-52.1	-65.0	3.8	7.41e-01	0	56	104	362283008	67	15941
2026-01-03 11:00:34.53	11.05	61.99	-52.7	-66.5	3.8	7.48e-01	0	56	104	362283008	68	17837
2026-01-03 11:00:38.49	8.12	60.48	-51.1	-63.4	3.8	7.45e-01	0	56	104	362283008	65	14755
2026-01-03 11:00:42.43	5.53	58.96	-50.1	-62.1	3.8	7.47e-01	0	56	104	362283008	63	14318
2026-01-03 11:00:46.38	3.22	57.42	-49.6	-61.3	3.8	7.45e-01	0	56	104	362283008	62	13811
2026-01-03 11:00:50.34	1.15	55.88	-49.3	-61.1	3.8	7.45e-01	0	56	104	362283008	61	14216
2026-01-03 11:00:54.30	359.31	54.36	-50.6	-62.7	3.8	7.43e-01	0	56	104	362283008	63	15380
2026-01-03 11:00:58.25	357.66	52.86	-52.4	-65.8	3.8	7.48e-01	0	56	104	362283008	67	17389
2026-01-03 11:01:02.22	356.16	51.37	-51.4	-64.2	3.8	7.45e-01	0	56	104	362283008	66	15265
2026-01-03 11:01:06.19	354.80	49.92	-49.9	-61.5	3.8	7.44e-01	0	56	104	362283008	63	13367
2026-01-03 11:01:10.14	353.58	48.50	-48.9	-60.2	3.8	7.42e-01	0	56	104	362283008	61	12845
2026-01-03 11:01:14.10	352.46	47.12	-49.9	-61.5	3.8	7.44e-01	0	56	104	362283008	61	14943
2026-01-03 11:01:18.06	351.44	45.76	-51.0	-63.2	3.8	7.42e-01	0	56	104	362283008	64	15345
2026-01-03 11:01:22.02	350.50	44.45	-52.7	-66.9	3.8	7.44e-01	0	56	104	362283008	67	19683
2026-01-03 11:01:25.98	349.64	43.17	-51.8	-64.9	3.8	7.46e-01	0	56	104	362283008	67	15739
2026-01-03 11:01:29.93	348.85	41.94	-51.1	-63.7	3.8	7.46e-01	0	56	104	362283008	65	15401
2026-01-03 11:01:33.88	348.12	40.74	-50.1	-62.0	3.8	7.46e-01	0	56	104	362283008	63	14161
2026-01-03 11:01:37.85	347.43	39.57	-50.2	-62.2	3.8	7.43e-01	0	56	104	362283008	63	14531
2026-01-03 11:01:41.81	346.80	38.44	-50.4	-62.5	3.8	7.44e-01	0	56	104	362283008	63	15012
2026-01-03 11:01:45.75	346.22	37.35	-50.8	-62.8	3.8	7.42e-01	0	56	104	362283008	63	15536
2026-01-03 11:01:49.70	345.67	36.29	-50.5	-62.6	3.8	7.41e-01	0	56	104	362283008	64	14288
2026-01-03 11:01:53.67	345.15	35.26	-50.4	-62.6	3.8	7.45e-01	0	56	104	362283008	64	14222
2026-01-03 11:01:57.62	344.67	34.26	-49.4	-61.0	3.8	7.44e-01	0	56	104	362283008	62	13344
2026-01-03 11:02:01.60	344.22	33.29	-50.0	-61.9	3.8	7.42e-01	0	56	104	362283008	62	14766
2026-01-03 11:02:05.56	343.80	32.36	-50.1	-62.0	3.8	7.46e-01	0	56	104	362283008	63	14187
2026-01-03 11:02:09.52	343.40	31.45	-51.2	-64.0	3.8	7.43e-01	0	56	104	362283008	64	16802
2026-01-03 11:02:13.47	343.02	30.57	-52.3	-66.1	3.8	7.44e-01	0	56	104	362283008	67	17901
2026-01-03 11:02:17.43	342.67	29.72	-51.5	-64.4	3.8	7.40e-01	0	56	104	362283008	66	15688
2026-01-03 11:02:21.37	342.33	28.89	-50.4	-62.5	3.8	7.45e-01	0	57	104	362283008	64	14145
2026-01-03 11:02:25.33	342.02	28.09	-48.9	-60.5	3.8	7.44e-01	0	57	104	362283008	61	13272
2026-01-03 11:02:29.28	341.71	27.31	-49.3	-60.6	3.8	7.45e-01	0	57	104	362283008	61	13455
2026-01-03 11:02:33.24	341.43	26.55	-48.6	-59.9	3.8	7.44e-01	0	57	104	362283008	60	13188
2026-01-03 11:02:37.19	341.16	25.82	-49.1	-60.5	3.8	7.45e-01	0	57	104	362283008	60	14128
2026-01-03 11:02:41.17	340.90	25.10	-49.5	-61.3	3.8	7.43e-01	0	57	104	362283008	61	14707
2026-01-03 11:02:45.13	340.65	24.40	-50.2	-62.2	3.8	7.44e-01	0	57	104	362283008	62	15371
2026-01-03 11:02:49.08	340.42	23.73	-50.4	-62.3	3.8	7.45e-01	0	56	104	362283008	62	15564
2026-01-03 11:02:53.03	340.20	23.07	-51.0	-63.5	3.8	7.44e-01	0	57	104	362283008	64	15905
2026-01-03 11:02:56.99	339.98	22.43	-50.5	-62.9	3.8	7.46e-01	0	57	104	362283008	63	15754
2026-01-03 11:03:00.95	339.78	21.81	-52.1	-66.1	3.8	7.45e-01	0	56	104	362283008	66	18958
2026-01-03 11:03:04.90	339.59	21.20	-52.1	-66.2	3.8	7.46e-01	0	57	104	362283008	67	18282
2026-01-03 11:03:08.87	339.40	20.60	-52.5	-67.9	3.8	7.43e-01	0	56	104	362283008	67	22136
2026-01-03 11:03:12.83	339.22	20.02	-52.0	-66.5	3.8	7.43e-01	0	57	104	362283008	67	18874
2026-01-03 11:03:16.79	339.05	19.46	-51.1	-64.4	3.8	7.44e-01	0	56	104	362283008	65	16608
2026-01-03 11:03:20.75	338.89	18.91	-50.3	-63.0	3.8	7.43e-01	0	57	104	362283008	64	14987
2026-01-03 11:03:24.72	338.73	18.37	-48.6	-60.2	3.8	7.46e-01	0	56	104	362283008	60	13697
2026-01-03 11:03:28.67	338.58	17.84	-49.1	-60.7	3.8	7.46e-01	0	57	104	362283008	60	14385
2026-01-03 11:03:32.62	338.44	17.33	-49.9	-62.1	3.8	7.44e-01	0	57	104	362283008	62	15064
2026-01-03 11:03:36.56	338.30	16.83	-50.4	-62.7	3.8	7.45e-01	0	57	104	362283008	63	15267
2026-01-03 11:03:40.53	338.16	16.34	-50.9	-63.5	3.8	7.42e-01	0	57	104	362283008	64	15936
2026-01-03 11:03:44.49	338.03	15.86	-50.1	-62.3	3.8	7.45e-01	0	57	104	362283008	63	14652
2026-01-03 11:03:48.45	337.91	15.39	-50.3	-62.8	3.8	7.46e-01	0	57	104	362283008	63	15496
2026-01-03 11:03:52.40	337.79	14.93	-51.1	-56.4	15.1	6.03e-01	0	57	0	362283008	64	6978
2026-01-03 11:03:56.36	337.68	14.47	-51.0	-56.9	14.2	6.04e-01	0	57	0	7340032	64	7415
2026-01-03 11:04:00.32	337.57	14.03	-51.1	-57.0	14.3	6.05e-01	0	57	0	14680064	64	7520
2026-01-03 11:04:04.29	337.46	13.60	-50.0	-53.2	19.0	6.04e-01	0	57	0	22544384	63	5118
2026-01-03 11:04:08.25	337.36	13.17	-48.6	-50.7	21.9	6.03e-01	0	57	0	29884416	60	4556
2026-01-03 11:04:12.21	337.26	12.75	-48.3	-50.2	22.4	6.02e-01	0	57	0	37224448	60	4337
2026-01-03 11:04:16.18	337.16	12.34	-48.4	-50.3	22.2	6.04e-01	0	57	0	44564480	60	4389
2026-01-03 11:04:20.14	337.07	11.94	-48.8	-51.0	21.6	6.05e-01	0	57	0	51904512	60	4734
2026-01-03 11:04:24.11	336.98	11.54	-49.0	-51.3	21.3	6.04e-01	0	57	0	59768832	60	4891
2026-01-03 11:04:28.07	336.89	11.15	-49.2	-51.6	21.0	6.05e-01	0	57	0	67108864	60	5063
2026-01-03 11:04:32.03	336.81	10.77	-49.6	-52.2	20.4	6.04e-01	0	57	0	74448896	61	5123
2026-01-03 11:04:35.99	336.73	10.40	-49.1	-51.3	21.2	6.02e-01	0	57	0	81788928	61	4650
2026-01-03 11:04:39.95	336.65	10.03	-49.0	-51.3	21.2	6.03e-01	0	57	0	89128960	61	4612
2026-01-03 11:04:43.91	336.57	9.66	-49.1	-51.5	21.0	6.02e-01	0	57	0	96468992	61	4734
2026-01-03 11:04:47.87	336.50	9.30	-49.1	-51.4	21.0	6.02e-01	0	57	0	103809024	61	4705
2026-01-03 11:04:51.83	336.43	8.95	-49.3	-51.7	20.8	6.02e-01	0	57	0	111673344	61	4824
2026-01-03 11:04:55.79	336.36	8.61	-49.0	-51.3	21.2	6.02e-01	0	57	0	119013376	61	4629
2026-01-03 11:04:59.74	336.29	8.27	-49.1	-51.5	20.9	6.02e-01	0	57	0	126353408	61	4742
2026-01-03 11:05:03.71	336.23	7.93	-49.5	-52.1	20.3	6.02e-01	0	57	0	133693440	61	5084
2026-01-03 11:05:07.66	336.16	7.60	-49.6	-52.3	20.1	6.04e-01	0	56	0	141033472	61	5179
2026-01-03 11:05:11.62	336.10	7.27	-49.4	-51.9	20.4	6.02e-01	0	57	0	148373504	61	4969
2026-01-03 11:05:15.58	336.05	6.95	-49.8	-52.6	19.7	6.02e-01	0	57	0	156237824	61	5390
2026-01-03 11:05:19.53	335.99	6.63	-49.9	-52.8	19.6	6.04e-01	0	57	0	163577856	61	5476
2026-01-03 11:05:23.49	335.93	6.32	-49.8	-52.8	19.5	6.02e-01	0	56	0	170917888	62	5173
2026-01-03 11:05:27.45	335.88	6.01	-49.4	-52.1	20.2	6.03e-01	0	57	0	178257920	62	4766
2026-01-03 11:05:31.39	335.83	5.70	-49.4	-52.1	20.1	6.02e-01	0	57	0	185597952	62	4768
2026-01-03 11:05:35.36	335.78	5.40	-49.8	-52.7	19.4	6.03e-01	0	57	0	192937984	62	5159
2026-01-03 11:05:39.33	335.73	5.10	-49.8	-52.7	19.4	6.05e-01	0	57	0	200278016	62	5144
2026-01-03 11:05:43.31	335.68	4.81	-50.1	-69.8	3.8	7.42e-01	0	57	104	203948032	63	34650
2026-01-03 11:05:47.26	335.63	4.52	-54.5	-74.4	3.8	7.44e-01	0	57	104	203948032	71	37054
2026-01-03 11:05:51.22	335.59	4.23	-54.6	-74.5	3.8	7.44e-01	0	57	104	203948032	71	37746
2026-01-03 11:05:55.18	335.55	3.95	-54.7	-74.6	3.8	7.46e-01	0	57	104	203948032	71	38188
2026-01-03 11:05:59.15	335.50	3.66	-54.8	-74.7	3.8	7.47e-01	0	57	104	203948032	71	38505
2026-01-03 11:06:03.09	335.46	3.39	-54.8	-74.7	3.8	7.41e-01	0	57	104	203948032	71	38682
2026-01-03 11:06:07.05	335.42	3.11	-54.8	-74.8	3.8	7.45e-01	0	57	104	203948032	71	38694
2026-01-03 11:06:11.03	335.38	2.84	-54.8	-74.7	3.8	7.47e-01	0	57	104	203948032	71	38679

#Closed at: 2026-01-03 11:06:11
#Recorded file [203 MB]: D:/Data/31026_260103_140541.dat