passes_logs/2026/01/03/R3.0SM8_Murmansk_STILSPACE/R3.0SM8_Murmansk_STILSPACE__20260103_212714_NOAA_21_JPSS-2_rec.log

#Pass ID: 20260103_212714_NOAA 21 (JPSS-2)
#Satellite: NOAA 21 (JPSS-2)
#Configuration: NOAA-21
#almurnet v.1.7.20240730
#Start time: 2026-01-03 21:27:14

#Version: 2.2.20231116
#Station: R3.0SM8_Murmansk_STILSPACE
#Location: 33.092731 lon 68.902999 lat
#TLE: 1 54234U 22150A   26003.45311712  .00000198  00000+0  11468-3 0  9993
#TLE: 2 54234  98.7487 304.4932 0001159 347.5017  12.6130 14.19531745163172

#Time	Az	El	Level	Level2	SNR	BER	BlckErr	Temp	State	Recorded	gain1	gain2
2026-01-03 21:27:14.83	20.34	3.00	-52.5	-64.0	3.8	1.49e+00	0	45	0	0	67	13753
2026-01-03 21:27:17.79	20.64	3.14	-52.4	-63.9	3.8	1.49e+00	0	46	104	0	67	13648
2026-01-03 21:27:20.77	20.94	3.28	-51.7	-63.2	3.8	1.49e+00	0	46	104	0	65	14208
2026-01-03 21:27:23.74	21.24	3.42	-52.3	-63.8	3.8	1.49e+00	0	46	104	0	66	14226
2026-01-03 21:27:26.72	21.55	3.56	-52.1	-63.6	3.8	1.49e+00	0	46	104	0	66	13940
2026-01-03 21:27:29.68	21.86	3.70	-51.6	-63.2	3.8	1.49e+00	0	47	104	0	66	13281
2026-01-03 21:27:32.64	22.17	3.83	-51.4	-62.9	3.8	1.49e+00	0	47	104	0	65	13657
2026-01-03 21:27:35.61	22.48	3.97	-51.3	-62.8	3.8	1.49e+00	0	47	104	0	65	13539
2026-01-03 21:27:38.58	22.80	4.11	-51.5	-62.8	3.8	1.49e+00	0	47	104	0	65	13538
2026-01-03 21:27:41.55	23.11	4.25	-51.4	-62.9	3.8	1.49e+00	0	47	104	0	65	13708
2026-01-03 21:27:44.52	23.44	4.39	-51.5	-62.8	3.8	1.49e+00	0	48	104	0	65	13507
2026-01-03 21:27:47.49	23.76	4.53	-51.5	-62.6	3.8	1.49e+00	0	48	104	0	65	13224
2026-01-03 21:27:50.45	24.09	4.67	-51.3	-62.3	3.8	1.49e+00	0	48	104	0	65	12733
2026-01-03 21:27:53.42	24.42	4.81	-50.9	-58.5	4.4	1.46e+00	0	48	104	0	65	8260
2026-01-03 21:27:56.39	24.75	4.95	-49.7	-53.8	7.9	1.18e-01	0	48	0	7340032	62	5700
2026-01-03 21:27:59.35	25.09	5.08	-48.7	-51.7	10.0	6.28e-03	0	48	0	16777216	60	5041
2026-01-03 21:28:02.32	25.43	5.22	-48.4	-51.0	10.8	3.34e-03	0	49	0	25165824	59	4908
2026-01-03 21:28:05.29	25.77	5.36	-47.7	-49.9	12.0	3.59e-04	0	49	0	34603008	58	4585
2026-01-03 21:28:08.25	26.12	5.50	-48.1	-50.5	11.4	1.01e-03	0	49	0	44040192	58	4898
2026-01-03 21:28:11.22	26.47	5.64	-47.3	-49.3	12.7	8.46e-05	0	49	0	53477376	57	4506
2026-01-03 21:28:14.18	26.82	5.78	-47.2	-49.2	12.7	5.87e-05	0	49	0	62914560	57	4469
2026-01-03 21:28:17.15	27.17	5.91	-47.1	-49.0	13.0	3.89e-05	0	49	0	72351744	57	4350
2026-01-03 21:28:20.12	27.53	6.05	-46.7	-48.5	13.5	9.10e-06	0	49	0	80740352	56	4373
2026-01-03 21:28:23.09	27.89	6.19	-46.9	-48.7	13.3	1.83e-05	0	50	0	90177536	56	4473
2026-01-03 21:28:26.05	28.26	6.33	-46.7	-48.4	13.6	6.80e-06	0	50	0	99614720	56	4315
2026-01-03 21:28:28.99	28.62	6.46	-46.9	-48.7	13.4	1.83e-05	0	50	0	109051904	56	4459
2026-01-03 21:28:31.96	29.00	6.60	-46.3	-47.9	14.1	5.30e-06	0	50	0	118489088	55	4297
2026-01-03 21:28:34.92	29.37	6.74	-46.2	-47.8	14.2	2.20e-06	0	50	0	127926272	55	4244
2026-01-03 21:28:37.88	29.75	6.87	-46.2	-47.8	14.2	0.00e+00	0	50	0	136314880	55	4277
2026-01-03 21:28:40.85	30.13	7.01	-46.1	-47.7	14.4	7.00e-07	0	50	0	145752064	55	4194
2026-01-03 21:28:43.82	30.52	7.14	-46.1	-47.7	14.3	7.00e-07	0	51	0	155189248	55	4211
2026-01-03 21:28:46.79	30.90	7.28	-46.2	-47.8	14.2	1.50e-06	0	51	0	164626432	55	4269
2026-01-03 21:28:49.76	31.30	7.41	-46.2	-47.7	14.2	0.00e+00	0	51	0	174063616	55	4235
2026-01-03 21:28:52.73	31.69	7.55	-45.9	-47.4	14.6	0.00e+00	0	51	0	183500800	55	4071
2026-01-03 21:28:55.69	32.09	7.68	-45.9	-47.3	14.7	0.00e+00	0	51	0	191889408	54	4282
2026-01-03 21:28:58.65	32.49	7.82	-45.8	-47.3	14.8	0.00e+00	0	51	0	201326592	54	4268
2026-01-03 21:29:01.62	32.90	7.95	-46.0	-47.4	14.7	7.00e-07	0	51	0	210763776	54	4331
2026-01-03 21:29:04.58	33.31	8.08	-46.0	-47.4	14.7	1.50e-06	0	51	0	220200960	54	4339
2026-01-03 21:29:07.55	33.72	8.21	-46.2	-47.7	14.4	1.50e-06	0	52	0	229638144	54	4458
2026-01-03 21:29:10.53	34.14	8.35	-46.3	-47.9	14.3	1.50e-06	0	52	0	239075328	54	4560
2026-01-03 21:29:13.49	34.56	8.48	-46.0	-47.5	14.7	0.00e+00	0	52	0	248512512	54	4365
2026-01-03 21:29:16.46	34.99	8.61	-46.2	-47.7	14.5	0.00e+00	0	52	0	256901120	54	4455
2026-01-03 21:29:19.42	35.41	8.74	-46.4	-47.9	14.3	1.50e-06	0	52	0	266338304	54	4550
2026-01-03 21:29:22.39	35.85	8.87	-46.2	-47.6	14.6	7.00e-07	0	52	0	275775488	54	4432
2026-01-03 21:29:25.37	36.28	8.99	-46.0	-47.4	14.8	7.00e-07	0	52	0	285212672	54	4326
2026-01-03 21:29:28.33	36.72	9.12	-45.7	-47.1	15.1	0.00e+00	0	52	0	294649856	54	4157
2026-01-03 21:29:31.29	37.16	9.25	-45.8	-47.1	15.1	0.00e+00	0	52	0	304087040	54	4161
2026-01-03 21:29:34.25	37.61	9.37	-45.8	-47.2	15.0	7.00e-07	0	52	0	312475648	54	4232
2026-01-03 21:29:37.22	38.06	9.50	-45.8	-47.2	15.1	0.00e+00	0	52	0	321912832	54	4206
2026-01-03 21:29:40.18	38.51	9.62	-45.6	-46.9	15.3	0.00e+00	0	52	0	331350016	54	4088
2026-01-03 21:29:43.16	38.97	9.75	-45.6	-47.0	15.3	0.00e+00	0	52	0	340787200	54	4111
2026-01-03 21:29:46.13	39.43	9.87	-45.8	-47.2	15.0	0.00e+00	0	53	0	350224384	54	4232
2026-01-03 21:29:49.09	39.90	9.99	-45.6	-46.9	15.4	0.00e+00	0	53	0	359661568	54	4069
2026-01-03 21:29:52.05	40.37	10.11	-45.7	-47.0	15.2	0.00e+00	0	53	0	368050176	54	4145
2026-01-03 21:29:55.01	40.84	10.23	-45.6	-46.8	15.5	0.00e+00	0	53	0	377487360	54	4039
2026-01-03 21:29:57.98	41.31	10.34	-45.6	-46.9	15.4	0.00e+00	0	53	0	386924544	54	4096
2026-01-03 21:30:00.95	41.79	10.46	-45.6	-46.9	15.4	0.00e+00	0	53	0	396361728	54	4083
2026-01-03 21:30:03.92	42.28	10.58	-45.7	-47.0	15.3	0.00e+00	0	53	0	405798912	54	4117
2026-01-03 21:30:06.87	42.76	10.69	-45.9	-47.3	15.0	0.00e+00	0	53	0	415236096	54	4286
2026-01-03 21:30:09.82	43.25	10.80	-45.5	-46.8	15.6	0.00e+00	0	53	0	423624704	54	4017
2026-01-03 21:30:12.79	43.75	10.91	-45.6	-46.9	15.4	0.00e+00	0	53	0	433061888	54	4085
2026-01-03 21:30:15.77	44.25	11.02	-45.5	-46.8	15.6	0.00e+00	0	53	0	442499072	54	4012
2026-01-03 21:30:18.74	44.75	11.13	-45.8	-47.1	15.3	0.00e+00	0	53	0	451936256	54	4165
2026-01-03 21:30:21.70	45.25	11.24	-45.9	-47.2	15.2	0.00e+00	0	53	0	461373440	54	4220
2026-01-03 21:30:24.66	45.76	11.35	-45.3	-46.5	15.8	0.00e+00	0	53	0	470810624	53	4134
2026-01-03 21:30:27.63	46.28	11.45	-45.4	-46.6	15.7	0.00e+00	0	54	0	479199232	53	4170
2026-01-03 21:30:30.59	46.79	11.55	-45.5	-46.7	15.7	0.00e+00	0	54	0	488636416	53	4208
2026-01-03 21:30:33.57	47.31	11.65	-45.6	-46.9	15.4	0.00e+00	0	54	0	498073600	53	4317
2026-01-03 21:30:36.54	47.84	11.75	-45.7	-47.0	15.3	0.00e+00	0	54	0	507510784	53	4367
2026-01-03 21:30:39.50	48.36	11.85	-45.6	-46.9	15.5	0.00e+00	0	54	0	516947968	53	4302
2026-01-03 21:30:42.47	48.89	11.94	-45.5	-46.8	15.6	0.00e+00	0	54	0	526385152	53	4253
2026-01-03 21:30:45.45	49.43	12.04	-45.7	-47.0	15.3	7.00e-07	0	54	0	535822336	53	4383
2026-01-03 21:30:48.42	49.96	12.13	-45.8	-47.1	15.2	7.00e-07	0	54	0	544210944	53	4433
2026-01-03 21:30:51.39	50.51	12.22	-45.6	-46.8	15.6	0.00e+00	0	54	0	553648128	53	4270
2026-01-03 21:30:54.36	51.05	12.31	-45.5	-46.7	15.6	0.00e+00	0	54	0	563085312	53	4242
2026-01-03 21:30:57.33	51.60	12.39	-45.6	-46.9	15.5	0.00e+00	0	54	0	572522496	53	4319
2026-01-03 21:31:00.30	52.15	12.48	-45.6	-46.9	15.5	0.00e+00	0	54	0	581959680	53	4308
2026-01-03 21:31:03.26	52.70	12.56	-45.3	-46.5	15.9	0.00e+00	0	54	0	591396864	53	4110
2026-01-03 21:31:06.23	53.25	12.64	-45.2	-46.4	16.0	0.00e+00	0	54	0	599785472	53	4074
2026-01-03 21:31:09.19	53.81	12.72	-45.4	-46.6	15.7	0.00e+00	0	54	0	609222656	53	4185
2026-01-03 21:31:12.17	54.37	12.79	-45.4	-46.6	15.8	0.00e+00	0	54	0	618659840	53	4175
2026-01-03 21:31:15.14	54.94	12.87	-45.0	-46.1	16.3	0.00e+00	0	55	0	628097024	53	3936
2026-01-03 21:31:18.10	55.50	12.94	-45.0	-46.1	16.2	0.00e+00	0	54	0	637534208	53	3950
2026-01-03 21:31:21.07	56.07	13.00	-45.2	-46.4	16.0	0.00e+00	0	54	0	646971392	53	4068
2026-01-03 21:31:24.04	56.64	13.07	-45.1	-46.2	16.2	0.00e+00	0	54	0	656408576	53	3990
2026-01-03 21:31:27.00	57.22	13.13	-44.9	-46.0	16.4	0.00e+00	0	55	0	664797184	53	3901
2026-01-03 21:31:29.97	57.79	13.20	-45.1	-46.2	16.2	0.00e+00	0	54	0	674234368	53	3983
2026-01-03 21:31:32.94	58.37	13.25	-45.2	-46.3	16.1	0.00e+00	0	55	0	683671552	53	4034
2026-01-03 21:31:35.90	58.95	13.31	-45.3	-46.5	15.9	0.00e+00	0	55	0	693108736	53	4119
2026-01-03 21:31:38.87	59.54	13.36	-44.8	-45.8	16.5	0.00e+00	0	54	0	702545920	52	4046
2026-01-03 21:31:41.83	60.12	13.41	-44.9	-46.0	16.4	0.00e+00	0	55	0	711983104	52	4119
2026-01-03 21:31:44.80	60.71	13.46	-45.2	-46.4	16.1	0.00e+00	0	55	0	720371712	52	4296
2026-01-03 21:31:47.76	61.29	13.51	-45.4	-46.5	15.9	0.00e+00	0	55	0	729808896	52	4380
2026-01-03 21:31:50.72	61.88	13.55	-45.4	-46.7	15.8	0.00e+00	0	55	0	739246080	52	4450
2026-01-03 21:31:53.69	62.48	13.59	-45.4	-46.7	15.8	0.00e+00	0	55	0	748683264	52	4449
2026-01-03 21:31:56.65	63.07	13.63	-45.0	-46.2	16.2	0.00e+00	0	55	0	758120448	52	4206
2026-01-03 21:31:59.63	63.67	13.66	-45.2	-46.4	16.0	0.00e+00	0	55	0	767557632	52	4330
2026-01-03 21:32:02.60	64.26	13.70	-45.4	-46.6	15.8	0.00e+00	0	55	0	776994816	52	4414
2026-01-03 21:32:05.56	64.86	13.72	-45.0	-46.2	16.3	0.00e+00	0	55	0	785383424	52	4199
2026-01-03 21:32:08.53	65.46	13.75	-45.3	-46.5	16.0	0.00e+00	0	55	0	794820608	52	4354
2026-01-03 21:32:11.50	66.06	13.77	-45.6	-46.8	15.6	0.00e+00	0	55	0	804257792	52	4537
2026-01-03 21:32:14.48	66.66	13.80	-45.6	-46.9	15.6	0.00e+00	0	55	0	813694976	53	4308
2026-01-03 21:32:17.45	67.27	13.81	-45.7	-47.0	15.5	0.00e+00	0	55	0	823132160	53	4346
2026-01-03 21:32:20.42	67.87	13.83	-45.8	-47.0	15.4	0.00e+00	0	55	0	832569344	53	4391
2026-01-03 21:32:23.39	68.47	13.84	-45.4	-46.6	15.9	0.00e+00	0	55	0	840957952	53	4171
2026-01-03 21:32:26.36	69.08	13.85	-45.4	-46.6	15.9	0.00e+00	0	55	0	850395136	53	4174
2026-01-03 21:32:29.33	69.68	13.85	-45.1	-46.2	16.2	0.00e+00	0	55	0	859832320	53	3998
2026-01-03 21:32:32.29	70.28	13.86	-45.4	-46.5	15.9	0.00e+00	0	55	0	869269504	53	4145
2026-01-03 21:32:35.27	70.89	13.86	-45.5	-46.7	15.8	0.00e+00	0	55	0	878706688	53	4211
2026-01-03 21:32:38.25	71.49	13.86	-44.8	-45.9	16.5	0.00e+00	0	55	0	888143872	52	4081
2026-01-03 21:32:41.19	72.09	13.85	-44.8	-45.9	16.6	0.00e+00	0	55	0	897581056	52	4064
2026-01-03 21:32:44.17	72.70	13.84	-45.2	-46.4	16.0	0.00e+00	0	55	0	905969664	52	4313
2026-01-03 21:32:47.15	73.30	13.83	-44.9	-46.1	16.4	0.00e+00	0	55	0	915406848	52	4148
2026-01-03 21:32:50.12	73.91	13.82	-45.1	-46.3	16.2	0.00e+00	0	56	0	924844032	52	4253
2026-01-03 21:32:53.11	74.51	13.80	-45.4	-46.6	15.9	0.00e+00	0	56	0	934281216	52	4413
2026-01-03 21:32:56.07	75.11	13.78	-45.4	-46.6	15.8	0.00e+00	0	55	0	943718400	52	4436
2026-01-03 21:32:59.05	75.72	13.76	-45.5	-46.7	15.8	0.00e+00	0	55	0	953155584	53	4226
2026-01-03 21:33:02.01	76.32	13.73	-45.8	-47.1	15.4	0.00e+00	0	55	0	962592768	53	4430
2026-01-03 21:33:04.97	76.91	13.70	-45.3	-46.5	16.0	0.00e+00	0	56	0	970981376	53	4116
2026-01-03 21:33:07.94	77.51	13.67	-45.1	-46.3	16.2	0.00e+00	0	56	0	980418560	53	4014
2026-01-03 21:33:10.91	78.11	13.64	-44.9	-46.0	16.5	0.00e+00	0	56	0	989855744	52	4112
2026-01-03 21:33:13.87	78.70	13.60	-45.2	-46.3	16.1	0.00e+00	0	55	0	999292928	52	4278
2026-01-03 21:33:16.84	79.29	13.56	-45.5	-46.7	15.8	0.00e+00	0	56	0	1008730112	52	4474
2026-01-03 21:33:19.81	79.89	13.52	-45.0	-46.1	16.4	0.00e+00	0	56	0	1018167296	52	4182
2026-01-03 21:33:22.78	80.48	13.47	-45.0	-46.1	16.3	0.00e+00	0	55	0	1026555904	52	4175
2026-01-03 21:33:25.74	81.06	13.42	-45.2	-46.3	16.1	0.00e+00	0	55	0	1035993088	52	4270
2026-01-03 21:33:28.71	81.65	13.37	-44.9	-46.0	16.5	0.00e+00	0	55	0	1045430272	52	4111
2026-01-03 21:33:31.66	82.23	13.32	-45.0	-46.1	16.3	0.00e+00	0	56	0	1054867456	52	4184
2026-01-03 21:33:34.63	82.82	13.26	-45.0	-46.2	16.3	0.00e+00	0	56	0	1064304640	52	4202
2026-01-03 21:33:37.60	83.40	13.21	-45.2	-46.4	16.1	0.00e+00	0	56	0	1073741824	52	4314
2026-01-03 21:33:40.57	83.97	13.14	-45.5	-46.7	15.7	0.00e+00	0	56	0	1082130432	52	4484
2026-01-03 21:33:43.54	84.55	13.08	-45.3	-46.5	16.0	0.00e+00	0	56	0	1091567616	53	4110
2026-01-03 21:33:46.51	85.12	13.02	-45.3	-46.4	16.1	0.00e+00	0	56	0	1101004800	53	4075
2026-01-03 21:33:49.48	85.70	12.95	-45.0	-46.2	16.3	0.00e+00	0	56	0	1110441984	53	3978
2026-01-03 21:33:52.44	86.26	12.88	-45.3	-46.5	16.0	0.00e+00	0	56	0	1119879168	53	4124
2026-01-03 21:33:55.39	86.83	12.80	-45.5	-46.8	15.7	0.00e+00	0	56	0	1129316352	53	4243
2026-01-03 21:33:58.36	87.39	12.73	-45.5	-46.8	15.7	0.00e+00	0	56	0	1137704960	53	4263
2026-01-03 21:34:01.34	87.95	12.65	-45.5	-46.7	15.7	0.00e+00	0	56	0	1147142144	53	4241
2026-01-03 21:34:04.30	88.51	12.57	-45.7	-47.0	15.5	0.00e+00	0	56	0	1156579328	53	4348
2026-01-03 21:34:07.27	89.06	12.49	-45.8	-47.1	15.4	0.00e+00	0	56	0	1166016512	53	4393
2026-01-03 21:34:10.24	89.61	12.41	-45.9	-47.2	15.2	0.00e+00	0	56	0	1175453696	53	4472
2026-01-03 21:34:13.21	90.16	12.32	-45.3	-46.5	15.9	0.00e+00	0	56	0	1184890880	53	4137
2026-01-03 21:34:16.19	90.71	12.23	-45.6	-46.8	15.6	0.00e+00	0	56	0	1194328064	53	4277
2026-01-03 21:34:19.16	91.25	12.14	-45.3	-46.4	16.0	0.00e+00	0	56	0	1202716672	53	4082
2026-01-03 21:34:22.12	91.79	12.05	-45.3	-46.4	16.0	0.00e+00	0	56	0	1212153856	53	4076
2026-01-03 21:34:25.10	92.33	11.96	-45.7	-46.9	15.5	0.00e+00	0	56	0	1221591040	53	4317
2026-01-03 21:34:28.06	92.86	11.86	-45.2	-46.3	16.1	0.00e+00	0	56	0	1231028224	53	4049
2026-01-03 21:34:31.01	93.38	11.76	-45.0	-46.1	16.4	0.00e+00	0	56	0	1240465408	53	3917
2026-01-03 21:34:33.98	93.91	11.66	-45.1	-46.2	16.2	0.00e+00	0	56	0	1249902592	53	3976
2026-01-03 21:34:36.96	94.43	11.56	-45.4	-46.6	15.9	0.00e+00	0	56	0	1259339776	53	4147
2026-01-03 21:34:39.93	94.95	11.46	-45.3	-46.5	15.9	0.00e+00	0	56	0	1267728384	53	4129
2026-01-03 21:34:42.90	95.47	11.36	-45.5	-46.7	15.7	0.00e+00	0	56	0	1277165568	53	4242
2026-01-03 21:34:45.86	95.98	11.25	-45.3	-46.5	16.0	0.00e+00	0	56	0	1286602752	53	4111
2026-01-03 21:34:48.83	96.49	11.14	-45.5	-46.8	15.6	0.00e+00	0	56	0	1296039936	53	4267
2026-01-03 21:34:51.79	96.99	11.03	-45.5	-46.8	15.6	0.00e+00	0	56	0	1305477120	53	4267
2026-01-03 21:34:54.76	97.49	10.92	-45.9	-47.2	15.2	0.00e+00	0	56	0	1314914304	53	4481
2026-01-03 21:34:57.73	97.99	10.81	-46.1	-47.5	15.0	0.00e+00	0	56	0	1323302912	54	4348
2026-01-03 21:35:00.69	98.48	10.70	-46.1	-47.5	14.9	0.00e+00	0	56	0	1332740096	54	4367
2026-01-03 21:35:03.65	98.97	10.58	-46.3	-47.7	14.7	7.00e-07	0	56	0	1342177280	54	4489
2026-01-03 21:35:06.62	99.46	10.47	-45.8	-47.1	15.3	0.00e+00	0	56	0	1351614464	54	4169
2026-01-03 21:35:09.60	99.94	10.35	-45.7	-47.0	15.4	0.00e+00	0	56	0	1361051648	54	4122
2026-01-03 21:35:12.58	100.42	10.23	-45.7	-46.9	15.4	0.00e+00	0	56	0	1370488832	54	4096
2026-01-03 21:35:15.55	100.90	10.11	-46.0	-47.4	15.0	0.00e+00	0	56	0	1379926016	54	4306
2026-01-03 21:35:18.51	101.37	9.99	-46.0	-47.4	15.0	0.00e+00	0	56	0	1388314624	54	4317
2026-01-03 21:35:21.48	101.83	9.87	-46.0	-47.3	15.1	7.00e-07	0	56	0	1397751808	54	4277
2026-01-03 21:35:24.44	102.30	9.75	-45.8	-47.2	15.3	0.00e+00	0	56	0	1407188992	54	4195
2026-01-03 21:35:27.42	102.76	9.62	-45.9	-47.2	15.2	0.00e+00	0	56	0	1416626176	54	4230
2026-01-03 21:35:30.39	103.21	9.50	-46.0	-47.4	15.0	0.00e+00	0	56	0	1426063360	54	4307
2026-01-03 21:35:33.36	103.67	9.37	-46.3	-47.8	14.6	0.00e+00	0	56	0	1435500544	54	4506
2026-01-03 21:35:36.33	104.12	9.25	-46.0	-47.4	14.9	0.00e+00	0	56	0	1443889152	54	4313
2026-01-03 21:35:39.30	104.56	9.12	-46.1	-47.5	14.8	0.00e+00	0	56	0	1453326336	54	4375
2026-01-03 21:35:42.25	105.00	8.99	-46.4	-47.8	14.5	1.50e-06	0	56	0	1462763520	54	4534
2026-01-03 21:35:45.21	105.44	8.86	-46.1	-47.4	14.9	0.00e+00	0	56	0	1472200704	54	4334
2026-01-03 21:35:48.18	105.87	8.73	-46.2	-47.6	14.7	0.00e+00	0	56	0	1481637888	54	4404
2026-01-03 21:35:51.16	106.30	8.60	-46.3	-47.8	14.5	7.00e-07	0	56	0	1491075072	54	4525
2026-01-03 21:35:54.14	106.73	8.47	-46.5	-48.0	14.3	1.50e-06	0	56	0	1500512256	54	4640
2026-01-03 21:35:57.10	107.15	8.34	-46.5	-48.1	14.2	7.00e-07	0	56	0	1508900864	55	4413
2026-01-03 21:36:00.08	107.57	8.21	-46.4	-47.9	14.4	7.00e-07	0	56	0	1518338048	55	4310
2026-01-03 21:36:03.05	107.99	8.07	-46.6	-48.1	14.2	3.80e-06	0	56	0	1527775232	55	4438
2026-01-03 21:36:06.03	108.40	7.94	-46.5	-48.1	14.2	7.00e-07	0	56	0	1537212416	55	4412
2026-01-03 21:36:08.99	108.81	7.80	-46.4	-47.9	14.4	2.20e-06	0	56	0	1546649600	55	4315
2026-01-03 21:36:11.95	109.21	7.67	-46.7	-48.3	13.9	3.80e-06	0	56	0	1556086784	55	4524
2026-01-03 21:36:14.91	109.61	7.54	-46.3	-47.8	14.4	0.00e+00	0	56	0	1564475392	55	4275
2026-01-03 21:36:17.88	110.01	7.40	-46.4	-47.9	14.3	2.20e-06	0	57	0	1573912576	55	4340
2026-01-03 21:36:20.85	110.40	7.26	-46.5	-48.1	14.1	1.50e-06	0	57	0	1583349760	55	4412
2026-01-03 21:36:23.83	110.80	7.13	-46.6	-48.3	14.0	1.50e-06	0	56	0	1592786944	55	4500
2026-01-03 21:36:26.80	111.18	6.99	-46.8	-48.5	13.7	7.60e-06	0	56	0	1602224128	55	4637
2026-01-03 21:36:29.74	111.56	6.85	-46.6	-48.2	14.0	2.20e-06	0	56	0	1611661312	55	4469
2026-01-03 21:36:32.70	111.94	6.72	-46.7	-48.4	13.7	9.10e-06	0	56	0	1620049920	55	4579
2026-01-03 21:36:35.67	112.32	6.58	-46.8	-48.5	13.6	1.29e-05	0	56	0	1629487104	55	4645
2026-01-03 21:36:38.63	112.69	6.44	-47.0	-48.7	13.5	1.52e-05	0	57	0	1638924288	56	4466
2026-01-03 21:36:41.59	113.06	6.30	-46.9	-48.6	13.7	7.60e-06	0	56	0	1648361472	56	4403
2026-01-03 21:36:44.56	113.43	6.16	-46.8	-48.5	13.7	6.10e-06	0	57	0	1657798656	56	4383
2026-01-03 21:36:47.52	113.79	6.03	-47.1	-48.9	13.4	1.90e-05	0	57	0	1667235840	56	4547
2026-01-03 21:36:50.50	114.15	5.89	-47.1	-49.0	13.2	2.51e-05	0	56	0	1676673024	56	4613
2026-01-03 21:36:53.47	114.51	5.75	-47.1	-49.0	13.2	2.59e-05	0	57	0	1685061632	56	4606
2026-01-03 21:36:56.44	114.86	5.61	-47.1	-48.9	13.3	2.28e-05	0	56	0	1694498816	56	4563
2026-01-03 21:36:59.41	115.21	5.47	-46.9	-48.7	13.4	1.98e-05	0	57	0	1703936000	56	4468
2026-01-03 21:37:02.39	115.56	5.33	-47.1	-48.9	13.2	1.44e-05	0	57	0	1713373184	56	4585
2026-01-03 21:37:05.36	115.90	5.19	-47.3	-49.3	12.7	7.17e-05	0	56	0	1722810368	56	4803
2026-01-03 21:37:08.34	116.24	5.05	-47.0	-48.9	13.2	3.20e-05	0	57	0	1732247552	56	4562
2026-01-03 21:37:11.32	116.58	4.91	-52.1	-63.6	3.8	1.49e+00	0	57	104	1734344704	66	13970
2026-01-03 21:37:14.27	116.92	4.77	-52.3	-63.8	3.8	1.49e+00	0	57	104	1734344704	66	14349
2026-01-03 21:37:17.25	117.25	4.63	-52.4	-64.0	3.8	1.49e+00	0	57	104	1734344704	66	14541
2026-01-03 21:37:20.21	117.58	4.49	-52.5	-64.0	3.8	1.49e+00	0	57	104	1734344704	67	13838
2026-01-03 21:37:23.19	117.90	4.35	-52.6	-64.1	3.8	1.49e+00	0	57	104	1734344704	67	13977
2026-01-03 21:37:26.17	118.23	4.21	-52.7	-64.1	3.8	1.49e+00	0	57	104	1734344704	67	14011
2026-01-03 21:37:29.11	118.54	4.07	-52.6	-64.2	3.8	1.49e+00	0	57	104	1734344704	67	14068
2026-01-03 21:37:32.06	118.86	3.93	-52.8	-64.2	3.8	1.49e+00	0	57	104	1734344704	67	14145
2026-01-03 21:37:35.03	119.17	3.79	-52.8	-64.2	3.8	1.49e+00	0	57	104	1734344704	67	14145
2026-01-03 21:37:37.99	119.48	3.65	-52.6	-64.2	3.8	1.49e+00	0	57	104	1734344704	67	14124
2026-01-03 21:37:40.96	119.79	3.51	-52.8	-64.2	3.8	1.49e+00	0	57	104	1734344704	67	14124
2026-01-03 21:37:43.93	120.10	3.37	-52.6	-64.2	3.8	1.49e+00	0	57	104	1734344704	67	14144
2026-01-03 21:37:46.91	120.40	3.23	-52.7	-64.2	3.8	1.49e+00	0	57	104	1734344704	67	14109
2026-01-03 21:37:49.87	120.70	3.09	-52.6	-64.2	3.8	1.49e+00	0	57	104	1734344704	67	14154

#Closed at: 2026-01-03 21:37:52
#Recorded file [1734 MB]: D:/Data/31026_260104_003709.dat