passes_logs/2026/01/03/R3.0SM8_Murmansk_STILSPACE/R3.0SM8_Murmansk_STILSPACE__20260103_060505_FENGYUN_3E_rec.log

#Pass ID: 20260103_060505_FENGYUN 3E
#Satellite: FENGYUN 3E
#Configuration: FENGYUN 3E
#almurnet v.1.7.20240730
#Start time: 2026-01-03 06:10:17

#Version: 2.2.20231116
#Station: R3.0SM8_Murmansk_STILSPACE
#Location: 33.092731 lon 68.902999 lat
#TLE: 1 49008U 21062A   26002.32147302  .00000239  00000+0  13357-3 0  9999
#TLE: 2 49008  98.7477   7.5995 0001398 164.3382 195.7838 14.19884140233041

#Time	Az	El	Level	Level2	SNR	BER	BlckErr	Temp	State	Recorded	gain1	gain2
2026-01-03 06:10:17.36	0.32	38.33	-53.3	-64.2	3.8	8.46e-01	0	56	0	0	68	13309
2026-01-03 06:10:20.33	359.45	38.88	-53.4	-63.6	3.8	8.46e-01	0	58	104	0	69	11589
2026-01-03 06:10:23.30	358.54	39.44	-53.3	-63.6	3.8	8.46e-01	0	57	104	0	69	11615
2026-01-03 06:10:26.27	357.59	40.00	-53.3	-63.6	3.8	8.47e-01	0	57	104	0	69	11581
2026-01-03 06:10:29.23	356.62	40.56	-53.4	-63.6	3.8	8.47e-01	0	57	104	0	69	11584
2026-01-03 06:10:32.19	355.62	41.11	-53.4	-63.5	3.8	8.45e-01	0	57	104	0	69	11541
2026-01-03 06:10:35.17	354.57	41.67	-53.2	-63.5	3.8	8.46e-01	0	57	104	0	69	11497
2026-01-03 06:10:38.13	353.49	42.22	-53.3	-63.5	3.8	8.45e-01	0	58	104	0	69	11549
2026-01-03 06:10:41.11	352.37	42.77	-53.2	-63.6	3.8	8.47e-01	0	58	104	0	69	11554
2026-01-03 06:10:44.06	351.22	43.31	-53.2	-63.5	3.8	8.46e-01	0	58	104	0	69	11496
2026-01-03 06:10:47.03	350.02	43.85	-53.3	-63.4	3.8	8.46e-01	0	58	104	0	69	11293
2026-01-03 06:10:50.01	348.77	44.39	-53.3	-63.1	3.8	8.46e-01	0	57	104	0	69	11013
2026-01-03 06:10:52.98	347.49	44.91	-53.2	-63.4	3.8	8.47e-01	0	58	104	0	69	11362
2026-01-03 06:10:55.95	346.17	45.42	-53.3	-63.4	3.8	8.46e-01	0	58	104	0	69	11315
2026-01-03 06:10:58.92	344.80	45.92	-53.2	-63.3	3.8	8.46e-01	0	58	104	0	69	11196
2026-01-03 06:11:01.88	343.39	46.41	-53.1	-61.9	3.8	8.45e-01	0	58	104	0	69	9505
2026-01-03 06:11:04.85	341.93	46.89	-53.1	-61.9	3.9	8.46e-01	0	58	104	0	68	10107
2026-01-03 06:11:07.81	340.44	47.34	-52.3	-58.2	4.8	8.20e-01	0	58	0	0	67	6963
2026-01-03 06:11:10.78	338.89	47.79	-41.7	-42.3	19.9	0.00e+00	0	58	0	18874368	46	3748
2026-01-03 06:11:13.76	337.30	48.21	-41.8	-42.3	19.9	0.00e+00	0	58	0	40894464	45	3972
2026-01-03 06:11:16.72	335.67	48.61	-42.6	-43.2	19.0	0.00e+00	0	57	0	61865984	46	4186
2026-01-03 06:11:19.69	333.99	48.99	-41.9	-42.5	19.7	0.00e+00	0	58	0	82837504	46	3832
2026-01-03 06:11:22.66	332.28	49.35	-42.0	-42.5	19.6	0.00e+00	0	58	0	104857600	46	3862
2026-01-03 06:11:25.63	330.52	49.68	-42.9	-43.6	18.7	0.00e+00	0	58	0	125829120	47	4121
2026-01-03 06:11:28.60	328.73	49.98	-42.3	-42.8	19.4	0.00e+00	0	58	0	147849216	47	3780
2026-01-03 06:11:31.57	326.90	50.25	-42.1	-42.7	19.5	0.00e+00	0	58	0	168820736	47	3720
2026-01-03 06:11:34.55	325.04	50.50	-42.2	-42.8	19.5	0.00e+00	0	58	0	190840832	46	3971
2026-01-03 06:11:37.52	323.15	50.71	-42.7	-43.3	18.9	0.00e+00	0	58	0	211812352	47	3975
2026-01-03 06:11:40.48	321.24	50.89	-42.4	-42.9	19.3	0.00e+00	0	58	0	233832448	47	3821
2026-01-03 06:11:43.44	319.32	51.04	-43.2	-43.9	18.6	0.00e+00	0	58	0	254803968	48	4007
2026-01-03 06:11:46.41	317.37	51.15	-42.8	-43.4	19.0	0.00e+00	0	58	0	275775488	48	3785
2026-01-03 06:11:49.36	315.42	51.23	-42.1	-42.7	19.6	0.00e+00	0	58	0	297795584	46	3932
2026-01-03 06:11:52.33	313.45	51.27	-42.4	-43.0	19.2	0.00e+00	0	58	0	318767104	46	4076
2026-01-03 06:11:55.28	311.48	51.28	-42.1	-42.6	19.5	0.00e+00	0	58	0	340787200	46	3907
2026-01-03 06:11:58.25	309.51	51.25	-42.0	-42.6	19.6	0.00e+00	0	58	0	361758720	46	3889
2026-01-03 06:12:01.22	307.54	51.19	-42.2	-42.7	19.5	0.00e+00	0	57	0	383778816	46	3948
2026-01-03 06:12:04.17	305.60	51.09	-42.1	-42.6	19.5	0.00e+00	0	58	0	404750336	46	3891
2026-01-03 06:12:07.15	303.65	50.95	-42.5	-43.0	19.2	0.00e+00	0	58	0	425721856	46	4091
2026-01-03 06:12:10.12	301.73	50.78	-42.5	-43.1	19.2	0.00e+00	0	58	0	447741952	46	4108
2026-01-03 06:12:13.08	299.84	50.58	-42.1	-42.6	19.6	0.00e+00	0	58	0	468713472	46	3893
2026-01-03 06:12:16.04	297.97	50.35	-42.7	-43.3	18.8	0.00e+00	0	58	0	489684992	47	3995
2026-01-03 06:12:19.00	296.14	50.09	-43.0	-43.6	18.8	0.00e+00	0	58	0	511705088	48	3900
2026-01-03 06:12:21.97	294.33	49.80	-42.0	-42.5	19.7	0.00e+00	0	58	0	532676608	46	3857
2026-01-03 06:12:24.94	292.56	49.48	-42.3	-42.9	19.4	0.00e+00	0	58	0	554696704	46	4006
2026-01-03 06:12:27.90	290.83	49.13	-41.7	-42.2	20.0	0.00e+00	0	58	0	575668224	46	3699
2026-01-03 06:12:30.86	289.14	48.76	-42.3	-42.9	19.3	0.00e+00	0	58	0	596639744	46	4030
2026-01-03 06:12:33.82	287.49	48.37	-41.8	-42.3	19.9	0.00e+00	0	58	0	618659840	46	3773
2026-01-03 06:12:36.79	285.88	47.96	-42.1	-42.6	19.6	0.00e+00	0	58	0	639631360	46	3899
2026-01-03 06:12:39.75	284.32	47.52	-41.6	-42.1	20.1	0.00e+00	0	58	0	661651456	46	3663
2026-01-03 06:12:42.71	282.81	47.07	-41.7	-42.2	19.9	0.00e+00	0	58	0	682622976	46	3728
2026-01-03 06:12:45.67	281.34	46.60	-41.5	-42.0	20.2	0.00e+00	0	58	0	704643072	45	3830
2026-01-03 06:12:48.63	279.91	46.12	-41.0	-41.5	20.6	0.00e+00	0	58	0	725614592	45	3637
2026-01-03 06:12:51.60	278.52	45.62	-41.0	-41.5	20.7	0.00e+00	0	58	0	746586112	44	3834
2026-01-03 06:12:54.57	277.17	45.11	-41.4	-41.9	20.3	0.00e+00	0	58	0	768606208	44	4026
2026-01-03 06:12:57.55	275.87	44.59	-41.3	-41.9	20.3	0.00e+00	0	58	0	789577728	44	4006
2026-01-03 06:13:00.51	274.61	44.06	-41.2	-41.7	20.5	0.00e+00	0	58	0	811597824	44	3919
2026-01-03 06:13:03.48	273.39	43.52	-41.1	-41.6	20.5	0.00e+00	0	58	0	832569344	44	3898
2026-01-03 06:13:06.46	272.21	42.98	-40.8	-41.3	20.8	0.00e+00	0	58	0	853540864	44	3769
2026-01-03 06:13:09.42	271.08	42.43	-40.7	-41.2	21.0	0.00e+00	0	58	0	875560960	44	3707
2026-01-03 06:13:12.38	269.98	41.88	-41.2	-41.7	20.4	0.00e+00	0	58	0	896532480	44	3956
2026-01-03 06:13:15.35	268.92	41.32	-41.3	-41.8	20.3	0.00e+00	0	58	0	918552576	44	4004
2026-01-03 06:13:18.33	267.89	40.76	-41.2	-41.7	20.5	0.00e+00	0	58	0	939524096	44	3916
2026-01-03 06:13:21.29	266.90	40.20	-41.2	-41.7	20.4	0.00e+00	0	58	0	961544192	44	3952
2026-01-03 06:13:24.27	265.94	39.64	-41.3	-41.9	19.9	0.00e+00	0	58	0	982515712	44	4017
2026-01-03 06:13:27.23	265.02	39.08	-41.0	-41.4	20.7	0.00e+00	0	58	0	1004535808	44	3819
2026-01-03 06:13:30.18	264.14	38.53	-41.3	-41.8	20.4	0.00e+00	0	58	0	1025507328	44	3965
2026-01-03 06:13:33.15	263.27	37.97	-41.7	-42.3	19.9	0.00e+00	0	58	0	1046478848	45	3967
2026-01-03 06:13:36.11	262.44	37.41	-41.1	-41.6	20.5	0.00e+00	0	58	0	1067450368	45	3674
2026-01-03 06:13:39.08	261.64	36.86	-41.0	-41.5	20.7	0.00e+00	0	58	0	1089470464	44	3832
2026-01-03 06:13:42.05	260.86	36.31	-41.3	-41.9	20.2	0.00e+00	0	58	0	1110441984	44	4008
2026-01-03 06:13:45.01	260.11	35.76	-40.6	-41.1	20.4	0.00e+00	0	58	0	1132462080	44	3654
2026-01-03 06:13:47.98	259.38	35.22	-40.9	-41.4	20.7	0.00e+00	0	58	0	1153433600	44	3787
2026-01-03 06:13:50.95	258.68	34.68	-40.8	-41.2	20.9	0.00e+00	0	58	0	1175453696	44	3731
2026-01-03 06:13:53.92	258.00	34.15	-40.5	-41.0	21.0	0.00e+00	0	58	0	1196425216	43	3842
2026-01-03 06:13:56.90	257.34	33.61	-40.7	-41.1	20.9	0.00e+00	0	58	0	1218445312	43	3902
2026-01-03 06:13:59.87	256.70	33.09	-41.0	-41.5	20.5	0.00e+00	0	58	0	1239416832	43	4052
2026-01-03 06:14:02.84	256.09	32.57	-40.8	-41.3	20.7	0.00e+00	0	58	0	1261436928	43	3979
2026-01-03 06:14:05.82	255.49	32.05	-40.7	-41.1	20.8	0.00e+00	0	58	0	1282408448	43	3900
2026-01-03 06:14:08.78	254.91	31.54	-40.9	-41.4	20.6	0.00e+00	0	58	0	1304428544	43	4005
2026-01-03 06:14:11.76	254.35	31.04	-40.9	-41.3	20.6	0.00e+00	0	58	0	1325400064	43	3997
2026-01-03 06:14:14.72	253.81	30.54	-40.6	-41.1	20.9	0.00e+00	0	58	0	1347420160	43	3891
2026-01-03 06:14:17.69	253.28	30.05	-40.8	-41.2	20.7	0.00e+00	0	58	0	1368391680	43	3944
2026-01-03 06:14:20.66	252.77	29.56	-40.6	-41.1	20.9	0.00e+00	0	58	0	1389363200	43	3881
2026-01-03 06:14:23.63	252.28	29.08	-40.8	-41.3	20.6	0.00e+00	0	58	0	1411383296	43	3992
2026-01-03 06:14:26.60	251.80	28.60	-41.0	-41.5	20.3	0.00e+00	0	58	0	1432354816	43	4080
2026-01-03 06:14:29.56	251.33	28.13	-41.5	-42.0	20.1	0.00e+00	0	58	0	1453326336	44	4072
2026-01-03 06:14:32.50	250.89	27.67	-41.2	-41.7	20.4	0.00e+00	0	58	0	1475346432	45	3720
2026-01-03 06:14:35.48	250.45	27.21	-41.3	-41.8	20.3	0.00e+00	0	58	0	1496317952	45	3754
2026-01-03 06:14:38.46	250.02	26.76	-41.4	-41.9	20.1	0.00e+00	0	58	0	1518338048	45	3823
2026-01-03 06:14:41.43	249.60	26.31	-41.7	-42.2	19.9	0.00e+00	0	58	0	1539309568	45	3946
2026-01-03 06:14:44.41	249.20	25.87	-41.3	-41.8	20.3	0.00e+00	0	58	0	1561329664	45	3756
2026-01-03 06:14:47.38	248.81	25.43	-41.2	-41.7	20.3	0.00e+00	0	58	0	1582301184	45	3711
2026-01-03 06:14:50.33	248.43	25.01	-41.4	-42.0	20.1	0.00e+00	0	58	0	1604321280	45	3830
2026-01-03 06:14:53.30	248.06	24.58	-41.3	-41.8	20.3	0.00e+00	0	58	0	1625292800	45	3740
2026-01-03 06:14:56.26	247.70	24.16	-41.3	-41.9	20.2	0.00e+00	0	58	0	1647312896	45	3782
2026-01-03 06:14:59.23	247.35	23.75	-41.6	-42.2	19.9	0.00e+00	0	58	0	1668284416	45	3917
2026-01-03 06:15:02.20	247.01	23.34	-41.1	-41.6	20.4	0.00e+00	0	58	0	1690304512	45	3675
2026-01-03 06:15:05.18	246.67	22.94	-41.3	-41.8	20.3	0.00e+00	0	58	0	1711276032	45	3749
2026-01-03 06:15:08.15	246.35	22.54	-41.3	-41.8	20.2	0.00e+00	0	58	0	1733296128	45	3766
2026-01-03 06:15:11.11	246.04	22.15	-41.8	-42.3	19.7	0.00e+00	0	58	0	1754267648	45	3999
2026-01-03 06:15:14.07	245.73	21.76	-42.1	-42.7	19.3	0.00e+00	0	58	0	1775239168	45	4181
2026-01-03 06:15:17.04	245.43	21.38	-42.4	-43.0	19.0	0.00e+00	0	58	0	1796210688	46	4097
2026-01-03 06:15:20.00	245.14	21.00	-42.0	-42.5	19.5	0.00e+00	0	58	0	1818230784	46	3863
2026-01-03 06:15:22.97	244.85	20.63	-41.8	-42.4	19.7	0.00e+00	0	58	0	1839202304	46	3781
2026-01-03 06:15:25.93	244.58	20.26	-41.7	-42.2	19.8	0.00e+00	0	58	0	1861222400	46	3713
2026-01-03 06:15:28.89	244.31	19.90	-42.1	-42.7	19.3	0.00e+00	0	58	0	1882193920	46	3944
2026-01-03 06:15:31.85	244.04	19.54	-42.4	-43.0	19.0	0.00e+00	0	58	0	1903165440	46	4070
2026-01-03 06:15:34.81	243.78	19.18	-42.8	-43.4	18.6	0.00e+00	0	58	0	1925185536	47	4026
2026-01-03 06:15:37.76	243.53	18.84	-43.4	-44.0	18.2	0.00e+00	0	58	0	1946157056	48	4090
2026-01-03 06:15:40.72	243.29	18.49	-42.8	-43.4	18.9	0.00e+00	0	58	0	1968177152	48	3784
2026-01-03 06:15:43.69	243.05	18.15	-42.7	-43.3	19.0	0.00e+00	0	58	0	1989148672	48	3754
2026-01-03 06:15:46.65	242.81	17.81	-42.7	-43.3	18.9	0.00e+00	0	58	0	2011168768	48	3767
2026-01-03 06:15:49.63	242.58	17.48	-42.8	-43.4	18.8	0.00e+00	0	58	0	2032140288	48	3794
2026-01-03 06:15:52.61	242.36	17.15	-43.1	-43.7	18.5	0.00e+00	0	58	0	2054160384	48	3928
2026-01-03 06:15:55.58	242.14	16.82	-42.8	-43.4	18.7	0.00e+00	0	58	0	2075131904	48	3824
2026-01-03 06:15:58.55	241.92	16.50	-42.8	-43.4	18.8	0.00e+00	0	58	0	2096103424	48	3816
2026-01-03 06:16:01.52	241.71	16.18	-43.0	-43.6	18.6	0.00e+00	0	58	0	2118123520	48	3896
2026-01-03 06:16:04.50	241.51	15.87	-42.9	-43.5	18.6	0.00e+00	0	58	0	2139095040	48	3861
2026-01-03 06:16:07.47	241.30	15.55	-43.0	-43.6	18.6	0.00e+00	0	58	0	2161115136	48	3891
2026-01-03 06:16:10.43	241.11	15.25	-43.3	-44.0	18.2	0.00e+00	0	58	0	2182086656	48	4058
2026-01-03 06:16:13.40	240.92	14.94	-43.4	-44.1	18.1	0.00e+00	0	58	0	2204106752	48	4119
2026-01-03 06:16:16.37	240.73	14.64	-43.5	-44.2	18.0	0.00e+00	0	58	0	2225078272	48	4165
2026-01-03 06:16:19.34	240.54	14.35	-43.7	-44.5	17.7	0.00e+00	0	58	0	2246049792	49	4053
2026-01-03 06:16:22.31	240.36	14.05	-43.5	-44.2	17.9	0.00e+00	0	58	0	2268069888	49	3951
2026-01-03 06:16:25.28	240.18	13.76	-43.6	-44.3	17.8	0.00e+00	0	58	0	2289041408	49	3982
2026-01-03 06:16:28.25	240.01	13.47	-43.8	-44.5	17.6	0.00e+00	0	58	0	2311061504	49	4089
2026-01-03 06:16:31.21	239.84	13.19	-44.0	-44.8	17.3	0.00e+00	0	58	0	2332033024	49	4195
2026-01-03 06:16:34.18	239.68	12.91	-44.2	-45.0	17.0	0.00e+00	0	58	0	2354053120	50	4079
2026-01-03 06:16:37.15	239.51	12.63	-44.7	-45.6	16.5	0.00e+00	0	58	0	2375024640	51	4108
2026-01-03 06:16:40.11	239.35	12.36	-44.2	-45.0	17.0	0.00e+00	0	58	0	2397044736	51	3868
2026-01-03 06:16:43.08	239.20	12.08	-44.4	-45.2	16.8	0.00e+00	0	58	0	2418016256	51	3936
2026-01-03 06:16:46.05	239.04	11.81	-44.8	-45.6	16.3	0.00e+00	0	58	0	2438987776	51	4145
2026-01-03 06:16:49.02	238.89	11.55	-44.7	-45.6	16.4	0.00e+00	0	58	0	2461007872	51	4107
2026-01-03 06:16:51.98	238.74	11.28	-44.7	-45.6	16.3	0.00e+00	0	58	0	2481979392	51	4130
2026-01-03 06:16:54.94	238.60	11.02	-44.8	-45.7	16.2	0.00e+00	0	58	0	2502950912	51	4186
2026-01-03 06:16:57.92	238.45	10.76	-44.9	-45.8	16.0	0.00e+00	0	58	0	2524971008	51	4233
2026-01-03 06:17:00.88	238.32	10.51	-45.1	-46.0	15.8	0.00e+00	0	58	0	2545942528	51	4333
2026-01-03 06:17:03.84	238.18	10.25	-45.3	-46.3	15.4	0.00e+00	0	58	0	2567962624	52	4205
2026-01-03 06:17:06.81	238.04	10.00	-45.2	-46.2	15.4	0.00e+00	0	58	0	2588934144	52	4189
2026-01-03 06:17:09.78	237.91	9.75	-45.4	-46.4	15.3	0.00e+00	0	58	0	2610954240	52	4271
2026-01-03 06:17:12.74	237.78	9.51	-45.5	-46.5	15.1	0.00e+00	0	58	0	2631925760	52	4332
2026-01-03 06:17:15.70	237.65	9.26	-45.6	-46.7	14.9	0.00e+00	0	58	0	2652897280	53	4182
2026-01-03 06:17:18.66	237.53	9.02	-45.6	-46.7	14.8	0.00e+00	0	58	0	2674917376	53	4188
2026-01-03 06:17:21.62	237.41	8.78	-45.7	-46.8	14.8	0.00e+00	0	58	0	2695888896	53	4222
2026-01-03 06:17:24.59	237.28	8.54	-45.7	-46.9	14.6	1.10e-06	0	58	0	2717908992	53	4258
2026-01-03 06:17:27.56	237.17	8.31	-46.0	-47.2	14.3	0.00e+00	0	58	0	2738880512	53	4404
2026-01-03 06:17:30.51	237.05	8.07	-45.9	-47.1	14.3	0.00e+00	0	58	0	2759852032	53	4377
2026-01-03 06:17:33.48	236.93	7.84	-46.0	-47.2	14.1	1.10e-06	0	58	0	2781872128	53	4414
2026-01-03 06:17:36.45	236.82	7.61	-46.0	-47.3	14.0	4.50e-06	0	58	0	2802843648	54	4206
2026-01-03 06:17:39.42	236.71	7.38	-46.1	-47.4	13.9	5.70e-06	0	58	0	2824863744	54	4256
2026-01-03 06:17:42.38	236.60	7.16	-46.3	-47.6	13.6	9.10e-06	0	58	0	2845835264	54	4390
2026-01-03 06:17:45.34	236.49	6.93	-46.5	-47.9	13.2	2.74e-05	0	58	0	2866806784	54	4543
2026-01-03 06:17:48.31	236.39	6.71	-46.6	-48.2	13.0	4.11e-05	0	58	0	2888826880	55	4400
2026-01-03 06:17:51.28	236.29	6.49	-46.9	-48.6	12.5	1.10e-04	0	58	0	2909798400	55	4601
2026-01-03 06:17:54.23	236.18	6.27	-47.2	-48.9	12.2	2.35e-04	0	58	0	2931818496	55	4766
2026-01-03 06:17:57.20	236.08	6.06	-47.2	-49.0	12.1	3.02e-04	0	58	0	2952790016	56	4553
2026-01-03 06:18:00.17	235.98	5.84	-47.4	-49.3	11.7	6.32e-04	0	58	0	2974810112	56	4730
2026-01-03 06:18:03.14	235.89	5.63	-47.3	-49.1	11.8	5.14e-04	0	58	0	2995781632	56	4650
2026-01-03 06:18:06.10	235.79	5.41	-47.2	-49.0	12.0	3.43e-04	0	58	0	3016753152	56	4563
2026-01-03 06:18:09.06	235.70	5.20	-47.4	-49.2	11.7	6.98e-04	0	58	0	3038773248	56	4678
2026-01-03 06:18:12.02	235.61	5.00	-52.4	-62.5	3.8	8.46e-01	0	58	104	3053453312	66	12120
2026-01-03 06:18:14.98	235.51	4.79	-52.6	-63.1	3.8	8.46e-01	0	58	104	3053453312	67	12274
2026-01-03 06:18:17.95	235.42	4.58	-52.9	-63.3	3.8	8.46e-01	0	58	104	3053453312	67	12541
2026-01-03 06:18:20.92	235.34	4.38	-53.1	-63.3	3.8	8.46e-01	0	58	104	3053453312	67	12663
2026-01-03 06:18:23.90	235.25	4.18	-53.3	-63.5	3.8	8.46e-01	0	58	104	3053453312	68	12230
2026-01-03 06:18:26.85	235.16	3.98	-53.3	-63.6	3.8	8.48e-01	0	58	104	3053453312	68	12301
2026-01-03 06:18:29.80	235.08	3.78	-53.3	-63.6	3.8	8.46e-01	0	58	104	3053453312	68	12327
2026-01-03 06:18:32.75	235.00	3.58	-53.4	-63.7	3.8	8.46e-01	0	58	104	3053453312	68	12388
2026-01-03 06:18:35.73	234.91	3.38	-53.3	-63.6	3.8	8.46e-01	0	58	104	3053453312	68	12371
2026-01-03 06:18:38.71	234.83	3.18	-53.3	-63.7	3.8	8.45e-01	0	58	104	3053453312	68	12393
2026-01-03 06:18:41.67	234.75	2.99	-53.4	-63.7	3.8	8.46e-01	0	58	104	3053453312	68	12385

#Closed at: 2026-01-03 06:18:43
#Recorded file [3053 MB]: D:/Data/31026_260103_091811.dat