passes_logs/2026/01/03/R3.0SM8_Murmansk_STILSPACE/R3.0SM8_Murmansk_STILSPACE__20260103_073650_FENGYUN_3D_rec.log

#Pass ID: 20260103_073650_FENGYUN 3D
#Satellite: FENGYUN 3D
#Configuration: FENGYUN 3D
#almurnet v.1.7.20240730
#Start time: 2026-01-03 07:36:51

#Version: 2.2.20231116
#Station: R3.0SM8_Murmansk_STILSPACE
#Location: 33.092731 lon 68.902999 lat
#TLE: 1 43010U 17072A   26002.31768531  .00000715  00000+0  35975-3 0  9993
#TLE: 2 43010  98.9910 333.9388 0001871 131.0716 229.0622 14.19693418421454

#Time	Az	El	Level	Level2	SNR	BER	BlckErr	Temp	State	Recorded	gain1	gain2
2026-01-03 07:36:51.07	67.99	3.04	-53.0	-63.8	3.8	8.45e-01	0	45	0	0	68	12807
2026-01-03 07:36:54.02	67.79	3.22	-52.7	-63.5	3.8	8.47e-01	0	46	104	0	68	12288
2026-01-03 07:36:57.00	67.59	3.39	-52.0	-62.7	3.8	8.46e-01	0	46	104	0	66	12569
2026-01-03 07:36:59.95	67.39	3.57	-52.0	-62.6	3.8	8.46e-01	0	46	104	0	66	12480
2026-01-03 07:37:02.92	67.18	3.74	-52.0	-62.6	3.8	8.46e-01	0	47	104	0	66	12453
2026-01-03 07:37:05.90	66.97	3.92	-51.8	-62.5	3.8	8.46e-01	0	47	104	0	66	12283
2026-01-03 07:37:08.87	66.76	4.10	-51.8	-61.3	3.8	8.47e-01	0	47	104	0	66	10727
2026-01-03 07:37:11.84	66.54	4.28	-51.0	-57.4	4.8	8.12e-01	0	47	0	0	65	7274
2026-01-03 07:37:14.81	66.33	4.46	-49.9	-53.8	7.7	1.28e-01	0	48	0	10485760	63	5352
2026-01-03 07:37:17.78	66.11	4.64	-48.7	-51.3	10.2	8.55e-03	0	48	0	27262976	60	4794
2026-01-03 07:37:20.75	65.88	4.82	-47.6	-49.7	12.0	6.09e-04	0	48	0	44040192	58	4451
2026-01-03 07:37:23.72	65.66	5.01	-47.0	-48.8	12.9	6.40e-05	0	48	0	60817408	57	4249
2026-01-03 07:37:26.69	65.43	5.19	-47.1	-48.8	12.9	8.58e-05	0	48	0	77594624	57	4272
2026-01-03 07:37:29.64	65.20	5.37	-47.0	-48.7	13.0	6.63e-05	0	48	0	94371840	57	4241
2026-01-03 07:37:32.61	64.96	5.56	-47.0	-48.7	13.1	8.69e-05	0	49	0	111149056	57	4200
2026-01-03 07:37:35.58	64.72	5.74	-46.3	-47.7	14.0	3.40e-06	0	49	0	127926272	55	4238
2026-01-03 07:37:38.55	64.48	5.93	-46.1	-47.5	14.2	0.00e+00	0	49	0	144703488	54	4352
2026-01-03 07:37:41.51	64.24	6.11	-46.1	-47.6	14.2	1.10e-06	0	49	0	161480704	54	4407
2026-01-03 07:37:44.49	63.99	6.30	-45.7	-47.0	14.8	2.20e-06	0	49	0	178257920	54	4130
2026-01-03 07:37:47.45	63.74	6.49	-45.9	-47.2	14.7	3.40e-06	0	50	0	193986560	54	4211
2026-01-03 07:37:50.43	63.48	6.68	-45.8	-47.1	14.8	0.00e+00	0	50	0	211812352	54	4187
2026-01-03 07:37:53.40	63.23	6.87	-46.0	-47.3	14.6	0.00e+00	0	50	0	227540992	54	4263
2026-01-03 07:37:56.38	62.96	7.07	-45.9	-47.3	14.7	1.10e-06	0	50	0	244318208	54	4248
2026-01-03 07:37:59.35	62.70	7.26	-46.0	-47.4	14.6	1.10e-06	0	50	0	261095424	54	4303
2026-01-03 07:38:02.32	62.43	7.45	-45.8	-47.1	14.9	0.00e+00	0	50	0	277872640	54	4153
2026-01-03 07:38:05.29	62.16	7.65	-45.5	-46.7	15.3	0.00e+00	0	50	0	294649856	54	4003
2026-01-03 07:38:08.26	61.88	7.84	-45.7	-46.9	15.1	0.00e+00	0	50	0	311427072	54	4086
2026-01-03 07:38:11.23	61.60	8.04	-45.3	-46.5	15.6	0.00e+00	0	51	0	328204288	53	4100
2026-01-03 07:38:14.20	61.32	8.23	-45.1	-46.3	15.8	0.00e+00	0	51	0	344981504	53	4016
2026-01-03 07:38:17.16	61.03	8.43	-45.3	-46.4	15.6	0.00e+00	0	51	0	361758720	53	4088
2026-01-03 07:38:20.13	60.74	8.63	-45.2	-46.3	15.8	0.00e+00	0	51	0	378535936	53	4046
2026-01-03 07:38:23.10	60.44	8.83	-45.6	-46.8	15.3	0.00e+00	0	51	0	395313152	53	4271
2026-01-03 07:38:26.07	60.14	9.03	-45.8	-47.1	15.0	0.00e+00	0	51	0	412090368	53	4410
2026-01-03 07:38:29.00	59.84	9.23	-45.4	-46.6	15.5	0.00e+00	0	51	0	427819008	53	4159
2026-01-03 07:38:31.98	59.53	9.43	-45.4	-46.6	15.5	0.00e+00	0	51	0	444596224	53	4182
2026-01-03 07:38:34.94	59.22	9.63	-45.5	-46.7	15.5	0.00e+00	0	52	0	461373440	53	4201
2026-01-03 07:38:37.91	58.90	9.83	-45.2	-46.3	15.9	0.00e+00	0	52	0	478150656	53	4042
2026-01-03 07:38:40.87	58.58	10.04	-45.3	-46.5	15.8	0.00e+00	0	52	0	494927872	53	4104
2026-01-03 07:38:43.85	58.25	10.24	-45.6	-46.8	15.4	0.00e+00	0	52	0	511705088	53	4248
2026-01-03 07:38:46.82	57.91	10.45	-44.9	-46.0	16.3	0.00e+00	0	52	0	528482304	52	4101
2026-01-03 07:38:49.79	57.58	10.65	-44.9	-45.9	16.3	0.00e+00	0	52	0	545259520	52	4090
2026-01-03 07:38:52.76	57.24	10.86	-44.5	-45.5	16.7	0.00e+00	0	52	0	562036736	52	3911
2026-01-03 07:38:55.74	56.89	11.07	-44.6	-45.6	16.7	0.00e+00	0	52	0	578813952	52	3947
2026-01-03 07:38:58.71	56.53	11.28	-44.8	-45.8	16.5	0.00e+00	0	53	0	595591168	52	4026
2026-01-03 07:39:01.67	56.18	11.49	-44.8	-45.8	16.5	0.00e+00	0	53	0	612368384	52	4040
2026-01-03 07:39:04.63	55.82	11.70	-44.8	-45.8	16.6	0.00e+00	0	52	0	629145600	52	4012
2026-01-03 07:39:07.60	55.45	11.91	-44.7	-45.7	16.6	0.00e+00	0	53	0	644874240	52	4004
2026-01-03 07:39:10.56	55.08	12.12	-44.5	-45.5	16.9	0.00e+00	0	53	0	661651456	51	4127
2026-01-03 07:39:13.53	54.70	12.33	-44.5	-45.4	17.0	0.00e+00	0	53	0	678428672	51	4090
2026-01-03 07:39:16.50	54.31	12.54	-44.4	-45.4	17.1	0.00e+00	0	53	0	695205888	51	4052
2026-01-03 07:39:19.46	53.92	12.75	-44.2	-45.1	17.4	0.00e+00	0	53	0	711983104	51	3925
2026-01-03 07:39:22.44	53.53	12.97	-44.1	-45.0	17.4	0.00e+00	0	53	0	728760320	51	3908
2026-01-03 07:39:25.40	53.13	13.18	-44.0	-44.9	17.6	0.00e+00	0	53	0	745537536	51	3840
2026-01-03 07:39:28.37	52.72	13.39	-44.3	-45.2	17.2	0.00e+00	0	53	0	762314752	51	3994
2026-01-03 07:39:31.32	52.31	13.61	-43.9	-44.8	17.7	0.00e+00	0	53	0	779091968	50	4019
2026-01-03 07:39:34.30	51.89	13.82	-44.2	-45.0	17.4	0.00e+00	0	53	0	795869184	50	4143
2026-01-03 07:39:37.26	51.46	14.04	-44.0	-44.9	17.6	0.00e+00	0	54	0	812646400	50	4052
2026-01-03 07:39:40.23	51.03	14.25	-43.8	-44.7	17.8	0.00e+00	0	54	0	829423616	50	3975
2026-01-03 07:39:43.19	50.59	14.47	-43.8	-44.6	17.8	0.00e+00	0	54	0	845152256	50	3955
2026-01-03 07:39:46.16	50.14	14.69	-43.8	-44.7	17.8	0.00e+00	0	54	0	861929472	50	3965
2026-01-03 07:39:49.11	49.70	14.90	-43.5	-44.3	18.1	0.00e+00	0	54	0	878706688	50	3810
2026-01-03 07:39:52.07	49.24	15.12	-43.6	-44.4	18.1	0.00e+00	0	54	0	895483904	50	3847
2026-01-03 07:39:55.04	48.77	15.33	-43.3	-44.1	18.4	0.00e+00	0	54	0	912261120	49	3922
2026-01-03 07:39:58.02	48.30	15.55	-43.4	-44.2	18.3	0.00e+00	0	54	0	929038336	49	3981
2026-01-03 07:40:00.98	47.82	15.76	-43.4	-44.2	18.3	0.00e+00	0	54	0	945815552	49	3975
2026-01-03 07:40:03.95	47.33	15.98	-43.5	-44.3	18.2	0.00e+00	0	54	0	962592768	49	4018
2026-01-03 07:40:06.94	46.83	16.20	-43.2	-44.0	18.5	0.00e+00	0	54	0	979369984	49	3906
2026-01-03 07:40:09.92	46.33	16.41	-43.2	-43.9	18.6	0.00e+00	0	54	0	996147200	49	3861
2026-01-03 07:40:12.90	45.82	16.63	-43.4	-44.2	18.4	0.00e+00	0	54	0	1012924416	49	3959
2026-01-03 07:40:15.87	45.30	16.84	-43.3	-44.1	18.5	0.00e+00	0	54	0	1029701632	49	3929
2026-01-03 07:40:18.85	44.78	17.06	-43.3	-44.1	18.4	0.00e+00	0	54	0	1046478848	49	3933
2026-01-03 07:40:21.84	44.24	17.27	-43.1	-43.9	18.7	0.00e+00	0	54	0	1063256064	49	3845
2026-01-03 07:40:24.81	43.71	17.49	-43.3	-44.1	18.4	0.00e+00	0	54	0	1080033280	49	3936
2026-01-03 07:40:27.78	43.16	17.70	-43.1	-43.9	18.7	0.00e+00	0	54	0	1096810496	49	3832
2026-01-03 07:40:30.75	42.60	17.91	-43.3	-44.0	18.5	0.00e+00	0	55	0	1113587712	49	3904
2026-01-03 07:40:33.72	42.04	18.12	-42.8	-43.5	19.1	0.00e+00	0	55	0	1129316352	48	3882
2026-01-03 07:40:36.69	41.47	18.33	-42.9	-43.6	18.9	0.00e+00	0	55	0	1146093568	48	3955
2026-01-03 07:40:39.65	40.89	18.53	-42.7	-43.3	19.2	0.00e+00	0	55	0	1162870784	48	3819
2026-01-03 07:40:42.63	40.31	18.74	-42.6	-43.3	19.3	0.00e+00	0	55	0	1179648000	48	3803
2026-01-03 07:40:45.60	39.71	18.95	-42.1	-42.8	19.6	0.00e+00	0	55	0	1196425216	47	3802
2026-01-03 07:40:48.57	39.11	19.15	-42.3	-43.0	19.4	0.00e+00	0	55	0	1213202432	47	3896
2026-01-03 07:40:51.54	38.50	19.35	-42.2	-42.9	19.5	0.00e+00	0	55	0	1229979648	47	3847
2026-01-03 07:40:54.52	37.88	19.55	-42.2	-42.8	19.5	0.00e+00	0	55	0	1246756864	47	3822
2026-01-03 07:40:57.48	37.25	19.75	-42.4	-43.1	19.3	0.00e+00	0	55	0	1263534080	47	3927
2026-01-03 07:41:00.45	36.62	19.94	-42.3	-43.0	19.5	0.00e+00	0	55	0	1280311296	47	3885
2026-01-03 07:41:03.42	35.97	20.14	-42.2	-42.9	19.5	0.00e+00	0	55	0	1297088512	47	3847
2026-01-03 07:41:06.39	35.32	20.33	-42.0	-42.7	19.7	0.00e+00	0	55	0	1313865728	47	3757
2026-01-03 07:41:09.35	34.66	20.51	-42.3	-43.0	19.5	0.00e+00	0	55	0	1330642944	47	3875
2026-01-03 07:41:12.33	33.99	20.70	-42.5	-43.3	19.2	0.00e+00	0	55	0	1347420160	47	4012
2026-01-03 07:41:15.30	33.32	20.88	-42.6	-43.3	19.2	0.00e+00	0	55	0	1363148800	47	4017
2026-01-03 07:41:18.28	32.63	21.06	-42.4	-43.1	19.4	0.00e+00	0	55	0	1380974592	47	3921
2026-01-03 07:41:21.25	31.94	21.24	-42.0	-42.6	19.8	0.00e+00	0	55	0	1396703232	47	3722
2026-01-03 07:41:24.22	31.24	21.41	-42.0	-42.7	19.7	0.00e+00	0	55	0	1413480448	47	3770
2026-01-03 07:41:27.19	30.53	21.58	-42.0	-42.7	19.7	0.00e+00	0	55	0	1430257664	46	3978
2026-01-03 07:41:30.13	29.82	21.75	-42.1	-42.7	19.7	0.00e+00	0	56	0	1447034880	46	4002
2026-01-03 07:41:33.09	29.10	21.91	-42.0	-42.7	19.8	0.00e+00	0	56	0	1463812096	46	3967
2026-01-03 07:41:36.05	28.37	22.07	-42.1	-42.8	19.7	0.00e+00	0	56	0	1480589312	46	4026
2026-01-03 07:41:39.03	27.63	22.22	-42.4	-43.1	19.3	0.00e+00	0	56	0	1497366528	46	4180
2026-01-03 07:41:42.00	26.88	22.37	-42.0	-42.7	19.8	0.00e+00	0	56	0	1514143744	47	3756
2026-01-03 07:41:44.97	26.13	22.52	-41.8	-42.4	20.0	0.00e+00	0	56	0	1530920960	46	3860
2026-01-03 07:41:47.93	25.37	22.66	-41.9	-42.5	19.9	0.00e+00	0	56	0	1547698176	46	3911
2026-01-03 07:41:50.91	24.60	22.80	-41.5	-42.2	20.3	0.00e+00	0	56	0	1563426816	46	3744
2026-01-03 07:41:53.89	23.82	22.93	-41.5	-42.1	20.3	0.00e+00	0	56	0	1581252608	46	3723
2026-01-03 07:41:56.86	23.04	23.05	-41.7	-42.3	20.1	0.00e+00	0	56	0	1596981248	46	3808
2026-01-03 07:41:59.84	22.26	23.18	-41.7	-42.3	20.1	0.00e+00	0	56	0	1613758464	46	3820
2026-01-03 07:42:02.81	21.46	23.29	-41.8	-42.4	20.0	0.00e+00	0	56	0	1630535680	46	3849
2026-01-03 07:42:05.77	20.67	23.40	-41.6	-42.2	20.2	0.00e+00	0	56	0	1647312896	46	3771
2026-01-03 07:42:08.75	19.86	23.51	-41.7	-42.3	20.1	0.00e+00	0	56	0	1664090112	46	3814
2026-01-03 07:42:11.72	19.05	23.61	-41.6	-42.2	20.2	0.00e+00	0	56	0	1680867328	46	3771
2026-01-03 07:42:14.68	18.24	23.70	-41.8	-42.4	20.0	0.00e+00	0	56	0	1697644544	46	3847
2026-01-03 07:42:17.66	17.42	23.79	-41.4	-42.0	20.4	0.00e+00	0	56	0	1714421760	45	3883
2026-01-03 07:42:20.64	16.59	23.87	-41.2	-41.8	20.6	0.00e+00	0	56	0	1731198976	45	3804
2026-01-03 07:42:23.59	15.77	23.94	-41.0	-41.5	20.8	0.00e+00	0	56	0	1747976192	45	3693
2026-01-03 07:42:26.56	14.94	24.01	-41.4	-42.0	20.4	0.00e+00	0	56	0	1764753408	45	3896
2026-01-03 07:42:29.52	14.10	24.07	-41.6	-42.2	20.1	0.00e+00	0	56	0	1781530624	45	3998
2026-01-03 07:42:32.47	13.27	24.13	-41.5	-42.1	20.2	0.00e+00	0	56	0	1798307840	45	3955
2026-01-03 07:42:35.44	12.43	24.18	-41.3	-41.9	20.4	0.00e+00	0	56	0	1814036480	45	3840
2026-01-03 07:42:38.41	11.59	24.22	-41.6	-42.2	19.9	0.00e+00	0	56	0	1830813696	45	3989
2026-01-03 07:42:41.38	10.74	24.26	-42.2	-42.9	19.0	0.00e+00	0	56	0	1847590912	46	4093
2026-01-03 07:42:44.35	9.89	24.29	-43.4	-44.3	17.3	0.00e+00	0	56	0	1864368128	48	4261
2026-01-03 07:42:47.31	9.05	24.31	-45.1	-46.4	14.8	1.10e-06	0	56	0	1881145344	52	4304
2026-01-03 07:42:50.28	8.20	24.32	-45.8	-47.3	14.0	1.10e-06	0	56	0	1897922560	53	4524
2026-01-03 07:42:53.25	7.35	24.33	-45.4	-46.7	14.8	0.00e+00	0	56	0	1914699776	53	4225
2026-01-03 07:42:56.21	6.50	24.33	-44.7	-45.8	15.8	0.00e+00	0	56	0	1931476992	52	4035
2026-01-03 07:42:59.19	5.65	24.33	-43.6	-44.4	17.5	0.00e+00	0	56	0	1948254208	50	3850
2026-01-03 07:43:02.16	4.80	24.32	-42.4	-43.1	18.8	0.00e+00	0	56	0	1965031424	46	4187
2026-01-03 07:43:05.13	3.95	24.30	-46.8	-48.6	12.7	3.31e-05	0	57	0	1981808640	55	4666
2026-01-03 07:43:08.09	3.10	24.27	-45.8	-47.3	14.2	9.95e-05	0	56	0	1998585856	54	4244
2026-01-03 07:43:11.04	2.26	24.24	-41.5	-42.1	20.0	0.00e+00	0	57	0	2014314496	46	3734
2026-01-03 07:43:14.02	1.41	24.20	-41.5	-42.2	20.2	0.00e+00	0	57	0	2032140288	46	3750
2026-01-03 07:43:16.99	0.57	24.16	-41.2	-41.8	20.6	0.00e+00	0	56	0	2047868928	45	3791
2026-01-03 07:43:19.96	359.73	24.10	-40.9	-41.5	20.9	0.00e+00	0	56	0	2064646144	44	3886
2026-01-03 07:43:22.93	358.89	24.04	-41.1	-41.7	20.7	0.00e+00	0	57	0	2081423360	44	3968
2026-01-03 07:43:25.89	358.06	23.98	-40.7	-41.3	21.1	0.00e+00	0	57	0	2098200576	44	3794
2026-01-03 07:43:28.86	357.23	23.91	-41.0	-41.6	20.8	0.00e+00	0	57	0	2114977792	44	3939
2026-01-03 07:43:31.81	356.41	23.83	-41.1	-41.8	20.6	0.00e+00	0	57	0	2131755008	44	4006
2026-01-03 07:43:34.79	355.59	23.75	-41.1	-41.7	20.7	0.00e+00	0	57	0	2148532224	44	3970
2026-01-03 07:43:37.75	354.78	23.66	-41.4	-42.0	20.4	0.00e+00	0	57	0	2165309440	44	4113
2026-01-03 07:43:40.73	353.96	23.56	-41.2	-41.8	20.6	0.00e+00	0	57	0	2182086656	44	4008
2026-01-03 07:43:43.70	353.15	23.46	-41.4	-42.1	20.3	0.00e+00	0	57	0	2198863872	44	4150
2026-01-03 07:43:46.67	352.35	23.35	-40.9	-41.4	20.9	0.00e+00	0	57	0	2214592512	44	3864
2026-01-03 07:43:49.64	351.56	23.24	-41.1	-41.7	20.7	0.00e+00	0	57	0	2231369728	44	3965
2026-01-03 07:43:52.61	350.77	23.12	-41.4	-42.1	20.3	0.00e+00	0	57	0	2248146944	44	4150
2026-01-03 07:43:55.57	349.99	22.99	-41.4	-42.0	20.3	0.00e+00	0	57	0	2264924160	44	4123
2026-01-03 07:43:58.54	349.21	22.87	-41.0	-41.6	20.7	0.00e+00	0	57	0	2281701376	44	3935
2026-01-03 07:44:01.51	348.44	22.73	-41.0	-41.7	20.7	0.00e+00	0	57	0	2298478592	44	3960
2026-01-03 07:44:04.49	347.67	22.59	-41.2	-41.8	20.6	0.00e+00	0	57	0	2315255808	44	4008
2026-01-03 07:44:07.47	346.91	22.45	-41.2	-41.8	20.5	0.00e+00	0	57	0	2332033024	44	4042
2026-01-03 07:44:10.43	346.17	22.30	-41.4	-42.0	20.3	0.00e+00	0	57	0	2348810240	44	4143
2026-01-03 07:44:13.39	345.43	22.15	-41.2	-41.9	20.5	0.00e+00	0	57	0	2365587456	45	3828
2026-01-03 07:44:16.36	344.69	21.99	-41.3	-41.9	20.4	0.00e+00	0	57	0	2382364672	45	3853
2026-01-03 07:44:19.33	343.96	21.83	-41.4	-42.0	20.3	0.00e+00	0	57	0	2399141888	45	3890
2026-01-03 07:44:22.30	343.24	21.67	-41.2	-41.8	20.5	0.00e+00	0	57	0	2415919104	45	3824
2026-01-03 07:44:25.27	342.53	21.50	-41.4	-42.0	20.2	0.00e+00	0	57	0	2431647744	45	3910
2026-01-03 07:44:28.25	341.82	21.33	-41.4	-42.1	20.2	0.00e+00	0	57	0	2449473536	45	3925
2026-01-03 07:44:31.20	341.13	21.15	-41.6	-42.2	20.0	0.00e+00	0	57	0	2465202176	45	3999
2026-01-03 07:44:34.16	340.45	20.98	-41.8	-42.5	19.6	0.00e+00	0	57	0	2481979392	45	4121
2026-01-03 07:44:37.14	339.76	20.79	-42.8	-43.6	18.4	0.00e+00	0	57	0	2498756608	47	4163
2026-01-03 07:44:40.11	339.09	20.61	-44.4	-45.3	16.7	0.00e+00	0	57	0	2515533824	50	4286
2026-01-03 07:44:43.06	338.43	20.43	-44.7	-45.8	16.2	0.00e+00	0	57	0	2532311040	51	4263
2026-01-03 07:44:46.03	337.78	20.24	-44.3	-45.2	16.8	0.00e+00	0	57	0	2549088256	51	4000
2026-01-03 07:44:49.00	337.13	20.04	-44.7	-45.7	16.3	0.00e+00	0	57	0	2565865472	51	4224
2026-01-03 07:44:51.95	336.49	19.85	-44.0	-44.9	17.2	0.00e+00	0	57	0	2582642688	51	3863
2026-01-03 07:44:54.91	335.86	19.66	-43.1	-43.9	18.4	0.00e+00	0	57	0	2599419904	49	3851
2026-01-03 07:44:57.89	335.24	19.46	-42.5	-43.2	19.3	0.00e+00	0	57	0	2616197120	48	3742
2026-01-03 07:45:00.86	334.62	19.26	-43.1	-43.8	18.7	0.00e+00	0	57	0	2631925760	48	4042
2026-01-03 07:45:03.84	334.02	19.05	-43.1	-43.8	18.7	0.00e+00	0	57	0	2649751552	48	4048
2026-01-03 07:45:06.81	333.42	18.85	-42.2	-42.9	19.5	0.00e+00	0	57	0	2665480192	47	3845
2026-01-03 07:45:09.78	332.83	18.64	-42.6	-43.4	19.0	0.00e+00	0	57	0	2682257408	47	4063
2026-01-03 07:45:12.75	332.24	18.44	-42.3	-43.0	19.3	0.00e+00	0	57	0	2699034624	47	3899
2026-01-03 07:45:15.71	331.67	18.23	-42.5	-43.2	19.2	0.00e+00	0	57	0	2715811840	47	3986
2026-01-03 07:45:18.67	331.11	18.02	-42.3	-43.0	19.4	0.00e+00	0	57	0	2732589056	47	3874
2026-01-03 07:45:21.64	330.55	17.81	-42.2	-42.9	19.5	0.00e+00	0	57	0	2749366272	47	3849
2026-01-03 07:45:24.60	330.00	17.60	-42.2	-42.9	19.4	0.00e+00	0	57	0	2766143488	47	3864
2026-01-03 07:45:27.58	329.45	17.39	-42.5	-43.2	19.1	0.00e+00	0	57	0	2782920704	47	3993
2026-01-03 07:45:30.54	328.92	17.17	-42.3	-43.0	19.4	0.00e+00	0	57	0	2799697920	47	3870
2026-01-03 07:45:33.51	328.39	16.96	-42.5	-43.2	19.2	0.00e+00	0	57	0	2816475136	47	3993
2026-01-03 07:45:36.47	327.87	16.75	-42.5	-43.3	19.1	0.00e+00	0	57	0	2832203776	47	4005
2026-01-03 07:45:39.43	327.36	16.53	-42.9	-43.6	18.8	0.00e+00	0	57	0	2850029568	47	4182
2026-01-03 07:45:42.40	326.86	16.32	-42.7	-43.5	18.9	0.00e+00	0	57	0	2865758208	47	4109
2026-01-03 07:45:45.36	326.36	16.10	-42.9	-43.7	18.7	0.00e+00	0	57	0	2882535424	47	4207
2026-01-03 07:45:48.33	325.87	15.89	-42.9	-43.7	18.7	0.00e+00	0	57	0	2899312640	47	4207
2026-01-03 07:45:51.31	325.38	15.67	-43.0	-43.8	18.6	0.00e+00	0	57	0	2916089856	47	4244
2026-01-03 07:45:54.27	324.91	15.45	-43.0	-43.7	18.6	0.00e+00	0	57	0	2932867072	47	4240
2026-01-03 07:45:57.25	324.44	15.24	-43.3	-44.1	18.4	0.00e+00	0	57	0	2949644288	48	4167
2026-01-03 07:46:00.22	323.97	15.02	-43.3	-44.1	18.4	0.00e+00	0	57	0	2966421504	48	4171
2026-01-03 07:46:03.19	323.52	14.81	-43.6	-44.4	18.1	0.00e+00	0	57	0	2983198720	49	4090
2026-01-03 07:46:06.16	323.07	14.59	-43.2	-44.0	18.5	0.00e+00	0	57	0	2999975936	49	3878
2026-01-03 07:46:09.13	322.63	14.37	-43.4	-44.2	18.3	0.00e+00	0	57	0	3016753152	49	3987
2026-01-03 07:46:12.10	322.19	14.16	-43.6	-44.4	18.1	0.00e+00	0	57	0	3033530368	49	4078
2026-01-03 07:46:15.06	321.76	13.94	-43.5	-44.3	18.2	0.00e+00	0	57	0	3049259008	49	4042
2026-01-03 07:46:18.03	321.34	13.73	-43.9	-44.8	17.7	0.00e+00	0	57	0	3067084800	49	4249
2026-01-03 07:46:20.99	320.92	13.51	-43.9	-44.7	17.8	0.00e+00	0	57	0	3082813440	49	4233
2026-01-03 07:46:23.97	320.51	13.30	-43.9	-44.8	17.7	0.00e+00	0	57	0	3099590656	49	4247
2026-01-03 07:46:26.94	320.11	13.08	-43.7	-44.5	17.9	0.00e+00	0	57	0	3116367872	49	4135
2026-01-03 07:46:29.91	319.71	12.87	-44.1	-45.0	17.5	0.00e+00	0	57	0	3133145088	50	4127
2026-01-03 07:46:32.88	319.31	12.66	-44.0	-44.9	17.6	0.00e+00	0	57	0	3149922304	50	4070
2026-01-03 07:46:35.85	318.93	12.44	-44.2	-45.1	17.4	0.00e+00	0	57	0	3166699520	50	4160
2026-01-03 07:46:38.82	318.54	12.23	-44.4	-45.3	17.2	0.00e+00	0	57	0	3183476736	50	4261
2026-01-03 07:46:41.78	318.17	12.02	-44.7	-45.7	16.8	0.00e+00	0	57	0	3200253952	51	4194
2026-01-03 07:46:44.75	317.80	11.81	-44.5	-45.5	16.9	0.00e+00	0	57	0	3217031168	51	4117
2026-01-03 07:46:47.72	317.43	11.60	-44.7	-45.7	16.8	0.00e+00	0	57	0	3233808384	51	4207
2026-01-03 07:46:50.68	317.07	11.39	-44.7	-45.7	16.7	0.00e+00	0	57	0	3250585600	51	4212
2026-01-03 07:46:53.66	316.72	11.18	-45.1	-46.1	16.3	0.00e+00	0	57	0	3267362816	51	4429
2026-01-03 07:46:56.64	316.37	10.97	-44.8	-45.9	16.5	0.00e+00	0	57	0	3284140032	52	4057
2026-01-03 07:46:59.62	316.02	10.76	-44.8	-45.9	16.4	0.00e+00	0	57	0	3299868672	52	4078
2026-01-03 07:47:02.59	315.68	10.56	-44.4	-45.4	17.0	0.00e+00	0	57	0	3317694464	51	4058
2026-01-03 07:47:05.56	315.35	10.35	-44.6	-45.6	16.8	0.00e+00	0	57	0	3333423104	51	4172
2026-01-03 07:47:08.54	315.02	10.15	-44.5	-45.5	16.9	0.00e+00	0	57	0	3350200320	51	4106
2026-01-03 07:47:11.52	314.69	9.94	-44.6	-45.5	16.8	0.00e+00	0	57	0	3366977536	51	4145
2026-01-03 07:47:14.49	314.37	9.74	-44.8	-45.8	16.5	0.00e+00	0	57	0	3383754752	51	4278
2026-01-03 07:47:17.43	314.06	9.54	-45.0	-46.1	16.1	0.00e+00	0	57	0	3400531968	52	4176
2026-01-03 07:47:20.40	313.75	9.33	-44.7	-45.8	16.4	0.00e+00	0	57	0	3417309184	52	4024
2026-01-03 07:47:23.37	313.44	9.13	-44.8	-45.8	16.4	0.00e+00	0	58	0	3434086400	52	4018
2026-01-03 07:47:26.34	313.14	8.93	-44.7	-45.7	16.4	0.00e+00	0	58	0	3450863616	52	3999
2026-01-03 07:47:29.29	312.84	8.73	-44.9	-46.0	16.2	0.00e+00	0	57	0	3467640832	52	4122
2026-01-03 07:47:32.26	312.55	8.53	-45.1	-46.2	15.9	0.00e+00	0	57	0	3484418048	52	4218
2026-01-03 07:47:35.23	312.26	8.34	-45.2	-46.3	15.9	0.00e+00	0	57	0	3501195264	52	4248
2026-01-03 07:47:38.18	311.97	8.14	-45.4	-46.6	15.5	0.00e+00	0	57	0	3517972480	52	4420
2026-01-03 07:47:41.16	311.69	7.94	-45.6	-46.9	15.3	0.00e+00	0	57	0	3533701120	53	4293
2026-01-03 07:47:44.13	311.41	7.75	-45.4	-46.5	15.6	0.00e+00	0	57	0	3550478336	53	4136
2026-01-03 07:47:47.11	311.13	7.55	-45.5	-46.8	15.3	0.00e+00	0	57	0	3567255552	53	4243
2026-01-03 07:47:50.09	310.86	7.36	-45.8	-47.2	14.9	0.00e+00	0	57	0	3584032768	53	4445
2026-01-03 07:47:53.06	310.60	7.17	-45.3	-46.5	15.5	0.00e+00	0	57	0	3600809984	53	4123
2026-01-03 07:47:56.03	310.33	6.97	-45.4	-46.6	15.4	0.00e+00	0	57	0	3617587200	53	4164
2026-01-03 07:47:58.98	310.07	6.78	-45.4	-46.5	15.4	0.00e+00	0	57	0	3634364416	53	4145
2026-01-03 07:48:01.94	309.82	6.59	-45.5	-46.7	15.2	0.00e+00	0	57	0	3651141632	53	4219
2026-01-03 07:48:04.91	309.57	6.41	-45.4	-46.7	15.2	0.00e+00	0	57	0	3667918848	53	4208
2026-01-03 07:48:07.88	309.32	6.22	-45.6	-46.9	14.9	0.00e+00	0	58	0	3684696064	53	4337
2026-01-03 07:48:10.85	309.07	6.03	-45.6	-46.9	14.9	1.10e-06	0	58	0	3701473280	53	4306
2026-01-03 07:48:13.82	308.83	5.84	-45.6	-47.0	14.7	0.00e+00	0	57	0	3717201920	53	4358
2026-01-03 07:48:16.80	308.59	5.66	-45.8	-47.2	14.4	2.20e-06	0	57	0	3735027712	53	4488
2026-01-03 07:48:19.76	308.35	5.47	-46.2	-47.8	13.8	9.10e-06	0	57	0	3750756352	54	4500
2026-01-03 07:48:22.73	308.12	5.29	-46.5	-48.1	13.4	2.40e-05	0	57	0	3768582144	54	4677
2026-01-03 07:48:25.69	307.89	5.10	-46.5	-48.2	13.3	2.17e-05	0	57	0	3784310784	54	4708
2026-01-03 07:48:28.66	307.66	4.92	-52.3	-63.1	3.8	8.45e-01	0	57	104	3792699392	66	13210
2026-01-03 07:48:31.63	307.44	4.74	-50.5	-61.3	3.8	8.46e-01	0	58	104	3792699392	62	13505
2026-01-03 07:48:34.58	307.22	4.56	-52.9	-63.7	3.8	8.46e-01	0	57	104	3792699392	67	13310
2026-01-03 07:48:37.55	307.00	4.38	-53.1	-63.8	3.8	8.45e-01	0	57	104	3792699392	67	13428
2026-01-03 07:48:40.52	306.78	4.20	-53.2	-64.0	3.8	8.46e-01	0	57	104	3792699392	68	13054
2026-01-03 07:48:43.49	306.57	4.02	-53.1	-64.0	3.8	8.47e-01	0	57	104	3792699392	68	13105
2026-01-03 07:48:46.46	306.36	3.84	-53.1	-64.0	3.8	8.45e-01	0	57	104	3792699392	68	13094
2026-01-03 07:48:49.43	306.15	3.66	-53.3	-64.1	3.8	8.44e-01	0	58	104	3792699392	68	13197
2026-01-03 07:48:52.39	305.95	3.49	-53.3	-64.1	3.8	8.46e-01	0	58	104	3792699392	68	13202
2026-01-03 07:48:55.36	305.74	3.31	-53.2	-64.1	3.8	8.46e-01	0	57	104	3792699392	68	13169
2026-01-03 07:48:58.32	305.55	3.14	-53.2	-64.1	3.8	8.46e-01	0	58	104	3792699392	68	13192
2026-01-03 07:49:01.28	305.35	2.97	-53.3	-64.1	3.8	8.46e-01	0	57	104	3792699392	68	13170

#Closed at: 2026-01-03 07:49:02
#Recorded file [3792 MB]: D:/Data/31026_260103_104827.dat