passes_logs/2026/01/03/R3.0SM8_Murmansk_STILSPACE/R3.0SM8_Murmansk_STILSPACE__20260103_141744_FENGYUN_3D_rec.log

#Pass ID: 20260103_141744_FENGYUN 3D
#Satellite: FENGYUN 3D
#Configuration: FENGYUN 3D
#almurnet v.1.7.20240730
#Start time: 2026-01-03 14:17:45

#Version: 2.2.20231116
#Station: R3.0SM8_Murmansk_STILSPACE
#Location: 33.092731 lon 68.902999 lat
#TLE: 1 43010U 17072A   26002.95198047  .00000207  00000+0  11963-3 0  9999
#TLE: 2 43010  98.9912 334.5826 0001910 130.7105 229.4237 14.19692231421540

#Time	Az	El	Level	Level2	SNR	BER	BlckErr	Temp	State	Recorded	gain1	gain2
2026-01-03 14:17:45.84	223.57	3.06	-52.8	-63.5	3.8	8.46e-01	0	45	0	0	67	13081
2026-01-03 14:17:48.81	223.82	3.22	-52.7	-63.5	3.8	8.46e-01	0	46	104	0	68	12238
2026-01-03 14:17:51.78	224.09	3.38	-52.0	-62.7	3.8	8.46e-01	0	46	104	0	66	12635
2026-01-03 14:17:54.75	224.35	3.54	-50.7	-60.3	3.8	8.45e-01	0	46	104	0	64	10714
2026-01-03 14:17:57.70	224.61	3.70	-50.8	-60.9	3.8	8.45e-01	0	46	104	0	64	11439
2026-01-03 14:18:00.67	224.88	3.85	-50.8	-61.6	3.8	8.45e-01	0	47	104	0	64	12403
2026-01-03 14:18:03.64	225.15	4.01	-50.6	-60.6	3.8	8.46e-01	0	47	104	0	64	11124
2026-01-03 14:18:06.61	225.43	4.17	-50.6	-58.9	4.0	8.45e-01	0	47	104	0	64	9096
2026-01-03 14:18:09.59	225.70	4.34	-50.5	-58.1	4.2	8.37e-01	0	47	0	0	63	8841
2026-01-03 14:18:12.56	225.98	4.50	-50.6	-58.4	4.2	8.37e-01	0	47	0	0	63	9139
2026-01-03 14:18:15.54	226.27	4.66	-50.9	-60.4	3.8	8.45e-01	0	48	104	0	63	11445
2026-01-03 14:18:18.50	226.55	4.82	-50.8	-60.2	3.8	8.45e-01	0	48	104	0	63	11243
2026-01-03 14:18:21.47	226.84	4.98	-49.8	-55.0	5.8	6.98e-01	0	48	0	0	62	6524
2026-01-03 14:18:24.42	227.13	5.14	-49.6	-54.7	6.0	4.33e-01	0	48	0	16777216	61	6671
2026-01-03 14:18:27.41	227.43	5.31	-48.8	-52.5	8.0	8.11e-02	0	48	0	33554432	60	5503
2026-01-03 14:18:30.37	227.73	5.47	-48.3	-51.4	9.2	2.53e-02	0	49	0	50331648	59	5113
2026-01-03 14:18:33.34	228.03	5.63	-48.2	-51.2	9.4	1.99e-02	0	49	0	67108864	59	5001
2026-01-03 14:18:36.30	228.33	5.80	-48.3	-51.4	9.2	2.79e-02	0	49	0	83886080	59	5114
2026-01-03 14:18:39.28	228.64	5.96	-47.9	-50.6	10.1	8.42e-03	0	49	0	100663296	59	4683
2026-01-03 14:18:42.26	228.96	6.13	-47.9	-50.7	10.1	8.36e-03	0	49	0	117440512	58	4985
2026-01-03 14:18:45.23	229.27	6.29	-47.8	-50.4	10.4	6.30e-03	0	49	0	134217728	58	4847
2026-01-03 14:18:48.19	229.59	6.46	-48.0	-50.6	10.3	7.64e-03	0	50	0	150994944	58	4930
2026-01-03 14:18:51.16	229.91	6.62	-47.9	-50.4	10.4	5.58e-03	0	50	0	167772160	58	4857
2026-01-03 14:18:54.12	230.23	6.79	-47.8	-50.3	10.6	4.32e-03	0	50	0	184549376	58	4762
2026-01-03 14:18:57.09	230.56	6.96	-47.0	-49.1	11.8	7.36e-04	0	50	0	201326592	57	4432
2026-01-03 14:19:00.05	230.89	7.12	-46.8	-48.7	12.3	3.03e-04	0	50	0	217055232	56	4459
2026-01-03 14:19:03.03	231.23	7.29	-47.0	-49.0	12.1	3.11e-04	0	50	0	233832448	56	4606
2026-01-03 14:19:06.00	231.57	7.46	-46.4	-48.2	12.8	9.61e-05	0	51	0	250609664	56	4216
2026-01-03 14:19:08.97	231.92	7.63	-46.3	-48.0	13.0	5.37e-05	0	51	0	267386880	55	4363
2026-01-03 14:19:11.94	232.26	7.79	-46.2	-47.9	13.1	5.03e-05	0	51	0	284164096	55	4311
2026-01-03 14:19:14.91	232.61	7.96	-46.4	-48.1	13.0	6.63e-05	0	51	0	300941312	55	4418
2026-01-03 14:19:17.88	232.97	8.13	-46.1	-47.6	13.5	1.71e-05	0	51	0	317718528	55	4193
2026-01-03 14:19:20.83	233.33	8.30	-45.7	-47.1	14.1	4.50e-06	0	51	0	334495744	54	4187
2026-01-03 14:19:23.79	233.69	8.47	-45.5	-46.9	14.4	0.00e+00	0	51	0	351272960	54	4072
2026-01-03 14:19:26.75	234.06	8.63	-45.5	-46.9	14.4	1.10e-06	0	51	0	368050176	54	4068
2026-01-03 14:19:29.69	234.42	8.80	-45.1	-46.4	14.9	1.10e-06	0	52	0	384827392	53	4065
2026-01-03 14:19:32.67	234.80	8.97	-45.2	-46.5	14.9	0.00e+00	0	51	0	400556032	53	4108
2026-01-03 14:19:35.64	235.18	9.14	-45.4	-46.8	14.6	2.20e-06	0	52	0	417333248	53	4278
2026-01-03 14:19:38.62	235.56	9.31	-45.1	-46.3	15.2	0.00e+00	0	52	0	434110464	53	4032
2026-01-03 14:19:41.60	235.95	9.48	-45.1	-46.3	15.2	0.00e+00	0	52	0	450887680	53	4040
2026-01-03 14:19:44.57	236.35	9.65	-44.8	-46.0	15.6	0.00e+00	0	52	0	467664896	52	4111
2026-01-03 14:19:47.54	236.74	9.82	-44.9	-46.1	15.5	0.00e+00	0	52	0	484442112	52	4169
2026-01-03 14:19:50.49	237.14	9.98	-44.7	-45.9	15.9	0.00e+00	0	52	0	501219328	52	4055
2026-01-03 14:19:53.47	237.55	10.15	-44.4	-45.4	16.4	0.00e+00	0	52	0	517996544	51	4083
2026-01-03 14:19:56.43	237.96	10.32	-44.7	-45.7	16.1	0.00e+00	0	52	0	534773760	51	4229
2026-01-03 14:19:59.40	238.38	10.49	-44.2	-45.1	16.7	0.00e+00	0	52	0	551550976	51	3958
2026-01-03 14:20:02.37	238.79	10.66	-43.9	-44.8	17.1	0.00e+00	0	52	0	568328192	50	4009
2026-01-03 14:20:05.34	239.22	10.83	-43.7	-44.6	17.4	0.00e+00	0	52	0	585105408	50	3944
2026-01-03 14:20:08.31	239.65	11.00	-43.8	-44.7	17.3	0.00e+00	0	53	0	601882624	50	3996
2026-01-03 14:20:11.27	240.08	11.16	-44.2	-45.2	16.8	0.00e+00	0	53	0	617611264	50	4206
2026-01-03 14:20:14.24	240.52	11.33	-44.1	-45.1	16.9	0.00e+00	0	53	0	635437056	50	4167
2026-01-03 14:20:17.22	240.96	11.50	-44.4	-45.4	16.6	0.00e+00	0	53	0	651165696	50	4322
2026-01-03 14:20:20.18	241.41	11.66	-43.8	-44.7	17.4	0.00e+00	0	53	0	667942912	50	3969
2026-01-03 14:20:23.16	241.87	11.83	-43.9	-44.8	17.3	0.00e+00	0	53	0	684720128	50	4046
2026-01-03 14:20:26.14	242.33	12.00	-44.0	-45.0	17.2	0.00e+00	0	53	0	701497344	50	4101
2026-01-03 14:20:29.11	242.79	12.16	-43.9	-44.9	17.3	0.00e+00	0	53	0	718274560	50	4053
2026-01-03 14:20:32.07	243.26	12.33	-44.2	-45.2	17.0	0.00e+00	0	53	0	735051776	50	4223
2026-01-03 14:20:35.03	243.73	12.49	-43.6	-44.4	17.8	0.00e+00	0	53	0	751828992	50	3850
2026-01-03 14:20:38.00	244.21	12.65	-43.8	-44.7	17.5	0.00e+00	0	53	0	768606208	50	3978
2026-01-03 14:20:40.97	244.69	12.82	-44.1	-45.0	17.2	0.00e+00	0	53	0	785383424	50	4143
2026-01-03 14:20:43.93	245.18	12.98	-43.5	-44.3	17.8	0.00e+00	0	54	0	802160640	50	3818
2026-01-03 14:20:46.89	245.67	13.14	-43.5	-44.3	17.9	0.00e+00	0	54	0	818937856	49	4028
2026-01-03 14:20:49.85	246.17	13.30	-43.4	-44.2	18.0	0.00e+00	0	54	0	835715072	49	3981
2026-01-03 14:20:52.81	246.67	13.46	-43.1	-43.9	18.3	0.00e+00	0	54	0	851443712	49	3825
2026-01-03 14:20:55.78	247.18	13.61	-43.2	-44.0	18.2	0.00e+00	0	54	0	868220928	49	3884
2026-01-03 14:20:58.75	247.70	13.77	-43.1	-43.9	18.3	0.00e+00	0	54	0	884998144	49	3859
2026-01-03 14:21:01.73	248.22	13.93	-43.2	-44.0	18.2	0.00e+00	0	54	0	901775360	49	3881
2026-01-03 14:21:04.69	248.74	14.08	-43.3	-44.1	18.1	0.00e+00	0	54	0	918552576	49	3957
2026-01-03 14:21:07.65	249.27	14.24	-43.0	-43.8	18.4	0.00e+00	0	54	0	935329792	49	3811
2026-01-03 14:21:10.62	249.81	14.39	-43.1	-43.9	18.3	0.00e+00	0	54	0	952107008	49	3863
2026-01-03 14:21:13.57	250.35	14.54	-42.8	-43.6	18.6	0.00e+00	0	54	0	968884224	48	3923
2026-01-03 14:21:16.54	250.89	14.69	-42.8	-43.5	18.7	0.00e+00	0	54	0	985661440	48	3890
2026-01-03 14:21:19.51	251.45	14.84	-43.2	-44.0	18.2	0.00e+00	0	54	0	1002438656	48	4126
2026-01-03 14:21:22.48	252.00	14.98	-43.4	-44.2	18.0	0.00e+00	0	54	0	1018167296	48	4221
2026-01-03 14:21:25.45	252.57	15.13	-43.6	-44.5	17.7	0.00e+00	0	54	0	1034944512	49	4121
2026-01-03 14:21:28.41	253.13	15.27	-43.1	-43.9	18.3	0.00e+00	0	54	0	1051721728	49	3852
2026-01-03 14:21:31.37	253.70	15.41	-43.2	-44.0	18.3	0.00e+00	0	55	0	1068498944	49	3876
2026-01-03 14:21:34.33	254.28	15.55	-42.5	-43.2	19.0	0.00e+00	0	54	0	1085276160	48	3776
2026-01-03 14:21:37.30	254.86	15.69	-42.7	-43.4	18.8	0.00e+00	0	54	0	1102053376	48	3854
2026-01-03 14:21:40.28	255.45	15.82	-43.0	-43.8	18.5	0.00e+00	0	54	0	1118830592	48	4026
2026-01-03 14:21:43.25	256.05	15.95	-42.4	-43.1	19.1	0.00e+00	0	55	0	1135607808	48	3720
2026-01-03 14:21:46.21	256.65	16.08	-42.7	-43.4	18.8	0.00e+00	0	55	0	1152385024	48	3850
2026-01-03 14:21:49.19	257.25	16.21	-42.9	-43.7	18.6	0.00e+00	0	55	0	1169162240	48	3980
2026-01-03 14:21:52.16	257.86	16.34	-42.8	-43.5	18.7	0.00e+00	0	55	0	1185939456	48	3907
2026-01-03 14:21:55.14	258.48	16.46	-42.6	-43.3	18.9	0.00e+00	0	55	0	1202716672	48	3821
2026-01-03 14:21:58.11	259.10	16.59	-42.2	-42.9	19.2	0.00e+00	0	55	0	1219493888	47	3860
2026-01-03 14:22:01.07	259.72	16.70	-42.4	-43.1	19.0	0.00e+00	0	55	0	1235222528	47	3940
2026-01-03 14:22:04.04	260.35	16.82	-42.7	-43.4	18.7	0.00e+00	0	55	0	1253048320	47	4085
2026-01-03 14:22:07.00	260.98	16.93	-42.2	-42.9	19.2	0.00e+00	0	55	0	1268776960	47	3868
2026-01-03 14:22:09.97	261.61	17.04	-42.3	-43.0	19.1	0.00e+00	0	55	0	1285554176	47	3888
2026-01-03 14:22:12.94	262.26	17.15	-42.5	-43.2	18.9	0.00e+00	0	55	0	1302331392	47	3975
2026-01-03 14:22:15.91	262.90	17.25	-42.5	-43.2	18.9	0.00e+00	0	55	0	1319108608	47	3986
2026-01-03 14:22:18.90	263.56	17.36	-42.4	-43.1	19.0	0.00e+00	0	55	0	1335885824	47	3937
2026-01-03 14:22:21.87	264.21	17.45	-42.2	-42.9	19.2	0.00e+00	0	55	0	1352663040	47	3829
2026-01-03 14:22:24.84	264.87	17.55	-41.9	-42.6	19.5	0.00e+00	0	55	0	1369440256	46	3926
2026-01-03 14:22:27.81	265.54	17.64	-42.2	-42.9	19.2	0.00e+00	0	55	0	1386217472	46	4065
2026-01-03 14:22:30.77	266.20	17.73	-42.3	-43.0	19.1	0.00e+00	0	55	0	1402994688	46	4138
2026-01-03 14:22:33.74	266.87	17.81	-42.1	-42.9	19.3	0.00e+00	0	55	0	1419771904	47	3828
2026-01-03 14:22:36.70	267.54	17.90	-42.2	-42.9	19.2	0.00e+00	0	55	0	1436549120	47	3855
2026-01-03 14:22:39.67	268.22	17.97	-42.0	-42.7	19.4	0.00e+00	0	55	0	1453326336	47	3746
2026-01-03 14:22:42.64	268.90	18.05	-42.1	-42.8	19.3	0.00e+00	0	55	0	1470103552	47	3823
2026-01-03 14:22:45.62	269.59	18.12	-42.1	-42.8	19.3	0.00e+00	0	55	0	1485832192	47	3803
2026-01-03 14:22:48.58	270.27	18.18	-42.0	-42.7	19.4	0.00e+00	0	55	0	1502609408	47	3776
2026-01-03 14:22:51.56	270.96	18.25	-42.0	-42.7	19.4	0.00e+00	0	56	0	1519386624	47	3761
2026-01-03 14:22:54.53	271.66	18.31	-42.0	-42.7	19.5	0.00e+00	0	55	0	1536163840	46	3972
2026-01-03 14:22:57.50	272.35	18.36	-41.9	-42.5	19.6	0.00e+00	0	55	0	1552941056	46	3908
2026-01-03 14:23:00.48	273.05	18.41	-42.0	-42.7	19.4	0.00e+00	0	55	0	1569718272	46	3973
2026-01-03 14:23:03.44	273.75	18.46	-41.8	-42.5	19.6	0.00e+00	0	56	0	1586495488	46	3869
2026-01-03 14:23:06.39	274.44	18.50	-41.8	-42.4	19.7	0.00e+00	0	56	0	1603272704	46	3866
2026-01-03 14:23:09.36	275.15	18.54	-41.8	-42.5	19.6	0.00e+00	0	56	0	1620049920	46	3881
2026-01-03 14:23:12.34	275.86	18.58	-41.9	-42.6	19.6	0.00e+00	0	56	0	1636827136	46	3918
2026-01-03 14:23:15.30	276.56	18.61	-41.8	-42.5	19.6	0.00e+00	0	55	0	1653604352	46	3873
2026-01-03 14:23:18.28	277.27	18.63	-41.9	-42.6	19.5	0.00e+00	0	56	0	1670381568	46	3941
2026-01-03 14:23:21.25	277.98	18.66	-42.3	-43.0	19.1	0.00e+00	0	56	0	1687158784	46	4124
2026-01-03 14:23:24.22	278.69	18.67	-42.5	-43.2	18.9	0.00e+00	0	56	0	1703936000	46	4237
2026-01-03 14:23:27.19	279.40	18.69	-42.4	-43.1	19.0	0.00e+00	0	56	0	1720713216	46	4170
2026-01-03 14:23:30.13	280.10	18.70	-42.0	-42.7	19.4	0.00e+00	0	56	0	1736441856	47	3762
2026-01-03 14:23:33.11	280.82	18.70	-42.4	-43.2	18.9	0.00e+00	0	56	0	1753219072	47	3975
2026-01-03 14:23:36.07	281.52	18.70	-42.8	-43.6	18.6	0.00e+00	0	56	0	1769996288	47	4147
2026-01-03 14:23:39.05	282.24	18.70	-43.8	-44.6	17.5	0.00e+00	0	56	0	1786773504	49	4190
2026-01-03 14:23:42.02	282.95	18.69	-44.4	-45.4	16.6	0.00e+00	0	56	0	1803550720	50	4338
2026-01-03 14:23:44.98	283.66	18.68	-45.8	-47.1	14.6	0.00e+00	0	56	0	1820327936	53	4428
2026-01-03 14:23:47.95	284.37	18.66	-46.2	-47.7	13.8	4.50e-06	0	56	0	1837105152	54	4469
2026-01-03 14:23:50.92	285.07	18.64	-47.4	-49.4	11.9	3.35e-04	0	56	0	1853882368	56	4827
2026-01-03 14:23:53.90	285.78	18.62	-48.6	-51.6	9.4	1.86e-02	0	56	0	1870659584	59	5219
2026-01-03 14:23:56.88	286.49	18.59	-48.7	-51.9	8.9	3.59e-02	0	56	0	1887436800	60	5150
2026-01-03 14:23:59.85	287.20	18.56	-48.6	-51.7	9.1	2.69e-02	0	56	0	1904214016	60	5041
2026-01-03 14:24:02.82	287.90	18.52	-48.6	-51.6	9.2	3.11e-02	0	56	0	1920991232	60	4948
2026-01-03 14:24:05.79	288.60	18.48	-48.0	-50.6	10.3	7.68e-03	0	56	0	1937768448	59	4653
2026-01-03 14:24:08.75	289.30	18.43	-48.0	-50.7	10.2	7.94e-03	0	56	0	1953497088	59	4717
2026-01-03 14:24:11.72	290.00	18.38	-47.9	-50.5	10.4	6.04e-03	0	56	0	1970274304	58	4882
2026-01-03 14:24:14.69	290.69	18.33	-46.3	-48.0	13.2	5.83e-05	0	56	0	1987051520	55	4341
2026-01-03 14:24:17.66	291.39	18.27	-45.1	-46.3	15.4	0.00e+00	0	56	0	2003828736	53	4026
2026-01-03 14:24:20.62	292.07	18.21	-44.7	-45.7	16.3	0.00e+00	0	56	0	2020605952	52	3991
2026-01-03 14:24:23.59	292.76	18.15	-44.1	-45.1	17.2	0.00e+00	0	56	0	2037383168	51	3921
2026-01-03 14:24:26.57	293.45	18.08	-43.7	-44.6	17.7	0.00e+00	0	56	0	2054160384	50	3925
2026-01-03 14:24:29.52	294.12	18.01	-42.7	-43.4	18.8	0.00e+00	0	56	0	2070937600	48	3855
2026-01-03 14:24:32.49	294.80	17.93	-42.2	-42.9	19.2	0.00e+00	0	56	0	2087714816	47	3827
2026-01-03 14:24:35.46	295.48	17.85	-42.3	-43.0	19.1	0.00e+00	0	56	0	2104492032	47	3878
2026-01-03 14:24:38.43	296.15	17.77	-42.4	-43.1	19.0	0.00e+00	0	56	0	2121269248	47	3933
2026-01-03 14:24:41.39	296.81	17.68	-42.3	-43.0	19.1	0.00e+00	0	56	0	2138046464	47	3904
2026-01-03 14:24:44.36	297.47	17.59	-42.2	-42.9	19.2	0.00e+00	0	56	0	2153775104	47	3863
2026-01-03 14:24:47.32	298.13	17.50	-42.2	-42.9	19.2	0.00e+00	0	56	0	2170552320	47	3856
2026-01-03 14:24:50.29	298.79	17.40	-42.4	-43.1	19.0	0.00e+00	0	56	0	2187329536	47	3936
2026-01-03 14:24:53.26	299.44	17.30	-42.4	-43.1	19.0	0.00e+00	0	56	0	2204106752	47	3939
2026-01-03 14:24:56.23	300.08	17.20	-42.5	-43.3	18.8	0.00e+00	0	56	0	2220883968	47	4029
2026-01-03 14:24:59.20	300.73	17.09	-42.4	-43.1	19.0	0.00e+00	0	56	0	2237661184	47	3949
2026-01-03 14:25:02.17	301.37	16.98	-42.4	-43.1	19.0	0.00e+00	0	56	0	2254438400	47	3941
2026-01-03 14:25:05.14	302.00	16.87	-42.5	-43.3	18.8	0.00e+00	0	57	0	2271215616	47	4014
2026-01-03 14:25:08.10	302.63	16.76	-42.8	-43.6	18.5	0.00e+00	0	56	0	2287992832	47	4160
2026-01-03 14:25:11.08	303.25	16.64	-42.7	-43.4	18.7	0.00e+00	0	56	0	2304770048	47	4086
2026-01-03 14:25:14.07	303.88	16.52	-43.1	-43.9	18.4	0.00e+00	0	56	0	2321547264	48	4064
2026-01-03 14:25:17.05	304.49	16.40	-43.2	-44.0	18.3	0.00e+00	0	56	0	2338324480	48	4120
2026-01-03 14:25:20.02	305.10	16.27	-43.3	-44.2	18.1	0.00e+00	0	56	0	2355101696	48	4195
2026-01-03 14:25:22.99	305.71	16.15	-43.3	-44.1	18.2	0.00e+00	0	56	0	2371878912	48	4177
2026-01-03 14:25:25.97	306.31	16.02	-43.5	-44.4	17.9	0.00e+00	0	57	0	2388656128	48	4298
2026-01-03 14:25:28.93	306.90	15.89	-43.2	-44.0	18.3	0.00e+00	0	57	0	2404384768	49	3885
2026-01-03 14:25:31.88	307.49	15.75	-43.0	-43.8	18.4	0.00e+00	0	56	0	2421161984	49	3815
2026-01-03 14:25:34.85	308.07	15.62	-43.1	-43.8	18.4	0.00e+00	0	56	0	2437939200	49	3823
2026-01-03 14:25:37.82	308.65	15.48	-42.8	-43.5	18.7	0.00e+00	0	56	0	2454716416	48	3910
2026-01-03 14:25:40.79	309.22	15.34	-43.0	-43.8	18.5	0.00e+00	0	57	0	2471493632	48	4020
2026-01-03 14:25:43.77	309.79	15.20	-43.0	-43.8	18.4	0.00e+00	0	56	0	2488270848	48	4037
2026-01-03 14:25:46.74	310.36	15.06	-42.9	-43.7	18.6	0.00e+00	0	56	0	2505048064	48	3985
2026-01-03 14:25:49.71	310.91	14.91	-43.1	-43.9	18.4	0.00e+00	0	57	0	2521825280	48	4071
2026-01-03 14:25:52.68	311.47	14.76	-43.3	-44.1	18.1	0.00e+00	0	56	0	2538602496	48	4186
2026-01-03 14:25:55.66	312.02	14.62	-43.3	-44.2	18.1	0.00e+00	0	57	0	2555379712	48	4194
2026-01-03 14:25:58.63	312.56	14.47	-43.4	-44.2	18.0	0.00e+00	0	57	0	2572156928	48	4231
2026-01-03 14:26:01.60	313.10	14.32	-43.4	-44.2	18.1	0.00e+00	0	56	0	2588934144	49	3960
2026-01-03 14:26:04.58	313.63	14.16	-43.3	-44.1	18.1	0.00e+00	0	56	0	2605711360	49	3948
2026-01-03 14:26:07.56	314.16	14.01	-43.5	-44.4	17.8	0.00e+00	0	56	0	2622488576	49	4061
2026-01-03 14:26:10.52	314.68	13.86	-43.8	-44.7	17.5	0.00e+00	0	57	0	2639265792	49	4235
2026-01-03 14:26:13.49	315.19	13.70	-43.9	-44.8	17.4	0.00e+00	0	56	0	2656043008	49	4290
2026-01-03 14:26:16.44	315.70	13.54	-43.9	-44.8	17.4	0.00e+00	0	57	0	2672820224	49	4261
2026-01-03 14:26:19.40	316.20	13.39	-43.8	-44.6	17.5	0.00e+00	0	57	0	2688548864	49	4187
2026-01-03 14:26:22.36	316.70	13.23	-44.0	-44.9	17.4	0.00e+00	0	57	0	2705326080	50	4061
2026-01-03 14:26:25.34	317.20	13.07	-43.8	-44.7	17.5	0.00e+00	0	57	0	2722103296	50	4002
2026-01-03 14:26:28.31	317.69	12.91	-43.9	-44.8	17.3	0.00e+00	0	57	0	2738880512	50	4038
2026-01-03 14:26:31.26	318.17	12.75	-43.7	-44.5	17.6	0.00e+00	0	57	0	2755657728	50	3901
2026-01-03 14:26:34.24	318.65	12.59	-43.9	-44.8	17.4	0.00e+00	0	57	0	2772434944	50	4020
2026-01-03 14:26:37.21	319.12	12.42	-43.7	-44.6	17.6	0.00e+00	0	57	0	2789212160	50	3924
2026-01-03 14:26:40.17	319.59	12.26	-43.8	-44.7	17.5	0.00e+00	0	57	0	2805989376	50	3989
2026-01-03 14:26:43.14	320.05	12.10	-43.8	-44.7	17.4	0.00e+00	0	57	0	2822766592	50	4000
2026-01-03 14:26:46.11	320.51	11.93	-44.0	-45.0	17.2	0.00e+00	0	57	0	2839543808	50	4101
2026-01-03 14:26:49.09	320.97	11.77	-44.0	-44.9	17.2	0.00e+00	0	57	0	2856321024	50	4084
2026-01-03 14:26:52.05	321.42	11.60	-44.0	-44.9	17.2	0.00e+00	0	57	0	2872049664	50	4092
2026-01-03 14:26:55.02	321.86	11.44	-44.3	-45.3	16.8	0.00e+00	0	57	0	2888826880	50	4278
2026-01-03 14:26:58.00	322.30	11.27	-44.5	-45.5	16.7	0.00e+00	0	57	0	2905604096	50	4347
2026-01-03 14:27:00.98	322.74	11.10	-44.3	-45.3	16.8	0.00e+00	0	57	0	2922381312	50	4277
2026-01-03 14:27:03.94	323.17	10.94	-44.5	-45.5	16.6	0.00e+00	0	57	0	2939158528	50	4362
2026-01-03 14:27:06.91	323.59	10.77	-44.4	-45.4	16.6	0.00e+00	0	57	0	2955935744	51	4090
2026-01-03 14:27:09.88	324.01	10.60	-44.7	-45.7	16.4	0.00e+00	0	57	0	2972712960	51	4220
2026-01-03 14:27:12.84	324.43	10.43	-44.3	-45.2	16.8	0.00e+00	0	57	0	2989490176	51	3986
2026-01-03 14:27:15.81	324.84	10.27	-44.2	-45.2	16.9	0.00e+00	0	57	0	3006267392	51	3973
2026-01-03 14:27:18.77	325.25	10.10	-44.5	-45.5	16.6	0.00e+00	0	57	0	3023044608	51	4109
2026-01-03 14:27:21.73	325.65	9.93	-44.2	-45.2	16.8	0.00e+00	0	57	0	3039821824	51	3992
2026-01-03 14:27:24.70	326.05	9.76	-44.6	-45.6	16.4	0.00e+00	0	57	0	3056599040	51	4193
2026-01-03 14:27:27.66	326.44	9.60	-44.5	-45.5	16.5	0.00e+00	0	57	0	3072327680	51	4143
2026-01-03 14:27:30.61	326.83	9.43	-44.8	-45.8	16.2	0.00e+00	0	57	0	3089104896	51	4278
2026-01-03 14:27:33.59	327.21	9.26	-44.9	-46.1	16.0	0.00e+00	0	57	0	3105882112	51	4393
2026-01-03 14:27:36.56	327.59	9.09	-45.1	-46.2	15.7	0.00e+00	0	57	0	3122659328	52	4233
2026-01-03 14:27:39.53	327.97	8.93	-45.1	-46.3	15.6	0.00e+00	0	57	0	3139436544	52	4252
2026-01-03 14:27:42.50	328.34	8.76	-45.1	-46.3	15.6	0.00e+00	0	57	0	3156213760	52	4255
2026-01-03 14:27:45.48	328.71	8.59	-45.1	-46.2	15.6	0.00e+00	0	57	0	3172990976	52	4242
2026-01-03 14:27:48.45	329.08	8.42	-45.3	-46.5	15.3	0.00e+00	0	57	0	3189768192	52	4368
2026-01-03 14:27:51.42	329.44	8.26	-45.0	-46.2	15.6	0.00e+00	0	57	0	3206545408	52	4210
2026-01-03 14:27:54.39	329.79	8.09	-45.2	-46.4	15.3	0.00e+00	0	57	0	3223322624	52	4337
2026-01-03 14:27:57.37	330.15	7.92	-45.0	-46.2	15.6	0.00e+00	0	57	0	3240099840	52	4222
2026-01-03 14:28:00.34	330.50	7.75	-45.3	-46.5	15.2	0.00e+00	0	57	0	3256877056	52	4375
2026-01-03 14:28:03.32	330.84	7.59	-45.5	-46.8	14.9	0.00e+00	0	57	0	3273654272	52	4522
2026-01-03 14:28:06.30	331.19	7.42	-45.6	-46.9	14.8	0.00e+00	0	57	0	3290431488	53	4299
2026-01-03 14:28:09.26	331.52	7.26	-45.4	-46.7	15.0	0.00e+00	0	57	0	3307208704	53	4231
2026-01-03 14:28:12.22	331.86	7.09	-45.6	-46.9	14.8	0.00e+00	0	57	0	3322937344	53	4304
2026-01-03 14:28:15.18	332.18	6.93	-45.1	-46.4	15.3	0.00e+00	0	57	0	3339714560	53	4066
2026-01-03 14:28:18.16	332.51	6.76	-45.3	-46.7	15.0	0.00e+00	0	57	0	3356491776	53	4195
2026-01-03 14:28:21.12	332.83	6.60	-45.5	-46.9	14.7	0.00e+00	0	57	0	3373268992	53	4297
2026-01-03 14:28:24.10	333.16	6.43	-45.8	-47.2	14.3	2.20e-06	0	57	0	3390046208	53	4491
2026-01-03 14:28:27.07	333.47	6.27	-45.6	-47.0	14.5	1.10e-06	0	57	0	3406823424	53	4366
2026-01-03 14:28:30.02	333.78	6.10	-46.0	-47.4	14.1	1.10e-06	0	57	0	3423600640	53	4591
2026-01-03 14:28:32.98	334.09	5.94	-45.5	-46.7	14.8	1.10e-06	0	57	0	3440377856	53	4236
2026-01-03 14:28:35.93	334.40	5.78	-45.6	-47.0	14.5	2.20e-06	0	57	0	3457155072	53	4368
2026-01-03 14:28:38.91	334.70	5.62	-45.8	-47.2	14.2	2.20e-06	0	57	0	3473932288	53	4479
2026-01-03 14:28:41.88	335.00	5.45	-45.9	-47.3	14.1	3.40e-06	0	57	0	3490709504	53	4531
2026-01-03 14:28:44.86	335.30	5.29	-45.9	-47.4	14.0	1.10e-06	0	57	0	3507486720	53	4586
2026-01-03 14:28:47.83	335.59	5.13	-45.8	-47.3	14.1	1.10e-06	0	57	0	3523215360	54	4282
2026-01-03 14:28:50.81	335.88	4.97	-51.8	-62.0	3.8	8.46e-01	0	57	104	3536846848	65	12344
2026-01-03 14:28:53.78	336.17	4.81	-52.5	-63.2	3.8	8.46e-01	0	57	104	3536846848	66	13363
2026-01-03 14:28:56.75	336.46	4.65	-52.5	-63.3	3.8	8.45e-01	0	57	104	3536846848	66	13476
2026-01-03 14:28:59.72	336.74	4.49	-52.8	-63.5	3.8	8.47e-01	0	57	104	3536846848	67	13002
2026-01-03 14:29:02.69	337.02	4.33	-52.7	-63.6	3.8	8.46e-01	0	57	104	3536846848	67	13129
2026-01-03 14:29:05.66	337.29	4.17	-52.7	-63.6	3.8	8.45e-01	0	57	104	3536846848	67	13226
2026-01-03 14:29:08.62	337.57	4.01	-52.8	-63.7	3.8	8.47e-01	0	57	104	3536846848	67	13276
2026-01-03 14:29:11.60	337.84	3.85	-53.0	-63.7	3.8	8.46e-01	0	57	104	3536846848	67	13331
2026-01-03 14:29:14.57	338.11	3.69	-53.0	-63.7	3.8	8.46e-01	0	57	104	3536846848	67	13340
2026-01-03 14:29:17.55	338.37	3.54	-53.0	-63.7	3.8	8.46e-01	0	57	104	3536846848	67	13358
2026-01-03 14:29:20.50	338.63	3.38	-52.9	-63.7	3.8	8.46e-01	0	57	104	3536846848	67	13335
2026-01-03 14:29:23.47	338.89	3.22	-52.9	-63.7	3.8	8.46e-01	0	57	104	3536846848	67	13333
2026-01-03 14:29:26.45	339.15	3.07	-52.7	-63.7	3.8	8.46e-01	0	57	104	3536846848	67	13283
2026-01-03 14:29:29.40	339.40	2.91	-52.8	-63.7	3.8	8.45e-01	0	57	104	3536846848	67	13292

#Closed at: 2026-01-03 14:29:30
#Recorded file [3536 MB]: D:/Data/31026_260103_172850.dat