passes_logs/2026/01/03/R3.0SM8_Murmansk_STILSPACE/R3.0SM8_Murmansk_STILSPACE__20260103_024710_NOAA_21_JPSS-2_rec.log

#Pass ID: 20260103_024710_NOAA 21 (JPSS-2)
#Satellite: NOAA 21 (JPSS-2)
#Configuration: NOAA-21
#almurnet v.1.7.20240730
#Start time: 2026-01-03 02:56:58

#Version: 2.2.20231116
#Station: R3.0SM8_Murmansk_STILSPACE
#Location: 33.092731 lon 68.902999 lat
#TLE: 1 54234U 22150A   26002.25486487  .00000200  00000+0  11573-3 0  9993
#TLE: 2 54234  98.7485 303.3096 0001220 350.9074   9.2080 14.19531212163006

#Time	Az	El	Level	Level2	SNR	BER	BlckErr	Temp	State	Recorded	gain1	gain2
2026-01-03 02:56:58.35	272.49	18.32	-53.4	-63.6	3.8	8.46e-01	0	57	0	0	68	12302
2026-01-03 02:56:59.32	272.35	18.22	-53.5	-65.0	3.8	1.49e+00	0	58	104	0	69	13729
2026-01-03 02:57:00.31	272.22	18.13	-53.4	-65.0	3.8	1.49e+00	0	58	104	0	69	13771
2026-01-03 02:57:01.30	272.08	18.03	-53.5	-65.0	3.8	1.49e+00	0	58	104	0	69	13795
2026-01-03 02:57:02.28	271.95	17.93	-53.4	-65.0	3.8	1.49e+00	0	58	104	0	69	13788
2026-01-03 02:57:03.27	271.82	17.84	-53.5	-65.0	3.8	1.49e+00	0	58	104	0	69	13792
2026-01-03 02:57:04.26	271.69	17.74	-53.5	-65.0	3.8	1.49e+00	0	58	104	0	69	13756
2026-01-03 02:57:05.25	271.56	17.64	-53.4	-64.9	3.8	1.49e+00	0	58	104	0	69	13711
2026-01-03 02:57:06.23	271.43	17.55	-53.5	-65.0	3.8	1.49e+00	0	58	104	0	69	13737
2026-01-03 02:57:07.23	271.30	17.45	-53.4	-65.0	3.8	1.49e+00	0	58	104	0	69	13731
2026-01-03 02:57:08.22	271.17	17.35	-53.3	-64.9	3.8	1.49e+00	0	58	104	0	69	13679
2026-01-03 02:57:09.21	271.04	17.26	-53.5	-64.9	3.8	1.49e+00	0	58	104	0	69	13722
2026-01-03 02:57:10.21	270.91	17.16	-53.5	-64.9	3.8	1.49e+00	0	58	104	0	69	13678
2026-01-03 02:57:11.20	270.78	17.07	-53.4	-64.9	3.8	1.49e+00	0	58	104	0	69	13639
2026-01-03 02:57:12.20	270.66	16.97	-53.4	-64.9	3.8	1.49e+00	0	58	104	0	69	13618
2026-01-03 02:57:13.18	270.53	16.88	-53.4	-64.9	3.8	1.49e+00	0	58	104	0	69	13616
2026-01-03 02:57:14.18	270.41	16.78	-53.3	-64.9	3.8	1.49e+00	0	58	104	0	69	13598
2026-01-03 02:57:15.16	270.29	16.69	-53.4	-64.9	3.8	1.49e+00	0	58	104	0	69	13589
2026-01-03 02:57:16.15	270.16	16.59	-53.3	-64.8	3.8	1.49e+00	0	58	104	0	69	13517
2026-01-03 02:57:17.14	270.04	16.50	-53.3	-64.7	3.8	1.49e+00	0	58	104	0	69	13299
2026-01-03 02:57:18.13	269.92	16.41	-53.3	-64.7	3.8	1.49e+00	0	58	104	0	69	13329
2026-01-03 02:57:19.13	269.80	16.31	-53.2	-64.6	3.8	1.49e+00	0	58	104	0	69	13166
2026-01-03 02:57:20.11	269.68	16.22	-53.0	-64.3	3.8	1.49e+00	0	58	104	0	69	12747
2026-01-03 02:57:21.10	269.56	16.13	-53.1	-64.5	3.8	1.49e+00	0	58	104	0	69	12968
2026-01-03 02:57:22.09	269.45	16.03	-53.1	-64.5	3.8	1.49e+00	0	58	104	0	69	12982
2026-01-03 02:57:23.08	269.33	15.94	-52.9	-63.9	3.8	1.49e+00	0	58	104	0	68	12916
2026-01-03 02:57:24.08	269.21	15.85	-52.9	-63.8	3.8	1.49e+00	0	58	104	0	68	12743
2026-01-03 02:57:25.07	269.10	15.76	-52.8	-63.8	3.8	1.49e+00	0	58	104	0	68	12744
2026-01-03 02:57:26.07	268.98	15.66	-52.9	-63.8	3.8	1.49e+00	0	58	104	0	68	12732
2026-01-03 02:57:27.06	268.87	15.57	-52.9	-63.8	3.8	1.49e+00	0	58	104	0	68	12723
2026-01-03 02:57:28.05	268.75	15.48	-53.0	-63.9	3.8	1.49e+00	0	58	104	0	68	12873
2026-01-03 02:57:29.04	268.64	15.39	-53.0	-64.0	3.8	1.49e+00	0	58	104	0	68	13002
2026-01-03 02:57:30.03	268.53	15.30	-53.0	-64.1	3.8	1.49e+00	0	58	104	0	68	13222
2026-01-03 02:57:31.02	268.42	15.21	-53.0	-64.2	3.8	1.49e+00	0	58	104	0	68	13320
2026-01-03 02:57:32.01	268.31	15.12	-52.9	-64.2	3.8	1.49e+00	0	58	104	0	68	13370
2026-01-03 02:57:32.99	268.20	15.03	-53.0	-64.3	3.8	1.49e+00	0	58	104	0	68	13539
2026-01-03 02:57:33.99	268.09	14.94	-53.0	-64.3	3.8	1.49e+00	0	58	104	0	68	13544
2026-01-03 02:57:34.97	267.98	14.85	-53.0	-64.4	3.8	1.49e+00	0	58	104	0	68	13630
2026-01-03 02:57:35.96	267.87	14.76	-53.0	-64.4	3.8	1.49e+00	0	58	104	0	68	13722
2026-01-03 02:57:36.94	267.77	14.67	-53.0	-64.4	3.8	1.49e+00	0	58	104	0	68	13616
2026-01-03 02:57:37.92	267.66	14.58	-52.9	-63.7	3.8	1.49e+00	0	58	104	0	68	12527
2026-01-03 02:57:38.91	267.55	14.49	-52.7	-61.5	4.1	1.48e+00	0	58	104	0	68	9726
2026-01-03 02:57:39.91	267.45	14.40	-52.1	-58.7	5.0	1.21e+00	0	58	0	0	67	7539
2026-01-03 02:57:40.90	267.34	14.31	-51.4	-56.3	6.9	2.76e-01	0	58	0	3145728	66	5998
2026-01-03 02:57:41.90	267.24	14.23	-50.5	-54.1	9.0	4.19e-02	0	58	0	6291456	64	5221
2026-01-03 02:57:42.88	267.14	14.14	-49.8	-52.6	10.6	4.59e-03	0	58	0	9437184	62	4944
2026-01-03 02:57:43.88	267.03	14.05	-49.1	-51.4	11.8	8.64e-04	0	58	0	12582912	61	4596
2026-01-03 02:57:44.86	266.93	13.96	-48.7	-50.8	12.6	1.65e-04	0	58	0	15728640	60	4496
2026-01-03 02:57:45.85	266.83	13.88	-48.4	-50.3	13.0	4.65e-05	0	58	0	17825792	59	4516
2026-01-03 02:57:46.84	266.73	13.79	-48.2	-50.0	13.4	1.37e-05	0	58	0	20971520	59	4367
2026-01-03 02:57:47.83	266.63	13.70	-48.1	-49.8	13.6	1.06e-05	0	58	0	24117248	59	4264
2026-01-03 02:57:48.82	266.53	13.62	-48.0	-49.7	13.7	9.10e-06	0	58	0	27262976	59	4196
2026-01-03 02:57:49.80	266.43	13.53	-47.8	-49.5	13.9	5.30e-06	0	58	0	30408704	58	4348
2026-01-03 02:57:50.79	266.33	13.44	-47.7	-49.3	14.0	2.20e-06	0	58	0	33554432	58	4270
2026-01-03 02:57:51.78	266.23	13.36	-47.7	-49.2	14.1	1.50e-06	0	58	0	36700160	58	4241
2026-01-03 02:57:52.76	266.14	13.27	-47.7	-49.3	14.1	5.30e-06	0	58	0	39845888	58	4243
2026-01-03 02:57:53.75	266.04	13.19	-47.6	-49.1	14.2	5.30e-06	0	58	0	42991616	58	4191
2026-01-03 02:57:54.74	265.95	13.10	-47.5	-49.1	14.3	0.00e+00	0	58	0	46137344	58	4168
2026-01-03 02:57:55.72	265.85	13.02	-47.6	-49.1	14.2	0.00e+00	0	58	0	49283072	58	4193
2026-01-03 02:57:56.70	265.76	12.93	-47.4	-48.9	14.4	7.00e-07	0	58	0	52428800	58	4096
2026-01-03 02:57:57.70	265.66	12.85	-47.4	-48.9	14.5	0.00e+00	0	58	0	55574528	57	4306
2026-01-03 02:57:58.69	265.57	12.76	-47.4	-48.9	14.4	1.50e-06	0	57	0	58720256	57	4329
2026-01-03 02:57:59.68	265.47	12.68	-47.2	-48.8	14.6	0.00e+00	0	58	0	61865984	57	4243
2026-01-03 02:58:00.66	265.38	12.60	-47.1	-48.5	14.8	0.00e+00	0	58	0	65011712	57	4105
2026-01-03 02:58:01.65	265.29	12.51	-46.7	-48.0	15.4	0.00e+00	0	58	0	68157440	56	4108
2026-01-03 02:58:02.65	265.20	12.43	-46.3	-47.5	15.7	0.00e+00	0	58	0	71303168	55	4134
2026-01-03 02:58:03.63	265.11	12.34	-46.2	-47.4	15.8	0.00e+00	0	58	0	73400320	55	4056
2026-01-03 02:58:04.62	265.02	12.26	-46.4	-47.6	15.6	0.00e+00	0	58	0	76546048	55	4158
2026-01-03 02:58:05.61	264.93	12.18	-46.5	-47.7	15.5	0.00e+00	0	58	0	79691776	55	4216
2026-01-03 02:58:06.61	264.84	12.09	-46.5	-47.8	15.4	0.00e+00	0	58	0	82837504	55	4264
2026-01-03 02:58:07.61	264.75	12.01	-46.7	-48.1	15.1	0.00e+00	0	58	0	85983232	55	4428
2026-01-03 02:58:08.59	264.66	11.93	-46.8	-48.2	15.0	0.00e+00	0	58	0	89128960	55	4455
2026-01-03 02:58:09.58	264.57	11.85	-47.0	-48.4	14.8	0.00e+00	0	58	0	92274688	55	4579
2026-01-03 02:58:10.57	264.48	11.76	-47.2	-48.6	14.7	7.00e-07	0	58	0	95420416	56	4424
2026-01-03 02:58:11.55	264.40	11.68	-47.0	-48.4	14.9	0.00e+00	0	58	0	98566144	56	4296
2026-01-03 02:58:12.54	264.31	11.60	-47.0	-48.4	14.9	0.00e+00	0	57	0	101711872	56	4295
2026-01-03 02:58:13.53	264.22	11.52	-47.0	-48.3	14.9	0.00e+00	0	58	0	104857600	56	4288
2026-01-03 02:58:14.53	264.14	11.44	-46.9	-48.2	15.0	7.00e-07	0	58	0	108003328	56	4228
2026-01-03 02:58:15.52	264.05	11.36	-46.7	-48.1	15.2	0.00e+00	0	58	0	111149056	56	4155
2026-01-03 02:58:16.51	263.97	11.28	-46.6	-48.0	15.3	0.00e+00	0	58	0	114294784	56	4112
2026-01-03 02:58:17.49	263.88	11.20	-46.5	-47.9	15.4	0.00e+00	0	58	0	117440512	56	4073
2026-01-03 02:58:18.48	263.80	11.12	-46.6	-47.9	15.4	0.00e+00	0	58	0	120586240	56	4072
2026-01-03 02:58:19.47	263.72	11.04	-46.5	-47.8	15.4	0.00e+00	0	58	0	123731968	56	4037
2026-01-03 02:58:20.46	263.63	10.96	-46.3	-47.5	15.6	0.00e+00	0	58	0	126877696	55	4138
2026-01-03 02:58:21.45	263.55	10.88	-46.2	-47.5	15.7	0.00e+00	0	58	0	130023424	55	4099
2026-01-03 02:58:22.43	263.47	10.80	-46.2	-47.4	15.7	0.00e+00	0	58	0	132120576	55	4091
2026-01-03 02:58:23.42	263.39	10.72	-46.2	-47.3	15.8	0.00e+00	0	58	0	135266304	55	4047
2026-01-03 02:58:24.41	263.31	10.64	-46.2	-47.4	15.7	0.00e+00	0	58	0	138412032	55	4091
2026-01-03 02:58:25.40	263.23	10.56	-46.4	-47.6	15.5	0.00e+00	0	58	0	141557760	55	4192
2026-01-03 02:58:26.39	263.15	10.48	-46.4	-47.6	15.5	0.00e+00	0	58	0	144703488	55	4192
2026-01-03 02:58:27.37	263.07	10.40	-46.3	-47.5	15.6	0.00e+00	0	58	0	147849216	55	4130
2026-01-03 02:58:28.36	262.99	10.33	-46.3	-47.5	15.6	0.00e+00	0	58	0	150994944	55	4143
2026-01-03 02:58:29.34	262.91	10.25	-46.4	-47.6	15.5	0.00e+00	0	58	0	154140672	55	4192
2026-01-03 02:58:30.32	262.84	10.17	-46.4	-47.7	15.4	0.00e+00	0	58	0	157286400	55	4236
2026-01-03 02:58:31.31	262.76	10.09	-46.5	-47.9	15.2	0.00e+00	0	58	0	160432128	55	4298
2026-01-03 02:58:32.30	262.68	10.02	-46.5	-47.9	15.2	0.00e+00	0	58	0	163577856	55	4305
2026-01-03 02:58:33.29	262.60	9.94	-46.7	-48.1	15.0	7.00e-07	0	58	0	166723584	55	4416
2026-01-03 02:58:34.28	262.53	9.86	-46.8	-48.2	15.0	0.00e+00	0	58	0	169869312	55	4443
2026-01-03 02:58:35.26	262.45	9.78	-46.8	-48.2	14.9	0.00e+00	0	58	0	173015040	55	4478
2026-01-03 02:58:36.25	262.38	9.71	-46.8	-48.3	14.8	0.00e+00	0	58	0	176160768	55	4510
2026-01-03 02:58:37.24	262.30	9.63	-46.9	-48.4	14.7	7.00e-07	0	58	0	179306496	55	4550
2026-01-03 02:58:38.22	262.23	9.56	-46.9	-48.4	14.7	0.00e+00	0	58	0	182452224	55	4564
2026-01-03 02:58:39.21	262.15	9.48	-47.0	-48.4	14.7	1.50e-06	0	58	0	184549376	55	4577
2026-01-03 02:58:40.20	262.08	9.40	-47.0	-48.4	14.6	0.00e+00	0	58	0	187695104	55	4597
2026-01-03 02:58:41.19	262.00	9.33	-47.1	-48.6	14.5	0.00e+00	0	58	0	190840832	55	4662
2026-01-03 02:58:42.18	261.93	9.25	-47.3	-48.8	14.3	7.00e-07	0	58	0	193986560	56	4529
2026-01-03 02:58:43.17	261.86	9.18	-47.2	-48.7	14.5	0.00e+00	0	58	0	197132288	56	4470
2026-01-03 02:58:44.16	261.79	9.10	-47.3	-48.8	14.4	7.00e-07	0	58	0	200278016	56	4525
2026-01-03 02:58:45.15	261.71	9.03	-47.4	-49.0	14.2	1.50e-06	0	58	0	203423744	56	4607
2026-01-03 02:58:46.14	261.64	8.95	-47.3	-48.9	14.2	7.00e-07	0	58	0	206569472	56	4577
2026-01-03 02:58:47.14	261.57	8.87	-47.4	-49.0	14.1	3.00e-06	0	58	0	209715200	56	4632
2026-01-03 02:58:48.13	261.50	8.80	-47.6	-49.3	13.9	3.80e-06	0	58	0	212860928	57	4512
2026-01-03 02:58:49.12	261.43	8.73	-47.4	-49.0	14.1	3.00e-06	0	58	0	216006656	57	4376
2026-01-03 02:58:50.11	261.36	8.65	-47.4	-49.0	14.1	7.00e-07	0	58	0	219152384	57	4366
2026-01-03 02:58:51.10	261.29	8.58	-47.5	-49.1	14.0	2.20e-06	0	58	0	222298112	57	4404
2026-01-03 02:58:52.09	261.22	8.50	-47.4	-49.0	14.0	1.50e-06	0	58	0	225443840	57	4378
2026-01-03 02:58:53.08	261.15	8.43	-47.4	-49.0	14.0	3.00e-06	0	58	0	228589568	57	4389
2026-01-03 02:58:54.07	261.08	8.36	-47.8	-49.5	13.6	3.00e-06	0	58	0	231735296	57	4607
2026-01-03 02:58:55.06	261.01	8.28	-47.5	-49.1	14.0	6.80e-06	0	58	0	234881024	57	4410
2026-01-03 02:58:56.05	260.94	8.21	-47.3	-48.9	14.2	7.00e-07	0	58	0	238026752	57	4309
2026-01-03 02:58:57.05	260.88	8.14	-47.2	-48.7	14.4	0.00e+00	0	58	0	241172480	57	4211
2026-01-03 02:58:58.03	260.81	8.06	-47.2	-48.7	14.4	0.00e+00	0	58	0	244318208	57	4223
2026-01-03 02:58:59.02	260.74	7.99	-47.3	-48.8	14.3	7.00e-07	0	58	0	246415360	57	4257
2026-01-03 02:59:00.01	260.68	7.92	-47.4	-48.9	14.1	7.00e-07	0	58	0	249561088	57	4337
2026-01-03 02:59:01.00	260.61	7.85	-47.2	-48.8	14.2	7.00e-07	0	58	0	252706816	57	4262
2026-01-03 02:59:01.99	260.54	7.77	-47.1	-48.6	14.4	1.50e-06	0	58	0	255852544	57	4187
2026-01-03 02:59:02.98	260.48	7.70	-47.3	-48.8	14.2	1.50e-06	0	58	0	258998272	57	4283
2026-01-03 02:59:03.97	260.41	7.63	-47.5	-49.2	13.8	3.80e-06	0	58	0	262144000	57	4456
2026-01-03 02:59:04.96	260.35	7.56	-47.3	-49.0	14.1	1.50e-06	0	58	0	265289728	57	4345
2026-01-03 02:59:05.95	260.28	7.49	-47.3	-48.9	14.1	7.00e-07	0	58	0	268435456	57	4299
2026-01-03 02:59:06.95	260.22	7.41	-47.4	-49.0	14.0	2.20e-06	0	58	0	271581184	57	4346
2026-01-03 02:59:07.95	260.15	7.34	-47.6	-49.3	13.7	5.30e-06	0	58	0	274726912	57	4516
2026-01-03 02:59:08.94	260.09	7.27	-47.4	-49.1	13.9	1.50e-06	0	58	0	277872640	57	4397
2026-01-03 02:59:09.93	260.03	7.20	-47.3	-49.0	14.0	3.00e-06	0	58	0	281018368	57	4348
2026-01-03 02:59:10.91	259.97	7.13	-47.5	-49.2	13.8	3.00e-06	0	58	0	284164096	57	4442
2026-01-03 02:59:11.90	259.90	7.06	-47.7	-49.4	13.5	5.30e-06	0	58	0	287309824	57	4582
2026-01-03 02:59:12.89	259.84	6.99	-47.6	-49.3	13.6	9.90e-06	0	58	0	290455552	57	4545
2026-01-03 02:59:13.88	259.78	6.92	-47.6	-49.3	13.6	5.30e-06	0	58	0	293601280	57	4542
2026-01-03 02:59:14.86	259.72	6.85	-47.7	-49.4	13.5	1.22e-05	0	58	0	296747008	57	4585
2026-01-03 02:59:15.85	259.66	6.78	-47.7	-49.5	13.5	1.22e-05	0	58	0	299892736	57	4599
2026-01-03 02:59:16.85	259.59	6.71	-47.6	-49.4	13.6	1.14e-05	0	58	0	303038464	57	4550
2026-01-03 02:59:17.84	259.53	6.64	-47.6	-49.3	13.6	1.22e-05	0	58	0	306184192	57	4535
2026-01-03 02:59:18.82	259.47	6.57	-47.7	-49.4	13.5	9.90e-06	0	58	0	309329920	57	4579
2026-01-03 02:59:19.81	259.41	6.50	-47.6	-49.4	13.5	1.06e-05	0	58	0	311427072	57	4561
2026-01-03 02:59:20.80	259.35	6.43	-47.8	-49.7	13.2	2.05e-05	0	58	0	314572800	57	4714
2026-01-03 02:59:21.79	259.29	6.36	-47.7	-49.5	13.4	1.37e-05	0	58	0	317718528	57	4642
2026-01-03 02:59:22.78	259.24	6.29	-47.6	-49.3	13.6	1.14e-05	0	58	0	320864256	57	4531
2026-01-03 02:59:23.77	259.18	6.22	-47.6	-49.3	13.6	9.10e-06	0	58	0	324009984	57	4516
2026-01-03 02:59:24.76	259.12	6.16	-47.6	-49.3	13.6	8.30e-06	0	58	0	327155712	57	4525
2026-01-03 02:59:25.76	259.06	6.09	-47.7	-49.5	13.3	1.29e-05	0	58	0	330301440	57	4625
2026-01-03 02:59:26.75	259.00	6.02	-47.8	-49.6	13.2	2.44e-05	0	58	0	333447168	57	4700
2026-01-03 02:59:27.74	258.94	5.95	-47.7	-49.5	13.3	2.59e-05	0	58	0	336592896	57	4639
2026-01-03 02:59:28.72	258.89	5.88	-47.8	-49.6	13.3	2.51e-05	0	58	0	339738624	57	4668
2026-01-03 02:59:29.69	258.83	5.82	-47.9	-49.8	13.0	2.82e-05	0	58	0	342884352	57	4785
2026-01-03 02:59:30.68	258.77	5.75	-47.9	-49.7	13.1	3.58e-05	0	58	0	346030080	57	4746
2026-01-03 02:59:31.67	258.72	5.68	-47.9	-49.8	13.0	4.50e-05	0	58	0	349175808	57	4780
2026-01-03 02:59:32.65	258.66	5.61	-48.1	-50.0	12.8	5.87e-05	0	58	0	352321536	57	4917
2026-01-03 02:59:33.64	258.60	5.55	-48.1	-50.1	12.7	8.85e-05	0	58	0	355467264	58	4656
2026-01-03 02:59:34.64	258.55	5.48	-48.1	-50.1	12.7	6.48e-05	0	58	0	358612992	58	4684
2026-01-03 02:59:35.63	258.49	5.41	-48.1	-50.1	12.7	1.02e-04	0	58	0	361758720	58	4705
2026-01-03 02:59:36.62	258.44	5.35	-48.1	-50.0	12.7	6.25e-05	0	58	0	364904448	58	4647
2026-01-03 02:59:37.62	258.38	5.28	-48.1	-50.1	12.6	9.23e-05	0	58	0	368050176	58	4705
2026-01-03 02:59:38.60	258.33	5.21	-48.1	-50.1	12.7	8.54e-05	0	58	0	371195904	58	4690
2026-01-03 02:59:39.59	258.27	5.15	-48.2	-50.3	12.5	1.15e-04	0	58	0	373293056	58	4766
2026-01-03 02:59:40.58	258.22	5.08	-48.4	-50.6	12.1	2.24e-04	0	58	0	376438784	58	4961
2026-01-03 02:59:41.57	258.16	5.01	-52.4	-63.9	3.8	1.42e+00	0	58	104	378535936	66	14508
2026-01-03 02:59:42.57	258.11	4.95	-51.5	-63.0	3.8	1.49e+00	0	58	104	378535936	66	13084
2026-01-03 02:59:43.55	258.06	4.88	-52.5	-64.1	3.8	1.49e+00	0	58	104	378535936	66	14740
2026-01-03 02:59:44.54	258.00	4.82	-52.2	-63.7	3.8	1.49e+00	0	58	104	378535936	66	14107
2026-01-03 02:59:45.52	257.95	4.75	-52.9	-64.5	3.8	1.49e+00	0	58	104	378535936	67	14640
2026-01-03 02:59:46.51	257.90	4.69	-52.9	-64.6	3.8	1.49e+00	0	58	104	378535936	67	14742
2026-01-03 02:59:47.49	257.85	4.62	-53.2	-64.7	3.8	1.49e+00	0	58	104	378535936	68	14181
2026-01-03 02:59:48.48	257.79	4.56	-53.2	-64.7	3.8	1.49e+00	0	58	104	378535936	68	14186
2026-01-03 02:59:49.46	257.74	4.49	-53.3	-64.7	3.8	1.49e+00	0	58	104	378535936	68	14180
2026-01-03 02:59:50.44	257.69	4.43	-53.3	-64.8	3.8	1.49e+00	0	58	104	378535936	68	14247
2026-01-03 02:59:51.43	257.64	4.36	-53.2	-64.8	3.8	1.49e+00	0	58	104	378535936	68	14303
2026-01-03 02:59:52.43	257.59	4.30	-53.4	-64.9	3.8	1.49e+00	0	58	104	378535936	68	14399
2026-01-03 02:59:53.42	257.54	4.23	-53.2	-64.9	3.8	1.49e+00	0	58	104	378535936	68	14446
2026-01-03 02:59:54.41	257.49	4.17	-53.4	-64.9	3.8	1.49e+00	0	58	104	378535936	68	14430
2026-01-03 02:59:55.41	257.44	4.10	-53.4	-64.9	3.8	1.49e+00	0	58	104	378535936	68	14505
2026-01-03 02:59:56.40	257.38	4.04	-53.3	-64.9	3.8	1.49e+00	0	58	104	378535936	68	14510
2026-01-03 02:59:57.39	257.33	3.98	-53.1	-64.9	3.8	1.49e+00	0	58	104	378535936	68	14516
2026-01-03 02:59:58.37	257.29	3.91	-53.5	-65.0	3.8	1.49e+00	0	58	104	378535936	68	14558
2026-01-03 02:59:59.36	257.24	3.85	-53.3	-65.0	3.8	1.49e+00	0	58	104	378535936	68	14563
2026-01-03 03:00:00.34	257.19	3.79	-53.2	-65.0	3.8	1.49e+00	0	58	104	378535936	68	14567
2026-01-03 03:00:01.33	257.14	3.72	-53.5	-65.0	3.8	1.49e+00	0	58	104	378535936	68	14564
2026-01-03 03:00:02.32	257.09	3.66	-53.5	-65.0	3.8	1.49e+00	0	58	104	378535936	68	14574
2026-01-03 03:00:03.31	257.04	3.60	-53.4	-65.0	3.8	1.49e+00	0	58	104	378535936	68	14624
2026-01-03 03:00:04.29	256.99	3.53	-53.5	-65.0	3.8	1.49e+00	0	58	104	378535936	68	14633
2026-01-03 03:00:05.28	256.94	3.47	-53.6	-65.0	3.8	1.49e+00	0	58	104	378535936	68	14663
2026-01-03 03:00:06.28	256.90	3.41	-53.5	-65.0	3.8	1.49e+00	0	58	104	378535936	68	14631
2026-01-03 03:00:07.27	256.85	3.34	-53.5	-65.0	3.8	1.49e+00	0	58	104	378535936	68	14657
2026-01-03 03:00:08.26	256.80	3.28	-53.5	-65.0	3.8	1.49e+00	0	58	104	378535936	68	14606
2026-01-03 03:00:09.25	256.75	3.22	-53.5	-65.0	3.8	1.49e+00	0	58	104	378535936	68	14604
2026-01-03 03:00:10.24	256.71	3.16	-53.5	-65.0	3.8	1.49e+00	0	58	104	378535936	68	14579
2026-01-03 03:00:11.23	256.66	3.09	-53.5	-65.0	3.8	1.49e+00	0	58	104	378535936	68	14561
2026-01-03 03:00:12.21	256.61	3.03	-53.5	-65.0	3.8	1.49e+00	0	58	104	378535936	68	14564
2026-01-03 03:00:13.20	256.57	2.97	-53.5	-65.0	3.8	1.49e+00	0	58	104	378535936	68	14562
2026-01-03 03:00:14.20	256.52	2.91	-53.5	-65.0	3.8	1.49e+00	0	58	104	378535936	68	14593

#Closed at: 2026-01-03 03:00:14
#Recorded file [378 MB]: D:/Data/31026_260103_055941.dat