passes_logs/2026/01/03/R3.0SM8_Murmansk_STILSPACE/R3.0SM8_Murmansk_STILSPACE__20260103_115632_NOAA_20_JPSS-1_rec.log

#Pass ID: 20260103_115632_NOAA 20 (JPSS-1)
#Satellite: NOAA 20 (JPSS-1)
#Configuration: NOAA 20
#almurnet v.1.7.20240730
#Start time: 2026-01-03 11:56:34

#Version: 2.2.20231116
#Station: R3.0SM8_Murmansk_STILSPACE
#Location: 33.092731 lon 68.902999 lat
#TLE: 1 43013U 17073A   26002.21975278  .00000202  00000+0  11669-3 0  9999
#TLE: 2 43013  98.7622 303.2950 0001915  57.9213 302.2149 14.19532512420923

#Time	Az	El	Level	Level2	SNR	BER	BlckErr	Temp	State	Recorded	gain1	gain2
2026-01-03 11:56:34.15	214.27	3.07	-52.6	-66.5	3.8	1.49e+00	0	45	0	0	67	18456
2026-01-03 11:56:37.11	214.50	3.24	-52.3	-66.2	3.8	1.49e+00	0	45	104	0	67	17705
2026-01-03 11:56:40.08	214.73	3.41	-51.5	-65.5	3.8	1.49e+00	0	46	104	0	66	17316
2026-01-03 11:56:43.05	214.96	3.58	-51.4	-64.9	3.8	1.49e+00	0	46	104	0	65	17174
2026-01-03 11:56:46.01	215.19	3.75	-51.5	-65.2	3.8	1.49e+00	0	46	104	0	65	17781
2026-01-03 11:56:48.98	215.43	3.92	-51.4	-65.3	3.8	1.49e+00	0	46	104	0	65	17916
2026-01-03 11:56:51.95	215.67	4.09	-51.4	-65.2	3.8	1.49e+00	0	47	104	0	65	17701
2026-01-03 11:56:54.92	215.91	4.26	-51.4	-64.1	3.8	1.49e+00	0	47	104	0	65	15694
2026-01-03 11:56:57.90	216.16	4.43	-51.2	-62.1	4.1	1.44e+00	0	47	0	0	65	12448
2026-01-03 11:57:00.87	216.41	4.61	-51.0	-60.5	4.6	9.62e-01	0	47	0	3145728	65	10326
2026-01-03 11:57:03.85	216.66	4.78	-50.9	-59.5	5.1	6.75e-01	0	48	0	8388608	64	9809
2026-01-03 11:57:06.81	216.91	4.96	-50.6	-57.7	6.5	3.09e-01	0	48	0	13631488	64	7916
2026-01-03 11:57:09.78	217.17	5.13	-50.6	-57.0	7.1	1.26e-01	0	48	0	19922944	63	7742
2026-01-03 11:57:12.75	217.43	5.31	-50.3	-55.9	8.2	6.24e-02	0	48	0	25165824	63	6823
2026-01-03 11:57:15.71	217.69	5.48	-50.0	-55.2	8.9	2.42e-02	0	48	0	30408704	63	6336
2026-01-03 11:57:18.67	217.96	5.66	-50.0	-55.0	9.2	2.95e-02	0	48	0	36700160	63	6163
2026-01-03 11:57:21.64	218.22	5.84	-49.9	-54.6	9.6	1.37e-02	0	49	0	41943040	62	6254
2026-01-03 11:57:24.62	218.50	6.02	-50.1	-55.0	9.2	1.64e-02	0	49	0	47185920	62	6537
2026-01-03 11:57:27.59	218.77	6.20	-49.8	-54.2	10.0	8.60e-03	0	49	0	52428800	62	5956
2026-01-03 11:57:30.55	219.05	6.38	-49.6	-53.8	10.5	3.75e-03	0	49	0	58720256	62	5673
2026-01-03 11:57:33.52	219.33	6.56	-49.6	-53.7	10.6	4.79e-03	0	49	0	63963136	62	5650
2026-01-03 11:57:36.49	219.62	6.74	-49.6	-53.9	10.5	3.47e-03	0	49	0	69206016	62	5754
2026-01-03 11:57:39.47	219.91	6.92	-49.8	-54.1	10.3	4.95e-03	0	50	0	75497472	62	5869
2026-01-03 11:57:42.44	220.20	7.11	-49.8	-54.2	10.1	7.04e-03	0	50	0	80740352	62	5954
2026-01-03 11:57:45.40	220.49	7.29	-49.7	-54.0	10.3	5.59e-03	0	50	0	85983232	62	5806
2026-01-03 11:57:48.36	220.79	7.47	-49.7	-54.1	10.2	6.38e-03	0	50	0	92274688	62	5866
2026-01-03 11:57:51.33	221.10	7.66	-49.6	-53.8	10.6	3.77e-03	0	50	0	97517568	62	5710
2026-01-03 11:57:54.30	221.40	7.84	-49.6	-53.8	10.7	2.63e-03	0	50	0	102760448	62	5666
2026-01-03 11:57:57.28	221.71	8.03	-49.4	-53.3	11.1	1.99e-03	0	50	0	109051904	61	5716
2026-01-03 11:58:00.25	222.03	8.22	-49.5	-53.6	10.8	2.43e-03	0	51	0	114294784	61	5856
2026-01-03 11:58:03.23	222.35	8.41	-49.5	-53.5	10.8	2.61e-03	0	51	0	119537664	61	5855
2026-01-03 11:58:06.18	222.67	8.59	-49.6	-53.9	10.4	4.77e-03	0	51	0	124780544	61	6076
2026-01-03 11:58:09.16	222.99	8.78	-49.6	-53.9	10.4	4.71e-03	0	51	0	131072000	61	6108
2026-01-03 11:58:12.12	223.32	8.97	-49.7	-54.1	10.2	5.95e-03	0	51	0	136314880	61	6226
2026-01-03 11:58:15.10	223.66	9.16	-49.7	-54.1	10.2	5.48e-03	0	51	0	141557760	61	6223
2026-01-03 11:58:18.08	224.00	9.36	-49.7	-54.1	10.2	6.94e-03	0	51	0	147849216	61	6246
2026-01-03 11:58:21.06	224.34	9.55	-49.6	-53.8	10.5	4.63e-03	0	51	0	153092096	61	6059
2026-01-03 11:58:24.02	224.69	9.74	-49.5	-53.6	10.8	2.95e-03	0	51	0	158334976	61	5862
2026-01-03 11:58:26.99	225.04	9.93	-49.5	-53.4	11.0	1.75e-03	0	51	0	164626432	61	5741
2026-01-03 11:58:29.96	225.40	10.13	-49.4	-53.2	11.2	1.41e-03	0	51	0	169869312	61	5646
2026-01-03 11:58:32.94	225.76	10.32	-49.4	-53.5	11.0	1.63e-03	0	52	0	175112192	61	5807
2026-01-03 11:58:35.90	226.12	10.51	-49.2	-52.7	11.8	6.42e-04	0	52	0	181403648	61	5335
2026-01-03 11:58:38.85	226.49	10.71	-49.2	-52.6	12.0	3.48e-04	0	52	0	186646528	61	5220
2026-01-03 11:58:41.82	226.87	10.90	-49.0	-52.3	12.3	2.20e-04	0	52	0	191889408	61	5077
2026-01-03 11:58:44.78	227.24	11.10	-49.1	-52.4	12.2	1.88e-04	0	52	0	197132288	60	5407
2026-01-03 11:58:47.76	227.63	11.29	-48.9	-52.2	12.5	1.07e-04	0	52	0	203423744	60	5291
2026-01-03 11:58:50.73	228.02	11.49	-48.9	-52.0	12.6	1.02e-04	0	52	0	208666624	60	5197
2026-01-03 11:58:53.69	228.41	11.69	-48.8	-51.8	12.8	7.47e-05	0	52	0	213909504	60	5099
2026-01-03 11:58:56.67	228.81	11.89	-48.9	-52.0	12.6	1.08e-04	0	52	0	220200960	60	5195
2026-01-03 11:58:59.64	229.22	12.08	-48.7	-51.6	13.1	3.20e-05	0	53	0	225443840	60	4966
2026-01-03 11:59:02.61	229.63	12.28	-48.5	-51.4	13.3	2.21e-05	0	53	0	230686720	60	4828
2026-01-03 11:59:05.59	230.05	12.48	-48.5	-51.2	13.6	1.14e-05	0	53	0	236978176	59	4999
2026-01-03 11:59:08.55	230.47	12.68	-48.5	-51.1	13.7	9.10e-06	0	53	0	242221056	59	4927
2026-01-03 11:59:11.51	230.89	12.88	-48.3	-50.7	14.1	1.50e-06	0	53	0	247463936	59	4727
2026-01-03 11:59:14.49	231.32	13.08	-48.4	-51.0	13.9	1.50e-06	0	53	0	253755392	59	4905
2026-01-03 11:59:17.47	231.76	13.28	-48.3	-50.9	14.1	2.20e-06	0	53	0	258998272	59	4835
2026-01-03 11:59:20.43	232.21	13.48	-48.4	-50.8	14.1	0.00e+00	0	53	0	264241152	59	4796
2026-01-03 11:59:23.41	232.66	13.68	-48.2	-50.4	14.6	0.00e+00	0	53	0	270532608	59	4574
2026-01-03 11:59:26.38	233.11	13.88	-48.2	-50.6	14.4	0.00e+00	0	53	0	275775488	59	4676
2026-01-03 11:59:29.35	233.57	14.08	-48.1	-50.4	14.7	7.00e-07	0	53	0	281018368	59	4569
2026-01-03 11:59:32.31	234.04	14.28	-48.0	-50.3	14.8	0.00e+00	0	53	0	286261248	59	4524
2026-01-03 11:59:35.27	234.51	14.47	-47.9	-50.1	15.0	0.00e+00	0	53	0	292552704	59	4414
2026-01-03 11:59:38.25	234.99	14.67	-48.1	-50.3	14.8	0.00e+00	0	54	0	297795584	58	4770
2026-01-03 11:59:41.21	235.48	14.87	-48.2	-50.4	14.7	0.00e+00	0	54	0	303038464	58	4868
2026-01-03 11:59:44.18	235.97	15.07	-47.9	-50.0	15.1	0.00e+00	0	54	0	309329920	58	4650
2026-01-03 11:59:47.15	236.47	15.27	-48.1	-50.2	15.0	0.00e+00	0	54	0	314572800	58	4749
2026-01-03 11:59:50.12	236.97	15.47	-47.9	-50.0	15.2	0.00e+00	0	54	0	319815680	58	4628
2026-01-03 11:59:53.09	237.48	15.66	-48.1	-50.3	14.9	0.00e+00	0	54	0	326107136	58	4798
2026-01-03 11:59:56.07	238.00	15.86	-48.2	-50.3	15.0	0.00e+00	0	54	0	331350016	58	4770
2026-01-03 11:59:59.04	238.53	16.06	-48.4	-50.7	14.6	0.00e+00	0	54	0	336592896	58	5011
2026-01-03 12:00:02.01	239.06	16.25	-47.8	-49.9	15.5	0.00e+00	0	54	0	342884352	58	4546
2026-01-03 12:00:04.97	239.59	16.45	-47.8	-49.9	15.4	0.00e+00	0	54	0	348127232	58	4572
2026-01-03 12:00:07.95	240.14	16.64	-48.1	-50.3	15.1	0.00e+00	0	54	0	353370112	58	4770
2026-01-03 12:00:10.91	240.69	16.83	-48.0	-50.0	15.3	0.00e+00	0	54	0	359661568	58	4643
2026-01-03 12:00:13.89	241.25	17.03	-47.8	-49.8	15.6	0.00e+00	0	54	0	364904448	58	4517
2026-01-03 12:00:16.86	241.82	17.22	-47.7	-49.7	15.7	7.00e-07	0	54	0	370147328	58	4469
2026-01-03 12:00:19.85	242.39	17.41	-47.9	-49.9	15.5	0.00e+00	0	54	0	376438784	58	4577
2026-01-03 12:00:22.82	242.97	17.60	-47.3	-49.1	16.3	0.00e+00	0	54	0	381681664	57	4398
2026-01-03 12:00:25.80	243.56	17.78	-47.1	-48.9	16.5	0.00e+00	0	54	0	386924544	57	4302
2026-01-03 12:00:28.76	244.15	17.97	-47.1	-48.9	16.5	0.00e+00	0	55	0	392167424	57	4299
2026-01-03 12:00:31.72	244.75	18.15	-47.0	-48.7	16.7	0.00e+00	0	54	0	398458880	57	4215
2026-01-03 12:00:34.69	245.36	18.33	-47.3	-49.0	16.4	0.00e+00	0	54	0	403701760	57	4345
2026-01-03 12:00:37.66	245.97	18.51	-47.5	-49.4	16.0	0.00e+00	0	55	0	408944640	57	4547
2026-01-03 12:00:40.63	246.59	18.69	-47.4	-49.3	16.1	0.00e+00	0	55	0	415236096	57	4515
2026-01-03 12:00:43.60	247.22	18.87	-47.7	-49.7	15.7	0.00e+00	0	55	0	420478976	57	4712
2026-01-03 12:00:46.57	247.86	19.04	-48.0	-50.0	15.4	0.00e+00	0	55	0	425721856	57	4909
2026-01-03 12:00:49.53	248.50	19.21	-48.2	-50.4	15.1	0.00e+00	0	55	0	432013312	58	4822
2026-01-03 12:00:52.51	249.15	19.38	-48.1	-50.2	15.2	0.00e+00	0	55	0	437256192	58	4748
2026-01-03 12:00:55.47	249.81	19.55	-48.4	-50.6	14.9	0.00e+00	0	55	0	442499072	58	4934
2026-01-03 12:00:58.44	250.47	19.71	-48.9	-51.4	14.0	0.00e+00	0	55	0	447741952	59	5103
2026-01-03 12:01:01.40	251.14	19.87	-49.2	-52.0	13.4	1.37e-05	0	55	0	454033408	60	5166
2026-01-03 12:01:04.38	251.82	20.03	-49.2	-51.8	13.6	8.30e-06	0	55	0	459276288	60	5096
2026-01-03 12:01:07.34	252.50	20.19	-48.8	-51.3	14.1	2.20e-06	0	55	0	464519168	60	4776
2026-01-03 12:01:10.32	253.19	20.34	-48.8	-51.3	14.1	1.50e-06	0	55	0	470810624	60	4786
2026-01-03 12:01:13.28	253.89	20.49	-49.0	-51.5	13.9	3.00e-06	0	55	0	476053504	60	4914
2026-01-03 12:01:16.26	254.59	20.64	-48.6	-51.0	14.4	7.00e-07	0	55	0	481296384	60	4628
2026-01-03 12:01:19.23	255.31	20.78	-48.4	-50.6	14.9	7.00e-07	0	55	0	487587840	59	4674
2026-01-03 12:01:22.20	256.02	20.92	-47.8	-49.7	15.7	0.00e+00	0	55	0	492830720	58	4481
2026-01-03 12:01:25.16	256.74	21.05	-48.1	-50.2	15.3	0.00e+00	0	55	0	498073600	58	4714
2026-01-03 12:01:28.14	257.47	21.19	-48.5	-50.8	14.6	0.00e+00	0	55	0	504365056	58	5088
2026-01-03 12:01:31.09	258.20	21.31	-48.5	-50.7	14.7	0.00e+00	0	55	0	509607936	58	5034
2026-01-03 12:01:34.07	258.95	21.44	-48.7	-51.0	14.4	7.00e-07	0	55	0	514850816	59	4907
2026-01-03 12:01:37.04	259.69	21.55	-48.3	-50.5	15.0	0.00e+00	0	55	0	520093696	59	4617
2026-01-03 12:01:40.02	260.45	21.67	-48.5	-50.7	14.7	7.00e-07	0	55	0	526385152	59	4753
2026-01-03 12:01:42.99	261.21	21.78	-48.3	-50.4	15.0	0.00e+00	0	56	0	531628032	59	4591
2026-01-03 12:01:45.97	261.97	21.88	-48.4	-50.6	14.9	0.00e+00	0	56	0	536870912	59	4678
2026-01-03 12:01:48.94	262.74	21.99	-47.9	-49.8	15.6	0.00e+00	0	56	0	543162368	58	4542
2026-01-03 12:01:51.91	263.51	22.08	-47.8	-49.7	15.8	0.00e+00	0	55	0	548405248	58	4466
2026-01-03 12:01:54.89	264.29	22.17	-47.7	-49.6	15.9	0.00e+00	0	56	0	553648128	58	4410
2026-01-03 12:01:57.85	265.07	22.26	-47.8	-49.7	15.7	0.00e+00	0	56	0	559939584	58	4483
2026-01-03 12:02:00.83	265.86	22.34	-47.9	-50.0	15.5	0.00e+00	0	55	0	565182464	58	4601
2026-01-03 12:02:03.81	266.65	22.41	-48.2	-50.3	15.2	0.00e+00	0	56	0	570425344	58	4773
2026-01-03 12:02:06.77	267.44	22.48	-48.2	-50.3	15.1	0.00e+00	0	55	0	576716800	58	4808
2026-01-03 12:02:09.73	268.23	22.55	-48.3	-50.4	15.1	0.00e+00	0	56	0	581959680	58	4842
2026-01-03 12:02:12.70	269.03	22.61	-48.4	-50.7	14.8	0.00e+00	0	56	0	587202560	58	5007
2026-01-03 12:02:15.67	269.83	22.66	-48.3	-50.4	15.1	0.00e+00	0	56	0	593494016	58	4847
2026-01-03 12:02:18.64	270.63	22.71	-48.3	-50.4	15.1	0.00e+00	0	56	0	598736896	58	4870
2026-01-03 12:02:21.61	271.44	22.75	-48.1	-50.1	15.4	0.00e+00	0	56	0	603979776	58	4688
2026-01-03 12:02:24.59	272.25	22.79	-47.9	-49.9	15.6	0.00e+00	0	56	0	610271232	58	4547
2026-01-03 12:02:27.57	273.06	22.82	-48.0	-50.0	15.5	0.00e+00	0	56	0	615514112	58	4636
2026-01-03 12:02:30.53	273.87	22.85	-48.2	-50.3	15.2	0.00e+00	0	56	0	620756992	58	4775
2026-01-03 12:02:33.51	274.69	22.87	-47.9	-49.9	15.6	0.00e+00	0	56	0	627048448	58	4566
2026-01-03 12:02:36.49	275.50	22.88	-47.5	-49.5	16.0	0.00e+00	0	56	0	632291328	58	4342
2026-01-03 12:02:39.47	276.32	22.89	-48.1	-50.2	15.3	0.00e+00	0	56	0	637534208	58	4739
2026-01-03 12:02:42.44	277.14	22.89	-48.2	-50.4	15.1	0.00e+00	0	56	0	642777088	58	4838
2026-01-03 12:02:45.41	277.95	22.89	-48.3	-50.4	15.0	0.00e+00	0	56	0	649068544	58	4865
2026-01-03 12:02:48.38	278.76	22.88	-48.1	-50.2	15.2	0.00e+00	0	56	0	654311424	59	4488
2026-01-03 12:02:51.36	279.58	22.86	-48.3	-50.5	15.0	0.00e+00	0	56	0	659554304	59	4604
2026-01-03 12:02:54.34	280.39	22.84	-48.6	-50.9	14.6	7.00e-07	0	56	0	665845760	59	4839
2026-01-03 12:02:57.31	281.20	22.81	-48.5	-50.8	14.7	0.00e+00	0	56	0	671088640	59	4805
2026-01-03 12:03:00.28	282.01	22.78	-48.7	-51.1	14.3	1.50e-06	0	56	0	676331520	59	4970
2026-01-03 12:03:03.25	282.82	22.74	-48.2	-50.3	15.0	0.00e+00	0	56	0	682622976	59	4541
2026-01-03 12:03:06.24	283.63	22.70	-48.3	-50.6	14.7	0.00e+00	0	56	0	687865856	59	4673
2026-01-03 12:03:09.21	284.43	22.65	-49.0	-51.8	13.3	9.10e-06	0	56	0	693108736	59	5369
2026-01-03 12:03:12.18	285.23	22.59	-49.1	-52.2	12.8	5.11e-05	0	56	0	699400192	60	5301
2026-01-03 12:03:15.16	286.03	22.53	-48.9	-52.0	13.0	3.50e-05	0	56	0	704643072	60	5183
2026-01-03 12:03:18.13	286.82	22.46	-48.9	-51.9	13.1	4.50e-05	0	56	0	709885952	60	5115
2026-01-03 12:03:21.10	287.61	22.39	-48.8	-51.7	13.2	1.90e-05	0	56	0	716177408	60	5031
2026-01-03 12:03:24.07	288.40	22.31	-49.1	-52.3	12.6	8.23e-05	0	56	0	721420288	60	5378
2026-01-03 12:03:27.04	289.18	22.23	-49.2	-52.7	12.1	2.30e-04	0	56	0	726663168	60	5612
2026-01-03 12:03:30.00	289.96	22.14	-49.5	-53.3	11.4	9.99e-04	0	56	0	732954624	61	5682
2026-01-03 12:03:32.98	290.73	22.05	-49.5	-53.2	11.4	1.27e-03	0	56	0	738197504	61	5654
2026-01-03 12:03:35.94	291.50	21.95	-49.1	-52.3	12.7	1.47e-04	0	56	0	743440384	61	5055
2026-01-03 12:03:38.92	292.27	21.85	-48.6	-51.2	14.1	4.50e-06	0	56	0	748683264	60	4736
2026-01-03 12:03:41.89	293.03	21.75	-48.2	-50.3	15.1	0.00e+00	0	56	0	754974720	59	4539
2026-01-03 12:03:44.87	293.78	21.63	-47.5	-49.4	16.0	0.00e+00	0	56	0	760217600	58	4308
2026-01-03 12:03:47.83	294.53	21.52	-47.5	-49.3	16.1	0.00e+00	0	56	0	765460480	57	4539
2026-01-03 12:03:50.80	295.27	21.40	-47.2	-48.9	16.6	0.00e+00	0	56	0	771751936	57	4301
2026-01-03 12:03:53.78	296.01	21.28	-46.9	-48.6	16.8	0.00e+00	0	56	0	776994816	57	4168
2026-01-03 12:03:56.75	296.74	21.15	-46.8	-48.4	17.0	0.00e+00	0	56	0	782237696	56	4328
2026-01-03 12:03:59.73	297.47	21.02	-46.5	-48.0	17.4	0.00e+00	0	56	0	788529152	56	4133
2026-01-03 12:04:02.71	298.19	20.88	-46.4	-47.9	17.5	0.00e+00	0	56	0	793772032	56	4066
2026-01-03 12:04:05.68	298.90	20.74	-46.1	-47.6	17.7	0.00e+00	0	56	0	799014912	55	4147
2026-01-03 12:04:08.65	299.61	20.60	-46.4	-47.8	17.5	0.00e+00	0	56	0	805306368	55	4263
2026-01-03 12:04:11.62	300.31	20.45	-46.7	-48.2	17.2	0.00e+00	0	56	0	810549248	55	4443
2026-01-03 12:04:14.59	301.00	20.30	-47.0	-48.7	16.7	0.00e+00	0	56	0	815792128	55	4707
2026-01-03 12:04:17.56	301.69	20.15	-46.9	-48.6	16.7	0.00e+00	0	56	0	822083584	55	4677
2026-01-03 12:04:20.53	302.37	19.99	-47.0	-48.6	16.7	0.00e+00	0	56	0	827326464	55	4684
2026-01-03 12:04:23.50	303.04	19.83	-46.7	-48.3	17.0	0.00e+00	0	56	0	832569344	55	4506
2026-01-03 12:04:26.48	303.71	19.67	-47.1	-48.8	16.5	0.00e+00	0	56	0	837812224	55	4808
2026-01-03 12:04:29.43	304.37	19.51	-48.0	-50.1	15.3	0.00e+00	0	56	0	844103680	57	4956
2026-01-03 12:04:32.40	305.02	19.34	-48.2	-50.3	15.1	0.00e+00	0	57	0	849346560	58	4806
2026-01-03 12:04:35.38	305.67	19.17	-48.2	-50.5	14.9	7.00e-07	0	56	0	854589440	58	4904
2026-01-03 12:04:38.35	306.30	19.00	-48.2	-50.4	15.0	0.00e+00	0	56	0	860880896	58	4816
2026-01-03 12:04:41.31	306.93	18.83	-47.9	-49.9	15.4	0.00e+00	0	56	0	866123776	58	4598
2026-01-03 12:04:44.29	307.56	18.65	-47.6	-49.4	16.0	0.00e+00	0	57	0	871366656	58	4331
2026-01-03 12:04:47.26	308.18	18.47	-47.8	-49.9	15.5	0.00e+00	0	57	0	877658112	58	4556
2026-01-03 12:04:50.23	308.79	18.29	-48.2	-50.5	14.9	0.00e+00	0	56	0	882900992	58	4878
2026-01-03 12:04:53.19	309.39	18.11	-48.5	-50.9	14.5	7.00e-07	0	57	0	888143872	58	5101
2026-01-03 12:04:56.15	309.98	17.93	-48.6	-51.0	14.3	1.50e-06	0	57	0	893386752	59	4912
2026-01-03 12:04:59.11	310.57	17.75	-47.5	-49.5	15.9	0.00e+00	0	56	0	899678208	58	4341
2026-01-03 12:05:02.07	311.15	17.56	-47.6	-49.4	16.0	0.00e+00	0	57	0	904921088	58	4334
2026-01-03 12:05:05.06	311.73	17.37	-47.8	-49.7	15.6	0.00e+00	0	56	0	911212544	58	4491
2026-01-03 12:05:08.02	312.29	17.18	-47.7	-49.6	15.8	0.00e+00	0	56	0	916455424	58	4412
2026-01-03 12:05:10.99	312.86	16.99	-47.9	-49.9	15.4	0.00e+00	0	57	0	921698304	58	4594
2026-01-03 12:05:13.96	313.41	16.80	-48.1	-50.2	15.1	0.00e+00	0	57	0	926941184	58	4754
2026-01-03 12:05:16.93	313.96	16.61	-48.1	-50.3	15.1	0.00e+00	0	57	0	933232640	58	4773
2026-01-03 12:05:19.90	314.50	16.42	-48.2	-50.4	15.0	0.00e+00	0	57	0	938475520	58	4816
2026-01-03 12:05:22.88	315.03	16.22	-48.4	-50.7	14.6	1.50e-06	0	56	0	943718400	58	5014
2026-01-03 12:05:25.87	315.57	16.03	-47.7	-49.6	15.8	0.00e+00	0	57	0	950009856	58	4428
2026-01-03 12:05:28.83	316.08	15.83	-47.6	-49.4	15.9	0.00e+00	0	57	0	955252736	58	4339
2026-01-03 12:05:31.79	316.60	15.64	-48.1	-50.2	15.2	0.00e+00	0	57	0	960495616	58	4723
2026-01-03 12:05:34.77	317.11	15.44	-48.1	-50.3	15.1	0.00e+00	0	57	0	966787072	58	4763
2026-01-03 12:05:37.75	317.61	15.25	-47.9	-49.9	15.4	0.00e+00	0	57	0	972029952	58	4587
2026-01-03 12:05:40.71	318.10	15.05	-47.9	-50.0	15.4	0.00e+00	0	57	0	977272832	58	4602
2026-01-03 12:05:43.68	318.59	14.85	-48.3	-50.6	14.8	0.00e+00	0	56	0	983564288	58	4940
2026-01-03 12:05:46.66	319.08	14.65	-48.0	-50.1	15.2	0.00e+00	0	57	0	988807168	58	4673
2026-01-03 12:05:49.63	319.55	14.46	-47.6	-49.5	15.8	0.00e+00	0	57	0	994050048	58	4378
2026-01-03 12:05:52.59	320.02	14.26	-47.8	-49.9	15.5	0.00e+00	0	56	0	999292928	58	4549
2026-01-03 12:05:55.57	320.49	14.06	-48.3	-50.6	14.7	0.00e+00	0	57	0	1005584384	58	4951
2026-01-03 12:05:58.55	320.94	13.86	-48.4	-50.8	14.5	7.00e-07	0	57	0	1010827264	58	5057
2026-01-03 12:06:01.53	321.40	13.66	-48.3	-50.6	14.6	0.00e+00	0	57	0	1016070144	58	4972
2026-01-03 12:06:04.50	321.84	13.47	-48.4	-50.8	14.5	1.50e-06	0	57	0	1022361600	58	5057
2026-01-03 12:06:07.47	322.29	13.27	-48.6	-51.1	14.2	1.50e-06	0	57	0	1027604480	59	4946
2026-01-03 12:06:10.43	322.72	13.07	-48.0	-50.2	15.0	0.00e+00	0	57	0	1032847360	59	4486
2026-01-03 12:06:13.39	323.15	12.87	-47.9	-49.9	15.3	0.00e+00	0	57	0	1039138816	58	4591
2026-01-03 12:06:16.37	323.57	12.67	-48.2	-50.4	14.9	0.00e+00	0	57	0	1044381696	58	4832
2026-01-03 12:06:19.34	323.99	12.48	-48.6	-51.0	14.3	1.50e-06	0	57	0	1049624576	58	5174
2026-01-03 12:06:22.31	324.40	12.28	-48.4	-50.8	14.4	0.00e+00	0	57	0	1055916032	59	4778
2026-01-03 12:06:25.29	324.81	12.08	-48.5	-50.9	14.3	7.00e-07	0	57	0	1061158912	59	4838
2026-01-03 12:06:28.26	325.21	11.89	-48.8	-51.4	13.8	1.50e-06	0	57	0	1066401792	59	5122
2026-01-03 12:06:31.21	325.61	11.69	-48.6	-51.3	13.9	3.80e-06	0	57	0	1072693248	59	5082
2026-01-03 12:06:34.19	326.00	11.50	-48.5	-51.0	14.2	2.20e-06	0	57	0	1077936128	59	4872
2026-01-03 12:06:37.17	326.39	11.30	-48.6	-51.0	14.1	7.00e-07	0	57	0	1083179008	59	4919
2026-01-03 12:06:40.14	326.77	11.11	-48.7	-51.4	13.8	7.00e-07	0	57	0	1088421888	59	5131
2026-01-03 12:06:43.12	327.15	10.91	-49.1	-52.1	13.0	2.28e-05	0	57	0	1094713344	60	5263
2026-01-03 12:06:46.09	327.53	10.72	-49.2	-52.4	12.7	1.12e-04	0	57	0	1099956224	60	5429
2026-01-03 12:06:49.05	327.89	10.52	-49.1	-52.1	13.0	5.64e-05	0	57	0	1105199104	60	5244
2026-01-03 12:06:52.01	328.25	10.33	-48.5	-51.2	13.9	7.60e-06	0	57	0	1111490560	60	4741
2026-01-03 12:06:54.99	328.61	10.14	-48.5	-51.0	14.1	3.00e-06	0	57	0	1116733440	59	4913
2026-01-03 12:06:57.96	328.97	9.95	-48.5	-51.0	14.1	3.80e-06	0	57	0	1121976320	59	4899
2026-01-03 12:07:00.95	329.32	9.75	-48.5	-51.0	14.0	2.20e-06	0	57	0	1128267776	59	4923
2026-01-03 12:07:03.91	329.67	9.56	-48.6	-51.3	13.8	5.30e-06	0	57	0	1133510656	59	5065
2026-01-03 12:07:06.88	330.01	9.37	-48.7	-51.4	13.6	8.30e-06	0	57	0	1138753536	59	5138
2026-01-03 12:07:09.85	330.34	9.19	-48.8	-51.6	13.4	1.37e-05	0	57	0	1145044992	59	5233
2026-01-03 12:07:12.82	330.68	9.00	-49.0	-52.1	12.8	4.73e-05	0	57	0	1150287872	60	5262
2026-01-03 12:07:15.80	331.01	8.81	-49.1	-52.3	12.6	9.30e-05	0	57	0	1155530752	60	5402
2026-01-03 12:07:18.77	331.33	8.62	-49.0	-52.3	12.6	1.30e-04	0	57	0	1161822208	60	5372
2026-01-03 12:07:21.75	331.65	8.43	-49.2	-52.4	12.5	1.21e-04	0	57	0	1167065088	60	5430
2026-01-03 12:07:24.72	331.97	8.25	-48.9	-51.8	13.1	4.88e-05	0	57	0	1172307968	60	5097
2026-01-03 12:07:27.68	332.28	8.06	-49.0	-52.1	12.7	6.02e-05	0	57	0	1177550848	60	5259
2026-01-03 12:07:30.63	332.59	7.88	-49.2	-52.5	12.4	1.87e-04	0	57	0	1183842304	60	5491
2026-01-03 12:07:33.60	332.90	7.69	-49.3	-52.7	12.1	2.13e-04	0	57	0	1189085184	60	5609
2026-01-03 12:07:36.57	333.20	7.51	-49.4	-53.1	11.7	4.91e-04	0	57	0	1194328064	60	5878
2026-01-03 12:07:39.54	333.50	7.33	-49.5	-53.2	11.5	5.36e-04	0	57	0	1200619520	61	5655
2026-01-03 12:07:42.52	333.79	7.14	-49.6	-53.5	11.1	1.17e-03	0	57	0	1205862400	61	5837
2026-01-03 12:07:45.48	334.08	6.96	-49.6	-53.5	11.2	1.40e-03	0	57	0	1211105280	61	5822
2026-01-03 12:07:48.45	334.37	6.78	-49.6	-53.7	11.0	1.95e-03	0	57	0	1217396736	61	5962
2026-01-03 12:07:51.41	334.65	6.60	-49.7	-53.7	10.9	2.42e-03	0	57	0	1222639616	61	5976
2026-01-03 12:07:54.38	334.94	6.42	-49.6	-53.5	11.0	1.61e-03	0	57	0	1227882496	61	5840
2026-01-03 12:07:57.35	335.21	6.25	-49.7	-53.8	10.8	2.44e-03	0	57	0	1234173952	61	6032
2026-01-03 12:08:00.31	335.49	6.07	-49.7	-54.0	10.5	3.19e-03	0	57	0	1239416832	61	6165
2026-01-03 12:08:03.28	335.76	5.89	-49.9	-54.3	10.1	6.57e-03	0	57	0	1244659712	61	6401
2026-01-03 12:08:06.24	336.03	5.71	-49.7	-54.1	10.3	5.34e-03	0	57	0	1249902592	61	6205
2026-01-03 12:08:09.22	336.29	5.54	-49.8	-54.2	10.1	6.37e-03	0	57	0	1256194048	61	6314
2026-01-03 12:08:12.19	336.56	5.36	-49.3	-53.2	11.1	1.85e-03	0	57	0	1261436928	61	5653
2026-01-03 12:08:15.16	336.82	5.19	-49.3	-53.1	11.3	1.28e-03	0	57	0	1266679808	61	5537
2026-01-03 12:08:18.13	337.07	5.01	-51.3	-61.2	4.7	6.67e-03	7	57	0	1272971264	64	11869
2026-01-03 12:08:21.10	337.33	4.84	-48.5	-62.4	3.8	1.49e+00	0	57	104	1272971264	60	17143
2026-01-03 12:08:24.06	337.58	4.67	-52.1	-66.3	3.8	1.49e+00	0	57	104	1272971264	66	18952
2026-01-03 12:08:27.04	337.83	4.50	-52.5	-66.5	3.8	1.49e+00	0	57	104	1272971264	67	18427
2026-01-03 12:08:29.99	338.07	4.33	-52.7	-66.6	3.8	1.49e+00	0	57	104	1272971264	67	18673
2026-01-03 12:08:32.96	338.31	4.16	-52.8	-66.7	3.8	1.49e+00	0	57	104	1272971264	67	18792
2026-01-03 12:08:35.93	338.55	3.99	-52.7	-66.7	3.8	1.49e+00	0	57	104	1272971264	67	18928
2026-01-03 12:08:38.91	338.79	3.82	-52.9	-66.8	3.8	1.49e+00	0	57	104	1272971264	67	18977
2026-01-03 12:08:41.89	339.03	3.65	-52.9	-66.8	3.8	1.49e+00	0	57	104	1272971264	67	19004
2026-01-03 12:08:44.87	339.26	3.48	-52.9	-66.8	3.8	1.49e+00	0	57	104	1272971264	67	19003
2026-01-03 12:08:47.84	339.49	3.31	-52.9	-66.7	3.8	1.49e+00	0	57	104	1272971264	67	18932
2026-01-03 12:08:50.82	339.72	3.15	-52.9	-66.8	3.8	1.49e+00	0	57	104	1272971264	67	18977
2026-01-03 12:08:53.78	339.95	2.98	-52.7	-66.7	3.8	1.49e+00	0	57	104	1272971264	67	18934

#Closed at: 2026-01-03 12:08:54
#Recorded file [1272 MB]: D:/Data/31026_260103_150818.dat