passes_logs/2026/01/03/R3.0SM8_Murmansk_STILSPACE/R3.0SM8_Murmansk_STILSPACE__20260103_033714_NOAA_20_JPSS-1_rec.log

#Pass ID: 20260103_033714_NOAA 20 (JPSS-1)
#Satellite: NOAA 20 (JPSS-1)
#Configuration: NOAA 20
#almurnet v.1.7.20240730
#Start time: 2026-01-03 03:37:14

#Version: 2.2.20231116
#Station: R3.0SM8_Murmansk_STILSPACE
#Location: 33.092731 lon 68.902999 lat
#TLE: 1 43013U 17073A   26002.21975278  .00000202  00000+0  11669-3 0  9999
#TLE: 2 43013  98.7622 303.2950 0001915  57.9213 302.2149 14.19532512420923

#Time	Az	El	Level	Level2	SNR	BER	BlckErr	Temp	State	Recorded	gain1	gain2
2026-01-03 03:37:14.30	42.24	2.98	-53.0	-66.9	3.8	1.49e+00	0	47	0	0	68	18236
2026-01-03 03:37:18.25	42.01	3.22	-52.8	-66.6	3.8	1.49e+00	0	47	104	0	68	17668
2026-01-03 03:37:22.20	41.77	3.46	-52.0	-65.8	3.8	1.49e+00	0	47	104	0	66	17983
2026-01-03 03:37:26.16	41.53	3.70	-51.9	-65.8	3.8	1.49e+00	0	47	104	0	66	17995
2026-01-03 03:37:30.10	41.28	3.94	-52.0	-65.2	3.8	1.49e+00	0	48	104	0	66	16706
2026-01-03 03:37:34.03	41.03	4.19	-51.8	-62.6	4.1	1.44e+00	0	48	0	0	66	12405
2026-01-03 03:37:37.99	40.77	4.44	-51.2	-58.6	6.1	3.87e-01	0	48	0	5242880	65	8303
2026-01-03 03:37:41.94	40.51	4.68	-50.5	-55.6	9.0	3.48e-02	0	48	0	12582912	63	6574
2026-01-03 03:37:45.90	40.24	4.93	-50.0	-54.2	10.4	4.95e-03	0	49	0	19922944	63	5653
2026-01-03 03:37:49.85	39.97	5.18	-50.1	-54.3	10.4	4.29e-03	0	49	0	27262976	63	5665
2026-01-03 03:37:53.81	39.70	5.44	-50.3	-54.7	10.0	6.23e-03	0	49	0	34603008	63	5983
2026-01-03 03:37:57.78	39.41	5.70	-49.8	-53.8	11.0	2.22e-03	0	49	0	41943040	62	5665
2026-01-03 03:38:01.74	39.13	5.95	-49.8	-53.5	11.3	1.16e-03	0	50	0	49283072	62	5508
2026-01-03 03:38:05.69	38.84	6.21	-49.8	-53.6	11.3	8.92e-04	0	50	0	56623104	62	5547
2026-01-03 03:38:09.64	38.54	6.47	-49.8	-53.4	11.5	7.70e-04	0	50	0	65011712	62	5460
2026-01-03 03:38:13.60	38.24	6.73	-49.7	-53.2	11.8	4.87e-04	0	50	0	72351744	62	5292
2026-01-03 03:38:17.57	37.93	7.00	-49.6	-53.0	12.1	3.09e-04	0	50	0	79691776	62	5186
2026-01-03 03:38:21.53	37.61	7.27	-49.6	-53.0	12.0	3.26e-04	0	50	0	87031808	62	5214
2026-01-03 03:38:25.47	37.29	7.54	-49.6	-53.0	12.1	2.84e-04	0	51	0	94371840	62	5186
2026-01-03 03:38:29.43	36.97	7.81	-49.7	-53.2	12.0	3.33e-04	0	51	0	101711872	62	5290
2026-01-03 03:38:33.38	36.63	8.08	-49.6	-52.9	12.2	2.25e-04	0	51	0	109051904	62	5137
2026-01-03 03:38:37.32	36.29	8.35	-49.7	-53.1	12.1	2.66e-04	0	51	0	116391936	62	5234
2026-01-03 03:38:41.27	35.95	8.63	-49.3	-52.2	13.1	3.12e-05	0	51	0	123731968	61	4996
2026-01-03 03:38:45.22	35.60	8.91	-49.3	-52.3	12.9	3.81e-05	0	51	0	131072000	61	5052
2026-01-03 03:38:49.19	35.23	9.19	-49.4	-52.4	12.9	5.87e-05	0	51	0	138412032	61	5109
2026-01-03 03:38:53.15	34.87	9.47	-49.4	-52.4	12.8	6.25e-05	0	52	0	145752064	61	5138
2026-01-03 03:38:57.10	34.49	9.75	-49.6	-52.8	12.5	1.21e-04	0	52	0	153092096	61	5350
2026-01-03 03:39:01.06	34.11	10.04	-49.6	-52.7	12.6	1.30e-04	0	52	0	161480704	61	5305
2026-01-03 03:39:05.02	33.72	10.33	-49.4	-52.3	13.0	3.73e-05	0	52	0	168820736	61	5091
2026-01-03 03:39:08.98	33.32	10.62	-49.5	-52.6	12.8	8.85e-05	0	52	0	176160768	61	5227
2026-01-03 03:39:12.93	32.91	10.91	-49.6	-52.7	12.7	1.10e-04	0	52	0	183500800	61	5320
2026-01-03 03:39:16.88	32.49	11.21	-49.4	-52.3	13.0	5.79e-05	0	52	0	190840832	61	5088
2026-01-03 03:39:20.84	32.07	11.50	-49.6	-52.7	12.7	5.49e-05	0	52	0	198180864	61	5300
2026-01-03 03:39:24.80	31.63	11.80	-49.4	-52.2	13.2	2.51e-05	0	53	0	205520896	61	5032
2026-01-03 03:39:28.75	31.19	12.10	-49.7	-52.8	12.6	8.08e-05	0	53	0	212860928	61	5377
2026-01-03 03:39:32.68	30.74	12.40	-49.3	-52.1	13.3	1.98e-05	0	53	0	220200960	61	4968
2026-01-03 03:39:36.64	30.28	12.71	-49.1	-51.9	13.6	1.29e-05	0	53	0	227540992	61	4815
2026-01-03 03:39:40.60	29.81	13.02	-49.1	-51.8	13.6	9.10e-06	0	53	0	234881024	61	4791
2026-01-03 03:39:44.55	29.33	13.32	-49.0	-51.6	13.8	4.50e-06	0	53	0	242221056	61	4699
2026-01-03 03:39:48.50	28.83	13.63	-49.2	-51.9	13.5	7.60e-06	0	53	0	249561088	61	4868
2026-01-03 03:39:52.46	28.33	13.95	-49.2	-52.0	13.5	6.80e-06	0	53	0	256901120	61	4876
2026-01-03 03:39:56.42	27.82	14.26	-49.1	-51.7	13.8	6.10e-06	0	53	0	265289728	61	4721
2026-01-03 03:40:00.37	27.29	14.57	-48.8	-51.3	14.2	1.50e-06	0	53	0	272629760	60	4769
2026-01-03 03:40:04.33	26.75	14.89	-48.9	-51.5	14.1	2.20e-06	0	53	0	279969792	60	4871
2026-01-03 03:40:08.30	26.20	15.21	-48.9	-51.4	14.1	1.50e-06	0	54	0	287309824	60	4833
2026-01-03 03:40:12.26	25.64	15.53	-48.8	-51.2	14.4	1.50e-06	0	54	0	294649856	60	4717
2026-01-03 03:40:16.21	25.07	15.85	-48.6	-50.8	14.8	0.00e+00	0	54	0	301989888	60	4527
2026-01-03 03:40:20.17	24.48	16.18	-48.9	-51.3	14.2	7.00e-07	0	54	0	309329920	60	4809
2026-01-03 03:40:24.14	23.88	16.50	-48.9	-51.4	14.2	2.20e-06	0	54	0	316669952	60	4825
2026-01-03 03:40:28.09	23.27	16.82	-48.6	-50.8	14.7	7.00e-07	0	54	0	324009984	60	4541
2026-01-03 03:40:32.03	22.64	17.15	-48.6	-50.7	14.9	0.00e+00	0	54	0	331350016	59	4743
2026-01-03 03:40:36.00	22.00	17.48	-48.6	-51.0	14.6	0.00e+00	0	54	0	338690048	59	4921
2026-01-03 03:40:39.95	21.35	17.80	-48.8	-51.2	14.4	1.50e-06	0	54	0	346030080	59	5016
2026-01-03 03:40:43.90	20.68	18.13	-49.0	-51.5	14.1	6.80e-06	0	54	0	353370112	60	4906
2026-01-03 03:40:47.85	20.00	18.46	-48.9	-51.3	14.3	7.00e-07	0	54	0	361758720	60	4779
2026-01-03 03:40:51.81	19.30	18.78	-49.2	-51.7	13.9	2.20e-06	0	54	0	369098752	60	5035
2026-01-03 03:40:55.78	18.58	19.11	-48.7	-51.0	14.6	7.00e-07	0	54	0	376438784	60	4601
2026-01-03 03:40:59.74	17.85	19.44	-48.8	-51.1	14.6	7.00e-07	0	54	0	383778816	60	4658
2026-01-03 03:41:03.70	17.10	19.76	-48.7	-51.0	14.6	7.00e-07	0	54	0	391118848	60	4640
2026-01-03 03:41:07.66	16.34	20.09	-49.0	-51.4	14.3	0.00e+00	0	54	0	398458880	60	4824
2026-01-03 03:41:11.60	15.56	20.41	-48.6	-50.8	14.9	7.00e-07	0	55	0	405798912	60	4512
2026-01-03 03:41:15.55	14.77	20.73	-48.4	-50.5	15.2	0.00e+00	0	54	0	413138944	59	4632
2026-01-03 03:41:19.49	13.96	21.05	-48.3	-50.4	15.2	0.00e+00	0	55	0	420478976	59	4596
2026-01-03 03:41:23.44	13.13	21.37	-48.3	-50.2	15.4	0.00e+00	0	55	0	427819008	59	4493
2026-01-03 03:41:27.38	12.29	21.68	-48.3	-50.5	15.2	0.00e+00	0	55	0	435159040	59	4605
2026-01-03 03:41:31.34	11.42	21.99	-48.0	-49.9	15.8	0.00e+00	0	55	0	442499072	58	4575
2026-01-03 03:41:35.29	10.54	22.30	-47.7	-49.5	16.0	0.00e+00	0	55	0	449839104	58	4387
2026-01-03 03:41:39.24	9.64	22.61	-47.3	-49.1	16.1	0.00e+00	0	55	0	457179136	57	4432
2026-01-03 03:41:43.20	8.72	22.91	-47.7	-49.8	15.1	0.00e+00	0	55	0	464519168	57	4760
2026-01-03 03:41:47.16	7.78	23.20	-49.4	-53.1	11.4	3.17e-04	0	55	0	472907776	60	5869
2026-01-03 03:41:51.12	6.83	23.50	-49.7	-54.1	10.4	6.55e-03	0	55	0	480247808	61	6222
2026-01-03 03:41:55.07	5.86	23.78	-49.1	-51.8	13.4	1.67e-05	0	55	0	487587840	61	4791
2026-01-03 03:41:59.04	4.86	24.06	-49.8	-53.9	10.6	7.48e-04	0	55	0	494927872	61	6084
2026-01-03 03:42:03.00	3.86	24.33	-49.9	-54.4	10.0	2.35e-02	0	55	0	502267904	62	6079
2026-01-03 03:42:06.96	2.83	24.60	-49.0	-51.4	14.2	2.20e-06	0	55	0	509607936	60	4852
2026-01-03 03:42:10.91	1.79	24.86	-47.8	-49.7	16.0	0.00e+00	0	55	0	516947968	58	4461
2026-01-03 03:42:14.87	0.73	25.11	-47.9	-49.8	16.0	0.00e+00	0	55	0	524288000	58	4510
2026-01-03 03:42:18.82	359.65	25.35	-47.4	-49.0	16.8	0.00e+00	0	55	0	531628032	57	4349
2026-01-03 03:42:22.78	358.56	25.58	-47.7	-49.4	16.3	0.00e+00	0	55	0	538968064	57	4560
2026-01-03 03:42:26.75	357.45	25.80	-47.9	-49.7	16.0	0.00e+00	0	56	0	546308096	58	4491
2026-01-03 03:42:30.71	356.32	26.02	-47.5	-49.2	16.6	0.00e+00	0	56	0	553648128	58	4205
2026-01-03 03:42:34.67	355.18	26.22	-47.7	-49.4	16.3	0.00e+00	0	55	0	562036736	58	4314
2026-01-03 03:42:38.62	354.03	26.41	-48.0	-49.9	15.9	0.00e+00	0	55	0	569376768	58	4547
2026-01-03 03:42:42.59	352.86	26.59	-48.3	-50.3	15.4	0.00e+00	0	55	0	576716800	58	4793
2026-01-03 03:42:46.55	351.67	26.75	-48.6	-50.7	15.1	7.00e-07	0	56	0	584056832	59	4732
2026-01-03 03:42:50.49	350.49	26.91	-48.7	-50.9	14.8	0.00e+00	0	56	0	591396864	59	4837
2026-01-03 03:42:54.43	349.29	27.05	-48.5	-50.6	15.2	0.00e+00	0	56	0	598736896	59	4670
2026-01-03 03:42:58.39	348.07	27.17	-48.7	-50.8	14.9	0.00e+00	0	56	0	606076928	59	4800
2026-01-03 03:43:02.36	346.85	27.29	-48.8	-51.1	14.6	0.00e+00	0	56	0	613416960	59	4943
2026-01-03 03:43:06.31	345.62	27.39	-48.9	-51.2	14.5	7.00e-07	0	56	0	620756992	59	5010
2026-01-03 03:43:10.27	344.38	27.47	-49.1	-51.5	14.2	7.00e-07	0	56	0	628097024	59	5173
2026-01-03 03:43:14.23	343.13	27.54	-48.8	-51.1	14.6	1.50e-06	0	56	0	635437056	60	4685
2026-01-03 03:43:18.17	341.89	27.60	-48.9	-51.3	14.4	7.00e-07	0	56	0	642777088	60	4800
2026-01-03 03:43:22.12	340.64	27.64	-49.2	-51.7	14.1	7.00e-07	0	56	0	650117120	60	4988
2026-01-03 03:43:26.07	339.38	27.66	-49.0	-51.3	14.4	0.00e+00	0	56	0	657457152	60	4793
2026-01-03 03:43:30.00	338.13	27.67	-48.7	-50.9	14.8	0.00e+00	0	56	0	664797184	60	4593
2026-01-03 03:43:33.96	336.88	27.66	-48.4	-50.4	15.4	0.00e+00	0	56	0	673185792	59	4573
2026-01-03 03:43:37.92	335.62	27.64	-48.6	-50.7	15.1	7.00e-07	0	56	0	680525824	59	4727
2026-01-03 03:43:41.88	334.36	27.61	-48.3	-50.3	15.5	0.00e+00	0	56	0	687865856	59	4503
2026-01-03 03:43:45.84	333.11	27.55	-48.2	-50.1	15.6	0.00e+00	0	56	0	695205888	59	4424
2026-01-03 03:43:49.81	331.86	27.49	-47.9	-49.7	16.1	0.00e+00	0	56	0	702545920	58	4468
2026-01-03 03:43:53.76	330.62	27.41	-47.8	-49.5	16.3	0.00e+00	0	56	0	709885952	58	4355
2026-01-03 03:43:57.72	329.39	27.31	-48.0	-49.8	16.0	0.00e+00	0	56	0	717225984	58	4517
2026-01-03 03:44:01.68	328.16	27.20	-47.6	-49.3	16.4	0.00e+00	0	56	0	724566016	58	4271
2026-01-03 03:44:05.65	326.94	27.08	-47.8	-49.6	16.2	0.00e+00	0	56	0	731906048	58	4395
2026-01-03 03:44:09.60	325.74	26.94	-48.1	-50.0	15.8	0.00e+00	0	56	0	739246080	58	4620
2026-01-03 03:44:13.56	324.54	26.79	-48.4	-50.4	15.4	0.00e+00	0	56	0	746586112	58	4860
2026-01-03 03:44:17.53	323.35	26.62	-48.5	-50.6	15.2	0.00e+00	0	56	0	753926144	59	4669
2026-01-03 03:44:21.49	322.18	26.45	-48.3	-50.2	15.6	0.00e+00	0	56	0	761266176	59	4467
2026-01-03 03:44:25.45	321.02	26.26	-48.6	-50.8	15.0	0.00e+00	0	56	0	769654784	59	4776
2026-01-03 03:44:29.41	319.88	26.06	-49.0	-51.4	14.4	0.00e+00	0	56	0	776994816	59	5147
2026-01-03 03:44:33.37	318.75	25.85	-49.1	-51.6	14.2	3.00e-06	0	56	0	784334848	60	4927
2026-01-03 03:44:37.32	317.64	25.63	-49.0	-51.4	14.4	7.00e-07	0	56	0	791674880	60	4832
2026-01-03 03:44:41.27	316.54	25.40	-49.1	-51.6	14.2	1.50e-06	0	56	0	799014912	60	4954
2026-01-03 03:44:45.23	315.46	25.16	-48.8	-51.2	14.6	1.50e-06	0	56	0	806354944	60	4733
2026-01-03 03:44:49.19	314.39	24.91	-48.9	-51.3	14.5	1.50e-06	0	56	0	813694976	60	4768
2026-01-03 03:44:53.14	313.35	24.66	-49.0	-51.4	14.3	2.20e-06	0	56	0	821035008	60	4833
2026-01-03 03:44:57.10	312.31	24.39	-49.0	-51.4	14.3	0.00e+00	0	56	0	828375040	60	4847
2026-01-03 03:45:01.06	311.30	24.12	-49.1	-51.6	14.1	4.50e-06	0	56	0	835715072	60	4955
2026-01-03 03:45:05.02	310.31	23.84	-48.9	-51.2	14.6	0.00e+00	0	56	0	843055104	60	4716
2026-01-03 03:45:08.98	309.33	23.56	-48.4	-50.3	15.4	0.00e+00	0	56	0	850395136	59	4536
2026-01-03 03:45:12.95	308.36	23.27	-48.1	-49.9	15.8	0.00e+00	0	56	0	857735168	59	4334
2026-01-03 03:45:16.91	307.42	22.97	-48.1	-49.9	15.8	0.00e+00	0	56	0	866123776	58	4596
2026-01-03 03:45:20.87	306.50	22.67	-48.2	-50.2	15.5	0.00e+00	0	56	0	873463808	58	4757
2026-01-03 03:45:24.83	305.59	22.37	-47.9	-49.7	16.1	0.00e+00	0	56	0	880803840	58	4456
2026-01-03 03:45:28.78	304.71	22.06	-47.7	-49.4	16.3	0.00e+00	0	56	0	888143872	58	4330
2026-01-03 03:45:32.75	303.83	21.75	-47.7	-49.4	16.3	0.00e+00	0	56	0	895483904	58	4334
2026-01-03 03:45:36.70	302.98	21.43	-47.4	-49.1	16.6	0.00e+00	0	56	0	902823936	58	4150
2026-01-03 03:45:40.67	302.14	21.11	-47.1	-48.7	17.0	0.00e+00	0	56	0	910163968	57	4209
2026-01-03 03:45:44.63	301.33	20.79	-47.1	-48.7	17.0	0.00e+00	0	57	0	917504000	57	4224
2026-01-03 03:45:48.58	300.53	20.47	-47.2	-48.7	17.0	0.00e+00	0	56	0	924844032	57	4221
2026-01-03 03:45:52.54	299.74	20.15	-47.3	-48.9	16.7	0.00e+00	0	56	0	932184064	57	4334
2026-01-03 03:45:56.49	298.98	19.82	-46.9	-48.4	17.3	0.00e+00	0	56	0	939524096	57	4079
2026-01-03 03:46:00.46	298.22	19.50	-46.8	-48.2	17.5	0.00e+00	0	56	0	947912704	56	4208
2026-01-03 03:46:04.42	297.49	19.17	-46.9	-48.5	17.1	0.00e+00	0	56	0	955252736	56	4358
2026-01-03 03:46:08.39	296.77	18.84	-47.1	-48.6	17.0	0.00e+00	0	56	0	962592768	56	4439
2026-01-03 03:46:12.33	296.07	18.51	-47.2	-48.8	16.8	0.00e+00	0	56	0	969932800	56	4526
2026-01-03 03:46:16.28	295.38	18.19	-46.9	-48.5	17.1	0.00e+00	0	57	0	977272832	56	4358
2026-01-03 03:46:20.26	294.70	17.86	-47.1	-48.7	16.8	0.00e+00	0	56	0	984612864	56	4491
2026-01-03 03:46:24.21	294.04	17.53	-47.0	-48.6	17.0	0.00e+00	0	56	0	991952896	56	4402
2026-01-03 03:46:28.15	293.40	17.21	-47.3	-49.0	16.6	0.00e+00	0	56	0	999292928	56	4623
2026-01-03 03:46:32.09	292.78	16.88	-48.0	-50.0	15.4	0.00e+00	0	57	0	1006632960	57	4904
2026-01-03 03:46:36.06	292.16	16.55	-48.5	-50.9	14.3	2.20e-06	0	56	0	1013972992	58	5115
2026-01-03 03:46:40.03	291.55	16.23	-49.1	-52.1	12.8	5.41e-05	0	56	0	1021313024	60	5238
2026-01-03 03:46:43.98	290.96	15.91	-49.5	-53.3	11.2	8.27e-04	0	57	0	1028653056	60	6014
2026-01-03 03:46:47.93	290.39	15.59	-49.8	-54.4	9.8	6.08e-03	0	56	0	1035993088	61	6432
2026-01-03 03:46:51.90	289.82	15.26	-50.0	-55.5	8.4	3.67e-02	0	57	0	1043333120	61	7359
2026-01-03 03:46:55.85	289.27	14.95	-50.2	-56.3	7.6	9.07e-02	0	57	0	1051721728	62	7556
2026-01-03 03:46:59.81	288.73	14.63	-50.4	-57.3	6.6	2.13e-01	0	57	0	1059061760	62	8507
2026-01-03 03:47:03.78	288.19	14.31	-50.3	-57.5	6.3	2.69e-01	0	57	0	1066401792	62	8736
2026-01-03 03:47:07.74	287.68	14.00	-50.4	-58.1	5.8	3.79e-01	0	57	0	1073741824	62	9380
2026-01-03 03:47:11.71	287.17	13.68	-50.4	-58.6	5.4	4.98e-01	0	57	0	1081081856	62	9921
2026-01-03 03:47:15.66	286.67	13.37	-50.1	-57.1	6.6	2.42e-01	0	57	0	1088421888	62	8280
2026-01-03 03:47:19.63	286.19	13.06	-50.1	-56.2	7.6	1.11e-01	0	57	0	1095761920	62	7465
2026-01-03 03:47:23.59	285.71	12.75	-49.9	-54.8	9.3	2.16e-02	0	57	0	1103101952	62	6383
2026-01-03 03:47:27.56	285.24	12.45	-49.8	-54.0	10.4	6.26e-03	0	57	0	1110441984	62	5827
2026-01-03 03:47:31.50	284.79	12.14	-49.9	-54.2	10.5	3.54e-03	0	57	0	1117782016	62	5928
2026-01-03 03:47:35.45	284.35	11.84	-49.7	-53.5	11.3	1.36e-03	0	57	0	1125122048	62	5490
2026-01-03 03:47:39.41	283.91	11.54	-49.6	-53.0	11.9	6.36e-04	0	56	0	1132462080	62	5208
2026-01-03 03:47:43.36	283.48	11.25	-49.5	-52.8	12.2	2.33e-04	0	57	0	1140850688	61	5359
2026-01-03 03:47:47.33	283.06	10.95	-49.4	-52.6	12.5	8.69e-05	0	57	0	1148190720	61	5232
2026-01-03 03:47:51.29	282.65	10.66	-49.6	-52.8	12.3	1.76e-04	0	57	0	1155530752	61	5393
2026-01-03 03:47:55.24	282.25	10.37	-49.5	-52.8	12.3	1.62e-04	0	57	0	1162870784	61	5379
2026-01-03 03:47:59.21	281.85	10.08	-49.5	-52.7	12.2	1.74e-04	0	57	0	1170210816	61	5332
2026-01-03 03:48:03.17	281.47	9.79	-49.7	-53.3	11.5	6.32e-04	0	57	0	1177550848	61	5682
2026-01-03 03:48:07.12	281.09	9.50	-49.9	-54.1	10.6	3.44e-03	0	57	0	1184890880	61	6223
2026-01-03 03:48:11.08	280.72	9.22	-50.2	-54.8	9.7	1.08e-02	0	57	0	1192230912	62	6415
2026-01-03 03:48:15.04	280.36	8.94	-50.3	-55.2	9.2	1.66e-02	0	57	0	1199570944	62	6703
2026-01-03 03:48:19.00	280.00	8.66	-49.7	-54.1	10.2	6.72e-03	0	57	0	1206910976	62	5861
2026-01-03 03:48:22.96	279.65	8.38	-50.0	-55.1	8.9	2.19e-02	0	57	0	1214251008	62	6645
2026-01-03 03:48:26.92	279.31	8.11	-50.1	-55.9	8.0	5.28e-02	0	57	0	1221591040	62	7272
2026-01-03 03:48:30.88	278.97	7.83	-50.2	-56.2	7.6	8.31e-02	0	57	0	1228931072	62	7496
2026-01-03 03:48:34.84	278.64	7.56	-50.1	-56.5	7.2	1.17e-01	0	57	0	1237319680	62	7736
2026-01-03 03:48:38.80	278.32	7.29	-50.1	-57.3	6.3	2.24e-01	0	57	0	1244659712	62	8512
2026-01-03 03:48:42.77	278.00	7.02	-49.8	-57.0	6.3	2.59e-01	0	57	0	1251999744	62	8181
2026-01-03 03:48:46.73	277.69	6.76	-49.8	-57.8	5.5	4.34e-01	0	57	0	1259339776	62	9060
2026-01-03 03:48:50.68	277.39	6.50	-49.7	-58.3	5.1	6.16e-01	0	57	0	1266679808	62	9594
2026-01-03 03:48:54.62	277.09	6.24	-49.7	-59.0	4.7	9.16e-01	0	57	0	1274019840	62	10378
2026-01-03 03:48:58.58	276.79	5.98	-49.7	-59.7	4.4	1.26e+00	60	57	0	1281359872	62	11253
2026-01-03 03:49:02.54	276.51	5.72	-49.6	-60.3	4.1	1.41e+00	0	57	0	1282408448	62	12036
2026-01-03 03:49:06.48	276.22	5.46	-49.6	-61.0	3.9	1.47e+00	0	57	104	1282408448	62	13077
2026-01-03 03:49:10.44	275.94	5.21	-49.7	-62.0	3.8	1.49e+00	0	57	104	1282408448	62	14688
2026-01-03 03:49:14.40	275.67	4.96	-51.3	-65.3	3.8	1.49e+00	0	57	104	1282408448	64	18975
2026-01-03 03:49:18.36	275.40	4.71	-52.9	-66.7	3.8	1.49e+00	0	57	104	1282408448	67	18800
2026-01-03 03:49:22.34	275.14	4.45	-52.9	-66.8	3.8	1.49e+00	0	57	104	1282408448	67	19091
2026-01-03 03:49:26.29	274.88	4.21	-53.0	-66.9	3.8	1.49e+00	0	57	104	1282408448	67	19354
2026-01-03 03:49:30.23	274.63	3.96	-53.1	-67.1	3.8	1.49e+00	0	57	104	1282408448	68	18576
2026-01-03 03:49:34.19	274.38	3.72	-53.3	-67.1	3.8	1.49e+00	0	57	104	1282408448	68	18669
2026-01-03 03:49:38.15	274.13	3.48	-53.1	-67.1	3.8	1.49e+00	0	57	104	1282408448	68	18679
2026-01-03 03:49:42.12	273.89	3.24	-53.1	-67.1	3.8	1.49e+00	0	57	104	1282408448	68	18657
2026-01-03 03:49:46.08	273.65	3.00	-53.3	-67.1	3.8	1.49e+00	0	57	104	1282408448	68	18693

#Closed at: 2026-01-03 03:49:46
#Recorded file [1282 MB]: D:/Data/31026_260103_064907.dat