passes_logs/2026/01/03/R3.0SM8_Murmansk_STILSPACE/R3.0SM8_Murmansk_STILSPACE__20260103_233717_SUOMI_NPP_rec.log

#Pass ID: 20260103_233717_SUOMI NPP
#Satellite: SUOMI NPP
#Configuration: NPP
#almurnet v.1.7.20240730
#Start time: 2026-01-03 23:37:17

#Version: 2.2.20231116
#Station: R3.0SM8_Murmansk_STILSPACE
#Location: 33.092731 lon 68.902999 lat
#TLE: 1 37849U 11061A   26001.07732418  .00000182  00000+0  10735-3 0  9990
#TLE: 2 37849  98.7795 303.2470 0002580  87.2016 272.9455 14.19520779734739

#Time	Az	El	Level	Level2	SNR	BER	BlckErr	Temp	State	Recorded	gain1	gain2
2026-01-03 23:37:17.78	21.61	3.00	-52.2	-66.0	3.8	1.49e+00	0	45	0	0	66	18460
2026-01-03 23:37:21.72	21.76	3.25	-51.8	-65.8	3.8	1.49e+00	0	46	104	0	66	17983
2026-01-03 23:37:25.68	21.91	3.50	-51.1	-64.8	3.8	1.49e+00	0	46	104	0	65	16889
2026-01-03 23:37:29.62	22.07	3.76	-50.2	-63.2	3.8	1.49e+00	0	46	104	0	63	15784
2026-01-03 23:37:33.56	22.22	4.02	-50.1	-61.3	4.0	1.46e+00	0	46	0	0	63	12682
2026-01-03 23:37:37.51	22.38	4.28	-50.2	-62.3	3.8	1.48e+00	0	47	104	0	63	14216
2026-01-03 23:37:41.46	22.54	4.54	-50.2	-62.4	3.8	1.49e+00	0	47	104	0	63	14461
2026-01-03 23:37:45.42	22.71	4.81	-50.1	-60.2	4.3	1.37e+00	0	47	0	0	63	11190
2026-01-03 23:37:49.37	22.87	5.08	-49.8	-57.8	5.5	5.36e-01	0	48	0	7340032	62	9060
2026-01-03 23:37:53.34	23.05	5.35	-49.8	-57.0	6.2	2.89e-01	0	48	0	14680064	62	8213
2026-01-03 23:37:57.29	23.22	5.63	-49.8	-56.2	7.0	1.81e-01	0	48	0	22020096	62	7533
2026-01-03 23:38:01.25	23.39	5.91	-49.2	-54.0	9.4	2.22e-02	0	49	0	29360128	61	6177
2026-01-03 23:38:05.20	23.57	6.19	-49.5	-54.6	9.0	2.21e-02	0	49	0	36700160	61	6597
2026-01-03 23:38:09.17	23.76	6.47	-49.4	-54.0	9.7	2.01e-02	0	49	0	44040192	61	6144
2026-01-03 23:38:13.12	23.94	6.76	-49.1	-53.0	11.0	2.15e-03	0	49	0	51380224	61	5515
2026-01-03 23:38:17.08	24.13	7.05	-48.8	-52.2	12.0	3.78e-04	0	49	0	58720256	60	5291
2026-01-03 23:38:21.04	24.32	7.34	-48.9	-52.5	11.7	4.45e-04	0	50	0	66060288	60	5466
2026-01-03 23:38:25.00	24.52	7.63	-49.0	-52.8	11.4	8.91e-04	0	50	0	73400320	60	5659
2026-01-03 23:38:28.93	24.72	7.93	-49.0	-52.6	11.6	1.56e-03	0	50	0	80740352	60	5552
2026-01-03 23:38:32.89	24.92	8.23	-48.7	-52.0	12.2	1.20e-04	0	50	0	88080384	60	5206
2026-01-03 23:38:36.83	25.12	8.54	-48.9	-52.4	11.9	1.06e-03	0	50	0	95420416	60	5416
2026-01-03 23:38:40.78	25.34	8.85	-48.2	-50.9	13.5	1.60e-05	0	51	0	102760448	59	4822
2026-01-03 23:38:44.72	25.55	9.16	-48.1	-50.7	13.8	2.20e-06	0	51	0	111149056	59	4714
2026-01-03 23:38:48.68	25.77	9.47	-48.0	-50.5	14.0	1.50e-06	0	51	0	118489088	58	4888
2026-01-03 23:38:52.64	25.99	9.79	-48.0	-50.3	14.1	7.00e-07	0	51	0	125829120	58	4809
2026-01-03 23:38:56.60	26.22	10.12	-48.0	-50.4	14.1	5.30e-06	0	51	0	133169152	58	4829
2026-01-03 23:39:00.56	26.45	10.44	-47.9	-50.2	14.3	3.00e-06	0	51	0	140509184	58	4754
2026-01-03 23:39:04.53	26.69	10.78	-47.9	-50.3	14.2	7.00e-07	0	51	0	147849216	58	4777
2026-01-03 23:39:08.49	26.94	11.11	-47.9	-50.2	14.4	7.00e-07	0	52	0	155189248	58	4727
2026-01-03 23:39:12.44	27.18	11.45	-47.8	-50.1	14.4	1.50e-06	0	51	0	162529280	58	4701
2026-01-03 23:39:16.38	27.44	11.79	-47.5	-49.7	14.9	0.00e+00	0	52	0	169869312	58	4453
2026-01-03 23:39:20.33	27.70	12.14	-47.5	-49.6	14.9	0.00e+00	0	52	0	177209344	57	4704
2026-01-03 23:39:24.30	27.96	12.50	-47.6	-49.8	14.8	7.00e-07	0	52	0	184549376	57	4772
2026-01-03 23:39:28.24	28.23	12.85	-47.3	-49.2	15.3	0.00e+00	0	52	0	191889408	57	4487
2026-01-03 23:39:32.19	28.51	13.22	-47.0	-48.8	15.8	0.00e+00	0	52	0	199229440	57	4272
2026-01-03 23:39:36.16	28.79	13.58	-46.9	-48.7	16.0	0.00e+00	0	52	0	207618048	56	4444
2026-01-03 23:39:40.13	29.08	13.96	-46.7	-48.5	16.2	0.00e+00	0	53	0	214958080	56	4345
2026-01-03 23:39:44.08	29.38	14.34	-46.6	-48.2	16.4	0.00e+00	0	53	0	222298112	56	4232
2026-01-03 23:39:48.05	29.69	14.72	-46.8	-48.5	16.1	0.00e+00	0	53	0	229638144	56	4387
2026-01-03 23:39:52.02	30.00	15.11	-47.1	-48.9	15.8	0.00e+00	0	53	0	236978176	56	4561
2026-01-03 23:39:55.98	30.32	15.50	-47.2	-49.0	15.7	0.00e+00	0	53	0	244318208	56	4647
2026-01-03 23:39:59.95	30.65	15.91	-47.3	-49.2	15.5	0.00e+00	0	53	0	251658240	56	4757
2026-01-03 23:40:03.90	30.99	16.31	-47.4	-49.5	15.3	0.00e+00	0	53	0	258998272	56	4886
2026-01-03 23:40:07.86	31.33	16.72	-47.4	-49.4	15.4	0.00e+00	0	53	0	266338304	56	4824
2026-01-03 23:40:11.81	31.68	17.14	-47.3	-49.2	15.6	0.00e+00	0	53	0	273678336	56	4738
2026-01-03 23:40:15.75	32.05	17.56	-46.9	-48.7	16.1	0.00e+00	0	53	0	281018368	56	4467
2026-01-03 23:40:19.72	32.42	17.99	-47.3	-49.2	15.6	0.00e+00	0	54	0	288358400	56	4740
2026-01-03 23:40:23.69	32.81	18.43	-47.6	-49.6	15.2	0.00e+00	0	53	0	296747008	57	4657
2026-01-03 23:40:27.64	33.20	18.88	-47.5	-49.5	15.3	0.00e+00	0	54	0	304087040	57	4625
2026-01-03 23:40:31.59	33.61	19.33	-47.0	-48.8	16.0	0.00e+00	0	54	0	311427072	57	4273
2026-01-03 23:40:35.56	34.03	19.78	-47.2	-49.1	15.7	0.00e+00	0	54	0	318767104	57	4425
2026-01-03 23:40:39.53	34.46	20.25	-47.7	-49.7	15.2	0.00e+00	0	54	0	326107136	57	4743
2026-01-03 23:40:43.48	34.90	20.72	-47.4	-49.4	15.6	0.00e+00	0	54	0	333447168	57	4546
2026-01-03 23:40:47.45	35.36	21.20	-47.2	-49.0	15.8	0.00e+00	0	54	0	340787200	57	4371
2026-01-03 23:40:51.42	35.83	21.69	-47.2	-49.1	15.8	0.00e+00	0	54	0	348127232	57	4434
2026-01-03 23:40:55.37	36.31	22.18	-47.3	-49.1	15.8	0.00e+00	0	54	0	355467264	57	4424
2026-01-03 23:40:59.35	36.82	22.69	-47.6	-49.5	15.4	0.00e+00	0	54	0	362807296	57	4635
2026-01-03 23:41:03.31	37.33	23.20	-47.6	-49.7	15.2	0.00e+00	0	54	0	370147328	57	4712
2026-01-03 23:41:07.27	37.86	23.72	-47.3	-49.3	15.6	0.00e+00	0	54	0	377487360	57	4499
2026-01-03 23:41:11.23	38.41	24.24	-47.6	-49.7	15.3	0.00e+00	0	54	0	384827392	57	4716
2026-01-03 23:41:15.18	38.98	24.78	-47.7	-49.7	15.2	0.00e+00	0	55	0	393216000	57	4759
2026-01-03 23:41:19.11	39.56	25.32	-47.9	-50.1	14.9	0.00e+00	0	55	0	400556032	57	4928
2026-01-03 23:41:23.06	40.17	25.86	-47.8	-49.9	15.1	0.00e+00	0	54	0	407896064	57	4827
2026-01-03 23:41:27.03	40.80	26.42	-47.4	-49.3	15.6	0.00e+00	0	55	0	415236096	57	4541
2026-01-03 23:41:30.98	41.45	26.99	-47.7	-49.7	15.3	0.00e+00	0	55	0	422576128	57	4741
2026-01-03 23:41:34.94	42.12	27.56	-47.6	-49.6	15.4	0.00e+00	0	55	0	429916160	57	4672
2026-01-03 23:41:38.90	42.82	28.15	-47.4	-49.3	15.7	0.00e+00	0	55	0	437256192	57	4513
2026-01-03 23:41:42.86	43.54	28.74	-47.5	-49.4	15.6	0.00e+00	0	55	0	444596224	57	4590
2026-01-03 23:41:46.81	44.29	29.34	-48.0	-50.1	15.0	0.00e+00	0	55	0	451936256	57	4947
2026-01-03 23:41:50.75	45.06	29.94	-48.3	-50.6	14.4	0.00e+00	0	55	0	459276288	58	4964
2026-01-03 23:41:54.71	45.87	30.55	-48.8	-51.4	13.7	7.60e-06	0	55	0	466616320	59	5127
2026-01-03 23:41:58.68	46.71	31.17	-48.5	-51.0	14.1	7.00e-07	0	55	0	473956352	59	4892
2026-01-03 23:42:02.65	47.58	31.80	-48.4	-50.7	14.3	6.10e-06	0	55	0	481296384	59	4741
2026-01-03 23:42:06.61	48.48	32.44	-48.7	-51.2	13.9	6.10e-06	0	55	0	489684992	59	4984
2026-01-03 23:42:10.55	49.42	33.07	-48.9	-51.5	13.5	1.22e-05	0	55	0	497025024	59	5218
2026-01-03 23:42:14.51	50.39	33.72	-48.8	-51.5	13.6	1.67e-05	0	55	0	504365056	60	4880
2026-01-03 23:42:18.49	51.41	34.37	-48.5	-50.9	14.1	5.30e-06	0	55	0	511705088	60	4590
2026-01-03 23:42:22.44	52.46	35.02	-47.9	-49.9	15.2	0.00e+00	0	55	0	519045120	58	4573
2026-01-03 23:42:26.42	53.56	35.68	-48.0	-50.1	15.0	0.00e+00	0	55	0	526385152	58	4701
2026-01-03 23:42:30.34	54.69	36.33	-47.6	-49.5	15.5	0.00e+00	0	56	0	533725184	57	4651
2026-01-03 23:42:34.28	55.87	36.98	-48.1	-50.2	14.9	0.00e+00	0	56	0	541065216	57	5033
2026-01-03 23:42:38.25	57.11	37.64	-48.0	-50.2	14.9	7.00e-07	0	55	0	548405248	58	4714
2026-01-03 23:42:42.21	58.40	38.29	-47.4	-49.2	15.9	0.00e+00	0	56	0	555745280	57	4483
2026-01-03 23:42:46.16	59.73	38.94	-47.0	-48.7	16.4	0.00e+00	0	56	0	563085312	57	4227
2026-01-03 23:42:50.11	61.11	39.58	-47.7	-49.7	15.4	0.00e+00	0	56	0	570425344	57	4750
2026-01-03 23:42:54.08	62.56	40.22	-47.9	-49.9	15.2	0.00e+00	0	56	0	577765376	57	4847
2026-01-03 23:42:58.03	64.06	40.85	-48.0	-50.1	15.0	7.00e-07	0	56	0	586153984	58	4664
2026-01-03 23:43:02.00	65.62	41.47	-48.7	-51.3	14.0	2.20e-06	0	56	0	593494016	59	5059
2026-01-03 23:43:05.97	67.25	42.07	-47.4	-49.2	15.9	0.00e+00	0	56	0	600834048	57	4489
2026-01-03 23:43:09.94	68.93	42.66	-48.9	-51.5	13.6	6.80e-06	0	56	0	608174080	59	5211
2026-01-03 23:43:13.89	70.67	43.22	-48.8	-51.3	13.8	2.20e-06	0	56	0	615514112	60	4808
2026-01-03 23:43:17.84	72.46	43.77	-48.8	-51.4	13.8	5.30e-06	0	56	0	622854144	60	4840
2026-01-03 23:43:21.80	74.33	44.29	-49.0	-51.7	13.4	5.11e-05	0	56	0	630194176	61	4757
2026-01-03 23:43:25.76	76.25	44.78	-49.9	-53.5	11.6	1.47e-04	0	56	0	637534208	61	5833
2026-01-03 23:43:29.70	78.22	45.25	-50.4	-54.5	10.5	2.95e-03	0	56	0	644874240	62	6163
2026-01-03 23:43:33.64	80.24	45.68	-49.1	-52.0	13.1	5.56e-05	0	56	0	652214272	61	4920
2026-01-03 23:43:37.60	82.33	46.07	-49.7	-53.0	12.1	6.31e-04	0	56	0	659554304	62	5160
2026-01-03 23:43:41.56	84.47	46.43	-50.6	-55.3	9.7	2.56e-02	0	56	0	666894336	63	6376
2026-01-03 23:43:45.52	86.66	46.75	-49.8	-53.3	11.9	5.55e-04	0	56	0	674234368	62	5386
2026-01-03 23:43:49.48	88.89	47.02	-48.9	-51.6	13.6	4.50e-06	0	56	0	681574400	59	5243
2026-01-03 23:43:53.44	91.15	47.25	-48.8	-51.5	13.6	4.50e-05	0	56	0	689963008	60	4912
2026-01-03 23:43:57.39	93.44	47.43	-49.1	-51.9	13.3	5.30e-06	0	56	0	697303040	59	5423
2026-01-03 23:44:01.36	95.76	47.56	-49.9	-53.4	11.7	1.05e-03	0	56	0	704643072	62	5415
2026-01-03 23:44:05.31	98.08	47.64	-49.9	-53.5	11.5	2.46e-04	0	56	0	711983104	61	5850
2026-01-03 23:44:09.27	100.42	47.67	-49.0	-51.7	13.5	6.10e-06	0	56	0	719323136	60	5036
2026-01-03 23:44:13.24	102.77	47.65	-49.1	-52.0	13.1	2.05e-05	0	56	0	726663168	61	4909
2026-01-03 23:44:17.21	105.11	47.58	-47.6	-49.4	15.7	0.00e+00	0	56	0	734003200	58	4337
2026-01-03 23:44:21.16	107.43	47.46	-49.1	-51.9	13.3	1.44e-05	0	56	0	741343232	60	5106
2026-01-03 23:44:25.14	109.74	47.29	-49.1	-51.9	13.3	9.23e-05	0	56	0	748683264	61	4860
2026-01-03 23:44:29.08	112.00	47.08	-50.0	-53.5	11.7	1.24e-03	0	56	0	756023296	62	5510
2026-01-03 23:44:33.03	114.23	46.81	-48.3	-50.5	14.7	0.00e+00	0	57	0	763363328	59	4615
2026-01-03 23:44:37.00	116.44	46.51	-48.6	-51.1	14.2	0.00e+00	0	57	0	770703360	59	4942
2026-01-03 23:44:40.97	118.59	46.16	-47.0	-48.6	16.5	0.00e+00	0	57	0	779091968	57	4193
2026-01-03 23:44:44.91	120.69	45.77	-47.8	-49.8	15.4	0.00e+00	0	57	0	786432000	57	4769
2026-01-03 23:44:48.86	122.73	45.35	-49.5	-52.6	12.6	1.46e-04	0	57	0	793772032	61	5250
2026-01-03 23:44:52.82	124.73	44.89	-48.1	-50.3	14.9	0.00e+00	0	57	0	801112064	58	4777
2026-01-03 23:44:56.78	126.67	44.40	-46.0	-47.4	17.6	0.00e+00	0	57	0	808452096	55	4070
2026-01-03 23:45:00.73	128.54	43.88	-45.5	-46.7	18.1	0.00e+00	0	57	0	815792128	54	4004
2026-01-03 23:45:04.68	130.36	43.34	-46.4	-47.9	17.1	0.00e+00	0	57	0	823132160	55	4324
2026-01-03 23:45:08.63	132.11	42.78	-46.5	-48.1	17.0	0.00e+00	0	57	0	830472192	54	4663
2026-01-03 23:45:12.58	133.80	42.20	-44.5	-45.5	19.5	0.00e+00	0	57	0	837812224	51	4116
2026-01-03 23:45:16.54	135.44	41.60	-44.8	-45.9	19.0	0.00e+00	0	57	0	845152256	52	4089
2026-01-03 23:45:20.49	137.01	40.98	-46.5	-48.0	17.0	0.00e+00	0	57	0	852492288	55	4361
2026-01-03 23:45:24.45	138.53	40.36	-46.9	-48.6	16.4	0.00e+00	0	57	0	859832320	55	4685
2026-01-03 23:45:28.42	139.99	39.72	-46.7	-48.3	16.8	0.00e+00	0	57	0	867172352	56	4264
2026-01-03 23:45:32.35	141.39	39.08	-50.8	-55.9	9.2	2.28e-02	0	57	0	874512384	63	6835
2026-01-03 23:45:36.31	142.74	38.43	-48.7	-51.2	14.0	0.00e+00	0	57	0	882900992	59	4987
2026-01-03 23:45:40.27	144.04	37.77	-50.1	-53.8	11.2	2.61e-03	0	57	0	890241024	63	5398
2026-01-03 23:45:44.22	145.29	37.11	-50.2	-54.1	11.1	1.09e-03	0	57	0	897581056	62	5884
2026-01-03 23:45:48.18	146.49	36.45	-50.5	-54.8	10.3	1.00e-02	0	57	0	904921088	63	6007
2026-01-03 23:45:52.14	147.64	35.79	-51.8	-59.8	5.6	2.64e-01	0	57	0	912261120	65	9605
2026-01-03 23:45:56.10	148.75	35.14	-50.2	-54.1	10.9	5.37e-03	0	57	0	919601152	63	5563
2026-01-03 23:46:00.06	149.81	34.48	-49.7	-53.1	12.0	4.88e-05	0	57	0	926941184	61	5566
2026-01-03 23:46:04.04	150.84	33.83	-48.0	-50.1	15.0	7.60e-06	0	57	0	934281216	59	4401
2026-01-03 23:46:08.00	151.83	33.18	-47.6	-49.5	15.7	0.00e+00	0	57	0	941621248	57	4615
2026-01-03 23:46:11.95	152.78	32.54	-49.7	-53.0	12.1	1.02e-03	0	57	0	948961280	62	5196
2026-01-03 23:46:15.92	153.69	31.90	-48.0	-50.1	15.0	0.00e+00	0	57	0	956301312	58	4671
2026-01-03 23:46:19.89	154.57	31.27	-49.9	-53.5	11.6	3.93e-04	0	57	0	963641344	61	5831
2026-01-03 23:46:23.85	155.41	30.64	-47.5	-49.3	15.8	0.00e+00	0	57	0	972029952	58	4286
2026-01-03 23:46:27.81	156.23	30.02	-48.7	-51.2	13.9	0.00e+00	0	57	0	979369984	59	5011
2026-01-03 23:46:31.76	157.01	29.41	-50.1	-54.0	11.0	1.30e-03	0	57	0	986710016	62	5851
2026-01-03 23:46:35.72	157.77	28.81	-48.1	-50.3	14.8	0.00e+00	0	57	0	994050048	59	4495
2026-01-03 23:46:39.68	158.50	28.22	-48.1	-50.2	14.9	7.00e-07	0	57	0	1001390080	58	4735
2026-01-03 23:46:43.63	159.20	27.63	-49.1	-51.8	13.2	3.89e-05	0	57	0	1008730112	60	5084
2026-01-03 23:46:47.58	159.87	27.05	-46.2	-47.6	17.3	0.00e+00	0	57	0	1016070144	55	4186
2026-01-03 23:46:51.53	160.53	26.48	-46.3	-47.8	17.1	0.00e+00	0	57	0	1023410176	54	4505
2026-01-03 23:46:55.48	161.16	25.92	-47.7	-49.6	15.5	0.00e+00	0	57	0	1030750208	57	4693
2026-01-03 23:46:59.44	161.77	25.37	-48.4	-50.7	14.4	7.00e-07	0	57	0	1038090240	59	4741
2026-01-03 23:47:03.40	162.36	24.82	-47.1	-48.9	16.2	0.00e+00	0	57	0	1045430272	57	4315
2026-01-03 23:47:07.36	162.94	24.28	-46.9	-48.6	16.5	0.00e+00	0	57	0	1052770304	56	4396
2026-01-03 23:47:11.33	163.49	23.75	-48.0	-50.1	15.0	0.00e+00	0	57	0	1060110336	57	4943
2026-01-03 23:47:15.29	164.03	23.23	-47.4	-49.2	15.8	0.00e+00	0	57	0	1068498944	57	4487
2026-01-03 23:47:19.26	164.55	22.71	-47.6	-49.5	15.6	0.00e+00	0	57	0	1075838976	57	4615
2026-01-03 23:47:23.21	165.05	22.21	-47.3	-49.1	16.0	0.00e+00	0	57	0	1083179008	57	4415
2026-01-03 23:47:27.17	165.54	21.71	-47.1	-48.9	16.1	0.00e+00	0	57	0	1090519040	57	4314
2026-01-03 23:47:31.11	166.01	21.22	-47.2	-49.0	16.0	0.00e+00	0	57	0	1097859072	57	4389
2026-01-03 23:47:35.07	166.47	20.74	-47.6	-49.6	15.4	0.00e+00	0	57	0	1105199104	57	4683
2026-01-03 23:47:39.02	166.91	20.26	-48.2	-50.5	14.6	0.00e+00	0	57	0	1112539136	58	4877
2026-01-03 23:47:42.98	167.34	19.79	-48.6	-51.1	13.9	3.80e-06	0	57	0	1119879168	59	4948
2026-01-03 23:47:46.93	167.76	19.33	-48.3	-50.7	14.3	1.50e-06	0	57	0	1127219200	59	4751
2026-01-03 23:47:50.89	168.17	18.88	-47.6	-49.6	15.4	0.00e+00	0	57	0	1134559232	58	4408
2026-01-03 23:47:54.85	168.57	18.43	-47.1	-48.9	16.1	0.00e+00	0	57	0	1141899264	57	4312
2026-01-03 23:47:58.83	168.95	17.99	-47.3	-49.2	15.8	0.00e+00	0	57	0	1149239296	57	4462
2026-01-03 23:48:02.80	169.33	17.55	-47.5	-49.5	15.5	0.00e+00	0	57	0	1156579328	57	4612
2026-01-03 23:48:06.75	169.69	17.13	-47.9	-50.1	14.9	0.00e+00	0	57	0	1164967936	58	4654
2026-01-03 23:48:10.71	170.05	16.71	-48.1	-50.5	14.5	1.50e-06	0	57	0	1172307968	58	4880
2026-01-03 23:48:14.68	170.40	16.29	-48.1	-50.3	14.6	0.00e+00	0	57	0	1179648000	58	4786
2026-01-03 23:48:18.64	170.73	15.88	-48.4	-50.9	14.0	3.00e-06	0	57	0	1186988032	59	4835
2026-01-03 23:48:22.60	171.06	15.48	-47.2	-49.0	15.9	0.00e+00	0	57	0	1194328064	57	4366
2026-01-03 23:48:26.56	171.38	15.08	-47.3	-49.1	15.8	0.00e+00	0	57	0	1201668096	57	4404
2026-01-03 23:48:30.51	171.70	14.69	-47.3	-49.2	15.7	0.00e+00	0	57	0	1209008128	57	4448
2026-01-03 23:48:34.47	172.00	14.30	-47.6	-49.6	15.3	0.00e+00	0	57	0	1216348160	57	4700
2026-01-03 23:48:38.42	172.30	13.92	-48.2	-50.5	14.4	7.00e-07	0	57	0	1223688192	58	4901
2026-01-03 23:48:42.38	172.59	13.55	-48.6	-51.3	13.6	3.80e-06	0	57	0	1231028224	59	5055
2026-01-03 23:48:46.34	172.87	13.18	-48.9	-51.7	13.2	2.44e-05	0	57	0	1238368256	59	5289
2026-01-03 23:48:50.30	173.15	12.81	-48.7	-51.4	13.4	1.90e-05	0	57	0	1245708288	59	5155
2026-01-03 23:48:54.27	173.42	12.45	-48.3	-50.9	13.9	5.30e-06	0	57	0	1253048320	59	4835
2026-01-03 23:48:58.23	173.68	12.10	-48.1	-50.5	14.3	2.20e-06	0	57	0	1261436928	59	4617
2026-01-03 23:49:02.19	173.94	11.74	-47.4	-49.3	15.5	0.00e+00	0	57	0	1268776960	57	4512
2026-01-03 23:49:06.15	174.20	11.40	-47.1	-48.8	15.9	0.00e+00	0	57	0	1276116992	57	4283
2026-01-03 23:49:10.12	174.44	11.06	-47.0	-48.9	15.9	0.00e+00	0	57	0	1283457024	57	4298
2026-01-03 23:49:14.08	174.69	10.72	-47.4	-49.4	15.3	0.00e+00	0	57	0	1290797056	57	4567
2026-01-03 23:49:18.04	174.92	10.38	-47.3	-49.3	15.4	0.00e+00	0	57	0	1298137088	57	4516
2026-01-03 23:49:21.98	175.15	10.06	-47.7	-49.8	14.9	0.00e+00	0	57	0	1305477120	57	4797
2026-01-03 23:49:25.94	175.38	9.73	-47.7	-49.9	14.8	0.00e+00	0	57	0	1312817152	57	4848
2026-01-03 23:49:29.89	175.60	9.41	-47.9	-50.2	14.4	0.00e+00	0	57	0	1320157184	57	5036
2026-01-03 23:49:33.86	175.82	9.09	-48.0	-50.4	14.2	0.00e+00	0	57	0	1327497216	57	5151
2026-01-03 23:49:37.81	176.04	8.78	-48.2	-50.8	13.9	8.30e-06	0	57	0	1334837248	58	5046
2026-01-03 23:49:41.77	176.25	8.46	-48.4	-51.0	13.6	1.67e-05	0	57	0	1342177280	58	5173
2026-01-03 23:49:45.73	176.45	8.16	-48.6	-51.5	13.1	5.03e-05	0	58	0	1350565888	59	5174
2026-01-03 23:49:49.70	176.65	7.85	-48.8	-51.8	12.7	5.72e-05	0	57	0	1357905920	59	5386
2026-01-03 23:49:53.66	176.85	7.55	-48.7	-51.7	12.8	6.02e-05	0	58	0	1365245952	59	5322
2026-01-03 23:49:57.64	177.05	7.25	-48.9	-51.9	12.5	1.65e-04	0	57	0	1372585984	59	5460
2026-01-03 23:50:01.59	177.23	6.96	-48.8	-52.0	12.4	1.40e-04	0	57	0	1379926016	60	5173
2026-01-03 23:50:05.55	177.42	6.67	-49.2	-52.7	11.6	7.90e-04	0	57	0	1387266048	60	5626
2026-01-03 23:50:09.51	177.61	6.38	-49.4	-53.2	11.1	1.42e-03	0	57	0	1394606080	60	5955
2026-01-03 23:50:13.46	177.78	6.10	-49.5	-53.5	10.7	2.77e-03	0	57	0	1401946112	60	6167
2026-01-03 23:50:17.42	177.96	5.81	-49.5	-53.8	10.3	5.91e-03	0	57	0	1409286144	61	6048
2026-01-03 23:50:21.37	178.14	5.54	-49.7	-54.3	9.7	1.45e-02	0	57	0	1416626176	61	6388
2026-01-03 23:50:25.33	178.31	5.26	-49.9	-55.0	8.9	2.92e-02	0	57	0	1423966208	61	6936
2026-01-03 23:50:29.27	178.47	4.99	-51.3	-65.0	3.8	8.18e-02	0	57	104	1431306240	64	18496
2026-01-03 23:50:33.23	178.64	4.72	-52.2	-66.0	3.8	1.49e+00	0	57	104	1431306240	66	18455
2026-01-03 23:50:37.19	178.80	4.45	-52.4	-66.3	3.8	1.49e+00	0	58	104	1431306240	66	18971
2026-01-03 23:50:41.16	178.96	4.18	-52.4	-66.4	3.8	1.49e+00	0	58	104	1431306240	66	19199
2026-01-03 23:50:45.12	179.12	3.92	-52.5	-66.4	3.8	1.49e+00	0	58	104	1431306240	67	18167
2026-01-03 23:50:49.08	179.27	3.66	-52.5	-66.4	3.8	1.49e+00	0	58	104	1431306240	67	18240
2026-01-03 23:50:53.05	179.42	3.40	-52.5	-66.4	3.8	1.49e+00	0	58	104	1431306240	67	18300
2026-01-03 23:50:57.01	179.57	3.14	-52.6	-66.4	3.8	1.49e+00	0	58	104	1431306240	67	18269

#Closed at: 2026-01-03 23:50:59
#Recorded file [1431 MB]: D:/Data/31026_260104_025029.dat