passes_logs/2026/01/03/R3.0SM8_Murmansk_STILSPACE/R3.0SM8_Murmansk_STILSPACE__20260103_011322_AQUA_rec.log

#Pass ID: 20260103_011322_AQUA
#Satellite: AQUA
#Configuration: AQUA
#almurnet v.1.7.20240730
#Start time: 2026-01-03 01:21:02

#Version: 2.2.20231116
#Station: R3.0SM8_Murmansk_STILSPACE
#Location: 33.092731 lon 68.902999 lat
#TLE: 1 27424U 02022A   25365.92641127  .00002078  00000+0  42628-3 0  9999
#TLE: 2 27424  98.4058 327.1196 0001962  94.7781 340.6230 14.61783896258835

#Time	Az	El	Level	Level2	SNR	BER	BlckErr	Temp	State	Recorded	gain1	gain2
2026-01-03 01:21:02.04	147.20	32.47	-53.5	-65.0	3.8	1.49e+00	0	56	0	0	68	14598
2026-01-03 01:21:04.00	147.80	32.13	-55.1	-75.1	3.8	7.47e-01	0	57	104	0	72	37852
2026-01-03 01:21:05.97	148.38	31.79	-55.1	-75.0	3.8	7.47e-01	0	57	104	0	72	37778
2026-01-03 01:21:07.94	148.96	31.45	-55.1	-75.0	3.8	7.46e-01	0	57	104	0	72	37627
2026-01-03 01:21:09.91	149.52	31.11	-55.1	-75.0	3.8	7.45e-01	0	57	104	0	72	37528
2026-01-03 01:21:11.88	150.07	30.78	-55.1	-75.0	3.8	7.45e-01	0	57	104	0	72	37535
2026-01-03 01:21:13.86	150.61	30.44	-55.1	-74.9	3.8	7.47e-01	0	57	104	0	72	37278
2026-01-03 01:21:15.83	151.14	30.10	-55.0	-75.0	3.8	7.43e-01	0	57	104	0	72	37542
2026-01-03 01:21:17.81	151.66	29.77	-55.0	-74.9	3.8	7.48e-01	0	57	104	0	72	37336
2026-01-03 01:21:19.79	152.16	29.44	-55.0	-74.0	3.8	7.44e-01	0	57	104	0	72	33628
2026-01-03 01:21:21.76	152.66	29.11	-54.9	-74.3	3.9	7.43e-01	0	57	104	0	72	34533
2026-01-03 01:21:23.73	153.15	28.78	-54.9	-74.1	3.8	7.44e-01	0	57	104	0	72	33961
2026-01-03 01:21:25.72	153.63	28.45	-54.9	-74.6	3.8	7.43e-01	0	57	104	0	72	35754
2026-01-03 01:21:27.70	154.09	28.13	-54.9	-74.3	3.8	7.42e-01	0	57	104	0	72	34508
2026-01-03 01:21:29.67	154.55	27.81	-54.9	-74.6	3.8	7.44e-01	0	57	104	0	72	35980
2026-01-03 01:21:31.65	155.00	27.49	-54.9	-74.6	3.8	7.44e-01	0	57	104	0	72	35900
2026-01-03 01:21:33.64	155.44	27.17	-54.9	-74.6	3.8	7.46e-01	0	57	104	0	72	35787
2026-01-03 01:21:35.63	155.88	26.85	-54.9	-74.4	3.8	7.46e-01	0	57	104	0	72	35038
2026-01-03 01:21:37.61	156.30	26.54	-54.9	-74.7	3.8	7.43e-01	0	57	104	0	72	36447
2026-01-03 01:21:39.59	156.71	26.23	-54.9	-73.9	3.8	7.44e-01	0	57	104	0	72	33001
2026-01-03 01:21:41.57	157.12	25.92	-54.8	-71.6	3.9	7.41e-01	0	57	104	0	72	25530
2026-01-03 01:21:43.55	157.52	25.61	-54.8	-71.1	4.2	7.38e-01	0	57	104	0	72	24057
2026-01-03 01:21:45.53	157.91	25.31	-54.9	-74.1	3.8	7.43e-01	0	57	104	0	72	34037
2026-01-03 01:21:47.50	158.29	25.01	-54.8	-71.6	4.1	7.34e-01	0	57	104	0	72	25425
2026-01-03 01:21:49.48	158.67	24.71	-54.9	-73.0	3.8	7.43e-01	0	57	104	0	72	29739
2026-01-03 01:21:51.46	159.04	24.41	-54.6	-67.0	6.3	6.72e-01	92	57	0	0	72	15034
2026-01-03 01:21:53.43	159.40	24.12	-53.4	-59.1	14.6	6.04e-01	0	57	0	3670016	70	6774
2026-01-03 01:21:55.42	159.75	23.83	-51.2	-54.1	19.5	6.04e-01	0	57	0	7340032	66	4795
2026-01-03 01:21:57.41	160.10	23.54	-50.3	-52.7	21.0	6.02e-01	0	57	0	11010048	64	4554
2026-01-03 01:21:59.38	160.44	23.25	-49.4	-51.3	22.4	6.02e-01	0	57	0	14680064	62	4365
2026-01-03 01:22:01.35	160.78	22.97	-49.9	-52.0	21.7	6.01e-01	0	57	0	18874368	62	4733
2026-01-03 01:22:03.33	161.11	22.69	-51.7	-55.0	18.8	6.05e-01	0	57	0	22544384	65	5636
2026-01-03 01:22:05.30	161.43	22.41	-53.7	-60.1	13.7	6.05e-01	0	57	0	26214400	69	8068
2026-01-03 01:22:07.28	161.75	22.13	-54.1	-62.2	11.4	6.12e-01	0	57	0	29884416	70	9635
2026-01-03 01:22:09.26	162.06	21.86	-54.2	-62.5	11.2	6.13e-01	0	57	0	33554432	70	10027
2026-01-03 01:22:11.25	162.37	21.58	-54.0	-61.8	11.8	6.10e-01	0	57	0	37224448	70	9219
2026-01-03 01:22:13.23	162.67	21.31	-53.3	-58.9	14.9	6.05e-01	0	57	0	40894464	70	6603
2026-01-03 01:22:15.22	162.97	21.05	-52.3	-56.3	17.4	6.04e-01	0	57	0	44564480	68	5492
2026-01-03 01:22:17.21	163.26	20.78	-51.1	-54.1	19.6	6.03e-01	0	57	0	48234496	65	5043
2026-01-03 01:22:19.19	163.54	20.52	-50.2	-52.6	21.1	6.03e-01	0	57	0	51904512	63	4790
2026-01-03 01:22:21.17	163.82	20.26	-49.5	-51.5	22.2	6.03e-01	0	57	0	55574528	62	4445
2026-01-03 01:22:23.14	164.10	20.00	-49.2	-51.1	22.6	6.05e-01	0	57	0	59768832	61	4503
2026-01-03 01:22:25.11	164.37	19.75	-49.1	-51.0	22.6	6.03e-01	0	57	0	63438848	61	4478
2026-01-03 01:22:27.08	164.63	19.49	-48.6	-50.3	23.2	6.03e-01	0	57	0	66584576	60	4387
2026-01-03 01:22:29.05	164.90	19.24	-48.5	-50.2	23.4	6.04e-01	0	57	0	70778880	60	4317
2026-01-03 01:22:31.02	165.15	19.00	-48.7	-50.4	23.2	6.00e-01	0	57	0	74448896	60	4417
2026-01-03 01:22:32.99	165.41	18.75	-48.7	-50.5	23.1	6.04e-01	0	57	0	78118912	60	4464
2026-01-03 01:22:34.98	165.66	18.50	-49.0	-50.9	22.8	6.06e-01	0	57	0	81788928	60	4660
2026-01-03 01:22:36.95	165.90	18.26	-48.8	-50.5	23.0	6.05e-01	0	57	0	85458944	60	4479
2026-01-03 01:22:38.94	166.14	18.02	-49.0	-50.9	22.7	6.05e-01	0	57	0	89128960	60	4677
2026-01-03 01:22:40.91	166.38	17.78	-48.7	-50.5	23.1	6.03e-01	0	57	0	92798976	60	4442
2026-01-03 01:22:42.90	166.62	17.55	-48.5	-50.2	23.3	6.04e-01	0	57	0	96468992	60	4306
2026-01-03 01:22:44.88	166.85	17.31	-48.6	-50.4	23.2	6.06e-01	0	57	0	100139008	60	4394
2026-01-03 01:22:46.86	167.07	17.08	-48.6	-50.3	23.2	6.06e-01	0	57	0	103809024	60	4364
2026-01-03 01:22:48.84	167.30	16.85	-48.8	-50.5	23.0	6.02e-01	0	57	0	107479040	60	4492
2026-01-03 01:22:50.82	167.52	16.62	-48.8	-50.5	23.0	6.02e-01	0	57	0	111149056	60	4489
2026-01-03 01:22:52.80	167.73	16.40	-48.8	-50.6	22.8	6.03e-01	0	57	0	115343360	60	4544
2026-01-03 01:22:54.77	167.95	16.17	-48.6	-50.3	23.2	6.03e-01	0	57	0	119013376	60	4376
2026-01-03 01:22:56.75	168.16	15.95	-48.7	-50.5	23.0	6.03e-01	0	57	0	122683392	60	4471
2026-01-03 01:22:58.74	168.36	15.73	-48.8	-50.5	23.0	6.05e-01	0	57	0	126353408	60	4483
2026-01-03 01:23:00.72	168.57	15.51	-48.9	-50.8	22.8	6.04e-01	0	57	0	130023424	60	4614
2026-01-03 01:23:02.70	168.77	15.30	-48.9	-50.7	22.9	6.04e-01	0	57	0	133693440	60	4551
2026-01-03 01:23:04.68	168.97	15.08	-48.7	-50.5	23.0	6.04e-01	0	57	0	137363456	60	4455
2026-01-03 01:23:06.66	169.16	14.87	-48.9	-50.8	22.7	6.04e-01	0	57	0	141033472	60	4610
2026-01-03 01:23:08.64	169.35	14.66	-49.0	-50.9	22.6	6.04e-01	0	57	0	144703488	60	4656
2026-01-03 01:23:10.62	169.54	14.45	-49.1	-50.9	22.6	6.02e-01	0	57	0	148373504	60	4703
2026-01-03 01:23:12.60	169.73	14.24	-48.9	-50.7	22.8	6.06e-01	0	57	0	152043520	60	4568
2026-01-03 01:23:14.58	169.91	14.03	-48.9	-50.8	22.7	6.02e-01	0	57	0	155713536	60	4601
2026-01-03 01:23:16.55	170.09	13.83	-48.9	-50.7	22.7	6.04e-01	0	57	0	159907840	60	4597
2026-01-03 01:23:18.54	170.27	13.63	-48.9	-50.7	22.7	6.01e-01	0	57	0	163053568	60	4588
2026-01-03 01:23:20.53	170.45	13.42	-49.1	-51.0	22.4	6.04e-01	0	57	0	167247872	60	4733
2026-01-03 01:23:22.50	170.62	13.23	-48.8	-50.6	22.8	6.03e-01	0	57	0	170917888	60	4528
2026-01-03 01:23:24.49	170.80	13.03	-48.7	-50.6	22.9	6.05e-01	0	57	0	174587904	60	4495
2026-01-03 01:23:26.47	170.97	12.83	-48.8	-50.7	22.8	6.01e-01	0	57	0	178257920	60	4553
2026-01-03 01:23:28.43	171.13	12.64	-48.7	-50.5	22.9	6.04e-01	0	57	0	181927936	60	4489
2026-01-03 01:23:30.40	171.30	12.44	-48.9	-50.8	22.7	6.02e-01	0	57	0	185597952	60	4604
2026-01-03 01:23:32.37	171.46	12.25	-48.9	-50.8	22.6	6.02e-01	0	57	0	189267968	60	4616
2026-01-03 01:23:34.34	171.62	12.06	-49.0	-50.9	22.5	6.05e-01	0	57	0	192937984	60	4691
2026-01-03 01:23:36.31	171.78	11.88	-49.1	-51.0	22.4	6.05e-01	0	57	0	196608000	60	4737
2026-01-03 01:23:38.29	171.93	11.69	-49.5	-51.7	21.8	6.02e-01	0	57	0	200278016	61	4818
2026-01-03 01:23:40.28	172.09	11.50	-49.6	-51.7	21.6	6.02e-01	0	57	0	203948032	61	4860
2026-01-03 01:23:42.25	172.24	11.32	-49.6	-51.8	21.6	6.01e-01	0	57	0	207618048	61	4895
2026-01-03 01:23:44.23	172.39	11.13	-49.6	-51.8	21.6	6.03e-01	0	57	0	211288064	61	4889
2026-01-03 01:23:46.20	172.54	10.95	-49.2	-51.3	22.1	6.03e-01	0	57	0	215482368	61	4601
2026-01-03 01:23:48.19	172.68	10.77	-49.3	-51.4	22.0	6.03e-01	0	57	0	219152384	61	4668
2026-01-03 01:23:50.17	172.83	10.59	-49.3	-51.4	21.9	6.05e-01	0	57	0	222822400	61	4700
2026-01-03 01:23:52.13	172.97	10.42	-49.4	-51.5	21.8	6.03e-01	0	57	0	226492416	61	4707
2026-01-03 01:23:54.11	173.11	10.24	-49.8	-52.1	21.2	6.03e-01	0	57	0	230162432	61	5056
2026-01-03 01:23:56.09	173.25	10.06	-49.5	-51.6	21.7	6.02e-01	0	57	0	233832448	61	4791
2026-01-03 01:23:58.08	173.39	9.89	-49.8	-52.1	21.2	6.04e-01	0	57	0	237502464	61	5099
2026-01-03 01:24:00.05	173.53	9.72	-49.9	-52.3	21.0	6.04e-01	0	57	0	241172480	62	4910
2026-01-03 01:24:02.02	173.66	9.55	-49.7	-51.9	21.4	6.04e-01	0	57	0	244842496	62	4690
2026-01-03 01:24:04.00	173.79	9.38	-49.6	-51.7	21.5	6.02e-01	0	57	0	248512512	62	4596
2026-01-03 01:24:05.99	173.93	9.21	-49.7	-52.0	21.3	6.01e-01	0	57	0	252182528	62	4720
2026-01-03 01:24:07.98	174.06	9.04	-49.4	-51.6	21.7	6.05e-01	0	57	0	255852544	62	4505
2026-01-03 01:24:09.96	174.18	8.87	-49.4	-51.6	21.6	6.05e-01	0	57	0	259522560	62	4517
2026-01-03 01:24:11.93	174.31	8.70	-49.6	-51.8	21.5	6.03e-01	0	57	0	263192576	62	4614
2026-01-03 01:24:13.91	174.44	8.54	-49.6	-51.9	21.4	6.03e-01	0	57	0	267386880	62	4666
2026-01-03 01:24:15.89	174.56	8.38	-49.7	-52.1	21.1	6.03e-01	0	57	0	271056896	62	4767
2026-01-03 01:24:17.87	174.68	8.21	-50.0	-52.4	20.8	6.03e-01	0	57	0	274726912	62	4962
2026-01-03 01:24:19.84	174.80	8.05	-49.6	-51.9	21.3	6.02e-01	0	57	0	278396928	62	4661
2026-01-03 01:24:21.82	174.92	7.89	-49.7	-52.0	21.1	6.03e-01	0	57	0	282066944	62	4733
2026-01-03 01:24:23.80	175.04	7.73	-49.9	-52.4	20.8	6.03e-01	0	57	0	285736960	62	4946
2026-01-03 01:24:25.78	175.16	7.57	-49.9	-52.3	20.9	6.04e-01	0	57	0	289406976	62	4886
2026-01-03 01:24:27.76	175.28	7.42	-49.9	-52.4	20.7	6.04e-01	0	57	0	293076992	62	4967
2026-01-03 01:24:29.74	175.39	7.26	-50.1	-52.7	20.4	6.02e-01	0	57	0	296747008	62	5148
2026-01-03 01:24:31.72	175.50	7.10	-50.0	-52.6	20.4	6.02e-01	0	57	0	300417024	62	5042
2026-01-03 01:24:33.69	175.62	6.95	-50.1	-52.7	20.4	6.03e-01	0	57	0	304087040	62	5126
2026-01-03 01:24:35.67	175.73	6.80	-50.1	-52.7	20.3	6.03e-01	0	57	0	307757056	62	5158
2026-01-03 01:24:37.65	175.84	6.64	-50.4	-53.2	19.8	6.06e-01	0	57	0	311951360	63	5116
2026-01-03 01:24:39.62	175.95	6.49	-50.1	-52.8	20.3	6.00e-01	0	57	0	315621376	63	4872
2026-01-03 01:24:41.60	176.05	6.34	-50.3	-53.1	19.9	6.02e-01	0	57	0	319291392	63	5044
2026-01-03 01:24:43.58	176.16	6.19	-50.2	-53.0	19.9	6.03e-01	0	57	0	322961408	63	5036
2026-01-03 01:24:45.56	176.27	6.04	-50.5	-53.5	19.4	6.02e-01	0	57	0	326631424	63	5306
2026-01-03 01:24:47.55	176.37	5.89	-50.7	-53.9	19.0	6.03e-01	0	57	0	330301440	63	5580
2026-01-03 01:24:49.53	176.47	5.75	-50.7	-53.9	18.9	6.03e-01	0	57	0	333971456	64	5245
2026-01-03 01:24:51.50	176.58	5.60	-50.6	-53.8	19.0	6.02e-01	0	57	0	337641472	64	5187
2026-01-03 01:24:53.48	176.68	5.46	-50.6	-53.8	19.0	6.03e-01	0	57	0	341311488	64	5211
2026-01-03 01:24:55.46	176.78	5.31	-50.6	-53.9	18.9	6.02e-01	0	57	0	344981504	64	5238
2026-01-03 01:24:57.43	176.88	5.17	-50.5	-53.6	19.1	6.05e-01	0	57	0	348651520	64	5099
2026-01-03 01:24:59.41	176.97	5.02	-54.0	-72.6	3.8	7.49e-01	0	57	104	351797248	70	32095
2026-01-03 01:25:01.39	177.07	4.88	-54.5	-74.4	3.8	7.49e-01	0	57	104	351797248	71	37201
2026-01-03 01:25:03.37	177.17	4.74	-54.8	-74.7	3.8	7.43e-01	0	57	104	351797248	71	38495
2026-01-03 01:25:05.35	177.26	4.60	-54.9	-74.7	3.8	7.47e-01	0	57	104	351797248	72	36506
2026-01-03 01:25:07.33	177.36	4.46	-54.9	-74.8	3.8	7.42e-01	0	57	104	351797248	72	36854
2026-01-03 01:25:09.30	177.45	4.32	-55.0	-74.9	3.8	7.46e-01	0	57	104	351797248	72	37090
2026-01-03 01:25:11.27	177.54	4.18	-55.0	-74.9	3.8	7.46e-01	0	57	104	351797248	72	37288
2026-01-03 01:25:13.25	177.63	4.05	-55.0	-74.9	3.8	7.48e-01	0	57	104	351797248	72	37339
2026-01-03 01:25:15.24	177.73	3.91	-55.0	-75.0	3.8	7.47e-01	0	57	104	351797248	72	37409
2026-01-03 01:25:17.21	177.82	3.77	-55.1	-75.0	3.8	7.48e-01	0	57	104	351797248	72	37551
2026-01-03 01:25:19.19	177.90	3.64	-55.1	-75.0	3.8	7.47e-01	0	57	104	351797248	72	37781
2026-01-03 01:25:21.17	177.99	3.50	-55.1	-75.0	3.8	7.46e-01	0	57	104	351797248	72	37757
2026-01-03 01:25:23.16	178.08	3.37	-55.1	-75.0	3.8	7.48e-01	0	57	104	351797248	72	37768
2026-01-03 01:25:25.14	178.17	3.23	-55.1	-75.1	3.8	7.49e-01	0	57	104	351797248	72	37872
2026-01-03 01:25:27.12	178.25	3.10	-55.1	-75.1	3.8	7.45e-01	0	57	104	351797248	72	37852
2026-01-03 01:25:29.09	178.34	2.97	-55.1	-75.1	3.8	7.43e-01	0	57	104	351797248	72	37812

#Closed at: 2026-01-03 01:25:30
#Recorded file [351 MB]: D:/Data/31026_260103_042459.dat