passes_logs/2026/01/03/R3.0SM8_Murmansk_STILSPACE/R3.0SM8_Murmansk_STILSPACE__20260103_124816_NOAA_21_JPSS-2_rec.log

#Pass ID: 20260103_124816_NOAA 21 (JPSS-2)
#Satellite: NOAA 21 (JPSS-2)
#Configuration: NOAA-21
#almurnet v.1.7.20240730
#Start time: 2026-01-03 12:48:16

#Version: 2.2.20231116
#Station: R3.0SM8_Murmansk_STILSPACE
#Location: 33.092731 lon 68.902999 lat
#TLE: 1 54234U 22150A   26002.25486487  .00000200  00000+0  11573-3 0  9993
#TLE: 2 54234  98.7485 303.3096 0001220 350.9074   9.2080 14.19531212163006

#Time	Az	El	Level	Level2	SNR	BER	BlckErr	Temp	State	Recorded	gain1	gain2
2026-01-03 12:48:16.65	238.92	2.99	-52.7	-64.3	3.8	1.49e+00	0	46	0	0	67	14370
2026-01-03 12:48:19.62	239.21	3.13	-52.5	-64.4	3.8	1.49e+00	0	47	104	0	68	13572
2026-01-03 12:48:22.58	239.51	3.27	-52.6	-64.3	3.8	1.49e+00	0	47	104	0	68	13481
2026-01-03 12:48:25.55	239.82	3.41	-52.5	-64.2	3.8	1.49e+00	0	47	104	0	68	13364
2026-01-03 12:48:28.52	240.12	3.55	-52.4	-64.0	3.8	1.49e+00	0	47	104	0	67	13746
2026-01-03 12:48:31.48	240.43	3.69	-51.7	-63.4	3.8	1.49e+00	0	47	104	0	66	13653
2026-01-03 12:48:34.44	240.74	3.83	-50.6	-62.1	3.8	1.49e+00	0	48	104	0	64	13241
2026-01-03 12:48:37.40	241.06	3.97	-50.5	-62.0	3.8	1.49e+00	0	48	104	0	64	13106
2026-01-03 12:48:40.36	241.37	4.11	-50.6	-62.0	3.8	1.49e+00	0	48	104	0	64	12977
2026-01-03 12:48:43.32	241.69	4.25	-50.5	-61.9	3.8	1.49e+00	0	48	104	0	64	12949
2026-01-03 12:48:46.30	242.02	4.40	-50.5	-62.0	3.8	1.49e+00	0	48	104	0	64	12996
2026-01-03 12:48:49.26	242.34	4.54	-50.5	-61.9	3.8	1.49e+00	0	48	104	0	64	12956
2026-01-03 12:48:52.22	242.67	4.68	-50.6	-61.4	3.8	1.49e+00	0	49	104	0	64	12138
2026-01-03 12:48:55.17	243.00	4.81	-49.6	-55.4	5.8	1.31e+00	0	49	104	0	62	6872
2026-01-03 12:48:58.14	243.33	4.96	-48.7	-52.4	8.6	1.65e-02	0	49	0	5242880	59	5784
2026-01-03 12:49:01.11	243.67	5.10	-50.2	-58.0	4.0	1.49e+00	0	49	104	11534336	63	8662
2026-01-03 12:49:04.05	244.01	5.23	-49.2	-53.0	8.6	4.85e-02	0	49	0	3145728	61	5469
2026-01-03 12:49:07.02	244.36	5.37	-49.7	-53.6	8.4	4.09e-02	0	49	0	12582912	61	5916
2026-01-03 12:49:09.99	244.70	5.52	-49.3	-52.8	9.3	1.69e-02	0	50	0	20971520	61	5347
2026-01-03 12:49:12.96	245.06	5.65	-49.2	-52.4	9.7	1.02e-02	0	50	0	30408704	61	5141
2026-01-03 12:49:15.91	245.41	5.79	-48.7	-51.7	10.5	4.95e-03	0	50	0	39845888	60	4996
2026-01-03 12:49:18.88	245.77	5.93	-47.8	-50.0	12.3	2.62e-04	0	50	0	49283072	58	4630
2026-01-03 12:49:21.86	246.13	6.07	-47.2	-49.0	13.3	1.90e-05	0	50	0	58720256	57	4377
2026-01-03 12:49:24.83	246.49	6.21	-46.9	-48.7	13.6	6.80e-06	0	50	0	68157440	57	4234
2026-01-03 12:49:27.77	246.86	6.35	-46.7	-48.4	14.0	3.00e-06	0	50	0	77594624	56	4304
2026-01-03 12:49:30.73	247.23	6.49	-46.8	-48.4	13.9	3.80e-06	0	50	0	85983232	56	4335
2026-01-03 12:49:33.71	247.60	6.63	-46.8	-48.5	13.8	3.80e-06	0	51	0	95420416	56	4380
2026-01-03 12:49:36.68	247.98	6.77	-46.8	-48.5	13.9	3.00e-06	0	51	0	104857600	56	4359
2026-01-03 12:49:39.65	248.36	6.90	-46.7	-48.4	14.1	2.20e-06	0	51	0	114294784	56	4296
2026-01-03 12:49:42.63	248.75	7.04	-46.8	-48.5	14.0	7.00e-07	0	51	0	123731968	56	4359
2026-01-03 12:49:45.60	249.13	7.18	-46.8	-48.4	14.0	3.80e-06	0	51	0	133169152	56	4340
2026-01-03 12:49:48.56	249.53	7.32	-46.9	-48.6	13.9	4.50e-06	0	51	0	142606336	56	4419
2026-01-03 12:49:51.52	249.92	7.45	-46.9	-48.7	13.8	3.00e-06	0	51	0	150994944	56	4453
2026-01-03 12:49:54.50	250.32	7.59	-46.6	-48.2	14.3	1.50e-06	0	52	0	160432128	56	4219
2026-01-03 12:49:57.48	250.72	7.72	-46.6	-48.2	14.3	3.00e-06	0	52	0	169869312	56	4238
2026-01-03 12:50:00.46	251.13	7.86	-46.5	-48.1	14.4	0.00e+00	0	52	0	179306496	56	4171
2026-01-03 12:50:03.43	251.54	7.99	-46.7	-48.3	14.2	7.00e-07	0	52	0	188743680	56	4282
2026-01-03 12:50:06.39	251.95	8.13	-46.6	-48.1	14.5	1.50e-06	0	52	0	198180864	56	4159
2026-01-03 12:50:09.35	252.37	8.26	-46.2	-47.7	14.8	0.00e+00	0	52	0	207618048	55	4206
2026-01-03 12:50:12.32	252.79	8.39	-46.1	-47.4	15.0	0.00e+00	0	52	0	216006656	55	4096
2026-01-03 12:50:15.28	253.21	8.53	-46.1	-47.5	15.0	0.00e+00	0	52	0	225443840	55	4141
2026-01-03 12:50:18.24	253.64	8.66	-46.2	-47.6	14.8	0.00e+00	0	52	0	234881024	55	4193
2026-01-03 12:50:21.22	254.07	8.79	-46.0	-47.3	15.2	0.00e+00	0	52	0	244318208	55	4045
2026-01-03 12:50:24.19	254.51	8.92	-46.2	-47.6	14.9	1.50e-06	0	52	0	253755392	55	4165
2026-01-03 12:50:27.16	254.95	9.05	-46.1	-47.5	15.0	0.00e+00	0	52	0	263192576	55	4126
2026-01-03 12:50:30.11	255.39	9.18	-46.2	-47.6	14.9	0.00e+00	0	53	0	271581184	55	4171
2026-01-03 12:50:33.07	255.83	9.30	-45.9	-47.3	15.2	0.00e+00	0	53	0	281018368	55	4039
2026-01-03 12:50:36.04	256.28	9.43	-46.0	-47.3	15.2	0.00e+00	0	53	0	290455552	55	4049
2026-01-03 12:50:39.00	256.73	9.56	-45.9	-47.2	15.3	0.00e+00	0	53	0	299892736	54	4218
2026-01-03 12:50:41.96	257.19	9.68	-45.9	-47.3	15.3	0.00e+00	0	53	0	309329920	54	4244
2026-01-03 12:50:44.92	257.65	9.80	-45.8	-47.1	15.5	0.00e+00	0	53	0	317718528	54	4167
2026-01-03 12:50:47.89	258.12	9.93	-45.9	-47.2	15.4	0.00e+00	0	53	0	327155712	54	4207
2026-01-03 12:50:50.85	258.58	10.05	-45.8	-47.1	15.5	0.00e+00	0	53	0	336592896	54	4167
2026-01-03 12:50:53.81	259.05	10.17	-46.0	-47.4	15.2	0.00e+00	0	53	0	346030080	54	4302
2026-01-03 12:50:56.78	259.53	10.29	-45.8	-47.1	15.5	0.00e+00	0	53	0	355467264	54	4180
2026-01-03 12:50:59.74	260.01	10.41	-45.9	-47.2	15.4	0.00e+00	0	53	0	364904448	54	4232
2026-01-03 12:51:02.70	260.49	10.52	-46.0	-47.3	15.3	0.00e+00	0	53	0	374341632	54	4272
2026-01-03 12:51:05.67	260.98	10.64	-46.1	-47.5	15.1	0.00e+00	0	53	0	382730240	54	4365
2026-01-03 12:51:08.64	261.47	10.76	-46.2	-47.6	15.1	0.00e+00	0	53	0	392167424	54	4401
2026-01-03 12:51:11.60	261.97	10.87	-46.2	-47.5	15.1	0.00e+00	0	53	0	401604608	54	4383
2026-01-03 12:51:14.55	262.46	10.98	-46.2	-47.6	15.1	0.00e+00	0	53	0	411041792	54	4392
2026-01-03 12:51:17.51	262.96	11.09	-45.7	-47.0	15.6	0.00e+00	0	54	0	420478976	54	4126
2026-01-03 12:51:20.48	263.47	11.20	-45.7	-47.0	15.6	0.00e+00	0	54	0	428867584	54	4132
2026-01-03 12:51:23.44	263.98	11.31	-46.0	-47.3	15.3	0.00e+00	0	54	0	438304768	54	4259
2026-01-03 12:51:26.42	264.49	11.41	-45.9	-47.1	15.5	0.00e+00	0	54	0	447741952	54	4190
2026-01-03 12:51:29.39	265.01	11.52	-45.8	-47.1	15.5	0.00e+00	0	54	0	457179136	54	4184
2026-01-03 12:51:32.35	265.53	11.62	-46.1	-47.4	15.3	0.00e+00	0	54	0	466616320	54	4311
2026-01-03 12:51:35.31	266.05	11.72	-46.2	-47.7	15.0	0.00e+00	0	54	0	476053504	54	4443
2026-01-03 12:51:38.28	266.58	11.82	-46.0	-47.4	15.3	0.00e+00	0	54	0	484442112	54	4292
2026-01-03 12:51:41.23	267.11	11.92	-45.7	-47.0	15.6	0.00e+00	0	54	0	493879296	54	4118
2026-01-03 12:51:44.20	267.64	12.01	-45.8	-47.1	15.5	0.00e+00	0	54	0	503316480	54	4185
2026-01-03 12:51:47.17	268.18	12.11	-45.8	-47.0	15.6	0.00e+00	0	54	0	512753664	54	4145
2026-01-03 12:51:50.14	268.72	12.20	-45.7	-47.0	15.6	0.00e+00	0	54	0	522190848	54	4118
2026-01-03 12:51:53.12	269.26	12.29	-45.8	-47.1	15.5	0.00e+00	0	54	0	531628032	54	4153
2026-01-03 12:51:56.08	269.81	12.38	-45.5	-46.8	15.7	0.00e+00	0	54	0	540016640	54	4020
2026-01-03 12:51:59.06	270.36	12.46	-45.6	-46.9	15.6	0.00e+00	0	54	0	549453824	54	4073
2026-01-03 12:52:02.02	270.91	12.55	-46.0	-47.3	15.2	0.00e+00	0	54	0	558891008	54	4280
2026-01-03 12:52:04.98	271.47	12.63	-45.5	-46.7	15.9	0.00e+00	0	55	0	568328192	54	3977
2026-01-03 12:52:07.93	272.02	12.71	-45.4	-46.6	16.0	0.00e+00	0	55	0	577765376	54	3946
2026-01-03 12:52:10.90	272.59	12.79	-45.5	-46.8	15.8	0.00e+00	0	55	0	587202560	53	4248
2026-01-03 12:52:13.87	273.15	12.86	-45.6	-46.9	15.7	0.00e+00	0	55	0	596639744	53	4302
2026-01-03 12:52:16.84	273.72	12.93	-45.4	-46.6	16.0	0.00e+00	0	55	0	605028352	53	4177
2026-01-03 12:52:19.80	274.29	13.00	-45.5	-46.7	16.0	0.00e+00	0	55	0	614465536	53	4209
2026-01-03 12:52:22.78	274.86	13.07	-45.4	-46.6	16.1	0.00e+00	0	55	0	623902720	53	4164
2026-01-03 12:52:25.75	275.44	13.14	-45.6	-46.8	15.9	0.00e+00	0	55	0	633339904	53	4243
2026-01-03 12:52:28.72	276.02	13.20	-45.8	-47.0	15.6	0.00e+00	0	55	0	642777088	53	4384
2026-01-03 12:52:31.68	276.59	13.26	-45.4	-46.5	16.1	0.00e+00	0	55	0	652214272	53	4118
2026-01-03 12:52:34.64	277.17	13.32	-45.5	-46.6	16.0	0.00e+00	0	55	0	660602880	53	4184
2026-01-03 12:52:37.60	277.76	13.38	-45.5	-46.8	15.9	0.00e+00	0	55	0	670040064	53	4247
2026-01-03 12:52:40.57	278.34	13.43	-45.2	-46.4	16.3	0.00e+00	0	55	0	679477248	53	4067
2026-01-03 12:52:43.54	278.93	13.48	-45.5	-46.7	16.0	0.00e+00	0	55	0	688914432	53	4214
2026-01-03 12:52:46.52	279.53	13.53	-45.4	-46.6	16.1	0.00e+00	0	55	0	698351616	53	4181
2026-01-03 12:52:49.48	280.12	13.57	-45.6	-46.9	15.8	0.00e+00	0	55	0	707788800	53	4304
2026-01-03 12:52:52.46	280.71	13.61	-45.5	-46.7	15.9	0.00e+00	0	55	0	717225984	53	4235
2026-01-03 12:52:55.44	281.31	13.65	-45.8	-47.1	15.6	0.00e+00	0	55	0	725614592	53	4406
2026-01-03 12:52:58.40	281.90	13.69	-45.6	-46.8	15.8	0.00e+00	0	55	0	735051776	53	4274
2026-01-03 12:53:01.36	282.50	13.72	-46.0	-47.3	15.2	0.00e+00	0	55	0	744488960	53	4518
2026-01-03 12:53:04.32	283.10	13.76	-46.4	-47.8	14.5	7.00e-07	0	55	0	753926144	54	4545
2026-01-03 12:53:07.28	283.70	13.78	-46.9	-48.8	13.4	9.90e-06	0	55	0	763363328	55	4768
2026-01-03 12:53:10.25	284.30	13.81	-47.8	-50.0	12.0	3.16e-04	0	55	0	772800512	57	4918
2026-01-03 12:53:13.22	284.90	13.83	-48.2	-50.9	10.8	2.38e-03	0	55	0	781189120	58	5134
2026-01-03 12:53:16.18	285.50	13.85	-48.6	-52.0	9.3	1.46e-02	0	55	0	790626304	59	5513
2026-01-03 12:53:19.14	286.10	13.87	-49.1	-53.6	7.4	9.97e-02	0	55	0	800063488	60	6271
2026-01-03 12:53:22.10	286.71	13.88	-49.5	-55.3	5.9	3.27e-01	0	56	0	809500672	60	7557
2026-01-03 12:53:25.07	287.31	13.89	-49.3	-54.7	6.2	3.14e-01	0	55	0	818937856	60	7116
2026-01-03 12:53:28.04	287.92	13.90	-49.2	-54.0	7.0	1.64e-01	0	55	0	828375040	60	6562
2026-01-03 12:53:31.00	288.52	13.91	-49.3	-54.2	7.0	1.55e-01	0	55	0	836763648	60	6702
2026-01-03 12:53:33.95	289.12	13.91	-49.0	-53.2	8.0	7.00e-02	0	55	0	846200832	60	5934
2026-01-03 12:53:36.92	289.73	13.91	-48.9	-52.5	8.9	3.29e-02	0	55	0	855638016	60	5526
2026-01-03 12:53:39.89	290.33	13.90	-48.1	-50.6	11.2	1.83e-03	0	55	0	865075200	59	4705
2026-01-03 12:53:42.86	290.94	13.90	-47.5	-49.5	12.6	1.08e-04	0	56	0	874512384	58	4381
2026-01-03 12:53:45.83	291.54	13.89	-47.1	-48.8	13.6	1.83e-05	0	56	0	883949568	57	4279
2026-01-03 12:53:48.80	292.15	13.87	-46.2	-47.7	14.8	0.00e+00	0	56	0	893386752	55	4213
2026-01-03 12:53:51.76	292.75	13.86	-45.9	-47.3	15.2	0.00e+00	0	56	0	901775360	54	4251
2026-01-03 12:53:54.73	293.35	13.84	-45.6	-46.8	15.7	0.00e+00	0	56	0	911212544	54	4019
2026-01-03 12:53:57.71	293.96	13.82	-45.6	-46.8	15.8	0.00e+00	0	56	0	920649728	54	4028
2026-01-03 12:54:00.69	294.56	13.80	-45.8	-47.1	15.4	0.00e+00	0	56	0	930086912	54	4179
2026-01-03 12:54:03.67	295.17	13.77	-45.9	-47.2	15.4	0.00e+00	0	56	0	939524096	54	4214
2026-01-03 12:54:06.64	295.76	13.74	-46.1	-47.5	15.1	0.00e+00	0	56	0	948961280	54	4358
2026-01-03 12:54:09.62	296.36	13.71	-45.6	-46.8	15.9	0.00e+00	0	56	0	958398464	54	4030
2026-01-03 12:54:12.59	296.96	13.67	-45.5	-46.7	15.9	0.00e+00	0	56	0	966787072	54	3978
2026-01-03 12:54:15.56	297.56	13.63	-45.6	-46.8	15.9	0.00e+00	0	56	0	976224256	54	4025
2026-01-03 12:54:18.53	298.15	13.59	-45.6	-46.8	15.8	0.00e+00	0	56	0	985661440	54	4013
2026-01-03 12:54:21.49	298.74	13.55	-45.5	-46.7	16.0	0.00e+00	0	56	0	995098624	54	3966
2026-01-03 12:54:24.47	299.33	13.50	-45.4	-46.6	16.0	0.00e+00	0	56	0	1004535808	54	3936
2026-01-03 12:54:27.44	299.92	13.45	-45.7	-46.9	15.8	0.00e+00	0	56	0	1013972992	54	4070
2026-01-03 12:54:30.39	300.50	13.40	-45.4	-46.6	16.1	0.00e+00	0	56	0	1022361600	54	3925
2026-01-03 12:54:33.36	301.09	13.35	-45.3	-46.4	16.2	0.00e+00	0	56	0	1031798784	53	4086
2026-01-03 12:54:36.32	301.67	13.29	-45.4	-46.5	16.1	0.00e+00	0	56	0	1041235968	53	4122
2026-01-03 12:54:39.30	302.25	13.23	-45.5	-46.7	16.0	0.00e+00	0	56	0	1050673152	53	4227
2026-01-03 12:54:42.27	302.83	13.17	-45.3	-46.4	16.0	0.00e+00	0	56	0	1060110336	53	4079
2026-01-03 12:54:45.24	303.40	13.11	-45.4	-46.6	15.8	0.00e+00	0	56	0	1069547520	53	4170
2026-01-03 12:54:48.22	303.98	13.04	-45.4	-46.6	16.0	0.00e+00	0	56	0	1078984704	53	4167
2026-01-03 12:54:51.19	304.55	12.97	-45.7	-47.0	15.4	0.00e+00	0	56	0	1087373312	53	4342
2026-01-03 12:54:54.16	305.12	12.90	-45.4	-46.5	15.8	0.00e+00	0	56	0	1096810496	53	4129
2026-01-03 12:54:57.13	305.68	12.82	-45.5	-46.7	15.9	0.00e+00	0	56	0	1106247680	53	4194
2026-01-03 12:55:00.10	306.24	12.75	-45.6	-46.9	15.5	0.00e+00	0	56	0	1115684864	53	4292
2026-01-03 12:55:03.06	306.80	12.67	-45.5	-46.6	15.8	0.00e+00	0	56	0	1125122048	53	4190
2026-01-03 12:55:06.05	307.36	12.59	-45.5	-46.7	15.6	0.00e+00	0	56	0	1134559232	53	4224
2026-01-03 12:55:09.01	307.91	12.51	-45.6	-46.8	15.6	0.00e+00	0	56	0	1143996416	53	4264
2026-01-03 12:55:11.99	308.46	12.42	-45.8	-47.0	15.7	0.00e+00	0	56	0	1152385024	53	4352
2026-01-03 12:55:14.97	309.01	12.33	-46.1	-47.5	14.6	0.00e+00	0	56	0	1161822208	54	4369
2026-01-03 12:55:17.95	309.56	12.25	-44.1	-46.3	7.1	9.99e-02	0	56	0	1171259392	51	4525
2026-01-03 12:55:20.92	310.10	12.15	-44.6	-46.4	8.9	2.20e-02	0	56	0	1180696576	51	4576
2026-01-03 12:55:23.89	310.63	12.06	-45.4	-46.7	14.0	2.20e-06	0	56	0	1190133760	52	4463
2026-01-03 12:55:26.86	311.17	11.97	-45.6	-46.8	15.3	0.00e+00	0	56	0	1199570944	53	4270
2026-01-03 12:55:29.83	311.70	11.87	-45.5	-46.8	14.8	0.00e+00	0	56	0	1209008128	53	4258
2026-01-03 12:55:32.78	312.22	11.77	-45.6	-46.8	15.0	7.00e-07	0	56	0	1217396736	53	4283
2026-01-03 12:55:35.77	312.75	11.67	-45.9	-47.2	15.4	0.00e+00	0	56	0	1226833920	53	4463
2026-01-03 12:55:38.74	313.27	11.57	-45.9	-47.2	15.3	0.00e+00	0	56	0	1236271104	54	4204
2026-01-03 12:55:41.72	313.79	11.47	-46.0	-47.3	15.4	0.00e+00	0	56	0	1245708288	54	4257
2026-01-03 12:55:44.67	314.30	11.36	-45.9	-47.2	15.4	0.00e+00	0	56	0	1255145472	54	4205
2026-01-03 12:55:47.64	314.81	11.26	-45.9	-47.2	15.4	0.00e+00	0	56	0	1264582656	54	4227
2026-01-03 12:55:50.61	315.31	11.15	-46.0	-47.3	15.3	0.00e+00	0	56	0	1274019840	54	4277
2026-01-03 12:55:53.57	315.81	11.04	-45.8	-47.0	15.6	0.00e+00	0	56	0	1282408448	54	4136
2026-01-03 12:55:56.54	316.31	10.93	-45.9	-47.1	15.5	0.00e+00	0	56	0	1291845632	54	4193
2026-01-03 12:55:59.51	316.81	10.82	-45.8	-47.1	15.5	0.00e+00	0	56	0	1301282816	54	4174
2026-01-03 12:56:02.47	317.30	10.70	-45.9	-47.2	15.4	0.00e+00	0	57	0	1310720000	54	4237
2026-01-03 12:56:05.44	317.79	10.59	-46.0	-47.3	15.3	0.00e+00	0	57	0	1320157184	54	4257
2026-01-03 12:56:08.40	318.27	10.47	-46.3	-47.7	14.9	0.00e+00	0	56	0	1328545792	54	4479
2026-01-03 12:56:11.38	318.75	10.36	-46.6	-48.1	14.5	7.00e-07	0	56	0	1337982976	55	4417
2026-01-03 12:56:14.35	319.23	10.24	-46.5	-48.0	14.5	0.00e+00	0	57	0	1347420160	55	4390
2026-01-03 12:56:17.32	319.70	10.12	-46.2	-47.7	14.9	0.00e+00	0	56	0	1356857344	55	4198
2026-01-03 12:56:20.28	320.17	10.00	-46.5	-48.0	14.6	1.50e-06	0	56	0	1366294528	55	4376
2026-01-03 12:56:23.26	320.63	9.88	-46.3	-47.7	14.9	0.00e+00	0	57	0	1375731712	55	4241
2026-01-03 12:56:26.23	321.09	9.75	-46.4	-47.9	14.7	7.00e-07	0	57	0	1385168896	55	4321
2026-01-03 12:56:29.19	321.55	9.63	-46.2	-47.6	15.0	0.00e+00	0	57	0	1393557504	55	4164
2026-01-03 12:56:32.15	322.00	9.51	-46.3	-47.7	14.9	0.00e+00	0	57	0	1402994688	55	4228
2026-01-03 12:56:35.11	322.45	9.38	-46.5	-48.1	14.5	0.00e+00	0	57	0	1412431872	55	4392
2026-01-03 12:56:38.08	322.90	9.25	-46.3	-47.7	14.8	7.00e-07	0	57	0	1421869056	55	4226
2026-01-03 12:56:41.04	323.34	9.13	-46.4	-47.9	14.7	7.00e-07	0	57	0	1431306240	55	4296
2026-01-03 12:56:44.01	323.78	9.00	-46.7	-48.2	14.3	3.00e-06	0	57	0	1440743424	55	4482
2026-01-03 12:56:46.97	324.21	8.87	-46.9	-48.5	14.0	3.00e-06	0	57	0	1449132032	55	4635
2026-01-03 12:56:49.95	324.65	8.74	-46.9	-48.6	13.9	5.30e-06	0	57	0	1458569216	55	4677
2026-01-03 12:56:52.93	325.07	8.61	-46.9	-48.6	13.9	4.50e-06	0	56	0	1468006400	55	4675
2026-01-03 12:56:55.88	325.50	8.48	-47.2	-48.9	13.7	3.80e-06	0	57	0	1477443584	56	4559
2026-01-03 12:56:58.86	325.92	8.35	-47.0	-48.7	13.9	7.00e-07	0	57	0	1486880768	56	4442
2026-01-03 12:57:01.81	326.33	8.22	-47.1	-48.8	13.8	3.00e-06	0	57	0	1496317952	56	4498
2026-01-03 12:57:04.80	326.75	8.08	-46.9	-48.5	14.0	5.30e-06	0	57	0	1504706560	56	4375
2026-01-03 12:57:07.77	327.16	7.95	-46.7	-48.3	14.2	1.50e-06	0	57	0	1514143744	56	4278
2026-01-03 12:57:10.74	327.56	7.82	-46.6	-48.1	14.4	7.00e-07	0	57	0	1523580928	56	4163
2026-01-03 12:57:13.72	327.97	7.68	-46.7	-48.3	14.3	0.00e+00	0	57	0	1533018112	56	4252
2026-01-03 12:57:16.69	328.37	7.55	-46.8	-48.4	14.2	7.00e-07	0	57	0	1542455296	56	4318
2026-01-03 12:57:19.67	328.76	7.41	-47.1	-48.9	13.6	3.00e-06	0	57	0	1551892480	56	4562
2026-01-03 12:57:22.62	329.15	7.28	-47.2	-48.9	13.6	1.29e-05	0	57	0	1561329664	56	4557
2026-01-03 12:57:25.58	329.54	7.14	-47.0	-48.8	13.7	5.30e-06	0	57	0	1569718272	56	4520
2026-01-03 12:57:28.54	329.92	7.01	-47.4	-49.4	13.1	2.74e-05	0	57	0	1579155456	56	4815
2026-01-03 12:57:31.50	330.30	6.87	-47.6	-49.6	12.8	6.33e-05	0	57	0	1588592640	57	4689
2026-01-03 12:57:34.46	330.68	6.73	-47.6	-49.5	12.9	5.26e-05	0	57	0	1598029824	57	4634
2026-01-03 12:57:37.42	331.05	6.60	-47.5	-49.4	13.0	4.34e-05	0	57	0	1607467008	57	4556
2026-01-03 12:57:40.38	331.42	6.46	-47.3	-49.3	13.1	3.35e-05	0	57	0	1616904192	57	4507
2026-01-03 12:57:43.36	331.79	6.32	-47.1	-48.9	13.5	6.10e-06	0	57	0	1626341376	57	4322
2026-01-03 12:57:46.32	332.16	6.18	-47.2	-49.0	13.3	1.52e-05	0	57	0	1634729984	57	4388
2026-01-03 12:57:49.29	332.52	6.05	-47.0	-48.7	13.6	3.80e-06	0	57	0	1644167168	57	4238
2026-01-03 12:57:52.26	332.88	5.91	-47.2	-49.1	13.2	1.52e-05	0	57	0	1653604352	57	4412
2026-01-03 12:57:55.23	333.23	5.77	-47.2	-49.0	13.3	1.14e-05	0	57	0	1663041536	57	4370
2026-01-03 12:57:58.20	333.58	5.63	-47.2	-49.0	13.3	2.13e-05	0	57	0	1672478720	57	4361
2026-01-03 12:58:01.16	333.93	5.49	-47.1	-48.9	13.3	2.13e-05	0	57	0	1681915904	57	4320
2026-01-03 12:58:04.13	334.28	5.35	-47.0	-48.8	13.4	1.29e-05	0	57	0	1690304512	57	4264
2026-01-03 12:58:07.11	334.62	5.21	-47.2	-49.2	13.0	2.82e-05	0	57	0	1699741696	57	4463
2026-01-03 12:58:10.06	334.96	5.07	-47.4	-49.4	12.8	7.85e-05	0	57	0	1709178880	57	4568
2026-01-03 12:58:13.02	335.29	4.94	-52.0	-63.7	3.8	1.49e+00	0	57	104	1712324608	65	14890
2026-01-03 12:58:16.00	335.63	4.80	-52.4	-64.0	3.8	1.49e+00	0	57	104	1712324608	66	14642
2026-01-03 12:58:18.97	335.96	4.66	-52.5	-64.1	3.8	1.49e+00	0	57	104	1712324608	67	14011
2026-01-03 12:58:21.95	336.28	4.52	-52.6	-64.3	3.8	1.49e+00	0	57	104	1712324608	67	14242
2026-01-03 12:58:24.92	336.61	4.38	-52.7	-64.3	3.8	1.49e+00	0	57	104	1712324608	67	14341
2026-01-03 12:58:27.89	336.93	4.24	-52.8	-64.4	3.8	1.49e+00	0	57	104	1712324608	67	14460
2026-01-03 12:58:30.84	337.24	4.10	-52.9	-64.4	3.8	1.49e+00	0	57	104	1712324608	67	14515
2026-01-03 12:58:33.82	337.56	3.96	-52.9	-64.5	3.8	1.49e+00	0	57	104	1712324608	67	14544
2026-01-03 12:58:36.79	337.87	3.82	-52.7	-64.4	3.8	1.49e+00	0	57	104	1712324608	67	14522
2026-01-03 12:58:39.77	338.18	3.68	-52.9	-64.5	3.8	1.49e+00	0	57	104	1712324608	67	14559
2026-01-03 12:58:42.73	338.49	3.54	-52.8	-64.4	3.8	1.49e+00	0	57	104	1712324608	67	14501
2026-01-03 12:58:45.70	338.79	3.40	-52.9	-64.4	3.8	1.49e+00	0	57	104	1712324608	67	14520
2026-01-03 12:58:48.67	339.10	3.27	-52.9	-64.4	3.8	1.49e+00	0	57	104	1712324608	67	14538
2026-01-03 12:58:51.64	339.40	3.13	-53.0	-64.4	3.8	1.49e+00	0	57	104	1712324608	67	14511

#Closed at: 2026-01-03 12:58:54
#Recorded file [1712 MB]: D:/Data/31026_260103_155811.dat