passes_logs/2026/01/03/R3.0SM8_Murmansk_STILSPACE/R3.0SM8_Murmansk_STILSPACE__20260103_083417_NOAA_20_JPSS-1_rec.log

#Pass ID: 20260103_083417_NOAA 20 (JPSS-1)
#Satellite: NOAA 20 (JPSS-1)
#Configuration: NOAA 20
#almurnet v.1.7.20240730
#Start time: 2026-01-03 08:34:18

#Version: 2.2.20231116
#Station: R3.0SM8_Murmansk_STILSPACE
#Location: 33.092731 lon 68.902999 lat
#TLE: 1 43013U 17073A   26002.21975278  .00000202  00000+0  11669-3 0  9999
#TLE: 2 43013  98.7622 303.2950 0001915  57.9213 302.2149 14.19532512420923

#Time	Az	El	Level	Level2	SNR	BER	BlckErr	Temp	State	Recorded	gain1	gain2
2026-01-03 08:34:18.86	128.89	3.11	-52.7	-66.7	3.8	1.49e+00	0	46	0	0	67	18748
2026-01-03 08:34:22.82	128.80	3.37	-52.2	-66.0	3.8	1.49e+00	0	47	104	0	67	17440
2026-01-03 08:34:26.79	128.71	3.64	-51.9	-64.0	3.8	1.49e+00	0	47	104	0	66	14671
2026-01-03 08:34:30.73	128.61	3.90	-51.7	-62.1	4.2	1.38e+00	0	47	0	0	66	11805
2026-01-03 08:34:34.67	128.52	4.17	-51.5	-60.1	5.1	7.11e-01	0	47	0	5242880	66	9364
2026-01-03 08:34:38.63	128.42	4.44	-51.1	-57.9	6.7	2.21e-01	0	48	0	12582912	65	7700
2026-01-03 08:34:42.59	128.32	4.72	-50.5	-55.5	9.2	2.65e-02	0	48	0	19922944	63	6496
2026-01-03 08:34:46.55	128.21	4.99	-49.9	-53.9	10.9	2.37e-03	0	48	0	27262976	62	5775
2026-01-03 08:34:50.52	128.11	5.28	-49.8	-53.8	11.0	1.83e-03	0	48	0	34603008	62	5675
2026-01-03 08:34:54.47	128.00	5.56	-49.6	-53.4	11.4	1.55e-03	0	49	0	41943040	62	5414
2026-01-03 08:34:58.43	127.89	5.85	-48.8	-51.6	13.3	1.83e-05	0	49	0	49283072	60	4951
2026-01-03 08:35:02.40	127.77	6.14	-48.4	-50.9	14.1	2.20e-06	0	49	0	56623104	59	4818
2026-01-03 08:35:06.36	127.66	6.43	-48.5	-51.1	13.9	1.50e-06	0	49	0	63963136	59	4965
2026-01-03 08:35:10.31	127.54	6.72	-48.3	-50.7	14.3	0.00e+00	0	49	0	72351744	59	4751
2026-01-03 08:35:14.27	127.42	7.02	-48.3	-50.7	14.4	2.20e-06	0	50	0	79691776	59	4723
2026-01-03 08:35:18.22	127.29	7.32	-48.4	-50.9	14.2	0.00e+00	0	50	0	87031808	59	4832
2026-01-03 08:35:22.18	127.17	7.63	-48.3	-50.7	14.4	0.00e+00	0	50	0	94371840	59	4736
2026-01-03 08:35:26.14	127.04	7.94	-48.4	-50.7	14.4	0.00e+00	0	50	0	101711872	59	4732
2026-01-03 08:35:30.08	126.91	8.25	-48.1	-50.3	14.9	0.00e+00	0	51	0	109051904	59	4525
2026-01-03 08:35:34.04	126.77	8.57	-48.5	-50.8	14.4	7.00e-07	0	51	0	116391936	59	4801
2026-01-03 08:35:37.99	126.63	8.89	-48.0	-50.2	15.0	7.00e-07	0	51	0	123731968	59	4473
2026-01-03 08:35:41.94	126.49	9.21	-48.2	-50.4	14.9	0.00e+00	0	51	0	131072000	59	4559
2026-01-03 08:35:45.88	126.34	9.54	-48.4	-50.8	14.5	7.00e-07	0	51	0	138412032	59	4783
2026-01-03 08:35:49.85	126.19	9.88	-48.1	-50.2	15.1	0.00e+00	0	51	0	145752064	59	4467
2026-01-03 08:35:53.81	126.04	10.21	-48.4	-50.6	14.7	1.50e-06	0	51	0	153092096	59	4681
2026-01-03 08:35:57.76	125.88	10.55	-48.0	-50.1	15.3	0.00e+00	0	52	0	160432128	59	4402
2026-01-03 08:36:01.72	125.72	10.90	-48.4	-50.6	14.7	0.00e+00	0	52	0	168820736	59	4681
2026-01-03 08:36:05.69	125.56	11.25	-47.8	-49.7	15.7	0.00e+00	0	52	0	176160768	58	4463
2026-01-03 08:36:09.64	125.39	11.61	-47.9	-49.8	15.6	0.00e+00	0	52	0	183500800	58	4521
2026-01-03 08:36:13.60	125.21	11.97	-47.7	-49.6	15.8	0.00e+00	0	52	0	190840832	58	4412
2026-01-03 08:36:17.57	125.03	12.34	-47.9	-49.9	15.5	0.00e+00	0	52	0	198180864	58	4561
2026-01-03 08:36:21.53	124.85	12.71	-47.8	-49.7	15.7	0.00e+00	0	52	0	205520896	58	4487
2026-01-03 08:36:25.49	124.66	13.08	-47.9	-49.9	15.5	0.00e+00	0	53	0	212860928	58	4567
2026-01-03 08:36:29.43	124.46	13.47	-47.6	-49.5	16.0	0.00e+00	0	53	0	220200960	58	4352
2026-01-03 08:36:33.36	124.27	13.85	-47.5	-49.4	16.1	0.00e+00	0	53	0	227540992	58	4300
2026-01-03 08:36:37.32	124.06	14.24	-47.7	-49.7	15.8	0.00e+00	0	53	0	234881024	58	4448
2026-01-03 08:36:41.28	123.85	14.64	-47.8	-49.6	15.9	0.00e+00	0	53	0	242221056	58	4430
2026-01-03 08:36:45.26	123.63	15.05	-47.6	-49.5	16.0	0.00e+00	0	53	0	249561088	58	4358
2026-01-03 08:36:49.20	123.41	15.46	-47.9	-49.8	15.7	0.00e+00	0	53	0	256901120	58	4514
2026-01-03 08:36:53.15	123.18	15.88	-47.8	-49.7	15.9	0.00e+00	0	53	0	264241152	58	4453
2026-01-03 08:36:57.09	122.94	16.31	-47.8	-49.8	15.8	0.00e+00	0	53	0	271581184	58	4497
2026-01-03 08:37:01.04	122.70	16.74	-47.5	-49.3	16.2	0.00e+00	0	53	0	279969792	58	4266
2026-01-03 08:37:04.99	122.45	17.18	-47.5	-49.2	16.4	0.00e+00	0	53	0	287309824	58	4209
2026-01-03 08:37:08.96	122.19	17.63	-47.6	-49.4	16.2	0.00e+00	0	53	0	294649856	58	4292
2026-01-03 08:37:12.92	121.92	18.08	-47.6	-49.4	16.2	0.00e+00	0	54	0	301989888	58	4307
2026-01-03 08:37:16.88	121.64	18.55	-47.6	-49.4	16.2	0.00e+00	0	54	0	309329920	58	4292
2026-01-03 08:37:20.83	121.35	19.02	-47.3	-49.0	16.6	0.00e+00	0	54	0	316669952	57	4345
2026-01-03 08:37:24.79	121.06	19.50	-47.5	-49.3	16.3	0.00e+00	0	54	0	324009984	57	4509
2026-01-03 08:37:28.75	120.75	19.99	-47.8	-49.7	15.9	0.00e+00	0	54	0	331350016	57	4737
2026-01-03 08:37:32.69	120.44	20.48	-48.0	-50.0	15.6	0.00e+00	0	54	0	338690048	58	4601
2026-01-03 08:37:36.65	120.11	20.99	-48.3	-50.4	15.2	0.00e+00	0	54	0	346030080	58	4838
2026-01-03 08:37:40.61	119.77	21.50	-48.3	-50.4	15.3	0.00e+00	0	54	0	353370112	58	4829
2026-01-03 08:37:44.57	119.42	22.03	-48.1	-50.1	15.5	0.00e+00	0	54	0	360710144	59	4418
2026-01-03 08:37:48.52	119.06	22.56	-48.0	-49.9	15.7	0.00e+00	0	54	0	369098752	59	4337
2026-01-03 08:37:52.48	118.69	23.10	-48.2	-50.2	15.4	0.00e+00	0	54	0	376438784	59	4470
2026-01-03 08:37:56.44	118.30	23.66	-48.3	-50.4	15.2	0.00e+00	0	54	0	383778816	59	4595
2026-01-03 08:38:00.40	117.89	24.23	-48.7	-51.0	14.7	0.00e+00	0	54	0	391118848	59	4885
2026-01-03 08:38:04.38	117.47	24.81	-48.8	-51.1	14.5	7.00e-07	0	55	0	398458880	59	4982
2026-01-03 08:38:08.33	117.04	25.39	-48.8	-51.2	14.5	7.00e-07	0	54	0	405798912	59	5002
2026-01-03 08:38:12.27	116.59	25.99	-49.1	-51.7	14.0	1.50e-06	0	55	0	413138944	60	4985
2026-01-03 08:38:16.22	116.12	26.60	-49.1	-51.6	14.1	0.00e+00	0	54	0	420478976	60	4955
2026-01-03 08:38:20.17	115.63	27.22	-49.1	-51.8	13.9	1.50e-06	0	55	0	427819008	60	5067
2026-01-03 08:38:24.11	115.12	27.85	-49.2	-51.9	13.8	3.80e-06	0	55	0	435159040	60	5119
2026-01-03 08:38:28.07	114.59	28.49	-49.5	-52.4	13.3	1.06e-05	0	55	0	442499072	61	5112
2026-01-03 08:38:32.01	114.04	29.15	-49.5	-52.2	13.5	8.30e-06	0	55	0	449839104	61	5016
2026-01-03 08:38:35.97	113.46	29.82	-49.3	-52.2	13.5	8.30e-06	0	55	0	457179136	61	4990
2026-01-03 08:38:39.94	112.86	30.50	-49.0	-51.4	14.3	7.00e-07	0	55	0	464519168	60	4829
2026-01-03 08:38:43.91	112.23	31.20	-49.1	-51.6	14.1	4.50e-06	0	55	0	472907776	60	4974
2026-01-03 08:38:47.87	111.57	31.91	-49.4	-52.1	13.6	8.30e-06	0	55	0	480247808	60	5242
2026-01-03 08:38:51.81	110.88	32.63	-49.4	-52.3	13.4	9.90e-06	0	55	0	487587840	60	5346
2026-01-03 08:38:55.77	110.16	33.36	-49.4	-52.2	13.5	1.90e-05	0	55	0	494927872	61	5039
2026-01-03 08:38:59.72	109.41	34.11	-49.8	-53.0	12.7	6.48e-05	0	55	0	502267904	61	5481
2026-01-03 08:39:03.69	108.62	34.87	-50.2	-53.5	12.2	2.10e-04	0	55	0	509607936	62	5508
2026-01-03 08:39:07.65	107.79	35.64	-50.1	-53.6	12.1	4.32e-04	0	55	0	516947968	62	5586
2026-01-03 08:39:11.61	106.92	36.42	-50.1	-53.4	12.3	3.07e-04	0	55	0	524288000	62	5446
2026-01-03 08:39:15.58	106.01	37.21	-49.7	-52.6	13.1	2.28e-05	0	55	0	531628032	62	4956
2026-01-03 08:39:19.54	105.05	38.02	-49.4	-52.2	13.6	6.10e-06	0	55	0	538968064	61	5016
2026-01-03 08:39:23.51	104.04	38.83	-49.8	-52.7	13.0	4.27e-05	0	55	0	546308096	61	5340
2026-01-03 08:39:27.46	102.98	39.65	-50.2	-53.4	12.3	1.46e-04	0	55	0	553648128	62	5443
2026-01-03 08:39:31.42	101.86	40.48	-50.2	-53.6	12.1	5.30e-04	0	55	0	562036736	62	5575
2026-01-03 08:39:35.39	100.68	41.32	-50.1	-53.3	12.4	1.84e-04	0	55	0	569376768	62	5365
2026-01-03 08:39:39.34	99.45	42.16	-49.8	-52.8	13.0	2.74e-05	0	55	0	576716800	62	5050
2026-01-03 08:39:43.30	98.14	43.00	-49.8	-52.8	13.0	2.97e-05	0	56	0	584056832	62	5072
2026-01-03 08:39:47.27	96.76	43.85	-50.2	-53.6	12.1	4.45e-04	0	56	0	591396864	62	5584
2026-01-03 08:39:51.24	95.30	44.70	-49.9	-52.9	12.9	8.01e-05	0	56	0	598736896	62	5115
2026-01-03 08:39:55.19	93.77	45.53	-49.7	-52.6	13.1	2.28e-05	0	55	0	606076928	62	4963
2026-01-03 08:39:59.15	92.16	46.37	-50.1	-53.4	12.3	5.64e-05	0	56	0	613416960	62	5459
2026-01-03 08:40:03.13	90.44	47.19	-49.8	-52.9	12.8	6.71e-05	0	56	0	620756992	62	5127
2026-01-03 08:40:07.06	88.66	48.00	-50.0	-53.2	12.6	9.68e-05	0	56	0	628097024	62	5303
2026-01-03 08:40:11.04	86.76	48.79	-50.0	-53.1	12.6	7.62e-05	0	56	0	635437056	62	5276
2026-01-03 08:40:15.00	84.77	49.56	-49.2	-51.7	14.1	1.50e-06	0	56	0	642777088	61	4715
2026-01-03 08:40:18.96	82.67	50.31	-48.6	-50.8	15.0	0.00e+00	0	56	0	650117120	60	4536
2026-01-03 08:40:22.92	80.48	51.02	-48.1	-50.0	15.8	0.00e+00	0	56	0	658505728	59	4375
2026-01-03 08:40:26.87	78.18	51.69	-48.2	-50.2	15.6	0.00e+00	0	56	0	665845760	59	4472
2026-01-03 08:40:30.81	75.79	52.32	-48.4	-50.6	15.2	0.00e+00	0	56	0	673185792	59	4659
2026-01-03 08:40:34.78	73.28	52.91	-48.2	-50.1	15.7	0.00e+00	0	56	0	680525824	59	4423
2026-01-03 08:40:38.76	70.66	53.45	-47.6	-49.4	16.5	0.00e+00	0	56	0	687865856	58	4295
2026-01-03 08:40:42.72	67.97	53.93	-47.0	-48.5	17.3	0.00e+00	0	56	0	695205888	56	4353
2026-01-03 08:40:46.67	65.19	54.34	-46.9	-48.3	17.5	0.00e+00	0	56	0	702545920	56	4254
2026-01-03 08:40:50.64	62.33	54.69	-46.2	-47.4	18.2	0.00e+00	0	56	0	709885952	55	4089
2026-01-03 08:40:54.61	59.40	54.97	-45.7	-46.9	18.8	0.00e+00	0	56	0	717225984	54	4087
2026-01-03 08:40:58.56	56.44	55.17	-45.5	-46.6	19.0	0.00e+00	0	56	0	724566016	53	4175
2026-01-03 08:41:02.51	53.44	55.29	-45.8	-47.0	18.7	0.00e+00	0	56	0	731906048	53	4346
2026-01-03 08:41:06.48	50.41	55.34	-46.0	-47.3	18.4	0.00e+00	0	56	0	739246080	53	4506
2026-01-03 08:41:10.45	47.38	55.31	-46.2	-47.5	18.2	0.00e+00	0	56	0	747634688	54	4361
2026-01-03 08:41:14.40	44.38	55.19	-46.3	-47.6	18.2	0.00e+00	0	56	0	754974720	54	4402
2026-01-03 08:41:18.36	41.41	55.01	-45.5	-46.7	19.0	0.00e+00	0	56	0	762314752	54	3960
2026-01-03 08:41:22.31	38.49	54.74	-45.1	-46.2	19.5	0.00e+00	0	56	0	769654784	53	3982
2026-01-03 08:41:26.25	35.63	54.41	-45.1	-46.2	19.5	0.00e+00	0	56	0	776994816	53	3981
2026-01-03 08:41:30.21	32.84	54.01	-46.0	-47.2	18.5	0.00e+00	0	57	0	784334848	53	4468
2026-01-03 08:41:34.17	30.13	53.54	-46.8	-48.2	17.6	0.00e+00	0	56	0	791674880	55	4460
2026-01-03 08:41:38.15	27.50	53.02	-47.2	-48.8	17.1	0.00e+00	0	56	0	799014912	56	4506
2026-01-03 08:41:42.10	24.98	52.44	-47.3	-48.8	17.0	0.00e+00	0	57	0	806354944	56	4538
2026-01-03 08:41:46.08	22.55	51.81	-47.2	-48.8	17.1	0.00e+00	0	56	0	813694976	56	4528
2026-01-03 08:41:50.05	20.23	51.15	-47.3	-48.8	17.0	0.00e+00	0	56	0	821035008	56	4543
2026-01-03 08:41:54.01	18.01	50.44	-48.1	-50.0	15.9	0.00e+00	0	56	0	828375040	58	4636
2026-01-03 08:41:57.97	15.91	49.70	-48.7	-50.9	15.0	0.00e+00	0	56	0	836763648	59	4820
2026-01-03 08:42:01.94	13.90	48.94	-49.7	-52.8	13.0	3.12e-05	0	56	0	844103680	61	5347
2026-01-03 08:42:05.91	11.98	48.15	-50.4	-54.0	11.7	2.43e-04	0	56	0	851443712	62	5851
2026-01-03 08:42:09.86	10.18	47.35	-50.9	-55.4	10.2	5.11e-03	0	56	0	858783744	64	6103
2026-01-03 08:42:13.82	8.46	46.53	-50.0	-53.2	12.7	3.81e-05	0	57	0	866123776	62	5291
2026-01-03 08:42:17.79	6.83	45.70	-49.9	-53.2	12.6	1.14e-04	0	56	0	873463808	62	5296
2026-01-03 08:42:21.76	5.28	44.86	-49.5	-52.4	13.4	1.75e-05	0	56	0	880803840	62	4849
2026-01-03 08:42:25.73	3.81	44.02	-49.7	-52.8	13.1	3.20e-05	0	56	0	888143872	62	5051
2026-01-03 08:42:29.67	2.43	43.18	-49.9	-53.0	12.8	5.34e-05	0	56	0	895483904	62	5163
2026-01-03 08:42:33.64	1.11	42.34	-50.1	-53.4	12.3	2.00e-04	0	57	0	902823936	62	5429
2026-01-03 08:42:37.60	359.86	41.50	-50.3	-54.0	11.6	4.56e-04	0	57	0	910163968	62	5831
2026-01-03 08:42:41.57	358.67	40.66	-50.0	-53.2	12.5	1.18e-04	0	57	0	918552576	62	5318
2026-01-03 08:42:45.54	357.55	39.83	-49.9	-53.0	12.8	7.47e-05	0	57	0	925892608	62	5207
2026-01-03 08:42:49.49	356.48	39.01	-50.0	-53.1	12.6	1.16e-04	0	57	0	933232640	62	5279
2026-01-03 08:42:53.45	355.47	38.20	-50.0	-53.2	12.5	1.33e-04	0	57	0	940572672	62	5320
2026-01-03 08:42:57.41	354.50	37.40	-49.9	-52.9	12.8	8.77e-05	0	57	0	947912704	62	5128
2026-01-03 08:43:01.37	353.58	36.60	-49.7	-52.7	13.0	3.05e-05	0	57	0	955252736	62	5028
2026-01-03 08:43:05.33	352.71	35.82	-49.9	-52.9	12.8	9.23e-05	0	57	0	962592768	62	5158
2026-01-03 08:43:09.30	351.87	35.05	-49.7	-52.6	13.1	1.98e-05	0	57	0	969932800	62	4932
2026-01-03 08:43:13.27	351.07	34.29	-50.1	-53.4	12.2	1.94e-04	0	56	0	977272832	62	5451
2026-01-03 08:43:17.24	350.32	33.54	-49.8	-52.7	13.0	3.12e-05	0	57	0	984612864	62	5005
2026-01-03 08:43:21.19	349.59	32.81	-49.9	-53.0	12.7	6.25e-05	0	57	0	991952896	62	5194
2026-01-03 08:43:25.15	348.90	32.09	-50.1	-53.5	12.2	1.74e-04	0	57	0	999292928	62	5492
2026-01-03 08:43:29.11	348.24	31.38	-50.4	-53.9	11.7	5.26e-04	0	57	0	1006632960	62	5767
2026-01-03 08:43:33.05	347.61	30.68	-50.0	-53.5	12.2	3.50e-04	0	57	0	1015021568	62	5494
2026-01-03 08:43:37.01	347.01	30.00	-49.6	-52.6	13.1	2.97e-05	0	57	0	1022361600	62	4954
2026-01-03 08:43:40.95	346.43	29.33	-49.7	-52.7	13.0	5.87e-05	0	57	0	1029701632	62	5027
2026-01-03 08:43:44.90	345.87	28.68	-49.7	-52.7	13.0	6.63e-05	0	57	0	1037041664	62	5026
2026-01-03 08:43:48.87	345.34	28.03	-49.8	-52.7	12.9	8.01e-05	0	57	0	1044381696	62	5031
2026-01-03 08:43:52.82	344.83	27.40	-49.4	-52.1	13.5	6.80e-06	0	57	0	1051721728	61	4954
2026-01-03 08:43:56.79	344.34	26.77	-49.1	-51.7	14.0	7.00e-07	0	57	0	1059061760	61	4722
2026-01-03 08:44:00.76	343.86	26.16	-48.9	-51.2	14.4	1.50e-06	0	57	0	1066401792	60	4753
2026-01-03 08:44:04.69	343.41	25.57	-49.0	-51.5	14.1	7.00e-07	0	57	0	1073741824	60	4887
2026-01-03 08:44:08.65	342.97	24.98	-48.8	-51.1	14.5	3.00e-06	0	57	0	1081081856	60	4702
2026-01-03 08:44:12.62	342.55	24.40	-48.4	-50.5	15.1	0.00e+00	0	57	0	1088421888	59	4620
2026-01-03 08:44:16.57	342.15	23.83	-48.6	-51.0	14.6	7.00e-07	0	57	0	1095761920	59	4896
2026-01-03 08:44:20.54	341.76	23.28	-49.0	-51.6	14.0	1.50e-06	0	57	0	1103101952	59	5219
2026-01-03 08:44:24.51	341.38	22.73	-48.8	-51.2	14.3	7.00e-07	0	57	0	1111490560	60	4738
2026-01-03 08:44:28.46	341.02	22.20	-48.6	-50.9	14.7	0.00e+00	0	57	0	1118830592	60	4546
2026-01-03 08:44:32.42	340.67	21.67	-48.7	-51.1	14.4	0.00e+00	0	57	0	1126170624	60	4694
2026-01-03 08:44:36.37	340.33	21.16	-48.6	-50.9	14.4	0.00e+00	0	57	0	1133510656	60	4590
2026-01-03 08:44:40.32	340.00	20.65	-48.8	-51.4	13.7	3.00e-06	0	57	0	1140850688	60	4864
2026-01-03 08:44:44.29	339.69	20.15	-49.7	-53.3	11.5	6.22e-04	0	57	0	1148190720	61	5714
2026-01-03 08:44:48.25	339.38	19.66	-49.8	-53.8	10.9	1.92e-03	0	57	0	1155530752	61	6011
2026-01-03 08:44:52.22	339.09	19.18	-49.8	-53.7	11.0	1.82e-03	0	57	0	1162870784	61	5992
2026-01-03 08:44:56.18	338.80	18.71	-48.6	-51.3	13.6	1.44e-05	0	57	0	1170210816	60	4785
2026-01-03 08:45:00.14	338.52	18.25	-48.2	-50.5	14.5	0.00e+00	0	57	0	1177550848	59	4647
2026-01-03 08:45:04.09	338.26	17.79	-48.9	-51.6	13.6	1.44e-05	0	57	0	1184890880	60	4982
2026-01-03 08:45:08.04	338.00	17.35	-48.7	-51.3	14.0	7.00e-07	0	57	0	1192230912	60	4784
2026-01-03 08:45:11.99	337.75	16.91	-48.8	-51.4	14.0	3.80e-06	0	57	0	1199570944	60	4848
2026-01-03 08:45:15.96	337.50	16.47	-48.8	-51.5	13.9	3.80e-06	0	57	0	1207959552	60	4885
2026-01-03 08:45:19.93	337.26	16.04	-48.9	-51.6	13.8	3.00e-06	0	57	0	1215299584	60	4928
2026-01-03 08:45:23.90	337.03	15.62	-48.6	-51.1	14.3	3.00e-06	0	57	0	1222639616	60	4659
2026-01-03 08:45:27.85	336.81	15.21	-48.7	-51.3	14.0	7.00e-07	0	57	0	1229979648	60	4798
2026-01-03 08:45:31.81	336.59	14.81	-49.1	-51.9	13.5	9.10e-06	0	57	0	1237319680	60	5119
2026-01-03 08:45:35.76	336.38	14.41	-49.3	-52.3	13.0	3.81e-05	0	57	0	1244659712	60	5386
2026-01-03 08:45:39.72	336.18	14.01	-49.2	-52.0	13.2	2.44e-05	0	57	0	1251999744	60	5205
2026-01-03 08:45:43.68	335.98	13.62	-49.3	-52.2	13.1	1.98e-05	0	57	0	1259339776	60	5295
2026-01-03 08:45:47.64	335.79	13.24	-49.4	-52.6	12.7	1.29e-04	0	57	0	1266679808	60	5531
2026-01-03 08:45:51.60	335.60	12.86	-49.2	-52.1	13.2	2.36e-05	0	57	0	1274019840	60	5236
2026-01-03 08:45:55.55	335.42	12.49	-49.2	-52.1	13.2	2.51e-05	0	57	0	1281359872	60	5239
2026-01-03 08:45:59.52	335.24	12.13	-49.3	-52.3	12.9	2.89e-05	0	57	0	1288699904	60	5382
2026-01-03 08:46:03.48	335.07	11.77	-49.2	-52.0	13.2	3.20e-05	0	57	0	1297088512	60	5179
2026-01-03 08:46:07.44	334.90	11.41	-49.0	-51.8	13.4	1.67e-05	0	57	0	1304428544	60	5085
2026-01-03 08:46:11.38	334.73	11.06	-49.1	-51.9	13.3	1.37e-05	0	57	0	1311768576	60	5129
2026-01-03 08:46:15.35	334.57	10.71	-49.3	-52.2	12.9	3.50e-05	0	57	0	1319108608	60	5316
2026-01-03 08:46:19.33	334.42	10.37	-49.5	-52.6	12.5	1.08e-04	0	57	0	1326448640	60	5561
2026-01-03 08:46:23.29	334.26	10.03	-49.6	-52.9	12.2	2.01e-04	0	57	0	1333788672	61	5446
2026-01-03 08:46:27.24	334.12	9.70	-49.7	-53.3	11.7	5.49e-04	0	57	0	1341128704	61	5720
2026-01-03 08:46:31.20	333.97	9.37	-49.7	-53.2	11.9	3.97e-04	0	57	0	1348468736	61	5627
2026-01-03 08:46:35.15	333.83	9.04	-49.9	-53.7	11.3	9.19e-04	0	57	0	1355808768	61	5955
2026-01-03 08:46:39.12	333.69	8.72	-49.9	-53.8	11.2	1.19e-03	0	57	0	1363148800	61	6028
2026-01-03 08:46:43.09	333.56	8.41	-50.3	-54.5	10.5	3.40e-03	0	57	0	1370488832	62	6149
2026-01-03 08:46:47.06	333.43	8.09	-49.9	-53.7	11.3	1.11e-03	0	57	0	1378877440	62	5608
2026-01-03 08:46:51.03	333.30	7.78	-50.0	-54.0	11.0	1.70e-03	0	57	0	1386217472	62	5806
2026-01-03 08:46:55.00	333.18	7.47	-49.9	-53.7	11.2	1.39e-03	0	57	0	1393557504	62	5631
2026-01-03 08:46:58.95	333.05	7.17	-49.9	-53.7	11.2	1.41e-03	0	58	0	1400897536	62	5629
2026-01-03 08:47:02.91	332.94	6.87	-49.9	-53.6	11.3	1.38e-03	0	57	0	1408237568	62	5580
2026-01-03 08:47:06.88	332.82	6.58	-49.9	-53.8	11.1	1.49e-03	0	57	0	1415577600	62	5703
2026-01-03 08:47:10.85	332.70	6.28	-50.1	-54.2	10.6	2.48e-03	0	57	0	1422917632	62	5965
2026-01-03 08:47:14.81	332.59	5.99	-50.0	-54.1	10.6	3.17e-03	0	57	0	1430257664	62	5913
2026-01-03 08:47:18.77	332.48	5.71	-50.2	-54.5	10.2	5.66e-03	0	58	0	1437597696	62	6137
2026-01-03 08:47:22.72	332.38	5.42	-50.2	-54.8	9.9	9.18e-03	0	57	0	1444937728	62	6371
2026-01-03 08:47:26.68	332.28	5.14	-50.1	-54.5	10.2	5.86e-03	0	57	0	1452277760	62	6175
2026-01-03 08:47:30.62	332.17	4.87	-52.2	-66.3	3.8	1.49e+00	0	58	104	1455423488	66	19000
2026-01-03 08:47:34.57	332.08	4.59	-52.6	-66.6	3.8	1.49e+00	0	58	104	1455423488	67	18571
2026-01-03 08:47:38.53	331.98	4.32	-52.9	-66.7	3.8	1.49e+00	0	57	104	1455423488	67	18935
2026-01-03 08:47:42.49	331.88	4.05	-52.9	-66.9	3.8	1.49e+00	0	58	104	1455423488	67	19196
2026-01-03 08:47:46.46	331.79	3.78	-53.1	-66.9	3.8	1.49e+00	0	58	104	1455423488	67	19259
2026-01-03 08:47:50.41	331.70	3.52	-53.1	-67.1	3.8	1.49e+00	0	58	104	1455423488	68	18574
2026-01-03 08:47:54.37	331.61	3.26	-53.1	-67.0	3.8	1.49e+00	0	58	104	1455423488	68	18503
2026-01-03 08:47:58.33	331.52	3.00	-53.0	-67.0	3.8	1.49e+00	0	58	104	1455423488	68	18490

#Closed at: 2026-01-03 08:48:00
#Recorded file [1455 MB]: D:/Data/31026_260103_114728.dat