passes_logs/2026/01/03/R3.0SM8_Murmansk_STILSPACE/R3.0SM8_Murmansk_STILSPACE__20260103_074429_NOAA_21_JPSS-2_rec.log

#Pass ID: 20260103_074429_NOAA 21 (JPSS-2)
#Satellite: NOAA 21 (JPSS-2)
#Configuration: NOAA-21
#almurnet v.1.7.20240730
#Start time: 2026-01-03 07:51:57

#Version: 2.2.20231116
#Station: R3.0SM8_Murmansk_STILSPACE
#Location: 33.092731 lon 68.902999 lat
#TLE: 1 54234U 22150A   26002.25486487  .00000200  00000+0  11573-3 0  9993
#TLE: 2 54234  98.7485 303.3096 0001220 350.9074   9.2080 14.19531212163006

#Time	Az	El	Level	Level2	SNR	BER	BlckErr	Temp	State	Recorded	gain1	gain2
2026-01-03 07:51:57.37	16.36	36.24	-54.9	-74.8	3.8	7.43e-01	0	57	0	0	72	36946
2026-01-03 07:51:59.36	15.60	36.06	-53.3	-64.9	3.8	1.49e+00	0	57	104	0	69	13584
2026-01-03 07:52:01.34	14.86	35.88	-53.2	-64.8	3.8	1.49e+00	0	57	104	0	69	13536
2026-01-03 07:52:03.32	14.12	35.70	-53.2	-64.9	3.8	1.49e+00	0	57	104	0	69	13616
2026-01-03 07:52:05.29	13.40	35.51	-53.2	-64.8	3.8	1.49e+00	0	57	104	0	69	13544
2026-01-03 07:52:07.28	12.68	35.31	-53.2	-64.8	3.8	1.49e+00	0	57	104	0	69	13542
2026-01-03 07:52:09.26	11.97	35.11	-53.3	-64.8	3.8	1.49e+00	0	57	104	0	69	13513
2026-01-03 07:52:11.24	11.27	34.91	-53.3	-64.8	3.8	1.49e+00	0	57	104	0	69	13458
2026-01-03 07:52:13.22	10.57	34.71	-53.1	-64.7	3.8	1.49e+00	0	57	104	0	69	13388
2026-01-03 07:52:15.20	9.89	34.50	-53.1	-64.7	3.8	1.49e+00	0	57	104	0	68	14086
2026-01-03 07:52:17.19	9.21	34.28	-53.1	-64.6	3.8	1.49e+00	0	57	104	0	68	14036
2026-01-03 07:52:19.17	8.54	34.07	-53.2	-64.7	3.8	1.49e+00	0	57	104	0	68	14071
2026-01-03 07:52:21.14	7.89	33.85	-53.2	-64.7	3.8	1.49e+00	0	57	104	0	68	14067
2026-01-03 07:52:23.13	7.24	33.63	-53.1	-64.7	3.8	1.49e+00	0	57	104	0	68	14065
2026-01-03 07:52:25.11	6.60	33.41	-53.2	-64.6	3.8	1.49e+00	0	57	104	0	68	14034
2026-01-03 07:52:27.09	5.97	33.18	-53.1	-64.6	3.8	1.49e+00	0	57	104	0	68	13993
2026-01-03 07:52:29.06	5.35	32.95	-53.1	-64.7	3.8	1.49e+00	0	57	104	0	68	14050
2026-01-03 07:52:31.03	4.74	32.73	-53.2	-64.6	3.8	1.49e+00	0	57	104	0	68	14032
2026-01-03 07:52:33.02	4.13	32.49	-53.1	-64.6	3.8	1.49e+00	0	57	104	0	68	14005
2026-01-03 07:52:35.00	3.54	32.26	-53.1	-64.6	3.8	1.49e+00	0	57	104	0	68	14011
2026-01-03 07:52:36.97	2.95	32.02	-53.1	-64.6	3.8	1.49e+00	0	57	104	0	68	14046
2026-01-03 07:52:38.94	2.38	31.79	-52.9	-63.9	3.8	1.49e+00	0	57	104	0	68	12926
2026-01-03 07:52:40.92	1.81	31.55	-52.9	-63.3	3.8	1.49e+00	0	57	104	0	68	12042
2026-01-03 07:52:42.90	1.24	31.31	-53.0	-64.6	3.8	1.49e+00	0	57	104	0	68	13941
2026-01-03 07:52:44.88	0.69	31.07	-53.0	-63.7	3.8	1.49e+00	0	57	104	0	68	12663
2026-01-03 07:52:46.84	0.15	30.83	-52.7	-61.4	3.9	1.48e+00	0	57	104	0	68	9627
2026-01-03 07:52:48.81	359.62	30.59	-50.1	-52.9	10.5	1.14e-02	0	57	0	4194304	63	4829
2026-01-03 07:52:50.80	359.08	30.35	-46.6	-47.9	15.6	0.00e+00	0	57	0	10485760	56	4081
2026-01-03 07:52:52.78	358.56	30.10	-46.0	-47.1	16.3	0.00e+00	0	57	0	16777216	54	4160
2026-01-03 07:52:54.76	358.05	29.86	-45.7	-46.8	16.7	0.00e+00	0	57	0	23068672	54	4007
2026-01-03 07:52:56.74	357.55	29.61	-45.8	-46.9	16.5	0.00e+00	0	57	0	29360128	54	4083
2026-01-03 07:52:58.71	357.05	29.37	-45.5	-46.6	16.8	0.00e+00	0	57	0	35651584	54	3934
2026-01-03 07:53:00.68	356.56	29.13	-45.5	-46.6	16.8	0.00e+00	0	57	0	41943040	54	3914
2026-01-03 07:53:02.67	356.08	28.88	-45.6	-46.7	16.7	0.00e+00	0	57	0	47185920	54	3973
2026-01-03 07:53:04.66	355.60	28.63	-46.0	-47.1	16.3	0.00e+00	0	57	0	53477376	54	4170
2026-01-03 07:53:06.64	355.13	28.39	-45.7	-46.7	16.6	0.00e+00	0	57	0	59768832	54	3985
2026-01-03 07:53:08.62	354.67	28.14	-45.3	-46.3	17.0	0.00e+00	0	57	0	66060288	53	4023
2026-01-03 07:53:10.60	354.22	27.90	-45.2	-46.1	17.2	0.00e+00	0	57	0	72351744	53	3947
2026-01-03 07:53:12.57	353.78	27.65	-45.0	-45.9	17.4	0.00e+00	0	57	0	78643200	52	4078
2026-01-03 07:53:14.56	353.33	27.41	-44.8	-45.7	17.6	0.00e+00	0	57	0	84934656	52	3991
2026-01-03 07:53:16.54	352.90	27.16	-45.2	-46.2	17.1	0.00e+00	0	57	0	91226112	52	4217
2026-01-03 07:53:18.52	352.47	26.92	-45.8	-46.9	16.4	0.00e+00	0	57	0	97517568	53	4308
2026-01-03 07:53:20.49	352.06	26.67	-45.4	-46.5	16.8	0.00e+00	0	57	0	103809024	53	4110
2026-01-03 07:53:22.45	351.65	26.43	-44.9	-45.8	17.5	0.00e+00	0	57	0	109051904	52	4021
2026-01-03 07:53:24.44	351.24	26.19	-45.0	-45.9	17.3	0.00e+00	0	57	0	115343360	52	4084
2026-01-03 07:53:26.41	350.84	25.95	-45.3	-46.3	17.0	0.00e+00	0	57	0	121634816	52	4252
2026-01-03 07:53:28.38	350.45	25.71	-45.6	-46.7	16.5	0.00e+00	0	57	0	127926272	53	4239
2026-01-03 07:53:30.34	350.07	25.47	-45.9	-47.1	16.2	0.00e+00	0	57	0	134217728	53	4412
2026-01-03 07:53:32.32	349.68	25.23	-46.1	-47.3	16.0	0.00e+00	0	57	0	140509184	54	4262
2026-01-03 07:53:34.29	349.31	24.99	-45.6	-46.7	16.6	0.00e+00	0	57	0	146800640	54	3974
2026-01-03 07:53:36.27	348.94	24.75	-45.2	-46.2	17.1	0.00e+00	0	57	0	153092096	53	3972
2026-01-03 07:53:38.26	348.57	24.51	-45.0	-46.0	17.2	0.00e+00	0	57	0	158334976	53	3887
2026-01-03 07:53:40.24	348.21	24.28	-44.9	-45.8	17.4	0.00e+00	0	57	0	164626432	53	3815
2026-01-03 07:53:42.21	347.86	24.04	-44.8	-45.7	17.5	0.00e+00	0	57	0	170917888	52	3977
2026-01-03 07:53:44.19	347.51	23.81	-44.9	-45.8	17.4	0.00e+00	0	57	0	177209344	52	4034
2026-01-03 07:53:46.16	347.17	23.57	-45.0	-46.0	17.2	0.00e+00	0	57	0	183500800	52	4105
2026-01-03 07:53:48.13	346.83	23.34	-44.7	-45.6	17.5	0.00e+00	0	57	0	189792256	52	3949
2026-01-03 07:53:50.11	346.50	23.11	-44.8	-45.7	17.5	0.00e+00	0	57	0	196083712	52	3983
2026-01-03 07:53:52.09	346.17	22.88	-45.0	-45.9	17.3	0.00e+00	0	57	0	202375168	52	4073
2026-01-03 07:53:54.07	345.85	22.65	-45.3	-46.3	16.8	0.00e+00	0	57	0	208666624	52	4283
2026-01-03 07:53:56.05	345.53	22.42	-45.5	-46.6	16.6	0.00e+00	0	57	0	213909504	52	4392
2026-01-03 07:53:58.02	345.22	22.19	-45.6	-46.7	16.4	0.00e+00	0	57	0	220200960	53	4237
2026-01-03 07:54:00.00	344.91	21.97	-45.2	-46.2	16.9	0.00e+00	0	57	0	226492416	53	4004
2026-01-03 07:54:01.97	344.60	21.74	-45.1	-46.2	17.0	0.00e+00	0	57	0	232783872	53	3968
2026-01-03 07:54:03.95	344.30	21.52	-45.3	-46.3	16.8	0.00e+00	0	57	0	239075328	53	4051
2026-01-03 07:54:05.93	344.01	21.30	-45.5	-46.5	16.5	0.00e+00	0	57	0	245366784	53	4140
2026-01-03 07:54:07.91	343.72	21.07	-45.5	-46.5	16.5	0.00e+00	0	57	0	251658240	53	4140
2026-01-03 07:54:09.89	343.43	20.85	-45.3	-46.4	16.6	0.00e+00	0	57	0	257949696	53	4059
2026-01-03 07:54:11.87	343.15	20.63	-45.7	-46.9	16.1	0.00e+00	0	57	0	264241152	53	4292
2026-01-03 07:54:13.85	342.87	20.41	-45.5	-46.6	16.1	0.00e+00	0	57	0	270532608	53	4188
2026-01-03 07:54:15.83	342.59	20.20	-44.5	-45.5	17.2	0.00e+00	0	57	0	276824064	52	3903
2026-01-03 07:54:17.81	342.32	19.98	-45.4	-46.5	16.0	0.00e+00	0	57	0	282066944	52	4379
2026-01-03 07:54:19.80	342.05	19.76	-45.5	-46.7	15.7	0.00e+00	0	57	0	288358400	53	4224
2026-01-03 07:54:21.78	341.79	19.55	-45.9	-47.3	15.0	0.00e+00	0	57	0	294649856	53	4544
2026-01-03 07:54:23.75	341.53	19.34	-47.8	-49.9	12.4	4.04e-05	0	57	0	300941312	57	4860
2026-01-03 07:54:25.71	341.28	19.13	-48.5	-51.1	11.1	1.52e-03	0	57	0	307232768	58	5259
2026-01-03 07:54:27.68	341.03	18.92	-48.4	-50.7	11.6	8.47e-04	0	57	0	313524224	58	5036
2026-01-03 07:54:29.66	340.78	18.71	-48.5	-50.8	11.6	6.05e-04	0	57	0	319815680	58	5066
2026-01-03 07:54:31.64	340.53	18.50	-48.2	-50.5	12.2	3.46e-04	0	57	0	326107136	58	4897
2026-01-03 07:54:33.63	340.29	18.30	-46.8	-48.3	14.4	3.00e-06	0	57	0	332398592	56	4288
2026-01-03 07:54:35.61	340.05	18.09	-45.8	-47.0	15.7	1.50e-06	0	57	0	337641472	54	4133
2026-01-03 07:54:37.59	339.82	17.89	-45.6	-46.8	15.8	0.00e+00	0	57	0	343932928	54	4023
2026-01-03 07:54:39.57	339.59	17.68	-47.2	-48.9	13.8	0.00e+00	0	57	0	350224384	56	4574
2026-01-03 07:54:41.54	339.36	17.48	-51.3	-60.7	4.0	1.46e+00	0	57	104	355467264	65	10541
2026-01-03 07:54:43.51	339.13	17.28	-51.7	-62.9	3.8	1.49e+00	0	57	104	355467264	65	13684
2026-01-03 07:54:45.50	338.91	17.08	-51.8	-63.2	3.8	1.49e+00	0	57	104	355467264	65	14067
2026-01-03 07:54:47.48	338.69	16.88	-51.9	-63.2	3.8	1.49e+00	0	58	104	355467264	65	14153
2026-01-03 07:54:49.45	338.47	16.69	-52.0	-63.5	3.8	1.49e+00	0	57	104	355467264	65	14704
2026-01-03 07:54:51.43	338.26	16.49	-51.9	-63.4	3.8	1.49e+00	0	57	104	355467264	65	14379
2026-01-03 07:54:53.40	338.05	16.30	-51.8	-63.3	3.8	1.49e+00	0	58	104	355467264	65	14242
2026-01-03 07:54:55.37	337.84	16.10	-51.6	-62.8	3.8	1.49e+00	0	57	104	355467264	65	13441
2026-01-03 07:54:57.36	337.64	15.91	-51.5	-62.7	3.8	1.49e+00	0	57	104	355467264	65	13271
2026-01-03 07:54:59.33	337.44	15.72	-51.1	-62.6	3.8	1.49e+00	0	57	104	355467264	65	13212
2026-01-03 07:55:01.31	337.24	15.53	-50.6	-62.1	3.8	1.49e+00	0	57	104	355467264	64	13165
2026-01-03 07:55:03.29	337.04	15.34	-50.4	-61.9	3.8	1.49e+00	0	58	104	355467264	63	13720
2026-01-03 07:55:05.25	336.85	15.15	-50.4	-62.0	3.8	1.49e+00	0	57	104	355467264	63	13730
2026-01-03 07:55:07.22	336.65	14.97	-50.4	-61.6	3.8	1.49e+00	0	57	104	355467264	63	13236
2026-01-03 07:55:09.20	336.46	14.78	-50.3	-61.5	3.8	1.49e+00	0	57	104	355467264	63	13078
2026-01-03 07:55:11.19	336.28	14.59	-50.3	-61.7	3.8	1.49e+00	0	58	104	355467264	63	13353
2026-01-03 07:55:13.16	336.09	14.41	-50.4	-61.8	3.8	1.49e+00	0	57	104	355467264	63	13496
2026-01-03 07:55:15.14	335.91	14.23	-50.4	-61.9	3.8	1.49e+00	0	57	104	355467264	63	13672
2026-01-03 07:55:17.11	335.73	14.05	-50.5	-62.0	3.8	1.49e+00	0	57	104	355467264	63	13745
2026-01-03 07:55:19.10	335.55	13.87	-50.4	-61.9	3.8	1.49e+00	0	58	104	355467264	63	13622
2026-01-03 07:55:21.08	335.38	13.69	-50.0	-61.5	3.8	1.49e+00	0	57	104	355467264	63	13104
2026-01-03 07:55:23.07	335.20	13.51	-50.1	-61.6	3.8	1.49e+00	0	57	104	355467264	63	13153
2026-01-03 07:55:25.06	335.03	13.33	-50.3	-61.7	3.8	1.49e+00	0	57	104	355467264	63	13293
2026-01-03 07:55:27.03	334.86	13.15	-50.6	-61.7	3.8	1.49e+00	0	58	104	355467264	63	13399
2026-01-03 07:55:29.00	334.69	12.98	-50.8	-62.1	3.8	1.49e+00	0	58	104	355467264	63	13988
2026-01-03 07:55:30.97	334.53	12.80	-51.1	-62.5	3.8	1.49e+00	0	58	104	355467264	64	13822
2026-01-03 07:55:32.94	334.37	12.63	-51.7	-63.1	3.8	1.49e+00	0	57	104	355467264	65	13962
2026-01-03 07:55:34.92	334.21	12.46	-52.1	-63.4	3.8	1.49e+00	0	58	104	355467264	65	14530
2026-01-03 07:55:36.89	334.05	12.29	-52.2	-63.7	3.8	1.49e+00	0	58	104	355467264	66	14068
2026-01-03 07:55:38.86	333.89	12.12	-52.3	-63.7	3.8	1.49e+00	0	58	104	355467264	66	14091
2026-01-03 07:55:40.85	333.73	11.95	-52.3	-63.8	3.8	1.49e+00	0	57	104	355467264	66	14353
2026-01-03 07:55:42.84	333.58	11.78	-52.3	-63.9	3.8	1.49e+00	0	58	104	355467264	66	14505
2026-01-03 07:55:44.82	333.43	11.61	-52.5	-63.9	3.8	1.49e+00	0	57	104	355467264	66	14477
2026-01-03 07:55:46.79	333.28	11.44	-52.4	-63.9	3.8	1.49e+00	0	57	104	355467264	66	14415
2026-01-03 07:55:48.78	333.13	11.28	-52.4	-63.9	3.8	1.49e+00	0	57	104	355467264	66	14458
2026-01-03 07:55:50.75	332.98	11.11	-52.4	-63.9	3.8	1.49e+00	0	57	104	355467264	66	14402
2026-01-03 07:55:52.73	332.84	10.95	-52.3	-63.9	3.8	1.49e+00	0	57	104	355467264	66	14432
2026-01-03 07:55:54.72	332.70	10.79	-52.3	-63.8	3.8	1.49e+00	0	57	104	355467264	66	14290
2026-01-03 07:55:56.71	332.55	10.62	-52.4	-63.7	3.8	1.49e+00	0	58	104	355467264	66	14196
2026-01-03 07:55:58.68	332.42	10.46	-52.3	-63.7	3.8	1.49e+00	0	57	104	355467264	66	14096
2026-01-03 07:56:00.67	332.28	10.30	-52.4	-63.7	3.8	1.49e+00	0	58	104	355467264	66	14169
2026-01-03 07:56:02.65	332.14	10.14	-52.4	-63.8	3.8	1.49e+00	0	57	104	355467264	66	14364
2026-01-03 07:56:04.64	332.00	9.98	-52.4	-63.9	3.8	1.49e+00	0	57	104	355467264	66	14505
2026-01-03 07:56:06.62	331.87	9.82	-52.5	-64.0	3.8	1.49e+00	0	57	104	355467264	66	14571
2026-01-03 07:56:08.61	331.74	9.67	-52.5	-64.0	3.8	1.49e+00	0	58	104	355467264	66	14614
2026-01-03 07:56:10.57	331.61	9.51	-52.5	-64.0	3.8	1.49e+00	0	58	104	355467264	66	14571
2026-01-03 07:56:12.55	331.48	9.36	-52.5	-64.0	3.8	1.49e+00	0	57	104	355467264	66	14583
2026-01-03 07:56:14.53	331.35	9.20	-52.5	-64.0	3.8	1.49e+00	0	58	104	355467264	66	14573
2026-01-03 07:56:16.50	331.23	9.05	-52.4	-64.0	3.8	1.49e+00	0	58	104	355467264	66	14560
2026-01-03 07:56:18.48	331.10	8.89	-52.4	-63.9	3.8	1.49e+00	0	57	104	355467264	66	14451
2026-01-03 07:56:20.45	330.98	8.74	-52.4	-63.8	3.8	1.49e+00	0	57	104	355467264	66	14331
2026-01-03 07:56:22.43	330.86	8.59	-52.4	-63.8	3.8	1.49e+00	0	58	104	355467264	66	14306
2026-01-03 07:56:24.41	330.74	8.44	-52.3	-63.8	3.8	1.49e+00	0	57	104	355467264	66	14276
2026-01-03 07:56:26.39	330.62	8.29	-52.2	-63.7	3.8	1.49e+00	0	58	104	355467264	66	14200
2026-01-03 07:56:28.37	330.50	8.14	-52.0	-63.6	3.8	1.49e+00	0	57	104	355467264	66	13983
2026-01-03 07:56:30.35	330.38	7.99	-52.0	-63.6	3.8	1.49e+00	0	58	104	355467264	66	13972
2026-01-03 07:56:32.33	330.27	7.85	-51.9	-63.6	3.8	1.49e+00	0	58	104	355467264	66	14007
2026-01-03 07:56:34.31	330.15	7.70	-52.2	-63.7	3.8	1.49e+00	0	58	104	355467264	66	14182
2026-01-03 07:56:36.29	330.04	7.55	-52.2	-63.7	3.8	1.49e+00	0	58	104	355467264	66	14192
2026-01-03 07:56:38.27	329.93	7.41	-52.0	-63.7	3.8	1.49e+00	0	58	104	355467264	66	14160
2026-01-03 07:56:40.25	329.82	7.26	-52.2	-63.7	3.8	1.49e+00	0	58	104	355467264	66	14185
2026-01-03 07:56:42.24	329.71	7.12	-52.3	-63.7	3.8	1.49e+00	0	57	104	355467264	66	14201
2026-01-03 07:56:44.21	329.60	6.98	-52.1	-63.7	3.8	1.49e+00	0	58	104	355467264	66	14110
2026-01-03 07:56:46.20	329.49	6.83	-52.1	-63.6	3.8	1.49e+00	0	58	104	355467264	66	14045
2026-01-03 07:56:48.17	329.39	6.69	-52.1	-63.6	3.8	1.49e+00	0	58	104	355467264	66	13987
2026-01-03 07:56:50.14	329.28	6.55	-52.0	-63.7	3.8	1.49e+00	0	57	104	355467264	66	14061
2026-01-03 07:56:52.12	329.18	6.41	-52.2	-63.8	3.8	1.49e+00	0	58	104	355467264	66	14215
2026-01-03 07:56:54.09	329.08	6.27	-52.2	-63.8	3.8	1.49e+00	0	57	104	355467264	66	14265
2026-01-03 07:56:56.07	328.97	6.13	-52.3	-63.8	3.8	1.49e+00	0	58	104	355467264	66	14319
2026-01-03 07:56:58.06	328.87	5.99	-52.3	-63.8	3.8	1.49e+00	0	58	104	355467264	66	14260
2026-01-03 07:57:00.03	328.77	5.85	-52.3	-63.8	3.8	1.49e+00	0	58	104	355467264	66	14253
2026-01-03 07:57:02.01	328.68	5.72	-52.3	-63.8	3.8	1.49e+00	0	58	104	355467264	66	14238
2026-01-03 07:57:03.98	328.58	5.58	-52.3	-63.7	3.8	1.49e+00	0	58	104	355467264	66	14189
2026-01-03 07:57:05.96	328.48	5.45	-52.1	-63.7	3.8	1.49e+00	0	58	104	355467264	66	14103
2026-01-03 07:57:07.93	328.39	5.31	-52.2	-63.6	3.8	1.49e+00	0	57	104	355467264	66	13974
2026-01-03 07:57:09.92	328.29	5.17	-52.0	-63.6	3.8	1.49e+00	0	58	104	355467264	66	13932
2026-01-03 07:57:11.89	328.20	5.04	-52.1	-63.5	3.8	1.49e+00	0	58	104	355467264	66	13862
2026-01-03 07:57:13.86	328.10	4.91	-49.0	-60.5	3.8	1.49e+00	0	58	104	355467264	60	13869
2026-01-03 07:57:15.84	328.01	4.77	-52.8	-64.3	3.8	1.49e+00	0	58	104	355467264	67	14276
2026-01-03 07:57:17.81	327.92	4.64	-53.0	-64.5	3.8	1.49e+00	0	58	104	355467264	67	14607
2026-01-03 07:57:19.78	327.83	4.51	-53.2	-64.7	3.8	1.49e+00	0	58	104	355467264	68	14102
2026-01-03 07:57:21.76	327.74	4.38	-53.2	-64.8	3.8	1.49e+00	0	58	104	355467264	68	14218
2026-01-03 07:57:23.74	327.65	4.25	-53.2	-64.8	3.8	1.49e+00	0	58	104	355467264	68	14273
2026-01-03 07:57:25.73	327.57	4.12	-53.3	-64.8	3.8	1.49e+00	0	58	104	355467264	68	14293
2026-01-03 07:57:27.70	327.48	3.99	-53.3	-64.8	3.8	1.49e+00	0	58	104	355467264	68	14354
2026-01-03 07:57:29.66	327.39	3.86	-53.3	-64.9	3.8	1.49e+00	0	58	104	355467264	68	14416
2026-01-03 07:57:31.63	327.31	3.73	-53.4	-64.9	3.8	1.49e+00	0	58	104	355467264	68	14429
2026-01-03 07:57:33.61	327.23	3.61	-53.4	-64.9	3.8	1.49e+00	0	58	104	355467264	68	14438
2026-01-03 07:57:35.58	327.14	3.48	-53.4	-64.9	3.8	1.49e+00	0	58	104	355467264	68	14461
2026-01-03 07:57:37.56	327.06	3.35	-53.2	-64.9	3.8	1.49e+00	0	57	104	355467264	68	14404
2026-01-03 07:57:39.55	326.98	3.22	-53.3	-64.9	3.8	1.49e+00	0	58	104	355467264	68	14382
2026-01-03 07:57:41.53	326.90	3.10	-53.1	-64.9	3.8	1.49e+00	0	58	104	355467264	68	14401
2026-01-03 07:57:43.50	326.82	2.97	-53.2	-64.8	3.8	1.49e+00	0	58	104	355467264	68	14358

#Closed at: 2026-01-03 07:57:43
#Recorded file [355 MB]: D:/Data/31026_260103_105441.dat