passes_logs/2026/01/25/R2.0S_Moscow/R2.0S_Moscow__20260125_225834_NOAA_21_JPSS-2_rec.log

#Pass ID: 20260125_225834_NOAA 21 (JPSS-2)
#Satellite: NOAA 21 (JPSS-2)
#Configuration: NOAA-21
#almurnet v.1.7.20251203
#Start time: 2026-01-25 22:58:34

#Version: 2.2.20231116
#Station: R2.0S_Moscow
#Location: 37.707566 lon 55.798166 lat
#TLE: 1 54234U 22150A   26025.44451686  .00000186  00000+0  10896-3 0  9992
#TLE: 2 54234  98.7509 326.2184 0000763 215.1852 144.9274 14.19539183166293

#Time	Az	El	Level	Level2	SNR	BER	BlckErr	Temp	State	Recorded	gain1	gain2
2026-01-25 22:58:34.58	19.62	1.99	-42.0	-54.3	3.8	1.49e+00	0	52	0	0	56	14185
2026-01-25 22:58:38.62	19.76	2.24	-41.8	-54.1	3.8	1.49e+00	0	52	104	0	55	14708
2026-01-25 22:58:42.66	19.90	2.49	-41.8	-54.1	3.8	1.49e+00	0	53	104	0	55	14706
2026-01-25 22:58:46.70	20.05	2.75	-41.8	-54.1	3.8	1.49e+00	0	53	104	0	55	14690
2026-01-25 22:58:50.75	20.20	3.00	-41.8	-54.1	3.8	1.49e+00	0	53	104	0	55	14688
2026-01-25 22:58:54.79	20.35	3.26	-41.8	-54.1	3.8	1.49e+00	0	54	104	0	55	14682
2026-01-25 22:58:58.83	20.50	3.52	-41.8	-54.2	3.8	1.49e+00	0	54	104	0	55	14720
2026-01-25 22:59:02.87	20.65	3.78	-41.8	-54.1	3.8	1.49e+00	0	54	104	0	55	14697
2026-01-25 22:59:06.92	20.81	4.05	-41.8	-54.1	3.8	1.49e+00	0	54	104	0	55	14657
2026-01-25 22:59:10.96	20.97	4.32	-41.8	-54.1	3.8	1.49e+00	0	55	104	0	55	14706
2026-01-25 22:59:15.00	21.14	4.59	-41.8	-54.1	3.8	1.49e+00	0	55	104	0	55	14659
2026-01-25 22:59:19.04	21.30	4.86	-41.8	-54.1	3.8	1.49e+00	0	55	104	0	55	14705
2026-01-25 22:59:23.08	21.47	5.14	-41.8	-54.1	3.8	1.49e+00	0	55	104	0	55	14685
2026-01-25 22:59:27.12	21.64	5.42	-41.8	-54.1	3.8	1.49e+00	0	56	104	0	55	14647
2026-01-25 22:59:31.16	21.81	5.70	-41.8	-54.1	3.8	1.49e+00	0	56	104	0	55	14638
2026-01-25 22:59:35.20	21.99	5.98	-41.8	-54.1	3.8	1.49e+00	0	56	104	0	55	14625
2026-01-25 22:59:39.24	22.17	6.27	-41.8	-54.1	3.8	1.49e+00	0	56	104	0	55	14611
2026-01-25 22:59:43.29	22.36	6.56	-41.8	-54.1	3.8	1.49e+00	0	57	104	0	55	14609
2026-01-25 22:59:47.32	22.54	6.85	-41.8	-54.1	3.8	1.49e+00	0	56	104	0	55	14621
2026-01-25 22:59:51.37	22.73	7.15	-41.8	-54.1	3.8	1.49e+00	0	57	104	0	55	14558
2026-01-25 22:59:55.40	22.93	7.45	-41.7	-53.2	3.8	1.49e+00	0	57	104	0	55	13245
2026-01-25 22:59:59.44	23.12	7.75	-41.5	-51.5	4.0	1.48e+00	0	57	104	0	55	10779
2026-01-25 23:00:03.49	23.32	8.06	-41.2	-48.4	5.2	7.18e-01	0	57	0	1048576	54	7994
2026-01-25 23:00:07.53	23.53	8.37	-39.7	-43.2	10.7	1.51e-02	0	57	0	8388608	51	5229
2026-01-25 23:00:11.57	23.74	8.68	-40.4	-44.2	9.8	9.35e-03	0	58	0	20971520	51	5886
2026-01-25 23:00:15.61	23.95	9.00	-40.0	-43.3	10.9	2.16e-03	0	58	0	33554432	51	5309
2026-01-25 23:00:19.65	24.17	9.32	-40.0	-43.2	11.3	1.12e-03	0	57	0	46137344	51	5219
2026-01-25 23:00:23.69	24.39	9.65	-40.2	-43.4	11.1	1.49e-03	0	58	0	58720256	51	5396
2026-01-25 23:00:27.72	24.62	9.97	-40.2	-43.3	11.3	1.62e-03	0	58	0	71303168	51	5332
2026-01-25 23:00:31.76	24.85	10.31	-40.2	-43.2	11.6	8.05e-04	0	58	0	83886080	51	5222
2026-01-25 23:00:35.80	25.09	10.64	-40.1	-42.9	12.0	3.12e-04	0	58	0	96468992	51	5087
2026-01-25 23:00:39.84	25.33	10.99	-40.1	-42.9	12.2	2.53e-04	0	58	0	109051904	51	5048
2026-01-25 23:00:43.89	25.58	11.33	-40.0	-42.7	12.4	1.37e-04	0	58	0	121634816	51	4955
2026-01-25 23:00:47.92	25.83	11.68	-39.9	-42.6	12.6	1.17e-04	0	58	0	134217728	51	4916
2026-01-25 23:00:51.96	26.09	12.04	-39.9	-42.4	12.7	6.94e-05	0	58	0	146800640	51	4814
2026-01-25 23:00:56.01	26.35	12.40	-39.9	-42.6	12.7	7.24e-05	0	59	0	159383552	51	4891
2026-01-25 23:01:00.04	26.62	12.76	-39.9	-42.5	12.8	6.56e-05	0	58	0	171966464	51	4830
2026-01-25 23:01:04.08	26.90	13.13	-39.9	-42.5	12.9	5.11e-05	0	59	0	184549376	51	4816
2026-01-25 23:01:08.12	27.18	13.50	-39.8	-42.2	13.2	2.67e-05	0	59	0	197132288	51	4686
2026-01-25 23:01:12.16	27.47	13.88	-39.8	-42.3	13.2	2.51e-05	0	59	0	209715200	51	4706
2026-01-25 23:01:16.20	27.77	14.27	-39.8	-42.3	13.2	1.67e-05	0	59	0	222298112	51	4713
2026-01-25 23:01:20.24	28.07	14.66	-39.8	-42.3	13.2	2.28e-05	0	59	0	235929600	51	4736
2026-01-25 23:01:24.28	28.38	15.06	-39.9	-42.4	13.1	3.12e-05	0	59	0	248512512	51	4769
2026-01-25 23:01:28.32	28.70	15.46	-39.9	-42.4	13.2	2.97e-05	0	59	0	260046848	51	4782
2026-01-25 23:01:32.36	29.03	15.87	-40.1	-42.6	13.0	4.65e-05	0	59	0	273678336	51	4909
2026-01-25 23:01:36.41	29.37	16.28	-40.2	-42.8	12.8	5.03e-05	0	59	0	286261248	51	4996
2026-01-25 23:01:40.45	29.72	16.70	-40.3	-42.9	12.7	6.56e-05	0	59	0	298844160	51	5079
2026-01-25 23:01:44.49	30.07	17.13	-40.1	-42.6	13.0	2.89e-05	0	60	0	311427072	51	4903
2026-01-25 23:01:48.53	30.44	17.57	-40.2	-42.8	12.9	4.88e-05	0	60	0	324009984	51	5011
2026-01-25 23:01:52.57	30.81	18.01	-40.1	-42.6	13.1	2.89e-05	0	60	0	336592896	51	4918
2026-01-25 23:01:56.62	31.20	18.46	-40.2	-42.7	13.1	2.67e-05	0	60	0	349175808	51	4932
2026-01-25 23:02:00.66	31.60	18.91	-40.0	-42.4	13.3	1.22e-05	0	60	0	361758720	51	4795
2026-01-25 23:02:04.70	32.01	19.37	-39.9	-42.2	13.5	9.10e-06	0	60	0	374341632	51	4701
2026-01-25 23:02:08.74	32.43	19.84	-39.7	-41.9	13.9	2.20e-06	0	60	0	386924544	51	4525
2026-01-25 23:02:12.78	32.86	20.32	-39.5	-41.7	14.0	0.00e+00	0	60	0	399507456	51	4432
2026-01-25 23:02:16.83	33.31	20.80	-39.4	-41.5	14.3	1.50e-06	0	60	0	412090368	50	4580
2026-01-25 23:02:20.87	33.77	21.29	-39.3	-41.3	14.5	0.00e+00	0	60	0	424673280	50	4479
2026-01-25 23:02:24.91	34.25	21.80	-39.2	-41.2	14.6	7.00e-07	0	60	0	437256192	50	4432
2026-01-25 23:02:28.95	34.74	22.30	-39.2	-41.3	14.6	0.00e+00	0	60	0	449839104	50	4448
2026-01-25 23:02:32.99	35.24	22.82	-39.0	-41.0	14.9	0.00e+00	0	60	0	462422016	50	4306
2026-01-25 23:02:37.03	35.76	23.34	-38.9	-40.9	15.0	0.00e+00	0	60	0	475004928	49	4500
2026-01-25 23:02:41.07	36.30	23.88	-39.0	-40.9	15.0	7.00e-07	0	60	0	487587840	49	4539
2026-01-25 23:02:45.11	36.86	24.42	-39.0	-41.0	15.0	7.00e-07	0	60	0	500170752	49	4561
2026-01-25 23:02:49.16	37.44	24.97	-39.1	-41.1	14.8	0.00e+00	0	60	0	512753664	49	4641
2026-01-25 23:02:53.19	38.04	25.53	-39.3	-41.3	14.7	0.00e+00	0	60	0	526385152	49	4744
2026-01-25 23:02:57.24	38.66	26.10	-39.5	-41.6	14.5	1.50e-06	0	60	0	538968064	49	4883
2026-01-25 23:03:01.28	39.30	26.67	-39.6	-41.7	14.3	2.20e-06	0	61	0	551550976	49	4948
2026-01-25 23:03:05.32	39.96	27.26	-39.6	-41.8	14.2	1.50e-06	0	61	0	564133888	49	4991
2026-01-25 23:03:09.36	40.65	27.85	-39.8	-42.0	14.0	3.80e-06	0	61	0	576716800	50	4846
2026-01-25 23:03:13.40	41.37	28.46	-39.8	-42.0	14.1	3.80e-06	0	60	0	589299712	50	4827
2026-01-25 23:03:17.44	42.11	29.07	-39.7	-41.9	14.2	7.00e-07	0	61	0	601882624	50	4793
2026-01-25 23:03:21.48	42.88	29.69	-39.8	-41.9	14.1	1.50e-06	0	61	0	614465536	50	4801
2026-01-25 23:03:25.52	43.67	30.31	-39.6	-41.8	14.3	1.50e-06	0	61	0	627048448	50	4706
2026-01-25 23:03:29.56	44.50	30.95	-39.5	-41.6	14.5	7.00e-07	0	61	0	639631360	50	4611
2026-01-25 23:03:33.61	45.37	31.59	-39.6	-41.7	14.4	2.20e-06	0	61	0	652214272	50	4661
2026-01-25 23:03:37.65	46.27	32.24	-39.8	-42.0	14.1	0.00e+00	0	61	0	664797184	50	4837
2026-01-25 23:03:41.69	47.20	32.90	-40.1	-42.3	13.8	6.80e-06	0	61	0	677380096	50	5032
2026-01-25 23:03:45.73	48.17	33.56	-40.4	-42.8	13.4	1.22e-05	0	61	0	689963008	51	4987
2026-01-25 23:03:49.77	49.18	34.23	-40.4	-42.8	13.3	1.98e-05	0	61	0	702545920	51	5021
2026-01-25 23:03:53.81	50.24	34.90	-40.4	-42.8	13.3	2.44e-05	0	61	0	715128832	51	5039
2026-01-25 23:03:57.85	51.33	35.58	-40.6	-43.1	13.0	3.66e-05	0	61	0	727711744	51	5217
2026-01-25 23:04:01.89	52.48	36.26	-41.0	-43.7	12.5	1.31e-04	0	61	0	740294656	52	5228
2026-01-25 23:04:05.93	53.67	36.94	-41.0	-43.7	12.4	1.52e-04	0	61	0	752877568	52	5272
2026-01-25 23:04:09.97	54.91	37.62	-41.1	-43.9	12.1	2.49e-04	0	61	0	765460480	52	5400
2026-01-25 23:04:14.01	56.20	38.29	-41.2	-44.1	12.0	3.29e-04	0	61	0	778043392	53	5205
2026-01-25 23:04:18.05	57.55	38.97	-41.0	-43.7	12.4	1.94e-04	0	61	0	790626304	53	4982
2026-01-25 23:04:22.10	58.95	39.64	-40.9	-43.6	12.5	1.36e-04	0	61	0	803209216	53	4912
2026-01-25 23:04:26.13	60.41	40.30	-41.0	-43.7	12.5	1.36e-04	0	61	0	816840704	53	4939
2026-01-25 23:04:30.17	61.93	40.96	-41.4	-44.3	11.9	3.19e-04	0	61	0	829423616	53	5285
2026-01-25 23:04:34.21	63.51	41.60	-41.6	-44.7	11.5	8.63e-04	0	61	0	842006528	53	5540
2026-01-25 23:04:38.25	65.16	42.23	-41.5	-44.5	11.6	6.48e-04	0	61	0	854589440	54	5140
2026-01-25 23:04:42.29	66.87	42.85	-41.3	-44.2	12.0	3.45e-04	0	61	0	867172352	54	4963
2026-01-25 23:04:46.33	68.65	43.44	-41.2	-44.0	12.2	2.21e-04	0	61	0	879755264	54	4837
2026-01-25 23:04:50.38	70.49	44.02	-41.4	-44.3	11.9	3.69e-04	0	61	0	892338176	54	4992
2026-01-25 23:04:54.42	72.40	44.56	-41.4	-44.2	11.9	4.66e-04	0	61	0	904921088	54	4971
2026-01-25 23:04:58.46	74.37	45.08	-41.5	-44.5	11.7	5.48e-04	0	61	0	917504000	54	5145
2026-01-25 23:05:02.50	76.40	45.57	-41.5	-44.5	11.7	4.92e-04	0	61	0	930086912	54	5140
2026-01-25 23:05:06.54	78.50	46.02	-41.6	-44.6	11.8	4.98e-04	0	61	0	942669824	54	5161
2026-01-25 23:05:10.58	80.65	46.44	-41.3	-44.1	12.2	2.73e-04	0	61	0	955252736	54	4910
2026-01-25 23:05:14.63	82.87	46.81	-41.6	-44.5	11.7	5.56e-04	0	61	0	967835648	54	5157
2026-01-25 23:05:18.67	85.13	47.14	-41.3	-44.1	12.1	2.70e-04	0	61	0	980418560	54	4905
2026-01-25 23:05:22.71	87.43	47.43	-41.2	-44.0	12.3	1.92e-04	0	61	0	993001472	54	4815
2026-01-25 23:05:26.75	89.77	47.66	-41.1	-43.8	12.5	1.11e-04	0	61	0	1005584384	54	4745
2026-01-25 23:05:30.79	92.15	47.85	-41.4	-44.3	12.0	3.00e-04	0	61	0	1018167296	54	4996
2026-01-25 23:05:34.84	94.55	47.98	-41.1	-43.8	12.5	8.85e-05	0	61	0	1030750208	53	4990
2026-01-25 23:05:38.88	96.97	48.06	-41.4	-44.2	12.0	2.49e-04	0	61	0	1043333120	53	5279
2026-01-25 23:05:42.93	99.40	48.09	-41.1	-43.8	12.5	1.30e-04	0	61	0	1055916032	53	5017
2026-01-25 23:05:46.97	101.82	48.06	-41.3	-44.2	12.1	2.97e-04	0	61	0	1068498944	53	5231
2026-01-25 23:05:51.01	104.24	47.98	-41.7	-44.8	11.5	5.52e-04	0	61	0	1081081856	53	5617
2026-01-25 23:05:55.06	106.64	47.84	-41.8	-44.9	11.3	1.16e-03	0	61	0	1093664768	54	5392
2026-01-25 23:05:59.10	109.02	47.65	-41.7	-44.7	11.6	7.36e-04	0	61	0	1107296256	54	5259
2026-01-25 23:06:03.14	111.36	47.41	-41.4	-44.3	12.0	4.66e-04	0	61	0	1119879168	54	5008
2026-01-25 23:06:07.18	113.66	47.12	-41.3	-44.2	12.1	2.14e-04	0	61	0	1132462080	54	4941
2026-01-25 23:06:11.21	115.92	46.79	-41.3	-44.1	12.2	1.61e-04	0	61	0	1145044992	54	4874
2026-01-25 23:06:15.26	118.13	46.41	-41.8	-45.0	11.4	9.57e-04	0	61	0	1157627904	54	5403
2026-01-25 23:06:19.30	120.29	45.99	-41.1	-43.7	12.6	1.36e-04	0	61	0	1170210816	54	4684
2026-01-25 23:06:23.34	122.38	45.53	-40.9	-43.5	12.8	6.17e-05	0	61	0	1182793728	53	4817
2026-01-25 23:06:27.38	124.42	45.04	-40.9	-43.4	12.8	4.04e-05	0	61	0	1195376640	53	4805
2026-01-25 23:06:31.42	126.39	44.52	-41.2	-43.9	12.4	1.94e-04	0	61	0	1207959552	53	5062
2026-01-25 23:06:35.46	128.30	43.97	-41.3	-44.1	12.1	2.14e-04	0	61	0	1220542464	53	5193
2026-01-25 23:06:39.50	130.14	43.39	-41.9	-45.1	11.1	1.72e-03	0	61	0	1233125376	54	5483
2026-01-25 23:06:43.55	131.92	42.79	-41.8	-45.0	11.3	1.38e-03	0	62	0	1245708288	54	5424
2026-01-25 23:06:47.59	133.63	42.17	-41.6	-44.6	11.7	6.22e-04	0	62	0	1258291200	54	5175
2026-01-25 23:06:51.63	135.28	41.54	-41.2	-44.0	12.3	2.09e-04	0	61	0	1270874112	54	4852
2026-01-25 23:06:55.67	136.86	40.89	-41.0	-43.6	12.6	1.12e-04	0	61	0	1283457024	53	4915
2026-01-25 23:06:59.71	138.38	40.23	-41.2	-44.0	12.2	1.90e-04	0	61	0	1296039936	53	5146
2026-01-25 23:07:03.75	139.84	39.56	-41.8	-44.9	11.3	1.03e-03	0	61	0	1308622848	54	5369
2026-01-25 23:07:07.79	141.25	38.89	-41.5	-44.5	11.7	6.00e-04	0	62	0	1321205760	54	5109
2026-01-25 23:07:11.83	142.59	38.21	-41.1	-43.9	12.3	1.59e-04	0	61	0	1333788672	54	4799
2026-01-25 23:07:15.87	143.89	37.53	-40.8	-43.4	12.8	5.18e-05	0	61	0	1346371584	53	4775
2026-01-25 23:07:19.91	145.13	36.84	-40.6	-43.0	13.2	2.89e-05	0	62	0	1358954496	53	4583
2026-01-25 23:07:23.95	146.32	36.16	-40.9	-43.5	12.6	7.70e-05	0	62	0	1371537408	52	5128
2026-01-25 23:07:27.99	147.46	35.48	-41.0	-43.7	12.4	1.24e-04	0	62	0	1384120320	52	5236
2026-01-25 23:07:32.03	148.56	34.80	-40.7	-43.3	12.7	7.01e-05	0	62	0	1397751808	52	5010
2026-01-25 23:07:36.08	149.61	34.12	-40.8	-43.5	12.7	9.23e-05	0	62	0	1410334720	52	5105
2026-01-25 23:07:40.12	150.62	33.45	-40.5	-42.9	13.2	1.52e-05	0	62	0	1422917632	52	4806
2026-01-25 23:07:44.16	151.59	32.78	-40.3	-42.7	13.4	7.60e-06	0	62	0	1435500544	52	4690
2026-01-25 23:07:48.20	152.52	32.12	-40.1	-42.4	13.5	8.30e-06	0	62	0	1448083456	52	4520
2026-01-25 23:07:52.25	153.42	31.47	-39.9	-42.1	13.9	5.30e-06	0	62	0	1460666368	51	4633
2026-01-25 23:07:56.29	154.28	30.82	-39.4	-41.4	14.6	0.00e+00	0	61	0	1473249280	50	4530
2026-01-25 23:08:00.34	155.12	30.18	-39.6	-41.7	14.3	0.00e+00	0	62	0	1485832192	50	4683
2026-01-25 23:08:04.38	155.91	29.55	-39.6	-41.7	14.4	0.00e+00	0	62	0	1498415104	50	4675
2026-01-25 23:08:08.42	156.68	28.92	-39.5	-41.5	14.6	0.00e+00	0	62	0	1510998016	50	4577
2026-01-25 23:08:12.45	157.42	28.31	-39.7	-41.8	14.2	1.50e-06	0	62	0	1523580928	50	4752
2026-01-25 23:08:16.49	158.13	27.71	-39.6	-41.6	14.4	1.50e-06	0	61	0	1536163840	50	4651
2026-01-25 23:08:20.53	158.82	27.11	-39.4	-41.4	14.6	1.50e-06	0	61	0	1548746752	50	4513
2026-01-25 23:08:24.57	159.48	26.52	-39.4	-41.4	14.6	0.00e+00	0	62	0	1561329664	50	4528
2026-01-25 23:08:28.62	160.12	25.94	-39.2	-41.2	14.8	0.00e+00	0	62	0	1573912576	50	4410
2026-01-25 23:08:32.66	160.74	25.37	-39.2	-41.2	14.7	0.00e+00	0	62	0	1586495488	50	4416
2026-01-25 23:08:36.70	161.33	24.81	-39.3	-41.3	14.7	0.00e+00	0	62	0	1599078400	50	4445
2026-01-25 23:08:40.74	161.91	24.25	-39.5	-41.5	14.4	1.50e-06	0	62	0	1611661312	50	4595
2026-01-25 23:08:44.78	162.47	23.71	-39.7	-41.9	14.0	7.00e-07	0	62	0	1624244224	50	4794
2026-01-25 23:08:48.82	163.00	23.17	-39.8	-42.1	13.7	7.60e-06	0	62	0	1636827136	50	4899
2026-01-25 23:08:52.86	163.52	22.64	-39.7	-42.0	13.8	3.00e-06	0	62	0	1649410048	50	4826
2026-01-25 23:08:56.90	164.03	22.12	-39.5	-41.6	14.2	7.00e-07	0	62	0	1661992960	50	4640
2026-01-25 23:09:00.94	164.52	21.61	-39.4	-41.5	14.3	1.50e-06	0	62	0	1675624448	50	4552
2026-01-25 23:09:04.98	164.99	21.11	-39.5	-41.6	14.2	0.00e+00	0	62	0	1688207360	50	4623
2026-01-25 23:09:09.02	165.45	20.62	-39.6	-41.7	14.1	3.80e-06	0	62	0	1699741696	50	4681
2026-01-25 23:09:13.06	165.89	20.13	-39.5	-41.6	14.2	1.50e-06	0	62	0	1713373184	50	4631
2026-01-25 23:09:17.10	166.32	19.65	-39.7	-42.0	13.8	6.10e-06	0	62	0	1725956096	50	4818
2026-01-25 23:09:21.15	166.74	19.18	-39.5	-41.7	14.0	3.00e-06	0	62	0	1738539008	50	4695
2026-01-25 23:09:25.18	167.15	18.72	-39.5	-41.7	13.9	3.00e-06	0	62	0	1751121920	50	4682
2026-01-25 23:09:29.22	167.54	18.26	-39.5	-41.7	14.0	1.50e-06	0	61	0	1763704832	50	4669
2026-01-25 23:09:33.26	167.93	17.81	-39.3	-41.4	14.3	0.00e+00	0	62	0	1776287744	50	4531
2026-01-25 23:09:37.30	168.30	17.37	-39.5	-41.6	14.1	1.50e-06	0	62	0	1788870656	50	4620
2026-01-25 23:09:41.34	168.66	16.93	-39.6	-41.8	13.9	3.80e-06	0	62	0	1801453568	50	4752
2026-01-25 23:09:45.38	169.01	16.50	-39.6	-41.9	13.8	4.50e-06	0	62	0	1814036480	50	4762
2026-01-25 23:09:49.43	169.36	16.08	-39.8	-42.1	13.5	9.90e-06	0	62	0	1826619392	50	4904
2026-01-25 23:09:53.47	169.69	15.66	-40.0	-42.4	13.2	1.90e-05	0	62	0	1839202304	50	5073
2026-01-25 23:09:57.51	170.02	15.25	-40.1	-42.5	13.0	4.11e-05	0	61	0	1851785216	50	5144
2026-01-25 23:10:01.55	170.34	14.85	-40.2	-42.9	12.6	8.23e-05	0	62	0	1864368128	51	5044
2026-01-25 23:10:05.59	170.64	14.45	-40.1	-42.6	12.9	6.63e-05	0	62	0	1876951040	51	4915
2026-01-25 23:10:09.63	170.95	14.06	-40.2	-42.7	12.7	5.95e-05	0	62	0	1889533952	51	4974
2026-01-25 23:10:13.67	171.24	13.67	-40.0	-42.5	12.9	5.72e-05	0	62	0	1902116864	51	4829
2026-01-25 23:10:17.71	171.53	13.29	-40.1	-42.6	12.7	7.47e-05	0	62	0	1914699776	51	4922
2026-01-25 23:10:21.75	171.81	12.91	-40.1	-42.7	12.7	8.62e-05	0	62	0	1927282688	51	4931
2026-01-25 23:10:25.80	172.08	12.54	-40.1	-42.7	12.6	9.68e-05	0	62	0	1939865600	51	4962
2026-01-25 23:10:29.84	172.35	12.17	-40.2	-42.8	12.4	1.58e-04	0	62	0	1952448512	51	5033
2026-01-25 23:10:33.88	172.61	11.81	-40.2	-42.9	12.5	1.09e-04	0	62	0	1966080000	51	5049
2026-01-25 23:10:37.92	172.86	11.45	-40.1	-42.8	12.5	1.30e-04	0	62	0	1977614336	51	5001
2026-01-25 23:10:41.95	173.11	11.10	-40.1	-42.8	12.5	9.84e-05	0	62	0	1990197248	51	4998
2026-01-25 23:10:46.00	173.35	10.76	-40.2	-43.0	12.2	1.86e-04	0	62	0	2003828736	51	5115
2026-01-25 23:10:50.04	173.59	10.41	-40.2	-43.0	12.2	2.16e-04	0	62	0	2016411648	51	5110
2026-01-25 23:10:54.08	173.82	10.07	-40.2	-43.0	12.2	2.26e-04	0	62	0	2028994560	51	5104
2026-01-25 23:10:58.12	174.05	9.74	-40.3	-43.2	11.9	4.03e-04	0	61	0	2041577472	51	5230
2026-01-25 23:11:02.16	174.27	9.41	-40.4	-43.4	11.5	7.32e-04	0	62	0	2054160384	51	5353
2026-01-25 23:11:06.20	174.49	9.08	-40.3	-43.4	11.4	9.07e-04	0	62	0	2066743296	51	5375
2026-01-25 23:11:10.24	174.70	8.76	-40.3	-43.4	11.2	1.36e-03	0	62	0	2079326208	51	5395
2026-01-25 23:11:14.28	174.91	8.44	-40.3	-43.7	10.7	3.03e-03	0	62	0	2091909120	51	5540
2026-01-25 23:11:18.32	175.12	8.13	-40.4	-44.0	10.1	5.81e-03	0	62	0	2104492032	51	5772
2026-01-25 23:11:22.37	175.32	7.82	-44.9	-57.4	3.8	1.49e+00	0	62	104	2109734912	60	15945
2026-01-25 23:11:26.41	175.52	7.51	-45.3	-57.8	3.8	1.49e+00	0	62	104	2109734912	61	15795
2026-01-25 23:11:30.45	175.71	7.20	-45.4	-57.8	3.8	1.49e+00	0	62	104	2109734912	61	15839
2026-01-25 23:11:34.49	175.90	6.90	-45.3	-57.7	3.8	1.49e+00	0	62	104	2109734912	61	15680
2026-01-25 23:11:38.54	176.08	6.61	-45.2	-57.6	3.8	1.49e+00	0	62	104	2109734912	61	15511
2026-01-25 23:11:42.58	176.27	6.31	-45.2	-57.6	3.8	1.49e+00	0	62	104	2109734912	61	15442
2026-01-25 23:11:46.62	176.45	6.02	-45.2	-57.6	3.8	1.49e+00	0	62	104	2109734912	61	15524
2026-01-25 23:11:50.67	176.62	5.73	-45.2	-57.6	3.8	1.49e+00	0	62	104	2109734912	61	15470
2026-01-25 23:11:54.71	176.79	5.44	-45.2	-57.5	3.8	1.49e+00	0	62	104	2109734912	61	15386
2026-01-25 23:11:58.75	176.96	5.16	-45.2	-57.6	3.8	1.49e+00	0	62	104	2109734912	61	15465
2026-01-25 23:12:02.79	177.13	4.88	-45.2	-57.6	3.8	1.49e+00	0	62	104	2109734912	61	15435
2026-01-25 23:12:06.83	177.29	4.61	-45.2	-57.5	3.8	1.49e+00	0	62	104	2109734912	61	15363
2026-01-25 23:12:10.88	177.45	4.33	-45.2	-57.6	3.8	1.49e+00	0	62	104	2109734912	61	15444
2026-01-25 23:12:14.92	177.61	4.06	-45.1	-57.6	3.8	1.49e+00	0	62	104	2109734912	61	15410
2026-01-25 23:12:18.96	177.77	3.79	-45.1	-57.5	3.8	1.49e+00	0	62	104	2109734912	61	15401
2026-01-25 23:12:23.00	177.92	3.52	-45.1	-57.6	3.8	1.49e+00	0	62	104	2109734912	61	15420
2026-01-25 23:12:27.04	178.07	3.26	-45.1	-57.5	3.8	1.49e+00	0	62	104	2109734912	61	15347
2026-01-25 23:12:31.08	178.22	3.00	-45.1	-57.5	3.8	1.49e+00	0	62	104	2109734912	61	15341
2026-01-25 23:12:35.13	178.36	2.74	-45.1	-57.5	3.8	1.49e+00	0	62	104	2109734912	61	15281
2026-01-25 23:12:39.17	178.50	2.48	-45.1	-57.5	3.8	1.49e+00	0	62	104	2109734912	61	15300
2026-01-25 23:12:43.21	178.64	2.22	-45.1	-57.5	3.8	1.49e+00	0	62	104	2109734912	61	15367
2026-01-25 23:12:47.25	178.78	1.97	-45.1	-57.5	3.8	1.49e+00	0	62	104	2109734912	61	15249

#Closed at: 2026-01-25 23:12:48
#Recorded file [2109 MB]: D:/lorett/data/31039_260126_015834.dat