passes_logs/2026/01/25/R2.0S_Moscow/R2.0S_Moscow__20260125_234851_NOAA_20_JPSS-1_rec.log

#Pass ID: 20260125_234851_NOAA 20 (JPSS-1)
#Satellite: NOAA 20 (JPSS-1)
#Configuration: NOAA 20
#almurnet v.1.7.20251203
#Start time: 2026-01-25 23:48:54

#Version: 2.2.20231116
#Station: R2.0S_Moscow
#Location: 37.707566 lon 55.798166 lat
#TLE: 1 43013U 17073A   26025.47986292  .00000161  00000+0  97249-4 0  9993
#TLE: 2 43013  98.7646 326.3091 0001052  24.2709 335.8516 14.19540188424225

#Time	Az	El	Level	Level2	SNR	BER	BlckErr	Temp	State	Recorded	gain1	gain2
2026-01-25 23:48:54.07	15.56	2.14	-42.8	-57.4	3.8	1.49e+00	0	53	0	0	57	19007
2026-01-25 23:48:58.10	15.55	2.40	-42.8	-57.4	3.8	1.49e+00	0	54	104	0	57	18993
2026-01-25 23:49:02.14	15.54	2.66	-42.8	-57.3	3.8	1.49e+00	0	54	104	0	57	18927
2026-01-25 23:49:06.18	15.53	2.92	-42.8	-57.3	3.8	1.49e+00	0	54	104	0	57	18871
2026-01-25 23:49:10.23	15.51	3.19	-42.8	-57.3	3.8	1.49e+00	0	54	104	0	57	18943
2026-01-25 23:49:14.27	15.50	3.46	-42.8	-57.4	3.8	1.49e+00	0	55	104	0	57	18983
2026-01-25 23:49:18.31	15.49	3.74	-42.8	-57.3	3.8	1.49e+00	0	55	104	0	57	18947
2026-01-25 23:49:22.35	15.48	4.01	-42.8	-57.3	3.8	1.49e+00	0	55	104	0	57	18903
2026-01-25 23:49:26.39	15.47	4.29	-42.7	-57.3	3.8	1.49e+00	0	55	104	0	57	18884
2026-01-25 23:49:30.43	15.45	4.57	-42.8	-57.3	3.8	1.49e+00	0	56	104	0	57	18807
2026-01-25 23:49:34.48	15.44	4.85	-42.7	-57.3	3.8	1.49e+00	0	56	104	0	57	18899
2026-01-25 23:49:38.52	15.42	5.14	-42.7	-57.3	3.8	1.49e+00	0	56	104	0	57	18859
2026-01-25 23:49:42.56	15.41	5.43	-42.7	-57.2	3.8	1.49e+00	0	56	104	0	57	18697
2026-01-25 23:49:46.60	15.39	5.73	-42.7	-57.2	3.8	1.49e+00	0	56	104	0	57	18696
2026-01-25 23:49:50.65	15.37	6.02	-42.7	-57.2	3.8	1.49e+00	0	57	104	0	57	18605
2026-01-25 23:49:54.69	15.36	6.32	-42.7	-57.2	3.8	1.49e+00	0	57	104	0	57	18595
2026-01-25 23:49:58.73	15.34	6.63	-42.7	-56.7	3.8	1.49e+00	0	57	104	0	57	17658
2026-01-25 23:50:02.77	15.32	6.93	-42.6	-55.1	3.8	1.49e+00	0	57	104	0	57	14551
2026-01-25 23:50:06.81	15.30	7.25	-42.2	-50.8	5.6	5.27e-01	0	57	0	3145728	56	9466
2026-01-25 23:50:10.85	15.28	7.56	-41.4	-47.7	8.1	6.86e-02	0	57	0	10485760	54	7439
2026-01-25 23:50:14.89	15.25	7.88	-41.9	-50.1	5.9	3.19e-01	0	57	0	18874368	54	9819
2026-01-25 23:50:18.93	15.23	8.20	-42.5	-54.8	4.0	2.21e-01	0	58	0	26214400	55	15768
2026-01-25 23:50:22.98	15.21	8.53	-42.0	-48.7	7.7	5.90e-01	0	58	0	29360128	55	7825
2026-01-25 23:50:27.01	15.18	8.86	-42.0	-48.7	7.7	9.69e-02	0	58	0	36700160	55	7815
2026-01-25 23:50:31.05	15.16	9.20	-42.1	-48.2	8.4	4.37e-02	0	58	0	44040192	55	7415
2026-01-25 23:50:35.09	15.13	9.54	-42.1	-48.1	8.5	3.95e-02	0	58	0	52428800	55	7349
2026-01-25 23:50:39.12	15.11	9.88	-42.0	-47.8	8.9	3.10e-02	0	58	0	59768832	55	7104
2026-01-25 23:50:43.16	15.08	10.23	-42.1	-48.0	8.8	2.92e-02	0	58	0	67108864	55	7255
2026-01-25 23:50:47.20	15.05	10.59	-42.0	-47.6	9.3	1.74e-02	0	59	0	74448896	55	6884
2026-01-25 23:50:51.24	15.02	10.95	-42.1	-47.6	9.4	1.54e-02	0	58	0	81788928	55	6881
2026-01-25 23:50:55.28	14.99	11.31	-42.1	-47.6	9.4	1.58e-02	0	59	0	90177536	55	6926
2026-01-25 23:50:59.32	14.95	11.68	-42.0	-47.3	9.7	1.21e-02	0	59	0	97517568	55	6712
2026-01-25 23:51:03.36	14.92	12.06	-42.1	-47.4	9.7	1.18e-02	0	59	0	104857600	55	6756
2026-01-25 23:51:07.40	14.88	12.44	-42.1	-47.2	9.9	8.72e-03	0	59	0	112197632	55	6589
2026-01-25 23:51:11.44	14.84	12.83	-42.0	-47.0	10.1	6.00e-03	0	59	0	120586240	55	6480
2026-01-25 23:51:15.47	14.81	13.23	-42.0	-46.9	10.3	5.19e-03	0	59	0	127926272	55	6413
2026-01-25 23:51:19.51	14.77	13.63	-42.1	-46.9	10.5	3.95e-03	0	59	0	135266304	55	6393
2026-01-25 23:51:23.55	14.72	14.04	-42.1	-46.8	10.6	3.67e-03	0	59	0	142606336	55	6318
2026-01-25 23:51:27.59	14.68	14.45	-42.0	-46.6	10.8	2.42e-03	0	59	0	149946368	55	6187
2026-01-25 23:51:31.64	14.64	14.87	-42.0	-46.5	11.1	1.61e-03	0	59	0	158334976	55	6064
2026-01-25 23:51:35.68	14.59	15.30	-42.0	-46.5	11.1	1.61e-03	0	59	0	165675008	55	6065
2026-01-25 23:51:39.71	14.54	15.74	-42.0	-46.4	11.2	1.16e-03	0	60	0	173015040	55	6025
2026-01-25 23:51:43.75	14.49	16.19	-42.0	-46.3	11.3	1.07e-03	0	59	0	180355072	55	5966
2026-01-25 23:51:47.79	14.44	16.64	-41.9	-46.1	11.6	5.53e-04	0	60	0	188743680	55	5839
2026-01-25 23:51:51.83	14.38	17.10	-41.9	-46.0	11.8	4.38e-04	0	60	0	196083712	55	5752
2026-01-25 23:51:55.87	14.33	17.58	-41.8	-45.7	12.1	2.62e-04	0	60	0	203423744	55	5590
2026-01-25 23:51:59.91	14.27	18.06	-41.7	-45.5	12.3	1.87e-04	0	60	0	210763776	55	5462
2026-01-25 23:52:03.95	14.21	18.55	-41.7	-45.6	12.3	1.68e-04	0	60	0	218103808	55	5506
2026-01-25 23:52:07.98	14.14	19.05	-41.7	-45.4	12.5	1.33e-04	0	60	0	226492416	55	5399
2026-01-25 23:52:12.02	14.07	19.56	-41.6	-45.2	12.7	8.62e-05	0	60	0	233832448	55	5270
2026-01-25 23:52:16.06	14.00	20.08	-41.6	-45.2	12.7	7.09e-05	0	60	0	241172480	55	5276
2026-01-25 23:52:20.09	13.93	20.61	-41.6	-45.1	12.9	5.49e-05	0	60	0	248512512	55	5213
2026-01-25 23:52:24.13	13.86	21.15	-41.6	-45.2	12.8	5.64e-05	0	60	0	256901120	55	5224
2026-01-25 23:52:28.18	13.78	21.71	-41.6	-45.2	12.9	5.34e-05	0	60	0	264241152	55	5248
2026-01-25 23:52:32.21	13.69	22.28	-41.7	-45.3	12.8	7.17e-05	0	60	0	271581184	55	5281
2026-01-25 23:52:36.26	13.61	22.86	-41.5	-45.1	13.0	2.59e-05	0	60	0	278921216	55	5163
2026-01-25 23:52:40.30	13.52	23.45	-41.5	-45.0	13.1	2.74e-05	0	61	0	286261248	55	5117
2026-01-25 23:52:44.34	13.42	24.06	-41.4	-44.8	13.3	2.21e-05	0	60	0	294649856	54	5330
2026-01-25 23:52:48.37	13.32	24.68	-41.4	-44.7	13.5	1.14e-05	0	60	0	301989888	54	5228
2026-01-25 23:52:52.42	13.22	25.32	-41.4	-44.8	13.3	1.83e-05	0	60	0	309329920	54	5324
2026-01-25 23:52:56.45	13.11	25.97	-41.5	-44.9	13.3	2.21e-05	0	60	0	316669952	54	5364
2026-01-25 23:53:00.50	13.00	26.64	-41.7	-45.3	12.9	4.04e-05	0	60	0	325058560	54	5607
2026-01-25 23:53:04.54	12.88	27.33	-41.9	-45.6	12.5	1.17e-04	0	61	0	332398592	54	5827
2026-01-25 23:53:08.57	12.75	28.03	-42.2	-46.1	12.0	2.42e-04	0	60	0	339738624	54	6189
2026-01-25 23:53:12.61	12.62	28.76	-42.6	-47.1	11.0	1.52e-03	0	60	0	347078656	55	6498
2026-01-25 23:53:16.65	12.48	29.50	-43.0	-47.8	10.5	3.69e-03	0	61	0	354418688	56	6665
2026-01-25 23:53:20.69	12.34	30.26	-43.1	-48.1	10.1	7.13e-03	0	61	0	362807296	56	6944
2026-01-25 23:53:24.73	12.18	31.04	-43.1	-48.0	10.2	6.06e-03	0	61	0	370147328	56	6861
2026-01-25 23:53:28.77	12.02	31.84	-43.2	-48.2	10.0	7.33e-03	0	61	0	377487360	56	7016
2026-01-25 23:53:32.81	11.85	32.67	-43.2	-48.5	9.8	1.02e-02	0	61	0	384827392	57	6812
2026-01-25 23:53:36.84	11.67	33.52	-43.2	-48.2	10.0	7.27e-03	0	61	0	393216000	57	6645
2026-01-25 23:53:40.88	11.48	34.39	-42.9	-47.5	10.8	2.90e-03	0	61	0	400556032	57	6100
2026-01-25 23:53:44.92	11.27	35.29	-42.3	-46.3	12.1	3.47e-04	0	61	0	407896064	56	5594
2026-01-25 23:53:48.96	11.06	36.21	-41.6	-45.0	13.2	4.27e-05	0	61	0	415236096	55	5144
2026-01-25 23:53:52.99	10.83	37.16	-41.3	-44.4	13.9	5.30e-06	0	61	0	422576128	54	5052
2026-01-25 23:53:57.03	10.58	38.13	-41.2	-44.3	14.0	3.80e-06	0	61	0	430964736	54	4997
2026-01-25 23:54:01.06	10.32	39.14	-41.4	-44.6	13.7	2.20e-06	0	61	0	438304768	54	5174
2026-01-25 23:54:05.10	10.05	40.17	-41.7	-45.2	13.1	2.44e-05	0	61	0	445644800	54	5554
2026-01-25 23:54:09.14	9.75	41.24	-42.2	-46.0	12.2	1.07e-04	0	61	0	452984832	54	6106
2026-01-25 23:54:13.17	9.43	42.33	-42.1	-45.9	12.4	1.90e-04	0	61	0	461373440	55	5722
2026-01-25 23:54:17.21	9.08	43.46	-42.2	-46.0	12.3	1.62e-04	0	61	0	468713472	55	5729
2026-01-25 23:54:21.25	8.71	44.62	-42.5	-46.7	11.6	6.79e-04	0	61	0	476053504	55	6208
2026-01-25 23:54:25.29	8.31	45.82	-43.1	-47.8	10.6	3.05e-03	0	61	0	483393536	56	6695
2026-01-25 23:54:29.33	7.88	47.05	-43.5	-49.0	9.3	1.74e-02	0	61	0	490733568	57	7262
2026-01-25 23:54:33.37	7.41	48.31	-43.5	-49.0	9.4	1.68e-02	0	61	0	499122176	57	7224
2026-01-25 23:54:37.41	6.90	49.61	-43.0	-47.6	10.8	3.18e-03	0	61	0	506462208	57	6201
2026-01-25 23:54:41.45	6.34	50.95	-42.3	-46.0	12.5	2.44e-04	0	61	0	513802240	56	5427
2026-01-25 23:54:45.49	5.73	52.33	-41.5	-44.6	13.7	1.06e-05	0	61	0	521142272	55	4923
2026-01-25 23:54:49.53	5.05	53.74	-41.4	-44.5	13.8	3.80e-06	0	61	0	529530880	54	5153
2026-01-25 23:54:53.57	4.30	55.18	-41.4	-44.5	13.9	5.30e-06	0	61	0	536870912	54	5141
2026-01-25 23:54:57.61	3.47	56.66	-42.6	-46.8	11.5	3.11e-04	0	61	0	544210944	55	6319
2026-01-25 23:55:01.64	2.55	58.17	-43.5	-48.8	9.6	1.38e-02	0	61	0	551550976	57	7080
2026-01-25 23:55:05.69	1.50	59.72	-43.3	-48.4	10.0	1.07e-02	0	61	0	558891008	58	6383
2026-01-25 23:55:09.73	0.32	61.29	-41.6	-44.9	13.5	7.60e-06	0	61	0	567279616	55	5057
2026-01-25 23:55:13.77	358.98	62.90	-41.3	-44.4	14.0	4.50e-06	0	61	0	574619648	54	5048
2026-01-25 23:55:17.81	357.45	64.52	-41.4	-44.5	13.8	3.00e-06	0	61	0	581959680	54	5139
2026-01-25 23:55:21.85	355.67	66.16	-41.9	-45.4	12.9	4.04e-05	0	61	0	589299712	54	5675
2026-01-25 23:55:25.89	353.60	67.81	-42.2	-46.0	12.2	2.31e-04	0	61	0	597688320	55	5788
2026-01-25 23:55:29.93	351.17	69.46	-41.8	-45.3	12.9	3.73e-05	0	61	0	605028352	55	5295
2026-01-25 23:55:33.97	348.27	71.09	-41.7	-45.0	13.2	2.21e-05	0	61	0	612368384	54	5440
2026-01-25 23:55:38.01	344.80	72.70	-41.8	-45.2	13.1	1.29e-05	0	61	0	619708416	54	5543
2026-01-25 23:55:42.05	340.57	74.26	-43.3	-48.6	9.7	5.74e-03	0	61	0	627048448	57	6884
2026-01-25 23:55:46.09	335.41	75.73	-42.8	-47.1	11.1	1.48e-03	0	61	0	635437056	57	5816
2026-01-25 23:55:50.13	329.06	77.08	-42.7	-46.9	11.4	1.29e-03	0	61	0	642777088	57	5682
2026-01-25 23:55:54.17	321.30	78.25	-42.2	-45.8	12.5	2.17e-04	0	61	0	650117120	56	5339
2026-01-25 23:55:58.21	311.98	79.17	-41.9	-45.5	12.7	1.24e-04	0	61	0	657457152	55	5442
2026-01-25 23:56:02.25	301.24	79.76	-42.5	-46.6	11.6	3.04e-04	0	61	0	665845760	55	6196
2026-01-25 23:56:06.29	289.60	79.97	-41.9	-45.5	12.7	1.02e-04	0	61	0	673185792	55	5410
2026-01-25 23:56:10.33	277.97	79.76	-41.1	-44.1	14.1	7.00e-07	0	61	0	680525824	54	4899
2026-01-25 23:56:14.37	267.23	79.16	-41.8	-45.3	12.9	1.90e-05	0	61	0	687865856	54	5627
2026-01-25 23:56:18.42	257.90	78.24	-42.4	-46.6	11.5	4.61e-04	0	61	0	696254464	55	6140
2026-01-25 23:56:22.46	250.14	77.07	-44.0	-50.7	7.4	7.44e-02	0	61	0	703594496	58	8320
2026-01-25 23:56:26.50	243.80	75.71	-43.7	-49.6	8.6	3.81e-02	0	61	0	710934528	58	7326
2026-01-25 23:56:30.54	238.64	74.24	-42.7	-46.9	11.3	2.05e-03	0	61	0	718274560	57	5696
2026-01-25 23:56:34.58	234.42	72.68	-41.4	-44.6	13.5	4.04e-05	0	61	0	725614592	54	5197
2026-01-25 23:56:38.62	230.94	71.07	-41.7	-45.1	13.1	2.51e-05	0	61	0	734003200	54	5505
2026-01-25 23:56:42.66	228.05	69.43	-42.3	-46.3	11.8	5.19e-04	0	61	0	741343232	55	5968
2026-01-25 23:56:46.70	225.61	67.78	-43.5	-48.9	9.3	9.38e-03	0	61	0	748683264	57	7159
2026-01-25 23:56:50.74	223.55	66.12	-43.1	-47.9	10.4	9.84e-03	0	61	0	756023296	58	6042
2026-01-25 23:56:54.78	221.77	64.48	-41.4	-44.5	13.8	3.80e-06	0	61	0	764411904	54	5127
2026-01-25 23:56:58.82	220.24	62.85	-41.1	-44.1	14.3	7.00e-07	0	61	0	771751936	53	5180
2026-01-25 23:57:02.86	218.90	61.25	-41.9	-45.5	12.7	4.57e-05	0	61	0	779091968	54	5770
2026-01-25 23:57:06.91	217.72	59.67	-42.9	-47.4	10.9	2.19e-03	0	61	0	786432000	56	6356
2026-01-25 23:57:10.95	216.67	58.12	-43.8	-49.7	8.5	2.06e-02	0	61	0	793772032	58	7437
2026-01-25 23:57:14.99	215.75	56.60	-43.2	-48.0	10.3	1.17e-02	0	61	0	802160640	58	6075
2026-01-25 23:57:19.03	214.91	55.11	-42.0	-45.5	12.9	6.33e-05	0	61	0	809500672	56	5153
2026-01-25 23:57:23.07	214.17	53.66	-41.4	-44.5	13.9	6.10e-06	0	61	0	816840704	54	5111
2026-01-25 23:57:27.11	213.49	52.25	-41.7	-45.0	13.3	7.60e-06	0	61	0	824180736	54	5420
2026-01-25 23:57:31.15	212.88	50.87	-42.0	-45.6	12.8	3.81e-05	0	61	0	832569344	54	5814
2026-01-25 23:57:35.19	212.31	49.53	-43.6	-49.3	9.1	1.33e-02	0	61	0	839909376	57	7503
2026-01-25 23:57:39.23	211.80	48.23	-43.4	-48.6	9.8	1.41e-02	0	61	0	847249408	58	6534
2026-01-25 23:57:43.26	211.33	46.96	-43.4	-48.7	9.7	7.59e-03	0	61	0	854589440	58	6605
2026-01-25 23:57:47.31	210.90	45.72	-43.4	-48.9	9.4	1.88e-02	0	61	0	861929472	58	6724
2026-01-25 23:57:51.35	210.50	44.52	-43.3	-48.4	10.0	9.43e-03	0	61	0	870318080	58	6381
2026-01-25 23:57:55.39	210.12	43.36	-43.3	-48.4	9.9	1.15e-02	0	62	0	877658112	58	6374
2026-01-25 23:57:59.43	209.78	42.22	-43.3	-48.5	9.8	1.07e-02	0	61	0	884998144	58	6448
2026-01-25 23:58:03.47	209.46	41.12	-43.5	-49.1	9.1	1.86e-02	0	61	0	892338176	58	6943
2026-01-25 23:58:07.51	209.16	40.05	-43.6	-49.2	9.1	2.39e-02	0	61	0	900726784	58	7022
2026-01-25 23:58:11.55	208.88	39.02	-43.3	-48.4	9.8	1.36e-02	0	61	0	908066816	58	6390
2026-01-25 23:58:15.59	208.62	38.01	-42.8	-47.3	11.0	1.89e-03	0	62	0	915406848	57	5952
2026-01-25 23:58:19.63	208.37	37.03	-42.8	-47.3	11.0	1.56e-03	0	62	0	922746880	57	5956
2026-01-25 23:58:23.67	208.14	36.08	-43.0	-47.8	10.4	4.03e-03	0	62	0	931135488	57	6322
2026-01-25 23:58:27.71	207.92	35.15	-43.0	-47.9	10.4	5.54e-03	0	61	0	938475520	57	6370
2026-01-25 23:58:31.75	207.72	34.25	-42.7	-47.2	11.1	1.95e-03	0	61	0	945815552	57	5865
2026-01-25 23:58:35.79	207.52	33.38	-42.8	-47.3	10.9	1.87e-03	0	61	0	953155584	57	5968
2026-01-25 23:58:39.83	207.34	32.53	-43.0	-47.9	10.3	5.17e-03	0	62	0	960495616	57	6387
2026-01-25 23:58:43.87	207.17	31.70	-43.1	-48.2	10.0	7.67e-03	0	62	0	968884224	57	6618
2026-01-25 23:58:47.91	207.00	30.89	-43.2	-48.3	9.9	9.34e-03	0	62	0	976224256	57	6663
2026-01-25 23:58:51.95	206.85	30.11	-43.1	-48.1	10.2	6.18e-03	0	62	0	983564288	57	6495
2026-01-25 23:58:55.99	206.70	29.35	-43.0	-48.0	10.2	5.56e-03	0	62	0	990904320	57	6441
2026-01-25 23:59:00.03	206.56	28.60	-42.9	-47.6	10.6	3.48e-03	0	62	0	999292928	57	6140
2026-01-25 23:59:04.07	206.43	27.88	-42.7	-47.2	11.0	2.22e-03	0	62	0	1006632960	57	5901
2026-01-25 23:59:08.11	206.30	27.17	-42.7	-47.1	11.1	1.80e-03	0	61	0	1013972992	57	5847
2026-01-25 23:59:12.14	206.18	26.49	-42.6	-47.1	11.0	1.85e-03	0	62	0	1021313024	57	5829
2026-01-25 23:59:16.19	206.06	25.81	-42.6	-47.1	11.1	1.53e-03	0	62	0	1028653056	57	5794
2026-01-25 23:59:20.22	205.95	25.16	-42.3	-46.5	11.7	7.61e-04	0	62	0	1037041664	56	5728
2026-01-25 23:59:24.26	205.84	24.52	-42.1	-46.0	12.2	2.17e-04	0	61	0	1044381696	56	5432
2026-01-25 23:59:28.30	205.74	23.90	-41.8	-45.5	12.5	9.00e-05	0	62	0	1051721728	55	5431
2026-01-25 23:59:32.34	205.65	23.29	-41.8	-45.5	12.6	1.17e-04	0	62	0	1059061760	55	5408
2026-01-25 23:59:36.38	205.55	22.69	-41.9	-45.8	12.2	1.75e-04	0	62	0	1067450368	55	5610
2026-01-25 23:59:40.41	205.46	22.11	-41.9	-45.8	12.2	2.03e-04	0	62	0	1074790400	55	5647
2026-01-25 23:59:44.46	205.38	21.54	-41.9	-45.8	12.2	2.40e-04	0	62	0	1082130432	55	5602
2026-01-25 23:59:48.50	205.30	20.98	-42.0	-46.0	12.0	3.48e-04	0	61	0	1089470464	55	5779
2026-01-25 23:59:52.54	205.22	20.44	-42.0	-46.1	11.9	4.70e-04	0	62	0	1096810496	55	5791
2026-01-25 23:59:56.58	205.14	19.90	-42.1	-46.3	11.6	6.88e-04	0	62	0	1105199104	55	5978
2026-01-26 00:00:00.62	205.07	19.38	-42.2	-46.5	11.4	9.64e-04	0	62	0	1112539136	55	6072
2026-01-26 00:00:04.66	205.00	18.87	-42.2	-46.6	11.3	1.19e-03	0	61	0	1119879168	55	6137
2026-01-26 00:00:08.70	204.93	18.37	-42.3	-46.8	11.1	1.52e-03	0	61	0	1127219200	55	6278
2026-01-26 00:00:12.75	204.87	17.88	-42.3	-46.8	10.9	2.09e-03	0	62	0	1134559232	55	6341
2026-01-26 00:00:16.79	204.81	17.39	-42.4	-47.0	10.8	2.69e-03	0	62	0	1142947840	55	6444
2026-01-26 00:00:20.83	204.75	16.92	-42.3	-47.0	10.8	2.40e-03	0	62	0	1150287872	55	6426
2026-01-26 00:00:24.87	204.69	16.46	-42.4	-47.1	10.6	2.76e-03	0	62	0	1157627904	55	6520
2026-01-26 00:00:28.91	204.63	16.00	-42.4	-47.2	10.5	4.20e-03	0	62	0	1164967936	55	6596
2026-01-26 00:00:32.95	204.58	15.56	-42.4	-47.3	10.4	4.17e-03	0	61	0	1173356544	55	6663
2026-01-26 00:00:36.99	204.53	15.12	-42.5	-47.4	10.3	5.39e-03	0	62	0	1180696576	55	6739
2026-01-26 00:00:41.03	204.48	14.69	-42.5	-47.5	10.2	5.90e-03	0	62	0	1188036608	55	6822
2026-01-26 00:00:45.07	204.43	14.26	-42.5	-47.5	10.1	6.75e-03	0	61	0	1195376640	55	6844
2026-01-26 00:00:49.11	204.38	13.85	-42.5	-47.5	10.1	6.80e-03	0	61	0	1202716672	55	6815
2026-01-26 00:00:53.15	204.34	13.44	-42.4	-47.4	10.2	5.54e-03	0	62	0	1211105280	55	6734
2026-01-26 00:00:57.19	204.29	13.04	-42.4	-47.4	10.2	6.41e-03	0	62	0	1218445312	55	6729
2026-01-26 00:01:01.22	204.25	12.64	-42.4	-47.3	10.3	4.96e-03	0	61	0	1225785344	55	6654
2026-01-26 00:01:05.26	204.21	12.25	-42.4	-47.4	10.2	6.22e-03	0	62	0	1233125376	55	6726
2026-01-26 00:01:09.30	204.17	11.87	-42.4	-47.3	10.2	5.80e-03	0	62	0	1241513984	55	6690
2026-01-26 00:01:13.34	204.13	11.49	-42.4	-47.3	10.1	6.77e-03	0	62	0	1248854016	55	6718
2026-01-26 00:01:17.38	204.09	11.12	-42.3	-47.3	10.1	7.08e-03	0	61	0	1256194048	55	6709
2026-01-26 00:01:21.41	204.06	10.75	-42.4	-47.5	9.9	8.65e-03	0	62	0	1263534080	55	6839
2026-01-26 00:01:25.45	204.02	10.39	-42.4	-47.6	9.7	9.79e-03	0	62	0	1270874112	55	6958
2026-01-26 00:01:29.49	203.99	10.04	-42.5	-47.8	9.5	1.41e-02	0	62	0	1279262720	55	7077
2026-01-26 00:01:33.53	203.96	9.69	-42.4	-47.7	9.6	1.42e-02	0	62	0	1286602752	55	6991
2026-01-26 00:01:37.57	203.93	9.34	-42.4	-47.8	9.3	1.63e-02	0	62	0	1293942784	55	7114
2026-01-26 00:01:41.61	203.90	9.00	-42.4	-48.0	9.2	1.83e-02	0	62	0	1301282816	55	7223
2026-01-26 00:01:45.65	203.87	8.66	-42.4	-48.0	9.0	2.49e-02	0	61	0	1309671424	55	7267
2026-01-26 00:01:49.69	203.84	8.33	-42.3	-48.0	8.9	3.20e-02	0	62	0	1317011456	55	7261
2026-01-26 00:01:53.73	203.81	8.00	-43.8	-53.5	4.7	1.58e-01	0	62	0	1324351488	58	11549
2026-01-26 00:01:57.77	203.78	7.68	-45.1	-59.8	3.8	1.49e+00	0	62	104	1324351488	60	21085
2026-01-26 00:02:01.81	203.76	7.36	-45.2	-59.9	3.8	1.49e+00	0	62	104	1324351488	61	20256
2026-01-26 00:02:05.86	203.73	7.04	-45.2	-59.8	3.8	1.49e+00	0	62	104	1324351488	61	19973
2026-01-26 00:02:09.90	203.71	6.73	-45.2	-59.8	3.8	1.49e+00	0	62	104	1324351488	61	19902
2026-01-26 00:02:13.95	203.68	6.42	-45.2	-59.8	3.8	1.49e+00	0	62	104	1324351488	61	19917
2026-01-26 00:02:17.98	203.66	6.12	-45.1	-59.8	3.8	1.49e+00	0	62	104	1324351488	61	19856
2026-01-26 00:02:22.02	203.64	5.82	-45.1	-59.8	3.8	1.49e+00	0	62	104	1324351488	61	19847
2026-01-26 00:02:26.07	203.62	5.52	-45.1	-59.7	3.8	1.49e+00	0	62	104	1324351488	61	19783
2026-01-26 00:02:30.11	203.60	5.23	-45.1	-59.8	3.8	1.49e+00	0	62	104	1324351488	61	19872
2026-01-26 00:02:34.15	203.57	4.94	-45.1	-59.8	3.8	1.49e+00	0	62	104	1324351488	61	19864
2026-01-26 00:02:38.20	203.55	4.65	-45.1	-59.7	3.8	1.49e+00	0	62	104	1324351488	61	19807
2026-01-26 00:02:42.24	203.54	4.36	-45.1	-59.7	3.8	1.49e+00	0	62	104	1324351488	61	19787
2026-01-26 00:02:46.28	203.52	4.08	-45.1	-59.7	3.8	1.49e+00	0	62	104	1324351488	61	19748
2026-01-26 00:02:50.32	203.50	3.80	-45.1	-59.7	3.8	1.49e+00	0	62	104	1324351488	61	19783
2026-01-26 00:02:54.37	203.48	3.53	-45.1	-59.7	3.8	1.49e+00	0	62	104	1324351488	61	19716
2026-01-26 00:02:58.41	203.46	3.25	-45.1	-59.7	3.8	1.49e+00	0	62	104	1324351488	61	19682
2026-01-26 00:03:02.45	203.45	2.98	-45.1	-59.7	3.8	1.49e+00	0	62	104	1324351488	61	19685
2026-01-26 00:03:06.49	203.43	2.72	-45.1	-59.7	3.8	1.49e+00	0	62	104	1324351488	61	19620
2026-01-26 00:03:10.54	203.41	2.45	-45.1	-59.7	3.8	1.49e+00	0	62	104	1324351488	61	19627
2026-01-26 00:03:14.58	203.40	2.19	-45.1	-59.7	3.8	1.49e+00	0	62	104	1324351488	61	19661

#Closed at: 2026-01-26 00:03:17
#Recorded file [1324 MB]: D:/lorett/data/31039_260126_024853.dat