passes_logs/2026/01/25/R2.0S_Moscow/R2.0S_Moscow__20260125_153940_FENGYUN_3E_rec.log

#Pass ID: 20260125_153940_FENGYUN 3E
#Satellite: FENGYUN 3E
#Configuration: FENGYUN 3E
#almurnet v.1.7.20251203
#Start time: 2026-01-25 15:39:42

#Version: 2.2.20231116
#Station: R2.0S_Moscow
#Location: 37.707566 lon 55.798166 lat
#TLE: 1 49008U 21062A   26025.22354119 -.00000045  00000+0 -39974-6 0  9992
#TLE: 2 49008  98.7496  30.2323 0002444 117.8821 242.2603 14.19886325236299

#Time	Az	El	Level	Level2	SNR	BER	BlckErr	Temp	State	Recorded	gain1	gain2
2026-01-25 15:39:42.41	204.84	2.13	-44.4	-55.4	3.8	8.46e-01	0	52	0	0	59	12725
2026-01-25 15:39:46.44	205.12	2.36	-44.4	-55.4	3.8	8.46e-01	0	53	104	0	59	12751
2026-01-25 15:39:50.49	205.40	2.59	-44.4	-55.4	3.8	8.45e-01	0	53	104	0	59	12717
2026-01-25 15:39:54.54	205.69	2.82	-44.4	-55.4	3.8	8.46e-01	0	53	104	0	59	12736
2026-01-25 15:39:58.58	205.98	3.05	-44.3	-55.4	3.8	8.47e-01	0	54	104	0	59	12718
2026-01-25 15:40:02.62	206.28	3.28	-44.4	-55.4	3.8	8.46e-01	0	54	104	0	59	12705
2026-01-25 15:40:06.66	206.58	3.52	-44.4	-55.4	3.8	8.46e-01	0	54	104	0	59	12665
2026-01-25 15:40:10.70	206.88	3.75	-44.3	-55.4	3.8	8.47e-01	0	55	104	0	59	12705
2026-01-25 15:40:14.74	207.19	3.99	-44.3	-55.4	3.8	8.46e-01	0	55	104	0	59	12692
2026-01-25 15:40:18.79	207.51	4.23	-44.3	-55.4	3.8	8.48e-01	0	55	104	0	59	12684
2026-01-25 15:40:22.83	207.83	4.47	-44.3	-55.4	3.8	8.45e-01	0	55	104	0	59	12705
2026-01-25 15:40:26.87	208.15	4.71	-44.3	-55.4	3.8	8.46e-01	0	56	104	0	59	12701
2026-01-25 15:40:30.91	208.48	4.95	-44.3	-55.4	3.8	8.46e-01	0	56	104	0	59	12712
2026-01-25 15:40:34.95	208.82	5.20	-44.3	-55.3	3.8	8.46e-01	0	56	104	0	59	12620
2026-01-25 15:40:38.99	209.16	5.44	-44.3	-55.1	3.8	8.46e-01	0	56	104	0	58	13107
2026-01-25 15:40:43.03	209.51	5.69	-44.3	-54.7	3.8	8.47e-01	0	56	104	0	58	12480
2026-01-25 15:40:47.08	209.86	5.94	-44.2	-54.0	3.8	8.46e-01	0	56	104	0	58	11433
2026-01-25 15:40:51.12	210.22	6.19	-43.9	-52.4	3.9	8.42e-01	0	57	104	0	58	9600
2026-01-25 15:40:55.16	210.58	6.44	-43.4	-49.6	5.1	7.71e-01	0	57	0	0	57	7362
2026-01-25 15:40:59.20	210.95	6.69	-42.6	-47.4	6.7	2.09e-01	0	57	0	15728640	56	6036
2026-01-25 15:41:03.24	211.33	6.95	-42.4	-47.0	7.0	1.66e-01	0	57	0	45088768	55	6071
2026-01-25 15:41:07.28	211.71	7.20	-42.3	-47.0	7.0	1.70e-01	0	57	0	74448896	55	6076
2026-01-25 15:41:11.33	212.10	7.46	-41.2	-44.6	9.4	2.35e-02	0	57	0	103809024	53	5164
2026-01-25 15:41:15.37	212.50	7.72	-39.5	-41.7	12.5	2.23e-04	0	58	0	133169152	50	4428
2026-01-25 15:41:19.41	212.90	7.98	-39.2	-41.3	12.9	6.29e-05	0	58	0	161480704	49	4480
2026-01-25 15:41:23.45	213.31	8.24	-40.5	-43.1	11.1	8.20e-03	0	58	0	177209344	52	4645
2026-01-25 15:41:27.50	213.73	8.51	-39.0	-41.0	13.4	1.25e-05	0	58	0	206569472	48	4548
2026-01-25 15:41:31.54	214.15	8.77	-38.7	-40.6	13.8	6.80e-06	0	58	0	235929600	48	4388
2026-01-25 15:41:35.58	214.58	9.04	-38.3	-40.1	14.2	6.80e-06	0	58	0	265289728	47	4351
2026-01-25 15:41:39.63	215.03	9.31	-38.3	-40.1	14.2	1.10e-06	0	59	0	294649856	47	4372
2026-01-25 15:41:43.67	215.47	9.58	-38.3	-40.0	14.3	2.20e-06	0	59	0	324009984	47	4337
2026-01-25 15:41:47.71	215.93	9.85	-38.3	-40.1	14.3	0.00e+00	0	59	0	352321536	47	4365
2026-01-25 15:41:51.74	216.39	10.12	-38.2	-39.9	14.5	0.00e+00	0	59	0	381681664	47	4281
2026-01-25 15:41:55.79	216.87	10.39	-38.2	-39.9	14.6	0.00e+00	0	59	0	411041792	47	4274
2026-01-25 15:41:59.83	217.35	10.67	-38.4	-40.1	14.4	1.10e-06	0	59	0	440401920	47	4372
2026-01-25 15:42:03.87	217.84	10.95	-38.1	-39.8	14.7	1.10e-06	0	59	0	469762048	47	4212
2026-01-25 15:42:07.91	218.34	11.22	-38.0	-39.6	14.9	0.00e+00	0	59	0	499122176	46	4366
2026-01-25 15:42:11.95	218.84	11.50	-38.1	-39.8	14.7	0.00e+00	0	59	0	527433728	46	4492
2026-01-25 15:42:16.00	219.36	11.78	-38.4	-40.1	14.5	0.00e+00	0	59	0	556793856	46	4630
2026-01-25 15:42:20.04	219.89	12.06	-38.4	-40.2	14.4	2.20e-06	0	59	0	586153984	46	4657
2026-01-25 15:42:24.08	220.43	12.34	-38.1	-39.8	14.8	0.00e+00	0	59	0	615514112	46	4450
2026-01-25 15:42:28.13	220.98	12.63	-38.0	-39.6	15.0	0.00e+00	0	60	0	644874240	46	4375
2026-01-25 15:42:32.17	221.53	12.91	-37.7	-39.2	15.4	0.00e+00	0	60	0	674234368	46	4189
2026-01-25 15:42:36.21	222.10	13.20	-37.8	-39.3	15.3	3.40e-06	0	60	0	702545920	46	4241
2026-01-25 15:42:40.25	222.68	13.48	-37.7	-39.3	15.4	0.00e+00	0	60	0	731906048	46	4208
2026-01-25 15:42:44.29	223.27	13.77	-37.4	-38.8	15.8	0.00e+00	0	60	0	761266176	45	4241
2026-01-25 15:42:48.34	223.87	14.06	-37.4	-38.9	15.8	0.00e+00	0	60	0	790626304	45	4252
2026-01-25 15:42:52.38	224.49	14.34	-37.4	-38.8	15.9	0.00e+00	0	60	0	819986432	45	4240
2026-01-25 15:42:56.42	225.11	14.63	-37.2	-38.7	16.1	0.00e+00	0	60	0	849346560	45	4163
2026-01-25 15:43:00.46	225.75	14.92	-37.1	-38.5	16.3	0.00e+00	0	60	0	877658112	45	4065
2026-01-25 15:43:04.51	226.40	15.21	-37.1	-38.5	16.2	0.00e+00	0	60	0	907018240	45	4091
2026-01-25 15:43:08.55	227.06	15.49	-36.9	-38.2	16.5	0.00e+00	0	60	0	936378368	44	4193
2026-01-25 15:43:12.59	227.73	15.78	-36.9	-38.3	16.5	0.00e+00	0	60	0	965738496	44	4217
2026-01-25 15:43:16.64	228.42	16.07	-37.0	-38.4	16.4	0.00e+00	0	60	0	995098624	44	4257
2026-01-25 15:43:20.68	229.11	16.36	-36.9	-38.2	16.6	0.00e+00	0	60	0	1023410176	44	4188
2026-01-25 15:43:24.72	229.82	16.64	-36.6	-37.9	16.9	0.00e+00	0	60	0	1052770304	44	4039
2026-01-25 15:43:28.76	230.55	16.93	-36.8	-38.2	16.7	0.00e+00	0	61	0	1082130432	44	4149
2026-01-25 15:43:32.81	231.29	17.21	-36.6	-37.9	16.9	0.00e+00	0	61	0	1111490560	44	4045
2026-01-25 15:43:36.84	232.04	17.49	-36.4	-37.8	16.9	0.00e+00	0	60	0	1140850688	43	4196
2026-01-25 15:43:40.88	232.80	17.77	-36.6	-37.9	16.8	0.00e+00	0	61	0	1170210816	43	4277
2026-01-25 15:43:44.92	233.58	18.05	-36.4	-37.8	16.9	0.00e+00	0	61	0	1198522368	43	4208
2026-01-25 15:43:48.97	234.38	18.33	-36.4	-37.7	17.0	0.00e+00	0	61	0	1227882496	43	4173
2026-01-25 15:43:53.00	235.18	18.60	-36.3	-37.5	17.1	0.00e+00	0	61	0	1257242624	43	4098
2026-01-25 15:43:57.04	236.01	18.88	-36.2	-37.5	17.2	0.00e+00	0	61	0	1286602752	43	4087
2026-01-25 15:44:01.08	236.84	19.14	-36.1	-37.3	17.4	0.00e+00	0	61	0	1315962880	43	3989
2026-01-25 15:44:05.12	237.69	19.41	-36.1	-37.4	17.3	0.00e+00	0	61	0	1344274432	43	4025
2026-01-25 15:44:09.16	238.56	19.67	-36.2	-37.4	17.3	0.00e+00	0	61	0	1373634560	43	4048
2026-01-25 15:44:13.20	239.44	19.93	-36.0	-37.2	17.5	0.00e+00	0	61	0	1402994688	42	4177
2026-01-25 15:44:17.24	240.33	20.19	-35.8	-37.0	17.7	0.00e+00	0	61	0	1432354816	42	4095
2026-01-25 15:44:21.28	241.24	20.44	-36.0	-37.3	17.5	0.00e+00	0	61	0	1461714944	42	4210
2026-01-25 15:44:25.32	242.16	20.68	-35.8	-37.0	17.7	0.00e+00	0	61	0	1491075072	42	4061
2026-01-25 15:44:29.37	243.10	20.92	-35.9	-37.1	17.6	0.00e+00	0	61	0	1519386624	42	4132
2026-01-25 15:44:33.41	244.05	21.16	-35.9	-37.1	17.6	0.00e+00	0	61	0	1548746752	42	4118
2026-01-25 15:44:37.45	245.02	21.38	-35.8	-37.1	17.6	0.00e+00	0	61	0	1578106880	42	4115
2026-01-25 15:44:41.48	246.00	21.61	-35.8	-37.0	17.7	0.00e+00	0	61	0	1607467008	42	4081
2026-01-25 15:44:45.52	246.99	21.82	-35.5	-36.7	18.0	0.00e+00	0	61	0	1636827136	41	4155
2026-01-25 15:44:49.57	248.00	22.03	-35.7	-36.9	17.8	0.00e+00	0	61	0	1665138688	41	4264
2026-01-25 15:44:53.60	249.01	22.23	-35.5	-36.7	18.0	0.00e+00	0	61	0	1694498816	41	4177
2026-01-25 15:44:57.65	250.05	22.43	-35.5	-36.7	17.9	0.00e+00	0	61	0	1723858944	41	4193
2026-01-25 15:45:01.69	251.09	22.61	-35.6	-36.8	17.9	0.00e+00	0	61	0	1753219072	41	4211
2026-01-25 15:45:05.73	252.15	22.79	-35.6	-36.8	17.9	0.00e+00	0	61	0	1782579200	41	4220
2026-01-25 15:45:09.77	253.21	22.96	-35.5	-36.7	18.1	0.00e+00	0	61	0	1811939328	41	4164
2026-01-25 15:45:13.80	254.29	23.12	-35.5	-36.7	18.0	0.00e+00	0	61	0	1840250880	41	4187
2026-01-25 15:45:17.85	255.38	23.27	-35.4	-36.5	18.2	0.00e+00	0	61	0	1869611008	41	4086
2026-01-25 15:45:21.89	256.48	23.40	-35.2	-36.4	18.4	0.00e+00	0	61	0	1898971136	41	4008
2026-01-25 15:45:25.93	257.59	23.53	-35.0	-36.2	18.5	0.00e+00	0	61	0	1928331264	40	4157
2026-01-25 15:45:29.97	258.70	23.65	-35.0	-36.2	18.6	0.00e+00	0	61	0	1957691392	40	4152
2026-01-25 15:45:34.01	259.83	23.76	-35.1	-36.3	18.5	0.00e+00	0	61	0	1986002944	40	4209
2026-01-25 15:45:38.06	260.96	23.86	-35.4	-36.6	18.1	0.00e+00	0	61	0	2015363072	40	4384
2026-01-25 15:45:42.10	262.10	23.95	-35.2	-36.3	18.4	0.00e+00	0	61	0	2044723200	40	4230
2026-01-25 15:45:46.14	263.24	24.02	-35.0	-36.2	18.6	0.00e+00	0	62	0	2074083328	40	4150
2026-01-25 15:45:50.18	264.39	24.08	-35.1	-36.2	18.5	0.00e+00	0	61	0	2103443456	40	4174
2026-01-25 15:45:54.22	265.54	24.13	-35.2	-36.3	18.4	0.00e+00	0	61	0	2132803584	40	4230
2026-01-25 15:45:58.26	266.70	24.17	-35.3	-36.5	18.3	0.00e+00	0	61	0	2161115136	40	4304
2026-01-25 15:46:02.30	267.86	24.20	-35.1	-36.3	18.5	0.00e+00	0	62	0	2190475264	40	4201
2026-01-25 15:46:06.34	269.02	24.22	-35.0	-36.1	18.6	0.00e+00	0	62	0	2219835392	40	4115
2026-01-25 15:46:10.38	270.18	24.22	-35.3	-36.5	18.3	0.00e+00	0	61	0	2249195520	40	4296
2026-01-25 15:46:14.42	271.34	24.21	-35.1	-36.2	18.5	0.00e+00	0	62	0	2278555648	40	4177
2026-01-25 15:46:18.46	272.49	24.19	-35.3	-36.5	18.3	0.00e+00	0	62	0	2307915776	40	4299
2026-01-25 15:46:22.50	273.65	24.16	-35.2	-36.4	18.3	0.00e+00	0	61	0	2336227328	40	4270
2026-01-25 15:46:26.54	274.80	24.11	-35.2	-36.4	18.3	0.00e+00	0	62	0	2365587456	40	4272
2026-01-25 15:46:30.58	275.95	24.06	-35.1	-36.2	18.5	0.00e+00	0	62	0	2394947584	40	4190
2026-01-25 15:46:34.62	277.10	23.99	-35.2	-36.4	18.3	0.00e+00	0	61	0	2424307712	40	4265
2026-01-25 15:46:38.66	278.24	23.91	-35.3	-36.5	18.2	0.00e+00	0	62	0	2453667840	40	4323
2026-01-25 15:46:42.71	279.37	23.82	-35.4	-36.6	18.1	0.00e+00	0	62	0	2481979392	40	4381
2026-01-25 15:46:46.75	280.50	23.71	-35.5	-36.7	18.1	0.00e+00	0	62	0	2511339520	40	4395
2026-01-25 15:46:50.79	281.62	23.60	-35.4	-36.6	18.1	0.00e+00	0	61	0	2540699648	40	4354
2026-01-25 15:46:54.83	282.73	23.48	-35.3	-36.5	18.2	0.00e+00	0	62	0	2570059776	40	4298
2026-01-25 15:46:58.87	283.83	23.34	-35.2	-36.4	18.3	0.00e+00	0	62	0	2599419904	40	4271
2026-01-25 15:47:02.91	284.92	23.20	-35.6	-36.8	18.0	0.00e+00	0	62	0	2628780032	40	4458
2026-01-25 15:47:06.96	286.01	23.05	-35.5	-36.7	18.0	0.00e+00	0	62	0	2657091584	40	4417
2026-01-25 15:47:10.99	287.07	22.88	-35.6	-36.8	17.9	0.00e+00	0	62	0	2686451712	41	4236
2026-01-25 15:47:15.02	288.13	22.71	-35.6	-36.8	17.9	0.00e+00	0	62	0	2715811840	41	4220
2026-01-25 15:47:19.06	289.18	22.53	-35.6	-36.8	17.9	0.00e+00	0	62	0	2745171968	41	4215
2026-01-25 15:47:23.10	290.21	22.35	-35.5	-36.7	18.0	0.00e+00	0	62	0	2774532096	41	4175
2026-01-25 15:47:27.14	291.24	22.15	-35.6	-36.8	17.9	0.00e+00	0	62	0	2802843648	41	4224
2026-01-25 15:47:31.19	292.25	21.95	-36.0	-37.3	17.4	0.00e+00	0	62	0	2832203776	41	4469
2026-01-25 15:47:35.22	293.24	21.74	-35.8	-37.0	17.7	0.00e+00	0	62	0	2861563904	41	4326
2026-01-25 15:47:39.26	294.23	21.52	-35.6	-36.8	17.9	0.00e+00	0	62	0	2890924032	41	4221
2026-01-25 15:47:43.31	295.20	21.29	-35.5	-36.7	17.9	0.00e+00	0	62	0	2920284160	41	4182
2026-01-25 15:47:47.35	296.15	21.06	-35.6	-36.8	17.8	0.00e+00	0	61	0	2949644288	41	4239
2026-01-25 15:47:51.39	297.09	20.83	-36.0	-37.3	17.3	0.00e+00	0	62	0	2977955840	41	4481
2026-01-25 15:47:55.43	298.02	20.59	-36.3	-37.6	17.0	0.00e+00	0	62	0	3007315968	42	4378
2026-01-25 15:47:59.47	298.93	20.34	-36.3	-37.6	17.0	0.00e+00	0	62	0	3036676096	42	4384
2026-01-25 15:48:03.52	299.83	20.09	-36.0	-37.3	17.4	0.00e+00	0	62	0	3066036224	42	4203
2026-01-25 15:48:07.56	300.72	19.84	-36.0	-37.3	17.3	0.00e+00	0	62	0	3095396352	42	4219
2026-01-25 15:48:11.60	301.59	19.58	-36.1	-37.4	17.2	0.00e+00	0	62	0	3123707904	42	4272
2026-01-25 15:48:15.64	302.44	19.32	-36.3	-37.6	17.0	0.00e+00	0	62	0	3153068032	42	4366
2026-01-25 15:48:19.68	303.28	19.05	-36.5	-37.9	16.7	0.00e+00	0	62	0	3182428160	42	4520
2026-01-25 15:48:23.71	304.11	18.78	-36.3	-37.7	16.9	0.00e+00	0	62	0	3211788288	42	4403
2026-01-25 15:48:27.75	304.92	18.51	-36.3	-37.6	17.0	0.00e+00	0	62	0	3241148416	42	4360
2026-01-25 15:48:31.79	305.72	18.24	-36.3	-37.6	17.0	0.00e+00	0	62	0	3269459968	42	4374
2026-01-25 15:48:35.83	306.50	17.96	-36.6	-38.0	16.6	0.00e+00	0	62	0	3298820096	42	4567
2026-01-25 15:48:39.87	307.27	17.69	-36.6	-38.0	16.6	0.00e+00	0	62	0	3328180224	43	4306
2026-01-25 15:48:43.92	308.03	17.41	-36.6	-38.0	16.5	0.00e+00	0	62	0	3357540352	43	4325
2026-01-25 15:48:47.95	308.77	17.13	-36.6	-38.0	16.6	0.00e+00	0	62	0	3386900480	43	4300
2026-01-25 15:48:52.00	309.51	16.84	-36.4	-37.8	16.7	0.00e+00	0	62	0	3415212032	43	4217
2026-01-25 15:48:56.04	310.22	16.56	-36.7	-38.2	16.3	0.00e+00	0	62	0	3444572160	43	4398
2026-01-25 15:49:00.08	310.93	16.28	-37.1	-38.6	15.9	0.00e+00	0	62	0	3473932288	43	4610
2026-01-25 15:49:04.12	311.62	15.99	-37.4	-38.9	15.7	0.00e+00	0	62	0	3503292416	44	4529
2026-01-25 15:49:08.16	312.29	15.71	-37.0	-38.4	16.3	0.00e+00	0	62	0	3532652544	44	4259
2026-01-25 15:49:12.21	312.96	15.42	-36.8	-38.2	16.5	0.00e+00	0	62	0	3562012672	44	4156
2026-01-25 15:49:16.25	313.61	15.14	-37.0	-38.4	16.1	0.00e+00	0	62	0	3590324224	44	4284
2026-01-25 15:49:20.29	314.25	14.85	-37.2	-38.7	15.9	0.00e+00	0	62	0	3619684352	44	4424
2026-01-25 15:49:24.33	314.88	14.57	-37.6	-39.2	15.4	0.00e+00	0	62	0	3649044480	44	4656
2026-01-25 15:49:28.37	315.50	14.28	-37.5	-39.1	15.5	0.00e+00	0	62	0	3678404608	45	4345
2026-01-25 15:49:32.41	316.11	14.00	-37.3	-38.8	15.7	0.00e+00	0	62	0	3707764736	45	4224
2026-01-25 15:49:36.45	316.70	13.72	-37.2	-38.6	15.8	0.00e+00	0	62	0	3737124864	45	4145
2026-01-25 15:49:40.50	317.29	13.43	-37.1	-38.6	15.9	0.00e+00	0	62	0	3765436416	44	4355
2026-01-25 15:49:44.54	317.86	13.15	-37.5	-39.0	15.4	0.00e+00	0	62	0	3794796544	44	4597
2026-01-25 15:49:48.58	318.42	12.87	-37.8	-39.5	14.9	0.00e+00	0	62	0	3824156672	45	4573
2026-01-25 15:49:52.62	318.98	12.59	-38.0	-39.7	14.8	0.00e+00	0	62	0	3853516800	45	4653
2026-01-25 15:49:56.66	319.52	12.31	-37.7	-39.3	15.2	0.00e+00	0	62	0	3882876928	45	4454
2026-01-25 15:50:00.70	320.05	12.03	-37.6	-39.2	15.2	0.00e+00	0	62	0	3912237056	45	4393
2026-01-25 15:50:04.74	320.58	11.75	-37.4	-38.9	15.5	0.00e+00	0	62	0	3940548608	45	4269
2026-01-25 15:50:08.79	321.09	11.47	-37.5	-39.1	15.2	0.00e+00	0	62	0	3969908736	45	4370
2026-01-25 15:50:12.83	321.59	11.20	-37.8	-39.5	14.8	0.00e+00	0	62	0	3999268864	45	4560
2026-01-25 15:50:16.87	322.09	10.92	-38.0	-39.7	14.6	0.00e+00	0	62	0	4028628992	45	4674
2026-01-25 15:50:20.91	322.58	10.65	-38.0	-39.7	14.6	0.00e+00	0	62	0	4057989120	45	4688
2026-01-25 15:50:24.96	323.05	10.38	-38.1	-39.8	14.5	0.00e+00	0	62	0	4086300672	45	4741
2026-01-25 15:50:29.00	323.52	10.11	-38.1	-39.9	14.3	1.10e-06	0	62	0	4115660800	45	4793
2026-01-25 15:50:33.05	323.99	9.84	-38.0	-39.8	14.5	1.10e-06	0	62	0	4145020928	45	4714
2026-01-25 15:50:37.09	324.44	9.57	-38.1	-39.9	14.3	0.00e+00	0	62	0	4174381056	45	4801
2026-01-25 15:50:41.13	324.88	9.30	-38.1	-39.9	14.2	0.00e+00	0	62	0	4203741184	45	4809
2026-01-25 15:50:45.16	325.32	9.04	-38.2	-40.0	14.2	1.10e-06	0	62	0	4233101312	45	4842
2026-01-25 15:50:49.21	325.75	8.77	-38.3	-40.1	14.0	6.80e-06	0	62	0	4261412864	46	4630
2026-01-25 15:50:53.24	326.17	8.51	-38.5	-40.4	13.7	5.70e-06	0	62	0	4290772992	46	4806
2026-01-25 15:50:57.29	326.59	8.25	-38.5	-40.4	13.6	6.80e-06	0	62	0	4320133120	46	4808
2026-01-25 15:51:01.33	327.00	7.99	-38.8	-40.9	13.1	1.94e-05	0	62	0	4349493248	47	4781
2026-01-25 15:51:05.38	327.40	7.73	-45.3	-56.7	3.8	8.46e-01	0	62	104	4350541824	60	13895
2026-01-25 15:51:09.42	327.79	7.48	-45.5	-56.9	3.8	8.45e-01	0	62	104	4350541824	60	14314
2026-01-25 15:51:13.46	328.18	7.22	-45.4	-56.8	3.8	8.46e-01	0	62	104	4350541824	60	14189
2026-01-25 15:51:17.51	328.57	6.97	-45.4	-56.8	3.8	8.46e-01	0	62	104	4350541824	60	14124
2026-01-25 15:51:21.55	328.94	6.72	-45.1	-56.8	3.8	8.47e-01	0	62	104	4350541824	60	14086
2026-01-25 15:51:25.59	329.31	6.47	-45.4	-56.8	3.8	8.46e-01	0	62	104	4350541824	60	14107
2026-01-25 15:51:29.63	329.67	6.22	-45.4	-56.7	3.8	8.47e-01	0	62	104	4350541824	60	14003
2026-01-25 15:51:33.67	330.03	5.97	-45.4	-56.8	3.8	8.46e-01	0	62	104	4350541824	60	14091
2026-01-25 15:51:37.72	330.38	5.72	-45.3	-56.8	3.8	8.46e-01	0	62	104	4350541824	60	14080
2026-01-25 15:51:41.76	330.73	5.48	-45.4	-56.7	3.8	8.47e-01	0	62	104	4350541824	60	14031
2026-01-25 15:51:45.80	331.07	5.24	-44.9	-56.7	3.9	8.46e-01	0	62	104	4350541824	60	13927
2026-01-25 15:51:49.84	331.41	5.00	-45.4	-56.7	3.8	8.49e-01	0	62	104	4350541824	60	14033
2026-01-25 15:51:53.89	331.74	4.76	-45.3	-56.7	3.8	8.46e-01	0	62	104	4350541824	60	13978
2026-01-25 15:51:57.93	332.06	4.52	-45.3	-56.7	3.8	8.46e-01	0	62	104	4350541824	60	13987
2026-01-25 15:52:01.98	332.39	4.28	-45.4	-56.7	3.8	8.47e-01	0	62	104	4350541824	60	14016
2026-01-25 15:52:06.02	332.70	4.04	-45.3	-56.7	3.8	8.44e-01	0	62	104	4350541824	60	13983
2026-01-25 15:52:10.06	333.01	3.81	-45.3	-56.7	3.8	8.47e-01	0	62	104	4350541824	60	14023
2026-01-25 15:52:14.10	333.32	3.58	-45.3	-56.7	3.8	8.47e-01	0	62	104	4350541824	60	13985
2026-01-25 15:52:18.14	333.62	3.34	-45.3	-56.7	3.8	8.47e-01	0	62	104	4350541824	60	13999
2026-01-25 15:52:22.18	333.92	3.11	-45.3	-56.7	3.8	8.47e-01	0	62	104	4350541824	60	14025
2026-01-25 15:52:26.23	334.21	2.88	-45.3	-56.7	3.8	8.46e-01	0	62	104	4350541824	60	13986
2026-01-25 15:52:30.26	334.50	2.66	-45.3	-56.7	3.8	8.46e-01	0	62	104	4350541824	60	13997
2026-01-25 15:52:34.31	334.79	2.43	-45.3	-56.7	3.8	8.45e-01	0	62	104	4350541824	60	13969
2026-01-25 15:52:38.35	335.07	2.21	-45.3	-56.7	3.8	8.46e-01	0	62	104	4350541824	60	14001
2026-01-25 15:52:42.39	335.34	1.98	-45.3	-56.7	3.8	8.46e-01	0	62	104	4350541824	60	13982

#Closed at: 2026-01-25 15:52:44
#Recorded file [4350 MB]: D:/lorett/data/31039_260125_183942.dat