passes_logs/2026/01/25/R2.0S_Moscow/R2.0S_Moscow__20260125_135814_FENGYUN_3E_rec.log

#Pass ID: 20260125_135814_FENGYUN 3E
#Satellite: FENGYUN 3E
#Configuration: FENGYUN 3E
#almurnet v.1.7.20251203
#Start time: 2026-01-25 13:58:14

#Version: 2.2.20231116
#Station: R2.0S_Moscow
#Location: 37.707566 lon 55.798166 lat
#TLE: 1 49008U 21062A   26025.22354119 -.00000045  00000+0 -39974-6 0  9992
#TLE: 2 49008  98.7496  30.2323 0002444 117.8821 242.2603 14.19886325236299

#Time	Az	El	Level	Level2	SNR	BER	BlckErr	Temp	State	Recorded	gain1	gain2
2026-01-25 13:58:14.63	153.84	1.99	-44.3	-55.2	3.8	8.47e-01	0	52	0	0	59	12470
2026-01-25 13:58:18.67	153.81	2.25	-44.3	-55.2	3.8	8.46e-01	0	53	104	0	59	12466
2026-01-25 13:58:22.71	153.77	2.51	-44.2	-55.2	3.8	8.45e-01	0	53	104	0	59	12420
2026-01-25 13:58:26.76	153.74	2.78	-44.2	-55.2	3.8	8.46e-01	0	53	104	0	59	12439
2026-01-25 13:58:30.79	153.70	3.05	-44.2	-55.2	3.8	8.46e-01	0	54	104	0	58	13172
2026-01-25 13:58:34.83	153.67	3.32	-44.2	-55.2	3.8	8.47e-01	0	54	104	0	58	13168
2026-01-25 13:58:38.87	153.63	3.59	-44.2	-55.2	3.8	8.46e-01	0	54	104	0	58	13113
2026-01-25 13:58:42.92	153.60	3.87	-44.2	-55.2	3.8	8.47e-01	0	54	104	0	58	13133
2026-01-25 13:58:46.96	153.56	4.15	-44.2	-55.1	3.8	8.48e-01	0	55	104	0	58	13103
2026-01-25 13:58:51.00	153.52	4.43	-44.2	-55.2	3.8	8.47e-01	0	55	104	0	58	13122
2026-01-25 13:58:55.05	153.48	4.71	-44.2	-55.2	3.8	8.46e-01	0	55	104	0	58	13133
2026-01-25 13:58:59.09	153.44	5.00	-44.2	-55.2	3.8	8.47e-01	0	55	104	0	58	13113
2026-01-25 13:59:03.13	153.39	5.29	-44.2	-54.9	3.8	8.45e-01	0	56	104	0	58	12736
2026-01-25 13:59:07.17	153.35	5.59	-44.1	-54.2	3.8	8.46e-01	0	56	104	0	58	11795
2026-01-25 13:59:11.22	153.31	5.88	-43.8	-52.7	4.0	8.43e-01	0	56	104	0	58	9849
2026-01-25 13:59:15.26	153.26	6.19	-43.2	-50.1	4.7	8.03e-01	0	56	0	0	57	7738
2026-01-25 13:59:19.30	153.22	6.49	-43.4	-51.0	4.3	8.28e-01	0	57	0	0	57	8652
2026-01-25 13:59:23.34	153.17	6.80	-43.8	-53.0	3.9	8.44e-01	0	57	104	0	57	10824
2026-01-25 13:59:27.38	153.12	7.11	-43.6	-51.6	4.2	8.39e-01	0	57	0	0	57	9179
2026-01-25 13:59:31.42	153.07	7.43	-41.8	-46.4	7.3	1.52e-01	0	57	0	10485760	54	5999
2026-01-25 13:59:35.46	153.02	7.75	-39.6	-42.5	11.2	1.68e-03	0	57	0	39845888	50	4870
2026-01-25 13:59:39.51	152.96	8.07	-41.5	-45.5	8.6	1.01e-04	0	57	0	69206016	52	6091
2026-01-25 13:59:43.55	152.91	8.40	-38.6	-41.1	12.7	3.85e-02	0	57	0	87031808	48	4646
2026-01-25 13:59:47.59	152.85	8.73	-38.0	-40.5	13.2	3.43e-05	0	58	0	116391936	47	4559
2026-01-25 13:59:51.63	152.80	9.07	-37.9	-40.4	13.3	6.80e-06	0	58	0	144703488	46	4777
2026-01-25 13:59:55.66	152.74	9.41	-37.8	-40.1	13.6	4.50e-06	0	58	0	174063616	46	4636
2026-01-25 13:59:59.70	152.68	9.75	-37.6	-40.0	13.9	9.10e-06	0	58	0	203423744	46	4551
2026-01-25 14:00:03.74	152.61	10.10	-37.5	-39.8	14.1	2.20e-06	0	58	0	232783872	46	4472
2026-01-25 14:00:07.78	152.55	10.46	-37.3	-39.5	14.4	1.10e-06	0	58	0	261095424	45	4592
2026-01-25 14:00:11.81	152.48	10.82	-37.2	-39.4	14.5	0.00e+00	0	59	0	290455552	45	4515
2026-01-25 14:00:15.85	152.42	11.19	-37.2	-39.4	14.6	1.10e-06	0	59	0	319815680	45	4500
2026-01-25 14:00:19.89	152.35	11.56	-37.1	-39.2	14.9	0.00e+00	0	59	0	349175808	45	4398
2026-01-25 14:00:23.93	152.27	11.94	-37.0	-39.1	15.0	0.00e+00	0	59	0	377487360	44	4618
2026-01-25 14:00:27.97	152.20	12.32	-37.0	-39.0	15.1	0.00e+00	0	59	0	406847488	44	4574
2026-01-25 14:00:32.01	152.12	12.71	-36.9	-38.9	15.3	0.00e+00	0	59	0	436207616	44	4503
2026-01-25 14:00:36.05	152.04	13.10	-36.8	-38.8	15.4	0.00e+00	0	59	0	465567744	44	4486
2026-01-25 14:00:40.09	151.96	13.51	-36.9	-38.9	15.4	0.00e+00	0	59	0	494927872	44	4503
2026-01-25 14:00:44.13	151.88	13.92	-36.6	-38.6	15.7	0.00e+00	0	59	0	524288000	44	4355
2026-01-25 14:00:48.17	151.79	14.33	-36.7	-38.7	15.6	0.00e+00	0	59	0	552599552	44	4396
2026-01-25 14:00:52.21	151.70	14.76	-36.7	-38.7	15.6	0.00e+00	0	59	0	581959680	44	4393
2026-01-25 14:00:56.26	151.61	15.19	-36.7	-38.7	15.6	0.00e+00	0	60	0	611319808	44	4419
2026-01-25 14:01:00.30	151.52	15.63	-36.6	-38.5	15.8	0.00e+00	0	60	0	640679936	44	4340
2026-01-25 14:01:04.33	151.42	16.07	-36.4	-38.3	15.9	0.00e+00	0	60	0	670040064	43	4483
2026-01-25 14:01:08.37	151.32	16.53	-36.3	-38.2	16.0	0.00e+00	0	60	0	698351616	43	4416
2026-01-25 14:01:12.41	151.21	16.99	-36.1	-38.0	16.2	0.00e+00	0	60	0	727711744	43	4298
2026-01-25 14:01:16.44	151.10	17.46	-36.0	-37.8	16.4	0.00e+00	0	60	0	757071872	43	4239
2026-01-25 14:01:20.48	150.99	17.94	-35.8	-37.6	16.7	0.00e+00	0	60	0	786432000	42	4368
2026-01-25 14:01:24.52	150.87	18.43	-35.6	-37.3	17.0	0.00e+00	0	60	0	815792128	42	4227
2026-01-25 14:01:28.56	150.75	18.93	-35.4	-37.1	17.2	0.00e+00	0	60	0	845152256	41	4368
2026-01-25 14:01:32.60	150.63	19.44	-35.4	-37.0	17.3	0.00e+00	0	60	0	873463808	41	4323
2026-01-25 14:01:36.64	150.50	19.96	-35.2	-36.9	17.5	0.00e+00	0	60	0	902823936	41	4243
2026-01-25 14:01:40.67	150.36	20.49	-35.1	-36.7	17.6	0.00e+00	0	60	0	932184064	41	4169
2026-01-25 14:01:44.71	150.22	21.04	-35.0	-36.6	17.7	0.00e+00	0	60	0	961544192	41	4109
2026-01-25 14:01:48.76	150.08	21.59	-35.1	-36.7	17.7	0.00e+00	0	60	0	990904320	40	4404
2026-01-25 14:01:52.79	149.92	22.16	-35.0	-36.7	17.7	0.00e+00	0	60	0	1019215872	40	4398
2026-01-25 14:01:56.83	149.77	22.74	-35.1	-36.8	17.6	0.00e+00	0	60	0	1048576000	40	4451
2026-01-25 14:02:00.87	149.60	23.33	-35.2	-36.9	17.4	0.00e+00	0	60	0	1077936128	40	4517
2026-01-25 14:02:04.92	149.43	23.94	-35.1	-36.8	17.5	0.00e+00	0	61	0	1107296256	40	4476
2026-01-25 14:02:08.96	149.25	24.56	-35.1	-36.9	17.4	0.00e+00	0	61	0	1136656384	40	4513
2026-01-25 14:02:13.00	149.07	25.20	-35.1	-36.8	17.5	0.00e+00	0	60	0	1166016512	40	4485
2026-01-25 14:02:17.05	148.87	25.85	-35.0	-36.8	17.6	0.00e+00	0	61	0	1194328064	40	4442
2026-01-25 14:02:21.09	148.67	26.52	-34.8	-36.5	17.8	0.00e+00	0	61	0	1223688192	40	4340
2026-01-25 14:02:25.12	148.46	27.20	-34.8	-36.5	17.9	0.00e+00	0	61	0	1253048320	40	4312
2026-01-25 14:02:29.16	148.24	27.90	-34.5	-36.1	18.3	0.00e+00	0	61	0	1282408448	39	4374
2026-01-25 14:02:33.20	148.01	28.62	-34.2	-35.8	18.6	0.00e+00	0	61	0	1311768576	39	4217
2026-01-25 14:02:37.23	147.76	29.36	-34.1	-35.6	18.9	0.00e+00	0	61	0	1340080128	39	4130
2026-01-25 14:02:41.27	147.51	30.11	-34.4	-35.9	18.6	0.00e+00	0	61	0	1369440256	39	4283
2026-01-25 14:02:45.31	147.24	30.89	-34.4	-36.0	18.5	0.00e+00	0	61	0	1398800384	39	4310
2026-01-25 14:02:49.35	146.96	31.68	-34.5	-36.1	18.4	0.00e+00	0	61	0	1428160512	39	4341
2026-01-25 14:02:53.39	146.66	32.50	-34.5	-36.1	18.4	0.00e+00	0	61	0	1457520640	39	4352
2026-01-25 14:02:57.43	146.34	33.34	-34.6	-36.3	18.2	0.00e+00	0	61	0	1485832192	39	4447
2026-01-25 14:03:01.46	146.01	34.20	-34.7	-36.4	18.1	0.00e+00	0	61	0	1515192320	39	4520
2026-01-25 14:03:05.51	145.66	35.09	-34.5	-36.2	18.3	0.00e+00	0	61	0	1544552448	39	4412
2026-01-25 14:03:09.54	145.29	35.99	-34.5	-36.1	18.3	0.00e+00	0	61	0	1573912576	39	4385
2026-01-25 14:03:13.59	144.90	36.93	-34.7	-36.3	18.2	0.00e+00	0	61	0	1603272704	39	4492
2026-01-25 14:03:17.63	144.48	37.89	-35.1	-36.8	17.8	0.00e+00	0	61	0	1631584256	39	4737
2026-01-25 14:03:21.67	144.04	38.88	-34.9	-36.6	18.0	0.00e+00	0	61	0	1660944384	39	4621
2026-01-25 14:03:25.71	143.57	39.89	-34.6	-36.2	18.3	0.00e+00	0	61	0	1690304512	39	4426
2026-01-25 14:03:29.75	143.07	40.93	-35.2	-36.3	18.7	0.00e+00	0	61	0	1719664640	40	4218
2026-01-25 14:03:33.79	142.53	42.00	-35.5	-36.7	18.4	0.00e+00	0	61	0	1749024768	40	4398
2026-01-25 14:03:37.83	141.95	43.10	-35.5	-36.6	18.4	0.00e+00	0	62	0	1777336320	41	4120
2026-01-25 14:03:41.87	141.33	44.22	-35.3	-36.4	18.6	0.00e+00	0	61	0	1806696448	41	4026
2026-01-25 14:03:45.91	140.67	45.38	-35.7	-36.9	18.1	0.00e+00	0	61	0	1836056576	41	4279
2026-01-25 14:03:49.95	139.95	46.56	-36.0	-37.3	17.8	0.00e+00	0	62	0	1865416704	41	4453
2026-01-25 14:03:53.99	139.18	47.78	-35.9	-37.0	18.0	0.00e+00	0	61	0	1894776832	42	4094
2026-01-25 14:03:58.03	138.34	49.02	-36.1	-37.3	17.7	0.00e+00	0	61	0	1923088384	42	4221
2026-01-25 14:04:02.07	137.43	50.29	-36.4	-37.7	17.4	0.00e+00	0	62	0	1952448512	43	4180
2026-01-25 14:04:06.11	136.43	51.59	-36.3	-37.6	17.5	0.00e+00	0	61	0	1981808640	43	4101
2026-01-25 14:04:10.15	135.35	52.92	-36.4	-37.7	17.4	0.00e+00	0	62	0	2011168768	43	4178
2026-01-25 14:04:14.19	134.16	54.27	-36.5	-37.8	17.2	0.00e+00	0	62	0	2040528896	43	4212
2026-01-25 14:04:18.23	132.85	55.64	-36.4	-37.6	17.4	0.00e+00	0	61	0	2068840448	43	4142
2026-01-25 14:04:22.26	131.40	57.02	-36.6	-37.9	17.2	0.00e+00	0	61	0	2098200576	43	4274
2026-01-25 14:04:26.30	129.80	58.43	-36.5	-37.8	17.3	0.00e+00	0	62	0	2127560704	43	4209
2026-01-25 14:04:30.35	128.01	59.85	-36.3	-37.5	17.5	0.00e+00	0	62	0	2156920832	43	4098
2026-01-25 14:04:34.39	126.02	61.26	-36.0	-37.2	17.9	0.00e+00	0	61	0	2186280960	42	4173
2026-01-25 14:04:38.42	123.80	62.67	-36.2	-37.5	17.6	0.00e+00	0	62	0	2215641088	41	4553
2026-01-25 14:04:42.46	121.28	64.08	-35.8	-37.0	18.1	0.00e+00	0	62	0	2243952640	41	4299
2026-01-25 14:04:46.50	118.45	65.45	-35.0	-36.1	19.0	0.00e+00	0	62	0	2273312768	41	3883
2026-01-25 14:04:50.54	115.25	66.79	-35.1	-36.2	18.8	0.00e+00	0	61	0	2302672896	40	4158
2026-01-25 14:04:54.58	111.62	68.08	-35.3	-36.4	18.6	0.00e+00	0	62	0	2332033024	40	4272
2026-01-25 14:04:58.62	107.51	69.28	-35.4	-36.5	18.5	0.00e+00	0	62	0	2361393152	40	4319
2026-01-25 14:05:02.66	102.88	70.40	-35.4	-36.5	18.5	0.00e+00	0	62	0	2389704704	40	4315
2026-01-25 14:05:06.69	97.70	71.38	-35.4	-36.5	18.5	0.00e+00	0	62	0	2419064832	40	4323
2026-01-25 14:05:10.73	91.94	72.21	-35.7	-36.9	18.2	0.00e+00	0	61	0	2448424960	41	4249
2026-01-25 14:05:14.77	85.64	72.86	-35.4	-36.6	18.5	0.00e+00	0	62	0	2477785088	41	4114
2026-01-25 14:05:18.81	78.91	73.31	-35.2	-36.3	18.7	0.00e+00	0	62	0	2507145216	41	3988
2026-01-25 14:05:22.85	71.91	73.52	-35.5	-36.7	18.4	0.00e+00	0	62	0	2536505344	40	4408
2026-01-25 14:05:26.89	64.81	73.49	-35.1	-36.2	18.9	0.00e+00	0	62	0	2564816896	40	4152
2026-01-25 14:05:30.92	57.87	73.22	-35.2	-36.3	18.8	0.00e+00	0	62	0	2594177024	40	4205
2026-01-25 14:05:34.96	51.24	72.73	-35.1	-36.2	18.8	0.00e+00	0	62	0	2623537152	40	4183
2026-01-25 14:05:39.00	45.07	72.03	-35.5	-36.7	18.4	0.00e+00	0	62	0	2652897280	40	4416
2026-01-25 14:05:43.03	39.45	71.16	-35.7	-36.8	18.2	0.00e+00	0	62	0	2682257408	41	4233
2026-01-25 14:05:47.07	34.40	70.15	-35.3	-36.4	18.6	0.00e+00	0	62	0	2710568960	41	4041
2026-01-25 14:05:51.11	29.90	69.01	-35.2	-36.3	18.7	0.00e+00	0	62	0	2739929088	40	4242
2026-01-25 14:05:55.15	25.91	67.79	-35.2	-36.3	18.6	0.00e+00	0	62	0	2769289216	40	4224
2026-01-25 14:05:59.18	22.40	66.49	-35.2	-36.3	18.8	0.00e+00	0	62	0	2798649344	40	4211
2026-01-25 14:06:03.23	19.28	65.14	-35.7	-36.9	18.3	0.00e+00	0	62	0	2826960896	40	4505
2026-01-25 14:06:07.26	16.54	63.77	-35.8	-37.0	18.1	0.00e+00	0	62	0	2856321024	41	4307
2026-01-25 14:06:11.30	14.10	62.37	-36.2	-37.4	17.7	0.00e+00	0	62	0	2885681152	42	4274
2026-01-25 14:06:15.35	11.92	60.95	-36.8	-38.1	17.0	3.40e-06	0	62	0	2915041280	43	4379
2026-01-25 14:06:19.39	9.99	59.54	-36.9	-38.2	16.9	0.00e+00	0	62	0	2944401408	43	4411
2026-01-25 14:06:23.43	8.25	58.13	-36.5	-37.8	17.3	0.00e+00	0	62	0	2972712960	43	4218
2026-01-25 14:06:27.47	6.69	56.73	-36.7	-38.0	17.1	0.00e+00	0	62	0	3002073088	43	4332
2026-01-25 14:06:31.51	5.28	55.35	-36.2	-37.5	17.5	0.00e+00	0	62	0	3031433216	43	4065
2026-01-25 14:06:35.55	4.00	53.99	-36.1	-37.3	17.7	0.00e+00	0	62	0	3060793344	42	4225
2026-01-25 14:06:39.59	2.84	52.65	-36.4	-37.7	17.4	1.10e-06	0	62	0	3090153472	43	4174
2026-01-25 14:06:43.62	1.78	51.34	-36.8	-38.1	16.9	4.80e-05	0	62	0	3118465024	43	4343
2026-01-25 14:06:47.66	0.80	50.05	-36.4	-37.6	17.4	0.00e+00	0	62	0	3147825152	43	4142
2026-01-25 14:06:51.70	359.91	48.79	-36.2	-37.4	17.7	1.10e-06	0	62	0	3177185280	43	4029
2026-01-25 14:06:55.74	359.09	47.55	-35.7	-36.9	18.1	0.00e+00	0	62	0	3206545408	42	4036
2026-01-25 14:06:59.78	358.33	46.35	-35.9	-37.1	17.8	2.20e-06	0	62	0	3235905536	41	4344
2026-01-25 14:07:03.82	357.63	45.18	-35.4	-36.6	18.4	5.70e-06	0	62	0	3264217088	41	4117
2026-01-25 14:07:07.85	356.98	44.03	-35.1	-36.4	18.5	0.00e+00	0	62	0	3293577216	41	4016
2026-01-25 14:07:11.89	356.37	42.92	-35.1	-36.2	18.8	0.00e+00	0	62	0	3322937344	40	4187
2026-01-25 14:07:15.93	355.81	41.83	-35.2	-36.5	18.4	2.20e-06	0	62	0	3352297472	40	4313
2026-01-25 14:07:19.97	355.28	40.77	-35.7	-36.9	18.0	0.00e+00	0	62	0	3381657600	40	4527
2026-01-25 14:07:24.01	354.79	39.74	-35.6	-36.8	18.2	0.00e+00	0	62	0	3411017728	40	4477
2026-01-25 14:07:28.05	354.32	38.74	-35.4	-36.6	18.4	0.00e+00	0	62	0	3439329280	40	4357
2026-01-25 14:07:32.09	353.89	37.76	-35.2	-36.3	18.7	0.00e+00	0	62	0	3468689408	40	4215
2026-01-25 14:07:36.13	353.48	36.81	-35.3	-36.4	18.4	0.00e+00	0	62	0	3498049536	40	4287
2026-01-25 14:07:40.17	353.09	35.88	-34.8	-35.9	19.0	0.00e+00	0	62	0	3527409664	40	4035
2026-01-25 14:07:44.21	352.73	34.98	-34.9	-36.0	18.9	0.00e+00	0	62	0	3556769792	40	4071
2026-01-25 14:07:48.25	352.39	34.10	-34.9	-36.1	18.8	0.00e+00	0	62	0	3585081344	40	4103
2026-01-25 14:07:52.29	352.06	33.25	-34.9	-36.0	18.9	0.00e+00	0	62	0	3614441472	40	4071
2026-01-25 14:07:56.33	351.75	32.42	-34.8	-35.9	18.9	0.00e+00	0	62	0	3643801600	40	4030
2026-01-25 14:08:00.37	351.46	31.61	-35.0	-36.1	18.7	0.00e+00	0	62	0	3673161728	40	4134
2026-01-25 14:08:04.41	351.19	30.82	-35.1	-36.2	18.6	0.00e+00	0	62	0	3702521856	40	4159
2026-01-25 14:08:08.45	350.92	30.05	-34.9	-36.0	18.6	0.00e+00	0	62	0	3731881984	40	4095
2026-01-25 14:08:12.49	350.67	29.30	-34.9	-36.0	18.7	0.00e+00	0	62	0	3760193536	40	4092
2026-01-25 14:08:16.52	350.43	28.57	-35.2	-36.3	18.3	0.00e+00	0	62	0	3789553664	40	4238
2026-01-25 14:08:20.56	350.21	27.86	-35.4	-36.6	18.1	0.00e+00	0	62	0	3818913792	40	4359
2026-01-25 14:08:24.60	349.99	27.17	-35.4	-36.6	18.0	0.00e+00	0	62	0	3848273920	40	4387
2026-01-25 14:08:28.63	349.78	26.49	-35.3	-36.5	18.0	0.00e+00	0	62	0	3876585472	40	4320
2026-01-25 14:08:32.67	349.58	25.83	-35.1	-36.3	17.9	0.00e+00	0	62	0	3905945600	40	4204
2026-01-25 14:08:36.72	349.39	25.18	-35.1	-36.3	18.0	0.00e+00	0	62	0	3935305728	40	4195
2026-01-25 14:08:40.76	349.21	24.55	-35.2	-36.5	17.8	0.00e+00	0	62	0	3964665856	40	4294
2026-01-25 14:08:44.79	349.04	23.94	-35.5	-36.8	17.4	0.00e+00	0	62	0	3994025984	40	4446
2026-01-25 14:08:48.83	348.87	23.33	-35.5	-36.8	17.0	0.00e+00	0	62	0	4022337536	40	4457
2026-01-25 14:08:52.88	348.71	22.74	-35.6	-37.0	16.4	0.00e+00	0	62	0	4051697664	41	4296
2026-01-25 14:08:56.92	348.56	22.17	-35.2	-36.6	16.3	0.00e+00	0	62	0	4081057792	41	4143
2026-01-25 14:09:00.96	348.41	21.61	-35.9	-37.6	15.0	0.00e+00	0	62	0	4110417920	41	4606
2026-01-25 14:09:05.00	348.27	21.05	-39.6	-43.0	9.0	1.81e-02	0	62	0	4139778048	48	5767
2026-01-25 14:09:09.03	348.13	20.52	-41.3	-49.4	4.1	8.40e-01	0	62	0	4154458112	52	9581
2026-01-25 14:09:13.07	348.00	19.99	-41.4	-52.1	3.8	8.46e-01	0	62	104	4154458112	52	13069
2026-01-25 14:09:17.11	347.88	19.47	-41.5	-52.2	3.8	8.46e-01	0	62	104	4154458112	52	13132
2026-01-25 14:09:21.16	347.75	18.96	-41.4	-52.2	3.8	8.47e-01	0	62	104	4154458112	52	13138
2026-01-25 14:09:25.19	347.64	18.47	-41.2	-52.0	3.8	8.46e-01	0	62	104	4154458112	52	12835
2026-01-25 14:09:29.23	347.52	17.98	-41.2	-52.0	3.8	8.45e-01	0	62	104	4154458112	53	12113
2026-01-25 14:09:33.27	347.42	17.50	-41.2	-52.0	3.8	8.46e-01	0	62	104	4154458112	53	12219
2026-01-25 14:09:37.30	347.31	17.03	-41.4	-52.3	3.8	8.46e-01	0	62	104	4154458112	53	12534
2026-01-25 14:09:41.34	347.21	16.57	-41.7	-52.6	3.8	8.46e-01	0	62	104	4154458112	53	13005
2026-01-25 14:09:45.38	347.11	16.12	-41.7	-52.6	3.8	8.46e-01	0	62	104	4154458112	53	13049
2026-01-25 14:09:49.42	347.02	15.68	-41.8	-52.7	3.8	8.47e-01	0	62	104	4154458112	53	13119
2026-01-25 14:09:53.45	346.93	15.24	-41.7	-52.6	3.8	8.46e-01	0	62	104	4154458112	53	13054
2026-01-25 14:09:57.49	346.84	14.82	-41.7	-52.5	3.8	8.46e-01	0	62	104	4154458112	53	12925
2026-01-25 14:10:01.53	346.75	14.40	-41.5	-52.4	3.8	8.46e-01	0	62	104	4154458112	53	12697
2026-01-25 14:10:05.57	346.67	13.98	-41.5	-52.3	3.8	8.46e-01	0	62	104	4154458112	53	12586
2026-01-25 14:10:09.60	346.59	13.58	-41.4	-52.3	3.8	8.46e-01	0	62	104	4154458112	53	12538
2026-01-25 14:10:13.65	346.51	13.18	-41.4	-52.2	3.8	8.46e-01	0	62	104	4154458112	53	12476
2026-01-25 14:10:17.69	346.44	12.78	-41.4	-52.2	3.8	8.46e-01	0	62	104	4154458112	53	12407
2026-01-25 14:10:21.72	346.37	12.40	-41.3	-52.1	3.8	8.47e-01	0	62	104	4154458112	53	12295
2026-01-25 14:10:25.76	346.30	12.01	-41.2	-52.0	3.8	8.46e-01	0	62	104	4154458112	52	12953
2026-01-25 14:10:29.80	346.23	11.64	-41.2	-52.0	3.8	8.46e-01	0	62	104	4154458112	52	12893
2026-01-25 14:10:33.83	346.16	11.27	-41.2	-52.1	3.8	8.47e-01	0	62	104	4154458112	52	12962
2026-01-25 14:10:37.87	346.10	10.90	-41.2	-52.1	3.8	8.46e-01	0	62	104	4154458112	52	12970
2026-01-25 14:10:41.91	346.04	10.55	-41.2	-52.0	3.8	8.46e-01	0	62	104	4154458112	52	12934
2026-01-25 14:10:45.95	345.98	10.19	-41.1	-51.9	3.8	8.46e-01	0	62	104	4154458112	52	12809
2026-01-25 14:10:49.99	345.92	9.84	-41.0	-51.9	3.8	8.46e-01	0	62	104	4154458112	52	12670
2026-01-25 14:10:54.03	345.87	9.50	-41.0	-51.7	3.8	8.46e-01	0	62	104	4154458112	52	12508
2026-01-25 14:10:58.07	345.81	9.16	-40.9	-51.7	3.8	8.47e-01	0	62	104	4154458112	52	12467
2026-01-25 14:11:02.11	345.76	8.82	-40.9	-51.6	3.8	8.46e-01	0	62	104	4154458112	52	12371
2026-01-25 14:11:06.15	345.71	8.49	-40.9	-51.6	3.8	8.47e-01	0	62	104	4154458112	52	12346
2026-01-25 14:11:10.19	345.66	8.17	-40.9	-51.7	3.8	8.48e-01	0	62	104	4154458112	52	12427
2026-01-25 14:11:14.22	345.61	7.85	-41.3	-52.1	3.8	8.46e-01	0	62	104	4154458112	52	13058
2026-01-25 14:11:18.26	345.56	7.53	-45.4	-56.7	3.8	8.45e-01	0	62	104	4154458112	60	13995
2026-01-25 14:11:22.31	345.52	7.21	-45.6	-56.9	3.8	8.45e-01	0	62	104	4154458112	60	14307
2026-01-25 14:11:26.35	345.47	6.90	-45.5	-56.8	3.8	8.48e-01	0	62	104	4154458112	60	14141
2026-01-25 14:11:30.39	345.43	6.60	-45.4	-56.7	3.8	8.45e-01	0	62	104	4154458112	60	13977
2026-01-25 14:11:34.43	345.39	6.29	-45.4	-56.7	3.8	8.46e-01	0	62	104	4154458112	60	13987
2026-01-25 14:11:38.47	345.35	5.99	-45.4	-56.7	3.8	8.46e-01	0	62	104	4154458112	60	14008
2026-01-25 14:11:42.51	345.31	5.70	-45.4	-56.7	3.8	8.46e-01	0	62	104	4154458112	60	13981
2026-01-25 14:11:46.56	345.27	5.40	-45.3	-56.7	3.8	8.46e-01	0	62	104	4154458112	60	13932
2026-01-25 14:11:50.60	345.23	5.11	-45.3	-56.7	3.8	8.47e-01	0	62	104	4154458112	60	13916
2026-01-25 14:11:54.64	345.20	4.83	-45.2	-56.6	3.8	8.46e-01	0	62	104	4154458112	60	13842
2026-01-25 14:11:58.68	345.16	4.54	-45.3	-56.6	3.8	8.46e-01	0	62	104	4154458112	60	13865
2026-01-25 14:12:02.72	345.13	4.26	-45.3	-56.6	3.8	8.47e-01	0	62	104	4154458112	60	13863
2026-01-25 14:12:06.76	345.09	3.98	-45.3	-56.7	3.8	8.44e-01	0	62	104	4154458112	60	13946
2026-01-25 14:12:10.81	345.06	3.71	-45.3	-56.7	3.8	8.47e-01	0	62	104	4154458112	60	13932
2026-01-25 14:12:14.85	345.03	3.44	-45.3	-56.7	3.8	8.46e-01	0	62	104	4154458112	60	13917
2026-01-25 14:12:18.89	345.00	3.17	-45.3	-56.6	3.8	8.46e-01	0	62	104	4154458112	60	13799
2026-01-25 14:12:22.93	344.97	2.90	-45.3	-56.7	3.8	8.46e-01	0	62	104	4154458112	60	13889
2026-01-25 14:12:26.97	344.94	2.63	-45.3	-56.7	3.8	8.46e-01	0	62	104	4154458112	60	13904
2026-01-25 14:12:31.01	344.92	2.37	-45.3	-56.6	3.8	8.47e-01	0	62	104	4154458112	60	13884
2026-01-25 14:12:35.06	344.89	2.11	-45.3	-56.6	3.8	8.45e-01	0	62	104	4154458112	60	13870

#Closed at: 2026-01-25 14:12:38
#Recorded file [4154 MB]: D:/lorett/data/31039_260125_165814.dat