passes_logs/2026/01/25/R2.0S_Moscow/R2.0S_Moscow__20260125_021355_AQUA_rec.log

#Pass ID: 20260125_021355_AQUA
#Satellite: AQUA
#Configuration: AQUA
#almurnet v.1.7.20251203
#Start time: 2026-01-25 02:13:56

#Version: 2.2.20231116
#Station: R2.0S_Moscow
#Location: 37.707566 lon 55.798166 lat
#TLE: 1 27424U 02022A   26024.53919639  .00001970  00000+0  40397-3 0  9996
#TLE: 2 27424  98.4098 351.1277 0001915  66.8561 358.4840 14.61855303262281

#Time	Az	El	Level	Level2	SNR	BER	BlckErr	Temp	State	Recorded	gain1	gain2
2026-01-25 02:13:56.32	10.65	2.04	-40.7	-59.7	3.8	7.45e-01	0	52	0	0	53	31303
2026-01-25 02:13:59.34	10.52	2.23	-40.7	-59.7	3.8	7.47e-01	0	52	104	0	52	33134
2026-01-25 02:14:02.37	10.39	2.43	-40.7	-59.7	3.8	7.44e-01	0	52	104	0	52	33078
2026-01-25 02:14:05.40	10.26	2.62	-40.7	-59.7	3.8	7.47e-01	0	52	104	0	52	33109
2026-01-25 02:14:08.43	10.13	2.82	-40.6	-59.7	3.8	7.44e-01	0	53	104	0	52	33103
2026-01-25 02:14:11.47	9.99	3.02	-40.7	-59.7	3.8	7.45e-01	0	53	104	0	52	33067
2026-01-25 02:14:14.50	9.86	3.22	-40.7	-59.7	3.8	7.46e-01	0	53	104	0	52	33007
2026-01-25 02:14:17.53	9.72	3.43	-40.6	-59.7	3.8	7.45e-01	0	53	104	0	52	33033
2026-01-25 02:14:20.56	9.58	3.63	-40.6	-59.7	3.8	7.45e-01	0	54	104	0	52	33037
2026-01-25 02:14:23.59	9.43	3.83	-40.7	-59.7	3.8	7.44e-01	0	54	104	0	52	32933
2026-01-25 02:14:26.62	9.29	4.04	-40.6	-59.7	3.8	7.46e-01	0	54	104	0	52	32993
2026-01-25 02:14:29.65	9.14	4.25	-40.6	-59.7	3.8	7.43e-01	0	54	104	0	52	32963
2026-01-25 02:14:32.69	8.99	4.46	-40.6	-59.7	3.8	7.45e-01	0	54	104	0	52	32962
2026-01-25 02:14:35.71	8.83	4.67	-40.6	-59.7	3.8	7.47e-01	0	55	104	0	52	32997
2026-01-25 02:14:38.74	8.68	4.88	-40.6	-59.7	3.8	7.46e-01	0	55	104	0	52	32959
2026-01-25 02:14:41.77	8.52	5.10	-40.6	-59.7	3.8	7.44e-01	0	55	104	0	52	32974
2026-01-25 02:14:44.80	8.36	5.32	-40.6	-59.7	3.8	7.46e-01	0	55	104	0	52	32938
2026-01-25 02:14:47.84	8.19	5.53	-40.6	-59.7	3.8	7.46e-01	0	55	104	0	52	32940
2026-01-25 02:14:50.87	8.02	5.75	-40.6	-59.7	3.8	7.44e-01	0	55	104	0	52	32970
2026-01-25 02:14:53.90	7.85	5.98	-40.6	-59.7	3.8	7.44e-01	0	55	104	0	52	33013
2026-01-25 02:14:56.93	7.68	6.20	-40.6	-59.7	3.8	7.43e-01	0	56	104	0	52	32995
2026-01-25 02:14:59.97	7.50	6.43	-40.6	-59.7	3.8	7.44e-01	0	56	104	0	52	32945
2026-01-25 02:15:03.00	7.32	6.66	-40.7	-59.7	3.8	7.46e-01	0	56	104	0	52	32991
2026-01-25 02:15:06.03	7.14	6.88	-40.6	-59.7	3.8	7.46e-01	0	56	104	0	52	32994
2026-01-25 02:15:09.06	6.95	7.12	-40.6	-59.7	3.8	7.45e-01	0	56	104	0	52	32971
2026-01-25 02:15:12.09	6.76	7.35	-40.6	-59.7	3.8	7.47e-01	0	56	104	0	52	32986
2026-01-25 02:15:15.12	6.57	7.59	-40.6	-59.7	3.8	7.47e-01	0	56	104	0	52	32986
2026-01-25 02:15:18.16	6.37	7.83	-40.6	-59.7	3.8	7.44e-01	0	57	104	0	52	32968
2026-01-25 02:15:21.19	6.17	8.07	-40.6	-59.7	3.8	7.42e-01	0	57	104	0	52	32949
2026-01-25 02:15:24.22	5.96	8.31	-40.8	-59.8	3.8	7.47e-01	0	57	104	0	52	33392
2026-01-25 02:15:27.25	5.75	8.55	-40.8	-59.9	3.8	7.43e-01	0	57	104	0	52	33823
2026-01-25 02:15:30.28	5.54	8.80	-40.7	-59.7	3.8	7.45e-01	0	57	104	0	52	33305
2026-01-25 02:15:33.31	5.32	9.05	-40.9	-60.0	3.8	7.43e-01	0	57	104	0	52	34155
2026-01-25 02:15:36.34	5.10	9.30	-40.8	-59.8	3.8	7.42e-01	0	57	104	0	52	33541
2026-01-25 02:15:39.36	4.88	9.56	-40.9	-60.0	3.8	7.43e-01	0	57	104	0	52	34156
2026-01-25 02:15:42.39	4.65	9.81	-40.8	-59.8	3.8	7.47e-01	0	57	104	0	53	31682
2026-01-25 02:15:45.42	4.41	10.07	-41.1	-60.1	3.8	7.45e-01	0	57	104	0	53	32774
2026-01-25 02:15:48.46	4.17	10.34	-40.7	-59.8	3.8	7.48e-01	0	57	104	0	53	31455
2026-01-25 02:15:51.48	3.92	10.60	-41.1	-60.1	3.8	7.44e-01	0	57	104	0	53	32628
2026-01-25 02:15:54.51	3.67	10.87	-40.9	-59.9	3.8	7.45e-01	0	58	104	0	53	32090
2026-01-25 02:15:57.54	3.42	11.14	-41.0	-60.0	3.8	7.44e-01	0	58	104	0	53	32319
2026-01-25 02:16:00.57	3.16	11.41	-41.5	-60.5	3.8	7.45e-01	0	58	104	0	54	32507
2026-01-25 02:16:03.60	2.89	11.69	-41.0	-60.0	3.8	7.42e-01	0	58	104	0	53	32418
2026-01-25 02:16:06.63	2.62	11.97	-41.2	-60.1	3.8	7.44e-01	0	58	104	0	53	32557
2026-01-25 02:16:09.66	2.34	12.25	-41.3	-60.1	3.8	7.45e-01	0	58	104	0	54	30873
2026-01-25 02:16:12.68	2.06	12.53	-41.4	-60.0	3.8	7.48e-01	0	58	104	0	54	30412
2026-01-25 02:16:15.71	1.77	12.82	-42.4	-57.8	4.0	7.37e-01	0	58	104	0	55	22265
2026-01-25 02:16:18.74	1.47	13.11	-43.0	-54.4	4.3	7.12e-01	0	58	104	1048576	56	14366
2026-01-25 02:16:21.77	1.17	13.40	-42.8	-50.6	10.6	6.16e-01	0	58	0	5767168	56	9219
2026-01-25 02:16:24.80	0.86	13.70	-41.3	-45.9	15.5	6.00e-01	0	58	0	11534336	54	6042
2026-01-25 02:16:27.83	0.54	14.00	-40.2	-43.7	17.8	6.01e-01	0	58	0	17301504	52	5245
2026-01-25 02:16:30.86	0.22	14.30	-40.7	-44.6	17.0	6.01e-01	0	59	0	23068672	52	5817
2026-01-25 02:16:33.89	359.89	14.61	-40.8	-44.6	17.2	6.02e-01	0	59	0	28835840	52	5797
2026-01-25 02:16:36.92	359.55	14.92	-40.7	-44.3	17.7	6.02e-01	0	59	0	34603008	52	5600
2026-01-25 02:16:39.95	359.20	15.24	-40.8	-44.2	17.8	6.00e-01	0	59	0	39845888	52	5592
2026-01-25 02:16:42.98	358.84	15.55	-41.0	-44.5	17.7	6.01e-01	0	59	0	45613056	52	5776
2026-01-25 02:16:46.00	358.48	15.87	-40.9	-44.3	18.0	5.99e-01	0	59	0	51380224	52	5607
2026-01-25 02:16:49.04	358.11	16.20	-40.7	-44.1	18.1	5.99e-01	0	59	0	57147392	52	5495
2026-01-25 02:16:52.06	357.73	16.53	-40.8	-44.4	17.7	6.00e-01	0	59	0	62914560	52	5682
2026-01-25 02:16:55.09	357.34	16.86	-40.6	-44.2	17.7	6.02e-01	0	59	0	68681728	52	5556
2026-01-25 02:16:58.12	356.94	17.19	-40.5	-44.0	17.7	6.01e-01	0	59	0	73924608	52	5445
2026-01-25 02:17:01.15	356.53	17.53	-40.5	-44.4	17.1	6.01e-01	0	59	0	79691776	52	5700
2026-01-25 02:17:04.17	356.11	17.87	-41.6	-48.0	12.9	6.03e-01	0	59	0	85458944	53	8148
2026-01-25 02:17:07.20	355.68	18.22	-42.2	-52.9	7.4	6.57e-01	92	59	0	91226112	54	13519
2026-01-25 02:17:10.23	355.23	18.57	-42.3	-59.3	3.9	7.42e-01	0	59	104	92274688	55	26566
2026-01-25 02:17:13.26	354.78	18.92	-42.8	-61.7	3.8	7.45e-01	0	59	104	92274688	56	32952
2026-01-25 02:17:16.29	354.32	19.28	-42.9	-58.8	4.1	7.35e-01	0	59	104	92274688	56	23671
2026-01-25 02:17:19.31	353.84	19.64	-43.9	-62.4	3.8	7.44e-01	0	59	104	92274688	58	32028
2026-01-25 02:17:22.34	353.35	20.01	-42.8	-56.9	4.9	7.15e-01	0	59	0	92274688	57	17903
2026-01-25 02:17:25.37	352.85	20.38	-43.3	-55.3	6.1	6.85e-01	75	60	0	94371840	57	14985
2026-01-25 02:17:28.40	352.34	20.75	-43.3	-54.0	7.2	6.56e-01	90	60	0	96993280	57	12871
2026-01-25 02:17:31.43	351.81	21.12	-42.7	-49.7	11.7	6.12e-01	0	59	0	102760448	57	7891
2026-01-25 02:17:34.46	351.27	21.51	-41.3	-45.8	15.7	6.03e-01	0	60	0	108527616	54	5962
2026-01-25 02:17:37.49	350.71	21.89	-40.5	-44.1	17.4	6.03e-01	0	59	0	114294784	52	5526
2026-01-25 02:17:40.52	350.14	22.28	-40.6	-44.0	18.0	6.06e-01	0	60	0	120061952	52	5428
2026-01-25 02:17:43.55	349.55	22.67	-40.9	-44.4	17.9	6.04e-01	0	59	0	125829120	52	5685
2026-01-25 02:17:46.57	348.95	23.06	-41.2	-44.7	17.9	6.03e-01	0	60	0	131072000	53	5555
2026-01-25 02:17:49.60	348.33	23.46	-41.5	-45.1	17.7	6.03e-01	0	60	0	136839168	53	5800
2026-01-25 02:17:52.63	347.69	23.86	-41.4	-44.7	18.3	6.04e-01	0	60	0	142606336	53	5559
2026-01-25 02:17:55.66	347.04	24.26	-41.4	-44.6	18.5	6.04e-01	0	60	0	148373504	53	5486
2026-01-25 02:17:58.69	346.36	24.67	-41.4	-44.5	18.6	6.02e-01	0	60	0	154140672	53	5452
2026-01-25 02:18:01.72	345.67	25.07	-41.3	-44.4	18.8	6.01e-01	0	60	0	159907840	53	5382
2026-01-25 02:18:04.74	344.96	25.48	-41.4	-44.6	18.7	6.03e-01	0	60	0	165150720	53	5473
2026-01-25 02:18:07.77	344.23	25.90	-41.4	-44.5	18.8	6.01e-01	0	60	0	170917888	53	5464
2026-01-25 02:18:10.80	343.48	26.31	-41.5	-44.5	18.9	6.03e-01	0	60	0	176685056	53	5452
2026-01-25 02:18:13.83	342.71	26.73	-41.3	-44.3	19.2	6.04e-01	0	60	0	182452224	53	5295
2026-01-25 02:18:16.86	341.92	27.14	-41.4	-44.3	19.3	6.03e-01	0	60	0	188219392	53	5305
2026-01-25 02:18:19.89	341.10	27.56	-41.5	-44.4	19.1	6.04e-01	0	60	0	193986560	53	5389
2026-01-25 02:18:22.92	340.27	27.98	-41.4	-44.3	19.3	6.04e-01	0	60	0	199229440	53	5299
2026-01-25 02:18:25.94	339.41	28.40	-41.2	-44.0	19.6	6.05e-01	0	60	0	204996608	53	5157
2026-01-25 02:18:28.97	338.52	28.82	-41.2	-44.0	19.7	6.02e-01	0	60	0	210763776	53	5122
2026-01-25 02:18:32.00	337.61	29.24	-41.2	-44.0	19.7	6.05e-01	0	60	0	216530944	53	5123
2026-01-25 02:18:35.03	336.68	29.65	-41.3	-44.1	19.5	6.03e-01	0	60	0	222298112	53	5161
2026-01-25 02:18:38.06	335.72	30.07	-41.1	-43.8	19.8	6.03e-01	0	60	0	228065280	53	4995
2026-01-25 02:18:41.09	334.73	30.48	-41.1	-43.8	19.8	6.02e-01	0	60	0	233308160	53	5029
2026-01-25 02:18:44.12	333.72	30.88	-41.2	-44.0	19.7	6.05e-01	0	60	0	239075328	53	5116
2026-01-25 02:18:47.14	332.69	31.29	-41.1	-43.8	19.8	6.04e-01	0	60	0	244842496	53	5031
2026-01-25 02:18:50.18	331.62	31.69	-41.2	-44.0	19.7	6.01e-01	0	60	0	250609664	53	5130
2026-01-25 02:18:53.20	330.53	32.08	-41.2	-43.9	19.8	6.02e-01	0	60	0	256376832	53	5047
2026-01-25 02:18:56.23	329.40	32.47	-41.3	-44.0	19.7	6.04e-01	0	60	0	262144000	53	5129
2026-01-25 02:18:59.26	328.25	32.85	-41.3	-44.0	19.8	6.04e-01	0	60	0	267386880	53	5146
2026-01-25 02:19:02.29	327.08	33.22	-41.3	-44.1	19.7	6.04e-01	0	60	0	273154048	53	5183
2026-01-25 02:19:05.32	325.87	33.59	-41.4	-44.2	19.5	6.03e-01	0	60	0	278921216	53	5271
2026-01-25 02:19:08.34	324.64	33.94	-41.5	-44.4	19.4	6.04e-01	0	60	0	284688384	53	5343
2026-01-25 02:19:11.37	323.38	34.28	-41.6	-44.6	19.2	6.03e-01	0	60	0	290455552	53	5501
2026-01-25 02:19:14.40	322.09	34.61	-41.6	-44.5	19.2	6.05e-01	0	60	0	295698432	53	5431
2026-01-25 02:19:17.43	320.78	34.93	-41.7	-44.7	19.0	6.02e-01	0	60	0	301465600	53	5565
2026-01-25 02:19:20.46	319.44	35.23	-41.8	-44.9	18.9	6.03e-01	0	60	0	307232768	54	5359
2026-01-25 02:19:23.49	318.07	35.52	-41.8	-44.8	19.0	6.02e-01	0	60	0	312999936	54	5282
2026-01-25 02:19:26.52	316.68	35.80	-41.9	-45.0	18.7	6.03e-01	0	61	0	318767104	54	5454
2026-01-25 02:19:29.54	315.27	36.05	-41.9	-45.0	18.7	6.04e-01	0	60	0	324534272	54	5440
2026-01-25 02:19:32.57	313.83	36.29	-42.0	-45.1	18.6	6.01e-01	0	60	0	330301440	54	5513
2026-01-25 02:19:35.60	312.38	36.51	-42.2	-45.4	18.4	6.04e-01	0	60	0	335544320	54	5703
2026-01-25 02:19:38.63	310.90	36.71	-41.8	-44.8	19.0	6.05e-01	0	60	0	341311488	54	5307
2026-01-25 02:19:41.66	309.40	36.89	-42.1	-45.3	18.5	6.05e-01	0	60	0	347078656	54	5641
2026-01-25 02:19:44.69	307.89	37.05	-42.1	-45.2	18.6	6.02e-01	0	60	0	352845824	54	5568
2026-01-25 02:19:47.72	306.36	37.19	-42.1	-45.3	18.5	6.02e-01	0	60	0	358612992	55	5313
2026-01-25 02:19:50.75	304.82	37.31	-42.1	-45.2	18.7	6.03e-01	0	60	0	363855872	55	5243
2026-01-25 02:19:53.78	303.28	37.40	-41.9	-44.9	19.0	6.01e-01	0	60	0	369623040	55	5073
2026-01-25 02:19:56.81	301.72	37.47	-42.0	-45.1	18.7	6.03e-01	0	60	0	375390208	55	5200
2026-01-25 02:19:59.84	300.16	37.51	-41.9	-45.0	18.7	6.02e-01	0	60	0	381157376	55	5152
2026-01-25 02:20:02.87	298.59	37.53	-42.0	-45.2	18.5	6.04e-01	0	61	0	386924544	55	5235
2026-01-25 02:20:05.90	297.02	37.53	-42.6	-46.2	17.6	6.03e-01	0	60	0	392691712	55	5896
2026-01-25 02:20:08.92	295.46	37.51	-42.0	-45.1	18.7	6.05e-01	0	60	0	398458880	55	5201
2026-01-25 02:20:11.95	293.90	37.46	-41.5	-44.3	19.4	6.02e-01	0	61	0	403701760	55	4729
2026-01-25 02:20:14.98	292.34	37.38	-42.5	-46.1	17.4	6.03e-01	0	61	0	409468928	55	5848
2026-01-25 02:20:18.01	290.79	37.29	-41.8	-44.9	18.9	6.05e-01	0	61	0	415236096	55	5043
2026-01-25 02:20:21.03	289.26	37.17	-41.9	-44.9	18.6	6.05e-01	0	61	0	421003264	55	5072
2026-01-25 02:20:24.06	287.73	37.03	-41.8	-44.8	19.0	6.06e-01	0	61	0	426770432	55	5005
2026-01-25 02:20:27.09	286.22	36.86	-42.1	-45.4	18.4	6.01e-01	0	61	0	432013312	55	5356
2026-01-25 02:20:30.12	284.73	36.68	-42.2	-45.5	18.3	6.00e-01	0	61	0	437780480	55	5418
2026-01-25 02:20:33.15	283.25	36.47	-41.9	-45.0	18.6	6.05e-01	0	61	0	443547648	55	5155
2026-01-25 02:20:36.18	281.79	36.25	-41.8	-44.8	18.8	6.03e-01	0	61	0	449314816	55	5008
2026-01-25 02:20:39.20	280.36	36.01	-41.9	-45.0	18.5	6.03e-01	0	61	0	455081984	55	5147
2026-01-25 02:20:42.23	278.95	35.75	-41.9	-45.0	18.5	6.05e-01	0	61	0	460849152	55	5117
2026-01-25 02:20:45.26	277.56	35.47	-42.5	-46.1	17.4	6.03e-01	0	61	0	466616320	55	5821
2026-01-25 02:20:48.29	276.19	35.18	-42.2	-45.6	17.8	6.05e-01	0	60	0	471859200	55	5520
2026-01-25 02:20:51.32	274.86	34.87	-43.0	-47.0	16.4	6.03e-01	0	60	0	477626368	56	6094
2026-01-25 02:20:54.35	273.54	34.55	-42.4	-45.8	17.7	6.06e-01	0	61	0	483393536	56	5312
2026-01-25 02:20:57.37	272.26	34.21	-42.1	-45.4	18.0	6.01e-01	0	60	0	489160704	55	5377
2026-01-25 02:21:00.40	271.00	33.87	-42.1	-45.4	17.8	6.03e-01	0	61	0	494927872	55	5396
2026-01-25 02:21:03.43	269.77	33.51	-41.6	-44.6	18.6	6.02e-01	0	61	0	500170752	55	4916
2026-01-25 02:21:06.46	268.56	33.14	-41.5	-44.5	18.8	6.03e-01	0	61	0	505937920	55	4830
2026-01-25 02:21:09.49	267.39	32.77	-41.3	-44.2	19.2	6.02e-01	0	61	0	511705088	54	4932
2026-01-25 02:21:12.52	266.24	32.39	-41.4	-44.2	19.1	6.02e-01	0	61	0	517472256	54	4979
2026-01-25 02:21:15.55	265.12	32.00	-41.3	-44.2	19.0	6.05e-01	0	60	0	523239424	54	4957
2026-01-25 02:21:18.58	264.03	31.60	-41.4	-44.3	18.9	6.04e-01	0	61	0	529006592	54	5009
2026-01-25 02:21:21.61	262.96	31.20	-41.9	-45.1	18.2	6.03e-01	0	61	0	534773760	54	5524
2026-01-25 02:21:24.64	261.92	30.79	-41.8	-44.9	18.8	6.02e-01	0	61	0	540016640	54	5353
2026-01-25 02:21:27.66	260.92	30.38	-41.6	-44.6	19.1	6.04e-01	0	61	0	545783808	54	5161
2026-01-25 02:21:30.69	259.93	29.97	-41.9	-45.1	18.5	6.02e-01	0	61	0	551550976	54	5482
2026-01-25 02:21:33.72	258.97	29.55	-41.6	-44.6	19.0	6.03e-01	0	61	0	557318144	55	4891
2026-01-25 02:21:36.75	258.04	29.13	-41.6	-44.6	19.0	6.04e-01	0	61	0	563085312	55	4908
2026-01-25 02:21:39.78	257.13	28.71	-41.7	-44.7	19.0	6.05e-01	0	61	0	568328192	55	4934
2026-01-25 02:21:42.81	256.25	28.29	-41.6	-44.5	19.1	6.05e-01	0	61	0	574095360	55	4842
2026-01-25 02:21:45.84	255.39	27.87	-41.8	-44.9	18.7	6.04e-01	0	61	0	579862528	55	5098
2026-01-25 02:21:48.86	254.55	27.45	-41.6	-44.6	19.0	6.05e-01	0	61	0	585629696	55	4904
2026-01-25 02:21:51.89	253.74	27.03	-41.8	-44.9	18.7	6.02e-01	0	61	0	591396864	55	5069
2026-01-25 02:21:54.92	252.94	26.61	-41.8	-44.8	18.8	6.01e-01	0	61	0	597164032	55	5034
2026-01-25 02:21:57.95	252.17	26.19	-41.7	-44.8	18.6	6.02e-01	0	61	0	602406912	55	5014
2026-01-25 02:22:00.99	251.42	25.78	-41.8	-44.9	18.7	6.04e-01	0	61	0	608174080	55	5060
2026-01-25 02:22:04.02	250.69	25.36	-41.8	-44.9	18.7	6.04e-01	0	61	0	613941248	55	5057
2026-01-25 02:22:07.05	249.98	24.95	-41.8	-45.0	18.6	6.03e-01	0	61	0	619708416	55	5114
2026-01-25 02:22:10.08	249.29	24.54	-41.8	-45.0	18.6	6.00e-01	0	61	0	625475584	55	5115
2026-01-25 02:22:13.11	248.62	24.13	-41.9	-45.1	18.5	6.03e-01	0	61	0	631242752	55	5173
2026-01-25 02:22:16.14	247.96	23.73	-41.7	-44.9	18.7	6.06e-01	0	61	0	636485632	55	5042
2026-01-25 02:22:19.17	247.33	23.33	-41.8	-45.0	18.5	6.00e-01	0	61	0	642252800	55	5120
2026-01-25 02:22:22.20	246.71	22.93	-41.8	-45.0	18.5	6.04e-01	0	61	0	648019968	55	5134
2026-01-25 02:22:25.22	246.11	22.53	-41.9	-45.2	18.3	6.05e-01	0	61	0	653787136	55	5256
2026-01-25 02:22:28.25	245.52	22.14	-41.9	-45.2	18.3	6.04e-01	0	61	0	659554304	55	5264
2026-01-25 02:22:31.28	244.95	21.75	-41.8	-45.0	18.5	6.05e-01	0	61	0	665321472	55	5133
2026-01-25 02:22:34.30	244.39	21.37	-41.9	-45.2	18.3	6.03e-01	0	61	0	670564352	55	5223
2026-01-25 02:22:37.33	243.85	20.99	-41.8	-45.0	18.4	6.04e-01	0	61	0	676331520	55	5159
2026-01-25 02:22:40.36	243.32	20.61	-41.7	-44.7	18.7	6.06e-01	0	61	0	682098688	55	4980
2026-01-25 02:22:43.39	242.80	20.24	-41.8	-45.1	18.3	6.03e-01	0	61	0	687865856	55	5188
2026-01-25 02:22:46.42	242.30	19.87	-41.8	-44.9	18.5	6.02e-01	0	61	0	693633024	55	5097
2026-01-25 02:22:49.45	241.81	19.50	-41.8	-45.0	18.5	6.03e-01	0	61	0	699400192	55	5115
2026-01-25 02:22:52.48	241.34	19.14	-41.8	-45.0	18.5	6.03e-01	0	61	0	704643072	55	5114
2026-01-25 02:22:55.50	240.87	18.78	-41.8	-45.0	18.5	6.04e-01	0	61	0	710410240	55	5111
2026-01-25 02:22:58.53	240.42	18.43	-41.6	-44.6	18.8	6.03e-01	0	61	0	716177408	55	4923
2026-01-25 02:23:01.56	239.98	18.08	-41.7	-44.8	18.6	6.03e-01	0	61	0	721944576	55	5009
2026-01-25 02:23:04.59	239.54	17.73	-41.8	-45.1	18.3	6.06e-01	0	61	0	727711744	55	5178
2026-01-25 02:23:07.62	239.12	17.39	-41.8	-45.1	18.3	6.03e-01	0	61	0	733478912	55	5200
2026-01-25 02:23:10.64	238.71	17.05	-41.7	-45.0	18.4	6.04e-01	0	61	0	738721792	55	5101
2026-01-25 02:23:13.67	238.31	16.71	-41.7	-45.0	18.4	6.05e-01	0	61	0	744488960	55	5103
2026-01-25 02:23:16.70	237.92	16.38	-41.7	-44.9	18.5	6.05e-01	0	61	0	750256128	55	5047
2026-01-25 02:23:19.73	237.54	16.05	-41.7	-45.0	18.4	6.03e-01	0	61	0	756023296	55	5107
2026-01-25 02:23:22.75	237.16	15.73	-41.6	-44.8	18.6	6.04e-01	0	61	0	761790464	55	4994
2026-01-25 02:23:25.79	236.80	15.40	-41.7	-45.0	18.3	6.01e-01	0	61	0	767557632	55	5122
2026-01-25 02:23:28.81	236.44	15.09	-41.9	-45.2	18.1	6.01e-01	0	61	0	772800512	55	5248
2026-01-25 02:23:31.84	236.09	14.77	-41.8	-45.2	18.1	6.02e-01	0	61	0	778567680	55	5225
2026-01-25 02:23:34.87	235.75	14.46	-41.6	-44.8	18.5	6.04e-01	0	61	0	784334848	55	5001
2026-01-25 02:23:37.90	235.42	14.15	-41.8	-45.1	18.1	6.05e-01	0	61	0	790102016	55	5208
2026-01-25 02:23:40.93	235.09	13.85	-41.8	-45.1	18.1	6.05e-01	0	61	0	795869184	55	5212
2026-01-25 02:23:43.96	234.78	13.55	-41.7	-45.0	18.2	6.04e-01	0	61	0	801636352	55	5141
2026-01-25 02:23:46.99	234.46	13.25	-41.8	-45.1	18.1	6.04e-01	0	61	0	806879232	55	5171
2026-01-25 02:23:50.01	234.16	12.96	-41.9	-45.3	17.9	6.02e-01	0	61	0	812646400	55	5328
2026-01-25 02:23:53.04	233.86	12.67	-41.9	-45.3	17.9	6.02e-01	0	61	0	818413568	55	5311
2026-01-25 02:23:56.07	233.57	12.38	-41.8	-45.2	18.0	6.05e-01	0	61	0	824180736	55	5242
2026-01-25 02:23:59.10	233.28	12.09	-41.8	-45.3	17.9	6.04e-01	0	61	0	829947904	55	5301
2026-01-25 02:24:02.13	233.01	11.81	-41.9	-45.4	17.7	6.04e-01	0	61	0	835715072	55	5385
2026-01-25 02:24:05.16	232.73	11.53	-41.9	-45.5	17.7	6.03e-01	0	61	0	840957952	55	5417
2026-01-25 02:24:08.19	232.46	11.26	-41.9	-45.5	17.6	6.02e-01	0	61	0	846725120	55	5438
2026-01-25 02:24:11.22	232.20	10.98	-42.0	-45.6	17.5	6.03e-01	0	61	0	852492288	55	5505
2026-01-25 02:24:14.25	231.94	10.71	-42.0	-45.6	17.4	6.04e-01	0	61	0	858259456	55	5499
2026-01-25 02:24:17.28	231.69	10.44	-42.0	-45.7	17.3	6.03e-01	0	61	0	864026624	55	5586
2026-01-25 02:24:20.30	231.44	10.18	-42.1	-45.8	17.2	6.03e-01	0	61	0	869269504	55	5643
2026-01-25 02:24:23.33	231.20	9.92	-42.0	-45.6	17.3	6.05e-01	0	61	0	875036672	55	5526
2026-01-25 02:24:26.36	230.97	9.66	-42.0	-45.8	17.2	6.04e-01	0	61	0	880803840	55	5631
2026-01-25 02:24:29.39	230.73	9.40	-42.1	-45.9	17.0	6.04e-01	0	61	0	886571008	55	5687
2026-01-25 02:24:32.42	230.50	9.14	-42.0	-45.7	17.2	6.00e-01	0	61	0	892338176	55	5558
2026-01-25 02:24:35.44	230.28	8.89	-42.1	-45.9	17.0	6.05e-01	0	61	0	898105344	55	5694
2026-01-25 02:24:38.47	230.06	8.64	-42.1	-45.9	16.9	6.01e-01	0	61	0	903872512	55	5718
2026-01-25 02:24:41.50	229.85	8.40	-42.1	-46.1	16.7	6.02e-01	0	61	0	909115392	55	5836
2026-01-25 02:24:44.53	229.63	8.15	-42.2	-46.4	16.4	6.03e-01	0	61	0	914882560	55	6007
2026-01-25 02:24:47.56	229.43	7.91	-45.5	-63.4	3.8	7.48e-01	0	61	104	919076864	61	30117
2026-01-25 02:24:50.59	229.22	7.67	-46.1	-64.6	3.8	7.45e-01	0	61	104	919076864	62	32822
2026-01-25 02:24:53.62	229.02	7.43	-46.2	-64.8	3.8	7.44e-01	0	61	104	919076864	63	31636
2026-01-25 02:24:56.65	228.83	7.19	-46.3	-64.8	3.8	7.43e-01	0	61	104	919076864	63	31641
2026-01-25 02:24:59.68	228.63	6.96	-46.2	-64.7	3.8	7.45e-01	0	61	104	919076864	63	31172
2026-01-25 02:25:02.71	228.45	6.73	-46.2	-64.7	3.8	7.46e-01	0	61	104	919076864	63	31277
2026-01-25 02:25:05.74	228.26	6.50	-46.1	-64.6	3.8	7.46e-01	0	61	104	919076864	63	30992
2026-01-25 02:25:08.77	228.08	6.27	-46.1	-64.6	3.8	7.47e-01	0	61	104	919076864	63	30996
2026-01-25 02:25:11.80	227.90	6.04	-46.1	-64.6	3.8	7.41e-01	0	61	104	919076864	63	30946
2026-01-25 02:25:14.83	227.72	5.82	-46.1	-64.6	3.8	7.44e-01	0	61	104	919076864	63	31005
2026-01-25 02:25:17.87	227.55	5.59	-46.1	-64.6	3.8	7.42e-01	0	61	104	919076864	63	30998
2026-01-25 02:25:20.90	227.38	5.37	-46.1	-64.6	3.8	7.49e-01	0	61	104	919076864	63	30971
2026-01-25 02:25:23.93	227.21	5.15	-46.1	-64.6	3.8	7.46e-01	0	61	104	919076864	63	30940
2026-01-25 02:25:26.96	227.04	4.94	-46.1	-64.6	3.8	7.44e-01	0	61	104	919076864	63	30929
2026-01-25 02:25:29.99	226.88	4.72	-46.1	-64.6	3.8	7.41e-01	0	61	104	919076864	63	30969
2026-01-25 02:25:33.03	226.72	4.51	-46.1	-64.6	3.8	7.48e-01	0	61	104	919076864	63	30948
2026-01-25 02:25:36.06	226.57	4.30	-46.1	-64.6	3.8	7.47e-01	0	61	104	919076864	63	30933
2026-01-25 02:25:39.09	226.41	4.09	-46.1	-64.6	3.8	7.46e-01	0	61	104	919076864	63	30880
2026-01-25 02:25:42.12	226.26	3.88	-46.1	-64.6	3.8	7.46e-01	0	61	104	919076864	63	30908
2026-01-25 02:25:45.15	226.11	3.67	-46.1	-64.6	3.8	7.47e-01	0	61	104	919076864	63	30912
2026-01-25 02:25:48.18	225.97	3.47	-46.1	-64.6	3.8	7.45e-01	0	61	104	919076864	63	30893
2026-01-25 02:25:51.21	225.82	3.26	-46.1	-64.6	3.8	7.42e-01	0	62	104	919076864	63	30864
2026-01-25 02:25:54.25	225.68	3.06	-46.1	-64.6	3.8	7.44e-01	0	61	104	919076864	63	30953
2026-01-25 02:25:57.28	225.54	2.86	-46.1	-64.6	3.8	7.47e-01	0	61	104	919076864	63	30886
2026-01-25 02:26:00.31	225.40	2.66	-46.1	-64.6	3.8	7.46e-01	0	61	104	919076864	63	30888
2026-01-25 02:26:03.34	225.27	2.46	-46.1	-64.6	3.8	7.45e-01	0	62	104	919076864	63	30877
2026-01-25 02:26:06.37	225.13	2.26	-46.1	-64.6	3.8	7.47e-01	0	61	104	919076864	63	30902
2026-01-25 02:26:09.40	225.00	2.07	-46.1	-64.6	3.8	7.44e-01	0	62	104	919076864	63	30789

#Closed at: 2026-01-25 02:26:10
#Recorded file [919 MB]: D:/lorett/data/31039_260125_051356.dat