passes_logs/2026/01/25/R2.0S_Moscow/R2.0S_Moscow__20260125_090819_NOAA_21_JPSS-2_rec.log

#Pass ID: 20260125_090819_NOAA 21 (JPSS-2)
#Satellite: NOAA 21 (JPSS-2)
#Configuration: NOAA-21
#almurnet v.1.7.20251203
#Start time: 2026-01-25 09:08:20

#Version: 2.2.20231116
#Station: R2.0S_Moscow
#Location: 37.707566 lon 55.798166 lat
#TLE: 1 54234U 22150A   26024.45772595  .00000201  00000+0  11607-3 0  9996
#TLE: 2 54234  98.7508 325.2435 0000728 220.7365 139.3757 14.19538765166156

#Time	Az	El	Level	Level2	SNR	BER	BlckErr	Temp	State	Recorded	gain1	gain2
2026-01-25 09:08:20.50	137.82	2.06	-33.4	-47.7	4.3	1.51e+00	0	52	0	0	31	27879
2026-01-25 09:08:24.55	137.69	2.32	-31.9	-45.2	3.6	1.52e+00	0	53	104	0	19	41840
2026-01-25 09:08:28.59	137.56	2.57	-32.1	-47.6	4.1	1.51e+00	0	53	104	0	34	23181
2026-01-25 09:08:32.63	137.43	2.83	-28.1	-45.8	3.9	1.52e+00	0	53	104	0	27	28149
2026-01-25 09:08:36.67	137.29	3.09	-30.9	-44.0	4.1	1.52e+00	0	54	104	0	29	20414
2026-01-25 09:08:40.71	137.15	3.36	-31.5	-45.5	4.2	1.51e+00	0	54	104	0	29	24302
2026-01-25 09:08:44.75	137.01	3.62	-30.4	-44.7	4.2	1.52e+00	0	54	104	0	29	22232
2026-01-25 09:08:48.79	136.86	3.89	-29.2	-43.3	3.8	1.52e+00	0	54	104	0	22	28197
2026-01-25 09:08:52.83	136.72	4.16	-18.8	-38.6	4.5	1.51e+00	0	55	104	0	13	27398
2026-01-25 09:08:56.87	136.56	4.44	-20.3	-40.7	3.4	1.52e+00	0	55	104	0	11	39297
2026-01-25 09:09:00.91	136.41	4.71	-23.5	-38.4	4.0	1.51e+00	0	55	104	0	23	15079
2026-01-25 09:09:04.95	136.25	4.99	-20.2	-36.0	3.7	1.52e+00	0	55	104	0	11	22897
2026-01-25 09:09:08.99	136.09	5.27	-28.5	-44.9	4.0	1.51e+00	0	55	104	0	27	25390
2026-01-25 09:09:13.04	135.93	5.56	-31.6	-45.4	4.1	1.52e+00	0	56	104	0	29	23938
2026-01-25 09:09:17.08	135.76	5.84	-20.8	-38.1	4.1	1.51e+00	0	56	104	0	29	10330
2026-01-25 09:09:21.11	135.59	6.13	-28.9	-43.5	3.9	1.52e+00	0	56	104	0	28	20454
2026-01-25 09:09:25.16	135.42	6.43	-29.8	-44.6	4.0	1.51e+00	0	57	104	0	31	19390
2026-01-25 09:09:29.20	135.24	6.72	-27.6	-44.1	3.8	1.51e+00	0	57	104	0	28	21937
2026-01-25 09:09:33.24	135.06	7.02	-32.9	-48.1	4.2	1.51e+00	0	57	104	0	34	24497
2026-01-25 09:09:37.28	134.87	7.32	-28.5	-45.1	4.1	1.51e+00	0	57	104	0	31	20613
2026-01-25 09:09:41.32	134.68	7.63	-16.9	-38.3	3.4	1.53e+00	0	57	104	0	12	28154
2026-01-25 09:09:45.36	134.49	7.94	-22.6	-37.0	4.4	1.52e+00	0	57	104	0	29	9142
2026-01-25 09:09:49.40	134.29	8.25	-26.3	-37.9	3.2	1.51e+00	0	57	104	0	11	28551
2026-01-25 09:09:53.44	134.09	8.57	-26.0	-41.1	4.0	1.51e+00	0	57	104	0	27	16424
2026-01-25 09:09:57.48	133.88	8.89	-26.4	-38.5	3.9	1.52e+00	0	58	104	0	25	13672
2026-01-25 09:10:01.52	133.67	9.21	-17.1	-28.4	3.8	1.51e+00	0	58	104	0	5	13469
2026-01-25 09:10:05.56	133.45	9.54	-19.0	-30.3	3.7	1.52e+00	0	58	104	0	6	15866
2026-01-25 09:10:09.60	133.22	9.87	-17.9	-31.1	3.7	1.52e+00	0	58	104	0	8	15550
2026-01-25 09:10:13.64	133.00	10.21	-21.2	-35.6	3.8	1.52e+00	0	58	104	0	16	16319
2026-01-25 09:10:17.67	132.76	10.54	-21.5	-35.0	3.9	1.51e+00	0	58	104	0	18	13634
2026-01-25 09:10:21.71	132.52	10.89	-16.9	-30.0	4.0	1.50e+00	0	58	104	0	15	9167
2026-01-25 09:10:25.75	132.28	11.24	-20.7	-35.4	4.1	1.51e+00	0	58	104	0	19	13439
2026-01-25 09:10:29.79	132.03	11.59	-29.2	-42.2	4.9	1.47e+00	0	59	104	0	28	17681
2026-01-25 09:10:33.83	131.77	11.95	-27.4	-42.2	4.6	1.50e+00	0	59	104	0	24	22125
2026-01-25 09:10:37.87	131.50	12.31	-28.2	-42.8	4.5	1.46e+00	0	58	104	0	27	19851
2026-01-25 09:10:41.90	131.23	12.67	-22.8	-33.9	4.3	1.47e+00	0	59	104	0	18	12019
2026-01-25 09:10:45.94	130.95	13.05	-23.3	-35.5	4.1	1.47e+00	0	59	104	0	21	12130
2026-01-25 09:10:49.98	130.67	13.42	-20.9	-33.4	3.9	1.48e+00	0	59	104	0	24	8030
2026-01-25 09:10:54.02	130.38	13.80	-31.3	-43.0	5.2	1.43e+00	0	59	104	0	32	15355
2026-01-25 09:10:58.06	130.07	14.19	-33.2	-42.9	7.4	1.15e+00	6	59	0	0	40	9507
2026-01-25 09:11:02.10	129.76	14.58	-33.5	-44.0	4.5	1.43e+00	0	59	104	0	38	12152
2026-01-25 09:11:06.13	129.45	14.98	-39.8	-44.6	8.4	1.19e+00	14	59	104	0	49	6927
2026-01-25 09:11:10.17	129.12	15.38	-40.4	-44.6	4.9	1.41e+00	0	59	104	6291456	47	7722
2026-01-25 09:11:14.21	128.78	15.79	-39.8	-43.7	11.3	3.12e-03	0	59	0	12582912	51	5562
2026-01-25 09:11:18.24	128.44	16.21	-37.2	-42.8	8.9	4.54e-02	0	59	0	25165824	47	6290
2026-01-25 09:11:22.28	128.08	16.63	-40.0	-42.7	12.7	2.30e-03	0	60	0	37748736	50	5260
2026-01-25 09:11:26.32	127.71	17.06	-39.3	-42.5	13.1	6.48e-05	0	60	0	50331648	50	5113
2026-01-25 09:11:30.36	127.34	17.49	-40.0	-42.5	13.1	1.22e-04	0	60	0	62914560	50	5149
2026-01-25 09:11:34.39	126.95	17.93	-40.0	-42.5	13.2	2.97e-05	0	60	0	75497472	50	5153
2026-01-25 09:11:38.44	126.55	18.38	-40.0	-42.4	13.3	2.05e-05	0	60	0	88080384	50	5076
2026-01-25 09:11:42.47	126.13	18.83	-39.9	-42.4	13.3	2.21e-05	0	60	0	100663296	50	5077
2026-01-25 09:11:46.51	125.71	19.29	-39.8	-42.1	13.7	3.00e-06	0	60	0	113246208	50	4874
2026-01-25 09:11:50.55	125.27	19.76	-39.7	-41.9	13.9	6.80e-06	0	60	0	125829120	50	4812
2026-01-25 09:11:54.60	124.81	20.24	-39.6	-41.8	14.1	3.80e-06	0	60	0	138412032	50	4723
2026-01-25 09:11:58.63	124.35	20.72	-39.3	-41.4	14.5	1.50e-06	0	60	0	150994944	50	4515
2026-01-25 09:12:02.67	123.86	21.21	-39.0	-41.0	14.9	0.00e+00	0	60	0	163577856	50	4329
2026-01-25 09:12:06.71	123.36	21.70	-38.8	-40.7	15.2	0.00e+00	0	60	0	176160768	49	4417
2026-01-25 09:12:10.74	122.85	22.21	-38.7	-40.6	15.3	0.00e+00	0	60	0	188743680	49	4351
2026-01-25 09:12:14.78	122.32	22.72	-38.8	-40.8	15.2	0.00e+00	0	60	0	201326592	49	4457
2026-01-25 09:12:18.82	121.77	23.24	-38.7	-40.6	15.4	0.00e+00	0	60	0	213909504	49	4350
2026-01-25 09:12:22.86	121.20	23.76	-38.8	-40.7	15.3	0.00e+00	0	60	0	226492416	49	4407
2026-01-25 09:12:26.90	120.60	24.30	-38.8	-40.7	15.4	0.00e+00	0	60	0	239075328	49	4399
2026-01-25 09:12:30.94	119.99	24.84	-38.8	-40.7	15.2	0.00e+00	0	60	0	251658240	49	4427
2026-01-25 09:12:34.98	119.36	25.39	-39.1	-41.0	14.9	7.00e-07	0	60	0	265289728	49	4594
2026-01-25 09:12:39.02	118.71	25.94	-39.2	-41.3	14.7	0.00e+00	0	60	0	277872640	49	4730
2026-01-25 09:12:43.06	118.03	26.51	-39.5	-41.6	14.4	1.50e-06	0	60	0	290455552	49	4896
2026-01-25 09:12:47.10	117.32	27.08	-39.7	-41.8	14.1	3.80e-06	0	61	0	303038464	49	5039
2026-01-25 09:12:51.14	116.59	27.66	-40.0	-42.3	13.7	3.80e-06	0	60	0	315621376	50	5025
2026-01-25 09:12:55.18	115.83	28.24	-39.6	-41.8	14.3	0.00e+00	0	60	0	328204288	50	4723
2026-01-25 09:12:59.21	115.05	28.83	-39.7	-41.9	14.1	7.00e-07	0	60	0	340787200	50	4800
2026-01-25 09:13:03.25	114.23	29.43	-39.9	-42.1	13.9	1.50e-06	0	60	0	353370112	50	4909
2026-01-25 09:13:07.28	113.39	30.03	-39.6	-41.7	14.4	1.50e-06	0	61	0	365953024	50	4662
2026-01-25 09:13:11.32	112.51	30.64	-39.8	-42.0	14.1	7.00e-07	0	61	0	378535936	50	4832
2026-01-25 09:13:15.36	111.59	31.26	-39.6	-41.7	14.4	2.20e-06	0	60	0	391118848	50	4681
2026-01-25 09:13:19.40	110.64	31.87	-39.6	-41.7	14.4	0.00e+00	0	60	0	403701760	50	4659
2026-01-25 09:13:23.44	109.65	32.50	-39.6	-41.7	14.3	0.00e+00	0	61	0	416284672	50	4691
2026-01-25 09:13:27.48	108.63	33.12	-39.8	-42.0	14.1	0.00e+00	0	61	0	428867584	50	4827
2026-01-25 09:13:31.52	107.56	33.75	-39.9	-42.1	14.0	3.80e-06	0	61	0	441450496	50	4926
2026-01-25 09:13:35.56	106.45	34.38	-40.3	-42.7	13.4	1.22e-05	0	61	0	454033408	51	4962
2026-01-25 09:13:39.60	105.30	35.01	-40.6	-43.1	13.1	4.19e-05	0	61	0	466616320	51	5168
2026-01-25 09:13:43.64	104.10	35.63	-40.7	-43.4	12.7	7.62e-05	0	61	0	479199232	52	5047
2026-01-25 09:13:47.68	102.85	36.26	-40.9	-43.6	12.5	1.03e-04	0	61	0	491782144	52	5179
2026-01-25 09:13:51.72	101.56	36.88	-41.0	-43.8	12.3	2.14e-04	0	61	0	504365056	52	5316
2026-01-25 09:13:55.76	100.21	37.49	-41.1	-44.0	12.0	2.83e-04	0	61	0	516947968	52	5454
2026-01-25 09:13:59.80	98.82	38.10	-40.9	-43.6	12.5	1.07e-04	0	61	0	529530880	52	5187
2026-01-25 09:14:03.83	97.37	38.69	-40.9	-43.6	12.5	1.20e-04	0	61	0	542113792	52	5181
2026-01-25 09:14:07.87	95.87	39.28	-41.0	-43.8	12.3	1.50e-04	0	61	0	554696704	52	5290
2026-01-25 09:14:11.91	94.31	39.85	-41.5	-44.6	11.5	9.81e-04	0	61	0	567279616	53	5492
2026-01-25 09:14:15.95	92.70	40.41	-41.5	-44.6	11.5	1.00e-03	0	61	0	579862528	53	5492
2026-01-25 09:14:19.99	91.04	40.95	-41.0	-43.7	12.4	1.56e-04	0	61	0	592445440	53	4965
2026-01-25 09:14:24.03	89.31	41.46	-41.0	-43.7	12.5	1.38e-04	0	61	0	606076928	53	4935
2026-01-25 09:14:28.06	87.54	41.96	-41.3	-44.3	11.8	3.86e-04	0	61	0	618659840	53	5280
2026-01-25 09:14:32.10	85.71	42.42	-41.3	-44.3	11.8	4.40e-04	0	61	0	631242752	53	5292
2026-01-25 09:14:36.14	83.82	42.86	-41.6	-44.7	11.4	9.50e-04	0	61	0	643825664	53	5577
2026-01-25 09:14:40.18	81.89	43.27	-41.3	-44.2	12.0	3.39e-04	0	61	0	656408576	53	5225
2026-01-25 09:14:44.21	79.91	43.65	-41.9	-45.1	11.1	1.26e-03	0	61	0	668991488	54	5527
2026-01-25 09:14:48.25	77.88	43.99	-41.6	-44.7	11.5	6.31e-04	0	61	0	681574400	54	5247
2026-01-25 09:14:52.29	75.82	44.29	-41.6	-44.6	11.6	6.38e-04	0	61	0	694157312	54	5177
2026-01-25 09:14:56.33	73.71	44.55	-41.4	-44.3	12.0	4.27e-04	0	61	0	706740224	54	4998
2026-01-25 09:15:00.36	71.58	44.76	-41.2	-44.0	12.3	1.91e-04	0	61	0	719323136	54	4825
2026-01-25 09:15:04.40	69.42	44.94	-41.0	-43.7	12.6	8.23e-05	0	61	0	731906048	53	4945
2026-01-25 09:15:08.44	67.23	45.07	-41.6	-44.6	11.7	7.03e-04	0	61	0	744488960	53	5486
2026-01-25 09:15:12.48	65.04	45.15	-41.6	-44.6	11.7	4.89e-04	0	61	0	757071872	53	5505
2026-01-25 09:15:16.52	62.83	45.19	-41.6	-44.6	11.6	7.38e-04	0	61	0	769654784	54	5201
2026-01-25 09:15:20.56	60.62	45.17	-41.2	-43.9	12.4	1.72e-04	0	61	0	782237696	54	4804
2026-01-25 09:15:24.60	58.42	45.12	-41.9	-45.1	11.0	1.91e-03	0	61	0	794820608	54	5513
2026-01-25 09:15:28.64	56.23	45.01	-41.6	-44.6	11.5	8.37e-04	0	61	0	807403520	54	5195
2026-01-25 09:15:32.68	54.06	44.86	-41.6	-44.6	11.5	8.06e-04	0	61	0	819986432	54	5201
2026-01-25 09:15:36.72	51.91	44.66	-41.7	-44.9	11.3	1.37e-03	0	61	0	832569344	54	5366
2026-01-25 09:15:40.75	49.80	44.43	-41.4	-44.3	11.9	4.50e-04	0	61	0	845152256	54	5039
2026-01-25 09:15:44.79	47.71	44.15	-41.4	-44.3	11.8	4.13e-04	0	61	0	857735168	54	5037
2026-01-25 09:15:48.83	45.66	43.83	-41.9	-45.2	11.0	1.32e-03	0	61	0	870318080	54	5542
2026-01-25 09:15:52.87	43.66	43.47	-41.4	-44.3	11.8	4.71e-04	0	61	0	882900992	54	5028
2026-01-25 09:15:56.91	41.71	43.08	-43.2	-47.8	8.4	4.31e-02	0	61	0	895483904	56	6702
2026-01-25 09:16:00.95	39.80	42.66	-42.2	-45.6	10.5	3.17e-03	0	61	0	908066816	56	5218
2026-01-25 09:16:04.99	37.95	42.21	-42.7	-46.7	9.5	1.56e-02	0	61	0	920649728	56	5882
2026-01-25 09:16:09.02	36.15	41.73	-41.7	-44.9	11.3	1.04e-03	0	61	0	933232640	55	5058
2026-01-25 09:16:13.06	34.40	41.22	-41.9	-45.2	10.8	3.50e-03	0	61	0	946864128	55	5255
2026-01-25 09:16:17.10	32.71	40.70	-41.8	-45.1	11.0	1.02e-03	0	61	0	959447040	54	5486
2026-01-25 09:16:21.14	31.07	40.15	-42.4	-46.1	10.0	1.13e-02	0	61	0	972029952	56	5468
2026-01-25 09:16:25.18	29.49	39.59	-41.6	-44.8	11.3	7.51e-04	0	61	0	984612864	55	4989
2026-01-25 09:16:29.22	27.97	39.01	-41.6	-44.8	11.2	1.70e-03	0	61	0	997195776	55	5006
2026-01-25 09:16:33.26	26.50	38.42	-41.3	-44.2	11.8	4.05e-04	0	61	0	1009778688	54	4981
2026-01-25 09:16:37.30	25.08	37.82	-41.1	-43.8	12.0	4.39e-04	0	61	0	1022361600	54	4751
2026-01-25 09:16:41.34	23.71	37.21	-40.5	-42.9	13.2	1.60e-05	0	61	0	1034944512	52	4795
2026-01-25 09:16:45.39	22.39	36.60	-41.2	-44.2	11.7	5.45e-04	0	61	0	1047527424	53	5250
2026-01-25 09:16:49.43	21.13	35.98	-40.6	-43.1	12.9	4.42e-05	0	62	0	1060110336	52	4883
2026-01-25 09:16:53.47	19.91	35.36	-40.9	-43.7	12.3	2.46e-04	0	61	0	1072693248	52	5229
2026-01-25 09:16:57.51	18.74	34.73	-40.3	-42.7	13.3	1.60e-05	0	61	0	1085276160	52	4696
2026-01-25 09:17:01.55	17.61	34.11	-40.5	-43.0	13.0	2.74e-05	0	61	0	1097859072	52	4824
2026-01-25 09:17:05.59	16.53	33.48	-40.2	-42.5	13.4	1.83e-05	0	61	0	1110441984	52	4585
2026-01-25 09:17:09.62	15.49	32.86	-39.7	-41.8	14.3	7.00e-07	0	61	0	1123024896	51	4478
2026-01-25 09:17:13.66	14.48	32.24	-40.5	-43.0	13.0	3.12e-05	0	61	0	1135607808	51	5133
2026-01-25 09:17:17.70	13.52	31.62	-40.2	-42.5	13.5	1.22e-05	0	61	0	1148190720	51	4854
2026-01-25 09:17:21.74	12.59	31.01	-40.0	-42.2	13.7	3.80e-06	0	62	0	1160773632	51	4687
2026-01-25 09:17:25.77	11.70	30.40	-39.8	-42.0	13.9	7.00e-07	0	61	0	1173356544	51	4582
2026-01-25 09:17:29.81	10.84	29.79	-39.7	-42.0	14.0	3.00e-06	0	62	0	1185939456	51	4546
2026-01-25 09:17:33.85	10.01	29.20	-39.6	-41.8	14.0	7.00e-07	0	62	0	1198522368	51	4484
2026-01-25 09:17:37.89	9.21	28.60	-39.5	-41.6	14.2	2.20e-06	0	61	0	1211105280	50	4608
2026-01-25 09:17:41.93	8.44	28.02	-39.6	-41.7	14.2	7.00e-07	0	62	0	1223688192	50	4691
2026-01-25 09:17:45.96	7.70	27.44	-39.8	-42.0	13.9	2.20e-06	0	61	0	1236271104	50	4862
2026-01-25 09:17:50.00	6.99	26.87	-39.6	-41.7	14.1	2.20e-06	0	61	0	1248854016	50	4689
2026-01-25 09:17:54.04	6.30	26.30	-39.4	-41.6	14.3	0.00e+00	0	62	0	1262485504	50	4615
2026-01-25 09:17:58.08	5.64	25.74	-39.6	-41.8	14.1	4.50e-06	0	61	0	1274019840	50	4732
2026-01-25 09:18:02.12	4.99	25.19	-39.6	-41.7	14.1	0.00e+00	0	61	0	1287651328	50	4705
2026-01-25 09:18:06.17	4.37	24.65	-39.4	-41.5	14.3	1.50e-06	0	61	0	1300234240	50	4590
2026-01-25 09:18:10.21	3.78	24.11	-39.4	-41.5	14.3	7.00e-07	0	61	0	1312817152	50	4578
2026-01-25 09:18:14.25	3.20	23.59	-39.5	-41.8	14.0	2.20e-06	0	62	0	1325400064	50	4720
2026-01-25 09:18:18.28	2.64	23.07	-39.5	-41.7	14.0	2.20e-06	0	61	0	1337982976	50	4700
2026-01-25 09:18:22.33	2.10	22.55	-39.4	-41.6	14.0	2.20e-06	0	62	0	1350565888	50	4630
2026-01-25 09:18:26.37	1.58	22.05	-39.4	-41.6	14.0	4.50e-06	0	61	0	1363148800	50	4616
2026-01-25 09:18:30.41	1.08	21.55	-39.3	-41.5	14.1	2.20e-06	0	62	0	1375731712	50	4562
2026-01-25 09:18:34.44	0.59	21.06	-39.2	-41.4	14.2	7.00e-07	0	61	0	1388314624	50	4517
2026-01-25 09:18:38.48	0.12	20.58	-39.5	-41.9	13.6	4.50e-06	0	61	0	1400897536	50	4772
2026-01-25 09:18:42.53	359.66	20.10	-39.4	-41.7	13.6	1.52e-05	0	62	0	1413480448	50	4674
2026-01-25 09:18:46.57	359.22	19.63	-39.2	-41.4	13.8	8.30e-06	0	62	0	1426063360	50	4534
2026-01-25 09:18:50.60	358.79	19.17	-39.1	-41.3	13.7	1.50e-06	0	61	0	1438646272	50	4492
2026-01-25 09:18:54.64	358.37	18.71	-39.2	-41.6	13.3	1.60e-05	0	62	0	1451229184	50	4625
2026-01-25 09:18:58.68	357.97	18.26	-39.5	-42.1	12.5	1.02e-04	0	61	0	1463812096	50	4917
2026-01-25 09:19:02.71	357.58	17.82	-39.3	-42.0	12.4	1.37e-04	0	62	0	1476395008	50	4859
2026-01-25 09:19:06.75	357.20	17.39	-39.4	-42.2	11.9	4.31e-04	0	62	0	1488977920	50	4975
2026-01-25 09:19:10.79	356.83	16.96	-39.2	-42.2	11.6	6.29e-04	0	62	0	1501560832	50	4964
2026-01-25 09:19:14.83	356.47	16.54	-39.6	-43.1	10.3	3.78e-03	0	61	0	1514143744	50	5523
2026-01-25 09:19:18.87	356.12	16.12	-40.4	-45.5	7.4	9.58e-02	0	62	0	1526726656	51	6838
2026-01-25 09:19:22.91	355.79	15.71	-40.9	-49.4	4.0	7.34e-01	0	61	104	1539309568	52	10154
2026-01-25 09:19:26.94	355.46	15.30	-41.8	-53.2	3.8	1.49e+00	0	61	104	1539309568	54	13909
2026-01-25 09:19:30.98	355.14	14.90	-41.2	-52.3	3.8	1.49e+00	0	62	104	1539309568	53	13332
2026-01-25 09:19:35.02	354.83	14.51	-40.6	-52.9	3.8	1.49e+00	0	62	104	1539309568	53	14244
2026-01-25 09:19:39.06	354.53	14.12	-40.8	-53.0	3.8	1.49e+00	0	62	104	1539309568	53	14475
2026-01-25 09:19:43.09	354.23	13.74	-40.7	-53.0	3.8	1.49e+00	0	61	104	1539309568	52	15318
2026-01-25 09:19:47.13	353.95	13.36	-40.7	-53.0	3.8	1.49e+00	0	62	104	1539309568	52	15303
2026-01-25 09:19:51.17	353.67	12.99	-40.5	-52.9	3.8	1.49e+00	0	62	104	1539309568	52	15058
2026-01-25 09:19:55.21	353.40	12.62	-40.4	-52.7	3.8	1.49e+00	0	62	104	1539309568	52	14777
2026-01-25 09:19:59.24	353.13	12.26	-40.4	-52.6	3.8	1.49e+00	0	62	104	1539309568	52	14700
2026-01-25 09:20:03.28	352.88	11.90	-40.3	-52.6	3.8	1.49e+00	0	62	104	1539309568	52	14686
2026-01-25 09:20:07.32	352.62	11.54	-40.4	-52.7	3.8	1.49e+00	0	62	104	1539309568	52	14755
2026-01-25 09:20:11.36	352.38	11.19	-40.5	-52.8	3.8	1.49e+00	0	62	104	1539309568	52	15025
2026-01-25 09:20:15.39	352.14	10.85	-40.6	-52.9	3.8	1.49e+00	0	62	104	1539309568	52	15170
2026-01-25 09:20:19.43	351.91	10.51	-40.5	-52.9	3.8	1.49e+00	0	62	104	1539309568	52	15087
2026-01-25 09:20:23.47	351.68	10.17	-40.4	-52.7	3.8	1.49e+00	0	62	104	1539309568	52	14790
2026-01-25 09:20:27.51	351.46	9.84	-40.3	-52.6	3.8	1.49e+00	0	62	104	1539309568	52	14678
2026-01-25 09:20:31.55	351.24	9.51	-40.4	-52.7	3.8	1.49e+00	0	62	104	1539309568	52	14783
2026-01-25 09:20:35.58	351.03	9.19	-40.5	-52.9	3.8	1.49e+00	0	62	104	1539309568	52	15124
2026-01-25 09:20:39.62	350.83	8.87	-40.7	-53.0	3.8	1.49e+00	0	62	104	1539309568	52	15342
2026-01-25 09:20:43.66	350.63	8.55	-40.7	-53.0	3.8	1.49e+00	0	62	104	1539309568	52	15266
2026-01-25 09:20:47.69	350.43	8.24	-40.5	-52.8	3.8	1.49e+00	0	62	104	1539309568	52	14977
2026-01-25 09:20:51.74	350.24	7.93	-40.9	-53.2	3.8	1.49e+00	0	62	104	1539309568	52	15684
2026-01-25 09:20:55.78	350.05	7.62	-44.9	-57.4	3.8	1.49e+00	0	62	104	1539309568	60	16061
2026-01-25 09:20:59.82	349.87	7.32	-45.2	-57.7	3.8	1.49e+00	0	62	104	1539309568	60	16516
2026-01-25 09:21:03.87	349.69	7.01	-45.2	-57.5	3.8	1.49e+00	0	62	104	1539309568	61	15392
2026-01-25 09:21:07.91	349.51	6.72	-45.1	-57.4	3.8	1.49e+00	0	62	104	1539309568	61	15178
2026-01-25 09:21:11.95	349.34	6.42	-45.0	-57.4	3.8	1.49e+00	0	62	104	1539309568	61	15086
2026-01-25 09:21:15.99	349.17	6.13	-45.0	-57.4	3.8	1.49e+00	0	62	104	1539309568	60	15959
2026-01-25 09:21:20.03	349.01	5.85	-45.0	-57.3	3.8	1.49e+00	0	62	104	1539309568	60	15842
2026-01-25 09:21:24.07	348.85	5.56	-45.0	-57.4	3.8	1.49e+00	0	62	104	1539309568	60	15956
2026-01-25 09:21:28.12	348.69	5.28	-45.0	-57.4	3.8	1.49e+00	0	62	104	1539309568	60	15958
2026-01-25 09:21:32.16	348.53	5.00	-45.0	-57.3	3.8	1.49e+00	0	62	104	1539309568	60	15883
2026-01-25 09:21:36.20	348.38	4.72	-44.9	-57.3	3.8	1.49e+00	0	62	104	1539309568	60	15822
2026-01-25 09:21:40.25	348.23	4.45	-45.0	-57.3	3.8	1.49e+00	0	62	104	1539309568	60	15889
2026-01-25 09:21:44.29	348.09	4.18	-44.9	-57.3	3.8	1.49e+00	0	62	104	1539309568	60	15879
2026-01-25 09:21:48.33	347.95	3.91	-44.9	-57.3	3.8	1.49e+00	0	62	104	1539309568	60	15873
2026-01-25 09:21:52.37	347.81	3.64	-45.0	-57.3	3.8	1.49e+00	0	62	104	1539309568	60	15897
2026-01-25 09:21:56.41	347.67	3.38	-44.9	-57.3	3.8	1.49e+00	0	62	104	1539309568	60	15871
2026-01-25 09:22:00.46	347.54	3.11	-44.9	-57.3	3.8	1.49e+00	0	62	104	1539309568	60	15841
2026-01-25 09:22:04.50	347.41	2.85	-44.9	-57.3	3.8	1.49e+00	0	62	104	1539309568	60	15873
2026-01-25 09:22:08.54	347.28	2.60	-44.9	-57.3	3.8	1.49e+00	0	62	104	1539309568	60	15855
2026-01-25 09:22:12.58	347.15	2.34	-44.9	-57.3	3.8	1.49e+00	0	62	104	1539309568	60	15823
2026-01-25 09:22:16.62	347.03	2.09	-44.9	-57.3	3.8	1.49e+00	0	62	104	1539309568	60	15847

#Closed at: 2026-01-25 09:22:20
#Recorded file [1539 MB]: D:/lorett/data/31039_260125_120820.dat