passes_logs/2026/01/25/R2.0S_Moscow/R2.0S_Moscow__20260125_121515_FENGYUN_3D_rec.log

#Pass ID: 20260125_121515_FENGYUN 3D
#Satellite: FENGYUN 3D
#Configuration: FENGYUN 3D
#almurnet v.1.7.20251203
#Start time: 2026-01-25 12:15:15

#Version: 2.2.20231116
#Station: R2.0S_Moscow
#Location: 37.707566 lon 55.798166 lat
#TLE: 1 43010U 17072A   26024.51794477  .00000040  00000+0  40682-4 0  9990
#TLE: 2 43010  98.9961 356.4820 0002494  91.2631 268.8830 14.19699550424601

#Time	Az	El	Level	Level2	SNR	BER	BlckErr	Temp	State	Recorded	gain1	gain2
2026-01-25 12:15:15.45	168.28	2.00	-43.8	-55.5	3.8	8.46e-01	0	52	0	0	59	13604
2026-01-25 12:15:19.48	168.34	2.26	-43.8	-55.4	3.8	8.47e-01	0	53	104	0	59	13529
2026-01-25 12:15:23.53	168.40	2.52	-43.8	-55.4	3.8	8.46e-01	0	53	104	0	59	13512
2026-01-25 12:15:27.57	168.47	2.79	-43.8	-55.4	3.8	8.45e-01	0	53	104	0	59	13546
2026-01-25 12:15:31.61	168.53	3.05	-43.8	-55.4	3.8	8.45e-01	0	53	104	0	59	13509
2026-01-25 12:15:35.66	168.59	3.32	-43.8	-55.4	3.8	8.46e-01	0	54	104	0	59	13475
2026-01-25 12:15:39.70	168.66	3.60	-43.8	-55.4	3.8	8.45e-01	0	54	104	0	59	13436
2026-01-25 12:15:43.74	168.73	3.87	-43.8	-55.4	3.8	8.46e-01	0	54	104	0	59	13467
2026-01-25 12:15:47.78	168.79	4.15	-43.8	-55.3	3.8	8.47e-01	0	55	104	0	59	13371
2026-01-25 12:15:51.83	168.86	4.43	-43.7	-54.9	3.8	8.46e-01	0	55	104	0	59	12669
2026-01-25 12:15:55.87	168.93	4.71	-43.6	-53.8	3.8	8.46e-01	0	55	104	0	59	11224
2026-01-25 12:15:59.91	169.00	5.00	-43.4	-52.4	4.1	8.42e-01	0	55	104	0	58	10151
2026-01-25 12:16:03.95	169.07	5.29	-43.2	-51.4	4.3	8.31e-01	0	55	0	0	58	8981
2026-01-25 12:16:07.99	169.15	5.58	-43.1	-50.5	4.7	8.05e-01	0	56	0	0	58	8163
2026-01-25 12:16:12.04	169.22	5.88	-42.8	-49.6	5.1	7.52e-01	0	56	0	0	57	7778
2026-01-25 12:16:16.08	169.30	6.18	-42.9	-50.1	4.9	7.85e-01	0	56	0	0	57	8179
2026-01-25 12:16:20.12	169.38	6.48	-43.0	-50.3	4.8	7.95e-01	0	56	0	0	57	8371
2026-01-25 12:16:24.16	169.45	6.79	-43.0	-50.5	4.6	8.18e-01	0	56	0	0	57	8652
2026-01-25 12:16:28.21	169.53	7.10	-42.4	-48.1	6.1	4.09e-01	0	57	0	5242880	56	6884
2026-01-25 12:16:32.25	169.62	7.42	-40.9	-44.8	9.1	3.70e-02	0	57	0	27262976	53	5639
2026-01-25 12:16:36.29	169.70	7.74	-39.5	-42.4	11.7	9.73e-04	0	57	0	50331648	51	4761
2026-01-25 12:16:40.34	169.78	8.06	-39.5	-42.2	12.0	2.54e-04	0	57	0	73400320	50	4938
2026-01-25 12:16:44.38	169.87	8.39	-39.9	-42.8	11.4	5.51e-02	0	57	0	95420416	52	4735
2026-01-25 12:16:48.41	169.96	8.72	-39.0	-41.4	12.8	3.89e-05	0	57	0	116391936	49	4809
2026-01-25 12:16:52.45	170.05	9.05	-38.8	-41.1	13.2	1.37e-05	0	58	0	139460608	49	4635
2026-01-25 12:16:56.49	170.14	9.39	-38.7	-41.0	13.4	1.02e-05	0	58	0	161480704	49	4562
2026-01-25 12:17:00.54	170.23	9.74	-38.7	-40.9	13.4	6.80e-06	0	58	0	184549376	49	4539
2026-01-25 12:17:04.57	170.33	10.08	-38.6	-40.8	13.6	3.40e-06	0	58	0	207618048	49	4463
2026-01-25 12:17:08.61	170.43	10.44	-38.6	-40.8	13.7	5.70e-06	0	58	0	229638144	49	4459
2026-01-25 12:17:12.65	170.53	10.80	-38.5	-40.8	13.8	4.50e-06	0	58	0	252706816	49	4443
2026-01-25 12:17:16.69	170.63	11.16	-38.6	-40.8	13.7	3.40e-06	0	58	0	275775488	49	4454
2026-01-25 12:17:20.73	170.73	11.53	-38.5	-40.6	13.9	1.10e-06	0	59	0	297795584	48	4629
2026-01-25 12:17:24.77	170.84	11.91	-38.5	-40.6	14.0	2.20e-06	0	58	0	320864256	48	4646
2026-01-25 12:17:28.81	170.95	12.29	-38.3	-40.4	14.1	0.00e+00	0	59	0	343932928	48	4544
2026-01-25 12:17:32.85	171.06	12.68	-38.2	-40.3	14.3	0.00e+00	0	59	0	365953024	48	4479
2026-01-25 12:17:36.88	171.18	13.07	-38.2	-40.3	14.4	0.00e+00	0	59	0	389021696	48	4459
2026-01-25 12:17:40.93	171.29	13.47	-38.2	-40.2	14.5	1.10e-06	0	59	0	412090368	48	4418
2026-01-25 12:17:44.97	171.41	13.88	-37.9	-39.9	14.7	0.00e+00	0	59	0	434110464	47	4523
2026-01-25 12:17:49.01	171.54	14.29	-37.8	-39.8	14.8	0.00e+00	0	59	0	457179136	47	4470
2026-01-25 12:17:53.05	171.66	14.71	-37.6	-39.6	15.0	0.00e+00	0	59	0	480247808	47	4354
2026-01-25 12:17:57.09	171.79	15.14	-37.6	-39.6	15.1	0.00e+00	0	60	0	502267904	47	4344
2026-01-25 12:18:01.12	171.93	15.57	-37.4	-39.3	15.4	0.00e+00	0	59	0	525336576	46	4445
2026-01-25 12:18:05.16	172.06	16.01	-37.2	-39.0	15.6	0.00e+00	0	59	0	548405248	46	4335
2026-01-25 12:18:09.20	172.20	16.47	-37.1	-38.8	15.9	0.00e+00	0	59	0	571473920	46	4219
2026-01-25 12:18:13.24	172.35	16.92	-37.0	-38.7	16.0	0.00e+00	0	59	0	593494016	46	4184
2026-01-25 12:18:17.28	172.50	17.39	-36.9	-38.6	16.1	0.00e+00	0	60	0	616562688	45	4364
2026-01-25 12:18:21.32	172.65	17.87	-36.8	-38.5	16.2	0.00e+00	0	60	0	638582784	45	4316
2026-01-25 12:18:25.36	172.81	18.36	-36.7	-38.4	16.3	0.00e+00	0	60	0	661651456	45	4269
2026-01-25 12:18:29.40	172.97	18.85	-36.6	-38.2	16.5	0.00e+00	0	60	0	684720128	45	4190
2026-01-25 12:18:33.44	173.14	19.36	-36.6	-38.2	16.5	0.00e+00	0	60	0	706740224	45	4166
2026-01-25 12:18:37.47	173.31	19.87	-36.4	-38.0	16.7	0.00e+00	0	60	0	729808896	44	4326
2026-01-25 12:18:41.51	173.49	20.40	-36.3	-37.8	16.9	0.00e+00	0	60	0	752877568	44	4241
2026-01-25 12:18:45.55	173.67	20.94	-36.3	-37.9	16.8	0.00e+00	0	60	0	774897664	44	4281
2026-01-25 12:18:49.59	173.86	21.49	-36.3	-37.9	16.8	0.00e+00	0	60	0	797966336	44	4290
2026-01-25 12:18:53.63	174.06	22.05	-36.1	-37.7	17.0	0.00e+00	0	60	0	821035008	44	4171
2026-01-25 12:18:57.67	174.26	22.63	-36.1	-37.7	17.1	0.00e+00	0	60	0	843055104	44	4157
2026-01-25 12:19:01.71	174.47	23.21	-36.0	-37.6	17.2	0.00e+00	0	60	0	866123776	44	4102
2026-01-25 12:19:05.76	174.69	23.81	-36.0	-37.5	17.2	0.00e+00	0	60	0	889192448	44	4096
2026-01-25 12:19:09.80	174.92	24.43	-35.6	-37.2	17.5	0.00e+00	0	60	0	911212544	43	4149
2026-01-25 12:19:13.83	175.15	25.05	-35.5	-37.0	17.6	0.00e+00	0	60	0	934281216	43	4088
2026-01-25 12:19:17.87	175.40	25.70	-35.7	-37.2	17.4	0.00e+00	0	60	0	957349888	43	4180
2026-01-25 12:19:21.91	175.65	26.36	-35.7	-37.3	17.4	0.00e+00	0	60	0	980418560	43	4210
2026-01-25 12:19:25.95	175.91	27.03	-35.6	-37.1	17.5	0.00e+00	0	60	0	1002438656	43	4140
2026-01-25 12:19:29.99	176.19	27.72	-35.5	-37.0	17.7	0.00e+00	0	60	0	1025507328	43	4076
2026-01-25 12:19:34.03	176.47	28.43	-35.7	-37.2	17.5	0.00e+00	0	60	0	1047527424	43	4155
2026-01-25 12:19:38.07	176.77	29.16	-35.8	-37.3	17.4	0.00e+00	0	61	0	1070596096	43	4229
2026-01-25 12:19:42.11	177.09	29.90	-35.8	-37.4	17.3	0.00e+00	0	61	0	1093664768	43	4247
2026-01-25 12:19:46.15	177.41	30.66	-35.7	-37.3	17.4	0.00e+00	0	61	0	1115684864	43	4219
2026-01-25 12:19:50.19	177.75	31.45	-35.1	-36.5	18.2	0.00e+00	0	61	0	1138753536	42	4068
2026-01-25 12:19:54.23	178.11	32.25	-35.3	-36.8	17.9	0.00e+00	0	61	0	1161822208	42	4201
2026-01-25 12:19:58.27	178.49	33.07	-35.6	-37.2	17.5	0.00e+00	0	61	0	1184890880	42	4406
2026-01-25 12:20:02.31	178.88	33.92	-35.4	-36.9	17.8	0.00e+00	0	61	0	1206910976	42	4265
2026-01-25 12:20:06.35	179.30	34.79	-35.3	-36.8	18.0	0.00e+00	0	61	0	1229979648	42	4207
2026-01-25 12:20:10.39	179.74	35.68	-35.3	-36.7	18.0	0.00e+00	0	61	0	1251999744	42	4171
2026-01-25 12:20:14.43	180.20	36.59	-35.1	-36.5	18.2	0.00e+00	0	61	0	1275068416	42	4090
2026-01-25 12:20:18.47	180.69	37.53	-34.8	-36.2	18.5	0.00e+00	0	61	0	1298137088	41	4171
2026-01-25 12:20:22.51	181.20	38.50	-34.9	-36.2	18.5	0.00e+00	0	61	0	1321205760	41	4179
2026-01-25 12:20:26.55	181.75	39.49	-35.3	-36.8	18.0	0.00e+00	0	61	0	1343225856	41	4445
2026-01-25 12:20:30.59	182.33	40.50	-35.6	-37.0	17.8	0.00e+00	0	61	0	1366294528	41	4579
2026-01-25 12:20:34.63	182.95	41.55	-35.5	-37.0	17.8	0.00e+00	0	61	0	1389363200	41	4556
2026-01-25 12:20:38.67	183.61	42.61	-35.6	-37.1	17.7	0.00e+00	0	61	0	1411383296	42	4358
2026-01-25 12:20:42.71	184.32	43.71	-35.6	-37.1	17.7	0.00e+00	0	61	0	1434451968	42	4356
2026-01-25 12:20:46.75	185.07	44.83	-35.6	-37.0	17.8	0.00e+00	0	61	0	1456472064	42	4335
2026-01-25 12:20:50.78	185.88	45.98	-35.5	-37.0	17.9	0.00e+00	0	61	0	1479540736	42	4305
2026-01-25 12:20:54.82	186.74	47.15	-35.6	-37.1	17.9	0.00e+00	0	61	0	1502609408	42	4348
2026-01-25 12:20:58.86	187.68	48.36	-35.8	-37.2	17.7	0.00e+00	0	61	0	1525678080	42	4435
2026-01-25 12:21:02.90	188.69	49.58	-35.8	-37.2	17.7	0.00e+00	0	61	0	1547698176	42	4441
2026-01-25 12:21:06.94	189.79	50.83	-36.1	-37.7	17.3	0.00e+00	0	61	0	1570766848	42	4663
2026-01-25 12:21:10.98	190.98	52.11	-36.1	-37.6	17.4	0.00e+00	0	61	0	1593835520	43	4375
2026-01-25 12:21:15.02	192.28	53.40	-36.3	-37.8	17.2	0.00e+00	0	61	0	1615855616	43	4487
2026-01-25 12:21:19.06	193.69	54.71	-36.6	-38.2	16.7	0.00e+00	0	61	0	1638924288	43	4691
2026-01-25 12:21:23.09	195.24	56.04	-36.4	-38.0	17.1	0.00e+00	0	61	0	1660944384	44	4306
2026-01-25 12:21:27.13	196.95	57.37	-35.8	-37.2	17.8	0.00e+00	0	61	0	1684013056	43	4157
2026-01-25 12:21:31.18	198.83	58.72	-35.9	-37.5	17.5	0.00e+00	0	61	0	1707081728	43	4297
2026-01-25 12:21:35.22	200.91	60.06	-35.6	-37.0	18.1	0.00e+00	0	61	0	1730150400	42	4293
2026-01-25 12:21:39.25	203.21	61.38	-35.4	-36.9	18.2	0.00e+00	0	61	0	1752170496	42	4245
2026-01-25 12:21:43.29	205.78	62.70	-35.2	-36.6	18.4	0.00e+00	0	61	0	1775239168	42	4103
2026-01-25 12:21:47.33	208.63	63.98	-35.2	-36.6	18.4	0.00e+00	0	61	0	1798307840	42	4121
2026-01-25 12:21:51.37	211.81	65.23	-35.1	-36.4	18.5	0.00e+00	0	61	0	1820327936	41	4283
2026-01-25 12:21:55.41	215.36	66.41	-35.2	-36.7	18.3	0.00e+00	0	61	0	1843396608	41	4399
2026-01-25 12:21:59.45	219.30	67.52	-35.0	-36.4	18.4	0.00e+00	0	61	0	1865416704	41	4281
2026-01-25 12:22:03.49	223.67	68.54	-35.0	-36.4	18.4	0.00e+00	0	61	0	1888485376	41	4261
2026-01-25 12:22:07.53	228.48	69.44	-34.5	-35.8	19.0	0.00e+00	0	61	0	1911554048	41	3992
2026-01-25 12:22:11.57	233.73	70.20	-34.8	-36.2	18.6	0.00e+00	0	62	0	1934622720	40	4404
2026-01-25 12:22:15.61	239.38	70.80	-34.3	-35.6	19.2	0.00e+00	0	62	0	1956642816	40	4110
2026-01-25 12:22:19.64	245.33	71.22	-34.0	-35.3	19.4	0.00e+00	0	61	0	1979711488	40	3972
2026-01-25 12:22:23.68	251.52	71.44	-34.1	-35.3	19.4	0.00e+00	0	62	0	2002780160	39	4234
2026-01-25 12:22:27.72	257.79	71.45	-34.3	-35.6	19.2	0.00e+00	0	61	0	2024800256	39	4366
2026-01-25 12:22:31.76	264.00	71.26	-34.3	-35.6	19.1	0.00e+00	0	61	0	2047868928	39	4378
2026-01-25 12:22:35.80	270.00	70.87	-34.3	-35.6	19.2	0.00e+00	0	62	0	2069889024	39	4373
2026-01-25 12:22:39.84	275.69	70.29	-34.7	-36.0	18.8	0.00e+00	0	62	0	2092957696	39	4589
2026-01-25 12:22:43.87	280.97	69.55	-34.5	-35.9	18.9	0.00e+00	0	61	0	2116026368	40	4245
2026-01-25 12:22:47.91	285.84	68.67	-34.5	-35.8	19.0	0.00e+00	0	61	0	2139095040	40	4207
2026-01-25 12:22:51.95	290.26	67.67	-34.7	-36.0	18.7	0.00e+00	0	61	0	2161115136	40	4327
2026-01-25 12:22:55.99	294.26	66.57	-34.8	-36.2	18.6	0.00e+00	0	61	0	2184183808	40	4410
2026-01-25 12:23:00.03	297.85	65.40	-34.8	-36.2	18.6	0.00e+00	0	62	0	2207252480	40	4423
2026-01-25 12:23:04.07	301.07	64.16	-34.8	-36.1	18.7	0.00e+00	0	61	0	2229272576	40	4386
2026-01-25 12:23:08.11	303.96	62.89	-35.1	-36.5	18.4	0.00e+00	0	62	0	2252341248	40	4567
2026-01-25 12:23:12.14	306.55	61.58	-34.8	-36.1	18.8	0.00e+00	0	61	0	2274361344	40	4357
2026-01-25 12:23:16.18	308.89	60.26	-35.6	-37.1	17.8	0.00e+00	0	62	0	2297430016	41	4612
2026-01-25 12:23:20.22	311.00	58.92	-35.8	-37.2	17.7	0.00e+00	0	61	0	2320498688	42	4423
2026-01-25 12:23:24.26	312.90	57.58	-35.8	-37.3	17.7	0.00e+00	0	62	0	2343567360	42	4452
2026-01-25 12:23:28.31	314.63	56.25	-36.1	-37.6	17.4	0.00e+00	0	61	0	2365587456	42	4610
2026-01-25 12:23:32.35	316.20	54.92	-36.0	-37.4	17.5	0.00e+00	0	62	0	2388656128	43	4287
2026-01-25 12:23:36.39	317.64	53.62	-36.3	-37.8	17.4	0.00e+00	0	62	0	2411724800	43	4442
2026-01-25 12:23:40.42	318.95	52.33	-35.8	-37.2	18.0	0.00e+00	0	62	0	2433744896	43	4151
2026-01-25 12:23:44.46	320.15	51.06	-35.8	-37.2	18.0	0.00e+00	0	61	0	2456813568	43	4150
2026-01-25 12:23:48.50	321.26	49.81	-35.6	-36.9	18.3	0.00e+00	0	62	0	2479882240	43	4012
2026-01-25 12:23:52.54	322.28	48.58	-35.6	-36.9	18.2	0.00e+00	0	62	0	2501902336	43	4039
2026-01-25 12:23:56.58	323.23	47.38	-35.9	-37.2	17.9	0.00e+00	0	62	0	2524971008	43	4176
2026-01-25 12:24:00.61	324.10	46.21	-35.5	-36.7	18.4	0.00e+00	0	62	0	2548039680	42	4192
2026-01-25 12:24:04.65	324.92	45.06	-35.3	-36.6	18.6	0.00e+00	0	62	0	2570059776	42	4117
2026-01-25 12:24:08.69	325.68	43.94	-35.2	-36.4	18.7	0.00e+00	0	62	0	2593128448	42	4049
2026-01-25 12:24:12.74	326.39	42.84	-35.1	-36.4	18.7	0.00e+00	0	61	0	2615148544	42	4023
2026-01-25 12:24:16.78	327.06	41.77	-35.0	-36.3	18.8	0.00e+00	0	62	0	2638217216	41	4217
2026-01-25 12:24:20.82	327.68	40.73	-35.2	-36.5	18.6	0.00e+00	0	62	0	2661285888	41	4313
2026-01-25 12:24:24.86	328.27	39.72	-35.0	-36.3	18.8	0.00e+00	0	62	0	2684354560	41	4203
2026-01-25 12:24:28.90	328.82	38.73	-35.0	-36.3	18.8	0.00e+00	0	62	0	2706374656	41	4224
2026-01-25 12:24:32.94	329.34	37.77	-34.9	-36.2	18.8	0.00e+00	0	62	0	2729443328	41	4167
2026-01-25 12:24:36.98	329.84	36.83	-34.8	-36.0	19.0	0.00e+00	0	62	0	2752512000	41	4079
2026-01-25 12:24:41.02	330.30	35.91	-34.9	-36.2	18.8	0.00e+00	0	62	0	2774532096	41	4171
2026-01-25 12:24:45.05	330.75	35.02	-34.8	-36.0	18.9	0.00e+00	0	62	0	2797600768	41	4098
2026-01-25 12:24:49.10	331.17	34.15	-35.1	-36.3	18.7	0.00e+00	0	62	0	2819620864	41	4226
2026-01-25 12:24:53.14	331.57	33.31	-35.4	-36.7	18.3	0.00e+00	0	61	0	2842689536	41	4434
2026-01-25 12:24:57.18	331.95	32.48	-35.4	-36.7	18.2	0.00e+00	0	62	0	2865758208	41	4440
2026-01-25 12:25:01.21	332.31	31.68	-34.9	-36.2	18.8	0.00e+00	0	62	0	2888826880	41	4159
2026-01-25 12:25:05.25	332.65	30.90	-35.1	-36.3	18.6	0.00e+00	0	61	0	2910846976	41	4234
2026-01-25 12:25:09.29	332.98	30.14	-35.2	-36.5	18.4	0.00e+00	0	62	0	2933915648	41	4328
2026-01-25 12:25:13.33	333.30	29.39	-35.3	-36.6	18.3	0.00e+00	0	62	0	2956984320	41	4375
2026-01-25 12:25:17.37	333.60	28.67	-35.2	-36.5	18.3	0.00e+00	0	62	0	2979004416	41	4335
2026-01-25 12:25:21.41	333.89	27.96	-35.2	-36.6	18.3	0.00e+00	0	62	0	3002073088	41	4341
2026-01-25 12:25:25.44	334.17	27.27	-35.4	-36.8	18.1	0.00e+00	0	62	0	3024093184	41	4460
2026-01-25 12:25:29.49	334.44	26.59	-35.4	-36.8	18.1	0.00e+00	0	62	0	3047161856	41	4449
2026-01-25 12:25:33.52	334.70	25.94	-35.2	-36.6	18.2	0.00e+00	0	62	0	3070230528	41	4342
2026-01-25 12:25:37.56	334.94	25.29	-35.2	-36.5	18.2	0.00e+00	0	62	0	3093299200	41	4323
2026-01-25 12:25:41.60	335.18	24.67	-35.3	-36.6	18.1	0.00e+00	0	62	0	3115319296	41	4372
2026-01-25 12:25:45.64	335.41	24.05	-35.6	-37.0	17.8	0.00e+00	0	62	0	3138387968	41	4555
2026-01-25 12:25:49.68	335.63	23.45	-35.8	-37.2	17.5	0.00e+00	0	62	0	3161456640	42	4431
2026-01-25 12:25:53.72	335.85	22.87	-36.0	-37.5	17.1	0.00e+00	0	62	0	3183476736	42	4583
2026-01-25 12:25:57.76	336.05	22.29	-36.0	-37.4	17.1	0.00e+00	0	62	0	3206545408	42	4544
2026-01-25 12:26:01.80	336.25	21.73	-36.1	-37.6	16.9	0.00e+00	0	62	0	3228565504	42	4602
2026-01-25 12:26:05.83	336.45	21.18	-36.2	-37.8	16.6	0.00e+00	0	62	0	3251634176	43	4448
2026-01-25 12:26:09.87	336.63	20.64	-36.2	-37.7	16.6	0.00e+00	0	62	0	3274702848	43	4407
2026-01-25 12:26:13.91	336.82	20.12	-36.5	-38.1	16.2	0.00e+00	0	62	0	3297771520	43	4600
2026-01-25 12:26:17.95	336.99	19.60	-36.4	-38.0	16.2	0.00e+00	0	62	0	3319791616	43	4570
2026-01-25 12:26:21.99	337.16	19.09	-36.2	-37.7	16.2	0.00e+00	0	62	0	3342860288	43	4434
2026-01-25 12:26:26.03	337.33	18.60	-36.5	-38.2	15.7	0.00e+00	0	62	0	3365928960	43	4664
2026-01-25 12:26:30.07	337.49	18.11	-37.0	-38.9	15.0	0.00e+00	0	62	0	3387949056	44	4766
2026-01-25 12:26:34.11	337.65	17.63	-37.0	-38.9	14.9	0.00e+00	0	62	0	3411017728	44	4775
2026-01-25 12:26:38.15	337.80	17.17	-36.8	-38.6	15.2	0.00e+00	0	62	0	3434086400	44	4626
2026-01-25 12:26:42.19	337.95	16.71	-36.5	-38.3	15.3	0.00e+00	0	62	0	3456106496	44	4456
2026-01-25 12:26:46.23	338.09	16.26	-36.5	-38.3	15.1	0.00e+00	0	62	0	3479175168	44	4442
2026-01-25 12:26:50.27	338.23	15.81	-36.6	-38.4	14.9	1.10e-06	0	62	0	3502243840	44	4534
2026-01-25 12:26:54.31	338.37	15.38	-36.7	-38.6	14.5	0.00e+00	0	62	0	3524263936	44	4637
2026-01-25 12:26:58.35	338.50	14.95	-36.8	-38.8	14.2	0.00e+00	0	62	0	3547332608	44	4750
2026-01-25 12:27:02.39	338.63	14.53	-37.1	-39.3	13.5	4.50e-06	0	62	0	3570401280	44	4998
2026-01-25 12:27:06.43	338.76	14.12	-37.6	-39.9	12.7	4.23e-05	0	62	0	3592421376	45	5094
2026-01-25 12:27:10.47	338.89	13.71	-38.3	-41.0	11.5	6.34e-04	0	62	0	3615490048	47	5125
2026-01-25 12:27:14.51	339.01	13.31	-38.9	-42.2	10.1	4.26e-03	0	62	0	3638558720	48	5561
2026-01-25 12:27:18.55	339.13	12.92	-39.3	-43.0	9.2	1.64e-02	0	62	0	3660578816	49	5755
2026-01-25 12:27:22.59	339.24	12.53	-39.8	-44.0	8.1	5.07e-02	0	62	0	3683647488	50	6086
2026-01-25 12:27:26.63	339.36	12.15	-40.2	-45.1	6.9	1.42e-01	0	62	0	3706716160	50	6951
2026-01-25 12:27:30.67	339.47	11.78	-40.6	-49.5	4.1	7.63e-01	0	62	0	3724541952	52	10286
2026-01-25 12:27:34.71	339.57	11.41	-40.8	-48.5	4.5	8.26e-01	0	62	0	3724541952	53	8576
2026-01-25 12:27:38.75	339.68	11.04	-40.7	-48.6	4.4	8.30e-01	0	62	0	3724541952	53	8709
2026-01-25 12:27:42.79	339.79	10.68	-41.2	-50.5	3.8	8.46e-01	0	62	104	3724541952	53	10889
2026-01-25 12:27:46.83	339.89	10.33	-40.7	-50.0	4.0	8.44e-01	0	62	104	3724541952	53	10224
2026-01-25 12:27:50.87	339.99	9.98	-40.6	-51.8	3.8	8.45e-01	0	62	104	3724541952	52	13340
2026-01-25 12:27:54.91	340.09	9.64	-40.8	-51.0	3.8	8.46e-01	0	62	104	3724541952	52	12146
2026-01-25 12:27:58.95	340.18	9.30	-41.0	-51.6	3.8	8.46e-01	0	62	104	3724541952	52	13030
2026-01-25 12:28:02.98	340.28	8.96	-40.9	-51.6	3.8	8.46e-01	0	62	104	3724541952	52	13079
2026-01-25 12:28:07.02	340.37	8.63	-40.9	-52.0	3.8	8.46e-01	0	62	104	3724541952	52	13612
2026-01-25 12:28:11.06	340.46	8.31	-40.9	-52.0	3.8	8.46e-01	0	62	104	3724541952	52	13660
2026-01-25 12:28:15.10	340.55	7.98	-42.4	-53.7	3.8	8.45e-01	0	62	104	3724541952	55	14044
2026-01-25 12:28:19.14	340.64	7.67	-44.9	-56.6	3.8	8.46e-01	0	62	104	3724541952	60	14654
2026-01-25 12:28:23.18	340.72	7.35	-45.1	-56.9	3.8	8.45e-01	0	62	104	3724541952	60	15159
2026-01-25 12:28:27.23	340.81	7.04	-45.1	-56.9	3.8	8.45e-01	0	62	104	3724541952	60	15101
2026-01-25 12:28:31.27	340.89	6.74	-44.9	-56.7	3.8	8.45e-01	0	62	104	3724541952	60	14806
2026-01-25 12:28:35.31	340.98	6.43	-45.0	-56.8	3.8	8.47e-01	0	62	104	3724541952	60	14890
2026-01-25 12:28:39.35	341.06	6.13	-45.0	-56.7	3.8	8.47e-01	0	62	104	3724541952	60	14808
2026-01-25 12:28:43.40	341.14	5.84	-44.9	-56.7	3.8	8.46e-01	0	62	104	3724541952	60	14870
2026-01-25 12:28:47.44	341.21	5.54	-45.0	-56.7	3.8	8.46e-01	0	62	104	3724541952	60	14792
2026-01-25 12:28:51.48	341.29	5.25	-44.9	-56.7	3.8	8.46e-01	0	62	104	3724541952	60	14795
2026-01-25 12:28:55.52	341.37	4.97	-45.0	-56.7	3.8	8.47e-01	0	62	104	3724541952	60	14806
2026-01-25 12:28:59.57	341.44	4.68	-44.9	-56.7	3.8	8.46e-01	0	62	104	3724541952	60	14756
2026-01-25 12:29:03.61	341.52	4.40	-44.9	-56.6	3.8	8.45e-01	0	62	104	3724541952	60	14704
2026-01-25 12:29:07.66	341.59	4.12	-44.9	-56.7	3.8	8.46e-01	0	62	104	3724541952	60	14729
2026-01-25 12:29:11.70	341.66	3.85	-44.9	-56.7	3.8	8.47e-01	0	62	104	3724541952	60	14782
2026-01-25 12:29:15.74	341.73	3.58	-44.9	-56.7	3.8	8.46e-01	0	62	104	3724541952	60	14718
2026-01-25 12:29:19.78	341.80	3.31	-44.9	-56.7	3.8	8.47e-01	0	62	104	3724541952	60	14719
2026-01-25 12:29:23.83	341.87	3.04	-44.9	-56.7	3.8	8.45e-01	0	62	104	3724541952	60	14713
2026-01-25 12:29:27.87	341.94	2.78	-44.9	-56.6	3.8	8.46e-01	0	62	104	3724541952	60	14658
2026-01-25 12:29:31.91	342.01	2.51	-44.9	-56.6	3.8	8.47e-01	0	62	104	3724541952	60	14663
2026-01-25 12:29:35.96	342.07	2.25	-44.9	-56.6	3.8	8.46e-01	0	62	104	3724541952	60	14643
2026-01-25 12:29:40.00	342.14	2.00	-44.9	-56.7	3.8	8.46e-01	0	62	104	3724541952	60	14712

#Closed at: 2026-01-25 12:29:42
#Recorded file [3724 MB]: D:/lorett/data/31039_260125_151515.dat