passes_logs/2026/01/25/R2.0S_Moscow/R2.0S_Moscow__20260125_040746_FENGYUN_3E_rec.log

#Pass ID: 20260125_040746_FENGYUN 3E
#Satellite: FENGYUN 3E
#Configuration: FENGYUN 3E
#almurnet v.1.7.20251203
#Start time: 2026-01-25 04:07:48

#Version: 2.2.20231116
#Station: R2.0S_Moscow
#Location: 37.707566 lon 55.798166 lat
#TLE: 1 49008U 21062A   26024.51886291 -.00000133  00000+0 -41802-4 0  9993
#TLE: 2 49008  98.7494  29.5356 0002407 118.1139 242.0281 14.19886269236195

#Time	Az	El	Level	Level2	SNR	BER	BlckErr	Temp	State	Recorded	gain1	gain2
2026-01-25 04:07:48.71	15.36	2.12	-43.2	-54.2	3.8	8.45e-01	0	52	0	0	57	12474
2026-01-25 04:07:52.74	15.34	2.38	-43.2	-54.2	3.8	8.47e-01	0	53	104	0	57	12427
2026-01-25 04:07:56.78	15.33	2.64	-43.2	-54.2	3.8	8.45e-01	0	53	104	0	57	12468
2026-01-25 04:08:00.82	15.31	2.90	-43.2	-54.2	3.8	8.46e-01	0	53	104	0	57	12429
2026-01-25 04:08:04.87	15.29	3.17	-43.2	-54.2	3.8	8.46e-01	0	54	104	0	57	12452
2026-01-25 04:08:08.91	15.27	3.44	-43.2	-54.2	3.8	8.46e-01	0	54	104	0	57	12475
2026-01-25 04:08:12.95	15.25	3.72	-43.2	-54.2	3.8	8.46e-01	0	54	104	0	57	12419
2026-01-25 04:08:16.99	15.23	3.99	-43.2	-54.1	3.8	8.45e-01	0	55	104	0	57	12369
2026-01-25 04:08:21.04	15.21	4.27	-43.2	-54.2	3.8	8.47e-01	0	55	104	0	57	12410
2026-01-25 04:08:25.08	15.19	4.55	-43.2	-54.2	3.8	8.46e-01	0	55	104	0	57	12435
2026-01-25 04:08:29.12	15.17	4.83	-43.2	-54.1	3.8	8.46e-01	0	56	104	0	57	12328
2026-01-25 04:08:33.16	15.14	5.12	-43.2	-54.1	3.8	8.45e-01	0	55	104	0	57	12345
2026-01-25 04:08:37.20	15.12	5.41	-43.2	-54.2	3.8	8.47e-01	0	56	104	0	57	12423
2026-01-25 04:08:41.24	15.09	5.70	-43.2	-54.1	3.8	8.47e-01	0	56	104	0	57	12357
2026-01-25 04:08:45.29	15.07	6.00	-43.1	-53.8	3.8	8.48e-01	0	56	104	0	57	11870
2026-01-25 04:08:49.33	15.04	6.30	-43.1	-53.1	3.8	8.47e-01	0	56	104	0	57	11000
2026-01-25 04:08:53.37	15.01	6.61	-43.0	-52.7	3.8	8.46e-01	0	57	104	0	57	10495
2026-01-25 04:08:57.41	14.98	6.91	-42.1	-48.5	5.0	7.96e-01	0	57	0	0	55	7210
2026-01-25 04:09:01.45	14.95	7.22	-39.7	-42.7	10.1	9.29e-03	0	57	0	23068672	50	4965
2026-01-25 04:09:05.50	14.92	7.54	-37.8	-39.8	13.0	3.77e-05	0	57	0	52428800	46	4477
2026-01-25 04:09:09.54	14.89	7.86	-38.6	-41.1	11.7	7.98e-04	0	57	0	81788928	47	4886
2026-01-25 04:09:13.58	14.86	8.18	-41.8	-47.0	6.1	1.99e-01	0	58	0	111149056	53	6874
2026-01-25 04:09:17.62	14.83	8.51	-40.0	-43.0	10.0	8.44e-01	0	58	104	130023424	51	4834
2026-01-25 04:09:21.66	14.79	8.84	-38.2	-40.2	13.2	3.31e-05	0	58	0	157286400	47	4403
2026-01-25 04:09:25.69	14.75	9.17	-38.4	-40.5	13.0	5.03e-05	0	58	0	186646528	47	4576
2026-01-25 04:09:29.73	14.72	9.51	-38.4	-40.5	13.1	5.14e-05	0	58	0	216006656	47	4574
2026-01-25 04:09:33.77	14.68	9.86	-38.3	-40.2	13.4	1.71e-05	0	58	0	245366784	47	4420
2026-01-25 04:09:37.81	14.64	10.21	-38.3	-40.2	13.4	1.14e-05	0	58	0	273678336	47	4432
2026-01-25 04:09:41.86	14.60	10.56	-38.2	-40.1	13.6	6.80e-06	0	58	0	303038464	47	4375
2026-01-25 04:09:45.89	14.55	10.92	-38.3	-40.2	13.6	5.70e-06	0	59	0	332398592	47	4419
2026-01-25 04:09:49.93	14.51	11.29	-38.1	-39.9	13.9	2.20e-06	0	59	0	361758720	47	4275
2026-01-25 04:09:53.98	14.46	11.66	-38.1	-40.0	13.9	2.20e-06	0	59	0	391118848	46	4572
2026-01-25 04:09:58.01	14.41	12.04	-38.0	-39.8	14.1	2.20e-06	0	59	0	420478976	46	4469
2026-01-25 04:10:02.05	14.36	12.42	-37.7	-39.4	14.6	0.00e+00	0	59	0	448790528	46	4273
2026-01-25 04:10:06.09	14.31	12.81	-37.8	-39.5	14.5	0.00e+00	0	59	0	478150656	46	4308
2026-01-25 04:10:10.13	14.26	13.20	-37.7	-39.4	14.7	0.00e+00	0	59	0	507510784	46	4263
2026-01-25 04:10:14.18	14.20	13.60	-37.5	-39.1	15.1	1.10e-06	0	59	0	536870912	46	4108
2026-01-25 04:10:18.21	14.15	14.01	-37.2	-38.7	15.6	0.00e+00	0	59	0	566231040	45	4185
2026-01-25 04:10:22.25	14.09	14.43	-37.1	-38.6	15.7	0.00e+00	0	59	0	594542592	45	4123
2026-01-25 04:10:26.28	14.03	14.85	-36.9	-38.3	16.0	0.00e+00	0	60	0	623902720	44	4240
2026-01-25 04:10:30.32	13.96	15.28	-36.9	-38.3	16.1	0.00e+00	0	60	0	653262848	44	4236
2026-01-25 04:10:34.37	13.90	15.71	-36.7	-38.1	16.4	0.00e+00	0	60	0	682622976	44	4119
2026-01-25 04:10:38.40	13.83	16.16	-36.7	-38.1	16.5	0.00e+00	0	60	0	710934528	44	4116
2026-01-25 04:10:42.44	13.76	16.61	-36.7	-38.0	16.6	0.00e+00	0	60	0	740294656	44	4097
2026-01-25 04:10:46.48	13.69	17.08	-36.7	-38.0	16.6	0.00e+00	0	60	0	769654784	44	4094
2026-01-25 04:10:50.53	13.61	17.55	-36.4	-37.8	16.7	0.00e+00	0	60	0	799014912	43	4209
2026-01-25 04:10:54.56	13.53	18.03	-36.1	-37.4	17.1	0.00e+00	0	60	0	828375040	43	4039
2026-01-25 04:10:58.60	13.45	18.52	-36.1	-37.4	17.2	0.00e+00	0	60	0	856686592	43	4043
2026-01-25 04:11:02.64	13.36	19.02	-36.0	-37.3	17.3	0.00e+00	0	60	0	886046720	42	4206
2026-01-25 04:11:06.68	13.27	19.53	-36.1	-37.3	17.3	0.00e+00	0	60	0	915406848	42	4238
2026-01-25 04:11:10.72	13.18	20.05	-36.0	-37.3	17.4	0.00e+00	0	60	0	944766976	42	4216
2026-01-25 04:11:14.76	13.09	20.58	-36.1	-37.4	17.3	0.00e+00	0	60	0	974127104	42	4254
2026-01-25 04:11:18.80	12.99	21.12	-36.2	-37.5	17.2	0.00e+00	0	60	0	1002438656	42	4326
2026-01-25 04:11:22.83	12.88	21.67	-35.9	-37.2	17.5	0.00e+00	0	60	0	1031798784	42	4164
2026-01-25 04:11:26.87	12.77	22.24	-35.9	-37.1	17.6	0.00e+00	0	60	0	1061158912	42	4108
2026-01-25 04:11:30.91	12.66	22.82	-35.7	-36.9	17.8	0.00e+00	0	61	0	1090519040	42	4026
2026-01-25 04:11:34.95	12.54	23.42	-35.6	-36.8	17.9	0.00e+00	0	60	0	1119879168	42	3984
2026-01-25 04:11:38.99	12.42	24.02	-35.3	-36.5	18.2	0.00e+00	0	60	0	1149239296	41	4065
2026-01-25 04:11:43.03	12.29	24.65	-35.4	-36.5	18.2	0.00e+00	0	60	0	1177550848	41	4092
2026-01-25 04:11:47.06	12.15	25.28	-35.3	-36.4	18.4	0.00e+00	0	60	0	1206910976	41	4038
2026-01-25 04:11:51.10	12.01	25.93	-35.1	-36.3	18.5	0.00e+00	0	60	0	1236271104	41	3964
2026-01-25 04:11:55.14	11.86	26.60	-35.1	-36.3	18.5	0.00e+00	0	61	0	1265631232	41	3961
2026-01-25 04:11:59.18	11.71	27.29	-35.4	-36.5	18.3	0.00e+00	0	61	0	1294991360	41	4078
2026-01-25 04:12:03.22	11.54	27.99	-35.2	-36.3	18.5	0.00e+00	0	61	0	1323302912	41	4003
2026-01-25 04:12:07.26	11.37	28.71	-35.1	-36.2	18.6	0.00e+00	0	61	0	1352663040	41	3950
2026-01-25 04:12:11.30	11.19	29.45	-35.0	-36.1	18.8	0.00e+00	0	61	0	1382023168	40	4102
2026-01-25 04:12:15.34	11.00	30.21	-35.0	-36.1	18.8	0.00e+00	0	61	0	1411383296	40	4110
2026-01-25 04:12:19.38	10.81	30.99	-35.0	-36.2	18.7	0.00e+00	0	61	0	1440743424	40	4148
2026-01-25 04:12:23.42	10.60	31.79	-35.3	-36.4	18.5	0.00e+00	0	61	0	1470103552	40	4287
2026-01-25 04:12:27.45	10.38	32.61	-35.5	-36.6	18.3	0.00e+00	0	61	0	1498415104	40	4386
2026-01-25 04:12:31.49	10.14	33.45	-35.3	-36.4	18.5	0.00e+00	0	61	0	1527775232	40	4280
2026-01-25 04:12:35.53	9.89	34.32	-35.0	-36.2	18.7	0.00e+00	0	61	0	1557135360	40	4147
2026-01-25 04:12:39.57	9.63	35.21	-35.0	-36.1	18.8	0.00e+00	0	61	0	1586495488	40	4122
2026-01-25 04:12:43.61	9.36	36.13	-35.1	-36.3	18.6	0.00e+00	0	61	0	1615855616	40	4205
2026-01-25 04:12:47.65	9.06	37.08	-35.1	-36.2	18.7	0.00e+00	0	61	0	1644167168	40	4193
2026-01-25 04:12:51.69	8.75	38.05	-35.0	-36.2	18.8	0.00e+00	0	61	0	1673527296	40	4154
2026-01-25 04:12:55.73	8.41	39.05	-34.8	-35.8	19.1	0.00e+00	0	61	0	1702887424	40	4001
2026-01-25 04:12:59.77	8.06	40.08	-35.1	-36.2	18.8	0.00e+00	0	61	0	1732247552	40	4158
2026-01-25 04:13:03.81	7.68	41.13	-35.4	-36.5	18.5	0.00e+00	0	61	0	1760559104	40	4340
2026-01-25 04:13:07.85	7.27	42.22	-35.2	-36.3	18.7	0.00e+00	0	61	0	1789919232	40	4212
2026-01-25 04:13:11.88	6.83	43.34	-35.2	-36.3	18.7	0.00e+00	0	61	0	1819279360	40	4209
2026-01-25 04:13:15.92	6.36	44.49	-35.6	-36.8	18.2	0.00e+00	0	61	0	1848639488	40	4464
2026-01-25 04:13:19.97	5.85	45.67	-35.5	-36.6	18.4	0.00e+00	0	61	0	1877999616	41	4125
2026-01-25 04:13:24.01	5.31	46.89	-35.8	-37.0	18.1	0.00e+00	0	61	0	1906311168	41	4312
2026-01-25 04:13:28.04	4.71	48.14	-36.3	-37.5	17.6	0.00e+00	0	61	0	1935671296	42	4338
2026-01-25 04:13:32.08	4.06	49.42	-36.5	-37.8	17.3	0.00e+00	0	61	0	1965031424	42	4462
2026-01-25 04:13:36.13	3.36	50.74	-36.4	-37.6	17.5	0.00e+00	0	61	0	1994391552	43	4120
2026-01-25 04:13:40.16	2.59	52.09	-36.1	-37.3	17.8	0.00e+00	0	62	0	2023751680	42	4229
2026-01-25 04:13:44.21	1.73	53.47	-36.8	-38.1	17.0	0.00e+00	0	62	0	2052063232	43	4360
2026-01-25 04:13:48.25	0.80	54.89	-36.7	-38.0	17.3	0.00e+00	0	61	0	2081423360	44	4068
2026-01-25 04:13:52.29	359.76	56.33	-37.0	-38.3	16.8	0.00e+00	0	62	0	2110783488	43	4467
2026-01-25 04:13:56.33	358.61	57.80	-37.0	-38.3	17.0	0.00e+00	0	61	0	2140143616	44	4204
2026-01-25 04:14:00.37	357.32	59.30	-36.4	-37.7	17.5	0.00e+00	0	62	0	2169503744	43	4156
2026-01-25 04:14:04.41	355.87	60.82	-36.2	-37.4	17.7	0.00e+00	0	62	0	2198863872	42	4261
2026-01-25 04:14:08.45	354.23	62.36	-36.3	-37.5	17.6	0.00e+00	0	62	0	2227175424	42	4319
2026-01-25 04:14:12.49	352.37	63.91	-35.6	-36.8	18.3	0.00e+00	0	62	0	2256535552	41	4216
2026-01-25 04:14:16.52	350.24	65.46	-35.1	-36.2	18.9	0.00e+00	0	61	0	2285895680	40	4167
2026-01-25 04:14:20.56	347.78	67.02	-35.3	-36.4	18.7	0.00e+00	0	62	0	2315255808	40	4284
2026-01-25 04:14:24.61	344.93	68.55	-35.2	-36.3	18.7	0.00e+00	0	62	0	2344615936	40	4224
2026-01-25 04:14:28.64	341.61	70.05	-35.8	-37.0	18.1	0.00e+00	0	62	0	2372927488	41	4326
2026-01-25 04:14:32.69	337.70	71.51	-35.6	-36.8	18.3	0.00e+00	0	62	0	2402287616	41	4215
2026-01-25 04:14:36.72	333.13	72.88	-34.9	-35.9	18.9	0.00e+00	0	61	0	2431647744	40	4050
2026-01-25 04:14:40.76	327.73	74.15	-34.7	-35.7	19.3	0.00e+00	0	62	0	2461007872	40	3941
2026-01-25 04:14:44.80	321.41	75.27	-34.6	-35.6	19.5	0.00e+00	0	61	0	2490368000	39	4138
2026-01-25 04:14:48.84	314.11	76.19	-34.4	-35.4	19.6	0.00e+00	0	61	0	2519728128	39	4048
2026-01-25 04:14:52.88	305.87	76.88	-34.0	-35.0	20.0	0.00e+00	0	61	0	2548039680	38	4093
2026-01-25 04:14:56.91	296.92	77.27	-34.0	-35.0	20.1	0.00e+00	0	62	0	2577399808	38	4061
2026-01-25 04:15:00.95	287.61	77.35	-34.4	-35.4	19.7	0.00e+00	0	62	0	2606759936	38	4282
2026-01-25 04:15:04.99	278.42	77.10	-34.2	-35.2	19.8	0.00e+00	0	62	0	2636120064	38	4187
2026-01-25 04:15:09.03	269.80	76.55	-34.6	-35.7	19.4	0.00e+00	0	62	0	2665480192	39	4167
2026-01-25 04:15:13.07	262.04	75.73	-34.9	-36.0	19.1	0.00e+00	0	62	0	2693791744	39	4326
2026-01-25 04:15:17.11	255.26	74.69	-35.1	-36.2	18.9	0.00e+00	0	62	0	2723151872	39	4406
2026-01-25 04:15:21.15	249.43	73.49	-35.1	-36.2	18.9	0.00e+00	0	62	0	2752512000	40	4153
2026-01-25 04:15:25.20	244.46	72.15	-35.2	-36.3	18.7	0.00e+00	0	62	0	2781872128	40	4215
2026-01-25 04:15:29.23	240.27	70.73	-35.1	-36.2	18.8	0.00e+00	0	62	0	2811232256	40	4186
2026-01-25 04:15:33.28	236.68	69.25	-35.4	-36.6	18.5	0.00e+00	0	62	0	2840592384	40	4343
2026-01-25 04:15:37.32	233.62	67.72	-35.5	-36.7	18.3	0.00e+00	0	62	0	2868903936	40	4423
2026-01-25 04:15:41.35	230.99	66.17	-35.4	-36.6	18.5	0.00e+00	0	62	0	2898264064	40	4356
2026-01-25 04:15:45.39	228.71	64.62	-35.5	-36.6	18.4	0.00e+00	0	62	0	2927624192	41	4122
2026-01-25 04:15:49.43	226.73	63.06	-36.0	-37.3	17.8	0.00e+00	0	62	0	2956984320	41	4449
2026-01-25 04:15:53.47	224.99	61.51	-36.0	-37.2	17.8	0.00e+00	0	62	0	2986344448	41	4428
2026-01-25 04:15:57.51	223.45	59.97	-36.3	-37.5	17.5	0.00e+00	0	62	0	3014656000	42	4319
2026-01-25 04:16:01.55	222.09	58.46	-36.6	-37.8	17.3	0.00e+00	0	62	0	3044016128	42	4492
2026-01-25 04:16:05.59	220.87	56.97	-36.1	-37.3	17.8	0.00e+00	0	62	0	3073376256	42	4222
2026-01-25 04:16:09.63	219.78	55.51	-36.4	-37.6	17.5	0.00e+00	0	62	0	3102736384	43	4133
2026-01-25 04:16:13.66	218.80	54.08	-36.0	-37.2	18.0	0.00e+00	0	62	0	3132096512	42	4157
2026-01-25 04:16:17.70	217.91	52.68	-36.6	-37.9	17.3	0.00e+00	0	62	0	3161456640	42	4498
2026-01-25 04:16:21.74	217.10	51.31	-36.8	-38.1	17.0	0.00e+00	0	62	0	3189768192	43	4368
2026-01-25 04:16:25.78	216.36	49.97	-36.2	-37.4	17.6	0.00e+00	0	62	0	3219128320	43	4025
2026-01-25 04:16:29.82	215.69	48.67	-36.1	-37.3	17.7	0.00e+00	0	62	0	3248488448	43	4001
2026-01-25 04:16:33.86	215.07	47.40	-35.8	-37.0	18.1	0.00e+00	0	62	0	3277848576	42	4065
2026-01-25 04:16:37.90	214.50	46.16	-35.8	-37.0	18.1	0.00e+00	0	62	0	3306160128	42	4081
2026-01-25 04:16:41.94	213.97	44.96	-35.4	-36.5	18.5	0.00e+00	0	62	0	3335520256	41	4094
2026-01-25 04:16:45.98	213.48	43.79	-35.2	-36.4	18.7	0.00e+00	0	62	0	3364880384	41	4011
2026-01-25 04:16:50.02	213.03	42.65	-35.0	-36.1	18.9	0.00e+00	0	62	0	3394240512	40	4132
2026-01-25 04:16:54.05	212.60	41.54	-35.1	-36.2	18.9	0.00e+00	0	62	0	3423600640	40	4177
2026-01-25 04:16:58.10	212.21	40.47	-35.5	-36.7	18.3	0.00e+00	0	62	0	3451912192	40	4392
2026-01-25 04:17:02.14	211.84	39.42	-35.3	-36.5	18.5	0.00e+00	0	62	0	3481272320	40	4299
2026-01-25 04:17:06.18	211.49	38.40	-35.1	-36.2	18.8	0.00e+00	0	62	0	3510632448	40	4186
2026-01-25 04:17:10.21	211.17	37.42	-34.9	-36.0	19.0	0.00e+00	0	62	0	3539992576	40	4093
2026-01-25 04:17:14.25	210.87	36.46	-34.9	-36.0	19.0	0.00e+00	0	62	0	3568304128	40	4077
2026-01-25 04:17:18.29	210.58	35.52	-34.8	-35.9	19.0	0.00e+00	0	62	0	3597664256	40	4020
2026-01-25 04:17:22.33	210.31	34.62	-34.4	-35.4	19.6	0.00e+00	0	62	0	3627024384	39	4032
2026-01-25 04:17:26.37	210.05	33.73	-34.5	-35.6	19.5	0.00e+00	0	62	0	3656384512	39	4109
2026-01-25 04:17:30.41	209.81	32.87	-34.8	-35.9	19.1	0.00e+00	0	62	0	3685744640	39	4285
2026-01-25 04:17:34.45	209.58	32.04	-34.8	-35.8	19.1	0.00e+00	0	62	0	3715104768	39	4238
2026-01-25 04:17:38.49	209.37	31.23	-34.7	-35.7	19.3	0.00e+00	0	62	0	3743416320	39	4177
2026-01-25 04:17:42.52	209.16	30.44	-34.9	-36.0	19.0	0.00e+00	0	62	0	3772776448	39	4307
2026-01-25 04:17:46.57	208.96	29.66	-35.1	-36.2	18.8	0.00e+00	0	62	0	3802136576	39	4427
2026-01-25 04:17:50.61	208.78	28.91	-35.2	-36.3	18.7	0.00e+00	0	62	0	3831496704	39	4474
2026-01-25 04:17:54.65	208.60	28.18	-35.1	-36.2	18.7	0.00e+00	0	62	0	3860856832	40	4181
2026-01-25 04:17:58.69	208.43	27.47	-35.1	-36.3	18.6	0.00e+00	0	62	0	3889168384	40	4196
2026-01-25 04:18:02.73	208.27	26.77	-35.2	-36.4	18.5	0.00e+00	0	62	0	3918528512	40	4247
2026-01-25 04:18:06.77	208.12	26.09	-35.3	-36.5	18.4	0.00e+00	0	62	0	3947888640	40	4302
2026-01-25 04:18:10.81	207.97	25.43	-35.4	-36.6	18.3	0.00e+00	0	62	0	3977248768	40	4347
2026-01-25 04:18:14.84	207.83	24.79	-35.4	-36.6	18.2	0.00e+00	0	62	0	4006608896	40	4377
2026-01-25 04:18:18.88	207.70	24.16	-35.5	-36.6	18.2	0.00e+00	0	62	0	4035969024	40	4388
2026-01-25 04:18:22.93	207.57	23.54	-35.5	-36.6	18.2	0.00e+00	0	62	0	4064280576	40	4388
2026-01-25 04:18:26.96	207.44	22.94	-35.5	-36.7	18.1	0.00e+00	0	62	0	4093640704	40	4406
2026-01-25 04:18:31.00	207.32	22.35	-35.5	-36.7	18.0	0.00e+00	0	62	0	4123000832	40	4433
2026-01-25 04:18:35.04	207.21	21.78	-35.6	-36.8	17.9	0.00e+00	0	62	0	4152360960	40	4488
2026-01-25 04:18:39.08	207.10	21.21	-35.6	-36.8	18.0	0.00e+00	0	62	0	4181721088	40	4466
2026-01-25 04:18:43.11	207.00	20.66	-35.6	-36.8	17.9	0.00e+00	0	62	0	4210032640	40	4466
2026-01-25 04:18:47.15	206.90	20.13	-35.7	-36.9	17.9	0.00e+00	0	62	0	4239392768	40	4511
2026-01-25 04:18:51.19	206.80	19.60	-35.8	-37.0	17.7	0.00e+00	0	62	0	4268752896	41	4310
2026-01-25 04:18:55.23	206.70	19.08	-35.9	-37.1	17.5	0.00e+00	0	62	0	4298113024	41	4391
2026-01-25 04:18:59.27	206.61	18.58	-36.1	-37.3	17.3	0.00e+00	0	62	0	4327473152	41	4485
2026-01-25 04:19:03.31	206.53	18.08	-36.3	-37.6	17.1	0.00e+00	0	62	0	4356833280	42	4353
2026-01-25 04:19:07.34	206.44	17.60	-36.5	-37.8	16.8	0.00e+00	0	62	0	4385144832	42	4493
2026-01-25 04:19:11.38	206.36	17.12	-36.5	-37.9	16.8	0.00e+00	0	62	0	4414504960	42	4504
2026-01-25 04:19:15.43	206.29	16.65	-36.6	-38.0	16.6	0.00e+00	0	62	0	4443865088	42	4576
2026-01-25 04:19:19.47	206.21	16.19	-36.8	-38.2	16.4	0.00e+00	0	62	0	4473225216	43	4406
2026-01-25 04:19:23.50	206.14	15.74	-36.8	-38.1	16.3	0.00e+00	0	62	0	4502585344	43	4388
2026-01-25 04:19:27.53	206.07	15.30	-36.9	-38.3	16.2	0.00e+00	0	62	0	4530896896	43	4462
2026-01-25 04:19:31.57	206.00	14.87	-36.8	-38.3	16.3	0.00e+00	0	62	0	4560257024	43	4447
2026-01-25 04:19:35.61	205.93	14.44	-37.0	-38.5	16.1	0.00e+00	0	62	0	4589617152	43	4563
2026-01-25 04:19:39.64	205.87	14.02	-36.9	-38.4	16.2	0.00e+00	0	62	0	4617928704	43	4502
2026-01-25 04:19:43.68	205.81	13.61	-37.0	-38.5	16.0	0.00e+00	0	62	0	4647288832	43	4556
2026-01-25 04:19:47.72	205.75	13.21	-37.0	-38.5	16.0	0.00e+00	0	62	0	4676648960	43	4561
2026-01-25 04:19:51.77	205.69	12.81	-37.1	-38.6	15.9	0.00e+00	0	62	0	4706009088	43	4614
2026-01-25 04:19:55.80	205.64	12.41	-37.4	-38.9	15.6	0.00e+00	0	62	0	4735369216	44	4508
2026-01-25 04:19:59.84	205.58	12.03	-37.5	-39.0	15.5	0.00e+00	0	62	0	4763680768	44	4589
2026-01-25 04:20:03.88	205.53	11.65	-37.5	-39.1	15.4	0.00e+00	0	62	0	4793040896	44	4620
2026-01-25 04:20:07.92	205.48	11.27	-37.6	-39.2	15.3	1.10e-06	0	62	0	4822401024	44	4687
2026-01-25 04:20:11.96	205.43	10.90	-37.7	-39.4	15.1	0.00e+00	0	62	0	4851761152	45	4505
2026-01-25 04:20:15.99	205.38	10.54	-37.9	-39.6	14.7	0.00e+00	0	62	0	4881121280	45	4638
2026-01-25 04:20:20.03	205.34	10.18	-37.9	-39.6	14.7	0.00e+00	0	62	0	4910481408	45	4649
2026-01-25 04:20:24.07	205.29	9.83	-38.1	-39.9	14.4	0.00e+00	0	62	0	4938792960	45	4773
2026-01-25 04:20:28.11	205.25	9.48	-38.3	-40.1	14.2	1.10e-06	0	62	0	4968153088	46	4602
2026-01-25 04:20:32.15	205.21	9.14	-38.3	-40.1	14.0	0.00e+00	0	62	0	4997513216	46	4651
2026-01-25 04:20:36.19	205.16	8.80	-38.4	-40.2	13.9	9.10e-06	0	62	0	5026873344	46	4692
2026-01-25 04:20:40.23	205.12	8.47	-38.5	-40.5	13.6	1.37e-05	0	62	0	5056233472	46	4829
2026-01-25 04:20:44.27	205.09	8.14	-38.6	-40.6	13.4	2.28e-05	0	62	0	5084545024	46	4896
2026-01-25 04:20:48.31	205.05	7.81	-45.4	-56.8	3.8	8.46e-01	0	62	104	5097127936	60	14116
2026-01-25 04:20:52.36	205.01	7.49	-45.6	-56.9	3.8	8.46e-01	0	62	104	5097127936	60	14327
2026-01-25 04:20:56.40	204.98	7.17	-45.6	-56.9	3.8	8.47e-01	0	62	104	5097127936	60	14268
2026-01-25 04:21:00.44	204.94	6.86	-45.6	-57.0	3.8	8.46e-01	0	62	104	5097127936	60	14381
2026-01-25 04:21:04.48	204.91	6.55	-45.5	-56.9	3.8	8.46e-01	0	62	104	5097127936	60	14214
2026-01-25 04:21:08.52	204.87	6.24	-45.5	-56.8	3.8	8.47e-01	0	62	104	5097127936	60	14203
2026-01-25 04:21:12.56	204.84	5.94	-45.5	-56.8	3.8	8.47e-01	0	62	104	5097127936	60	14199
2026-01-25 04:21:16.61	204.81	5.64	-45.5	-56.8	3.8	8.46e-01	0	62	104	5097127936	60	14171
2026-01-25 04:21:20.65	204.78	5.35	-45.5	-56.8	3.8	8.45e-01	0	62	104	5097127936	60	14125
2026-01-25 04:21:24.69	204.75	5.05	-45.5	-56.8	3.8	8.46e-01	0	62	104	5097127936	60	14122
2026-01-25 04:21:28.73	204.72	4.77	-45.4	-56.8	3.8	8.46e-01	0	62	104	5097127936	60	14152
2026-01-25 04:21:32.77	204.69	4.48	-45.4	-56.8	3.8	8.46e-01	0	62	104	5097127936	60	14127
2026-01-25 04:21:36.82	204.67	4.20	-45.4	-56.8	3.8	8.46e-01	0	62	104	5097127936	60	14146
2026-01-25 04:21:40.86	204.64	3.92	-45.4	-56.8	3.8	8.46e-01	0	62	104	5097127936	60	14052
2026-01-25 04:21:44.90	204.62	3.64	-45.4	-56.8	3.8	8.45e-01	0	62	104	5097127936	60	14070
2026-01-25 04:21:48.94	204.59	3.36	-45.4	-56.7	3.8	8.46e-01	0	62	104	5097127936	60	14028
2026-01-25 04:21:52.98	204.57	3.09	-45.4	-56.8	3.8	8.46e-01	0	62	104	5097127936	60	14109
2026-01-25 04:21:57.02	204.54	2.82	-45.4	-56.8	3.8	8.45e-01	0	62	104	5097127936	60	14060
2026-01-25 04:22:01.06	204.52	2.56	-45.4	-56.8	3.8	8.46e-01	0	62	104	5097127936	60	14060
2026-01-25 04:22:05.10	204.50	2.29	-45.4	-56.8	3.8	8.46e-01	0	62	104	5097127936	60	14049
2026-01-25 04:22:09.14	204.47	2.03	-45.4	-56.8	3.8	8.46e-01	0	62	104	5097127936	60	14093

#Closed at: 2026-01-25 04:22:12
#Recorded file [5097 MB]: D:/lorett/data/31039_260125_070748.dat