passes_logs/2026/01/25/R2.0S_Moscow/R2.0S_Moscow__20260125_101124_AQUA_rec.log

#Pass ID: 20260125_101124_AQUA
#Satellite: AQUA
#Configuration: AQUA
#almurnet v.1.7.20251203
#Start time: 2026-01-25 10:12:49

#Version: 2.2.20231116
#Station: R2.0S_Moscow
#Location: 37.707566 lon 55.798166 lat
#TLE: 1 27424U 02022A   26024.53919639  .00001970  00000+0  40397-3 0  9996
#TLE: 2 27424  98.4098 351.1277 0001915  66.8561 358.4840 14.61855303262281

#Time	Az	El	Level	Level2	SNR	BER	BlckErr	Temp	State	Recorded	gain1	gain2
2026-01-25 10:12:49.91	106.49	7.34	-44.9	-59.5	3.8	1.49e+00	0	62	0	0	60	20405
2026-01-25 10:12:52.93	106.15	7.54	-46.6	-65.2	3.8	7.45e-01	0	62	104	0	63	32987
2026-01-25 10:12:55.96	105.80	7.74	-46.5	-64.9	3.8	7.48e-01	0	62	104	0	63	32128
2026-01-25 10:12:58.99	105.45	7.95	-46.0	-64.5	3.8	7.49e-01	0	62	104	0	63	30582
2026-01-25 10:13:02.02	105.09	8.15	-20.6	-37.4	3.4	7.47e-01	0	62	104	0	12	25544
2026-01-25 10:13:05.06	104.72	8.36	-22.2	-43.5	4.0	7.40e-01	0	62	104	0	18	36208
2026-01-25 10:13:08.09	104.35	8.56	-19.4	-37.6	4.0	7.58e-01	0	62	104	0	11	27661
2026-01-25 10:13:11.12	103.97	8.77	-26.2	-44.1	3.7	7.46e-01	0	62	104	0	22	30929
2026-01-25 10:13:14.15	103.59	8.98	-16.9	-36.3	3.8	7.50e-01	0	62	104	0	11	23717
2026-01-25 10:13:17.18	103.20	9.19	-18.4	-37.9	3.6	7.62e-01	0	62	104	0	6	38068
2026-01-25 10:13:20.21	102.80	9.40	-19.2	-38.5	3.7	7.61e-01	0	62	104	0	7	38637
2026-01-25 10:13:23.25	102.40	9.61	-17.7	-37.5	3.7	7.40e-01	0	62	104	0	9	30640
2026-01-25 10:13:26.28	101.99	9.82	-19.4	-37.9	4.0	7.63e-01	0	62	104	0	9	32086
2026-01-25 10:13:29.31	101.58	10.03	-17.9	-39.4	3.6	7.47e-01	0	62	104	0	10	35849
2026-01-25 10:13:32.34	101.16	10.24	-19.6	-43.0	3.8	7.67e-01	0	62	104	0	17	36115
2026-01-25 10:13:35.37	100.73	10.45	-24.1	-47.5	3.8	7.64e-01	0	62	104	0	16	64344
2026-01-25 10:13:38.40	100.29	10.67	-26.3	-44.6	3.7	7.44e-01	0	62	104	0	15	49208
2026-01-25 10:13:41.43	99.85	10.88	-19.7	-42.8	4.2	7.40e-01	0	62	104	0	12	47188
2026-01-25 10:13:44.45	99.40	11.09	-33.2	-46.6	3.6	7.55e-01	0	62	104	0	20	46063
2026-01-25 10:13:47.48	98.95	11.31	-19.7	-43.3	3.5	7.50e-01	0	62	104	0	10	56165
2026-01-25 10:13:50.51	98.48	11.52	-28.9	-48.5	4.6	7.39e-01	0	62	104	0	26	40716
2026-01-25 10:13:53.54	98.01	11.74	-26.6	-46.4	3.8	7.49e-01	0	62	104	0	19	47750
2026-01-25 10:13:56.57	97.53	11.95	-27.8	-47.8	6.0	6.87e-01	0	62	104	524288	29	31469
2026-01-25 10:13:59.60	97.05	12.17	-26.9	-45.8	4.0	7.59e-01	0	62	104	524288	17	49907
2026-01-25 10:14:02.62	96.55	12.38	-39.9	-46.1	14.4	6.08e-01	0	62	0	524288	48	8725
2026-01-25 10:14:05.65	96.05	12.60	-36.8	-46.2	11.2	6.23e-01	12	62	104	5242880	44	11119
2026-01-25 10:14:08.68	95.54	12.82	-41.7	-46.4	15.7	6.04e-01	0	62	0	10485760	54	6380
2026-01-25 10:14:11.71	95.02	13.03	-41.4	-45.8	16.0	6.06e-01	0	62	0	16252928	53	6294
2026-01-25 10:14:14.74	94.50	13.25	-41.7	-45.7	15.9	6.06e-01	0	62	0	22020096	54	5918
2026-01-25 10:14:17.76	93.96	13.46	-41.8	-46.0	16.2	6.06e-01	0	62	0	27787264	54	6124
2026-01-25 10:14:20.79	93.42	13.68	-42.4	-47.4	14.8	6.06e-01	0	62	0	33554432	55	6784
2026-01-25 10:14:23.82	92.87	13.89	-42.0	-46.5	15.8	6.07e-01	0	62	0	39321600	55	6071
2026-01-25 10:14:26.85	92.31	14.11	-42.2	-46.9	15.3	6.06e-01	0	62	0	44564480	55	6404
2026-01-25 10:14:29.88	91.74	14.32	-42.5	-47.8	14.3	6.09e-01	0	62	0	50331648	55	7041
2026-01-25 10:14:32.90	91.16	14.54	-42.1	-47.0	15.1	6.07e-01	0	62	0	56098816	54	6845
2026-01-25 10:14:35.92	90.57	14.75	-41.5	-45.5	16.5	6.07e-01	0	62	0	61865984	54	5760
2026-01-25 10:14:38.95	89.98	14.96	-41.4	-45.5	16.4	6.07e-01	0	62	0	67633152	53	6100
2026-01-25 10:14:41.98	89.37	15.17	-41.5	-45.9	15.9	6.08e-01	0	62	0	72876032	53	6397
2026-01-25 10:14:45.01	88.76	15.38	-41.5	-45.8	16.1	6.06e-01	0	62	0	78643200	53	6302
2026-01-25 10:14:48.03	88.13	15.59	-41.8	-46.7	14.9	6.09e-01	0	62	0	84410368	54	6613
2026-01-25 10:14:51.06	87.50	15.80	-41.7	-47.0	14.4	6.08e-01	0	62	0	90177536	54	6802
2026-01-25 10:14:54.09	86.86	16.00	-41.7	-47.6	13.4	6.11e-01	0	62	0	95944704	54	7348
2026-01-25 10:14:57.12	86.20	16.21	-41.8	-47.5	13.7	6.10e-01	0	62	0	101711872	54	7255
2026-01-25 10:15:00.14	85.54	16.41	-41.9	-47.7	13.7	6.08e-01	0	62	0	106954752	54	7414
2026-01-25 10:15:03.17	84.87	16.61	-41.9	-47.6	13.6	6.10e-01	0	62	0	112721920	54	7367
2026-01-25 10:15:06.20	84.19	16.81	-41.9	-47.0	14.6	6.07e-01	0	62	0	118489088	54	6848
2026-01-25 10:15:09.23	83.50	17.00	-42.0	-47.1	14.7	6.07e-01	0	62	0	124256256	54	6888
2026-01-25 10:15:12.26	82.80	17.20	-41.8	-46.6	15.1	6.07e-01	0	62	0	130023424	54	6503
2026-01-25 10:15:15.28	82.09	17.39	-41.7	-46.6	15.0	6.07e-01	0	62	0	135790592	54	6527
2026-01-25 10:15:18.31	81.37	17.58	-41.9	-46.9	14.8	6.07e-01	0	62	0	141033472	54	6736
2026-01-25 10:15:21.34	80.64	17.76	-41.7	-46.9	14.6	6.05e-01	0	62	0	146800640	54	6738
2026-01-25 10:15:24.37	79.90	17.95	-41.8	-48.0	13.0	6.13e-01	0	62	0	152567808	54	7706
2026-01-25 10:15:27.39	79.16	18.13	-41.9	-48.4	12.5	6.12e-01	0	62	0	158334976	54	8013
2026-01-25 10:15:30.42	78.40	18.30	-41.8	-47.7	13.4	6.08e-01	0	62	0	164102144	54	7388
2026-01-25 10:15:33.45	77.63	18.47	-41.7	-47.0	14.3	6.09e-01	0	62	0	169869312	54	6809
2026-01-25 10:15:36.48	76.86	18.64	-41.7	-47.2	14.1	6.10e-01	0	62	0	175112192	54	6994
2026-01-25 10:15:39.51	76.07	18.81	-41.9	-47.5	13.9	6.09e-01	0	61	0	180879360	54	7225
2026-01-25 10:15:42.54	75.28	18.97	-41.9	-47.5	13.8	6.06e-01	0	62	0	186646528	54	7278
2026-01-25 10:15:45.57	74.48	19.12	-41.9	-47.4	14.0	6.07e-01	0	62	0	192413696	54	7159
2026-01-25 10:15:48.60	73.66	19.27	-42.0	-47.4	14.3	6.07e-01	0	62	0	198180864	54	7123
2026-01-25 10:15:51.62	72.85	19.42	-42.1	-47.1	14.8	6.08e-01	0	62	0	203948032	54	6933
2026-01-25 10:15:54.65	72.02	19.56	-42.0	-47.0	15.0	6.07e-01	0	62	0	209190912	54	6841
2026-01-25 10:15:57.69	71.18	19.70	-42.2	-46.8	15.5	6.05e-01	0	62	0	214958080	54	6677
2026-01-25 10:16:00.72	70.34	19.83	-42.1	-46.2	16.5	6.07e-01	0	62	0	220725248	55	5873
2026-01-25 10:16:03.74	69.49	19.95	-42.0	-46.0	16.8	6.05e-01	0	62	0	226492416	55	5725
2026-01-25 10:16:06.77	68.63	20.07	-42.1	-45.9	17.0	6.05e-01	0	62	0	232259584	55	5702
2026-01-25 10:16:09.80	67.77	20.19	-42.1	-45.8	17.3	6.07e-01	0	62	0	238026752	55	5611
2026-01-25 10:16:12.83	66.89	20.30	-42.1	-45.7	17.5	6.05e-01	0	62	0	243269632	55	5543
2026-01-25 10:16:15.85	66.02	20.40	-42.2	-45.9	17.3	6.06e-01	0	61	0	249036800	55	5675
2026-01-25 10:16:18.88	65.14	20.49	-42.2	-45.8	17.5	6.05e-01	0	62	0	254803968	55	5594
2026-01-25 10:16:21.91	64.25	20.58	-42.2	-45.8	17.5	6.08e-01	0	61	0	260571136	55	5607
2026-01-25 10:16:24.94	63.35	20.66	-42.2	-45.8	17.5	6.06e-01	0	62	0	266338304	55	5625
2026-01-25 10:16:27.97	62.45	20.74	-42.2	-45.8	17.5	6.06e-01	0	61	0	272105472	55	5613
2026-01-25 10:16:31.00	61.55	20.81	-42.2	-45.8	17.5	6.07e-01	0	61	0	277348352	55	5635
2026-01-25 10:16:34.02	60.64	20.87	-42.1	-45.6	17.7	6.06e-01	0	62	0	283115520	55	5509
2026-01-25 10:16:37.05	59.73	20.92	-42.2	-45.8	17.6	6.07e-01	0	61	0	288882688	55	5594
2026-01-25 10:16:40.08	58.82	20.97	-42.2	-45.7	17.6	6.06e-01	0	62	0	294649856	55	5586
2026-01-25 10:16:43.11	57.90	21.01	-42.3	-45.9	17.4	6.04e-01	0	62	0	300417024	55	5697
2026-01-25 10:16:46.14	56.98	21.04	-42.2	-45.7	17.6	6.06e-01	0	62	0	305659904	55	5576
2026-01-25 10:16:49.17	56.06	21.06	-42.3	-45.9	17.4	6.07e-01	0	62	0	311427072	55	5703
2026-01-25 10:16:52.19	55.14	21.08	-42.2	-45.8	17.5	6.05e-01	0	61	0	317194240	55	5614
2026-01-25 10:16:55.22	54.22	21.09	-42.2	-45.8	17.6	6.04e-01	0	62	0	322961408	55	5607
2026-01-25 10:16:58.25	53.30	21.09	-42.2	-45.8	17.6	6.06e-01	0	62	0	328728576	55	5594
2026-01-25 10:17:01.27	52.38	21.09	-42.3	-45.9	17.5	6.06e-01	0	62	0	334495744	55	5675
2026-01-25 10:17:04.30	51.46	21.07	-42.3	-45.9	17.4	6.05e-01	0	62	0	340262912	55	5699
2026-01-25 10:17:07.33	50.53	21.05	-42.2	-45.7	17.7	6.06e-01	0	61	0	345505792	55	5542
2026-01-25 10:17:10.36	49.62	21.02	-42.3	-46.0	17.4	6.05e-01	0	62	0	351272960	55	5726
2026-01-25 10:17:13.39	48.70	20.99	-42.4	-46.0	17.3	6.06e-01	0	62	0	357040128	55	5767
2026-01-25 10:17:16.42	47.78	20.95	-42.2	-45.7	17.6	6.04e-01	0	62	0	362807296	55	5579
2026-01-25 10:17:19.45	46.87	20.90	-42.3	-45.9	17.4	6.06e-01	0	62	0	368574464	55	5712
2026-01-25 10:17:22.48	45.96	20.84	-42.2	-45.8	17.6	6.06e-01	0	62	0	373817344	55	5618
2026-01-25 10:17:25.51	45.06	20.78	-42.2	-45.8	17.6	6.07e-01	0	62	0	379584512	55	5599
2026-01-25 10:17:28.54	44.16	20.70	-42.2	-45.6	17.7	6.08e-01	0	62	0	385351680	55	5523
2026-01-25 10:17:31.57	43.26	20.63	-42.1	-45.5	17.9	6.05e-01	0	61	0	391118848	55	5433
2026-01-25 10:17:34.60	42.37	20.54	-42.2	-45.6	17.8	6.04e-01	0	62	0	396886016	55	5513
2026-01-25 10:17:37.63	41.49	20.45	-42.2	-45.7	17.7	6.05e-01	0	61	0	402653184	55	5555
2026-01-25 10:17:40.66	40.61	20.35	-42.2	-45.7	17.7	6.05e-01	0	62	0	408420352	55	5548
2026-01-25 10:17:43.69	39.73	20.25	-42.2	-45.6	17.8	6.07e-01	0	61	0	413663232	55	5509
2026-01-25 10:17:46.71	38.87	20.14	-42.1	-45.6	17.8	6.07e-01	0	61	0	419430400	55	5491
2026-01-25 10:17:49.74	38.01	20.02	-42.1	-45.6	17.8	6.08e-01	0	62	0	425197568	55	5477
2026-01-25 10:17:52.77	37.16	19.90	-42.2	-45.7	17.8	6.06e-01	0	61	0	430964736	55	5547
2026-01-25 10:17:55.80	36.31	19.77	-42.2	-45.6	17.8	6.06e-01	0	62	0	436731904	55	5514
2026-01-25 10:17:58.82	35.48	19.64	-42.1	-45.5	17.5	6.08e-01	0	61	0	441974784	55	5433
2026-01-25 10:18:01.85	34.65	19.50	-42.1	-45.4	18.0	6.06e-01	0	61	0	447741952	55	5402
2026-01-25 10:18:04.88	33.83	19.36	-42.1	-45.5	17.9	6.04e-01	0	62	0	453509120	55	5434
2026-01-25 10:18:07.91	33.01	19.21	-42.0	-45.3	18.1	6.05e-01	0	61	0	459276288	55	5327
2026-01-25 10:18:10.94	32.21	19.06	-42.0	-45.4	18.0	6.06e-01	0	61	0	465043456	55	5348
2026-01-25 10:18:13.97	31.41	18.90	-42.0	-45.4	18.0	6.07e-01	0	62	0	470810624	55	5351
2026-01-25 10:18:16.99	30.63	18.74	-42.1	-45.6	17.9	6.05e-01	0	62	0	476053504	55	5469
2026-01-25 10:18:20.02	29.85	18.57	-42.0	-45.4	18.0	6.03e-01	0	61	0	481820672	55	5384
2026-01-25 10:18:23.05	29.08	18.40	-42.1	-45.5	17.8	6.08e-01	0	61	0	487587840	55	5461
2026-01-25 10:18:26.08	28.32	18.23	-41.9	-45.2	18.1	6.05e-01	0	62	0	493355008	55	5271
2026-01-25 10:18:29.11	27.57	18.05	-42.0	-45.5	17.9	6.05e-01	0	62	0	499122176	55	5404
2026-01-25 10:18:32.14	26.83	17.87	-41.9	-45.3	18.0	6.05e-01	0	61	0	504889344	55	5311
2026-01-25 10:18:35.17	26.10	17.69	-41.9	-45.3	18.0	6.06e-01	0	62	0	510132224	55	5300
2026-01-25 10:18:38.20	25.38	17.50	-41.9	-45.2	18.1	6.06e-01	0	61	0	515899392	55	5278
2026-01-25 10:18:41.23	24.67	17.31	-41.9	-45.3	18.1	6.04e-01	0	62	0	521666560	55	5281
2026-01-25 10:18:44.25	23.97	17.12	-41.9	-45.3	18.0	6.06e-01	0	61	0	527433728	55	5305
2026-01-25 10:18:47.28	23.28	16.93	-42.0	-45.4	17.9	6.07e-01	0	61	0	533200896	55	5355
2026-01-25 10:18:50.31	22.59	16.73	-42.0	-45.4	17.9	6.06e-01	0	61	0	538968064	55	5347
2026-01-25 10:18:53.34	21.92	16.53	-42.1	-45.6	17.6	6.09e-01	0	61	0	544210944	55	5478
2026-01-25 10:18:56.37	21.25	16.33	-42.0	-45.5	17.6	6.06e-01	0	61	0	549978112	55	5450
2026-01-25 10:18:59.39	20.60	16.13	-41.9	-45.3	17.8	6.05e-01	0	62	0	555745280	55	5292
2026-01-25 10:19:02.42	19.96	15.93	-41.9	-45.3	17.8	6.06e-01	0	62	0	561512448	55	5308
2026-01-25 10:19:05.45	19.32	15.72	-41.9	-45.3	17.8	6.06e-01	0	62	0	567279616	55	5317
2026-01-25 10:19:08.48	18.70	15.51	-41.9	-45.3	17.8	6.07e-01	0	61	0	573046784	55	5322
2026-01-25 10:19:11.50	18.08	15.31	-42.0	-45.5	17.6	6.07e-01	0	62	0	578289664	55	5446
2026-01-25 10:19:14.53	17.47	15.10	-41.8	-45.3	17.8	6.07e-01	0	62	0	584056832	55	5302
2026-01-25 10:19:17.56	16.88	14.89	-41.8	-45.3	17.7	6.06e-01	0	62	0	589824000	55	5323
2026-01-25 10:19:20.58	16.29	14.68	-41.8	-45.4	17.7	6.05e-01	0	61	0	595591168	55	5343
2026-01-25 10:19:23.61	15.71	14.46	-41.9	-45.4	17.6	6.07e-01	0	61	0	601358336	55	5370
2026-01-25 10:19:26.64	15.14	14.25	-41.7	-45.2	17.7	6.08e-01	0	62	0	606601216	55	5255
2026-01-25 10:19:29.67	14.58	14.04	-41.9	-45.5	17.3	6.06e-01	0	61	0	612368384	55	5443
2026-01-25 10:19:32.70	14.02	13.82	-41.8	-45.5	17.4	6.06e-01	0	62	0	618135552	55	5403
2026-01-25 10:19:35.73	13.48	13.61	-41.8	-45.6	17.1	6.04e-01	0	61	0	623902720	55	5487
2026-01-25 10:19:38.76	12.94	13.39	-41.7	-45.5	17.2	6.04e-01	0	61	0	629669888	55	5410
2026-01-25 10:19:41.79	12.42	13.18	-41.7	-45.4	17.1	6.03e-01	0	62	0	635437056	55	5381
2026-01-25 10:19:44.81	11.90	12.97	-41.8	-45.7	16.6	6.01e-01	0	62	0	641204224	55	5589
2026-01-25 10:19:47.84	11.39	12.75	-41.6	-45.5	16.8	6.02e-01	0	62	0	646447104	55	5411
2026-01-25 10:19:50.87	10.88	12.54	-41.6	-45.7	16.4	6.02e-01	0	61	0	652214272	55	5575
2026-01-25 10:19:53.90	10.39	12.32	-41.2	-45.3	16.3	6.02e-01	0	61	0	657981440	54	5653
2026-01-25 10:19:56.93	9.90	12.11	-40.9	-45.2	16.2	6.04e-01	0	62	0	663748608	53	5860
2026-01-25 10:19:59.96	9.42	11.89	-41.2	-45.9	15.3	6.03e-01	0	61	0	669515776	53	6355
2026-01-25 10:20:02.98	8.95	11.68	-41.5	-47.5	13.3	6.06e-01	0	62	0	674758656	53	7680
2026-01-25 10:20:06.01	8.49	11.46	-41.8	-50.1	10.2	6.23e-01	0	62	0	680525824	54	9744
2026-01-25 10:20:09.04	8.03	11.25	-42.0	-53.4	6.5	6.72e-01	92	62	0	686292992	54	14352
2026-01-25 10:20:12.07	7.58	11.04	-41.9	-56.8	4.0	7.37e-01	0	62	104	689438720	54	21124
2026-01-25 10:20:15.10	7.14	10.82	-42.2	-60.1	3.8	7.44e-01	0	62	104	689438720	55	29189
2026-01-25 10:20:18.13	6.70	10.61	-41.1	-60.0	3.8	7.46e-01	0	62	104	689438720	53	32541
2026-01-25 10:20:21.16	6.27	10.40	-40.8	-59.7	3.8	7.47e-01	0	62	104	689438720	53	31277
2026-01-25 10:20:24.19	5.85	10.19	-41.6	-60.5	3.8	7.42e-01	0	62	104	689438720	53	34355
2026-01-25 10:20:27.21	5.44	9.98	-40.8	-59.7	3.8	7.45e-01	0	62	104	689438720	53	31360
2026-01-25 10:20:30.24	5.03	9.77	-40.7	-59.6	3.8	7.48e-01	0	62	104	689438720	53	31030
2026-01-25 10:20:33.27	4.63	9.56	-40.8	-59.8	3.8	7.45e-01	0	62	104	689438720	53	31589
2026-01-25 10:20:36.30	4.23	9.35	-40.7	-59.7	3.8	7.45e-01	0	62	104	689438720	53	31264
2026-01-25 10:20:39.33	3.84	9.14	-40.9	-59.9	3.8	7.44e-01	0	62	104	689438720	53	31990
2026-01-25 10:20:42.36	3.46	8.94	-40.8	-59.8	3.8	7.45e-01	0	62	104	689438720	53	31752
2026-01-25 10:20:45.38	3.09	8.73	-40.7	-59.7	3.8	7.43e-01	0	62	104	689438720	53	31111
2026-01-25 10:20:48.41	2.71	8.52	-40.7	-59.7	3.8	7.45e-01	0	62	104	689438720	53	31217
2026-01-25 10:20:51.44	2.35	8.32	-40.8	-59.8	3.8	7.46e-01	0	61	104	689438720	53	31583
2026-01-25 10:20:54.47	1.99	8.11	-40.8	-59.7	3.8	7.45e-01	0	62	104	689438720	53	31410
2026-01-25 10:20:57.50	1.63	7.91	-41.7	-60.7	3.8	7.47e-01	0	62	104	689438720	53	34944
2026-01-25 10:21:00.53	1.29	7.71	-46.1	-64.7	3.8	7.46e-01	0	62	104	689438720	62	32993
2026-01-25 10:21:03.57	0.94	7.51	-46.4	-64.8	3.9	7.49e-01	0	62	104	689438720	63	31773
2026-01-25 10:21:06.60	0.60	7.31	-46.4	-65.0	3.8	7.45e-01	0	62	104	689438720	63	32338
2026-01-25 10:21:09.63	0.27	7.11	-46.3	-64.8	3.8	7.46e-01	0	62	104	689438720	63	31564
2026-01-25 10:21:12.66	359.94	6.91	-46.1	-64.6	3.8	7.47e-01	0	61	104	689438720	63	30949
2026-01-25 10:21:15.69	359.62	6.71	-46.0	-64.6	3.7	7.49e-01	0	62	104	689438720	62	32714
2026-01-25 10:21:18.72	359.30	6.51	-46.1	-64.6	3.8	7.45e-01	0	62	104	689438720	62	32790
2026-01-25 10:21:21.75	358.99	6.32	-46.1	-64.6	3.8	7.42e-01	0	62	104	689438720	62	32834
2026-01-25 10:21:24.78	358.68	6.12	-46.1	-64.6	3.8	7.42e-01	0	62	104	689438720	62	32776
2026-01-25 10:21:27.82	358.38	5.93	-46.1	-64.6	3.8	7.44e-01	0	62	104	689438720	62	32712
2026-01-25 10:21:30.85	358.08	5.73	-46.1	-64.6	3.8	7.47e-01	0	62	104	689438720	62	32742
2026-01-25 10:21:33.88	357.78	5.54	-46.1	-64.6	3.8	7.47e-01	0	62	104	689438720	62	32727
2026-01-25 10:21:36.91	357.49	5.35	-46.1	-64.6	3.8	7.46e-01	0	62	104	689438720	62	32720
2026-01-25 10:21:39.94	357.21	5.16	-46.0	-64.6	3.8	7.44e-01	0	62	104	689438720	62	32686
2026-01-25 10:21:42.97	356.92	4.97	-46.0	-64.6	3.8	7.43e-01	0	62	104	689438720	62	32657
2026-01-25 10:21:46.01	356.65	4.78	-46.0	-64.6	3.8	7.46e-01	0	62	104	689438720	62	32602
2026-01-25 10:21:49.04	356.37	4.59	-46.0	-64.6	3.8	7.46e-01	0	62	104	689438720	62	32599
2026-01-25 10:21:52.07	356.10	4.40	-46.0	-64.6	3.8	7.46e-01	0	62	104	689438720	62	32601
2026-01-25 10:21:55.10	355.84	4.22	-46.0	-64.5	3.8	7.46e-01	0	62	104	689438720	62	32400
2026-01-25 10:21:58.14	355.57	4.03	-46.0	-64.5	3.8	7.44e-01	0	62	104	689438720	62	32489
2026-01-25 10:22:01.16	355.32	3.85	-46.0	-64.5	3.8	7.44e-01	0	62	104	689438720	62	32433
2026-01-25 10:22:04.20	355.06	3.66	-46.0	-64.5	3.8	7.44e-01	0	62	104	689438720	62	32305
2026-01-25 10:22:07.23	354.81	3.48	-45.9	-64.5	3.8	7.47e-01	0	62	104	689438720	62	32266
2026-01-25 10:22:10.26	354.56	3.30	-46.0	-64.5	3.8	7.46e-01	0	62	104	689438720	62	32334
2026-01-25 10:22:13.29	354.32	3.12	-46.0	-64.5	3.8	7.42e-01	0	62	104	689438720	62	32343
2026-01-25 10:22:16.32	354.08	2.93	-46.0	-64.5	3.8	7.47e-01	0	62	104	689438720	62	32303
2026-01-25 10:22:19.35	353.84	2.76	-46.0	-64.5	3.8	7.45e-01	0	62	104	689438720	62	32289
2026-01-25 10:22:22.39	353.61	2.58	-45.9	-64.5	3.8	7.43e-01	0	62	104	689438720	62	32279
2026-01-25 10:22:25.42	353.38	2.40	-46.0	-64.5	3.8	7.46e-01	0	62	104	689438720	62	32261
2026-01-25 10:22:28.45	353.15	2.22	-45.9	-64.5	3.8	7.46e-01	0	62	104	689438720	62	32331
2026-01-25 10:22:31.48	352.93	2.05	-45.9	-64.5	3.8	7.47e-01	0	62	104	689438720	62	32220

#Closed at: 2026-01-25 10:22:34
#Recorded file [689 MB]: D:/lorett/data/31039_260125_131249.dat