passes_logs/2026/01/25/R2.0S_Moscow/R2.0S_Moscow__20260125_075941_SUOMI_NPP_rec.log

#Pass ID: 20260125_075941_SUOMI NPP
#Satellite: SUOMI NPP
#Configuration: NPP
#almurnet v.1.7.20251203
#Start time: 2026-01-25 07:59:42

#Version: 2.2.20231116
#Station: R2.0S_Moscow
#Location: 37.707566 lon 55.798166 lat
#TLE: 1 37849U 11061A   26024.54906732  .00000185  00000+0  10878-3 0  9990
#TLE: 2 37849  98.7821 326.5159 0002200  47.3746 312.7615 14.19529340738061

#Time	Az	El	Level	Level2	SNR	BER	BlckErr	Temp	State	Recorded	gain1	gain2
2026-01-25 07:59:42.00	101.42	2.04	-40.2	-54.7	3.8	1.49e+00	0	52	0	0	51	19827
2026-01-25 07:59:45.02	101.18	2.20	-40.1	-54.7	3.8	1.49e+00	0	53	104	0	52	18562
2026-01-25 07:59:48.05	100.94	2.36	-40.2	-54.8	3.8	1.49e+00	0	53	104	0	51	19848
2026-01-25 07:59:51.08	100.69	2.52	-40.2	-54.7	3.8	1.49e+00	0	53	104	0	51	19760
2026-01-25 07:59:54.11	100.45	2.68	-40.2	-54.7	3.8	1.49e+00	0	53	104	0	51	19810
2026-01-25 07:59:57.14	100.19	2.84	-40.2	-54.7	3.8	1.49e+00	0	53	104	0	51	19806
2026-01-25 08:00:00.18	99.94	3.00	-40.2	-54.7	3.8	1.49e+00	0	54	104	0	51	19789
2026-01-25 08:00:03.21	99.68	3.16	-40.2	-54.7	3.8	1.49e+00	0	54	104	0	51	19765
2026-01-25 08:00:06.24	99.42	3.33	-40.2	-54.7	3.8	1.49e+00	0	54	104	0	51	19797
2026-01-25 08:00:09.27	99.16	3.49	-40.1	-54.7	3.8	1.49e+00	0	54	104	0	51	19786
2026-01-25 08:00:12.30	98.89	3.65	-40.2	-54.7	3.8	1.49e+00	0	54	104	0	51	19748
2026-01-25 08:00:15.33	98.62	3.82	-40.2	-54.7	3.8	1.49e+00	0	54	104	0	51	19729
2026-01-25 08:00:18.36	98.35	3.98	-40.2	-54.7	3.8	1.49e+00	0	54	104	0	51	19753
2026-01-25 08:00:21.39	98.08	4.15	-40.2	-54.7	3.8	1.49e+00	0	55	104	0	51	19816
2026-01-25 08:00:24.42	97.80	4.31	-40.1	-54.7	3.8	1.49e+00	0	55	104	0	51	19738
2026-01-25 08:00:27.45	97.51	4.48	-40.1	-54.7	3.8	1.49e+00	0	55	104	0	51	19752
2026-01-25 08:00:30.48	97.23	4.64	-40.1	-54.7	3.8	1.49e+00	0	55	104	0	51	19764
2026-01-25 08:00:33.51	96.94	4.81	-40.1	-54.7	3.8	1.49e+00	0	55	104	0	51	19740
2026-01-25 08:00:36.54	96.65	4.98	-40.1	-54.7	3.8	1.49e+00	0	55	104	0	51	19772
2026-01-25 08:00:39.57	96.35	5.14	-40.1	-54.7	3.8	1.49e+00	0	56	104	0	51	19744
2026-01-25 08:00:42.61	96.05	5.31	-40.1	-54.7	3.8	1.49e+00	0	56	104	0	51	19756
2026-01-25 08:00:45.64	95.75	5.48	-40.0	-54.7	3.8	1.49e+00	0	56	104	0	51	19699
2026-01-25 08:00:48.67	95.45	5.65	-40.1	-54.7	3.8	1.49e+00	0	56	104	0	51	19755
2026-01-25 08:00:51.70	95.14	5.82	-40.1	-54.7	3.8	1.49e+00	0	56	104	0	51	19761
2026-01-25 08:00:54.73	94.82	5.99	-40.1	-54.7	3.8	1.49e+00	0	57	104	0	51	19700
2026-01-25 08:00:57.76	94.51	6.15	-40.1	-54.7	3.8	1.49e+00	0	56	104	0	51	19677
2026-01-25 08:01:00.79	94.18	6.32	-40.1	-54.7	3.8	1.49e+00	0	57	104	0	51	19746
2026-01-25 08:01:03.83	93.86	6.49	-40.1	-54.7	3.8	1.49e+00	0	57	104	0	51	19693
2026-01-25 08:01:06.86	93.53	6.66	-40.1	-54.7	3.8	1.49e+00	0	57	104	0	51	19632
2026-01-25 08:01:09.89	93.20	6.83	-40.1	-54.7	3.8	1.49e+00	0	57	104	0	51	19711
2026-01-25 08:01:12.92	92.86	7.00	-40.1	-54.7	3.8	1.49e+00	0	57	104	0	51	19698
2026-01-25 08:01:15.95	92.52	7.17	-40.1	-54.7	3.8	1.49e+00	0	57	104	0	51	19672
2026-01-25 08:01:18.98	92.18	7.35	-40.1	-54.7	3.8	1.49e+00	0	57	104	0	51	19699
2026-01-25 08:01:22.01	91.83	7.52	-40.1	-54.7	3.8	1.49e+00	0	57	104	0	51	19647
2026-01-25 08:01:25.05	91.47	7.69	-40.1	-54.7	3.8	1.49e+00	0	57	104	0	51	19749
2026-01-25 08:01:28.07	91.12	7.86	-40.1	-54.6	3.8	1.49e+00	0	57	104	0	51	19411
2026-01-25 08:01:31.11	90.76	8.03	-40.1	-54.0	3.8	1.49e+00	0	58	104	0	51	18141
2026-01-25 08:01:34.13	90.39	8.20	-40.1	-54.7	3.8	1.49e+00	0	58	104	0	51	19666
2026-01-25 08:01:37.16	90.02	8.37	-40.3	-54.7	3.8	1.49e+00	0	58	104	0	51	19625
2026-01-25 08:01:40.20	89.64	8.54	-40.5	-55.1	3.8	1.49e+00	0	58	104	0	51	20553
2026-01-25 08:01:43.22	89.27	8.71	-40.5	-55.1	3.8	1.49e+00	0	58	104	0	51	20568
2026-01-25 08:01:46.25	88.88	8.89	-40.2	-54.8	3.8	1.49e+00	0	58	104	0	52	18864
2026-01-25 08:01:49.28	88.49	9.06	-40.6	-55.1	3.8	1.49e+00	0	58	104	0	52	19539
2026-01-25 08:01:52.31	88.10	9.23	-40.4	-55.0	3.8	1.49e+00	0	58	104	0	52	19306
2026-01-25 08:01:55.34	87.70	9.40	-40.4	-55.0	3.8	1.49e+00	0	58	104	0	51	20390
2026-01-25 08:01:58.37	87.30	9.57	-40.3	-54.9	3.8	1.49e+00	0	58	104	0	51	20267
2026-01-25 08:02:01.40	86.89	9.74	-40.5	-55.0	3.8	1.49e+00	0	58	104	0	51	20504
2026-01-25 08:02:04.43	86.48	9.91	-40.5	-55.0	3.8	1.49e+00	0	58	104	0	51	20443
2026-01-25 08:02:07.46	86.07	10.08	-40.5	-55.0	3.8	1.49e+00	0	58	104	0	51	20450
2026-01-25 08:02:10.48	85.64	10.25	-40.4	-54.9	3.8	1.49e+00	0	59	104	0	51	20215
2026-01-25 08:02:13.51	85.22	10.42	-38.8	-54.5	3.8	1.49e+00	0	59	104	0	50	20372
2026-01-25 08:02:16.54	84.79	10.59	-40.4	-54.9	3.8	1.49e+00	0	59	104	0	51	20268
2026-01-25 08:02:19.57	84.35	10.76	-40.3	-54.8	3.8	1.49e+00	0	59	104	0	51	20058
2026-01-25 08:02:22.60	83.91	10.92	-40.3	-54.9	3.8	1.49e+00	0	59	104	0	51	20176
2026-01-25 08:02:25.63	83.46	11.09	-40.4	-54.9	3.8	1.49e+00	0	59	104	0	51	20238
2026-01-25 08:02:28.66	83.01	11.26	-40.4	-55.0	3.8	1.49e+00	0	59	104	0	51	20316
2026-01-25 08:02:31.69	82.55	11.42	-40.3	-54.8	3.8	1.49e+00	0	59	104	0	51	20047
2026-01-25 08:02:34.72	82.09	11.59	-40.3	-54.9	3.8	1.49e+00	0	59	104	0	51	20160
2026-01-25 08:02:37.75	81.62	11.76	-40.2	-54.8	3.8	1.49e+00	0	59	104	0	51	20041
2026-01-25 08:02:40.78	81.15	11.92	-40.5	-55.1	3.8	1.49e+00	0	59	104	0	51	20700
2026-01-25 08:02:43.80	80.67	12.08	-40.4	-54.9	3.8	1.49e+00	0	59	104	0	51	20180
2026-01-25 08:02:46.83	80.18	12.25	-40.5	-55.1	3.8	1.49e+00	0	59	104	0	51	20647
2026-01-25 08:02:49.86	79.69	12.41	-40.4	-55.0	3.8	1.49e+00	0	59	104	0	52	19170
2026-01-25 08:02:52.89	79.20	12.57	-40.7	-55.3	3.8	1.49e+00	0	59	104	0	52	19954
2026-01-25 08:02:55.92	78.70	12.73	-40.4	-55.0	3.8	1.49e+00	0	59	104	0	52	19349
2026-01-25 08:02:58.94	78.19	12.88	-40.7	-55.3	3.8	1.49e+00	0	60	104	0	52	19934
2026-01-25 08:03:01.97	77.68	13.04	-40.6	-55.2	3.8	1.49e+00	0	60	104	0	52	19757
2026-01-25 08:03:05.00	77.17	13.20	-41.2	-55.4	3.8	1.49e+00	0	60	104	0	52	20201
2026-01-25 08:03:08.03	76.64	13.35	-40.7	-55.4	3.8	1.49e+00	0	59	104	0	53	18975
2026-01-25 08:03:11.06	76.11	13.51	-41.1	-55.5	3.8	1.49e+00	0	60	104	0	53	19244
2026-01-25 08:03:14.09	75.58	13.66	-41.0	-55.5	3.8	1.49e+00	0	60	104	0	53	19335
2026-01-25 08:03:17.12	75.04	13.81	-41.1	-55.0	3.8	1.49e+00	0	60	104	0	53	18206
2026-01-25 08:03:20.15	74.50	13.96	-41.1	-55.3	3.8	1.49e+00	0	60	104	0	53	18827
2026-01-25 08:03:23.18	73.95	14.10	-41.0	-51.6	4.4	1.27e+00	0	60	0	1048576	53	12278
2026-01-25 08:03:26.21	73.39	14.25	-40.9	-50.7	4.8	8.10e-01	0	60	0	6291456	53	11080
2026-01-25 08:03:29.24	72.83	14.39	-40.9	-54.8	3.8	1.33e+00	0	60	104	9437184	53	17712
2026-01-25 08:03:32.27	72.26	14.53	-40.6	-49.9	5.1	7.33e-01	0	60	0	10485760	53	10115
2026-01-25 08:03:35.30	71.69	14.67	-40.5	-49.0	5.8	4.56e-01	0	60	0	15728640	53	9117
2026-01-25 08:03:38.32	71.12	14.81	-40.9	-49.6	5.5	5.23e-01	0	60	0	22020096	53	9825
2026-01-25 08:03:41.35	70.53	14.94	-41.1	-48.9	6.1	1.33e+00	0	60	104	24117248	54	8527
2026-01-25 08:03:44.38	69.95	15.07	-40.9	-47.8	7.4	1.13e-01	0	60	0	27262976	53	7911
2026-01-25 08:03:47.41	69.35	15.20	-40.8	-46.9	8.5	4.73e-02	0	60	0	32505856	53	7136
2026-01-25 08:03:50.43	68.76	15.33	-40.9	-46.7	8.9	2.73e-02	0	60	0	38797312	53	6988
2026-01-25 08:03:53.46	68.15	15.46	-40.9	-46.1	9.8	1.03e-02	0	60	0	44040192	53	6539
2026-01-25 08:03:56.49	67.55	15.58	-41.0	-45.9	10.4	5.50e-03	0	61	0	49283072	53	6369
2026-01-25 08:03:59.52	66.93	15.70	-41.0	-45.3	11.3	1.36e-03	0	60	0	55574528	53	5944
2026-01-25 08:04:02.55	66.31	15.82	-41.2	-45.5	11.4	1.08e-03	0	60	0	60817408	53	6072
2026-01-25 08:04:05.57	65.69	15.93	-41.0	-44.9	12.1	4.05e-04	0	60	0	67108864	53	5701
2026-01-25 08:04:08.60	65.07	16.04	-40.7	-44.2	13.0	1.23e-04	0	60	0	72351744	53	5227
2026-01-25 08:04:11.63	64.43	16.15	-40.8	-44.3	13.0	4.34e-05	0	61	0	77594624	53	5292
2026-01-25 08:04:14.66	63.80	16.26	-40.9	-44.5	12.8	5.03e-05	0	60	0	83886080	53	5442
2026-01-25 08:04:17.69	63.16	16.36	-41.1	-44.9	12.3	1.44e-04	0	60	0	89128960	53	5718
2026-01-25 08:04:20.72	62.51	16.46	-41.1	-45.0	12.2	1.76e-04	0	61	0	95420416	53	5787
2026-01-25 08:04:23.74	61.86	16.55	-41.1	-45.0	12.3	1.13e-04	0	60	0	100663296	53	5768
2026-01-25 08:04:26.77	61.21	16.65	-41.3	-45.4	12.0	3.62e-04	0	60	0	106954752	53	5998
2026-01-25 08:04:29.80	60.55	16.74	-41.2	-45.1	12.2	2.79e-04	0	60	0	112197632	53	5849
2026-01-25 08:04:32.84	59.89	16.82	-41.4	-45.5	12.0	2.75e-04	0	60	0	117440512	53	6082
2026-01-25 08:04:35.86	59.22	16.90	-41.3	-45.4	12.0	3.03e-04	0	61	0	123731968	53	6008
2026-01-25 08:04:38.90	58.55	16.98	-41.3	-45.2	12.2	2.28e-04	0	60	0	128974848	53	5896
2026-01-25 08:04:41.93	57.88	17.06	-41.1	-44.8	12.6	9.00e-05	0	61	0	135266304	53	5627
2026-01-25 08:04:44.96	57.20	17.13	-41.3	-45.2	12.3	2.26e-04	0	61	0	140509184	53	5862
2026-01-25 08:04:47.99	56.52	17.19	-41.1	-44.8	12.7	1.51e-04	0	61	0	145752064	53	5637
2026-01-25 08:04:51.02	55.84	17.25	-41.1	-44.9	12.5	9.53e-05	0	61	0	152043520	53	5676
2026-01-25 08:04:54.05	55.16	17.31	-41.3	-45.4	12.1	3.11e-04	0	61	0	157286400	53	6001
2026-01-25 08:04:57.08	54.47	17.37	-41.6	-46.1	11.3	7.00e-04	0	61	0	163577856	53	6546
2026-01-25 08:05:00.11	53.78	17.42	-41.7	-46.3	11.2	2.01e-03	0	61	0	168820736	54	6315
2026-01-25 08:05:03.13	53.09	17.46	-41.7	-46.2	11.3	1.11e-03	0	61	0	175112192	54	6230
2026-01-25 08:05:06.16	52.40	17.51	-41.4	-45.5	11.9	5.39e-04	0	61	0	180355072	54	5786
2026-01-25 08:05:09.19	51.70	17.54	-41.5	-45.7	11.8	3.40e-04	0	61	0	185597952	54	5911
2026-01-25 08:05:12.22	51.01	17.58	-41.3	-45.4	12.2	3.52e-04	0	61	0	191889408	54	5680
2026-01-25 08:05:15.24	50.31	17.61	-41.1	-44.8	12.7	4.88e-05	0	61	0	197132288	54	5317
2026-01-25 08:05:18.27	49.61	17.63	-41.1	-44.9	12.8	8.01e-05	0	61	0	203423744	54	5352
2026-01-25 08:05:21.30	48.91	17.65	-41.3	-45.3	12.3	1.65e-04	0	61	0	208666624	54	5622
2026-01-25 08:05:24.33	48.21	17.67	-41.5	-45.6	12.0	3.14e-04	0	61	0	213909504	54	5823
2026-01-25 08:05:27.36	47.51	17.68	-41.4	-45.5	12.1	2.52e-04	0	61	0	220200960	54	5767
2026-01-25 08:05:30.38	46.81	17.69	-41.4	-45.3	12.3	2.01e-04	0	61	0	225443840	54	5622
2026-01-25 08:05:33.41	46.11	17.69	-41.3	-45.1	12.5	8.92e-05	0	61	0	231735296	54	5496
2026-01-25 08:05:36.44	45.40	17.69	-41.8	-46.3	11.2	6.71e-04	0	61	0	236978176	54	6335
2026-01-25 08:05:39.47	44.70	17.68	-41.9	-46.6	10.9	1.55e-03	0	61	0	243269632	54	6501
2026-01-25 08:05:42.50	44.00	17.67	-41.9	-46.5	11.1	1.68e-03	0	61	0	248512512	54	6437
2026-01-25 08:05:45.53	43.30	17.66	-41.5	-45.7	11.8	5.00e-04	0	61	0	253755392	54	5918
2026-01-25 08:05:48.56	42.60	17.64	-41.4	-45.3	12.3	1.68e-04	0	61	0	260046848	54	5652
2026-01-25 08:05:51.58	41.90	17.61	-41.4	-45.4	12.3	3.38e-04	0	61	0	265289728	54	5673
2026-01-25 08:05:54.61	41.20	17.59	-41.3	-45.2	12.5	8.39e-05	0	61	0	271581184	54	5557
2026-01-25 08:05:57.64	40.51	17.55	-41.3	-45.2	12.5	1.56e-04	0	61	0	276824064	54	5529
2026-01-25 08:06:00.66	39.81	17.52	-40.9	-44.4	13.3	3.28e-05	0	61	0	282066944	53	5346
2026-01-25 08:06:03.69	39.12	17.48	-40.8	-44.2	13.5	1.75e-05	0	61	0	288358400	53	5237
2026-01-25 08:06:06.72	38.43	17.43	-40.8	-44.1	13.6	7.60e-06	0	61	0	293601280	53	5190
2026-01-25 08:06:09.75	37.74	17.38	-40.9	-44.3	13.3	1.22e-05	0	61	0	299892736	53	5326
2026-01-25 08:06:12.78	37.05	17.33	-41.0	-44.5	13.1	2.67e-05	0	61	0	305135616	53	5427
2026-01-25 08:06:15.81	36.37	17.27	-41.2	-45.0	12.6	9.68e-05	0	61	0	311427072	53	5743
2026-01-25 08:06:18.84	35.69	17.21	-41.3	-45.1	12.6	8.85e-05	0	61	0	316669952	53	5802
2026-01-25 08:06:21.86	35.01	17.15	-41.3	-45.1	12.5	8.77e-05	0	61	0	321912832	53	5824
2026-01-25 08:06:24.90	34.34	17.08	-41.4	-45.3	12.3	1.68e-04	0	61	0	328204288	53	5983
2026-01-25 08:06:27.92	33.67	17.00	-41.5	-45.6	12.0	3.22e-04	0	61	0	333447168	53	6162
2026-01-25 08:06:30.95	33.00	16.93	-41.5	-45.6	12.0	3.37e-04	0	61	0	339738624	53	6149
2026-01-25 08:06:33.98	32.33	16.85	-41.6	-45.8	11.8	4.43e-04	0	61	0	344981504	53	6313
2026-01-25 08:06:37.01	31.67	16.76	-41.5	-45.5	12.1	2.75e-04	0	61	0	350224384	53	6089
2026-01-25 08:06:40.04	31.01	16.68	-41.6	-45.9	11.7	5.05e-04	0	61	0	356515840	53	6352
2026-01-25 08:06:43.06	30.36	16.59	-41.8	-46.3	11.3	1.12e-03	0	61	0	361758720	54	6313
2026-01-25 08:06:46.09	29.71	16.49	-41.8	-46.2	11.4	9.72e-04	0	61	0	368050176	54	6233
2026-01-25 08:06:49.12	29.07	16.39	-41.6	-45.9	11.6	7.09e-04	0	61	0	373293056	54	6041
2026-01-25 08:06:52.15	28.43	16.29	-41.7	-46.0	11.5	7.86e-04	0	61	0	379584512	54	6093
2026-01-25 08:06:55.18	27.79	16.19	-41.5	-45.6	11.9	3.78e-04	0	61	0	384827392	54	5832
2026-01-25 08:06:58.21	27.16	16.08	-41.3	-45.2	12.3	1.43e-04	0	61	0	390070272	54	5544
2026-01-25 08:07:01.24	26.53	15.97	-41.1	-44.7	12.8	6.48e-05	0	61	0	396361728	54	5279
2026-01-25 08:07:04.27	25.91	15.86	-41.1	-44.8	12.7	4.34e-05	0	61	0	401604608	53	5653
2026-01-25 08:07:07.30	25.29	15.74	-41.0	-44.8	12.8	6.25e-05	0	61	0	407896064	53	5593
2026-01-25 08:07:10.33	24.68	15.62	-41.3	-45.3	12.2	1.57e-04	0	61	0	413138944	53	5950
2026-01-25 08:07:13.36	24.07	15.50	-41.9	-46.6	10.8	1.86e-03	0	61	0	418381824	54	6531
2026-01-25 08:07:16.39	23.47	15.37	-41.9	-46.6	10.8	3.00e-03	0	61	0	424673280	54	6563
2026-01-25 08:07:19.41	22.87	15.25	-41.7	-46.2	11.2	1.44e-03	0	61	0	429916160	54	6245
2026-01-25 08:07:22.44	22.28	15.12	-41.8	-46.3	11.1	2.01e-03	0	61	0	436207616	54	6334
2026-01-25 08:07:25.47	21.69	14.99	-41.9	-46.5	11.0	1.87e-03	0	61	0	441450496	54	6481
2026-01-25 08:07:28.49	21.11	14.85	-41.7	-46.2	11.3	1.42e-03	0	61	0	446693376	54	6236
2026-01-25 08:07:31.52	20.54	14.72	-41.6	-46.0	11.5	7.80e-04	0	61	0	452984832	54	6104
2026-01-25 08:07:34.55	19.97	14.58	-41.4	-45.6	11.9	4.97e-04	0	61	0	458227712	54	5792
2026-01-25 08:07:37.58	19.40	14.44	-41.4	-45.5	11.9	3.96e-04	0	61	0	464519168	54	5752
2026-01-25 08:07:40.61	18.84	14.30	-41.7	-46.3	11.1	1.31e-03	0	61	0	469762048	54	6308
2026-01-25 08:07:43.64	18.29	14.15	-41.6	-46.2	11.1	2.27e-03	0	61	0	476053504	54	6229
2026-01-25 08:07:46.67	17.74	14.01	-41.5	-46.0	11.3	1.02e-03	0	61	0	481296384	54	6096
2026-01-25 08:07:49.70	17.19	13.86	-41.4	-45.8	11.5	1.04e-03	0	61	0	486539264	54	5929
2026-01-25 08:07:52.73	16.66	13.71	-41.8	-46.7	10.5	2.17e-03	0	62	0	492830720	54	6645
2026-01-25 08:07:55.76	16.12	13.56	-42.4	-48.5	8.7	2.43e-02	0	61	0	498073600	55	7655
2026-01-25 08:07:58.79	15.60	13.41	-42.4	-48.6	8.4	5.37e-02	0	61	0	504365056	55	7787
2026-01-25 08:08:01.82	15.08	13.26	-42.2	-48.1	8.9	3.32e-02	0	61	0	509607936	55	7296
2026-01-25 08:08:04.85	14.56	13.10	-42.0	-47.7	9.3	1.87e-02	0	61	0	514850816	55	7001
2026-01-25 08:08:07.87	14.05	12.95	-41.8	-47.0	9.9	1.04e-02	0	61	0	521142272	55	6477
2026-01-25 08:08:10.90	13.55	12.79	-41.6	-46.6	10.4	4.04e-03	0	61	0	526385152	55	6145
2026-01-25 08:08:13.93	13.05	12.63	-41.7	-47.1	9.7	9.30e-03	0	61	0	532676608	55	6507
2026-01-25 08:08:16.96	12.55	12.47	-41.7	-47.1	9.6	1.46e-02	0	61	0	537919488	55	6508
2026-01-25 08:08:19.99	12.06	12.31	-41.5	-46.6	9.9	8.72e-03	0	61	0	544210944	54	6558
2026-01-25 08:08:23.02	11.58	12.15	-41.4	-46.6	9.8	9.83e-03	0	61	0	549453824	54	6510
2026-01-25 08:08:26.04	11.11	11.99	-41.0	-46.2	9.9	8.63e-03	0	61	0	554696704	54	6252
2026-01-25 08:08:29.07	10.63	11.82	-41.1	-46.8	8.9	2.58e-02	0	61	0	560988160	53	7119
2026-01-25 08:08:32.10	10.17	11.66	-41.2	-48.2	7.3	1.11e-01	0	61	0	566231040	53	8278
2026-01-25 08:08:35.13	9.70	11.49	-41.3	-49.6	5.8	3.29e-01	0	61	0	572522496	53	9771
2026-01-25 08:08:38.16	9.25	11.33	-41.8	-51.4	4.9	5.61e-01	0	62	0	577765376	54	11416
2026-01-25 08:08:41.19	8.80	11.16	-42.1	-55.0	3.8	1.25e+00	0	62	104	578813952	54	17240
2026-01-25 08:08:44.21	8.35	10.99	-41.2	-53.2	3.9	1.45e+00	0	62	104	578813952	54	14046
2026-01-25 08:08:47.24	7.91	10.83	-41.1	-53.7	3.8	1.48e+00	0	62	104	578813952	54	14817
2026-01-25 08:08:50.27	7.48	10.66	-41.3	-55.0	3.8	1.49e+00	0	61	104	578813952	53	18190
2026-01-25 08:08:53.29	7.05	10.49	-40.9	-55.3	3.8	1.49e+00	0	61	104	578813952	53	18944
2026-01-25 08:08:56.33	6.62	10.32	-39.9	-54.4	3.8	1.49e+00	0	62	104	578813952	51	19154
2026-01-25 08:08:59.36	6.20	10.15	-39.8	-54.3	3.8	1.49e+00	0	61	104	578813952	51	18901
2026-01-25 08:09:02.38	5.79	9.99	-39.8	-54.3	3.8	1.49e+00	0	61	104	578813952	51	18862
2026-01-25 08:09:05.42	5.37	9.81	-39.8	-54.4	3.8	1.49e+00	0	62	104	578813952	51	18951
2026-01-25 08:09:08.44	4.97	9.65	-39.8	-54.3	3.8	1.49e+00	0	62	104	578813952	51	18876
2026-01-25 08:09:11.47	4.57	9.48	-39.9	-54.4	3.8	1.49e+00	0	62	104	578813952	51	19035
2026-01-25 08:09:14.50	4.17	9.31	-40.0	-54.5	3.8	1.49e+00	0	62	104	578813952	51	19319
2026-01-25 08:09:17.53	3.78	9.13	-39.8	-54.4	3.8	1.49e+00	0	62	104	578813952	51	19054
2026-01-25 08:09:20.56	3.40	8.96	-39.8	-54.3	3.8	1.49e+00	0	62	104	578813952	51	18866
2026-01-25 08:09:23.59	3.01	8.79	-39.8	-54.3	3.8	1.49e+00	0	62	104	578813952	51	18920
2026-01-25 08:09:26.62	2.64	8.62	-39.9	-54.4	3.8	1.49e+00	0	61	104	578813952	51	19018
2026-01-25 08:09:29.65	2.26	8.45	-39.8	-54.3	3.8	1.49e+00	0	61	104	578813952	51	18901
2026-01-25 08:09:32.68	1.89	8.28	-39.8	-54.4	3.8	1.49e+00	0	61	104	578813952	51	18992
2026-01-25 08:09:35.71	1.53	8.11	-39.9	-54.4	3.8	1.49e+00	0	62	104	578813952	51	19101
2026-01-25 08:09:38.74	1.17	7.94	-42.1	-56.6	3.8	1.49e+00	0	62	104	578813952	54	20657
2026-01-25 08:09:41.77	0.82	7.77	-45.1	-59.9	3.8	1.49e+00	0	62	104	578813952	60	21279
2026-01-25 08:09:44.80	0.46	7.60	-45.4	-60.2	3.8	1.49e+00	0	61	104	578813952	61	20867
2026-01-25 08:09:47.83	0.12	7.43	-45.3	-60.0	3.8	1.49e+00	0	62	104	578813952	61	20483
2026-01-25 08:09:50.87	359.77	7.26	-45.3	-59.9	3.8	1.49e+00	0	62	104	578813952	61	20115
2026-01-25 08:09:53.90	359.44	7.09	-45.1	-59.7	3.8	1.49e+00	0	62	104	578813952	61	19769
2026-01-25 08:09:56.93	359.10	6.92	-45.1	-59.7	3.8	1.49e+00	0	61	104	578813952	60	20983
2026-01-25 08:09:59.96	358.77	6.75	-45.2	-59.7	3.8	1.49e+00	0	62	104	578813952	60	20975
2026-01-25 08:10:02.99	358.44	6.58	-45.2	-59.7	3.8	1.49e+00	0	61	104	578813952	60	20970
2026-01-25 08:10:06.02	358.12	6.41	-44.9	-59.7	3.8	1.49e+00	0	62	104	578813952	60	20936
2026-01-25 08:10:09.05	357.80	6.24	-43.2	-59.6	3.8	1.49e+00	0	62	104	578813952	59	21971
2026-01-25 08:10:12.08	357.49	6.07	-45.1	-59.7	3.8	1.49e+00	0	62	104	578813952	60	20883
2026-01-25 08:10:15.12	357.17	5.91	-45.1	-59.7	3.8	1.49e+00	0	62	104	578813952	60	20842
2026-01-25 08:10:18.15	356.87	5.74	-45.1	-59.7	3.8	1.49e+00	0	62	104	578813952	60	20811
2026-01-25 08:10:21.18	356.56	5.57	-45.0	-59.7	3.8	1.49e+00	0	62	104	578813952	60	20834
2026-01-25 08:10:24.21	356.26	5.40	-44.3	-59.7	3.8	1.49e+00	0	62	104	578813952	60	20851
2026-01-25 08:10:27.24	355.97	5.23	-45.1	-59.7	3.8	1.49e+00	0	62	104	578813952	60	20806
2026-01-25 08:10:30.27	355.67	5.07	-45.1	-59.7	3.8	1.49e+00	0	62	104	578813952	60	20888
2026-01-25 08:10:33.30	355.38	4.90	-45.1	-59.7	3.8	1.49e+00	0	62	104	578813952	60	20817
2026-01-25 08:10:36.33	355.10	4.74	-45.1	-59.7	3.8	1.49e+00	0	62	104	578813952	60	20854
2026-01-25 08:10:39.36	354.81	4.57	-45.1	-59.7	3.8	1.49e+00	0	62	104	578813952	60	20819
2026-01-25 08:10:42.39	354.53	4.40	-45.1	-59.7	3.8	1.49e+00	0	62	104	578813952	60	20851
2026-01-25 08:10:45.42	354.26	4.24	-45.1	-59.6	3.8	1.49e+00	0	62	104	578813952	60	20771
2026-01-25 08:10:48.45	353.98	4.08	-45.1	-59.6	3.8	1.49e+00	0	62	104	578813952	60	20742
2026-01-25 08:10:51.48	353.71	3.91	-45.1	-59.7	3.8	1.49e+00	0	62	104	578813952	60	20801
2026-01-25 08:10:54.52	353.45	3.75	-45.1	-59.6	3.8	1.49e+00	0	62	104	578813952	60	20770
2026-01-25 08:10:57.55	353.18	3.58	-45.0	-59.6	3.8	1.49e+00	0	62	104	578813952	60	20763
2026-01-25 08:11:00.58	352.92	3.42	-45.1	-59.6	3.8	1.49e+00	0	62	104	578813952	60	20759
2026-01-25 08:11:03.61	352.66	3.26	-45.1	-59.6	3.8	1.49e+00	0	62	104	578813952	60	20724
2026-01-25 08:11:06.64	352.41	3.10	-45.1	-59.6	3.8	1.49e+00	0	62	104	578813952	60	20758
2026-01-25 08:11:09.67	352.16	2.93	-45.0	-59.7	3.8	1.49e+00	0	62	104	578813952	60	20826
2026-01-25 08:11:12.71	351.91	2.77	-45.1	-59.6	3.8	1.49e+00	0	62	104	578813952	60	20763
2026-01-25 08:11:15.73	351.66	2.61	-45.0	-59.7	3.8	1.49e+00	0	62	104	578813952	60	20804
2026-01-25 08:11:18.77	351.42	2.45	-45.1	-59.7	3.8	1.49e+00	0	62	104	578813952	60	20778
2026-01-25 08:11:21.80	351.18	2.29	-45.0	-59.6	3.8	1.49e+00	0	62	104	578813952	60	20776
2026-01-25 08:11:24.83	350.94	2.13	-45.0	-59.6	3.8	1.49e+00	0	62	104	578813952	60	20705
2026-01-25 08:11:27.86	350.71	1.97	-45.0	-59.6	3.8	1.49e+00	0	62	104	578813952	60	20704

#Closed at: 2026-01-25 08:11:29
#Recorded file [578 MB]: D:/lorett/data/31039_260125_105941.dat