passes_logs/2026/01/25/R2.0S_Moscow/R2.0S_Moscow__20260125_054821_FENGYUN_3E_rec.log

#Pass ID: 20260125_054821_FENGYUN 3E
#Satellite: FENGYUN 3E
#Configuration: FENGYUN 3E
#almurnet v.1.7.20251203
#Start time: 2026-01-25 05:48:22

#Version: 2.2.20231116
#Station: R2.0S_Moscow
#Location: 37.707566 lon 55.798166 lat
#TLE: 1 49008U 21062A   26024.51886291 -.00000133  00000+0 -41802-4 0  9993
#TLE: 2 49008  98.7494  29.5356 0002407 118.1139 242.0281 14.19886269236195

#Time	Az	El	Level	Level2	SNR	BER	BlckErr	Temp	State	Recorded	gain1	gain2
2026-01-25 05:48:22.04	9.63	2.02	-40.2	-50.9	3.8	8.45e-01	0	52	0	0	51	12080
2026-01-25 05:48:25.07	9.41	2.19	-40.1	-50.9	3.8	8.46e-01	0	52	104	0	51	12029
2026-01-25 05:48:28.10	9.19	2.35	-40.1	-50.9	3.8	8.46e-01	0	53	104	0	51	12088
2026-01-25 05:48:31.13	8.97	2.52	-40.1	-50.9	3.8	8.46e-01	0	53	104	0	51	12058
2026-01-25 05:48:34.15	8.75	2.69	-40.1	-50.9	3.8	8.46e-01	0	53	104	0	51	11995
2026-01-25 05:48:37.19	8.52	2.86	-40.1	-50.9	3.8	8.47e-01	0	53	104	0	51	12043
2026-01-25 05:48:40.22	8.29	3.02	-40.1	-50.9	3.8	8.46e-01	0	54	104	0	51	11977
2026-01-25 05:48:43.25	8.06	3.19	-40.1	-50.9	3.8	8.45e-01	0	54	104	0	51	12040
2026-01-25 05:48:46.28	7.82	3.36	-40.1	-50.9	3.8	8.46e-01	0	54	104	0	51	11956
2026-01-25 05:48:49.32	7.58	3.53	-40.1	-50.9	3.8	8.47e-01	0	54	104	0	51	11985
2026-01-25 05:48:52.35	7.34	3.70	-40.1	-50.9	3.8	8.46e-01	0	54	104	0	51	11968
2026-01-25 05:48:55.38	7.10	3.88	-40.1	-50.9	3.8	8.46e-01	0	54	104	0	51	12000
2026-01-25 05:48:58.41	6.85	4.05	-40.1	-50.9	3.8	8.47e-01	0	55	104	0	51	12011
2026-01-25 05:49:01.45	6.60	4.22	-40.1	-50.8	3.8	8.46e-01	0	55	104	0	51	11955
2026-01-25 05:49:04.48	6.35	4.39	-40.1	-50.9	3.8	8.48e-01	0	55	104	0	51	11957
2026-01-25 05:49:07.51	6.09	4.57	-40.1	-50.9	3.8	8.47e-01	0	55	104	0	51	11987
2026-01-25 05:49:10.54	5.83	4.74	-40.1	-50.9	3.8	8.47e-01	0	55	104	0	51	11994
2026-01-25 05:49:13.57	5.57	4.92	-40.1	-50.9	3.8	8.48e-01	0	55	104	0	51	11957
2026-01-25 05:49:16.61	5.30	5.09	-40.1	-50.9	3.8	8.47e-01	0	56	104	0	51	11984
2026-01-25 05:49:19.64	5.03	5.27	-40.1	-50.9	3.8	8.46e-01	0	56	104	0	51	11988
2026-01-25 05:49:22.67	4.76	5.44	-40.1	-50.9	3.8	8.47e-01	0	56	104	0	51	11987
2026-01-25 05:49:25.70	4.48	5.62	-40.1	-50.8	3.8	8.46e-01	0	56	104	0	51	11936
2026-01-25 05:49:28.73	4.20	5.80	-40.1	-50.9	3.8	8.46e-01	0	56	104	0	51	11993
2026-01-25 05:49:31.76	3.92	5.98	-40.1	-50.8	3.8	8.46e-01	0	57	104	0	51	11928
2026-01-25 05:49:34.79	3.63	6.16	-40.1	-50.9	3.8	8.47e-01	0	57	104	0	51	11959
2026-01-25 05:49:37.82	3.34	6.34	-40.1	-50.9	3.8	8.46e-01	0	57	104	0	51	11982
2026-01-25 05:49:40.85	3.05	6.52	-40.1	-50.8	3.8	8.46e-01	0	57	104	0	51	11952
2026-01-25 05:49:43.88	2.75	6.70	-40.1	-50.8	3.8	8.44e-01	0	57	104	0	51	11942
2026-01-25 05:49:46.91	2.44	6.88	-40.1	-50.9	3.8	8.46e-01	0	57	104	0	51	11989
2026-01-25 05:49:49.95	2.14	7.06	-40.1	-50.8	3.8	8.44e-01	0	57	104	0	51	11906
2026-01-25 05:49:52.97	1.83	7.24	-40.1	-50.9	3.8	8.47e-01	0	57	104	0	51	11977
2026-01-25 05:49:56.01	1.51	7.42	-40.1	-50.8	3.8	8.46e-01	0	57	104	0	51	11953
2026-01-25 05:49:59.04	1.19	7.60	-40.1	-50.8	3.8	8.48e-01	0	58	104	0	51	11955
2026-01-25 05:50:02.07	0.87	7.79	-40.1	-50.8	3.8	8.46e-01	0	58	104	0	51	11939
2026-01-25 05:50:05.10	0.54	7.97	-40.1	-50.8	3.8	8.46e-01	0	58	104	0	51	11936
2026-01-25 05:50:08.13	0.21	8.16	-40.3	-51.1	3.8	8.46e-01	0	58	104	0	51	12260
2026-01-25 05:50:11.16	359.88	8.34	-40.2	-51.0	3.8	8.47e-01	0	58	104	0	51	12170
2026-01-25 05:50:14.19	359.54	8.52	-40.3	-51.1	3.8	8.46e-01	0	58	104	0	51	12326
2026-01-25 05:50:17.21	359.19	8.71	-40.3	-51.1	3.8	8.47e-01	0	58	104	0	51	12274
2026-01-25 05:50:20.25	358.84	8.90	-40.3	-51.0	3.8	8.46e-01	0	58	104	0	51	12229
2026-01-25 05:50:23.27	358.49	9.08	-40.2	-50.9	3.8	8.46e-01	0	58	104	0	51	12071
2026-01-25 05:50:26.30	358.13	9.27	-40.3	-51.0	3.8	8.45e-01	0	58	104	0	51	12193
2026-01-25 05:50:29.33	357.77	9.45	-40.2	-51.0	3.8	8.46e-01	0	59	104	0	51	12163
2026-01-25 05:50:32.36	357.40	9.64	-40.3	-51.0	3.8	8.46e-01	0	58	104	0	51	12232
2026-01-25 05:50:35.39	357.03	9.83	-40.2	-51.0	3.8	8.47e-01	0	59	104	0	51	12102
2026-01-25 05:50:38.42	356.65	10.01	-40.4	-51.1	3.8	8.47e-01	0	59	104	0	51	12307
2026-01-25 05:50:41.45	356.27	10.20	-40.4	-51.1	3.8	8.46e-01	0	59	104	0	51	12287
2026-01-25 05:50:44.48	355.88	10.39	-40.5	-51.2	3.8	8.46e-01	0	59	104	0	51	12468
2026-01-25 05:50:47.51	355.49	10.58	-40.5	-51.2	3.8	8.48e-01	0	59	104	0	51	12509
2026-01-25 05:50:50.54	355.09	10.77	-40.6	-51.3	3.8	8.46e-01	0	59	104	0	51	12579
2026-01-25 05:50:53.57	354.69	10.95	-40.8	-51.5	3.8	8.46e-01	0	59	104	0	51	12854
2026-01-25 05:50:56.60	354.28	11.14	-40.7	-51.4	3.8	8.47e-01	0	59	104	0	51	12742
2026-01-25 05:50:59.62	353.87	11.33	-40.7	-51.4	3.8	8.46e-01	0	59	104	0	51	12796
2026-01-25 05:51:02.65	353.45	11.52	-40.6	-51.4	3.8	8.46e-01	0	59	104	0	51	12716
2026-01-25 05:51:05.68	353.02	11.70	-40.8	-51.6	3.8	8.47e-01	0	59	104	0	51	12979
2026-01-25 05:51:08.71	352.59	11.89	-40.9	-51.7	3.8	8.46e-01	0	59	104	0	51	13123
2026-01-25 05:51:11.74	352.15	12.08	-41.0	-51.8	3.8	8.45e-01	0	60	104	0	51	13316
2026-01-25 05:51:14.77	351.71	12.27	-40.9	-51.8	3.8	8.46e-01	0	60	104	0	51	13264
2026-01-25 05:51:17.80	351.26	12.45	-41.0	-51.8	3.8	8.45e-01	0	60	104	0	51	13383
2026-01-25 05:51:20.83	350.81	12.64	-40.9	-51.7	3.8	8.45e-01	0	59	104	0	52	12456
2026-01-25 05:51:23.86	350.35	12.83	-41.1	-51.9	3.8	8.46e-01	0	60	104	0	52	12724
2026-01-25 05:51:26.89	349.88	13.01	-40.9	-51.7	3.8	8.45e-01	0	60	104	0	52	12468
2026-01-25 05:51:29.91	349.41	13.20	-41.1	-51.9	3.8	8.46e-01	0	60	104	0	52	12716
2026-01-25 05:51:32.94	348.93	13.38	-41.1	-52.0	3.8	8.46e-01	0	60	104	0	52	12837
2026-01-25 05:51:35.97	348.45	13.57	-41.5	-52.4	3.8	8.46e-01	0	60	104	0	52	13436
2026-01-25 05:51:39.00	347.96	13.75	-41.5	-52.3	3.8	8.47e-01	0	60	104	0	52	13313
2026-01-25 05:51:42.02	347.46	13.93	-41.7	-52.6	3.8	8.46e-01	0	60	104	0	52	13768
2026-01-25 05:51:45.05	346.96	14.11	-41.6	-52.4	3.8	8.46e-01	0	60	104	0	52	13452
2026-01-25 05:51:48.08	346.45	14.30	-41.2	-52.1	3.8	8.47e-01	0	60	104	0	53	12242
2026-01-25 05:51:51.11	345.94	14.48	-41.1	-51.9	3.8	8.47e-01	0	60	104	0	53	12090
2026-01-25 05:51:54.14	345.41	14.66	-41.2	-52.0	3.8	8.45e-01	0	60	104	0	53	12194
2026-01-25 05:51:57.17	344.89	14.83	-41.2	-52.0	3.8	8.46e-01	0	61	104	0	53	12204
2026-01-25 05:52:00.20	344.35	15.01	-41.0	-51.9	3.8	8.47e-01	0	60	104	0	52	12702
2026-01-25 05:52:03.23	343.81	15.19	-40.9	-51.7	3.8	8.46e-01	0	60	104	0	52	12419
2026-01-25 05:52:06.26	343.26	15.36	-40.9	-51.7	3.8	8.46e-01	0	61	104	0	52	12471
2026-01-25 05:52:09.29	342.71	15.53	-41.0	-51.8	3.8	8.45e-01	0	60	104	0	52	12603
2026-01-25 05:52:12.31	342.15	15.70	-40.9	-51.6	3.8	8.47e-01	0	61	104	0	52	12358
2026-01-25 05:52:15.34	341.58	15.87	-40.8	-51.5	3.8	8.46e-01	0	61	104	0	52	12174
2026-01-25 05:52:18.36	341.01	16.04	-40.9	-51.6	3.8	8.46e-01	0	61	104	0	52	12312
2026-01-25 05:52:21.40	340.43	16.21	-40.9	-51.6	3.8	8.46e-01	0	61	104	0	52	12333
2026-01-25 05:52:24.43	339.84	16.37	-41.2	-49.6	4.0	8.45e-01	0	61	104	0	52	9776
2026-01-25 05:52:27.45	339.25	16.53	-40.6	-45.2	6.9	2.05e-01	0	61	0	5242880	52	5859
2026-01-25 05:52:30.48	338.65	16.69	-40.0	-43.1	9.7	1.72e-02	0	61	0	27262976	51	4889
2026-01-25 05:52:33.51	338.04	16.85	-37.9	-40.0	13.2	3.89e-05	0	61	0	49283072	46	4576
2026-01-25 05:52:36.54	337.43	17.01	-37.5	-39.6	14.0	2.20e-06	0	61	0	71303168	45	4610
2026-01-25 05:52:39.57	336.81	17.16	-36.7	-38.6	15.4	0.00e+00	0	61	0	93323264	44	4358
2026-01-25 05:52:42.60	336.18	17.31	-36.2	-38.0	16.0	0.00e+00	0	61	0	115343360	43	4307
2026-01-25 05:52:45.63	335.55	17.46	-36.2	-37.9	16.1	0.00e+00	0	61	0	136314880	43	4264
2026-01-25 05:52:48.66	334.91	17.61	-36.0	-37.7	16.5	0.00e+00	0	61	0	158334976	43	4163
2026-01-25 05:52:51.69	334.27	17.75	-36.1	-37.7	16.5	0.00e+00	0	61	0	180355072	42	4441
2026-01-25 05:52:54.72	333.62	17.89	-35.9	-37.6	16.7	0.00e+00	0	61	0	202375168	42	4344
2026-01-25 05:52:57.75	332.96	18.02	-36.0	-37.7	16.6	0.00e+00	0	61	0	224395264	42	4429
2026-01-25 05:53:00.78	332.29	18.16	-36.1	-37.9	16.4	0.00e+00	0	61	0	246415360	42	4514
2026-01-25 05:53:03.81	331.63	18.29	-36.0	-37.7	16.6	0.00e+00	0	61	0	268435456	42	4423
2026-01-25 05:53:06.83	330.95	18.41	-36.0	-37.7	16.7	0.00e+00	0	61	0	289406976	42	4412
2026-01-25 05:53:09.86	330.27	18.54	-35.7	-37.4	17.0	0.00e+00	0	61	0	311427072	42	4252
2026-01-25 05:53:12.90	329.58	18.66	-35.7	-37.3	17.1	0.00e+00	0	61	0	333447168	42	4222
2026-01-25 05:53:15.93	328.89	18.77	-35.8	-37.4	17.1	0.00e+00	0	61	0	355467264	42	4247
2026-01-25 05:53:18.96	328.20	18.88	-35.7	-37.2	17.3	0.00e+00	0	61	0	377487360	42	4154
2026-01-25 05:53:21.98	327.50	18.99	-35.8	-37.2	17.2	0.00e+00	0	61	0	399507456	42	4177
2026-01-25 05:53:25.01	326.79	19.10	-35.8	-37.2	17.3	0.00e+00	0	61	0	421527552	42	4160
2026-01-25 05:53:28.04	326.08	19.20	-35.7	-37.1	17.5	0.00e+00	0	61	0	442499072	42	4105
2026-01-25 05:53:31.07	325.36	19.29	-35.6	-36.9	17.6	0.00e+00	0	61	0	464519168	42	4045
2026-01-25 05:53:34.10	324.64	19.38	-35.9	-37.2	17.3	0.00e+00	0	61	0	486539264	42	4186
2026-01-25 05:53:37.13	323.92	19.47	-36.0	-37.4	17.2	0.00e+00	0	61	0	508559360	42	4252
2026-01-25 05:53:40.16	323.19	19.55	-36.0	-37.3	17.3	0.00e+00	0	61	0	530579456	42	4213
2026-01-25 05:53:43.19	322.45	19.63	-36.0	-37.3	17.3	0.00e+00	0	61	0	552599552	42	4204
2026-01-25 05:53:46.23	321.71	19.70	-35.9	-37.2	17.4	0.00e+00	0	61	0	574619648	42	4170
2026-01-25 05:53:49.25	320.98	19.77	-35.8	-37.2	17.4	0.00e+00	0	61	0	596639744	42	4165
2026-01-25 05:53:52.28	320.23	19.83	-35.7	-37.1	17.5	0.00e+00	0	61	0	617611264	42	4117
2026-01-25 05:53:55.31	319.49	19.89	-35.9	-37.3	17.3	0.00e+00	0	61	0	639631360	42	4213
2026-01-25 05:53:58.34	318.74	19.95	-35.7	-37.1	17.5	0.00e+00	0	61	0	661651456	42	4106
2026-01-25 05:54:01.37	317.99	19.99	-35.4	-37.0	17.5	0.00e+00	0	61	0	683671552	41	4315
2026-01-25 05:54:04.40	317.23	20.04	-35.5	-37.1	17.4	0.00e+00	0	61	0	705691648	41	4341
2026-01-25 05:54:07.43	316.47	20.08	-35.3	-37.0	17.4	0.00e+00	0	61	0	727711744	41	4318
2026-01-25 05:54:10.46	315.72	20.11	-35.2	-37.1	17.3	0.00e+00	0	61	0	749731840	41	4347
2026-01-25 05:54:13.49	314.96	20.14	-35.3	-37.1	17.3	0.00e+00	0	61	0	770703360	41	4344
2026-01-25 05:54:16.52	314.20	20.16	-35.0	-37.0	17.3	0.00e+00	0	61	0	792723456	41	4294
2026-01-25 05:54:19.55	313.43	20.18	-35.1	-37.2	17.1	0.00e+00	0	61	0	814743552	40	4657
2026-01-25 05:54:22.58	312.67	20.19	-35.2	-37.0	17.4	0.00e+00	0	61	0	836763648	40	4563
2026-01-25 05:54:25.60	311.91	20.19	-35.1	-37.0	17.3	0.00e+00	0	61	0	858783744	40	4554
2026-01-25 05:54:28.63	311.15	20.20	-35.2	-37.1	17.3	0.00e+00	0	62	0	879755264	40	4626
2026-01-25 05:54:31.66	310.38	20.19	-35.3	-37.0	17.4	0.00e+00	0	61	0	901775360	40	4559
2026-01-25 05:54:34.69	309.62	20.18	-35.3	-36.9	17.5	0.00e+00	0	61	0	923795456	40	4513
2026-01-25 05:54:37.72	308.86	20.17	-35.3	-36.9	17.6	0.00e+00	0	61	0	945815552	40	4514
2026-01-25 05:54:40.75	308.09	20.15	-35.4	-36.9	17.5	0.00e+00	0	61	0	967835648	40	4539
2026-01-25 05:54:43.79	307.33	20.12	-35.4	-37.0	17.4	0.00e+00	0	61	0	989855744	40	4571
2026-01-25 05:54:46.82	306.57	20.09	-35.4	-36.9	17.5	0.00e+00	0	61	0	1011875840	40	4528
2026-01-25 05:54:49.85	305.81	20.06	-35.3	-36.8	17.6	0.00e+00	0	62	0	1033895936	40	4476
2026-01-25 05:54:52.88	305.06	20.01	-35.4	-37.0	17.4	0.00e+00	0	62	0	1054867456	40	4585
2026-01-25 05:54:55.91	304.30	19.97	-35.4	-37.0	17.4	0.00e+00	0	61	0	1076887552	40	4561
2026-01-25 05:54:58.95	303.55	19.92	-35.3	-36.9	17.5	0.00e+00	0	62	0	1098907648	40	4494
2026-01-25 05:55:01.97	302.80	19.86	-35.2	-36.8	17.6	0.00e+00	0	62	0	1120927744	40	4467
2026-01-25 05:55:05.00	302.06	19.80	-35.5	-37.2	17.3	0.00e+00	0	61	0	1142947840	40	4679
2026-01-25 05:55:08.03	301.31	19.73	-35.5	-37.1	17.3	0.00e+00	0	61	0	1164967936	40	4636
2026-01-25 05:55:11.06	300.57	19.66	-35.3	-36.8	17.5	0.00e+00	0	61	0	1186988032	40	4491
2026-01-25 05:55:14.09	299.84	19.59	-35.4	-36.9	17.5	0.00e+00	0	62	0	1207959552	40	4521
2026-01-25 05:55:17.12	299.11	19.51	-35.5	-37.0	17.5	0.00e+00	0	62	0	1229979648	40	4565
2026-01-25 05:55:20.15	298.38	19.42	-35.5	-37.0	17.5	0.00e+00	0	61	0	1251999744	40	4573
2026-01-25 05:55:23.18	297.65	19.33	-35.5	-36.9	17.6	0.00e+00	0	62	0	1274019840	40	4527
2026-01-25 05:55:26.21	296.93	19.24	-35.7	-37.1	17.5	0.00e+00	0	61	0	1296039936	40	4601
2026-01-25 05:55:29.25	296.22	19.14	-35.7	-37.1	17.4	0.00e+00	0	61	0	1318060032	41	4348
2026-01-25 05:55:32.28	295.50	19.04	-35.7	-37.0	17.5	0.00e+00	0	61	0	1340080128	41	4322
2026-01-25 05:55:35.30	294.80	18.93	-35.8	-37.2	17.4	0.00e+00	0	62	0	1362100224	41	4392
2026-01-25 05:55:38.34	294.10	18.82	-36.2	-37.7	16.9	0.00e+00	0	62	0	1383071744	42	4393
2026-01-25 05:55:41.36	293.40	18.71	-36.2	-37.6	16.9	0.00e+00	0	61	0	1405091840	42	4353
2026-01-25 05:55:44.39	292.71	18.59	-36.1	-37.4	17.1	0.00e+00	0	62	0	1427111936	42	4289
2026-01-25 05:55:47.42	292.03	18.47	-35.9	-37.3	17.3	0.00e+00	0	62	0	1449132032	42	4204
2026-01-25 05:55:50.45	291.35	18.34	-36.1	-37.4	17.1	0.00e+00	0	61	0	1471152128	42	4273
2026-01-25 05:55:53.48	290.68	18.21	-36.2	-37.6	16.9	0.00e+00	0	62	0	1493172224	42	4384
2026-01-25 05:55:56.51	290.01	18.08	-36.1	-37.5	17.0	0.00e+00	0	62	0	1515192320	42	4318
2026-01-25 05:55:59.54	289.34	17.94	-36.3	-37.7	16.8	0.00e+00	0	62	0	1536163840	42	4408
2026-01-25 05:56:02.58	288.69	17.81	-36.1	-37.5	17.0	0.00e+00	0	62	0	1558183936	42	4308
2026-01-25 05:56:05.60	288.04	17.66	-36.3	-37.7	16.8	0.00e+00	0	61	0	1580204032	42	4398
2026-01-25 05:56:08.63	287.39	17.52	-36.3	-37.7	16.8	0.00e+00	0	62	0	1602224128	42	4407
2026-01-25 05:56:11.66	286.76	17.37	-36.4	-37.7	16.7	0.00e+00	0	61	0	1624244224	42	4425
2026-01-25 05:56:14.69	286.13	17.22	-36.2	-37.5	16.9	0.00e+00	0	62	0	1646264320	42	4335
2026-01-25 05:56:17.73	285.50	17.07	-36.3	-37.6	16.8	0.00e+00	0	61	0	1668284416	42	4376
2026-01-25 05:56:20.76	284.88	16.91	-36.4	-37.8	16.7	0.00e+00	0	62	0	1690304512	42	4449
2026-01-25 05:56:23.79	284.27	16.76	-36.4	-37.7	16.7	0.00e+00	0	62	0	1711276032	42	4427
2026-01-25 05:56:26.82	283.66	16.60	-36.3	-37.7	16.8	0.00e+00	0	62	0	1733296128	42	4397
2026-01-25 05:56:29.85	283.06	16.44	-36.3	-37.7	16.7	0.00e+00	0	62	0	1755316224	42	4413
2026-01-25 05:56:32.88	282.47	16.27	-36.5	-37.9	16.4	0.00e+00	0	62	0	1777336320	42	4542
2026-01-25 05:56:35.91	281.88	16.11	-36.8	-38.3	16.1	0.00e+00	0	62	0	1799356416	43	4442
2026-01-25 05:56:38.94	281.30	15.94	-36.9	-38.4	15.9	0.00e+00	0	62	0	1821376512	43	4510
2026-01-25 05:56:41.97	280.73	15.77	-36.7	-38.2	16.1	0.00e+00	0	62	0	1842348032	43	4414
2026-01-25 05:56:45.01	280.16	15.60	-36.7	-38.1	16.2	0.00e+00	0	61	0	1864368128	43	4384
2026-01-25 05:56:48.04	279.60	15.42	-36.7	-38.1	16.2	0.00e+00	0	62	0	1886388224	43	4391
2026-01-25 05:56:51.07	279.05	15.25	-36.9	-38.3	16.0	0.00e+00	0	62	0	1908408320	43	4474
2026-01-25 05:56:54.10	278.50	15.07	-37.0	-38.4	15.8	0.00e+00	0	62	0	1930428416	43	4539
2026-01-25 05:56:57.13	277.96	14.90	-37.0	-38.5	15.8	0.00e+00	0	62	0	1952448512	43	4554
2026-01-25 05:57:00.16	277.43	14.72	-36.9	-38.4	15.9	0.00e+00	0	62	0	1974468608	43	4514
2026-01-25 05:57:03.19	276.90	14.54	-37.0	-38.5	15.8	0.00e+00	0	62	0	1995440128	43	4562
2026-01-25 05:57:06.23	276.38	14.36	-36.9	-38.4	15.9	0.00e+00	0	62	0	2017460224	43	4503
2026-01-25 05:57:09.26	275.86	14.18	-36.9	-38.4	15.8	0.00e+00	0	62	0	2039480320	43	4498
2026-01-25 05:57:12.29	275.35	13.99	-36.9	-38.4	15.8	0.00e+00	0	62	0	2061500416	43	4510
2026-01-25 05:57:15.31	274.85	13.81	-36.9	-38.5	15.7	0.00e+00	0	62	0	2083520512	43	4546
2026-01-25 05:57:18.34	274.36	13.63	-37.1	-38.6	15.5	0.00e+00	0	62	0	2105540608	43	4635
2026-01-25 05:57:21.37	273.87	13.44	-37.3	-38.8	15.4	0.00e+00	0	62	0	2127560704	44	4487
2026-01-25 05:57:24.40	273.38	13.26	-37.3	-38.9	15.4	0.00e+00	0	62	0	2149580800	44	4519
2026-01-25 05:57:27.43	272.91	13.07	-37.5	-39.1	15.2	0.00e+00	0	62	0	2170552320	44	4619
2026-01-25 05:57:30.46	272.43	12.89	-37.6	-39.3	14.9	0.00e+00	0	62	0	2192572416	44	4732
2026-01-25 05:57:33.49	271.97	12.70	-37.7	-39.4	14.9	0.00e+00	0	62	0	2214592512	44	4774
2026-01-25 05:57:36.52	271.51	12.51	-37.7	-39.4	14.8	0.00e+00	0	62	0	2236612608	45	4513
2026-01-25 05:57:39.55	271.05	12.32	-37.5	-39.2	15.0	0.00e+00	0	62	0	2258632704	45	4398
2026-01-25 05:57:42.58	270.61	12.14	-37.3	-38.9	15.3	0.00e+00	0	62	0	2280652800	45	4258
2026-01-25 05:57:45.60	270.17	11.95	-37.4	-39.1	15.1	0.00e+00	0	62	0	2302672896	45	4344
2026-01-25 05:57:48.63	269.73	11.76	-37.7	-39.4	14.7	0.00e+00	0	62	0	2323644416	45	4497
2026-01-25 05:57:51.66	269.30	11.57	-37.8	-39.6	14.5	0.00e+00	0	62	0	2345664512	45	4612
2026-01-25 05:57:54.69	268.87	11.38	-37.8	-39.6	14.4	0.00e+00	0	62	0	2367684608	45	4608
2026-01-25 05:57:57.72	268.45	11.19	-37.8	-39.6	14.4	1.10e-06	0	62	0	2389704704	45	4610
2026-01-25 05:58:00.75	268.04	11.01	-37.7	-39.4	14.5	0.00e+00	0	62	0	2411724800	45	4514
2026-01-25 05:58:03.78	267.63	10.82	-37.6	-39.4	14.5	0.00e+00	0	62	0	2433744896	45	4505
2026-01-25 05:58:06.81	267.23	10.63	-37.5	-39.3	14.5	0.00e+00	0	62	0	2455764992	45	4449
2026-01-25 05:58:09.84	266.83	10.44	-37.6	-39.3	14.4	0.00e+00	0	62	0	2476736512	45	4479
2026-01-25 05:58:12.87	266.44	10.25	-37.5	-39.3	14.4	1.10e-06	0	62	0	2498756608	45	4461
2026-01-25 05:58:15.90	266.05	10.06	-37.8	-39.7	13.9	4.50e-06	0	62	0	2520776704	45	4673
2026-01-25 05:58:18.94	265.66	9.87	-38.0	-39.9	13.6	9.10e-06	0	62	0	2542796800	45	4792
2026-01-25 05:58:21.97	265.29	9.69	-38.0	-40.0	13.6	8.00e-06	0	62	0	2564816896	45	4817
2026-01-25 05:58:25.00	264.91	9.50	-38.0	-39.9	13.6	5.70e-06	0	62	0	2586836992	45	4785
2026-01-25 05:58:28.03	264.54	9.31	-38.0	-39.9	13.5	8.00e-06	0	62	0	2608857088	45	4801
2026-01-25 05:58:31.05	264.18	9.13	-38.1	-40.1	13.2	1.60e-05	0	62	0	2630877184	45	4921
2026-01-25 05:58:34.08	263.82	8.94	-38.4	-40.5	12.8	6.40e-05	0	62	0	2651848704	46	4865
2026-01-25 05:58:37.11	263.47	8.75	-38.4	-40.6	12.5	9.26e-05	0	62	0	2673868800	46	4918
2026-01-25 05:58:40.14	263.12	8.57	-38.2	-40.3	12.9	4.23e-05	0	62	0	2695888896	46	4754
2026-01-25 05:58:43.17	262.77	8.38	-38.1	-40.1	13.1	2.51e-05	0	62	0	2717908992	46	4623
2026-01-25 05:58:46.20	262.43	8.20	-38.0	-40.0	13.4	6.80e-06	0	62	0	2739929088	46	4552
2026-01-25 05:58:49.23	262.10	8.01	-38.1	-40.1	13.3	6.80e-06	0	62	0	2761949184	46	4638
2026-01-25 05:58:52.26	261.77	7.83	-45.2	-56.5	3.8	8.46e-01	0	62	104	2765094912	60	13719
2026-01-25 05:58:55.29	261.44	7.64	-45.5	-56.9	3.8	8.46e-01	0	62	104	2765094912	60	14257
2026-01-25 05:58:58.32	261.12	7.46	-45.4	-56.8	3.8	8.46e-01	0	62	104	2765094912	60	14131
2026-01-25 05:59:01.35	260.80	7.28	-45.4	-56.8	3.8	8.44e-01	0	62	104	2765094912	60	14061
2026-01-25 05:59:04.38	260.48	7.09	-45.4	-56.8	3.8	8.46e-01	0	62	104	2765094912	60	14158
2026-01-25 05:59:07.42	260.17	6.91	-45.5	-56.9	3.8	8.45e-01	0	62	104	2765094912	60	14253
2026-01-25 05:59:10.45	259.86	6.73	-45.4	-56.8	3.8	8.47e-01	0	62	104	2765094912	60	14112
2026-01-25 05:59:13.48	259.56	6.55	-45.4	-56.8	3.8	8.47e-01	0	62	104	2765094912	60	14048
2026-01-25 05:59:16.51	259.26	6.37	-45.4	-56.8	3.8	8.46e-01	0	62	104	2765094912	60	14128
2026-01-25 05:59:19.54	258.96	6.19	-45.4	-56.8	3.8	8.47e-01	0	62	104	2765094912	60	14094
2026-01-25 05:59:22.56	258.67	6.01	-45.4	-56.7	3.8	8.46e-01	0	62	104	2765094912	60	13987
2026-01-25 05:59:25.59	258.38	5.83	-45.4	-56.7	3.8	8.45e-01	0	62	104	2765094912	60	14002
2026-01-25 05:59:28.63	258.10	5.65	-45.4	-56.7	3.8	8.45e-01	0	62	104	2765094912	60	14041
2026-01-25 05:59:31.66	257.82	5.47	-45.3	-56.7	3.8	8.45e-01	0	62	104	2765094912	60	13998
2026-01-25 05:59:34.69	257.54	5.30	-45.4	-56.7	3.8	8.47e-01	0	62	104	2765094912	60	14039
2026-01-25 05:59:37.72	257.26	5.12	-45.4	-56.7	3.8	8.45e-01	0	62	104	2765094912	60	14046
2026-01-25 05:59:40.75	256.99	4.94	-45.4	-56.7	3.8	8.46e-01	0	62	104	2765094912	60	14000
2026-01-25 05:59:43.78	256.72	4.77	-45.4	-56.7	3.8	8.46e-01	0	62	104	2765094912	60	14035
2026-01-25 05:59:46.82	256.46	4.59	-45.4	-56.7	3.8	8.46e-01	0	62	104	2765094912	60	14026
2026-01-25 05:59:49.85	256.20	4.42	-45.4	-56.7	3.8	8.45e-01	0	62	104	2765094912	60	13966
2026-01-25 05:59:52.88	255.94	4.24	-45.4	-56.7	3.8	8.46e-01	0	62	104	2765094912	60	13977
2026-01-25 05:59:55.91	255.69	4.07	-45.4	-56.8	3.8	8.46e-01	0	62	104	2765094912	60	14070
2026-01-25 05:59:58.94	255.43	3.90	-45.3	-56.7	3.8	8.47e-01	0	62	104	2765094912	60	14005
2026-01-25 06:00:01.97	255.19	3.73	-45.4	-56.7	3.8	8.45e-01	0	62	104	2765094912	60	13984
2026-01-25 06:00:05.01	254.94	3.55	-45.4	-56.8	3.8	8.47e-01	0	62	104	2765094912	60	14052
2026-01-25 06:00:08.04	254.70	3.38	-45.4	-56.7	3.8	8.46e-01	0	62	104	2765094912	60	13991
2026-01-25 06:00:11.07	254.46	3.21	-45.4	-56.7	3.8	8.46e-01	0	62	104	2765094912	60	14026
2026-01-25 06:00:14.10	254.22	3.04	-45.4	-56.8	3.8	8.47e-01	0	62	104	2765094912	60	14083
2026-01-25 06:00:17.13	253.98	2.88	-45.4	-56.7	3.8	8.46e-01	0	62	104	2765094912	60	14008
2026-01-25 06:00:20.16	253.75	2.71	-45.4	-56.7	3.8	8.47e-01	0	62	104	2765094912	60	13995
2026-01-25 06:00:23.20	253.52	2.54	-45.4	-56.7	3.8	8.47e-01	0	62	104	2765094912	60	13947
2026-01-25 06:00:26.23	253.30	2.37	-45.3	-56.8	3.8	8.47e-01	0	62	104	2765094912	60	14059
2026-01-25 06:00:29.26	253.07	2.20	-45.4	-56.7	3.8	8.46e-01	0	62	104	2765094912	60	14000
2026-01-25 06:00:32.29	252.85	2.04	-45.3	-56.7	3.8	8.45e-01	0	62	104	2765094912	60	13962

#Closed at: 2026-01-25 06:00:33
#Recorded file [2765 MB]: D:/lorett/data/31039_260125_084821.dat