passes_logs/2026/01/25/R2.0S_Moscow/R2.0S_Moscow__20260125_173755_FENGYUN_3G_rec.log

#Pass ID: 20260125_173755_FENGYUN 3G
#Satellite: FENGYUN 3G
#Configuration: FENGYUN 3G
#almurnet v.1.7.20251203
#Start time: 2026-01-25 17:37:57

#Version: 2.2.20231116
#Station: R2.0S_Moscow
#Location: 37.707566 lon 55.798166 lat
#TLE: 1 56232U 23055A   26025.14527328  .00046082  00000+0  69370-3 0  9997
#TLE: 2 56232  49.9948   3.5622 0004071  80.7231 279.4197 15.54300718157774

#Time	Az	El	Level	Level2	SNR	BER	BlckErr	Temp	State	Recorded	gain1	gain2
2026-01-25 17:37:57.27	227.60	2.11	-44.1	-62.2	3.8	8.47e-01	0	52	0	0	60	27834
2026-01-25 17:38:00.29	227.34	2.30	-44.1	-62.1	3.8	8.47e-01	0	52	104	0	60	27577
2026-01-25 17:38:03.33	227.08	2.50	-44.1	-62.1	3.8	8.46e-01	0	52	104	0	60	27522
2026-01-25 17:38:06.36	226.82	2.69	-44.1	-61.8	3.8	8.45e-01	0	53	104	0	60	26698
2026-01-25 17:38:09.39	226.55	2.89	-44.1	-61.9	3.8	8.46e-01	0	53	104	0	60	26811
2026-01-25 17:38:12.42	226.27	3.09	-44.1	-62.0	3.8	8.46e-01	0	53	104	0	60	27169
2026-01-25 17:38:15.45	225.99	3.29	-44.1	-62.2	3.8	8.47e-01	0	53	104	0	60	27727
2026-01-25 17:38:18.48	225.71	3.49	-44.1	-62.2	3.8	8.46e-01	0	53	104	0	60	27791
2026-01-25 17:38:21.52	225.41	3.70	-44.1	-62.2	3.8	8.46e-01	0	54	104	0	60	27756
2026-01-25 17:38:24.55	225.11	3.90	-44.1	-62.2	3.8	8.46e-01	0	54	104	0	60	27712
2026-01-25 17:38:27.58	224.81	4.11	-44.1	-62.1	3.8	8.46e-01	0	54	104	0	60	27685
2026-01-25 17:38:30.61	224.50	4.32	-44.1	-62.1	3.8	8.46e-01	0	54	104	0	60	27700
2026-01-25 17:38:33.64	224.18	4.53	-44.1	-62.0	3.8	8.46e-01	0	54	104	0	59	28890
2026-01-25 17:38:36.67	223.86	4.74	-44.2	-62.2	3.8	8.46e-01	0	54	104	0	59	29442
2026-01-25 17:38:39.71	223.52	4.96	-44.1	-62.1	3.8	8.46e-01	0	55	104	0	59	29180
2026-01-25 17:38:42.74	223.19	5.17	-44.1	-61.4	3.8	8.46e-01	0	54	104	0	59	26941
2026-01-25 17:38:45.77	222.84	5.39	-44.1	-61.2	3.8	8.47e-01	0	55	104	0	59	26266
2026-01-25 17:38:48.80	222.49	5.61	-44.1	-61.6	3.8	8.47e-01	0	55	104	0	59	27473
2026-01-25 17:38:51.83	222.13	5.84	-44.1	-60.7	3.8	8.46e-01	0	55	104	0	59	24716
2026-01-25 17:38:54.86	221.76	6.06	-44.1	-59.4	4.0	8.45e-01	0	55	104	0	59	21387
2026-01-25 17:38:57.89	221.38	6.29	-44.0	-59.0	4.1	8.43e-01	0	55	0	0	59	20407
2026-01-25 17:39:00.92	220.99	6.52	-44.0	-57.7	4.5	8.28e-01	0	56	0	0	59	17513
2026-01-25 17:39:03.95	220.60	6.75	-43.6	-53.6	7.3	7.32e-01	0	56	0	1048576	59	10931
2026-01-25 17:39:06.98	220.19	6.99	-43.1	-50.6	10.3	5.30e-02	0	56	0	4718592	58	8180
2026-01-25 17:39:10.01	219.78	7.22	-43.5	-52.3	8.7	5.33e-03	0	56	0	7864320	58	9974
2026-01-25 17:39:13.04	219.36	7.46	-44.1	-60.5	3.8	2.58e-01	0	56	104	9437184	58	25714
2026-01-25 17:39:16.07	218.93	7.70	-42.6	-48.7	12.2	2.14e-02	0	56	0	11534336	57	7018
2026-01-25 17:39:19.10	218.48	7.94	-41.1	-45.2	15.7	0.00e+00	0	56	0	14680064	54	5579
2026-01-25 17:39:22.13	218.03	8.19	-42.5	-48.2	12.1	7.32e-05	0	57	0	18350080	56	7039
2026-01-25 17:39:25.17	217.56	8.44	-43.9	-58.9	4.2	1.09e-03	0	56	0	20971520	58	21471
2026-01-25 17:39:28.20	217.09	8.69	-41.2	-45.2	15.8	0.00e+00	0	57	0	23592960	54	5584
2026-01-25 17:39:31.23	216.60	8.94	-40.9	-44.8	16.3	0.00e+00	0	57	0	26738688	53	5631
2026-01-25 17:39:34.25	216.11	9.20	-40.6	-44.2	17.0	0.00e+00	0	57	0	30408704	53	5237
2026-01-25 17:39:37.29	215.59	9.45	-40.6	-44.1	17.1	0.00e+00	0	57	0	33554432	53	5179
2026-01-25 17:39:40.32	215.07	9.71	-40.4	-43.7	17.5	0.00e+00	0	57	0	36700160	52	5265
2026-01-25 17:39:43.35	214.53	9.97	-40.4	-43.7	17.6	0.00e+00	0	57	0	40370176	52	5265
2026-01-25 17:39:46.38	213.99	10.24	-40.5	-43.9	17.4	0.00e+00	0	57	0	44040192	52	5384
2026-01-25 17:39:49.42	213.42	10.51	-40.3	-43.6	17.8	0.00e+00	0	57	0	47185920	52	5167
2026-01-25 17:39:52.44	212.84	10.77	-40.2	-43.4	18.0	0.00e+00	0	58	0	50855936	52	5069
2026-01-25 17:39:55.48	212.25	11.05	-40.1	-43.2	18.2	0.00e+00	0	58	0	54001664	52	4942
2026-01-25 17:39:58.50	211.65	11.32	-40.2	-43.3	18.1	0.00e+00	0	58	0	57671680	52	5028
2026-01-25 17:40:01.53	211.03	11.59	-40.1	-43.1	18.3	0.00e+00	0	57	0	60817408	52	4924
2026-01-25 17:40:04.56	210.39	11.87	-39.9	-42.8	18.7	0.00e+00	0	58	0	64487424	51	5040
2026-01-25 17:40:07.59	209.73	12.15	-39.8	-42.6	18.9	0.00e+00	0	58	0	67633152	51	4915
2026-01-25 17:40:10.62	209.06	12.43	-40.0	-42.9	18.6	0.00e+00	0	58	0	71303168	51	5093
2026-01-25 17:40:13.65	208.38	12.71	-40.0	-42.9	18.7	0.00e+00	0	58	0	74448896	51	5069
2026-01-25 17:40:16.67	207.67	12.99	-39.6	-42.3	19.4	0.00e+00	0	58	0	77594624	51	4707
2026-01-25 17:40:19.70	206.95	13.28	-39.3	-41.9	19.8	0.00e+00	0	58	0	81264640	50	4762
2026-01-25 17:40:22.73	206.21	13.57	-39.6	-42.2	19.4	0.00e+00	0	58	0	84934656	50	4982
2026-01-25 17:40:25.76	205.45	13.85	-39.8	-42.6	19.1	0.00e+00	0	58	0	88080384	50	5198
2026-01-25 17:40:28.79	204.67	14.14	-39.4	-42.0	19.7	0.00e+00	0	58	0	91750400	50	4828
2026-01-25 17:40:31.81	203.87	14.43	-39.0	-41.4	20.3	0.00e+00	0	58	0	94896128	50	4526
2026-01-25 17:40:34.85	203.05	14.72	-39.4	-41.9	19.8	0.00e+00	0	58	0	98566144	50	4790
2026-01-25 17:40:37.87	202.21	15.01	-39.2	-41.8	19.9	0.00e+00	0	58	0	101711872	50	4714
2026-01-25 17:40:40.90	201.35	15.30	-38.7	-40.9	20.8	0.00e+00	0	59	0	105381888	49	4534
2026-01-25 17:40:43.93	200.46	15.59	-38.8	-41.1	20.6	0.00e+00	0	58	0	108527616	49	4623
2026-01-25 17:40:46.96	199.56	15.88	-38.9	-41.3	20.3	0.00e+00	0	59	0	112197632	49	4749
2026-01-25 17:40:49.99	198.63	16.17	-38.9	-41.3	20.3	0.00e+00	0	59	0	115343360	49	4718
2026-01-25 17:40:53.02	197.68	16.45	-38.8	-41.1	20.5	0.00e+00	0	59	0	118489088	49	4622
2026-01-25 17:40:56.04	196.71	16.73	-38.6	-40.8	20.8	0.00e+00	0	59	0	122159104	49	4493
2026-01-25 17:40:59.07	195.71	17.01	-38.6	-40.8	20.8	0.00e+00	0	59	0	125304832	49	4474
2026-01-25 17:41:02.10	194.69	17.29	-38.4	-40.7	21.0	0.00e+00	0	58	0	128974848	48	4666
2026-01-25 17:41:05.13	193.65	17.57	-38.4	-40.6	21.1	0.00e+00	0	59	0	132644864	48	4615
2026-01-25 17:41:08.16	192.58	17.84	-38.4	-40.6	21.2	0.00e+00	0	59	0	135790592	48	4599
2026-01-25 17:41:11.19	191.49	18.11	-37.8	-39.8	21.8	0.00e+00	0	59	0	139460608	47	4487
2026-01-25 17:41:14.22	190.37	18.37	-37.7	-39.8	21.9	0.00e+00	0	59	0	142606336	47	4470
2026-01-25 17:41:17.25	189.24	18.62	-38.0	-40.2	21.5	0.00e+00	0	59	0	146276352	47	4654
2026-01-25 17:41:20.28	188.07	18.87	-38.2	-40.4	21.3	0.00e+00	0	59	0	149422080	47	4769
2026-01-25 17:41:23.31	186.89	19.11	-38.4	-40.6	21.1	0.00e+00	0	59	0	153092096	47	4914
2026-01-25 17:41:26.34	185.68	19.35	-38.6	-41.0	20.7	0.00e+00	0	59	0	156237824	47	5119
2026-01-25 17:41:29.38	184.45	19.57	-38.7	-40.9	20.8	0.00e+00	0	59	0	159907840	48	4801
2026-01-25 17:41:32.41	183.19	19.79	-38.3	-40.5	21.2	0.00e+00	0	59	0	163053568	48	4588
2026-01-25 17:41:35.44	181.92	20.00	-38.1	-40.1	21.5	0.00e+00	0	59	0	166723584	48	4389
2026-01-25 17:41:38.47	180.63	20.20	-37.8	-39.9	21.8	0.00e+00	0	59	0	169869312	47	4529
2026-01-25 17:41:41.50	179.31	20.38	-38.3	-40.6	21.1	0.00e+00	0	59	0	173539328	47	4885
2026-01-25 17:41:44.53	177.98	20.55	-38.1	-40.2	21.5	0.00e+00	0	59	0	176685056	47	4680
2026-01-25 17:41:47.55	176.64	20.72	-38.1	-40.2	21.6	0.00e+00	0	59	0	180355072	47	4665
2026-01-25 17:41:50.58	175.27	20.86	-38.3	-40.4	21.3	0.00e+00	0	60	0	183500800	47	4809
2026-01-25 17:41:53.61	173.89	21.00	-38.8	-41.0	21.1	0.00e+00	0	59	0	187170816	49	4583
2026-01-25 17:41:56.64	172.50	21.12	-38.7	-40.9	21.0	0.00e+00	0	59	0	190316544	49	4510
2026-01-25 17:41:59.67	171.09	21.22	-38.4	-40.5	21.4	0.00e+00	0	60	0	193986560	48	4590
2026-01-25 17:42:02.70	169.67	21.31	-38.2	-40.3	21.6	0.00e+00	0	59	0	197132288	48	4475
2026-01-25 17:42:05.73	168.25	21.39	-38.0	-40.0	22.0	0.00e+00	0	59	0	200802304	48	4314
2026-01-25 17:42:08.76	166.81	21.45	-37.1	-39.0	23.0	0.00e+00	0	59	0	203948032	46	4300
2026-01-25 17:42:11.78	165.38	21.49	-37.2	-39.1	22.9	0.00e+00	0	59	0	207618048	46	4358
2026-01-25 17:42:14.81	163.94	21.52	-37.6	-39.5	22.5	0.00e+00	0	60	0	210763776	46	4590
2026-01-25 17:42:17.84	162.49	21.53	-37.9	-40.0	22.0	0.00e+00	0	60	0	214433792	46	4821
2026-01-25 17:42:20.87	161.05	21.52	-37.7	-39.7	22.4	0.00e+00	0	59	0	217579520	46	4659
2026-01-25 17:42:23.90	159.60	21.50	-37.5	-39.4	22.6	0.00e+00	0	60	0	221249536	45	4796
2026-01-25 17:42:26.93	158.16	21.46	-37.5	-39.5	22.6	0.00e+00	0	60	0	224395264	45	4821
2026-01-25 17:42:29.95	156.73	21.40	-38.1	-40.3	21.9	0.00e+00	0	60	0	228065280	46	4986
2026-01-25 17:42:32.98	155.31	21.33	-38.0	-40.1	22.0	0.00e+00	0	59	0	231211008	46	4879
2026-01-25 17:42:36.01	153.89	21.24	-37.6	-39.5	22.5	0.00e+00	0	59	0	234356736	46	4587
2026-01-25 17:42:39.04	152.48	21.14	-38.2	-40.3	21.8	0.00e+00	0	60	0	238026752	46	5024
2026-01-25 17:42:42.07	151.09	21.02	-38.3	-40.4	21.7	0.00e+00	0	60	0	241172480	47	4792
2026-01-25 17:42:45.10	149.70	20.89	-37.8	-39.8	22.3	0.00e+00	0	60	0	244842496	47	4473
2026-01-25 17:42:48.13	148.34	20.75	-38.2	-40.4	21.7	0.00e+00	0	60	0	248512512	47	4778
2026-01-25 17:42:51.16	146.98	20.59	-38.5	-40.7	21.4	0.00e+00	0	60	0	251658240	47	4958
2026-01-25 17:42:54.19	145.65	20.42	-38.4	-40.7	21.4	0.00e+00	0	60	0	255328256	47	4927
2026-01-25 17:42:57.22	144.33	20.23	-38.6	-40.9	21.2	0.00e+00	0	60	0	258473984	47	5079
2026-01-25 17:43:00.26	143.03	20.04	-38.4	-40.6	21.4	0.00e+00	0	60	0	262144000	47	4887
2026-01-25 17:43:03.28	141.76	19.84	-38.4	-40.6	21.5	0.00e+00	0	60	0	265289728	47	4894
2026-01-25 17:43:06.31	140.51	19.62	-38.1	-40.2	21.8	0.00e+00	0	60	0	268959744	47	4669
2026-01-25 17:43:09.34	139.28	19.40	-38.1	-40.3	21.7	0.00e+00	0	60	0	272105472	47	4721
2026-01-25 17:43:12.37	138.07	19.16	-37.8	-39.9	22.1	0.00e+00	0	60	0	275251200	47	4521
2026-01-25 17:43:15.40	136.88	18.92	-38.4	-40.6	21.3	0.00e+00	0	60	0	278921216	47	4920
2026-01-25 17:43:18.43	135.71	18.68	-38.6	-40.9	21.0	0.00e+00	0	60	0	282591232	47	5094
2026-01-25 17:43:21.46	134.57	18.42	-38.3	-40.6	21.3	0.00e+00	0	60	0	285736960	47	4881
2026-01-25 17:43:24.49	133.46	18.16	-38.5	-40.8	20.2	8.00e-06	0	60	0	289406976	47	5012
2026-01-25 17:43:27.52	132.36	17.90	-38.3	-40.7	20.6	1.83e-05	0	60	0	292552704	47	4980
2026-01-25 17:43:30.55	131.29	17.63	-38.2	-40.4	20.8	7.43e-05	0	60	0	296222720	47	4802
2026-01-25 17:43:33.58	130.25	17.36	-38.4	-40.7	21.0	8.46e-05	0	60	0	299368448	47	4948
2026-01-25 17:43:36.61	129.22	17.08	-38.5	-41.0	20.7	0.00e+00	0	60	0	303038464	47	5122
2026-01-25 17:43:39.63	128.23	16.80	-38.5	-40.9	20.6	1.10e-06	0	60	0	306184192	47	5070
2026-01-25 17:43:42.66	127.25	16.52	-38.7	-41.1	20.6	3.40e-06	0	60	0	309854208	48	4899
2026-01-25 17:43:45.69	126.30	16.23	-38.7	-41.3	20.4	0.00e+00	0	60	0	312999936	48	4992
2026-01-25 17:43:48.72	125.37	15.95	-38.9	-41.6	19.3	2.20e-06	0	60	0	316145664	48	5191
2026-01-25 17:43:51.75	124.46	15.66	-39.0	-41.6	20.0	3.40e-06	0	60	0	319815680	48	5181
2026-01-25 17:43:54.78	123.57	15.37	-38.3	-41.6	19.4	3.40e-06	0	60	0	323485696	48	5176
2026-01-25 17:43:57.81	122.71	15.08	-37.4	-41.9	18.6	9.10e-06	0	60	0	326631424	47	5708
2026-01-25 17:44:00.84	121.86	14.79	-35.9	-42.1	17.0	1.88e-04	0	60	0	330301440	45	6508
2026-01-25 17:44:03.86	121.04	14.50	-36.0	-41.9	16.5	8.46e-04	0	60	0	333447168	43	7137
2026-01-25 17:44:06.89	120.24	14.22	-34.9	-42.3	15.5	3.07e-03	0	60	0	337117184	44	7102
2026-01-25 17:44:09.92	119.46	13.93	-37.9	-42.0	17.8	2.28e-03	0	60	0	340262912	45	6460
2026-01-25 17:44:12.95	118.70	13.64	-36.6	-42.7	16.8	1.29e-03	0	60	0	343932928	46	6580
2026-01-25 17:44:15.98	117.95	13.35	-34.4	-42.2	15.9	4.18e-03	0	60	0	347078656	42	7883
2026-01-25 17:44:19.01	117.23	13.07	-34.9	-42.8	14.5	5.12e-03	0	60	0	350748672	40	9456
2026-01-25 17:44:22.04	116.52	12.79	-26.8	-41.6	14.9	8.69e-03	0	60	0	353894400	34	11592
2026-01-25 17:44:25.07	115.83	12.50	-35.6	-42.5	15.8	7.09e-03	0	60	0	357040128	42	8096
2026-01-25 17:44:28.10	115.16	12.22	-36.9	-43.2	15.2	1.26e-02	0	60	0	360710144	44	7826
2026-01-25 17:44:31.13	114.50	11.94	-32.2	-43.5	12.5	3.21e-02	0	60	0	363855872	37	12131
2026-01-25 17:44:34.16	113.87	11.67	-36.9	-43.4	13.7	2.19e-02	0	60	0	367525888	44	8027
2026-01-25 17:44:37.19	113.24	11.39	-36.3	-43.3	14.5	1.94e-02	0	60	0	370671616	44	7903
2026-01-25 17:44:40.21	112.64	11.12	-33.5	-44.7	11.7	2.96e-02	0	60	0	374341632	40	11699
2026-01-25 17:44:43.24	112.04	10.85	-31.9	-45.2	10.3	6.54e-02	0	60	0	377487360	42	11122
2026-01-25 17:44:46.27	111.47	10.58	-30.8	-44.3	8.9	1.74e-01	0	60	0	380633088	34	15891
2026-01-25 17:44:49.30	110.90	10.32	-34.4	-42.9	12.8	4.23e-02	0	60	0	384303104	40	9578
2026-01-25 17:44:52.33	110.35	10.05	-32.0	-46.4	10.7	8.45e-02	0	60	0	387448832	40	14241
2026-01-25 17:44:55.36	109.81	9.79	-33.4	-45.2	11.7	6.51e-02	0	61	0	391118848	42	11118
2026-01-25 17:44:58.38	109.29	9.53	-34.3	-44.7	12.1	6.62e-02	0	60	0	394264576	41	11061
2026-01-25 17:45:01.42	108.78	9.27	-36.5	-44.6	12.2	1.26e-01	0	60	0	397410304	44	9205
2026-01-25 17:45:04.45	108.28	9.02	-37.5	-44.5	13.6	9.10e-02	0	60	0	401080320	46	8155
2026-01-25 17:45:07.47	107.79	8.77	-37.4	-44.8	13.6	1.30e-02	0	60	0	404226048	47	7918
2026-01-25 17:45:10.50	107.32	8.52	-37.1	-45.6	12.5	5.65e-03	0	61	0	407896064	47	8729
2026-01-25 17:45:13.53	106.85	8.27	-37.5	-44.2	12.8	2.53e-03	0	60	0	411041792	47	7453
2026-01-25 17:45:16.56	106.40	8.02	-38.0	-49.3	7.9	7.27e-03	0	61	0	414711808	42	17719
2026-01-25 17:45:19.59	105.95	7.78	-45.1	-63.4	3.8	8.41e-01	0	61	104	414711808	60	31868
2026-01-25 17:45:22.62	105.52	7.54	-45.6	-63.9	3.8	8.46e-01	0	61	104	414711808	61	32041
2026-01-25 17:45:25.65	105.10	7.30	-45.8	-64.2	3.8	8.46e-01	0	61	104	414711808	62	31211
2026-01-25 17:45:28.68	104.68	7.07	-45.6	-63.9	3.8	8.46e-01	0	60	104	414711808	62	30167
2026-01-25 17:45:31.72	104.28	6.83	-45.5	-63.6	3.8	8.45e-01	0	61	104	414711808	62	29167
2026-01-25 17:45:34.75	103.88	6.60	-45.3	-63.4	3.8	8.46e-01	0	61	104	414711808	62	28591
2026-01-25 17:45:37.78	103.50	6.37	-45.3	-63.4	3.8	8.46e-01	0	61	104	414711808	62	28599
2026-01-25 17:45:40.81	103.12	6.14	-45.3	-63.4	3.8	8.46e-01	0	61	104	414711808	62	28605
2026-01-25 17:45:43.84	102.75	5.92	-45.2	-63.4	3.8	8.47e-01	0	61	104	414711808	62	28573
2026-01-25 17:45:46.87	102.39	5.69	-45.3	-63.4	3.8	8.46e-01	0	61	104	414711808	62	28512
2026-01-25 17:45:49.90	102.03	5.47	-45.3	-63.4	3.8	8.45e-01	0	60	104	414711808	62	28473
2026-01-25 17:45:52.93	101.69	5.25	-45.3	-63.4	3.8	8.46e-01	0	61	104	414711808	62	28438
2026-01-25 17:45:55.96	101.35	5.04	-45.3	-63.4	3.8	8.46e-01	0	61	104	414711808	61	30142
2026-01-25 17:45:58.99	101.02	4.82	-45.3	-63.4	3.8	8.45e-01	0	61	104	414711808	61	30063
2026-01-25 17:46:02.03	100.69	4.61	-45.3	-63.4	3.8	8.46e-01	0	61	104	414711808	61	30067
2026-01-25 17:46:05.06	100.37	4.40	-45.2	-63.3	3.8	8.46e-01	0	61	104	414711808	61	29993
2026-01-25 17:46:08.09	100.06	4.19	-45.2	-63.3	3.8	8.45e-01	0	61	104	414711808	61	30011
2026-01-25 17:46:11.12	99.76	3.98	-45.2	-63.3	3.8	8.46e-01	0	61	104	414711808	61	30007
2026-01-25 17:46:14.16	99.46	3.77	-45.2	-63.4	3.8	8.45e-01	0	61	104	414711808	61	30047
2026-01-25 17:46:17.19	99.17	3.57	-45.2	-63.3	3.8	8.46e-01	0	61	104	414711808	61	29935
2026-01-25 17:46:20.22	98.88	3.37	-45.2	-63.3	3.8	8.46e-01	0	61	104	414711808	61	29977
2026-01-25 17:46:23.25	98.60	3.17	-45.2	-63.3	3.8	8.45e-01	0	61	104	414711808	61	29900
2026-01-25 17:46:26.28	98.32	2.97	-45.2	-63.3	3.8	8.47e-01	0	61	104	414711808	61	29907
2026-01-25 17:46:29.31	98.05	2.77	-45.2	-63.3	3.8	8.46e-01	0	61	104	414711808	61	29925
2026-01-25 17:46:32.35	97.79	2.57	-45.2	-63.3	3.8	8.47e-01	0	61	104	414711808	61	29848
2026-01-25 17:46:35.37	97.53	2.38	-45.2	-63.3	3.8	8.46e-01	0	61	104	414711808	61	29845
2026-01-25 17:46:38.41	97.27	2.19	-45.2	-63.3	3.8	8.46e-01	0	61	104	414711808	61	29887
2026-01-25 17:46:41.44	97.03	2.00	-45.2	-63.3	3.8	8.46e-01	0	61	104	414711808	61	29940

#Closed at: 2026-01-25 17:46:44
#Recorded file [414 MB]: D:/lorett/data/31039_260125_203757.dat