passes_logs/2026/01/25/R2.0S_Moscow/R2.0S_Moscow__20260125_000741_NOAA_20_JPSS-1_rec.log

#Pass ID: 20260125_000741_NOAA 20 (JPSS-1)
#Satellite: NOAA 20 (JPSS-1)
#Configuration: NOAA 20
#almurnet v.1.7.20251203
#Start time: 2026-01-25 00:07:42

#Version: 2.2.20231116
#Station: R2.0S_Moscow
#Location: 37.707566 lon 55.798166 lat
#TLE: 1 43013U 17073A   26024.42258823  .00000183  00000+0  10747-3 0  9990
#TLE: 2 43013  98.7646 325.2629 0001105  25.8644 334.2587 14.19539754424075

#Time	Az	El	Level	Level2	SNR	BER	BlckErr	Temp	State	Recorded	gain1	gain2
2026-01-25 00:07:42.34	14.28	2.04	-42.4	-56.9	3.8	1.49e+00	0	53	0	0	56	19015
2026-01-25 00:07:46.37	14.21	2.30	-42.4	-56.9	3.8	1.49e+00	0	54	104	0	56	18954
2026-01-25 00:07:50.42	14.15	2.56	-42.4	-56.9	3.8	1.49e+00	0	54	104	0	56	18962
2026-01-25 00:07:54.46	14.08	2.82	-42.4	-56.9	3.8	1.49e+00	0	54	104	0	56	19089
2026-01-25 00:07:58.50	14.01	3.09	-42.4	-56.8	3.8	1.49e+00	0	54	104	0	56	18883
2026-01-25 00:08:02.54	13.94	3.35	-42.4	-56.8	3.8	1.49e+00	0	55	104	0	56	18864
2026-01-25 00:08:06.58	13.87	3.62	-42.4	-56.7	3.8	1.49e+00	0	55	104	0	56	18654
2026-01-25 00:08:10.62	13.79	3.89	-42.4	-56.7	3.8	1.49e+00	0	55	104	0	56	18688
2026-01-25 00:08:14.66	13.72	4.17	-42.4	-56.5	3.8	1.49e+00	0	55	104	0	56	18246
2026-01-25 00:08:18.71	13.64	4.45	-42.3	-56.4	3.8	1.49e+00	0	56	104	0	56	17895
2026-01-25 00:08:22.75	13.56	4.73	-42.3	-56.3	3.8	1.49e+00	0	55	104	0	56	17752
2026-01-25 00:08:26.79	13.48	5.01	-42.3	-56.1	3.8	1.49e+00	0	56	104	0	56	17456
2026-01-25 00:08:30.83	13.39	5.30	-42.3	-55.5	3.8	1.49e+00	0	56	104	0	56	16154
2026-01-25 00:08:34.88	13.31	5.59	-42.2	-54.9	3.8	1.49e+00	0	56	104	0	56	15133
2026-01-25 00:08:38.92	13.22	5.88	-42.2	-55.1	3.8	1.49e+00	0	56	104	0	56	15402
2026-01-25 00:08:42.96	13.13	6.17	-42.3	-56.6	3.8	1.49e+00	0	57	104	0	56	18425
2026-01-25 00:08:47.01	13.04	6.47	-42.3	-56.3	3.8	1.49e+00	0	57	104	0	56	17728
2026-01-25 00:08:51.05	12.95	6.78	-42.0	-52.2	4.6	1.32e+00	0	57	0	1048576	56	11123
2026-01-25 00:08:55.09	12.85	7.08	-41.4	-49.1	6.4	2.61e-01	0	57	0	8388608	54	8727
2026-01-25 00:08:59.13	12.75	7.39	-41.0	-47.3	8.1	6.44e-02	0	57	0	15728640	54	7048
2026-01-25 00:09:03.18	12.65	7.71	-40.8	-46.7	8.7	3.86e-02	0	57	0	23068672	53	6997
2026-01-25 00:09:07.22	12.55	8.02	-41.1	-47.5	7.8	7.70e-02	0	58	0	30408704	53	7690
2026-01-25 00:09:11.26	12.44	8.34	-41.3	-47.0	8.7	8.86e-02	0	58	0	35651584	54	6877
2026-01-25 00:09:15.30	12.33	8.67	-40.7	-46.0	9.6	1.35e-02	0	58	0	44040192	53	6447
2026-01-25 00:09:19.34	12.22	9.00	-40.6	-45.9	9.6	1.35e-02	0	58	0	51380224	53	6390
2026-01-25 00:09:23.38	12.10	9.33	-40.5	-45.5	10.0	8.21e-03	0	58	0	58720256	52	6494
2026-01-25 00:09:27.42	11.99	9.67	-40.4	-45.4	10.2	6.41e-03	0	58	0	66060288	52	6361
2026-01-25 00:09:31.45	11.87	10.01	-40.4	-45.1	10.5	4.14e-03	0	58	0	73400320	52	6189
2026-01-25 00:09:35.49	11.74	10.36	-40.4	-45.1	10.6	3.82e-03	0	59	0	81788928	52	6133
2026-01-25 00:09:39.53	11.61	10.71	-40.4	-45.0	10.8	2.54e-03	0	58	0	89128960	52	6105
2026-01-25 00:09:43.57	11.48	11.07	-40.6	-45.4	10.5	3.53e-03	0	59	0	96468992	52	6359
2026-01-25 00:09:47.61	11.35	11.43	-40.6	-45.1	10.9	2.07e-03	0	59	0	103809024	52	6185
2026-01-25 00:09:51.65	11.21	11.79	-40.5	-44.9	11.2	1.29e-03	0	59	0	112197632	52	6008
2026-01-25 00:09:55.68	11.07	12.17	-40.6	-44.7	11.7	5.55e-04	0	59	0	119537664	52	5867
2026-01-25 00:09:59.72	10.92	12.54	-40.7	-44.8	11.8	4.47e-04	0	59	0	126877696	52	5935
2026-01-25 00:10:03.76	10.77	12.93	-40.8	-44.8	12.0	3.94e-04	0	59	0	134217728	52	5945
2026-01-25 00:10:07.80	10.61	13.32	-40.8	-44.6	12.3	1.29e-04	0	59	0	142606336	52	5826
2026-01-25 00:10:11.83	10.45	13.71	-40.6	-44.2	12.9	6.02e-05	0	59	0	149946368	52	5546
2026-01-25 00:10:15.87	10.29	14.11	-40.7	-44.3	12.8	5.64e-05	0	59	0	157286400	52	5652
2026-01-25 00:10:19.91	10.12	14.52	-40.7	-44.2	13.0	3.50e-05	0	59	0	164626432	52	5590
2026-01-25 00:10:23.95	9.94	14.94	-40.8	-44.2	13.1	3.43e-05	0	59	0	171966464	52	5568
2026-01-25 00:10:27.99	9.76	15.36	-40.9	-44.3	13.2	2.05e-05	0	60	0	180355072	52	5610
2026-01-25 00:10:32.03	9.58	15.79	-40.9	-44.3	13.2	1.90e-05	0	60	0	187695104	52	5651
2026-01-25 00:10:36.06	9.39	16.22	-40.9	-44.3	13.3	1.98e-05	0	60	0	195035136	52	5608
2026-01-25 00:10:40.10	9.19	16.67	-40.8	-44.1	13.5	8.30e-06	0	60	0	202375168	52	5515
2026-01-25 00:10:44.14	8.98	17.12	-41.0	-44.3	13.4	9.10e-06	0	60	0	210763776	52	5644
2026-01-25 00:10:48.18	8.77	17.58	-40.9	-44.1	13.7	4.50e-06	0	60	0	218103808	52	5494
2026-01-25 00:10:52.22	8.55	18.05	-40.9	-44.1	13.7	7.60e-06	0	60	0	225443840	52	5503
2026-01-25 00:10:56.26	8.33	18.53	-40.8	-43.9	13.9	3.00e-06	0	60	0	232783872	52	5368
2026-01-25 00:11:00.29	8.09	19.01	-40.9	-44.2	13.7	4.50e-06	0	60	0	240123904	52	5539
2026-01-25 00:11:04.33	7.85	19.50	-40.9	-44.0	13.8	4.50e-06	0	60	0	248512512	52	5464
2026-01-25 00:11:08.37	7.60	20.01	-40.9	-44.1	13.7	6.10e-06	0	60	0	255852544	52	5521
2026-01-25 00:11:12.40	7.34	20.52	-40.9	-44.1	13.8	2.20e-06	0	60	0	263192576	52	5499
2026-01-25 00:11:16.44	7.07	21.05	-41.1	-44.3	13.6	6.80e-06	0	60	0	270532608	52	5622
2026-01-25 00:11:20.48	6.80	21.58	-41.0	-44.2	13.8	3.80e-06	0	60	0	277872640	52	5545
2026-01-25 00:11:24.52	6.51	22.13	-41.0	-44.2	13.7	6.80e-06	0	60	0	286261248	52	5577
2026-01-25 00:11:28.56	6.21	22.68	-41.0	-44.2	13.8	2.20e-06	0	60	0	293601280	52	5538
2026-01-25 00:11:32.60	5.90	23.25	-41.1	-44.3	13.7	6.10e-06	0	60	0	300941312	52	5603
2026-01-25 00:11:36.64	5.57	23.83	-41.1	-44.3	13.6	7.60e-06	0	60	0	308281344	52	5652
2026-01-25 00:11:40.68	5.23	24.42	-41.3	-44.7	13.4	1.60e-05	0	60	0	316669952	53	5529
2026-01-25 00:11:44.71	4.89	25.03	-41.4	-44.9	13.1	3.12e-05	0	60	0	324009984	53	5695
2026-01-25 00:11:48.76	4.52	25.65	-41.6	-45.2	12.9	5.64e-05	0	60	0	331350016	53	5860
2026-01-25 00:11:52.79	4.14	26.28	-41.8	-45.5	12.5	1.53e-04	0	61	0	338690048	54	5742
2026-01-25 00:11:56.83	3.74	26.92	-42.0	-46.0	12.0	3.17e-04	0	61	0	346030080	54	6124
2026-01-25 00:12:00.87	3.33	27.58	-42.3	-46.6	11.4	8.20e-04	0	61	0	354418688	55	6175
2026-01-25 00:12:04.91	2.90	28.25	-42.6	-47.1	10.8	2.08e-03	0	61	0	361758720	55	6557
2026-01-25 00:12:08.94	2.45	28.94	-42.6	-47.2	10.8	2.49e-03	0	61	0	369098752	55	6575
2026-01-25 00:12:12.98	1.98	29.64	-42.9	-47.7	10.4	4.37e-03	0	61	0	376438784	56	6583
2026-01-25 00:12:17.02	1.49	30.36	-43.1	-48.2	10.0	8.41e-03	0	61	0	384827392	56	6967
2026-01-25 00:12:21.06	0.97	31.09	-43.1	-48.1	10.0	7.07e-03	0	61	0	392167424	56	6957
2026-01-25 00:12:25.10	0.43	31.84	-43.2	-48.5	9.6	1.04e-02	0	61	0	399507456	56	7239
2026-01-25 00:12:29.14	359.86	32.61	-43.4	-48.9	9.2	1.92e-02	0	61	0	406847488	57	7173
2026-01-25 00:12:33.17	359.27	33.39	-43.3	-48.8	9.3	1.93e-02	0	61	0	414187520	57	7078
2026-01-25 00:12:37.21	358.64	34.19	-43.4	-49.0	9.2	1.88e-02	0	61	0	422576128	57	7215
2026-01-25 00:12:41.25	357.98	35.01	-43.5	-49.3	8.9	1.97e-02	0	61	0	429916160	57	7477
2026-01-25 00:12:45.29	357.29	35.84	-43.5	-49.2	9.0	2.53e-02	0	61	0	437256192	57	7392
2026-01-25 00:12:49.33	356.56	36.69	-43.4	-48.9	9.3	1.91e-02	0	61	0	444596224	57	7162
2026-01-25 00:12:53.36	355.79	37.56	-43.1	-48.1	10.2	6.99e-03	0	61	0	452984832	57	6537
2026-01-25 00:12:57.40	354.97	38.44	-43.1	-48.1	10.2	5.52e-03	0	61	0	460324864	57	6499
2026-01-25 00:13:01.44	354.11	39.34	-42.9	-47.5	10.7	3.13e-03	0	61	0	467664896	57	6117
2026-01-25 00:13:05.48	353.20	40.26	-43.1	-48.0	10.3	4.62e-03	0	61	0	475004928	57	6434
2026-01-25 00:13:09.52	352.23	41.19	-43.2	-48.1	10.1	5.13e-03	0	61	0	482344960	57	6548
2026-01-25 00:13:13.56	351.20	42.14	-43.2	-48.1	10.2	6.87e-03	0	61	0	490733568	57	6533
2026-01-25 00:13:17.60	350.12	43.10	-43.1	-47.8	10.5	5.08e-03	0	61	0	498073600	57	6326
2026-01-25 00:13:21.64	348.96	44.07	-42.7	-47.0	11.4	9.80e-04	0	61	0	505413632	57	5732
2026-01-25 00:13:25.68	347.73	45.06	-42.8	-47.1	11.3	1.23e-03	0	61	0	512753664	57	5826
2026-01-25 00:13:29.72	346.42	46.05	-42.8	-47.2	11.2	1.18e-03	0	61	0	521142272	57	5879
2026-01-25 00:13:33.76	345.02	47.05	-42.9	-47.5	10.9	2.34e-03	0	61	0	528482304	57	6086
2026-01-25 00:13:37.80	343.53	48.05	-42.9	-47.4	11.0	2.06e-03	0	61	0	535822336	57	6001
2026-01-25 00:13:41.83	341.94	49.05	-42.5	-46.6	11.9	4.56e-04	0	61	0	543162368	57	5480
2026-01-25 00:13:45.87	340.24	50.05	-42.6	-46.6	11.9	5.71e-04	0	61	0	550502400	57	5483
2026-01-25 00:13:49.91	338.42	51.05	-42.5	-46.4	12.0	4.43e-04	0	61	0	558891008	57	5385
2026-01-25 00:13:53.95	336.48	52.03	-41.5	-44.6	13.7	1.22e-05	0	61	0	566231040	54	5208
2026-01-25 00:13:57.99	334.41	53.00	-41.4	-44.5	13.8	2.20e-06	0	61	0	573571072	54	5153
2026-01-25 00:14:02.02	332.20	53.94	-41.3	-44.4	13.9	4.50e-06	0	61	0	580911104	54	5066
2026-01-25 00:14:06.06	329.84	54.85	-41.2	-44.1	14.2	1.50e-06	0	61	0	589299712	54	4908
2026-01-25 00:14:10.10	327.32	55.73	-42.1	-45.9	12.4	1.22e-04	0	61	0	596639744	54	6010
2026-01-25 00:14:14.14	324.64	56.56	-42.8	-47.0	11.3	9.06e-04	0	61	0	603979776	56	6117
2026-01-25 00:14:18.18	321.80	57.34	-42.7	-46.8	11.6	7.59e-04	0	61	0	611319808	56	5951
2026-01-25 00:14:22.22	318.80	58.06	-42.9	-47.2	11.2	1.86e-03	0	61	0	618659840	56	6260
2026-01-25 00:14:26.26	315.64	58.70	-42.8	-47.1	11.3	1.02e-03	0	61	0	627048448	56	6150
2026-01-25 00:14:30.29	312.35	59.27	-42.6	-46.8	11.6	1.36e-03	0	61	0	634388480	56	5939
2026-01-25 00:14:34.32	308.91	59.76	-42.1	-45.6	12.7	6.86e-05	0	61	0	641728512	56	5218
2026-01-25 00:14:38.36	305.35	60.15	-41.8	-45.3	12.9	3.58e-05	0	62	0	649068544	55	5322
2026-01-25 00:14:42.39	301.70	60.43	-41.6	-45.0	13.2	1.67e-05	0	61	0	657457152	55	5106
2026-01-25 00:14:46.43	297.97	60.62	-41.1	-44.1	14.1	2.20e-06	0	61	0	664797184	54	4905
2026-01-25 00:14:50.47	294.20	60.69	-40.6	-43.3	15.0	0.00e+00	0	62	0	672137216	53	4734
2026-01-25 00:14:54.50	290.44	60.66	-40.2	-42.7	15.6	0.00e+00	0	62	0	679477248	52	4686
2026-01-25 00:14:58.54	286.69	60.51	-40.1	-42.5	15.7	0.00e+00	0	61	0	686817280	52	4577
2026-01-25 00:15:02.58	283.00	60.26	-40.3	-42.9	15.4	0.00e+00	0	61	0	695205888	52	4763
2026-01-25 00:15:06.62	279.40	59.91	-40.6	-43.3	15.0	0.00e+00	0	61	0	702545920	52	5016
2026-01-25 00:15:10.66	275.91	59.46	-41.0	-43.9	14.3	0.00e+00	0	61	0	709885952	52	5397
2026-01-25 00:15:14.69	272.55	58.92	-41.4	-44.5	13.7	1.06e-05	0	62	0	717225984	53	5450
2026-01-25 00:15:18.73	269.34	58.29	-41.8	-45.3	12.9	3.50e-05	0	61	0	725614592	54	5611
2026-01-25 00:15:22.77	266.28	57.60	-42.0	-45.6	12.6	9.15e-05	0	62	0	732954624	54	5822
2026-01-25 00:15:26.81	263.38	56.84	-41.6	-44.9	13.3	3.12e-05	0	61	0	740294656	54	5397
2026-01-25 00:15:30.85	260.64	56.02	-41.3	-44.4	13.9	8.30e-06	0	62	0	747634688	54	5048
2026-01-25 00:15:34.88	258.07	55.16	-40.9	-43.8	14.5	0.00e+00	0	62	0	754974720	53	5010
2026-01-25 00:15:38.92	255.64	54.26	-41.0	-43.9	14.4	7.00e-07	0	62	0	763363328	53	5065
2026-01-25 00:15:42.96	253.37	53.32	-41.2	-44.2	14.1	7.00e-07	0	61	0	770703360	53	5247
2026-01-25 00:15:47.00	251.24	52.36	-41.9	-45.5	12.8	7.24e-05	0	61	0	778043392	54	5729
2026-01-25 00:15:51.03	249.26	51.38	-42.4	-46.5	11.8	3.27e-04	0	62	0	785383424	55	6067
2026-01-25 00:15:55.07	247.39	50.39	-42.6	-47.0	11.2	7.52e-04	0	61	0	792723456	55	6446
2026-01-25 00:15:59.11	245.65	49.39	-43.4	-48.7	9.6	1.49e-02	0	62	0	801112064	57	6974
2026-01-25 00:16:03.15	244.01	48.38	-43.1	-48.0	10.3	3.41e-03	0	62	0	808452096	57	6452
2026-01-25 00:16:07.19	242.49	47.37	-43.8	-49.8	8.4	4.42e-02	0	62	0	815792128	58	7508
2026-01-25 00:16:11.22	241.06	46.37	-43.0	-47.6	10.7	3.82e-03	0	62	0	823132160	58	5853
2026-01-25 00:16:15.26	239.71	45.37	-43.0	-47.8	10.5	3.97e-03	0	62	0	831520768	57	6315
2026-01-25 00:16:19.30	238.45	44.38	-42.6	-46.8	11.5	8.95e-04	0	62	0	838860800	57	5647
2026-01-25 00:16:23.34	237.26	43.40	-42.8	-47.3	11.1	1.96e-03	0	62	0	846200832	57	5935
2026-01-25 00:16:27.38	236.15	42.43	-42.8	-47.1	11.1	1.33e-03	0	62	0	853540864	57	5847
2026-01-25 00:16:31.41	235.10	41.48	-42.9	-47.4	10.9	2.14e-03	0	62	0	860880896	57	6055
2026-01-25 00:16:35.45	234.11	40.54	-43.3	-48.6	9.6	1.04e-02	0	62	0	869269504	57	6900
2026-01-25 00:16:39.49	233.17	39.61	-43.5	-49.2	9.0	2.12e-02	0	62	0	876609536	57	7384
2026-01-25 00:16:43.52	232.29	38.70	-43.5	-49.2	9.0	2.51e-02	0	61	0	883949568	57	7396
2026-01-25 00:16:47.56	231.46	37.81	-43.4	-48.8	9.4	2.02e-02	0	62	0	891289600	57	7088
2026-01-25 00:16:51.60	230.67	36.93	-43.1	-47.9	10.3	4.60e-03	0	62	0	899678208	57	6373
2026-01-25 00:16:55.64	229.92	36.07	-43.2	-48.3	9.8	9.70e-03	0	62	0	907018240	57	6716
2026-01-25 00:16:59.68	229.21	35.23	-43.4	-48.8	9.4	1.52e-02	0	62	0	914358272	57	7069
2026-01-25 00:17:03.72	228.54	34.40	-43.4	-48.8	9.3	1.71e-02	0	62	0	921698304	57	7088
2026-01-25 00:17:07.76	227.90	33.59	-43.4	-48.8	9.3	1.65e-02	0	62	0	929038336	57	7093
2026-01-25 00:17:11.79	227.29	32.80	-43.5	-49.4	8.8	3.13e-02	0	62	0	937426944	57	7583
2026-01-25 00:17:15.83	226.71	32.03	-43.1	-48.2	10.0	7.58e-03	0	62	0	944766976	57	6571
2026-01-25 00:17:19.87	226.16	31.27	-42.8	-47.4	10.8	2.94e-03	0	61	0	952107008	57	6061
2026-01-25 00:17:23.91	225.63	30.52	-43.0	-47.7	10.4	3.54e-03	0	62	0	959447040	57	6261
2026-01-25 00:17:27.94	225.13	29.80	-43.1	-48.1	10.1	6.56e-03	0	62	0	967835648	57	6509
2026-01-25 00:17:31.98	224.65	29.09	-43.0	-48.0	10.2	6.08e-03	0	62	0	975175680	57	6446
2026-01-25 00:17:36.02	224.18	28.39	-42.9	-47.6	10.6	3.62e-03	0	62	0	982515712	57	6150
2026-01-25 00:17:40.06	223.74	27.71	-42.8	-47.4	10.8	2.46e-03	0	62	0	989855744	57	6006
2026-01-25 00:17:44.09	223.32	27.05	-42.6	-47.1	11.1	1.65e-03	0	62	0	997195776	57	5835
2026-01-25 00:17:48.13	222.92	26.40	-42.5	-46.7	11.5	7.14e-04	0	62	0	1005584384	56	5886
2026-01-25 00:17:52.17	222.53	25.76	-42.4	-46.4	11.7	6.23e-04	0	62	0	1012924416	56	5706
2026-01-25 00:17:56.21	222.16	25.13	-42.3	-46.4	11.7	5.00e-04	0	62	0	1020264448	56	5707
2026-01-25 00:18:00.24	221.80	24.52	-42.4	-46.6	11.5	7.58e-04	0	62	0	1027604480	56	5820
2026-01-25 00:18:04.28	221.46	23.93	-42.4	-46.5	11.5	7.45e-04	0	62	0	1034944512	56	5783
2026-01-25 00:18:08.32	221.13	23.34	-42.4	-46.6	11.6	7.85e-04	0	62	0	1043333120	56	5791
2026-01-25 00:18:12.36	220.81	22.76	-42.3	-46.4	11.7	5.96e-04	0	61	0	1050673152	56	5701
2026-01-25 00:18:16.40	220.50	22.20	-42.4	-46.6	11.5	6.67e-04	0	62	0	1058013184	56	5789
2026-01-25 00:18:20.44	220.20	21.65	-42.2	-46.1	11.9	4.00e-04	0	62	0	1065353216	56	5527
2026-01-25 00:18:24.47	219.92	21.11	-41.8	-45.5	12.4	1.77e-04	0	62	0	1073741824	55	5453
2026-01-25 00:18:28.51	219.64	20.58	-41.7	-45.4	12.5	1.09e-04	0	62	0	1081081856	55	5399
2026-01-25 00:18:32.55	219.38	20.06	-41.9	-45.7	12.2	2.21e-04	0	62	0	1088421888	55	5581
2026-01-25 00:18:36.59	219.12	19.55	-42.0	-46.1	11.8	4.87e-04	0	62	0	1095761920	55	5819
2026-01-25 00:18:40.62	218.88	19.05	-41.9	-45.9	11.9	4.42e-04	0	62	0	1103101952	55	5704
2026-01-25 00:18:44.66	218.64	18.56	-41.7	-45.6	12.3	2.41e-04	0	62	0	1111490560	55	5473
2026-01-25 00:18:48.70	218.40	18.08	-41.7	-45.5	12.3	1.86e-04	0	62	0	1118830592	55	5427
2026-01-25 00:18:52.74	218.18	17.61	-41.9	-45.9	12.0	3.78e-04	0	62	0	1126170624	55	5669
2026-01-25 00:18:56.77	217.96	17.15	-41.9	-46.0	11.8	5.40e-04	0	62	0	1133510656	55	5759
2026-01-25 00:19:00.81	217.75	16.69	-42.0	-46.1	11.7	6.35e-04	0	62	0	1141899264	55	5816
2026-01-25 00:19:04.85	217.55	16.24	-42.1	-46.3	11.4	9.48e-04	0	62	0	1149239296	55	5967
2026-01-25 00:19:08.88	217.35	15.80	-42.1	-46.4	11.3	1.02e-03	0	61	0	1156579328	55	6019
2026-01-25 00:19:12.92	217.16	15.37	-42.1	-46.5	11.2	1.11e-03	0	62	0	1163919360	55	6066
2026-01-25 00:19:16.96	216.97	14.94	-42.1	-46.4	11.2	1.23e-03	0	62	0	1171259392	55	6056
2026-01-25 00:19:21.00	216.79	14.52	-42.1	-46.4	11.2	1.32e-03	0	61	0	1179648000	55	6043
2026-01-25 00:19:25.03	216.62	14.11	-42.2	-46.7	10.9	2.20e-03	0	62	0	1186988032	55	6239
2026-01-25 00:19:29.07	216.45	13.71	-42.2	-46.8	10.8	2.52e-03	0	62	0	1194328064	55	6289
2026-01-25 00:19:33.11	216.28	13.31	-42.2	-46.9	10.7	2.85e-03	0	62	0	1201668096	55	6369
2026-01-25 00:19:37.15	216.12	12.92	-42.2	-46.8	10.8	2.95e-03	0	62	0	1210056704	55	6286
2026-01-25 00:19:41.19	215.97	12.53	-42.2	-46.8	10.8	2.63e-03	0	62	0	1217396736	55	6282
2026-01-25 00:19:45.22	215.82	12.15	-42.1	-46.8	10.7	2.94e-03	0	62	0	1224736768	55	6293
2026-01-25 00:19:49.26	215.67	11.77	-42.2	-46.9	10.5	3.81e-03	0	62	0	1232076800	55	6417
2026-01-25 00:19:53.30	215.52	11.40	-42.2	-47.0	10.4	4.69e-03	0	62	0	1239416832	55	6490
2026-01-25 00:19:57.34	215.38	11.04	-42.3	-47.3	10.1	6.35e-03	0	62	0	1247805440	55	6681
2026-01-25 00:20:01.37	215.25	10.68	-42.4	-47.6	9.7	9.80e-03	0	62	0	1255145472	55	6930
2026-01-25 00:20:05.41	215.11	10.33	-42.5	-47.9	9.4	1.54e-02	0	62	0	1262485504	55	7161
2026-01-25 00:20:09.45	214.98	9.98	-42.5	-47.9	9.3	1.61e-02	0	62	0	1269825536	55	7183
2026-01-25 00:20:13.48	214.86	9.63	-42.5	-48.1	9.1	2.16e-02	0	62	0	1278214144	55	7356
2026-01-25 00:20:17.52	214.74	9.29	-42.5	-48.1	9.0	2.51e-02	0	62	0	1285554176	55	7364
2026-01-25 00:20:21.55	214.62	8.96	-42.5	-48.4	8.7	2.96e-02	0	62	0	1292894208	55	7592
2026-01-25 00:20:25.59	214.50	8.63	-42.4	-48.1	8.9	3.80e-02	0	62	0	1300234240	55	7363
2026-01-25 00:20:29.63	214.38	8.30	-42.5	-48.5	8.4	3.93e-02	0	62	0	1307574272	55	7690
2026-01-25 00:20:33.66	214.27	7.98	-43.9	-54.8	4.2	3.00e-01	54	62	0	1315962880	58	13309
2026-01-25 00:20:37.71	214.16	7.66	-45.0	-59.7	3.8	1.49e+00	0	62	104	1315962880	60	20915
2026-01-25 00:20:41.74	214.06	7.34	-45.2	-59.9	3.8	1.49e+00	0	62	104	1315962880	61	20130
2026-01-25 00:20:45.79	213.95	7.03	-45.1	-59.7	3.8	1.49e+00	0	62	104	1315962880	61	19760
2026-01-25 00:20:49.83	213.85	6.72	-45.1	-59.7	3.8	1.49e+00	0	62	104	1315962880	61	19630
2026-01-25 00:20:53.87	213.75	6.42	-45.1	-59.7	3.8	1.49e+00	0	62	104	1315962880	61	19812
2026-01-25 00:20:57.91	213.66	6.12	-45.1	-59.7	3.8	1.49e+00	0	62	104	1315962880	61	19646
2026-01-25 00:21:01.96	213.56	5.82	-45.1	-59.7	3.8	1.49e+00	0	62	104	1315962880	61	19757
2026-01-25 00:21:06.00	213.47	5.53	-45.1	-59.7	3.8	1.49e+00	0	62	104	1315962880	61	19651
2026-01-25 00:21:10.04	213.38	5.24	-45.1	-59.6	3.8	1.49e+00	0	62	104	1315962880	61	19578
2026-01-25 00:21:14.08	213.29	4.95	-45.1	-59.7	3.8	1.49e+00	0	62	104	1315962880	61	19677
2026-01-25 00:21:18.13	213.20	4.66	-45.1	-59.7	3.8	1.49e+00	0	62	104	1315962880	61	19667
2026-01-25 00:21:22.17	213.12	4.38	-45.1	-59.7	3.8	1.49e+00	0	62	104	1315962880	61	19649
2026-01-25 00:21:26.21	213.03	4.10	-45.1	-59.6	3.8	1.49e+00	0	62	104	1315962880	61	19604
2026-01-25 00:21:30.25	212.95	3.82	-45.1	-59.6	3.8	1.49e+00	0	62	104	1315962880	61	19555
2026-01-25 00:21:34.30	212.87	3.55	-44.7	-59.6	3.8	1.49e+00	0	62	104	1315962880	61	19397
2026-01-25 00:21:38.34	212.79	3.28	-44.8	-59.6	3.8	1.49e+00	0	62	104	1315962880	61	19497
2026-01-25 00:21:42.38	212.72	3.01	-44.5	-59.5	3.8	1.49e+00	0	62	104	1315962880	61	19345
2026-01-25 00:21:46.42	212.64	2.75	-45.0	-59.6	3.8	1.49e+00	0	62	104	1315962880	61	19613
2026-01-25 00:21:50.46	212.57	2.48	-45.0	-59.6	3.8	1.49e+00	0	62	104	1315962880	61	19596
2026-01-25 00:21:54.50	212.50	2.22	-45.0	-59.6	3.8	1.49e+00	0	62	104	1315962880	61	19579
2026-01-25 00:21:58.54	212.43	1.96	-45.0	-59.6	3.8	1.49e+00	0	62	104	1315962880	61	19545

#Closed at: 2026-01-25 00:22:00
#Recorded file [1315 MB]: D:/lorett/data/31039_260125_030742.dat