passes_logs/2026/01/25/R2.0S_Moscow/R2.0S_Moscow__20260125_232817_SUOMI_NPP_rec.log

#Pass ID: 20260125_232817_SUOMI NPP
#Satellite: SUOMI NPP
#Configuration: NPP
#almurnet v.1.7.20251203
#Start time: 2026-01-25 23:28:19

#Version: 2.2.20231116
#Station: R2.0S_Moscow
#Location: 37.707566 lon 55.798166 lat
#TLE: 1 37849U 11061A   26025.53586395  .00000179  00000+0  10601-3 0  9996
#TLE: 2 37849  98.7821 327.4943 0002169  45.6246 314.5108 14.19529815738202

#Time	Az	El	Level	Level2	SNR	BER	BlckErr	Temp	State	Recorded	gain1	gain2
2026-01-25 23:28:19.05	17.53	2.09	-41.7	-56.3	3.8	1.49e+00	0	52	0	0	55	18907
2026-01-25 23:28:23.08	17.60	2.35	-41.7	-56.3	3.8	1.49e+00	0	53	104	0	55	18909
2026-01-25 23:28:27.13	17.66	2.61	-41.7	-56.3	3.8	1.49e+00	0	53	104	0	55	18894
2026-01-25 23:28:31.17	17.73	2.87	-41.7	-56.3	3.8	1.49e+00	0	53	104	0	55	18881
2026-01-25 23:28:35.21	17.80	3.13	-41.7	-56.3	3.8	1.49e+00	0	53	104	0	55	18854
2026-01-25 23:28:39.25	17.87	3.40	-41.7	-56.3	3.8	1.49e+00	0	54	104	0	55	18901
2026-01-25 23:28:43.29	17.94	3.67	-41.7	-56.3	3.8	1.49e+00	0	54	104	0	55	18866
2026-01-25 23:28:47.33	18.02	3.94	-41.7	-56.3	3.8	1.49e+00	0	54	104	0	55	18846
2026-01-25 23:28:51.37	18.09	4.22	-41.7	-56.3	3.8	1.49e+00	0	55	104	0	55	18852
2026-01-25 23:28:55.41	18.16	4.50	-41.7	-56.3	3.8	1.49e+00	0	55	104	0	55	18819
2026-01-25 23:28:59.45	18.24	4.78	-41.7	-56.3	3.8	1.49e+00	0	55	104	0	55	18825
2026-01-25 23:29:03.50	18.31	5.06	-41.7	-56.3	3.8	1.49e+00	0	55	104	0	55	18830
2026-01-25 23:29:07.54	18.39	5.35	-41.7	-56.3	3.8	1.49e+00	0	55	104	0	55	18833
2026-01-25 23:29:11.58	18.47	5.64	-41.7	-56.3	3.8	1.49e+00	0	56	104	0	55	18832
2026-01-25 23:29:15.62	18.55	5.94	-41.7	-56.3	3.8	1.49e+00	0	56	104	0	55	18846
2026-01-25 23:29:19.67	18.63	6.23	-41.7	-56.3	3.8	1.49e+00	0	56	104	0	55	18785
2026-01-25 23:29:23.71	18.72	6.53	-41.7	-56.3	3.8	1.49e+00	0	56	104	0	55	18769
2026-01-25 23:29:27.75	18.80	6.84	-41.7	-56.2	3.8	1.49e+00	0	56	104	0	55	18681
2026-01-25 23:29:31.79	18.88	7.14	-41.7	-56.1	3.8	1.49e+00	0	56	104	0	55	18419
2026-01-25 23:29:35.83	18.97	7.46	-41.7	-55.9	3.8	1.49e+00	0	57	104	0	55	18051
2026-01-25 23:29:39.87	19.06	7.77	-41.7	-55.4	3.8	1.49e+00	0	57	104	0	55	17049
2026-01-25 23:29:43.91	19.15	8.09	-42.1	-52.5	4.4	1.43e+00	0	57	0	0	55	12230
2026-01-25 23:29:47.95	19.24	8.41	-41.6	-52.7	4.2	4.92e-01	0	57	0	4194304	54	13184
2026-01-25 23:29:51.99	19.33	8.74	-41.7	-47.7	8.4	3.82e-02	0	57	0	11534336	54	7431
2026-01-25 23:29:56.03	19.43	9.07	-41.6	-47.2	9.1	2.21e-02	0	58	0	18874368	54	7006
2026-01-25 23:30:00.07	19.53	9.41	-41.5	-46.9	9.6	9.48e-03	0	58	0	26214400	54	6724
2026-01-25 23:30:04.11	19.62	9.75	-41.4	-46.3	10.3	6.63e-03	0	58	0	33554432	54	6334
2026-01-25 23:30:08.15	19.73	10.09	-41.2	-45.6	11.2	1.98e-03	0	58	0	41943040	54	5855
2026-01-25 23:30:12.19	19.83	10.44	-41.3	-45.7	11.2	9.33e-04	0	58	0	49283072	54	5894
2026-01-25 23:30:16.23	19.93	10.80	-41.3	-45.6	11.4	7.74e-04	0	58	0	56623104	54	5842
2026-01-25 23:30:20.27	20.04	11.16	-41.3	-45.4	11.7	4.81e-04	0	58	0	63963136	54	5703
2026-01-25 23:30:24.31	20.15	11.52	-41.4	-45.5	11.7	5.20e-04	0	58	0	72351744	54	5731
2026-01-25 23:30:28.35	20.26	11.89	-41.2	-45.1	12.2	2.95e-04	0	58	0	79691776	54	5477
2026-01-25 23:30:32.39	20.37	12.27	-41.1	-44.9	12.4	1.54e-04	0	58	0	87031808	54	5381
2026-01-25 23:30:36.43	20.49	12.65	-41.1	-44.9	12.5	1.23e-04	0	59	0	94371840	54	5351
2026-01-25 23:30:40.47	20.61	13.04	-41.2	-44.9	12.6	8.54e-05	0	59	0	101711872	54	5354
2026-01-25 23:30:44.51	20.73	13.44	-41.2	-45.0	12.5	1.21e-04	0	59	0	110100480	54	5405
2026-01-25 23:30:48.55	20.85	13.84	-41.1	-44.7	12.8	8.08e-05	0	59	0	117440512	54	5270
2026-01-25 23:30:52.59	20.98	14.24	-41.3	-45.0	12.6	1.12e-04	0	59	0	124780544	54	5413
2026-01-25 23:30:56.63	21.11	14.66	-41.2	-44.9	12.7	6.56e-05	0	59	0	132120576	54	5348
2026-01-25 23:31:00.67	21.25	15.08	-41.3	-44.9	12.7	8.46e-05	0	59	0	140509184	54	5386
2026-01-25 23:31:04.70	21.38	15.51	-41.4	-45.0	12.6	7.40e-05	0	59	0	147849216	54	5462
2026-01-25 23:31:08.75	21.52	15.95	-41.3	-44.9	12.8	6.71e-05	0	59	0	155189248	54	5358
2026-01-25 23:31:12.79	21.67	16.39	-41.3	-44.9	12.8	5.11e-05	0	59	0	162529280	54	5391
2026-01-25 23:31:16.83	21.82	16.84	-41.4	-44.9	12.8	4.42e-05	0	59	0	169869312	54	5400
2026-01-25 23:31:20.87	21.97	17.31	-41.4	-45.1	12.7	8.77e-05	0	59	0	178257920	54	5491
2026-01-25 23:31:24.90	22.12	17.77	-41.5	-45.3	12.5	1.46e-04	0	59	0	185597952	54	5632
2026-01-25 23:31:28.94	22.28	18.25	-41.6	-45.4	12.4	1.81e-04	0	59	0	192937984	54	5721
2026-01-25 23:31:32.99	22.45	18.74	-41.7	-45.6	12.2	2.01e-04	0	60	0	200278016	54	5822
2026-01-25 23:31:37.03	22.62	19.24	-41.8	-45.8	12.1	2.58e-04	0	60	0	208666624	54	5946
2026-01-25 23:31:41.06	22.80	19.75	-42.0	-46.0	11.8	4.13e-04	0	60	0	216006656	54	6125
2026-01-25 23:31:45.10	22.98	20.26	-42.1	-46.3	11.5	6.84e-04	0	60	0	223346688	54	6339
2026-01-25 23:31:49.13	23.16	20.79	-42.1	-46.3	11.7	6.44e-04	0	60	0	230686720	54	6295
2026-01-25 23:31:53.17	23.35	21.33	-41.9	-45.9	12.1	2.97e-04	0	60	0	238026752	54	6028
2026-01-25 23:31:57.21	23.55	21.88	-41.9	-45.7	12.3	1.46e-04	0	60	0	246415360	54	5886
2026-01-25 23:32:01.23	23.76	22.45	-41.8	-45.6	12.5	1.13e-04	0	60	0	253755392	54	5794
2026-01-25 23:32:05.27	23.97	23.02	-41.6	-45.2	12.9	6.79e-05	0	60	0	261095424	54	5557
2026-01-25 23:32:09.31	24.19	23.61	-41.7	-45.4	12.7	7.09e-05	0	60	0	268435456	54	5671
2026-01-25 23:32:13.35	24.42	24.21	-41.8	-45.5	12.6	1.16e-04	0	60	0	275775488	54	5762
2026-01-25 23:32:17.39	24.66	24.83	-41.9	-45.7	12.4	1.91e-04	0	60	0	284164096	54	5875
2026-01-25 23:32:21.42	24.90	25.46	-41.9	-45.7	12.4	7.70e-05	0	60	0	291504128	54	5897
2026-01-25 23:32:25.46	25.15	26.10	-41.8	-45.5	12.6	8.92e-05	0	60	0	298844160	54	5781
2026-01-25 23:32:29.50	25.42	26.76	-41.6	-45.2	13.0	3.43e-05	0	60	0	306184192	54	5530
2026-01-25 23:32:33.54	25.69	27.44	-41.3	-44.5	13.7	1.37e-05	0	60	0	314572800	54	5103
2026-01-25 23:32:37.58	25.98	28.13	-41.1	-44.1	14.1	2.20e-06	0	60	0	321912832	54	4924
2026-01-25 23:32:41.62	26.28	28.84	-41.4	-44.7	13.5	1.14e-05	0	60	0	329252864	54	5246
2026-01-25 23:32:45.66	26.59	29.57	-41.7	-45.2	13.0	1.52e-05	0	60	0	336592896	54	5549
2026-01-25 23:32:49.70	26.92	30.32	-42.3	-46.4	11.7	6.74e-04	0	60	0	344981504	55	6032
2026-01-25 23:32:53.74	27.26	31.08	-43.1	-48.0	10.3	3.69e-03	0	60	0	352321536	56	6828
2026-01-25 23:32:57.78	27.61	31.87	-42.9	-47.6	10.7	2.92e-03	0	61	0	359661568	56	6508
2026-01-25 23:33:01.82	27.98	32.67	-43.0	-47.9	10.4	6.92e-03	0	61	0	367001600	57	6402
2026-01-25 23:33:05.86	28.38	33.50	-43.1	-48.1	10.2	5.69e-03	0	60	0	374341632	57	6506
2026-01-25 23:33:09.91	28.79	34.35	-43.1	-48.0	10.4	3.71e-03	0	61	0	382730240	57	6452
2026-01-25 23:33:13.95	29.22	35.22	-43.0	-47.7	10.7	2.09e-03	0	61	0	390070272	57	6233
2026-01-25 23:33:17.99	29.68	36.11	-43.0	-47.7	10.6	5.41e-03	0	61	0	397410304	57	6228
2026-01-25 23:33:22.03	30.16	37.03	-43.1	-48.0	10.3	4.43e-03	0	61	0	404750336	57	6438
2026-01-25 23:33:26.06	30.66	37.97	-43.4	-48.8	9.5	2.21e-02	0	61	0	413138944	57	7065
2026-01-25 23:33:30.10	31.20	38.93	-43.4	-48.7	9.7	1.76e-02	0	61	0	420478976	57	7036
2026-01-25 23:33:34.14	31.77	39.92	-43.6	-49.4	9.0	2.31e-02	0	61	0	427819008	57	7563
2026-01-25 23:33:38.18	32.38	40.94	-43.8	-49.8	8.5	4.82e-02	0	61	0	435159040	58	7538
2026-01-25 23:33:42.22	33.02	41.98	-43.4	-48.7	9.6	1.61e-02	0	61	0	442499072	58	6624
2026-01-25 23:33:46.25	33.71	43.04	-43.6	-49.4	9.0	2.71e-02	0	61	0	450887680	58	7153
2026-01-25 23:33:50.30	34.44	44.14	-42.8	-47.2	11.3	3.84e-03	0	61	0	458227712	57	5890
2026-01-25 23:33:54.33	35.22	45.26	-42.3	-46.1	12.3	3.10e-04	0	61	0	465567744	56	5516
2026-01-25 23:33:58.38	36.07	46.41	-42.5	-46.5	12.0	5.08e-04	0	61	0	472907776	56	5749
2026-01-25 23:34:02.41	36.97	47.58	-43.1	-47.8	10.7	3.28e-03	0	61	0	481296384	56	6682
2026-01-25 23:34:06.45	37.95	48.77	-43.1	-47.9	10.5	9.18e-03	0	61	0	488636416	57	6348
2026-01-25 23:34:10.49	39.00	49.99	-42.0	-45.5	13.0	4.11e-05	0	61	0	495976448	56	5137
2026-01-25 23:34:14.54	40.15	51.24	-42.2	-46.0	12.3	1.63e-04	0	61	0	503316480	55	5768
2026-01-25 23:34:18.58	41.39	52.51	-41.7	-45.0	13.4	4.80e-05	0	61	0	510656512	55	5152
2026-01-25 23:34:22.62	42.74	53.79	-41.3	-44.5	14.0	1.50e-06	0	61	0	519045120	54	5110
2026-01-25 23:34:26.66	44.21	55.09	-40.7	-43.4	15.0	0.00e+00	0	61	0	526385152	53	4782
2026-01-25 23:34:30.71	45.84	56.40	-40.4	-43.0	15.4	0.00e+00	0	61	0	533725184	52	4825
2026-01-25 23:34:34.75	47.61	57.72	-40.2	-42.6	15.9	0.00e+00	0	61	0	541065216	51	4905
2026-01-25 23:34:38.79	49.57	59.05	-40.4	-42.8	15.7	0.00e+00	0	61	0	549453824	51	5023
2026-01-25 23:34:42.83	51.74	60.36	-41.5	-44.7	13.7	5.30e-06	0	61	0	556793856	53	5532
2026-01-25 23:34:46.87	54.14	61.67	-41.7	-45.1	13.3	2.59e-05	0	61	0	564133888	54	5498
2026-01-25 23:34:50.91	56.80	62.95	-40.1	-42.5	15.9	0.00e+00	0	61	0	571473920	52	4553
2026-01-25 23:34:54.95	59.75	64.20	-40.6	-43.2	15.2	0.00e+00	0	61	0	578813952	52	4975
2026-01-25 23:34:58.99	63.04	65.40	-41.0	-43.8	14.6	0.00e+00	0	61	0	587202560	52	5293
2026-01-25 23:35:03.03	66.70	66.54	-41.0	-43.8	14.5	7.00e-07	0	61	0	594542592	53	4995
2026-01-25 23:35:07.07	70.74	67.60	-43.2	-48.2	10.2	3.77e-03	0	61	0	601882624	57	6592
2026-01-25 23:35:11.12	75.22	68.56	-43.0	-47.6	10.9	1.42e-03	0	61	0	609222656	56	6525
2026-01-25 23:35:15.16	80.10	69.39	-43.1	-47.8	10.6	3.87e-03	0	61	0	617611264	57	6305
2026-01-25 23:35:19.20	85.39	70.08	-42.5	-46.5	11.8	5.98e-04	0	61	0	624951296	57	5405
2026-01-25 23:35:23.24	91.04	70.61	-42.3	-46.1	12.2	2.66e-04	0	61	0	632291328	56	5528
2026-01-25 23:35:27.28	96.96	70.95	-41.5	-44.7	13.5	5.30e-06	0	61	0	639631360	54	5268
2026-01-25 23:35:31.32	103.05	71.10	-42.2	-46.1	12.2	1.35e-04	0	61	0	648019968	55	5803
2026-01-25 23:35:35.36	109.17	71.05	-42.2	-45.7	12.6	3.09e-04	0	61	0	655360000	56	5271
2026-01-25 23:35:39.40	115.19	70.79	-43.0	-47.6	10.7	2.89e-03	0	61	0	662700032	57	6177
2026-01-25 23:35:43.44	120.98	70.35	-43.8	-49.6	8.7	1.78e-02	0	61	0	670040064	58	7353
2026-01-25 23:35:47.48	126.45	69.73	-43.8	-49.6	8.7	2.46e-02	0	61	0	677380096	58	7342
2026-01-25 23:35:51.52	131.53	68.96	-43.1	-47.8	10.3	6.38e-03	0	61	0	685768704	58	5949
2026-01-25 23:35:55.56	136.19	68.05	-43.4	-48.8	9.5	1.22e-02	0	61	0	693108736	57	7053
2026-01-25 23:35:59.59	140.43	67.04	-41.7	-45.1	13.1	9.10e-06	0	61	0	700448768	54	5501
2026-01-25 23:36:03.63	144.27	65.94	-40.8	-43.6	14.7	7.00e-07	0	61	0	707788800	53	4887
2026-01-25 23:36:07.67	147.73	64.76	-40.5	-43.1	15.2	0.00e+00	0	61	0	716177408	51	5197
2026-01-25 23:36:11.70	150.83	63.53	-40.0	-42.4	15.9	0.00e+00	0	62	0	723517440	52	4515
2026-01-25 23:36:15.74	153.63	62.26	-39.2	-41.2	17.2	0.00e+00	0	61	0	730857472	50	4408
2026-01-25 23:36:19.78	156.15	60.96	-40.6	-43.2	15.1	0.00e+00	0	61	0	738197504	51	5237
2026-01-25 23:36:23.82	158.43	59.65	-40.6	-43.2	15.1	0.00e+00	0	61	0	745537536	51	5273
2026-01-25 23:36:27.86	160.48	58.32	-40.7	-43.4	15.0	0.00e+00	0	61	0	753926144	51	5368
2026-01-25 23:36:31.90	162.34	57.00	-40.6	-43.3	14.9	3.00e-06	0	61	0	761266176	52	5035
2026-01-25 23:36:35.94	164.03	55.68	-40.7	-43.5	14.8	0.00e+00	0	61	0	768606208	52	5115
2026-01-25 23:36:39.98	165.58	54.37	-40.3	-42.7	15.7	0.00e+00	0	61	0	775946240	51	4957
2026-01-25 23:36:44.02	166.99	53.07	-41.0	-43.9	14.4	2.20e-06	0	61	0	784334848	54	4772
2026-01-25 23:36:48.07	168.28	51.79	-39.9	-42.1	16.3	0.00e+00	0	61	0	791674880	51	4629
2026-01-25 23:36:52.11	169.47	50.53	-41.4	-44.6	13.6	6.80e-06	0	62	0	799014912	53	5495
2026-01-25 23:36:56.15	170.56	49.29	-42.0	-45.7	12.6	3.43e-05	0	61	0	806354944	54	5858
2026-01-25 23:37:00.19	171.58	48.08	-42.5	-46.5	11.8	9.09e-04	0	61	0	813694976	56	5738
2026-01-25 23:37:04.23	172.51	46.89	-42.8	-47.1	11.0	2.89e-03	0	61	0	822083584	56	6181
2026-01-25 23:37:08.27	173.38	45.73	-42.9	-47.6	10.6	6.20e-03	0	62	0	829423616	57	6173
2026-01-25 23:37:12.31	174.19	44.59	-42.0	-45.8	12.4	1.11e-04	0	61	0	836763648	54	5932
2026-01-25 23:37:16.35	174.95	43.48	-42.9	-47.5	10.8	4.12e-03	0	62	0	844103680	57	6064
2026-01-25 23:37:20.38	175.66	42.40	-41.4	-44.6	13.4	4.88e-05	0	61	0	852492288	54	5196
2026-01-25 23:37:24.42	176.32	41.34	-41.7	-45.2	12.9	3.80e-06	0	61	0	859832320	54	5545
2026-01-25 23:37:28.46	176.94	40.31	-41.5	-45.0	13.1	6.25e-05	0	62	0	867172352	55	5112
2026-01-25 23:37:32.50	177.53	39.30	-40.6	-43.3	14.8	0.00e+00	0	62	0	874512384	52	5032
2026-01-25 23:37:36.54	178.08	38.32	-42.3	-46.4	11.6	4.55e-04	0	62	0	881852416	55	6038
2026-01-25 23:37:40.58	178.60	37.37	-41.4	-44.8	13.3	7.17e-05	0	61	0	890241024	54	5285
2026-01-25 23:37:44.62	179.09	36.44	-40.9	-43.9	14.2	0.00e+00	0	62	0	897581056	53	5053
2026-01-25 23:37:48.66	179.56	35.53	-41.4	-44.7	13.3	1.14e-05	0	62	0	904921088	53	5580
2026-01-25 23:37:52.69	180.00	34.65	-43.0	-47.8	10.2	3.73e-03	0	62	0	912261120	56	6716
2026-01-25 23:37:56.73	180.42	33.78	-43.1	-48.2	9.8	1.23e-02	0	62	0	920649728	57	6643
2026-01-25 23:38:00.77	180.82	32.95	-41.7	-45.2	12.8	6.17e-05	0	61	0	927989760	55	5256
2026-01-25 23:38:04.80	181.19	32.13	-41.5	-45.0	12.9	1.90e-05	0	62	0	935329792	54	5431
2026-01-25 23:38:08.84	181.56	31.33	-42.6	-47.2	10.6	1.36e-03	0	61	0	942669824	55	6631
2026-01-25 23:38:12.88	181.90	30.55	-43.1	-48.3	9.8	1.07e-02	0	62	0	950009856	57	6666
2026-01-25 23:38:16.92	182.23	29.80	-42.5	-46.8	11.3	2.47e-03	0	61	0	958398464	57	5615
2026-01-25 23:38:20.96	182.55	29.06	-42.3	-46.5	11.6	5.84e-04	0	62	0	965738496	56	5735
2026-01-25 23:38:24.99	182.85	28.34	-42.3	-46.4	11.7	3.78e-04	0	62	0	973078528	56	5660
2026-01-25 23:38:29.02	183.14	27.64	-42.0	-45.8	12.2	3.51e-04	0	62	0	980418560	56	5324
2026-01-25 23:38:33.06	183.42	26.95	-41.6	-45.2	12.6	7.17e-05	0	62	0	988807168	55	5273
2026-01-25 23:38:37.09	183.69	26.28	-41.1	-44.4	13.6	8.30e-06	0	62	0	996147200	54	5046
2026-01-25 23:38:41.13	183.94	25.63	-40.5	-43.3	14.6	0.00e+00	0	62	0	1003487232	53	4745
2026-01-25 23:38:45.17	184.19	24.99	-40.1	-42.7	15.3	0.00e+00	0	62	0	1010827264	51	4954
2026-01-25 23:38:49.21	184.43	24.36	-40.1	-42.7	15.3	0.00e+00	0	62	0	1018167296	51	4949
2026-01-25 23:38:53.25	184.66	23.75	-40.3	-43.0	15.0	0.00e+00	0	62	0	1026555904	51	5110
2026-01-25 23:38:57.29	184.88	23.15	-40.7	-43.6	14.3	7.00e-07	0	62	0	1033895936	52	5177
2026-01-25 23:39:01.32	185.09	22.57	-40.9	-44.0	13.9	3.80e-06	0	62	0	1041235968	52	5433
2026-01-25 23:39:05.36	185.30	22.00	-41.2	-44.5	13.3	1.22e-05	0	61	0	1048576000	53	5408
2026-01-25 23:39:09.40	185.50	21.44	-41.0	-44.1	13.7	5.30e-06	0	62	0	1055916032	53	5214
2026-01-25 23:39:13.44	185.69	20.89	-41.0	-44.2	13.6	6.80e-06	0	62	0	1064304640	53	5271
2026-01-25 23:39:17.48	185.88	20.36	-41.1	-44.4	13.5	6.10e-06	0	62	0	1071644672	53	5351
2026-01-25 23:39:21.52	186.06	19.83	-41.0	-44.3	13.6	9.10e-06	0	62	0	1078984704	53	5281
2026-01-25 23:39:25.56	186.23	19.32	-40.8	-44.0	13.9	1.50e-06	0	62	0	1086324736	53	5102
2026-01-25 23:39:29.60	186.40	18.81	-40.6	-43.6	14.2	7.60e-06	0	62	0	1094713344	53	4896
2026-01-25 23:39:33.64	186.57	18.32	-40.4	-43.2	14.7	0.00e+00	0	62	0	1102053376	52	4933
2026-01-25 23:39:37.68	186.73	17.83	-40.4	-43.1	14.7	7.00e-07	0	62	0	1109393408	52	4918
2026-01-25 23:39:41.72	186.88	17.36	-40.9	-44.1	13.7	3.00e-06	0	62	0	1116733440	52	5504
2026-01-25 23:39:45.76	187.03	16.89	-41.1	-44.4	13.4	1.29e-05	0	62	0	1125122048	52	5673
2026-01-25 23:39:49.79	187.18	16.43	-41.4	-45.0	12.8	3.96e-05	0	61	0	1132462080	53	5771
2026-01-25 23:39:53.83	187.32	15.99	-41.5	-45.2	12.6	1.17e-04	0	62	0	1139802112	53	5884
2026-01-25 23:39:57.87	187.46	15.54	-41.6	-45.3	12.5	1.46e-04	0	62	0	1147142144	53	5961
2026-01-25 23:40:01.91	187.60	15.11	-41.6	-45.4	12.3	1.71e-04	0	61	0	1154482176	53	6061
2026-01-25 23:40:05.95	187.73	14.68	-41.7	-45.6	12.1	2.52e-04	0	62	0	1162870784	54	5835
2026-01-25 23:40:09.99	187.86	14.26	-41.6	-45.5	12.1	2.28e-04	0	62	0	1170210816	54	5775
2026-01-25 23:40:14.03	187.98	13.85	-41.8	-45.8	11.9	3.70e-04	0	62	0	1177550848	54	5936
2026-01-25 23:40:18.07	188.11	13.45	-41.7	-45.8	11.9	4.65e-04	0	62	0	1184890880	54	5938
2026-01-25 23:40:22.11	188.22	13.05	-41.7	-45.6	12.0	3.46e-04	0	62	0	1193279488	54	5846
2026-01-25 23:40:26.15	188.34	12.65	-41.6	-45.6	12.1	2.41e-04	0	62	0	1200619520	54	5792
2026-01-25 23:40:30.19	188.45	12.27	-41.7	-45.7	11.9	5.11e-04	0	62	0	1207959552	54	5907
2026-01-25 23:40:34.23	188.57	11.89	-41.7	-45.6	12.0	3.69e-04	0	61	0	1215299584	54	5844
2026-01-25 23:40:38.27	188.67	11.51	-41.7	-45.8	11.7	4.23e-04	0	62	0	1222639616	54	5969
2026-01-25 23:40:42.31	188.78	11.14	-41.7	-45.8	11.8	5.11e-04	0	62	0	1231028224	54	5940
2026-01-25 23:40:46.35	188.88	10.78	-41.6	-45.6	11.9	3.23e-04	0	62	0	1238368256	54	5850
2026-01-25 23:40:50.39	188.99	10.42	-41.4	-45.3	12.2	3.22e-04	0	61	0	1245708288	54	5650
2026-01-25 23:40:54.43	189.08	10.07	-41.4	-45.4	12.0	2.81e-04	0	61	0	1253048320	54	5691
2026-01-25 23:40:58.47	189.18	9.72	-41.3	-45.1	12.3	2.59e-04	0	62	0	1260388352	54	5493
2026-01-25 23:41:02.50	189.28	9.38	-41.4	-45.2	12.2	2.15e-04	0	62	0	1268776960	54	5592
2026-01-25 23:41:06.55	189.37	9.04	-41.3	-45.2	12.2	2.35e-04	0	62	0	1276116992	54	5584
2026-01-25 23:41:10.58	189.46	8.70	-41.4	-45.4	12.0	2.79e-04	0	62	0	1283457024	54	5674
2026-01-25 23:41:14.62	189.55	8.37	-41.1	-44.8	12.5	1.99e-04	0	62	0	1290797056	54	5301
2026-01-25 23:41:18.66	189.64	8.05	-41.0	-44.8	12.4	1.08e-04	0	62	0	1299185664	53	5603
2026-01-25 23:41:22.70	189.73	7.73	-44.9	-59.6	3.8	1.49e+00	0	62	104	1301282816	60	20735
2026-01-25 23:41:26.74	189.81	7.41	-45.2	-59.9	3.8	1.49e+00	0	62	104	1301282816	60	21407
2026-01-25 23:41:30.78	189.89	7.10	-45.3	-59.9	3.8	1.49e+00	0	62	104	1301282816	61	20219
2026-01-25 23:41:34.83	189.97	6.78	-45.2	-59.9	3.8	1.49e+00	0	62	104	1301282816	61	20092
2026-01-25 23:41:38.87	190.05	6.48	-45.2	-59.8	3.8	1.49e+00	0	62	104	1301282816	61	20002
2026-01-25 23:41:42.91	190.13	6.18	-45.2	-59.8	3.8	1.49e+00	0	62	104	1301282816	61	19994
2026-01-25 23:41:46.95	190.21	5.88	-45.2	-59.8	3.8	1.49e+00	0	62	104	1301282816	61	19929
2026-01-25 23:41:50.99	190.29	5.58	-45.2	-59.8	3.8	1.49e+00	0	62	104	1301282816	61	19936
2026-01-25 23:41:55.04	190.36	5.29	-45.2	-59.8	3.8	1.49e+00	0	62	104	1301282816	61	19858
2026-01-25 23:41:59.08	190.43	5.00	-45.1	-59.8	3.8	1.49e+00	0	62	104	1301282816	61	19882
2026-01-25 23:42:03.12	190.51	4.71	-45.1	-59.7	3.8	1.49e+00	0	62	104	1301282816	61	19815
2026-01-25 23:42:07.16	190.58	4.43	-45.1	-59.8	3.8	1.49e+00	0	62	104	1301282816	61	19886
2026-01-25 23:42:11.20	190.65	4.15	-45.1	-59.7	3.8	1.49e+00	0	62	104	1301282816	61	19832
2026-01-25 23:42:15.24	190.72	3.87	-45.1	-59.8	3.8	1.49e+00	0	62	104	1301282816	61	19845
2026-01-25 23:42:19.28	190.78	3.59	-45.1	-59.7	3.8	1.49e+00	0	62	104	1301282816	61	19740
2026-01-25 23:42:23.32	190.85	3.32	-45.1	-59.7	3.8	1.49e+00	0	62	104	1301282816	61	19784
2026-01-25 23:42:27.36	190.91	3.05	-45.1	-59.7	3.8	1.49e+00	0	62	104	1301282816	61	19745
2026-01-25 23:42:31.41	190.98	2.79	-45.1	-59.7	3.8	1.49e+00	0	62	104	1301282816	61	19763
2026-01-25 23:42:35.45	191.04	2.52	-45.1	-59.7	3.8	1.49e+00	0	62	104	1301282816	61	19815
2026-01-25 23:42:39.49	191.10	2.26	-45.1	-59.7	3.8	1.49e+00	0	62	104	1301282816	61	19678
2026-01-25 23:42:43.53	191.17	2.00	-45.1	-59.7	3.8	1.49e+00	0	62	104	1301282816	61	19736

#Closed at: 2026-01-25 23:42:45
#Recorded file [1301 MB]: D:/lorett/data/31039_260126_022818.dat