passes_logs/2026/01/25/R2.0S_Moscow/R2.0S_Moscow__20260125_022447_FENGYUN_3D_rec.log

#Pass ID: 20260125_022447_FENGYUN 3D
#Satellite: FENGYUN 3D
#Configuration: FENGYUN 3D
#almurnet v.1.7.20251203
#Start time: 2026-01-25 02:26:17

#Version: 2.2.20231116
#Station: R2.0S_Moscow
#Location: 37.707566 lon 55.798166 lat
#TLE: 1 43010U 17072A   26024.51794477  .00000040  00000+0  40682-4 0  9990
#TLE: 2 43010  98.9961 356.4820 0002494  91.2631 268.8830 14.19699550424601

#Time	Az	El	Level	Level2	SNR	BER	BlckErr	Temp	State	Recorded	gain1	gain2
2026-01-25 02:26:17.68	11.27	8.36	-46.1	-64.6	3.8	7.44e-01	0	61	0	0	63	30828
2026-01-25 02:26:20.70	11.15	8.60	-45.4	-57.1	3.8	8.47e-01	0	62	104	0	62	13880
2026-01-25 02:26:23.73	11.03	8.84	-45.0	-56.7	3.8	8.46e-01	0	61	104	0	62	13257
2026-01-25 02:26:26.76	10.91	9.08	-43.3	-54.8	3.8	8.45e-01	0	61	104	0	58	13273
2026-01-25 02:26:29.79	10.78	9.33	-43.2	-54.6	3.8	8.47e-01	0	62	104	0	58	13054
2026-01-25 02:26:32.82	10.66	9.58	-43.2	-54.6	3.8	8.46e-01	0	61	104	0	58	13016
2026-01-25 02:26:35.85	10.53	9.83	-43.2	-54.7	3.8	8.45e-01	0	61	104	0	58	13123
2026-01-25 02:26:38.88	10.39	10.09	-43.2	-54.4	3.8	8.46e-01	0	62	104	0	58	12727
2026-01-25 02:26:41.91	10.26	10.34	-43.1	-54.2	3.8	8.46e-01	0	62	104	0	58	12467
2026-01-25 02:26:44.95	10.12	10.60	-43.1	-54.1	3.8	8.45e-01	0	61	104	0	58	12356
2026-01-25 02:26:47.98	9.98	10.86	-43.0	-53.4	3.8	8.45e-01	0	62	104	0	58	11380
2026-01-25 02:26:51.01	9.84	11.13	-43.1	-53.7	3.8	8.47e-01	0	62	104	0	58	11688
2026-01-25 02:26:54.04	9.69	11.40	-43.1	-54.2	3.8	8.46e-01	0	62	104	0	58	12516
2026-01-25 02:26:57.07	9.54	11.67	-43.2	-54.5	3.8	8.45e-01	0	62	104	0	58	12947
2026-01-25 02:27:00.11	9.39	11.94	-42.2	-48.8	5.1	7.93e-01	0	62	0	0	56	7463
2026-01-25 02:27:03.14	9.23	12.21	-40.0	-43.3	10.0	2.22e-02	0	62	0	14680064	51	5336
2026-01-25 02:27:06.17	9.08	12.49	-38.2	-40.6	12.8	9.95e-05	0	62	0	31457280	48	4613
2026-01-25 02:27:09.20	8.92	12.77	-38.5	-40.9	12.5	1.38e-04	0	62	0	48234496	48	4790
2026-01-25 02:27:12.24	8.75	13.06	-39.2	-42.0	11.4	1.23e-03	0	62	0	66060288	49	5153
2026-01-25 02:27:15.26	8.58	13.35	-42.6	-51.5	4.0	8.41e-01	0	62	104	73400320	55	10884
2026-01-25 02:27:18.29	8.41	13.64	-38.8	-41.1	12.8	1.07e-04	0	62	0	88080384	49	4632
2026-01-25 02:27:21.32	8.24	13.93	-38.4	-40.5	13.7	2.20e-06	0	62	0	105906176	48	4587
2026-01-25 02:27:24.35	8.06	14.23	-38.5	-40.7	13.6	1.10e-06	0	62	0	122683392	48	4681
2026-01-25 02:27:27.38	7.87	14.53	-38.4	-40.5	13.9	2.20e-06	0	62	0	139460608	48	4571
2026-01-25 02:27:30.41	7.69	14.83	-38.3	-40.4	14.1	3.40e-06	0	62	0	156237824	48	4517
2026-01-25 02:27:33.44	7.49	15.14	-38.3	-40.3	14.2	0.00e+00	0	62	0	174063616	48	4445
2026-01-25 02:27:36.47	7.30	15.45	-38.3	-40.2	14.3	0.00e+00	0	62	0	190840832	48	4436
2026-01-25 02:27:39.50	7.10	15.77	-38.2	-40.1	14.6	1.10e-06	0	62	0	207618048	48	4362
2026-01-25 02:27:42.53	6.90	16.08	-38.0	-39.9	14.8	0.00e+00	0	62	0	225443840	48	4262
2026-01-25 02:27:45.56	6.69	16.41	-37.9	-39.8	14.9	0.00e+00	0	62	0	242221056	47	4447
2026-01-25 02:27:48.59	6.47	16.73	-37.5	-39.3	15.4	0.00e+00	0	62	0	258998272	47	4210
2026-01-25 02:27:51.62	6.25	17.06	-37.4	-39.1	15.6	0.00e+00	0	62	0	275775488	46	4362
2026-01-25 02:27:54.65	6.03	17.40	-37.2	-38.9	15.8	0.00e+00	0	62	0	292552704	46	4266
2026-01-25 02:27:57.68	5.80	17.74	-37.4	-39.1	15.7	0.00e+00	0	62	0	310378496	46	4361
2026-01-25 02:28:00.71	5.57	18.08	-37.5	-39.2	15.7	0.00e+00	0	62	0	327155712	46	4395
2026-01-25 02:28:03.73	5.33	18.42	-37.4	-39.0	15.8	0.00e+00	0	62	0	343932928	46	4337
2026-01-25 02:28:06.76	5.08	18.78	-37.2	-38.9	16.0	0.00e+00	0	61	0	360710144	46	4273
2026-01-25 02:28:09.79	4.83	19.13	-37.3	-38.9	16.0	0.00e+00	0	62	0	378535936	46	4267
2026-01-25 02:28:12.82	4.57	19.49	-37.2	-38.8	16.1	0.00e+00	0	62	0	395313152	46	4211
2026-01-25 02:28:15.85	4.30	19.86	-37.1	-38.8	16.2	0.00e+00	0	62	0	412090368	46	4206
2026-01-25 02:28:18.88	4.03	20.23	-37.0	-38.6	16.4	0.00e+00	0	62	0	429916160	46	4122
2026-01-25 02:28:21.91	3.75	20.60	-37.0	-38.6	16.3	0.00e+00	0	62	0	446693376	45	4354
2026-01-25 02:28:24.94	3.47	20.98	-37.0	-38.6	16.3	0.00e+00	0	62	0	463470592	45	4380
2026-01-25 02:28:27.97	3.18	21.37	-37.0	-38.6	16.5	0.00e+00	0	62	0	480247808	45	4346
2026-01-25 02:28:31.00	2.87	21.76	-36.7	-38.2	16.8	0.00e+00	0	62	0	497025024	45	4160
2026-01-25 02:28:34.04	2.56	22.15	-36.6	-38.1	16.9	0.00e+00	0	62	0	514850816	45	4117
2026-01-25 02:28:37.06	2.25	22.55	-36.7	-38.2	16.8	0.00e+00	0	62	0	531628032	45	4184
2026-01-25 02:28:40.09	1.92	22.96	-36.5	-38.0	17.0	0.00e+00	0	61	0	548405248	45	4077
2026-01-25 02:28:43.12	1.59	23.37	-36.5	-38.0	17.0	0.00e+00	0	62	0	565182464	45	4077
2026-01-25 02:28:46.16	1.24	23.79	-36.4	-37.9	17.1	0.00e+00	0	62	0	583008256	44	4270
2026-01-25 02:28:49.19	0.89	24.21	-36.4	-37.9	17.1	0.00e+00	0	62	0	599785472	44	4273
2026-01-25 02:28:52.22	0.53	24.64	-36.2	-37.7	17.4	0.00e+00	0	62	0	616562688	44	4161
2026-01-25 02:28:55.25	0.15	25.07	-36.3	-37.8	17.3	0.00e+00	0	62	0	634388480	44	4200
2026-01-25 02:28:58.27	359.77	25.51	-36.3	-37.8	17.3	0.00e+00	0	62	0	651165696	44	4203
2026-01-25 02:29:01.31	359.37	25.96	-36.2	-37.6	17.4	0.00e+00	0	62	0	667942912	44	4142
2026-01-25 02:29:04.34	358.96	26.41	-36.3	-37.7	17.4	0.00e+00	0	62	0	684720128	44	4185
2026-01-25 02:29:07.37	358.54	26.86	-36.3	-37.8	17.4	0.00e+00	0	62	0	701497344	44	4198
2026-01-25 02:29:10.40	358.11	27.33	-36.2	-37.6	17.5	0.00e+00	0	62	0	719323136	44	4144
2026-01-25 02:29:13.43	357.67	27.80	-36.2	-37.6	17.5	0.00e+00	0	62	0	736100352	44	4135
2026-01-25 02:29:16.46	357.21	28.27	-36.3	-37.7	17.5	0.00e+00	0	62	0	752877568	44	4169
2026-01-25 02:29:19.49	356.73	28.75	-36.3	-37.8	17.4	0.00e+00	0	62	0	770703360	44	4207
2026-01-25 02:29:22.52	356.24	29.24	-36.1	-37.6	17.6	0.00e+00	0	62	0	787480576	44	4106
2026-01-25 02:29:25.55	355.74	29.74	-35.7	-37.0	18.0	0.00e+00	0	62	0	804257792	43	4083
2026-01-25 02:29:28.58	355.22	30.24	-35.7	-37.1	17.9	0.00e+00	0	62	0	821035008	43	4115
2026-01-25 02:29:31.61	354.68	30.74	-35.7	-37.1	17.9	0.00e+00	0	62	0	838860800	43	4132
2026-01-25 02:29:34.64	354.13	31.26	-35.8	-37.1	17.9	0.00e+00	0	62	0	855638016	43	4145
2026-01-25 02:29:37.67	353.56	31.77	-35.4	-36.7	18.3	0.00e+00	0	62	0	872415232	42	4181
2026-01-25 02:29:40.71	352.96	32.30	-35.4	-36.7	18.3	0.00e+00	0	62	0	889192448	42	4191
2026-01-25 02:29:43.74	352.35	32.83	-35.5	-36.8	18.3	0.00e+00	0	62	0	907018240	42	4215
2026-01-25 02:29:46.77	351.72	33.36	-35.4	-36.7	18.4	0.00e+00	0	62	0	923795456	42	4157
2026-01-25 02:29:49.80	351.07	33.91	-35.0	-36.3	18.8	0.00e+00	0	62	0	940572672	42	3965
2026-01-25 02:29:52.83	350.39	34.45	-35.1	-36.4	18.6	0.00e+00	0	62	0	957349888	41	4284
2026-01-25 02:29:55.86	349.69	35.00	-35.3	-36.5	18.5	0.00e+00	0	62	0	975175680	41	4337
2026-01-25 02:29:58.88	348.97	35.56	-35.3	-36.5	18.5	0.00e+00	0	62	0	991952896	41	4338
2026-01-25 02:30:01.91	348.22	36.12	-35.4	-36.7	18.4	0.00e+00	0	62	0	1008730112	41	4423
2026-01-25 02:30:04.95	347.44	36.68	-35.5	-36.9	18.3	0.00e+00	0	62	0	1025507328	41	4496
2026-01-25 02:30:07.98	346.64	37.25	-35.3	-36.6	18.5	0.00e+00	0	62	0	1043333120	41	4361
2026-01-25 02:30:11.00	345.81	37.82	-35.4	-36.7	18.4	0.00e+00	0	62	0	1060110336	41	4415
2026-01-25 02:30:14.03	344.94	38.39	-35.6	-36.9	18.3	0.00e+00	0	62	0	1076887552	41	4512
2026-01-25 02:30:17.06	344.05	38.97	-35.3	-36.6	18.5	0.00e+00	0	62	0	1093664768	41	4368
2026-01-25 02:30:20.09	343.12	39.54	-35.3	-36.6	18.6	0.00e+00	0	62	0	1111490560	41	4349
2026-01-25 02:30:23.12	342.16	40.12	-35.5	-36.8	18.4	0.00e+00	0	62	0	1128267776	41	4450
2026-01-25 02:30:26.15	341.16	40.70	-35.4	-36.7	18.4	0.00e+00	0	62	0	1145044992	41	4425
2026-01-25 02:30:29.19	340.13	41.28	-35.5	-36.8	18.4	0.00e+00	0	62	0	1162870784	41	4463
2026-01-25 02:30:32.22	339.06	41.85	-35.3	-36.6	18.6	0.00e+00	0	62	0	1179648000	41	4376
2026-01-25 02:30:35.25	337.95	42.42	-35.4	-36.7	18.5	0.00e+00	0	62	0	1196425216	41	4403
2026-01-25 02:30:38.27	336.80	42.99	-35.3	-36.5	18.7	0.00e+00	0	62	0	1213202432	41	4327
2026-01-25 02:30:41.31	335.60	43.55	-35.4	-36.7	18.5	0.00e+00	0	62	0	1229979648	41	4440
2026-01-25 02:30:44.34	334.37	44.11	-35.3	-36.6	18.6	0.00e+00	0	62	0	1247805440	41	4361
2026-01-25 02:30:47.37	333.09	44.66	-35.4	-36.7	18.5	0.00e+00	0	61	0	1264582656	41	4413
2026-01-25 02:30:50.39	331.77	45.20	-35.2	-36.4	18.7	0.00e+00	0	62	0	1281359872	41	4289
2026-01-25 02:30:53.42	330.40	45.73	-35.8	-37.1	18.1	0.00e+00	0	62	0	1298137088	42	4364
2026-01-25 02:30:56.45	328.99	46.25	-35.5	-36.8	18.4	0.00e+00	0	62	0	1315962880	42	4218
2026-01-25 02:30:59.49	327.52	46.75	-35.3	-36.6	18.6	0.00e+00	0	62	0	1332740096	42	4118
2026-01-25 02:31:02.50	326.02	47.24	-35.8	-37.2	18.0	0.00e+00	0	62	0	1349517312	42	4401
2026-01-25 02:31:05.53	324.46	47.71	-36.0	-37.4	17.9	0.00e+00	0	62	0	1367343104	42	4500
2026-01-25 02:31:08.56	322.85	48.16	-36.1	-37.4	17.8	0.00e+00	0	62	0	1384120320	42	4539
2026-01-25 02:31:11.59	321.20	48.60	-36.0	-37.3	17.9	0.00e+00	0	62	0	1400897536	42	4475
2026-01-25 02:31:14.63	319.50	49.01	-36.4	-37.9	17.4	0.00e+00	0	62	0	1417674752	43	4499
2026-01-25 02:31:17.66	317.75	49.39	-36.0	-37.3	17.9	0.00e+00	0	62	0	1434451968	43	4230
2026-01-25 02:31:20.68	315.97	49.75	-36.2	-37.6	17.6	0.00e+00	0	62	0	1452277760	43	4391
2026-01-25 02:31:23.71	314.14	50.08	-36.1	-37.5	17.7	0.00e+00	0	62	0	1469054976	43	4337
2026-01-25 02:31:26.74	312.28	50.39	-36.2	-37.6	17.6	0.00e+00	0	62	0	1485832192	43	4368
2026-01-25 02:31:29.78	310.37	50.66	-36.2	-37.6	17.6	0.00e+00	0	62	0	1502609408	43	4391
2026-01-25 02:31:32.81	308.43	50.90	-35.8	-37.1	18.1	0.00e+00	0	62	0	1520435200	43	4132
2026-01-25 02:31:35.84	306.47	51.10	-35.8	-37.1	18.1	0.00e+00	0	62	0	1537212416	43	4128
2026-01-25 02:31:38.87	304.48	51.27	-35.8	-37.2	18.0	0.00e+00	0	62	0	1553989632	43	4156
2026-01-25 02:31:41.90	302.46	51.41	-36.0	-37.4	17.8	0.00e+00	0	62	0	1571815424	43	4264
2026-01-25 02:31:44.92	300.44	51.50	-35.9	-37.3	17.9	0.00e+00	0	62	0	1588592640	43	4198
2026-01-25 02:31:47.95	298.41	51.56	-35.9	-37.3	17.9	0.00e+00	0	62	0	1605369856	43	4214
2026-01-25 02:31:50.98	296.36	51.59	-35.9	-37.2	18.0	0.00e+00	0	62	0	1622147072	43	4163
2026-01-25 02:31:54.01	294.32	51.57	-36.1	-37.5	17.6	0.00e+00	0	62	0	1638924288	43	4331
2026-01-25 02:31:57.04	292.28	51.51	-36.3	-37.8	17.4	0.00e+00	0	62	0	1656750080	43	4452
2026-01-25 02:32:00.07	290.25	51.42	-35.9	-37.2	18.0	0.00e+00	0	62	0	1673527296	43	4170
2026-01-25 02:32:03.10	288.24	51.29	-35.9	-37.2	18.0	0.00e+00	0	62	0	1690304512	43	4159
2026-01-25 02:32:06.13	286.24	51.13	-36.0	-37.4	17.8	0.00e+00	0	62	0	1708130304	43	4243
2026-01-25 02:32:09.16	284.27	50.93	-35.9	-37.3	17.9	0.00e+00	0	62	0	1724907520	43	4205
2026-01-25 02:32:12.19	282.33	50.69	-35.7	-37.1	18.1	0.00e+00	0	62	0	1741684736	43	4105
2026-01-25 02:32:15.22	280.42	50.42	-35.7	-37.0	18.1	0.00e+00	0	62	0	1758461952	43	4095
2026-01-25 02:32:18.25	278.55	50.12	-35.8	-37.1	18.0	0.00e+00	0	62	0	1776287744	43	4133
2026-01-25 02:32:21.29	276.70	49.79	-35.8	-37.1	18.0	0.00e+00	0	62	0	1793064960	43	4132
2026-01-25 02:32:24.32	274.91	49.43	-35.8	-37.1	18.0	0.00e+00	0	62	0	1809842176	43	4125
2026-01-25 02:32:27.35	273.16	49.05	-35.6	-36.9	18.3	0.00e+00	0	62	0	1826619392	43	4033
2026-01-25 02:32:30.38	271.45	48.64	-35.6	-36.9	18.3	0.00e+00	0	62	0	1844445184	43	4032
2026-01-25 02:32:33.41	269.79	48.21	-35.5	-36.8	18.4	0.00e+00	0	62	0	1861222400	42	4204
2026-01-25 02:32:36.44	268.17	47.76	-35.5	-36.9	18.3	0.00e+00	0	62	0	1877999616	42	4247
2026-01-25 02:32:39.47	266.61	47.29	-35.6	-36.9	18.3	0.00e+00	0	62	0	1894776832	42	4248
2026-01-25 02:32:42.51	265.08	46.80	-35.4	-36.7	18.4	0.00e+00	0	62	0	1912602624	42	4173
2026-01-25 02:32:45.54	263.61	46.29	-34.9	-36.2	19.0	0.00e+00	0	62	0	1929379840	41	4157
2026-01-25 02:32:48.57	262.19	45.77	-35.1	-36.3	18.8	0.00e+00	0	62	0	1946157056	41	4230
2026-01-25 02:32:51.60	260.81	45.24	-35.3	-36.6	18.6	0.00e+00	0	62	0	1962934272	41	4355
2026-01-25 02:32:54.63	259.48	44.70	-35.3	-36.5	18.6	0.00e+00	0	62	0	1980760064	41	4329
2026-01-25 02:32:57.66	258.19	44.15	-34.9	-36.2	18.9	0.00e+00	0	62	0	1997537280	41	4154
2026-01-25 02:33:00.67	256.96	43.60	-34.9	-36.2	18.9	0.00e+00	0	62	0	2014314496	41	4164
2026-01-25 02:33:03.71	255.75	43.03	-34.8	-36.0	19.2	0.00e+00	0	62	0	2031091712	41	4054
2026-01-25 02:33:06.74	254.60	42.46	-35.0	-36.3	18.8	0.00e+00	0	62	0	2048917504	41	4221
2026-01-25 02:33:09.77	253.48	41.89	-35.0	-36.3	18.8	0.00e+00	0	62	0	2065694720	41	4207
2026-01-25 02:33:12.80	252.40	41.31	-34.9	-36.2	18.9	0.00e+00	0	62	0	2082471936	41	4146
2026-01-25 02:33:15.83	251.36	40.73	-35.1	-36.4	18.7	0.00e+00	0	62	0	2100297728	41	4284
2026-01-25 02:33:18.86	250.36	40.15	-35.1	-36.4	18.7	0.00e+00	0	62	0	2117074944	41	4249
2026-01-25 02:33:21.89	249.39	39.57	-35.0	-36.3	18.8	0.00e+00	0	62	0	2133852160	41	4195
2026-01-25 02:33:24.92	248.46	38.99	-34.8	-36.1	19.0	0.00e+00	0	62	0	2150629376	41	4120
2026-01-25 02:33:27.95	247.56	38.42	-34.6	-35.8	19.3	0.00e+00	0	62	0	2167406592	41	3963
2026-01-25 02:33:30.98	246.69	37.84	-34.7	-35.9	19.1	0.00e+00	0	62	0	2185232384	41	4045
2026-01-25 02:33:34.00	245.85	37.27	-34.9	-36.1	18.9	0.00e+00	0	62	0	2202009600	41	4127
2026-01-25 02:33:37.03	245.04	36.70	-35.0	-36.2	18.8	0.00e+00	0	62	0	2218786816	41	4192
2026-01-25 02:33:40.06	244.26	36.13	-34.8	-36.0	19.1	0.00e+00	0	62	0	2235564032	41	4063
2026-01-25 02:33:43.10	243.50	35.57	-34.7	-35.9	19.1	0.00e+00	0	62	0	2253389824	41	4035
2026-01-25 02:33:46.13	242.77	35.01	-34.7	-35.9	19.1	0.00e+00	0	62	0	2270167040	41	4027
2026-01-25 02:33:49.16	242.07	34.46	-34.7	-35.9	19.2	0.00e+00	0	62	0	2286944256	41	4024
2026-01-25 02:33:52.19	241.38	33.91	-34.6	-35.8	19.2	0.00e+00	0	62	0	2304770048	41	3981
2026-01-25 02:33:55.22	240.73	33.36	-34.7	-35.9	19.1	0.00e+00	0	62	0	2321547264	41	4051
2026-01-25 02:33:58.25	240.09	32.83	-35.0	-36.3	18.7	0.00e+00	0	62	0	2338324480	41	4211
2026-01-25 02:34:01.28	239.47	32.29	-35.1	-36.4	18.7	0.00e+00	0	62	0	2355101696	41	4253
2026-01-25 02:34:04.31	238.88	31.77	-35.0	-36.3	18.7	0.00e+00	0	62	0	2371878912	41	4215
2026-01-25 02:34:07.34	238.30	31.25	-35.0	-36.2	18.7	0.00e+00	0	62	0	2389704704	41	4185
2026-01-25 02:34:10.37	237.74	30.73	-35.2	-36.5	18.5	0.00e+00	0	62	0	2406481920	41	4295
2026-01-25 02:34:13.40	237.20	30.22	-35.2	-36.4	18.5	0.00e+00	0	62	0	2423259136	41	4290
2026-01-25 02:34:16.43	236.68	29.72	-35.1	-36.4	18.5	0.00e+00	0	62	0	2440036352	41	4278
2026-01-25 02:34:19.45	236.17	29.22	-35.3	-36.5	18.4	0.00e+00	0	62	0	2457862144	41	4336
2026-01-25 02:34:22.48	235.68	28.73	-35.3	-36.7	18.3	0.00e+00	0	62	0	2474639360	41	4396
2026-01-25 02:34:25.51	235.20	28.25	-35.5	-36.8	18.1	0.00e+00	0	62	0	2491416576	41	4491
2026-01-25 02:34:28.54	234.74	27.77	-35.5	-36.9	18.1	0.00e+00	0	62	0	2509242368	41	4503
2026-01-25 02:34:31.57	234.29	27.30	-35.6	-36.9	18.1	0.00e+00	0	62	0	2526019584	41	4523
2026-01-25 02:34:34.61	233.85	26.83	-35.3	-36.6	18.3	0.00e+00	0	62	0	2542796800	41	4385
2026-01-25 02:34:37.64	233.43	26.37	-35.3	-36.6	18.3	0.00e+00	0	62	0	2559574016	41	4383
2026-01-25 02:34:40.67	233.02	25.92	-35.3	-36.6	18.3	0.00e+00	0	62	0	2576351232	41	4386
2026-01-25 02:34:43.70	232.62	25.47	-35.3	-36.6	18.3	0.00e+00	0	62	0	2594177024	41	4356
2026-01-25 02:34:46.73	232.23	25.03	-35.4	-36.7	18.2	0.00e+00	0	62	0	2610954240	41	4426
2026-01-25 02:34:49.76	231.85	24.59	-35.5	-36.8	18.1	0.00e+00	0	62	0	2627731456	41	4464
2026-01-25 02:34:52.79	231.48	24.16	-35.5	-36.8	18.1	0.00e+00	0	62	0	2645557248	41	4472
2026-01-25 02:34:55.82	231.13	23.74	-35.5	-36.9	18.0	0.00e+00	0	62	0	2662334464	41	4510
2026-01-25 02:34:58.84	230.78	23.32	-35.7	-37.0	17.9	0.00e+00	0	62	0	2679111680	41	4586
2026-01-25 02:35:01.87	230.44	22.91	-35.8	-37.2	17.7	0.00e+00	0	62	0	2695888896	42	4419
2026-01-25 02:35:04.90	230.11	22.50	-35.8	-37.2	17.7	0.00e+00	0	62	0	2713714688	42	4417
2026-01-25 02:35:07.93	229.79	22.10	-35.7	-37.1	17.8	0.00e+00	0	62	0	2730491904	42	4365
2026-01-25 02:35:10.96	229.48	21.70	-35.8	-37.2	17.7	0.00e+00	0	62	0	2747269120	42	4392
2026-01-25 02:35:14.00	229.18	21.31	-35.6	-37.0	17.9	0.00e+00	0	62	0	2764046336	42	4294
2026-01-25 02:35:17.03	228.88	20.92	-35.7	-37.0	17.8	0.00e+00	0	62	0	2781872128	42	4339
2026-01-25 02:35:20.06	228.59	20.54	-35.8	-37.2	17.7	0.00e+00	0	62	0	2798649344	42	4422
2026-01-25 02:35:23.09	228.31	20.16	-36.1	-37.5	17.4	0.00e+00	0	61	0	2815426560	42	4560
2026-01-25 02:35:26.12	228.03	19.79	-36.2	-37.6	17.2	0.00e+00	0	62	0	2832203776	42	4625
2026-01-25 02:35:29.15	227.77	19.42	-36.3	-37.8	17.0	0.00e+00	0	62	0	2850029568	43	4491
2026-01-25 02:35:32.18	227.50	19.06	-36.5	-38.0	16.8	0.00e+00	0	62	0	2866806784	43	4579
2026-01-25 02:35:35.21	227.25	18.70	-36.5	-38.0	16.8	0.00e+00	0	62	0	2883584000	43	4572
2026-01-25 02:35:38.24	227.00	18.35	-36.5	-38.0	16.8	0.00e+00	0	62	0	2900361216	43	4552
2026-01-25 02:35:41.27	226.76	18.00	-36.5	-38.0	16.8	0.00e+00	0	62	0	2918187008	43	4554
2026-01-25 02:35:44.30	226.52	17.66	-36.6	-38.1	16.7	0.00e+00	0	62	0	2934964224	43	4610
2026-01-25 02:35:47.33	226.29	17.32	-36.7	-38.2	16.6	0.00e+00	0	62	0	2951741440	43	4679
2026-01-25 02:35:50.37	226.06	16.98	-36.9	-38.5	16.4	0.00e+00	0	62	0	2968518656	44	4554
2026-01-25 02:35:53.40	225.84	16.65	-37.0	-38.6	16.3	0.00e+00	0	62	0	2986344448	44	4612
2026-01-25 02:35:56.43	225.62	16.32	-37.0	-38.6	16.3	0.00e+00	0	62	0	3003121664	44	4601
2026-01-25 02:35:59.45	225.41	16.00	-37.1	-38.6	16.2	0.00e+00	0	62	0	3019898880	44	4651
2026-01-25 02:36:02.48	225.20	15.68	-37.2	-38.9	16.0	0.00e+00	0	62	0	3037724672	45	4501
2026-01-25 02:36:05.51	225.00	15.36	-37.5	-39.1	15.7	0.00e+00	0	62	0	3054501888	45	4644
2026-01-25 02:36:08.53	224.80	15.05	-37.5	-39.3	15.6	0.00e+00	0	62	0	3071279104	45	4719
2026-01-25 02:36:11.56	224.61	14.74	-37.7	-39.5	15.4	0.00e+00	0	62	0	3088056320	46	4592
2026-01-25 02:36:14.59	224.42	14.44	-37.8	-39.6	15.3	0.00e+00	0	62	0	3104833536	46	4603
2026-01-25 02:36:17.62	224.23	14.13	-37.9	-39.7	15.1	0.00e+00	0	62	0	3122659328	46	4683
2026-01-25 02:36:20.65	224.05	13.84	-37.9	-39.7	15.1	0.00e+00	0	62	0	3139436544	46	4693
2026-01-25 02:36:23.68	223.87	13.54	-37.8	-39.5	15.2	0.00e+00	0	62	0	3156213760	46	4598
2026-01-25 02:36:26.71	223.70	13.25	-37.7	-39.5	15.3	1.10e-06	0	62	0	3172990976	46	4576
2026-01-25 02:36:29.74	223.52	12.96	-37.8	-39.6	15.1	0.00e+00	0	62	0	3190816768	46	4632
2026-01-25 02:36:32.77	223.36	12.68	-37.7	-39.5	15.2	0.00e+00	0	62	0	3207593984	46	4577
2026-01-25 02:36:35.80	223.19	12.39	-37.8	-39.6	15.1	0.00e+00	0	62	0	3224371200	46	4646
2026-01-25 02:36:38.84	223.03	12.11	-37.8	-39.6	15.1	0.00e+00	0	62	0	3241148416	46	4647
2026-01-25 02:36:41.87	222.87	11.84	-38.1	-40.0	14.7	1.10e-06	0	62	0	3258974208	46	4826
2026-01-25 02:36:44.90	222.72	11.56	-38.1	-40.0	14.7	1.10e-06	0	62	0	3275751424	46	4832
2026-01-25 02:36:47.93	222.56	11.29	-38.1	-40.1	14.6	0.00e+00	0	62	0	3292528640	46	4894
2026-01-25 02:36:50.96	222.42	11.02	-38.3	-40.3	14.3	2.20e-06	0	62	0	3309305856	47	4723
2026-01-25 02:36:53.99	222.27	10.76	-38.3	-40.3	14.3	0.00e+00	0	62	0	3327131648	47	4739
2026-01-25 02:36:57.02	222.13	10.50	-38.4	-40.4	14.1	3.40e-06	0	62	0	3343908864	47	4812
2026-01-25 02:37:00.05	221.98	10.24	-38.6	-40.7	13.9	0.00e+00	0	62	0	3360686080	47	4939
2026-01-25 02:37:03.08	221.85	9.98	-38.5	-40.6	13.9	3.40e-06	0	62	0	3377463296	47	4918
2026-01-25 02:37:06.10	221.71	9.72	-38.5	-40.6	13.9	1.10e-06	0	62	0	3395289088	47	4906
2026-01-25 02:37:09.14	221.58	9.47	-38.4	-40.5	13.9	0.00e+00	0	62	0	3412066304	47	4854
2026-01-25 02:37:12.17	221.45	9.22	-38.5	-40.7	13.7	1.10e-06	0	62	0	3428843520	47	4941
2026-01-25 02:37:15.20	221.32	8.97	-38.6	-40.7	13.6	4.50e-06	0	62	0	3445620736	47	4980
2026-01-25 02:37:18.22	221.19	8.73	-38.6	-40.8	13.6	3.40e-06	0	62	0	3463446528	47	4996
2026-01-25 02:37:21.25	221.07	8.48	-38.6	-40.8	13.6	6.80e-06	0	62	0	3480223744	47	4986
2026-01-25 02:37:24.28	220.95	8.24	-38.6	-40.9	13.4	1.60e-05	0	62	0	3497000960	47	5049
2026-01-25 02:37:27.31	220.83	8.01	-39.2	-41.5	12.9	1.83e-05	0	62	0	3513778176	48	5156
2026-01-25 02:37:30.34	220.71	7.77	-44.9	-56.6	3.8	8.47e-01	0	62	104	3516923904	60	14662
2026-01-25 02:37:33.38	220.59	7.53	-45.1	-56.8	3.8	8.46e-01	0	62	104	3516923904	60	15047
2026-01-25 02:37:36.41	220.48	7.30	-45.2	-57.0	3.8	8.45e-01	0	62	104	3516923904	60	15226
2026-01-25 02:37:39.44	220.37	7.07	-45.1	-56.8	3.8	8.46e-01	0	62	104	3516923904	60	15051
2026-01-25 02:37:42.47	220.26	6.84	-45.1	-56.8	3.8	8.46e-01	0	62	104	3516923904	60	14928
2026-01-25 02:37:45.50	220.15	6.61	-45.1	-56.8	3.8	8.46e-01	0	62	104	3516923904	60	14969
2026-01-25 02:37:48.53	220.04	6.39	-45.1	-56.8	3.8	8.47e-01	0	62	104	3516923904	60	14920
2026-01-25 02:37:51.56	219.94	6.17	-45.1	-56.8	3.8	8.46e-01	0	62	104	3516923904	60	14935
2026-01-25 02:37:54.60	219.83	5.94	-45.1	-56.8	3.8	8.46e-01	0	62	104	3516923904	60	14902
2026-01-25 02:37:57.63	219.73	5.72	-45.1	-56.8	3.8	8.45e-01	0	62	104	3516923904	60	14884
2026-01-25 02:38:00.66	219.63	5.51	-45.0	-56.7	3.8	8.47e-01	0	62	104	3516923904	60	14862
2026-01-25 02:38:03.69	219.54	5.29	-45.0	-56.8	3.8	8.46e-01	0	62	104	3516923904	60	14884
2026-01-25 02:38:06.72	219.44	5.08	-45.0	-56.8	3.8	8.47e-01	0	62	104	3516923904	60	14941
2026-01-25 02:38:09.75	219.34	4.86	-45.0	-56.8	3.8	8.45e-01	0	62	104	3516923904	60	14922
2026-01-25 02:38:12.78	219.25	4.65	-45.0	-56.8	3.8	8.46e-01	0	62	104	3516923904	60	14930
2026-01-25 02:38:15.82	219.16	4.44	-45.0	-56.8	3.8	8.47e-01	0	62	104	3516923904	60	14885
2026-01-25 02:38:18.85	219.07	4.23	-45.0	-56.8	3.8	8.46e-01	0	62	104	3516923904	60	14921
2026-01-25 02:38:21.88	218.98	4.03	-45.0	-56.7	3.8	8.46e-01	0	62	104	3516923904	60	14870
2026-01-25 02:38:24.91	218.89	3.82	-45.0	-56.7	3.8	8.46e-01	0	62	104	3516923904	60	14844
2026-01-25 02:38:27.94	218.80	3.62	-45.0	-56.8	3.8	8.46e-01	0	62	104	3516923904	60	14891
2026-01-25 02:38:30.97	218.72	3.42	-45.0	-56.8	3.8	8.47e-01	0	62	104	3516923904	60	14885
2026-01-25 02:38:34.00	218.63	3.22	-45.0	-56.7	3.8	8.46e-01	0	62	104	3516923904	60	14860
2026-01-25 02:38:37.03	218.55	3.02	-45.0	-56.7	3.8	8.48e-01	0	62	104	3516923904	60	14858
2026-01-25 02:38:40.07	218.47	2.82	-45.0	-56.8	3.8	8.46e-01	0	62	104	3516923904	60	14886
2026-01-25 02:38:43.10	218.39	2.62	-45.0	-56.7	3.8	8.47e-01	0	62	104	3516923904	60	14817
2026-01-25 02:38:46.13	218.31	2.43	-45.0	-56.7	3.8	8.47e-01	0	62	104	3516923904	60	14846
2026-01-25 02:38:49.16	218.23	2.23	-45.0	-56.7	3.8	8.45e-01	0	62	104	3516923904	60	14875
2026-01-25 02:38:52.19	218.15	2.04	-45.0	-56.7	3.8	8.46e-01	0	62	104	3516923904	60	14775

#Closed at: 2026-01-25 02:38:53
#Recorded file [3516 MB]: D:/lorett/data/31039_260125_052617.dat