passes_logs/2026/01/25/R2.0S_Moscow/R2.0S_Moscow__20260125_004431_FENGYUN_3D_rec.log

#Pass ID: 20260125_004431_FENGYUN 3D
#Satellite: FENGYUN 3D
#Configuration: FENGYUN 3D
#almurnet v.1.7.20251203
#Start time: 2026-01-25 00:48:59

#Version: 2.2.20231116
#Station: R2.0S_Moscow
#Location: 37.707566 lon 55.798166 lat
#TLE: 1 43010U 17072A   26024.51794477  .00000040  00000+0  40682-4 0  9990
#TLE: 2 43010  98.9961 356.4820 0002494  91.2631 268.8830 14.19699550424601

#Time	Az	El	Level	Level2	SNR	BER	BlckErr	Temp	State	Recorded	gain1	gain2
2026-01-25 00:48:59.88	49.30	23.74	-46.1	-64.5	3.8	7.44e-01	0	61	0	0	63	30702
2026-01-25 00:49:02.92	49.91	24.07	-45.9	-57.6	3.8	8.47e-01	0	61	104	0	63	13818
2026-01-25 00:49:05.95	50.54	24.39	-45.7	-57.5	3.8	8.46e-01	0	61	104	0	63	13620
2026-01-25 00:49:08.98	51.18	24.71	-45.1	-56.8	3.8	8.45e-01	0	62	104	0	62	13383
2026-01-25 00:49:12.02	51.83	25.04	-45.1	-56.8	3.8	8.45e-01	0	62	104	0	62	13395
2026-01-25 00:49:15.05	52.50	25.36	-45.0	-56.4	3.8	8.46e-01	0	62	104	0	62	12674
2026-01-25 00:49:18.08	53.18	25.69	-45.0	-56.0	3.8	8.45e-01	0	61	104	0	62	12115
2026-01-25 00:49:21.11	53.87	26.01	-45.0	-56.3	3.8	8.46e-01	0	62	104	0	62	12539
2026-01-25 00:49:24.14	54.58	26.33	-45.0	-56.4	3.8	8.47e-01	0	61	104	0	62	12711
2026-01-25 00:49:27.17	55.30	26.66	-44.9	-55.2	3.8	8.45e-01	0	62	104	0	61	11801
2026-01-25 00:49:30.20	56.04	26.98	-44.9	-55.8	3.8	8.46e-01	0	62	104	0	61	12658
2026-01-25 00:49:33.23	56.79	27.30	-44.4	-52.4	4.5	8.26e-01	0	62	0	0	60	9006
2026-01-25 00:49:36.27	57.56	27.62	-44.6	-53.6	4.1	8.37e-01	0	62	0	0	60	10337
2026-01-25 00:49:39.30	58.34	27.93	-44.7	-54.4	3.8	8.44e-01	0	62	104	0	60	11357
2026-01-25 00:49:42.33	59.14	28.25	-44.6	-53.8	3.9	8.44e-01	0	62	104	0	60	10576
2026-01-25 00:49:45.36	59.95	28.56	-41.2	-44.1	11.2	5.76e-03	0	62	0	11534336	54	4905
2026-01-25 00:49:48.39	60.78	28.87	-42.6	-46.9	8.3	2.28e-02	0	62	0	28311552	55	6399
2026-01-25 00:49:51.42	61.62	29.18	-39.0	-41.0	14.4	9.15e-05	0	62	0	40894464	50	4316
2026-01-25 00:49:54.45	62.48	29.48	-35.3	-36.7	18.3	0.00e+00	0	62	0	57671680	42	4159
2026-01-25 00:49:57.48	63.36	29.78	-39.1	-41.2	14.3	1.10e-06	0	62	0	74448896	49	4675
2026-01-25 00:50:00.51	64.25	30.08	-35.5	-37.0	17.9	0.00e+00	0	62	0	92274688	43	4056
2026-01-25 00:50:03.54	65.16	30.37	-35.6	-37.0	17.9	0.00e+00	0	62	0	109051904	42	4335
2026-01-25 00:50:06.57	66.08	30.65	-35.5	-37.0	18.0	0.00e+00	0	62	0	125829120	42	4295
2026-01-25 00:50:09.60	67.02	30.94	-35.5	-36.9	18.0	0.00e+00	0	62	0	143654912	42	4290
2026-01-25 00:50:12.63	67.98	31.21	-35.5	-36.9	18.0	0.00e+00	0	62	0	160432128	42	4275
2026-01-25 00:50:15.66	68.95	31.48	-35.1	-36.5	18.4	0.00e+00	0	62	0	177209344	42	4065
2026-01-25 00:50:18.69	69.94	31.74	-35.1	-36.5	18.4	0.00e+00	0	62	0	193986560	42	4063
2026-01-25 00:50:21.72	70.94	32.00	-35.0	-36.4	18.5	0.00e+00	0	62	0	210763776	42	4046
2026-01-25 00:50:24.75	71.96	32.24	-35.1	-36.5	18.4	0.00e+00	0	62	0	228589568	41	4324
2026-01-25 00:50:27.77	72.99	32.48	-35.3	-36.7	18.2	0.00e+00	0	62	0	245366784	41	4423
2026-01-25 00:50:30.81	74.05	32.71	-35.3	-36.8	18.2	0.00e+00	0	62	0	262144000	41	4449
2026-01-25 00:50:33.84	75.11	32.94	-35.0	-36.4	18.5	0.00e+00	0	62	0	279969792	41	4279
2026-01-25 00:50:36.86	76.18	33.15	-35.2	-36.6	18.3	0.00e+00	0	62	0	296747008	41	4386
2026-01-25 00:50:39.89	77.28	33.35	-35.0	-36.4	18.5	0.00e+00	0	62	0	313524224	41	4259
2026-01-25 00:50:42.92	78.38	33.55	-35.0	-36.5	18.4	0.00e+00	0	62	0	330301440	41	4292
2026-01-25 00:50:45.95	79.50	33.73	-34.8	-36.2	18.7	0.00e+00	0	62	0	348127232	41	4174
2026-01-25 00:50:48.98	80.63	33.90	-35.1	-36.5	18.5	0.00e+00	0	62	0	364904448	41	4298
2026-01-25 00:50:52.00	81.77	34.06	-35.1	-36.5	18.5	0.00e+00	0	62	0	381681664	41	4301
2026-01-25 00:50:55.03	82.92	34.21	-35.0	-36.4	18.6	0.00e+00	0	62	0	398458880	41	4271
2026-01-25 00:50:58.06	84.09	34.34	-35.1	-36.6	18.4	0.00e+00	0	62	0	415236096	41	4341
2026-01-25 00:51:01.09	85.26	34.47	-34.9	-36.3	18.7	0.00e+00	0	62	0	433061888	41	4199
2026-01-25 00:51:04.12	86.44	34.58	-34.9	-36.3	18.7	0.00e+00	0	62	0	449839104	41	4206
2026-01-25 00:51:07.15	87.63	34.67	-35.1	-36.5	18.5	0.00e+00	0	62	0	466616320	41	4307
2026-01-25 00:51:10.18	88.82	34.76	-34.8	-36.2	18.8	0.00e+00	0	62	0	483393536	41	4149
2026-01-25 00:51:13.21	90.02	34.83	-34.9	-36.3	18.7	0.00e+00	0	62	0	501219328	41	4201
2026-01-25 00:51:16.24	91.23	34.89	-35.0	-36.4	18.6	0.00e+00	0	62	0	517996544	41	4272
2026-01-25 00:51:19.27	92.44	34.93	-35.2	-36.7	18.3	0.00e+00	0	62	0	534773760	41	4402
2026-01-25 00:51:22.30	93.65	34.96	-35.2	-36.6	18.4	0.00e+00	0	62	0	552599552	41	4385
2026-01-25 00:51:25.33	94.86	34.97	-34.8	-36.2	18.8	0.00e+00	0	62	0	569376768	41	4163
2026-01-25 00:51:28.35	96.07	34.98	-35.0	-36.5	18.5	0.00e+00	0	62	0	586153984	41	4292
2026-01-25 00:51:31.38	97.29	34.96	-34.9	-36.3	18.7	0.00e+00	0	62	0	602931200	41	4221
2026-01-25 00:51:34.41	98.50	34.94	-35.2	-36.6	18.4	0.00e+00	0	62	0	619708416	41	4375
2026-01-25 00:51:37.45	99.71	34.89	-35.0	-36.4	18.6	0.00e+00	0	62	0	637534208	41	4257
2026-01-25 00:51:40.48	100.92	34.84	-35.0	-36.4	18.6	0.00e+00	0	62	0	654311424	41	4285
2026-01-25 00:51:43.51	102.12	34.77	-35.0	-36.4	18.6	0.00e+00	0	62	0	671088640	41	4265
2026-01-25 00:51:46.54	103.32	34.69	-35.1	-36.5	18.4	0.00e+00	0	62	0	688914432	41	4323
2026-01-25 00:51:49.57	104.51	34.59	-35.0	-36.4	18.5	0.00e+00	0	62	0	705691648	41	4283
2026-01-25 00:51:52.60	105.69	34.48	-35.1	-36.5	18.5	0.00e+00	0	62	0	722468864	41	4307
2026-01-25 00:51:55.62	106.86	34.36	-35.1	-36.6	18.4	0.00e+00	0	62	0	739246080	41	4352
2026-01-25 00:51:58.65	108.03	34.23	-35.3	-36.8	18.1	0.00e+00	0	62	0	757071872	41	4475
2026-01-25 00:52:01.69	109.19	34.08	-35.1	-36.5	18.5	0.00e+00	0	62	0	773849088	41	4314
2026-01-25 00:52:04.72	110.34	33.92	-35.0	-36.5	18.5	0.00e+00	0	62	0	790626304	41	4294
2026-01-25 00:52:07.75	111.47	33.75	-35.0	-36.4	18.6	0.00e+00	0	62	0	807403520	41	4245
2026-01-25 00:52:10.77	112.59	33.57	-35.1	-36.5	18.5	0.00e+00	0	62	0	824180736	41	4316
2026-01-25 00:52:13.80	113.70	33.38	-35.2	-36.6	18.3	0.00e+00	0	62	0	842006528	41	4391
2026-01-25 00:52:16.83	114.80	33.18	-35.3	-36.7	18.3	0.00e+00	0	62	0	858783744	41	4417
2026-01-25 00:52:19.86	115.88	32.96	-35.3	-36.8	18.2	0.00e+00	0	62	0	875560960	41	4450
2026-01-25 00:52:22.88	116.95	32.74	-35.3	-36.7	18.2	0.00e+00	0	62	0	892338176	41	4440
2026-01-25 00:52:25.91	118.00	32.51	-35.3	-36.8	18.1	0.00e+00	0	62	0	910163968	41	4469
2026-01-25 00:52:28.95	119.04	32.27	-35.3	-36.8	18.1	0.00e+00	0	62	0	926941184	41	4472
2026-01-25 00:52:31.98	120.07	32.02	-35.4	-36.9	18.1	0.00e+00	0	62	0	943718400	41	4499
2026-01-25 00:52:35.01	121.08	31.77	-35.4	-36.9	18.0	0.00e+00	0	62	0	961544192	41	4541
2026-01-25 00:52:38.03	122.07	31.51	-35.4	-36.9	17.9	0.00e+00	0	62	0	978321408	41	4537
2026-01-25 00:52:41.06	123.05	31.24	-35.4	-36.9	18.0	0.00e+00	0	62	0	995098624	41	4514
2026-01-25 00:52:44.09	124.01	30.96	-35.6	-37.0	17.9	0.00e+00	0	62	0	1011875840	41	4591
2026-01-25 00:52:47.12	124.95	30.68	-35.2	-36.6	18.3	0.00e+00	0	62	0	1028653056	41	4360
2026-01-25 00:52:50.15	125.88	30.39	-35.3	-36.8	18.1	0.00e+00	0	62	0	1046478848	41	4459
2026-01-25 00:52:53.18	126.80	30.10	-35.4	-36.9	17.9	0.00e+00	0	62	0	1063256064	41	4527
2026-01-25 00:52:56.21	127.69	29.81	-35.4	-36.9	18.0	0.00e+00	0	62	0	1080033280	41	4532
2026-01-25 00:52:59.24	128.57	29.50	-35.4	-36.8	18.1	0.00e+00	0	62	0	1097859072	41	4473
2026-01-25 00:53:02.27	129.44	29.20	-35.4	-36.9	18.0	0.00e+00	0	62	0	1114636288	41	4519
2026-01-25 00:53:05.29	130.29	28.89	-35.4	-36.9	18.0	0.00e+00	0	62	0	1131413504	41	4518
2026-01-25 00:53:08.32	131.12	28.58	-35.5	-37.0	17.9	0.00e+00	0	62	0	1148190720	41	4561
2026-01-25 00:53:11.35	131.94	28.27	-35.7	-37.2	17.7	0.00e+00	0	62	0	1166016512	41	4702
2026-01-25 00:53:14.38	132.74	27.95	-35.5	-37.0	17.9	0.00e+00	0	62	0	1182793728	42	4295
2026-01-25 00:53:17.41	133.52	27.63	-35.6	-37.1	17.8	0.00e+00	0	62	0	1199570944	42	4344
2026-01-25 00:53:20.44	134.29	27.31	-35.8	-37.3	17.5	0.00e+00	0	62	0	1216348160	42	4492
2026-01-25 00:53:23.48	135.05	26.99	-35.9	-37.4	17.5	0.00e+00	0	62	0	1233125376	42	4530
2026-01-25 00:53:26.51	135.79	26.66	-35.8	-37.3	17.6	0.00e+00	0	62	0	1250951168	42	4459
2026-01-25 00:53:29.54	136.52	26.34	-35.8	-37.3	17.5	0.00e+00	0	61	0	1267728384	42	4488
2026-01-25 00:53:32.57	137.23	26.01	-35.9	-37.4	17.4	0.00e+00	0	62	0	1284505600	42	4539
2026-01-25 00:53:35.60	137.93	25.69	-35.5	-37.0	17.9	0.00e+00	0	62	0	1302331392	42	4295
2026-01-25 00:53:38.62	138.61	25.36	-35.6	-37.0	17.7	0.00e+00	0	62	0	1319108608	42	4340
2026-01-25 00:53:41.65	139.28	25.04	-35.8	-37.3	17.5	0.00e+00	0	62	0	1335885824	42	4470
2026-01-25 00:53:44.68	139.94	24.71	-35.8	-37.4	17.5	0.00e+00	0	62	0	1352663040	42	4510
2026-01-25 00:53:47.71	140.58	24.38	-36.0	-37.5	17.4	0.00e+00	0	62	0	1370488832	42	4567
2026-01-25 00:53:50.74	141.21	24.06	-36.0	-37.6	17.3	0.00e+00	0	62	0	1387266048	42	4607
2026-01-25 00:53:53.76	141.83	23.73	-36.1	-37.7	17.1	0.00e+00	0	62	0	1404043264	42	4702
2026-01-25 00:53:56.80	142.43	23.41	-36.2	-37.8	17.0	0.00e+00	0	62	0	1420820480	43	4488
2026-01-25 00:53:59.82	143.03	23.08	-36.1	-37.7	17.1	0.00e+00	0	62	0	1437597696	43	4410
2026-01-25 00:54:02.86	143.61	22.76	-36.1	-37.7	17.0	0.00e+00	0	62	0	1455423488	43	4430
2026-01-25 00:54:05.88	144.18	22.44	-36.2	-37.8	17.0	0.00e+00	0	62	0	1472200704	43	4462
2026-01-25 00:54:08.91	144.74	22.12	-36.3	-38.0	16.8	0.00e+00	0	62	0	1488977920	43	4559
2026-01-25 00:54:11.95	145.29	21.80	-36.2	-37.8	16.9	0.00e+00	0	62	0	1506803712	43	4485
2026-01-25 00:54:14.98	145.82	21.48	-36.3	-37.9	16.8	0.00e+00	0	62	0	1523580928	43	4521
2026-01-25 00:54:18.01	146.35	21.17	-36.3	-37.9	16.8	0.00e+00	0	62	0	1540358144	43	4542
2026-01-25 00:54:21.04	146.86	20.85	-36.5	-38.2	16.6	0.00e+00	0	62	0	1557135360	43	4667
2026-01-25 00:54:24.07	147.37	20.54	-36.5	-38.1	16.6	0.00e+00	0	62	0	1574961152	43	4639
2026-01-25 00:54:27.10	147.87	20.23	-36.6	-38.3	16.4	0.00e+00	0	62	0	1591738368	43	4723
2026-01-25 00:54:30.13	148.35	19.92	-37.0	-38.8	16.1	0.00e+00	0	62	0	1608515584	44	4729
2026-01-25 00:54:33.16	148.83	19.61	-37.1	-38.9	16.0	0.00e+00	0	62	0	1625292800	44	4808
2026-01-25 00:54:36.18	149.30	19.31	-37.2	-39.0	15.9	0.00e+00	0	62	0	1642070016	45	4578
2026-01-25 00:54:39.21	149.75	19.01	-37.2	-39.0	15.9	0.00e+00	0	62	0	1659895808	45	4551
2026-01-25 00:54:42.24	150.20	18.70	-37.2	-39.0	15.8	0.00e+00	0	62	0	1676673024	45	4594
2026-01-25 00:54:45.27	150.64	18.40	-37.3	-39.2	15.7	0.00e+00	0	62	0	1693450240	45	4662
2026-01-25 00:54:48.31	151.08	18.11	-37.3	-39.2	15.7	0.00e+00	0	62	0	1711276032	45	4671
2026-01-25 00:54:51.34	151.50	17.81	-37.4	-39.2	15.6	0.00e+00	0	62	0	1728053248	45	4680
2026-01-25 00:54:54.37	151.92	17.52	-37.2	-39.0	15.8	0.00e+00	0	62	0	1744830464	45	4585
2026-01-25 00:54:57.40	152.33	17.23	-37.3	-39.1	15.7	0.00e+00	0	62	0	1761607680	45	4651
2026-01-25 00:55:00.43	152.73	16.94	-37.4	-39.2	15.6	0.00e+00	0	62	0	1779433472	45	4679
2026-01-25 00:55:03.46	153.13	16.65	-37.3	-39.2	15.6	0.00e+00	0	62	0	1796210688	45	4662
2026-01-25 00:55:06.49	153.51	16.36	-37.4	-39.2	15.6	0.00e+00	0	62	0	1812987904	45	4684
2026-01-25 00:55:09.52	153.89	16.08	-37.5	-39.3	15.5	0.00e+00	0	62	0	1829765120	45	4746
2026-01-25 00:55:12.54	154.26	15.80	-37.5	-39.4	15.4	0.00e+00	0	62	0	1847590912	45	4782
2026-01-25 00:55:15.57	154.63	15.52	-37.6	-39.5	15.3	0.00e+00	0	62	0	1864368128	45	4840
2026-01-25 00:55:18.60	154.99	15.25	-37.7	-39.6	15.2	0.00e+00	0	62	0	1881145344	46	4609
2026-01-25 00:55:21.63	155.34	14.97	-37.7	-39.7	15.1	0.00e+00	0	62	0	1897922560	46	4660
2026-01-25 00:55:24.66	155.69	14.70	-37.7	-39.6	15.2	0.00e+00	0	62	0	1915748352	46	4628
2026-01-25 00:55:27.69	156.03	14.43	-37.8	-39.7	15.0	1.10e-06	0	62	0	1932525568	46	4694
2026-01-25 00:55:30.72	156.37	14.16	-38.0	-40.0	14.8	1.10e-06	0	62	0	1949302784	46	4838
2026-01-25 00:55:33.76	156.70	13.89	-38.0	-40.1	14.6	0.00e+00	0	62	0	1966080000	46	4903
2026-01-25 00:55:36.79	157.02	13.63	-38.2	-40.3	14.4	1.10e-06	0	62	0	1983905792	46	5007
2026-01-25 00:55:39.82	157.34	13.37	-38.3	-40.4	14.3	0.00e+00	0	62	0	2000683008	47	4772
2026-01-25 00:55:42.85	157.65	13.11	-38.3	-40.4	14.3	2.20e-06	0	62	0	2017460224	47	4780
2026-01-25 00:55:45.88	157.96	12.85	-38.3	-40.5	14.1	3.40e-06	0	62	0	2034237440	47	4831
2026-01-25 00:55:48.91	158.26	12.59	-38.4	-40.5	14.1	3.40e-06	0	62	0	2052063232	47	4855
2026-01-25 00:55:51.94	158.56	12.34	-38.4	-40.5	14.1	6.80e-06	0	62	0	2068840448	47	4856
2026-01-25 00:55:54.96	158.85	12.09	-38.4	-40.5	14.0	2.20e-06	0	62	0	2085617664	47	4847
2026-01-25 00:55:57.99	159.14	11.84	-38.3	-40.5	14.0	3.40e-06	0	62	0	2103443456	47	4850
2026-01-25 00:56:01.02	159.42	11.59	-38.4	-40.7	13.8	1.02e-05	0	62	0	2120220672	47	4931
2026-01-25 00:56:04.05	159.70	11.34	-38.4	-40.7	13.8	1.02e-05	0	62	0	2136997888	47	4946
2026-01-25 00:56:07.08	159.98	11.10	-38.4	-40.7	13.8	1.02e-05	0	62	0	2153775104	47	4951
2026-01-25 00:56:10.11	160.25	10.86	-38.4	-40.7	13.7	3.40e-06	0	62	0	2170552320	47	4968
2026-01-25 00:56:13.15	160.51	10.62	-38.5	-40.8	13.6	2.51e-05	0	62	0	2188378112	47	5022
2026-01-25 00:56:16.18	160.77	10.38	-38.5	-40.8	13.5	5.70e-06	0	62	0	2205155328	47	5021
2026-01-25 00:56:19.20	161.03	10.14	-38.5	-40.8	13.5	2.17e-05	0	62	0	2221932544	47	5018
2026-01-25 00:56:22.23	161.28	9.91	-38.6	-40.9	13.4	2.86e-05	0	62	0	2238709760	47	5079
2026-01-25 00:56:25.26	161.53	9.67	-38.6	-40.9	13.3	2.86e-05	0	62	0	2256535552	47	5081
2026-01-25 00:56:28.29	161.78	9.44	-38.7	-41.1	13.1	4.69e-05	0	62	0	2273312768	47	5187
2026-01-25 00:56:31.33	162.02	9.21	-38.8	-41.3	12.9	8.58e-05	0	62	0	2290089984	48	4997
2026-01-25 00:56:34.36	162.26	8.98	-38.9	-41.3	13.0	5.37e-05	0	62	0	2306867200	48	5006
2026-01-25 00:56:37.39	162.50	8.75	-38.9	-41.3	12.9	1.11e-04	0	62	0	2324692992	48	5036
2026-01-25 00:56:40.42	162.73	8.53	-39.0	-41.5	12.7	1.03e-04	0	62	0	2341470208	48	5126
2026-01-25 00:56:43.45	162.96	8.31	-38.8	-41.3	12.8	1.13e-04	0	62	0	2358247424	48	5008
2026-01-25 00:56:46.48	163.18	8.08	-39.0	-41.5	12.6	1.99e-04	0	62	0	2375024640	48	5119
2026-01-25 00:56:49.51	163.40	7.86	-44.8	-56.7	3.8	8.47e-01	0	62	104	2383413248	60	14744
2026-01-25 00:56:52.54	163.62	7.65	-45.2	-57.0	3.8	8.46e-01	0	62	104	2383413248	60	15236
2026-01-25 00:56:55.57	163.84	7.43	-45.3	-57.0	3.8	8.46e-01	0	62	104	2383413248	61	14516
2026-01-25 00:56:58.60	164.05	7.21	-45.3	-57.0	3.8	8.47e-01	0	62	104	2383413248	61	14519
2026-01-25 00:57:01.63	164.26	7.00	-45.3	-57.0	3.8	8.46e-01	0	62	104	2383413248	61	14384
2026-01-25 00:57:04.66	164.46	6.79	-45.2	-56.9	3.8	8.46e-01	0	62	104	2383413248	61	14278
2026-01-25 00:57:07.69	164.67	6.57	-45.2	-56.9	3.8	8.45e-01	0	62	104	2383413248	61	14287
2026-01-25 00:57:10.72	164.87	6.36	-45.2	-56.8	3.8	8.47e-01	0	62	104	2383413248	61	14172
2026-01-25 00:57:13.76	165.07	6.16	-45.1	-56.9	3.8	8.46e-01	0	62	104	2383413248	61	14218
2026-01-25 00:57:16.79	165.26	5.95	-45.1	-56.9	3.8	8.46e-01	0	62	104	2383413248	61	14278
2026-01-25 00:57:19.82	165.45	5.74	-45.1	-56.8	3.8	8.47e-01	0	62	104	2383413248	61	14206
2026-01-25 00:57:22.85	165.64	5.54	-45.1	-56.8	3.8	8.46e-01	0	62	104	2383413248	61	14166
2026-01-25 00:57:25.88	165.83	5.34	-45.1	-56.8	3.8	8.47e-01	0	62	104	2383413248	61	14179
2026-01-25 00:57:28.91	166.02	5.13	-45.1	-56.8	3.8	8.46e-01	0	62	104	2383413248	61	14142
2026-01-25 00:57:31.95	166.20	4.93	-45.1	-56.8	3.8	8.46e-01	0	62	104	2383413248	61	14164
2026-01-25 00:57:34.98	166.38	4.73	-45.1	-56.8	3.8	8.47e-01	0	62	104	2383413248	61	14136
2026-01-25 00:57:38.01	166.56	4.54	-45.1	-56.8	3.8	8.45e-01	0	62	104	2383413248	61	14163
2026-01-25 00:57:41.04	166.73	4.34	-45.1	-56.8	3.8	8.47e-01	0	62	104	2383413248	61	14134
2026-01-25 00:57:44.07	166.91	4.15	-45.1	-56.8	3.8	8.46e-01	0	62	104	2383413248	61	14156
2026-01-25 00:57:47.10	167.08	3.95	-45.1	-56.8	3.8	8.46e-01	0	62	104	2383413248	61	14105
2026-01-25 00:57:50.13	167.25	3.76	-45.1	-56.9	3.8	8.46e-01	0	62	104	2383413248	61	14221
2026-01-25 00:57:53.17	167.42	3.57	-45.1	-56.8	3.8	8.47e-01	0	62	104	2383413248	61	14162
2026-01-25 00:57:56.20	167.58	3.38	-45.1	-56.8	3.8	8.46e-01	0	62	104	2383413248	61	14131
2026-01-25 00:57:59.23	167.75	3.19	-45.1	-56.8	3.8	8.46e-01	0	62	104	2383413248	61	14090
2026-01-25 00:58:02.26	167.91	3.00	-45.1	-56.8	3.8	8.46e-01	0	62	104	2383413248	61	14108
2026-01-25 00:58:05.29	168.07	2.81	-45.1	-56.8	3.8	8.48e-01	0	62	104	2383413248	61	14120
2026-01-25 00:58:08.32	168.22	2.62	-45.1	-56.8	3.8	8.45e-01	0	62	104	2383413248	61	14123
2026-01-25 00:58:11.36	168.38	2.44	-45.1	-56.7	3.8	8.46e-01	0	62	104	2383413248	61	14032
2026-01-25 00:58:14.38	168.53	2.25	-45.1	-56.8	3.8	8.46e-01	0	62	104	2383413248	61	14108
2026-01-25 00:58:17.42	168.68	2.07	-45.1	-56.8	3.8	8.46e-01	0	62	104	2383413248	61	14103

#Closed at: 2026-01-25 00:58:20
#Recorded file [2383 MB]: D:/lorett/data/31039_260125_034859.dat