passes_logs/2026/01/25/R2.0S_Moscow/R2.0S_Moscow__20260125_205006_FENGYUN_3G_rec.log

#Pass ID: 20260125_205006_FENGYUN 3G
#Satellite: FENGYUN 3G
#Configuration: FENGYUN 3G
#almurnet v.1.7.20251203
#Start time: 2026-01-25 20:50:06

#Version: 2.2.20231116
#Station: R2.0S_Moscow
#Location: 37.707566 lon 55.798166 lat
#TLE: 1 56232U 23055A   26025.14527328  .00046082  00000+0  69370-3 0  9997
#TLE: 2 56232  49.9948   3.5622 0004071  80.7231 279.4197 15.54300718157774

#Time	Az	El	Level	Level2	SNR	BER	BlckErr	Temp	State	Recorded	gain1	gain2
2026-01-25 20:50:06.52	263.65	2.03	-44.2	-62.4	3.8	8.47e-01	0	52	0	0	60	28375
2026-01-25 20:50:09.55	263.37	2.22	-44.2	-62.4	3.8	8.45e-01	0	52	104	0	60	28373
2026-01-25 20:50:12.58	263.09	2.41	-44.2	-62.3	3.8	8.45e-01	0	52	104	0	60	28333
2026-01-25 20:50:15.62	262.80	2.60	-44.2	-62.4	3.8	8.46e-01	0	52	104	0	60	28365
2026-01-25 20:50:18.65	262.50	2.79	-44.2	-62.3	3.8	8.46e-01	0	53	104	0	60	28289
2026-01-25 20:50:21.68	262.20	2.98	-44.2	-62.3	3.8	8.47e-01	0	53	104	0	60	28091
2026-01-25 20:50:24.71	261.90	3.17	-44.2	-62.2	3.8	8.45e-01	0	53	104	0	60	27883
2026-01-25 20:50:27.74	261.58	3.37	-44.2	-62.1	3.8	8.46e-01	0	53	104	0	60	27674
2026-01-25 20:50:30.77	261.27	3.56	-44.1	-62.0	3.8	8.46e-01	0	54	104	0	60	27350
2026-01-25 20:50:33.80	260.94	3.76	-44.2	-62.1	3.8	8.48e-01	0	54	104	0	60	27703
2026-01-25 20:50:36.83	260.61	3.96	-44.1	-62.3	3.8	8.45e-01	0	54	104	0	60	28100
2026-01-25 20:50:39.86	260.27	4.16	-44.1	-62.2	3.8	8.46e-01	0	54	104	0	60	27812
2026-01-25 20:50:42.89	259.93	4.36	-44.1	-61.8	3.8	8.46e-01	0	54	104	0	60	26727
2026-01-25 20:50:45.92	259.57	4.57	-44.1	-61.8	3.8	8.46e-01	0	54	104	0	60	26735
2026-01-25 20:50:48.96	259.21	4.77	-44.1	-61.9	3.8	8.46e-01	0	55	104	0	60	26881
2026-01-25 20:50:51.99	258.85	4.98	-44.1	-62.1	3.8	8.46e-01	0	55	104	0	60	27393
2026-01-25 20:50:55.02	258.47	5.19	-44.1	-62.0	3.8	8.46e-01	0	55	104	0	60	27243
2026-01-25 20:50:58.05	258.09	5.40	-44.1	-60.7	3.8	8.45e-01	0	55	104	0	60	23438
2026-01-25 20:51:01.08	257.70	5.61	-44.1	-59.8	3.8	8.43e-01	0	55	104	0	60	21081
2026-01-25 20:51:04.12	257.30	5.83	-44.1	-60.9	3.8	8.44e-01	0	55	104	0	60	24081
2026-01-25 20:51:07.15	256.89	6.04	-44.1	-61.8	3.8	8.46e-01	0	56	104	0	60	26467
2026-01-25 20:51:10.18	256.48	6.26	-44.1	-61.1	3.8	8.46e-01	0	56	104	0	60	24471
2026-01-25 20:51:13.21	256.05	6.48	-44.0	-59.5	3.9	8.45e-01	0	56	104	0	60	20339
2026-01-25 20:51:16.24	255.62	6.70	-44.0	-57.4	4.7	8.33e-01	0	56	0	0	59	16903
2026-01-25 20:51:19.27	255.18	6.92	-43.7	-53.7	7.2	7.02e-01	0	56	0	1572864	59	11156
2026-01-25 20:51:22.30	254.72	7.15	-43.3	-51.2	9.8	6.94e-02	0	56	0	4718592	58	8844
2026-01-25 20:51:25.33	254.26	7.37	-43.8	-54.6	6.6	7.10e-02	0	56	0	8388608	58	13040
2026-01-25 20:51:28.37	253.79	7.60	-43.9	-55.8	5.4	8.44e-01	0	56	0	8912896	58	15013
2026-01-25 20:51:31.40	253.30	7.83	-42.0	-46.9	14.3	5.41e-04	0	56	0	12058624	56	6045
2026-01-25 20:51:34.43	252.81	8.06	-41.4	-45.5	15.9	0.00e+00	0	57	0	15204352	54	5767
2026-01-25 20:51:37.46	252.30	8.29	-43.7	-53.7	5.7	9.87e-02	0	57	104	17301504	58	11717
2026-01-25 20:51:40.49	251.78	8.53	-41.0	-44.8	16.3	3.57e-03	0	57	0	20447232	53	5641
2026-01-25 20:51:43.52	251.26	8.76	-40.8	-44.6	16.6	0.00e+00	0	57	0	23592960	53	5476
2026-01-25 20:51:46.55	250.71	9.00	-40.8	-44.5	16.7	0.00e+00	0	57	0	27262976	53	5439
2026-01-25 20:51:49.58	250.16	9.24	-40.7	-44.4	16.8	0.00e+00	0	57	0	30408704	53	5357
2026-01-25 20:51:52.60	249.60	9.48	-40.7	-44.3	17.0	0.00e+00	0	57	0	34078720	53	5312
2026-01-25 20:51:55.63	249.02	9.72	-40.7	-44.2	17.1	0.00e+00	0	57	0	37224448	53	5240
2026-01-25 20:51:58.66	248.43	9.96	-40.5	-43.9	17.4	0.00e+00	0	58	0	40894464	53	5087
2026-01-25 20:52:01.69	247.82	10.21	-40.5	-43.8	17.5	0.00e+00	0	58	0	44040192	52	5310
2026-01-25 20:52:04.72	247.20	10.45	-40.6	-44.1	17.3	0.00e+00	0	58	0	47710208	52	5478
2026-01-25 20:52:07.75	246.57	10.70	-40.5	-43.9	17.5	0.00e+00	0	58	0	50855936	52	5341
2026-01-25 20:52:10.79	245.92	10.95	-40.4	-43.6	17.7	0.00e+00	0	58	0	54525952	52	5199
2026-01-25 20:52:13.82	245.25	11.19	-39.9	-42.8	18.7	0.00e+00	0	58	0	57671680	51	5004
2026-01-25 20:52:16.85	244.58	11.44	-40.2	-43.3	18.2	0.00e+00	0	58	0	61341696	51	5298
2026-01-25 20:52:19.88	243.88	11.69	-40.3	-43.3	18.1	0.00e+00	0	58	0	64487424	51	5339
2026-01-25 20:52:22.91	243.17	11.94	-40.0	-43.0	18.6	0.00e+00	0	58	0	68157440	51	5103
2026-01-25 20:52:25.94	242.44	12.19	-39.9	-42.7	18.8	0.00e+00	0	58	0	71303168	51	4964
2026-01-25 20:52:28.97	241.70	12.45	-40.2	-43.2	18.3	0.00e+00	0	58	0	74973184	51	5266
2026-01-25 20:52:31.99	240.94	12.70	-40.2	-43.2	18.3	0.00e+00	0	58	0	78118912	51	5253
2026-01-25 20:52:35.02	240.17	12.95	-39.4	-42.1	19.5	0.00e+00	0	58	0	81788928	50	4883
2026-01-25 20:52:38.05	239.37	13.20	-39.5	-42.1	19.5	0.00e+00	0	58	0	84934656	50	4903
2026-01-25 20:52:41.08	238.56	13.45	-39.8	-42.7	19.0	0.00e+00	0	58	0	88604672	50	5226
2026-01-25 20:52:44.11	237.73	13.69	-39.8	-42.6	19.1	0.00e+00	0	58	0	91750400	50	5175
2026-01-25 20:52:47.14	236.88	13.94	-39.5	-42.1	19.5	0.00e+00	0	58	0	95420416	50	4913
2026-01-25 20:52:50.18	236.01	14.19	-39.4	-42.0	19.6	0.00e+00	0	58	0	98566144	50	4865
2026-01-25 20:52:53.21	235.12	14.43	-39.4	-42.0	19.7	0.00e+00	0	59	0	102236160	50	4831
2026-01-25 20:52:56.24	234.22	14.68	-39.6	-42.3	19.4	0.00e+00	0	59	0	105381888	50	5004
2026-01-25 20:52:59.26	233.29	14.91	-39.7	-42.3	19.4	0.00e+00	0	58	0	109051904	50	5013
2026-01-25 20:53:02.29	232.35	15.15	-39.3	-41.8	19.9	0.00e+00	0	59	0	112197632	50	4737
2026-01-25 20:53:05.32	231.39	15.39	-39.1	-41.5	20.2	0.00e+00	0	59	0	115867648	50	4593
2026-01-25 20:53:08.35	230.40	15.62	-39.2	-41.7	20.0	0.00e+00	0	59	0	119013376	50	4697
2026-01-25 20:53:11.39	229.40	15.84	-39.6	-42.3	19.5	0.00e+00	0	59	0	122683392	50	4987
2026-01-25 20:53:14.41	228.38	16.06	-39.0	-41.4	20.3	0.00e+00	0	59	0	125829120	50	4529
2026-01-25 20:53:17.44	227.34	16.28	-38.5	-40.8	21.0	0.00e+00	0	59	0	129499136	49	4454
2026-01-25 20:53:20.47	226.28	16.49	-38.5	-40.7	21.1	0.00e+00	0	59	0	132644864	49	4422
2026-01-25 20:53:23.51	225.20	16.70	-38.6	-40.8	21.0	0.00e+00	0	59	0	136314880	49	4475
2026-01-25 20:53:26.54	224.11	16.90	-38.5	-40.8	21.1	0.00e+00	0	59	0	139460608	48	4713
2026-01-25 20:53:29.56	222.99	17.09	-38.9	-41.2	20.6	0.00e+00	0	59	0	143130624	48	4982
2026-01-25 20:53:32.60	221.86	17.28	-38.9	-41.3	20.6	0.00e+00	0	59	0	146276352	48	4993
2026-01-25 20:53:35.63	220.71	17.46	-38.7	-41.0	20.8	0.00e+00	0	59	0	149946368	48	4858
2026-01-25 20:53:38.66	219.54	17.63	-38.7	-41.0	20.9	0.00e+00	0	59	0	153092096	48	4821
2026-01-25 20:53:41.69	218.36	17.79	-38.6	-40.8	21.0	0.00e+00	0	59	0	156762112	48	4736
2026-01-25 20:53:44.72	217.16	17.94	-38.2	-40.3	21.5	0.00e+00	0	59	0	159907840	48	4490
2026-01-25 20:53:47.75	215.95	18.09	-37.8	-39.9	21.9	0.00e+00	0	59	0	163577856	47	4503
2026-01-25 20:53:50.78	214.73	18.22	-37.9	-40.0	21.8	0.00e+00	0	59	0	166723584	47	4566
2026-01-25 20:53:53.81	213.49	18.34	-38.3	-40.5	21.3	0.00e+00	0	59	0	170393600	47	4839
2026-01-25 20:53:56.84	212.24	18.45	-37.9	-40.0	21.8	0.00e+00	0	59	0	173539328	47	4576
2026-01-25 20:53:59.87	210.97	18.55	-37.8	-39.9	22.0	0.00e+00	0	59	0	177209344	47	4498
2026-01-25 20:54:02.89	209.71	18.64	-37.8	-39.9	22.0	0.00e+00	0	59	0	180355072	47	4501
2026-01-25 20:54:05.92	208.43	18.72	-37.9	-40.0	21.8	0.00e+00	0	59	0	184025088	47	4579
2026-01-25 20:54:08.95	207.14	18.78	-38.1	-40.2	21.7	0.00e+00	0	59	0	187170816	47	4654
2026-01-25 20:54:11.98	205.85	18.83	-38.1	-40.3	21.5	0.00e+00	0	59	0	190840832	47	4711
2026-01-25 20:54:15.01	204.55	18.87	-38.3	-40.5	21.3	0.00e+00	0	60	0	193986560	47	4846
2026-01-25 20:54:18.04	203.25	18.90	-38.4	-40.6	21.1	0.00e+00	0	59	0	197656576	47	4911
2026-01-25 20:54:21.07	201.94	18.92	-37.9	-39.9	21.9	0.00e+00	0	59	0	200802304	47	4538
2026-01-25 20:54:24.10	200.64	18.92	-38.0	-40.1	21.8	0.00e+00	0	59	0	204472320	47	4599
2026-01-25 20:54:27.13	199.33	18.91	-37.9	-39.9	21.9	0.00e+00	0	60	0	207618048	47	4522
2026-01-25 20:54:30.16	198.03	18.88	-38.0	-40.1	21.6	0.00e+00	0	60	0	211288064	47	4646
2026-01-25 20:54:33.19	196.73	18.84	-38.4	-40.6	21.1	0.00e+00	0	60	0	214433792	47	4921
2026-01-25 20:54:36.22	195.44	18.79	-37.7	-39.8	21.9	0.00e+00	0	59	0	218103808	47	4465
2026-01-25 20:54:39.25	194.15	18.73	-37.5	-39.5	22.3	0.00e+00	0	60	0	221249536	46	4550
2026-01-25 20:54:42.28	192.86	18.66	-38.2	-40.3	21.4	0.00e+00	0	60	0	224919552	46	5025
2026-01-25 20:54:45.32	191.59	18.57	-38.3	-40.5	21.2	0.00e+00	0	60	0	228065280	47	4860
2026-01-25 20:54:48.34	190.33	18.47	-37.8	-39.8	21.9	0.00e+00	0	60	0	231735296	47	4478
2026-01-25 20:54:51.37	189.07	18.36	-37.5	-39.5	22.2	0.00e+00	0	60	0	234881024	46	4595
2026-01-25 20:54:54.40	187.83	18.24	-38.2	-40.4	21.3	0.00e+00	0	60	0	238551040	47	4796
2026-01-25 20:54:57.43	186.60	18.11	-37.9	-40.0	21.7	0.00e+00	0	60	0	241696768	47	4578
2026-01-25 20:55:00.46	185.38	17.97	-37.9	-40.0	21.7	0.00e+00	0	60	0	245366784	47	4546
2026-01-25 20:55:03.49	184.18	17.82	-38.0	-40.1	21.6	0.00e+00	0	60	0	248512512	47	4626
2026-01-25 20:55:06.52	182.99	17.66	-38.4	-40.6	21.0	0.00e+00	0	60	0	252182528	47	4903
2026-01-25 20:55:09.55	181.82	17.49	-38.3	-40.5	21.1	0.00e+00	0	60	0	255328256	47	4852
2026-01-25 20:55:12.58	180.67	17.31	-38.9	-41.3	20.4	0.00e+00	0	60	0	258998272	48	5000
2026-01-25 20:55:15.61	179.53	17.13	-38.5	-40.7	21.0	0.00e+00	0	60	0	262144000	48	4688
2026-01-25 20:55:18.64	178.41	16.94	-38.4	-40.6	21.0	0.00e+00	0	60	0	265814016	48	4640
2026-01-25 20:55:21.66	177.31	16.74	-38.9	-41.3	20.4	0.00e+00	0	60	0	268959744	48	5031
2026-01-25 20:55:24.69	176.23	16.53	-39.0	-41.4	20.2	0.00e+00	0	60	0	272629760	48	5089
2026-01-25 20:55:27.72	175.17	16.32	-39.2	-41.7	20.0	0.00e+00	0	60	0	275775488	48	5229
2026-01-25 20:55:30.75	174.12	16.10	-40.2	-42.7	20.0	0.00e+00	0	60	0	279445504	51	4951
2026-01-25 20:55:33.78	173.09	15.88	-39.1	-41.5	20.4	0.00e+00	0	60	0	282591232	50	4549
2026-01-25 20:55:36.81	172.09	15.66	-39.3	-41.8	20.1	0.00e+00	0	60	0	286261248	49	5003
2026-01-25 20:55:39.84	171.10	15.43	-39.2	-41.6	20.2	0.00e+00	0	60	0	289406976	49	4925
2026-01-25 20:55:42.87	170.13	15.19	-39.3	-41.8	20.0	0.00e+00	0	60	0	293076992	49	5028
2026-01-25 20:55:45.90	169.18	14.96	-39.5	-42.0	19.9	0.00e+00	0	60	0	296222720	49	5114
2026-01-25 20:55:48.93	168.25	14.72	-39.8	-42.4	19.6	0.00e+00	0	60	0	299892736	50	5084
2026-01-25 20:55:51.96	167.34	14.47	-39.8	-42.5	19.5	0.00e+00	0	60	0	303038464	50	5125
2026-01-25 20:55:54.98	166.45	14.23	-39.6	-42.2	19.7	0.00e+00	0	60	0	306708480	50	4940
2026-01-25 20:55:58.01	165.57	13.98	-39.7	-42.4	19.4	0.00e+00	0	60	0	309854208	50	5068
2026-01-25 20:56:01.04	164.72	13.74	-40.1	-42.9	18.9	0.00e+00	0	60	0	313524224	50	5376
2026-01-25 20:56:04.07	163.88	13.49	-39.9	-42.7	19.2	0.00e+00	0	60	0	316669952	50	5244
2026-01-25 20:56:07.10	163.06	13.24	-40.0	-42.8	19.1	0.00e+00	0	60	0	320339968	50	5304
2026-01-25 20:56:10.13	162.26	12.99	-40.1	-43.0	18.8	0.00e+00	0	60	0	323485696	51	5155
2026-01-25 20:56:13.16	161.48	12.73	-40.1	-43.0	18.8	0.00e+00	0	60	0	327155712	51	5126
2026-01-25 20:56:16.19	160.71	12.48	-39.8	-42.6	19.2	0.00e+00	0	60	0	330301440	51	4898
2026-01-25 20:56:19.22	159.97	12.23	-40.1	-43.1	18.7	0.00e+00	0	60	0	333971456	51	5184
2026-01-25 20:56:22.25	159.23	11.98	-40.3	-43.4	18.3	0.00e+00	0	60	0	337117184	51	5388
2026-01-25 20:56:25.28	158.52	11.73	-40.3	-43.4	18.2	0.00e+00	0	60	0	340787200	51	5398
2026-01-25 20:56:28.31	157.82	11.48	-40.3	-43.4	18.3	0.00e+00	0	61	0	343932928	51	5370
2026-01-25 20:56:31.34	157.14	11.23	-40.3	-43.4	18.3	0.00e+00	0	60	0	347602944	51	5396
2026-01-25 20:56:34.37	156.47	10.98	-40.3	-43.5	18.1	0.00e+00	0	60	0	350748672	51	5435
2026-01-25 20:56:37.40	155.81	10.73	-40.4	-43.8	17.8	0.00e+00	0	61	0	354418688	51	5599
2026-01-25 20:56:40.43	155.17	10.48	-40.6	-44.1	17.4	0.00e+00	0	60	0	357564416	51	5844
2026-01-25 20:56:43.46	154.55	10.24	-40.7	-44.3	17.2	0.00e+00	0	60	0	361234432	51	5951
2026-01-25 20:56:46.49	153.94	9.99	-40.6	-44.2	17.2	0.00e+00	0	61	0	364380160	52	5568
2026-01-25 20:56:49.52	153.34	9.75	-40.7	-44.4	17.0	0.00e+00	0	60	0	368050176	52	5669
2026-01-25 20:56:52.54	152.76	9.51	-40.5	-44.0	17.2	0.00e+00	0	61	0	371195904	52	5440
2026-01-25 20:56:55.58	152.19	9.27	-40.4	-44.0	17.3	0.00e+00	0	61	0	374865920	52	5403
2026-01-25 20:56:58.61	151.63	9.03	-40.4	-43.9	17.3	0.00e+00	0	61	0	378011648	52	5372
2026-01-25 20:57:01.64	151.09	8.79	-40.6	-44.4	16.7	0.00e+00	0	60	0	381681664	52	5698
2026-01-25 20:57:04.66	150.56	8.55	-41.0	-45.1	15.9	0.00e+00	0	60	0	384827392	52	6190
2026-01-25 20:57:07.69	150.04	8.32	-40.9	-45.2	15.8	0.00e+00	0	61	0	388497408	52	6224
2026-01-25 20:57:10.72	149.53	8.08	-40.9	-45.2	15.7	0.00e+00	0	61	0	391643136	52	6209
2026-01-25 20:57:13.75	149.03	7.85	-45.1	-63.1	3.8	7.37e-01	0	60	104	393216000	60	30864
2026-01-25 20:57:16.78	148.54	7.62	-45.7	-64.0	3.8	8.46e-01	0	60	104	393216000	61	32468
2026-01-25 20:57:19.81	148.06	7.39	-45.8	-64.1	3.8	8.46e-01	0	61	104	393216000	62	31005
2026-01-25 20:57:22.85	147.59	7.17	-45.7	-63.8	3.8	8.47e-01	0	61	104	393216000	62	29981
2026-01-25 20:57:25.88	147.14	6.94	-45.4	-63.5	3.8	8.46e-01	0	61	104	393216000	61	30504
2026-01-25 20:57:28.91	146.69	6.72	-44.8	-63.5	3.8	8.46e-01	0	60	104	393216000	61	30500
2026-01-25 20:57:31.94	146.25	6.50	-45.4	-63.5	3.8	8.45e-01	0	61	104	393216000	61	30423
2026-01-25 20:57:34.97	145.83	6.28	-45.4	-63.5	3.8	8.47e-01	0	61	104	393216000	61	30517
2026-01-25 20:57:38.00	145.41	6.06	-45.4	-63.5	3.8	8.47e-01	0	61	104	393216000	61	30478
2026-01-25 20:57:41.03	145.00	5.84	-45.4	-63.5	3.8	8.46e-01	0	61	104	393216000	61	30406
2026-01-25 20:57:44.06	144.59	5.63	-45.4	-63.5	3.8	8.46e-01	0	61	104	393216000	61	30402
2026-01-25 20:57:47.09	144.20	5.42	-45.4	-63.5	3.8	8.46e-01	0	61	104	393216000	61	30438
2026-01-25 20:57:50.13	143.81	5.20	-45.4	-63.4	3.8	8.46e-01	0	61	104	393216000	61	30314
2026-01-25 20:57:53.15	143.44	5.00	-45.2	-63.4	3.8	8.45e-01	0	61	104	393216000	61	30304
2026-01-25 20:57:56.19	143.07	4.79	-45.3	-63.4	3.8	8.47e-01	0	61	104	393216000	61	30287
2026-01-25 20:57:59.22	142.71	4.58	-45.3	-63.4	3.8	8.47e-01	0	61	104	393216000	61	30372
2026-01-25 20:58:02.25	142.35	4.38	-45.3	-63.4	3.8	8.46e-01	0	61	104	393216000	61	30187
2026-01-25 20:58:05.28	142.00	4.17	-45.3	-63.4	3.8	8.46e-01	0	61	104	393216000	61	30237
2026-01-25 20:58:08.31	141.66	3.97	-45.3	-63.4	3.8	8.45e-01	0	61	104	393216000	61	30167
2026-01-25 20:58:11.35	141.33	3.77	-45.2	-63.4	3.8	8.44e-01	0	61	104	393216000	61	30166
2026-01-25 20:58:14.38	141.00	3.57	-45.3	-63.4	3.8	8.47e-01	0	61	104	393216000	61	30215
2026-01-25 20:58:17.41	140.68	3.38	-45.3	-63.4	3.8	8.46e-01	0	61	104	393216000	61	30210
2026-01-25 20:58:20.44	140.36	3.18	-45.3	-63.4	3.8	8.45e-01	0	61	104	393216000	61	30130
2026-01-25 20:58:23.47	140.05	2.99	-45.3	-63.4	3.8	8.46e-01	0	61	104	393216000	61	30192
2026-01-25 20:58:26.51	139.75	2.79	-45.3	-63.4	3.8	8.47e-01	0	61	104	393216000	61	30071
2026-01-25 20:58:29.54	139.45	2.60	-45.3	-63.3	3.8	8.47e-01	0	61	104	393216000	61	30030
2026-01-25 20:58:32.57	139.16	2.41	-45.3	-63.4	3.8	8.46e-01	0	61	104	393216000	61	30174
2026-01-25 20:58:35.60	138.87	2.22	-45.3	-63.4	3.8	8.47e-01	0	61	104	393216000	61	30081
2026-01-25 20:58:38.63	138.59	2.04	-45.3	-63.4	3.8	8.46e-01	0	61	104	393216000	61	30128

#Closed at: 2026-01-25 20:58:40
#Recorded file [393 MB]: D:/lorett/data/31039_260125_235006.dat