passes_logs/2026/01/25/R2.0S_Moscow/R2.0S_Moscow__20260125_093746_SUOMI_NPP_rec.log

#Pass ID: 20260125_093746_SUOMI NPP
#Satellite: SUOMI NPP
#Configuration: NPP
#almurnet v.1.7.20251203
#Start time: 2026-01-25 09:37:47

#Version: 2.2.20231116
#Station: R2.0S_Moscow
#Location: 37.707566 lon 55.798166 lat
#TLE: 1 37849U 11061A   26024.54906732  .00000185  00000+0  10878-3 0  9990
#TLE: 2 37849  98.7821 326.5159 0002200  47.3746 312.7615 14.19529340738061

#Time	Az	El	Level	Level2	SNR	BER	BlckErr	Temp	State	Recorded	gain1	gain2
2026-01-25 09:37:47.18	149.86	2.03	-43.7	-58.3	3.8	1.49e+00	0	52	0	0	58	20058
2026-01-25 09:37:51.22	149.80	2.29	-43.7	-58.3	3.8	1.49e+00	0	52	104	0	59	18828
2026-01-25 09:37:55.26	149.75	2.55	-43.7	-58.3	3.8	1.49e+00	0	52	104	0	59	18784
2026-01-25 09:37:59.30	149.69	2.82	-43.7	-58.3	3.8	1.49e+00	0	53	104	0	59	18836
2026-01-25 09:38:03.35	149.63	3.09	-43.7	-58.3	3.8	1.49e+00	0	53	104	0	58	19894
2026-01-25 09:38:07.39	149.56	3.36	-43.7	-58.3	3.8	1.49e+00	0	54	104	0	58	19964
2026-01-25 09:38:11.43	149.50	3.63	-43.7	-58.3	3.8	1.49e+00	0	54	104	0	58	19892
2026-01-25 09:38:15.47	149.44	3.90	-43.7	-58.3	3.8	1.49e+00	0	54	104	0	58	19980
2026-01-25 09:38:19.51	149.37	4.18	-43.6	-58.2	3.8	1.49e+00	0	54	104	0	58	19801
2026-01-25 09:38:23.56	149.30	4.46	-43.6	-58.2	3.8	1.49e+00	0	54	104	0	58	19731
2026-01-25 09:38:27.60	149.24	4.75	-43.6	-58.2	3.8	1.49e+00	0	55	104	0	58	19711
2026-01-25 09:38:31.64	149.16	5.04	-43.7	-58.2	3.8	1.49e+00	0	55	104	0	58	19757
2026-01-25 09:38:35.68	149.09	5.33	-43.6	-58.1	3.8	1.49e+00	0	55	104	0	58	19453
2026-01-25 09:38:39.72	149.02	5.62	-43.5	-57.4	3.8	1.49e+00	0	56	104	0	58	17890
2026-01-25 09:38:43.77	148.94	5.92	-43.4	-55.8	3.9	1.48e+00	0	56	104	0	58	14973
2026-01-25 09:38:47.81	148.87	6.22	-43.2	-54.3	4.3	1.37e+00	0	56	0	0	58	12619
2026-01-25 09:38:51.85	148.79	6.52	-43.3	-54.1	4.3	1.25e+00	0	56	0	1048576	57	13077
2026-01-25 09:38:55.89	148.71	6.83	-43.5	-56.3	3.8	1.47e+00	0	56	104	2097152	57	16858
2026-01-25 09:38:59.93	148.62	7.14	-43.5	-57.0	3.8	1.49e+00	0	57	104	2097152	57	18162
2026-01-25 09:39:03.97	148.54	7.45	-43.0	-51.9	5.4	5.65e-01	0	56	0	4194304	57	10083
2026-01-25 09:39:08.01	148.45	7.77	-42.2	-48.0	8.8	3.96e-02	0	57	0	12582912	56	6867
2026-01-25 09:39:12.05	148.36	8.09	-43.9	-55.3	4.2	7.35e-01	0	57	104	18874368	58	14069
2026-01-25 09:39:16.09	148.27	8.42	-42.1	-48.1	8.5	1.50e-02	0	57	0	23068672	55	7310
2026-01-25 09:39:20.13	148.18	8.75	-41.3	-45.7	11.2	1.13e-03	0	57	0	30408704	54	5921
2026-01-25 09:39:24.17	148.08	9.09	-41.2	-45.4	11.7	7.03e-04	0	57	0	37748736	54	5664
2026-01-25 09:39:28.21	147.99	9.42	-41.1	-45.2	11.8	5.39e-04	0	57	0	46137344	53	5910
2026-01-25 09:39:32.24	147.88	9.77	-41.2	-45.2	11.9	3.92e-04	0	58	0	53477376	53	5908
2026-01-25 09:39:36.28	147.78	10.12	-41.2	-45.3	11.9	3.03e-04	0	58	0	60817408	53	5954
2026-01-25 09:39:40.32	147.67	10.47	-41.3	-45.4	11.8	7.04e-04	0	58	0	68157440	53	6049
2026-01-25 09:39:44.36	147.57	10.83	-41.4	-45.6	11.7	5.25e-04	0	58	0	75497472	53	6164
2026-01-25 09:39:48.39	147.45	11.19	-41.1	-44.9	12.5	1.31e-04	0	58	0	83886080	53	5684
2026-01-25 09:39:52.43	147.34	11.56	-41.1	-44.9	12.5	9.00e-05	0	58	0	91226112	53	5684
2026-01-25 09:39:56.47	147.22	11.94	-40.9	-44.4	13.1	3.35e-05	0	58	0	98566144	53	5363
2026-01-25 09:40:00.50	147.10	12.32	-40.4	-43.5	14.0	5.30e-06	0	58	0	105906176	52	5144
2026-01-25 09:40:04.54	146.97	12.70	-40.5	-43.6	14.1	1.35e-04	0	58	0	114294784	51	5487
2026-01-25 09:40:08.58	146.84	13.10	-40.7	-44.0	13.6	7.09e-05	0	58	0	121634816	52	5453
2026-01-25 09:40:12.62	146.71	13.50	-41.1	-44.6	13.0	2.51e-04	0	58	0	128974848	52	5849
2026-01-25 09:40:16.65	146.58	13.90	-41.1	-44.7	13.0	2.43e-04	0	59	0	136314880	52	5887
2026-01-25 09:40:20.69	146.43	14.31	-41.0	-44.5	13.0	2.68e-03	0	59	0	143654912	52	5752
2026-01-25 09:40:24.73	146.29	14.73	-40.9	-44.2	13.5	1.97e-04	0	59	0	152043520	52	5590
2026-01-25 09:40:28.77	146.14	15.16	-40.9	-44.1	13.6	3.89e-05	0	59	0	159383552	52	5526
2026-01-25 09:40:32.81	145.99	15.59	-41.2	-44.8	13.0	1.88e-04	0	59	0	166723584	53	5607
2026-01-25 09:40:36.85	145.83	16.03	-41.2	-44.8	13.1	3.20e-05	0	59	0	174063616	53	5603
2026-01-25 09:40:40.89	145.66	16.48	-40.8	-43.9	14.0	4.27e-05	0	59	0	182452224	53	5047
2026-01-25 09:40:44.92	145.49	16.94	-40.4	-43.2	14.8	2.20e-06	0	59	0	189792256	52	4927
2026-01-25 09:40:48.96	145.32	17.40	-40.8	-43.9	14.0	7.00e-07	0	59	0	197132288	52	5345
2026-01-25 09:40:53.00	145.14	17.88	-41.4	-45.0	13.0	3.05e-05	0	59	0	204472320	53	5737
2026-01-25 09:40:57.04	144.95	18.36	-41.0	-44.3	13.7	3.00e-06	0	59	0	211812352	53	5287
2026-01-25 09:41:01.07	144.76	18.85	-40.7	-43.8	14.2	4.50e-06	0	60	0	220200960	52	5296
2026-01-25 09:41:05.11	144.56	19.35	-41.3	-44.9	13.1	3.20e-05	0	60	0	227540992	53	5669
2026-01-25 09:41:09.15	144.35	19.87	-41.5	-45.1	12.9	6.10e-05	0	60	0	234881024	53	5811
2026-01-25 09:41:13.19	144.13	20.39	-40.8	-43.7	14.3	2.20e-06	0	60	0	242221056	53	4960
2026-01-25 09:41:17.22	143.91	20.92	-41.1	-44.2	13.8	1.50e-06	0	60	0	250609664	53	5268
2026-01-25 09:41:21.26	143.68	21.47	-41.3	-44.6	13.5	1.29e-05	0	60	0	257949696	53	5495
2026-01-25 09:41:25.29	143.44	22.02	-41.1	-44.2	13.9	7.60e-06	0	60	0	265289728	53	5266
2026-01-25 09:41:29.33	143.19	22.59	-41.3	-44.7	13.4	1.98e-05	0	60	0	272629760	53	5531
2026-01-25 09:41:33.37	142.93	23.17	-41.5	-44.9	13.2	3.35e-05	0	60	0	279969792	53	5718
2026-01-25 09:41:37.41	142.66	23.76	-41.3	-44.6	13.6	7.60e-06	0	60	0	288358400	53	5470
2026-01-25 09:41:41.45	142.38	24.37	-42.0	-46.0	12.1	1.11e-04	0	60	0	295698432	54	6101
2026-01-25 09:41:45.49	142.09	24.99	-42.2	-46.4	11.7	5.83e-04	0	60	0	303038464	55	6027
2026-01-25 09:41:49.52	141.79	25.62	-42.1	-46.1	12.0	2.40e-04	0	60	0	310378496	55	5829
2026-01-25 09:41:53.56	141.47	26.27	-42.2	-46.2	12.0	6.91e-04	0	60	0	318767104	55	5906
2026-01-25 09:41:57.60	141.14	26.93	-42.0	-45.9	12.3	1.27e-04	0	60	0	326107136	55	5662
2026-01-25 09:42:01.64	140.80	27.61	-42.2	-46.2	12.0	4.29e-04	0	60	0	333447168	55	5918
2026-01-25 09:42:05.68	140.44	28.30	-41.8	-45.3	12.9	6.25e-05	0	60	0	340787200	55	5310
2026-01-25 09:42:09.72	140.06	29.01	-42.1	-45.8	12.4	7.09e-05	0	60	0	348127232	55	5648
2026-01-25 09:42:13.76	139.67	29.74	-42.8	-47.3	11.1	2.01e-03	0	60	0	356515840	56	6313
2026-01-25 09:42:17.79	139.25	30.48	-43.0	-47.9	10.4	3.33e-03	0	60	0	363855872	56	6750
2026-01-25 09:42:21.83	138.82	31.24	-43.0	-47.7	10.6	5.48e-03	0	60	0	371195904	57	6259
2026-01-25 09:42:25.87	138.36	32.02	-43.3	-48.6	9.7	8.68e-03	0	60	0	378535936	57	6889
2026-01-25 09:42:29.90	137.89	32.82	-43.2	-48.5	9.7	1.77e-02	0	60	0	386924544	57	6852
2026-01-25 09:42:33.95	137.38	33.64	-43.4	-49.0	9.3	1.39e-02	0	61	0	394264576	57	7211
2026-01-25 09:42:37.99	136.85	34.48	-43.8	-50.0	8.3	5.99e-02	0	60	0	401604608	58	7659
2026-01-25 09:42:42.02	136.29	35.33	-43.8	-50.2	8.1	5.26e-02	0	61	0	408944640	58	7826
2026-01-25 09:42:46.06	135.70	36.21	-44.1	-51.4	6.9	1.39e-01	0	61	0	416284672	58	8998
2026-01-25 09:42:50.10	135.08	37.11	-43.3	-48.5	9.8	1.61e-02	0	61	0	424673280	58	6483
2026-01-25 09:42:54.14	134.42	38.03	-43.1	-48.0	10.3	4.41e-03	0	60	0	432013312	57	6472
2026-01-25 09:42:58.17	133.72	38.97	-42.6	-46.7	11.6	7.38e-04	0	61	0	439353344	57	5586
2026-01-25 09:43:02.21	132.98	39.93	-42.5	-46.5	11.9	5.39e-04	0	61	0	446693376	56	5769
2026-01-25 09:43:06.25	132.19	40.91	-42.7	-46.9	11.4	6.26e-04	0	61	0	455081984	56	6057
2026-01-25 09:43:10.29	131.35	41.92	-42.7	-46.9	11.5	8.83e-04	0	61	0	462422016	56	6037
2026-01-25 09:43:14.33	130.46	42.94	-42.9	-47.3	11.1	8.67e-04	0	61	0	469762048	56	6336
2026-01-25 09:43:18.37	129.50	43.99	-42.8	-47.2	11.1	1.58e-03	0	61	0	477102080	56	6252
2026-01-25 09:43:22.40	128.48	45.05	-42.5	-46.5	11.9	9.69e-04	0	61	0	484442112	56	5773
2026-01-25 09:43:26.44	127.39	46.13	-42.6	-46.7	11.8	3.97e-04	0	61	0	492830720	56	5893
2026-01-25 09:43:30.48	126.22	47.22	-42.6	-46.9	11.6	6.39e-04	0	61	0	500170752	56	5997
2026-01-25 09:43:34.51	124.97	48.33	-42.5	-46.5	12.0	1.79e-04	0	61	0	507510784	56	5747
2026-01-25 09:43:38.55	123.61	49.46	-42.0	-45.6	12.7	9.76e-05	0	61	0	514850816	55	5495
2026-01-25 09:43:42.59	122.16	50.59	-41.6	-44.9	13.4	8.30e-06	0	61	0	522190848	54	5363
2026-01-25 09:43:46.63	120.59	51.73	-40.9	-43.8	14.5	0.00e+00	0	61	0	530579456	53	4998
2026-01-25 09:43:50.67	118.89	52.87	-41.4	-44.7	13.7	3.80e-06	0	61	0	537919488	54	5220
2026-01-25 09:43:54.71	117.05	54.02	-41.9	-45.5	12.9	1.06e-05	0	61	0	545259520	54	5761
2026-01-25 09:43:58.74	115.07	55.15	-42.0	-45.7	12.6	1.40e-04	0	61	0	552599552	55	5549
2026-01-25 09:44:02.78	112.92	56.27	-42.1	-45.9	12.5	8.62e-05	0	61	0	560988160	55	5663
2026-01-25 09:44:06.82	110.59	57.37	-41.6	-44.8	13.5	9.10e-06	0	61	0	568328192	54	5322
2026-01-25 09:44:10.85	108.07	58.44	-41.7	-45.1	13.2	1.14e-04	0	61	0	575668224	54	5502
2026-01-25 09:44:14.89	105.33	59.47	-42.0	-45.6	12.7	4.27e-05	0	61	0	583008256	54	5851
2026-01-25 09:44:18.93	102.38	60.46	-41.6	-45.0	13.4	1.67e-05	0	61	0	590348288	54	5410
2026-01-25 09:44:22.97	99.19	61.38	-41.0	-43.9	14.5	0.00e+00	0	61	0	598736896	54	4796
2026-01-25 09:44:27.01	95.76	62.24	-40.7	-43.4	15.0	0.00e+00	0	61	0	606076928	52	5063
2026-01-25 09:44:31.05	92.10	63.01	-40.8	-43.6	14.8	0.00e+00	0	61	0	613416960	52	5185
2026-01-25 09:44:35.07	88.23	63.68	-40.4	-42.9	15.4	7.00e-07	0	61	0	620756992	52	4792
2026-01-25 09:44:39.11	84.13	64.25	-40.7	-43.3	15.1	0.00e+00	0	61	0	629145600	51	5339
2026-01-25 09:44:43.15	79.84	64.69	-41.4	-44.6	13.7	8.30e-06	0	61	0	636485632	53	5520
2026-01-25 09:44:47.18	75.42	65.01	-39.7	-41.9	16.5	0.00e+00	0	61	0	643825664	51	4506
2026-01-25 09:44:51.23	70.88	65.18	-39.7	-41.9	16.5	0.00e+00	0	61	0	651165696	50	4781
2026-01-25 09:44:55.27	66.31	65.22	-41.0	-43.9	14.4	0.00e+00	0	61	0	658505728	52	5369
2026-01-25 09:44:59.30	61.77	65.11	-39.5	-41.7	16.7	0.00e+00	0	61	0	666894336	51	4412
2026-01-25 09:45:03.34	57.28	64.87	-40.6	-43.2	15.1	0.00e+00	0	61	0	674234368	52	4958
2026-01-25 09:45:07.38	52.92	64.49	-41.1	-44.0	14.2	7.00e-07	0	61	0	681574400	53	5151
2026-01-25 09:45:11.41	48.74	63.98	-40.7	-43.4	14.9	0.00e+00	0	61	0	688914432	53	4760
2026-01-25 09:45:15.45	44.74	63.36	-39.8	-41.9	16.4	0.00e+00	0	61	0	697303040	51	4536
2026-01-25 09:45:19.49	40.97	62.64	-40.4	-43.0	15.1	0.00e+00	0	61	0	704643072	52	4841
2026-01-25 09:45:23.53	37.43	61.83	-43.1	-47.8	10.5	2.77e-03	0	61	0	711983104	56	6720
2026-01-25 09:45:27.57	34.13	60.94	-41.8	-45.2	13.2	9.90e-06	0	61	0	719323136	54	5585
2026-01-25 09:45:31.61	31.06	59.98	-43.1	-47.7	10.6	5.46e-03	0	61	0	726663168	57	6247
2026-01-25 09:45:35.65	28.22	58.97	-42.1	-45.7	12.8	7.47e-05	0	61	0	735051776	56	5236
2026-01-25 09:45:39.69	25.60	57.92	-43.2	-48.2	10.2	5.82e-03	0	61	0	742391808	57	6598
2026-01-25 09:45:43.73	23.17	56.84	-43.4	-48.7	9.6	1.13e-02	0	61	0	749731840	57	6971
2026-01-25 09:45:47.77	20.94	55.73	-42.3	-46.1	12.4	3.44e-04	0	61	0	757071872	56	5471
2026-01-25 09:45:51.81	18.87	54.61	-41.8	-45.2	13.0	1.64e-04	0	61	0	765460480	54	5557
2026-01-25 09:45:55.85	16.97	53.47	-41.9	-45.5	12.7	6.71e-05	0	61	0	772800512	55	5450
2026-01-25 09:45:59.88	15.21	52.34	-42.3	-46.2	12.0	3.43e-04	0	61	0	780140544	55	5872
2026-01-25 09:46:03.92	13.58	51.20	-42.3	-46.2	12.0	2.62e-04	0	61	0	787480576	55	5870
2026-01-25 09:46:07.97	12.07	50.06	-42.5	-46.7	11.5	9.20e-04	0	61	0	794820608	55	6226
2026-01-25 09:46:12.01	10.67	48.94	-41.1	-44.1	14.1	1.50e-06	0	61	0	803209216	54	4888
2026-01-25 09:46:16.05	9.37	47.82	-41.5	-44.7	13.5	1.98e-05	0	61	0	810549248	54	5270
2026-01-25 09:46:20.09	8.16	46.72	-43.3	-48.7	9.5	9.15e-03	0	61	0	817889280	57	6994
2026-01-25 09:46:24.13	7.03	45.64	-41.8	-45.3	12.9	1.14e-04	0	61	0	825229312	55	5340
2026-01-25 09:46:28.16	5.98	44.57	-41.9	-45.5	12.7	1.14e-04	0	61	0	833617920	54	5751
2026-01-25 09:46:32.20	5.00	43.52	-42.2	-46.1	12.0	3.17e-04	0	61	0	840957952	55	5843
2026-01-25 09:46:36.24	4.08	42.49	-43.9	-50.5	7.6	5.30e-02	0	61	0	848297984	58	8160
2026-01-25 09:46:40.28	3.21	41.48	-43.3	-48.6	9.5	2.56e-02	0	62	0	855638016	58	6551
2026-01-25 09:46:44.32	2.40	40.50	-42.8	-47.4	10.8	2.59e-03	0	61	0	862978048	57	5995
2026-01-25 09:46:48.36	1.64	39.53	-43.4	-48.9	9.2	1.46e-02	0	61	0	871366656	57	7204
2026-01-25 09:46:52.40	0.92	38.58	-43.5	-49.2	8.8	3.48e-02	0	61	0	878706688	58	7001
2026-01-25 09:46:56.43	0.25	37.66	-44.0	-51.0	7.1	1.08e-01	0	61	0	886046720	58	8575
2026-01-25 09:47:00.47	359.61	36.75	-42.6	-46.9	11.2	3.00e-03	0	62	0	893386752	57	5704
2026-01-25 09:47:04.51	359.00	35.86	-42.7	-47.2	11.0	1.75e-03	0	61	0	901775360	56	6243
2026-01-25 09:47:08.55	358.43	35.00	-43.2	-48.6	9.5	1.08e-02	0	61	0	909115392	57	6922
2026-01-25 09:47:12.58	357.89	34.16	-42.5	-46.6	11.5	7.11e-04	0	61	0	916455424	56	5836
2026-01-25 09:47:16.62	357.38	33.33	-42.9	-47.7	10.4	5.08e-03	0	61	0	923795456	56	6601
2026-01-25 09:47:20.66	356.89	32.53	-43.0	-48.0	10.0	6.81e-03	0	61	0	931135488	56	6823
2026-01-25 09:47:24.70	356.42	31.74	-42.6	-47.1	10.9	3.31e-03	0	61	0	939524096	56	6180
2026-01-25 09:47:28.74	355.98	30.97	-42.0	-45.9	11.9	3.77e-04	0	61	0	946864128	55	5675
2026-01-25 09:47:32.78	355.56	30.22	-43.3	-49.0	9.0	2.33e-02	0	61	0	954204160	57	7239
2026-01-25 09:47:36.82	355.16	29.49	-43.1	-48.3	9.5	1.74e-02	0	61	0	961544192	57	6716
2026-01-25 09:47:40.86	354.77	28.77	-43.0	-48.3	9.2	3.10e-02	0	62	0	969932800	57	6709
2026-01-25 09:47:44.89	354.41	28.08	-43.1	-48.7	9.1	2.61e-02	0	62	0	977272832	57	7010
2026-01-25 09:47:48.93	354.06	27.39	-42.8	-48.0	9.8	1.01e-02	0	62	0	984612864	57	6437
2026-01-25 09:47:52.97	353.72	26.73	-42.6	-47.4	10.4	7.57e-03	0	62	0	991952896	57	6001
2026-01-25 09:47:57.01	353.40	26.07	-42.4	-46.9	10.8	3.51e-03	0	61	0	999292928	56	6057
2026-01-25 09:48:01.05	353.10	25.44	-41.8	-46.0	11.5	6.88e-04	0	61	0	1007681536	55	5761
2026-01-25 09:48:05.09	352.80	24.81	-42.0	-46.5	10.9	1.09e-03	0	62	0	1015021568	55	6084
2026-01-25 09:48:09.13	352.52	24.20	-42.6	-48.3	8.9	2.34e-02	0	62	0	1022361600	55	7523
2026-01-25 09:48:13.16	352.25	23.61	-42.8	-49.0	8.3	5.56e-02	0	62	0	1029701632	56	7648
2026-01-25 09:48:17.20	351.99	23.02	-42.2	-47.7	9.1	1.82e-02	0	62	0	1038090240	56	6639
2026-01-25 09:48:21.24	351.73	22.45	-41.3	-46.4	9.8	2.06e-02	0	62	0	1045430272	54	6417
2026-01-25 09:48:25.27	351.49	21.89	-41.0	-46.3	9.4	1.43e-02	0	61	0	1052770304	54	6341
2026-01-25 09:48:29.31	351.26	21.34	-41.2	-47.9	7.5	7.11e-02	0	61	0	1060110336	53	8059
2026-01-25 09:48:33.35	351.04	20.81	-41.4	-52.2	4.3	1.11e+00	0	61	0	1067450368	53	13172
2026-01-25 09:48:37.39	350.82	20.28	-41.1	-55.5	3.8	1.49e+00	0	61	104	1067450368	53	19388
2026-01-25 09:48:41.43	350.61	19.76	-41.1	-55.6	3.8	1.49e+00	0	62	104	1067450368	54	18349
2026-01-25 09:48:45.47	350.41	19.26	-40.7	-55.1	3.8	1.49e+00	0	62	104	1067450368	53	18446
2026-01-25 09:48:49.51	350.22	18.76	-40.8	-55.2	3.8	1.49e+00	0	62	104	1067450368	53	18728
2026-01-25 09:48:53.54	350.03	18.28	-40.9	-55.4	3.8	1.49e+00	0	62	104	1067450368	53	18962
2026-01-25 09:48:57.58	349.85	17.80	-40.7	-55.2	3.8	1.49e+00	0	61	104	1067450368	53	18650
2026-01-25 09:49:01.62	349.68	17.33	-40.6	-55.2	3.8	1.49e+00	0	61	104	1067450368	53	18528
2026-01-25 09:49:05.66	349.51	16.87	-40.7	-55.2	3.8	1.49e+00	0	62	104	1067450368	53	18707
2026-01-25 09:49:09.69	349.34	16.42	-40.8	-55.4	3.8	1.49e+00	0	62	104	1067450368	53	18954
2026-01-25 09:49:13.74	349.18	15.98	-40.7	-55.3	3.8	1.49e+00	0	61	104	1067450368	53	18747
2026-01-25 09:49:17.78	349.03	15.54	-41.1	-55.6	3.8	1.49e+00	0	62	104	1067450368	53	19550
2026-01-25 09:49:21.81	348.88	15.11	-41.0	-55.6	3.8	1.49e+00	0	61	104	1067450368	53	19488
2026-01-25 09:49:25.85	348.74	14.69	-41.0	-55.6	3.8	1.49e+00	0	62	104	1067450368	53	19495
2026-01-25 09:49:29.89	348.60	14.28	-41.0	-55.5	3.8	1.49e+00	0	62	104	1067450368	53	19375
2026-01-25 09:49:33.94	348.46	13.87	-41.0	-55.5	3.8	1.49e+00	0	62	104	1067450368	53	19352
2026-01-25 09:49:37.97	348.33	13.47	-41.0	-55.4	3.8	1.49e+00	0	62	104	1067450368	53	19157
2026-01-25 09:49:42.01	348.21	13.07	-40.9	-55.4	3.8	1.49e+00	0	62	104	1067450368	53	19091
2026-01-25 09:49:46.05	348.08	12.68	-40.9	-55.4	3.8	1.49e+00	0	62	104	1067450368	53	19113
2026-01-25 09:49:50.09	347.96	12.30	-40.8	-55.4	3.8	1.49e+00	0	61	104	1067450368	53	19034
2026-01-25 09:49:54.12	347.85	11.93	-40.8	-55.4	3.8	1.49e+00	0	62	104	1067450368	53	18986
2026-01-25 09:49:58.16	347.73	11.55	-40.8	-55.3	3.8	1.49e+00	0	62	104	1067450368	53	18817
2026-01-25 09:50:02.19	347.62	11.19	-40.8	-55.3	3.8	1.49e+00	0	62	104	1067450368	53	18884
2026-01-25 09:50:06.23	347.52	10.83	-40.8	-55.3	3.8	1.49e+00	0	62	104	1067450368	53	18901
2026-01-25 09:50:10.27	347.41	10.47	-40.8	-55.4	3.8	1.49e+00	0	62	104	1067450368	53	18988
2026-01-25 09:50:14.31	347.31	10.12	-40.8	-55.4	3.8	1.49e+00	0	62	104	1067450368	53	19002
2026-01-25 09:50:18.35	347.21	9.78	-40.8	-55.4	3.8	1.49e+00	0	62	104	1067450368	53	19055
2026-01-25 09:50:22.39	347.12	9.44	-40.8	-55.4	3.8	1.49e+00	0	62	104	1067450368	53	18980
2026-01-25 09:50:26.43	347.03	9.10	-40.8	-55.3	3.8	1.49e+00	0	62	104	1067450368	53	18941
2026-01-25 09:50:30.46	346.94	8.77	-40.8	-55.3	3.8	1.49e+00	0	62	104	1067450368	53	18800
2026-01-25 09:50:34.50	346.85	8.44	-40.7	-55.3	3.8	1.49e+00	0	62	104	1067450368	53	18763
2026-01-25 09:50:38.54	346.76	8.12	-40.7	-55.3	3.8	1.49e+00	0	62	104	1067450368	53	18761
2026-01-25 09:50:42.58	346.68	7.80	-40.9	-55.5	3.8	1.49e+00	0	62	104	1067450368	52	20363
2026-01-25 09:50:46.62	346.60	7.48	-44.9	-59.6	3.8	1.49e+00	0	62	104	1067450368	60	20725
2026-01-25 09:50:50.67	346.52	7.17	-45.1	-59.7	3.8	1.49e+00	0	62	104	1067450368	60	20938
2026-01-25 09:50:54.71	346.44	6.86	-45.0	-59.6	3.8	1.49e+00	0	62	104	1067450368	60	20681
2026-01-25 09:50:58.75	346.37	6.56	-44.9	-59.5	3.8	1.49e+00	0	62	104	1067450368	60	20505
2026-01-25 09:51:02.79	346.29	6.26	-44.9	-59.5	3.8	1.49e+00	0	62	104	1067450368	60	20450
2026-01-25 09:51:06.83	346.22	5.96	-44.9	-59.5	3.8	1.49e+00	0	62	104	1067450368	60	20425
2026-01-25 09:51:10.87	346.15	5.66	-44.9	-59.5	3.8	1.49e+00	0	62	104	1067450368	60	20438
2026-01-25 09:51:14.91	346.08	5.37	-44.9	-59.5	3.8	1.49e+00	0	62	104	1067450368	60	20354
2026-01-25 09:51:18.95	346.02	5.08	-44.9	-59.5	3.8	1.49e+00	0	62	104	1067450368	60	20387
2026-01-25 09:51:23.00	345.95	4.80	-44.9	-59.5	3.8	1.49e+00	0	62	104	1067450368	60	20372
2026-01-25 09:51:27.04	345.89	4.52	-44.9	-59.4	3.8	1.49e+00	0	62	104	1067450368	60	20260
2026-01-25 09:51:31.08	345.83	4.24	-44.9	-59.4	3.8	1.49e+00	0	62	104	1067450368	60	20299
2026-01-25 09:51:35.12	345.77	3.96	-44.9	-59.4	3.8	1.49e+00	0	62	104	1067450368	60	20248
2026-01-25 09:51:39.16	345.71	3.69	-44.9	-59.4	3.8	1.49e+00	0	62	104	1067450368	60	20214
2026-01-25 09:51:43.20	345.65	3.42	-44.8	-59.4	3.8	1.49e+00	0	62	104	1067450368	60	20211
2026-01-25 09:51:47.25	345.59	3.15	-44.8	-59.4	3.8	1.49e+00	0	62	104	1067450368	60	20222
2026-01-25 09:51:51.29	345.54	2.88	-44.8	-59.4	3.8	1.49e+00	0	62	104	1067450368	60	20291
2026-01-25 09:51:55.33	345.49	2.62	-44.8	-59.4	3.8	1.49e+00	0	62	104	1067450368	60	20223
2026-01-25 09:51:59.37	345.43	2.36	-44.8	-59.4	3.8	1.49e+00	0	62	104	1067450368	60	20212
2026-01-25 09:52:03.42	345.38	2.10	-44.8	-59.4	3.8	1.49e+00	0	62	104	1067450368	60	20184

#Closed at: 2026-01-25 09:52:05
#Recorded file [1067 MB]: D:/lorett/data/31039_260125_123747.dat