passes_logs/2026/01/25/R2.0S_Moscow/R2.0S_Moscow__20260125_104838_NOAA_21_JPSS-2_rec.log

#Pass ID: 20260125_104838_NOAA 21 (JPSS-2)
#Satellite: NOAA 21 (JPSS-2)
#Configuration: NOAA-21
#almurnet v.1.7.20251203
#Start time: 2026-01-25 10:49:18

#Version: 2.2.20231116
#Station: R2.0S_Moscow
#Location: 37.707566 lon 55.798166 lat
#TLE: 1 54234U 22150A   26024.45772595  .00000201  00000+0  11607-3 0  9996
#TLE: 2 54234  98.7508 325.2435 0000728 220.7365 139.3757 14.19538765166156

#Time	Az	El	Level	Level2	SNR	BER	BlckErr	Temp	State	Recorded	gain1	gain2
2026-01-25 10:49:18.75	188.81	4.60	-44.9	-56.6	3.8	8.46e-01	0	62	0	0	60	14672
2026-01-25 10:49:22.78	189.01	4.87	-45.2	-57.7	3.8	1.49e+00	0	62	104	0	62	14809
2026-01-25 10:49:26.82	189.22	5.14	-42.2	-54.5	3.8	1.49e+00	0	62	104	0	56	14494
2026-01-25 10:49:30.86	189.43	5.41	-44.2	-56.3	3.8	1.49e+00	0	62	104	0	59	14882
2026-01-25 10:49:34.90	189.65	5.69	-44.1	-55.9	3.8	1.49e+00	0	62	104	0	59	14240
2026-01-25 10:49:38.95	189.87	5.97	-44.0	-54.5	3.9	1.49e+00	0	62	104	0	59	12206
2026-01-25 10:49:42.99	190.09	6.26	-43.7	-53.0	3.9	1.44e+00	0	62	104	0	59	10179
2026-01-25 10:49:47.03	190.32	6.54	-43.3	-50.4	5.3	6.08e-01	0	62	0	3145728	58	8077
2026-01-25 10:49:51.07	190.55	6.83	-43.2	-49.9	5.6	4.55e-01	0	62	0	15728640	58	7609
2026-01-25 10:49:55.11	190.79	7.13	-43.4	-50.6	5.1	6.21e-01	0	62	0	28311552	58	8220
2026-01-25 10:49:59.15	191.03	7.42	-43.2	-50.0	5.5	5.31e-01	0	62	0	40894464	58	7669
2026-01-25 10:50:03.19	191.28	7.72	-42.4	-47.3	7.8	9.09e-02	0	62	0	53477376	56	6288
2026-01-25 10:50:07.23	191.53	8.02	-41.2	-44.9	10.0	7.16e-03	0	62	0	67108864	54	5358
2026-01-25 10:50:11.27	191.78	8.32	-40.7	-43.9	11.1	1.51e-03	0	62	0	79691776	53	5050
2026-01-25 10:50:15.31	192.04	8.63	-43.0	-49.2	5.7	1.49e+00	0	62	104	87031808	58	7003
2026-01-25 10:50:19.34	192.31	8.94	-40.5	-43.6	11.4	9.31e-04	0	62	0	98566144	53	4913
2026-01-25 10:50:23.38	192.58	9.26	-40.5	-43.5	11.5	7.54e-04	0	62	0	111149056	52	5136
2026-01-25 10:50:27.41	192.86	9.57	-40.3	-43.3	11.5	8.22e-04	0	62	0	123731968	52	5007
2026-01-25 10:50:31.45	193.14	9.90	-40.1	-43.1	11.7	5.99e-04	0	62	0	136314880	52	4897
2026-01-25 10:50:35.49	193.43	10.22	-40.2	-43.0	12.1	2.44e-04	0	62	0	148897792	52	4834
2026-01-25 10:50:39.53	193.72	10.55	-40.1	-42.8	12.4	1.58e-04	0	62	0	161480704	52	4734
2026-01-25 10:50:43.57	194.02	10.88	-40.0	-42.9	11.7	4.84e-04	0	62	0	174063616	51	5083
2026-01-25 10:50:47.62	194.33	11.22	-39.7	-42.6	11.8	5.79e-04	0	62	0	186646528	51	4903
2026-01-25 10:50:51.65	194.65	11.56	-39.7	-42.5	12.2	2.43e-04	0	62	0	199229440	51	4859
2026-01-25 10:50:55.69	194.97	11.90	-39.8	-42.4	12.4	1.31e-04	0	62	0	211812352	51	4780
2026-01-25 10:50:59.74	195.30	12.25	-38.6	-42.0	10.1	5.12e-03	0	62	0	224395264	49	5126
2026-01-25 10:51:03.78	195.64	12.60	-38.2	-42.0	9.4	1.59e-02	0	62	0	236978176	48	5429
2026-01-25 10:51:07.81	195.98	12.96	-39.1	-42.0	11.6	9.45e-04	0	62	0	249561088	48	5432
2026-01-25 10:51:11.85	196.34	13.32	-37.7	-41.7	9.1	1.85e-02	0	62	0	262144000	47	5578
2026-01-25 10:51:15.89	196.70	13.69	-34.6	-41.0	5.9	3.41e-01	0	62	0	274726912	41	7244
2026-01-25 10:51:19.93	197.07	14.06	-40.4	-51.5	3.8	5.24e-01	0	62	104	287309824	51	13613
2026-01-25 10:51:23.97	197.45	14.43	-34.6	-41.8	5.4	5.80e-01	0	62	0	292552704	40	8389
2026-01-25 10:51:28.01	197.84	14.81	-37.0	-41.9	8.4	5.63e-02	0	62	0	305135616	44	6758
2026-01-25 10:51:32.04	198.23	15.20	-37.5	-42.0	9.1	2.01e-02	0	62	0	317718528	45	6439
2026-01-25 10:51:36.09	198.64	15.59	-37.6	-42.0	8.9	2.81e-02	0	62	0	330301440	45	6425
2026-01-25 10:51:40.13	199.06	15.98	-38.9	-42.2	10.7	3.81e-03	0	62	0	342884352	48	5586
2026-01-25 10:51:44.17	199.49	16.38	-39.6	-42.4	12.2	2.63e-04	0	62	0	355467264	49	5390
2026-01-25 10:51:48.20	199.93	16.78	-39.8	-42.5	12.7	7.85e-05	0	62	0	368050176	50	5121
2026-01-25 10:51:52.25	200.39	17.19	-40.1	-42.7	12.8	5.56e-05	0	62	0	380633088	50	5224
2026-01-25 10:51:56.28	200.85	17.61	-40.2	-42.8	12.8	6.48e-05	0	62	0	393216000	51	5015
2026-01-25 10:52:00.32	201.33	18.03	-40.3	-42.9	12.7	7.55e-05	0	62	0	405798912	51	5083
2026-01-25 10:52:04.36	201.82	18.45	-40.0	-42.5	13.2	2.97e-05	0	62	0	418381824	51	4821
2026-01-25 10:52:08.40	202.32	18.88	-40.0	-42.3	13.3	2.21e-05	0	62	0	432013312	51	4753
2026-01-25 10:52:12.44	202.84	19.32	-39.9	-42.2	13.5	8.30e-06	0	62	0	443547648	51	4675
2026-01-25 10:52:16.49	203.38	19.76	-39.7	-42.0	13.7	6.80e-06	0	62	0	457179136	51	4590
2026-01-25 10:52:20.53	203.92	20.21	-39.5	-41.7	14.0	4.50e-06	0	62	0	469762048	51	4423
2026-01-25 10:52:24.57	204.49	20.66	-39.2	-41.3	14.4	0.00e+00	0	62	0	482344960	50	4458
2026-01-25 10:52:28.61	205.07	21.12	-39.2	-41.2	14.5	0.00e+00	0	62	0	494927872	50	4423
2026-01-25 10:52:32.64	205.66	21.58	-38.9	-40.8	14.9	7.00e-07	0	62	0	507510784	49	4467
2026-01-25 10:52:36.68	206.28	22.05	-38.8	-40.7	15.1	0.00e+00	0	62	0	520093696	49	4416
2026-01-25 10:52:40.72	206.91	22.52	-38.8	-40.7	15.1	0.00e+00	0	62	0	532676608	49	4400
2026-01-25 10:52:44.76	207.56	23.00	-38.8	-40.7	15.1	0.00e+00	0	62	0	545259520	49	4414
2026-01-25 10:52:48.80	208.24	23.48	-38.8	-40.8	15.1	0.00e+00	0	62	0	557842432	49	4443
2026-01-25 10:52:52.83	208.93	23.97	-38.7	-40.6	15.2	0.00e+00	0	62	0	570425344	49	4381
2026-01-25 10:52:56.87	209.64	24.47	-38.9	-40.9	15.0	0.00e+00	0	62	0	583008256	49	4520
2026-01-25 10:53:00.90	210.38	24.96	-39.1	-41.0	14.9	0.00e+00	0	62	0	595591168	49	4588
2026-01-25 10:53:04.94	211.14	25.47	-39.1	-41.1	14.9	0.00e+00	0	62	0	608174080	49	4606
2026-01-25 10:53:08.98	211.92	25.97	-39.2	-41.2	14.7	0.00e+00	0	62	0	620756992	49	4702
2026-01-25 10:53:13.02	212.73	26.49	-39.4	-41.5	14.4	1.50e-06	0	62	0	633339904	49	4820
2026-01-25 10:53:17.06	213.57	27.00	-39.9	-42.2	13.8	4.50e-06	0	62	0	645922816	50	4943
2026-01-25 10:53:21.10	214.43	27.52	-40.0	-42.4	13.6	8.30e-06	0	62	0	658505728	50	5045
2026-01-25 10:53:25.13	215.31	28.04	-40.2	-42.6	13.4	1.14e-05	0	62	0	671088640	50	5182
2026-01-25 10:53:29.17	216.23	28.56	-40.0	-42.3	13.6	6.80e-06	0	62	0	683671552	50	5026
2026-01-25 10:53:33.21	217.18	29.09	-40.0	-42.2	13.7	5.30e-06	0	62	0	696254464	50	4972
2026-01-25 10:53:37.25	218.16	29.61	-39.7	-41.9	14.0	1.50e-06	0	62	0	708837376	50	4809
2026-01-25 10:53:41.29	219.17	30.14	-39.5	-41.6	14.3	7.00e-07	0	62	0	721420288	50	4651
2026-01-25 10:53:45.33	220.22	30.67	-39.5	-41.6	14.4	0.00e+00	0	62	0	734003200	50	4606
2026-01-25 10:53:49.37	221.29	31.19	-39.5	-41.6	14.4	0.00e+00	0	62	0	746586112	50	4607
2026-01-25 10:53:53.40	222.40	31.72	-39.6	-41.7	14.3	1.50e-06	0	62	0	759169024	50	4677
2026-01-25 10:53:57.44	223.55	32.24	-39.9	-42.1	13.8	8.30e-06	0	62	0	771751936	50	4916
2026-01-25 10:54:01.47	224.73	32.75	-39.9	-42.2	13.8	5.30e-06	0	62	0	784334848	50	4929
2026-01-25 10:54:05.52	225.96	33.27	-40.0	-42.3	13.6	6.80e-06	0	62	0	797966336	50	5026
2026-01-25 10:54:09.56	227.22	33.77	-40.2	-42.6	13.3	1.67e-05	0	62	0	810549248	51	4901
2026-01-25 10:54:13.59	228.51	34.27	-40.4	-42.9	13.1	3.43e-05	0	62	0	823132160	51	5077
2026-01-25 10:54:17.63	229.85	34.76	-40.4	-42.9	13.2	3.43e-05	0	62	0	835715072	51	5042
2026-01-25 10:54:21.68	231.23	35.24	-40.6	-43.1	12.8	5.03e-05	0	62	0	848297984	51	5190
2026-01-25 10:54:25.71	232.65	35.71	-40.7	-43.4	12.4	1.59e-04	0	62	0	860880896	52	5067
2026-01-25 10:54:29.75	234.10	36.16	-40.6	-43.1	12.8	7.93e-05	0	62	0	873463808	52	4912
2026-01-25 10:54:33.79	235.60	36.60	-40.9	-43.6	12.2	1.62e-04	0	62	0	886046720	52	5202
2026-01-25 10:54:37.82	237.14	37.03	-40.9	-43.6	12.2	2.11e-04	0	62	0	898629632	52	5204
2026-01-25 10:54:41.86	238.71	37.43	-40.8	-43.5	12.4	1.75e-04	0	62	0	911212544	52	5110
2026-01-25 10:54:45.90	240.33	37.82	-40.7	-43.3	12.5	1.14e-04	0	62	0	923795456	52	5001
2026-01-25 10:54:49.94	241.98	38.18	-40.7	-43.3	12.5	9.30e-05	0	62	0	936378368	52	5029
2026-01-25 10:54:53.98	243.66	38.52	-40.9	-43.6	12.2	1.66e-04	0	62	0	948961280	52	5207
2026-01-25 10:54:58.02	245.38	38.84	-40.8	-43.6	12.3	2.61e-04	0	62	0	961544192	52	5165
2026-01-25 10:55:02.05	247.13	39.13	-41.3	-44.2	11.6	5.87e-04	0	62	0	974127104	53	5269
2026-01-25 10:55:06.09	248.91	39.39	-41.0	-43.7	12.1	2.20e-04	0	62	0	986710016	53	4980
2026-01-25 10:55:10.12	250.72	39.62	-41.1	-44.0	11.8	5.15e-04	0	62	0	999292928	53	5156
2026-01-25 10:55:14.16	252.55	39.83	-41.1	-44.0	11.9	4.69e-04	0	62	0	1011875840	53	5102
2026-01-25 10:55:18.20	254.40	40.00	-41.3	-44.3	11.5	6.50e-04	0	62	0	1024458752	53	5295
2026-01-25 10:55:22.24	256.27	40.14	-40.8	-43.5	12.4	1.67e-04	0	62	0	1037041664	53	4870
2026-01-25 10:55:26.28	258.16	40.24	-40.9	-43.7	12.2	2.53e-04	0	62	0	1049624576	53	4961
2026-01-25 10:55:30.32	260.05	40.31	-41.3	-44.3	11.5	7.51e-04	0	62	0	1062207488	53	5286
2026-01-25 10:55:34.36	261.95	40.35	-41.5	-44.6	11.2	1.27e-03	0	62	0	1074790400	53	5527
2026-01-25 10:55:38.39	263.85	40.35	-41.3	-44.2	11.6	6.32e-04	0	62	0	1087373312	53	5276
2026-01-25 10:55:42.43	265.75	40.32	-41.3	-44.4	11.4	9.83e-04	0	62	0	1099956224	53	5376
2026-01-25 10:55:46.47	267.64	40.25	-41.5	-44.7	11.1	1.42e-03	0	62	0	1112539136	53	5532
2026-01-25 10:55:50.50	269.52	40.15	-41.1	-44.0	11.8	4.71e-04	0	62	0	1125122048	53	5137
2026-01-25 10:55:54.54	271.39	40.01	-41.0	-43.8	12.1	2.61e-04	0	62	0	1137704960	53	4992
2026-01-25 10:55:58.58	273.25	39.85	-41.0	-43.9	12.0	3.77e-04	0	62	0	1150287872	53	5071
2026-01-25 10:56:02.61	275.07	39.65	-41.4	-44.5	11.4	1.23e-03	0	62	0	1163919360	53	5429
2026-01-25 10:56:06.65	276.88	39.42	-41.3	-44.3	11.6	7.79e-04	0	62	0	1175453696	53	5286
2026-01-25 10:56:10.69	278.66	39.16	-41.1	-44.0	11.9	4.37e-04	0	62	0	1188036608	53	5130
2026-01-25 10:56:14.72	280.41	38.87	-40.7	-43.3	12.6	1.11e-04	0	62	0	1201668096	53	4726
2026-01-25 10:56:18.76	282.13	38.56	-40.7	-43.3	12.6	1.59e-04	0	62	0	1214251008	53	4740
2026-01-25 10:56:22.79	283.81	38.22	-40.3	-42.7	13.1	2.59e-05	0	62	0	1226833920	52	4700
2026-01-25 10:56:26.83	285.46	37.86	-41.0	-43.9	12.0	2.93e-04	0	62	0	1239416832	52	5358
2026-01-25 10:56:30.87	287.08	37.48	-40.5	-43.1	12.8	6.02e-05	0	62	0	1251999744	52	4876
2026-01-25 10:56:34.91	288.65	37.08	-40.4	-42.9	13.0	5.26e-05	0	62	0	1264582656	52	4801
2026-01-25 10:56:38.95	290.19	36.66	-40.3	-42.7	13.1	2.82e-05	0	62	0	1277165568	52	4665
2026-01-25 10:56:42.99	291.68	36.22	-40.4	-43.0	12.9	4.73e-05	0	62	0	1289748480	52	4819
2026-01-25 10:56:47.03	293.14	35.77	-40.3	-42.8	13.0	3.81e-05	0	62	0	1302331392	52	4733
2026-01-25 10:56:51.07	294.56	35.30	-40.4	-42.9	12.9	3.89e-05	0	62	0	1314914304	52	4782
2026-01-25 10:56:55.11	295.94	34.83	-40.2	-42.5	13.3	2.21e-05	0	62	0	1327497216	52	4586
2026-01-25 10:56:59.16	297.28	34.34	-40.2	-42.6	13.3	2.05e-05	0	62	0	1340080128	52	4617
2026-01-25 10:57:03.20	298.58	33.85	-40.5	-43.1	12.8	5.34e-05	0	62	0	1352663040	52	4893
2026-01-25 10:57:07.24	299.84	33.34	-40.3	-42.7	13.1	2.21e-05	0	62	0	1365245952	52	4700
2026-01-25 10:57:11.28	301.06	32.84	-40.0	-42.3	13.6	5.30e-06	0	62	0	1377828864	52	4442
2026-01-25 10:57:15.32	302.24	32.32	-39.8	-42.0	13.9	2.20e-06	0	62	0	1390411776	51	4586
2026-01-25 10:57:19.36	303.39	31.81	-39.8	-41.9	13.9	1.50e-06	0	62	0	1402994688	51	4541
2026-01-25 10:57:23.40	304.50	31.29	-40.0	-42.3	13.6	3.80e-06	0	62	0	1415577600	51	4727
2026-01-25 10:57:27.43	305.58	30.76	-40.2	-42.5	13.3	1.67e-05	0	62	0	1428160512	51	4862
2026-01-25 10:57:31.47	306.62	30.24	-40.3	-42.7	13.2	1.90e-05	0	62	0	1440743424	51	4971
2026-01-25 10:57:35.51	307.63	29.72	-40.3	-42.8	13.1	3.12e-05	0	62	0	1453326336	51	4987
2026-01-25 10:57:39.55	308.61	29.20	-40.0	-42.2	13.6	9.10e-06	0	62	0	1465909248	51	4699
2026-01-25 10:57:43.59	309.56	28.67	-39.8	-42.0	13.9	4.50e-06	0	62	0	1478492160	51	4556
2026-01-25 10:57:47.63	310.48	28.15	-39.8	-42.0	13.9	3.00e-06	0	62	0	1491075072	51	4553
2026-01-25 10:57:51.67	311.37	27.64	-39.5	-41.6	14.2	7.00e-07	0	62	0	1503657984	50	4608
2026-01-25 10:57:55.70	312.23	27.12	-39.3	-41.3	14.5	7.00e-07	0	62	0	1517289472	50	4466
2026-01-25 10:57:59.74	313.07	26.61	-39.3	-41.4	14.5	7.00e-07	0	62	0	1528823808	50	4504
2026-01-25 10:58:03.78	313.88	26.10	-39.3	-41.4	14.4	0.00e+00	0	62	0	1542455296	50	4494
2026-01-25 10:58:07.81	314.66	25.60	-39.2	-41.3	14.5	0.00e+00	0	62	0	1555038208	50	4446
2026-01-25 10:58:11.85	315.42	25.10	-39.1	-41.1	14.7	0.00e+00	0	62	0	1567621120	50	4363
2026-01-25 10:58:15.89	316.16	24.60	-39.1	-41.0	14.7	0.00e+00	0	62	0	1580204032	50	4328
2026-01-25 10:58:19.93	316.87	24.11	-39.2	-41.2	14.5	7.00e-07	0	62	0	1592786944	50	4401
2026-01-25 10:58:23.97	317.57	23.63	-39.1	-41.2	14.6	0.00e+00	0	62	0	1605369856	50	4395
2026-01-25 10:58:28.01	318.24	23.15	-39.2	-41.3	14.4	0.00e+00	0	62	0	1617952768	50	4460
2026-01-25 10:58:32.05	318.90	22.67	-39.4	-41.6	14.2	2.20e-06	0	62	0	1630535680	50	4609
2026-01-25 10:58:36.09	319.53	22.20	-39.7	-41.9	13.8	2.20e-06	0	62	0	1643118592	50	4781
2026-01-25 10:58:40.13	320.15	21.73	-39.8	-42.1	13.6	9.10e-06	0	62	0	1655701504	50	4889
2026-01-25 10:58:44.18	320.75	21.27	-39.7	-42.0	13.7	7.60e-06	0	62	0	1668284416	50	4827
2026-01-25 10:58:48.21	321.33	20.82	-39.7	-41.9	13.7	7.60e-06	0	62	0	1680867328	50	4808
2026-01-25 10:58:52.25	321.89	20.37	-39.4	-41.5	14.1	1.50e-06	0	62	0	1693450240	50	4594
2026-01-25 10:58:56.29	322.44	19.92	-39.3	-41.3	14.3	7.00e-07	0	62	0	1706033152	50	4486
2026-01-25 10:59:00.33	322.98	19.48	-39.2	-41.3	14.2	3.80e-06	0	62	0	1718616064	50	4489
2026-01-25 10:59:04.37	323.50	19.05	-39.3	-41.4	14.2	2.20e-06	0	62	0	1731198976	50	4544
2026-01-25 10:59:08.41	324.01	18.62	-39.4	-41.5	14.1	2.20e-06	0	62	0	1743781888	50	4588
2026-01-25 10:59:12.45	324.50	18.20	-39.4	-41.6	13.9	3.00e-06	0	62	0	1756364800	50	4647
2026-01-25 10:59:16.49	324.98	17.78	-39.4	-41.5	14.0	2.20e-06	0	62	0	1768947712	50	4569
2026-01-25 10:59:20.53	325.45	17.37	-39.4	-41.6	13.9	2.20e-06	0	62	0	1781530624	50	4639
2026-01-25 10:59:24.57	325.90	16.96	-39.6	-41.8	13.7	3.80e-06	0	62	0	1794113536	50	4750
2026-01-25 10:59:28.60	326.34	16.56	-39.6	-41.8	13.6	1.06e-05	0	62	0	1806696448	50	4752
2026-01-25 10:59:32.65	326.78	16.16	-39.7	-42.1	13.4	2.05e-05	0	62	0	1819279360	50	4874
2026-01-25 10:59:36.68	327.20	15.77	-39.9	-42.4	13.0	4.65e-05	0	62	0	1831862272	50	5065
2026-01-25 10:59:40.72	327.61	15.39	-39.9	-42.3	13.0	1.90e-05	0	62	0	1844445184	50	5027
2026-01-25 10:59:44.76	328.01	15.00	-40.0	-42.5	12.9	5.34e-05	0	62	0	1858076672	50	5123
2026-01-25 10:59:48.80	328.40	14.63	-40.0	-42.5	12.9	4.11e-05	0	62	0	1870659584	50	5129
2026-01-25 10:59:52.85	328.79	14.25	-39.8	-42.3	13.1	3.81e-05	0	62	0	1883242496	50	4998
2026-01-25 10:59:56.88	329.16	13.89	-39.9	-42.5	12.9	4.65e-05	0	62	0	1895825408	50	5116
2026-01-25 11:00:00.92	329.52	13.52	-40.0	-42.5	12.8	6.17e-05	0	62	0	1908408320	50	5131
2026-01-25 11:00:04.96	329.88	13.16	-40.1	-42.7	12.5	1.01e-04	0	62	0	1920991232	50	5247
2026-01-25 11:00:09.00	330.23	12.81	-40.0	-42.6	12.6	1.18e-04	0	62	0	1933574144	50	5208
2026-01-25 11:00:13.04	330.57	12.46	-40.1	-42.8	12.3	1.50e-04	0	62	0	1946157056	50	5308
2026-01-25 11:00:17.08	330.90	12.11	-40.1	-42.9	12.3	2.09e-04	0	62	0	1958739968	51	5044
2026-01-25 11:00:21.12	331.23	11.77	-40.1	-42.7	12.4	1.75e-04	0	62	0	1971322880	51	4981
2026-01-25 11:00:25.15	331.55	11.43	-40.1	-42.9	12.2	2.04e-04	0	62	0	1983905792	51	5046
2026-01-25 11:00:29.19	331.86	11.09	-40.1	-42.8	12.2	2.05e-04	0	62	0	1996488704	51	5028
2026-01-25 11:00:33.23	332.16	10.76	-40.1	-42.9	12.2	1.82e-04	0	62	0	2009071616	51	5045
2026-01-25 11:00:37.26	332.46	10.44	-40.2	-43.0	12.0	3.45e-04	0	62	0	2021654528	51	5150
2026-01-25 11:00:41.30	332.75	10.11	-40.4	-43.4	11.6	6.15e-04	0	62	0	2034237440	51	5342
2026-01-25 11:00:45.34	333.04	9.79	-40.5	-43.7	11.2	1.47e-03	0	62	0	2046820352	51	5571
2026-01-25 11:00:49.38	333.32	9.48	-40.6	-43.9	10.9	2.34e-03	0	62	0	2059403264	51	5680
2026-01-25 11:00:53.42	333.60	9.17	-40.6	-43.9	10.8	2.42e-03	0	62	0	2071986176	51	5687
2026-01-25 11:00:57.46	333.87	8.86	-40.6	-44.0	10.7	3.28e-03	0	62	0	2084569088	51	5734
2026-01-25 11:01:01.50	334.13	8.55	-40.6	-44.0	10.5	3.88e-03	0	62	0	2097152000	51	5770
2026-01-25 11:01:05.54	334.39	8.25	-40.6	-44.2	10.2	6.18e-03	0	62	0	2109734912	51	5906
2026-01-25 11:01:09.58	334.65	7.95	-44.3	-56.1	3.8	1.49e+00	0	62	104	2119172096	59	14596
2026-01-25 11:01:13.63	334.90	7.65	-45.1	-57.5	3.8	1.49e+00	0	62	104	2119172096	60	16194
2026-01-25 11:01:17.67	335.14	7.36	-45.2	-57.6	3.8	1.49e+00	0	62	104	2119172096	61	15507
2026-01-25 11:01:21.71	335.38	7.07	-45.0	-57.6	3.8	1.49e+00	0	62	104	2119172096	61	15524
2026-01-25 11:01:25.75	335.62	6.78	-45.1	-57.5	3.8	1.49e+00	0	62	104	2119172096	60	16249
2026-01-25 11:01:29.79	335.85	6.49	-45.1	-57.5	3.8	1.49e+00	0	62	104	2119172096	60	16161
2026-01-25 11:01:33.84	336.08	6.21	-45.1	-57.5	3.8	1.49e+00	0	62	104	2119172096	60	16191
2026-01-25 11:01:37.88	336.31	5.93	-45.1	-57.4	3.8	1.49e+00	0	62	104	2119172096	60	16122
2026-01-25 11:01:41.93	336.53	5.65	-45.0	-57.5	3.8	1.49e+00	0	62	104	2119172096	60	16169
2026-01-25 11:01:45.97	336.74	5.38	-45.1	-57.5	3.8	1.49e+00	0	62	104	2119172096	60	16159
2026-01-25 11:01:50.01	336.96	5.11	-45.1	-57.4	3.8	1.49e+00	0	62	104	2119172096	60	16093
2026-01-25 11:01:54.05	337.16	4.84	-45.1	-57.4	3.8	1.49e+00	0	62	104	2119172096	60	16077
2026-01-25 11:01:58.09	337.37	4.57	-45.0	-57.4	3.8	1.49e+00	0	62	104	2119172096	60	16003
2026-01-25 11:02:02.14	337.57	4.31	-45.0	-57.4	3.8	1.49e+00	0	62	104	2119172096	60	16054
2026-01-25 11:02:06.18	337.77	4.04	-45.0	-57.4	3.8	1.49e+00	0	62	104	2119172096	60	16037
2026-01-25 11:02:10.22	337.97	3.78	-45.0	-57.4	3.8	1.49e+00	0	62	104	2119172096	60	16028
2026-01-25 11:02:14.26	338.16	3.53	-44.8	-57.5	3.8	1.49e+00	0	62	104	2119172096	60	16303
2026-01-25 11:02:18.30	338.35	3.27	-45.1	-57.5	3.8	1.49e+00	0	62	104	2119172096	60	16135
2026-01-25 11:02:22.35	338.54	3.02	-44.4	-57.3	3.8	1.49e+00	0	62	104	2119172096	59	16812
2026-01-25 11:02:26.39	338.72	2.77	-44.6	-57.4	3.8	1.49e+00	0	62	104	2119172096	60	16092
2026-01-25 11:02:30.43	338.90	2.52	-44.8	-57.4	3.8	1.49e+00	0	62	104	2119172096	60	16080
2026-01-25 11:02:34.48	339.08	2.27	-45.0	-57.4	3.8	1.49e+00	0	62	104	2119172096	60	16076
2026-01-25 11:02:38.52	339.26	2.02	-45.0	-57.4	3.8	1.49e+00	0	62	104	2119172096	60	15988

#Closed at: 2026-01-25 11:02:39
#Recorded file [2119 MB]: D:/lorett/data/31039_260125_134918.dat