passes_logs/2026/01/25/R2.0S_Moscow/R2.0S_Moscow__20260125_220848_NOAA_20_JPSS-1_rec.log

#Pass ID: 20260125_220848_NOAA 20 (JPSS-1)
#Satellite: NOAA 20 (JPSS-1)
#Configuration: NOAA 20
#almurnet v.1.7.20251203
#Start time: 2026-01-25 22:08:48

#Version: 2.2.20231116
#Station: R2.0S_Moscow
#Location: 37.707566 lon 55.798166 lat
#TLE: 1 43013U 17073A   26025.47986292  .00000161  00000+0  97249-4 0  9993
#TLE: 2 43013  98.7646 326.3091 0001052  24.2709 335.8516 14.19540188424225

#Time	Az	El	Level	Level2	SNR	BER	BlckErr	Temp	State	Recorded	gain1	gain2
2026-01-25 22:08:48.10	25.44	1.98	-42.2	-56.7	3.8	1.49e+00	0	52	0	0	56	18704
2026-01-25 22:08:51.12	25.66	2.14	-42.2	-56.7	3.8	1.49e+00	0	52	104	0	56	18682
2026-01-25 22:08:54.15	25.88	2.31	-42.2	-56.7	3.8	1.49e+00	0	52	104	0	56	18678
2026-01-25 22:08:57.18	26.10	2.47	-42.2	-56.7	3.8	1.49e+00	0	53	104	0	56	18684
2026-01-25 22:09:00.21	26.33	2.64	-42.2	-56.8	3.8	1.49e+00	0	53	104	0	56	18738
2026-01-25 22:09:03.24	26.56	2.81	-42.2	-56.8	3.8	1.49e+00	0	53	104	0	56	18737
2026-01-25 22:09:06.28	26.79	2.97	-42.2	-56.7	3.8	1.49e+00	0	53	104	0	56	18679
2026-01-25 22:09:09.30	27.02	3.14	-42.2	-56.8	3.8	1.49e+00	0	54	104	0	56	18742
2026-01-25 22:09:12.33	27.26	3.31	-42.2	-56.7	3.8	1.49e+00	0	54	104	0	56	18726
2026-01-25 22:09:15.37	27.50	3.48	-42.2	-56.7	3.8	1.49e+00	0	54	104	0	56	18636
2026-01-25 22:09:18.40	27.74	3.65	-42.2	-56.7	3.8	1.49e+00	0	54	104	0	56	18654
2026-01-25 22:09:21.43	27.99	3.82	-42.2	-56.7	3.8	1.49e+00	0	54	104	0	56	18715
2026-01-25 22:09:24.46	28.23	3.99	-42.2	-56.7	3.8	1.49e+00	0	55	104	0	56	18730
2026-01-25 22:09:27.49	28.48	4.16	-42.2	-56.7	3.8	1.49e+00	0	55	104	0	56	18650
2026-01-25 22:09:30.52	28.73	4.34	-42.2	-56.7	3.8	1.49e+00	0	55	104	0	56	18650
2026-01-25 22:09:33.55	28.99	4.51	-42.2	-56.7	3.8	1.49e+00	0	55	104	0	56	18722
2026-01-25 22:09:36.58	29.25	4.68	-42.2	-56.7	3.8	1.49e+00	0	55	104	0	56	18708
2026-01-25 22:09:39.62	29.51	4.86	-42.2	-56.7	3.8	1.49e+00	0	55	104	0	56	18714
2026-01-25 22:09:42.65	29.77	5.03	-42.2	-56.7	3.8	1.49e+00	0	55	104	0	56	18643
2026-01-25 22:09:45.68	30.04	5.21	-42.2	-56.7	3.8	1.49e+00	0	56	104	0	56	18645
2026-01-25 22:09:48.71	30.31	5.38	-42.2	-56.7	3.8	1.49e+00	0	56	104	0	56	18670
2026-01-25 22:09:51.74	30.58	5.56	-42.2	-56.7	3.8	1.49e+00	0	56	104	0	56	18651
2026-01-25 22:09:54.77	30.86	5.74	-42.2	-56.7	3.8	1.49e+00	0	56	104	0	56	18716
2026-01-25 22:09:57.80	31.14	5.92	-42.2	-56.7	3.8	1.49e+00	0	56	104	0	56	18674
2026-01-25 22:10:00.83	31.42	6.10	-42.2	-56.7	3.8	1.49e+00	0	56	104	0	56	18679
2026-01-25 22:10:03.86	31.71	6.28	-42.2	-56.7	3.8	1.49e+00	0	56	104	0	56	18618
2026-01-25 22:10:06.90	32.00	6.46	-42.2	-56.7	3.8	1.49e+00	0	56	104	0	56	18635
2026-01-25 22:10:09.93	32.29	6.64	-42.2	-56.6	3.8	1.49e+00	0	57	104	0	56	18409
2026-01-25 22:10:12.96	32.59	6.82	-42.2	-56.6	3.8	1.49e+00	0	57	104	0	56	18480
2026-01-25 22:10:15.99	32.89	7.00	-42.2	-56.5	3.8	1.49e+00	0	57	104	0	56	18284
2026-01-25 22:10:19.02	33.19	7.19	-42.1	-55.7	3.8	1.49e+00	0	57	104	0	56	16571
2026-01-25 22:10:22.05	33.50	7.37	-42.2	-56.7	3.8	1.49e+00	0	57	104	0	56	18642
2026-01-25 22:10:25.08	33.81	7.56	-41.7	-51.8	4.6	1.39e+00	0	57	0	0	55	11240
2026-01-25 22:10:28.11	34.13	7.74	-41.4	-50.0	5.7	4.10e-01	0	57	0	5242880	54	9620
2026-01-25 22:10:31.14	34.44	7.93	-41.2	-48.7	6.6	3.27e-01	0	57	0	11534336	54	8339
2026-01-25 22:10:34.17	34.77	8.11	-41.5	-48.4	7.3	9.47e-02	0	58	0	16777216	53	8520
2026-01-25 22:10:37.20	35.09	8.30	-41.3	-54.8	3.8	1.49e+00	0	58	104	20971520	53	17706
2026-01-25 22:10:40.23	35.42	8.49	-41.6	-47.6	8.5	4.45e-02	0	58	0	25165824	55	6911
2026-01-25 22:10:43.26	35.76	8.68	-41.6	-47.7	8.5	4.74e-02	0	58	0	31457280	55	6983
2026-01-25 22:10:46.29	36.10	8.87	-41.6	-47.4	8.8	3.42e-02	0	58	0	36700160	55	6789
2026-01-25 22:10:49.32	36.44	9.06	-41.7	-47.4	9.0	2.23e-02	0	58	0	41943040	55	6743
2026-01-25 22:10:52.34	36.79	9.24	-41.6	-47.0	9.5	1.60e-02	0	58	0	48234496	55	6470
2026-01-25 22:10:55.38	37.14	9.44	-41.8	-47.1	9.5	1.78e-02	0	58	0	53477376	55	6565
2026-01-25 22:10:58.41	37.50	9.63	-41.7	-46.9	9.9	1.33e-02	0	58	0	59768832	55	6351
2026-01-25 22:11:01.43	37.86	9.82	-41.8	-46.8	10.1	5.96e-03	0	58	0	65011712	55	6330
2026-01-25 22:11:04.46	38.22	10.01	-41.8	-46.7	10.3	4.44e-03	0	59	0	70254592	55	6248
2026-01-25 22:11:07.49	38.59	10.20	-41.8	-46.6	10.4	3.72e-03	0	58	0	76546048	55	6151
2026-01-25 22:11:10.53	38.97	10.40	-41.8	-46.5	10.6	3.59e-03	0	58	0	81788928	55	6092
2026-01-25 22:11:13.56	39.35	10.59	-41.7	-46.3	10.9	2.57e-03	0	59	0	88080384	55	5927
2026-01-25 22:11:16.59	39.73	10.79	-41.7	-46.4	10.8	2.56e-03	0	59	0	93323264	55	6006
2026-01-25 22:11:19.62	40.12	10.98	-41.8	-46.4	10.8	2.55e-03	0	59	0	99614720	55	6056
2026-01-25 22:11:22.65	40.52	11.17	-41.8	-46.5	10.8	2.74e-03	0	59	0	104857600	55	6076
2026-01-25 22:11:25.68	40.92	11.37	-41.9	-46.5	10.8	2.73e-03	0	59	0	110100480	55	6108
2026-01-25 22:11:28.70	41.32	11.56	-41.8	-46.4	10.9	2.25e-03	0	59	0	116391936	55	6058
2026-01-25 22:11:31.73	41.73	11.76	-41.8	-46.4	10.9	2.28e-03	0	59	0	121634816	55	6016
2026-01-25 22:11:34.76	42.14	11.96	-41.8	-46.3	11.0	1.63e-03	0	59	0	127926272	55	5961
2026-01-25 22:11:37.79	42.57	12.15	-41.8	-46.2	11.2	1.59e-03	0	59	0	133169152	55	5892
2026-01-25 22:11:40.82	42.99	12.35	-41.8	-46.2	11.2	1.42e-03	0	59	0	138412032	55	5864
2026-01-25 22:11:43.84	43.42	12.55	-41.8	-46.1	11.3	1.39e-03	0	59	0	144703488	55	5841
2026-01-25 22:11:46.87	43.86	12.74	-41.8	-46.1	11.3	1.11e-03	0	59	0	149946368	55	5849
2026-01-25 22:11:49.90	44.30	12.94	-41.7	-45.9	11.5	9.22e-04	0	59	0	156237824	55	5716
2026-01-25 22:11:52.93	44.75	13.14	-41.7	-45.9	11.6	5.50e-04	0	59	0	161480704	55	5676
2026-01-25 22:11:55.96	45.21	13.33	-41.7	-45.9	11.6	6.94e-04	0	59	0	167772160	55	5684
2026-01-25 22:11:58.99	45.67	13.53	-41.7	-46.0	11.6	7.57e-04	0	59	0	173015040	55	5734
2026-01-25 22:12:02.02	46.13	13.73	-41.6	-45.8	11.8	5.06e-04	0	60	0	178257920	55	5593
2026-01-25 22:12:05.05	46.61	13.93	-41.8	-46.0	11.6	6.96e-04	0	60	0	184549376	55	5743
2026-01-25 22:12:08.08	47.08	14.12	-41.8	-46.1	11.5	7.93e-04	0	59	0	189792256	55	5807
2026-01-25 22:12:11.11	47.57	14.32	-41.9	-46.1	11.5	9.03e-04	0	60	0	196083712	55	5849
2026-01-25 22:12:14.13	48.06	14.51	-41.8	-45.9	11.6	6.36e-04	0	60	0	201326592	55	5721
2026-01-25 22:12:17.17	48.56	14.71	-41.7	-45.8	11.9	4.71e-04	0	60	0	206569472	55	5604
2026-01-25 22:12:20.19	49.06	14.90	-41.7	-45.7	11.9	3.50e-04	0	60	0	212860928	55	5561
2026-01-25 22:12:23.23	49.57	15.10	-41.5	-45.4	12.2	1.98e-04	0	60	0	218103808	55	5371
2026-01-25 22:12:26.26	50.09	15.29	-41.4	-45.0	12.7	9.99e-05	0	60	0	224395264	54	5462
2026-01-25 22:12:29.28	50.61	15.49	-41.3	-44.9	12.8	6.94e-05	0	60	0	229638144	54	5375
2026-01-25 22:12:32.31	51.14	15.68	-41.2	-44.8	13.0	4.57e-05	0	60	0	235929600	54	5281
2026-01-25 22:12:35.34	51.68	15.87	-41.1	-44.6	13.1	2.67e-05	0	60	0	241172480	54	5214
2026-01-25 22:12:38.37	52.22	16.06	-41.1	-44.6	13.2	2.89e-05	0	60	0	246415360	54	5167
2026-01-25 22:12:41.41	52.77	16.25	-41.1	-44.6	13.2	1.67e-05	0	60	0	252706816	54	5175
2026-01-25 22:12:44.44	53.33	16.44	-41.2	-44.7	13.1	2.97e-05	0	60	0	257949696	54	5221
2026-01-25 22:12:47.46	53.89	16.63	-41.1	-44.5	13.2	1.90e-05	0	60	0	264241152	54	5153
2026-01-25 22:12:50.49	54.47	16.82	-41.1	-44.4	13.3	2.05e-05	0	60	0	269484032	54	5099
2026-01-25 22:12:53.52	55.04	17.00	-41.2	-44.7	13.1	2.89e-05	0	60	0	274726912	54	5234
2026-01-25 22:12:56.55	55.63	17.19	-41.4	-45.0	12.7	7.09e-05	0	60	0	281018368	54	5452
2026-01-25 22:12:59.59	56.22	17.37	-41.4	-45.1	12.6	8.08e-05	0	60	0	286261248	54	5514
2026-01-25 22:13:02.62	56.82	17.55	-41.4	-45.1	12.7	8.16e-05	0	60	0	292552704	54	5472
2026-01-25 22:13:05.64	57.43	17.73	-41.5	-45.2	12.6	1.01e-04	0	60	0	297795584	54	5536
2026-01-25 22:13:08.68	58.04	17.91	-41.6	-45.5	12.3	1.69e-04	0	60	0	304087040	54	5728
2026-01-25 22:13:11.70	58.66	18.09	-41.7	-45.7	12.1	2.49e-04	0	60	0	309329920	54	5886
2026-01-25 22:13:14.73	59.29	18.26	-41.8	-45.9	11.9	2.90e-04	0	60	0	314572800	54	5995
2026-01-25 22:13:17.76	59.92	18.43	-42.0	-46.2	11.6	6.44e-04	0	60	0	320864256	54	6222
2026-01-25 22:13:20.79	60.56	18.60	-42.1	-46.5	11.2	1.05e-03	0	60	0	326107136	54	6446
2026-01-25 22:13:23.83	61.21	18.77	-42.2	-46.8	10.9	1.66e-03	0	60	0	332398592	54	6661
2026-01-25 22:13:26.86	61.87	18.93	-42.2	-46.8	11.0	1.99e-03	0	60	0	337641472	55	6289
2026-01-25 22:13:29.89	62.53	19.10	-42.3	-47.1	10.7	2.99e-03	0	61	0	342884352	55	6504
2026-01-25 22:13:32.92	63.20	19.26	-42.3	-47.1	10.6	3.95e-03	0	61	0	349175808	55	6525
2026-01-25 22:13:35.95	63.88	19.41	-42.1	-46.6	11.1	1.90e-03	0	61	0	354418688	55	6169
2026-01-25 22:13:38.98	64.56	19.57	-42.0	-46.3	11.5	7.96e-04	0	61	0	360710144	55	5958
2026-01-25 22:13:42.00	65.25	19.72	-42.1	-46.5	11.3	1.22e-03	0	61	0	365953024	55	6067
2026-01-25 22:13:45.03	65.94	19.86	-42.1	-46.5	11.2	1.45e-03	0	61	0	372244480	55	6125
2026-01-25 22:13:48.06	66.65	20.01	-42.1	-46.5	11.3	1.29e-03	0	61	0	377487360	55	6064
2026-01-25 22:13:51.09	67.36	20.15	-42.0	-46.3	11.3	1.04e-03	0	61	0	382730240	55	5980
2026-01-25 22:13:54.11	68.07	20.28	-42.0	-46.3	11.4	9.73e-04	0	61	0	389021696	55	5950
2026-01-25 22:13:57.14	68.79	20.42	-42.0	-46.5	11.0	1.72e-03	0	61	0	394264576	55	6077
2026-01-25 22:14:00.17	69.52	20.55	-41.9	-46.4	11.0	2.01e-03	0	61	0	400556032	55	6019
2026-01-25 22:14:03.20	70.25	20.67	-41.8	-46.4	11.0	1.74e-03	0	61	0	405798912	55	5996
2026-01-25 22:14:06.23	70.99	20.79	-41.7	-46.2	11.1	1.49e-03	0	61	0	411041792	55	5902
2026-01-25 22:14:09.26	71.74	20.91	-41.7	-46.3	10.9	2.37e-03	0	61	0	417333248	55	5960
2026-01-25 22:14:12.29	72.49	21.02	-41.7	-46.3	10.9	2.45e-03	0	61	0	422576128	55	5978
2026-01-25 22:14:15.32	73.25	21.13	-41.6	-45.8	11.6	8.33e-04	0	61	0	428867584	55	5599
2026-01-25 22:14:18.35	74.01	21.24	-41.5	-45.6	11.7	5.32e-04	0	61	0	434110464	55	5526
2026-01-25 22:14:21.38	74.77	21.33	-41.6	-45.7	11.6	6.48e-04	0	61	0	440401920	55	5589
2026-01-25 22:14:24.41	75.54	21.43	-41.6	-45.9	11.5	7.54e-04	0	61	0	445644800	55	5668
2026-01-25 22:14:27.44	76.32	21.52	-41.7	-45.9	11.5	8.49e-04	0	61	0	450887680	55	5683
2026-01-25 22:14:30.47	77.10	21.60	-41.7	-46.0	11.4	9.28e-04	0	61	0	457179136	55	5748
2026-01-25 22:14:33.50	77.88	21.68	-42.0	-46.6	10.9	2.33e-03	0	61	0	462422016	55	6155
2026-01-25 22:14:36.53	78.67	21.76	-42.0	-46.7	10.8	2.58e-03	0	61	0	468713472	55	6213
2026-01-25 22:14:39.56	79.46	21.83	-41.9	-46.3	11.2	1.50e-03	0	61	0	473956352	55	5932
2026-01-25 22:14:42.59	80.26	21.89	-41.6	-45.7	11.7	4.90e-04	0	61	0	479199232	55	5580
2026-01-25 22:14:45.62	81.06	21.95	-41.7	-46.0	11.6	6.38e-04	0	61	0	485490688	55	5725
2026-01-25 22:14:48.65	81.86	22.00	-41.9	-46.2	11.3	8.95e-04	0	61	0	490733568	55	5899
2026-01-25 22:14:51.68	82.66	22.05	-41.9	-46.4	11.2	1.29e-03	0	61	0	497025024	55	6001
2026-01-25 22:14:54.71	83.47	22.09	-41.6	-45.7	11.9	4.70e-04	0	61	0	502267904	55	5557
2026-01-25 22:14:57.74	84.28	22.12	-41.8	-46.0	11.5	6.76e-04	0	61	0	508559360	55	5776
2026-01-25 22:15:00.77	85.09	22.15	-42.0	-46.5	11.1	1.52e-03	0	61	0	513802240	55	6065
2026-01-25 22:15:03.80	85.90	22.18	-41.8	-46.1	11.4	1.25e-03	0	61	0	519045120	55	5855
2026-01-25 22:15:06.83	86.71	22.20	-41.6	-45.7	11.7	6.76e-04	0	61	0	525336576	55	5581
2026-01-25 22:15:09.87	87.53	22.21	-41.6	-45.7	11.9	3.56e-04	0	61	0	530579456	55	5554
2026-01-25 22:15:12.90	88.34	22.22	-41.9	-46.3	11.3	1.16e-03	0	61	0	536870912	55	5955
2026-01-25 22:15:15.93	89.15	22.22	-42.1	-46.6	11.0	1.95e-03	0	61	0	542113792	55	6167
2026-01-25 22:15:18.95	89.97	22.21	-42.0	-46.3	11.3	1.33e-03	0	61	0	548405248	55	5988
2026-01-25 22:15:21.98	90.78	22.20	-41.8	-46.0	11.7	5.87e-04	0	61	0	553648128	55	5730
2026-01-25 22:15:25.01	91.59	22.18	-41.8	-45.8	12.1	2.85e-04	0	61	0	558891008	55	5604
2026-01-25 22:15:28.05	92.41	22.16	-41.9	-45.9	11.9	2.81e-04	0	61	0	565182464	55	5703
2026-01-25 22:15:31.08	93.22	22.13	-42.1	-46.4	11.4	1.01e-03	0	61	0	570425344	55	6005
2026-01-25 22:15:34.11	94.03	22.10	-41.9	-45.9	12.0	3.94e-04	0	61	0	576716800	55	5712
2026-01-25 22:15:37.13	94.83	22.06	-41.8	-45.8	12.1	2.83e-04	0	61	0	581959680	55	5617
2026-01-25 22:15:40.17	95.64	22.02	-41.7	-45.4	12.5	1.43e-04	0	61	0	587202560	55	5365
2026-01-25 22:15:43.20	96.44	21.96	-41.6	-45.2	12.8	5.72e-05	0	61	0	593494016	55	5240
2026-01-25 22:15:46.23	97.24	21.91	-41.6	-45.3	12.6	7.01e-05	0	61	0	598736896	55	5318
2026-01-25 22:15:49.26	98.04	21.85	-41.5	-45.1	12.9	5.41e-05	0	61	0	605028352	55	5185
2026-01-25 22:15:52.29	98.84	21.78	-41.6	-45.3	12.7	6.94e-05	0	61	0	610271232	54	5612
2026-01-25 22:15:55.31	99.62	21.71	-41.8	-45.7	12.3	1.54e-04	0	61	0	616562688	54	5886
2026-01-25 22:15:58.34	100.41	21.63	-41.7	-45.4	12.5	9.15e-05	0	61	0	621805568	54	5713
2026-01-25 22:16:01.37	101.19	21.55	-41.4	-44.9	13.1	3.12e-05	0	61	0	627048448	54	5350
2026-01-25 22:16:04.40	101.97	21.46	-41.0	-44.2	13.9	8.30e-06	0	61	0	633339904	54	4941
2026-01-25 22:16:07.43	102.75	21.36	-41.1	-44.4	13.6	5.30e-06	0	61	0	638582784	53	5353
2026-01-25 22:16:10.46	103.52	21.27	-41.4	-44.8	13.2	1.60e-05	0	61	0	644874240	53	5645
2026-01-25 22:16:13.49	104.28	21.16	-41.3	-44.7	13.3	1.60e-05	0	61	0	650117120	53	5561
2026-01-25 22:16:16.52	105.04	21.06	-41.2	-44.5	13.5	1.06e-05	0	61	0	655360000	53	5415
2026-01-25 22:16:19.54	105.80	20.95	-40.8	-43.8	14.2	7.00e-07	0	61	0	661651456	53	5001
2026-01-25 22:16:22.57	106.55	20.83	-40.7	-43.7	14.3	1.50e-06	0	61	0	666894336	53	4963
2026-01-25 22:16:25.60	107.29	20.71	-40.7	-43.7	14.3	2.20e-06	0	61	0	673185792	53	4968
2026-01-25 22:16:28.63	108.03	20.58	-40.9	-44.0	14.0	1.50e-06	0	61	0	678428672	53	5148
2026-01-25 22:16:31.66	108.76	20.46	-41.2	-44.6	13.3	1.06e-05	0	61	0	684720128	53	5528
2026-01-25 22:16:34.69	109.49	20.32	-41.3	-44.8	13.2	2.89e-05	0	61	0	689963008	53	5610
2026-01-25 22:16:37.72	110.21	20.19	-41.2	-44.6	13.3	2.13e-05	0	61	0	695205888	53	5503
2026-01-25 22:16:40.76	110.92	20.05	-41.1	-44.3	13.7	3.00e-06	0	61	0	701497344	53	5315
2026-01-25 22:16:43.78	111.63	19.90	-41.0	-44.2	13.8	3.80e-06	0	61	0	706740224	53	5233
2026-01-25 22:16:46.81	112.33	19.75	-41.5	-45.2	12.8	4.04e-05	0	61	0	713031680	53	5894
2026-01-25 22:16:49.84	113.02	19.60	-41.9	-45.9	12.1	2.72e-04	0	61	0	718274560	54	5998
2026-01-25 22:16:52.87	113.71	19.45	-42.0	-46.1	11.8	3.94e-04	0	61	0	723517440	54	6150
2026-01-25 22:16:55.90	114.39	19.29	-41.9	-46.0	11.9	3.65e-04	0	61	0	729808896	54	6068
2026-01-25 22:16:58.93	115.07	19.13	-41.7	-45.6	12.3	1.93e-04	0	61	0	735051776	54	5820
2026-01-25 22:17:01.96	115.73	18.97	-41.5	-45.1	12.8	6.33e-05	0	61	0	741343232	54	5528
2026-01-25 22:17:05.00	116.40	18.81	-41.7	-45.6	12.3	1.36e-04	0	61	0	746586112	54	5802
2026-01-25 22:17:08.02	117.05	18.64	-41.9	-46.0	11.9	4.25e-04	0	61	0	752877568	54	6066
2026-01-25 22:17:11.05	117.69	18.47	-42.0	-46.2	11.7	5.70e-04	0	61	0	758120448	54	6210
2026-01-25 22:17:14.07	118.33	18.30	-41.6	-45.5	12.4	2.07e-04	0	61	0	763363328	54	5731
2026-01-25 22:17:17.10	118.96	18.12	-41.2	-45.0	12.8	1.17e-04	0	61	0	769654784	53	5740
2026-01-25 22:17:20.14	119.59	17.95	-41.5	-45.3	12.6	1.02e-04	0	61	0	774897664	53	5952
2026-01-25 22:17:23.17	120.21	17.77	-41.6	-45.4	12.4	1.85e-03	0	61	0	781189120	53	6054
2026-01-25 22:17:26.19	120.82	17.59	-41.5	-45.2	12.6	8.08e-05	0	62	0	786432000	53	5906
2026-01-25 22:17:29.22	121.42	17.40	-41.7	-45.7	12.1	1.04e-03	0	61	0	791674880	53	6208
2026-01-25 22:17:32.26	122.02	17.22	-41.6	-45.7	12.1	6.61e-03	0	61	0	797966336	53	6214
2026-01-25 22:17:35.29	122.61	17.03	-41.7	-45.8	12.0	3.39e-03	0	61	0	803209216	54	5942
2026-01-25 22:17:38.32	123.19	16.85	-41.8	-45.9	11.9	4.87e-04	0	61	0	809500672	54	6026
2026-01-25 22:17:41.35	123.77	16.66	-41.4	-45.2	12.6	3.30e-04	0	61	0	814743552	53	5865
2026-01-25 22:17:44.38	124.34	16.47	-41.4	-45.2	12.5	1.50e-04	0	62	0	821035008	53	5892
2026-01-25 22:17:47.41	124.90	16.28	-41.9	-46.2	11.5	9.31e-04	0	62	0	826277888	54	6252
2026-01-25 22:17:50.44	125.45	16.09	-41.7	-45.9	11.8	5.81e-04	0	62	0	831520768	54	6013
2026-01-25 22:17:53.47	126.00	15.89	-41.4	-45.3	12.4	3.10e-04	0	62	0	837812224	53	5932
2026-01-25 22:17:56.50	126.54	15.70	-41.6	-45.7	11.9	7.04e-03	0	61	0	843055104	53	6220
2026-01-25 22:17:59.54	127.08	15.51	-41.5	-45.6	11.9	1.22e-03	0	61	0	849346560	53	6188
2026-01-25 22:18:02.57	127.61	15.31	-40.8	-44.7	12.2	1.26e-02	0	62	0	854589440	51	6213
2026-01-25 22:18:05.60	128.13	15.11	-41.2	-45.4	11.5	9.14e-03	0	62	0	860880896	52	6382
2026-01-25 22:18:08.63	128.64	14.92	-41.4	-46.1	10.6	2.02e-02	0	61	0	866123776	52	6893
2026-01-25 22:18:11.66	129.15	14.72	-40.9	-45.5	9.4	6.45e-02	8	61	0	871366656	51	6831
2026-01-25 22:18:14.69	129.65	14.52	-38.1	-45.5	9.3	1.72e-01	8	62	0	876609536	50	7223
2026-01-25 22:18:17.72	130.15	14.33	-35.4	-45.7	8.9	2.21e-01	8	61	0	882900992	47	8852
2026-01-25 22:18:20.75	130.64	14.13	-36.5	-45.6	7.9	3.17e-01	17	61	0	888143872	46	9279
2026-01-25 22:18:23.78	131.12	13.93	-37.2	-45.0	7.8	6.03e-01	15	61	0	892338176	44	9653
2026-01-25 22:18:26.81	131.59	13.73	-37.0	-45.3	8.4	3.03e-01	19	62	0	895483904	45	9434
2026-01-25 22:18:29.84	132.06	13.53	-35.9	-45.9	6.9	4.76e-01	84	61	0	901775360	38	15135
2026-01-25 22:18:32.86	132.53	13.33	-34.5	-44.9	7.7	5.96e-01	52	62	0	902823936	42	10694
2026-01-25 22:18:35.89	132.98	13.13	-35.1	-45.4	7.7	4.14e-01	37	62	0	908066816	42	11413
2026-01-25 22:18:38.92	133.44	12.93	-37.0	-45.7	8.0	1.26e+00	19	61	0	911212544	45	9834
2026-01-25 22:18:41.95	133.88	12.74	-38.9	-46.6	7.7	3.25e-01	17	62	0	916455424	47	9752
2026-01-25 22:18:44.98	134.32	12.54	-32.6	-45.1	6.2	3.29e-01	62	62	0	921698304	39	13058
2026-01-25 22:18:48.01	134.76	12.34	-40.8	-46.3	9.3	1.20e-01	10	61	0	927989760	50	7983
2026-01-25 22:18:51.04	135.19	12.14	-40.4	-46.8	8.5	1.26e-01	2	62	0	933232640	51	7916
2026-01-25 22:18:54.07	135.61	11.94	-40.0	-47.0	8.9	2.16e-01	1	62	0	937426944	52	7647
2026-01-25 22:18:57.10	136.03	11.74	-37.2	-46.7	8.5	8.86e-02	4	61	0	942669824	48	9303
2026-01-25 22:19:00.13	136.44	11.54	-41.1	-46.2	10.0	3.42e-02	0	62	0	947912704	51	7381
2026-01-25 22:19:03.16	136.85	11.35	-33.9	-45.6	7.3	2.53e-01	42	62	0	954204160	46	9263
2026-01-25 22:19:06.19	137.25	11.15	-40.5	-46.1	9.9	2.11e-02	0	62	0	959447040	51	7330
2026-01-25 22:19:09.22	137.64	10.95	-34.2	-45.7	8.4	8.91e-02	25	62	0	964689920	51	7004
2026-01-25 22:19:12.25	138.04	10.76	-41.2	-47.0	9.3	1.89e-02	0	61	0	969932800	52	7641
2026-01-25 22:19:15.28	138.42	10.56	-41.5	-50.4	6.0	2.64e-01	0	62	0	975175680	54	10108
2026-01-25 22:19:18.32	138.80	10.36	-42.4	-52.4	4.8	7.53e-01	3	62	0	981467136	55	11962
2026-01-25 22:19:21.35	139.18	10.17	-43.6	-55.6	3.8	1.49e+00	0	62	104	983564288	57	15512
2026-01-25 22:19:24.38	139.55	9.97	-41.4	-46.4	10.1	5.15e-02	0	61	0	987758592	54	6408
2026-01-25 22:19:27.41	139.92	9.78	-41.6	-46.9	9.7	3.02e-02	0	62	0	994050048	53	7163
2026-01-25 22:19:30.44	140.28	9.58	-41.6	-46.7	9.9	1.20e-02	0	62	0	999292928	54	6645
2026-01-25 22:19:33.47	140.64	9.39	-41.8	-47.4	9.2	1.46e-02	0	62	0	1004535808	54	7191
2026-01-25 22:19:36.50	140.99	9.20	-42.0	-47.6	9.1	2.63e-02	0	62	0	1010827264	54	7370
2026-01-25 22:19:39.53	141.34	9.01	-42.2	-48.2	8.5	3.12e-02	0	62	0	1016070144	54	7844
2026-01-25 22:19:42.56	141.69	8.81	-42.2	-48.4	8.3	5.26e-02	0	62	0	1022361600	55	7595
2026-01-25 22:19:45.59	142.03	8.62	-42.2	-48.6	8.2	5.55e-02	0	62	0	1027604480	55	7723
2026-01-25 22:19:48.62	142.36	8.43	-42.1	-48.3	8.4	5.28e-02	0	61	0	1032847360	55	7475
2026-01-25 22:19:51.65	142.69	8.24	-42.2	-48.4	8.3	5.39e-02	0	61	0	1039138816	55	7576
2026-01-25 22:19:54.68	143.02	8.05	-42.1	-48.4	8.2	5.10e-02	0	61	0	1044381696	55	7583
2026-01-25 22:19:57.71	143.34	7.87	-42.5	-59.2	3.9	1.49e+00	0	62	104	1046478848	59	20826
2026-01-25 22:20:00.74	143.66	7.68	-45.4	-60.2	3.8	1.49e+00	0	62	104	1046478848	61	20870
2026-01-25 22:20:03.77	143.98	7.49	-45.6	-60.3	3.8	1.49e+00	0	62	104	1046478848	61	21250
2026-01-25 22:20:06.80	144.29	7.30	-45.5	-60.1	3.8	1.49e+00	0	62	104	1046478848	61	20741
2026-01-25 22:20:09.83	144.60	7.12	-45.4	-60.0	3.8	1.49e+00	0	62	104	1046478848	61	20482
2026-01-25 22:20:12.86	144.90	6.93	-45.2	-59.8	3.8	1.49e+00	0	62	104	1046478848	61	19923
2026-01-25 22:20:15.89	145.20	6.75	-45.2	-59.8	3.8	1.49e+00	0	62	104	1046478848	61	19918
2026-01-25 22:20:18.92	145.50	6.56	-45.2	-59.7	3.8	1.49e+00	0	62	104	1046478848	61	19840
2026-01-25 22:20:21.95	145.79	6.38	-45.2	-59.8	3.8	1.49e+00	0	62	104	1046478848	61	19843
2026-01-25 22:20:24.98	146.08	6.20	-45.2	-59.8	3.8	1.49e+00	0	61	104	1046478848	61	19886
2026-01-25 22:20:28.01	146.37	6.02	-45.2	-59.8	3.8	1.49e+00	0	62	104	1046478848	61	19854
2026-01-25 22:20:31.04	146.65	5.83	-45.1	-59.8	3.8	1.49e+00	0	62	104	1046478848	61	19888
2026-01-25 22:20:34.07	146.93	5.65	-45.2	-59.7	3.8	1.49e+00	0	62	104	1046478848	61	19804
2026-01-25 22:20:37.10	147.20	5.47	-45.1	-59.8	3.8	1.49e+00	0	62	104	1046478848	61	19851
2026-01-25 22:20:40.13	147.48	5.29	-45.1	-59.8	3.8	1.49e+00	0	62	104	1046478848	61	19852
2026-01-25 22:20:43.16	147.74	5.12	-45.1	-59.7	3.8	1.49e+00	0	62	104	1046478848	61	19691
2026-01-25 22:20:46.19	148.01	4.94	-45.1	-59.7	3.8	1.49e+00	0	62	104	1046478848	61	19756
2026-01-25 22:20:49.22	148.27	4.76	-45.1	-59.7	3.8	1.49e+00	0	62	104	1046478848	61	19771
2026-01-25 22:20:52.25	148.53	4.58	-45.1	-59.7	3.8	1.49e+00	0	62	104	1046478848	61	19745
2026-01-25 22:20:55.29	148.79	4.41	-45.1	-59.7	3.8	1.49e+00	0	62	104	1046478848	61	19699
2026-01-25 22:20:58.32	149.05	4.23	-45.1	-59.7	3.8	1.49e+00	0	62	104	1046478848	61	19758
2026-01-25 22:21:01.35	149.30	4.06	-45.1	-59.7	3.8	1.49e+00	0	62	104	1046478848	61	19667
2026-01-25 22:21:04.38	149.55	3.89	-45.1	-59.7	3.8	1.49e+00	0	62	104	1046478848	61	19741
2026-01-25 22:21:07.41	149.79	3.71	-45.1	-59.7	3.8	1.49e+00	0	62	104	1046478848	61	19713
2026-01-25 22:21:10.44	150.04	3.54	-45.1	-59.6	3.8	1.49e+00	0	62	104	1046478848	61	19613
2026-01-25 22:21:13.47	150.28	3.37	-45.1	-59.7	3.8	1.49e+00	0	62	104	1046478848	61	19659
2026-01-25 22:21:16.51	150.51	3.20	-45.1	-59.7	3.8	1.49e+00	0	62	104	1046478848	61	19715
2026-01-25 22:21:19.54	150.75	3.03	-45.1	-59.7	3.8	1.49e+00	0	62	104	1046478848	61	19649
2026-01-25 22:21:22.57	150.98	2.86	-45.1	-59.7	3.8	1.49e+00	0	62	104	1046478848	61	19639
2026-01-25 22:21:25.60	151.21	2.69	-45.1	-59.6	3.8	1.49e+00	0	62	104	1046478848	61	19590
2026-01-25 22:21:28.63	151.44	2.52	-45.1	-59.7	3.8	1.49e+00	0	62	104	1046478848	61	19686
2026-01-25 22:21:31.66	151.66	2.35	-45.1	-59.7	3.8	1.49e+00	0	62	104	1046478848	61	19682
2026-01-25 22:21:34.70	151.89	2.18	-45.0	-59.6	3.8	1.49e+00	0	62	104	1046478848	61	19603
2026-01-25 22:21:37.72	152.11	2.02	-45.0	-59.6	3.8	1.49e+00	0	62	104	1046478848	61	19602

#Closed at: 2026-01-25 22:21:38
#Recorded file [1046 MB]: D:/lorett/data/31039_260126_010847.dat