passes_logs/2026/01/25/R2.0S_Moscow/R2.0S_Moscow__20260125_191347_FENGYUN_3G_rec.log

#Pass ID: 20260125_191347_FENGYUN 3G
#Satellite: FENGYUN 3G
#Configuration: FENGYUN 3G
#almurnet v.1.7.20251203
#Start time: 2026-01-25 19:13:46

#Version: 2.2.20231116
#Station: R2.0S_Moscow
#Location: 37.707566 lon 55.798166 lat
#TLE: 1 56232U 23055A   26025.14527328  .00046082  00000+0  69370-3 0  9997
#TLE: 2 56232  49.9948   3.5622 0004071  80.7231 279.4197 15.54300718157774

#Time	Az	El	Level	Level2	SNR	BER	BlckErr	Temp	State	Recorded	gain1	gain2
2026-01-25 19:13:46.88	253.19	1.99	-44.2	-62.4	3.8	8.46e-01	0	52	0	0	60	28480
2026-01-25 19:13:49.91	253.00	2.19	-44.2	-62.4	3.8	8.46e-01	0	52	104	0	60	28363
2026-01-25 19:13:52.95	252.81	2.40	-44.2	-62.4	3.8	8.46e-01	0	52	104	0	60	28401
2026-01-25 19:13:55.98	252.61	2.60	-44.2	-62.3	3.8	8.46e-01	0	52	104	0	60	28296
2026-01-25 19:13:59.01	252.41	2.80	-44.2	-62.3	3.8	8.46e-01	0	53	104	0	60	28229
2026-01-25 19:14:02.04	252.21	3.01	-44.2	-62.2	3.8	8.46e-01	0	53	104	0	60	28012
2026-01-25 19:14:05.07	252.00	3.22	-44.2	-62.3	3.8	8.47e-01	0	53	104	0	60	28274
2026-01-25 19:14:08.10	251.79	3.43	-44.2	-62.3	3.8	8.46e-01	0	53	104	0	60	28133
2026-01-25 19:14:11.14	251.58	3.65	-44.2	-62.3	3.8	8.46e-01	0	54	104	0	60	28083
2026-01-25 19:14:14.17	251.35	3.86	-44.2	-62.3	3.8	8.46e-01	0	54	104	0	60	28276
2026-01-25 19:14:17.20	251.13	4.08	-44.2	-62.1	3.8	8.46e-01	0	54	104	0	60	27399
2026-01-25 19:14:20.23	250.90	4.30	-44.2	-61.4	3.8	8.46e-01	0	54	104	0	60	25538
2026-01-25 19:14:23.26	250.66	4.52	-44.2	-61.2	3.8	8.46e-01	0	54	104	0	60	24705
2026-01-25 19:14:26.30	250.42	4.75	-44.2	-61.7	3.8	8.46e-01	0	54	104	0	60	26336
2026-01-25 19:14:29.33	250.17	4.98	-44.2	-61.8	3.8	8.45e-01	0	54	104	0	60	26550
2026-01-25 19:14:32.36	249.92	5.21	-44.1	-60.6	3.8	8.46e-01	0	55	104	0	60	23128
2026-01-25 19:14:35.39	249.66	5.44	-44.1	-59.3	3.9	8.43e-01	0	55	104	0	60	19922
2026-01-25 19:14:38.42	249.40	5.68	-44.0	-58.1	4.3	8.34e-01	0	55	0	0	60	17476
2026-01-25 19:14:41.45	249.12	5.92	-44.0	-57.7	4.5	8.27e-01	0	55	0	0	60	16656
2026-01-25 19:14:44.48	248.85	6.16	-44.0	-56.3	5.3	7.96e-01	0	55	0	0	59	14941
2026-01-25 19:14:47.52	248.56	6.40	-43.7	-52.9	8.0	2.85e-01	0	56	0	2621440	59	10168
2026-01-25 19:14:50.55	248.27	6.65	-43.2	-50.4	10.7	2.12e-02	0	56	0	5767168	58	7995
2026-01-25 19:14:53.58	247.97	6.90	-43.2	-50.7	10.5	2.29e-03	0	56	0	9437184	58	8284
2026-01-25 19:14:56.61	247.66	7.16	-44.0	-55.6	5.8	2.54e-02	0	56	0	12582912	58	14651
2026-01-25 19:14:59.64	247.35	7.41	-43.9	-54.8	6.3	8.21e-01	0	56	0	13107200	58	13300
2026-01-25 19:15:02.67	247.03	7.67	-42.2	-47.3	13.9	4.75e-02	0	56	0	16252928	56	6299
2026-01-25 19:15:05.70	246.70	7.94	-41.0	-44.9	16.2	0.00e+00	0	57	0	19922944	54	5376
2026-01-25 19:15:08.74	246.36	8.21	-42.8	-49.0	12.3	1.20e-04	0	57	0	23592960	56	7707
2026-01-25 19:15:11.77	246.01	8.48	-43.3	-51.1	11.4	3.21e-02	0	56	0	26738688	57	9263
2026-01-25 19:15:14.80	245.65	8.75	-40.6	-44.2	17.0	0.00e+00	0	56	0	29884416	53	5228
2026-01-25 19:15:17.83	245.29	9.03	-40.5	-43.9	17.3	0.00e+00	0	57	0	33554432	52	5362
2026-01-25 19:15:20.85	244.91	9.31	-40.2	-43.5	17.8	0.00e+00	0	57	0	36700160	52	5110
2026-01-25 19:15:23.89	244.52	9.60	-40.0	-43.1	18.1	0.00e+00	0	57	0	40370176	52	4909
2026-01-25 19:15:26.92	244.12	9.89	-40.1	-43.3	18.0	0.00e+00	0	57	0	43515904	52	4991
2026-01-25 19:15:29.95	243.72	10.19	-40.3	-43.5	17.8	0.00e+00	0	57	0	47185920	52	5134
2026-01-25 19:15:32.97	243.30	10.49	-40.2	-43.3	18.1	0.00e+00	0	57	0	50331648	52	5002
2026-01-25 19:15:36.00	242.86	10.79	-39.9	-42.8	18.7	0.00e+00	0	57	0	54001664	51	4986
2026-01-25 19:15:39.04	242.42	11.10	-40.0	-42.9	18.5	0.00e+00	0	57	0	57147392	51	5096
2026-01-25 19:15:42.07	241.96	11.41	-40.0	-43.0	18.5	0.00e+00	0	57	0	60817408	51	5107
2026-01-25 19:15:45.09	241.49	11.73	-39.9	-42.8	18.7	0.00e+00	0	58	0	63963136	51	5031
2026-01-25 19:15:48.12	241.01	12.05	-39.9	-42.7	18.8	0.00e+00	0	58	0	67633152	51	4958
2026-01-25 19:15:51.15	240.51	12.38	-39.6	-42.2	19.3	0.00e+00	0	58	0	70778880	51	4704
2026-01-25 19:15:54.18	239.99	12.71	-39.4	-42.1	19.5	0.00e+00	0	58	0	74448896	50	4886
2026-01-25 19:15:57.21	239.46	13.05	-39.6	-42.4	19.3	0.00e+00	0	58	0	77594624	50	5043
2026-01-25 19:16:00.24	238.91	13.39	-39.6	-42.3	19.3	0.00e+00	0	58	0	81264640	50	5030
2026-01-25 19:16:03.27	238.35	13.73	-39.4	-41.9	19.6	0.00e+00	0	58	0	84410368	50	4814
2026-01-25 19:16:06.30	237.77	14.09	-39.1	-41.6	20.0	0.00e+00	0	58	0	88080384	50	4613
2026-01-25 19:16:09.33	237.17	14.44	-39.3	-41.9	19.8	0.00e+00	0	58	0	91226112	50	4778
2026-01-25 19:16:12.36	236.55	14.80	-39.3	-41.8	19.9	0.00e+00	0	58	0	94896128	50	4739
2026-01-25 19:16:15.38	235.92	15.17	-39.1	-41.5	20.2	0.00e+00	0	58	0	98041856	50	4559
2026-01-25 19:16:18.42	235.25	15.54	-38.8	-41.1	20.6	0.00e+00	0	58	0	101711872	49	4631
2026-01-25 19:16:21.45	234.57	15.92	-38.9	-41.2	20.5	0.00e+00	0	59	0	104857600	49	4684
2026-01-25 19:16:24.48	233.87	16.30	-38.8	-41.1	20.6	0.00e+00	0	58	0	108527616	49	4634
2026-01-25 19:16:27.51	233.15	16.69	-38.2	-40.4	21.3	0.00e+00	0	58	0	111673344	48	4512
2026-01-25 19:16:30.54	232.40	17.08	-38.5	-40.7	21.1	0.00e+00	0	59	0	115343360	48	4686
2026-01-25 19:16:33.57	231.62	17.48	-38.5	-40.7	21.1	0.00e+00	0	58	0	118489088	48	4673
2026-01-25 19:16:36.60	230.82	17.88	-38.5	-40.7	21.1	0.00e+00	0	59	0	122159104	48	4678
2026-01-25 19:16:39.62	229.99	18.28	-38.4	-40.6	21.2	0.00e+00	0	58	0	125304832	48	4617
2026-01-25 19:16:42.66	229.14	18.70	-38.3	-40.4	21.4	0.00e+00	0	58	0	128974848	48	4527
2026-01-25 19:16:45.68	228.25	19.11	-38.1	-40.2	21.6	0.00e+00	0	58	0	132120576	47	4678
2026-01-25 19:16:48.72	227.34	19.53	-38.2	-40.4	21.5	0.00e+00	0	59	0	135790592	47	4761
2026-01-25 19:16:51.75	226.39	19.95	-38.1	-40.3	21.5	0.00e+00	0	59	0	138936320	47	4724
2026-01-25 19:16:54.78	225.41	20.37	-37.5	-39.4	22.3	0.00e+00	0	59	0	142606336	46	4539
2026-01-25 19:16:57.81	224.40	20.80	-37.8	-39.8	22.0	0.00e+00	0	59	0	145752064	46	4755
2026-01-25 19:17:00.84	223.35	21.22	-37.7	-39.7	22.1	0.00e+00	0	59	0	149422080	46	4675
2026-01-25 19:17:03.87	222.27	21.65	-37.3	-39.3	22.6	0.00e+00	0	59	0	152567808	46	4449
2026-01-25 19:17:06.90	221.15	22.08	-37.5	-39.5	22.4	0.00e+00	0	59	0	156237824	46	4554
2026-01-25 19:17:09.91	220.01	22.50	-37.6	-39.6	22.3	0.00e+00	0	59	0	159383552	46	4636
2026-01-25 19:17:12.95	218.81	22.93	-37.6	-39.6	22.4	0.00e+00	0	59	0	163053568	46	4618
2026-01-25 19:17:15.97	217.58	23.35	-36.9	-38.7	23.2	0.00e+00	0	59	0	166199296	45	4438
2026-01-25 19:17:19.01	216.31	23.77	-37.0	-38.8	23.0	0.00e+00	0	59	0	169869312	45	4471
2026-01-25 19:17:22.03	215.00	24.19	-37.0	-38.8	23.0	0.00e+00	0	59	0	173015040	45	4492
2026-01-25 19:17:25.06	213.64	24.60	-37.2	-39.1	22.7	0.00e+00	0	59	0	176685056	45	4643
2026-01-25 19:17:28.09	212.25	25.00	-36.9	-38.7	23.2	0.00e+00	0	59	0	179830784	45	4414
2026-01-25 19:17:31.13	210.81	25.39	-36.8	-38.6	23.3	0.00e+00	0	59	0	183500800	45	4344
2026-01-25 19:17:34.15	209.34	25.77	-36.9	-38.8	23.1	0.00e+00	0	59	0	186646528	45	4443
2026-01-25 19:17:37.18	207.82	26.14	-36.7	-38.5	23.3	0.00e+00	0	59	0	190316544	45	4320
2026-01-25 19:17:40.21	206.26	26.50	-36.8	-38.6	23.3	0.00e+00	0	59	0	193462272	45	4346
2026-01-25 19:17:43.24	204.66	26.84	-36.6	-38.4	23.5	0.00e+00	0	60	0	197132288	45	4260
2026-01-25 19:17:46.27	203.03	27.17	-36.6	-38.3	23.5	0.00e+00	0	59	0	200278016	44	4481
2026-01-25 19:17:49.29	201.36	27.47	-36.4	-38.1	23.7	0.00e+00	0	59	0	203948032	44	4391
2026-01-25 19:17:52.32	199.65	27.76	-36.5	-38.3	23.6	0.00e+00	0	59	0	207093760	44	4465
2026-01-25 19:17:55.35	197.90	28.02	-36.4	-38.1	23.7	0.00e+00	0	59	0	210763776	44	4368
2026-01-25 19:17:58.38	196.13	28.26	-36.6	-38.3	23.4	0.00e+00	0	60	0	213909504	44	4484
2026-01-25 19:18:01.41	194.32	28.48	-36.3	-38.0	23.9	0.00e+00	0	60	0	217579520	44	4294
2026-01-25 19:18:04.44	192.49	28.66	-36.7	-38.5	23.4	0.00e+00	0	59	0	220725248	44	4552
2026-01-25 19:18:07.47	190.64	28.82	-37.2	-39.1	22.7	0.00e+00	0	59	0	224395264	45	4627
2026-01-25 19:18:10.50	188.77	28.95	-37.2	-39.1	22.8	0.00e+00	0	60	0	227540992	45	4607
2026-01-25 19:18:13.54	186.88	29.05	-36.7	-38.5	23.3	0.00e+00	0	60	0	231211008	45	4305
2026-01-25 19:18:16.57	184.98	29.12	-36.7	-38.4	23.4	0.00e+00	0	60	0	234356736	44	4533
2026-01-25 19:18:19.60	183.07	29.16	-36.9	-38.7	23.1	0.00e+00	0	60	0	238026752	44	4695
2026-01-25 19:18:22.63	181.17	29.16	-36.5	-38.3	23.5	0.00e+00	0	60	0	241172480	44	4461
2026-01-25 19:18:25.66	179.26	29.14	-36.8	-38.6	23.3	0.00e+00	0	60	0	244842496	44	4626
2026-01-25 19:18:28.69	177.36	29.08	-37.0	-38.8	23.1	0.00e+00	0	60	0	247988224	44	4721
2026-01-25 19:18:31.72	175.47	28.99	-37.0	-38.8	23.2	0.00e+00	0	60	0	251658240	46	4241
2026-01-25 19:18:34.74	173.60	28.87	-37.2	-39.0	22.9	0.00e+00	0	60	0	254803968	46	4320
2026-01-25 19:18:37.77	171.74	28.72	-36.6	-38.4	23.5	0.00e+00	0	60	0	258473984	45	4266
2026-01-25 19:18:40.80	169.90	28.54	-36.7	-38.5	23.4	0.00e+00	0	60	0	261619712	44	4579
2026-01-25 19:18:43.83	168.09	28.34	-36.8	-38.6	23.4	0.00e+00	0	60	0	265289728	44	4616
2026-01-25 19:18:46.86	166.30	28.11	-36.8	-38.5	23.5	0.00e+00	0	60	0	268435456	44	4593
2026-01-25 19:18:49.89	164.55	27.85	-36.6	-38.4	23.7	0.00e+00	0	60	0	272105472	44	4501
2026-01-25 19:18:52.92	162.83	27.57	-36.5	-38.2	23.8	0.00e+00	0	60	0	275251200	44	4430
2026-01-25 19:18:55.94	161.15	27.28	-36.3	-38.0	23.9	0.00e+00	0	60	0	278921216	44	4334
2026-01-25 19:18:58.98	159.49	26.96	-37.3	-39.2	22.9	0.00e+00	0	60	0	282066944	45	4665
2026-01-25 19:19:02.01	157.88	26.62	-36.6	-38.4	23.6	0.00e+00	0	60	0	285736960	45	4270
2026-01-25 19:19:05.04	156.31	26.27	-36.8	-38.6	23.4	0.00e+00	0	60	0	288882688	45	4375
2026-01-25 19:19:08.07	154.77	25.90	-37.4	-39.3	22.8	0.00e+00	0	60	0	292552704	45	4757
2026-01-25 19:19:11.10	153.28	25.52	-37.4	-39.3	22.8	0.00e+00	0	60	0	295698432	45	4731
2026-01-25 19:19:14.13	151.83	25.13	-37.3	-39.2	22.9	0.00e+00	0	60	0	299368448	45	4686
2026-01-25 19:19:17.16	150.42	24.73	-37.5	-39.5	22.6	0.00e+00	0	60	0	302514176	45	4830
2026-01-25 19:19:20.19	149.06	24.33	-36.9	-38.8	23.3	0.00e+00	0	60	0	306184192	45	4466
2026-01-25 19:19:23.22	147.73	23.91	-37.4	-39.3	22.8	0.00e+00	0	60	0	309329920	45	4724
2026-01-25 19:19:26.24	146.45	23.50	-37.5	-39.5	22.6	0.00e+00	0	60	0	312999936	46	4562
2026-01-25 19:19:29.27	145.20	23.07	-37.4	-39.3	22.9	0.00e+00	0	60	0	316145664	46	4461
2026-01-25 19:19:32.30	144.00	22.65	-37.7	-39.7	22.4	0.00e+00	0	60	0	319815680	46	4677
2026-01-25 19:19:35.33	142.83	22.22	-37.8	-39.9	22.3	0.00e+00	0	60	0	322961408	46	4767
2026-01-25 19:19:38.36	141.70	21.79	-37.7	-39.8	22.3	0.00e+00	0	60	0	326631424	46	4712
2026-01-25 19:19:41.39	140.61	21.37	-38.1	-40.2	21.9	0.00e+00	0	60	0	329777152	46	4954
2026-01-25 19:19:44.41	139.55	20.94	-38.2	-40.4	21.7	0.00e+00	0	60	0	333447168	47	4803
2026-01-25 19:19:47.44	138.53	20.51	-38.0	-40.2	21.9	0.00e+00	0	60	0	336592896	47	4652
2026-01-25 19:19:50.47	137.54	20.09	-38.1	-40.2	21.8	0.00e+00	0	60	0	340262912	47	4705
2026-01-25 19:19:53.50	136.58	19.67	-38.2	-40.4	21.7	0.00e+00	0	60	0	343408640	47	4774
2026-01-25 19:19:56.53	135.66	19.25	-38.4	-40.6	21.4	0.00e+00	0	60	0	347078656	47	4898
2026-01-25 19:19:59.56	134.76	18.84	-38.0	-40.4	21.5	0.00e+00	0	60	0	350224384	47	4769
2026-01-25 19:20:02.59	133.89	18.42	-38.5	-40.8	21.1	5.70e-06	0	60	0	353894400	47	5017
2026-01-25 19:20:05.62	133.06	18.02	-37.0	-40.8	19.5	2.05e-05	0	60	0	357040128	44	5948
2026-01-25 19:20:08.66	132.24	17.61	-38.6	-41.2	20.6	1.83e-05	0	60	0	360710144	48	4934
2026-01-25 19:20:11.69	131.46	17.22	-37.8	-41.0	20.6	2.20e-06	0	60	0	363855872	47	5158
2026-01-25 19:20:14.72	130.70	16.82	-38.7	-41.2	20.4	3.54e-05	0	60	0	367525888	48	4975
2026-01-25 19:20:17.74	129.97	16.43	-38.8	-41.3	20.3	1.01e-04	0	60	0	370671616	48	5040
2026-01-25 19:20:20.77	129.26	16.05	-38.7	-41.3	19.5	5.32e-04	0	60	0	374341632	48	5023
2026-01-25 19:20:23.80	128.57	15.67	-38.8	-41.5	19.1	1.00e-03	0	60	0	377487360	48	5132
2026-01-25 19:20:26.83	127.91	15.30	-36.2	-41.4	16.8	1.24e-03	0	60	0	381157376	46	5720
2026-01-25 19:20:29.86	127.26	14.93	-37.3	-42.0	17.2	1.09e-02	0	60	0	384303104	47	5746
2026-01-25 19:20:32.89	126.64	14.56	-38.1	-42.3	12.6	2.39e-02	0	60	0	387973120	37	10584
2026-01-25 19:20:35.92	126.03	14.21	-38.8	-42.4	16.7	1.56e-02	0	60	0	391118848	48	5658
2026-01-25 19:20:38.95	125.44	13.85	-39.5	-42.9	12.1	5.86e-02	0	61	0	394264576	43	7999
2026-01-25 19:20:41.98	124.87	13.50	-37.9	-42.1	15.6	6.55e-02	0	60	0	397410304	46	6142
2026-01-25 19:20:45.01	124.32	13.16	-36.9	-42.7	14.2	1.79e-01	0	60	0	400556032	47	6274
2026-01-25 19:20:48.04	123.79	12.82	-38.1	-42.7	15.7	1.91e-02	0	60	0	403701760	45	6994
2026-01-25 19:20:51.07	123.27	12.49	-24.4	-41.2	6.1	1.41e-01	0	60	0	406847488	20	24902
2026-01-25 19:20:54.10	122.76	12.16	-30.9	-42.2	9.7	8.96e-02	0	60	0	409993216	32	14040
2026-01-25 19:20:57.13	122.27	11.84	-30.9	-42.3	11.6	7.61e-02	0	60	0	413663232	35	11846
2026-01-25 19:21:00.16	121.80	11.52	-35.9	-43.4	10.4	6.70e-02	0	60	0	416808960	37	12052
2026-01-25 19:21:03.19	121.33	11.20	-31.0	-42.3	10.9	5.96e-02	0	60	0	420478976	35	11823
2026-01-25 19:21:06.22	120.88	10.90	-31.0	-43.8	8.8	6.04e-02	0	60	0	423624704	36	13373
2026-01-25 19:21:09.25	120.45	10.59	-32.8	-43.6	9.9	1.02e-01	0	60	0	426770432	33	15469
2026-01-25 19:21:12.28	120.02	10.29	-27.4	-44.2	6.7	1.19e-01	0	60	0	429916160	25	26211
2026-01-25 19:21:15.31	119.61	9.99	-27.7	-44.3	8.0	5.17e-01	0	60	0	432013312	25	26744
2026-01-25 19:21:18.34	119.21	9.70	-13.9	-40.6	3.7	5.74e-01	0	61	0	432537600	7	48975
2026-01-25 19:21:21.37	118.82	9.41	-21.8	-42.1	6.1	6.84e-01	0	60	0	432537600	15	36665
2026-01-25 19:21:24.40	118.44	9.13	-22.3	-42.7	4.4	8.12e-01	0	61	104	432537600	16	37250
2026-01-25 19:21:27.43	118.07	8.85	-20.3	-44.6	3.8	8.38e-01	0	61	104	432537600	18	41164
2026-01-25 19:21:30.47	117.71	8.57	-23.0	-42.1	3.9	8.33e-01	0	60	104	432537600	16	34824
2026-01-25 19:21:33.49	117.36	8.30	-22.7	-41.3	4.1	8.36e-01	0	60	104	432537600	15	33532
2026-01-25 19:21:36.52	117.01	8.03	-18.3	-41.2	4.3	8.37e-01	0	61	104	432537600	14	35271
2026-01-25 19:21:39.55	116.68	7.76	-45.1	-63.5	3.8	8.45e-01	0	61	104	432537600	60	32209
2026-01-25 19:21:42.58	116.36	7.50	-45.7	-63.9	3.8	8.47e-01	0	61	104	432537600	61	32004
2026-01-25 19:21:45.61	116.04	7.24	-46.0	-64.3	3.8	8.46e-01	0	61	104	432537600	62	31534
2026-01-25 19:21:48.65	115.73	6.99	-45.7	-63.9	3.8	8.46e-01	0	61	104	432537600	62	30284
2026-01-25 19:21:51.68	115.43	6.73	-45.5	-63.7	3.8	8.46e-01	0	61	104	432537600	62	29362
2026-01-25 19:21:54.71	115.13	6.49	-45.4	-63.5	3.8	8.46e-01	0	61	104	432537600	62	28807
2026-01-25 19:21:57.74	114.85	6.24	-45.4	-63.5	3.8	8.46e-01	0	61	104	432537600	62	28769
2026-01-25 19:22:00.77	114.57	6.00	-45.4	-63.5	3.8	8.47e-01	0	61	104	432537600	62	28724
2026-01-25 19:22:03.80	114.29	5.76	-45.4	-63.5	3.8	8.45e-01	0	61	104	432537600	62	28720
2026-01-25 19:22:06.83	114.03	5.52	-45.3	-63.5	3.8	8.47e-01	0	61	104	432537600	62	28734
2026-01-25 19:22:09.86	113.76	5.29	-45.3	-63.5	3.8	8.46e-01	0	61	104	432537600	62	28687
2026-01-25 19:22:12.89	113.51	5.05	-45.3	-63.4	3.8	8.47e-01	0	61	104	432537600	62	28640
2026-01-25 19:22:15.92	113.26	4.83	-45.3	-63.4	3.8	8.47e-01	0	61	104	432537600	62	28615
2026-01-25 19:22:18.96	113.02	4.60	-45.3	-63.4	3.8	8.47e-01	0	61	104	432537600	62	28517
2026-01-25 19:22:21.99	112.78	4.38	-45.3	-63.4	3.8	8.45e-01	0	61	104	432537600	62	28545
2026-01-25 19:22:25.02	112.55	4.15	-45.3	-63.4	3.8	8.47e-01	0	61	104	432537600	62	28572
2026-01-25 19:22:28.05	112.32	3.93	-45.3	-63.4	3.8	8.45e-01	0	61	104	432537600	62	28532
2026-01-25 19:22:31.08	112.09	3.72	-45.3	-63.4	3.8	8.46e-01	0	61	104	432537600	62	28569
2026-01-25 19:22:34.11	111.88	3.50	-45.3	-63.4	3.8	8.45e-01	0	61	104	432537600	62	28579
2026-01-25 19:22:37.14	111.66	3.29	-45.3	-63.4	3.8	8.46e-01	0	61	104	432537600	62	28471
2026-01-25 19:22:40.18	111.45	3.08	-45.3	-63.4	3.8	8.47e-01	0	61	104	432537600	62	28461
2026-01-25 19:22:43.21	111.25	2.87	-45.3	-63.4	3.8	8.45e-01	0	61	104	432537600	62	28459
2026-01-25 19:22:46.24	111.05	2.67	-45.3	-63.4	3.8	8.47e-01	0	61	104	432537600	62	28410
2026-01-25 19:22:49.27	110.85	2.46	-45.3	-63.4	3.8	8.47e-01	0	61	104	432537600	62	28463
2026-01-25 19:22:52.30	110.66	2.26	-45.3	-63.4	3.8	8.46e-01	0	61	104	432537600	62	28414
2026-01-25 19:22:55.33	110.47	2.06	-45.3	-63.4	3.8	8.47e-01	0	61	104	432537600	62	28380

#Closed at: 2026-01-25 19:22:57
#Recorded file [432 MB]: D:/lorett/data/31039_260125_221346.dat