passes_logs/2026/01/25/R2.0S_Moscow/R2.0S_Moscow__20260125_014820_NOAA_20_JPSS-1_rec.log

#Pass ID: 20260125_014820_NOAA 20 (JPSS-1)
#Satellite: NOAA 20 (JPSS-1)
#Configuration: NOAA 20
#almurnet v.1.7.20251203
#Start time: 2026-01-25 01:48:21

#Version: 2.2.20231116
#Station: R2.0S_Moscow
#Location: 37.707566 lon 55.798166 lat
#TLE: 1 43013U 17073A   26024.42258823  .00000183  00000+0  10747-3 0  9990
#TLE: 2 43013  98.7646 325.2629 0001105  25.8644 334.2587 14.19539754424075

#Time	Az	El	Level	Level2	SNR	BER	BlckErr	Temp	State	Recorded	gain1	gain2
2026-01-25 01:48:21.86	8.88	2.09	-39.9	-54.4	3.8	1.49e+00	0	53	0	0	51	19092
2026-01-25 01:48:24.88	8.63	2.25	-39.9	-54.4	3.8	1.49e+00	0	53	104	0	51	19046
2026-01-25 01:48:27.92	8.39	2.41	-39.9	-54.4	3.8	1.49e+00	0	53	104	0	51	19069
2026-01-25 01:48:30.95	8.13	2.56	-39.8	-54.4	3.8	1.49e+00	0	53	104	0	51	19039
2026-01-25 01:48:33.98	7.88	2.72	-39.8	-54.4	3.8	1.49e+00	0	54	104	0	51	19076
2026-01-25 01:48:37.01	7.62	2.88	-39.8	-54.4	3.8	1.49e+00	0	54	104	0	51	19010
2026-01-25 01:48:40.05	7.36	3.04	-39.8	-54.4	3.8	1.49e+00	0	54	104	0	51	19040
2026-01-25 01:48:43.08	7.10	3.20	-39.8	-54.4	3.8	1.49e+00	0	54	104	0	51	19010
2026-01-25 01:48:46.11	6.84	3.36	-39.8	-54.4	3.8	1.49e+00	0	54	104	0	51	18975
2026-01-25 01:48:49.14	6.57	3.52	-39.8	-54.4	3.8	1.49e+00	0	55	104	0	51	19016
2026-01-25 01:48:52.17	6.30	3.68	-39.8	-54.4	3.8	1.49e+00	0	55	104	0	51	18972
2026-01-25 01:48:55.20	6.02	3.84	-39.8	-54.4	3.8	1.49e+00	0	55	104	0	51	19012
2026-01-25 01:48:58.24	5.74	4.00	-39.8	-54.4	3.8	1.49e+00	0	55	104	0	51	19011
2026-01-25 01:49:01.27	5.46	4.16	-39.8	-54.4	3.8	1.49e+00	0	55	104	0	51	19017
2026-01-25 01:49:04.30	5.18	4.32	-39.8	-54.4	3.8	1.49e+00	0	56	104	0	51	19033
2026-01-25 01:49:07.34	4.89	4.48	-39.8	-54.4	3.8	1.49e+00	0	56	104	0	51	18956
2026-01-25 01:49:10.37	4.60	4.64	-39.8	-54.4	3.8	1.49e+00	0	56	104	0	51	19055
2026-01-25 01:49:13.40	4.31	4.81	-39.8	-54.4	3.8	1.49e+00	0	56	104	0	51	19010
2026-01-25 01:49:16.43	4.01	4.97	-39.8	-54.4	3.8	1.49e+00	0	56	104	0	51	18972
2026-01-25 01:49:19.46	3.71	5.13	-39.8	-54.4	3.8	1.49e+00	0	56	104	0	51	18986
2026-01-25 01:49:22.49	3.40	5.29	-39.8	-54.4	3.8	1.49e+00	0	57	104	0	51	18957
2026-01-25 01:49:25.52	3.10	5.46	-39.8	-54.4	3.8	1.49e+00	0	57	104	0	51	18990
2026-01-25 01:49:28.55	2.79	5.62	-39.8	-54.4	3.8	1.49e+00	0	57	104	0	51	18958
2026-01-25 01:49:31.58	2.47	5.78	-39.8	-54.3	3.8	1.49e+00	0	57	104	0	51	18939
2026-01-25 01:49:34.62	2.15	5.95	-39.8	-54.4	3.8	1.49e+00	0	57	104	0	51	18998
2026-01-25 01:49:37.65	1.83	6.11	-39.8	-54.3	3.8	1.49e+00	0	57	104	0	51	18947
2026-01-25 01:49:40.68	1.50	6.28	-39.8	-54.4	3.8	1.49e+00	0	57	104	0	51	18962
2026-01-25 01:49:43.71	1.17	6.44	-39.8	-54.4	3.8	1.49e+00	0	57	104	0	51	18983
2026-01-25 01:49:46.74	0.84	6.60	-39.8	-54.3	3.8	1.49e+00	0	57	104	0	51	18908
2026-01-25 01:49:49.77	0.50	6.77	-39.8	-54.4	3.8	1.49e+00	0	58	104	0	51	18981
2026-01-25 01:49:52.81	0.16	6.93	-39.8	-54.4	3.8	1.49e+00	0	58	104	0	51	18984
2026-01-25 01:49:55.84	359.81	7.10	-39.8	-54.3	3.8	1.49e+00	0	58	104	0	51	18908
2026-01-25 01:49:58.86	359.46	7.26	-39.8	-54.4	3.8	1.49e+00	0	58	104	0	51	18964
2026-01-25 01:50:01.89	359.11	7.43	-39.8	-54.3	3.8	1.49e+00	0	58	104	0	51	18945
2026-01-25 01:50:04.93	358.75	7.59	-39.8	-54.4	3.8	1.49e+00	0	58	104	0	51	18956
2026-01-25 01:50:07.96	358.39	7.76	-39.8	-54.3	3.8	1.49e+00	0	58	104	0	51	18946
2026-01-25 01:50:10.99	358.02	7.92	-39.8	-54.3	3.8	1.49e+00	0	58	104	0	51	18909
2026-01-25 01:50:14.02	357.65	8.09	-39.8	-54.4	3.8	1.49e+00	0	58	104	0	51	19027
2026-01-25 01:50:17.05	357.27	8.25	-40.0	-54.5	3.8	1.49e+00	0	58	104	0	51	19349
2026-01-25 01:50:20.08	356.90	8.41	-39.9	-54.4	3.8	1.49e+00	0	58	104	0	51	19108
2026-01-25 01:50:23.10	356.51	8.58	-40.0	-54.5	3.8	1.49e+00	0	59	104	0	51	19302
2026-01-25 01:50:26.13	356.12	8.74	-39.9	-54.5	3.8	1.49e+00	0	58	104	0	51	19246
2026-01-25 01:50:29.16	355.73	8.91	-40.1	-54.6	3.8	1.49e+00	0	59	104	0	51	19531
2026-01-25 01:50:32.19	355.33	9.07	-40.1	-54.6	3.8	1.49e+00	0	59	104	0	51	19455
2026-01-25 01:50:35.22	354.93	9.23	-40.2	-54.7	3.8	1.49e+00	0	59	104	0	51	19773
2026-01-25 01:50:38.25	354.52	9.40	-40.1	-54.6	3.8	1.49e+00	0	59	104	0	51	19480
2026-01-25 01:50:41.28	354.11	9.56	-40.3	-54.8	3.8	1.49e+00	0	59	104	0	51	20025
2026-01-25 01:50:44.31	353.70	9.72	-40.2	-54.7	3.8	1.49e+00	0	59	104	0	51	19803
2026-01-25 01:50:47.34	353.28	9.88	-40.3	-54.8	3.8	1.49e+00	0	59	104	0	51	19979
2026-01-25 01:50:50.37	352.85	10.04	-40.3	-54.9	3.8	1.49e+00	0	59	104	0	51	20073
2026-01-25 01:50:53.40	352.42	10.20	-40.6	-55.1	3.8	1.49e+00	0	59	104	0	51	20722
2026-01-25 01:50:56.42	351.99	10.36	-40.4	-55.0	3.8	1.49e+00	0	59	104	0	52	19219
2026-01-25 01:50:59.45	351.55	10.52	-40.5	-55.0	3.8	1.49e+00	0	59	104	0	52	19317
2026-01-25 01:51:02.48	351.10	10.68	-40.5	-55.1	3.8	1.49e+00	0	60	104	0	52	19430
2026-01-25 01:51:05.51	350.65	10.84	-40.8	-55.3	3.8	1.49e+00	0	60	104	0	52	19989
2026-01-25 01:51:08.54	350.20	11.00	-40.6	-55.1	3.8	1.49e+00	0	59	104	0	52	19560
2026-01-25 01:51:11.56	349.74	11.16	-40.7	-55.3	3.8	1.49e+00	0	59	104	0	52	19880
2026-01-25 01:51:14.59	349.27	11.31	-40.7	-55.3	3.8	1.49e+00	0	60	104	0	52	19904
2026-01-25 01:51:17.62	348.80	11.47	-40.9	-55.5	3.8	1.49e+00	0	60	104	0	52	20373
2026-01-25 01:51:20.65	348.33	11.62	-41.0	-55.6	3.8	1.49e+00	0	60	104	0	52	20606
2026-01-25 01:51:23.67	347.85	11.77	-41.0	-55.6	3.8	1.49e+00	0	60	104	0	52	20548
2026-01-25 01:51:26.70	347.36	11.93	-41.1	-55.7	3.8	1.49e+00	0	60	104	0	52	20808
2026-01-25 01:51:29.73	346.87	12.08	-41.1	-55.6	3.8	1.49e+00	0	60	104	0	52	20716
2026-01-25 01:51:32.76	346.38	12.23	-40.7	-55.2	3.8	1.49e+00	0	60	104	0	52	19838
2026-01-25 01:51:35.79	345.87	12.38	-40.7	-55.3	3.8	1.49e+00	0	60	104	0	52	19916
2026-01-25 01:51:38.82	345.37	12.52	-40.8	-55.4	3.8	1.49e+00	0	60	104	0	52	20201
2026-01-25 01:51:41.84	344.86	12.67	-40.7	-55.2	3.8	1.49e+00	0	60	104	0	52	19726
2026-01-25 01:51:44.87	344.34	12.81	-40.6	-55.1	3.8	1.49e+00	0	60	104	0	52	19469
2026-01-25 01:51:47.90	343.82	12.96	-40.5	-55.0	3.8	1.49e+00	0	60	104	0	52	19325
2026-01-25 01:51:50.93	343.29	13.10	-40.6	-55.1	3.8	1.49e+00	0	60	104	0	52	19541
2026-01-25 01:51:53.96	342.76	13.24	-40.6	-55.1	3.8	1.49e+00	0	61	104	0	52	19572
2026-01-25 01:51:56.98	342.23	13.38	-40.5	-55.0	3.8	1.49e+00	0	60	104	0	52	19311
2026-01-25 01:52:00.01	341.68	13.51	-40.4	-54.9	3.8	1.49e+00	0	60	104	0	52	19155
2026-01-25 01:52:03.04	341.14	13.65	-40.5	-55.0	3.8	1.49e+00	0	60	104	0	52	19330
2026-01-25 01:52:06.07	340.58	13.78	-40.6	-55.1	3.8	1.49e+00	0	60	104	0	52	19425
2026-01-25 01:52:09.09	340.03	13.91	-41.8	-54.5	3.8	1.49e+00	0	60	104	0	54	16215
2026-01-25 01:52:12.12	339.47	14.04	-41.9	-51.5	4.8	1.03e+00	0	61	0	1048576	54	11510
2026-01-25 01:52:15.15	338.90	14.17	-42.2	-50.3	5.9	3.94e-01	0	60	0	6291456	55	9439
2026-01-25 01:52:18.18	338.33	14.29	-42.0	-48.0	8.3	7.46e-01	0	60	0	10485760	56	6854
2026-01-25 01:52:21.21	337.75	14.42	-42.9	-53.0	4.5	4.19e-01	20	60	0	13631488	56	12225
2026-01-25 01:52:24.24	337.17	14.54	-41.3	-45.9	10.7	2.98e-03	0	60	0	19922944	54	6009
2026-01-25 01:52:27.27	336.58	14.65	-41.4	-45.7	11.2	1.45e-03	0	60	0	25165824	54	5898
2026-01-25 01:52:30.29	335.99	14.77	-41.6	-46.0	11.1	1.71e-03	0	60	0	31457280	54	6071
2026-01-25 01:52:33.32	335.39	14.88	-41.5	-45.6	11.6	6.58e-04	0	60	0	36700160	54	5834
2026-01-25 01:52:36.35	334.79	14.99	-41.4	-45.3	12.1	2.85e-04	0	61	0	41943040	54	5599
2026-01-25 01:52:39.38	334.19	15.10	-41.3	-45.0	12.3	1.56e-04	0	61	0	48234496	54	5463
2026-01-25 01:52:42.41	333.58	15.20	-41.2	-44.8	12.6	1.11e-04	0	61	0	53477376	54	5322
2026-01-25 01:52:45.44	332.96	15.30	-41.2	-44.9	12.6	9.53e-05	0	61	0	59768832	54	5341
2026-01-25 01:52:48.47	332.35	15.40	-41.2	-44.9	12.7	7.32e-05	0	61	0	65011712	54	5342
2026-01-25 01:52:51.50	331.72	15.50	-41.2	-44.8	12.9	6.02e-05	0	61	0	71303168	54	5290
2026-01-25 01:52:54.52	331.10	15.59	-41.2	-44.7	12.9	5.11e-05	0	61	0	76546048	54	5265
2026-01-25 01:52:57.56	330.47	15.68	-41.3	-44.9	12.7	1.02e-04	0	61	0	81788928	54	5392
2026-01-25 01:53:00.58	329.84	15.77	-41.2	-44.7	13.0	4.42e-05	0	61	0	88080384	54	5248
2026-01-25 01:53:03.61	329.20	15.85	-41.4	-45.0	12.7	7.09e-05	0	61	0	93323264	54	5418
2026-01-25 01:53:06.64	328.56	15.93	-41.5	-45.1	12.5	1.30e-04	0	61	0	99614720	54	5507
2026-01-25 01:53:09.66	327.92	16.01	-41.5	-45.2	12.4	1.12e-04	0	61	0	104857600	54	5570
2026-01-25 01:53:12.69	327.27	16.08	-41.5	-45.2	12.4	1.20e-04	0	61	0	110100480	54	5562
2026-01-25 01:53:15.72	326.62	16.15	-41.5	-45.3	12.4	1.34e-04	0	61	0	116391936	54	5602
2026-01-25 01:53:18.75	325.96	16.22	-41.5	-45.2	12.4	1.47e-04	0	61	0	121634816	54	5584
2026-01-25 01:53:21.78	325.31	16.28	-41.5	-45.3	12.4	1.34e-04	0	61	0	127926272	54	5595
2026-01-25 01:53:24.81	324.65	16.34	-41.7	-45.5	12.2	2.31e-04	0	61	0	133169152	54	5749
2026-01-25 01:53:27.83	323.99	16.39	-41.8	-45.7	12.0	3.32e-04	0	61	0	139460608	54	5890
2026-01-25 01:53:30.86	323.32	16.44	-41.7	-45.5	12.2	2.27e-04	0	61	0	144703488	54	5753
2026-01-25 01:53:33.89	322.65	16.49	-41.5	-45.2	12.4	2.15e-04	0	61	0	149946368	54	5588
2026-01-25 01:53:36.92	321.99	16.53	-41.5	-45.2	12.5	1.10e-04	0	61	0	156237824	54	5571
2026-01-25 01:53:39.94	321.32	16.57	-41.6	-45.3	12.4	1.62e-04	0	61	0	161480704	54	5618
2026-01-25 01:53:42.97	320.64	16.61	-41.7	-45.5	12.2	1.87e-04	0	61	0	167772160	54	5771
2026-01-25 01:53:46.00	319.97	16.64	-41.8	-45.8	11.8	3.88e-04	0	61	0	173015040	54	5980
2026-01-25 01:53:49.03	319.30	16.67	-41.9	-46.0	11.7	5.39e-04	0	61	0	178257920	54	6085
2026-01-25 01:53:52.06	318.62	16.69	-41.9	-46.1	11.6	5.81e-04	0	61	0	184549376	54	6163
2026-01-25 01:53:55.08	317.94	16.71	-41.9	-46.0	11.7	6.07e-04	0	61	0	189792256	54	6069
2026-01-25 01:53:58.11	317.26	16.73	-41.8	-45.8	11.9	3.99e-04	0	61	0	196083712	54	5969
2026-01-25 01:54:01.13	316.59	16.74	-41.8	-45.7	12.0	3.59e-04	0	61	0	201326592	54	5865
2026-01-25 01:54:04.16	315.91	16.75	-41.8	-45.7	12.0	3.55e-04	0	61	0	207618048	54	5867
2026-01-25 01:54:07.19	315.23	16.75	-41.8	-45.7	12.1	3.04e-04	0	61	0	212860928	54	5879
2026-01-25 01:54:10.22	314.55	16.75	-41.8	-45.7	12.0	2.83e-04	0	61	0	218103808	54	5869
2026-01-25 01:54:13.24	313.87	16.74	-41.9	-46.0	11.7	4.38e-04	0	61	0	224395264	54	6093
2026-01-25 01:54:16.27	313.19	16.73	-42.0	-46.3	11.4	9.23e-04	0	61	0	229638144	54	6283
2026-01-25 01:54:19.30	312.51	16.72	-41.9	-45.9	11.8	4.61e-04	0	61	0	235929600	54	6016
2026-01-25 01:54:22.33	311.83	16.70	-41.7	-45.6	12.2	2.59e-04	0	61	0	241172480	54	5791
2026-01-25 01:54:25.36	311.16	16.68	-41.7	-45.6	12.1	2.71e-04	0	61	0	246415360	54	5844
2026-01-25 01:54:28.39	310.48	16.66	-41.7	-45.6	12.1	2.53e-04	0	61	0	252706816	54	5853
2026-01-25 01:54:31.41	309.81	16.63	-41.7	-45.6	12.1	2.94e-04	0	61	0	257949696	54	5820
2026-01-25 01:54:34.44	309.13	16.59	-41.8	-45.7	12.0	2.74e-04	0	61	0	264241152	54	5897
2026-01-25 01:54:37.47	308.46	16.56	-41.7	-45.6	12.1	2.86e-04	0	61	0	269484032	54	5824
2026-01-25 01:54:40.50	307.79	16.51	-41.6	-45.4	12.3	1.90e-04	0	61	0	274726912	54	5668
2026-01-25 01:54:43.53	307.12	16.47	-41.6	-45.5	12.2	2.34e-04	0	61	0	281018368	54	5741
2026-01-25 01:54:46.56	306.46	16.42	-41.6	-45.4	12.3	1.69e-04	0	61	0	286261248	54	5683
2026-01-25 01:54:49.59	305.79	16.37	-41.5	-45.2	12.5	1.20e-04	0	61	0	292552704	54	5560
2026-01-25 01:54:52.62	305.13	16.31	-41.4	-45.0	12.7	7.70e-05	0	61	0	297795584	54	5460
2026-01-25 01:54:55.65	304.47	16.25	-41.4	-45.1	12.6	9.38e-05	0	61	0	304087040	54	5477
2026-01-25 01:54:58.68	303.81	16.19	-41.4	-44.9	12.8	7.17e-05	0	61	0	309329920	54	5398
2026-01-25 01:55:01.71	303.16	16.12	-41.3	-44.8	12.8	5.49e-05	0	61	0	314572800	54	5333
2026-01-25 01:55:04.74	302.51	16.05	-41.4	-45.0	12.6	7.93e-05	0	61	0	320864256	54	5453
2026-01-25 01:55:07.76	301.86	15.97	-41.4	-45.1	12.5	1.04e-04	0	61	0	326107136	54	5513
2026-01-25 01:55:10.80	301.22	15.89	-41.5	-45.3	12.4	1.39e-04	0	61	0	332398592	54	5594
2026-01-25 01:55:13.82	300.58	15.81	-41.6	-45.4	12.2	1.83e-04	0	61	0	337641472	54	5716
2026-01-25 01:55:16.85	299.94	15.73	-41.6	-45.5	12.1	2.75e-04	0	61	0	342884352	54	5743
2026-01-25 01:55:19.88	299.31	15.64	-41.6	-45.5	12.2	1.87e-04	0	61	0	349175808	54	5729
2026-01-25 01:55:22.91	298.68	15.55	-41.6	-45.5	12.1	2.61e-04	0	61	0	354418688	54	5733
2026-01-25 01:55:25.94	298.05	15.46	-41.6	-45.5	12.1	2.57e-04	0	61	0	360710144	54	5741
2026-01-25 01:55:28.96	297.43	15.36	-41.7	-45.7	11.8	4.50e-04	0	61	0	365953024	54	5903
2026-01-25 01:55:31.99	296.81	15.26	-41.7	-45.9	11.7	6.51e-04	0	61	0	372244480	54	5996
2026-01-25 01:55:35.02	296.20	15.15	-41.8	-46.0	11.5	7.83e-04	0	61	0	377487360	54	6078
2026-01-25 01:55:38.05	295.59	15.05	-41.6	-45.6	11.9	3.91e-04	0	61	0	382730240	54	5814
2026-01-25 01:55:41.07	294.99	14.94	-41.3	-45.1	12.4	1.38e-04	0	61	0	389021696	54	5467
2026-01-25 01:55:44.11	294.38	14.83	-41.4	-45.2	12.2	1.83e-04	0	61	0	394264576	54	5575
2026-01-25 01:55:47.13	293.79	14.71	-41.6	-45.7	11.7	4.90e-04	0	61	0	400556032	54	5858
2026-01-25 01:55:50.16	293.20	14.60	-41.5	-45.5	11.8	6.37e-04	0	61	0	405798912	54	5758
2026-01-25 01:55:53.19	292.61	14.48	-41.3	-45.1	12.1	3.08e-04	0	61	0	411041792	54	5516
2026-01-25 01:55:56.22	292.03	14.36	-41.3	-45.1	12.1	2.24e-04	0	61	0	417333248	54	5522
2026-01-25 01:55:59.24	291.46	14.23	-41.2	-45.1	12.2	2.38e-04	0	61	0	422576128	54	5480
2026-01-25 01:56:02.27	290.88	14.11	-41.3	-45.3	11.9	3.42e-04	0	61	0	428867584	54	5596
2026-01-25 01:56:05.30	290.32	13.98	-41.3	-45.3	11.8	5.00e-04	0	62	0	434110464	54	5638
2026-01-25 01:56:08.33	289.75	13.85	-41.1	-45.0	12.0	3.33e-04	0	61	0	440401920	54	5413
2026-01-25 01:56:11.36	289.20	13.72	-41.0	-44.9	12.1	3.27e-04	0	61	0	445644800	54	5378
2026-01-25 01:56:14.38	288.65	13.58	-41.2	-45.3	11.6	6.36e-04	0	61	0	450887680	54	5626
2026-01-25 01:56:17.41	288.10	13.45	-41.3	-45.8	11.0	1.77e-03	0	61	0	457179136	54	5938
2026-01-25 01:56:20.44	287.56	13.31	-41.4	-46.0	10.6	3.08e-03	0	62	0	462422016	54	6111
2026-01-25 01:56:23.46	287.02	13.17	-41.4	-46.2	10.3	5.26e-03	0	62	0	468713472	54	6270
2026-01-25 01:56:26.49	286.49	13.03	-41.5	-46.5	9.9	7.88e-03	0	62	0	473956352	54	6470
2026-01-25 01:56:29.52	285.96	12.89	-41.6	-46.9	9.4	1.37e-02	0	61	0	479199232	54	6760
2026-01-25 01:56:32.55	285.44	12.74	-41.6	-47.2	9.1	2.22e-02	0	61	0	485490688	54	7006
2026-01-25 01:56:35.58	284.92	12.60	-41.7	-47.4	8.9	2.61e-02	0	61	0	490733568	54	7129
2026-01-25 01:56:38.61	284.41	12.45	-41.7	-47.6	8.7	3.29e-02	0	61	0	497025024	54	7288
2026-01-25 01:56:41.63	283.91	12.30	-41.9	-48.0	8.3	4.74e-02	0	61	0	502267904	54	7708
2026-01-25 01:56:44.66	283.41	12.15	-41.9	-48.2	8.1	5.87e-02	0	61	0	507510784	54	7845
2026-01-25 01:56:47.69	282.91	12.00	-41.9	-48.0	8.3	5.07e-02	0	62	0	513802240	54	7633
2026-01-25 01:56:50.72	282.42	11.85	-41.8	-47.6	8.8	2.91e-02	0	61	0	519045120	54	7326
2026-01-25 01:56:53.75	281.93	11.70	-42.0	-47.8	8.7	3.08e-02	0	62	0	525336576	54	7518
2026-01-25 01:56:56.77	281.45	11.54	-42.1	-48.2	8.3	4.70e-02	0	62	0	530579456	54	7844
2026-01-25 01:56:59.80	280.98	11.39	-42.2	-48.2	8.4	4.67e-02	0	62	0	536870912	54	7821
2026-01-25 01:57:02.83	280.51	11.23	-42.1	-48.1	8.4	4.37e-02	0	61	0	542113792	54	7739
2026-01-25 01:57:05.86	280.04	11.07	-42.1	-47.9	8.6	3.74e-02	0	61	0	547356672	54	7590
2026-01-25 01:57:08.89	279.58	10.92	-42.1	-48.2	8.2	5.32e-02	0	61	0	553648128	54	7847
2026-01-25 01:57:11.92	279.13	10.76	-42.1	-48.4	7.9	6.94e-02	0	62	0	558891008	54	8029
2026-01-25 01:57:14.95	278.68	10.60	-42.0	-48.5	7.8	7.77e-02	0	62	0	565182464	54	8121
2026-01-25 01:57:17.98	278.23	10.44	-41.9	-48.5	7.7	8.84e-02	0	62	0	570425344	54	8104
2026-01-25 01:57:21.01	277.79	10.28	-41.9	-48.7	7.3	1.16e-01	0	62	0	575668224	54	8313
2026-01-25 01:57:24.03	277.36	10.12	-42.1	-50.3	5.9	2.29e-01	0	62	0	581959680	54	9987
2026-01-25 01:57:27.06	276.93	9.96	-40.9	-53.9	3.8	7.58e-01	0	62	104	586153984	53	16084
2026-01-25 01:57:30.09	276.50	9.79	-41.5	-50.0	5.7	4.03e-01	0	61	0	590348288	53	10188
2026-01-25 01:57:33.12	276.08	9.63	-41.4	-50.5	5.2	6.03e-01	0	61	0	595591168	53	10845
2026-01-25 01:57:36.15	275.66	9.47	-40.4	-53.5	3.8	1.47e+00	0	62	104	599785472	52	16243
2026-01-25 01:57:39.18	275.25	9.31	-41.6	-51.9	4.5	9.86e-01	7	62	0	602931200	54	12034
2026-01-25 01:57:42.21	274.84	9.14	-41.5	-52.6	4.2	1.36e+00	0	62	0	606076928	54	13029
2026-01-25 01:57:45.24	274.44	8.98	-41.3	-53.1	3.9	1.44e+00	0	62	104	606076928	54	13736
2026-01-25 01:57:48.27	274.04	8.81	-41.1	-54.3	3.8	1.49e+00	0	61	104	606076928	53	16761
2026-01-25 01:57:51.29	273.65	8.65	-40.4	-53.9	3.8	1.49e+00	0	62	104	606076928	52	16911
2026-01-25 01:57:54.33	273.26	8.49	-40.3	-54.1	3.8	1.49e+00	0	62	104	606076928	52	17461
2026-01-25 01:57:57.35	272.87	8.32	-40.0	-54.4	3.8	1.49e+00	0	62	104	606076928	51	19118
2026-01-25 01:58:00.38	272.49	8.16	-40.1	-54.2	3.8	1.49e+00	0	62	104	606076928	51	18723
2026-01-25 01:58:03.41	272.12	7.99	-40.5	-55.0	3.8	1.49e+00	0	62	104	606076928	51	20421
2026-01-25 01:58:06.44	271.75	7.83	-44.9	-59.6	3.8	1.49e+00	0	62	104	606076928	60	20595
2026-01-25 01:58:09.47	271.38	7.66	-45.1	-59.8	3.8	1.49e+00	0	62	104	606076928	60	21159
2026-01-25 01:58:12.50	271.02	7.50	-45.2	-59.8	3.8	1.49e+00	0	62	104	606076928	60	21134
2026-01-25 01:58:15.53	270.66	7.33	-45.2	-59.8	3.8	1.49e+00	0	62	104	606076928	61	19888
2026-01-25 01:58:18.56	270.30	7.17	-45.1	-59.7	3.8	1.49e+00	0	62	104	606076928	61	19780
2026-01-25 01:58:21.59	269.95	7.00	-45.1	-59.7	3.8	1.49e+00	0	62	104	606076928	61	19652
2026-01-25 01:58:24.62	269.60	6.84	-45.1	-59.7	3.8	1.49e+00	0	62	104	606076928	61	19782
2026-01-25 01:58:27.66	269.26	6.67	-45.1	-59.7	3.8	1.49e+00	0	62	104	606076928	61	19761
2026-01-25 01:58:30.69	268.92	6.51	-45.1	-59.7	3.8	1.49e+00	0	62	104	606076928	61	19659
2026-01-25 01:58:33.72	268.59	6.34	-45.1	-59.7	3.8	1.49e+00	0	62	104	606076928	61	19725
2026-01-25 01:58:36.75	268.26	6.18	-45.1	-59.7	3.8	1.49e+00	0	62	104	606076928	61	19721
2026-01-25 01:58:39.78	267.93	6.01	-45.1	-59.7	3.8	1.49e+00	0	62	104	606076928	61	19677
2026-01-25 01:58:42.81	267.60	5.85	-45.1	-59.7	3.8	1.49e+00	0	62	104	606076928	61	19694
2026-01-25 01:58:45.85	267.28	5.68	-45.1	-59.7	3.8	1.49e+00	0	62	104	606076928	61	19659
2026-01-25 01:58:48.88	266.97	5.52	-45.1	-59.7	3.8	1.49e+00	0	62	104	606076928	61	19640
2026-01-25 01:58:51.91	266.65	5.36	-45.1	-59.7	3.8	1.49e+00	0	62	104	606076928	61	19663
2026-01-25 01:58:54.93	266.35	5.19	-45.1	-59.7	3.8	1.49e+00	0	62	104	606076928	61	19680
2026-01-25 01:58:57.96	266.04	5.03	-45.1	-59.7	3.8	1.49e+00	0	62	104	606076928	61	19693
2026-01-25 01:59:01.00	265.74	4.87	-45.1	-59.7	3.8	1.49e+00	0	62	104	606076928	61	19648
2026-01-25 01:59:04.03	265.44	4.71	-45.1	-59.7	3.8	1.49e+00	0	62	104	606076928	61	19684
2026-01-25 01:59:07.06	265.14	4.54	-45.1	-59.7	3.8	1.49e+00	0	62	104	606076928	61	19628
2026-01-25 01:59:10.09	264.85	4.38	-45.1	-59.7	3.8	1.49e+00	0	62	104	606076928	61	19671
2026-01-25 01:59:13.12	264.56	4.22	-45.1	-59.6	3.8	1.49e+00	0	62	104	606076928	61	19581
2026-01-25 01:59:16.15	264.28	4.06	-45.1	-59.6	3.8	1.49e+00	0	62	104	606076928	61	19556
2026-01-25 01:59:19.19	263.99	3.90	-45.1	-59.6	3.8	1.49e+00	0	62	104	606076928	61	19600
2026-01-25 01:59:22.22	263.71	3.74	-45.1	-59.7	3.8	1.49e+00	0	62	104	606076928	61	19672
2026-01-25 01:59:25.25	263.44	3.57	-45.0	-59.6	3.8	1.49e+00	0	62	104	606076928	61	19558
2026-01-25 01:59:28.28	263.17	3.41	-45.1	-59.7	3.8	1.49e+00	0	62	104	606076928	61	19673
2026-01-25 01:59:31.31	262.90	3.26	-45.0	-59.6	3.8	1.49e+00	0	62	104	606076928	61	19524
2026-01-25 01:59:34.34	262.63	3.10	-45.1	-59.7	3.8	1.49e+00	0	62	104	606076928	61	19617
2026-01-25 01:59:37.37	262.36	2.94	-45.0	-59.6	3.8	1.49e+00	0	62	104	606076928	61	19579
2026-01-25 01:59:40.40	262.10	2.78	-45.0	-59.6	3.8	1.49e+00	0	62	104	606076928	61	19590
2026-01-25 01:59:43.43	261.85	2.62	-45.0	-59.6	3.8	1.49e+00	0	62	104	606076928	61	19563
2026-01-25 01:59:46.46	261.59	2.46	-45.0	-59.6	3.8	1.49e+00	0	62	104	606076928	61	19607
2026-01-25 01:59:49.50	261.34	2.30	-45.0	-59.6	3.8	1.49e+00	0	62	104	606076928	61	19597
2026-01-25 01:59:52.53	261.09	2.15	-45.0	-59.6	3.8	1.49e+00	0	62	104	606076928	61	19538
2026-01-25 01:59:55.56	260.84	1.99	-45.0	-59.6	3.8	1.49e+00	0	62	104	606076928	61	19534

#Closed at: 2026-01-25 01:59:57
#Recorded file [606 MB]: D:/lorett/data/31039_260125_044821.dat