passes_logs/2026/01/25/R2.0S_Moscow/R2.0S_Moscow__20260125_005750_NOAA_21_JPSS-2_rec.log

#Pass ID: 20260125_005750_NOAA 21 (JPSS-2)
#Satellite: NOAA 21 (JPSS-2)
#Configuration: NOAA-21
#almurnet v.1.7.20251203
#Start time: 2026-01-25 00:58:26

#Version: 2.2.20231116
#Station: R2.0S_Moscow
#Location: 37.707566 lon 55.798166 lat
#TLE: 1 54234U 22150A   26024.45772595  .00000201  00000+0  11607-3 0  9996
#TLE: 2 54234  98.7508 325.2435 0000728 220.7365 139.3757 14.19538765166156

#Time	Az	El	Level	Level2	SNR	BER	BlckErr	Temp	State	Recorded	gain1	gain2
2026-01-25 00:58:26.94	9.38	4.22	-45.1	-56.8	3.8	8.45e-01	0	61	0	0	61	14066
2026-01-25 00:58:29.96	9.20	4.41	-45.4	-57.9	3.8	1.49e+00	0	62	104	0	62	15057
2026-01-25 00:58:32.99	9.02	4.61	-45.2	-57.7	3.8	1.49e+00	0	62	104	0	62	14792
2026-01-25 00:58:36.02	8.84	4.80	-40.3	-52.7	3.8	1.49e+00	0	62	104	0	52	14734
2026-01-25 00:58:39.05	8.65	4.99	-39.9	-52.3	3.8	1.49e+00	0	62	104	0	51	14895
2026-01-25 00:58:42.08	8.46	5.19	-39.9	-52.2	3.8	1.49e+00	0	62	104	0	51	14835
2026-01-25 00:58:45.11	8.27	5.39	-39.9	-52.2	3.8	1.49e+00	0	62	104	0	51	14797
2026-01-25 00:58:48.14	8.07	5.59	-39.9	-52.2	3.8	1.49e+00	0	62	104	0	51	14798
2026-01-25 00:58:51.17	7.87	5.79	-39.9	-52.2	3.8	1.49e+00	0	62	104	0	51	14758
2026-01-25 00:58:54.20	7.67	5.99	-39.8	-52.2	3.8	1.49e+00	0	62	104	0	51	14771
2026-01-25 00:58:57.24	7.47	6.19	-39.9	-52.2	3.8	1.49e+00	0	62	104	0	51	14765
2026-01-25 00:59:00.27	7.26	6.40	-39.8	-52.2	3.8	1.49e+00	0	62	104	0	51	14733
2026-01-25 00:59:03.30	7.05	6.60	-39.8	-52.2	3.8	1.49e+00	0	62	104	0	51	14769
2026-01-25 00:59:06.33	6.84	6.81	-39.8	-52.2	3.8	1.49e+00	0	62	104	0	51	14768
2026-01-25 00:59:09.36	6.62	7.01	-39.8	-52.2	3.8	1.49e+00	0	62	104	0	51	14765
2026-01-25 00:59:12.39	6.40	7.22	-39.8	-52.2	3.8	1.49e+00	0	62	104	0	51	14711
2026-01-25 00:59:15.41	6.18	7.43	-39.8	-52.2	3.8	1.49e+00	0	62	104	0	51	14731
2026-01-25 00:59:18.44	5.95	7.64	-39.8	-52.2	3.8	1.49e+00	0	62	104	0	51	14728
2026-01-25 00:59:21.47	5.72	7.86	-39.8	-52.2	3.8	1.49e+00	0	62	104	0	51	14712
2026-01-25 00:59:24.50	5.49	8.07	-39.8	-52.2	3.8	1.49e+00	0	62	104	0	51	14784
2026-01-25 00:59:27.53	5.25	8.29	-40.0	-52.3	3.8	1.49e+00	0	62	104	0	51	15024
2026-01-25 00:59:30.56	5.01	8.50	-40.0	-52.3	3.8	1.49e+00	0	62	104	0	51	14972
2026-01-25 00:59:33.59	4.76	8.72	-40.0	-52.4	3.8	1.49e+00	0	62	104	0	51	15056
2026-01-25 00:59:36.62	4.51	8.94	-40.0	-52.3	3.8	1.49e+00	0	62	104	0	51	15004
2026-01-25 00:59:39.65	4.26	9.16	-40.1	-52.4	3.8	1.49e+00	0	62	104	0	51	15142
2026-01-25 00:59:42.68	4.00	9.38	-40.0	-52.3	3.8	1.49e+00	0	62	104	0	51	15031
2026-01-25 00:59:45.71	3.74	9.61	-40.1	-52.4	3.8	1.49e+00	0	62	104	0	51	15149
2026-01-25 00:59:48.74	3.48	9.83	-40.0	-52.3	3.8	1.49e+00	0	62	104	0	51	14946
2026-01-25 00:59:51.77	3.21	10.06	-40.3	-52.6	3.8	1.49e+00	0	62	104	0	51	15572
2026-01-25 00:59:54.79	2.93	10.29	-40.1	-52.4	3.8	1.49e+00	0	62	104	0	51	15171
2026-01-25 00:59:57.82	2.66	10.52	-40.2	-52.5	3.8	1.49e+00	0	62	104	0	51	15338
2026-01-25 01:00:00.85	2.37	10.75	-40.0	-52.3	3.8	1.49e+00	0	62	104	0	51	15000
2026-01-25 01:00:03.88	2.08	10.98	-39.9	-52.2	3.8	1.49e+00	0	62	104	0	51	14817
2026-01-25 01:00:06.91	1.79	11.21	-40.7	-53.0	3.8	1.49e+00	0	62	104	0	51	16304
2026-01-25 01:00:09.94	1.49	11.45	-40.0	-52.4	3.8	1.49e+00	0	62	104	0	51	15143
2026-01-25 01:00:12.97	1.19	11.68	-40.2	-52.5	3.8	1.49e+00	0	62	104	0	51	15328
2026-01-25 01:00:15.99	0.89	11.92	-40.4	-52.7	3.8	1.49e+00	0	62	104	0	52	14774
2026-01-25 01:00:19.02	0.57	12.16	-40.2	-52.4	3.8	1.49e+00	0	62	104	0	52	14343
2026-01-25 01:00:22.05	0.25	12.40	-40.2	-52.3	3.8	1.49e+00	0	62	104	0	52	14178
2026-01-25 01:00:25.08	359.93	12.65	-40.2	-52.5	3.8	1.49e+00	0	62	104	0	52	14430
2026-01-25 01:00:28.11	359.60	12.89	-40.3	-52.3	3.8	1.49e+00	0	62	104	0	52	14179
2026-01-25 01:00:31.15	359.27	13.14	-42.1	-51.5	4.1	1.47e+00	0	62	104	0	54	11466
2026-01-25 01:00:34.18	358.93	13.38	-41.6	-48.0	5.9	3.88e-01	0	62	0	0	54	7656
2026-01-25 01:00:37.20	358.58	13.63	-40.0	-43.7	9.8	1.45e-02	0	62	0	9437184	51	5568
2026-01-25 01:00:40.24	358.23	13.88	-38.8	-41.6	12.0	2.90e-04	0	62	0	18874368	49	4897
2026-01-25 01:00:43.27	357.87	14.13	-39.4	-42.7	10.9	2.12e-03	0	62	0	28311552	49	5532
2026-01-25 01:00:46.30	357.50	14.39	-38.7	-41.5	12.1	3.39e-04	0	62	0	37748736	49	4835
2026-01-25 01:00:49.33	357.13	14.64	-39.1	-42.0	11.6	1.05e-03	0	62	0	47185920	49	5115
2026-01-25 01:00:52.36	356.75	14.90	-39.1	-42.2	11.4	9.89e-04	0	62	0	56623104	49	5243
2026-01-25 01:00:55.39	356.37	15.15	-40.0	-44.1	9.2	1.33e-02	0	62	0	66060288	50	6153
2026-01-25 01:00:58.41	355.98	15.41	-40.7	-47.0	6.0	2.78e-01	0	62	0	75497472	52	7698
2026-01-25 01:01:01.44	355.58	15.67	-41.0	-51.3	3.9	1.47e+00	0	62	104	79691776	52	12523
2026-01-25 01:01:04.47	355.17	15.93	-41.8	-52.8	3.8	1.49e+00	0	62	104	79691776	54	13284
2026-01-25 01:01:07.51	354.76	16.20	-40.9	-53.0	3.8	1.49e+00	0	62	104	79691776	53	14416
2026-01-25 01:01:10.54	354.34	16.46	-40.9	-53.1	3.8	1.49e+00	0	62	104	79691776	53	14695
2026-01-25 01:01:13.57	353.91	16.73	-40.6	-52.9	3.8	1.49e+00	0	62	104	79691776	53	14306
2026-01-25 01:01:16.60	353.47	16.99	-40.7	-53.0	3.8	1.49e+00	0	62	104	79691776	53	14525
2026-01-25 01:01:19.63	353.03	17.26	-40.6	-52.9	3.8	1.49e+00	0	62	104	79691776	53	14346
2026-01-25 01:01:22.66	352.57	17.53	-40.8	-53.1	3.8	1.49e+00	0	62	104	79691776	53	14551
2026-01-25 01:01:25.69	352.11	17.80	-40.7	-53.0	3.8	1.49e+00	0	62	104	79691776	53	14497
2026-01-25 01:01:28.72	351.64	18.07	-40.8	-53.1	3.8	1.49e+00	0	62	104	79691776	53	14576
2026-01-25 01:01:31.75	351.16	18.34	-40.7	-53.0	3.8	1.49e+00	0	62	104	79691776	53	14445
2026-01-25 01:01:34.78	350.68	18.62	-40.8	-53.1	3.8	1.49e+00	0	62	104	79691776	53	14569
2026-01-25 01:01:37.80	350.18	18.89	-40.8	-53.0	3.8	1.49e+00	0	62	104	79691776	53	14522
2026-01-25 01:01:40.83	349.68	19.16	-41.1	-53.5	3.8	1.49e+00	0	62	104	79691776	53	15261
2026-01-25 01:01:43.86	349.16	19.44	-41.0	-53.2	3.8	1.49e+00	0	62	104	79691776	53	14771
2026-01-25 01:01:46.89	348.64	19.71	-41.1	-53.5	3.8	1.49e+00	0	62	104	79691776	53	15260
2026-01-25 01:01:49.92	348.10	19.99	-41.1	-53.3	3.8	1.49e+00	0	62	104	79691776	53	14978
2026-01-25 01:01:52.95	347.56	20.27	-41.8	-53.2	3.8	1.49e+00	0	62	104	79691776	54	14024
2026-01-25 01:01:55.98	347.01	20.54	-41.1	-53.3	3.8	1.49e+00	0	62	104	79691776	54	14055
2026-01-25 01:01:59.01	346.44	20.82	-41.6	-50.6	4.2	1.48e+00	0	62	104	79691776	54	10372
2026-01-25 01:02:02.04	345.87	21.10	-43.1	-54.3	3.8	1.49e+00	0	62	104	79691776	56	14187
2026-01-25 01:02:05.07	345.28	21.37	-41.0	-46.1	7.4	1.75e-01	0	62	0	81788928	52	6943
2026-01-25 01:02:08.09	344.69	21.65	-38.7	-41.4	12.3	2.46e-04	0	62	0	91226112	49	4806
2026-01-25 01:02:11.12	344.08	21.92	-38.1	-40.5	13.4	1.67e-05	0	62	0	100663296	48	4554
2026-01-25 01:02:14.15	343.47	22.20	-38.5	-41.0	13.0	3.73e-05	0	62	0	110100480	48	4831
2026-01-25 01:02:17.18	342.84	22.47	-38.7	-41.1	13.2	2.59e-05	0	62	0	119537664	48	4885
2026-01-25 01:02:20.21	342.20	22.75	-39.0	-41.5	13.1	2.59e-05	0	62	0	128974848	48	5107
2026-01-25 01:02:23.24	341.55	23.02	-38.9	-41.1	13.8	3.80e-06	0	62	0	138412032	48	4889
2026-01-25 01:02:26.27	340.88	23.29	-39.3	-41.6	13.6	1.06e-05	0	62	0	147849216	49	4915
2026-01-25 01:02:29.30	340.21	23.56	-38.9	-41.0	14.3	1.50e-06	0	62	0	157286400	49	4588
2026-01-25 01:02:32.33	339.52	23.83	-38.9	-40.9	14.4	1.50e-06	0	62	0	166723584	49	4532
2026-01-25 01:02:35.36	338.82	24.10	-39.0	-41.1	14.3	0.00e+00	0	62	0	176160768	49	4649
2026-01-25 01:02:38.39	338.11	24.37	-39.0	-41.0	14.5	7.00e-07	0	62	0	185597952	49	4574
2026-01-25 01:02:41.42	337.39	24.63	-39.2	-41.3	14.3	7.00e-07	0	62	0	195035136	49	4736
2026-01-25 01:02:44.44	336.65	24.89	-39.4	-41.6	14.0	4.50e-06	0	62	0	204472320	49	4911
2026-01-25 01:02:47.47	335.90	25.15	-39.5	-41.6	14.0	2.20e-06	0	62	0	213909504	49	4925
2026-01-25 01:02:50.50	335.14	25.40	-39.4	-41.5	14.1	2.20e-06	0	62	0	223346688	49	4868
2026-01-25 01:02:53.53	334.37	25.65	-39.4	-41.5	14.3	7.00e-07	0	62	0	232783872	49	4831
2026-01-25 01:02:56.56	333.59	25.90	-39.4	-41.4	14.3	7.00e-07	0	62	0	242221056	49	4812
2026-01-25 01:02:59.59	332.79	26.15	-39.5	-41.7	14.0	7.00e-07	0	62	0	251658240	49	4949
2026-01-25 01:03:02.61	331.98	26.39	-39.4	-41.5	14.2	7.00e-07	0	62	0	261095424	49	4868
2026-01-25 01:03:05.64	331.16	26.62	-39.6	-41.8	13.9	0.00e+00	0	62	0	270532608	49	5011
2026-01-25 01:03:08.67	330.32	26.85	-39.6	-41.7	14.1	1.50e-06	0	62	0	279969792	49	4982
2026-01-25 01:03:11.71	329.47	27.08	-39.7	-41.9	13.9	1.50e-06	0	62	0	289406976	49	5043
2026-01-25 01:03:14.74	328.61	27.30	-39.4	-41.5	14.4	0.00e+00	0	62	0	298844160	49	4816
2026-01-25 01:03:17.77	327.74	27.52	-39.4	-41.4	14.4	1.50e-06	0	62	0	308281344	49	4812
2026-01-25 01:03:20.80	326.86	27.73	-39.6	-41.7	14.1	2.20e-06	0	62	0	317718528	49	4951
2026-01-25 01:03:23.83	325.96	27.93	-39.6	-41.7	14.1	2.20e-06	0	62	0	327155712	49	4955
2026-01-25 01:03:26.86	325.06	28.13	-39.6	-41.8	14.1	7.00e-07	0	62	0	336592896	49	4990
2026-01-25 01:03:29.89	324.14	28.32	-39.7	-41.9	14.0	3.00e-06	0	62	0	346030080	50	4760
2026-01-25 01:03:32.92	323.21	28.51	-39.4	-41.5	14.4	0.00e+00	0	62	0	355467264	50	4580
2026-01-25 01:03:35.95	322.27	28.68	-39.6	-41.8	14.1	7.00e-07	0	62	0	364904448	50	4726
2026-01-25 01:03:38.98	321.32	28.85	-39.5	-41.7	14.2	7.00e-07	0	62	0	374341632	50	4654
2026-01-25 01:03:42.01	320.36	29.01	-39.9	-42.2	13.7	1.06e-05	0	62	0	383778816	50	4954
2026-01-25 01:03:45.04	319.39	29.17	-39.9	-42.1	13.7	5.30e-06	0	62	0	393216000	50	4918
2026-01-25 01:03:48.07	318.41	29.31	-39.7	-41.9	13.9	1.50e-06	0	62	0	402653184	50	4797
2026-01-25 01:03:51.10	317.42	29.45	-40.0	-42.3	13.6	8.30e-06	0	62	0	413138944	50	4985
2026-01-25 01:03:54.12	316.43	29.57	-40.0	-42.3	13.5	8.30e-06	0	62	0	422576128	50	5021
2026-01-25 01:03:57.15	315.43	29.69	-40.0	-42.3	13.5	9.10e-06	0	62	0	432013312	50	4998
2026-01-25 01:04:00.18	314.42	29.80	-39.8	-42.1	13.7	5.30e-06	0	62	0	441450496	50	4888
2026-01-25 01:04:03.21	313.40	29.90	-40.0	-42.3	13.6	9.90e-06	0	62	0	450887680	50	5005
2026-01-25 01:04:06.24	312.38	29.99	-39.9	-42.1	13.8	6.80e-06	0	62	0	460324864	50	4891
2026-01-25 01:04:09.27	311.35	30.07	-39.8	-42.0	13.8	7.00e-07	0	62	0	469762048	50	4859
2026-01-25 01:04:12.30	310.32	30.13	-39.6	-41.8	14.1	1.50e-06	0	62	0	479199232	50	4708
2026-01-25 01:04:15.33	309.28	30.19	-39.8	-42.1	13.7	6.10e-06	0	62	0	488636416	50	4892
2026-01-25 01:04:18.36	308.24	30.24	-39.6	-41.7	14.1	7.00e-07	0	62	0	498073600	50	4695
2026-01-25 01:04:21.39	307.20	30.28	-39.7	-41.9	14.0	2.20e-06	0	62	0	507510784	50	4778
2026-01-25 01:04:24.42	306.15	30.30	-39.7	-41.8	14.1	1.50e-06	0	62	0	516947968	50	4736
2026-01-25 01:04:27.45	305.10	30.32	-39.5	-41.6	14.2	2.20e-06	0	62	0	526385152	50	4644
2026-01-25 01:04:30.48	304.06	30.32	-39.4	-41.5	14.4	2.20e-06	0	62	0	535822336	50	4559
2026-01-25 01:04:33.51	303.01	30.32	-39.2	-41.1	14.7	7.00e-07	0	62	0	545259520	50	4379
2026-01-25 01:04:36.54	301.96	30.30	-39.3	-41.3	14.6	0.00e+00	0	62	0	554696704	50	4463
2026-01-25 01:04:39.57	300.92	30.27	-39.3	-41.3	14.5	0.00e+00	0	62	0	564133888	50	4480
2026-01-25 01:04:42.60	299.87	30.24	-39.5	-41.6	14.2	7.00e-07	0	62	0	573571072	50	4639
2026-01-25 01:04:45.63	298.83	30.19	-39.6	-41.7	14.2	7.00e-07	0	62	0	583008256	50	4684
2026-01-25 01:04:48.66	297.79	30.13	-40.1	-42.4	13.4	8.30e-06	0	62	0	592445440	50	5074
2026-01-25 01:04:51.68	296.76	30.06	-39.9	-42.2	13.6	1.14e-05	0	62	0	601882624	50	4949
2026-01-25 01:04:54.71	295.73	29.98	-39.7	-41.9	14.0	7.00e-07	0	62	0	611319808	50	4761
2026-01-25 01:04:57.74	294.71	29.89	-39.6	-41.8	14.1	2.20e-06	0	62	0	620756992	50	4713
2026-01-25 01:05:00.77	293.69	29.79	-39.6	-41.7	14.2	2.20e-06	0	62	0	630194176	50	4667
2026-01-25 01:05:03.80	292.68	29.68	-39.6	-41.8	14.1	3.00e-06	0	62	0	639631360	50	4727
2026-01-25 01:05:06.83	291.68	29.56	-39.6	-41.8	14.1	3.80e-06	0	62	0	649068544	50	4709
2026-01-25 01:05:09.86	290.68	29.44	-39.5	-41.7	14.2	1.50e-06	0	62	0	658505728	50	4661
2026-01-25 01:05:12.89	289.69	29.30	-39.5	-41.6	14.2	1.50e-06	0	62	0	667942912	50	4633
2026-01-25 01:05:15.91	288.71	29.15	-39.5	-41.6	14.3	1.50e-06	0	62	0	677380096	50	4622
2026-01-25 01:05:18.94	287.74	29.00	-39.8	-42.0	13.8	7.60e-06	0	62	0	686817280	50	4854
2026-01-25 01:05:21.97	286.78	28.84	-39.8	-42.0	13.7	1.43e-04	0	62	0	696254464	50	4861
2026-01-25 01:05:25.00	285.83	28.67	-39.6	-41.8	13.9	4.50e-06	0	62	0	705691648	50	4745
2026-01-25 01:05:28.03	284.89	28.49	-39.5	-41.5	14.3	0.00e+00	0	62	0	715128832	50	4594
2026-01-25 01:05:31.06	283.96	28.30	-39.4	-41.5	14.1	1.15e-04	0	62	0	724566016	50	4591
2026-01-25 01:05:34.09	283.04	28.11	-39.5	-41.7	14.2	1.50e-06	0	62	0	735051776	50	4663
2026-01-25 01:05:37.12	282.13	27.91	-39.4	-41.5	14.2	0.00e+00	0	62	0	743440384	50	4593
2026-01-25 01:05:40.15	281.23	27.71	-39.4	-41.5	14.2	4.50e-06	0	62	0	753926144	50	4582
2026-01-25 01:05:43.18	280.35	27.50	-39.3	-41.4	14.4	7.00e-07	0	62	0	763363328	50	4509
2026-01-25 01:05:46.22	279.47	27.28	-38.9	-40.8	14.9	0.00e+00	0	62	0	772800512	49	4469
2026-01-25 01:05:49.25	278.61	27.05	-39.3	-41.4	14.4	7.00e-07	0	62	0	782237696	49	4784
2026-01-25 01:05:52.28	277.76	26.83	-40.2	-42.7	13.0	1.87e-04	0	62	0	791674880	50	5273
2026-01-25 01:05:55.31	276.92	26.59	-39.9	-42.3	13.5	9.10e-06	0	62	0	801112064	50	4992
2026-01-25 01:05:58.34	276.10	26.36	-39.5	-41.6	14.2	3.00e-06	0	62	0	810549248	50	4619
2026-01-25 01:06:01.37	275.29	26.11	-39.5	-41.6	14.1	0.00e+00	0	62	0	819986432	50	4643
2026-01-25 01:06:04.40	274.49	25.87	-39.5	-41.6	14.1	7.00e-07	0	62	0	829423616	50	4624
2026-01-25 01:06:07.42	273.70	25.62	-39.4	-41.5	14.2	7.00e-07	0	62	0	838860800	50	4565
2026-01-25 01:06:10.45	272.93	25.37	-39.4	-41.5	14.2	1.50e-06	0	62	0	848297984	50	4577
2026-01-25 01:06:13.48	272.16	25.11	-39.3	-41.3	14.3	0.00e+00	0	62	0	857735168	50	4482
2026-01-25 01:06:16.52	271.41	24.85	-38.8	-40.6	15.0	0.00e+00	0	62	0	867172352	49	4390
2026-01-25 01:06:19.54	270.67	24.59	-38.7	-40.6	15.1	0.00e+00	0	62	0	876609536	49	4360
2026-01-25 01:06:22.57	269.95	24.32	-38.8	-40.7	15.0	0.00e+00	0	62	0	886046720	49	4432
2026-01-25 01:06:25.61	269.23	24.06	-38.6	-40.5	15.2	0.00e+00	0	62	0	895483904	49	4326
2026-01-25 01:06:28.64	268.53	23.79	-38.8	-40.8	14.9	0.00e+00	0	62	0	904921088	49	4448
2026-01-25 01:06:31.67	267.84	23.52	-38.7	-40.6	15.1	0.00e+00	0	62	0	914358272	49	4381
2026-01-25 01:06:34.69	267.17	23.25	-38.8	-40.8	14.9	0.00e+00	0	62	0	923795456	49	4447
2026-01-25 01:06:37.72	266.50	22.97	-38.8	-40.7	14.9	0.00e+00	0	62	0	933232640	49	4426
2026-01-25 01:06:40.75	265.85	22.70	-38.9	-40.9	14.8	7.00e-07	0	62	0	942669824	49	4498
2026-01-25 01:06:43.78	265.20	22.42	-39.1	-41.1	14.5	1.50e-06	0	62	0	952107008	49	4637
2026-01-25 01:06:46.81	264.57	22.15	-39.0	-41.0	14.6	0.00e+00	0	62	0	961544192	49	4583
2026-01-25 01:06:49.84	263.95	21.87	-39.0	-41.0	14.7	0.00e+00	0	62	0	970981376	49	4546
2026-01-25 01:06:52.87	263.34	21.59	-38.9	-40.8	14.8	0.00e+00	0	62	0	980418560	49	4493
2026-01-25 01:06:55.90	262.75	21.31	-39.0	-41.1	14.6	0.00e+00	0	62	0	989855744	49	4610
2026-01-25 01:06:58.93	262.16	21.04	-39.4	-41.5	14.1	3.00e-06	0	62	0	999292928	49	4848
2026-01-25 01:07:01.96	261.58	20.76	-39.5	-41.7	14.0	1.50e-06	0	62	0	1008730112	49	4937
2026-01-25 01:07:04.99	261.02	20.48	-39.5	-41.8	13.9	6.10e-06	0	62	0	1018167296	49	4993
2026-01-25 01:07:08.02	260.46	20.20	-39.2	-41.3	14.3	0.00e+00	0	62	0	1027604480	49	4722
2026-01-25 01:07:11.05	259.91	19.92	-39.0	-41.0	14.6	0.00e+00	0	62	0	1037041664	49	4597
2026-01-25 01:07:14.08	259.38	19.65	-39.5	-41.7	13.9	1.50e-06	0	62	0	1046478848	49	4948
2026-01-25 01:07:17.11	258.85	19.37	-39.6	-41.9	13.7	6.10e-06	0	62	0	1056964608	49	5073
2026-01-25 01:07:20.14	258.33	19.09	-39.6	-41.8	13.8	6.80e-06	0	62	0	1065353216	49	5010
2026-01-25 01:07:23.17	257.83	18.82	-39.4	-41.6	13.9	2.20e-06	0	62	0	1075838976	49	4926
2026-01-25 01:07:26.20	257.33	18.54	-39.9	-42.3	13.3	1.83e-05	0	62	0	1085276160	50	5020
2026-01-25 01:07:29.22	256.84	18.27	-39.8	-42.1	13.5	9.90e-06	0	62	0	1094713344	50	4891
2026-01-25 01:07:32.25	256.36	18.00	-39.3	-41.4	14.2	7.00e-07	0	62	0	1104150528	50	4501
2026-01-25 01:07:35.28	255.89	17.73	-39.3	-41.4	14.2	7.00e-07	0	62	0	1113587712	50	4519
2026-01-25 01:07:38.31	255.42	17.45	-39.8	-42.2	13.4	1.22e-05	0	62	0	1123024896	50	4954
2026-01-25 01:07:41.35	254.97	17.18	-39.9	-42.3	13.3	2.44e-05	0	62	0	1132462080	50	4999
2026-01-25 01:07:44.37	254.52	16.92	-39.5	-41.8	13.8	5.30e-06	0	62	0	1141899264	50	4714
2026-01-25 01:07:47.40	254.08	16.65	-39.2	-41.3	14.3	7.00e-07	0	62	0	1151336448	50	4467
2026-01-25 01:07:50.43	253.65	16.38	-39.6	-41.9	13.7	4.50e-06	0	62	0	1160773632	50	4781
2026-01-25 01:07:53.47	253.23	16.12	-40.1	-42.6	12.9	4.42e-05	0	62	0	1170210816	50	5207
2026-01-25 01:07:56.50	252.81	15.85	-39.9	-42.3	13.2	2.74e-05	0	62	0	1179648000	50	5038
2026-01-25 01:07:59.52	252.40	15.59	-39.6	-41.8	13.6	4.50e-06	0	62	0	1189085184	50	4758
2026-01-25 01:08:02.55	252.00	15.33	-39.4	-41.6	13.9	2.20e-06	0	62	0	1198522368	50	4624
2026-01-25 01:08:05.58	251.61	15.07	-39.5	-41.8	13.7	7.60e-06	0	62	0	1207959552	50	4712
2026-01-25 01:08:08.61	251.22	14.81	-39.8	-42.1	13.3	1.75e-05	0	62	0	1217396736	50	4918
2026-01-25 01:08:11.64	250.84	14.55	-40.0	-42.5	13.0	3.35e-05	0	62	0	1226833920	50	5102
2026-01-25 01:08:14.67	250.46	14.30	-39.9	-42.4	13.0	3.58e-05	0	62	0	1236271104	50	5074
2026-01-25 01:08:17.70	250.10	14.04	-39.4	-41.6	13.9	4.50e-06	0	62	0	1245708288	50	4602
2026-01-25 01:08:20.73	249.73	13.79	-39.3	-41.5	13.9	5.30e-06	0	62	0	1255145472	50	4583
2026-01-25 01:08:23.76	249.38	13.54	-39.3	-41.5	14.0	5.30e-06	0	62	0	1264582656	50	4571
2026-01-25 01:08:26.79	249.03	13.29	-39.6	-41.9	13.5	1.06e-05	0	62	0	1274019840	50	4811
2026-01-25 01:08:29.82	248.69	13.04	-40.1	-42.7	12.8	6.10e-05	0	62	0	1283457024	50	5240
2026-01-25 01:08:32.84	248.35	12.80	-40.2	-42.9	12.5	1.04e-04	0	62	0	1292894208	51	5059
2026-01-25 01:08:35.87	248.02	12.55	-40.1	-42.7	12.6	7.85e-05	0	62	0	1302331392	51	4955
2026-01-25 01:08:38.90	247.69	12.31	-39.8	-42.3	13.0	4.34e-05	0	62	0	1311768576	51	4726
2026-01-25 01:08:41.93	247.37	12.06	-39.5	-41.8	13.6	9.10e-06	0	62	0	1321205760	51	4461
2026-01-25 01:08:44.96	247.06	11.82	-39.6	-42.0	13.3	1.14e-05	0	62	0	1330642944	50	4861
2026-01-25 01:08:47.99	246.75	11.59	-40.0	-42.6	12.8	5.41e-05	0	62	0	1340080128	50	5183
2026-01-25 01:08:51.02	246.44	11.35	-40.4	-43.2	12.1	2.25e-04	0	62	0	1349517312	51	5224
2026-01-25 01:08:54.05	246.14	11.11	-40.5	-43.4	11.9	4.95e-04	0	62	0	1358954496	51	5370
2026-01-25 01:08:57.08	245.85	10.88	-40.5	-43.4	11.8	5.37e-04	0	62	0	1368391680	51	5401
2026-01-25 01:09:00.11	245.55	10.64	-40.3	-43.2	12.0	3.64e-04	0	62	0	1377828864	51	5227
2026-01-25 01:09:03.14	245.27	10.41	-40.3	-43.1	12.1	3.90e-04	0	62	0	1388314624	51	5195
2026-01-25 01:09:06.18	244.99	10.18	-40.1	-42.8	12.4	1.59e-04	0	62	0	1396703232	51	5035
2026-01-25 01:09:09.21	244.71	9.95	-40.3	-43.0	12.1	2.50e-04	0	62	0	1407188992	51	5158
2026-01-25 01:09:12.24	244.44	9.73	-40.4	-43.3	11.9	4.39e-04	0	62	0	1416626176	51	5294
2026-01-25 01:09:15.27	244.17	9.50	-40.6	-43.6	11.5	7.19e-04	0	62	0	1426063360	51	5501
2026-01-25 01:09:18.30	243.91	9.28	-40.7	-43.8	11.2	1.45e-03	0	62	0	1435500544	52	5331
2026-01-25 01:09:21.33	243.65	9.05	-40.8	-44.0	10.9	2.26e-03	0	62	0	1444937728	52	5462
2026-01-25 01:09:24.36	243.39	8.83	-40.8	-44.1	10.9	2.20e-03	0	62	0	1454374912	52	5477
2026-01-25 01:09:27.39	243.14	8.61	-40.8	-44.1	10.9	2.35e-03	0	62	0	1463812096	52	5465
2026-01-25 01:09:30.42	242.89	8.39	-40.7	-43.9	11.0	2.06e-03	0	62	0	1473249280	52	5397
2026-01-25 01:09:33.45	242.65	8.17	-40.6	-43.8	11.0	1.66e-03	0	62	0	1482686464	52	5320
2026-01-25 01:09:36.48	242.41	7.96	-44.5	-56.6	3.8	1.49e+00	0	62	104	1490026496	59	15495
2026-01-25 01:09:39.51	242.17	7.74	-45.0	-57.4	3.8	1.49e+00	0	62	104	1490026496	60	16112
2026-01-25 01:09:42.54	241.94	7.53	-45.2	-57.6	3.8	1.49e+00	0	62	104	1490026496	60	16348
2026-01-25 01:09:45.58	241.70	7.32	-45.2	-57.6	3.8	1.49e+00	0	62	104	1490026496	61	15499
2026-01-25 01:09:48.61	241.48	7.11	-45.1	-57.5	3.8	1.49e+00	0	62	104	1490026496	61	15354
2026-01-25 01:09:51.64	241.26	6.90	-45.2	-57.6	3.8	1.49e+00	0	62	104	1490026496	61	15420
2026-01-25 01:09:54.67	241.04	6.69	-45.1	-57.4	3.8	1.49e+00	0	62	104	1490026496	61	15214
2026-01-25 01:09:57.70	240.82	6.48	-45.1	-57.5	3.8	1.49e+00	0	62	104	1490026496	61	15254
2026-01-25 01:10:00.74	240.60	6.28	-45.1	-57.5	3.8	1.49e+00	0	62	104	1490026496	61	15228
2026-01-25 01:10:03.77	240.39	6.07	-45.1	-57.5	3.8	1.49e+00	0	62	104	1490026496	61	15230
2026-01-25 01:10:06.80	240.19	5.87	-45.1	-57.5	3.8	1.49e+00	0	62	104	1490026496	61	15231
2026-01-25 01:10:09.83	239.98	5.67	-45.1	-57.5	3.8	1.49e+00	0	62	104	1490026496	61	15226
2026-01-25 01:10:12.86	239.78	5.47	-45.1	-57.4	3.8	1.49e+00	0	62	104	1490026496	61	15195
2026-01-25 01:10:15.89	239.58	5.27	-45.1	-57.4	3.8	1.49e+00	0	62	104	1490026496	61	15190
2026-01-25 01:10:18.93	239.39	5.07	-45.1	-57.4	3.8	1.49e+00	0	62	104	1490026496	61	15191
2026-01-25 01:10:21.96	239.19	4.87	-45.1	-57.4	3.8	1.49e+00	0	62	104	1490026496	61	15153
2026-01-25 01:10:24.99	239.00	4.68	-45.0	-57.4	3.8	1.49e+00	0	62	104	1490026496	61	15149
2026-01-25 01:10:28.02	238.81	4.48	-45.1	-57.4	3.8	1.49e+00	0	62	104	1490026496	61	15125
2026-01-25 01:10:31.06	238.63	4.29	-45.1	-57.4	3.8	1.49e+00	0	62	104	1490026496	61	15138
2026-01-25 01:10:34.09	238.45	4.10	-45.1	-57.4	3.8	1.49e+00	0	62	104	1490026496	61	15175
2026-01-25 01:10:37.12	238.27	3.90	-45.0	-57.4	3.8	1.49e+00	0	62	104	1490026496	61	15173
2026-01-25 01:10:40.15	238.09	3.71	-45.0	-57.4	3.8	1.49e+00	0	62	104	1490026496	61	15106
2026-01-25 01:10:43.18	237.91	3.52	-45.0	-57.4	3.8	1.49e+00	0	62	104	1490026496	61	15093
2026-01-25 01:10:46.21	237.74	3.34	-45.0	-57.4	3.8	1.49e+00	0	62	104	1490026496	61	15093
2026-01-25 01:10:49.24	237.57	3.15	-45.0	-57.4	3.8	1.49e+00	0	62	104	1490026496	61	15141
2026-01-25 01:10:52.27	237.40	2.96	-45.0	-57.4	3.8	1.49e+00	0	62	104	1490026496	61	15144
2026-01-25 01:10:55.31	237.23	2.78	-45.0	-57.4	3.8	1.49e+00	0	62	104	1490026496	61	15151
2026-01-25 01:10:58.33	237.07	2.59	-45.0	-57.4	3.8	1.49e+00	0	62	104	1490026496	61	15078
2026-01-25 01:11:01.37	236.91	2.41	-45.0	-57.4	3.8	1.49e+00	0	62	104	1490026496	61	15127
2026-01-25 01:11:04.40	236.75	2.23	-45.0	-57.4	3.8	1.49e+00	0	62	104	1490026496	61	15126
2026-01-25 01:11:07.43	236.59	2.05	-45.0	-57.4	3.8	1.49e+00	0	62	104	1490026496	61	15096

#Closed at: 2026-01-25 01:11:08
#Recorded file [1490 MB]: D:/lorett/data/31039_260125_035826.dat