passes_logs/2026/01/25/R2.0S_Moscow/R2.0S_Moscow__20260125_114018_NOAA_20_JPSS-1_rec.log

#Pass ID: 20260125_114018_NOAA 20 (JPSS-1)
#Satellite: NOAA 20 (JPSS-1)
#Configuration: NOAA 20
#almurnet v.1.7.20251203
#Start time: 2026-01-25 11:40:20

#Version: 2.2.20231116
#Station: R2.0S_Moscow
#Location: 37.707566 lon 55.798166 lat
#TLE: 1 43013U 17073A   26024.42258823  .00000183  00000+0  10747-3 0  9990
#TLE: 2 43013  98.7646 325.2629 0001105  25.8644 334.2587 14.19539754424075

#Time	Az	El	Level	Level2	SNR	BER	BlckErr	Temp	State	Recorded	gain1	gain2
2026-01-25 11:40:20.11	214.33	2.07	-44.1	-58.6	3.8	1.49e+00	0	53	0	0	59	19517
2026-01-25 11:40:23.14	214.58	2.23	-44.0	-58.7	3.8	1.49e+00	0	54	104	0	60	18663
2026-01-25 11:40:26.17	214.83	2.38	-44.1	-58.6	3.8	1.49e+00	0	54	104	0	59	19463
2026-01-25 11:40:29.20	215.08	2.54	-44.1	-58.6	3.8	1.49e+00	0	54	104	0	59	19488
2026-01-25 11:40:32.23	215.33	2.70	-44.1	-58.5	3.8	1.49e+00	0	54	104	0	59	19378
2026-01-25 11:40:35.26	215.59	2.86	-44.1	-58.6	3.8	1.49e+00	0	54	104	0	59	19452
2026-01-25 11:40:38.30	215.85	3.03	-44.1	-58.6	3.8	1.49e+00	0	55	104	0	59	19421
2026-01-25 11:40:41.33	216.11	3.19	-44.1	-58.6	3.8	1.49e+00	0	55	104	0	59	19451
2026-01-25 11:40:44.36	216.37	3.35	-44.1	-58.6	3.8	1.49e+00	0	55	104	0	59	19468
2026-01-25 11:40:47.39	216.64	3.51	-44.1	-58.6	3.8	1.49e+00	0	55	104	0	59	19435
2026-01-25 11:40:50.42	216.91	3.68	-44.1	-58.6	3.8	1.49e+00	0	55	104	0	59	19426
2026-01-25 11:40:53.46	217.19	3.84	-44.1	-58.6	3.8	1.49e+00	0	55	104	0	59	19422
2026-01-25 11:40:56.48	217.46	4.00	-44.1	-58.6	3.8	1.49e+00	0	56	104	0	59	19444
2026-01-25 11:40:59.51	217.74	4.17	-44.1	-58.5	3.8	1.49e+00	0	56	104	0	59	19389
2026-01-25 11:41:02.55	218.02	4.33	-44.1	-58.6	3.8	1.49e+00	0	56	104	0	59	19452
2026-01-25 11:41:05.58	218.31	4.50	-44.1	-58.5	3.8	1.49e+00	0	56	104	0	59	19345
2026-01-25 11:41:08.61	218.60	4.66	-44.1	-58.5	3.8	1.49e+00	0	57	104	0	59	19368
2026-01-25 11:41:11.64	218.89	4.83	-44.1	-58.5	3.8	1.49e+00	0	57	104	0	59	19377
2026-01-25 11:41:14.67	219.19	5.00	-44.1	-58.5	3.8	1.49e+00	0	57	104	0	59	19357
2026-01-25 11:41:17.70	219.48	5.16	-44.1	-58.5	3.8	1.49e+00	0	57	104	0	59	19368
2026-01-25 11:41:20.73	219.79	5.33	-44.0	-58.5	3.8	1.49e+00	0	57	104	0	59	19245
2026-01-25 11:41:23.76	220.09	5.50	-44.0	-58.5	3.8	1.49e+00	0	57	104	0	59	19224
2026-01-25 11:41:26.80	220.40	5.67	-44.0	-58.4	3.8	1.49e+00	0	57	104	0	59	19087
2026-01-25 11:41:29.83	220.71	5.83	-44.0	-58.3	3.8	1.49e+00	0	57	104	0	59	18926
2026-01-25 11:41:32.86	221.03	6.00	-44.0	-58.2	3.8	1.49e+00	0	57	104	0	59	18706
2026-01-25 11:41:35.89	221.35	6.17	-44.0	-58.1	3.8	1.49e+00	0	58	104	0	59	18380
2026-01-25 11:41:38.92	221.67	6.34	-44.0	-57.5	3.8	1.49e+00	0	58	104	0	59	17220
2026-01-25 11:41:41.95	221.99	6.51	-43.9	-56.8	3.8	1.49e+00	0	58	104	0	59	15927
2026-01-25 11:41:44.99	222.32	6.68	-43.8	-55.4	4.1	1.47e+00	0	58	104	0	59	13514
2026-01-25 11:41:48.02	222.66	6.85	-43.7	-54.1	4.5	1.26e+00	26	58	0	1048576	59	11676
2026-01-25 11:41:51.05	223.00	7.02	-43.6	-53.1	4.9	7.22e-01	0	58	0	6291456	59	10366
2026-01-25 11:41:54.08	223.34	7.20	-43.6	-53.3	4.8	7.94e-01	0	58	0	12582912	59	10541
2026-01-25 11:41:57.11	223.68	7.37	-43.7	-53.9	4.5	9.67e-01	0	58	0	17825792	59	11408
2026-01-25 11:42:00.14	224.03	7.54	-43.5	-52.6	5.2	7.09e-01	0	58	0	24117248	59	9764
2026-01-25 11:42:03.18	224.38	7.71	-43.1	-50.3	7.0	2.04e-01	0	58	0	29360128	58	7920
2026-01-25 11:42:06.20	224.74	7.88	-42.6	-48.4	8.7	4.40e-02	0	58	0	35651584	57	6792
2026-01-25 11:42:09.24	225.10	8.06	-42.5	-48.0	9.2	2.18e-02	0	59	0	40894464	57	6435
2026-01-25 11:42:12.27	225.47	8.23	-43.4	-51.0	6.5	1.43e-01	0	59	0	44040192	57	9108
2026-01-25 11:42:15.29	225.84	8.40	-42.7	-48.5	8.8	3.66e-02	0	59	0	49283072	57	6877
2026-01-25 11:42:18.32	226.21	8.57	-42.6	-48.1	9.3	1.73e-02	0	59	0	54525952	57	6532
2026-01-25 11:42:21.35	226.59	8.75	-42.3	-47.3	10.2	6.36e-03	0	59	0	60817408	56	6282
2026-01-25 11:42:24.38	226.97	8.92	-42.2	-47.0	10.5	4.54e-03	0	59	0	66060288	56	6122
2026-01-25 11:42:27.41	227.36	9.09	-42.2	-47.0	10.6	3.35e-03	0	59	0	72351744	56	6062
2026-01-25 11:42:30.44	227.75	9.27	-42.1	-46.8	10.8	2.89e-03	0	59	0	77594624	56	5932
2026-01-25 11:42:33.46	228.14	9.44	-42.1	-46.8	10.8	3.05e-03	0	59	0	82837504	56	5929
2026-01-25 11:42:36.49	228.54	9.61	-42.2	-46.9	10.7	2.78e-03	0	59	0	89128960	56	6010
2026-01-25 11:42:39.52	228.95	9.79	-42.2	-46.8	10.8	2.65e-03	0	59	0	94371840	56	5942
2026-01-25 11:42:42.55	229.36	9.96	-42.2	-46.8	10.8	2.88e-03	0	60	0	100663296	56	5947
2026-01-25 11:42:45.58	229.77	10.13	-42.2	-46.9	10.6	3.21e-03	0	59	0	105906176	56	6056
2026-01-25 11:42:48.61	230.19	10.31	-42.3	-47.1	10.5	4.06e-03	0	59	0	112197632	56	6135
2026-01-25 11:42:51.63	230.61	10.48	-42.3	-47.0	10.6	3.72e-03	0	60	0	117440512	56	6108
2026-01-25 11:42:54.67	231.04	10.65	-42.2	-46.9	10.8	2.52e-03	0	60	0	122683392	56	6003
2026-01-25 11:42:57.69	231.48	10.82	-42.2	-46.8	10.8	2.64e-03	0	60	0	128974848	56	5992
2026-01-25 11:43:00.72	231.92	11.00	-42.3	-46.9	10.7	2.86e-03	0	60	0	134217728	56	6049
2026-01-25 11:43:03.75	232.36	11.17	-42.2	-46.8	10.8	2.45e-03	0	60	0	140509184	56	5956
2026-01-25 11:43:06.78	232.81	11.34	-42.2	-46.6	11.1	1.71e-03	0	60	0	145752064	56	5821
2026-01-25 11:43:09.81	233.26	11.51	-42.1	-46.5	11.2	1.46e-03	0	60	0	150994944	56	5782
2026-01-25 11:43:12.84	233.72	11.68	-42.2	-46.6	11.2	1.36e-03	0	60	0	157286400	56	5813
2026-01-25 11:43:15.86	234.18	11.85	-42.1	-46.5	11.2	1.39e-03	0	60	0	162529280	56	5778
2026-01-25 11:43:18.89	234.65	12.02	-42.1	-46.4	11.3	1.23e-03	0	60	0	168820736	56	5687
2026-01-25 11:43:21.92	235.13	12.19	-42.1	-46.5	11.2	1.13e-03	0	60	0	174063616	56	5768
2026-01-25 11:43:24.95	235.61	12.36	-42.2	-46.6	11.1	1.40e-03	0	60	0	180355072	56	5836
2026-01-25 11:43:27.98	236.09	12.53	-42.0	-46.1	11.6	7.91e-04	0	60	0	185597952	56	5526
2026-01-25 11:43:31.01	236.58	12.70	-41.8	-45.9	11.7	5.56e-04	0	60	0	190840832	55	5683
2026-01-25 11:43:34.04	237.08	12.86	-41.7	-45.7	11.9	4.35e-04	0	60	0	197132288	55	5582
2026-01-25 11:43:37.07	237.58	13.03	-41.8	-45.8	11.8	3.75e-04	0	60	0	202375168	55	5610
2026-01-25 11:43:40.10	238.09	13.19	-41.5	-45.3	12.3	2.23e-04	0	60	0	208666624	55	5321
2026-01-25 11:43:43.12	238.60	13.36	-41.5	-45.2	12.5	1.41e-04	0	60	0	213909504	54	5576
2026-01-25 11:43:46.15	239.12	13.52	-41.5	-45.3	12.4	1.37e-04	0	60	0	219152384	54	5598
2026-01-25 11:43:49.18	239.64	13.68	-41.5	-45.2	12.5	1.26e-04	0	60	0	225443840	54	5564
2026-01-25 11:43:52.21	240.17	13.84	-41.5	-45.2	12.4	1.26e-04	0	60	0	230686720	54	5583
2026-01-25 11:43:55.24	240.71	14.00	-41.3	-44.8	12.9	4.73e-05	0	60	0	236978176	54	5325
2026-01-25 11:43:58.27	241.25	14.16	-41.4	-44.9	12.8	5.34e-05	0	60	0	242221056	54	5400
2026-01-25 11:44:01.30	241.79	14.32	-41.4	-45.0	12.7	6.25e-05	0	61	0	247463936	54	5450
2026-01-25 11:44:04.32	242.34	14.47	-41.4	-45.0	12.7	7.62e-05	0	61	0	253755392	54	5436
2026-01-25 11:44:07.35	242.90	14.63	-41.3	-44.8	12.9	4.27e-05	0	61	0	258998272	54	5323
2026-01-25 11:44:10.38	243.46	14.78	-41.4	-45.1	12.6	7.24e-05	0	61	0	265289728	54	5469
2026-01-25 11:44:13.41	244.03	14.93	-41.5	-45.2	12.5	1.03e-04	0	61	0	270532608	54	5566
2026-01-25 11:44:16.43	244.60	15.08	-41.6	-45.4	12.4	1.48e-04	0	60	0	276824064	54	5657
2026-01-25 11:44:19.46	245.18	15.22	-41.6	-45.4	12.3	1.59e-04	0	61	0	282066944	54	5688
2026-01-25 11:44:22.49	245.77	15.37	-41.7	-45.6	12.1	2.35e-04	0	61	0	287309824	54	5847
2026-01-25 11:44:25.52	246.36	15.51	-41.9	-46.0	11.8	5.16e-04	0	61	0	293601280	54	6066
2026-01-25 11:44:28.55	246.95	15.65	-42.0	-46.2	11.5	7.00e-04	0	61	0	298844160	54	6212
2026-01-25 11:44:31.58	247.56	15.79	-41.9	-46.1	11.6	6.64e-04	0	61	0	305135616	54	6163
2026-01-25 11:44:34.60	248.16	15.93	-42.0	-46.2	11.5	7.90e-04	0	61	0	310378496	54	6229
2026-01-25 11:44:37.63	248.77	16.06	-42.1	-46.5	11.2	1.08e-03	0	61	0	315621376	54	6436
2026-01-25 11:44:40.65	249.39	16.19	-42.1	-46.5	11.1	1.50e-03	0	61	0	321912832	54	6490
2026-01-25 11:44:43.68	250.01	16.32	-42.2	-46.7	11.0	1.52e-03	0	61	0	327155712	55	6228
2026-01-25 11:44:46.71	250.64	16.45	-42.3	-47.0	10.7	3.03e-03	0	61	0	333447168	55	6426
2026-01-25 11:44:49.74	251.27	16.58	-42.5	-47.3	10.4	4.20e-03	0	61	0	338690048	55	6686
2026-01-25 11:44:52.77	251.91	16.70	-42.4	-47.2	10.4	4.60e-03	0	61	0	344981504	55	6602
2026-01-25 11:44:55.79	252.55	16.82	-42.2	-46.8	10.9	2.10e-03	0	61	0	350224384	55	6292
2026-01-25 11:44:58.82	253.20	16.93	-42.2	-46.6	11.0	1.64e-03	0	61	0	355467264	55	6194
2026-01-25 11:45:01.85	253.85	17.04	-42.2	-46.7	11.0	1.92e-03	0	61	0	361758720	55	6229
2026-01-25 11:45:04.88	254.51	17.15	-42.2	-46.6	11.2	1.57e-03	0	61	0	367001600	55	6134
2026-01-25 11:45:07.91	255.17	17.26	-42.0	-46.1	11.7	6.93e-04	0	61	0	373293056	55	5792
2026-01-25 11:45:10.94	255.84	17.36	-41.9	-45.9	11.8	4.68e-04	0	61	0	378535936	55	5671
2026-01-25 11:45:13.97	256.51	17.47	-41.8	-45.7	12.1	2.84e-04	0	61	0	383778816	55	5529
2026-01-25 11:45:17.00	257.18	17.56	-41.8	-45.7	12.1	3.01e-04	0	61	0	390070272	55	5543
2026-01-25 11:45:20.03	257.86	17.66	-41.7	-45.6	12.2	2.14e-04	0	61	0	395313152	55	5480
2026-01-25 11:45:23.06	258.54	17.74	-41.8	-45.7	12.0	3.44e-04	0	61	0	401604608	55	5579
2026-01-25 11:45:26.08	259.23	17.83	-41.9	-45.9	11.8	5.06e-04	0	61	0	406847488	55	5688
2026-01-25 11:45:29.11	259.92	17.91	-41.9	-46.0	11.8	4.72e-04	0	61	0	413138944	55	5742
2026-01-25 11:45:32.14	260.61	17.99	-41.9	-46.0	11.7	4.49e-04	0	61	0	418381824	55	5744
2026-01-25 11:45:35.17	261.31	18.07	-41.8	-45.7	12.0	3.02e-04	0	61	0	423624704	55	5583
2026-01-25 11:45:38.20	262.01	18.14	-41.8	-45.7	12.0	2.43e-04	0	61	0	429916160	55	5592
2026-01-25 11:45:41.22	262.71	18.20	-41.9	-46.0	11.8	5.35e-04	0	61	0	435159040	55	5735
2026-01-25 11:45:44.25	263.42	18.27	-41.8	-45.9	11.9	4.29e-04	0	61	0	441450496	55	5664
2026-01-25 11:45:47.28	264.13	18.33	-41.9	-45.9	11.8	3.81e-04	0	61	0	446693376	55	5696
2026-01-25 11:45:50.30	264.84	18.38	-41.9	-45.9	11.9	3.84e-04	0	61	0	451936256	55	5681
2026-01-25 11:45:53.33	265.55	18.43	-41.8	-45.8	12.0	3.35e-04	0	61	0	458227712	55	5611
2026-01-25 11:45:56.36	266.27	18.48	-41.8	-45.8	12.0	3.16e-04	0	61	0	463470592	55	5607
2026-01-25 11:45:59.39	266.99	18.52	-42.0	-46.0	11.7	5.27e-04	0	61	0	469762048	55	5779
2026-01-25 11:46:02.42	267.71	18.56	-42.0	-46.2	11.5	7.38e-04	0	61	0	475004928	55	5888
2026-01-25 11:46:05.45	268.43	18.59	-41.9	-46.0	11.7	5.90e-04	0	62	0	481296384	55	5781
2026-01-25 11:46:08.48	269.15	18.62	-42.0	-46.1	11.7	6.80e-04	0	62	0	486539264	55	5809
2026-01-25 11:46:11.51	269.88	18.64	-42.0	-46.2	11.5	8.25e-04	0	61	0	491782144	55	5876
2026-01-25 11:46:14.54	270.60	18.66	-42.1	-46.5	11.2	1.24e-03	0	61	0	498073600	55	6092
2026-01-25 11:46:17.57	271.33	18.68	-42.1	-46.5	11.1	1.45e-03	0	61	0	503316480	55	6110
2026-01-25 11:46:20.60	272.06	18.69	-41.9	-46.0	11.8	4.48e-04	0	61	0	509607936	55	5732
2026-01-25 11:46:23.62	272.78	18.70	-42.0	-46.1	11.6	5.52e-04	0	61	0	514850816	55	5853
2026-01-25 11:46:26.65	273.51	18.70	-42.2	-46.6	11.1	1.40e-03	0	62	0	520093696	55	6168
2026-01-25 11:46:29.68	274.23	18.70	-42.1	-46.5	11.2	1.39e-03	0	62	0	526385152	55	6102
2026-01-25 11:46:32.71	274.96	18.69	-42.1	-46.4	11.3	1.25e-03	0	61	0	531628032	55	6042
2026-01-25 11:46:35.74	275.69	18.68	-42.1	-46.5	11.3	1.19e-03	0	61	0	537919488	55	6064
2026-01-25 11:46:38.77	276.41	18.66	-42.0	-46.2	11.5	9.63e-04	0	62	0	543162368	55	5887
2026-01-25 11:46:41.79	277.14	18.64	-42.0	-46.3	11.5	8.82e-04	0	61	0	549453824	55	5953
2026-01-25 11:46:44.82	277.86	18.62	-42.0	-46.2	11.6	7.57e-04	0	62	0	554696704	55	5858
2026-01-25 11:46:47.85	278.58	18.59	-41.9	-45.9	11.8	5.24e-04	0	62	0	559939584	55	5706
2026-01-25 11:46:50.88	279.30	18.55	-41.9	-45.9	11.8	4.82e-04	0	62	0	566231040	55	5720
2026-01-25 11:46:53.91	280.02	18.52	-41.9	-46.0	11.7	5.98e-04	0	61	0	571473920	55	5746
2026-01-25 11:46:56.94	280.74	18.47	-42.0	-46.1	11.6	6.64e-04	0	62	0	577765376	55	5844
2026-01-25 11:46:59.97	281.45	18.43	-42.0	-46.3	11.4	8.77e-04	0	61	0	583008256	55	5934
2026-01-25 11:47:02.99	282.16	18.38	-41.9	-46.0	11.7	7.39e-04	0	62	0	588251136	55	5725
2026-01-25 11:47:06.02	282.87	18.32	-41.7	-45.5	12.2	2.88e-04	0	62	0	594542592	55	5444
2026-01-25 11:47:09.05	283.58	18.26	-41.7	-45.5	12.2	2.51e-04	0	62	0	599785472	55	5442
2026-01-25 11:47:12.08	284.29	18.20	-41.7	-45.5	12.2	2.23e-04	0	62	0	606076928	55	5449
2026-01-25 11:47:15.11	284.99	18.13	-41.6	-45.5	12.2	2.77e-04	0	62	0	611319808	55	5422
2026-01-25 11:47:18.14	285.69	18.06	-41.6	-45.5	12.2	2.10e-04	0	62	0	616562688	55	5414
2026-01-25 11:47:21.17	286.38	17.99	-41.5	-45.3	12.4	1.36e-04	0	62	0	622854144	55	5313
2026-01-25 11:47:24.19	287.07	17.91	-41.4	-45.0	12.7	9.61e-05	0	62	0	628097024	54	5418
2026-01-25 11:47:27.22	287.76	17.83	-41.3	-44.8	12.9	4.95e-05	0	61	0	634388480	54	5329
2026-01-25 11:47:30.25	288.44	17.74	-41.3	-44.8	12.9	5.56e-05	0	61	0	639631360	54	5340
2026-01-25 11:47:33.28	289.13	17.65	-41.5	-45.2	12.5	9.91e-05	0	61	0	645922816	54	5549
2026-01-25 11:47:36.31	289.80	17.56	-41.5	-45.3	12.4	1.40e-04	0	62	0	651165696	54	5607
2026-01-25 11:47:39.33	290.47	17.46	-41.5	-45.2	12.5	1.56e-04	0	62	0	656408576	54	5544
2026-01-25 11:47:42.36	291.14	17.36	-41.3	-45.0	12.7	9.07e-05	0	62	0	662700032	54	5421
2026-01-25 11:47:45.39	291.80	17.26	-41.1	-44.5	13.3	1.37e-05	0	62	0	667942912	54	5105
2026-01-25 11:47:48.42	292.46	17.15	-41.0	-44.3	13.4	1.29e-05	0	62	0	674234368	53	5283
2026-01-25 11:47:51.45	293.12	17.04	-41.0	-44.4	13.3	2.05e-05	0	62	0	679477248	53	5349
2026-01-25 11:47:54.48	293.77	16.93	-41.1	-44.6	13.0	2.97e-05	0	62	0	684720128	53	5506
2026-01-25 11:47:57.51	294.41	16.81	-41.0	-44.3	13.3	2.51e-05	0	62	0	691011584	53	5330
2026-01-25 11:48:00.53	295.05	16.70	-40.8	-44.1	13.6	5.30e-06	0	62	0	696254464	53	5170
2026-01-25 11:48:03.56	295.68	16.58	-40.7	-43.8	13.9	4.50e-06	0	62	0	702545920	53	4996
2026-01-25 11:48:06.59	296.31	16.45	-40.8	-44.0	13.7	9.10e-06	0	62	0	707788800	53	5104
2026-01-25 11:48:09.62	296.94	16.33	-41.1	-44.5	13.1	3.35e-05	0	62	0	714080256	53	5439
2026-01-25 11:48:12.65	297.56	16.20	-41.1	-44.5	13.1	2.67e-05	0	62	0	719323136	53	5444
2026-01-25 11:48:15.68	298.17	16.07	-41.0	-44.4	13.3	2.28e-05	0	62	0	724566016	53	5362
2026-01-25 11:48:18.70	298.78	15.93	-41.1	-44.5	13.1	3.35e-05	0	62	0	730857472	53	5426
2026-01-25 11:48:21.73	299.38	15.80	-41.0	-44.3	13.3	1.75e-05	0	62	0	736100352	53	5324
2026-01-25 11:48:24.76	299.98	15.66	-41.3	-44.9	12.7	3.35e-05	0	62	0	742391808	53	5670
2026-01-25 11:48:27.79	300.57	15.52	-41.7	-45.7	11.8	3.21e-04	0	62	0	747634688	53	6247
2026-01-25 11:48:30.82	301.16	15.38	-42.0	-46.3	11.2	1.28e-03	0	62	0	752877568	54	6337
2026-01-25 11:48:33.84	301.74	15.23	-42.0	-46.4	11.1	1.67e-03	0	62	0	759169024	54	6417
2026-01-25 11:48:36.87	302.32	15.09	-42.0	-46.5	11.0	1.90e-03	0	61	0	764411904	54	6478
2026-01-25 11:48:39.90	302.89	14.94	-41.9	-46.2	11.3	1.24e-03	0	62	0	770703360	54	6233
2026-01-25 11:48:42.93	303.45	14.79	-41.9	-46.1	11.4	9.86e-04	0	62	0	775946240	54	6182
2026-01-25 11:48:45.96	304.01	14.64	-41.9	-46.3	11.2	1.18e-03	0	62	0	782237696	54	6304
2026-01-25 11:48:48.99	304.57	14.49	-42.1	-46.6	10.9	2.11e-03	0	62	0	787480576	54	6559
2026-01-25 11:48:52.02	305.12	14.33	-42.2	-46.9	10.6	3.30e-03	0	62	0	792723456	54	6730
2026-01-25 11:48:55.05	305.66	14.18	-42.3	-47.1	10.4	4.86e-03	0	62	0	799014912	55	6535
2026-01-25 11:48:58.08	306.20	14.02	-42.2	-46.9	10.6	4.09e-03	0	62	0	804257792	55	6402
2026-01-25 11:49:01.11	306.73	13.86	-42.1	-46.8	10.7	2.70e-03	0	62	0	810549248	55	6279
2026-01-25 11:49:04.14	307.25	13.70	-42.1	-46.6	10.9	2.30e-03	0	62	0	815792128	55	6181
2026-01-25 11:49:07.17	307.78	13.54	-42.0	-46.5	11.0	1.90e-03	0	62	0	821035008	55	6070
2026-01-25 11:49:10.20	308.29	13.38	-41.8	-46.1	11.4	9.87e-04	0	62	0	827326464	55	5816
2026-01-25 11:49:13.23	308.80	13.22	-41.7	-45.7	11.8	7.79e-04	0	62	0	832569344	55	5568
2026-01-25 11:49:16.25	309.30	13.06	-41.6	-45.7	11.7	4.49e-03	0	62	0	838860800	55	5565
2026-01-25 11:49:19.28	309.80	12.89	-41.7	-46.0	11.3	8.04e-03	0	62	0	844103680	55	5776
2026-01-25 11:49:22.31	310.30	12.73	-41.9	-46.5	10.8	8.90e-03	0	62	0	850395136	55	6120
2026-01-25 11:49:25.34	310.78	12.56	-42.1	-46.9	10.4	1.02e-02	0	62	0	855638016	55	6381
2026-01-25 11:49:28.37	311.27	12.40	-42.0	-46.7	10.7	3.35e-03	0	62	0	860880896	55	6219
2026-01-25 11:49:31.40	311.74	12.23	-41.9	-46.3	11.1	1.65e-03	0	62	0	867172352	55	5972
2026-01-25 11:49:34.42	312.22	12.06	-41.5	-45.4	12.0	3.69e-04	0	62	0	872415232	55	5380
2026-01-25 11:49:37.45	312.68	11.89	-41.6	-45.6	11.8	4.68e-04	0	62	0	878706688	54	5848
2026-01-25 11:49:40.48	313.14	11.73	-41.6	-45.7	11.7	5.42e-04	0	62	0	883949568	54	5901
2026-01-25 11:49:43.51	313.60	11.56	-41.5	-45.5	11.9	4.42e-04	0	62	0	889192448	54	5782
2026-01-25 11:49:46.54	314.05	11.39	-41.6	-45.7	11.7	5.20e-04	0	62	0	895483904	54	5874
2026-01-25 11:49:49.57	314.50	11.22	-41.7	-45.9	11.4	9.59e-04	0	62	0	900726784	54	6053
2026-01-25 11:49:52.60	314.94	11.05	-41.6	-45.8	11.6	6.87e-04	0	62	0	907018240	54	5944
2026-01-25 11:49:55.63	315.38	10.88	-41.5	-45.6	11.8	6.27e-04	0	62	0	912261120	54	5840
2026-01-25 11:49:58.65	315.81	10.71	-41.5	-45.7	11.6	5.05e-04	0	62	0	918552576	54	5868
2026-01-25 11:50:01.68	316.24	10.54	-41.7	-46.1	11.2	1.11e-03	0	62	0	923795456	54	6163
2026-01-25 11:50:04.71	316.66	10.36	-41.8	-46.2	11.1	1.73e-03	0	62	0	929038336	54	6224
2026-01-25 11:50:07.74	317.08	10.19	-41.6	-45.8	11.5	9.58e-04	0	62	0	935329792	54	5969
2026-01-25 11:50:10.77	317.49	10.02	-41.6	-45.8	11.5	8.79e-04	0	62	0	940572672	54	5967
2026-01-25 11:50:13.80	317.90	9.85	-41.7	-46.2	11.0	1.65e-03	0	62	0	946864128	54	6228
2026-01-25 11:50:16.83	318.30	9.68	-41.8	-46.4	10.9	2.39e-03	0	62	0	952107008	54	6351
2026-01-25 11:50:19.86	318.70	9.51	-41.8	-46.3	10.8	2.47e-03	0	62	0	957349888	54	6343
2026-01-25 11:50:22.89	319.09	9.34	-41.6	-45.8	11.4	1.11e-03	0	62	0	963641344	54	5966
2026-01-25 11:50:25.92	319.48	9.17	-41.6	-45.9	11.3	1.15e-03	0	62	0	968884224	54	6028
2026-01-25 11:50:28.95	319.87	8.99	-41.7	-46.3	10.9	1.97e-03	0	62	0	975175680	54	6276
2026-01-25 11:50:31.98	320.25	8.82	-41.8	-46.5	10.6	3.36e-03	0	62	0	980418560	54	6457
2026-01-25 11:50:35.01	320.63	8.65	-41.8	-46.5	10.6	3.48e-03	0	62	0	986710016	54	6451
2026-01-25 11:50:38.04	321.00	8.48	-41.8	-46.6	10.5	3.54e-03	0	62	0	991952896	54	6534
2026-01-25 11:50:41.06	321.37	8.31	-41.9	-46.8	10.3	4.70e-03	0	62	0	997195776	54	6664
2026-01-25 11:50:44.09	321.73	8.14	-42.0	-47.1	9.9	7.91e-03	0	62	0	1003487232	54	6957
2026-01-25 11:50:47.12	322.09	7.97	-44.3	-58.3	3.8	7.45e-01	0	62	104	1007681536	59	18944
2026-01-25 11:50:50.15	322.45	7.80	-44.8	-59.5	3.8	1.49e+00	0	62	104	1007681536	60	20403
2026-01-25 11:50:53.18	322.80	7.63	-45.2	-59.8	3.8	1.49e+00	0	62	104	1007681536	60	21189
2026-01-25 11:50:56.21	323.15	7.46	-45.1	-59.8	3.8	1.49e+00	0	62	104	1007681536	61	19850
2026-01-25 11:50:59.25	323.50	7.29	-45.1	-59.7	3.8	1.49e+00	0	62	104	1007681536	61	19751
2026-01-25 11:51:02.27	323.84	7.12	-45.0	-59.6	3.8	1.49e+00	0	62	104	1007681536	61	19542
2026-01-25 11:51:05.31	324.17	6.95	-45.0	-59.6	3.8	1.49e+00	0	62	104	1007681536	61	19602
2026-01-25 11:51:08.34	324.51	6.78	-44.8	-59.6	3.8	1.49e+00	0	62	104	1007681536	61	19524
2026-01-25 11:51:11.37	324.84	6.61	-45.0	-59.6	3.8	1.49e+00	0	62	104	1007681536	60	20730
2026-01-25 11:51:14.40	325.16	6.45	-45.0	-59.6	3.8	1.49e+00	0	62	104	1007681536	60	20664
2026-01-25 11:51:17.43	325.48	6.28	-45.0	-59.6	3.8	1.49e+00	0	62	104	1007681536	60	20717
2026-01-25 11:51:20.46	325.80	6.11	-45.0	-59.6	3.8	1.49e+00	0	62	104	1007681536	60	20719
2026-01-25 11:51:23.50	326.12	5.94	-45.0	-59.6	3.8	1.49e+00	0	62	104	1007681536	60	20755
2026-01-25 11:51:26.53	326.43	5.78	-45.0	-59.6	3.8	1.49e+00	0	62	104	1007681536	60	20734
2026-01-25 11:51:29.56	326.74	5.61	-45.0	-59.7	3.8	1.49e+00	0	62	104	1007681536	60	20783
2026-01-25 11:51:32.59	327.05	5.45	-45.0	-59.6	3.8	1.49e+00	0	62	104	1007681536	60	20616
2026-01-25 11:51:35.63	327.35	5.28	-45.0	-59.6	3.8	1.49e+00	0	62	104	1007681536	60	20648
2026-01-25 11:51:38.66	327.65	5.12	-45.0	-59.6	3.8	1.49e+00	0	62	104	1007681536	60	20660
2026-01-25 11:51:41.69	327.94	4.95	-45.0	-59.6	3.8	1.49e+00	0	62	104	1007681536	60	20658
2026-01-25 11:51:44.72	328.24	4.79	-45.0	-59.6	3.8	1.49e+00	0	62	104	1007681536	60	20641
2026-01-25 11:51:47.75	328.52	4.62	-45.0	-59.6	3.8	1.49e+00	0	62	104	1007681536	60	20639
2026-01-25 11:51:50.78	328.81	4.46	-45.0	-59.6	3.8	1.49e+00	0	62	104	1007681536	60	20629
2026-01-25 11:51:53.82	329.10	4.30	-44.8	-59.6	3.8	1.49e+00	0	62	104	1007681536	60	20590
2026-01-25 11:51:56.85	329.38	4.13	-44.9	-59.6	3.8	1.49e+00	0	62	104	1007681536	60	20627
2026-01-25 11:51:59.88	329.65	3.97	-44.5	-59.6	3.8	1.49e+00	0	62	104	1007681536	60	20700
2026-01-25 11:52:02.91	329.93	3.81	-45.0	-59.6	3.8	1.49e+00	0	62	104	1007681536	60	20664
2026-01-25 11:52:05.94	330.20	3.65	-44.9	-59.6	3.8	1.49e+00	0	62	104	1007681536	60	20601
2026-01-25 11:52:08.97	330.47	3.49	-45.0	-59.6	3.8	1.49e+00	0	62	104	1007681536	60	20622
2026-01-25 11:52:12.01	330.73	3.33	-45.0	-59.6	3.8	1.49e+00	0	62	104	1007681536	60	20583
2026-01-25 11:52:15.04	331.00	3.17	-45.0	-59.6	3.8	1.49e+00	0	62	104	1007681536	60	20639
2026-01-25 11:52:18.07	331.26	3.01	-45.0	-59.6	3.8	1.49e+00	0	62	104	1007681536	60	20559
2026-01-25 11:52:21.10	331.52	2.85	-45.0	-59.6	3.8	1.49e+00	0	62	104	1007681536	60	20683
2026-01-25 11:52:24.13	331.77	2.69	-45.0	-59.6	3.8	1.49e+00	0	62	104	1007681536	60	20604
2026-01-25 11:52:27.17	332.03	2.53	-44.9	-59.5	3.8	1.49e+00	0	62	104	1007681536	60	20499
2026-01-25 11:52:30.20	332.28	2.38	-44.9	-59.5	3.8	1.49e+00	0	62	104	1007681536	60	20522
2026-01-25 11:52:33.23	332.52	2.22	-44.9	-59.5	3.8	1.49e+00	0	62	104	1007681536	60	20443
2026-01-25 11:52:36.26	332.77	2.06	-44.9	-59.5	3.8	1.49e+00	0	62	104	1007681536	60	20396
2026-01-25 11:52:39.29	333.01	1.91	-44.9	-59.5	3.8	1.49e+00	0	62	104	1007681536	60	20435

#Closed at: 2026-01-25 11:52:40
#Recorded file [1007 MB]: D:/lorett/data/31039_260125_144019.dat