passes_logs/2026/01/25/R2.0S_Moscow/R2.0S_Moscow__20260125_103605_FENGYUN_3D_rec.log

#Pass ID: 20260125_103605_FENGYUN 3D
#Satellite: FENGYUN 3D
#Configuration: FENGYUN 3D
#almurnet v.1.7.20251203
#Start time: 2026-01-25 10:36:06

#Version: 2.2.20231116
#Station: R2.0S_Moscow
#Location: 37.707566 lon 55.798166 lat
#TLE: 1 43010U 17072A   26024.51794477  .00000040  00000+0  40682-4 0  9990
#TLE: 2 43010  98.9961 356.4820 0002494  91.2631 268.8830 14.19699550424601

#Time	Az	El	Level	Level2	SNR	BER	BlckErr	Temp	State	Recorded	gain1	gain2
2026-01-25 10:36:06.44	120.02	2.03	-22.5	-38.8	4.2	8.10e-01	0	52	0	0	16	23606
2026-01-25 10:36:10.48	119.79	2.27	-20.7	-37.1	4.0	8.05e-01	0	52	104	0	15	20644
2026-01-25 10:36:14.52	119.56	2.51	-22.4	-39.9	4.0	7.95e-01	0	53	104	0	17	25420
2026-01-25 10:36:18.56	119.33	2.75	-20.1	-35.0	3.8	8.14e-01	0	53	104	0	10	21547
2026-01-25 10:36:22.60	119.09	3.00	-22.4	-40.0	4.1	8.05e-01	0	53	104	0	17	25646
2026-01-25 10:36:26.64	118.84	3.24	-22.2	-39.6	4.0	8.01e-01	0	54	104	0	16	25962
2026-01-25 10:36:30.68	118.60	3.49	-21.2	-38.5	4.1	8.25e-01	0	54	104	0	17	21709
2026-01-25 10:36:34.73	118.34	3.74	-18.3	-35.2	4.1	8.22e-01	0	54	104	0	13	18599
2026-01-25 10:36:38.77	118.09	3.99	-21.1	-38.1	4.0	8.01e-01	0	54	104	0	15	23164
2026-01-25 10:36:42.81	117.83	4.24	-23.8	-39.9	3.8	8.03e-01	0	55	104	0	15	28521
2026-01-25 10:36:46.85	117.56	4.50	-18.6	-31.7	3.3	8.16e-01	0	55	104	0	6	18699
2026-01-25 10:36:50.89	117.29	4.75	-22.8	-38.6	4.1	8.03e-01	0	55	104	0	15	24614
2026-01-25 10:36:54.94	117.02	5.01	-21.7	-36.7	3.6	8.05e-01	0	55	104	0	13	22202
2026-01-25 10:36:58.98	116.74	5.27	-17.7	-33.6	3.8	8.03e-01	0	56	104	0	4	25954
2026-01-25 10:37:03.02	116.45	5.53	-16.7	-31.2	4.0	8.10e-01	0	56	104	0	12	12387
2026-01-25 10:37:07.06	116.16	5.79	-16.6	-28.4	3.9	7.99e-01	0	56	104	0	14	8050
2026-01-25 10:37:11.11	115.86	6.06	-22.7	-38.7	3.9	8.02e-01	0	56	104	0	14	26289
2026-01-25 10:37:15.15	115.56	6.33	-23.3	-38.1	4.3	8.12e-01	0	56	104	0	16	22001
2026-01-25 10:37:19.19	115.25	6.60	-14.7	-25.2	3.7	8.42e-01	0	57	104	0	11	6636
2026-01-25 10:37:23.24	114.94	6.87	-23.2	-39.4	4.1	8.25e-01	0	57	104	0	16	25545
2026-01-25 10:37:27.28	114.62	7.14	-22.4	-37.0	4.1	8.21e-01	0	57	104	0	16	19363
2026-01-25 10:37:31.33	114.29	7.42	-21.8	-37.4	4.0	8.11e-01	0	57	104	0	13	24036
2026-01-25 10:37:35.37	113.96	7.70	-22.2	-35.3	3.8	8.29e-01	0	57	104	0	12	19954
2026-01-25 10:37:39.41	113.62	7.98	-21.6	-36.7	4.3	8.28e-01	0	57	104	0	15	19718
2026-01-25 10:37:43.45	113.27	8.26	-21.5	-37.3	4.3	8.25e-01	0	58	0	0	18	17714
2026-01-25 10:37:47.49	112.92	8.54	-21.8	-39.6	4.3	8.28e-01	0	58	104	0	16	26116
2026-01-25 10:37:51.52	112.56	8.83	-27.0	-40.6	4.8	8.25e-01	0	58	104	0	26	16387
2026-01-25 10:37:55.56	112.19	9.12	-27.7	-37.8	5.0	8.14e-01	0	58	104	0	25	12570
2026-01-25 10:37:59.60	111.82	9.41	-27.3	-40.5	4.9	7.23e-01	0	58	0	0	25	17232
2026-01-25 10:38:03.64	111.43	9.70	-30.9	-45.9	4.6	8.35e-01	0	58	104	0	35	17933
2026-01-25 10:38:07.68	111.04	10.00	-25.2	-42.0	4.0	8.38e-01	0	58	104	0	25	20476
2026-01-25 10:38:11.71	110.65	10.29	-29.0	-40.2	5.2	6.17e-01	0	58	0	0	22	19838
2026-01-25 10:38:15.75	110.24	10.59	-35.4	-40.8	11.2	1.06e-01	0	58	0	14680064	41	7093
2026-01-25 10:38:19.79	109.82	10.90	-35.0	-40.9	11.2	8.38e-02	0	58	0	35651584	42	6725
2026-01-25 10:38:23.83	109.40	11.20	-37.3	-41.1	12.0	2.10e-02	0	59	0	57671680	45	5803
2026-01-25 10:38:27.87	108.96	11.51	-37.4	-40.9	12.0	1.36e-02	0	59	0	80740352	45	5694
2026-01-25 10:38:31.91	108.52	11.82	-38.1	-40.7	13.1	2.56e-03	0	59	0	103809024	46	5253
2026-01-25 10:38:35.95	108.07	12.13	-38.2	-40.7	12.7	3.21e-03	0	59	0	126877696	46	5279
2026-01-25 10:38:39.99	107.60	12.44	-35.4	-40.2	9.5	8.67e-02	0	59	0	148897792	42	6213
2026-01-25 10:38:44.03	107.13	12.75	-37.0	-40.5	12.4	1.92e-02	0	59	0	171966464	45	5426
2026-01-25 10:38:48.06	106.65	13.07	-37.2	-40.2	12.9	4.70e-02	0	59	0	193986560	45	5232
2026-01-25 10:38:52.10	106.15	13.39	-36.3	-40.1	9.2	2.52e-02	0	59	0	216006656	38	7720
2026-01-25 10:38:56.14	105.65	13.71	-35.2	-39.6	12.0	1.78e-02	0	59	0	239075328	42	5800
2026-01-25 10:39:00.19	105.13	14.04	-35.0	-39.4	12.5	3.55e-02	0	59	0	261095424	41	6040
2026-01-25 10:39:04.22	104.60	14.36	-37.8	-39.9	14.4	1.31e-03	0	60	0	284164096	46	4804
2026-01-25 10:39:08.27	104.06	14.69	-37.7	-40.0	14.1	9.92e-04	0	59	0	306184192	46	4847
2026-01-25 10:39:12.31	103.51	15.02	-37.3	-39.6	14.7	6.52e-04	0	59	0	329252864	45	4911
2026-01-25 10:39:16.35	102.94	15.35	-37.5	-39.5	15.0	3.54e-05	0	60	0	352321536	45	4845
2026-01-25 10:39:20.39	102.37	15.68	-37.7	-39.7	14.8	3.40e-06	0	60	0	374341632	45	4968
2026-01-25 10:39:24.43	101.77	16.02	-37.7	-39.8	14.6	2.20e-06	0	60	0	397410304	46	4732
2026-01-25 10:39:28.48	101.17	16.35	-37.5	-39.5	15.1	2.20e-06	0	60	0	420478976	45	4823
2026-01-25 10:39:32.51	100.55	16.69	-37.3	-39.2	15.4	6.80e-06	0	60	0	442499072	45	4671
2026-01-25 10:39:36.55	99.92	17.03	-37.2	-39.1	15.5	0.00e+00	0	60	0	465567744	45	4604
2026-01-25 10:39:40.59	99.27	17.37	-36.9	-39.0	14.9	1.60e-04	0	60	0	488636416	44	4859
2026-01-25 10:39:44.63	98.61	17.71	-36.9	-38.7	15.9	0.00e+00	0	60	0	510656512	44	4676
2026-01-25 10:39:48.67	97.93	18.05	-37.0	-38.8	15.8	0.00e+00	0	60	0	533725184	44	4754
2026-01-25 10:39:52.71	97.24	18.39	-37.2	-39.1	15.6	0.00e+00	0	60	0	556793856	45	4633
2026-01-25 10:39:56.75	96.53	18.73	-37.0	-38.8	15.8	0.00e+00	0	60	0	579862528	45	4489
2026-01-25 10:40:00.79	95.81	19.07	-37.0	-38.8	15.9	0.00e+00	0	60	0	601882624	45	4463
2026-01-25 10:40:04.83	95.06	19.41	-36.8	-38.6	16.1	0.00e+00	0	60	0	624951296	45	4342
2026-01-25 10:40:08.87	94.31	19.75	-36.8	-38.6	16.1	0.00e+00	0	60	0	646971392	45	4360
2026-01-25 10:40:12.91	93.53	20.09	-36.8	-38.6	16.1	0.00e+00	0	60	0	670040064	45	4357
2026-01-25 10:40:16.95	92.74	20.43	-36.7	-38.5	16.1	0.00e+00	0	60	0	693108736	45	4316
2026-01-25 10:40:20.98	91.93	20.77	-36.7	-38.5	16.1	0.00e+00	0	61	0	715128832	45	4302
2026-01-25 10:40:25.02	91.10	21.10	-36.6	-38.4	16.0	0.00e+00	0	61	0	738197504	45	4276
2026-01-25 10:40:29.06	90.25	21.44	-36.8	-38.6	15.8	0.00e+00	0	61	0	761266176	45	4382
2026-01-25 10:40:33.10	89.39	21.77	-36.8	-38.6	15.8	0.00e+00	0	61	0	784334848	45	4361
2026-01-25 10:40:37.14	88.50	22.10	-36.7	-38.5	15.9	0.00e+00	0	60	0	806354944	45	4308
2026-01-25 10:40:41.18	87.60	22.42	-36.7	-38.4	15.9	0.00e+00	0	61	0	829423616	45	4284
2026-01-25 10:40:45.22	86.67	22.74	-36.6	-38.4	16.0	0.00e+00	0	60	0	851443712	45	4261
2026-01-25 10:40:49.25	85.74	23.06	-36.6	-38.4	16.0	0.00e+00	0	61	0	874512384	45	4288
2026-01-25 10:40:53.29	84.77	23.37	-36.5	-38.2	16.3	0.00e+00	0	61	0	897581056	44	4424
2026-01-25 10:40:57.33	83.79	23.68	-36.4	-38.1	16.5	0.00e+00	0	61	0	919601152	44	4361
2026-01-25 10:41:01.37	82.79	23.98	-36.2	-37.8	16.8	0.00e+00	0	61	0	942669824	44	4229
2026-01-25 10:41:05.41	81.77	24.28	-36.2	-37.9	16.8	0.00e+00	0	61	0	965738496	44	4266
2026-01-25 10:41:09.45	80.74	24.57	-36.0	-37.6	17.1	0.00e+00	0	61	0	988807168	44	4113
2026-01-25 10:41:13.48	79.68	24.85	-35.6	-37.1	17.4	0.00e+00	0	61	0	1010827264	43	4145
2026-01-25 10:41:17.53	78.60	25.12	-35.7	-37.3	17.2	0.00e+00	0	61	0	1033895936	43	4225
2026-01-25 10:41:21.57	77.51	25.39	-35.8	-37.4	17.1	0.00e+00	0	61	0	1055916032	43	4286
2026-01-25 10:41:25.61	76.40	25.64	-35.8	-37.3	17.2	0.00e+00	0	61	0	1078984704	43	4230
2026-01-25 10:41:29.64	75.27	25.89	-35.7	-37.3	17.3	0.00e+00	0	61	0	1102053376	43	4215
2026-01-25 10:41:33.68	74.12	26.13	-35.6	-37.1	17.4	0.00e+00	0	61	0	1124073472	43	4140
2026-01-25 10:41:37.72	72.95	26.35	-35.7	-37.3	17.3	0.00e+00	0	61	0	1147142144	43	4217
2026-01-25 10:41:41.76	71.77	26.57	-35.8	-37.4	17.3	0.00e+00	0	61	0	1170210816	43	4258
2026-01-25 10:41:45.80	70.58	26.77	-35.6	-37.2	17.4	0.00e+00	0	61	0	1193279488	43	4173
2026-01-25 10:41:49.84	69.36	26.96	-35.3	-36.8	17.8	0.00e+00	0	61	0	1215299584	42	4225
2026-01-25 10:41:53.87	68.14	27.13	-35.4	-36.9	17.7	0.00e+00	0	61	0	1238368256	42	4287
2026-01-25 10:41:57.91	66.90	27.30	-35.4	-36.8	17.9	0.00e+00	0	61	0	1260388352	42	4237
2026-01-25 10:42:01.95	65.65	27.45	-35.4	-36.9	17.8	0.00e+00	0	61	0	1283457024	42	4256
2026-01-25 10:42:05.99	64.39	27.58	-35.5	-37.0	17.7	0.00e+00	0	61	0	1306525696	42	4323
2026-01-25 10:42:10.03	63.12	27.70	-35.3	-36.8	17.9	0.00e+00	0	61	0	1328545792	42	4217
2026-01-25 10:42:14.06	61.84	27.80	-35.2	-36.7	18.0	0.00e+00	0	61	0	1351614464	42	4178
2026-01-25 10:42:18.10	60.55	27.89	-35.1	-36.6	18.2	0.00e+00	0	61	0	1374683136	42	4109
2026-01-25 10:42:22.15	59.25	27.97	-35.3	-36.8	18.0	0.00e+00	0	61	0	1397751808	42	4214
2026-01-25 10:42:26.18	57.96	28.02	-35.2	-36.7	18.1	0.00e+00	0	61	0	1419771904	42	4148
2026-01-25 10:42:30.22	56.65	28.06	-35.3	-36.8	18.0	0.00e+00	0	61	0	1442840576	42	4209
2026-01-25 10:42:34.26	55.34	28.09	-35.2	-36.7	18.0	0.00e+00	0	61	0	1464860672	42	4170
2026-01-25 10:42:38.30	54.04	28.09	-35.1	-36.5	18.2	0.00e+00	0	61	0	1487929344	42	4095
2026-01-25 10:42:42.33	52.73	28.08	-35.1	-36.5	18.2	0.00e+00	0	61	0	1510998016	42	4090
2026-01-25 10:42:46.37	51.43	28.06	-35.3	-36.8	18.0	0.00e+00	0	61	0	1533018112	42	4209
2026-01-25 10:42:50.41	50.12	28.02	-35.3	-36.7	18.1	0.00e+00	0	61	0	1556086784	42	4177
2026-01-25 10:42:54.45	48.82	27.96	-35.4	-36.9	17.9	0.00e+00	0	61	0	1579155456	42	4274
2026-01-25 10:42:58.49	47.53	27.88	-35.4	-36.7	18.4	0.00e+00	0	61	0	1601175552	42	4193
2026-01-25 10:43:02.53	46.25	27.79	-35.5	-36.9	18.3	0.00e+00	0	61	0	1624244224	42	4250
2026-01-25 10:43:06.57	44.97	27.69	-35.3	-36.6	18.5	0.00e+00	0	61	0	1647312896	42	4142
2026-01-25 10:43:10.61	43.70	27.56	-35.5	-36.9	18.3	0.00e+00	0	61	0	1669332992	42	4243
2026-01-25 10:43:14.65	42.44	27.43	-35.5	-36.9	18.3	0.00e+00	0	61	0	1692401664	42	4253
2026-01-25 10:43:18.69	41.19	27.28	-35.3	-36.6	18.6	0.00e+00	0	61	0	1715470336	42	4114
2026-01-25 10:43:22.73	39.96	27.11	-35.5	-36.9	18.3	0.00e+00	0	61	0	1737490432	42	4258
2026-01-25 10:43:26.76	38.74	26.94	-35.8	-37.2	17.9	0.00e+00	0	61	0	1760559104	42	4412
2026-01-25 10:43:30.80	37.53	26.74	-35.6	-37.0	18.1	0.00e+00	0	61	0	1783627776	42	4314
2026-01-25 10:43:34.84	36.34	26.54	-35.5	-36.8	18.3	0.00e+00	0	61	0	1805647872	42	4226
2026-01-25 10:43:38.88	35.16	26.33	-35.6	-37.0	18.2	0.00e+00	0	61	0	1828716544	42	4292
2026-01-25 10:43:42.92	34.00	26.10	-35.5	-36.9	18.2	0.00e+00	0	61	0	1851785216	42	4267
2026-01-25 10:43:46.96	32.86	25.86	-35.6	-37.0	18.1	0.00e+00	0	62	0	1873805312	42	4304
2026-01-25 10:43:51.00	31.73	25.61	-35.8	-37.2	18.0	0.00e+00	0	62	0	1896873984	42	4402
2026-01-25 10:43:55.04	30.63	25.36	-35.9	-37.3	17.8	0.00e+00	0	61	0	1919942656	42	4448
2026-01-25 10:43:59.08	29.54	25.09	-35.8	-37.2	17.9	0.00e+00	0	61	0	1941962752	42	4414
2026-01-25 10:44:03.11	28.47	24.82	-35.9	-37.3	17.8	0.00e+00	0	61	0	1965031424	42	4469
2026-01-25 10:44:07.15	27.42	24.54	-36.0	-37.5	17.6	0.00e+00	0	61	0	1988100096	42	4555
2026-01-25 10:44:11.19	26.39	24.25	-35.6	-37.0	18.0	0.00e+00	0	61	0	2010120192	42	4300
2026-01-25 10:44:15.22	25.38	23.95	-35.9	-37.4	17.6	0.00e+00	0	61	0	2033188864	42	4497
2026-01-25 10:44:19.26	24.38	23.65	-35.9	-37.3	17.7	0.00e+00	0	62	0	2056257536	42	4479
2026-01-25 10:44:23.30	23.41	23.34	-36.0	-37.5	17.6	0.00e+00	0	62	0	2078277632	42	4561
2026-01-25 10:44:27.34	22.46	23.03	-36.2	-37.6	17.4	0.00e+00	0	62	0	2101346304	42	4639
2026-01-25 10:44:31.37	21.52	22.72	-36.0	-37.4	17.6	0.00e+00	0	62	0	2124414976	43	4263
2026-01-25 10:44:35.40	20.61	22.40	-36.3	-37.8	17.2	0.00e+00	0	62	0	2146435072	43	4453
2026-01-25 10:44:39.44	19.71	22.07	-36.5	-38.0	17.0	0.00e+00	0	61	0	2169503744	43	4569
2026-01-25 10:44:43.48	18.83	21.74	-36.5	-37.9	17.0	0.00e+00	0	62	0	2192572416	43	4538
2026-01-25 10:44:47.52	17.97	21.41	-36.5	-38.0	17.0	0.00e+00	0	62	0	2214592512	43	4571
2026-01-25 10:44:51.56	17.13	21.08	-36.6	-38.1	16.8	0.00e+00	0	61	0	2237661184	43	4647
2026-01-25 10:44:55.60	16.31	20.75	-36.5	-38.1	16.9	0.00e+00	0	61	0	2260729856	43	4599
2026-01-25 10:44:59.64	15.51	20.41	-36.5	-38.0	16.9	0.00e+00	0	61	0	2282749952	43	4598
2026-01-25 10:45:03.68	14.72	20.07	-36.3	-37.7	17.2	0.00e+00	0	62	0	2305818624	43	4435
2026-01-25 10:45:07.72	13.95	19.73	-36.4	-37.9	17.0	0.00e+00	0	62	0	2328887296	43	4523
2026-01-25 10:45:11.76	13.20	19.39	-36.6	-38.1	16.8	0.00e+00	0	61	0	2350907392	43	4617
2026-01-25 10:45:15.79	12.46	19.05	-36.9	-38.4	16.6	0.00e+00	0	62	0	2373976064	44	4545
2026-01-25 10:45:19.83	11.74	18.71	-37.1	-38.7	16.3	0.00e+00	0	62	0	2397044736	44	4657
2026-01-25 10:45:23.86	11.04	18.38	-37.2	-38.8	16.2	0.00e+00	0	62	0	2419064832	44	4744
2026-01-25 10:45:27.91	10.35	18.04	-37.2	-38.8	16.2	0.00e+00	0	62	0	2442133504	45	4453
2026-01-25 10:45:31.95	9.68	17.70	-37.2	-38.8	16.1	0.00e+00	0	62	0	2465202176	45	4492
2026-01-25 10:45:35.99	9.03	17.36	-37.3	-39.0	15.8	0.00e+00	0	62	0	2487222272	45	4586
2026-01-25 10:45:40.03	8.39	17.02	-37.4	-39.1	15.6	0.00e+00	0	62	0	2510290944	45	4647
2026-01-25 10:45:44.06	7.76	16.68	-37.4	-39.2	15.6	0.00e+00	0	62	0	2533359616	45	4655
2026-01-25 10:45:48.10	7.15	16.35	-37.4	-39.2	15.4	0.00e+00	0	62	0	2555379712	45	4683
2026-01-25 10:45:52.15	6.55	16.01	-37.6	-39.4	15.1	0.00e+00	0	62	0	2578448384	45	4810
2026-01-25 10:45:56.18	5.96	15.68	-37.6	-39.5	14.9	0.00e+00	0	62	0	2601517056	46	4562
2026-01-25 10:46:00.22	5.39	15.35	-37.5	-39.4	14.9	0.00e+00	0	62	0	2623537152	46	4512
2026-01-25 10:46:04.26	4.83	15.02	-37.6	-39.6	14.5	1.10e-06	0	62	0	2646605824	46	4625
2026-01-25 10:46:08.30	4.28	14.69	-37.6	-39.6	14.3	4.50e-06	0	62	0	2669674496	46	4616
2026-01-25 10:46:12.35	3.75	14.37	-37.9	-40.1	13.4	2.97e-05	0	62	0	2691694592	46	4889
2026-01-25 10:46:16.39	3.23	14.04	-37.4	-39.6	13.5	4.46e-05	0	62	0	2714763264	46	4645
2026-01-25 10:46:20.43	2.71	13.72	-37.1	-39.2	13.7	9.10e-06	0	62	0	2737831936	46	4416
2026-01-25 10:46:24.47	2.21	13.40	-38.9	-42.2	10.2	4.63e-03	0	62	0	2759852032	48	5575
2026-01-25 10:46:28.51	1.73	13.08	-40.6	-47.1	5.3	7.10e-01	0	62	0	2780823552	51	8201
2026-01-25 10:46:32.55	1.25	12.77	-41.0	-50.5	3.8	8.45e-01	0	62	104	2780823552	52	11474
2026-01-25 10:46:36.59	0.78	12.45	-41.3	-51.5	3.8	8.46e-01	0	62	104	2780823552	54	11518
2026-01-25 10:46:40.63	0.32	12.14	-40.9	-52.0	3.8	8.46e-01	0	62	104	2780823552	53	12859
2026-01-25 10:46:44.67	359.87	11.83	-40.7	-52.2	3.8	8.46e-01	0	62	104	2780823552	52	13946
2026-01-25 10:46:48.70	359.44	11.53	-40.6	-52.1	3.8	8.46e-01	0	62	104	2780823552	52	13778
2026-01-25 10:46:52.74	359.01	11.22	-40.5	-52.1	3.8	8.46e-01	0	62	104	2780823552	51	14598
2026-01-25 10:46:56.78	358.59	10.92	-40.4	-52.0	3.8	8.46e-01	0	62	104	2780823552	51	14391
2026-01-25 10:47:00.82	358.18	10.62	-40.3	-51.9	3.8	8.46e-01	0	62	104	2780823552	51	14222
2026-01-25 10:47:04.85	357.78	10.32	-40.2	-51.8	3.8	8.45e-01	0	62	104	2780823552	51	14122
2026-01-25 10:47:08.89	357.38	10.02	-40.2	-51.7	3.8	8.46e-01	0	62	104	2780823552	51	13988
2026-01-25 10:47:12.93	357.00	9.73	-40.1	-51.6	3.8	8.46e-01	0	62	104	2780823552	51	13821
2026-01-25 10:47:16.97	356.62	9.44	-40.0	-51.6	3.8	8.46e-01	0	62	104	2780823552	51	13754
2026-01-25 10:47:21.00	356.25	9.15	-40.0	-51.5	3.8	8.47e-01	0	62	104	2780823552	51	13718
2026-01-25 10:47:25.05	355.89	8.86	-40.0	-51.5	3.8	8.45e-01	0	62	104	2780823552	51	13702
2026-01-25 10:47:29.09	355.53	8.58	-40.0	-51.6	3.8	8.46e-01	0	62	104	2780823552	51	13773
2026-01-25 10:47:33.12	355.18	8.29	-40.0	-51.6	3.8	8.46e-01	0	62	104	2780823552	51	13743
2026-01-25 10:47:37.16	354.84	8.01	-40.1	-51.6	3.8	8.47e-01	0	62	104	2780823552	51	13800
2026-01-25 10:47:41.20	354.51	7.73	-44.9	-56.8	3.8	8.46e-01	0	62	104	2780823552	60	14880
2026-01-25 10:47:45.24	354.18	7.46	-45.3	-57.0	3.8	8.45e-01	0	62	104	2780823552	61	14532
2026-01-25 10:47:49.28	353.86	7.18	-45.2	-57.0	3.8	8.45e-01	0	62	104	2780823552	61	14439
2026-01-25 10:47:53.32	353.54	6.91	-45.2	-56.9	3.8	8.46e-01	0	62	104	2780823552	61	14286
2026-01-25 10:47:57.37	353.23	6.64	-45.0	-56.8	3.8	8.46e-01	0	62	104	2780823552	61	14085
2026-01-25 10:48:01.41	352.93	6.37	-45.0	-56.7	3.8	8.45e-01	0	62	104	2780823552	61	14039
2026-01-25 10:48:05.45	352.63	6.10	-45.0	-56.7	3.8	8.46e-01	0	62	104	2780823552	61	13935
2026-01-25 10:48:09.49	352.34	5.84	-45.0	-56.7	3.8	8.46e-01	0	62	104	2780823552	61	13892
2026-01-25 10:48:13.53	352.06	5.58	-45.0	-56.6	3.8	8.46e-01	0	62	104	2780823552	61	13880
2026-01-25 10:48:17.57	351.78	5.32	-45.0	-56.7	3.8	8.47e-01	0	62	104	2780823552	61	13940
2026-01-25 10:48:21.62	351.50	5.06	-44.9	-56.6	3.8	8.47e-01	0	62	104	2780823552	61	13851
2026-01-25 10:48:25.66	351.23	4.80	-44.9	-56.7	3.8	8.46e-01	0	62	104	2780823552	61	13892
2026-01-25 10:48:29.70	350.97	4.54	-44.9	-56.7	3.8	8.46e-01	0	62	104	2780823552	60	14749
2026-01-25 10:48:33.75	350.70	4.29	-45.0	-56.7	3.8	8.46e-01	0	62	104	2780823552	60	14771
2026-01-25 10:48:37.79	350.45	4.04	-45.0	-56.7	3.8	8.46e-01	0	62	104	2780823552	60	14733
2026-01-25 10:48:41.83	350.20	3.79	-44.9	-56.7	3.8	8.47e-01	0	62	104	2780823552	60	14727
2026-01-25 10:48:45.87	349.95	3.54	-44.9	-56.6	3.8	8.46e-01	0	62	104	2780823552	60	14684
2026-01-25 10:48:49.91	349.71	3.29	-44.9	-56.6	3.8	8.47e-01	0	62	104	2780823552	60	14651
2026-01-25 10:48:53.95	349.47	3.05	-44.9	-56.6	3.8	8.46e-01	0	62	104	2780823552	60	14633
2026-01-25 10:48:57.99	349.24	2.81	-44.9	-56.6	3.8	8.47e-01	0	62	104	2780823552	60	14700
2026-01-25 10:49:02.03	349.01	2.57	-44.9	-56.6	3.8	8.45e-01	0	62	104	2780823552	60	14615
2026-01-25 10:49:06.07	348.78	2.33	-44.9	-56.6	3.8	8.46e-01	0	62	104	2780823552	60	14650
2026-01-25 10:49:10.11	348.56	2.09	-44.9	-56.6	3.8	8.46e-01	0	62	104	2780823552	60	14604

#Closed at: 2026-01-25 10:49:11
#Recorded file [2780 MB]: D:/lorett/data/31039_260125_133606.dat