passes_logs/2026/01/25/R2.0S_Moscow/R2.0S_Moscow__20260125_012739_SUOMI_NPP_rec.log

#Pass ID: 20260125_012739_SUOMI NPP
#Satellite: SUOMI NPP
#Configuration: NPP
#almurnet v.1.7.20251203
#Start time: 2026-01-25 01:27:41

#Version: 2.2.20231116
#Station: R2.0S_Moscow
#Location: 37.707566 lon 55.798166 lat
#TLE: 1 37849U 11061A   26024.54906732  .00000185  00000+0  10878-3 0  9990
#TLE: 2 37849  98.7821 326.5159 0002200  47.3746 312.7615 14.19529340738061

#Time	Az	El	Level	Level2	SNR	BER	BlckErr	Temp	State	Recorded	gain1	gain2
2026-01-25 01:27:41.09	10.10	2.07	-39.9	-54.5	3.8	1.49e+00	0	52	0	0	51	19216
2026-01-25 01:27:44.12	9.89	2.24	-39.9	-54.5	3.8	1.49e+00	0	53	104	0	51	19208
2026-01-25 01:27:47.15	9.69	2.41	-39.9	-54.5	3.8	1.49e+00	0	53	104	0	51	19210
2026-01-25 01:27:50.19	9.48	2.58	-39.9	-54.5	3.8	1.49e+00	0	53	104	0	51	19264
2026-01-25 01:27:53.22	9.28	2.75	-39.9	-54.5	3.8	1.49e+00	0	53	104	0	51	19209
2026-01-25 01:27:56.25	9.07	2.92	-39.9	-54.5	3.8	1.49e+00	0	54	104	0	51	19187
2026-01-25 01:27:59.28	8.85	3.10	-39.9	-54.5	3.8	1.49e+00	0	54	104	0	51	19185
2026-01-25 01:28:02.31	8.64	3.27	-39.9	-54.5	3.8	1.49e+00	0	54	104	0	51	19189
2026-01-25 01:28:05.34	8.42	3.45	-39.9	-54.5	3.8	1.49e+00	0	54	104	0	51	19189
2026-01-25 01:28:08.38	8.19	3.62	-39.9	-54.4	3.8	1.49e+00	0	54	104	0	51	19158
2026-01-25 01:28:11.40	7.97	3.80	-39.9	-54.4	3.8	1.49e+00	0	54	104	0	51	19148
2026-01-25 01:28:14.44	7.74	3.98	-39.9	-54.4	3.8	1.49e+00	0	54	104	0	51	19151
2026-01-25 01:28:17.47	7.51	4.15	-39.9	-54.4	3.8	1.49e+00	0	55	104	0	51	19133
2026-01-25 01:28:20.50	7.28	4.33	-39.9	-54.4	3.8	1.49e+00	0	55	104	0	51	19096
2026-01-25 01:28:23.53	7.04	4.51	-39.9	-54.4	3.8	1.49e+00	0	55	104	0	51	19116
2026-01-25 01:28:26.56	6.80	4.69	-39.9	-54.4	3.8	1.49e+00	0	55	104	0	51	19162
2026-01-25 01:28:29.59	6.56	4.87	-39.9	-54.4	3.8	1.49e+00	0	55	104	0	51	19119
2026-01-25 01:28:32.62	6.31	5.05	-39.9	-54.4	3.8	1.49e+00	0	55	104	0	51	19148
2026-01-25 01:28:35.65	6.07	5.24	-39.9	-54.5	3.8	1.49e+00	0	56	104	0	51	19201
2026-01-25 01:28:38.68	5.81	5.42	-39.9	-54.5	3.8	1.49e+00	0	56	104	0	51	19188
2026-01-25 01:28:41.71	5.56	5.60	-39.9	-54.4	3.8	1.49e+00	0	56	104	0	51	19150
2026-01-25 01:28:44.74	5.30	5.79	-39.9	-54.4	3.8	1.49e+00	0	56	104	0	51	19127
2026-01-25 01:28:47.77	5.04	5.97	-39.9	-54.4	3.8	1.49e+00	0	56	104	0	51	19090
2026-01-25 01:28:50.81	4.77	6.16	-39.9	-54.4	3.8	1.49e+00	0	56	104	0	51	19134
2026-01-25 01:28:53.84	4.50	6.35	-39.9	-54.4	3.8	1.49e+00	0	57	104	0	51	19165
2026-01-25 01:28:56.87	4.23	6.53	-39.9	-54.5	3.8	1.49e+00	0	56	104	0	51	19219
2026-01-25 01:28:59.90	3.95	6.72	-39.9	-54.4	3.8	1.49e+00	0	56	104	0	51	19144
2026-01-25 01:29:02.93	3.67	6.91	-39.9	-54.4	3.8	1.49e+00	0	57	104	0	51	19156
2026-01-25 01:29:05.96	3.39	7.10	-39.9	-54.5	3.8	1.49e+00	0	57	104	0	51	19181
2026-01-25 01:29:08.99	3.10	7.29	-39.9	-54.4	3.8	1.49e+00	0	57	104	0	51	19116
2026-01-25 01:29:12.03	2.80	7.48	-39.9	-54.5	3.8	1.49e+00	0	57	104	0	51	19180
2026-01-25 01:29:15.06	2.51	7.67	-39.9	-54.4	3.8	1.49e+00	0	57	104	0	51	19133
2026-01-25 01:29:18.09	2.21	7.86	-39.9	-54.5	3.8	1.49e+00	0	57	104	0	51	19172
2026-01-25 01:29:21.12	1.90	8.06	-39.9	-54.4	3.8	1.49e+00	0	57	104	0	51	19159
2026-01-25 01:29:24.15	1.60	8.25	-40.0	-54.5	3.8	1.49e+00	0	57	104	0	51	19356
2026-01-25 01:29:27.18	1.28	8.44	-40.0	-54.5	3.8	1.49e+00	0	58	104	0	51	19324
2026-01-25 01:29:30.21	0.97	8.64	-39.9	-54.4	3.8	1.49e+00	0	58	104	0	51	19122
2026-01-25 01:29:33.24	0.64	8.84	-40.0	-54.6	3.8	1.49e+00	0	58	104	0	51	19398
2026-01-25 01:29:36.27	0.32	9.03	-39.9	-54.5	3.8	1.49e+00	0	58	104	0	51	19185
2026-01-25 01:29:39.30	359.99	9.23	-40.0	-54.6	3.8	1.49e+00	0	58	104	0	51	19400
2026-01-25 01:29:42.33	359.65	9.43	-39.9	-54.5	3.8	1.49e+00	0	58	104	0	51	19199
2026-01-25 01:29:45.36	359.31	9.62	-40.0	-54.6	3.8	1.49e+00	0	58	104	0	51	19442
2026-01-25 01:29:48.39	358.97	9.82	-40.0	-54.5	3.8	1.49e+00	0	58	104	0	51	19310
2026-01-25 01:29:51.41	358.62	10.02	-40.0	-54.6	3.8	1.49e+00	0	58	104	0	51	19447
2026-01-25 01:29:54.44	358.26	10.22	-39.9	-54.5	3.8	1.49e+00	0	58	104	0	51	19168
2026-01-25 01:29:57.47	357.90	10.42	-40.1	-54.7	3.8	1.49e+00	0	58	104	0	51	19660
2026-01-25 01:30:00.50	357.54	10.62	-40.2	-54.7	3.8	1.49e+00	0	58	104	0	51	19759
2026-01-25 01:30:03.52	357.17	10.82	-40.2	-54.8	3.8	1.49e+00	0	59	104	0	51	19900
2026-01-25 01:30:06.55	356.80	11.02	-39.9	-54.5	3.8	1.49e+00	0	59	104	0	51	19269
2026-01-25 01:30:09.58	356.41	11.23	-40.0	-54.5	3.8	1.49e+00	0	59	104	0	51	19317
2026-01-25 01:30:12.61	356.03	11.43	-40.7	-55.1	3.8	1.49e+00	0	59	104	0	52	19403
2026-01-25 01:30:15.64	355.64	11.63	-40.4	-54.9	3.8	1.49e+00	0	59	104	0	52	19102
2026-01-25 01:30:18.67	355.24	11.84	-40.3	-54.8	3.8	1.49e+00	0	59	104	0	52	18802
2026-01-25 01:30:21.70	354.84	12.04	-40.2	-54.7	3.8	1.49e+00	0	59	104	0	52	18724
2026-01-25 01:30:24.72	354.43	12.24	-40.5	-55.0	3.8	1.49e+00	0	59	104	0	52	19326
2026-01-25 01:30:27.75	354.01	12.45	-40.3	-54.9	3.8	1.49e+00	0	59	104	0	52	19000
2026-01-25 01:30:30.78	353.59	12.65	-40.5	-55.1	3.8	1.49e+00	0	59	104	0	52	19444
2026-01-25 01:30:33.81	353.17	12.86	-40.5	-55.1	3.8	1.49e+00	0	59	104	0	52	19427
2026-01-25 01:30:36.84	352.74	13.06	-40.7	-55.2	3.8	1.49e+00	0	59	104	0	52	19766
2026-01-25 01:30:39.87	352.30	13.26	-40.6	-55.1	3.8	1.49e+00	0	59	104	0	52	19466
2026-01-25 01:30:42.89	351.85	13.47	-40.7	-55.2	3.8	1.49e+00	0	59	104	0	52	19781
2026-01-25 01:30:45.92	351.40	13.67	-40.8	-55.2	3.8	1.49e+00	0	59	104	0	52	19644
2026-01-25 01:30:48.95	350.94	13.88	-40.8	-55.3	3.8	1.49e+00	0	59	104	0	52	20051
2026-01-25 01:30:51.97	350.48	14.08	-40.9	-55.4	3.8	1.49e+00	0	60	104	0	52	20198
2026-01-25 01:30:55.00	350.01	14.29	-41.0	-55.5	3.8	1.49e+00	0	59	104	0	52	20526
2026-01-25 01:30:58.03	349.53	14.49	-40.8	-55.3	3.8	1.49e+00	0	60	104	0	52	19994
2026-01-25 01:31:01.04	349.05	14.69	-41.3	-55.9	3.8	1.49e+00	0	60	104	0	53	20073
2026-01-25 01:31:04.07	348.56	14.90	-41.2	-55.7	3.8	1.49e+00	0	60	104	0	53	19836
2026-01-25 01:31:07.10	348.06	15.10	-41.3	-55.8	3.8	1.49e+00	0	60	104	0	53	19953
2026-01-25 01:31:10.13	347.56	15.30	-41.3	-55.8	3.8	1.49e+00	0	60	104	0	53	20046
2026-01-25 01:31:13.16	347.05	15.50	-41.2	-55.7	3.8	1.49e+00	0	60	104	0	53	19799
2026-01-25 01:31:16.19	346.53	15.70	-41.3	-55.8	3.8	1.49e+00	0	60	104	0	53	19950
2026-01-25 01:31:19.22	346.00	15.90	-40.8	-55.3	3.8	1.49e+00	0	60	104	0	53	18891
2026-01-25 01:31:22.24	345.47	16.10	-40.6	-55.1	3.8	1.49e+00	0	60	104	0	53	18492
2026-01-25 01:31:25.27	344.93	16.30	-40.9	-55.5	3.8	1.49e+00	0	60	104	0	53	19198
2026-01-25 01:31:28.31	344.38	16.50	-40.7	-55.3	3.8	1.49e+00	0	60	104	0	53	18790
2026-01-25 01:31:31.34	343.83	16.70	-40.7	-55.2	3.8	1.49e+00	0	60	104	0	53	18538
2026-01-25 01:31:34.37	343.26	16.89	-40.6	-55.2	3.8	1.49e+00	0	60	104	0	53	18548
2026-01-25 01:31:37.39	342.70	17.08	-40.8	-55.3	3.8	1.49e+00	0	60	104	0	53	18755
2026-01-25 01:31:40.42	342.12	17.28	-40.8	-55.2	3.8	1.49e+00	0	60	104	0	53	18710
2026-01-25 01:31:43.45	341.53	17.47	-40.7	-55.2	3.8	1.49e+00	0	60	104	0	53	18616
2026-01-25 01:31:46.48	340.94	17.66	-40.8	-55.3	3.8	1.49e+00	0	60	104	0	53	18735
2026-01-25 01:31:49.51	340.34	17.84	-41.1	-55.5	3.8	1.49e+00	0	60	104	0	53	19342
2026-01-25 01:31:52.54	339.73	18.03	-41.1	-55.3	3.8	1.49e+00	0	60	104	0	54	17864
2026-01-25 01:31:55.57	339.12	18.21	-41.7	-48.9	6.8	2.15e-01	0	60	0	1048576	55	8066
2026-01-25 01:31:58.60	338.50	18.39	-41.3	-46.7	9.4	2.07e-02	0	60	0	7340032	54	6626
2026-01-25 01:32:01.62	337.87	18.57	-40.7	-45.0	11.4	1.48e-03	0	60	0	12582912	53	5787
2026-01-25 01:32:04.65	337.23	18.75	-40.5	-44.2	12.5	3.74e-04	0	60	0	18874368	53	5276
2026-01-25 01:32:07.68	336.58	18.92	-40.7	-44.3	12.8	6.86e-05	0	60	0	24117248	52	5624
2026-01-25 01:32:10.71	335.93	19.10	-41.0	-44.8	12.4	1.24e-04	0	60	0	29360128	52	5987
2026-01-25 01:32:13.74	335.27	19.27	-41.1	-45.0	12.3	1.29e-04	0	60	0	35651584	52	6115
2026-01-25 01:32:16.76	334.61	19.43	-41.1	-44.8	12.7	4.34e-05	0	60	0	40894464	52	5972
2026-01-25 01:32:19.79	333.93	19.59	-41.2	-45.0	12.5	1.14e-04	0	60	0	47185920	52	6110
2026-01-25 01:32:22.82	333.25	19.75	-41.1	-44.8	12.8	8.31e-05	0	60	0	52428800	53	5595
2026-01-25 01:32:25.85	332.56	19.91	-40.8	-44.1	13.6	1.14e-05	0	61	0	58720256	53	5160
2026-01-25 01:32:28.88	331.86	20.06	-40.9	-44.4	13.3	1.67e-05	0	61	0	63963136	53	5358
2026-01-25 01:32:31.90	331.16	20.21	-40.7	-43.9	13.8	3.00e-06	0	61	0	69206016	53	5076
2026-01-25 01:32:34.93	330.45	20.36	-40.4	-43.4	14.3	3.00e-06	0	61	0	75497472	52	5068
2026-01-25 01:32:37.96	329.73	20.50	-40.9	-44.1	13.6	6.10e-06	0	61	0	80740352	52	5520
2026-01-25 01:32:40.99	329.01	20.64	-41.0	-44.4	13.3	1.83e-05	0	61	0	87031808	52	5722
2026-01-25 01:32:44.02	328.28	20.77	-41.0	-44.3	13.5	7.60e-06	0	61	0	92274688	52	5595
2026-01-25 01:32:47.05	327.54	20.90	-41.1	-44.5	13.3	1.52e-05	0	61	0	97517568	52	5769
2026-01-25 01:32:50.08	326.80	21.03	-40.9	-44.1	13.6	2.28e-05	0	61	0	103809024	52	5528
2026-01-25 01:32:53.11	326.05	21.15	-40.7	-43.8	14.0	3.00e-06	0	61	0	109051904	52	5286
2026-01-25 01:32:56.13	325.30	21.26	-40.6	-43.7	14.1	2.20e-06	0	60	0	115343360	52	5220
2026-01-25 01:32:59.16	324.54	21.38	-40.6	-43.7	14.1	2.20e-06	0	61	0	120586240	52	5220
2026-01-25 01:33:02.18	323.77	21.48	-40.5	-43.5	14.3	1.50e-06	0	61	0	125829120	52	5104
2026-01-25 01:33:05.21	323.00	21.58	-40.7	-43.8	14.0	2.20e-06	0	61	0	132120576	52	5316
2026-01-25 01:33:08.24	322.23	21.68	-41.2	-44.6	13.2	2.05e-05	0	61	0	137363456	52	5836
2026-01-25 01:33:11.26	321.45	21.77	-41.4	-45.2	12.6	7.01e-05	0	61	0	143654912	53	5857
2026-01-25 01:33:14.29	320.66	21.86	-41.8	-45.7	12.0	3.46e-04	0	61	0	148897792	54	5923
2026-01-25 01:33:17.33	319.87	21.94	-41.9	-46.1	11.6	6.32e-04	0	60	0	155189248	54	6143
2026-01-25 01:33:20.35	319.08	22.01	-41.7	-45.7	12.0	2.66e-04	0	61	0	160432128	54	5906
2026-01-25 01:33:23.38	318.28	22.08	-41.4	-45.1	12.6	9.61e-05	0	61	0	165675008	54	5496
2026-01-25 01:33:26.41	317.48	22.14	-41.6	-45.6	12.2	2.62e-04	0	61	0	171966464	54	5796
2026-01-25 01:33:29.44	316.68	22.20	-41.7	-45.7	12.0	4.48e-04	0	61	0	177209344	54	5897
2026-01-25 01:33:32.46	315.87	22.25	-41.6	-45.6	12.1	3.39e-04	0	61	0	183500800	54	5835
2026-01-25 01:33:35.49	315.06	22.30	-41.7	-45.6	12.4	1.25e-04	0	61	0	188743680	54	5819
2026-01-25 01:33:38.52	314.25	22.33	-41.9	-46.1	11.7	6.70e-04	0	61	0	193986560	54	6141
2026-01-25 01:33:41.55	313.44	22.37	-41.7	-45.7	12.0	4.42e-04	0	61	0	200278016	54	5912
2026-01-25 01:33:44.58	312.62	22.39	-41.6	-45.5	12.2	3.25e-04	0	61	0	205520896	54	5770
2026-01-25 01:33:47.61	311.80	22.42	-42.3	-47.1	10.6	2.24e-03	0	61	0	211812352	55	6556
2026-01-25 01:33:50.64	310.98	22.43	-42.6	-48.0	9.7	1.16e-02	0	61	0	217055232	55	7224
2026-01-25 01:33:53.67	310.17	22.44	-42.3	-47.1	10.6	4.81e-03	0	61	0	223346688	55	6522
2026-01-25 01:33:56.69	309.35	22.44	-41.7	-45.9	11.8	9.02e-04	0	61	0	228589568	55	5695
2026-01-25 01:33:59.72	308.53	22.44	-41.5	-45.3	12.4	1.10e-04	0	61	0	233832448	54	5631
2026-01-25 01:34:02.75	307.71	22.43	-41.4	-45.3	12.4	1.79e-04	0	61	0	240123904	54	5644
2026-01-25 01:34:05.78	306.90	22.41	-41.3	-45.0	12.8	8.01e-05	0	61	0	245366784	54	5431
2026-01-25 01:34:08.81	306.08	22.39	-41.3	-45.0	12.7	8.46e-05	0	61	0	251658240	54	5458
2026-01-25 01:34:11.84	305.26	22.36	-41.5	-45.5	12.3	1.40e-04	0	61	0	256901120	54	5724
2026-01-25 01:34:14.87	304.45	22.32	-41.5	-45.4	12.3	1.75e-04	0	61	0	262144000	54	5722
2026-01-25 01:34:17.89	303.64	22.28	-41.2	-44.8	13.0	6.71e-05	0	61	0	268435456	54	5311
2026-01-25 01:34:20.92	302.83	22.23	-41.3	-45.0	12.9	3.35e-05	0	61	0	273678336	54	5405
2026-01-25 01:34:23.95	302.02	22.18	-41.2	-44.8	13.0	4.04e-05	0	61	0	279969792	54	5299
2026-01-25 01:34:26.98	301.22	22.12	-40.8	-43.9	13.9	6.10e-06	0	61	0	285212672	53	5078
2026-01-25 01:34:30.01	300.42	22.05	-41.0	-44.1	13.7	7.60e-06	0	61	0	291504128	53	5216
2026-01-25 01:34:33.04	299.62	21.98	-40.7	-43.7	14.1	7.00e-07	0	61	0	296747008	53	4957
2026-01-25 01:34:36.07	298.83	21.91	-40.7	-43.7	14.1	7.00e-07	0	61	0	301989888	53	4976
2026-01-25 01:34:39.10	298.04	21.83	-40.8	-43.9	14.0	7.00e-07	0	61	0	308281344	53	5043
2026-01-25 01:34:42.13	297.25	21.74	-40.9	-44.1	13.7	6.10e-06	0	61	0	313524224	53	5200
2026-01-25 01:34:45.15	296.47	21.65	-40.7	-43.7	14.2	3.00e-06	0	61	0	319815680	53	4937
2026-01-25 01:34:48.18	295.70	21.55	-40.5	-43.4	14.5	0.00e+00	0	61	0	325058560	52	5062
2026-01-25 01:34:51.21	294.93	21.44	-40.6	-43.5	14.3	0.00e+00	0	61	0	330301440	52	5139
2026-01-25 01:34:54.24	294.16	21.34	-41.1	-44.5	13.3	1.06e-05	0	61	0	336592896	52	5732
2026-01-25 01:34:57.27	293.40	21.22	-41.3	-44.8	13.0	6.17e-05	0	61	0	341835776	53	5635
2026-01-25 01:35:00.30	292.65	21.10	-41.1	-44.5	13.3	2.74e-05	0	61	0	348127232	53	5414
2026-01-25 01:35:03.33	291.90	20.98	-41.4	-44.9	12.9	3.28e-05	0	61	0	353370112	53	5691
2026-01-25 01:35:06.35	291.16	20.85	-41.7	-45.6	12.2	2.23e-04	0	61	0	359661568	54	5815
2026-01-25 01:35:09.38	290.42	20.72	-42.0	-46.2	11.5	5.77e-04	0	61	0	364904448	54	6270
2026-01-25 01:35:12.41	289.69	20.59	-42.0	-46.1	11.7	7.02e-04	0	61	0	370147328	54	6172
2026-01-25 01:35:15.44	288.97	20.45	-41.8	-45.6	12.2	2.44e-04	0	61	0	376438784	54	5827
2026-01-25 01:35:18.47	288.25	20.30	-41.7	-45.5	12.3	1.87e-04	0	61	0	381681664	54	5743
2026-01-25 01:35:21.50	287.54	20.16	-41.9	-45.8	12.0	3.52e-04	0	61	0	387973120	54	5962
2026-01-25 01:35:24.53	286.84	20.00	-41.5	-45.2	12.6	1.27e-04	0	61	0	393216000	54	5541
2026-01-25 01:35:27.56	286.14	19.85	-41.2	-44.5	13.3	2.44e-05	0	61	0	398458880	54	5105
2026-01-25 01:35:30.59	285.45	19.69	-41.0	-44.3	13.5	5.30e-06	0	61	0	404750336	53	5292
2026-01-25 01:35:33.61	284.77	19.53	-41.2	-44.7	13.1	3.50e-05	0	61	0	409993216	53	5535
2026-01-25 01:35:36.64	284.10	19.37	-41.8	-45.8	11.8	3.17e-04	0	61	0	416284672	54	5982
2026-01-25 01:35:39.67	283.43	19.20	-42.2	-46.8	10.8	2.48e-03	0	61	0	421527552	55	6307
2026-01-25 01:35:42.69	282.77	19.03	-42.2	-46.6	11.0	1.65e-03	0	61	0	427819008	55	6173
2026-01-25 01:35:45.72	282.12	18.85	-42.5	-47.6	10.0	5.26e-03	0	61	0	433061888	55	6911
2026-01-25 01:35:48.75	281.48	18.68	-43.1	-48.9	8.8	3.42e-02	0	61	0	438304768	56	7582
2026-01-25 01:35:51.78	280.84	18.50	-42.8	-48.0	9.7	2.00e-02	0	61	0	444596224	56	6845
2026-01-25 01:35:54.81	280.21	18.32	-42.1	-46.2	11.5	1.70e-03	0	61	0	449839104	56	5592
2026-01-25 01:35:57.84	279.59	18.14	-41.4	-45.0	12.7	1.04e-04	0	61	0	456130560	54	5446
2026-01-25 01:36:00.86	278.97	17.95	-41.3	-44.8	12.8	4.19e-05	0	61	0	461373440	54	5323
2026-01-25 01:36:03.89	278.37	17.77	-41.6	-45.3	12.3	1.22e-04	0	61	0	466616320	54	5645
2026-01-25 01:36:06.92	277.77	17.58	-41.5	-45.3	12.3	1.64e-04	0	61	0	472907776	54	5646
2026-01-25 01:36:09.95	277.18	17.39	-41.3	-44.9	12.8	7.17e-05	0	61	0	478150656	54	5362
2026-01-25 01:36:12.98	276.59	17.20	-41.6	-45.5	12.2	1.81e-04	0	61	0	484442112	54	5736
2026-01-25 01:36:16.01	276.01	17.00	-42.2	-46.8	10.8	1.94e-03	0	62	0	489684992	54	6681
2026-01-25 01:36:19.04	275.44	16.81	-42.4	-47.2	10.3	5.33e-03	0	61	0	494927872	55	6642
2026-01-25 01:36:22.07	274.88	16.61	-42.0	-46.3	11.2	1.69e-03	0	61	0	501219328	55	5988
2026-01-25 01:36:25.10	274.33	16.41	-41.7	-45.8	11.8	5.10e-04	0	61	0	506462208	55	5611
2026-01-25 01:36:28.13	273.78	16.21	-41.6	-45.6	12.0	3.38e-04	0	61	0	512753664	55	5470
2026-01-25 01:36:31.16	273.24	16.02	-41.5	-45.3	12.3	1.54e-04	0	61	0	517996544	54	5603
2026-01-25 01:36:34.19	272.70	15.82	-41.9	-46.1	11.5	4.26e-04	0	61	0	524288000	54	6185
2026-01-25 01:36:37.22	272.18	15.61	-42.1	-46.6	10.9	2.29e-03	0	61	0	529530880	54	6523
2026-01-25 01:36:40.24	271.66	15.41	-41.7	-45.8	11.7	8.48e-04	0	61	0	534773760	54	5989
2026-01-25 01:36:43.27	271.15	15.21	-41.6	-45.6	11.9	3.23e-04	0	62	0	541065216	54	5803
2026-01-25 01:36:46.30	270.64	15.01	-41.7	-45.9	11.6	5.28e-04	0	61	0	546308096	54	6000
2026-01-25 01:36:49.32	270.15	14.80	-41.8	-46.0	11.5	9.06e-04	0	61	0	552599552	54	6107
2026-01-25 01:36:52.35	269.66	14.60	-41.7	-45.8	11.7	7.68e-04	0	61	0	557842432	54	5955
2026-01-25 01:36:55.38	269.17	14.40	-41.3	-45.0	12.5	1.64e-04	0	61	0	563085312	54	5463
2026-01-25 01:36:58.41	268.69	14.19	-41.1	-44.6	12.8	6.02e-05	0	61	0	569376768	54	5218
2026-01-25 01:37:01.44	268.22	13.99	-41.1	-44.6	12.8	4.73e-05	0	61	0	574619648	54	5217
2026-01-25 01:37:04.47	267.76	13.78	-40.9	-44.3	13.2	3.81e-05	0	61	0	580911104	53	5294
2026-01-25 01:37:07.50	267.30	13.57	-40.7	-44.0	13.5	1.06e-05	0	62	0	586153984	53	5115
2026-01-25 01:37:10.53	266.85	13.37	-40.8	-44.1	13.4	1.90e-05	0	61	0	592445440	53	5190
2026-01-25 01:37:13.55	266.40	13.16	-41.2	-44.9	12.5	7.09e-05	0	61	0	597688320	53	5708
2026-01-25 01:37:16.58	265.97	12.96	-41.3	-45.2	12.2	1.73e-04	0	61	0	602931200	53	5884
2026-01-25 01:37:19.61	265.53	12.75	-41.4	-45.2	12.1	2.68e-04	0	61	0	609222656	53	5911
2026-01-25 01:37:22.64	265.11	12.55	-41.1	-44.7	12.7	7.55e-05	0	62	0	614465536	53	5553
2026-01-25 01:37:25.67	264.68	12.34	-41.0	-44.4	12.9	5.03e-05	0	61	0	620756992	53	5392
2026-01-25 01:37:28.70	264.27	12.14	-41.1	-44.8	12.6	8.54e-05	0	61	0	625999872	53	5610
2026-01-25 01:37:31.72	263.86	11.94	-41.3	-45.1	12.2	1.98e-04	0	61	0	631242752	53	5851
2026-01-25 01:37:34.75	263.46	11.73	-41.5	-45.5	11.8	4.56e-04	0	61	0	637534208	53	6093
2026-01-25 01:37:37.78	263.06	11.53	-41.6	-45.9	11.4	9.18e-04	0	61	0	642777088	53	6354
2026-01-25 01:37:40.81	262.67	11.32	-41.6	-45.8	11.5	8.53e-04	0	62	0	649068544	54	5976
2026-01-25 01:37:43.84	262.28	11.12	-41.3	-45.3	12.0	2.46e-04	0	61	0	654311424	54	5595
2026-01-25 01:37:46.87	261.90	10.92	-40.9	-44.3	13.0	5.87e-05	0	61	0	660602880	53	5340
2026-01-25 01:37:49.90	261.52	10.72	-40.9	-44.5	12.8	3.58e-05	0	61	0	665845760	53	5414
2026-01-25 01:37:52.93	261.15	10.51	-41.4	-45.4	11.8	2.73e-04	0	61	0	671088640	53	6019
2026-01-25 01:37:55.96	260.79	10.31	-41.7	-46.2	11.0	1.65e-03	0	62	0	677380096	53	6579
2026-01-25 01:37:58.98	260.43	10.11	-41.7	-46.1	11.1	1.85e-03	0	62	0	682622976	54	6175
2026-01-25 01:38:02.01	260.07	9.91	-41.6	-45.9	11.3	1.15e-03	0	61	0	688914432	54	6005
2026-01-25 01:38:05.04	259.72	9.71	-41.6	-45.9	11.3	1.01e-03	0	62	0	694157312	54	6014
2026-01-25 01:38:08.07	259.37	9.51	-41.5	-45.7	11.4	1.13e-03	0	62	0	699400192	54	5891
2026-01-25 01:38:11.09	259.03	9.32	-41.7	-46.2	10.9	1.33e-03	0	62	0	705691648	54	6261
2026-01-25 01:38:14.12	258.70	9.12	-41.7	-46.2	10.8	2.49e-03	0	61	0	710934528	54	6273
2026-01-25 01:38:17.15	258.36	8.92	-41.7	-46.3	10.7	2.41e-03	0	62	0	717225984	54	6330
2026-01-25 01:38:20.18	258.04	8.73	-41.8	-46.5	10.5	3.73e-03	0	62	0	722468864	54	6442
2026-01-25 01:38:23.21	257.71	8.53	-41.9	-46.7	10.3	4.09e-03	0	61	0	728760320	54	6617
2026-01-25 01:38:26.24	257.40	8.33	-41.8	-46.5	10.5	4.26e-03	0	61	0	734003200	54	6442
2026-01-25 01:38:29.27	257.08	8.14	-41.8	-46.5	10.5	3.73e-03	0	62	0	739246080	54	6424
2026-01-25 01:38:32.30	256.77	7.95	-44.4	-58.7	3.8	1.49e+00	0	61	104	744488960	59	19756
2026-01-25 01:38:35.33	256.47	7.75	-45.0	-59.6	3.8	1.49e+00	0	62	104	744488960	60	20753
2026-01-25 01:38:38.36	256.16	7.56	-45.1	-59.8	3.8	1.49e+00	0	62	104	744488960	60	21111
2026-01-25 01:38:41.39	255.87	7.37	-45.2	-59.8	3.8	1.49e+00	0	62	104	744488960	60	21092
2026-01-25 01:38:44.42	255.57	7.18	-45.1	-59.7	3.8	1.49e+00	0	62	104	744488960	60	20965
2026-01-25 01:38:47.45	255.28	6.99	-45.2	-59.8	3.8	1.49e+00	0	62	104	744488960	60	21026
2026-01-25 01:38:50.49	255.00	6.80	-45.1	-59.7	3.8	1.49e+00	0	62	104	744488960	60	20833
2026-01-25 01:38:53.52	254.71	6.61	-45.1	-59.7	3.8	1.49e+00	0	61	104	744488960	60	20814
2026-01-25 01:38:56.55	254.44	6.42	-45.1	-59.7	3.8	1.49e+00	0	62	104	744488960	60	20812
2026-01-25 01:38:59.58	254.16	6.23	-45.1	-59.7	3.8	1.49e+00	0	62	104	744488960	60	20812
2026-01-25 01:39:02.61	253.89	6.05	-45.1	-59.7	3.8	1.49e+00	0	62	104	744488960	60	20845
2026-01-25 01:39:05.64	253.62	5.86	-45.1	-59.7	3.8	1.49e+00	0	62	104	744488960	60	20785
2026-01-25 01:39:08.67	253.36	5.67	-45.1	-59.7	3.8	1.49e+00	0	62	104	744488960	60	20788
2026-01-25 01:39:11.71	253.10	5.49	-45.1	-59.7	3.8	1.49e+00	0	62	104	744488960	60	20802
2026-01-25 01:39:14.74	252.84	5.31	-45.1	-59.7	3.8	1.49e+00	0	61	104	744488960	60	20805
2026-01-25 01:39:17.77	252.58	5.12	-45.0	-59.7	3.8	1.49e+00	0	62	104	744488960	60	20813
2026-01-25 01:39:20.80	252.33	4.94	-45.1	-59.6	3.8	1.49e+00	0	62	104	744488960	60	20747
2026-01-25 01:39:23.83	252.09	4.76	-45.0	-59.6	3.8	1.49e+00	0	62	104	744488960	60	20757
2026-01-25 01:39:26.86	251.84	4.58	-45.1	-59.6	3.8	1.49e+00	0	62	104	744488960	60	20751
2026-01-25 01:39:29.90	251.60	4.40	-45.0	-59.7	3.8	1.49e+00	0	62	104	744488960	60	20782
2026-01-25 01:39:32.93	251.36	4.22	-45.1	-59.6	3.8	1.49e+00	0	62	104	744488960	60	20694
2026-01-25 01:39:35.96	251.13	4.04	-45.0	-59.7	3.8	1.49e+00	0	62	104	744488960	60	20797
2026-01-25 01:39:39.00	250.89	3.86	-45.0	-59.6	3.8	1.49e+00	0	62	104	744488960	60	20695
2026-01-25 01:39:42.03	250.66	3.68	-45.0	-59.6	3.8	1.49e+00	0	62	104	744488960	60	20690
2026-01-25 01:39:45.06	250.44	3.51	-45.0	-59.6	3.8	1.49e+00	0	62	104	744488960	60	20678
2026-01-25 01:39:48.09	250.21	3.33	-45.0	-59.6	3.8	1.49e+00	0	62	104	744488960	60	20657
2026-01-25 01:39:51.12	249.99	3.16	-45.0	-59.6	3.8	1.49e+00	0	62	104	744488960	60	20681
2026-01-25 01:39:54.16	249.77	2.98	-45.0	-59.6	3.8	1.49e+00	0	62	104	744488960	60	20737
2026-01-25 01:39:57.19	249.56	2.81	-45.0	-59.6	3.8	1.49e+00	0	62	104	744488960	60	20644
2026-01-25 01:40:00.22	249.34	2.64	-45.0	-59.6	3.8	1.49e+00	0	62	104	744488960	60	20675
2026-01-25 01:40:03.25	249.13	2.46	-45.0	-59.6	3.8	1.49e+00	0	62	104	744488960	60	20706
2026-01-25 01:40:06.28	248.92	2.29	-45.0	-59.6	3.8	1.49e+00	0	62	104	744488960	60	20729
2026-01-25 01:40:09.31	248.72	2.12	-45.0	-59.6	3.8	1.49e+00	0	61	104	744488960	60	20688
2026-01-25 01:40:12.34	248.51	1.95	-45.0	-59.6	3.8	1.49e+00	0	61	104	744488960	60	20668

#Closed at: 2026-01-25 01:40:13
#Recorded file [744 MB]: D:/lorett/data/31039_260125_042740.dat