passes_logs/2026/01/25/R2.0S_Moscow/R2.0S_Moscow__20260125_081926_NOAA_20_JPSS-1_rec.log

#Pass ID: 20260125_081926_NOAA 20 (JPSS-1)
#Satellite: NOAA 20 (JPSS-1)
#Configuration: NOAA 20
#almurnet v.1.7.20251203
#Start time: 2026-01-25 08:19:28

#Version: 2.2.20231116
#Station: R2.0S_Moscow
#Location: 37.707566 lon 55.798166 lat
#TLE: 1 43013U 17073A   26024.42258823  .00000183  00000+0  10747-3 0  9990
#TLE: 2 43013  98.7646 325.2629 0001105  25.8644 334.2587 14.19539754424075

#Time	Az	El	Level	Level2	SNR	BER	BlckErr	Temp	State	Recorded	gain1	gain2
2026-01-25 08:19:28.58	113.56	2.12	-40.6	-56.0	3.9	1.49e+00	0	53	0	0	53	20421
2026-01-25 08:19:31.62	113.36	2.29	-38.7	-53.4	3.6	1.49e+00	0	53	104	0	47	21493
2026-01-25 08:19:34.65	113.16	2.46	-34.6	-53.3	3.9	1.49e+00	0	53	104	0	44	25008
2026-01-25 08:19:37.68	112.96	2.64	-41.1	-56.5	3.8	1.49e+00	0	54	104	0	52	22786
2026-01-25 08:19:40.71	112.76	2.81	-39.9	-55.4	3.8	1.49e+00	0	54	104	0	51	21444
2026-01-25 08:19:43.74	112.55	2.99	-39.5	-55.6	3.8	1.49e+00	0	54	104	0	50	23309
2026-01-25 08:19:46.77	112.34	3.17	-39.5	-54.8	3.6	1.49e+00	0	54	104	0	45	28220
2026-01-25 08:19:49.80	112.13	3.35	-34.4	-52.9	4.0	1.49e+00	0	54	104	0	44	24039
2026-01-25 08:19:52.83	111.91	3.52	-41.2	-55.7	4.1	1.50e+00	0	54	104	0	50	23580
2026-01-25 08:19:55.86	111.69	3.70	-41.4	-55.7	3.9	1.49e+00	0	55	104	0	51	22137
2026-01-25 08:19:58.89	111.47	3.88	-41.3	-56.2	3.9	1.49e+00	0	55	104	0	52	22228
2026-01-25 08:20:01.93	111.25	4.06	-40.4	-55.9	3.8	1.49e+00	0	55	104	0	52	21274
2026-01-25 08:20:04.96	111.02	4.25	-34.6	-53.5	3.9	1.49e+00	0	55	104	0	41	30521
2026-01-25 08:20:07.99	110.79	4.43	-39.8	-55.4	3.8	1.49e+00	0	55	104	0	51	21297
2026-01-25 08:20:11.03	110.56	4.61	-38.4	-55.0	3.9	1.50e+00	0	55	104	0	48	24312
2026-01-25 08:20:14.06	110.32	4.80	-39.3	-55.0	4.0	1.49e+00	0	56	104	0	47	25572
2026-01-25 08:20:17.09	110.09	4.98	-39.2	-54.6	3.9	1.49e+00	0	56	104	0	49	21849
2026-01-25 08:20:20.12	109.84	5.17	-40.7	-56.0	3.8	1.49e+00	0	56	104	0	52	21650
2026-01-25 08:20:23.15	109.60	5.35	-39.4	-55.5	3.8	1.49e+00	0	56	104	0	51	21579
2026-01-25 08:20:26.18	109.35	5.54	-39.5	-55.3	3.7	1.49e+00	0	56	104	0	50	22313
2026-01-25 08:20:29.21	109.10	5.73	-36.6	-53.5	3.9	1.49e+00	0	56	104	0	47	21626
2026-01-25 08:20:32.24	108.84	5.92	-35.9	-53.4	3.8	1.49e+00	0	56	104	0	44	25431
2026-01-25 08:20:35.28	108.59	6.11	-34.5	-53.5	3.7	1.49e+00	0	57	104	0	43	27353
2026-01-25 08:20:38.31	108.32	6.30	-38.9	-55.0	4.0	1.49e+00	0	57	104	0	49	22799
2026-01-25 08:20:41.34	108.06	6.49	-36.1	-51.6	4.3	1.49e+00	0	57	104	0	45	19565
2026-01-25 08:20:44.37	107.79	6.68	-40.5	-53.9	4.0	1.50e+00	0	57	104	0	44	26994
2026-01-25 08:20:47.40	107.52	6.88	-33.6	-52.3	4.0	1.50e+00	0	57	104	0	40	28308
2026-01-25 08:20:50.44	107.24	7.07	-41.0	-55.7	4.2	1.50e+00	0	57	104	0	45	31385
2026-01-25 08:20:53.47	106.96	7.26	-37.4	-55.5	3.8	1.49e+00	0	57	104	0	53	19334
2026-01-25 08:20:56.50	106.68	7.46	-36.9	-54.9	3.6	1.49e+00	0	58	104	0	48	24111
2026-01-25 08:20:59.54	106.39	7.66	-40.5	-54.1	3.7	1.49e+00	0	58	104	0	51	18499
2026-01-25 08:21:02.57	106.10	7.85	-39.8	-51.9	4.2	1.44e+00	0	58	0	0	52	13498
2026-01-25 08:21:05.60	105.80	8.05	-39.9	-55.8	3.9	1.28e+00	0	58	104	2097152	52	21079
2026-01-25 08:21:08.63	105.50	8.25	-39.9	-52.2	4.1	1.44e+00	0	58	0	2097152	48	17575
2026-01-25 08:21:11.66	105.20	8.45	-37.0	-48.7	4.3	1.47e+00	0	58	104	2097152	42	16589
2026-01-25 08:21:14.70	104.89	8.65	-29.4	-46.4	4.3	1.50e+00	0	58	104	2097152	30	25532
2026-01-25 08:21:17.73	104.57	8.85	-25.1	-43.9	4.0	1.48e+00	0	58	104	2097152	22	30181
2026-01-25 08:21:20.76	104.26	9.06	-23.6	-42.9	3.9	1.49e+00	0	58	104	2097152	27	20110
2026-01-25 08:21:23.79	103.94	9.26	-39.1	-50.8	4.2	1.46e+00	0	58	104	2097152	46	16801
2026-01-25 08:21:26.82	103.61	9.46	-36.3	-51.0	3.7	1.50e+00	0	59	104	2097152	36	30696
2026-01-25 08:21:29.85	103.28	9.67	-32.3	-49.1	4.2	1.49e+00	0	59	104	2097152	34	27483
2026-01-25 08:21:32.88	102.94	9.87	-28.4	-45.8	3.7	1.00e+00	0	59	104	3145728	29	25117
2026-01-25 08:21:35.91	102.60	10.08	-31.3	-50.9	4.1	1.50e+00	0	59	104	3145728	38	27011
2026-01-25 08:21:38.94	102.26	10.29	-35.3	-51.5	4.5	1.19e+00	0	59	104	3145728	37	30411
2026-01-25 08:21:41.97	101.90	10.49	-35.9	-51.5	4.2	1.50e+00	0	59	104	3145728	43	21597
2026-01-25 08:21:45.00	101.55	10.70	-24.4	-44.0	3.8	1.50e+00	0	59	104	3145728	19	36288
2026-01-25 08:21:48.03	101.19	10.91	-34.2	-48.9	4.2	1.40e+00	0	59	104	3145728	39	20077
2026-01-25 08:21:51.05	100.82	11.12	-33.1	-46.7	4.5	1.49e+00	0	59	0	3145728	32	23491
2026-01-25 08:21:54.08	100.45	11.33	-30.6	-48.5	4.4	1.48e+00	0	59	104	3145728	32	28875
2026-01-25 08:21:57.11	100.07	11.54	-20.3	-40.8	3.8	1.50e+00	0	59	104	3145728	11	39701
2026-01-25 08:22:00.14	99.69	11.75	-34.9	-49.1	4.5	1.46e+00	0	59	104	3145728	40	19593
2026-01-25 08:22:03.17	99.30	11.96	-36.5	-49.7	4.3	1.48e+00	0	60	104	3145728	43	17657
2026-01-25 08:22:06.21	98.91	12.18	-34.8	-51.7	4.3	1.13e+00	0	60	104	3145728	40	26224
2026-01-25 08:22:09.24	98.51	12.39	-23.9	-42.5	3.8	1.50e+00	0	59	104	3145728	17	34180
2026-01-25 08:22:12.26	98.10	12.60	-42.9	-53.8	4.3	7.88e-01	0	60	0	3145728	54	14997
2026-01-25 08:22:15.29	97.69	12.82	-41.1	-48.7	7.0	8.92e-01	8	60	0	6291456	51	9853
2026-01-25 08:22:18.32	97.27	13.03	-41.5	-48.1	8.0	1.09e-01	2	59	0	11534336	53	8197
2026-01-25 08:22:21.35	96.85	13.25	-41.7	-48.2	8.2	1.13e-01	0	60	0	17825792	54	7839
2026-01-25 08:22:24.38	96.42	13.46	-42.3	-48.4	8.5	5.03e-02	0	60	0	23068672	55	7549
2026-01-25 08:22:27.41	95.98	13.68	-42.5	-48.8	8.2	4.64e-02	0	60	0	28311552	55	7917
2026-01-25 08:22:30.44	95.54	13.89	-42.2	-47.8	9.3	2.01e-02	0	60	0	34603008	55	7103
2026-01-25 08:22:33.47	95.09	14.11	-42.3	-47.9	9.2	2.42e-02	0	60	0	39845888	55	7200
2026-01-25 08:22:36.50	94.63	14.32	-42.2	-47.6	9.5	1.66e-02	0	60	0	46137344	55	6929
2026-01-25 08:22:39.53	94.17	14.54	-42.3	-48.0	9.0	2.11e-02	0	60	0	51380224	55	7274
2026-01-25 08:22:42.56	93.70	14.75	-42.1	-47.5	9.5	1.76e-02	0	60	0	57671680	55	6857
2026-01-25 08:22:45.59	93.22	14.97	-42.1	-47.4	9.6	1.07e-02	0	60	0	62914560	55	6768
2026-01-25 08:22:48.62	92.74	15.19	-42.1	-47.3	9.8	1.12e-02	0	60	0	68157440	55	6666
2026-01-25 08:22:51.65	92.25	15.40	-42.0	-47.2	9.9	9.50e-03	0	60	0	74448896	55	6590
2026-01-25 08:22:54.68	91.75	15.62	-42.1	-47.4	9.7	1.08e-02	0	60	0	79691776	55	6750
2026-01-25 08:22:57.71	91.24	15.83	-42.1	-47.5	9.5	1.31e-02	0	60	0	85983232	55	6848
2026-01-25 08:23:00.74	90.73	16.05	-42.1	-47.6	9.3	1.73e-02	0	60	0	91226112	55	6957
2026-01-25 08:23:03.77	90.21	16.26	-42.1	-47.7	9.1	2.23e-02	0	60	0	96468992	55	7004
2026-01-25 08:23:06.80	89.68	16.47	-41.9	-47.6	9.0	2.41e-02	0	60	0	102760448	55	6900
2026-01-25 08:23:09.83	89.15	16.69	-41.9	-47.7	8.9	2.71e-02	0	60	0	108003328	55	7024
2026-01-25 08:23:12.86	88.60	16.90	-41.8	-47.7	8.8	3.15e-02	0	60	0	114294784	55	6977
2026-01-25 08:23:15.88	88.05	17.11	-41.8	-47.9	8.4	4.63e-02	0	60	0	119537664	55	7139
2026-01-25 08:23:18.91	87.50	17.32	-41.7	-47.9	8.3	5.27e-02	0	60	0	125829120	55	7132
2026-01-25 08:23:21.94	86.93	17.53	-41.5	-47.6	8.5	4.55e-02	0	61	0	131072000	55	6924
2026-01-25 08:23:24.97	86.35	17.74	-41.4	-47.1	9.0	2.65e-02	0	60	0	136314880	54	6953
2026-01-25 08:23:28.00	85.77	17.94	-41.4	-47.1	9.1	2.13e-02	0	60	0	142606336	54	6880
2026-01-25 08:23:31.03	85.18	18.15	-41.1	-46.4	9.6	1.44e-02	0	60	0	147849216	54	6388
2026-01-25 08:23:34.05	84.58	18.35	-41.0	-46.3	9.7	1.13e-02	0	61	0	154140672	54	6342
2026-01-25 08:23:37.08	83.98	18.55	-41.0	-45.7	10.7	4.28e-03	0	61	0	159383552	54	5880
2026-01-25 08:23:40.11	83.36	18.75	-41.0	-45.5	11.1	1.84e-03	0	61	0	164626432	54	5734
2026-01-25 08:23:43.14	82.74	18.95	-41.0	-45.5	11.0	1.68e-03	0	61	0	170917888	54	5770
2026-01-25 08:23:46.17	82.11	19.15	-40.9	-45.4	11.2	1.36e-03	0	61	0	176160768	53	6002
2026-01-25 08:23:49.20	81.47	19.34	-40.8	-45.2	11.4	7.97e-04	0	61	0	182452224	53	5863
2026-01-25 08:23:52.23	80.82	19.54	-40.9	-45.2	11.4	9.14e-04	0	61	0	187695104	53	5917
2026-01-25 08:23:55.26	80.17	19.73	-41.1	-45.7	10.8	2.06e-03	0	61	0	193986560	53	6254
2026-01-25 08:23:58.29	79.50	19.91	-41.1	-45.7	10.9	2.21e-03	0	61	0	199229440	53	6205
2026-01-25 08:24:01.31	78.83	20.10	-41.1	-45.6	10.9	2.09e-03	0	61	0	204472320	53	6191
2026-01-25 08:24:04.34	78.15	20.28	-41.1	-45.4	11.4	1.04e-03	0	61	0	210763776	53	6021
2026-01-25 08:24:07.37	77.46	20.46	-41.1	-45.5	11.2	1.21e-03	0	61	0	216006656	53	6082
2026-01-25 08:24:10.39	76.77	20.63	-41.1	-45.3	11.5	9.60e-04	0	61	0	222298112	53	5992
2026-01-25 08:24:13.42	76.07	20.81	-41.1	-45.1	11.8	5.38e-04	0	61	0	227540992	53	5848
2026-01-25 08:24:16.46	75.35	20.98	-41.0	-44.9	12.2	2.45e-04	0	61	0	232783872	53	5683
2026-01-25 08:24:19.48	74.63	21.14	-40.9	-44.6	12.6	1.20e-04	0	61	0	239075328	53	5521
2026-01-25 08:24:22.51	73.91	21.30	-40.9	-44.6	12.8	5.26e-05	0	61	0	244318208	53	5473
2026-01-25 08:24:25.54	73.17	21.46	-41.0	-44.6	12.8	6.63e-05	0	61	0	250609664	53	5526
2026-01-25 08:24:28.57	72.43	21.61	-40.9	-44.4	13.1	3.89e-05	0	61	0	255852544	53	5372
2026-01-25 08:24:31.60	71.68	21.76	-40.9	-44.5	12.9	4.11e-05	0	61	0	262144000	53	5418
2026-01-25 08:24:34.63	70.92	21.91	-40.8	-44.2	13.3	1.37e-05	0	61	0	267386880	53	5265
2026-01-25 08:24:37.66	70.16	22.05	-40.7	-43.9	13.7	8.30e-06	0	61	0	272629760	53	5090
2026-01-25 08:24:40.69	69.39	22.18	-40.9	-44.2	13.6	5.30e-06	0	61	0	278921216	53	5222
2026-01-25 08:24:43.72	68.61	22.31	-41.0	-44.4	13.4	1.60e-05	0	61	0	284164096	53	5351
2026-01-25 08:24:46.75	67.83	22.44	-40.9	-44.2	13.6	9.10e-06	0	61	0	290455552	53	5235
2026-01-25 08:24:49.78	67.04	22.56	-41.1	-44.5	13.4	1.22e-05	0	61	0	295698432	53	5420
2026-01-25 08:24:52.80	66.24	22.67	-41.5	-45.3	12.5	5.87e-05	0	61	0	300941312	53	5969
2026-01-25 08:24:55.83	65.44	22.78	-41.6	-45.5	12.4	1.62e-04	0	61	0	307232768	53	6081
2026-01-25 08:24:58.86	64.63	22.89	-41.6	-45.5	12.3	1.53e-04	0	61	0	312475648	53	6098
2026-01-25 08:25:01.89	63.82	22.99	-41.8	-45.8	12.0	3.40e-04	0	61	0	318767104	54	5992
2026-01-25 08:25:04.92	63.00	23.08	-41.9	-45.9	12.0	3.02e-04	0	61	0	324009984	54	6009
2026-01-25 08:25:07.95	62.18	23.16	-42.0	-46.2	11.7	5.84e-04	0	61	0	330301440	54	6237
2026-01-25 08:25:10.97	61.36	23.24	-42.1	-46.5	11.3	1.02e-03	0	61	0	335544320	54	6484
2026-01-25 08:25:14.00	60.53	23.32	-42.1	-46.4	11.5	9.53e-04	0	61	0	340787200	54	6409
2026-01-25 08:25:17.03	59.69	23.39	-42.1	-46.4	11.5	8.75e-04	0	61	0	347078656	54	6410
2026-01-25 08:25:20.05	58.86	23.45	-42.1	-46.3	11.7	4.76e-04	0	61	0	352321536	54	6282
2026-01-25 08:25:23.09	58.01	23.50	-42.1	-46.2	11.7	5.20e-04	0	61	0	358612992	54	6268
2026-01-25 08:25:26.11	57.17	23.55	-42.1	-46.4	11.6	7.12e-04	0	61	0	363855872	54	6359
2026-01-25 08:25:29.14	56.33	23.59	-42.0	-46.1	11.8	4.99e-04	0	61	0	369098752	54	6196
2026-01-25 08:25:32.17	55.48	23.63	-42.0	-46.1	11.9	4.31e-04	0	61	0	375390208	54	6161
2026-01-25 08:25:35.20	54.63	23.66	-41.9	-45.9	12.1	3.18e-04	0	61	0	380633088	54	6021
2026-01-25 08:25:38.23	53.78	23.68	-42.1	-46.3	11.7	4.43e-04	0	61	0	386924544	54	6291
2026-01-25 08:25:41.25	52.93	23.69	-41.8	-45.5	12.5	1.43e-04	0	61	0	392167424	54	5775
2026-01-25 08:25:44.29	52.07	23.70	-41.7	-45.4	12.6	8.16e-05	0	61	0	398458880	54	5689
2026-01-25 08:25:47.31	51.22	23.70	-41.7	-45.3	12.7	5.18e-05	0	61	0	403701760	54	5651
2026-01-25 08:25:50.34	50.37	23.69	-41.5	-45.0	13.1	2.74e-05	0	61	0	408944640	54	5407
2026-01-25 08:25:53.37	49.52	23.68	-41.4	-44.8	13.3	1.29e-05	0	61	0	415236096	54	5300
2026-01-25 08:25:56.40	48.67	23.66	-41.2	-44.5	13.6	9.90e-06	0	61	0	420478976	54	5104
2026-01-25 08:25:59.43	47.82	23.64	-40.9	-44.0	14.0	3.00e-06	0	61	0	426770432	53	5148
2026-01-25 08:26:02.46	46.97	23.60	-40.8	-43.8	14.3	0.00e+00	0	61	0	432013312	53	4984
2026-01-25 08:26:05.49	46.13	23.56	-40.6	-43.6	14.5	7.00e-07	0	61	0	437256192	53	4888
2026-01-25 08:26:08.52	45.28	23.52	-40.7	-43.6	14.5	0.00e+00	0	61	0	443547648	53	4901
2026-01-25 08:26:11.55	44.44	23.46	-40.5	-43.3	14.8	0.00e+00	0	61	0	448790528	52	5012
2026-01-25 08:26:14.58	43.60	23.40	-40.6	-43.5	14.5	0.00e+00	0	61	0	455081984	52	5153
2026-01-25 08:26:17.60	42.77	23.34	-40.7	-43.7	14.4	0.00e+00	0	61	0	460324864	52	5221
2026-01-25 08:26:20.63	41.94	23.27	-40.8	-43.9	14.1	1.50e-06	0	61	0	465567744	52	5378
2026-01-25 08:26:23.66	41.12	23.19	-40.9	-43.9	14.1	0.00e+00	0	61	0	471859200	52	5392
2026-01-25 08:26:26.69	40.29	23.10	-41.1	-44.4	13.6	5.30e-06	0	61	0	477102080	52	5692
2026-01-25 08:26:29.72	39.48	23.01	-41.3	-44.7	13.4	1.90e-05	0	61	0	483393536	53	5543
2026-01-25 08:26:32.74	38.67	22.92	-41.4	-44.9	13.1	3.35e-05	0	61	0	488636416	53	5691
2026-01-25 08:26:35.77	37.86	22.81	-41.5	-45.1	13.0	4.19e-05	0	61	0	494927872	53	5794
2026-01-25 08:26:38.80	37.06	22.71	-41.6	-45.1	12.9	5.26e-05	0	61	0	500170752	53	5849
2026-01-25 08:26:41.83	36.26	22.59	-41.7	-45.4	12.6	6.48e-05	0	61	0	505413632	53	6018
2026-01-25 08:26:44.86	35.47	22.48	-41.9	-45.8	12.2	2.06e-04	0	61	0	511705088	54	5930
2026-01-25 08:26:47.89	34.69	22.35	-41.8	-45.6	12.4	1.55e-04	0	61	0	516947968	54	5809
2026-01-25 08:26:50.92	33.91	22.22	-41.9	-45.8	12.2	1.91e-04	0	61	0	523239424	54	5967
2026-01-25 08:26:53.95	33.14	22.09	-42.0	-46.0	12.0	3.11e-04	0	61	0	528482304	54	6100
2026-01-25 08:26:56.98	32.38	21.95	-42.0	-46.0	12.0	3.57e-04	0	61	0	534773760	54	6114
2026-01-25 08:27:00.01	31.62	21.81	-41.9	-45.9	12.1	2.64e-04	0	61	0	540016640	54	6017
2026-01-25 08:27:03.04	30.87	21.66	-41.9	-45.7	12.3	1.72e-04	0	61	0	545259520	54	5906
2026-01-25 08:27:06.07	30.13	21.51	-42.1	-46.3	11.7	4.49e-04	0	62	0	551550976	54	6285
2026-01-25 08:27:09.09	29.40	21.35	-42.0	-46.0	12.0	4.47e-04	0	62	0	556793856	54	6124
2026-01-25 08:27:12.12	28.67	21.19	-41.8	-45.6	12.4	1.62e-04	0	61	0	563085312	54	5841
2026-01-25 08:27:15.15	27.95	21.03	-41.9	-45.8	12.2	2.02e-04	0	62	0	568328192	54	5947
2026-01-25 08:27:18.18	27.24	20.86	-41.9	-45.8	12.2	1.85e-04	0	61	0	573571072	54	5948
2026-01-25 08:27:21.21	26.54	20.69	-41.7	-45.5	12.5	1.25e-04	0	61	0	579862528	54	5742
2026-01-25 08:27:24.24	25.84	20.52	-41.6	-45.3	12.7	6.10e-05	0	61	0	585105408	54	5620
2026-01-25 08:27:27.27	25.15	20.34	-41.6	-45.2	12.7	7.32e-05	0	61	0	591396864	54	5577
2026-01-25 08:27:30.30	24.47	20.16	-41.6	-45.3	12.7	6.02e-05	0	61	0	596639744	54	5619
2026-01-25 08:27:33.33	23.80	19.98	-41.7	-45.4	12.5	1.19e-04	0	62	0	601882624	54	5706
2026-01-25 08:27:36.35	23.14	19.79	-41.6	-45.3	12.7	7.01e-05	0	61	0	608174080	54	5620
2026-01-25 08:27:39.38	22.49	19.60	-41.5	-45.1	12.8	5.49e-05	0	62	0	613416960	54	5500
2026-01-25 08:27:42.41	21.84	19.41	-41.6	-45.3	12.7	6.25e-05	0	62	0	619708416	54	5594
2026-01-25 08:27:45.44	21.20	19.22	-41.6	-45.3	12.6	8.92e-05	0	62	0	624951296	54	5630
2026-01-25 08:27:48.47	20.57	19.02	-41.6	-45.4	12.5	1.04e-04	0	61	0	631242752	54	5677
2026-01-25 08:27:51.50	19.95	18.82	-41.6	-45.4	12.5	1.19e-04	0	62	0	636485632	54	5668
2026-01-25 08:27:54.52	19.34	18.63	-41.6	-45.4	12.5	1.25e-04	0	61	0	641728512	54	5691
2026-01-25 08:27:57.55	18.73	18.43	-41.6	-45.3	12.5	1.20e-04	0	61	0	648019968	54	5656
2026-01-25 08:28:00.58	18.13	18.22	-41.6	-45.3	12.5	1.07e-04	0	61	0	653262848	54	5648
2026-01-25 08:28:03.61	17.54	18.02	-41.6	-45.5	12.4	1.46e-04	0	62	0	659554304	54	5725
2026-01-25 08:28:06.64	16.96	17.81	-41.5	-45.2	12.6	9.61e-05	0	62	0	664797184	54	5584
2026-01-25 08:28:09.66	16.39	17.61	-41.4	-44.9	12.9	4.50e-05	0	62	0	670040064	54	5398
2026-01-25 08:28:12.69	15.82	17.40	-41.2	-44.7	13.2	3.20e-05	0	62	0	676331520	54	5230
2026-01-25 08:28:15.73	15.26	17.19	-41.1	-44.6	13.2	1.29e-05	0	61	0	681574400	54	5172
2026-01-25 08:28:18.76	14.71	16.98	-41.2	-44.6	13.2	2.89e-05	0	62	0	687865856	54	5192
2026-01-25 08:28:21.78	14.17	16.77	-41.1	-44.5	13.3	2.67e-05	0	61	0	693108736	54	5121
2026-01-25 08:28:24.81	13.64	16.56	-41.1	-44.6	13.1	3.35e-05	0	62	0	699400192	54	5187
2026-01-25 08:28:27.84	13.11	16.34	-40.8	-44.2	13.5	1.52e-05	0	62	0	704643072	53	5243
2026-01-25 08:28:30.87	12.59	16.13	-40.9	-44.3	13.3	1.75e-05	0	62	0	709885952	53	5310
2026-01-25 08:28:33.90	12.08	15.92	-41.0	-44.5	13.0	3.35e-05	0	61	0	716177408	53	5461
2026-01-25 08:28:36.92	11.58	15.71	-40.9	-44.2	13.3	2.44e-05	0	61	0	721420288	53	5274
2026-01-25 08:28:39.95	11.08	15.49	-40.8	-44.1	13.4	1.60e-05	0	62	0	727711744	53	5176
2026-01-25 08:28:42.98	10.59	15.28	-40.9	-44.3	13.2	2.51e-05	0	62	0	732954624	53	5307
2026-01-25 08:28:46.01	10.11	15.06	-40.9	-44.4	12.9	4.42e-05	0	62	0	738197504	53	5355
2026-01-25 08:28:49.04	9.63	14.85	-40.9	-44.6	12.6	8.62e-05	0	62	0	744488960	53	5492
2026-01-25 08:28:52.07	9.16	14.63	-41.0	-44.8	12.3	1.50e-04	0	61	0	749731840	53	5625
2026-01-25 08:28:55.10	8.70	14.42	-41.1	-45.2	11.8	3.72e-04	0	62	0	756023296	53	5873
2026-01-25 08:28:58.13	8.25	14.20	-41.2	-45.4	11.4	9.22e-04	0	62	0	761266176	53	6057
2026-01-25 08:29:01.16	7.80	13.99	-41.1	-45.2	11.6	7.12e-04	0	62	0	767557632	53	5920
2026-01-25 08:29:04.18	7.36	13.77	-40.9	-45.1	11.6	6.90e-04	0	61	0	772800512	53	5794
2026-01-25 08:29:07.21	6.92	13.56	-41.0	-45.4	11.0	1.66e-03	0	62	0	778043392	53	6054
2026-01-25 08:29:10.24	6.49	13.35	-40.7	-45.5	10.5	3.51e-03	0	62	0	784334848	53	6083
2026-01-25 08:29:13.27	6.07	13.13	-40.7	-45.8	9.9	1.09e-02	0	62	0	789577728	53	6322
2026-01-25 08:29:16.30	5.65	12.92	-40.4	-45.2	10.5	5.32e-03	0	62	0	795869184	52	6232
2026-01-25 08:29:19.32	5.25	12.71	-40.2	-44.8	10.7	3.51e-03	0	62	0	801112064	52	5990
2026-01-25 08:29:22.35	4.84	12.49	-40.6	-46.7	8.4	2.23e-02	0	62	0	806354944	52	7396
2026-01-25 08:29:25.38	4.44	12.28	-41.2	-52.4	4.2	1.04e+00	0	62	0	811597824	53	13516
2026-01-25 08:29:28.41	4.05	12.07	-41.0	-55.3	3.8	1.49e+00	0	62	104	811597824	53	18945
2026-01-25 08:29:31.44	3.66	11.86	-40.2	-54.7	3.8	1.49e+00	0	62	104	811597824	52	18699
2026-01-25 08:29:34.47	3.28	11.65	-40.1	-54.6	3.8	1.49e+00	0	62	104	811597824	52	18501
2026-01-25 08:29:37.50	2.91	11.44	-40.0	-54.5	3.8	1.49e+00	0	62	104	811597824	51	19357
2026-01-25 08:29:40.52	2.54	11.23	-40.1	-54.6	3.8	1.49e+00	0	62	104	811597824	51	19509
2026-01-25 08:29:43.56	2.17	11.02	-40.0	-54.5	3.8	1.49e+00	0	62	104	811597824	51	19255
2026-01-25 08:29:46.58	1.81	10.81	-40.1	-54.7	3.8	1.49e+00	0	62	104	811597824	51	19744
2026-01-25 08:29:49.61	1.46	10.60	-40.2	-54.8	3.8	1.49e+00	0	62	104	811597824	51	20023
2026-01-25 08:29:52.64	1.11	10.40	-40.0	-54.5	3.8	1.49e+00	0	62	104	811597824	51	19388
2026-01-25 08:29:55.67	0.77	10.19	-39.9	-54.5	3.8	1.49e+00	0	62	104	811597824	51	19254
2026-01-25 08:29:58.70	0.43	9.99	-40.0	-54.5	3.8	1.49e+00	0	62	104	811597824	51	19250
2026-01-25 08:30:01.73	0.09	9.78	-40.1	-54.6	3.8	1.49e+00	0	62	104	811597824	51	19493
2026-01-25 08:30:04.76	359.76	9.58	-39.9	-54.4	3.8	1.49e+00	0	62	104	811597824	51	19164
2026-01-25 08:30:07.79	359.44	9.37	-39.9	-54.4	3.8	1.49e+00	0	62	104	811597824	51	19105
2026-01-25 08:30:10.82	359.12	9.17	-40.0	-54.5	3.8	1.49e+00	0	62	104	811597824	51	19247
2026-01-25 08:30:13.85	358.80	8.97	-39.9	-54.5	3.8	1.49e+00	0	62	104	811597824	51	19186
2026-01-25 08:30:16.88	358.49	8.77	-39.9	-54.5	3.8	1.49e+00	0	62	104	811597824	51	19168
2026-01-25 08:30:19.91	358.19	8.57	-39.8	-54.4	3.8	1.49e+00	0	62	104	811597824	51	18985
2026-01-25 08:30:22.94	357.89	8.37	-39.9	-54.4	3.8	1.49e+00	0	62	104	811597824	51	19023
2026-01-25 08:30:25.97	357.59	8.17	-39.9	-54.4	3.8	1.49e+00	0	62	104	811597824	51	19157
2026-01-25 08:30:29.00	357.29	7.97	-39.9	-54.5	3.8	1.49e+00	0	62	104	811597824	51	19291
2026-01-25 08:30:32.03	357.00	7.78	-44.9	-59.7	3.8	1.49e+00	0	62	104	811597824	60	20780
2026-01-25 08:30:35.06	356.72	7.58	-45.3	-60.1	3.8	1.49e+00	0	62	104	811597824	61	20540
2026-01-25 08:30:38.09	356.44	7.38	-45.2	-60.0	3.8	1.49e+00	0	62	104	811597824	61	20477
2026-01-25 08:30:41.12	356.16	7.19	-45.1	-59.9	3.8	1.49e+00	0	62	104	811597824	61	20193
2026-01-25 08:30:44.16	355.88	7.00	-45.3	-59.9	3.8	1.49e+00	0	62	104	811597824	61	20156
2026-01-25 08:30:47.19	355.61	6.80	-45.2	-59.8	3.8	1.49e+00	0	62	104	811597824	60	21146
2026-01-25 08:30:50.22	355.35	6.61	-45.2	-59.8	3.8	1.49e+00	0	62	104	811597824	60	21057
2026-01-25 08:30:53.25	355.08	6.42	-45.2	-59.8	3.8	1.49e+00	0	62	104	811597824	60	21020
2026-01-25 08:30:56.28	354.83	6.23	-45.2	-59.8	3.8	1.49e+00	0	62	104	811597824	60	21048
2026-01-25 08:30:59.31	354.57	6.04	-45.2	-59.7	3.8	1.49e+00	0	62	104	811597824	60	20957
2026-01-25 08:31:02.32	354.32	5.85	-45.1	-59.7	3.8	1.49e+00	0	62	104	811597824	60	20918
2026-01-25 08:31:05.35	354.07	5.67	-44.9	-59.7	3.8	1.49e+00	0	62	104	811597824	60	20967
2026-01-25 08:31:08.39	353.82	5.48	-45.1	-59.7	3.8	1.49e+00	0	62	104	811597824	60	20903
2026-01-25 08:31:11.41	353.58	5.29	-45.1	-59.7	3.8	1.49e+00	0	62	104	811597824	60	20849
2026-01-25 08:31:14.45	353.34	5.11	-45.0	-59.7	3.8	1.49e+00	0	62	104	811597824	60	20901
2026-01-25 08:31:17.48	353.11	4.92	-45.1	-59.7	3.8	1.49e+00	0	62	104	811597824	60	20927
2026-01-25 08:31:20.50	352.87	4.74	-45.1	-59.7	3.8	1.49e+00	0	62	104	811597824	60	20841
2026-01-25 08:31:23.54	352.64	4.56	-45.0	-59.7	3.8	1.49e+00	0	62	104	811597824	60	20835
2026-01-25 08:31:26.57	352.42	4.37	-45.1	-59.7	3.8	1.49e+00	0	62	104	811597824	60	20843
2026-01-25 08:31:29.60	352.19	4.19	-44.8	-59.7	3.8	1.49e+00	0	62	104	811597824	60	20888
2026-01-25 08:31:32.63	351.97	4.01	-45.0	-59.7	3.8	1.49e+00	0	62	104	811597824	60	20867
2026-01-25 08:31:35.66	351.75	3.83	-45.1	-59.7	3.8	1.49e+00	0	62	104	811597824	60	20830
2026-01-25 08:31:38.70	351.54	3.65	-45.0	-59.7	3.8	1.49e+00	0	62	104	811597824	60	20845
2026-01-25 08:31:41.73	351.32	3.47	-45.0	-59.6	3.8	1.49e+00	0	62	104	811597824	60	20757
2026-01-25 08:31:44.76	351.11	3.30	-44.9	-59.7	3.8	1.49e+00	0	62	104	811597824	60	20879
2026-01-25 08:31:47.79	350.91	3.12	-45.0	-59.7	3.8	1.49e+00	0	62	104	811597824	60	20810
2026-01-25 08:31:50.82	350.70	2.94	-45.0	-59.6	3.8	1.49e+00	0	62	104	811597824	60	20769
2026-01-25 08:31:53.85	350.50	2.77	-45.1	-59.7	3.8	1.49e+00	0	62	104	811597824	60	20827
2026-01-25 08:31:56.88	350.30	2.60	-45.1	-59.7	3.8	1.49e+00	0	62	104	811597824	60	20812
2026-01-25 08:31:59.91	350.10	2.42	-45.1	-59.7	3.8	1.49e+00	0	62	104	811597824	60	20778
2026-01-25 08:32:02.95	349.91	2.25	-45.0	-59.7	3.8	1.49e+00	0	62	104	811597824	60	20792
2026-01-25 08:32:05.98	349.72	2.08	-44.8	-59.7	3.8	1.49e+00	0	62	104	811597824	60	20785
2026-01-25 08:32:09.01	349.53	1.90	-45.0	-59.7	3.8	1.49e+00	0	62	104	811597824	60	20809

#Closed at: 2026-01-25 08:32:09
#Recorded file [811 MB]: D:/lorett/data/31039_260125_111928.dat