passes_logs/2026/01/25/R2.0S_Moscow/R2.0S_Moscow__20260125_114729_AQUA_rec.log

#Pass ID: 20260125_114729_AQUA
#Satellite: AQUA
#Configuration: AQUA
#almurnet v.1.7.20251203
#Start time: 2026-01-25 11:52:47

#Version: 2.2.20231116
#Station: R2.0S_Moscow
#Location: 37.707566 lon 55.798166 lat
#TLE: 1 27424U 02022A   26024.53919639  .00001970  00000+0  40397-3 0  9996
#TLE: 2 27424  98.4098 351.1277 0001915  66.8561 358.4840 14.61855303262281

#Time	Az	El	Level	Level2	SNR	BER	BlckErr	Temp	State	Recorded	gain1	gain2
2026-01-25 11:52:47.47	174.36	53.34	-44.9	-59.5	3.8	1.49e+00	0	62	0	0	60	20450
2026-01-25 11:52:49.50	174.70	54.22	-46.0	-64.5	3.8	7.43e-01	0	62	104	0	62	32189
2026-01-25 11:52:51.52	175.06	55.11	-46.0	-64.5	3.8	7.47e-01	0	62	104	0	62	32214
2026-01-25 11:52:53.54	175.44	56.01	-46.0	-64.5	3.8	7.46e-01	0	62	104	0	62	32260
2026-01-25 11:52:55.56	175.85	56.92	-46.0	-64.5	3.8	7.45e-01	0	62	104	0	62	32323
2026-01-25 11:52:57.58	176.29	57.85	-46.0	-64.5	3.8	7.45e-01	0	62	104	0	62	32443
2026-01-25 11:52:59.60	176.75	58.79	-46.0	-64.5	3.8	7.46e-01	0	62	104	0	62	32287
2026-01-25 11:53:01.62	177.26	59.75	-46.0	-64.5	3.8	7.45e-01	0	62	104	0	62	32403
2026-01-25 11:53:03.64	177.80	60.72	-46.0	-64.5	3.8	7.43e-01	0	62	104	0	62	32276
2026-01-25 11:53:05.67	178.38	61.71	-46.0	-64.5	3.8	7.48e-01	0	62	104	0	62	32499
2026-01-25 11:53:07.69	179.01	62.70	-46.0	-64.5	3.8	7.44e-01	0	62	104	0	62	32346
2026-01-25 11:53:09.71	179.70	63.71	-46.0	-64.5	3.8	7.44e-01	0	62	104	0	62	32381
2026-01-25 11:53:11.73	180.45	64.73	-46.0	-64.5	3.8	7.46e-01	0	62	104	0	62	32460
2026-01-25 11:53:13.75	181.27	65.76	-46.0	-64.5	3.8	7.45e-01	0	62	104	0	62	32372
2026-01-25 11:53:15.77	182.16	66.79	-46.0	-64.5	3.8	7.44e-01	0	62	104	0	62	32408
2026-01-25 11:53:17.79	183.15	67.84	-46.0	-64.5	3.8	7.44e-01	0	62	104	0	62	32400
2026-01-25 11:53:19.81	184.25	68.89	-46.0	-64.5	3.8	7.48e-01	0	62	104	0	62	32365
2026-01-25 11:53:21.84	185.48	69.95	-46.0	-64.5	3.8	7.47e-01	0	62	104	0	62	32280
2026-01-25 11:53:23.86	186.85	71.01	-46.0	-64.5	3.8	7.47e-01	0	62	104	0	62	32347
2026-01-25 11:53:25.88	188.39	72.07	-46.0	-64.5	3.8	7.46e-01	0	62	104	0	62	32194
2026-01-25 11:53:27.90	190.13	73.12	-46.0	-64.4	3.8	7.41e-01	0	62	104	0	62	31861
2026-01-25 11:53:29.92	192.12	74.17	-46.0	-64.4	3.8	7.46e-01	0	62	104	0	62	32022
2026-01-25 11:53:31.94	194.40	75.21	-46.0	-64.3	3.8	7.46e-01	0	62	104	0	62	31470
2026-01-25 11:53:33.96	197.03	76.23	-46.0	-63.8	3.8	7.48e-01	0	62	104	0	62	29702
2026-01-25 11:53:35.98	200.09	77.22	-45.7	-57.3	6.0	6.82e-01	77	62	0	0	62	14207
2026-01-25 11:53:38.00	203.68	78.18	-45.2	-53.4	9.9	6.26e-01	0	62	0	3670016	62	9000
2026-01-25 11:53:40.02	207.89	79.09	-44.9	-52.1	11.0	6.17e-01	0	62	0	7340032	61	8189
2026-01-25 11:53:42.04	212.85	79.94	-43.5	-47.7	16.0	6.09e-01	0	62	0	11534336	57	6241
2026-01-25 11:53:44.06	218.70	80.70	-44.9	-52.1	12.0	6.15e-01	0	62	0	15204352	60	8707
2026-01-25 11:53:46.08	225.52	81.36	-45.5	-55.5	7.3	6.54e-01	92	62	0	18874368	61	12178
2026-01-25 11:53:48.10	233.34	81.88	-43.2	-47.1	16.8	6.07e-01	0	62	0	22544384	58	5466
2026-01-25 11:53:50.12	242.06	82.22	-42.8	-46.4	17.4	6.07e-01	0	62	0	26738688	57	5385
2026-01-25 11:53:52.14	251.36	82.38	-42.8	-46.3	17.6	6.09e-01	0	62	0	30408704	57	5329
2026-01-25 11:53:54.16	260.80	82.34	-42.7	-46.2	17.7	6.06e-01	0	62	0	34078720	57	5224
2026-01-25 11:53:56.18	269.89	82.09	-42.5	-45.9	17.9	6.07e-01	0	62	0	37748736	56	5381
2026-01-25 11:53:58.20	278.23	81.67	-42.5	-45.9	17.9	6.03e-01	0	62	0	41943040	56	5390
2026-01-25 11:54:00.22	285.61	81.08	-42.5	-45.8	18.1	6.08e-01	0	62	0	45613056	56	5298
2026-01-25 11:54:02.24	291.99	80.38	-42.8	-46.3	17.5	6.07e-01	0	62	0	49283072	56	5653
2026-01-25 11:54:04.26	297.43	79.58	-43.1	-46.9	17.0	6.05e-01	0	62	0	52953088	56	6032
2026-01-25 11:54:06.27	302.02	78.70	-43.0	-46.6	17.2	6.06e-01	0	62	0	56623104	56	5853
2026-01-25 11:54:08.29	305.94	77.77	-43.1	-47.3	16.5	6.06e-01	0	62	0	60817408	57	5977
2026-01-25 11:54:10.31	309.28	76.80	-43.0	-47.1	16.0	6.07e-01	0	62	0	64487424	56	6174
2026-01-25 11:54:12.33	312.15	75.79	-43.2	-47.9	15.6	6.06e-01	0	62	0	68157440	57	6390
2026-01-25 11:54:14.35	314.62	74.77	-43.5	-48.3	15.5	6.07e-01	0	62	0	71827456	58	6298
2026-01-25 11:54:16.37	316.76	73.73	-43.8	-48.3	15.6	6.05e-01	0	62	0	75497472	58	6276
2026-01-25 11:54:18.39	318.63	72.68	-43.9	-48.8	15.0	6.06e-01	0	62	0	79691776	58	6675
2026-01-25 11:54:20.41	320.28	71.62	-44.0	-48.9	15.0	6.07e-01	0	62	0	83361792	58	6760
2026-01-25 11:54:22.43	321.74	70.56	-44.1	-49.1	14.9	6.07e-01	0	62	0	87031808	58	6904
2026-01-25 11:54:24.45	323.05	69.51	-44.2	-49.4	14.4	6.08e-01	0	62	0	90701824	59	6789
2026-01-25 11:54:26.46	324.21	68.46	-44.2	-49.2	14.7	6.06e-01	0	62	0	94896128	59	6619
2026-01-25 11:54:28.48	325.26	67.42	-44.3	-49.5	14.4	6.09e-01	0	62	0	98566144	59	6862
2026-01-25 11:54:30.50	326.21	66.38	-43.9	-48.5	15.5	6.07e-01	0	62	0	102236160	59	6087
2026-01-25 11:54:32.52	327.07	65.35	-44.1	-49.0	14.9	6.08e-01	0	62	0	105906176	59	6486
2026-01-25 11:54:34.54	327.86	64.32	-43.8	-48.3	15.7	6.08e-01	0	62	0	110100480	59	5942
2026-01-25 11:54:36.56	328.58	63.31	-43.2	-47.1	16.9	6.07e-01	0	62	0	113770496	58	5468
2026-01-25 11:54:38.58	329.24	62.31	-43.0	-46.5	17.5	6.05e-01	0	62	0	117440512	57	5464
2026-01-25 11:54:40.60	329.85	61.33	-43.0	-46.6	17.5	6.07e-01	0	62	0	121110528	57	5517
2026-01-25 11:54:42.62	330.41	60.35	-42.8	-46.3	17.7	6.07e-01	0	62	0	124780544	57	5321
2026-01-25 11:54:44.64	330.94	59.39	-43.0	-46.6	17.4	6.06e-01	0	62	0	128974848	57	5528
2026-01-25 11:54:46.66	331.42	58.44	-42.8	-46.2	17.8	6.08e-01	0	62	0	132644864	57	5272
2026-01-25 11:54:48.68	331.88	57.51	-42.5	-45.7	18.4	6.06e-01	0	62	0	136314880	56	5258
2026-01-25 11:54:50.70	332.30	56.59	-42.3	-45.3	18.7	6.08e-01	0	62	0	139984896	56	5039
2026-01-25 11:54:52.72	332.70	55.68	-42.1	-45.1	19.0	6.04e-01	0	62	0	143654912	56	4880
2026-01-25 11:54:54.74	333.07	54.79	-41.7	-44.5	19.4	6.06e-01	0	62	0	147849216	55	4849
2026-01-25 11:54:56.76	333.42	53.92	-41.8	-44.7	19.3	6.05e-01	0	62	0	151519232	55	4945
2026-01-25 11:54:58.78	333.75	53.05	-41.8	-44.7	19.3	6.07e-01	0	62	0	155189248	55	4948
2026-01-25 11:55:00.80	334.06	52.21	-41.7	-44.6	19.4	6.04e-01	0	62	0	158859264	55	4901
2026-01-25 11:55:02.81	334.36	51.38	-42.0	-45.0	19.0	6.05e-01	0	62	0	163053568	55	5110
2026-01-25 11:55:04.83	334.64	50.56	-42.1	-45.1	18.9	6.06e-01	0	62	0	166723584	55	5209
2026-01-25 11:55:06.85	334.90	49.75	-42.4	-45.6	18.4	6.09e-01	0	62	0	170393600	55	5507
2026-01-25 11:55:08.88	335.16	48.96	-42.2	-45.4	18.5	6.05e-01	0	62	0	174063616	55	5392
2026-01-25 11:55:10.89	335.39	48.19	-42.1	-45.2	18.8	6.06e-01	0	62	0	178257920	55	5260
2026-01-25 11:55:12.91	335.62	47.42	-42.1	-45.2	18.8	6.06e-01	0	62	0	181927936	55	5222
2026-01-25 11:55:14.93	335.84	46.67	-42.2	-45.4	18.6	6.07e-01	0	62	0	185597952	55	5384
2026-01-25 11:55:16.95	336.05	45.94	-42.3	-45.6	18.4	6.05e-01	0	62	0	189267968	55	5471
2026-01-25 11:55:18.97	336.25	45.22	-42.3	-45.5	18.4	6.06e-01	0	62	0	192937984	55	5457
2026-01-25 11:55:20.99	336.44	44.51	-42.3	-45.6	18.4	6.06e-01	0	62	0	197132288	55	5505
2026-01-25 11:55:23.01	336.62	43.81	-42.1	-45.3	18.6	6.07e-01	0	62	0	200802304	55	5294
2026-01-25 11:55:25.03	336.79	43.13	-42.4	-45.6	18.3	6.07e-01	0	62	0	204472320	55	5523
2026-01-25 11:55:27.04	336.96	42.46	-42.7	-46.2	17.8	6.08e-01	0	62	0	208142336	55	5894
2026-01-25 11:55:29.06	337.12	41.80	-42.5	-45.9	18.0	6.07e-01	0	62	0	211812352	55	5718
2026-01-25 11:55:31.08	337.27	41.15	-42.6	-46.1	17.8	6.08e-01	0	62	0	216006656	55	5846
2026-01-25 11:55:33.10	337.42	40.52	-43.0	-46.7	17.3	6.08e-01	0	62	0	219676672	56	5912
2026-01-25 11:55:35.12	337.57	39.90	-43.0	-46.7	17.3	6.06e-01	0	62	0	223346688	56	5904
2026-01-25 11:55:37.14	337.70	39.29	-42.9	-46.7	17.4	6.05e-01	0	62	0	227016704	56	5862
2026-01-25 11:55:39.16	337.84	38.68	-43.0	-46.7	17.3	6.05e-01	0	61	0	231211008	56	5906
2026-01-25 11:55:41.18	337.97	38.09	-43.0	-46.7	17.3	6.08e-01	0	62	0	234881024	56	5886
2026-01-25 11:55:43.20	338.09	37.52	-42.7	-46.2	17.7	6.10e-01	0	61	0	238551040	56	5586
2026-01-25 11:55:45.22	338.21	36.95	-42.7	-46.2	17.7	6.06e-01	0	62	0	242221056	56	5589
2026-01-25 11:55:47.24	338.33	36.39	-42.4	-45.7	18.2	6.07e-01	0	62	0	246415360	56	5271
2026-01-25 11:55:49.26	338.44	35.84	-42.4	-45.7	18.2	6.07e-01	0	62	0	250085376	56	5277
2026-01-25 11:55:51.27	338.55	35.30	-42.2	-45.4	18.6	6.05e-01	0	62	0	253755392	56	5054
2026-01-25 11:55:53.29	338.66	34.77	-42.2	-45.5	18.5	6.07e-01	0	62	0	257425408	56	5119
2026-01-25 11:55:55.31	338.76	34.25	-42.1	-45.2	18.7	6.05e-01	0	62	0	261095424	56	4965
2026-01-25 11:55:57.33	338.86	33.74	-41.9	-44.9	18.9	6.05e-01	0	62	0	265289728	55	5075
2026-01-25 11:55:59.35	338.95	33.24	-41.6	-44.5	19.3	6.06e-01	0	62	0	268959744	55	4861
2026-01-25 11:56:01.37	339.05	32.75	-41.6	-44.5	19.3	6.06e-01	0	62	0	272629760	55	4831
2026-01-25 11:56:03.39	339.14	32.26	-41.5	-44.3	19.4	6.08e-01	0	62	0	276299776	55	4759
2026-01-25 11:56:05.41	339.23	31.78	-41.4	-44.2	19.6	6.08e-01	0	62	0	279969792	54	4944
2026-01-25 11:56:07.42	339.31	31.32	-41.4	-44.3	19.5	6.08e-01	0	62	0	284164096	54	5010
2026-01-25 11:56:09.44	339.40	30.86	-41.5	-44.4	19.4	6.07e-01	0	62	0	287834112	54	5066
2026-01-25 11:56:11.46	339.48	30.40	-41.5	-44.4	19.3	6.08e-01	0	62	0	291504128	54	5099
2026-01-25 11:56:13.48	339.56	29.96	-41.5	-44.4	19.3	6.06e-01	0	62	0	295174144	54	5072
2026-01-25 11:56:15.50	339.64	29.52	-41.5	-44.5	19.2	6.05e-01	0	62	0	299368448	54	5128
2026-01-25 11:56:17.52	339.71	29.09	-41.6	-44.6	19.1	6.05e-01	0	62	0	303038464	54	5182
2026-01-25 11:56:19.54	339.79	28.66	-41.7	-44.8	18.8	6.04e-01	0	62	0	306708480	54	5333
2026-01-25 11:56:21.56	339.86	28.25	-41.7	-44.9	18.8	6.07e-01	0	62	0	310378496	54	5353
2026-01-25 11:56:23.58	339.93	27.84	-41.8	-45.0	18.6	6.06e-01	0	62	0	314572800	54	5403
2026-01-25 11:56:25.59	340.00	27.43	-41.8	-45.0	18.6	6.05e-01	0	62	0	318242816	54	5425
2026-01-25 11:56:27.62	340.07	27.03	-41.8	-45.0	18.6	6.06e-01	0	62	0	321912832	54	5435
2026-01-25 11:56:29.63	340.13	26.64	-41.9	-45.1	18.5	6.06e-01	0	62	0	325582848	54	5492
2026-01-25 11:56:31.65	340.20	26.26	-41.9	-45.2	18.3	6.07e-01	0	62	0	329252864	54	5574
2026-01-25 11:56:33.67	340.26	25.88	-41.9	-45.3	18.2	6.07e-01	0	62	0	333447168	54	5608
2026-01-25 11:56:35.70	340.32	25.50	-42.0	-45.4	18.0	6.08e-01	0	62	0	337117184	54	5677
2026-01-25 11:56:37.71	340.38	25.13	-42.0	-45.5	17.8	6.06e-01	0	62	0	340787200	54	5773
2026-01-25 11:56:39.73	340.44	24.77	-41.9	-45.4	17.8	6.07e-01	0	62	0	344457216	54	5700
2026-01-25 11:56:41.75	340.50	24.41	-42.0	-45.5	17.7	6.04e-01	0	62	0	348127232	54	5742
2026-01-25 11:56:43.77	340.56	24.06	-42.0	-45.7	17.5	6.08e-01	0	62	0	352321536	54	5868
2026-01-25 11:56:45.79	340.61	23.71	-41.9	-45.4	17.6	6.05e-01	0	62	0	355991552	54	5718
2026-01-25 11:56:47.81	340.67	23.37	-41.9	-45.5	17.5	6.05e-01	0	62	0	359661568	54	5751
2026-01-25 11:56:49.83	340.72	23.03	-41.9	-45.6	17.4	6.08e-01	0	62	0	363331584	54	5828
2026-01-25 11:56:51.84	340.77	22.70	-41.7	-45.4	17.4	6.06e-01	0	62	0	367525888	54	5689
2026-01-25 11:56:53.86	340.82	22.37	-41.6	-45.4	17.2	6.05e-01	0	62	0	371195904	54	5721
2026-01-25 11:56:55.88	340.87	22.05	-41.5	-45.6	16.6	6.04e-01	0	62	0	374865920	54	5831
2026-01-25 11:56:57.90	340.92	21.73	-41.0	-44.9	16.9	6.05e-01	0	62	0	378535936	54	5387
2026-01-25 11:56:59.92	340.97	21.42	-40.9	-44.9	16.8	6.07e-01	0	62	0	382205952	53	5691
2026-01-25 11:57:01.94	341.02	21.10	-41.1	-45.3	16.3	6.08e-01	0	62	0	386400256	53	5974
2026-01-25 11:57:03.96	341.07	20.80	-41.7	-47.2	14.0	6.07e-01	0	61	0	390070272	53	7456
2026-01-25 11:57:05.98	341.11	20.50	-42.3	-50.8	9.9	6.25e-01	0	62	0	393740288	55	10001
2026-01-25 11:57:07.99	341.16	20.20	-42.5	-55.1	5.6	6.95e-01	16	62	0	397410304	55	16484
2026-01-25 11:57:10.01	341.20	19.90	-42.4	-59.2	3.9	7.39e-01	0	62	104	397410304	55	26186
2026-01-25 11:57:12.03	341.25	19.61	-42.4	-61.2	3.8	7.41e-01	0	62	104	397410304	55	33129
2026-01-25 11:57:14.05	341.29	19.32	-41.8	-60.2	3.8	7.45e-01	0	62	104	397410304	55	29491
2026-01-25 11:57:16.07	341.33	19.04	-41.8	-60.3	3.8	7.45e-01	0	62	104	397410304	55	29777
2026-01-25 11:57:18.09	341.37	18.76	-41.8	-60.7	3.8	7.42e-01	0	61	104	397410304	55	31256
2026-01-25 11:57:20.11	341.42	18.48	-41.7	-60.6	3.8	7.44e-01	0	62	104	397410304	55	30826
2026-01-25 11:57:22.13	341.46	18.21	-42.0	-60.8	3.8	7.46e-01	0	62	104	397410304	55	31590
2026-01-25 11:57:24.15	341.50	17.94	-41.5	-60.5	3.8	7.45e-01	0	62	104	397410304	55	30698
2026-01-25 11:57:26.17	341.54	17.67	-41.9	-60.7	3.8	7.46e-01	0	62	104	397410304	55	31198
2026-01-25 11:57:28.19	341.57	17.41	-41.5	-60.5	3.8	7.44e-01	0	62	104	397410304	55	30452
2026-01-25 11:57:30.21	341.61	17.15	-41.7	-60.6	3.8	7.46e-01	0	62	104	397410304	55	30980
2026-01-25 11:57:32.23	341.65	16.89	-41.6	-60.4	3.8	7.43e-01	0	62	104	397410304	55	30303
2026-01-25 11:57:34.24	341.69	16.64	-41.6	-60.6	3.8	7.45e-01	0	62	104	397410304	55	31058
2026-01-25 11:57:36.26	341.72	16.39	-41.6	-60.5	3.8	7.46e-01	0	62	104	397410304	55	30500
2026-01-25 11:57:38.28	341.76	16.14	-41.6	-60.7	3.8	7.48e-01	0	62	104	397410304	55	31130
2026-01-25 11:57:40.31	341.80	15.89	-41.5	-60.4	3.8	7.44e-01	0	62	104	397410304	54	32053
2026-01-25 11:57:42.32	341.83	15.65	-41.5	-60.6	3.8	7.45e-01	0	62	104	397410304	54	32627
2026-01-25 11:57:44.34	341.87	15.41	-41.4	-60.4	3.8	7.45e-01	0	62	104	397410304	54	32004
2026-01-25 11:57:46.36	341.90	15.17	-41.4	-60.4	3.8	7.49e-01	0	62	104	397410304	54	32064
2026-01-25 11:57:48.38	341.93	14.93	-41.5	-60.5	3.8	7.42e-01	0	62	104	397410304	54	32270
2026-01-25 11:57:50.40	341.97	14.70	-41.4	-60.5	3.8	7.46e-01	0	62	104	397410304	54	32253
2026-01-25 11:57:52.41	342.00	14.47	-41.5	-60.5	3.8	7.48e-01	0	62	104	397410304	54	32383
2026-01-25 11:57:54.43	342.03	14.24	-41.5	-60.5	3.8	7.46e-01	0	62	104	397410304	54	32292
2026-01-25 11:57:56.45	342.07	14.02	-41.5	-60.5	3.8	7.46e-01	0	62	104	397410304	54	32369
2026-01-25 11:57:58.47	342.10	13.79	-41.5	-60.5	3.8	7.42e-01	0	62	104	397410304	54	32281
2026-01-25 11:58:00.49	342.13	13.57	-41.5	-60.5	3.8	7.44e-01	0	62	104	397410304	54	32251
2026-01-25 11:58:02.51	342.16	13.35	-41.5	-60.4	3.8	7.45e-01	0	62	104	397410304	54	32012
2026-01-25 11:58:04.53	342.19	13.14	-41.4	-60.4	3.8	7.45e-01	0	62	104	397410304	54	31949
2026-01-25 11:58:06.55	342.22	12.92	-41.4	-60.4	3.8	7.46e-01	0	62	104	397410304	54	31852
2026-01-25 11:58:08.57	342.25	12.71	-41.4	-60.3	3.8	7.48e-01	0	62	104	397410304	54	31626
2026-01-25 11:58:10.59	342.28	12.50	-41.4	-60.3	3.8	7.45e-01	0	62	104	397410304	54	31713
2026-01-25 11:58:12.61	342.31	12.29	-41.4	-60.3	3.8	7.46e-01	0	62	104	397410304	54	31630
2026-01-25 11:58:14.63	342.34	12.08	-41.4	-60.3	3.8	7.47e-01	0	62	104	397410304	54	31749
2026-01-25 11:58:16.64	342.37	11.88	-41.4	-60.3	3.8	7.46e-01	0	62	104	397410304	54	31591
2026-01-25 11:58:18.66	342.40	11.68	-41.5	-60.3	3.8	7.46e-01	0	62	104	397410304	54	31789
2026-01-25 11:58:20.69	342.42	11.48	-41.4	-60.4	3.8	7.40e-01	0	62	104	397410304	54	31836
2026-01-25 11:58:22.70	342.45	11.28	-41.5	-60.5	3.8	7.45e-01	0	62	104	397410304	54	32226
2026-01-25 11:58:24.72	342.48	11.08	-41.5	-60.5	3.8	7.44e-01	0	62	104	397410304	54	32306
2026-01-25 11:58:26.74	342.51	10.88	-41.4	-60.4	3.8	7.47e-01	0	62	104	397410304	54	32007
2026-01-25 11:58:28.76	342.53	10.69	-41.5	-60.4	3.8	7.45e-01	0	62	104	397410304	54	32160
2026-01-25 11:58:30.78	342.56	10.50	-41.3	-60.3	3.8	7.46e-01	0	62	104	397410304	54	31521
2026-01-25 11:58:32.80	342.59	10.31	-41.4	-60.3	3.8	7.44e-01	0	62	104	397410304	54	31794
2026-01-25 11:58:34.81	342.61	10.12	-41.2	-60.2	3.8	7.45e-01	0	62	104	397410304	54	31304
2026-01-25 11:58:36.83	342.64	9.93	-41.2	-60.2	3.8	7.44e-01	0	62	104	397410304	54	31428
2026-01-25 11:58:38.85	342.67	9.75	-41.3	-60.3	3.8	7.43e-01	0	62	104	397410304	54	31487
2026-01-25 11:58:40.87	342.69	9.56	-41.2	-60.2	3.8	7.43e-01	0	62	104	397410304	54	31348
2026-01-25 11:58:42.89	342.72	9.38	-41.3	-60.3	3.8	7.45e-01	0	62	104	397410304	54	31692
2026-01-25 11:58:44.91	342.74	9.20	-41.3	-60.3	3.8	7.46e-01	0	62	104	397410304	54	31622
2026-01-25 11:58:46.93	342.77	9.02	-41.3	-60.3	3.8	7.44e-01	0	62	104	397410304	54	31523
2026-01-25 11:58:48.95	342.79	8.84	-41.4	-60.4	3.8	7.42e-01	0	62	104	397410304	54	31985
2026-01-25 11:58:50.97	342.82	8.66	-41.2	-60.2	3.8	7.46e-01	0	62	104	397410304	54	31337
2026-01-25 11:58:52.99	342.84	8.49	-41.4	-60.4	3.8	7.46e-01	0	62	104	397410304	54	32064
2026-01-25 11:58:55.01	342.86	8.31	-41.2	-60.2	3.8	7.45e-01	0	62	104	397410304	54	31254
2026-01-25 11:58:57.03	342.89	8.14	-41.4	-60.4	3.8	7.45e-01	0	62	104	397410304	54	31928
2026-01-25 11:58:59.05	342.91	7.97	-41.5	-60.6	3.8	7.42e-01	0	62	104	397410304	54	32554
2026-01-25 11:59:01.07	342.94	7.80	-44.8	-63.3	3.8	7.44e-01	0	62	104	397410304	60	31775
2026-01-25 11:59:03.09	342.96	7.63	-45.9	-64.5	3.8	7.47e-01	0	62	104	397410304	62	32463
2026-01-25 11:59:05.11	342.98	7.46	-46.1	-64.7	3.8	7.48e-01	0	62	104	397410304	62	33255
2026-01-25 11:59:07.13	343.00	7.30	-46.2	-64.8	3.8	7.47e-01	0	62	104	397410304	62	33408
2026-01-25 11:59:09.15	343.03	7.13	-46.3	-64.8	3.8	7.45e-01	0	62	104	397410304	63	31684
2026-01-25 11:59:11.17	343.05	6.97	-46.1	-64.7	3.8	7.48e-01	0	62	104	397410304	62	33036
2026-01-25 11:59:13.19	343.07	6.80	-46.2	-64.7	3.8	7.47e-01	0	62	104	397410304	62	33157
2026-01-25 11:59:15.22	343.09	6.64	-46.0	-64.6	3.8	7.44e-01	0	62	104	397410304	62	32598
2026-01-25 11:59:17.24	343.12	6.48	-46.0	-64.6	3.8	7.42e-01	0	62	104	397410304	62	32667
2026-01-25 11:59:19.26	343.14	6.32	-46.1	-64.6	3.8	7.45e-01	0	62	104	397410304	62	32649
2026-01-25 11:59:21.28	343.16	6.16	-46.1	-64.6	3.8	7.47e-01	0	62	104	397410304	62	32699
2026-01-25 11:59:23.30	343.18	6.00	-46.1	-64.6	3.8	7.41e-01	0	62	104	397410304	62	32662
2026-01-25 11:59:25.32	343.20	5.85	-46.0	-64.5	3.8	7.44e-01	0	62	104	397410304	62	32534
2026-01-25 11:59:27.34	343.22	5.69	-46.0	-64.6	3.8	7.45e-01	0	62	104	397410304	62	32583
2026-01-25 11:59:29.36	343.25	5.54	-46.0	-64.6	3.8	7.44e-01	0	62	104	397410304	62	32603
2026-01-25 11:59:31.39	343.27	5.38	-46.0	-64.6	3.8	7.43e-01	0	62	104	397410304	62	32566
2026-01-25 11:59:33.41	343.29	5.23	-46.0	-64.6	3.8	7.47e-01	0	62	104	397410304	62	32565
2026-01-25 11:59:35.43	343.31	5.08	-46.0	-64.5	3.8	7.45e-01	0	62	104	397410304	62	32526
2026-01-25 11:59:37.45	343.33	4.93	-46.0	-64.6	3.8	7.45e-01	0	62	104	397410304	62	32609
2026-01-25 11:59:39.47	343.35	4.78	-46.0	-64.5	3.8	7.45e-01	0	62	104	397410304	62	32539
2026-01-25 11:59:41.49	343.37	4.63	-46.0	-64.5	3.8	7.44e-01	0	62	104	397410304	62	32514
2026-01-25 11:59:43.51	343.39	4.48	-46.0	-64.5	3.8	7.49e-01	0	62	104	397410304	62	32547
2026-01-25 11:59:45.54	343.41	4.34	-46.0	-64.5	3.8	7.44e-01	0	62	104	397410304	62	32506
2026-01-25 11:59:47.56	343.43	4.19	-46.0	-64.5	3.8	7.48e-01	0	62	104	397410304	62	32479
2026-01-25 11:59:49.58	343.45	4.05	-46.0	-64.5	3.8	7.43e-01	0	62	104	397410304	62	32460
2026-01-25 11:59:51.60	343.47	3.90	-46.0	-64.5	3.8	7.45e-01	0	62	104	397410304	62	32472
2026-01-25 11:59:53.62	343.49	3.76	-46.0	-64.5	3.8	7.43e-01	0	62	104	397410304	62	32387
2026-01-25 11:59:55.64	343.51	3.62	-46.0	-64.5	3.8	7.46e-01	0	62	104	397410304	62	32293
2026-01-25 11:59:57.66	343.53	3.48	-46.0	-64.5	3.8	7.47e-01	0	62	104	397410304	62	32365
2026-01-25 11:59:59.68	343.55	3.33	-46.0	-64.5	3.8	7.45e-01	0	62	104	397410304	62	32378
2026-01-25 12:00:01.70	343.57	3.19	-46.0	-64.5	3.8	7.47e-01	0	62	104	397410304	62	32362
2026-01-25 12:00:03.72	343.59	3.06	-46.0	-64.5	3.8	7.46e-01	0	62	104	397410304	62	32365
2026-01-25 12:00:05.74	343.61	2.92	-46.0	-64.5	3.8	7.43e-01	0	62	104	397410304	62	32309
2026-01-25 12:00:07.76	343.62	2.78	-46.0	-64.5	3.8	7.45e-01	0	62	104	397410304	62	32348
2026-01-25 12:00:09.78	343.64	2.64	-45.9	-64.5	3.8	7.44e-01	0	62	104	397410304	62	32310
2026-01-25 12:00:11.80	343.66	2.51	-46.0	-64.5	3.8	7.42e-01	0	62	104	397410304	62	32207
2026-01-25 12:00:13.83	343.68	2.37	-45.9	-64.5	3.8	7.44e-01	0	62	104	397410304	62	32284
2026-01-25 12:00:15.85	343.70	2.24	-46.0	-64.5	3.8	7.46e-01	0	62	104	397410304	62	32245
2026-01-25 12:00:17.86	343.72	2.10	-45.9	-64.4	3.8	7.45e-01	0	62	104	397410304	62	32168

#Closed at: 2026-01-25 12:00:19
#Recorded file [397 MB]: D:/lorett/data/31039_260125_145247.dat