passes_logs/2026/01/25/R2.0S_Moscow/R2.0S_Moscow__20260125_111855_SUOMI_NPP_rec.log

#Pass ID: 20260125_111855_SUOMI NPP
#Satellite: SUOMI NPP
#Configuration: NPP
#almurnet v.1.7.20251203
#Start time: 2026-01-25 11:18:57

#Version: 2.2.20231116
#Station: R2.0S_Moscow
#Location: 37.707566 lon 55.798166 lat
#TLE: 1 37849U 11061A   26024.54906732  .00000185  00000+0  10878-3 0  9990
#TLE: 2 37849  98.7821 326.5159 0002200  47.3746 312.7615 14.19529340738061

#Time	Az	El	Level	Level2	SNR	BER	BlckErr	Temp	State	Recorded	gain1	gain2
2026-01-25 11:18:57.29	200.26	2.08	-44.0	-58.5	3.8	1.49e+00	0	52	0	0	59	19217
2026-01-25 11:19:01.32	200.52	2.31	-44.0	-58.4	3.8	1.49e+00	0	53	104	0	59	19147
2026-01-25 11:19:05.36	200.77	2.55	-44.0	-58.4	3.8	1.49e+00	0	53	104	0	59	19149
2026-01-25 11:19:09.40	201.03	2.79	-44.0	-58.4	3.8	1.49e+00	0	53	104	0	59	19152
2026-01-25 11:19:13.44	201.30	3.02	-44.0	-58.5	3.8	1.49e+00	0	54	104	0	59	19204
2026-01-25 11:19:17.49	201.57	3.26	-44.0	-58.4	3.8	1.49e+00	0	54	104	0	59	19048
2026-01-25 11:19:21.53	201.84	3.51	-44.0	-58.4	3.8	1.49e+00	0	54	104	0	59	19074
2026-01-25 11:19:25.57	202.12	3.75	-44.0	-58.4	3.8	1.49e+00	0	54	104	0	59	19100
2026-01-25 11:19:29.62	202.40	3.99	-43.9	-58.4	3.8	1.49e+00	0	55	104	0	59	19113
2026-01-25 11:19:33.66	202.69	4.24	-43.9	-58.4	3.8	1.49e+00	0	55	104	0	59	19103
2026-01-25 11:19:37.70	202.98	4.49	-43.9	-58.4	3.8	1.49e+00	0	55	104	0	59	19031
2026-01-25 11:19:41.74	203.28	4.74	-43.9	-58.4	3.8	1.49e+00	0	55	104	0	59	19078
2026-01-25 11:19:45.78	203.58	4.99	-43.9	-58.4	3.8	1.49e+00	0	55	104	0	59	19073
2026-01-25 11:19:49.82	203.88	5.24	-43.9	-58.4	3.8	1.49e+00	0	56	104	0	59	19056
2026-01-25 11:19:53.86	204.19	5.50	-43.9	-58.3	3.8	1.49e+00	0	56	104	0	59	18863
2026-01-25 11:19:57.90	204.51	5.76	-43.9	-57.9	3.8	1.49e+00	0	56	104	0	59	17988
2026-01-25 11:20:01.94	204.83	6.02	-43.8	-56.5	3.8	1.49e+00	0	56	104	0	59	15381
2026-01-25 11:20:05.99	205.16	6.28	-43.7	-54.5	4.3	1.40e+00	0	57	0	0	59	12219
2026-01-25 11:20:10.03	205.49	6.54	-43.5	-52.9	4.9	7.68e-01	0	57	0	7340032	59	10137
2026-01-25 11:20:14.07	205.83	6.80	-43.5	-52.7	5.1	6.18e-01	0	57	0	14680064	58	10532
2026-01-25 11:20:18.11	206.18	7.07	-43.5	-53.3	4.8	8.00e-01	0	57	0	22020096	58	11205
2026-01-25 11:20:22.15	206.53	7.34	-43.2	-51.0	6.2	4.10e-01	0	57	0	29360128	58	8661
2026-01-25 11:20:26.19	206.88	7.61	-42.5	-48.4	8.6	3.54e-02	0	57	0	36700160	57	6784
2026-01-25 11:20:30.23	207.25	7.88	-41.8	-46.7	10.3	5.67e-03	0	58	0	45088768	55	6246
2026-01-25 11:20:34.28	207.62	8.16	-43.7	-56.3	3.8	1.21e+00	0	58	104	51380224	58	15786
2026-01-25 11:20:38.32	208.00	8.43	-42.1	-47.0	10.2	2.04e-02	0	58	0	57671680	56	6101
2026-01-25 11:20:42.35	208.38	8.71	-41.8	-46.5	10.6	4.12e-03	0	58	0	65011712	55	6084
2026-01-25 11:20:46.39	208.77	8.99	-41.8	-46.3	10.7	3.44e-03	0	58	0	72351744	55	5992
2026-01-25 11:20:50.43	209.17	9.27	-41.7	-46.1	11.1	1.87e-03	0	58	0	79691776	55	5795
2026-01-25 11:20:54.47	209.57	9.56	-41.5	-45.6	11.6	7.28e-04	0	58	0	88080384	55	5521
2026-01-25 11:20:58.50	209.99	9.84	-41.4	-45.4	11.9	4.30e-04	0	58	0	95420416	54	5703
2026-01-25 11:21:02.54	210.41	10.13	-41.5	-45.7	11.6	5.91e-04	0	58	0	102760448	54	5884
2026-01-25 11:21:06.58	210.84	10.42	-41.6	-45.7	11.6	7.13e-04	0	59	0	110100480	54	5912
2026-01-25 11:21:10.62	211.28	10.71	-41.8	-46.1	11.3	1.21e-03	0	59	0	118489088	54	6151
2026-01-25 11:21:14.66	211.72	11.01	-41.6	-45.7	11.7	5.58e-04	0	59	0	125829120	54	5902
2026-01-25 11:21:18.69	212.18	11.30	-41.6	-45.6	11.8	4.61e-04	0	59	0	133169152	54	5847
2026-01-25 11:21:22.73	212.64	11.60	-41.4	-45.4	12.1	3.11e-04	0	59	0	140509184	54	5666
2026-01-25 11:21:26.77	213.12	11.90	-41.6	-45.7	11.8	4.45e-04	0	59	0	147849216	54	5873
2026-01-25 11:21:30.80	213.60	12.20	-41.8	-46.2	11.3	7.77e-04	0	59	0	156237824	54	6217
2026-01-25 11:21:34.84	214.09	12.51	-41.8	-45.9	11.6	7.87e-04	0	59	0	163577856	54	6035
2026-01-25 11:21:38.88	214.59	12.81	-41.7	-45.8	11.9	5.91e-04	0	59	0	170917888	54	5928
2026-01-25 11:21:42.92	215.11	13.12	-41.8	-45.9	11.8	5.92e-04	0	59	0	178257920	54	6001
2026-01-25 11:21:46.96	215.63	13.43	-41.7	-45.7	12.0	4.13e-04	0	59	0	186646528	54	5889
2026-01-25 11:21:50.99	216.16	13.74	-41.8	-45.8	11.8	3.87e-04	0	59	0	193986560	54	5963
2026-01-25 11:21:55.03	216.71	14.05	-41.7	-45.6	12.1	2.95e-04	0	59	0	201326592	54	5810
2026-01-25 11:21:59.06	217.26	14.37	-41.5	-45.2	12.5	1.26e-04	0	60	0	208666624	54	5559
2026-01-25 11:22:03.10	217.83	14.68	-41.4	-45.1	12.6	6.40e-05	0	59	0	216006656	54	5497
2026-01-25 11:22:07.14	218.41	15.00	-41.6	-45.3	12.4	1.48e-04	0	59	0	224395264	54	5650
2026-01-25 11:22:11.18	219.00	15.32	-41.7	-45.6	12.1	3.07e-04	0	60	0	231735296	54	5854
2026-01-25 11:22:15.22	219.61	15.64	-41.8	-45.7	12.0	3.75e-04	0	60	0	239075328	54	5920
2026-01-25 11:22:19.26	220.23	15.96	-41.8	-45.7	12.1	2.77e-04	0	60	0	246415360	54	5886
2026-01-25 11:22:23.30	220.86	16.29	-41.7	-45.5	12.3	1.92e-04	0	60	0	254803968	54	5781
2026-01-25 11:22:27.34	221.50	16.61	-41.5	-45.2	12.7	1.06e-04	0	60	0	262144000	54	5549
2026-01-25 11:22:31.38	222.16	16.93	-41.1	-44.5	13.4	1.75e-05	0	60	0	269484032	54	5105
2026-01-25 11:22:35.42	222.83	17.26	-41.0	-44.1	13.7	5.30e-06	0	60	0	276824064	53	5200
2026-01-25 11:22:39.46	223.51	17.59	-41.1	-44.4	13.5	1.60e-05	0	60	0	284164096	53	5363
2026-01-25 11:22:43.50	224.22	17.91	-41.4	-45.0	12.9	2.89e-05	0	60	0	292552704	53	5749
2026-01-25 11:22:47.53	224.93	18.24	-41.5	-45.0	12.9	5.41e-05	0	60	0	299892736	53	5756
2026-01-25 11:22:51.57	225.66	18.56	-41.3	-44.7	13.2	2.51e-05	0	60	0	307232768	53	5545
2026-01-25 11:22:55.61	226.40	18.89	-40.9	-44.0	13.9	7.60e-06	0	60	0	314572800	53	5125
2026-01-25 11:22:59.65	227.16	19.21	-40.8	-43.8	14.0	3.00e-06	0	60	0	322961408	53	5031
2026-01-25 11:23:03.69	227.94	19.54	-41.0	-44.2	13.7	6.10e-06	0	60	0	330301440	53	5277
2026-01-25 11:23:07.73	228.73	19.86	-40.9	-44.0	13.9	8.30e-06	0	60	0	337641472	53	5112
2026-01-25 11:23:11.77	229.54	20.18	-41.0	-44.2	13.7	2.20e-06	0	60	0	344981504	53	5264
2026-01-25 11:23:15.80	230.37	20.50	-41.0	-44.1	13.8	6.80e-06	0	60	0	352321536	53	5210
2026-01-25 11:23:19.84	231.21	20.82	-41.1	-44.3	13.6	3.00e-06	0	60	0	360710144	53	5317
2026-01-25 11:23:23.88	232.07	21.14	-41.2	-44.5	13.5	1.44e-05	0	61	0	368050176	53	5421
2026-01-25 11:23:27.92	232.95	21.45	-41.0	-44.2	13.8	2.20e-06	0	60	0	375390208	53	5224
2026-01-25 11:23:31.96	233.84	21.76	-40.9	-44.0	14.0	5.30e-06	0	60	0	382730240	53	5119
2026-01-25 11:23:36.00	234.76	22.07	-41.0	-44.1	13.8	2.20e-06	0	60	0	391118848	53	5192
2026-01-25 11:23:40.03	235.69	22.37	-40.9	-44.0	13.9	1.50e-06	0	60	0	398458880	53	5143
2026-01-25 11:23:44.07	236.63	22.67	-40.8	-43.8	14.1	2.20e-06	0	60	0	405798912	53	5031
2026-01-25 11:23:48.11	237.60	22.97	-40.7	-43.7	14.3	0.00e+00	0	60	0	413138944	53	4942
2026-01-25 11:23:52.14	238.58	23.26	-41.0	-44.1	13.9	2.20e-06	0	61	0	420478976	53	5206
2026-01-25 11:23:56.18	239.58	23.54	-41.3	-44.6	13.4	1.90e-05	0	61	0	428867584	53	5470
2026-01-25 11:24:00.22	240.60	23.82	-41.0	-44.1	13.9	4.50e-06	0	60	0	436207616	53	5172
2026-01-25 11:24:04.26	241.64	24.09	-40.8	-43.8	14.2	2.20e-06	0	60	0	443547648	53	5006
2026-01-25 11:24:08.30	242.69	24.35	-41.5	-45.0	13.0	2.36e-05	0	61	0	450887680	53	5732
2026-01-25 11:24:12.34	243.76	24.61	-40.9	-43.9	14.0	3.80e-06	0	61	0	458227712	53	5069
2026-01-25 11:24:16.37	244.85	24.86	-41.9	-45.8	12.1	1.15e-04	0	61	0	466616320	54	5969
2026-01-25 11:24:20.41	245.95	25.10	-42.1	-46.1	11.9	3.22e-04	0	61	0	473956352	54	6148
2026-01-25 11:24:24.45	247.07	25.33	-41.9	-45.8	12.2	3.03e-04	0	61	0	481296384	54	5933
2026-01-25 11:24:28.49	248.21	25.55	-42.0	-45.9	11.9	2.15e-04	0	61	0	488636416	54	6054
2026-01-25 11:24:32.53	249.36	25.76	-42.6	-47.4	10.5	3.76e-03	0	61	0	497025024	55	6765
2026-01-25 11:24:36.57	250.53	25.96	-42.6	-47.2	10.9	2.18e-03	0	61	0	504365056	56	6227
2026-01-25 11:24:40.60	251.71	26.15	-43.2	-48.6	9.3	1.17e-02	0	61	0	511705088	56	7362
2026-01-25 11:24:44.64	252.90	26.33	-42.5	-46.9	11.1	1.87e-03	0	61	0	519045120	57	5695
2026-01-25 11:24:48.68	254.11	26.49	-42.8	-47.6	10.4	5.55e-03	0	61	0	526385152	56	6499
2026-01-25 11:24:52.72	255.32	26.65	-42.9	-47.9	10.1	5.25e-03	0	61	0	534773760	56	6769
2026-01-25 11:24:56.76	256.55	26.79	-42.9	-47.9	10.0	8.53e-03	0	61	0	542113792	57	6366
2026-01-25 11:25:00.80	257.79	26.91	-43.4	-49.5	8.5	3.05e-02	0	61	0	549453824	57	7658
2026-01-25 11:25:04.84	259.04	27.03	-42.7	-47.4	10.6	3.58e-03	0	61	0	556793856	57	6002
2026-01-25 11:25:08.88	260.30	27.12	-42.8	-47.6	10.4	4.18e-03	0	61	0	565182464	57	6148
2026-01-25 11:25:12.92	261.56	27.21	-43.4	-49.2	8.8	2.84e-02	0	61	0	572522496	57	7377
2026-01-25 11:25:16.96	262.83	27.28	-43.0	-48.0	9.9	8.85e-03	0	61	0	579862528	57	6477
2026-01-25 11:25:21.00	264.10	27.33	-43.0	-48.2	9.8	1.23e-02	0	61	0	587202560	57	6599
2026-01-25 11:25:25.04	265.38	27.38	-43.0	-48.2	9.7	8.26e-03	0	61	0	595591168	57	6623
2026-01-25 11:25:29.08	266.66	27.40	-42.7	-47.3	10.7	2.41e-03	0	61	0	602931200	57	5983
2026-01-25 11:25:33.12	267.94	27.41	-42.6	-47.1	10.9	1.91e-03	0	61	0	610271232	57	5842
2026-01-25 11:25:37.16	269.22	27.41	-43.0	-48.3	9.7	1.09e-02	0	61	0	617611264	57	6659
2026-01-25 11:25:41.20	270.50	27.39	-43.2	-48.6	9.4	1.51e-02	0	61	0	624951296	57	6910
2026-01-25 11:25:45.23	271.78	27.35	-42.6	-47.2	10.8	3.47e-03	0	61	0	633339904	57	5883
2026-01-25 11:25:49.27	273.05	27.30	-42.2	-46.2	11.8	4.33e-04	0	61	0	640679936	56	5542
2026-01-25 11:25:53.31	274.32	27.24	-42.1	-46.1	11.8	3.95e-04	0	61	0	648019968	55	5838
2026-01-25 11:25:57.35	275.59	27.16	-42.7	-47.4	10.4	4.51e-03	0	61	0	655360000	55	6777
2026-01-25 11:26:01.38	276.84	27.06	-42.2	-46.4	11.5	8.11e-04	0	61	0	662700032	55	6041
2026-01-25 11:26:05.42	278.09	26.96	-42.0	-45.9	11.9	4.10e-04	0	61	0	671088640	55	5722
2026-01-25 11:26:09.46	279.33	26.83	-41.9	-45.8	12.1	2.05e-04	0	61	0	678428672	55	5637
2026-01-25 11:26:13.50	280.56	26.70	-41.8	-45.5	12.4	2.27e-04	0	61	0	685768704	55	5436
2026-01-25 11:26:17.53	281.78	26.55	-41.4	-44.9	13.1	4.11e-05	0	61	0	693108736	54	5358
2026-01-25 11:26:21.58	282.99	26.39	-42.2	-46.4	11.5	9.19e-04	0	61	0	701497344	55	6026
2026-01-25 11:26:25.62	284.18	26.22	-41.7	-45.3	12.6	1.71e-04	0	61	0	708837376	55	5329
2026-01-25 11:26:29.66	285.36	26.03	-40.8	-43.7	14.2	0.00e+00	0	61	0	716177408	53	4969
2026-01-25 11:26:33.69	286.53	25.84	-40.7	-43.7	14.2	1.50e-06	0	61	0	723517440	52	5232
2026-01-25 11:26:37.73	287.68	25.63	-40.9	-43.9	14.0	6.80e-06	0	61	0	730857472	53	5086
2026-01-25 11:26:41.77	288.82	25.42	-40.5	-43.4	14.4	0.00e+00	0	61	0	739246080	52	5049
2026-01-25 11:26:45.81	289.94	25.19	-40.0	-42.5	15.4	0.00e+00	0	61	0	746586112	52	4571
2026-01-25 11:26:49.85	291.05	24.96	-40.1	-42.6	15.4	0.00e+00	0	61	0	753926144	51	4896
2026-01-25 11:26:53.88	292.14	24.71	-40.5	-43.3	14.6	1.50e-06	0	61	0	761266176	52	5031
2026-01-25 11:26:57.92	293.21	24.46	-40.2	-42.9	15.0	0.00e+00	0	61	0	769654784	52	4779
2026-01-25 11:27:01.96	294.27	24.20	-40.1	-42.7	15.2	0.00e+00	0	61	0	776994816	52	4660
2026-01-25 11:27:06.00	295.31	23.93	-40.2	-42.8	15.1	0.00e+00	0	61	0	784334848	52	4744
2026-01-25 11:27:10.03	296.33	23.66	-40.4	-43.3	14.6	7.00e-07	0	61	0	791674880	52	4985
2026-01-25 11:27:14.07	297.33	23.38	-40.7	-43.7	14.2	7.00e-07	0	61	0	799014912	52	5243
2026-01-25 11:27:18.11	298.31	23.10	-40.5	-43.3	14.5	7.00e-07	0	61	0	807403520	52	5037
2026-01-25 11:27:22.15	299.28	22.81	-41.4	-44.9	12.9	4.57e-05	0	61	0	814743552	53	5662
2026-01-25 11:27:26.18	300.23	22.51	-40.9	-44.0	13.9	6.10e-06	0	61	0	822083584	53	5104
2026-01-25 11:27:30.22	301.16	22.21	-41.1	-44.4	13.4	1.83e-05	0	61	0	829423616	53	5364
2026-01-25 11:27:34.26	302.08	21.91	-40.5	-43.3	14.5	2.20e-06	0	61	0	837812224	53	4753
2026-01-25 11:27:38.30	302.98	21.60	-40.9	-44.0	13.8	2.20e-06	0	61	0	845152256	52	5436
2026-01-25 11:27:42.34	303.86	21.29	-41.1	-44.4	13.4	2.74e-05	0	61	0	852492288	53	5361
2026-01-25 11:27:46.37	304.72	20.98	-41.3	-44.8	13.1	3.43e-05	0	61	0	859832320	53	5594
2026-01-25 11:27:50.41	305.56	20.66	-40.9	-44.1	13.7	1.14e-05	0	61	0	867172352	53	5171
2026-01-25 11:27:54.45	306.39	20.35	-41.7	-45.5	12.3	2.17e-04	0	61	0	875560960	53	6095
2026-01-25 11:27:58.49	307.21	20.03	-41.3	-44.8	12.9	4.34e-05	0	61	0	882900992	54	5285
2026-01-25 11:28:02.52	308.00	19.71	-40.8	-43.9	13.9	7.00e-07	0	61	0	890241024	53	5072
2026-01-25 11:28:06.56	308.78	19.39	-41.6	-45.4	12.3	2.17e-04	0	62	0	897581056	53	6054
2026-01-25 11:28:10.60	309.54	19.07	-41.3	-44.9	12.9	3.73e-05	0	61	0	905969664	53	5674
2026-01-25 11:28:14.64	310.29	18.74	-41.4	-44.9	12.8	9.07e-05	0	62	0	913309696	53	5710
2026-01-25 11:28:18.68	311.03	18.42	-40.9	-44.1	13.6	9.90e-06	0	61	0	920649728	53	5180
2026-01-25 11:28:22.71	311.74	18.10	-41.1	-44.6	13.1	2.59e-05	0	61	0	927989760	53	5468
2026-01-25 11:28:26.75	312.44	17.77	-41.0	-44.2	13.4	1.98e-05	0	61	0	935329792	53	5272
2026-01-25 11:28:30.78	313.13	17.45	-40.7	-43.8	13.9	3.00e-06	0	61	0	943718400	53	4996
2026-01-25 11:28:34.82	313.81	17.13	-41.4	-45.0	12.6	8.23e-05	0	61	0	951058432	53	5773
2026-01-25 11:28:38.86	314.47	16.81	-41.1	-44.4	13.2	3.35e-05	0	62	0	958398464	53	5383
2026-01-25 11:28:42.90	315.11	16.49	-40.9	-44.2	13.4	1.67e-05	0	62	0	965738496	53	5250
2026-01-25 11:28:46.93	315.75	16.17	-41.0	-44.4	13.2	2.89e-05	0	61	0	974127104	53	5390
2026-01-25 11:28:50.97	316.37	15.85	-40.7	-43.8	13.7	7.60e-06	0	62	0	981467136	53	5040
2026-01-25 11:28:55.01	316.98	15.53	-41.5	-45.3	12.2	1.59e-04	0	61	0	988807168	53	5982
2026-01-25 11:28:59.05	317.57	15.21	-41.9	-46.3	11.2	2.02e-03	0	61	0	996147200	54	6321
2026-01-25 11:29:03.09	318.15	14.90	-41.7	-45.7	11.8	6.06e-04	0	61	0	1003487232	54	5897
2026-01-25 11:29:07.13	318.73	14.58	-41.2	-44.8	12.8	8.54e-05	0	61	0	1011875840	54	5302
2026-01-25 11:29:11.16	319.29	14.27	-40.8	-44.1	13.4	1.37e-05	0	61	0	1019215872	53	5171
2026-01-25 11:29:15.20	319.83	13.96	-40.7	-43.9	13.6	6.80e-06	0	61	0	1026555904	53	5080
2026-01-25 11:29:19.24	320.37	13.65	-41.2	-44.8	12.6	9.15e-05	0	61	0	1033895936	53	5649
2026-01-25 11:29:23.28	320.90	13.35	-41.7	-45.8	11.6	5.74e-04	0	61	0	1042284544	53	6342
2026-01-25 11:29:27.32	321.42	13.04	-41.7	-46.0	11.4	9.36e-04	0	61	0	1049624576	54	6093
2026-01-25 11:29:31.36	321.92	12.74	-41.3	-45.1	12.3	2.40e-04	0	61	0	1056964608	54	5487
2026-01-25 11:29:35.40	322.42	12.43	-41.4	-45.2	12.2	2.51e-04	0	61	0	1064304640	54	5589
2026-01-25 11:29:39.43	322.91	12.14	-41.4	-45.3	12.1	2.89e-04	0	61	0	1071644672	54	5611
2026-01-25 11:29:43.47	323.38	11.84	-41.5	-45.5	11.9	3.23e-04	0	62	0	1080033280	54	5723
2026-01-25 11:29:47.51	323.85	11.54	-41.4	-45.2	12.1	3.44e-04	0	61	0	1087373312	54	5590
2026-01-25 11:29:51.55	324.31	11.25	-41.7	-46.0	11.2	1.25e-03	0	61	0	1094713344	54	6111
2026-01-25 11:29:55.58	324.76	10.96	-42.0	-46.7	10.6	3.06e-03	0	61	0	1102053376	54	6587
2026-01-25 11:29:59.62	325.20	10.66	-42.2	-47.3	9.8	1.03e-02	0	61	0	1110441984	55	6710
2026-01-25 11:30:03.66	325.64	10.38	-42.1	-47.2	10.0	7.72e-03	0	61	0	1117782016	55	6589
2026-01-25 11:30:07.70	326.06	10.09	-41.9	-46.6	10.5	4.82e-03	0	62	0	1125122048	55	6175
2026-01-25 11:30:11.75	326.48	9.81	-41.8	-46.3	10.8	2.66e-03	0	61	0	1132462080	55	5983
2026-01-25 11:30:15.79	326.89	9.52	-41.6	-46.0	11.1	1.64e-03	0	62	0	1139802112	55	5759
2026-01-25 11:30:19.83	327.29	9.24	-41.5	-45.8	11.3	1.22e-03	0	62	0	1148190720	54	5956
2026-01-25 11:30:23.87	327.69	8.96	-41.4	-45.6	11.5	7.26e-04	0	61	0	1155530752	54	5817
2026-01-25 11:30:27.90	328.08	8.69	-41.6	-46.1	11.0	1.82e-03	0	62	0	1162870784	54	6164
2026-01-25 11:30:31.94	328.46	8.41	-42.0	-47.1	9.9	8.81e-03	0	62	0	1170210816	54	6909
2026-01-25 11:30:35.98	328.83	8.14	-42.2	-47.8	9.1	1.76e-02	0	62	0	1178599424	54	7465
2026-01-25 11:30:40.02	329.20	7.87	-44.5	-58.9	3.8	1.49e+00	0	62	104	1182793728	59	20193
2026-01-25 11:30:44.06	329.56	7.60	-45.1	-59.7	3.8	1.49e+00	0	62	104	1182793728	60	20940
2026-01-25 11:30:48.10	329.92	7.34	-45.0	-59.8	3.8	1.49e+00	0	62	104	1182793728	60	21041
2026-01-25 11:30:52.14	330.27	7.07	-45.1	-59.7	3.8	1.49e+00	0	62	104	1182793728	60	20910
2026-01-25 11:30:56.18	330.61	6.81	-45.0	-59.6	3.8	1.49e+00	0	62	104	1182793728	60	20682
2026-01-25 11:31:00.21	330.95	6.55	-45.0	-59.6	3.8	1.49e+00	0	62	104	1182793728	60	20733
2026-01-25 11:31:04.24	331.28	6.29	-45.0	-59.6	3.8	1.49e+00	0	62	104	1182793728	60	20633
2026-01-25 11:31:08.29	331.61	6.03	-44.9	-59.6	3.8	1.49e+00	0	62	104	1182793728	60	20666
2026-01-25 11:31:12.33	331.93	5.78	-45.0	-59.6	3.8	1.49e+00	0	62	104	1182793728	60	20622
2026-01-25 11:31:16.37	332.24	5.52	-45.0	-59.6	3.8	1.49e+00	0	61	104	1182793728	60	20666
2026-01-25 11:31:20.41	332.55	5.27	-45.0	-59.6	3.8	1.49e+00	0	62	104	1182793728	60	20649
2026-01-25 11:31:24.45	332.86	5.02	-45.0	-59.6	3.8	1.49e+00	0	62	104	1182793728	60	20587
2026-01-25 11:31:28.49	333.16	4.77	-44.9	-59.5	3.8	1.49e+00	0	62	104	1182793728	60	20512
2026-01-25 11:31:32.53	333.46	4.53	-44.9	-59.5	3.8	1.49e+00	0	62	104	1182793728	60	20483
2026-01-25 11:31:36.57	333.75	4.28	-44.8	-59.5	3.8	1.49e+00	0	62	104	1182793728	60	20428
2026-01-25 11:31:40.62	334.04	4.04	-44.5	-59.2	3.8	1.49e+00	0	62	104	1182793728	59	20981
2026-01-25 11:31:44.66	334.32	3.79	-44.9	-59.5	3.8	1.49e+00	0	62	104	1182793728	60	20399
2026-01-25 11:31:48.70	334.60	3.55	-43.6	-59.3	3.8	1.49e+00	0	62	104	1182793728	59	21247
2026-01-25 11:31:52.74	334.87	3.32	-44.9	-59.4	3.8	1.49e+00	0	62	104	1182793728	60	20251
2026-01-25 11:31:56.78	335.14	3.08	-44.8	-59.5	3.8	1.49e+00	0	62	104	1182793728	60	20329
2026-01-25 11:32:00.82	335.41	2.84	-43.9	-59.1	3.8	1.49e+00	0	62	104	1182793728	58	21768
2026-01-25 11:32:04.87	335.67	2.61	-44.9	-59.2	3.9	1.49e+00	0	62	104	1182793728	59	20990
2026-01-25 11:32:08.91	335.93	2.38	-44.9	-59.5	3.9	1.49e+00	0	62	104	1182793728	60	20321
2026-01-25 11:32:12.95	336.18	2.15	-44.8	-59.5	3.8	1.49e+00	0	62	104	1182793728	60	20358
2026-01-25 11:32:16.99	336.44	1.92	-44.8	-59.4	3.8	1.49e+00	0	62	104	1182793728	60	20290

#Closed at: 2026-01-25 11:32:18
#Recorded file [1182 MB]: D:/lorett/data/31039_260125_141857.dat