passes_logs/2026/01/25/R2.0S_Moscow/R2.0S_Moscow__20260125_003623_AQUA_rec.log

#Pass ID: 20260125_003623_AQUA
#Satellite: AQUA
#Configuration: AQUA
#almurnet v.1.7.20251203
#Start time: 2026-01-25 00:36:23

#Version: 2.2.20231116
#Station: R2.0S_Moscow
#Location: 37.707566 lon 55.798166 lat
#TLE: 1 27424U 02022A   26024.53919639  .00001970  00000+0  40397-3 0  9996
#TLE: 2 27424  98.4098 351.1277 0001915  66.8561 358.4840 14.61855303262281

#Time	Az	El	Level	Level2	SNR	BER	BlckErr	Temp	State	Recorded	gain1	gain2
2026-01-25 00:36:23.55	21.03	2.03	-43.4	-61.8	3.8	7.46e-01	0	52	0	0	58	29986
2026-01-25 00:36:26.57	21.17	2.22	-43.3	-61.6	3.8	7.46e-01	0	52	104	0	57	31038
2026-01-25 00:36:29.60	21.31	2.41	-43.3	-61.8	3.8	7.43e-01	0	53	104	0	57	31809
2026-01-25 00:36:32.64	21.45	2.61	-43.3	-61.9	3.8	7.46e-01	0	53	104	0	57	32173
2026-01-25 00:36:35.67	21.59	2.80	-43.3	-62.1	3.8	7.45e-01	0	53	104	0	57	32698
2026-01-25 00:36:38.70	21.74	3.00	-43.3	-62.1	3.8	7.47e-01	0	53	104	0	57	32606
2026-01-25 00:36:41.73	21.89	3.20	-43.3	-62.0	3.8	7.43e-01	0	54	104	0	57	32267
2026-01-25 00:36:44.77	22.04	3.40	-43.3	-61.8	3.8	7.44e-01	0	53	104	0	57	31713
2026-01-25 00:36:47.80	22.19	3.60	-43.3	-61.6	3.8	7.45e-01	0	54	104	0	57	30745
2026-01-25 00:36:50.83	22.34	3.80	-43.3	-61.3	3.8	7.44e-01	0	54	104	0	57	29715
2026-01-25 00:36:53.86	22.50	4.01	-43.3	-61.2	3.8	7.43e-01	0	54	104	0	57	29668
2026-01-25 00:36:56.89	22.66	4.21	-43.3	-61.3	3.8	7.41e-01	0	54	104	0	57	29939
2026-01-25 00:36:59.92	22.82	4.42	-43.3	-61.6	3.8	7.45e-01	0	55	104	0	57	30951
2026-01-25 00:37:02.96	22.98	4.63	-43.3	-61.8	3.8	7.45e-01	0	55	104	0	57	31652
2026-01-25 00:37:05.99	23.15	4.84	-43.3	-62.0	3.8	7.46e-01	0	55	104	0	57	32223
2026-01-25 00:37:09.02	23.32	5.06	-43.3	-61.9	3.8	7.47e-01	0	55	104	0	57	31873
2026-01-25 00:37:12.05	23.49	5.27	-43.3	-61.8	3.8	7.48e-01	0	55	104	0	57	31750
2026-01-25 00:37:15.08	23.66	5.49	-43.3	-61.7	3.8	7.45e-01	0	55	104	0	57	31185
2026-01-25 00:37:18.12	23.84	5.71	-43.3	-61.7	3.8	7.45e-01	0	55	104	0	57	31195
2026-01-25 00:37:21.15	24.02	5.93	-43.3	-61.8	3.8	7.45e-01	0	55	104	0	57	31640
2026-01-25 00:37:24.18	24.20	6.15	-43.3	-61.8	3.8	7.47e-01	0	56	104	0	57	31661
2026-01-25 00:37:27.21	24.38	6.38	-43.3	-61.8	3.8	7.50e-01	0	56	104	0	57	31707
2026-01-25 00:37:30.24	24.57	6.60	-43.3	-61.9	3.8	7.45e-01	0	56	104	0	57	31868
2026-01-25 00:37:33.27	24.76	6.83	-43.3	-61.9	3.8	7.45e-01	0	56	104	0	57	32138
2026-01-25 00:37:36.30	24.95	7.06	-43.3	-62.0	3.8	7.47e-01	0	56	104	0	57	32378
2026-01-25 00:37:39.33	25.15	7.29	-43.3	-61.7	3.8	7.44e-01	0	56	104	0	57	31249
2026-01-25 00:37:42.36	25.34	7.53	-43.1	-60.8	3.8	7.43e-01	0	57	104	0	57	28165
2026-01-25 00:37:45.40	25.55	7.76	-42.4	-50.3	10.5	6.16e-01	0	57	104	0	56	8903
2026-01-25 00:37:48.43	25.75	8.00	-41.3	-46.6	14.4	6.03e-01	0	57	0	5242880	54	6504
2026-01-25 00:37:51.45	25.96	8.24	-41.5	-46.5	15.0	6.02e-01	0	57	0	11010048	55	6077
2026-01-25 00:37:54.48	26.17	8.49	-42.9	-49.1	12.7	6.06e-01	0	57	0	14680064	57	7352
2026-01-25 00:37:57.51	26.39	8.73	-41.6	-45.9	15.8	6.05e-01	0	57	0	19922944	55	5722
2026-01-25 00:38:00.54	26.61	8.98	-41.6	-46.0	15.9	6.03e-01	0	57	0	25690112	55	5771
2026-01-25 00:38:03.57	26.84	9.23	-41.7	-46.0	15.9	6.04e-01	0	57	0	31457280	55	5731
2026-01-25 00:38:06.60	27.06	9.49	-41.8	-46.1	16.0	6.02e-01	0	58	0	37224448	55	5817
2026-01-25 00:38:09.63	27.30	9.74	-41.7	-45.7	16.5	6.03e-01	0	58	0	42991616	55	5555
2026-01-25 00:38:12.65	27.53	10.00	-41.7	-45.8	16.6	6.07e-01	0	58	0	48758784	55	5598
2026-01-25 00:38:15.68	27.77	10.26	-41.7	-45.7	16.6	6.03e-01	0	58	0	54001664	55	5553
2026-01-25 00:38:18.71	28.02	10.52	-41.5	-45.6	16.7	6.05e-01	0	58	0	59768832	55	5516
2026-01-25 00:38:21.74	28.27	10.79	-41.3	-45.5	17.0	6.02e-01	0	58	0	65536000	54	5763
2026-01-25 00:38:24.76	28.52	11.06	-41.0	-45.4	17.1	6.06e-01	0	58	0	71303168	53	6058
2026-01-25 00:38:27.79	28.78	11.33	-41.4	-45.5	17.2	6.05e-01	0	58	0	77070336	53	6074
2026-01-25 00:38:30.82	29.04	11.61	-41.6	-45.4	17.4	6.01e-01	0	58	0	82837504	53	6021
2026-01-25 00:38:33.85	29.31	11.88	-41.0	-45.2	17.6	6.01e-01	0	58	0	88080384	53	5890
2026-01-25 00:38:36.87	29.59	12.16	-41.6	-45.1	17.8	6.03e-01	0	58	0	93847552	53	5793
2026-01-25 00:38:39.90	29.87	12.45	-41.4	-45.1	17.8	6.04e-01	0	58	0	99614720	53	5809
2026-01-25 00:38:42.93	30.15	12.74	-41.6	-45.1	17.9	6.03e-01	0	58	0	105381888	53	5791
2026-01-25 00:38:45.96	30.44	13.03	-41.6	-45.1	17.9	6.02e-01	0	58	0	111149056	53	5826
2026-01-25 00:38:48.99	30.74	13.32	-41.7	-45.1	17.9	6.04e-01	0	59	0	116391936	53	5834
2026-01-25 00:38:52.02	31.05	13.62	-41.6	-44.9	18.1	6.03e-01	0	59	0	122159104	53	5690
2026-01-25 00:38:55.04	31.35	13.92	-41.4	-44.7	18.3	6.01e-01	0	59	0	127926272	53	5556
2026-01-25 00:38:58.07	31.67	14.22	-41.5	-44.8	18.2	6.04e-01	0	59	0	133693440	53	5615
2026-01-25 00:39:01.10	31.99	14.53	-41.5	-44.8	18.3	6.04e-01	0	59	0	139460608	53	5599
2026-01-25 00:39:04.13	32.32	14.84	-41.5	-44.7	18.4	6.03e-01	0	59	0	145227776	53	5545
2026-01-25 00:39:07.16	32.66	15.16	-41.5	-44.7	18.4	6.01e-01	0	59	0	150994944	53	5552
2026-01-25 00:39:10.19	33.01	15.47	-41.5	-44.7	18.4	6.02e-01	0	59	0	156237824	53	5557
2026-01-25 00:39:13.22	33.36	15.80	-41.4	-44.6	18.6	6.02e-01	0	59	0	162004992	53	5501
2026-01-25 00:39:16.25	33.72	16.12	-41.5	-44.6	18.6	6.03e-01	0	59	0	167772160	53	5511
2026-01-25 00:39:19.27	34.09	16.45	-41.4	-44.6	18.7	6.03e-01	0	59	0	173539328	53	5475
2026-01-25 00:39:22.31	34.47	16.79	-41.4	-44.5	18.7	6.06e-01	0	59	0	179306496	53	5451
2026-01-25 00:39:25.33	34.85	17.12	-41.5	-44.6	18.7	6.02e-01	0	59	0	184549376	53	5487
2026-01-25 00:39:28.36	35.25	17.47	-41.4	-44.5	18.8	6.04e-01	0	59	0	190316544	53	5427
2026-01-25 00:39:31.39	35.65	17.81	-41.4	-44.5	18.8	6.02e-01	0	59	0	196083712	53	5444
2026-01-25 00:39:34.42	36.06	18.16	-41.5	-44.6	18.7	6.02e-01	0	59	0	201850880	53	5522
2026-01-25 00:39:37.45	36.49	18.52	-41.5	-44.6	18.7	6.02e-01	0	59	0	207618048	53	5525
2026-01-25 00:39:40.48	36.92	18.88	-41.5	-44.6	18.7	6.02e-01	0	59	0	213385216	53	5500
2026-01-25 00:39:43.51	37.37	19.24	-41.5	-44.7	18.7	6.02e-01	0	60	0	219152384	53	5538
2026-01-25 00:39:46.53	37.82	19.60	-41.5	-44.6	18.7	6.02e-01	0	59	0	224395264	53	5516
2026-01-25 00:39:49.56	38.29	19.98	-41.6	-44.7	18.8	6.05e-01	0	59	0	230162432	53	5543
2026-01-25 00:39:52.59	38.77	20.35	-41.6	-44.7	18.8	6.03e-01	0	59	0	235929600	53	5546
2026-01-25 00:39:55.62	39.26	20.73	-41.6	-44.8	18.7	6.03e-01	0	60	0	241696768	53	5601
2026-01-25 00:39:58.65	39.76	21.12	-41.7	-44.8	18.7	6.05e-01	0	60	0	247463936	54	5286
2026-01-25 00:40:01.67	40.28	21.50	-41.7	-44.8	18.7	6.03e-01	0	60	0	252706816	54	5281
2026-01-25 00:40:04.70	40.81	21.90	-41.6	-44.6	18.9	6.03e-01	0	60	0	258473984	54	5211
2026-01-25 00:40:07.73	41.36	22.30	-41.7	-44.7	18.8	6.03e-01	0	60	0	264241152	54	5274
2026-01-25 00:40:10.76	41.92	22.70	-41.7	-44.7	18.8	6.05e-01	0	60	0	270008320	54	5270
2026-01-25 00:40:13.79	42.49	23.10	-41.6	-44.7	18.8	6.00e-01	0	60	0	275775488	54	5261
2026-01-25 00:40:16.82	43.08	23.51	-41.7	-44.8	18.8	6.04e-01	0	60	0	281542656	54	5282
2026-01-25 00:40:19.85	43.69	23.93	-41.7	-44.7	18.8	6.02e-01	0	60	0	286785536	54	5270
2026-01-25 00:40:22.87	44.31	24.35	-41.8	-45.0	18.7	6.04e-01	0	60	0	292552704	54	5404
2026-01-25 00:40:25.90	44.95	24.77	-41.7	-44.8	18.8	6.03e-01	0	60	0	298319872	54	5317
2026-01-25 00:40:28.93	45.61	25.20	-41.7	-44.8	18.9	6.02e-01	0	60	0	304087040	54	5282
2026-01-25 00:40:31.96	46.28	25.63	-41.8	-45.0	18.6	6.04e-01	0	60	0	309854208	54	5420
2026-01-25 00:40:34.99	46.98	26.06	-41.7	-44.7	18.9	6.04e-01	0	60	0	315621376	54	5257
2026-01-25 00:40:38.01	47.69	26.49	-41.8	-44.8	18.8	6.05e-01	0	60	0	320864256	54	5330
2026-01-25 00:40:41.04	48.43	26.93	-41.8	-44.8	18.8	6.03e-01	0	60	0	326631424	54	5338
2026-01-25 00:40:44.07	49.18	27.38	-41.7	-44.8	18.9	6.02e-01	0	60	0	332398592	54	5296
2026-01-25 00:40:47.10	49.96	27.82	-41.8	-44.9	18.8	6.06e-01	0	60	0	338165760	54	5383
2026-01-25 00:40:50.13	50.76	28.27	-41.9	-45.0	18.8	6.02e-01	0	60	0	343932928	54	5411
2026-01-25 00:40:53.16	51.59	28.72	-41.8	-44.8	19.0	6.02e-01	0	60	0	349700096	54	5291
2026-01-25 00:40:56.19	52.44	29.17	-41.7	-44.8	19.0	6.03e-01	0	60	0	354942976	54	5286
2026-01-25 00:40:59.22	53.31	29.62	-41.8	-44.8	18.9	6.03e-01	0	60	0	360710144	54	5314
2026-01-25 00:41:02.25	54.21	30.08	-41.9	-45.0	18.8	6.03e-01	0	60	0	366477312	54	5425
2026-01-25 00:41:05.28	55.13	30.53	-41.9	-44.9	18.8	6.02e-01	0	60	0	372244480	54	5399
2026-01-25 00:41:08.31	56.08	30.98	-41.7	-44.6	19.2	6.04e-01	0	60	0	378011648	54	5178
2026-01-25 00:41:11.33	57.06	31.43	-41.8	-44.9	18.9	6.03e-01	0	60	0	383778816	54	5344
2026-01-25 00:41:14.36	58.07	31.88	-41.9	-44.9	18.8	6.05e-01	0	60	0	389021696	54	5399
2026-01-25 00:41:17.39	59.10	32.33	-41.9	-45.0	18.8	6.04e-01	0	60	0	394788864	54	5452
2026-01-25 00:41:20.42	60.17	32.77	-42.0	-45.1	18.7	6.03e-01	0	60	0	400556032	54	5493
2026-01-25 00:41:23.45	61.26	33.21	-42.0	-45.1	18.8	6.07e-01	0	60	0	406323200	54	5486
2026-01-25 00:41:26.48	62.39	33.65	-41.9	-44.9	19.0	6.05e-01	0	60	0	412090368	54	5363
2026-01-25 00:41:29.50	63.54	34.08	-42.0	-45.0	18.8	6.02e-01	0	61	0	417857536	54	5441
2026-01-25 00:41:32.54	64.73	34.50	-42.0	-45.1	18.8	6.07e-01	0	60	0	423100416	54	5472
2026-01-25 00:41:35.56	65.95	34.92	-42.1	-45.2	18.7	6.04e-01	0	60	0	428867584	54	5587
2026-01-25 00:41:38.59	67.20	35.33	-42.1	-45.2	18.7	6.03e-01	0	60	0	434634752	55	5270
2026-01-25 00:41:41.62	68.48	35.73	-42.3	-45.4	18.4	6.01e-01	0	60	0	440401920	55	5396
2026-01-25 00:41:44.65	69.79	36.11	-42.1	-45.2	18.7	6.04e-01	0	60	0	446169088	55	5256
2026-01-25 00:41:47.67	71.13	36.49	-42.1	-45.2	18.7	6.04e-01	0	61	0	451936256	55	5260
2026-01-25 00:41:50.70	72.51	36.85	-42.1	-45.2	18.8	6.04e-01	0	60	0	457179136	55	5228
2026-01-25 00:41:53.73	73.92	37.20	-42.4	-45.7	18.3	6.02e-01	0	61	0	462946304	55	5529
2026-01-25 00:41:56.76	75.36	37.53	-42.4	-45.7	18.2	6.01e-01	0	60	0	468713472	55	5577
2026-01-25 00:41:59.79	76.83	37.85	-42.5	-45.8	18.2	6.08e-01	0	61	0	474480640	55	5595
2026-01-25 00:42:02.82	78.32	38.15	-42.1	-45.2	18.8	6.03e-01	0	61	0	480247808	55	5243
2026-01-25 00:42:05.85	79.85	38.43	-42.2	-45.3	18.6	6.03e-01	0	61	0	485490688	55	5317
2026-01-25 00:42:08.88	81.40	38.69	-42.0	-45.0	19.0	6.01e-01	0	60	0	491257856	55	5106
2026-01-25 00:42:11.91	82.97	38.93	-42.0	-45.0	18.9	6.02e-01	0	61	0	497025024	55	5142
2026-01-25 00:42:14.94	84.57	39.14	-41.9	-44.9	19.0	6.03e-01	0	60	0	502792192	55	5074
2026-01-25 00:42:17.96	86.18	39.33	-42.1	-45.1	18.8	6.00e-01	0	61	0	508559360	55	5189
2026-01-25 00:42:20.99	87.81	39.50	-42.0	-45.0	19.0	6.02e-01	0	61	0	514326528	55	5116
2026-01-25 00:42:24.02	89.46	39.65	-42.0	-45.0	19.0	6.03e-01	0	61	0	520093696	55	5131
2026-01-25 00:42:27.05	91.13	39.77	-42.0	-45.1	18.9	6.02e-01	0	61	0	525336576	55	5166
2026-01-25 00:42:30.07	92.80	39.86	-41.9	-44.9	19.1	6.04e-01	0	60	0	531103744	55	5046
2026-01-25 00:42:33.11	94.49	39.92	-41.9	-44.8	19.2	6.01e-01	0	61	0	536870912	55	5011
2026-01-25 00:42:36.13	96.18	39.96	-42.0	-45.0	18.9	6.05e-01	0	61	0	542638080	55	5148
2026-01-25 00:42:39.16	97.87	39.98	-42.2	-45.2	18.7	6.06e-01	0	61	0	548405248	55	5276
2026-01-25 00:42:42.19	99.56	39.96	-42.1	-45.1	18.9	6.01e-01	0	61	0	553648128	55	5192
2026-01-25 00:42:45.22	101.25	39.92	-42.1	-45.1	18.9	6.03e-01	0	61	0	559415296	55	5182
2026-01-25 00:42:48.24	102.93	39.85	-42.0	-44.9	19.1	6.05e-01	0	61	0	565182464	55	5077
2026-01-25 00:42:51.27	104.61	39.75	-42.1	-45.1	18.8	6.02e-01	0	61	0	570949632	55	5215
2026-01-25 00:42:54.30	106.27	39.63	-42.1	-45.2	18.8	6.04e-01	0	61	0	576716800	55	5248
2026-01-25 00:42:57.33	107.92	39.48	-42.2	-45.3	18.7	6.04e-01	0	61	0	582483968	55	5294
2026-01-25 00:43:00.35	109.55	39.31	-42.1	-45.2	18.8	6.05e-01	0	61	0	588251136	55	5220
2026-01-25 00:43:03.38	111.17	39.11	-42.2	-45.2	18.8	6.03e-01	0	61	0	593494016	55	5263
2026-01-25 00:43:06.41	112.77	38.89	-42.1	-45.1	18.8	6.03e-01	0	61	0	599261184	55	5206
2026-01-25 00:43:09.44	114.34	38.65	-42.0	-45.1	18.9	6.06e-01	0	61	0	605028352	55	5163
2026-01-25 00:43:12.47	115.89	38.39	-41.9	-44.9	19.1	6.02e-01	0	61	0	610795520	55	5072
2026-01-25 00:43:15.50	117.41	38.11	-41.9	-44.9	19.0	6.01e-01	0	61	0	616562688	55	5069
2026-01-25 00:43:18.53	118.91	37.80	-42.2	-45.3	18.6	6.00e-01	0	61	0	621805568	55	5320
2026-01-25 00:43:21.56	120.38	37.48	-42.0	-45.0	18.9	6.05e-01	0	61	0	627572736	55	5140
2026-01-25 00:43:24.58	121.81	37.15	-41.9	-44.9	19.1	6.03e-01	0	61	0	633339904	55	5066
2026-01-25 00:43:27.61	123.22	36.80	-42.0	-45.1	18.9	6.02e-01	0	61	0	639107072	55	5160
2026-01-25 00:43:30.64	124.60	36.43	-41.9	-44.8	19.2	6.03e-01	0	61	0	644874240	55	5017
2026-01-25 00:43:33.67	125.94	36.05	-41.8	-44.7	19.3	6.02e-01	0	61	0	650641408	55	4932
2026-01-25 00:43:36.70	127.25	35.66	-41.7	-44.6	19.4	6.04e-01	0	61	0	656408576	55	4895
2026-01-25 00:43:39.73	128.54	35.26	-41.7	-44.6	19.3	6.03e-01	0	61	0	661651456	55	4895
2026-01-25 00:43:42.76	129.79	34.85	-41.6	-44.4	19.6	6.02e-01	0	61	0	667418624	55	4803
2026-01-25 00:43:45.79	131.01	34.43	-41.7	-44.5	19.5	6.03e-01	0	61	0	673185792	55	4842
2026-01-25 00:43:48.81	132.19	34.00	-41.5	-44.2	19.8	6.04e-01	0	61	0	678952960	54	4949
2026-01-25 00:43:51.84	133.34	33.57	-41.4	-44.1	19.8	6.01e-01	0	61	0	684720128	54	4925
2026-01-25 00:43:54.87	134.47	33.13	-41.3	-43.9	20.0	6.06e-01	0	61	0	689963008	54	4813
2026-01-25 00:43:57.90	135.56	32.68	-41.3	-44.0	20.0	6.04e-01	0	61	0	695730176	54	4820
2026-01-25 00:44:00.93	136.63	32.24	-41.2	-43.8	20.1	6.03e-01	0	61	0	701497344	54	4751
2026-01-25 00:44:03.96	137.66	31.79	-41.2	-43.8	20.1	6.04e-01	0	61	0	707264512	54	4731
2026-01-25 00:44:06.98	138.67	31.33	-41.3	-44.0	19.8	6.03e-01	0	61	0	713031680	54	4859
2026-01-25 00:44:10.01	139.64	30.88	-41.2	-43.8	20.1	6.03e-01	0	61	0	718798848	54	4744
2026-01-25 00:44:13.04	140.59	30.42	-41.3	-44.0	19.9	6.05e-01	0	61	0	724041728	54	4857
2026-01-25 00:44:16.07	141.52	29.97	-41.4	-44.1	19.8	6.05e-01	0	61	0	729808896	54	4910
2026-01-25 00:44:19.10	142.41	29.51	-41.5	-44.2	19.6	6.04e-01	0	61	0	735576064	54	4971
2026-01-25 00:44:22.13	143.29	29.06	-41.3	-44.0	19.8	6.03e-01	0	61	0	741343232	54	4855
2026-01-25 00:44:25.16	144.13	28.60	-41.5	-44.3	19.5	6.05e-01	0	61	0	747110400	54	5038
2026-01-25 00:44:28.19	144.96	28.15	-41.5	-44.3	19.5	6.03e-01	0	61	0	752353280	54	5029
2026-01-25 00:44:31.21	145.76	27.70	-41.6	-44.4	19.4	6.05e-01	0	61	0	758120448	54	5077
2026-01-25 00:44:34.24	146.53	27.26	-41.8	-44.7	19.1	6.03e-01	0	61	0	763887616	54	5279
2026-01-25 00:44:37.26	147.29	26.81	-41.7	-44.7	19.1	6.03e-01	0	61	0	769654784	54	5234
2026-01-25 00:44:40.29	148.02	26.37	-41.8	-44.8	19.0	6.05e-01	0	61	0	775421952	54	5309
2026-01-25 00:44:43.32	148.74	25.93	-41.8	-44.9	18.9	6.04e-01	0	61	0	781189120	54	5343
2026-01-25 00:44:46.35	149.43	25.49	-41.8	-44.9	18.9	6.04e-01	0	61	0	786956288	54	5345
2026-01-25 00:44:49.38	150.11	25.06	-41.7	-44.7	19.0	6.02e-01	0	61	0	792199168	54	5259
2026-01-25 00:44:52.41	150.76	24.63	-41.9	-45.0	18.8	6.02e-01	0	61	0	797966336	54	5411
2026-01-25 00:44:55.44	151.40	24.21	-42.0	-45.1	18.7	6.02e-01	0	61	0	803733504	54	5473
2026-01-25 00:44:58.47	152.02	23.79	-41.9	-45.1	18.6	6.04e-01	0	61	0	809500672	54	5479
2026-01-25 00:45:01.49	152.63	23.37	-42.0	-45.1	18.6	6.05e-01	0	61	0	815267840	54	5510
2026-01-25 00:45:04.52	153.22	22.96	-41.9	-45.0	18.7	6.02e-01	0	61	0	820510720	54	5415
2026-01-25 00:45:07.55	153.79	22.55	-41.9	-45.0	18.7	6.01e-01	0	61	0	826277888	54	5422
2026-01-25 00:45:10.58	154.35	22.15	-42.0	-45.2	18.5	6.01e-01	0	61	0	832045056	54	5545
2026-01-25 00:45:13.60	154.89	21.75	-41.8	-44.9	18.7	6.04e-01	0	61	0	837812224	54	5386
2026-01-25 00:45:16.63	155.42	21.35	-41.9	-45.0	18.6	6.04e-01	0	61	0	843579392	54	5425
2026-01-25 00:45:19.66	155.93	20.96	-41.8	-44.8	18.8	6.05e-01	0	61	0	849346560	54	5336
2026-01-25 00:45:22.69	156.44	20.57	-41.8	-44.9	18.8	6.01e-01	0	61	0	854589440	54	5348
2026-01-25 00:45:25.71	156.92	20.19	-41.7	-44.7	18.9	6.05e-01	0	61	0	860356608	54	5270
2026-01-25 00:45:28.74	157.40	19.82	-41.7	-44.8	18.9	6.04e-01	0	61	0	866123776	54	5283
2026-01-25 00:45:31.77	157.87	19.44	-41.6	-44.6	19.0	6.03e-01	0	61	0	871890944	54	5211
2026-01-25 00:45:34.80	158.32	19.07	-41.6	-44.7	19.0	6.03e-01	0	61	0	877658112	54	5221
2026-01-25 00:45:37.83	158.77	18.71	-41.6	-44.5	19.1	6.01e-01	0	61	0	883425280	54	5156
2026-01-25 00:45:40.85	159.20	18.35	-41.6	-44.6	19.0	6.03e-01	0	61	0	888668160	54	5181
2026-01-25 00:45:43.89	159.62	17.99	-41.6	-44.6	19.0	6.04e-01	0	61	0	894435328	54	5184
2026-01-25 00:45:46.91	160.03	17.64	-41.5	-44.5	19.0	6.01e-01	0	61	0	900202496	54	5145
2026-01-25 00:45:49.94	160.43	17.29	-41.5	-44.6	19.0	6.06e-01	0	61	0	905969664	54	5160
2026-01-25 00:45:52.97	160.83	16.95	-41.5	-44.5	19.1	6.03e-01	0	61	0	911736832	54	5126
2026-01-25 00:45:56.00	161.21	16.61	-41.4	-44.4	19.1	6.04e-01	0	61	0	917504000	54	5082
2026-01-25 00:45:59.02	161.58	16.28	-41.4	-44.3	19.2	6.04e-01	0	61	0	922746880	54	5026
2026-01-25 00:46:02.05	161.95	15.95	-41.4	-44.3	19.2	6.02e-01	0	61	0	928514048	54	5032
2026-01-25 00:46:05.08	162.31	15.62	-41.4	-44.4	19.1	6.07e-01	0	61	0	934281216	54	5051
2026-01-25 00:46:08.11	162.66	15.29	-41.4	-44.4	19.1	6.03e-01	0	61	0	940048384	54	5070
2026-01-25 00:46:11.14	163.00	14.97	-41.5	-44.6	18.8	6.04e-01	0	61	0	945815552	54	5177
2026-01-25 00:46:14.17	163.34	14.66	-41.6	-44.7	18.6	6.04e-01	0	61	0	951582720	54	5279
2026-01-25 00:46:17.20	163.67	14.34	-41.4	-44.5	18.9	6.02e-01	0	61	0	956825600	54	5120
2026-01-25 00:46:20.23	163.99	14.04	-41.4	-44.5	18.8	6.04e-01	0	61	0	962592768	54	5136
2026-01-25 00:46:23.26	164.30	13.73	-41.4	-44.5	18.8	6.02e-01	0	61	0	968359936	54	5142
2026-01-25 00:46:26.28	164.61	13.43	-41.5	-44.7	18.6	6.02e-01	0	61	0	974127104	54	5226
2026-01-25 00:46:29.31	164.91	13.13	-41.5	-44.7	18.5	6.03e-01	0	61	0	979894272	54	5229
2026-01-25 00:46:32.34	165.21	12.84	-41.5	-44.8	18.4	6.04e-01	0	61	0	985661440	54	5294
2026-01-25 00:46:35.37	165.50	12.54	-41.5	-44.7	18.5	6.03e-01	0	61	0	990904320	54	5246
2026-01-25 00:46:38.40	165.78	12.26	-41.5	-44.8	18.4	6.03e-01	0	61	0	996671488	54	5292
2026-01-25 00:46:41.43	166.06	11.97	-41.6	-44.9	18.2	6.05e-01	0	61	0	1002438656	54	5365
2026-01-25 00:46:44.45	166.33	11.69	-41.5	-44.9	18.3	6.05e-01	0	61	0	1008205824	54	5341
2026-01-25 00:46:47.48	166.60	11.41	-41.5	-44.9	18.2	6.06e-01	0	61	0	1013972992	54	5356
2026-01-25 00:46:50.51	166.86	11.13	-41.6	-45.0	18.0	6.04e-01	0	61	0	1019740160	54	5441
2026-01-25 00:46:53.53	167.11	10.86	-41.5	-44.9	18.1	6.02e-01	0	61	0	1024983040	54	5399
2026-01-25 00:46:56.56	167.36	10.59	-41.6	-45.0	17.9	6.03e-01	0	61	0	1030750208	54	5446
2026-01-25 00:46:59.59	167.61	10.32	-41.7	-45.2	17.8	6.03e-01	0	62	0	1036517376	54	5538
2026-01-25 00:47:02.62	167.85	10.06	-41.7	-45.3	17.6	6.02e-01	0	61	0	1042284544	54	5631
2026-01-25 00:47:05.65	168.09	9.80	-41.7	-45.3	17.5	6.02e-01	0	61	0	1048051712	54	5634
2026-01-25 00:47:08.68	168.33	9.54	-41.7	-45.3	17.5	6.05e-01	0	61	0	1053294592	54	5604
2026-01-25 00:47:11.71	168.56	9.28	-41.7	-45.4	17.3	6.04e-01	0	61	0	1059061760	54	5713
2026-01-25 00:47:14.74	168.78	9.03	-41.8	-45.5	17.3	6.06e-01	0	61	0	1064828928	54	5745
2026-01-25 00:47:17.77	169.00	8.77	-41.9	-45.8	16.9	6.01e-01	0	61	0	1070596096	54	5978
2026-01-25 00:47:20.80	169.22	8.52	-41.8	-45.8	16.9	6.05e-01	0	61	0	1076363264	54	5940
2026-01-25 00:47:23.82	169.43	8.28	-41.7	-45.5	17.1	6.02e-01	0	61	0	1082130432	54	5783
2026-01-25 00:47:26.85	169.64	8.03	-41.7	-45.6	16.9	6.05e-01	0	61	0	1087897600	54	5803
2026-01-25 00:47:29.88	169.85	7.79	-45.7	-64.3	3.9	7.46e-01	0	61	104	1089994752	62	31673
2026-01-25 00:47:32.91	170.05	7.55	-46.1	-64.7	3.8	7.46e-01	0	61	104	1089994752	62	32943
2026-01-25 00:47:35.94	170.25	7.32	-46.3	-64.8	3.8	7.42e-01	0	61	104	1089994752	63	31614
2026-01-25 00:47:38.98	170.45	7.08	-46.3	-64.8	3.8	7.44e-01	0	61	104	1089994752	63	31698
2026-01-25 00:47:42.01	170.64	6.85	-46.3	-64.8	3.8	7.41e-01	0	61	104	1089994752	63	31529
2026-01-25 00:47:45.04	170.83	6.61	-46.2	-64.7	3.8	7.50e-01	0	62	104	1089994752	63	31273
2026-01-25 00:47:48.07	171.02	6.39	-46.2	-64.7	3.8	7.42e-01	0	61	104	1089994752	63	31196
2026-01-25 00:47:51.10	171.20	6.16	-46.2	-64.7	3.8	7.45e-01	0	62	104	1089994752	63	31309
2026-01-25 00:47:54.13	171.38	5.93	-46.2	-64.7	3.8	7.47e-01	0	61	104	1089994752	63	31213
2026-01-25 00:47:57.16	171.56	5.71	-46.2	-64.6	3.8	7.43e-01	0	61	104	1089994752	63	31075
2026-01-25 00:48:00.19	171.73	5.49	-46.2	-64.6	3.8	7.45e-01	0	61	104	1089994752	63	31023
2026-01-25 00:48:03.22	171.91	5.27	-46.1	-64.6	3.8	7.42e-01	0	61	104	1089994752	63	31016
2026-01-25 00:48:06.26	172.08	5.05	-46.1	-64.6	3.8	7.40e-01	0	62	104	1089994752	63	31003
2026-01-25 00:48:09.29	172.24	4.84	-46.1	-64.6	3.8	7.43e-01	0	62	104	1089994752	63	30941
2026-01-25 00:48:12.32	172.41	4.62	-46.1	-64.6	3.8	7.44e-01	0	61	104	1089994752	63	30960
2026-01-25 00:48:15.35	172.57	4.41	-46.1	-64.6	3.8	7.43e-01	0	61	104	1089994752	63	30976
2026-01-25 00:48:18.38	172.73	4.20	-46.1	-64.6	3.8	7.47e-01	0	62	104	1089994752	63	30947
2026-01-25 00:48:21.41	172.89	3.99	-46.1	-64.6	3.8	7.45e-01	0	61	104	1089994752	63	30996
2026-01-25 00:48:24.45	173.04	3.78	-46.1	-64.6	3.8	7.48e-01	0	62	104	1089994752	63	30872
2026-01-25 00:48:27.48	173.20	3.58	-46.1	-64.6	3.8	7.44e-01	0	61	104	1089994752	63	30845
2026-01-25 00:48:30.51	173.35	3.37	-46.1	-64.6	3.8	7.44e-01	0	62	104	1089994752	63	30794
2026-01-25 00:48:33.55	173.50	3.17	-46.1	-64.6	3.8	7.45e-01	0	62	104	1089994752	63	30773
2026-01-25 00:48:36.58	173.64	2.97	-46.1	-64.6	3.8	7.49e-01	0	62	104	1089994752	63	30760
2026-01-25 00:48:39.61	173.79	2.77	-46.1	-64.6	3.8	7.45e-01	0	62	104	1089994752	63	30760
2026-01-25 00:48:42.64	173.93	2.57	-46.1	-64.5	3.8	7.43e-01	0	62	104	1089994752	63	30721
2026-01-25 00:48:45.67	174.07	2.37	-46.1	-64.5	3.8	7.46e-01	0	62	104	1089994752	63	30725
2026-01-25 00:48:48.71	174.21	2.18	-46.1	-64.6	3.8	7.47e-01	0	62	104	1089994752	63	30767
2026-01-25 00:48:51.74	174.34	1.98	-46.1	-64.5	3.8	7.43e-01	0	62	104	1089994752	63	30685

#Closed at: 2026-01-25 00:48:53
#Recorded file [1089 MB]: D:/lorett/data/31039_260125_033623.dat