passes_logs/2026/01/25/R2.0S_Moscow/R2.0S_Moscow__20260125_095813_NOAA_20_JPSS-1_rec.log

#Pass ID: 20260125_095813_NOAA 20 (JPSS-1)
#Satellite: NOAA 20 (JPSS-1)
#Configuration: NOAA 20
#almurnet v.1.7.20251203
#Start time: 2026-01-25 09:58:15

#Version: 2.2.20231116
#Station: R2.0S_Moscow
#Location: 37.707566 lon 55.798166 lat
#TLE: 1 43013U 17073A   26024.42258823  .00000183  00000+0  10747-3 0  9990
#TLE: 2 43013  98.7646 325.2629 0001105  25.8644 334.2587 14.19539754424075

#Time	Az	El	Level	Level2	SNR	BER	BlckErr	Temp	State	Recorded	gain1	gain2
2026-01-25 09:58:15.96	161.97	2.13	-44.0	-58.5	3.8	1.49e+00	0	53	0	0	59	19255
2026-01-25 09:58:19.99	161.98	2.39	-43.9	-58.5	3.8	1.49e+00	0	54	104	0	59	19278
2026-01-25 09:58:24.03	162.00	2.66	-43.9	-58.4	3.8	1.49e+00	0	54	104	0	59	19159
2026-01-25 09:58:28.07	162.02	2.93	-43.9	-58.4	3.8	1.49e+00	0	54	104	0	59	19117
2026-01-25 09:58:32.11	162.04	3.20	-43.9	-58.4	3.8	1.49e+00	0	55	104	0	59	19082
2026-01-25 09:58:36.16	162.06	3.47	-43.9	-58.4	3.8	1.49e+00	0	55	104	0	59	19050
2026-01-25 09:58:40.20	162.08	3.74	-43.9	-58.2	3.8	1.49e+00	0	55	104	0	59	18703
2026-01-25 09:58:44.24	162.10	4.02	-43.8	-58.2	3.8	1.49e+00	0	56	104	0	59	18579
2026-01-25 09:58:48.29	162.12	4.30	-43.9	-58.3	3.8	1.49e+00	0	56	104	0	59	18733
2026-01-25 09:58:52.33	162.14	4.59	-43.9	-58.3	3.8	1.49e+00	0	56	104	0	59	18907
2026-01-25 09:58:56.37	162.16	4.88	-43.9	-58.3	3.8	1.49e+00	0	56	104	0	59	18904
2026-01-25 09:59:00.41	162.18	5.17	-43.9	-58.2	3.8	1.49e+00	0	56	104	0	59	18653
2026-01-25 09:59:04.45	162.20	5.46	-43.8	-57.7	3.8	1.49e+00	0	56	104	0	59	17537
2026-01-25 09:59:08.49	162.22	5.76	-43.7	-56.5	3.8	1.49e+00	0	56	104	0	59	15288
2026-01-25 09:59:12.54	162.24	6.06	-43.7	-55.5	4.1	1.47e+00	0	57	0	0	59	13629
2026-01-25 09:59:16.58	162.26	6.36	-43.6	-55.3	4.1	1.41e+00	0	57	0	0	59	13278
2026-01-25 09:59:20.62	162.28	6.67	-43.7	-56.6	3.8	1.49e+00	0	57	104	0	59	15410
2026-01-25 09:59:24.66	162.30	6.98	-43.8	-57.6	3.8	1.49e+00	0	57	104	0	59	17464
2026-01-25 09:59:28.71	162.32	7.30	-43.6	-55.0	4.1	1.43e+00	0	58	0	0	59	12816
2026-01-25 09:59:32.75	162.35	7.61	-43.2	-51.4	6.0	4.13e-01	0	58	0	5242880	58	9003
2026-01-25 09:59:36.79	162.37	7.94	-42.7	-49.2	7.8	1.02e-01	0	58	0	13631488	57	7455
2026-01-25 09:59:40.83	162.39	8.26	-42.9	-49.3	8.1	8.17e-01	0	58	0	17825792	57	7543
2026-01-25 09:59:44.87	162.41	8.60	-42.7	-48.8	8.5	4.43e-02	0	58	0	23068672	57	7047
2026-01-25 09:59:48.91	162.44	8.93	-42.7	-48.6	8.7	3.46e-02	0	58	0	30408704	57	6917
2026-01-25 09:59:52.95	162.46	9.27	-42.6	-48.4	9.0	2.97e-02	0	58	0	37748736	57	6724
2026-01-25 09:59:56.99	162.48	9.62	-42.6	-48.1	9.3	2.13e-02	0	58	0	46137344	57	6522
2026-01-25 10:00:01.03	162.51	9.97	-42.6	-48.0	9.5	1.52e-02	0	58	0	53477376	57	6447
2026-01-25 10:00:05.07	162.53	10.32	-42.6	-48.0	9.5	1.35e-02	0	59	0	60817408	57	6445
2026-01-25 10:00:09.11	162.56	10.68	-42.6	-48.0	9.6	1.26e-02	0	59	0	68157440	57	6442
2026-01-25 10:00:13.15	162.58	11.05	-42.6	-47.8	9.8	9.90e-03	0	59	0	76546048	56	6711
2026-01-25 10:00:17.19	162.61	11.42	-42.6	-47.7	10.0	7.92e-03	0	59	0	83886080	56	6610
2026-01-25 10:00:21.23	162.63	11.80	-42.6	-47.6	10.1	6.42e-03	0	59	0	91226112	56	6537
2026-01-25 10:00:25.26	162.66	12.18	-42.6	-47.7	10.0	7.50e-03	0	59	0	98566144	56	6625
2026-01-25 10:00:29.30	162.68	12.57	-42.6	-47.5	10.3	4.54e-03	0	59	0	105906176	56	6424
2026-01-25 10:00:33.34	162.71	12.96	-42.5	-47.3	10.5	3.86e-03	0	59	0	114294784	56	6323
2026-01-25 10:00:37.37	162.74	13.37	-42.5	-47.2	10.6	3.76e-03	0	60	0	121634816	56	6270
2026-01-25 10:00:41.41	162.76	13.77	-42.5	-47.2	10.7	2.93e-03	0	59	0	128974848	56	6209
2026-01-25 10:00:45.44	162.79	14.19	-42.5	-47.0	10.9	2.29e-03	0	60	0	136314880	56	6123
2026-01-25 10:00:49.48	162.82	14.61	-42.4	-47.0	10.9	2.23e-03	0	60	0	144703488	56	6076
2026-01-25 10:00:53.52	162.85	15.04	-42.4	-46.8	11.1	1.64e-03	0	60	0	152043520	56	5982
2026-01-25 10:00:57.55	162.88	15.48	-42.4	-46.8	11.2	1.37e-03	0	60	0	159383552	56	5948
2026-01-25 10:01:01.59	162.91	15.93	-42.3	-46.6	11.4	1.04e-03	0	60	0	166723584	56	5833
2026-01-25 10:01:05.62	162.94	16.38	-42.3	-46.5	11.5	8.93e-04	0	60	0	174063616	56	5757
2026-01-25 10:01:09.66	162.97	16.84	-42.2	-46.4	11.6	6.75e-04	0	60	0	182452224	56	5693
2026-01-25 10:01:13.70	163.00	17.31	-42.1	-46.2	11.8	4.92e-04	0	60	0	189792256	56	5549
2026-01-25 10:01:17.74	163.04	17.80	-42.0	-46.0	12.0	2.97e-04	0	60	0	197132288	56	5423
2026-01-25 10:01:21.78	163.07	18.29	-41.8	-45.7	12.1	2.41e-04	0	60	0	204472320	55	5589
2026-01-25 10:01:25.81	163.10	18.79	-41.7	-45.5	12.4	1.72e-04	0	60	0	212860928	55	5445
2026-01-25 10:01:29.85	163.14	19.30	-41.6	-45.3	12.6	9.91e-05	0	60	0	220200960	55	5314
2026-01-25 10:01:33.89	163.17	19.82	-41.6	-45.2	12.7	7.93e-05	0	60	0	227540992	55	5244
2026-01-25 10:01:37.93	163.21	20.35	-41.6	-45.3	12.6	9.68e-05	0	60	0	234881024	55	5305
2026-01-25 10:01:41.97	163.25	20.90	-41.6	-45.1	12.8	7.40e-05	0	60	0	242221056	55	5209
2026-01-25 10:01:46.01	163.28	21.46	-41.6	-45.2	12.7	8.85e-05	0	60	0	250609664	55	5255
2026-01-25 10:01:50.05	163.32	22.03	-41.6	-45.2	12.7	5.72e-05	0	61	0	257949696	55	5251
2026-01-25 10:01:54.09	163.36	22.61	-41.6	-45.2	12.7	6.94e-05	0	60	0	265289728	55	5259
2026-01-25 10:01:58.12	163.41	23.20	-41.7	-45.3	12.6	6.94e-05	0	61	0	272629760	55	5333
2026-01-25 10:02:02.16	163.45	23.81	-41.6	-45.2	12.8	5.72e-05	0	61	0	281018368	55	5227
2026-01-25 10:02:06.20	163.49	24.44	-41.6	-45.2	12.8	4.88e-05	0	61	0	288358400	55	5229
2026-01-25 10:02:10.24	163.54	25.08	-41.6	-45.1	12.9	5.49e-05	0	61	0	295698432	55	5170
2026-01-25 10:02:14.28	163.58	25.74	-41.8	-45.5	12.5	9.30e-05	0	61	0	303038464	55	5410
2026-01-25 10:02:18.32	163.63	26.41	-41.9	-45.8	12.2	2.14e-04	0	61	0	310378496	55	5611
2026-01-25 10:02:22.36	163.68	27.10	-42.2	-46.2	11.7	3.60e-04	0	61	0	318767104	55	5911
2026-01-25 10:02:26.40	163.73	27.81	-42.4	-46.8	11.2	1.30e-03	0	61	0	326107136	55	6287
2026-01-25 10:02:30.44	163.78	28.53	-42.7	-47.4	10.5	3.89e-03	0	61	0	333447168	55	6756
2026-01-25 10:02:34.48	163.84	29.28	-43.0	-48.0	10.1	6.81e-03	0	61	0	340787200	56	6843
2026-01-25 10:02:38.52	163.89	30.04	-43.3	-48.7	9.5	1.74e-02	0	61	0	349175808	57	6979
2026-01-25 10:02:42.56	163.95	30.83	-43.4	-49.0	9.1	2.40e-02	0	61	0	356515840	57	7254
2026-01-25 10:02:46.60	164.01	31.64	-43.1	-48.3	9.8	1.29e-02	0	61	0	363855872	57	6706
2026-01-25 10:02:50.64	164.07	32.47	-42.9	-47.8	10.3	5.33e-03	0	61	0	371195904	57	6314
2026-01-25 10:02:54.67	164.14	33.33	-42.8	-47.5	10.6	3.08e-03	0	61	0	378535936	57	6097
2026-01-25 10:02:58.71	164.21	34.21	-42.5	-46.8	11.4	1.45e-03	0	61	0	386924544	57	5617
2026-01-25 10:03:02.75	164.28	35.11	-41.7	-45.2	12.9	7.17e-05	0	61	0	394264576	55	5259
2026-01-25 10:03:06.79	164.36	36.05	-41.3	-44.5	13.7	3.00e-06	0	61	0	401604608	54	5122
2026-01-25 10:03:10.82	164.44	37.00	-41.3	-44.5	13.7	6.10e-06	0	61	0	408944640	54	5112
2026-01-25 10:03:14.86	164.52	37.99	-41.2	-44.3	13.9	4.50e-06	0	61	0	417333248	54	5034
2026-01-25 10:03:18.90	164.61	39.01	-41.0	-44.1	14.1	3.80e-06	0	61	0	424673280	54	4883
2026-01-25 10:03:22.94	164.70	40.06	-41.0	-44.0	14.2	0.00e+00	0	61	0	432013312	53	5116
2026-01-25 10:03:26.97	164.80	41.14	-41.2	-44.3	13.9	3.00e-06	0	61	0	439353344	53	5298
2026-01-25 10:03:31.01	164.90	42.26	-41.0	-44.0	14.2	7.00e-07	0	61	0	446693376	53	5122
2026-01-25 10:03:35.05	165.01	43.41	-41.2	-44.3	13.9	1.50e-06	0	61	0	455081984	53	5310
2026-01-25 10:03:39.08	165.13	44.59	-42.1	-46.0	12.1	2.17e-04	0	61	0	462422016	54	6093
2026-01-25 10:03:43.12	165.26	45.81	-42.6	-47.0	11.1	1.34e-03	0	61	0	469762048	55	6467
2026-01-25 10:03:47.16	165.39	47.07	-43.0	-47.8	10.4	3.38e-03	0	61	0	477102080	56	6673
2026-01-25 10:03:51.20	165.54	48.37	-42.9	-47.5	10.7	4.28e-03	0	61	0	484442112	56	6488
2026-01-25 10:03:55.24	165.70	49.71	-42.9	-47.5	10.7	3.73e-03	0	61	0	492830720	56	6468
2026-01-25 10:03:59.28	165.87	51.09	-42.2	-46.0	12.3	5.32e-04	0	61	0	500170752	56	5426
2026-01-25 10:04:03.32	166.05	52.51	-40.8	-43.6	14.6	2.20e-06	0	61	0	507510784	53	4898
2026-01-25 10:04:07.35	166.26	53.97	-40.6	-43.3	14.9	0.00e+00	0	61	0	514850816	53	4737
2026-01-25 10:04:11.39	166.48	55.47	-41.1	-44.2	14.0	7.00e-07	0	61	0	523239424	53	5222
2026-01-25 10:04:15.43	166.73	57.02	-41.8	-45.4	12.8	6.56e-05	0	61	0	530579456	54	5694
2026-01-25 10:04:19.47	167.01	58.61	-41.9	-45.5	12.6	1.06e-04	0	61	0	537919488	54	5765
2026-01-25 10:04:23.51	167.32	60.24	-41.3	-44.3	13.9	1.06e-05	0	61	0	545259520	54	5026
2026-01-25 10:04:27.55	167.68	61.92	-40.4	-43.1	15.2	0.00e+00	0	61	0	552599552	52	4874
2026-01-25 10:04:31.59	168.08	63.63	-40.3	-42.8	15.4	0.00e+00	0	61	0	560988160	52	4752
2026-01-25 10:04:35.63	168.55	65.39	-41.9	-45.5	12.7	3.12e-05	0	61	0	568328192	54	5776
2026-01-25 10:04:39.67	169.09	67.18	-42.0	-45.7	12.4	1.52e-04	0	62	0	575668224	55	5559
2026-01-25 10:04:43.70	169.74	69.01	-42.9	-47.5	10.7	3.69e-03	0	61	0	583008256	56	6457
2026-01-25 10:04:47.74	170.51	70.88	-41.8	-45.3	12.8	8.54e-05	0	61	0	591396864	55	5325
2026-01-25 10:04:51.78	171.47	72.77	-42.8	-47.2	11.0	2.38e-03	0	61	0	598736896	56	6260
2026-01-25 10:04:55.82	172.67	74.70	-43.2	-48.2	9.9	1.19e-02	0	62	0	606076928	57	6632
2026-01-25 10:04:59.86	174.24	76.64	-42.5	-46.7	11.4	1.18e-03	0	61	0	613416960	57	5572
2026-01-25 10:05:03.90	176.35	78.60	-42.0	-45.7	12.6	1.68e-04	0	61	0	620756992	56	5229
2026-01-25 10:05:07.94	179.36	80.55	-41.2	-44.3	13.8	6.10e-06	0	62	0	629145600	54	5015
2026-01-25 10:05:11.97	183.94	82.49	-43.5	-49.4	8.6	2.48e-02	0	61	0	636485632	57	7627
2026-01-25 10:05:16.01	191.67	84.36	-42.3	-46.2	12.0	3.87e-04	0	61	0	643825664	56	5553
2026-01-25 10:05:20.05	206.47	86.04	-41.9	-45.5	12.5	9.23e-05	0	62	0	651165696	55	5459
2026-01-25 10:05:24.09	236.87	87.15	-42.5	-46.9	11.1	1.73e-03	0	61	0	659554304	55	6383
2026-01-25 10:05:28.12	278.03	86.96	-42.2	-46.1	11.9	2.95e-04	0	61	0	666894336	55	5819
2026-01-25 10:05:32.16	303.62	85.65	-42.0	-45.7	12.4	1.17e-04	0	61	0	674234368	55	5529
2026-01-25 10:05:36.19	315.99	83.90	-42.2	-46.2	11.9	1.62e-04	0	61	0	681574400	54	6248
2026-01-25 10:05:40.23	322.70	82.01	-43.2	-48.1	10.0	1.97e-02	0	61	0	688914432	57	6570
2026-01-25 10:05:44.27	326.79	80.07	-41.6	-45.0	13.2	9.53e-05	0	62	0	697303040	55	5110
2026-01-25 10:05:48.31	329.53	78.11	-42.7	-47.3	10.8	2.29e-03	0	61	0	704643072	55	6683
2026-01-25 10:05:52.34	331.47	76.16	-43.6	-49.5	8.6	5.53e-02	0	62	0	711983104	58	7209
2026-01-25 10:05:56.38	332.93	74.23	-43.5	-49.2	8.8	6.51e-02	0	62	0	719323136	58	7026
2026-01-25 10:06:00.42	334.07	72.31	-42.0	-45.7	12.4	3.58e-04	0	61	0	727711744	55	5552
2026-01-25 10:06:04.46	334.98	70.43	-42.2	-46.0	12.2	1.45e-04	0	62	0	735051776	54	6089
2026-01-25 10:06:08.50	335.72	68.58	-43.1	-47.8	10.5	1.71e-03	0	62	0	742391808	56	6703
2026-01-25 10:06:12.53	336.33	66.76	-43.2	-48.2	9.9	8.93e-03	0	61	0	749731840	57	6614
2026-01-25 10:06:16.57	336.86	64.98	-42.9	-47.3	10.9	1.34e-02	0	62	0	757071872	57	5971
2026-01-25 10:06:20.60	337.31	63.24	-40.8	-43.6	14.6	6.80e-06	0	62	0	765460480	52	5216
2026-01-25 10:06:24.64	337.70	61.54	-40.5	-43.1	15.2	0.00e+00	0	61	0	772800512	52	4881
2026-01-25 10:06:28.68	338.04	59.88	-42.9	-47.3	11.0	2.91e-03	0	62	0	780140544	56	6336
2026-01-25 10:06:32.72	338.34	58.27	-43.4	-48.6	9.7	8.91e-03	0	62	0	787480576	57	6885
2026-01-25 10:06:36.75	338.61	56.70	-42.5	-46.5	11.8	3.45e-03	0	62	0	794820608	57	5451
2026-01-25 10:06:40.79	338.86	55.17	-41.8	-45.2	13.1	4.50e-05	0	61	0	803209216	55	5246
2026-01-25 10:06:44.83	339.08	53.68	-41.8	-45.3	13.0	7.09e-05	0	62	0	810549248	55	5289
2026-01-25 10:06:48.87	339.28	52.23	-42.2	-45.9	12.3	4.34e-05	0	61	0	817889280	54	6052
2026-01-25 10:06:52.92	339.46	50.82	-43.9	-50.2	8.0	5.33e-02	0	62	0	825229312	58	7881
2026-01-25 10:06:56.95	339.63	49.46	-43.5	-48.8	9.4	1.68e-02	0	62	0	833617920	58	6695
2026-01-25 10:07:00.99	339.79	48.14	-44.4	-53.3	5.3	8.81e-01	0	62	0	840957952	60	9997
2026-01-25 10:07:05.03	339.93	46.86	-42.4	-46.4	11.9	5.70e-04	0	62	0	848297984	56	5674
2026-01-25 10:07:09.07	340.07	45.61	-43.0	-47.7	10.6	2.33e-03	0	62	0	855638016	56	6587
2026-01-25 10:07:13.11	340.19	44.40	-42.6	-46.8	11.5	1.00e-03	0	62	0	862978048	56	5947
2026-01-25 10:07:17.14	340.31	43.23	-41.4	-44.6	13.6	8.30e-06	0	62	0	871366656	54	5167
2026-01-25 10:07:21.18	340.42	42.09	-43.3	-48.4	9.8	5.21e-03	0	62	0	878706688	57	6797
2026-01-25 10:07:25.22	340.53	40.99	-42.4	-46.5	11.8	1.73e-03	0	62	0	886046720	56	5763
2026-01-25 10:07:29.26	340.62	39.92	-41.9	-45.5	12.6	8.08e-05	0	62	0	893386752	55	5458
2026-01-25 10:07:33.30	340.72	38.88	-43.6	-49.5	8.7	2.31e-02	0	62	0	901775360	57	7644
2026-01-25 10:07:37.34	340.80	37.87	-43.9	-50.7	7.5	1.40e-01	0	62	0	909115392	58	8304
2026-01-25 10:07:41.38	340.89	36.90	-42.9	-47.6	10.6	5.00e-03	0	62	0	916455424	57	6140
2026-01-25 10:07:45.41	340.97	35.95	-42.8	-47.2	10.9	2.35e-03	0	62	0	923795456	57	5907
2026-01-25 10:07:49.45	341.05	35.03	-43.4	-49.0	9.1	1.56e-02	0	62	0	931135488	57	7230
2026-01-25 10:07:53.49	341.12	34.13	-44.3	-52.6	5.7	3.83e-01	0	62	0	939524096	59	9827
2026-01-25 10:07:57.53	341.19	33.26	-44.0	-52.0	6.4	1.44e+00	0	62	104	945815552	60	8579
2026-01-25 10:08:01.57	341.26	32.41	-43.4	-49.1	8.9	2.94e-02	0	62	0	951058432	58	6900
2026-01-25 10:08:05.61	341.32	31.59	-43.4	-49.1	8.9	2.92e-02	0	62	0	958398464	58	6880
2026-01-25 10:08:09.65	341.38	30.79	-43.4	-49.1	8.8	2.90e-02	0	62	0	965738496	58	6944
2026-01-25 10:08:13.68	341.44	30.01	-43.3	-49.1	8.8	2.83e-02	0	62	0	973078528	58	6884
2026-01-25 10:08:17.72	341.50	29.25	-43.1	-48.4	9.5	1.51e-02	0	62	0	980418560	58	6383
2026-01-25 10:08:21.76	341.56	28.51	-42.8	-47.6	10.3	5.49e-03	0	62	0	988807168	57	6202
2026-01-25 10:08:25.79	341.61	27.79	-42.4	-46.7	11.2	1.70e-03	0	62	0	996147200	56	5916
2026-01-25 10:08:29.83	341.66	27.09	-41.8	-45.7	12.1	3.33e-04	0	62	0	1003487232	55	5541
2026-01-25 10:08:33.87	341.71	26.41	-41.8	-45.7	12.0	2.97e-04	0	62	0	1010827264	55	5583
2026-01-25 10:08:37.91	341.76	25.74	-41.9	-46.1	11.5	6.30e-04	0	62	0	1019215872	55	5789
2026-01-25 10:08:41.95	341.81	25.09	-41.7	-45.7	11.8	5.55e-04	0	62	0	1026555904	55	5560
2026-01-25 10:08:45.99	341.86	24.46	-41.4	-45.1	12.3	2.08e-04	0	62	0	1033895936	54	5523
2026-01-25 10:08:50.02	341.90	23.84	-41.0	-44.6	12.7	6.71e-05	0	62	0	1041235968	54	5190
2026-01-25 10:08:54.06	341.95	23.24	-40.7	-44.2	13.0	4.19e-05	0	62	0	1048576000	53	5247
2026-01-25 10:08:58.10	341.99	22.64	-40.7	-44.4	12.4	1.49e-04	0	62	0	1056964608	53	5366
2026-01-25 10:09:02.14	342.04	22.07	-40.4	-44.4	11.8	3.42e-04	0	62	0	1064304640	52	5714
2026-01-25 10:09:06.18	342.08	21.50	-40.5	-44.9	11.0	9.89e-04	0	62	0	1071644672	52	6033
2026-01-25 10:09:10.22	342.12	20.95	-41.3	-49.0	6.3	2.03e-01	0	62	0	1078984704	53	9142
2026-01-25 10:09:14.25	342.16	20.41	-41.3	-53.1	4.0	1.44e+00	0	62	0	1084227584	53	14587
2026-01-25 10:09:18.29	342.20	19.88	-41.7	-54.4	3.8	1.49e+00	0	62	104	1084227584	54	16051
2026-01-25 10:09:22.33	342.23	19.36	-41.3	-55.7	3.8	1.49e+00	0	62	104	1084227584	54	18625
2026-01-25 10:09:26.37	342.27	18.86	-40.7	-55.2	3.8	1.49e+00	0	62	104	1084227584	53	18670
2026-01-25 10:09:30.40	342.31	18.36	-40.7	-55.2	3.8	1.49e+00	0	62	104	1084227584	53	18596
2026-01-25 10:09:34.44	342.34	17.87	-40.7	-55.2	3.8	1.49e+00	0	62	104	1084227584	53	18528
2026-01-25 10:09:38.48	342.38	17.39	-40.7	-55.1	3.8	1.49e+00	0	62	104	1084227584	53	18502
2026-01-25 10:09:42.51	342.41	16.93	-40.6	-55.1	3.8	1.49e+00	0	62	104	1084227584	52	19510
2026-01-25 10:09:46.55	342.45	16.47	-40.6	-55.1	3.8	1.49e+00	0	62	104	1084227584	52	19402
2026-01-25 10:09:50.59	342.48	16.02	-40.6	-55.1	3.8	1.49e+00	0	62	104	1084227584	52	19530
2026-01-25 10:09:54.63	342.52	15.57	-40.7	-55.2	3.8	1.49e+00	0	62	104	1084227584	52	19651
2026-01-25 10:09:58.67	342.55	15.14	-40.6	-55.1	3.8	1.49e+00	0	62	104	1084227584	52	19508
2026-01-25 10:10:02.71	342.58	14.71	-40.5	-55.0	3.8	1.49e+00	0	62	104	1084227584	52	19318
2026-01-25 10:10:06.75	342.61	14.29	-40.5	-55.0	3.8	1.49e+00	0	62	104	1084227584	52	19253
2026-01-25 10:10:10.79	342.65	13.88	-40.5	-55.0	3.8	1.49e+00	0	62	104	1084227584	52	19254
2026-01-25 10:10:14.83	342.68	13.47	-40.6	-55.0	3.8	1.49e+00	0	62	104	1084227584	52	19371
2026-01-25 10:10:18.87	342.71	13.07	-40.5	-55.0	3.8	1.49e+00	0	62	104	1084227584	52	19199
2026-01-25 10:10:22.91	342.74	12.68	-40.4	-54.9	3.8	1.49e+00	0	62	104	1084227584	52	18995
2026-01-25 10:10:26.94	342.77	12.29	-40.4	-54.8	3.8	1.49e+00	0	62	104	1084227584	52	18890
2026-01-25 10:10:30.98	342.80	11.91	-40.4	-54.9	3.8	1.49e+00	0	62	104	1084227584	52	18957
2026-01-25 10:10:35.02	342.83	11.54	-40.4	-54.9	3.8	1.49e+00	0	62	104	1084227584	52	19103
2026-01-25 10:10:39.05	342.86	11.17	-40.4	-54.9	3.8	1.49e+00	0	62	104	1084227584	52	19115
2026-01-25 10:10:43.09	342.88	10.81	-40.3	-54.8	3.8	1.49e+00	0	62	104	1084227584	52	18736
2026-01-25 10:10:47.12	342.91	10.45	-40.1	-54.6	3.8	1.49e+00	0	62	104	1084227584	52	18471
2026-01-25 10:10:51.17	342.94	10.10	-40.2	-54.6	3.8	1.49e+00	0	62	104	1084227584	52	18464
2026-01-25 10:10:55.21	342.97	9.75	-40.2	-54.8	3.8	1.49e+00	0	62	104	1084227584	52	18750
2026-01-25 10:10:59.25	343.00	9.40	-40.3	-54.8	3.8	1.49e+00	0	62	104	1084227584	52	18889
2026-01-25 10:11:03.29	343.02	9.07	-40.2	-54.7	3.8	1.49e+00	0	62	104	1084227584	52	18659
2026-01-25 10:11:07.33	343.05	8.73	-40.1	-54.6	3.8	1.49e+00	0	62	104	1084227584	52	18441
2026-01-25 10:11:11.36	343.08	8.40	-40.2	-54.6	3.8	1.49e+00	0	62	104	1084227584	52	18499
2026-01-25 10:11:15.40	343.10	8.08	-40.2	-54.7	3.8	1.49e+00	0	62	104	1084227584	52	18609
2026-01-25 10:11:19.44	343.13	7.76	-43.9	-58.3	3.8	1.49e+00	0	62	104	1084227584	58	20011
2026-01-25 10:11:23.48	343.16	7.44	-45.0	-59.7	3.8	1.49e+00	0	62	104	1084227584	60	20808
2026-01-25 10:11:27.53	343.18	7.13	-45.1	-59.7	3.8	1.49e+00	0	62	104	1084227584	60	20969
2026-01-25 10:11:31.57	343.21	6.82	-45.1	-59.6	3.8	1.49e+00	0	62	104	1084227584	60	20773
2026-01-25 10:11:35.61	343.24	6.51	-45.0	-59.6	3.8	1.49e+00	0	62	104	1084227584	60	20622
2026-01-25 10:11:39.65	343.26	6.21	-45.0	-59.6	3.8	1.49e+00	0	62	104	1084227584	60	20620
2026-01-25 10:11:43.69	343.29	5.91	-45.0	-59.6	3.8	1.49e+00	0	62	104	1084227584	60	20562
2026-01-25 10:11:47.73	343.31	5.61	-45.0	-59.6	3.8	1.49e+00	0	62	104	1084227584	60	20577
2026-01-25 10:11:51.77	343.34	5.32	-45.0	-59.6	3.8	1.49e+00	0	62	104	1084227584	60	20549
2026-01-25 10:11:55.82	343.36	5.03	-45.0	-59.6	3.8	1.49e+00	0	62	104	1084227584	60	20599
2026-01-25 10:11:59.86	343.39	4.75	-44.9	-59.5	3.8	1.49e+00	0	62	104	1084227584	60	20444
2026-01-25 10:12:03.90	343.41	4.46	-44.9	-59.5	3.8	1.49e+00	0	62	104	1084227584	60	20464
2026-01-25 10:12:07.95	343.44	4.18	-44.9	-59.5	3.8	1.49e+00	0	62	104	1084227584	60	20474
2026-01-25 10:12:11.99	343.46	3.91	-44.9	-59.5	3.8	1.49e+00	0	62	104	1084227584	60	20440
2026-01-25 10:12:16.03	343.49	3.63	-44.9	-59.5	3.8	1.49e+00	0	62	104	1084227584	60	20398
2026-01-25 10:12:20.07	343.51	3.36	-44.9	-59.5	3.8	1.49e+00	0	62	104	1084227584	60	20392
2026-01-25 10:12:24.11	343.53	3.09	-44.9	-59.5	3.8	1.49e+00	0	62	104	1084227584	60	20365
2026-01-25 10:12:28.15	343.56	2.83	-44.9	-59.5	3.8	1.49e+00	0	62	104	1084227584	60	20368
2026-01-25 10:12:32.20	343.58	2.56	-44.9	-59.5	3.8	1.49e+00	0	62	104	1084227584	60	20369
2026-01-25 10:12:36.24	343.61	2.30	-44.8	-59.5	3.8	1.49e+00	0	62	104	1084227584	60	20397
2026-01-25 10:12:40.28	343.63	2.04	-44.9	-59.5	3.8	1.49e+00	0	62	104	1084227584	60	20363

#Closed at: 2026-01-25 10:12:42
#Recorded file [1084 MB]: D:/lorett/data/31039_260125_125815.dat