passes_logs/2025/01/24/Planum_Noyabrsk/Planum_Noyabrsk__20250124_173045_NOAA_18_rec.log

#Pass ID: 20250124_173045_NOAA 18
#Satellite: NOAA 18
#Configuration: NOAA 18
#Start time: 2025-01-24 17:30:50.706240

#LorettStation: 1.0.0 05.05.2024
#Station: Planum_Noyabrsk
#Location: 75.446886 lon 63.207202 lat
#TLE: 1 28654U 05018A   25023.44479656  .00000508  00000+0  29298-3 0  9991
#TLE: 2 28654  98.8554 104.4149 0014735 155.7759 204.4109 14.13495207 14379

#Time	Az	El	Level	SNR
2025-01-24 17:30:58.894039	213.5	31.2	-66.1	12.8
2025-01-24 17:31:00.037992	213.8	31.3	-65.8	13.0
2025-01-24 17:31:01.187947	214.1	31.5	-66.4	13.2
2025-01-24 17:31:02.333894	214.3	31.7	-66.4	12.6
2025-01-24 17:31:03.476850	214.6	31.8	-66.3	12.4
2025-01-24 17:31:04.620802	214.9	32.0	-66.4	12.3
2025-01-24 17:31:05.764755	215.2	32.1	-66.2	11.8
2025-01-24 17:31:06.907710	215.5	32.3	-66.6	12.6
2025-01-24 17:31:08.052661	215.8	32.5	-66.2	11.8
2025-01-24 17:31:09.198609	216.1	32.6	-66.1	11.3
2025-01-24 17:31:10.342092	216.4	32.8	-66.3	11.7
2025-01-24 17:31:11.485047	216.7	33.0	-66.2	10.8
2025-01-24 17:31:12.630995	217.0	33.1	-66.6	11.4
2025-01-24 17:31:13.778936	217.3	33.3	-66.5	10.9
2025-01-24 17:31:14.924884	217.6	33.5	-66.5	10.4
2025-01-24 17:31:16.067839	217.9	33.6	-66.6	11.3
2025-01-24 17:31:17.213788	218.2	33.8	-66.4	10.7
2025-01-24 17:31:18.357739	218.5	34.0	-66.0	10.0
2025-01-24 17:31:19.506193	218.8	34.1	-66.2	11.1
2025-01-24 17:31:20.649148	219.2	34.3	-66.6	11.9
2025-01-24 17:31:21.795097	219.5	34.4	-66.3	10.9
2025-01-24 17:31:22.939049	219.8	34.6	-66.5	10.8
2025-01-24 17:31:24.083999	220.2	34.8	-66.5	10.0
2025-01-24 17:31:25.227463	220.5	34.9	-66.1	9.3
2025-01-24 17:31:26.371925	220.8	35.1	-66.7	10.6
2025-01-24 17:31:27.517873	221.2	35.3	-66.5	10.3
2025-01-24 17:31:28.662828	221.5	35.4	-66.4	10.1
2025-01-24 17:31:29.810789	221.9	35.6	-66.6	10.9
2025-01-24 17:31:30.954741	222.2	35.7	-66.4	10.3
2025-01-24 17:31:32.101687	222.6	35.9	-66.3	10.2
2025-01-24 17:31:33.253618	223.0	36.1	-66.2	9.6
2025-01-24 17:31:34.395576	223.3	36.2	-66.6	11.1
2025-01-24 17:31:35.541523	223.7	36.4	-66.4	10.6
2025-01-24 17:31:36.686007	224.1	36.5	-66.4	11.2
2025-01-24 17:31:37.830957	224.5	36.7	-65.9	10.7
2025-01-24 17:31:38.976905	224.8	36.9	-65.7	10.2
2025-01-24 17:31:40.123850	225.2	37.0	-65.7	10.1
2025-01-24 17:31:41.270795	225.6	37.2	-65.5	8.7
2025-01-24 17:31:42.416762	226.0	37.3	-64.9	11.6
2025-01-24 17:31:43.559717	226.4	37.5	-65.9	10.6
2025-01-24 17:31:44.704667	226.8	37.6	-66.0	10.6
2025-01-24 17:31:45.850615	227.2	37.8	-66.1	10.4
2025-01-24 17:31:46.997559	227.6	38.0	-65.3	10.7
2025-01-24 17:31:48.144504	228.0	38.1	-65.7	10.8
2025-01-24 17:31:49.290960	228.4	38.3	-65.8	11.5
2025-01-24 17:31:50.435909	228.8	38.4	-67.0	13.4
2025-01-24 17:31:51.581879	229.3	38.6	-66.9	13.6
2025-01-24 17:31:52.733810	229.7	38.7	-66.1	10.6
2025-01-24 17:31:53.878760	230.1	38.9	-66.6	11.2
2025-01-24 17:31:55.028716	230.6	39.0	-65.8	11.3
2025-01-24 17:31:56.173668	231.0	39.1	-65.8	11.4
2025-01-24 17:31:57.317618	231.4	39.3	-66.0	11.4
2025-01-24 17:31:58.467555	231.9	39.4	-66.4	12.4
2025-01-24 17:31:59.615497	232.3	39.6	-65.2	10.1
2025-01-24 17:32:00.761445	232.8	39.7	-66.0	11.2
2025-01-24 17:32:01.908390	233.2	39.8	-65.4	8.6
2025-01-24 17:32:03.055334	233.7	40.0	-64.9	8.5
2025-01-24 17:32:04.207774	234.2	40.1	-66.5	10.8
2025-01-24 17:32:05.355716	234.6	40.2	-67.0	12.3
2025-01-24 17:32:06.503658	235.1	40.4	-66.5	11.5
2025-01-24 17:32:07.651600	235.6	40.5	-66.6	12.5
2025-01-24 17:32:08.798057	236.1	40.6	-66.0	11.2
2025-01-24 17:32:09.944514	236.5	40.8	-66.5	11.8
2025-01-24 17:32:11.089464	237.0	40.9	-65.5	9.6
2025-01-24 17:32:12.239401	237.5	41.0	-65.7	9.8
2025-01-24 17:32:13.386345	238.0	41.1	-65.7	11.7
2025-01-24 17:32:14.531296	238.5	41.3	-66.3	11.1
2025-01-24 17:32:15.678241	239.0	41.4	-66.7	12.9
2025-01-24 17:32:16.830171	239.5	41.5	-65.8	11.9
2025-01-24 17:32:17.977117	240.0	41.6	-65.7	10.9
2025-01-24 17:32:19.130045	240.5	41.7	-65.5	11.3
2025-01-24 17:32:20.276501	241.1	41.8	-65.8	12.8
2025-01-24 17:32:21.422449	241.6	41.9	-66.1	13.1
2025-01-24 17:32:22.576882	242.1	42.0	-66.1	13.2
2025-01-24 17:32:23.725821	242.6	42.1	-65.9	13.1
2025-01-24 17:32:24.872766	243.2	42.2	-65.6	12.1
2025-01-24 17:32:26.021705	243.7	42.3	-66.1	13.7
2025-01-24 17:32:27.174147	244.2	42.4	-65.0	12.4
2025-01-24 17:32:28.321091	244.8	42.5	-65.2	13.0
2025-01-24 17:32:29.467038	245.3	42.6	-65.7	14.4
2025-01-24 17:32:30.618970	245.9	42.7	-66.0	15.2
2025-01-24 17:32:31.767909	246.4	42.8	-66.0	15.2
2025-01-24 17:32:32.913858	246.9	42.9	-65.8	14.8
2025-01-24 17:32:34.062817	247.5	42.9	-65.9	15.9
2025-01-24 17:32:35.212754	248.1	43.0	-65.6	15.7
2025-01-24 17:32:36.359699	248.6	43.1	-65.7	15.2
2025-01-24 17:32:37.508639	249.2	43.1	-65.7	16.0
2025-01-24 17:32:38.656581	249.7	43.2	-65.8	13.7
2025-01-24 17:32:39.806027	250.3	43.3	-65.6	15.0
2025-01-24 17:32:40.954966	250.9	43.3	-65.7	16.0
2025-01-24 17:32:42.099919	251.4	43.4	-65.7	15.0
2025-01-24 17:32:43.247859	252.0	43.5	-65.1	13.5
2025-01-24 17:32:44.400788	252.6	43.5	-65.4	14.6
2025-01-24 17:32:45.547261	253.2	43.6	-65.3	14.0
2025-01-24 17:32:46.695203	253.7	43.6	-65.0	13.2
2025-01-24 17:32:47.842148	254.3	43.6	-64.9	13.0
2025-01-24 17:32:48.986101	254.9	43.7	-65.5	14.6
2025-01-24 17:32:50.132048	255.5	43.7	-65.6	15.1
2025-01-24 17:32:51.275004	256.0	43.8	-65.3	14.9
2025-01-24 17:32:52.419954	256.6	43.8	-65.4	14.6
2025-01-24 17:32:53.565901	257.2	43.8	-65.4	14.3
2025-01-24 17:32:54.712846	257.8	43.8	-64.4	13.6
2025-01-24 17:32:55.860811	258.4	43.9	-64.8	14.9
2025-01-24 17:32:57.003766	259.0	43.9	-64.7	10.6
2025-01-24 17:32:58.149712	259.6	43.9	-65.1	14.1
2025-01-24 17:32:59.298653	260.1	43.9	-65.0	13.5
2025-01-24 17:33:00.444600	260.7	43.9	-64.5	14.0
2025-01-24 17:33:01.588552	261.3	43.9	-64.6	11.9
2025-01-24 17:33:02.732017	261.9	43.9	-64.0	11.6
2025-01-24 17:33:03.875968	262.5	43.9	-64.4	11.2
2025-01-24 17:33:05.019430	263.1	43.9	-64.8	12.8
2025-01-24 17:33:06.164380	263.7	43.9	-65.3	12.4
2025-01-24 17:33:07.307335	264.2	43.9	-63.9	10.2
2025-01-24 17:33:08.451308	264.8	43.9	-64.6	12.0
2025-01-24 17:33:09.595260	265.4	43.8	-64.7	11.4
2025-01-24 17:33:10.737218	266.0	43.8	-65.1	12.2
2025-01-24 17:33:11.886666	266.6	43.8	-64.8	8.8
2025-01-24 17:33:13.029621	267.2	43.8	-65.8	11.6
2025-01-24 17:33:14.171580	267.7	43.7	-64.5	7.1
2025-01-24 17:33:15.314043	268.3	43.7	-65.0	9.5
2025-01-24 17:33:16.456001	268.9	43.7	-63.5	7.6
2025-01-24 17:33:17.598957	269.5	43.6	-63.6	7.7
2025-01-24 17:33:18.742910	270.0	43.6	-64.4	9.0
2025-01-24 17:33:19.889856	270.6	43.5	-63.9	7.1
2025-01-24 17:33:21.031322	271.2	43.5	-63.8	9.2
2025-01-24 17:33:22.174278	271.8	43.4	-64.7	9.3
2025-01-24 17:33:23.320225	272.3	43.4	-63.7	8.3
2025-01-24 17:33:24.461693	272.9	43.3	-63.5	8.7
2025-01-24 17:33:25.617613	273.5	43.3	-63.8	8.9
2025-01-24 17:33:26.759571	274.0	43.2	-63.5	9.8
2025-01-24 17:33:27.910522	274.6	43.1	-63.5	8.6
2025-01-24 17:33:29.053477	275.1	43.0	-62.9	6.9
2025-01-24 17:33:30.195436	275.7	43.0	-62.8	6.4
2025-01-24 17:33:31.337394	276.3	42.9	-64.4	10.2
2025-01-24 17:33:32.479351	276.8	42.8	-63.9	8.8
2025-01-24 17:33:33.624302	277.3	42.7	-62.2	5.3
2025-01-24 17:33:34.765777	277.9	42.7	-63.3	8.0
2025-01-24 17:33:35.910727	278.4	42.6	-62.8	7.3
2025-01-24 17:33:37.054679	279.0	42.5	-63.6	8.2
2025-01-24 17:33:38.197635	279.5	42.4	-63.4	6.6
2025-01-24 17:33:39.340590	280.0	42.3	-63.6	8.9
2025-01-24 17:33:40.483545	280.6	42.2	-62.7	6.4
2025-01-24 17:33:41.629493	281.1	42.1	-63.8	9.3
2025-01-24 17:33:42.772449	281.6	42.0	-63.8	10.0
2025-01-24 17:33:43.917398	282.1	41.9	-62.6	5.5
2025-01-24 17:33:45.061858	282.7	41.8	-62.6	5.2
2025-01-24 17:33:46.204813	283.2	41.7	-62.4	4.5
2025-01-24 17:33:47.348766	283.7	41.6	-62.2	4.8
2025-01-24 17:33:48.490724	284.2	41.4	-62.8	6.7
2025-01-24 17:33:49.633679	284.7	41.3	-63.1	5.7
2025-01-24 17:33:50.777632	285.2	41.2	-61.2	2.6
2025-01-24 17:33:51.920587	285.7	41.1	-64.6	7.7
2025-01-24 17:33:53.065537	286.2	41.0	-64.7	4.8
2025-01-24 17:33:54.207496	286.7	40.9	-63.6	6.3
2025-01-24 17:33:55.355458	287.1	40.7	-62.0	2.2
2025-01-24 17:33:56.498414	287.6	40.6	-64.0	6.3
2025-01-24 17:33:57.641368	288.1	40.5	-64.9	7.0
2025-01-24 17:33:58.783327	288.6	40.3	-64.5	0.4
2025-01-24 17:33:59.924794	289.0	40.2	-64.0	3.0
2025-01-24 17:34:01.071738	289.5	40.1	-64.9	5.9
2025-01-24 17:34:02.213697	290.0	39.9	-65.5	7.0
2025-01-24 17:34:03.355655	290.4	39.8	-64.3	5.1
2025-01-24 17:34:04.498610	290.9	39.7	-65.5	8.5
2025-01-24 17:34:05.643576	291.3	39.5	-64.4	6.2
2025-01-24 17:34:06.785533	291.8	39.4	-63.3	3.6
2025-01-24 17:34:07.927491	292.2	39.3	-64.3	2.9
2025-01-24 17:34:09.068959	292.6	39.1	-62.9	0.8
2025-01-24 17:34:10.212911	293.1	39.0	-63.3	3.9
2025-01-24 17:34:11.355867	293.5	38.8	-61.0	0.0
2025-01-24 17:34:12.497825	293.9	38.7	-61.3	0.0
2025-01-24 17:34:13.639783	294.4	38.5	-61.2	0.6
2025-01-24 17:34:14.785731	294.8	38.4	-61.7	0.7
2025-01-24 17:34:15.928706	295.2	38.2	-60.3	0.0
2025-01-24 17:34:17.074163	295.6	38.1	-60.9	0.0
2025-01-24 17:34:18.217119	296.0	37.9	-61.1	0.0
2025-01-24 17:34:19.363066	296.4	37.8	-61.0	0.0
2025-01-24 17:34:20.505024	296.8	37.6	-61.3	0.0
2025-01-24 17:34:21.649973	297.2	37.5	-63.1	3.9
2025-01-24 17:34:22.795921	297.6	37.3	-62.9	3.8
2025-01-24 17:34:23.939874	298.0	37.2	-62.7	4.9
2025-01-24 17:34:25.081832	298.4	37.0	-64.3	6.3
2025-01-24 17:34:26.224787	298.8	36.8	-64.0	6.0
2025-01-24 17:34:27.367743	299.2	36.7	-63.3	2.3
2025-01-24 17:34:28.510698	299.5	36.5	-62.9	3.5
2025-01-24 17:34:29.655648	299.9	36.4	-63.8	3.0
2025-01-24 17:34:30.797606	300.3	36.2	-62.2	4.0
2025-01-24 17:34:31.940561	300.6	36.0	-63.5	5.6
2025-01-24 17:34:33.082538	301.0	35.9	-64.0	8.4
2025-01-24 17:34:34.225494	301.4	35.7	-63.1	5.4
2025-01-24 17:34:35.368448	301.7	35.6	-64.2	8.3
2025-01-24 17:34:36.516390	302.1	35.4	-62.3	5.2
2025-01-24 17:34:37.659346	302.4	35.2	-62.1	4.5
2025-01-24 17:34:38.803298	302.8	35.1	-63.1	5.3
2025-01-24 17:34:39.947251	303.1	34.9	-62.5	6.5
2025-01-24 17:34:41.089209	303.4	34.7	-62.4	5.7
2025-01-24 17:34:42.235662	303.8	34.6	-62.5	7.0
2025-01-24 17:34:43.383604	304.1	34.4	-65.3	7.9
2025-01-24 17:34:44.527558	304.4	34.3	-63.7	7.4
2025-01-24 17:34:45.670513	304.8	34.1	-65.0	9.9
2025-01-24 17:34:46.815463	305.1	33.9	-65.5	7.5
2025-01-24 17:34:47.957421	305.4	33.8	-63.4	5.2
2025-01-24 17:34:49.101373	305.7	33.6	-65.7	9.4
2025-01-24 17:34:50.244329	306.0	33.4	-64.8	6.4
2025-01-24 17:34:51.388281	306.3	33.3	-66.6	7.5
2025-01-24 17:34:52.531237	306.6	33.1	-66.8	9.9
2025-01-24 17:34:53.676187	306.9	32.9	-64.8	5.2
2025-01-24 17:34:54.826124	307.2	32.8	-63.2	2.1
2025-01-24 17:34:55.971074	307.5	32.6	-65.3	7.8
2025-01-24 17:34:57.115027	307.8	32.4	-65.4	7.1
2025-01-24 17:34:58.258979	308.1	32.3	-66.2	9.5
2025-01-24 17:34:59.409423	308.4	32.1	-66.7	7.1
2025-01-24 17:35:00.553377	308.7	32.0	-66.5	8.9
2025-01-24 17:35:01.698326	309.0	31.8	-64.4	3.2
2025-01-24 17:35:02.842278	309.3	31.6	-64.7	5.5
2025-01-24 17:35:03.986231	309.5	31.5	-66.2	6.9
2025-01-24 17:35:05.134173	309.8	31.3	-67.0	6.5
2025-01-24 17:35:06.279123	310.1	31.1	-66.6	5.4
2025-01-24 17:35:07.424073	310.4	31.0	-66.5	5.1
2025-01-24 17:35:08.569534	310.6	30.8	-64.7	0.0
2025-01-24 17:35:09.716478	310.9	30.7	-65.2	2.4
2025-01-24 17:35:10.862427	311.2	30.5	-65.1	0.0
2025-01-24 17:35:12.007398	311.4	30.3	-66.4	2.0
2025-01-24 17:35:13.156337	311.7	30.2	-63.9	0.0
2025-01-24 17:35:14.300799	311.9	30.0	-64.5	0.0
#Closed at: 2025-01-24 17:30:45.710657