passes_logs/2025/01/24/Planum_Noyabrsk/Planum_Noyabrsk__20250124_073307_NOAA_18_rec.log

#Pass ID: 20250124_073307_NOAA 18
#Satellite: NOAA 18
#Configuration: NOAA 18
#Start time: 2025-01-24 07:33:12.390348

#LorettStation: 1.0.0 05.05.2024
#Station: Planum_Noyabrsk
#Location: 75.446886 lon 63.207202 lat
#TLE: 1 28654U 05018A   25023.44479656  .00000508  00000+0  29298-3 0  9991
#TLE: 2 28654  98.8554 104.4149 0014735 155.7759 204.4109 14.13495207 14379

#Time	Az	El	Level	SNR
2025-01-24 07:33:19.273947	5.1	31.2	-60.1	3.4
2025-01-24 07:33:20.415907	5.0	31.4	-62.3	7.4
2025-01-24 07:33:21.556869	4.8	31.6	-62.0	6.5
2025-01-24 07:33:22.698337	4.6	31.8	-62.4	8.1
2025-01-24 07:33:23.839298	4.4	32.0	-63.5	9.6
2025-01-24 07:33:24.981258	4.3	32.2	-62.9	7.4
2025-01-24 07:33:26.124215	4.1	32.4	-63.8	9.7
2025-01-24 07:33:27.264179	3.9	32.7	-62.7	8.1
2025-01-24 07:33:28.407644	3.7	32.9	-65.3	12.6
2025-01-24 07:33:29.549603	3.5	33.1	-64.7	9.9
2025-01-24 07:33:30.692560	3.4	33.3	-64.3	10.4
2025-01-24 07:33:31.835517	3.2	33.5	-64.2	11.7
2025-01-24 07:33:32.976478	3.0	33.7	-63.8	7.7
2025-01-24 07:33:34.117441	2.8	33.9	-65.3	10.4
2025-01-24 07:33:35.261397	2.6	34.2	-64.7	8.0
2025-01-24 07:33:36.402357	2.4	34.4	-64.1	9.3
2025-01-24 07:33:37.546311	2.2	34.6	-64.9	10.2
2025-01-24 07:33:38.688270	2.0	34.8	-65.0	10.9
2025-01-24 07:33:39.830230	1.8	35.0	-64.4	11.3
2025-01-24 07:33:40.971191	1.5	35.3	-63.4	7.8
2025-01-24 07:33:42.115147	1.3	35.5	-64.0	8.8
2025-01-24 07:33:43.257614	1.1	35.7	-62.9	5.8
2025-01-24 07:33:44.402566	0.9	35.9	-63.3	7.1
2025-01-24 07:33:45.544525	0.7	36.2	-63.0	7.0
2025-01-24 07:33:46.686484	0.4	36.4	-64.9	10.8
2025-01-24 07:33:47.829441	0.2	36.6	-62.5	4.9
2025-01-24 07:33:48.972398	360.0	36.9	-63.2	6.1
2025-01-24 07:33:50.114357	359.7	37.1	-64.5	7.9
2025-01-24 07:33:51.256317	359.5	37.3	-64.4	7.1
2025-01-24 07:33:52.396281	359.2	37.6	-63.8	7.2
2025-01-24 07:33:53.539238	359.0	37.8	-64.2	7.1
2025-01-24 07:33:54.681197	358.7	38.0	-63.1	6.6
2025-01-24 07:33:55.823159	358.5	38.3	-62.1	5.1
2025-01-24 07:33:56.966114	358.2	38.5	-62.3	7.2
2025-01-24 07:33:58.110068	358.0	38.8	-62.8	5.1
2025-01-24 07:33:59.258549	357.7	39.0	-61.1	4.3
2025-01-24 07:34:00.402502	357.4	39.2	-63.0	8.7
2025-01-24 07:34:01.543973	357.1	39.5	-62.7	7.5
2025-01-24 07:34:02.685932	356.8	39.7	-62.3	6.8
2025-01-24 07:34:03.827891	356.6	40.0	-62.3	5.8
2025-01-24 07:34:04.966859	356.3	40.2	-60.6	1.5
2025-01-24 07:34:06.110821	356.0	40.5	-61.8	3.9
2025-01-24 07:34:07.252282	355.7	40.7	-61.6	2.6
2025-01-24 07:34:08.392754	355.4	41.0	-62.6	5.7
2025-01-24 07:34:09.534227	355.1	41.2	-62.6	5.5
2025-01-24 07:34:10.675190	354.8	41.5	-62.5	5.5
2025-01-24 07:34:11.817148	354.4	41.7	-62.6	4.6
2025-01-24 07:34:12.959108	354.1	42.0	-61.1	4.7
2025-01-24 07:34:14.100070	353.8	42.2	-60.2	1.3
2025-01-24 07:34:15.242030	353.5	42.5	-63.4	5.6
2025-01-24 07:34:16.382501	353.1	42.7	-63.1	3.8
2025-01-24 07:34:17.526455	352.8	43.0	-62.2	1.9
2025-01-24 07:34:18.668415	352.4	43.2	-61.3	3.7
2025-01-24 07:34:19.808887	352.1	43.5	-63.8	6.4
2025-01-24 07:34:20.953839	351.7	43.7	-62.2	3.0
2025-01-24 07:34:22.094800	351.3	44.0	-63.0	1.3
2025-01-24 07:34:23.236269	351.0	44.3	-62.4	3.3
2025-01-24 07:34:24.377231	350.6	44.5	-60.9	3.3
2025-01-24 07:34:25.520188	350.2	44.8	-60.0	0.2
2025-01-24 07:34:26.661150	349.8	45.0	-61.8	1.8
2025-01-24 07:34:27.803109	349.4	45.3	-61.6	0.7
2025-01-24 07:34:28.944071	349.0	45.5	-61.2	4.3
2025-01-24 07:34:30.086540	348.6	45.8	-60.9	1.8
2025-01-24 07:34:31.227501	348.2	46.0	-61.4	0.7
2025-01-24 07:34:32.368464	347.8	46.3	-61.2	4.6
2025-01-24 07:34:33.509940	347.3	46.6	-61.0	2.3
2025-01-24 07:34:34.651899	346.9	46.8	-60.9	3.2
2025-01-24 07:34:35.790867	346.4	47.1	-61.0	3.0
2025-01-24 07:34:36.934839	346.0	47.3	-60.4	3.1
2025-01-24 07:34:38.080788	345.5	47.6	-59.1	1.7
2025-01-24 07:34:39.221750	345.1	47.8	-59.9	2.5
2025-01-24 07:34:40.363219	344.6	48.1	-61.1	4.0
2025-01-24 07:34:41.504181	344.1	48.3	-60.7	5.6
2025-01-24 07:34:42.646140	343.6	48.6	-59.0	2.1
2025-01-24 07:34:43.787123	343.1	48.8	-60.8	0.5
2025-01-24 07:34:44.934069	342.6	49.1	-60.8	0.6
2025-01-24 07:34:46.081016	342.1	49.3	-62.0	4.6
2025-01-24 07:34:47.222487	341.5	49.6	-61.6	2.4
2025-01-24 07:34:48.364446	341.0	49.8	-61.1	3.5
2025-01-24 07:34:49.505916	340.5	50.1	-61.3	3.6
2025-01-24 07:34:50.647384	339.9	50.3	-60.8	6.0
2025-01-24 07:34:51.789344	339.3	50.6	-60.5	2.7
2025-01-24 07:34:52.929309	338.8	50.8	-61.2	5.3
2025-01-24 07:34:54.070781	338.2	51.1	-60.2	3.2
2025-01-24 07:34:55.215732	337.6	51.3	-61.3	5.4
2025-01-24 07:34:56.356695	337.0	51.5	-60.8	6.8
2025-01-24 07:34:57.500648	336.4	51.8	-60.6	6.3
2025-01-24 07:34:58.642607	335.8	52.0	-58.9	0.0
2025-01-24 07:34:59.783569	335.1	52.2	-60.7	5.8
2025-01-24 07:35:00.925529	334.5	52.4	-59.9	3.4
2025-01-24 07:35:02.070480	333.9	52.7	-58.9	0.0
2025-01-24 07:35:03.214434	333.2	52.9	-57.8	3.8
2025-01-24 07:35:04.356394	332.5	53.1	-59.3	3.8
2025-01-24 07:35:05.499350	331.9	53.3	-60.1	3.9
2025-01-24 07:35:06.641310	331.2	53.5	-59.5	2.3
2025-01-24 07:35:07.782779	330.5	53.7	-59.9	3.1
2025-01-24 07:35:08.925735	329.8	53.9	-60.1	2.7
2025-01-24 07:35:10.068692	329.0	54.1	-60.2	4.5
2025-01-24 07:35:11.209653	328.3	54.3	-59.5	2.9
2025-01-24 07:35:12.349618	327.6	54.5	-58.8	3.1
2025-01-24 07:35:13.492575	326.8	54.7	-59.7	2.7
2025-01-24 07:35:14.634043	326.1	54.9	-58.7	1.2
2025-01-24 07:35:15.776002	325.3	55.1	-60.9	3.1
2025-01-24 07:35:16.917962	324.5	55.2	-59.4	2.1
2025-01-24 07:35:18.060919	323.7	55.4	-59.7	1.4
2025-01-24 07:35:19.208862	322.9	55.6	-60.2	3.6
2025-01-24 07:35:20.350821	322.1	55.7	-59.7	4.0
2025-01-24 07:35:21.492290	321.3	55.9	-58.2	0.0
2025-01-24 07:35:22.635246	320.5	56.0	-59.0	1.0
2025-01-24 07:35:23.777206	319.7	56.2	-59.6	2.9
2025-01-24 07:35:24.917678	318.8	56.3	-58.7	1.8
2025-01-24 07:35:26.060636	318.0	56.5	-59.3	2.3
2025-01-24 07:35:27.201597	317.1	56.6	-59.5	2.0
2025-01-24 07:35:28.345061	316.3	56.7	-59.6	0.7
2025-01-24 07:35:29.486022	315.4	56.8	-59.9	2.2
2025-01-24 07:35:30.626984	314.5	56.9	-59.2	0.4
2025-01-24 07:35:31.767946	313.6	57.0	-61.1	2.0
2025-01-24 07:35:32.909413	312.7	57.1	-59.2	0.1
2025-01-24 07:35:34.052370	311.8	57.2	-59.8	2.3
2025-01-24 07:35:35.195834	310.9	57.3	-60.0	1.0
2025-01-24 07:35:36.336797	310.0	57.4	-60.3	0.4
2025-01-24 07:35:37.478756	309.1	57.4	-60.1	0.0
2025-01-24 07:35:38.619718	308.2	57.5	-60.7	2.2
2025-01-24 07:35:39.761189	307.3	57.6	-60.6	1.7
2025-01-24 07:35:40.902151	306.3	57.6	-60.4	2.0
2025-01-24 07:35:42.044111	305.4	57.6	-60.9	3.1
2025-01-24 07:35:43.187574	304.5	57.7	-60.6	1.2
2025-01-24 07:35:44.331527	303.5	57.7	-61.4	2.6
2025-01-24 07:35:45.472997	302.6	57.7	-61.5	4.9
2025-01-24 07:35:46.615464	301.7	57.7	-61.3	3.3
2025-01-24 07:35:47.757423	300.7	57.7	-62.2	4.6
2025-01-24 07:35:48.902374	299.8	57.7	-61.7	5.4
2025-01-24 07:35:50.045331	298.8	57.7	-62.1	6.5
2025-01-24 07:35:51.187290	297.9	57.7	-62.0	5.0
2025-01-24 07:35:52.330757	297.0	57.7	-62.4	5.8
2025-01-24 07:35:53.479697	296.0	57.6	-61.6	6.1
2025-01-24 07:35:54.620659	295.1	57.6	-62.2	6.9
2025-01-24 07:35:55.762619	294.2	57.6	-62.3	5.8
2025-01-24 07:35:56.904578	293.3	57.5	-62.5	7.9
2025-01-24 07:35:58.046538	292.3	57.4	-62.9	7.2
2025-01-24 07:35:59.189007	291.4	57.4	-63.7	7.9
2025-01-24 07:36:00.331963	290.5	57.3	-62.9	9.3
2025-01-24 07:36:01.474920	289.6	57.2	-63.7	9.5
2025-01-24 07:36:02.616390	288.7	57.1	-64.2	8.0
2025-01-24 07:36:03.758349	287.8	57.0	-64.2	9.5
2025-01-24 07:36:04.899311	286.9	56.9	-64.1	9.3
2025-01-24 07:36:06.040779	286.0	56.8	-64.7	10.5
2025-01-24 07:36:07.186729	285.2	56.7	-63.9	8.8
2025-01-24 07:36:08.329685	284.3	56.6	-63.9	8.8
2025-01-24 07:36:09.472659	283.4	56.5	-64.7	9.0
2025-01-24 07:36:10.616612	282.6	56.3	-62.9	7.6
2025-01-24 07:36:11.757575	281.7	56.2	-64.9	10.4
2025-01-24 07:36:12.898048	280.9	56.1	-64.9	8.9
2025-01-24 07:36:14.042002	280.1	55.9	-63.0	5.6
2025-01-24 07:36:15.182963	279.3	55.8	-64.6	9.4
2025-01-24 07:36:16.323945	278.4	55.6	-64.1	11.0
2025-01-24 07:36:17.465905	277.6	55.4	-63.2	8.8
2025-01-24 07:36:18.605870	276.9	55.3	-62.8	8.8
2025-01-24 07:36:19.750333	276.1	55.1	-64.2	10.9
2025-01-24 07:36:20.892293	275.3	54.9	-64.3	9.6
2025-01-24 07:36:22.037244	274.5	54.7	-64.7	10.5
2025-01-24 07:36:23.180201	273.8	54.5	-64.4	9.5
2025-01-24 07:36:24.322160	273.1	54.3	-64.2	10.7
2025-01-24 07:36:25.465624	272.3	54.2	-64.1	11.2
2025-01-24 07:36:26.607092	271.6	54.0	-64.7	10.9
2025-01-24 07:36:27.753041	270.9	53.7	-64.8	11.1
2025-01-24 07:36:28.894003	270.2	53.5	-65.2	10.3
2025-01-24 07:36:30.037467	269.5	53.3	-65.0	11.8
2025-01-24 07:36:31.178429	268.8	53.1	-64.8	10.6
2025-01-24 07:36:32.320388	268.1	52.9	-65.2	11.5
2025-01-24 07:36:33.460353	267.5	52.7	-63.7	7.5
2025-01-24 07:36:34.606811	266.8	52.5	-63.1	9.2
2025-01-24 07:36:35.750765	266.2	52.2	-64.7	12.3
2025-01-24 07:36:36.890729	265.6	52.0	-64.8	9.9
2025-01-24 07:36:38.071586	264.9	51.8	-64.9	11.6
2025-01-24 07:36:39.215539	264.3	51.5	-64.1	12.0
2025-01-24 07:36:40.358497	263.7	51.3	-64.4	12.3
2025-01-24 07:36:41.500455	263.1	51.1	-64.7	8.1
2025-01-24 07:36:42.642415	262.5	50.8	-64.4	10.9
2025-01-24 07:36:43.782886	262.0	50.6	-64.0	10.4
2025-01-24 07:36:44.925353	261.4	50.3	-63.7	6.8
2025-01-24 07:36:46.071301	260.8	50.1	-63.9	10.0
2025-01-24 07:36:47.213260	260.3	49.8	-63.5	8.5
2025-01-24 07:36:48.355237	259.7	49.6	-62.4	8.0
2025-01-24 07:36:49.497196	259.2	49.3	-61.9	6.5
2025-01-24 07:36:50.638158	258.7	49.1	-64.0	7.3
2025-01-24 07:36:51.778630	258.2	48.8	-64.4	7.6
2025-01-24 07:36:52.920589	257.7	48.6	-64.2	9.5
2025-01-24 07:36:54.061551	257.2	48.3	-63.0	8.9
2025-01-24 07:36:55.203511	256.7	48.1	-63.1	9.3
2025-01-24 07:36:56.344473	256.2	47.8	-64.3	11.3
2025-01-24 07:36:57.485435	255.7	47.6	-63.7	11.5
2025-01-24 07:36:58.630386	255.3	47.3	-64.0	11.5
2025-01-24 07:36:59.771349	254.8	47.1	-63.0	9.4
2025-01-24 07:37:00.914306	254.4	46.8	-64.1	11.1
2025-01-24 07:37:02.056265	253.9	46.5	-63.9	9.5
2025-01-24 07:37:03.198224	253.5	46.3	-64.0	11.2
2025-01-24 07:37:04.339186	253.1	46.0	-65.0	12.9
2025-01-24 07:37:05.480149	252.7	45.8	-65.6	13.1
2025-01-24 07:37:06.625100	252.2	45.5	-65.1	13.3
2025-01-24 07:37:07.767059	251.8	45.3	-65.1	12.7
2025-01-24 07:37:08.910016	251.4	45.0	-66.1	14.2
2025-01-24 07:37:10.050490	251.0	44.7	-65.5	13.4
2025-01-24 07:37:11.193445	250.6	44.5	-65.4	12.7
2025-01-24 07:37:12.335405	250.3	44.2	-64.8	11.1
2025-01-24 07:37:13.478868	249.9	44.0	-66.0	11.3
2025-01-24 07:37:14.619831	249.5	43.7	-66.7	13.9
2025-01-24 07:37:15.763785	249.2	43.4	-66.9	13.9
2025-01-24 07:37:16.904262	248.8	43.2	-65.3	11.8
2025-01-24 07:37:18.047217	248.5	42.9	-65.2	10.5
2025-01-24 07:37:19.192168	248.1	42.7	-66.7	12.9
2025-01-24 07:37:20.333150	247.8	42.4	-66.7	12.8
2025-01-24 07:37:21.474112	247.4	42.2	-66.4	13.5
2025-01-24 07:37:22.617069	247.1	41.9	-67.2	14.2
2025-01-24 07:37:23.761022	246.8	41.7	-67.0	14.3
2025-01-24 07:37:24.903979	246.5	41.4	-66.2	13.2
2025-01-24 07:37:26.045939	246.1	41.2	-66.4	13.7
2025-01-24 07:37:27.187898	245.8	40.9	-66.5	13.7
2025-01-24 07:37:28.330855	245.5	40.7	-66.2	13.8
2025-01-24 07:37:29.471817	245.2	40.4	-66.0	13.5
2025-01-24 07:37:30.614283	244.9	40.2	-66.5	13.6
2025-01-24 07:37:31.755245	244.6	39.9	-66.1	12.6
2025-01-24 07:37:32.896207	244.4	39.7	-66.5	14.1
2025-01-24 07:37:34.039671	244.1	39.4	-65.8	12.0
2025-01-24 07:37:35.180632	243.8	39.2	-65.0	9.8
2025-01-24 07:37:36.323589	243.5	38.9	-66.7	13.7
2025-01-24 07:37:37.464552	243.2	38.7	-66.4	13.7
2025-01-24 07:37:38.606511	243.0	38.5	-65.2	10.1
2025-01-24 07:37:39.748470	242.7	38.2	-65.1	9.9
2025-01-24 07:37:40.891427	242.5	38.0	-66.7	13.8
2025-01-24 07:37:42.033386	242.2	37.7	-66.7	13.7
2025-01-24 07:37:43.175346	242.0	37.5	-66.0	12.3
2025-01-24 07:37:44.314820	241.7	37.3	-66.5	13.5
2025-01-24 07:37:45.457776	241.5	37.0	-65.4	11.8
2025-01-24 07:37:46.598739	241.2	36.8	-66.3	14.3
2025-01-24 07:37:47.740209	241.0	36.6	-67.0	14.1
2025-01-24 07:37:48.882169	240.8	36.3	-65.8	12.6
2025-01-24 07:37:50.024128	240.5	36.1	-65.1	11.9
2025-01-24 07:37:51.165090	240.3	35.9	-65.6	10.2
2025-01-24 07:37:52.307049	240.1	35.6	-65.8	11.3
2025-01-24 07:37:53.450006	239.9	35.4	-65.7	7.7
2025-01-24 07:37:54.590478	239.6	35.2	-64.1	7.9
2025-01-24 07:37:55.738421	239.4	35.0	-65.2	9.2
2025-01-24 07:37:56.880382	239.2	34.7	-65.8	8.9
2025-01-24 07:37:58.022847	239.0	34.5	-65.2	10.0
2025-01-24 07:37:59.167799	238.8	34.3	-64.4	8.9
2025-01-24 07:38:00.311753	238.6	34.1	-65.1	7.6
2025-01-24 07:38:01.453222	238.4	33.8	-66.4	11.6
2025-01-24 07:38:02.594184	238.2	33.6	-65.6	9.8
2025-01-24 07:38:03.736143	238.0	33.4	-64.3	8.7
2025-01-24 07:38:04.878103	237.8	33.2	-64.3	7.4
2025-01-24 07:38:06.019573	237.6	33.0	-63.9	7.7
2025-01-24 07:38:07.161532	237.4	32.8	-64.3	8.5
2025-01-24 07:38:08.302494	237.3	32.5	-64.2	9.0
2025-01-24 07:38:09.445451	237.1	32.3	-64.1	7.4
2025-01-24 07:38:10.586413	236.9	32.1	-65.6	9.8
2025-01-24 07:38:11.727882	236.7	31.9	-66.1	12.3
2025-01-24 07:38:12.869842	236.5	31.7	-65.2	9.9
2025-01-24 07:38:14.011801	236.4	31.5	-65.3	9.3
2025-01-24 07:38:15.155264	236.2	31.3	-64.9	8.4
2025-01-24 07:38:16.297223	236.0	31.1	-65.6	11.6
2025-01-24 07:38:17.438186	235.9	30.9	-64.1	7.0
2025-01-24 07:38:18.579654	235.7	30.7	-65.6	10.5
2025-01-24 07:38:19.721129	235.5	30.5	-65.0	10.4
2025-01-24 07:38:20.861094	235.4	30.3	-64.9	7.8
2025-01-24 07:38:22.004052	235.2	30.1	-67.3	11.6
2025-01-24 07:38:23.145013	235.1	29.9	-68.2	2.5
#Closed at: 2025-01-24 07:33:07.394581