passes_logs/2025/01/24/Planum_Noyabrsk/Planum_Noyabrsk__20250124_055240_NOAA_18_rec.log

#Pass ID: 20250124_055240_NOAA 18
#Satellite: NOAA 18
#Configuration: NOAA 18
#Start time: 2025-01-24 05:52:45.057466

#LorettStation: 1.0.0 05.05.2024
#Station: Planum_Noyabrsk
#Location: 75.446886 lon 63.207202 lat
#TLE: 1 28654U 05018A   25023.44479656  .00000508  00000+0  29298-3 0  9991
#TLE: 2 28654  98.8554 104.4149 0014735 155.7759 204.4109 14.13495207 14379

#Time	Az	El	Level	SNR
2025-01-24 05:52:51.262787	49.5	30.9	-58.3	0.0
2025-01-24 05:52:52.407738	49.8	31.0	-60.5	0.0
2025-01-24 05:52:53.552690	50.1	31.2	-62.7	3.6
2025-01-24 05:52:54.695647	50.4	31.4	-60.0	0.0
2025-01-24 05:52:55.841595	50.6	31.5	-57.8	3.6
2025-01-24 05:52:56.988542	50.9	31.7	-58.5	0.0
2025-01-24 05:52:58.134491	51.2	31.9	-58.6	0.0
2025-01-24 05:52:59.277447	51.5	32.0	-61.2	0.0
2025-01-24 05:53:00.430377	51.8	32.2	-57.8	0.0
2025-01-24 05:53:01.575328	52.1	32.4	-51.0	0.0
2025-01-24 05:53:02.728259	52.4	32.5	-55.2	0.0
2025-01-24 05:53:03.873210	52.7	32.7	-58.1	0.0
2025-01-24 05:53:05.016167	53.0	32.9	-61.3	3.5
2025-01-24 05:53:06.169115	53.3	33.0	-56.9	0.0
2025-01-24 05:53:07.313069	53.6	33.2	-58.0	0.0
2025-01-24 05:53:08.458039	53.9	33.3	-51.9	0.0
2025-01-24 05:53:09.605983	54.2	33.5	-60.8	0.0
2025-01-24 05:53:10.750934	54.5	33.7	-53.6	0.0
2025-01-24 05:53:11.896392	54.8	33.8	-54.6	0.0
2025-01-24 05:53:13.042341	55.2	34.0	-58.4	0.0
2025-01-24 05:53:14.186802	55.5	34.2	-54.7	0.0
2025-01-24 05:53:15.331270	55.8	34.3	-54.5	0.0
2025-01-24 05:53:16.473225	56.1	34.5	-53.7	0.0
2025-01-24 05:53:17.618176	56.5	34.7	-55.6	0.0
2025-01-24 05:53:18.762131	56.8	34.8	-54.1	0.0
2025-01-24 05:53:19.905087	57.2	35.0	-57.2	0.0
2025-01-24 05:53:21.050039	57.5	35.2	-56.8	0.0
2025-01-24 05:53:22.192995	57.9	35.3	-52.3	0.0
2025-01-24 05:53:23.339941	58.2	35.5	-59.3	0.0
2025-01-24 05:53:24.482899	58.6	35.6	-54.2	0.0
2025-01-24 05:53:25.626852	58.9	35.8	-60.6	0.0
2025-01-24 05:53:26.769809	59.3	36.0	-55.2	0.0
2025-01-24 05:53:27.913763	59.7	36.1	-57.7	0.0
2025-01-24 05:53:29.056230	60.0	36.3	-60.0	0.0
2025-01-24 05:53:30.198189	60.4	36.4	-56.6	0.0
2025-01-24 05:53:31.341147	60.8	36.6	-58.9	0.0
2025-01-24 05:53:32.491085	61.2	36.8	-56.2	0.0
2025-01-24 05:53:33.633043	61.5	36.9	-59.3	0.0
2025-01-24 05:53:34.775003	61.9	37.1	-60.3	0.1
2025-01-24 05:53:35.919955	62.3	37.2	-56.2	0.0
2025-01-24 05:53:37.061914	62.7	37.4	-59.6	0.0
2025-01-24 05:53:38.203874	63.1	37.5	-56.0	0.0
2025-01-24 05:53:39.346831	63.5	37.7	-58.9	0.0
2025-01-24 05:53:40.490784	63.9	37.9	-59.0	0.0
2025-01-24 05:53:41.636749	64.3	38.0	-57.9	0.0
2025-01-24 05:53:42.785199	64.7	38.2	-58.1	0.0
2025-01-24 05:53:43.927159	65.2	38.3	-54.7	0.0
2025-01-24 05:53:45.070116	65.6	38.5	-57.9	0.0
2025-01-24 05:53:46.215066	66.0	38.6	-57.4	0.0
2025-01-24 05:53:47.357026	66.4	38.8	-57.8	0.0
2025-01-24 05:53:48.498985	66.9	38.9	-55.0	0.0
2025-01-24 05:53:49.641454	67.3	39.0	-57.4	0.0
2025-01-24 05:53:50.786406	67.8	39.2	-60.5	0.6
2025-01-24 05:53:51.928365	68.2	39.3	-54.9	0.0
2025-01-24 05:53:53.071321	68.7	39.5	-57.6	0.0
2025-01-24 05:53:54.215276	69.1	39.6	-59.8	0.0
2025-01-24 05:53:55.357742	69.6	39.8	-59.3	0.0
2025-01-24 05:53:56.499702	70.0	39.9	-59.5	1.0
2025-01-24 05:53:57.641661	70.5	40.0	-60.2	3.1
2025-01-24 05:53:58.784635	71.0	40.2	-57.2	0.0
2025-01-24 05:53:59.927592	71.4	40.3	-55.3	0.0
2025-01-24 05:54:01.070548	71.9	40.4	-55.7	0.0
2025-01-24 05:54:02.213014	72.4	40.5	-56.9	0.0
2025-01-24 05:54:03.354973	72.9	40.7	-56.3	0.0
2025-01-24 05:54:04.499925	73.4	40.8	-55.8	0.0
2025-01-24 05:54:05.642882	73.8	40.9	-56.8	0.0
2025-01-24 05:54:06.790826	74.3	41.0	-54.8	0.0
2025-01-24 05:54:07.934779	74.8	41.2	-52.5	0.0
2025-01-24 05:54:09.078737	75.3	41.3	-54.8	0.0
2025-01-24 05:54:10.222688	75.8	41.4	-53.7	0.0
2025-01-24 05:54:11.364647	76.4	41.5	-56.7	0.0
2025-01-24 05:54:12.509599	76.9	41.6	-53.1	0.0
2025-01-24 05:54:13.653552	77.4	41.7	-56.0	0.0
2025-01-24 05:54:14.796509	77.9	41.8	-56.8	0.0
2025-01-24 05:54:15.939466	78.4	41.9	-49.9	0.0
2025-01-24 05:54:17.083420	79.0	42.0	-52.5	0.0
2025-01-24 05:54:18.226376	79.5	42.1	-52.4	0.0
2025-01-24 05:54:19.371835	80.0	42.2	-55.9	0.0
2025-01-24 05:54:20.514792	80.6	42.3	-51.7	0.0
2025-01-24 05:54:21.659743	81.1	42.4	-51.9	0.0
2025-01-24 05:54:22.801702	81.6	42.5	-51.4	0.0
2025-01-24 05:54:23.947651	82.2	42.6	-48.6	0.0
2025-01-24 05:54:25.089611	82.7	42.7	-48.3	0.0
2025-01-24 05:54:26.233566	83.3	42.8	-49.2	0.0
2025-01-24 05:54:27.377519	83.8	42.9	-49.9	0.0
2025-01-24 05:54:28.520475	84.4	42.9	-50.6	0.0
2025-01-24 05:54:29.666425	85.0	43.0	-54.1	0.0
2025-01-24 05:54:30.813371	85.5	43.1	-53.5	0.0
2025-01-24 05:54:31.959320	86.1	43.1	-52.1	0.0
2025-01-24 05:54:33.102276	86.6	43.2	-52.7	0.0
2025-01-24 05:54:34.248225	87.2	43.3	-52.0	0.0
2025-01-24 05:54:35.396168	87.8	43.3	-53.1	0.0
2025-01-24 05:54:36.542117	88.4	43.4	-52.8	0.0
2025-01-24 05:54:37.685075	88.9	43.4	-53.8	0.0
2025-01-24 05:54:38.831022	89.5	43.5	-53.7	0.0
2025-01-24 05:54:39.976972	90.1	43.5	-49.2	0.0
2025-01-24 05:54:41.123429	90.7	43.6	-55.5	0.0
2025-01-24 05:54:42.266384	91.3	43.6	-55.9	0.1
2025-01-24 05:54:43.418317	91.8	43.7	-52.6	0.0
2025-01-24 05:54:44.562271	92.4	43.7	-54.2	3.0
2025-01-24 05:54:45.708219	93.0	43.7	-52.1	0.0
2025-01-24 05:54:46.853171	93.6	43.7	-56.2	0.0
2025-01-24 05:54:47.999120	94.2	43.8	-50.9	0.0
2025-01-24 05:54:49.147063	94.8	43.8	-54.0	0.0
2025-01-24 05:54:50.295007	95.4	43.8	-54.9	0.0
2025-01-24 05:54:51.439977	96.0	43.8	-56.5	0.0
2025-01-24 05:54:52.586433	96.6	43.8	-53.6	0.0
2025-01-24 05:54:53.734377	97.2	43.8	-55.3	0.0
2025-01-24 05:54:54.877334	97.7	43.8	-57.4	0.0
2025-01-24 05:54:56.022285	98.3	43.8	-54.7	0.0
2025-01-24 05:54:57.167236	98.9	43.8	-59.2	1.1
2025-01-24 05:54:58.315180	99.5	43.8	-53.8	0.0
2025-01-24 05:54:59.464121	100.1	43.8	-57.7	0.0
2025-01-24 05:55:00.615076	100.7	43.8	-55.0	0.0
2025-01-24 05:55:01.762528	101.3	43.8	-55.0	0.0
2025-01-24 05:55:02.910472	101.9	43.8	-56.3	0.0
2025-01-24 05:55:04.062404	102.5	43.8	-54.0	0.0
2025-01-24 05:55:05.210350	103.1	43.7	-53.8	0.0
2025-01-24 05:55:06.357807	103.7	43.7	-56.5	0.0
2025-01-24 05:55:07.502756	104.2	43.7	-55.5	0.0
2025-01-24 05:55:08.649702	104.8	43.6	-55.7	0.0
2025-01-24 05:55:09.796669	105.4	43.6	-58.2	0.0
2025-01-24 05:55:10.942618	106.0	43.6	-57.0	0.0
2025-01-24 05:55:12.090071	106.6	43.5	-54.2	0.0
2025-01-24 05:55:13.239032	107.2	43.5	-52.5	0.0
2025-01-24 05:55:14.385979	107.7	43.4	-57.0	0.0
2025-01-24 05:55:15.535916	108.3	43.4	-57.2	0.0
2025-01-24 05:55:16.689844	108.9	43.3	-55.8	0.0
2025-01-24 05:55:17.838785	109.5	43.2	-54.7	0.0
2025-01-24 05:55:18.994707	110.0	43.2	-56.0	0.0
2025-01-24 05:55:20.142650	110.6	43.1	-55.3	0.0
2025-01-24 05:55:21.289597	111.2	43.0	-52.7	0.0
2025-01-24 05:55:22.437540	111.7	43.0	-57.3	0.0
2025-01-24 05:55:23.582492	112.3	42.9	-56.7	0.0
2025-01-24 05:55:24.733954	112.9	42.8	-53.5	0.0
2025-01-24 05:55:25.881897	113.4	42.7	-51.1	0.0
2025-01-24 05:55:27.028844	114.0	42.6	-54.4	0.0
2025-01-24 05:55:28.182771	114.5	42.6	-52.2	0.0
2025-01-24 05:55:29.328720	115.1	42.5	-53.5	0.0
2025-01-24 05:55:30.478658	115.6	42.4	-53.8	0.0
2025-01-24 05:55:31.627599	116.2	42.3	-54.2	0.0
2025-01-24 05:55:32.778534	116.7	42.2	-57.8	0.0
2025-01-24 05:55:33.928473	117.2	42.1	-55.6	0.0
2025-01-24 05:55:35.077413	117.8	42.0	-57.5	0.0
2025-01-24 05:55:36.225357	118.3	41.9	-52.9	0.0
2025-01-24 05:55:37.376292	118.8	41.8	-53.4	0.0
2025-01-24 05:55:38.525233	119.3	41.7	-52.9	0.0
2025-01-24 05:55:39.675679	119.9	41.6	-54.8	0.0
2025-01-24 05:55:40.824620	120.4	41.4	-54.6	0.0
2025-01-24 05:55:41.974557	120.9	41.3	-55.2	0.0
2025-01-24 05:55:43.126490	121.4	41.2	-53.5	0.0
2025-01-24 05:55:44.274433	121.9	41.1	-52.8	0.0
2025-01-24 05:55:45.424883	122.4	41.0	-52.0	0.0
2025-01-24 05:55:46.574822	122.9	40.8	-52.2	0.0
2025-01-24 05:55:47.725268	123.4	40.7	-54.2	0.0
2025-01-24 05:55:48.883696	123.9	40.6	-54.2	0.0
2025-01-24 05:55:50.035629	124.4	40.5	-53.3	0.0
2025-01-24 05:55:51.188559	124.9	40.3	-55.6	0.0
2025-01-24 05:55:52.337501	125.3	40.2	-53.5	0.0
2025-01-24 05:55:53.488944	125.8	40.1	-53.5	0.0
2025-01-24 05:55:54.638882	126.3	39.9	-54.8	0.0
2025-01-24 05:55:55.788819	126.7	39.8	-57.2	0.0
2025-01-24 05:55:56.942747	127.2	39.6	-56.4	0.0
2025-01-24 05:55:58.092685	127.7	39.5	-56.8	0.0
2025-01-24 05:55:59.254591	128.1	39.4	-58.0	0.0
2025-01-24 05:56:00.405526	128.6	39.2	-57.7	0.0
2025-01-24 05:56:01.556482	129.0	39.1	-56.4	0.0
2025-01-24 05:56:02.709412	129.5	38.9	-57.3	0.0
2025-01-24 05:56:03.859350	129.9	38.8	-58.4	0.0
2025-01-24 05:56:05.008799	130.3	38.6	-57.9	0.0
2025-01-24 05:56:06.158739	130.8	38.5	-59.2	0.0
2025-01-24 05:56:07.309673	131.2	38.3	-58.4	0.0
2025-01-24 05:56:08.459610	131.6	38.2	-57.3	0.0
2025-01-24 05:56:09.608552	132.0	38.0	-58.3	0.0
2025-01-24 05:56:10.765472	132.5	37.9	-58.7	0.0
2025-01-24 05:56:11.912417	132.9	37.7	-58.5	0.0
2025-01-24 05:56:13.062355	133.3	37.5	-59.2	1.2
2025-01-24 05:56:14.212294	133.7	37.4	-60.5	1.7
2025-01-24 05:56:15.362741	134.1	37.2	-59.3	0.0
2025-01-24 05:56:16.511681	134.5	37.1	-59.2	0.7
2025-01-24 05:56:17.662617	134.9	36.9	-62.2	8.9
2025-01-24 05:56:18.812555	135.3	36.8	-61.8	3.4
2025-01-24 05:56:19.960499	135.6	36.6	-61.6	1.6
2025-01-24 05:56:21.111945	136.0	36.4	-62.0	3.0
2025-01-24 05:56:22.264384	136.4	36.3	-63.9	5.3
2025-01-24 05:56:23.416825	136.8	36.1	-62.5	5.8
2025-01-24 05:56:24.566762	137.2	35.9	-61.6	0.6
2025-01-24 05:56:25.716701	137.5	35.8	-62.5	3.6
2025-01-24 05:56:26.863646	137.9	35.6	-62.5	2.2
2025-01-24 05:56:28.015579	138.2	35.5	-60.7	0.0
2025-01-24 05:56:29.164520	138.6	35.3	-62.3	0.0
2025-01-24 05:56:30.312971	138.9	35.1	-62.1	1.0
2025-01-24 05:56:31.464904	139.3	35.0	-62.7	3.5
2025-01-24 05:56:32.610853	139.6	34.8	-63.9	7.0
2025-01-24 05:56:33.758796	140.0	34.6	-64.0	6.9
2025-01-24 05:56:34.905742	140.3	34.5	-63.5	1.8
2025-01-24 05:56:36.053196	140.7	34.3	-62.1	4.0
2025-01-24 05:56:37.200144	141.0	34.1	-64.6	4.6
2025-01-24 05:56:38.346090	141.3	34.0	-61.5	0.0
2025-01-24 05:56:39.494035	141.6	33.8	-62.9	1.0
2025-01-24 05:56:40.640982	142.0	33.6	-62.3	0.0
2025-01-24 05:56:41.788924	142.3	33.5	-66.6	5.2
2025-01-24 05:56:42.935870	142.6	33.3	-64.2	0.0
2025-01-24 05:56:44.079824	142.9	33.1	-64.1	4.6
2025-01-24 05:56:45.223288	143.2	33.0	-65.4	7.7
2025-01-24 05:56:46.368239	143.5	32.8	-62.8	1.3
2025-01-24 05:56:47.513190	143.8	32.6	-65.7	8.7
2025-01-24 05:56:48.657655	144.1	32.5	-63.4	0.7
2025-01-24 05:56:49.801608	144.4	32.3	-66.4	8.4
2025-01-24 05:56:50.946560	144.7	32.1	-64.7	2.5
2025-01-24 05:56:52.091511	145.0	32.0	-64.7	7.7
2025-01-24 05:56:53.233471	145.3	31.8	-65.1	5.2
2025-01-24 05:56:54.377424	145.6	31.6	-64.8	4.4
2025-01-24 05:56:55.519384	145.9	31.5	-64.7	5.0
2025-01-24 05:56:56.663338	146.1	31.3	-63.0	0.0
2025-01-24 05:56:57.807292	146.4	31.1	-64.8	4.5
2025-01-24 05:56:58.950249	146.7	31.0	-65.6	4.4
2025-01-24 05:57:00.093205	147.0	30.8	-64.8	4.3
2025-01-24 05:57:01.238157	147.2	30.6	-63.0	3.0
2025-01-24 05:57:02.381114	147.5	30.5	-64.9	4.6
2025-01-24 05:57:03.525068	147.8	30.3	-64.9	3.9
2025-01-24 05:57:04.669027	148.0	30.2	-66.5	5.8
2025-01-24 05:57:05.811979	148.3	30.0	-67.4	1.1
#Closed at: 2025-01-24 05:52:40.060625