passes_logs/2025/01/24/Planum_Noyabrsk/Planum_Noyabrsk__20250124_092823_METEOR-M2_4_rec.log

#Pass ID: 20250124_092823_METEOR-M2 4
#Satellite: METEOR-M2 4
#Configuration: METEOR-M2 4
#Start time: 2025-01-24 09:28:28.546846

#LorettStation: 1.0.0 05.05.2024
#Station: Planum_Noyabrsk
#Location: 75.446886 lon 63.207202 lat
#TLE: 1 59051U 24039A   25023.46960849  .00000154  00000+0  88910-4 0  9995
#TLE: 2 59051  98.6304 346.3014 0006584 197.7782 162.3166 14.22328093 46804

#Time	Az	El	Level	SNR
2025-01-24 09:28:34.745914	202.9	31.0	-64.8	14.0
2025-01-24 09:28:35.887875	203.1	31.2	-64.9	14.6
2025-01-24 09:28:37.029833	203.4	31.4	-65.3	14.3
2025-01-24 09:28:38.173787	203.6	31.6	-64.4	13.4
2025-01-24 09:28:39.314749	203.9	31.8	-64.9	14.1
2025-01-24 09:28:40.457707	204.1	32.0	-65.1	14.0
2025-01-24 09:28:41.598178	204.3	32.1	-65.5	14.6
2025-01-24 09:28:42.743130	204.6	32.3	-65.8	14.9
2025-01-24 09:28:43.889078	204.8	32.5	-65.2	13.9
2025-01-24 09:28:45.032542	205.1	32.7	-65.6	14.5
2025-01-24 09:28:46.174501	205.4	32.9	-65.0	13.8
2025-01-24 09:28:47.317457	205.6	33.1	-65.4	14.6
2025-01-24 09:28:48.458926	205.9	33.3	-65.4	14.0
2025-01-24 09:28:49.600886	206.1	33.5	-66.3	14.5
2025-01-24 09:28:50.750824	206.4	33.7	-65.6	13.9
2025-01-24 09:28:51.891295	206.7	33.9	-66.0	14.6
2025-01-24 09:28:53.035248	207.0	34.1	-65.0	13.7
2025-01-24 09:28:54.178205	207.2	34.3	-65.5	14.1
2025-01-24 09:28:55.319167	207.5	34.5	-65.6	14.2
2025-01-24 09:28:56.462124	207.8	34.7	-65.7	13.9
2025-01-24 09:28:57.605080	208.1	34.9	-66.1	14.6
2025-01-24 09:28:58.745046	208.4	35.1	-65.8	13.6
2025-01-24 09:28:59.887513	208.7	35.3	-65.5	13.7
2025-01-24 09:29:01.029471	209.0	35.5	-65.8	14.1
2025-01-24 09:29:02.171430	209.3	35.7	-65.4	13.5
2025-01-24 09:29:03.311902	209.6	35.9	-66.6	14.8
2025-01-24 09:29:04.453861	209.9	36.1	-66.0	12.7
2025-01-24 09:29:05.594822	210.2	36.3	-65.8	13.9
2025-01-24 09:29:06.737288	210.5	36.5	-66.3	13.4
2025-01-24 09:29:07.879247	210.9	36.7	-66.0	13.5
2025-01-24 09:29:09.021207	211.2	36.9	-66.8	13.8
2025-01-24 09:29:10.164672	211.5	37.1	-66.0	13.2
2025-01-24 09:29:11.306631	211.9	37.3	-66.0	13.8
2025-01-24 09:29:12.448590	212.2	37.5	-66.8	15.1
2025-01-24 09:29:13.590062	212.5	37.7	-67.1	15.4
2025-01-24 09:29:14.732021	212.9	37.9	-67.0	15.2
2025-01-24 09:29:15.875976	213.2	38.1	-66.5	14.2
2025-01-24 09:29:17.026420	213.6	38.3	-66.2	14.0
2025-01-24 09:29:18.168380	214.0	38.5	-65.7	13.4
2025-01-24 09:29:19.310339	214.3	38.8	-66.4	14.0
2025-01-24 09:29:20.455291	214.7	39.0	-66.4	14.5
2025-01-24 09:29:21.595255	215.1	39.2	-66.8	14.6
2025-01-24 09:29:22.738212	215.4	39.4	-67.1	13.8
2025-01-24 09:29:23.883182	215.8	39.6	-66.7	14.4
2025-01-24 09:29:25.028134	216.2	39.8	-66.5	14.5
2025-01-24 09:29:26.170109	216.6	40.0	-66.4	13.5
2025-01-24 09:29:27.316057	217.0	40.2	-67.0	14.1
2025-01-24 09:29:28.456022	217.4	40.4	-66.8	14.4
2025-01-24 09:29:29.597981	217.8	40.6	-66.8	13.6
2025-01-24 09:29:30.739449	218.2	40.8	-66.6	13.7
2025-01-24 09:29:31.879921	218.7	41.0	-67.3	15.2
2025-01-24 09:29:33.019886	219.1	41.2	-66.9	14.3
2025-01-24 09:29:34.167873	219.5	41.4	-67.5	15.1
2025-01-24 09:29:35.309833	219.9	41.6	-66.9	14.3
2025-01-24 09:29:36.449797	220.4	41.8	-67.5	15.5
2025-01-24 09:29:37.592756	220.8	42.0	-67.1	14.5
2025-01-24 09:29:38.734713	221.3	42.2	-67.2	14.4
2025-01-24 09:29:39.877671	221.7	42.4	-67.3	13.8
2025-01-24 09:29:41.020627	222.2	42.6	-67.1	14.0
2025-01-24 09:29:42.162587	222.7	42.8	-66.9	13.4
2025-01-24 09:29:43.305543	223.1	43.0	-66.9	13.1
2025-01-24 09:29:44.447015	223.6	43.2	-67.4	13.6
2025-01-24 09:29:45.587977	224.1	43.3	-67.1	13.3
2025-01-24 09:29:46.728939	224.6	43.5	-67.1	12.9
2025-01-24 09:29:47.870898	225.1	43.7	-67.3	12.8
2025-01-24 09:29:49.011860	225.6	43.9	-67.2	12.5
2025-01-24 09:29:50.154817	226.1	44.1	-67.2	12.1
2025-01-24 09:29:51.295288	226.6	44.3	-67.8	13.3
2025-01-24 09:29:52.437248	227.1	44.5	-67.3	11.8
2025-01-24 09:29:53.578209	227.6	44.6	-66.8	11.0
2025-01-24 09:29:54.721166	228.2	44.8	-66.8	11.2
2025-01-24 09:29:55.862128	228.7	45.0	-67.2	11.1
2025-01-24 09:29:57.005085	229.2	45.2	-66.8	11.1
2025-01-24 09:29:58.146556	229.8	45.3	-66.9	10.3
2025-01-24 09:29:59.290511	230.3	45.5	-67.1	10.6
2025-01-24 09:30:00.437456	230.9	45.7	-66.6	10.8
2025-01-24 09:30:01.579416	231.5	45.8	-66.9	11.0
2025-01-24 09:30:02.719381	232.0	46.0	-66.5	10.7
2025-01-24 09:30:03.865329	232.6	46.2	-66.4	10.0
2025-01-24 09:30:05.008792	233.2	46.3	-66.1	9.8
2025-01-24 09:30:06.152747	233.8	46.5	-66.3	10.0
2025-01-24 09:30:07.297698	234.4	46.6	-65.9	9.6
2025-01-24 09:30:08.439167	235.0	46.8	-65.8	9.6
2025-01-24 09:30:09.581127	235.6	46.9	-65.4	9.6
2025-01-24 09:30:10.725081	236.2	47.1	-65.9	10.5
2025-01-24 09:30:11.867041	236.8	47.2	-65.5	9.4
2025-01-24 09:30:13.008002	237.4	47.4	-65.7	10.0
2025-01-24 09:30:14.150959	238.1	47.5	-65.8	10.1
2025-01-24 09:30:15.291921	238.7	47.6	-65.8	8.8
2025-01-24 09:30:16.433881	239.3	47.8	-65.8	9.9
2025-01-24 09:30:17.574842	240.0	47.9	-65.7	8.2
2025-01-24 09:30:18.716316	240.6	48.0	-66.0	10.3
2025-01-24 09:30:19.857278	241.3	48.1	-65.7	9.4
2025-01-24 09:30:20.999237	241.9	48.2	-65.5	8.9
2025-01-24 09:30:22.139226	242.6	48.3	-65.9	8.9
2025-01-24 09:30:23.284177	243.3	48.5	-66.9	9.8
2025-01-24 09:30:24.428132	243.9	48.6	-65.6	8.3
2025-01-24 09:30:25.570090	244.6	48.7	-65.8	8.1
2025-01-24 09:30:26.711562	245.3	48.8	-65.6	7.8
2025-01-24 09:30:27.853521	246.0	48.8	-66.2	9.3
2025-01-24 09:30:28.996478	246.7	48.9	-66.0	7.8
2025-01-24 09:30:30.141431	247.4	49.0	-67.1	9.8
2025-01-24 09:30:31.282392	248.1	49.1	-66.7	8.7
2025-01-24 09:30:32.424858	248.8	49.2	-65.0	7.1
2025-01-24 09:30:33.565819	249.5	49.2	-66.4	9.2
2025-01-24 09:30:34.707779	250.2	49.3	-67.3	11.1
2025-01-24 09:30:35.848251	250.9	49.4	-65.6	8.5
2025-01-24 09:30:36.990210	251.6	49.4	-65.1	6.7
2025-01-24 09:30:38.132169	252.3	49.5	-65.8	8.9
2025-01-24 09:30:39.278118	253.0	49.5	-65.5	7.0
2025-01-24 09:30:40.420078	253.7	49.6	-65.7	6.6
2025-01-24 09:30:41.560042	254.5	49.6	-64.6	6.1
2025-01-24 09:30:42.702002	255.2	49.6	-65.2	5.5
2025-01-24 09:30:43.844958	255.9	49.7	-64.6	5.8
2025-01-24 09:30:44.986429	256.6	49.7	-64.9	6.0
2025-01-24 09:30:46.132377	257.4	49.7	-64.8	6.5
2025-01-24 09:30:47.272342	258.1	49.7	-64.4	4.8
2025-01-24 09:30:48.415300	258.8	49.7	-64.6	3.8
2025-01-24 09:30:49.559253	259.5	49.7	-65.5	5.6
2025-01-24 09:30:50.700215	260.3	49.7	-64.6	5.3
2025-01-24 09:30:51.841178	261.0	49.7	-64.9	3.4
2025-01-24 09:30:52.987126	261.7	49.7	-65.6	6.2
2025-01-24 09:30:54.128088	262.4	49.7	-65.4	7.0
2025-01-24 09:30:55.268053	263.2	49.7	-65.8	7.1
2025-01-24 09:30:56.409035	263.9	49.6	-65.0	5.5
2025-01-24 09:30:57.550993	264.6	49.6	-64.7	5.8
2025-01-24 09:30:58.693958	265.3	49.6	-66.5	8.5
2025-01-24 09:30:59.834912	266.1	49.5	-65.0	6.6
2025-01-24 09:31:00.976871	266.8	49.5	-65.7	6.3
2025-01-24 09:31:02.117834	267.5	49.5	-65.1	6.9
2025-01-24 09:31:03.259793	268.2	49.4	-65.2	7.0
2025-01-24 09:31:04.399758	268.9	49.3	-65.4	8.2
2025-01-24 09:31:05.541717	269.6	49.3	-65.8	7.7
2025-01-24 09:31:06.683193	270.3	49.2	-66.5	10.8
2025-01-24 09:31:07.824155	271.0	49.1	-65.8	7.7
2025-01-24 09:31:08.966115	271.7	49.1	-67.0	11.8
2025-01-24 09:31:10.109578	272.4	49.0	-65.9	7.4
2025-01-24 09:31:11.251538	273.1	48.9	-65.8	7.6
2025-01-24 09:31:12.395491	273.8	48.8	-65.7	8.1
2025-01-24 09:31:13.537451	274.5	48.7	-65.8	7.5
2025-01-24 09:31:14.677415	275.2	48.6	-65.8	6.9
2025-01-24 09:31:15.819375	275.8	48.5	-66.0	6.5
2025-01-24 09:31:16.959340	276.5	48.4	-66.2	8.1
2025-01-24 09:31:18.107283	277.2	48.3	-66.2	7.2
2025-01-24 09:31:19.249242	277.8	48.2	-66.2	8.2
2025-01-24 09:31:20.392708	278.5	48.1	-67.0	8.1
2025-01-24 09:31:21.537659	279.1	48.0	-66.2	8.3
2025-01-24 09:31:22.679618	279.8	47.9	-66.2	8.8
2025-01-24 09:31:23.821087	280.4	47.7	-66.3	8.0
2025-01-24 09:31:24.962050	281.1	47.6	-66.2	7.8
2025-01-24 09:31:26.103014	281.7	47.5	-65.8	8.0
2025-01-24 09:31:27.244971	282.3	47.3	-65.3	8.5
2025-01-24 09:31:28.385447	282.9	47.2	-65.4	7.7
2025-01-24 09:31:29.529402	283.6	47.0	-64.7	8.6
2025-01-24 09:31:30.670363	284.2	46.9	-65.0	7.2
2025-01-24 09:31:31.815824	284.8	46.8	-65.1	7.8
2025-01-24 09:31:32.957783	285.4	46.6	-64.2	7.9
2025-01-24 09:31:34.101737	286.0	46.4	-64.0	8.7
2025-01-24 09:31:35.244202	286.5	46.3	-64.3	7.6
2025-01-24 09:31:36.386162	287.1	46.1	-64.6	9.7
2025-01-24 09:31:37.528121	287.7	46.0	-63.2	6.7
2025-01-24 09:31:38.669591	288.3	45.8	-64.8	10.1
2025-01-24 09:31:39.810553	288.8	45.6	-64.8	11.0
2025-01-24 09:31:40.953510	289.4	45.5	-64.2	6.2
2025-01-24 09:31:42.093984	289.9	45.3	-64.5	8.2
2025-01-24 09:31:43.235455	290.5	45.1	-64.5	8.9
2025-01-24 09:31:44.376417	291.0	45.0	-64.6	8.6
2025-01-24 09:31:45.517400	291.6	44.8	-62.6	5.3
2025-01-24 09:31:46.659866	292.1	44.6	-65.2	10.5
2025-01-24 09:31:47.801825	292.6	44.4	-63.2	6.5
2025-01-24 09:31:48.942787	293.1	44.2	-62.6	5.9
2025-01-24 09:31:50.084746	293.6	44.1	-62.8	6.1
2025-01-24 09:31:51.225708	294.1	43.9	-62.0	6.1
2025-01-24 09:31:52.367177	294.6	43.7	-63.2	7.2
2025-01-24 09:31:53.509137	295.1	43.5	-62.4	6.8
2025-01-24 09:31:54.650099	295.6	43.3	-62.9	6.7
2025-01-24 09:31:55.791061	296.1	43.1	-63.0	6.3
2025-01-24 09:31:56.934018	296.6	42.9	-63.6	7.1
2025-01-24 09:31:58.076974	297.0	42.7	-64.3	9.8
2025-01-24 09:31:59.219931	297.5	42.5	-64.6	11.5
2025-01-24 09:32:00.362888	298.0	42.3	-64.2	7.8
2025-01-24 09:32:01.507840	298.4	42.2	-63.7	9.0
2025-01-24 09:32:02.650306	298.9	42.0	-65.6	10.8
2025-01-24 09:32:03.792265	299.3	41.8	-65.8	10.1
2025-01-24 09:32:04.931232	299.7	41.6	-65.6	10.5
2025-01-24 09:32:06.073700	300.2	41.4	-64.4	9.2
2025-01-24 09:32:07.215658	300.6	41.2	-66.2	11.0
2025-01-24 09:32:08.356621	301.0	41.0	-65.4	6.9
2025-01-24 09:32:09.503079	301.4	40.8	-64.9	10.8
2025-01-24 09:32:10.644038	301.8	40.6	-64.3	8.8
2025-01-24 09:32:11.787992	302.3	40.4	-64.2	7.5
2025-01-24 09:32:12.928954	302.7	40.2	-64.4	8.1
2025-01-24 09:32:14.070913	303.1	40.0	-63.8	7.0
2025-01-24 09:32:15.211875	303.4	39.8	-65.0	9.2
2025-01-24 09:32:16.352349	303.8	39.5	-64.5	10.5
2025-01-24 09:32:17.493815	304.2	39.3	-63.5	9.1
2025-01-24 09:32:18.636280	304.6	39.1	-64.0	9.1
2025-01-24 09:32:19.777242	305.0	38.9	-64.4	7.9
2025-01-24 09:32:20.920708	305.3	38.7	-63.8	8.3
2025-01-24 09:32:22.064662	305.7	38.5	-63.3	6.7
2025-01-24 09:32:23.206622	306.1	38.3	-64.8	11.5
2025-01-24 09:32:24.351573	306.4	38.1	-64.7	11.7
2025-01-24 09:32:25.494530	306.8	37.9	-64.3	9.9
2025-01-24 09:32:26.635492	307.1	37.7	-65.5	12.5
2025-01-24 09:32:27.778449	307.4	37.5	-65.6	13.0
2025-01-24 09:32:28.920408	307.8	37.3	-64.1	9.0
2025-01-24 09:32:30.061370	308.1	37.1	-64.1	8.8
2025-01-24 09:32:31.205324	308.4	36.9	-64.3	10.2
2025-01-24 09:32:32.347283	308.8	36.7	-64.3	10.2
2025-01-24 09:32:33.489244	309.1	36.5	-63.9	9.1
2025-01-24 09:32:34.632706	309.4	36.3	-64.3	9.0
2025-01-24 09:32:35.772672	309.7	36.1	-65.2	11.1
2025-01-24 09:32:36.915138	310.0	35.9	-64.7	9.6
2025-01-24 09:32:38.057098	310.3	35.7	-64.1	9.0
2025-01-24 09:32:39.202051	310.6	35.5	-64.3	10.3
2025-01-24 09:32:40.344008	310.9	35.3	-64.0	9.0
2025-01-24 09:32:41.484971	311.2	35.1	-64.2	10.0
2025-01-24 09:32:42.625932	311.5	34.9	-63.8	10.6
2025-01-24 09:32:43.768889	311.8	34.7	-63.9	10.3
2025-01-24 09:32:44.909367	312.1	34.5	-64.0	10.0
2025-01-24 09:32:46.052322	312.4	34.3	-63.5	8.7
2025-01-24 09:32:47.195281	312.7	34.1	-64.6	10.9
2025-01-24 09:32:48.336241	312.9	33.9	-64.3	9.5
2025-01-24 09:32:49.479198	313.2	33.7	-64.8	9.7
2025-01-24 09:32:50.622154	313.5	33.5	-65.0	10.7
2025-01-24 09:32:51.763125	313.7	33.3	-64.3	7.9
2025-01-24 09:32:52.904587	314.0	33.1	-65.6	10.5
2025-01-24 09:32:54.046546	314.3	32.9	-65.6	11.3
2025-01-24 09:32:55.187027	314.5	32.7	-65.8	11.7
2025-01-24 09:32:56.328987	314.8	32.5	-65.3	13.9
2025-01-24 09:32:57.469948	315.0	32.3	-64.5	10.2
2025-01-24 09:32:58.609913	315.3	32.2	-64.9	10.1
2025-01-24 09:32:59.752870	315.5	32.0	-65.1	11.6
2025-01-24 09:33:00.895827	315.8	31.8	-66.1	12.7
2025-01-24 09:33:02.038783	316.0	31.6	-66.2	12.2
2025-01-24 09:33:03.179745	316.2	31.4	-65.1	12.3
2025-01-24 09:33:04.322211	316.5	31.2	-66.1	12.8
2025-01-24 09:33:05.465676	316.7	31.0	-65.8	12.2
2025-01-24 09:33:06.609630	316.9	30.8	-65.8	9.4
2025-01-24 09:33:07.750592	317.2	30.7	-65.3	8.8
2025-01-24 09:33:08.892064	317.4	30.5	-64.6	8.4
2025-01-24 09:33:10.032535	317.6	30.3	-64.3	8.2
2025-01-24 09:33:11.175492	317.8	30.1	-63.2	5.6
2025-01-24 09:33:12.318955	318.0	29.9	-63.8	0.0
#Closed at: 2025-01-24 09:28:23.551211