passes_logs/2025/01/24/Planum_Noyabrsk/Planum_Noyabrsk__20250124_154928_NOAA_18_rec.log

#Pass ID: 20250124_154928_NOAA 18
#Satellite: NOAA 18
#Configuration: NOAA 18
#Start time: 2025-01-24 15:49:33.486647

#LorettStation: 1.0.0 05.05.2024
#Station: Planum_Noyabrsk
#Location: 75.446886 lon 63.207202 lat
#TLE: 1 28654U 05018A   25023.44479656  .00000508  00000+0  29298-3 0  9991
#TLE: 2 28654  98.8554 104.4149 0014735 155.7759 204.4109 14.13495207 14379

#Time	Az	El	Level	SNR
2025-01-24 15:49:45.740428	123.6	32.2	-51.4	0.0
2025-01-24 15:49:46.880391	123.5	32.4	-50.9	0.0
2025-01-24 15:49:48.023348	123.3	32.6	-51.0	0.0
2025-01-24 15:49:49.164308	123.1	32.8	-52.5	0.0
2025-01-24 15:49:50.308260	122.9	33.0	-53.1	0.0
2025-01-24 15:49:51.449222	122.7	33.2	-54.0	0.0
2025-01-24 15:49:52.591179	122.6	33.4	-52.4	0.0
2025-01-24 15:49:53.735133	122.4	33.7	-50.9	0.0
2025-01-24 15:49:54.876093	122.2	33.9	-53.9	0.0
2025-01-24 15:49:56.019048	122.0	34.1	-52.0	0.0
2025-01-24 15:49:57.160009	121.8	34.3	-52.6	0.0
2025-01-24 15:49:58.302964	121.6	34.5	-48.7	0.0
2025-01-24 15:49:59.447424	121.4	34.8	-52.2	0.0
2025-01-24 15:50:00.588385	121.2	35.0	-50.7	0.0
2025-01-24 15:50:01.730343	121.0	35.2	-52.3	0.0
2025-01-24 15:50:02.871304	120.8	35.4	-50.0	0.0
2025-01-24 15:50:04.013261	120.5	35.7	-56.1	0.0
2025-01-24 15:50:05.154222	120.3	35.9	-53.0	0.0
2025-01-24 15:50:06.295690	120.1	36.1	-54.6	0.0
2025-01-24 15:50:07.437647	119.9	36.3	-52.3	0.0
2025-01-24 15:50:08.579605	119.7	36.6	-49.5	0.0
2025-01-24 15:50:09.725553	119.4	36.8	-49.3	0.0
2025-01-24 15:50:10.866514	119.2	37.0	-49.2	0.0
2025-01-24 15:50:12.008471	119.0	37.3	-51.5	0.0
2025-01-24 15:50:13.149432	118.7	37.5	-56.3	0.0
2025-01-24 15:50:14.296377	118.5	37.7	-53.1	0.0
2025-01-24 15:50:15.438335	118.2	38.0	-51.8	0.0
2025-01-24 15:50:16.580293	118.0	38.2	-55.2	0.0
2025-01-24 15:50:17.725243	117.7	38.5	-54.2	0.0
2025-01-24 15:50:18.868198	117.5	38.7	-49.2	0.0
2025-01-24 15:50:20.008668	117.2	38.9	-51.8	0.0
2025-01-24 15:50:21.151133	116.9	39.2	-54.6	0.0
2025-01-24 15:50:22.294088	116.7	39.4	-54.2	0.0
2025-01-24 15:50:23.437043	116.4	39.7	-51.4	0.0
2025-01-24 15:50:24.579002	116.1	39.9	-55.7	0.0
2025-01-24 15:50:25.724949	115.8	40.2	-50.4	0.0
2025-01-24 15:50:26.866907	115.5	40.4	-54.1	0.0
2025-01-24 15:50:28.010859	115.3	40.7	-55.3	0.0
2025-01-24 15:50:29.150823	115.0	40.9	-53.4	0.0
2025-01-24 15:50:30.292293	114.7	41.2	-51.6	0.0
2025-01-24 15:50:31.438242	114.3	41.4	-51.7	0.0
2025-01-24 15:50:32.579201	114.0	41.7	-50.8	0.0
2025-01-24 15:50:33.722157	113.7	41.9	-53.6	0.0
2025-01-24 15:50:34.864114	113.4	42.2	-52.9	0.0
2025-01-24 15:50:36.006072	113.1	42.4	-51.8	0.0
2025-01-24 15:50:37.148031	112.7	42.7	-55.3	0.0
2025-01-24 15:50:38.295973	112.4	42.9	-55.0	0.0
2025-01-24 15:50:39.436933	112.1	43.2	-52.2	0.0
2025-01-24 15:50:40.579890	111.7	43.4	-55.7	0.0
2025-01-24 15:50:41.723352	111.4	43.7	-56.6	0.0
2025-01-24 15:50:42.865309	111.0	43.9	-51.0	0.0
2025-01-24 15:50:44.006269	110.6	44.2	-50.4	0.0
2025-01-24 15:50:45.149225	110.3	44.5	-51.2	0.0
2025-01-24 15:50:46.290186	109.9	44.7	-50.4	0.0
2025-01-24 15:50:47.431146	109.5	45.0	-50.0	0.0
2025-01-24 15:50:48.571619	109.1	45.2	-53.4	0.0
2025-01-24 15:50:49.713577	108.7	45.5	-55.4	0.0
2025-01-24 15:50:50.855535	108.3	45.8	-51.0	0.0
2025-01-24 15:50:51.998997	107.9	46.0	-53.3	0.0
2025-01-24 15:50:53.141952	107.5	46.3	-55.7	0.0
2025-01-24 15:50:54.283910	107.1	46.5	-51.2	0.0
2025-01-24 15:50:55.425869	106.7	46.8	-53.2	0.0
2025-01-24 15:50:56.566829	106.2	47.0	-53.9	0.0
2025-01-24 15:50:57.708787	105.8	47.3	-52.3	0.0
2025-01-24 15:50:58.851252	105.3	47.6	-51.6	0.0
2025-01-24 15:50:59.994207	104.9	47.8	-53.1	0.0
2025-01-24 15:51:01.137163	104.4	48.1	-51.8	0.0
2025-01-24 15:51:02.279627	103.9	48.3	-50.4	0.0
2025-01-24 15:51:03.421586	103.5	48.6	-51.6	0.0
2025-01-24 15:51:04.562546	103.0	48.8	-54.1	0.0
2025-01-24 15:51:05.707006	102.5	49.1	-55.0	0.0
2025-01-24 15:51:06.850958	102.0	49.3	-50.6	0.0
2025-01-24 15:51:07.993916	101.4	49.6	-52.9	0.0
2025-01-24 15:51:09.137866	100.9	49.8	-53.9	0.0
2025-01-24 15:51:10.280822	100.4	50.1	-55.2	0.0
2025-01-24 15:51:11.420784	99.8	50.3	-53.1	0.0
2025-01-24 15:51:12.564738	99.3	50.6	-53.5	0.0
2025-01-24 15:51:13.706695	98.7	50.8	-50.2	0.0
2025-01-24 15:51:14.850648	98.2	51.1	-47.4	0.0
2025-01-24 15:51:15.993113	97.6	51.3	-49.0	0.0
2025-01-24 15:51:17.136069	97.0	51.6	-51.4	0.0
2025-01-24 15:51:18.278026	96.4	51.8	-50.7	0.0
2025-01-24 15:51:19.421979	95.8	52.0	-50.9	0.0
2025-01-24 15:51:20.562940	95.2	52.3	-50.9	0.0
2025-01-24 15:51:21.705895	94.6	52.5	-49.5	0.0
2025-01-24 15:51:22.849848	93.9	52.7	-50.1	0.0
2025-01-24 15:51:23.994798	93.3	52.9	-48.3	0.0
2025-01-24 15:51:25.139749	92.6	53.2	-48.7	0.0
2025-01-24 15:51:26.284207	92.0	53.4	-50.7	0.0
2025-01-24 15:51:27.428160	91.3	53.6	-50.2	0.0
2025-01-24 15:51:28.570118	90.6	53.8	-50.1	0.0
2025-01-24 15:51:29.711585	89.9	54.0	-51.2	0.0
2025-01-24 15:51:30.854051	89.2	54.2	-49.9	0.0
2025-01-24 15:51:31.997006	88.5	54.4	-50.7	0.0
2025-01-24 15:51:33.139977	87.7	54.6	-51.3	0.0
2025-01-24 15:51:34.281934	87.0	54.8	-49.8	0.0
2025-01-24 15:51:35.424890	86.3	55.0	-49.7	0.0
2025-01-24 15:51:36.565868	85.5	55.2	-50.7	0.0
2025-01-24 15:51:37.707826	84.7	55.4	-48.1	0.0
2025-01-24 15:51:38.848787	84.0	55.6	-49.8	0.0
2025-01-24 15:51:39.990745	83.2	55.7	-50.5	0.0
2025-01-24 15:51:41.132704	82.4	55.9	-52.1	0.0
2025-01-24 15:51:42.274170	81.6	56.1	-51.3	0.0
2025-01-24 15:51:43.419626	80.8	56.2	-58.1	0.0
2025-01-24 15:51:44.561584	79.9	56.4	-58.8	1.7
2025-01-24 15:51:45.703542	79.1	56.5	-52.4	0.0
2025-01-24 15:51:46.847497	78.3	56.7	-54.6	0.0
2025-01-24 15:51:47.990450	77.4	56.8	-56.6	0.0
2025-01-24 15:51:49.131411	76.6	56.9	-58.0	0.0
2025-01-24 15:51:50.272900	75.7	57.1	-53.1	0.0
2025-01-24 15:51:51.421840	74.8	57.2	-56.4	0.0
2025-01-24 15:51:52.562800	73.9	57.3	-55.2	0.0
2025-01-24 15:51:53.703761	73.0	57.4	-58.8	0.0
2025-01-24 15:51:54.846716	72.2	57.5	-57.7	0.0
2025-01-24 15:51:55.990670	71.2	57.6	-59.7	0.0
2025-01-24 15:51:57.131630	70.3	57.7	-57.2	0.0
2025-01-24 15:51:58.273588	69.4	57.8	-54.1	0.0
2025-01-24 15:51:59.415546	68.5	57.8	-56.5	0.0
2025-01-24 15:52:00.557519	67.6	57.9	-60.1	0.0
2025-01-24 15:52:01.696992	66.7	58.0	-57.7	0.0
2025-01-24 15:52:02.839948	65.7	58.0	-57.6	0.0
2025-01-24 15:52:03.981906	64.8	58.1	-58.5	0.2
2025-01-24 15:52:05.123864	63.9	58.1	-60.2	4.9
2025-01-24 15:52:06.264825	62.9	58.1	-59.8	5.1
2025-01-24 15:52:07.410772	62.0	58.1	-60.7	3.6
2025-01-24 15:52:08.551733	61.0	58.2	-60.6	7.0
2025-01-24 15:52:09.692693	60.1	58.2	-62.3	6.1
2025-01-24 15:52:10.835649	59.1	58.2	-59.2	3.1
2025-01-24 15:52:11.975121	58.2	58.2	-59.9	4.6
2025-01-24 15:52:13.120078	57.3	58.2	-61.9	7.8
2025-01-24 15:52:14.262031	56.3	58.1	-61.7	7.2
2025-01-24 15:52:15.405491	55.4	58.1	-58.9	0.0
2025-01-24 15:52:16.548447	54.4	58.1	-60.8	6.3
2025-01-24 15:52:17.690405	53.5	58.0	-61.2	7.6
2025-01-24 15:52:18.831365	52.6	58.0	-62.4	8.0
2025-01-24 15:52:19.974321	51.6	57.9	-60.7	5.3
2025-01-24 15:52:21.116279	50.7	57.9	-61.3	6.3
2025-01-24 15:52:22.264221	49.8	57.8	-60.0	2.6
2025-01-24 15:52:23.407180	48.9	57.7	-60.7	3.8
2025-01-24 15:52:24.547139	48.0	57.6	-60.0	4.7
2025-01-24 15:52:25.690601	47.1	57.5	-60.9	4.8
2025-01-24 15:52:26.830564	46.2	57.4	-60.0	1.8
2025-01-24 15:52:27.972522	45.3	57.3	-59.4	5.7
2025-01-24 15:52:29.117979	44.4	57.2	-59.6	0.9
2025-01-24 15:52:30.260933	43.5	57.1	-60.1	4.8
2025-01-24 15:52:31.403889	42.6	57.0	-60.3	5.2
2025-01-24 15:52:32.544361	41.8	56.8	-60.3	5.2
2025-01-24 15:52:33.687317	40.9	56.7	-59.3	2.9
2025-01-24 15:52:34.832267	40.1	56.6	-62.3	8.3
2025-01-24 15:52:35.971743	39.3	56.4	-59.3	2.7
2025-01-24 15:52:37.114701	38.4	56.3	-60.9	5.4
2025-01-24 15:52:38.255660	37.6	56.1	-60.6	5.3
2025-01-24 15:52:39.398636	36.8	56.0	-59.3	1.4
2025-01-24 15:52:40.542588	36.0	55.8	-62.0	3.9
2025-01-24 15:52:41.683549	35.2	55.6	-60.9	5.3
2025-01-24 15:52:42.826521	34.4	55.4	-61.1	4.2
2025-01-24 15:52:43.968479	33.7	55.3	-60.2	1.0
2025-01-24 15:52:45.109440	32.9	55.1	-59.3	2.3
2025-01-24 15:52:46.250400	32.2	54.9	-62.1	3.6
2025-01-24 15:52:47.397345	31.4	54.7	-60.5	5.4
2025-01-24 15:52:48.542295	30.7	54.5	-59.8	3.1
2025-01-24 15:52:49.683764	30.0	54.3	-59.6	4.3
2025-01-24 15:52:50.825723	29.3	54.1	-60.6	3.4
2025-01-24 15:52:51.969675	28.6	53.9	-61.4	5.9
2025-01-24 15:52:53.112144	27.9	53.7	-62.1	6.9
2025-01-24 15:52:54.255100	27.2	53.4	-61.0	6.1
2025-01-24 15:52:55.399052	26.5	53.2	-60.4	3.6
2025-01-24 15:52:56.540521	25.9	53.0	-61.1	5.3
2025-01-24 15:52:57.681482	25.2	52.8	-61.3	6.2
2025-01-24 15:52:58.822442	24.6	52.5	-61.8	6.9
2025-01-24 15:52:59.965398	24.0	52.3	-60.8	6.2
2025-01-24 15:53:01.107356	23.4	52.1	-61.7	6.7
2025-01-24 15:53:02.253303	22.7	51.8	-60.8	5.9
2025-01-24 15:53:03.394264	22.1	51.6	-61.6	5.7
2025-01-24 15:53:04.535225	21.6	51.4	-61.5	6.7
2025-01-24 15:53:05.676701	21.0	51.1	-61.9	6.7
2025-01-24 15:53:06.818168	20.4	50.9	-62.0	8.2
2025-01-24 15:53:07.960125	19.8	50.6	-61.5	5.7
2025-01-24 15:53:09.101086	19.3	50.4	-61.9	6.2
2025-01-24 15:53:10.243553	18.8	50.2	-62.3	6.4
2025-01-24 15:53:11.384022	18.2	49.9	-61.8	7.0
2025-01-24 15:53:12.525980	17.7	49.7	-61.8	7.3
2025-01-24 15:53:13.667448	17.2	49.4	-61.3	7.3
2025-01-24 15:53:14.808921	16.7	49.2	-62.1	7.4
2025-01-24 15:53:15.949882	16.2	48.9	-62.3	8.8
2025-01-24 15:53:17.092348	15.7	48.6	-61.7	6.8
2025-01-24 15:53:18.233308	15.2	48.4	-61.6	6.8
2025-01-24 15:53:19.375267	14.7	48.1	-62.8	9.3
2025-01-24 15:53:20.517224	14.3	47.9	-61.8	6.6
2025-01-24 15:53:21.664169	13.8	47.6	-61.7	6.0
2025-01-24 15:53:22.806126	13.3	47.4	-62.0	5.6
2025-01-24 15:53:23.950080	12.9	47.1	-62.7	8.1
2025-01-24 15:53:25.090552	12.5	46.8	-62.9	6.9
2025-01-24 15:53:26.233508	12.0	46.6	-62.7	10.8
2025-01-24 15:53:27.374468	11.6	46.3	-62.7	7.2
2025-01-24 15:53:28.516941	11.2	46.1	-63.1	8.4
2025-01-24 15:53:29.657901	10.8	45.8	-63.0	7.5
2025-01-24 15:53:30.800857	10.4	45.6	-62.7	6.8
2025-01-24 15:53:31.940332	10.0	45.3	-63.4	8.1
2025-01-24 15:53:33.085283	9.6	45.0	-63.4	8.5
2025-01-24 15:53:34.227241	9.2	44.8	-62.3	6.0
2025-01-24 15:53:35.369705	8.8	44.5	-63.0	5.7
2025-01-24 15:53:36.511662	8.5	44.3	-63.5	8.4
2025-01-24 15:53:37.652623	8.1	44.0	-63.4	8.5
2025-01-24 15:53:38.794092	7.7	43.7	-62.9	7.8
2025-01-24 15:53:39.935053	7.4	43.5	-63.0	7.6
2025-01-24 15:53:41.078009	7.0	43.2	-62.7	6.9
2025-01-24 15:53:42.218480	6.7	43.0	-63.2	8.6
2025-01-24 15:53:43.359442	6.4	42.7	-63.1	8.7
2025-01-24 15:53:44.501398	6.0	42.5	-62.4	7.4
2025-01-24 15:53:45.646855	5.7	42.2	-62.8	7.4
2025-01-24 15:53:46.789811	5.4	42.0	-62.2	6.7
2025-01-24 15:53:47.930772	5.1	41.7	-62.5	6.6
2025-01-24 15:53:49.073237	4.7	41.5	-63.1	8.2
2025-01-24 15:53:50.215195	4.4	41.2	-62.9	7.1
2025-01-24 15:53:51.357153	4.1	41.0	-62.3	5.4
2025-01-24 15:53:52.502609	3.8	40.7	-62.6	7.1
2025-01-24 15:53:53.643570	3.5	40.5	-63.0	7.1
2025-01-24 15:53:54.785037	3.3	40.2	-64.3	7.4
2025-01-24 15:53:55.925506	3.0	40.0	-63.6	7.6
2025-01-24 15:53:57.067465	2.7	39.7	-62.7	5.3
2025-01-24 15:53:58.209422	2.4	39.5	-63.2	8.2
2025-01-24 15:53:59.351380	2.2	39.2	-63.0	8.2
2025-01-24 15:54:00.491344	1.9	39.0	-63.1	7.5
2025-01-24 15:54:01.632305	1.6	38.8	-63.4	8.0
2025-01-24 15:54:02.772774	1.4	38.5	-62.1	5.9
2025-01-24 15:54:03.914732	1.1	38.3	-62.6	7.4
2025-01-24 15:54:05.057687	0.9	38.0	-62.8	6.5
2025-01-24 15:54:06.199645	0.6	37.8	-62.8	6.7
2025-01-24 15:54:07.340606	0.4	37.6	-63.1	7.9
2025-01-24 15:54:08.483561	0.1	37.3	-63.1	6.9
2025-01-24 15:54:09.625519	359.9	37.1	-62.2	5.5
2025-01-24 15:54:10.766480	359.7	36.9	-61.7	4.0
2025-01-24 15:54:11.909439	359.4	36.6	-62.5	6.0
2025-01-24 15:54:13.051393	359.2	36.4	-63.1	7.5
2025-01-24 15:54:14.194349	359.0	36.2	-61.9	4.3
2025-01-24 15:54:15.335309	358.8	35.9	-62.1	6.1
2025-01-24 15:54:16.478265	358.5	35.7	-62.5	6.9
2025-01-24 15:54:17.620223	358.3	35.5	-61.8	5.0
2025-01-24 15:54:18.764176	358.1	35.3	-63.5	5.4
2025-01-24 15:54:19.907130	357.9	35.0	-62.9	5.9
2025-01-24 15:54:21.055072	357.7	34.8	-62.3	5.8
2025-01-24 15:54:22.198029	357.5	34.6	-62.2	3.5
2025-01-24 15:54:23.338989	357.3	34.4	-62.5	4.6
2025-01-24 15:54:24.483939	357.1	34.1	-61.4	3.2
2025-01-24 15:54:25.624410	356.9	33.9	-61.4	3.6
2025-01-24 15:54:26.767366	356.7	33.7	-61.6	2.8
2025-01-24 15:54:27.907835	356.5	33.5	-60.8	1.7
2025-01-24 15:54:29.050790	356.3	33.3	-61.2	3.6
2025-01-24 15:54:30.195740	356.1	33.1	-61.1	0.5
2025-01-24 15:54:31.337699	356.0	32.8	-61.2	2.4
2025-01-24 15:54:32.479656	355.8	32.6	-61.5	2.3
2025-01-24 15:54:33.621615	355.6	32.4	-60.8	0.5
2025-01-24 15:54:34.765567	355.4	32.2	-60.6	0.5
2025-01-24 15:54:35.909520	355.3	32.0	-61.1	2.2
2025-01-24 15:54:37.050481	355.1	31.8	-61.2	0.5
2025-01-24 15:54:38.191458	354.9	31.6	-60.4	0.0
2025-01-24 15:54:39.330441	354.8	31.4	-60.3	0.9
2025-01-24 15:54:40.473395	354.6	31.2	-60.0	0.0
2025-01-24 15:54:41.617347	354.4	31.0	-59.5	0.0
2025-01-24 15:54:42.759305	354.3	30.8	-59.2	0.0
2025-01-24 15:54:43.902263	354.1	30.6	-60.0	0.3
2025-01-24 15:54:45.045729	354.0	30.4	-59.5	0.0
2025-01-24 15:54:46.186689	353.8	30.2	-63.2	5.0
2025-01-24 15:54:47.326652	353.7	30.0	-63.7	0.0
#Closed at: 2025-01-24 15:49:28.490397