passes_logs/2025/01/24/Planum_Noyabrsk/Planum_Noyabrsk__20250124_052902_NOAA_19_rec.log

#Pass ID: 20250124_052902_NOAA 19
#Satellite: NOAA 19
#Configuration: NOAA 19
#Start time: 2025-01-24 05:29:07.753035

#LorettStation: 1.0.0 05.05.2024
#Station: Planum_Noyabrsk
#Location: 75.446886 lon 63.207202 lat
#TLE: 1 33591U 09005A   25023.49980261  .00000388  00000+0  23131-3 0  9997
#TLE: 2 33591  99.0182  87.3273 0014165  34.5393 325.6696 14.13266787822741

#Time	Az	El	Level	SNR
2025-01-24 05:29:14.483946	27.8	31.3	-52.0	0.0
2025-01-24 05:29:15.624419	27.9	31.5	-55.2	0.0
2025-01-24 05:29:16.765381	28.0	31.7	-53.4	0.0
2025-01-24 05:29:17.908338	28.1	31.9	-53.1	0.0
2025-01-24 05:29:19.047811	28.1	32.2	-53.3	0.0
2025-01-24 05:29:20.189771	28.2	32.4	-53.4	0.0
2025-01-24 05:29:21.332728	28.3	32.6	-53.2	0.0
2025-01-24 05:29:22.476193	28.4	32.8	-51.8	0.0
2025-01-24 05:29:23.618152	28.5	33.1	-51.8	0.0
2025-01-24 05:29:24.759114	28.5	33.3	-51.5	0.0
2025-01-24 05:29:25.900096	28.6	33.5	-52.4	0.0
2025-01-24 05:29:27.043054	28.7	33.8	-52.6	0.0
2025-01-24 05:29:28.185013	28.8	34.0	-51.3	0.0
2025-01-24 05:29:29.326486	28.9	34.3	-52.0	0.0
2025-01-24 05:29:30.467448	29.0	34.5	-52.3	0.0
2025-01-24 05:29:31.610405	29.1	34.7	-52.0	0.0
2025-01-24 05:29:32.754359	29.2	35.0	-53.1	0.0
2025-01-24 05:29:33.896318	29.3	35.2	-52.2	0.0
2025-01-24 05:29:35.038278	29.4	35.5	-52.1	0.0
2025-01-24 05:29:36.178749	29.4	35.7	-52.4	0.0
2025-01-24 05:29:37.325695	29.5	36.0	-52.5	0.0
2025-01-24 05:29:38.466658	29.6	36.2	-52.5	0.0
2025-01-24 05:29:39.607619	29.7	36.5	-52.2	0.0
2025-01-24 05:29:40.750577	29.8	36.8	-52.2	0.0
2025-01-24 05:29:41.892535	29.9	37.0	-53.9	0.0
2025-01-24 05:29:43.034495	30.1	37.3	-55.7	0.0
2025-01-24 05:29:44.174460	30.2	37.6	-57.2	0.0
2025-01-24 05:29:45.316419	30.3	37.8	-55.4	0.0
2025-01-24 05:29:46.458378	30.4	38.1	-53.8	0.0
2025-01-24 05:29:47.603330	30.5	38.4	-54.3	0.0
2025-01-24 05:29:48.747284	30.6	38.6	-54.8	0.0
2025-01-24 05:29:49.889750	30.7	38.9	-54.1	0.0
2025-01-24 05:29:51.033704	30.8	39.2	-55.8	0.0
2025-01-24 05:29:52.175663	31.0	39.5	-54.7	0.0
2025-01-24 05:29:53.317622	31.1	39.8	-52.9	0.0
2025-01-24 05:29:54.459582	31.2	40.0	-55.2	0.0
2025-01-24 05:29:55.602540	31.3	40.3	-54.8	0.0
2025-01-24 05:29:56.744498	31.5	40.6	-54.1	0.0
2025-01-24 05:29:57.885460	31.6	40.9	-54.4	0.0
2025-01-24 05:29:59.028417	31.7	41.2	-53.4	0.0
2025-01-24 05:30:00.169886	31.9	41.5	-53.8	0.0
2025-01-24 05:30:01.312842	32.0	41.8	-53.6	0.0
2025-01-24 05:30:02.454312	32.1	42.1	-53.8	0.0
2025-01-24 05:30:03.597270	32.3	42.4	-54.9	0.0
2025-01-24 05:30:04.740226	32.4	42.7	-56.3	0.0
2025-01-24 05:30:05.883183	32.6	43.0	-54.9	0.0
2025-01-24 05:30:07.025142	32.7	43.3	-55.3	0.0
2025-01-24 05:30:08.167607	32.9	43.6	-56.5	0.0
2025-01-24 05:30:09.310075	33.0	43.9	-57.6	2.1
2025-01-24 05:30:10.453031	33.2	44.2	-55.3	0.0
2025-01-24 05:30:11.595988	33.3	44.6	-56.5	0.1
2025-01-24 05:30:12.737948	33.5	44.9	-59.3	1.7
2025-01-24 05:30:13.879434	33.7	45.2	-56.0	0.0
2025-01-24 05:30:15.020397	33.8	45.5	-56.4	0.0
2025-01-24 05:30:16.162356	34.0	45.9	-56.6	1.3
2025-01-24 05:30:17.303318	34.2	46.2	-55.7	0.0
2025-01-24 05:30:18.445277	34.4	46.5	-56.8	2.0
2025-01-24 05:30:19.588234	34.6	46.8	-57.7	3.3
2025-01-24 05:30:20.731699	34.8	47.2	-57.3	0.3
2025-01-24 05:30:21.874656	34.9	47.5	-57.0	3.1
2025-01-24 05:30:23.015617	35.1	47.9	-58.1	3.4
2025-01-24 05:30:24.156581	35.3	48.2	-57.6	1.8
2025-01-24 05:30:25.297541	35.6	48.6	-57.6	0.9
2025-01-24 05:30:26.440498	35.8	48.9	-58.5	3.2
2025-01-24 05:30:27.581460	36.0	49.2	-59.6	4.7
2025-01-24 05:30:28.722422	36.2	49.6	-58.4	1.7
2025-01-24 05:30:29.865379	36.4	50.0	-59.0	2.7
2025-01-24 05:30:31.005855	36.7	50.3	-58.5	5.7
2025-01-24 05:30:32.145820	36.9	50.7	-58.9	2.6
2025-01-24 05:30:33.287779	37.1	51.0	-59.7	3.9
2025-01-24 05:30:34.431734	37.4	51.4	-60.6	5.8
2025-01-24 05:30:35.572711	37.6	51.8	-59.7	3.8
2025-01-24 05:30:36.715176	37.9	52.1	-59.2	3.4
2025-01-24 05:30:37.855647	38.2	52.5	-59.8	3.1
2025-01-24 05:30:38.999602	38.4	52.9	-59.3	2.3
2025-01-24 05:30:40.140563	38.7	53.3	-58.9	1.8
2025-01-24 05:30:41.283520	39.0	53.6	-58.7	1.5
2025-01-24 05:30:42.425479	39.3	54.0	-58.4	0.9
2025-01-24 05:30:43.567439	39.6	54.4	-59.1	1.2
2025-01-24 05:30:44.713387	39.9	54.8	-59.7	2.7
2025-01-24 05:30:45.854856	40.2	55.2	-59.6	1.3
2025-01-24 05:30:46.996815	40.6	55.5	-59.0	2.9
2025-01-24 05:30:48.137286	40.9	55.9	-59.4	0.0
2025-01-24 05:30:49.285229	41.2	56.3	-57.9	0.0
2025-01-24 05:30:50.428186	41.6	56.7	-58.9	1.4
2025-01-24 05:30:51.571144	42.0	57.1	-59.2	2.3
2025-01-24 05:30:52.712613	42.3	57.5	-58.2	2.5
2025-01-24 05:30:53.857564	42.7	57.9	-57.4	0.0
2025-01-24 05:30:54.998526	43.1	58.3	-58.2	0.0
2025-01-24 05:30:56.139998	43.5	58.7	-56.5	0.0
2025-01-24 05:30:57.281958	44.0	59.1	-57.9	0.0
2025-01-24 05:30:58.422920	44.4	59.5	-57.9	0.8
2025-01-24 05:30:59.565877	44.9	59.9	-57.9	2.3
2025-01-24 05:31:00.708833	45.3	60.3	-58.0	0.3
2025-01-24 05:31:01.849308	45.8	60.7	-57.4	1.8
2025-01-24 05:31:02.995761	46.3	61.1	-56.2	1.0
2025-01-24 05:31:04.138716	46.8	61.5	-57.5	0.0
2025-01-24 05:31:05.280676	47.3	62.0	-59.7	1.7
2025-01-24 05:31:06.425628	47.9	62.4	-56.2	0.0
2025-01-24 05:31:07.566589	48.4	62.8	-56.8	0.3
2025-01-24 05:31:08.710543	49.0	63.2	-56.6	0.0
2025-01-24 05:31:09.851083	49.6	63.6	-57.8	0.0
2025-01-24 05:31:10.993042	50.3	64.0	-56.7	0.0
2025-01-24 05:31:12.134004	50.9	64.4	-56.7	0.0
2025-01-24 05:31:13.276470	51.6	64.8	-59.9	0.0
2025-01-24 05:31:14.417432	52.3	65.2	-58.0	0.0
2025-01-24 05:31:15.559391	53.0	65.6	-57.8	0.0
2025-01-24 05:31:16.700865	53.7	66.0	-58.4	0.0
2025-01-24 05:31:17.844820	54.5	66.4	-56.6	0.0
2025-01-24 05:31:18.989771	55.3	66.8	-55.3	0.0
2025-01-24 05:31:20.131731	56.1	67.2	-55.3	0.0
2025-01-24 05:31:21.274687	57.0	67.6	-55.9	0.0
2025-01-24 05:31:22.418641	57.9	68.0	-55.0	0.0
2025-01-24 05:31:23.561598	58.9	68.4	-55.9	0.0
2025-01-24 05:31:24.702560	59.8	68.8	-57.1	0.0
2025-01-24 05:31:25.846515	60.8	69.2	-54.0	0.0
2025-01-24 05:31:26.988982	61.9	69.5	-54.6	0.0
2025-01-24 05:31:28.131452	63.0	69.9	-57.5	0.0
2025-01-24 05:31:29.276404	64.1	70.3	-54.7	0.0
2025-01-24 05:31:30.417872	65.3	70.6	-55.5	0.0
2025-01-24 05:31:31.559831	66.5	71.0	-56.1	0.0
2025-01-24 05:31:32.702788	67.8	71.3	-56.2	0.0
2025-01-24 05:31:33.848247	69.1	71.7	-56.0	0.0
2025-01-24 05:31:34.992201	70.5	72.0	-58.3	0.0
2025-01-24 05:31:36.137153	71.9	72.3	-55.9	0.0
2025-01-24 05:31:37.278114	73.4	72.6	-55.0	0.0
2025-01-24 05:31:38.420074	75.0	72.9	-57.3	0.0
2025-01-24 05:31:39.561036	76.6	73.2	-56.5	0.0
2025-01-24 05:31:40.702504	78.2	73.5	-57.1	0.0
2025-01-24 05:31:41.843466	79.9	73.7	-60.2	0.0
2025-01-24 05:31:42.986422	81.7	74.0	-57.0	0.0
2025-01-24 05:31:44.127892	83.5	74.2	-58.9	0.0
2025-01-24 05:31:45.268852	85.4	74.4	-60.3	0.0
2025-01-24 05:31:46.412807	87.3	74.6	-60.0	0.0
2025-01-24 05:31:47.555764	89.3	74.8	-59.5	5.5
2025-01-24 05:31:48.697232	91.3	75.0	-58.0	1.7
2025-01-24 05:31:49.839190	93.4	75.1	-57.5	0.0
2025-01-24 05:31:50.981660	95.5	75.3	-60.5	4.7
2025-01-24 05:31:52.123620	97.7	75.4	-62.6	6.4
2025-01-24 05:31:53.265579	99.8	75.5	-59.2	1.0
2025-01-24 05:31:54.407540	102.1	75.5	-57.9	0.0
2025-01-24 05:31:55.550495	104.3	75.6	-60.1	4.3
2025-01-24 05:31:56.693452	106.5	75.6	-62.0	5.1
2025-01-24 05:31:57.838910	108.8	75.6	-61.5	5.8
2025-01-24 05:31:58.980870	111.0	75.6	-61.4	6.4
2025-01-24 05:32:00.126819	113.3	75.6	-58.9	1.9
2025-01-24 05:32:01.268779	115.5	75.5	-59.0	0.8
2025-01-24 05:32:02.410737	117.7	75.4	-60.2	2.7
2025-01-24 05:32:03.553694	119.8	75.3	-61.2	1.7
2025-01-24 05:32:04.709128	122.0	75.2	-60.3	1.3
2025-01-24 05:32:05.851087	124.1	75.1	-60.6	3.6
2025-01-24 05:32:06.993552	126.2	74.9	-61.8	3.7
2025-01-24 05:32:08.139502	128.2	74.7	-60.6	3.1
2025-01-24 05:32:09.280463	130.2	74.6	-61.5	4.2
2025-01-24 05:32:10.422929	132.1	74.4	-61.7	4.9
2025-01-24 05:32:11.568878	133.9	74.1	-61.5	4.7
2025-01-24 05:32:12.712832	135.7	73.9	-61.5	4.8
2025-01-24 05:32:13.856810	137.5	73.6	-62.4	7.3
2025-01-24 05:32:14.999276	139.2	73.4	-62.0	5.7
2025-01-24 05:32:16.140238	140.8	73.1	-61.5	4.8
2025-01-24 05:32:17.281710	142.4	72.8	-61.2	3.4
2025-01-24 05:32:18.422672	143.9	72.5	-61.5	6.0
2025-01-24 05:32:19.565629	145.4	72.2	-61.9	4.9
2025-01-24 05:32:20.709093	146.8	71.9	-63.2	7.4
2025-01-24 05:32:21.853047	148.1	71.5	-62.9	7.4
2025-01-24 05:32:22.995517	149.5	71.2	-62.3	6.8
2025-01-24 05:32:24.135989	150.7	70.9	-63.2	6.0
2025-01-24 05:32:25.277949	151.9	70.5	-62.6	6.5
2025-01-24 05:32:26.419908	153.1	70.1	-62.8	6.7
2025-01-24 05:32:27.559383	154.2	69.8	-63.8	8.7
2025-01-24 05:32:28.700853	155.3	69.4	-64.4	8.8
2025-01-24 05:32:29.843810	156.3	69.0	-64.7	9.5
2025-01-24 05:32:30.988274	157.3	68.6	-63.3	7.6
2025-01-24 05:32:32.129235	158.3	68.3	-63.4	7.0
2025-01-24 05:32:33.272193	159.2	67.9	-63.7	9.1
2025-01-24 05:32:34.413153	160.1	67.5	-64.1	7.6
2025-01-24 05:32:35.557108	160.9	67.1	-63.1	5.9
2025-01-24 05:32:36.698071	161.8	66.7	-63.5	5.2
2025-01-24 05:32:37.841534	162.6	66.3	-63.7	6.7
2025-01-24 05:32:38.984490	163.3	65.9	-64.8	7.5
2025-01-24 05:32:40.126455	164.1	65.5	-64.7	7.6
2025-01-24 05:32:41.270404	164.8	65.1	-66.0	10.7
2025-01-24 05:32:42.412869	165.5	64.7	-64.5	8.8
2025-01-24 05:32:43.555826	166.1	64.3	-64.8	8.1
2025-01-24 05:32:44.697295	166.8	63.9	-65.0	8.6
2025-01-24 05:32:45.839762	167.4	63.4	-64.5	9.2
2025-01-24 05:32:46.982719	168.0	63.0	-64.7	9.8
2025-01-24 05:32:48.123682	168.6	62.6	-65.0	10.7
2025-01-24 05:32:49.268633	169.1	62.2	-64.2	8.5
2025-01-24 05:32:50.410592	169.6	61.8	-65.0	9.9
2025-01-24 05:32:51.552104	170.2	61.4	-66.0	12.3
2025-01-24 05:32:52.693066	170.7	61.0	-65.1	8.7
2025-01-24 05:32:53.836023	171.2	60.6	-66.2	12.1
2025-01-24 05:32:54.975496	171.6	60.2	-65.4	11.8
2025-01-24 05:32:56.117455	172.1	59.8	-65.9	13.6
2025-01-24 05:32:57.257421	172.5	59.4	-66.2	15.4
2025-01-24 05:32:58.398889	173.0	59.0	-65.3	13.0
2025-01-24 05:32:59.540849	173.4	58.6	-65.3	12.6
2025-01-24 05:33:00.681322	173.8	58.2	-65.3	12.8
2025-01-24 05:33:01.824279	174.2	57.8	-65.1	13.1
2025-01-24 05:33:02.963755	174.6	57.4	-65.3	13.2
2025-01-24 05:33:04.106735	175.0	57.0	-65.0	13.4
2025-01-24 05:33:05.247673	175.3	56.6	-65.2	13.4
2025-01-24 05:33:06.389142	175.7	56.2	-65.3	13.7
2025-01-24 05:33:07.530104	176.0	55.8	-64.8	14.4
2025-01-24 05:33:08.672064	176.3	55.4	-65.4	14.5
2025-01-24 05:33:09.813533	176.7	55.0	-65.1	13.6
2025-01-24 05:33:10.955493	177.0	54.6	-65.0	14.0
2025-01-24 05:33:12.102439	177.3	54.3	-64.7	11.4
2025-01-24 05:33:13.243418	177.6	53.9	-64.2	13.1
2025-01-24 05:33:14.384888	177.9	53.5	-64.6	14.4
2025-01-24 05:33:15.525358	178.2	53.1	-64.4	14.4
2025-01-24 05:33:16.667318	178.4	52.7	-65.2	13.0
2025-01-24 05:33:17.809277	178.7	52.4	-65.2	14.6
2025-01-24 05:33:18.950746	179.0	52.0	-65.5	15.7
2025-01-24 05:33:20.090709	179.2	51.6	-65.1	12.0
2025-01-24 05:33:21.233666	179.5	51.3	-65.1	14.1
2025-01-24 05:33:22.374628	179.7	50.9	-65.3	11.5
2025-01-24 05:33:23.522572	180.0	50.5	-65.3	13.5
2025-01-24 05:33:24.663534	180.2	50.2	-65.3	13.6
2025-01-24 05:33:25.806492	180.4	49.8	-65.4	13.8
2025-01-24 05:33:26.947453	180.7	49.5	-65.6	14.0
2025-01-24 05:33:28.091407	180.9	49.1	-65.5	13.4
2025-01-24 05:33:29.231881	181.1	48.8	-65.5	13.1
2025-01-24 05:33:30.375346	181.3	48.4	-65.1	12.5
2025-01-24 05:33:31.517305	181.5	48.1	-65.4	13.2
2025-01-24 05:33:32.660262	181.7	47.7	-65.4	11.7
2025-01-24 05:33:33.799736	181.9	47.4	-65.4	13.4
2025-01-24 05:33:34.942693	182.1	47.1	-65.4	12.1
2025-01-24 05:33:36.084653	182.3	46.7	-65.6	12.1
2025-01-24 05:33:37.227609	182.5	46.4	-65.6	12.4
2025-01-24 05:33:38.371072	182.7	46.1	-65.5	12.3
2025-01-24 05:33:39.515534	182.8	45.7	-65.6	13.0
2025-01-24 05:33:40.661483	183.0	45.4	-65.6	12.2
2025-01-24 05:33:41.804439	183.2	45.1	-65.3	11.6
2025-01-24 05:33:42.948394	183.3	44.8	-65.6	12.1
2025-01-24 05:33:44.089356	183.5	44.4	-65.7	11.5
2025-01-24 05:33:45.230825	183.7	44.1	-65.6	11.6
2025-01-24 05:33:46.372784	183.8	43.8	-65.5	10.4
2025-01-24 05:33:47.514253	184.0	43.5	-65.7	12.3
2025-01-24 05:33:48.654218	184.1	43.2	-65.3	10.4
2025-01-24 05:33:49.795182	184.3	42.9	-66.3	10.7
2025-01-24 05:33:50.938137	184.4	42.6	-65.5	11.8
2025-01-24 05:33:52.079099	184.6	42.3	-65.5	10.3
2025-01-24 05:33:53.220061	184.7	42.0	-65.9	10.8
2025-01-24 05:33:54.361024	184.8	41.7	-65.8	9.9
2025-01-24 05:33:55.502982	185.0	41.4	-65.7	10.2
2025-01-24 05:33:56.645939	185.1	41.1	-65.8	10.3
2025-01-24 05:33:57.792886	185.2	40.8	-65.6	9.1
2025-01-24 05:33:58.935842	185.4	40.5	-65.6	9.4
2025-01-24 05:34:00.082297	185.5	40.2	-65.9	8.2
2025-01-24 05:34:01.223260	185.6	39.9	-65.5	8.1
2025-01-24 05:34:02.368212	185.7	39.6	-66.3	9.1
2025-01-24 05:34:03.508684	185.9	39.4	-65.8	9.2
2025-01-24 05:34:04.652149	186.0	39.1	-66.0	9.9
2025-01-24 05:34:05.793111	186.1	38.8	-65.5	9.8
2025-01-24 05:34:06.935070	186.2	38.5	-65.6	10.8
2025-01-24 05:34:08.078028	186.3	38.3	-65.4	9.0
2025-01-24 05:34:09.221981	186.4	38.0	-65.6	10.6
2025-01-24 05:34:10.364448	186.5	37.7	-66.0	10.8
2025-01-24 05:34:11.510397	186.7	37.5	-66.3	11.5
2025-01-24 05:34:12.652357	186.8	37.2	-66.1	10.7
2025-01-24 05:34:13.793319	186.9	36.9	-66.3	11.8
2025-01-24 05:34:14.935279	187.0	36.7	-66.7	12.0
2025-01-24 05:34:16.075243	187.1	36.4	-67.1	11.9
2025-01-24 05:34:17.218200	187.2	36.1	-66.7	12.2
2025-01-24 05:34:18.359669	187.3	35.9	-66.1	10.9
2025-01-24 05:34:19.507612	187.4	35.6	-67.0	13.2
2025-01-24 05:34:20.646580	187.5	35.4	-66.5	11.7
2025-01-24 05:34:21.788048	187.5	35.1	-66.4	11.5
2025-01-24 05:34:22.933000	187.6	34.9	-66.7	12.1
2025-01-24 05:34:24.075956	187.7	34.6	-67.4	12.5
2025-01-24 05:34:25.222902	187.8	34.4	-67.0	12.5
2025-01-24 05:34:26.364862	187.9	34.2	-66.5	11.7
2025-01-24 05:34:27.505823	188.0	33.9	-67.0	11.5
2025-01-24 05:34:28.648780	188.1	33.7	-66.9	12.0
2025-01-24 05:34:29.790740	188.2	33.4	-66.6	11.8
2025-01-24 05:34:30.934694	188.3	33.2	-67.0	12.0
2025-01-24 05:34:32.076654	188.3	33.0	-67.0	10.9
2025-01-24 05:34:33.219610	188.4	32.7	-66.8	11.5
2025-01-24 05:34:34.361569	188.5	32.5	-66.5	10.6
2025-01-24 05:34:35.512505	188.6	32.3	-67.0	11.7
2025-01-24 05:34:36.654464	188.7	32.1	-67.4	11.9
2025-01-24 05:34:37.794941	188.7	31.8	-67.5	12.7
2025-01-24 05:34:38.940890	188.8	31.6	-67.6	12.3
2025-01-24 05:34:40.083848	188.9	31.4	-67.5	11.3
2025-01-24 05:34:41.225316	189.0	31.2	-67.7	12.2
2025-01-24 05:34:42.366278	189.0	31.0	-67.6	12.1
2025-01-24 05:34:43.507240	189.1	30.7	-67.4	12.1
2025-01-24 05:34:44.649217	189.2	30.5	-67.8	12.0
2025-01-24 05:34:45.790179	189.2	30.3	-68.0	13.6
2025-01-24 05:34:46.931647	189.3	30.1	-68.5	11.3
#Closed at: 2025-01-24 05:29:02.757175