passes_logs/2025/01/24/Planum_Noyabrsk/Planum_Noyabrsk__20250124_071033_NOAA_19_rec.log

#Pass ID: 20250124_071033_NOAA 19
#Satellite: NOAA 19
#Configuration: NOAA 19
#Start time: 2025-01-24 07:10:38.229516

#LorettStation: 1.0.0 05.05.2024
#Station: Planum_Noyabrsk
#Location: 75.446886 lon 63.207202 lat
#TLE: 1 33591U 09005A   25023.49980261  .00000388  00000+0  23131-3 0  9997
#TLE: 2 33591  99.0182  87.3273 0014165  34.5393 325.6696 14.13266787822741

#Time	Az	El	Level	SNR
2025-01-24 07:10:44.414818	345.6	30.7	-53.5	0.0
2025-01-24 07:10:45.557283	345.3	30.8	-54.0	0.0
2025-01-24 07:10:46.699243	345.0	30.9	-52.9	0.0
2025-01-24 07:10:47.841202	344.7	31.1	-53.5	0.0
2025-01-24 07:10:48.984159	344.3	31.2	-52.9	0.0
2025-01-24 07:10:50.127116	344.0	31.3	-52.0	0.0
2025-01-24 07:10:51.268584	343.7	31.4	-52.8	0.0
2025-01-24 07:10:52.411540	343.3	31.6	-51.6	0.0
2025-01-24 07:10:53.552502	343.0	31.7	-52.0	0.0
2025-01-24 07:10:54.694461	342.7	31.8	-50.8	0.0
2025-01-24 07:10:55.836927	342.3	31.9	-52.2	0.0
2025-01-24 07:10:56.983873	342.0	32.0	-52.6	0.0
2025-01-24 07:10:58.125832	341.6	32.2	-51.3	0.0
2025-01-24 07:10:59.267791	341.3	32.3	-52.2	0.0
2025-01-24 07:11:00.411745	340.9	32.4	-51.5	0.0
2025-01-24 07:11:01.553705	340.6	32.5	-51.4	0.0
2025-01-24 07:11:02.694682	340.2	32.6	-49.9	0.0
2025-01-24 07:11:03.836641	339.8	32.7	-51.1	0.0
2025-01-24 07:11:04.977603	339.5	32.9	-51.9	0.0
2025-01-24 07:11:06.119075	339.1	33.0	-51.3	0.0
2025-01-24 07:11:07.261034	338.7	33.1	-52.2	0.0
2025-01-24 07:11:08.400999	338.4	33.2	-52.3	0.0
2025-01-24 07:11:09.545461	338.0	33.3	-52.3	0.0
2025-01-24 07:11:10.688417	337.6	33.4	-51.6	0.0
2025-01-24 07:11:11.831373	337.2	33.5	-53.4	0.0
2025-01-24 07:11:12.972355	336.8	33.6	-52.6	0.0
2025-01-24 07:11:14.118304	336.5	33.7	-55.3	0.0
2025-01-24 07:11:15.261261	336.1	33.9	-53.8	0.0
2025-01-24 07:11:16.401732	335.7	34.0	-54.2	0.0
2025-01-24 07:11:17.543200	335.3	34.1	-54.0	0.0
2025-01-24 07:11:18.686156	334.9	34.2	-53.2	0.0
2025-01-24 07:11:19.828116	334.5	34.3	-55.6	0.0
2025-01-24 07:11:20.975062	334.1	34.4	-54.2	0.0
2025-01-24 07:11:22.116024	333.7	34.5	-54.2	0.0
2025-01-24 07:11:23.259978	333.3	34.6	-54.1	0.0
2025-01-24 07:11:24.403933	332.9	34.6	-55.0	0.0
2025-01-24 07:11:25.544894	332.5	34.7	-56.0	0.0
2025-01-24 07:11:26.686363	332.1	34.8	-52.8	0.0
2025-01-24 07:11:27.828323	331.7	34.9	-55.0	0.0
2025-01-24 07:11:28.970282	331.2	35.0	-55.6	0.0
2025-01-24 07:11:30.113240	330.8	35.1	-56.1	0.0
2025-01-24 07:11:31.256195	330.4	35.2	-56.5	0.0
2025-01-24 07:11:32.398155	330.0	35.3	-57.5	0.0
2025-01-24 07:11:33.540114	329.6	35.4	-56.7	0.0
2025-01-24 07:11:34.682074	329.1	35.4	-57.6	0.6
2025-01-24 07:11:35.828023	328.7	35.5	-57.5	2.1
2025-01-24 07:11:36.967987	328.3	35.6	-57.8	0.1
2025-01-24 07:11:38.112448	327.8	35.7	-58.3	1.2
2025-01-24 07:11:39.253409	327.4	35.8	-58.0	1.0
2025-01-24 07:11:40.394371	327.0	35.8	-59.2	1.9
2025-01-24 07:11:41.537328	326.5	35.9	-58.8	1.4
2025-01-24 07:11:42.679287	326.1	36.0	-59.4	2.8
2025-01-24 07:11:43.823752	325.6	36.0	-59.4	2.0
2025-01-24 07:11:44.964714	325.2	36.1	-59.5	2.6
2025-01-24 07:11:46.108668	324.7	36.2	-59.5	3.1
2025-01-24 07:11:47.251648	324.3	36.2	-58.9	2.7
2025-01-24 07:11:48.391612	323.8	36.3	-59.6	2.6
2025-01-24 07:11:49.536564	323.4	36.4	-59.1	0.6
2025-01-24 07:11:50.677525	322.9	36.4	-60.0	4.0
2025-01-24 07:11:51.820483	322.5	36.5	-59.2	0.4
2025-01-24 07:11:52.961444	322.0	36.5	-59.8	3.0
2025-01-24 07:11:54.102406	321.6	36.6	-59.7	2.3
2025-01-24 07:11:55.244366	321.1	36.6	-59.2	1.3
2025-01-24 07:11:56.386325	320.6	36.7	-60.1	2.9
2025-01-24 07:11:57.531277	320.2	36.7	-59.8	1.2
2025-01-24 07:11:58.672745	319.7	36.7	-59.9	3.9
2025-01-24 07:11:59.813707	319.3	36.8	-60.4	2.8
2025-01-24 07:12:00.956173	318.8	36.8	-60.1	4.3
2025-01-24 07:12:02.098641	318.3	36.9	-60.6	4.6
2025-01-24 07:12:03.239601	317.9	36.9	-60.1	2.8
2025-01-24 07:12:04.380563	317.4	36.9	-60.7	3.9
2025-01-24 07:12:05.524517	316.9	37.0	-60.5	5.7
2025-01-24 07:12:06.666477	316.4	37.0	-60.3	5.3
2025-01-24 07:12:07.809433	316.0	37.0	-60.8	4.6
2025-01-24 07:12:08.949398	315.5	37.0	-60.7	5.6
2025-01-24 07:12:10.092355	315.0	37.1	-60.4	3.6
2025-01-24 07:12:11.243290	314.6	37.1	-61.1	4.5
2025-01-24 07:12:12.385759	314.1	37.1	-61.6	5.0
2025-01-24 07:12:13.525724	313.6	37.1	-61.2	5.5
2025-01-24 07:12:14.668681	313.1	37.1	-61.9	5.6
2025-01-24 07:12:15.815627	312.7	37.1	-62.0	5.8
2025-01-24 07:12:16.955591	312.2	37.1	-62.0	7.4
2025-01-24 07:12:18.098548	311.7	37.1	-61.6	6.9
2025-01-24 07:12:19.240017	311.2	37.1	-62.1	6.8
2025-01-24 07:12:20.380979	310.8	37.1	-61.7	5.7
2025-01-24 07:12:21.523935	310.3	37.1	-61.9	7.9
2025-01-24 07:12:22.665895	309.8	37.1	-62.7	8.2
2025-01-24 07:12:23.807854	309.3	37.1	-62.5	5.3
2025-01-24 07:12:24.947329	308.9	37.1	-62.6	6.7
2025-01-24 07:12:26.094784	308.4	37.1	-62.5	4.4
2025-01-24 07:12:27.234749	307.9	37.1	-63.0	6.2
2025-01-24 07:12:28.377219	307.4	37.1	-62.6	4.7
2025-01-24 07:12:29.518181	307.0	37.1	-63.1	6.2
2025-01-24 07:12:30.665127	306.5	37.1	-62.6	5.3
2025-01-24 07:12:31.806089	306.0	37.0	-63.0	6.2
2025-01-24 07:12:32.947559	305.5	37.0	-63.5	7.7
2025-01-24 07:12:34.089519	305.1	37.0	-63.1	7.4
2025-01-24 07:12:35.230481	304.6	37.0	-63.5	6.9
2025-01-24 07:12:36.372460	304.1	36.9	-63.2	7.5
2025-01-24 07:12:37.512425	303.7	36.9	-63.1	7.2
2025-01-24 07:12:38.654385	303.2	36.9	-63.2	7.2
2025-01-24 07:12:39.795854	302.7	36.8	-63.5	8.8
2025-01-24 07:12:40.937323	302.3	36.8	-63.7	9.2
2025-01-24 07:12:42.079282	301.8	36.7	-63.8	8.8
2025-01-24 07:12:43.220245	301.3	36.7	-63.4	7.9
2025-01-24 07:12:44.361207	300.9	36.6	-63.5	9.8
2025-01-24 07:12:45.503167	300.4	36.6	-62.9	9.0
2025-01-24 07:12:46.645126	299.9	36.6	-64.0	9.9
2025-01-24 07:12:47.787086	299.5	36.5	-63.6	9.5
2025-01-24 07:12:48.927050	299.0	36.4	-63.4	10.4
2025-01-24 07:12:50.069011	298.6	36.4	-64.4	10.5
2025-01-24 07:12:51.210479	298.1	36.3	-64.1	11.2
2025-01-24 07:12:52.352439	297.7	36.3	-64.3	11.7
2025-01-24 07:12:53.493401	297.2	36.2	-64.0	9.9
2025-01-24 07:12:54.635869	296.8	36.2	-64.4	11.3
2025-01-24 07:12:55.778825	296.3	36.1	-63.3	10.9
2025-01-24 07:12:56.918790	295.9	36.0	-64.2	12.0
2025-01-24 07:12:58.063252	295.4	36.0	-63.5	10.4
2025-01-24 07:12:59.204213	295.0	35.9	-64.3	12.7
2025-01-24 07:13:00.347170	294.6	35.8	-63.8	11.1
2025-01-24 07:13:01.487134	294.1	35.7	-65.0	13.7
2025-01-24 07:13:02.630092	293.7	35.7	-64.8	12.4
2025-01-24 07:13:03.774046	293.3	35.6	-64.8	12.8
2025-01-24 07:13:04.917999	292.8	35.5	-65.1	12.2
2025-01-24 07:13:06.059959	292.4	35.4	-64.5	11.5
2025-01-24 07:13:07.201918	292.0	35.3	-64.4	11.7
2025-01-24 07:13:08.342881	291.5	35.3	-64.4	10.9
2025-01-24 07:13:09.485837	291.1	35.2	-63.9	10.6
2025-01-24 07:13:10.625801	290.7	35.1	-64.6	11.1
2025-01-24 07:13:11.766763	290.3	35.0	-63.4	8.7
2025-01-24 07:13:12.907242	289.9	34.9	-63.9	10.7
2025-01-24 07:13:14.049201	289.5	34.8	-63.8	9.8
2025-01-24 07:13:15.190674	289.1	34.7	-63.7	9.9
2025-01-24 07:13:16.332633	288.6	34.6	-63.5	8.3
2025-01-24 07:13:17.475590	288.2	34.5	-63.5	8.8
2025-01-24 07:13:18.617550	287.8	34.4	-63.2	9.5
2025-01-24 07:13:19.758512	287.4	34.3	-63.4	7.0
2025-01-24 07:13:20.899474	287.0	34.2	-63.0	6.3
2025-01-24 07:13:22.039946	286.6	34.1	-62.9	6.3
2025-01-24 07:13:23.182903	286.2	34.0	-63.3	7.9
2025-01-24 07:13:24.323865	285.9	33.9	-62.7	5.9
2025-01-24 07:13:25.466334	285.5	33.8	-64.5	10.5
2025-01-24 07:13:26.612284	285.1	33.7	-63.8	7.8
2025-01-24 07:13:27.752248	284.7	33.6	-63.1	6.3
2025-01-24 07:13:28.894207	284.3	33.5	-63.1	6.3
2025-01-24 07:13:30.039158	283.9	33.4	-64.3	8.1
2025-01-24 07:13:31.181119	283.6	33.3	-63.5	6.4
2025-01-24 07:13:32.323583	283.2	33.2	-63.7	7.7
2025-01-24 07:13:33.465543	282.8	33.1	-64.1	7.2
2025-01-24 07:13:34.606505	282.4	33.0	-64.4	8.4
2025-01-24 07:13:35.747973	282.1	32.8	-63.8	7.1
2025-01-24 07:13:36.888935	281.7	32.7	-63.9	4.9
2025-01-24 07:13:38.030907	281.4	32.6	-63.4	5.8
2025-01-24 07:13:39.171857	281.0	32.5	-63.8	6.3
2025-01-24 07:13:40.313816	280.6	32.4	-63.7	5.5
2025-01-24 07:13:41.454779	280.3	32.3	-64.4	7.1
2025-01-24 07:13:42.595740	279.9	32.1	-64.8	8.3
2025-01-24 07:13:43.736702	279.6	32.0	-64.6	7.9
2025-01-24 07:13:44.880658	279.2	31.9	-65.1	7.9
2025-01-24 07:13:46.020621	278.9	31.8	-64.8	7.1
2025-01-24 07:13:47.164575	278.6	31.7	-65.3	8.5
2025-01-24 07:13:48.309527	278.2	31.5	-64.6	8.0
2025-01-24 07:13:49.450489	277.9	31.4	-65.1	9.1
2025-01-24 07:13:50.591451	277.6	31.3	-65.0	7.4
2025-01-24 07:13:51.736403	277.2	31.2	-66.0	9.8
2025-01-24 07:13:52.879359	276.9	31.0	-65.4	8.2
2025-01-24 07:13:54.020828	276.6	30.9	-65.5	8.0
2025-01-24 07:13:55.161790	276.2	30.8	-65.8	7.7
2025-01-24 07:13:56.302753	275.9	30.7	-66.0	8.1
2025-01-24 07:13:57.446216	275.6	30.5	-66.1	9.2
2025-01-24 07:13:58.586180	275.3	30.4	-65.9	9.2
2025-01-24 07:13:59.727143	275.0	30.3	-65.9	10.1
2025-01-24 07:14:00.868611	274.7	30.2	-66.1	9.0
2025-01-24 07:14:02.010569	274.4	30.0	-64.7	6.6
2025-01-24 07:14:03.152529	274.1	29.9	-67.5	0.0
#Closed at: 2025-01-24 07:10:33.232601