passes_logs/2025/01/24/Planum_Noyabrsk/Planum_Noyabrsk__20250124_044559_METEOR-M2_3_rec.log

#Pass ID: 20250124_044559_METEOR-M2 3
#Satellite: METEOR-M2 3
#Configuration: METEOR-M2 3
#Start time: 2025-01-24 04:46:04.000765

#LorettStation: 1.0.0 05.05.2024
#Station: Planum_Noyabrsk
#Location: 75.446886 lon 63.207202 lat
#TLE: 1 57166U 23091A   25023.47501070  .00000093  00000+0  59508-4 0  9998
#TLE: 2 57166  98.6837  81.8342 0003622 196.5603 163.5458 14.23971458 81978

#Time	Az	El	Level	SNR
2025-01-24 04:46:22.280094	37.9	33.4	-57.3	0.8
2025-01-24 04:46:23.425046	38.1	33.6	-57.9	0.0
2025-01-24 04:46:24.567005	38.3	33.9	-57.1	1.7
2025-01-24 04:46:25.708965	38.5	34.1	-57.9	1.4
2025-01-24 04:46:26.849927	38.7	34.3	-59.1	3.3
2025-01-24 04:46:27.992884	38.9	34.5	-56.5	0.0
2025-01-24 04:46:29.134844	39.1	34.8	-54.6	0.0
2025-01-24 04:46:30.276312	39.3	35.0	-57.3	1.6
2025-01-24 04:46:31.421264	39.5	35.2	-57.2	2.8
2025-01-24 04:46:32.562226	39.7	35.5	-57.5	2.4
2025-01-24 04:46:33.704186	40.0	35.7	-57.5	0.8
2025-01-24 04:46:34.848140	40.2	35.9	-57.2	1.6
2025-01-24 04:46:35.990100	40.4	36.2	-55.8	0.0
2025-01-24 04:46:37.131570	40.6	36.4	-56.3	0.0
2025-01-24 04:46:38.274527	40.9	36.7	-56.8	0.0
2025-01-24 04:46:39.416502	41.1	36.9	-56.3	0.0
2025-01-24 04:46:40.557973	41.3	37.1	-54.6	0.0
2025-01-24 04:46:41.699932	41.6	37.4	-59.2	2.4
2025-01-24 04:46:42.841892	41.8	37.6	-54.8	0.0
2025-01-24 04:46:43.982364	42.1	37.9	-52.6	0.0
2025-01-24 04:46:45.124331	42.3	38.1	-56.3	0.0
2025-01-24 04:46:46.268278	42.6	38.4	-57.7	3.6
2025-01-24 04:46:47.411743	42.8	38.6	-57.2	0.5
2025-01-24 04:46:48.551707	43.1	38.9	-56.0	1.4
2025-01-24 04:46:49.695662	43.4	39.1	-56.1	0.7
2025-01-24 04:46:50.837131	43.6	39.4	-59.4	4.6
2025-01-24 04:46:51.983080	43.9	39.6	-58.7	4.0
2025-01-24 04:46:53.125040	44.2	39.9	-57.9	1.5
2025-01-24 04:46:54.266509	44.5	40.2	-58.2	3.9
2025-01-24 04:46:55.412458	44.8	40.4	-57.9	4.4
2025-01-24 04:46:56.554418	45.1	40.7	-59.0	3.1
2025-01-24 04:46:57.695380	45.4	40.9	-60.2	7.6
2025-01-24 04:46:58.836342	45.7	41.2	-58.3	4.3
2025-01-24 04:46:59.982292	46.0	41.5	-58.2	5.1
2025-01-24 04:47:01.123760	46.3	41.7	-58.0	2.2
2025-01-24 04:47:02.265720	46.6	42.0	-57.7	1.4
2025-01-24 04:47:03.407679	46.9	42.3	-58.2	4.2
2025-01-24 04:47:04.553139	47.3	42.5	-57.8	4.3
2025-01-24 04:47:05.696096	47.6	42.8	-58.0	3.4
2025-01-24 04:47:06.837068	47.9	43.1	-57.3	0.0
2025-01-24 04:47:07.978533	48.3	43.3	-58.5	3.9
2025-01-24 04:47:09.119493	48.6	43.6	-57.6	2.3
2025-01-24 04:47:10.260456	49.0	43.9	-59.0	3.0
2025-01-24 04:47:11.403920	49.3	44.2	-58.3	0.2
2025-01-24 04:47:12.544882	49.7	44.4	-59.0	3.1
2025-01-24 04:47:13.684847	50.1	44.7	-59.1	4.9
2025-01-24 04:47:14.826808	50.5	45.0	-58.0	2.4
2025-01-24 04:47:15.972267	50.9	45.2	-58.5	1.2
2025-01-24 04:47:17.115224	51.3	45.5	-59.1	0.0
2025-01-24 04:47:18.257184	51.7	45.8	-60.6	4.5
2025-01-24 04:47:19.397657	52.1	46.1	-58.9	0.0
2025-01-24 04:47:20.539617	52.5	46.4	-59.2	2.7
2025-01-24 04:47:21.681576	52.9	46.6	-59.3	5.4
2025-01-24 04:47:22.824043	53.3	46.9	-59.9	4.7
2025-01-24 04:47:23.967000	53.8	47.2	-58.3	1.9
2025-01-24 04:47:25.108959	54.2	47.5	-59.6	3.2
2025-01-24 04:47:26.250939	54.7	47.7	-59.8	4.2
2025-01-24 04:47:27.397884	55.2	48.0	-59.8	2.8
2025-01-24 04:47:28.538845	55.6	48.3	-59.6	0.0
2025-01-24 04:47:29.680805	56.1	48.6	-60.4	3.6
2025-01-24 04:47:30.823762	56.6	48.8	-60.3	1.6
2025-01-24 04:47:31.964724	57.1	49.1	-60.1	2.7
2025-01-24 04:47:33.112180	57.6	49.4	-59.2	2.2
2025-01-24 04:47:34.255136	58.1	49.7	-59.6	2.5
2025-01-24 04:47:35.396098	58.6	49.9	-60.1	0.0
2025-01-24 04:47:36.540559	59.2	50.2	-57.7	0.0
2025-01-24 04:47:37.682518	59.7	50.5	-59.5	0.0
2025-01-24 04:47:38.825475	60.3	50.8	-59.4	0.0
2025-01-24 04:47:39.964949	60.8	51.0	-60.0	0.0
2025-01-24 04:47:41.108904	61.4	51.3	-59.8	0.0
2025-01-24 04:47:42.248868	62.0	51.6	-59.4	0.2
2025-01-24 04:47:43.390338	62.6	51.8	-60.9	3.0
2025-01-24 04:47:44.531301	63.2	52.1	-57.4	0.0
2025-01-24 04:47:45.672263	63.8	52.3	-57.6	0.0
2025-01-24 04:47:46.815246	64.4	52.6	-58.0	0.0
2025-01-24 04:47:47.956209	65.1	52.9	-57.9	0.0
2025-01-24 04:47:49.098169	65.7	53.1	-53.5	0.0
2025-01-24 04:47:50.244625	66.4	53.4	-56.4	0.0
2025-01-24 04:47:51.386584	67.1	53.6	-55.4	0.0
2025-01-24 04:47:52.526549	67.7	53.9	-49.9	0.0
2025-01-24 04:47:53.672498	68.4	54.1	-55.2	0.0
2025-01-24 04:47:54.815455	69.1	54.4	-60.5	0.0
2025-01-24 04:47:55.956417	69.9	54.6	-55.9	0.0
2025-01-24 04:47:57.097890	70.6	54.8	-56.6	0.0
2025-01-24 04:47:58.238852	71.3	55.1	-55.9	0.0
2025-01-24 04:47:59.379814	72.1	55.3	-56.8	0.0
2025-01-24 04:48:00.522280	72.8	55.5	-57.9	0.0
2025-01-24 04:48:01.663242	73.6	55.7	-57.4	0.0
2025-01-24 04:48:02.806200	74.4	55.9	-53.8	0.0
2025-01-24 04:48:03.945679	75.2	56.1	-52.0	0.0
2025-01-24 04:48:05.087638	76.0	56.4	-55.0	0.0
2025-01-24 04:48:06.230105	76.9	56.6	-55.5	0.0
2025-01-24 04:48:07.372081	77.7	56.7	-55.4	0.0
2025-01-24 04:48:08.513044	78.5	56.9	-53.2	0.0
2025-01-24 04:48:09.654513	79.4	57.1	-55.4	0.0
2025-01-24 04:48:10.796473	80.3	57.3	-56.1	0.0
2025-01-24 04:48:11.938945	81.2	57.5	-56.4	0.0
2025-01-24 04:48:13.081902	82.1	57.6	-57.5	0.0
2025-01-24 04:48:14.224859	83.0	57.8	-58.6	0.0
2025-01-24 04:48:15.370808	83.9	58.0	-59.4	0.0
2025-01-24 04:48:16.511770	84.8	58.1	-55.5	0.0
2025-01-24 04:48:17.654727	85.8	58.3	-57.3	0.0
2025-01-24 04:48:18.794692	86.7	58.4	-58.4	0.0
2025-01-24 04:48:19.937158	87.7	58.5	-55.5	0.0
2025-01-24 04:48:21.077123	88.6	58.6	-55.8	0.0
2025-01-24 04:48:22.219592	89.6	58.7	-51.8	0.0
2025-01-24 04:48:23.360555	90.6	58.9	-58.3	0.0
2025-01-24 04:48:24.503511	91.6	59.0	-58.5	0.0
2025-01-24 04:48:25.644473	92.6	59.0	-57.6	0.0
2025-01-24 04:48:26.787431	93.6	59.1	-58.0	0.0
2025-01-24 04:48:27.928393	94.6	59.2	-58.9	0.2
2025-01-24 04:48:29.070352	95.6	59.3	-60.3	0.0
2025-01-24 04:48:30.215304	96.6	59.3	-59.2	0.6
2025-01-24 04:48:31.357264	97.6	59.4	-58.9	0.0
2025-01-24 04:48:32.502215	98.7	59.4	-56.0	0.0
2025-01-24 04:48:33.645172	99.7	59.5	-57.0	0.0
2025-01-24 04:48:34.786135	100.7	59.5	-56.8	0.0
2025-01-24 04:48:35.931092	101.8	59.5	-53.6	0.0
2025-01-24 04:48:37.074043	102.8	59.5	-53.9	0.0
2025-01-24 04:48:38.216003	103.9	59.5	-58.2	0.0
2025-01-24 04:48:39.362460	104.9	59.5	-59.7	0.0
2025-01-24 04:48:40.503933	105.9	59.5	-59.6	0.0
2025-01-24 04:48:41.643898	107.0	59.5	-59.7	0.4
2025-01-24 04:48:42.787852	108.0	59.4	-60.1	1.7
2025-01-24 04:48:43.928814	109.0	59.4	-60.4	0.0
2025-01-24 04:48:45.070773	110.1	59.3	-58.5	0.0
2025-01-24 04:48:46.212242	111.1	59.3	-59.6	2.2
2025-01-24 04:48:47.354202	112.1	59.2	-59.1	3.5
2025-01-24 04:48:48.497159	113.1	59.2	-58.3	0.0
2025-01-24 04:48:49.640116	114.1	59.1	-59.8	4.6
2025-01-24 04:48:50.782075	115.1	59.0	-59.4	3.6
2025-01-24 04:48:51.925033	116.1	58.9	-58.8	0.0
2025-01-24 04:48:53.067008	117.1	58.8	-60.6	3.6
2025-01-24 04:48:54.207971	118.1	58.7	-61.3	4.2
2025-01-24 04:48:55.348932	119.1	58.5	-61.6	3.3
2025-01-24 04:48:56.491400	120.0	58.4	-60.1	0.0
2025-01-24 04:48:57.636351	121.0	58.3	-59.8	0.0
2025-01-24 04:48:58.777314	121.9	58.1	-59.4	0.0
2025-01-24 04:48:59.918276	122.8	58.0	-60.0	0.0
2025-01-24 04:49:01.061233	123.8	57.8	-60.3	0.0
2025-01-24 04:49:02.207181	124.7	57.7	-59.4	0.7
2025-01-24 04:49:03.347653	125.6	57.5	-61.8	5.5
2025-01-24 04:49:04.495597	126.5	57.3	-61.2	2.6
2025-01-24 04:49:05.636559	127.3	57.2	-59.7	0.0
2025-01-24 04:49:06.776543	128.2	57.0	-60.8	2.1
2025-01-24 04:49:07.920497	129.1	56.8	-60.5	0.5
2025-01-24 04:49:09.065981	129.9	56.6	-61.1	2.4
2025-01-24 04:49:10.207934	130.7	56.4	-61.3	3.6
2025-01-24 04:49:11.349894	131.6	56.2	-61.2	3.0
2025-01-24 04:49:12.490856	132.4	56.0	-61.9	3.9
2025-01-24 04:49:13.636805	133.2	55.8	-62.4	3.9
2025-01-24 04:49:14.779762	134.0	55.5	-62.4	2.7
2025-01-24 04:49:15.919727	134.7	55.3	-62.1	3.5
2025-01-24 04:49:17.061687	135.5	55.1	-62.2	3.3
2025-01-24 04:49:18.204155	136.2	54.9	-62.1	3.4
2025-01-24 04:49:19.345117	137.0	54.6	-62.0	4.3
2025-01-24 04:49:20.487583	137.7	54.4	-62.8	4.7
2025-01-24 04:49:21.628545	138.4	54.2	-61.2	3.3
2025-01-24 04:49:22.771502	139.1	53.9	-62.9	5.2
2025-01-24 04:49:23.912974	139.8	53.7	-62.2	4.5
2025-01-24 04:49:25.054444	140.5	53.4	-62.0	3.4
2025-01-24 04:49:26.195405	141.1	53.2	-63.3	5.9
2025-01-24 04:49:27.339869	141.8	52.9	-62.4	4.9
2025-01-24 04:49:28.480831	142.4	52.7	-63.3	6.1
2025-01-24 04:49:29.621794	143.0	52.4	-64.3	6.2
2025-01-24 04:49:30.763753	143.7	52.1	-63.8	6.7
2025-01-24 04:49:31.904226	144.3	51.9	-63.4	6.6
2025-01-24 04:49:33.048179	144.9	51.6	-63.8	5.6
2025-01-24 04:49:34.190139	145.5	51.3	-63.3	4.3
2025-01-24 04:49:35.332122	146.0	51.1	-63.5	7.0
2025-01-24 04:49:36.473084	146.6	50.8	-63.7	6.2
2025-01-24 04:49:37.617039	147.2	50.5	-64.6	8.1
2025-01-24 04:49:38.757516	147.7	50.3	-64.6	8.7
2025-01-24 04:49:39.899983	148.2	50.0	-64.9	9.0
2025-01-24 04:49:41.042939	148.8	49.7	-64.8	9.4
2025-01-24 04:49:42.189885	149.3	49.4	-65.0	10.0
2025-01-24 04:49:43.331844	149.8	49.2	-65.5	9.6
2025-01-24 04:49:44.471809	150.3	48.9	-65.8	10.1
2025-01-24 04:49:45.612772	150.8	48.6	-65.9	10.7
2025-01-24 04:49:46.755729	151.3	48.3	-65.6	11.2
2025-01-24 04:49:47.899683	151.8	48.0	-65.7	12.4
2025-01-24 04:49:49.041666	152.2	47.8	-65.9	12.0
2025-01-24 04:49:50.187127	152.7	47.5	-65.9	13.6
2025-01-24 04:49:51.329086	153.1	47.2	-66.2	12.6
2025-01-24 04:49:52.474038	153.6	46.9	-65.8	13.7
2025-01-24 04:49:53.616995	154.0	46.7	-67.0	13.9
2025-01-24 04:49:54.758955	154.4	46.4	-66.8	14.4
2025-01-24 04:49:55.899916	154.9	46.1	-66.3	13.6
2025-01-24 04:49:57.043871	155.3	45.8	-66.3	13.6
2025-01-24 04:49:58.185831	155.7	45.5	-66.4	13.8
2025-01-24 04:49:59.326308	156.1	45.3	-65.5	12.7
2025-01-24 04:50:00.469264	156.5	45.0	-66.0	13.9
2025-01-24 04:50:01.609229	156.8	44.7	-66.4	12.9
2025-01-24 04:50:02.750698	157.2	44.4	-66.6	14.0
2025-01-24 04:50:03.891660	157.6	44.2	-65.9	12.4
2025-01-24 04:50:05.034617	158.0	43.9	-65.5	13.6
2025-01-24 04:50:06.176091	158.3	43.6	-65.5	13.0
2025-01-24 04:50:07.321043	158.7	43.3	-65.5	13.9
2025-01-24 04:50:08.464000	159.0	43.1	-66.1	13.9
2025-01-24 04:50:09.603965	159.4	42.8	-66.4	13.1
2025-01-24 04:50:10.746434	159.7	42.5	-66.6	10.4
2025-01-24 04:50:11.887396	160.0	42.3	-66.1	13.1
2025-01-24 04:50:13.029863	160.4	42.0	-66.0	14.2
2025-01-24 04:50:14.171822	160.7	41.7	-66.8	13.6
2025-01-24 04:50:15.312784	161.0	41.5	-65.8	12.5
2025-01-24 04:50:16.452750	161.3	41.2	-66.2	13.4
2025-01-24 04:50:17.597216	161.6	40.9	-66.2	13.7
2025-01-24 04:50:18.741171	161.9	40.7	-65.4	13.5
2025-01-24 04:50:19.882643	162.2	40.4	-65.5	13.5
2025-01-24 04:50:21.030587	162.5	40.1	-65.1	11.1
2025-01-24 04:50:22.172546	162.8	39.9	-65.2	12.1
2025-01-24 04:50:23.314506	163.1	39.6	-65.8	14.0
2025-01-24 04:50:24.455468	163.3	39.4	-66.1	14.2
2025-01-24 04:50:25.596430	163.6	39.1	-66.4	14.7
2025-01-24 04:50:26.737900	163.9	38.9	-65.8	13.4
2025-01-24 04:50:27.882852	164.1	38.6	-65.8	14.7
2025-01-24 04:50:29.024811	164.4	38.3	-65.6	13.9
2025-01-24 04:50:30.167769	164.7	38.1	-66.1	10.3
2025-01-24 04:50:31.307733	164.9	37.8	-64.6	13.2
2025-01-24 04:50:32.449693	165.2	37.6	-66.0	12.8
2025-01-24 04:50:33.589658	165.4	37.4	-66.2	14.3
2025-01-24 04:50:34.735130	165.7	37.1	-65.2	12.9
2025-01-24 04:50:35.881079	165.9	36.9	-64.6	12.1
2025-01-24 04:50:37.022041	166.1	36.6	-65.2	12.4
2025-01-24 04:50:38.163003	166.4	36.4	-66.4	14.2
2025-01-24 04:50:39.304963	166.6	36.1	-65.7	13.9
2025-01-24 04:50:40.445925	166.8	35.9	-66.2	15.7
2025-01-24 04:50:41.586398	167.0	35.7	-66.7	15.1
2025-01-24 04:50:42.728357	167.3	35.4	-66.3	14.0
2025-01-24 04:50:43.868827	167.5	35.2	-66.6	14.9
2025-01-24 04:50:45.010787	167.7	34.9	-66.1	14.4
2025-01-24 04:50:46.151749	167.9	34.7	-66.7	15.0
2025-01-24 04:50:47.294706	168.1	34.5	-66.6	15.3
2025-01-24 04:50:48.437174	168.3	34.3	-66.6	15.0
2025-01-24 04:50:49.580131	168.5	34.0	-66.8	15.2
2025-01-24 04:50:50.722091	168.7	33.8	-65.4	12.3
2025-01-24 04:50:51.867550	168.9	33.6	-66.4	14.7
2025-01-24 04:50:53.010506	169.1	33.3	-65.4	12.5
2025-01-24 04:50:54.153462	169.3	33.1	-65.6	15.3
2025-01-24 04:50:55.297417	169.5	32.9	-66.2	15.9
2025-01-24 04:50:56.440883	169.7	32.7	-65.9	14.5
2025-01-24 04:50:57.582843	169.8	32.5	-65.9	13.9
2025-01-24 04:50:58.729789	170.0	32.2	-66.2	14.5
2025-01-24 04:50:59.869754	170.2	32.0	-66.3	16.1
2025-01-24 04:51:01.012711	170.4	31.8	-65.9	14.9
2025-01-24 04:51:02.155179	170.5	31.6	-65.8	15.5
2025-01-24 04:51:03.296141	170.7	31.4	-66.0	15.6
2025-01-24 04:51:04.437103	170.9	31.2	-66.1	15.2
2025-01-24 04:51:05.578574	171.1	31.0	-66.1	14.9
2025-01-24 04:51:06.722529	171.2	30.7	-66.5	14.8
2025-01-24 04:51:07.864488	171.4	30.5	-66.7	15.0
2025-01-24 04:51:09.006955	171.5	30.3	-66.7	14.9
2025-01-24 04:51:10.148914	171.7	30.1	-65.9	12.8
#Closed at: 2025-01-24 04:45:59.004559