passes_logs/2025/01/24/Planum_Noyabrsk/Planum_Noyabrsk__20250124_235248_METEOR-M2_2_rec.log

#Pass ID: 20250124_235248_METEOR-M2 2
#Satellite: METEOR-M2 2
#Configuration: METEOR-M2 2
#Start time: 2025-01-24 23:52:53.421854

#LorettStation: 1.0.0 05.05.2024
#Station: Planum_Noyabrsk
#Location: 75.446886 lon 63.207202 lat
#TLE: 1 44387U 19038A   25024.55290589  .00000439  00000+0  21069-3 0  9999
#TLE: 2 44387  98.8578   1.0225 0002161  64.2794 295.8607 14.24124834288890

#Time	Az	El	Level	SNR
2025-01-24 23:53:00.177104	21.7	31.3	-56.1	0.0
2025-01-24 23:53:01.321059	21.7	31.6	-59.2	0.0
2025-01-24 23:53:02.461041	21.7	31.8	-56.3	0.0
2025-01-24 23:53:03.605992	21.7	32.0	-56.2	0.0
2025-01-24 23:53:04.748948	21.8	32.3	-61.8	0.0
2025-01-24 23:53:05.894406	21.8	32.5	-64.6	0.0
2025-01-24 23:53:07.034371	21.8	32.8	-64.6	0.0
2025-01-24 23:53:08.177328	21.8	33.0	-67.0	0.0
2025-01-24 23:53:09.318803	21.8	33.2	-58.9	0.0
2025-01-24 23:53:10.460762	21.8	33.5	-67.9	0.0
2025-01-24 23:53:11.599730	21.8	33.7	-66.9	0.0
2025-01-24 23:53:12.745680	21.8	34.0	-58.0	0.0
2025-01-24 23:53:13.886641	21.9	34.2	-65.9	0.0
2025-01-24 23:53:15.031102	21.9	34.5	-63.0	0.0
2025-01-24 23:53:16.172575	21.9	34.8	-58.5	0.0
2025-01-24 23:53:17.314534	21.9	35.0	-63.1	0.0
2025-01-24 23:53:18.454499	21.9	35.3	-66.4	0.0
2025-01-24 23:53:19.596459	21.9	35.5	-58.0	0.0
2025-01-24 23:53:20.739415	21.9	35.8	-56.5	0.0
2025-01-24 23:53:21.882373	22.0	36.1	-64.3	0.0
2025-01-24 23:53:23.023843	22.0	36.4	-64.1	0.0
2025-01-24 23:53:24.166800	22.0	36.6	-64.2	0.0
2025-01-24 23:53:25.307761	22.0	36.9	-63.7	0.0
2025-01-24 23:53:26.449740	22.0	37.2	-63.0	0.0
2025-01-24 23:53:27.590701	22.0	37.5	-60.2	0.0
2025-01-24 23:53:28.732661	22.1	37.7	-58.1	0.0
2025-01-24 23:53:29.873623	22.1	38.0	-60.7	0.0
2025-01-24 23:53:31.016580	22.1	38.3	-60.5	0.0
2025-01-24 23:53:32.158539	22.1	38.6	-61.6	0.0
2025-01-24 23:53:33.300499	22.1	38.9	-62.1	0.0
2025-01-24 23:53:34.442459	22.1	39.2	-62.5	0.0
2025-01-24 23:53:35.583420	22.2	39.5	-62.7	0.0
2025-01-24 23:53:36.730383	22.2	39.8	-61.5	0.0
2025-01-24 23:53:37.870348	22.2	40.1	-63.8	0.0
2025-01-24 23:53:39.012307	22.2	40.4	-64.3	0.0
2025-01-24 23:53:40.152779	22.2	40.7	-63.3	0.0
2025-01-24 23:53:41.294250	22.3	41.0	-63.5	0.0
2025-01-24 23:53:42.435212	22.3	41.3	-66.9	0.0
2025-01-24 23:53:43.576682	22.3	41.7	-66.0	0.0
2025-01-24 23:53:44.718641	22.3	42.0	-65.7	0.0
2025-01-24 23:53:45.859603	22.3	42.3	-66.9	0.0
2025-01-24 23:53:47.003558	22.4	42.6	-67.0	0.0
2025-01-24 23:53:48.145517	22.4	43.0	-63.6	0.0
2025-01-24 23:53:49.288986	22.4	43.3	-67.7	0.0
2025-01-24 23:53:50.430945	22.4	43.6	-68.4	0.0
2025-01-24 23:53:51.571908	22.4	44.0	-68.0	0.0
2025-01-24 23:53:52.713867	22.5	44.3	-69.5	0.0
2025-01-24 23:53:53.855827	22.5	44.6	-66.3	0.0
2025-01-24 23:53:54.999780	22.5	45.0	-70.0	0.0
2025-01-24 23:53:56.141740	22.5	45.3	-71.5	0.0
2025-01-24 23:53:57.283208	22.6	45.7	-70.0	0.0
2025-01-24 23:53:58.425168	22.6	46.0	-70.5	0.0
2025-01-24 23:53:59.567634	22.6	46.4	-70.0	0.0
2025-01-24 23:54:00.709103	22.6	46.8	-70.0	0.0
2025-01-24 23:54:01.852059	22.7	47.1	-69.8	0.0
2025-01-24 23:54:02.994019	22.7	47.5	-68.5	0.0
2025-01-24 23:54:04.134981	22.7	47.9	-69.6	0.0
2025-01-24 23:54:05.277938	22.7	48.2	-69.5	0.0
2025-01-24 23:54:06.421892	22.8	48.6	-71.2	0.0
2025-01-24 23:54:07.563360	22.8	49.0	-69.8	0.0
2025-01-24 23:54:08.706833	22.8	49.4	-67.7	0.0
2025-01-24 23:54:09.848792	22.9	49.8	-70.7	0.0
2025-01-24 23:54:10.993743	22.9	50.2	-71.1	0.0
2025-01-24 23:54:12.141687	22.9	50.6	-67.8	0.0
2025-01-24 23:54:13.284644	22.9	51.0	-71.0	0.0
2025-01-24 23:54:14.425118	23.0	51.4	-70.5	0.0
2025-01-24 23:54:15.568075	23.0	51.8	-68.7	0.0
2025-01-24 23:54:16.711031	23.0	52.2	-69.8	0.0
2025-01-24 23:54:17.851507	23.1	52.6	-67.5	0.0
2025-01-24 23:54:18.992468	23.1	53.0	-69.1	0.0
2025-01-24 23:54:20.134428	23.2	53.4	-69.7	0.0
2025-01-24 23:54:21.275390	23.2	53.8	-70.0	0.0
2025-01-24 23:54:22.418347	23.2	54.3	-70.0	0.0
2025-01-24 23:54:23.558312	23.3	54.7	-70.5	0.0
2025-01-24 23:54:24.703263	23.3	55.1	-69.4	0.0
2025-01-24 23:54:25.845222	23.4	55.6	-70.9	0.0
2025-01-24 23:54:26.991172	23.4	56.0	-70.4	0.0
2025-01-24 23:54:28.130646	23.4	56.5	-69.8	0.0
2025-01-24 23:54:29.270610	23.5	56.9	-70.6	0.0
2025-01-24 23:54:30.412570	23.5	57.4	-70.4	0.0
2025-01-24 23:54:31.554530	23.6	57.8	-67.0	0.0
2025-01-24 23:54:32.695493	23.6	58.3	-70.5	0.0
2025-01-24 23:54:33.839446	23.7	58.7	-70.7	0.0
2025-01-24 23:54:34.980915	23.7	59.2	-69.2	0.0
2025-01-24 23:54:36.120879	23.8	59.7	-71.2	0.0
2025-01-24 23:54:37.262839	23.8	60.1	-70.5	0.0
2025-01-24 23:54:38.403312	23.9	60.6	-71.6	0.0
2025-01-24 23:54:39.544275	24.0	61.1	-70.4	0.0
2025-01-24 23:54:40.685237	24.0	61.6	-68.2	0.0
2025-01-24 23:54:41.832690	24.1	62.1	-72.3	0.0
2025-01-24 23:54:42.975646	24.2	62.6	-71.2	0.0
2025-01-24 23:54:44.120600	24.2	63.1	-69.4	0.0
2025-01-24 23:54:45.261560	24.3	63.5	-71.5	0.0
2025-01-24 23:54:46.404517	24.4	64.0	-69.4	0.0
2025-01-24 23:54:47.544482	24.5	64.6	-65.3	0.0
2025-01-24 23:54:48.686947	24.5	65.1	-69.6	0.0
2025-01-24 23:54:49.828906	24.6	65.6	-69.2	0.0
2025-01-24 23:54:50.969868	24.7	66.1	-69.4	0.0
2025-01-24 23:54:52.111828	24.8	66.6	-68.4	0.0
2025-01-24 23:54:53.257776	24.9	67.1	-66.3	0.0
2025-01-24 23:54:54.401730	25.0	67.6	-69.0	0.0
2025-01-24 23:54:55.546682	25.1	68.2	-68.6	0.0
2025-01-24 23:54:56.687644	25.3	68.7	-68.1	0.0
2025-01-24 23:54:57.829604	25.4	69.2	-67.9	0.0
2025-01-24 23:54:58.970566	25.5	69.8	-66.2	0.0
2025-01-24 23:55:00.114032	25.6	70.3	-63.1	0.0
2025-01-24 23:55:01.254995	25.8	70.9	-65.7	0.0
2025-01-24 23:55:02.396953	25.9	71.4	-64.9	0.0
2025-01-24 23:55:03.536429	26.1	72.0	-65.1	0.0
2025-01-24 23:55:04.677898	26.3	72.5	-65.7	0.0
2025-01-24 23:55:05.819858	26.4	73.1	-64.9	0.0
2025-01-24 23:55:06.970305	26.6	73.6	-66.3	0.0
2025-01-24 23:55:08.111267	26.9	74.2	-67.4	0.0
2025-01-24 23:55:09.254223	27.1	74.7	-67.0	0.0
2025-01-24 23:55:10.395185	27.3	75.3	-67.4	0.0
2025-01-24 23:55:11.536148	27.6	75.9	-69.0	0.0
2025-01-24 23:55:12.676112	27.9	76.4	-68.8	0.0
2025-01-24 23:55:13.821575	28.2	77.0	-68.1	0.0
2025-01-24 23:55:14.962537	28.5	77.6	-68.6	0.0
2025-01-24 23:55:16.105494	28.9	78.1	-68.0	0.0
2025-01-24 23:55:17.248452	29.3	78.7	-67.9	0.0
2025-01-24 23:55:18.389919	29.8	79.3	-69.0	0.0
2025-01-24 23:55:19.531879	30.3	79.9	-68.1	0.0
2025-01-24 23:55:20.673360	30.9	80.4	-69.1	0.0
2025-01-24 23:55:21.815319	31.5	81.0	-69.8	0.0
2025-01-24 23:55:22.956281	32.2	81.6	-70.1	0.0
2025-01-24 23:55:24.097750	33.1	82.2	-65.6	0.0
2025-01-24 23:55:25.238712	34.1	82.8	-65.5	0.0
2025-01-24 23:55:26.380671	35.2	83.3	-65.7	0.0
2025-01-24 23:55:27.520636	36.6	83.9	-70.8	0.0
2025-01-24 23:55:28.663593	38.3	84.5	-69.4	0.0
2025-01-24 23:55:29.804555	40.3	85.0	-70.4	0.0
2025-01-24 23:55:30.946515	42.9	85.6	-70.2	0.0
2025-01-24 23:55:32.086479	46.1	86.1	-68.6	0.0
2025-01-24 23:55:33.229436	50.5	86.7	-69.3	0.0
2025-01-24 23:55:34.369912	56.5	87.2	-68.3	0.0
2025-01-24 23:55:35.513377	65.0	87.7	-68.2	0.0
2025-01-24 23:55:36.654339	77.3	88.0	-64.1	0.0
2025-01-24 23:55:37.800794	94.3	88.3	-68.9	0.0
2025-01-24 23:55:38.945746	115.0	88.4	-68.2	0.0
2025-01-24 23:55:40.089700	134.7	88.2	-66.0	0.0
2025-01-24 23:55:41.230662	150.0	87.9	-64.6	0.0
2025-01-24 23:55:42.374127	160.8	87.5	-69.2	0.0
2025-01-24 23:55:43.518082	168.2	87.0	-66.4	0.0
2025-01-24 23:55:44.659044	173.6	86.5	-68.2	0.0
2025-01-24 23:55:45.801004	177.5	86.0	-69.2	0.0
2025-01-24 23:55:46.941966	180.5	85.4	-68.7	0.0
2025-01-24 23:55:48.083925	182.9	84.8	-69.1	0.0
2025-01-24 23:55:49.225885	184.8	84.3	-67.1	0.0
2025-01-24 23:55:50.365849	186.3	83.7	-68.8	0.0
2025-01-24 23:55:51.510822	187.6	83.1	-68.1	0.0
2025-01-24 23:55:52.654776	188.7	82.5	-67.2	0.0
2025-01-24 23:55:53.798730	189.6	82.0	-69.0	0.0
2025-01-24 23:55:54.940201	190.4	81.4	-70.2	0.0
2025-01-24 23:55:56.080166	191.1	80.8	-67.9	0.0
2025-01-24 23:55:57.221128	191.7	80.2	-70.4	0.0
2025-01-24 23:55:58.364592	192.3	79.7	-70.8	0.0
2025-01-24 23:55:59.507550	192.8	79.1	-69.7	0.0
2025-01-24 23:56:00.649509	193.2	78.5	-71.6	0.0
2025-01-24 23:56:01.791978	193.6	77.9	-71.6	0.0
2025-01-24 23:56:02.932940	194.0	77.4	-71.7	0.0
2025-01-24 23:56:04.073902	194.3	76.8	-71.8	0.0
2025-01-24 23:56:05.215862	194.6	76.2	-71.2	0.0
2025-01-24 23:56:06.357821	194.9	75.6	-72.6	0.0
2025-01-24 23:56:07.497786	195.2	75.1	-72.4	0.0
2025-01-24 23:56:08.639255	195.4	74.5	-70.9	0.0
2025-01-24 23:56:09.780216	195.6	74.0	-71.9	0.0
2025-01-24 23:56:10.924679	195.8	73.4	-72.9	0.0
2025-01-24 23:56:12.063646	196.0	72.8	-71.7	0.0
2025-01-24 23:56:13.206603	196.2	72.3	-72.4	0.0
2025-01-24 23:56:14.346568	196.4	71.7	-72.6	0.0
2025-01-24 23:56:15.488038	196.5	71.2	-68.9	0.0
2025-01-24 23:56:16.629998	196.7	70.7	-72.7	0.0
2025-01-24 23:56:17.770960	196.8	70.1	-72.2	0.0
2025-01-24 23:56:18.911923	196.9	69.6	-67.4	0.0
2025-01-24 23:56:20.054879	197.1	69.0	-72.1	0.0
2025-01-24 23:56:21.194845	197.2	68.5	-69.6	0.0
2025-01-24 23:56:22.336803	197.3	68.0	-71.6	0.0
2025-01-24 23:56:23.478274	197.4	67.4	-71.4	0.0
2025-01-24 23:56:24.619236	197.5	66.9	-69.1	0.0
2025-01-24 23:56:25.761194	197.6	66.4	-71.4	0.0
2025-01-24 23:56:26.901670	197.7	65.9	-71.1	0.0
2025-01-24 23:56:28.043628	197.8	65.4	-68.0	0.0
2025-01-24 23:56:29.186585	197.9	64.9	-71.7	0.0
2025-01-24 23:56:30.330048	198.0	64.3	-71.2	0.0
2025-01-24 23:56:31.471010	198.0	63.8	-69.8	0.0
2025-01-24 23:56:32.612969	198.1	63.3	-70.7	0.0
2025-01-24 23:56:33.753440	198.2	62.8	-69.9	0.0
2025-01-24 23:56:34.896398	198.2	62.4	-70.5	0.0
2025-01-24 23:56:36.038357	198.3	61.9	-70.8	0.0
2025-01-24 23:56:37.183331	198.4	61.4	-68.4	0.0
2025-01-24 23:56:38.323296	198.4	60.9	-70.5	0.0
2025-01-24 23:56:39.463261	198.5	60.4	-70.7	0.0
2025-01-24 23:56:40.604223	198.6	59.9	-69.3	0.0
2025-01-24 23:56:41.749175	198.6	59.5	-70.7	0.0
2025-01-24 23:56:42.895125	198.7	59.0	-70.4	0.0
2025-01-24 23:56:44.033600	198.7	58.5	-69.4	0.0
2025-01-24 23:56:45.176557	198.8	58.1	-71.7	0.0
2025-01-24 23:56:46.317519	198.8	57.6	-71.2	0.0
2025-01-24 23:56:47.458988	198.9	57.2	-70.6	0.0
2025-01-24 23:56:48.599950	198.9	56.7	-71.1	0.0
2025-01-24 23:56:49.741910	199.0	56.3	-72.0	0.0
2025-01-24 23:56:50.883379	199.0	55.8	-72.2	0.0
2025-01-24 23:56:52.024341	199.0	55.4	-70.7	0.0
2025-01-24 23:56:53.165303	199.1	54.9	-72.7	0.0
2025-01-24 23:56:54.307263	199.1	54.5	-72.8	0.0
2025-01-24 23:56:55.449222	199.2	54.1	-73.1	0.0
2025-01-24 23:56:56.590184	199.2	53.7	-70.7	0.0
2025-01-24 23:56:57.731163	199.2	53.2	-73.2	0.0
2025-01-24 23:56:58.873123	199.3	52.8	-70.0	0.0
2025-01-24 23:57:00.014085	199.3	52.4	-70.8	0.0
2025-01-24 23:57:01.156551	199.4	52.0	-73.3	0.0
2025-01-24 23:57:02.302501	199.4	51.6	-72.8	0.0
2025-01-24 23:57:03.443462	199.4	51.2	-72.7	0.0
2025-01-24 23:57:04.585421	199.4	50.8	-72.8	0.0
2025-01-24 23:57:05.725387	199.5	50.4	-72.3	0.0
2025-01-24 23:57:06.867346	199.5	50.0	-71.6	0.0
2025-01-24 23:57:08.008308	199.5	49.6	-72.6	0.0
2025-01-24 23:57:09.151265	199.6	49.2	-71.8	0.0
2025-01-24 23:57:10.293224	199.6	48.8	-73.1	0.0
2025-01-24 23:57:11.434697	199.6	48.4	-72.9	0.0
2025-01-24 23:57:12.573665	199.7	48.1	-72.9	0.0
2025-01-24 23:57:13.716129	199.7	47.7	-72.6	0.0
2025-01-24 23:57:14.857092	199.7	47.3	-72.5	0.0
2025-01-24 23:57:15.999052	199.7	46.9	-72.0	0.0
2025-01-24 23:57:17.140013	199.8	46.6	-72.6	0.0
2025-01-24 23:57:18.284965	199.8	46.2	-73.0	0.0
2025-01-24 23:57:19.423933	199.8	45.9	-73.0	0.0
2025-01-24 23:57:20.564895	199.8	45.5	-72.9	0.0
2025-01-24 23:57:21.705856	199.9	45.1	-72.6	0.0
2025-01-24 23:57:22.848814	199.9	44.8	-73.0	0.0
2025-01-24 23:57:23.990773	199.9	44.5	-73.2	0.0
2025-01-24 23:57:25.133731	199.9	44.1	-73.4	0.0
2025-01-24 23:57:26.274692	199.9	43.8	-73.3	0.0
2025-01-24 23:57:27.420641	200.0	43.4	-73.3	0.0
2025-01-24 23:57:28.562109	200.0	43.1	-73.1	0.0
2025-01-24 23:57:29.704576	200.0	42.8	-73.4	0.0
2025-01-24 23:57:30.846046	200.0	42.4	-73.5	0.0
2025-01-24 23:57:31.988005	200.0	42.1	-73.5	0.0
2025-01-24 23:57:33.133954	200.1	41.8	-73.6	0.0
2025-01-24 23:57:34.276911	200.1	41.5	-73.7	0.0
2025-01-24 23:57:35.420865	200.1	41.2	-73.3	0.0
2025-01-24 23:57:36.561827	200.1	40.8	-73.4	0.0
2025-01-24 23:57:37.702789	200.1	40.5	-73.8	0.0
2025-01-24 23:57:38.843751	200.2	40.2	-73.8	0.0
2025-01-24 23:57:39.988212	200.2	39.9	-73.7	0.0
2025-01-24 23:57:41.131169	200.2	39.6	-74.0	0.0
2025-01-24 23:57:42.274126	200.2	39.3	-74.0	0.0
2025-01-24 23:57:43.415088	200.2	39.0	-74.1	0.0
2025-01-24 23:57:44.555053	200.3	38.7	-74.0	0.0
2025-01-24 23:57:45.698010	200.3	38.4	-74.1	0.0
2025-01-24 23:57:46.842470	200.3	38.1	-73.9	0.0
2025-01-24 23:57:47.984936	200.3	37.8	-73.9	0.0
2025-01-24 23:57:49.126896	200.3	37.6	-72.9	0.0
2025-01-24 23:57:50.267857	200.3	37.3	-74.1	0.0
2025-01-24 23:57:51.409817	200.3	37.0	-73.6	0.0
2025-01-24 23:57:52.551777	200.4	36.7	-73.5	0.0
2025-01-24 23:57:53.693245	200.4	36.4	-73.6	0.0
2025-01-24 23:57:54.837199	200.4	36.2	-73.7	0.0
2025-01-24 23:57:55.976166	200.4	35.9	-73.4	0.0
2025-01-24 23:57:57.116149	200.4	35.6	-73.7	0.0
2025-01-24 23:57:58.258109	200.4	35.4	-73.6	0.0
2025-01-24 23:57:59.400068	200.5	35.1	-73.0	0.0
2025-01-24 23:58:00.541537	200.5	34.8	-73.7	0.0
2025-01-24 23:58:01.683496	200.5	34.6	-73.5	0.0
2025-01-24 23:58:02.825456	200.5	34.3	-73.6	0.0
2025-01-24 23:58:03.965443	200.5	34.1	-73.3	0.0
2025-01-24 23:58:05.108400	200.5	33.8	-72.7	0.0
2025-01-24 23:58:06.248364	200.5	33.6	-73.2	0.0
2025-01-24 23:58:07.391321	200.6	33.3	-73.1	0.0
2025-01-24 23:58:08.532284	200.6	33.1	-72.8	0.0
2025-01-24 23:58:09.673246	200.6	32.8	-72.8	0.0
2025-01-24 23:58:10.814208	200.6	32.6	-73.2	0.0
2025-01-24 23:58:11.956167	200.6	32.3	-72.7	0.0
2025-01-24 23:58:13.097130	200.6	32.1	-73.3	0.0
2025-01-24 23:58:14.239089	200.6	31.8	-73.4	0.0
2025-01-24 23:58:15.381049	200.6	31.6	-72.5	0.0
2025-01-24 23:58:16.523008	200.7	31.4	-73.4	0.0
2025-01-24 23:58:17.664968	200.7	31.1	-73.0	0.0
2025-01-24 23:58:18.804932	200.7	30.9	-72.8	0.0
2025-01-24 23:58:19.945896	200.7	30.7	-72.3	0.0
2025-01-24 23:58:21.087854	200.7	30.5	-72.0	0.0
2025-01-24 23:58:22.233313	200.7	30.2	-72.9	0.0
2025-01-24 23:58:23.374299	200.7	30.0	-73.6	0.0
#Closed at: 2025-01-24 23:52:48.425887