passes_logs/2026/01/23/T1/T1__20260123_233654_NOAA_21_JPSS-2_rec.log

#Pass ID: 20260123_233654_NOAA 21 (JPSS-2)
#Satellite: NOAA 21 (JPSS-2)
#Configuration: NOAA 21
#almurnet v.1.7.20251203
#Start time: 2026-01-23 23:36:55

#Version: 2.0.20230620
#Station: T1
#Location: 37.570604 lon 55.790049 lat
#TLE: 1 54234U 22150A   26022.90705406  .00000208  00000+0  11937-3 0  9994
#TLE: 2 54234  98.7507 323.7115 0000669 231.3756 128.7360 14.19537879165931

#Time	Az	El	Level	Level2	SNR	BER	BlckErr	Temp	State	Recorded	gain1	gain2
2026-01-23 23:36:55.70	16.82	5.10	-47.5	-61.0	3.8	1.49e+00	0	36	0	0	65	18176
2026-01-23 23:36:58.67	16.85	5.31	-47.5	-61.1	3.8	1.49e+00	0	37	104	0	65	18316
2026-01-23 23:37:01.65	16.87	5.52	-47.5	-61.0	3.8	1.49e+00	0	37	104	0	65	18103
2026-01-23 23:37:04.63	16.90	5.74	-47.5	-60.9	3.8	1.49e+00	0	37	104	0	65	17891
2026-01-23 23:37:07.61	16.92	5.96	-47.5	-60.8	3.8	1.49e+00	0	37	104	0	65	17879
2026-01-23 23:37:10.59	16.94	6.18	-47.5	-60.9	3.8	1.49e+00	0	37	104	0	65	18010
2026-01-23 23:37:13.57	16.97	6.40	-47.5	-60.9	3.8	1.49e+00	0	37	104	0	65	18086
2026-01-23 23:37:16.56	16.99	6.63	-47.4	-60.7	3.8	1.49e+00	0	37	104	0	65	17532
2026-01-23 23:37:19.54	17.02	6.85	-47.4	-60.3	3.8	1.49e+00	0	37	104	0	65	16702
2026-01-23 23:37:22.52	17.04	7.08	-47.3	-59.7	3.8	1.49e+00	0	38	104	0	65	15623
2026-01-23 23:37:25.50	17.07	7.31	-47.3	-59.0	3.8	1.48e+00	0	38	104	0	65	14412
2026-01-23 23:37:28.48	17.09	7.54	-47.2	-57.7	4.2	1.47e+00	0	38	104	0	65	12376
2026-01-23 23:37:31.46	17.12	7.78	-47.0	-57.1	4.0	1.39e+00	0	38	104	0	65	11590
2026-01-23 23:37:34.44	17.14	8.01	-46.7	-54.8	5.4	5.82e-01	0	38	0	0	65	8895
2026-01-23 23:37:37.42	17.17	8.25	-46.1	-52.3	7.5	1.24e-01	0	38	0	0	63	7511
2026-01-23 23:37:40.40	17.20	8.49	-45.1	-49.7	10.1	9.25e-03	0	38	0	0	62	5913
2026-01-23 23:37:43.38	17.22	8.74	-44.0	-47.6	12.3	2.26e-04	0	38	0	0	60	5212
2026-01-23 23:37:46.36	17.25	8.98	-43.4	-46.6	13.4	2.05e-05	0	38	0	0	58	5167
2026-01-23 23:37:49.34	17.28	9.23	-44.2	-47.8	12.1	4.17e-03	0	38	0	0	60	5293
2026-01-23 23:37:52.32	17.30	9.48	-43.0	-46.0	14.0	2.20e-06	0	38	0	0	58	4860
2026-01-23 23:37:55.31	17.33	9.74	-43.4	-46.4	13.6	1.22e-05	0	38	0	0	58	5066
2026-01-23 23:37:58.28	17.36	9.99	-41.2	-43.5	16.3	0.00e+00	0	38	0	0	54	4554
2026-01-23 23:38:01.47	17.39	10.27	-40.3	-42.4	17.5	1.50e-06	0	38	0	0	51	4765
2026-01-23 23:38:04.38	17.41	10.52	-39.6	-41.6	18.2	0.00e+00	0	38	0	0	51	4373
2026-01-23 23:38:07.36	17.44	10.79	-39.3	-41.3	18.5	0.00e+00	0	38	0	0	50	4448
2026-01-23 23:38:10.34	17.47	11.05	-39.3	-41.2	18.6	0.00e+00	0	38	0	0	50	4397
2026-01-23 23:38:13.33	17.50	11.32	-39.2	-41.0	18.8	0.00e+00	0	38	0	0	50	4326
2026-01-23 23:38:16.29	17.53	11.60	-39.1	-41.0	18.7	0.00e+00	0	38	0	0	49	4580
2026-01-23 23:38:19.59	17.56	11.90	-39.0	-40.8	19.0	0.00e+00	0	38	0	0	49	4457
2026-01-23 23:38:22.30	17.59	12.16	-38.9	-40.8	19.0	0.00e+00	0	39	0	0	49	4443
2026-01-23 23:38:25.59	17.62	12.47	-38.9	-40.7	19.1	0.00e+00	0	38	0	0	49	4398
2026-01-23 23:38:28.48	17.65	12.75	-38.8	-40.6	19.2	0.00e+00	0	39	0	0	49	4374
2026-01-23 23:38:31.79	17.69	13.07	-38.7	-40.5	19.2	0.00e+00	0	39	0	0	49	4330
2026-01-23 23:38:34.70	17.72	13.35	-38.5	-40.3	19.5	0.00e+00	0	38	0	0	49	4194
2026-01-23 23:38:38.29	17.76	13.71	-38.6	-40.3	19.5	0.00e+00	0	39	0	0	48	4488
2026-01-23 23:38:40.99	17.78	13.99	-38.5	-40.2	19.5	1.50e-06	0	39	0	0	48	4440
2026-01-23 23:38:44.27	17.82	14.32	-38.5	-40.2	19.6	0.00e+00	0	39	0	0	48	4408
2026-01-23 23:38:46.98	17.85	14.60	-38.5	-40.2	19.6	0.00e+00	0	39	0	0	48	4408
2026-01-23 23:38:50.25	17.89	14.95	-38.4	-40.1	19.7	0.00e+00	0	39	0	0	48	4372
2026-01-23 23:38:53.20	17.92	15.26	-38.5	-40.2	19.6	0.00e+00	0	39	0	0	48	4430
2026-01-23 23:38:56.25	17.96	15.59	-38.5	-40.2	19.7	0.00e+00	0	39	0	0	48	4416
2026-01-23 23:38:59.53	17.99	15.95	-38.5	-40.3	19.6	0.00e+00	0	39	0	0	48	4454
2026-01-23 23:39:02.26	18.03	16.25	-38.4	-40.2	19.6	0.00e+00	0	39	0	0	48	4437
2026-01-23 23:39:05.53	18.07	16.62	-38.6	-40.4	19.5	0.00e+00	0	39	0	0	48	4510
2026-01-23 23:39:08.25	18.10	16.93	-38.5	-40.4	19.5	0.00e+00	0	39	0	0	48	4495
2026-01-23 23:39:11.74	18.14	17.33	-38.5	-40.4	19.6	0.00e+00	0	39	0	0	48	4495
2026-01-23 23:39:14.71	18.18	17.68	-38.7	-40.5	19.4	0.00e+00	0	39	0	0	48	4559
2026-01-23 23:39:17.69	18.22	18.04	-38.6	-40.4	19.4	0.00e+00	0	39	0	0	48	4538
2026-01-23 23:39:20.70	18.26	18.40	-38.6	-40.4	19.5	0.00e+00	0	39	0	0	48	4510
2026-01-23 23:39:23.97	18.30	18.80	-38.5	-40.3	19.6	0.00e+00	0	38	0	0	48	4443
2026-01-23 23:39:26.71	18.34	19.14	-38.5	-40.3	19.6	0.00e+00	0	39	0	0	48	4468
2026-01-23 23:39:29.99	18.38	19.56	-38.4	-40.2	19.6	0.00e+00	0	39	0	0	48	4415
2026-01-23 23:39:32.75	18.42	19.91	-38.3	-40.0	19.8	0.00e+00	0	39	0	0	48	4339
2026-01-23 23:39:36.02	18.47	20.34	-38.1	-39.8	19.9	0.00e+00	0	39	0	0	48	4241
2026-01-23 23:39:38.72	18.51	20.70	-38.0	-39.8	20.0	0.00e+00	0	39	0	0	48	4213
2026-01-23 23:39:42.23	18.56	21.17	-37.7	-39.5	20.1	0.00e+00	0	39	0	0	47	4307
2026-01-23 23:39:44.93	18.60	21.54	-37.6	-39.4	20.2	0.00e+00	0	39	0	0	47	4243
2026-01-23 23:39:48.20	18.65	22.00	-37.5	-39.2	20.4	6.56e-05	0	39	0	0	46	4439
2026-01-23 23:39:50.92	18.69	22.39	-37.4	-39.1	20.5	0.00e+00	0	39	0	0	46	4362
2026-01-23 23:39:54.50	18.75	22.90	-37.2	-38.9	20.7	0.00e+00	0	39	0	0	46	4246
2026-01-23 23:39:57.42	18.80	23.33	-37.1	-38.8	20.8	0.00e+00	0	39	0	0	46	4207
2026-01-23 23:40:00.76	18.86	23.83	-37.1	-38.8	20.8	0.00e+00	0	39	0	0	45	4446
2026-01-23 23:40:03.48	18.90	24.25	-37.1	-38.7	20.8	0.00e+00	0	39	0	0	45	4431
2026-01-23 23:40:06.77	18.96	24.76	-37.1	-38.8	20.9	0.00e+00	0	39	0	0	45	4462
2026-01-23 23:40:09.48	19.01	25.19	-37.3	-39.0	20.7	0.00e+00	0	39	0	0	45	4581
2026-01-23 23:40:12.75	19.07	25.71	-37.4	-39.3	20.3	0.00e+00	0	39	0	0	45	4746
2026-01-23 23:40:15.79	19.13	26.21	-37.9	-39.7	20.2	0.00e+00	0	39	0	0	46	4658
2026-01-23 23:40:18.84	19.19	26.72	-38.2	-40.0	19.8	0.00e+00	0	39	0	0	46	4815
2026-01-23 23:40:21.68	19.24	27.20	-38.4	-40.2	19.6	0.00e+00	0	39	0	0	47	4689
2026-01-23 23:40:24.81	19.31	27.75	-38.6	-40.4	19.4	0.00e+00	0	39	0	0	47	4792
2026-01-23 23:40:27.68	19.37	28.25	-38.6	-40.4	19.4	0.00e+00	0	39	0	0	47	4775
2026-01-23 23:40:31.23	19.44	28.89	-38.6	-40.4	19.5	0.00e+00	0	39	0	0	48	4495
2026-01-23 23:40:33.95	19.50	29.40	-38.4	-40.2	19.7	0.00e+00	0	39	0	0	48	4394
2026-01-23 23:40:37.23	19.58	30.01	-38.0	-39.7	20.1	0.00e+00	0	39	0	0	48	4174
2026-01-23 23:40:39.93	19.64	30.53	-37.8	-39.6	20.0	3.80e-06	0	39	0	0	47	4366
2026-01-23 23:40:43.19	19.72	31.17	-37.6	-39.2	20.5	0.00e+00	0	39	0	0	47	4189
2026-01-23 23:40:46.03	19.79	31.73	-37.6	-39.2	20.5	0.00e+00	0	39	0	0	47	4184
2026-01-23 23:40:49.15	19.87	32.37	-37.8	-39.4	20.3	0.00e+00	0	39	0	0	47	4286
2026-01-23 23:40:52.03	19.95	32.97	-38.0	-39.6	20.2	0.00e+00	0	39	0	0	47	4383
2026-01-23 23:40:55.26	20.04	33.65	-38.4	-40.1	19.8	0.00e+00	0	39	0	0	47	4632
2026-01-23 23:40:58.21	20.12	34.29	-38.6	-40.3	19.6	0.00e+00	0	39	0	0	47	4738
2026-01-23 23:41:01.72	20.23	35.07	-39.0	-40.8	19.3	0.00e+00	0	39	0	0	48	4715
2026-01-23 23:41:04.70	20.32	35.75	-39.4	-41.3	18.9	0.00e+00	0	39	0	0	49	4717
2026-01-23 23:41:07.68	20.41	36.44	-39.6	-41.5	18.6	0.00e+00	0	39	0	0	50	4598
2026-01-23 23:41:10.67	20.51	37.15	-39.9	-41.9	18.2	0.00e+00	0	39	0	0	50	4776
2026-01-23 23:41:13.65	20.62	37.87	-40.2	-42.1	18.1	0.00e+00	0	39	0	0	50	4913
2026-01-23 23:41:16.63	20.72	38.61	-39.9	-41.8	18.4	0.00e+00	0	39	0	0	51	4450
2026-01-23 23:41:19.62	20.84	39.37	-39.6	-41.5	18.7	0.00e+00	0	39	0	0	51	4309
2026-01-23 23:41:22.60	20.95	40.14	-39.8	-41.7	18.5	0.00e+00	0	39	0	0	51	4398
2026-01-23 23:41:25.59	21.08	40.93	-39.9	-41.8	18.3	0.00e+00	0	39	0	0	51	4468
2026-01-23 23:41:28.58	21.20	41.74	-40.3	-42.2	17.9	0.00e+00	0	39	0	0	51	4691
2026-01-23 23:41:31.56	21.34	42.57	-40.6	-42.6	17.5	0.00e+00	0	39	0	0	52	4608
2026-01-23 23:41:34.55	21.48	43.41	-41.4	-43.5	16.6	0.00e+00	0	39	0	0	53	4855
2026-01-23 23:41:37.53	21.62	44.27	-41.1	-43.2	16.9	0.00e+00	0	39	0	0	53	4681
2026-01-23 23:41:40.51	21.78	45.16	-41.1	-43.2	17.0	0.00e+00	0	39	0	0	53	4688
2026-01-23 23:41:43.50	21.94	46.06	-41.7	-44.0	16.2	0.00e+00	0	39	0	0	53	5136
2026-01-23 23:41:46.48	22.11	46.98	-41.7	-44.0	16.1	0.00e+00	0	39	0	0	54	4838
2026-01-23 23:41:49.47	22.30	47.93	-41.0	-43.1	16.9	0.00e+00	0	39	0	0	54	4358
2026-01-23 23:41:52.47	22.49	48.90	-40.4	-42.4	17.7	0.00e+00	0	39	0	0	52	4542
2026-01-23 23:41:55.45	22.70	49.88	-40.2	-42.2	17.9	0.00e+00	0	39	0	0	52	4400
2026-01-23 23:41:58.44	22.91	50.89	-40.0	-41.9	18.3	0.00e+00	0	39	0	0	51	4539
2026-01-23 23:42:01.42	23.15	51.92	-39.5	-41.4	18.7	0.00e+00	0	39	0	0	51	4244
2026-01-23 23:42:04.41	23.40	52.97	-38.6	-40.3	19.5	0.00e+00	0	39	0	0	49	4242
2026-01-23 23:42:07.33	23.66	54.02	-38.5	-40.3	19.7	0.00e+00	0	39	0	0	49	4198
2026-01-23 23:42:10.70	23.98	55.26	-37.8	-39.5	20.3	0.00e+00	0	39	0	0	47	4300
2026-01-23 23:42:13.48	24.27	56.30	-37.8	-39.5	20.3	0.00e+00	0	39	0	0	47	4315
2026-01-23 23:42:16.64	24.63	57.51	-38.1	-39.8	20.1	0.00e+00	0	39	0	0	47	4463
2026-01-23 23:42:19.86	25.02	58.77	-37.6	-39.3	20.5	0.00e+00	0	39	0	0	47	4204
2026-01-23 23:42:22.70	25.41	59.90	-37.2	-38.8	20.9	0.00e+00	0	39	0	0	46	4234
2026-01-23 23:42:25.83	25.87	61.17	-36.9	-38.5	21.2	0.00e+00	0	39	0	0	45	4303
2026-01-23 23:42:28.67	26.33	62.34	-36.3	-37.8	21.8	0.00e+00	0	39	0	0	44	4230
2026-01-23 23:42:31.92	26.91	63.71	-36.6	-38.1	21.5	0.00e+00	0	39	0	0	44	4380
2026-01-23 23:42:34.82	27.49	64.94	-36.6	-38.2	21.5	0.00e+00	0	39	0	0	44	4407
2026-01-23 23:42:38.09	28.23	66.36	-36.3	-37.9	21.8	0.00e+00	0	39	0	0	44	4263
2026-01-23 23:42:40.79	28.91	67.55	-37.0	-38.6	21.0	0.00e+00	0	39	0	0	44	4615
2026-01-23 23:42:44.07	29.85	69.01	-36.5	-38.0	21.3	0.00e+00	0	39	0	0	44	4328
2026-01-23 23:42:46.78	30.75	70.23	-36.0	-37.5	21.6	0.00e+00	0	39	0	0	44	4086
2026-01-23 23:42:50.05	31.99	71.71	-36.2	-37.7	21.6	0.00e+00	0	39	0	0	43	4427
2026-01-23 23:42:52.88	33.26	73.01	-35.9	-37.4	22.0	0.00e+00	0	39	0	0	43	4249
2026-01-23 23:42:56.26	35.06	74.56	-36.0	-37.6	21.9	0.00e+00	0	39	0	0	43	4369
2026-01-23 23:42:58.96	36.79	75.80	-36.3	-37.9	21.5	0.00e+00	0	39	0	0	43	4495
2026-01-23 23:43:02.23	39.36	77.30	-37.0	-38.5	21.3	0.00e+00	0	39	0	0	45	4337
2026-01-23 23:43:04.96	42.03	78.54	-37.7	-39.4	20.6	0.00e+00	0	39	0	0	46	4506
2026-01-23 23:43:08.23	46.11	79.99	-36.9	-38.5	21.2	0.00e+00	0	39	0	0	45	4332
2026-01-23 23:43:10.97	50.57	81.17	-36.8	-38.3	21.3	0.00e+00	0	39	0	0	45	4238
2026-01-23 23:43:14.26	57.75	82.50	-36.5	-38.1	21.3	0.00e+00	0	39	0	0	44	4356
2026-01-23 23:43:16.98	65.81	83.48	-37.3	-38.9	20.7	0.00e+00	0	39	0	0	45	4530
2026-01-23 23:43:20.26	79.03	84.44	-37.2	-38.9	20.7	0.00e+00	0	39	0	0	45	4498
2026-01-23 23:43:22.98	93.17	84.94	-37.5	-39.2	20.6	0.00e+00	0	39	0	0	45	4675
2026-01-23 23:43:26.24	112.42	85.06	-37.1	-38.8	21.0	0.00e+00	0	39	0	0	46	4203
2026-01-23 23:43:28.96	127.78	84.74	-37.1	-38.7	21.1	0.00e+00	0	39	0	0	46	4167
2026-01-23 23:43:32.23	142.81	83.94	-36.3	-37.9	21.6	0.00e+00	0	39	0	0	44	4264
2026-01-23 23:43:34.97	152.24	83.03	-36.8	-38.4	21.1	0.00e+00	0	39	0	0	44	4504
2026-01-23 23:43:38.24	160.49	81.77	-36.7	-38.3	21.5	0.00e+00	0	39	0	0	44	4442
2026-01-23 23:43:40.97	165.58	80.62	-37.7	-39.4	20.6	0.00e+00	0	39	0	0	46	4509
2026-01-23 23:43:44.25	170.22	79.18	-37.0	-38.6	21.2	0.00e+00	0	39	0	0	45	4360
2026-01-23 23:43:47.22	173.44	77.84	-37.1	-38.7	20.9	0.00e+00	0	39	0	0	45	4432
2026-01-23 23:43:50.21	176.03	76.47	-36.9	-38.5	20.9	0.00e+00	0	39	0	0	45	4331
2026-01-23 23:43:53.24	178.15	75.08	-37.3	-39.0	20.5	0.00e+00	0	39	0	0	45	4573
2026-01-23 23:43:56.22	179.87	73.70	-36.6	-38.2	21.4	0.00e+00	0	39	0	0	44	4400
2026-01-23 23:43:59.20	181.32	72.33	-37.0	-38.6	21.3	0.00e+00	0	39	0	0	45	4353
2026-01-23 23:44:02.19	182.55	70.97	-36.2	-37.8	21.8	0.00e+00	0	39	0	0	44	4202
2026-01-23 23:44:05.17	183.61	69.62	-38.1	-39.8	20.1	0.00e+00	0	39	0	0	46	4740
2026-01-23 23:44:08.85	184.72	67.97	-36.6	-38.2	21.5	0.00e+00	0	39	0	0	45	4151
2026-01-23 23:44:11.62	185.45	66.74	-37.7	-39.4	20.6	0.00e+00	0	39	0	0	46	4536
2026-01-23 23:44:15.06	186.25	65.24	-36.4	-38.0	21.4	0.00e+00	0	39	0	0	44	4328
2026-01-23 23:44:17.76	186.81	64.08	-35.6	-37.2	22.3	0.00e+00	0	39	0	0	43	4146
2026-01-23 23:44:21.23	187.45	62.61	-38.5	-40.3	19.5	0.00e+00	0	39	0	0	47	4711
2026-01-23 23:44:23.93	187.90	61.49	-37.1	-38.7	20.7	0.00e+00	0	39	0	0	46	4159
2026-01-23 23:44:27.21	188.39	60.15	-38.2	-39.9	19.9	0.00e+00	0	39	0	0	47	4544
2026-01-23 23:44:29.92	188.77	59.06	-37.6	-39.3	20.6	0.00e+00	0	39	0	0	47	4198
2026-01-23 23:44:33.20	189.18	57.77	-37.3	-38.9	20.7	0.00e+00	0	39	0	0	46	4269
2026-01-23 23:44:36.04	189.51	56.67	-38.2	-39.9	20.2	0.00e+00	0	39	0	0	47	4496
2026-01-23 23:44:39.17	189.84	55.48	-39.7	-41.5	18.6	0.00e+00	0	39	0	0	50	4572
2026-01-23 23:44:42.01	190.12	54.43	-39.0	-40.8	19.0	0.00e+00	0	39	0	0	50	4215
2026-01-23 23:44:45.14	190.41	53.29	-38.3	-40.1	19.9	0.00e+00	0	39	0	0	48	4343
2026-01-23 23:44:48.05	190.66	52.25	-39.2	-41.0	19.2	0.00e+00	0	39	0	0	49	4594
2026-01-23 23:44:51.04	190.90	51.21	-40.5	-42.5	17.6	0.00e+00	0	39	0	0	51	4857
2026-01-23 23:44:54.02	191.12	50.19	-39.8	-41.7	18.4	0.00e+00	0	39	0	0	51	4396
2026-01-23 23:44:57.01	191.33	49.19	-40.3	-42.3	17.8	0.00e+00	0	39	0	0	51	4723
2026-01-23 23:45:00.00	191.53	48.21	-40.0	-41.8	18.3	0.00e+00	0	39	0	0	51	4489
2026-01-23 23:45:02.99	191.71	47.26	-40.4	-42.4	17.8	0.00e+00	0	39	0	0	51	4778
2026-01-23 23:45:05.97	191.89	46.32	-40.7	-42.7	17.0	0.00e+00	0	39	0	0	52	4668
2026-01-23 23:45:08.95	192.05	45.41	-40.7	-42.7	17.5	0.00e+00	0	39	0	0	52	4658
2026-01-23 23:45:11.94	192.21	44.51	-41.5	-43.7	16.4	0.00e+00	0	39	0	0	53	4937
2026-01-23 23:45:14.97	192.36	43.63	-41.5	-43.6	16.4	0.00e+00	0	39	0	0	54	4639
2026-01-23 23:45:17.96	192.50	42.77	-40.6	-42.7	17.5	0.00e+00	0	39	0	0	53	4398
2026-01-23 23:45:20.94	192.64	41.94	-40.3	-42.3	17.9	0.00e+00	0	39	0	0	52	4475
2026-01-23 23:45:23.93	192.77	41.12	-41.5	-43.8	16.3	0.00e+00	0	39	0	0	53	5007
2026-01-23 23:45:26.96	192.89	40.31	-41.5	-43.7	16.6	0.00e+00	0	39	0	0	54	4654
2026-01-23 23:45:29.86	193.01	39.55	-40.3	-42.3	18.0	0.00e+00	0	39	0	0	52	4448
2026-01-23 23:45:32.99	193.12	38.74	-39.9	-41.7	18.4	0.00e+00	0	39	0	0	51	4419
2026-01-23 23:45:35.84	193.23	38.03	-40.1	-42.0	18.2	0.00e+00	0	39	0	0	51	4567
2026-01-23 23:45:38.96	193.34	37.26	-39.3	-41.1	18.9	0.00e+00	0	39	0	0	50	4369
2026-01-23 23:45:41.80	193.43	36.58	-39.4	-41.2	19.0	0.00e+00	0	39	0	0	50	4401
2026-01-23 23:45:45.10	193.54	35.81	-40.3	-42.2	17.8	0.00e+00	0	39	0	0	51	4682
2026-01-23 23:45:47.83	193.62	35.18	-40.3	-42.3	17.5	0.00e+00	0	39	0	0	52	4475
2026-01-23 23:45:51.16	193.72	34.43	-40.2	-42.2	17.6	0.00e+00	0	39	0	0	52	4406
2026-01-23 23:45:53.87	193.80	33.84	-39.9	-41.7	18.3	0.00e+00	0	39	0	0	51	4430
2026-01-23 23:45:57.14	193.89	33.13	-39.1	-40.8	19.2	0.00e+00	0	39	0	0	50	4242
2026-01-23 23:46:00.13	193.97	32.50	-38.7	-40.5	19.6	0.00e+00	0	39	0	0	49	4306
2026-01-23 23:46:03.17	194.04	31.87	-38.3	-40.0	20.1	0.00e+00	0	39	0	0	48	4319
2026-01-23 23:46:07.07	194.14	31.09	-38.4	-40.1	19.9	0.00e+00	0	39	0	0	48	4349
2026-01-23 23:46:09.92	194.21	30.53	-38.8	-40.5	19.4	0.00e+00	0	39	0	0	48	4597
2026-01-23 23:46:13.89	194.30	29.76	-39.0	-40.8	19.1	0.00e+00	0	39	0	0	48	4742
2026-01-23 23:46:16.67	194.36	29.24	-38.9	-40.6	19.3	0.00e+00	0	39	0	0	48	4651
2026-01-23 23:46:19.95	194.43	28.63	-38.7	-40.4	19.5	0.00e+00	0	39	0	0	48	4533
2026-01-23 23:46:22.67	194.49	28.14	-38.4	-40.1	19.7	0.00e+00	0	39	0	0	48	4390
2026-01-23 23:46:25.93	194.56	27.56	-37.9	-39.6	20.0	0.00e+00	0	39	0	0	47	4345
2026-01-23 23:46:28.79	194.61	27.07	-37.8	-39.5	20.1	0.00e+00	0	39	0	0	47	4317
2026-01-23 23:46:32.19	194.68	26.49	-37.5	-39.2	20.4	0.00e+00	0	39	0	0	47	4153
2026-01-23 23:46:34.91	194.73	26.03	-37.4	-39.1	20.5	0.00e+00	0	39	0	0	46	4354
2026-01-23 23:46:38.22	194.79	25.49	-37.4	-39.1	20.5	0.00e+00	0	39	0	0	46	4355
2026-01-23 23:46:40.93	194.84	25.05	-37.5	-39.2	20.4	0.00e+00	0	39	0	0	46	4416
2026-01-23 23:46:44.23	194.90	24.53	-37.3	-38.9	20.7	0.00e+00	0	39	0	0	46	4272
2026-01-23 23:46:46.95	194.94	24.10	-37.4	-39.0	20.6	0.00e+00	0	39	0	0	46	4335
2026-01-23 23:46:50.47	195.00	23.57	-37.7	-39.3	20.4	0.00e+00	0	39	0	0	46	4481
2026-01-23 23:46:53.21	195.05	23.15	-37.9	-39.5	20.3	0.00e+00	0	39	0	0	46	4594
2026-01-23 23:46:56.50	195.10	22.67	-38.1	-39.8	20.0	0.00e+00	0	39	0	0	46	4750
2026-01-23 23:46:59.21	195.14	22.28	-38.1	-39.8	20.1	0.00e+00	0	39	0	0	46	4715
2026-01-23 23:47:02.57	195.19	21.80	-37.9	-39.6	20.2	0.00e+00	0	39	0	0	46	4644
2026-01-23 23:47:05.30	195.23	21.42	-37.9	-39.6	20.1	0.00e+00	0	39	0	0	46	4646
2026-01-23 23:47:08.58	195.28	20.96	-37.8	-39.6	20.2	0.00e+00	0	39	0	0	46	4604
2026-01-23 23:47:11.30	195.32	20.60	-37.9	-39.6	20.1	0.00e+00	0	39	0	0	46	4638
2026-01-23 23:47:14.57	195.36	20.16	-37.9	-39.6	20.0	0.00e+00	0	39	0	0	46	4626
2026-01-23 23:47:17.30	195.40	19.80	-38.0	-39.8	19.8	0.00e+00	0	39	0	0	46	4707
2026-01-23 23:47:20.58	195.44	19.38	-38.1	-39.8	19.7	0.00e+00	0	39	0	0	46	4738
2026-01-23 23:47:23.44	195.48	19.01	-38.2	-39.9	19.6	0.00e+00	0	39	0	0	47	4545
2026-01-23 23:47:26.72	195.52	18.60	-38.1	-39.9	19.6	0.00e+00	0	39	0	0	47	4523
2026-01-23 23:47:29.42	195.55	18.27	-38.2	-40.0	19.5	0.00e+00	0	39	0	0	47	4589
2026-01-23 23:47:32.71	195.60	17.87	-38.3	-40.1	19.4	0.00e+00	0	39	0	0	47	4648
2026-01-23 23:47:35.50	195.63	17.53	-38.5	-40.3	19.2	0.00e+00	0	39	0	0	47	4738
2026-01-23 23:47:38.80	195.67	17.15	-38.6	-40.5	19.1	0.00e+00	0	39	0	0	47	4854
2026-01-23 23:47:41.75	195.70	16.80	-38.6	-40.5	19.2	0.00e+00	0	39	0	0	47	4824
2026-01-23 23:47:45.04	195.74	16.43	-38.7	-40.6	19.3	0.00e+00	0	39	0	0	48	4620
2026-01-23 23:47:47.78	195.77	16.12	-38.6	-40.5	19.4	0.00e+00	0	39	0	0	48	4564
2026-01-23 23:47:51.08	195.81	15.75	-38.6	-40.4	19.5	0.00e+00	0	39	0	0	48	4537
2026-01-23 23:47:54.45	195.84	15.38	-38.7	-40.5	19.3	0.00e+00	0	39	0	0	48	4598
2026-01-23 23:47:57.19	195.87	15.08	-38.7	-40.5	19.4	7.00e-07	0	39	0	0	48	4573
2026-01-23 23:48:00.46	195.91	14.73	-38.8	-40.6	19.2	0.00e+00	0	39	0	0	48	4636
2026-01-23 23:48:03.19	195.94	14.45	-38.8	-40.7	19.2	0.00e+00	0	39	0	0	48	4668
2026-01-23 23:48:06.57	195.97	14.09	-38.7	-40.5	19.3	0.00e+00	0	39	0	0	48	4580
2026-01-23 23:48:09.27	196.00	13.82	-38.7	-40.5	19.3	0.00e+00	0	39	0	0	48	4575
2026-01-23 23:48:12.67	196.03	13.47	-38.7	-40.5	19.3	0.00e+00	0	39	0	0	48	4570
2026-01-23 23:48:15.70	196.06	13.17	-38.7	-40.5	19.3	0.00e+00	0	39	0	0	48	4581
2026-01-23 23:48:18.98	196.09	12.85	-38.7	-40.5	19.3	0.00e+00	0	39	0	0	48	4578
2026-01-23 23:48:21.69	196.12	12.58	-38.7	-40.5	19.3	0.00e+00	0	39	0	0	48	4585
2026-01-23 23:48:24.98	196.15	12.26	-38.9	-40.8	19.0	0.00e+00	0	39	0	0	48	4716
2026-01-23 23:48:27.93	196.18	11.98	-38.9	-40.8	19.0	0.00e+00	0	39	0	0	48	4723
2026-01-23 23:48:31.22	196.21	11.67	-39.0	-40.9	18.9	0.00e+00	0	39	0	0	48	4790
2026-01-23 23:48:33.94	196.23	11.42	-39.2	-41.1	18.7	0.00e+00	0	39	0	0	49	4627
2026-01-23 23:48:37.23	196.26	11.12	-39.1	-41.1	18.7	0.00e+00	0	39	0	0	49	4607
2026-01-23 23:48:39.94	196.28	10.87	-39.3	-41.2	18.5	0.00e+00	0	39	0	0	49	4703
2026-01-23 23:48:43.22	196.31	10.58	-39.4	-41.3	18.4	0.00e+00	0	39	0	0	49	4757
2026-01-23 23:48:46.22	196.34	10.31	-39.5	-41.5	18.2	0.00e+00	0	39	0	0	49	4855
2026-01-23 23:48:49.54	196.36	10.02	-39.7	-41.7	18.1	0.00e+00	0	39	0	0	50	4659
2026-01-23 23:48:52.25	196.39	9.78	-39.7	-41.8	18.0	0.00e+00	0	39	0	0	50	4720
2026-01-23 23:48:55.52	196.41	9.50	-40.0	-42.0	17.7	0.00e+00	0	39	0	0	50	4863
2026-01-23 23:48:58.22	196.44	9.27	-40.1	-42.2	17.6	0.00e+00	0	39	0	0	50	4938
2026-01-23 23:49:01.51	196.46	8.99	-40.7	-42.9	16.9	0.00e+00	0	39	0	0	51	5071
2026-01-23 23:49:04.22	196.48	8.77	-48.0	-61.4	3.8	1.49e+00	0	39	104	0	67	17036
2026-01-23 23:49:07.51	196.51	8.50	-48.8	-61.8	3.8	1.49e+00	0	39	104	0	68	16855
2026-01-23 23:49:10.27	196.53	8.27	-48.9	-61.9	3.8	1.49e+00	0	39	104	0	68	17011
2026-01-23 23:49:13.67	196.56	7.99	-49.0	-61.9	3.8	1.49e+00	0	39	104	0	68	17029
2026-01-23 23:49:16.42	196.58	7.77	-48.9	-61.9	3.8	1.49e+00	0	39	104	0	68	17009
2026-01-23 23:49:19.81	196.60	7.50	-49.0	-61.9	3.8	1.49e+00	0	39	104	0	68	16899
2026-01-23 23:49:22.51	196.62	7.29	-48.8	-61.9	3.8	1.49e+00	0	39	104	0	68	16974
2026-01-23 23:49:25.78	196.65	7.04	-48.7	-61.8	3.8	1.49e+00	0	39	104	0	68	16883
2026-01-23 23:49:28.49	196.67	6.83	-48.7	-61.8	3.8	1.49e+00	0	39	104	0	68	16792
2026-01-23 23:49:31.75	196.69	6.58	-48.7	-61.8	3.8	1.49e+00	0	39	104	0	68	16855
2026-01-23 23:49:34.45	196.71	6.37	-48.7	-61.8	3.8	1.49e+00	0	39	104	0	68	16762
2026-01-23 23:49:37.73	196.73	6.13	-48.7	-61.8	3.8	1.49e+00	0	39	104	0	68	16830
2026-01-23 23:49:40.44	196.75	5.92	-48.7	-61.8	3.8	1.49e+00	0	39	104	0	68	16751
2026-01-23 23:49:43.72	196.77	5.68	-48.7	-61.8	3.8	1.49e+00	0	39	104	0	68	16758
2026-01-23 23:49:46.42	196.79	5.48	-48.7	-61.8	3.8	1.49e+00	0	39	104	0	68	16792
2026-01-23 23:49:49.70	196.81	5.24	-48.7	-61.8	3.8	1.49e+00	0	39	104	0	68	16805
2026-01-23 23:49:52.41	196.83	5.05	-48.7	-61.8	3.8	1.49e+00	0	39	104	0	68	16812

#Closed at: 2026-01-23 23:49:54
#Recorded file [0 MB]: D:/Data/31040_260124_023655.dat