passes_logs/2026/01/23/T1/T1__20260123_200530_KHAYYAM_rec.log

#Pass ID: 20260123_200530_KHAYYAM
#Satellite: KHAYYAM
#Configuration: KHAYYAM_480M
#almurnet v.1.7.20251203
#Start time: 2026-01-23 20:05:32

#Version: 2.0.20230620
#Station: T1
#Location: 37.570604 lon 55.790049 lat
#TLE: 1 53370U 22096A   26022.96384356  .00007562  00000+0  30850-3 0  9991
#TLE: 2 53370  97.3553 289.8311 0001899 107.2217 252.9229 15.24706910192458

#Time	Az	El	Level	Level2	SNR	BER	BlckErr	Temp	State	Recorded	gain1	gain2
2026-01-23 20:05:32.15	34.60	5.07	-48.4	-50.9	3.9	0.00e+00	0	40	0	0	68	19076
2026-01-23 20:05:34.13	34.86	5.20	-48.3	-50.8	4.1	0.00e+00	0	40	104	0	67	19988
2026-01-23 20:05:36.12	35.12	5.33	-48.3	-50.8	4.1	0.00e+00	0	40	104	0	67	19973
2026-01-23 20:05:38.10	35.39	5.46	-48.3	-50.8	4.1	0.00e+00	0	40	104	0	67	19962
2026-01-23 20:05:40.09	35.66	5.59	-48.3	-50.8	4.0	0.00e+00	0	41	104	0	67	19981
2026-01-23 20:05:42.08	35.93	5.72	-48.3	-50.7	4.1	0.00e+00	0	41	104	0	67	19922
2026-01-23 20:05:44.06	36.20	5.85	-48.3	-50.8	4.1	0.00e+00	0	41	104	0	67	19957
2026-01-23 20:05:46.05	36.48	5.98	-48.3	-50.8	4.1	0.00e+00	0	41	104	0	67	19977
2026-01-23 20:05:48.03	36.75	6.11	-48.3	-50.8	4.1	0.00e+00	0	41	104	0	67	19986
2026-01-23 20:05:50.02	37.04	6.24	-48.3	-50.8	4.1	0.00e+00	0	42	104	0	67	19999
2026-01-23 20:05:52.01	37.32	6.37	-48.3	-50.8	4.1	0.00e+00	0	42	104	0	67	19964
2026-01-23 20:05:53.99	37.61	6.50	-48.3	-50.8	4.1	0.00e+00	0	42	104	0	67	19958
2026-01-23 20:05:55.98	37.90	6.63	-48.3	-50.8	4.1	0.00e+00	0	42	104	0	67	19968
2026-01-23 20:05:57.96	38.20	6.77	-48.3	-50.8	4.1	0.00e+00	0	42	104	0	67	19935
2026-01-23 20:05:59.95	38.50	6.90	-48.3	-50.8	4.1	0.00e+00	0	42	104	0	67	19944
2026-01-23 20:06:01.94	38.80	7.03	-48.3	-50.8	4.1	0.00e+00	0	42	104	0	67	20005
2026-01-23 20:06:03.93	39.11	7.17	-48.3	-50.8	4.1	0.00e+00	0	42	104	0	67	19947
2026-01-23 20:06:05.91	39.42	7.30	-48.3	-50.8	4.1	0.00e+00	0	43	104	0	67	20027
2026-01-23 20:06:07.90	39.73	7.44	-48.3	-50.8	4.0	0.00e+00	0	42	104	0	67	19958
2026-01-23 20:06:09.89	40.05	7.57	-48.3	-50.7	4.1	0.00e+00	0	42	104	0	67	19918
2026-01-23 20:06:11.87	40.37	7.71	-48.3	-50.7	4.1	0.00e+00	0	43	104	0	67	19910
2026-01-23 20:06:13.86	40.69	7.84	-48.3	-50.7	4.1	0.00e+00	0	43	104	0	67	19892
2026-01-23 20:06:15.85	41.02	7.98	-48.3	-50.8	4.1	0.00e+00	0	43	104	0	67	19971
2026-01-23 20:06:17.83	41.35	8.12	-48.3	-50.8	4.1	0.00e+00	0	43	104	0	67	19971
2026-01-23 20:06:19.82	41.68	8.25	-48.3	-50.8	4.1	0.00e+00	0	43	104	0	67	19972
2026-01-23 20:06:21.81	42.02	8.39	-48.3	-50.7	4.1	0.00e+00	0	43	104	0	67	19882
2026-01-23 20:06:23.79	42.36	8.53	-48.3	-50.7	4.1	0.00e+00	0	43	104	0	67	19918
2026-01-23 20:06:25.78	42.71	8.66	-48.3	-50.7	4.1	0.00e+00	0	43	104	0	67	19905
2026-01-23 20:06:27.77	43.06	8.80	-48.3	-50.8	4.1	0.00e+00	0	43	104	0	67	19994
2026-01-23 20:06:29.76	43.42	8.94	-48.3	-50.8	4.1	0.00e+00	0	43	104	0	67	19991
2026-01-23 20:06:31.74	43.78	9.08	-48.4	-50.8	4.1	0.00e+00	0	43	104	0	67	20142
2026-01-23 20:06:33.78	44.15	9.22	-47.4	-49.5	4.3	0.00e+00	0	43	104	0	66	18280
2026-01-23 20:06:35.73	44.51	9.36	-48.5	-50.9	4.1	0.00e+00	0	44	104	0	67	20319
2026-01-23 20:06:37.72	44.88	9.49	-49.7	-52.7	3.8	0.00e+00	0	44	104	0	70	21020
2026-01-23 20:06:39.71	45.26	9.63	-50.6	-54.3	3.7	0.00e+00	0	44	104	0	72	22544
2026-01-23 20:06:41.70	45.64	9.77	-50.5	-54.0	3.7	0.00e+00	0	44	104	0	72	21705
2026-01-23 20:06:43.69	46.03	9.91	-51.4	-55.9	3.7	0.00e+00	0	44	104	0	73	25446
2026-01-23 20:06:45.67	46.41	10.05	-51.5	-56.0	3.7	0.00e+00	0	44	104	0	73	25756
2026-01-23 20:06:47.66	46.81	10.19	-51.1	-55.6	3.7	0.00e+00	0	44	104	0	73	24662
2026-01-23 20:06:49.66	47.21	10.33	-50.9	-55.1	3.7	0.00e+00	0	44	104	0	73	23212
2026-01-23 20:06:51.62	47.61	10.47	-50.9	-55.3	3.7	0.00e+00	0	44	104	0	73	23761
2026-01-23 20:06:53.69	48.03	10.61	-50.7	-54.4	3.7	0.00e+00	0	44	104	0	73	21481
2026-01-23 20:06:55.71	48.45	10.75	-50.5	-54.2	3.7	0.00e+00	0	44	104	0	72	22240
2026-01-23 20:06:57.80	48.89	10.90	-51.0	-55.1	3.7	0.00e+00	0	44	104	0	72	24746
2026-01-23 20:06:59.80	49.32	11.04	-50.6	-54.4	3.7	0.00e+00	0	44	104	0	72	22801
2026-01-23 20:07:01.81	49.75	11.18	-51.3	-55.7	3.7	0.00e+00	0	44	104	0	73	24819
2026-01-23 20:07:03.86	50.20	11.32	-51.1	-55.1	3.7	0.00e+00	0	44	104	0	73	23303
2026-01-23 20:07:05.87	50.64	11.46	-51.3	-55.6	3.7	0.00e+00	0	44	104	0	73	24680
2026-01-23 20:07:07.87	51.08	11.60	-51.2	-55.3	3.7	0.00e+00	0	44	104	0	73	23791
2026-01-23 20:07:09.86	51.53	11.74	-51.3	-55.5	3.7	0.00e+00	0	44	104	0	73	24252
2026-01-23 20:07:11.88	51.99	11.88	-51.3	-55.6	3.7	0.00e+00	0	44	104	0	73	24758
2026-01-23 20:07:13.87	52.45	12.02	-51.3	-55.8	3.7	0.00e+00	0	44	104	0	73	25150
2026-01-23 20:07:15.89	52.92	12.16	-51.1	-55.2	3.7	0.00e+00	0	44	104	0	73	23498
2026-01-23 20:07:17.91	53.40	12.30	-51.3	-55.8	3.7	0.00e+00	0	44	104	0	73	25367
2026-01-23 20:07:19.98	53.89	12.44	-51.5	-56.0	3.7	0.00e+00	0	44	104	0	73	25769
2026-01-23 20:07:22.03	54.39	12.58	-51.4	-55.9	3.7	0.00e+00	0	44	104	0	73	25386
2026-01-23 20:07:24.02	54.87	12.71	-51.6	-56.4	3.7	0.00e+00	0	44	104	0	73	26946
2026-01-23 20:07:26.01	55.36	12.85	-51.6	-56.3	3.7	0.00e+00	0	45	104	0	74	25174
2026-01-23 20:07:28.00	55.86	12.98	-51.9	-56.5	3.7	0.00e+00	0	44	104	0	74	25850
2026-01-23 20:07:30.00	56.36	13.11	-52.0	-56.5	3.7	0.00e+00	0	45	104	0	74	25931
2026-01-23 20:07:31.99	56.87	13.25	-51.8	-56.4	3.7	0.00e+00	0	45	104	0	74	25588
2026-01-23 20:07:33.98	57.38	13.38	-51.7	-56.5	3.7	0.00e+00	0	45	104	0	74	25691
2026-01-23 20:07:36.13	57.94	13.52	-51.7	-56.1	3.7	0.00e+00	0	44	104	0	74	24634
2026-01-23 20:07:38.12	58.47	13.65	-51.7	-55.9	3.7	0.00e+00	0	44	104	0	74	24045
2026-01-23 20:07:40.11	59.00	13.78	-51.8	-56.4	3.7	0.00e+00	0	45	104	0	74	25521
2026-01-23 20:07:42.10	59.53	13.90	-51.5	-56.0	3.7	0.00e+00	0	45	104	0	74	24450
2026-01-23 20:07:44.14	60.09	14.03	-51.2	-55.8	3.7	0.00e+00	0	45	104	0	74	23877
2026-01-23 20:07:46.19	60.65	14.16	-51.6	-56.3	3.7	0.00e+00	0	45	104	0	74	25143
2026-01-23 20:07:48.18	61.20	14.28	-51.6	-56.4	3.7	0.00e+00	0	45	104	0	74	25474
2026-01-23 20:07:50.14	61.75	14.40	-51.8	-56.4	3.7	0.00e+00	0	44	104	0	74	25485
2026-01-23 20:07:52.12	62.31	14.52	-51.8	-56.5	3.7	0.00e+00	0	45	104	0	74	25711
2026-01-23 20:07:54.11	62.87	14.64	-51.9	-56.5	3.7	0.00e+00	0	45	104	0	74	25900
2026-01-23 20:07:56.10	63.45	14.76	-51.9	-56.4	3.7	0.00e+00	0	45	104	0	74	25592
2026-01-23 20:07:58.10	64.03	14.88	-51.8	-56.4	3.7	0.00e+00	0	45	104	0	74	25478
2026-01-23 20:08:00.09	64.61	14.99	-51.9	-56.4	3.7	0.00e+00	0	45	104	0	74	25434
2026-01-23 20:08:02.16	65.22	15.11	-51.8	-56.3	3.7	0.00e+00	0	45	104	0	74	25364
2026-01-23 20:08:04.21	65.84	15.22	-51.8	-56.3	3.7	0.00e+00	0	45	104	0	74	25123
2026-01-23 20:08:06.20	66.44	15.33	-51.7	-56.1	3.7	0.00e+00	0	45	104	0	74	24616
2026-01-23 20:08:08.19	67.04	15.44	-52.0	-56.6	3.7	0.00e+00	0	45	104	0	74	26163
2026-01-23 20:08:10.20	67.66	15.54	-52.1	-56.6	3.7	0.00e+00	0	45	104	0	74	26166
2026-01-23 20:08:12.22	68.28	15.65	-52.1	-56.5	3.7	0.00e+00	0	45	104	0	74	25913
2026-01-23 20:08:14.22	68.91	15.75	-52.0	-56.4	3.7	0.00e+00	0	45	104	0	74	25573
2026-01-23 20:08:16.21	69.53	15.85	-51.9	-56.4	3.7	0.00e+00	0	45	104	0	74	25454
2026-01-23 20:08:18.23	70.17	15.94	-51.7	-56.4	3.7	0.00e+00	0	45	104	0	74	25557
2026-01-23 20:08:20.24	70.81	16.04	-51.8	-56.4	3.7	0.00e+00	0	45	104	0	74	25434
2026-01-23 20:08:22.33	71.48	16.13	-52.1	-56.6	3.7	0.00e+00	0	45	104	0	74	26033
2026-01-23 20:08:24.39	72.15	16.22	-52.2	-56.7	3.7	0.00e+00	0	45	104	0	75	25005
2026-01-23 20:08:26.45	72.82	16.31	-52.0	-56.6	3.7	0.00e+00	0	45	104	0	75	24643
2026-01-23 20:08:28.49	73.49	16.40	-51.9	-56.4	3.7	0.00e+00	0	45	104	0	75	24017
2026-01-23 20:08:30.50	74.15	16.48	-51.9	-56.4	3.7	0.00e+00	0	45	104	0	75	24019
2026-01-23 20:08:32.50	74.82	16.55	-52.2	-56.7	3.7	0.00e+00	0	45	104	0	75	25008
2026-01-23 20:08:34.53	75.49	16.63	-52.1	-56.7	3.7	0.00e+00	0	45	104	0	75	24858
2026-01-23 20:08:36.54	76.17	16.70	-51.6	-56.4	3.7	0.00e+00	0	45	104	0	75	24158
2026-01-23 20:08:38.54	76.85	16.77	-51.8	-56.3	3.7	0.00e+00	0	45	104	0	75	23892
2026-01-23 20:08:40.57	77.54	16.83	-52.0	-56.5	3.7	0.00e+00	0	45	104	0	75	24394
2026-01-23 20:08:42.57	78.22	16.89	-51.9	-56.5	3.7	0.00e+00	0	45	104	0	75	24506
2026-01-23 20:08:44.57	78.90	16.95	-51.8	-56.5	3.7	0.00e+00	0	45	104	0	75	24462
2026-01-23 20:08:46.57	79.59	17.01	-52.0	-56.6	3.7	0.00e+00	0	45	104	0	75	24782
2026-01-23 20:08:48.60	80.30	17.06	-51.7	-56.3	3.7	0.00e+00	0	45	104	0	75	23706
2026-01-23 20:08:50.60	80.99	17.11	-51.2	-56.0	3.7	0.00e+00	0	45	104	0	74	24457
2026-01-23 20:08:52.59	81.68	17.15	-51.4	-56.3	3.7	0.00e+00	0	45	104	0	74	25147
2026-01-23 20:08:54.59	82.38	17.19	-51.7	-56.6	3.7	0.00e+00	0	45	104	0	74	26036
2026-01-23 20:08:56.59	83.09	17.23	-51.3	-56.3	3.7	0.00e+00	0	45	104	0	74	25220
2026-01-23 20:08:58.58	83.79	17.26	-51.1	-55.7	3.7	0.00e+00	0	45	104	0	73	24967
2026-01-23 20:09:00.60	84.50	17.29	-51.2	-55.7	3.7	0.00e+00	0	45	104	0	73	25027
2026-01-23 20:09:02.61	85.21	17.32	-51.3	-55.9	3.7	0.00e+00	0	45	104	0	73	25571
2026-01-23 20:09:04.61	85.92	17.34	-51.1	-55.6	3.7	0.00e+00	0	45	104	0	73	24657
2026-01-23 20:09:06.60	86.62	17.36	-51.4	-56.1	3.7	0.00e+00	0	45	104	0	73	26272
2026-01-23 20:09:08.60	87.33	17.37	-51.7	-56.3	3.7	0.00e+00	0	45	104	0	74	25205
2026-01-23 20:09:10.60	88.04	17.39	-51.4	-55.9	3.7	0.00e+00	0	45	104	0	74	24226
2026-01-23 20:09:12.60	88.76	17.39	-51.4	-56.1	3.7	0.00e+00	0	45	104	0	74	24739
2026-01-23 20:09:14.61	89.47	17.40	-51.7	-56.3	3.7	0.00e+00	0	45	104	0	74	25377
2026-01-23 20:09:16.61	90.18	17.40	-51.9	-56.5	3.7	0.00e+00	0	45	104	0	74	25934
2026-01-23 20:09:18.60	90.89	17.39	-51.8	-56.6	3.7	0.00e+00	0	45	104	0	74	26040
2026-01-23 20:09:20.60	91.61	17.38	-52.0	-56.6	3.7	0.00e+00	0	45	104	0	74	26049
2026-01-23 20:09:22.62	92.32	17.37	-52.0	-56.7	3.7	0.00e+00	0	45	104	0	74	26286
2026-01-23 20:09:24.61	93.03	17.36	-51.9	-56.4	3.7	0.00e+00	0	45	104	0	74	25530
2026-01-23 20:09:26.61	93.74	17.34	-51.9	-56.4	3.7	0.00e+00	0	45	104	0	74	25488
2026-01-23 20:09:28.61	94.45	17.32	-52.3	-56.6	3.7	0.00e+00	0	45	104	0	75	24691
2026-01-23 20:09:30.62	95.16	17.29	-52.3	-56.7	3.7	0.00e+00	0	45	104	0	75	24885
2026-01-23 20:09:32.62	95.87	17.26	-52.1	-56.6	3.7	0.00e+00	0	45	104	0	75	24648
2026-01-23 20:09:34.64	96.58	17.22	-52.3	-56.7	3.7	0.00e+00	0	45	104	0	75	25058
2026-01-23 20:09:36.64	97.28	17.19	-52.1	-56.5	3.7	0.00e+00	0	45	104	0	75	24323
2026-01-23 20:09:38.63	97.98	17.15	-52.0	-56.4	3.7	0.00e+00	0	45	104	0	75	24038
2026-01-23 20:09:40.63	98.68	17.10	-52.3	-56.7	3.7	0.00e+00	0	45	104	0	75	25052
2026-01-23 20:09:42.64	99.38	17.05	-52.3	-56.6	3.7	0.00e+00	0	45	104	0	75	24793
2026-01-23 20:09:44.64	100.07	17.00	-52.2	-56.5	3.7	0.00e+00	0	45	104	0	75	24406
2026-01-23 20:09:46.64	100.76	16.95	-52.3	-56.6	3.7	0.00e+00	0	45	104	0	75	24639
2026-01-23 20:09:48.68	101.46	16.89	-52.4	-56.8	3.7	0.00e+00	0	45	104	0	75	25121
2026-01-23 20:09:50.69	102.15	16.82	-52.3	-56.8	3.7	0.00e+00	0	45	104	0	75	25206
2026-01-23 20:09:52.70	102.84	16.76	-52.2	-56.8	3.7	0.00e+00	0	45	104	0	75	25122
2026-01-23 20:09:54.73	103.52	16.69	-52.1	-56.7	3.7	0.00e+00	0	46	104	0	75	24900
2026-01-23 20:09:56.73	104.20	16.62	-52.3	-56.9	3.7	0.00e+00	0	45	104	0	75	25445
2026-01-23 20:09:58.76	104.88	16.54	-52.3	-56.8	3.7	0.00e+00	0	45	104	0	75	25338
2026-01-23 20:10:00.75	105.54	16.47	-52.2	-56.6	3.7	0.00e+00	0	45	104	0	75	24758
2026-01-23 20:10:02.75	106.20	16.38	-52.1	-56.6	3.7	0.00e+00	0	45	104	0	75	24638
2026-01-23 20:10:04.75	106.86	16.30	-51.8	-56.5	3.7	0.00e+00	0	45	104	0	75	24299
2026-01-23 20:10:06.74	107.51	16.22	-52.0	-56.6	3.7	0.00e+00	0	45	104	0	75	24622
2026-01-23 20:10:08.74	108.16	16.13	-52.4	-56.8	3.7	0.00e+00	0	45	104	0	75	25371
2026-01-23 20:10:10.75	108.81	16.04	-52.3	-56.8	3.7	0.00e+00	0	45	104	0	75	25106
2026-01-23 20:10:12.75	109.45	15.94	-52.1	-56.7	3.7	0.00e+00	0	45	104	0	75	25052
2026-01-23 20:10:14.75	110.09	15.84	-52.1	-56.7	3.7	0.00e+00	0	45	104	0	75	24985
2026-01-23 20:10:16.78	110.73	15.74	-52.0	-56.6	3.7	0.00e+00	0	45	104	0	75	24712
2026-01-23 20:10:18.77	111.35	15.64	-51.7	-56.4	3.7	0.00e+00	0	45	104	0	75	24084
2026-01-23 20:10:20.77	111.97	15.54	-51.8	-56.5	3.7	0.00e+00	0	45	104	0	75	24368
2026-01-23 20:10:22.77	112.59	15.43	-51.8	-56.6	3.7	0.00e+00	0	45	104	0	75	24541
2026-01-23 20:10:24.77	113.20	15.33	-52.4	-56.8	3.7	0.00e+00	0	45	104	0	75	25164
2026-01-23 20:10:26.78	113.81	15.22	-52.3	-56.8	3.7	0.00e+00	0	45	104	0	75	25144
2026-01-23 20:10:28.78	114.41	15.10	-52.3	-56.8	3.7	0.00e+00	0	45	104	0	75	25183
2026-01-23 20:10:30.78	115.01	14.99	-52.3	-56.7	3.7	0.00e+00	0	45	104	0	75	25037
2026-01-23 20:10:32.78	115.60	14.87	-52.3	-56.7	3.7	0.00e+00	0	45	104	0	75	25014
2026-01-23 20:10:34.81	116.19	14.76	-52.4	-56.8	3.7	0.00e+00	0	45	104	0	75	25296
2026-01-23 20:10:36.80	116.77	14.64	-52.0	-56.6	3.7	0.00e+00	0	45	104	0	75	24609
2026-01-23 20:10:38.81	117.34	14.52	-52.0	-56.6	3.7	0.00e+00	0	45	104	0	75	24584
2026-01-23 20:10:40.81	117.91	14.39	-51.9	-56.5	3.7	0.00e+00	0	45	104	0	75	24426
2026-01-23 20:10:42.80	118.47	14.27	-52.1	-56.6	3.7	0.00e+00	0	45	104	0	75	24655
2026-01-23 20:10:44.80	119.03	14.15	-52.3	-56.7	3.7	0.00e+00	0	45	104	0	75	24967
2026-01-23 20:10:46.79	119.58	14.02	-52.3	-56.7	3.7	0.00e+00	0	45	104	0	75	24826
2026-01-23 20:10:48.79	120.13	13.89	-52.1	-56.6	3.7	0.00e+00	0	45	104	0	75	24678
2026-01-23 20:10:50.82	120.68	13.76	-52.0	-56.5	3.7	0.00e+00	0	45	104	0	75	24308
2026-01-23 20:10:52.82	121.21	13.63	-51.9	-56.4	3.7	0.00e+00	0	45	104	0	75	24009
2026-01-23 20:10:54.82	121.74	13.50	-51.8	-56.4	3.7	0.00e+00	0	45	104	0	75	24022
2026-01-23 20:10:56.82	122.27	13.37	-52.2	-56.5	3.7	0.00e+00	0	45	104	0	75	24488
2026-01-23 20:10:58.83	122.79	13.23	-52.2	-56.6	3.7	0.00e+00	0	45	104	0	75	24626
2026-01-23 20:11:00.83	123.30	13.10	-52.0	-56.5	3.7	0.00e+00	0	45	104	0	75	24446
2026-01-23 20:11:02.85	123.81	12.96	-52.0	-56.6	3.7	0.00e+00	0	45	104	0	75	24594
2026-01-23 20:11:04.87	124.32	12.83	-52.0	-56.4	3.7	0.00e+00	0	45	104	0	75	24104
2026-01-23 20:11:06.89	124.82	12.69	-52.0	-56.4	3.7	0.00e+00	0	45	104	0	75	24039
2026-01-23 20:11:08.88	125.31	12.55	-52.1	-56.6	3.7	0.00e+00	0	45	104	0	75	24573
2026-01-23 20:11:10.88	125.80	12.42	-51.7	-55.8	3.7	0.00e+00	0	45	104	0	75	22612
2026-01-23 20:11:12.88	126.28	12.28	-51.6	-55.6	3.7	0.00e+00	0	45	104	0	75	21974
2026-01-23 20:11:14.88	126.75	12.14	-51.6	-55.6	3.7	0.00e+00	0	45	104	0	75	21889
2026-01-23 20:11:16.89	127.23	12.00	-51.2	-56.0	3.7	0.00e+00	0	45	104	0	74	24422
2026-01-23 20:11:18.89	127.69	11.86	-51.2	-55.9	3.7	0.00e+00	0	45	104	0	74	24077
2026-01-23 20:11:20.90	128.15	11.72	-51.1	-55.8	3.7	0.00e+00	0	45	104	0	74	23956
2026-01-23 20:11:22.90	128.61	11.58	-51.6	-56.2	3.7	0.00e+00	0	45	104	0	74	24853
2026-01-23 20:11:24.90	129.06	11.44	-51.5	-56.0	3.7	0.00e+00	0	46	104	0	74	24386
2026-01-23 20:11:26.91	129.50	11.30	-51.7	-56.1	3.7	0.00e+00	0	45	104	0	74	24703
2026-01-23 20:11:28.91	129.94	11.16	-51.5	-56.0	3.7	0.00e+00	0	45	104	0	74	24358
2026-01-23 20:11:30.91	130.38	11.02	-51.4	-55.9	3.7	0.00e+00	0	45	104	0	74	24157
2026-01-23 20:11:32.91	130.80	10.87	-51.2	-55.7	3.7	0.00e+00	0	45	104	0	74	23596
2026-01-23 20:11:34.91	131.23	10.73	-51.4	-56.1	3.7	0.00e+00	0	45	104	0	73	26265
2026-01-23 20:11:36.92	131.65	10.59	-51.3	-56.0	3.7	0.00e+00	0	45	104	0	73	25704
2026-01-23 20:11:38.91	132.06	10.45	-51.8	-56.3	3.7	0.00e+00	0	46	104	0	74	25096
2026-01-23 20:11:40.92	132.47	10.31	-51.8	-56.2	3.7	0.00e+00	0	45	104	0	74	25041
2026-01-23 20:11:42.92	132.88	10.17	-51.7	-56.2	3.7	0.00e+00	0	45	104	0	74	24982
2026-01-23 20:11:44.92	133.28	10.02	-51.4	-56.0	3.7	0.00e+00	0	45	104	0	74	24370
2026-01-23 20:11:46.92	133.67	9.88	-51.7	-56.2	3.7	0.00e+00	0	45	104	0	74	24870
2026-01-23 20:11:48.92	134.06	9.74	-51.5	-56.0	3.7	0.00e+00	0	45	104	0	74	24264
2026-01-23 20:11:50.93	134.45	9.60	-51.6	-56.2	3.7	0.00e+00	0	46	104	0	74	24830
2026-01-23 20:11:52.93	134.83	9.46	-51.6	-56.1	3.7	0.00e+00	0	46	104	0	74	24774
2026-01-23 20:11:54.94	135.21	9.31	-51.8	-56.2	3.7	0.00e+00	0	46	104	0	74	25079
2026-01-23 20:11:56.94	135.58	9.17	-51.6	-56.1	3.7	0.00e+00	0	46	104	0	74	24577
2026-01-23 20:11:58.94	135.95	9.03	-51.5	-56.1	3.7	0.00e+00	0	45	104	0	74	24730
2026-01-23 20:12:00.93	136.31	8.89	-51.9	-56.3	3.7	0.00e+00	0	45	104	0	74	25309
2026-01-23 20:12:02.92	136.67	8.75	-52.0	-56.5	3.7	0.00e+00	0	46	104	0	75	24273
2026-01-23 20:12:04.92	137.03	8.61	-51.8	-56.2	3.7	0.00e+00	0	45	104	0	75	23573
2026-01-23 20:12:06.92	137.38	8.47	-51.8	-56.6	3.7	0.00e+00	0	46	104	0	75	24675
2026-01-23 20:12:08.92	137.73	8.33	-52.4	-56.9	3.7	0.00e+00	0	45	104	0	75	25520
2026-01-23 20:12:10.91	138.07	8.20	-52.5	-56.9	3.7	0.00e+00	0	45	104	0	75	25612
2026-01-23 20:12:12.92	138.41	8.06	-51.5	-56.5	3.7	0.00e+00	0	46	104	0	74	25709
2026-01-23 20:12:14.91	138.74	7.92	-52.5	-57.1	3.7	0.00e+00	0	46	104	0	76	24572
2026-01-23 20:12:16.90	139.07	7.78	-51.7	-56.6	3.7	0.00e+00	0	46	104	0	75	24687
2026-01-23 20:12:18.90	139.40	7.64	-51.6	-56.2	3.7	0.00e+00	0	46	104	0	74	24952
2026-01-23 20:12:20.90	139.73	7.50	-52.0	-56.5	3.7	0.00e+00	0	45	104	0	74	25706
2026-01-23 20:12:22.89	140.04	7.37	-52.0	-56.5	3.7	0.00e+00	0	46	104	0	74	25746
2026-01-23 20:12:24.89	140.36	7.23	-52.0	-56.4	3.7	0.00e+00	0	46	104	0	74	25664
2026-01-23 20:12:26.89	140.67	7.09	-52.0	-56.4	3.7	0.00e+00	0	46	104	0	74	25653
2026-01-23 20:12:28.90	140.99	6.96	-52.0	-56.5	3.7	0.00e+00	0	45	104	0	74	25697
2026-01-23 20:12:30.90	141.29	6.82	-51.9	-56.4	3.7	0.00e+00	0	45	104	0	74	25649
2026-01-23 20:12:32.90	141.59	6.69	-51.9	-56.5	3.7	0.00e+00	0	46	104	0	74	25682
2026-01-23 20:12:34.91	141.89	6.55	-51.9	-56.4	3.7	0.00e+00	0	45	104	0	74	25612
2026-01-23 20:12:36.91	142.19	6.41	-51.9	-56.4	3.7	0.00e+00	0	45	104	0	74	25607
2026-01-23 20:12:38.91	142.48	6.28	-51.9	-56.4	3.7	0.00e+00	0	45	104	0	74	25596
2026-01-23 20:12:40.90	142.77	6.15	-51.9	-56.4	3.7	0.00e+00	0	46	104	0	74	25674
2026-01-23 20:12:42.91	143.06	6.01	-51.9	-56.4	3.7	0.00e+00	0	46	104	0	74	25570
2026-01-23 20:12:44.90	143.34	5.88	-51.9	-56.4	3.7	0.00e+00	0	46	104	0	74	25561
2026-01-23 20:12:46.91	143.62	5.75	-51.9	-56.4	3.7	0.00e+00	0	45	104	0	74	25606
2026-01-23 20:12:48.90	143.89	5.62	-51.9	-56.4	3.7	0.00e+00	0	45	104	0	74	25536
2026-01-23 20:12:50.90	144.17	5.48	-51.9	-56.4	3.7	0.00e+00	0	45	104	0	74	25558
2026-01-23 20:12:52.91	144.44	5.35	-51.9	-56.4	3.7	0.00e+00	0	46	104	0	74	25509
2026-01-23 20:12:54.90	144.70	5.22	-51.9	-56.4	3.7	0.00e+00	0	45	104	0	74	25563
2026-01-23 20:12:56.89	144.96	5.09	-51.9	-56.4	3.7	0.00e+00	0	45	104	0	74	25470

#Closed at: 2026-01-23 20:12:58
#Recorded file [0 MB]: D:/Data/31040_260123_230532.dat