passes_logs/2026/01/23/T1/T1__20260123_120944_AQUA_rec.log

#Pass ID: 20260123_120944_AQUA
#Satellite: AQUA
#Configuration: AQUA
#almurnet v.1.7.20251203
#Start time: 2026-01-23 12:09:44

#Version: 2.0.20230620
#Station: T1
#Location: 37.570604 lon 55.790049 lat
#TLE: 1 27424U 02022A   26022.49486490  .00002153  00000+0  44069-3 0  9997
#TLE: 2 27424  98.4099 349.0485 0001970  69.5876  43.4746 14.61847233261984

#Time	Az	El	Level	Level2	SNR	BER	BlckErr	Temp	State	Recorded	gain1	gain2
2026-01-23 12:09:44.49	176.88	5.04	-50.4	-71.4	3.8	7.47e-01	0	37	0	0	71	42475
2026-01-23 12:09:47.47	176.99	5.26	-49.4	-68.3	3.9	7.46e-01	0	37	104	0	69	33381
2026-01-23 12:09:50.45	177.09	5.48	-49.4	-67.2	4.3	7.30e-01	0	37	104	0	69	29376
2026-01-23 12:09:53.43	177.19	5.71	-49.5	-67.5	4.2	7.42e-01	0	37	104	0	69	30534
2026-01-23 12:09:56.41	177.30	5.94	-49.5	-67.9	4.1	7.42e-01	0	37	104	0	69	31910
2026-01-23 12:09:59.39	177.40	6.17	-49.4	-68.9	3.8	7.47e-01	0	37	104	0	69	35799
2026-01-23 12:10:02.37	177.51	6.40	-49.5	-69.2	3.8	7.46e-01	0	37	104	0	69	36956
2026-01-23 12:10:05.35	177.62	6.63	-49.5	-68.2	3.8	7.45e-01	0	37	104	0	69	33134
2026-01-23 12:10:08.33	177.74	6.87	-49.4	-66.6	3.9	7.40e-01	0	37	104	0	69	27478
2026-01-23 12:10:11.31	177.85	7.11	-49.4	-65.3	5.0	7.11e-01	0	37	0	0	69	23804
2026-01-23 12:10:14.28	177.97	7.35	-49.0	-60.0	9.5	6.29e-01	0	37	0	3670016	69	12926
2026-01-23 12:10:17.26	178.09	7.59	-47.5	-53.6	16.0	6.07e-01	0	38	0	9437184	67	6939
2026-01-23 12:10:20.24	178.21	7.84	-45.8	-49.9	19.8	6.07e-01	0	37	0	14680064	63	5691
2026-01-23 12:10:23.22	178.33	8.09	-44.8	-48.3	21.4	6.08e-01	0	38	0	20447232	61	5338
2026-01-23 12:10:26.20	178.45	8.34	-45.2	-49.0	20.7	6.06e-01	0	38	0	26214400	61	5750
2026-01-23 12:10:29.18	178.58	8.60	-46.7	-51.7	18.0	6.07e-01	0	38	0	31457280	64	6619
2026-01-23 12:10:32.16	178.71	8.86	-48.4	-56.9	12.9	6.10e-01	0	38	0	37224448	67	10064
2026-01-23 12:10:35.14	178.84	9.12	-49.0	-60.2	9.4	6.34e-01	0	38	0	42467328	68	14039
2026-01-23 12:10:38.12	178.98	9.38	-44.4	-49.2	20.8	6.07e-01	0	38	0	48234496	59	6614
2026-01-23 12:10:41.10	179.11	9.65	-43.4	-47.7	21.9	6.08e-01	0	38	0	51904512	58	5900
2026-01-23 12:10:44.09	179.25	9.92	-42.8	-46.2	23.6	6.06e-01	0	38	0	57147392	57	5221
2026-01-23 12:10:47.08	179.39	10.19	-43.1	-46.2	23.6	6.07e-01	0	38	0	62914560	57	5268
2026-01-23 12:10:50.06	179.54	10.47	-43.2	-46.0	23.8	6.07e-01	0	38	0	68681728	57	5150
2026-01-23 12:10:53.05	179.69	10.75	-43.3	-45.9	23.9	6.06e-01	0	38	0	73924608	57	5069
2026-01-23 12:10:56.03	179.84	11.03	-43.2	-45.9	23.9	6.06e-01	0	38	0	79691776	57	5075
2026-01-23 12:10:59.01	179.99	11.32	-43.0	-45.6	24.2	6.06e-01	0	38	0	85458944	57	4920
2026-01-23 12:11:02.00	180.15	11.61	-43.0	-45.7	24.1	6.08e-01	0	38	0	90701824	57	4953
2026-01-23 12:11:04.98	180.31	11.90	-42.9	-45.7	24.1	6.08e-01	0	38	0	96468992	57	4949
2026-01-23 12:11:07.97	180.47	12.20	-42.9	-45.7	24.1	6.08e-01	0	38	0	102236160	57	4967
2026-01-23 12:11:10.95	180.64	12.50	-42.8	-45.6	24.2	6.08e-01	0	38	0	107479040	57	4899
2026-01-23 12:11:13.94	180.81	12.81	-42.8	-45.6	24.2	6.06e-01	0	38	0	113246208	57	4920
2026-01-23 12:11:16.92	180.98	13.12	-42.7	-45.5	24.3	6.05e-01	0	38	0	119013376	57	4856
2026-01-23 12:11:19.90	181.16	13.44	-42.7	-45.3	24.5	6.04e-01	0	38	0	124256256	57	4758
2026-01-23 12:11:22.89	181.34	13.76	-42.5	-45.0	24.7	6.07e-01	0	38	0	130023424	57	4595
2026-01-23 12:11:25.88	181.52	14.08	-42.5	-45.2	21.0	6.04e-01	0	38	0	135790592	57	4655
2026-01-23 12:11:28.86	181.71	14.41	-42.6	-45.2	24.6	6.06e-01	0	38	0	141033472	57	4680
2026-01-23 12:11:31.85	181.91	14.74	-42.7	-45.3	24.5	6.07e-01	0	38	0	146800640	57	4733
2026-01-23 12:11:34.84	182.10	15.08	-42.7	-45.4	24.5	6.05e-01	0	38	0	152567808	57	4789
2026-01-23 12:11:37.82	182.31	15.42	-42.5	-45.1	24.7	6.06e-01	0	38	0	157810688	57	4644
2026-01-23 12:11:40.81	182.51	15.77	-42.4	-45.0	24.9	6.06e-01	0	38	0	163577856	56	4860
2026-01-23 12:11:43.79	182.73	16.12	-42.6	-45.2	24.7	6.05e-01	0	38	0	169345024	56	4933
2026-01-23 12:11:46.78	182.94	16.48	-42.7	-45.2	24.7	6.06e-01	0	37	0	174587904	56	4950
2026-01-23 12:11:49.76	183.17	16.84	-42.7	-45.2	24.7	6.04e-01	0	38	0	180355072	56	4981
2026-01-23 12:11:52.75	183.40	17.21	-42.6	-45.1	24.7	6.05e-01	0	38	0	186122240	56	4926
2026-01-23 12:11:55.73	183.63	17.59	-42.4	-44.9	25.0	6.07e-01	0	38	0	191365120	56	4796
2026-01-23 12:11:58.72	183.87	17.97	-42.4	-44.9	24.9	6.07e-01	0	38	0	197132288	56	4796
2026-01-23 12:12:01.70	184.12	18.36	-42.3	-45.0	24.9	6.07e-01	0	38	0	202899456	56	4815
2026-01-23 12:12:04.69	184.37	18.75	-42.5	-45.1	24.8	6.05e-01	0	38	0	208142336	56	4918
2026-01-23 12:12:07.68	184.63	19.15	-42.7	-45.3	24.6	6.06e-01	0	38	0	213909504	56	5007
2026-01-23 12:12:10.66	184.90	19.56	-42.5	-45.0	24.9	6.06e-01	0	38	0	219676672	56	4857
2026-01-23 12:12:13.65	185.17	19.98	-42.3	-44.8	25.1	6.05e-01	0	38	0	225443840	56	4737
2026-01-23 12:12:16.63	185.46	20.40	-42.4	-45.0	25.0	6.06e-01	0	38	0	230686720	56	4839
2026-01-23 12:12:19.62	185.75	20.83	-42.5	-45.0	24.9	6.07e-01	0	38	0	236453888	56	4862
2026-01-23 12:12:22.60	186.05	21.26	-42.4	-45.0	24.9	6.07e-01	0	38	0	242221056	56	4819
2026-01-23 12:12:25.59	186.35	21.70	-42.6	-45.1	24.8	6.05e-01	0	38	0	247463936	56	4924
2026-01-23 12:12:28.57	186.67	22.16	-42.7	-45.3	24.7	6.05e-01	0	38	0	253231104	56	4988
2026-01-23 12:12:31.56	187.00	22.62	-42.8	-45.3	24.7	6.07e-01	0	38	0	258998272	56	5003
2026-01-23 12:12:34.54	187.33	23.08	-42.7	-45.2	24.8	6.07e-01	0	38	0	264241152	56	4969
2026-01-23 12:12:37.52	187.68	23.56	-42.9	-45.4	24.5	6.07e-01	0	38	0	270008320	56	5100
2026-01-23 12:12:40.51	188.04	24.04	-42.8	-45.3	24.7	6.05e-01	0	38	0	275775488	56	5021
2026-01-23 12:12:43.49	188.40	24.53	-42.9	-45.3	24.7	6.08e-01	0	38	0	281018368	56	5035
2026-01-23 12:12:46.47	188.78	25.04	-43.0	-45.4	24.6	6.05e-01	0	38	0	286785536	56	5075
2026-01-23 12:12:49.46	189.18	25.55	-43.1	-45.5	24.6	6.07e-01	0	38	0	292552704	56	5137
2026-01-23 12:12:52.44	189.58	26.07	-42.9	-45.3	24.8	6.07e-01	0	38	0	297795584	56	4993
2026-01-23 12:12:55.43	190.00	26.60	-42.8	-45.1	24.9	6.07e-01	0	38	0	303562752	56	4917
2026-01-23 12:12:58.41	190.44	27.14	-42.7	-45.1	24.9	6.06e-01	0	38	0	309329920	56	4907
2026-01-23 12:13:01.40	190.89	27.69	-42.6	-45.0	25.0	6.07e-01	0	38	0	314572800	56	4868
2026-01-23 12:13:04.38	191.35	28.25	-42.7	-45.1	25.0	6.05e-01	0	38	0	320339968	56	4876
2026-01-23 12:13:07.37	191.84	28.82	-42.4	-44.8	25.3	6.04e-01	0	38	0	326107136	56	4706
2026-01-23 12:13:10.35	192.34	29.41	-42.4	-44.7	25.3	6.06e-01	0	38	0	331350016	56	4677
2026-01-23 12:13:13.34	192.86	30.00	-42.6	-44.9	25.1	6.06e-01	0	38	0	337117184	56	4778
2026-01-23 12:13:16.32	193.40	30.60	-42.6	-44.9	25.2	6.06e-01	0	38	0	342884352	56	4764
2026-01-23 12:13:19.31	193.96	31.22	-42.6	-44.9	25.1	6.07e-01	0	38	0	348127232	56	4809
2026-01-23 12:13:22.29	194.54	31.84	-42.6	-45.0	25.1	6.06e-01	0	38	0	353894400	56	4821
2026-01-23 12:13:25.27	195.15	32.48	-42.8	-45.2	24.9	6.07e-01	0	38	0	359661568	56	4937
2026-01-23 12:13:28.25	195.78	33.12	-43.0	-45.4	24.7	6.04e-01	0	38	0	364904448	56	5062
2026-01-23 12:13:31.24	196.43	33.78	-43.1	-45.5	24.6	6.07e-01	0	38	0	370671616	57	4856
2026-01-23 12:13:34.22	197.12	34.45	-43.2	-45.7	24.5	6.04e-01	0	38	0	376438784	57	4935
2026-01-23 12:13:37.20	197.83	35.13	-43.7	-46.2	24.0	6.06e-01	0	38	0	381681664	58	4954
2026-01-23 12:13:40.19	198.57	35.83	-44.0	-46.6	23.7	6.07e-01	0	38	0	387448832	58	5171
2026-01-23 12:13:43.17	199.35	36.53	-44.2	-46.8	23.5	6.06e-01	0	38	0	393216000	58	5324
2026-01-23 12:13:46.16	200.16	37.24	-44.2	-46.9	23.4	6.07e-01	0	38	0	398458880	59	5063
2026-01-23 12:13:49.15	201.01	37.97	-44.5	-47.3	23.0	6.05e-01	0	38	0	404226048	59	5296
2026-01-23 12:13:52.14	201.90	38.70	-44.1	-46.7	23.6	6.07e-01	0	38	0	409993216	59	4960
2026-01-23 12:13:55.12	202.83	39.44	-43.8	-46.4	23.8	6.05e-01	0	38	0	415236096	59	4781
2026-01-23 12:13:58.11	203.80	40.19	-43.5	-46.1	24.1	6.05e-01	0	38	0	421003264	59	4630
2026-01-23 12:14:01.09	204.82	40.95	-43.1	-45.7	24.5	6.06e-01	0	38	0	426770432	58	4653
2026-01-23 12:14:04.08	205.89	41.71	-43.3	-45.8	24.3	6.05e-01	0	38	0	432013312	58	4741
2026-01-23 12:14:07.07	207.01	42.49	-42.6	-45.0	25.1	6.03e-01	0	38	0	437780480	57	4585
2026-01-23 12:14:10.05	208.18	43.26	-42.5	-44.8	25.2	6.06e-01	0	38	0	443547648	56	4758
2026-01-23 12:14:13.04	209.42	44.04	-42.2	-44.6	25.5	6.05e-01	0	38	0	448790528	56	4608
2026-01-23 12:14:16.02	210.72	44.81	-42.1	-44.3	25.7	6.06e-01	0	38	0	454557696	56	4483
2026-01-23 12:14:19.00	212.07	45.59	-41.8	-44.1	25.9	6.06e-01	0	38	0	460324864	55	4605
2026-01-23 12:14:21.98	213.50	46.37	-41.8	-44.1	25.8	6.06e-01	0	38	0	465567744	55	4603
2026-01-23 12:14:24.97	215.01	47.14	-41.8	-44.0	25.9	6.07e-01	0	38	0	471334912	55	4591
2026-01-23 12:14:27.95	216.58	47.90	-42.2	-44.5	25.5	6.06e-01	0	38	0	477102080	55	4850
2026-01-23 12:14:30.94	218.24	48.65	-42.2	-44.4	25.5	6.06e-01	0	38	0	482344960	55	4808
2026-01-23 12:14:33.92	219.98	49.39	-42.4	-44.7	25.3	6.06e-01	0	38	0	488112128	55	4936
2026-01-23 12:14:36.91	221.81	50.12	-41.9	-44.1	25.9	6.05e-01	0	38	0	493879296	55	4612
2026-01-23 12:14:39.89	223.72	50.82	-41.9	-44.2	25.8	6.05e-01	0	38	0	499122176	55	4659
2026-01-23 12:14:42.87	225.72	51.50	-42.2	-44.6	25.4	6.07e-01	0	38	0	504889344	55	4915
2026-01-23 12:14:45.86	227.82	52.16	-42.7	-45.1	25.0	6.07e-01	0	38	0	510656512	56	4875
2026-01-23 12:14:48.84	230.00	52.78	-42.7	-45.1	25.1	6.06e-01	0	38	0	515899392	56	4889
2026-01-23 12:14:51.83	232.29	53.36	-42.6	-44.9	25.2	6.09e-01	0	38	0	521666560	56	4801
2026-01-23 12:14:54.81	234.65	53.91	-42.4	-44.7	25.4	6.04e-01	0	38	0	527433728	56	4701
2026-01-23 12:14:57.79	237.10	54.41	-42.6	-45.0	25.1	6.06e-01	0	38	0	533200896	56	4855
2026-01-23 12:15:00.78	239.65	54.86	-43.0	-45.4	24.8	6.04e-01	0	38	0	538443776	56	5091
2026-01-23 12:15:03.76	242.26	55.26	-43.2	-45.6	24.7	6.07e-01	0	38	0	544210944	58	4619
2026-01-23 12:15:06.75	244.95	55.60	-43.3	-45.8	24.5	6.06e-01	0	38	0	549978112	58	4706
2026-01-23 12:15:09.73	247.69	55.88	-43.5	-45.9	24.4	6.06e-01	0	38	0	555220992	58	4810
2026-01-23 12:15:12.71	250.49	56.10	-43.4	-45.9	24.3	6.06e-01	0	38	0	560988160	58	4800
2026-01-23 12:15:15.70	253.32	56.25	-43.7	-46.2	24.1	6.06e-01	0	38	0	566755328	58	4949
2026-01-23 12:15:18.68	256.18	56.33	-43.8	-46.3	23.9	6.08e-01	0	38	0	571998208	58	5039
2026-01-23 12:15:21.66	259.04	56.35	-43.5	-46.1	24.2	6.07e-01	0	38	0	577765376	58	4877
2026-01-23 12:15:24.65	261.91	56.30	-43.6	-46.0	24.2	6.08e-01	0	38	0	583532544	58	4851
2026-01-23 12:15:27.63	264.75	56.18	-43.6	-46.1	24.2	6.07e-01	0	38	0	588775424	58	4917
2026-01-23 12:15:30.62	267.57	56.00	-43.6	-46.1	24.1	6.06e-01	0	38	0	594542592	58	4892
2026-01-23 12:15:33.60	270.34	55.75	-43.1	-45.5	24.7	6.08e-01	0	38	0	600309760	58	4587
2026-01-23 12:15:36.58	273.05	55.44	-42.9	-45.3	24.9	6.08e-01	0	38	0	605552640	57	4737
2026-01-23 12:15:39.57	275.70	55.07	-43.0	-45.4	24.8	6.07e-01	0	38	0	611319808	57	4786
2026-01-23 12:15:42.55	278.28	54.65	-42.9	-45.3	24.9	6.07e-01	0	38	0	617086976	57	4751
2026-01-23 12:15:45.54	280.78	54.17	-43.1	-45.5	24.7	6.06e-01	0	38	0	622329856	57	4852
2026-01-23 12:15:48.52	283.18	53.65	-43.0	-45.5	24.8	6.06e-01	0	38	0	628097024	57	4819
2026-01-23 12:15:51.50	285.50	53.09	-43.1	-45.5	24.7	6.06e-01	0	38	0	633864192	57	4866
2026-01-23 12:15:54.49	287.74	52.49	-42.7	-45.0	25.1	6.05e-01	0	38	0	639107072	57	4598
2026-01-23 12:15:57.47	289.87	51.86	-43.1	-45.5	24.7	6.08e-01	0	38	0	644874240	57	4860
2026-01-23 12:16:00.45	291.92	51.19	-43.6	-46.1	24.1	6.07e-01	0	38	0	650641408	58	4897
2026-01-23 12:16:03.43	293.87	50.51	-43.0	-45.5	24.8	6.05e-01	0	38	0	655884288	58	4547
2026-01-23 12:16:06.42	295.74	49.79	-43.3	-45.8	24.4	6.07e-01	0	38	0	661651456	58	4739
2026-01-23 12:16:09.40	297.52	49.06	-43.4	-45.8	24.4	6.05e-01	0	38	0	667418624	58	4749
2026-01-23 12:16:12.39	299.22	48.32	-43.1	-45.6	24.6	6.07e-01	0	38	0	672661504	58	4621
2026-01-23 12:16:15.38	300.84	47.56	-43.3	-45.9	24.3	6.06e-01	0	38	0	678428672	58	4777
2026-01-23 12:16:18.37	302.38	46.80	-43.1	-45.5	24.6	6.08e-01	0	38	0	684195840	57	4863
2026-01-23 12:16:21.35	303.84	46.03	-43.1	-45.5	24.6	6.06e-01	0	38	0	689438720	57	4862
2026-01-23 12:16:24.33	305.23	45.26	-42.9	-45.3	24.9	6.07e-01	0	38	0	695205888	57	4734
2026-01-23 12:16:27.32	306.56	44.48	-42.9	-45.4	24.8	6.09e-01	0	38	0	700973056	57	4773
2026-01-23 12:16:30.30	307.82	43.71	-43.1	-45.5	24.7	6.05e-01	0	38	0	706215936	57	4863
2026-01-23 12:16:33.28	309.02	42.94	-43.0	-45.4	24.8	6.07e-01	0	38	0	711983104	57	4787
2026-01-23 12:16:36.27	310.17	42.17	-43.1	-45.6	24.5	6.05e-01	0	38	0	717750272	57	4919
2026-01-23 12:16:39.25	311.26	41.40	-43.4	-46.0	24.2	6.05e-01	0	38	0	722993152	57	5110
2026-01-23 12:16:42.24	312.31	40.65	-43.0	-45.6	24.7	6.05e-01	0	38	0	728760320	57	4871
2026-01-23 12:16:45.22	313.30	39.90	-43.5	-46.1	23.8	6.07e-01	0	38	0	734527488	57	5161
2026-01-23 12:16:48.21	314.25	39.15	-43.6	-46.1	24.1	6.06e-01	0	38	0	739770368	58	4914
2026-01-23 12:16:51.20	315.16	38.42	-43.3	-45.8	24.5	6.07e-01	0	38	0	745537536	58	4707
2026-01-23 12:16:54.18	316.03	37.70	-43.2	-45.7	24.5	6.06e-01	0	38	0	751304704	58	4684
2026-01-23 12:16:57.16	316.85	36.98	-42.9	-45.4	24.7	6.07e-01	0	38	0	757071872	57	4792
2026-01-23 12:17:00.15	317.65	36.28	-42.8	-45.3	24.8	6.07e-01	0	38	0	762314752	57	4728
2026-01-23 12:17:03.13	318.41	35.58	-42.5	-44.8	25.2	6.06e-01	0	38	0	768081920	56	4757
2026-01-23 12:17:06.11	319.14	34.90	-42.1	-44.5	25.5	6.05e-01	0	38	0	773849088	56	4572
2026-01-23 12:17:09.10	319.84	34.23	-41.6	-44.3	25.6	6.05e-01	0	38	0	779091968	55	4743
2026-01-23 12:17:12.08	320.51	33.57	-41.8	-44.4	25.6	6.05e-01	0	38	0	784859136	55	4772
2026-01-23 12:17:15.07	321.15	32.92	-41.7	-44.0	25.8	6.06e-01	0	38	0	790626304	55	4580
2026-01-23 12:17:18.05	321.77	32.28	-41.6	-43.9	26.0	6.08e-01	0	38	0	795869184	55	4525
2026-01-23 12:17:21.04	322.36	31.65	-41.4	-43.8	26.0	6.06e-01	0	38	0	801636352	54	4733
2026-01-23 12:17:24.03	322.94	31.03	-41.2	-43.7	26.2	6.04e-01	0	38	0	807403520	54	4659
2026-01-23 12:17:27.01	323.49	30.43	-41.4	-43.8	26.0	6.05e-01	0	38	0	812646400	54	4757
2026-01-23 12:17:30.00	324.02	29.83	-41.7	-44.1	25.8	6.06e-01	0	38	0	818413568	54	4885
2026-01-23 12:17:32.98	324.53	29.25	-41.7	-44.1	25.8	6.06e-01	0	38	0	824180736	54	4889
2026-01-23 12:17:35.97	325.02	28.67	-41.6	-44.1	25.7	6.08e-01	0	38	0	829423616	54	4914
2026-01-23 12:17:38.95	325.50	28.11	-41.8	-44.2	25.7	6.06e-01	0	38	0	835190784	54	4940
2026-01-23 12:17:41.94	325.96	27.56	-41.9	-44.4	25.4	6.07e-01	0	38	0	840957952	54	5076
2026-01-23 12:17:44.92	326.40	27.01	-41.9	-44.6	25.3	6.06e-01	0	38	0	846200832	54	5205
2026-01-23 12:17:47.91	326.83	26.48	-42.3	-44.8	25.1	6.06e-01	0	38	0	851968000	55	5024
2026-01-23 12:17:50.89	327.24	25.96	-42.2	-44.7	25.2	6.06e-01	0	38	0	857735168	55	4978
2026-01-23 12:17:53.87	327.64	25.44	-42.3	-44.8	25.1	6.07e-01	0	38	0	862978048	55	5032
2026-01-23 12:17:56.86	328.03	24.94	-42.0	-44.6	25.2	6.08e-01	0	38	0	868745216	55	4920
2026-01-23 12:17:59.84	328.41	24.44	-42.0	-44.9	25.0	6.05e-01	0	38	0	874512384	55	5044
2026-01-23 12:18:02.83	328.77	23.95	-42.2	-44.7	25.1	6.06e-01	0	38	0	879755264	55	4976
2026-01-23 12:18:05.81	329.12	23.48	-42.4	-44.8	25.1	6.07e-01	0	38	0	885522432	55	5030
2026-01-23 12:18:08.80	329.47	23.01	-42.4	-44.8	25.1	6.07e-01	0	38	0	891289600	55	4997
2026-01-23 12:18:11.77	329.80	22.55	-42.4	-44.9	25.0	6.05e-01	0	38	0	896532480	55	5079
2026-01-23 12:18:14.75	330.12	22.10	-42.3	-44.8	25.1	6.07e-01	0	38	0	902299648	55	5022
2026-01-23 12:18:17.74	330.43	21.65	-42.2	-44.6	25.2	6.06e-01	0	38	0	908066816	55	4926
2026-01-23 12:18:20.72	330.74	21.21	-42.0	-44.7	25.2	6.06e-01	0	38	0	913309696	55	4938
2026-01-23 12:18:23.71	331.03	20.78	-42.0	-44.7	25.2	6.07e-01	0	38	0	919076864	55	4953
2026-01-23 12:18:26.70	331.32	20.36	-42.0	-44.5	25.3	6.07e-01	0	38	0	924844032	55	4836
2026-01-23 12:18:29.68	331.60	19.94	-42.0	-44.4	25.4	6.03e-01	0	38	0	930086912	55	4769
2026-01-23 12:18:32.66	331.87	19.53	-42.0	-44.4	25.3	6.06e-01	0	38	0	935854080	55	4772
2026-01-23 12:18:35.64	332.14	19.13	-42.0	-44.4	25.4	6.06e-01	0	38	0	941621248	55	4806
2026-01-23 12:18:38.63	332.40	18.74	-42.0	-44.5	25.3	6.07e-01	0	38	0	946864128	55	4854
2026-01-23 12:18:41.61	332.65	18.35	-41.9	-44.6	25.2	6.05e-01	0	38	0	952631296	55	4872
2026-01-23 12:18:44.59	332.89	17.96	-42.0	-44.8	25.0	6.05e-01	0	38	0	958398464	55	4995
2026-01-23 12:18:47.57	333.13	17.59	-42.0	-44.7	25.1	6.07e-01	0	38	0	963641344	55	4941
2026-01-23 12:18:50.56	333.37	17.22	-42.1	-44.7	25.1	6.08e-01	0	38	0	969408512	55	4966
2026-01-23 12:18:53.54	333.59	16.85	-42.0	-44.6	25.3	6.03e-01	0	38	0	975175680	55	4884
2026-01-23 12:18:56.52	333.82	16.49	-42.0	-44.6	25.2	6.07e-01	0	38	0	980418560	55	4886
2026-01-23 12:18:59.51	334.03	16.14	-42.0	-44.5	25.2	6.06e-01	0	38	0	986185728	55	4865
2026-01-23 12:19:02.50	334.25	15.79	-41.9	-44.4	25.3	6.04e-01	0	38	0	991952896	55	4797
2026-01-23 12:19:05.48	334.45	15.44	-42.0	-44.5	25.1	6.06e-01	0	38	0	997720064	55	4863
2026-01-23 12:19:08.46	334.66	15.10	-42.0	-44.5	25.2	6.07e-01	0	38	0	1002962944	55	4832
2026-01-23 12:19:11.45	334.85	14.77	-41.9	-44.4	25.3	6.06e-01	0	38	0	1008730112	55	4796
2026-01-23 12:19:14.43	335.05	14.44	-41.9	-44.4	25.3	6.07e-01	0	38	0	1014497280	55	4795
2026-01-23 12:19:17.42	335.24	14.12	-42.0	-44.5	25.1	6.07e-01	0	38	0	1019740160	55	4857
2026-01-23 12:19:20.41	335.42	13.80	-42.1	-44.5	25.1	6.05e-01	0	38	0	1025507328	55	4868
2026-01-23 12:19:23.39	335.60	13.48	-42.3	-44.8	24.9	6.06e-01	0	38	0	1031274496	55	5006
2026-01-23 12:19:26.38	335.78	13.17	-42.2	-44.7	24.9	6.06e-01	0	38	0	1036517376	55	4936
2026-01-23 12:19:29.36	335.96	12.86	-42.1	-44.8	24.9	6.08e-01	0	38	0	1042284544	55	4988
2026-01-23 12:19:32.35	336.13	12.56	-42.0	-44.8	24.9	6.07e-01	0	38	0	1048051712	55	5012
2026-01-23 12:19:35.33	336.29	12.26	-41.8	-44.9	24.8	6.05e-01	0	38	0	1053294592	55	5058
2026-01-23 12:19:38.32	336.46	11.96	-41.9	-44.9	24.7	6.05e-01	0	38	0	1059061760	55	5095
2026-01-23 12:19:41.30	336.62	11.67	-41.9	-45.0	24.6	6.02e-01	0	38	0	1064828928	55	5134
2026-01-23 12:19:44.28	336.77	11.38	-41.9	-45.1	24.6	6.04e-01	0	38	0	1070071808	55	5166
2026-01-23 12:19:47.27	336.93	11.10	-41.9	-45.2	24.4	6.06e-01	0	38	0	1075838976	55	5257
2026-01-23 12:19:50.25	337.08	10.82	-41.9	-45.2	24.4	6.02e-01	0	38	0	1081606144	55	5270
2026-01-23 12:19:53.23	337.23	10.54	-42.0	-45.3	24.3	6.04e-01	0	38	0	1086849024	55	5311
2026-01-23 12:19:56.22	337.38	10.27	-42.3	-45.3	24.3	6.01e-01	0	38	0	1092616192	55	5299
2026-01-23 12:19:59.20	337.52	10.00	-42.4	-45.4	24.1	6.03e-01	0	38	0	1098383360	55	5399
2026-01-23 12:20:02.19	337.66	9.73	-42.4	-45.5	24.0	6.04e-01	0	38	0	1103626240	55	5433
2026-01-23 12:20:05.17	337.80	9.46	-42.4	-45.7	23.9	6.03e-01	0	38	0	1109393408	55	5546
2026-01-23 12:20:08.16	337.93	9.20	-42.4	-45.7	23.9	6.02e-01	0	38	0	1115160576	55	5563
2026-01-23 12:20:11.14	338.07	8.94	-47.3	-66.7	4.4	7.49e-01	0	38	104	1120403456	66	33289
2026-01-23 12:20:14.12	338.20	8.69	-49.5	-71.3	3.8	7.46e-01	0	38	104	1120403456	69	47490
2026-01-23 12:20:17.09	338.33	8.43	-50.3	-71.5	3.8	7.46e-01	0	38	104	1120403456	71	43076
2026-01-23 12:20:20.07	338.45	8.18	-50.0	-71.2	3.8	7.43e-01	0	38	104	1120403456	71	41933
2026-01-23 12:20:23.05	338.58	7.94	-50.8	-71.6	3.8	7.44e-01	0	38	104	1120403456	73	39129
2026-01-23 12:20:26.03	338.70	7.69	-51.2	-71.7	3.8	7.46e-01	0	38	104	1120403456	73	39223
2026-01-23 12:20:29.01	338.82	7.45	-51.7	-71.7	3.9	7.44e-01	0	38	104	1120403456	74	36979
2026-01-23 12:20:31.99	338.94	7.21	-51.5	-71.6	3.8	7.52e-01	0	38	104	1120403456	74	36886
2026-01-23 12:20:34.97	339.05	6.97	-51.0	-71.6	3.8	7.45e-01	0	38	104	1120403456	73	38943
2026-01-23 12:20:37.95	339.17	6.74	-50.9	-71.5	3.8	7.45e-01	0	38	104	1120403456	73	38555
2026-01-23 12:20:40.93	339.28	6.50	-50.9	-71.6	3.8	7.47e-01	0	38	104	1120403456	73	38694
2026-01-23 12:20:43.91	339.39	6.27	-50.9	-71.5	3.8	7.46e-01	0	38	104	1120403456	73	38626
2026-01-23 12:20:46.88	339.50	6.05	-50.9	-71.5	3.8	7.50e-01	0	38	104	1120403456	73	38626
2026-01-23 12:20:49.86	339.61	5.82	-50.8	-71.5	3.8	7.46e-01	0	38	104	1120403456	73	38546
2026-01-23 12:20:52.84	339.72	5.60	-50.8	-71.5	3.8	7.48e-01	0	38	104	1120403456	73	38563
2026-01-23 12:20:55.82	339.82	5.37	-50.8	-71.5	3.8	7.46e-01	0	38	104	1120403456	73	38575
2026-01-23 12:20:58.80	339.93	5.15	-50.8	-71.5	3.8	7.46e-01	0	38	104	1120403456	73	38552
2026-01-23 12:21:01.78	340.03	4.94	-50.8	-71.5	3.8	7.46e-01	0	38	104	1120403456	73	38440

#Closed at: 2026-01-23 12:21:02
#Recorded file [1120 MB]: D:/Data/31040_260123_150944.dat