passes_logs/2026/01/23/T1/T1__20260123_085655_NOAA_20_JPSS-1_rec.log

#Pass ID: 20260123_085655_NOAA 20 (JPSS-1)
#Satellite: NOAA 20 (JPSS-1)
#Configuration: NOAA 20
#almurnet v.1.7.20251203
#Start time: 2026-01-23 08:56:56

#Version: 2.0.20230620
#Station: T1
#Location: 37.570604 lon 55.790049 lat
#TLE: 1 43013U 17073A   26022.44900781  .00000193  00000+0  11233-3 0  9999
#TLE: 2 43013  98.7645 323.3100 0001197  28.8413 331.2829 14.19538802423792

#Time	Az	El	Level	Level2	SNR	BER	BlckErr	Temp	State	Recorded	gain1	gain2
2026-01-23 08:56:56.12	129.43	5.03	-48.9	-64.1	3.8	1.49e+00	0	35	0	0	69	20606
2026-01-23 08:56:59.12	129.28	5.23	-48.9	-64.1	3.8	1.49e+00	0	36	104	0	69	20573
2026-01-23 08:57:02.13	129.12	5.44	-48.9	-64.1	3.8	1.49e+00	0	36	104	0	69	20595
2026-01-23 08:57:05.14	128.96	5.65	-48.9	-64.1	3.8	1.49e+00	0	36	104	0	69	20678
2026-01-23 08:57:08.14	128.81	5.86	-48.9	-64.1	3.8	1.49e+00	0	36	104	0	69	20770
2026-01-23 08:57:11.14	128.64	6.07	-48.9	-64.1	3.8	1.49e+00	0	36	104	0	69	20740
2026-01-23 08:57:14.15	128.48	6.28	-48.9	-64.0	3.8	1.49e+00	0	36	104	0	69	20482
2026-01-23 08:57:17.16	128.31	6.49	-48.9	-63.9	3.8	1.49e+00	0	36	104	0	69	20084
2026-01-23 08:57:20.16	128.14	6.71	-48.9	-63.8	3.8	1.49e+00	0	36	104	0	69	19938
2026-01-23 08:57:23.17	127.97	6.92	-48.9	-64.1	3.8	1.49e+00	0	36	104	0	69	20677
2026-01-23 08:57:26.17	127.80	7.14	-48.9	-63.8	3.8	1.49e+00	0	36	104	0	69	20067
2026-01-23 08:57:29.18	127.62	7.36	-48.8	-62.7	3.8	1.49e+00	0	36	104	0	69	17520
2026-01-23 08:57:32.19	127.44	7.58	-48.7	-61.0	3.9	1.47e+00	0	37	104	0	69	14510
2026-01-23 08:57:35.20	127.25	7.81	-48.0	-56.3	6.6	3.39e-01	0	37	0	4194304	68	8867
2026-01-23 08:57:38.21	127.07	8.03	-46.2	-50.9	11.8	1.26e-03	0	37	0	9437184	64	6047
2026-01-23 08:57:41.22	126.88	8.26	-44.5	-47.9	15.0	7.00e-07	0	37	0	14680064	61	5062
2026-01-23 08:57:44.22	126.68	8.48	-44.5	-47.9	15.1	0.00e+00	0	37	0	20971520	60	5346
2026-01-23 08:57:47.23	126.49	8.71	-45.8	-50.2	12.7	3.89e-05	0	37	0	26214400	62	6262
2026-01-23 08:57:50.24	126.29	8.95	-47.3	-54.0	8.6	1.41e-02	0	37	0	32505856	65	8142
2026-01-23 08:57:53.25	126.09	9.18	-45.6	-49.7	13.3	3.00e-06	0	37	0	37748736	62	5882
2026-01-23 08:57:56.25	125.88	9.41	-45.9	-50.3	12.5	1.90e-05	0	37	0	41943040	62	6345
2026-01-23 08:57:59.26	125.67	9.65	-44.7	-48.2	14.7	0.00e+00	0	37	0	47185920	61	5276
2026-01-23 08:58:02.27	125.46	9.89	-44.1	-47.3	15.7	0.00e+00	0	37	0	52428800	60	5032
2026-01-23 08:58:05.27	125.24	10.13	-44.0	-47.1	15.9	0.00e+00	0	37	0	58720256	60	4902
2026-01-23 08:58:08.26	125.03	10.37	-43.7	-46.5	16.5	0.00e+00	0	37	0	63963136	59	4866
2026-01-23 08:58:11.26	124.80	10.62	-43.9	-46.9	16.1	0.00e+00	0	37	0	69206016	59	5066
2026-01-23 08:58:14.25	124.58	10.86	-44.0	-47.0	16.1	0.00e+00	0	37	0	75497472	59	5122
2026-01-23 08:58:17.24	124.35	11.11	-43.8	-46.7	16.3	0.00e+00	0	37	0	80740352	59	4976
2026-01-23 08:58:20.23	124.11	11.36	-43.7	-46.6	16.4	0.00e+00	0	37	0	85983232	59	4918
2026-01-23 08:58:23.22	123.87	11.61	-43.8	-46.8	16.3	0.00e+00	0	37	0	92274688	59	4993
2026-01-23 08:58:26.21	123.63	11.87	-43.5	-46.2	16.9	0.00e+00	0	37	0	97517568	58	4972
2026-01-23 08:58:29.21	123.38	12.12	-43.3	-46.1	17.0	0.00e+00	0	37	0	102760448	58	4892
2026-01-23 08:58:32.21	123.13	12.38	-43.3	-46.1	17.0	0.00e+00	0	37	0	109051904	58	4871
2026-01-23 08:58:35.20	122.87	12.64	-43.1	-45.7	17.4	0.00e+00	0	37	0	114294784	58	4701
2026-01-23 08:58:38.20	122.61	12.91	-42.9	-45.5	17.6	0.00e+00	0	37	0	120586240	57	4856
2026-01-23 08:58:41.19	122.35	13.17	-43.3	-46.0	17.1	0.00e+00	0	37	0	125829120	57	5142
2026-01-23 08:58:44.18	122.08	13.44	-43.2	-45.9	17.3	0.00e+00	0	37	0	131072000	57	5042
2026-01-23 08:58:47.18	121.80	13.71	-43.0	-45.6	17.5	0.00e+00	0	37	0	137363456	57	4900
2026-01-23 08:58:50.18	121.52	13.98	-43.1	-45.8	17.4	0.00e+00	0	37	0	142606336	57	5012
2026-01-23 08:58:53.17	121.23	14.25	-43.0	-45.7	17.5	0.00e+00	0	37	0	147849216	57	4932
2026-01-23 08:58:56.17	120.94	14.53	-42.9	-45.5	17.7	0.00e+00	0	37	0	154140672	57	4837
2026-01-23 08:58:59.17	120.64	14.81	-43.0	-45.6	17.6	0.00e+00	0	37	0	159383552	57	4907
2026-01-23 08:59:02.16	120.34	15.09	-42.9	-45.6	17.6	0.00e+00	0	37	0	164626432	57	4875
2026-01-23 08:59:05.16	120.03	15.38	-42.8	-45.3	17.8	0.00e+00	0	37	0	170917888	57	4738
2026-01-23 08:59:08.15	119.71	15.66	-42.7	-45.2	17.9	0.00e+00	0	37	0	176160768	57	4702
2026-01-23 08:59:11.15	119.39	15.95	-42.9	-45.5	17.6	0.00e+00	0	37	0	181403648	57	4859
2026-01-23 08:59:14.14	119.06	16.24	-42.7	-45.2	18.0	0.00e+00	0	38	0	187695104	57	4702
2026-01-23 08:59:17.14	118.72	16.54	-43.0	-45.6	17.6	0.00e+00	0	37	0	192937984	57	4896
2026-01-23 08:59:20.13	118.38	16.84	-42.8	-45.4	17.8	0.00e+00	0	37	0	199229440	57	4778
2026-01-23 08:59:23.12	118.03	17.13	-42.8	-45.3	17.9	0.00e+00	0	37	0	204472320	57	4743
2026-01-23 08:59:26.08	117.68	17.43	-42.9	-45.5	17.6	0.00e+00	0	37	0	209715200	57	4847
2026-01-23 08:59:29.04	117.32	17.73	-42.8	-45.3	17.8	0.00e+00	0	38	0	214958080	57	4713
2026-01-23 08:59:32.01	116.96	18.04	-43.1	-45.7	17.5	0.00e+00	0	37	0	221249536	57	4962
2026-01-23 08:59:34.98	116.58	18.34	-42.9	-45.4	17.8	0.00e+00	0	37	0	226492416	57	4806
2026-01-23 08:59:37.96	116.20	18.66	-43.1	-45.7	17.5	0.00e+00	0	37	0	231735296	57	4979
2026-01-23 08:59:40.94	115.80	18.97	-43.2	-45.9	17.4	0.00e+00	0	37	0	238026752	57	5053
2026-01-23 08:59:43.93	115.40	19.29	-43.3	-46.0	17.3	0.00e+00	0	38	0	243269632	57	5136
2026-01-23 08:59:46.92	114.99	19.60	-43.5	-46.3	17.0	0.00e+00	0	37	0	248512512	57	5287
2026-01-23 08:59:49.91	114.57	19.93	-43.5	-46.2	17.0	0.00e+00	0	37	0	254803968	57	5277
2026-01-23 08:59:52.90	114.14	20.25	-43.4	-46.2	17.2	0.00e+00	0	37	0	260046848	57	5224
2026-01-23 08:59:55.89	113.71	20.58	-43.0	-45.6	17.7	0.00e+00	0	37	0	265289728	57	4898
2026-01-23 08:59:58.89	113.26	20.91	-43.2	-45.8	17.5	0.00e+00	0	37	0	271581184	57	5036
2026-01-23 09:00:01.88	112.80	21.24	-43.1	-45.7	17.7	0.00e+00	0	38	0	276824064	57	4932
2026-01-23 09:00:04.87	112.33	21.57	-42.9	-45.5	17.8	0.00e+00	0	37	0	282066944	57	4837
2026-01-23 09:00:07.86	111.86	21.91	-43.0	-45.5	17.8	0.00e+00	0	37	0	288358400	57	4866
2026-01-23 09:00:10.85	111.37	22.25	-42.9	-45.5	17.8	0.00e+00	0	38	0	293601280	57	4861
2026-01-23 09:00:13.84	110.87	22.59	-43.0	-45.6	17.8	0.00e+00	0	37	0	299892736	57	4873
2026-01-23 09:00:16.83	110.36	22.93	-42.8	-45.4	18.0	0.00e+00	0	37	0	305135616	57	4773
2026-01-23 09:00:19.82	109.84	23.28	-42.9	-45.4	17.9	0.00e+00	0	37	0	310378496	57	4795
2026-01-23 09:00:22.81	109.30	23.63	-42.9	-45.4	17.9	0.00e+00	0	37	0	316669952	57	4806
2026-01-23 09:00:25.81	108.75	23.98	-43.0	-45.5	17.9	0.00e+00	0	38	0	321912832	57	4846
2026-01-23 09:00:28.80	108.20	24.33	-43.1	-45.8	17.6	0.00e+00	0	37	0	327155712	57	4986
2026-01-23 09:00:31.79	107.63	24.68	-43.5	-46.2	17.2	0.00e+00	0	38	0	333447168	57	5223
2026-01-23 09:00:34.78	107.04	25.03	-43.7	-46.6	16.8	0.00e+00	0	37	0	338690048	58	5165
2026-01-23 09:00:37.76	106.45	25.39	-43.9	-46.7	16.7	0.00e+00	0	38	0	343932928	58	5266
2026-01-23 09:00:40.75	105.84	25.75	-44.1	-47.0	16.4	0.00e+00	0	37	0	350224384	58	5422
2026-01-23 09:00:43.75	105.21	26.10	-44.1	-47.1	16.3	0.00e+00	0	38	0	355467264	59	5191
2026-01-23 09:00:46.74	104.57	26.46	-43.8	-46.6	16.8	0.00e+00	0	37	0	360710144	59	4923
2026-01-23 09:00:49.73	103.91	26.82	-44.2	-47.1	16.3	0.00e+00	0	37	0	367001600	59	5184
2026-01-23 09:00:52.72	103.24	27.18	-44.2	-47.1	16.3	0.00e+00	0	37	0	372244480	59	5180
2026-01-23 09:00:55.72	102.56	27.55	-44.2	-47.1	16.3	0.00e+00	0	38	0	377487360	59	5176
2026-01-23 09:00:58.71	101.86	27.91	-44.2	-47.2	16.3	0.00e+00	0	38	0	383778816	59	5220
2026-01-23 09:01:01.71	101.14	28.27	-44.1	-46.9	16.5	0.00e+00	0	37	0	389021696	59	5093
2026-01-23 09:01:04.69	100.41	28.63	-44.2	-47.2	16.2	0.00e+00	0	38	0	395313152	59	5255
2026-01-23 09:01:07.68	99.66	28.99	-44.1	-47.1	16.4	0.00e+00	0	38	0	400556032	59	5178
2026-01-23 09:01:10.67	98.89	29.34	-44.2	-47.1	16.4	0.00e+00	0	38	0	405798912	59	5186
2026-01-23 09:01:13.67	98.10	29.70	-44.2	-47.1	16.4	0.00e+00	0	38	0	412090368	59	5178
2026-01-23 09:01:16.66	97.30	30.06	-44.0	-46.9	16.5	0.00e+00	0	38	0	417333248	59	5079
2026-01-23 09:01:19.65	96.48	30.41	-44.4	-47.4	16.0	0.00e+00	0	38	0	422576128	59	5395
2026-01-23 09:01:22.65	95.64	30.76	-45.3	-48.8	14.7	0.00e+00	0	38	0	428867584	61	5610
2026-01-23 09:01:25.64	94.79	31.11	-45.5	-49.1	14.4	7.00e-07	0	38	0	434110464	61	5816
2026-01-23 09:01:28.64	93.91	31.46	-45.7	-49.6	13.9	7.00e-07	0	38	0	439353344	62	5799
2026-01-23 09:01:31.63	93.02	31.80	-45.8	-49.7	13.8	1.50e-06	0	38	0	445644800	62	5861
2026-01-23 09:01:34.63	92.10	32.13	-46.2	-50.3	13.2	2.59e-05	0	38	0	450887680	63	5971
2026-01-23 09:01:37.61	91.17	32.46	-46.4	-50.7	12.7	3.05e-05	0	38	0	456130560	63	6266
2026-01-23 09:01:40.60	90.22	32.79	-46.7	-51.4	11.9	2.23e-04	0	38	0	462422016	64	6402
2026-01-23 09:01:43.60	89.25	33.11	-46.7	-51.6	11.8	4.07e-04	0	37	0	467664896	64	6534
2026-01-23 09:01:46.58	88.26	33.43	-46.8	-51.9	11.4	1.11e-03	0	38	0	472907776	64	6781
2026-01-23 09:01:49.58	87.25	33.74	-46.0	-50.3	13.0	7.01e-05	0	37	0	479199232	64	5654
2026-01-23 09:01:52.56	86.23	34.04	-45.4	-49.3	14.2	0.00e+00	0	38	0	484442112	62	5594
2026-01-23 09:01:55.55	85.18	34.33	-45.1	-48.7	14.8	7.00e-07	0	38	0	489684992	62	5262
2026-01-23 09:01:58.54	84.12	34.61	-44.8	-48.2	15.4	0.00e+00	0	38	0	495976448	61	5240
2026-01-23 09:02:01.53	83.03	34.89	-44.5	-47.7	15.8	0.00e+00	0	38	0	501219328	60	5274
2026-01-23 09:02:04.51	81.94	35.15	-43.6	-46.4	17.1	0.00e+00	0	38	0	506462208	59	4770
2026-01-23 09:02:07.50	80.82	35.41	-43.5	-46.3	17.2	0.00e+00	0	38	0	512753664	58	5011
2026-01-23 09:02:10.48	79.69	35.66	-43.4	-46.0	17.5	0.00e+00	0	38	0	517996544	58	4862
2026-01-23 09:02:13.47	78.53	35.89	-43.3	-45.9	17.6	0.00e+00	0	38	0	524288000	58	4802
2026-01-23 09:02:16.47	77.36	36.11	-43.0	-45.5	17.9	0.00e+00	0	38	0	529530880	57	4833
2026-01-23 09:02:19.46	76.17	36.32	-42.7	-45.1	18.3	0.00e+00	0	37	0	534773760	57	4650
2026-01-23 09:02:22.46	74.97	36.52	-42.3	-44.6	18.8	0.00e+00	0	38	0	541065216	56	4620
2026-01-23 09:02:25.45	73.76	36.70	-41.8	-44.0	19.3	0.00e+00	0	38	0	546308096	55	4581
2026-01-23 09:02:28.45	72.52	36.88	-41.7	-43.9	19.4	0.00e+00	0	38	0	551550976	55	4528
2026-01-23 09:02:31.44	71.28	37.03	-42.1	-44.4	18.9	0.00e+00	0	37	0	557842432	55	4796
2026-01-23 09:02:34.42	70.04	37.17	-41.8	-44.1	19.2	0.00e+00	0	38	0	563085312	55	4620
2026-01-23 09:02:37.41	68.78	37.30	-41.3	-43.5	19.8	0.00e+00	0	38	0	568328192	54	4560
2026-01-23 09:02:40.39	67.51	37.41	-41.3	-43.5	19.7	0.00e+00	0	38	0	574619648	54	4563
2026-01-23 09:02:43.39	66.23	37.50	-41.8	-44.1	19.2	0.00e+00	0	38	0	579862528	54	4899
2026-01-23 09:02:46.37	64.95	37.58	-42.1	-44.4	18.8	0.00e+00	0	38	0	585105408	55	4805
2026-01-23 09:02:49.36	63.66	37.64	-42.5	-45.0	18.3	0.00e+00	0	38	0	591396864	55	5122
2026-01-23 09:02:52.36	62.36	37.69	-43.4	-46.0	17.5	0.00e+00	0	38	0	596639744	57	5142
2026-01-23 09:02:55.35	61.06	37.72	-43.1	-45.6	17.9	0.00e+00	0	38	0	601882624	57	4898
2026-01-23 09:02:58.35	59.76	37.73	-43.2	-45.8	17.7	0.00e+00	0	38	0	608174080	57	5037
2026-01-23 09:03:01.34	58.46	37.72	-43.5	-46.1	17.3	0.00e+00	0	38	0	613416960	57	5218
2026-01-23 09:03:04.33	57.16	37.70	-43.5	-46.2	17.3	0.00e+00	0	38	0	618659840	57	5231
2026-01-23 09:03:07.32	55.87	37.66	-43.4	-46.1	17.4	0.00e+00	0	38	0	624951296	57	5165
2026-01-23 09:03:10.31	54.57	37.61	-44.0	-46.8	16.8	0.00e+00	0	38	0	630194176	58	5292
2026-01-23 09:03:13.30	53.29	37.54	-44.2	-47.1	16.3	0.00e+00	0	38	0	635437056	59	5204
2026-01-23 09:03:16.29	52.01	37.45	-44.5	-47.5	16.1	0.00e+00	0	38	0	641728512	59	5423
2026-01-23 09:03:19.29	50.73	37.35	-44.5	-47.5	16.0	0.00e+00	0	38	0	646971392	59	5453
2026-01-23 09:03:22.29	49.46	37.23	-44.7	-47.9	15.7	0.00e+00	0	38	0	653262848	60	5362
2026-01-23 09:03:25.27	48.21	37.09	-44.9	-48.2	15.4	0.00e+00	0	38	0	658505728	60	5535
2026-01-23 09:03:28.25	46.98	36.94	-44.5	-47.6	15.9	0.00e+00	0	38	0	663748608	60	5195
2026-01-23 09:03:31.24	45.74	36.78	-44.2	-47.2	16.3	0.00e+00	0	38	0	670040064	60	4970
2026-01-23 09:03:34.23	44.53	36.60	-43.6	-46.3	17.2	0.00e+00	0	38	0	675282944	59	4728
2026-01-23 09:03:37.22	43.32	36.41	-43.3	-45.9	17.6	0.00e+00	0	38	0	680525824	58	4796
2026-01-23 09:03:40.21	42.13	36.21	-42.6	-45.0	18.4	0.00e+00	0	38	0	686817280	57	4592
2026-01-23 09:03:43.20	40.96	35.99	-42.6	-45.1	18.4	0.00e+00	0	38	0	692060160	57	4608
2026-01-23 09:03:46.19	39.80	35.76	-42.3	-44.6	18.8	0.00e+00	0	38	0	697303040	56	4644
2026-01-23 09:03:49.19	38.66	35.52	-42.4	-44.8	18.6	0.00e+00	0	38	0	703594496	56	4743
2026-01-23 09:03:52.18	37.53	35.27	-42.9	-45.4	18.2	0.00e+00	0	37	0	708837376	56	5053
2026-01-23 09:03:55.16	36.43	35.01	-43.3	-45.9	17.6	0.00e+00	0	38	0	714080256	57	5062
2026-01-23 09:03:58.16	35.34	34.74	-43.7	-46.4	17.1	0.00e+00	0	38	0	720371712	58	5074
2026-01-23 09:04:01.14	34.27	34.46	-43.6	-46.3	17.2	0.00e+00	0	38	0	725614592	58	4993
2026-01-23 09:04:04.13	33.22	34.17	-43.5	-46.2	17.4	0.00e+00	0	37	0	730857472	58	4927
2026-01-23 09:04:07.12	32.19	33.87	-43.7	-46.4	17.0	0.00e+00	0	38	0	737148928	58	5083
2026-01-23 09:04:10.11	31.18	33.57	-43.7	-46.4	17.0	0.00e+00	0	38	0	742391808	58	5082
2026-01-23 09:04:13.11	30.18	33.26	-43.7	-46.5	17.0	0.00e+00	0	38	0	747634688	58	5122
2026-01-23 09:04:16.10	29.21	32.94	-43.6	-46.4	17.1	0.00e+00	0	38	0	753926144	58	5045
2026-01-23 09:04:19.09	28.25	32.62	-43.9	-46.7	16.8	0.00e+00	0	38	0	759169024	58	5256
2026-01-23 09:04:22.08	27.32	32.29	-44.3	-47.3	16.2	0.00e+00	0	38	0	764411904	59	5336
2026-01-23 09:04:25.08	26.40	31.96	-44.2	-47.3	16.2	0.00e+00	0	37	0	770703360	59	5294
2026-01-23 09:04:28.07	25.50	31.62	-44.6	-47.8	15.6	0.00e+00	0	38	0	775946240	59	5656
2026-01-23 09:04:31.07	24.62	31.28	-44.7	-48.0	15.6	0.00e+00	0	38	0	781189120	60	5436
2026-01-23 09:04:34.06	23.76	30.93	-44.9	-48.2	15.4	0.00e+00	0	38	0	787480576	60	5540
2026-01-23 09:04:37.05	22.91	30.58	-44.6	-47.8	15.8	0.00e+00	0	38	0	792723456	60	5303
2026-01-23 09:04:40.04	22.09	30.23	-44.0	-46.9	16.6	0.00e+00	0	38	0	799014912	60	4798
2026-01-23 09:04:43.03	21.28	29.88	-44.2	-47.1	16.4	0.00e+00	0	38	0	804257792	60	4920
2026-01-23 09:04:46.02	20.50	29.53	-43.8	-46.6	16.9	0.00e+00	0	37	0	809500672	59	4921
2026-01-23 09:04:49.01	19.73	29.17	-43.5	-46.2	17.3	0.00e+00	0	38	0	815792128	58	4969
2026-01-23 09:04:52.00	18.97	28.81	-43.2	-45.9	17.6	0.00e+00	0	38	0	821035008	58	4773
2026-01-23 09:04:54.99	18.24	28.46	-43.2	-45.9	17.6	0.00e+00	0	38	0	826277888	58	4768
2026-01-23 09:04:57.99	17.51	28.10	-43.0	-45.7	17.8	0.00e+00	0	38	0	832569344	58	4676
2026-01-23 09:05:00.97	16.81	27.74	-43.0	-45.6	17.8	0.00e+00	0	38	0	837812224	58	4643
2026-01-23 09:05:03.97	16.12	27.38	-42.7	-45.3	18.2	0.00e+00	0	38	0	843055104	57	4723
2026-01-23 09:05:06.96	15.45	27.02	-42.9	-45.4	18.0	0.00e+00	0	38	0	849346560	57	4797
2026-01-23 09:05:09.94	14.79	26.66	-42.9	-45.5	18.0	0.00e+00	0	38	0	854589440	57	4821
2026-01-23 09:05:12.94	14.15	26.30	-42.6	-45.1	18.3	0.00e+00	0	38	0	859832320	57	4641
2026-01-23 09:05:15.93	13.52	25.95	-42.7	-45.3	18.1	0.00e+00	0	38	0	866123776	57	4739
2026-01-23 09:05:18.92	12.91	25.59	-42.8	-45.4	18.1	0.00e+00	0	38	0	871366656	57	4778
2026-01-23 09:05:21.91	12.31	25.24	-42.8	-45.3	18.1	0.00e+00	0	37	0	876609536	57	4747
2026-01-23 09:05:24.90	11.72	24.88	-42.8	-45.3	18.1	0.00e+00	0	38	0	882900992	57	4744
2026-01-23 09:05:27.90	11.14	24.53	-42.5	-45.0	18.4	0.00e+00	0	38	0	888143872	57	4563
2026-01-23 09:05:30.90	10.58	24.18	-42.9	-45.4	18.1	0.00e+00	0	38	0	894435328	57	4780
2026-01-23 09:05:33.88	10.04	23.83	-42.9	-45.5	17.9	0.00e+00	0	37	0	899678208	57	4833
2026-01-23 09:05:36.87	9.50	23.49	-42.9	-45.5	17.9	0.00e+00	0	38	0	904921088	57	4847
2026-01-23 09:05:39.87	8.97	23.14	-42.8	-45.6	17.9	0.00e+00	0	38	0	911212544	57	4874
2026-01-23 09:05:42.86	8.46	22.80	-43.2	-46.1	17.3	0.00e+00	0	38	0	916455424	57	5197
2026-01-23 09:05:45.86	7.96	22.46	-43.6	-46.6	16.9	0.00e+00	0	38	0	921698304	57	5476
2026-01-23 09:05:48.85	7.47	22.12	-43.5	-46.5	17.0	0.00e+00	0	38	0	927989760	58	5105
2026-01-23 09:05:51.84	6.99	21.78	-43.3	-46.3	17.2	0.00e+00	0	38	0	933232640	58	4986
2026-01-23 09:05:54.83	6.52	21.45	-43.5	-46.4	17.0	0.00e+00	0	38	0	938475520	58	5046
2026-01-23 09:05:57.82	6.06	21.12	-43.5	-46.3	17.1	0.00e+00	0	38	0	944766976	58	5028
2026-01-23 09:06:00.80	5.62	20.79	-43.3	-46.2	17.2	0.00e+00	0	38	0	950009856	58	4977
2026-01-23 09:06:03.79	5.18	20.46	-43.4	-46.4	17.0	0.00e+00	0	38	0	955252736	58	5083
2026-01-23 09:06:06.78	4.75	20.14	-43.7	-46.7	16.7	0.00e+00	0	38	0	961544192	58	5230
2026-01-23 09:06:09.77	4.33	19.82	-43.6	-46.5	16.9	0.00e+00	0	38	0	966787072	58	5137
2026-01-23 09:06:12.77	3.91	19.50	-43.4	-46.3	17.1	0.00e+00	0	38	0	972029952	58	5027
2026-01-23 09:06:15.76	3.51	19.18	-43.5	-46.4	17.0	0.00e+00	0	38	0	978321408	58	5067
2026-01-23 09:06:18.75	3.12	18.87	-43.4	-46.2	17.2	0.00e+00	0	38	0	983564288	58	4935
2026-01-23 09:06:21.74	2.73	18.56	-43.2	-46.1	17.3	0.00e+00	0	38	0	988807168	58	4909
2026-01-23 09:06:24.73	2.35	18.25	-43.4	-46.3	17.1	0.00e+00	0	38	0	995098624	58	4987
2026-01-23 09:06:27.72	1.98	17.94	-43.6	-46.4	17.0	0.00e+00	0	38	0	1000341504	58	5087
2026-01-23 09:06:30.72	1.62	17.64	-43.5	-46.4	17.0	0.00e+00	0	38	0	1005584384	58	5063
2026-01-23 09:06:33.71	1.26	17.34	-43.3	-46.3	17.1	0.00e+00	0	38	0	1011875840	58	5020
2026-01-23 09:06:36.70	0.92	17.04	-43.3	-46.3	17.1	0.00e+00	0	38	0	1017118720	58	4989
2026-01-23 09:06:39.69	0.57	16.74	-43.4	-46.3	17.1	0.00e+00	0	38	0	1023410176	58	5022
2026-01-23 09:06:42.68	0.24	16.45	-43.2	-46.1	17.2	0.00e+00	0	38	0	1028653056	58	4907
2026-01-23 09:06:45.68	359.91	16.16	-42.9	-45.9	17.4	0.00e+00	0	38	0	1033895936	57	5087
2026-01-23 09:06:48.67	359.59	15.87	-43.1	-45.9	17.4	0.00e+00	0	38	0	1040187392	57	5097
2026-01-23 09:06:51.66	359.28	15.58	-43.3	-46.3	17.1	0.00e+00	0	38	0	1045430272	57	5289
2026-01-23 09:06:54.65	358.97	15.30	-43.6	-46.6	16.7	0.00e+00	0	38	0	1050673152	57	5516
2026-01-23 09:06:57.64	358.66	15.02	-43.7	-46.9	16.5	0.00e+00	0	38	0	1056964608	58	5344
2026-01-23 09:07:00.63	358.37	14.74	-43.7	-46.9	16.4	0.00e+00	0	38	0	1062207488	58	5343
2026-01-23 09:07:03.62	358.08	14.46	-43.8	-46.8	16.5	0.00e+00	0	38	0	1067450368	58	5288
2026-01-23 09:07:06.62	357.79	14.19	-43.6	-46.6	16.7	0.00e+00	0	38	0	1073741824	58	5204
2026-01-23 09:07:09.61	357.51	13.92	-43.8	-46.9	16.4	0.00e+00	0	38	0	1078984704	58	5398
2026-01-23 09:07:12.60	357.23	13.65	-43.9	-47.1	16.2	0.00e+00	0	38	0	1084227584	58	5488
2026-01-23 09:07:15.59	356.96	13.38	-44.1	-47.4	15.9	0.00e+00	0	38	0	1090519040	58	5660
2026-01-23 09:07:18.58	356.70	13.12	-44.2	-47.6	15.7	0.00e+00	0	38	0	1095761920	59	5467
2026-01-23 09:07:21.57	356.44	12.85	-44.2	-47.7	15.6	0.00e+00	0	38	0	1101004800	59	5554
2026-01-23 09:07:24.56	356.18	12.59	-43.9	-48.0	15.3	0.00e+00	0	38	0	1107296256	59	5734
2026-01-23 09:07:27.55	355.93	12.34	-43.6	-47.9	15.4	0.00e+00	0	38	0	1112539136	59	5686
2026-01-23 09:07:30.54	355.69	12.08	-43.7	-48.0	15.2	0.00e+00	0	38	0	1117782016	59	5737
2026-01-23 09:07:33.54	355.45	11.82	-44.0	-48.2	15.1	0.00e+00	0	38	0	1124073472	59	5901
2026-01-23 09:07:36.53	355.21	11.57	-44.1	-48.2	14.9	0.00e+00	0	38	0	1129316352	59	5919
2026-01-23 09:07:39.52	354.98	11.32	-43.9	-48.3	14.9	0.00e+00	0	38	0	1134559232	59	5970
2026-01-23 09:07:42.51	354.75	11.08	-43.6	-48.2	15.0	0.00e+00	0	38	0	1140850688	59	5875
2026-01-23 09:07:45.51	354.52	10.83	-43.0	-48.2	14.9	0.00e+00	0	38	0	1146093568	57	6645
2026-01-23 09:07:48.50	354.30	10.59	-42.6	-48.2	14.9	0.00e+00	0	38	0	1152385024	57	6605
2026-01-23 09:07:51.49	354.08	10.34	-42.9	-48.3	14.8	0.00e+00	0	38	0	1157627904	57	6695
2026-01-23 09:07:54.48	353.87	10.11	-42.9	-48.2	14.9	0.00e+00	0	38	0	1162870784	57	6598
2026-01-23 09:07:57.47	353.66	9.87	-42.8	-48.2	14.9	0.00e+00	0	38	0	1169162240	57	6585
2026-01-23 09:08:00.46	353.45	9.63	-42.5	-48.4	14.7	0.00e+00	0	38	0	1174405120	56	7165
2026-01-23 09:08:03.45	353.25	9.40	-42.7	-48.4	14.7	0.00e+00	0	38	0	1179648000	56	7172
2026-01-23 09:08:06.44	353.05	9.17	-43.3	-48.5	14.6	0.00e+00	0	38	0	1185939456	57	6839
2026-01-23 09:08:09.44	352.85	8.93	-45.1	-64.3	3.8	1.11e+00	0	38	104	1190133760	60	35505
2026-01-23 09:08:12.42	352.66	8.71	-49.2	-64.7	3.8	1.49e+00	0	38	104	1190133760	68	23513
2026-01-23 09:08:15.42	352.47	8.48	-49.6	-64.8	3.8	1.49e+00	0	38	104	1190133760	69	22449
2026-01-23 09:08:18.41	352.28	8.25	-49.0	-64.9	3.8	1.49e+00	0	38	104	1190133760	69	22636
2026-01-23 09:08:21.40	352.10	8.03	-49.3	-65.0	3.8	1.49e+00	0	38	104	1190133760	70	21522
2026-01-23 09:08:24.39	351.92	7.81	-49.6	-64.9	3.8	1.49e+00	0	38	104	1190133760	70	21458
2026-01-23 09:08:27.38	351.74	7.59	-49.7	-64.9	3.8	1.49e+00	0	38	104	1190133760	70	21501
2026-01-23 09:08:30.37	351.57	7.37	-49.7	-64.9	3.8	1.49e+00	0	38	104	1190133760	70	21504
2026-01-23 09:08:33.36	351.40	7.15	-49.7	-64.9	3.8	1.49e+00	0	38	104	1190133760	70	21377
2026-01-23 09:08:36.35	351.23	6.94	-49.4	-64.9	3.8	1.49e+00	0	38	104	1190133760	70	21370
2026-01-23 09:08:39.35	351.06	6.72	-49.5	-64.9	3.8	1.49e+00	0	38	104	1190133760	70	21318
2026-01-23 09:08:42.34	350.90	6.51	-49.5	-64.9	3.8	1.49e+00	0	38	104	1190133760	70	21320
2026-01-23 09:08:45.33	350.73	6.30	-49.5	-64.9	3.8	1.49e+00	0	38	104	1190133760	70	21305
2026-01-23 09:08:48.32	350.57	6.09	-49.5	-64.9	3.8	1.49e+00	0	38	104	1190133760	70	21283
2026-01-23 09:08:51.30	350.42	5.88	-49.5	-64.8	3.8	1.49e+00	0	38	104	1190133760	70	21231
2026-01-23 09:08:54.29	350.26	5.68	-49.4	-64.8	3.8	1.49e+00	0	38	104	1190133760	70	21220
2026-01-23 09:08:57.28	350.11	5.47	-49.4	-64.8	3.8	1.49e+00	0	38	104	1190133760	70	21150
2026-01-23 09:09:00.27	349.96	5.27	-49.4	-64.8	3.8	1.49e+00	0	38	104	1190133760	70	21205
2026-01-23 09:09:03.27	349.81	5.07	-49.4	-64.8	3.8	1.49e+00	0	38	104	1190133760	70	21123

#Closed at: 2026-01-23 09:09:05
#Recorded file [1190 MB]: D:/Data/31040_260123_115656.dat