passes_logs/2026/01/23/T1/T1__20260123_205919_FENGYUN_3G_rec.log

#Pass ID: 20260123_205919_FENGYUN 3G
#Satellite: FENGYUN 3G
#Configuration: FENGYUN 3G
#almurnet v.1.7.20251203
#Start time: 2026-01-23 20:59:21

#Version: 2.0.20230620
#Station: T1
#Location: 37.570604 lon 55.790049 lat
#TLE: 1 56232U 23055A   26022.95932522  .00036289  00000+0  55235-3 0  9992
#TLE: 2 56232  49.9946  14.8507 0004090  68.3647 291.7756 15.54106507157434

#Time	Az	El	Level	Level2	SNR	BER	BlckErr	Temp	State	Recorded	gain1	gain2
2026-01-23 20:59:21.79	257.38	5.16	-48.3	-67.1	3.8	8.47e-01	0	35	0	0	68	30862
2026-01-23 20:59:23.78	257.18	5.31	-48.3	-67.0	3.8	8.48e-01	0	35	104	0	68	30454
2026-01-23 20:59:25.77	256.98	5.45	-48.3	-67.0	3.8	8.46e-01	0	35	104	0	68	30444
2026-01-23 20:59:27.76	256.77	5.60	-48.3	-67.1	3.8	8.46e-01	0	35	104	0	68	30758
2026-01-23 20:59:29.76	256.56	5.76	-48.3	-67.0	3.8	8.47e-01	0	35	104	0	68	30729
2026-01-23 20:59:31.75	256.35	5.91	-48.3	-67.1	3.8	8.47e-01	0	35	104	0	68	30805
2026-01-23 20:59:33.74	256.14	6.06	-48.3	-67.1	3.8	8.46e-01	0	35	104	0	68	30899
2026-01-23 20:59:35.74	255.92	6.22	-48.3	-67.0	3.8	8.48e-01	0	35	104	0	68	30513
2026-01-23 20:59:37.73	255.70	6.37	-48.3	-66.9	3.8	8.47e-01	0	35	104	0	68	30118
2026-01-23 20:59:39.72	255.48	6.53	-48.3	-66.7	3.8	8.47e-01	0	35	104	0	68	29633
2026-01-23 20:59:41.72	255.25	6.69	-48.3	-66.6	3.8	8.46e-01	0	36	104	0	68	29122
2026-01-23 20:59:43.71	255.02	6.84	-48.3	-66.6	3.8	8.46e-01	0	36	104	0	68	29237
2026-01-23 20:59:45.70	254.78	7.00	-48.3	-66.9	3.8	8.46e-01	0	36	104	0	68	30258
2026-01-23 20:59:47.70	254.54	7.17	-48.3	-67.2	3.8	8.45e-01	0	36	104	0	68	31213
2026-01-23 20:59:49.69	254.30	7.33	-48.3	-67.2	3.8	8.46e-01	0	36	104	0	68	31187
2026-01-23 20:59:51.68	254.06	7.49	-48.3	-67.2	3.8	8.47e-01	0	36	104	0	68	31258
2026-01-23 20:59:53.67	253.81	7.66	-48.3	-66.8	3.8	8.48e-01	0	36	104	0	68	29865
2026-01-23 20:59:55.67	253.55	7.82	-48.2	-65.7	3.8	8.46e-01	0	36	104	0	68	26184
2026-01-23 20:59:57.66	253.30	7.99	-48.2	-65.5	3.8	8.46e-01	0	36	104	0	68	25762
2026-01-23 20:59:59.65	253.03	8.16	-48.3	-66.9	3.8	8.45e-01	0	36	104	0	68	30358
2026-01-23 21:00:01.65	252.77	8.33	-48.2	-66.6	3.8	8.48e-01	0	36	104	0	68	29041
2026-01-23 21:00:03.64	252.50	8.50	-48.2	-65.2	3.8	8.47e-01	0	36	104	0	68	24966
2026-01-23 21:00:05.64	252.22	8.67	-48.0	-61.1	5.2	8.33e-01	0	36	0	0	68	15551
2026-01-23 21:00:07.63	251.94	8.85	-46.9	-54.6	11.2	3.16e-01	0	36	0	0	65	8668
2026-01-23 21:00:09.62	251.65	9.02	-45.7	-50.8	15.2	5.47e-03	0	36	0	0	63	6319
2026-01-23 21:00:11.62	251.36	9.20	-43.5	-46.9	19.1	0.00e+00	0	36	0	0	59	5089
2026-01-23 21:00:13.63	251.07	9.38	-45.6	-50.7	15.2	4.50e-06	0	36	0	0	63	6205
2026-01-23 21:00:15.64	250.77	9.56	-41.3	-43.9	22.1	0.00e+00	0	36	0	0	54	4786
2026-01-23 21:00:17.64	250.46	9.74	-40.4	-42.9	23.0	0.00e+00	0	36	0	0	52	4779
2026-01-23 21:00:19.64	250.15	9.92	-40.1	-42.5	23.5	0.00e+00	0	36	0	0	51	4840
2026-01-23 21:00:21.64	249.83	10.11	-39.7	-42.0	24.0	0.00e+00	0	36	0	0	51	4573
2026-01-23 21:00:23.64	249.51	10.29	-39.7	-41.9	24.0	0.00e+00	0	36	0	0	51	4545
2026-01-23 21:00:25.64	249.18	10.48	-39.7	-41.9	24.0	0.00e+00	0	36	0	0	51	4545
2026-01-23 21:00:27.65	248.85	10.67	-39.4	-41.7	24.2	0.00e+00	0	36	0	0	50	4683
2026-01-23 21:00:29.65	248.51	10.86	-39.3	-41.5	24.4	0.00e+00	0	36	0	0	50	4575
2026-01-23 21:00:31.65	248.16	11.05	-39.0	-41.2	24.6	0.00e+00	0	36	0	0	50	4436
2026-01-23 21:00:33.66	247.81	11.24	-39.2	-41.4	24.6	0.00e+00	0	37	0	0	50	4510
2026-01-23 21:00:35.65	247.45	11.43	-39.1	-41.3	24.7	0.00e+00	0	36	0	0	50	4477
2026-01-23 21:00:37.66	247.09	11.63	-39.0	-41.2	24.8	0.00e+00	0	36	0	0	50	4400
2026-01-23 21:00:39.66	246.72	11.83	-38.8	-41.0	25.0	0.00e+00	0	37	0	0	49	4583
2026-01-23 21:00:41.67	246.34	12.03	-38.7	-40.8	25.1	0.00e+00	0	36	0	0	49	4481
2026-01-23 21:00:43.67	245.95	12.23	-38.6	-40.8	25.2	0.00e+00	0	36	0	0	49	4452
2026-01-23 21:00:45.67	245.56	12.43	-38.6	-40.7	25.2	0.00e+00	0	37	0	0	49	4435
2026-01-23 21:00:47.67	245.16	12.63	-38.3	-40.4	25.5	0.00e+00	0	37	0	0	48	4545
2026-01-23 21:00:49.67	244.76	12.83	-38.4	-40.5	25.4	0.00e+00	0	37	0	0	48	4589
2026-01-23 21:00:51.68	244.34	13.04	-38.4	-40.5	25.4	0.00e+00	0	37	0	0	48	4577
2026-01-23 21:00:53.68	243.92	13.25	-38.1	-40.2	25.7	0.00e+00	0	37	0	0	48	4433
2026-01-23 21:00:55.68	243.49	13.46	-37.9	-40.0	25.9	0.00e+00	0	37	0	0	47	4564
2026-01-23 21:00:57.69	243.05	13.67	-37.8	-39.9	25.9	0.00e+00	0	37	0	0	47	4521
2026-01-23 21:00:59.69	242.61	13.88	-37.7	-39.8	26.1	0.00e+00	0	37	0	0	47	4459
2026-01-23 21:01:01.69	242.16	14.09	-37.8	-39.9	26.0	0.00e+00	0	37	0	0	47	4505
2026-01-23 21:01:03.69	241.69	14.30	-38.0	-40.1	25.7	0.00e+00	0	37	0	0	47	4645
2026-01-23 21:01:05.69	241.22	14.52	-37.6	-39.7	26.1	0.00e+00	0	37	0	0	47	4416
2026-01-23 21:01:07.69	240.74	14.73	-37.7	-39.7	26.1	0.00e+00	0	37	0	0	47	4424
2026-01-23 21:01:09.69	240.26	14.95	-37.4	-39.4	26.3	0.00e+00	0	37	0	0	46	4537
2026-01-23 21:01:11.69	239.76	15.17	-37.6	-39.6	26.2	0.00e+00	0	37	0	0	46	4642
2026-01-23 21:01:13.69	239.25	15.39	-37.5	-39.6	26.3	0.00e+00	0	37	0	0	46	4617
2026-01-23 21:01:15.69	238.73	15.61	-37.5	-39.6	26.3	0.00e+00	0	37	0	0	46	4603
2026-01-23 21:01:17.70	238.21	15.83	-37.1	-39.1	26.7	0.00e+00	0	37	0	0	46	4343
2026-01-23 21:01:19.70	237.67	16.05	-37.0	-39.0	26.8	0.00e+00	0	37	0	0	46	4337
2026-01-23 21:01:21.71	237.12	16.27	-37.0	-39.0	26.8	0.00e+00	0	37	0	0	45	4565
2026-01-23 21:01:23.71	236.56	16.50	-37.0	-39.1	26.8	0.00e+00	0	37	0	0	45	4599
2026-01-23 21:01:25.71	235.99	16.72	-37.1	-39.1	26.7	0.00e+00	0	37	0	0	45	4630
2026-01-23 21:01:27.71	235.42	16.95	-37.1	-39.2	26.6	0.00e+00	0	37	0	0	45	4662
2026-01-23 21:01:29.71	234.83	17.17	-36.9	-38.9	26.8	0.00e+00	0	37	0	0	45	4530
2026-01-23 21:01:31.71	234.23	17.40	-36.6	-38.6	27.2	0.00e+00	0	37	0	0	45	4346
2026-01-23 21:01:33.72	233.61	17.62	-36.7	-38.7	27.1	0.00e+00	0	37	0	0	45	4399
2026-01-23 21:01:35.72	232.99	17.85	-36.9	-38.9	26.7	0.00e+00	0	37	0	0	45	4508
2026-01-23 21:01:37.71	232.36	18.07	-37.1	-39.1	26.7	0.00e+00	0	37	0	0	45	4614
2026-01-23 21:01:39.72	231.71	18.30	-36.7	-38.7	27.1	0.00e+00	0	37	0	0	45	4431
2026-01-23 21:01:41.72	231.05	18.52	-36.4	-38.4	27.3	0.00e+00	0	37	0	0	44	4520
2026-01-23 21:01:43.72	230.38	18.75	-36.4	-38.4	27.3	0.00e+00	0	37	0	0	44	4501
2026-01-23 21:01:45.72	229.69	18.97	-36.2	-38.2	27.5	0.00e+00	0	37	0	0	44	4405
2026-01-23 21:01:47.73	228.99	19.20	-36.3	-38.3	27.5	0.00e+00	0	37	0	0	44	4446
2026-01-23 21:01:49.73	228.29	19.42	-36.5	-38.4	27.3	0.00e+00	0	37	0	0	44	4538
2026-01-23 21:01:51.73	227.56	19.64	-36.5	-38.5	27.3	0.00e+00	0	37	0	0	44	4577
2026-01-23 21:01:53.74	226.83	19.86	-36.3	-38.3	27.4	0.00e+00	0	37	0	0	44	4472
2026-01-23 21:01:55.73	226.08	20.08	-35.7	-37.6	27.8	0.00e+00	0	37	0	0	43	4353
2026-01-23 21:01:57.74	225.32	20.29	-35.6	-37.5	28.0	0.00e+00	0	37	0	0	42	4582
2026-01-23 21:01:59.74	224.55	20.51	-35.5	-37.4	28.1	0.00e+00	0	37	0	0	42	4511
2026-01-23 21:02:01.74	223.76	20.72	-35.7	-37.6	27.9	0.00e+00	0	37	0	0	42	4613
2026-01-23 21:02:03.74	222.97	20.93	-35.9	-37.8	27.7	0.00e+00	0	37	0	0	42	4739
2026-01-23 21:02:05.74	222.15	21.14	-36.0	-38.0	27.6	0.00e+00	0	37	0	0	42	4822
2026-01-23 21:02:07.74	221.33	21.34	-35.8	-37.8	27.7	0.00e+00	0	37	0	0	42	4722
2026-01-23 21:02:09.75	220.49	21.54	-35.5	-37.4	28.0	0.00e+00	0	37	0	0	42	4534
2026-01-23 21:02:11.74	219.64	21.74	-35.8	-37.7	27.8	0.00e+00	0	37	0	0	42	4671
2026-01-23 21:02:13.74	218.78	21.93	-35.7	-37.6	27.9	0.00e+00	0	37	0	0	42	4628
2026-01-23 21:02:15.75	217.90	22.12	-35.2	-37.0	28.4	0.00e+00	0	37	0	0	42	4339
2026-01-23 21:02:17.75	217.01	22.30	-35.3	-37.2	28.3	0.00e+00	0	37	0	0	42	4410
2026-01-23 21:02:19.75	216.11	22.48	-35.4	-37.3	28.2	0.00e+00	0	37	0	0	42	4463
2026-01-23 21:02:21.76	215.19	22.66	-35.3	-37.2	28.2	0.00e+00	0	37	0	0	42	4433
2026-01-23 21:02:23.77	214.26	22.83	-35.1	-37.0	28.5	0.00e+00	0	37	0	0	42	4292
2026-01-23 21:02:25.77	213.32	22.99	-35.0	-36.9	28.3	0.00e+00	0	37	0	0	41	4501
2026-01-23 21:02:27.77	212.37	23.15	-35.1	-37.0	28.4	0.00e+00	0	37	0	0	41	4565
2026-01-23 21:02:29.77	211.41	23.30	-35.2	-37.1	28.3	0.00e+00	0	37	0	0	41	4627
2026-01-23 21:02:31.78	210.43	23.45	-35.1	-37.0	28.4	0.00e+00	0	37	0	0	41	4566
2026-01-23 21:02:33.78	209.45	23.59	-35.0	-36.9	28.4	0.00e+00	0	37	0	0	41	4509
2026-01-23 21:02:35.78	208.46	23.72	-34.9	-36.8	28.5	0.00e+00	0	37	0	0	41	4465
2026-01-23 21:02:37.78	207.46	23.85	-34.9	-36.7	28.5	0.00e+00	0	37	0	0	41	4432
2026-01-23 21:02:39.79	206.44	23.96	-35.0	-36.9	28.4	0.00e+00	0	37	0	0	41	4495
2026-01-23 21:02:41.78	205.43	24.07	-35.2	-37.1	28.3	0.00e+00	0	37	0	0	41	4636
2026-01-23 21:02:43.78	204.40	24.17	-35.1	-37.0	28.4	0.00e+00	0	37	0	0	41	4577
2026-01-23 21:02:45.79	203.36	24.27	-35.0	-36.8	28.5	0.00e+00	0	37	0	0	41	4483
2026-01-23 21:02:47.78	202.33	24.35	-35.2	-37.1	28.3	0.00e+00	0	37	0	0	41	4610
2026-01-23 21:02:49.79	201.27	24.43	-35.0	-36.9	28.4	0.00e+00	0	37	0	0	41	4532
2026-01-23 21:02:51.79	200.22	24.49	-35.1	-36.9	28.2	0.00e+00	0	37	0	0	41	4544
2026-01-23 21:02:53.79	199.16	24.55	-35.4	-37.3	28.2	0.00e+00	0	37	0	0	41	4755
2026-01-23 21:02:55.79	198.10	24.60	-35.7	-37.6	27.8	0.00e+00	0	37	0	0	42	4651
2026-01-23 21:02:57.80	197.03	24.64	-35.5	-37.4	28.0	0.00e+00	0	37	0	0	42	4545
2026-01-23 21:02:59.80	195.96	24.67	-35.0	-36.9	28.5	0.00e+00	0	37	0	0	42	4278
2026-01-23 21:03:01.80	194.89	24.69	-34.8	-36.6	28.6	0.00e+00	0	37	0	0	41	4380
2026-01-23 21:03:03.81	193.81	24.70	-34.7	-36.6	28.7	0.00e+00	0	37	0	0	41	4357
2026-01-23 21:03:05.81	192.74	24.70	-34.7	-36.6	28.7	0.00e+00	0	37	0	0	41	4359
2026-01-23 21:03:07.81	191.67	24.70	-35.2	-37.1	28.3	0.00e+00	0	37	0	0	41	4636
2026-01-23 21:03:09.82	190.59	24.68	-35.4	-37.3	28.1	0.00e+00	0	37	0	0	41	4741
2026-01-23 21:03:11.82	189.53	24.65	-35.2	-37.1	28.4	0.00e+00	0	37	0	0	41	4606
2026-01-23 21:03:13.82	188.46	24.61	-35.1	-37.0	28.3	0.00e+00	0	37	0	0	41	4550
2026-01-23 21:03:15.82	187.39	24.57	-34.8	-36.6	28.7	0.00e+00	0	37	0	0	41	4389
2026-01-23 21:03:17.82	186.34	24.51	-34.7	-36.6	28.8	0.00e+00	0	37	0	0	41	4352
2026-01-23 21:03:19.81	185.29	24.45	-34.8	-36.7	28.6	0.00e+00	0	37	0	0	41	4404
2026-01-23 21:03:21.82	184.23	24.38	-35.3	-37.1	28.3	0.00e+00	0	37	0	0	41	4649
2026-01-23 21:03:23.82	183.19	24.29	-35.7	-37.6	27.9	0.00e+00	0	37	0	0	42	4635
2026-01-23 21:03:25.82	182.15	24.20	-35.4	-37.3	28.1	0.00e+00	0	37	0	0	42	4470
2026-01-23 21:03:27.82	181.12	24.11	-34.9	-36.8	28.6	0.00e+00	0	37	0	0	41	4467
2026-01-23 21:03:29.83	180.09	24.00	-35.5	-37.4	28.1	0.00e+00	0	37	0	0	41	4783
2026-01-23 21:03:31.83	179.08	23.88	-35.4	-37.3	28.1	0.00e+00	0	37	0	0	41	4729
2026-01-23 21:03:33.83	178.08	23.76	-35.1	-37.0	28.4	0.00e+00	0	37	0	0	41	4587
2026-01-23 21:03:35.84	177.08	23.63	-35.0	-36.9	28.5	0.00e+00	0	37	0	0	41	4525
2026-01-23 21:03:37.84	176.09	23.49	-34.7	-36.6	28.0	0.00e+00	0	37	0	0	41	4344
2026-01-23 21:03:39.85	175.11	23.35	-34.9	-36.8	28.6	0.00e+00	0	37	0	0	41	4468
2026-01-23 21:03:41.85	174.15	23.20	-34.8	-36.7	28.7	0.00e+00	0	37	0	0	41	4424
2026-01-23 21:03:43.86	173.19	23.04	-34.6	-36.5	28.8	0.00e+00	0	37	0	0	41	4316
2026-01-23 21:03:45.86	172.25	22.88	-34.9	-36.9	28.5	0.00e+00	0	37	0	0	41	4497
2026-01-23 21:03:47.86	171.32	22.71	-34.9	-36.8	28.6	0.00e+00	0	37	0	0	41	4466
2026-01-23 21:03:49.86	170.40	22.54	-34.8	-36.6	28.7	0.00e+00	0	37	0	0	40	4648
2026-01-23 21:03:51.86	169.49	22.36	-35.0	-36.9	28.5	0.00e+00	0	37	0	0	40	4786
2026-01-23 21:03:53.87	168.59	22.18	-35.4	-37.3	28.2	0.00e+00	0	37	0	0	41	4723
2026-01-23 21:03:55.87	167.71	21.99	-35.8	-37.8	27.8	0.00e+00	0	37	0	0	42	4712
2026-01-23 21:03:57.87	166.85	21.80	-35.2	-37.1	28.3	0.00e+00	0	37	0	0	42	4355
2026-01-23 21:03:59.87	165.99	21.60	-34.9	-36.8	28.3	0.00e+00	0	37	0	0	41	4474
2026-01-23 21:04:01.87	165.15	21.40	-35.5	-37.4	28.1	0.00e+00	0	37	0	0	41	4798
2026-01-23 21:04:03.88	164.31	21.20	-36.3	-38.2	27.4	0.00e+00	0	37	0	0	43	4694
2026-01-23 21:04:05.88	163.50	20.99	-36.0	-37.9	27.5	0.00e+00	0	37	0	0	43	4545
2026-01-23 21:04:07.89	162.69	20.78	-35.6	-37.5	28.0	0.00e+00	0	37	0	0	43	4332
2026-01-23 21:04:09.89	161.90	20.57	-35.7	-37.7	27.9	0.00e+00	0	37	0	0	43	4411
2026-01-23 21:04:11.89	161.12	20.36	-35.9	-37.9	27.7	0.00e+00	0	37	0	0	43	4496
2026-01-23 21:04:13.90	160.36	20.14	-36.1	-38.1	27.5	0.00e+00	0	37	0	0	43	4607
2026-01-23 21:04:15.90	159.61	19.92	-36.3	-38.3	27.3	0.00e+00	0	37	0	0	43	4719
2026-01-23 21:04:17.90	158.87	19.70	-36.0	-38.0	27.5	0.00e+00	0	37	0	0	43	4566
2026-01-23 21:04:19.90	158.14	19.48	-36.0	-38.0	27.5	0.00e+00	0	37	0	0	43	4551
2026-01-23 21:04:21.90	157.43	19.26	-36.2	-38.1	27.3	0.00e+00	0	37	0	0	43	4651
2026-01-23 21:04:23.90	156.73	19.04	-36.2	-38.2	27.1	0.00e+00	0	37	0	0	43	4654
2026-01-23 21:04:25.91	156.04	18.81	-35.8	-37.8	27.5	0.00e+00	0	37	0	0	43	4445
2026-01-23 21:04:27.91	155.36	18.59	-36.0	-37.9	27.4	0.00e+00	0	37	0	0	43	4539
2026-01-23 21:04:29.92	154.70	18.36	-36.0	-38.0	27.4	0.00e+00	0	37	0	0	43	4575
2026-01-23 21:04:31.92	154.05	18.14	-35.9	-37.8	27.5	0.00e+00	0	37	0	0	43	4492
2026-01-23 21:04:33.92	153.41	17.91	-35.9	-37.9	27.5	0.00e+00	0	37	0	0	43	4516
2026-01-23 21:04:35.93	152.78	17.68	-36.3	-38.3	27.1	0.00e+00	0	37	0	0	43	4723
2026-01-23 21:04:37.93	152.16	17.46	-36.3	-38.3	27.1	0.00e+00	0	37	0	0	43	4736
2026-01-23 21:04:39.93	151.56	17.23	-36.5	-38.5	27.0	0.00e+00	0	37	0	0	43	4825
2026-01-23 21:04:41.93	150.96	17.01	-36.5	-38.5	26.9	0.00e+00	0	37	0	0	43	4856
2026-01-23 21:04:43.94	150.38	16.78	-36.3	-38.3	27.2	0.00e+00	0	37	0	0	43	4724
2026-01-23 21:04:45.94	149.81	16.56	-36.5	-38.4	26.9	0.00e+00	0	37	0	0	43	4807
2026-01-23 21:04:47.95	149.24	16.33	-37.0	-39.1	26.6	0.00e+00	0	37	0	0	44	4876
2026-01-23 21:04:49.95	148.69	16.11	-37.3	-39.3	26.4	0.00e+00	0	37	0	0	45	4728
2026-01-23 21:04:51.95	148.15	15.89	-37.2	-39.3	26.5	0.00e+00	0	37	0	0	45	4717
2026-01-23 21:04:53.95	147.62	15.67	-37.4	-39.5	26.3	0.00e+00	0	37	0	0	45	4828
2026-01-23 21:04:55.95	147.10	15.44	-37.6	-39.7	26.2	0.00e+00	0	37	0	0	45	4942
2026-01-23 21:04:57.95	146.59	15.23	-37.3	-39.4	26.4	0.00e+00	0	37	0	0	45	4778
2026-01-23 21:04:59.95	146.09	15.01	-37.6	-39.6	26.2	0.00e+00	0	37	0	0	45	4914
2026-01-23 21:05:01.95	145.60	14.79	-37.9	-40.0	26.0	0.00e+00	0	37	0	0	46	4839
2026-01-23 21:05:03.95	145.12	14.57	-38.0	-40.1	25.8	0.00e+00	0	37	0	0	46	4919
2026-01-23 21:05:05.95	144.64	14.36	-38.0	-40.2	25.8	0.00e+00	0	37	0	0	46	4929
2026-01-23 21:05:07.95	144.18	14.14	-38.1	-40.2	25.7	0.00e+00	0	37	0	0	46	4959
2026-01-23 21:05:09.96	143.72	13.93	-38.2	-40.3	25.7	0.00e+00	0	37	0	0	46	5014
2026-01-23 21:05:11.96	143.27	13.72	-38.3	-40.5	25.5	0.00e+00	0	37	0	0	47	4819
2026-01-23 21:05:13.97	142.83	13.51	-38.3	-40.4	25.6	0.00e+00	0	37	0	0	47	4810
2026-01-23 21:05:15.98	142.39	13.30	-38.4	-40.6	25.4	0.00e+00	0	37	0	0	47	4900
2026-01-23 21:05:17.98	141.97	13.09	-38.4	-40.6	25.4	0.00e+00	0	37	0	0	47	4887
2026-01-23 21:05:19.97	141.56	12.89	-38.4	-40.6	25.5	0.00e+00	0	37	0	0	47	4882
2026-01-23 21:05:21.97	141.15	12.68	-38.5	-40.7	25.3	0.00e+00	0	37	0	0	47	4953
2026-01-23 21:05:23.98	140.74	12.48	-38.9	-41.0	25.1	0.00e+00	0	37	0	0	48	4847
2026-01-23 21:05:25.98	140.35	12.27	-39.0	-41.2	24.9	0.00e+00	0	37	0	0	48	4970
2026-01-23 21:05:27.98	139.96	12.07	-39.3	-41.5	24.7	0.00e+00	0	37	0	0	49	4818
2026-01-23 21:05:29.98	139.58	11.88	-39.3	-41.5	24.7	0.00e+00	0	37	0	0	49	4830
2026-01-23 21:05:31.98	139.21	11.68	-39.3	-41.5	24.7	0.00e+00	0	37	0	0	49	4842
2026-01-23 21:05:33.99	138.84	11.48	-39.7	-41.9	24.3	0.00e+00	0	37	0	0	49	5086
2026-01-23 21:05:35.99	138.48	11.29	-39.8	-42.0	24.2	0.00e+00	0	37	0	0	50	4852
2026-01-23 21:05:37.99	138.13	11.09	-39.7	-42.0	24.3	0.00e+00	0	37	0	0	50	4816
2026-01-23 21:05:39.99	137.78	10.90	-39.9	-42.2	24.1	0.00e+00	0	37	0	0	50	4927
2026-01-23 21:05:41.99	137.44	10.71	-40.0	-42.3	24.0	0.00e+00	0	37	0	0	50	4992
2026-01-23 21:05:43.99	137.10	10.52	-40.0	-42.3	24.0	0.00e+00	0	37	0	0	50	4985
2026-01-23 21:05:45.99	136.77	10.33	-39.8	-42.1	24.2	0.00e+00	0	37	0	0	50	4901
2026-01-23 21:05:47.99	136.45	10.15	-40.0	-42.3	23.9	0.00e+00	0	37	0	0	50	5009
2026-01-23 21:05:49.99	136.13	9.96	-40.2	-42.7	23.7	0.00e+00	0	37	0	0	51	4955
2026-01-23 21:05:51.99	135.82	9.78	-40.4	-42.8	23.5	0.00e+00	0	37	0	0	51	5010
2026-01-23 21:05:53.99	135.51	9.60	-40.5	-42.9	23.4	0.00e+00	0	37	0	0	51	5045
2026-01-23 21:05:56.00	135.21	9.42	-40.5	-42.9	23.3	0.00e+00	0	37	0	0	51	5099
2026-01-23 21:05:58.00	134.91	9.24	-40.5	-42.8	23.4	0.00e+00	0	37	0	0	51	5038
2026-01-23 21:06:00.00	134.62	9.06	-40.5	-42.8	23.4	0.00e+00	0	37	0	0	51	5041
2026-01-23 21:06:01.99	134.33	8.89	-48.9	-67.4	3.7	3.78e-04	0	37	104	0	68	31942
2026-01-23 21:06:03.98	134.05	8.71	-49.2	-68.0	3.8	8.47e-01	0	37	104	0	69	32494
2026-01-23 21:06:05.97	133.77	8.54	-49.4	-68.1	3.8	8.47e-01	0	37	104	0	69	32747
2026-01-23 21:06:07.96	133.50	8.37	-49.4	-68.2	3.8	8.46e-01	0	37	104	0	69	33134
2026-01-23 21:06:09.96	133.23	8.20	-49.5	-68.2	3.8	8.46e-01	0	37	104	0	69	33175
2026-01-23 21:06:11.95	132.97	8.03	-49.5	-68.3	3.8	8.46e-01	0	37	104	0	69	33346
2026-01-23 21:06:13.93	132.71	7.86	-49.5	-68.3	3.8	8.46e-01	0	37	104	0	69	33459
2026-01-23 21:06:15.93	132.45	7.69	-49.4	-68.3	3.8	8.46e-01	0	37	104	0	69	33496
2026-01-23 21:06:17.92	132.20	7.53	-49.2	-68.3	3.8	8.48e-01	0	38	104	0	69	33529
2026-01-23 21:06:19.91	131.95	7.36	-49.3	-68.3	3.8	8.45e-01	0	37	104	0	69	33593
2026-01-23 21:06:21.91	131.71	7.20	-49.3	-68.3	3.8	8.48e-01	0	37	104	0	69	33469
2026-01-23 21:06:23.90	131.47	7.04	-49.3	-68.3	3.8	8.48e-01	0	37	104	0	69	33373
2026-01-23 21:06:25.90	131.23	6.88	-49.3	-68.3	3.8	8.48e-01	0	37	104	0	69	33375
2026-01-23 21:06:27.89	131.00	6.72	-49.3	-68.3	3.8	8.48e-01	0	38	104	0	69	33331
2026-01-23 21:06:29.89	130.77	6.56	-49.3	-68.2	3.8	8.47e-01	0	37	104	0	69	33234
2026-01-23 21:06:31.88	130.54	6.40	-49.3	-68.3	3.8	8.46e-01	0	38	104	0	69	33332
2026-01-23 21:06:33.87	130.32	6.25	-49.3	-68.2	3.8	8.46e-01	0	37	104	0	69	33246
2026-01-23 21:06:35.86	130.10	6.09	-49.3	-68.2	3.8	8.47e-01	0	37	104	0	69	33265
2026-01-23 21:06:37.86	129.89	5.94	-49.3	-68.2	3.8	8.47e-01	0	37	104	0	69	33253
2026-01-23 21:06:39.85	129.68	5.79	-49.3	-68.2	3.8	8.46e-01	0	37	104	0	69	33221
2026-01-23 21:06:41.84	129.47	5.64	-49.3	-68.2	3.8	8.48e-01	0	37	104	0	69	33229
2026-01-23 21:06:43.83	129.26	5.49	-49.3	-68.2	3.8	8.47e-01	0	37	104	0	69	33261
2026-01-23 21:06:45.83	129.06	5.34	-49.3	-68.2	3.8	8.48e-01	0	37	104	0	69	33129
2026-01-23 21:06:47.82	128.86	5.19	-49.3	-68.2	3.8	8.48e-01	0	37	104	0	69	33189
2026-01-23 21:06:49.81	128.66	5.04	-49.3	-68.2	3.8	8.47e-01	0	38	104	0	69	33193

#Closed at: 2026-01-23 21:06:51
#Recorded file [0 MB]: D:/Data/31040_260123_235921.dat