passes_logs/2026/01/23/T1/T1__20260123_012307_FENGYUN_3D_rec.log

#Pass ID: 20260123_012307_FENGYUN 3D
#Satellite: FENGYUN 3D
#Configuration: FENGYUN 3D
#almurnet v.1.7.20251203
#Start time: 2026-01-23 01:23:07

#Version: 2.0.20230620
#Station: T1
#Location: 37.570604 lon 55.790049 lat
#TLE: 1 43010U 17072A   26022.47411728  .00000617  00000+0  31375-3 0  9996
#TLE: 2 43010  98.9952 354.4060 0002481  95.7964 264.3494 14.19699924424319

#Time	Az	El	Level	Level2	SNR	BER	BlckErr	Temp	State	Recorded	gain1	gain2
2026-01-23 01:23:07.90	19.61	5.03	-47.3	-61.2	3.8	8.46e-01	0	35	0	0	66	17518
2026-01-23 01:23:11.87	19.71	5.31	-47.3	-60.9	3.8	8.46e-01	0	35	104	0	65	17945
2026-01-23 01:23:15.84	19.82	5.59	-47.3	-60.8	3.8	8.47e-01	0	35	104	0	65	17776
2026-01-23 01:23:19.82	19.93	5.88	-47.3	-60.9	3.8	8.47e-01	0	35	104	0	65	18041
2026-01-23 01:23:23.79	20.03	6.17	-47.3	-61.2	3.8	8.47e-01	0	36	104	0	65	18546
2026-01-23 01:23:27.77	20.15	6.46	-47.3	-61.2	3.8	8.48e-01	0	36	104	0	65	18547
2026-01-23 01:23:31.74	20.26	6.76	-47.2	-60.4	3.8	8.47e-01	0	36	104	0	65	17076
2026-01-23 01:23:35.71	20.37	7.06	-47.1	-58.9	3.8	8.47e-01	0	36	104	0	65	14229
2026-01-23 01:23:39.68	20.49	7.36	-46.9	-57.3	4.3	8.35e-01	0	36	0	0	65	11863
2026-01-23 01:23:43.66	20.61	7.67	-46.8	-56.5	4.6	8.14e-01	0	36	0	0	65	10826
2026-01-23 01:23:47.63	20.73	7.98	-46.7	-55.8	4.9	7.86e-01	0	36	0	0	65	9994
2026-01-23 01:23:51.61	20.85	8.29	-46.3	-53.9	6.2	3.54e-01	0	36	0	6291456	64	8505
2026-01-23 01:23:55.58	20.98	8.61	-45.0	-50.0	10.1	1.76e-02	0	37	0	28311552	62	6064
2026-01-23 01:23:59.55	21.11	8.93	-43.1	-46.4	13.8	1.60e-05	0	37	0	50331648	58	5088
2026-01-23 01:24:03.53	21.24	9.26	-42.7	-45.7	14.4	2.50e-02	0	36	0	72351744	57	4959
2026-01-23 01:24:07.51	21.37	9.59	-39.1	-41.3	18.8	0.00e+00	0	37	0	95420416	50	4456
2026-01-23 01:24:11.49	21.51	9.92	-38.7	-40.8	19.3	0.00e+00	0	37	0	117440512	49	4453
2026-01-23 01:24:15.47	21.65	10.26	-38.8	-40.8	19.2	0.00e+00	0	37	0	139460608	49	4490
2026-01-23 01:24:19.45	21.79	10.61	-38.8	-40.8	19.3	0.00e+00	0	37	0	162529280	49	4467
2026-01-23 01:24:23.42	21.93	10.95	-38.5	-40.5	19.6	0.00e+00	0	37	0	184549376	49	4311
2026-01-23 01:24:27.44	22.08	11.31	-38.5	-40.5	19.7	0.00e+00	0	37	0	207618048	48	4552
2026-01-23 01:24:31.47	22.24	11.67	-38.4	-40.3	19.9	0.00e+00	0	37	0	229638144	48	4458
2026-01-23 01:24:35.44	22.39	12.04	-38.5	-40.4	19.8	0.00e+00	0	37	0	252706816	48	4511
2026-01-23 01:24:39.42	22.55	12.41	-38.3	-40.1	20.1	0.00e+00	0	37	0	274726912	48	4381
2026-01-23 01:24:43.40	22.71	12.78	-37.8	-39.6	20.3	0.00e+00	0	37	0	296747008	47	4386
2026-01-23 01:24:47.48	22.88	13.17	-37.8	-39.6	20.5	0.00e+00	0	37	0	319815680	47	4348
2026-01-23 01:24:51.46	23.05	13.56	-37.7	-39.5	20.6	0.00e+00	0	37	0	342884352	47	4292
2026-01-23 01:24:55.43	23.22	13.95	-37.7	-39.5	20.6	0.00e+00	0	37	0	364904448	47	4294
2026-01-23 01:24:59.50	23.40	14.36	-37.6	-39.4	20.6	0.00e+00	0	37	0	387973120	47	4270
2026-01-23 01:25:03.48	23.59	14.76	-37.6	-39.5	20.6	0.00e+00	0	37	0	409993216	46	4546
2026-01-23 01:25:07.68	23.78	15.20	-37.2	-39.0	21.0	0.00e+00	0	37	0	434110464	46	4311
2026-01-23 01:25:11.69	23.98	15.62	-37.1	-38.9	21.1	0.00e+00	0	37	0	456130560	46	4261
2026-01-23 01:25:15.69	24.17	16.05	-36.9	-38.7	21.3	0.00e+00	0	37	0	478150656	45	4410
2026-01-23 01:25:19.81	24.38	16.50	-36.8	-38.6	21.4	0.00e+00	0	37	0	502267904	45	4346
2026-01-23 01:25:23.79	24.59	16.94	-36.7	-38.4	21.6	0.00e+00	0	38	0	524288000	45	4291
2026-01-23 01:25:27.78	24.81	17.39	-36.7	-38.5	21.5	0.00e+00	0	37	0	546308096	45	4296
2026-01-23 01:25:32.05	25.04	17.89	-36.5	-38.3	21.7	0.00e+00	0	37	0	570425344	45	4218
2026-01-23 01:25:36.05	25.27	18.36	-36.4	-38.2	21.8	0.00e+00	0	37	0	593494016	44	4413
2026-01-23 01:25:40.03	25.50	18.83	-36.1	-37.9	22.1	0.00e+00	0	37	0	615514112	44	4255
2026-01-23 01:25:44.01	25.74	19.32	-36.1	-37.9	22.1	0.00e+00	0	37	0	638582784	44	4257
2026-01-23 01:25:48.00	25.99	19.81	-36.2	-37.9	22.0	0.00e+00	0	38	0	660602880	44	4287
2026-01-23 01:25:52.06	26.25	20.33	-36.2	-37.9	22.1	0.00e+00	0	37	0	683671552	44	4283
2026-01-23 01:25:56.04	26.51	20.84	-36.1	-37.9	22.1	0.00e+00	0	38	0	705691648	44	4247
2026-01-23 01:26:00.02	26.78	21.36	-36.2	-38.0	22.1	0.00e+00	0	37	0	727711744	44	4298
2026-01-23 01:26:04.00	27.06	21.90	-36.3	-38.0	22.0	0.00e+00	0	37	0	750780416	44	4320
2026-01-23 01:26:07.98	27.35	22.44	-35.5	-37.2	22.6	0.00e+00	0	38	0	772800512	43	4162
2026-01-23 01:26:11.96	27.65	23.00	-35.3	-37.0	22.8	0.00e+00	0	37	0	794820608	42	4292
2026-01-23 01:26:15.93	27.96	23.57	-35.1	-36.7	23.0	0.00e+00	0	38	0	817889280	42	4187
2026-01-23 01:26:20.03	28.29	24.16	-35.3	-36.9	22.9	0.00e+00	0	37	0	840957952	42	4286
2026-01-23 01:26:24.01	28.63	24.76	-35.1	-36.7	23.0	0.00e+00	0	37	0	862978048	42	4192
2026-01-23 01:26:27.99	28.97	25.36	-35.0	-36.7	23.1	0.00e+00	0	38	0	884998144	41	4406
2026-01-23 01:26:31.96	29.33	25.98	-35.0	-36.6	23.1	0.00e+00	0	38	0	908066816	41	4388
2026-01-23 01:26:35.94	29.70	26.61	-35.3	-37.0	22.8	0.00e+00	0	38	0	930086912	41	4550
2026-01-23 01:26:39.99	30.09	27.27	-35.1	-36.8	23.0	0.00e+00	0	38	0	953155584	41	4458
2026-01-23 01:26:44.05	30.50	27.94	-35.0	-36.6	23.2	0.00e+00	0	38	0	975175680	41	4371
2026-01-23 01:26:48.02	30.92	28.62	-34.7	-36.4	23.4	0.00e+00	0	38	0	998244352	41	4251
2026-01-23 01:26:52.00	31.36	29.31	-34.6	-36.3	23.5	0.00e+00	0	38	0	1020264448	41	4210
2026-01-23 01:26:55.99	31.81	30.02	-34.7	-36.3	23.4	0.00e+00	0	38	0	1042284544	41	4213
2026-01-23 01:27:00.10	32.31	30.76	-34.8	-36.4	23.4	0.00e+00	0	38	0	1065353216	41	4267
2026-01-23 01:27:04.16	32.81	31.52	-34.9	-36.6	23.2	0.00e+00	0	38	0	1088421888	41	4357
2026-01-23 01:27:08.18	33.34	32.28	-34.7	-36.3	23.4	0.00e+00	0	38	0	1111490560	41	4238
2026-01-23 01:27:12.13	33.88	33.05	-34.7	-36.4	23.4	0.00e+00	0	38	0	1133510656	41	4260
2026-01-23 01:27:16.11	34.45	33.84	-34.6	-36.3	23.4	0.00e+00	0	38	0	1156579328	41	4211
2026-01-23 01:27:20.32	35.08	34.70	-34.5	-36.1	23.6	0.00e+00	0	38	0	1179648000	41	4141
2026-01-23 01:27:24.30	35.71	35.53	-34.4	-36.0	23.7	0.00e+00	0	38	0	1201668096	40	4333
2026-01-23 01:27:28.28	36.38	36.37	-34.3	-35.9	23.8	0.00e+00	0	38	0	1224736768	40	4258
2026-01-23 01:27:32.35	37.09	37.26	-34.0	-35.7	23.3	0.00e+00	0	38	0	1247805440	40	4178
2026-01-23 01:27:36.32	37.82	38.14	-34.2	-35.9	23.2	0.00e+00	0	38	0	1269825536	40	4273
2026-01-23 01:27:40.36	38.61	39.06	-34.6	-36.3	22.9	0.00e+00	0	37	0	1292894208	40	4462
2026-01-23 01:27:44.33	39.43	39.97	-34.4	-36.1	23.1	0.00e+00	0	38	0	1314914304	40	4346
2026-01-23 01:27:48.31	40.30	40.91	-34.6	-36.3	22.9	0.00e+00	0	38	0	1336934400	40	4454
2026-01-23 01:27:52.34	41.23	41.88	-34.7	-36.4	22.8	0.00e+00	0	38	0	1360003072	40	4508
2026-01-23 01:27:56.32	42.21	42.85	-34.6	-36.3	22.9	0.00e+00	0	38	0	1382023168	40	4480
2026-01-23 01:28:00.30	43.24	43.84	-34.6	-36.3	22.9	0.00e+00	0	38	0	1404043264	40	4479
2026-01-23 01:28:04.28	44.35	44.85	-34.9	-36.7	22.6	0.00e+00	0	38	0	1427111936	40	4664
2026-01-23 01:28:08.26	45.52	45.87	-34.8	-36.5	22.7	0.00e+00	0	38	0	1449132032	40	4595
2026-01-23 01:28:12.24	46.77	46.90	-34.8	-36.5	22.8	0.00e+00	0	38	0	1472200704	40	4584
2026-01-23 01:28:16.44	48.18	48.00	-34.9	-36.6	22.7	0.00e+00	0	38	0	1495269376	40	4632
2026-01-23 01:28:20.42	49.62	49.05	-34.9	-36.6	22.8	0.00e+00	0	38	0	1518338048	40	4599
2026-01-23 01:28:24.40	51.15	50.10	-35.4	-37.1	22.3	0.00e+00	0	38	0	1540358144	41	4642
2026-01-23 01:28:28.46	52.83	51.18	-34.9	-36.6	22.8	0.00e+00	0	38	0	1563426816	41	4363
2026-01-23 01:28:32.44	54.60	52.24	-35.4	-37.2	22.3	0.00e+00	0	38	0	1585446912	41	4670
2026-01-23 01:28:36.55	56.56	53.32	-35.4	-37.2	22.3	0.00e+00	0	38	0	1608515584	42	4392
2026-01-23 01:28:40.53	58.60	54.35	-35.7	-37.5	22.0	0.00e+00	0	38	0	1630535680	42	4576
2026-01-23 01:28:44.51	60.79	55.37	-35.9	-37.6	21.9	0.00e+00	0	38	0	1653604352	42	4632
2026-01-23 01:28:48.48	63.13	56.36	-35.2	-36.9	22.5	0.00e+00	0	38	0	1675624448	42	4270
2026-01-23 01:28:52.46	65.66	57.32	-35.5	-37.2	22.3	0.00e+00	0	38	0	1697644544	42	4433
2026-01-23 01:28:56.44	68.36	58.25	-35.3	-37.1	22.4	0.00e+00	0	38	0	1720713216	42	4350
2026-01-23 01:29:00.42	71.25	59.12	-34.8	-36.5	22.9	0.00e+00	0	38	0	1742733312	41	4313
2026-01-23 01:29:04.76	74.61	60.00	-34.7	-36.4	23.0	0.00e+00	0	38	0	1766850560	41	4255
2026-01-23 01:29:08.75	77.91	60.74	-34.7	-36.4	22.9	0.00e+00	0	38	0	1789919232	41	4278
2026-01-23 01:29:12.76	81.41	61.41	-34.4	-36.1	23.1	0.00e+00	0	38	0	1811939328	40	4342
2026-01-23 01:29:16.82	85.14	61.99	-34.5	-36.3	23.1	0.00e+00	0	38	0	1835008000	40	4448
2026-01-23 01:29:20.83	88.98	62.46	-34.4	-36.1	23.1	0.00e+00	0	38	0	1858076672	40	4347
2026-01-23 01:29:24.84	92.96	62.82	-34.3	-36.1	23.1	0.00e+00	0	38	0	1880096768	40	4345
2026-01-23 01:29:28.84	97.03	63.07	-34.4	-36.1	23.1	0.00e+00	0	38	0	1902116864	40	4365
2026-01-23 01:29:32.88	101.21	63.19	-34.1	-35.8	23.4	0.00e+00	0	38	0	1925185536	40	4240
2026-01-23 01:29:37.16	105.65	63.19	-34.4	-36.1	23.1	0.00e+00	0	38	0	1949302784	40	4351
2026-01-23 01:29:41.15	109.77	63.06	-34.3	-36.0	23.2	0.00e+00	0	38	0	1972371456	40	4314
2026-01-23 01:29:45.18	113.87	62.80	-34.3	-36.0	23.1	0.00e+00	0	38	0	1994391552	40	4322
2026-01-23 01:29:49.17	117.83	62.44	-34.2	-35.9	23.3	0.00e+00	0	38	0	2017460224	40	4258
2026-01-23 01:29:53.25	121.73	61.95	-34.8	-36.5	22.8	0.00e+00	0	38	0	2039480320	40	4565
2026-01-23 01:29:57.24	125.39	61.38	-34.3	-36.0	23.2	0.00e+00	0	38	0	2062548992	40	4301
2026-01-23 01:30:01.25	128.89	60.71	-34.3	-36.0	23.3	0.00e+00	0	38	0	2084569088	40	4295
2026-01-23 01:30:05.51	132.39	59.91	-34.8	-36.5	22.9	0.00e+00	0	38	0	2108686336	40	4553
2026-01-23 01:30:09.49	135.47	59.09	-34.8	-36.5	22.8	0.00e+00	0	38	0	2131755008	40	4563
2026-01-23 01:30:14.11	138.81	58.07	-34.7	-36.4	22.9	0.00e+00	0	38	0	2156920832	40	4523
2026-01-23 01:30:18.65	141.84	57.00	-35.2	-36.9	22.5	0.00e+00	0	38	0	2183135232	41	4526
2026-01-23 01:30:22.74	144.37	56.00	-35.6	-37.4	22.0	0.00e+00	0	38	0	2206203904	42	4514
2026-01-23 01:30:26.72	146.67	54.99	-35.7	-37.4	22.0	0.00e+00	0	38	0	2228224000	42	4512
2026-01-23 01:30:30.70	148.81	53.96	-35.6	-37.4	21.9	0.00e+00	0	38	0	2250244096	42	4532
2026-01-23 01:30:34.68	150.80	52.92	-35.8	-37.6	21.9	0.00e+00	0	38	0	2273312768	42	4601
2026-01-23 01:30:38.77	152.70	51.83	-35.1	-36.9	22.5	0.00e+00	0	38	0	2296381440	42	4245
2026-01-23 01:30:42.86	154.47	50.74	-34.9	-36.6	22.8	0.00e+00	0	38	0	2319450112	41	4345
2026-01-23 01:30:46.84	156.08	49.68	-35.0	-36.7	22.6	0.00e+00	0	38	0	2341470208	41	4424
2026-01-23 01:30:50.82	157.58	48.62	-34.7	-36.4	22.9	0.00e+00	0	38	0	2363490304	41	4277
2026-01-23 01:30:54.91	159.02	47.54	-34.9	-36.6	22.6	0.00e+00	0	38	0	2386558976	41	4379
2026-01-23 01:30:59.01	160.37	46.47	-34.9	-36.6	22.6	0.00e+00	0	38	0	2409627648	41	4379
2026-01-23 01:31:02.99	161.59	45.44	-34.7	-36.4	22.7	0.00e+00	0	38	0	2431647744	41	4285
2026-01-23 01:31:06.97	162.74	44.42	-34.5	-36.2	23.0	0.00e+00	0	38	0	2454716416	41	4156
2026-01-23 01:31:10.94	163.81	43.42	-34.6	-36.3	22.8	0.00e+00	0	38	0	2476736512	40	4490
2026-01-23 01:31:15.03	164.86	42.40	-34.5	-36.2	22.9	0.00e+00	0	38	0	2499805184	40	4418
2026-01-23 01:31:19.08	165.83	41.41	-34.3	-36.0	22.9	0.00e+00	0	38	0	2522873856	40	4327
2026-01-23 01:31:23.06	166.72	40.46	-34.2	-35.9	23.0	0.00e+00	0	38	0	2544893952	40	4256
2026-01-23 01:31:27.04	167.57	39.52	-34.3	-36.0	22.9	0.00e+00	0	38	0	2567962624	40	4327
2026-01-23 01:31:31.02	168.38	38.61	-34.4	-36.1	22.9	0.00e+00	0	38	0	2589982720	40	4387
2026-01-23 01:31:35.01	169.14	37.71	-33.9	-35.6	23.3	0.00e+00	0	38	0	2612002816	39	4365
2026-01-23 01:31:38.98	169.86	36.83	-33.8	-35.5	23.4	0.00e+00	0	38	0	2635071488	39	4303
2026-01-23 01:31:42.96	170.54	35.96	-34.1	-35.9	23.1	0.00e+00	0	38	0	2657091584	39	4499
2026-01-23 01:31:47.00	171.20	35.11	-34.2	-35.9	23.0	0.00e+00	0	38	0	2680160256	39	4538
2026-01-23 01:31:51.09	171.83	34.26	-34.4	-36.2	22.8	0.00e+00	0	38	0	2703228928	39	4668
2026-01-23 01:31:55.15	172.43	33.44	-34.6	-36.3	22.7	0.00e+00	0	38	0	2725249024	39	4737
2026-01-23 01:31:59.17	173.00	32.64	-34.4	-36.1	22.8	0.00e+00	0	38	0	2748317696	39	4642
2026-01-23 01:32:03.20	173.54	31.86	-34.6	-36.3	22.7	0.00e+00	0	38	0	2770337792	39	4739
2026-01-23 01:32:07.33	174.07	31.08	-34.8	-36.6	22.4	0.00e+00	0	38	0	2794455040	40	4635
2026-01-23 01:32:11.69	174.60	30.27	-34.7	-36.5	22.5	0.00e+00	0	38	0	2818572288	40	4589
2026-01-23 01:32:15.67	175.06	29.56	-34.7	-36.4	22.5	0.00e+00	0	38	0	2840592384	40	4528
2026-01-23 01:32:19.65	175.51	28.85	-34.7	-36.5	22.5	0.00e+00	0	38	0	2863661056	40	4557
2026-01-23 01:32:23.75	175.95	28.15	-34.7	-36.5	22.4	0.00e+00	0	38	0	2886729728	40	4575
2026-01-23 01:32:27.86	176.37	27.45	-34.7	-36.4	22.5	0.00e+00	0	38	0	2909798400	40	4541
2026-01-23 01:32:31.84	176.76	26.80	-34.6	-36.4	22.6	0.00e+00	0	38	0	2931818496	40	4495
2026-01-23 01:32:35.81	177.14	26.16	-34.7	-36.4	22.5	0.00e+00	0	38	0	2954887168	40	4536
2026-01-23 01:32:39.79	177.50	25.53	-34.9	-36.6	22.3	0.00e+00	0	38	0	2976907264	40	4650
2026-01-23 01:32:43.77	177.85	24.91	-35.0	-36.7	22.2	0.00e+00	0	38	0	2998927360	40	4692
2026-01-23 01:32:47.86	178.20	24.30	-35.0	-36.7	22.2	0.00e+00	0	38	0	3021996032	40	4695
2026-01-23 01:32:52.04	178.54	23.68	-35.0	-36.8	22.2	0.00e+00	0	38	0	3045064704	40	4724
2026-01-23 01:32:56.02	178.85	23.10	-35.1	-36.9	22.1	0.00e+00	0	38	0	3068133376	40	4800
2026-01-23 01:33:00.00	179.15	22.54	-35.3	-37.1	22.0	0.00e+00	0	38	0	3090153472	41	4629
2026-01-23 01:33:03.98	179.44	21.99	-35.4	-37.3	21.8	0.00e+00	0	38	0	3113222144	41	4707
2026-01-23 01:33:07.96	179.72	21.44	-35.5	-37.4	21.7	0.00e+00	0	38	0	3135242240	41	4771
2026-01-23 01:33:12.02	180.00	20.90	-35.7	-37.6	21.6	0.00e+00	0	38	0	3158310912	42	4609
2026-01-23 01:33:15.99	180.27	20.38	-35.9	-37.7	21.5	0.00e+00	0	38	0	3180331008	42	4683
2026-01-23 01:33:19.97	180.52	19.87	-36.0	-37.9	21.3	0.00e+00	0	38	0	3202351104	42	4765
2026-01-23 01:33:24.01	180.77	19.37	-36.1	-37.9	21.3	0.00e+00	0	38	0	3225419776	42	4802
2026-01-23 01:33:28.07	181.02	18.87	-36.2	-38.1	21.2	0.00e+00	0	38	0	3248488448	43	4599
2026-01-23 01:33:32.05	181.25	18.39	-36.4	-38.3	21.0	0.00e+00	0	38	0	3270508544	43	4717
2026-01-23 01:33:36.03	181.48	17.91	-36.4	-38.3	21.0	0.00e+00	0	38	0	3293577216	43	4716
2026-01-23 01:33:40.01	181.70	17.45	-36.5	-38.3	21.0	0.00e+00	0	38	0	3315597312	43	4739
2026-01-23 01:33:44.09	181.92	16.98	-36.6	-38.4	20.9	0.00e+00	0	38	0	3338665984	43	4808
2026-01-23 01:33:48.07	182.12	16.53	-36.9	-38.7	20.7	0.00e+00	0	38	0	3360686080	44	4705
2026-01-23 01:33:52.01	182.32	16.10	-37.0	-38.9	20.5	0.00e+00	0	38	0	3382706176	44	4812
2026-01-23 01:33:55.98	182.52	15.67	-37.3	-39.3	20.3	0.00e+00	0	38	0	3405774848	45	4724
2026-01-23 01:33:59.97	182.71	15.24	-37.3	-39.2	18.3	0.00e+00	0	38	0	3427794944	45	4700
2026-01-23 01:34:03.94	182.90	14.83	-37.5	-39.4	20.1	0.00e+00	0	38	0	3449815040	45	4807
2026-01-23 01:34:07.92	183.08	14.41	-37.6	-39.5	20.0	0.00e+00	0	38	0	3472883712	45	4848
2026-01-23 01:34:11.90	183.26	14.01	-37.7	-39.7	19.9	0.00e+00	0	38	0	3494903808	46	4662
2026-01-23 01:34:15.88	183.43	13.61	-37.7	-39.6	19.9	0.00e+00	0	38	0	3516923904	46	4644
2026-01-23 01:34:19.85	183.60	13.22	-37.8	-39.8	19.8	0.00e+00	0	38	0	3539992576	46	4709
2026-01-23 01:34:23.83	183.76	12.84	-37.8	-39.7	19.8	0.00e+00	0	38	0	3562012672	46	4667
2026-01-23 01:34:27.92	183.93	12.44	-37.9	-39.8	19.7	0.00e+00	0	38	0	3585081344	46	4738
2026-01-23 01:34:31.85	184.08	12.08	-37.9	-39.8	19.7	0.00e+00	0	38	0	3607101440	46	4746
2026-01-23 01:34:35.82	184.23	11.71	-38.0	-39.9	19.6	0.00e+00	0	38	0	3629121536	46	4788
2026-01-23 01:34:39.87	184.39	11.34	-38.0	-40.0	19.6	0.00e+00	0	38	0	3652190208	46	4834
2026-01-23 01:34:43.92	184.53	10.97	-38.2	-40.1	19.4	0.00e+00	0	38	0	3675258880	47	4649
2026-01-23 01:34:47.90	184.68	10.62	-38.4	-40.4	19.1	0.00e+00	0	38	0	3697278976	47	4791
2026-01-23 01:34:51.88	184.82	10.27	-38.5	-40.6	19.0	0.00e+00	0	38	0	3719299072	47	4880
2026-01-23 01:34:55.86	184.95	9.93	-38.7	-40.8	19.0	0.00e+00	0	38	0	3742367744	48	4723
2026-01-23 01:34:59.83	185.09	9.59	-39.0	-41.1	18.7	0.00e+00	0	38	0	3764387840	48	4879
2026-01-23 01:35:03.82	185.22	9.26	-39.0	-41.1	18.7	0.00e+00	0	38	0	3786407936	48	4879
2026-01-23 01:35:07.79	185.35	8.93	-48.6	-60.2	3.8	8.46e-01	0	38	104	3804233728	67	14848
2026-01-23 01:35:11.77	185.47	8.60	-49.7	-61.9	3.8	8.46e-01	0	38	104	3804233728	70	15074
2026-01-23 01:35:15.74	185.60	8.28	-49.8	-62.0	3.8	8.47e-01	0	38	104	3804233728	70	15249
2026-01-23 01:35:19.71	185.72	7.96	-49.8	-62.0	3.8	8.48e-01	0	38	104	3804233728	70	15298
2026-01-23 01:35:23.69	185.83	7.65	-49.8	-62.0	3.8	8.47e-01	0	38	104	3804233728	70	15382
2026-01-23 01:35:27.66	185.95	7.34	-49.9	-62.0	3.8	8.46e-01	0	38	104	3804233728	70	15311
2026-01-23 01:35:31.64	186.06	7.03	-49.7	-62.0	3.8	8.47e-01	0	38	104	3804233728	70	15333
2026-01-23 01:35:35.61	186.18	6.73	-49.7	-62.0	3.8	8.47e-01	0	38	104	3804233728	70	15285
2026-01-23 01:35:39.58	186.28	6.43	-49.7	-62.0	3.8	8.47e-01	0	38	104	3804233728	70	15261
2026-01-23 01:35:43.56	186.39	6.14	-49.6	-61.9	3.8	8.47e-01	0	38	104	3804233728	70	15194
2026-01-23 01:35:47.53	186.50	5.85	-49.6	-62.0	3.8	8.47e-01	0	38	104	3804233728	70	15263
2026-01-23 01:35:51.51	186.60	5.56	-49.7	-62.0	3.8	8.46e-01	0	38	104	3804233728	70	15231
2026-01-23 01:35:55.48	186.70	5.27	-49.6	-61.9	3.8	8.47e-01	0	38	104	3804233728	70	15196
2026-01-23 01:35:59.46	186.80	4.99	-49.6	-61.9	3.8	8.47e-01	0	38	104	3804233728	70	15222

#Closed at: 2026-01-23 01:36:01
#Recorded file [3804 MB]: D:/Data/31040_260123_042307.dat