passes_logs/2026/01/23/T1/T1__20260123_072012_NOAA_20_JPSS-1_rec.log

#Pass ID: 20260123_072012_NOAA 20 (JPSS-1)
#Satellite: NOAA 20 (JPSS-1)
#Configuration: NOAA 20
#almurnet v.1.7.20251203
#Start time: 2026-01-23 07:20:11

#Version: 2.0.20230620
#Station: T1
#Location: 37.570604 lon 55.790049 lat
#TLE: 1 43013U 17073A   26022.44900781  .00000193  00000+0  11233-3 0  9999
#TLE: 2 43013  98.7645 323.3100 0001197  28.8413 331.2829 14.19538802423792

#Time	Az	El	Level	Level2	SNR	BER	BlckErr	Temp	State	Recorded	gain1	gain2
2026-01-23 07:20:11.84	75.17	5.00	-48.1	-63.5	3.8	1.49e+00	0	35	0	0	68	20359
2026-01-23 07:20:13.82	74.93	5.08	-48.1	-63.4	3.8	1.49e+00	0	35	104	0	68	20282
2026-01-23 07:20:15.81	74.69	5.17	-48.1	-63.5	3.8	1.49e+00	0	35	104	0	68	20342
2026-01-23 07:20:17.79	74.44	5.25	-48.1	-63.4	3.8	1.49e+00	0	35	104	0	68	20300
2026-01-23 07:20:19.78	74.20	5.34	-48.1	-63.4	3.8	1.49e+00	0	35	104	0	68	20246
2026-01-23 07:20:21.77	73.95	5.42	-48.1	-63.4	3.8	1.49e+00	0	35	104	0	68	20232
2026-01-23 07:20:23.76	73.70	5.51	-48.1	-63.4	3.8	1.49e+00	0	35	104	0	68	20171
2026-01-23 07:20:25.74	73.46	5.59	-48.1	-63.4	3.8	1.49e+00	0	35	104	0	68	20174
2026-01-23 07:20:27.73	73.20	5.68	-48.1	-63.4	3.8	1.49e+00	0	35	104	0	68	20257
2026-01-23 07:20:29.72	72.95	5.76	-48.1	-63.4	3.8	1.49e+00	0	35	104	0	68	20209
2026-01-23 07:20:31.70	72.70	5.84	-48.0	-63.4	3.8	1.49e+00	0	36	104	0	68	20231
2026-01-23 07:20:33.69	72.44	5.93	-48.1	-63.4	3.8	1.49e+00	0	36	104	0	68	20196
2026-01-23 07:20:35.68	72.19	6.01	-48.1	-63.4	3.8	1.49e+00	0	36	104	0	68	20231
2026-01-23 07:20:37.66	71.93	6.09	-48.0	-63.4	3.8	1.49e+00	0	36	104	0	68	20284
2026-01-23 07:20:39.65	71.67	6.18	-48.1	-63.4	3.8	1.49e+00	0	36	104	0	68	20240
2026-01-23 07:20:41.64	71.41	6.26	-48.0	-63.4	3.8	1.49e+00	0	36	104	0	68	20226
2026-01-23 07:20:43.62	71.15	6.34	-48.0	-63.4	3.8	1.49e+00	0	36	104	0	68	20078
2026-01-23 07:20:45.61	70.88	6.42	-48.0	-63.4	3.8	1.49e+00	0	36	104	0	68	20200
2026-01-23 07:20:47.60	70.62	6.51	-48.1	-63.4	3.8	1.49e+00	0	36	104	0	68	20163
2026-01-23 07:20:49.58	70.35	6.59	-48.0	-63.4	3.8	1.49e+00	0	36	104	0	68	20117
2026-01-23 07:20:51.57	70.08	6.67	-48.0	-63.4	3.8	1.49e+00	0	36	104	0	68	20202
2026-01-23 07:20:53.56	69.81	6.75	-48.0	-63.4	3.8	1.49e+00	0	36	104	0	68	20243
2026-01-23 07:20:55.54	69.54	6.83	-48.0	-63.4	3.8	1.49e+00	0	36	104	0	68	20183
2026-01-23 07:20:57.53	69.27	6.91	-48.0	-63.4	3.8	1.49e+00	0	36	104	0	68	20221
2026-01-23 07:20:59.52	68.99	6.99	-48.1	-63.3	3.8	1.49e+00	0	36	104	0	68	20059
2026-01-23 07:21:01.51	68.72	7.07	-48.0	-63.4	3.8	1.49e+00	0	36	104	0	68	20089
2026-01-23 07:21:03.49	68.44	7.15	-48.0	-63.3	3.8	1.49e+00	0	37	104	0	68	19988
2026-01-23 07:21:05.48	68.16	7.22	-48.0	-63.3	3.8	1.49e+00	0	37	104	0	68	20052
2026-01-23 07:21:07.47	67.88	7.30	-48.0	-63.3	3.8	1.49e+00	0	36	104	0	68	19961
2026-01-23 07:21:09.46	67.60	7.38	-48.0	-63.3	3.8	1.49e+00	0	36	104	0	68	19847
2026-01-23 07:21:11.44	67.31	7.46	-48.0	-63.2	3.8	1.49e+00	0	37	104	0	68	19730
2026-01-23 07:21:13.43	67.03	7.53	-48.0	-63.2	3.8	1.49e+00	0	36	104	0	68	19737
2026-01-23 07:21:15.41	66.74	7.61	-48.0	-63.3	3.8	1.49e+00	0	37	104	0	68	19856
2026-01-23 07:21:17.40	66.45	7.69	-48.0	-63.3	3.8	1.49e+00	0	37	104	0	68	20003
2026-01-23 07:21:19.39	66.16	7.76	-48.0	-63.2	3.8	1.49e+00	0	37	104	0	68	19764
2026-01-23 07:21:21.37	65.87	7.84	-48.0	-63.1	3.8	1.49e+00	0	37	104	0	68	19421
2026-01-23 07:21:23.36	65.58	7.91	-48.0	-63.0	3.8	1.49e+00	0	37	104	0	68	19231
2026-01-23 07:21:25.35	65.28	7.99	-48.0	-63.2	3.8	1.49e+00	0	37	104	0	68	19724
2026-01-23 07:21:27.33	64.99	8.06	-48.0	-63.3	3.8	1.49e+00	0	37	104	0	68	19975
2026-01-23 07:21:29.32	64.69	8.13	-48.0	-63.1	3.8	1.49e+00	0	37	104	0	68	19595
2026-01-23 07:21:31.31	64.39	8.20	-48.0	-62.5	3.8	1.49e+00	0	37	104	0	68	18167
2026-01-23 07:21:33.29	64.09	8.28	-48.0	-62.2	3.8	1.49e+00	0	37	104	0	68	17673
2026-01-23 07:21:35.28	63.79	8.35	-48.0	-62.8	3.8	1.49e+00	0	37	104	0	68	18807
2026-01-23 07:21:37.27	63.49	8.42	-48.1	-63.1	3.8	1.49e+00	0	37	104	0	68	19589
2026-01-23 07:21:39.25	63.18	8.49	-48.0	-62.6	3.8	1.49e+00	0	37	104	0	68	18349
2026-01-23 07:21:41.24	62.88	8.56	-47.7	-60.8	3.8	1.49e+00	0	37	104	0	67	15866
2026-01-23 07:21:43.22	62.57	8.63	-47.8	-61.6	3.8	1.49e+00	0	37	104	0	67	17441
2026-01-23 07:21:45.21	62.26	8.70	-47.7	-59.8	3.9	1.49e+00	0	37	104	0	67	14078
2026-01-23 07:21:47.20	61.95	8.76	-45.8	-51.2	10.9	9.57e-03	0	37	0	3145728	63	6576
2026-01-23 07:21:49.18	61.64	8.83	-43.7	-47.1	15.1	1.50e-06	0	37	0	6291456	59	5168
2026-01-23 07:21:51.17	61.32	8.90	-43.1	-46.1	16.1	0.00e+00	0	37	0	10485760	58	4893
2026-01-23 07:21:53.15	61.01	8.96	-44.4	-48.2	14.0	0.00e+00	0	37	0	13631488	59	5884
2026-01-23 07:21:55.14	60.69	9.03	-46.4	-52.6	9.4	5.37e-03	0	37	0	17825792	63	7802
2026-01-23 07:21:57.13	60.37	9.09	-46.2	-52.2	10.0	5.45e-04	0	37	0	20971520	63	7378
2026-01-23 07:21:59.12	60.05	9.16	-44.4	-48.2	14.1	5.79e-05	0	37	0	25165824	60	5579
2026-01-23 07:22:01.11	59.73	9.22	-44.8	-48.7	13.5	7.70e-05	0	37	0	28311552	61	5587
2026-01-23 07:22:03.09	59.41	9.28	-43.6	-46.8	15.5	0.00e+00	0	37	0	32505856	59	4989
2026-01-23 07:22:05.16	59.08	9.35	-43.4	-46.5	15.8	0.00e+00	0	37	0	36700160	58	5118
2026-01-23 07:22:07.20	58.74	9.41	-43.0	-45.9	16.3	0.00e+00	0	37	0	39845888	58	4808
2026-01-23 07:22:09.20	58.41	9.47	-42.9	-45.8	16.4	0.00e+00	0	37	0	44040192	57	5015
2026-01-23 07:22:11.43	58.04	9.54	-43.0	-45.9	16.4	0.00e+00	0	37	0	48234496	57	5062
2026-01-23 07:22:13.42	57.72	9.60	-42.8	-45.7	16.5	0.00e+00	0	37	0	51380224	57	4967
2026-01-23 07:22:15.53	57.36	9.66	-42.8	-45.7	16.6	0.00e+00	0	37	0	55574528	57	4960
2026-01-23 07:22:17.52	57.03	9.72	-42.9	-45.7	16.5	0.00e+00	0	37	0	59768832	57	4978
2026-01-23 07:22:19.53	56.69	9.77	-42.9	-45.9	16.4	0.00e+00	0	37	0	62914560	57	5056
2026-01-23 07:22:21.56	56.35	9.83	-42.9	-45.8	16.4	0.00e+00	0	37	0	67108864	57	5030
2026-01-23 07:22:23.60	56.01	9.89	-42.9	-45.8	16.5	0.00e+00	0	37	0	71303168	57	4997
2026-01-23 07:22:25.78	55.64	9.94	-42.8	-45.7	16.6	0.00e+00	0	37	0	74448896	57	4960
2026-01-23 07:22:28.08	55.25	10.01	-42.9	-45.8	16.5	0.00e+00	0	37	0	79691776	57	5037
2026-01-23 07:22:30.36	54.86	10.07	-42.9	-45.8	16.5	0.00e+00	0	37	0	83886080	57	4998
2026-01-23 07:22:32.73	54.45	10.13	-42.8	-45.6	16.7	0.00e+00	0	37	0	88080384	57	4899
2026-01-23 07:22:34.86	54.08	10.18	-42.9	-45.8	16.5	0.00e+00	0	37	0	92274688	57	5004
2026-01-23 07:22:37.01	53.71	10.23	-42.9	-45.8	16.6	0.00e+00	0	37	0	96468992	57	5001
2026-01-23 07:22:39.19	53.33	10.29	-42.9	-45.8	16.5	0.00e+00	0	37	0	99614720	57	5038
2026-01-23 07:22:41.24	52.97	10.33	-43.0	-46.0	16.3	0.00e+00	0	37	0	103809024	57	5114
2026-01-23 07:22:43.43	52.59	10.38	-43.1	-46.0	16.3	0.00e+00	0	37	0	108003328	57	5146
2026-01-23 07:22:45.63	52.20	10.43	-43.2	-46.2	16.2	0.00e+00	0	37	0	112197632	57	5235
2026-01-23 07:22:47.62	51.85	10.48	-43.3	-46.4	15.9	0.00e+00	0	37	0	116391936	57	5371
2026-01-23 07:22:49.61	51.50	10.52	-43.2	-46.3	16.1	0.00e+00	0	37	0	119537664	57	5283
2026-01-23 07:22:51.60	51.15	10.56	-43.2	-46.2	16.1	0.00e+00	0	37	0	123731968	57	5275
2026-01-23 07:22:53.60	50.79	10.61	-43.3	-46.3	16.0	0.00e+00	0	37	0	126877696	57	5332
2026-01-23 07:22:55.58	50.44	10.65	-43.2	-46.1	16.2	0.00e+00	0	37	0	131072000	57	5201
2026-01-23 07:22:57.57	50.08	10.68	-43.1	-46.1	16.3	0.00e+00	0	37	0	134217728	57	5161
2026-01-23 07:22:59.63	49.71	10.72	-43.1	-46.0	16.3	0.00e+00	0	37	0	138412032	57	5138
2026-01-23 07:23:01.62	49.36	10.76	-43.1	-46.0	16.3	0.00e+00	0	37	0	142606336	57	5144
2026-01-23 07:23:03.61	49.00	10.80	-43.0	-46.0	16.4	0.00e+00	0	37	0	145752064	57	5105
2026-01-23 07:23:05.60	48.64	10.83	-43.0	-45.9	16.5	0.00e+00	0	37	0	149946368	57	5053
2026-01-23 07:23:07.60	48.28	10.87	-42.9	-45.8	16.5	0.00e+00	0	37	0	153092096	57	5032
2026-01-23 07:23:09.59	47.92	10.90	-42.9	-45.8	16.5	0.00e+00	0	37	0	157286400	57	5034
2026-01-23 07:23:11.74	47.53	10.93	-42.8	-45.6	16.7	0.00e+00	0	37	0	161480704	57	4911
2026-01-23 07:23:13.93	47.13	10.97	-42.8	-45.7	16.6	0.00e+00	0	37	0	165675008	57	4961
2026-01-23 07:23:15.95	46.76	11.00	-42.7	-45.5	16.9	0.00e+00	0	37	0	168820736	57	4850
2026-01-23 07:23:17.94	46.39	11.03	-42.7	-45.5	16.9	0.00e+00	0	37	0	173015040	57	4830
2026-01-23 07:23:19.93	46.03	11.05	-42.7	-45.5	16.8	0.00e+00	0	37	0	176160768	57	4844
2026-01-23 07:23:21.92	45.66	11.08	-42.6	-45.3	17.0	0.00e+00	0	37	0	180355072	57	4751
2026-01-23 07:23:23.91	45.30	11.11	-42.3	-45.0	17.4	0.00e+00	0	37	0	183500800	56	4848
2026-01-23 07:23:26.09	44.89	11.13	-42.5	-45.2	17.1	0.00e+00	0	37	0	187695104	56	4981
2026-01-23 07:23:28.25	44.50	11.16	-42.4	-45.1	17.2	0.00e+00	0	37	0	191889408	56	4902
2026-01-23 07:23:30.24	44.13	11.18	-42.4	-45.0	17.4	0.00e+00	0	37	0	196083712	56	4853
2026-01-23 07:23:32.23	43.76	11.20	-42.3	-44.9	17.5	0.00e+00	0	37	0	199229440	56	4797
2026-01-23 07:23:34.23	43.39	11.22	-42.4	-45.1	17.3	0.00e+00	0	37	0	203423744	56	4921
2026-01-23 07:23:36.22	43.02	11.24	-42.4	-45.2	17.2	0.00e+00	0	37	0	206569472	56	4935
2026-01-23 07:23:38.23	42.65	11.25	-42.3	-45.0	17.4	0.00e+00	0	37	0	210763776	56	4846
2026-01-23 07:23:40.22	42.27	11.27	-42.3	-45.0	17.4	0.00e+00	0	37	0	214958080	56	4848
2026-01-23 07:23:42.22	41.90	11.29	-42.3	-44.9	17.4	0.00e+00	0	37	0	218103808	56	4813
2026-01-23 07:23:44.23	41.53	11.30	-42.3	-44.9	17.4	0.00e+00	0	37	0	222298112	56	4814
2026-01-23 07:23:46.22	41.16	11.31	-42.2	-44.9	17.5	0.00e+00	0	37	0	225443840	56	4771
2026-01-23 07:23:48.21	40.78	11.32	-42.1	-44.8	17.6	0.00e+00	0	37	0	229638144	56	4712
2026-01-23 07:23:50.20	40.41	11.33	-42.2	-44.8	17.6	0.00e+00	0	37	0	232783872	56	4749
2026-01-23 07:23:52.19	40.04	11.34	-42.1	-44.7	17.7	0.00e+00	0	37	0	236978176	56	4680
2026-01-23 07:23:54.24	39.66	11.35	-42.1	-44.7	17.7	0.00e+00	0	37	0	241172480	56	4675
2026-01-23 07:23:56.27	39.28	11.36	-42.1	-44.7	17.7	0.00e+00	0	37	0	244318208	56	4703
2026-01-23 07:23:58.25	38.91	11.36	-42.2	-44.8	17.6	0.00e+00	0	37	0	248512512	56	4741
2026-01-23 07:24:00.24	38.53	11.37	-42.3	-45.0	17.4	0.00e+00	0	37	0	251658240	56	4867
2026-01-23 07:24:02.31	38.14	11.37	-42.1	-44.8	17.6	0.00e+00	0	37	0	255852544	56	4717
2026-01-23 07:24:04.30	37.77	11.37	-42.1	-44.7	17.7	0.00e+00	0	37	0	260046848	56	4698
2026-01-23 07:24:06.29	37.40	11.37	-42.1	-44.7	17.7	0.00e+00	0	37	0	263192576	56	4666
2026-01-23 07:24:08.28	37.03	11.37	-42.1	-44.7	17.7	0.00e+00	0	37	0	267386880	56	4688
2026-01-23 07:24:10.27	36.65	11.37	-42.0	-44.7	17.8	0.00e+00	0	37	0	270532608	56	4658
2026-01-23 07:24:12.26	36.28	11.37	-42.2	-44.9	17.5	0.00e+00	0	37	0	274726912	56	4798
2026-01-23 07:24:14.25	35.91	11.36	-42.6	-45.3	17.1	0.00e+00	0	37	0	277872640	56	5031
2026-01-23 07:24:16.30	35.52	11.36	-42.7	-45.5	16.9	0.00e+00	0	37	0	282066944	56	5150
2026-01-23 07:24:18.29	35.15	11.35	-42.8	-45.6	16.8	0.00e+00	0	37	0	286261248	56	5205
2026-01-23 07:24:20.28	34.78	11.34	-42.8	-45.7	16.8	0.00e+00	0	37	0	289406976	56	5230
2026-01-23 07:24:22.27	34.41	11.34	-42.6	-45.5	17.0	0.00e+00	0	37	0	293601280	56	5111
2026-01-23 07:24:24.26	34.03	11.33	-42.8	-45.7	16.8	0.00e+00	0	37	0	296747008	56	5234
2026-01-23 07:24:26.25	33.66	11.32	-42.8	-45.7	16.8	0.00e+00	0	37	0	300941312	56	5232
2026-01-23 07:24:28.30	33.28	11.30	-43.0	-45.9	16.5	0.00e+00	0	37	0	305135616	56	5377
2026-01-23 07:24:30.29	32.91	11.29	-42.9	-45.9	16.5	0.00e+00	0	37	0	308281344	56	5380
2026-01-23 07:24:32.40	32.52	11.27	-42.9	-45.9	16.5	0.00e+00	0	38	0	312475648	56	5401
2026-01-23 07:24:34.46	32.13	11.26	-42.8	-45.8	16.6	0.00e+00	0	37	0	316669952	56	5331
2026-01-23 07:24:36.45	31.76	11.24	-42.8	-45.7	16.8	0.00e+00	0	37	0	319815680	56	5234
2026-01-23 07:24:38.45	31.39	11.22	-42.7	-45.6	16.9	0.00e+00	0	37	0	324009984	56	5172
2026-01-23 07:24:40.44	31.02	11.20	-42.8	-45.6	16.8	0.00e+00	0	37	0	327155712	56	5210
2026-01-23 07:24:42.47	30.65	11.18	-42.9	-45.8	16.7	0.00e+00	0	37	0	331350016	56	5294
2026-01-23 07:24:44.46	30.28	11.16	-43.1	-46.0	16.4	0.00e+00	0	37	0	334495744	56	5463
2026-01-23 07:24:46.45	29.91	11.14	-43.1	-46.1	16.3	0.00e+00	0	37	0	338690048	56	5495
2026-01-23 07:24:48.44	29.55	11.11	-43.0	-46.1	16.4	0.00e+00	0	37	0	342884352	56	5466
2026-01-23 07:24:50.43	29.18	11.09	-42.7	-45.7	16.8	0.00e+00	0	37	0	346030080	56	5240
2026-01-23 07:24:52.44	28.81	11.06	-42.7	-45.6	16.9	0.00e+00	0	38	0	350224384	56	5190
2026-01-23 07:24:54.52	28.43	11.03	-42.7	-45.6	16.9	0.00e+00	0	37	0	353370112	56	5166
2026-01-23 07:24:56.51	28.07	11.01	-42.8	-45.7	16.7	0.00e+00	0	37	0	357564416	56	5240
2026-01-23 07:24:58.73	27.66	10.97	-42.9	-45.8	16.6	0.00e+00	0	38	0	361758720	56	5339
2026-01-23 07:25:00.72	27.30	10.94	-42.9	-45.8	16.6	0.00e+00	0	37	0	365953024	56	5321
2026-01-23 07:25:02.74	26.93	10.91	-42.8	-45.8	16.7	0.00e+00	0	37	0	369098752	56	5296
2026-01-23 07:25:04.74	26.57	10.88	-42.8	-45.8	16.6	0.00e+00	0	37	0	373293056	56	5312
2026-01-23 07:25:06.73	26.21	10.85	-42.8	-46.0	16.5	0.00e+00	0	37	0	376438784	56	5407
2026-01-23 07:25:08.74	25.85	10.81	-42.8	-46.0	16.4	0.00e+00	0	38	0	380633088	56	5449
2026-01-23 07:25:10.73	25.49	10.77	-42.8	-46.0	16.5	0.00e+00	0	38	0	383778816	56	5423
2026-01-23 07:25:12.69	25.14	10.74	-42.8	-45.9	16.5	0.00e+00	0	37	0	387973120	56	5396
2026-01-23 07:25:14.76	24.77	10.70	-42.7	-45.7	16.7	0.00e+00	0	37	0	392167424	56	5279
2026-01-23 07:25:16.75	24.41	10.66	-42.7	-45.7	16.8	0.00e+00	0	37	0	395313152	56	5228
2026-01-23 07:25:18.74	24.06	10.62	-42.8	-45.7	16.7	0.00e+00	0	37	0	399507456	56	5249
2026-01-23 07:25:20.73	23.70	10.58	-42.8	-45.7	16.7	0.00e+00	0	37	0	402653184	56	5264
2026-01-23 07:25:22.72	23.35	10.54	-42.9	-45.8	16.6	0.00e+00	0	37	0	406847488	56	5297
2026-01-23 07:25:24.71	23.00	10.49	-42.8	-45.6	16.8	0.00e+00	0	37	0	409993216	56	5204
2026-01-23 07:25:26.77	22.64	10.45	-42.6	-45.5	16.9	0.00e+00	0	38	0	414187520	56	5129
2026-01-23 07:25:28.85	22.27	10.40	-42.5	-45.6	16.8	0.00e+00	0	37	0	418381824	56	5216
2026-01-23 07:25:30.87	21.92	10.36	-42.3	-45.6	16.8	0.00e+00	0	37	0	421527552	56	5205
2026-01-23 07:25:33.08	21.54	10.30	-42.3	-45.7	16.7	0.00e+00	0	38	0	425721856	56	5248
2026-01-23 07:25:35.08	21.19	10.26	-42.3	-45.7	16.7	0.00e+00	0	37	0	429916160	56	5235
2026-01-23 07:25:37.08	20.84	10.21	-42.3	-45.6	16.8	0.00e+00	0	37	0	434110464	56	5216
2026-01-23 07:25:39.06	20.50	10.16	-42.3	-45.7	16.8	0.00e+00	0	37	0	437256192	56	5228
2026-01-23 07:25:41.05	20.16	10.11	-42.2	-45.5	17.0	0.00e+00	0	37	0	441450496	56	5101
2026-01-23 07:25:43.04	19.82	10.06	-42.2	-45.3	17.1	0.00e+00	0	37	0	444596224	56	5000
2026-01-23 07:25:45.03	19.48	10.01	-42.4	-45.4	17.0	0.00e+00	0	38	0	448790528	56	5064
2026-01-23 07:25:47.03	19.14	9.95	-42.2	-45.1	17.3	0.00e+00	0	38	0	451936256	56	4875
2026-01-23 07:25:49.02	18.80	9.90	-42.2	-45.1	17.3	0.00e+00	0	37	0	456130560	56	4919
2026-01-23 07:25:51.01	18.47	9.84	-42.2	-45.1	17.3	0.00e+00	0	38	0	459276288	56	4872
2026-01-23 07:25:53.00	18.13	9.79	-42.3	-45.0	17.4	0.00e+00	0	37	0	463470592	56	4834
2026-01-23 07:25:54.99	17.80	9.73	-42.3	-45.1	17.3	0.00e+00	0	37	0	467664896	56	4900
2026-01-23 07:25:56.98	17.47	9.68	-42.2	-45.1	17.3	0.00e+00	0	37	0	470810624	56	4880
2026-01-23 07:25:58.89	17.15	9.62	-42.2	-45.2	17.2	0.00e+00	0	38	0	475004928	56	4954
2026-01-23 07:26:00.88	16.82	9.56	-42.1	-45.2	17.2	0.00e+00	0	38	0	478150656	56	4960
2026-01-23 07:26:02.87	16.49	9.50	-42.1	-45.2	17.2	0.00e+00	0	38	0	482344960	56	4947
2026-01-23 07:26:04.86	16.17	9.44	-42.0	-45.2	17.2	0.00e+00	0	38	0	485490688	56	4947
2026-01-23 07:26:06.86	15.84	9.38	-42.1	-45.2	17.2	0.00e+00	0	37	0	489684992	56	4950
2026-01-23 07:26:08.85	15.52	9.32	-42.1	-45.2	17.2	0.00e+00	0	37	0	492830720	56	4946
2026-01-23 07:26:10.84	15.20	9.26	-42.1	-45.1	17.3	0.00e+00	0	37	0	497025024	56	4905
2026-01-23 07:26:12.83	14.87	9.19	-42.2	-45.3	17.1	0.00e+00	0	37	0	500170752	56	4987
2026-01-23 07:26:14.82	14.55	9.13	-42.4	-45.3	17.0	0.00e+00	0	37	0	504365056	56	5036
2026-01-23 07:26:16.81	14.24	9.07	-42.5	-45.4	17.0	0.00e+00	0	37	0	508559360	56	5046
2026-01-23 07:26:18.80	13.92	9.00	-45.7	-51.3	11.4	0.00e+00	0	38	0	511705088	61	7475
2026-01-23 07:26:20.79	13.61	8.94	-48.5	-63.8	3.8	1.49e+00	0	37	104	512753664	67	22286
2026-01-23 07:26:22.78	13.29	8.87	-48.3	-63.9	3.8	1.49e+00	0	38	104	512753664	67	22639
2026-01-23 07:26:24.77	12.98	8.80	-48.6	-64.0	3.8	1.49e+00	0	37	104	512753664	67	22898
2026-01-23 07:26:26.75	12.67	8.74	-48.6	-64.3	3.8	1.49e+00	0	38	104	512753664	68	22315
2026-01-23 07:26:28.74	12.36	8.67	-49.0	-64.3	3.8	1.49e+00	0	38	104	512753664	68	22384
2026-01-23 07:26:30.73	12.05	8.60	-49.0	-64.3	3.8	1.49e+00	0	38	104	512753664	68	22397
2026-01-23 07:26:32.71	11.75	8.53	-49.0	-64.3	3.8	1.49e+00	0	38	104	512753664	68	22491
2026-01-23 07:26:34.70	11.44	8.46	-48.9	-64.3	3.8	1.49e+00	0	37	104	512753664	68	22474
2026-01-23 07:26:36.69	11.14	8.39	-49.0	-64.3	3.8	1.49e+00	0	38	104	512753664	68	22359
2026-01-23 07:26:38.68	10.84	8.32	-49.1	-64.3	3.8	1.49e+00	0	38	104	512753664	68	22391
2026-01-23 07:26:40.66	10.54	8.25	-49.0	-64.2	3.8	1.49e+00	0	38	104	512753664	68	22187
2026-01-23 07:26:42.65	10.24	8.18	-48.8	-64.3	3.8	1.49e+00	0	38	104	512753664	68	22310
2026-01-23 07:26:44.64	9.94	8.10	-48.9	-64.2	3.8	1.49e+00	0	38	104	512753664	68	22168
2026-01-23 07:26:46.62	9.65	8.03	-48.9	-64.2	3.8	1.49e+00	0	37	104	512753664	68	22233
2026-01-23 07:26:48.61	9.36	7.96	-48.9	-64.2	3.8	1.49e+00	0	38	104	512753664	68	22175
2026-01-23 07:26:50.60	9.06	7.88	-48.8	-64.2	3.8	1.49e+00	0	38	104	512753664	68	22136
2026-01-23 07:26:52.59	8.77	7.81	-48.8	-64.2	3.8	1.49e+00	0	38	104	512753664	68	22205
2026-01-23 07:26:54.57	8.48	7.73	-48.8	-64.2	3.8	1.49e+00	0	38	104	512753664	68	22157
2026-01-23 07:26:56.56	8.20	7.66	-48.8	-64.2	3.8	1.49e+00	0	38	104	512753664	68	22162
2026-01-23 07:26:58.55	7.91	7.58	-48.8	-64.2	3.8	1.49e+00	0	38	104	512753664	68	22149
2026-01-23 07:27:00.53	7.63	7.50	-48.8	-64.2	3.8	1.49e+00	0	38	104	512753664	68	22163
2026-01-23 07:27:02.52	7.34	7.43	-48.8	-64.2	3.8	1.49e+00	0	37	104	512753664	68	22161
2026-01-23 07:27:04.51	7.06	7.35	-48.8	-64.2	3.8	1.49e+00	0	38	104	512753664	68	22171
2026-01-23 07:27:06.50	6.78	7.27	-48.8	-64.2	3.8	1.49e+00	0	38	104	512753664	68	22129
2026-01-23 07:27:08.48	6.50	7.20	-48.8	-64.2	3.8	1.49e+00	0	38	104	512753664	68	22130
2026-01-23 07:27:10.47	6.22	7.12	-48.8	-64.2	3.8	1.49e+00	0	38	104	512753664	68	22162
2026-01-23 07:27:12.46	5.95	7.04	-48.8	-64.2	3.8	1.49e+00	0	38	104	512753664	68	22189
2026-01-23 07:27:14.44	5.68	6.96	-48.8	-64.2	3.8	1.49e+00	0	38	104	512753664	68	22128
2026-01-23 07:27:16.43	5.40	6.88	-48.8	-64.2	3.8	1.49e+00	0	38	104	512753664	68	22098
2026-01-23 07:27:18.42	5.13	6.80	-48.8	-64.2	3.8	1.49e+00	0	38	104	512753664	68	22095
2026-01-23 07:27:20.40	4.86	6.72	-48.8	-64.2	3.8	1.49e+00	0	38	104	512753664	68	22113
2026-01-23 07:27:22.39	4.60	6.64	-48.8	-64.2	3.8	1.49e+00	0	38	104	512753664	68	22034
2026-01-23 07:27:24.38	4.33	6.56	-48.8	-64.2	3.8	1.49e+00	0	37	104	512753664	68	22137
2026-01-23 07:27:26.36	4.07	6.48	-48.8	-64.2	3.8	1.49e+00	0	38	104	512753664	68	22125
2026-01-23 07:27:28.35	3.80	6.39	-48.8	-64.2	3.8	1.49e+00	0	38	104	512753664	68	22120
2026-01-23 07:27:30.34	3.54	6.31	-48.8	-64.2	3.8	1.49e+00	0	37	104	512753664	68	22130
2026-01-23 07:27:32.32	3.28	6.23	-48.8	-64.2	3.8	1.49e+00	0	38	104	512753664	68	22113
2026-01-23 07:27:34.31	3.02	6.15	-48.8	-64.2	3.8	1.49e+00	0	37	104	512753664	68	22200
2026-01-23 07:27:36.29	2.76	6.07	-48.8	-64.2	3.8	1.49e+00	0	38	104	512753664	68	22060
2026-01-23 07:27:38.28	2.51	5.98	-48.8	-64.2	3.8	1.49e+00	0	38	104	512753664	68	22112
2026-01-23 07:27:40.27	2.25	5.90	-48.8	-64.2	3.8	1.49e+00	0	38	104	512753664	68	22088
2026-01-23 07:27:42.25	2.00	5.82	-48.8	-64.2	3.8	1.49e+00	0	38	104	512753664	68	22152
2026-01-23 07:27:44.24	1.75	5.73	-48.8	-64.2	3.8	1.49e+00	0	38	104	512753664	68	22074
2026-01-23 07:27:46.23	1.50	5.65	-48.8	-64.2	3.8	1.49e+00	0	38	104	512753664	68	22137
2026-01-23 07:27:48.21	1.25	5.56	-48.8	-64.2	3.8	1.49e+00	0	38	104	512753664	68	22088
2026-01-23 07:27:50.20	1.01	5.48	-48.8	-64.2	3.8	1.49e+00	0	38	104	512753664	68	22069
2026-01-23 07:27:52.19	0.76	5.39	-48.8	-64.2	3.8	1.49e+00	0	38	104	512753664	68	22101
2026-01-23 07:27:54.17	0.52	5.31	-48.8	-64.2	3.8	1.49e+00	0	38	104	512753664	68	22194
2026-01-23 07:27:56.16	0.27	5.22	-48.8	-64.2	3.8	1.49e+00	0	38	104	512753664	68	22118
2026-01-23 07:27:58.14	0.03	5.14	-48.8	-64.2	3.8	1.49e+00	0	38	104	512753664	68	22033
2026-01-23 07:28:00.13	359.79	5.05	-48.8	-64.2	3.8	1.49e+00	0	38	104	512753664	68	22206
2026-01-23 07:28:02.12	359.56	4.97	-48.8	-64.2	3.8	1.49e+00	0	38	104	512753664	68	22140

#Closed at: 2026-01-23 07:28:03
#Recorded file [512 MB]: D:/Data/31040_260123_102011.dat