passes_logs/2026/01/23/T1/T1__20260123_162034_FENGYUN_3E_rec.log

#Pass ID: 20260123_162034_FENGYUN 3E
#Satellite: FENGYUN 3E
#Configuration: FENGYUN 3E
#almurnet v.1.7.20251203
#Start time: 2026-01-23 16:20:36

#Version: 2.0.20230620
#Station: T1
#Location: 37.570604 lon 55.790049 lat
#TLE: 1 49008U 21062A   26022.96857035  .00000014  00000+0  27449-4 0  9991
#TLE: 2 49008  98.7488  28.0032 0002359 122.8887 237.2516 14.19886951235971

#Time	Az	El	Level	Level2	SNR	BER	BlckErr	Temp	State	Recorded	gain1	gain2
2026-01-23 16:20:36.46	234.14	5.10	-49.8	-60.5	3.8	8.47e-01	0	35	0	0	70	11961
2026-01-23 16:20:39.45	234.50	5.24	-49.8	-60.4	3.8	8.46e-01	0	35	104	0	70	11946
2026-01-23 16:20:42.43	234.85	5.38	-49.8	-60.4	3.8	8.48e-01	0	36	104	0	70	11934
2026-01-23 16:20:45.42	235.21	5.51	-49.8	-60.4	3.8	8.47e-01	0	36	104	0	70	11860
2026-01-23 16:20:48.41	235.57	5.65	-49.8	-60.5	3.8	8.46e-01	0	36	104	0	70	11956
2026-01-23 16:20:51.40	235.94	5.79	-49.8	-60.4	3.8	8.48e-01	0	36	104	0	70	11835
2026-01-23 16:20:54.39	236.31	5.92	-49.7	-60.4	3.8	8.46e-01	0	36	104	0	70	11846
2026-01-23 16:20:57.38	236.68	6.06	-49.8	-60.4	3.8	8.47e-01	0	36	104	0	70	11927
2026-01-23 16:21:00.37	237.06	6.20	-49.8	-60.4	3.8	8.47e-01	0	36	104	0	70	11889
2026-01-23 16:21:03.36	237.43	6.33	-49.7	-60.5	3.8	8.48e-01	0	36	104	0	70	11970
2026-01-23 16:21:06.35	237.82	6.47	-49.7	-60.4	3.8	8.46e-01	0	36	104	0	70	11819
2026-01-23 16:21:09.34	238.20	6.60	-49.7	-60.2	3.8	8.47e-01	0	36	104	0	70	11663
2026-01-23 16:21:12.33	238.59	6.74	-49.7	-60.2	3.8	8.48e-01	0	36	104	0	70	11569
2026-01-23 16:21:15.31	238.98	6.87	-49.7	-60.1	3.8	8.46e-01	0	36	104	0	70	11534
2026-01-23 16:21:18.31	239.38	7.00	-49.7	-60.2	3.8	8.47e-01	0	37	104	0	70	11622
2026-01-23 16:21:21.30	239.78	7.14	-49.7	-60.3	3.8	8.46e-01	0	37	104	0	70	11731
2026-01-23 16:21:24.29	240.19	7.27	-49.7	-60.2	3.8	8.46e-01	0	37	104	0	70	11658
2026-01-23 16:21:27.28	240.59	7.40	-49.7	-60.3	3.8	8.48e-01	0	37	104	0	70	11772
2026-01-23 16:21:30.27	241.00	7.53	-49.6	-60.0	3.8	8.46e-01	0	37	104	0	70	11304
2026-01-23 16:21:33.26	241.42	7.66	-49.6	-60.1	3.8	8.47e-01	0	37	104	0	70	11432
2026-01-23 16:21:36.25	241.83	7.79	-49.7	-60.3	3.8	8.47e-01	0	37	104	0	70	11704
2026-01-23 16:21:39.24	242.26	7.92	-49.6	-60.2	3.8	8.47e-01	0	37	104	0	70	11556
2026-01-23 16:21:42.23	242.68	8.05	-49.7	-60.3	3.8	8.47e-01	0	37	104	0	70	11732
2026-01-23 16:21:45.22	243.11	8.18	-49.6	-60.2	3.8	8.46e-01	0	37	104	0	70	11584
2026-01-23 16:21:48.21	243.54	8.31	-49.5	-59.7	3.8	8.45e-01	0	37	104	0	69	11567
2026-01-23 16:21:51.19	243.98	8.43	-49.1	-57.0	4.1	8.39e-01	0	37	0	0	69	8487
2026-01-23 16:21:54.18	244.42	8.56	-48.8	-55.5	4.6	8.32e-01	0	37	104	0	68	7629
2026-01-23 16:21:57.17	244.86	8.69	-42.3	-43.8	15.2	0.00e+00	0	37	0	18874368	55	4157
2026-01-23 16:22:00.16	245.31	8.81	-40.2	-41.4	17.6	0.00e+00	0	37	0	39845888	51	3960
2026-01-23 16:22:03.15	245.76	8.93	-42.4	-43.9	15.0	0.00e+00	0	38	0	61865984	54	4476
2026-01-23 16:22:06.14	246.21	9.06	-49.6	-59.7	3.8	8.47e-01	0	37	104	80740352	68	12305
2026-01-23 16:22:09.14	246.67	9.18	-40.6	-41.8	17.3	0.00e+00	0	37	0	95420416	51	4162
2026-01-23 16:22:12.14	247.13	9.30	-39.3	-40.3	18.6	0.00e+00	0	37	0	117440512	49	3957
2026-01-23 16:22:15.15	247.60	9.42	-38.4	-39.4	19.3	0.00e+00	0	37	0	139460608	47	4002
2026-01-23 16:22:18.14	248.07	9.54	-38.3	-39.3	19.4	0.00e+00	0	37	0	160432128	47	3934
2026-01-23 16:22:21.14	248.55	9.66	-38.1	-39.1	19.6	0.00e+00	0	37	0	182452224	47	3855
2026-01-23 16:22:24.14	249.02	9.77	-38.2	-39.2	19.5	0.00e+00	0	38	0	204472320	46	4109
2026-01-23 16:22:27.15	249.51	9.89	-38.0	-39.0	19.7	0.00e+00	0	38	0	225443840	46	4036
2026-01-23 16:22:30.15	249.99	10.00	-38.0	-39.0	19.7	0.00e+00	0	37	0	247463936	46	4035
2026-01-23 16:22:33.16	250.48	10.11	-38.1	-39.1	19.6	0.00e+00	0	37	0	269484032	46	4071
2026-01-23 16:22:36.16	250.98	10.23	-38.0	-39.0	19.7	0.00e+00	0	37	0	290455552	46	4014
2026-01-23 16:22:39.17	251.47	10.34	-37.9	-38.9	19.9	0.00e+00	0	37	0	312475648	46	3964
2026-01-23 16:22:42.17	251.97	10.44	-37.8	-38.7	20.0	0.00e+00	0	37	0	334495744	46	3898
2026-01-23 16:22:45.18	252.48	10.55	-37.7	-38.7	20.0	0.00e+00	0	37	0	356515840	46	3884
2026-01-23 16:22:48.18	252.99	10.66	-37.7	-38.6	20.1	0.00e+00	0	37	0	377487360	46	3861
2026-01-23 16:22:51.19	253.50	10.76	-37.6	-38.5	20.1	0.00e+00	0	37	0	399507456	45	4050
2026-01-23 16:22:54.19	254.01	10.86	-37.6	-38.6	20.1	0.00e+00	0	37	0	420478976	45	4060
2026-01-23 16:22:57.20	254.53	10.96	-37.8	-38.8	19.9	0.00e+00	0	37	0	442499072	45	4192
2026-01-23 16:23:00.20	255.05	11.06	-37.6	-38.6	20.1	0.00e+00	0	37	0	464519168	45	4069
2026-01-23 16:23:03.20	255.58	11.16	-37.4	-38.4	20.3	0.00e+00	0	38	0	485490688	45	3970
2026-01-23 16:23:06.20	256.11	11.26	-37.5	-38.5	20.2	0.00e+00	0	38	0	507510784	45	4032
2026-01-23 16:23:09.20	256.64	11.35	-37.6	-38.6	20.1	0.00e+00	0	38	0	529530880	45	4087
2026-01-23 16:23:12.22	257.18	11.44	-37.4	-38.4	20.3	0.00e+00	0	37	0	551550976	45	3963
2026-01-23 16:23:15.22	257.71	11.53	-37.3	-38.2	20.4	0.00e+00	0	38	0	572522496	45	3883
2026-01-23 16:23:18.21	258.25	11.62	-37.3	-38.2	20.5	0.00e+00	0	37	0	594542592	45	3882
2026-01-23 16:23:21.21	258.80	11.71	-37.4	-38.4	20.3	0.00e+00	0	38	0	615514112	45	3959
2026-01-23 16:23:24.22	259.34	11.79	-37.4	-38.4	20.2	0.00e+00	0	38	0	637534208	45	3995
2026-01-23 16:23:27.22	259.89	11.87	-37.4	-38.3	20.3	0.00e+00	0	38	0	659554304	45	3955
2026-01-23 16:23:30.23	260.45	11.95	-37.2	-38.2	20.4	0.00e+00	0	38	0	681574400	45	3878
2026-01-23 16:23:33.23	261.00	12.03	-37.3	-38.3	20.3	0.00e+00	0	38	0	702545920	45	3939
2026-01-23 16:23:36.23	261.56	12.10	-37.5	-38.4	20.2	0.00e+00	0	38	0	724566016	45	4004
2026-01-23 16:23:39.23	262.12	12.18	-37.3	-38.3	20.4	0.00e+00	0	38	0	746586112	45	3931
2026-01-23 16:23:42.24	262.69	12.25	-37.3	-38.3	20.4	0.00e+00	0	38	0	767557632	45	3917
2026-01-23 16:23:45.24	263.26	12.32	-37.3	-38.3	20.3	0.00e+00	0	38	0	789577728	45	3916
2026-01-23 16:23:48.25	263.83	12.38	-37.2	-38.2	20.4	0.00e+00	0	38	0	811597824	45	3903
2026-01-23 16:23:51.26	264.40	12.45	-37.0	-38.0	20.6	0.00e+00	0	38	0	832569344	44	4017
2026-01-23 16:23:54.26	264.97	12.51	-36.9	-37.8	20.7	0.00e+00	0	38	0	854589440	44	3954
2026-01-23 16:23:57.26	265.55	12.57	-37.2	-38.2	20.5	0.00e+00	0	38	0	876609536	44	4114
2026-01-23 16:24:00.27	266.13	12.62	-36.9	-37.8	20.7	0.00e+00	0	38	0	898629632	44	3958
2026-01-23 16:24:03.26	266.71	12.68	-36.9	-37.9	20.6	0.00e+00	0	38	0	919601152	44	3970
2026-01-23 16:24:06.26	267.29	12.73	-36.7	-37.7	20.8	0.00e+00	0	38	0	940572672	44	3878
2026-01-23 16:24:09.26	267.87	12.78	-36.7	-37.6	20.9	0.00e+00	0	38	0	962592768	44	3846
2026-01-23 16:24:12.26	268.46	12.82	-36.4	-37.3	20.9	0.00e+00	0	38	0	984612864	43	3956
2026-01-23 16:24:15.27	269.05	12.87	-36.5	-37.4	20.9	0.00e+00	0	38	0	1006632960	43	3992
2026-01-23 16:24:18.27	269.64	12.91	-36.6	-37.5	20.8	0.00e+00	0	38	0	1027604480	43	4027
2026-01-23 16:24:21.28	270.23	12.95	-36.8	-37.7	20.6	0.00e+00	0	38	0	1049624576	43	4145
2026-01-23 16:24:24.28	270.82	12.98	-36.5	-37.5	20.8	0.00e+00	0	38	0	1071644672	43	4015
2026-01-23 16:24:27.29	271.42	13.01	-36.5	-37.5	20.8	0.00e+00	0	38	0	1092616192	43	4014
2026-01-23 16:24:30.29	272.01	13.04	-36.8	-37.7	20.6	0.00e+00	0	38	0	1114636288	43	4124
2026-01-23 16:24:33.30	272.61	13.07	-36.7	-37.7	20.7	0.00e+00	0	38	0	1136656384	43	4112
2026-01-23 16:24:36.30	273.21	13.09	-36.7	-37.6	20.7	0.00e+00	0	38	0	1157627904	43	4090
2026-01-23 16:24:39.29	273.80	13.12	-36.6	-37.5	20.8	0.00e+00	0	38	0	1179648000	43	4030
2026-01-23 16:24:42.29	274.40	13.13	-36.6	-37.6	20.7	0.00e+00	0	38	0	1201668096	43	4065
2026-01-23 16:24:45.30	275.00	13.15	-36.9	-37.8	20.5	0.00e+00	0	38	0	1222639616	43	4173
2026-01-23 16:24:48.30	275.60	13.16	-36.7	-37.7	20.7	0.00e+00	0	38	0	1244659712	43	4100
2026-01-23 16:24:51.30	276.20	13.17	-36.5	-37.4	20.9	0.00e+00	0	38	0	1266679808	43	3997
2026-01-23 16:24:54.30	276.80	13.18	-36.5	-37.4	20.9	0.00e+00	0	38	0	1287651328	43	3978
2026-01-23 16:24:57.31	277.40	13.18	-36.7	-37.6	20.7	0.00e+00	0	38	0	1309671424	43	4084
2026-01-23 16:25:00.31	278.00	13.19	-36.7	-37.7	20.6	0.00e+00	0	38	0	1331691520	43	4119
2026-01-23 16:25:03.33	278.60	13.18	-36.6	-37.5	20.7	0.00e+00	0	38	0	1353711616	43	4039
2026-01-23 16:25:06.33	279.21	13.18	-36.6	-37.5	20.7	0.00e+00	0	38	0	1374683136	43	4047
2026-01-23 16:25:09.32	279.80	13.17	-36.6	-37.6	20.7	0.00e+00	0	38	0	1396703232	43	4056
2026-01-23 16:25:12.32	280.40	13.16	-36.7	-37.6	20.6	0.00e+00	0	38	0	1418723328	43	4083
2026-01-23 16:25:15.32	281.00	13.15	-36.6	-37.6	20.7	0.00e+00	0	38	0	1439694848	43	4065
2026-01-23 16:25:18.33	281.60	13.13	-36.5	-37.4	20.8	0.00e+00	0	38	0	1461714944	43	3982
2026-01-23 16:25:21.33	282.20	13.11	-36.6	-37.5	20.7	0.00e+00	0	38	0	1482686464	43	4034
2026-01-23 16:25:24.33	282.80	13.09	-36.6	-37.5	20.7	0.00e+00	0	38	0	1504706560	43	4039
2026-01-23 16:25:27.33	283.39	13.07	-36.6	-37.5	20.7	0.00e+00	0	38	0	1526726656	43	4023
2026-01-23 16:25:30.33	283.99	13.04	-36.6	-37.5	20.6	0.00e+00	0	38	0	1547698176	43	4047
2026-01-23 16:25:33.34	284.58	13.01	-36.6	-37.5	20.6	0.00e+00	0	38	0	1569718272	43	4050
2026-01-23 16:25:36.34	285.17	12.98	-36.6	-37.6	20.5	0.00e+00	0	38	0	1591738368	43	4056
2026-01-23 16:25:39.34	285.77	12.94	-36.5	-37.4	20.6	0.00e+00	0	38	0	1612709888	43	4004
2026-01-23 16:25:42.34	286.35	12.91	-36.5	-37.5	20.6	0.00e+00	0	38	0	1634729984	43	4020
2026-01-23 16:25:45.34	286.94	12.87	-36.5	-37.5	20.6	0.00e+00	0	38	0	1656750080	43	4010
2026-01-23 16:25:48.34	287.53	12.82	-36.5	-37.4	20.6	0.00e+00	0	38	0	1677721600	43	3999
2026-01-23 16:25:51.35	288.12	12.78	-36.5	-37.4	20.6	0.00e+00	0	38	0	1699741696	43	3976
2026-01-23 16:25:54.35	288.70	12.73	-36.4	-37.3	20.7	0.00e+00	0	38	0	1721761792	43	3941
2026-01-23 16:25:57.36	289.28	12.68	-36.4	-37.3	20.6	0.00e+00	0	38	0	1742733312	43	3957
2026-01-23 16:26:00.36	289.86	12.62	-36.6	-37.6	20.3	0.00e+00	0	38	0	1764753408	43	4063
2026-01-23 16:26:03.36	290.44	12.57	-36.9	-37.9	20.0	0.00e+00	0	38	0	1786773504	43	4205
2026-01-23 16:26:06.36	291.01	12.51	-36.9	-37.9	20.1	0.00e+00	0	38	0	1807745024	43	4218
2026-01-23 16:26:09.36	291.58	12.45	-36.7	-37.7	20.3	0.00e+00	0	38	0	1829765120	43	4112
2026-01-23 16:26:12.36	292.15	12.38	-36.8	-37.8	20.2	0.00e+00	0	38	0	1851785216	43	4152
2026-01-23 16:26:15.35	292.72	12.32	-36.8	-37.7	20.2	0.00e+00	0	38	0	1872756736	43	4137
2026-01-23 16:26:18.35	293.28	12.25	-36.9	-37.9	20.1	0.00e+00	0	38	0	1894776832	43	4229
2026-01-23 16:26:21.36	293.85	12.18	-37.1	-38.1	19.9	0.00e+00	0	38	0	1916796928	43	4296
2026-01-23 16:26:24.36	294.40	12.11	-37.2	-38.2	19.8	0.00e+00	0	38	0	1937768448	43	4342
2026-01-23 16:26:27.36	294.96	12.03	-37.2	-38.1	19.8	0.00e+00	0	38	0	1959788544	43	4340
2026-01-23 16:26:30.37	295.52	11.95	-37.1	-38.1	19.8	0.00e+00	0	38	0	1981808640	43	4326
2026-01-23 16:26:33.37	296.07	11.87	-37.4	-38.4	19.7	0.00e+00	0	38	0	2002780160	44	4238
2026-01-23 16:26:36.38	296.62	11.79	-37.6	-38.7	19.5	0.00e+00	0	38	0	2024800256	44	4344
2026-01-23 16:26:39.39	297.16	11.71	-37.8	-38.8	19.4	0.00e+00	0	38	0	2046820352	45	4188
2026-01-23 16:26:42.39	297.71	11.62	-37.7	-38.7	19.5	0.00e+00	0	38	0	2067791872	45	4121
2026-01-23 16:26:45.40	298.25	11.54	-37.6	-38.7	19.5	0.00e+00	0	38	0	2089811968	45	4107
2026-01-23 16:26:48.41	298.78	11.45	-37.6	-38.6	19.6	0.00e+00	0	38	0	2111832064	45	4090
2026-01-23 16:26:51.41	299.32	11.35	-37.5	-38.5	19.6	0.00e+00	0	38	0	2132803584	45	4041
2026-01-23 16:26:54.41	299.84	11.26	-37.7	-38.7	19.4	0.00e+00	0	38	0	2154823680	45	4120
2026-01-23 16:26:57.41	300.37	11.17	-38.0	-39.0	19.1	0.00e+00	0	38	0	2176843776	45	4267
2026-01-23 16:27:00.40	300.89	11.07	-38.0	-39.0	19.2	0.00e+00	0	38	0	2197815296	45	4282
2026-01-23 16:27:03.41	301.41	10.97	-38.1	-39.1	19.1	0.00e+00	0	38	0	2219835392	45	4318
2026-01-23 16:27:06.41	301.93	10.87	-38.1	-39.1	19.1	0.00e+00	0	38	0	2241855488	45	4339
2026-01-23 16:27:09.41	302.44	10.77	-38.1	-39.2	19.1	0.00e+00	0	38	0	2262827008	46	4117
2026-01-23 16:27:12.41	302.95	10.67	-38.2	-39.3	19.0	0.00e+00	0	38	0	2284847104	46	4152
2026-01-23 16:27:15.42	303.45	10.56	-38.1	-39.2	19.0	0.00e+00	0	38	0	2306867200	46	4110
2026-01-23 16:27:18.42	303.96	10.46	-38.1	-39.1	19.1	0.00e+00	0	38	0	2328887296	46	4078
2026-01-23 16:27:21.42	304.45	10.35	-38.2	-39.3	19.0	0.00e+00	0	38	0	2349858816	46	4148
2026-01-23 16:27:24.42	304.95	10.24	-38.3	-39.3	19.0	0.00e+00	0	38	0	2371878912	46	4175
2026-01-23 16:27:27.42	305.44	10.13	-38.5	-39.6	18.7	0.00e+00	0	38	0	2393899008	46	4305
2026-01-23 16:27:30.42	305.93	10.02	-38.6	-39.7	18.6	0.00e+00	0	38	0	2414870528	46	4356
2026-01-23 16:27:33.42	306.41	9.91	-38.5	-39.6	18.7	0.00e+00	0	38	0	2436890624	46	4306
2026-01-23 16:27:36.42	306.89	9.79	-38.5	-39.5	18.8	0.00e+00	0	38	0	2458910720	46	4281
2026-01-23 16:27:39.43	307.37	9.68	-38.5	-39.6	18.8	0.00e+00	0	38	0	2479882240	46	4298
2026-01-23 16:27:42.43	307.84	9.56	-38.6	-39.7	18.7	0.00e+00	0	38	0	2501902336	46	4346
2026-01-23 16:27:45.43	308.31	9.44	-38.8	-40.0	18.4	0.00e+00	0	38	0	2522873856	47	4244
2026-01-23 16:27:48.43	308.77	9.32	-38.9	-40.1	18.2	0.00e+00	0	38	0	2544893952	47	4315
2026-01-23 16:27:51.44	309.24	9.20	-38.9	-40.1	18.2	0.00e+00	0	38	0	2566914048	47	4328
2026-01-23 16:27:54.44	309.69	9.08	-38.9	-40.1	18.3	0.00e+00	0	38	0	2587885568	47	4294
2026-01-23 16:27:57.44	310.15	8.96	-48.9	-59.8	3.8	8.47e-01	0	38	104	2605711360	67	13153
2026-01-23 16:28:00.43	310.60	8.84	-49.8	-60.4	3.8	8.46e-01	0	38	104	2605711360	68	13378
2026-01-23 16:28:03.42	311.04	8.72	-49.7	-60.5	3.8	8.47e-01	0	38	104	2605711360	69	12745
2026-01-23 16:28:06.40	311.48	8.59	-49.8	-60.5	3.8	8.47e-01	0	38	104	2605711360	69	12804
2026-01-23 16:28:09.39	311.92	8.47	-49.8	-60.6	3.8	8.48e-01	0	38	104	2605711360	69	12900
2026-01-23 16:28:12.38	312.35	8.34	-49.8	-60.6	3.8	8.46e-01	0	38	104	2605711360	69	12925
2026-01-23 16:28:15.36	312.78	8.22	-49.8	-60.6	3.8	8.47e-01	0	38	104	2605711360	69	12845
2026-01-23 16:28:18.35	313.21	8.09	-49.6	-60.5	3.8	8.47e-01	0	38	104	2605711360	69	12773
2026-01-23 16:28:21.34	313.63	7.96	-49.6	-60.5	3.8	8.47e-01	0	38	104	2605711360	69	12742
2026-01-23 16:28:24.33	314.05	7.83	-49.6	-60.5	3.8	8.48e-01	0	38	104	2605711360	69	12739
2026-01-23 16:28:27.32	314.47	7.70	-49.6	-60.5	3.8	8.46e-01	0	38	104	2605711360	69	12681
2026-01-23 16:28:30.30	314.88	7.57	-49.6	-60.4	3.8	8.46e-01	0	38	104	2605711360	69	12652
2026-01-23 16:28:33.29	315.29	7.44	-49.6	-60.5	3.8	8.48e-01	0	38	104	2605711360	69	12682
2026-01-23 16:28:36.28	315.70	7.31	-49.6	-60.4	3.8	8.47e-01	0	38	104	2605711360	69	12658
2026-01-23 16:28:39.27	316.10	7.18	-49.5	-60.4	3.8	8.47e-01	0	38	104	2605711360	69	12580
2026-01-23 16:28:42.25	316.50	7.05	-49.5	-60.4	3.8	8.47e-01	0	38	104	2605711360	69	12654
2026-01-23 16:28:45.24	316.89	6.92	-49.5	-60.4	3.8	8.47e-01	0	38	104	2605711360	69	12593
2026-01-23 16:28:48.23	317.28	6.79	-49.5	-60.4	3.8	8.47e-01	0	38	104	2605711360	69	12614
2026-01-23 16:28:51.21	317.67	6.65	-49.5	-60.4	3.8	8.47e-01	0	38	104	2605711360	69	12616
2026-01-23 16:28:54.20	318.05	6.52	-49.5	-60.4	3.8	8.48e-01	0	38	104	2605711360	69	12650
2026-01-23 16:28:57.18	318.43	6.39	-49.5	-60.5	3.8	8.47e-01	0	38	104	2605711360	69	12708
2026-01-23 16:29:00.17	318.81	6.25	-49.5	-60.5	3.8	8.47e-01	0	38	104	2605711360	69	12670
2026-01-23 16:29:03.16	319.19	6.12	-49.5	-60.4	3.8	8.47e-01	0	38	104	2605711360	69	12600
2026-01-23 16:29:06.15	319.56	5.98	-49.5	-60.4	3.8	8.47e-01	0	38	104	2605711360	69	12649
2026-01-23 16:29:09.14	319.93	5.85	-49.5	-60.4	3.8	8.46e-01	0	38	104	2605711360	69	12563
2026-01-23 16:29:12.13	320.29	5.71	-49.5	-60.4	3.8	8.46e-01	0	38	104	2605711360	69	12641
2026-01-23 16:29:15.11	320.65	5.58	-49.5	-60.4	3.8	8.47e-01	0	38	104	2605711360	69	12562
2026-01-23 16:29:18.10	321.01	5.44	-49.5	-60.4	3.8	8.47e-01	0	38	104	2605711360	69	12599
2026-01-23 16:29:21.09	321.37	5.31	-49.5	-60.4	3.8	8.47e-01	0	38	104	2605711360	69	12652
2026-01-23 16:29:24.08	321.72	5.17	-49.5	-60.4	3.8	8.47e-01	0	38	104	2605711360	69	12612
2026-01-23 16:29:27.06	322.07	5.04	-49.5	-60.4	3.8	8.46e-01	0	38	104	2605711360	69	12657

#Closed at: 2026-01-23 16:29:29
#Recorded file [2605 MB]: D:/Data/31040_260123_192036.dat