passes_logs/2026/01/23/T1/T1__20260123_080801_NOAA_21_JPSS-2_rec.log

#Pass ID: 20260123_080801_NOAA 21 (JPSS-2)
#Satellite: NOAA 21 (JPSS-2)
#Configuration: NOAA 21
#almurnet v.1.7.20251203
#Start time: 2026-01-23 08:08:02

#Version: 2.0.20230620
#Station: T1
#Location: 37.570604 lon 55.790049 lat
#TLE: 1 54234U 22150A   26022.41365820  .00000211  00000+0  12084-3 0  9990
#TLE: 2 54234  98.7507 323.2240 0000658 234.5287 125.5828 14.19537645165864

#Time	Az	El	Level	Level2	SNR	BER	BlckErr	Temp	State	Recorded	gain1	gain2
2026-01-23 08:08:02.10	103.05	5.04	-48.3	-61.2	3.8	1.49e+00	0	35	0	0	68	15622
2026-01-23 08:08:05.08	102.78	5.21	-48.3	-61.2	3.8	1.49e+00	0	35	104	0	68	15583
2026-01-23 08:08:08.07	102.51	5.39	-48.3	-61.2	3.8	1.49e+00	0	35	104	0	68	15644
2026-01-23 08:08:11.07	102.24	5.56	-48.3	-61.2	3.8	1.49e+00	0	35	104	0	68	15664
2026-01-23 08:08:14.06	101.96	5.74	-48.2	-61.2	3.8	1.49e+00	0	35	104	0	68	15683
2026-01-23 08:08:17.05	101.68	5.91	-48.3	-61.2	3.8	1.49e+00	0	36	104	0	68	15718
2026-01-23 08:08:20.04	101.40	6.09	-48.3	-61.2	3.8	1.49e+00	0	36	104	0	68	15729
2026-01-23 08:08:23.03	101.11	6.27	-48.2	-61.1	3.8	1.49e+00	0	36	104	0	68	15553
2026-01-23 08:08:26.03	100.82	6.45	-48.2	-61.0	3.8	1.49e+00	0	36	104	0	68	15307
2026-01-23 08:08:29.02	100.52	6.63	-48.2	-60.9	3.8	1.49e+00	0	36	104	0	68	15177
2026-01-23 08:08:32.02	100.22	6.81	-48.2	-61.0	3.8	1.49e+00	0	36	104	0	68	15395
2026-01-23 08:08:35.01	99.92	6.99	-48.2	-61.0	3.8	1.49e+00	0	36	104	0	68	15322
2026-01-23 08:08:38.01	99.61	7.17	-48.2	-60.7	3.8	1.49e+00	0	36	104	0	68	14816
2026-01-23 08:08:41.00	99.30	7.35	-48.2	-60.3	3.8	1.49e+00	0	36	104	0	68	14180
2026-01-23 08:08:44.00	98.98	7.53	-48.2	-60.6	3.8	1.49e+00	0	36	104	0	68	14568
2026-01-23 08:08:46.98	98.67	7.71	-48.2	-60.7	3.8	1.49e+00	0	36	104	0	68	14775
2026-01-23 08:08:49.98	98.34	7.89	-48.1	-59.8	3.8	1.49e+00	0	37	104	0	68	13388
2026-01-23 08:08:52.97	98.02	8.07	-48.1	-59.9	3.8	1.49e+00	0	37	104	0	68	13454
2026-01-23 08:08:55.96	97.68	8.26	-47.6	-57.1	4.0	1.47e+00	0	37	104	0	67	10366
2026-01-23 08:08:58.95	97.35	8.44	-44.0	-47.1	12.8	1.34e-04	0	37	0	0	59	5201
2026-01-23 08:09:01.94	97.01	8.62	-40.6	-42.6	17.1	0.00e+00	0	37	0	0	53	4389
2026-01-23 08:09:04.94	96.66	8.81	-40.8	-42.9	16.8	0.00e+00	0	37	0	0	52	4791
2026-01-23 08:09:07.93	96.32	8.99	-44.2	-47.5	12.5	4.88e-05	0	37	0	0	58	5724
2026-01-23 08:09:10.92	95.96	9.18	-44.9	-48.8	11.2	6.80e-06	0	37	0	0	60	5992
2026-01-23 08:09:13.91	95.61	9.36	-47.3	-55.9	4.8	2.70e-01	0	37	0	0	65	10165
2026-01-23 08:09:16.91	95.24	9.55	-40.0	-41.9	18.0	0.00e+00	0	37	0	0	51	4533
2026-01-23 08:09:19.90	94.88	9.73	-39.9	-41.8	18.0	0.00e+00	0	37	0	0	51	4469
2026-01-23 08:09:22.89	94.50	9.92	-39.5	-41.3	18.5	0.00e+00	0	37	0	0	51	4242
2026-01-23 08:09:25.89	94.13	10.11	-39.5	-41.4	18.4	0.00e+00	0	37	0	0	50	4502
2026-01-23 08:09:28.88	93.74	10.29	-39.5	-41.4	18.4	0.00e+00	0	37	0	0	50	4520
2026-01-23 08:09:31.88	93.36	10.48	-39.3	-41.1	18.7	0.00e+00	0	37	0	0	50	4384
2026-01-23 08:09:34.87	92.97	10.67	-39.1	-40.9	18.9	0.00e+00	0	37	0	0	50	4291
2026-01-23 08:09:37.86	92.57	10.85	-39.2	-41.1	18.7	0.00e+00	0	37	0	0	50	4354
2026-01-23 08:09:40.85	92.17	11.04	-39.2	-41.1	18.8	0.00e+00	0	37	0	0	50	4355
2026-01-23 08:09:43.85	91.76	11.23	-39.3	-41.1	18.8	0.00e+00	0	37	0	0	50	4372
2026-01-23 08:09:46.84	91.35	11.41	-39.1	-40.9	18.9	0.00e+00	0	37	0	0	50	4289
2026-01-23 08:09:49.83	90.93	11.60	-39.0	-40.8	19.1	0.00e+00	0	37	0	0	50	4217
2026-01-23 08:09:52.83	90.51	11.79	-38.9	-40.8	19.2	0.00e+00	0	37	0	0	49	4447
2026-01-23 08:09:55.83	90.08	11.97	-39.1	-41.0	19.0	0.00e+00	0	37	0	0	49	4549
2026-01-23 08:09:58.84	89.64	12.16	-39.0	-40.8	19.1	0.00e+00	0	37	0	0	49	4457
2026-01-23 08:10:01.84	89.20	12.35	-39.0	-40.8	19.0	0.00e+00	0	37	0	0	49	4493
2026-01-23 08:10:04.83	88.75	12.53	-39.2	-41.0	18.9	0.00e+00	0	37	0	0	49	4595
2026-01-23 08:10:07.83	88.30	12.72	-39.3	-41.1	18.9	0.00e+00	0	37	0	0	49	4619
2026-01-23 08:10:10.84	87.84	12.91	-39.2	-41.1	18.9	0.00e+00	0	37	0	0	49	4613
2026-01-23 08:10:13.84	87.38	13.09	-39.2	-41.1	18.9	0.00e+00	0	37	0	0	49	4609
2026-01-23 08:10:16.85	86.91	13.28	-39.2	-41.0	19.0	0.00e+00	0	37	0	0	49	4589
2026-01-23 08:10:19.84	86.43	13.46	-38.8	-40.6	19.3	0.00e+00	0	37	0	0	49	4382
2026-01-23 08:10:22.84	85.95	13.64	-38.8	-40.5	19.4	0.00e+00	0	37	0	0	49	4338
2026-01-23 08:10:25.84	85.46	13.83	-38.9	-40.7	19.2	0.00e+00	0	37	0	0	49	4431
2026-01-23 08:10:28.84	84.97	14.01	-38.8	-40.6	19.3	0.00e+00	0	37	0	0	49	4367
2026-01-23 08:10:31.84	84.47	14.19	-38.9	-40.7	19.3	0.00e+00	0	37	0	0	49	4427
2026-01-23 08:10:34.84	83.96	14.37	-39.1	-40.9	19.0	0.00e+00	0	37	0	0	49	4538
2026-01-23 08:10:37.84	83.45	14.55	-39.1	-41.0	19.0	0.00e+00	0	37	0	0	49	4559
2026-01-23 08:10:40.84	82.93	14.73	-39.0	-40.8	19.2	0.00e+00	0	37	0	0	49	4491
2026-01-23 08:10:43.85	82.40	14.91	-39.1	-41.0	19.1	0.00e+00	0	37	0	0	49	4555
2026-01-23 08:10:46.84	81.87	15.08	-39.2	-41.1	19.0	0.00e+00	0	37	0	0	49	4618
2026-01-23 08:10:49.84	81.33	15.26	-39.1	-40.9	19.2	0.00e+00	0	37	0	0	49	4532
2026-01-23 08:10:52.85	80.79	15.43	-39.0	-40.7	19.2	0.00e+00	0	37	0	0	49	4440
2026-01-23 08:10:55.84	80.24	15.61	-39.2	-41.0	19.1	0.00e+00	0	37	0	0	49	4554
2026-01-23 08:10:58.85	79.68	15.78	-39.1	-40.9	19.1	0.00e+00	0	37	0	0	49	4543
2026-01-23 08:11:01.85	79.12	15.95	-39.1	-40.9	19.1	0.00e+00	0	37	0	0	49	4524
2026-01-23 08:11:04.84	78.55	16.11	-39.2	-41.0	19.0	0.00e+00	0	37	0	0	49	4598
2026-01-23 08:11:07.85	77.97	16.28	-39.2	-41.0	19.0	0.00e+00	0	38	0	0	49	4576
2026-01-23 08:11:10.85	77.39	16.44	-39.0	-40.8	19.3	0.00e+00	0	37	0	0	49	4462
2026-01-23 08:11:13.85	76.80	16.61	-38.7	-40.5	19.5	0.00e+00	0	37	0	0	49	4314
2026-01-23 08:11:16.85	76.20	16.77	-38.8	-40.5	19.4	0.00e+00	0	37	0	0	49	4337
2026-01-23 08:11:19.86	75.60	16.93	-38.7	-40.4	19.5	0.00e+00	0	38	0	0	49	4260
2026-01-23 08:11:22.86	74.99	17.08	-38.8	-40.5	19.4	0.00e+00	0	37	0	0	49	4322
2026-01-23 08:11:25.86	74.38	17.23	-38.9	-40.6	19.3	0.00e+00	0	37	0	0	49	4379
2026-01-23 08:11:28.87	73.75	17.39	-38.9	-40.7	19.3	0.00e+00	0	38	0	0	49	4398
2026-01-23 08:11:31.86	73.13	17.53	-38.9	-40.7	19.3	0.00e+00	0	38	0	0	49	4417
2026-01-23 08:11:34.86	72.49	17.68	-38.4	-40.2	19.9	0.00e+00	0	37	0	0	48	4395
2026-01-23 08:11:37.86	71.85	17.82	-38.3	-40.0	20.0	0.00e+00	0	38	0	0	48	4310
2026-01-23 08:11:40.87	71.21	17.96	-38.3	-40.0	20.0	0.00e+00	0	38	0	0	48	4299
2026-01-23 08:11:43.87	70.56	18.10	-38.0	-39.7	20.3	0.00e+00	0	38	0	0	48	4160
2026-01-23 08:11:46.87	69.90	18.23	-38.0	-39.7	20.0	0.00e+00	0	37	0	0	47	4400
2026-01-23 08:11:49.88	69.23	18.36	-38.2	-39.9	19.8	0.00e+00	0	37	0	0	47	4545
2026-01-23 08:11:52.88	68.57	18.49	-38.3	-40.1	19.7	0.00e+00	0	38	0	0	47	4612
2026-01-23 08:11:55.88	67.89	18.62	-38.3	-40.0	19.8	0.00e+00	0	37	0	0	47	4586
2026-01-23 08:11:58.88	67.21	18.74	-38.1	-39.8	19.9	0.00e+00	0	37	0	0	47	4480
2026-01-23 08:12:01.88	66.53	18.85	-38.1	-39.8	20.0	0.00e+00	0	37	0	0	47	4443
2026-01-23 08:12:04.87	65.84	18.96	-38.1	-39.8	20.0	0.00e+00	0	38	0	0	47	4457
2026-01-23 08:12:07.86	65.15	19.07	-37.9	-39.6	20.2	0.00e+00	0	37	0	0	47	4366
2026-01-23 08:12:10.85	64.45	19.18	-37.9	-39.6	20.2	0.00e+00	0	38	0	0	47	4349
2026-01-23 08:12:13.85	63.74	19.28	-37.9	-39.6	20.1	0.00e+00	0	38	0	0	47	4382
2026-01-23 08:12:16.84	63.04	19.38	-38.1	-39.8	20.0	0.00e+00	0	37	0	0	47	4456
2026-01-23 08:12:19.83	62.33	19.47	-38.1	-39.8	19.9	0.00e+00	0	38	0	0	47	4476
2026-01-23 08:12:22.82	61.61	19.56	-38.2	-39.9	19.8	0.00e+00	0	38	0	0	47	4542
2026-01-23 08:12:25.81	60.89	19.64	-38.2	-40.0	19.8	0.00e+00	0	38	0	0	47	4558
2026-01-23 08:12:28.81	60.16	19.72	-38.2	-39.9	19.8	0.00e+00	0	38	0	0	47	4525
2026-01-23 08:12:31.80	59.44	19.79	-38.3	-40.0	19.8	0.00e+00	0	38	0	0	47	4566
2026-01-23 08:12:34.79	58.71	19.86	-38.4	-40.1	19.7	0.00e+00	0	37	0	0	47	4645
2026-01-23 08:12:37.78	57.97	19.93	-38.6	-40.4	19.4	0.00e+00	0	38	0	0	47	4779
2026-01-23 08:12:40.77	57.24	19.99	-38.5	-40.2	19.8	0.00e+00	0	38	0	0	48	4418
2026-01-23 08:12:43.76	56.50	20.05	-38.4	-40.1	19.9	0.00e+00	0	38	0	0	48	4356
2026-01-23 08:12:46.76	55.75	20.10	-38.4	-40.1	19.9	0.00e+00	0	37	0	0	48	4370
2026-01-23 08:12:49.75	55.01	20.14	-38.5	-40.2	19.8	0.00e+00	0	37	0	0	48	4430
2026-01-23 08:12:52.75	54.26	20.18	-38.3	-40.0	19.9	0.00e+00	0	38	0	0	48	4324
2026-01-23 08:12:55.73	53.51	20.22	-38.4	-40.1	19.8	0.00e+00	0	37	0	0	48	4381
2026-01-23 08:12:58.72	52.76	20.25	-38.4	-40.1	19.9	0.00e+00	0	37	0	0	48	4356
2026-01-23 08:13:01.71	52.01	20.27	-38.4	-40.1	19.8	0.00e+00	0	38	0	0	48	4367
2026-01-23 08:13:04.70	51.26	20.29	-38.2	-39.9	20.0	0.00e+00	0	38	0	0	48	4255
2026-01-23 08:13:07.70	50.51	20.31	-38.3	-40.0	20.0	0.00e+00	0	38	0	0	48	4317
2026-01-23 08:13:10.69	49.75	20.32	-38.4	-40.1	19.9	0.00e+00	0	38	0	0	48	4360
2026-01-23 08:13:13.69	49.00	20.32	-38.5	-40.2	19.8	0.00e+00	0	38	0	0	48	4436
2026-01-23 08:13:16.69	48.24	20.32	-38.7	-40.5	19.5	0.00e+00	0	37	0	0	48	4553
2026-01-23 08:13:19.68	47.49	20.32	-38.5	-40.2	19.8	0.00e+00	0	38	0	0	48	4415
2026-01-23 08:13:22.68	46.73	20.31	-38.3	-40.0	20.1	0.00e+00	0	38	0	0	48	4300
2026-01-23 08:13:25.67	45.98	20.29	-38.3	-40.0	20.0	0.00e+00	0	38	0	0	48	4298
2026-01-23 08:13:28.67	45.22	20.27	-38.1	-39.8	20.2	0.00e+00	0	38	0	0	48	4212
2026-01-23 08:13:31.67	44.47	20.24	-38.1	-39.8	20.2	0.00e+00	0	38	0	0	48	4202
2026-01-23 08:13:34.66	43.72	20.21	-38.4	-40.1	19.9	0.00e+00	0	38	0	0	48	4356
2026-01-23 08:13:37.66	42.97	20.17	-38.4	-40.1	20.0	0.00e+00	0	37	0	0	48	4360
2026-01-23 08:13:40.65	42.23	20.13	-38.3	-40.0	20.0	0.00e+00	0	38	0	0	48	4332
2026-01-23 08:13:43.65	41.48	20.09	-38.1	-39.8	20.2	0.00e+00	0	38	0	0	48	4195
2026-01-23 08:13:46.64	40.74	20.03	-38.2	-39.9	20.0	0.00e+00	0	38	0	0	48	4290
2026-01-23 08:13:49.64	40.00	19.98	-38.4	-40.1	20.0	0.00e+00	0	38	0	0	48	4356
2026-01-23 08:13:52.63	39.27	19.92	-38.5	-40.3	19.8	0.00e+00	0	38	0	0	48	4446
2026-01-23 08:13:55.62	38.53	19.85	-38.4	-40.1	20.0	0.00e+00	0	38	0	0	48	4352
2026-01-23 08:13:58.61	37.81	19.78	-38.2	-39.9	20.1	0.00e+00	0	38	0	0	48	4255
2026-01-23 08:14:01.61	37.08	19.70	-38.2	-39.9	20.1	0.00e+00	0	38	0	0	48	4266
2026-01-23 08:14:04.61	36.35	19.62	-38.4	-40.1	19.9	0.00e+00	0	37	0	0	48	4382
2026-01-23 08:14:07.59	35.64	19.54	-38.6	-40.3	19.8	0.00e+00	0	38	0	0	48	4476
2026-01-23 08:14:10.58	34.93	19.45	-38.5	-40.2	19.8	0.00e+00	0	38	0	0	48	4432
2026-01-23 08:14:13.58	34.22	19.36	-38.6	-40.3	19.7	0.00e+00	0	38	0	0	48	4489
2026-01-23 08:14:16.57	33.51	19.26	-38.4	-40.2	19.8	0.00e+00	0	38	0	0	48	4423
2026-01-23 08:14:19.56	32.81	19.16	-38.5	-40.2	19.8	0.00e+00	0	38	0	0	48	4420
2026-01-23 08:14:22.55	32.12	19.05	-38.4	-40.2	19.9	0.00e+00	0	37	0	0	48	4392
2026-01-23 08:14:25.54	31.43	18.94	-38.3	-40.0	20.0	0.00e+00	0	37	0	0	48	4327
2026-01-23 08:14:28.54	30.74	18.83	-38.4	-40.1	19.9	0.00e+00	0	37	0	0	48	4385
2026-01-23 08:14:31.54	30.06	18.71	-38.2	-39.9	20.1	0.00e+00	0	38	0	0	48	4250
2026-01-23 08:14:34.54	29.38	18.59	-38.4	-40.2	19.8	0.00e+00	0	38	0	0	48	4401
2026-01-23 08:14:37.54	28.71	18.47	-38.6	-40.3	19.7	0.00e+00	0	38	0	0	48	4477
2026-01-23 08:14:40.53	28.05	18.34	-38.6	-40.3	19.8	0.00e+00	0	38	0	0	48	4464
2026-01-23 08:14:43.53	27.39	18.21	-38.4	-40.1	20.0	0.00e+00	0	38	0	0	48	4380
2026-01-23 08:14:46.53	26.74	18.07	-38.5	-40.4	19.7	0.00e+00	0	38	0	0	48	4502
2026-01-23 08:14:49.53	26.09	17.94	-38.7	-40.5	19.5	0.00e+00	0	38	0	0	48	4590
2026-01-23 08:14:52.53	25.45	17.80	-38.7	-40.5	19.5	0.00e+00	0	38	0	0	48	4588
2026-01-23 08:14:55.53	24.81	17.65	-38.3	-40.1	19.9	0.00e+00	0	38	0	0	48	4343
2026-01-23 08:14:58.52	24.18	17.51	-38.4	-40.1	20.0	0.00e+00	0	38	0	0	48	4346
2026-01-23 08:15:01.51	23.56	17.36	-38.7	-40.5	19.6	0.00e+00	0	38	0	0	48	4578
2026-01-23 08:15:04.50	22.95	17.21	-38.7	-40.5	19.6	0.00e+00	0	38	0	0	48	4575
2026-01-23 08:15:07.49	22.34	17.06	-38.7	-40.5	19.5	0.00e+00	0	38	0	0	48	4557
2026-01-23 08:15:10.49	21.73	16.90	-38.5	-40.3	19.7	0.00e+00	0	38	0	0	48	4474
2026-01-23 08:15:13.47	21.14	16.75	-38.4	-40.2	19.8	0.00e+00	0	38	0	0	48	4406
2026-01-23 08:15:16.47	20.55	16.59	-38.6	-40.4	19.7	0.00e+00	0	38	0	0	48	4510
2026-01-23 08:15:19.46	19.96	16.42	-38.8	-40.6	19.5	0.00e+00	0	38	0	0	48	4631
2026-01-23 08:15:22.46	19.38	16.26	-38.8	-40.7	19.3	0.00e+00	0	38	0	0	48	4662
2026-01-23 08:15:25.45	18.81	16.09	-38.7	-40.5	19.5	0.00e+00	0	38	0	0	48	4568
2026-01-23 08:15:28.44	18.25	15.93	-38.6	-40.4	19.6	0.00e+00	0	37	0	0	48	4520
2026-01-23 08:15:31.44	17.69	15.76	-38.9	-40.6	19.4	0.00e+00	0	38	0	0	48	4649
2026-01-23 08:15:34.43	17.14	15.59	-39.0	-40.8	19.4	0.00e+00	0	38	0	0	48	4708
2026-01-23 08:15:37.42	16.59	15.42	-39.1	-40.8	19.2	0.00e+00	0	38	0	0	48	4759
2026-01-23 08:15:40.42	16.05	15.24	-39.1	-41.0	19.1	0.00e+00	0	38	0	0	48	4818
2026-01-23 08:15:43.42	15.52	15.07	-39.0	-40.9	19.1	0.00e+00	0	38	0	0	48	4798
2026-01-23 08:15:46.41	14.99	14.89	-38.8	-40.8	19.2	0.00e+00	0	38	0	0	48	4721
2026-01-23 08:15:49.40	14.47	14.72	-38.5	-40.4	19.5	0.00e+00	0	38	0	0	48	4531
2026-01-23 08:15:52.38	13.96	14.54	-38.7	-40.7	19.4	0.00e+00	0	38	0	0	48	4657
2026-01-23 08:15:55.37	13.45	14.36	-38.9	-40.8	19.2	0.00e+00	0	37	0	0	48	4756
2026-01-23 08:15:58.36	12.95	14.18	-39.0	-40.9	19.1	0.00e+00	0	38	0	0	48	4799
2026-01-23 08:16:01.36	12.46	14.00	-38.9	-40.8	19.2	0.00e+00	0	38	0	0	48	4744
2026-01-23 08:16:04.36	11.97	13.82	-38.7	-40.5	19.5	0.00e+00	0	38	0	0	48	4583
2026-01-23 08:16:07.35	11.48	13.64	-38.8	-40.7	19.2	0.00e+00	0	37	0	0	48	4693
2026-01-23 08:16:10.34	11.01	13.45	-39.1	-41.1	18.8	0.00e+00	0	38	0	0	48	4898
2026-01-23 08:16:13.34	10.53	13.27	-39.0	-41.0	19.0	0.00e+00	0	38	0	0	49	4557
2026-01-23 08:16:16.33	10.07	13.09	-38.8	-40.8	19.0	0.00e+00	0	38	0	0	49	4477
2026-01-23 08:16:19.32	9.61	12.90	-38.8	-40.8	19.1	0.00e+00	0	38	0	0	49	4457
2026-01-23 08:16:22.32	9.16	12.72	-38.9	-40.9	18.9	0.00e+00	0	38	0	0	49	4541
2026-01-23 08:16:25.31	8.71	12.53	-39.0	-41.1	18.8	0.00e+00	0	38	0	0	49	4611
2026-01-23 08:16:28.30	8.27	12.35	-39.1	-41.2	18.8	0.00e+00	0	37	0	0	49	4688
2026-01-23 08:16:31.29	7.83	12.16	-39.2	-41.3	18.6	0.00e+00	0	37	0	0	49	4751
2026-01-23 08:16:34.28	7.40	11.98	-39.4	-41.5	18.4	0.00e+00	0	38	0	0	49	4835
2026-01-23 08:16:37.27	6.98	11.79	-39.5	-41.5	18.1	0.00e+00	0	38	0	0	49	4870
2026-01-23 08:16:40.27	6.56	11.60	-39.4	-41.4	18.4	0.00e+00	0	38	0	0	49	4791
2026-01-23 08:16:43.27	6.14	11.42	-39.3	-41.3	18.5	0.00e+00	0	38	0	0	49	4751
2026-01-23 08:16:46.26	5.73	11.23	-39.5	-41.7	18.4	0.00e+00	0	38	0	0	49	4935
2026-01-23 08:16:49.26	5.33	11.05	-39.8	-42.1	18.0	0.00e+00	0	38	0	0	50	4888
2026-01-23 08:16:52.24	4.93	10.86	-40.0	-42.3	17.6	0.00e+00	0	37	0	0	50	4988
2026-01-23 08:16:55.23	4.54	10.67	-40.0	-42.3	17.4	0.00e+00	0	38	0	0	50	4987
2026-01-23 08:16:58.23	4.15	10.49	-39.9	-42.1	17.5	0.00e+00	0	37	0	0	50	4914
2026-01-23 08:17:01.23	3.77	10.30	-40.0	-42.1	17.8	0.00e+00	0	37	0	0	50	4917
2026-01-23 08:17:04.22	3.39	10.12	-40.4	-42.5	17.5	0.00e+00	0	38	0	0	51	4838
2026-01-23 08:17:07.21	3.02	9.93	-40.6	-43.0	16.9	0.00e+00	0	38	0	0	51	5106
2026-01-23 08:17:10.21	2.65	9.75	-40.4	-42.7	17.1	0.00e+00	0	38	0	0	51	4945
2026-01-23 08:17:13.20	2.28	9.56	-40.3	-42.4	17.4	0.00e+00	0	38	0	0	51	4796
2026-01-23 08:17:16.20	1.92	9.38	-40.0	-42.3	17.6	0.00e+00	0	38	0	0	51	4711
2026-01-23 08:17:19.19	1.57	9.19	-39.9	-42.4	17.6	0.00e+00	0	38	0	0	51	4771
2026-01-23 08:17:22.18	1.22	9.01	-40.1	-42.7	17.3	0.00e+00	0	38	0	0	51	4933
2026-01-23 08:17:25.17	0.87	8.82	-48.0	-61.4	3.8	1.49e+00	0	38	104	0	66	18038
2026-01-23 08:17:28.17	0.53	8.64	-48.4	-61.7	3.8	1.49e+00	0	38	104	0	67	17609
2026-01-23 08:17:31.16	0.20	8.46	-48.7	-62.0	3.8	1.49e+00	0	38	104	0	68	17134
2026-01-23 08:17:34.16	359.86	8.27	-48.8	-62.0	3.8	1.49e+00	0	38	104	0	68	17256
2026-01-23 08:17:37.15	359.54	8.09	-49.0	-62.0	3.8	1.49e+00	0	38	104	0	68	17216
2026-01-23 08:17:40.13	359.21	7.91	-49.0	-62.0	3.8	1.49e+00	0	38	104	0	68	17243
2026-01-23 08:17:43.13	358.89	7.73	-49.0	-62.0	3.8	1.49e+00	0	38	104	0	68	17247
2026-01-23 08:17:46.12	358.58	7.55	-49.0	-62.1	3.8	1.49e+00	0	38	104	0	68	17282
2026-01-23 08:17:49.11	358.27	7.37	-49.0	-62.0	3.8	1.49e+00	0	38	104	0	68	17211
2026-01-23 08:17:52.10	357.96	7.19	-48.8	-62.0	3.8	1.49e+00	0	38	104	0	68	17177
2026-01-23 08:17:55.08	357.66	7.01	-48.8	-61.9	3.8	1.49e+00	0	38	104	0	68	17081
2026-01-23 08:17:58.06	357.36	6.83	-48.8	-61.9	3.8	1.49e+00	0	38	104	0	68	17071
2026-01-23 08:18:01.05	357.07	6.65	-48.8	-61.9	3.8	1.49e+00	0	38	104	0	68	16980
2026-01-23 08:18:04.04	356.77	6.47	-48.8	-61.9	3.8	1.49e+00	0	37	104	0	68	17041
2026-01-23 08:18:07.04	356.49	6.30	-48.8	-61.9	3.8	1.49e+00	0	38	104	0	68	17042
2026-01-23 08:18:10.02	356.20	6.12	-48.8	-61.9	3.8	1.49e+00	0	38	104	0	68	17030
2026-01-23 08:18:13.01	355.92	5.94	-48.8	-61.9	3.8	1.49e+00	0	38	104	0	68	16951
2026-01-23 08:18:15.99	355.64	5.77	-48.8	-61.9	3.8	1.49e+00	0	38	104	0	68	17015
2026-01-23 08:18:18.99	355.37	5.59	-48.8	-61.9	3.8	1.49e+00	0	38	104	0	68	17061
2026-01-23 08:18:21.98	355.10	5.42	-48.8	-61.9	3.8	1.49e+00	0	38	104	0	68	16976
2026-01-23 08:18:24.96	354.83	5.24	-48.7	-61.9	3.8	1.49e+00	0	38	104	0	68	16976
2026-01-23 08:18:27.96	354.57	5.07	-48.7	-61.9	3.8	1.49e+00	0	38	104	0	68	17016

#Closed at: 2026-01-23 08:18:31
#Recorded file [0 MB]: D:/Data/31040_260123_110802.dat