passes_logs/2026/01/23/T1/T1__20260123_103648_NOAA_20_JPSS-1_rec.log

#Pass ID: 20260123_103648_NOAA 20 (JPSS-1)
#Satellite: NOAA 20 (JPSS-1)
#Configuration: NOAA 20
#almurnet v.1.7.20251203
#Start time: 2026-01-23 10:36:50

#Version: 2.0.20230620
#Station: T1
#Location: 37.570604 lon 55.790049 lat
#TLE: 1 43013U 17073A   26022.44900781  .00000193  00000+0  11233-3 0  9999
#TLE: 2 43013  98.7645 323.3100 0001197  28.8413 331.2829 14.19538802423792

#Time	Az	El	Level	Level2	SNR	BER	BlckErr	Temp	State	Recorded	gain1	gain2
2026-01-23 10:36:50.65	181.99	5.16	-48.6	-64.3	3.8	1.49e+00	0	39	0	0	68	22386
2026-01-23 10:36:54.64	182.15	5.44	-48.6	-64.3	3.8	1.49e+00	0	40	104	0	69	21245
2026-01-23 10:36:58.62	182.31	5.72	-48.6	-64.3	3.8	1.49e+00	0	40	104	0	68	22509
2026-01-23 10:37:02.61	182.48	6.00	-48.6	-64.4	3.8	1.49e+00	0	40	104	0	68	22768
2026-01-23 10:37:06.59	182.65	6.29	-48.6	-64.4	3.8	1.49e+00	0	40	104	0	68	22556
2026-01-23 10:37:10.57	182.82	6.58	-48.6	-64.3	3.8	1.49e+00	0	40	104	0	68	22384
2026-01-23 10:37:14.55	182.99	6.88	-48.6	-62.8	3.8	1.49e+00	0	40	104	0	68	18836
2026-01-23 10:37:18.53	183.17	7.17	-48.6	-63.5	3.8	1.49e+00	0	40	104	0	68	20431
2026-01-23 10:37:22.52	183.35	7.48	-48.4	-60.2	4.4	1.49e+00	0	40	0	0	68	13943
2026-01-23 10:37:26.50	183.54	7.78	-46.2	-51.2	11.8	3.30e-03	0	40	0	7340032	64	6263
2026-01-23 10:37:30.48	183.73	8.09	-44.3	-47.8	15.4	0.00e+00	0	41	0	14680064	60	5292
2026-01-23 10:37:34.46	183.92	8.40	-44.4	-48.0	15.2	0.00e+00	0	41	0	22020096	60	5409
2026-01-23 10:37:38.44	184.12	8.71	-46.2	-51.2	11.9	1.87e-04	0	41	0	29360128	62	7022
2026-01-23 10:37:42.42	184.32	9.03	-47.8	-56.6	6.4	1.74e-01	0	41	0	36700160	66	10369
2026-01-23 10:37:46.42	184.52	9.36	-48.2	-59.4	4.6	1.41e+00	0	41	0	42991616	67	13503
2026-01-23 10:37:50.43	184.73	9.68	-45.4	-49.7	13.5	1.52e-05	0	41	0	50331648	62	5901
2026-01-23 10:37:54.43	184.95	10.02	-43.9	-47.1	16.1	0.00e+00	0	41	0	58720256	59	5193
2026-01-23 10:37:58.43	185.17	10.35	-43.7	-46.7	16.5	0.00e+00	0	41	0	66060288	59	4963
2026-01-23 10:38:02.44	185.39	10.69	-43.5	-46.4	16.9	0.00e+00	0	41	0	73400320	58	5050
2026-01-23 10:38:06.44	185.62	11.04	-43.4	-46.3	17.0	0.00e+00	0	41	0	80740352	58	5005
2026-01-23 10:38:10.44	185.86	11.39	-43.2	-46.1	17.1	0.00e+00	0	41	0	88080384	58	4902
2026-01-23 10:38:14.44	186.10	11.74	-43.1	-45.9	17.4	0.00e+00	0	41	0	95420416	58	4775
2026-01-23 10:38:18.45	186.35	12.10	-43.1	-45.9	17.5	0.00e+00	0	41	0	103809024	58	4776
2026-01-23 10:38:22.45	186.60	12.46	-43.0	-45.7	17.6	0.00e+00	0	41	0	111149056	57	4955
2026-01-23 10:38:26.46	186.85	12.83	-42.8	-45.5	17.8	0.00e+00	0	41	0	118489088	57	4843
2026-01-23 10:38:30.46	187.12	13.21	-42.8	-45.5	17.9	0.00e+00	0	42	0	125829120	57	4820
2026-01-23 10:38:34.47	187.39	13.59	-42.7	-45.3	18.0	0.00e+00	0	41	0	133169152	57	4734
2026-01-23 10:38:38.47	187.67	13.97	-42.5	-45.1	18.2	0.00e+00	0	41	0	140509184	57	4644
2026-01-23 10:38:42.48	187.95	14.36	-42.5	-45.2	18.1	0.00e+00	0	41	0	148897792	57	4674
2026-01-23 10:38:46.48	188.24	14.76	-42.3	-44.9	18.4	0.00e+00	0	41	0	156237824	56	4796
2026-01-23 10:38:50.48	188.54	15.16	-42.3	-44.9	18.5	0.00e+00	0	41	0	163577856	56	4764
2026-01-23 10:38:54.48	188.85	15.57	-42.2	-44.7	18.6	0.00e+00	0	41	0	170917888	56	4681
2026-01-23 10:38:58.48	189.16	15.98	-42.1	-44.6	18.7	0.00e+00	0	41	0	178257920	56	4616
2026-01-23 10:39:02.48	189.49	16.40	-42.1	-44.5	18.8	0.00e+00	0	42	0	185597952	56	4577
2026-01-23 10:39:06.49	189.82	16.83	-41.9	-44.3	18.9	0.00e+00	0	42	0	192937984	55	4734
2026-01-23 10:39:10.50	190.16	17.27	-41.7	-44.1	19.0	0.00e+00	0	41	0	201326592	55	4617
2026-01-23 10:39:14.51	190.51	17.71	-41.5	-43.8	19.3	0.00e+00	0	42	0	208666624	55	4480
2026-01-23 10:39:18.51	190.87	18.15	-41.4	-43.7	19.4	0.00e+00	0	41	0	216006656	54	4703
2026-01-23 10:39:22.52	191.25	18.61	-41.4	-43.8	19.4	0.00e+00	0	41	0	223346688	54	4712
2026-01-23 10:39:26.52	191.63	19.07	-41.5	-43.8	19.5	0.00e+00	0	42	0	230686720	54	4710
2026-01-23 10:39:30.53	192.02	19.54	-41.4	-43.7	19.5	0.00e+00	0	42	0	238026752	54	4700
2026-01-23 10:39:34.54	192.43	20.02	-41.5	-43.8	19.4	0.00e+00	0	42	0	246415360	54	4736
2026-01-23 10:39:38.54	192.85	20.51	-41.7	-44.1	19.2	0.00e+00	0	42	0	253755392	54	4888
2026-01-23 10:39:42.54	193.28	21.00	-41.6	-43.9	19.4	0.00e+00	0	41	0	261095424	54	4790
2026-01-23 10:39:46.55	193.72	21.50	-41.5	-43.7	19.5	0.00e+00	0	42	0	268435456	54	4676
2026-01-23 10:39:50.56	194.18	22.01	-41.3	-43.5	19.7	0.00e+00	0	42	0	275775488	54	4573
2026-01-23 10:39:54.56	194.66	22.53	-41.2	-43.4	19.9	0.00e+00	0	41	0	283115520	54	4521
2026-01-23 10:39:58.55	195.15	23.06	-41.3	-43.5	19.8	0.00e+00	0	42	0	291504128	54	4572
2026-01-23 10:40:02.56	195.66	23.59	-41.2	-43.4	19.9	0.00e+00	0	41	0	298844160	54	4526
2026-01-23 10:40:06.57	196.18	24.14	-41.4	-43.6	19.7	0.00e+00	0	42	0	306184192	54	4630
2026-01-23 10:40:10.57	196.72	24.69	-41.8	-44.1	19.2	0.00e+00	0	42	0	313524224	54	4876
2026-01-23 10:40:14.58	197.28	25.26	-42.0	-44.3	19.1	0.00e+00	0	42	0	320864256	54	4994
2026-01-23 10:40:18.59	197.87	25.83	-42.0	-44.4	19.0	0.00e+00	0	42	0	328204288	54	5047
2026-01-23 10:40:22.59	198.47	26.41	-42.2	-44.6	18.8	0.00e+00	0	42	0	336592896	55	4882
2026-01-23 10:40:26.59	199.09	27.00	-42.1	-44.5	18.8	0.00e+00	0	42	0	343932928	55	4843
2026-01-23 10:40:30.59	199.74	27.60	-42.4	-44.8	18.6	0.00e+00	0	41	0	351272960	55	4988
2026-01-23 10:40:34.59	200.41	28.21	-43.3	-45.9	17.6	0.00e+00	0	42	0	358612992	57	5100
2026-01-23 10:40:38.59	201.10	28.83	-43.6	-46.3	17.3	0.00e+00	0	41	0	365953024	57	5326
2026-01-23 10:40:42.59	201.83	29.46	-44.0	-46.7	16.9	0.00e+00	0	41	0	373293056	58	5265
2026-01-23 10:40:46.59	202.58	30.10	-44.1	-46.9	16.7	0.00e+00	0	42	0	380633088	58	5394
2026-01-23 10:40:50.60	203.36	30.75	-44.3	-47.2	16.4	0.00e+00	0	42	0	389021696	59	5269
2026-01-23 10:40:54.60	204.17	31.40	-44.3	-47.1	16.5	0.00e+00	0	42	0	396361728	59	5208
2026-01-23 10:40:58.61	205.02	32.07	-44.2	-47.1	16.6	0.00e+00	0	42	0	403701760	59	5184
2026-01-23 10:41:02.61	205.90	32.74	-44.2	-47.1	16.6	0.00e+00	0	41	0	411041792	59	5174
2026-01-23 10:41:06.62	206.82	33.42	-43.7	-46.4	17.2	0.00e+00	0	42	0	418381824	59	4793
2026-01-23 10:41:10.62	207.78	34.10	-43.5	-46.1	17.6	0.00e+00	0	42	0	425721856	58	4902
2026-01-23 10:41:14.63	208.78	34.80	-43.1	-45.6	18.0	0.00e+00	0	42	0	434110464	58	4635
2026-01-23 10:41:18.62	209.81	35.49	-43.0	-45.5	18.2	0.00e+00	0	42	0	441450496	57	4822
2026-01-23 10:41:22.62	210.90	36.20	-42.1	-44.4	19.2	0.00e+00	0	42	0	448790528	56	4500
2026-01-23 10:41:26.62	212.03	36.90	-42.1	-44.4	19.1	0.00e+00	0	42	0	456130560	55	4788
2026-01-23 10:41:30.63	213.21	37.61	-41.8	-44.0	19.4	0.00e+00	0	41	0	463470592	55	4575
2026-01-23 10:41:34.64	214.44	38.32	-41.4	-43.6	19.8	0.00e+00	0	42	0	470810624	54	4625
2026-01-23 10:41:38.64	215.73	39.03	-41.8	-44.1	19.3	0.00e+00	0	42	0	479199232	54	4899
2026-01-23 10:41:42.65	217.07	39.74	-42.4	-44.8	18.7	0.00e+00	0	42	0	486539264	55	4995
2026-01-23 10:41:46.66	218.48	40.45	-42.4	-44.7	18.7	0.00e+00	0	42	0	493879296	55	4978
2026-01-23 10:41:50.66	219.94	41.15	-42.9	-45.3	18.4	0.00e+00	0	41	0	501219328	56	5009
2026-01-23 10:41:54.67	221.47	41.84	-43.0	-45.5	18.1	0.00e+00	0	42	0	508559360	56	5150
2026-01-23 10:41:58.68	223.06	42.52	-43.2	-45.7	18.0	0.00e+00	0	41	0	515899392	57	4947
2026-01-23 10:42:02.68	224.72	43.18	-42.8	-45.2	18.4	0.00e+00	0	42	0	524288000	57	4686
2026-01-23 10:42:06.68	226.45	43.83	-43.1	-45.6	18.1	0.00e+00	0	41	0	531628032	57	4912
2026-01-23 10:42:10.69	228.25	44.47	-42.7	-45.1	18.5	0.00e+00	0	41	0	538968064	57	4644
2026-01-23 10:42:14.69	230.11	45.08	-42.8	-45.3	18.3	0.00e+00	0	41	0	546308096	57	4742
2026-01-23 10:42:18.69	232.05	45.66	-42.8	-45.2	18.4	0.00e+00	0	42	0	553648128	56	4975
2026-01-23 10:42:22.70	234.06	46.22	-43.1	-45.5	18.1	0.00e+00	0	41	0	560988160	57	4854
2026-01-23 10:42:26.71	236.14	46.74	-43.2	-45.7	18.0	0.00e+00	0	41	0	569376768	57	4936
2026-01-23 10:42:30.71	238.29	47.23	-43.7	-46.4	17.4	0.00e+00	0	41	0	576716800	58	5069
2026-01-23 10:42:34.72	240.50	47.68	-44.3	-47.3	16.4	0.00e+00	0	42	0	584056832	59	5316
2026-01-23 10:42:38.73	242.77	48.09	-44.2	-47.0	16.8	0.00e+00	0	42	0	591396864	59	5133
2026-01-23 10:42:42.73	245.10	48.45	-44.6	-47.6	16.1	0.00e+00	0	42	0	598736896	60	5207
2026-01-23 10:42:46.74	247.48	48.76	-44.4	-47.4	16.4	0.00e+00	0	41	0	606076928	60	5051
2026-01-23 10:42:50.74	249.90	49.02	-43.8	-46.5	17.1	0.00e+00	0	41	0	613416960	59	4834
2026-01-23 10:42:54.75	252.36	49.23	-44.3	-47.1	16.5	0.00e+00	0	41	0	621805568	59	5212
2026-01-23 10:42:58.76	254.86	49.38	-44.0	-46.7	17.1	0.00e+00	0	41	0	629145600	59	4964
2026-01-23 10:43:02.77	257.37	49.48	-43.4	-46.0	17.8	0.00e+00	0	41	0	636485632	58	4815
2026-01-23 10:43:06.77	259.88	49.52	-43.0	-45.5	18.2	0.00e+00	0	41	0	643825664	58	4595
2026-01-23 10:43:10.79	262.41	49.50	-43.3	-45.8	17.9	0.00e+00	0	42	0	651165696	57	5012
2026-01-23 10:43:14.80	264.93	49.42	-42.7	-45.1	18.6	0.00e+00	0	41	0	658505728	57	4642
2026-01-23 10:43:18.80	267.42	49.28	-43.7	-46.4	17.3	0.00e+00	0	41	0	666894336	58	5086
2026-01-23 10:43:22.80	269.88	49.09	-44.2	-47.0	16.7	0.00e+00	0	41	0	674234368	59	5152
2026-01-23 10:43:26.80	272.31	48.85	-44.1	-46.9	16.8	0.00e+00	0	41	0	681574400	59	5061
2026-01-23 10:43:30.81	274.71	48.55	-43.7	-46.3	17.4	0.00e+00	0	42	0	688914432	59	4756
2026-01-23 10:43:34.82	277.05	48.20	-44.9	-48.1	15.7	0.00e+00	0	41	0	696254464	60	5481
2026-01-23 10:43:38.83	279.34	47.81	-46.2	-50.2	13.6	1.50e-06	0	42	0	703594496	62	6247
2026-01-23 10:43:42.83	281.56	47.38	-46.1	-49.9	13.8	7.00e-07	0	41	0	711983104	62	6035
2026-01-23 10:43:46.84	283.73	46.90	-45.6	-49.0	14.8	0.00e+00	0	41	0	719323136	63	5147
2026-01-23 10:43:50.84	285.82	46.39	-45.8	-49.5	14.2	8.30e-06	0	42	0	726663168	63	5427
2026-01-23 10:43:54.84	287.84	45.85	-44.4	-47.3	16.5	0.00e+00	0	41	0	734003200	59	5296
2026-01-23 10:43:58.85	289.80	45.27	-43.1	-45.6	18.1	0.00e+00	0	41	0	741343232	58	4642
2026-01-23 10:44:02.85	291.69	44.67	-43.7	-46.3	17.4	0.00e+00	0	41	0	748683264	58	5027
2026-01-23 10:44:06.86	293.50	44.05	-42.5	-44.8	18.8	0.00e+00	0	41	0	757071872	57	4468
2026-01-23 10:44:10.86	295.25	43.41	-42.9	-45.3	18.4	0.00e+00	0	41	0	764411904	56	5026
2026-01-23 10:44:14.87	296.92	42.75	-42.3	-44.6	19.0	0.00e+00	0	41	0	771751936	56	4639
2026-01-23 10:44:18.87	298.53	42.08	-42.2	-44.6	19.0	0.00e+00	0	41	0	779091968	56	4613
2026-01-23 10:44:22.88	300.07	41.39	-43.7	-46.4	17.3	0.00e+00	0	41	0	786432000	58	5085
2026-01-23 10:44:26.88	301.55	40.70	-43.1	-45.6	18.1	0.00e+00	0	41	0	793772032	56	5183
2026-01-23 10:44:30.88	302.97	40.00	-43.2	-45.8	17.9	0.00e+00	0	41	0	802160640	58	4738
2026-01-23 10:44:34.89	304.33	39.30	-44.8	-48.1	15.7	0.00e+00	0	41	0	809500672	60	5471
2026-01-23 10:44:38.89	305.63	38.59	-43.0	-45.5	18.2	0.00e+00	0	41	0	816840704	57	4839
2026-01-23 10:44:42.89	306.87	37.89	-45.3	-48.8	14.9	7.00e-07	0	41	0	824180736	62	5335
2026-01-23 10:44:46.90	308.07	37.18	-45.6	-49.2	14.6	0.00e+00	0	41	0	831520768	61	5888
2026-01-23 10:44:50.90	309.21	36.48	-44.4	-47.4	16.3	0.00e+00	0	41	0	838860800	60	5074
2026-01-23 10:44:54.91	310.31	35.78	-43.8	-46.5	17.2	0.00e+00	0	41	0	847249408	58	5138
2026-01-23 10:44:58.92	311.36	35.08	-44.1	-46.9	16.8	0.00e+00	0	41	0	854589440	60	4790
2026-01-23 10:45:02.92	312.37	34.39	-44.6	-47.7	16.0	0.00e+00	0	41	0	861929472	59	5531
2026-01-23 10:45:06.93	313.34	33.71	-45.5	-49.2	14.5	3.80e-06	0	41	0	869269504	63	5268
2026-01-23 10:45:10.94	314.27	33.03	-43.3	-46.0	17.7	0.00e+00	0	41	0	876609536	58	4834
2026-01-23 10:45:14.94	315.16	32.36	-46.4	-50.6	13.2	2.20e-06	0	41	0	883949568	63	6132
2026-01-23 10:45:18.94	316.02	31.70	-45.0	-48.3	15.4	0.00e+00	0	41	0	891289600	62	5002
2026-01-23 10:45:22.95	316.84	31.04	-43.2	-46.1	17.6	0.00e+00	0	41	0	899678208	58	4888
2026-01-23 10:45:26.96	317.63	30.40	-44.7	-48.3	15.5	0.00e+00	0	41	0	907018240	60	5619
2026-01-23 10:45:30.96	318.39	29.76	-43.7	-46.5	17.2	0.00e+00	0	41	0	914358272	59	4821
2026-01-23 10:45:34.96	319.12	29.13	-44.2	-47.1	16.6	0.00e+00	0	41	0	921698304	59	5170
2026-01-23 10:45:38.96	319.83	28.51	-43.7	-46.7	16.9	0.00e+00	0	41	0	929038336	59	4939
2026-01-23 10:45:42.96	320.51	27.91	-42.1	-44.6	18.9	0.00e+00	0	41	0	936378368	56	4618
2026-01-23 10:45:46.96	321.16	27.31	-42.7	-45.3	18.3	0.00e+00	0	41	0	944766976	56	5009
2026-01-23 10:45:50.97	321.79	26.71	-43.2	-45.9	17.7	0.00e+00	0	41	0	952107008	57	5067
2026-01-23 10:45:54.98	322.40	26.13	-42.6	-45.2	18.3	0.00e+00	0	41	0	959447040	57	4704
2026-01-23 10:45:58.98	322.99	25.56	-42.7	-45.2	18.3	0.00e+00	0	41	0	966787072	57	4700
2026-01-23 10:46:02.95	323.55	25.00	-42.6	-45.1	18.4	0.00e+00	0	41	0	974127104	57	4642
2026-01-23 10:46:06.96	324.10	24.45	-43.3	-46.1	17.4	0.00e+00	0	41	0	981467136	57	5192
2026-01-23 10:46:10.96	324.63	23.90	-43.8	-46.8	16.8	0.00e+00	0	41	0	989855744	58	5303
2026-01-23 10:46:14.97	325.15	23.37	-43.0	-45.8	17.8	0.00e+00	0	41	0	997195776	58	4707
2026-01-23 10:46:18.97	325.64	22.84	-42.8	-45.5	18.1	0.00e+00	0	41	0	1004535808	57	4824
2026-01-23 10:46:22.97	326.12	22.32	-43.1	-46.0	17.5	0.00e+00	0	41	0	1011875840	57	5155
2026-01-23 10:46:26.98	326.59	21.81	-42.8	-45.6	17.9	0.00e+00	0	41	0	1019215872	57	4877
2026-01-23 10:46:30.99	327.04	21.31	-42.7	-45.2	18.3	0.00e+00	0	41	0	1026555904	57	4655
2026-01-23 10:46:34.99	327.48	20.82	-42.9	-45.5	18.0	0.00e+00	0	41	0	1033895936	57	4818
2026-01-23 10:46:38.99	327.90	20.33	-42.8	-45.5	18.0	0.00e+00	0	41	0	1042284544	57	4843
2026-01-23 10:46:42.99	328.31	19.85	-42.8	-45.5	17.9	0.00e+00	0	41	0	1049624576	57	4870
2026-01-23 10:46:46.99	328.71	19.38	-43.1	-46.0	17.5	0.00e+00	0	41	0	1056964608	57	5111
2026-01-23 10:46:50.99	329.10	18.92	-43.3	-46.3	17.2	0.00e+00	0	41	0	1064304640	57	5307
2026-01-23 10:46:54.99	329.48	18.47	-43.2	-46.1	17.4	0.00e+00	0	41	0	1071644672	57	5190
2026-01-23 10:46:59.00	329.84	18.02	-43.2	-45.9	17.5	0.00e+00	0	41	0	1078984704	57	5085
2026-01-23 10:47:03.01	330.20	17.58	-43.2	-45.9	17.5	0.00e+00	0	41	0	1087373312	57	5100
2026-01-23 10:47:07.01	330.55	17.15	-43.2	-45.9	17.5	0.00e+00	0	41	0	1094713344	57	5100
2026-01-23 10:47:11.01	330.89	16.72	-43.2	-45.9	17.5	0.00e+00	0	41	0	1102053376	57	5098
2026-01-23 10:47:15.02	331.22	16.30	-42.9	-45.7	17.7	0.00e+00	0	41	0	1109393408	57	4951
2026-01-23 10:47:19.02	331.54	15.88	-42.9	-45.6	17.7	0.00e+00	0	41	0	1116733440	57	4913
2026-01-23 10:47:23.02	331.85	15.48	-43.0	-45.8	17.6	0.00e+00	0	41	0	1124073472	57	5004
2026-01-23 10:47:27.03	332.15	15.07	-43.2	-46.0	17.4	0.00e+00	0	41	0	1132462080	57	5130
2026-01-23 10:47:31.03	332.45	14.68	-43.5	-46.4	17.0	0.00e+00	0	41	0	1139802112	57	5372
2026-01-23 10:47:35.03	332.74	14.29	-43.8	-46.8	16.6	0.00e+00	0	41	0	1147142144	58	5283
2026-01-23 10:47:39.03	333.02	13.90	-43.8	-46.9	16.5	0.00e+00	0	41	0	1154482176	58	5342
2026-01-23 10:47:43.04	333.30	13.52	-43.6	-46.5	16.8	0.00e+00	0	41	0	1161822208	58	5150
2026-01-23 10:47:47.04	333.56	13.15	-43.3	-46.0	17.3	0.00e+00	0	41	0	1169162240	58	4865
2026-01-23 10:47:51.05	333.83	12.78	-43.1	-45.8	17.5	0.00e+00	0	41	0	1176502272	58	4750
2026-01-23 10:47:55.06	334.08	12.42	-42.9	-45.7	17.6	0.00e+00	0	41	0	1184890880	57	4951
2026-01-23 10:47:59.07	334.34	12.06	-43.1	-45.9	17.4	0.00e+00	0	41	0	1192230912	57	5081
2026-01-23 10:48:03.06	334.58	11.70	-43.4	-46.3	17.0	0.00e+00	0	41	0	1199570944	57	5302
2026-01-23 10:48:07.07	334.82	11.35	-43.9	-47.0	16.3	0.00e+00	0	41	0	1206910976	58	5430
2026-01-23 10:48:11.06	335.06	11.01	-44.2	-47.5	15.8	0.00e+00	0	41	0	1214251008	59	5427
2026-01-23 10:48:15.07	335.29	10.67	-44.2	-47.8	15.5	0.00e+00	0	41	0	1221591040	59	5593
2026-01-23 10:48:19.07	335.51	10.33	-44.2	-47.7	15.5	0.00e+00	0	41	0	1229979648	59	5588
2026-01-23 10:48:23.07	335.73	10.00	-44.0	-47.6	15.6	0.00e+00	0	41	0	1237319680	59	5485
2026-01-23 10:48:27.08	335.95	9.67	-43.7	-47.4	15.8	0.00e+00	0	41	0	1244659712	59	5358
2026-01-23 10:48:31.08	336.16	9.35	-43.4	-47.1	16.1	0.00e+00	0	41	0	1251999744	58	5475
2026-01-23 10:48:35.08	336.37	9.03	-43.5	-47.1	16.1	0.00e+00	0	41	0	1259339776	58	5489
2026-01-23 10:48:39.06	336.57	8.72	-49.3	-64.8	3.8	1.49e+00	0	41	104	1261436928	69	22445
2026-01-23 10:48:43.04	336.77	8.41	-49.5	-65.0	3.8	1.49e+00	0	41	104	1261436928	69	23015
2026-01-23 10:48:47.02	336.96	8.10	-49.8	-65.1	3.8	1.49e+00	0	41	104	1261436928	70	21878
2026-01-23 10:48:51.00	337.15	7.80	-49.9	-65.1	3.8	1.49e+00	0	41	104	1261436928	70	21867
2026-01-23 10:48:54.99	337.34	7.49	-49.9	-65.1	3.8	1.49e+00	0	41	104	1261436928	70	21827
2026-01-23 10:48:58.96	337.52	7.20	-49.6	-65.0	3.8	1.49e+00	0	41	104	1261436928	70	21737
2026-01-23 10:49:02.95	337.70	6.90	-49.6	-65.0	3.8	1.49e+00	0	41	104	1261436928	70	21684
2026-01-23 10:49:06.93	337.88	6.61	-49.6	-65.0	3.8	1.49e+00	0	41	104	1261436928	70	21587
2026-01-23 10:49:10.91	338.05	6.33	-49.6	-65.0	3.8	1.49e+00	0	41	104	1261436928	70	21704
2026-01-23 10:49:14.89	338.22	6.04	-49.6	-65.0	3.8	1.49e+00	0	41	104	1261436928	70	21667
2026-01-23 10:49:18.87	338.39	5.76	-49.6	-65.0	3.8	1.49e+00	0	41	104	1261436928	70	21609
2026-01-23 10:49:22.85	338.56	5.48	-49.6	-65.0	3.8	1.49e+00	0	41	104	1261436928	70	21553
2026-01-23 10:49:26.83	338.72	5.20	-49.6	-65.0	3.8	1.49e+00	0	41	104	1261436928	70	21549

#Closed at: 2026-01-23 10:49:30
#Recorded file [1261 MB]: D:/Data/31040_260123_133650.dat