passes_logs/2026/01/23/T1/T1__20260123_023614_AQUA_rec.log

#Pass ID: 20260123_023614_AQUA
#Satellite: AQUA
#Configuration: AQUA
#almurnet v.1.7.20251203
#Start time: 2026-01-23 02:36:16

#Version: 2.0.20230620
#Station: T1
#Location: 37.570604 lon 55.790049 lat
#TLE: 1 27424U 02022A   26022.49486490  .00002153  00000+0  44069-3 0  9997
#TLE: 2 27424  98.4099 349.0485 0001970  69.5876  43.4746 14.61847233261984

#Time	Az	El	Level	Level2	SNR	BER	BlckErr	Temp	State	Recorded	gain1	gain2
2026-01-23 02:36:16.57	5.49	5.18	-46.7	-70.2	3.8	7.43e-01	0	37	0	0	65	52446
2026-01-23 02:36:19.54	5.26	5.38	-46.6	-70.3	3.8	7.46e-01	0	37	104	0	64	56485
2026-01-23 02:36:22.52	5.03	5.59	-46.6	-70.5	3.8	7.49e-01	0	37	104	0	64	57813
2026-01-23 02:36:25.51	4.80	5.79	-46.6	-70.5	3.8	7.45e-01	0	37	104	0	64	57881
2026-01-23 02:36:28.48	4.56	6.00	-46.6	-70.5	3.8	7.49e-01	0	37	104	0	64	57253
2026-01-23 02:36:31.47	4.32	6.20	-46.6	-70.4	3.8	7.49e-01	0	37	104	0	64	56694
2026-01-23 02:36:34.45	4.07	6.41	-46.6	-70.4	3.8	7.45e-01	0	37	104	0	64	57170
2026-01-23 02:36:37.43	3.82	6.62	-46.6	-70.6	3.8	7.46e-01	0	37	104	0	64	57942
2026-01-23 02:36:40.41	3.57	6.83	-46.6	-70.4	3.8	7.45e-01	0	37	104	0	64	56901
2026-01-23 02:36:43.39	3.31	7.05	-46.5	-70.2	3.8	7.46e-01	0	37	104	0	64	55290
2026-01-23 02:36:46.37	3.05	7.26	-46.5	-70.0	3.8	7.46e-01	0	37	104	0	64	54496
2026-01-23 02:36:49.35	2.79	7.48	-46.5	-68.6	3.8	7.43e-01	0	37	104	0	64	46107
2026-01-23 02:36:52.33	2.51	7.70	-46.5	-66.3	4.0	7.41e-01	0	38	104	0	64	35382
2026-01-23 02:36:55.31	2.24	7.91	-46.5	-66.7	4.4	7.28e-01	0	38	104	0	64	37230
2026-01-23 02:36:58.29	1.96	8.13	-46.5	-69.8	3.8	7.49e-01	0	38	104	0	64	52858
2026-01-23 02:37:01.27	1.67	8.36	-46.4	-63.3	6.2	6.80e-01	0	38	0	0	64	25260
2026-01-23 02:37:04.25	1.38	8.58	-45.7	-54.7	15.0	6.03e-01	0	38	0	5767168	63	9831
2026-01-23 02:37:07.23	1.09	8.80	-44.4	-50.0	19.6	6.03e-01	0	37	0	11534336	60	6866
2026-01-23 02:37:10.21	0.79	9.03	-44.3	-49.6	20.3	6.07e-01	0	38	0	16777216	59	6886
2026-01-23 02:37:13.55	0.45	9.29	-42.8	-46.2	23.5	6.05e-01	0	38	0	23068672	57	5241
2026-01-23 02:37:16.30	0.16	9.50	-42.8	-46.1	23.6	6.06e-01	0	38	0	28311552	57	5187
2026-01-23 02:37:19.57	359.81	9.75	-43.0	-46.1	23.7	6.03e-01	0	38	0	34603008	57	5163
2026-01-23 02:37:22.27	359.52	9.96	-42.9	-45.9	23.9	6.04e-01	0	38	0	39321600	57	5052
2026-01-23 02:37:25.65	359.15	10.23	-42.9	-45.7	24.0	6.03e-01	0	38	0	45613056	57	4977
2026-01-23 02:37:28.38	358.84	10.45	-42.8	-45.7	24.0	6.07e-01	0	38	0	50855936	57	4950
2026-01-23 02:37:31.66	358.47	10.71	-42.8	-45.8	23.9	6.08e-01	0	38	0	57147392	57	5020
2026-01-23 02:37:34.45	358.14	10.93	-42.6	-45.6	24.0	6.05e-01	0	38	0	62390272	57	4907
2026-01-23 02:37:37.58	357.77	11.19	-42.4	-45.5	24.3	6.03e-01	0	38	0	68157440	56	5111
2026-01-23 02:37:40.43	357.43	11.42	-42.3	-45.4	24.3	6.02e-01	0	38	0	73400320	56	5086
2026-01-23 02:37:43.71	357.02	11.69	-42.3	-45.5	24.3	6.05e-01	0	38	0	79691776	56	5125
2026-01-23 02:37:46.55	356.67	11.92	-42.2	-45.5	24.3	6.07e-01	0	38	0	84934656	56	5106
2026-01-23 02:37:49.68	356.27	12.18	-42.2	-45.6	24.3	6.05e-01	0	38	0	90701824	56	5171
2026-01-23 02:37:52.83	355.85	12.45	-41.9	-45.3	24.4	6.03e-01	0	38	0	96993280	55	5282
2026-01-23 02:37:55.68	355.48	12.69	-41.8	-45.1	24.6	6.03e-01	0	38	0	102236160	55	5203
2026-01-23 02:37:58.81	355.05	12.95	-41.9	-45.0	24.5	6.05e-01	0	38	0	108003328	55	5148
2026-01-23 02:38:01.65	354.66	13.19	-42.1	-44.9	24.7	6.05e-01	0	38	0	113246208	55	5087
2026-01-23 02:38:04.78	354.22	13.46	-42.4	-45.0	24.7	6.02e-01	0	38	0	119013376	55	5111
2026-01-23 02:38:07.72	353.80	13.72	-42.3	-44.9	24.8	6.04e-01	0	38	0	124780544	55	5089
2026-01-23 02:38:10.92	353.33	13.99	-42.2	-44.8	24.9	6.02e-01	0	38	0	130547712	55	4993
2026-01-23 02:38:13.76	352.91	14.24	-42.3	-44.8	24.9	6.03e-01	0	38	0	135790592	55	4997
2026-01-23 02:38:17.08	352.40	14.53	-42.2	-44.9	24.9	6.05e-01	0	38	0	142082048	55	5043
2026-01-23 02:38:19.80	351.98	14.77	-42.1	-44.8	24.9	6.05e-01	0	38	0	147324928	55	5018
2026-01-23 02:38:23.08	351.46	15.06	-42.0	-44.5	25.2	6.03e-01	0	38	0	153616384	55	4870
2026-01-23 02:38:25.78	351.03	15.30	-42.0	-44.5	25.2	6.01e-01	0	38	0	158859264	55	4844
2026-01-23 02:38:29.10	350.48	15.60	-42.1	-44.6	25.2	6.06e-01	0	38	0	164626432	55	4886
2026-01-23 02:38:31.96	350.00	15.86	-42.1	-44.6	25.1	6.07e-01	0	38	0	170393600	55	4909
2026-01-23 02:38:35.22	349.44	16.15	-42.1	-44.7	25.0	6.05e-01	0	38	0	176160768	55	4942
2026-01-23 02:38:37.94	348.97	16.40	-42.3	-44.8	24.9	6.05e-01	0	38	0	181403648	55	5035
2026-01-23 02:38:41.21	348.39	16.70	-42.1	-44.6	25.2	6.04e-01	0	38	0	187695104	55	4904
2026-01-23 02:38:43.92	347.89	16.95	-42.0	-44.6	25.1	6.02e-01	0	38	0	192413696	55	4910
2026-01-23 02:38:47.19	347.29	17.25	-41.6	-44.5	25.2	6.04e-01	0	38	0	198705152	55	4860
2026-01-23 02:38:49.97	346.76	17.50	-41.7	-44.7	25.1	6.04e-01	0	38	0	203948032	55	4936
2026-01-23 02:38:53.26	346.13	17.80	-42.0	-44.6	25.1	6.05e-01	0	38	0	210239488	55	4886
2026-01-23 02:38:55.97	345.60	18.05	-42.2	-44.7	25.1	6.05e-01	0	38	0	215482368	55	4940
2026-01-23 02:38:59.24	344.94	18.36	-41.8	-44.5	25.3	6.04e-01	0	38	0	221249536	55	4855
2026-01-23 02:39:02.21	344.33	18.63	-42.2	-44.8	25.0	6.04e-01	0	38	0	227016704	55	5007
2026-01-23 02:39:05.49	343.65	18.93	-42.2	-44.6	25.2	6.04e-01	0	38	0	232783872	55	4907
2026-01-23 02:39:08.19	343.07	19.18	-42.1	-44.5	25.2	6.06e-01	0	38	0	238026752	55	4865
2026-01-23 02:39:11.46	342.36	19.49	-42.2	-44.6	25.2	6.07e-01	0	38	0	244318208	55	4920
2026-01-23 02:39:14.19	341.76	19.74	-42.6	-44.9	24.9	6.04e-01	0	38	0	249561088	55	5087
2026-01-23 02:39:17.59	340.99	20.05	-42.3	-45.0	24.7	6.07e-01	0	39	0	255852544	55	5108
2026-01-23 02:39:20.37	340.35	20.31	-41.9	-44.6	25.2	6.03e-01	0	39	0	261095424	55	4909
2026-01-23 02:39:23.78	339.55	20.62	-42.3	-44.7	25.1	6.03e-01	0	38	0	267386880	55	4953
2026-01-23 02:39:26.50	338.90	20.87	-42.0	-44.7	25.1	6.03e-01	0	38	0	272629760	55	4983
2026-01-23 02:39:29.77	338.10	21.16	-41.9	-44.8	24.9	6.05e-01	0	38	0	278396928	55	5037
2026-01-23 02:39:32.48	337.43	21.41	-42.3	-44.9	24.9	6.06e-01	0	38	0	283639808	55	5055
2026-01-23 02:39:35.75	336.60	21.70	-42.1	-45.0	24.8	6.02e-01	0	39	0	289931264	55	5135
2026-01-23 02:39:38.70	335.84	21.96	-42.1	-44.8	25.0	6.05e-01	0	38	0	295174144	55	5038
2026-01-23 02:39:41.97	334.98	22.25	-42.4	-44.8	25.0	6.02e-01	0	38	0	301465600	55	5039
2026-01-23 02:39:44.69	334.25	22.48	-42.4	-44.9	24.9	6.05e-01	0	38	0	306708480	55	5044
2026-01-23 02:39:48.04	333.34	22.77	-42.3	-45.0	24.8	6.07e-01	0	38	0	312999936	55	5146
2026-01-23 02:39:50.76	332.58	23.00	-42.3	-45.0	24.9	6.04e-01	0	38	0	317718528	55	5117
2026-01-23 02:39:54.24	331.60	23.29	-42.4	-44.8	25.0	6.04e-01	0	38	0	324534272	55	5036
2026-01-23 02:39:56.96	330.82	23.52	-42.4	-44.8	25.0	6.02e-01	0	38	0	329252864	55	5007
2026-01-23 02:40:00.24	329.86	23.78	-42.6	-44.9	24.9	6.03e-01	0	38	0	335544320	55	5098
2026-01-23 02:40:02.97	329.05	24.00	-42.5	-45.1	24.8	6.02e-01	0	38	0	340787200	55	5161
2026-01-23 02:40:06.25	328.06	24.25	-42.1	-44.8	25.1	6.06e-01	0	38	0	347078656	55	5016
2026-01-23 02:40:08.97	327.23	24.45	-42.6	-45.2	24.7	6.04e-01	0	38	0	351797248	55	5241
2026-01-23 02:40:12.24	326.21	24.70	-42.3	-44.9	25.0	6.03e-01	0	39	0	358088704	55	5059
2026-01-23 02:40:14.95	325.36	24.89	-42.4	-45.0	24.8	6.03e-01	0	38	0	363331584	55	5146
2026-01-23 02:40:18.22	324.31	25.12	-42.2	-44.9	24.9	6.03e-01	0	38	0	369623040	55	5086
2026-01-23 02:40:21.09	323.38	25.31	-42.5	-44.9	24.9	6.06e-01	0	39	0	374865920	55	5094
2026-01-23 02:40:24.22	322.35	25.51	-42.5	-45.2	24.7	6.03e-01	0	39	0	380633088	55	5266
2026-01-23 02:40:27.14	321.38	25.69	-42.1	-44.8	25.1	6.05e-01	0	39	0	385875968	55	5019
2026-01-23 02:40:30.27	320.32	25.88	-42.5	-45.1	24.8	6.04e-01	0	38	0	392167424	55	5167
2026-01-23 02:40:33.11	319.36	26.04	-42.3	-44.9	24.9	6.06e-01	0	38	0	397410304	55	5083
2026-01-23 02:40:36.24	318.28	26.21	-42.4	-45.0	24.9	6.05e-01	0	39	0	403177472	55	5111
2026-01-23 02:40:39.08	317.29	26.35	-42.5	-44.9	24.9	6.03e-01	0	39	0	408420352	55	5059
2026-01-23 02:40:42.21	316.19	26.50	-42.6	-44.9	25.0	6.05e-01	0	38	0	414187520	55	5090
2026-01-23 02:40:45.06	315.17	26.63	-42.3	-44.8	25.1	6.04e-01	0	38	0	419954688	55	5000
2026-01-23 02:40:48.41	313.97	26.77	-42.0	-44.9	25.0	6.03e-01	0	38	0	425721856	55	5043
2026-01-23 02:40:51.12	313.00	26.87	-42.1	-44.5	25.3	6.00e-01	0	38	0	430964736	55	4860
2026-01-23 02:40:55.20	311.51	27.01	-42.8	-45.2	24.8	6.05e-01	0	38	0	438829056	56	4978
2026-01-23 02:40:58.10	310.45	27.09	-42.8	-45.3	24.8	6.05e-01	0	38	0	444071936	56	5003
2026-01-23 02:41:01.15	309.32	27.17	-42.7	-45.1	24.9	6.03e-01	0	39	0	449839104	56	4917
2026-01-23 02:41:04.17	308.21	27.24	-42.6	-45.0	25.0	6.03e-01	0	39	0	455606272	56	4840
2026-01-23 02:41:07.15	307.10	27.29	-42.8	-45.2	24.8	6.01e-01	0	39	0	461373440	56	4941
2026-01-23 02:41:10.39	305.89	27.34	-42.8	-45.2	24.9	6.03e-01	0	38	0	467140608	56	4950
2026-01-23 02:41:13.36	304.78	27.37	-42.6	-45.0	25.1	6.01e-01	0	39	0	472907776	56	4835
2026-01-23 02:41:16.84	303.47	27.39	-43.3	-45.8	24.2	6.01e-01	0	39	0	479199232	57	5034
2026-01-23 02:41:19.57	302.45	27.39	-42.6	-45.0	25.0	6.05e-01	0	39	0	484442112	55	5125
2026-01-23 02:41:22.83	301.23	27.39	-43.1	-45.6	24.4	6.05e-01	0	38	0	490733568	56	5214
2026-01-23 02:41:25.61	300.18	27.37	-42.1	-44.3	25.6	6.06e-01	0	39	0	495976448	56	4483
2026-01-23 02:41:29.51	298.72	27.33	-42.9	-45.4	24.5	6.04e-01	0	39	0	502792192	57	4791
2026-01-23 02:41:32.35	297.66	27.29	-42.7	-45.0	24.9	6.04e-01	0	39	0	508559360	56	4870
2026-01-23 02:41:36.32	296.19	27.21	-42.9	-45.4	24.6	6.05e-01	0	39	0	515899392	57	4771
2026-01-23 02:41:39.42	295.04	27.14	-43.5	-46.1	24.0	6.04e-01	0	39	0	521666560	57	5182
2026-01-23 02:41:42.55	293.89	27.05	-42.8	-45.2	24.8	6.05e-01	0	39	0	527433728	56	4966
2026-01-23 02:41:45.47	292.82	26.96	-43.4	-46.0	24.0	6.04e-01	0	39	0	533200896	58	4831
2026-01-23 02:41:48.71	291.64	26.85	-43.1	-45.6	24.4	6.04e-01	0	39	0	538968064	57	4895
2026-01-23 02:41:51.55	290.62	26.74	-43.2	-45.7	24.4	6.02e-01	0	39	0	544210944	57	4954
2026-01-23 02:41:54.68	289.50	26.61	-43.7	-46.2	23.9	6.05e-01	0	39	0	550502400	57	5249
2026-01-23 02:41:57.85	288.37	26.46	-42.8	-45.1	24.8	6.02e-01	0	39	0	556269568	57	4646
2026-01-23 02:42:00.72	287.36	26.33	-43.2	-45.7	24.2	6.04e-01	0	39	0	561512448	58	4661
2026-01-23 02:42:03.85	286.27	26.16	-44.0	-46.7	23.5	6.02e-01	0	39	0	567279616	58	5226
2026-01-23 02:42:06.69	285.29	26.01	-43.2	-45.5	24.5	6.05e-01	0	39	0	573046784	58	4593
2026-01-23 02:42:09.82	284.22	25.83	-44.5	-47.3	22.8	6.02e-01	0	38	0	578813952	60	5001
2026-01-23 02:42:12.72	283.25	25.65	-43.3	-45.8	24.2	6.05e-01	0	39	0	584056832	58	4707
2026-01-23 02:42:15.99	282.16	25.45	-44.5	-47.3	22.9	6.04e-01	0	39	0	590348288	59	5291
2026-01-23 02:42:18.70	281.27	25.27	-44.1	-46.6	23.4	6.05e-01	0	39	0	595066880	59	4917
2026-01-23 02:42:21.97	280.21	25.05	-43.8	-46.4	23.7	6.05e-01	0	39	0	601358336	59	4775
2026-01-23 02:42:24.76	279.31	24.85	-43.8	-46.4	23.8	6.06e-01	0	39	0	606601216	59	4766
2026-01-23 02:42:28.14	278.25	24.61	-43.5	-46.0	24.1	6.04e-01	0	39	0	612892672	59	4598
2026-01-23 02:42:30.95	277.38	24.40	-43.7	-46.3	23.8	6.01e-01	0	39	0	618135552	58	5029
2026-01-23 02:42:34.22	276.38	24.15	-43.5	-46.0	24.2	6.04e-01	0	39	0	624427008	58	4823
2026-01-23 02:42:36.97	275.55	23.93	-43.4	-45.9	24.2	6.05e-01	0	39	0	629669888	58	4779
2026-01-23 02:42:40.25	274.58	23.67	-43.4	-45.9	24.2	6.02e-01	0	39	0	635437056	58	4783
2026-01-23 02:42:42.97	273.78	23.45	-43.4	-45.9	24.2	6.03e-01	0	39	0	640679936	58	4767
2026-01-23 02:42:46.27	272.84	23.18	-43.3	-45.8	24.3	6.03e-01	0	39	0	646971392	58	4739
2026-01-23 02:42:48.98	272.07	22.95	-43.7	-46.3	23.8	6.07e-01	0	39	0	652214272	58	5021
2026-01-23 02:42:52.27	271.16	22.67	-43.4	-45.9	24.2	6.05e-01	0	39	0	657981440	58	4786
2026-01-23 02:42:55.09	270.39	22.42	-43.6	-46.1	23.9	6.05e-01	0	39	0	663748608	58	4902
2026-01-23 02:42:58.22	269.55	22.15	-43.5	-46.0	24.1	6.05e-01	0	39	0	669515776	58	4855
2026-01-23 02:43:01.39	268.72	21.87	-43.5	-46.1	24.0	6.05e-01	0	39	0	675282944	58	4875
2026-01-23 02:43:04.24	267.98	21.61	-43.6	-46.2	23.8	6.05e-01	0	39	0	680525824	58	4974
2026-01-23 02:43:07.37	267.19	21.33	-43.2	-45.7	24.3	6.05e-01	0	39	0	686292992	58	4702
2026-01-23 02:43:10.27	266.47	21.07	-43.4	-45.9	24.1	6.01e-01	0	39	0	692060160	58	4807
2026-01-23 02:43:13.45	265.69	20.78	-43.5	-46.1	24.0	6.06e-01	0	39	0	697827328	58	4901
2026-01-23 02:43:16.29	265.01	20.52	-43.3	-45.7	24.3	6.04e-01	0	39	0	703070208	58	4705
2026-01-23 02:43:19.42	264.28	20.23	-43.3	-45.9	24.2	6.03e-01	0	39	0	709361664	58	4772
2026-01-23 02:43:22.27	263.62	19.97	-43.3	-45.9	24.1	6.06e-01	0	39	0	714604544	58	4793
2026-01-23 02:43:25.52	262.89	19.67	-43.2	-45.7	24.3	6.05e-01	0	39	0	720371712	58	4669
2026-01-23 02:43:28.35	262.26	19.41	-43.5	-46.1	24.0	6.04e-01	0	39	0	726138880	58	4885
2026-01-23 02:43:31.83	261.50	19.08	-43.2	-45.8	24.2	6.04e-01	0	39	0	732430336	58	4711
2026-01-23 02:43:34.55	260.92	18.83	-43.3	-45.9	24.1	6.04e-01	0	39	0	737673216	58	4804
2026-01-23 02:43:37.84	260.24	18.52	-43.2	-45.7	24.3	6.05e-01	0	39	0	743440384	58	4662
2026-01-23 02:43:40.57	259.68	18.27	-43.1	-45.7	24.3	6.02e-01	0	39	0	748683264	58	4662
2026-01-23 02:43:43.87	259.02	17.96	-43.3	-45.8	24.2	6.03e-01	0	39	0	754974720	58	4756
2026-01-23 02:43:46.82	258.44	17.69	-43.1	-45.7	24.3	6.03e-01	0	39	0	760217600	58	4653
2026-01-23 02:43:50.11	257.80	17.39	-43.4	-45.9	24.1	6.07e-01	0	39	0	766509056	58	4776
2026-01-23 02:43:52.88	257.28	17.13	-43.3	-45.8	24.1	6.03e-01	0	39	0	771751936	58	4726
2026-01-23 02:43:56.15	256.67	16.83	-43.2	-45.7	24.3	6.04e-01	0	39	0	778043392	58	4668
2026-01-23 02:43:58.86	256.18	16.58	-43.4	-45.8	24.1	6.03e-01	0	39	0	783286272	58	4759
2026-01-23 02:44:02.18	255.59	16.28	-43.5	-46.0	24.0	6.03e-01	0	39	0	789577728	58	4838
2026-01-23 02:44:05.21	255.06	16.00	-43.1	-45.6	24.3	6.04e-01	0	39	0	794820608	58	4648
2026-01-23 02:44:09.10	254.40	15.65	-43.3	-45.8	24.1	6.04e-01	0	39	0	802160640	58	4755
2026-01-23 02:44:11.94	253.92	15.39	-43.3	-45.9	24.0	6.05e-01	0	39	0	807403520	58	4769
2026-01-23 02:44:15.99	253.26	15.03	-43.4	-46.0	24.0	6.01e-01	0	39	0	815267840	58	4827
2026-01-23 02:44:18.94	252.79	14.77	-43.3	-45.9	24.1	6.06e-01	0	39	0	820510720	58	4765
2026-01-23 02:44:22.73	252.20	14.43	-43.5	-46.1	23.9	6.01e-01	0	39	0	827850752	58	4877
2026-01-23 02:44:25.78	251.73	14.16	-43.3	-45.8	24.1	6.03e-01	0	39	0	833617920	58	4758
2026-01-23 02:44:29.75	251.14	13.81	-43.6	-46.1	23.8	6.06e-01	0	39	0	840957952	58	4898
2026-01-23 02:44:32.59	250.72	13.57	-43.6	-46.1	23.8	6.05e-01	0	39	0	846200832	58	4905
2026-01-23 02:44:36.58	250.15	13.22	-43.4	-45.9	24.0	6.05e-01	0	39	0	854065152	58	4802
2026-01-23 02:44:39.54	249.74	12.97	-43.5	-46.0	23.9	6.05e-01	0	39	0	859308032	58	4870
2026-01-23 02:44:42.93	249.28	12.68	-43.7	-46.4	23.5	6.04e-01	0	39	0	865599488	58	5054
2026-01-23 02:44:45.65	248.91	12.45	-43.5	-46.1	23.8	6.02e-01	0	39	0	870842368	58	4890
2026-01-23 02:44:48.92	248.48	12.17	-43.6	-46.1	23.8	6.02e-01	0	39	0	877133824	58	4904
2026-01-23 02:44:51.65	248.12	11.95	-43.8	-46.4	23.4	6.02e-01	0	39	0	881852416	58	5082
2026-01-23 02:44:55.14	247.68	11.66	-43.6	-46.2	23.6	6.05e-01	0	39	0	888668160	58	4961
2026-01-23 02:44:57.96	247.33	11.42	-43.6	-46.2	23.6	6.05e-01	0	39	0	893911040	58	4964
2026-01-23 02:45:01.25	246.93	11.15	-43.9	-46.6	23.3	6.04e-01	0	39	0	900202496	58	5165
2026-01-23 02:45:03.96	246.60	10.93	-43.8	-46.5	23.3	6.05e-01	0	39	0	904921088	58	5117
2026-01-23 02:45:07.26	246.21	10.67	-44.0	-46.7	23.1	6.05e-01	0	39	0	911212544	58	5255
2026-01-23 02:45:10.10	245.88	10.44	-44.0	-46.6	23.2	6.04e-01	0	39	0	916455424	58	5200
2026-01-23 02:45:13.23	245.53	10.19	-44.1	-46.8	23.1	6.03e-01	0	39	0	922746880	58	5291
2026-01-23 02:45:16.17	245.20	9.96	-43.9	-46.6	23.2	6.01e-01	0	39	0	927989760	58	5165
2026-01-23 02:45:19.37	244.85	9.71	-44.2	-47.0	22.8	6.02e-01	0	39	0	933756928	59	5115
2026-01-23 02:45:22.29	244.53	9.48	-44.2	-46.9	22.9	6.05e-01	0	39	0	939524096	59	5075
2026-01-23 02:45:25.41	244.20	9.24	-44.1	-46.8	22.9	6.02e-01	0	39	0	945291264	59	5037
2026-01-23 02:45:28.26	243.91	9.02	-44.1	-46.9	22.9	6.03e-01	0	39	0	950534144	59	5042
2026-01-23 02:45:31.38	243.59	8.78	-51.2	-71.3	3.8	7.48e-01	0	39	104	951582720	73	37634
2026-01-23 02:45:34.22	243.30	8.56	-51.0	-71.5	3.8	7.47e-01	0	39	104	951582720	73	38564
2026-01-23 02:45:37.44	242.99	8.32	-51.5	-71.6	3.8	7.45e-01	0	39	104	951582720	73	38871
2026-01-23 02:45:40.34	242.70	8.10	-51.4	-71.6	3.8	7.46e-01	0	39	104	951582720	73	38861
2026-01-23 02:45:43.60	242.39	7.86	-51.0	-71.6	3.8	7.43e-01	0	39	104	951582720	73	38890
2026-01-23 02:45:46.51	242.12	7.65	-51.2	-71.6	3.8	7.44e-01	0	39	104	951582720	73	38731
2026-01-23 02:45:49.69	241.83	7.41	-51.1	-71.6	3.8	7.44e-01	0	39	104	951582720	73	38731
2026-01-23 02:45:52.53	241.57	7.21	-50.9	-71.5	3.8	7.44e-01	0	39	104	951582720	73	38473
2026-01-23 02:45:55.65	241.29	6.98	-50.8	-71.5	3.8	7.46e-01	0	39	104	951582720	73	38416
2026-01-23 02:45:58.49	241.05	6.78	-50.8	-71.5	3.8	7.50e-01	0	39	104	951582720	73	38331
2026-01-23 02:46:01.59	240.78	6.56	-50.8	-71.5	3.8	7.47e-01	0	39	104	951582720	73	38290
2026-01-23 02:46:04.43	240.54	6.36	-50.8	-71.5	3.8	7.45e-01	0	39	104	951582720	73	38270
2026-01-23 02:46:07.55	240.28	6.14	-50.8	-71.5	3.8	7.46e-01	0	39	104	951582720	73	38283
2026-01-23 02:46:10.39	240.04	5.94	-50.8	-71.4	3.8	7.50e-01	0	39	104	951582720	73	38187
2026-01-23 02:46:13.51	239.79	5.72	-50.8	-71.5	3.8	7.48e-01	0	39	104	951582720	73	38247
2026-01-23 02:46:16.35	239.57	5.53	-50.8	-71.4	3.8	7.47e-01	0	39	104	951582720	73	38217
2026-01-23 02:46:19.47	239.32	5.31	-50.8	-71.5	3.8	7.44e-01	0	39	104	951582720	73	38286
2026-01-23 02:46:22.31	239.10	5.12	-50.8	-71.5	3.8	7.46e-01	0	39	104	951582720	73	38296
2026-01-23 02:46:25.43	238.87	4.91	-50.8	-71.5	3.8	7.45e-01	0	39	104	951582720	73	38282

#Closed at: 2026-01-23 02:46:26
#Recorded file [951 MB]: D:/Data/31040_260123_053616.dat