passes_logs/2026/01/23/T1/T1__20260123_192308_FENGYUN_3G_rec.log

#Pass ID: 20260123_192308_FENGYUN 3G
#Satellite: FENGYUN 3G
#Configuration: FENGYUN 3G
#almurnet v.1.7.20251203
#Start time: 2026-01-23 19:23:08

#Version: 2.0.20230620
#Station: T1
#Location: 37.570604 lon 55.790049 lat
#TLE: 1 56232U 23055A   26022.95932522  .00036289  00000+0  55235-3 0  9992
#TLE: 2 56232  49.9946  14.8507 0004090  68.3647 291.7756 15.54106507157434

#Time	Az	El	Level	Level2	SNR	BER	BlckErr	Temp	State	Recorded	gain1	gain2
2026-01-23 19:23:08.98	241.10	5.03	-49.3	-68.3	3.8	8.46e-01	0	35	0	0	70	31686
2026-01-23 19:23:10.96	240.93	5.18	-49.3	-68.2	3.8	8.48e-01	0	35	104	0	70	31402
2026-01-23 19:23:12.94	240.76	5.34	-49.3	-68.2	3.8	8.48e-01	0	35	104	0	70	31385
2026-01-23 19:23:14.93	240.58	5.49	-49.2	-68.1	3.8	8.47e-01	0	35	104	0	70	30832
2026-01-23 19:23:16.92	240.40	5.64	-49.3	-67.9	3.8	8.48e-01	0	36	104	0	70	30274
2026-01-23 19:23:18.90	240.21	5.80	-49.2	-67.9	3.8	8.46e-01	0	35	104	0	70	30110
2026-01-23 19:23:20.89	240.03	5.95	-49.2	-67.7	3.8	8.46e-01	0	35	104	0	70	29482
2026-01-23 19:23:22.88	239.84	6.11	-49.2	-67.7	3.8	8.48e-01	0	36	104	0	70	29665
2026-01-23 19:23:24.86	239.65	6.27	-49.2	-67.8	3.8	8.47e-01	0	36	104	0	70	30022
2026-01-23 19:23:26.85	239.45	6.43	-49.2	-67.7	3.8	8.47e-01	0	36	104	0	70	29577
2026-01-23 19:23:28.83	239.25	6.59	-49.2	-67.7	3.8	8.47e-01	0	36	104	0	70	29426
2026-01-23 19:23:30.82	239.05	6.75	-49.2	-67.9	3.8	8.47e-01	0	36	104	0	70	30284
2026-01-23 19:23:32.81	238.85	6.92	-49.2	-68.1	3.8	8.47e-01	0	36	104	0	70	31068
2026-01-23 19:23:34.79	238.64	7.08	-49.2	-68.0	3.8	8.47e-01	0	36	104	0	70	30632
2026-01-23 19:23:36.78	238.43	7.25	-49.2	-68.0	3.8	8.47e-01	0	36	104	0	70	30619
2026-01-23 19:23:38.77	238.21	7.42	-49.2	-67.9	3.8	8.47e-01	0	36	104	0	70	30056
2026-01-23 19:23:40.75	237.99	7.59	-49.2	-66.5	3.8	8.47e-01	0	36	104	0	70	25837
2026-01-23 19:23:42.74	237.77	7.76	-49.2	-65.9	3.9	8.46e-01	0	36	104	0	70	23992
2026-01-23 19:23:44.73	237.54	7.93	-49.2	-66.9	3.8	8.47e-01	0	36	104	0	70	26973
2026-01-23 19:23:46.71	237.31	8.10	-49.2	-68.0	3.8	8.47e-01	0	36	104	0	70	30386
2026-01-23 19:23:48.70	237.08	8.28	-49.2	-66.3	3.8	8.46e-01	0	36	104	0	70	25087
2026-01-23 19:23:50.69	236.84	8.46	-49.1	-65.4	4.0	8.45e-01	0	36	0	0	70	22598
2026-01-23 19:23:52.67	236.60	8.64	-48.9	-60.9	6.1	7.57e-01	0	36	0	0	69	14326
2026-01-23 19:23:54.66	236.36	8.82	-47.7	-55.0	11.8	9.93e-02	0	36	0	0	67	8110
2026-01-23 19:23:56.65	236.10	9.00	-46.8	-52.3	14.7	1.02e-03	0	36	0	0	65	6663
2026-01-23 19:23:58.64	235.85	9.18	-47.7	-54.5	12.0	7.06e-02	0	37	0	0	67	7692
2026-01-23 19:24:00.69	235.58	9.37	-43.7	-46.7	20.1	7.20e-04	0	36	0	0	59	4973
2026-01-23 19:24:02.69	235.32	9.56	-48.1	-56.1	10.5	1.25e-05	0	37	0	0	67	9227
2026-01-23 19:24:04.78	235.03	9.76	-47.8	-54.9	12.2	1.25e-03	0	37	0	0	67	8019
2026-01-23 19:24:07.04	234.72	9.97	-47.6	-54.4	12.6	6.43e-04	0	37	0	0	67	7569
2026-01-23 19:24:09.02	234.44	10.16	-47.6	-54.5	12.5	2.04e-04	0	37	0	0	66	8137
2026-01-23 19:24:11.28	234.12	10.38	-47.3	-53.5	13.4	2.57e-04	0	37	0	0	66	7266
2026-01-23 19:24:13.26	233.83	10.58	-47.0	-52.7	14.2	9.10e-06	0	37	0	0	65	6989
2026-01-23 19:24:15.25	233.54	10.78	-46.4	-51.4	15.5	0.00e+00	0	37	0	0	64	6406
2026-01-23 19:24:17.24	233.23	10.98	-46.1	-50.7	16.4	0.00e+00	0	37	0	0	64	5872
2026-01-23 19:24:19.23	232.93	11.18	-45.9	-50.1	17.0	0.00e+00	0	37	0	0	63	5851
2026-01-23 19:24:21.19	232.62	11.38	-45.3	-49.1	17.9	0.00e+00	0	37	0	0	62	5508
2026-01-23 19:24:23.18	232.30	11.58	-45.3	-49.1	18.1	0.00e+00	0	37	0	0	61	5841
2026-01-23 19:24:25.17	231.98	11.79	-44.9	-48.5	18.7	0.00e+00	0	37	0	0	61	5404
2026-01-23 19:24:27.16	231.65	12.00	-44.1	-47.4	19.7	0.00e+00	0	37	0	0	60	5057
2026-01-23 19:24:29.15	231.31	12.21	-43.8	-46.9	20.1	0.00e+00	0	37	0	0	59	5057
2026-01-23 19:24:31.14	230.96	12.42	-43.9	-46.9	20.2	0.00e+00	0	37	0	0	59	5098
2026-01-23 19:24:33.13	230.61	12.64	-43.3	-46.2	20.8	0.00e+00	0	37	0	0	58	4965
2026-01-23 19:24:35.13	230.26	12.86	-42.7	-45.3	21.8	0.00e+00	0	37	0	0	57	4755
2026-01-23 19:24:37.17	229.88	13.08	-43.2	-46.0	21.2	0.00e+00	0	37	0	0	57	5129
2026-01-23 19:24:39.16	229.51	13.30	-42.6	-45.3	21.5	0.00e+00	0	37	0	0	57	4723
2026-01-23 19:24:41.15	229.13	13.52	-42.0	-44.5	22.3	0.00e+00	0	37	0	0	55	4862
2026-01-23 19:24:43.14	228.74	13.75	-42.3	-44.9	22.1	0.00e+00	0	37	0	0	55	5062
2026-01-23 19:24:45.13	228.35	13.97	-41.2	-43.6	23.1	0.00e+00	0	37	0	0	54	4630
2026-01-23 19:24:47.31	227.91	14.22	-40.8	-43.1	23.8	0.00e+00	0	37	0	0	53	4626
2026-01-23 19:24:49.59	227.44	14.49	-40.4	-42.7	24.1	0.00e+00	0	37	0	0	52	4685
2026-01-23 19:24:51.86	226.96	14.76	-40.0	-42.2	24.7	0.00e+00	0	37	0	0	51	4676
2026-01-23 19:24:54.12	226.47	15.02	-39.3	-41.4	25.5	0.00e+00	0	37	0	0	50	4501
2026-01-23 19:24:56.40	225.96	15.30	-38.4	-40.4	26.3	0.00e+00	0	37	0	0	48	4526
2026-01-23 19:24:58.67	225.45	15.57	-38.1	-40.1	26.6	0.00e+00	0	37	0	0	48	4348
2026-01-23 19:25:01.13	224.87	15.87	-38.1	-40.1	26.4	0.00e+00	0	37	0	0	48	4378
2026-01-23 19:25:03.55	224.30	16.17	-38.1	-40.1	26.6	0.00e+00	0	37	0	0	47	4625
2026-01-23 19:25:05.54	223.81	16.41	-38.1	-40.2	26.5	0.00e+00	0	37	0	0	47	4663
2026-01-23 19:25:07.54	223.31	16.66	-38.1	-40.1	26.6	0.00e+00	0	37	0	0	47	4616
2026-01-23 19:25:09.56	222.80	16.92	-37.8	-39.8	26.8	0.00e+00	0	37	0	0	47	4492
2026-01-23 19:25:11.57	222.27	17.17	-37.7	-39.7	26.9	0.00e+00	0	37	0	0	47	4398
2026-01-23 19:25:13.57	221.74	17.43	-37.6	-39.6	26.9	0.00e+00	0	37	0	0	47	4358
2026-01-23 19:25:15.58	221.20	17.69	-37.7	-39.7	26.9	0.00e+00	0	37	0	0	47	4393
2026-01-23 19:25:17.57	220.64	17.94	-37.9	-39.9	26.8	0.00e+00	0	37	0	0	47	4504
2026-01-23 19:25:19.59	220.07	18.21	-37.5	-39.5	27.0	0.00e+00	0	37	0	0	47	4310
2026-01-23 19:25:21.66	219.47	18.48	-37.4	-39.4	27.1	0.00e+00	0	37	0	0	46	4522
2026-01-23 19:25:23.87	218.82	18.77	-37.3	-39.2	27.3	0.00e+00	0	37	0	0	46	4439
2026-01-23 19:25:25.88	218.21	19.03	-37.7	-39.6	26.9	0.00e+00	0	37	0	0	46	4651
2026-01-23 19:25:27.88	217.59	19.30	-37.7	-39.7	26.9	0.00e+00	0	37	0	0	46	4675
2026-01-23 19:25:29.90	216.95	19.57	-37.4	-39.4	27.1	0.00e+00	0	37	0	0	46	4521
2026-01-23 19:25:31.89	216.31	19.83	-37.0	-38.9	27.6	0.00e+00	0	37	0	0	46	4270
2026-01-23 19:25:33.89	215.65	20.10	-36.7	-38.6	27.8	0.00e+00	0	37	0	0	45	4371
2026-01-23 19:25:35.88	214.98	20.37	-36.8	-38.8	27.6	0.00e+00	0	37	0	0	45	4451
2026-01-23 19:25:37.89	214.29	20.64	-37.1	-39.1	27.4	0.00e+00	0	37	0	0	45	4608
2026-01-23 19:25:39.89	213.59	20.90	-37.3	-39.3	27.3	0.00e+00	0	37	0	0	45	4743
2026-01-23 19:25:41.96	212.84	21.18	-37.3	-39.2	27.3	0.00e+00	0	37	0	0	45	4682
2026-01-23 19:25:43.95	212.11	21.45	-37.0	-38.9	27.6	0.00e+00	0	37	0	0	45	4531
2026-01-23 19:25:45.94	211.37	21.72	-36.9	-38.9	27.6	0.00e+00	0	37	0	0	45	4509
2026-01-23 19:25:47.93	210.61	21.98	-36.4	-38.3	28.1	0.00e+00	0	37	0	0	44	4459
2026-01-23 19:25:49.93	209.83	22.25	-36.4	-38.3	28.0	0.00e+00	0	37	0	0	44	4460
2026-01-23 19:25:52.11	208.96	22.54	-36.4	-38.3	28.0	0.00e+00	0	37	0	0	44	4487
2026-01-23 19:25:54.18	208.12	22.81	-36.4	-38.3	28.0	0.00e+00	0	37	0	0	44	4488
2026-01-23 19:25:56.42	207.19	23.10	-36.3	-38.2	28.1	0.00e+00	0	37	0	0	44	4433
2026-01-23 19:25:58.44	206.33	23.36	-36.4	-38.3	28.1	0.00e+00	0	37	0	0	44	4447
2026-01-23 19:26:00.44	205.47	23.62	-36.5	-38.4	28.1	0.00e+00	0	37	0	0	44	4500
2026-01-23 19:26:02.44	204.59	23.87	-36.3	-38.2	28.2	0.00e+00	0	37	0	0	44	4427
2026-01-23 19:26:04.46	203.68	24.13	-36.2	-38.1	28.1	0.00e+00	0	37	0	0	44	4359
2026-01-23 19:26:06.47	202.76	24.37	-36.2	-38.1	28.3	0.00e+00	0	37	0	0	44	4353
2026-01-23 19:26:08.56	201.78	24.63	-36.1	-38.0	28.3	0.00e+00	0	37	0	0	44	4300
2026-01-23 19:26:10.55	200.84	24.86	-35.8	-37.6	28.3	0.00e+00	0	37	0	0	43	4382
2026-01-23 19:26:12.54	199.88	25.09	-35.7	-37.6	28.5	0.00e+00	0	37	0	0	43	4347
2026-01-23 19:26:14.53	198.90	25.32	-35.6	-37.5	28.5	0.00e+00	0	37	0	0	43	4300
2026-01-23 19:26:16.52	197.90	25.54	-35.6	-37.4	28.4	0.00e+00	0	37	0	0	43	4277
2026-01-23 19:26:18.51	196.89	25.76	-35.4	-37.3	28.7	0.00e+00	0	37	0	0	42	4463
2026-01-23 19:26:20.50	195.87	25.96	-35.4	-37.2	28.7	0.00e+00	0	37	0	0	42	4418
2026-01-23 19:26:22.49	194.83	26.17	-35.3	-37.2	28.8	0.00e+00	0	37	0	0	42	4404
2026-01-23 19:26:24.48	193.77	26.36	-35.4	-37.3	28.7	0.00e+00	0	37	0	0	42	4448
2026-01-23 19:26:26.61	192.63	26.56	-35.0	-36.8	29.0	0.00e+00	0	37	0	0	42	4219
2026-01-23 19:26:28.65	191.51	26.74	-35.1	-36.9	29.0	0.00e+00	0	38	0	0	41	4540
2026-01-23 19:26:30.75	190.35	26.92	-35.0	-36.9	29.0	0.00e+00	0	37	0	0	41	4512
2026-01-23 19:26:32.74	189.24	27.07	-35.1	-37.0	28.7	0.00e+00	0	37	0	0	41	4574
2026-01-23 19:26:34.80	188.07	27.23	-34.9	-36.7	28.7	0.00e+00	0	37	0	0	41	4431
2026-01-23 19:26:36.84	186.91	27.37	-34.6	-36.5	29.2	0.00e+00	0	37	0	0	40	4558
2026-01-23 19:26:38.83	185.76	27.50	-34.3	-36.2	29.4	0.00e+00	0	37	0	0	40	4395
2026-01-23 19:26:40.81	184.61	27.61	-34.8	-36.6	29.1	0.00e+00	0	37	0	0	40	4643
2026-01-23 19:26:42.81	183.43	27.72	-35.0	-36.9	28.9	0.00e+00	0	37	0	0	40	4764
2026-01-23 19:26:44.86	182.22	27.82	-34.7	-36.5	29.1	0.00e+00	0	37	0	0	40	4579
2026-01-23 19:26:46.85	181.04	27.90	-34.8	-36.7	29.0	0.00e+00	0	37	0	0	40	4658
2026-01-23 19:26:48.84	179.85	27.97	-35.1	-36.9	28.8	0.00e+00	0	38	0	0	40	4809
2026-01-23 19:26:50.83	178.65	28.03	-34.8	-36.7	28.9	0.00e+00	0	37	0	0	40	4652
2026-01-23 19:26:52.82	177.45	28.08	-35.0	-36.8	28.8	0.00e+00	0	38	0	0	40	4754
2026-01-23 19:26:54.81	176.25	28.11	-35.0	-36.8	28.7	0.00e+00	0	37	0	0	40	4751
2026-01-23 19:26:56.80	175.05	28.13	-34.8	-36.6	28.8	0.00e+00	0	37	0	0	40	4646
2026-01-23 19:26:58.79	173.84	28.14	-34.7	-36.5	28.8	0.00e+00	0	37	0	0	40	4594
2026-01-23 19:27:00.87	172.58	28.14	-34.5	-36.3	29.0	0.00e+00	0	38	0	0	40	4470
2026-01-23 19:27:02.91	171.34	28.12	-34.6	-36.4	28.9	0.00e+00	0	38	0	0	40	4529
2026-01-23 19:27:04.90	170.14	28.09	-34.2	-36.0	29.2	0.00e+00	0	37	0	0	40	4308
2026-01-23 19:27:06.90	168.93	28.05	-34.3	-36.2	28.9	0.00e+00	0	37	0	0	40	4395
2026-01-23 19:27:08.89	167.73	27.99	-34.2	-36.0	29.2	0.00e+00	0	37	0	0	40	4329
2026-01-23 19:27:10.88	166.54	27.93	-34.4	-36.3	29.0	0.00e+00	0	37	0	0	40	4467
2026-01-23 19:27:12.87	165.36	27.85	-34.0	-35.9	29.2	0.00e+00	0	37	0	0	40	4254
2026-01-23 19:27:14.86	164.18	27.76	-33.6	-35.5	29.6	0.00e+00	0	38	0	0	39	4296
2026-01-23 19:27:16.94	162.95	27.65	-34.4	-36.2	28.8	0.00e+00	0	37	0	0	39	4705
2026-01-23 19:27:18.93	161.79	27.54	-34.2	-36.0	29.2	0.00e+00	0	38	0	0	39	4585
2026-01-23 19:27:21.00	160.60	27.41	-34.0	-35.8	29.3	0.00e+00	0	37	0	0	39	4471
2026-01-23 19:27:22.99	159.46	27.27	-34.2	-36.1	29.0	0.00e+00	0	37	0	0	39	4631
2026-01-23 19:27:24.98	158.33	27.13	-34.7	-36.6	28.6	0.00e+00	0	38	0	0	40	4634
2026-01-23 19:27:26.96	157.22	26.97	-34.7	-36.6	28.6	0.00e+00	0	37	0	0	40	4606
2026-01-23 19:27:28.95	156.11	26.81	-34.4	-36.2	28.8	0.00e+00	0	37	0	0	40	4433
2026-01-23 19:27:30.94	155.02	26.63	-34.8	-36.7	28.4	0.00e+00	0	37	0	0	40	4683
2026-01-23 19:27:32.95	153.93	26.45	-34.2	-36.0	29.0	0.00e+00	0	37	0	0	40	4334
2026-01-23 19:27:34.95	152.87	26.26	-33.7	-35.6	29.5	0.00e+00	0	37	0	0	39	4358
2026-01-23 19:27:36.94	151.82	26.06	-34.5	-36.4	28.9	0.00e+00	0	37	0	0	39	4762
2026-01-23 19:27:38.93	150.79	25.86	-35.1	-37.0	28.3	0.00e+00	0	38	0	0	40	4840
2026-01-23 19:27:40.93	149.77	25.65	-34.8	-36.8	28.3	0.00e+00	0	37	0	0	40	4723
2026-01-23 19:27:42.92	148.76	25.43	-34.5	-36.4	28.7	0.00e+00	0	37	0	0	40	4530
2026-01-23 19:27:44.91	147.78	25.20	-34.8	-36.7	28.5	0.00e+00	0	37	0	0	40	4680
2026-01-23 19:27:46.90	146.81	24.98	-34.7	-36.6	28.6	0.00e+00	0	37	0	0	40	4639
2026-01-23 19:27:48.89	145.86	24.74	-34.5	-36.4	28.7	0.00e+00	0	37	0	0	40	4502
2026-01-23 19:27:50.96	144.89	24.49	-34.7	-36.6	28.6	0.00e+00	0	38	0	0	40	4600
2026-01-23 19:27:52.95	143.97	24.25	-34.9	-36.8	28.5	0.00e+00	0	37	0	0	40	4722
2026-01-23 19:27:54.94	143.07	24.00	-35.0	-37.0	28.3	0.00e+00	0	38	0	0	40	4824
2026-01-23 19:27:56.93	142.18	23.75	-34.8	-36.7	28.5	0.00e+00	0	37	0	0	40	4693
2026-01-23 19:27:58.92	141.31	23.50	-34.6	-36.5	28.6	0.00e+00	0	37	0	0	40	4581
2026-01-23 19:28:00.91	140.46	23.24	-34.4	-36.3	28.9	0.00e+00	0	37	0	0	40	4448
2026-01-23 19:28:02.90	139.62	22.99	-35.0	-36.9	28.4	0.00e+00	0	38	0	0	40	4766
2026-01-23 19:28:04.88	138.81	22.73	-35.2	-37.1	28.2	0.00e+00	0	38	0	0	41	4636
2026-01-23 19:28:06.88	138.00	22.46	-35.0	-36.9	28.3	0.00e+00	0	37	0	0	41	4519
2026-01-23 19:28:08.90	137.20	22.20	-35.0	-36.9	28.3	0.00e+00	0	38	0	0	41	4527
2026-01-23 19:28:10.90	136.43	21.93	-35.4	-37.3	27.9	0.00e+00	0	38	0	0	41	4728
2026-01-23 19:28:12.89	135.67	21.66	-35.4	-37.3	28.0	0.00e+00	0	37	0	0	41	4755
2026-01-23 19:28:14.88	134.93	21.40	-35.4	-37.3	28.0	0.00e+00	0	37	0	0	41	4741
2026-01-23 19:28:16.87	134.20	21.13	-35.7	-37.7	27.7	0.00e+00	0	37	0	0	42	4652
2026-01-23 19:28:18.86	133.49	20.86	-35.5	-37.4	27.9	0.00e+00	0	37	0	0	42	4531
2026-01-23 19:28:20.85	132.80	20.60	-35.6	-37.5	27.8	0.00e+00	0	37	0	0	42	4576
2026-01-23 19:28:22.85	132.11	20.33	-35.8	-37.8	27.6	0.00e+00	0	38	0	0	42	4711
2026-01-23 19:28:24.84	131.45	20.06	-35.9	-37.9	27.5	0.00e+00	0	38	0	0	43	4502
2026-01-23 19:28:26.90	130.77	19.79	-35.5	-37.5	27.9	0.00e+00	0	37	0	0	43	4299
2026-01-23 19:28:28.96	130.11	19.51	-35.9	-37.8	27.5	0.00e+00	0	38	0	0	43	4481
2026-01-23 19:28:30.95	129.48	19.25	-35.7	-37.6	27.5	0.00e+00	0	37	0	0	43	4387
2026-01-23 19:28:33.00	128.85	18.98	-35.7	-37.6	27.7	0.00e+00	0	37	0	0	43	4380
2026-01-23 19:28:34.99	128.25	18.72	-35.9	-37.9	27.5	0.00e+00	0	38	0	0	43	4513
2026-01-23 19:28:36.98	127.67	18.46	-36.1	-38.0	27.3	0.00e+00	0	37	0	0	43	4593
2026-01-23 19:28:38.97	127.09	18.20	-36.0	-38.0	27.4	0.00e+00	0	38	0	0	43	4556
2026-01-23 19:28:40.96	126.53	17.94	-36.0	-37.9	27.4	0.00e+00	0	38	0	0	43	4532
2026-01-23 19:28:42.93	125.99	17.68	-36.2	-38.2	27.2	0.00e+00	0	38	0	0	43	4665
2026-01-23 19:28:44.92	125.45	17.43	-36.2	-38.2	27.2	0.00e+00	0	38	0	0	43	4684
2026-01-23 19:28:46.92	124.92	17.17	-36.5	-38.5	26.9	0.00e+00	0	38	0	0	43	4848
2026-01-23 19:28:48.91	124.40	16.92	-36.9	-39.0	26.6	0.00e+00	0	38	0	0	44	4826
2026-01-23 19:28:50.90	123.90	16.67	-36.9	-39.0	26.6	0.00e+00	0	38	0	0	44	4834
2026-01-23 19:28:52.88	123.40	16.42	-36.6	-38.6	27.0	0.00e+00	0	38	0	0	44	4613
2026-01-23 19:28:54.87	122.92	16.18	-36.8	-38.8	25.5	8.00e-06	0	37	0	0	44	4751
2026-01-23 19:28:56.89	122.43	15.93	-37.3	-39.4	26.0	2.63e-05	0	38	0	0	45	4767
2026-01-23 19:28:58.82	121.98	15.69	-37.3	-39.3	26.1	0.00e+00	0	37	0	0	45	4751
2026-01-23 19:29:00.81	121.53	15.45	-37.1	-39.2	25.7	0.00e+00	0	37	0	0	45	4677
2026-01-23 19:29:02.80	121.08	15.21	-37.1	-39.2	25.7	0.00e+00	0	37	0	0	45	4696
2026-01-23 19:29:04.78	120.64	14.98	-37.3	-39.4	25.8	0.00e+00	0	37	0	0	45	4768
2026-01-23 19:29:06.78	120.21	14.74	-37.6	-39.7	25.7	0.00e+00	0	37	0	0	45	4945
2026-01-23 19:29:08.76	119.79	14.51	-37.9	-40.0	25.4	0.00e+00	0	38	0	0	46	4850
2026-01-23 19:29:10.82	119.37	14.27	-38.0	-40.1	25.6	0.00e+00	0	38	0	0	46	4911
2026-01-23 19:29:12.82	118.96	14.04	-37.9	-40.0	25.7	0.00e+00	0	37	0	0	46	4836
2026-01-23 19:29:14.83	118.56	13.81	-37.8	-39.9	25.6	0.00e+00	0	38	0	0	46	4788
2026-01-23 19:29:16.89	118.16	13.58	-38.0	-40.1	25.5	0.00e+00	0	37	0	0	46	4913
2026-01-23 19:29:18.92	117.77	13.35	-38.3	-40.5	25.2	0.00e+00	0	38	0	0	47	4841
2026-01-23 19:29:20.90	117.40	13.13	-38.4	-40.6	25.1	0.00e+00	0	38	0	0	47	4885
2026-01-23 19:29:22.89	117.04	12.91	-38.3	-40.5	25.2	0.00e+00	0	38	0	0	47	4846
2026-01-23 19:29:24.88	116.68	12.70	-38.3	-40.5	25.2	0.00e+00	0	38	0	0	47	4842
2026-01-23 19:29:26.88	116.33	12.48	-38.5	-40.7	24.9	0.00e+00	0	37	0	0	47	4979
2026-01-23 19:29:28.87	115.98	12.27	-38.8	-41.0	24.7	0.00e+00	0	37	0	0	48	4820
2026-01-23 19:29:30.85	115.65	12.06	-38.7	-40.9	24.8	0.00e+00	0	37	0	0	48	4810
2026-01-23 19:29:32.84	115.31	11.85	-38.7	-40.9	24.7	0.00e+00	0	38	0	0	48	4800
2026-01-23 19:29:34.83	114.99	11.64	-38.8	-41.0	24.7	0.00e+00	0	38	0	0	48	4857
2026-01-23 19:29:36.83	114.67	11.44	-38.9	-41.1	24.6	0.00e+00	0	38	0	0	48	4900
2026-01-23 19:29:38.82	114.35	11.23	-39.0	-41.2	24.5	0.00e+00	0	38	0	0	48	4961
2026-01-23 19:29:40.89	114.03	11.02	-38.9	-41.1	24.6	0.00e+00	0	38	0	0	48	4883
2026-01-23 19:29:42.99	113.72	10.81	-39.1	-41.3	24.3	0.00e+00	0	38	0	0	48	5038
2026-01-23 19:29:44.98	113.42	10.62	-39.3	-41.6	24.0	0.00e+00	0	38	0	0	49	4891
2026-01-23 19:29:46.97	113.13	10.42	-39.7	-42.1	23.6	0.00e+00	0	37	0	0	49	5161
2026-01-23 19:29:49.06	112.83	10.22	-39.7	-42.1	23.6	0.00e+00	0	38	0	0	50	4895
2026-01-23 19:29:51.05	112.55	10.02	-39.6	-41.9	23.7	0.00e+00	0	38	0	0	50	4810
2026-01-23 19:29:53.04	112.28	9.83	-39.5	-41.8	23.8	0.00e+00	0	38	0	0	50	4751
2026-01-23 19:29:55.03	112.01	9.64	-39.5	-41.9	23.8	0.00e+00	0	38	0	0	50	4765
2026-01-23 19:29:57.02	111.74	9.46	-39.7	-42.1	23.6	0.00e+00	0	38	0	0	50	4894
2026-01-23 19:29:59.01	111.48	9.27	-40.0	-42.4	23.3	0.00e+00	0	38	0	0	50	5069
2026-01-23 19:30:01.01	111.22	9.09	-40.3	-42.8	22.9	0.00e+00	0	37	0	0	51	5034
2026-01-23 19:30:02.99	110.97	8.91	-48.3	-66.4	3.9	4.49e-01	0	38	104	0	67	30286
2026-01-23 19:30:04.98	110.72	8.72	-48.6	-67.4	3.8	8.47e-01	0	38	104	0	67	33783
2026-01-23 19:30:06.97	110.48	8.55	-48.6	-67.5	3.8	8.48e-01	0	38	104	0	67	34212
2026-01-23 19:30:08.95	110.24	8.37	-48.8	-67.7	3.8	8.46e-01	0	38	104	0	68	33195
2026-01-23 19:30:10.94	110.01	8.19	-48.5	-67.7	3.8	8.47e-01	0	38	104	0	68	33266
2026-01-23 19:30:12.93	109.78	8.02	-48.6	-67.8	3.8	8.46e-01	0	37	104	0	68	33426
2026-01-23 19:30:14.91	109.55	7.85	-48.6	-67.8	3.8	8.47e-01	0	38	104	0	68	33529
2026-01-23 19:30:16.90	109.33	7.68	-48.8	-67.8	3.8	8.47e-01	0	38	104	0	68	33679
2026-01-23 19:30:18.89	109.11	7.50	-48.7	-67.9	3.8	8.47e-01	0	38	104	0	68	33913
2026-01-23 19:30:20.88	108.89	7.34	-48.8	-67.9	3.8	8.47e-01	0	38	104	0	68	34068
2026-01-23 19:30:22.86	108.68	7.17	-49.0	-67.9	3.8	8.47e-01	0	38	104	0	68	34036
2026-01-23 19:30:24.85	108.47	7.00	-49.0	-67.9	3.8	8.47e-01	0	38	104	0	68	33975
2026-01-23 19:30:26.83	108.26	6.84	-48.9	-67.9	3.8	8.46e-01	0	38	104	0	68	34023
2026-01-23 19:30:28.82	108.06	6.68	-49.0	-68.0	3.8	8.47e-01	0	38	104	0	68	34104
2026-01-23 19:30:30.81	107.86	6.51	-49.0	-68.0	3.8	8.47e-01	0	38	104	0	68	34087
2026-01-23 19:30:32.79	107.67	6.35	-49.0	-67.9	3.8	8.47e-01	0	38	104	0	68	34076
2026-01-23 19:30:34.78	107.47	6.20	-49.0	-67.9	3.8	8.47e-01	0	38	104	0	68	33973
2026-01-23 19:30:36.77	107.28	6.04	-49.0	-67.9	3.8	8.48e-01	0	38	104	0	68	33934
2026-01-23 19:30:38.76	107.09	5.88	-48.9	-67.9	3.8	8.47e-01	0	38	104	0	68	33959
2026-01-23 19:30:40.74	106.91	5.73	-48.9	-67.9	3.8	8.47e-01	0	38	104	0	68	33970
2026-01-23 19:30:42.73	106.73	5.57	-48.9	-67.9	3.8	8.47e-01	0	38	104	0	68	34000
2026-01-23 19:30:44.71	106.55	5.42	-48.9	-68.0	3.8	8.47e-01	0	38	104	0	68	34097
2026-01-23 19:30:46.70	106.37	5.27	-48.9	-67.9	3.8	8.47e-01	0	38	104	0	68	33984
2026-01-23 19:30:48.69	106.20	5.11	-48.9	-67.9	3.8	8.47e-01	0	38	104	0	68	33994
2026-01-23 19:30:50.68	106.03	4.96	-48.9	-67.9	3.8	8.47e-01	0	38	104	0	68	33997

#Closed at: 2026-01-23 19:30:51
#Recorded file [0 MB]: D:/Data/31040_260123_222308.dat