passes_logs/2026/01/23/T1/T1__20260123_094617_NOAA_21_JPSS-2_rec.log

#Pass ID: 20260123_094617_NOAA 21 (JPSS-2)
#Satellite: NOAA 21 (JPSS-2)
#Configuration: NOAA 21
#almurnet v.1.7.20251203
#Start time: 2026-01-23 09:46:18

#Version: 2.0.20230620
#Station: T1
#Location: 37.570604 lon 55.790049 lat
#TLE: 1 54234U 22150A   26022.41365820  .00000211  00000+0  12084-3 0  9990
#TLE: 2 54234  98.7507 323.2240 0000658 234.5287 125.5828 14.19537645165864

#Time	Az	El	Level	Level2	SNR	BER	BlckErr	Temp	State	Recorded	gain1	gain2
2026-01-23 09:46:18.06	155.37	5.03	-48.5	-61.8	3.8	1.49e+00	0	40	0	0	68	16872
2026-01-23 09:46:21.05	155.35	5.25	-48.5	-61.6	3.8	1.49e+00	0	40	104	0	68	16502
2026-01-23 09:46:24.05	155.33	5.47	-48.5	-61.8	3.8	1.49e+00	0	40	104	0	68	16800
2026-01-23 09:46:27.04	155.31	5.68	-48.5	-62.0	3.8	1.49e+00	0	40	104	0	68	17132
2026-01-23 09:46:30.04	155.28	5.91	-48.5	-61.6	3.8	1.49e+00	0	40	104	0	68	16355
2026-01-23 09:46:33.04	155.26	6.13	-48.4	-60.8	3.8	1.49e+00	0	40	104	0	68	14919
2026-01-23 09:46:36.03	155.24	6.35	-48.4	-60.5	3.8	1.49e+00	0	40	104	0	68	14534
2026-01-23 09:46:39.03	155.21	6.58	-48.4	-61.1	3.8	1.49e+00	0	40	104	0	68	15492
2026-01-23 09:46:42.02	155.19	6.81	-48.5	-61.9	3.8	1.49e+00	0	40	104	0	68	16949
2026-01-23 09:46:45.02	155.17	7.04	-48.5	-61.9	3.8	1.49e+00	0	40	104	0	68	17007
2026-01-23 09:46:48.01	155.14	7.28	-48.4	-61.2	3.8	1.49e+00	0	40	104	0	68	15595
2026-01-23 09:46:51.01	155.11	7.51	-48.1	-58.2	4.3	1.47e+00	0	41	104	0	68	11054
2026-01-23 09:46:54.00	155.09	7.75	-47.0	-53.4	7.1	1.79e-01	0	40	0	0	66	7135
2026-01-23 09:46:57.00	155.06	7.99	-45.6	-49.8	10.8	4.23e-03	0	41	0	0	63	5634
2026-01-23 09:47:00.00	155.03	8.23	-44.4	-47.7	13.1	3.50e-05	0	41	0	0	60	5224
2026-01-23 09:47:02.99	155.01	8.48	-44.0	-47.1	13.6	1.06e-05	0	40	0	0	59	5166
2026-01-23 09:47:05.99	154.98	8.72	-44.6	-48.0	12.7	6.79e-05	0	40	0	0	59	5736
2026-01-23 09:47:08.98	154.95	8.97	-45.9	-50.4	10.2	4.01e-03	0	41	0	0	62	6413
2026-01-23 09:47:11.98	154.92	9.22	-44.1	-47.1	13.7	6.25e-05	0	41	0	0	60	4885
2026-01-23 09:47:14.96	154.89	9.48	-41.6	-43.8	16.8	0.00e+00	0	40	0	0	55	4455
2026-01-23 09:47:17.96	154.86	9.74	-41.2	-43.2	17.3	1.50e-06	0	40	0	0	54	4440
2026-01-23 09:47:20.95	154.82	9.99	-40.6	-42.5	18.0	0.00e+00	0	40	0	0	53	4328
2026-01-23 09:47:23.94	154.79	10.26	-40.4	-42.3	18.2	0.00e+00	0	40	0	0	52	4477
2026-01-23 09:47:26.93	154.76	10.52	-40.3	-42.2	18.3	0.00e+00	0	40	0	0	52	4431
2026-01-23 09:47:29.93	154.72	10.79	-40.3	-42.2	18.4	0.00e+00	0	40	0	0	52	4399
2026-01-23 09:47:32.92	154.69	11.06	-40.1	-42.0	18.5	0.00e+00	0	41	0	0	52	4306
2026-01-23 09:47:35.92	154.65	11.34	-40.1	-42.0	18.5	0.00e+00	0	40	0	0	52	4336
2026-01-23 09:47:38.91	154.62	11.61	-40.0	-41.9	18.7	0.00e+00	0	41	0	0	51	4528
2026-01-23 09:47:41.90	154.58	11.89	-39.9	-41.8	18.8	0.00e+00	0	41	0	0	51	4479
2026-01-23 09:47:44.90	154.54	12.18	-39.9	-41.7	18.9	0.00e+00	0	41	0	0	51	4433
2026-01-23 09:47:47.89	154.50	12.46	-39.8	-41.7	18.9	0.00e+00	0	40	0	0	51	4404
2026-01-23 09:47:50.88	154.46	12.75	-39.7	-41.5	19.1	0.00e+00	0	41	0	0	51	4315
2026-01-23 09:47:53.87	154.42	13.05	-39.7	-41.5	19.1	0.00e+00	0	41	0	0	51	4329
2026-01-23 09:47:56.86	154.38	13.34	-39.6	-41.4	19.2	0.00e+00	0	40	0	0	51	4277
2026-01-23 09:47:59.86	154.34	13.65	-39.6	-41.4	19.2	0.00e+00	0	41	0	0	51	4271
2026-01-23 09:48:02.85	154.29	13.95	-39.6	-41.5	19.2	0.00e+00	0	40	0	0	51	4300
2026-01-23 09:48:05.84	154.25	14.26	-39.6	-41.5	19.2	0.00e+00	0	40	0	0	51	4297
2026-01-23 09:48:08.83	154.20	14.57	-39.5	-41.4	19.3	0.00e+00	0	40	0	0	51	4246
2026-01-23 09:48:11.80	154.16	14.88	-39.6	-41.4	19.2	0.00e+00	0	41	0	0	51	4289
2026-01-23 09:48:14.79	154.11	15.20	-39.6	-41.4	19.3	0.00e+00	0	41	0	0	51	4255
2026-01-23 09:48:17.79	154.06	15.53	-39.6	-41.5	19.2	0.00e+00	0	40	0	0	51	4292
2026-01-23 09:48:20.78	154.01	15.86	-39.7	-41.5	19.2	0.00e+00	0	41	0	0	51	4324
2026-01-23 09:48:23.78	153.95	16.19	-39.7	-41.5	19.2	0.00e+00	0	41	0	0	51	4334
2026-01-23 09:48:26.78	153.90	16.53	-39.9	-41.7	19.0	0.00e+00	0	41	0	0	51	4435
2026-01-23 09:48:29.77	153.84	16.88	-39.9	-41.8	19.0	0.00e+00	0	41	0	0	51	4450
2026-01-23 09:48:32.77	153.79	17.22	-39.9	-41.7	19.0	0.00e+00	0	41	0	0	51	4419
2026-01-23 09:48:35.76	153.73	17.58	-39.9	-41.8	18.9	0.00e+00	0	41	0	0	51	4444
2026-01-23 09:48:38.75	153.67	17.94	-40.0	-41.8	18.9	0.00e+00	0	41	0	0	51	4483
2026-01-23 09:48:41.74	153.61	18.30	-40.0	-41.8	18.9	0.00e+00	0	41	0	0	51	4462
2026-01-23 09:48:44.73	153.55	18.67	-40.1	-41.9	18.9	0.00e+00	0	41	0	0	51	4516
2026-01-23 09:48:47.73	153.48	19.04	-40.0	-41.9	18.9	0.00e+00	0	41	0	0	51	4512
2026-01-23 09:48:50.72	153.41	19.42	-39.9	-41.7	19.0	0.00e+00	0	41	0	0	51	4438
2026-01-23 09:48:53.72	153.34	19.81	-39.9	-41.7	19.1	0.00e+00	0	41	0	0	51	4408
2026-01-23 09:48:56.72	153.27	20.20	-39.8	-41.6	19.2	0.00e+00	0	41	0	0	51	4361
2026-01-23 09:48:59.71	153.20	20.60	-39.5	-41.3	19.5	0.00e+00	0	41	0	0	50	4445
2026-01-23 09:49:02.71	153.13	21.00	-39.4	-41.1	19.6	0.00e+00	0	41	0	0	50	4369
2026-01-23 09:49:05.71	153.05	21.42	-38.9	-40.6	20.0	0.00e+00	0	41	0	0	49	4386
2026-01-23 09:49:08.70	152.97	21.83	-38.7	-40.3	20.3	0.00e+00	0	41	0	0	49	4240
2026-01-23 09:49:11.70	152.89	22.26	-38.5	-40.2	20.5	0.00e+00	0	41	0	0	49	4153
2026-01-23 09:49:14.69	152.80	22.69	-38.3	-39.9	20.7	0.00e+00	0	41	0	0	48	4262
2026-01-23 09:49:17.69	152.72	23.13	-38.2	-39.9	20.8	0.00e+00	0	41	0	0	48	4246
2026-01-23 09:49:20.68	152.63	23.58	-38.2	-39.8	20.8	0.00e+00	0	41	0	0	48	4210
2026-01-23 09:49:23.67	152.54	24.03	-38.1	-39.7	20.8	0.00e+00	0	41	0	0	48	4193
2026-01-23 09:49:26.66	152.44	24.49	-38.2	-39.8	20.8	0.00e+00	0	41	0	0	48	4236
2026-01-23 09:49:29.65	152.34	24.96	-38.4	-40.1	20.6	0.00e+00	0	41	0	0	48	4362
2026-01-23 09:49:32.65	152.24	25.44	-38.6	-40.2	20.5	0.00e+00	0	41	0	0	48	4439
2026-01-23 09:49:35.64	152.13	25.93	-38.9	-40.6	20.1	0.00e+00	0	41	0	0	48	4640
2026-01-23 09:49:38.63	152.03	26.43	-39.1	-40.8	20.0	0.00e+00	0	41	0	0	48	4737
2026-01-23 09:49:41.62	151.91	26.93	-39.3	-41.0	19.8	0.00e+00	0	41	0	0	49	4589
2026-01-23 09:49:44.62	151.80	27.45	-39.4	-41.2	19.6	0.00e+00	0	41	0	0	49	4677
2026-01-23 09:49:47.60	151.68	27.97	-39.6	-41.5	19.4	0.00e+00	0	41	0	0	49	4825
2026-01-23 09:49:50.60	151.55	28.51	-39.8	-41.6	19.3	0.00e+00	0	41	0	0	50	4605
2026-01-23 09:49:53.60	151.42	29.05	-39.8	-41.7	19.2	0.00e+00	0	41	0	0	50	4652
2026-01-23 09:49:56.59	151.29	29.61	-39.6	-41.3	19.5	0.00e+00	0	41	0	0	50	4476
2026-01-23 09:49:59.57	151.15	30.17	-39.4	-41.1	19.7	0.00e+00	0	41	0	0	50	4365
2026-01-23 09:50:02.56	151.00	30.75	-38.9	-40.6	20.1	0.00e+00	0	41	0	0	49	4361
2026-01-23 09:50:05.56	150.85	31.34	-38.8	-40.5	20.2	0.00e+00	0	41	0	0	49	4314
2026-01-23 09:50:08.55	150.70	31.94	-38.9	-40.6	20.2	0.00e+00	0	41	0	0	49	4351
2026-01-23 09:50:11.54	150.54	32.55	-39.1	-40.8	19.9	0.00e+00	0	41	0	0	49	4480
2026-01-23 09:50:14.53	150.37	33.18	-39.3	-41.1	19.7	0.00e+00	0	41	0	0	49	4602
2026-01-23 09:50:17.53	150.19	33.82	-39.7	-41.4	19.4	0.00e+00	0	41	0	0	49	4797
2026-01-23 09:50:20.52	150.01	34.47	-40.0	-41.7	19.1	0.00e+00	0	41	0	0	50	4705
2026-01-23 09:50:23.51	149.82	35.13	-40.4	-42.2	18.7	0.00e+00	0	41	0	0	51	4686
2026-01-23 09:50:26.51	149.62	35.81	-40.6	-42.5	18.4	0.00e+00	0	41	0	0	52	4587
2026-01-23 09:50:29.50	149.41	36.51	-41.0	-42.9	18.0	0.00e+00	0	41	0	0	52	4788
2026-01-23 09:50:32.50	149.19	37.22	-41.0	-42.9	18.0	0.00e+00	0	41	0	0	52	4782
2026-01-23 09:50:35.49	148.96	37.94	-40.9	-42.9	18.1	0.00e+00	0	41	0	0	52	4769
2026-01-23 09:50:38.49	148.72	38.68	-40.6	-42.5	18.4	0.00e+00	0	41	0	0	52	4555
2026-01-23 09:50:41.48	148.47	39.43	-40.6	-42.4	18.4	0.00e+00	0	41	0	0	52	4542
2026-01-23 09:50:44.47	148.21	40.20	-40.6	-42.5	18.3	0.00e+00	0	41	0	0	52	4593
2026-01-23 09:50:47.46	147.93	40.99	-40.8	-42.7	18.2	0.00e+00	0	41	0	0	52	4687
2026-01-23 09:50:50.45	147.64	41.79	-41.2	-43.1	17.8	0.00e+00	0	41	0	0	52	4910
2026-01-23 09:50:53.45	147.33	42.61	-41.5	-43.5	17.3	0.00e+00	0	41	0	0	53	4860
2026-01-23 09:50:56.44	147.01	43.44	-41.9	-44.0	16.9	0.00e+00	0	41	0	0	54	4862
2026-01-23 09:50:59.43	146.67	44.30	-42.1	-44.2	16.8	0.00e+00	0	41	0	0	54	4956
2026-01-23 09:51:02.42	146.31	45.17	-41.9	-44.0	17.0	0.00e+00	0	41	0	0	54	4817
2026-01-23 09:51:05.42	145.93	46.06	-41.7	-43.7	17.2	0.00e+00	0	41	0	0	54	4694
2026-01-23 09:51:08.41	145.52	46.97	-41.2	-43.2	17.6	0.00e+00	0	41	0	0	54	4418
2026-01-23 09:51:11.40	145.09	47.90	-41.0	-42.9	18.0	0.00e+00	0	41	0	0	53	4526
2026-01-23 09:51:14.40	144.64	48.84	-40.8	-42.7	18.2	0.00e+00	0	41	0	0	53	4438
2026-01-23 09:51:17.39	144.15	49.81	-40.6	-42.5	18.3	0.00e+00	0	41	0	0	53	4328
2026-01-23 09:51:20.39	143.63	50.79	-40.3	-42.1	18.6	0.00e+00	0	41	0	0	52	4367
2026-01-23 09:51:23.39	143.07	51.79	-40.8	-42.7	18.2	0.00e+00	0	41	0	0	52	4668
2026-01-23 09:51:26.38	142.48	52.81	-40.4	-42.3	18.5	0.00e+00	0	41	0	0	52	4470
2026-01-23 09:51:29.37	141.84	53.85	-39.9	-41.6	19.2	0.00e+00	0	41	0	0	51	4378
2026-01-23 09:51:32.35	141.16	54.90	-39.7	-41.5	19.3	0.00e+00	0	41	0	0	51	4322
2026-01-23 09:51:35.34	140.42	55.96	-39.3	-41.0	19.8	0.00e+00	0	41	0	0	50	4323
2026-01-23 09:51:38.33	139.62	57.05	-38.7	-40.3	20.4	0.00e+00	0	41	0	0	49	4239
2026-01-23 09:51:41.32	138.75	58.15	-38.9	-40.6	19.9	0.00e+00	0	41	0	0	49	4374
2026-01-23 09:51:44.32	137.80	59.27	-38.7	-40.4	20.4	0.00e+00	0	41	0	0	49	4246
2026-01-23 09:51:47.31	136.78	60.40	-38.4	-40.0	20.7	0.00e+00	0	41	0	0	48	4317
2026-01-23 09:51:50.30	135.65	61.53	-38.7	-40.4	20.2	0.00e+00	0	41	0	0	48	4502
2026-01-23 09:51:53.29	134.42	62.68	-38.3	-39.9	20.8	0.00e+00	0	41	0	0	48	4268
2026-01-23 09:51:56.28	133.06	63.83	-37.7	-39.3	21.0	0.00e+00	0	41	0	0	47	4241
2026-01-23 09:51:59.28	131.55	65.00	-37.8	-39.4	20.9	0.00e+00	0	41	0	0	47	4274
2026-01-23 09:52:02.27	129.89	66.15	-38.3	-40.0	20.5	0.00e+00	0	41	0	0	47	4581
2026-01-23 09:52:05.26	128.04	67.31	-38.0	-39.6	20.9	0.00e+00	0	41	0	0	47	4368
2026-01-23 09:52:08.26	125.96	68.45	-37.3	-38.9	21.6	0.00e+00	0	41	0	0	46	4259
2026-01-23 09:52:11.25	123.63	69.58	-37.1	-38.7	21.7	0.00e+00	0	41	0	0	46	4168
2026-01-23 09:52:14.25	121.01	70.69	-37.2	-38.7	21.6	0.00e+00	0	41	0	0	46	4185
2026-01-23 09:52:17.23	118.07	71.77	-37.8	-39.5	20.7	0.00e+00	0	41	0	0	46	4549
2026-01-23 09:52:20.23	114.72	72.80	-37.9	-39.5	20.8	0.00e+00	0	41	0	0	46	4566
2026-01-23 09:52:23.23	110.93	73.79	-37.4	-39.0	21.4	0.00e+00	0	41	0	0	46	4294
2026-01-23 09:52:26.22	106.66	74.70	-37.6	-39.2	21.3	0.00e+00	0	41	0	0	46	4431
2026-01-23 09:52:29.22	101.84	75.52	-37.7	-39.3	21.0	0.00e+00	0	41	0	0	46	4493
2026-01-23 09:52:32.21	96.47	76.24	-37.5	-39.1	21.4	0.00e+00	0	41	0	0	46	4343
2026-01-23 09:52:35.21	90.53	76.83	-37.9	-39.6	21.0	0.00e+00	0	41	0	0	46	4628
2026-01-23 09:52:38.20	84.11	77.27	-37.6	-39.2	21.2	0.00e+00	0	41	0	0	46	4439
2026-01-23 09:52:41.20	77.29	77.55	-37.9	-39.5	20.6	0.00e+00	0	41	0	0	46	4591
2026-01-23 09:52:44.19	70.27	77.65	-38.3	-40.0	20.5	0.00e+00	0	41	0	0	47	4568
2026-01-23 09:52:47.18	63.25	77.57	-38.0	-39.6	20.9	0.00e+00	0	41	0	0	47	4385
2026-01-23 09:52:50.18	56.40	77.30	-38.0	-39.6	20.9	0.00e+00	0	41	0	0	47	4383
2026-01-23 09:52:53.17	49.95	76.88	-37.8	-39.4	20.8	0.00e+00	0	41	0	0	47	4254
2026-01-23 09:52:56.17	43.96	76.30	-38.2	-39.9	20.6	0.00e+00	0	41	0	0	47	4511
2026-01-23 09:52:59.17	38.54	75.59	-38.0	-39.7	21.1	0.00e+00	0	41	0	0	48	4146
2026-01-23 09:53:02.17	33.67	74.77	-37.9	-39.6	21.1	0.00e+00	0	41	0	0	47	4348
2026-01-23 09:53:05.16	29.36	73.87	-37.4	-39.0	20.9	0.00e+00	0	41	0	0	46	4313
2026-01-23 09:53:08.15	25.55	72.90	-38.0	-39.6	20.7	0.00e+00	0	41	0	0	46	4609
2026-01-23 09:53:11.15	22.17	71.86	-38.0	-39.6	20.5	0.00e+00	0	41	0	0	47	4364
2026-01-23 09:53:14.14	19.19	70.79	-38.0	-39.6	20.9	0.00e+00	0	41	0	0	47	4390
2026-01-23 09:53:17.13	16.55	69.69	-37.6	-39.2	20.6	0.00e+00	0	41	0	0	47	4185
2026-01-23 09:53:20.13	14.20	68.56	-37.3	-38.8	21.6	0.00e+00	0	41	0	0	45	4477
2026-01-23 09:53:23.11	12.11	67.43	-38.8	-40.5	19.8	0.00e+00	0	41	0	0	48	4557
2026-01-23 09:53:26.11	10.23	66.27	-37.8	-39.4	20.8	0.00e+00	0	41	0	0	47	4247
2026-01-23 09:53:29.10	8.56	65.12	-40.1	-42.0	19.1	0.00e+00	0	41	0	0	50	4855
2026-01-23 09:53:32.09	7.04	63.96	-38.0	-39.6	21.0	0.00e+00	0	41	0	0	48	4106
2026-01-23 09:53:35.08	5.67	62.81	-39.8	-41.6	19.4	0.00e+00	0	41	0	0	50	4625
2026-01-23 09:53:38.08	4.43	61.67	-39.2	-40.9	19.8	0.00e+00	0	41	0	0	50	4286
2026-01-23 09:53:41.07	3.29	60.53	-38.0	-39.6	20.9	0.00e+00	0	41	0	0	47	4373
2026-01-23 09:53:44.06	2.26	59.41	-40.0	-41.8	19.0	0.00e+00	0	41	0	0	50	4742
2026-01-23 09:53:47.06	1.31	58.29	-40.0	-41.9	18.7	0.00e+00	0	41	0	0	52	4266
2026-01-23 09:53:50.05	0.44	57.19	-38.9	-40.5	20.4	0.00e+00	0	41	0	0	49	4309
2026-01-23 09:53:53.05	359.63	56.10	-41.3	-43.4	17.7	0.00e+00	0	41	0	0	53	4775
2026-01-23 09:53:56.05	358.88	55.03	-39.7	-41.5	19.4	0.00e+00	0	41	0	0	51	4299
2026-01-23 09:53:59.04	358.19	53.98	-38.9	-40.5	20.2	0.00e+00	0	41	0	0	49	4331
2026-01-23 09:54:02.03	357.55	52.95	-40.8	-42.7	18.3	0.00e+00	0	41	0	0	52	4696
2026-01-23 09:54:05.02	356.96	51.93	-41.2	-43.1	17.6	0.00e+00	0	41	0	0	54	4377
2026-01-23 09:54:08.01	356.40	50.94	-40.3	-42.1	18.7	0.00e+00	0	41	0	0	52	4382
2026-01-23 09:54:11.01	355.88	49.95	-41.2	-43.2	17.7	0.00e+00	0	41	0	0	53	4691
2026-01-23 09:54:14.01	355.39	48.99	-41.5	-43.6	17.5	0.00e+00	0	41	0	0	53	4888
2026-01-23 09:54:17.00	354.93	48.05	-41.8	-43.9	17.3	0.00e+00	0	41	0	0	54	4775
2026-01-23 09:54:19.99	354.50	47.12	-40.8	-42.7	18.3	0.00e+00	0	41	0	0	53	4422
2026-01-23 09:54:22.98	354.10	46.22	-41.4	-43.4	17.7	0.00e+00	0	41	0	0	53	4785
2026-01-23 09:54:25.97	353.71	45.33	-41.7	-43.8	17.4	0.00e+00	0	41	0	0	54	4713
2026-01-23 09:54:28.97	353.35	44.46	-41.8	-44.0	17.1	0.00e+00	0	41	0	0	54	4835
2026-01-23 09:54:31.96	353.01	43.61	-43.4	-46.0	15.3	0.00e+00	0	41	0	0	57	5153
2026-01-23 09:54:34.95	352.69	42.77	-43.0	-45.4	15.9	0.00e+00	0	41	0	0	58	4524
2026-01-23 09:54:37.95	352.38	41.95	-41.7	-43.7	17.3	0.00e+00	0	41	0	0	55	4434
2026-01-23 09:54:40.95	352.09	41.15	-40.5	-42.4	18.6	0.00e+00	0	41	0	0	52	4508
2026-01-23 09:54:43.94	351.81	40.36	-41.4	-43.4	17.6	0.00e+00	0	41	0	0	53	4774
2026-01-23 09:54:46.93	351.55	39.60	-41.3	-43.2	17.7	0.00e+00	0	41	0	0	53	4686
2026-01-23 09:54:49.93	351.30	38.84	-41.4	-43.4	17.7	0.00e+00	0	41	0	0	53	4790
2026-01-23 09:54:52.93	351.06	38.10	-41.1	-43.1	18.0	0.00e+00	0	41	0	0	53	4644
2026-01-23 09:54:55.92	350.83	37.38	-40.8	-42.9	18.2	0.00e+00	0	41	0	0	53	4495
2026-01-23 09:54:58.91	350.61	36.68	-40.8	-42.8	18.2	0.00e+00	0	41	0	0	53	4479
2026-01-23 09:55:01.91	350.41	35.98	-40.2	-42.1	18.9	0.00e+00	0	41	0	0	52	4355
2026-01-23 09:55:04.89	350.21	35.31	-40.3	-42.2	18.8	0.00e+00	0	41	0	0	52	4424
2026-01-23 09:55:07.89	350.02	34.64	-40.0	-41.9	19.1	0.00e+00	0	41	0	0	52	4253
2026-01-23 09:55:10.88	349.83	33.99	-39.8	-41.6	19.4	0.00e+00	0	41	0	0	51	4364
2026-01-23 09:55:13.87	349.66	33.36	-39.4	-41.2	19.7	0.00e+00	0	41	0	0	50	4432
2026-01-23 09:55:16.87	349.49	32.73	-39.6	-41.4	19.4	0.00e+00	0	41	0	0	50	4542
2026-01-23 09:55:19.86	349.33	32.12	-39.9	-41.7	19.2	0.00e+00	0	41	0	0	50	4698
2026-01-23 09:55:22.85	349.17	31.52	-39.8	-41.6	19.3	0.00e+00	0	41	0	0	50	4649
2026-01-23 09:55:25.85	349.02	30.93	-39.6	-41.4	19.6	0.00e+00	0	41	0	0	50	4518
2026-01-23 09:55:28.84	348.88	30.36	-39.4	-41.2	19.8	0.00e+00	0	41	0	0	50	4411
2026-01-23 09:55:31.84	348.74	29.79	-39.3	-41.1	19.9	0.00e+00	0	41	0	0	50	4356
2026-01-23 09:55:34.83	348.61	29.23	-39.5	-41.3	19.7	0.00e+00	0	41	0	0	50	4460
2026-01-23 09:55:37.82	348.48	28.69	-39.5	-41.2	19.7	0.00e+00	0	41	0	0	50	4432
2026-01-23 09:55:40.81	348.36	28.16	-39.5	-41.3	19.5	0.00e+00	0	41	0	0	50	4472
2026-01-23 09:55:43.80	348.24	27.63	-39.3	-41.1	19.8	0.00e+00	0	41	0	0	50	4368
2026-01-23 09:55:46.79	348.12	27.12	-39.1	-40.8	20.0	0.00e+00	0	41	0	0	50	4234
2026-01-23 09:55:49.78	348.01	26.62	-38.9	-40.6	20.2	0.00e+00	0	41	0	0	49	4382
2026-01-23 09:55:52.77	347.91	26.12	-38.8	-40.5	20.3	0.00e+00	0	41	0	0	49	4317
2026-01-23 09:55:55.76	347.80	25.63	-38.8	-40.6	20.2	0.00e+00	0	41	0	0	49	4344
2026-01-23 09:55:58.75	347.70	25.16	-38.9	-40.6	20.2	0.00e+00	0	41	0	0	49	4375
2026-01-23 09:56:01.74	347.61	24.69	-38.9	-40.6	20.1	0.00e+00	0	41	0	0	49	4369
2026-01-23 09:56:04.74	347.51	24.22	-39.0	-40.7	20.0	0.00e+00	0	41	0	0	49	4415
2026-01-23 09:56:07.73	347.42	23.77	-39.1	-40.9	19.9	0.00e+00	0	41	0	0	49	4496
2026-01-23 09:56:10.73	347.33	23.32	-39.0	-40.8	19.9	0.00e+00	0	41	0	0	49	4484
2026-01-23 09:56:13.72	347.25	22.89	-38.8	-40.6	20.1	0.00e+00	0	41	0	0	49	4381
2026-01-23 09:56:16.71	347.17	22.46	-38.8	-40.5	20.2	0.00e+00	0	41	0	0	49	4326
2026-01-23 09:56:19.70	347.09	22.03	-38.7	-40.4	20.4	0.00e+00	0	41	0	0	49	4251
2026-01-23 09:56:22.70	347.01	21.61	-38.6	-40.3	20.5	0.00e+00	0	41	0	0	49	4219
2026-01-23 09:56:25.69	346.93	21.20	-38.7	-40.3	20.4	0.00e+00	0	41	0	0	49	4233
2026-01-23 09:56:28.67	346.86	20.80	-38.6	-40.3	20.4	0.00e+00	0	41	0	0	49	4214
2026-01-23 09:56:31.67	346.79	20.40	-38.7	-40.4	20.3	0.00e+00	0	41	0	0	49	4274
2026-01-23 09:56:34.66	346.72	20.01	-38.9	-40.5	20.2	0.00e+00	0	41	0	0	49	4334
2026-01-23 09:56:37.65	346.65	19.63	-39.0	-40.7	20.1	0.00e+00	0	41	0	0	49	4429
2026-01-23 09:56:40.65	346.59	19.25	-39.1	-40.8	20.0	0.00e+00	0	41	0	0	49	4487
2026-01-23 09:56:43.63	346.53	18.88	-39.2	-41.0	19.8	0.00e+00	0	41	0	0	49	4567
2026-01-23 09:56:46.62	346.47	18.51	-39.3	-41.0	19.7	0.00e+00	0	41	0	0	49	4596
2026-01-23 09:56:49.61	346.41	18.14	-39.4	-41.2	19.6	0.00e+00	0	41	0	0	49	4676
2026-01-23 09:56:52.60	346.35	17.79	-39.6	-41.4	19.4	0.00e+00	0	41	0	0	49	4798
2026-01-23 09:56:55.60	346.29	17.43	-39.7	-41.7	19.1	0.00e+00	0	41	0	0	50	4656
2026-01-23 09:56:58.59	346.24	17.09	-39.7	-41.7	19.1	0.00e+00	0	41	0	0	50	4704
2026-01-23 09:57:01.59	346.19	16.74	-39.8	-41.8	19.1	0.00e+00	0	41	0	0	50	4722
2026-01-23 09:57:04.59	346.13	16.40	-39.8	-41.7	19.1	0.00e+00	0	41	0	0	50	4695
2026-01-23 09:57:07.57	346.08	16.07	-39.9	-41.8	19.0	0.00e+00	0	41	0	0	50	4751
2026-01-23 09:57:10.56	346.04	15.74	-39.9	-41.8	19.0	0.00e+00	0	41	0	0	50	4740
2026-01-23 09:57:13.56	345.99	15.42	-39.8	-41.8	19.0	0.00e+00	0	41	0	0	50	4735
2026-01-23 09:57:16.54	345.94	15.10	-39.8	-41.8	19.0	0.00e+00	0	41	0	0	50	4744
2026-01-23 09:57:19.53	345.90	14.78	-39.8	-41.9	18.9	0.00e+00	0	41	0	0	50	4777
2026-01-23 09:57:22.52	345.85	14.47	-40.0	-42.1	18.7	0.00e+00	0	41	0	0	50	4880
2026-01-23 09:57:25.51	345.81	14.16	-40.2	-42.3	18.5	0.00e+00	0	41	0	0	51	4715
2026-01-23 09:57:28.50	345.77	13.86	-40.1	-42.1	18.7	0.00e+00	0	41	0	0	51	4613
2026-01-23 09:57:31.49	345.73	13.56	-40.1	-42.1	18.6	0.00e+00	0	41	0	0	51	4624
2026-01-23 09:57:34.48	345.69	13.26	-40.0	-42.1	18.6	0.00e+00	0	41	0	0	51	4631
2026-01-23 09:57:37.48	345.65	12.97	-40.1	-42.2	18.5	0.00e+00	0	41	0	0	51	4672
2026-01-23 09:57:40.48	345.61	12.68	-40.1	-42.1	18.5	0.00e+00	0	41	0	0	51	4650
2026-01-23 09:57:43.47	345.58	12.39	-40.2	-42.2	18.3	0.00e+00	0	41	0	0	51	4669
2026-01-23 09:57:46.46	345.54	12.11	-40.2	-42.2	18.5	0.00e+00	0	41	0	0	51	4664
2026-01-23 09:57:49.45	345.51	11.83	-40.2	-42.2	18.5	0.00e+00	0	41	0	0	51	4687
2026-01-23 09:57:52.44	345.47	11.55	-40.1	-42.2	18.5	0.00e+00	0	41	0	0	51	4701
2026-01-23 09:57:55.43	345.44	11.28	-40.0	-42.3	18.4	0.00e+00	0	41	0	0	51	4748
2026-01-23 09:57:58.42	345.41	11.01	-39.9	-42.4	18.3	0.00e+00	0	41	0	0	51	4761
2026-01-23 09:58:01.41	345.38	10.74	-39.9	-42.5	18.2	0.00e+00	0	41	0	0	51	4825
2026-01-23 09:58:04.40	345.35	10.48	-40.0	-42.6	18.1	0.00e+00	0	41	0	0	51	4882
2026-01-23 09:58:07.39	345.32	10.22	-40.1	-42.7	17.9	0.00e+00	0	41	0	0	51	4969
2026-01-23 09:58:10.38	345.29	9.96	-40.2	-42.8	17.8	0.00e+00	0	41	0	0	51	5027
2026-01-23 09:58:13.38	345.26	9.70	-40.1	-42.9	17.8	0.00e+00	0	41	0	0	51	5055
2026-01-23 09:58:16.37	345.23	9.45	-40.1	-43.1	17.5	0.00e+00	0	41	0	0	51	5203
2026-01-23 09:58:19.36	345.21	9.19	-40.1	-43.2	17.5	0.00e+00	0	41	0	0	51	5238
2026-01-23 09:58:22.36	345.18	8.95	-46.9	-61.8	3.8	1.49e+00	0	41	104	0	64	21201
2026-01-23 09:58:25.35	345.15	8.70	-49.2	-62.5	3.8	1.49e+00	0	41	104	0	69	17165
2026-01-23 09:58:28.35	345.13	8.45	-49.2	-62.7	3.8	1.49e+00	0	41	104	0	69	17577
2026-01-23 09:58:31.34	345.10	8.21	-49.7	-62.8	3.8	1.49e+00	0	41	104	0	70	16730
2026-01-23 09:58:34.33	345.08	7.97	-49.6	-62.8	3.8	1.49e+00	0	41	104	0	70	16749
2026-01-23 09:58:37.33	345.06	7.74	-49.5	-62.8	3.8	1.49e+00	0	41	104	0	70	16719
2026-01-23 09:58:40.32	345.04	7.50	-49.5	-62.8	3.8	1.49e+00	0	41	104	0	70	16700
2026-01-23 09:58:43.32	345.01	7.27	-49.8	-62.8	3.8	1.49e+00	0	41	104	0	70	16722
2026-01-23 09:58:46.31	344.99	7.04	-49.7	-62.7	3.8	1.49e+00	0	41	104	0	70	16633
2026-01-23 09:58:49.31	344.97	6.81	-49.5	-62.7	3.8	1.49e+00	0	41	104	0	70	16527
2026-01-23 09:58:52.29	344.95	6.58	-49.5	-62.6	3.8	1.49e+00	0	41	104	0	70	16490
2026-01-23 09:58:55.29	344.93	6.36	-49.5	-62.6	3.8	1.49e+00	0	41	104	0	70	16455
2026-01-23 09:58:58.28	344.91	6.13	-49.5	-62.6	3.8	1.49e+00	0	41	104	0	70	16419
2026-01-23 09:59:01.27	344.89	5.91	-49.4	-62.6	3.8	1.49e+00	0	41	104	0	70	16447
2026-01-23 09:59:04.26	344.88	5.69	-49.4	-62.6	3.8	1.49e+00	0	41	104	0	70	16454
2026-01-23 09:59:07.26	344.86	5.48	-49.4	-62.6	3.8	1.49e+00	0	41	104	0	70	16444
2026-01-23 09:59:10.26	344.84	5.26	-49.4	-62.6	3.8	1.49e+00	0	41	104	0	70	16421
2026-01-23 09:59:13.25	344.82	5.05	-49.4	-62.6	3.8	1.49e+00	0	41	104	0	70	16415

#Closed at: 2026-01-23 09:59:15
#Recorded file [0 MB]: D:/Data/31040_260123_124618.dat