passes_logs/2026/01/23/T1/T1__20260123_044654_FENGYUN_3E_rec.log

#Pass ID: 20260123_044654_FENGYUN 3E
#Satellite: FENGYUN 3E
#Configuration: FENGYUN 3E
#almurnet v.1.7.20251203
#Start time: 2026-01-23 04:46:54

#Version: 2.0.20230620
#Station: T1
#Location: 37.570604 lon 55.790049 lat
#TLE: 1 49008U 21062A   26022.47529509  .00000460  00000+0  23724-3 0  9995
#TLE: 2 49008  98.7486  27.5157 0002334 123.7692 236.3707 14.19888297235908

#Time	Az	El	Level	Level2	SNR	BER	BlckErr	Temp	State	Recorded	gain1	gain2
2026-01-23 04:46:54.81	11.33	5.00	-48.7	-60.2	3.8	8.45e-01	0	36	0	0	67	13827
2026-01-23 04:46:57.78	11.22	5.20	-45.8	-60.1	3.8	8.47e-01	0	36	104	0	61	19348
2026-01-23 04:47:00.76	11.10	5.41	-45.8	-60.1	3.8	8.47e-01	0	36	104	0	61	19300
2026-01-23 04:47:03.74	10.98	5.62	-45.8	-60.1	3.8	8.46e-01	0	36	104	0	61	19248
2026-01-23 04:47:06.73	10.86	5.83	-45.8	-60.0	3.8	8.46e-01	0	36	104	0	61	19071
2026-01-23 04:47:09.71	10.73	6.04	-45.8	-60.1	3.8	8.47e-01	0	36	104	0	61	19210
2026-01-23 04:47:12.69	10.61	6.25	-45.8	-60.1	3.8	8.46e-01	0	37	104	0	61	19214
2026-01-23 04:47:15.67	10.48	6.47	-45.8	-59.9	3.8	8.47e-01	0	37	104	0	61	18872
2026-01-23 04:47:18.65	10.35	6.69	-45.8	-59.1	3.8	8.45e-01	0	37	104	0	61	17125
2026-01-23 04:47:21.63	10.22	6.90	-45.7	-57.6	3.8	8.44e-01	0	37	104	0	61	14502
2026-01-23 04:47:24.61	10.08	7.12	-45.6	-56.6	4.2	8.37e-01	0	37	0	0	61	12879
2026-01-23 04:47:27.58	9.94	7.34	-45.6	-57.3	4.1	8.43e-01	0	37	0	0	61	13908
2026-01-23 04:47:30.57	9.81	7.57	-45.7	-59.0	3.8	8.45e-01	0	37	104	0	61	16909
2026-01-23 04:47:33.55	9.66	7.79	-45.8	-60.2	3.8	8.47e-01	0	37	104	0	61	19391
2026-01-23 04:47:36.53	9.52	8.02	-45.7	-57.7	4.0	8.45e-01	0	37	104	0	61	14632
2026-01-23 04:47:39.51	9.37	8.25	-44.6	-50.8	8.1	9.25e-02	0	37	0	8388608	60	7008
2026-01-23 04:47:42.49	9.23	8.48	-42.7	-45.8	13.2	4.80e-05	0	37	0	30408704	56	4982
2026-01-23 04:47:45.47	9.07	8.71	-40.9	-43.1	15.8	0.00e+00	0	38	0	52428800	52	4594
2026-01-23 04:47:48.45	8.92	8.95	-40.8	-42.9	16.1	0.00e+00	0	37	0	73400320	51	4749
2026-01-23 04:47:51.43	8.76	9.19	-43.0	-46.5	12.4	4.34e-05	0	37	0	95420416	55	5705
2026-01-23 04:47:54.42	8.60	9.43	-38.7	-40.1	18.7	0.00e+00	0	38	0	116391936	47	4320
2026-01-23 04:47:57.41	8.44	9.67	-38.3	-39.6	19.2	0.00e+00	0	37	0	137363456	47	4076
2026-01-23 04:48:00.47	8.27	9.92	-38.3	-39.6	19.1	0.00e+00	0	38	0	160432128	47	4084
2026-01-23 04:48:03.45	8.10	10.16	-38.0	-39.2	19.5	0.00e+00	0	38	0	181403648	46	4144
2026-01-23 04:48:06.44	7.93	10.41	-38.1	-39.4	19.4	0.00e+00	0	38	0	203423744	46	4199
2026-01-23 04:48:09.42	7.76	10.66	-38.0	-39.3	19.6	0.00e+00	0	38	0	224395264	46	4146
2026-01-23 04:48:12.39	7.58	10.91	-38.0	-39.2	19.6	0.00e+00	0	38	0	246415360	46	4117
2026-01-23 04:48:15.37	7.40	11.17	-37.9	-39.0	19.8	0.00e+00	0	38	0	267386880	46	4045
2026-01-23 04:48:18.45	7.21	11.43	-37.9	-39.0	19.8	0.00e+00	0	38	0	290455552	46	4034
2026-01-23 04:48:21.29	7.03	11.68	-37.9	-39.0	19.8	0.00e+00	0	38	0	310378496	46	4038
2026-01-23 04:48:24.42	6.83	11.95	-37.9	-39.0	19.8	0.00e+00	0	38	0	333447168	46	4027
2026-01-23 04:48:27.26	6.64	12.21	-37.7	-38.8	20.0	0.00e+00	0	38	0	353370112	46	3941
2026-01-23 04:48:30.39	6.43	12.49	-37.5	-38.6	20.2	0.00e+00	0	38	0	376438784	45	4081
2026-01-23 04:48:33.23	6.24	12.74	-37.6	-38.6	20.2	0.00e+00	0	38	0	396361728	45	4094
2026-01-23 04:48:36.45	6.02	13.04	-37.4	-38.4	20.4	0.00e+00	0	38	0	420478976	45	3989
2026-01-23 04:48:39.29	5.82	13.30	-37.6	-38.6	20.2	0.00e+00	0	38	0	440401920	45	4066
2026-01-23 04:48:42.42	5.59	13.59	-37.4	-38.4	20.4	0.00e+00	0	38	0	463470592	45	4002
2026-01-23 04:48:45.26	5.38	13.86	-37.3	-38.3	20.5	0.00e+00	0	38	0	483393536	45	3943
2026-01-23 04:48:48.38	5.15	14.15	-37.1	-38.1	20.7	0.00e+00	0	38	0	506462208	45	3851
2026-01-23 04:48:51.23	4.93	14.43	-37.2	-38.2	20.6	0.00e+00	0	38	0	526385152	44	4138
2026-01-23 04:48:54.43	4.68	14.74	-37.1	-38.1	20.8	0.00e+00	0	38	0	549453824	44	4092
2026-01-23 04:48:57.74	4.41	15.06	-37.0	-38.0	20.9	0.00e+00	0	38	0	573571072	44	4013
2026-01-23 04:49:00.59	4.18	15.34	-37.0	-38.0	20.8	0.00e+00	0	38	0	594542592	44	4038
2026-01-23 04:49:03.72	3.92	15.66	-36.7	-37.6	21.2	0.00e+00	0	38	0	616562688	44	3857
2026-01-23 04:49:06.64	3.67	15.95	-36.8	-37.7	21.2	0.00e+00	0	38	0	637534208	44	3898
2026-01-23 04:49:10.11	3.37	16.31	-36.4	-37.3	21.4	0.00e+00	0	38	0	662700032	43	3948
2026-01-23 04:49:13.19	3.09	16.63	-36.5	-37.4	21.3	0.00e+00	0	38	0	684720128	43	3980
2026-01-23 04:49:16.05	2.83	16.92	-36.4	-37.4	21.3	0.00e+00	0	38	0	705691648	43	3970
2026-01-23 04:49:19.17	2.54	17.25	-36.5	-37.4	21.3	0.00e+00	0	38	0	728760320	43	3973
2026-01-23 04:49:22.06	2.27	17.56	-36.4	-37.4	21.4	0.00e+00	0	38	0	749731840	43	3961
2026-01-23 04:49:25.60	1.92	17.95	-36.5	-37.4	21.4	0.00e+00	0	38	0	774897664	43	3980
2026-01-23 04:49:28.83	1.60	18.30	-36.3	-37.2	21.5	0.00e+00	0	38	0	797966336	43	3909
2026-01-23 04:49:31.82	1.29	18.63	-36.2	-37.1	21.6	0.00e+00	0	38	0	819986432	42	4068
2026-01-23 04:49:34.80	0.98	18.96	-35.7	-36.6	22.2	0.00e+00	0	38	0	840957952	42	3830
2026-01-23 04:49:37.78	0.66	19.30	-35.6	-36.4	22.3	0.00e+00	0	38	0	862978048	41	3997
2026-01-23 04:49:40.77	0.33	19.64	-35.5	-36.4	22.3	0.00e+00	0	38	0	883949568	40	4223
2026-01-23 04:49:43.79	359.99	19.99	-35.3	-36.1	22.5	0.00e+00	0	38	0	905969664	40	4093
2026-01-23 04:49:47.10	359.61	20.38	-35.3	-36.1	22.5	0.00e+00	0	38	0	930086912	40	4080
2026-01-23 04:49:49.82	359.29	20.70	-35.4	-36.3	22.4	0.00e+00	0	38	0	950009856	40	4162
2026-01-23 04:49:53.09	358.90	21.09	-35.4	-36.3	22.4	0.00e+00	0	38	0	973078528	41	3923
2026-01-23 04:49:55.92	358.55	21.43	-35.1	-36.0	22.7	0.00e+00	0	38	0	994050048	40	4011
2026-01-23 04:49:59.05	358.15	21.82	-34.9	-35.7	22.9	0.00e+00	0	38	0	1016070144	40	3896
2026-01-23 04:50:01.89	357.78	22.17	-34.8	-35.6	23.1	0.00e+00	0	38	0	1037041664	39	4076
2026-01-23 04:50:05.01	357.37	22.55	-34.8	-35.6	23.1	0.00e+00	0	38	0	1059061760	39	4088
2026-01-23 04:50:07.95	356.97	22.93	-34.9	-35.8	22.9	0.00e+00	0	38	0	1081081856	39	4146
2026-01-23 04:50:11.08	356.53	23.32	-35.3	-36.1	22.6	0.00e+00	0	38	0	1103101952	39	4327
2026-01-23 04:50:13.99	356.11	23.70	-35.4	-36.2	22.5	0.00e+00	0	38	0	1124073472	40	4145
2026-01-23 04:50:16.97	355.67	24.09	-35.1	-36.0	22.7	0.00e+00	0	38	0	1146093568	40	4014
2026-01-23 04:50:19.96	355.22	24.48	-35.3	-36.1	22.6	0.00e+00	0	38	0	1167065088	40	4096
2026-01-23 04:50:22.94	354.76	24.88	-35.1	-35.9	22.8	0.00e+00	0	38	0	1188036608	40	3999
2026-01-23 04:50:25.92	354.29	25.28	-35.3	-36.1	22.6	0.00e+00	0	38	0	1210056704	40	4097
2026-01-23 04:50:28.91	353.80	25.68	-35.2	-36.1	22.7	0.00e+00	0	38	0	1232076800	40	4065
2026-01-23 04:50:31.89	353.30	26.09	-35.3	-36.2	22.6	0.00e+00	0	38	0	1253048320	40	4111
2026-01-23 04:50:34.92	352.78	26.51	-35.2	-36.0	22.7	0.00e+00	0	38	0	1275068416	40	4044
2026-01-23 04:50:37.99	352.24	26.93	-35.0	-35.8	22.9	0.00e+00	0	38	0	1297088512	40	3947
2026-01-23 04:50:40.97	351.70	27.35	-35.1	-36.0	22.8	0.00e+00	0	38	0	1319108608	40	4016
2026-01-23 04:50:43.96	351.14	27.77	-35.1	-36.0	22.7	0.00e+00	0	38	0	1340080128	40	4026
2026-01-23 04:50:46.94	350.57	28.20	-34.9	-35.7	23.0	0.00e+00	0	38	0	1362100224	40	3901
2026-01-23 04:50:49.92	349.98	28.63	-34.9	-35.8	23.0	0.00e+00	0	38	0	1383071744	39	4158
2026-01-23 04:50:52.94	349.37	29.07	-34.6	-35.4	23.3	0.00e+00	0	38	0	1405091840	39	3994
2026-01-23 04:50:55.92	348.75	29.50	-34.5	-35.4	23.4	0.00e+00	0	38	0	1427111936	39	3969
2026-01-23 04:50:58.90	348.12	29.94	-34.6	-35.5	23.3	0.00e+00	0	38	0	1448083456	39	4005
2026-01-23 04:51:01.92	347.45	30.39	-34.6	-35.4	23.3	0.00e+00	0	38	0	1470103552	39	4000
2026-01-23 04:51:04.90	346.78	30.83	-34.6	-35.4	23.4	0.00e+00	0	38	0	1492123648	39	3989
2026-01-23 04:51:07.89	346.08	31.28	-34.9	-35.8	23.0	0.00e+00	0	38	0	1513095168	39	4158
2026-01-23 04:51:10.87	345.37	31.72	-34.8	-35.7	23.1	0.00e+00	0	38	0	1535115264	40	3888
2026-01-23 04:51:13.86	344.64	32.17	-34.9	-35.8	23.0	0.00e+00	0	38	0	1556086784	40	3936
2026-01-23 04:51:16.85	343.88	32.63	-34.8	-35.7	23.1	0.00e+00	0	38	0	1578106880	40	3898
2026-01-23 04:51:19.83	343.11	33.08	-34.5	-35.3	23.4	0.00e+00	0	38	0	1599078400	39	3957
2026-01-23 04:51:22.82	342.31	33.53	-34.7	-35.5	23.3	0.00e+00	0	38	0	1621098496	39	4047
2026-01-23 04:51:25.81	341.48	33.99	-34.4	-35.2	23.5	0.00e+00	0	38	0	1643118592	39	3893
2026-01-23 04:51:28.81	340.64	34.44	-34.4	-35.2	23.6	0.00e+00	0	38	0	1664090112	39	3887
2026-01-23 04:51:31.79	339.77	34.89	-34.4	-35.2	23.5	0.00e+00	0	38	0	1685061632	39	3887
2026-01-23 04:51:34.77	338.88	35.34	-34.4	-35.2	23.5	0.00e+00	0	38	0	1707081728	39	3911
2026-01-23 04:51:37.76	337.96	35.79	-34.2	-35.1	23.7	0.00e+00	0	38	0	1729101824	39	3827
2026-01-23 04:51:40.71	337.02	36.23	-34.2	-35.0	23.8	0.00e+00	0	38	0	1750073344	39	3802
2026-01-23 04:51:43.99	335.95	36.72	-34.9	-35.7	23.1	0.00e+00	0	38	0	1774190592	39	4128
2026-01-23 04:51:46.71	335.04	37.12	-35.1	-35.9	22.9	0.00e+00	0	38	0	1793064960	39	4232
2026-01-23 04:51:49.98	333.92	37.60	-34.9	-35.7	23.1	0.00e+00	0	38	0	1817182208	39	4142
2026-01-23 04:51:52.72	332.95	37.99	-34.8	-35.6	23.2	0.00e+00	0	38	0	1837105152	39	4077
2026-01-23 04:51:55.99	331.76	38.46	-34.8	-35.6	23.2	0.00e+00	0	38	0	1860173824	39	4093
2026-01-23 04:51:58.92	330.67	38.87	-34.8	-35.7	23.2	0.00e+00	0	38	0	1881145344	39	4103
2026-01-23 04:52:02.19	329.42	39.32	-35.0	-35.9	22.9	0.00e+00	0	38	0	1905262592	40	3973
2026-01-23 04:52:04.89	328.36	39.68	-35.1	-36.0	22.9	0.00e+00	0	38	0	1924136960	40	4010
2026-01-23 04:52:08.16	327.04	40.11	-35.1	-36.0	22.8	0.00e+00	0	38	0	1948254208	40	4027
2026-01-23 04:52:11.08	325.84	40.48	-35.1	-35.9	22.9	0.00e+00	0	39	0	1969225728	40	4004
2026-01-23 04:52:14.07	324.57	40.85	-35.0	-35.8	23.0	0.00e+00	0	38	0	1991245824	40	3935
2026-01-23 04:52:16.99	323.31	41.20	-34.6	-35.4	23.3	0.00e+00	0	38	0	2012217344	40	3771
2026-01-23 04:52:20.12	321.93	41.56	-34.7	-35.5	23.3	0.00e+00	0	38	0	2034237440	39	4044
2026-01-23 04:52:23.18	320.55	41.89	-34.7	-35.6	23.2	0.00e+00	0	38	0	2056257536	39	4059
2026-01-23 04:52:26.17	319.17	42.21	-35.0	-35.8	23.0	0.00e+00	0	38	0	2078277632	39	4186
2026-01-23 04:52:29.16	317.77	42.50	-35.0	-35.9	23.0	0.00e+00	0	38	0	2100297728	39	4195
2026-01-23 04:52:32.19	316.32	42.79	-34.6	-35.4	23.4	0.00e+00	0	38	0	2121269248	39	3997
2026-01-23 04:52:35.32	314.80	43.06	-34.7	-35.5	23.3	0.00e+00	0	38	0	2144337920	39	4040
2026-01-23 04:52:38.41	313.27	43.31	-34.8	-35.7	23.2	0.00e+00	0	38	0	2166358016	39	4105
2026-01-23 04:52:41.33	311.81	43.52	-34.8	-35.6	23.3	0.00e+00	0	38	0	2187329536	39	4067
2026-01-23 04:52:44.32	310.29	43.72	-35.0	-35.8	23.1	0.00e+00	0	38	0	2209349632	39	4167
2026-01-23 04:52:47.30	308.75	43.89	-35.1	-35.9	22.9	0.00e+00	0	38	0	2231369728	40	3993
2026-01-23 04:52:50.34	307.17	44.05	-35.1	-35.9	22.9	0.00e+00	0	38	0	2252341248	40	3991
2026-01-23 04:52:53.44	305.55	44.19	-34.6	-35.4	23.4	0.00e+00	0	38	0	2275409920	39	3971
2026-01-23 04:52:56.31	304.03	44.29	-34.7	-35.5	23.3	0.00e+00	0	38	0	2296381440	39	4019
2026-01-23 04:52:59.44	302.36	44.37	-34.8	-35.6	23.2	0.00e+00	0	38	0	2318401536	39	4071
2026-01-23 04:53:02.29	300.84	44.43	-34.7	-35.6	23.3	0.00e+00	0	38	0	2339373056	39	4055
2026-01-23 04:53:05.46	299.14	44.46	-34.8	-35.6	23.2	0.00e+00	0	38	0	2362441728	39	4079
2026-01-23 04:53:08.30	297.62	44.47	-34.8	-35.6	23.2	0.00e+00	0	39	0	2382364672	39	4090
2026-01-23 04:53:11.66	295.82	44.45	-34.9	-35.7	23.1	0.00e+00	0	38	0	2406481920	39	4138
2026-01-23 04:53:14.40	294.35	44.41	-34.8	-35.6	23.2	0.00e+00	0	38	0	2426404864	39	4069
2026-01-23 04:53:17.66	292.61	44.33	-34.9	-35.7	23.2	0.00e+00	0	38	0	2450522112	39	4115
2026-01-23 04:53:20.47	291.12	44.24	-35.0	-35.8	23.0	0.00e+00	0	38	0	2470445056	39	4185
2026-01-23 04:53:23.60	289.47	44.12	-34.7	-35.5	23.3	0.00e+00	0	39	0	2492465152	39	4049
2026-01-23 04:53:26.45	287.98	43.98	-35.0	-35.9	23.0	0.00e+00	0	38	0	2513436672	39	4211
2026-01-23 04:53:29.58	286.36	43.81	-34.9	-35.7	23.2	0.00e+00	0	38	0	2535456768	39	4109
2026-01-23 04:53:32.42	284.91	43.63	-34.6	-35.4	23.4	0.00e+00	0	38	0	2556428288	39	3984
2026-01-23 04:53:35.55	283.32	43.42	-34.7	-35.5	23.4	0.00e+00	0	38	0	2579496960	39	4014
2026-01-23 04:53:38.39	281.90	43.20	-34.7	-35.5	23.3	0.00e+00	0	38	0	2599419904	39	4043
2026-01-23 04:53:41.52	280.36	42.94	-34.8	-35.7	23.2	0.00e+00	0	38	0	2622488576	39	4104
2026-01-23 04:53:44.48	278.93	42.67	-34.9	-35.8	23.1	0.00e+00	0	39	0	2643460096	39	4149
2026-01-23 04:53:47.61	277.44	42.37	-34.6	-35.4	23.4	0.00e+00	0	39	0	2666528768	39	3979
2026-01-23 04:53:50.45	276.12	42.08	-34.6	-35.5	23.4	0.00e+00	0	39	0	2686451712	39	4006
2026-01-23 04:53:53.58	274.69	41.74	-34.8	-35.7	23.2	0.00e+00	0	39	0	2709520384	39	4108
2026-01-23 04:53:56.88	273.21	41.37	-34.7	-35.5	23.3	0.00e+00	0	39	0	2732589056	39	4043
2026-01-23 04:53:59.76	271.95	41.03	-35.0	-35.8	23.0	0.00e+00	0	38	0	2753560576	39	4188
2026-01-23 04:54:03.23	270.46	40.61	-34.7	-35.5	23.3	0.00e+00	0	38	0	2778726400	39	4040
2026-01-23 04:54:05.94	269.33	40.27	-34.9	-35.8	23.0	0.00e+00	0	38	0	2798649344	39	4151
2026-01-23 04:54:09.21	268.00	39.84	-34.9	-35.7	23.1	0.00e+00	0	38	0	2821718016	39	4120
2026-01-23 04:54:11.93	266.91	39.48	-34.7	-35.5	23.3	0.00e+00	0	39	0	2841640960	39	4030
2026-01-23 04:54:15.21	265.64	39.03	-34.7	-35.5	23.3	0.00e+00	0	38	0	2865758208	39	4031
2026-01-23 04:54:17.94	264.61	38.65	-34.5	-35.3	23.5	0.00e+00	0	38	0	2885681152	39	3932
2026-01-23 04:54:21.23	263.39	38.19	-34.7	-35.6	23.2	0.00e+00	0	38	0	2908749824	39	4068
2026-01-23 04:54:23.93	262.42	37.80	-34.7	-35.5	23.3	0.00e+00	0	38	0	2928672768	39	4019
2026-01-23 04:54:27.23	261.27	37.32	-34.5	-35.3	23.5	0.00e+00	0	38	0	2951741440	39	3939
2026-01-23 04:54:29.95	260.34	36.92	-34.5	-35.3	23.5	0.00e+00	0	39	0	2971664384	39	3926
2026-01-23 04:54:33.46	259.18	36.40	-34.5	-35.4	23.4	0.00e+00	0	38	0	2996830208	39	3971
2026-01-23 04:54:36.16	258.31	35.99	-34.7	-35.6	23.2	0.00e+00	0	38	0	3016753152	39	4066
2026-01-23 04:54:39.43	257.29	35.50	-34.5	-35.3	23.5	0.00e+00	0	39	0	3039821824	39	3934
2026-01-23 04:54:42.16	256.46	35.09	-34.2	-35.0	23.7	0.00e+00	0	39	0	3059744768	39	3815
2026-01-23 04:54:45.49	255.47	34.58	-34.3	-35.2	23.6	0.00e+00	0	38	0	3083862016	38	4102
2026-01-23 04:54:48.22	254.69	34.16	-34.3	-35.2	23.6	0.00e+00	0	39	0	3103784960	38	4101
2026-01-23 04:54:51.73	253.71	33.63	-34.4	-35.2	23.5	0.00e+00	0	39	0	3128950784	38	4137
2026-01-23 04:54:54.48	252.96	33.21	-34.4	-35.2	23.5	0.00e+00	0	38	0	3148873728	38	4145
2026-01-23 04:54:57.77	252.10	32.71	-34.6	-35.4	23.4	0.00e+00	0	39	0	3172990976	38	4232
2026-01-23 04:55:00.48	251.40	32.30	-34.4	-35.3	23.5	0.00e+00	0	38	0	3191865344	38	4149
2026-01-23 04:55:03.75	250.59	31.80	-34.1	-34.9	23.8	0.00e+00	0	38	0	3215982592	38	3985
2026-01-23 04:55:06.47	249.93	31.39	-34.4	-35.2	23.6	0.00e+00	0	39	0	3235905536	38	4142
2026-01-23 04:55:09.77	249.15	30.89	-34.7	-35.5	23.3	0.00e+00	0	38	0	3258974208	38	4254
2026-01-23 04:55:12.50	248.53	30.49	-35.1	-35.9	22.9	0.00e+00	0	38	0	3278897152	39	4225
2026-01-23 04:55:15.76	247.80	30.00	-35.1	-35.9	22.9	0.00e+00	0	39	0	3303014400	39	4224
2026-01-23 04:55:18.56	247.20	29.59	-34.6	-35.4	23.3	0.00e+00	0	39	0	3322937344	39	3995
2026-01-23 04:55:21.69	246.54	29.13	-34.5	-35.4	23.4	0.00e+00	0	39	0	3344957440	39	3962
2026-01-23 04:55:24.80	245.90	28.67	-34.8	-35.6	23.1	0.00e+00	0	39	0	3368026112	39	4069
2026-01-23 04:55:27.79	245.31	28.24	-34.8	-35.6	23.2	0.00e+00	0	38	0	3388997632	39	4068
2026-01-23 04:55:30.77	244.73	27.81	-34.7	-35.5	23.2	0.00e+00	0	38	0	3411017728	39	4038
2026-01-23 04:55:33.72	244.17	27.39	-34.8	-35.6	23.2	0.00e+00	0	39	0	3431989248	39	4071
2026-01-23 04:55:37.07	243.56	26.92	-35.0	-35.8	23.0	0.00e+00	0	39	0	3456106496	39	4172
2026-01-23 04:55:39.77	243.08	26.54	-34.9	-35.8	23.0	0.00e+00	0	38	0	3476029440	39	4146
2026-01-23 04:55:43.07	242.51	26.08	-34.8	-35.6	23.2	0.00e+00	0	38	0	3499098112	39	4070
2026-01-23 04:55:45.87	242.03	25.70	-34.9	-35.8	23.0	0.00e+00	0	39	0	3520069632	39	4148
2026-01-23 04:55:49.06	241.51	25.26	-35.1	-35.9	22.8	0.00e+00	0	38	0	3543138304	39	4232
2026-01-23 04:55:51.90	241.05	24.88	-34.9	-35.7	23.1	0.00e+00	0	39	0	3563061248	39	4106
2026-01-23 04:55:55.12	240.55	24.45	-35.1	-36.0	22.8	0.00e+00	0	39	0	3586129920	39	4254
2026-01-23 04:55:57.97	240.11	24.07	-35.2	-36.0	22.7	0.00e+00	0	38	0	3607101440	39	4283
2026-01-23 04:56:01.10	239.65	23.66	-34.8	-35.6	23.1	0.00e+00	0	39	0	3630170112	39	4069
2026-01-23 04:56:03.94	239.24	23.29	-34.6	-35.4	23.2	0.00e+00	0	39	0	3650093056	39	4001
2026-01-23 04:56:07.07	238.80	22.89	-34.9	-35.8	22.9	0.00e+00	0	39	0	3673161728	39	4157
2026-01-23 04:56:10.32	238.35	22.48	-35.0	-35.9	22.8	0.00e+00	0	39	0	3696230400	39	4207
2026-01-23 04:56:13.12	237.97	22.13	-35.1	-35.9	22.8	0.00e+00	0	39	0	3716153344	39	4214
2026-01-23 04:56:16.25	237.56	21.74	-35.2	-36.0	22.7	0.00e+00	0	39	0	3739222016	39	4267
2026-01-23 04:56:19.12	237.20	21.39	-35.3	-36.2	22.5	0.00e+00	0	38	0	3760193536	40	4121
2026-01-23 04:56:22.30	236.80	21.00	-35.3	-36.2	22.5	0.00e+00	0	38	0	3783262208	40	4115
2026-01-23 04:56:25.14	236.45	20.66	-35.3	-36.2	22.5	0.00e+00	0	38	0	3803185152	40	4110
2026-01-23 04:56:28.46	236.06	20.27	-35.4	-36.2	22.4	0.00e+00	0	38	0	3827302400	40	4120
2026-01-23 04:56:31.16	235.75	19.95	-35.6	-36.5	22.2	0.00e+00	0	39	0	3847225344	40	4251
2026-01-23 04:56:35.27	235.28	19.47	-35.9	-36.8	21.9	0.00e+00	0	38	0	3876585472	41	4178
2026-01-23 04:56:38.11	234.97	19.15	-36.0	-36.9	21.8	0.00e+00	0	38	0	3896508416	41	4202
2026-01-23 04:56:42.08	234.54	18.70	-35.9	-36.7	21.9	0.00e+00	0	39	0	3925868544	41	4128
2026-01-23 04:56:44.93	234.24	18.38	-35.9	-36.7	22.0	0.00e+00	0	38	0	3945791488	41	4133
2026-01-23 04:56:48.93	233.84	17.94	-36.1	-37.0	21.7	0.00e+00	0	39	0	3975151616	41	4247
2026-01-23 04:56:51.78	233.55	17.63	-36.1	-37.0	21.6	0.00e+00	0	38	0	3995074560	41	4284
2026-01-23 04:56:55.76	233.17	17.20	-36.1	-37.0	21.7	0.00e+00	0	39	0	4024434688	41	4264
2026-01-23 04:56:58.55	232.91	16.90	-36.2	-37.0	21.6	0.00e+00	0	38	0	4044357632	41	4288
2026-01-23 04:57:02.15	232.57	16.52	-36.3	-37.2	21.5	0.00e+00	0	38	0	4070572032	42	4111
2026-01-23 04:57:04.93	232.32	16.23	-36.5	-37.4	21.3	0.00e+00	0	39	0	4090494976	42	4211
2026-01-23 04:57:08.26	232.03	15.89	-36.7	-37.6	21.1	0.00e+00	0	38	0	4114612224	42	4307
2026-01-23 04:57:10.99	231.79	15.61	-36.7	-37.7	21.0	0.00e+00	0	39	0	4134535168	42	4346
2026-01-23 04:57:14.26	231.51	15.28	-36.7	-37.6	21.0	0.00e+00	0	39	0	4157603840	43	4087
2026-01-23 04:57:16.96	231.29	15.02	-36.6	-37.5	21.1	0.00e+00	0	38	0	4177526784	43	4031
2026-01-23 04:57:20.23	231.02	14.69	-36.6	-37.5	21.2	0.00e+00	0	38	0	4200595456	43	4008
2026-01-23 04:57:22.94	230.81	14.43	-36.6	-37.5	21.2	0.00e+00	0	39	0	4220518400	43	4026
2026-01-23 04:57:26.20	230.55	14.11	-36.8	-37.7	20.9	0.00e+00	0	39	0	4244635648	43	4145
2026-01-23 04:57:29.18	230.33	13.83	-36.9	-37.9	20.8	0.00e+00	0	38	0	4265607168	43	4197
2026-01-23 04:57:32.25	230.10	13.54	-37.0	-38.0	20.7	0.00e+00	0	39	0	4287627264	43	4244
2026-01-23 04:57:35.09	229.89	13.27	-37.3	-38.2	20.5	0.00e+00	0	38	0	4307550208	43	4366
2026-01-23 04:57:38.25	229.66	12.98	-37.5	-38.5	20.4	0.00e+00	0	39	0	4331667456	44	4245
2026-01-23 04:57:41.50	229.43	12.68	-37.5	-38.5	20.3	0.00e+00	0	39	0	4354736128	44	4246
2026-01-23 04:57:44.36	229.23	12.42	-37.6	-38.5	20.3	0.00e+00	0	38	0	4375707648	44	4279
2026-01-23 04:57:47.48	229.02	12.14	-37.6	-38.6	20.2	0.00e+00	0	38	0	4397727744	44	4304
2026-01-23 04:57:50.32	228.83	11.89	-37.8	-38.8	20.0	0.00e+00	0	39	0	4417650688	45	4147
2026-01-23 04:57:53.52	228.62	11.60	-37.9	-38.9	19.9	0.00e+00	0	38	0	4440719360	45	4212
2026-01-23 04:57:56.42	228.43	11.35	-38.0	-39.0	19.8	0.00e+00	0	39	0	4461690880	45	4279
2026-01-23 04:57:59.59	228.23	11.08	-38.2	-39.2	19.6	0.00e+00	0	38	0	4484759552	45	4364
2026-01-23 04:58:02.43	228.06	10.83	-38.3	-39.3	19.4	0.00e+00	0	38	0	4505731072	46	4182
2026-01-23 04:58:05.56	227.87	10.57	-38.4	-39.4	19.4	0.00e+00	0	39	0	4527751168	46	4227
2026-01-23 04:58:08.40	227.70	10.33	-38.5	-39.5	19.3	0.00e+00	0	38	0	4548722688	46	4263
2026-01-23 04:58:11.53	227.52	10.07	-38.5	-39.5	19.3	0.00e+00	0	38	0	4570742784	46	4262
2026-01-23 04:58:14.37	227.35	9.83	-38.4	-39.5	19.3	0.00e+00	0	38	0	4591714304	46	4249
2026-01-23 04:58:17.66	227.17	9.56	-38.4	-39.5	19.2	0.00e+00	0	38	0	4615831552	46	4249
2026-01-23 04:58:20.46	227.01	9.33	-38.4	-39.4	19.2	0.00e+00	0	38	0	4635754496	46	4228
2026-01-23 04:58:23.58	226.84	9.08	-38.4	-39.5	19.2	0.00e+00	0	38	0	4657774592	46	4259
2026-01-23 04:58:26.68	226.67	8.84	-49.9	-60.6	3.8	8.47e-01	0	38	104	4667211776	69	12835
2026-01-23 04:58:29.52	226.52	8.61	-50.0	-60.9	3.8	8.48e-01	0	38	104	4667211776	69	13330
2026-01-23 04:58:32.64	226.36	8.37	-50.2	-61.0	3.8	8.47e-01	0	38	104	4667211776	69	13439
2026-01-23 04:58:35.48	226.22	8.15	-50.2	-60.9	3.8	8.47e-01	0	38	104	4667211776	69	13306
2026-01-23 04:58:38.60	226.06	7.91	-50.1	-61.0	3.8	8.47e-01	0	39	104	4667211776	70	12721
2026-01-23 04:58:41.44	225.92	7.69	-50.2	-60.9	3.8	8.48e-01	0	38	104	4667211776	70	12627
2026-01-23 04:58:44.56	225.77	7.45	-50.0	-60.9	3.8	8.47e-01	0	39	104	4667211776	70	12549
2026-01-23 04:58:47.41	225.63	7.24	-50.0	-60.8	3.8	8.48e-01	0	38	104	4667211776	70	12475
2026-01-23 04:58:50.54	225.48	7.00	-50.0	-60.8	3.8	8.45e-01	0	38	104	4667211776	69	13221
2026-01-23 04:58:53.38	225.35	6.79	-49.9	-60.8	3.8	8.47e-01	0	39	104	4667211776	69	13166
2026-01-23 04:58:56.50	225.21	6.56	-49.9	-60.8	3.8	8.47e-01	0	38	104	4667211776	69	13235
2026-01-23 04:58:59.33	225.08	6.36	-49.9	-60.8	3.8	8.47e-01	0	38	104	4667211776	69	13174
2026-01-23 04:59:02.45	224.95	6.13	-49.9	-60.8	3.8	8.48e-01	0	39	104	4667211776	69	13200
2026-01-23 04:59:05.29	224.82	5.93	-49.9	-60.8	3.8	8.47e-01	0	39	104	4667211776	69	13226
2026-01-23 04:59:08.41	224.69	5.71	-49.9	-60.9	3.8	8.47e-01	0	38	104	4667211776	69	13269
2026-01-23 04:59:11.25	224.57	5.50	-49.9	-60.8	3.8	8.47e-01	0	38	104	4667211776	69	13153
2026-01-23 04:59:14.37	224.44	5.28	-49.9	-60.8	3.8	8.47e-01	0	39	104	4667211776	69	13197
2026-01-23 04:59:17.21	224.32	5.09	-49.9	-60.8	3.8	8.45e-01	0	39	104	4667211776	69	13223

#Closed at: 2026-01-23 04:59:20
#Recorded file [4667 MB]: D:/Data/31040_260123_074654.dat