passes_logs/2026/01/23/T1/T1__20260123_101600_SUOMI_NPP_rec.log

#Pass ID: 20260123_101600_SUOMI NPP
#Satellite: SUOMI NPP
#Configuration: NPP
#almurnet v.1.7.20251203
#Start time: 2026-01-23 10:16:01

#Version: 2.0.20230620
#Station: T1
#Location: 37.570604 lon 55.790049 lat
#TLE: 1 37849U 11061A   26022.50498765  .00000208  00000+0  11976-3 0  9992
#TLE: 2 37849  98.7820 324.4892 0002275  50.8149 309.3229 14.19528284737775

#Time	Az	El	Level	Level2	SNR	BER	BlckErr	Temp	State	Recorded	gain1	gain2
2026-01-23 10:16:01.22	168.49	5.02	-49.1	-64.5	3.8	1.49e+00	0	39	0	0	69	21715
2026-01-23 10:16:05.21	168.56	5.31	-45.5	-63.8	3.8	1.49e+00	0	39	104	0	63	28051
2026-01-23 10:16:09.20	168.63	5.60	-45.5	-63.9	3.8	1.49e+00	0	39	104	0	62	30186
2026-01-23 10:16:13.20	168.69	5.90	-45.6	-63.9	3.8	1.49e+00	0	39	104	0	62	30171
2026-01-23 10:16:17.19	168.76	6.19	-45.5	-63.5	3.8	1.49e+00	0	39	104	0	62	28985
2026-01-23 10:16:21.19	168.83	6.49	-45.7	-63.6	3.8	1.49e+00	0	40	104	0	62	29197
2026-01-23 10:16:25.19	168.90	6.80	-45.7	-64.1	3.8	1.49e+00	0	40	104	0	62	30801
2026-01-23 10:16:29.18	168.97	7.10	-45.7	-64.1	3.8	1.49e+00	0	40	104	0	62	30742
2026-01-23 10:16:33.18	169.05	7.42	-45.6	-63.0	3.8	1.49e+00	0	40	104	0	62	27383
2026-01-23 10:16:37.18	169.12	7.73	-45.3	-58.4	5.1	7.94e-01	0	40	0	2097152	62	15986
2026-01-23 10:16:41.17	169.20	8.05	-44.9	-54.1	7.5	5.16e-02	0	40	0	9437184	61	10321
2026-01-23 10:16:45.16	169.28	8.37	-44.7	-52.6	10.2	5.16e-03	0	40	0	16777216	61	8684
2026-01-23 10:16:49.17	169.35	8.70	-45.0	-54.3	8.4	3.43e-02	0	40	0	24117248	61	10575
2026-01-23 10:16:53.16	169.44	9.03	-45.5	-59.7	4.5	7.93e-01	0	40	0	31457280	61	19805
2026-01-23 10:16:57.16	169.52	9.37	-46.2	-57.6	5.6	1.48e+00	0	40	0	36700160	63	13759
2026-01-23 10:17:01.16	169.60	9.71	-43.3	-47.5	15.4	0.00e+00	0	41	0	44040192	58	5740
2026-01-23 10:17:05.15	169.69	10.05	-43.0	-47.0	15.9	0.00e+00	0	41	0	51380224	58	5419
2026-01-23 10:17:09.15	169.78	10.41	-42.7	-46.4	16.5	0.00e+00	0	41	0	58720256	57	5401
2026-01-23 10:17:13.14	169.86	10.76	-42.6	-46.2	16.7	0.00e+00	0	41	0	66060288	57	5274
2026-01-23 10:17:17.13	169.96	11.12	-42.5	-45.8	17.1	0.00e+00	0	41	0	74448896	56	5287
2026-01-23 10:17:21.13	170.05	11.49	-42.7	-45.6	17.3	0.00e+00	0	41	0	81788928	56	5211
2026-01-23 10:17:25.12	170.14	11.86	-42.7	-45.5	17.5	7.00e-07	0	41	0	89128960	56	5113
2026-01-23 10:17:29.11	170.24	12.23	-42.7	-45.4	17.5	0.00e+00	0	41	0	96468992	56	5097
2026-01-23 10:17:33.10	170.34	12.62	-42.5	-45.1	17.9	4.80e-03	0	41	0	103809024	56	4884
2026-01-23 10:17:37.10	170.44	13.01	-42.2	-44.7	18.3	0.00e+00	0	41	0	111149056	56	4669
2026-01-23 10:17:41.10	170.55	13.40	-42.1	-44.6	18.4	0.00e+00	0	41	0	118489088	56	4599
2026-01-23 10:17:45.10	170.66	13.80	-41.9	-44.4	18.5	0.00e+00	0	41	0	125829120	55	4761
2026-01-23 10:17:49.09	170.77	14.21	-41.7	-44.2	18.6	0.00e+00	0	41	0	134217728	55	4676
2026-01-23 10:17:53.09	170.88	14.63	-41.8	-44.2	18.5	0.00e+00	0	41	0	141557760	55	4700
2026-01-23 10:17:57.09	170.99	15.05	-41.6	-44.1	18.8	0.00e+00	0	41	0	148897792	55	4603
2026-01-23 10:18:01.08	171.11	15.48	-41.6	-44.0	18.8	0.00e+00	0	41	0	156237824	55	4562
2026-01-23 10:18:05.08	171.23	15.92	-41.5	-43.9	18.9	0.00e+00	0	41	0	163577856	54	4799
2026-01-23 10:18:09.08	171.36	16.36	-41.6	-44.0	18.8	0.00e+00	0	41	0	170917888	54	4815
2026-01-23 10:18:13.06	171.49	16.81	-41.6	-43.9	18.9	0.00e+00	0	41	0	179306496	54	4783
2026-01-23 10:18:17.06	171.62	17.28	-41.8	-44.2	18.7	0.00e+00	0	41	0	186646528	54	4931
2026-01-23 10:18:21.05	171.75	17.75	-41.8	-44.2	18.6	0.00e+00	0	41	0	193986560	54	4967
2026-01-23 10:18:25.04	171.89	18.23	-42.1	-44.6	18.3	0.00e+00	0	41	0	201326592	54	5165
2026-01-23 10:18:29.04	172.04	18.72	-42.3	-44.9	18.1	0.00e+00	0	41	0	208666624	55	5063
2026-01-23 10:18:33.03	172.18	19.22	-42.5	-45.1	17.8	0.00e+00	0	41	0	216006656	55	5201
2026-01-23 10:18:37.02	172.34	19.72	-43.0	-45.7	17.5	0.00e+00	0	41	0	223346688	56	5228
2026-01-23 10:18:41.01	172.49	20.24	-43.1	-45.8	17.4	0.00e+00	0	41	0	231735296	56	5280
2026-01-23 10:18:45.00	172.66	20.77	-43.3	-46.1	17.1	0.00e+00	0	41	0	239075328	57	5190
2026-01-23 10:18:49.00	172.82	21.31	-43.2	-45.9	17.3	0.00e+00	0	41	0	246415360	57	5073
2026-01-23 10:18:52.98	173.00	21.87	-43.3	-46.0	17.2	0.00e+00	0	41	0	253755392	57	5139
2026-01-23 10:18:56.98	173.18	22.43	-43.3	-46.0	17.2	0.00e+00	0	41	0	261095424	57	5157
2026-01-23 10:19:00.97	173.36	23.01	-43.2	-45.8	17.3	0.00e+00	0	41	0	268435456	57	5013
2026-01-23 10:19:04.98	173.55	23.60	-42.9	-45.5	17.4	0.00e+00	0	41	0	275775488	57	4844
2026-01-23 10:19:08.98	173.75	24.21	-43.0	-45.5	17.7	0.00e+00	0	41	0	284164096	57	4857
2026-01-23 10:19:12.97	173.96	24.82	-42.8	-45.4	17.8	0.00e+00	0	42	0	291504128	57	4763
2026-01-23 10:19:16.97	174.17	25.46	-42.6	-45.0	18.2	0.00e+00	0	41	0	298844160	56	4862
2026-01-23 10:19:20.96	174.39	26.11	-42.7	-45.2	18.0	0.00e+00	0	42	0	306184192	56	4955
2026-01-23 10:19:24.97	174.63	26.77	-42.8	-45.3	17.9	0.00e+00	0	41	0	313524224	56	5028
2026-01-23 10:19:28.96	174.87	27.45	-42.6	-45.0	18.2	0.00e+00	0	41	0	320864256	56	4850
2026-01-23 10:19:32.95	175.12	28.15	-42.7	-45.1	18.1	0.00e+00	0	41	0	328204288	56	4925
2026-01-23 10:19:36.95	175.38	28.86	-43.4	-46.0	17.2	0.00e+00	0	41	0	335544320	57	5148
2026-01-23 10:19:40.95	175.65	29.59	-43.3	-45.9	17.4	0.00e+00	0	41	0	343932928	57	5056
2026-01-23 10:19:44.95	175.94	30.35	-43.7	-46.5	16.8	0.00e+00	0	42	0	351272960	57	5414
2026-01-23 10:19:48.95	176.23	31.12	-44.0	-46.8	16.5	0.00e+00	0	42	0	358612992	59	5037
2026-01-23 10:19:52.95	176.55	31.91	-44.1	-47.0	16.3	0.00e+00	0	41	0	365953024	59	5149
2026-01-23 10:19:56.94	176.87	32.72	-44.1	-47.0	16.4	0.00e+00	0	41	0	373293056	59	5128
2026-01-23 10:20:00.94	177.22	33.55	-43.6	-46.3	17.0	0.00e+00	0	41	0	380633088	59	4737
2026-01-23 10:20:04.93	177.58	34.41	-44.0	-46.9	16.6	0.00e+00	0	41	0	389021696	58	5359
2026-01-23 10:20:08.93	177.96	35.28	-43.9	-46.8	16.6	0.00e+00	0	42	0	396361728	59	4984
2026-01-23 10:20:12.92	178.36	36.18	-43.9	-46.7	16.7	0.00e+00	0	41	0	403701760	59	4950
2026-01-23 10:20:16.92	178.78	37.11	-43.7	-46.5	16.9	0.00e+00	0	42	0	411041792	58	5103
2026-01-23 10:20:20.92	179.23	38.06	-43.2	-45.8	17.5	0.00e+00	0	41	0	418381824	58	4750
2026-01-23 10:20:24.92	179.70	39.04	-43.3	-45.9	17.4	0.00e+00	0	42	0	425721856	57	5091
2026-01-23 10:20:28.92	180.20	40.04	-44.3	-47.4	16.1	0.00e+00	0	42	0	433061888	59	5348
2026-01-23 10:20:32.92	180.73	41.07	-44.8	-48.1	15.4	0.00e+00	0	42	0	441450496	60	5483
2026-01-23 10:20:36.92	181.30	42.13	-44.2	-47.2	16.2	0.00e+00	0	41	0	448790528	60	4932
2026-01-23 10:20:40.91	181.91	43.21	-43.3	-45.8	17.5	0.00e+00	0	42	0	456130560	57	5015
2026-01-23 10:20:44.90	182.55	44.32	-43.5	-46.1	17.3	0.00e+00	0	42	0	463470592	57	5210
2026-01-23 10:20:48.89	183.25	45.46	-44.4	-47.3	16.1	0.00e+00	0	42	0	470810624	59	5317
2026-01-23 10:20:52.89	183.99	46.63	-44.9	-48.1	15.5	0.00e+00	0	42	0	478150656	60	5490
2026-01-23 10:20:56.89	184.79	47.83	-45.9	-49.9	13.7	0.00e+00	0	42	0	485490688	62	6036
2026-01-23 10:21:00.88	185.66	49.05	-44.2	-47.2	16.3	0.00e+00	0	42	0	493879296	60	4934
2026-01-23 10:21:04.88	186.60	50.30	-42.5	-44.9	18.4	0.00e+00	0	42	0	501219328	56	4796
2026-01-23 10:21:08.88	187.62	51.58	-41.6	-43.8	19.2	0.00e+00	0	41	0	508559360	55	4477
2026-01-23 10:21:12.88	188.72	52.88	-40.2	-42.2	20.6	0.00e+00	0	41	0	515899392	52	4424
2026-01-23 10:21:16.88	189.94	54.21	-41.0	-43.1	20.0	0.00e+00	0	42	0	523239424	52	4924
2026-01-23 10:21:20.86	191.26	55.55	-39.5	-41.4	21.5	0.00e+00	0	41	0	530579456	50	4517
2026-01-23 10:21:24.85	192.72	56.91	-40.4	-42.5	20.5	0.00e+00	0	42	0	537919488	51	4847
2026-01-23 10:21:28.84	194.32	58.29	-40.3	-42.3	20.5	0.00e+00	0	42	0	546308096	51	4747
2026-01-23 10:21:32.83	196.11	59.68	-39.4	-41.3	21.6	0.00e+00	0	42	0	553648128	50	4447
2026-01-23 10:21:36.82	198.09	61.06	-39.3	-41.2	21.7	0.00e+00	0	41	0	560988160	49	4659
2026-01-23 10:21:40.81	200.30	62.45	-41.9	-44.3	19.0	0.00e+00	0	42	0	568328192	54	4984
2026-01-23 10:21:44.81	202.78	63.83	-39.6	-41.6	21.3	0.00e+00	0	42	0	575668224	51	4346
2026-01-23 10:21:48.80	205.57	65.18	-41.2	-43.4	19.7	0.00e+00	0	42	0	583008256	53	4763
2026-01-23 10:21:52.79	208.70	66.49	-42.3	-44.7	18.6	0.00e+00	0	42	0	590348288	55	4981
2026-01-23 10:21:56.78	212.23	67.75	-42.7	-45.1	18.2	0.00e+00	0	42	0	598736896	55	5194
2026-01-23 10:22:00.76	216.20	68.94	-43.2	-45.8	17.6	0.00e+00	0	42	0	606076928	56	5327
2026-01-23 10:22:04.75	220.67	70.04	-43.5	-46.1	17.3	0.00e+00	0	42	0	613416960	57	5190
2026-01-23 10:22:08.74	225.68	71.03	-45.1	-48.4	15.2	0.00e+00	0	42	0	620756992	60	5681
2026-01-23 10:22:12.74	231.23	71.88	-43.3	-46.0	17.5	0.00e+00	0	42	0	628097024	58	4842
2026-01-23 10:22:16.72	237.27	72.55	-42.5	-44.8	18.5	0.00e+00	0	42	0	635437056	56	4746
2026-01-23 10:22:20.71	243.75	73.03	-42.9	-45.5	17.9	0.00e+00	0	42	0	642777088	57	4868
2026-01-23 10:22:24.71	250.56	73.30	-41.4	-43.6	19.5	0.00e+00	0	42	0	650117120	54	4647
2026-01-23 10:22:28.69	257.46	73.33	-40.9	-43.0	20.0	0.00e+00	0	42	0	658505728	53	4596
2026-01-23 10:22:32.67	264.30	73.14	-41.1	-43.2	19.9	0.00e+00	0	42	0	665845760	53	4685
2026-01-23 10:22:36.64	270.86	72.73	-45.1	-48.5	15.1	0.00e+00	0	42	0	673185792	60	5746
2026-01-23 10:22:40.63	277.06	72.12	-44.6	-47.7	15.9	0.00e+00	0	42	0	680525824	59	5586
2026-01-23 10:22:44.62	282.77	71.32	-46.3	-50.4	13.0	1.67e-05	0	42	0	687865856	63	6052
2026-01-23 10:22:48.62	287.96	70.38	-47.2	-52.1	11.3	1.38e-03	0	42	0	695205888	66	6177
2026-01-23 10:22:52.61	292.59	69.31	-43.9	-46.6	16.9	0.00e+00	0	42	0	702545920	58	5202
2026-01-23 10:22:56.60	296.72	68.15	-44.9	-48.1	15.4	0.00e+00	0	42	0	709885952	61	5202
2026-01-23 10:23:00.60	300.40	66.91	-43.8	-46.5	17.0	0.00e+00	0	42	0	718274560	58	5150
2026-01-23 10:23:04.59	303.65	65.61	-41.3	-43.5	19.7	0.00e+00	0	42	0	725614592	54	4572
2026-01-23 10:23:08.59	306.54	64.27	-40.4	-42.4	20.6	0.00e+00	0	42	0	732954624	52	4523
2026-01-23 10:23:12.57	309.10	62.91	-39.4	-41.3	21.7	0.00e+00	0	42	0	740294656	50	4468
2026-01-23 10:23:16.56	311.39	61.54	-39.8	-41.9	21.2	0.00e+00	0	42	0	747634688	50	4762
2026-01-23 10:23:20.54	313.44	60.16	-39.4	-41.3	21.5	0.00e+00	0	42	0	754974720	50	4485
2026-01-23 10:23:24.54	315.29	58.77	-39.7	-41.6	21.4	0.00e+00	0	42	0	762314752	50	4648
2026-01-23 10:23:28.54	316.95	57.39	-41.5	-43.7	19.4	0.00e+00	0	42	0	770703360	54	4687
2026-01-23 10:23:32.55	318.46	56.02	-39.6	-41.5	21.5	0.00e+00	0	42	0	778043392	51	4318
2026-01-23 10:23:36.54	319.83	54.68	-38.8	-40.7	22.1	0.00e+00	0	42	0	785383424	49	4398
2026-01-23 10:23:40.55	321.08	53.35	-41.0	-43.1	20.0	0.00e+00	0	42	0	792723456	52	4891
2026-01-23 10:23:44.54	322.21	52.04	-39.4	-41.2	21.7	0.00e+00	0	42	0	800063488	50	4439
2026-01-23 10:23:48.55	323.26	50.76	-41.3	-43.6	19.6	0.00e+00	0	42	0	807403520	53	4884
2026-01-23 10:23:52.56	324.23	49.50	-41.3	-43.5	19.6	0.00e+00	0	42	0	815792128	53	4824
2026-01-23 10:23:56.57	325.12	48.27	-43.9	-46.6	16.9	0.00e+00	0	42	0	823132160	58	5218
2026-01-23 10:24:00.57	325.94	47.07	-44.9	-48.2	15.5	7.00e-07	0	42	0	830472192	61	5265
2026-01-23 10:24:04.57	326.70	45.89	-42.6	-44.9	18.5	0.00e+00	0	42	0	837812224	56	4812
2026-01-23 10:24:08.57	327.41	44.75	-44.3	-47.5	16.0	0.00e+00	0	42	0	845152256	60	5125
2026-01-23 10:24:12.58	328.07	43.63	-41.8	-44.2	19.0	0.00e+00	0	42	0	852492288	55	4688
2026-01-23 10:24:16.58	328.69	42.54	-44.2	-47.2	16.3	0.00e+00	0	42	0	860880896	59	5256
2026-01-23 10:24:20.59	329.27	41.48	-39.7	-41.7	21.3	0.00e+00	0	41	0	868220928	51	4399
2026-01-23 10:24:24.60	329.82	40.44	-41.0	-43.2	19.8	0.00e+00	0	41	0	875560960	52	4970
2026-01-23 10:24:28.60	330.33	39.44	-42.5	-45.0	18.5	0.00e+00	0	41	0	882900992	56	4855
2026-01-23 10:24:32.61	330.81	38.45	-42.2	-44.6	18.6	0.00e+00	0	42	0	890241024	55	4914
2026-01-23 10:24:36.61	331.27	37.50	-41.0	-43.3	19.8	0.00e+00	0	42	0	897581056	54	4456
2026-01-23 10:24:40.61	331.70	36.57	-42.3	-44.7	18.4	0.00e+00	0	42	0	905969664	55	4982
2026-01-23 10:24:44.61	332.11	35.66	-43.0	-45.5	17.9	0.00e+00	0	42	0	913309696	56	5130
2026-01-23 10:24:48.62	332.50	34.78	-42.7	-45.2	18.2	0.00e+00	0	42	0	920649728	56	4959
2026-01-23 10:24:52.62	332.86	33.92	-43.9	-46.7	16.8	0.00e+00	0	42	0	927989760	58	5266
2026-01-23 10:24:56.62	333.21	33.09	-44.4	-47.8	15.7	0.00e+00	0	42	0	935329792	59	5656
2026-01-23 10:25:00.63	333.55	32.27	-43.3	-46.2	17.3	0.00e+00	0	42	0	942669824	58	4945
2026-01-23 10:25:04.63	333.87	31.48	-42.8	-45.4	18.0	0.00e+00	0	42	0	950009856	57	4763
2026-01-23 10:25:08.64	334.17	30.70	-43.1	-45.7	17.7	0.00e+00	0	42	0	958398464	57	4931
2026-01-23 10:25:12.64	334.46	29.95	-42.7	-45.4	18.0	0.00e+00	0	42	0	965738496	57	4798
2026-01-23 10:25:16.64	334.74	29.21	-43.8	-47.1	16.4	0.00e+00	0	42	0	973078528	58	5486
2026-01-23 10:25:20.65	335.01	28.49	-45.5	-49.6	14.0	7.00e-07	0	42	0	980418560	62	5841
2026-01-23 10:25:24.65	335.26	27.79	-44.1	-47.3	16.2	0.00e+00	0	42	0	987758592	60	5005
2026-01-23 10:25:28.66	335.51	27.11	-41.4	-43.7	19.4	0.00e+00	0	42	0	995098624	54	4665
2026-01-23 10:25:32.66	335.74	26.44	-40.2	-42.3	20.5	0.00e+00	0	42	0	1003487232	52	4469
2026-01-23 10:25:36.66	335.97	25.79	-41.1	-43.4	19.7	0.00e+00	0	42	0	1010827264	52	5065
2026-01-23 10:25:40.67	336.19	25.16	-42.5	-45.3	17.9	0.00e+00	0	42	0	1018167296	55	5288
2026-01-23 10:25:44.67	336.40	24.54	-42.3	-44.9	18.3	0.00e+00	0	42	0	1025507328	55	5076
2026-01-23 10:25:48.67	336.60	23.93	-41.3	-43.6	19.5	0.00e+00	0	42	0	1032847360	54	4600
2026-01-23 10:25:52.68	336.80	23.33	-41.0	-43.3	19.7	0.00e+00	0	42	0	1040187392	53	4723
2026-01-23 10:25:56.69	336.99	22.75	-40.7	-43.0	20.0	0.00e+00	0	42	0	1048576000	53	4571
2026-01-23 10:26:00.68	337.17	22.19	-40.5	-42.8	20.1	0.00e+00	0	42	0	1055916032	53	4489
2026-01-23 10:26:04.68	337.35	21.63	-41.2	-43.6	19.5	0.00e+00	0	42	0	1063256064	52	5162
2026-01-23 10:26:08.69	337.52	21.09	-41.9	-44.4	18.7	0.00e+00	0	42	0	1070596096	54	5099
2026-01-23 10:26:12.69	337.69	20.56	-41.7	-44.4	18.7	0.00e+00	0	42	0	1077936128	54	5091
2026-01-23 10:26:16.69	337.85	20.03	-40.9	-43.2	19.7	0.00e+00	0	42	0	1085276160	53	4697
2026-01-23 10:26:20.70	338.01	19.52	-40.5	-42.6	20.3	0.00e+00	0	42	0	1092616192	53	4360
2026-01-23 10:26:24.71	338.16	19.02	-40.3	-42.4	20.4	0.00e+00	0	42	0	1101004800	52	4541
2026-01-23 10:26:28.71	338.31	18.53	-40.7	-43.0	19.9	0.00e+00	0	42	0	1108344832	52	4831
2026-01-23 10:26:32.72	338.45	18.05	-41.1	-43.4	19.6	0.00e+00	0	42	0	1115684864	52	5067
2026-01-23 10:26:36.72	338.59	17.58	-41.4	-43.6	19.3	0.00e+00	0	42	0	1123024896	53	4911
2026-01-23 10:26:40.72	338.73	17.11	-41.4	-43.6	19.3	0.00e+00	0	42	0	1130364928	53	4917
2026-01-23 10:26:44.74	338.86	16.66	-41.3	-43.6	19.3	0.00e+00	0	42	0	1137704960	53	4924
2026-01-23 10:26:48.75	338.99	16.21	-41.3	-43.8	19.1	0.00e+00	0	42	0	1146093568	53	5038
2026-01-23 10:26:52.75	339.12	15.77	-41.5	-44.0	19.0	0.00e+00	0	42	0	1153433600	53	5151
2026-01-23 10:26:56.76	339.24	15.34	-41.8	-44.4	18.6	0.00e+00	0	42	0	1160773632	54	5064
2026-01-23 10:27:00.77	339.36	14.92	-42.0	-44.8	18.3	0.00e+00	0	42	0	1168113664	54	5284
2026-01-23 10:27:04.77	339.48	14.50	-42.3	-45.3	17.8	0.00e+00	0	42	0	1175453696	55	5312
2026-01-23 10:27:08.77	339.59	14.09	-42.9	-46.1	17.1	0.00e+00	0	42	0	1182793728	56	5514
2026-01-23 10:27:12.78	339.70	13.69	-43.3	-46.6	16.7	0.00e+00	0	42	0	1191182336	57	5466
2026-01-23 10:27:16.78	339.81	13.29	-43.8	-47.0	16.2	0.00e+00	0	42	0	1198522368	58	5460
2026-01-23 10:27:20.79	339.92	12.90	-43.9	-47.3	16.0	0.00e+00	0	42	0	1205862400	58	5610
2026-01-23 10:27:24.80	340.02	12.52	-43.6	-47.4	15.9	0.00e+00	0	42	0	1213202432	58	5722
2026-01-23 10:27:28.81	340.12	12.14	-43.4	-47.2	16.1	0.00e+00	0	42	0	1220542464	58	5534
2026-01-23 10:27:32.81	340.22	11.77	-43.4	-46.9	16.3	0.00e+00	0	42	0	1227882496	58	5350
2026-01-23 10:27:36.82	340.32	11.40	-43.4	-46.5	16.7	0.00e+00	0	42	0	1236271104	58	5136
2026-01-23 10:27:40.82	340.42	11.04	-43.2	-46.2	16.9	0.00e+00	0	42	0	1243611136	58	4983
2026-01-23 10:27:44.82	340.51	10.68	-42.9	-45.9	17.3	0.00e+00	0	42	0	1250951168	57	5057
2026-01-23 10:27:48.82	340.60	10.33	-42.7	-45.7	17.4	0.00e+00	0	42	0	1258291200	57	4947
2026-01-23 10:27:52.82	340.69	9.99	-42.7	-45.6	17.4	0.00e+00	0	42	0	1265631232	57	4902
2026-01-23 10:27:56.81	340.78	9.65	-42.6	-45.6	17.4	0.00e+00	0	42	0	1272971264	57	4908
2026-01-23 10:28:00.82	340.87	9.31	-42.5	-45.6	17.4	0.00e+00	0	42	0	1281359872	56	5209
2026-01-23 10:28:04.83	340.95	8.98	-46.5	-52.6	11.1	0.00e+00	0	42	0	1288699904	63	7760
2026-01-23 10:28:08.80	341.04	8.65	-48.4	-64.9	3.8	1.49e+00	0	42	104	1288699904	68	23969
2026-01-23 10:28:12.78	341.12	8.33	-49.5	-65.1	3.8	1.49e+00	0	42	104	1288699904	69	23106
2026-01-23 10:28:16.76	341.20	8.01	-49.8	-65.1	3.8	1.49e+00	0	42	104	1288699904	70	21991
2026-01-23 10:28:20.75	341.28	7.70	-49.8	-65.1	3.8	1.49e+00	0	42	104	1288699904	70	21900
2026-01-23 10:28:24.72	341.36	7.39	-49.9	-65.1	3.8	1.49e+00	0	42	104	1288699904	70	21916
2026-01-23 10:28:28.71	341.43	7.08	-49.8	-65.1	3.8	1.49e+00	0	42	104	1288699904	70	21769
2026-01-23 10:28:32.69	341.51	6.78	-49.7	-65.0	3.8	1.49e+00	0	42	104	1288699904	70	21702
2026-01-23 10:28:36.67	341.58	6.48	-49.7	-65.1	3.8	1.49e+00	0	42	104	1288699904	70	21790
2026-01-23 10:28:40.65	341.66	6.19	-49.7	-65.0	3.8	1.49e+00	0	42	104	1288699904	70	21727
2026-01-23 10:28:44.64	341.73	5.89	-49.7	-65.0	3.8	1.49e+00	0	42	104	1288699904	70	21657
2026-01-23 10:28:48.62	341.80	5.60	-49.7	-65.0	3.8	1.49e+00	0	42	104	1288699904	70	21692
2026-01-23 10:28:52.60	341.87	5.32	-49.7	-65.0	3.8	1.49e+00	0	42	104	1288699904	70	21746
2026-01-23 10:28:56.58	341.94	5.03	-49.7	-65.0	3.8	1.49e+00	0	42	104	1288699904	70	21669

#Closed at: 2026-01-23 10:28:58
#Recorded file [1288 MB]: D:/Data/31040_260123_131601.dat