passes_logs/2026/01/23/T1/T1__20260123_020624_SUOMI_NPP_rec.log

#Pass ID: 20260123_020624_SUOMI NPP
#Satellite: SUOMI NPP
#Configuration: NPP
#almurnet v.1.7.20251203
#Start time: 2026-01-23 02:06:24

#Version: 2.0.20230620
#Station: T1
#Location: 37.570604 lon 55.790049 lat
#TLE: 1 37849U 11061A   26022.50498765  .00000208  00000+0  11976-3 0  9992
#TLE: 2 37849  98.7820 324.4892 0002275  50.8149 309.3229 14.19528284737775

#Time	Az	El	Level	Level2	SNR	BER	BlckErr	Temp	State	Recorded	gain1	gain2
2026-01-23 02:06:24.98	2.68	5.03	-48.1	-64.7	3.8	1.49e+00	0	35	0	0	68	23496
2026-01-23 02:06:27.95	2.36	5.18	-45.0	-64.3	3.8	1.49e+00	0	35	104	0	61	33554
2026-01-23 02:06:30.93	2.04	5.33	-45.0	-64.3	3.8	1.49e+00	0	35	104	0	61	33495
2026-01-23 02:06:33.91	1.71	5.48	-45.0	-64.3	3.8	1.49e+00	0	35	104	0	61	33621
2026-01-23 02:06:36.89	1.38	5.63	-45.0	-64.3	3.8	1.49e+00	0	35	104	0	61	33579
2026-01-23 02:06:39.87	1.05	5.78	-45.0	-64.3	3.8	1.49e+00	0	35	104	0	61	33506
2026-01-23 02:06:42.85	0.71	5.93	-45.0	-64.3	3.8	1.49e+00	0	35	104	0	61	33493
2026-01-23 02:06:45.83	0.37	6.08	-45.0	-64.3	3.8	1.49e+00	0	36	104	0	61	33580
2026-01-23 02:06:48.81	0.02	6.23	-45.0	-64.3	3.8	1.49e+00	0	36	104	0	61	33556
2026-01-23 02:06:51.79	359.67	6.38	-45.0	-64.3	3.8	1.49e+00	0	36	104	0	61	33680
2026-01-23 02:06:54.77	359.32	6.53	-45.1	-64.3	3.8	1.49e+00	0	36	104	0	61	33630
2026-01-23 02:06:57.75	358.96	6.67	-45.0	-64.3	3.8	1.49e+00	0	36	104	0	61	33572
2026-01-23 02:07:00.73	358.60	6.82	-45.0	-64.3	3.8	1.49e+00	0	36	104	0	61	33541
2026-01-23 02:07:03.71	358.24	6.97	-45.0	-64.3	3.8	1.49e+00	0	36	104	0	61	33321
2026-01-23 02:07:06.69	357.87	7.12	-45.1	-64.3	3.8	1.49e+00	0	36	104	0	61	33549
2026-01-23 02:07:09.67	357.50	7.27	-45.1	-64.3	3.8	1.49e+00	0	36	104	0	61	33679
2026-01-23 02:07:12.65	357.12	7.41	-45.1	-64.3	3.8	1.49e+00	0	36	104	0	61	33635
2026-01-23 02:07:15.63	356.74	7.56	-45.1	-64.3	3.8	1.49e+00	0	36	104	0	61	33691
2026-01-23 02:07:18.61	356.36	7.71	-45.1	-64.2	3.8	1.49e+00	0	36	104	0	61	33196
2026-01-23 02:07:21.59	355.97	7.85	-45.1	-64.2	3.8	1.49e+00	0	36	104	0	61	33106
2026-01-23 02:07:24.57	355.58	8.00	-45.0	-64.2	3.8	1.49e+00	0	37	104	0	61	33095
2026-01-23 02:07:27.55	355.18	8.15	-45.1	-64.2	3.8	1.49e+00	0	37	104	0	61	33300
2026-01-23 02:07:30.53	354.79	8.29	-45.1	-63.9	3.8	1.49e+00	0	37	104	0	61	31852
2026-01-23 02:07:33.51	354.38	8.44	-45.1	-63.0	3.8	1.49e+00	0	37	104	0	61	28791
2026-01-23 02:07:36.50	353.97	8.58	-45.0	-62.5	3.8	1.49e+00	0	37	104	0	61	27253
2026-01-23 02:07:39.48	353.56	8.72	-45.0	-60.9	4.1	1.47e+00	0	37	104	0	61	22635
2026-01-23 02:07:42.46	353.14	8.87	-44.7	-56.5	6.5	3.04e-01	0	37	0	4194304	61	13646
2026-01-23 02:07:45.44	352.72	9.01	-44.2	-51.8	11.2	2.53e-03	0	37	0	9437184	59	8934
2026-01-23 02:07:48.40	352.30	9.15	-44.6	-53.5	9.1	4.38e-01	0	37	0	14680064	61	9714
2026-01-23 02:07:51.53	351.85	9.30	-43.4	-48.5	14.6	1.50e-06	0	37	0	20971520	58	6422
2026-01-23 02:07:54.37	351.44	9.43	-43.1	-48.0	14.9	0.00e+00	0	37	0	26214400	58	6131
2026-01-23 02:07:57.50	350.98	9.58	-43.3	-47.7	15.3	0.00e+00	0	37	0	32505856	58	5913
2026-01-23 02:08:00.34	350.56	9.71	-43.1	-46.9	16.1	0.00e+00	0	37	0	37748736	58	5372
2026-01-23 02:08:03.47	350.09	9.85	-42.8	-46.7	16.3	0.00e+00	0	37	0	42991616	57	5571
2026-01-23 02:08:06.31	349.66	9.98	-42.5	-47.2	15.8	0.00e+00	0	37	0	48234496	57	5921
2026-01-23 02:08:09.66	349.15	10.13	-42.0	-46.5	16.4	0.00e+00	0	37	0	54525952	56	5741
2026-01-23 02:08:12.42	348.73	10.26	-41.7	-45.8	17.0	0.00e+00	0	37	0	59768832	55	5602
2026-01-23 02:08:15.70	348.21	10.41	-42.0	-46.1	16.7	0.00e+00	0	37	0	66060288	55	5811
2026-01-23 02:08:18.57	347.76	10.53	-42.1	-46.5	16.3	0.00e+00	0	37	0	71303168	55	6075
2026-01-23 02:08:21.82	347.25	10.68	-41.9	-46.3	16.5	0.00e+00	0	37	0	77594624	55	5938
2026-01-23 02:08:24.80	346.77	10.81	-42.3	-46.4	16.4	0.00e+00	0	37	0	83886080	55	6022
2026-01-23 02:08:27.79	346.29	10.93	-42.2	-46.2	16.6	0.00e+00	0	37	0	89128960	55	5895
2026-01-23 02:08:30.77	345.80	11.06	-41.7	-45.4	17.4	0.00e+00	0	37	0	94371840	55	5348
2026-01-23 02:08:33.85	345.30	11.19	-41.6	-44.9	17.8	0.00e+00	0	37	0	100663296	54	5383
2026-01-23 02:08:36.72	344.82	11.31	-42.0	-45.2	17.5	0.00e+00	0	37	0	105906176	54	5588
2026-01-23 02:08:39.85	344.30	11.44	-42.3	-45.6	17.2	0.00e+00	0	37	0	111149056	55	5518
2026-01-23 02:08:42.70	343.82	11.56	-41.9	-45.2	17.6	0.00e+00	0	37	0	117440512	55	5230
2026-01-23 02:08:45.87	343.28	11.68	-41.9	-45.2	17.6	0.00e+00	0	38	0	122683392	55	5226
2026-01-23 02:08:48.72	342.79	11.80	-41.8	-44.9	17.9	0.00e+00	0	37	0	127926272	55	5052
2026-01-23 02:08:52.05	342.21	11.93	-41.6	-44.6	18.2	0.00e+00	0	37	0	134217728	55	4879
2026-01-23 02:08:54.97	341.70	12.04	-42.2	-45.3	17.5	0.00e+00	0	37	0	139460608	55	5327
2026-01-23 02:08:58.24	341.13	12.16	-42.7	-45.9	17.0	0.00e+00	0	37	0	145752064	56	5357
2026-01-23 02:09:00.97	340.64	12.26	-42.4	-45.4	17.6	0.00e+00	0	37	0	150994944	56	5088
2026-01-23 02:09:04.23	340.06	12.38	-42.2	-45.6	17.4	0.00e+00	0	38	0	157286400	56	5194
2026-01-23 02:09:07.11	339.54	12.49	-42.9	-46.2	16.9	0.00e+00	0	37	0	162529280	56	5552
2026-01-23 02:09:10.24	338.98	12.60	-43.0	-46.2	16.9	0.00e+00	0	38	0	168820736	56	5530
2026-01-23 02:09:13.08	338.46	12.69	-42.5	-46.0	17.1	0.00e+00	0	37	0	174063616	56	5405
2026-01-23 02:09:16.29	337.87	12.80	-42.3	-45.7	17.3	0.00e+00	0	37	0	180355072	56	5267
2026-01-23 02:09:19.13	337.34	12.90	-42.2	-45.3	17.6	0.00e+00	0	37	0	185597952	56	5030
2026-01-23 02:09:22.46	336.72	13.00	-42.4	-45.6	17.4	0.00e+00	0	38	0	191889408	56	5190
2026-01-23 02:09:25.35	336.18	13.09	-42.6	-45.6	17.4	0.00e+00	0	37	0	197132288	56	5187
2026-01-23 02:09:28.90	335.50	13.20	-42.2	-44.9	18.1	0.00e+00	0	37	0	203423744	56	4779
2026-01-23 02:09:31.63	334.98	13.28	-42.5	-45.4	17.6	0.00e+00	0	37	0	208666624	56	5071
2026-01-23 02:09:34.90	334.36	13.38	-43.2	-46.4	16.7	0.00e+00	0	37	0	214958080	57	5395
2026-01-23 02:09:37.62	333.83	13.45	-42.9	-45.9	17.1	0.00e+00	0	37	0	220200960	57	5045
2026-01-23 02:09:40.90	333.20	13.54	-42.4	-45.0	18.0	0.00e+00	0	37	0	226492416	56	4868
2026-01-23 02:09:43.64	332.66	13.61	-41.9	-44.6	18.2	0.00e+00	0	38	0	231735296	55	4878
2026-01-23 02:09:46.91	332.02	13.70	-42.2	-44.8	18.0	0.00e+00	0	37	0	236978176	55	5039
2026-01-23 02:09:49.72	331.47	13.77	-42.0	-44.6	18.2	0.00e+00	0	37	0	242221056	55	4903
2026-01-23 02:09:53.01	330.82	13.84	-41.7	-44.3	18.5	0.00e+00	0	37	0	248512512	55	4710
2026-01-23 02:09:55.71	330.28	13.90	-41.9	-44.5	18.3	0.00e+00	0	38	0	253755392	55	4847
2026-01-23 02:09:59.26	329.57	13.98	-42.5	-45.3	17.5	0.00e+00	0	37	0	260046848	55	5332
2026-01-23 02:10:01.97	329.03	14.03	-42.5	-45.3	17.5	0.00e+00	0	38	0	265289728	55	5310
2026-01-23 02:10:05.26	328.37	14.10	-43.1	-46.0	17.1	0.00e+00	0	37	0	271581184	56	5425
2026-01-23 02:10:07.99	327.82	14.15	-43.0	-46.0	17.0	0.00e+00	0	37	0	276824064	57	5113
2026-01-23 02:10:11.26	327.15	14.20	-42.6	-45.6	17.4	0.00e+00	0	37	0	283115520	57	4891
2026-01-23 02:10:13.96	326.60	14.25	-42.5	-45.4	17.6	0.00e+00	0	37	0	288358400	56	5090
2026-01-23 02:10:17.28	325.92	14.30	-42.5	-45.4	17.7	0.00e+00	0	37	0	294649856	56	5045
2026-01-23 02:10:19.98	325.37	14.34	-42.1	-45.0	18.0	0.00e+00	0	37	0	299892736	56	4825
2026-01-23 02:10:23.25	324.70	14.38	-41.7	-44.6	18.2	0.00e+00	0	37	0	305135616	55	4889
2026-01-23 02:10:26.09	324.11	14.42	-42.0	-44.8	18.0	0.00e+00	0	37	0	310378496	55	5033
2026-01-23 02:10:29.49	323.41	14.45	-42.5	-45.3	17.5	0.00e+00	0	37	0	317718528	55	5334
2026-01-23 02:10:32.24	322.84	14.48	-42.4	-45.1	17.6	0.00e+00	0	37	0	321912832	55	5206
2026-01-23 02:10:35.51	322.16	14.51	-42.1	-44.8	18.0	0.00e+00	0	38	0	328204288	55	5000
2026-01-23 02:10:38.25	321.59	14.53	-42.4	-45.3	17.6	0.00e+00	0	38	0	333447168	55	5295
2026-01-23 02:10:41.65	320.88	14.55	-42.9	-46.0	17.0	0.00e+00	0	37	0	339738624	56	5409
2026-01-23 02:10:44.38	320.31	14.56	-42.9	-46.0	17.0	0.00e+00	0	37	0	344981504	56	5450
2026-01-23 02:10:47.74	319.61	14.58	-42.8	-45.8	17.2	0.00e+00	0	38	0	351272960	56	5308
2026-01-23 02:10:50.45	319.05	14.58	-42.5	-45.4	17.6	0.00e+00	0	37	0	356515840	56	5047
2026-01-23 02:10:53.75	318.36	14.59	-42.3	-45.0	17.9	0.00e+00	0	38	0	362807296	56	4860
2026-01-23 02:10:56.59	317.76	14.59	-42.5	-45.3	17.8	0.00e+00	0	37	0	368050176	56	4995
2026-01-23 02:11:00.04	317.04	14.59	-42.7	-45.6	17.4	0.00e+00	0	38	0	374341632	56	5166
2026-01-23 02:11:02.76	316.47	14.59	-42.6	-45.5	17.5	0.00e+00	0	38	0	379584512	56	5140
2026-01-23 02:11:06.04	315.79	14.58	-42.1	-44.7	18.2	0.00e+00	0	38	0	385875968	56	4679
2026-01-23 02:11:08.75	315.22	14.56	-42.1	-44.7	18.3	0.00e+00	0	38	0	391118848	56	4658
2026-01-23 02:11:12.03	314.54	14.55	-42.6	-45.5	17.5	0.00e+00	0	38	0	397410304	56	5106
2026-01-23 02:11:14.76	313.97	14.53	-43.0	-46.0	17.0	0.00e+00	0	38	0	401604608	56	5448
2026-01-23 02:11:18.04	313.29	14.51	-43.0	-46.0	17.0	0.00e+00	0	38	0	407896064	56	5426
2026-01-23 02:11:20.74	312.73	14.48	-43.1	-46.2	16.9	0.00e+00	0	38	0	413138944	57	5224
2026-01-23 02:11:24.01	312.05	14.45	-43.1	-46.2	16.8	0.00e+00	0	37	0	419430400	57	5267
2026-01-23 02:11:26.77	311.48	14.42	-42.7	-45.7	17.3	0.00e+00	0	37	0	424673280	57	4934
2026-01-23 02:11:30.07	310.80	14.38	-42.6	-45.4	17.6	0.00e+00	0	37	0	430964736	57	4809
2026-01-23 02:11:33.18	310.16	14.34	-42.8	-45.7	17.3	0.00e+00	0	38	0	436207616	57	4964
2026-01-23 02:11:36.03	309.57	14.30	-43.2	-46.2	16.8	0.00e+00	0	37	0	441450496	57	5276
2026-01-23 02:11:39.16	308.93	14.25	-43.1	-46.0	17.1	0.00e+00	0	38	0	447741952	57	5104
2026-01-23 02:11:42.00	308.35	14.21	-42.6	-45.3	17.7	0.00e+00	0	37	0	452984832	57	4741
2026-01-23 02:11:45.13	307.72	14.15	-42.6	-45.3	17.7	0.00e+00	0	37	0	459276288	56	4985
2026-01-23 02:11:48.32	307.07	14.10	-42.6	-45.4	17.7	0.00e+00	0	37	0	464519168	56	5047
2026-01-23 02:11:51.32	306.46	14.04	-43.0	-45.7	17.3	0.00e+00	0	38	0	470810624	56	5271
2026-01-23 02:11:54.30	305.87	13.98	-43.1	-45.8	17.3	0.00e+00	0	37	0	476053504	57	5030
2026-01-23 02:11:57.28	305.27	13.91	-43.2	-46.1	16.9	0.00e+00	0	38	0	482344960	57	5204
2026-01-23 02:12:00.30	304.67	13.84	-43.6	-46.7	16.4	0.00e+00	0	38	0	487587840	57	5567
2026-01-23 02:12:03.25	304.08	13.78	-43.5	-46.5	16.6	0.00e+00	0	38	0	492830720	57	5463
2026-01-23 02:12:06.34	303.47	13.70	-43.0	-45.8	17.2	0.00e+00	0	37	0	499122176	57	5003
2026-01-23 02:12:09.36	302.88	13.62	-42.7	-45.3	17.7	0.00e+00	0	37	0	504365056	57	4742
2026-01-23 02:12:12.64	302.24	13.54	-42.5	-45.1	17.9	0.00e+00	0	37	0	510656512	57	4616
2026-01-23 02:12:15.37	301.71	13.47	-42.3	-44.8	18.1	0.00e+00	0	38	0	515899392	56	4757
2026-01-23 02:12:18.58	301.09	13.38	-42.6	-45.2	17.8	0.00e+00	0	37	0	522190848	56	4975
2026-01-23 02:12:21.56	300.52	13.29	-42.9	-45.6	17.4	0.00e+00	0	38	0	527433728	56	5194
2026-01-23 02:12:24.55	299.94	13.20	-43.1	-45.9	17.0	0.00e+00	0	38	0	532676608	56	5383
2026-01-23 02:12:27.54	299.38	13.11	-43.0	-45.8	17.2	0.00e+00	0	38	0	538968064	57	5030
2026-01-23 02:12:30.52	298.82	13.02	-43.1	-45.9	17.1	0.00e+00	0	37	0	544210944	57	5062
2026-01-23 02:12:33.51	298.26	12.92	-43.0	-45.8	17.2	0.00e+00	0	37	0	549453824	57	5033
2026-01-23 02:12:36.49	297.70	12.82	-42.8	-45.5	17.5	0.00e+00	0	37	0	555745280	57	4857
2026-01-23 02:12:39.48	297.15	12.72	-42.8	-45.5	17.5	0.00e+00	0	38	0	560988160	57	4816
2026-01-23 02:12:42.46	296.60	12.62	-42.9	-45.7	17.4	0.00e+00	0	38	0	566231040	57	4938
2026-01-23 02:12:45.45	296.06	12.52	-43.0	-45.8	17.2	0.00e+00	0	37	0	572522496	57	5020
2026-01-23 02:12:48.43	295.52	12.41	-42.7	-45.4	17.6	0.00e+00	0	38	0	577765376	57	4770
2026-01-23 02:12:51.43	294.98	12.30	-42.6	-45.2	17.8	0.00e+00	0	37	0	583008256	57	4670
2026-01-23 02:12:54.43	294.44	12.19	-42.8	-45.5	17.5	0.00e+00	0	38	0	589299712	56	5104
2026-01-23 02:12:57.42	293.91	12.08	-42.9	-45.7	17.3	0.00e+00	0	37	0	594542592	56	5239
2026-01-23 02:13:00.41	293.39	11.96	-43.4	-46.4	16.7	0.00e+00	0	37	0	599785472	57	5341
2026-01-23 02:13:03.39	292.87	11.85	-43.8	-46.9	16.1	0.00e+00	0	37	0	606076928	58	5392
2026-01-23 02:13:06.38	292.35	11.73	-43.6	-46.6	16.5	0.00e+00	0	38	0	611319808	58	5166
2026-01-23 02:13:09.46	291.83	11.60	-43.4	-46.3	16.7	0.00e+00	0	38	0	617611264	58	5040
2026-01-23 02:13:12.33	291.34	11.49	-43.6	-46.5	16.5	0.00e+00	0	37	0	622854144	58	5142
2026-01-23 02:13:15.46	290.81	11.36	-43.5	-46.4	16.6	0.00e+00	0	37	0	628097024	58	5084
2026-01-23 02:13:18.30	290.34	11.24	-43.5	-46.5	16.5	0.00e+00	0	37	0	633339904	58	5144
2026-01-23 02:13:21.43	289.82	11.11	-43.6	-46.5	16.5	0.00e+00	0	38	0	639631360	58	5146
2026-01-23 02:13:24.27	289.35	10.99	-43.9	-47.0	16.0	0.00e+00	0	37	0	644874240	58	5460
2026-01-23 02:13:27.40	288.84	10.85	-44.0	-47.2	15.9	0.00e+00	0	37	0	651165696	58	5554
2026-01-23 02:13:30.24	288.38	10.73	-43.5	-46.5	16.7	0.00e+00	0	37	0	656408576	58	5101
2026-01-23 02:13:33.36	287.88	10.59	-43.4	-46.3	16.8	0.00e+00	0	38	0	661651456	58	5004
2026-01-23 02:13:36.21	287.43	10.47	-43.9	-47.1	16.0	0.00e+00	0	37	0	666894336	58	5487
2026-01-23 02:13:39.33	286.94	10.33	-44.6	-48.2	14.8	0.00e+00	0	38	0	673185792	60	5590
2026-01-23 02:13:42.22	286.49	10.20	-44.7	-48.3	14.9	7.00e-07	0	37	0	678428672	60	5620
2026-01-23 02:13:45.49	285.99	10.05	-43.9	-47.0	16.0	0.00e+00	0	37	0	684720128	59	5154
2026-01-23 02:13:48.21	285.57	9.93	-43.9	-47.0	16.0	0.00e+00	0	37	0	689963008	59	5139
2026-01-23 02:13:51.48	285.08	9.78	-44.6	-48.2	14.8	0.00e+00	0	37	0	696254464	59	5869
2026-01-23 02:13:54.20	284.67	9.65	-45.5	-49.7	13.4	7.60e-06	0	37	0	701497344	61	6217
2026-01-23 02:13:57.50	284.18	9.50	-45.7	-50.2	12.8	5.56e-05	0	38	0	706740224	62	6250
2026-01-23 02:14:00.20	283.79	9.37	-45.4	-49.6	13.4	1.83e-05	0	38	0	711983104	62	5842
2026-01-23 02:14:03.63	283.29	9.21	-45.3	-49.3	13.8	1.14e-05	0	38	0	718274560	62	5632
2026-01-23 02:14:06.43	282.89	9.07	-45.3	-49.4	13.7	6.80e-06	0	38	0	723517440	62	5669
2026-01-23 02:14:09.76	282.41	8.92	-49.2	-64.7	3.8	1.49e+00	0	38	104	728760320	69	22038
2026-01-23 02:14:12.46	282.03	8.79	-49.6	-64.9	3.8	1.49e+00	0	38	104	728760320	69	22648
2026-01-23 02:14:15.74	281.57	8.63	-49.8	-65.0	3.8	1.49e+00	0	38	104	728760320	70	21597
2026-01-23 02:14:18.44	281.20	8.50	-49.8	-65.1	3.8	1.49e+00	0	38	104	728760320	70	21797
2026-01-23 02:14:21.70	280.75	8.34	-49.8	-65.1	3.8	1.49e+00	0	37	104	728760320	70	21770
2026-01-23 02:14:24.40	280.39	8.21	-49.7	-65.1	3.8	1.49e+00	0	38	104	728760320	70	21899
2026-01-23 02:14:27.79	279.93	8.04	-49.8	-65.0	3.8	1.49e+00	0	38	104	728760320	70	21645
2026-01-23 02:14:30.57	279.56	7.91	-49.6	-65.0	3.8	1.49e+00	0	38	104	728760320	70	21559
2026-01-23 02:14:33.85	279.13	7.75	-49.6	-65.0	3.8	1.49e+00	0	38	104	728760320	70	21547
2026-01-23 02:14:36.57	278.78	7.61	-49.6	-65.0	3.8	1.49e+00	0	38	104	728760320	70	21616
2026-01-23 02:14:39.84	278.36	7.45	-49.6	-64.9	3.8	1.49e+00	0	37	104	728760320	70	21466
2026-01-23 02:14:42.55	278.01	7.32	-49.6	-64.9	3.8	1.49e+00	0	38	104	728760320	70	21482
2026-01-23 02:14:45.81	277.60	7.15	-49.6	-64.9	3.8	1.49e+00	0	38	104	728760320	70	21496
2026-01-23 02:14:48.51	277.27	7.02	-49.6	-65.0	3.8	1.49e+00	0	38	104	728760320	70	21540
2026-01-23 02:14:51.79	276.86	6.86	-49.6	-65.0	3.8	1.49e+00	0	38	104	728760320	70	21535
2026-01-23 02:14:54.49	276.53	6.72	-49.6	-64.9	3.8	1.49e+00	0	38	104	728760320	70	21496
2026-01-23 02:14:57.77	276.13	6.56	-49.6	-65.0	3.8	1.49e+00	0	38	104	728760320	70	21521
2026-01-23 02:15:00.46	275.81	6.42	-49.6	-64.9	3.8	1.49e+00	0	38	104	728760320	70	21420
2026-01-23 02:15:03.74	275.42	6.26	-49.6	-64.9	3.8	1.49e+00	0	37	104	728760320	70	21484
2026-01-23 02:15:06.45	275.11	6.12	-49.6	-64.9	3.8	1.49e+00	0	38	104	728760320	70	21452
2026-01-23 02:15:09.72	274.73	5.96	-49.6	-64.9	3.8	1.49e+00	0	38	104	728760320	70	21486
2026-01-23 02:15:12.43	274.42	5.82	-49.6	-64.9	3.8	1.49e+00	0	38	104	728760320	70	21472
2026-01-23 02:15:15.70	274.05	5.66	-49.6	-65.0	3.8	1.49e+00	0	38	104	728760320	70	21530
2026-01-23 02:15:18.41	273.74	5.52	-49.6	-64.9	3.8	1.49e+00	0	38	104	728760320	70	21422
2026-01-23 02:15:21.67	273.38	5.36	-49.6	-64.9	3.8	1.49e+00	0	38	104	728760320	70	21480
2026-01-23 02:15:24.37	273.08	5.22	-49.6	-65.0	3.8	1.49e+00	0	38	104	728760320	70	21531
2026-01-23 02:15:27.65	272.72	5.06	-49.6	-64.9	3.8	1.49e+00	0	38	104	728760320	70	21452

#Closed at: 2026-01-23 02:15:30
#Recorded file [728 MB]: D:/Data/31040_260123_050624.dat