passes_logs/2026/01/23/T1/T1__20260123_213840_KHAYYAM_rec.log

#Pass ID: 20260123_213840_KHAYYAM
#Satellite: KHAYYAM
#Configuration: KHAYYAM_480M
#almurnet v.1.7.20251203
#Start time: 2026-01-23 21:38:41

#Version: 2.0.20230620
#Station: T1
#Location: 37.570604 lon 55.790049 lat
#TLE: 1 53370U 22096A   26022.96384356  .00007562  00000+0  30850-3 0  9991
#TLE: 2 53370  97.3553 289.8311 0001899 107.2217 252.9229 15.24706910192458

#Time	Az	El	Level	Level2	SNR	BER	BlckErr	Temp	State	Recorded	gain1	gain2
2026-01-23 21:38:41.37	9.66	5.04	-50.3	-55.6	3.5	0.00e+00	0	39	0	0	71	27709
2026-01-23 21:38:43.35	9.60	5.20	-47.1	-53.3	3.8	0.00e+00	0	40	104	0	64	31900
2026-01-23 21:38:45.34	9.54	5.36	-47.1	-53.3	3.8	0.00e+00	0	40	104	0	64	31945
2026-01-23 21:38:47.32	9.48	5.53	-47.1	-53.3	3.7	0.00e+00	0	40	104	0	64	31858
2026-01-23 21:38:49.31	9.42	5.69	-47.1	-53.3	3.8	0.00e+00	0	40	104	0	64	31712
2026-01-23 21:38:51.30	9.35	5.85	-47.1	-53.4	3.8	0.00e+00	0	41	104	0	64	31968
2026-01-23 21:38:53.28	9.29	6.02	-47.1	-53.3	3.7	0.00e+00	0	41	104	0	64	31953
2026-01-23 21:38:55.27	9.23	6.19	-47.1	-53.3	3.8	0.00e+00	0	41	104	0	64	31715
2026-01-23 21:38:57.26	9.16	6.36	-47.1	-53.3	3.8	0.00e+00	0	41	104	0	64	31695
2026-01-23 21:38:59.24	9.09	6.53	-47.1	-53.3	3.7	0.00e+00	0	41	104	0	64	31895
2026-01-23 21:39:01.23	9.02	6.70	-47.1	-53.4	3.7	0.00e+00	0	41	104	0	64	32039
2026-01-23 21:39:03.21	8.96	6.88	-47.1	-53.3	3.7	0.00e+00	0	42	104	0	64	31800
2026-01-23 21:39:05.20	8.89	7.05	-47.1	-53.4	3.7	0.00e+00	0	42	104	0	64	31979
2026-01-23 21:39:07.19	8.81	7.23	-47.1	-53.3	3.7	0.00e+00	0	42	104	0	64	31827
2026-01-23 21:39:09.17	8.74	7.41	-47.1	-53.4	3.7	0.00e+00	0	42	104	0	64	32203
2026-01-23 21:39:11.16	8.67	7.59	-47.1	-53.4	3.7	0.00e+00	0	42	104	0	64	32007
2026-01-23 21:39:13.15	8.59	7.77	-47.1	-53.4	3.7	0.00e+00	0	42	104	0	64	32069
2026-01-23 21:39:15.13	8.51	7.95	-47.1	-53.4	3.8	0.00e+00	0	42	104	0	64	32040
2026-01-23 21:39:17.12	8.44	8.14	-47.1	-53.3	3.7	0.00e+00	0	42	104	0	64	31844
2026-01-23 21:39:19.10	8.36	8.33	-47.1	-53.4	3.7	0.00e+00	0	43	104	0	64	31962
2026-01-23 21:39:21.09	8.28	8.52	-47.1	-53.3	3.7	0.00e+00	0	42	104	0	64	31776
2026-01-23 21:39:23.07	8.19	8.71	-47.1	-53.3	3.7	0.00e+00	0	43	104	0	64	31768
2026-01-23 21:39:25.06	8.11	8.90	-47.1	-53.3	3.8	0.00e+00	0	43	104	0	64	31890
2026-01-23 21:39:27.05	8.02	9.10	-47.1	-53.3	3.7	0.00e+00	0	43	104	0	64	31910
2026-01-23 21:39:29.03	7.94	9.29	-46.7	-53.2	3.8	0.00e+00	0	43	104	0	64	31274
2026-01-23 21:39:31.02	7.85	9.49	-47.4	-53.5	3.7	0.00e+00	0	43	104	0	66	28980
2026-01-23 21:39:33.01	7.76	9.69	-46.9	-53.3	3.8	0.00e+00	0	43	104	0	65	30152
2026-01-23 21:39:35.00	7.67	9.90	-47.2	-53.6	3.7	0.00e+00	0	43	104	0	65	30941
2026-01-23 21:39:36.99	7.57	10.10	-47.0	-53.4	3.8	0.00e+00	0	43	104	0	65	30382
2026-01-23 21:39:38.98	7.48	10.31	-48.6	-54.6	3.7	0.00e+00	0	43	104	0	67	30976
2026-01-23 21:39:40.97	7.38	10.52	-48.5	-54.6	3.7	0.00e+00	0	43	104	0	67	30971
2026-01-23 21:39:42.96	7.28	10.74	-47.9	-54.2	3.7	0.00e+00	0	43	104	0	67	29606
2026-01-23 21:39:44.95	7.18	10.95	-48.3	-54.3	3.7	0.00e+00	0	44	104	0	67	29854
2026-01-23 21:39:46.94	7.08	11.17	-48.8	-54.9	3.7	0.00e+00	0	43	104	0	68	30193
2026-01-23 21:39:48.96	6.97	11.39	-49.2	-55.0	3.7	0.00e+00	0	44	104	0	69	28999
2026-01-23 21:39:50.98	6.86	11.62	-49.5	-55.3	3.7	0.00e+00	0	44	104	0	69	30124
2026-01-23 21:39:52.97	6.75	11.85	-49.2	-55.1	3.7	0.00e+00	0	44	104	0	69	29195
2026-01-23 21:39:54.96	6.64	12.07	-49.4	-55.2	3.7	0.00e+00	0	44	104	0	69	29558
2026-01-23 21:39:56.95	6.52	12.31	-49.3	-55.1	3.7	0.00e+00	0	44	104	0	69	29267
2026-01-23 21:39:58.95	6.41	12.54	-49.4	-55.1	3.7	0.00e+00	0	44	104	0	70	27552
2026-01-23 21:40:00.93	6.29	12.78	-49.3	-55.2	3.7	0.00e+00	0	44	104	0	70	28019
2026-01-23 21:40:02.94	6.16	13.02	-49.5	-55.4	3.7	0.00e+00	0	44	104	0	70	28589
2026-01-23 21:40:04.93	6.04	13.26	-49.8	-55.6	3.7	0.00e+00	0	44	104	0	70	29267
2026-01-23 21:40:06.92	5.91	13.51	-49.7	-55.4	3.7	0.00e+00	0	44	104	0	71	26919
2026-01-23 21:40:08.91	5.78	13.76	-50.4	-55.9	3.7	0.00e+00	0	44	104	0	71	28656
2026-01-23 21:40:10.89	5.65	14.01	-50.3	-55.8	3.7	0.00e+00	0	44	104	0	71	28294
2026-01-23 21:40:12.88	5.52	14.27	-50.5	-55.7	3.7	0.00e+00	0	44	104	0	71	27967
2026-01-23 21:40:14.87	5.38	14.53	-50.7	-55.8	3.7	0.00e+00	0	44	104	0	72	26588
2026-01-23 21:40:16.94	5.23	14.80	-50.7	-55.9	3.7	0.00e+00	0	44	104	0	72	27108
2026-01-23 21:40:18.94	5.08	15.07	-50.4	-55.6	3.7	0.00e+00	0	44	104	0	72	26176
2026-01-23 21:40:20.93	4.94	15.34	-50.8	-55.8	3.7	0.00e+00	0	44	104	0	72	26883
2026-01-23 21:40:22.92	4.78	15.62	-50.0	-55.5	3.7	0.00e+00	0	44	104	0	72	25750
2026-01-23 21:40:24.91	4.63	15.90	-50.4	-55.4	3.7	0.00e+00	0	44	104	0	72	25461
2026-01-23 21:40:26.90	4.47	16.18	-50.2	-55.4	3.7	0.00e+00	0	44	104	0	72	25613
2026-01-23 21:40:28.89	4.31	16.47	-49.9	-54.7	3.7	0.00e+00	0	44	104	0	71	24822
2026-01-23 21:40:30.88	4.14	16.76	-49.8	-54.7	3.6	0.00e+00	0	44	104	0	71	24936
2026-01-23 21:40:32.93	3.97	17.06	-50.2	-55.5	3.7	0.00e+00	0	45	104	0	71	27281
2026-01-23 21:40:34.85	3.80	17.35	-50.5	-55.8	3.7	0.00e+00	0	44	104	0	71	28412
2026-01-23 21:40:36.85	3.62	17.66	-50.3	-55.6	3.7	0.00e+00	0	45	104	0	72	26242
2026-01-23 21:40:38.83	3.43	17.97	-50.4	-55.6	3.7	0.00e+00	0	45	104	0	72	26261
2026-01-23 21:40:40.82	3.25	18.28	-50.5	-55.7	3.7	0.00e+00	0	45	104	0	72	26351
2026-01-23 21:40:42.81	3.05	18.60	-50.9	-56.0	3.7	0.00e+00	0	45	104	0	72	27335
2026-01-23 21:40:44.81	2.85	18.93	-51.6	-56.4	3.7	0.00e+00	0	45	104	0	73	27017
2026-01-23 21:40:46.85	2.65	19.26	-50.9	-55.7	3.7	0.00e+00	0	45	104	0	73	25023
2026-01-23 21:40:48.88	2.43	19.61	-51.2	-56.0	3.7	0.00e+00	0	45	104	0	73	25698
2026-01-23 21:40:51.10	2.19	19.99	-51.7	-56.6	3.7	0.00e+00	0	45	104	0	74	26113
2026-01-23 21:40:53.09	1.97	20.33	-51.4	-56.3	3.7	0.00e+00	0	45	104	0	74	25308
2026-01-23 21:40:55.08	1.75	20.69	-50.9	-56.0	3.7	0.00e+00	0	44	104	0	73	25835
2026-01-23 21:40:57.02	1.52	21.04	-50.8	-56.0	3.7	0.00e+00	0	45	104	0	73	25790
2026-01-23 21:40:59.01	1.28	21.40	-51.6	-56.3	3.7	0.00e+00	0	45	104	0	73	26643
2026-01-23 21:41:01.00	1.03	21.77	-51.5	-56.4	3.7	0.00e+00	0	45	104	0	73	27106
2026-01-23 21:41:02.99	0.78	22.15	-51.0	-56.2	3.7	0.00e+00	0	45	104	0	73	26294
2026-01-23 21:41:04.98	0.52	22.53	-51.4	-56.4	3.7	0.00e+00	0	44	104	0	73	27001
2026-01-23 21:41:06.96	0.25	22.92	-51.4	-56.4	3.7	0.00e+00	0	45	104	0	73	26916
2026-01-23 21:41:08.95	359.98	23.32	-51.8	-56.7	3.7	0.00e+00	0	45	104	0	74	26389
2026-01-23 21:41:10.94	359.69	23.72	-51.8	-56.6	3.7	0.00e+00	0	45	104	0	74	26082
2026-01-23 21:41:12.93	359.40	24.14	-51.7	-56.6	3.7	0.00e+00	0	45	104	0	74	26179
2026-01-23 21:41:14.98	359.09	24.57	-51.7	-56.5	3.7	0.00e+00	0	45	104	0	74	25909
2026-01-23 21:41:17.02	358.77	25.01	-51.6	-56.5	3.7	0.00e+00	0	45	104	0	74	25935
2026-01-23 21:41:19.01	358.44	25.44	-52.0	-56.7	3.7	0.00e+00	0	45	104	0	74	26515
2026-01-23 21:41:21.00	358.11	25.88	-52.2	-56.9	3.7	0.00e+00	0	45	104	0	75	25616
2026-01-23 21:41:22.99	357.77	26.33	-52.2	-56.8	3.7	0.00e+00	0	45	104	0	75	25236
2026-01-23 21:41:24.98	357.41	26.79	-52.2	-56.9	3.7	0.00e+00	0	45	104	0	75	25476
2026-01-23 21:41:26.97	357.05	27.26	-52.3	-56.9	3.7	0.00e+00	0	45	104	0	75	25427
2026-01-23 21:41:28.99	356.66	27.75	-52.5	-56.9	3.7	0.00e+00	0	45	104	0	75	25635
2026-01-23 21:41:30.98	356.27	28.23	-52.0	-56.8	3.7	0.00e+00	0	45	104	0	75	25277
2026-01-23 21:41:33.10	355.84	28.76	-51.6	-56.6	3.7	0.00e+00	0	45	104	0	75	24608
2026-01-23 21:41:35.04	355.43	29.25	-51.7	-56.6	3.7	0.00e+00	0	45	104	0	74	25983
2026-01-23 21:41:37.02	355.00	29.76	-52.2	-56.9	3.7	0.00e+00	0	45	104	0	75	25497
2026-01-23 21:41:39.01	354.55	30.29	-51.9	-56.7	3.7	0.00e+00	0	45	104	0	75	25082
2026-01-23 21:41:41.00	354.08	30.82	-51.4	-56.4	3.7	0.00e+00	0	45	104	0	74	25490
2026-01-23 21:41:42.99	353.59	31.36	-51.8	-56.6	3.7	0.00e+00	0	45	104	0	74	26120
2026-01-23 21:41:44.98	353.09	31.91	-51.6	-56.5	3.7	0.00e+00	0	45	104	0	74	25968
2026-01-23 21:41:47.00	352.56	32.49	-50.9	-56.1	3.7	0.00e+00	0	45	104	0	73	26128
2026-01-23 21:41:49.07	351.99	33.08	-50.7	-56.0	3.7	0.00e+00	0	45	104	0	73	25743
2026-01-23 21:41:51.09	351.42	33.67	-50.9	-56.1	3.7	0.00e+00	0	45	104	0	73	26059
2026-01-23 21:41:53.08	350.83	34.27	-51.4	-56.4	3.7	0.00e+00	0	45	104	0	73	26899
2026-01-23 21:41:55.07	350.22	34.87	-51.8	-56.7	3.7	0.00e+00	0	45	104	0	74	26300
2026-01-23 21:41:57.05	349.58	35.48	-51.8	-56.5	3.7	0.00e+00	0	45	104	0	74	25825
2026-01-23 21:41:58.99	348.94	36.09	-50.8	-56.1	3.7	0.00e+00	0	45	104	0	73	26135
2026-01-23 21:42:00.98	348.25	36.72	-51.3	-56.5	3.7	0.00e+00	0	45	104	0	73	27235
2026-01-23 21:42:02.97	347.53	37.37	-50.6	-55.9	3.7	0.00e+00	0	45	104	0	72	27156
2026-01-23 21:42:04.97	346.77	38.02	-51.5	-56.6	3.7	0.00e+00	0	45	104	0	73	27516
2026-01-23 21:42:06.96	345.98	38.69	-52.5	-57.1	3.7	0.00e+00	0	45	104	0	75	26023
2026-01-23 21:42:08.95	345.16	39.36	-52.3	-57.1	3.7	0.00e+00	0	45	104	0	75	26017
2026-01-23 21:42:10.94	344.31	40.04	-52.0	-56.8	3.7	0.00e+00	0	45	104	0	75	25292
2026-01-23 21:42:12.92	343.41	40.72	-51.6	-56.7	3.7	0.00e+00	0	45	104	0	75	24818
2026-01-23 21:42:14.91	342.48	41.42	-52.0	-56.9	3.7	0.00e+00	0	45	104	0	75	25472
2026-01-23 21:42:16.90	341.50	42.12	-51.4	-56.6	3.7	0.00e+00	0	45	104	0	74	26021
2026-01-23 21:42:18.94	340.44	42.84	-51.4	-56.6	3.7	0.00e+00	0	45	104	0	74	26078
2026-01-23 21:42:20.91	339.38	43.55	-51.2	-56.4	3.7	0.00e+00	0	45	104	0	74	25598
2026-01-23 21:42:22.90	338.25	44.26	-51.6	-56.6	3.7	0.00e+00	0	45	104	0	74	26001
2026-01-23 21:42:24.89	337.07	44.98	-51.9	-56.8	3.7	0.00e+00	0	45	104	0	74	26807
2026-01-23 21:42:26.88	335.83	45.70	-51.4	-56.6	3.7	0.00e+00	0	45	104	0	74	26054
2026-01-23 21:42:28.87	334.53	46.42	-52.0	-56.8	3.7	0.00e+00	0	45	104	0	74	26872
2026-01-23 21:42:30.85	333.17	47.13	-52.5	-57.1	3.7	0.00e+00	0	45	104	0	75	26141
2026-01-23 21:42:32.85	331.73	47.85	-52.1	-56.8	3.7	0.00e+00	0	45	104	0	75	25231
2026-01-23 21:42:34.85	330.23	48.55	-52.0	-56.8	3.7	0.00e+00	0	45	104	0	75	25166
2026-01-23 21:42:36.88	328.63	49.26	-52.4	-57.0	3.7	0.00e+00	0	45	104	0	75	25878
2026-01-23 21:42:38.87	326.98	49.95	-52.4	-57.1	3.7	0.00e+00	0	45	104	0	75	25982
2026-01-23 21:42:40.86	325.25	50.61	-51.7	-56.5	3.7	0.00e+00	0	45	104	0	75	24270
2026-01-23 21:42:42.84	323.46	51.26	-51.9	-56.6	3.7	0.00e+00	0	45	104	0	75	24662
2026-01-23 21:42:44.83	321.57	51.89	-51.8	-56.5	3.7	0.00e+00	0	45	104	0	75	24478
2026-01-23 21:42:46.82	319.61	52.50	-52.3	-56.9	3.7	0.00e+00	0	45	104	0	75	25519
2026-01-23 21:42:48.81	317.55	53.08	-52.3	-56.7	3.7	0.00e+00	0	45	104	0	75	25029
2026-01-23 21:42:50.85	315.37	53.64	-52.1	-56.7	3.7	0.00e+00	0	45	104	0	75	25021
2026-01-23 21:42:52.84	313.15	54.15	-52.3	-56.9	3.7	0.00e+00	0	45	104	0	75	25391
2026-01-23 21:42:54.91	310.76	54.64	-52.6	-57.0	3.7	0.00e+00	0	45	104	0	75	25771
2026-01-23 21:42:56.98	308.29	55.09	-52.1	-56.8	3.7	0.00e+00	0	45	104	0	75	25303
2026-01-23 21:42:58.97	305.84	55.47	-52.7	-57.1	3.7	0.00e+00	0	45	104	0	76	24721
2026-01-23 21:43:00.96	303.32	55.80	-52.7	-57.1	3.7	0.00e+00	0	45	104	0	76	24550
2026-01-23 21:43:02.95	300.75	56.08	-52.2	-56.8	3.7	0.00e+00	0	45	104	0	76	23863
2026-01-23 21:43:04.93	298.15	56.30	-52.7	-57.1	3.7	0.00e+00	0	45	104	0	76	24624
2026-01-23 21:43:06.92	295.49	56.47	-52.3	-56.7	3.7	0.00e+00	0	45	104	0	76	23665
2026-01-23 21:43:08.91	292.81	56.58	-52.7	-57.1	3.7	0.00e+00	0	45	104	0	76	24703
2026-01-23 21:43:10.91	290.09	56.63	-52.8	-57.1	3.7	0.00e+00	0	45	104	0	76	24716
2026-01-23 21:43:12.90	287.39	56.62	-52.6	-56.9	3.7	0.00e+00	0	45	104	0	76	24089
2026-01-23 21:43:14.95	284.61	56.54	-51.9	-56.7	3.7	0.00e+00	0	45	104	0	75	24859
2026-01-23 21:43:16.94	281.94	56.41	-52.6	-57.1	3.7	0.00e+00	0	45	104	0	75	26197
2026-01-23 21:43:18.94	279.28	56.21	-52.6	-57.2	3.7	0.00e+00	0	45	104	0	75	26347
2026-01-23 21:43:20.93	276.68	55.96	-52.7	-57.2	3.7	0.00e+00	0	45	104	0	76	24961
2026-01-23 21:43:22.91	274.15	55.66	-52.5	-57.0	3.7	0.00e+00	0	45	104	0	76	24385
2026-01-23 21:43:24.90	271.66	55.31	-52.4	-56.9	3.7	0.00e+00	0	45	104	0	76	24118
2026-01-23 21:43:26.90	269.22	54.90	-52.4	-57.1	3.7	0.00e+00	0	45	104	0	76	24706
2026-01-23 21:43:28.89	266.88	54.45	-52.6	-57.2	3.7	0.00e+00	0	45	104	0	76	24884
2026-01-23 21:43:30.96	264.51	53.94	-51.9	-56.7	3.7	0.00e+00	0	45	104	0	75	25087
2026-01-23 21:43:32.98	262.29	53.41	-51.7	-56.6	3.7	0.00e+00	0	45	104	0	75	24803
2026-01-23 21:43:34.97	260.19	52.85	-52.6	-57.2	3.7	0.00e+00	0	45	104	0	75	26301
2026-01-23 21:43:36.96	258.17	52.25	-52.4	-56.9	3.7	0.00e+00	0	45	104	0	76	23986
2026-01-23 21:43:38.95	256.23	51.63	-52.7	-57.2	3.7	0.00e+00	0	45	104	0	76	24854
2026-01-23 21:43:41.05	254.27	50.96	-52.7	-57.3	3.7	0.00e+00	0	45	104	0	76	25141
2026-01-23 21:43:43.04	252.50	50.29	-52.7	-57.3	3.7	0.00e+00	0	45	104	0	76	25158
2026-01-23 21:43:45.04	250.80	49.61	-52.6	-57.1	3.7	0.00e+00	0	45	104	0	76	24715
2026-01-23 21:43:47.02	249.19	48.92	-52.5	-57.1	3.7	0.00e+00	0	45	104	0	76	24692
2026-01-23 21:43:49.01	247.65	48.22	-52.5	-56.9	3.7	0.00e+00	0	45	104	0	76	24186
2026-01-23 21:43:51.01	246.17	47.51	-52.6	-57.1	3.7	0.00e+00	0	45	104	0	76	24594
2026-01-23 21:43:52.99	244.77	46.80	-52.6	-57.1	3.7	0.00e+00	0	45	104	0	76	24794
2026-01-23 21:43:54.98	243.44	46.08	-52.4	-57.1	3.7	0.00e+00	0	45	104	0	76	24737
2026-01-23 21:43:56.97	242.16	45.35	-52.3	-57.0	3.7	0.00e+00	0	45	104	0	75	25735
2026-01-23 21:43:58.96	240.94	44.63	-52.4	-57.0	3.7	0.00e+00	0	45	104	0	75	25777
2026-01-23 21:44:00.95	239.78	43.91	-52.6	-57.1	3.7	0.00e+00	0	45	104	0	75	26187
2026-01-23 21:44:02.94	238.67	43.19	-52.7	-57.2	3.7	0.00e+00	0	45	104	0	76	24964
2026-01-23 21:44:04.93	237.61	42.48	-52.7	-57.1	3.7	0.00e+00	0	45	104	0	76	24634
2026-01-23 21:44:06.97	236.58	41.75	-52.7	-57.0	3.7	0.00e+00	0	45	104	0	76	24518
2026-01-23 21:44:08.96	235.62	41.05	-52.8	-57.3	3.7	0.00e+00	0	45	104	0	76	25158
2026-01-23 21:44:10.95	234.70	40.36	-52.1	-56.9	3.7	0.00e+00	0	45	104	0	76	24096
2026-01-23 21:44:12.93	233.82	39.67	-52.3	-57.0	3.7	0.00e+00	0	45	104	0	76	24259
2026-01-23 21:44:14.93	232.97	38.99	-52.7	-57.2	3.7	0.00e+00	0	46	104	0	76	24993
2026-01-23 21:44:16.91	232.17	38.32	-52.7	-57.1	3.7	0.00e+00	0	45	104	0	76	24779
2026-01-23 21:44:18.90	231.40	37.66	-52.5	-57.0	3.7	0.00e+00	0	45	104	0	76	24433
2026-01-23 21:44:20.90	230.65	37.01	-52.5	-57.1	3.7	0.00e+00	0	45	104	0	76	24532
2026-01-23 21:44:22.89	229.94	36.37	-52.3	-56.9	3.7	0.00e+00	0	45	104	0	76	24220
2026-01-23 21:44:24.91	229.25	35.72	-52.8	-57.2	3.7	0.00e+00	0	45	104	0	76	25036
2026-01-23 21:44:26.90	228.60	35.10	-52.7	-57.2	3.7	0.00e+00	0	45	104	0	76	24945
2026-01-23 21:44:28.89	227.97	34.49	-52.4	-57.1	3.7	0.00e+00	0	45	104	0	76	24531
2026-01-23 21:44:30.88	227.37	33.89	-52.3	-57.0	3.7	0.00e+00	0	45	104	0	76	24443
2026-01-23 21:44:32.86	226.80	33.30	-52.6	-57.0	3.7	0.00e+00	0	45	104	0	76	24453
2026-01-23 21:44:34.85	226.24	32.72	-52.6	-57.1	3.7	0.00e+00	0	45	104	0	76	24544
2026-01-23 21:44:36.86	225.70	32.14	-52.7	-57.2	3.7	0.00e+00	0	45	104	0	76	25013
2026-01-23 21:44:38.85	225.18	31.58	-52.7	-57.2	3.7	0.00e+00	0	45	104	0	76	24949
2026-01-23 21:44:40.84	224.69	31.03	-52.8	-57.2	3.7	0.00e+00	0	45	104	0	76	25044
2026-01-23 21:44:42.83	224.21	30.49	-52.8	-57.3	3.7	0.00e+00	0	45	104	0	76	25097
2026-01-23 21:44:44.82	223.75	29.96	-52.6	-57.1	3.7	0.00e+00	0	45	104	0	76	24611
2026-01-23 21:44:46.81	223.30	29.44	-52.6	-57.0	3.7	0.00e+00	0	45	104	0	76	24468
2026-01-23 21:44:48.80	222.87	28.92	-52.2	-56.8	3.7	0.00e+00	0	45	104	0	76	23940
2026-01-23 21:44:50.79	222.45	28.42	-52.4	-56.9	3.7	0.00e+00	0	45	104	0	76	24136
2026-01-23 21:44:52.75	222.06	27.94	-52.4	-56.9	3.7	0.00e+00	0	45	104	0	76	23984
2026-01-23 21:44:55.26	221.57	27.33	-52.4	-56.9	3.7	0.00e+00	0	45	104	0	76	24038
2026-01-23 21:44:57.25	221.20	26.85	-52.2	-56.7	3.7	0.00e+00	0	45	104	0	76	23588
2026-01-23 21:44:59.30	220.83	26.37	-52.2	-56.7	3.7	0.00e+00	0	45	104	0	76	23539
2026-01-23 21:45:01.37	220.47	25.90	-52.1	-56.7	3.7	0.00e+00	0	45	104	0	76	23428
2026-01-23 21:45:03.37	220.13	25.45	-52.3	-56.8	3.7	0.00e+00	0	45	104	0	76	23835
2026-01-23 21:45:05.35	219.80	25.01	-52.4	-57.0	3.7	0.00e+00	0	45	104	0	76	24510
2026-01-23 21:45:07.34	219.49	24.58	-52.5	-57.1	3.7	0.00e+00	0	45	104	0	76	24562
2026-01-23 21:45:09.33	219.18	24.16	-52.1	-56.7	3.7	0.00e+00	0	45	104	0	75	24853
2026-01-23 21:45:11.32	218.88	23.74	-51.8	-56.6	3.7	0.00e+00	0	45	104	0	75	24566
2026-01-23 21:45:13.31	218.59	23.33	-51.8	-56.4	3.7	0.00e+00	0	45	104	0	75	24198
2026-01-23 21:45:15.30	218.31	22.93	-51.9	-56.5	3.7	0.00e+00	0	45	104	0	75	24500
2026-01-23 21:45:17.29	218.04	22.54	-52.0	-56.6	3.7	0.00e+00	0	45	104	0	75	24632
2026-01-23 21:45:19.28	217.78	22.15	-52.1	-56.7	3.7	0.00e+00	0	45	104	0	75	24879
2026-01-23 21:45:21.27	217.52	21.77	-52.0	-56.5	3.7	0.00e+00	0	45	104	0	75	24509
2026-01-23 21:45:23.26	217.27	21.39	-51.9	-56.4	3.7	0.00e+00	0	45	104	0	75	24171
2026-01-23 21:45:25.37	217.01	21.00	-51.8	-56.5	3.7	0.00e+00	0	45	104	0	75	24328
2026-01-23 21:45:27.37	216.77	20.64	-51.7	-56.4	3.7	0.00e+00	0	45	104	0	75	23997
2026-01-23 21:45:29.36	216.54	20.28	-51.8	-56.6	3.7	0.00e+00	0	45	104	0	75	24536
2026-01-23 21:45:31.35	216.32	19.93	-51.9	-56.6	3.6	0.00e+00	0	45	104	0	75	24694
2026-01-23 21:45:33.34	216.10	19.59	-51.9	-56.6	3.7	0.00e+00	0	45	104	0	75	24527
2026-01-23 21:45:35.39	215.88	19.24	-51.8	-56.5	3.7	0.00e+00	0	45	104	0	75	24380
2026-01-23 21:45:37.47	215.67	18.89	-51.7	-56.4	3.7	0.00e+00	0	45	104	0	75	24239
2026-01-23 21:45:39.46	215.47	18.57	-51.5	-56.3	3.7	0.00e+00	0	45	104	0	75	23695
2026-01-23 21:45:41.45	215.27	18.24	-51.4	-56.1	3.7	0.00e+00	0	45	104	0	74	24607
2026-01-23 21:45:43.44	215.08	17.93	-51.6	-56.2	3.7	0.00e+00	0	45	104	0	74	24935
2026-01-23 21:45:45.43	214.89	17.61	-51.9	-56.5	3.7	0.00e+00	0	45	104	0	74	25869
2026-01-23 21:45:47.42	214.71	17.31	-52.0	-56.5	3.7	0.00e+00	0	45	104	0	74	25923
2026-01-23 21:45:49.41	214.53	17.00	-52.1	-56.6	3.7	0.00e+00	0	45	104	0	75	24741
2026-01-23 21:45:51.40	214.36	16.71	-52.1	-56.6	3.7	0.00e+00	0	45	104	0	75	24648
2026-01-23 21:45:53.40	214.19	16.41	-52.1	-56.6	3.7	0.00e+00	0	45	104	0	75	24771
2026-01-23 21:45:55.59	214.01	16.09	-52.1	-56.6	3.7	0.00e+00	0	45	104	0	75	24748
2026-01-23 21:45:57.58	213.85	15.81	-52.0	-56.6	3.7	0.00e+00	0	45	104	0	75	24592
2026-01-23 21:45:59.59	213.69	15.52	-51.7	-56.4	3.7	0.00e+00	0	45	104	0	75	24138
2026-01-23 21:46:01.59	213.54	15.25	-51.7	-56.4	3.7	0.00e+00	0	45	104	0	75	24007
2026-01-23 21:46:03.58	213.39	14.97	-51.6	-56.3	3.7	0.00e+00	0	45	104	0	75	23964
2026-01-23 21:46:05.59	213.24	14.70	-51.6	-56.4	3.7	0.00e+00	0	46	104	0	75	23984
2026-01-23 21:46:07.59	213.09	14.43	-51.8	-56.5	3.7	0.00e+00	0	45	104	0	75	24246
2026-01-23 21:46:09.69	212.94	14.16	-51.9	-56.5	3.7	0.00e+00	0	45	104	0	75	24329
2026-01-23 21:46:11.97	212.79	13.86	-51.7	-56.4	3.7	0.00e+00	0	46	104	0	75	24090
2026-01-23 21:46:13.95	212.65	13.61	-51.8	-56.5	3.7	0.00e+00	0	45	104	0	75	24253
2026-01-23 21:46:15.96	212.52	13.36	-51.9	-56.5	3.7	0.00e+00	0	45	104	0	75	24256
2026-01-23 21:46:17.99	212.39	13.10	-52.0	-56.5	3.7	0.00e+00	0	45	104	0	75	24465
2026-01-23 21:46:20.00	212.26	12.86	-52.0	-56.5	3.7	0.00e+00	0	45	104	0	75	24427
2026-01-23 21:46:21.99	212.14	12.62	-52.1	-56.6	3.7	0.00e+00	0	45	104	0	75	24545
2026-01-23 21:46:24.22	212.00	12.35	-52.0	-56.5	3.7	0.00e+00	0	45	104	0	75	24406
2026-01-23 21:46:26.28	211.88	12.11	-52.1	-56.6	3.7	0.00e+00	0	45	104	0	75	24546
2026-01-23 21:46:28.27	211.77	11.88	-51.9	-56.4	3.7	0.00e+00	0	45	104	0	75	24076
2026-01-23 21:46:30.28	211.65	11.64	-52.0	-56.5	3.7	0.00e+00	0	45	104	0	75	24303
2026-01-23 21:46:32.26	211.54	11.42	-51.7	-56.3	3.7	0.00e+00	0	45	104	0	75	23948
2026-01-23 21:46:34.26	211.43	11.19	-51.7	-56.3	3.7	0.00e+00	0	45	104	0	75	23812
2026-01-23 21:46:36.24	211.33	10.97	-51.8	-56.3	3.6	0.00e+00	0	46	104	0	75	23865
2026-01-23 21:46:38.22	211.22	10.76	-51.7	-56.3	3.7	0.00e+00	0	45	104	0	75	23774
2026-01-23 21:46:40.21	211.12	10.54	-51.6	-56.1	3.7	0.00e+00	0	45	104	0	75	23177
2026-01-23 21:46:42.20	211.02	10.33	-51.8	-56.2	3.7	0.00e+00	0	46	104	0	75	23634
2026-01-23 21:46:44.36	210.91	10.10	-51.4	-56.0	3.7	0.00e+00	0	45	104	0	74	24433
2026-01-23 21:46:46.38	210.81	9.89	-51.7	-56.1	3.7	0.00e+00	0	45	104	0	74	24700
2026-01-23 21:46:48.48	210.71	9.67	-50.9	-55.7	3.7	0.00e+00	0	45	104	0	73	24874
2026-01-23 21:46:50.65	210.61	9.45	-51.2	-55.8	3.7	0.00e+00	0	45	104	0	73	25303
2026-01-23 21:46:52.84	210.51	9.23	-51.1	-55.7	3.7	0.00e+00	0	45	104	0	73	24962
2026-01-23 21:46:55.02	210.41	9.01	-51.2	-55.8	3.7	0.00e+00	0	45	104	0	73	25105
2026-01-23 21:46:57.01	210.33	8.81	-51.9	-56.5	3.7	0.00e+00	0	45	104	0	74	25756
2026-01-23 21:46:58.99	210.24	8.62	-51.9	-56.6	3.7	0.00e+00	0	46	104	0	75	24617
2026-01-23 21:47:01.01	210.15	8.42	-52.4	-56.9	3.7	0.00e+00	0	45	104	0	75	25464
2026-01-23 21:47:02.99	210.07	8.23	-52.9	-57.4	3.7	0.00e+00	0	46	104	0	76	25465
2026-01-23 21:47:04.98	209.99	8.04	-52.6	-57.1	3.7	0.00e+00	0	45	104	0	76	24533
2026-01-23 21:47:06.97	209.91	7.86	-51.6	-56.6	3.7	0.00e+00	0	45	104	0	75	24693
2026-01-23 21:47:08.97	209.83	7.67	-52.4	-57.1	3.7	0.00e+00	0	45	104	0	76	24585
2026-01-23 21:47:10.97	209.75	7.48	-52.9	-57.4	3.7	0.00e+00	0	46	104	0	76	25605
2026-01-23 21:47:12.97	209.67	7.30	-52.4	-56.9	3.7	0.00e+00	0	45	104	0	76	24212
2026-01-23 21:47:14.96	209.60	7.12	-51.8	-56.7	3.7	0.00e+00	0	45	104	0	75	25034
2026-01-23 21:47:16.94	209.53	6.94	-52.2	-56.6	3.7	0.00e+00	0	45	104	0	75	24779
2026-01-23 21:47:18.93	209.45	6.77	-52.2	-56.6	3.7	0.00e+00	0	45	104	0	75	24651
2026-01-23 21:47:20.93	209.38	6.59	-52.1	-56.6	3.6	0.00e+00	0	45	104	0	75	24699
2026-01-23 21:47:22.92	209.31	6.42	-52.2	-56.6	3.7	0.00e+00	0	45	104	0	75	24695
2026-01-23 21:47:24.92	209.24	6.24	-52.2	-56.6	3.7	0.00e+00	0	46	104	0	75	24739
2026-01-23 21:47:26.93	209.17	6.07	-52.1	-56.6	3.7	0.00e+00	0	45	104	0	75	24683
2026-01-23 21:47:28.91	209.11	5.90	-52.1	-56.6	3.7	0.00e+00	0	45	104	0	75	24679
2026-01-23 21:47:30.90	209.04	5.74	-52.2	-56.6	3.7	0.00e+00	0	45	104	0	75	24703
2026-01-23 21:47:32.90	208.97	5.57	-52.2	-56.6	3.7	0.00e+00	0	45	104	0	75	24630
2026-01-23 21:47:34.90	208.91	5.40	-52.1	-56.6	3.7	0.00e+00	0	45	104	0	75	24677
2026-01-23 21:47:36.89	208.85	5.24	-52.1	-56.6	3.7	0.00e+00	0	45	104	0	75	24616
2026-01-23 21:47:38.89	208.79	5.08	-52.1	-56.6	3.7	0.00e+00	0	45	104	0	75	24637
2026-01-23 21:47:40.88	208.72	4.91	-52.1	-56.6	3.7	0.00e+00	0	45	104	0	75	24574

#Closed at: 2026-01-23 21:47:41
#Recorded file [0 MB]: D:/Data/31040_260124_003841.dat