passes_logs/2026/01/23/T1/T1__20260123_093651_FENGYUN_3D_rec.log

#Pass ID: 20260123_093651_FENGYUN 3D
#Satellite: FENGYUN 3D
#Configuration: FENGYUN 3D
#almurnet v.1.7.20251203
#Start time: 2026-01-23 09:36:53

#Version: 2.0.20230620
#Station: T1
#Location: 37.570604 lon 55.790049 lat
#TLE: 1 43010U 17072A   26022.47411728  .00000617  00000+0  31375-3 0  9996
#TLE: 2 43010  98.9952 354.4060 0002481  95.7964 264.3494 14.19699924424319

#Time	Az	El	Level	Level2	SNR	BER	BlckErr	Temp	State	Recorded	gain1	gain2
2026-01-23 09:36:53.73	82.97	5.12	-48.9	-61.0	3.8	8.46e-01	0	37	0	0	69	14484
2026-01-23 09:36:56.70	82.64	5.26	-48.8	-60.9	3.8	8.47e-01	0	37	104	0	69	14369
2026-01-23 09:36:59.68	82.29	5.40	-48.8	-61.0	3.8	8.47e-01	0	37	104	0	69	14377
2026-01-23 09:37:02.67	81.95	5.55	-48.8	-60.9	3.8	8.46e-01	0	37	104	0	69	14356
2026-01-23 09:37:05.66	81.60	5.69	-48.8	-61.0	3.8	8.48e-01	0	38	104	0	69	14433
2026-01-23 09:37:08.64	81.25	5.83	-48.8	-61.0	3.8	8.46e-01	0	38	104	0	69	14380
2026-01-23 09:37:11.62	80.89	5.98	-48.8	-61.0	3.8	8.46e-01	0	38	104	0	69	14401
2026-01-23 09:37:14.60	80.53	6.12	-48.8	-61.0	3.8	8.47e-01	0	38	104	0	69	14386
2026-01-23 09:37:17.58	80.17	6.26	-48.8	-61.0	3.8	8.47e-01	0	38	104	0	69	14397
2026-01-23 09:37:20.57	79.80	6.40	-48.8	-60.9	3.8	8.46e-01	0	38	104	0	69	14343
2026-01-23 09:37:23.57	79.43	6.55	-48.8	-60.9	3.8	8.47e-01	0	38	104	0	69	14248
2026-01-23 09:37:26.56	79.05	6.69	-48.8	-60.8	3.8	8.46e-01	0	39	104	0	69	14185
2026-01-23 09:37:29.55	78.68	6.83	-48.8	-60.8	3.8	8.47e-01	0	38	104	0	69	14077
2026-01-23 09:37:32.54	78.29	6.97	-48.8	-60.7	3.8	8.47e-01	0	39	104	0	69	13962
2026-01-23 09:37:35.54	77.91	7.11	-48.8	-60.7	3.8	8.47e-01	0	39	104	0	69	14018
2026-01-23 09:37:38.54	77.52	7.25	-48.8	-60.6	3.8	8.46e-01	0	39	104	0	69	13794
2026-01-23 09:37:41.53	77.12	7.39	-48.7	-60.3	3.8	8.47e-01	0	39	104	0	69	13276
2026-01-23 09:37:44.52	76.72	7.53	-48.7	-60.4	3.8	8.46e-01	0	39	104	0	69	13485
2026-01-23 09:37:47.52	76.32	7.67	-48.8	-60.7	3.8	8.48e-01	0	39	104	0	69	13983
2026-01-23 09:37:50.51	75.92	7.81	-48.7	-60.1	3.8	8.47e-01	0	39	104	0	69	13053
2026-01-23 09:37:53.51	75.51	7.95	-48.6	-59.3	3.8	8.47e-01	0	39	104	0	69	11840
2026-01-23 09:37:56.50	75.09	8.08	-48.7	-60.1	3.8	8.46e-01	0	39	104	0	69	13019
2026-01-23 09:37:59.49	74.67	8.22	-48.7	-60.3	3.8	8.47e-01	0	39	104	0	69	13301
2026-01-23 09:38:02.48	74.25	8.36	-48.4	-57.6	4.2	8.44e-01	0	39	104	0	68	10341
2026-01-23 09:38:05.48	73.83	8.49	-48.8	-60.3	3.8	8.46e-01	0	39	104	0	68	14187
2026-01-23 09:38:08.47	73.40	8.62	-44.4	-47.8	11.9	5.74e-03	0	39	0	7340032	60	5281
2026-01-23 09:38:11.47	72.96	8.76	-39.5	-41.6	17.8	0.00e+00	0	39	0	24117248	51	4376
2026-01-23 09:38:14.46	72.53	8.89	-39.9	-42.0	17.5	0.00e+00	0	39	0	40894464	50	4860
2026-01-23 09:38:17.45	72.08	9.02	-44.3	-47.5	12.2	2.47e-04	0	39	0	58720256	59	5415
2026-01-23 09:38:20.45	71.64	9.15	-45.4	-49.2	10.1	6.73e-01	0	40	0	74448896	62	5586
2026-01-23 09:38:23.44	71.19	9.28	-40.0	-42.2	17.4	0.00e+00	0	39	0	91226112	51	4658
2026-01-23 09:38:26.43	70.74	9.41	-39.0	-41.0	18.4	0.00e+00	0	39	0	108003328	50	4332
2026-01-23 09:38:29.42	70.28	9.54	-38.6	-40.6	18.9	0.00e+00	0	39	0	124780544	49	4344
2026-01-23 09:38:32.42	69.82	9.66	-38.6	-40.6	18.9	0.00e+00	0	39	0	141557760	49	4353
2026-01-23 09:38:35.41	69.35	9.79	-38.3	-40.3	19.1	0.00e+00	0	40	0	158334976	48	4481
2026-01-23 09:38:38.41	68.88	9.91	-38.4	-40.3	19.1	0.00e+00	0	39	0	175112192	48	4490
2026-01-23 09:38:41.40	68.41	10.04	-38.3	-40.2	19.2	0.00e+00	0	40	0	191889408	48	4436
2026-01-23 09:38:44.39	67.93	10.16	-38.1	-40.0	19.4	0.00e+00	0	40	0	208666624	48	4339
2026-01-23 09:38:47.38	67.45	10.28	-38.3	-40.2	19.2	0.00e+00	0	40	0	225443840	48	4433
2026-01-23 09:38:50.37	66.96	10.40	-38.3	-40.3	19.2	0.00e+00	0	40	0	242221056	48	4452
2026-01-23 09:38:53.36	66.47	10.51	-38.3	-40.3	19.2	0.00e+00	0	40	0	258998272	48	4445
2026-01-23 09:38:56.36	65.98	10.63	-38.2	-40.2	19.3	0.00e+00	0	40	0	275775488	48	4408
2026-01-23 09:38:59.35	65.48	10.74	-38.4	-40.3	19.2	0.00e+00	0	40	0	292552704	48	4480
2026-01-23 09:39:02.34	64.98	10.86	-38.3	-40.2	19.3	0.00e+00	0	39	0	309329920	48	4432
2026-01-23 09:39:05.33	64.47	10.97	-38.0	-40.0	19.5	0.00e+00	0	40	0	326107136	48	4309
2026-01-23 09:39:08.33	63.96	11.08	-38.1	-40.0	19.5	0.00e+00	0	40	0	342884352	48	4336
2026-01-23 09:39:11.31	63.45	11.18	-37.8	-39.8	19.5	0.00e+00	0	40	0	359661568	47	4456
2026-01-23 09:39:14.30	62.93	11.29	-37.9	-39.9	19.4	0.00e+00	0	40	0	376438784	47	4503
2026-01-23 09:39:17.29	62.41	11.39	-38.2	-40.2	19.1	0.00e+00	0	40	0	394264576	47	4668
2026-01-23 09:39:20.29	61.89	11.49	-38.1	-40.1	19.2	0.00e+00	0	40	0	411041792	47	4639
2026-01-23 09:39:23.28	61.36	11.60	-37.8	-39.8	19.5	0.00e+00	0	40	0	427819008	47	4448
2026-01-23 09:39:26.27	60.83	11.69	-38.0	-40.0	19.3	0.00e+00	0	40	0	444596224	47	4556
2026-01-23 09:39:29.26	60.29	11.79	-37.9	-39.9	19.4	0.00e+00	0	40	0	461373440	47	4496
2026-01-23 09:39:32.25	59.76	11.88	-37.8	-39.7	19.6	0.00e+00	0	40	0	478150656	47	4409
2026-01-23 09:39:35.25	59.21	11.98	-37.8	-39.7	19.6	0.00e+00	0	40	0	494927872	47	4439
2026-01-23 09:39:38.23	58.67	12.07	-37.5	-39.4	19.9	0.00e+00	0	40	0	511705088	47	4267
2026-01-23 09:39:41.23	58.12	12.15	-37.4	-39.4	19.9	0.00e+00	0	40	0	528482304	46	4495
2026-01-23 09:39:44.22	57.57	12.24	-37.5	-39.4	19.9	0.00e+00	0	40	0	545259520	46	4512
2026-01-23 09:39:47.21	57.01	12.32	-37.6	-39.5	19.8	0.00e+00	0	40	0	562036736	46	4585
2026-01-23 09:39:50.20	56.45	12.40	-37.4	-39.3	20.0	0.00e+00	0	40	0	578813952	46	4480
2026-01-23 09:39:53.20	55.89	12.48	-37.3	-39.2	20.1	0.00e+00	0	40	0	595591168	46	4422
2026-01-23 09:39:56.18	55.33	12.56	-37.2	-39.1	20.1	0.00e+00	0	40	0	612368384	46	4379
2026-01-23 09:39:59.18	54.76	12.63	-37.5	-39.4	19.9	0.00e+00	0	40	0	629145600	46	4511
2026-01-23 09:40:02.17	54.19	12.70	-37.5	-39.4	19.9	0.00e+00	0	40	0	645922816	46	4520
2026-01-23 09:40:05.16	53.62	12.77	-37.3	-39.2	20.1	0.00e+00	0	40	0	662700032	46	4409
2026-01-23 09:40:08.15	53.04	12.83	-37.4	-39.3	20.0	0.00e+00	0	40	0	679477248	46	4456
2026-01-23 09:40:11.14	52.47	12.90	-37.5	-39.3	20.4	0.00e+00	0	40	0	696254464	46	4450
2026-01-23 09:40:14.13	51.89	12.96	-37.1	-38.9	20.7	0.00e+00	0	40	0	713031680	46	4265
2026-01-23 09:40:17.12	51.30	13.01	-37.3	-39.1	20.5	0.00e+00	0	40	0	729808896	46	4377
2026-01-23 09:40:20.12	50.72	13.07	-37.2	-39.0	20.7	0.00e+00	0	40	0	746586112	46	4321
2026-01-23 09:40:23.11	50.13	13.12	-36.9	-38.6	21.0	0.00e+00	0	40	0	763363328	45	4390
2026-01-23 09:40:26.10	49.54	13.17	-36.9	-38.7	20.9	0.00e+00	0	40	0	781189120	45	4420
2026-01-23 09:40:29.10	48.95	13.21	-36.9	-38.7	20.9	0.00e+00	0	40	0	797966336	45	4418
2026-01-23 09:40:32.09	48.36	13.26	-37.2	-38.9	20.7	0.00e+00	0	40	0	814743552	45	4540
2026-01-23 09:40:35.08	47.76	13.30	-37.3	-39.1	20.5	0.00e+00	0	40	0	831520768	45	4645
2026-01-23 09:40:38.08	47.17	13.33	-37.0	-38.8	20.9	0.00e+00	0	40	0	848297984	45	4463
2026-01-23 09:40:41.07	46.57	13.37	-37.2	-39.0	20.6	0.00e+00	0	40	0	865075200	45	4588
2026-01-23 09:40:44.06	45.97	13.40	-37.2	-39.0	20.6	0.00e+00	0	40	0	881852416	45	4587
2026-01-23 09:40:47.05	45.37	13.43	-37.1	-38.9	20.8	0.00e+00	0	40	0	898629632	45	4497
2026-01-23 09:40:50.04	44.77	13.45	-37.1	-38.9	20.8	0.00e+00	0	40	0	915406848	45	4496
2026-01-23 09:40:53.03	44.17	13.47	-37.3	-39.1	20.6	0.00e+00	0	40	0	932184064	45	4603
2026-01-23 09:40:56.02	43.57	13.49	-37.2	-39.0	20.7	0.00e+00	0	40	0	948961280	45	4546
2026-01-23 09:40:59.01	42.97	13.51	-37.1	-38.9	20.7	0.00e+00	0	40	0	965738496	45	4531
2026-01-23 09:41:01.99	42.37	13.52	-37.2	-39.0	20.7	0.00e+00	0	40	0	982515712	45	4555
2026-01-23 09:41:04.98	41.76	13.53	-37.3	-39.1	20.6	0.00e+00	0	40	0	999292928	45	4611
2026-01-23 09:41:07.97	41.16	13.54	-37.3	-39.1	20.6	0.00e+00	0	40	0	1016070144	45	4627
2026-01-23 09:41:10.97	40.55	13.54	-37.4	-39.2	20.5	0.00e+00	0	40	0	1032847360	45	4655
2026-01-23 09:41:13.96	39.95	13.54	-37.1	-38.9	20.7	0.00e+00	0	40	0	1049624576	45	4536
2026-01-23 09:41:16.95	39.34	13.54	-37.0	-38.7	20.9	0.00e+00	0	40	0	1066401792	45	4429
2026-01-23 09:41:19.95	38.74	13.53	-37.0	-38.7	21.0	0.00e+00	0	40	0	1083179008	45	4433
2026-01-23 09:41:22.94	38.13	13.52	-36.7	-38.4	21.2	0.00e+00	0	40	0	1101004800	45	4288
2026-01-23 09:41:25.94	37.53	13.51	-36.8	-38.6	21.1	0.00e+00	0	40	0	1117782016	45	4354
2026-01-23 09:41:28.93	36.93	13.49	-37.2	-39.0	20.7	0.00e+00	0	40	0	1134559232	45	4552
2026-01-23 09:41:31.93	36.32	13.47	-37.1	-38.9	20.8	0.00e+00	0	40	0	1151336448	45	4519
2026-01-23 09:41:34.92	35.72	13.45	-37.2	-39.0	20.7	0.00e+00	0	40	0	1168113664	45	4581
2026-01-23 09:41:37.91	35.12	13.43	-37.2	-39.0	20.7	0.00e+00	0	40	0	1184890880	45	4583
2026-01-23 09:41:40.90	34.52	13.40	-37.3	-39.1	20.6	0.00e+00	0	40	0	1201668096	45	4617
2026-01-23 09:41:43.89	33.93	13.37	-37.0	-38.7	21.0	0.00e+00	0	40	0	1218445312	45	4430
2026-01-23 09:41:46.88	33.33	13.33	-36.9	-38.6	21.0	0.00e+00	0	40	0	1235222528	45	4380
2026-01-23 09:41:49.88	32.73	13.30	-36.9	-38.7	21.0	0.00e+00	0	40	0	1251999744	45	4396
2026-01-23 09:41:52.87	32.14	13.25	-36.9	-38.7	20.9	0.00e+00	0	40	0	1268776960	45	4430
2026-01-23 09:41:55.86	31.55	13.21	-37.1	-38.9	20.8	0.00e+00	0	40	0	1285554176	45	4495
2026-01-23 09:41:58.86	30.96	13.17	-37.2	-39.0	20.7	0.00e+00	0	40	0	1302331392	45	4579
2026-01-23 09:42:01.85	30.37	13.12	-37.1	-38.9	20.8	0.00e+00	0	40	0	1319108608	45	4539
2026-01-23 09:42:04.85	29.78	13.06	-37.2	-38.9	20.7	0.00e+00	0	40	0	1335885824	45	4540
2026-01-23 09:42:07.84	29.20	13.01	-37.1	-38.9	20.8	0.00e+00	0	40	0	1352663040	45	4527
2026-01-23 09:42:10.84	28.62	12.95	-37.1	-38.9	20.8	0.00e+00	0	40	0	1369440256	45	4524
2026-01-23 09:42:13.83	28.04	12.89	-37.1	-38.9	20.7	0.00e+00	0	40	0	1387266048	45	4534
2026-01-23 09:42:16.83	27.46	12.83	-37.1	-39.0	20.7	0.00e+00	0	40	0	1404043264	45	4557
2026-01-23 09:42:19.83	26.88	12.76	-37.4	-39.3	20.5	0.00e+00	0	40	0	1420820480	45	4716
2026-01-23 09:42:22.82	26.31	12.70	-37.6	-39.4	20.3	0.00e+00	0	40	0	1437597696	45	4790
2026-01-23 09:42:25.81	25.74	12.62	-37.7	-39.5	20.2	0.00e+00	0	40	0	1454374912	46	4588
2026-01-23 09:42:28.81	25.18	12.55	-37.8	-39.7	20.0	0.00e+00	0	40	0	1471152128	46	4690
2026-01-23 09:42:31.81	24.61	12.47	-37.8	-39.6	20.1	0.00e+00	0	40	0	1487929344	46	4637
2026-01-23 09:42:34.80	24.05	12.40	-37.7	-39.6	20.2	0.00e+00	0	40	0	1504706560	46	4601
2026-01-23 09:42:37.80	23.49	12.32	-37.7	-39.6	20.2	0.00e+00	0	40	0	1521483776	46	4601
2026-01-23 09:42:40.79	22.94	12.23	-37.8	-39.6	20.1	0.00e+00	0	40	0	1538260992	46	4641
2026-01-23 09:42:43.79	22.39	12.15	-37.6	-39.4	20.3	0.00e+00	0	40	0	1555038208	46	4543
2026-01-23 09:42:46.78	21.84	12.06	-37.5	-39.4	20.3	0.00e+00	0	40	0	1571815424	46	4528
2026-01-23 09:42:49.78	21.30	11.97	-37.6	-39.6	20.1	0.00e+00	0	40	0	1588592640	46	4615
2026-01-23 09:42:52.77	20.76	11.88	-37.9	-39.8	19.9	0.00e+00	0	40	0	1605369856	46	4755
2026-01-23 09:42:55.77	20.22	11.78	-38.0	-40.0	19.7	0.00e+00	0	40	0	1622147072	46	4828
2026-01-23 09:42:58.76	19.69	11.69	-38.0	-39.9	19.8	0.00e+00	0	40	0	1638924288	46	4789
2026-01-23 09:43:01.75	19.16	11.59	-37.8	-39.7	20.0	0.00e+00	0	40	0	1656750080	46	4671
2026-01-23 09:43:04.75	18.63	11.49	-37.8	-39.6	20.1	0.00e+00	0	40	0	1673527296	46	4636
2026-01-23 09:43:07.74	18.11	11.39	-37.8	-39.6	20.1	0.00e+00	0	40	0	1690304512	46	4633
2026-01-23 09:43:10.73	17.59	11.28	-37.9	-39.7	20.0	0.00e+00	0	40	0	1707081728	46	4679
2026-01-23 09:43:13.72	17.08	11.18	-38.0	-39.9	19.8	0.00e+00	0	40	0	1723858944	46	4806
2026-01-23 09:43:16.71	16.56	11.07	-37.8	-39.8	19.9	0.00e+00	0	40	0	1740636160	46	4727
2026-01-23 09:43:19.71	16.06	10.96	-37.8	-39.8	19.9	0.00e+00	0	40	0	1757413376	46	4736
2026-01-23 09:43:22.71	15.55	10.85	-37.9	-39.9	19.8	0.00e+00	0	40	0	1774190592	46	4803
2026-01-23 09:43:25.70	15.05	10.74	-37.9	-39.9	19.8	0.00e+00	0	40	0	1790967808	46	4789
2026-01-23 09:43:28.69	14.56	10.62	-38.2	-40.1	19.6	0.00e+00	0	41	0	1807745024	46	4925
2026-01-23 09:43:31.69	14.06	10.51	-38.3	-40.2	19.5	0.00e+00	0	40	0	1824522240	47	4686
2026-01-23 09:43:34.68	13.58	10.39	-38.0	-39.9	19.7	0.00e+00	0	40	0	1841299456	47	4524
2026-01-23 09:43:37.67	13.09	10.27	-38.1	-40.0	19.7	0.00e+00	0	40	0	1858076672	47	4577
2026-01-23 09:43:40.67	12.61	10.15	-38.3	-40.2	19.5	0.00e+00	0	40	0	1874853888	47	4684
2026-01-23 09:43:43.66	12.14	10.03	-38.2	-40.2	19.5	0.00e+00	0	40	0	1891631104	47	4676
2026-01-23 09:43:46.65	11.67	9.91	-38.2	-40.3	19.3	0.00e+00	0	40	0	1908408320	47	4743
2026-01-23 09:43:49.64	11.20	9.78	-38.2	-40.4	19.3	0.00e+00	0	40	0	1925185536	47	4771
2026-01-23 09:43:52.64	10.74	9.66	-38.2	-40.5	19.2	0.00e+00	0	40	0	1943011328	47	4822
2026-01-23 09:43:55.63	10.28	9.53	-38.3	-40.7	19.0	0.00e+00	0	40	0	1959788544	47	4949
2026-01-23 09:43:58.63	9.82	9.40	-38.2	-40.7	19.0	0.00e+00	0	41	0	1976565760	47	4937
2026-01-23 09:44:01.62	9.37	9.28	-38.1	-40.5	19.2	0.00e+00	0	40	0	1993342976	47	4842
2026-01-23 09:44:04.61	8.92	9.15	-38.2	-40.5	19.1	0.00e+00	0	40	0	2010120192	47	4859
2026-01-23 09:44:07.60	8.48	9.02	-39.5	-41.9	18.2	0.00e+00	0	40	0	2026897408	49	5044
2026-01-23 09:44:10.60	8.04	8.88	-48.0	-61.4	3.8	8.47e-01	0	40	104	2028994560	67	17076
2026-01-23 09:44:13.59	7.61	8.75	-49.3	-61.7	3.8	8.46e-01	0	41	104	2028994560	69	15748
2026-01-23 09:44:16.59	7.17	8.62	-49.4	-61.9	3.8	8.48e-01	0	40	104	2028994560	69	15944
2026-01-23 09:44:19.59	6.75	8.49	-49.7	-61.9	3.9	8.48e-01	0	40	104	2028994560	70	15151
2026-01-23 09:44:22.58	6.32	8.35	-49.6	-61.9	3.8	8.46e-01	0	40	104	2028994560	70	15164
2026-01-23 09:44:25.57	5.90	8.22	-49.5	-61.9	3.8	8.47e-01	0	41	104	2028994560	70	15095
2026-01-23 09:44:28.57	5.49	8.08	-49.8	-61.9	3.8	8.48e-01	0	40	104	2028994560	70	15062
2026-01-23 09:44:31.56	5.08	7.94	-49.7	-61.8	3.8	8.47e-01	0	40	104	2028994560	70	15012
2026-01-23 09:44:34.55	4.67	7.81	-49.6	-61.8	3.8	8.47e-01	0	40	104	2028994560	70	14972
2026-01-23 09:44:37.55	4.27	7.67	-49.5	-61.8	3.8	8.48e-01	0	40	104	2028994560	70	14976
2026-01-23 09:44:40.55	3.87	7.53	-49.5	-61.8	3.8	8.48e-01	0	40	104	2028994560	70	14919
2026-01-23 09:44:43.54	3.47	7.39	-49.5	-61.8	3.8	8.47e-01	0	41	104	2028994560	70	14885
2026-01-23 09:44:46.54	3.08	7.25	-49.5	-61.7	3.8	8.47e-01	0	40	104	2028994560	70	14853
2026-01-23 09:44:49.53	2.69	7.11	-49.5	-61.7	3.8	8.47e-01	0	40	104	2028994560	70	14848
2026-01-23 09:44:52.53	2.31	6.97	-49.5	-61.7	3.8	8.46e-01	0	40	104	2028994560	70	14850
2026-01-23 09:44:55.53	1.93	6.83	-49.4	-61.8	3.8	8.47e-01	0	41	104	2028994560	70	14901
2026-01-23 09:44:58.53	1.55	6.69	-49.5	-61.7	3.8	8.47e-01	0	41	104	2028994560	70	14849
2026-01-23 09:45:01.52	1.18	6.54	-49.5	-61.7	3.8	8.47e-01	0	41	104	2028994560	70	14850
2026-01-23 09:45:04.52	0.81	6.40	-49.5	-61.7	3.8	8.46e-01	0	41	104	2028994560	70	14824
2026-01-23 09:45:07.51	0.44	6.26	-49.5	-61.7	3.8	8.47e-01	0	41	104	2028994560	70	14864
2026-01-23 09:45:10.51	0.08	6.12	-49.5	-61.7	3.8	8.48e-01	0	41	104	2028994560	70	14868
2026-01-23 09:45:13.50	359.73	5.97	-49.5	-61.7	3.8	8.48e-01	0	41	104	2028994560	70	14866
2026-01-23 09:45:16.50	359.37	5.83	-49.5	-61.7	3.8	8.48e-01	0	41	104	2028994560	70	14838
2026-01-23 09:45:19.49	359.02	5.69	-49.5	-61.7	3.8	8.46e-01	0	41	104	2028994560	70	14787
2026-01-23 09:45:22.49	358.67	5.54	-49.5	-61.7	3.8	8.47e-01	0	41	104	2028994560	70	14815
2026-01-23 09:45:25.48	358.33	5.40	-49.4	-61.7	3.8	8.46e-01	0	41	104	2028994560	70	14866
2026-01-23 09:45:28.48	357.99	5.25	-49.4	-61.8	3.8	8.46e-01	0	40	104	2028994560	70	14889
2026-01-23 09:45:31.46	357.65	5.11	-49.4	-61.7	3.8	8.46e-01	0	41	104	2028994560	70	14825
2026-01-23 09:45:34.46	357.32	4.97	-49.4	-61.7	3.8	8.47e-01	0	41	104	2028994560	70	14802

#Closed at: 2026-01-23 09:45:35
#Recorded file [2028 MB]: D:/Data/31040_260123_123653.dat