passes_logs/2026/01/23/T1/T1__20260123_062751_FENGYUN_3E_rec.log

#Pass ID: 20260123_062751_FENGYUN 3E
#Satellite: FENGYUN 3E
#Configuration: FENGYUN 3E
#almurnet v.1.7.20251203
#Start time: 2026-01-23 06:27:52

#Version: 2.0.20230620
#Station: T1
#Location: 37.570604 lon 55.790049 lat
#TLE: 1 49008U 21062A   26022.47529509  .00000460  00000+0  23724-3 0  9995
#TLE: 2 49008  98.7486  27.5157 0002334 123.7692 236.3707 14.19888297235908

#Time	Az	El	Level	Level2	SNR	BER	BlckErr	Temp	State	Recorded	gain1	gain2
2026-01-23 06:27:52.15	1.55	5.01	-48.5	-59.7	3.8	8.45e-01	0	35	0	0	67	13000
2026-01-23 06:27:55.12	1.22	5.15	-46.3	-59.4	3.8	8.48e-01	0	35	104	0	62	16725
2026-01-23 06:27:58.10	0.87	5.29	-46.2	-59.4	3.8	8.47e-01	0	35	104	0	62	16708
2026-01-23 06:28:01.08	0.53	5.43	-46.3	-59.4	3.8	8.46e-01	0	36	104	0	62	16803
2026-01-23 06:28:04.06	0.18	5.57	-46.3	-59.4	3.8	8.47e-01	0	36	104	0	62	16701
2026-01-23 06:28:07.04	359.83	5.71	-46.2	-59.3	3.8	8.47e-01	0	36	104	0	62	16622
2026-01-23 06:28:10.02	359.47	5.85	-46.2	-59.3	3.8	8.47e-01	0	36	104	0	62	16677
2026-01-23 06:28:13.00	359.11	5.99	-46.2	-59.4	3.8	8.46e-01	0	36	104	0	62	16727
2026-01-23 06:28:15.98	358.75	6.13	-46.2	-59.3	3.8	8.46e-01	0	36	104	0	62	16676
2026-01-23 06:28:18.96	358.38	6.27	-46.2	-59.3	3.8	8.48e-01	0	36	104	0	62	16576
2026-01-23 06:28:21.94	358.01	6.41	-46.2	-59.3	3.8	8.46e-01	0	36	104	0	62	16676
2026-01-23 06:28:24.92	357.64	6.54	-46.2	-59.3	3.8	8.46e-01	0	36	104	0	62	16561
2026-01-23 06:28:27.90	357.26	6.68	-46.2	-59.3	3.8	8.48e-01	0	36	104	0	62	16583
2026-01-23 06:28:30.88	356.88	6.82	-46.2	-59.3	3.8	8.47e-01	0	37	104	0	62	16592
2026-01-23 06:28:33.86	356.50	6.95	-46.2	-59.2	3.8	8.48e-01	0	37	104	0	62	16476
2026-01-23 06:28:36.84	356.11	7.09	-46.2	-59.4	3.8	8.48e-01	0	37	104	0	62	16702
2026-01-23 06:28:39.81	355.72	7.22	-46.2	-59.3	3.8	8.46e-01	0	37	104	0	62	16636
2026-01-23 06:28:42.80	355.32	7.36	-46.2	-59.2	3.8	8.47e-01	0	37	104	0	62	16446
2026-01-23 06:28:45.78	354.92	7.49	-46.2	-59.3	3.8	8.46e-01	0	37	104	0	62	16517
2026-01-23 06:28:48.75	354.52	7.63	-46.2	-59.3	3.8	8.47e-01	0	37	104	0	62	16666
2026-01-23 06:28:51.74	354.11	7.76	-46.2	-59.4	3.8	8.47e-01	0	37	104	0	62	16711
2026-01-23 06:28:54.72	353.70	7.89	-46.2	-59.2	3.8	8.47e-01	0	37	104	0	62	16463
2026-01-23 06:28:57.70	353.28	8.02	-46.2	-59.1	3.8	8.48e-01	0	37	104	0	62	16308
2026-01-23 06:29:00.68	352.86	8.15	-46.2	-59.3	3.8	8.47e-01	0	37	104	0	62	16609
2026-01-23 06:29:03.66	352.44	8.28	-46.2	-59.3	3.8	8.48e-01	0	37	104	0	62	16518
2026-01-23 06:29:06.64	352.01	8.41	-46.1	-57.9	3.8	8.47e-01	0	37	104	0	62	14149
2026-01-23 06:29:09.62	351.58	8.54	-46.0	-56.4	4.1	8.45e-01	0	37	104	0	62	11920
2026-01-23 06:29:12.60	351.15	8.67	-45.8	-55.1	4.4	8.30e-01	0	37	0	0	62	10256
2026-01-23 06:29:15.58	350.71	8.79	-45.4	-53.0	5.5	7.12e-01	0	38	0	0	61	8512
2026-01-23 06:29:18.56	350.27	8.92	-43.6	-47.3	10.8	4.24e-03	0	37	0	19922944	58	5225
2026-01-23 06:29:21.54	349.82	9.04	-40.4	-42.3	16.0	0.00e+00	0	38	0	40894464	50	4653
2026-01-23 06:29:24.52	349.37	9.17	-40.2	-42.1	16.2	0.00e+00	0	37	0	62914560	49	4819
2026-01-23 06:29:27.51	348.92	9.29	-37.7	-39.1	18.9	0.00e+00	0	38	0	83886080	45	4303
2026-01-23 06:29:30.50	348.46	9.41	-37.6	-39.0	18.9	0.00e+00	0	38	0	105906176	45	4279
2026-01-23 06:29:33.49	348.00	9.53	-37.5	-38.9	19.0	0.00e+00	0	37	0	126877696	45	4237
2026-01-23 06:29:36.47	347.53	9.65	-37.5	-39.1	18.9	0.00e+00	0	38	0	148897792	45	4310
2026-01-23 06:29:39.46	347.06	9.76	-37.3	-38.9	19.0	0.00e+00	0	37	0	169869312	45	4233
2026-01-23 06:29:42.44	346.59	9.88	-37.3	-38.8	19.1	0.00e+00	0	38	0	191889408	45	4191
2026-01-23 06:29:45.42	346.11	10.00	-37.1	-38.7	19.3	0.00e+00	0	38	0	212860928	45	4119
2026-01-23 06:29:48.49	345.61	10.11	-37.3	-38.7	19.2	0.00e+00	0	37	0	234881024	45	4144
2026-01-23 06:29:51.33	345.15	10.22	-37.2	-38.7	19.3	0.00e+00	0	37	0	255852544	45	4125
2026-01-23 06:29:54.46	344.64	10.33	-37.2	-38.8	19.2	0.00e+00	0	38	0	278921216	44	4406
2026-01-23 06:29:57.30	344.17	10.44	-37.4	-38.8	19.2	0.00e+00	0	38	0	298844160	44	4416
2026-01-23 06:30:00.57	343.63	10.55	-37.5	-38.9	19.1	0.00e+00	0	37	0	322961408	44	4458
2026-01-23 06:30:03.29	343.17	10.65	-37.6	-39.0	19.0	0.00e+00	0	38	0	341835776	44	4529
2026-01-23 06:30:06.57	342.62	10.76	-37.4	-38.7	19.3	0.00e+00	0	38	0	365953024	44	4358
2026-01-23 06:30:09.29	342.15	10.86	-37.1	-38.3	19.7	0.00e+00	0	38	0	385875968	44	4164
2026-01-23 06:30:12.56	341.59	10.97	-36.9	-38.0	19.9	0.00e+00	0	38	0	408944640	44	4049
2026-01-23 06:30:15.27	341.13	11.06	-37.1	-38.3	19.7	0.00e+00	0	38	0	428867584	44	4160
2026-01-23 06:30:18.75	340.52	11.17	-37.4	-38.5	19.6	0.00e+00	0	38	0	454033408	44	4246
2026-01-23 06:30:21.46	340.05	11.26	-37.6	-38.7	19.4	0.00e+00	0	38	0	473956352	44	4355
2026-01-23 06:30:24.76	339.47	11.36	-37.3	-38.5	19.5	0.00e+00	0	38	0	497025024	44	4285
2026-01-23 06:30:27.61	338.96	11.44	-37.3	-38.4	19.6	0.00e+00	0	38	0	517996544	44	4229
2026-01-23 06:30:31.04	338.35	11.55	-37.2	-38.3	19.7	0.00e+00	0	38	0	542113792	44	4184
2026-01-23 06:30:33.76	337.86	11.62	-37.0	-38.2	19.8	0.00e+00	0	38	0	562036736	44	4131
2026-01-23 06:30:37.04	337.27	11.72	-36.9	-38.1	19.9	0.00e+00	0	38	0	586153984	44	4080
2026-01-23 06:30:39.76	336.77	11.79	-36.6	-37.7	20.3	0.00e+00	0	38	0	606076928	44	3904
2026-01-23 06:30:43.07	336.17	11.88	-36.4	-37.5	20.3	0.00e+00	0	38	0	629145600	43	4019
2026-01-23 06:30:45.78	335.67	11.95	-36.5	-37.6	20.3	0.00e+00	0	38	0	649068544	43	4053
2026-01-23 06:30:49.13	335.05	12.03	-36.5	-37.4	20.4	0.00e+00	0	38	0	673185792	43	3998
2026-01-23 06:30:52.19	334.48	12.11	-36.6	-37.6	20.3	0.00e+00	0	38	0	695205888	43	4064
2026-01-23 06:30:55.32	333.90	12.18	-36.9	-37.9	19.9	0.00e+00	0	38	0	718274560	43	4242
2026-01-23 06:30:58.16	333.37	12.24	-37.0	-38.0	19.8	0.00e+00	0	38	0	738197504	43	4288
2026-01-23 06:31:01.29	332.78	12.31	-37.0	-38.0	19.8	0.00e+00	0	38	0	761266176	43	4291
2026-01-23 06:31:04.14	332.24	12.37	-37.0	-38.0	19.9	0.00e+00	0	38	0	781189120	43	4254
2026-01-23 06:31:07.37	331.62	12.44	-36.6	-37.6	20.2	0.00e+00	0	38	0	805306368	43	4081
2026-01-23 06:31:10.22	331.08	12.49	-36.5	-37.4	20.4	0.00e+00	0	38	0	825229312	43	3997
2026-01-23 06:31:13.67	330.42	12.55	-36.5	-37.5	20.4	0.00e+00	0	38	0	850395136	43	4012
2026-01-23 06:31:16.38	329.90	12.60	-36.7	-37.7	20.2	0.00e+00	0	38	0	870318080	43	4114
2026-01-23 06:31:19.65	329.27	12.65	-36.5	-37.5	20.3	0.00e+00	0	38	0	893386752	43	4026
2026-01-23 06:31:22.48	328.72	12.70	-36.5	-37.5	20.3	0.00e+00	0	38	0	914358272	43	4019
2026-01-23 06:31:25.60	328.11	12.74	-36.5	-37.5	20.4	0.00e+00	0	38	0	936378368	43	4023
2026-01-23 06:31:28.45	327.56	12.78	-36.6	-37.6	20.2	0.00e+00	0	38	0	957349888	43	4096
2026-01-23 06:31:31.62	326.94	12.82	-36.8	-37.9	20.0	0.00e+00	0	38	0	980418560	43	4199
2026-01-23 06:31:34.46	326.38	12.85	-36.8	-37.9	20.0	0.00e+00	0	38	0	1000341504	43	4217
2026-01-23 06:31:37.73	325.74	12.89	-36.7	-37.8	20.1	0.00e+00	0	38	0	1024458752	43	4152
2026-01-23 06:31:41.00	325.09	12.92	-36.5	-37.6	20.3	0.00e+00	0	38	0	1047527424	43	4071
2026-01-23 06:31:43.72	324.56	12.94	-36.4	-37.5	20.4	0.00e+00	0	38	0	1067450368	43	4031
2026-01-23 06:31:46.99	323.91	12.96	-36.5	-37.5	20.3	0.00e+00	0	38	0	1090519040	43	4043
2026-01-23 06:31:49.70	323.38	12.98	-36.7	-37.7	20.2	0.00e+00	0	38	0	1110441984	43	4126
2026-01-23 06:31:53.05	322.71	13.00	-36.5	-37.5	20.4	0.00e+00	0	38	0	1134559232	43	4006
2026-01-23 06:31:55.86	322.15	13.01	-36.4	-37.4	20.4	0.00e+00	0	38	0	1154482176	43	3984
2026-01-23 06:31:59.21	321.49	13.02	-36.5	-37.5	20.3	0.00e+00	0	38	0	1179648000	43	4029
2026-01-23 06:32:01.94	320.95	13.03	-36.5	-37.5	20.3	0.00e+00	0	38	0	1198522368	43	4028
2026-01-23 06:32:05.22	320.30	13.04	-36.5	-37.5	20.3	0.00e+00	0	38	0	1222639616	43	4046
2026-01-23 06:32:07.97	319.75	13.04	-36.7	-37.7	20.2	0.00e+00	0	38	0	1242562560	43	4122
2026-01-23 06:32:11.54	319.04	13.03	-36.7	-37.7	20.1	0.00e+00	0	38	0	1267728384	43	4134
2026-01-23 06:32:14.24	318.50	13.03	-36.5	-37.5	20.4	0.00e+00	0	38	0	1287651328	43	4027
2026-01-23 06:32:17.50	317.86	13.02	-36.4	-37.4	20.5	0.00e+00	0	38	0	1311768576	43	3976
2026-01-23 06:32:20.21	317.32	13.01	-36.3	-37.3	20.6	0.00e+00	0	38	0	1330642944	43	3930
2026-01-23 06:32:23.49	316.67	12.99	-36.2	-37.2	20.7	0.00e+00	0	38	0	1353711616	43	3871
2026-01-23 06:32:26.21	316.13	12.98	-36.3	-37.3	20.6	0.00e+00	0	38	0	1373634560	43	3917
2026-01-23 06:32:29.48	315.48	12.96	-36.6	-37.6	20.3	0.00e+00	0	38	0	1397751808	43	4060
2026-01-23 06:32:32.21	314.94	12.93	-36.7	-37.7	20.1	0.00e+00	0	38	0	1417674752	43	4135
2026-01-23 06:32:35.48	314.30	12.91	-36.6	-37.5	20.3	0.00e+00	0	38	0	1440743424	43	4045
2026-01-23 06:32:38.21	313.76	12.88	-36.5	-37.5	20.3	0.00e+00	0	38	0	1460666368	43	4035
2026-01-23 06:32:41.47	313.12	12.84	-36.9	-37.9	20.0	0.00e+00	0	38	0	1483735040	43	4206
2026-01-23 06:32:44.19	312.59	12.81	-36.9	-37.9	20.0	0.00e+00	0	38	0	1503657984	43	4230
2026-01-23 06:32:47.46	311.95	12.77	-36.9	-37.8	20.0	0.00e+00	0	38	0	1527775232	43	4188
2026-01-23 06:32:50.19	311.41	12.73	-36.9	-37.9	19.9	0.00e+00	0	38	0	1546649600	43	4241
2026-01-23 06:32:53.48	310.77	12.68	-37.2	-38.2	19.7	0.00e+00	0	38	0	1570766848	43	4351
2026-01-23 06:32:56.35	310.22	12.64	-37.0	-38.0	19.8	0.00e+00	0	38	0	1591738368	43	4289
2026-01-23 06:32:59.56	309.60	12.59	-37.0	-38.1	19.8	0.00e+00	0	38	0	1614807040	43	4304
2026-01-23 06:33:02.68	309.00	12.53	-36.9	-38.0	19.9	0.00e+00	0	38	0	1636827136	43	4244
2026-01-23 06:33:05.53	308.45	12.48	-37.0	-38.0	19.8	0.00e+00	0	38	0	1657798656	43	4281
2026-01-23 06:33:08.76	307.83	12.42	-37.0	-38.0	19.8	0.00e+00	0	38	0	1680867328	43	4279
2026-01-23 06:33:11.64	307.28	12.36	-37.0	-38.0	19.8	0.00e+00	0	38	0	1701838848	43	4279
2026-01-23 06:33:14.76	306.69	12.29	-37.1	-38.1	19.8	0.00e+00	0	38	0	1724907520	43	4299
2026-01-23 06:33:17.60	306.16	12.23	-37.0	-37.9	19.9	0.00e+00	0	38	0	1744830464	43	4240
2026-01-23 06:33:20.76	305.56	12.16	-37.1	-38.1	19.8	0.00e+00	0	38	0	1767899136	43	4315
2026-01-23 06:33:23.62	305.03	12.09	-37.3	-38.3	19.7	0.00e+00	0	38	0	1788870656	44	4186
2026-01-23 06:33:26.88	304.42	12.01	-37.2	-38.2	19.8	0.00e+00	0	38	0	1811939328	44	4103
2026-01-23 06:33:29.59	303.92	11.94	-37.1	-38.1	19.9	0.00e+00	0	38	0	1831862272	44	4091
2026-01-23 06:33:32.89	303.31	11.86	-37.2	-38.2	19.8	0.00e+00	0	38	0	1854930944	44	4129
2026-01-23 06:33:35.73	302.79	11.78	-37.3	-38.2	19.8	0.00e+00	0	38	0	1875902464	44	4145
2026-01-23 06:33:38.90	302.22	11.69	-37.5	-38.5	19.5	0.00e+00	0	38	0	1898971136	44	4265
2026-01-23 06:33:41.74	301.70	11.61	-37.6	-38.7	19.3	0.00e+00	0	38	0	1918894080	44	4355
2026-01-23 06:33:45.01	301.11	11.52	-37.5	-38.5	19.5	0.00e+00	0	38	0	1943011328	44	4248
2026-01-23 06:33:47.96	300.59	11.43	-37.6	-38.6	19.4	0.00e+00	0	38	0	1963982848	44	4317
2026-01-23 06:33:51.24	300.00	11.33	-37.5	-38.5	19.4	0.00e+00	0	38	0	1988100096	44	4284
2026-01-23 06:33:53.99	299.52	11.25	-37.4	-38.4	19.6	0.00e+00	0	38	0	2008023040	44	4208
2026-01-23 06:33:57.27	298.94	11.14	-37.3	-38.3	19.6	0.00e+00	0	38	0	2031091712	44	4188
2026-01-23 06:33:59.99	298.47	11.05	-37.6	-38.6	19.4	0.00e+00	0	38	0	2051014656	44	4302
2026-01-23 06:34:03.27	297.90	10.94	-37.8	-38.9	19.1	0.00e+00	0	38	0	2075131904	45	4218
2026-01-23 06:34:06.00	297.43	10.85	-37.8	-38.9	19.1	0.00e+00	0	38	0	2094006272	45	4203
2026-01-23 06:34:09.28	296.87	10.74	-37.9	-38.9	19.0	0.00e+00	0	38	0	2118123520	45	4239
2026-01-23 06:34:12.01	296.41	10.64	-37.9	-38.9	19.1	0.00e+00	0	38	0	2138046464	45	4218
2026-01-23 06:34:15.28	295.86	10.53	-37.9	-39.0	19.0	0.00e+00	0	38	0	2161115136	45	4252
2026-01-23 06:34:18.00	295.41	10.43	-37.9	-38.9	19.0	0.00e+00	0	38	0	2181038080	45	4222
2026-01-23 06:34:21.27	294.87	10.31	-37.7	-38.8	19.2	0.00e+00	0	38	0	2204106752	45	4154
2026-01-23 06:34:24.01	294.41	10.21	-37.7	-38.8	19.2	0.00e+00	0	38	0	2224029696	45	4156
2026-01-23 06:34:27.28	293.88	10.09	-37.8	-38.9	19.1	0.00e+00	0	38	0	2248146944	45	4213
2026-01-23 06:34:30.12	293.42	9.98	-37.9	-38.9	19.0	0.00e+00	0	38	0	2268069888	45	4237
2026-01-23 06:34:33.25	292.92	9.86	-38.0	-39.0	18.9	0.00e+00	0	38	0	2291138560	45	4268
2026-01-23 06:34:36.36	292.42	9.74	-38.0	-39.1	18.8	0.00e+00	0	38	0	2313158656	45	4318
2026-01-23 06:34:39.65	291.90	9.61	-38.1	-39.2	18.8	0.00e+00	0	38	0	2337275904	45	4349
2026-01-23 06:34:42.36	291.48	9.50	-38.1	-39.1	18.8	0.00e+00	0	38	0	2357198848	45	4338
2026-01-23 06:34:45.65	290.97	9.36	-38.1	-39.1	18.8	0.00e+00	0	38	0	2380267520	45	4325
2026-01-23 06:34:48.38	290.55	9.25	-38.1	-39.2	18.8	0.00e+00	0	38	0	2400190464	46	4114
2026-01-23 06:34:51.66	290.05	9.12	-38.2	-39.3	18.6	0.00e+00	0	38	0	2424307712	46	4181
2026-01-23 06:34:54.48	289.62	9.00	-38.2	-39.3	18.6	0.00e+00	0	38	0	2444230656	46	4185
2026-01-23 06:34:57.61	289.15	8.87	-49.0	-59.8	3.8	8.47e-01	0	38	104	2447376384	67	13202
2026-01-23 06:35:00.45	288.73	8.75	-49.2	-60.0	3.8	8.46e-01	0	38	104	2447376384	67	13484
2026-01-23 06:35:03.67	288.25	8.61	-49.5	-60.2	3.8	8.47e-01	0	38	104	2447376384	68	13065
2026-01-23 06:35:06.50	287.84	8.49	-49.5	-60.2	3.8	8.47e-01	0	38	104	2447376384	68	13078
2026-01-23 06:35:09.63	287.39	8.36	-49.3	-60.2	3.8	8.47e-01	0	38	104	2447376384	68	13009
2026-01-23 06:35:12.47	286.98	8.23	-49.4	-60.2	3.8	8.47e-01	0	38	104	2447376384	68	12975
2026-01-23 06:35:15.59	286.54	8.10	-49.2	-60.1	3.8	8.47e-01	0	38	104	2447376384	68	12844
2026-01-23 06:35:18.43	286.14	7.97	-49.2	-60.1	3.8	8.46e-01	0	38	104	2447376384	68	12816
2026-01-23 06:35:21.55	285.70	7.83	-49.2	-60.1	3.8	8.46e-01	0	38	104	2447376384	68	12811
2026-01-23 06:35:24.39	285.31	7.71	-49.1	-60.0	3.8	8.47e-01	0	38	104	2447376384	68	12803
2026-01-23 06:35:27.51	284.88	7.57	-49.1	-60.1	3.8	8.47e-01	0	38	104	2447376384	68	12830
2026-01-23 06:35:30.35	284.49	7.44	-49.1	-60.1	3.8	8.47e-01	0	38	104	2447376384	68	12831
2026-01-23 06:35:33.47	284.07	7.30	-49.1	-60.0	3.8	8.47e-01	0	38	104	2447376384	68	12803
2026-01-23 06:35:36.31	283.70	7.17	-49.1	-60.1	3.8	8.46e-01	0	38	104	2447376384	68	12814
2026-01-23 06:35:39.43	283.28	7.03	-49.1	-60.0	3.8	8.47e-01	0	38	104	2447376384	68	12791
2026-01-23 06:35:42.27	282.91	6.90	-49.1	-60.0	3.8	8.46e-01	0	38	104	2447376384	68	12780
2026-01-23 06:35:45.39	282.51	6.76	-49.1	-60.0	3.8	8.46e-01	0	38	104	2447376384	68	12800
2026-01-23 06:35:48.23	282.14	6.63	-49.1	-60.0	3.8	8.47e-01	0	38	104	2447376384	68	12775
2026-01-23 06:35:51.35	281.75	6.48	-49.1	-60.0	3.8	8.47e-01	0	38	104	2447376384	68	12769
2026-01-23 06:35:54.19	281.39	6.35	-49.1	-60.0	3.8	8.47e-01	0	38	104	2447376384	68	12795
2026-01-23 06:35:57.31	281.00	6.21	-49.1	-60.0	3.8	8.48e-01	0	38	104	2447376384	68	12790
2026-01-23 06:36:00.15	280.65	6.07	-49.1	-60.0	3.8	8.47e-01	0	38	104	2447376384	68	12777
2026-01-23 06:36:03.27	280.27	5.93	-49.1	-60.0	3.8	8.46e-01	0	38	104	2447376384	68	12704
2026-01-23 06:36:06.10	279.93	5.80	-49.1	-60.0	3.8	8.47e-01	0	38	104	2447376384	68	12781
2026-01-23 06:36:09.22	279.55	5.65	-49.1	-60.0	3.8	8.47e-01	0	38	104	2447376384	68	12741
2026-01-23 06:36:12.06	279.21	5.52	-49.1	-59.9	3.8	8.47e-01	0	38	104	2447376384	68	12658
2026-01-23 06:36:15.18	278.85	5.37	-49.1	-60.0	3.8	8.47e-01	0	38	104	2447376384	68	12767
2026-01-23 06:36:18.02	278.52	5.23	-49.1	-60.0	3.8	8.47e-01	0	38	104	2447376384	68	12698
2026-01-23 06:36:21.14	278.16	5.09	-49.1	-60.0	3.8	8.47e-01	0	38	104	2447376384	68	12729

#Closed at: 2026-01-23 06:36:23
#Recorded file [2447 MB]: D:/Data/31040_260123_092752.dat