passes_logs/2026/01/23/T1/T1__20260123_030636_FENGYUN_3E_rec.log

#Pass ID: 20260123_030636_FENGYUN 3E
#Satellite: FENGYUN 3E
#Configuration: FENGYUN 3E
#almurnet v.1.7.20251203
#Start time: 2026-01-23 03:06:37

#Version: 2.0.20230620
#Station: T1
#Location: 37.570604 lon 55.790049 lat
#TLE: 1 49008U 21062A   26022.47529509  .00000460  00000+0  23724-3 0  9995
#TLE: 2 49008  98.7486  27.5157 0002334 123.7692 236.3707 14.19888297235908

#Time	Az	El	Level	Level2	SNR	BER	BlckErr	Temp	State	Recorded	gain1	gain2
2026-01-23 03:06:37.03	22.89	5.05	-49.0	-60.4	3.8	8.47e-01	0	38	0	0	68	13302
2026-01-23 03:06:40.00	23.05	5.25	-48.9	-60.2	3.8	8.47e-01	0	38	104	0	68	12982
2026-01-23 03:06:42.98	23.20	5.45	-48.9	-60.0	3.8	8.46e-01	0	39	104	0	68	12680
2026-01-23 03:06:45.96	23.36	5.65	-48.9	-59.8	3.8	8.47e-01	0	39	104	0	68	12400
2026-01-23 03:06:48.94	23.52	5.86	-48.8	-59.8	3.8	8.48e-01	0	39	104	0	68	12426
2026-01-23 03:06:51.92	23.68	6.06	-48.9	-59.9	3.8	8.47e-01	0	39	104	0	68	12644
2026-01-23 03:06:54.90	23.85	6.27	-48.9	-60.0	3.8	8.47e-01	0	39	104	0	68	12809
2026-01-23 03:06:57.88	24.01	6.48	-48.8	-59.9	3.8	8.48e-01	0	39	104	0	68	12623
2026-01-23 03:07:00.86	24.18	6.69	-48.8	-59.9	3.8	8.47e-01	0	39	104	0	68	12549
2026-01-23 03:07:03.84	24.35	6.90	-48.8	-60.0	3.8	8.46e-01	0	40	104	0	68	12703
2026-01-23 03:07:06.82	24.53	7.11	-48.8	-60.0	3.8	8.48e-01	0	39	104	0	68	12781
2026-01-23 03:07:09.80	24.70	7.33	-48.8	-59.4	3.8	8.47e-01	0	39	104	0	68	11945
2026-01-23 03:07:12.78	24.88	7.55	-48.6	-58.5	3.8	8.46e-01	0	40	104	0	68	10658
2026-01-23 03:07:15.76	25.06	7.76	-48.4	-57.8	3.9	8.46e-01	0	40	104	0	67	10438
2026-01-23 03:07:18.74	25.24	7.98	-48.4	-57.6	4.0	8.45e-01	0	40	104	0	67	10263
2026-01-23 03:07:21.72	25.43	8.21	-48.4	-57.5	4.0	8.44e-01	0	40	104	0	67	10117
2026-01-23 03:07:24.70	25.62	8.43	-48.2	-56.3	4.2	8.38e-01	0	40	0	0	67	8830
2026-01-23 03:07:27.68	25.81	8.66	-47.4	-52.9	6.1	4.70e-01	0	40	0	2097152	65	6657
2026-01-23 03:07:30.66	26.00	8.88	-45.2	-48.1	10.9	5.66e-03	0	40	0	23068672	61	4832
2026-01-23 03:07:33.65	26.20	9.11	-46.2	-49.7	9.7	7.80e-04	0	40	0	45088768	61	5826
2026-01-23 03:07:36.63	26.40	9.34	-44.3	-46.4	12.8	4.50e-06	0	40	0	63963136	57	5034
2026-01-23 03:07:39.61	26.60	9.58	-38.4	-39.5	19.2	0.00e+00	0	40	0	84934656	47	4032
2026-01-23 03:07:42.60	26.81	9.81	-38.1	-39.1	19.6	0.00e+00	0	40	0	106954752	46	4093
2026-01-23 03:07:45.58	27.02	10.05	-38.1	-39.1	19.6	0.00e+00	0	40	0	128974848	46	4086
2026-01-23 03:07:48.56	27.23	10.29	-37.9	-38.9	19.9	0.00e+00	0	40	0	149946368	46	3995
2026-01-23 03:07:51.56	27.44	10.53	-38.1	-39.1	19.7	0.00e+00	0	40	0	171966464	46	4062
2026-01-23 03:07:54.54	27.66	10.77	-37.8	-38.8	20.0	0.00e+00	0	40	0	192937984	46	3950
2026-01-23 03:07:57.53	27.88	11.02	-38.0	-39.0	19.9	0.00e+00	0	40	0	214958080	46	4029
2026-01-23 03:08:00.52	28.11	11.27	-37.9	-39.0	19.9	0.00e+00	0	40	0	235929600	46	4008
2026-01-23 03:08:03.50	28.34	11.52	-37.9	-38.9	19.9	0.00e+00	0	40	0	257949696	46	3973
2026-01-23 03:08:06.49	28.57	11.77	-38.0	-39.0	19.9	0.00e+00	0	40	0	278921216	46	4017
2026-01-23 03:08:09.47	28.81	12.02	-37.8	-38.8	20.1	0.00e+00	0	40	0	300941312	45	4162
2026-01-23 03:08:12.45	29.05	12.28	-37.7	-38.7	20.2	0.00e+00	0	40	0	321912832	45	4101
2026-01-23 03:08:15.44	29.30	12.54	-37.8	-38.8	20.1	0.00e+00	0	41	0	343932928	45	4147
2026-01-23 03:08:18.43	29.55	12.80	-37.6	-38.6	20.3	0.00e+00	0	40	0	364904448	45	4086
2026-01-23 03:08:21.43	29.80	13.06	-37.8	-38.7	20.2	0.00e+00	0	40	0	386924544	45	4139
2026-01-23 03:08:24.56	30.07	13.34	-37.6	-38.5	20.4	0.00e+00	0	41	0	409993216	45	4040
2026-01-23 03:08:27.40	30.32	13.60	-37.6	-38.6	20.3	0.00e+00	0	40	0	429916160	45	4080
2026-01-23 03:08:30.52	30.60	13.88	-37.4	-38.3	20.5	0.00e+00	0	40	0	452984832	45	3952
2026-01-23 03:08:33.37	30.86	14.14	-37.2	-38.1	20.7	0.00e+00	0	41	0	472907776	45	3866
2026-01-23 03:08:36.50	31.15	14.43	-37.1	-38.0	20.8	0.00e+00	0	41	0	495976448	45	3821
2026-01-23 03:08:39.34	31.42	14.69	-37.0	-37.9	21.0	0.00e+00	0	41	0	516947968	44	3991
2026-01-23 03:08:42.47	31.72	14.99	-36.9	-37.8	21.1	0.00e+00	0	41	0	538968064	44	3951
2026-01-23 03:08:45.31	31.99	15.26	-36.9	-37.9	21.1	0.00e+00	0	41	0	559939584	44	3964
2026-01-23 03:08:48.44	32.31	15.56	-37.0	-37.9	21.0	0.00e+00	0	41	0	581959680	44	3997
2026-01-23 03:08:51.28	32.59	15.83	-36.9	-37.8	21.1	0.00e+00	0	41	0	602931200	44	3927
2026-01-23 03:08:54.60	32.94	16.16	-36.7	-37.7	21.2	0.00e+00	0	41	0	627048448	44	3870
2026-01-23 03:08:57.31	33.22	16.43	-36.4	-37.3	21.4	0.00e+00	0	41	0	645922816	43	3925
2026-01-23 03:09:00.58	33.57	16.75	-36.4	-37.3	21.4	0.00e+00	0	41	0	670040064	43	3941
2026-01-23 03:09:03.30	33.87	17.02	-36.3	-37.2	21.4	0.00e+00	0	41	0	689963008	43	3893
2026-01-23 03:09:06.73	34.25	17.37	-36.2	-37.1	21.6	0.00e+00	0	41	0	714080256	43	3837
2026-01-23 03:09:09.42	34.56	17.65	-36.2	-37.1	21.6	0.00e+00	0	41	0	734003200	42	4080
2026-01-23 03:09:12.69	34.94	17.99	-36.1	-37.0	21.7	0.00e+00	0	41	0	757071872	42	4018
2026-01-23 03:09:15.45	35.27	18.28	-36.0	-36.9	21.8	0.00e+00	0	41	0	776994816	42	3997
2026-01-23 03:09:18.74	35.66	18.62	-36.1	-37.0	21.8	0.00e+00	0	41	0	801112064	42	4005
2026-01-23 03:09:21.72	36.03	18.94	-36.1	-37.0	21.8	0.00e+00	0	41	0	822083584	42	4015
2026-01-23 03:09:24.99	36.44	19.29	-36.0	-36.9	21.9	0.00e+00	0	41	0	846200832	42	3972
2026-01-23 03:09:27.90	36.82	19.61	-35.9	-36.7	22.0	0.00e+00	0	41	0	867172352	42	3903
2026-01-23 03:09:32.13	37.38	20.08	-35.5	-36.3	22.3	0.00e+00	0	41	0	897581056	41	3954
2026-01-23 03:09:34.85	37.74	20.38	-35.4	-36.3	22.4	0.00e+00	0	41	0	917504000	41	3930
2026-01-23 03:09:38.12	38.19	20.74	-35.6	-36.4	22.3	0.00e+00	0	41	0	940572672	41	3986
2026-01-23 03:09:41.21	38.63	21.09	-35.5	-36.3	22.4	0.00e+00	0	41	0	962592768	41	3935
2026-01-23 03:09:44.40	39.09	21.46	-35.4	-36.2	22.4	0.00e+00	0	41	0	985661440	41	3908
2026-01-23 03:09:47.24	39.51	21.79	-35.4	-36.2	22.4	0.00e+00	0	41	0	1006632960	41	3909
2026-01-23 03:09:50.37	39.98	22.15	-35.5	-36.4	22.4	0.00e+00	0	41	0	1028653056	41	3959
2026-01-23 03:09:53.22	40.42	22.49	-35.5	-36.3	22.4	0.00e+00	0	41	0	1049624576	41	3939
2026-01-23 03:09:56.47	40.94	22.87	-35.4	-36.3	22.5	0.00e+00	0	41	0	1072693248	41	3914
2026-01-23 03:09:59.34	41.40	23.22	-35.1	-36.0	22.8	0.00e+00	0	41	0	1093664768	41	3782
2026-01-23 03:10:02.47	41.91	23.59	-35.2	-36.0	22.8	0.00e+00	0	41	0	1116733440	40	4032
2026-01-23 03:10:05.31	42.39	23.94	-35.3	-36.1	22.6	0.00e+00	0	41	0	1136656384	40	4085
2026-01-23 03:10:08.43	42.93	24.32	-35.2	-36.0	22.8	0.00e+00	0	41	0	1159725056	40	4033
2026-01-23 03:10:11.35	43.45	24.68	-35.0	-35.9	22.9	0.00e+00	0	41	0	1180696576	40	3960
2026-01-23 03:10:14.56	44.03	25.08	-35.0	-35.8	22.9	0.00e+00	0	41	0	1203765248	40	3952
2026-01-23 03:10:17.40	44.55	25.43	-34.8	-35.6	23.1	0.00e+00	0	41	0	1224736768	40	3852
2026-01-23 03:10:20.53	45.15	25.83	-34.6	-35.4	23.3	0.00e+00	0	41	0	1246756864	39	4001
2026-01-23 03:10:23.37	45.70	26.19	-34.7	-35.5	23.2	0.00e+00	0	41	0	1267728384	39	4040
2026-01-23 03:10:26.50	46.32	26.59	-34.8	-35.7	23.1	0.00e+00	0	41	0	1289748480	39	4099
2026-01-23 03:10:29.34	46.90	26.95	-34.8	-35.6	23.2	0.00e+00	0	41	0	1310720000	39	4058
2026-01-23 03:10:32.47	47.55	27.36	-34.6	-35.5	23.3	0.00e+00	0	41	0	1332740096	39	4011
2026-01-23 03:10:35.31	48.15	27.73	-34.7	-35.5	23.2	0.00e+00	0	41	0	1353711616	39	4041
2026-01-23 03:10:38.44	48.84	28.13	-34.7	-35.5	23.2	0.00e+00	0	41	0	1376780288	39	4019
2026-01-23 03:10:41.28	49.47	28.51	-34.5	-35.3	23.4	0.00e+00	0	41	0	1396703232	39	3944
2026-01-23 03:10:44.57	50.23	28.94	-34.6	-35.4	23.4	0.00e+00	0	41	0	1420820480	39	3976
2026-01-23 03:10:47.41	50.89	29.31	-34.4	-35.2	23.5	0.00e+00	0	41	0	1440743424	39	3898
2026-01-23 03:10:50.54	51.64	29.72	-34.5	-35.3	23.5	0.00e+00	0	41	0	1463812096	39	3940
2026-01-23 03:10:53.38	52.34	30.10	-34.3	-35.2	23.6	0.00e+00	0	41	0	1483735040	39	3873
2026-01-23 03:10:56.51	53.13	30.51	-34.5	-35.3	23.4	0.00e+00	0	41	0	1506803712	39	3951
2026-01-23 03:10:59.35	53.87	30.89	-34.6	-35.4	23.4	0.00e+00	0	41	0	1526726656	39	3987
2026-01-23 03:11:02.53	54.71	31.31	-34.4	-35.2	23.5	0.00e+00	0	41	0	1549795328	39	3906
2026-01-23 03:11:05.37	55.48	31.69	-34.3	-35.1	23.6	0.00e+00	0	41	0	1570766848	39	3853
2026-01-23 03:11:08.70	56.41	32.12	-34.6	-35.4	23.4	0.00e+00	0	41	0	1594884096	39	3970
2026-01-23 03:11:11.42	57.18	32.48	-34.8	-35.6	23.2	0.00e+00	0	41	0	1613758464	39	4076
2026-01-23 03:11:14.69	58.14	32.91	-34.7	-35.5	23.4	0.00e+00	0	41	0	1637875712	39	4012
2026-01-23 03:11:17.54	58.99	33.28	-34.8	-35.6	23.2	0.00e+00	0	41	0	1658847232	39	4071
2026-01-23 03:11:20.66	59.95	33.68	-34.7	-35.5	23.3	0.00e+00	0	41	0	1680867328	39	4027
2026-01-23 03:11:23.51	60.84	34.04	-34.3	-35.1	23.7	0.00e+00	0	41	0	1701838848	39	3859
2026-01-23 03:11:26.63	61.84	34.44	-34.3	-35.1	23.7	0.00e+00	0	41	0	1723858944	39	3849
2026-01-23 03:11:29.69	62.84	34.82	-34.6	-35.5	23.4	0.00e+00	0	42	0	1745879040	39	4006
2026-01-23 03:11:32.74	63.87	35.19	-34.4	-35.2	23.6	0.00e+00	0	41	0	1767899136	39	3910
2026-01-23 03:11:36.07	65.01	35.60	-34.5	-35.4	23.5	0.00e+00	0	41	0	1792016384	39	3959
2026-01-23 03:11:38.81	65.98	35.92	-34.5	-35.3	23.5	0.00e+00	0	41	0	1811939328	39	3919
2026-01-23 03:11:42.09	67.15	36.31	-34.7	-35.5	23.3	0.00e+00	0	41	0	1836056576	39	4029
2026-01-23 03:11:44.90	68.19	36.63	-34.6	-35.4	23.4	0.00e+00	0	41	0	1855979520	39	3969
2026-01-23 03:11:48.03	69.36	36.98	-34.4	-35.2	23.6	0.00e+00	0	41	0	1877999616	39	3909
2026-01-23 03:11:50.90	70.45	37.29	-34.2	-35.0	23.7	0.00e+00	0	41	0	1898971136	39	3814
2026-01-23 03:11:54.17	71.73	37.63	-34.4	-35.2	23.6	0.00e+00	0	41	0	1923088384	39	3902
2026-01-23 03:11:57.29	72.97	37.95	-34.7	-35.5	23.3	0.00e+00	0	41	0	1945108480	39	4024
2026-01-23 03:12:00.17	74.14	38.23	-34.6	-35.4	23.4	0.00e+00	0	41	0	1966080000	39	3997
2026-01-23 03:12:03.42	75.48	38.53	-34.9	-35.8	23.1	0.00e+00	0	41	0	1989148672	39	4163
2026-01-23 03:12:06.23	76.66	38.78	-34.5	-35.3	23.5	0.00e+00	0	41	0	2010120192	39	3956
2026-01-23 03:12:09.53	78.06	39.06	-34.3	-35.1	23.7	0.00e+00	0	41	0	2033188864	38	4072
2026-01-23 03:12:12.47	79.34	39.30	-34.8	-35.6	23.3	0.00e+00	0	41	0	2055208960	38	4315
2026-01-23 03:12:15.75	80.78	39.54	-34.4	-35.2	23.6	0.00e+00	0	41	0	2078277632	38	4135
2026-01-23 03:12:18.49	82.00	39.73	-34.7	-35.5	23.4	0.00e+00	0	41	0	2098200576	38	4264
2026-01-23 03:12:21.77	83.48	39.94	-34.7	-35.5	23.3	0.00e+00	0	41	0	2122317824	39	4036
2026-01-23 03:12:24.59	84.76	40.11	-34.3	-35.1	23.7	0.00e+00	0	41	0	2142240768	39	3833
2026-01-23 03:12:27.72	86.21	40.27	-34.4	-35.2	23.7	0.00e+00	0	41	0	2165309440	39	3874
2026-01-23 03:12:31.18	87.82	40.43	-34.8	-35.6	23.2	0.00e+00	0	41	0	2189426688	39	4095
2026-01-23 03:12:33.87	89.08	40.54	-34.9	-35.7	23.2	0.00e+00	0	41	0	2209349632	39	4129
2026-01-23 03:12:37.14	90.62	40.65	-35.1	-35.9	23.0	0.00e+00	0	41	0	2233466880	39	4233
2026-01-23 03:12:39.97	91.97	40.73	-35.0	-35.9	23.0	0.00e+00	0	41	0	2253389824	39	4211
2026-01-23 03:12:43.09	93.46	40.79	-34.8	-35.6	23.2	0.00e+00	0	41	0	2276458496	39	4093
2026-01-23 03:12:45.94	94.82	40.83	-34.7	-35.5	23.4	0.00e+00	0	41	0	2296381440	39	4028
2026-01-23 03:12:49.14	96.36	40.85	-34.7	-35.5	23.3	0.00e+00	0	41	0	2319450112	39	4022
2026-01-23 03:12:52.00	97.73	40.86	-34.7	-35.5	23.4	0.00e+00	0	41	0	2340421632	39	4032
2026-01-23 03:12:55.13	99.23	40.84	-35.0	-35.9	23.1	0.00e+00	0	41	0	2362441728	39	4196
2026-01-23 03:12:58.13	100.67	40.80	-35.1	-35.9	22.9	0.00e+00	0	41	0	2384461824	40	4002
2026-01-23 03:13:01.19	102.13	40.74	-34.7	-35.5	23.3	0.00e+00	0	41	0	2406481920	39	4028
2026-01-23 03:13:05.06	103.97	40.64	-34.7	-35.5	23.3	0.00e+00	0	41	0	2434793472	39	4048
2026-01-23 03:13:07.90	105.31	40.54	-34.5	-35.3	23.6	0.00e+00	0	41	0	2454716416	39	3922
2026-01-23 03:13:11.61	107.05	40.39	-34.7	-35.5	23.4	0.00e+00	0	42	0	2481979392	39	4037
2026-01-23 03:13:14.60	108.44	40.25	-34.5	-35.2	23.6	0.00e+00	0	41	0	2503999488	39	3913
2026-01-23 03:13:17.59	109.82	40.09	-35.0	-35.8	23.1	0.00e+00	0	41	0	2524971008	39	4167
2026-01-23 03:13:20.57	111.18	39.91	-35.1	-35.9	23.0	0.00e+00	0	41	0	2545942528	39	4223
2026-01-23 03:13:23.55	112.53	39.72	-34.7	-35.5	23.3	0.00e+00	0	41	0	2567962624	39	4043
2026-01-23 03:13:26.54	113.86	39.51	-35.0	-35.9	23.0	0.00e+00	0	41	0	2589982720	39	4205
2026-01-23 03:13:29.52	115.17	39.28	-34.9	-35.7	23.2	0.00e+00	0	41	0	2610954240	39	4132
2026-01-23 03:13:32.50	116.46	39.04	-34.9	-35.7	23.1	0.00e+00	0	41	0	2632974336	39	4134
2026-01-23 03:13:35.53	117.75	38.78	-35.0	-35.8	23.0	0.00e+00	0	41	0	2654994432	39	4168
2026-01-23 03:13:38.52	119.01	38.52	-34.8	-35.6	23.2	0.00e+00	0	41	0	2675965952	39	4074
2026-01-23 03:13:41.50	120.24	38.24	-34.5	-35.3	23.4	0.00e+00	0	41	0	2697986048	39	3944
2026-01-23 03:13:44.49	121.46	37.94	-34.5	-35.3	23.5	0.00e+00	0	41	0	2718957568	39	3936
2026-01-23 03:13:47.48	122.65	37.64	-34.7	-35.5	23.4	0.00e+00	0	41	0	2740977664	39	4024
2026-01-23 03:13:50.47	123.82	37.32	-34.9	-35.8	23.1	0.00e+00	0	41	0	2761949184	39	4160
2026-01-23 03:13:53.46	124.97	37.00	-35.0	-35.9	23.0	0.00e+00	0	41	0	2783969280	39	4198
2026-01-23 03:13:56.44	126.09	36.67	-34.9	-35.7	23.2	0.00e+00	0	41	0	2805989376	39	4130
2026-01-23 03:13:59.43	127.20	36.33	-34.7	-35.6	23.2	0.00e+00	0	42	0	2826960896	39	4052
2026-01-23 03:14:02.42	128.28	35.98	-34.6	-35.4	23.4	0.00e+00	0	41	0	2848980992	39	3988
2026-01-23 03:14:05.45	129.35	35.61	-34.7	-35.5	23.4	0.00e+00	0	41	0	2871001088	39	4029
2026-01-23 03:14:08.43	130.38	35.25	-34.6	-35.4	23.4	0.00e+00	0	41	0	2891972608	39	3999
2026-01-23 03:14:11.42	131.40	34.88	-34.7	-35.6	23.3	0.00e+00	0	41	0	2913992704	39	4059
2026-01-23 03:14:14.40	132.38	34.51	-35.1	-36.0	22.9	0.00e+00	0	41	0	2934964224	39	4246
2026-01-23 03:14:17.38	133.35	34.13	-35.1	-35.9	23.0	0.00e+00	0	42	0	2956984320	39	4225
2026-01-23 03:14:20.37	134.29	33.75	-34.8	-35.6	23.2	0.00e+00	0	41	0	2977955840	39	4080
2026-01-23 03:14:23.46	135.25	33.35	-34.5	-35.3	23.5	0.00e+00	0	41	0	3001024512	39	3924
2026-01-23 03:14:26.40	136.13	32.96	-34.7	-35.5	23.3	0.00e+00	0	41	0	3021996032	39	4042
2026-01-23 03:14:29.68	137.10	32.53	-35.2	-36.0	22.9	0.00e+00	0	41	0	3046113280	39	4282
2026-01-23 03:14:32.50	137.91	32.16	-35.2	-36.0	22.8	0.00e+00	0	41	0	3066036224	40	4035
2026-01-23 03:14:35.75	138.82	31.73	-35.0	-35.8	22.9	0.00e+00	0	41	0	3089104896	40	3941
2026-01-23 03:14:38.96	139.70	31.31	-34.7	-35.5	23.3	0.00e+00	0	41	0	3112173568	39	4017
2026-01-23 03:14:41.90	140.48	30.91	-34.9	-35.8	23.0	0.00e+00	0	41	0	3134193664	39	4159
2026-01-23 03:14:44.88	141.26	30.52	-35.1	-35.9	22.9	0.00e+00	0	41	0	3155165184	39	4218
2026-01-23 03:14:47.87	142.02	30.12	-35.1	-35.9	22.8	0.00e+00	0	41	0	3176136704	39	4228
2026-01-23 03:14:50.85	142.76	29.72	-35.0	-35.8	23.0	0.00e+00	0	41	0	3198156800	39	4171
2026-01-23 03:14:53.88	143.49	29.32	-35.0	-35.8	23.0	0.00e+00	0	42	0	3220176896	39	4181
2026-01-23 03:14:56.95	144.22	28.91	-35.1	-35.9	22.9	0.00e+00	0	42	0	3242196992	39	4225
2026-01-23 03:14:59.79	144.87	28.54	-35.2	-36.1	22.8	0.00e+00	0	42	0	3263168512	39	4293
2026-01-23 03:15:02.92	145.57	28.12	-35.1	-35.9	22.7	0.00e+00	0	41	0	3285188608	39	4216
2026-01-23 03:15:05.79	146.21	27.75	-35.2	-36.0	22.8	0.00e+00	0	41	0	3306160128	39	4266
2026-01-23 03:15:09.03	146.90	27.32	-35.3	-36.2	22.6	0.00e+00	0	42	0	3329228800	40	4112
2026-01-23 03:15:11.95	147.51	26.94	-35.2	-36.0	22.6	0.00e+00	0	41	0	3350200320	40	4051
2026-01-23 03:15:15.42	148.22	26.49	-34.9	-35.8	22.9	0.00e+00	0	42	0	3375366144	40	3922
2026-01-23 03:15:18.41	148.81	26.11	-34.9	-35.7	23.0	0.00e+00	0	41	0	3397386240	40	3894
2026-01-23 03:15:21.40	149.39	25.73	-35.1	-35.9	22.8	0.00e+00	0	41	0	3418357760	40	3988
2026-01-23 03:15:24.38	149.96	25.35	-35.3	-36.1	22.6	0.00e+00	0	41	0	3440377856	40	4093
2026-01-23 03:15:27.37	150.51	24.97	-35.4	-36.3	22.5	0.00e+00	0	41	0	3461349376	40	4146
2026-01-23 03:15:30.63	151.10	24.56	-35.3	-36.1	22.6	0.00e+00	0	42	0	3485466624	40	4081
2026-01-23 03:15:33.54	151.62	24.20	-35.0	-35.8	22.7	0.00e+00	0	41	0	3506438144	40	3942
2026-01-23 03:15:36.81	152.18	23.80	-35.1	-35.9	22.8	0.00e+00	0	41	0	3529506816	40	3999
2026-01-23 03:15:39.54	152.64	23.47	-35.2	-36.0	22.7	0.00e+00	0	41	0	3549429760	40	4040
2026-01-23 03:15:42.81	153.18	23.07	-35.3	-36.2	22.6	0.00e+00	0	41	0	3573547008	40	4100
2026-01-23 03:15:45.51	153.61	22.74	-35.2	-36.1	22.6	0.00e+00	0	42	0	3592421376	40	4061
2026-01-23 03:15:49.11	154.18	22.32	-35.1	-36.0	22.7	0.00e+00	0	41	0	3618635776	40	4005
2026-01-23 03:15:51.81	154.60	22.00	-35.2	-36.0	22.7	0.00e+00	0	42	0	3638558720	40	4029
2026-01-23 03:15:55.09	155.09	21.61	-35.4	-36.3	22.4	0.00e+00	0	42	0	3661627392	40	4158
2026-01-23 03:15:57.81	155.49	21.30	-35.7	-36.6	22.1	0.00e+00	0	41	0	3681550336	40	4313
2026-01-23 03:16:01.09	155.96	20.92	-35.7	-36.5	22.2	0.00e+00	0	41	0	3705667584	41	4034
2026-01-23 03:16:03.80	156.34	20.61	-35.5	-36.4	22.2	0.00e+00	0	42	0	3724541952	41	3971
2026-01-23 03:16:07.03	156.79	20.25	-35.4	-36.3	22.4	0.00e+00	0	42	0	3748659200	41	3925
2026-01-23 03:16:09.87	157.17	19.93	-35.5	-36.4	22.3	0.00e+00	0	42	0	3768582144	41	3969
2026-01-23 03:16:13.14	157.60	19.57	-35.7	-36.6	22.1	0.00e+00	0	42	0	3792699392	41	4054
2026-01-23 03:16:15.85	157.95	19.27	-35.9	-36.8	21.9	0.00e+00	0	42	0	3811573760	41	4151
2026-01-23 03:16:19.17	158.37	18.91	-36.0	-36.8	21.8	0.00e+00	0	42	0	3835691008	41	4183
2026-01-23 03:16:21.87	158.71	18.62	-36.0	-36.9	21.8	0.00e+00	0	42	0	3855613952	41	4202
2026-01-23 03:16:25.15	159.11	18.27	-36.0	-36.9	21.8	0.00e+00	0	42	0	3878682624	41	4199
2026-01-23 03:16:27.86	159.43	17.98	-36.0	-36.9	21.8	0.00e+00	0	42	0	3898605568	41	4210
2026-01-23 03:16:31.26	159.83	17.62	-36.1	-37.0	21.7	0.00e+00	0	41	0	3922722816	41	4254
2026-01-23 03:16:33.96	160.14	17.34	-36.1	-37.0	19.1	0.00e+00	0	42	0	3942645760	41	4258
2026-01-23 03:16:37.18	160.50	17.01	-36.1	-37.0	21.7	0.00e+00	0	42	0	3965714432	41	4270
2026-01-23 03:16:40.02	160.81	16.72	-36.3	-37.1	21.6	0.00e+00	0	41	0	3986685952	42	4084
2026-01-23 03:16:43.15	161.15	16.41	-36.3	-37.2	21.5	0.00e+00	0	41	0	4008706048	42	4114
2026-01-23 03:16:46.34	161.48	16.09	-36.5	-37.4	21.3	0.00e+00	0	41	0	4031774720	42	4212
2026-01-23 03:16:49.19	161.78	15.81	-36.7	-37.7	21.0	0.00e+00	0	42	0	4052746240	42	4343
2026-01-23 03:16:52.38	162.10	15.50	-36.9	-37.8	20.9	0.00e+00	0	42	0	4075814912	43	4173
2026-01-23 03:16:55.29	162.39	15.22	-36.9	-37.8	20.9	0.00e+00	0	42	0	4096786432	43	4182
2026-01-23 03:16:58.41	162.70	14.92	-36.9	-37.9	20.8	0.00e+00	0	42	0	4118806528	43	4207
2026-01-23 03:17:01.32	162.98	14.64	-37.0	-38.0	20.7	0.00e+00	0	41	0	4139778048	43	4261
2026-01-23 03:17:04.61	163.29	14.33	-37.0	-37.9	20.8	0.00e+00	0	42	0	4163895296	43	4211
2026-01-23 03:17:07.62	163.57	14.05	-37.0	-37.9	20.8	0.00e+00	0	41	0	4185915392	43	4205
2026-01-23 03:17:10.77	163.85	13.76	-37.1	-38.0	20.7	0.00e+00	0	42	0	4207935488	43	4281
2026-01-23 03:17:13.72	164.11	13.49	-37.1	-38.1	20.6	0.00e+00	0	42	0	4229955584	43	4302
2026-01-23 03:17:16.85	164.39	13.21	-37.3	-38.2	20.4	0.00e+00	0	42	0	4251975680	43	4380
2026-01-23 03:17:19.69	164.63	12.95	-37.5	-38.5	20.3	0.00e+00	0	41	0	4272947200	44	4284
2026-01-23 03:17:22.82	164.90	12.67	-37.7	-38.7	20.1	0.00e+00	0	42	0	4294967296	44	4347
2026-01-23 03:17:25.66	165.13	12.42	-37.7	-38.7	20.1	0.00e+00	0	42	0	4315938816	45	4144
2026-01-23 03:17:29.21	165.42	12.11	-37.8	-38.8	20.0	0.00e+00	0	41	0	4341104640	45	4169
2026-01-23 03:17:32.18	165.66	11.86	-37.9	-38.9	19.9	0.00e+00	0	41	0	4363124736	45	4205
2026-01-23 03:17:36.13	165.97	11.52	-37.9	-38.9	19.9	0.00e+00	0	42	0	4391436288	45	4199
2026-01-23 03:17:38.95	166.19	11.28	-38.0	-39.1	19.8	0.00e+00	0	42	0	4411359232	45	4302
2026-01-23 03:17:42.36	166.45	10.99	-38.0	-39.0	19.7	0.00e+00	0	41	0	4436525056	45	4284
2026-01-23 03:17:45.07	166.65	10.77	-38.1	-39.2	19.6	0.00e+00	0	42	0	4455399424	45	4343
2026-01-23 03:17:49.02	166.94	10.44	-38.0	-39.2	19.6	0.00e+00	0	42	0	4484759552	45	4348
2026-01-23 03:17:51.87	167.14	10.21	-38.0	-39.2	19.6	4.00e-05	0	42	0	4504682496	45	4352
2026-01-23 03:17:55.91	167.43	9.88	-38.1	-39.4	19.4	0.00e+00	0	42	0	4534042624	46	4204
2026-01-23 03:17:58.75	167.63	9.66	-38.3	-39.6	19.1	0.00e+00	0	42	0	4555014144	46	4318
2026-01-23 03:18:03.11	167.92	9.31	-38.5	-39.8	18.6	0.00e+00	0	42	0	4586471424	46	4441
2026-01-23 03:18:06.27	168.13	9.06	-38.6	-40.0	18.7	0.00e+00	0	41	0	4608491520	46	4507
2026-01-23 03:18:10.21	168.39	8.76	-49.4	-60.6	3.8	8.47e-01	0	42	104	4621074432	68	13587
2026-01-23 03:18:13.05	168.57	8.54	-50.0	-60.8	3.8	8.47e-01	0	42	104	4621074432	69	13144
2026-01-23 03:18:17.03	168.83	8.24	-50.1	-61.0	3.8	8.47e-01	0	42	104	4621074432	69	13513
2026-01-23 03:18:19.87	169.00	8.02	-50.3	-61.0	3.8	8.47e-01	0	42	104	4621074432	70	12785
2026-01-23 03:18:23.92	169.25	7.72	-50.3	-61.0	3.8	8.47e-01	0	42	104	4621074432	70	12702
2026-01-23 03:18:26.90	169.43	7.50	-50.2	-61.0	3.8	8.47e-01	0	42	104	4621074432	70	12665
2026-01-23 03:18:30.10	169.62	7.26	-50.0	-61.0	3.8	8.47e-01	0	42	104	4621074432	70	12685
2026-01-23 03:18:33.08	169.79	7.04	-50.1	-61.0	3.8	8.47e-01	0	42	104	4621074432	70	12710
2026-01-23 03:18:36.06	169.97	6.83	-50.0	-61.0	3.8	8.46e-01	0	42	104	4621074432	70	12670
2026-01-23 03:18:39.04	170.14	6.61	-50.0	-60.9	3.8	8.46e-01	0	42	104	4621074432	70	12636
2026-01-23 03:18:42.02	170.30	6.40	-50.0	-60.9	3.8	8.47e-01	0	42	104	4621074432	70	12565
2026-01-23 03:18:45.00	170.47	6.19	-50.0	-60.9	3.8	8.47e-01	0	42	104	4621074432	70	12533
2026-01-23 03:18:47.97	170.63	5.98	-50.0	-60.9	3.8	8.47e-01	0	42	104	4621074432	70	12597
2026-01-23 03:18:50.96	170.79	5.77	-50.0	-60.9	3.8	8.46e-01	0	42	104	4621074432	70	12576
2026-01-23 03:18:53.93	170.95	5.57	-50.0	-60.9	3.8	8.46e-01	0	42	104	4621074432	70	12594
2026-01-23 03:18:56.92	171.10	5.36	-50.0	-60.9	3.8	8.47e-01	0	42	104	4621074432	70	12520
2026-01-23 03:18:59.90	171.26	5.16	-50.0	-60.8	3.8	8.48e-01	0	42	104	4621074432	70	12488
2026-01-23 03:19:02.88	171.41	4.95	-50.0	-60.9	3.8	8.46e-01	0	42	104	4621074432	70	12521

#Closed at: 2026-01-23 03:19:03
#Recorded file [4621 MB]: D:/Data/31040_260123_060637.dat