passes_logs/2026/01/23/T1/T1__20260123_111400_FENGYUN_3D_rec.log

#Pass ID: 20260123_111400_FENGYUN 3D
#Satellite: FENGYUN 3D
#Configuration: FENGYUN 3D
#almurnet v.1.7.20251203
#Start time: 2026-01-23 11:14:02

#Version: 2.0.20230620
#Station: T1
#Location: 37.570604 lon 55.790049 lat
#TLE: 1 43010U 17072A   26022.47411728  .00000617  00000+0  31375-3 0  9996
#TLE: 2 43010  98.9952 354.4060 0002481  95.7964 264.3494 14.19699924424319

#Time	Az	El	Level	Level2	SNR	BER	BlckErr	Temp	State	Recorded	gain1	gain2
2026-01-23 11:14:02.30	136.45	5.10	-48.8	-61.0	3.8	8.48e-01	0	36	0	0	69	14526
2026-01-23 11:14:05.27	136.34	5.30	-48.8	-61.1	3.8	8.47e-01	0	37	104	0	69	14589
2026-01-23 11:14:08.25	136.22	5.52	-48.8	-60.9	3.8	8.47e-01	0	37	104	0	69	14363
2026-01-23 11:14:11.23	136.10	5.73	-48.7	-60.6	3.8	8.46e-01	0	37	104	0	69	13880
2026-01-23 11:14:14.21	135.98	5.94	-48.7	-60.3	3.8	8.45e-01	0	37	104	0	69	13276
2026-01-23 11:14:17.19	135.85	6.16	-48.6	-59.8	3.8	8.47e-01	0	37	104	0	69	12541
2026-01-23 11:14:20.17	135.73	6.37	-48.6	-59.3	3.8	8.47e-01	0	37	104	0	69	11948
2026-01-23 11:14:23.15	135.60	6.59	-48.6	-59.9	3.8	8.46e-01	0	37	104	0	69	12675
2026-01-23 11:14:26.13	135.47	6.81	-48.8	-60.9	3.8	8.48e-01	0	37	104	0	69	14370
2026-01-23 11:14:29.11	135.34	7.03	-48.7	-60.4	3.8	8.47e-01	0	37	104	0	69	13563
2026-01-23 11:14:32.09	135.21	7.26	-48.4	-58.2	3.9	8.43e-01	0	38	104	0	68	11038
2026-01-23 11:14:35.07	135.07	7.48	-48.0	-55.8	4.8	8.11e-01	0	38	0	0	68	8450
2026-01-23 11:14:38.05	134.94	7.71	-46.5	-51.6	8.0	1.35e-01	0	38	0	9437184	65	6139
2026-01-23 11:14:41.03	134.80	7.94	-43.9	-46.9	12.8	1.73e-04	0	38	0	26214400	59	5079
2026-01-23 11:14:44.01	134.66	8.17	-41.3	-43.7	15.9	0.00e+00	0	38	0	42991616	54	4670
2026-01-23 11:14:46.99	134.51	8.40	-40.2	-42.4	17.1	0.00e+00	0	38	0	59768832	52	4500
2026-01-23 11:14:49.97	134.36	8.64	-40.7	-43.0	16.5	0.00e+00	0	38	0	76546048	52	4856
2026-01-23 11:14:52.94	134.21	8.87	-42.9	-45.7	14.1	4.50e-06	0	38	0	93323264	56	5223
2026-01-23 11:14:55.92	134.06	9.11	-44.6	-48.1	11.7	1.01e-03	0	38	0	110100480	60	5490
2026-01-23 11:14:58.91	133.91	9.35	-44.6	-47.9	12.0	3.33e-02	0	38	0	123731968	61	5087
2026-01-23 11:15:01.89	133.75	9.60	-41.8	-44.3	15.3	0.00e+00	0	38	0	140509184	55	4736
2026-01-23 11:15:04.88	133.59	9.84	-40.4	-42.6	17.0	0.00e+00	0	38	0	157286400	52	4604
2026-01-23 11:15:07.87	133.43	10.09	-39.3	-41.3	18.3	0.00e+00	0	38	0	174063616	50	4487
2026-01-23 11:15:10.85	133.26	10.34	-38.8	-40.8	18.8	0.00e+00	0	38	0	191889408	49	4458
2026-01-23 11:15:13.84	133.09	10.60	-38.7	-40.7	18.8	0.00e+00	0	38	0	207618048	49	4437
2026-01-23 11:15:16.83	132.92	10.85	-38.7	-40.7	18.9	0.00e+00	0	39	0	225443840	49	4415
2026-01-23 11:15:19.82	132.74	11.11	-38.7	-40.7	19.0	0.00e+00	0	38	0	242221056	49	4395
2026-01-23 11:15:22.80	132.56	11.37	-38.7	-40.7	19.0	0.00e+00	0	38	0	257949696	49	4393
2026-01-23 11:15:25.78	132.38	11.63	-38.5	-40.5	19.1	0.00e+00	0	38	0	275775488	49	4331
2026-01-23 11:15:28.76	132.20	11.90	-38.4	-40.3	19.2	0.00e+00	0	38	0	292552704	48	4492
2026-01-23 11:15:31.75	132.01	12.16	-38.4	-40.4	19.3	0.00e+00	0	39	0	308281344	48	4504
2026-01-23 11:15:34.73	131.81	12.43	-38.1	-40.0	19.6	0.00e+00	0	38	0	326107136	48	4318
2026-01-23 11:15:37.71	131.62	12.71	-37.9	-39.8	19.6	0.00e+00	0	39	0	342884352	47	4488
2026-01-23 11:15:40.70	131.42	12.98	-37.7	-39.6	19.8	0.00e+00	0	39	0	358612992	47	4369
2026-01-23 11:15:43.68	131.21	13.26	-37.6	-39.6	19.9	0.00e+00	0	38	0	376438784	47	4341
2026-01-23 11:15:46.67	131.00	13.54	-37.5	-39.4	19.9	0.00e+00	0	39	0	393216000	47	4286
2026-01-23 11:15:49.65	130.79	13.83	-37.5	-39.4	19.9	0.00e+00	0	39	0	408944640	47	4276
2026-01-23 11:15:52.64	130.57	14.12	-37.5	-39.4	20.0	0.00e+00	0	39	0	426770432	47	4272
2026-01-23 11:15:55.62	130.35	14.41	-37.5	-39.4	20.1	0.00e+00	0	39	0	443547648	46	4505
2026-01-23 11:15:58.61	130.13	14.70	-37.3	-39.2	20.2	0.00e+00	0	39	0	460324864	46	4427
2026-01-23 11:16:01.59	129.90	15.00	-37.1	-38.9	20.4	0.00e+00	0	39	0	477102080	46	4289
2026-01-23 11:16:04.57	129.66	15.30	-36.9	-38.8	20.6	0.00e+00	0	39	0	493879296	45	4466
2026-01-23 11:16:07.56	129.42	15.60	-36.8	-38.7	20.7	0.00e+00	0	39	0	510656512	45	4399
2026-01-23 11:16:10.54	129.18	15.90	-36.8	-38.7	20.6	0.00e+00	0	39	0	527433728	45	4422
2026-01-23 11:16:13.53	128.93	16.21	-36.8	-38.7	20.7	0.00e+00	0	38	0	544210944	45	4415
2026-01-23 11:16:16.51	128.67	16.53	-36.6	-38.5	20.8	0.00e+00	0	39	0	560988160	45	4310
2026-01-23 11:16:19.50	128.41	16.84	-36.6	-38.5	20.8	0.00e+00	0	39	0	577765376	45	4314
2026-01-23 11:16:22.49	128.14	17.16	-36.6	-38.4	20.9	0.00e+00	0	39	0	594542592	45	4265
2026-01-23 11:16:25.47	127.87	17.49	-36.5	-38.3	21.0	0.00e+00	0	39	0	611319808	44	4493
2026-01-23 11:16:28.46	127.59	17.82	-36.5	-38.3	21.0	0.00e+00	0	39	0	628097024	44	4482
2026-01-23 11:16:31.44	127.31	18.15	-36.4	-38.2	21.1	0.00e+00	0	39	0	644874240	44	4425
2026-01-23 11:16:34.42	127.01	18.48	-36.4	-38.3	21.0	0.00e+00	0	39	0	661651456	44	4446
2026-01-23 11:16:37.41	126.72	18.82	-36.2	-38.0	21.2	0.00e+00	0	39	0	678428672	44	4309
2026-01-23 11:16:40.39	126.41	19.16	-36.0	-37.8	21.4	0.00e+00	0	39	0	695205888	44	4235
2026-01-23 11:16:43.38	126.10	19.51	-35.7	-37.5	21.6	0.00e+00	0	39	0	711983104	43	4308
2026-01-23 11:16:46.36	125.78	19.86	-35.7	-37.4	21.6	0.00e+00	0	39	0	728760320	43	4288
2026-01-23 11:16:49.35	125.45	20.21	-35.7	-37.5	21.6	0.00e+00	0	39	0	745537536	43	4339
2026-01-23 11:16:52.33	125.12	20.57	-35.7	-37.5	21.6	0.00e+00	0	39	0	762314752	43	4331
2026-01-23 11:16:55.32	124.77	20.93	-35.7	-37.5	21.6	0.00e+00	0	39	0	779091968	43	4296
2026-01-23 11:16:58.30	124.42	21.30	-35.6	-37.3	21.8	0.00e+00	0	39	0	795869184	43	4234
2026-01-23 11:17:01.29	124.06	21.67	-35.5	-37.3	21.8	0.00e+00	0	39	0	812646400	42	4473
2026-01-23 11:17:04.27	123.69	22.04	-35.5	-37.3	21.8	0.00e+00	0	39	0	829423616	42	4452
2026-01-23 11:17:07.26	123.31	22.42	-35.6	-37.4	21.7	0.00e+00	0	39	0	846200832	42	4504
2026-01-23 11:17:10.24	122.92	22.81	-35.5	-37.3	21.8	0.00e+00	0	39	0	862978048	42	4485
2026-01-23 11:17:13.22	122.53	23.19	-35.3	-37.1	21.9	0.00e+00	0	39	0	879755264	42	4382
2026-01-23 11:17:16.20	122.12	23.58	-35.2	-36.9	22.1	0.00e+00	0	39	0	896532480	42	4270
2026-01-23 11:17:19.18	121.70	23.98	-35.0	-36.8	22.2	0.00e+00	0	39	0	913309696	42	4204
2026-01-23 11:17:22.17	121.27	24.38	-35.1	-36.8	22.2	0.00e+00	0	39	0	930086912	42	4229
2026-01-23 11:17:25.15	120.83	24.79	-35.1	-36.9	22.1	0.00e+00	0	39	0	946864128	42	4272
2026-01-23 11:17:28.14	120.38	25.20	-35.0	-36.7	22.3	0.00e+00	0	39	0	963641344	41	4423
2026-01-23 11:17:31.13	119.91	25.61	-34.9	-36.7	22.3	0.00e+00	0	39	0	980418560	41	4411
2026-01-23 11:17:34.11	119.43	26.03	-34.8	-36.6	22.4	0.00e+00	0	39	0	997195776	41	4351
2026-01-23 11:17:37.10	118.94	26.45	-34.8	-36.5	22.4	0.00e+00	0	39	0	1013972992	41	4333
2026-01-23 11:17:40.08	118.44	26.88	-34.9	-36.7	22.2	0.00e+00	0	39	0	1030750208	41	4430
2026-01-23 11:17:43.06	117.92	27.31	-34.7	-36.4	22.5	0.00e+00	0	39	0	1047527424	41	4280
2026-01-23 11:17:46.05	117.39	27.74	-34.6	-36.4	22.5	0.00e+00	0	39	0	1064304640	41	4244
2026-01-23 11:17:49.03	116.84	28.18	-34.5	-36.2	22.7	0.00e+00	0	39	0	1081081856	41	4191
2026-01-23 11:17:52.01	116.28	28.63	-34.4	-36.2	22.8	0.00e+00	0	39	0	1097859072	40	4392
2026-01-23 11:17:55.00	115.70	29.07	-34.5	-36.2	22.7	0.00e+00	0	39	0	1114636288	40	4438
2026-01-23 11:17:57.98	115.11	29.52	-34.7	-36.5	22.5	0.00e+00	0	39	0	1131413504	40	4566
2026-01-23 11:18:00.96	114.50	29.98	-34.6	-36.4	22.6	0.00e+00	0	39	0	1148190720	40	4514
2026-01-23 11:18:03.95	113.87	30.44	-34.5	-36.2	22.8	0.00e+00	0	39	0	1164967936	40	4412
2026-01-23 11:18:06.94	113.22	30.90	-34.5	-36.3	22.7	0.00e+00	0	39	0	1181745152	40	4464
2026-01-23 11:18:09.92	112.55	31.36	-34.8	-36.6	22.4	0.00e+00	0	39	0	1198522368	40	4604
2026-01-23 11:18:12.89	111.87	31.83	-34.8	-36.6	22.4	0.00e+00	0	39	0	1215299584	40	4625
2026-01-23 11:18:15.88	111.16	32.30	-34.3	-36.0	22.9	0.00e+00	0	39	0	1232076800	40	4326
2026-01-23 11:18:18.86	110.43	32.77	-34.3	-36.0	22.9	0.00e+00	0	39	0	1248854016	40	4325
2026-01-23 11:18:21.85	109.68	33.25	-34.2	-35.9	23.0	0.00e+00	0	39	0	1265631232	40	4286
2026-01-23 11:18:24.83	108.91	33.72	-34.3	-36.0	22.9	0.00e+00	0	39	0	1282408448	40	4327
2026-01-23 11:18:27.82	108.12	34.20	-34.4	-36.1	22.8	0.00e+00	0	39	0	1299185664	40	4387
2026-01-23 11:18:30.80	107.30	34.68	-34.3	-36.0	22.9	0.00e+00	0	39	0	1315962880	40	4326
2026-01-23 11:18:33.79	106.45	35.16	-34.3	-36.0	22.9	0.00e+00	0	39	0	1332740096	40	4325
2026-01-23 11:18:36.77	105.59	35.63	-34.3	-36.0	22.9	0.00e+00	0	39	0	1349517312	40	4307
2026-01-23 11:18:39.75	104.69	36.11	-34.2	-35.9	23.0	0.00e+00	0	39	0	1366294528	40	4285
2026-01-23 11:18:42.74	103.77	36.59	-34.3	-36.0	23.0	0.00e+00	0	39	0	1383071744	40	4308
2026-01-23 11:18:45.73	102.82	37.06	-34.2	-36.0	22.9	0.00e+00	0	39	0	1399848960	40	4307
2026-01-23 11:18:48.72	101.84	37.54	-34.4	-36.2	22.8	0.00e+00	0	39	0	1416626176	40	4403
2026-01-23 11:18:51.70	100.84	38.01	-34.8	-36.6	22.4	0.00e+00	0	39	0	1433403392	40	4623
2026-01-23 11:18:54.69	99.80	38.47	-34.7	-36.5	22.6	0.00e+00	0	39	0	1450180608	40	4550
2026-01-23 11:18:57.67	98.74	38.93	-34.6	-36.4	22.6	0.00e+00	0	39	0	1466957824	40	4512
2026-01-23 11:19:00.66	97.64	39.39	-34.5	-36.3	22.7	0.00e+00	0	39	0	1483735040	40	4450
2026-01-23 11:19:03.64	96.51	39.84	-34.6	-36.3	22.7	0.00e+00	0	39	0	1500512256	40	4485
2026-01-23 11:19:06.62	95.36	40.28	-34.1	-35.8	23.1	0.00e+00	0	39	0	1517289472	40	4231
2026-01-23 11:19:09.60	94.17	40.71	-34.1	-35.8	23.2	0.00e+00	0	39	0	1534066688	40	4221
2026-01-23 11:19:12.59	92.94	41.13	-34.1	-35.8	23.2	0.00e+00	0	39	0	1550843904	40	4234
2026-01-23 11:19:15.58	91.69	41.55	-34.3	-36.0	23.1	0.00e+00	0	39	0	1567621120	40	4322
2026-01-23 11:19:18.56	90.40	41.95	-34.2	-35.9	23.1	0.00e+00	0	39	0	1584398336	40	4290
2026-01-23 11:19:21.55	89.08	42.34	-34.2	-35.9	23.2	0.00e+00	0	39	0	1601175552	40	4258
2026-01-23 11:19:24.53	87.74	42.72	-33.9	-35.6	23.4	0.00e+00	0	39	0	1617952768	39	4369
2026-01-23 11:19:27.51	86.36	43.08	-33.9	-35.5	23.5	0.00e+00	0	39	0	1634729984	39	4339
2026-01-23 11:19:30.50	84.94	43.42	-34.3	-36.0	23.1	0.00e+00	0	39	0	1651507200	39	4564
2026-01-23 11:19:33.48	83.50	43.75	-34.2	-35.9	23.2	0.00e+00	0	39	0	1668284416	39	4545
2026-01-23 11:19:36.47	82.03	44.06	-34.1	-35.8	23.3	0.00e+00	0	39	0	1685061632	39	4457
2026-01-23 11:19:39.45	80.53	44.35	-34.3	-36.0	23.2	0.00e+00	0	39	0	1701838848	39	4565
2026-01-23 11:19:42.44	79.00	44.62	-34.6	-36.4	22.8	0.00e+00	0	39	0	1719664640	39	4763
2026-01-23 11:19:45.42	77.45	44.87	-34.4	-36.1	23.0	0.00e+00	0	39	0	1735393280	39	4623
2026-01-23 11:19:48.41	75.88	45.10	-34.4	-36.1	23.0	0.00e+00	0	39	0	1752170496	39	4621
2026-01-23 11:19:51.39	74.28	45.31	-34.5	-36.2	23.0	0.00e+00	0	39	0	1769996288	39	4670
2026-01-23 11:19:54.38	72.66	45.49	-34.4	-36.1	23.0	0.00e+00	0	39	0	1785724928	39	4651
2026-01-23 11:19:57.36	71.03	45.64	-34.4	-36.1	23.0	0.00e+00	0	39	0	1803550720	39	4640
2026-01-23 11:20:00.35	69.38	45.77	-34.4	-36.2	23.0	0.00e+00	0	39	0	1820327936	39	4659
2026-01-23 11:20:03.33	67.73	45.87	-34.4	-36.1	23.1	0.00e+00	0	39	0	1836056576	39	4609
2026-01-23 11:20:06.31	66.06	45.95	-34.3	-36.0	23.1	0.00e+00	0	39	0	1853882368	39	4577
2026-01-23 11:20:09.30	64.38	46.00	-34.3	-36.0	23.1	0.00e+00	0	39	0	1870659584	39	4592
2026-01-23 11:20:12.28	62.70	46.03	-34.2	-35.8	23.3	0.00e+00	0	39	0	1886388224	39	4493
2026-01-23 11:20:15.26	61.02	46.02	-34.3	-36.0	23.1	0.00e+00	0	39	0	1904214016	39	4579
2026-01-23 11:20:18.25	59.34	45.99	-34.3	-36.1	23.1	0.00e+00	0	39	0	1920991232	39	4605
2026-01-23 11:20:21.23	57.67	45.93	-34.8	-36.5	22.6	0.00e+00	0	39	0	1936719872	40	4585
2026-01-23 11:20:24.22	56.00	45.85	-34.3	-36.0	23.1	0.00e+00	0	39	0	1954545664	40	4292
2026-01-23 11:20:27.21	54.34	45.74	-34.3	-36.0	23.1	0.00e+00	0	39	0	1971322880	40	4296
2026-01-23 11:20:30.19	52.70	45.60	-34.1	-35.8	23.3	0.00e+00	0	39	0	1988100096	40	4218
2026-01-23 11:20:33.17	51.08	45.44	-34.3	-36.1	23.0	0.00e+00	0	39	0	2004877312	40	4357
2026-01-23 11:20:36.15	49.47	45.25	-34.4	-36.1	23.0	0.00e+00	0	39	0	2021654528	40	4341
2026-01-23 11:20:39.14	47.88	45.04	-34.1	-35.8	23.2	0.00e+00	0	39	0	2038431744	40	4227
2026-01-23 11:20:42.12	46.32	44.81	-34.3	-36.0	23.1	0.00e+00	0	39	0	2055208960	40	4318
2026-01-23 11:20:45.11	44.77	44.55	-34.3	-36.1	23.1	0.00e+00	0	39	0	2071986176	40	4345
2026-01-23 11:20:48.10	43.26	44.27	-34.0	-35.7	23.3	0.00e+00	0	39	0	2088763392	40	4192
2026-01-23 11:20:51.09	41.76	43.98	-33.8	-35.5	23.6	0.00e+00	0	39	0	2105540608	39	4311
2026-01-23 11:20:54.07	40.31	43.66	-33.9	-35.6	23.5	0.00e+00	0	39	0	2122317824	39	4378
2026-01-23 11:20:57.05	38.88	43.33	-34.2	-35.9	23.2	0.00e+00	0	39	0	2139095040	39	4501
2026-01-23 11:21:00.04	37.48	42.98	-34.1	-35.8	23.3	0.00e+00	0	39	0	2155872256	39	4485
2026-01-23 11:21:03.03	36.10	42.61	-34.1	-35.8	23.3	0.00e+00	0	39	0	2172649472	39	4463
2026-01-23 11:21:06.01	34.77	42.23	-33.8	-35.5	23.5	0.00e+00	0	39	0	2189426688	39	4332
2026-01-23 11:21:08.99	33.46	41.84	-34.0	-35.7	23.3	0.00e+00	0	39	0	2206203904	39	4428
2026-01-23 11:21:11.98	32.19	41.44	-34.1	-35.8	23.2	0.00e+00	0	39	0	2222981120	39	4490
2026-01-23 11:21:14.96	30.95	41.02	-34.2	-35.9	23.2	0.00e+00	0	39	0	2239758336	39	4536
2026-01-23 11:21:17.95	29.74	40.60	-34.1	-35.9	23.2	0.00e+00	0	39	0	2256535552	39	4494
2026-01-23 11:21:20.93	28.56	40.16	-34.0	-35.7	23.3	0.00e+00	0	39	0	2273312768	39	4429
2026-01-23 11:21:23.91	27.42	39.72	-34.3	-35.9	23.7	0.00e+00	0	39	0	2290089984	39	4538
2026-01-23 11:21:26.90	26.30	39.27	-34.5	-36.1	23.5	0.00e+00	0	39	0	2306867200	39	4639
2026-01-23 11:21:29.88	25.22	38.82	-34.2	-35.8	23.9	0.00e+00	0	39	0	2323644416	39	4470
2026-01-23 11:21:32.87	24.16	38.36	-34.2	-35.8	23.8	0.00e+00	0	39	0	2340421632	39	4481
2026-01-23 11:21:35.85	23.14	37.89	-34.1	-35.7	23.9	0.00e+00	0	39	0	2357198848	39	4434
2026-01-23 11:21:38.83	22.15	37.42	-34.0	-35.6	24.0	0.00e+00	0	39	0	2373976064	39	4389
2026-01-23 11:21:41.82	21.18	36.95	-33.9	-35.5	24.1	0.00e+00	0	39	0	2390753280	39	4333
2026-01-23 11:21:44.80	20.25	36.48	-34.0	-35.7	24.0	0.00e+00	0	39	0	2407530496	39	4416
2026-01-23 11:21:47.79	19.33	36.00	-34.0	-35.7	24.0	0.00e+00	0	39	0	2424307712	39	4392
2026-01-23 11:21:50.77	18.45	35.53	-33.8	-35.4	24.2	0.00e+00	0	39	0	2441084928	39	4272
2026-01-23 11:21:53.76	17.59	35.05	-34.2	-35.8	23.8	0.00e+00	0	39	0	2457862144	39	4489
2026-01-23 11:21:56.74	16.76	34.57	-34.0	-35.6	24.0	0.00e+00	0	39	0	2474639360	39	4378
2026-01-23 11:21:59.72	15.95	34.10	-34.2	-35.8	23.8	0.00e+00	0	39	0	2491416576	39	4486
2026-01-23 11:22:02.71	15.16	33.62	-34.1	-35.7	23.9	0.00e+00	0	39	0	2508193792	39	4421
2026-01-23 11:22:05.69	14.40	33.15	-34.2	-35.8	23.8	0.00e+00	0	39	0	2524971008	39	4483
2026-01-23 11:22:08.67	13.66	32.68	-34.1	-35.7	23.9	0.00e+00	0	39	0	2541748224	39	4429
2026-01-23 11:22:11.66	12.94	32.21	-34.3	-35.9	23.7	0.00e+00	0	39	0	2558525440	39	4524
2026-01-23 11:22:14.64	12.25	31.74	-34.2	-35.9	23.8	0.00e+00	0	39	0	2575302656	39	4503
2026-01-23 11:22:17.62	11.57	31.28	-34.2	-35.8	23.8	0.00e+00	0	39	0	2592079872	39	4464
2026-01-23 11:22:20.61	10.91	30.82	-34.2	-35.8	23.8	0.00e+00	0	39	0	2608857088	39	4493
2026-01-23 11:22:23.59	10.27	30.36	-34.2	-35.8	23.8	0.00e+00	0	39	0	2625634304	39	4480
2026-01-23 11:22:26.57	9.65	29.90	-34.6	-36.3	23.4	0.00e+00	0	39	0	2642411520	40	4457
2026-01-23 11:22:29.56	9.04	29.45	-34.9	-36.6	23.1	0.00e+00	0	39	0	2659188736	40	4623
2026-01-23 11:22:32.54	8.46	29.00	-34.8	-36.4	23.2	0.00e+00	0	39	0	2675965952	40	4526
2026-01-23 11:22:35.53	7.88	28.56	-34.7	-36.4	23.2	0.00e+00	0	39	0	2692743168	40	4506
2026-01-23 11:22:38.51	7.33	28.12	-34.5	-36.1	23.4	0.00e+00	0	39	0	2709520384	40	4384
2026-01-23 11:22:41.50	6.79	27.68	-34.6	-36.3	23.4	0.00e+00	0	39	0	2726297600	40	4445
2026-01-23 11:22:44.49	6.26	27.25	-34.9	-36.5	23.1	0.00e+00	0	39	0	2743074816	40	4579
2026-01-23 11:22:47.47	5.75	26.82	-34.8	-36.5	23.1	0.00e+00	0	39	0	2759852032	40	4574
2026-01-23 11:22:50.45	5.25	26.40	-34.7	-36.4	23.2	0.00e+00	0	39	0	2776629248	40	4504
2026-01-23 11:22:53.43	4.77	25.98	-34.6	-36.2	23.4	0.00e+00	0	39	0	2793406464	40	4436
2026-01-23 11:22:56.42	4.30	25.56	-34.7	-36.4	23.3	0.00e+00	0	39	0	2810183680	40	4499
2026-01-23 11:22:59.40	3.84	25.15	-34.7	-36.3	23.3	0.00e+00	0	39	0	2826960896	40	4482
2026-01-23 11:23:02.38	3.39	24.75	-34.7	-36.3	23.3	0.00e+00	0	39	0	2843738112	40	4473
2026-01-23 11:23:05.37	2.96	24.34	-34.7	-36.4	23.2	0.00e+00	0	39	0	2860515328	40	4495
2026-01-23 11:23:08.35	2.53	23.95	-34.8	-36.5	23.1	0.00e+00	0	39	0	2877292544	40	4580
2026-01-23 11:23:11.34	2.12	23.55	-34.8	-36.5	23.1	0.00e+00	0	39	0	2894069760	40	4577
2026-01-23 11:23:14.32	1.72	23.16	-34.9	-36.5	23.1	0.00e+00	0	39	0	2910846976	40	4587
2026-01-23 11:23:17.30	1.33	22.78	-35.0	-36.7	22.9	0.00e+00	0	39	0	2927624192	40	4658
2026-01-23 11:23:20.29	0.94	22.40	-35.2	-36.9	22.8	0.00e+00	0	39	0	2944401408	40	4764
2026-01-23 11:23:23.27	0.57	22.02	-35.3	-37.0	22.7	0.00e+00	0	39	0	2961178624	41	4550
2026-01-23 11:23:26.25	0.21	21.65	-35.2	-36.8	22.8	0.00e+00	0	39	0	2977955840	41	4482
2026-01-23 11:23:29.24	359.85	21.28	-35.1	-36.8	22.8	0.00e+00	0	39	0	2994733056	41	4465
2026-01-23 11:23:32.22	359.50	20.92	-35.2	-36.9	22.7	0.00e+00	0	39	0	3011510272	41	4494
2026-01-23 11:23:35.20	359.17	20.56	-35.2	-36.9	22.7	0.00e+00	0	39	0	3028287488	41	4534
2026-01-23 11:23:38.19	358.83	20.20	-35.4	-37.1	22.5	0.00e+00	0	39	0	3045064704	41	4645
2026-01-23 11:23:41.18	358.51	19.85	-35.6	-37.3	22.4	0.00e+00	0	39	0	3061841920	41	4714
2026-01-23 11:23:44.16	358.20	19.50	-35.8	-37.5	22.2	0.00e+00	0	39	0	3078619136	42	4580
2026-01-23 11:23:47.14	357.89	19.16	-36.0	-37.8	21.9	0.00e+00	0	39	0	3095396352	42	4715
2026-01-23 11:23:50.13	357.59	18.82	-36.1	-37.9	21.8	0.00e+00	0	39	0	3112173568	42	4814
2026-01-23 11:23:53.11	357.29	18.48	-36.0	-37.7	21.9	0.00e+00	0	39	0	3128950784	43	4433
2026-01-23 11:23:56.10	357.00	18.15	-36.0	-37.7	21.9	0.00e+00	0	39	0	3145728000	43	4430
2026-01-23 11:23:59.09	356.72	17.82	-36.1	-37.9	21.8	0.00e+00	0	39	0	3162505216	43	4494
2026-01-23 11:24:02.07	356.45	17.50	-36.2	-38.0	21.7	0.00e+00	0	39	0	3179282432	43	4547
2026-01-23 11:24:05.05	356.18	17.18	-36.3	-38.1	21.6	0.00e+00	0	39	0	3196059648	43	4629
2026-01-23 11:24:08.04	355.92	16.86	-36.3	-38.1	21.6	0.00e+00	0	39	0	3212836864	43	4601
2026-01-23 11:24:11.02	355.66	16.54	-36.4	-38.1	21.6	0.00e+00	0	39	0	3229614080	43	4627
2026-01-23 11:24:14.00	355.41	16.23	-36.6	-38.3	21.4	0.00e+00	0	39	0	3246391296	43	4751
2026-01-23 11:24:16.99	355.16	15.93	-37.0	-38.8	21.1	0.00e+00	0	39	0	3263168512	44	4729
2026-01-23 11:24:19.97	354.92	15.62	-37.1	-39.0	20.9	0.00e+00	0	39	0	3279945728	45	4571
2026-01-23 11:24:22.96	354.69	15.32	-37.3	-39.2	20.8	0.00e+00	0	39	0	3296722944	45	4657
2026-01-23 11:24:25.94	354.45	15.02	-37.4	-39.2	20.6	0.00e+00	0	39	0	3313500160	45	4702
2026-01-23 11:24:28.93	354.23	14.73	-37.3	-39.1	20.7	0.00e+00	0	39	0	3330277376	45	4647
2026-01-23 11:24:31.91	354.01	14.44	-37.3	-39.1	20.7	0.00e+00	0	39	0	3347054592	45	4647
2026-01-23 11:24:34.90	353.79	14.15	-37.2	-39.0	20.8	0.00e+00	0	39	0	3363831808	45	4589
2026-01-23 11:24:37.88	353.58	13.86	-37.2	-39.0	20.8	0.00e+00	0	39	0	3380609024	45	4587
2026-01-23 11:24:40.87	353.37	13.58	-37.2	-39.0	20.8	0.00e+00	0	39	0	3397386240	45	4593
2026-01-23 11:24:43.85	353.16	13.30	-37.3	-39.1	20.7	0.00e+00	0	39	0	3414163456	45	4642
2026-01-23 11:24:46.84	352.96	13.02	-37.3	-39.3	20.5	0.00e+00	0	39	0	3430940672	45	4753
2026-01-23 11:24:49.83	352.77	12.75	-37.5	-39.5	20.3	0.00e+00	0	39	0	3447717888	45	4863
2026-01-23 11:24:52.81	352.57	12.48	-37.5	-39.6	20.2	0.00e+00	0	39	0	3464495104	45	4908
2026-01-23 11:24:55.79	352.38	12.21	-37.7	-39.7	20.1	0.00e+00	0	39	0	3481272320	46	4694
2026-01-23 11:24:58.77	352.20	11.94	-37.8	-39.8	20.1	0.00e+00	0	39	0	3498049536	46	4738
2026-01-23 11:25:01.76	352.02	11.68	-37.8	-39.8	20.0	0.00e+00	0	39	0	3514826752	46	4759
2026-01-23 11:25:04.74	351.84	11.42	-37.8	-40.0	19.8	0.00e+00	0	39	0	3531603968	46	4870
2026-01-23 11:25:07.72	351.66	11.16	-37.6	-40.0	19.8	0.00e+00	0	39	0	3548381184	46	4850
2026-01-23 11:25:10.71	351.49	10.90	-37.6	-40.0	19.8	0.00e+00	0	39	0	3565158400	46	4856
2026-01-23 11:25:13.69	351.32	10.65	-37.5	-40.1	19.7	0.00e+00	0	39	0	3582984192	46	4899
2026-01-23 11:25:16.68	351.16	10.40	-37.5	-39.9	19.9	0.00e+00	0	39	0	3598712832	46	4774
2026-01-23 11:25:19.66	351.00	10.15	-37.8	-40.0	19.8	0.00e+00	0	39	0	3615490048	46	4867
2026-01-23 11:25:22.64	350.84	9.90	-37.9	-40.0	19.7	0.00e+00	0	39	0	3633315840	46	4850
2026-01-23 11:25:25.63	350.68	9.65	-38.0	-40.1	19.6	0.00e+00	0	39	0	3649044480	46	4915
2026-01-23 11:25:28.61	350.52	9.41	-38.1	-40.3	19.5	0.00e+00	0	39	0	3665821696	46	4996
2026-01-23 11:25:31.60	350.37	9.17	-38.1	-40.3	19.4	0.00e+00	0	39	0	3683647488	47	4735
2026-01-23 11:25:34.58	350.22	8.93	-46.8	-60.8	3.8	8.45e-01	0	39	104	3696230400	64	18899
2026-01-23 11:25:37.56	350.08	8.70	-49.4	-61.7	3.8	8.47e-01	0	39	104	3696230400	69	15596
2026-01-23 11:25:40.54	349.94	8.46	-49.4	-61.8	3.8	8.46e-01	0	39	104	3696230400	69	15926
2026-01-23 11:25:43.52	349.79	8.23	-49.4	-61.9	3.8	8.46e-01	0	39	104	3696230400	69	16112
2026-01-23 11:25:46.50	349.66	8.00	-49.6	-62.0	3.8	8.47e-01	0	39	104	3696230400	70	15251
2026-01-23 11:25:49.48	349.52	7.77	-49.7	-62.0	3.8	8.46e-01	0	39	104	3696230400	70	15229
2026-01-23 11:25:52.45	349.39	7.55	-49.7	-61.9	3.8	8.47e-01	0	39	104	3696230400	70	15225
2026-01-23 11:25:55.43	349.26	7.32	-49.9	-62.0	3.8	8.46e-01	0	39	104	3696230400	70	15247
2026-01-23 11:25:58.41	349.13	7.10	-49.8	-61.9	3.8	8.47e-01	0	39	104	3696230400	70	15155
2026-01-23 11:26:01.39	349.00	6.88	-49.7	-61.9	3.8	8.46e-01	0	39	104	3696230400	70	15185
2026-01-23 11:26:04.37	348.87	6.66	-49.6	-61.9	3.8	8.48e-01	0	39	104	3696230400	70	15058
2026-01-23 11:26:07.35	348.75	6.44	-49.6	-61.8	3.8	8.46e-01	0	39	104	3696230400	70	15041
2026-01-23 11:26:10.33	348.63	6.23	-49.6	-61.9	3.8	8.46e-01	0	39	104	3696230400	70	15068
2026-01-23 11:26:13.31	348.51	6.01	-49.6	-61.8	3.8	8.47e-01	0	39	104	3696230400	70	15043
2026-01-23 11:26:16.29	348.39	5.80	-49.5	-61.8	3.8	8.47e-01	0	39	104	3696230400	70	15012
2026-01-23 11:26:19.27	348.28	5.59	-49.6	-61.8	3.8	8.48e-01	0	39	104	3696230400	70	15036
2026-01-23 11:26:22.25	348.16	5.38	-49.5	-61.8	3.8	8.47e-01	0	39	104	3696230400	70	15042
2026-01-23 11:26:25.22	348.05	5.17	-49.5	-61.8	3.8	8.46e-01	0	39	104	3696230400	70	15009
2026-01-23 11:26:28.20	347.94	4.97	-49.5	-61.8	3.8	8.47e-01	0	39	104	3696230400	70	15025

#Closed at: 2026-01-23 11:26:29
#Recorded file [3696 MB]: D:/Data/31040_260123_141402.dat