passes_logs/2026/01/23/T1/T1__20260123_224700_NOAA_20_JPSS-1_rec.log

#Pass ID: 20260123_224700_NOAA 20 (JPSS-1)
#Satellite: NOAA 20 (JPSS-1)
#Configuration: NOAA 20
#almurnet v.1.7.20251203
#Start time: 2026-01-23 22:47:00

#Version: 2.0.20230620
#Station: T1
#Location: 37.570604 lon 55.790049 lat
#TLE: 1 43013U 17073A   26022.94240312  .00000200  00000+0  11574-3 0  9998
#TLE: 2 43013  98.7645 323.7982 0001179  28.0279 332.0961 14.19539020423863

#Time	Az	El	Level	Level2	SNR	BER	BlckErr	Temp	State	Recorded	gain1	gain2
2026-01-23 22:47:00.90	23.34	5.05	-47.7	-63.3	3.8	1.49e+00	0	39	0	0	67	21180
2026-01-23 22:47:03.88	23.50	5.25	-47.7	-63.2	3.8	1.49e+00	0	39	104	0	67	21000
2026-01-23 22:47:06.85	23.66	5.45	-47.7	-63.2	3.8	1.49e+00	0	39	104	0	67	20853
2026-01-23 22:47:09.84	23.83	5.65	-47.7	-63.1	3.8	1.49e+00	0	39	104	0	67	20732
2026-01-23 22:47:12.81	23.99	5.86	-47.7	-63.1	3.8	1.49e+00	0	39	104	0	67	20726
2026-01-23 22:47:15.80	24.17	6.06	-47.7	-63.2	3.8	1.49e+00	0	39	104	0	67	20853
2026-01-23 22:47:18.78	24.34	6.27	-47.7	-63.3	3.8	1.49e+00	0	40	104	0	67	21022
2026-01-23 22:47:21.76	24.51	6.47	-47.7	-63.2	3.8	1.49e+00	0	40	104	0	67	20911
2026-01-23 22:47:24.73	24.69	6.68	-47.7	-63.2	3.8	1.49e+00	0	39	104	0	67	20805
2026-01-23 22:47:27.71	24.87	6.89	-47.7	-63.2	3.8	1.49e+00	0	40	104	0	67	20893
2026-01-23 22:47:30.70	25.05	7.10	-47.7	-63.3	3.8	1.49e+00	0	40	104	0	67	21099
2026-01-23 22:47:33.68	25.23	7.32	-47.7	-63.1	3.8	1.49e+00	0	40	104	0	67	20650
2026-01-23 22:47:36.66	25.42	7.53	-47.7	-62.7	3.8	1.49e+00	0	40	104	0	67	19705
2026-01-23 22:47:39.64	25.61	7.75	-47.7	-62.4	3.8	1.49e+00	0	40	104	0	67	19054
2026-01-23 22:47:42.62	25.80	7.97	-47.7	-62.3	3.8	1.49e+00	0	40	104	0	67	18945
2026-01-23 22:47:45.60	26.00	8.19	-47.7	-62.2	3.8	1.49e+00	0	40	104	0	67	18604
2026-01-23 22:47:48.58	26.20	8.41	-47.6	-61.4	3.9	1.49e+00	0	41	104	0	67	16981
2026-01-23 22:47:51.56	26.40	8.63	-47.4	-58.4	4.6	1.30e+00	0	40	0	1048576	66	12754
2026-01-23 22:47:54.54	26.60	8.86	-46.6	-54.1	7.8	1.41e-01	0	40	0	6291456	65	8247
2026-01-23 22:47:57.52	26.80	9.08	-45.9	-51.5	10.6	2.44e-03	0	41	0	11534336	63	6813
2026-01-23 22:48:00.51	27.01	9.31	-46.6	-53.6	8.7	7.12e-04	0	40	0	17825792	63	8675
2026-01-23 22:48:03.49	27.23	9.54	-43.0	-46.0	16.2	0.00e+00	0	40	0	23068672	58	4869
2026-01-23 22:48:06.48	27.44	9.77	-42.8	-45.8	16.5	0.00e+00	0	41	0	28311552	57	5013
2026-01-23 22:48:09.46	27.66	10.01	-42.5	-45.4	16.8	0.00e+00	0	40	0	34603008	57	4792
2026-01-23 22:48:12.47	27.89	10.25	-42.5	-45.3	17.0	0.00e+00	0	41	0	39845888	56	5008
2026-01-23 22:48:15.45	28.11	10.48	-42.5	-45.3	17.0	0.00e+00	0	41	0	45088768	56	5007
2026-01-23 22:48:18.44	28.34	10.72	-42.4	-45.3	17.0	0.00e+00	0	41	0	51380224	56	5009
2026-01-23 22:48:21.42	28.57	10.97	-42.4	-45.2	17.1	0.00e+00	0	41	0	56623104	56	4949
2026-01-23 22:48:24.41	28.81	11.21	-42.3	-45.2	17.2	0.00e+00	0	41	0	61865984	56	4932
2026-01-23 22:48:27.39	29.05	11.46	-42.3	-45.1	17.2	0.00e+00	0	41	0	68157440	56	4885
2026-01-23 22:48:30.44	29.30	11.71	-42.2	-45.0	17.3	0.00e+00	0	41	0	73400320	56	4863
2026-01-23 22:48:33.36	29.54	11.95	-42.2	-44.9	17.3	0.00e+00	0	41	0	78643200	56	4791
2026-01-23 22:48:36.35	29.79	12.21	-42.0	-44.6	17.7	0.00e+00	0	41	0	84934656	56	4639
2026-01-23 22:48:39.34	30.05	12.46	-41.8	-44.4	17.8	0.00e+00	0	41	0	90177536	55	4802
2026-01-23 22:48:42.32	30.31	12.72	-41.7	-44.3	17.9	0.00e+00	0	41	0	95420416	55	4720
2026-01-23 22:48:45.26	30.57	12.97	-41.7	-44.2	18.0	0.00e+00	0	41	0	101711872	55	4670
2026-01-23 22:48:48.76	30.89	13.28	-41.5	-43.9	18.2	0.00e+00	0	41	0	108003328	54	4814
2026-01-23 22:48:51.47	31.14	13.52	-41.3	-43.7	18.5	0.00e+00	0	41	0	113246208	54	4700
2026-01-23 22:48:54.76	31.44	13.81	-41.2	-43.6	18.6	0.00e+00	0	41	0	119537664	54	4631
2026-01-23 22:48:57.48	31.70	14.06	-41.0	-43.5	18.8	0.00e+00	0	41	0	123731968	54	4547
2026-01-23 22:49:00.79	32.02	14.36	-41.1	-43.5	18.7	0.00e+00	0	41	0	130023424	54	4587
2026-01-23 22:49:03.57	32.30	14.61	-41.2	-43.7	18.6	0.00e+00	0	41	0	135266304	54	4669
2026-01-23 22:49:06.84	32.63	14.91	-41.3	-43.7	18.5	0.00e+00	0	41	0	141557760	54	4701
2026-01-23 22:49:09.72	32.92	15.18	-41.4	-43.9	18.4	0.00e+00	0	41	0	146800640	54	4767
2026-01-23 22:49:12.84	33.25	15.48	-41.5	-44.0	18.3	0.00e+00	0	41	0	153092096	54	4851
2026-01-23 22:49:15.69	33.55	15.75	-41.6	-44.1	18.2	0.00e+00	0	41	0	158334976	54	4887
2026-01-23 22:49:18.81	33.88	16.04	-41.4	-43.9	18.4	0.00e+00	0	41	0	164626432	54	4773
2026-01-23 22:49:21.66	34.20	16.32	-41.4	-43.9	18.4	0.00e+00	0	41	0	169869312	54	4791
2026-01-23 22:49:24.78	34.55	16.62	-41.5	-44.1	18.2	0.00e+00	0	41	0	175112192	54	4885
2026-01-23 22:49:27.62	34.87	16.90	-41.4	-44.0	18.3	0.00e+00	0	41	0	180355072	54	4840
2026-01-23 22:49:30.75	35.23	17.21	-41.6	-44.2	18.1	0.00e+00	0	41	0	186646528	54	4945
2026-01-23 22:49:33.59	35.57	17.50	-41.7	-44.2	18.2	0.00e+00	0	41	0	191889408	54	4947
2026-01-23 22:49:36.91	35.97	17.83	-41.9	-44.5	17.9	0.00e+00	0	41	0	198180864	54	5108
2026-01-23 22:49:39.63	36.31	18.11	-42.1	-44.7	17.7	0.00e+00	0	41	0	203423744	54	5241
2026-01-23 22:49:43.17	36.75	18.47	-42.2	-44.9	17.5	0.00e+00	0	41	0	209715200	55	5054
2026-01-23 22:49:45.95	37.11	18.76	-42.4	-45.0	17.3	0.00e+00	0	41	0	214958080	55	5147
2026-01-23 22:49:49.22	37.54	19.11	-42.4	-45.1	17.3	0.00e+00	0	41	0	221249536	55	5166
2026-01-23 22:49:51.93	37.90	19.39	-42.4	-45.1	17.3	0.00e+00	0	41	0	226492416	55	5190
2026-01-23 22:49:55.23	38.35	19.74	-42.4	-45.0	17.4	0.00e+00	0	41	0	232783872	55	5134
2026-01-23 22:49:58.09	38.75	20.05	-42.3	-44.9	17.5	0.00e+00	0	41	0	238026752	55	5054
2026-01-23 22:50:01.57	39.24	20.43	-42.2	-44.9	17.5	0.00e+00	0	41	0	244318208	55	5053
2026-01-23 22:50:04.48	39.67	20.75	-42.3	-45.0	17.4	0.00e+00	0	41	0	249561088	55	5106
2026-01-23 22:50:07.81	40.16	21.11	-42.4	-45.0	17.3	0.00e+00	0	41	0	255852544	55	5159
2026-01-23 22:50:10.51	40.57	21.42	-42.3	-45.0	17.4	0.00e+00	0	41	0	261095424	55	5115
2026-01-23 22:50:13.80	41.08	21.78	-42.4	-45.1	17.3	0.00e+00	0	41	0	267386880	55	5179
2026-01-23 22:50:16.50	41.51	22.09	-42.4	-45.0	17.4	0.00e+00	0	41	0	272629760	55	5128
2026-01-23 22:50:19.78	42.04	22.46	-42.2	-44.8	17.6	0.00e+00	0	41	0	278921216	55	5022
2026-01-23 22:50:22.76	42.53	22.80	-42.0	-44.6	17.8	0.00e+00	0	41	0	284164096	55	4881
2026-01-23 22:50:25.75	43.03	23.15	-42.2	-44.8	17.6	0.00e+00	0	41	0	289406976	55	4996
2026-01-23 22:50:28.78	43.56	23.50	-42.0	-44.6	17.8	0.00e+00	0	41	0	295698432	55	4875
2026-01-23 22:50:31.74	44.08	23.85	-41.8	-44.3	18.1	0.00e+00	0	41	0	300941312	55	4728
2026-01-23 22:50:35.07	44.68	24.24	-41.7	-44.1	18.2	0.00e+00	0	41	0	307232768	55	4640
2026-01-23 22:50:37.98	45.22	24.59	-41.4	-43.7	18.7	0.00e+00	0	41	0	312475648	54	4702
2026-01-23 22:50:41.26	45.84	24.98	-41.2	-43.6	18.8	0.00e+00	0	41	0	318767104	54	4616
2026-01-23 22:50:44.00	46.37	25.31	-41.1	-43.5	19.0	0.00e+00	0	41	0	324009984	54	4553
2026-01-23 22:50:47.27	47.01	25.70	-41.0	-43.3	19.1	0.00e+00	0	41	0	330301440	53	4707
2026-01-23 22:50:50.22	47.61	26.06	-41.2	-43.5	18.9	0.00e+00	0	41	0	335544320	53	4835
2026-01-23 22:50:53.70	48.33	26.49	-41.3	-43.6	18.8	0.00e+00	0	41	0	341835776	53	4895
2026-01-23 22:50:56.42	48.91	26.82	-41.3	-43.7	18.8	0.00e+00	0	41	0	347078656	53	4928
2026-01-23 22:50:59.70	49.62	27.22	-41.7	-44.2	18.3	0.00e+00	0	41	0	353370112	54	4934
2026-01-23 22:51:02.42	50.22	27.56	-42.0	-44.5	17.9	0.00e+00	0	41	0	358612992	54	5158
2026-01-23 22:51:05.70	50.97	27.96	-41.8	-44.2	18.2	0.00e+00	0	41	0	364904448	54	4968
2026-01-23 22:51:08.41	51.60	28.30	-41.8	-44.3	18.2	0.00e+00	0	41	0	370147328	54	5033
2026-01-23 22:51:11.71	52.38	28.71	-42.4	-45.1	17.4	0.00e+00	0	41	0	376438784	55	5168
2026-01-23 22:51:14.43	53.05	29.04	-42.9	-45.7	16.9	0.00e+00	0	41	0	380633088	56	5241
2026-01-23 22:51:17.70	53.86	29.45	-43.2	-46.0	16.6	0.00e+00	0	41	0	386924544	57	5147
2026-01-23 22:51:20.43	54.55	29.79	-43.5	-46.5	16.2	0.00e+00	0	41	0	392167424	57	5403
2026-01-23 22:51:23.70	55.40	30.19	-43.5	-46.5	16.2	0.00e+00	0	42	0	398458880	57	5407
2026-01-23 22:51:26.42	56.13	30.53	-43.5	-46.5	16.2	0.00e+00	0	42	0	403701760	57	5431
2026-01-23 22:51:29.70	57.02	30.93	-44.6	-48.1	14.6	0.00e+00	0	41	0	409993216	59	5841
2026-01-23 22:51:32.42	57.78	31.26	-45.1	-49.0	13.7	6.80e-06	0	41	0	415236096	60	6083
2026-01-23 22:51:35.64	58.70	31.65	-45.4	-49.5	13.2	1.52e-05	0	41	0	420478976	61	6080
2026-01-23 22:51:38.48	59.52	32.00	-44.8	-48.6	14.1	2.20e-06	0	41	0	425721856	61	5483
2026-01-23 22:51:41.61	60.45	32.37	-45.1	-48.9	13.8	6.10e-06	0	41	0	432013312	61	5690
2026-01-23 22:51:44.45	61.32	32.71	-45.7	-50.0	12.8	7.47e-05	0	41	0	437256192	62	6078
2026-01-23 22:51:47.59	62.29	33.08	-45.2	-49.1	13.7	9.10e-06	0	42	0	443547648	62	5478
2026-01-23 22:51:50.43	63.19	33.41	-44.9	-48.5	14.2	0.00e+00	0	41	0	448790528	61	5458
2026-01-23 22:51:53.56	64.21	33.76	-44.8	-48.4	14.3	0.00e+00	0	41	0	454033408	61	5372
2026-01-23 22:51:56.40	65.15	34.08	-44.7	-48.3	14.5	7.00e-07	0	41	0	459276288	61	5296
2026-01-23 22:51:59.53	66.20	34.43	-44.5	-48.0	14.8	0.00e+00	0	41	0	465567744	61	5133
2026-01-23 22:52:02.42	67.20	34.74	-44.2	-47.4	15.4	0.00e+00	0	42	0	470810624	60	5073
2026-01-23 22:52:05.55	68.29	35.07	-43.6	-46.5	16.1	0.00e+00	0	42	0	477102080	59	4859
2026-01-23 22:52:08.39	69.31	35.37	-43.9	-47.0	15.7	0.00e+00	0	42	0	482344960	59	5124
2026-01-23 22:52:11.52	70.45	35.68	-43.0	-45.7	17.0	0.00e+00	0	41	0	487587840	57	4946
2026-01-23 22:52:14.36	71.50	35.96	-42.2	-44.7	18.0	0.00e+00	0	41	0	493879296	56	4687
2026-01-23 22:52:17.49	72.69	36.26	-42.7	-45.3	17.4	0.00e+00	0	41	0	499122176	56	5011
2026-01-23 22:52:20.41	73.81	36.52	-42.3	-44.8	17.9	0.00e+00	0	41	0	504365056	56	4743
2026-01-23 22:52:23.54	75.03	36.80	-42.3	-44.9	17.8	0.00e+00	0	41	0	510656512	56	4785
2026-01-23 22:52:26.38	76.16	37.04	-43.1	-46.0	16.8	0.00e+00	0	42	0	515899392	56	5410
2026-01-23 22:52:29.51	77.42	37.29	-43.2	-46.0	16.8	0.00e+00	0	42	0	522190848	57	5125
2026-01-23 22:52:32.35	78.58	37.50	-43.0	-45.7	17.0	0.00e+00	0	42	0	527433728	57	4978
2026-01-23 22:52:35.52	79.89	37.73	-42.8	-45.5	17.2	0.00e+00	0	42	0	532676608	57	4837
2026-01-23 22:52:38.42	81.10	37.92	-43.1	-46.0	16.7	0.00e+00	0	42	0	538968064	57	5126
2026-01-23 22:52:41.42	82.38	38.11	-43.9	-47.2	15.6	0.00e+00	0	42	0	544210944	58	5535
2026-01-23 22:52:44.40	83.65	38.28	-43.3	-46.2	16.5	0.00e+00	0	42	0	549453824	58	4980
2026-01-23 22:52:47.39	84.95	38.43	-43.3	-46.3	16.5	0.00e+00	0	42	0	555745280	58	4992
2026-01-23 22:52:50.34	86.24	38.57	-43.9	-47.3	15.4	0.00e+00	0	41	0	560988160	58	5608
2026-01-23 22:52:53.43	87.60	38.70	-43.7	-46.9	15.8	0.00e+00	0	42	0	566231040	58	5360
2026-01-23 22:52:56.27	88.86	38.80	-44.3	-47.8	15.0	0.00e+00	0	42	0	571473920	59	5629
2026-01-23 22:52:59.40	90.26	38.90	-44.4	-47.9	14.8	0.00e+00	0	42	0	577765376	59	5665
2026-01-23 22:53:02.24	91.53	38.97	-44.4	-47.7	15.0	0.00e+00	0	42	0	583008256	59	5577
2026-01-23 22:53:05.48	92.99	39.03	-44.6	-48.2	14.5	0.00e+00	0	42	0	589299712	60	5578
2026-01-23 22:53:08.34	94.28	39.07	-44.5	-48.0	14.7	0.00e+00	0	41	0	594542592	60	5419
2026-01-23 22:53:11.47	95.70	39.09	-44.1	-47.4	15.3	0.00e+00	0	42	0	600834048	60	5088
2026-01-23 22:53:14.32	96.99	39.09	-43.7	-46.8	15.9	0.00e+00	0	42	0	606076928	59	4994
2026-01-23 22:53:17.46	98.41	39.08	-43.0	-45.7	16.9	0.00e+00	0	41	0	611319808	58	4702
2026-01-23 22:53:20.30	99.70	39.05	-43.2	-46.0	16.7	0.00e+00	0	41	0	616562688	57	5136
2026-01-23 22:53:23.42	101.11	39.00	-44.0	-47.1	15.6	0.00e+00	0	41	0	622854144	58	5487
2026-01-23 22:53:26.26	102.38	38.93	-44.0	-47.3	15.4	0.00e+00	0	41	0	628097024	58	5604
2026-01-23 22:53:29.39	103.79	38.85	-44.9	-48.7	14.1	3.00e-06	0	42	0	634388480	60	5912
2026-01-23 22:53:32.26	105.06	38.75	-44.9	-48.7	14.1	1.50e-06	0	42	0	639631360	61	5536
2026-01-23 22:53:35.51	106.50	38.62	-44.2	-47.5	15.3	0.00e+00	0	42	0	645922816	60	5109
2026-01-23 22:53:38.37	107.76	38.49	-44.4	-47.8	14.9	0.00e+00	0	41	0	651165696	60	5335
2026-01-23 22:53:41.68	109.20	38.33	-42.8	-45.5	17.2	0.00e+00	0	42	0	657457152	57	4835
2026-01-23 22:53:44.42	110.38	38.18	-43.2	-46.0	16.7	0.00e+00	0	42	0	662700032	57	5143
2026-01-23 22:53:47.69	111.77	37.98	-41.8	-44.2	18.3	0.00e+00	0	42	0	667942912	55	4697
2026-01-23 22:53:50.52	112.97	37.79	-43.0	-45.7	17.0	0.00e+00	0	42	0	673185792	56	5242
2026-01-23 22:53:53.64	114.27	37.57	-42.3	-44.9	17.8	0.00e+00	0	42	0	679477248	56	4763
2026-01-23 22:53:56.83	115.58	37.33	-42.1	-44.6	18.1	0.00e+00	0	42	0	685768704	56	4630
2026-01-23 22:53:59.82	116.79	37.10	-40.6	-42.8	19.6	0.00e+00	0	42	0	691011584	53	4484
2026-01-23 22:54:02.80	117.98	36.85	-42.0	-44.5	18.0	0.00e+00	0	42	0	696254464	54	5150
2026-01-23 22:54:05.78	119.15	36.59	-40.4	-42.6	19.9	0.00e+00	0	41	0	702545920	52	4615
2026-01-23 22:54:08.79	120.31	36.32	-40.6	-42.8	19.6	0.00e+00	0	42	0	707788800	52	4741
2026-01-23 22:54:11.87	121.48	36.03	-40.4	-42.5	19.9	0.00e+00	0	42	0	714080256	52	4578
2026-01-23 22:54:14.75	122.56	35.75	-41.3	-43.7	18.8	0.00e+00	0	42	0	719323136	53	4929
2026-01-23 22:54:18.09	123.78	35.41	-40.9	-43.2	19.3	0.00e+00	0	42	0	725614592	53	4655
2026-01-23 22:54:20.84	124.77	35.12	-42.5	-45.1	17.4	0.00e+00	0	41	0	730857472	55	5197
2026-01-23 22:54:24.12	125.93	34.78	-42.2	-44.8	17.8	0.00e+00	0	41	0	737148928	55	5016
2026-01-23 22:54:26.84	126.88	34.48	-42.5	-45.1	17.6	0.00e+00	0	42	0	741343232	56	4880
2026-01-23 22:54:30.14	128.00	34.12	-41.8	-44.2	18.3	0.00e+00	0	42	0	747634688	54	4965
2026-01-23 22:54:32.86	128.90	33.81	-43.0	-45.7	16.9	0.00e+00	0	42	0	752877568	56	5273
2026-01-23 22:54:36.24	130.00	33.42	-42.8	-45.6	17.1	0.00e+00	0	42	0	759169024	56	5169
2026-01-23 22:54:38.95	130.87	33.11	-43.8	-47.0	15.7	0.00e+00	0	41	0	764411904	58	5434
2026-01-23 22:54:42.22	131.89	32.72	-42.8	-45.5	17.2	0.00e+00	0	41	0	770703360	57	4836
2026-01-23 22:54:44.98	132.73	32.39	-44.2	-47.7	14.9	0.00e+00	0	42	0	775946240	59	5582
2026-01-23 22:54:48.25	133.71	32.00	-42.4	-45.1	17.6	0.00e+00	0	42	0	782237696	56	4884
2026-01-23 22:54:51.24	134.58	31.64	-44.6	-48.2	14.5	0.00e+00	0	42	0	787480576	59	5881
2026-01-23 22:54:54.22	135.44	31.27	-43.7	-46.7	16.0	0.00e+00	0	42	0	792723456	59	4955
2026-01-23 22:54:57.21	136.27	30.90	-44.2	-47.5	15.2	0.00e+00	0	41	0	799014912	59	5415
2026-01-23 22:55:00.19	137.09	30.54	-43.4	-46.3	16.4	0.00e+00	0	41	0	804257792	58	4990
2026-01-23 22:55:03.18	137.89	30.17	-41.9	-44.4	18.0	0.00e+00	0	42	0	809500672	55	4800
2026-01-23 22:55:06.16	138.67	29.79	-43.6	-46.6	16.0	0.00e+00	0	42	0	815792128	57	5514
2026-01-23 22:55:09.15	139.43	29.42	-42.7	-45.4	17.3	0.00e+00	0	42	0	821035008	57	4770
2026-01-23 22:55:12.15	140.18	29.05	-43.1	-45.9	16.7	0.00e+00	0	41	0	826277888	56	5397
2026-01-23 22:55:15.17	140.92	28.67	-42.8	-45.5	17.1	0.00e+00	0	42	0	832569344	57	4848
2026-01-23 22:55:18.15	141.63	28.30	-41.2	-43.5	18.9	0.00e+00	0	42	0	837812224	54	4585
2026-01-23 22:55:21.54	142.42	27.88	-42.0	-44.6	17.8	0.00e+00	0	42	0	844103680	54	5191
2026-01-23 22:55:24.24	143.04	27.54	-40.5	-42.7	19.6	0.00e+00	0	41	0	849346560	53	4409
2026-01-23 22:55:27.51	143.76	27.14	-39.7	-41.7	20.6	0.00e+00	0	42	0	855638016	50	4686
2026-01-23 22:55:30.23	144.36	26.80	-41.5	-43.9	18.5	0.00e+00	0	41	0	860880896	53	5099
2026-01-23 22:55:33.55	145.06	26.39	-40.9	-43.2	19.1	0.00e+00	0	42	0	867172352	53	4679
2026-01-23 22:55:36.32	145.64	26.05	-40.5	-42.7	19.7	0.00e+00	0	42	0	872415232	52	4681
2026-01-23 22:55:39.72	146.33	25.63	-41.1	-43.4	19.0	0.00e+00	0	42	0	878706688	52	5079
2026-01-23 22:55:42.43	146.87	25.30	-40.6	-42.9	19.4	0.00e+00	0	42	0	883949568	53	4517
2026-01-23 22:55:45.72	147.50	24.90	-39.5	-41.6	20.7	0.00e+00	0	42	0	889192448	51	4357
2026-01-23 22:55:48.41	148.01	24.58	-40.0	-42.2	20.1	0.00e+00	0	42	0	894435328	50	4966
2026-01-23 22:55:51.70	148.63	24.19	-40.4	-42.8	19.6	0.00e+00	0	42	0	900726784	51	4989
2026-01-23 22:55:54.40	149.12	23.87	-40.2	-42.4	20.0	0.00e+00	0	42	0	905969664	51	4783
2026-01-23 22:55:57.67	149.70	23.48	-40.5	-42.8	19.6	0.00e+00	0	42	0	912261120	51	4988
2026-01-23 22:56:00.41	150.17	23.16	-40.7	-43.0	19.3	0.00e+00	0	42	0	917504000	52	4836
2026-01-23 22:56:03.69	150.73	22.78	-40.4	-42.6	19.7	0.00e+00	0	42	0	923795456	52	4629
2026-01-23 22:56:06.47	151.19	22.45	-40.7	-43.0	19.3	0.00e+00	0	42	0	929038336	52	4844
2026-01-23 22:56:10.02	151.77	22.05	-41.0	-43.3	19.0	0.00e+00	0	42	0	935329792	52	5029
2026-01-23 22:56:12.93	152.23	21.71	-40.9	-43.2	19.1	0.00e+00	0	42	0	940572672	52	4951
2026-01-23 22:56:16.21	152.74	21.34	-40.9	-43.2	19.1	0.00e+00	0	42	0	946864128	52	4975
2026-01-23 22:56:18.92	153.15	21.04	-41.7	-44.1	18.2	0.00e+00	0	42	0	952107008	53	5212
2026-01-23 22:56:22.19	153.64	20.68	-41.9	-44.5	17.9	0.00e+00	0	42	0	958398464	54	5117
2026-01-23 22:56:24.98	154.04	20.37	-41.6	-44.1	18.2	0.00e+00	0	42	0	963641344	54	4902
2026-01-23 22:56:28.10	154.49	20.03	-41.3	-43.8	18.5	0.00e+00	0	42	0	968884224	54	4744
2026-01-23 22:56:31.83	155.01	19.62	-41.5	-44.0	18.3	0.00e+00	0	42	0	976224256	54	4818
2026-01-23 22:56:34.55	155.38	19.33	-41.7	-44.2	18.1	0.00e+00	0	42	0	981467136	54	4973
2026-01-23 22:56:37.84	155.82	18.98	-41.7	-44.2	18.1	0.00e+00	0	42	0	987758592	54	4974
2026-01-23 22:56:40.57	156.18	18.69	-41.5	-44.0	18.2	1.91e-04	0	42	0	993001472	54	4850
2026-01-23 22:56:44.12	156.63	18.32	-41.1	-43.5	18.8	0.00e+00	0	42	0	999292928	53	4838
2026-01-23 22:56:46.85	156.98	18.04	-41.3	-43.7	18.5	0.00e+00	0	42	0	1004535808	53	4971
2026-01-23 22:56:50.13	157.38	17.70	-41.5	-44.0	18.3	0.00e+00	0	42	0	1010827264	53	5112
2026-01-23 22:56:52.97	157.72	17.41	-41.6	-44.1	18.1	0.00e+00	0	42	0	1016070144	53	5196
2026-01-23 22:56:56.10	158.09	17.10	-41.7	-44.2	18.0	1.11e-04	0	42	0	1021313024	54	4962
2026-01-23 22:56:58.95	158.42	16.81	-41.4	-43.9	18.3	0.00e+00	0	42	0	1026555904	54	4814
2026-01-23 22:57:02.07	158.78	16.50	-41.7	-44.2	18.0	0.00e+00	0	42	0	1032847360	54	4973
2026-01-23 22:57:04.91	159.10	16.22	-41.9	-44.6	17.7	0.00e+00	0	42	0	1038090240	54	5173
2026-01-23 22:57:08.04	159.44	15.92	-42.3	-45.0	17.2	0.00e+00	0	42	0	1044381696	55	5148
2026-01-23 22:57:10.89	159.75	15.64	-42.3	-45.0	17.3	1.13e-04	0	42	0	1049624576	55	5103
2026-01-23 22:57:14.11	160.09	15.34	-42.0	-44.6	17.6	0.00e+00	0	42	0	1055916032	55	4916
2026-01-23 22:57:16.95	160.38	15.07	-41.8	-44.4	17.8	0.00e+00	0	42	0	1061158912	55	4787
2026-01-23 22:57:20.08	160.70	14.77	-41.6	-44.2	18.0	0.00e+00	0	42	0	1066401792	55	4652
2026-01-23 22:57:23.14	161.01	14.49	-41.7	-44.2	18.0	0.00e+00	0	41	0	1072693248	55	4683
2026-01-23 22:57:26.39	161.33	14.19	-41.7	-44.3	17.9	0.00e+00	0	42	0	1077936128	54	4996
2026-01-23 22:57:29.30	161.61	13.92	-41.8	-44.4	17.8	0.00e+00	0	42	0	1084227584	54	5059
2026-01-23 22:57:32.77	161.93	13.61	-42.0	-44.6	17.5	0.00e+00	0	42	0	1090519040	54	5193
2026-01-23 22:57:35.49	162.19	13.37	-42.1	-44.8	17.3	0.00e+00	0	42	0	1095761920	55	5041
2026-01-23 22:57:38.78	162.49	13.07	-42.3	-45.0	17.1	0.00e+00	0	41	0	1102053376	55	5158
2026-01-23 22:57:41.50	162.73	12.83	-42.3	-45.1	17.0	0.00e+00	0	42	0	1107296256	55	5190
2026-01-23 22:57:44.77	163.02	12.55	-42.4	-45.2	17.0	0.00e+00	0	42	0	1112539136	55	5232
2026-01-23 22:57:47.50	163.26	12.31	-42.4	-45.3	16.9	0.00e+00	0	42	0	1117782016	55	5293
2026-01-23 22:57:50.77	163.53	12.03	-42.5	-45.4	16.7	0.00e+00	0	42	0	1124073472	55	5388
2026-01-23 22:57:53.49	163.76	11.80	-42.6	-45.6	16.5	0.00e+00	0	42	0	1129316352	55	5508
2026-01-23 22:57:56.72	164.03	11.53	-42.9	-46.1	16.2	0.00e+00	0	42	0	1135607808	56	5476
2026-01-23 22:57:59.99	164.29	11.26	-42.9	-46.2	15.8	0.00e+00	0	42	0	1141899264	56	5534
2026-01-23 22:58:02.83	164.52	11.02	-43.1	-46.2	16.0	0.00e+00	0	42	0	1147142144	56	5583
2026-01-23 22:58:05.96	164.76	10.76	-42.9	-46.0	16.2	9.84e-03	0	42	0	1152385024	56	5427
2026-01-23 22:58:08.80	164.98	10.53	-42.7	-45.7	16.5	1.87e-02	0	42	0	1157627904	56	5264
2026-01-23 22:58:11.93	165.22	10.28	-42.6	-45.6	16.6	1.35e-02	0	41	0	1163919360	56	5197
2026-01-23 22:58:14.79	165.44	10.05	-42.5	-45.6	16.6	7.24e-05	0	42	0	1169162240	56	5166
2026-01-23 22:58:18.11	165.68	9.79	-42.2	-45.5	16.7	0.00e+00	0	42	0	1175453696	56	5120
2026-01-23 22:58:20.82	165.88	9.57	-42.2	-45.7	16.5	0.00e+00	0	42	0	1180696576	56	5230
2026-01-23 22:58:24.04	166.11	9.32	-42.2	-46.1	16.1	0.00e+00	0	42	0	1186988032	56	5484
2026-01-23 22:58:26.88	166.30	9.10	-42.5	-46.5	15.7	0.00e+00	0	42	0	1192230912	56	5755
2026-01-23 22:58:30.00	166.52	8.86	-47.8	-63.2	3.8	1.49e+00	0	42	104	1195376640	66	22247
2026-01-23 22:58:32.84	166.71	8.64	-48.6	-63.7	3.8	1.49e+00	0	42	104	1195376640	67	22224
2026-01-23 22:58:35.96	166.92	8.41	-48.6	-64.1	3.8	1.49e+00	0	42	104	1195376640	68	21807
2026-01-23 22:58:38.80	167.11	8.19	-48.9	-64.2	3.8	1.49e+00	0	42	104	1195376640	68	22037
2026-01-23 22:58:41.92	167.32	7.96	-48.9	-64.2	3.8	1.49e+00	0	42	104	1195376640	68	22131
2026-01-23 22:58:44.76	167.50	7.75	-49.1	-64.2	3.8	1.49e+00	0	42	104	1195376640	68	22058
2026-01-23 22:58:47.88	167.70	7.52	-48.9	-64.2	3.8	1.49e+00	0	42	104	1195376640	68	22068
2026-01-23 22:58:50.72	167.87	7.31	-48.7	-64.2	3.8	1.49e+00	0	42	104	1195376640	68	22101
2026-01-23 22:58:53.84	168.06	7.09	-48.9	-64.2	3.8	1.49e+00	0	42	104	1195376640	68	22114
2026-01-23 22:58:56.68	168.24	6.88	-48.8	-64.1	3.8	1.49e+00	0	42	104	1195376640	68	21997
2026-01-23 22:58:59.80	168.42	6.66	-48.8	-64.1	3.8	1.49e+00	0	42	104	1195376640	68	21919
2026-01-23 22:59:02.64	168.59	6.46	-48.8	-64.1	3.8	1.49e+00	0	42	104	1195376640	68	21859
2026-01-23 22:59:05.76	168.77	6.24	-48.8	-64.1	3.8	1.49e+00	0	42	104	1195376640	68	21830
2026-01-23 22:59:08.60	168.94	6.04	-48.8	-64.1	3.8	1.49e+00	0	42	104	1195376640	68	21884
2026-01-23 22:59:11.72	169.11	5.82	-48.8	-64.1	3.8	1.49e+00	0	42	104	1195376640	68	21857
2026-01-23 22:59:14.56	169.27	5.63	-48.8	-64.1	3.8	1.49e+00	0	42	104	1195376640	68	21829
2026-01-23 22:59:17.68	169.44	5.41	-48.8	-64.1	3.8	1.49e+00	0	42	104	1195376640	68	21840
2026-01-23 22:59:20.52	169.60	5.22	-48.8	-64.1	3.8	1.49e+00	0	42	104	1195376640	68	21827
2026-01-23 22:59:23.65	169.77	5.01	-48.8	-64.1	3.8	1.49e+00	0	42	104	1195376640	68	21815

#Closed at: 2026-01-23 22:59:25
#Recorded file [1195 MB]: D:/Data/31040_260124_014700.dat