passes_logs/2026/01/23/T1/T1__20260123_005830_AQUA_rec.log

#Pass ID: 20260123_005830_AQUA
#Satellite: AQUA
#Configuration: AQUA
#almurnet v.1.7.20251203
#Start time: 2026-01-23 00:58:30

#Version: 2.0.20230620
#Station: T1
#Location: 37.570604 lon 55.790049 lat
#TLE: 1 27424U 02022A   26022.49486490  .00002153  00000+0  44069-3 0  9997
#TLE: 2 27424  98.4099 349.0485 0001970  69.5876  43.4746 14.61847233261984

#Time	Az	El	Level	Level2	SNR	BER	BlckErr	Temp	State	Recorded	gain1	gain2
2026-01-23 00:58:30.88	19.66	5.09	-46.9	-70.9	3.8	7.45e-01	0	35	0	0	65	57090
2026-01-23 00:58:33.85	19.76	5.31	-46.9	-70.9	3.8	7.43e-01	0	35	104	0	64	60051
2026-01-23 00:58:36.83	19.86	5.53	-46.9	-70.8	3.8	7.43e-01	0	35	104	0	64	59834
2026-01-23 00:58:39.81	19.95	5.76	-46.9	-70.9	3.8	7.46e-01	0	35	104	0	64	60068
2026-01-23 00:58:42.79	20.05	5.98	-46.9	-70.9	3.8	7.49e-01	0	36	104	0	64	60262
2026-01-23 00:58:45.77	20.15	6.21	-46.9	-70.9	3.8	7.44e-01	0	35	104	0	64	60467
2026-01-23 00:58:48.75	20.26	6.44	-46.9	-70.9	3.8	7.45e-01	0	36	104	0	64	60458
2026-01-23 00:58:51.73	20.36	6.67	-46.9	-70.9	3.8	7.44e-01	0	36	104	0	64	60201
2026-01-23 00:58:54.71	20.47	6.91	-46.9	-70.6	3.8	7.45e-01	0	36	104	0	64	58185
2026-01-23 00:58:57.69	20.57	7.15	-46.8	-70.1	3.8	7.47e-01	0	36	104	0	64	54939
2026-01-23 00:59:00.67	20.68	7.39	-46.8	-69.6	3.8	7.47e-01	0	36	104	0	64	51913
2026-01-23 00:59:03.65	20.79	7.63	-46.8	-69.3	3.8	7.45e-01	0	36	104	0	64	50309
2026-01-23 00:59:06.63	20.91	7.87	-46.8	-69.3	3.8	7.43e-01	0	36	104	0	64	49949
2026-01-23 00:59:09.61	21.02	8.12	-46.8	-69.2	3.8	7.46e-01	0	36	104	0	64	49556
2026-01-23 00:59:12.59	21.14	8.37	-46.7	-68.3	3.8	7.46e-01	0	36	104	0	64	44892
2026-01-23 00:59:15.57	21.25	8.63	-46.5	-66.0	3.8	7.42e-01	0	36	104	0	64	34332
2026-01-23 00:59:18.55	21.37	8.88	-46.0	-63.2	3.8	7.48e-01	0	36	104	0	63	26289
2026-01-23 00:59:21.53	21.50	9.14	-46.3	-62.9	3.8	7.47e-01	0	36	104	0	63	25448
2026-01-23 00:59:24.52	21.62	9.40	-44.8	-59.5	3.9	7.40e-01	0	37	104	0	61	19280
2026-01-23 00:59:27.50	21.75	9.67	-44.1	-57.6	3.8	7.47e-01	0	37	104	0	59	17411
2026-01-23 00:59:30.49	21.88	9.94	-43.6	-47.5	20.3	6.03e-01	0	37	104	0	58	5741
2026-01-23 00:59:33.47	22.01	10.21	-45.6	-50.1	19.4	6.02e-01	0	37	0	5242880	63	5814
2026-01-23 00:59:36.51	22.14	10.49	-44.0	-47.6	22.3	6.02e-01	0	37	0	11010048	59	5504
2026-01-23 00:59:39.41	22.28	10.76	-44.3	-47.8	22.5	6.03e-01	0	37	0	16252928	59	5599
2026-01-23 00:59:42.53	22.42	11.05	-43.8	-46.8	23.2	6.00e-01	0	36	0	22020096	59	5007
2026-01-23 00:59:45.38	22.56	11.33	-43.5	-46.3	23.7	6.02e-01	0	37	0	27262976	59	4727
2026-01-23 00:59:48.52	22.71	11.63	-43.6	-46.3	23.7	6.05e-01	0	37	0	33554432	59	4741
2026-01-23 00:59:51.36	22.85	11.91	-43.6	-46.2	23.8	6.03e-01	0	37	0	38797312	59	4690
2026-01-23 00:59:54.60	23.01	12.23	-43.6	-46.2	23.8	6.02e-01	0	37	0	44564480	59	4705
2026-01-23 00:59:57.44	23.16	12.52	-43.6	-46.2	23.8	6.01e-01	0	37	0	50331648	59	4704
2026-01-23 01:00:00.56	23.32	12.83	-43.5	-46.1	23.9	6.03e-01	0	37	0	56098816	59	4638
2026-01-23 01:00:03.41	23.47	13.13	-43.6	-46.2	23.9	6.02e-01	0	37	0	61341696	59	4696
2026-01-23 01:00:06.54	23.64	13.46	-43.4	-46.0	24.0	6.00e-01	0	37	0	67108864	58	4848
2026-01-23 01:00:09.38	23.80	13.76	-43.2	-45.9	24.1	6.03e-01	0	37	0	72351744	58	4789
2026-01-23 01:00:12.52	23.98	14.10	-43.1	-45.8	24.2	6.02e-01	0	37	0	78118912	58	4708
2026-01-23 01:00:15.36	24.15	14.41	-43.0	-45.7	24.3	6.02e-01	0	37	0	83886080	57	4964
2026-01-23 01:00:18.48	24.33	14.75	-43.0	-45.7	24.3	6.04e-01	0	37	0	89653248	57	4956
2026-01-23 01:00:21.32	24.50	15.07	-43.1	-45.8	24.0	5.99e-01	0	37	0	94896128	57	5022
2026-01-23 01:00:24.61	24.71	15.45	-43.1	-45.7	24.3	6.03e-01	0	37	0	101187584	57	4945
2026-01-23 01:00:27.32	24.88	15.76	-43.2	-45.7	24.3	6.03e-01	0	37	0	105906176	57	4950
2026-01-23 01:00:30.61	25.10	16.15	-43.2	-45.7	24.5	6.00e-01	0	37	0	112197632	57	4943
2026-01-23 01:00:33.59	25.30	16.51	-43.0	-45.6	24.6	6.02e-01	0	37	0	117964800	57	4872
2026-01-23 01:00:36.57	25.50	16.87	-43.0	-45.6	24.5	6.03e-01	0	37	0	123207680	57	4901
2026-01-23 01:00:39.56	25.71	17.24	-42.9	-45.8	24.4	6.00e-01	0	37	0	128974848	57	4995
2026-01-23 01:00:42.54	25.92	17.61	-42.8	-45.7	24.4	6.00e-01	0	37	0	134742016	57	4973
2026-01-23 01:00:45.53	26.14	17.99	-42.7	-45.6	24.5	6.03e-01	0	37	0	140509184	57	4886
2026-01-23 01:00:48.52	26.37	18.38	-42.7	-45.5	24.6	6.00e-01	0	37	0	145752064	57	4824
2026-01-23 01:00:51.50	26.60	18.77	-42.9	-45.7	24.4	6.03e-01	0	37	0	151519232	57	4966
2026-01-23 01:00:54.49	26.84	19.17	-43.0	-45.7	24.4	6.02e-01	0	37	0	157286400	57	4954
2026-01-23 01:00:57.48	27.08	19.58	-42.9	-45.7	24.5	6.00e-01	0	37	0	162529280	57	4930
2026-01-23 01:01:00.40	27.33	19.98	-42.7	-45.4	24.6	6.00e-01	0	37	0	168296448	57	4783
2026-01-23 01:01:03.53	27.60	20.42	-43.0	-45.7	24.4	6.04e-01	0	37	0	174063616	57	4934
2026-01-23 01:01:06.37	27.85	20.83	-43.0	-45.6	24.5	6.00e-01	0	37	0	179306496	57	4893
2026-01-23 01:01:09.49	28.14	21.29	-42.9	-45.4	24.7	6.01e-01	0	37	0	185073664	57	4806
2026-01-23 01:01:12.34	28.40	21.71	-43.0	-45.6	24.6	6.05e-01	0	37	0	190840832	57	4890
2026-01-23 01:01:15.57	28.72	22.20	-43.1	-45.7	24.5	6.02e-01	0	37	0	196608000	57	4931
2026-01-23 01:01:18.42	29.00	22.64	-43.1	-45.7	24.5	6.01e-01	0	37	0	201850880	57	4955
2026-01-23 01:01:21.55	29.32	23.13	-43.2	-45.7	24.5	6.03e-01	0	37	0	207618048	57	4962
2026-01-23 01:01:24.38	29.62	23.58	-43.4	-45.9	24.3	6.04e-01	0	37	0	213385216	57	5085
2026-01-23 01:01:27.51	29.96	24.09	-43.4	-45.8	24.4	6.03e-01	0	37	0	219152384	57	5039
2026-01-23 01:01:30.43	30.29	24.57	-43.3	-45.9	24.3	6.03e-01	0	37	0	224395264	57	5057
2026-01-23 01:01:33.56	30.66	25.10	-43.4	-46.0	24.2	6.00e-01	0	37	0	230162432	57	5123
2026-01-23 01:01:36.40	31.00	25.59	-43.4	-45.9	24.3	6.03e-01	0	37	0	235929600	57	5086
2026-01-23 01:01:39.53	31.39	26.14	-43.0	-45.5	24.7	6.02e-01	0	37	0	241696768	57	4864
2026-01-23 01:01:42.37	31.75	26.65	-43.3	-45.9	24.4	6.00e-01	0	37	0	246939648	57	5043
2026-01-23 01:01:45.50	32.17	27.22	-43.1	-45.5	24.7	6.02e-01	0	37	0	252706816	57	4863
2026-01-23 01:01:48.45	32.57	27.77	-43.3	-45.8	24.4	6.01e-01	0	37	0	258473984	57	5025
2026-01-23 01:01:51.58	33.02	28.36	-42.9	-45.3	24.9	6.02e-01	0	37	0	264241152	57	4731
2026-01-23 01:01:54.43	33.44	28.91	-43.0	-45.4	24.8	6.02e-01	0	37	0	269484032	57	4811
2026-01-23 01:01:57.55	33.92	29.53	-42.9	-45.3	24.9	6.04e-01	0	37	0	275251200	57	4741
2026-01-23 01:02:00.39	34.37	30.10	-43.1	-45.5	24.7	6.04e-01	0	38	0	280494080	57	4857
2026-01-23 01:02:03.52	34.89	30.74	-43.0	-45.5	24.8	6.01e-01	0	37	0	286261248	57	4815
2026-01-23 01:02:06.36	35.38	31.33	-42.9	-45.4	24.8	5.98e-01	0	37	0	292028416	57	4789
2026-01-23 01:02:09.49	35.94	32.00	-42.9	-45.4	24.9	6.01e-01	0	37	0	297795584	57	4798
2026-01-23 01:02:12.33	36.47	32.62	-43.1	-45.6	24.6	6.03e-01	0	37	0	303038464	57	4907
2026-01-23 01:02:15.45	37.07	33.31	-43.3	-45.7	24.5	6.00e-01	0	37	0	308805632	57	4983
2026-01-23 01:02:18.34	37.66	33.96	-43.5	-46.0	24.3	6.02e-01	0	37	0	314572800	57	5132
2026-01-23 01:02:21.47	38.31	34.67	-43.5	-46.1	24.2	6.05e-01	0	38	0	320339968	57	5191
2026-01-23 01:02:24.31	38.94	35.34	-44.0	-46.6	23.8	5.99e-01	0	37	0	325582848	58	5188
2026-01-23 01:02:27.70	39.72	36.15	-44.4	-47.0	23.4	6.02e-01	0	37	0	331874304	59	5146
2026-01-23 01:02:30.40	40.37	36.80	-44.6	-47.3	23.1	6.01e-01	0	37	0	337117184	59	5303
2026-01-23 01:02:33.67	41.19	37.61	-44.6	-47.3	23.1	6.02e-01	0	37	0	342884352	59	5331
2026-01-23 01:02:36.71	42.00	38.37	-44.2	-46.9	23.5	6.02e-01	0	37	0	348651520	60	4762
2026-01-23 01:02:39.84	42.86	39.17	-44.0	-46.6	23.7	6.02e-01	0	37	0	354418688	60	4632
2026-01-23 01:02:42.68	43.69	39.90	-44.1	-46.7	23.7	6.00e-01	0	37	0	360185856	59	4934
2026-01-23 01:02:45.81	44.65	40.72	-43.7	-46.2	24.1	6.02e-01	0	37	0	365953024	59	4694
2026-01-23 01:02:48.65	45.56	41.48	-43.7	-46.2	24.2	6.05e-01	0	37	0	371195904	59	4687
2026-01-23 01:02:52.17	46.75	42.42	-43.2	-45.7	24.6	6.01e-01	0	37	0	377487360	58	4667
2026-01-23 01:02:54.89	47.71	43.16	-43.1	-45.5	24.8	6.03e-01	0	37	0	382730240	58	4551
2026-01-23 01:02:58.25	48.98	44.08	-42.7	-45.0	25.2	6.05e-01	0	37	0	389021696	57	4589
2026-01-23 01:03:00.96	50.05	44.83	-42.4	-44.7	25.5	6.02e-01	0	37	0	394264576	56	4671
2026-01-23 01:03:04.23	51.41	45.74	-42.4	-44.6	25.5	6.03e-01	0	37	0	400556032	56	4635
2026-01-23 01:03:07.15	52.70	46.56	-42.4	-44.6	25.6	6.05e-01	0	37	0	405798912	56	4648
2026-01-23 01:03:10.43	54.22	47.47	-42.4	-44.6	25.5	6.01e-01	0	37	0	412090368	56	4648
2026-01-23 01:03:13.13	55.55	48.23	-42.7	-45.0	25.3	5.99e-01	0	37	0	417333248	56	4831
2026-01-23 01:03:16.40	57.25	49.13	-43.1	-45.5	24.8	6.02e-01	0	37	0	423100416	57	4859
2026-01-23 01:03:19.38	58.88	49.95	-42.5	-44.7	25.5	6.02e-01	0	37	0	428867584	57	4441
2026-01-23 01:03:22.65	60.78	50.84	-42.5	-44.8	25.4	6.02e-01	0	37	0	435159040	57	4466
2026-01-23 01:03:25.38	62.45	51.57	-42.5	-44.8	25.5	6.04e-01	0	37	0	439877632	56	4715
2026-01-23 01:03:28.66	64.57	52.42	-42.5	-44.7	25.5	6.01e-01	0	37	0	446169088	56	4693
2026-01-23 01:03:31.38	66.42	53.11	-42.9	-45.2	25.0	6.05e-01	0	37	0	451411968	56	4970
2026-01-23 01:03:34.74	68.84	53.93	-43.2	-45.5	24.8	6.02e-01	0	38	0	457703424	56	5145
2026-01-23 01:03:37.45	70.88	54.57	-43.3	-45.7	24.6	6.01e-01	0	37	0	462422016	57	4929
2026-01-23 01:03:40.73	73.48	55.30	-43.6	-46.1	24.3	6.03e-01	0	37	0	468713472	57	5176
2026-01-23 01:03:43.46	75.74	55.86	-43.3	-45.8	24.6	6.03e-01	0	37	0	473956352	58	4721
2026-01-23 01:03:46.73	78.57	56.49	-44.0	-46.5	23.8	6.01e-01	0	37	0	480247808	59	4865
2026-01-23 01:03:49.67	81.23	57.00	-44.4	-47.1	23.3	6.00e-01	0	37	0	485490688	59	5176
2026-01-23 01:03:52.66	84.02	57.47	-44.3	-47.0	23.5	6.01e-01	0	38	0	491257856	59	5132
2026-01-23 01:03:55.64	86.90	57.87	-44.2	-46.9	23.5	6.01e-01	0	37	0	497025024	59	5053
2026-01-23 01:03:58.69	89.93	58.21	-44.4	-47.2	23.2	6.04e-01	0	37	0	502267904	59	5250
2026-01-23 01:04:01.61	92.89	58.46	-44.7	-47.5	23.0	6.03e-01	0	37	0	508035072	59	5453
2026-01-23 01:04:05.18	96.58	58.68	-44.4	-47.3	23.1	6.07e-01	0	38	0	514850816	60	5028
2026-01-23 01:04:07.89	99.41	58.77	-44.2	-46.8	23.5	5.99e-01	0	37	0	519569408	60	4710
2026-01-23 01:04:11.16	102.85	58.80	-44.4	-47.1	23.4	6.03e-01	0	37	0	525860864	59	5189
2026-01-23 01:04:13.92	105.75	58.75	-44.5	-47.1	23.4	6.04e-01	0	37	0	531103744	59	5196
2026-01-23 01:04:17.19	109.16	58.61	-44.1	-46.8	23.5	6.02e-01	0	37	0	537395200	60	4736
2026-01-23 01:04:20.10	112.15	58.40	-44.2	-46.8	23.5	6.03e-01	0	37	0	542638080	59	5039
2026-01-23 01:04:23.08	115.16	58.12	-44.1	-46.9	23.6	6.03e-01	0	37	0	548405248	59	5044
2026-01-23 01:04:26.07	118.11	57.77	-44.4	-47.0	23.5	5.99e-01	0	37	0	553648128	59	5118
2026-01-23 01:04:29.05	120.97	57.35	-43.9	-46.3	24.1	6.02e-01	0	37	0	559415296	59	4757
2026-01-23 01:04:32.03	123.73	56.87	-43.5	-46.0	24.4	6.03e-01	0	37	0	565182464	59	4551
2026-01-23 01:04:35.01	126.40	56.34	-43.8	-46.3	24.1	6.00e-01	0	37	0	570425344	59	4716
2026-01-23 01:04:38.00	128.96	55.75	-43.5	-46.0	24.4	6.04e-01	0	37	0	576192512	57	5103
2026-01-23 01:04:40.99	131.42	55.12	-42.9	-45.3	24.9	6.02e-01	0	37	0	581959680	57	4750
2026-01-23 01:04:43.97	133.76	54.45	-43.1	-45.5	24.8	6.01e-01	0	37	0	587202560	57	4828
2026-01-23 01:04:46.96	136.00	53.74	-42.7	-45.1	25.2	6.06e-01	0	37	0	592969728	57	4614
2026-01-23 01:04:49.94	138.12	53.00	-42.8	-45.2	25.0	6.04e-01	0	38	0	598736896	57	4654
2026-01-23 01:04:52.94	140.15	52.23	-43.2	-45.6	24.7	6.01e-01	0	37	0	603979776	57	4891
2026-01-23 01:04:55.98	142.10	51.43	-43.2	-45.6	24.7	6.01e-01	0	37	0	609746944	57	4896
2026-01-23 01:04:58.97	143.92	50.63	-43.5	-45.9	24.5	6.00e-01	0	38	0	615514112	57	5067
2026-01-23 01:05:01.95	145.63	49.82	-43.1	-45.5	24.8	6.02e-01	0	37	0	621281280	58	4550
2026-01-23 01:05:04.93	147.26	48.99	-43.9	-46.4	23.9	6.03e-01	0	37	0	626524160	58	5074
2026-01-23 01:05:07.92	148.80	48.16	-43.7	-46.2	24.2	6.00e-01	0	38	0	632291328	58	4946
2026-01-23 01:05:10.98	150.30	47.30	-43.7	-46.2	24.2	6.04e-01	0	37	0	638058496	58	4942
2026-01-23 01:05:14.00	151.70	46.46	-43.7	-46.2	24.2	6.02e-01	0	38	0	643825664	58	4938
2026-01-23 01:05:16.98	153.01	45.62	-43.6	-46.1	24.2	6.00e-01	0	37	0	649068544	58	4902
2026-01-23 01:05:19.97	154.25	44.79	-43.0	-45.3	25.0	6.03e-01	0	37	0	654835712	58	4464
2026-01-23 01:05:22.96	155.44	43.96	-43.6	-46.0	24.3	6.02e-01	0	38	0	660602880	58	4866
2026-01-23 01:05:25.94	156.55	43.13	-43.5	-46.0	24.4	6.01e-01	0	37	0	665845760	58	4821
2026-01-23 01:05:28.99	157.64	42.30	-43.8	-46.3	24.1	6.03e-01	0	38	0	671612928	58	4988
2026-01-23 01:05:31.97	158.65	41.50	-43.9	-46.5	23.9	6.02e-01	0	38	0	677380096	58	5105
2026-01-23 01:05:34.96	159.61	40.70	-44.0	-46.5	23.9	6.03e-01	0	37	0	683147264	58	5121
2026-01-23 01:05:37.94	160.53	39.91	-44.0	-46.5	23.9	6.00e-01	0	37	0	688390144	59	4848
2026-01-23 01:05:40.92	161.40	39.14	-43.6	-46.1	24.2	6.03e-01	0	37	0	694157312	59	4638
2026-01-23 01:05:44.00	162.25	38.35	-43.9	-46.4	23.9	6.01e-01	0	37	0	699924480	59	4807
2026-01-23 01:05:46.84	163.01	37.63	-43.8	-46.3	24.0	6.01e-01	0	37	0	705167360	59	4758
2026-01-23 01:05:49.97	163.80	36.85	-43.7	-46.3	24.1	6.03e-01	0	38	0	710934528	59	4720
2026-01-23 01:05:52.82	164.49	36.16	-43.1	-45.6	24.7	6.01e-01	0	37	0	716177408	58	4609
2026-01-23 01:05:55.94	165.22	35.41	-42.9	-45.3	24.9	6.00e-01	0	37	0	722468864	57	4713
2026-01-23 01:05:58.88	165.87	34.72	-42.5	-44.8	25.4	6.02e-01	0	38	0	727711744	57	4487
2026-01-23 01:06:02.13	166.56	33.96	-42.5	-44.8	25.3	6.03e-01	0	37	0	734003200	56	4750
2026-01-23 01:06:04.97	167.14	33.32	-42.5	-44.8	25.3	6.00e-01	0	38	0	739246080	56	4744
2026-01-23 01:06:08.10	167.75	32.62	-42.2	-44.4	25.6	6.04e-01	0	37	0	745013248	56	4539
2026-01-23 01:06:11.03	168.30	31.98	-42.2	-44.5	25.6	6.02e-01	0	38	0	750780416	56	4588
2026-01-23 01:06:14.02	168.83	31.34	-42.2	-44.5	25.4	6.04e-01	0	38	0	756023296	56	4553
2026-01-23 01:06:17.00	169.35	30.71	-42.0	-44.3	25.8	6.02e-01	0	38	0	761790464	56	4453
2026-01-23 01:06:19.99	169.85	30.09	-42.2	-44.5	24.3	6.03e-01	0	37	0	767557632	56	4581
2026-01-23 01:06:22.98	170.32	29.49	-42.1	-44.4	25.6	6.03e-01	0	38	0	772800512	56	4500
2026-01-23 01:06:25.96	170.78	28.90	-42.2	-44.5	25.6	6.03e-01	0	37	0	778567680	56	4585
2026-01-23 01:06:28.95	171.23	28.31	-42.2	-44.5	25.6	6.03e-01	0	37	0	784334848	56	4570
2026-01-23 01:06:31.97	171.66	27.74	-42.5	-44.8	25.3	6.03e-01	0	38	0	789577728	56	4719
2026-01-23 01:06:34.95	172.07	27.18	-42.6	-45.0	25.2	6.05e-01	0	37	0	795344896	56	4824
2026-01-23 01:06:37.94	172.47	26.63	-42.8	-45.1	25.0	6.02e-01	0	38	0	801112064	56	4907
2026-01-23 01:06:40.93	172.86	26.09	-42.9	-45.4	24.7	6.03e-01	0	38	0	806879232	56	5054
2026-01-23 01:06:43.95	173.23	25.56	-42.8	-45.2	24.9	5.99e-01	0	38	0	812122112	56	4971
2026-01-23 01:06:47.00	173.60	25.03	-43.0	-45.4	24.7	6.03e-01	0	38	0	817889280	56	5072
2026-01-23 01:06:49.98	173.95	24.52	-43.0	-45.5	24.7	6.02e-01	0	38	0	823656448	56	5139
2026-01-23 01:06:52.96	174.29	24.02	-43.1	-45.5	24.6	6.02e-01	0	37	0	829423616	56	5153
2026-01-23 01:06:55.95	174.61	23.53	-43.1	-45.6	24.5	6.01e-01	0	37	0	834666496	57	4898
2026-01-23 01:06:58.97	174.93	23.05	-43.1	-45.6	24.6	6.03e-01	0	37	0	840433664	57	4877
2026-01-23 01:07:01.95	175.24	22.58	-42.9	-45.4	24.7	6.01e-01	0	38	0	846200832	57	4814
2026-01-23 01:07:04.93	175.54	22.11	-43.0	-45.5	24.6	6.01e-01	0	38	0	851968000	57	4854
2026-01-23 01:07:07.92	175.83	21.66	-42.9	-45.4	24.7	6.00e-01	0	37	0	857210880	57	4782
2026-01-23 01:07:10.90	176.11	21.21	-42.9	-45.4	24.7	6.01e-01	0	37	0	862978048	57	4776
2026-01-23 01:07:13.95	176.38	20.76	-42.8	-45.3	24.8	6.04e-01	0	38	0	868745216	57	4726
2026-01-23 01:07:16.87	176.64	20.34	-42.8	-45.2	24.9	6.02e-01	0	37	0	873988096	57	4685
2026-01-23 01:07:19.86	176.90	19.92	-42.6	-45.1	25.0	6.03e-01	0	38	0	879755264	57	4600
2026-01-23 01:07:22.84	177.15	19.50	-42.6	-45.0	25.0	6.00e-01	0	37	0	885522432	57	4573
2026-01-23 01:07:25.82	177.39	19.09	-42.8	-45.2	24.9	6.01e-01	0	38	0	890765312	57	4701
2026-01-23 01:07:28.84	177.63	18.69	-42.7	-45.2	24.8	6.02e-01	0	37	0	896532480	57	4686
2026-01-23 01:07:32.11	177.89	18.25	-42.8	-45.3	24.7	6.03e-01	0	37	0	902823936	57	4751
2026-01-23 01:07:35.01	178.10	17.88	-42.8	-45.5	24.6	6.01e-01	0	37	0	908066816	57	4820
2026-01-23 01:07:38.29	178.34	17.46	-42.7	-45.3	24.7	6.01e-01	0	37	0	914358272	57	4748
2026-01-23 01:07:41.01	178.54	17.11	-42.8	-45.4	24.7	6.00e-01	0	38	0	919076864	57	4784
2026-01-23 01:07:44.56	178.79	16.67	-42.7	-45.2	24.8	6.01e-01	0	37	0	925892608	57	4674
2026-01-23 01:07:47.26	178.97	16.34	-42.8	-45.3	24.7	6.04e-01	0	38	0	931135488	57	4734
2026-01-23 01:07:50.83	179.20	15.92	-42.8	-45.3	24.7	6.03e-01	0	37	0	937426944	57	4745
2026-01-23 01:07:53.62	179.38	15.59	-42.7	-45.3	24.7	6.01e-01	0	38	0	942669824	57	4739
2026-01-23 01:07:57.37	179.62	15.15	-42.7	-45.3	24.7	6.02e-01	0	38	0	950009856	57	4756
2026-01-23 01:08:00.28	179.80	14.82	-42.7	-45.3	24.7	6.01e-01	0	37	0	955252736	57	4721
2026-01-23 01:08:03.65	180.00	14.44	-42.8	-45.3	24.7	6.01e-01	0	38	0	961544192	57	4750
2026-01-23 01:08:06.79	180.18	14.09	-42.7	-45.2	24.7	6.02e-01	0	38	0	967835648	57	4700
2026-01-23 01:08:09.92	180.36	13.75	-42.7	-45.3	24.6	6.02e-01	0	38	0	973602816	57	4739
2026-01-23 01:08:12.76	180.52	13.45	-42.8	-45.4	24.6	6.03e-01	0	38	0	978845696	57	4791
2026-01-23 01:08:15.98	180.69	13.11	-42.8	-45.5	24.5	6.00e-01	0	38	0	985137152	57	4835
2026-01-23 01:08:18.88	180.85	12.80	-42.7	-45.5	24.4	6.00e-01	0	37	0	990380032	57	4835
2026-01-23 01:08:22.14	181.02	12.47	-42.8	-45.6	24.4	6.00e-01	0	37	0	996671488	57	4875
2026-01-23 01:08:24.98	181.16	12.18	-42.8	-45.7	24.3	6.02e-01	0	37	0	1001914368	57	4945
2026-01-23 01:08:28.11	181.32	11.87	-42.9	-45.7	24.2	6.01e-01	0	37	0	1007681536	57	4941
2026-01-23 01:08:31.15	181.47	11.57	-42.9	-45.7	24.2	6.06e-01	0	38	0	1013448704	57	4966
2026-01-23 01:08:34.03	181.60	11.28	-42.9	-45.6	24.2	6.05e-01	0	37	0	1018691584	57	4903
2026-01-23 01:08:37.22	181.75	10.98	-43.0	-45.8	24.0	6.02e-01	0	38	0	1024458752	57	5023
2026-01-23 01:08:40.34	181.90	10.68	-43.1	-45.8	24.0	6.00e-01	0	37	0	1030750208	57	5041
2026-01-23 01:08:43.20	182.03	10.41	-43.2	-46.0	23.9	6.05e-01	0	38	0	1035993088	57	5107
2026-01-23 01:08:46.33	182.17	10.12	-43.4	-46.2	23.6	6.03e-01	0	38	0	1041760256	57	5224
2026-01-23 01:08:49.24	182.29	9.85	-43.4	-46.1	23.7	6.00e-01	0	38	0	1047527424	57	5209
2026-01-23 01:08:52.51	182.43	9.56	-43.4	-46.2	22.9	6.02e-01	0	38	0	1053294592	57	5234
2026-01-23 01:08:55.26	182.55	9.31	-43.4	-46.2	23.6	6.04e-01	0	37	0	1058537472	57	5231
2026-01-23 01:08:58.53	182.68	9.02	-44.2	-47.3	22.9	6.01e-01	0	37	0	1064828928	58	5612
2026-01-23 01:09:01.22	182.79	8.79	-50.7	-71.3	3.8	7.46e-01	0	38	104	1065353216	71	42330
2026-01-23 01:09:04.60	182.92	8.50	-51.3	-71.6	3.8	7.47e-01	0	38	104	1065353216	73	38732
2026-01-23 01:09:07.36	183.03	8.26	-51.6	-71.6	3.8	7.44e-01	0	38	104	1065353216	73	39122
2026-01-23 01:09:10.75	183.16	7.97	-51.5	-71.7	3.8	7.47e-01	0	38	104	1065353216	74	37043
2026-01-23 01:09:13.52	183.26	7.74	-51.7	-71.7	3.8	7.46e-01	0	38	104	1065353216	74	37105
2026-01-23 01:09:16.84	183.39	7.47	-51.7	-71.7	3.8	7.49e-01	0	38	104	1065353216	74	37194
2026-01-23 01:09:19.56	183.49	7.24	-51.7	-71.7	3.8	7.48e-01	0	38	104	1065353216	74	37123
2026-01-23 01:09:22.84	183.60	6.98	-51.4	-71.7	3.8	7.45e-01	0	38	104	1065353216	73	39343
2026-01-23 01:09:25.55	183.70	6.76	-51.2	-71.7	3.8	7.44e-01	0	38	104	1065353216	73	39400
2026-01-23 01:09:28.82	183.81	6.50	-51.1	-71.7	3.8	7.48e-01	0	38	104	1065353216	73	39137
2026-01-23 01:09:31.53	183.90	6.29	-51.1	-71.7	3.8	7.47e-01	0	38	104	1065353216	73	39138
2026-01-23 01:09:34.81	184.01	6.03	-51.1	-71.6	3.8	7.44e-01	0	38	104	1065353216	73	39107
2026-01-23 01:09:37.51	184.10	5.83	-51.1	-71.6	3.8	7.49e-01	0	38	104	1065353216	73	39070
2026-01-23 01:09:40.78	184.21	5.58	-51.1	-71.6	3.8	7.48e-01	0	38	104	1065353216	73	39108
2026-01-23 01:09:43.50	184.29	5.37	-51.1	-71.6	3.8	7.48e-01	0	38	104	1065353216	73	39102
2026-01-23 01:09:46.77	184.39	5.13	-51.1	-71.6	3.8	7.46e-01	0	38	104	1065353216	73	39051
2026-01-23 01:09:49.49	184.48	4.92	-51.1	-71.6	3.8	7.51e-01	0	38	104	1065353216	73	39106

#Closed at: 2026-01-23 01:09:50
#Recorded file [1065 MB]: D:/Data/31040_260123_035830.dat