passes_logs/2026/01/23/T1/T1__20260123_002529_SUOMI_NPP_rec.log

#Pass ID: 20260123_002529_SUOMI NPP
#Satellite: SUOMI NPP
#Configuration: NPP
#almurnet v.1.7.20251203
#Start time: 2026-01-23 00:25:31

#Version: 2.0.20230620
#Station: T1
#Location: 37.570604 lon 55.790049 lat
#TLE: 1 37849U 11061A   26022.50498765  .00000208  00000+0  11976-3 0  9992
#TLE: 2 37849  98.7820 324.4892 0002275  50.8149 309.3229 14.19528284737775

#Time	Az	El	Level	Level2	SNR	BER	BlckErr	Temp	State	Recorded	gain1	gain2
2026-01-23 00:25:31.12	12.28	5.09	-46.4	-64.3	3.8	1.49e+00	0	35	0	0	64	28254
2026-01-23 00:25:34.09	12.19	5.30	-46.5	-64.3	3.8	1.49e+00	0	35	104	0	63	29994
2026-01-23 00:25:37.07	12.09	5.51	-46.5	-64.3	3.8	1.49e+00	0	36	104	0	63	29764
2026-01-23 00:25:40.05	12.00	5.72	-46.5	-64.3	3.8	1.49e+00	0	36	104	0	63	29939
2026-01-23 00:25:43.03	11.90	5.94	-46.4	-64.3	3.8	1.49e+00	0	36	104	0	63	29952
2026-01-23 00:25:46.01	11.80	6.15	-46.5	-64.3	3.8	1.49e+00	0	36	104	0	63	29723
2026-01-23 00:25:48.99	11.70	6.37	-46.4	-64.0	3.8	1.49e+00	0	36	104	0	63	28693
2026-01-23 00:25:51.97	11.60	6.59	-46.4	-63.2	3.8	1.49e+00	0	36	104	0	63	26366
2026-01-23 00:25:54.95	11.50	6.81	-46.4	-62.4	3.8	1.49e+00	0	36	104	0	63	24098
2026-01-23 00:25:57.93	11.39	7.03	-46.4	-62.2	3.9	1.48e+00	0	36	104	0	63	23378
2026-01-23 00:26:00.91	11.28	7.25	-46.4	-62.9	3.8	1.49e+00	0	36	104	0	63	25321
2026-01-23 00:26:03.89	11.17	7.48	-46.4	-63.9	3.8	1.49e+00	0	36	104	0	63	28437
2026-01-23 00:26:06.87	11.06	7.71	-46.4	-64.2	3.8	1.49e+00	0	37	104	0	63	29599
2026-01-23 00:26:09.85	10.95	7.94	-46.4	-61.7	3.9	1.49e+00	0	36	104	0	63	22201
2026-01-23 00:26:12.83	10.83	8.17	-45.9	-56.1	6.8	2.78e-01	0	37	0	4194304	63	11661
2026-01-23 00:26:15.81	10.71	8.41	-45.1	-52.0	11.0	2.96e-03	0	37	0	9437184	62	7682
2026-01-23 00:26:18.79	10.59	8.64	-44.2	-49.5	13.5	6.10e-06	0	37	0	14680064	60	6494
2026-01-23 00:26:21.77	10.47	8.88	-44.1	-48.9	14.1	7.00e-07	0	37	0	20971520	59	6406
2026-01-23 00:26:24.75	10.35	9.12	-44.6	-50.3	12.8	1.90e-05	0	37	0	26214400	60	7120
2026-01-23 00:26:28.04	10.21	9.39	-41.8	-45.5	17.4	0.00e+00	0	37	0	32505856	55	5434
2026-01-23 00:26:30.78	10.09	9.61	-41.7	-45.2	17.6	0.00e+00	0	37	0	37748736	55	5267
2026-01-23 00:26:34.07	9.94	9.89	-41.6	-45.1	17.7	0.00e+00	0	37	0	44040192	54	5520
2026-01-23 00:26:36.88	9.82	10.12	-41.7	-45.2	17.7	0.00e+00	0	37	0	49283072	54	5542
2026-01-23 00:26:40.25	9.66	10.41	-41.6	-45.0	17.9	0.00e+00	0	37	0	55574528	54	5440
2026-01-23 00:26:42.97	9.54	10.64	-41.6	-45.1	17.8	0.00e+00	0	37	0	59768832	54	5495
2026-01-23 00:26:46.25	9.38	10.92	-41.7	-45.1	17.8	0.00e+00	0	37	0	66060288	54	5492
2026-01-23 00:26:48.98	9.25	11.16	-41.6	-44.9	18.0	0.00e+00	0	37	0	71303168	54	5367
2026-01-23 00:26:52.29	9.08	11.45	-41.6	-44.8	18.2	0.00e+00	0	37	0	77594624	54	5281
2026-01-23 00:26:55.13	8.94	11.70	-41.7	-44.7	18.3	0.00e+00	0	37	0	82837504	54	5241
2026-01-23 00:26:58.26	8.78	11.99	-41.2	-44.1	18.8	0.00e+00	0	37	0	89128960	54	4881
2026-01-23 00:27:01.10	8.63	12.24	-41.3	-44.1	18.8	0.00e+00	0	37	0	94371840	54	4910
2026-01-23 00:27:04.29	8.46	12.54	-41.3	-44.1	18.8	0.00e+00	0	37	0	100663296	54	4906
2026-01-23 00:27:07.14	8.31	12.80	-41.3	-44.0	18.9	0.00e+00	0	37	0	105906176	54	4846
2026-01-23 00:27:10.26	8.13	13.09	-41.3	-44.0	19.0	0.00e+00	0	37	0	111149056	54	4821
2026-01-23 00:27:13.10	7.97	13.36	-41.3	-44.0	18.9	0.00e+00	0	37	0	116391936	54	4826
2026-01-23 00:27:16.37	7.78	13.67	-41.4	-44.0	18.9	0.00e+00	0	37	0	122683392	54	4836
2026-01-23 00:27:19.34	7.60	13.96	-41.6	-44.2	18.7	0.00e+00	0	37	0	128974848	54	4972
2026-01-23 00:27:22.32	7.42	14.25	-41.4	-43.9	19.0	0.00e+00	0	37	0	134217728	54	4807
2026-01-23 00:27:25.31	7.24	14.55	-41.3	-43.7	19.2	0.00e+00	0	37	0	139460608	54	4702
2026-01-23 00:27:28.29	7.05	14.85	-41.4	-43.9	19.1	0.00e+00	0	37	0	145752064	54	4780
2026-01-23 00:27:31.35	6.85	15.16	-41.4	-43.9	19.1	0.00e+00	0	37	0	150994944	54	4771
2026-01-23 00:27:34.34	6.65	15.46	-41.4	-43.8	19.1	0.00e+00	0	37	0	156237824	54	4738
2026-01-23 00:27:37.33	6.45	15.77	-41.4	-43.8	19.1	0.00e+00	0	37	0	162529280	54	4759
2026-01-23 00:27:40.31	6.25	16.09	-41.5	-43.9	19.1	0.00e+00	0	37	0	167772160	54	4784
2026-01-23 00:27:43.35	6.03	16.41	-41.4	-43.8	19.2	0.00e+00	0	38	0	173015040	54	4757
2026-01-23 00:27:46.32	5.82	16.73	-41.5	-43.8	19.2	0.00e+00	0	37	0	179306496	54	4738
2026-01-23 00:27:49.62	5.57	17.09	-41.5	-43.9	19.2	0.00e+00	0	38	0	185597952	54	4776
2026-01-23 00:27:52.36	5.37	17.39	-41.4	-43.8	19.3	0.00e+00	0	38	0	190840832	54	4707
2026-01-23 00:27:55.61	5.12	17.75	-41.7	-44.1	19.0	0.00e+00	0	38	0	196083712	54	4886
2026-01-23 00:27:58.45	4.89	18.07	-41.6	-44.0	19.1	0.00e+00	0	37	0	201326592	54	4833
2026-01-23 00:28:01.58	4.64	18.42	-41.7	-44.1	19.0	0.00e+00	0	37	0	207618048	54	4876
2026-01-23 00:28:04.42	4.40	18.75	-41.6	-44.0	19.1	0.00e+00	0	38	0	212860928	54	4817
2026-01-23 00:28:07.55	4.14	19.12	-41.5	-43.9	19.1	0.00e+00	0	37	0	219152384	54	4806
2026-01-23 00:28:10.39	3.89	19.45	-41.7	-44.1	19.0	0.00e+00	0	37	0	224395264	54	4916
2026-01-23 00:28:13.51	3.61	19.83	-41.8	-44.2	18.9	0.00e+00	0	37	0	229638144	54	4975
2026-01-23 00:28:16.36	3.35	20.17	-42.1	-44.6	18.6	0.00e+00	0	37	0	234881024	55	4872
2026-01-23 00:28:19.48	3.06	20.56	-42.4	-44.9	18.3	0.00e+00	0	37	0	241172480	55	5059
2026-01-23 00:28:22.40	2.78	20.92	-42.8	-45.4	18.0	0.00e+00	0	37	0	246415360	56	5053
2026-01-23 00:28:25.39	2.48	21.30	-43.0	-45.7	17.7	0.00e+00	0	38	0	252706816	56	5226
2026-01-23 00:28:28.37	2.18	21.68	-43.0	-45.6	17.7	0.00e+00	0	38	0	257949696	56	5190
2026-01-23 00:28:31.35	1.87	22.06	-42.9	-45.6	17.8	0.00e+00	0	38	0	263192576	57	4879
2026-01-23 00:28:34.38	1.55	22.46	-42.9	-45.6	17.8	0.00e+00	0	38	0	269484032	57	4910
2026-01-23 00:28:37.37	1.23	22.86	-42.6	-45.2	18.2	0.00e+00	0	37	0	274726912	56	4938
2026-01-23 00:28:40.49	0.88	23.28	-42.7	-45.3	18.0	0.00e+00	0	37	0	281018368	56	5020
2026-01-23 00:28:43.33	0.55	23.66	-43.2	-45.8	17.6	0.00e+00	0	38	0	286261248	57	5038
2026-01-23 00:28:46.46	0.18	24.10	-43.6	-46.5	17.0	0.00e+00	0	38	0	291504128	58	5101
2026-01-23 00:28:49.30	359.83	24.49	-43.5	-46.3	17.1	0.00e+00	0	38	0	296747008	58	5010
2026-01-23 00:28:52.58	359.42	24.96	-43.2	-45.9	17.6	0.00e+00	0	38	0	303038464	58	4775
2026-01-23 00:28:55.28	359.08	25.34	-43.1	-45.7	17.7	0.00e+00	0	38	0	308281344	57	4968
2026-01-23 00:28:58.91	358.60	25.87	-43.2	-45.8	17.7	0.00e+00	0	38	0	315621376	57	4998
2026-01-23 00:29:01.63	358.22	26.27	-43.7	-46.5	17.1	0.00e+00	0	37	0	319815680	58	5110
2026-01-23 00:29:05.07	357.74	26.79	-43.7	-46.4	17.1	0.00e+00	0	38	0	327155712	58	5071
2026-01-23 00:29:07.85	357.34	27.21	-43.3	-45.9	17.6	0.00e+00	0	38	0	332398592	58	4779
2026-01-23 00:29:11.12	356.85	27.71	-43.0	-45.5	18.0	0.00e+00	0	38	0	337641472	57	4856
2026-01-23 00:29:13.87	356.43	28.14	-43.0	-45.5	17.9	0.00e+00	0	38	0	342884352	57	4851
2026-01-23 00:29:17.18	355.90	28.66	-43.7	-46.4	17.1	0.00e+00	0	38	0	349175808	58	5096
2026-01-23 00:29:20.06	355.43	29.11	-43.4	-46.0	17.5	0.00e+00	0	38	0	354418688	58	4852
2026-01-23 00:29:23.49	354.85	29.67	-43.4	-46.2	17.4	0.00e+00	0	38	0	361758720	58	4927
2026-01-23 00:29:26.19	354.38	30.11	-43.9	-46.8	16.7	0.00e+00	0	38	0	365953024	58	5314
2026-01-23 00:29:29.41	353.81	30.64	-44.4	-47.4	16.2	0.00e+00	0	38	0	372244480	59	5353
2026-01-23 00:29:32.25	353.28	31.11	-44.2	-47.2	16.4	0.00e+00	0	38	0	377487360	59	5245
2026-01-23 00:29:35.39	352.68	31.64	-44.6	-47.8	15.8	0.00e+00	0	38	0	383778816	60	5327
2026-01-23 00:29:38.29	352.11	32.14	-45.4	-49.1	14.6	7.00e-07	0	37	0	389021696	61	5807
2026-01-23 00:29:41.48	351.46	32.69	-44.7	-48.0	15.7	0.00e+00	0	38	0	395313152	61	5114
2026-01-23 00:29:44.81	350.75	33.27	-45.0	-48.6	15.0	0.00e+00	0	38	0	401604608	61	5510
2026-01-23 00:29:47.65	350.13	33.77	-45.4	-49.3	14.3	7.00e-07	0	38	0	406847488	62	5641
2026-01-23 00:29:50.78	349.42	34.32	-44.7	-48.1	15.6	0.00e+00	0	37	0	412090368	61	5173
2026-01-23 00:29:53.62	348.76	34.83	-44.7	-47.9	15.8	0.00e+00	0	38	0	417333248	60	5377
2026-01-23 00:29:56.75	348.01	35.40	-44.5	-47.6	16.0	0.00e+00	0	38	0	423624704	60	5191
2026-01-23 00:29:59.80	347.24	35.95	-44.7	-47.9	15.8	0.00e+00	0	38	0	428867584	60	5350
2026-01-23 00:30:02.78	346.47	36.49	-44.7	-47.9	15.8	0.00e+00	0	38	0	435159040	60	5379
2026-01-23 00:30:05.77	345.67	37.04	-44.2	-47.4	16.3	0.00e+00	0	38	0	440401920	60	5045
2026-01-23 00:30:08.75	344.85	37.59	-44.8	-48.3	15.4	0.00e+00	0	38	0	445644800	60	5635
2026-01-23 00:30:11.74	343.99	38.15	-44.5	-47.5	16.1	0.00e+00	0	38	0	451936256	60	5156
2026-01-23 00:30:14.84	343.07	38.72	-44.6	-47.6	16.1	0.00e+00	0	38	0	457179136	60	5182
2026-01-23 00:30:17.97	342.11	39.31	-44.9	-48.1	15.7	0.00e+00	0	38	0	463470592	61	5179
2026-01-23 00:30:20.81	341.20	39.84	-43.5	-46.2	17.4	0.00e+00	0	38	0	468713472	59	4655
2026-01-23 00:30:23.94	340.17	40.42	-43.6	-46.4	17.2	0.00e+00	0	38	0	475004928	58	5066
2026-01-23 00:30:26.79	339.20	40.95	-44.2	-47.2	16.5	0.00e+00	0	38	0	480247808	59	5234
2026-01-23 00:30:30.13	338.01	41.57	-45.2	-48.7	15.0	7.00e-07	0	38	0	486539264	61	5565
2026-01-23 00:30:32.86	337.01	42.07	-44.4	-47.5	16.3	0.00e+00	0	38	0	491782144	60	5113
2026-01-23 00:30:36.14	335.77	42.67	-44.4	-47.5	16.1	0.00e+00	0	38	0	497025024	59	5433
2026-01-23 00:30:38.92	334.68	43.17	-45.5	-49.4	14.3	0.00e+00	0	38	0	502267904	61	6038
2026-01-23 00:30:42.16	333.36	43.75	-45.9	-49.9	13.7	2.20e-06	0	38	0	508559360	62	6051
2026-01-23 00:30:45.00	332.17	44.25	-46.3	-50.5	13.3	2.13e-05	0	38	0	513802240	63	6063
2026-01-23 00:30:48.34	330.72	44.83	-45.1	-48.7	14.9	0.00e+00	0	38	0	520093696	61	5583
2026-01-23 00:30:51.57	329.26	45.37	-44.2	-47.4	16.3	0.00e+00	0	38	0	526385152	60	5043
2026-01-23 00:30:54.42	327.94	45.84	-43.1	-45.6	18.0	0.00e+00	0	38	0	531628032	57	4879
2026-01-23 00:30:57.54	326.44	46.35	-44.5	-47.6	16.1	0.00e+00	0	38	0	537919488	59	5491
2026-01-23 00:31:00.39	325.03	46.79	-42.6	-45.0	18.4	0.00e+00	0	38	0	543162368	57	4582
2026-01-23 00:31:03.61	323.39	47.27	-42.9	-45.4	18.1	0.00e+00	0	38	0	548405248	56	5086
2026-01-23 00:31:06.45	321.90	47.68	-44.3	-47.3	16.4	0.00e+00	0	38	0	554696704	59	5310
2026-01-23 00:31:09.58	320.21	48.11	-43.9	-46.7	17.0	0.00e+00	0	38	0	559939584	59	4960
2026-01-23 00:31:12.42	318.64	48.48	-45.1	-48.7	14.9	1.50e-06	0	38	0	565182464	62	5245
2026-01-23 00:31:15.55	316.86	48.86	-43.7	-46.4	17.2	0.00e+00	0	38	0	571473920	58	5080
2026-01-23 00:31:18.39	315.21	49.18	-43.4	-45.9	17.7	0.00e+00	0	38	0	576716800	58	4806
2026-01-23 00:31:21.63	313.29	49.52	-46.4	-50.7	13.0	7.40e-05	0	38	0	583008256	64	5865
2026-01-23 00:31:24.47	311.57	49.79	-45.3	-48.8	15.0	0.00e+00	0	38	0	588251136	62	5280
2026-01-23 00:31:27.60	309.65	50.06	-43.6	-46.3	17.3	0.00e+00	0	38	0	593494016	59	4731
2026-01-23 00:31:30.44	307.87	50.27	-44.8	-48.0	15.9	0.00e+00	0	38	0	599785472	60	5436
2026-01-23 00:31:33.56	305.89	50.48	-44.5	-47.6	16.1	0.00e+00	0	38	0	605028352	61	4899
2026-01-23 00:31:36.40	304.06	50.63	-43.6	-46.3	17.4	0.00e+00	0	38	0	610271232	59	4709
2026-01-23 00:31:39.59	301.99	50.76	-41.7	-44.0	19.3	0.00e+00	0	38	0	616562688	55	4554
2026-01-23 00:31:42.43	300.14	50.85	-42.5	-44.9	18.5	0.00e+00	0	38	0	621805568	55	5059
2026-01-23 00:31:45.56	298.08	50.91	-40.8	-42.9	20.3	0.00e+00	0	38	0	628097024	52	4783
2026-01-23 00:31:48.40	296.22	50.93	-41.5	-43.7	19.6	0.00e+00	0	38	0	633339904	55	4428
2026-01-23 00:31:51.53	294.15	50.91	-42.7	-45.2	18.5	0.00e+00	0	38	0	638582784	56	4936
2026-01-23 00:31:54.37	292.29	50.86	-42.2	-44.5	19.0	0.00e+00	0	38	0	643825664	56	4583
2026-01-23 00:31:57.61	290.17	50.77	-42.6	-44.9	18.7	0.00e+00	0	38	0	650117120	56	4802
2026-01-23 00:32:00.45	288.33	50.65	-42.2	-44.6	18.8	0.00e+00	0	38	0	655360000	55	4903
2026-01-23 00:32:03.58	286.31	50.49	-42.4	-44.8	18.7	0.00e+00	0	38	0	661651456	56	4716
2026-01-23 00:32:06.42	284.50	50.31	-42.9	-45.4	18.2	0.00e+00	0	38	0	666894336	56	5051
2026-01-23 00:32:09.55	282.54	50.08	-42.4	-44.7	18.9	0.00e+00	0	38	0	672137216	56	4684
2026-01-23 00:32:12.39	280.78	49.84	-43.0	-45.6	18.0	0.00e+00	0	38	0	678428672	56	5202
2026-01-23 00:32:15.59	278.84	49.54	-43.6	-46.3	17.3	0.00e+00	0	38	0	683671552	58	5026
2026-01-23 00:32:18.43	277.15	49.24	-43.1	-45.6	18.0	0.00e+00	0	38	0	688914432	58	4646
2026-01-23 00:32:21.56	275.33	48.89	-43.8	-46.5	17.2	0.00e+00	0	38	0	695205888	58	5134
2026-01-23 00:32:24.40	273.71	48.54	-43.9	-46.6	17.0	0.00e+00	0	38	0	700448768	59	4917
2026-01-23 00:32:27.53	271.97	48.14	-44.7	-47.8	16.0	0.00e+00	0	38	0	706740224	60	5337
2026-01-23 00:32:30.37	270.43	47.75	-43.8	-46.6	17.1	0.00e+00	0	38	0	711983104	59	4879
2026-01-23 00:32:33.60	268.72	47.29	-43.8	-46.5	17.1	0.00e+00	0	38	0	717225984	59	4854
2026-01-23 00:32:36.51	267.23	46.85	-44.5	-47.6	16.0	0.00e+00	0	38	0	723517440	59	5499
2026-01-23 00:32:39.63	265.68	46.37	-44.0	-46.8	16.9	0.00e+00	0	38	0	728760320	59	4991
2026-01-23 00:32:42.62	264.24	45.89	-43.6	-46.3	17.4	0.00e+00	0	38	0	735051776	58	5034
2026-01-23 00:32:45.77	262.77	45.37	-44.0	-46.9	16.7	0.00e+00	0	38	0	740294656	58	5370
2026-01-23 00:32:48.61	261.48	44.89	-44.9	-48.0	15.7	0.00e+00	0	38	0	745537536	61	5143
2026-01-23 00:32:51.74	260.11	44.35	-44.5	-47.5	16.2	0.00e+00	0	38	0	751828992	59	5460
2026-01-23 00:32:54.93	258.76	43.78	-43.7	-46.3	17.4	0.00e+00	0	38	0	758120448	59	4736
2026-01-23 00:32:57.77	257.59	43.28	-42.7	-45.1	18.5	0.00e+00	0	38	0	763363328	57	4611
2026-01-23 00:33:00.89	256.36	42.71	-41.7	-43.9	19.3	0.00e+00	0	38	0	768606208	55	4517
2026-01-23 00:33:03.73	255.27	42.19	-42.5	-44.9	18.4	0.00e+00	0	38	0	773849088	55	5075
2026-01-23 00:33:07.05	254.05	41.58	-43.0	-45.4	18.2	0.00e+00	0	38	0	780140544	56	5100
2026-01-23 00:33:09.78	253.07	41.07	-44.9	-48.0	15.8	0.00e+00	0	38	0	785383424	60	5449
2026-01-23 00:33:13.04	251.95	40.47	-45.4	-48.9	14.9	2.20e-06	0	38	0	791674880	62	5385
2026-01-23 00:33:15.78	251.04	39.95	-44.2	-47.0	16.7	0.00e+00	0	38	0	796917760	60	4862
2026-01-23 00:33:19.06	249.98	39.34	-43.9	-46.6	17.1	0.00e+00	0	38	0	803209216	59	4905
2026-01-23 00:33:21.79	249.13	38.83	-44.9	-48.1	15.7	0.00e+00	0	38	0	808452096	60	5466
2026-01-23 00:33:25.15	248.13	38.20	-44.1	-46.9	16.9	0.00e+00	0	38	0	814743552	59	5069
2026-01-23 00:33:27.94	247.32	37.68	-44.4	-47.4	16.2	0.00e+00	0	38	0	819986432	59	5370
2026-01-23 00:33:31.26	246.39	37.07	-45.7	-49.3	14.5	7.00e-07	0	38	0	826277888	62	5637
2026-01-23 00:33:34.24	245.59	36.52	-46.6	-50.9	12.8	2.36e-05	0	38	0	831520768	63	6405
2026-01-23 00:33:37.23	244.81	35.97	-46.1	-50.1	13.5	1.53e-04	0	38	0	836763648	64	5521
2026-01-23 00:33:40.21	244.06	35.42	-44.5	-47.6	16.1	0.00e+00	0	38	0	843055104	61	4878
2026-01-23 00:33:43.20	243.33	34.88	-44.0	-46.8	17.0	0.00e+00	0	38	0	848297984	59	4990
2026-01-23 00:33:46.61	242.53	34.27	-43.8	-46.4	17.2	0.00e+00	0	38	0	854589440	59	4814
2026-01-23 00:33:49.55	241.86	33.75	-44.0	-46.7	16.9	0.00e+00	0	38	0	859832320	59	4975
2026-01-23 00:33:52.85	241.14	33.16	-45.6	-49.0	14.8	7.00e-07	0	38	0	866123776	62	5452
2026-01-23 00:33:55.58	240.56	32.69	-45.1	-48.2	15.5	0.00e+00	0	38	0	871366656	61	5275
2026-01-23 00:33:59.18	239.82	32.06	-44.6	-47.5	16.1	0.00e+00	0	38	0	877658112	61	4868
2026-01-23 00:34:02.08	239.25	31.57	-44.2	-47.0	16.7	0.00e+00	0	38	0	883949568	59	5112
2026-01-23 00:34:05.36	238.62	31.01	-46.4	-50.6	13.1	8.30e-06	0	37	0	889192448	63	6178
2026-01-23 00:34:08.09	238.11	30.55	-45.5	-49.0	14.6	3.81e-05	0	38	0	894435328	63	5140
2026-01-23 00:34:11.43	237.51	30.00	-43.6	-46.3	17.3	0.00e+00	0	38	0	900726784	59	4708
2026-01-23 00:34:14.14	237.04	29.56	-43.2	-45.7	17.8	0.00e+00	0	38	0	905969664	58	4699
2026-01-23 00:34:17.42	236.48	29.03	-44.8	-48.1	15.6	0.00e+00	0	38	0	912261120	60	5495
2026-01-23 00:34:20.14	236.04	28.59	-45.3	-48.8	14.9	0.00e+00	0	38	0	917504000	61	5643
2026-01-23 00:34:23.43	235.51	28.07	-43.5	-46.2	17.5	0.00e+00	0	38	0	923795456	59	4656
2026-01-23 00:34:26.14	235.09	27.65	-43.4	-46.0	17.6	0.00e+00	0	38	0	929038336	58	4850
2026-01-23 00:34:29.44	234.60	27.14	-43.7	-46.4	17.2	0.00e+00	0	38	0	935329792	58	5047
2026-01-23 00:34:32.23	234.19	26.72	-43.2	-45.7	17.8	0.00e+00	0	38	0	940572672	58	4704
2026-01-23 00:34:35.66	233.71	26.20	-43.0	-45.4	18.1	0.00e+00	0	38	0	946864128	57	4813
2026-01-23 00:34:38.69	233.29	25.76	-43.8	-46.5	17.1	0.00e+00	0	37	0	952107008	58	5138
2026-01-23 00:34:42.56	232.78	25.19	-44.7	-47.9	15.8	0.00e+00	0	38	0	959447040	60	5361
2026-01-23 00:34:45.40	232.41	24.78	-44.0	-46.9	16.8	0.00e+00	0	38	0	964689920	60	4760
2026-01-23 00:34:49.47	231.90	24.21	-43.9	-46.6	16.9	0.00e+00	0	38	0	972029952	59	4925
2026-01-23 00:34:52.46	231.54	23.79	-43.5	-46.2	17.3	0.00e+00	0	38	0	978321408	59	4671
2026-01-23 00:34:55.98	231.13	23.31	-43.4	-46.1	17.4	0.00e+00	0	38	0	984612864	58	4894
2026-01-23 00:34:58.70	230.82	22.94	-43.9	-46.8	16.7	0.00e+00	0	38	0	989855744	58	5304
2026-01-23 00:35:01.97	230.46	22.50	-43.7	-46.5	17.0	0.00e+00	0	38	0	996147200	58	5111
2026-01-23 00:35:04.76	230.16	22.13	-43.4	-46.0	17.4	0.00e+00	0	38	0	1001390080	58	4854
2026-01-23 00:35:08.15	229.80	21.69	-44.2	-47.1	16.4	0.00e+00	0	38	0	1007681536	59	5182
2026-01-23 00:35:10.87	229.52	21.34	-45.1	-48.4	15.2	0.00e+00	0	38	0	1012924416	60	5701
2026-01-23 00:35:14.24	229.18	20.91	-45.1	-48.6	15.2	0.00e+00	0	38	0	1019215872	61	5472
2026-01-23 00:35:16.97	228.92	20.57	-44.6	-47.8	15.7	0.00e+00	0	38	0	1024458752	60	5313
2026-01-23 00:35:20.25	228.61	20.17	-44.4	-47.4	16.1	0.00e+00	0	38	0	1029701632	60	5083
2026-01-23 00:35:22.98	228.35	19.83	-44.4	-47.4	16.1	0.00e+00	0	38	0	1034944512	60	5081
2026-01-23 00:35:26.27	228.06	19.44	-44.3	-47.3	16.2	0.00e+00	0	38	0	1041235968	60	5015
2026-01-23 00:35:29.31	227.79	19.07	-44.2	-47.2	16.3	0.00e+00	0	38	0	1047527424	60	4934
2026-01-23 00:35:32.30	227.53	18.72	-44.2	-47.1	16.4	0.00e+00	0	38	0	1052770304	60	4921
2026-01-23 00:35:35.28	227.28	18.38	-44.0	-46.9	16.6	0.00e+00	0	38	0	1058013184	60	4767
2026-01-23 00:35:38.29	227.03	18.03	-44.1	-47.0	16.4	0.00e+00	0	38	0	1064304640	59	5158
2026-01-23 00:35:41.28	226.79	17.69	-44.0	-46.9	16.5	0.00e+00	0	38	0	1069547520	59	5090
2026-01-23 00:35:44.26	226.56	17.36	-44.2	-47.2	16.3	0.00e+00	0	38	0	1074790400	59	5229
2026-01-23 00:35:47.25	226.33	17.03	-44.3	-47.3	16.1	0.00e+00	0	38	0	1081081856	59	5327
2026-01-23 00:35:50.23	226.11	16.70	-44.1	-46.9	16.5	0.00e+00	0	38	0	1086324736	59	5086
2026-01-23 00:35:53.22	225.89	16.38	-43.6	-46.3	17.1	0.00e+00	0	38	0	1091567616	59	4722
2026-01-23 00:35:56.25	225.67	16.06	-43.3	-46.0	17.4	0.00e+00	0	38	0	1097859072	58	4820
2026-01-23 00:35:59.23	225.46	15.74	-43.3	-45.9	17.5	0.00e+00	0	38	0	1103101952	58	4789
2026-01-23 00:36:02.33	225.25	15.42	-43.4	-46.0	17.3	0.00e+00	0	38	0	1109393408	58	4855
2026-01-23 00:36:05.45	225.04	15.10	-43.6	-46.3	17.0	0.00e+00	0	38	0	1114636288	58	5017
2026-01-23 00:36:08.30	224.85	14.81	-44.0	-46.8	16.6	0.00e+00	0	38	0	1119879168	58	5334
2026-01-23 00:36:11.42	224.65	14.50	-44.3	-47.3	16.0	0.00e+00	0	38	0	1126170624	59	5335
2026-01-23 00:36:14.26	224.47	14.21	-44.3	-47.3	16.0	0.00e+00	0	38	0	1131413504	59	5335
2026-01-23 00:36:17.50	224.27	13.89	-44.3	-47.3	16.0	0.00e+00	0	38	0	1137704960	59	5325
2026-01-23 00:36:20.42	224.09	13.61	-44.4	-47.5	15.9	0.00e+00	0	38	0	1142947840	59	5412
2026-01-23 00:36:23.54	223.91	13.31	-44.5	-47.5	15.7	0.00e+00	0	38	0	1149239296	59	5442
2026-01-23 00:36:26.38	223.74	13.04	-44.3	-47.3	15.9	0.00e+00	0	38	0	1154482176	59	5329
2026-01-23 00:36:29.51	223.57	12.75	-44.4	-47.5	15.8	0.00e+00	0	38	0	1159725056	59	5423
2026-01-23 00:36:32.36	223.41	12.48	-44.6	-47.7	15.5	0.00e+00	0	38	0	1164967936	59	5556
2026-01-23 00:36:35.49	223.23	12.19	-44.5	-47.7	15.6	0.00e+00	0	38	0	1171259392	60	5223
2026-01-23 00:36:38.44	223.08	11.92	-44.7	-47.9	15.4	0.00e+00	0	38	0	1176502272	60	5368
2026-01-23 00:36:41.57	222.91	11.64	-44.8	-48.0	15.3	0.00e+00	0	38	0	1182793728	60	5444
2026-01-23 00:36:44.41	222.77	11.39	-44.7	-48.0	15.3	0.00e+00	0	38	0	1188036608	60	5438
2026-01-23 00:36:47.53	222.61	11.11	-44.5	-47.7	15.5	0.00e+00	0	38	0	1194328064	60	5273
2026-01-23 00:36:50.37	222.47	10.86	-44.5	-47.8	15.4	0.00e+00	0	38	0	1199570944	60	5321
2026-01-23 00:36:53.50	222.31	10.59	-44.4	-47.6	15.6	0.00e+00	0	38	0	1204813824	60	5181
2026-01-23 00:36:56.34	222.18	10.35	-44.1	-47.2	16.0	0.00e+00	0	38	0	1210056704	60	4952
2026-01-23 00:36:59.61	222.02	10.07	-44.1	-47.3	15.9	0.00e+00	0	38	0	1216348160	60	4998
2026-01-23 00:37:02.34	221.90	9.84	-44.1	-47.4	15.8	0.00e+00	0	38	0	1221591040	60	5043
2026-01-23 00:37:05.64	221.75	9.56	-44.3	-47.7	15.4	0.00e+00	0	38	0	1227882496	60	5221
2026-01-23 00:37:08.37	221.63	9.34	-44.4	-47.9	15.2	0.00e+00	0	38	0	1233125376	60	5384
2026-01-23 00:37:11.66	221.48	9.07	-44.6	-48.6	14.4	0.00e+00	0	38	0	1239416832	60	5829
2026-01-23 00:37:14.64	221.36	8.83	-49.6	-64.8	3.8	1.49e+00	0	38	104	1241513984	69	22481
2026-01-23 00:37:17.62	221.23	8.59	-49.8	-65.1	3.8	1.49e+00	0	38	104	1241513984	70	21768
2026-01-23 00:37:20.60	221.11	8.35	-49.9	-65.2	3.8	1.49e+00	0	38	104	1241513984	70	22127
2026-01-23 00:37:23.58	220.99	8.11	-49.9	-65.2	3.8	1.49e+00	0	38	104	1241513984	70	22118
2026-01-23 00:37:26.56	220.87	7.88	-49.8	-65.2	3.8	1.49e+00	0	38	104	1241513984	70	22033
2026-01-23 00:37:29.54	220.75	7.65	-49.9	-65.2	3.8	1.49e+00	0	38	104	1241513984	70	22028
2026-01-23 00:37:32.52	220.63	7.42	-49.8	-65.1	3.8	1.49e+00	0	38	104	1241513984	70	21945
2026-01-23 00:37:35.55	220.52	7.19	-49.7	-65.1	3.8	1.49e+00	0	38	104	1241513984	70	21806
