passes_logs/2026/01/23/T1/T1__20260123_115851_SUOMI_NPP_rec.log

#Pass ID: 20260123_115851_SUOMI NPP
#Satellite: SUOMI NPP
#Configuration: NPP
#almurnet v.1.7.20251203
#Start time: 2026-01-23 11:58:53

#Version: 2.0.20230620
#Station: T1
#Location: 37.570604 lon 55.790049 lat
#TLE: 1 37849U 11061A   26022.50498765  .00000208  00000+0  11976-3 0  9992
#TLE: 2 37849  98.7820 324.4892 0002275  50.8149 309.3229 14.19528284737775

#Time	Az	El	Level	Level2	SNR	BER	BlckErr	Temp	State	Recorded	gain1	gain2
2026-01-23 11:58:53.40	227.63	5.09	-49.0	-64.3	3.8	1.49e+00	0	35	0	0	70	19924
2026-01-23 11:58:56.37	227.95	5.24	-49.0	-64.3	3.8	1.49e+00	0	35	104	0	70	19859
2026-01-23 11:58:59.35	228.29	5.39	-49.0	-64.3	3.8	1.49e+00	0	36	104	0	70	19868
2026-01-23 11:59:02.33	228.62	5.54	-49.0	-64.3	3.8	1.49e+00	0	36	104	0	70	19857
2026-01-23 11:59:05.31	228.96	5.69	-49.0	-64.3	3.8	1.49e+00	0	36	104	0	70	19856
2026-01-23 11:59:08.29	229.30	5.84	-49.0	-64.2	3.8	1.49e+00	0	36	104	0	70	19728
2026-01-23 11:59:11.27	229.64	5.99	-49.0	-64.2	3.8	1.49e+00	0	36	104	0	70	19812
2026-01-23 11:59:14.25	229.99	6.14	-49.0	-64.2	3.8	1.49e+00	0	36	104	0	70	19815
2026-01-23 11:59:17.23	230.34	6.29	-49.0	-64.2	3.8	1.49e+00	0	36	104	0	70	19723
2026-01-23 11:59:20.21	230.70	6.44	-49.0	-64.2	3.8	1.49e+00	0	36	104	0	70	19726
2026-01-23 11:59:23.18	231.06	6.59	-49.0	-64.2	3.8	1.49e+00	0	37	104	0	70	19835
2026-01-23 11:59:26.16	231.42	6.74	-49.0	-64.2	3.8	1.49e+00	0	37	104	0	70	19716
2026-01-23 11:59:29.14	231.78	6.89	-49.0	-64.2	3.8	1.49e+00	0	37	104	0	70	19626
2026-01-23 11:59:32.12	232.15	7.04	-49.0	-64.2	3.8	1.49e+00	0	37	104	0	70	19776
2026-01-23 11:59:35.10	232.53	7.19	-49.0	-64.0	3.8	1.49e+00	0	37	104	0	70	19288
2026-01-23 11:59:38.08	232.90	7.34	-49.0	-63.9	3.8	1.49e+00	0	37	104	0	70	19083
2026-01-23 11:59:41.06	233.29	7.49	-49.0	-64.3	3.8	1.49e+00	0	37	104	0	70	19872
2026-01-23 11:59:44.04	233.67	7.63	-49.0	-64.2	3.8	1.49e+00	0	37	104	0	70	19665
2026-01-23 11:59:47.02	234.06	7.78	-48.9	-64.2	3.8	1.49e+00	0	37	104	0	69	20924
2026-01-23 11:59:50.00	234.45	7.93	-48.9	-64.2	3.8	1.49e+00	0	37	104	0	69	20887
2026-01-23 11:59:52.98	234.85	8.08	-49.0	-64.2	3.8	1.49e+00	0	37	104	0	69	20994
2026-01-23 11:59:55.96	235.25	8.23	-48.9	-62.4	3.8	1.49e+00	0	37	104	0	69	16910
2026-01-23 11:59:58.94	235.65	8.37	-49.0	-63.7	3.8	1.49e+00	0	37	104	0	69	19749
2026-01-23 12:00:01.92	236.06	8.52	-47.8	-55.2	7.4	4.28e-01	0	37	0	1048576	67	8307
2026-01-23 12:00:04.90	236.47	8.67	-44.9	-48.4	14.5	6.10e-06	0	38	0	7340032	61	5397
2026-01-23 12:00:07.88	236.88	8.81	-44.9	-48.5	14.5	7.00e-07	0	37	0	12582912	60	5728
2026-01-23 12:00:10.86	237.30	8.96	-46.8	-52.3	10.5	1.72e-03	0	37	0	17825792	64	7072
2026-01-23 12:00:13.84	237.73	9.10	-45.7	-49.9	13.0	3.55e-02	0	38	0	23068672	63	5667
2026-01-23 12:00:16.82	238.16	9.25	-45.7	-49.9	13.1	7.79e-01	0	38	0	28311552	63	5665
2026-01-23 12:00:19.81	238.59	9.39	-46.1	-50.5	12.5	1.15e-04	0	37	0	34603008	63	6078
2026-01-23 12:00:22.79	239.03	9.54	-45.7	-49.8	13.2	2.05e-05	0	38	0	39845888	63	5649
2026-01-23 12:00:25.78	239.47	9.68	-44.4	-47.6	15.3	0.00e+00	0	38	0	45088768	60	5173
2026-01-23 12:00:28.77	239.91	9.82	-43.1	-45.8	17.2	0.00e+00	0	38	0	51380224	58	4727
2026-01-23 12:00:31.75	240.36	9.96	-43.1	-45.8	17.1	0.00e+00	0	38	0	56623104	57	4992
2026-01-23 12:00:34.74	240.82	10.11	-42.9	-45.6	17.4	0.00e+00	0	38	0	61865984	57	4877
2026-01-23 12:00:37.73	241.28	10.25	-42.9	-45.5	17.4	0.00e+00	0	38	0	68157440	57	4851
2026-01-23 12:00:40.71	241.74	10.38	-42.5	-45.0	17.9	0.00e+00	0	38	0	73400320	56	4845
2026-01-23 12:00:43.70	242.20	10.52	-42.5	-45.0	17.9	0.00e+00	0	38	0	78643200	56	4867
2026-01-23 12:00:46.68	242.67	10.66	-42.5	-45.0	17.8	0.00e+00	0	38	0	84934656	56	4867
2026-01-23 12:00:49.67	243.15	10.80	-42.6	-45.1	17.8	0.00e+00	0	38	0	90177536	56	4891
2026-01-23 12:00:52.65	243.63	10.93	-42.5	-45.0	18.0	0.00e+00	0	38	0	95420416	56	4815
2026-01-23 12:00:55.63	244.11	11.07	-42.7	-45.2	17.7	0.00e+00	0	38	0	101711872	56	4968
2026-01-23 12:00:58.62	244.60	11.20	-42.6	-45.2	17.8	0.00e+00	0	37	0	106954752	56	4936
2026-01-23 12:01:01.61	245.09	11.33	-42.4	-44.9	18.1	0.00e+00	0	38	0	112197632	56	4762
2026-01-23 12:01:04.59	245.59	11.46	-42.4	-44.9	18.1	0.00e+00	0	38	0	118489088	56	4762
2026-01-23 12:01:07.57	246.09	11.59	-42.9	-45.5	17.5	0.00e+00	0	38	0	123731968	56	5136
2026-01-23 12:01:10.56	246.60	11.72	-43.0	-45.6	17.4	0.00e+00	0	38	0	128974848	56	5180
2026-01-23 12:01:13.54	247.10	11.85	-42.7	-45.3	17.7	0.00e+00	0	38	0	135266304	56	4997
2026-01-23 12:01:16.52	247.62	11.97	-42.8	-45.4	17.6	0.00e+00	0	38	0	140509184	56	5086
2026-01-23 12:01:19.51	248.14	12.10	-43.1	-45.7	17.3	0.00e+00	0	38	0	145752064	56	5262
2026-01-23 12:01:22.49	248.66	12.22	-43.0	-45.7	17.4	0.00e+00	0	38	0	152043520	56	5224
2026-01-23 12:01:25.48	249.18	12.34	-43.1	-45.8	17.2	0.00e+00	0	38	0	157286400	57	5041
2026-01-23 12:01:28.46	249.71	12.46	-43.0	-45.7	17.3	0.00e+00	0	38	0	162529280	57	4967
2026-01-23 12:01:31.45	250.25	12.58	-43.2	-45.8	17.2	0.00e+00	0	38	0	168820736	57	5038
2026-01-23 12:01:34.44	250.79	12.70	-43.5	-46.4	16.8	0.00e+00	0	38	0	174063616	57	5356
2026-01-23 12:01:37.43	251.33	12.81	-43.7	-46.5	16.6	0.00e+00	0	38	0	179306496	57	5448
2026-01-23 12:01:40.41	251.88	12.92	-43.6	-46.4	16.7	0.00e+00	0	38	0	185597952	58	5082
2026-01-23 12:01:43.39	252.43	13.03	-43.8	-46.8	16.3	0.00e+00	0	38	0	190840832	58	5306
2026-01-23 12:01:46.38	252.99	13.14	-44.1	-47.2	15.9	0.00e+00	0	38	0	196083712	58	5549
2026-01-23 12:01:49.37	253.54	13.25	-44.2	-47.2	15.9	0.00e+00	0	38	0	202375168	59	5249
2026-01-23 12:01:52.35	254.11	13.36	-44.0	-47.1	16.1	0.00e+00	0	38	0	207618048	59	5180
2026-01-23 12:01:55.33	254.67	13.46	-44.2	-47.4	15.7	0.00e+00	0	38	0	212860928	59	5367
2026-01-23 12:01:58.31	255.24	13.56	-44.4	-47.6	15.5	0.00e+00	0	38	0	219152384	59	5490
2026-01-23 12:02:01.30	255.82	13.66	-44.0	-47.0	16.1	0.00e+00	0	38	0	224395264	59	5111
2026-01-23 12:02:04.28	256.39	13.75	-44.0	-47.0	16.2	0.00e+00	0	38	0	229638144	59	5108
2026-01-23 12:02:07.27	256.98	13.85	-44.2	-47.3	15.8	0.00e+00	0	38	0	235929600	59	5336
2026-01-23 12:02:10.26	257.56	13.94	-44.1	-47.1	16.0	0.00e+00	0	38	0	241172480	59	5204
2026-01-23 12:02:13.24	258.15	14.03	-43.9	-46.8	16.3	0.00e+00	0	38	0	246415360	59	5033
2026-01-23 12:02:16.23	258.74	14.11	-43.6	-46.4	16.7	0.00e+00	0	38	0	252706816	59	4789
2026-01-23 12:02:19.21	259.34	14.20	-43.0	-45.6	17.2	0.00e+00	0	38	0	257949696	57	4908
2026-01-23 12:02:22.19	259.93	14.28	-42.5	-45.0	18.1	0.00e+00	0	38	0	263192576	56	4845
2026-01-23 12:02:25.18	260.53	14.36	-42.4	-44.9	18.1	0.00e+00	0	38	0	269484032	56	4812
2026-01-23 12:02:28.16	261.14	14.43	-42.6	-45.2	17.9	0.00e+00	0	38	0	274726912	56	4944
2026-01-23 12:02:31.15	261.75	14.51	-42.9	-45.5	17.6	0.00e+00	0	38	0	279969792	56	5127
2026-01-23 12:02:34.13	262.36	14.58	-42.4	-44.9	18.2	0.00e+00	0	38	0	286261248	56	4804
2026-01-23 12:02:37.11	262.97	14.64	-42.4	-44.9	18.1	0.00e+00	0	38	0	291504128	56	4792
2026-01-23 12:02:40.10	263.58	14.71	-42.9	-45.5	17.6	0.00e+00	0	38	0	297795584	56	5129
2026-01-23 12:02:43.09	264.20	14.77	-42.7	-45.3	17.8	0.00e+00	0	38	0	303038464	56	4997
2026-01-23 12:02:46.07	264.82	14.83	-42.7	-45.3	17.8	0.00e+00	0	38	0	308281344	56	5009
2026-01-23 12:02:49.06	265.45	14.89	-43.4	-46.1	17.0	0.00e+00	0	38	0	314572800	57	5204
2026-01-23 12:02:52.04	266.07	14.94	-43.1	-45.7	17.4	0.00e+00	0	38	0	319815680	57	4975
2026-01-23 12:02:55.02	266.69	14.99	-43.5	-46.4	16.7	0.00e+00	0	38	0	325058560	57	5360
2026-01-23 12:02:58.01	267.32	15.03	-44.4	-47.5	15.6	0.00e+00	0	38	0	331350016	59	5449
2026-01-23 12:03:00.99	267.95	15.08	-43.1	-45.7	17.4	0.00e+00	0	38	0	336592896	58	4697
2026-01-23 12:03:03.97	268.59	15.12	-42.6	-45.2	17.8	0.00e+00	0	38	0	341835776	57	4681
2026-01-23 12:03:06.96	269.22	15.16	-43.4	-46.1	17.0	0.00e+00	0	38	0	348127232	57	5199
2026-01-23 12:03:09.94	269.85	15.19	-42.9	-45.6	17.6	0.00e+00	0	38	0	353370112	57	4877
2026-01-23 12:03:12.93	270.49	15.22	-42.4	-44.9	18.1	0.00e+00	0	38	0	358612992	56	4805
2026-01-23 12:03:15.91	271.13	15.25	-42.7	-45.3	17.8	0.00e+00	0	38	0	364904448	56	5020
2026-01-23 12:03:18.90	271.77	15.27	-42.3	-44.7	18.4	0.00e+00	0	38	0	370147328	56	4682
2026-01-23 12:03:21.89	272.41	15.29	-42.7	-45.3	17.9	0.00e+00	0	38	0	375390208	56	4989
2026-01-23 12:03:24.87	273.05	15.31	-43.0	-45.6	17.4	0.00e+00	0	38	0	381681664	57	4925
2026-01-23 12:03:27.86	273.69	15.32	-42.7	-45.2	17.9	0.00e+00	0	38	0	386924544	57	4670
2026-01-23 12:03:30.84	274.33	15.33	-43.1	-45.8	17.3	0.00e+00	0	38	0	392167424	57	5029
2026-01-23 12:03:33.82	274.97	15.34	-43.6	-46.4	16.7	0.00e+00	0	38	0	398458880	57	5395
2026-01-23 12:03:36.81	275.61	15.34	-43.2	-45.9	17.3	0.00e+00	0	38	0	403701760	57	5046
2026-01-23 12:03:39.79	276.25	15.34	-43.2	-45.9	17.3	0.00e+00	0	38	0	408944640	57	5050
2026-01-23 12:03:42.77	276.90	15.34	-43.0	-45.6	17.5	0.00e+00	0	38	0	415236096	57	4903
2026-01-23 12:03:45.76	277.54	15.34	-43.0	-45.6	17.5	0.00e+00	0	38	0	420478976	57	4925
2026-01-23 12:03:48.74	278.18	15.33	-43.3	-46.1	17.1	0.00e+00	0	38	0	425721856	57	5205
2026-01-23 12:03:51.72	278.82	15.31	-42.4	-44.9	18.2	0.00e+00	0	38	0	432013312	56	4776
2026-01-23 12:03:54.71	279.46	15.30	-42.7	-45.2	17.9	0.00e+00	0	38	0	437256192	56	4953
2026-01-23 12:03:57.70	280.10	15.28	-42.8	-45.3	17.7	0.00e+00	0	38	0	442499072	56	5040
2026-01-23 12:04:00.68	280.74	15.25	-42.4	-44.9	18.2	0.00e+00	0	38	0	448790528	56	4785
2026-01-23 12:04:03.67	281.38	15.23	-42.7	-45.2	17.9	0.00e+00	0	38	0	454033408	56	4947
2026-01-23 12:04:06.65	282.01	15.20	-42.5	-45.0	18.1	0.00e+00	0	38	0	459276288	56	4840
2026-01-23 12:04:09.64	282.65	15.17	-41.8	-44.1	18.8	0.00e+00	0	38	0	465567744	55	4644
2026-01-23 12:04:12.62	283.28	15.13	-41.9	-44.3	18.7	0.00e+00	0	38	0	470810624	55	4708
2026-01-23 12:04:15.61	283.91	15.09	-42.3	-44.7	18.2	0.00e+00	0	38	0	476053504	55	4966
2026-01-23 12:04:18.59	284.54	15.05	-42.4	-44.9	18.0	0.00e+00	0	38	0	482344960	55	5099
2026-01-23 12:04:21.58	285.17	15.00	-42.3	-44.8	18.1	0.00e+00	0	38	0	487587840	55	5005
2026-01-23 12:04:24.56	285.79	14.96	-42.4	-44.8	18.1	0.00e+00	0	38	0	492830720	55	5029
2026-01-23 12:04:27.55	286.42	14.90	-42.6	-45.1	17.8	0.00e+00	0	38	0	499122176	55	5196
2026-01-23 12:04:30.53	287.04	14.85	-42.9	-45.5	17.6	0.00e+00	0	38	0	504365056	56	5133
2026-01-23 12:04:33.51	287.66	14.79	-42.9	-45.5	17.6	0.00e+00	0	38	0	509607936	56	5133
2026-01-23 12:04:36.50	288.28	14.73	-42.5	-45.0	18.1	0.00e+00	0	38	0	515899392	56	4844
2026-01-23 12:04:39.48	288.89	14.67	-42.2	-44.6	18.4	0.00e+00	0	38	0	521142272	56	4644
2026-01-23 12:04:42.47	289.50	14.60	-41.6	-43.9	18.9	0.00e+00	0	38	0	526385152	55	4529
2026-01-23 12:04:45.45	290.11	14.53	-41.5	-43.8	19.1	0.00e+00	0	38	0	532676608	54	4717
2026-01-23 12:04:48.44	290.72	14.46	-41.7	-44.0	18.8	0.00e+00	0	38	0	537919488	54	4863
2026-01-23 12:04:51.42	291.32	14.39	-41.4	-43.7	19.2	0.00e+00	0	38	0	543162368	54	4653
2026-01-23 12:04:54.41	291.92	14.31	-41.8	-44.2	18.7	0.00e+00	0	38	0	549453824	54	4944
2026-01-23 12:04:57.39	292.52	14.23	-42.2	-44.7	18.2	0.00e+00	0	38	0	554696704	55	4946
2026-01-23 12:05:00.38	293.11	14.15	-42.3	-44.8	18.1	0.00e+00	0	38	0	559939584	55	5019
2026-01-23 12:05:03.36	293.70	14.06	-42.4	-44.8	18.0	0.00e+00	0	38	0	566231040	55	5040
2026-01-23 12:05:06.35	294.29	13.97	-42.3	-44.8	18.1	0.00e+00	0	38	0	571473920	55	4993
2026-01-23 12:05:09.33	294.87	13.88	-42.0	-44.3	18.6	0.00e+00	0	38	0	576716800	55	4741
2026-01-23 12:05:12.32	295.45	13.79	-41.5	-43.7	19.1	0.00e+00	0	38	0	583008256	54	4688
2026-01-23 12:05:15.30	296.03	13.70	-41.3	-43.5	19.3	0.00e+00	0	38	0	588251136	54	4569
2026-01-23 12:05:18.29	296.60	13.60	-41.6	-43.9	18.9	0.00e+00	0	38	0	593494016	54	4801
2026-01-23 12:05:21.27	297.17	13.50	-41.6	-43.9	18.9	0.00e+00	0	38	0	599785472	54	4789
2026-01-23 12:05:24.25	297.74	13.40	-41.8	-44.1	18.7	0.00e+00	0	38	0	605028352	54	4915
2026-01-23 12:05:27.24	298.30	13.30	-42.1	-44.6	18.3	0.00e+00	0	38	0	610271232	54	5176
2026-01-23 12:05:30.22	298.86	13.19	-42.0	-44.4	18.4	0.00e+00	0	38	0	616562688	55	4805
2026-01-23 12:05:33.21	299.41	13.08	-42.0	-44.3	18.4	0.00e+00	0	38	0	621805568	55	4753
2026-01-23 12:05:36.19	299.96	12.97	-42.2	-44.6	18.2	0.00e+00	0	38	0	627048448	55	4916
2026-01-23 12:05:39.18	300.51	12.86	-42.4	-44.9	17.9	0.00e+00	0	38	0	633339904	55	5086
2026-01-23 12:05:42.16	301.05	12.75	-42.4	-44.9	18.0	0.00e+00	0	38	0	638582784	55	5056
2026-01-23 12:05:45.15	301.58	12.64	-42.9	-45.5	17.5	0.00e+00	0	38	0	643825664	56	5128
2026-01-23 12:05:48.13	302.12	12.52	-43.3	-46.0	17.1	0.00e+00	0	38	0	650117120	57	5114
2026-01-23 12:05:51.12	302.65	12.40	-43.1	-45.8	17.2	0.00e+00	0	38	0	655360000	57	5024
2026-01-23 12:05:54.10	303.17	12.28	-43.1	-45.8	17.3	0.00e+00	0	38	0	660602880	57	4992
2026-01-23 12:05:57.08	303.69	12.16	-43.6	-46.5	16.7	0.00e+00	0	38	0	666894336	57	5408
2026-01-23 12:06:00.06	304.21	12.04	-44.2	-47.3	15.8	0.00e+00	0	38	0	672137216	59	5321
2026-01-23 12:06:03.05	304.72	11.91	-44.1	-47.1	15.9	0.00e+00	0	38	0	677380096	59	5213
2026-01-23 12:06:06.04	305.23	11.79	-44.3	-47.4	15.7	0.00e+00	0	38	0	683671552	59	5368
2026-01-23 12:06:09.02	305.73	11.66	-44.4	-47.6	15.5	0.00e+00	0	38	0	688914432	59	5492
2026-01-23 12:06:12.01	306.24	11.53	-43.9	-47.0	16.1	0.00e+00	0	38	0	694157312	59	5102
2026-01-23 12:06:14.99	306.73	11.40	-43.5	-46.3	16.8	0.00e+00	0	38	0	700448768	58	4992
2026-01-23 12:06:17.98	307.22	11.27	-43.9	-46.8	16.3	0.00e+00	0	38	0	705691648	58	5307
2026-01-23 12:06:20.96	307.71	11.14	-44.5	-47.7	15.4	0.00e+00	0	38	0	710934528	59	5555
2026-01-23 12:06:23.94	308.19	11.01	-44.6	-48.0	15.1	0.00e+00	0	38	0	717225984	60	5430
2026-01-23 12:06:26.92	308.67	10.88	-44.6	-48.0	15.1	0.00e+00	0	38	0	722468864	60	5459
2026-01-23 12:06:29.91	309.14	10.74	-44.5	-47.9	15.2	0.00e+00	0	38	0	727711744	60	5398
2026-01-23 12:06:32.90	309.61	10.61	-44.2	-47.5	15.6	0.00e+00	0	38	0	734003200	60	5106
2026-01-23 12:06:35.88	310.08	10.47	-44.2	-47.5	15.6	0.00e+00	0	38	0	739246080	60	5127
2026-01-23 12:06:38.87	310.54	10.33	-44.4	-47.7	15.4	0.00e+00	0	38	0	744488960	60	5278
2026-01-23 12:06:41.86	311.00	10.19	-44.2	-47.3	15.7	0.00e+00	0	38	0	750780416	60	5034
2026-01-23 12:06:44.84	311.45	10.05	-43.6	-46.5	16.5	0.00e+00	0	38	0	756023296	59	4842
2026-01-23 12:06:47.82	311.90	9.91	-43.7	-46.8	16.2	0.00e+00	0	38	0	761266176	59	5005
2026-01-23 12:06:50.80	312.34	9.77	-44.2	-47.5	15.6	0.00e+00	0	38	0	767557632	59	5431
2026-01-23 12:06:53.79	312.79	9.63	-44.6	-48.2	14.9	0.00e+00	0	38	0	772800512	59	5856
2026-01-23 12:06:56.77	313.22	9.49	-44.7	-48.3	14.7	0.00e+00	0	38	0	778043392	60	5602
2026-01-23 12:06:59.76	313.65	9.35	-44.2	-47.4	15.6	0.00e+00	0	38	0	784334848	60	5084
2026-01-23 12:07:02.74	314.08	9.21	-43.9	-47.0	16.0	0.00e+00	0	38	0	789577728	59	5126
2026-01-23 12:07:05.72	314.51	9.06	-43.8	-46.8	16.2	0.00e+00	0	38	0	795869184	59	4997
2026-01-23 12:07:08.71	314.93	8.92	-49.0	-64.4	3.8	1.49e+00	0	38	104	799014912	68	22710
2026-01-23 12:07:11.69	315.34	8.77	-49.5	-64.9	3.8	1.49e+00	0	38	104	799014912	69	22640
2026-01-23 12:07:14.67	315.75	8.63	-49.6	-65.0	3.8	1.49e+00	0	38	104	799014912	70	21629
2026-01-23 12:07:17.65	316.16	8.48	-49.8	-65.0	3.8	1.49e+00	0	38	104	799014912	70	21669
2026-01-23 12:07:20.63	316.57	8.34	-49.9	-65.0	3.8	1.49e+00	0	38	104	799014912	70	21710
2026-01-23 12:07:23.60	316.96	8.19	-49.8	-65.0	3.8	1.49e+00	0	38	104	799014912	70	21666
2026-01-23 12:07:26.58	317.36	8.05	-49.7	-65.0	3.8	1.49e+00	0	38	104	799014912	70	21687
2026-01-23 12:07:29.56	317.75	7.90	-49.6	-65.0	3.8	1.49e+00	0	38	104	799014912	70	21560
2026-01-23 12:07:32.54	318.14	7.75	-49.6	-65.0	3.8	1.49e+00	0	38	104	799014912	70	21525
2026-01-23 12:07:35.52	318.53	7.61	-49.6	-65.0	3.8	1.49e+00	0	38	104	799014912	70	21617
2026-01-23 12:07:38.50	318.91	7.46	-49.6	-64.9	3.8	1.49e+00	0	38	104	799014912	70	21498
2026-01-23 12:07:41.48	319.28	7.31	-49.5	-64.9	3.8	1.49e+00	0	38	104	799014912	70	21467
2026-01-23 12:07:44.46	319.66	7.17	-49.6	-64.9	3.8	1.49e+00	0	38	104	799014912	70	21470
2026-01-23 12:07:47.44	320.03	7.02	-49.6	-64.9	3.8	1.49e+00	0	38	104	799014912	70	21407
2026-01-23 12:07:50.42	320.39	6.87	-49.6	-64.9	3.8	1.49e+00	0	38	104	799014912	70	21459
2026-01-23 12:07:53.39	320.75	6.72	-49.5	-65.0	3.8	1.49e+00	0	38	104	799014912	70	21510
2026-01-23 12:07:56.37	321.11	6.57	-49.5	-64.9	3.8	1.49e+00	0	38	104	799014912	70	21379
2026-01-23 12:07:59.35	321.47	6.43	-49.5	-64.9	3.8	1.49e+00	0	38	104	799014912	70	21463
2026-01-23 12:08:02.33	321.82	6.28	-49.5	-64.9	3.8	1.49e+00	0	38	104	799014912	70	21293
2026-01-23 12:08:05.31	322.17	6.13	-49.5	-64.9	3.8	1.49e+00	0	38	104	799014912	70	21406
2026-01-23 12:08:08.29	322.52	5.98	-49.5	-65.0	3.8	1.49e+00	0	38	104	799014912	70	21513
2026-01-23 12:08:11.27	322.86	5.83	-49.5	-64.9	3.8	1.49e+00	0	38	104	799014912	70	21440
2026-01-23 12:08:14.25	323.20	5.69	-49.5	-64.9	3.8	1.49e+00	0	38	104	799014912	70	21404
2026-01-23 12:08:17.23	323.53	5.54	-49.5	-64.9	3.8	1.49e+00	0	38	104	799014912	70	21406
2026-01-23 12:08:20.21	323.86	5.39	-49.5	-64.9	3.8	1.49e+00	0	38	104	799014912	70	21382
2026-01-23 12:08:23.19	324.19	5.24	-49.5	-64.9	3.8	1.49e+00	0	38	104	799014912	70	21386
2026-01-23 12:08:26.17	324.52	5.10	-49.5	-64.9	3.8	1.49e+00	0	38	104	799014912	70	21413

#Closed at: 2026-01-23 12:08:29
#Recorded file [799 MB]: D:/Data/31040_260123_145853.dat