passes_logs/2026/01/23/T1/T1__20260123_022715_NOAA_20_JPSS-1_rec.log

#Pass ID: 20260123_022715_NOAA 20 (JPSS-1)
#Satellite: NOAA 20 (JPSS-1)
#Configuration: NOAA 20
#almurnet v.1.7.20251203
#Start time: 2026-01-23 02:27:15

#Version: 2.0.20230620
#Station: T1
#Location: 37.570604 lon 55.790049 lat
#TLE: 1 43013U 17073A   26022.44900781  .00000193  00000+0  11233-3 0  9999
#TLE: 2 43013  98.7645 323.3100 0001197  28.8413 331.2829 14.19538802423792

#Time	Az	El	Level	Level2	SNR	BER	BlckErr	Temp	State	Recorded	gain1	gain2
2026-01-23 02:27:15.90	359.86	5.02	-47.6	-64.5	3.8	1.49e+00	0	35	0	0	67	24407
2026-01-23 02:27:17.88	359.62	5.10	-45.2	-64.4	3.8	1.49e+00	0	35	104	0	61	33858
2026-01-23 02:27:19.87	359.38	5.18	-45.2	-64.4	3.8	1.49e+00	0	35	104	0	61	33860
2026-01-23 02:27:21.86	359.13	5.27	-45.2	-64.4	3.8	1.49e+00	0	35	104	0	61	33870
2026-01-23 02:27:23.84	358.88	5.35	-45.3	-64.4	3.8	1.49e+00	0	35	104	0	61	33870
2026-01-23 02:27:25.83	358.64	5.43	-45.2	-64.4	3.8	1.49e+00	0	35	104	0	61	33804
2026-01-23 02:27:27.82	358.38	5.51	-45.3	-64.3	3.8	1.49e+00	0	35	104	0	61	33694
2026-01-23 02:27:29.80	358.13	5.59	-45.3	-64.4	3.8	1.49e+00	0	35	104	0	61	33815
2026-01-23 02:27:31.79	357.88	5.68	-45.2	-64.4	3.8	1.49e+00	0	35	104	0	61	33813
2026-01-23 02:27:33.78	357.63	5.76	-45.3	-64.4	3.8	1.49e+00	0	35	104	0	61	33854
2026-01-23 02:27:35.76	357.37	5.84	-45.3	-64.4	3.8	1.49e+00	0	35	104	0	61	33725
2026-01-23 02:27:37.75	357.11	5.92	-45.2	-64.4	3.8	1.49e+00	0	36	104	0	61	33713
2026-01-23 02:27:39.74	356.85	6.00	-45.3	-64.4	3.8	1.49e+00	0	36	104	0	61	33879
2026-01-23 02:27:41.72	356.59	6.08	-45.3	-64.4	3.8	1.49e+00	0	36	104	0	61	33775
2026-01-23 02:27:43.71	356.33	6.16	-45.2	-64.4	3.8	1.49e+00	0	36	104	0	61	33728
2026-01-23 02:27:45.70	356.07	6.24	-45.2	-64.4	3.8	1.49e+00	0	36	104	0	61	33832
2026-01-23 02:27:47.69	355.80	6.32	-45.2	-64.4	3.8	1.49e+00	0	36	104	0	61	33700
2026-01-23 02:27:49.67	355.54	6.39	-45.3	-64.4	3.8	1.49e+00	0	36	104	0	61	33817
2026-01-23 02:27:51.66	355.27	6.47	-45.2	-64.4	3.8	1.49e+00	0	36	104	0	61	33737
2026-01-23 02:27:53.65	355.00	6.55	-45.3	-64.4	3.8	1.49e+00	0	36	104	0	61	33793
2026-01-23 02:27:55.63	354.73	6.63	-45.3	-64.3	3.8	1.49e+00	0	36	104	0	61	33593
2026-01-23 02:27:57.62	354.46	6.70	-45.3	-64.3	3.8	1.49e+00	0	36	104	0	61	33616
2026-01-23 02:27:59.61	354.18	6.78	-45.2	-64.3	3.8	1.49e+00	0	36	104	0	61	33685
2026-01-23 02:28:01.59	353.91	6.86	-45.3	-64.3	3.8	1.49e+00	0	36	104	0	61	33609
2026-01-23 02:28:03.58	353.63	6.93	-45.3	-64.4	3.8	1.49e+00	0	36	104	0	61	33710
2026-01-23 02:28:05.57	353.35	7.01	-45.3	-64.4	3.8	1.49e+00	0	37	104	0	61	33776
2026-01-23 02:28:07.55	353.08	7.08	-45.2	-64.3	3.8	1.49e+00	0	36	104	0	61	33594
2026-01-23 02:28:09.54	352.79	7.16	-45.3	-64.4	3.8	1.49e+00	0	37	104	0	61	33764
2026-01-23 02:28:11.53	352.51	7.23	-45.2	-64.4	3.8	1.49e+00	0	36	104	0	61	33727
2026-01-23 02:28:13.51	352.23	7.31	-45.2	-64.4	3.8	1.49e+00	0	37	104	0	61	33719
2026-01-23 02:28:15.50	351.94	7.38	-45.2	-64.3	3.8	1.49e+00	0	37	104	0	61	33677
2026-01-23 02:28:17.49	351.66	7.45	-45.3	-64.4	3.8	1.49e+00	0	37	104	0	61	33727
2026-01-23 02:28:19.47	351.37	7.53	-45.3	-64.3	3.8	1.49e+00	0	37	104	0	61	33560
2026-01-23 02:28:21.46	351.08	7.60	-45.3	-64.3	3.8	1.49e+00	0	37	104	0	61	33403
2026-01-23 02:28:23.44	350.79	7.67	-45.3	-64.2	3.8	1.49e+00	0	37	104	0	61	33284
2026-01-23 02:28:25.43	350.49	7.74	-45.3	-64.3	3.8	1.49e+00	0	37	104	0	61	33384
2026-01-23 02:28:27.42	350.20	7.81	-45.3	-64.4	3.8	1.49e+00	0	37	104	0	61	33725
2026-01-23 02:28:29.40	349.91	7.88	-45.3	-64.4	3.8	1.49e+00	0	37	104	0	61	33821
2026-01-23 02:28:31.39	349.61	7.95	-45.3	-64.4	3.8	1.49e+00	0	37	104	0	61	33747
2026-01-23 02:28:33.37	349.31	8.02	-45.3	-64.3	3.8	1.49e+00	0	37	104	0	61	33657
2026-01-23 02:28:35.36	349.01	8.09	-45.3	-64.2	3.8	1.49e+00	0	37	104	0	61	33245
2026-01-23 02:28:37.35	348.71	8.15	-45.3	-64.0	3.8	1.49e+00	0	37	104	0	61	32510
2026-01-23 02:28:39.33	348.41	8.22	-45.3	-64.2	3.8	1.49e+00	0	37	104	0	61	32989
2026-01-23 02:28:41.32	348.10	8.29	-45.3	-64.3	3.8	1.49e+00	0	37	104	0	61	33437
2026-01-23 02:28:43.31	347.80	8.35	-45.3	-64.2	3.8	1.49e+00	0	37	104	0	61	33011
2026-01-23 02:28:45.29	347.49	8.42	-45.3	-64.0	3.8	1.49e+00	0	37	104	0	61	32372
2026-01-23 02:28:47.28	347.18	8.48	-45.2	-64.2	3.8	1.49e+00	0	37	104	0	61	32956
2026-01-23 02:28:49.26	346.87	8.55	-45.3	-64.2	3.8	1.49e+00	0	37	104	0	61	33288
2026-01-23 02:28:51.25	346.56	8.61	-45.2	-63.6	3.8	1.49e+00	0	37	104	0	61	30901
2026-01-23 02:28:53.23	346.25	8.67	-45.2	-62.9	3.8	1.49e+00	0	37	104	0	61	28412
2026-01-23 02:28:55.22	345.93	8.74	-45.2	-62.2	3.8	1.49e+00	0	37	104	0	61	26234
2026-01-23 02:28:57.21	345.62	8.80	-45.2	-61.2	4.1	1.47e+00	0	37	0	0	61	23419
2026-01-23 02:28:59.19	345.30	8.86	-45.1	-59.9	4.5	1.24e+00	0	37	0	1048576	61	20154
2026-01-23 02:29:01.18	344.98	8.92	-44.9	-56.2	6.8	3.85e-01	0	37	0	4194304	61	13196
2026-01-23 02:29:03.17	344.66	8.98	-44.0	-51.3	11.8	2.78e-03	0	37	0	8388608	60	7962
2026-01-23 02:29:05.15	344.34	9.04	-43.3	-49.0	14.2	3.00e-06	0	37	0	11534336	58	6823
2026-01-23 02:29:07.14	344.02	9.10	-42.2	-46.6	16.6	0.00e+00	0	37	0	15728640	56	5808
2026-01-23 02:29:09.13	343.70	9.15	-42.9	-48.2	14.9	0.00e+00	0	37	0	18874368	56	6963
2026-01-23 02:29:11.15	343.37	9.21	-41.8	-46.3	16.7	0.00e+00	0	37	0	23068672	55	5929
2026-01-23 02:29:13.18	343.03	9.27	-42.0	-46.2	16.8	0.00e+00	0	37	0	27262976	55	5903
2026-01-23 02:29:15.17	342.71	9.32	-42.1	-46.1	16.9	0.00e+00	0	37	0	30408704	55	5806
2026-01-23 02:29:17.16	342.38	9.38	-42.2	-46.1	16.9	0.00e+00	0	37	0	34603008	55	5855
2026-01-23 02:29:19.15	342.05	9.43	-42.4	-46.5	16.6	0.00e+00	0	37	0	37748736	55	6062
2026-01-23 02:29:21.14	341.72	9.48	-42.5	-46.5	16.5	0.00e+00	0	37	0	41943040	55	6092
2026-01-23 02:29:23.12	341.38	9.53	-43.0	-46.6	16.7	0.00e+00	0	37	0	45088768	56	5811
2026-01-23 02:29:25.12	341.05	9.59	-43.0	-46.4	16.8	0.00e+00	0	37	0	49283072	56	5685
2026-01-23 02:29:27.19	340.70	9.64	-43.2	-46.3	16.9	0.00e+00	0	37	0	53477376	57	5308
2026-01-23 02:29:29.22	340.36	9.69	-43.3	-46.4	16.8	0.00e+00	0	37	0	56623104	57	5376
2026-01-23 02:29:31.23	340.02	9.74	-43.3	-46.5	16.7	0.00e+00	0	37	0	60817408	57	5446
2026-01-23 02:29:33.34	339.66	9.79	-43.4	-46.5	16.7	0.00e+00	0	37	0	65011712	57	5437
2026-01-23 02:29:35.37	339.31	9.84	-43.4	-46.4	16.9	0.00e+00	0	37	0	68157440	57	5345
2026-01-23 02:29:37.36	338.97	9.88	-43.4	-46.4	16.8	0.00e+00	0	37	0	72351744	57	5394
2026-01-23 02:29:39.35	338.63	9.93	-43.3	-46.6	16.7	0.00e+00	0	37	0	75497472	57	5470
2026-01-23 02:29:41.34	338.28	9.97	-43.2	-46.6	16.6	0.00e+00	0	37	0	79691776	57	5518
2026-01-23 02:29:43.33	337.94	10.01	-43.3	-46.6	16.6	0.00e+00	0	37	0	83886080	57	5527
2026-01-23 02:29:45.32	337.59	10.06	-43.4	-46.7	16.6	0.00e+00	0	37	0	87031808	57	5548
2026-01-23 02:29:47.40	337.23	10.10	-43.3	-46.7	16.6	0.00e+00	0	37	0	91226112	57	5529
2026-01-23 02:29:49.39	336.89	10.14	-43.2	-46.7	16.6	0.00e+00	0	37	0	94371840	57	5539
2026-01-23 02:29:51.52	336.51	10.18	-43.3	-46.9	16.3	0.00e+00	0	37	0	98566144	57	5686
2026-01-23 02:29:53.53	336.16	10.22	-43.5	-47.1	16.2	0.00e+00	0	37	0	102760448	57	5801
2026-01-23 02:29:55.52	335.81	10.26	-43.6	-47.0	16.2	0.00e+00	0	37	0	105906176	57	5787
2026-01-23 02:29:57.84	335.40	10.30	-43.8	-47.2	16.1	0.00e+00	0	37	0	110100480	58	5587
2026-01-23 02:30:00.02	335.01	10.34	-44.0	-47.3	15.9	0.00e+00	0	37	0	114294784	58	5649
2026-01-23 02:30:02.15	334.64	10.37	-44.2	-47.5	15.8	0.00e+00	0	37	0	118489088	59	5413
2026-01-23 02:30:04.14	334.28	10.41	-44.2	-47.5	15.8	0.00e+00	0	37	0	122683392	59	5427
2026-01-23 02:30:06.16	333.92	10.44	-44.0	-47.3	15.9	0.00e+00	0	37	0	125829120	59	5311
2026-01-23 02:30:08.16	333.57	10.47	-43.9	-47.1	16.1	0.00e+00	0	37	0	130023424	59	5213
2026-01-23 02:30:10.15	333.21	10.50	-44.0	-47.1	16.1	0.00e+00	0	37	0	134217728	59	5209
2026-01-23 02:30:12.46	332.79	10.53	-44.1	-47.3	16.0	0.00e+00	0	37	0	138412032	59	5300
2026-01-23 02:30:14.45	332.44	10.56	-43.9	-47.1	16.2	0.00e+00	0	37	0	141557760	59	5166
2026-01-23 02:30:16.45	332.08	10.59	-43.8	-46.9	16.3	0.00e+00	0	37	0	145752064	59	5086
2026-01-23 02:30:18.44	331.72	10.61	-43.7	-46.7	16.6	0.00e+00	0	37	0	148897792	59	4932
2026-01-23 02:30:20.43	331.36	10.64	-43.6	-46.5	16.6	0.00e+00	0	37	0	153092096	59	4868
2026-01-23 02:30:22.43	331.00	10.66	-43.5	-46.4	16.9	0.00e+00	0	37	0	156237824	58	5048
2026-01-23 02:30:24.44	330.63	10.68	-43.5	-46.4	16.9	0.00e+00	0	38	0	160432128	58	5077
2026-01-23 02:30:26.43	330.27	10.71	-43.5	-46.4	16.9	0.00e+00	0	37	0	164626432	58	5066
2026-01-23 02:30:28.73	329.85	10.73	-43.5	-46.4	16.8	0.00e+00	0	37	0	168820736	58	5069
2026-01-23 02:30:31.01	329.43	10.75	-43.6	-46.5	16.8	0.00e+00	0	37	0	173015040	58	5131
2026-01-23 02:30:33.28	329.02	10.77	-43.5	-46.5	16.7	0.00e+00	0	37	0	177209344	58	5131
2026-01-23 02:30:35.56	328.60	10.79	-43.5	-46.5	16.8	0.00e+00	0	37	0	181403648	58	5116
2026-01-23 02:30:37.83	328.19	10.81	-43.5	-46.5	16.8	0.00e+00	0	37	0	185597952	58	5128
2026-01-23 02:30:40.11	327.77	10.82	-43.4	-46.4	16.9	0.00e+00	0	37	0	189792256	58	5071
2026-01-23 02:30:42.38	327.35	10.84	-43.5	-46.4	16.8	0.00e+00	0	37	0	193986560	58	5081
2026-01-23 02:30:44.47	326.97	10.85	-43.3	-46.2	17.1	0.00e+00	0	37	0	198180864	58	4956
2026-01-23 02:30:46.46	326.60	10.86	-43.1	-46.0	17.2	0.00e+00	0	37	0	201326592	58	4858
2026-01-23 02:30:48.45	326.24	10.87	-42.9	-45.9	17.3	0.00e+00	0	38	0	205520896	57	5081
2026-01-23 02:30:50.44	325.87	10.88	-42.8	-45.9	17.3	0.00e+00	0	37	0	209715200	57	5058
2026-01-23 02:30:52.43	325.51	10.88	-42.8	-45.9	17.3	0.00e+00	0	37	0	212860928	57	5067
2026-01-23 02:30:54.44	325.14	10.89	-42.9	-45.9	17.3	0.00e+00	0	37	0	217055232	57	5090
2026-01-23 02:30:56.43	324.77	10.89	-42.8	-45.7	17.5	0.00e+00	0	37	0	220200960	57	4978
2026-01-23 02:30:58.63	324.36	10.90	-42.7	-45.7	17.6	0.00e+00	0	37	0	224395264	57	4943
2026-01-23 02:31:00.68	323.99	10.90	-42.7	-45.7	17.4	0.00e+00	0	37	0	228589568	57	4975
2026-01-23 02:31:02.73	323.61	10.90	-42.6	-45.6	17.6	0.00e+00	0	38	0	232783872	57	4923
2026-01-23 02:31:04.72	323.24	10.90	-42.6	-45.6	17.6	0.00e+00	0	37	0	235929600	57	4913
2026-01-23 02:31:06.84	322.85	10.90	-42.8	-45.6	17.6	0.00e+00	0	38	0	240123904	57	4898
2026-01-23 02:31:08.83	322.48	10.90	-43.1	-45.8	17.4	0.00e+00	0	38	0	243269632	57	5022
2026-01-23 02:31:10.82	322.12	10.89	-43.2	-46.0	17.3	0.00e+00	0	37	0	247463936	57	5102
2026-01-23 02:31:12.82	321.75	10.89	-43.2	-46.1	17.1	0.00e+00	0	37	0	251658240	57	5165
2026-01-23 02:31:14.82	321.38	10.88	-43.1	-46.0	17.2	0.00e+00	0	38	0	254803968	57	5147
2026-01-23 02:31:16.82	321.01	10.87	-43.1	-46.0	17.2	0.00e+00	0	38	0	258998272	57	5104
2026-01-23 02:31:19.10	320.59	10.87	-42.9	-45.6	17.6	0.00e+00	0	37	0	263192576	57	4919
2026-01-23 02:31:21.08	320.23	10.86	-42.8	-45.5	17.7	0.00e+00	0	38	0	266338304	57	4843
2026-01-23 02:31:23.10	319.86	10.84	-42.8	-45.6	17.5	0.00e+00	0	38	0	270532608	57	4892
2026-01-23 02:31:25.12	319.49	10.83	-42.9	-45.8	17.4	0.00e+00	0	37	0	274726912	57	5033
2026-01-23 02:31:27.12	319.12	10.82	-43.2	-46.1	17.0	0.00e+00	0	38	0	277872640	57	5218
2026-01-23 02:31:29.12	318.75	10.81	-43.4	-46.4	16.8	0.00e+00	0	38	0	282066944	57	5372
2026-01-23 02:31:31.10	318.39	10.79	-43.7	-46.7	16.6	0.00e+00	0	38	0	285212672	58	5240
2026-01-23 02:31:33.11	318.02	10.77	-43.9	-46.9	16.3	0.00e+00	0	38	0	289406976	58	5348
2026-01-23 02:31:35.11	317.66	10.76	-43.9	-46.9	16.2	0.00e+00	0	38	0	292552704	58	5397
2026-01-23 02:31:37.10	317.29	10.74	-43.9	-46.8	16.4	0.00e+00	0	38	0	296747008	58	5307
2026-01-23 02:31:39.11	316.93	10.72	-44.0	-47.0	16.2	0.00e+00	0	38	0	300941312	58	5409
2026-01-23 02:31:41.11	316.56	10.70	-44.0	-47.0	16.2	0.00e+00	0	38	0	304087040	58	5456
2026-01-23 02:31:43.11	316.20	10.68	-44.0	-47.1	16.2	0.00e+00	0	37	0	308281344	58	5480
2026-01-23 02:31:45.24	315.81	10.65	-44.0	-47.1	16.2	0.00e+00	0	37	0	312475648	58	5466
2026-01-23 02:31:47.23	315.45	10.63	-44.0	-47.1	16.2	0.00e+00	0	38	0	315621376	58	5467
2026-01-23 02:31:49.24	315.09	10.60	-44.0	-47.0	16.3	0.00e+00	0	38	0	319815680	58	5436
2026-01-23 02:31:51.24	314.73	10.58	-44.0	-46.9	16.2	0.00e+00	0	38	0	322961408	58	5400
2026-01-23 02:31:53.24	314.37	10.55	-44.0	-47.1	16.1	0.00e+00	0	38	0	327155712	58	5488
2026-01-23 02:31:55.23	314.01	10.52	-44.1	-47.2	16.0	0.00e+00	0	38	0	330301440	58	5582
2026-01-23 02:31:57.24	313.65	10.49	-44.3	-47.6	15.6	0.00e+00	0	38	0	334495744	59	5495
2026-01-23 02:31:59.24	313.29	10.46	-44.4	-47.8	15.4	0.00e+00	0	38	0	338690048	59	5648
2026-01-23 02:32:01.24	312.93	10.43	-44.3	-47.8	15.4	0.00e+00	0	38	0	341835776	59	5605
2026-01-23 02:32:03.23	312.58	10.40	-44.2	-47.5	15.6	0.00e+00	0	38	0	346030080	59	5461
2026-01-23 02:32:05.25	312.22	10.36	-44.1	-47.3	15.9	0.00e+00	0	38	0	349175808	59	5298
2026-01-23 02:32:07.24	311.86	10.33	-44.1	-47.3	15.9	0.00e+00	0	38	0	353370112	59	5298
2026-01-23 02:32:09.24	311.51	10.29	-44.1	-47.3	15.9	0.00e+00	0	38	0	356515840	59	5287
2026-01-23 02:32:11.23	311.16	10.26	-44.2	-47.4	15.8	0.00e+00	0	38	0	360710144	59	5371
2026-01-23 02:32:13.22	310.81	10.22	-44.2	-47.4	15.8	0.00e+00	0	38	0	364904448	59	5355
2026-01-23 02:32:15.23	310.45	10.18	-44.4	-47.6	15.6	0.00e+00	0	38	0	368050176	59	5474
2026-01-23 02:32:17.26	310.10	10.14	-44.4	-47.8	15.4	0.00e+00	0	38	0	372244480	59	5593
2026-01-23 02:32:19.25	309.75	10.10	-44.5	-47.9	15.2	0.00e+00	0	38	0	375390208	59	5707
2026-01-23 02:32:21.25	309.40	10.06	-44.5	-48.0	15.2	0.00e+00	0	38	0	379584512	59	5732
2026-01-23 02:32:23.21	309.06	10.02	-44.5	-47.9	15.2	0.00e+00	0	38	0	382730240	59	5678
2026-01-23 02:32:25.19	308.72	9.98	-44.4	-47.7	15.4	0.00e+00	0	38	0	386924544	59	5550
2026-01-23 02:32:27.18	308.37	9.93	-44.3	-47.5	15.6	0.00e+00	0	38	0	391118848	59	5448
2026-01-23 02:32:29.17	308.03	9.89	-44.3	-47.4	15.6	0.00e+00	0	38	0	394264576	59	5385
2026-01-23 02:32:31.24	307.67	9.84	-44.3	-47.5	15.6	0.00e+00	0	38	0	398458880	59	5441
2026-01-23 02:32:33.26	307.33	9.79	-44.5	-47.8	15.3	0.00e+00	0	38	0	401604608	59	5622
2026-01-23 02:32:35.25	306.99	9.74	-44.6	-48.0	15.2	0.00e+00	0	38	0	405798912	59	5730
2026-01-23 02:32:37.58	306.59	9.69	-44.5	-48.0	15.1	7.00e-07	0	38	0	409993216	60	5440
2026-01-23 02:32:39.58	306.25	9.64	-44.5	-47.9	15.2	0.00e+00	0	38	0	414187520	60	5398
2026-01-23 02:32:41.83	305.87	9.58	-44.5	-47.9	15.3	0.00e+00	0	38	0	418381824	60	5343
2026-01-23 02:32:43.82	305.54	9.53	-44.3	-47.5	15.7	0.00e+00	0	38	0	421527552	60	5141
2026-01-23 02:32:45.83	305.20	9.48	-44.3	-47.5	15.7	0.00e+00	0	38	0	425721856	60	5111
2026-01-23 02:32:47.82	304.87	9.42	-44.4	-47.7	15.4	0.00e+00	0	38	0	428867584	60	5223
2026-01-23 02:32:49.82	304.54	9.37	-44.5	-47.8	15.4	0.00e+00	0	38	0	433061888	60	5312
2026-01-23 02:32:51.82	304.21	9.32	-44.6	-48.0	15.1	0.00e+00	0	38	0	437256192	60	5419
2026-01-23 02:32:53.82	303.88	9.26	-44.7	-48.1	14.9	7.00e-07	0	38	0	440401920	60	5521
2026-01-23 02:32:55.81	303.55	9.20	-44.5	-47.9	15.3	0.00e+00	0	38	0	444596224	60	5344
2026-01-23 02:32:57.81	303.22	9.15	-44.4	-47.7	15.4	0.00e+00	0	38	0	447741952	60	5271
2026-01-23 02:32:59.82	302.89	9.09	-44.2	-47.4	15.7	0.00e+00	0	38	0	451936256	60	5065
2026-01-23 02:33:01.81	302.57	9.03	-44.1	-47.2	15.9	0.00e+00	0	38	0	456130560	60	4959
2026-01-23 02:33:03.81	302.25	8.97	-49.3	-64.5	3.8	1.45e+00	0	38	104	458227712	69	21585
2026-01-23 02:33:05.80	301.92	8.91	-49.7	-64.9	3.8	1.49e+00	0	38	104	458227712	69	22647
2026-01-23 02:33:07.82	301.60	8.85	-49.8	-65.0	3.8	1.49e+00	0	38	104	458227712	70	21622
2026-01-23 02:33:09.82	301.28	8.79	-49.7	-65.1	3.8	1.49e+00	0	38	104	458227712	70	21792
2026-01-23 02:33:11.83	300.96	8.73	-49.9	-65.1	3.8	1.49e+00	0	37	104	458227712	70	21857
2026-01-23 02:33:13.81	300.65	8.67	-49.8	-65.1	3.8	1.49e+00	0	38	104	458227712	70	21903
2026-01-23 02:33:15.81	300.33	8.60	-49.7	-65.1	3.8	1.49e+00	0	38	104	458227712	70	21874
2026-01-23 02:33:17.81	300.02	8.54	-49.7	-65.1	3.8	1.49e+00	0	38	104	458227712	70	21797
2026-01-23 02:33:19.80	299.71	8.47	-49.8	-65.1	3.8	1.49e+00	0	38	104	458227712	70	21815
2026-01-23 02:33:21.80	299.39	8.41	-49.7	-65.1	3.8	1.49e+00	0	38	104	458227712	70	21802
2026-01-23 02:33:23.79	299.09	8.34	-49.6	-65.0	3.8	1.49e+00	0	38	104	458227712	70	21598
2026-01-23 02:33:25.78	298.78	8.28	-49.6	-65.0	3.8	1.49e+00	0	38	104	458227712	70	21558
2026-01-23 02:33:27.78	298.47	8.21	-49.6	-65.0	3.8	1.49e+00	0	38	104	458227712	70	21552
2026-01-23 02:33:29.78	298.17	8.14	-49.6	-64.9	3.8	1.49e+00	0	38	104	458227712	70	21504
2026-01-23 02:33:31.77	297.86	8.07	-49.6	-65.0	3.8	1.49e+00	0	38	104	458227712	70	21559
2026-01-23 02:33:33.78	297.56	8.00	-49.6	-65.0	3.8	1.49e+00	0	38	104	458227712	70	21549
2026-01-23 02:33:35.79	297.26	7.93	-49.6	-64.9	3.8	1.49e+00	0	38	104	458227712	70	21435
2026-01-23 02:33:37.77	296.96	7.86	-49.6	-64.9	3.8	1.49e+00	0	38	104	458227712	70	21502
2026-01-23 02:33:39.78	296.66	7.79	-49.5	-64.9	3.8	1.49e+00	0	38	104	458227712	70	21409
2026-01-23 02:33:41.77	296.36	7.72	-49.5	-64.9	3.8	1.49e+00	0	38	104	458227712	70	21471
2026-01-23 02:33:43.75	296.07	7.65	-49.5	-64.9	3.8	1.49e+00	0	38	104	458227712	70	21384
2026-01-23 02:33:45.75	295.78	7.58	-49.5	-64.9	3.8	1.49e+00	0	38	104	458227712	70	21416
2026-01-23 02:33:47.76	295.48	7.51	-49.5	-64.9	3.8	1.49e+00	0	38	104	458227712	70	21357
2026-01-23 02:33:49.74	295.20	7.43	-49.5	-64.9	3.8	1.49e+00	0	38	104	458227712	70	21421
2026-01-23 02:33:51.74	294.91	7.36	-49.5	-64.9	3.8	1.49e+00	0	38	104	458227712	70	21414
2026-01-23 02:33:53.73	294.62	7.29	-49.5	-64.9	3.8	1.49e+00	0	38	104	458227712	70	21317
2026-01-23 02:33:55.72	294.33	7.21	-49.5	-64.9	3.8	1.49e+00	0	38	104	458227712	70	21447
2026-01-23 02:33:57.70	294.05	7.14	-49.5	-64.9	3.8	1.49e+00	0	38	104	458227712	70	21381
2026-01-23 02:33:59.69	293.77	7.06	-49.5	-64.9	3.8	1.49e+00	0	38	104	458227712	70	21401
2026-01-23 02:34:01.68	293.49	6.99	-49.5	-64.9	3.8	1.49e+00	0	38	104	458227712	70	21428
2026-01-23 02:34:03.68	293.21	6.91	-49.5	-64.9	3.8	1.49e+00	0	38	104	458227712	70	21317
2026-01-23 02:34:05.68	292.93	6.84	-49.5	-64.9	3.8	1.49e+00	0	38	104	458227712	70	21347
2026-01-23 02:34:07.67	292.65	6.76	-49.5	-64.9	3.8	1.49e+00	0	38	104	458227712	70	21333
2026-01-23 02:34:09.66	292.38	6.68	-49.5	-64.9	3.8	1.49e+00	0	38	104	458227712	70	21387
2026-01-23 02:34:11.64	292.10	6.60	-49.5	-64.9	3.8	1.49e+00	0	38	104	458227712	70	21358
2026-01-23 02:34:13.63	291.83	6.53	-49.5	-64.9	3.8	1.49e+00	0	38	104	458227712	70	21368
2026-01-23 02:34:15.62	291.56	6.45	-49.5	-64.9	3.8	1.49e+00	0	38	104	458227712	70	21349
2026-01-23 02:34:17.61	291.29	6.37	-49.5	-64.9	3.8	1.49e+00	0	38	104	458227712	70	21311
2026-01-23 02:34:19.59	291.03	6.29	-49.5	-64.9	3.8	1.49e+00	0	38	104	458227712	70	21349
2026-01-23 02:34:21.61	290.76	6.21	-49.5	-64.9	3.8	1.49e+00	0	38	104	458227712	70	21352
2026-01-23 02:34:23.59	290.49	6.13	-49.5	-64.9	3.8	1.49e+00	0	38	104	458227712	70	21311
2026-01-23 02:34:25.60	290.23	6.05	-49.5	-64.9	3.8	1.49e+00	0	38	104	458227712	70	21397
2026-01-23 02:34:27.58	289.97	5.97	-49.5	-64.9	3.8	1.49e+00	0	38	104	458227712	70	21379
2026-01-23 02:34:29.57	289.71	5.89	-49.5	-64.9	3.8	1.49e+00	0	38	104	458227712	70	21371
2026-01-23 02:34:31.56	289.45	5.81	-49.5	-64.9	3.8	1.49e+00	0	38	104	458227712	70	21396
2026-01-23 02:34:33.55	289.19	5.73	-49.5	-64.9	3.8	1.49e+00	0	38	104	458227712	70	21366
2026-01-23 02:34:35.53	288.94	5.65	-49.5	-64.9	3.8	1.49e+00	0	38	104	458227712	70	21291
2026-01-23 02:34:37.52	288.68	5.57	-49.5	-64.9	3.8	1.49e+00	0	38	104	458227712	70	21357
2026-01-23 02:34:39.51	288.43	5.48	-49.5	-64.9	3.8	1.49e+00	0	38	104	458227712	70	21329
2026-01-23 02:34:41.49	288.18	5.40	-49.5	-64.9	3.8	1.49e+00	0	38	104	458227712	70	21334
2026-01-23 02:34:43.51	287.93	5.32	-49.5	-64.8	3.8	1.49e+00	0	38	104	458227712	70	21229
2026-01-23 02:34:45.50	287.68	5.24	-49.5	-64.9	3.8	1.49e+00	0	38	104	458227712	70	21345
2026-01-23 02:34:47.48	287.43	5.15	-49.5	-64.9	3.8	1.49e+00	0	38	104	458227712	70	21327
2026-01-23 02:34:49.47	287.18	5.07	-49.5	-64.9	3.8	1.49e+00	0	38	104	458227712	70	21362
2026-01-23 02:34:51.46	286.94	4.99	-49.5	-64.9	3.8	1.49e+00	0	38	104	458227712	70	21323

#Closed at: 2026-01-23 02:34:52
#Recorded file [458 MB]: D:/Data/31040_260123_052715.dat