passes_logs/2026/01/23/T1/T1__20260123_143717_FENGYUN_3E_rec.log

#Pass ID: 20260123_143717_FENGYUN 3E
#Satellite: FENGYUN 3E
#Configuration: FENGYUN 3E
#almurnet v.1.7.20251203
#Start time: 2026-01-23 14:37:18

#Version: 2.0.20230620
#Station: T1
#Location: 37.570604 lon 55.790049 lat
#TLE: 1 49008U 21062A   26022.96857035  .00000014  00000+0  27449-4 0  9991
#TLE: 2 49008  98.7488  28.0032 0002359 122.8887 237.2516 14.19886951235971

#Time	Az	El	Level	Level2	SNR	BER	BlckErr	Temp	State	Recorded	gain1	gain2
2026-01-23 14:37:18.12	173.24	5.05	-48.3	-59.7	3.8	8.47e-01	0	35	0	0	67	12980
2026-01-23 14:37:22.09	173.34	5.33	-43.8	-59.4	3.8	8.47e-01	0	36	104	0	57	22498
2026-01-23 14:37:26.06	173.44	5.62	-43.9	-59.5	3.8	8.47e-01	0	36	104	0	57	22609
2026-01-23 14:37:30.03	173.54	5.91	-43.9	-59.3	3.8	8.47e-01	0	36	104	0	57	22195
2026-01-23 14:37:34.00	173.64	6.20	-43.9	-59.2	3.8	8.47e-01	0	36	104	0	57	21993
2026-01-23 14:37:37.97	173.74	6.49	-44.0	-59.5	3.8	8.47e-01	0	36	104	0	57	22745
2026-01-23 14:37:41.95	173.85	6.80	-43.8	-57.9	3.8	8.47e-01	0	36	104	0	57	18820
2026-01-23 14:37:45.92	173.96	7.10	-43.6	-55.0	4.5	8.23e-01	0	36	0	0	57	13511
2026-01-23 14:37:49.89	174.07	7.40	-43.2	-51.4	6.9	1.90e-01	0	36	0	9437184	57	8921
2026-01-23 14:37:53.87	174.18	7.72	-41.5	-46.1	12.1	5.21e-04	0	37	0	38797312	53	6110
2026-01-23 14:37:57.84	174.30	8.03	-40.0	-43.3	15.0	0.00e+00	0	37	0	67108864	50	5266
2026-01-23 14:38:01.81	174.42	8.35	-40.0	-43.3	15.0	0.00e+00	0	37	0	95420416	50	5242
2026-01-23 14:38:05.78	174.54	8.67	-41.6	-46.4	11.8	2.53e-04	0	37	0	123731968	52	6674
2026-01-23 14:38:09.76	174.66	9.00	-43.5	-53.4	5.4	7.08e-01	0	37	0	150994944	56	11915
2026-01-23 14:38:13.73	174.78	9.33	-39.6	-41.8	16.4	3.20e-05	0	37	0	161480704	50	4406
2026-01-23 14:38:17.71	174.91	9.66	-37.5	-39.1	18.8	0.00e+00	0	37	0	184549376	45	4320
2026-01-23 14:38:21.69	175.04	10.00	-37.3	-39.0	18.9	0.00e+00	0	37	0	212860928	45	4266
2026-01-23 14:38:25.68	175.17	10.35	-36.7	-38.4	19.4	0.00e+00	0	37	0	242221056	44	4236
2026-01-23 14:38:29.65	175.31	10.69	-36.7	-38.5	19.4	0.00e+00	0	37	0	270532608	44	4268
2026-01-23 14:38:33.63	175.45	11.05	-36.8	-38.5	19.4	0.00e+00	0	37	0	298844160	44	4261
2026-01-23 14:38:37.61	175.59	11.41	-36.5	-38.0	19.7	0.00e+00	0	37	0	328204288	43	4268
2026-01-23 14:38:41.59	175.74	11.77	-36.6	-38.1	19.6	0.00e+00	0	37	0	356515840	43	4309
2026-01-23 14:38:45.57	175.89	12.14	-36.3	-37.7	19.9	0.00e+00	0	37	0	385875968	43	4138
2026-01-23 14:38:49.55	176.04	12.52	-36.2	-37.6	20.1	0.00e+00	0	37	0	414187520	43	4053
2026-01-23 14:38:53.53	176.19	12.90	-36.0	-37.3	20.3	0.00e+00	0	38	0	442499072	42	4192
2026-01-23 14:38:57.51	176.35	13.29	-35.9	-37.3	20.4	0.00e+00	0	38	0	471859200	42	4146
2026-01-23 14:39:01.49	176.52	13.68	-35.6	-37.0	20.7	0.00e+00	0	38	0	500170752	41	4249
2026-01-23 14:39:05.47	176.69	14.08	-35.5	-36.9	20.8	0.00e+00	0	37	0	529530880	41	4194
2026-01-23 14:39:09.46	176.86	14.49	-35.4	-36.8	20.9	0.00e+00	0	38	0	557842432	41	4150
2026-01-23 14:39:13.44	177.04	14.90	-35.3	-36.7	20.9	0.00e+00	0	38	0	586153984	41	4099
2026-01-23 14:39:17.42	177.22	15.32	-35.4	-36.8	20.8	0.00e+00	0	38	0	615514112	41	4146
2026-01-23 14:39:21.39	177.40	15.74	-35.2	-36.6	20.9	0.00e+00	0	38	0	643825664	41	4055
2026-01-23 14:39:25.37	177.59	16.18	-35.2	-36.6	20.9	0.00e+00	0	38	0	673185792	40	4316
2026-01-23 14:39:29.35	177.79	16.62	-35.2	-36.6	20.8	0.00e+00	0	38	0	701497344	40	4335
2026-01-23 14:39:33.33	177.99	17.07	-35.0	-36.4	21.0	0.00e+00	0	38	0	729808896	40	4237
2026-01-23 14:39:37.31	178.20	17.53	-34.9	-36.4	21.0	0.00e+00	0	38	0	759169024	40	4224
2026-01-23 14:39:41.28	178.41	17.99	-34.9	-36.3	15.3	0.00e+00	0	38	0	787480576	40	4175
2026-01-23 14:39:45.26	178.63	18.46	-34.8	-36.2	21.2	0.00e+00	0	38	0	815792128	39	4369
2026-01-23 14:39:49.25	178.86	18.95	-34.8	-36.2	21.1	0.00e+00	0	38	0	845152256	39	4365
2026-01-23 14:39:53.23	179.10	19.44	-34.3	-35.7	21.6	0.00e+00	0	38	0	873463808	39	4122
2026-01-23 14:39:57.20	179.34	19.94	-34.3	-35.6	21.6	0.00e+00	0	38	0	902823936	39	4079
2026-01-23 14:40:01.18	179.58	20.46	-34.2	-35.6	21.7	0.00e+00	0	38	0	931135488	38	4302
2026-01-23 14:40:05.16	179.84	20.98	-34.4	-35.8	21.5	0.00e+00	0	38	0	959447040	38	4398
2026-01-23 14:40:09.14	180.11	21.51	-34.4	-35.8	21.5	0.00e+00	0	38	0	988807168	38	4429
2026-01-23 14:40:13.12	180.38	22.05	-34.5	-36.0	21.3	0.00e+00	0	38	0	1017118720	38	4508
2026-01-23 14:40:17.10	180.67	22.61	-34.4	-35.8	21.5	0.00e+00	0	38	0	1046478848	38	4429
2026-01-23 14:40:21.08	180.96	23.18	-34.1	-35.4	21.9	0.00e+00	0	38	0	1074790400	38	4233
2026-01-23 14:40:25.06	181.26	23.75	-34.1	-35.4	21.9	0.00e+00	0	38	0	1103101952	38	4242
2026-01-23 14:40:29.03	181.58	24.34	-34.0	-35.3	22.1	0.00e+00	0	38	0	1132462080	38	4164
2026-01-23 14:40:33.01	181.90	24.95	-33.9	-35.2	22.1	0.00e+00	0	38	0	1160773632	38	4116
2026-01-23 14:40:36.99	182.24	25.56	-33.9	-35.2	22.1	0.00e+00	0	38	0	1190133760	38	4111
2026-01-23 14:40:40.97	182.59	26.19	-33.9	-35.3	22.0	0.00e+00	0	38	0	1218445312	38	4169
2026-01-23 14:40:44.96	182.96	26.84	-33.9	-35.2	22.0	0.00e+00	0	38	0	1246756864	38	4130
2026-01-23 14:40:48.94	183.34	27.50	-33.5	-34.8	22.3	0.00e+00	0	38	0	1276116992	37	4189
2026-01-23 14:40:52.92	183.74	28.17	-33.3	-34.6	22.4	0.00e+00	0	38	0	1304428544	37	4098
2026-01-23 14:40:56.90	184.15	28.86	-33.3	-34.6	22.4	0.00e+00	0	38	0	1333788672	37	4098
2026-01-23 14:41:00.88	184.58	29.56	-33.3	-34.6	22.6	0.00e+00	0	38	0	1362100224	36	4303
2026-01-23 14:41:04.86	185.03	30.29	-33.2	-34.4	22.8	0.00e+00	0	38	0	1390411776	36	4228
2026-01-23 14:41:08.84	185.50	31.02	-33.4	-34.6	22.6	0.00e+00	0	38	0	1419771904	36	4321
2026-01-23 14:41:12.81	185.99	31.78	-33.5	-34.7	22.5	0.00e+00	0	38	0	1448083456	36	4385
2026-01-23 14:41:16.80	186.50	32.55	-33.5	-34.8	22.5	0.00e+00	0	38	0	1477443584	36	4400
2026-01-23 14:41:20.78	187.04	33.34	-33.7	-35.0	22.3	0.00e+00	0	38	0	1505755136	37	4245
2026-01-23 14:41:24.76	187.61	34.15	-33.7	-35.0	22.2	0.00e+00	0	38	0	1534066688	37	4274
2026-01-23 14:41:28.74	188.20	34.97	-33.4	-34.8	22.5	0.00e+00	0	38	0	1563426816	37	4151
2026-01-23 14:41:32.72	188.82	35.82	-33.5	-34.8	22.5	0.00e+00	0	38	0	1591738368	36	4418
2026-01-23 14:41:36.69	189.48	36.68	-33.4	-34.6	22.7	0.00e+00	0	38	0	1621098496	36	4335
2026-01-23 14:41:40.68	190.17	37.56	-33.5	-34.8	22.5	0.00e+00	0	38	0	1649410048	37	4172
2026-01-23 14:41:44.66	190.90	38.47	-33.6	-34.9	22.3	0.00e+00	0	38	0	1677721600	37	4225
2026-01-23 14:41:48.63	191.67	39.39	-33.8	-35.1	22.1	0.00e+00	0	38	0	1707081728	37	4320
2026-01-23 14:41:52.61	192.48	40.33	-33.9	-35.2	22.1	0.00e+00	0	38	0	1735393280	37	4362
2026-01-23 14:41:56.60	193.35	41.29	-33.6	-34.9	22.5	0.00e+00	0	38	0	1764753408	38	3969
2026-01-23 14:42:00.58	194.26	42.26	-33.9	-35.1	22.4	0.00e+00	0	38	0	1793064960	38	4096
2026-01-23 14:42:04.56	195.23	43.26	-34.0	-35.3	22.2	0.00e+00	0	38	0	1821376512	38	4183
2026-01-23 14:42:08.54	196.27	44.27	-34.2	-35.5	22.0	0.00e+00	0	38	0	1850736640	38	4263
2026-01-23 14:42:12.52	197.37	45.30	-34.2	-35.5	22.1	0.00e+00	0	38	0	1879048192	38	4263
2026-01-23 14:42:16.49	198.54	46.34	-34.9	-35.8	22.6	0.00e+00	0	38	0	1908408320	39	4175
2026-01-23 14:42:20.47	199.79	47.39	-35.1	-36.0	22.3	0.00e+00	0	38	0	1936719872	40	4030
2026-01-23 14:42:24.45	201.13	48.46	-35.2	-36.0	22.3	0.00e+00	0	38	0	1965031424	40	4051
2026-01-23 14:42:28.43	202.57	49.54	-35.2	-36.0	22.3	0.00e+00	0	38	0	1994391552	40	4039
2026-01-23 14:42:32.41	204.11	50.62	-35.6	-36.5	22.0	0.00e+00	0	38	0	2022703104	40	4243
2026-01-23 14:42:36.38	205.76	51.70	-35.9	-36.8	21.6	0.00e+00	0	38	0	2052063232	41	4149
2026-01-23 14:42:40.36	207.53	52.78	-35.7	-36.6	21.8	0.00e+00	0	38	0	2080374784	41	4068
2026-01-23 14:42:44.34	209.44	53.85	-35.7	-36.6	21.8	0.00e+00	0	38	0	2108686336	41	4058
2026-01-23 14:42:48.32	211.50	54.92	-35.4	-36.3	22.1	0.00e+00	0	38	0	2136997888	41	3948
2026-01-23 14:42:52.30	213.71	55.96	-35.4	-36.3	22.1	0.00e+00	0	38	0	2166358016	41	3931
2026-01-23 14:42:56.27	216.08	56.98	-34.8	-35.7	22.7	0.00e+00	0	38	0	2195718144	40	3875
2026-01-23 14:43:00.25	218.64	57.97	-35.3	-36.2	22.1	0.00e+00	0	38	0	2224029696	40	4143
2026-01-23 14:43:04.23	221.39	58.92	-35.5	-36.4	22.0	0.00e+00	0	38	0	2252341248	40	4208
2026-01-23 14:43:08.21	224.34	59.82	-35.6	-36.5	21.8	0.00e+00	0	38	0	2280652800	40	4281
2026-01-23 14:43:12.19	227.49	60.66	-35.2	-36.1	22.3	0.00e+00	0	38	0	2310012928	40	4062
2026-01-23 14:43:16.17	230.85	61.42	-34.9	-35.8	22.6	0.00e+00	0	38	0	2339373056	40	3925
2026-01-23 14:43:20.15	234.41	62.11	-35.0	-35.9	22.5	0.00e+00	0	38	0	2367684608	39	4209
2026-01-23 14:43:24.13	238.16	62.70	-34.6	-35.4	22.9	0.00e+00	0	38	0	2395996160	39	3992
2026-01-23 14:43:28.12	242.09	63.19	-34.8	-35.6	22.8	0.00e+00	0	38	0	2424307712	39	4079
2026-01-23 14:43:32.09	246.14	63.57	-34.4	-35.3	23.1	0.00e+00	0	38	0	2453667840	39	3914
2026-01-23 14:43:36.07	250.31	63.83	-34.4	-35.2	23.1	0.00e+00	0	38	0	2483027968	39	3902
2026-01-23 14:43:40.05	254.56	63.96	-34.6	-35.4	22.9	0.00e+00	0	38	0	2511339520	39	3997
2026-01-23 14:43:44.03	258.83	63.97	-34.3	-35.1	23.1	0.00e+00	0	38	0	2539651072	39	3868
2026-01-23 14:43:48.01	263.08	63.85	-34.7	-35.5	22.8	0.00e+00	0	38	0	2567962624	39	4037
2026-01-23 14:43:51.99	267.27	63.61	-35.0	-35.9	22.5	0.00e+00	0	38	0	2597322752	39	4215
2026-01-23 14:43:55.97	271.35	63.25	-34.9	-35.8	22.7	0.00e+00	0	38	0	2626682880	39	4157
2026-01-23 14:43:59.95	275.28	62.77	-35.0	-35.8	22.6	0.00e+00	0	38	0	2654994432	39	4188
2026-01-23 14:44:03.93	279.05	62.19	-35.3	-36.2	22.1	0.00e+00	0	38	0	2683305984	40	4121
2026-01-23 14:44:07.90	282.62	61.52	-34.9	-35.8	22.6	0.00e+00	0	38	0	2711617536	40	3930
2026-01-23 14:44:11.88	286.00	60.76	-34.9	-35.8	22.5	0.00e+00	0	38	0	2740977664	40	3922
2026-01-23 14:44:15.86	289.17	59.94	-35.4	-36.2	22.1	0.00e+00	0	38	0	2769289216	40	4138
2026-01-23 14:44:19.84	292.14	59.05	-35.4	-36.3	22.0	0.00e+00	0	39	0	2798649344	41	3943
2026-01-23 14:44:23.82	294.92	58.11	-35.4	-36.2	22.2	0.00e+00	0	38	0	2826960896	41	3910
2026-01-23 14:44:27.81	297.50	57.13	-35.6	-36.5	21.9	0.00e+00	0	38	0	2855272448	41	4018
2026-01-23 14:44:31.79	299.90	56.11	-35.7	-36.5	21.8	0.00e+00	0	38	0	2884632576	41	4047
2026-01-23 14:44:35.77	302.13	55.07	-35.4	-36.2	22.1	0.00e+00	0	38	0	2913992704	41	3899
2026-01-23 14:44:39.75	304.20	54.01	-35.6	-36.5	22.0	0.00e+00	0	38	0	2942304256	41	4005
2026-01-23 14:44:43.73	306.13	52.94	-35.9	-36.8	21.5	0.00e+00	0	38	0	2970615808	41	4168
2026-01-23 14:44:47.71	307.92	51.87	-35.8	-36.7	21.8	0.00e+00	0	38	0	2998927360	41	4102
2026-01-23 14:44:51.69	309.58	50.79	-35.6	-36.5	21.8	0.00e+00	0	38	0	3028287488	41	4029
2026-01-23 14:44:55.67	311.14	49.71	-35.1	-36.0	22.3	0.00e+00	0	38	0	3057647616	41	3788
2026-01-23 14:44:59.65	312.58	48.64	-35.5	-36.3	22.0	0.00e+00	0	38	0	3085959168	41	3948
2026-01-23 14:45:03.63	313.93	47.57	-35.0	-35.8	22.5	0.00e+00	0	38	0	3114270720	40	3944
2026-01-23 14:45:07.61	315.20	46.52	-34.4	-35.2	23.1	0.00e+00	0	38	0	3142582272	39	3887
2026-01-23 14:45:11.59	316.38	45.48	-34.1	-34.9	23.3	0.00e+00	0	38	0	3171942400	38	4000
2026-01-23 14:45:15.56	317.48	44.46	-34.2	-35.0	23.0	0.00e+00	0	38	0	3200253952	38	4027
2026-01-23 14:45:19.54	318.53	43.45	-34.2	-35.0	23.3	0.00e+00	0	38	0	3229614080	38	4024
2026-01-23 14:45:23.52	319.50	42.46	-34.0	-34.9	23.3	0.00e+00	0	38	0	3257925632	38	3962
2026-01-23 14:45:27.50	320.43	41.48	-33.9	-34.7	23.4	0.00e+00	0	38	0	3286237184	38	3897
2026-01-23 14:45:31.48	321.30	40.52	-34.4	-35.3	23.0	0.00e+00	0	38	0	3315597312	38	4158
2026-01-23 14:45:35.46	322.12	39.58	-34.1	-35.0	23.3	0.00e+00	0	38	0	3343908864	38	4019
2026-01-23 14:45:39.44	322.89	38.67	-33.9	-34.8	23.4	0.00e+00	0	38	0	3373268992	38	3916
2026-01-23 14:45:43.42	323.63	37.76	-34.0	-34.8	23.4	0.00e+00	0	38	0	3401580544	38	3956
2026-01-23 14:45:47.39	324.32	36.89	-34.1	-35.0	23.2	0.00e+00	0	38	0	3429892096	38	4027
2026-01-23 14:45:51.37	324.98	36.02	-34.1	-35.0	23.3	0.00e+00	0	38	0	3459252224	38	4005
2026-01-23 14:45:55.35	325.61	35.18	-33.8	-34.6	23.5	0.00e+00	0	38	0	3487563776	38	3863
2026-01-23 14:45:59.33	326.21	34.35	-33.6	-34.4	23.7	0.00e+00	0	38	0	3516923904	37	3990
2026-01-23 14:46:03.28	326.77	33.55	-33.6	-34.4	23.7	0.00e+00	0	38	0	3545235456	37	4003
2026-01-23 14:46:07.25	327.31	32.77	-34.0	-34.8	23.2	0.00e+00	0	38	0	3573547008	37	4174
2026-01-23 14:46:11.23	327.83	32.00	-33.9	-34.8	23.4	0.00e+00	0	38	0	3602907136	37	4150
2026-01-23 14:46:15.21	328.33	31.24	-33.9	-34.7	23.5	0.00e+00	0	38	0	3631218688	37	4118
2026-01-23 14:46:19.20	328.80	30.50	-33.7	-34.5	23.5	0.00e+00	0	38	0	3659530240	37	4048
2026-01-23 14:46:23.18	329.26	29.78	-33.8	-34.7	23.4	0.00e+00	0	38	0	3688890368	37	4131
2026-01-23 14:46:27.15	329.69	29.08	-34.1	-35.0	23.2	0.00e+00	0	38	0	3717201920	37	4246
2026-01-23 14:46:31.14	330.11	28.39	-34.3	-35.1	23.1	0.00e+00	0	38	0	3746562048	38	4091
2026-01-23 14:46:35.12	330.51	27.72	-34.3	-35.1	23.0	0.00e+00	0	38	0	3774873600	38	4092
2026-01-23 14:46:39.10	330.89	27.06	-34.1	-35.0	23.1	0.00e+00	0	38	0	3803185152	38	4040
2026-01-23 14:46:43.09	331.26	26.41	-34.0	-34.9	23.3	0.00e+00	0	38	0	3832545280	38	3981
2026-01-23 14:46:47.06	331.62	25.79	-33.9	-34.7	23.1	0.00e+00	0	38	0	3860856832	38	3912
2026-01-23 14:46:51.04	331.96	25.17	-34.1	-34.9	23.2	0.00e+00	0	38	0	3890216960	38	3981
2026-01-23 14:46:55.02	332.29	24.57	-34.2	-35.1	23.1	0.00e+00	0	38	0	3918528512	38	4055
2026-01-23 14:46:59.00	332.61	23.98	-34.3	-35.1	23.0	0.00e+00	0	38	0	3946840064	38	4080
2026-01-23 14:47:02.98	332.92	23.40	-34.2	-35.1	23.1	0.00e+00	0	38	0	3976200192	38	4068
2026-01-23 14:47:06.96	333.21	22.83	-34.3	-35.2	22.9	0.00e+00	0	38	0	4004511744	38	4104
2026-01-23 14:47:10.95	333.50	22.28	-34.4	-35.2	22.9	0.00e+00	0	38	0	4033871872	38	4145
2026-01-23 14:47:14.92	333.78	21.74	-34.6	-35.5	22.7	0.00e+00	0	38	0	4062183424	38	4250
2026-01-23 14:47:18.90	334.05	21.20	-34.7	-35.5	22.6	0.00e+00	0	38	0	4090494976	38	4290
2026-01-23 14:47:22.88	334.31	20.68	-34.8	-35.7	22.5	0.00e+00	0	38	0	4119855104	39	4102
2026-01-23 14:47:26.86	334.56	20.17	-34.9	-35.9	22.3	0.00e+00	0	38	0	4148166656	39	4206
2026-01-23 14:47:30.84	334.81	19.67	-35.1	-36.0	22.1	0.00e+00	0	38	0	4177526784	39	4282
2026-01-23 14:47:34.81	335.04	19.18	-35.1	-36.0	22.0	0.00e+00	0	38	0	4205838336	40	4048
2026-01-23 14:47:38.79	335.27	18.69	-35.2	-36.1	22.0	0.00e+00	0	38	0	4234149888	40	4066
2026-01-23 14:47:42.77	335.50	18.22	-35.2	-36.1	21.9	0.00e+00	0	38	0	4263510016	40	4098
2026-01-23 14:47:46.75	335.72	17.75	-35.3	-36.2	21.9	0.00e+00	0	38	0	4291821568	40	4118
2026-01-23 14:47:50.73	335.93	17.30	-35.5	-36.4	21.7	0.00e+00	0	38	0	4321181696	40	4207
2026-01-23 14:47:54.71	336.13	16.85	-35.5	-36.4	21.7	0.00e+00	0	38	0	4349493248	40	4233
2026-01-23 14:47:58.69	336.33	16.41	-35.6	-36.5	21.6	0.00e+00	0	38	0	4377804800	40	4285
2026-01-23 14:48:02.67	336.53	15.97	-35.6	-36.5	21.6	0.00e+00	0	38	0	4407164928	40	4275
2026-01-23 14:48:06.65	336.72	15.55	-35.7	-36.6	21.5	0.00e+00	0	38	0	4435476480	40	4336
2026-01-23 14:48:10.61	336.90	15.13	-35.8	-36.7	21.4	0.00e+00	0	38	0	4464836608	41	4131
2026-01-23 14:48:14.59	337.08	14.72	-36.0	-37.0	21.1	0.00e+00	0	38	0	4493148160	41	4266
2026-01-23 14:48:18.56	337.26	14.31	-36.0	-37.0	21.1	0.00e+00	0	38	0	4521459712	41	4270
2026-01-23 14:48:22.54	337.43	13.92	-36.1	-37.1	21.0	0.00e+00	0	38	0	4549771264	41	4336
2026-01-23 14:48:26.52	337.60	13.52	-36.3	-37.3	20.8	0.00e+00	0	38	0	4579131392	42	4176
2026-01-23 14:48:30.49	337.76	13.14	-36.3	-37.4	20.7	0.00e+00	0	38	0	4607442944	42	4204
2026-01-23 14:48:34.47	337.92	12.76	-36.3	-37.4	20.7	0.00e+00	0	38	0	4636803072	42	4232
2026-01-23 14:48:38.45	338.08	12.38	-36.4	-37.6	20.5	0.00e+00	0	38	0	4665114624	42	4304
2026-01-23 14:48:42.43	338.23	12.01	-36.5	-37.6	20.4	0.00e+00	0	38	0	4693426176	42	4304
2026-01-23 14:48:46.40	338.38	11.65	-36.7	-37.7	20.3	0.00e+00	0	38	0	4722786304	42	4380
2026-01-23 14:48:50.38	338.53	11.29	-36.8	-37.9	20.2	0.00e+00	0	38	0	4751097856	43	4200
2026-01-23 14:48:54.36	338.67	10.94	-36.9	-38.0	20.1	0.00e+00	0	38	0	4780457984	43	4263
2026-01-23 14:48:58.34	338.81	10.59	-37.0	-38.1	19.9	0.00e+00	0	38	0	4808769536	43	4322
2026-01-23 14:49:02.32	338.95	10.24	-37.2	-38.3	19.7	0.00e+00	0	38	0	4837081088	43	4411
2026-01-23 14:49:06.30	339.09	9.90	-37.5	-38.6	19.6	0.00e+00	0	38	0	4866441216	44	4311
2026-01-23 14:49:10.27	339.22	9.57	-37.6	-38.7	19.5	0.00e+00	0	38	0	4894752768	44	4381
2026-01-23 14:49:14.25	339.35	9.24	-37.8	-38.9	19.2	0.00e+00	0	38	0	4924112896	45	4230
2026-01-23 14:49:18.23	339.47	8.91	-46.9	-59.1	3.8	2.57e-01	0	38	104	4950327296	64	14463
2026-01-23 14:49:22.20	339.60	8.59	-48.0	-60.0	3.8	8.48e-01	0	38	104	4950327296	66	14323
2026-01-23 14:49:26.17	339.72	8.27	-49.3	-60.4	3.8	8.47e-01	0	38	104	4950327296	68	13287
2026-01-23 14:49:30.14	339.84	7.96	-49.6	-60.4	3.8	8.47e-01	0	38	104	4950327296	68	13288
2026-01-23 14:49:34.11	339.96	7.65	-49.6	-60.4	3.8	8.48e-01	0	38	104	4950327296	69	12602
2026-01-23 14:49:38.09	340.07	7.34	-49.7	-60.4	3.8	8.47e-01	0	38	104	4950327296	69	12586
2026-01-23 14:49:42.06	340.19	7.04	-49.4	-60.4	3.8	8.48e-01	0	38	104	4950327296	69	12578
2026-01-23 14:49:46.03	340.30	6.74	-49.4	-60.3	3.8	8.46e-01	0	39	104	4950327296	69	12398
2026-01-23 14:49:50.00	340.41	6.45	-49.3	-60.3	3.8	8.47e-01	0	38	104	4950327296	69	12457
2026-01-23 14:49:53.97	340.52	6.15	-49.3	-60.3	3.8	8.47e-01	0	38	104	4950327296	69	12443
2026-01-23 14:49:57.95	340.62	5.86	-49.3	-60.3	3.8	8.47e-01	0	39	104	4950327296	69	12385
2026-01-23 14:50:01.92	340.73	5.58	-49.3	-60.3	3.8	8.47e-01	0	38	104	4950327296	69	12437
2026-01-23 14:50:05.89	340.83	5.29	-49.3	-60.2	3.8	8.47e-01	0	38	104	4950327296	69	12342
2026-01-23 14:50:09.86	340.93	5.01	-49.3	-60.2	3.8	8.49e-01	0	38	104	4950327296	69	12364

#Closed at: 2026-01-23 14:50:10
#Recorded file [4950 MB]: D:/Data/31040_260123_173718.dat