passes_logs/2026/01/23/T1/T1__20260123_084515_KHAYYAM_rec.log

#Pass ID: 20260123_084515_KHAYYAM
#Satellite: KHAYYAM
#Configuration: KHAYYAM_480M
#almurnet v.1.7.20251203
#Start time: 2026-01-23 08:45:16

#Version: 2.0.20230620
#Station: T1
#Location: 37.570604 lon 55.790049 lat
#TLE: 1 53370U 22096A   26022.50444257  .00007758  00000+0  31649-3 0  9992
#TLE: 2 53370  97.3554 289.3799 0001875 107.2390 252.9053 15.24700694192380

#Time	Az	El	Level	Level2	SNR	BER	BlckErr	Temp	State	Recorded	gain1	gain2
2026-01-23 08:45:16.67	199.49	5.11	-50.1	-55.0	3.3	0.00e+00	0	40	0	0	71	25762
2026-01-23 08:45:19.66	199.78	5.33	-50.1	-55.0	3.7	0.00e+00	0	40	104	0	70	27306
2026-01-23 08:45:22.65	200.07	5.55	-50.1	-55.0	3.7	0.00e+00	0	40	104	0	70	27447
2026-01-23 08:45:25.64	200.37	5.78	-50.0	-55.0	3.7	0.00e+00	0	41	104	0	70	27276
2026-01-23 08:45:28.63	200.67	6.01	-50.1	-55.0	3.7	0.00e+00	0	41	104	0	70	27290
2026-01-23 08:45:31.62	200.98	6.24	-50.0	-54.9	3.7	0.00e+00	0	41	104	0	70	27169
2026-01-23 08:45:34.62	201.30	6.47	-50.1	-55.0	3.7	0.00e+00	0	41	104	0	70	27259
2026-01-23 08:45:37.62	201.62	6.70	-50.0	-54.9	3.6	0.00e+00	0	42	104	0	70	27193
2026-01-23 08:45:40.60	201.95	6.94	-50.0	-54.9	3.7	0.00e+00	0	42	104	0	70	27168
2026-01-23 08:45:43.60	202.29	7.18	-50.0	-55.0	3.7	0.00e+00	0	42	104	0	70	27245
2026-01-23 08:45:46.59	202.63	7.42	-50.1	-55.0	3.7	0.00e+00	0	42	104	0	70	27279
2026-01-23 08:45:49.58	202.98	7.66	-50.1	-55.0	3.7	0.00e+00	0	42	104	0	70	27469
2026-01-23 08:45:52.57	203.34	7.91	-50.1	-55.0	3.7	0.00e+00	0	42	104	0	70	27324
2026-01-23 08:45:55.57	203.71	8.16	-50.1	-55.0	3.7	0.00e+00	0	43	104	0	70	27245
2026-01-23 08:45:58.56	204.08	8.41	-50.1	-55.0	3.7	0.00e+00	0	43	104	0	70	27277
2026-01-23 08:46:01.52	204.45	8.66	-50.2	-55.0	3.7	0.00e+00	0	43	104	0	71	25917
2026-01-23 08:46:04.52	204.84	8.92	-50.1	-55.0	3.7	0.00e+00	0	43	104	0	71	25768
2026-01-23 08:46:07.51	205.24	9.17	-50.2	-54.9	3.7	0.00e+00	0	43	104	0	71	25670
2026-01-23 08:46:10.51	205.65	9.44	-50.3	-55.1	3.7	0.00e+00	0	43	104	0	71	26210
2026-01-23 08:46:13.51	206.06	9.70	-50.5	-55.2	3.7	0.00e+00	0	43	104	0	71	26422
2026-01-23 08:46:16.50	206.49	9.97	-50.8	-55.5	3.7	0.00e+00	0	43	104	0	72	25953
2026-01-23 08:46:19.49	206.92	10.24	-51.1	-55.9	3.7	0.00e+00	0	43	104	0	72	26956
2026-01-23 08:46:22.48	207.36	10.51	-51.2	-56.0	3.7	0.00e+00	0	43	104	0	73	25728
2026-01-23 08:46:25.48	207.82	10.78	-51.3	-56.0	3.7	0.00e+00	0	44	104	0	73	25972
2026-01-23 08:46:28.47	208.28	11.06	-51.4	-56.1	3.7	0.00e+00	0	43	104	0	73	26060
2026-01-23 08:46:31.46	208.75	11.34	-51.7	-56.4	3.7	0.00e+00	0	44	104	0	74	25545
2026-01-23 08:46:34.45	209.24	11.63	-51.6	-56.2	3.7	0.00e+00	0	44	104	0	74	25008
2026-01-23 08:46:37.43	209.73	11.91	-51.7	-56.3	3.7	0.00e+00	0	44	104	0	74	25172
2026-01-23 08:46:40.43	210.24	12.20	-52.2	-56.6	3.7	0.00e+00	0	44	104	0	75	24665
2026-01-23 08:46:43.42	210.76	12.49	-52.2	-56.8	3.7	0.00e+00	0	44	104	0	75	25139
2026-01-23 08:46:46.42	211.29	12.79	-52.2	-56.7	3.7	0.00e+00	0	44	104	0	75	25012
2026-01-23 08:46:49.41	211.84	13.08	-52.2	-56.7	3.7	0.00e+00	0	44	104	0	75	24973
2026-01-23 08:46:52.40	212.40	13.38	-52.2	-56.8	3.7	0.00e+00	0	44	104	0	75	25119
2026-01-23 08:46:55.39	212.97	13.69	-52.0	-56.7	3.7	0.00e+00	0	44	104	0	75	24965
2026-01-23 08:46:58.39	213.56	13.99	-43.8	-45.0	9.9	1.01e-01	0	45	0	0	59	16348
2026-01-23 08:47:01.38	214.16	14.30	-38.7	-39.7	14.5	0.00e+00	0	45	0	184549376	48	16708
2026-01-23 08:47:04.38	214.77	14.61	-34.2	-35.1	17.3	0.00e+00	0	45	0	360710144	40	15498
2026-01-23 08:47:07.36	215.40	14.92	-30.1	-31.0	18.5	0.00e+00	0	45	0	536870912	32	15323
2026-01-23 08:47:10.34	216.05	15.24	-28.6	-29.5	19.2	0.00e+00	0	45	0	721420288	29	15354
2026-01-23 08:47:13.33	216.71	15.56	-28.4	-29.3	19.4	0.00e+00	0	45	0	897581056	28	15868
2026-01-23 08:47:16.32	217.39	15.88	-28.4	-29.3	19.4	0.00e+00	0	45	0	1082130432	28	15873
2026-01-23 08:47:19.32	218.08	16.20	-28.2	-29.1	19.5	0.00e+00	0	45	0	1258291200	28	15491
2026-01-23 08:47:22.31	218.80	16.52	-28.0	-28.9	19.6	0.00e+00	0	45	0	1434451968	28	15136
2026-01-23 08:47:25.30	219.53	16.85	-28.0	-28.9	19.5	0.00e+00	0	46	0	1619001344	28	15167
2026-01-23 08:47:28.29	220.28	17.18	-27.9	-28.8	19.8	0.00e+00	0	46	0	1795162112	27	15893
2026-01-23 08:47:31.29	221.05	17.51	-27.7	-28.6	19.8	0.00e+00	0	46	0	1979711488	27	15568
2026-01-23 08:47:34.28	221.84	17.84	-27.6	-28.4	20.0	0.00e+00	0	46	0	2155872256	27	15288
2026-01-23 08:47:37.28	222.65	18.17	-27.6	-28.4	19.9	0.00e+00	0	46	0	2340421632	27	15249
2026-01-23 08:47:40.28	223.48	18.50	-27.3	-28.1	20.2	0.00e+00	0	46	0	2516582400	26	15573
2026-01-23 08:47:43.26	224.33	18.83	-27.3	-28.1	20.0	0.00e+00	0	46	0	2692743168	26	15649
2026-01-23 08:47:46.25	225.20	19.17	-27.1	-28.0	20.1	0.00e+00	0	46	0	2877292544	26	15351
2026-01-23 08:47:49.24	226.09	19.50	-27.0	-27.8	20.2	0.00e+00	0	46	0	3053453312	25	16001
2026-01-23 08:47:52.23	227.00	19.83	-26.9	-27.7	20.3	0.00e+00	0	46	0	3238002688	25	15800
2026-01-23 08:47:55.23	227.94	20.16	-26.7	-27.5	20.4	0.00e+00	0	46	0	3414163456	25	15470
2026-01-23 08:47:58.21	228.90	20.49	-26.6	-27.4	20.4	0.00e+00	0	46	0	3590324224	25	15207
2026-01-23 08:48:01.20	229.88	20.81	-26.5	-27.4	20.3	0.00e+00	0	46	0	3774873600	25	15201
2026-01-23 08:48:04.19	230.89	21.14	-26.5	-27.3	20.2	0.00e+00	0	46	0	3951034368	24	16011
2026-01-23 08:48:07.18	231.92	21.46	-26.3	-27.1	20.5	0.00e+00	0	46	0	4135583744	24	15640
2026-01-23 08:48:10.14	232.97	21.77	-26.2	-27.1	20.5	0.00e+00	0	46	0	4311744512	24	15523
2026-01-23 08:48:13.13	234.05	22.09	-26.0	-26.9	20.5	0.00e+00	0	46	0	4487905280	24	15144
2026-01-23 08:48:16.12	235.15	22.40	-26.0	-26.8	20.6	0.00e+00	0	46	0	4672454656	23	15929
2026-01-23 08:48:19.11	236.28	22.70	-25.7	-26.6	21.0	0.00e+00	0	46	0	4848615424	23	15515
2026-01-23 08:48:22.11	237.43	23.00	-25.8	-26.6	20.8	0.00e+00	0	46	0	5033164800	23	15612
2026-01-23 08:48:25.10	238.61	23.29	-25.7	-26.5	20.8	0.00e+00	0	46	0	5209325568	23	15407
2026-01-23 08:48:28.09	239.81	23.57	-25.6	-26.4	20.9	0.00e+00	0	46	0	5385486336	22	16117
2026-01-23 08:48:31.08	241.03	23.84	-25.5	-26.3	20.9	0.00e+00	0	46	0	5570035712	22	15964
2026-01-23 08:48:34.08	242.29	24.11	-25.4	-26.2	20.9	0.00e+00	0	46	0	5746196480	22	15811
2026-01-23 08:48:37.07	243.56	24.36	-25.3	-26.1	21.1	0.00e+00	0	46	0	5922357248	22	15606
2026-01-23 08:48:40.06	244.85	24.61	-25.2	-26.0	21.2	0.00e+00	0	46	0	6106906624	22	15442
2026-01-23 08:48:43.05	246.16	24.84	-25.1	-25.9	21.3	0.00e+00	0	47	0	6283067392	22	15261
2026-01-23 08:48:46.04	247.50	25.06	-25.1	-25.9	21.1	0.00e+00	0	46	0	6459228160	22	15218
2026-01-23 08:48:49.03	248.85	25.27	-25.1	-25.9	21.2	0.00e+00	0	47	0	6643777536	22	15226
2026-01-23 08:48:52.03	250.23	25.46	-24.9	-25.8	21.3	0.00e+00	0	46	0	6819938304	21	15853
2026-01-23 08:48:55.03	251.63	25.64	-24.8	-25.6	21.4	0.00e+00	0	46	0	7004487680	21	15611
2026-01-23 08:48:58.02	253.04	25.80	-25.0	-25.8	21.2	0.00e+00	0	46	0	7180648448	21	15950
2026-01-23 08:49:01.01	254.46	25.95	-24.9	-25.8	21.2	0.00e+00	0	46	0	7365197824	21	15873
2026-01-23 08:49:04.00	255.90	26.08	-24.9	-25.8	21.2	0.00e+00	0	46	0	7541358592	21	15882
2026-01-23 08:49:07.00	257.35	26.20	-25.0	-25.9	21.3	0.00e+00	0	47	0	7717519360	21	16043
2026-01-23 08:49:09.98	258.81	26.29	-24.8	-25.7	21.3	0.00e+00	0	46	0	7902068736	21	15710
2026-01-23 08:49:12.97	260.28	26.37	-24.9	-25.8	21.4	0.00e+00	0	46	0	8078229504	21	15843
2026-01-23 08:49:15.96	261.75	26.43	-25.2	-26.0	21.1	0.00e+00	0	47	0	8262778880	21	16373
2026-01-23 08:49:18.95	263.23	26.48	-24.9	-25.7	21.5	0.00e+00	0	46	0	8438939648	21	15722
2026-01-23 08:49:21.95	264.72	26.50	-24.8	-25.6	21.7	0.00e+00	0	47	0	8623489024	21	15599
2026-01-23 08:49:24.94	266.20	26.50	-24.7	-25.6	21.7	0.00e+00	0	47	0	8799649792	21	15544
2026-01-23 08:49:27.93	267.69	26.49	-24.8	-25.6	21.7	0.00e+00	0	46	0	8975810560	21	15610
2026-01-23 08:49:30.93	269.17	26.46	-24.9	-25.7	21.6	0.00e+00	0	47	0	9160359936	21	15776
2026-01-23 08:49:33.93	270.66	26.41	-24.9	-25.7	21.7	0.00e+00	0	46	0	9336520704	21	15797
2026-01-23 08:49:36.91	272.12	26.34	-26.0	-26.9	20.9	0.00e+00	0	46	0	9521070080	22	16978
2026-01-23 08:49:39.91	273.59	26.25	-25.3	-26.1	21.4	0.00e+00	0	47	0	9697230848	22	15626
2026-01-23 08:49:42.90	275.04	26.14	-25.3	-26.1	21.5	0.00e+00	0	47	0	9873391616	22	15590
2026-01-23 08:49:45.90	276.49	26.02	-25.3	-26.1	21.5	0.00e+00	0	47	0	10057940992	22	15533
2026-01-23 08:49:48.89	277.91	25.88	-52.5	-57.0	3.7	0.00e+00	0	46	104	10091495424	76	24458
2026-01-23 08:49:51.89	279.33	25.73	-52.2	-56.7	3.7	0.00e+00	0	46	104	10091495424	76	23539
2026-01-23 08:49:54.88	280.73	25.56	-52.8	-57.2	3.7	0.00e+00	0	46	104	10091495424	76	25009
2026-01-23 08:49:57.87	282.11	25.37	-52.9	-57.3	3.7	0.00e+00	0	46	104	10091495424	76	25145
2026-01-23 08:50:00.86	283.47	25.17	-52.7	-57.2	3.7	0.00e+00	0	46	104	10091495424	76	24877
2026-01-23 08:50:03.87	284.82	24.96	-52.7	-57.3	3.7	0.00e+00	0	46	104	10091495424	76	25170
2026-01-23 08:50:06.86	286.14	24.73	-52.7	-57.1	3.7	0.00e+00	0	46	104	10091495424	76	24592
2026-01-23 08:50:09.85	287.44	24.49	-52.7	-57.2	3.7	0.00e+00	0	46	104	10091495424	76	24921
2026-01-23 08:50:12.84	288.71	24.25	-52.4	-56.9	3.7	0.00e+00	0	46	104	10091495424	76	24167
2026-01-23 08:50:15.83	289.97	23.99	-52.8	-57.3	3.7	0.00e+00	0	46	104	10091495424	76	25245
2026-01-23 08:50:18.82	291.20	23.72	-52.4	-57.0	3.7	0.00e+00	0	46	104	10091495424	76	24379
2026-01-23 08:50:21.81	292.41	23.44	-52.4	-56.6	3.7	0.00e+00	0	46	104	10091495424	76	23415
2026-01-23 08:50:24.80	293.59	23.16	-52.6	-56.7	3.7	0.00e+00	0	46	104	10091495424	76	23476
2026-01-23 08:50:27.80	294.75	22.87	-52.6	-56.9	3.7	0.00e+00	0	46	104	10091495424	76	24038
2026-01-23 08:50:30.78	295.89	22.57	-52.7	-56.9	3.7	0.00e+00	0	46	104	10091495424	76	24084
2026-01-23 08:50:33.78	297.00	22.27	-52.7	-57.2	3.7	0.00e+00	0	46	104	10091495424	76	24870
2026-01-23 08:50:36.77	298.09	21.96	-52.2	-56.7	3.7	2.87e-03	0	46	104	10091495424	76	23609
2026-01-23 08:50:39.77	299.15	21.64	-52.5	-57.0	3.7	2.87e-03	0	46	104	10091495424	76	24387
2026-01-23 08:50:42.76	300.19	21.33	-52.5	-57.0	3.7	2.87e-03	0	46	104	10091495424	76	24280
2026-01-23 08:50:45.75	301.20	21.01	-52.8	-57.2	3.7	2.87e-03	0	46	104	10091495424	76	24893
2026-01-23 08:50:48.74	302.19	20.68	-52.4	-56.5	3.7	2.87e-03	0	46	104	10091495424	76	23038
2026-01-23 08:50:51.73	303.16	20.36	-52.4	-56.3	3.7	2.87e-03	0	46	104	10091495424	76	22515
2026-01-23 08:50:54.72	304.10	20.03	-52.5	-56.7	3.7	2.87e-03	0	46	104	10091495424	76	23627
2026-01-23 08:50:57.72	305.03	19.70	-52.4	-56.5	3.7	2.87e-03	0	46	104	10091495424	76	23084
2026-01-23 08:51:00.71	305.93	19.37	-52.4	-56.7	3.7	2.87e-03	0	45	104	10091495424	76	23580
2026-01-23 08:51:03.70	306.80	19.04	-52.2	-56.7	3.7	2.87e-03	0	46	104	10091495424	76	23426
2026-01-23 08:51:06.70	307.66	18.71	-52.6	-57.2	3.7	2.87e-03	0	46	104	10091495424	76	24988
2026-01-23 08:51:09.69	308.50	18.38	-52.6	-57.0	3.6	2.87e-03	0	46	104	10091495424	76	24262
2026-01-23 08:51:12.67	309.31	18.06	-52.5	-56.8	3.7	2.87e-03	0	46	104	10091495424	76	23937
2026-01-23 08:51:15.68	310.11	17.73	-51.9	-56.6	3.7	2.87e-03	0	46	104	10091495424	75	24656
2026-01-23 08:51:18.68	310.89	17.40	-51.8	-56.4	3.7	2.87e-03	0	46	104	10091495424	75	24173
2026-01-23 08:51:21.68	311.64	17.07	-52.0	-56.7	3.7	2.87e-03	0	46	104	10091495424	75	24928
2026-01-23 08:51:24.68	312.38	16.75	-52.2	-56.9	3.7	2.87e-03	0	46	104	10091495424	75	25397
2026-01-23 08:51:27.67	313.10	16.42	-52.1	-56.8	3.7	2.87e-03	0	46	104	10091495424	75	25156
2026-01-23 08:51:30.68	313.81	16.10	-51.9	-56.7	3.7	2.87e-03	0	46	104	10091495424	75	24935
2026-01-23 08:51:33.68	314.49	15.78	-51.8	-56.6	3.7	2.87e-03	0	46	104	10091495424	75	24805
2026-01-23 08:51:36.68	315.16	15.47	-51.8	-56.6	3.7	2.87e-03	0	45	104	10091495424	75	24704
2026-01-23 08:51:39.68	315.82	15.15	-51.9	-56.5	3.7	2.87e-03	0	45	104	10091495424	75	24297
2026-01-23 08:51:42.68	316.45	14.84	-52.3	-56.9	3.7	2.87e-03	0	46	104	10091495424	75	25490
2026-01-23 08:51:45.68	317.08	14.53	-50.8	-56.0	3.7	2.87e-03	0	45	104	10091495424	73	25955
2026-01-23 08:51:48.68	317.68	14.22	-52.2	-56.9	3.7	2.87e-03	0	45	104	10091495424	75	25615
2026-01-23 08:51:51.68	318.27	13.92	-52.0	-56.8	3.7	2.87e-03	0	46	104	10091495424	74	26655
2026-01-23 08:51:54.68	318.85	13.61	-52.3	-57.0	3.7	2.87e-03	0	46	104	10091495424	75	25723
2026-01-23 08:51:57.68	319.42	13.31	-51.9	-56.7	3.7	2.87e-03	0	46	104	10091495424	75	24986
2026-01-23 08:52:00.68	319.97	13.02	-50.9	-56.1	3.7	2.87e-03	0	45	104	10091495424	73	26027
2026-01-23 08:52:03.68	320.51	12.72	-50.4	-55.8	3.7	2.87e-03	0	45	104	10091495424	72	26647
2026-01-23 08:52:06.68	321.03	12.43	-50.7	-56.1	3.7	2.87e-03	0	45	104	10091495424	73	26237
2026-01-23 08:52:09.68	321.54	12.14	-51.4	-56.6	3.7	0.00e+00	0	46	104	10091495424	73	27563
2026-01-23 08:52:12.68	322.05	11.86	-51.6	-56.6	3.7	0.00e+00	0	45	104	10091495424	73	27816
2026-01-23 08:52:15.67	322.53	11.58	-51.5	-56.5	3.7	0.00e+00	0	45	104	10091495424	73	27215
2026-01-23 08:52:18.66	323.01	11.30	-52.0	-56.9	3.7	0.00e+00	0	46	104	10091495424	75	25455
2026-01-23 08:52:21.66	323.48	11.02	-51.6	-56.6	3.7	0.00e+00	0	46	104	10091495424	75	24773
2026-01-23 08:52:24.66	323.94	10.74	-49.0	-54.9	3.7	0.00e+00	0	46	104	10091495424	70	27113
2026-01-23 08:52:27.65	324.39	10.47	-48.9	-55.0	3.7	0.00e+00	0	46	104	10091495424	69	28847
2026-01-23 08:52:30.64	324.82	10.20	-49.8	-55.6	3.7	0.00e+00	0	46	104	10091495424	70	29281
2026-01-23 08:52:33.64	325.25	9.94	-49.8	-55.6	3.7	0.00e+00	0	45	104	10091495424	71	27664
2026-01-23 08:52:36.63	325.67	9.68	-49.7	-55.5	3.7	0.00e+00	0	46	104	10091495424	71	27357
2026-01-23 08:52:39.62	326.08	9.42	-49.1	-55.1	3.7	0.00e+00	0	46	104	10091495424	69	29203
2026-01-23 08:52:42.61	326.48	9.16	-50.0	-55.7	3.7	0.00e+00	0	45	104	10091495424	70	29576
2026-01-23 08:52:45.60	326.87	8.90	-49.3	-55.1	3.7	0.00e+00	0	46	104	10091495424	70	27534
2026-01-23 08:52:48.60	327.26	8.65	-51.9	-56.7	3.7	0.00e+00	0	46	104	10091495424	74	26423
2026-01-23 08:52:51.58	327.63	8.40	-52.6	-57.2	3.7	0.00e+00	0	46	104	10091495424	76	24893
2026-01-23 08:52:54.57	328.00	8.15	-52.4	-57.0	3.7	0.00e+00	0	46	104	10091495424	75	25728
2026-01-23 08:52:57.57	328.36	7.91	-52.1	-56.9	3.7	0.00e+00	0	46	104	10091495424	76	24082
2026-01-23 08:53:00.56	328.71	7.66	-53.0	-57.3	3.7	0.00e+00	0	46	104	10091495424	77	23728
2026-01-23 08:53:03.56	329.06	7.42	-52.8	-57.3	3.7	0.00e+00	0	45	104	10091495424	77	23947
2026-01-23 08:53:06.55	329.40	7.18	-52.5	-57.0	3.7	0.00e+00	0	45	104	10091495424	76	24417
2026-01-23 08:53:09.54	329.73	6.95	-52.5	-57.0	3.7	0.00e+00	0	45	104	10091495424	76	24390
2026-01-23 08:53:12.53	330.06	6.72	-52.5	-57.0	3.7	0.00e+00	0	45	104	10091495424	76	24431
2026-01-23 08:53:15.53	330.38	6.48	-52.5	-57.0	3.7	0.00e+00	0	45	104	10091495424	76	24418
2026-01-23 08:53:18.52	330.70	6.25	-52.5	-57.0	3.7	0.00e+00	0	45	104	10091495424	76	24401
2026-01-23 08:53:21.51	331.00	6.03	-52.5	-57.0	3.7	0.00e+00	0	46	104	10091495424	76	24395
2026-01-23 08:53:24.51	331.31	5.80	-52.5	-57.0	3.7	0.00e+00	0	46	104	10091495424	76	24358
2026-01-23 08:53:27.50	331.60	5.58	-52.5	-57.0	3.7	0.00e+00	0	45	104	10091495424	76	24360
2026-01-23 08:53:30.50	331.90	5.36	-52.5	-57.0	3.7	0.00e+00	0	46	104	10091495424	76	24384
2026-01-23 08:53:33.49	332.18	5.14	-52.5	-57.0	3.7	0.00e+00	0	46	104	10091495424	76	24377

#Closed at: 2026-01-23 08:53:36
#Recorded file [10091 MB]: D:/Data/31040_260123_114516.dat