passes_logs/2026/01/23/T1/T1__20260123_222636_SUOMI_NPP_rec.log

#Pass ID: 20260123_222636_SUOMI NPP
#Satellite: SUOMI NPP
#Configuration: NPP
#almurnet v.1.7.20251203
#Start time: 2026-01-23 22:26:36

#Version: 2.0.20230620
#Station: T1
#Location: 37.570604 lon 55.790049 lat
#TLE: 1 37849U 11061A   26022.92790088  .00000200  00000+0  11571-3 0  9994
#TLE: 2 37849  98.7820 324.9085 0002258  50.1112 310.0263 14.19528452737839

#Time	Az	El	Level	Level2	SNR	BER	BlckErr	Temp	State	Recorded	gain1	gain2
2026-01-23 22:26:36.71	27.51	5.03	-48.4	-64.1	3.8	1.49e+00	0	38	0	0	68	21821
2026-01-23 22:26:39.69	27.74	5.21	-48.2	-63.9	3.8	1.49e+00	0	38	104	0	67	22536
2026-01-23 22:26:42.67	27.98	5.40	-48.2	-63.8	3.8	1.49e+00	0	38	104	0	67	22376
2026-01-23 22:26:45.65	28.21	5.58	-48.2	-63.8	3.8	1.49e+00	0	38	104	0	67	22456
2026-01-23 22:26:48.63	28.45	5.77	-48.0	-63.8	3.8	1.49e+00	0	38	104	0	67	22275
2026-01-23 22:26:51.61	28.70	5.95	-48.2	-63.7	3.8	1.49e+00	0	39	104	0	67	22195
2026-01-23 22:26:54.59	28.94	6.14	-48.1	-63.8	3.8	1.49e+00	0	39	104	0	67	22269
2026-01-23 22:26:57.57	29.19	6.33	-48.1	-63.8	3.8	1.49e+00	0	39	104	0	67	22384
2026-01-23 22:27:00.55	29.44	6.52	-48.1	-63.8	3.8	1.49e+00	0	39	104	0	67	22460
2026-01-23 22:27:03.53	29.69	6.71	-48.1	-63.8	3.8	1.49e+00	0	39	104	0	67	22364
2026-01-23 22:27:06.51	29.95	6.90	-48.0	-63.7	3.8	1.49e+00	0	39	104	0	67	22171
2026-01-23 22:27:09.49	30.21	7.09	-48.1	-63.7	3.8	1.49e+00	0	39	104	0	67	22212
2026-01-23 22:27:12.47	30.47	7.29	-48.1	-63.6	3.8	1.49e+00	0	39	104	0	67	21950
2026-01-23 22:27:15.45	30.74	7.48	-48.1	-63.5	3.8	1.49e+00	0	40	104	0	67	21532
2026-01-23 22:27:18.43	31.01	7.68	-48.1	-63.7	3.8	1.49e+00	0	39	104	0	67	22087
2026-01-23 22:27:21.41	31.29	7.87	-48.1	-63.8	3.8	1.49e+00	0	40	104	0	67	22298
2026-01-23 22:27:24.39	31.56	8.07	-48.1	-63.7	3.8	1.49e+00	0	39	104	0	67	22164
2026-01-23 22:27:27.37	31.84	8.27	-48.1	-63.5	3.8	1.49e+00	0	40	104	0	67	21686
2026-01-23 22:27:30.35	32.13	8.47	-48.1	-63.1	3.8	1.49e+00	0	40	104	0	67	20761
2026-01-23 22:27:33.33	32.42	8.67	-48.0	-62.0	3.8	1.49e+00	0	40	104	0	67	18204
2026-01-23 22:27:36.31	32.71	8.87	-47.5	-56.8	5.9	5.34e-01	0	40	0	2097152	67	9960
2026-01-23 22:27:39.29	33.01	9.07	-46.0	-51.2	11.3	2.28e-03	0	40	0	7340032	64	6269
2026-01-23 22:27:42.28	33.31	9.28	-45.5	-49.8	13.1	9.90e-06	0	40	0	13631488	62	5950
2026-01-23 22:27:45.27	33.61	9.48	-42.9	-45.8	16.9	0.00e+00	0	40	0	18874368	57	4989
2026-01-23 22:27:48.64	33.96	9.71	-43.0	-45.8	16.8	0.00e+00	0	40	0	25165824	57	5009
2026-01-23 22:27:51.34	34.24	9.90	-42.9	-45.7	16.9	0.00e+00	0	40	0	30408704	57	4941
2026-01-23 22:27:54.61	34.59	10.13	-42.9	-45.6	17.0	0.00e+00	0	40	0	36700160	57	4923
2026-01-23 22:27:57.49	34.90	10.33	-43.0	-45.7	17.0	0.00e+00	0	40	0	41943040	57	4975
2026-01-23 22:28:00.62	35.24	10.55	-42.9	-45.7	17.0	0.00e+00	0	40	0	48234496	57	4947
2026-01-23 22:28:03.46	35.56	10.75	-42.9	-45.7	17.0	0.00e+00	0	40	0	53477376	57	4960
2026-01-23 22:28:06.67	35.92	10.98	-42.8	-45.6	17.1	0.00e+00	0	40	0	58720256	57	4883
2026-01-23 22:28:09.79	36.28	11.20	-43.0	-45.8	16.9	0.00e+00	0	40	0	65011712	57	4995
2026-01-23 22:28:12.63	36.61	11.40	-43.2	-46.1	16.7	0.00e+00	0	40	0	70254592	57	5168
2026-01-23 22:28:15.86	36.99	11.64	-43.1	-46.0	16.7	0.00e+00	0	40	0	76546048	57	5106
2026-01-23 22:28:18.78	37.33	11.85	-43.0	-45.7	17.0	0.00e+00	0	40	0	81788928	57	4951
2026-01-23 22:28:21.99	37.72	12.08	-43.1	-45.9	16.8	1.36e-04	0	40	0	88080384	57	5060
2026-01-23 22:28:24.83	38.07	12.29	-42.8	-45.4	17.3	0.00e+00	0	40	0	93323264	57	4806
2026-01-23 22:28:27.96	38.46	12.52	-42.4	-45.0	17.7	0.00e+00	0	41	0	98566144	56	4829
2026-01-23 22:28:30.80	38.82	12.73	-42.2	-44.7	18.0	0.00e+00	0	40	0	103809024	56	4666
2026-01-23 22:28:33.93	39.22	12.96	-42.1	-44.6	18.2	0.00e+00	0	40	0	110100480	56	4606
2026-01-23 22:28:36.77	39.59	13.17	-41.7	-44.2	18.4	1.25e-04	0	40	0	115343360	55	4660
2026-01-23 22:28:39.90	40.00	13.40	-41.7	-44.1	18.5	0.00e+00	0	40	0	121634816	55	4620
2026-01-23 22:28:42.74	40.38	13.61	-41.8	-44.3	18.3	0.00e+00	0	40	0	126877696	55	4708
2026-01-23 22:28:45.88	40.80	13.85	-41.8	-44.2	18.3	0.00e+00	0	40	0	132120576	55	4686
2026-01-23 22:28:48.72	41.20	14.06	-42.0	-44.5	18.1	0.00e+00	0	41	0	138412032	55	4848
2026-01-23 22:28:51.85	41.63	14.30	-42.2	-44.7	17.9	0.00e+00	0	40	0	143654912	55	4970
2026-01-23 22:28:54.69	42.04	14.51	-42.5	-45.1	17.5	0.00e+00	0	40	0	148897792	55	5209
2026-01-23 22:28:57.82	42.49	14.75	-42.4	-45.0	17.6	0.00e+00	0	40	0	155189248	55	5132
2026-01-23 22:29:00.66	42.90	14.97	-42.1	-44.6	18.0	0.00e+00	0	40	0	160432128	55	4889
2026-01-23 22:29:04.12	43.41	15.23	-41.5	-43.8	18.7	0.00e+00	0	40	0	166723584	55	4482
2026-01-23 22:29:06.82	43.82	15.44	-41.5	-43.8	18.8	0.00e+00	0	41	0	171966464	54	4725
2026-01-23 22:29:10.11	44.32	15.69	-41.3	-43.6	18.9	0.00e+00	0	41	0	178257920	54	4641
2026-01-23 22:29:12.90	44.76	15.91	-41.2	-43.5	19.0	0.00e+00	0	40	0	183500800	54	4564
2026-01-23 22:29:16.18	45.27	16.16	-41.0	-43.2	19.3	0.00e+00	0	40	0	189792256	53	4681
2026-01-23 22:29:18.90	45.71	16.37	-41.2	-43.5	19.0	0.00e+00	0	40	0	193986560	53	4821
2026-01-23 22:29:22.24	46.25	16.63	-41.7	-44.1	18.5	0.00e+00	0	41	0	200278016	53	5162
2026-01-23 22:29:24.98	46.70	16.84	-41.7	-44.1	18.5	0.00e+00	0	41	0	205520896	54	4895
2026-01-23 22:29:28.26	47.25	17.09	-41.7	-44.1	18.5	0.00e+00	0	41	0	211812352	54	4879
2026-01-23 22:29:30.99	47.72	17.30	-41.6	-43.9	18.6	0.00e+00	0	40	0	217055232	54	4809
2026-01-23 22:29:34.25	48.28	17.56	-41.7	-44.1	18.5	0.00e+00	0	41	0	223346688	54	4906
2026-01-23 22:29:37.13	48.78	17.78	-41.3	-43.6	18.9	0.00e+00	0	40	0	228589568	54	4642
2026-01-23 22:29:40.26	49.34	18.02	-40.9	-43.1	19.4	0.00e+00	0	40	0	234881024	53	4630
2026-01-23 22:29:43.10	49.85	18.24	-40.7	-42.9	19.6	0.00e+00	0	41	0	240123904	53	4498
2026-01-23 22:29:46.40	50.46	18.50	-40.4	-42.6	19.9	2.14e-04	0	41	0	246415360	52	4613
2026-01-23 22:29:49.10	50.96	18.70	-40.1	-42.2	20.2	0.00e+00	0	41	0	250609664	52	4413
2026-01-23 22:29:52.72	51.64	18.98	-40.3	-42.4	20.1	0.00e+00	0	41	0	257949696	52	4531
2026-01-23 22:29:55.62	52.20	19.21	-40.2	-42.3	20.2	0.00e+00	0	41	0	263192576	52	4446
2026-01-23 22:29:59.60	52.98	19.51	-40.1	-42.2	20.3	0.00e+00	0	41	0	270532608	51	4682
2026-01-23 22:30:02.46	53.55	19.73	-40.3	-42.4	20.1	0.00e+00	0	41	0	275775488	51	4787
2026-01-23 22:30:06.50	54.36	20.03	-40.5	-42.6	19.9	0.00e+00	0	41	0	284164096	52	4640
2026-01-23 22:30:09.45	54.97	20.26	-40.4	-42.5	20.0	0.00e+00	0	40	0	289406976	52	4597
2026-01-23 22:30:12.85	55.68	20.51	-40.3	-42.5	20.0	0.00e+00	0	41	0	295698432	52	4550
2026-01-23 22:30:15.70	56.28	20.72	-40.1	-42.1	20.3	0.00e+00	0	41	0	300941312	52	4382
2026-01-23 22:30:18.90	56.97	20.96	-40.4	-42.5	20.1	0.00e+00	0	41	0	307232768	51	4868
2026-01-23 22:30:21.83	57.60	21.17	-40.9	-43.1	19.5	0.00e+00	0	41	0	312475648	52	4924
2026-01-23 22:30:25.10	58.33	21.41	-40.5	-42.6	19.9	0.00e+00	0	41	0	318767104	52	4625
2026-01-23 22:30:27.82	58.94	21.61	-40.8	-43.0	19.5	0.00e+00	0	41	0	324009984	52	4844
2026-01-23 22:30:31.10	59.68	21.84	-40.7	-42.9	19.7	0.00e+00	0	41	0	330301440	53	4512
2026-01-23 22:30:33.91	60.33	22.04	-40.4	-42.5	20.0	0.00e+00	0	41	0	335544320	52	4568
2026-01-23 22:30:37.03	61.06	22.26	-41.5	-43.8	18.8	0.00e+00	0	41	0	340787200	53	5030
2026-01-23 22:30:39.88	61.73	22.45	-41.2	-43.5	19.1	0.00e+00	0	41	0	346030080	54	4568
2026-01-23 22:30:43.00	62.48	22.67	-40.5	-42.7	19.9	0.00e+00	0	41	0	352321536	52	4653
2026-01-23 22:30:45.85	63.17	22.86	-41.2	-43.5	19.2	5.45e-04	0	41	0	357564416	53	4822
2026-01-23 22:30:49.12	63.97	23.07	-41.1	-43.3	19.2	0.00e+00	0	41	0	363855872	53	4751
2026-01-23 22:30:51.88	64.66	23.25	-41.9	-44.3	18.4	0.00e+00	0	41	0	369098752	54	5025
2026-01-23 22:30:55.15	65.48	23.46	-41.7	-44.0	18.7	0.00e+00	0	41	0	375390208	54	4842
2026-01-23 22:30:57.89	66.18	23.63	-41.6	-43.9	18.7	0.00e+00	0	41	0	380633088	54	4802
2026-01-23 22:31:01.27	67.05	23.83	-42.5	-45.1	17.7	0.00e+00	0	41	0	386924544	55	5183
2026-01-23 22:31:03.97	67.75	24.00	-43.4	-46.3	16.7	2.68e-04	0	41	0	391118848	57	5292
2026-01-23 22:31:07.24	68.62	24.19	-43.1	-45.8	17.2	0.00e+00	0	41	0	397410304	57	4989
2026-01-23 22:31:09.95	69.34	24.34	-42.1	-44.5	18.4	0.00e+00	0	41	0	402653184	56	4576
2026-01-23 22:31:13.52	70.30	24.54	-43.7	-46.7	16.3	0.00e+00	0	41	0	409993216	58	5226
2026-01-23 22:31:16.44	71.10	24.69	-44.5	-47.7	15.3	0.00e+00	0	41	0	415236096	59	5572
2026-01-23 22:31:19.71	71.99	24.86	-44.3	-47.5	15.5	0.00e+00	0	41	0	420478976	59	5423
2026-01-23 22:31:22.42	72.75	24.99	-44.0	-47.0	16.0	0.00e+00	0	41	0	425721856	59	5111
2026-01-23 22:31:25.75	73.68	25.15	-44.1	-47.1	15.9	0.00e+00	0	41	0	432013312	58	5487
2026-01-23 22:31:28.61	74.49	25.28	-45.0	-48.6	14.4	0.00e+00	0	41	0	437256192	60	5811
2026-01-23 22:31:32.08	75.48	25.44	-44.0	-47.0	16.0	0.00e+00	0	41	0	444596224	59	5124
2026-01-23 22:31:34.80	76.26	25.55	-44.9	-48.5	14.5	1.50e-06	0	41	0	448790528	60	5745
2026-01-23 22:31:38.06	77.21	25.68	-43.8	-46.8	16.2	0.00e+00	0	41	0	455081984	59	4987
2026-01-23 22:31:40.76	78.00	25.78	-43.0	-45.7	17.3	0.00e+00	0	41	0	460324864	58	4688
2026-01-23 22:31:44.16	79.00	25.90	-43.4	-46.2	16.7	1.26e-04	0	41	0	466616320	57	5275
2026-01-23 22:31:46.89	79.81	25.99	-43.5	-46.3	16.6	0.00e+00	0	41	0	471859200	58	5020
2026-01-23 22:31:50.23	80.80	26.09	-43.5	-46.4	16.5	0.00e+00	0	41	0	478150656	58	5079
2026-01-23 22:31:52.96	81.62	26.17	-42.6	-45.2	17.7	0.00e+00	0	41	0	483393536	57	4662
2026-01-23 22:31:56.24	82.61	26.25	-42.8	-45.6	17.3	0.00e+00	0	41	0	489684992	56	5183
2026-01-23 22:31:59.02	83.45	26.32	-43.5	-46.4	16.6	4.42e-05	0	41	0	494927872	57	5399
2026-01-23 22:32:02.60	84.54	26.39	-42.5	-45.2	17.7	0.00e+00	0	41	0	501219328	56	4934
2026-01-23 22:32:05.51	85.43	26.45	-43.2	-46.1	16.8	0.00e+00	0	41	0	506462208	57	5166
2026-01-23 22:32:08.78	86.43	26.50	-42.9	-45.6	17.2	0.00e+00	0	41	0	512753664	57	4907
2026-01-23 22:32:11.51	87.27	26.53	-42.9	-45.7	17.2	0.00e+00	0	41	0	517996544	57	4939
2026-01-23 22:32:14.78	88.27	26.57	-42.1	-44.6	18.2	0.00e+00	0	41	0	524288000	56	4603
2026-01-23 22:32:17.59	89.14	26.59	-42.8	-45.5	17.4	1.16e-04	0	41	0	529530880	56	5113
2026-01-23 22:32:21.24	90.26	26.60	-42.7	-45.4	17.5	0.00e+00	0	41	0	536870912	56	5049
2026-01-23 22:32:23.98	91.11	26.61	-42.9	-45.6	17.3	0.00e+00	0	41	0	541065216	56	5169
2026-01-23 22:32:27.26	92.12	26.61	-42.7	-45.3	17.6	0.00e+00	0	41	0	547356672	56	5006
2026-01-23 22:32:29.96	92.96	26.60	-43.0	-45.8	17.0	0.00e+00	0	41	0	552599552	56	5326
2026-01-23 22:32:33.25	93.97	26.58	-43.9	-46.8	16.0	0.00e+00	0	41	0	558891008	58	5339
2026-01-23 22:32:36.22	94.89	26.56	-42.8	-45.4	17.3	0.00e+00	0	41	0	564133888	57	4801
2026-01-23 22:32:39.69	95.96	26.52	-42.4	-44.8	18.0	0.00e+00	0	41	0	571473920	56	4749
2026-01-23 22:32:42.41	96.79	26.48	-42.6	-45.1	17.7	0.00e+00	0	41	0	575668224	56	4892
2026-01-23 22:32:45.69	97.79	26.42	-41.8	-44.2	18.4	0.00e+00	0	41	0	581959680	55	4688
2026-01-23 22:32:48.39	98.62	26.37	-42.2	-44.7	18.0	0.00e+00	0	41	0	587202560	55	4964
2026-01-23 22:32:51.67	99.62	26.30	-41.3	-43.7	18.9	0.00e+00	0	41	0	593494016	54	4654
2026-01-23 22:32:54.47	100.46	26.24	-41.6	-44.0	18.6	0.00e+00	0	41	0	598736896	54	4850
2026-01-23 22:32:57.75	101.45	26.15	-43.0	-45.6	17.2	0.00e+00	0	41	0	605028352	56	5207
2026-01-23 22:33:00.45	102.26	26.07	-42.8	-45.4	17.5	0.00e+00	0	41	0	610271232	56	5057
2026-01-23 22:33:03.74	103.24	25.97	-41.5	-43.9	18.7	0.00e+00	0	41	0	616562688	54	4774
2026-01-23 22:33:06.57	104.08	25.87	-40.3	-42.4	20.0	0.00e+00	0	41	0	621805568	52	4535
2026-01-23 22:33:09.72	105.01	25.76	-40.2	-42.3	20.2	0.00e+00	0	41	0	627048448	51	4716
2026-01-23 22:33:12.82	105.91	25.64	-41.2	-43.5	19.0	1.43e-04	0	41	0	633339904	53	4854
2026-01-23 22:33:15.80	106.78	25.52	-40.3	-42.4	20.0	0.00e+00	0	41	0	638582784	52	4541
2026-01-23 22:33:18.78	107.64	25.40	-40.3	-42.5	20.0	0.00e+00	0	41	0	643825664	52	4547
2026-01-23 22:33:21.79	108.50	25.26	-39.9	-42.0	20.4	0.00e+00	0	41	0	650117120	51	4556
2026-01-23 22:33:24.89	109.37	25.12	-39.3	-41.2	21.1	0.00e+00	0	41	0	655360000	50	4430
2026-01-23 22:33:27.82	110.20	24.98	-40.3	-42.4	20.1	1.25e-04	0	41	0	661651456	51	4795
2026-01-23 22:33:30.95	111.07	24.82	-40.2	-42.3	19.9	0.00e+00	0	41	0	666894336	52	4491
2026-01-23 22:33:33.79	111.85	24.67	-39.8	-41.9	20.5	0.00e+00	0	41	0	672137216	51	4505
2026-01-23 22:33:37.05	112.74	24.50	-39.8	-41.8	20.6	0.00e+00	0	41	0	678428672	51	4466
2026-01-23 22:33:39.76	113.47	24.35	-40.1	-42.1	20.3	0.00e+00	0	41	0	683671552	51	4647
2026-01-23 22:33:43.03	114.35	24.16	-40.1	-42.2	20.2	0.00e+00	0	41	0	689963008	51	4700
2026-01-23 22:33:45.74	115.06	24.00	-40.0	-42.1	20.3	0.00e+00	0	41	0	695205888	51	4620
2026-01-23 22:33:49.01	115.92	23.81	-40.3	-42.4	20.1	0.00e+00	0	41	0	700448768	51	4803
2026-01-23 22:33:51.72	116.62	23.64	-40.2	-42.3	20.1	0.00e+00	0	41	0	705691648	51	4752
2026-01-23 22:33:54.99	117.46	23.44	-40.5	-42.6	19.8	0.00e+00	0	41	0	711983104	51	4926
2026-01-23 22:33:57.69	118.14	23.26	-41.6	-44.0	18.5	1.32e-04	0	41	0	717225984	53	5131
2026-01-23 22:34:00.96	118.96	23.05	-41.1	-43.4	19.1	1.24e-04	0	41	0	723517440	54	4517
2026-01-23 22:34:03.74	119.64	22.87	-40.6	-42.8	19.6	0.00e+00	0	41	0	728760320	52	4736
2026-01-23 22:34:07.09	120.46	22.64	-40.5	-42.7	19.7	0.00e+00	0	41	0	735051776	52	4653
2026-01-23 22:34:09.88	121.13	22.45	-40.6	-42.8	19.6	0.00e+00	0	41	0	740294656	52	4734
2026-01-23 22:34:13.39	121.96	22.21	-41.1	-43.3	19.1	0.00e+00	0	41	0	746586112	53	4747
2026-01-23 22:34:16.48	122.68	21.99	-40.9	-43.2	19.2	0.00e+00	0	41	0	752877568	53	4673
2026-01-23 22:34:19.47	123.37	21.78	-41.3	-43.6	18.8	0.00e+00	0	41	0	758120448	53	4898
2026-01-23 22:34:22.45	124.05	21.56	-40.9	-43.2	19.2	0.00e+00	0	41	0	763363328	53	4656
2026-01-23 22:34:25.47	124.73	21.34	-41.5	-43.9	18.4	0.00e+00	0	41	0	769654784	53	5048
2026-01-23 22:34:28.45	125.38	21.12	-42.3	-44.8	17.7	0.00e+00	0	41	0	774897664	55	5031
2026-01-23 22:34:31.43	126.04	20.90	-41.2	-43.5	19.0	0.00e+00	0	41	0	780140544	54	4561
2026-01-23 22:34:34.42	126.68	20.68	-40.3	-42.4	19.9	0.00e+00	0	41	0	786432000	52	4531
2026-01-23 22:34:37.40	127.31	20.46	-41.2	-43.5	18.9	0.00e+00	0	41	0	791674880	53	4860
2026-01-23 22:34:40.38	127.93	20.23	-41.8	-44.3	18.2	0.00e+00	0	41	0	796917760	54	4993
2026-01-23 22:34:43.46	128.57	20.00	-42.2	-44.7	17.8	0.00e+00	0	41	0	803209216	55	4952
2026-01-23 22:34:46.40	129.17	19.77	-41.3	-43.6	18.8	0.00e+00	0	41	0	808452096	54	4618
2026-01-23 22:34:49.58	129.80	19.53	-40.3	-42.4	19.8	0.00e+00	0	41	0	814743552	52	4545
2026-01-23 22:34:52.42	130.36	19.31	-41.2	-43.5	19.0	0.00e+00	0	41	0	819986432	53	4867
2026-01-23 22:34:55.55	130.97	19.07	-41.8	-44.3	18.1	0.00e+00	0	41	0	825229312	54	5020
2026-01-23 22:34:58.39	131.52	18.85	-41.0	-43.3	19.0	0.00e+00	0	41	0	831520768	54	4469
2026-01-23 22:35:01.61	132.12	18.60	-41.1	-43.4	18.9	0.00e+00	0	41	0	836763648	53	4794
2026-01-23 22:35:04.45	132.65	18.38	-41.1	-43.4	19.0	0.00e+00	0	41	0	842006528	53	4770
2026-01-23 22:35:07.58	133.22	18.13	-40.5	-42.7	19.6	0.00e+00	0	41	0	848297984	53	4411
2026-01-23 22:35:10.42	133.74	17.91	-40.5	-42.7	19.6	0.00e+00	0	41	0	853540864	52	4677
2026-01-23 22:35:13.55	134.29	17.67	-41.1	-43.3	19.0	0.00e+00	0	41	0	859832320	52	5030
2026-01-23 22:35:16.39	134.79	17.45	-41.1	-43.4	18.9	0.00e+00	0	41	0	865075200	53	4789
2026-01-23 22:35:19.52	135.33	17.20	-41.4	-43.8	18.7	0.00e+00	0	41	0	870318080	53	4986
2026-01-23 22:35:22.36	135.81	16.98	-42.2	-44.8	17.7	0.00e+00	0	41	0	875560960	55	5000
2026-01-23 22:35:25.49	136.34	16.74	-41.8	-44.3	18.1	0.00e+00	0	41	0	881852416	55	4722
2026-01-23 22:35:28.34	136.80	16.51	-41.4	-43.8	18.6	0.00e+00	0	41	0	887095296	54	4730
2026-01-23 22:35:31.46	137.31	16.27	-41.0	-43.3	19.0	0.00e+00	0	41	0	893386752	54	4476
2026-01-23 22:35:34.30	137.77	16.05	-40.9	-43.2	19.1	0.00e+00	0	41	0	898629632	53	4681
2026-01-23 22:35:37.60	138.29	15.79	-40.5	-42.7	19.5	0.00e+00	0	41	0	904921088	52	4665
2026-01-23 22:35:40.33	138.71	15.58	-40.7	-42.9	19.3	0.00e+00	0	41	0	910163968	52	4813
2026-01-23 22:35:43.60	139.21	15.33	-41.2	-43.5	18.7	0.00e+00	0	41	0	915406848	53	4870
2026-01-23 22:35:46.61	139.66	15.10	-42.0	-44.6	17.8	0.00e+00	0	41	0	921698304	54	5166
2026-01-23 22:35:49.80	140.13	14.85	-42.1	-44.8	17.5	0.00e+00	0	41	0	926941184	55	5010
2026-01-23 22:35:52.72	140.56	14.63	-41.9	-44.5	17.8	0.00e+00	0	41	0	933232640	55	4827
2026-01-23 22:35:56.01	141.03	14.37	-41.5	-44.0	18.2	9.30e-05	0	41	0	939524096	54	4848
2026-01-23 22:35:58.74	141.42	14.17	-41.3	-43.8	18.4	0.00e+00	0	41	0	943718400	54	4712
2026-01-23 22:36:02.03	141.88	13.92	-41.0	-43.3	18.8	0.00e+00	0	41	0	950009856	53	4751
2026-01-23 22:36:04.73	142.25	13.71	-40.6	-43.0	19.1	0.00e+00	0	41	0	955252736	53	4546
2026-01-23 22:36:08.25	142.72	13.44	-40.8	-43.2	18.9	0.00e+00	0	41	0	961544192	53	4656
2026-01-23 22:36:10.95	143.08	13.24	-41.5	-43.9	18.2	2.18e-04	0	41	0	966787072	53	5081
2026-01-23 22:36:14.24	143.51	12.99	-42.0	-44.6	17.5	0.00e+00	0	41	0	973078528	54	5206
2026-01-23 22:36:16.98	143.87	12.79	-42.1	-44.8	17.4	0.00e+00	0	41	0	978321408	55	4999
2026-01-23 22:36:20.31	144.29	12.54	-41.9	-44.5	17.7	0.00e+00	0	41	0	984612864	55	4817
2026-01-23 22:36:23.12	144.64	12.33	-41.7	-44.2	17.9	0.00e+00	0	41	0	989855744	55	4696
2026-01-23 22:36:26.24	145.03	12.10	-41.8	-44.4	17.7	0.00e+00	0	41	0	996147200	55	4767
2026-01-23 22:36:29.37	145.41	11.87	-42.0	-44.7	17.4	0.00e+00	0	41	0	1001390080	55	4950
2026-01-23 22:36:32.42	145.78	11.65	-42.2	-45.1	17.0	0.00e+00	0	41	0	1007681536	55	5172
2026-01-23 22:36:35.71	146.17	11.41	-42.2	-45.1	17.0	0.00e+00	0	41	0	1013972992	55	5180
2026-01-23 22:36:38.45	146.49	11.21	-42.1	-44.9	17.1	0.00e+00	0	41	0	1018167296	55	5085
2026-01-23 22:36:41.72	146.86	10.98	-42.2	-44.9	17.1	0.00e+00	0	41	0	1024458752	55	5074
2026-01-23 22:36:44.70	147.20	10.76	-42.5	-45.3	16.7	0.00e+00	0	41	0	1030750208	55	5299
2026-01-23 22:36:47.97	147.56	10.53	-42.3	-45.2	16.8	0.00e+00	0	41	0	1037041664	55	5237
2026-01-23 22:36:50.72	147.86	10.33	-42.3	-45.2	16.8	0.00e+00	0	41	0	1041235968	55	5239
2026-01-23 22:36:54.03	148.22	10.10	-42.0	-44.7	17.2	0.00e+00	0	41	0	1047527424	55	4941
2026-01-23 22:36:56.78	148.52	9.91	-42.1	-44.8	17.2	0.00e+00	0	41	0	1052770304	55	4989
2026-01-23 22:37:00.20	148.88	9.67	-42.9	-45.9	16.3	0.00e+00	0	41	0	1059061760	56	5351
2026-01-23 22:37:02.98	149.17	9.47	-43.3	-46.5	15.6	0.00e+00	0	41	0	1064304640	57	5421
2026-01-23 22:37:06.28	149.50	9.24	-43.5	-46.9	15.2	0.00e+00	0	41	0	1070596096	57	5657
2026-01-23 22:37:09.06	149.78	9.05	-43.5	-46.8	15.3	0.00e+00	0	41	0	1075838976	58	5330
2026-01-23 22:37:12.32	150.11	8.83	-48.4	-63.7	3.8	1.49e+00	0	41	104	1077936128	67	22177
2026-01-23 22:37:15.03	150.38	8.64	-48.8	-64.1	3.8	1.49e+00	0	41	104	1077936128	68	21771
2026-01-23 22:37:18.30	150.69	8.42	-48.9	-64.2	3.8	1.49e+00	0	41	104	1077936128	68	22015
2026-01-23 22:37:21.09	150.96	8.23	-49.0	-64.2	3.8	1.49e+00	0	41	104	1077936128	68	22137
2026-01-23 22:37:24.42	151.27	8.01	-48.8	-64.3	3.8	1.49e+00	0	41	104	1077936128	68	22302
2026-01-23 22:37:27.32	151.54	7.82	-49.1	-64.2	3.8	1.49e+00	0	41	104	1077936128	68	22242
2026-01-23 22:37:30.87	151.87	7.58	-48.9	-64.3	3.8	1.49e+00	0	41	104	1077936128	68	22264
2026-01-23 22:37:33.56	152.11	7.40	-48.9	-64.2	3.8	1.49e+00	0	41	104	1077936128	68	22131
2026-01-23 22:37:36.84	152.41	7.19	-48.9	-64.2	3.8	1.49e+00	0	41	104	1077936128	68	22013
2026-01-23 22:37:39.54	152.64	7.01	-48.8	-64.1	3.8	1.49e+00	0	41	104	1077936128	68	22006
2026-01-23 22:37:42.82	152.93	6.79	-48.8	-64.2	3.8	1.49e+00	0	41	104	1077936128	68	22008
2026-01-23 22:37:45.51	153.16	6.62	-48.8	-64.1	3.8	1.49e+00	0	41	104	1077936128	68	21979
2026-01-23 22:37:48.78	153.44	6.41	-48.8	-64.1	3.8	1.49e+00	0	41	104	1077936128	68	21946
2026-01-23 22:37:51.47	153.66	6.24	-48.8	-64.1	3.8	1.49e+00	0	41	104	1077936128	68	21897
2026-01-23 22:37:54.74	153.93	6.03	-48.8	-64.1	3.8	1.49e+00	0	41	104	1077936128	68	21841
2026-01-23 22:37:57.43	154.15	5.86	-48.8	-64.1	3.8	1.49e+00	0	41	104	1077936128	68	21895
2026-01-23 22:38:00.70	154.42	5.65	-48.8	-64.1	3.8	1.49e+00	0	41	104	1077936128	68	21887
2026-01-23 22:38:03.43	154.64	5.48	-48.8	-64.1	3.8	1.49e+00	0	41	104	1077936128	68	21888
2026-01-23 22:38:06.69	154.89	5.27	-48.8	-64.1	3.8	1.49e+00	0	41	104	1077936128	68	21918
2026-01-23 22:38:09.39	155.10	5.11	-48.8	-64.1	3.8	1.49e+00	0	42	104	1077936128	68	21840

#Closed at: 2026-01-23 22:38:12
#Recorded file [1077 MB]: D:/Data/31040_260124_012636.dat