passes_logs/2026/01/23/T1/T1__20260123_215711_NOAA_21_JPSS-2_rec.log

#Pass ID: 20260123_215711_NOAA 21 (JPSS-2)
#Satellite: NOAA 21 (JPSS-2)
#Configuration: NOAA 21
#almurnet v.1.7.20251203
#Start time: 2026-01-23 21:57:10

#Version: 2.0.20230620
#Station: T1
#Location: 37.570604 lon 55.790049 lat
#TLE: 1 54234U 22150A   26022.90705406  .00000208  00000+0  11937-3 0  9994
#TLE: 2 54234  98.7507 323.7115 0000669 231.3756 128.7360 14.19537879165931

#Time	Az	El	Level	Level2	SNR	BER	BlckErr	Temp	State	Recorded	gain1	gain2
2026-01-23 21:57:10.96	32.48	4.97	-48.6	-61.8	3.8	1.49e+00	0	35	0	0	69	15926
2026-01-23 21:57:13.94	32.78	5.13	-48.4	-61.6	3.8	1.49e+00	0	36	104	0	67	17452
2026-01-23 21:57:16.92	33.08	5.29	-48.4	-61.6	3.8	1.49e+00	0	36	104	0	67	17426
2026-01-23 21:57:19.89	33.38	5.45	-48.4	-61.6	3.8	1.49e+00	0	36	104	0	67	17410
2026-01-23 21:57:22.87	33.68	5.61	-48.4	-61.6	3.8	1.49e+00	0	36	104	0	67	17390
2026-01-23 21:57:25.85	33.99	5.77	-48.4	-61.6	3.8	1.49e+00	0	36	104	0	67	17446
2026-01-23 21:57:28.83	34.30	5.93	-48.4	-61.6	3.8	1.49e+00	0	36	104	0	67	17450
2026-01-23 21:57:31.81	34.62	6.09	-48.4	-61.6	3.8	1.49e+00	0	37	104	0	67	17411
2026-01-23 21:57:34.79	34.93	6.25	-48.4	-61.6	3.8	1.49e+00	0	37	104	0	67	17412
2026-01-23 21:57:37.77	35.26	6.42	-48.4	-61.6	3.8	1.49e+00	0	37	104	0	67	17381
2026-01-23 21:57:40.75	35.58	6.58	-48.4	-61.6	3.8	1.49e+00	0	37	104	0	67	17342
2026-01-23 21:57:43.73	35.91	6.74	-48.4	-61.5	3.8	1.49e+00	0	37	104	0	67	17205
2026-01-23 21:57:46.71	36.24	6.91	-48.4	-61.5	3.8	1.49e+00	0	37	104	0	67	17273
2026-01-23 21:57:49.69	36.58	7.07	-48.4	-61.6	3.8	1.49e+00	0	37	104	0	67	17328
2026-01-23 21:57:52.67	36.92	7.23	-48.4	-61.6	3.8	1.49e+00	0	37	104	0	67	17401
2026-01-23 21:57:55.65	37.26	7.40	-48.4	-61.6	3.8	1.49e+00	0	37	104	0	67	17344
2026-01-23 21:57:58.63	37.61	7.56	-48.4	-61.4	3.8	1.49e+00	0	37	104	0	67	17059
2026-01-23 21:58:01.61	37.96	7.72	-48.4	-61.4	3.8	1.49e+00	0	38	104	0	67	17018
2026-01-23 21:58:04.59	38.31	7.89	-48.4	-61.1	3.8	1.49e+00	0	37	104	0	67	16422
2026-01-23 21:58:07.57	38.67	8.05	-48.4	-61.2	3.8	1.49e+00	0	37	104	0	67	16609
2026-01-23 21:58:10.55	39.03	8.22	-48.4	-61.5	3.8	1.49e+00	0	38	104	0	67	17269
2026-01-23 21:58:13.53	39.40	8.38	-48.4	-61.5	3.8	1.49e+00	0	38	104	0	67	17179
2026-01-23 21:58:16.52	39.77	8.55	-48.4	-61.1	3.8	1.49e+00	0	38	104	0	67	16362
2026-01-23 21:58:19.50	40.14	8.71	-48.3	-60.4	3.8	1.49e+00	0	38	104	0	67	15059
2026-01-23 21:58:22.48	40.52	8.88	-47.4	-54.6	5.9	4.31e-01	0	38	0	0	66	8229
2026-01-23 21:58:25.46	40.90	9.04	-45.9	-50.3	10.3	4.02e-04	0	38	0	0	62	6287
2026-01-23 21:58:28.43	41.29	9.21	-45.2	-48.8	11.8	8.30e-06	0	38	0	0	60	5939
2026-01-23 21:58:31.42	41.68	9.37	-41.0	-43.1	17.2	0.00e+00	0	38	0	0	54	4385
2026-01-23 21:58:34.41	42.08	9.54	-40.6	-42.7	17.6	0.00e+00	0	38	0	0	53	4395
2026-01-23 21:58:37.39	42.48	9.70	-40.5	-42.5	17.7	0.00e+00	0	38	0	0	53	4331
2026-01-23 21:58:40.37	42.88	9.87	-40.5	-42.4	17.8	0.00e+00	0	38	0	0	52	4543
2026-01-23 21:58:43.35	43.29	10.03	-40.4	-42.4	17.8	0.00e+00	0	38	0	0	52	4516
2026-01-23 21:58:46.33	43.70	10.20	-40.5	-42.5	17.8	0.00e+00	0	38	0	0	52	4579
2026-01-23 21:58:49.32	44.12	10.36	-40.4	-42.3	18.0	0.00e+00	0	38	0	0	52	4471
2026-01-23 21:58:52.24	44.53	10.52	-40.3	-42.2	18.0	0.00e+00	0	38	0	0	52	4414
2026-01-23 21:58:55.58	45.01	10.71	-40.2	-42.1	18.2	0.00e+00	0	38	0	0	51	4616
2026-01-23 21:58:58.30	45.41	10.86	-40.0	-41.9	18.4	0.00e+00	0	38	0	0	51	4515
2026-01-23 21:59:01.57	45.88	11.04	-40.1	-41.9	18.3	0.00e+00	0	38	0	0	51	4534
2026-01-23 21:59:04.29	46.29	11.18	-40.1	-42.0	18.3	0.00e+00	0	38	0	0	51	4557
2026-01-23 21:59:07.56	46.78	11.36	-40.0	-41.9	18.4	0.00e+00	0	38	0	0	51	4507
2026-01-23 21:59:10.29	47.19	11.51	-40.0	-41.9	18.5	0.00e+00	0	38	0	0	51	4507
2026-01-23 21:59:13.56	47.69	11.69	-39.9	-41.8	18.6	0.00e+00	0	38	0	0	51	4449
2026-01-23 21:59:16.27	48.11	11.83	-39.8	-41.6	18.7	0.00e+00	0	38	0	0	51	4386
2026-01-23 21:59:19.56	48.62	12.01	-39.9	-41.7	18.7	0.00e+00	0	38	0	0	51	4418
2026-01-23 21:59:22.27	49.05	12.16	-39.7	-41.5	18.8	0.00e+00	0	38	0	0	51	4340
2026-01-23 21:59:25.55	49.57	12.33	-39.8	-41.6	18.8	0.00e+00	0	38	0	0	51	4378
2026-01-23 21:59:28.27	50.01	12.47	-39.7	-41.5	18.9	0.00e+00	0	38	0	0	51	4324
2026-01-23 21:59:31.55	50.54	12.65	-39.7	-41.5	18.9	0.00e+00	0	38	0	0	51	4335
2026-01-23 21:59:34.27	50.99	12.79	-39.8	-41.7	18.7	0.00e+00	0	38	0	0	51	4403
2026-01-23 21:59:37.56	51.54	12.96	-39.7	-41.5	18.9	0.00e+00	0	38	0	0	51	4331
2026-01-23 21:59:40.33	52.00	13.11	-39.8	-41.7	18.7	0.00e+00	0	38	0	0	51	4408
2026-01-23 21:59:43.72	52.58	13.28	-39.8	-41.6	18.7	0.00e+00	0	38	0	0	51	4372
2026-01-23 21:59:46.44	53.05	13.42	-39.9	-41.7	18.7	0.00e+00	0	38	0	0	51	4422
2026-01-23 21:59:49.72	53.61	13.59	-40.0	-41.9	18.5	0.00e+00	0	38	0	0	51	4510
2026-01-23 21:59:52.48	54.10	13.73	-40.2	-42.1	18.4	0.00e+00	0	38	0	0	51	4605
2026-01-23 21:59:55.75	54.68	13.89	-39.9	-41.8	18.7	0.00e+00	0	39	0	0	51	4448
2026-01-23 21:59:58.73	55.21	14.04	-39.8	-41.6	18.8	0.00e+00	0	38	0	0	51	4374
2026-01-23 22:00:02.24	55.84	14.21	-39.8	-41.7	18.8	0.00e+00	0	38	0	0	51	4405
2026-01-23 22:00:04.95	56.34	14.34	-39.8	-41.6	18.7	0.00e+00	0	38	0	0	51	4387
2026-01-23 22:00:08.24	56.94	14.50	-39.8	-41.6	18.8	0.00e+00	0	38	0	0	51	4383
2026-01-23 22:00:10.96	57.45	14.63	-39.7	-41.5	19.1	0.00e+00	0	38	0	0	51	4302
2026-01-23 22:00:14.29	58.07	14.78	-39.6	-41.4	19.0	0.00e+00	0	38	0	0	51	4275
2026-01-23 22:00:17.15	58.61	14.91	-39.6	-41.5	18.9	0.00e+00	0	38	0	0	51	4294
2026-01-23 22:00:20.83	59.32	15.08	-39.8	-41.6	18.8	0.00e+00	0	38	0	0	51	4363
2026-01-23 22:00:23.53	59.84	15.20	-39.6	-41.5	19.0	0.00e+00	0	38	0	0	51	4302
2026-01-23 22:00:26.80	60.47	15.35	-39.4	-41.3	19.2	0.00e+00	0	39	0	0	50	4443
2026-01-23 22:00:29.53	61.01	15.47	-39.5	-41.3	19.1	0.00e+00	0	38	0	0	50	4478
2026-01-23 22:00:32.81	61.66	15.61	-39.5	-41.3	19.1	0.00e+00	0	39	0	0	50	4489
2026-01-23 22:00:35.54	62.21	15.72	-39.4	-41.2	19.2	0.00e+00	0	38	0	0	50	4421
2026-01-23 22:00:38.82	62.87	15.86	-39.1	-40.9	19.6	0.00e+00	0	39	0	0	50	4255
2026-01-23 22:00:41.54	63.42	15.97	-39.1	-40.9	19.5	0.00e+00	0	38	0	0	50	4246
2026-01-23 22:00:45.08	64.14	16.11	-39.3	-41.1	19.4	0.00e+00	0	39	0	0	50	4347
2026-01-23 22:00:48.19	64.79	16.23	-39.3	-41.1	19.4	0.00e+00	0	39	0	0	50	4348
2026-01-23 22:00:51.03	65.38	16.33	-39.1	-40.9	19.6	0.00e+00	0	39	0	0	50	4244
2026-01-23 22:00:54.16	66.03	16.45	-39.1	-40.9	19.6	0.00e+00	0	39	0	0	50	4259
2026-01-23 22:00:57.12	66.66	16.56	-38.9	-40.6	19.8	0.00e+00	0	39	0	0	49	4381
2026-01-23 22:01:00.11	67.29	16.66	-39.0	-40.7	19.7	0.00e+00	0	39	0	0	49	4441
2026-01-23 22:01:03.09	67.93	16.76	-39.0	-40.7	19.7	0.00e+00	0	39	0	0	49	4418
2026-01-23 22:01:06.07	68.57	16.86	-39.1	-40.9	19.6	0.00e+00	0	38	0	0	49	4501
2026-01-23 22:01:09.09	69.23	16.96	-38.9	-40.6	19.8	0.00e+00	0	39	0	0	49	4382
2026-01-23 22:01:12.14	69.89	17.05	-38.9	-40.6	19.7	0.00e+00	0	39	0	0	49	4358
2026-01-23 22:01:14.98	70.52	17.14	-39.1	-40.8	19.6	0.00e+00	0	39	0	0	49	4483
2026-01-23 22:01:18.11	71.21	17.23	-38.8	-40.6	19.8	0.00e+00	0	39	0	0	49	4341
2026-01-23 22:01:21.32	71.92	17.31	-38.9	-40.6	19.8	0.00e+00	0	39	0	0	49	4354
2026-01-23 22:01:24.54	72.64	17.40	-39.0	-40.8	19.7	0.00e+00	0	39	0	0	49	4449
2026-01-23 22:01:27.38	73.28	17.47	-38.9	-40.6	19.9	0.00e+00	0	39	0	0	49	4350
2026-01-23 22:01:30.51	73.98	17.54	-38.9	-40.6	19.8	0.00e+00	0	39	0	0	49	4363
2026-01-23 22:01:33.35	74.62	17.61	-39.1	-40.9	19.6	0.00e+00	0	39	0	0	49	4501
2026-01-23 22:01:36.48	75.34	17.68	-39.2	-41.0	19.6	0.00e+00	0	39	0	0	49	4554
2026-01-23 22:01:39.32	75.99	17.73	-39.1	-40.8	19.6	0.00e+00	0	39	0	0	49	4486
2026-01-23 22:01:42.44	76.70	17.79	-39.3	-41.0	19.5	0.00e+00	0	39	0	0	49	4588
2026-01-23 22:01:45.29	77.36	17.84	-39.1	-40.8	19.7	0.00e+00	0	39	0	0	49	4488
2026-01-23 22:01:48.49	78.10	17.90	-39.0	-40.7	19.8	0.00e+00	0	39	0	0	49	4428
2026-01-23 22:01:51.35	78.76	17.94	-39.1	-40.8	19.7	0.00e+00	0	39	0	0	49	4461
2026-01-23 22:01:54.48	79.49	17.98	-39.1	-40.8	19.7	0.00e+00	0	39	0	0	49	4469
2026-01-23 22:01:57.33	80.15	18.02	-39.2	-40.9	19.5	0.00e+00	0	39	0	0	49	4535
2026-01-23 22:02:00.45	80.88	18.05	-39.1	-40.9	19.6	0.00e+00	0	39	0	0	49	4510
2026-01-23 22:02:03.33	81.55	18.08	-39.0	-40.7	19.7	0.00e+00	0	39	0	0	49	4422
2026-01-23 22:02:06.58	82.31	18.11	-39.0	-40.8	19.7	0.00e+00	0	39	0	0	49	4448
2026-01-23 22:02:09.40	82.98	18.13	-38.9	-40.6	19.9	0.00e+00	0	39	0	0	49	4381
2026-01-23 22:02:12.53	83.71	18.14	-39.0	-40.7	19.7	0.00e+00	0	39	0	0	49	4438
2026-01-23 22:02:15.37	84.38	18.16	-38.9	-40.7	19.8	0.00e+00	0	39	0	0	49	4420
2026-01-23 22:02:18.49	85.12	18.16	-38.9	-40.7	19.8	0.00e+00	0	39	0	0	49	4424
2026-01-23 22:02:21.33	85.78	18.17	-39.2	-40.9	19.5	0.00e+00	0	39	0	0	49	4543
2026-01-23 22:02:24.46	86.52	18.17	-39.1	-40.8	19.7	0.00e+00	0	39	0	0	49	4485
2026-01-23 22:02:27.34	87.20	18.16	-39.1	-40.9	19.6	0.00e+00	0	39	0	0	49	4533
2026-01-23 22:02:30.47	87.94	18.15	-39.2	-40.9	19.6	0.00e+00	0	39	0	0	49	4545
2026-01-23 22:02:33.31	88.61	18.14	-38.9	-40.6	19.8	0.00e+00	0	39	0	0	49	4391
2026-01-23 22:02:36.44	89.34	18.12	-39.1	-40.9	19.6	0.00e+00	0	39	0	0	49	4514
2026-01-23 22:02:39.36	90.03	18.10	-39.0	-40.7	19.7	0.00e+00	0	39	0	0	49	4434
2026-01-23 22:02:42.49	90.76	18.08	-38.9	-40.6	19.8	0.00e+00	0	39	0	0	49	4369
2026-01-23 22:02:45.33	91.43	18.05	-39.3	-41.0	19.5	0.00e+00	0	39	0	0	49	4595
2026-01-23 22:02:48.46	92.16	18.01	-39.1	-40.9	19.6	0.00e+00	0	39	0	0	49	4515
2026-01-23 22:02:51.30	92.82	17.98	-38.9	-40.6	19.7	0.00e+00	0	39	0	0	49	4384
2026-01-23 22:02:54.43	93.55	17.93	-38.9	-40.7	19.8	0.00e+00	0	39	0	0	49	4396
2026-01-23 22:02:57.27	94.21	17.89	-38.9	-40.6	19.8	0.00e+00	0	39	0	0	49	4388
2026-01-23 22:03:00.60	94.98	17.83	-39.0	-40.7	19.7	0.00e+00	0	39	0	0	49	4403
2026-01-23 22:03:03.32	95.61	17.78	-38.9	-40.5	19.9	0.00e+00	0	39	0	0	49	4339
2026-01-23 22:03:06.59	96.36	17.72	-38.9	-40.6	19.8	0.00e+00	0	39	0	0	49	4344
2026-01-23 22:03:09.30	96.98	17.67	-38.8	-40.5	19.8	0.00e+00	0	39	0	0	49	4311
2026-01-23 22:03:12.57	97.72	17.59	-38.9	-40.6	19.8	0.00e+00	0	39	0	0	49	4374
2026-01-23 22:03:15.29	98.34	17.53	-39.0	-40.7	19.8	0.00e+00	0	39	0	0	49	4399
2026-01-23 22:03:18.57	99.08	17.45	-39.0	-40.7	19.8	0.00e+00	0	39	0	0	49	4402
2026-01-23 22:03:21.28	99.69	17.38	-39.0	-40.7	19.8	0.00e+00	0	39	0	0	49	4434
2026-01-23 22:03:24.60	100.43	17.30	-38.9	-40.6	19.9	0.00e+00	0	39	0	0	49	4376
2026-01-23 22:03:27.67	101.12	17.21	-38.8	-40.5	20.0	0.00e+00	0	39	0	0	49	4312
2026-01-23 22:03:30.51	101.74	17.13	-38.8	-40.5	20.0	0.00e+00	0	39	0	0	49	4317
2026-01-23 22:03:33.70	102.45	17.03	-38.8	-40.5	20.0	0.00e+00	0	39	0	0	49	4313
2026-01-23 22:03:36.55	103.07	16.94	-39.0	-40.7	19.9	0.00e+00	0	39	0	0	49	4400
2026-01-23 22:03:39.68	103.75	16.84	-38.9	-40.6	19.9	0.00e+00	0	39	0	0	49	4343
2026-01-23 22:03:42.52	104.36	16.75	-38.9	-40.6	19.9	0.00e+00	0	39	0	0	49	4381
2026-01-23 22:03:45.83	105.07	16.63	-38.9	-40.7	19.8	0.00e+00	0	39	0	0	49	4397
2026-01-23 22:03:48.81	105.71	16.53	-39.0	-40.7	19.8	0.00e+00	0	39	0	0	49	4418
2026-01-23 22:03:51.80	106.34	16.42	-38.9	-40.6	19.9	0.00e+00	0	39	0	0	49	4391
2026-01-23 22:03:54.78	106.97	16.31	-39.1	-40.8	19.7	0.00e+00	0	39	0	0	49	4455
2026-01-23 22:03:57.75	107.59	16.19	-39.1	-40.9	19.6	0.00e+00	0	39	0	0	49	4519
2026-01-23 22:04:01.10	108.28	16.06	-39.4	-41.2	19.3	0.00e+00	0	39	0	0	49	4690
2026-01-23 22:04:03.81	108.84	15.95	-39.5	-41.2	19.3	0.00e+00	0	39	0	0	49	4705
2026-01-23 22:04:07.08	109.50	15.82	-39.3	-41.0	19.5	0.00e+00	0	39	0	0	49	4573
2026-01-23 22:04:09.81	110.06	15.71	-39.3	-41.1	19.4	0.00e+00	0	39	0	0	49	4618
2026-01-23 22:04:13.13	110.72	15.57	-39.7	-41.6	19.0	0.00e+00	0	39	0	0	50	4607
2026-01-23 22:04:16.12	111.32	15.44	-39.7	-41.5	19.1	0.00e+00	0	39	0	0	50	4552
2026-01-23 22:04:19.23	111.93	15.30	-39.4	-41.2	19.2	0.00e+00	0	39	0	0	50	4425
2026-01-23 22:04:22.50	112.57	15.15	-39.4	-41.1	19.3	0.00e+00	0	39	0	0	50	4383
2026-01-23 22:04:25.21	113.09	15.03	-39.6	-41.4	19.1	0.00e+00	0	39	0	0	50	4511
2026-01-23 22:04:28.59	113.74	14.87	-39.7	-41.5	19.0	0.00e+00	0	39	0	0	50	4547
2026-01-23 22:04:31.34	114.26	14.75	-39.7	-41.5	19.0	0.00e+00	0	39	0	0	50	4580
2026-01-23 22:04:34.73	114.90	14.59	-39.5	-41.3	19.2	0.00e+00	0	39	0	0	50	4447
2026-01-23 22:04:37.50	115.42	14.45	-39.3	-41.0	19.4	0.00e+00	0	39	0	0	50	4340
2026-01-23 22:04:40.80	116.03	14.29	-39.6	-41.4	19.1	0.00e+00	0	39	0	0	50	4506
2026-01-23 22:04:43.50	116.52	14.16	-39.7	-41.5	19.0	0.00e+00	0	39	0	0	50	4569
2026-01-23 22:04:46.77	117.11	14.00	-39.8	-41.6	18.8	0.00e+00	0	39	0	0	50	4648
2026-01-23 22:04:49.47	117.60	13.86	-39.6	-41.4	19.1	0.00e+00	0	39	0	0	50	4499
2026-01-23 22:04:52.69	118.17	13.70	-39.6	-41.4	19.1	0.00e+00	0	39	0	0	50	4512
2026-01-23 22:04:55.68	118.70	13.55	-39.6	-41.4	19.1	0.00e+00	0	39	0	0	50	4516
2026-01-23 22:04:58.74	119.23	13.39	-39.9	-41.7	18.8	0.00e+00	0	39	0	0	50	4670
2026-01-23 22:05:01.62	119.73	13.24	-39.9	-41.7	18.7	0.00e+00	0	39	0	0	50	4701
2026-01-23 22:05:04.75	120.26	13.08	-39.8	-41.6	18.9	0.00e+00	0	39	0	0	50	4625
2026-01-23 22:05:07.58	120.74	12.93	-39.8	-41.6	18.9	0.00e+00	0	39	0	0	50	4628
2026-01-23 22:05:10.71	121.26	12.77	-39.6	-41.4	19.1	0.00e+00	0	39	0	0	50	4496
2026-01-23 22:05:13.55	121.73	12.62	-39.7	-41.5	19.0	0.00e+00	0	39	0	0	50	4560
2026-01-23 22:05:16.68	122.24	12.45	-39.8	-41.6	18.8	0.00e+00	0	39	0	0	50	4651
2026-01-23 22:05:19.53	122.71	12.30	-39.8	-41.7	18.8	0.00e+00	0	39	0	0	50	4663
2026-01-23 22:05:22.80	123.23	12.12	-39.9	-41.8	18.7	0.00e+00	0	39	0	0	50	4724
2026-01-23 22:05:25.96	123.73	11.95	-40.0	-41.8	18.7	0.00e+00	0	39	0	0	50	4736
2026-01-23 22:05:28.80	124.18	11.80	-39.7	-41.5	19.0	0.00e+00	0	39	0	0	50	4567
2026-01-23 22:05:31.93	124.66	11.62	-39.8	-41.6	18.9	0.00e+00	0	39	0	0	50	4611
2026-01-23 22:05:34.79	125.10	11.47	-39.8	-41.6	18.8	0.00e+00	0	39	0	0	50	4647
2026-01-23 22:05:37.98	125.58	11.29	-39.8	-41.6	18.8	0.00e+00	0	39	0	0	50	4647
2026-01-23 22:05:40.90	126.02	11.13	-40.1	-42.0	18.5	0.00e+00	0	39	0	0	50	4821
2026-01-23 22:05:44.10	126.50	10.96	-40.2	-42.1	18.4	0.00e+00	0	39	0	0	51	4610
2026-01-23 22:05:46.95	126.92	10.80	-40.3	-42.1	18.3	0.00e+00	0	39	0	0	51	4648
2026-01-23 22:05:50.06	127.37	10.62	-40.5	-42.4	18.0	0.00e+00	0	39	0	0	51	4783
2026-01-23 22:05:53.04	127.79	10.46	-40.6	-42.6	17.8	0.00e+00	0	39	0	0	51	4910
2026-01-23 22:05:56.03	128.22	10.29	-40.6	-42.6	17.7	0.00e+00	0	39	0	0	52	4622
2026-01-23 22:05:59.02	128.64	10.13	-40.7	-42.8	17.4	0.00e+00	0	39	0	0	52	4747
2026-01-23 22:06:02.00	129.05	9.96	-40.7	-42.7	17.5	0.00e+00	0	39	0	0	52	4701
2026-01-23 22:06:04.98	129.46	9.79	-40.6	-42.5	17.7	0.00e+00	0	39	0	0	52	4597
2026-01-23 22:06:07.97	129.87	9.63	-40.7	-42.7	17.5	0.00e+00	0	39	0	0	52	4691
2026-01-23 22:06:10.95	130.27	9.46	-40.6	-42.5	17.6	0.00e+00	0	39	0	0	52	4582
2026-01-23 22:06:13.94	130.67	9.29	-40.6	-42.6	17.5	0.00e+00	0	39	0	0	52	4641
2026-01-23 22:06:17.00	131.07	9.12	-40.8	-42.8	17.3	0.00e+00	0	39	0	0	52	4755
2026-01-23 22:06:19.85	131.44	8.96	-47.6	-54.9	6.2	2.93e-02	0	39	0	0	65	9009
2026-01-23 22:06:22.97	131.84	8.79	-49.2	-62.2	3.8	1.49e+00	0	39	104	0	69	16666
2026-01-23 22:06:25.81	132.20	8.63	-49.3	-62.3	3.8	1.49e+00	0	39	104	0	69	16696
2026-01-23 22:06:28.93	132.59	8.45	-49.3	-62.2	3.8	1.49e+00	0	39	104	0	69	16600
2026-01-23 22:06:31.77	132.95	8.29	-49.3	-62.2	3.8	1.49e+00	0	39	104	0	69	16626
2026-01-23 22:06:34.89	133.33	8.12	-49.1	-62.2	3.8	1.49e+00	0	39	104	0	69	16658
2026-01-23 22:06:37.73	133.68	7.96	-48.9	-62.3	3.8	1.49e+00	0	39	104	0	69	16696
2026-01-23 22:06:40.85	134.05	7.78	-49.1	-62.2	3.8	1.49e+00	0	40	104	0	69	16561
2026-01-23 22:06:43.69	134.39	7.63	-49.1	-62.2	3.8	1.49e+00	0	39	104	0	69	16513
2026-01-23 22:06:46.81	134.76	7.45	-49.0	-62.1	3.8	1.49e+00	0	39	104	0	69	16498
2026-01-23 22:06:49.65	135.09	7.29	-49.0	-62.2	3.8	1.49e+00	0	39	104	0	69	16516
2026-01-23 22:06:52.78	135.45	7.12	-49.0	-62.1	3.8	1.49e+00	0	40	104	0	69	16444
2026-01-23 22:06:55.62	135.77	6.96	-49.0	-62.1	3.8	1.49e+00	0	39	104	0	69	16383
2026-01-23 22:06:58.74	136.12	6.79	-49.0	-62.1	3.8	1.49e+00	0	40	104	0	69	16433
2026-01-23 22:07:01.58	136.44	6.63	-49.0	-62.1	3.8	1.49e+00	0	39	104	0	69	16429
2026-01-23 22:07:04.70	136.78	6.46	-49.0	-62.1	3.8	1.49e+00	0	39	104	0	69	16419
2026-01-23 22:07:07.54	137.09	6.30	-49.0	-62.1	3.8	1.49e+00	0	40	104	0	69	16413
2026-01-23 22:07:10.66	137.43	6.13	-49.0	-62.1	3.8	1.49e+00	0	39	104	0	69	16412
2026-01-23 22:07:13.50	137.73	5.97	-49.0	-62.1	3.8	1.49e+00	0	39	104	0	69	16344
2026-01-23 22:07:16.62	138.06	5.80	-49.0	-62.1	3.8	1.49e+00	0	40	104	0	69	16407
2026-01-23 22:07:19.46	138.36	5.65	-49.0	-62.1	3.8	1.49e+00	0	40	104	0	69	16406
2026-01-23 22:07:22.58	138.68	5.48	-49.0	-62.1	3.8	1.49e+00	0	40	104	0	69	16418
2026-01-23 22:07:25.42	138.97	5.32	-49.0	-62.1	3.8	1.49e+00	0	40	104	0	69	16352
2026-01-23 22:07:28.54	139.29	5.15	-49.0	-62.1	3.8	1.49e+00	0	40	104	0	69	16343
2026-01-23 22:07:31.38	139.57	5.00	-49.0	-62.1	3.8	1.49e+00	0	40	104	0	69	16332

#Closed at: 2026-01-23 22:07:32
#Recorded file [0 MB]: D:/Data/31040_260124_005710.dat