passes_logs/2026/01/23/T1/T1__20260123_125420_FENGYUN_3D_rec.log

#Pass ID: 20260123_125420_FENGYUN 3D
#Satellite: FENGYUN 3D
#Configuration: FENGYUN 3D
#almurnet v.1.7.20251203
#Start time: 2026-01-23 12:54:23

#Version: 2.0.20230620
#Station: T1
#Location: 37.570604 lon 55.790049 lat
#TLE: 1 43010U 17072A   26022.96745493  .00000490  00000+0  25355-3 0  9999
#TLE: 2 43010  98.9955 354.9072 0002484  95.6139 264.5320 14.19700039424383

#Time	Az	El	Level	Level2	SNR	BER	BlckErr	Temp	State	Recorded	gain1	gain2
2026-01-23 12:54:23.07	189.49	5.14	-47.3	-60.7	3.8	8.47e-01	0	35	0	0	66	16512
2026-01-23 12:54:26.04	189.65	5.35	-47.3	-60.1	3.8	8.46e-01	0	36	104	0	65	16455
2026-01-23 12:54:29.02	189.81	5.55	-47.3	-59.7	3.8	8.47e-01	0	36	104	0	65	15706
2026-01-23 12:54:32.00	189.98	5.76	-47.3	-59.9	3.8	8.47e-01	0	36	104	0	65	15948
2026-01-23 12:54:34.98	190.14	5.96	-47.3	-60.1	3.8	8.47e-01	0	36	104	0	65	16482
2026-01-23 12:54:37.96	190.31	6.17	-47.3	-59.9	3.8	8.47e-01	0	36	104	0	65	15952
2026-01-23 12:54:40.94	190.48	6.38	-47.3	-59.7	3.8	8.46e-01	0	36	104	0	65	15587
2026-01-23 12:54:43.92	190.65	6.59	-47.3	-60.1	3.8	8.46e-01	0	36	104	0	65	16401
2026-01-23 12:54:46.90	190.83	6.81	-47.3	-60.1	3.8	8.47e-01	0	36	104	0	65	16425
2026-01-23 12:54:49.88	191.01	7.02	-47.2	-58.7	3.8	8.46e-01	0	36	104	0	65	13944
2026-01-23 12:54:52.86	191.19	7.24	-46.9	-56.8	4.3	8.34e-01	0	37	0	0	65	11193
2026-01-23 12:54:55.84	191.37	7.45	-47.3	-60.4	3.8	8.46e-01	0	37	104	0	65	17000
2026-01-23 12:54:58.82	191.56	7.67	-46.1	-52.6	6.7	6.47e-01	0	37	0	1048576	64	7352
2026-01-23 12:55:01.80	191.75	7.89	-42.2	-45.1	14.4	3.40e-06	0	37	0	18874368	56	4884
2026-01-23 12:55:04.78	191.94	8.12	-39.2	-41.4	18.0	0.00e+00	0	37	0	35651584	50	4502
2026-01-23 12:55:07.76	192.13	8.34	-38.4	-40.5	18.7	0.00e+00	0	37	0	51380224	48	4575
2026-01-23 12:55:10.74	192.33	8.57	-39.5	-41.8	17.6	0.00e+00	0	37	0	69206016	49	5012
2026-01-23 12:55:13.72	192.53	8.79	-42.1	-45.0	14.4	1.10e-06	0	37	0	84934656	54	5430
2026-01-23 12:55:16.70	192.73	9.02	-45.0	-49.7	9.7	9.63e-03	0	37	0	101711872	60	6602
2026-01-23 12:55:19.68	192.94	9.26	-46.1	-52.7	6.9	8.00e-04	0	37	0	119537664	62	8285
2026-01-23 12:55:22.66	193.15	9.49	-40.6	-43.0	16.4	0.00e+00	0	37	0	135266304	53	4597
2026-01-23 12:55:25.64	193.36	9.72	-39.0	-41.1	18.3	0.00e+00	0	37	0	152043520	50	4350
2026-01-23 12:55:28.63	193.57	9.96	-38.5	-40.5	18.9	0.00e+00	0	37	0	168820736	49	4323
2026-01-23 12:55:31.61	193.79	10.20	-37.6	-39.6	19.5	0.00e+00	0	37	0	185597952	47	4361
2026-01-23 12:55:34.60	194.02	10.44	-37.7	-39.7	19.4	0.00e+00	0	37	0	202375168	47	4418
2026-01-23 12:55:37.59	194.24	10.69	-37.7	-39.8	19.4	0.00e+00	0	37	0	219152384	47	4446
2026-01-23 12:55:40.58	194.47	10.93	-37.6	-39.6	19.5	0.00e+00	0	37	0	235929600	47	4386
2026-01-23 12:55:43.56	194.71	11.18	-37.6	-39.6	19.5	0.00e+00	0	38	0	252706816	47	4352
2026-01-23 12:55:46.54	194.94	11.43	-37.6	-39.5	19.6	0.00e+00	0	37	0	269484032	47	4337
2026-01-23 12:55:49.53	195.19	11.68	-37.6	-39.5	19.6	0.00e+00	0	37	0	286261248	47	4335
2026-01-23 12:55:52.51	195.43	11.94	-37.5	-39.5	19.6	0.00e+00	0	37	0	303038464	47	4321
2026-01-23 12:55:55.50	195.68	12.19	-37.5	-39.5	19.7	0.00e+00	0	38	0	319815680	46	4546
2026-01-23 12:55:58.48	195.93	12.45	-37.3	-39.3	19.9	0.00e+00	0	37	0	336592896	46	4452
2026-01-23 12:56:01.46	196.19	12.71	-37.2	-39.2	20.0	0.00e+00	0	38	0	353370112	46	4408
2026-01-23 12:56:04.45	196.46	12.97	-37.2	-39.1	20.0	0.00e+00	0	38	0	370147328	46	4371
2026-01-23 12:56:07.43	196.72	13.24	-37.1	-39.1	20.1	0.00e+00	0	38	0	386924544	46	4349
2026-01-23 12:56:10.42	196.99	13.51	-37.0	-39.0	20.1	0.00e+00	0	37	0	403701760	46	4308
2026-01-23 12:56:13.40	197.27	13.78	-36.9	-38.9	20.2	0.00e+00	0	38	0	420478976	45	4515
2026-01-23 12:56:16.38	197.55	14.05	-36.8	-38.8	20.3	0.00e+00	0	37	0	437256192	45	4452
2026-01-23 12:56:19.37	197.84	14.32	-36.8	-38.8	20.3	0.00e+00	0	38	0	454033408	45	4448
2026-01-23 12:56:22.35	198.13	14.60	-36.7	-38.6	20.4	0.00e+00	0	38	0	470810624	45	4391
2026-01-23 12:56:25.34	198.43	14.88	-36.8	-38.7	20.5	0.00e+00	0	38	0	487587840	45	4401
2026-01-23 12:56:28.32	198.73	15.16	-36.6	-38.5	20.6	0.00e+00	0	38	0	504365056	45	4308
2026-01-23 12:56:31.30	199.04	15.45	-36.6	-38.4	20.7	0.00e+00	0	38	0	521142272	45	4268
2026-01-23 12:56:34.29	199.35	15.74	-36.2	-38.0	21.0	0.00e+00	0	38	0	537919488	44	4330
2026-01-23 12:56:37.27	199.67	16.03	-36.3	-38.2	20.9	0.00e+00	0	38	0	554696704	44	4404
2026-01-23 12:56:40.26	200.00	16.32	-36.4	-38.2	20.9	0.00e+00	0	38	0	571473920	44	4423
2026-01-23 12:56:43.24	200.33	16.62	-36.2	-38.0	21.1	0.00e+00	0	38	0	588251136	44	4320
2026-01-23 12:56:46.23	200.67	16.92	-36.2	-38.0	21.0	0.00e+00	0	38	0	605028352	44	4338
2026-01-23 12:56:49.22	201.02	17.22	-35.8	-37.6	21.3	0.00e+00	0	38	0	621805568	43	4379
2026-01-23 12:56:52.20	201.37	17.52	-35.6	-37.5	21.4	0.00e+00	0	38	0	638582784	43	4293
2026-01-23 12:56:55.18	201.73	17.83	-35.6	-37.4	21.5	0.00e+00	0	38	0	655360000	43	4273
2026-01-23 12:56:58.16	202.09	18.14	-35.5	-37.3	21.6	0.00e+00	0	38	0	672137216	43	4199
2026-01-23 12:57:01.15	202.47	18.45	-35.3	-37.1	21.7	0.00e+00	0	38	0	688914432	42	4372
2026-01-23 12:57:04.13	202.85	18.76	-35.4	-37.2	21.7	0.00e+00	0	38	0	705691648	42	4392
2026-01-23 12:57:07.11	203.23	19.08	-35.6	-37.4	21.6	0.00e+00	0	38	0	722468864	42	4503
2026-01-23 12:57:10.10	203.63	19.40	-35.7	-37.6	21.4	0.00e+00	0	38	0	739246080	42	4606
2026-01-23 12:57:13.09	204.04	19.73	-35.4	-37.2	21.7	0.00e+00	0	38	0	756023296	42	4438
2026-01-23 12:57:16.07	204.45	20.05	-35.4	-37.2	21.7	0.00e+00	0	38	0	772800512	42	4424
2026-01-23 12:57:19.05	204.87	20.38	-34.9	-36.7	22.1	0.00e+00	0	38	0	789577728	41	4415
2026-01-23 12:57:22.04	205.30	20.72	-34.8	-36.6	22.2	0.00e+00	0	38	0	806354944	41	4350
2026-01-23 12:57:25.03	205.74	21.05	-34.9	-36.6	22.1	0.00e+00	0	38	0	823132160	41	4381
2026-01-23 12:57:28.01	206.19	21.39	-35.2	-37.0	21.8	0.00e+00	0	38	0	839909376	41	4571
2026-01-23 12:57:31.00	206.65	21.73	-35.3	-37.1	21.8	0.00e+00	0	38	0	856686592	41	4614
2026-01-23 12:57:33.98	207.12	22.07	-35.2	-37.0	21.9	0.00e+00	0	38	0	873463808	41	4546
2026-01-23 12:57:36.96	207.60	22.42	-35.0	-36.7	22.1	0.00e+00	0	38	0	890241024	41	4437
2026-01-23 12:57:39.95	208.09	22.77	-34.9	-36.6	22.2	0.00e+00	0	38	0	907018240	41	4375
2026-01-23 12:57:42.94	208.59	23.12	-34.7	-36.4	22.4	0.00e+00	0	38	0	923795456	41	4266
2026-01-23 12:57:45.92	209.10	23.47	-34.4	-36.2	22.6	0.00e+00	0	38	0	940572672	40	4399
2026-01-23 12:57:48.90	209.63	23.83	-34.5	-36.2	22.5	0.00e+00	0	38	0	957349888	40	4416
2026-01-23 12:57:51.88	210.16	24.19	-34.5	-36.3	22.5	0.00e+00	0	38	0	974127104	40	4455
2026-01-23 12:57:54.87	210.71	24.55	-34.7	-36.5	22.3	0.00e+00	0	38	0	990904320	40	4567
2026-01-23 12:57:57.85	211.27	24.91	-34.6	-36.3	22.4	0.00e+00	0	38	0	1007681536	40	4489
2026-01-23 12:58:00.84	211.84	25.28	-34.4	-36.1	22.7	0.00e+00	0	38	0	1024458752	40	4365
2026-01-23 12:58:03.82	212.42	25.64	-34.4	-36.1	22.7	0.00e+00	0	38	0	1041235968	40	4372
2026-01-23 12:58:06.80	213.02	26.01	-34.3	-36.1	22.7	0.00e+00	0	38	0	1058013184	40	4355
2026-01-23 12:58:09.79	213.64	26.39	-34.4	-36.2	22.5	0.00e+00	0	38	0	1074790400	40	4407
2026-01-23 12:58:12.78	214.26	26.76	-34.3	-36.0	22.7	0.00e+00	0	38	0	1091567616	40	4322
2026-01-23 12:58:15.76	214.91	27.13	-34.0	-35.7	23.0	0.00e+00	0	38	0	1108344832	39	4435
2026-01-23 12:58:18.75	215.56	27.51	-34.1	-35.8	22.9	0.00e+00	0	38	0	1125122048	39	4483
2026-01-23 12:58:21.73	216.23	27.89	-34.1	-35.9	22.9	0.00e+00	0	38	0	1141899264	39	4495
2026-01-23 12:58:24.72	216.92	28.27	-34.0	-35.8	23.0	0.00e+00	0	38	0	1158676480	39	4445
2026-01-23 12:58:27.71	217.63	28.64	-33.9	-35.6	23.0	0.00e+00	0	38	0	1175453696	39	4382
2026-01-23 12:58:30.69	218.35	29.02	-34.0	-35.7	23.1	0.00e+00	0	38	0	1192230912	39	4403
2026-01-23 12:58:33.68	219.09	29.40	-33.9	-35.6	23.1	0.00e+00	0	38	0	1209008128	39	4376
2026-01-23 12:58:36.66	219.84	29.78	-33.9	-35.6	23.2	0.00e+00	0	38	0	1225785344	39	4362
2026-01-23 12:58:39.64	220.61	30.16	-33.9	-35.6	23.2	0.00e+00	0	38	0	1242562560	39	4372
2026-01-23 12:58:42.63	221.40	30.54	-33.9	-35.6	23.2	0.00e+00	0	38	0	1259339776	39	4348
2026-01-23 12:58:45.61	222.21	30.91	-33.8	-35.5	23.2	0.00e+00	0	38	0	1276116992	39	4338
2026-01-23 12:58:48.59	223.03	31.29	-33.9	-35.6	23.2	0.00e+00	0	38	0	1292894208	39	4368
2026-01-23 12:58:51.58	223.88	31.66	-33.8	-35.5	23.3	0.00e+00	0	38	0	1309671424	39	4293
2026-01-23 12:58:54.56	224.74	32.04	-33.8	-35.5	23.3	0.00e+00	0	38	0	1326448640	39	4300
2026-01-23 12:58:57.55	225.63	32.40	-33.8	-35.5	23.2	0.00e+00	0	38	0	1343225856	39	4330
2026-01-23 12:59:00.54	226.54	32.77	-33.7	-35.4	23.2	0.00e+00	0	38	0	1360003072	39	4289
2026-01-23 12:59:03.52	227.46	33.13	-33.7	-35.4	23.2	0.00e+00	0	38	0	1377828864	39	4252
2026-01-23 12:59:06.51	228.41	33.49	-33.9	-35.7	23.0	0.00e+00	0	38	0	1393557504	39	4394
2026-01-23 12:59:09.49	229.37	33.85	-34.0	-35.7	23.0	0.00e+00	0	38	0	1410334720	39	4423
2026-01-23 12:59:12.47	230.35	34.19	-33.6	-35.3	23.3	0.00e+00	0	38	0	1428160512	39	4233
2026-01-23 12:59:15.46	231.36	34.54	-33.8	-35.5	23.1	0.00e+00	0	38	0	1443889152	39	4323
2026-01-23 12:59:18.44	232.39	34.87	-33.7	-35.4	23.3	0.00e+00	0	38	0	1460666368	39	4284
2026-01-23 12:59:21.42	233.44	35.20	-33.6	-35.3	23.4	0.00e+00	0	38	0	1478492160	39	4194
2026-01-23 12:59:24.41	234.51	35.53	-33.7	-35.4	23.3	0.00e+00	0	38	0	1494220800	39	4276
2026-01-23 12:59:27.39	235.60	35.84	-33.5	-35.2	23.4	0.00e+00	0	38	0	1510998016	39	4184
2026-01-23 12:59:30.38	236.71	36.15	-33.6	-35.3	23.3	0.00e+00	0	38	0	1528823808	39	4240
2026-01-23 12:59:33.36	237.84	36.44	-33.5	-35.2	23.4	0.00e+00	0	38	0	1544552448	39	4186
2026-01-23 12:59:36.35	238.99	36.73	-33.6	-35.3	23.4	0.00e+00	0	38	0	1561329664	38	4447
2026-01-23 12:59:39.33	240.16	37.01	-33.6	-35.3	23.5	0.00e+00	0	38	0	1579155456	38	4467
2026-01-23 12:59:42.32	241.36	37.27	-33.4	-35.1	23.6	0.00e+00	0	38	0	1594884096	38	4372
2026-01-23 12:59:45.30	242.56	37.53	-33.3	-35.0	23.7	0.00e+00	0	38	0	1612709888	38	4323
2026-01-23 12:59:48.28	243.79	37.77	-33.3	-35.0	23.7	0.00e+00	0	38	0	1629487104	38	4322
2026-01-23 12:59:51.27	245.04	38.00	-33.4	-35.1	23.6	0.00e+00	0	38	0	1645215744	38	4374
2026-01-23 12:59:54.25	246.30	38.21	-33.3	-35.0	23.6	0.00e+00	0	38	0	1663041536	38	4326
2026-01-23 12:59:57.23	247.57	38.41	-33.3	-35.0	23.6	0.00e+00	0	38	0	1679818752	38	4305
2026-01-23 13:00:00.22	248.87	38.59	-33.4	-35.1	23.6	0.00e+00	0	38	0	1695547392	38	4365
2026-01-23 13:00:03.20	250.17	38.76	-33.6	-35.3	23.4	0.00e+00	0	38	0	1713373184	38	4453
2026-01-23 13:00:06.19	251.49	38.92	-33.3	-35.0	23.7	0.00e+00	0	38	0	1730150400	38	4305
2026-01-23 13:00:09.18	252.83	39.06	-33.6	-35.3	23.4	0.00e+00	0	38	0	1746927616	38	4447
2026-01-23 13:00:12.16	254.16	39.18	-33.3	-35.0	23.7	0.00e+00	0	38	0	1763704832	38	4306
2026-01-23 13:00:15.15	255.52	39.28	-33.2	-34.9	23.7	0.00e+00	0	38	0	1780482048	38	4278
2026-01-23 13:00:18.13	256.87	39.37	-33.2	-34.9	23.7	0.00e+00	0	38	0	1797259264	38	4257
2026-01-23 13:00:21.11	258.24	39.44	-33.6	-35.3	23.3	0.00e+00	0	38	0	1814036480	38	4487
2026-01-23 13:00:24.10	259.61	39.49	-33.3	-35.0	23.6	0.00e+00	0	38	0	1830813696	38	4329
2026-01-23 13:00:27.08	260.98	39.52	-33.4	-35.1	23.5	0.00e+00	0	38	0	1847590912	38	4372
2026-01-23 13:00:30.06	262.35	39.54	-33.4	-35.1	23.5	0.00e+00	0	38	0	1864368128	38	4379
2026-01-23 13:00:33.04	263.72	39.53	-33.5	-35.1	23.5	0.00e+00	0	38	0	1881145344	38	4391
2026-01-23 13:00:36.03	265.10	39.51	-33.3	-35.0	23.7	0.00e+00	0	38	0	1897922560	38	4308
2026-01-23 13:00:39.01	266.47	39.47	-33.2	-34.9	23.7	0.00e+00	0	38	0	1914699776	38	4251
2026-01-23 13:00:42.00	267.84	39.41	-33.4	-35.0	24.2	0.00e+00	0	38	0	1931476992	38	4328
2026-01-23 13:00:44.99	269.20	39.34	-33.7	-35.3	24.1	0.00e+00	0	38	0	1948254208	38	4473
2026-01-23 13:00:47.97	270.55	39.25	-33.5	-35.1	24.1	0.00e+00	0	38	0	1965031424	38	4376
2026-01-23 13:00:50.96	271.90	39.14	-33.6	-35.2	24.1	0.00e+00	0	38	0	1981808640	38	4439
2026-01-23 13:00:53.94	273.24	39.01	-33.6	-35.2	24.1	0.00e+00	0	38	0	1998585856	38	4434
2026-01-23 13:00:56.92	274.56	38.87	-33.6	-35.2	24.1	0.00e+00	0	38	0	2015363072	38	4422
2026-01-23 13:00:59.91	275.88	38.71	-33.4	-35.0	24.3	0.00e+00	0	38	0	2032140288	38	4320
2026-01-23 13:01:02.89	277.17	38.53	-33.5	-35.2	24.2	0.00e+00	0	38	0	2048917504	38	4402
2026-01-23 13:01:05.87	278.46	38.34	-33.5	-35.1	24.2	0.00e+00	0	38	0	2065694720	38	4368
2026-01-23 13:01:08.86	279.73	38.14	-33.4	-35.0	24.3	0.00e+00	0	38	0	2082471936	38	4329
2026-01-23 13:01:11.84	280.98	37.92	-33.7	-35.3	24.1	0.00e+00	0	38	0	2099249152	38	4464
2026-01-23 13:01:14.83	282.22	37.69	-33.4	-34.9	24.4	0.00e+00	0	38	0	2116026368	38	4290
2026-01-23 13:01:17.82	283.44	37.44	-33.5	-35.1	24.2	0.00e+00	0	38	0	2132803584	38	4386
2026-01-23 13:01:20.80	284.64	37.19	-33.6	-35.2	24.1	0.00e+00	0	38	0	2149580800	38	4399
2026-01-23 13:01:23.78	285.82	36.92	-33.5	-35.1	24.2	0.00e+00	0	38	0	2166358016	38	4370
2026-01-23 13:01:26.77	286.98	36.64	-33.6	-35.2	24.1	0.00e+00	0	38	0	2183135232	38	4429
2026-01-23 13:01:29.75	288.12	36.35	-33.8	-35.4	23.9	0.00e+00	0	38	0	2199912448	38	4532
2026-01-23 13:01:32.74	289.24	36.05	-33.8	-35.4	24.0	0.00e+00	0	38	0	2216689664	38	4509
2026-01-23 13:01:35.72	290.34	35.74	-33.7	-35.3	24.0	0.00e+00	0	38	0	2233466880	38	4472
2026-01-23 13:01:38.70	291.42	35.43	-33.7	-35.3	24.1	0.00e+00	0	38	0	2250244096	38	4457
2026-01-23 13:01:41.69	292.48	35.10	-33.9	-35.6	23.8	0.00e+00	0	38	0	2267021312	38	4602
2026-01-23 13:01:44.67	293.52	34.77	-33.6	-35.2	24.2	0.00e+00	0	38	0	2283798528	38	4395
2026-01-23 13:01:47.66	294.54	34.44	-33.8	-35.4	23.9	0.00e+00	0	38	0	2300575744	38	4542
2026-01-23 13:01:50.64	295.53	34.09	-33.9	-35.5	23.8	0.00e+00	0	38	0	2317352960	38	4592
2026-01-23 13:01:53.63	296.51	33.74	-33.8	-35.4	24.0	0.00e+00	0	38	0	2334130176	38	4519
2026-01-23 13:01:56.61	297.46	33.39	-33.9	-35.5	23.9	0.00e+00	0	38	0	2350907392	38	4590
2026-01-23 13:01:59.60	298.40	33.03	-34.0	-35.6	23.7	0.00e+00	0	38	0	2367684608	38	4633
2026-01-23 13:02:02.58	299.31	32.67	-34.1	-35.8	23.7	0.00e+00	0	38	0	2384461824	38	4708
2026-01-23 13:02:05.57	300.21	32.31	-34.3	-35.9	23.6	0.00e+00	0	38	0	2401239040	39	4519
2026-01-23 13:02:08.55	301.09	31.94	-34.0	-35.7	23.8	0.00e+00	0	38	0	2418016256	39	4395
2026-01-23 13:02:11.54	301.94	31.57	-34.0	-35.7	23.8	0.00e+00	0	38	0	2434793472	39	4392
2026-01-23 13:02:14.52	302.78	31.20	-34.3	-35.9	23.6	0.00e+00	0	38	0	2451570688	39	4543
2026-01-23 13:02:17.50	303.59	30.82	-34.5	-36.1	23.4	0.00e+00	0	38	0	2468347904	39	4631
2026-01-23 13:02:20.49	304.40	30.45	-34.6	-36.3	23.3	0.00e+00	0	38	0	2485125120	39	4710
2026-01-23 13:02:23.47	305.18	30.07	-34.4	-36.0	23.5	0.00e+00	0	38	0	2501902336	39	4567
2026-01-23 13:02:26.46	305.94	29.69	-34.5	-36.1	23.4	0.00e+00	0	38	0	2518679552	39	4626
2026-01-23 13:02:29.44	306.69	29.32	-34.6	-36.3	23.3	0.00e+00	0	38	0	2535456768	39	4709
2026-01-23 13:02:32.43	307.42	28.94	-34.6	-36.2	23.3	0.00e+00	0	38	0	2552233984	39	4701
2026-01-23 13:02:35.41	308.13	28.57	-34.8	-36.4	23.1	0.00e+00	0	38	0	2569011200	40	4529
2026-01-23 13:02:38.40	308.83	28.19	-34.9	-36.6	23.0	0.00e+00	0	38	0	2585788416	40	4621
2026-01-23 13:02:41.38	309.50	27.81	-34.7	-36.4	23.1	0.00e+00	0	38	0	2602565632	40	4499
2026-01-23 13:02:44.36	310.17	27.44	-34.3	-35.9	23.5	0.00e+00	0	38	0	2619342848	40	4291
2026-01-23 13:02:47.35	310.82	27.07	-34.6	-36.3	23.3	0.00e+00	0	38	0	2636120064	40	4443
2026-01-23 13:02:50.33	311.45	26.70	-34.6	-36.3	23.3	0.00e+00	0	38	0	2652897280	40	4444
2026-01-23 13:02:53.32	312.08	26.33	-34.3	-36.0	23.5	0.00e+00	0	38	0	2669674496	40	4314
2026-01-23 13:02:56.31	312.68	25.96	-34.3	-36.0	23.5	0.00e+00	0	38	0	2686451712	40	4300
2026-01-23 13:02:59.29	313.28	25.59	-34.6	-36.3	23.2	0.00e+00	0	38	0	2703228928	40	4460
2026-01-23 13:03:02.28	313.86	25.23	-34.8	-36.5	23.0	0.00e+00	0	38	0	2720006144	40	4563
2026-01-23 13:03:05.26	314.42	24.86	-34.8	-36.5	23.1	0.00e+00	0	38	0	2736783360	40	4546
2026-01-23 13:03:08.25	314.98	24.50	-34.9	-36.5	23.0	0.00e+00	0	38	0	2753560576	40	4589
2026-01-23 13:03:11.23	315.52	24.15	-35.0	-36.7	22.8	0.00e+00	0	38	0	2770337792	40	4657
2026-01-23 13:03:14.22	316.05	23.79	-35.0	-36.6	22.9	0.00e+00	0	38	0	2787115008	40	4641
2026-01-23 13:03:17.20	316.57	23.44	-34.9	-36.6	22.9	0.00e+00	0	38	0	2803892224	40	4614
2026-01-23 13:03:20.19	317.08	23.09	-35.0	-36.7	22.8	0.00e+00	0	38	0	2820669440	40	4674
2026-01-23 13:03:23.17	317.58	22.74	-35.0	-36.7	22.8	0.00e+00	0	38	0	2837446656	40	4666
2026-01-23 13:03:26.15	318.06	22.39	-35.3	-37.0	22.5	0.00e+00	0	38	0	2854223872	41	4549
2026-01-23 13:03:29.14	318.54	22.05	-35.2	-36.8	22.7	0.00e+00	0	38	0	2871001088	41	4483
2026-01-23 13:03:32.12	319.00	21.71	-35.2	-36.9	22.7	0.00e+00	0	38	0	2887778304	41	4494
2026-01-23 13:03:35.11	319.46	21.37	-35.2	-37.0	22.6	0.00e+00	0	38	0	2904555520	41	4549
2026-01-23 13:03:38.09	319.90	21.04	-35.6	-37.4	22.2	0.00e+00	0	38	0	2921332736	41	4778
2026-01-23 13:03:41.07	320.34	20.71	-35.8	-37.6	22.0	0.00e+00	0	38	0	2938109952	42	4601
2026-01-23 13:03:44.05	320.77	20.38	-36.0	-37.7	21.9	0.00e+00	0	38	0	2954887168	42	4681
2026-01-23 13:03:47.04	321.19	20.05	-35.8	-37.5	22.1	0.00e+00	0	38	0	2971664384	42	4566
2026-01-23 13:03:50.02	321.60	19.73	-35.9	-37.7	21.9	0.00e+00	0	38	0	2988441600	42	4654
2026-01-23 13:03:53.01	322.00	19.41	-36.2	-37.9	21.7	0.00e+00	0	38	0	3005218816	42	4812
2026-01-23 13:03:55.99	322.40	19.09	-36.4	-38.2	21.4	0.00e+00	0	38	0	3021996032	43	4662
2026-01-23 13:03:58.98	322.78	18.77	-36.2	-38.0	21.6	0.00e+00	0	38	0	3038773248	43	4568
2026-01-23 13:04:01.97	323.16	18.46	-36.1	-37.9	21.7	0.00e+00	0	38	0	3055550464	43	4501
2026-01-23 13:04:04.95	323.53	18.15	-36.1	-37.9	21.7	0.00e+00	0	38	0	3072327680	43	4507
2026-01-23 13:04:07.93	323.90	17.85	-36.2	-38.0	21.6	0.00e+00	0	38	0	3089104896	43	4553
2026-01-23 13:04:10.92	324.26	17.54	-36.4	-38.1	21.4	0.00e+00	0	38	0	3105882112	43	4625
2026-01-23 13:04:13.90	324.60	17.24	-36.4	-38.1	21.4	0.00e+00	0	38	0	3122659328	43	4633
2026-01-23 13:04:16.89	324.95	16.94	-36.4	-38.2	21.4	0.00e+00	0	38	0	3139436544	43	4654
2026-01-23 13:04:19.87	325.29	16.65	-36.4	-38.2	21.4	0.00e+00	0	38	0	3157262336	43	4673
2026-01-23 13:04:22.86	325.62	16.35	-36.4	-38.3	21.2	0.00e+00	0	38	0	3172990976	43	4724
2026-01-23 13:04:25.84	325.94	16.06	-36.6	-38.4	21.1	0.00e+00	0	38	0	3189768192	43	4814
2026-01-23 13:04:28.82	326.26	15.78	-36.8	-38.6	21.1	0.00e+00	0	38	0	3207593984	44	4611
2026-01-23 13:04:31.81	326.58	15.49	-36.9	-38.7	21.0	0.00e+00	0	38	0	3223322624	44	4700
2026-01-23 13:04:34.80	326.88	15.21	-37.0	-38.8	20.9	0.00e+00	0	38	0	3240099840	44	4724
2026-01-23 13:04:37.78	327.18	14.93	-37.0	-38.9	20.9	0.00e+00	0	38	0	3257925632	44	4763
2026-01-23 13:04:40.77	327.48	14.65	-37.0	-38.9	20.9	0.00e+00	0	38	0	3273654272	44	4767
2026-01-23 13:04:43.75	327.77	14.38	-37.2	-39.0	20.7	0.00e+00	0	38	0	3290431488	44	4843
2026-01-23 13:04:46.74	328.06	14.10	-37.4	-39.2	20.5	0.00e+00	0	38	0	3308257280	45	4661
2026-01-23 13:04:49.72	328.34	13.83	-37.5	-39.3	20.4	0.00e+00	0	38	0	3325034496	45	4757
2026-01-23 13:04:52.70	328.62	13.57	-37.6	-39.4	20.2	0.00e+00	0	38	0	3341811712	45	4814
2026-01-23 13:04:55.69	328.89	13.30	-37.7	-39.6	20.1	0.00e+00	0	38	0	3358588928	46	4640
2026-01-23 13:04:58.67	329.16	13.04	-37.7	-39.6	20.1	0.00e+00	0	38	0	3374317568	46	4642
2026-01-23 13:05:01.65	329.42	12.78	-37.9	-39.7	19.9	0.00e+00	0	38	0	3392143360	46	4700
2026-01-23 13:05:04.63	329.68	12.52	-37.9	-39.7	19.9	0.00e+00	0	38	0	3408920576	46	4705
2026-01-23 13:05:07.62	329.93	12.26	-37.8	-39.7	20.0	0.00e+00	0	38	0	3425697792	46	4656
2026-01-23 13:05:10.60	330.18	12.01	-37.9	-39.8	19.9	0.00e+00	0	38	0	3442475008	46	4706
2026-01-23 13:05:13.59	330.43	11.76	-37.9	-39.8	19.9	0.00e+00	0	38	0	3459252224	46	4728
2026-01-23 13:05:16.57	330.67	11.51	-38.0	-39.8	19.8	0.00e+00	0	38	0	3476029440	46	4757
2026-01-23 13:05:19.55	330.91	11.26	-38.1	-40.0	19.6	0.00e+00	0	38	0	3492806656	47	4589
2026-01-23 13:05:22.54	331.14	11.02	-38.1	-40.0	19.6	0.00e+00	0	38	0	3509583872	47	4565
2026-01-23 13:05:25.53	331.38	10.77	-38.1	-40.1	19.6	0.00e+00	0	38	0	3526361088	47	4599
2026-01-23 13:05:28.51	331.60	10.53	-38.2	-40.1	19.5	0.00e+00	0	38	0	3543138304	47	4624
2026-01-23 13:05:31.50	331.83	10.29	-38.1	-40.0	19.5	0.00e+00	0	38	0	3559915520	47	4596
2026-01-23 13:05:34.48	332.05	10.05	-38.1	-40.1	19.5	0.00e+00	0	38	0	3576692736	47	4607
2026-01-23 13:05:37.47	332.26	9.82	-38.2	-40.1	19.5	0.00e+00	0	38	0	3593469952	47	4607
2026-01-23 13:05:40.45	332.48	9.58	-38.3	-40.2	19.4	0.00e+00	0	38	0	3610247168	47	4667
2026-01-23 13:05:43.43	332.69	9.35	-38.4	-40.3	19.3	0.00e+00	0	38	0	3627024384	47	4741
2026-01-23 13:05:46.42	332.90	9.12	-38.4	-40.3	19.2	0.00e+00	0	38	0	3643801600	47	4757
2026-01-23 13:05:49.40	333.10	8.89	-48.8	-61.3	3.8	8.47e-01	0	38	104	3652190208	68	15839
2026-01-23 13:05:52.37	333.30	8.67	-48.9	-61.6	3.8	8.46e-01	0	38	104	3652190208	68	16459
2026-01-23 13:05:55.36	333.50	8.44	-49.4	-61.8	3.8	8.46e-01	0	38	104	3652190208	69	15777
2026-01-23 13:05:58.33	333.70	8.22	-49.6	-61.8	3.8	8.47e-01	0	38	104	3652190208	69	15793
2026-01-23 13:06:01.31	333.89	8.00	-49.7	-61.8	3.8	8.47e-01	0	38	104	3652190208	70	15037
2026-01-23 13:06:04.29	334.08	7.78	-49.8	-61.8	3.8	8.47e-01	0	38	104	3652190208	70	15022
2026-01-23 13:06:07.27	334.27	7.57	-49.7	-61.8	3.8	8.47e-01	0	38	104	3652190208	70	14932
2026-01-23 13:06:10.25	334.45	7.35	-49.6	-61.8	3.8	8.47e-01	0	38	104	3652190208	70	14924
2026-01-23 13:06:13.23	334.63	7.14	-49.4	-61.7	3.8	8.47e-01	0	38	104	3652190208	70	14850
2026-01-23 13:06:16.21	334.81	6.92	-49.4	-61.7	3.8	8.47e-01	0	38	104	3652190208	70	14849
2026-01-23 13:06:19.19	334.99	6.71	-49.4	-61.7	3.8	8.48e-01	0	38	104	3652190208	70	14819
2026-01-23 13:06:22.17	335.17	6.50	-49.4	-61.7	3.8	8.47e-01	0	38	104	3652190208	70	14806
2026-01-23 13:06:25.15	335.34	6.29	-49.4	-61.7	3.8	8.46e-01	0	38	104	3652190208	70	14863
2026-01-23 13:06:28.13	335.51	6.09	-49.4	-61.7	3.8	8.46e-01	0	38	104	3652190208	70	14828
2026-01-23 13:06:31.11	335.68	5.88	-49.4	-61.7	3.8	8.47e-01	0	38	104	3652190208	70	14862
2026-01-23 13:06:34.09	335.85	5.68	-49.4	-61.7	3.8	8.46e-01	0	38	104	3652190208	70	14778
2026-01-23 13:06:37.07	336.01	5.48	-49.4	-61.7	3.8	8.46e-01	0	38	104	3652190208	70	14794
2026-01-23 13:06:40.04	336.17	5.28	-49.4	-61.7	3.8	8.47e-01	0	38	104	3652190208	70	14737
2026-01-23 13:06:43.02	336.33	5.08	-49.4	-61.7	3.8	8.47e-01	0	38	104	3652190208	70	14857

#Closed at: 2026-01-23 13:06:46
#Recorded file [3652 MB]: D:/Data/31040_260123_155423.dat