passes_logs/2026/01/23/T1/T1__20260123_112800_NOAA_21_JPSS-2_rec.log

#Pass ID: 20260123_112800_NOAA 21 (JPSS-2)
#Satellite: NOAA 21 (JPSS-2)
#Configuration: NOAA 21
#almurnet v.1.7.20251203
#Start time: 2026-01-23 11:28:00

#Version: 2.0.20230620
#Station: T1
#Location: 37.570604 lon 55.790049 lat
#TLE: 1 54234U 22150A   26022.41365820  .00000211  00000+0  12084-3 0  9990
#TLE: 2 54234  98.7507 323.2240 0000658 234.5287 125.5828 14.19537645165864

#Time	Az	El	Level	Level2	SNR	BER	BlckErr	Temp	State	Recorded	gain1	gain2
2026-01-23 11:28:00.29	210.78	4.97	-48.7	-62.0	3.8	1.49e+00	0	37	0	0	69	16305
2026-01-23 11:28:03.26	211.04	5.15	-48.6	-62.0	3.8	1.49e+00	0	37	104	0	68	17265
2026-01-23 11:28:06.24	211.30	5.32	-48.6	-62.0	3.8	1.49e+00	0	37	104	0	68	17228
2026-01-23 11:28:09.22	211.56	5.50	-48.6	-61.9	3.8	1.49e+00	0	37	104	0	68	17068
2026-01-23 11:28:12.20	211.83	5.68	-48.6	-61.9	3.8	1.49e+00	0	37	104	0	68	17008
2026-01-23 11:28:15.18	212.10	5.86	-48.6	-61.9	3.8	1.49e+00	0	38	104	0	68	16963
2026-01-23 11:28:18.16	212.37	6.04	-48.6	-61.9	3.8	1.49e+00	0	38	104	0	68	17012
2026-01-23 11:28:21.14	212.65	6.22	-48.6	-61.9	3.8	1.49e+00	0	38	104	0	68	16893
2026-01-23 11:28:24.12	212.92	6.41	-48.6	-61.9	3.8	1.49e+00	0	38	104	0	68	17068
2026-01-23 11:28:27.10	213.21	6.59	-48.6	-62.0	3.8	1.49e+00	0	38	104	0	68	17104
2026-01-23 11:28:30.08	213.49	6.77	-48.6	-61.8	3.8	1.49e+00	0	38	104	0	68	16743
2026-01-23 11:28:33.06	213.78	6.96	-48.6	-61.8	3.8	1.49e+00	0	38	104	0	68	16707
2026-01-23 11:28:36.04	214.07	7.14	-48.6	-61.7	3.8	1.49e+00	0	38	104	0	68	16673
2026-01-23 11:28:39.02	214.37	7.33	-48.6	-61.8	3.8	1.49e+00	0	38	104	0	68	16806
2026-01-23 11:28:42.00	214.67	7.51	-48.6	-61.9	3.8	1.49e+00	0	38	104	0	68	16942
2026-01-23 11:28:44.98	214.98	7.70	-48.5	-61.2	3.8	1.49e+00	0	38	104	0	68	15624
2026-01-23 11:28:47.95	215.28	7.89	-48.2	-58.7	3.9	1.46e+00	0	38	104	0	68	11757
2026-01-23 11:28:50.93	215.59	8.07	-48.6	-61.9	3.8	1.49e+00	0	38	104	0	68	17068
2026-01-23 11:28:53.91	215.91	8.26	-46.1	-50.7	9.8	3.80e-02	0	38	0	0	64	5898
2026-01-23 11:28:56.89	216.23	8.45	-42.2	-44.5	16.1	0.00e+00	0	38	0	0	56	4594
2026-01-23 11:28:59.87	216.55	8.64	-41.3	-43.4	17.0	0.00e+00	0	38	0	0	54	4543
2026-01-23 11:29:02.85	216.88	8.83	-43.5	-46.3	14.4	0.00e+00	0	38	0	0	57	5282
2026-01-23 11:29:05.83	217.21	9.02	-46.4	-51.4	9.2	1.55e-02	0	38	0	0	63	6775
2026-01-23 11:29:08.81	217.55	9.22	-47.4	-54.6	6.1	3.97e-02	0	38	0	0	65	8708
2026-01-23 11:29:11.80	217.89	9.41	-42.6	-45.0	15.8	0.00e+00	0	38	0	0	57	4563
2026-01-23 11:29:14.78	218.23	9.60	-41.5	-43.7	16.9	0.00e+00	0	38	0	0	55	4396
2026-01-23 11:29:17.77	218.58	9.80	-41.1	-43.1	17.4	0.00e+00	0	38	0	0	54	4367
2026-01-23 11:29:20.75	218.94	9.99	-40.4	-42.4	18.2	0.00e+00	0	38	0	0	52	4508
2026-01-23 11:29:23.74	219.30	10.19	-40.3	-42.3	18.2	0.00e+00	0	38	0	0	52	4489
2026-01-23 11:29:26.73	219.66	10.39	-40.1	-42.1	18.4	0.00e+00	0	38	0	0	52	4388
2026-01-23 11:29:29.72	220.03	10.58	-40.2	-42.2	18.3	0.00e+00	0	38	0	0	52	4411
2026-01-23 11:29:32.70	220.40	10.78	-40.1	-42.0	18.5	0.00e+00	0	38	0	0	52	4320
2026-01-23 11:29:35.68	220.78	10.98	-40.1	-42.0	18.7	0.00e+00	0	38	0	0	51	4555
2026-01-23 11:29:38.67	221.16	11.18	-40.2	-42.1	18.5	0.00e+00	0	39	0	0	51	4633
2026-01-23 11:29:41.65	221.55	11.37	-40.0	-41.8	18.8	0.00e+00	0	38	0	0	51	4481
2026-01-23 11:29:44.63	221.94	11.57	-39.8	-41.6	19.0	0.00e+00	0	38	0	0	51	4346
2026-01-23 11:29:47.62	222.34	11.77	-39.7	-41.5	19.1	0.00e+00	0	38	0	0	51	4327
2026-01-23 11:29:50.60	222.74	11.97	-39.7	-41.5	19.2	0.00e+00	0	38	0	0	51	4298
2026-01-23 11:29:53.59	223.15	12.17	-39.7	-41.5	19.2	0.00e+00	0	38	0	0	51	4295
2026-01-23 11:29:56.57	223.56	12.37	-39.6	-41.4	19.2	0.00e+00	0	38	0	0	51	4275
2026-01-23 11:29:59.55	223.98	12.57	-39.7	-41.5	19.2	0.00e+00	0	38	0	0	51	4293
2026-01-23 11:30:02.54	224.41	12.77	-39.6	-41.4	19.3	0.00e+00	0	38	0	0	51	4261
2026-01-23 11:30:05.52	224.84	12.98	-39.5	-41.3	19.4	0.00e+00	0	38	0	0	50	4444
2026-01-23 11:30:08.51	225.28	13.18	-39.5	-41.2	19.4	0.00e+00	0	39	0	0	50	4437
2026-01-23 11:30:11.50	225.72	13.38	-39.4	-41.2	19.5	0.00e+00	0	39	0	0	50	4413
2026-01-23 11:30:14.48	226.17	13.58	-39.5	-41.2	19.5	0.00e+00	0	38	0	0	50	4414
2026-01-23 11:30:17.46	226.62	13.78	-39.6	-41.4	19.3	0.00e+00	0	39	0	0	50	4496
2026-01-23 11:30:20.45	227.08	13.98	-39.5	-41.2	19.5	0.00e+00	0	38	0	0	50	4439
2026-01-23 11:30:23.43	227.55	14.19	-39.5	-41.3	19.4	0.00e+00	0	39	0	0	50	4462
2026-01-23 11:30:26.42	228.02	14.39	-39.6	-41.4	19.4	0.00e+00	0	38	0	0	50	4495
2026-01-23 11:30:29.40	228.50	14.59	-39.7	-41.5	19.2	0.00e+00	0	38	0	0	50	4594
2026-01-23 11:30:32.39	228.99	14.79	-39.5	-41.2	19.5	0.00e+00	0	39	0	0	50	4425
2026-01-23 11:30:35.37	229.48	14.99	-39.4	-41.1	19.6	0.00e+00	0	39	0	0	50	4391
2026-01-23 11:30:38.36	229.98	15.19	-39.4	-41.2	19.5	0.00e+00	0	38	0	0	50	4408
2026-01-23 11:30:41.34	230.48	15.39	-39.4	-41.1	19.6	0.00e+00	0	38	0	0	50	4381
2026-01-23 11:30:44.33	230.99	15.59	-39.5	-41.3	19.4	0.00e+00	0	39	0	0	50	4466
2026-01-23 11:30:47.32	231.51	15.79	-39.5	-41.3	19.4	0.00e+00	0	39	0	0	50	4463
2026-01-23 11:30:50.30	232.03	15.99	-39.4	-41.2	19.6	0.00e+00	0	39	0	0	50	4393
2026-01-23 11:30:53.28	232.56	16.19	-39.5	-41.2	19.5	0.00e+00	0	39	0	0	50	4425
2026-01-23 11:30:56.27	233.10	16.38	-39.6	-41.3	19.4	0.00e+00	0	38	0	0	50	4475
2026-01-23 11:30:59.25	233.65	16.58	-39.2	-40.9	19.8	0.00e+00	0	39	0	0	50	4265
2026-01-23 11:31:02.23	234.20	16.78	-39.3	-41.0	19.7	0.00e+00	0	38	0	0	50	4311
2026-01-23 11:31:05.22	234.76	16.97	-39.2	-40.9	19.8	0.00e+00	0	38	0	0	50	4279
2026-01-23 11:31:08.20	235.32	17.16	-39.3	-41.0	19.7	0.00e+00	0	38	0	0	50	4313
2026-01-23 11:31:11.19	235.90	17.36	-39.1	-40.8	19.9	0.00e+00	0	39	0	0	50	4228
2026-01-23 11:31:14.17	236.48	17.55	-39.1	-40.8	20.0	0.00e+00	0	39	0	0	50	4208
2026-01-23 11:31:17.15	237.06	17.73	-39.1	-40.8	19.9	0.00e+00	0	38	0	0	50	4230
2026-01-23 11:31:20.14	237.66	17.92	-39.3	-41.0	19.8	0.00e+00	0	39	0	0	50	4293
2026-01-23 11:31:23.12	238.26	18.11	-39.2	-40.9	19.9	0.00e+00	0	38	0	0	50	4277
2026-01-23 11:31:26.10	238.87	18.29	-39.3	-41.0	19.8	0.00e+00	0	39	0	0	50	4329
2026-01-23 11:31:29.09	239.49	18.48	-39.2	-40.9	19.9	0.00e+00	0	39	0	0	50	4266
2026-01-23 11:31:32.07	240.11	18.66	-39.1	-40.8	20.0	0.00e+00	0	38	0	0	50	4225
2026-01-23 11:31:35.06	240.74	18.84	-39.3	-41.0	19.8	0.00e+00	0	38	0	0	50	4319
2026-01-23 11:31:38.04	241.38	19.01	-39.5	-41.2	19.6	0.00e+00	0	39	0	0	50	4433
2026-01-23 11:31:41.02	242.02	19.19	-39.6	-41.3	19.5	0.00e+00	0	38	0	0	50	4475
2026-01-23 11:31:44.01	242.67	19.36	-39.4	-41.1	19.7	0.00e+00	0	39	0	0	50	4381
2026-01-23 11:31:47.00	243.33	19.53	-39.5	-41.2	19.6	0.00e+00	0	38	0	0	50	4420
2026-01-23 11:31:49.98	244.00	19.70	-39.6	-41.3	19.4	0.00e+00	0	38	0	0	50	4493
2026-01-23 11:31:52.97	244.67	19.86	-39.7	-41.4	19.4	0.00e+00	0	38	0	0	50	4528
2026-01-23 11:31:55.95	245.35	20.02	-39.2	-40.9	19.9	0.00e+00	0	38	0	0	50	4283
2026-01-23 11:31:58.93	246.04	20.18	-39.2	-40.9	19.9	0.00e+00	0	39	0	0	50	4285
2026-01-23 11:32:01.92	246.73	20.34	-39.4	-41.1	19.7	0.00e+00	0	39	0	0	50	4357
2026-01-23 11:32:04.90	247.43	20.49	-39.3	-41.0	19.7	0.00e+00	0	39	0	0	50	4335
2026-01-23 11:32:07.88	248.14	20.64	-39.3	-41.0	19.8	0.00e+00	0	39	0	0	50	4330
2026-01-23 11:32:10.86	248.85	20.78	-39.0	-40.7	20.0	0.00e+00	0	38	0	0	50	4190
2026-01-23 11:32:13.85	249.58	20.92	-39.1	-40.8	19.9	0.00e+00	0	39	0	0	50	4232
2026-01-23 11:32:16.83	250.30	21.06	-39.0	-40.7	20.1	0.00e+00	0	39	0	0	50	4187
2026-01-23 11:32:19.82	251.04	21.19	-38.9	-40.6	20.1	0.00e+00	0	39	0	0	49	4381
2026-01-23 11:32:22.81	251.78	21.32	-39.1	-40.8	20.0	0.00e+00	0	38	0	0	49	4443
2026-01-23 11:32:25.79	252.52	21.45	-38.9	-40.6	20.2	0.00e+00	0	38	0	0	49	4355
2026-01-23 11:32:28.77	253.27	21.57	-38.8	-40.4	20.3	0.00e+00	0	38	0	0	49	4283
2026-01-23 11:32:31.76	254.03	21.69	-39.0	-40.7	20.0	0.00e+00	0	39	0	0	49	4418
2026-01-23 11:32:34.74	254.79	21.80	-38.9	-40.6	20.2	0.00e+00	0	38	0	0	49	4355
2026-01-23 11:32:37.72	255.56	21.90	-38.7	-40.3	20.4	0.00e+00	0	38	0	0	49	4215
2026-01-23 11:32:40.71	256.33	22.01	-38.9	-40.6	20.0	0.00e+00	0	39	0	0	49	4374
2026-01-23 11:32:43.69	257.11	22.11	-38.9	-40.6	20.2	0.00e+00	0	38	0	0	49	4367
2026-01-23 11:32:46.68	257.89	22.20	-38.8	-40.5	20.2	0.00e+00	0	39	0	0	49	4325
2026-01-23 11:32:49.66	258.67	22.29	-38.7	-40.4	20.3	0.00e+00	0	39	0	0	49	4270
2026-01-23 11:32:52.65	259.47	22.37	-38.9	-40.6	20.2	0.00e+00	0	38	0	0	49	4365
2026-01-23 11:32:55.63	260.26	22.45	-38.9	-40.6	20.1	0.00e+00	0	38	0	0	49	4354
2026-01-23 11:32:58.62	261.06	22.52	-38.8	-40.4	20.2	0.00e+00	0	38	0	0	49	4282
2026-01-23 11:33:01.60	261.86	22.58	-38.7	-40.4	20.3	0.00e+00	0	39	0	0	49	4267
2026-01-23 11:33:04.59	262.66	22.64	-38.8	-40.4	20.3	0.00e+00	0	38	0	0	49	4285
2026-01-23 11:33:07.57	263.47	22.70	-39.0	-40.7	20.1	0.00e+00	0	39	0	0	49	4435
2026-01-23 11:33:10.55	264.28	22.75	-38.8	-40.4	20.2	0.00e+00	0	38	0	0	49	4288
2026-01-23 11:33:13.54	265.09	22.79	-38.6	-40.2	20.4	0.00e+00	0	39	0	0	49	4172
2026-01-23 11:33:16.52	265.91	22.83	-38.6	-40.3	20.4	0.00e+00	0	39	0	0	48	4454
2026-01-23 11:33:19.51	266.72	22.86	-38.8	-40.4	20.3	0.00e+00	0	38	0	0	48	4537
2026-01-23 11:33:22.49	267.54	22.89	-38.8	-40.5	20.4	0.00e+00	0	39	0	0	48	4560
2026-01-23 11:33:25.48	268.36	22.91	-38.8	-40.5	20.2	0.00e+00	0	39	0	0	48	4564
2026-01-23 11:33:28.46	269.18	22.92	-38.9	-40.6	20.2	0.00e+00	0	39	0	0	48	4626
2026-01-23 11:33:31.45	270.00	22.93	-38.9	-40.6	20.2	0.00e+00	0	38	0	0	48	4608
2026-01-23 11:33:34.43	270.82	22.93	-38.8	-40.5	20.3	0.00e+00	0	38	0	0	48	4573
2026-01-23 11:33:37.42	271.64	22.93	-38.7	-40.4	20.4	0.00e+00	0	39	0	0	48	4518
2026-01-23 11:33:40.40	272.46	22.92	-38.5	-40.2	20.5	0.00e+00	0	39	0	0	48	4412
2026-01-23 11:33:43.39	273.28	22.90	-38.8	-40.5	20.3	0.00e+00	0	38	0	0	48	4564
2026-01-23 11:33:46.37	274.09	22.88	-38.9	-40.6	20.2	0.00e+00	0	38	0	0	48	4623
2026-01-23 11:33:49.35	274.91	22.85	-38.9	-40.6	20.2	0.00e+00	0	39	0	0	48	4621
2026-01-23 11:33:52.33	275.72	22.82	-38.9	-40.5	20.3	0.00e+00	0	39	0	0	48	4590
2026-01-23 11:33:55.32	276.54	22.78	-38.9	-40.6	20.2	0.00e+00	0	39	0	0	48	4609
2026-01-23 11:33:58.30	277.35	22.74	-38.7	-40.4	20.4	0.00e+00	0	39	0	0	48	4508
2026-01-23 11:34:01.29	278.16	22.69	-38.5	-40.2	20.5	0.00e+00	0	39	0	0	48	4394
2026-01-23 11:34:04.27	278.96	22.63	-38.5	-40.1	20.6	0.00e+00	0	39	0	0	48	4368
2026-01-23 11:34:07.25	279.76	22.57	-38.5	-40.1	20.5	0.00e+00	0	38	0	0	48	4376
2026-01-23 11:34:10.24	280.56	22.50	-38.6	-40.3	20.4	0.00e+00	0	39	0	0	48	4443
2026-01-23 11:34:13.22	281.36	22.43	-38.4	-40.1	20.6	0.00e+00	0	39	0	0	48	4349
2026-01-23 11:34:16.21	282.15	22.35	-38.6	-40.2	20.5	0.00e+00	0	38	0	0	48	4416
2026-01-23 11:34:19.19	282.94	22.27	-38.6	-40.2	20.5	0.00e+00	0	39	0	0	48	4433
2026-01-23 11:34:22.18	283.72	22.18	-38.8	-40.4	20.3	0.00e+00	0	38	0	0	48	4539
2026-01-23 11:34:25.16	284.50	22.08	-38.8	-40.5	20.3	0.00e+00	0	38	0	0	48	4569
2026-01-23 11:34:28.14	285.27	21.99	-38.7	-40.4	20.3	0.00e+00	0	39	0	0	48	4508
2026-01-23 11:34:31.12	286.04	21.88	-38.8	-40.5	20.3	0.00e+00	0	39	0	0	48	4547
2026-01-23 11:34:34.11	286.81	21.77	-38.6	-40.3	20.4	0.00e+00	0	39	0	0	48	4458
2026-01-23 11:34:37.10	287.56	21.66	-38.8	-40.5	20.2	0.00e+00	0	38	0	0	48	4565
2026-01-23 11:34:40.08	288.32	21.54	-38.8	-40.5	20.3	0.00e+00	0	38	0	0	48	4550
2026-01-23 11:34:43.07	289.07	21.42	-38.6	-40.3	20.4	0.00e+00	0	39	0	0	48	4467
2026-01-23 11:34:46.05	289.81	21.30	-38.7	-40.3	20.4	0.00e+00	0	38	0	0	48	4493
2026-01-23 11:34:49.03	290.54	21.17	-38.8	-40.5	20.3	0.00e+00	0	39	0	0	48	4548
2026-01-23 11:34:52.01	291.27	21.03	-38.8	-40.5	20.2	0.00e+00	0	38	0	0	48	4583
2026-01-23 11:34:55.00	291.99	20.90	-38.7	-40.4	20.4	0.00e+00	0	38	0	0	48	4516
2026-01-23 11:34:57.99	292.71	20.75	-38.7	-40.3	20.4	0.00e+00	0	39	0	0	48	4486
2026-01-23 11:35:00.97	293.42	20.61	-38.9	-40.6	20.1	0.00e+00	0	39	0	0	48	4615
2026-01-23 11:35:03.96	294.12	20.46	-38.8	-40.5	20.3	0.00e+00	0	39	0	0	48	4560
2026-01-23 11:35:06.94	294.82	20.31	-38.9	-40.6	20.1	0.00e+00	0	39	0	0	48	4645
2026-01-23 11:35:09.93	295.51	20.16	-38.8	-40.5	20.2	0.00e+00	0	39	0	0	48	4578
2026-01-23 11:35:12.92	296.19	20.00	-38.8	-40.5	20.2	0.00e+00	0	39	0	0	48	4583
2026-01-23 11:35:15.90	296.87	19.84	-38.9	-40.6	20.1	0.00e+00	0	38	0	0	48	4618
2026-01-23 11:35:18.89	297.54	19.67	-39.1	-40.9	19.9	0.00e+00	0	39	0	0	48	4760
2026-01-23 11:35:21.87	298.20	19.51	-39.1	-40.8	19.9	0.00e+00	0	39	0	0	48	4751
2026-01-23 11:35:24.86	298.85	19.34	-39.3	-41.0	19.8	0.00e+00	0	39	0	0	49	4594
2026-01-23 11:35:27.84	299.50	19.17	-39.2	-40.9	19.8	0.00e+00	0	39	0	0	49	4531
2026-01-23 11:35:30.83	300.14	18.99	-39.1	-40.8	19.8	0.00e+00	0	39	0	0	49	4486
2026-01-23 11:35:33.81	300.77	18.82	-38.9	-40.5	20.2	0.00e+00	0	38	0	0	49	4332
2026-01-23 11:35:36.79	301.40	18.64	-38.9	-40.6	20.2	0.00e+00	0	39	0	0	49	4353
2026-01-23 11:35:39.78	302.02	18.46	-39.3	-41.0	19.8	0.00e+00	0	39	0	0	49	4549
2026-01-23 11:35:42.76	302.63	18.28	-39.3	-41.1	19.7	0.00e+00	0	39	0	0	49	4610
2026-01-23 11:35:45.75	303.24	18.09	-39.3	-41.0	19.7	0.00e+00	0	38	0	0	49	4574
2026-01-23 11:35:48.73	303.83	17.91	-39.2	-40.9	19.9	0.00e+00	0	39	0	0	49	4523
2026-01-23 11:35:51.72	304.42	17.72	-39.4	-41.2	19.6	0.00e+00	0	39	0	0	49	4667
2026-01-23 11:35:54.70	305.01	17.53	-39.7	-41.5	19.3	0.00e+00	0	39	0	0	50	4582
2026-01-23 11:35:57.68	305.58	17.35	-39.9	-41.8	19.1	0.00e+00	0	38	0	0	50	4715
2026-01-23 11:36:00.67	306.15	17.15	-39.5	-41.3	19.5	0.00e+00	0	38	0	0	50	4469
2026-01-23 11:36:03.65	306.71	16.96	-39.6	-41.3	19.4	0.00e+00	0	38	0	0	50	4472
2026-01-23 11:36:06.64	307.27	16.77	-39.8	-41.6	19.2	0.00e+00	0	39	0	0	50	4609
2026-01-23 11:36:09.62	307.81	16.58	-39.8	-41.6	19.1	0.00e+00	0	39	0	0	50	4633
2026-01-23 11:36:12.60	308.36	16.38	-40.0	-41.8	19.1	0.00e+00	0	38	0	0	50	4717
2026-01-23 11:36:15.59	308.89	16.19	-40.1	-41.9	19.0	0.00e+00	0	38	0	0	50	4772
2026-01-23 11:36:18.58	309.42	15.99	-39.9	-41.8	19.0	0.00e+00	0	39	0	0	50	4714
2026-01-23 11:36:21.56	309.94	15.79	-40.0	-41.8	19.0	0.00e+00	0	39	0	0	50	4753
2026-01-23 11:36:24.55	310.45	15.60	-39.9	-41.7	19.1	0.00e+00	0	39	0	0	50	4702
2026-01-23 11:36:27.53	310.96	15.40	-39.8	-41.6	19.2	0.00e+00	0	39	0	0	50	4616
2026-01-23 11:36:30.51	311.46	15.20	-39.7	-41.5	19.2	0.00e+00	0	38	0	0	50	4585
2026-01-23 11:36:33.50	311.96	15.00	-39.9	-41.7	19.2	0.00e+00	0	38	0	0	50	4677
2026-01-23 11:36:36.48	312.44	14.80	-39.8	-41.7	19.2	0.00e+00	0	38	0	0	50	4660
2026-01-23 11:36:39.47	312.93	14.60	-39.9	-41.8	19.1	0.00e+00	0	39	0	0	50	4724
2026-01-23 11:36:42.46	313.40	14.40	-39.8	-41.7	19.2	0.00e+00	0	39	0	0	50	4657
2026-01-23 11:36:45.44	313.87	14.20	-39.7	-41.5	19.3	0.00e+00	0	38	0	0	50	4590
2026-01-23 11:36:48.43	314.34	14.00	-39.7	-41.4	19.4	0.00e+00	0	39	0	0	50	4538
2026-01-23 11:36:51.41	314.79	13.80	-39.8	-41.6	19.2	0.00e+00	0	39	0	0	50	4625
2026-01-23 11:36:54.40	315.25	13.60	-40.0	-41.8	19.0	0.00e+00	0	39	0	0	50	4718
2026-01-23 11:36:57.38	315.69	13.40	-40.1	-42.0	18.9	0.00e+00	0	38	0	0	50	4818
2026-01-23 11:37:00.37	316.13	13.20	-40.1	-42.0	18.8	0.00e+00	0	39	0	0	50	4829
2026-01-23 11:37:03.35	316.57	13.01	-40.2	-42.1	18.7	0.00e+00	0	39	0	0	50	4884
2026-01-23 11:37:06.34	316.99	12.81	-40.2	-42.1	18.6	0.00e+00	0	38	0	0	51	4624
2026-01-23 11:37:09.32	317.42	12.61	-40.4	-42.3	18.4	0.00e+00	0	39	0	0	51	4743
2026-01-23 11:37:12.31	317.84	12.41	-40.6	-42.5	18.2	0.00e+00	0	39	0	0	51	4825
2026-01-23 11:37:15.29	318.25	12.21	-40.6	-42.5	18.2	0.00e+00	0	39	0	0	51	4869
2026-01-23 11:37:18.27	318.65	12.01	-40.4	-42.3	18.4	0.00e+00	0	38	0	0	52	4481
2026-01-23 11:37:21.25	319.05	11.82	-40.2	-42.1	18.5	0.00e+00	0	38	0	0	52	4391
2026-01-23 11:37:24.24	319.45	11.62	-40.2	-42.2	18.4	0.00e+00	0	39	0	0	52	4441
2026-01-23 11:37:27.22	319.84	11.42	-40.3	-42.3	18.4	0.00e+00	0	38	0	0	52	4475
2026-01-23 11:37:30.20	320.23	11.23	-40.5	-42.5	18.3	0.00e+00	0	39	0	0	52	4558
2026-01-23 11:37:33.18	320.61	11.03	-40.6	-42.5	18.2	0.00e+00	0	39	0	0	52	4597
2026-01-23 11:37:36.17	320.98	10.83	-40.6	-42.6	18.1	0.00e+00	0	38	0	0	52	4623
2026-01-23 11:37:39.14	321.35	10.64	-40.6	-42.6	18.0	0.00e+00	0	39	0	0	52	4635
2026-01-23 11:37:42.13	321.72	10.44	-40.7	-42.8	17.8	0.00e+00	0	39	0	0	52	4720
2026-01-23 11:37:45.11	322.08	10.25	-40.8	-42.8	17.8	0.00e+00	0	39	0	0	52	4715
2026-01-23 11:37:48.10	322.44	10.06	-40.8	-42.8	17.8	0.00e+00	0	38	0	0	52	4726
2026-01-23 11:37:51.09	322.79	9.86	-40.8	-43.0	17.7	0.00e+00	0	39	0	0	52	4839
2026-01-23 11:37:54.07	323.14	9.67	-40.7	-42.9	17.8	0.00e+00	0	39	0	0	52	4764
2026-01-23 11:37:57.06	323.49	9.48	-40.7	-42.9	17.8	0.00e+00	0	39	0	0	52	4779
2026-01-23 11:38:00.04	323.83	9.29	-40.7	-43.0	17.6	0.00e+00	0	38	0	0	52	4820
2026-01-23 11:38:03.02	324.16	9.10	-40.8	-43.1	17.4	0.00e+00	0	39	0	0	52	4916
2026-01-23 11:38:06.01	324.49	8.91	-48.8	-62.2	3.8	1.49e+00	0	39	104	0	68	17671
2026-01-23 11:38:08.98	324.82	8.72	-49.2	-62.7	3.8	1.49e+00	0	39	104	0	69	17552
2026-01-23 11:38:11.96	325.14	8.53	-49.7	-62.8	3.8	1.49e+00	0	38	104	0	70	16803
2026-01-23 11:38:14.94	325.46	8.35	-49.6	-62.8	3.8	1.49e+00	0	38	104	0	70	16875
2026-01-23 11:38:17.92	325.78	8.16	-49.8	-62.8	3.8	1.49e+00	0	39	104	0	70	16808
2026-01-23 11:38:20.90	326.09	7.97	-49.8	-62.8	3.8	1.49e+00	0	39	104	0	70	16881
2026-01-23 11:38:23.88	326.40	7.79	-49.7	-62.8	3.8	1.49e+00	0	39	104	0	70	16741
2026-01-23 11:38:26.86	326.70	7.60	-49.6	-62.7	3.8	1.49e+00	0	39	104	0	70	16648
2026-01-23 11:38:29.84	327.00	7.42	-49.6	-62.8	3.8	1.49e+00	0	39	104	0	70	16722
2026-01-23 11:38:32.82	327.30	7.23	-49.6	-62.7	3.8	1.49e+00	0	39	104	0	70	16615
2026-01-23 11:38:35.80	327.59	7.05	-49.6	-62.7	3.8	1.49e+00	0	38	104	0	70	16669
2026-01-23 11:38:38.78	327.88	6.87	-49.6	-62.7	3.8	1.49e+00	0	39	104	0	70	16655
2026-01-23 11:38:41.76	328.17	6.69	-49.6	-62.7	3.8	1.49e+00	0	39	104	0	70	16650
2026-01-23 11:38:44.73	328.45	6.51	-49.6	-62.7	3.8	1.49e+00	0	39	104	0	70	16645
2026-01-23 11:38:47.71	328.73	6.33	-49.6	-62.7	3.8	1.49e+00	0	39	104	0	70	16633
2026-01-23 11:38:50.69	329.00	6.15	-49.6	-62.7	3.8	1.49e+00	0	39	104	0	70	16633
2026-01-23 11:38:53.67	329.28	5.97	-49.6	-62.7	3.8	1.49e+00	0	39	104	0	70	16629
2026-01-23 11:38:56.65	329.55	5.79	-49.6	-62.7	3.8	1.49e+00	0	39	104	0	70	16663
2026-01-23 11:38:59.63	329.81	5.62	-49.6	-62.7	3.8	1.49e+00	0	39	104	0	70	16630
2026-01-23 11:39:02.61	330.08	5.44	-49.6	-62.7	3.8	1.49e+00	0	39	104	0	70	16630
2026-01-23 11:39:05.59	330.34	5.26	-49.6	-62.7	3.8	1.49e+00	0	38	104	0	70	16595
2026-01-23 11:39:08.57	330.59	5.09	-49.6	-62.7	3.8	1.49e+00	0	38	104	0	70	16591

#Closed at: 2026-01-23 11:39:11
#Recorded file [0 MB]: D:/Data/31040_260123_142800.dat