passes_logs/2026/01/02/XPeterburg/XPeterburg__20260102_144517_FENGYUN_3E_rec.log

#Pass ID: 20260102_144517_FENGYUN 3E
#Satellite: FENGYUN 3E
#Configuration: FENGYUN 3E
#Start time: 2026-01-02 14:45:12

#Version: 1.5.20200625
#Station: XPeterburg
#Location: 30.318091 lon 59.932769 lat
#TLE: 1 49008U 21062A   25359.14718215  .00000011  00000+0  25812-4 0  9998
#TLE: 2 49008  98.7476 359.5210 0000940 189.9291 170.1866 14.19881103231888

#Time	Az	El	Level	Level2	SNR	BER	Gain	Gain2
2026-01-02 14:45:12.99	177.40	68.14	-36.8	-37.3	3.4	8390430	92	5218
2026-01-02 14:45:13.39	177.54	68.32	-31.8	-31.0	8.0	7656051	82	4532
2026-01-02 14:45:13.80	177.69	68.50	-31.1	-30.3	9.0	403793	80	4500
2026-01-02 14:45:14.20	177.84	68.67	-29.9	-29.3	10.3	93154	77	4640
2026-01-02 14:45:14.60	177.99	68.85	-29.7	-29.8	10.4	36918	76	4929
2026-01-02 14:45:15.00	178.15	69.03	-28.3	-27.3	11.9	16605	75	4364
2026-01-02 14:45:15.40	178.30	69.20	-28.3	-27.7	12.1	4154	74	4606
2026-01-02 14:45:15.81	178.47	69.38	-28.0	-27.1	12.3	2311	74	4427
2026-01-02 14:45:16.21	178.63	69.56	-27.9	-26.9	12.5	1304	74	4393
2026-01-02 14:45:16.61	178.80	69.74	-27.8	-26.7	12.6	961	74	4333
2026-01-02 14:45:17.01	178.97	69.92	-27.9	-26.9	12.6	835	74	4391
2026-01-02 14:45:17.42	179.14	70.10	-27.9	-26.9	12.5	881	74	4396
2026-01-02 14:45:17.82	179.32	70.28	-28.3	-27.7	12.1	2128	74	4616
2026-01-02 14:45:18.22	179.50	70.46	-28.6	-28.3	11.7	3433	74	4750
2026-01-02 14:45:18.62	179.68	70.63	-28.9	-29.0	11.5	5401	74	4967
2026-01-02 14:45:19.02	179.87	70.81	-28.7	-28.5	11.7	6145	74	4829
2026-01-02 14:45:19.43	180.06	70.99	-28.8	-28.7	11.6	5973	74	4895
2026-01-02 14:45:19.83	180.26	71.17	-28.4	-27.4	12.0	4302	75	4371
2026-01-02 14:45:20.23	180.46	71.35	-28.7	-28.0	11.7	7495	75	4544
2026-01-02 14:45:20.63	180.66	71.53	-28.8	-28.3	11.6	6271	75	4615
2026-01-02 14:45:21.03	180.86	71.71	-28.8	-28.2	11.7	4737	75	4583
2026-01-02 14:45:21.44	181.08	71.89	-28.8	-28.2	11.7	4657	75	4596
2026-01-02 14:45:21.84	181.29	72.07	-28.8	-28.3	11.7	4989	75	4644
2026-01-02 14:45:22.24	181.51	72.25	-29.0	-28.6	11.5	5367	75	4732
2026-01-02 14:45:22.64	181.74	72.43	-29.0	-28.7	11.4	7919	75	4742
2026-01-02 14:45:23.05	181.97	72.61	-29.0	-28.7	11.5	8136	75	4743
2026-01-02 14:45:23.45	182.21	72.79	-29.0	-28.6	11.6	9006	75	4707
2026-01-02 14:45:23.85	182.45	72.97	-28.9	-28.5	11.7	6179	75	4681
2026-01-02 14:45:24.25	182.69	73.15	-28.9	-28.6	11.7	4085	75	4754
2026-01-02 14:45:24.65	182.94	73.33	-28.6	-27.9	12.2	3295	75	4535
2026-01-02 14:45:25.06	183.20	73.51	-27.7	-27.0	12.6	1750	74	4549
2026-01-02 14:45:25.46	183.46	73.69	-28.6	-28.4	12.3	938	74	4784
2026-01-02 14:45:25.86	183.73	73.87	-28.4	-27.9	12.6	1029	74	4658
2026-01-02 14:45:26.26	184.01	74.05	-28.2	-27.6	12.8	629	74	4608
2026-01-02 14:45:26.67	184.29	74.23	-28.2	-27.6	12.7	514	74	4565
2026-01-02 14:45:27.07	184.58	74.41	-28.2	-27.7	12.7	663	74	4610
2026-01-02 14:45:27.47	184.87	74.59	-28.2	-27.6	12.7	892	74	4608
2026-01-02 14:45:27.87	185.18	74.77	-28.1	-27.5	12.7	732	74	4561
2026-01-02 14:45:28.27	185.48	74.95	-28.0	-27.1	12.9	583	74	4437
2026-01-02 14:45:28.68	185.81	75.13	-27.9	-26.9	13.0	423	74	4421
2026-01-02 14:45:29.08	186.13	75.31	-27.8	-27.1	13.0	240	73	4576
2026-01-02 14:45:29.48	186.47	75.48	-27.7	-27.0	13.1	251	73	4544
2026-01-02 14:45:29.88	186.81	75.66	-27.3	-26.3	13.5	205	73	4357
2026-01-02 14:45:30.28	187.16	75.84	-27.6	-26.7	13.2	102	73	4458
2026-01-02 14:45:30.69	187.53	76.02	-27.3	-26.3	13.6	137	73	4371
2026-01-02 14:45:31.09	187.89	76.20	-27.3	-26.2	13.7	91	73	4355
2026-01-02 14:45:31.49	188.27	76.37	-27.2	-26.5	13.8	45	72	4560
2026-01-02 14:45:31.89	188.66	76.55	-27.2	-26.6	13.9	34	72	4581
2026-01-02 14:45:32.29	189.06	76.72	-27.1	-26.4	14.0	34	72	4543
2026-01-02 14:45:32.70	189.48	76.90	-27.0	-26.1	14.1	11	72	4452
2026-01-02 14:45:33.10	189.90	77.08	-27.0	-26.1	14.0	34	72	4461
2026-01-02 14:45:33.50	190.34	77.25	-26.9	-25.9	14.2	22	72	4397
2026-01-02 14:45:33.90	190.78	77.42	-26.4	-25.5	14.4	0	71	4433
2026-01-02 14:45:34.30	191.24	77.60	-26.5	-25.7	14.3	11	71	4489
2026-01-02 14:45:34.71	191.73	77.77	-26.4	-25.4	14.6	0	71	4404
2026-01-02 14:45:35.11	192.21	77.94	-26.3	-25.2	14.7	11	71	4353
2026-01-02 14:45:35.51	192.71	78.12	-26.4	-26.0	14.7	11	70	4697
2026-01-02 14:45:35.91	193.23	78.29	-26.7	-26.7	14.5	0	70	4885
2026-01-02 14:45:36.31	193.76	78.45	-26.6	-26.4	14.6	0	70	4805
2026-01-02 14:45:36.72	194.32	78.63	-26.8	-26.3	14.4	11	71	4647
2026-01-02 14:45:37.12	194.88	78.80	-26.9	-26.5	14.3	0	71	4698
2026-01-02 14:45:37.52	195.46	78.96	-27.0	-26.7	14.2	0	71	4740
2026-01-02 14:45:37.92	196.06	79.13	-27.0	-26.8	14.1	22	71	4771
2026-01-02 14:45:38.33	196.70	79.30	-27.2	-27.0	14.0	11	71	4851
2026-01-02 14:45:38.73	197.34	79.46	-27.2	-27.2	13.9	57	71	4883
2026-01-02 14:45:39.13	197.99	79.62	-27.2	-27.1	14.0	11	71	4857
2026-01-02 14:45:39.53	198.67	79.78	-27.2	-27.2	14.0	22	71	4894
2026-01-02 14:45:39.94	199.39	79.95	-27.1	-27.0	14.2	11	71	4833
2026-01-02 14:45:40.34	200.12	80.11	-27.2	-27.1	14.1	22	71	4876
2026-01-02 14:45:40.74	200.87	80.26	-27.1	-27.0	14.1	11	71	4851
2026-01-02 14:45:41.14	201.64	80.42	-27.1	-26.9	14.1	11	71	4814
2026-01-02 14:45:41.54	202.44	80.57	-27.2	-27.1	14.0	0	71	4881
2026-01-02 14:45:41.95	203.29	80.73	-27.4	-27.5	13.8	34	71	4981
2026-01-02 14:45:42.35	204.14	80.88	-27.7	-27.6	13.8	68	72	4861
2026-01-02 14:45:42.75	205.03	81.02	-27.7	-27.7	13.6	11	72	4900
2026-01-02 14:45:43.15	205.94	81.17	-27.7	-27.5	13.6	80	72	4854
2026-01-02 14:45:43.55	206.89	81.31	-27.7	-27.6	13.7	45	72	4879
2026-01-02 14:45:43.96	207.89	81.46	-27.6	-27.4	13.8	34	72	4810
2026-01-02 14:45:44.36	208.90	81.60	-27.4	-27.0	14.0	57	72	4699
2026-01-02 14:45:44.76	209.94	81.73	-27.3	-26.7	14.2	34	72	4601
2026-01-02 14:45:45.16	211.02	81.87	-27.3	-26.8	14.0	22	72	4658
2026-01-02 14:45:45.56	212.13	82.00	-27.4	-26.9	13.9	11	72	4679
2026-01-02 14:45:45.97	213.31	82.13	-27.5	-27.1	13.9	22	72	4717
2026-01-02 14:45:46.37	214.50	82.25	-27.7	-27.6	13.6	34	72	4867
2026-01-02 14:45:46.77	215.73	82.38	-27.7	-27.6	13.5	91	72	4851
2026-01-02 14:45:47.17	217.00	82.49	-27.9	-28.0	13.4	80	72	4976
2026-01-02 14:45:47.57	218.31	82.61	-27.9	-27.9	13.4	148	72	4920
2026-01-02 14:45:47.98	219.69	82.72	-27.9	-27.5	13.2	160	73	4672
2026-01-02 14:45:48.38	221.08	82.83	-28.1	-28.0	13.0	171	73	4841
2026-01-02 14:45:48.78	222.52	82.93	-28.2	-28.2	12.9	308	73	4911
2026-01-02 14:45:49.18	223.99	83.02	-28.3	-28.2	12.9	434	73	4864
2026-01-02 14:45:49.59	225.54	83.12	-28.3	-28.3	12.8	537	73	4884
2026-01-02 14:45:49.99	227.10	83.21	-28.3	-28.1	12.9	549	73	4837
2026-01-02 14:45:50.39	228.69	83.29	-28.4	-28.5	12.8	549	73	4960
2026-01-02 14:45:50.79	230.33	83.37	-28.4	-28.4	12.8	560	73	4955
2026-01-02 14:45:51.19	232.00	83.44	-28.4	-28.4	12.9	595	73	4944
2026-01-02 14:45:51.60	233.75	83.51	-28.5	-28.2	12.7	675	74	4749
2026-01-02 14:45:52.00	235.49	83.57	-28.6	-28.3	12.7	686	74	4787
2026-01-02 14:45:52.40	237.26	83.62	-28.7	-28.7	12.6	686	74	4888
2026-01-02 14:45:52.80	239.06	83.67	-28.9	-29.0	12.5	892	74	4969
2026-01-02 14:45:53.21	240.94	83.71	-29.0	-28.6	12.2	1041	75	4704
2026-01-02 14:45:53.61	242.79	83.75	-29.0	-28.7	12.2	1522	75	4746
2026-01-02 14:45:54.01	244.66	83.77	-29.1	-28.8	12.1	1934	75	4762
2026-01-02 14:45:54.41	246.54	83.80	-29.1	-28.9	12.1	2357	75	4810
2026-01-02 14:45:54.81	248.44	83.81	-29.1	-28.8	12.1	2723	75	4758
2026-01-02 14:45:55.22	250.39	83.82	-29.2	-29.1	12.0	2746	75	4877
2026-01-02 14:45:55.62	252.30	83.82	-29.3	-29.3	11.9	3170	75	4920
2026-01-02 14:45:56.02	254.20	83.82	-29.3	-29.2	11.9	3501	75	4886
2026-01-02 14:45:56.42	256.10	83.80	-29.4	-29.4	11.8	4486	75	4935
2026-01-02 14:45:56.83	258.04	83.79	-29.3	-29.2	12.0	3971	75	4890
2026-01-02 14:45:57.23	259.92	83.76	-29.3	-29.3	11.9	2689	75	4900
2026-01-02 14:45:57.63	261.78	83.73	-29.2	-29.1	12.1	2323	75	4875
2026-01-02 14:45:58.03	263.61	83.69	-29.2	-29.1	12.1	2243	75	4864
2026-01-02 14:45:58.43	265.43	83.64	-29.2	-29.2	12.0	2483	75	4917
2026-01-02 14:45:58.84	267.26	83.59	-29.2	-29.1	12.0	2803	75	4842
2026-01-02 14:45:59.24	269.01	83.53	-29.2	-28.9	12.1	2014	75	4800
2026-01-02 14:45:59.64	270.74	83.47	-29.3	-29.1	12.0	2769	75	4845
2026-01-02 14:46:00.04	272.42	83.40	-29.3	-29.1	12.0	2780	75	4853
2026-01-02 14:46:00.44	274.08	83.33	-29.3	-29.2	11.9	3147	75	4882
2026-01-02 14:46:00.85	275.73	83.24	-29.3	-29.2	11.9	3753	75	4864
2026-01-02 14:46:01.25	277.30	83.16	-29.3	-29.3	11.9	4417	75	4914
2026-01-02 14:46:01.65	278.84	83.07	-29.1	-28.8	11.9	4440	75	4754
2026-01-02 14:46:02.05	280.33	82.97	-29.3	-29.2	11.7	4268	75	4875
2026-01-02 14:46:02.45	281.78	82.88	-29.3	-29.3	11.7	4875	75	4886
2026-01-02 14:46:02.85	283.19	82.77	-29.3	-29.3	11.7	5218	75	4907
2026-01-02 14:46:03.26	284.59	82.66	-29.3	-29.3	11.7	5802	75	4907
2026-01-02 14:46:03.66	285.92	82.55	-29.1	-28.9	11.8	4428	75	4760
2026-01-02 14:46:04.06	287.21	82.43	-28.9	-28.4	12.1	2655	75	4642
2026-01-02 14:46:04.46	288.45	82.31	-28.7	-27.9	12.3	1705	75	4500
2026-01-02 14:46:04.86	289.66	82.19	-28.6	-27.7	12.4	1213	75	4447
2026-01-02 14:46:05.27	290.86	82.06	-28.6	-27.8	12.4	1018	75	4473
2026-01-02 14:46:05.67	291.99	81.93	-28.5	-27.7	12.5	1087	75	4452
2026-01-02 14:46:06.07	293.09	81.80	-28.8	-28.3	12.3	1075	75	4654
2026-01-02 14:46:06.47	294.15	81.66	-29.1	-29.0	12.0	2414	75	4835
2026-01-02 14:46:06.88	295.20	81.52	-29.2	-29.2	11.8	4062	75	4899
2026-01-02 14:46:07.28	296.19	81.38	-29.4	-29.4	11.6	4760	75	4946
2026-01-02 14:46:07.68	297.15	81.24	-29.3	-29.2	11.6	5493	75	4881
2026-01-02 14:46:08.08	298.08	81.10	-29.2	-29.0	11.7	5916	75	4800
2026-01-02 14:46:08.48	298.97	80.95	-29.4	-29.4	11.6	5561	75	4926
2026-01-02 14:46:08.89	299.86	80.80	-29.0	-28.6	11.9	4051	75	4679
2026-01-02 14:46:09.29	300.70	80.65	-29.1	-28.7	11.9	3215	75	4734
2026-01-02 14:46:09.69	301.51	80.49	-29.1	-28.7	12.1	3833	75	4739
2026-01-02 14:46:10.09	302.30	80.34	-29.0	-28.7	11.9	2964	75	4724
2026-01-02 14:46:10.50	303.08	80.18	-28.8	-28.2	12.2	2105	75	4577
2026-01-02 14:46:10.90	303.81	80.02	-28.6	-27.8	12.4	1647	75	4491
2026-01-02 14:46:11.30	304.53	79.86	-28.5	-27.6	12.5	1167	75	4424
2026-01-02 14:46:11.70	305.22	79.70	-28.4	-27.8	12.7	1121	74	4614
2026-01-02 14:46:12.10	305.89	79.54	-28.5	-28.0	12.5	1029	74	4649
2026-01-02 14:46:12.51	306.55	79.37	-28.2	-27.4	12.8	503	74	4487
2026-01-02 14:46:12.91	307.18	79.21	-28.3	-27.6	12.8	423	74	4546
2026-01-02 14:46:13.31	307.78	79.04	-27.9	-26.8	13.1	308	74	4351
2026-01-02 14:46:13.71	308.37	78.88	-28.1	-27.2	13.0	469	74	4444
2026-01-02 14:46:14.11	308.95	78.71	-28.2	-27.4	12.9	400	74	4498
2026-01-02 14:46:14.52	309.51	78.54	-28.2	-27.6	12.8	366	74	4558
2026-01-02 14:46:14.92	310.05	78.37	-28.2	-27.4	13.0	240	74	4525
2026-01-02 14:46:15.32	310.58	78.20	-28.2	-27.4	12.9	400	74	4520
2026-01-02 14:46:15.72	311.08	78.03	-28.3	-27.7	12.7	469	74	4614
2026-01-02 14:46:16.13	311.59	77.86	-28.7	-28.6	12.4	766	74	4869
2026-01-02 14:46:16.53	312.07	77.68	-28.8	-28.9	12.2	1144	74	4930
2026-01-02 14:46:16.93	312.53	77.51	-28.9	-29.1	12.2	2082	74	4997
2026-01-02 14:46:17.33	312.98	77.34	-29.2	-29.2	11.8	2883	75	4903
2026-01-02 14:46:17.73	313.42	77.17	-29.4	-29.5	11.7	4325	75	4989
2026-01-02 14:46:18.14	313.86	76.99	-29.7	-29.6	11.4	5424	76	4859
2026-01-02 14:46:18.54	314.27	76.81	-29.7	-29.7	11.4	8457	76	4911
2026-01-02 14:46:18.94	314.68	76.64	-29.6	-29.3	11.4	7896	76	4774
2026-01-02 14:46:19.34	315.07	76.46	-29.4	-28.9	11.5	6099	76	4639
2026-01-02 14:46:19.74	315.46	76.29	-29.2	-28.5	11.6	6488	76	4532
2026-01-02 14:46:20.15	315.84	76.11	-29.3	-28.7	11.5	5447	76	4579
2026-01-02 14:46:20.55	316.20	75.93	-29.5	-29.1	11.2	7129	76	4713
2026-01-02 14:46:20.95	316.56	75.75	-29.6	-29.3	11.1	10654	76	4792
2026-01-02 14:46:21.35	316.90	75.58	-29.7	-29.7	10.9	16319	76	4913
2026-01-02 14:46:21.75	317.24	75.40	-29.9	-30.1	10.7	24639	76	5034
2026-01-02 14:46:22.16	317.57	75.22	-29.9	-29.4	10.6	32089	77	4673
2026-01-02 14:46:22.56	317.89	75.04	-29.9	-29.5	10.6	40019	77	4677
2026-01-02 14:46:22.96	318.21	74.86	-30.1	-29.8	10.5	37548	77	4770
2026-01-02 14:46:23.36	318.51	74.68	-30.1	-29.9	10.5	34503	77	4809
2026-01-02 14:46:23.77	318.82	74.50	-30.1	-29.8	10.5	35934	77	4775
2026-01-02 14:46:24.17	319.11	74.32	-30.2	-30.0	10.5	32444	77	4843
2026-01-02 14:46:24.57	319.39	74.14	-30.0	-29.6	10.8	26321	77	4716
2026-01-02 14:46:24.97	319.67	73.97	-29.9	-29.5	10.9	22521	77	4691
2026-01-02 14:46:25.37	319.94	73.79	-30.0	-29.7	10.7	24513	77	4737
2026-01-02 14:46:25.78	320.21	73.60	-30.3	-30.2	10.4	36186	77	4890
2026-01-02 14:46:26.18	320.47	73.43	-30.8	-30.8	9.6	86860	78	4929
2026-01-02 14:46:26.58	320.72	73.25	-30.7	-30.7	9.7	91346	78	4921
2026-01-02 14:46:26.98	320.97	73.07	-30.8	-30.8	9.6	95764	78	4947
2026-01-02 14:46:27.38	321.21	72.89	-31.0	-30.8	9.2	121021	79	4809
2026-01-02 14:46:27.79	321.45	72.71	-31.3	-31.4	8.9	169898	79	4986
2026-01-02 14:46:28.19	321.68	72.53	-31.4	-31.5	8.9	235485	79	5015
2026-01-02 14:46:28.59	321.91	72.35	-31.7	-31.8	8.7	291446	80	4968
2026-01-02 14:46:28.99	322.13	72.17	-31.7	-31.9	8.7	311210	80	4988
2026-01-02 14:46:29.40	322.35	71.99	-31.9	-32.1	8.6	310192	80	5033
2026-01-02 14:46:29.80	322.57	71.81	-31.8	-32.0	8.6	385963	80	4985
2026-01-02 14:46:30.20	322.77	71.63	-31.8	-31.9	8.6	352798	80	4964
2026-01-02 14:46:30.60	322.98	71.45	-32.1	-31.9	8.2	373695	81	4858
2026-01-02 14:46:31.00	323.18	71.27	-32.0	-31.8	8.3	441707	81	4813
2026-01-02 14:46:31.40	323.37	71.10	-32.1	-32.1	8.1	449787	81	4909
2026-01-02 14:46:31.81	323.57	70.91	-32.1	-31.5	8.1	691440	82	4584
2026-01-02 14:46:32.21	323.76	70.73	-32.6	-32.7	7.3	744518	82	4961
2026-01-02 14:46:32.61	323.94	70.56	-33.0	-33.4	6.9	1336544	82	5175
2026-01-02 14:46:33.01	324.12	70.38	-32.6	-32.1	7.1	1572498	83	4636
2026-01-02 14:46:33.42	324.31	70.20	-37.8	-42.2	3.6	5602031	92	8096

#Closed at: 2026-01-02 14:46:33