passes_logs/2026/01/02/XPeterburg/XPeterburg__20260102_101634_SUOMI_NPP_rec.log

#Pass ID: 20260102_101634_SUOMI NPP
#Satellite: SUOMI NPP
#Configuration: NPP
#Start time: 2026-01-02 10:16:27

#Version: 1.5.20200625
#Station: XPeterburg
#Location: 30.318091 lon 59.932769 lat
#TLE: 1 37849U 11061A   25356.63219598  .00000089  00000+0  63407-4 0  9994
#TLE: 2 37849  98.7787 293.8852 0002488 103.0781 257.0673 14.19516903733392

#Time	Az	El	Level	Level2	SNR	BER	Gain	Gain2
2026-01-02 10:16:27.48	132.04	67.43	-38.2	-45.3	3.3	15355453	94	2774
2026-01-02 10:16:27.88	131.82	67.60	-38.3	-47.0	3.6	15159477	93	3344
2026-01-02 10:16:28.28	131.59	67.76	-38.3	-45.9	3.3	15172729	93	2950
2026-01-02 10:16:28.69	131.36	67.93	-38.2	-46.8	3.6	15194564	93	3288
2026-01-02 10:16:29.09	131.12	68.09	-38.2	-45.2	3.4	15188621	93	2758
2026-01-02 10:16:29.49	130.89	68.25	-38.0	-45.6	3.6	15188621	93	2952
2026-01-02 10:16:29.89	130.65	68.41	-37.9	-43.3	3.5	15175033	94	2280
2026-01-02 10:16:30.30	130.40	68.58	-37.6	-43.1	3.7	15129066	93	2318
2026-01-02 10:16:30.70	130.15	68.74	-37.3	-41.0	4.3	14992919	93	1901
2026-01-02 10:16:31.10	129.90	68.91	-37.0	-40.1	4.7	11054679	92	1754
2026-01-02 10:16:31.50	129.64	69.07	-36.8	-39.5	5.0	7301757	92	1665
2026-01-02 10:16:31.90	129.38	69.23	-36.8	-39.6	5.2	5666427	91	1716
2026-01-02 10:16:32.31	129.11	69.40	-36.8	-39.8	5.2	4939735	91	1736
2026-01-02 10:16:32.71	128.84	69.56	-36.7	-39.6	5.2	4967025	91	1716
2026-01-02 10:16:33.11	128.56	69.72	-36.6	-39.2	5.4	4799690	91	1655
2026-01-02 10:16:33.51	128.28	69.88	-36.5	-38.8	5.7	4163261	91	1604
2026-01-02 10:16:33.91	128.00	70.05	-36.3	-38.5	5.9	3167205	91	1571
2026-01-02 10:16:34.31	127.71	70.21	-35.9	-38.0	6.0	3167205	90	1563
2026-01-02 10:16:34.72	127.41	70.37	-35.8	-37.5	6.6	2773597	90	1501
2026-01-02 10:16:35.12	127.11	70.53	-35.9	-38.5	6.5	2214210	89	1647
2026-01-02 10:16:35.52	126.80	70.69	-35.8	-38.1	6.7	2050498	89	1597
2026-01-02 10:16:35.92	126.49	70.85	-35.9	-38.3	6.8	1945968	89	1624
2026-01-02 10:16:36.33	126.17	71.02	-35.8	-38.0	7.0	1608810	89	1596
2026-01-02 10:16:36.73	125.84	71.18	-35.6	-37.8	7.4	1319984	89	1577
2026-01-02 10:16:37.13	125.51	71.34	-35.6	-37.9	7.5	1084197	89	1589
2026-01-02 10:16:37.53	125.18	71.50	-35.7	-38.1	7.3	999214	89	1619
2026-01-02 10:16:37.93	124.84	71.66	-35.8	-38.2	7.4	1016609	89	1631
2026-01-02 10:16:38.34	124.48	71.82	-35.7	-38.0	7.7	963630	89	1613
2026-01-02 10:16:38.74	124.13	71.98	-35.6	-38.0	7.7	918434	89	1606
2026-01-02 10:16:39.14	123.77	72.13	-35.7	-38.0	7.6	880912	89	1615
2026-01-02 10:16:39.54	123.41	72.29	-35.6	-37.8	7.8	880912	89	1589
2026-01-02 10:16:39.95	123.02	72.45	-35.6	-37.9	7.7	733497	89	1597
2026-01-02 10:16:40.35	122.64	72.61	-35.7	-38.0	7.6	767333	89	1600
2026-01-02 10:16:40.75	122.25	72.76	-35.7	-38.0	7.5	830474	89	1603
2026-01-02 10:16:41.15	121.86	72.92	-35.6	-37.8	7.7	915802	89	1586
2026-01-02 10:16:41.55	121.45	73.07	-35.7	-38.0	7.4	861915	89	1601
2026-01-02 10:16:41.95	121.04	73.23	-35.8	-38.1	7.2	1128768	89	1615
2026-01-02 10:16:42.36	120.61	73.38	-35.9	-38.4	6.9	1378494	89	1637
2026-01-02 10:16:42.76	120.19	73.54	-35.8	-38.2	7.0	1639106	89	1609
2026-01-02 10:16:43.16	119.75	73.69	-36.0	-38.5	6.6	1648941	89	1644
2026-01-02 10:16:43.56	119.31	73.84	-35.8	-37.9	6.8	1732498	89	1572
2026-01-02 10:16:43.96	118.85	73.99	-35.8	-37.8	6.9	1675415	89	1557
2026-01-02 10:16:44.37	118.38	74.14	-35.7	-37.6	7.0	1675415	89	1524
2026-01-02 10:16:44.77	117.91	74.29	-35.5	-36.9	7.4	1544692	89	1458
2026-01-02 10:16:45.17	117.43	74.44	-35.4	-36.9	7.5	1278381	89	1451
2026-01-02 10:16:45.57	116.94	74.59	-35.3	-36.5	7.7	989234	89	1418
2026-01-02 10:16:45.98	116.42	74.74	-35.1	-36.6	8.1	997863	88	1466
2026-01-02 10:16:46.38	115.91	74.88	-35.1	-36.6	8.0	675788	88	1463
2026-01-02 10:16:46.78	115.39	75.02	-35.2	-36.9	7.8	674179	88	1492
2026-01-02 10:16:47.18	114.86	75.17	-35.4	-37.4	7.7	711189	88	1545
2026-01-02 10:16:47.59	114.31	75.31	-35.6	-37.8	7.7	864410	88	1590
2026-01-02 10:16:47.99	113.75	75.45	-35.5	-37.6	7.5	1054382	88	1575
2026-01-02 10:16:48.39	113.19	75.59	-35.8	-38.4	7.2	1076637	88	1662
2026-01-02 10:16:48.79	112.61	75.73	-35.9	-38.7	7.0	1265151	88	1699
2026-01-02 10:16:49.19	112.02	75.87	-35.9	-38.7	7.2	1406066	88	1704
2026-01-02 10:16:49.60	111.41	76.01	-35.9	-38.9	7.1	1406066	88	1728
2026-01-02 10:16:50.00	110.80	76.14	-35.8	-38.5	7.4	1265464	88	1683
2026-01-02 10:16:50.40	110.18	76.27	-35.7	-37.7	7.7	1212844	89	1549
2026-01-02 10:16:50.80	109.54	76.40	-36.0	-38.6	7.3	971557	89	1650
2026-01-02 10:16:51.20	108.89	76.53	-35.8	-38.1	7.5	970008	89	1598
2026-01-02 10:16:51.61	108.21	76.66	-36.1	-39.0	7.2	885337	89	1706
2026-01-02 10:16:52.01	107.54	76.79	-36.1	-38.8	7.3	1159500	89	1687
2026-01-02 10:16:52.41	106.85	76.91	-36.0	-38.5	7.5	1118347	89	1644
2026-01-02 10:16:52.81	106.14	77.04	-35.9	-38.2	7.7	1026596	89	1611
2026-01-02 10:16:53.22	105.41	77.16	-36.0	-38.7	7.5	945121	89	1676
2026-01-02 10:16:53.62	104.68	77.28	-36.2	-39.2	7.4	986595	89	1737
2026-01-02 10:16:54.02	103.93	77.40	-36.4	-39.7	6.9	1359466	89	1807
2026-01-02 10:16:54.42	103.18	77.51	-36.5	-40.1	6.7	1359466	89	1856
2026-01-02 10:16:54.82	102.40	77.63	-36.5	-39.7	6.4	1529029	90	1777
2026-01-02 10:16:55.23	101.60	77.74	-36.4	-39.4	6.6	2125907	90	1728
2026-01-02 10:16:55.63	100.79	77.85	-36.5	-39.7	6.2	1850791	90	1772
2026-01-02 10:16:56.03	99.98	77.95	-36.6	-39.7	6.4	2389427	90	1776
2026-01-02 10:16:56.43	99.14	78.06	-36.8	-40.6	5.9	2366668	90	1895
2026-01-02 10:16:56.83	98.30	78.16	-37.3	-41.3	5.4	3022827	91	1957
2026-01-02 10:16:57.24	97.41	78.26	-37.4	-41.6	5.2	4341133	91	1991
2026-01-02 10:16:57.64	96.54	78.36	-37.6	-41.7	4.8	5283180	92	1985
2026-01-02 10:16:58.04	95.65	78.45	-37.7	-42.3	4.5	6905158	92	2080
2026-01-02 10:16:58.44	94.74	78.54	-37.9	-42.8	4.2	8265060	92	2184
2026-01-02 10:16:58.84	93.82	78.63	-37.9	-42.8	4.2	9739547	92	2173
2026-01-02 10:16:59.25	92.86	78.71	-38.0	-43.5	4.0	10399078	92	2311
2026-01-02 10:16:59.65	91.91	78.80	-38.0	-43.4	4.0	10399078	92	2293
2026-01-02 10:17:00.05	90.95	78.88	-38.1	-43.3	3.8	11699798	93	2257
2026-01-02 10:17:00.45	89.97	78.95	-38.1	-43.4	3.8	13517997	93	2255
2026-01-02 10:17:00.86	88.95	79.03	-38.1	-43.4	3.9	13759628	93	2270
2026-01-02 10:17:01.26	87.95	79.09	-38.1	-44.4	3.8	13707717	93	2557
2026-01-02 10:17:01.66	86.93	79.16	-37.9	-42.7	4.2	14274360	93	2130
2026-01-02 10:17:02.06	85.90	79.22	-38.0	-42.6	4.1	10538261	93	2093
2026-01-02 10:17:02.46	84.86	79.28	-37.7	-41.5	4.5	10674507	93	1905
2026-01-02 10:17:02.87	83.78	79.34	-37.8	-41.6	4.4	7527984	93	1921
2026-01-02 10:17:03.27	82.72	79.39	-37.7	-41.5	4.4	8087921	93	1895
2026-01-02 10:17:03.67	81.64	79.44	-37.7	-41.3	4.3	8507949	93	1875
2026-01-02 10:17:04.07	80.56	79.49	-37.9	-42.3	4.1	8713699	93	2045
2026-01-02 10:17:04.47	79.47	79.53	-37.9	-42.4	4.1	8713699	93	2058
2026-01-02 10:17:04.87	78.36	79.56	-38.0	-42.7	4.0	11417419	93	2121
2026-01-02 10:17:05.28	77.23	79.60	-37.9	-42.2	4.1	10344665	93	2022
2026-01-02 10:17:05.68	76.11	79.63	-37.8	-41.7	4.3	11789451	93	1930
2026-01-02 10:17:06.08	74.99	79.65	-37.8	-41.6	4.4	9065811	93	1907
2026-01-02 10:17:06.48	73.86	79.67	-37.7	-41.1	4.5	8491889	93	1832
2026-01-02 10:17:06.89	72.70	79.69	-37.7	-41.3	4.5	7835098	93	1865
2026-01-02 10:17:07.29	71.57	79.71	-37.9	-42.0	4.2	8073959	93	1979
2026-01-02 10:17:07.69	70.43	79.72	-37.9	-42.2	4.1	9195274	93	2011
2026-01-02 10:17:08.09	69.29	79.72	-38.0	-42.4	4.0	10231986	93	2045
2026-01-02 10:17:08.49	68.15	79.72	-38.1	-43.1	3.8	11741653	93	2192
2026-01-02 10:17:08.90	66.98	79.72	-38.0	-42.4	3.9	14008155	93	2057
2026-01-02 10:17:09.30	65.84	79.71	-38.0	-42.3	4.1	12681480	93	2039
2026-01-02 10:17:09.70	64.70	79.70	-37.7	-41.1	4.5	12681480	93	1822
2026-01-02 10:17:10.10	63.57	79.69	-37.4	-40.3	5.0	10754364	93	1702
2026-01-02 10:17:10.51	62.41	79.67	-37.1	-39.6	5.6	6731956	92	1644
2026-01-02 10:17:10.91	61.28	79.65	-37.1	-39.7	5.7	4676033	92	1664
2026-01-02 10:17:11.31	60.16	79.62	-37.0	-39.4	5.9	3704055	92	1626
2026-01-02 10:17:11.71	59.04	79.59	-37.1	-39.7	5.7	3091735	92	1674
2026-01-02 10:17:12.11	57.94	79.56	-37.0	-39.6	5.8	3658020	92	1666
2026-01-02 10:17:12.52	56.81	79.52	-37.2	-40.3	5.3	4028709	92	1748
2026-01-02 10:17:12.92	55.72	79.48	-37.2	-40.2	5.4	4797958	92	1742
2026-01-02 10:17:13.32	54.63	79.43	-37.2	-40.2	5.4	4560523	92	1736
2026-01-02 10:17:13.72	53.56	79.38	-37.1	-40.1	5.5	4362808	92	1723
2026-01-02 10:17:14.12	52.50	79.33	-37.0	-39.5	5.9	3842323	92	1644
2026-01-02 10:17:14.53	51.42	79.27	-37.3	-40.6	5.4	3842323	92	1805
2026-01-02 10:17:14.93	50.39	79.21	-37.2	-40.3	5.6	3868469	92	1763
2026-01-02 10:17:15.33	49.36	79.15	-37.7	-42.0	4.6	4148727	92	2020
2026-01-02 10:17:15.73	48.34	79.08	-37.6	-41.6	4.6	6106529	92	1959
2026-01-02 10:17:16.14	47.32	79.01	-37.4	-41.0	5.0	7393226	92	1865
2026-01-02 10:17:16.54	46.33	78.94	-37.2	-40.1	5.6	5771636	92	1733
2026-01-02 10:17:16.94	45.36	78.86	-37.0	-39.8	5.9	4212898	92	1690
2026-01-02 10:17:17.34	44.40	78.78	-37.0	-39.8	5.9	3085235	92	1699
2026-01-02 10:17:17.75	43.43	78.70	-37.2	-40.4	5.5	3378059	92	1786
2026-01-02 10:17:18.15	42.49	78.61	-37.5	-41.4	5.0	4233001	92	1939
2026-01-02 10:17:18.55	41.58	78.52	-37.7	-42.3	4.5	6004013	92	2075
2026-01-02 10:17:18.95	40.67	78.43	-37.8	-42.5	4.3	8306816	92	2114
2026-01-02 10:17:19.35	39.79	78.34	-37.6	-41.6	4.7	8108673	92	1964
2026-01-02 10:17:19.76	38.89	78.24	-37.5	-41.3	5.0	8108673	92	1923
2026-01-02 10:17:20.16	38.03	78.14	-37.2	-40.5	5.5	6069602	92	1788
2026-01-02 10:17:20.56	37.19	78.04	-37.4	-41.3	5.0	4723579	92	1917
2026-01-02 10:17:20.96	36.36	77.93	-37.5	-41.3	4.9	5228958	92	1921
2026-01-02 10:17:21.36	35.55	77.83	-37.5	-41.5	4.7	5742401	92	1949
2026-01-02 10:17:21.77	34.73	77.71	-37.6	-41.7	4.6	6572143	92	1970
2026-01-02 10:17:22.17	33.94	77.60	-37.8	-42.4	4.3	7814971	92	2090
2026-01-02 10:17:22.57	33.17	77.49	-37.9	-42.7	4.2	8810989	92	2141
2026-01-02 10:17:22.97	32.42	77.38	-37.8	-42.4	4.2	10660514	92	2096
2026-01-02 10:17:23.37	31.68	77.26	-37.8	-42.3	4.2	9936920	92	2078
2026-01-02 10:17:23.78	30.93	77.14	-37.8	-42.6	4.1	9847579	92	2130
2026-01-02 10:17:24.18	30.22	77.01	-38.0	-44.3	3.7	13336578	93	2538
2026-01-02 10:17:24.58	29.52	76.89	-38.1	-43.5	3.8	13336578	93	2303
2026-01-02 10:17:24.98	28.83	76.77	-38.2	-45.1	3.7	14748245	93	2713
2026-01-02 10:17:25.38	28.16	76.64	-38.2	-44.0	3.7	14748245	93	2421
2026-01-02 10:17:25.79	27.49	76.51	-38.2	-45.0	3.6	14862411	93	2702
2026-01-02 10:17:26.19	26.84	76.38	-38.1	-44.0	3.8	14915122	93	2417
2026-01-02 10:17:26.59	26.21	76.25	-37.9	-42.4	3.9	14645187	93	2066
2026-01-02 10:17:26.99	25.59	76.12	-37.5	-40.7	4.5	13055496	93	1774
2026-01-02 10:17:27.40	24.96	75.98	-37.1	-39.7	5.2	8146163	92	1658
2026-01-02 10:17:27.80	24.37	75.84	-36.9	-39.1	5.7	4884033	92	1584
2026-01-02 10:17:28.20	23.78	75.71	-36.8	-38.9	5.6	4096923	92	1557
2026-01-02 10:17:28.60	23.21	75.57	-36.8	-39.2	5.9	3588050	91	1629
2026-01-02 10:17:29.01	22.63	75.42	-36.6	-38.8	6.0	3175865	91	1582
2026-01-02 10:17:29.41	22.08	75.28	-36.6	-38.7	6.1	2820075	91	1564
2026-01-02 10:17:29.81	21.54	75.14	-36.3	-38.0	6.6	2820075	91	1497
2026-01-02 10:17:30.21	21.01	75.00	-35.9	-37.7	6.9	2376068	90	1514
2026-01-02 10:17:30.62	20.48	74.85	-35.8	-37.8	7.4	1670516	89	1558
2026-01-02 10:17:31.02	19.97	74.71	-35.8	-37.9	7.2	1286972	89	1570
2026-01-02 10:17:31.42	19.48	74.56	-35.6	-37.5	7.6	1106010	89	1525
2026-01-02 10:17:31.82	18.99	74.41	-35.6	-37.5	7.6	876091	89	1528
2026-01-02 10:17:32.23	18.50	74.26	-35.2	-36.9	8.1	849342	88	1491
2026-01-02 10:17:32.63	18.03	74.11	-34.8	-36.1	8.6	588340	88	1418
2026-01-02 10:17:33.03	17.57	73.97	-34.7	-36.1	9.1	344451	87	1455
2026-01-02 10:17:33.43	17.12	73.82	-34.7	-36.1	9.1	238800	87	1457
2026-01-02 10:17:33.84	16.66	73.66	-34.5	-35.8	9.4	198585	87	1431
2026-01-02 10:17:34.24	16.23	73.51	-34.3	-35.2	9.9	127883	87	1376
2026-01-02 10:17:34.64	15.81	73.36	-33.9	-34.9	10.2	71937	86	1394
2026-01-02 10:17:35.04	15.39	73.20	-33.8	-35.3	10.5	47958	85	1465
2026-01-02 10:17:35.44	14.98	73.05	-33.9	-35.6	10.3	47958	85	1497
2026-01-02 10:17:35.84	14.58	72.90	-34.3	-36.5	9.8	41793	85	1584
2026-01-02 10:17:36.25	14.17	72.74	-34.7	-37.1	9.0	89462	86	1617
2026-01-02 10:17:36.65	13.79	72.58	-35.0	-37.7	8.4	212715	86	1696
2026-01-02 10:17:37.05	13.41	72.43	-35.6	-38.3	7.7	431106	88	1676
2026-01-02 10:17:37.45	13.04	72.27	-35.5	-38.0	7.8	747184	88	1639
2026-01-02 10:17:37.86	12.66	72.11	-35.4	-37.6	7.9	794212	88	1589
2026-01-02 10:17:38.26	12.31	71.95	-35.1	-36.8	8.2	640937	88	1505
2026-01-02 10:17:38.66	11.95	71.79	-35.0	-36.6	8.5	468322	88	1479
2026-01-02 10:17:39.06	11.61	71.63	-34.7	-36.3	9.0	340118	87	1483
2026-01-02 10:17:39.46	11.27	71.48	-34.5	-35.9	9.2	211776	87	1436
2026-01-02 10:17:39.87	10.93	71.31	-34.0	-35.2	9.6	211776	86	1414
2026-01-02 10:17:40.27	10.60	71.15	-34.0	-35.3	9.5	149864	86	1426
2026-01-02 10:17:40.67	10.28	70.99	-34.2	-35.6	9.2	134353	86	1454
2026-01-02 10:17:41.07	9.97	70.83	-34.8	-37.2	8.2	206581	86	1623
2026-01-02 10:17:41.48	9.65	70.67	-35.6	-38.0	7.3	437591	88	1636
2026-01-02 10:17:41.88	9.35	70.51	-36.0	-39.3	6.6	1057083	88	1803

#Closed at: 2026-01-02 10:17:42