passes_logs/2026/01/23/PlanumMoscow/PlanumMoscow__20260123_081410_METOP-B_rec.log

#Pass ID: 20260123_081410_METOP-B
#Satellite: METOP-B
#Configuration: METOP-B
#Start time: 2026-01-23 08:14:15.325356

#LorettStation: 1.0.0 05.05.2024
#Station: PlanumMoscow
#Location: 37.6253844 lon 55.6713361 lat
#TLE: 1 38771U 12049A   25293.92766658  .00000266  00000+0  14193-3 0  9996
#TLE: 2 38771  98.6882 344.7603 0001609 341.5209  18.5909 14.21379342679275

#Time	Az	El	Level	SNR
2026-01-23 08:17:53.775935	348.1	25.0	-61.8	3.9
2026-01-23 08:17:56.019460	347.7	25.2	-62.3	3.7
2026-01-23 08:17:58.262975	347.2	25.5	-62.2	4.7
2026-01-23 08:18:00.506491	346.8	25.8	-62.7	6.1
2026-01-23 08:18:02.750005	346.3	26.0	-62.3	5.2
2026-01-23 08:18:04.994016	345.8	26.3	-63.1	6.9
2026-01-23 08:18:07.238027	345.3	26.6	-62.9	6.2
2026-01-23 08:18:09.482038	344.9	26.8	-62.6	5.9
2026-01-23 08:18:11.725555	344.4	27.1	-62.2	4.8
2026-01-23 08:18:13.968079	343.9	27.4	-62.7	6.1
2026-01-23 08:18:16.212090	343.3	27.7	-63.1	6.7
2026-01-23 08:18:18.456101	342.8	27.9	-62.9	6.2
2026-01-23 08:18:20.700113	342.3	28.2	-62.9	6.8
2026-01-23 08:18:22.942646	341.7	28.5	-62.6	5.8
2026-01-23 08:18:25.184673	341.2	28.8	-63.1	5.3
2026-01-23 08:18:27.428188	340.6	29.0	-62.9	6.2
2026-01-23 08:18:29.672695	340.1	29.3	-62.7	7.6
2026-01-23 08:18:31.916211	339.5	29.6	-62.9	7.0
2026-01-23 08:18:34.160719	338.9	29.8	-62.8	7.4
2026-01-23 08:18:36.402250	338.3	30.1	-62.8	8.1
2026-01-23 08:18:38.644278	337.7	30.4	-63.2	7.4
2026-01-23 08:18:40.886315	337.0	30.6	-62.8	7.6
2026-01-23 08:18:43.129342	336.4	30.9	-62.8	6.2
2026-01-23 08:18:45.372866	335.8	31.2	-63.0	5.6
2026-01-23 08:18:47.615886	335.1	31.4	-62.8	6.8
2026-01-23 08:18:49.860393	334.4	31.7	-62.9	6.5
2026-01-23 08:18:52.102927	333.8	32.0	-63.0	6.5
2026-01-23 08:18:54.346443	333.1	32.2	-62.6	7.8
2026-01-23 08:18:56.591460	332.4	32.5	-62.8	7.5
2026-01-23 08:18:58.837466	331.7	32.7	-62.9	6.5
2026-01-23 08:19:01.080981	331.0	33.0	-62.8	7.0
2026-01-23 08:19:03.324992	330.2	33.2	-62.8	7.4
2026-01-23 08:19:05.569499	329.5	33.5	-62.9	7.1
2026-01-23 08:19:07.814005	328.7	33.7	-63.0	7.2
2026-01-23 08:19:10.059026	328.0	33.9	-63.0	5.9
2026-01-23 08:19:12.302045	327.2	34.2	-63.2	7.3
2026-01-23 08:19:14.545560	326.4	34.4	-63.0	6.0
2026-01-23 08:19:16.788580	325.6	34.6	-63.0	6.1
2026-01-23 08:19:19.032105	324.8	34.8	-63.2	7.0
2026-01-23 08:19:21.275125	324.0	35.0	-63.3	7.0
2026-01-23 08:19:23.517154	323.1	35.2	-62.9	7.1
2026-01-23 08:19:25.759203	322.3	35.4	-62.9	8.4
2026-01-23 08:19:28.004737	321.5	35.6	-62.9	7.5
2026-01-23 08:19:30.246765	320.6	35.8	-62.7	8.0
2026-01-23 08:19:32.490776	319.7	36.0	-62.6	7.7
2026-01-23 08:19:34.736797	318.8	36.2	-62.7	8.0
2026-01-23 08:19:36.981808	318.0	36.3	-62.4	7.8
2026-01-23 08:19:39.225820	317.1	36.5	-61.8	7.1
2026-01-23 08:19:41.469335	316.1	36.7	-62.7	7.3
2026-01-23 08:19:43.717851	315.2	36.8	-62.7	9.2
2026-01-23 08:19:45.961862	314.3	36.9	-61.9	6.0
2026-01-23 08:19:48.205874	313.4	37.1	-62.4	7.5
2026-01-23 08:19:50.448893	312.4	37.2	-62.3	7.4
2026-01-23 08:19:52.692904	311.5	37.3	-62.4	7.3
2026-01-23 08:19:54.936915	310.5	37.4	-62.8	6.8
2026-01-23 08:19:57.180926	309.6	37.5	-62.5	7.6
2026-01-23 08:19:59.423944	308.6	37.6	-62.6	7.3
2026-01-23 08:20:01.667461	307.6	37.7	-61.8	6.7
2026-01-23 08:20:03.910480	306.7	37.7	-62.4	5.4
2026-01-23 08:20:06.154491	305.7	37.8	-63.1	7.2
2026-01-23 08:20:08.400998	304.7	37.9	-61.9	6.7
2026-01-23 08:20:10.643522	303.7	37.9	-62.3	7.1
2026-01-23 08:20:12.887533	302.7	37.9	-63.0	6.5
2026-01-23 08:20:15.131545	301.7	37.9	-61.8	7.1
2026-01-23 08:20:17.374069	300.8	38.0	-62.4	6.5
2026-01-23 08:20:19.617584	299.8	38.0	-62.3	6.9
2026-01-23 08:20:21.861596	298.8	38.0	-62.9	7.8
2026-01-23 08:20:24.105111	297.8	37.9	-62.6	4.9
2026-01-23 08:20:26.351628	296.8	37.9	-62.5	6.7
2026-01-23 08:20:28.595640	295.8	37.9	-62.8	7.4
2026-01-23 08:20:30.839155	294.8	37.8	-62.7	7.2
2026-01-23 08:20:33.082670	293.9	37.8	-62.6	7.3
2026-01-23 08:20:35.329195	292.9	37.7	-62.7	7.9
2026-01-23 08:20:37.575702	291.9	37.6	-62.9	8.4
2026-01-23 08:20:39.819713	290.9	37.5	-62.6	7.0
2026-01-23 08:20:42.063228	290.0	37.5	-62.7	6.2
2026-01-23 08:20:44.307744	289.0	37.4	-62.8	5.1
2026-01-23 08:20:46.551755	288.1	37.2	-62.0	6.5
2026-01-23 08:20:48.794775	287.1	37.1	-62.1	6.8
2026-01-23 08:20:51.040308	286.2	37.0	-62.2	6.3
2026-01-23 08:20:53.282833	285.3	36.9	-62.4	6.8
2026-01-23 08:20:55.526348	284.3	36.7	-61.7	4.5
2026-01-23 08:20:57.774865	283.4	36.6	-62.2	6.3
2026-01-23 08:21:00.017397	282.5	36.4	-61.7	5.5
2026-01-23 08:21:02.261409	281.6	36.2	-61.4	4.5
2026-01-23 08:21:04.504924	280.7	36.1	-61.6	2.9
2026-01-23 08:21:06.750945	279.9	35.9	-62.3	5.6
2026-01-23 08:21:08.994955	279.0	35.7	-61.3	3.6
2026-01-23 08:21:11.238967	278.1	35.5	-61.8	6.7
2026-01-23 08:21:13.481492	277.3	35.3	-61.6	4.8
2026-01-23 08:21:15.730017	276.4	35.1	-61.3	4.9
2026-01-23 08:21:17.973533	275.6	34.9	-61.2	4.0
2026-01-23 08:21:20.218052	274.8	34.7	-61.2	5.3
2026-01-23 08:21:22.464060	274.0	34.5	-60.3	3.6
2026-01-23 08:21:24.707080	273.2	34.2	-60.9	3.7
2026-01-23 08:21:26.951091	272.4	34.0	-60.7	3.0
2026-01-23 08:21:29.194607	271.7	33.8	-61.7	5.6
2026-01-23 08:21:31.443620	270.9	33.5	-60.6	2.9
2026-01-23 08:21:33.687631	270.1	33.3	-61.2	3.9
2026-01-23 08:21:35.931642	269.4	33.1	-60.8	3.4
2026-01-23 08:21:38.180159	268.7	32.8	-61.7	5.3
2026-01-23 08:21:40.424179	268.0	32.6	-60.8	4.1
2026-01-23 08:21:42.668191	267.3	32.3	-59.5	1.1
2026-01-23 08:21:44.911706	266.6	32.0	-60.0	2.1
2026-01-23 08:21:47.154726	265.9	31.8	-61.0	4.0
2026-01-23 08:21:49.399232	265.2	31.5	-60.5	2.8
2026-01-23 08:21:51.643243	264.5	31.3	-60.3	2.5
2026-01-23 08:21:53.887759	263.9	31.0	-60.3	4.3
2026-01-23 08:21:56.130785	263.3	30.7	-60.1	0.0
2026-01-23 08:21:58.373805	262.6	30.5	-60.1	2.4
2026-01-23 08:22:00.615338	262.0	30.2	-59.4	1.9
2026-01-23 08:22:02.858863	261.4	29.9	-60.2	1.7
2026-01-23 08:22:05.101388	260.8	29.7	-60.0	2.1
2026-01-23 08:22:07.344407	260.2	29.4	-60.1	1.7
2026-01-23 08:22:09.587923	259.6	29.1	-59.1	1.8
2026-01-23 08:22:11.835935	259.1	28.8	-60.1	2.6
2026-01-23 08:22:14.079450	258.5	28.6	-60.6	3.6
2026-01-23 08:22:16.323976	258.0	28.3	-59.3	2.3
2026-01-23 08:22:18.567491	257.4	28.0	-57.4	0.0
2026-01-23 08:22:20.811007	256.9	27.7	-58.5	0.0
2026-01-23 08:22:23.055018	256.4	27.5	-59.2	2.3
2026-01-23 08:22:25.298534	255.9	27.2	-59.0	0.0
2026-01-23 08:22:27.543049	255.4	26.9	-60.1	0.0
2026-01-23 08:22:29.786564	254.9	26.6	-59.6	0.9
2026-01-23 08:22:32.030574	254.4	26.4	-59.9	3.0
2026-01-23 08:22:34.274090	253.9	26.1	-60.3	1.3
2026-01-23 08:22:36.520111	253.4	25.8	-59.9	0.6
2026-01-23 08:22:38.764120	253.0	25.5	-60.5	0.3
2026-01-23 08:22:41.008131	252.5	25.3	-59.9	1.3
2026-01-23 08:22:43.252639	252.1	25.0	-60.7	1.1
2026-01-23 08:22:45.494666	251.6	24.7	-60.1	1.8
2026-01-23 08:22:47.738677	251.2	24.5	-59.7	0.3
2026-01-23 08:22:49.982688	250.8	24.2	-60.1	0.0
2026-01-23 08:22:52.224719	250.4	23.9	-60.0	0.4
2026-01-23 08:22:54.469739	250.0	23.7	-60.2	1.6
2026-01-23 08:22:56.712761	249.5	23.4	-60.3	2.1
2026-01-23 08:22:58.956772	249.2	23.1	-60.3	0.9
2026-01-23 08:23:01.200783	248.8	22.9	-60.6	0.9
2026-01-23 08:23:03.444794	248.4	22.6	-60.6	0.5
2026-01-23 08:23:05.688806	248.0	22.4	-60.4	0.0
2026-01-23 08:23:07.932827	247.6	22.1	-61.0	0.0
2026-01-23 08:23:10.176360	247.3	21.9	-60.9	0.9
2026-01-23 08:23:12.421371	246.9	21.6	-61.1	1.7
2026-01-23 08:23:14.664888	246.6	21.3	-60.2	0.0
2026-01-23 08:23:16.908899	246.2	21.1	-60.4	0.4
2026-01-23 08:23:19.152414	245.9	20.8	-60.6	2.2
2026-01-23 08:23:21.395434	245.5	20.6	-60.9	2.6
2026-01-23 08:23:23.641941	245.2	20.3	-60.9	2.6
2026-01-23 08:23:25.886457	244.9	20.1	-60.7	2.0
2026-01-23 08:23:28.130468	244.6	19.9	-60.6	2.3
2026-01-23 08:23:30.374479	244.3	19.6	-61.8	4.3
2026-01-23 08:23:32.617996	243.9	19.4	-61.3	2.5
2026-01-23 08:23:34.861015	243.6	19.1	-61.9	1.6
2026-01-23 08:23:37.105529	243.3	18.9	-61.3	2.6
2026-01-23 08:23:39.349045	243.1	18.7	-61.3	2.9
2026-01-23 08:23:41.593056	242.8	18.4	-61.1	1.0
2026-01-23 08:23:43.835091	242.5	18.2	-61.6	0.7
2026-01-23 08:23:46.079103	242.2	17.9	-62.2	3.0
2026-01-23 08:23:48.322618	241.9	17.7	-61.9	1.5
2026-01-23 08:23:50.564648	241.7	17.5	-61.5	0.4
2026-01-23 08:23:52.806675	241.4	17.3	-61.8	1.9
2026-01-23 08:23:55.034266	241.1	17.0	-62.0	1.7
2026-01-23 08:23:57.279781	240.9	16.8	-61.6	1.0
2026-01-23 08:23:59.521811	240.6	16.6	-61.4	0.0
2026-01-23 08:24:01.766317	240.4	16.4	-61.8	0.5
2026-01-23 08:24:04.010329	240.1	16.1	-61.7	0.9
2026-01-23 08:24:06.253350	239.9	15.9	-62.1	0.0
2026-01-23 08:24:08.498865	239.6	15.7	-62.1	0.0
2026-01-23 08:24:10.741388	239.4	15.5	-61.8	0.0
2026-01-23 08:24:12.984921	239.2	15.3	-61.6	0.0
2026-01-23 08:24:15.227444	238.9	15.1	-61.8	0.0
2026-01-23 08:24:17.473959	238.7	14.8	-62.4	0.0
2026-01-23 08:24:19.716484	238.5	14.6	-61.7	0.0
2026-01-23 08:24:21.959511	238.2	14.4	-60.9	0.0
2026-01-23 08:24:24.204037	238.0	14.2	-62.0	0.0
2026-01-23 08:24:26.448048	237.8	14.0	-61.6	0.0
2026-01-23 08:24:28.692068	237.6	13.8	-61.7	0.0
2026-01-23 08:24:30.935584	237.4	13.6	-61.6	0.0
2026-01-23 08:24:33.179604	237.2	13.4	-62.7	0.3
2026-01-23 08:24:35.422145	237.0	13.2	-61.7	0.0
2026-01-23 08:24:37.664670	236.8	13.0	-62.6	0.0
2026-01-23 08:24:39.907697	236.6	12.8	-62.4	0.0
2026-01-23 08:24:42.155223	236.4	12.6	-62.9	0.0
2026-01-23 08:24:44.399234	236.2	12.4	-62.4	0.0
2026-01-23 08:24:46.641263	236.0	12.2	-61.9	0.0
2026-01-23 08:24:48.883299	235.8	12.0	-63.0	0.0
2026-01-23 08:24:51.127310	235.6	11.8	-63.1	0.0
2026-01-23 08:24:53.372826	235.5	11.6	-62.9	0.0
2026-01-23 08:24:55.616341	235.3	11.4	-62.7	0.0
2026-01-23 08:24:57.858873	235.1	11.3	-62.6	0.0
2026-01-23 08:25:00.103884	234.9	11.1	-62.6	0.0
2026-01-23 08:25:02.346390	234.8	10.9	-62.7	0.0
2026-01-23 08:25:04.586904	234.6	10.7	-62.7	0.0
2026-01-23 08:25:06.829421	234.4	10.5	-62.9	0.0
2026-01-23 08:25:09.071449	234.3	10.3	-62.3	0.0
2026-01-23 08:25:11.309954	234.1	10.1	-62.8	0.0
2026-01-23 08:25:13.546468	233.9	10.0	-62.5	0.0
2026-01-23 08:25:15.784990	233.8	9.8	-62.6	0.0
2026-01-23 08:25:18.028497	233.6	9.6	-62.7	0.0
2026-01-23 08:25:20.271021	233.5	9.4	-63.1	0.0
2026-01-23 08:25:22.514038	233.3	9.3	-62.2	0.0
2026-01-23 08:25:24.754554	233.2	9.1	-63.4	0.0
2026-01-23 08:25:26.998069	233.0	8.9	-63.0	0.0
2026-01-23 08:25:29.233086	232.9	8.7	-63.2	0.0
2026-01-23 08:25:31.474610	232.7	8.6	-63.2	0.0
2026-01-23 08:25:33.713620	232.6	8.4	-63.2	0.0
2026-01-23 08:25:35.953126	232.4	8.2	-63.1	0.0
2026-01-23 08:25:38.194632	232.3	8.0	-62.9	0.0
2026-01-23 08:25:40.435643	232.2	7.9	-63.1	0.0
2026-01-23 08:25:42.678166	232.0	7.7	-63.3	0.0
2026-01-23 08:25:44.915179	231.9	7.5	-63.1	0.0
2026-01-23 08:25:47.155699	231.8	7.4	-62.7	0.0
2026-01-23 08:25:49.403215	231.6	7.2	-62.5	0.0
2026-01-23 08:25:51.639736	231.5	7.1	-63.4	0.0
2026-01-23 08:25:53.882746	231.4	6.9	-63.0	0.0
2026-01-23 08:25:56.122252	231.2	6.7	-62.6	0.0
2026-01-23 08:25:58.361279	231.1	6.6	-62.9	0.0
2026-01-23 08:26:00.600785	231.0	6.4	-62.3	0.0
2026-01-23 08:26:02.842291	230.9	6.2	-63.0	0.0
2026-01-23 08:26:05.082814	230.7	6.1	-62.9	0.0
2026-01-23 08:26:07.320823	230.6	5.9	-60.0	0.0
2026-01-23 08:26:09.560834	230.5	5.8	-56.4	0.0
2026-01-23 08:26:11.798851	230.4	5.6	-61.9	0.0
2026-01-23 08:26:14.040365	230.3	5.5	-65.6	0.0
2026-01-23 08:26:16.277375	230.1	5.3	-69.2	0.0
2026-01-23 08:26:18.516889	230.0	5.2	-70.9	0.0
2026-01-23 08:26:20.755907	229.9	5.0	-69.1	0.0
#Closed at: 2026-01-23 08:14:10.327418