passes_logs/2026/01/23/PlanumMoscow/PlanumMoscow__20260123_072142_METEOR-M2_3_rec.log

#Pass ID: 20260123_072142_METEOR-M2 3
#Satellite: METEOR-M2 3
#Configuration: METEOR-M2 3
#Start time: 2026-01-23 07:21:47.262812

#LorettStation: 1.0.0 05.05.2024
#Station: PlanumMoscow
#Location: 37.6253844 lon 55.6713361 lat
#TLE: 1 57166U 23091A   25293.99389264  .00000062  00000+0  46113-4 0  9997
#TLE: 2 57166  98.6457 348.4330 0004759 135.3141 224.8422 14.24016546120475

#Time	Az	El	Level	SNR
2026-01-23 07:25:25.690071	20.7	29.4	-60.9	5.6
2026-01-23 07:25:27.934637	20.8	29.9	-60.6	4.0
2026-01-23 07:25:30.178152	20.8	30.3	-61.7	7.5
2026-01-23 07:25:32.421668	20.9	30.7	-60.8	7.3
2026-01-23 07:25:34.665678	21.0	31.2	-59.8	4.8
2026-01-23 07:25:36.909707	21.1	31.6	-61.0	6.9
2026-01-23 07:25:39.154222	21.2	32.1	-60.3	5.6
2026-01-23 07:25:41.396737	21.3	32.5	-61.3	6.2
2026-01-23 07:25:43.640748	21.4	33.0	-60.6	7.5
2026-01-23 07:25:45.883769	21.5	33.5	-61.0	6.5
2026-01-23 07:25:48.127284	21.6	34.0	-60.6	5.2
2026-01-23 07:25:50.370296	21.7	34.5	-60.9	5.5
2026-01-23 07:25:52.613316	21.8	35.0	-59.0	3.8
2026-01-23 07:25:54.857823	21.9	35.5	-59.3	2.7
2026-01-23 07:25:57.101835	22.0	36.0	-60.4	4.5
2026-01-23 07:25:59.344351	22.1	36.6	-59.2	3.6
2026-01-23 07:26:01.587371	22.2	37.1	-58.7	2.7
2026-01-23 07:26:03.830887	22.3	37.6	-58.9	2.2
2026-01-23 07:26:06.074898	22.4	38.2	-59.3	3.4
2026-01-23 07:26:08.323425	22.6	38.8	-58.9	2.0
2026-01-23 07:26:10.567437	22.7	39.3	-58.1	1.7
2026-01-23 07:26:12.810459	22.8	39.9	-58.3	1.3
2026-01-23 07:26:15.052493	23.0	40.5	-58.8	2.5
2026-01-23 07:26:17.294026	23.1	41.1	-60.2	4.8
2026-01-23 07:26:19.538038	23.3	41.7	-60.0	5.0
2026-01-23 07:26:21.781058	23.4	42.4	-58.8	2.1
2026-01-23 07:26:24.023583	23.6	43.0	-59.7	3.0
2026-01-23 07:26:26.266604	23.8	43.6	-59.3	3.8
2026-01-23 07:26:28.509634	23.9	44.3	-59.3	2.7
2026-01-23 07:26:30.753151	24.1	45.0	-60.4	6.2
2026-01-23 07:26:32.996666	24.3	45.7	-60.7	6.1
2026-01-23 07:26:35.240678	24.5	46.3	-60.5	6.2
2026-01-23 07:26:37.485184	24.7	47.0	-60.1	4.0
2026-01-23 07:26:39.733701	24.9	47.8	-58.8	1.1
2026-01-23 07:26:41.977216	25.2	48.5	-59.9	3.2
2026-01-23 07:26:44.221228	25.4	49.2	-60.6	2.8
2026-01-23 07:26:46.464250	25.7	50.0	-60.4	3.7
2026-01-23 07:26:48.713263	25.9	50.7	-60.5	3.8
2026-01-23 07:26:50.956291	26.2	51.5	-60.6	4.9
2026-01-23 07:26:53.200807	26.5	52.3	-61.1	4.8
2026-01-23 07:26:55.444322	26.8	53.1	-60.2	3.6
2026-01-23 07:26:57.688334	27.1	53.9	-62.4	6.3
2026-01-23 07:26:59.932363	27.4	54.7	-62.8	5.6
2026-01-23 07:27:02.175879	27.8	55.6	-62.0	3.0
2026-01-23 07:27:04.419394	28.2	56.4	-62.4	3.8
2026-01-23 07:27:06.661918	28.6	57.3	-62.1	2.5
2026-01-23 07:27:08.905930	29.0	58.2	-63.6	2.8
2026-01-23 07:27:11.151942	29.5	59.0	-63.6	3.1
2026-01-23 07:27:13.394961	30.0	59.9	-64.4	4.9
2026-01-23 07:27:15.638971	30.5	60.8	-64.4	3.2
2026-01-23 07:27:17.882992	31.1	61.8	-65.0	6.3
2026-01-23 07:27:20.127498	31.7	62.7	-65.5	5.4
2026-01-23 07:27:22.371510	32.3	63.6	-64.9	5.6
2026-01-23 07:27:24.615531	33.0	64.6	-65.1	5.6
2026-01-23 07:27:26.858561	33.8	65.5	-65.0	6.3
2026-01-23 07:27:29.100094	34.6	66.5	-65.4	6.5
2026-01-23 07:27:31.342123	35.6	67.5	-65.5	6.8
2026-01-23 07:27:33.590648	36.6	68.4	-65.0	4.0
2026-01-23 07:27:35.835155	37.7	69.4	-64.9	6.6
2026-01-23 07:27:38.081167	38.9	70.4	-65.9	7.8
2026-01-23 07:27:40.323700	40.3	71.4	-65.6	9.1
2026-01-23 07:27:42.567215	41.8	72.4	-65.8	9.1
2026-01-23 07:27:44.811226	43.5	73.3	-66.4	9.0
2026-01-23 07:27:47.054246	45.5	74.3	-66.2	8.7
2026-01-23 07:27:49.297267	47.7	75.3	-66.6	9.0
2026-01-23 07:27:51.540791	50.2	76.2	-66.9	9.2
2026-01-23 07:27:53.784802	53.1	77.1	-66.7	9.6
2026-01-23 07:27:56.027326	56.5	78.0	-65.5	8.1
2026-01-23 07:27:58.269861	60.3	78.8	-66.7	11.0
2026-01-23 07:28:00.512385	64.9	79.6	-67.0	11.2
2026-01-23 07:28:02.754423	70.1	80.3	-66.4	10.1
2026-01-23 07:28:04.996452	76.1	81.0	-67.0	10.4
2026-01-23 07:28:07.239482	82.9	81.5	-66.8	10.1
2026-01-23 07:28:09.482511	90.5	81.9	-67.3	11.1
2026-01-23 07:28:11.726027	98.8	82.1	-67.1	9.9
2026-01-23 07:28:13.969556	107.3	82.2	-66.4	8.7
2026-01-23 07:28:16.213567	115.8	82.1	-66.3	9.5
2026-01-23 07:28:18.458074	123.9	81.8	-67.2	10.4
2026-01-23 07:28:20.700600	131.4	81.4	-66.8	11.4
2026-01-23 07:28:22.944611	138.0	80.8	-67.3	12.0
2026-01-23 07:28:25.187135	143.8	80.2	-67.3	12.5
2026-01-23 07:28:27.431146	148.8	79.4	-67.7	12.1
2026-01-23 07:28:29.673662	153.2	78.6	-67.3	12.4
2026-01-23 07:28:31.918169	156.9	77.8	-67.6	12.4
2026-01-23 07:28:34.158694	160.1	76.9	-67.3	12.6
2026-01-23 07:28:36.407201	162.9	75.9	-67.1	11.6
2026-01-23 07:28:38.651213	165.4	75.0	-67.6	13.4
2026-01-23 07:28:40.895224	167.5	74.0	-67.4	12.4
2026-01-23 07:28:43.137748	169.4	73.1	-67.6	11.9
2026-01-23 07:28:45.380768	171.1	72.1	-67.3	11.9
2026-01-23 07:28:47.625275	172.6	71.1	-67.7	11.6
2026-01-23 07:28:49.868790	173.9	70.1	-67.8	12.4
2026-01-23 07:28:52.112305	175.1	69.1	-68.3	12.1
2026-01-23 07:28:54.356811	176.2	68.2	-68.1	12.6
2026-01-23 07:28:56.599336	177.2	67.2	-67.9	12.1
2026-01-23 07:28:58.842861	178.1	66.2	-68.3	11.2
2026-01-23 07:29:01.085881	178.9	65.2	-68.5	11.0
2026-01-23 07:29:03.329891	179.6	64.3	-68.7	10.7
2026-01-23 07:29:05.573903	180.3	63.3	-68.9	9.6
2026-01-23 07:29:07.816438	181.0	62.4	-68.7	9.6
2026-01-23 07:29:10.057467	181.6	61.5	-68.7	9.2
2026-01-23 07:29:12.300982	182.1	60.6	-68.3	9.1
2026-01-23 07:29:14.544994	182.6	59.6	-67.7	9.2
2026-01-23 07:29:16.787012	183.1	58.7	-67.7	10.7
2026-01-23 07:29:19.031023	183.6	57.9	-67.4	10.6
2026-01-23 07:29:21.272557	184.0	57.0	-67.2	9.8
2026-01-23 07:29:23.515586	184.4	56.1	-67.1	9.8
2026-01-23 07:29:25.760598	184.8	55.3	-67.2	11.4
2026-01-23 07:29:28.004609	185.1	54.4	-66.8	9.7
2026-01-23 07:29:30.247135	185.5	53.6	-66.5	10.5
2026-01-23 07:29:32.492156	185.8	52.8	-66.7	11.3
2026-01-23 07:29:34.736167	186.1	52.0	-66.4	10.9
2026-01-23 07:29:36.979683	186.4	51.2	-65.5	9.8
2026-01-23 07:29:39.224190	186.6	50.4	-66.3	11.4
2026-01-23 07:29:41.470698	186.9	49.7	-66.1	10.4
2026-01-23 07:29:43.713237	187.1	48.9	-66.3	10.0
2026-01-23 07:29:45.956753	187.4	48.2	-66.1	9.7
2026-01-23 07:29:48.200269	187.6	47.5	-64.5	8.5
2026-01-23 07:29:50.444280	187.8	46.8	-66.3	10.6
2026-01-23 07:29:52.687292	188.0	46.0	-66.4	11.5
2026-01-23 07:29:54.931304	188.2	45.4	-64.9	9.7
2026-01-23 07:29:57.175324	188.4	44.7	-65.6	10.7
2026-01-23 07:29:59.419831	188.6	44.0	-65.1	10.8
2026-01-23 07:30:01.660850	188.7	43.3	-64.7	9.1
2026-01-23 07:30:03.904375	188.9	42.7	-64.5	9.5
2026-01-23 07:30:06.148882	189.1	42.1	-64.9	10.9
2026-01-23 07:30:08.392893	189.2	41.4	-64.7	11.6
2026-01-23 07:30:10.636904	189.4	40.8	-64.0	10.4
2026-01-23 07:30:12.880429	189.5	40.2	-63.4	9.2
2026-01-23 07:30:15.122954	189.7	39.6	-65.0	11.6
2026-01-23 07:30:17.366965	189.8	39.0	-63.1	7.2
2026-01-23 07:30:19.610480	189.9	38.5	-63.0	9.8
2026-01-23 07:30:21.853501	190.0	37.9	-64.7	11.2
2026-01-23 07:30:24.097017	190.2	37.3	-63.4	10.9
2026-01-23 07:30:26.341523	190.3	36.8	-62.7	7.9
2026-01-23 07:30:28.585535	190.4	36.3	-64.3	11.5
2026-01-23 07:30:30.832042	190.5	35.7	-64.7	11.7
2026-01-23 07:30:33.075559	190.6	35.2	-63.1	8.7
2026-01-23 07:30:35.318579	190.7	34.7	-61.9	7.0
2026-01-23 07:30:37.563608	190.8	34.2	-64.6	12.3
2026-01-23 07:30:39.808115	190.9	33.7	-64.5	11.4
2026-01-23 07:30:42.052127	191.0	33.2	-63.2	8.4
2026-01-23 07:30:44.296644	191.1	32.7	-65.0	10.1
2026-01-23 07:30:46.542656	191.2	32.2	-64.1	9.8
2026-01-23 07:30:48.785676	191.3	31.8	-64.1	9.5
2026-01-23 07:30:51.028697	191.4	31.3	-64.7	11.6
2026-01-23 07:30:53.272708	191.5	30.9	-59.0	1.3
2026-01-23 07:30:55.515730	191.5	30.4	-64.5	11.0
2026-01-23 07:30:57.759245	191.6	30.0	-64.3	11.1
2026-01-23 07:31:00.003255	191.7	29.6	-62.5	3.6
2026-01-23 07:31:02.246771	191.8	29.1	-62.4	6.4
2026-01-23 07:31:04.491783	191.8	28.7	-64.2	10.3
2026-01-23 07:31:06.734803	191.9	28.3	-64.6	11.4
2026-01-23 07:31:08.978814	192.0	27.9	-64.5	11.6
2026-01-23 07:31:11.220843	192.1	27.5	-64.4	10.7
2026-01-23 07:31:13.465358	192.1	27.1	-64.7	10.4
2026-01-23 07:31:15.709369	192.2	26.7	-65.0	11.1
2026-01-23 07:31:17.952390	192.3	26.3	-64.7	11.1
2026-01-23 07:31:20.193430	192.3	25.9	-64.1	10.2
2026-01-23 07:31:22.436946	192.4	25.6	-63.5	9.6
2026-01-23 07:31:24.680961	192.4	25.2	-64.0	9.1
2026-01-23 07:31:26.925468	192.5	24.8	-63.5	9.8
2026-01-23 07:31:29.171994	192.6	24.5	-64.3	10.5
2026-01-23 07:31:31.415510	192.6	24.1	-63.5	9.0
2026-01-23 07:31:33.659026	192.7	23.8	-63.5	7.7
2026-01-23 07:31:35.902543	192.7	23.4	-63.8	9.8
2026-01-23 07:31:38.145068	192.8	23.1	-64.5	9.4
2026-01-23 07:31:40.388097	192.8	22.8	-64.5	10.1
2026-01-23 07:31:42.633119	192.9	22.4	-62.7	6.3
2026-01-23 07:31:44.876140	192.9	22.1	-64.4	9.6
2026-01-23 07:31:47.118664	193.0	21.8	-64.6	10.1
2026-01-23 07:31:49.362180	193.0	21.5	-65.2	11.1
2026-01-23 07:31:51.605709	193.1	21.2	-64.4	11.1
2026-01-23 07:31:53.849225	193.1	20.8	-64.7	10.0
2026-01-23 07:31:56.096237	193.2	20.5	-64.7	8.8
2026-01-23 07:31:58.340248	193.2	20.2	-63.9	7.9
2026-01-23 07:32:00.583782	193.3	19.9	-63.7	8.1
2026-01-23 07:32:02.825810	193.3	19.6	-63.4	7.3
2026-01-23 07:32:05.067839	193.4	19.3	-64.1	8.1
2026-01-23 07:32:07.310860	193.4	19.1	-64.9	9.8
2026-01-23 07:32:09.554405	193.4	18.8	-62.9	9.4
2026-01-23 07:32:11.798415	193.5	18.5	-64.1	7.2
2026-01-23 07:32:14.042427	193.5	18.2	-63.6	7.5
2026-01-23 07:32:16.286438	193.6	17.9	-64.6	8.9
2026-01-23 07:32:18.530449	193.6	17.7	-62.7	10.1
2026-01-23 07:32:20.778967	193.7	17.4	-63.6	9.6
2026-01-23 07:32:23.023483	193.7	17.1	-64.3	10.0
2026-01-23 07:32:25.267495	193.7	16.9	-64.5	10.5
2026-01-23 07:32:27.512012	193.8	16.6	-64.5	10.3
2026-01-23 07:32:29.755535	193.8	16.3	-64.5	8.5
2026-01-23 07:32:31.999052	193.8	16.1	-64.4	9.1
2026-01-23 07:32:34.243064	193.9	15.8	-64.7	10.2
2026-01-23 07:32:36.492085	193.9	15.6	-61.4	4.7
2026-01-23 07:32:38.735105	193.9	15.3	-64.4	9.3
2026-01-23 07:32:40.978126	194.0	15.1	-62.5	6.2
2026-01-23 07:32:43.222632	194.0	14.9	-62.2	3.3
2026-01-23 07:32:45.465653	194.0	14.6	-64.7	7.5
2026-01-23 07:32:47.709681	194.1	14.4	-63.0	3.2
2026-01-23 07:32:49.952703	194.1	14.1	-64.8	9.5
2026-01-23 07:32:52.197715	194.1	13.9	-64.6	9.7
2026-01-23 07:32:54.445233	194.2	13.7	-64.2	7.7
2026-01-23 07:32:56.687768	194.2	13.4	-64.3	9.6
2026-01-23 07:32:58.931283	194.2	13.2	-62.9	7.9
2026-01-23 07:33:01.173807	194.3	13.0	-64.4	7.2
2026-01-23 07:33:03.417324	194.3	12.8	-63.4	7.5
2026-01-23 07:33:05.661335	194.3	12.6	-64.9	7.9
2026-01-23 07:33:07.905366	194.4	12.3	-63.1	6.5
2026-01-23 07:33:10.149377	194.4	12.1	-64.8	8.8
2026-01-23 07:33:12.394389	194.4	11.9	-64.5	7.1
2026-01-23 07:33:14.637408	194.4	11.7	-61.8	3.5
2026-01-23 07:33:16.881419	194.5	11.5	-61.3	1.8
2026-01-23 07:33:19.125936	194.5	11.3	-63.3	6.3
2026-01-23 07:33:21.373453	194.5	11.1	-61.1	6.7
2026-01-23 07:33:23.617960	194.6	10.9	-59.2	0.0
2026-01-23 07:33:25.862467	194.6	10.7	-63.7	6.7
2026-01-23 07:33:28.108003	194.6	10.5	-63.5	6.5
2026-01-23 07:33:30.352015	194.6	10.3	-63.3	7.0
2026-01-23 07:33:32.596026	194.7	10.1	-63.4	6.6
2026-01-23 07:33:34.840532	194.7	9.9	-64.3	3.7
2026-01-23 07:33:37.084554	194.7	9.7	-63.8	6.5
2026-01-23 07:33:39.329060	194.7	9.5	-63.2	5.4
2026-01-23 07:33:41.573577	194.8	9.3	-62.4	5.7
2026-01-23 07:33:43.819599	194.8	9.1	-62.5	2.1
2026-01-23 07:33:46.063114	194.8	8.9	-61.9	0.6
2026-01-23 07:33:48.306134	194.8	8.7	-61.2	0.0
2026-01-23 07:33:50.550145	194.9	8.5	-62.9	6.9
2026-01-23 07:33:52.796653	194.9	8.3	-61.5	2.8
2026-01-23 07:33:55.040169	194.9	8.2	-62.2	2.6
2026-01-23 07:33:57.284182	194.9	8.0	-63.0	4.9
2026-01-23 07:33:59.527697	195.0	7.8	-61.7	0.0
2026-01-23 07:34:01.777205	195.0	7.6	-61.8	3.2
2026-01-23 07:34:04.021216	195.0	7.4	-59.7	0.0
2026-01-23 07:34:06.265228	195.0	7.3	-59.3	0.0
2026-01-23 07:34:08.508744	195.1	7.1	-59.1	0.0
2026-01-23 07:34:10.752260	195.1	6.9	-57.1	0.0
2026-01-23 07:34:12.996271	195.1	6.7	-63.0	0.8
2026-01-23 07:34:15.240778	195.1	6.6	-57.5	0.0
2026-01-23 07:34:17.485302	195.1	6.4	-60.4	4.4
2026-01-23 07:34:19.729313	195.2	6.2	-60.4	2.6
2026-01-23 07:34:21.973325	195.2	6.0	-57.9	0.0
2026-01-23 07:34:24.215850	195.2	5.9	-62.5	0.0
2026-01-23 07:34:26.458374	195.2	5.7	-67.0	0.0
2026-01-23 07:34:28.702881	195.2	5.5	-69.7	0.0
2026-01-23 07:34:30.947902	195.3	5.4	-69.4	0.0
2026-01-23 07:34:33.191417	195.3	5.2	-70.2	0.0
2026-01-23 07:34:35.440429	195.3	5.1	-70.5	0.0
#Closed at: 2026-01-23 07:21:42.264572