passes_logs/2026/01/23/PlanumMoscow/PlanumMoscow__20260123_115311_METEOR-M2_4_rec.log

#Pass ID: 20260123_115311_METEOR-M2 4
#Satellite: METEOR-M2 4
#Configuration: METEOR-M2 4
#Start time: 2026-01-23 11:53:16.287533

#LorettStation: 1.0.0 05.05.2024
#Station: PlanumMoscow
#Location: 37.6253844 lon 55.6713361 lat
#TLE: 1 59051U 24039A   25293.94737965  .00000087  00000+0  58459-4 0  9998
#TLE: 2 59051  98.6671 251.7071 0007726 135.4772 224.7028 14.22388966 85257

#Time	Az	El	Level	SNR
2026-01-23 11:56:54.681268	194.6	27.7	-56.8	0.0
2026-01-23 11:56:56.926279	194.9	28.0	-60.0	0.0
2026-01-23 11:56:59.170291	195.3	28.4	-62.1	8.1
2026-01-23 11:57:01.415302	195.6	28.8	-57.2	0.9
2026-01-23 11:57:03.657827	196.0	29.1	-58.5	2.7
2026-01-23 11:57:05.902353	196.3	29.5	-62.6	9.9
2026-01-23 11:57:08.144381	196.7	29.9	-62.6	8.2
2026-01-23 11:57:10.387898	197.1	30.3	-58.4	1.5
2026-01-23 11:57:12.632918	197.5	30.6	-62.5	8.7
2026-01-23 11:57:14.876433	197.9	31.0	-63.0	9.5
2026-01-23 11:57:17.114949	198.3	31.4	-62.5	8.5
2026-01-23 11:57:19.356465	198.7	31.8	-62.2	6.9
2026-01-23 11:57:21.588978	199.1	32.2	-61.5	3.9
2026-01-23 11:57:23.825006	199.5	32.6	-62.9	8.1
2026-01-23 11:57:26.059015	200.0	33.0	-63.3	8.1
2026-01-23 11:57:28.293033	200.4	33.4	-57.5	2.0
2026-01-23 11:57:30.537044	200.9	33.8	-62.4	6.5
2026-01-23 11:57:32.776550	201.4	34.3	-62.0	9.0
2026-01-23 11:57:35.013560	201.8	34.7	-58.5	0.5
2026-01-23 11:57:37.251074	202.3	35.1	-63.5	9.5
2026-01-23 11:57:39.490094	202.9	35.5	-63.1	7.8
2026-01-23 11:57:41.727121	203.4	35.9	-61.8	6.6
2026-01-23 11:57:43.965645	203.9	36.4	-60.0	3.2
2026-01-23 11:57:46.203664	204.5	36.8	-60.7	4.9
2026-01-23 11:57:48.442683	205.0	37.2	-60.6	4.4
2026-01-23 11:57:50.681188	205.6	37.7	-62.3	2.6
2026-01-23 11:57:52.918207	206.2	38.1	-62.0	6.3
2026-01-23 11:57:55.155226	206.8	38.6	-63.4	6.9
2026-01-23 11:57:57.395236	207.5	39.0	-62.0	6.2
2026-01-23 11:57:59.634742	208.1	39.5	-60.7	6.5
2026-01-23 11:58:01.874265	208.8	39.9	-62.6	7.5
2026-01-23 11:58:04.111779	209.5	40.4	-61.2	5.0
2026-01-23 11:58:06.349285	210.2	40.8	-61.9	7.1
2026-01-23 11:58:08.586294	210.9	41.3	-63.2	8.3
2026-01-23 11:58:10.822807	211.7	41.7	-63.1	9.0
2026-01-23 11:58:13.064828	212.4	42.2	-64.2	8.8
2026-01-23 11:58:15.303342	213.2	42.6	-62.3	5.6
2026-01-23 11:58:17.542353	214.0	43.1	-62.8	7.4
2026-01-23 11:58:19.779370	214.9	43.5	-61.5	5.3
2026-01-23 11:58:22.016884	215.7	44.0	-63.1	6.1
2026-01-23 11:58:24.256903	216.6	44.4	-64.3	8.9
2026-01-23 11:58:26.496408	217.5	44.9	-63.0	5.4
2026-01-23 11:58:28.734933	218.4	45.3	-62.7	4.3
2026-01-23 11:58:30.975944	219.4	45.8	-63.0	4.8
2026-01-23 11:58:33.213955	220.4	46.2	-61.9	2.6
2026-01-23 11:58:35.456471	221.4	46.6	-63.5	5.1
2026-01-23 11:58:37.696492	222.4	47.1	-63.9	5.4
2026-01-23 11:58:39.937998	223.5	47.5	-62.7	3.1
2026-01-23 11:58:42.178008	224.6	47.9	-62.9	3.7
2026-01-23 11:58:44.421524	225.7	48.3	-63.5	3.0
2026-01-23 11:58:46.665040	226.9	48.7	-63.1	3.8
2026-01-23 11:58:48.907566	228.1	49.1	-64.0	3.1
2026-01-23 11:58:51.149081	229.3	49.5	-63.7	4.3
2026-01-23 11:58:53.386603	230.5	49.8	-62.4	0.8
2026-01-23 11:58:55.624614	231.8	50.2	-64.0	3.4
2026-01-23 11:58:57.862633	233.1	50.5	-64.3	3.1
2026-01-23 11:59:00.100147	234.5	50.9	-65.0	3.4
2026-01-23 11:59:02.337652	235.8	51.2	-63.6	0.7
2026-01-23 11:59:04.577166	237.2	51.5	-64.0	3.5
2026-01-23 11:59:06.812680	238.6	51.8	-63.8	1.5
2026-01-23 11:59:09.051185	240.1	52.0	-63.8	0.0
2026-01-23 11:59:11.289699	241.5	52.3	-64.3	2.6
2026-01-23 11:59:13.528719	243.0	52.5	-63.5	1.8
2026-01-23 11:59:15.768748	244.5	52.7	-63.1	2.3
2026-01-23 11:59:18.003262	246.1	52.9	-63.7	0.5
2026-01-23 11:59:20.243768	247.6	53.1	-64.4	2.0
2026-01-23 11:59:22.476777	249.2	53.2	-64.7	1.6
2026-01-23 11:59:24.714300	250.8	53.4	-64.7	2.1
2026-01-23 11:59:26.957311	252.4	53.5	-65.0	1.2
2026-01-23 11:59:29.200825	254.0	53.6	-64.7	1.1
2026-01-23 11:59:31.443350	255.6	53.6	-64.5	1.9
2026-01-23 11:59:33.684370	257.2	53.7	-64.9	0.9
2026-01-23 11:59:35.922884	258.9	53.7	-64.9	0.0
2026-01-23 11:59:38.164390	260.5	53.7	-65.5	0.8
2026-01-23 11:59:40.402924	262.1	53.7	-65.1	1.8
2026-01-23 11:59:42.643439	263.7	53.6	-64.7	0.0
2026-01-23 11:59:44.882954	265.3	53.5	-65.8	0.0
2026-01-23 11:59:47.122469	267.0	53.4	-65.7	0.0
2026-01-23 11:59:49.362985	268.5	53.3	-65.7	0.2
2026-01-23 11:59:51.604491	270.1	53.2	-65.8	0.3
2026-01-23 11:59:53.842501	271.7	53.0	-65.7	4.1
2026-01-23 11:59:56.081007	273.2	52.8	-65.7	3.2
2026-01-23 11:59:58.319521	274.8	52.6	-66.2	5.8
2026-01-23 12:00:00.559532	276.3	52.4	-66.3	4.8
2026-01-23 12:00:02.800543	277.7	52.2	-66.3	4.3
2026-01-23 12:00:05.044554	279.2	51.9	-66.2	5.8
2026-01-23 12:00:07.292070	280.6	51.7	-66.2	3.3
2026-01-23 12:00:09.535585	282.0	51.4	-66.1	4.5
2026-01-23 12:00:11.780092	283.4	51.1	-65.8	3.4
2026-01-23 12:00:14.023113	284.8	50.7	-66.8	5.1
2026-01-23 12:00:16.266133	286.1	50.4	-65.3	3.6
2026-01-23 12:00:18.510649	287.4	50.1	-64.7	4.1
2026-01-23 12:00:20.754164	288.7	49.7	-63.9	3.3
2026-01-23 12:00:22.997194	289.9	49.3	-65.2	3.8
2026-01-23 12:00:25.241709	291.1	48.9	-66.0	6.4
2026-01-23 12:00:27.485729	292.3	48.6	-66.1	6.4
2026-01-23 12:00:29.730236	293.4	48.2	-64.9	4.2
2026-01-23 12:00:31.976257	294.5	47.7	-66.1	5.2
2026-01-23 12:00:34.220270	295.6	47.3	-65.2	4.2
2026-01-23 12:00:36.463783	296.7	46.9	-66.4	5.6
2026-01-23 12:00:38.708813	297.7	46.5	-64.5	5.3
2026-01-23 12:00:40.951851	298.7	46.1	-65.5	6.2
2026-01-23 12:00:43.196358	299.7	45.6	-65.5	5.6
2026-01-23 12:00:45.440370	300.6	45.2	-65.6	4.9
2026-01-23 12:00:47.693401	301.5	44.7	-65.6	4.0
2026-01-23 12:00:49.936917	302.4	44.3	-66.0	5.9
2026-01-23 12:00:52.180432	303.3	43.8	-66.6	7.8
2026-01-23 12:00:54.423453	304.2	43.4	-65.9	5.9
2026-01-23 12:00:56.666482	305.0	42.9	-66.2	6.3
2026-01-23 12:00:58.908520	305.8	42.5	-65.5	4.8
2026-01-23 12:01:01.152044	306.6	42.0	-66.1	6.8
2026-01-23 12:01:03.398056	307.3	41.6	-65.9	5.2
2026-01-23 12:01:05.641572	308.1	41.1	-66.1	8.2
2026-01-23 12:01:07.885583	308.8	40.7	-65.8	6.6
2026-01-23 12:01:10.129099	309.5	40.2	-65.2	6.1
2026-01-23 12:01:12.376625	310.2	39.8	-65.8	7.6
2026-01-23 12:01:14.620636	310.8	39.3	-64.6	5.2
2026-01-23 12:01:16.863664	311.5	38.9	-66.0	7.7
2026-01-23 12:01:19.112686	312.1	38.4	-65.8	7.5
2026-01-23 12:01:21.356696	312.7	38.0	-66.3	7.7
2026-01-23 12:01:23.600708	313.3	37.6	-66.0	8.2
2026-01-23 12:01:25.845215	313.9	37.1	-65.5	8.7
2026-01-23 12:01:28.094227	314.4	36.7	-65.7	8.6
2026-01-23 12:01:30.337248	315.0	36.2	-66.0	9.0
2026-01-23 12:01:32.581260	315.5	35.8	-65.7	9.7
2026-01-23 12:01:34.823786	316.1	35.4	-65.3	6.7
2026-01-23 12:01:37.069293	316.6	35.0	-65.5	7.7
2026-01-23 12:01:39.313304	317.1	34.6	-65.6	7.6
2026-01-23 12:01:41.557811	317.5	34.1	-65.6	7.7
2026-01-23 12:01:43.801821	318.0	33.7	-65.4	8.3
2026-01-23 12:01:46.045833	318.5	33.3	-65.0	8.0
2026-01-23 12:01:48.290844	318.9	32.9	-66.1	9.2
2026-01-23 12:01:50.534856	319.4	32.5	-66.2	9.7
2026-01-23 12:01:52.778373	319.8	32.1	-65.5	8.6
2026-01-23 12:01:55.022880	320.2	31.7	-65.0	8.3
2026-01-23 12:01:57.265904	320.6	31.3	-65.7	8.8
2026-01-23 12:01:59.512933	321.0	30.9	-65.9	9.5
2026-01-23 12:02:01.756450	321.4	30.6	-65.9	8.9
2026-01-23 12:02:04.000956	321.8	30.2	-64.9	9.4
2026-01-23 12:02:06.245463	322.1	29.8	-64.2	8.4
2026-01-23 12:02:08.488980	322.5	29.4	-65.0	8.7
2026-01-23 12:02:10.732991	322.9	29.1	-65.3	9.4
2026-01-23 12:02:12.977498	323.2	28.7	-65.5	8.9
2026-01-23 12:02:15.220519	323.6	28.3	-65.0	7.9
2026-01-23 12:02:17.465035	323.9	28.0	-66.0	9.7
2026-01-23 12:02:19.709047	324.2	27.6	-65.6	10.0
2026-01-23 12:02:21.952563	324.5	27.3	-65.8	9.3
2026-01-23 12:02:24.199090	324.8	26.9	-65.9	9.3
2026-01-23 12:02:26.441615	325.1	26.6	-65.7	9.2
2026-01-23 12:02:28.685152	325.4	26.2	-66.1	10.5
2026-01-23 12:02:30.929164	325.7	25.9	-65.8	9.6
2026-01-23 12:02:33.177690	326.0	25.6	-65.7	8.0
2026-01-23 12:02:35.421701	326.3	25.2	-65.8	9.3
2026-01-23 12:02:37.665217	326.6	24.9	-66.2	9.6
2026-01-23 12:02:39.913743	326.9	24.6	-66.6	9.3
2026-01-23 12:02:42.157259	327.1	24.3	-66.0	8.1
2026-01-23 12:02:44.400775	327.4	24.0	-66.0	9.2
2026-01-23 12:02:46.643794	327.6	23.7	-66.7	10.0
2026-01-23 12:02:48.890815	327.9	23.3	-66.9	9.6
2026-01-23 12:02:51.135330	328.1	23.0	-66.2	8.3
2026-01-23 12:02:53.378845	328.4	22.7	-65.8	7.9
2026-01-23 12:02:55.623857	328.6	22.4	-66.0	8.9
2026-01-23 12:02:57.867374	328.8	22.1	-66.3	7.7
2026-01-23 12:03:00.111386	329.1	21.8	-66.3	8.2
2026-01-23 12:03:02.355397	329.3	21.6	-66.0	9.0
2026-01-23 12:03:04.599426	329.5	21.3	-65.4	8.4
2026-01-23 12:03:06.843438	329.7	21.0	-49.7	0.0
2026-01-23 12:03:09.086457	329.9	20.7	-49.8	0.0
2026-01-23 12:03:11.330469	330.1	20.4	-49.8	0.0
2026-01-23 12:03:13.577481	330.4	20.1	-49.9	0.0
2026-01-23 12:03:15.821492	330.6	19.9	-50.1	0.0
2026-01-23 12:03:18.065007	330.8	19.6	-49.8	0.0
2026-01-23 12:03:20.308027	330.9	19.3	-49.6	0.0
2026-01-23 12:03:22.550568	331.1	19.1	-49.6	0.0
2026-01-23 12:03:24.794579	331.3	18.8	-50.0	0.0
2026-01-23 12:03:27.039086	331.5	18.5	-50.0	0.0
2026-01-23 12:03:29.282116	331.7	18.3	-49.8	0.0
2026-01-23 12:03:31.526127	331.9	18.0	-49.7	0.0
2026-01-23 12:03:33.770139	332.0	17.8	-49.5	0.0
2026-01-23 12:03:36.017665	332.2	17.5	-49.6	0.0
2026-01-23 12:03:38.261190	332.4	17.3	-49.1	0.0
2026-01-23 12:03:40.505201	332.6	17.0	-49.4	0.0
2026-01-23 12:03:42.749708	332.7	16.8	-49.7	0.0
2026-01-23 12:03:44.995233	332.9	16.5	-66.1	8.4
2026-01-23 12:03:47.239245	333.1	16.3	-65.9	8.4
2026-01-23 12:03:49.482274	333.2	16.1	-65.6	8.9
2026-01-23 12:03:51.725295	333.4	15.8	-65.1	7.4
2026-01-23 12:03:53.969836	333.5	15.6	-65.2	6.5
2026-01-23 12:03:56.213351	333.7	15.4	-66.1	8.6
2026-01-23 12:03:58.457362	333.8	15.1	-65.3	6.8
2026-01-23 12:04:00.702870	334.0	14.9	-65.2	6.2
2026-01-23 12:04:02.945890	334.1	14.7	-65.1	5.3
2026-01-23 12:04:05.187920	334.3	14.4	-65.5	5.9
2026-01-23 12:04:07.431436	334.4	14.2	-65.6	6.3
2026-01-23 12:04:09.678963	334.5	14.0	-66.0	7.4
2026-01-23 12:04:11.922988	334.7	13.8	-65.5	6.2
2026-01-23 12:04:14.167495	334.8	13.6	-65.1	6.6
2026-01-23 12:04:16.411021	334.9	13.4	-66.0	6.9
2026-01-23 12:04:18.655032	335.1	13.1	-65.4	5.6
2026-01-23 12:04:20.899043	335.2	12.9	-65.4	5.8
2026-01-23 12:04:23.142111	335.3	12.7	-65.6	6.9
2026-01-23 12:04:25.389191	335.5	12.5	-65.7	5.1
2026-01-23 12:04:27.634707	335.6	12.3	-65.6	5.9
2026-01-23 12:04:29.878719	335.7	12.1	-65.2	4.6
2026-01-23 12:04:32.121242	335.8	11.9	-65.4	6.0
2026-01-23 12:04:34.366778	336.0	11.7	-65.6	5.1
2026-01-23 12:04:36.611294	336.1	11.5	-65.1	4.5
2026-01-23 12:04:38.853817	336.2	11.3	-65.6	5.1
2026-01-23 12:04:41.097343	336.3	11.1	-65.1	4.9
2026-01-23 12:04:43.341859	336.4	10.9	-64.8	4.7
2026-01-23 12:04:45.584879	336.5	10.7	-64.9	6.3
2026-01-23 12:04:47.828395	336.7	10.5	-65.1	4.8
2026-01-23 12:04:50.071911	336.8	10.3	-64.4	5.8
2026-01-23 12:04:52.315426	336.9	10.2	-64.5	4.0
2026-01-23 12:04:54.558942	337.0	10.0	-64.6	3.3
2026-01-23 12:04:56.801970	337.1	9.8	-65.1	3.5
2026-01-23 12:04:59.046991	337.2	9.6	-64.3	1.1
2026-01-23 12:05:01.290508	337.3	9.4	-65.2	4.1
2026-01-23 12:05:03.534024	337.4	9.2	-65.4	4.6
2026-01-23 12:05:05.781551	337.5	9.0	-65.3	4.5
2026-01-23 12:05:08.024572	337.6	8.9	-64.8	2.9
2026-01-23 12:05:10.267604	337.7	8.7	-64.7	4.5
2026-01-23 12:05:12.510135	337.8	8.5	-64.5	2.8
2026-01-23 12:05:14.756157	337.9	8.3	-64.3	2.5
2026-01-23 12:05:17.000664	338.0	8.2	-64.4	3.0
2026-01-23 12:05:19.242692	338.1	8.0	-64.0	2.6
2026-01-23 12:05:21.486208	338.2	7.8	-64.4	4.7
2026-01-23 12:05:23.729724	338.3	7.6	-63.8	3.0
2026-01-23 12:05:25.973240	338.4	7.5	-65.0	3.7
2026-01-23 12:05:28.216756	338.5	7.3	-64.7	2.7
2026-01-23 12:05:30.462280	338.6	7.1	-63.7	1.9
2026-01-23 12:05:32.705797	338.6	7.0	-63.8	3.3
2026-01-23 12:05:34.949816	338.7	6.8	-63.0	0.0
2026-01-23 12:05:37.196829	338.8	6.6	-63.3	0.0
2026-01-23 12:05:39.445840	338.9	6.5	-64.5	0.0
2026-01-23 12:05:41.690356	339.0	6.3	-64.0	1.0
2026-01-23 12:05:43.933872	339.1	6.1	-63.4	0.0
2026-01-23 12:05:46.177389	339.2	6.0	-65.3	0.0
2026-01-23 12:05:48.420914	339.2	5.8	-67.7	0.0
2026-01-23 12:05:50.665421	339.3	5.7	-67.4	0.0
2026-01-23 12:05:52.908937	339.4	5.5	-67.5	0.0
2026-01-23 12:05:55.154969	339.5	5.3	-66.2	0.0
2026-01-23 12:05:57.399493	339.6	5.2	-67.2	0.0
2026-01-23 12:05:59.644000	339.7	5.0	-66.7	0.0
#Closed at: 2026-01-23 11:53:11.289404