passes_logs/2026/01/23/PlanumMoscow/PlanumMoscow__20260123_171035_METEOR-M2_3_rec.log

#Pass ID: 20260123_171035_METEOR-M2 3
#Satellite: METEOR-M2 3
#Configuration: METEOR-M2 3
#Start time: 2026-01-23 17:10:40.210500

#LorettStation: 1.0.0 05.05.2024
#Station: PlanumMoscow
#Location: 37.6253844 lon 55.6713361 lat
#TLE: 1 57166U 23091A   25293.99389264  .00000062  00000+0  46113-4 0  9997
#TLE: 2 57166  98.6457 348.4330 0004759 135.3141 224.8422 14.24016546120475

#Time	Az	El	Level	SNR
2026-01-23 17:14:18.648381	128.1	28.1	-64.4	13.7
2026-01-23 17:14:20.884913	127.8	28.4	-64.0	13.3
2026-01-23 17:14:23.121923	127.4	28.8	-64.7	14.3
2026-01-23 17:14:25.359437	127.1	29.2	-64.1	14.1
2026-01-23 17:14:27.598456	126.7	29.6	-62.6	10.6
2026-01-23 17:14:29.836970	126.4	29.9	-64.3	15.2
2026-01-23 17:14:32.076981	126.0	30.3	-64.3	12.9
2026-01-23 17:14:34.313990	125.6	30.7	-64.6	14.8
2026-01-23 17:14:36.557506	125.2	31.1	-63.9	10.5
2026-01-23 17:14:38.797030	124.8	31.5	-64.0	13.1
2026-01-23 17:14:41.038536	124.4	31.9	-62.7	11.0
2026-01-23 17:14:43.279547	124.0	32.3	-62.7	9.6
2026-01-23 17:14:45.523063	123.5	32.7	-60.7	7.9
2026-01-23 17:14:47.764569	123.1	33.1	-63.7	13.7
2026-01-23 17:14:50.006589	122.6	33.5	-63.8	13.4
2026-01-23 17:14:52.249601	122.2	33.9	-63.9	11.6
2026-01-23 17:14:54.491619	121.7	34.4	-62.7	11.2
2026-01-23 17:14:56.734125	121.2	34.8	-64.0	12.9
2026-01-23 17:14:58.977145	120.7	35.2	-64.5	14.2
2026-01-23 17:15:01.223158	120.2	35.7	-64.9	13.1
2026-01-23 17:15:03.463167	119.7	36.1	-62.8	10.5
2026-01-23 17:15:05.707683	119.1	36.5	-64.2	12.8
2026-01-23 17:15:07.950208	118.5	37.0	-64.5	11.7
2026-01-23 17:15:10.192732	118.0	37.4	-64.6	9.6
2026-01-23 17:15:12.436288	117.4	37.9	-65.1	11.9
2026-01-23 17:15:14.684316	116.8	38.3	-65.1	12.5
2026-01-23 17:15:16.927865	116.1	38.8	-64.6	12.3
2026-01-23 17:15:19.170894	115.5	39.2	-64.8	13.0
2026-01-23 17:15:21.413965	114.8	39.7	-64.3	9.4
2026-01-23 17:15:23.662977	114.1	40.1	-64.9	10.8
2026-01-23 17:15:25.907037	113.4	40.6	-64.9	11.7
2026-01-23 17:15:28.151048	112.7	41.0	-64.8	10.9
2026-01-23 17:15:30.393580	112.0	41.5	-65.3	12.4
2026-01-23 17:15:32.636632	111.2	41.9	-65.6	12.1
2026-01-23 17:15:34.880147	110.4	42.4	-64.8	11.5
2026-01-23 17:15:37.123235	109.6	42.9	-64.5	12.7
2026-01-23 17:15:39.367272	108.8	43.3	-64.1	11.3
2026-01-23 17:15:41.610818	107.9	43.8	-64.7	12.7
2026-01-23 17:15:43.854341	107.0	44.2	-62.9	11.1
2026-01-23 17:15:46.098383	106.1	44.7	-64.8	10.1
2026-01-23 17:15:48.342899	105.2	45.1	-64.7	11.3
2026-01-23 17:15:50.586951	104.2	45.6	-64.9	10.9
2026-01-23 17:15:52.830963	103.2	46.0	-64.5	10.8
2026-01-23 17:15:55.078504	102.2	46.4	-64.9	11.5
2026-01-23 17:15:57.322051	101.2	46.9	-64.8	10.8
2026-01-23 17:15:59.566070	100.1	47.3	-64.2	9.7
2026-01-23 17:16:01.809131	99.0	47.7	-62.8	6.8
2026-01-23 17:16:04.052161	97.9	48.1	-64.5	10.3
2026-01-23 17:16:06.294724	96.7	48.5	-64.1	11.0
2026-01-23 17:16:08.538735	95.5	48.9	-63.6	9.0
2026-01-23 17:16:10.781259	94.3	49.3	-63.4	8.9
2026-01-23 17:16:13.023340	93.0	49.6	-64.0	8.3
2026-01-23 17:16:15.267361	91.8	50.0	-64.4	9.4
2026-01-23 17:16:17.510412	90.4	50.3	-64.7	8.0
2026-01-23 17:16:19.754432	89.1	50.7	-62.2	5.3
2026-01-23 17:16:21.997462	87.7	51.0	-62.2	6.1
2026-01-23 17:16:24.240515	86.3	51.3	-63.6	6.8
2026-01-23 17:16:26.484031	84.9	51.5	-62.1	5.2
2026-01-23 17:16:28.727113	83.5	51.8	-62.7	6.1
2026-01-23 17:16:30.970647	82.0	52.0	-61.8	4.3
2026-01-23 17:16:33.213698	80.5	52.3	-63.6	8.0
2026-01-23 17:16:35.455262	79.0	52.5	-62.4	6.6
2026-01-23 17:16:37.698785	77.4	52.7	-62.5	7.5
2026-01-23 17:16:39.942341	75.9	52.8	-64.5	9.3
2026-01-23 17:16:42.188866	74.3	53.0	-63.3	8.0
2026-01-23 17:16:44.433405	72.7	53.1	-63.4	5.7
2026-01-23 17:16:46.675947	71.1	53.2	-63.9	8.7
2026-01-23 17:16:48.918472	69.5	53.3	-63.0	6.3
2026-01-23 17:16:51.166525	67.9	53.3	-63.3	6.3
2026-01-23 17:16:53.410594	66.2	53.3	-62.6	5.5
2026-01-23 17:16:55.654118	64.6	53.4	-61.9	4.5
2026-01-23 17:16:57.897642	63.0	53.3	-62.9	5.8
2026-01-23 17:17:00.141198	61.4	53.3	-63.4	4.7
2026-01-23 17:17:02.384218	59.7	53.2	-62.6	5.8
2026-01-23 17:17:04.627237	58.1	53.1	-61.4	3.9
2026-01-23 17:17:06.870298	56.5	53.0	-63.2	6.1
2026-01-23 17:17:09.114814	55.0	52.9	-60.4	1.2
2026-01-23 17:17:11.357865	53.4	52.7	-62.3	4.1
2026-01-23 17:17:13.601885	51.8	52.6	-61.6	1.9
2026-01-23 17:17:15.844451	50.3	52.4	-62.5	3.2
2026-01-23 17:17:18.088480	48.8	52.1	-61.5	4.2
2026-01-23 17:17:20.331002	47.3	51.9	-61.1	2.7
2026-01-23 17:17:22.574052	45.9	51.7	-61.4	3.0
2026-01-23 17:17:24.817117	44.4	51.4	-61.6	2.8
2026-01-23 17:17:27.061127	43.0	51.1	-59.8	1.2
2026-01-23 17:17:29.305642	41.6	50.8	-59.6	0.0
2026-01-23 17:17:31.548703	40.3	50.5	-58.3	0.4
2026-01-23 17:17:33.790740	39.0	50.1	-60.5	1.8
2026-01-23 17:17:36.034800	37.7	49.8	-61.4	3.8
2026-01-23 17:17:38.277820	36.4	49.4	-61.3	1.4
2026-01-23 17:17:40.523354	35.2	49.1	-60.4	1.6
2026-01-23 17:17:42.766414	34.0	48.7	-61.6	2.6
2026-01-23 17:17:45.010455	32.8	48.3	-61.7	3.7
2026-01-23 17:17:47.254515	31.7	47.9	-60.4	5.3
2026-01-23 17:17:49.498030	30.5	47.5	-59.4	0.0
2026-01-23 17:17:51.741088	29.5	47.1	-61.6	5.2
2026-01-23 17:17:53.983652	28.4	46.6	-61.5	5.9
2026-01-23 17:17:56.228687	27.4	46.2	-59.7	3.7
2026-01-23 17:17:58.473194	26.4	45.8	-59.9	2.6
2026-01-23 17:18:00.717742	25.4	45.3	-61.1	5.0
2026-01-23 17:18:02.959820	24.5	44.9	-60.9	5.2
2026-01-23 17:18:05.203385	23.5	44.4	-60.8	5.6
2026-01-23 17:18:07.449398	22.7	44.0	-60.9	3.2
2026-01-23 17:18:09.692913	21.8	43.5	-61.1	2.1
2026-01-23 17:18:11.936966	20.9	43.1	-61.1	5.3
2026-01-23 17:18:14.181481	20.1	42.6	-61.4	3.2
2026-01-23 17:18:16.426535	19.3	42.2	-61.7	4.9
2026-01-23 17:18:18.672042	18.6	41.7	-60.9	3.0
2026-01-23 17:18:20.921104	17.8	41.3	-61.9	6.5
2026-01-23 17:18:23.165610	17.1	40.8	-59.9	4.4
2026-01-23 17:18:25.410126	16.4	40.4	-60.3	0.7
2026-01-23 17:18:27.654177	15.7	39.9	-60.6	3.8
2026-01-23 17:18:29.898693	15.0	39.4	-62.0	6.8
2026-01-23 17:18:32.142735	14.4	39.0	-62.0	5.5
2026-01-23 17:18:34.385299	13.7	38.5	-63.2	7.8
2026-01-23 17:18:36.629813	13.1	38.1	-62.8	4.8
2026-01-23 17:18:38.874359	12.5	37.7	-61.4	4.9
2026-01-23 17:18:41.118379	11.9	37.2	-60.7	4.3
2026-01-23 17:18:43.361917	11.4	36.8	-61.5	5.2
2026-01-23 17:18:45.605928	10.8	36.3	-61.1	4.2
2026-01-23 17:18:47.849484	10.3	35.9	-60.7	4.0
2026-01-23 17:18:50.094000	9.7	35.5	-61.4	7.7
2026-01-23 17:18:52.338506	9.2	35.0	-60.7	4.5
2026-01-23 17:18:54.582557	8.7	34.6	-61.5	6.7
2026-01-23 17:18:56.827072	8.3	34.2	-62.0	5.8
2026-01-23 17:18:59.071124	7.8	33.8	-60.3	4.5
2026-01-23 17:19:01.316144	7.3	33.4	-60.3	4.7
2026-01-23 17:19:03.560691	6.9	32.9	-60.4	5.0
2026-01-23 17:19:05.804703	6.4	32.5	-61.4	7.0
2026-01-23 17:19:08.051724	6.0	32.1	-62.4	6.7
2026-01-23 17:19:10.295279	5.6	31.7	-61.2	4.9
2026-01-23 17:19:12.539291	5.2	31.3	-60.7	4.6
2026-01-23 17:19:14.782837	4.8	30.9	-61.4	6.1
2026-01-23 17:19:17.026363	4.4	30.6	-59.7	4.7
2026-01-23 17:19:19.269433	4.1	30.2	-61.3	5.4
2026-01-23 17:19:21.513949	3.7	29.8	-62.4	5.9
2026-01-23 17:19:23.757503	3.3	29.4	-61.9	6.5
2026-01-23 17:19:26.002010	3.0	29.0	-62.8	8.4
2026-01-23 17:19:28.246526	2.6	28.7	-62.4	9.5
2026-01-23 17:19:30.490073	2.3	28.3	-60.2	5.6
2026-01-23 17:19:32.734597	2.0	27.9	-62.8	7.2
2026-01-23 17:19:34.979648	1.7	27.6	-63.1	7.0
2026-01-23 17:19:37.223667	1.4	27.2	-62.9	9.6
2026-01-23 17:19:39.468214	1.1	26.9	-62.3	6.4
2026-01-23 17:19:41.712247	0.8	26.5	-61.7	6.1
2026-01-23 17:19:43.956754	0.5	26.2	-64.1	10.2
2026-01-23 17:19:46.201299	0.2	25.8	-64.4	10.8
2026-01-23 17:19:48.444847	359.9	25.5	-63.5	8.3
2026-01-23 17:19:50.689354	359.6	25.2	-60.3	5.0
2026-01-23 17:19:52.933869	359.4	24.8	-62.9	6.5
2026-01-23 17:19:55.177416	359.1	24.5	-63.6	10.2
2026-01-23 17:19:57.420939	358.9	24.2	-62.1	6.7
2026-01-23 17:19:59.665446	358.6	23.9	-61.6	6.7
2026-01-23 17:20:01.909993	358.4	23.6	-63.4	9.5
2026-01-23 17:20:04.154012	358.1	23.3	-63.5	10.2
2026-01-23 17:20:06.397576	357.9	22.9	-63.8	9.4
2026-01-23 17:20:08.641100	357.7	22.6	-62.3	6.5
2026-01-23 17:20:10.885152	357.4	22.3	-62.4	6.3
2026-01-23 17:20:13.131172	357.2	22.0	-63.8	8.0
2026-01-23 17:20:15.375679	357.0	21.7	-62.4	4.8
2026-01-23 17:20:17.619722	356.8	21.4	-62.7	5.3
2026-01-23 17:20:19.863734	356.6	21.2	-62.7	3.9
2026-01-23 17:20:22.108784	356.4	20.9	-62.6	6.4
2026-01-23 17:20:24.353300	356.2	20.6	-62.0	6.2
2026-01-23 17:20:26.597327	356.0	20.3	-61.9	5.7
2026-01-23 17:20:28.841355	355.8	20.0	-62.3	6.9
2026-01-23 17:20:31.086871	355.6	19.7	-62.0	6.1
2026-01-23 17:20:33.331906	355.4	19.5	-61.4	2.9
2026-01-23 17:20:35.576968	355.2	19.2	-63.1	5.6
2026-01-23 17:20:37.820980	355.1	18.9	-62.7	4.3
2026-01-23 17:20:40.065495	354.9	18.7	-64.4	7.4
2026-01-23 17:20:42.311540	354.7	18.4	-65.3	7.3
2026-01-23 17:20:44.556055	354.5	18.1	-62.4	3.2
2026-01-23 17:20:46.805563	354.4	17.9	-63.9	7.5
2026-01-23 17:20:49.049607	354.2	17.6	-62.6	6.1
2026-01-23 17:20:51.294122	354.1	17.4	-62.2	5.9
2026-01-23 17:20:53.542187	353.9	17.1	-61.0	0.0
2026-01-23 17:20:55.786206	353.7	16.9	-62.1	6.0
2026-01-23 17:20:58.029756	353.6	16.6	-61.5	2.1
2026-01-23 17:21:00.274271	353.4	16.4	-61.7	3.3
2026-01-23 17:21:02.520819	353.3	16.1	-62.0	1.4
2026-01-23 17:21:04.764830	353.1	15.9	-63.5	4.5
2026-01-23 17:21:07.008859	353.0	15.7	-62.1	2.8
2026-01-23 17:21:09.255911	352.9	15.4	-61.2	2.2
2026-01-23 17:21:11.500427	352.7	15.2	-62.1	2.4
2026-01-23 17:21:13.744469	352.6	15.0	-61.9	1.7
2026-01-23 17:21:15.988481	352.5	14.7	-61.3	0.8
2026-01-23 17:21:18.234005	352.3	14.5	-62.5	2.0
2026-01-23 17:21:20.478553	352.2	14.3	-63.2	4.6
2026-01-23 17:21:22.723068	352.1	14.1	-62.0	2.7
2026-01-23 17:21:24.966617	352.0	13.8	-64.0	5.6
2026-01-23 17:21:27.210637	351.8	13.6	-62.2	3.2
2026-01-23 17:21:29.454682	351.7	13.4	-62.4	6.5
2026-01-23 17:21:31.699197	351.6	13.2	-62.1	3.3
2026-01-23 17:21:33.942744	351.5	13.0	-61.8	1.9
2026-01-23 17:21:36.187260	351.4	12.7	-62.9	6.7
2026-01-23 17:21:38.431296	351.2	12.5	-61.1	0.9
2026-01-23 17:21:40.674812	351.1	12.3	-63.3	5.1
2026-01-23 17:21:42.919327	351.0	12.1	-63.1	5.6
2026-01-23 17:21:45.162876	350.9	11.9	-61.4	2.4
2026-01-23 17:21:47.407391	350.8	11.7	-62.9	6.1
2026-01-23 17:21:49.651433	350.7	11.5	-61.8	2.8
2026-01-23 17:21:51.895948	350.6	11.3	-63.3	5.6
2026-01-23 17:21:54.140455	350.5	11.1	-63.5	4.6
2026-01-23 17:21:56.384001	350.4	10.9	-65.1	5.9
2026-01-23 17:21:58.628548	350.3	10.7	-62.7	2.0
2026-01-23 17:22:00.872559	350.2	10.5	-61.9	0.1
2026-01-23 17:22:03.116579	350.1	10.3	-63.1	3.4
2026-01-23 17:22:05.360125	350.0	10.1	-65.4	5.7
2026-01-23 17:22:07.604640	349.9	9.9	-65.1	5.1
2026-01-23 17:22:09.848681	349.8	9.8	-63.0	1.0
2026-01-23 17:22:12.093195	349.7	9.6	-64.1	1.5
2026-01-23 17:22:14.337702	349.7	9.4	-65.7	4.2
2026-01-23 17:22:16.585248	349.6	9.2	-63.9	0.0
2026-01-23 17:22:18.829762	349.5	9.0	-63.9	0.0
2026-01-23 17:22:21.074311	349.4	8.8	-63.7	0.0
2026-01-23 17:22:23.320834	349.3	8.7	-64.0	0.0
2026-01-23 17:22:25.564899	349.2	8.5	-63.9	0.0
2026-01-23 17:22:27.809415	349.1	8.3	-64.3	0.0
2026-01-23 17:22:30.053962	349.1	8.1	-64.0	0.0
2026-01-23 17:22:32.297983	349.0	7.9	-64.9	0.0
2026-01-23 17:22:34.542490	348.9	7.8	-65.5	0.8
2026-01-23 17:22:36.788532	348.8	7.6	-65.8	0.0
2026-01-23 17:22:39.032048	348.8	7.4	-63.7	0.0
2026-01-23 17:22:41.275604	348.7	7.2	-64.6	2.0
2026-01-23 17:22:43.520111	348.6	7.1	-64.6	0.9
2026-01-23 17:22:45.764626	348.5	6.9	-64.3	0.0
2026-01-23 17:22:48.007677	348.5	6.7	-65.6	1.0
2026-01-23 17:22:50.252193	348.4	6.6	-61.8	0.0
2026-01-23 17:22:52.496253	348.3	6.4	-64.7	0.0
2026-01-23 17:22:54.740760	348.2	6.2	-64.9	0.0
2026-01-23 17:22:56.984780	348.2	6.1	-64.5	0.0
2026-01-23 17:22:59.228821	348.1	5.9	-68.3	0.4
2026-01-23 17:23:01.472832	348.0	5.7	-68.7	0.0
2026-01-23 17:23:03.717844	348.0	5.6	-69.0	0.0
2026-01-23 17:23:05.960880	347.9	5.4	-69.5	0.0
2026-01-23 17:23:08.204891	347.8	5.3	-69.0	0.0
2026-01-23 17:23:10.448941	347.8	5.1	-71.3	0.0
#Closed at: 2026-01-23 17:10:35.211189