passes_logs/2026/01/23/PlanumMoscow/PlanumMoscow__20260123_184046_METOP-C_rec.log

#Pass ID: 20260123_184046_METOP-C
#Satellite: METOP-C
#Configuration: METOP-C
#Start time: 2026-01-23 18:40:51.182610

#LorettStation: 1.0.0 05.05.2024
#Station: PlanumMoscow
#Location: 37.6253844 lon 55.6713361 lat
#TLE: 1 43689U 18087A   25293.88981035  .00000265  00000+0  14109-3 0  9997
#TLE: 2 43689  98.7006 352.4487 0002041 122.1097 238.0279 14.21482740360838

#Time	Az	El	Level	SNR
2026-01-23 18:44:29.642954	198.0	27.3	-64.9	0.0
2026-01-23 18:44:31.887470	198.4	27.6	-61.2	0.0
2026-01-23 18:44:34.131492	198.7	28.0	-62.0	0.0
2026-01-23 18:44:36.375504	199.1	28.3	-62.9	0.0
2026-01-23 18:44:38.619515	199.5	28.7	-62.5	0.0
2026-01-23 18:44:40.863031	199.9	29.0	-62.1	0.0
2026-01-23 18:44:43.100547	200.3	29.4	-61.9	0.0
2026-01-23 18:44:45.343083	200.7	29.8	-61.7	0.0
2026-01-23 18:44:47.583093	201.1	30.1	-63.0	0.0
2026-01-23 18:44:49.821599	201.5	30.5	-61.4	0.0
2026-01-23 18:44:52.064133	201.9	30.9	-61.9	0.0
2026-01-23 18:44:54.303656	202.4	31.2	-57.8	0.0
2026-01-23 18:44:56.543676	202.8	31.6	-62.8	0.0
2026-01-23 18:44:58.783191	203.3	32.0	-62.9	0.0
2026-01-23 18:45:01.022201	203.8	32.4	-62.5	0.0
2026-01-23 18:45:03.265212	204.3	32.8	-63.1	0.0
2026-01-23 18:45:05.514233	204.8	33.2	-61.8	0.0
2026-01-23 18:45:07.757748	205.3	33.6	-62.5	0.0
2026-01-23 18:45:10.002265	205.8	34.0	-62.6	0.0
2026-01-23 18:45:12.245314	206.3	34.3	-62.2	0.0
2026-01-23 18:45:14.488325	206.9	34.7	-63.1	0.0
2026-01-23 18:45:16.732832	207.4	35.1	-65.6	0.0
2026-01-23 18:45:18.976844	208.0	35.6	-63.1	0.0
2026-01-23 18:45:21.221864	208.6	36.0	-66.4	0.0
2026-01-23 18:45:23.465380	209.2	36.4	-65.8	0.0
2026-01-23 18:45:25.708400	209.8	36.8	-65.8	0.0
2026-01-23 18:45:27.952420	210.4	37.2	-66.1	0.0
2026-01-23 18:45:30.195457	211.1	37.6	-63.9	0.0
2026-01-23 18:45:32.440469	211.7	38.0	-66.6	0.0
2026-01-23 18:45:34.684480	212.4	38.4	-67.0	0.0
2026-01-23 18:45:36.927499	213.1	38.8	-66.8	0.0
2026-01-23 18:45:39.172006	213.8	39.3	-65.6	0.0
2026-01-23 18:45:41.416521	214.6	39.7	-67.0	0.0
2026-01-23 18:45:43.659056	215.3	40.1	-64.6	0.0
2026-01-23 18:45:45.902571	216.1	40.5	-64.6	0.0
2026-01-23 18:45:48.146584	216.9	40.9	-65.4	0.0
2026-01-23 18:45:50.389604	217.7	41.3	-65.5	0.0
2026-01-23 18:45:52.633119	218.5	41.7	-62.8	0.0
2026-01-23 18:45:54.876140	219.4	42.1	-65.0	0.0
2026-01-23 18:45:57.119655	220.2	42.5	-64.5	0.0
2026-01-23 18:45:59.363666	221.1	42.9	-64.2	0.0
2026-01-23 18:46:01.606693	222.1	43.3	-64.8	0.0
2026-01-23 18:46:03.851210	223.0	43.7	-64.1	0.0
2026-01-23 18:46:06.095222	224.0	44.1	-63.7	0.0
2026-01-23 18:46:08.339728	225.0	44.5	-65.0	0.0
2026-01-23 18:46:10.585244	226.0	44.9	-63.7	0.0
2026-01-23 18:46:12.828759	227.0	45.2	-62.8	0.0
2026-01-23 18:46:15.073266	228.1	45.6	-64.4	0.0
2026-01-23 18:46:17.316782	229.1	46.0	-65.0	0.0
2026-01-23 18:46:19.558315	230.2	46.3	-65.1	0.0
2026-01-23 18:46:21.801848	231.4	46.7	-65.7	0.0
2026-01-23 18:46:24.045859	232.5	47.0	-65.0	0.0
2026-01-23 18:46:26.289871	233.7	47.3	-64.3	0.0
2026-01-23 18:46:28.533387	234.9	47.6	-64.1	0.0
2026-01-23 18:46:30.776912	236.1	47.9	-64.1	0.0
2026-01-23 18:46:33.019932	237.4	48.2	-64.9	0.0
2026-01-23 18:46:35.263447	238.7	48.5	-66.0	0.0
2026-01-23 18:46:37.506476	239.9	48.7	-65.6	0.0
2026-01-23 18:46:39.750489	241.3	49.0	-66.7	0.0
2026-01-23 18:46:41.992525	242.6	49.2	-65.6	0.0
2026-01-23 18:46:44.238552	244.0	49.4	-65.4	0.0
2026-01-23 18:46:46.483572	245.3	49.6	-67.2	0.0
2026-01-23 18:46:48.729585	246.7	49.8	-66.1	0.0
2026-01-23 18:46:50.973596	248.1	50.0	-66.5	0.0
2026-01-23 18:46:53.218616	249.5	50.1	-65.2	0.0
2026-01-23 18:46:55.462627	251.0	50.2	-64.0	0.0
2026-01-23 18:46:57.706143	252.4	50.3	-65.1	0.0
2026-01-23 18:46:59.950668	253.9	50.4	-66.1	0.0
2026-01-23 18:47:02.194679	255.3	50.5	-64.9	0.0
2026-01-23 18:47:04.437202	256.8	50.6	-65.8	0.0
2026-01-23 18:47:06.681709	258.3	50.6	-65.6	0.0
2026-01-23 18:47:08.923750	259.7	50.6	-66.3	0.0
2026-01-23 18:47:11.165281	261.2	50.6	-66.7	0.0
2026-01-23 18:47:13.407805	262.7	50.6	-66.6	0.0
2026-01-23 18:47:15.649833	264.1	50.5	-67.2	0.0
2026-01-23 18:47:17.898852	265.6	50.5	-67.7	0.0
2026-01-23 18:47:20.142863	267.1	50.4	-65.2	0.0
2026-01-23 18:47:22.387379	268.5	50.3	-67.0	0.0
2026-01-23 18:47:24.629904	269.9	50.2	-67.5	0.0
2026-01-23 18:47:26.873420	271.4	50.0	-67.7	0.0
2026-01-23 18:47:29.116935	272.8	49.9	-68.1	0.0
2026-01-23 18:47:31.360451	274.2	49.7	-67.7	0.0
2026-01-23 18:47:33.604975	275.5	49.5	-68.5	0.0
2026-01-23 18:47:35.848004	276.9	49.3	-68.1	0.0
2026-01-23 18:47:38.091032	278.2	49.1	-68.5	0.0
2026-01-23 18:47:40.335557	279.6	48.8	-69.0	0.0
2026-01-23 18:47:42.579568	280.9	48.6	-69.0	0.0
2026-01-23 18:47:44.823578	282.1	48.3	-69.4	0.0
2026-01-23 18:47:47.066112	283.4	48.0	-68.3	0.0
2026-01-23 18:47:49.309627	284.6	47.8	-68.9	0.0
2026-01-23 18:47:51.554134	285.8	47.5	-69.3	0.0
2026-01-23 18:47:53.798146	287.0	47.1	-69.4	0.0
2026-01-23 18:47:56.041166	288.2	46.8	-70.2	0.0
2026-01-23 18:47:58.288178	289.3	46.5	-69.7	0.0
2026-01-23 18:48:00.532189	290.5	46.1	-69.2	0.0
2026-01-23 18:48:02.774712	291.5	45.8	-69.2	0.0
2026-01-23 18:48:05.020246	292.6	45.4	-70.1	0.0
2026-01-23 18:48:07.263763	293.7	45.1	-69.0	0.0
2026-01-23 18:48:09.507774	294.7	44.7	-69.6	0.0
2026-01-23 18:48:11.752281	295.7	44.3	-69.7	0.0
2026-01-23 18:48:13.999797	296.6	43.9	-69.4	0.0
2026-01-23 18:48:16.244304	297.6	43.5	-69.0	0.0
2026-01-23 18:48:18.488810	298.5	43.1	-69.0	0.0
2026-01-23 18:48:20.732326	299.4	42.7	-69.3	0.0
2026-01-23 18:48:22.976833	300.3	42.3	-68.2	0.0
2026-01-23 18:48:25.221340	301.2	41.9	-69.3	0.0
2026-01-23 18:48:27.465847	302.0	41.5	-68.6	0.0
2026-01-23 18:48:29.713859	302.8	41.1	-68.7	0.0
2026-01-23 18:48:31.958366	303.6	40.7	-69.4	0.0
2026-01-23 18:48:34.202873	304.4	40.3	-67.8	0.0
2026-01-23 18:48:36.445894	305.2	39.9	-68.8	0.0
2026-01-23 18:48:38.689905	305.9	39.5	-68.7	0.0
2026-01-23 18:48:40.934412	306.6	39.1	-69.0	0.0
2026-01-23 18:48:43.178423	307.3	38.7	-68.8	0.0
2026-01-23 18:48:45.422434	308.0	38.2	-69.6	0.0
2026-01-23 18:48:47.666445	308.7	37.8	-68.0	0.0
2026-01-23 18:48:49.910952	309.3	37.4	-68.8	0.0
2026-01-23 18:48:52.154963	310.0	37.0	-67.7	0.0
2026-01-23 18:48:54.399479	310.6	36.6	-68.6	0.0
2026-01-23 18:48:56.643986	311.2	36.2	-69.0	0.0
2026-01-23 18:48:58.887997	311.8	35.8	-67.6	0.0
2026-01-23 18:49:01.132504	312.4	35.4	-68.2	0.0
2026-01-23 18:49:03.379515	312.9	35.0	-68.4	0.0
2026-01-23 18:49:05.624023	313.5	34.6	-67.5	0.0
2026-01-23 18:49:07.868529	314.0	34.2	-69.5	0.0
2026-01-23 18:49:10.114542	314.6	33.8	-68.7	0.0
2026-01-23 18:49:12.359049	315.1	33.4	-68.9	0.0
2026-01-23 18:49:14.603556	315.6	33.0	-68.8	0.0
2026-01-23 18:49:16.848063	316.1	32.6	-67.8	0.0
2026-01-23 18:49:19.097074	316.5	32.3	-68.4	0.0
2026-01-23 18:49:21.341085	317.0	31.9	-69.0	0.0
2026-01-23 18:49:23.585592	317.5	31.5	-67.6	0.0
2026-01-23 18:49:25.830604	317.9	31.1	-68.2	0.0
2026-01-23 18:49:28.075111	318.3	30.8	-67.5	0.0
2026-01-23 18:49:30.319618	318.8	30.4	-68.8	0.0
2026-01-23 18:49:32.564125	319.2	30.0	-69.6	0.0
2026-01-23 18:49:34.807144	319.6	29.7	-69.3	0.0
2026-01-23 18:49:37.051651	320.0	29.3	-67.7	0.0
2026-01-23 18:49:39.296158	320.4	28.9	-68.6	0.0
2026-01-23 18:49:41.540665	320.8	28.6	-68.4	0.0
2026-01-23 18:49:43.784676	321.1	28.2	-68.2	0.0
2026-01-23 18:49:46.028687	321.5	27.9	-68.7	0.0
2026-01-23 18:49:48.272203	321.9	27.6	-68.3	0.0
2026-01-23 18:49:50.516214	322.2	27.2	-68.3	0.0
2026-01-23 18:49:52.760721	322.6	26.9	-67.9	0.0
2026-01-23 18:49:55.005228	322.9	26.5	-67.3	0.0
2026-01-23 18:49:57.249735	323.2	26.2	-69.6	0.0
2026-01-23 18:49:59.492755	323.6	25.9	-68.4	0.0
2026-01-23 18:50:01.737262	323.9	25.6	-68.0	0.0
2026-01-23 18:50:03.981769	324.2	25.2	-69.4	0.0
2026-01-23 18:50:06.225780	324.5	24.9	-69.0	0.0
2026-01-23 18:50:08.470286	324.8	24.6	-68.3	0.0
2026-01-23 18:50:10.714794	325.1	24.3	-68.6	0.0
2026-01-23 18:50:12.959301	325.4	24.0	-68.1	0.0
2026-01-23 18:50:15.202816	325.6	23.7	-67.4	0.0
2026-01-23 18:50:17.447323	325.9	23.4	-67.9	0.0
2026-01-23 18:50:19.690839	326.2	23.1	-67.5	0.0
2026-01-23 18:50:21.934392	326.5	22.8	-67.8	0.0
2026-01-23 18:50:24.181405	326.7	22.5	-67.2	0.0
2026-01-23 18:50:26.425911	327.0	22.2	-67.7	0.0
2026-01-23 18:50:28.670418	327.2	21.9	-68.7	0.0
2026-01-23 18:50:30.913935	327.5	21.6	-68.5	0.0
2026-01-23 18:50:33.157450	327.7	21.3	-68.9	0.0
2026-01-23 18:50:35.401461	328.0	21.1	-68.1	0.0
2026-01-23 18:50:37.645472	328.2	20.8	-68.9	0.0
2026-01-23 18:50:39.889483	328.4	20.5	-69.3	0.0
2026-01-23 18:50:42.134495	328.7	20.2	-69.2	0.0
2026-01-23 18:50:44.379001	328.9	20.0	-70.0	0.0
2026-01-23 18:50:46.623013	329.1	19.7	-69.5	0.0
2026-01-23 18:50:48.867024	329.3	19.4	-69.0	0.0
2026-01-23 18:50:51.111531	329.5	19.2	-69.1	0.0
2026-01-23 18:50:53.356038	329.7	18.9	-68.8	0.0
2026-01-23 18:50:55.600545	330.0	18.6	-68.4	0.0
2026-01-23 18:50:57.846556	330.2	18.4	-69.0	0.0
2026-01-23 18:51:00.091063	330.4	18.1	-69.0	0.0
2026-01-23 18:51:02.335570	330.6	17.9	-68.3	0.0
2026-01-23 18:51:04.585078	330.7	17.6	-69.4	0.0
2026-01-23 18:51:06.830585	330.9	17.4	-69.0	0.0
2026-01-23 18:51:09.075092	331.1	17.1	-69.4	0.0
2026-01-23 18:51:11.319599	331.3	16.9	-69.0	0.0
2026-01-23 18:51:13.566116	331.5	16.7	-69.5	0.0
2026-01-23 18:51:15.810127	331.7	16.4	-69.0	0.0
2026-01-23 18:51:18.054634	331.8	16.2	-69.0	0.0
2026-01-23 18:51:20.299141	332.0	15.9	-69.2	0.0
2026-01-23 18:51:22.548154	332.2	15.7	-69.2	0.0
2026-01-23 18:51:24.792669	332.4	15.5	-68.5	0.0
2026-01-23 18:51:27.037176	332.5	15.3	-67.9	0.0
2026-01-23 18:51:29.281187	332.7	15.0	-67.6	0.0
2026-01-23 18:51:31.525694	332.9	14.8	-68.7	0.0
2026-01-23 18:51:33.770201	333.0	14.6	-68.3	0.0
2026-01-23 18:51:36.014708	333.2	14.4	-67.6	0.0
2026-01-23 18:51:38.258224	333.3	14.1	-68.0	0.0
2026-01-23 18:51:40.502731	333.5	13.9	-67.4	0.0
2026-01-23 18:51:42.747238	333.6	13.7	-67.4	0.0
2026-01-23 18:51:44.993745	333.8	13.5	-67.6	0.0
2026-01-23 18:51:47.238252	333.9	13.3	-67.7	0.0
2026-01-23 18:51:49.484759	334.1	13.1	-68.2	0.0
2026-01-23 18:51:51.728771	334.2	12.9	-68.8	0.0
2026-01-23 18:51:53.972782	334.4	12.7	-68.3	0.0
2026-01-23 18:51:56.217289	334.5	12.5	-67.9	0.0
2026-01-23 18:51:58.461796	334.6	12.3	-68.0	0.0
2026-01-23 18:52:00.705807	334.8	12.1	-68.0	0.0
2026-01-23 18:52:02.955315	334.9	11.9	-67.8	0.0
2026-01-23 18:52:05.199822	335.0	11.7	-68.1	0.0
2026-01-23 18:52:07.444329	335.2	11.5	-68.0	0.0
2026-01-23 18:52:09.688341	335.3	11.3	-67.8	0.0
2026-01-23 18:52:11.932848	335.4	11.1	-67.5	0.0
2026-01-23 18:52:14.177355	335.6	10.9	-67.6	0.0
2026-01-23 18:52:16.421862	335.7	10.7	-67.6	0.0
2026-01-23 18:52:18.668873	335.8	10.5	-67.3	0.0
2026-01-23 18:52:20.912389	335.9	10.3	-66.9	0.0
2026-01-23 18:52:23.156895	336.0	10.1	-66.5	0.0
2026-01-23 18:52:25.401402	336.2	9.9	-66.7	0.0
2026-01-23 18:52:27.644919	336.3	9.7	-66.9	0.0
2026-01-23 18:52:29.888930	336.4	9.6	-66.9	0.0
2026-01-23 18:52:32.133476	336.5	9.4	-67.1	0.0
2026-01-23 18:52:34.377991	336.6	9.2	-66.6	0.0
2026-01-23 18:52:36.624499	336.7	9.0	-66.0	0.0
2026-01-23 18:52:38.869044	336.8	8.8	-66.3	0.0
2026-01-23 18:52:41.113081	337.0	8.7	-66.5	0.0
2026-01-23 18:52:43.358635	337.1	8.5	-66.7	0.0
2026-01-23 18:52:45.604151	337.2	8.3	-66.1	0.0
2026-01-23 18:52:47.847199	337.3	8.1	-66.7	0.0
2026-01-23 18:52:50.093706	337.4	8.0	-66.3	0.0
2026-01-23 18:52:52.341223	337.5	7.8	-66.7	0.0
2026-01-23 18:52:54.585771	337.6	7.6	-66.4	0.0
2026-01-23 18:52:56.830278	337.7	7.4	-66.0	0.0
2026-01-23 18:52:59.074328	337.8	7.3	-65.2	0.0
2026-01-23 18:53:01.321340	337.9	7.1	-66.8	0.0
2026-01-23 18:53:03.565847	338.0	6.9	-66.0	0.0
2026-01-23 18:53:05.810354	338.1	6.8	-66.5	0.0
2026-01-23 18:53:08.057376	338.2	6.6	-66.3	0.0
2026-01-23 18:53:10.301923	338.3	6.5	-65.7	0.0
2026-01-23 18:53:12.546430	338.4	6.3	-65.4	0.0
2026-01-23 18:53:14.789954	338.5	6.1	-64.9	0.0
2026-01-23 18:53:17.034005	338.6	6.0	-65.5	0.1
2026-01-23 18:53:19.278057	338.7	5.8	-67.3	2.8
2026-01-23 18:53:21.522564	338.7	5.7	-68.2	0.0
2026-01-23 18:53:23.766079	338.8	5.5	-70.0	0.0
2026-01-23 18:53:26.009617	338.9	5.3	-69.2	0.0
2026-01-23 18:53:28.254123	339.0	5.2	-70.1	0.0
2026-01-23 18:53:30.498139	339.1	5.0	-71.8	0.0
#Closed at: 2026-01-23 18:40:46.184347