passes_logs/2026/01/26/T1/T1__20260126_134001_FENGYUN_3E_rec.log

#Pass ID: 20260126_134001_FENGYUN 3E
#Satellite: FENGYUN 3E
#Configuration: FENGYUN 3E
#almurnet v.1.7.20251203
#Start time: 2026-01-26 13:40:03

#Version: 2.0.20230620
#Station: T1
#Location: 37.570604 lon 55.790049 lat
#TLE: 1 49008U 21062A   26025.99868676  .00000027  00000+0  33666-4 0  9992
#TLE: 2 49008  98.7499  30.9985 0002454 117.4834 242.6592 14.19886826236404

#Time	Az	El	Level	Level2	SNR	BER	BlckErr	Temp	State	Recorded	gain1	gain2
2026-01-26 13:40:03.55	143.20	5.15	-49.6	-60.0	3.8	8.47e-01	0	40	0	0	70	11317
2026-01-26 13:40:07.52	143.08	5.43	-49.5	-59.3	3.8	8.48e-01	0	41	104	0	69	11145
2026-01-26 13:40:11.49	142.97	5.72	-49.5	-59.4	3.8	8.46e-01	0	41	104	0	69	11222
2026-01-26 13:40:15.46	142.85	6.01	-49.4	-58.9	3.8	8.46e-01	0	41	104	0	69	10556
2026-01-26 13:40:19.43	142.73	6.30	-49.3	-58.5	3.8	8.47e-01	0	41	104	0	69	10116
2026-01-26 13:40:23.41	142.61	6.60	-49.5	-59.8	3.8	8.48e-01	0	41	104	0	69	11810
2026-01-26 13:40:27.38	142.48	6.89	-49.5	-59.3	3.8	8.47e-01	0	41	104	0	69	11034
2026-01-26 13:40:31.35	142.35	7.20	-48.8	-55.7	4.6	8.22e-01	0	42	0	0	68	7799
2026-01-26 13:40:35.32	142.22	7.50	-47.1	-51.3	7.6	1.08e-01	0	42	0	13631488	65	5560
2026-01-26 13:40:39.30	142.09	7.81	-43.6	-45.8	13.2	4.23e-05	0	42	0	41943040	58	4437
2026-01-26 13:40:43.27	141.95	8.13	-40.7	-42.4	16.4	0.00e+00	0	42	0	70254592	52	4221
2026-01-26 13:40:47.24	141.81	8.44	-40.1	-41.8	17.1	0.00e+00	0	42	0	99614720	50	4397
2026-01-26 13:40:51.22	141.67	8.76	-42.2	-44.1	14.8	0.00e+00	0	42	0	127926272	53	4847
2026-01-26 13:40:55.19	141.52	9.09	-46.5	-50.0	9.0	2.26e-02	0	42	0	156237824	62	5699
2026-01-26 13:40:59.17	141.37	9.42	-41.4	-43.2	15.8	0.00e+00	0	42	0	185597952	52	4623
2026-01-26 13:41:03.15	141.21	9.75	-39.1	-40.6	18.1	0.00e+00	0	42	0	205520896	48	4320
2026-01-26 13:41:07.13	141.06	10.09	-39.0	-40.6	18.2	0.00e+00	0	42	0	233832448	48	4302
2026-01-26 13:41:11.11	140.89	10.43	-38.3	-39.9	18.6	0.00e+00	0	42	0	263192576	47	4201
2026-01-26 13:41:15.09	140.73	10.78	-38.1	-39.6	19.0	0.00e+00	0	43	0	291504128	46	4309
2026-01-26 13:41:19.07	140.56	11.13	-38.3	-39.8	18.8	0.00e+00	0	43	0	320864256	46	4427
2026-01-26 13:41:23.05	140.38	11.49	-38.0	-39.5	19.1	0.00e+00	0	43	0	349175808	46	4259
2026-01-26 13:41:27.03	140.20	11.85	-37.6	-39.0	19.6	0.00e+00	0	43	0	377487360	45	4290
2026-01-26 13:41:31.01	140.02	12.22	-37.4	-38.8	19.7	0.00e+00	0	43	0	406847488	45	4188
2026-01-26 13:41:34.99	139.83	12.59	-37.1	-38.5	20.0	0.00e+00	0	42	0	435159040	45	4032
2026-01-26 13:41:38.97	139.63	12.97	-37.2	-38.6	19.9	0.00e+00	0	42	0	464519168	45	4092
2026-01-26 13:41:42.95	139.43	13.35	-37.0	-38.4	20.2	0.00e+00	0	43	0	492830720	44	4218
2026-01-26 13:41:46.93	139.22	13.74	-37.0	-38.3	20.2	0.00e+00	0	43	0	521142272	44	4182
2026-01-26 13:41:50.91	139.01	14.13	-36.8	-38.2	20.4	0.00e+00	0	43	0	550502400	44	4117
2026-01-26 13:41:54.89	138.80	14.53	-36.7	-38.0	20.5	0.00e+00	0	43	0	578813952	44	4047
2026-01-26 13:41:58.86	138.57	14.94	-36.6	-37.9	20.4	0.00e+00	0	43	0	608174080	43	4228
2026-01-26 13:42:02.84	138.34	15.35	-36.4	-37.8	20.6	0.00e+00	0	43	0	636485632	43	4151
2026-01-26 13:42:06.82	138.10	15.77	-36.2	-37.5	20.8	0.00e+00	0	43	0	664797184	42	4276
2026-01-26 13:42:10.80	137.86	16.20	-36.0	-37.3	21.0	0.00e+00	0	43	0	694157312	42	4171
2026-01-26 13:42:14.78	137.61	16.64	-35.8	-37.1	21.2	0.00e+00	0	43	0	722468864	42	4088
2026-01-26 13:42:18.75	137.35	17.08	-35.6	-37.0	21.3	0.00e+00	0	43	0	751828992	41	4243
2026-01-26 13:42:22.73	137.08	17.53	-35.6	-36.9	21.4	0.00e+00	0	43	0	780140544	41	4215
2026-01-26 13:42:26.71	136.81	17.98	-35.4	-36.7	21.5	0.00e+00	0	43	0	808452096	41	4108
2026-01-26 13:42:30.69	136.52	18.45	-35.4	-36.7	21.5	0.00e+00	0	43	0	837812224	41	4140
2026-01-26 13:42:34.68	136.23	18.92	-35.5	-36.8	21.4	0.00e+00	0	43	0	866123776	41	4175
2026-01-26 13:42:38.65	135.92	19.40	-35.4	-36.8	21.4	0.00e+00	0	43	0	895483904	41	4169
2026-01-26 13:42:42.63	135.61	19.89	-35.2	-36.5	21.6	0.00e+00	0	43	0	923795456	41	4048
2026-01-26 13:42:46.61	135.29	20.39	-35.1	-36.5	21.6	0.00e+00	0	43	0	952107008	40	4261
2026-01-26 13:42:50.59	134.95	20.90	-35.0	-36.4	21.7	0.00e+00	0	43	0	981467136	40	4221
2026-01-26 13:42:54.56	134.61	21.41	-34.9	-36.3	21.8	0.00e+00	0	43	0	1009778688	40	4170
2026-01-26 13:42:58.54	134.25	21.94	-34.8	-36.2	21.9	0.00e+00	0	43	0	1038090240	40	4099
2026-01-26 13:43:02.52	133.87	22.48	-35.1	-36.5	21.7	0.00e+00	0	43	0	1067450368	40	4259
2026-01-26 13:43:06.50	133.49	23.02	-35.2	-36.6	21.5	0.00e+00	0	43	0	1095761920	40	4319
2026-01-26 13:43:10.48	133.09	23.58	-35.1	-36.5	21.7	0.00e+00	0	43	0	1125122048	40	4243
2026-01-26 13:43:14.46	132.67	24.15	-35.1	-36.4	21.8	0.00e+00	0	43	0	1153433600	40	4213
2026-01-26 13:43:18.44	132.24	24.73	-35.1	-36.5	21.7	0.00e+00	0	43	0	1181745152	40	4254
2026-01-26 13:43:22.42	131.80	25.32	-35.3	-36.6	21.6	0.00e+00	0	43	0	1211105280	40	4316
2026-01-26 13:43:26.40	131.33	25.92	-34.8	-36.1	22.1	0.00e+00	0	43	0	1239416832	39	4302
2026-01-26 13:43:30.38	130.85	26.53	-34.6	-36.0	22.2	0.00e+00	0	43	0	1268776960	39	4243
2026-01-26 13:43:34.36	130.35	27.15	-34.5	-35.8	22.2	0.00e+00	0	43	0	1297088512	39	4178
2026-01-26 13:43:38.35	129.82	27.79	-34.2	-35.5	22.5	0.00e+00	0	43	0	1325400064	38	4255
2026-01-26 13:43:42.33	129.28	28.44	-34.2	-35.5	22.5	0.00e+00	0	43	0	1354760192	38	4264
2026-01-26 13:43:46.31	128.71	29.10	-34.3	-35.6	22.4	0.00e+00	0	43	0	1383071744	38	4310
2026-01-26 13:43:50.29	128.12	29.77	-34.6	-35.9	22.1	0.00e+00	0	43	0	1412431872	38	4491
2026-01-26 13:43:54.27	127.50	30.46	-34.8	-36.2	21.9	0.00e+00	0	43	0	1440743424	39	4352
2026-01-26 13:43:58.25	126.85	31.16	-34.8	-36.1	22.0	0.00e+00	0	43	0	1469054976	39	4323
2026-01-26 13:44:02.22	126.18	31.87	-34.8	-36.1	22.1	0.00e+00	0	43	0	1498415104	39	4303
2026-01-26 13:44:06.20	125.47	32.59	-34.1	-35.3	22.6	0.00e+00	0	43	0	1526726656	39	3957
2026-01-26 13:44:10.18	124.73	33.33	-34.1	-35.4	22.6	0.00e+00	0	43	0	1556086784	38	4199
2026-01-26 13:44:14.16	123.96	34.07	-34.2	-35.4	22.6	0.00e+00	0	43	0	1584398336	38	4233
2026-01-26 13:44:18.14	123.15	34.83	-34.5	-35.9	22.3	0.00e+00	0	43	0	1612709888	39	4202
2026-01-26 13:44:22.12	122.30	35.61	-34.6	-35.9	22.3	0.00e+00	0	43	0	1642070016	39	4236
2026-01-26 13:44:26.09	121.41	36.39	-34.3	-35.6	22.6	0.00e+00	0	43	0	1670381568	39	4063
2026-01-26 13:44:30.07	120.47	37.18	-34.3	-35.6	22.4	0.00e+00	0	43	0	1699741696	38	4328
2026-01-26 13:44:34.05	119.49	37.99	-34.3	-35.6	22.6	0.00e+00	0	43	0	1728053248	38	4302
2026-01-26 13:44:38.03	118.46	38.80	-34.6	-35.4	23.5	0.00e+00	0	43	0	1756364800	39	4000
2026-01-26 13:44:42.01	117.37	39.62	-35.0	-35.8	23.1	0.00e+00	0	43	0	1785724928	39	4178
2026-01-26 13:44:45.99	116.22	40.45	-34.8	-35.6	23.3	0.00e+00	0	43	0	1814036480	40	3868
2026-01-26 13:44:49.97	115.02	41.29	-35.3	-36.1	22.8	0.00e+00	0	43	0	1843396608	40	4085
2026-01-26 13:44:53.95	113.74	42.13	-34.7	-35.5	23.4	0.00e+00	0	43	0	1871708160	39	4049
2026-01-26 13:44:57.92	112.41	42.96	-34.7	-35.5	23.4	0.00e+00	0	43	0	1900019712	39	4021
2026-01-26 13:45:01.90	111.00	43.81	-35.0	-35.8	23.1	0.00e+00	0	43	0	1929379840	39	4188
2026-01-26 13:45:05.88	109.51	44.64	-35.5	-36.4	22.6	0.00e+00	0	43	0	1957691392	40	4202
2026-01-26 13:45:09.86	107.94	45.48	-34.9	-35.7	23.2	0.00e+00	0	43	0	1987051520	40	3896
2026-01-26 13:45:13.84	106.29	46.30	-35.2	-36.1	22.9	0.00e+00	0	43	0	2015363072	40	4081
2026-01-26 13:45:17.82	104.55	47.12	-36.2	-37.1	22.0	0.00e+00	0	43	0	2043674624	41	4295
2026-01-26 13:45:21.81	102.71	47.92	-36.1	-37.0	22.1	0.00e+00	0	43	0	2073034752	42	4018
2026-01-26 13:45:25.79	100.77	48.70	-35.8	-36.7	22.4	0.00e+00	0	43	0	2101346304	41	4100
2026-01-26 13:45:29.77	98.74	49.45	-36.3	-37.2	22.0	0.00e+00	0	43	0	2130706432	42	4099
2026-01-26 13:45:33.75	96.61	50.18	-36.4	-37.3	21.8	0.00e+00	0	43	0	2159017984	42	4171
2026-01-26 13:45:37.73	94.38	50.88	-35.9	-36.8	22.3	0.00e+00	0	43	0	2187329536	42	3923
2026-01-26 13:45:41.71	92.04	51.53	-37.0	-37.9	21.3	0.00e+00	0	43	0	2216689664	43	4213
2026-01-26 13:45:45.69	89.60	52.14	-36.0	-36.9	22.2	0.00e+00	0	43	0	2245001216	42	3986
2026-01-26 13:45:49.67	87.06	52.71	-36.3	-37.2	21.9	0.00e+00	0	43	0	2274361344	42	4138
2026-01-26 13:45:53.65	84.43	53.22	-35.6	-36.4	22.6	0.00e+00	0	43	0	2302672896	41	3993
2026-01-26 13:45:57.63	81.71	53.66	-36.8	-37.8	21.4	0.00e+00	0	43	0	2330984448	43	4146
2026-01-26 13:46:01.61	78.91	54.05	-35.8	-36.6	22.4	0.00e+00	0	43	0	2360344576	42	3851
2026-01-26 13:46:05.59	76.04	54.37	-36.5	-37.4	21.8	0.00e+00	0	43	0	2388656128	42	4224
2026-01-26 13:46:09.57	73.12	54.61	-35.9	-36.7	22.3	0.00e+00	0	43	0	2418016256	42	3906
2026-01-26 13:46:13.55	70.15	54.78	-36.1	-36.9	22.1	0.00e+00	0	43	0	2446327808	42	3990
2026-01-26 13:46:17.52	67.16	54.87	-35.8	-36.6	22.5	0.00e+00	0	43	0	2474639360	41	4072
2026-01-26 13:46:21.50	64.16	54.89	-36.0	-36.8	22.3	0.00e+00	0	43	0	2503999488	42	3956
2026-01-26 13:46:25.49	61.15	54.82	-35.9	-36.7	22.3	0.00e+00	0	43	0	2532311040	41	4143
2026-01-26 13:46:29.46	58.18	54.68	-36.1	-37.0	22.1	0.00e+00	0	43	0	2561671168	42	4005
2026-01-26 13:46:33.45	55.23	54.46	-36.3	-37.2	21.9	0.00e+00	0	43	0	2589982720	42	4129
2026-01-26 13:46:37.43	52.34	54.17	-36.1	-36.9	22.2	0.00e+00	0	43	0	2618294272	42	3990
2026-01-26 13:46:41.41	49.52	53.81	-35.9	-36.8	22.3	0.00e+00	0	43	0	2647654400	42	3924
2026-01-26 13:46:45.39	46.77	53.38	-36.6	-37.5	21.6	0.00e+00	0	43	0	2675965952	42	4283
2026-01-26 13:46:49.37	44.11	52.90	-36.8	-37.8	21.5	0.00e+00	0	43	0	2705326080	43	4150
2026-01-26 13:46:53.35	41.54	52.35	-36.1	-37.0	22.1	0.00e+00	0	43	0	2733637632	42	4006
2026-01-26 13:46:57.33	39.07	51.76	-35.9	-36.7	22.3	0.00e+00	0	43	0	2761949184	42	3909
2026-01-26 13:47:01.29	36.71	51.12	-35.8	-36.7	22.4	0.00e+00	0	43	0	2791309312	42	3887
2026-01-26 13:47:05.27	34.45	50.44	-35.5	-36.4	22.7	0.00e+00	0	43	0	2819620864	41	3975
2026-01-26 13:47:09.26	32.28	49.73	-36.0	-36.8	22.2	0.00e+00	0	43	0	2848980992	41	4192
2026-01-26 13:47:13.23	30.22	48.98	-35.6	-36.5	22.6	0.00e+00	0	43	0	2877292544	41	4015
2026-01-26 13:47:17.21	28.26	48.22	-35.8	-36.7	22.3	0.00e+00	0	43	0	2905604096	41	4126
2026-01-26 13:47:21.19	26.39	47.43	-35.2	-36.0	22.9	0.00e+00	0	43	0	2934964224	40	4018
2026-01-26 13:47:25.17	24.62	46.62	-35.4	-36.2	22.7	0.00e+00	0	43	0	2963275776	40	4131
2026-01-26 13:47:29.14	22.94	45.80	-35.2	-36.0	23.0	0.00e+00	0	43	0	2991587328	40	4020
2026-01-26 13:47:33.12	21.35	44.97	-35.5	-36.3	22.7	0.00e+00	0	43	0	3020947456	40	4186
2026-01-26 13:47:37.10	19.83	44.14	-35.0	-35.8	23.1	0.00e+00	0	43	0	3049259008	40	3955
2026-01-26 13:47:41.08	18.40	43.30	-34.7	-35.5	23.4	0.00e+00	0	43	0	3078619136	39	4048
2026-01-26 13:47:45.06	17.04	42.46	-35.0	-35.9	23.2	0.00e+00	0	43	0	3106930688	39	4195
2026-01-26 13:47:49.04	15.75	41.63	-35.0	-35.9	23.1	0.00e+00	0	43	0	3135242240	39	4201
2026-01-26 13:47:53.02	14.52	40.79	-35.1	-35.9	23.1	0.00e+00	0	43	0	3164602368	39	4240
2026-01-26 13:47:57.00	13.36	39.97	-35.0	-35.9	23.1	0.00e+00	0	43	0	3192913920	40	3975
2026-01-26 13:48:00.98	12.25	39.14	-34.9	-35.7	23.2	0.00e+00	0	43	0	3222274048	40	3912
2026-01-26 13:48:04.96	11.20	38.33	-34.5	-35.3	23.5	0.00e+00	0	43	0	3250585600	39	3958
2026-01-26 13:48:08.94	10.20	37.53	-34.8	-35.7	23.3	0.00e+00	0	43	0	3278897152	39	4103
2026-01-26 13:48:12.92	9.25	36.73	-34.9	-35.7	23.2	0.00e+00	0	43	0	3308257280	39	4119
2026-01-26 13:48:16.90	8.35	35.95	-34.9	-35.7	23.0	0.00e+00	0	43	0	3336568832	39	4116
2026-01-26 13:48:20.88	7.48	35.17	-34.4	-35.2	23.7	0.00e+00	0	43	0	3365928960	39	3910
2026-01-26 13:48:24.87	6.66	34.41	-34.4	-35.2	23.7	0.00e+00	0	43	0	3394240512	39	3889
2026-01-26 13:48:28.83	5.88	33.66	-34.4	-35.2	23.6	0.00e+00	0	43	0	3422552064	39	3895
2026-01-26 13:48:32.80	5.13	32.93	-34.6	-35.4	23.4	0.00e+00	0	43	0	3451912192	39	3996
2026-01-26 13:48:36.78	4.42	32.20	-34.8	-35.6	23.3	0.00e+00	0	44	0	3480223744	39	4078
2026-01-26 13:48:40.76	3.73	31.49	-34.7	-35.5	23.3	0.00e+00	0	43	0	3509583872	39	4043
2026-01-26 13:48:44.74	3.08	30.79	-34.7	-35.5	23.4	0.00e+00	0	43	0	3537895424	39	4036
2026-01-26 13:48:48.72	2.46	30.10	-34.6	-35.4	23.5	0.00e+00	0	43	0	3566206976	39	3989
2026-01-26 13:48:52.70	1.86	29.42	-34.8	-35.7	23.2	0.00e+00	0	43	0	3595567104	39	4110
2026-01-26 13:48:56.69	1.28	28.76	-35.0	-35.8	23.1	0.00e+00	0	43	0	3623878656	39	4171
2026-01-26 13:49:00.66	0.73	28.11	-34.8	-35.6	23.2	0.00e+00	0	43	0	3653238784	39	4093
2026-01-26 13:49:04.64	0.20	27.47	-35.1	-36.0	23.0	0.00e+00	0	43	0	3681550336	39	4248
2026-01-26 13:49:08.62	359.70	26.85	-35.1	-35.9	23.0	0.00e+00	0	43	0	3709861888	39	4230
2026-01-26 13:49:12.60	359.21	26.23	-35.1	-35.9	23.0	0.00e+00	0	43	0	3739222016	39	4219
2026-01-26 13:49:16.57	358.74	25.63	-34.8	-35.7	23.2	0.00e+00	0	43	0	3767533568	39	4103
2026-01-26 13:49:20.55	358.29	25.04	-34.9	-35.8	23.1	0.00e+00	0	43	0	3796893696	39	4158
2026-01-26 13:49:24.53	357.86	24.46	-35.1	-36.0	22.8	0.00e+00	0	43	0	3825205248	40	4018
2026-01-26 13:49:28.51	357.44	23.89	-35.4	-36.2	22.5	0.00e+00	0	43	0	3853516800	40	4143
2026-01-26 13:49:32.50	357.04	23.33	-35.4	-36.3	22.5	0.00e+00	0	43	0	3882876928	40	4173
2026-01-26 13:49:36.48	356.65	22.78	-35.3	-36.2	22.7	0.00e+00	0	43	0	3911188480	40	4116
2026-01-26 13:49:40.46	356.27	22.24	-35.2	-36.1	22.8	0.00e+00	0	44	0	3940548608	40	4059
2026-01-26 13:49:44.44	355.91	21.71	-35.3	-36.2	22.7	0.00e+00	0	43	0	3968860160	40	4111
2026-01-26 13:49:48.42	355.56	21.19	-35.5	-36.4	22.5	0.00e+00	0	43	0	3997171712	40	4195
2026-01-26 13:49:52.40	355.23	20.68	-35.7	-36.6	22.3	0.00e+00	0	43	0	4026531840	40	4315
2026-01-26 13:49:56.38	354.90	20.18	-35.8	-36.7	22.2	0.00e+00	0	43	0	4054843392	41	4105
2026-01-26 13:50:00.36	354.59	19.69	-36.1	-37.0	21.9	0.00e+00	0	43	0	4084203520	41	4275
2026-01-26 13:50:04.34	354.28	19.21	-36.3	-37.2	21.7	0.00e+00	0	43	0	4112515072	41	4370
2026-01-26 13:50:08.32	353.99	18.74	-36.2	-37.1	21.8	0.00e+00	0	43	0	4140826624	41	4324
2026-01-26 13:50:12.30	353.70	18.27	-36.2	-37.2	21.8	0.00e+00	0	43	0	4170186752	41	4347
2026-01-26 13:50:16.28	353.43	17.81	-36.3	-37.3	21.7	0.00e+00	0	43	0	4198498304	42	4147
2026-01-26 13:50:20.26	353.16	17.36	-36.5	-37.5	21.5	0.00e+00	0	43	0	4226809856	42	4253
2026-01-26 13:50:24.24	352.90	16.92	-36.5	-37.4	21.5	0.00e+00	0	43	0	4256169984	42	4241
2026-01-26 13:50:28.22	352.65	16.48	-36.7	-37.7	21.3	0.00e+00	0	43	0	4284481536	42	4356
2026-01-26 13:50:32.21	352.41	16.05	-36.8	-37.8	21.2	0.00e+00	0	43	0	4313841664	43	4156
2026-01-26 13:50:36.19	352.17	15.63	-36.9	-37.9	21.1	0.00e+00	0	43	0	4342153216	43	4207
2026-01-26 13:50:40.17	351.94	15.21	-36.9	-37.9	21.0	0.00e+00	0	43	0	4370464768	43	4223
2026-01-26 13:50:44.15	351.72	14.81	-37.1	-38.1	20.9	0.00e+00	0	43	0	4399824896	43	4326
2026-01-26 13:50:48.13	351.50	14.40	-37.2	-38.1	20.8	0.00e+00	0	43	0	4428136448	43	4329
2026-01-26 13:50:52.11	351.29	14.01	-37.4	-38.4	20.6	0.00e+00	0	43	0	4457496576	44	4224
2026-01-26 13:50:56.08	351.09	13.62	-37.6	-38.6	20.6	0.00e+00	0	43	0	4485808128	44	4304
2026-01-26 13:51:00.06	350.89	13.23	-37.7	-38.8	20.3	0.00e+00	0	43	0	4514119680	45	4175
2026-01-26 13:51:04.04	350.70	12.86	-37.8	-39.1	20.0	0.00e+00	0	43	0	4543479808	45	4307
2026-01-26 13:51:08.02	350.51	12.48	-37.7	-39.0	20.1	0.00e+00	0	43	0	4571791360	45	4269
2026-01-26 13:51:12.00	350.32	12.11	-37.8	-39.1	20.1	0.00e+00	0	43	0	4601151488	45	4294
2026-01-26 13:51:15.99	350.15	11.75	-37.9	-39.0	20.0	0.00e+00	0	43	0	4629463040	45	4287
2026-01-26 13:51:19.97	349.97	11.39	-37.9	-39.1	20.0	0.00e+00	0	43	0	4657774592	45	4296
2026-01-26 13:51:23.95	349.80	11.04	-37.8	-39.0	20.0	0.00e+00	0	43	0	4687134720	45	4273
2026-01-26 13:51:27.92	349.64	10.69	-37.7	-39.2	19.8	0.00e+00	0	43	0	4715446272	45	4387
2026-01-26 13:51:31.91	349.48	10.35	-37.7	-39.3	19.8	0.00e+00	0	43	0	4744806400	45	4395
2026-01-26 13:51:35.88	349.32	10.01	-37.9	-39.4	19.6	0.00e+00	0	43	0	4773117952	45	4467
2026-01-26 13:51:39.87	349.17	9.68	-38.2	-39.6	19.4	0.00e+00	0	43	0	4801429504	46	4308
2026-01-26 13:51:43.85	349.02	9.35	-38.4	-39.7	19.2	0.00e+00	0	43	0	4830789632	46	4387
2026-01-26 13:51:47.83	348.88	9.02	-38.4	-39.8	19.2	0.00e+00	0	43	0	4859101184	46	4427
2026-01-26 13:51:51.80	348.74	8.70	-49.7	-60.9	3.8	8.48e-01	0	43	104	4867489792	68	14085
2026-01-26 13:51:55.77	348.60	8.38	-50.2	-61.1	3.8	8.46e-01	0	43	104	4867489792	70	12921
2026-01-26 13:51:59.74	348.46	8.07	-50.2	-61.2	3.8	8.47e-01	0	43	104	4867489792	70	13068
2026-01-26 13:52:03.72	348.33	7.76	-50.3	-61.2	3.8	8.48e-01	0	44	104	4867489792	70	13041
2026-01-26 13:52:07.69	348.21	7.45	-50.2	-61.2	3.8	8.48e-01	0	43	104	4867489792	70	12988
2026-01-26 13:52:11.66	348.08	7.15	-50.4	-61.3	3.8	8.47e-01	0	43	104	4867489792	70	13128
2026-01-26 13:52:15.64	347.96	6.85	-50.1	-61.1	3.8	8.46e-01	0	43	104	4867489792	70	12836
2026-01-26 13:52:19.61	347.84	6.55	-50.0	-61.1	3.8	8.48e-01	0	44	104	4867489792	70	12866
2026-01-26 13:52:23.58	347.72	6.26	-50.0	-61.1	3.8	8.46e-01	0	44	104	4867489792	70	12885
2026-01-26 13:52:27.56	347.61	5.97	-50.0	-61.1	3.8	8.47e-01	0	44	104	4867489792	70	12860
2026-01-26 13:52:31.53	347.50	5.68	-50.0	-61.1	3.8	8.47e-01	0	44	104	4867489792	70	12870
2026-01-26 13:52:35.50	347.39	5.40	-50.0	-61.1	3.8	8.47e-01	0	43	104	4867489792	70	12930
2026-01-26 13:52:39.47	347.28	5.12	-50.0	-61.1	3.8	8.47e-01	0	44	104	4867489792	70	12881

#Closed at: 2026-01-26 13:52:42
#Recorded file [4867 MB]: D:/Data/31040_260126_164003.dat