passes_logs/2026/01/26/T1/T1__20260126_025257_AQUA_rec.log

#Pass ID: 20260126_025257_AQUA
#Satellite: AQUA
#Configuration: AQUA
#almurnet v.1.7.20251203
#Start time: 2026-01-26 02:52:57

#Version: 2.0.20230620
#Station: T1
#Location: 37.570604 lon 55.790049 lat
#TLE: 1 27424U 02022A   26025.50647354  .00001868  00000+0  38363-3 0  9992
#TLE: 2 27424  98.4099 352.1114 0001896  65.7986  47.0097 14.61858879262422

#Time	Az	El	Level	Level2	SNR	BER	BlckErr	Temp	State	Recorded	gain1	gain2
2026-01-26 02:52:57.24	3.40	5.00	-48.7	-70.6	3.8	7.43e-01	0	37	0	0	69	43690
2026-01-26 02:53:00.22	3.13	5.19	-44.4	-69.6	3.7	7.53e-01	0	37	104	0	60	65534
2026-01-26 02:53:03.20	2.85	5.38	-44.4	-69.6	3.7	7.52e-01	0	38	104	0	60	65533
2026-01-26 02:53:06.18	2.57	5.57	-44.5	-69.6	3.8	7.50e-01	0	38	104	0	60	65532
2026-01-26 02:53:09.16	2.29	5.77	-44.4	-69.5	3.8	7.45e-01	0	38	104	0	60	64314
2026-01-26 02:53:12.13	2.00	5.96	-44.4	-69.6	3.8	7.47e-01	0	38	104	0	60	65384
2026-01-26 02:53:15.11	1.71	6.15	-44.4	-69.6	3.7	7.49e-01	0	38	104	0	60	65534
2026-01-26 02:53:18.09	1.42	6.35	-44.4	-69.6	3.7	7.46e-01	0	39	104	0	60	65534
2026-01-26 02:53:21.07	1.12	6.54	-44.4	-69.6	3.7	7.49e-01	0	38	104	0	60	65534
2026-01-26 02:53:24.05	0.81	6.74	-44.4	-69.6	3.8	7.47e-01	0	38	104	0	60	65534
2026-01-26 02:53:27.03	0.50	6.94	-44.4	-69.6	3.8	7.48e-01	0	39	104	0	60	65533
2026-01-26 02:53:30.01	0.19	7.14	-44.4	-69.6	3.8	7.46e-01	0	39	104	0	60	65525
2026-01-26 02:53:32.99	359.87	7.33	-44.4	-69.0	3.8	7.47e-01	0	39	104	0	60	61265
2026-01-26 02:53:35.97	359.54	7.54	-44.4	-69.2	3.8	7.46e-01	0	39	104	0	60	62283
2026-01-26 02:53:38.95	359.21	7.74	-44.4	-69.6	3.7	7.52e-01	0	39	104	0	60	65534
2026-01-26 02:53:41.93	358.88	7.94	-44.3	-69.6	3.7	7.48e-01	0	39	104	0	60	65531
2026-01-26 02:53:44.90	358.54	8.14	-44.3	-69.2	3.8	7.46e-01	0	39	104	0	60	62088
2026-01-26 02:53:47.88	358.20	8.35	-44.3	-68.8	3.8	7.47e-01	0	39	104	0	60	59820
2026-01-26 02:53:50.86	357.85	8.55	-44.2	-67.5	3.8	7.45e-01	0	39	104	0	60	51337
2026-01-26 02:53:53.85	357.49	8.76	-44.1	-63.1	3.8	7.47e-01	0	39	104	0	59	32823
2026-01-26 02:53:56.83	357.13	8.96	-43.1	-59.0	3.8	7.44e-01	0	39	104	0	58	21654
2026-01-26 02:53:59.81	356.76	9.17	-43.9	-60.4	3.8	7.41e-01	0	39	104	0	58	25425
2026-01-26 02:54:02.79	356.39	9.38	-39.7	-55.3	3.8	7.47e-01	0	39	104	0	51	21147
2026-01-26 02:54:05.78	356.01	9.59	-39.4	-54.9	3.8	7.47e-01	0	39	104	0	50	21451
2026-01-26 02:54:08.88	355.61	9.81	-40.1	-54.9	3.9	7.49e-01	0	40	104	0	50	21420
2026-01-26 02:54:11.83	355.22	10.02	-40.5	-45.1	23.7	6.04e-01	0	40	0	4718592	52	6191
2026-01-26 02:54:14.82	354.82	10.23	-40.5	-44.6	24.1	6.04e-01	0	40	0	10485760	52	5841
2026-01-26 02:54:17.80	354.41	10.44	-40.0	-44.7	24.0	6.04e-01	0	40	0	15728640	51	6250
2026-01-26 02:54:20.82	354.00	10.66	-39.6	-44.5	24.3	6.06e-01	0	40	0	21495808	51	6078
2026-01-26 02:54:23.81	353.58	10.87	-39.3	-44.4	24.2	6.06e-01	0	40	0	27262976	50	6418
2026-01-26 02:54:26.86	353.14	11.09	-39.3	-44.3	24.2	6.05e-01	0	40	0	33030144	50	6296
2026-01-26 02:54:29.99	352.69	11.32	-39.9	-44.3	24.1	6.03e-01	0	40	0	38797312	50	6286
2026-01-26 02:54:32.83	352.27	11.52	-40.3	-44.3	24.0	6.04e-01	0	40	0	44040192	51	5966
2026-01-26 02:54:35.95	351.80	11.75	-40.5	-44.5	24.0	6.05e-01	0	40	0	49807360	51	6083
2026-01-26 02:54:38.79	351.37	11.96	-40.6	-44.4	24.2	6.07e-01	0	40	0	55050240	51	6037
2026-01-26 02:54:42.11	350.85	12.20	-40.4	-44.0	24.7	6.04e-01	0	40	0	61341696	52	5441
2026-01-26 02:54:44.85	350.42	12.40	-40.5	-44.0	24.7	6.01e-01	0	40	0	66584576	52	5461
2026-01-26 02:54:48.12	349.90	12.64	-40.7	-44.0	24.8	6.00e-01	0	40	0	72876032	52	5451
2026-01-26 02:54:51.12	349.41	12.86	-41.0	-44.0	24.9	6.04e-01	0	40	0	78118912	52	5419
2026-01-26 02:54:54.25	348.89	13.09	-41.5	-44.0	24.9	6.02e-01	0	40	0	84410368	53	5135
2026-01-26 02:54:57.09	348.42	13.29	-41.4	-44.3	24.7	6.03e-01	0	40	0	89653248	53	5287
2026-01-26 02:55:00.23	347.88	13.52	-41.0	-44.0	24.9	6.05e-01	0	40	0	95420416	53	5123
2026-01-26 02:55:03.07	347.39	13.73	-40.9	-43.9	25.0	6.03e-01	0	40	0	100663296	53	5062
2026-01-26 02:55:06.19	346.84	13.96	-41.3	-44.1	24.8	6.03e-01	0	40	0	106430464	53	5164
2026-01-26 02:55:09.22	346.29	14.18	-41.4	-44.1	24.8	6.04e-01	0	40	0	112197632	53	5203
2026-01-26 02:55:12.57	345.68	14.43	-41.1	-44.1	24.9	6.01e-01	0	40	0	118489088	53	5162
2026-01-26 02:55:15.29	345.17	14.63	-40.7	-43.9	25.0	6.03e-01	0	40	0	123731968	53	5046
2026-01-26 02:55:18.57	344.56	14.87	-40.7	-43.7	25.2	6.04e-01	0	40	0	130023424	53	4933
2026-01-26 02:55:21.27	344.04	15.06	-41.0	-43.7	25.2	6.04e-01	0	40	0	134742016	53	4945
2026-01-26 02:55:24.62	343.39	15.31	-40.9	-43.9	25.0	6.04e-01	0	40	0	141033472	53	5082
2026-01-26 02:55:27.37	342.84	15.50	-41.1	-43.8	25.0	6.04e-01	0	40	0	146276352	53	4986
2026-01-26 02:55:30.64	342.18	15.74	-41.3	-43.8	25.0	6.02e-01	0	40	0	152567808	53	5000
2026-01-26 02:55:33.48	341.60	15.94	-41.0	-43.9	24.9	6.05e-01	0	40	0	157810688	53	5088
2026-01-26 02:55:36.60	340.96	16.16	-40.9	-43.8	25.0	6.06e-01	0	40	0	163577856	53	5012
2026-01-26 02:55:39.45	340.36	16.37	-41.2	-43.7	25.2	6.07e-01	0	40	0	168820736	53	4938
2026-01-26 02:55:42.67	339.67	16.59	-41.2	-43.8	25.0	6.06e-01	0	40	0	175112192	53	5005
2026-01-26 02:55:45.80	338.99	16.81	-41.4	-43.8	25.1	6.03e-01	0	40	0	180879360	53	5022
2026-01-26 02:55:48.64	338.36	17.01	-41.2	-43.7	25.2	6.04e-01	0	40	0	186122240	53	4964
2026-01-26 02:55:51.88	337.64	17.23	-41.1	-43.8	25.1	6.06e-01	0	40	0	192413696	53	5006
2026-01-26 02:55:54.72	336.99	17.42	-41.2	-43.9	25.0	6.03e-01	0	40	0	197656576	53	5053
2026-01-26 02:55:58.09	336.21	17.65	-41.3	-44.0	25.0	6.03e-01	0	40	0	203948032	53	5116
2026-01-26 02:56:00.79	335.58	17.83	-41.0	-43.8	25.1	6.03e-01	0	40	0	209190912	53	5033
2026-01-26 02:56:04.06	334.81	18.04	-40.7	-43.8	25.1	6.03e-01	0	40	0	214958080	53	5011
2026-01-26 02:56:06.88	334.13	18.23	-41.1	-43.7	25.2	6.06e-01	0	40	0	220200960	53	4980
2026-01-26 02:56:10.00	333.37	18.43	-41.3	-44.1	24.9	6.03e-01	0	40	0	226492416	53	5173
2026-01-26 02:56:12.85	332.66	18.60	-41.4	-43.9	25.0	6.05e-01	0	40	0	231735296	53	5100
2026-01-26 02:56:16.10	331.85	18.80	-41.4	-43.9	25.0	6.05e-01	0	40	0	237502464	53	5049
2026-01-26 02:56:18.90	331.14	18.97	-41.5	-43.9	25.1	6.02e-01	0	40	0	242745344	53	5054
2026-01-26 02:56:22.17	330.29	19.17	-41.3	-44.0	24.9	6.03e-01	0	40	0	249036800	53	5114
2026-01-26 02:56:24.90	329.58	19.32	-41.1	-44.0	24.8	6.05e-01	0	40	0	254279680	53	5141
2026-01-26 02:56:28.17	328.72	19.51	-41.2	-44.0	24.9	6.02e-01	0	40	0	260571136	53	5147
2026-01-26 02:56:30.89	328.00	19.66	-41.3	-44.0	24.8	6.04e-01	0	40	0	265289728	53	5135
2026-01-26 02:56:34.21	327.10	19.84	-41.4	-44.1	24.6	6.05e-01	0	40	0	271581184	53	5167
2026-01-26 02:56:37.28	326.26	20.00	-41.7	-44.2	24.6	6.06e-01	0	40	0	277348352	53	5233
2026-01-26 02:56:40.15	325.47	20.14	-41.5	-44.1	24.8	6.04e-01	0	40	0	282591232	54	4915
2026-01-26 02:56:43.28	324.60	20.29	-41.4	-44.2	24.7	6.01e-01	0	40	0	288882688	54	4932
2026-01-26 02:56:46.27	323.76	20.43	-41.4	-44.2	24.8	6.04e-01	0	40	0	294125568	54	4938
2026-01-26 02:56:49.62	322.81	20.58	-41.6	-44.2	24.8	6.05e-01	0	40	0	300417024	54	4929
2026-01-26 02:56:52.33	322.03	20.70	-41.7	-44.3	24.7	6.06e-01	0	40	0	305659904	54	5026
2026-01-26 02:56:55.60	321.08	20.83	-41.6	-44.5	24.5	6.03e-01	0	40	0	311951360	54	5131
2026-01-26 02:56:58.48	320.24	20.95	-41.6	-44.4	24.7	6.02e-01	0	40	0	317194240	54	5061
2026-01-26 02:57:01.71	319.29	21.06	-41.4	-44.4	24.7	6.04e-01	0	40	0	323485696	54	5081
2026-01-26 02:57:05.10	318.29	21.18	-41.8	-44.5	24.7	6.02e-01	0	40	0	329777152	54	5110
2026-01-26 02:57:08.26	317.34	21.28	-41.7	-44.3	24.8	6.04e-01	0	40	0	335544320	54	5024
2026-01-26 02:57:11.10	316.49	21.37	-41.8	-44.3	24.7	6.07e-01	0	41	0	340787200	54	5039
2026-01-26 02:57:14.23	315.54	21.45	-41.6	-44.3	24.8	6.08e-01	0	40	0	346554368	54	4987
2026-01-26 02:57:17.07	314.67	21.52	-41.9	-44.7	24.4	6.06e-01	0	40	0	351797248	54	5219
2026-01-26 02:57:20.40	313.66	21.60	-41.9	-44.5	24.5	6.03e-01	0	40	0	358088704	54	5111
2026-01-26 02:57:23.37	312.74	21.66	-41.9	-44.5	24.5	6.03e-01	0	40	0	363855872	54	5125
2026-01-26 02:57:26.78	311.69	21.72	-41.9	-44.6	24.3	6.05e-01	0	40	0	370147328	54	5217
2026-01-26 02:57:29.48	310.86	21.76	-41.8	-44.5	24.6	6.04e-01	0	41	0	375390208	54	5103
2026-01-26 02:57:32.78	309.83	21.80	-42.2	-44.8	24.3	6.03e-01	0	40	0	381681664	55	5035
2026-01-26 02:57:35.50	308.98	21.82	-41.8	-44.2	24.8	6.06e-01	0	40	0	386400256	55	4692
2026-01-26 02:57:38.79	307.96	21.85	-42.4	-45.0	24.0	6.02e-01	0	40	0	392691712	55	5110
2026-01-26 02:57:41.49	307.12	21.86	-42.3	-44.8	24.1	6.03e-01	0	40	0	397934592	56	4734
2026-01-26 02:57:44.77	306.09	21.87	-42.9	-45.6	23.5	6.02e-01	0	40	0	404226048	57	4884
2026-01-26 02:57:47.48	305.24	21.87	-42.8	-45.4	23.7	6.06e-01	0	40	0	408944640	56	5094
2026-01-26 02:57:50.78	304.21	21.85	-42.3	-44.8	24.4	6.06e-01	0	40	0	415236096	56	4712
2026-01-26 02:57:53.60	303.33	21.84	-42.2	-44.6	24.6	6.03e-01	0	41	0	420478976	56	4633
2026-01-26 02:57:56.73	302.36	21.81	-41.9	-44.3	24.9	6.02e-01	0	41	0	426246144	55	4709
2026-01-26 02:57:59.57	301.47	21.78	-42.7	-45.2	24.0	6.04e-01	0	40	0	431489024	55	5268
2026-01-26 02:58:02.70	300.50	21.74	-42.3	-44.8	24.4	6.05e-01	0	40	0	437780480	55	5039
2026-01-26 02:58:05.55	299.62	21.69	-43.0	-45.8	23.6	6.05e-01	0	40	0	443023360	56	5283
2026-01-26 02:58:08.67	298.66	21.63	-42.0	-44.5	24.6	6.04e-01	0	40	0	448790528	55	4825
2026-01-26 02:58:11.51	297.79	21.57	-42.3	-44.8	24.1	6.04e-01	0	40	0	454033408	56	4749
2026-01-26 02:58:14.78	296.79	21.50	-42.6	-45.2	24.0	6.04e-01	0	41	0	460324864	55	5224
2026-01-26 02:58:17.62	295.92	21.42	-42.2	-44.5	24.4	6.05e-01	0	40	0	465567744	56	4595
2026-01-26 02:58:20.75	294.98	21.33	-42.5	-45.0	24.3	6.03e-01	0	41	0	471334912	56	4852
2026-01-26 02:58:23.60	294.12	21.25	-43.3	-46.1	23.1	6.04e-01	0	40	0	476577792	57	5163
2026-01-26 02:58:26.72	293.19	21.14	-42.0	-44.4	24.6	6.05e-01	0	41	0	482869248	55	4779
2026-01-26 02:58:29.56	292.34	21.04	-42.6	-45.2	24.1	6.05e-01	0	41	0	488112128	56	4927
2026-01-26 02:58:32.69	291.42	20.93	-42.4	-44.9	24.3	6.03e-01	0	40	0	493879296	56	4812
2026-01-26 02:58:35.53	290.59	20.81	-42.6	-45.2	24.1	6.03e-01	0	41	0	499122176	56	4933
2026-01-26 02:58:38.68	289.68	20.68	-42.2	-44.7	24.6	6.04e-01	0	41	0	504889344	56	4670
2026-01-26 02:58:41.81	288.78	20.55	-42.6	-45.1	24.3	6.01e-01	0	41	0	511180800	56	4887
2026-01-26 02:58:44.65	287.97	20.42	-42.8	-45.3	24.0	6.03e-01	0	41	0	516423680	56	5012
2026-01-26 02:58:47.92	287.05	20.27	-42.5	-45.0	24.3	6.05e-01	0	41	0	522190848	56	4838
2026-01-26 02:58:50.65	286.29	20.13	-42.3	-44.8	24.4	6.05e-01	0	41	0	527433728	56	4723
2026-01-26 02:58:54.41	285.25	19.94	-42.3	-44.8	24.5	6.03e-01	0	41	0	534773760	56	4753
2026-01-26 02:58:57.23	284.48	19.79	-42.8	-45.4	23.9	6.04e-01	0	41	0	540016640	56	5089
2026-01-26 02:59:00.75	283.53	19.60	-42.8	-45.3	24.0	6.01e-01	0	40	0	546308096	56	5023
2026-01-26 02:59:03.48	282.80	19.45	-42.8	-45.4	23.8	6.03e-01	0	41	0	551550976	57	4801
2026-01-26 02:59:06.75	281.94	19.26	-42.6	-45.1	24.2	6.04e-01	0	41	0	557842432	56	4873
2026-01-26 02:59:09.70	281.17	19.09	-43.2	-45.9	23.5	6.07e-01	0	41	0	563085312	57	5055
2026-01-26 02:59:12.98	280.33	18.89	-43.4	-46.2	23.2	6.05e-01	0	41	0	569376768	57	5255
2026-01-26 02:59:15.73	279.63	18.73	-42.8	-45.3	24.0	6.03e-01	0	40	0	574619648	57	4734
2026-01-26 02:59:19.00	278.82	18.52	-42.7	-45.3	24.1	6.05e-01	0	41	0	580911104	56	4998
2026-01-26 02:59:21.72	278.14	18.35	-42.4	-44.9	24.3	6.05e-01	0	40	0	585629696	56	4809
2026-01-26 02:59:24.99	277.35	18.14	-42.6	-45.1	24.1	6.04e-01	0	41	0	591921152	56	4924
2026-01-26 02:59:27.73	276.69	17.96	-42.1	-44.5	24.7	6.06e-01	0	41	0	597164032	56	4579
2026-01-26 02:59:31.00	275.91	17.75	-42.5	-45.0	24.3	6.05e-01	0	41	0	602931200	56	4826
2026-01-26 02:59:33.87	275.24	17.55	-42.2	-44.7	24.6	6.04e-01	0	41	0	608698368	56	4664
2026-01-26 02:59:37.21	274.47	17.33	-42.2	-44.6	24.6	6.06e-01	0	41	0	614989824	56	4642
2026-01-26 02:59:39.92	273.86	17.14	-42.3	-44.9	24.4	6.03e-01	0	41	0	619708416	56	4777
2026-01-26 02:59:43.19	273.12	16.91	-42.1	-44.6	24.6	6.03e-01	0	41	0	625999872	56	4614
2026-01-26 02:59:46.00	272.51	16.72	-42.2	-44.8	24.4	6.06e-01	0	41	0	631242752	56	4718
2026-01-26 02:59:49.26	271.80	16.49	-42.3	-44.8	24.4	6.04e-01	0	41	0	637534208	56	4744
2026-01-26 02:59:52.45	271.12	16.26	-42.2	-44.7	24.5	6.03e-01	0	41	0	643301376	56	4664
2026-01-26 02:59:55.37	270.50	16.06	-42.3	-44.9	24.4	6.05e-01	0	41	0	649068544	56	4769
2026-01-26 02:59:58.64	269.82	15.82	-42.5	-45.0	24.2	6.02e-01	0	41	0	654835712	56	4837
2026-01-26 03:00:01.34	269.27	15.63	-42.3	-44.8	24.5	6.04e-01	0	41	0	660078592	56	4723
2026-01-26 03:00:04.62	268.62	15.39	-42.2	-44.8	24.4	6.06e-01	0	41	0	666370048	56	4754
2026-01-26 03:00:07.36	268.07	15.19	-42.2	-44.8	24.4	6.00e-01	0	41	0	671088640	56	4740
2026-01-26 03:00:10.56	267.45	14.96	-42.3	-44.8	24.3	6.02e-01	0	41	0	677380096	56	4751
2026-01-26 03:00:13.69	266.85	14.73	-42.2	-44.7	24.4	6.06e-01	0	41	0	683147264	56	4685
2026-01-26 03:00:16.62	266.30	14.51	-42.4	-44.9	24.2	6.04e-01	0	41	0	688914432	56	4809
2026-01-26 03:00:19.61	265.75	14.29	-42.4	-45.0	24.1	6.03e-01	0	41	0	694157312	56	4827
2026-01-26 03:00:22.59	265.20	14.07	-42.3	-44.9	24.3	6.04e-01	0	41	0	699924480	56	4760
2026-01-26 03:00:25.58	264.67	13.85	-42.3	-44.9	24.1	6.02e-01	0	41	0	705691648	56	4762
2026-01-26 03:00:28.56	264.14	13.63	-42.5	-45.1	24.0	6.03e-01	0	41	0	710934528	56	4877
2026-01-26 03:00:31.54	263.62	13.41	-42.3	-44.9	24.2	6.06e-01	0	41	0	716701696	56	4790
2026-01-26 03:00:34.53	263.11	13.19	-42.5	-45.1	24.0	6.04e-01	0	41	0	722468864	56	4913
2026-01-26 03:00:37.51	262.61	12.97	-42.5	-45.0	24.1	6.01e-01	0	41	0	727711744	56	4866
2026-01-26 03:00:40.50	262.11	12.75	-42.5	-45.1	24.1	6.04e-01	0	41	0	733478912	56	4881
2026-01-26 03:00:43.48	261.63	12.54	-42.6	-45.1	24.0	6.05e-01	0	41	0	739246080	56	4923
2026-01-26 03:00:46.47	261.15	12.32	-42.5	-45.1	24.0	6.05e-01	0	41	0	744488960	56	4883
2026-01-26 03:00:49.45	260.68	12.10	-42.4	-45.1	24.0	6.03e-01	0	41	0	750256128	56	4885
2026-01-26 03:00:52.43	260.21	11.88	-42.7	-45.4	23.7	6.04e-01	0	41	0	756023296	56	5070
2026-01-26 03:00:55.42	259.76	11.66	-42.5	-45.2	23.9	6.04e-01	0	41	0	761266176	56	4955
2026-01-26 03:00:58.49	259.29	11.44	-42.6	-45.4	23.7	6.03e-01	0	41	0	767033344	56	5063
2026-01-26 03:01:01.54	258.84	11.22	-42.8	-45.5	23.6	6.03e-01	0	41	0	772800512	56	5148
2026-01-26 03:01:04.41	258.42	11.01	-42.9	-45.6	23.5	6.03e-01	0	41	0	778043392	56	5180
2026-01-26 03:01:07.54	257.98	10.78	-43.0	-45.7	23.3	6.03e-01	0	41	0	784334848	56	5264
2026-01-26 03:01:10.39	257.57	10.58	-42.8	-45.5	23.5	6.04e-01	0	41	0	789577728	56	5155
2026-01-26 03:01:13.52	257.14	10.35	-42.8	-45.6	23.5	6.07e-01	0	41	0	795344896	56	5178
2026-01-26 03:01:16.36	256.75	10.15	-42.8	-45.7	23.4	6.07e-01	0	41	0	800587776	56	5222
2026-01-26 03:01:19.42	256.34	9.93	-42.9	-45.7	23.3	6.03e-01	0	41	0	806354944	56	5238
2026-01-26 03:01:22.41	255.95	9.72	-43.0	-45.8	23.2	6.05e-01	0	41	0	812122112	56	5304
2026-01-26 03:01:25.40	255.56	9.51	-43.1	-45.9	23.1	6.05e-01	0	41	0	817889280	56	5397
2026-01-26 03:01:28.38	255.18	9.30	-43.1	-45.9	23.0	6.08e-01	0	41	0	823132160	57	5090
2026-01-26 03:01:31.44	254.79	9.08	-43.0	-45.8	23.2	6.04e-01	0	41	0	828899328	57	5005
2026-01-26 03:01:34.34	254.43	8.88	-49.6	-70.5	3.8	7.46e-01	0	41	104	831520768	71	38681
2026-01-26 03:01:37.83	254.01	8.64	-50.5	-70.9	3.8	7.45e-01	0	41	104	831520768	71	40210
2026-01-26 03:01:40.54	253.68	8.45	-50.7	-70.9	3.8	7.43e-01	0	41	104	831520768	72	38222
2026-01-26 03:01:43.83	253.29	8.22	-50.6	-71.0	3.8	7.46e-01	0	41	104	831520768	72	38312
2026-01-26 03:01:46.55	252.97	8.04	-50.2	-71.0	3.8	7.44e-01	0	41	104	831520768	72	38486
2026-01-26 03:01:49.81	252.60	7.81	-50.5	-71.0	3.8	7.45e-01	0	41	104	831520768	72	38478
2026-01-26 03:01:52.51	252.30	7.63	-50.5	-71.0	3.8	7.44e-01	0	41	104	831520768	72	38402
2026-01-26 03:01:55.83	251.93	7.41	-50.0	-70.9	3.8	7.48e-01	0	41	104	831520768	72	37983
2026-01-26 03:01:58.54	251.63	7.22	-50.0	-70.9	3.8	7.43e-01	0	41	104	831520768	72	37929
2026-01-26 03:02:01.81	251.28	7.00	-50.0	-70.9	3.8	7.44e-01	0	41	104	831520768	72	37952
2026-01-26 03:02:04.50	251.00	6.82	-50.0	-70.9	3.8	7.47e-01	0	41	104	831520768	72	37932
2026-01-26 03:02:07.78	250.65	6.61	-50.0	-70.9	3.8	7.44e-01	0	41	104	831520768	72	37887
2026-01-26 03:02:10.49	250.37	6.43	-50.0	-70.9	3.8	7.48e-01	0	41	104	831520768	72	37850
2026-01-26 03:02:13.77	250.04	6.21	-50.0	-70.9	3.8	7.45e-01	0	41	104	831520768	72	37891
2026-01-26 03:02:16.49	249.77	6.03	-50.0	-70.8	3.8	7.48e-01	0	41	104	831520768	72	37740
2026-01-26 03:02:19.75	249.45	5.82	-50.0	-70.8	3.8	7.51e-01	0	41	104	831520768	72	37782
2026-01-26 03:02:22.46	249.19	5.65	-50.0	-70.8	3.8	7.47e-01	0	41	104	831520768	72	37735
2026-01-26 03:02:25.72	248.88	5.44	-50.0	-70.8	3.8	7.44e-01	0	41	104	831520768	72	37756
2026-01-26 03:02:28.42	248.62	5.26	-50.0	-70.8	3.8	7.46e-01	0	41	104	831520768	72	37735
2026-01-26 03:02:31.69	248.32	5.05	-50.0	-70.8	3.8	7.47e-01	0	41	104	831520768	72	37740

#Closed at: 2026-01-26 03:02:34
#Recorded file [831 MB]: D:/Data/31040_260126_055257.dat