passes_logs/2026/01/26/T1/T1__20260126_020632_FENGYUN_3D_rec.log

#Pass ID: 20260126_020632_FENGYUN 3D
#Satellite: FENGYUN 3D
#Configuration: FENGYUN 3D
#almurnet v.1.7.20251203
#Start time: 2026-01-26 02:06:32

#Version: 2.0.20230620
#Station: T1
#Location: 37.570604 lon 55.790049 lat
#TLE: 1 43010U 17072A   26025.50461972  .00000046  00000+0  43592-4 0  9990
#TLE: 2 43010  98.9962 357.4844 0002523  89.7890 270.3575 14.19699798424744

#Time	Az	El	Level	Level2	SNR	BER	BlckErr	Temp	State	Recorded	gain1	gain2
2026-01-26 02:06:32.84	14.76	5.03	-46.7	-59.9	3.8	8.47e-01	0	35	0	0	64	17079
2026-01-26 02:06:36.81	14.71	5.31	-46.8	-59.8	3.8	8.47e-01	0	36	104	0	64	16799
2026-01-26 02:06:40.78	14.66	5.60	-46.8	-59.9	3.8	8.46e-01	0	36	104	0	64	17064
2026-01-26 02:06:44.76	14.60	5.89	-46.8	-60.0	3.8	8.47e-01	0	36	104	0	64	17102
2026-01-26 02:06:48.74	14.55	6.18	-46.8	-59.8	3.8	8.48e-01	0	36	104	0	64	16736
2026-01-26 02:06:52.71	14.49	6.48	-46.7	-59.3	3.8	8.46e-01	0	36	104	0	64	15865
2026-01-26 02:06:56.68	14.43	6.77	-46.7	-58.9	3.8	8.46e-01	0	36	104	0	64	15204
2026-01-26 02:07:00.66	14.37	7.08	-46.7	-59.2	3.8	8.46e-01	0	37	104	0	64	15711
2026-01-26 02:07:04.63	14.31	7.38	-46.7	-58.9	3.8	8.46e-01	0	37	104	0	64	15222
2026-01-26 02:07:08.60	14.24	7.69	-46.4	-56.3	4.2	8.40e-01	0	36	0	0	64	11267
2026-01-26 02:07:12.58	14.18	8.01	-45.5	-51.8	6.9	2.31e-01	0	37	0	7340032	63	7113
2026-01-26 02:07:16.55	14.11	8.33	-43.6	-47.5	11.3	2.38e-03	0	37	0	30408704	59	5438
2026-01-26 02:07:20.52	14.04	8.65	-42.2	-45.3	13.6	2.28e-05	0	37	0	52428800	56	5024
2026-01-26 02:07:24.50	13.97	8.98	-42.2	-45.3	13.6	1.37e-05	0	37	0	74448896	56	5038
2026-01-26 02:07:28.49	13.90	9.31	-44.4	-49.1	9.7	3.90e-02	0	37	0	96468992	60	6182
2026-01-26 02:07:32.41	13.82	9.64	-37.3	-39.2	19.4	0.00e+00	0	37	0	119537664	46	4432
2026-01-26 02:07:36.39	13.74	9.98	-37.2	-39.2	19.5	0.00e+00	0	37	0	141557760	46	4399
2026-01-26 02:07:40.36	13.66	10.32	-37.2	-39.2	19.5	0.00e+00	0	37	0	163577856	46	4396
2026-01-26 02:07:44.39	13.58	10.68	-36.9	-38.8	19.9	0.00e+00	0	37	0	186646528	45	4462
2026-01-26 02:07:48.37	13.50	11.03	-36.9	-38.8	19.9	0.00e+00	0	37	0	208666624	45	4446
2026-01-26 02:07:52.35	13.41	11.39	-36.8	-38.7	20.0	0.00e+00	0	37	0	231735296	45	4410
2026-01-26 02:07:56.32	13.32	11.75	-36.7	-38.6	20.1	0.00e+00	0	37	0	253755392	45	4368
2026-01-26 02:08:00.39	13.22	12.13	-36.7	-38.6	19.8	0.00e+00	0	38	0	276824064	45	4352
2026-01-26 02:08:04.48	13.13	12.52	-36.7	-38.5	20.2	0.00e+00	0	38	0	299892736	45	4318
2026-01-26 02:08:08.54	13.03	12.91	-36.5	-38.4	20.4	0.00e+00	0	38	0	321912832	45	4264
2026-01-26 02:08:12.62	12.92	13.31	-36.6	-38.5	20.3	0.00e+00	0	37	0	344981504	45	4298
2026-01-26 02:08:16.60	12.82	13.70	-36.7	-38.6	20.2	0.00e+00	0	38	0	368050176	45	4352
2026-01-26 02:08:20.58	12.71	14.10	-36.6	-38.5	20.3	0.00e+00	0	38	0	390070272	45	4294
2026-01-26 02:08:24.56	12.60	14.51	-36.5	-38.4	20.4	0.00e+00	0	38	0	412090368	45	4269
2026-01-26 02:08:28.53	12.48	14.92	-36.4	-38.3	20.4	0.00e+00	0	38	0	435159040	44	4493
2026-01-26 02:08:32.51	12.36	15.35	-36.2	-38.1	20.7	0.00e+00	0	38	0	457179136	44	4347
2026-01-26 02:08:36.48	12.24	15.77	-36.1	-38.0	20.8	0.00e+00	0	38	0	479199232	44	4317
2026-01-26 02:08:40.48	12.11	16.21	-35.8	-37.7	21.0	0.00e+00	0	38	0	502267904	43	4401
2026-01-26 02:08:44.41	11.99	16.65	-35.7	-37.5	21.1	0.00e+00	0	38	0	524288000	43	4338
2026-01-26 02:08:48.39	11.85	17.10	-35.4	-37.2	21.4	0.00e+00	0	38	0	546308096	42	4412
2026-01-26 02:08:52.37	11.71	17.56	-35.2	-37.0	21.6	0.00e+00	0	38	0	568328192	42	4333
2026-01-26 02:08:56.46	11.56	18.05	-34.9	-36.7	21.9	0.00e+00	0	38	0	591396864	41	4395
2026-01-26 02:09:00.44	11.41	18.53	-34.6	-36.3	22.2	0.00e+00	0	38	0	614465536	41	4239
2026-01-26 02:09:04.42	11.26	19.01	-34.4	-36.1	22.4	0.00e+00	0	38	0	636485632	40	4360
2026-01-26 02:09:08.39	11.10	19.51	-34.4	-36.2	22.4	0.00e+00	0	38	0	659554304	40	4396
2026-01-26 02:09:12.38	10.93	20.02	-34.6	-36.3	22.2	0.00e+00	0	38	0	681574400	40	4466
2026-01-26 02:09:16.35	10.76	20.53	-34.8	-36.5	22.1	0.00e+00	0	38	0	703594496	40	4579
2026-01-26 02:09:20.33	10.58	21.06	-34.8	-36.6	22.0	0.00e+00	0	38	0	725614592	40	4628
2026-01-26 02:09:24.32	10.39	21.60	-34.6	-36.4	22.2	0.00e+00	0	38	0	748683264	40	4511
2026-01-26 02:09:28.31	10.20	22.15	-34.2	-35.9	22.7	0.00e+00	0	38	0	770703360	40	4265
2026-01-26 02:09:32.28	10.00	22.72	-34.0	-35.7	22.9	0.00e+00	0	38	0	793772032	39	4401
2026-01-26 02:09:36.26	9.79	23.29	-33.8	-35.5	23.1	0.00e+00	0	38	0	815792128	39	4312
2026-01-26 02:09:40.24	9.57	23.88	-33.8	-35.5	23.1	0.00e+00	0	38	0	837812224	39	4309
2026-01-26 02:09:44.23	9.34	24.48	-34.0	-35.7	23.0	0.00e+00	0	38	0	860880896	39	4399
2026-01-26 02:09:48.23	9.10	25.10	-34.0	-35.7	23.0	0.00e+00	0	38	0	882900992	39	4410
2026-01-26 02:09:52.28	8.85	25.73	-33.8	-35.5	23.2	0.00e+00	0	38	0	905969664	39	4294
2026-01-26 02:09:56.27	8.60	26.38	-33.6	-35.3	23.4	0.00e+00	0	38	0	927989760	39	4202
2026-01-26 02:10:00.27	8.33	27.04	-33.6	-35.2	23.4	0.00e+00	0	38	0	951058432	39	4193
2026-01-26 02:10:04.26	8.04	27.72	-33.8	-35.5	23.2	0.00e+00	0	38	0	973078528	39	4310
2026-01-26 02:10:08.45	7.73	28.44	-33.9	-35.5	23.2	0.00e+00	0	38	0	997195776	39	4333
2026-01-26 02:10:12.43	7.43	29.15	-33.8	-35.4	23.2	0.00e+00	0	38	0	1019215872	39	4288
2026-01-26 02:10:16.41	7.10	29.87	-33.8	-35.4	23.3	0.00e+00	0	38	0	1041235968	39	4285
2026-01-26 02:10:20.42	6.76	30.62	-33.7	-35.3	23.3	0.00e+00	0	38	0	1064304640	39	4235
2026-01-26 02:10:24.47	6.40	31.40	-33.4	-35.1	23.6	0.00e+00	0	38	0	1087373312	38	4348
2026-01-26 02:10:28.47	6.03	32.18	-33.4	-35.0	23.6	0.00e+00	0	38	0	1109393408	38	4335
2026-01-26 02:10:32.47	5.63	32.98	-33.0	-34.7	24.0	0.00e+00	0	38	0	1131413504	38	4152
2026-01-26 02:10:36.46	5.22	33.81	-32.8	-34.5	24.1	0.00e+00	0	38	0	1154482176	37	4292
2026-01-26 02:10:40.60	4.76	34.68	-33.0	-34.7	23.9	0.00e+00	0	38	0	1177550848	37	4408
2026-01-26 02:10:44.78	4.28	35.59	-32.8	-34.5	24.1	0.00e+00	0	38	0	1200619520	37	4293
2026-01-26 02:10:48.91	3.77	36.51	-32.7	-34.3	24.3	0.00e+00	0	38	0	1224736768	37	4213
2026-01-26 02:10:52.89	3.25	37.42	-33.1	-34.7	23.9	0.00e+00	0	38	0	1246756864	37	4419
2026-01-26 02:10:56.87	2.70	38.35	-33.0	-34.7	24.0	0.00e+00	0	38	0	1268776960	37	4392
2026-01-26 02:11:00.85	2.12	39.30	-33.3	-34.9	23.8	0.00e+00	0	38	0	1291845632	37	4515
2026-01-26 02:11:04.83	1.50	40.28	-33.7	-35.3	23.4	0.00e+00	0	38	0	1313865728	38	4477
2026-01-26 02:11:08.80	0.84	41.28	-33.7	-35.3	23.5	0.00e+00	0	38	0	1335885824	38	4468
2026-01-26 02:11:12.93	0.11	42.34	-33.4	-35.0	23.7	0.00e+00	0	38	0	1358954496	38	4323
2026-01-26 02:11:16.97	359.34	43.41	-33.4	-35.0	23.7	0.00e+00	0	38	0	1382023168	38	4315
2026-01-26 02:11:21.03	358.52	44.50	-33.5	-35.1	23.7	0.00e+00	0	38	0	1405091840	38	4379
2026-01-26 02:11:25.01	357.65	45.60	-33.7	-35.4	23.4	0.00e+00	0	38	0	1427111936	38	4518
2026-01-26 02:11:28.99	356.73	46.72	-33.6	-35.2	23.6	0.00e+00	0	38	0	1450180608	38	4410
2026-01-26 02:11:32.97	355.73	47.86	-33.7	-35.3	23.5	0.00e+00	0	38	0	1472200704	38	4479
2026-01-26 02:11:36.95	354.65	49.03	-33.9	-35.6	23.2	0.00e+00	0	38	0	1494220800	38	4616
2026-01-26 02:11:40.93	353.48	50.21	-34.6	-36.3	22.6	0.00e+00	0	38	0	1517289472	39	4711
2026-01-26 02:11:44.96	352.21	51.42	-34.7	-36.4	22.4	0.00e+00	0	38	0	1539309568	40	4518
2026-01-26 02:11:48.97	350.83	52.64	-34.3	-35.9	22.8	0.00e+00	0	38	0	1562378240	40	4280
2026-01-26 02:11:52.95	349.33	53.87	-34.4	-36.1	22.7	0.00e+00	0	38	0	1584398336	40	4363
2026-01-26 02:11:56.93	347.71	55.10	-34.4	-36.0	22.7	0.00e+00	0	38	0	1607467008	40	4331
2026-01-26 02:12:00.94	345.92	56.35	-33.8	-35.5	22.7	0.00e+00	0	38	0	1629487104	39	4338
2026-01-26 02:12:04.92	343.98	57.59	-33.8	-35.5	22.8	0.00e+00	0	38	0	1651507200	39	4320
2026-01-26 02:12:08.90	341.85	58.82	-33.9	-35.6	22.7	0.00e+00	0	38	0	1674575872	39	4388
2026-01-26 02:12:12.86	339.53	60.02	-33.7	-35.4	22.9	0.00e+00	0	38	0	1696595968	38	4531
2026-01-26 02:12:16.84	336.96	61.21	-33.6	-35.3	23.1	0.00e+00	0	38	0	1718616064	38	4452
2026-01-26 02:12:20.82	334.14	62.37	-33.3	-35.0	23.2	0.00e+00	0	38	0	1741684736	38	4334
2026-01-26 02:12:24.80	331.04	63.47	-33.0	-34.7	23.4	0.00e+00	0	38	0	1763704832	37	4420
2026-01-26 02:12:28.87	327.57	64.54	-32.8	-34.5	23.6	0.00e+00	0	38	0	1786773504	37	4319
2026-01-26 02:12:32.96	323.74	65.54	-32.5	-34.2	23.9	0.00e+00	0	38	0	1809842176	37	4170
2026-01-26 02:12:37.04	319.58	66.44	-31.8	-33.5	23.3	0.00e+00	0	38	0	1832910848	34	4597
2026-01-26 02:12:41.02	315.19	67.21	-31.4	-33.0	23.8	0.00e+00	0	38	0	1854930944	34	4331
2026-01-26 02:12:45.00	310.49	67.85	-31.5	-33.2	23.8	0.00e+00	0	38	0	1877999616	34	4404
2026-01-26 02:12:48.98	305.53	68.35	-31.7	-33.4	23.5	0.00e+00	0	38	0	1900019712	34	4515
2026-01-26 02:12:52.96	300.34	68.69	-31.5	-33.2	23.8	0.00e+00	0	38	0	1922039808	34	4421
2026-01-26 02:12:56.94	295.02	68.87	-31.4	-33.1	23.7	0.00e+00	0	38	0	1945108480	34	4380
2026-01-26 02:13:00.86	289.73	68.88	-31.5	-33.2	23.6	0.00e+00	0	38	0	1967128576	34	4427
2026-01-26 02:13:04.84	284.40	68.71	-31.5	-33.2	23.7	0.00e+00	0	38	0	1989148672	34	4433
2026-01-26 02:13:08.82	279.20	68.38	-31.5	-33.1	23.7	0.00e+00	0	38	0	2011168768	34	4380
2026-01-26 02:13:12.87	274.12	67.88	-31.2	-32.9	24.0	0.00e+00	0	38	0	2034237440	34	4250
2026-01-26 02:13:17.00	269.23	67.22	-31.5	-33.2	23.7	0.00e+00	0	38	0	2057306112	34	4408
2026-01-26 02:13:20.98	264.83	66.46	-31.6	-33.3	23.6	0.00e+00	0	38	0	2079326208	34	4482
2026-01-26 02:13:24.96	260.76	65.58	-31.5	-33.2	23.8	0.00e+00	0	38	0	2102394880	34	4411
2026-01-26 02:13:29.22	256.76	64.54	-31.5	-33.1	23.8	0.00e+00	0	38	0	2126512128	34	4388
2026-01-26 02:13:33.23	253.32	63.49	-32.1	-33.8	23.2	0.00e+00	0	38	0	2148532224	34	4755
2026-01-26 02:13:37.24	250.20	62.37	-32.3	-34.0	23.2	0.00e+00	0	38	0	2171600896	35	4563
2026-01-26 02:13:41.24	247.35	61.21	-32.1	-33.7	23.4	0.00e+00	0	38	0	2193620992	35	4431
2026-01-26 02:13:45.25	244.77	60.01	-33.8	-35.6	22.7	0.00e+00	0	38	0	2216689664	38	4609
2026-01-26 02:13:49.35	242.36	58.75	-33.9	-35.7	22.7	0.00e+00	0	38	0	2239758336	38	4668
2026-01-26 02:13:53.46	240.17	57.48	-33.5	-35.2	23.1	0.00e+00	0	38	0	2262827008	38	4424
2026-01-26 02:13:57.46	238.23	56.23	-33.9	-35.6	22.7	0.00e+00	0	38	0	2284847104	38	4622
2026-01-26 02:14:01.47	236.45	54.98	-33.8	-35.5	22.8	0.00e+00	0	38	0	2307915776	38	4598
2026-01-26 02:14:05.57	234.78	53.71	-34.0	-35.8	22.7	0.00e+00	0	38	0	2330984448	38	4722
2026-01-26 02:14:09.58	233.29	52.47	-34.1	-35.8	22.6	0.00e+00	0	38	0	2353004544	39	4462
2026-01-26 02:14:13.56	231.93	51.25	-34.3	-36.1	22.3	0.00e+00	0	38	0	2376073216	39	4611
2026-01-26 02:14:17.54	230.68	50.05	-33.9	-35.6	22.8	0.00e+00	0	38	0	2398093312	39	4345
2026-01-26 02:14:21.61	229.49	48.84	-33.7	-35.4	22.9	0.00e+00	0	38	0	2421161984	38	4518
2026-01-26 02:14:25.63	228.41	47.67	-33.4	-35.1	23.1	0.00e+00	0	38	0	2443182080	38	4344
2026-01-26 02:14:29.61	227.42	46.52	-32.8	-34.5	23.6	0.00e+00	0	38	0	2466250752	37	4298
2026-01-26 02:14:33.60	226.49	45.40	-33.1	-34.8	23.3	0.00e+00	0	38	0	2488270848	37	4469
2026-01-26 02:14:37.57	225.64	44.30	-33.3	-35.0	23.2	0.00e+00	0	38	0	2510290944	37	4563
2026-01-26 02:14:41.73	224.80	43.18	-33.1	-34.8	23.2	0.00e+00	0	38	0	2534408192	37	4479
2026-01-26 02:14:45.71	224.05	42.13	-33.0	-34.7	23.4	0.00e+00	0	38	0	2556428288	37	4403
2026-01-26 02:14:49.69	223.35	41.10	-32.5	-34.2	23.8	0.00e+00	0	38	0	2578448384	37	4170
2026-01-26 02:14:53.67	222.69	40.10	-32.8	-34.5	23.4	0.00e+00	0	38	0	2601517056	37	4304
2026-01-26 02:14:57.62	222.08	39.13	-33.0	-34.7	23.2	0.00e+00	0	38	0	2623537152	37	4399
2026-01-26 02:15:01.84	221.46	38.12	-32.7	-34.4	23.4	0.00e+00	0	38	0	2646605824	37	4272
2026-01-26 02:15:05.96	220.90	37.15	-32.6	-34.3	23.6	0.00e+00	0	38	0	2670723072	37	4195
2026-01-26 02:15:09.96	220.38	36.24	-32.5	-34.2	23.6	0.00e+00	0	38	0	2692743168	36	4396
2026-01-26 02:15:14.01	219.89	35.34	-32.7	-34.4	23.5	0.00e+00	0	38	0	2715811840	36	4503
2026-01-26 02:15:18.05	219.42	34.47	-32.7	-34.4	23.5	0.00e+00	0	38	0	2738880512	36	4514
2026-01-26 02:15:22.02	218.98	33.63	-32.7	-34.4	23.5	0.00e+00	0	38	0	2760900608	36	4530
2026-01-26 02:15:26.00	218.57	32.81	-32.9	-34.7	23.3	0.00e+00	0	38	0	2782920704	36	4658
2026-01-26 02:15:30.04	218.17	31.99	-32.9	-34.6	23.3	0.00e+00	0	38	0	2805989376	36	4636
2026-01-26 02:15:34.03	217.80	31.21	-33.0	-34.6	23.2	0.00e+00	0	38	0	2828009472	36	4647
2026-01-26 02:15:38.01	217.44	30.45	-33.0	-34.7	23.2	0.00e+00	0	38	0	2851078144	36	4698
2026-01-26 02:15:41.99	217.10	29.70	-33.0	-34.8	23.2	0.00e+00	0	38	0	2873098240	36	4711
2026-01-26 02:15:45.98	216.78	28.98	-33.3	-35.1	22.9	0.00e+00	0	38	0	2895118336	37	4604
2026-01-26 02:15:49.95	216.47	28.27	-33.5	-35.3	22.6	0.00e+00	0	38	0	2918187008	37	4709
2026-01-26 02:15:53.96	216.17	27.57	-33.4	-35.2	22.7	0.00e+00	0	38	0	2940207104	37	4674
2026-01-26 02:15:57.94	215.89	26.90	-33.3	-35.1	22.9	0.00e+00	0	38	0	2963275776	37	4599
2026-01-26 02:16:01.92	215.62	26.24	-33.4	-35.1	22.8	0.00e+00	0	38	0	2985295872	37	4628
2026-01-26 02:16:05.91	215.36	25.59	-33.5	-35.2	22.7	0.00e+00	0	38	0	3007315968	37	4677
2026-01-26 02:16:09.90	215.11	24.96	-33.5	-35.3	22.7	0.00e+00	0	38	0	3030384640	37	4708
2026-01-26 02:16:13.81	214.87	24.36	-33.7	-35.4	22.6	0.00e+00	0	38	0	3052404736	38	4516
2026-01-26 02:16:17.79	214.64	23.75	-33.6	-35.3	22.7	0.00e+00	0	38	0	3074424832	38	4475
2026-01-26 02:16:21.79	214.42	23.16	-33.7	-35.4	22.6	0.00e+00	0	38	0	3096444928	38	4540
2026-01-26 02:16:25.94	214.20	22.56	-34.0	-35.8	22.4	0.00e+00	0	38	0	3120562176	38	4706
2026-01-26 02:16:29.92	214.00	22.00	-34.1	-35.9	22.2	0.00e+00	0	38	0	3142582272	39	4513
2026-01-26 02:16:33.90	213.80	21.45	-34.1	-35.9	22.2	0.00e+00	0	38	0	3164602368	39	4506
2026-01-26 02:16:37.88	213.61	20.91	-34.0	-35.7	22.4	0.00e+00	0	38	0	3187671040	39	4419
2026-01-26 02:16:41.86	213.43	20.38	-33.9	-35.6	22.4	0.00e+00	0	38	0	3209691136	39	4382
2026-01-26 02:16:45.84	213.25	19.86	-33.9	-35.7	22.4	0.00e+00	0	38	0	3232759808	39	4395
2026-01-26 02:16:49.82	213.09	19.35	-34.1	-35.9	22.2	0.00e+00	0	38	0	3254779904	39	4497
2026-01-26 02:16:53.82	212.92	18.85	-34.4	-36.2	21.9	0.00e+00	0	38	0	3276800000	39	4662
2026-01-26 02:16:57.80	212.76	18.36	-34.7	-36.4	21.7	0.00e+00	0	38	0	3299868672	39	4805
2026-01-26 02:17:01.78	212.61	17.88	-34.8	-36.6	21.5	0.00e+00	0	38	0	3321888768	40	4644
2026-01-26 02:17:05.76	212.46	17.41	-34.9	-36.7	21.4	0.00e+00	0	38	0	3343908864	40	4672
2026-01-26 02:17:09.74	212.32	16.95	-35.1	-36.9	21.2	0.00e+00	0	39	0	3365928960	40	4797
2026-01-26 02:17:13.71	212.18	16.50	-35.1	-36.9	21.2	0.00e+00	0	38	0	3388997632	40	4809
2026-01-26 02:17:17.70	212.05	16.05	-35.2	-37.0	21.2	0.00e+00	0	39	0	3411017728	41	4559
2026-01-26 02:17:21.67	211.92	15.61	-35.3	-37.2	21.0	0.00e+00	0	38	0	3434086400	41	4656
2026-01-26 02:17:25.70	211.79	15.18	-35.5	-37.3	20.9	0.00e+00	0	38	0	3456106496	41	4737
2026-01-26 02:17:29.70	211.67	14.75	-35.6	-37.5	20.7	0.00e+00	0	38	0	3479175168	41	4827
2026-01-26 02:17:33.68	211.55	14.34	-35.8	-37.6	20.6	0.00e+00	0	38	0	3501195264	42	4638
2026-01-26 02:17:37.67	211.43	13.93	-35.7	-37.6	20.6	0.00e+00	0	38	0	3523215360	42	4630
2026-01-26 02:17:41.65	211.32	13.53	-35.8	-37.7	20.5	0.00e+00	0	38	0	3546284032	42	4658
2026-01-26 02:17:46.20	211.20	13.08	-35.9	-37.8	20.4	0.00e+00	0	38	0	3571449856	42	4741
2026-01-26 02:17:50.73	211.08	12.63	-35.9	-37.8	20.3	0.00e+00	0	38	0	3596615680	42	4741
2026-01-26 02:17:55.56	210.96	12.17	-36.1	-38.0	20.2	0.00e+00	0	38	0	3623878656	43	4556
2026-01-26 02:17:59.58	210.86	11.79	-36.3	-38.2	19.9	0.00e+00	0	38	0	3646947328	43	4676
2026-01-26 02:18:03.58	210.77	11.42	-36.2	-38.2	20.0	0.00e+00	0	38	0	3668967424	43	4659
2026-01-26 02:18:07.76	210.67	11.04	-36.3	-38.2	19.9	0.00e+00	0	38	0	3693084672	43	4699
2026-01-26 02:18:11.87	210.58	10.67	-36.5	-38.4	19.7	0.00e+00	0	38	0	3716153344	43	4802
2026-01-26 02:18:15.98	210.49	10.31	-36.4	-38.4	19.7	0.00e+00	0	38	0	3739222016	43	4782
2026-01-26 02:18:19.96	210.40	9.96	-36.7	-38.6	19.5	0.00e+00	0	38	0	3761242112	43	4898
2026-01-26 02:18:23.94	210.32	9.62	-36.9	-38.8	19.5	0.00e+00	0	38	0	3783262208	44	4739
2026-01-26 02:18:28.10	210.23	9.27	-36.8	-38.8	19.5	0.00e+00	0	38	0	3807379456	44	4707
2026-01-26 02:18:32.79	210.14	8.87	-47.8	-59.6	3.8	8.46e-01	0	39	104	3828350976	66	14658
2026-01-26 02:18:37.55	210.05	8.48	-48.4	-60.6	3.8	8.46e-01	0	38	104	3828350976	67	15572
2026-01-26 02:18:42.09	209.97	8.11	-48.6	-60.9	3.8	8.47e-01	0	38	104	3828350976	68	15178
2026-01-26 02:18:46.51	209.89	7.76	-48.8	-60.9	3.8	8.46e-01	0	38	104	3828350976	68	15136
2026-01-26 02:18:50.81	209.81	7.42	-48.4	-60.8	3.8	8.47e-01	0	39	104	3828350976	68	15037
2026-01-26 02:18:54.85	209.74	7.10	-48.5	-60.8	3.8	8.48e-01	0	38	104	3828350976	68	15007
2026-01-26 02:18:58.85	209.68	6.80	-48.5	-60.8	3.8	8.46e-01	0	38	104	3828350976	68	14966
2026-01-26 02:19:02.84	209.61	6.49	-48.5	-60.8	3.8	8.47e-01	0	39	104	3828350976	68	14949
2026-01-26 02:19:06.83	209.55	6.19	-48.5	-60.8	3.8	8.47e-01	0	39	104	3828350976	68	14946
2026-01-26 02:19:10.82	209.49	5.90	-48.5	-60.8	3.8	8.48e-01	0	39	104	3828350976	68	14890
2026-01-26 02:19:14.79	209.43	5.60	-48.5	-60.8	3.8	8.46e-01	0	38	104	3828350976	68	14922
2026-01-26 02:19:18.78	209.37	5.31	-48.5	-60.8	3.8	8.48e-01	0	39	104	3828350976	68	14896
2026-01-26 02:19:22.75	209.31	5.03	-48.5	-60.8	3.8	8.47e-01	0	39	104	3828350976	68	14935

#Closed at: 2026-01-26 02:19:24
#Recorded file [3828 MB]: D:/Data/31040_260126_050632.dat