passes_logs/2026/01/26/T1/T1__20260126_052959_FENGYUN_3E_rec.log

#Pass ID: 20260126_052959_FENGYUN 3E
#Satellite: FENGYUN 3E
#Configuration: FENGYUN 3E
#almurnet v.1.7.20251203
#Start time: 2026-01-26 05:29:58

#Version: 2.0.20230620
#Station: T1
#Location: 37.570604 lon 55.790049 lat
#TLE: 1 49008U 21062A   26025.85775150 -.00000016  00000+0  13398-4 0  9990
#TLE: 2 49008  98.7498  30.8591 0002468 117.3618 242.7810 14.19886460236384

#Time	Az	El	Level	Level2	SNR	BER	BlckErr	Temp	State	Recorded	gain1	gain2
2026-01-26 05:29:58.85	7.32	4.98	-47.5	-59.5	3.8	8.48e-01	0	36	0	0	65	14291
2026-01-26 05:30:01.83	7.10	5.16	-47.9	-59.1	3.8	8.48e-01	0	36	104	0	65	13670
2026-01-26 05:30:04.82	6.87	5.35	-47.8	-59.0	3.8	8.47e-01	0	36	104	0	65	13566
2026-01-26 05:30:07.81	6.65	5.54	-47.9	-59.0	3.8	8.47e-01	0	36	104	0	65	13569
2026-01-26 05:30:10.80	6.42	5.73	-47.8	-59.1	3.8	8.46e-01	0	36	104	0	65	13589
2026-01-26 05:30:13.79	6.18	5.92	-47.9	-59.1	3.8	8.47e-01	0	36	104	0	65	13593
2026-01-26 05:30:16.78	5.95	6.11	-47.9	-59.0	3.8	8.47e-01	0	37	104	0	65	13525
2026-01-26 05:30:19.77	5.71	6.30	-47.9	-59.0	3.8	8.45e-01	0	37	104	0	65	13442
2026-01-26 05:30:22.76	5.47	6.49	-47.9	-59.0	3.8	8.47e-01	0	37	104	0	65	13517
2026-01-26 05:30:25.75	5.22	6.69	-47.8	-59.1	3.8	8.46e-01	0	37	104	0	65	13643
2026-01-26 05:30:28.74	4.97	6.88	-47.8	-59.0	3.8	8.48e-01	0	37	104	0	65	13438
2026-01-26 05:30:31.73	4.72	7.08	-47.8	-58.8	3.8	8.47e-01	0	37	104	0	65	13237
2026-01-26 05:30:34.72	4.46	7.27	-47.8	-58.6	3.8	8.47e-01	0	37	104	0	65	12954
2026-01-26 05:30:37.71	4.20	7.47	-47.7	-57.2	3.8	8.46e-01	0	37	104	0	65	10997
2026-01-26 05:30:40.69	3.94	7.67	-47.4	-55.7	4.2	8.40e-01	0	37	0	0	65	9226
2026-01-26 05:30:43.68	3.67	7.87	-47.5	-56.2	4.1	8.41e-01	0	37	0	0	65	9769
2026-01-26 05:30:46.67	3.40	8.07	-47.8	-58.5	3.8	8.47e-01	0	37	104	0	65	12699
2026-01-26 05:30:49.66	3.13	8.27	-47.7	-58.0	3.8	8.47e-01	0	38	104	0	65	12094
2026-01-26 05:30:52.65	2.85	8.47	-45.8	-50.0	7.9	1.30e-01	0	38	0	5242880	62	5700
2026-01-26 05:30:55.64	2.56	8.68	-41.9	-43.8	14.2	5.70e-06	0	37	0	27262976	54	4394
2026-01-26 05:30:58.63	2.28	8.88	-39.9	-41.3	16.8	0.00e+00	0	38	0	49283072	50	4148
2026-01-26 05:31:01.62	1.98	9.09	-41.3	-43.0	15.0	0.00e+00	0	38	0	70254592	52	4507
2026-01-26 05:31:04.63	1.69	9.29	-36.7	-38.0	19.8	0.00e+00	0	38	0	92274688	44	4017
2026-01-26 05:31:07.64	1.38	9.50	-37.0	-38.3	19.5	0.00e+00	0	38	0	114294784	44	4160
2026-01-26 05:31:10.64	1.08	9.71	-36.9	-38.2	19.6	0.00e+00	0	38	0	135266304	44	4113
2026-01-26 05:31:13.65	0.77	9.92	-37.0	-38.3	19.6	0.00e+00	0	38	0	157286400	44	4147
2026-01-26 05:31:16.65	0.45	10.13	-36.9	-38.1	19.7	0.00e+00	0	38	0	179306496	44	4064
2026-01-26 05:31:19.65	0.13	10.34	-37.0	-38.2	19.6	0.00e+00	0	38	0	201326592	44	4111
2026-01-26 05:31:22.65	359.81	10.55	-36.6	-37.8	20.0	0.00e+00	0	38	0	222298112	44	3921
2026-01-26 05:31:25.66	359.47	10.77	-36.5	-37.6	20.1	0.00e+00	0	38	0	244318208	43	4089
2026-01-26 05:31:28.67	359.14	10.98	-36.5	-37.7	20.0	0.00e+00	0	38	0	266338304	43	4117
2026-01-26 05:31:31.67	358.80	11.20	-36.5	-37.6	20.0	0.00e+00	0	38	0	287309824	43	4085
2026-01-26 05:31:34.68	358.45	11.42	-36.6	-37.8	20.0	0.00e+00	0	38	0	309329920	43	4149
2026-01-26 05:31:37.68	358.10	11.63	-36.5	-37.6	20.1	0.00e+00	0	38	0	331350016	43	4098
2026-01-26 05:31:40.69	357.74	11.85	-36.4	-37.5	20.2	0.00e+00	0	38	0	352321536	43	4036
2026-01-26 05:31:43.69	357.38	12.07	-36.3	-37.5	20.3	0.00e+00	0	38	0	374341632	43	4009
2026-01-26 05:31:46.69	357.02	12.29	-36.2	-37.3	20.4	0.00e+00	0	38	0	395313152	43	3946
2026-01-26 05:31:49.70	356.64	12.51	-36.2	-37.3	20.5	0.00e+00	0	38	0	417333248	43	3925
2026-01-26 05:31:52.70	356.26	12.73	-36.2	-37.2	20.5	0.00e+00	0	38	0	439353344	42	4144
2026-01-26 05:31:55.70	355.88	12.95	-36.1	-37.1	20.7	0.00e+00	0	38	0	460324864	42	4080
2026-01-26 05:31:58.70	355.49	13.18	-36.1	-37.1	20.7	0.00e+00	0	38	0	482344960	42	4081
2026-01-26 05:32:01.70	355.09	13.40	-36.1	-37.2	20.6	0.00e+00	0	38	0	504365056	42	4102
2026-01-26 05:32:04.71	354.69	13.62	-36.0	-37.0	20.7	0.00e+00	0	38	0	526385152	42	4037
2026-01-26 05:32:07.71	354.28	13.85	-36.2	-37.2	20.6	0.00e+00	0	38	0	547356672	42	4116
2026-01-26 05:32:10.72	353.86	14.08	-36.0	-37.0	20.8	0.00e+00	0	38	0	569376768	42	4028
2026-01-26 05:32:13.72	353.44	14.30	-36.2	-37.2	20.6	0.00e+00	0	38	0	591396864	42	4138
2026-01-26 05:32:16.73	353.01	14.53	-36.0	-37.0	20.9	0.00e+00	0	38	0	612368384	42	4006
2026-01-26 05:32:19.74	352.57	14.76	-35.7	-36.7	21.1	0.00e+00	0	38	0	634388480	42	3890
2026-01-26 05:32:22.74	352.13	14.98	-35.5	-36.4	21.3	0.00e+00	0	38	0	656408576	41	4000
2026-01-26 05:32:25.74	351.68	15.21	-35.3	-36.2	21.5	0.00e+00	0	38	0	677380096	41	3905
2026-01-26 05:32:28.74	351.23	15.44	-35.4	-36.3	21.4	0.00e+00	0	38	0	699400192	41	3951
2026-01-26 05:32:31.74	350.76	15.67	-35.5	-36.4	21.4	0.00e+00	0	39	0	721420288	41	4000
2026-01-26 05:32:34.74	350.29	15.89	-35.4	-36.3	21.4	0.00e+00	0	38	0	742391808	41	3954
2026-01-26 05:32:37.75	349.81	16.12	-35.4	-36.4	21.4	0.00e+00	0	38	0	764411904	41	3960
2026-01-26 05:32:40.76	349.32	16.35	-35.3	-36.2	21.6	0.00e+00	0	38	0	786432000	41	3902
2026-01-26 05:32:43.76	348.83	16.58	-35.3	-36.2	21.6	0.00e+00	0	39	0	808452096	41	3912
2026-01-26 05:32:46.76	348.33	16.81	-35.2	-36.1	21.7	0.00e+00	0	38	0	829423616	41	3857
2026-01-26 05:32:49.77	347.82	17.04	-35.3	-36.3	21.5	0.00e+00	0	39	0	851443712	41	3930
2026-01-26 05:32:52.77	347.30	17.27	-35.1	-36.1	21.7	0.00e+00	0	39	0	873463808	41	3850
2026-01-26 05:32:55.77	346.78	17.49	-34.8	-35.8	22.0	0.00e+00	0	38	0	894435328	40	3916
2026-01-26 05:32:58.78	346.24	17.72	-34.8	-35.7	22.0	0.00e+00	0	39	0	916455424	40	3909
2026-01-26 05:33:01.78	345.70	17.95	-34.7	-35.5	22.2	0.00e+00	0	39	0	937426944	40	3821
2026-01-26 05:33:04.79	345.15	18.18	-34.8	-35.7	22.1	0.00e+00	0	39	0	959447040	39	4132
2026-01-26 05:33:07.78	344.59	18.40	-34.9	-35.8	22.0	0.00e+00	0	39	0	981467136	39	4168
2026-01-26 05:33:10.77	344.03	18.63	-34.9	-35.8	22.1	0.00e+00	0	38	0	1002438656	39	4146
2026-01-26 05:33:13.75	343.46	18.85	-35.1	-36.0	21.9	0.00e+00	0	38	0	1024458752	39	4254
2026-01-26 05:33:16.75	342.87	19.07	-35.0	-35.9	22.0	0.00e+00	0	38	0	1045430272	39	4204
2026-01-26 05:33:19.74	342.28	19.29	-34.8	-35.7	22.2	0.00e+00	0	38	0	1067450368	39	4114
2026-01-26 05:33:22.73	341.68	19.51	-34.7	-35.6	22.3	0.00e+00	0	38	0	1089470464	39	4060
2026-01-26 05:33:25.72	341.08	19.73	-34.9	-35.8	22.1	0.00e+00	0	38	0	1110441984	39	4154
2026-01-26 05:33:28.70	340.46	19.95	-34.9	-35.8	22.1	0.00e+00	0	39	0	1132462080	39	4177
2026-01-26 05:33:31.69	339.84	20.16	-34.9	-35.8	22.1	0.00e+00	0	38	0	1153433600	39	4170
2026-01-26 05:33:34.68	339.20	20.37	-34.9	-35.7	22.1	0.00e+00	0	38	0	1175453696	39	4141
2026-01-26 05:33:37.67	338.56	20.58	-34.6	-35.5	22.3	0.00e+00	0	38	0	1197473792	39	4040
2026-01-26 05:33:40.66	337.90	20.79	-34.5	-35.4	22.4	0.00e+00	0	39	0	1218445312	39	3995
2026-01-26 05:33:43.66	337.24	21.00	-34.5	-35.5	22.4	0.00e+00	0	39	0	1240465408	39	4013
2026-01-26 05:33:46.65	336.57	21.21	-34.5	-35.4	22.5	0.00e+00	0	39	0	1262485504	39	3969
2026-01-26 05:33:49.64	335.89	21.41	-34.4	-35.4	22.5	0.00e+00	0	39	0	1283457024	39	3960
2026-01-26 05:33:52.63	335.20	21.61	-34.6	-35.5	22.4	0.00e+00	0	39	0	1305477120	39	4023
2026-01-26 05:33:55.63	334.50	21.80	-34.6	-35.5	22.4	0.00e+00	0	39	0	1326448640	39	4034
2026-01-26 05:33:58.62	333.80	22.00	-34.4	-35.3	22.6	0.00e+00	0	39	0	1348468736	39	3920
2026-01-26 05:34:01.62	333.08	22.19	-34.0	-34.9	22.9	0.00e+00	0	39	0	1370488832	38	3993
2026-01-26 05:34:04.61	332.35	22.37	-33.8	-34.7	23.1	0.00e+00	0	39	0	1391460352	38	3905
2026-01-26 05:34:07.61	331.62	22.56	-33.9	-34.7	23.1	0.00e+00	0	39	0	1413480448	38	3907
2026-01-26 05:34:10.61	330.87	22.74	-34.2	-35.1	22.8	0.00e+00	0	39	0	1434451968	38	4053
2026-01-26 05:34:13.60	330.12	22.91	-34.5	-35.4	22.5	0.00e+00	0	39	0	1456472064	38	4208
2026-01-26 05:34:16.60	329.36	23.08	-34.3	-35.2	22.6	0.00e+00	0	39	0	1477443584	38	4127
2026-01-26 05:34:19.59	328.59	23.25	-34.3	-35.2	22.6	0.00e+00	0	39	0	1499463680	38	4119
2026-01-26 05:34:22.59	327.81	23.41	-34.3	-35.2	22.6	0.00e+00	0	39	0	1521483776	38	4125
2026-01-26 05:34:25.59	327.03	23.57	-34.2	-35.1	22.7	0.00e+00	0	39	0	1542455296	38	4098
2026-01-26 05:34:28.59	326.23	23.72	-34.2	-35.0	22.8	0.00e+00	0	39	0	1564475392	38	4051
2026-01-26 05:34:31.58	325.43	23.87	-34.0	-34.8	23.0	0.00e+00	0	39	0	1586495488	38	3950
2026-01-26 05:34:34.57	324.63	24.01	-33.9	-34.7	23.1	0.00e+00	0	39	0	1607467008	38	3911
2026-01-26 05:34:37.57	323.81	24.15	-33.8	-34.6	23.1	0.00e+00	0	39	0	1629487104	38	3865
2026-01-26 05:34:40.56	322.99	24.28	-33.9	-34.8	23.0	0.00e+00	0	39	0	1651507200	38	3943
2026-01-26 05:34:43.56	322.16	24.40	-34.1	-35.0	22.9	0.00e+00	0	39	0	1672478720	38	4014
2026-01-26 05:34:46.55	321.32	24.52	-33.9	-34.8	23.0	0.00e+00	0	39	0	1694498816	38	3927
2026-01-26 05:34:49.54	320.48	24.64	-33.8	-34.7	23.1	0.00e+00	0	39	0	1715470336	38	3903
2026-01-26 05:34:52.53	319.63	24.74	-34.0	-34.9	23.0	0.00e+00	0	39	0	1737490432	38	3962
2026-01-26 05:34:55.52	318.78	24.84	-33.9	-34.8	23.0	0.00e+00	0	39	0	1759510528	38	3925
2026-01-26 05:34:58.51	317.92	24.93	-33.9	-34.7	23.1	0.00e+00	0	39	0	1780482048	38	3903
2026-01-26 05:35:01.51	317.06	25.02	-33.9	-34.8	23.0	0.00e+00	0	39	0	1802502144	38	3937
2026-01-26 05:35:04.50	316.19	25.10	-34.0	-34.9	23.0	0.00e+00	0	39	0	1824522240	38	3963
2026-01-26 05:35:07.50	315.32	25.17	-34.1	-34.9	22.9	0.00e+00	0	39	0	1845493760	38	3987
2026-01-26 05:35:10.49	314.44	25.24	-34.0	-34.8	23.0	0.00e+00	0	39	0	1866465280	38	3948
2026-01-26 05:35:13.49	313.56	25.30	-34.0	-34.8	23.0	0.00e+00	0	39	0	1888485376	38	3956
2026-01-26 05:35:16.49	312.67	25.35	-33.9	-34.8	23.0	0.00e+00	0	39	0	1910505472	38	3936
2026-01-26 05:35:19.48	311.79	25.39	-33.7	-34.5	23.2	0.00e+00	0	39	0	1931476992	38	3820
2026-01-26 05:35:22.47	310.90	25.43	-33.6	-34.4	23.3	0.00e+00	0	39	0	1953497088	37	4003
2026-01-26 05:35:25.47	310.01	25.46	-33.7	-34.5	23.3	0.00e+00	0	39	0	1975517184	37	4031
2026-01-26 05:35:28.46	309.11	25.48	-33.7	-34.5	23.3	0.00e+00	0	39	0	1996488704	37	4042
2026-01-26 05:35:31.45	308.22	25.49	-33.8	-34.6	23.2	0.00e+00	0	39	0	2018508800	37	4075
2026-01-26 05:35:34.44	307.33	25.50	-33.8	-34.6	23.2	0.00e+00	0	39	0	2039480320	37	4078
2026-01-26 05:35:37.43	306.44	25.50	-33.8	-34.6	23.1	0.00e+00	0	39	0	2061500416	37	4095
2026-01-26 05:35:40.42	305.54	25.49	-33.9	-34.8	23.0	0.00e+00	0	39	0	2083520512	37	4153
2026-01-26 05:35:43.41	304.65	25.47	-33.9	-34.7	23.1	0.00e+00	0	39	0	2104492032	37	4137
2026-01-26 05:35:46.41	303.76	25.45	-33.8	-34.7	23.1	0.00e+00	0	39	0	2126512128	37	4101
2026-01-26 05:35:49.40	302.87	25.42	-33.9	-34.7	23.1	0.00e+00	0	39	0	2148532224	37	4117
2026-01-26 05:35:52.40	301.98	25.38	-33.8	-34.6	23.1	0.00e+00	0	39	0	2169503744	37	4087
2026-01-26 05:35:55.39	301.09	25.33	-33.8	-34.6	23.2	0.00e+00	0	39	0	2191523840	37	4069
2026-01-26 05:35:58.38	300.21	25.28	-33.7	-34.5	23.2	0.00e+00	0	39	0	2212495360	37	4048
2026-01-26 05:36:01.37	299.33	25.22	-33.6	-34.4	23.4	0.00e+00	0	39	0	2234515456	37	3985
2026-01-26 05:36:04.37	298.45	25.15	-33.7	-34.5	23.3	0.00e+00	0	39	0	2256535552	37	4028
2026-01-26 05:36:07.36	297.58	25.07	-33.7	-34.5	23.1	0.00e+00	0	39	0	2277507072	37	4027
2026-01-26 05:36:10.36	296.71	24.99	-33.5	-34.3	23.4	0.00e+00	0	39	0	2299527168	37	3937
2026-01-26 05:36:13.36	295.85	24.90	-33.7	-34.6	23.2	0.00e+00	0	39	0	2321547264	37	4060
2026-01-26 05:36:16.35	294.99	24.80	-34.0	-34.8	23.0	0.00e+00	0	39	0	2342518784	37	4193
2026-01-26 05:36:19.35	294.13	24.70	-33.7	-34.6	23.2	0.00e+00	0	39	0	2363490304	37	4059
2026-01-26 05:36:22.34	293.29	24.59	-33.7	-34.5	23.2	0.00e+00	0	39	0	2385510400	37	4050
2026-01-26 05:36:25.34	292.44	24.48	-34.0	-34.9	22.9	0.00e+00	0	39	0	2407530496	37	4214
2026-01-26 05:36:28.34	291.61	24.35	-34.0	-34.8	23.0	0.00e+00	0	39	0	2428502016	37	4179
2026-01-26 05:36:31.33	290.78	24.23	-33.8	-34.6	23.1	0.00e+00	0	39	0	2450522112	37	4096
2026-01-26 05:36:34.33	289.95	24.09	-33.9	-34.7	23.1	0.00e+00	0	39	0	2472542208	37	4122
2026-01-26 05:36:37.32	289.14	23.95	-34.0	-34.9	23.0	0.00e+00	0	39	0	2493513728	37	4209
2026-01-26 05:36:40.31	288.33	23.81	-33.8	-34.7	23.1	0.00e+00	0	39	0	2515533824	37	4103
2026-01-26 05:36:43.30	287.54	23.66	-33.9	-34.7	23.0	0.00e+00	0	39	0	2536505344	37	4131
2026-01-26 05:36:46.29	286.74	23.51	-33.9	-34.8	23.0	0.00e+00	0	39	0	2558525440	37	4151
2026-01-26 05:36:49.28	285.96	23.35	-33.8	-34.6	23.2	0.00e+00	0	39	0	2580545536	37	4093
2026-01-26 05:36:52.28	285.18	23.18	-33.9	-34.7	23.1	0.00e+00	0	39	0	2601517056	37	4115
2026-01-26 05:36:55.27	284.42	23.01	-34.0	-34.9	23.0	0.00e+00	0	39	0	2623537152	37	4196
2026-01-26 05:36:58.27	283.66	22.84	-33.9	-34.8	23.0	0.00e+00	0	39	0	2645557248	37	4164
2026-01-26 05:37:01.27	282.90	22.66	-33.8	-34.7	23.1	0.00e+00	0	39	0	2666528768	37	4108
2026-01-26 05:37:04.26	282.16	22.48	-33.8	-34.7	23.1	0.00e+00	0	39	0	2688548864	37	4104
2026-01-26 05:37:07.25	281.43	22.30	-34.0	-34.8	23.0	0.00e+00	0	39	0	2709520384	37	4171
2026-01-26 05:37:10.23	280.71	22.11	-34.0	-34.8	23.0	0.00e+00	0	39	0	2731540480	37	4184
2026-01-26 05:37:13.23	279.99	21.92	-34.1	-35.0	22.8	0.00e+00	0	39	0	2753560576	37	4250
2026-01-26 05:37:16.22	279.28	21.72	-34.0	-34.8	23.0	0.00e+00	0	39	0	2774532096	37	4159
2026-01-26 05:37:19.21	278.59	21.52	-34.0	-34.8	23.0	0.00e+00	0	39	0	2796552192	37	4178
2026-01-26 05:37:22.20	277.90	21.32	-34.1	-35.0	22.9	0.00e+00	0	39	0	2817523712	37	4249
2026-01-26 05:37:25.20	277.22	21.12	-34.1	-35.0	22.9	0.00e+00	0	39	0	2839543808	37	4266
2026-01-26 05:37:28.19	276.55	20.91	-34.1	-34.9	22.9	0.00e+00	0	39	0	2860515328	37	4230
2026-01-26 05:37:31.19	275.88	20.70	-34.3	-35.1	22.7	0.00e+00	0	39	0	2882535424	38	4098
2026-01-26 05:37:34.18	275.23	20.49	-34.3	-35.1	22.7	0.00e+00	0	39	0	2904555520	38	4082
2026-01-26 05:37:37.18	274.59	20.28	-34.2	-35.0	22.8	0.00e+00	0	39	0	2925527040	38	4038
2026-01-26 05:37:40.17	273.95	20.06	-34.4	-35.3	22.6	0.00e+00	0	39	0	2947547136	38	4179
2026-01-26 05:37:43.17	273.32	19.85	-34.6	-35.4	22.5	0.00e+00	0	39	0	2969567232	38	4240
2026-01-26 05:37:46.16	272.71	19.63	-34.6	-35.4	22.4	0.00e+00	0	39	0	2990538752	38	4241
2026-01-26 05:37:49.15	272.10	19.41	-34.5	-35.3	22.5	0.00e+00	0	39	0	3012558848	38	4171
2026-01-26 05:37:52.14	271.50	19.19	-34.6	-35.4	22.4	0.00e+00	0	39	0	3033530368	38	4242
2026-01-26 05:37:55.13	270.91	18.97	-34.5	-35.4	22.4	0.00e+00	0	39	0	3055550464	38	4223
2026-01-26 05:37:58.12	270.33	18.74	-34.7	-35.5	22.3	0.00e+00	0	39	0	3077570560	39	4051
2026-01-26 05:38:01.12	269.75	18.52	-34.9	-35.8	22.1	0.00e+00	0	39	0	3098542080	39	4170
2026-01-26 05:38:04.11	269.19	18.29	-34.8	-35.6	22.2	0.00e+00	0	39	0	3120562176	39	4092
2026-01-26 05:38:07.10	268.63	18.07	-34.6	-35.5	22.3	0.00e+00	0	39	0	3142582272	39	4034
2026-01-26 05:38:10.09	268.09	17.84	-34.8	-35.7	22.2	0.00e+00	0	39	0	3163553792	39	4110
2026-01-26 05:38:13.08	267.55	17.61	-35.2	-36.1	21.8	0.00e+00	0	39	0	3185573888	39	4307
2026-01-26 05:38:16.06	267.02	17.38	-35.2	-36.0	21.8	0.00e+00	0	39	0	3206545408	40	4043
2026-01-26 05:38:19.06	266.49	17.16	-35.1	-36.0	21.8	0.00e+00	0	39	0	3228565504	40	4031
2026-01-26 05:38:22.04	265.98	16.93	-35.4	-36.3	21.5	0.00e+00	0	39	0	3249537024	40	4181
2026-01-26 05:38:25.03	265.47	16.70	-35.6	-36.5	21.4	0.00e+00	0	39	0	3271557120	40	4271
2026-01-26 05:38:28.03	264.97	16.47	-35.4	-36.3	21.5	0.00e+00	0	39	0	3292528640	41	3920
2026-01-26 05:38:31.01	264.48	16.24	-35.4	-36.3	21.5	0.00e+00	0	39	0	3314548736	41	3930
2026-01-26 05:38:34.00	263.99	16.01	-35.5	-36.4	21.4	0.00e+00	0	39	0	3335520256	41	3991
2026-01-26 05:38:36.99	263.52	15.78	-35.6	-36.5	21.3	0.00e+00	0	39	0	3357540352	41	4022
2026-01-26 05:38:39.99	263.04	15.56	-35.5	-36.5	21.3	0.00e+00	0	39	0	3379560448	41	4005
2026-01-26 05:38:42.98	262.58	15.33	-35.6	-36.6	21.3	0.00e+00	0	39	0	3400531968	41	4053
2026-01-26 05:38:45.97	262.13	15.10	-35.7	-36.7	21.1	0.00e+00	0	39	0	3422552064	41	4111
2026-01-26 05:38:48.96	261.68	14.87	-36.0	-36.9	20.9	0.00e+00	0	39	0	3444572160	41	4223
2026-01-26 05:38:51.95	261.24	14.64	-36.0	-37.0	20.8	0.00e+00	0	39	0	3465543680	41	4266
2026-01-26 05:38:54.94	260.80	14.42	-36.0	-37.0	20.9	0.00e+00	0	39	0	3487563776	41	4256
2026-01-26 05:38:57.94	260.37	14.19	-36.0	-36.9	20.9	0.00e+00	0	39	0	3508535296	41	4237
2026-01-26 05:39:00.93	259.95	13.97	-36.1	-37.1	20.8	0.00e+00	0	39	0	3530555392	41	4293
2026-01-26 05:39:03.92	259.53	13.74	-36.1	-37.1	20.7	0.00e+00	0	39	0	3552575488	41	4306
2026-01-26 05:39:06.92	259.12	13.51	-36.2	-37.2	20.6	0.00e+00	0	39	0	3573547008	41	4375
2026-01-26 05:39:09.91	258.72	13.29	-36.4	-37.4	20.4	0.00e+00	0	39	0	3595567104	42	4212
2026-01-26 05:39:12.91	258.32	13.07	-36.7	-37.7	20.1	0.00e+00	0	39	0	3617587200	42	4377
2026-01-26 05:39:15.90	257.93	12.84	-37.0	-38.0	19.8	0.00e+00	0	39	0	3638558720	43	4265
2026-01-26 05:39:18.90	257.55	12.62	-36.6	-37.6	20.2	0.00e+00	0	39	0	3660578816	43	4081
2026-01-26 05:39:21.90	257.17	12.40	-36.3	-37.2	20.5	0.00e+00	0	39	0	3681550336	43	3911
2026-01-26 05:39:24.88	256.80	12.18	-36.2	-37.2	20.5	0.00e+00	0	39	0	3703570432	43	3891
2026-01-26 05:39:27.87	256.43	11.96	-36.6	-37.6	20.1	0.00e+00	0	39	0	3724541952	43	4098
2026-01-26 05:39:30.86	256.07	11.74	-37.0	-38.0	19.7	0.00e+00	0	39	0	3746562048	43	4289
2026-01-26 05:39:33.86	255.71	11.52	-37.1	-38.1	19.6	0.00e+00	0	39	0	3768582144	43	4336
2026-01-26 05:39:36.84	255.36	11.31	-36.8	-37.8	20.0	0.00e+00	0	39	0	3789553664	43	4169
2026-01-26 05:39:39.84	255.01	11.09	-36.7	-37.7	20.1	0.00e+00	0	39	0	3811573760	43	4117
2026-01-26 05:39:42.84	254.67	10.87	-36.6	-37.6	20.1	0.00e+00	0	39	0	3832545280	43	4091
2026-01-26 05:39:45.84	254.33	10.66	-36.6	-37.6	20.1	0.00e+00	0	39	0	3854565376	43	4069
2026-01-26 05:39:48.83	254.00	10.45	-36.6	-37.6	20.1	0.00e+00	0	39	0	3876585472	43	4074
2026-01-26 05:39:51.83	253.68	10.23	-36.7	-37.7	20.0	0.00e+00	0	39	0	3897556992	43	4104
2026-01-26 05:39:54.82	253.36	10.02	-36.8	-37.9	19.8	0.00e+00	0	39	0	3919577088	43	4198
2026-01-26 05:39:57.82	253.04	9.81	-36.9	-37.9	19.8	0.00e+00	0	39	0	3941597184	43	4239
2026-01-26 05:40:00.81	252.73	9.60	-37.2	-38.2	19.4	0.00e+00	0	39	0	3962568704	43	4383
2026-01-26 05:40:03.81	252.42	9.39	-37.4	-38.5	19.3	0.00e+00	0	39	0	3984588800	44	4264
2026-01-26 05:40:06.80	252.12	9.18	-37.5	-38.6	19.2	0.00e+00	0	39	0	4005560320	44	4338
2026-01-26 05:40:09.78	251.82	8.98	-47.4	-54.5	4.9	4.70e-02	0	39	0	4027580416	64	8551
2026-01-26 05:40:12.77	251.52	8.77	-48.6	-59.8	3.8	8.47e-01	0	39	104	4027580416	66	13944
2026-01-26 05:40:15.76	251.23	8.57	-49.0	-60.0	3.8	8.46e-01	0	39	104	4027580416	67	13453
2026-01-26 05:40:18.76	250.95	8.36	-49.1	-60.0	3.8	8.46e-01	0	39	104	4027580416	67	13459
2026-01-26 05:40:21.75	250.67	8.16	-49.1	-60.0	3.8	8.47e-01	0	39	104	4027580416	67	13528
2026-01-26 05:40:24.74	250.39	7.96	-49.0	-60.0	3.8	8.47e-01	0	39	104	4027580416	67	13544
2026-01-26 05:40:27.73	250.11	7.76	-49.1	-59.9	3.8	8.48e-01	0	39	104	4027580416	67	13404
2026-01-26 05:40:30.72	249.84	7.56	-48.9	-60.0	3.8	8.47e-01	0	39	104	4027580416	67	13549
2026-01-26 05:40:33.72	249.58	7.36	-48.7	-59.8	3.8	8.48e-01	0	39	104	4027580416	67	13205
2026-01-26 05:40:36.71	249.32	7.16	-48.8	-59.9	3.8	8.48e-01	0	39	104	4027580416	67	13281
2026-01-26 05:40:39.69	249.06	6.96	-48.7	-59.8	3.8	8.47e-01	0	39	104	4027580416	67	13140
2026-01-26 05:40:42.68	248.80	6.77	-48.7	-59.8	3.8	8.47e-01	0	39	104	4027580416	67	13162
2026-01-26 05:40:45.67	248.55	6.57	-48.6	-59.8	3.8	8.47e-01	0	39	104	4027580416	67	13162
2026-01-26 05:40:48.66	248.30	6.38	-48.7	-59.8	3.8	8.48e-01	0	39	104	4027580416	67	13159
2026-01-26 05:40:51.65	248.06	6.19	-48.7	-59.8	3.8	8.48e-01	0	39	104	4027580416	67	13110
2026-01-26 05:40:54.65	247.81	5.99	-48.7	-59.7	3.8	8.48e-01	0	39	104	4027580416	67	13026
2026-01-26 05:40:57.65	247.58	5.80	-48.7	-59.8	3.8	8.46e-01	0	39	104	4027580416	67	13121
2026-01-26 05:41:00.64	247.34	5.61	-48.6	-59.8	3.8	8.46e-01	0	39	104	4027580416	67	13142
2026-01-26 05:41:03.64	247.11	5.42	-48.6	-59.8	3.8	8.46e-01	0	39	104	4027580416	67	13183
2026-01-26 05:41:06.63	246.88	5.23	-48.6	-59.8	3.8	8.47e-01	0	39	104	4027580416	67	13216
2026-01-26 05:41:09.63	246.65	5.04	-48.7	-59.7	3.8	8.47e-01	0	39	104	4027580416	67	13022

#Closed at: 2026-01-26 05:41:11
#Recorded file [4027 MB]: D:/Data/31040_260126_082958.dat