passes_logs/2026/01/26/T1/T1__20260126_203202_KHAYYAM_rec.log

#Pass ID: 20260126_203202_KHAYYAM
#Satellite: KHAYYAM
#Configuration: KHAYYAM_480M
#almurnet v.1.7.20251203
#Start time: 2026-01-26 20:32:02

#Version: 2.0.20230620
#Station: T1
#Location: 37.570604 lon 55.790049 lat
#TLE: 1 53370U 22096A   26025.98270071  .00009021  00000+0  36681-3 0  9994
#TLE: 2 53370  97.3548 292.7957 0002035 107.5032 252.6428 15.24762905192917

#Time	Az	El	Level	Level2	SNR	BER	BlckErr	Temp	State	Recorded	gain1	gain2
2026-01-26 20:32:02.34	25.84	4.98	-50.7	-54.5	3.4	0.00e+00	0	45	0	0	73	21727
2026-01-26 20:32:04.32	26.01	5.12	-50.8	-54.6	3.7	0.00e+00	0	45	104	0	72	23152
2026-01-26 20:32:06.31	26.18	5.27	-50.8	-54.5	3.7	0.00e+00	0	46	104	0	72	23061
2026-01-26 20:32:08.29	26.35	5.42	-50.8	-54.5	3.7	0.00e+00	0	46	104	0	72	22973
2026-01-26 20:32:10.28	26.52	5.57	-50.8	-54.5	3.7	0.00e+00	0	46	104	0	72	22966
2026-01-26 20:32:12.27	26.70	5.73	-50.8	-54.5	3.7	0.00e+00	0	46	104	0	72	23072
2026-01-26 20:32:14.25	26.87	5.88	-50.8	-54.5	3.7	0.00e+00	0	47	104	0	72	23109
2026-01-26 20:32:16.24	27.05	6.03	-50.7	-54.4	3.7	0.00e+00	0	46	104	0	72	22871
2026-01-26 20:32:18.22	27.23	6.19	-50.7	-54.5	3.7	0.00e+00	0	47	104	0	72	22941
2026-01-26 20:32:20.21	27.42	6.34	-50.7	-54.4	3.7	0.00e+00	0	47	104	0	72	22831
2026-01-26 20:32:22.20	27.60	6.50	-50.7	-54.5	3.7	0.00e+00	0	47	104	0	72	22924
2026-01-26 20:32:24.18	27.79	6.66	-50.7	-54.5	3.7	0.00e+00	0	47	104	0	72	22953
2026-01-26 20:32:26.17	27.98	6.82	-50.7	-54.5	3.7	0.00e+00	0	47	104	0	72	22976
2026-01-26 20:32:28.15	28.18	6.98	-50.8	-54.5	3.7	0.00e+00	0	47	104	0	72	23071
2026-01-26 20:32:30.14	28.37	7.14	-50.8	-54.6	3.7	0.00e+00	0	47	104	0	72	23201
2026-01-26 20:32:32.13	28.57	7.30	-50.8	-54.5	3.7	0.00e+00	0	48	104	0	72	23122
2026-01-26 20:32:34.11	28.78	7.46	-50.8	-54.5	3.7	0.00e+00	0	48	104	0	72	22972
2026-01-26 20:32:36.10	28.98	7.63	-50.7	-54.5	3.7	0.00e+00	0	48	104	0	72	22949
2026-01-26 20:32:38.09	29.19	7.80	-50.7	-54.5	3.7	0.00e+00	0	48	104	0	72	22989
2026-01-26 20:32:40.07	29.40	7.96	-50.8	-54.6	3.7	0.00e+00	0	48	104	0	72	23195
2026-01-26 20:32:42.06	29.61	8.13	-50.8	-54.6	3.7	0.00e+00	0	48	104	0	72	23174
2026-01-26 20:32:44.04	29.83	8.30	-50.8	-54.5	3.7	0.00e+00	0	48	104	0	72	23139
2026-01-26 20:32:46.03	30.05	8.47	-50.8	-54.5	3.7	0.00e+00	0	48	104	0	72	23036
2026-01-26 20:32:48.02	30.27	8.64	-50.7	-54.4	3.7	0.00e+00	0	49	104	0	72	22720
2026-01-26 20:32:50.00	30.49	8.82	-50.7	-54.4	3.7	0.00e+00	0	48	104	0	72	22800
2026-01-26 20:32:51.99	30.72	8.99	-50.7	-54.4	3.7	0.00e+00	0	49	104	0	72	22805
2026-01-26 20:32:53.98	30.96	9.17	-50.9	-54.7	3.7	0.00e+00	0	49	104	0	72	23591
2026-01-26 20:32:55.97	31.19	9.35	-50.8	-54.5	3.7	0.00e+00	0	49	104	0	73	21771
2026-01-26 20:32:57.96	31.43	9.53	-51.5	-56.3	3.7	0.00e+00	0	49	104	0	73	26807
2026-01-26 20:32:59.95	31.68	9.71	-51.5	-56.1	3.7	0.00e+00	0	49	104	0	73	26260
2026-01-26 20:33:01.94	31.92	9.89	-51.4	-56.1	3.7	0.00e+00	0	49	104	0	73	26028
2026-01-26 20:33:03.94	32.17	10.08	-50.6	-54.8	3.7	0.00e+00	0	49	104	0	73	22428
2026-01-26 20:33:05.93	32.43	10.26	-51.5	-55.6	3.7	0.00e+00	0	49	104	0	73	24668
2026-01-26 20:33:07.92	32.69	10.45	-51.1	-54.6	3.7	0.00e+00	0	49	104	0	74	20804
2026-01-26 20:33:09.91	32.95	10.64	-51.8	-55.7	3.7	0.00e+00	0	50	104	0	74	23679
2026-01-26 20:33:11.90	33.22	10.83	-52.1	-56.2	3.7	0.00e+00	0	49	104	0	74	24972
2026-01-26 20:33:13.89	33.49	11.02	-51.7	-55.6	3.7	0.00e+00	0	49	104	0	74	23201
2026-01-26 20:33:15.93	33.77	11.21	-51.3	-55.0	3.7	0.00e+00	0	49	104	0	74	21643
2026-01-26 20:33:17.98	34.06	11.41	-50.2	-53.0	3.7	0.00e+00	0	49	104	0	72	19474
2026-01-26 20:33:19.97	34.34	11.61	-50.0	-52.7	3.7	0.00e+00	0	49	104	0	71	19931
2026-01-26 20:33:21.96	34.63	11.81	-51.9	-56.2	3.7	0.00e+00	0	50	104	0	74	24815
2026-01-26 20:33:23.95	34.92	12.01	-50.7	-54.9	3.7	0.00e+00	0	50	104	0	73	22833
2026-01-26 20:33:25.93	35.22	12.21	-50.9	-55.2	3.7	0.00e+00	0	50	104	0	73	23556
2026-01-26 20:33:27.92	35.52	12.41	-50.8	-54.9	3.7	0.00e+00	0	50	104	0	73	22871
2026-01-26 20:33:29.92	35.83	12.61	-49.9	-52.9	3.7	0.00e+00	0	50	104	0	71	20178
2026-01-26 20:33:31.91	36.14	12.82	-51.4	-55.0	3.7	0.00e+00	0	50	104	0	73	23096
2026-01-26 20:33:33.98	36.48	13.04	-51.5	-55.2	3.7	0.00e+00	0	50	104	0	73	23513
2026-01-26 20:33:35.97	36.80	13.24	-47.5	-49.5	3.7	0.00e+00	0	50	104	0	66	18205
2026-01-26 20:33:37.96	37.13	13.46	-49.0	-51.3	3.7	0.00e+00	0	50	104	0	68	20133
2026-01-26 20:33:39.95	37.46	13.67	-51.5	-54.9	3.7	0.00e+00	0	50	104	0	73	22837
2026-01-26 20:33:41.94	37.80	13.88	-49.7	-52.3	3.7	0.00e+00	0	50	104	0	71	18911
2026-01-26 20:33:43.92	38.15	14.10	-50.2	-53.0	3.7	0.00e+00	0	50	104	0	72	19349
2026-01-26 20:33:45.92	38.50	14.32	-49.3	-51.6	3.9	0.00e+00	0	50	104	0	70	18447
2026-01-26 20:33:47.95	38.87	14.54	-49.5	-51.9	3.8	0.00e+00	0	50	104	0	70	19214
2026-01-26 20:33:49.94	39.23	14.76	-51.8	-55.3	3.7	0.00e+00	0	50	104	0	74	22445
2026-01-26 20:33:51.93	39.60	14.98	-50.9	-53.8	3.8	0.00e+00	0	50	104	0	73	20153
2026-01-26 20:33:53.92	39.98	15.21	-51.3	-54.7	3.7	0.00e+00	0	50	104	0	73	22137
2026-01-26 20:33:55.91	40.37	15.43	-52.0	-56.1	3.7	0.00e+00	0	50	104	0	74	24532
2026-01-26 20:33:57.89	40.76	15.66	-52.5	-56.9	3.7	0.00e+00	0	50	104	0	75	25509
2026-01-26 20:33:59.89	41.16	15.89	-52.6	-56.9	3.7	0.00e+00	0	50	104	0	76	24102
2026-01-26 20:34:01.93	41.57	16.13	-52.7	-57.1	3.7	0.00e+00	0	50	104	0	76	24627
2026-01-26 20:34:03.95	41.99	16.36	-52.7	-57.0	3.6	0.00e+00	0	50	104	0	76	24379
2026-01-26 20:34:05.94	42.41	16.60	-52.8	-57.1	3.7	0.00e+00	0	50	104	0	76	24650
2026-01-26 20:34:07.93	42.84	16.84	-52.2	-56.4	3.7	0.00e+00	0	50	104	0	76	22630
2026-01-26 20:34:09.92	43.28	17.07	-52.6	-57.0	3.7	0.00e+00	0	50	104	0	76	24314
2026-01-26 20:34:11.92	43.73	17.32	-52.6	-57.0	3.7	0.00e+00	0	50	104	0	76	24482
2026-01-26 20:34:13.91	44.18	17.56	-52.7	-57.4	3.7	0.00e+00	0	50	104	0	76	25433
2026-01-26 20:34:15.90	44.64	17.80	-52.9	-57.4	3.7	0.00e+00	0	50	104	0	76	25510
2026-01-26 20:34:18.09	45.16	18.07	-52.7	-57.2	3.7	0.00e+00	0	50	104	0	76	25017
2026-01-26 20:34:20.08	45.64	18.31	-52.8	-57.2	3.7	0.00e+00	0	50	104	0	76	25051
2026-01-26 20:34:22.07	46.13	18.56	-52.8	-57.3	3.7	0.00e+00	0	50	104	0	76	25191
2026-01-26 20:34:24.06	46.62	18.81	-52.9	-57.3	3.7	0.00e+00	0	50	104	0	76	25213
2026-01-26 20:34:26.05	47.13	19.06	-52.9	-57.4	3.7	0.00e+00	0	51	104	0	76	25432
2026-01-26 20:34:28.04	47.65	19.31	-53.0	-57.5	3.7	0.00e+00	0	50	104	0	76	25761
2026-01-26 20:34:30.06	48.18	19.57	-52.8	-57.3	3.7	0.00e+00	0	51	104	0	76	25228
2026-01-26 20:34:32.36	48.80	19.86	-52.8	-57.2	3.7	0.00e+00	0	51	104	0	76	25060
2026-01-26 20:34:34.35	49.35	20.12	-52.7	-56.9	3.7	0.00e+00	0	50	104	0	76	24164
2026-01-26 20:34:36.36	49.92	20.38	-52.5	-56.6	3.7	0.00e+00	0	50	104	0	76	23381
2026-01-26 20:34:38.35	50.49	20.63	-52.6	-56.7	3.7	0.00e+00	0	51	104	0	76	23586
2026-01-26 20:34:40.36	51.07	20.89	-52.6	-57.2	3.7	0.00e+00	0	51	104	0	76	24905
2026-01-26 20:34:42.36	51.67	21.15	-52.7	-57.3	3.7	0.00e+00	0	51	104	0	76	25151
2026-01-26 20:34:44.48	52.31	21.43	-52.9	-57.4	3.7	0.00e+00	0	51	104	0	76	25674
2026-01-26 20:34:46.47	52.93	21.69	-53.0	-57.5	3.7	0.00e+00	0	51	104	0	76	25848
2026-01-26 20:34:48.46	53.55	21.95	-52.7	-57.5	3.7	0.00e+00	0	51	104	0	76	25698
2026-01-26 20:34:50.45	54.19	22.21	-52.7	-57.5	3.7	0.00e+00	0	51	104	0	76	25764
2026-01-26 20:34:52.45	54.85	22.47	-53.0	-57.5	3.7	0.00e+00	0	51	104	0	76	25840
2026-01-26 20:34:54.44	55.51	22.73	-53.0	-57.6	3.7	0.00e+00	0	51	104	0	76	25994
2026-01-26 20:34:56.45	56.19	22.99	-52.8	-57.3	3.7	0.00e+00	0	51	104	0	76	25180
2026-01-26 20:34:58.47	56.89	23.25	-52.7	-56.9	3.7	0.00e+00	0	51	104	0	76	24233
2026-01-26 20:35:00.46	57.59	23.51	-52.7	-57.2	3.7	0.00e+00	0	51	104	0	76	24812
2026-01-26 20:35:02.56	58.35	23.78	-52.5	-57.2	3.7	0.00e+00	0	51	104	0	76	25006
2026-01-26 20:35:04.74	59.15	24.06	-52.7	-57.5	3.7	0.00e+00	0	51	104	0	76	25706
2026-01-26 20:35:06.77	59.91	24.32	-52.9	-57.5	3.7	0.00e+00	0	51	104	0	76	25821
2026-01-26 20:35:08.76	60.66	24.58	-52.8	-57.5	3.7	0.00e+00	0	51	104	0	76	25720
2026-01-26 20:35:10.77	61.44	24.83	-52.7	-57.4	3.7	0.00e+00	0	51	104	0	76	25662
2026-01-26 20:35:12.76	62.23	25.08	-53.0	-57.5	3.7	0.00e+00	0	51	104	0	76	25782
2026-01-26 20:35:14.75	63.02	25.33	-53.1	-57.6	3.7	0.00e+00	0	51	104	0	76	26040
2026-01-26 20:35:16.77	63.85	25.57	-53.2	-57.6	3.7	0.00e+00	0	51	104	0	77	24717
2026-01-26 20:35:18.77	64.68	25.82	-53.2	-57.6	3.7	0.00e+00	0	51	104	0	77	24720
2026-01-26 20:35:21.03	65.63	26.09	-53.0	-57.6	3.7	0.00e+00	0	51	104	0	77	24686
2026-01-26 20:35:23.24	66.59	26.34	-53.2	-57.7	3.7	0.00e+00	0	51	104	0	77	25019
2026-01-26 20:35:25.23	67.46	26.57	-53.2	-57.7	3.6	0.00e+00	0	51	104	0	77	24886
2026-01-26 20:35:27.22	68.34	26.80	-53.1	-57.6	3.7	0.00e+00	0	51	104	0	77	24657
2026-01-26 20:35:29.22	69.25	27.02	-53.1	-57.5	3.7	0.00e+00	0	51	104	0	77	24521
2026-01-26 20:35:31.24	70.17	27.24	-53.1	-57.6	3.7	0.00e+00	0	51	104	0	77	24546
2026-01-26 20:35:33.23	71.10	27.45	-53.1	-57.6	3.7	0.00e+00	0	51	104	0	77	24606
2026-01-26 20:35:35.24	72.05	27.66	-53.2	-57.6	3.7	0.00e+00	0	51	104	0	77	24802
2026-01-26 20:35:37.23	73.00	27.86	-53.3	-57.7	3.7	0.00e+00	0	51	104	0	77	24968
2026-01-26 20:35:39.22	73.96	28.05	-53.0	-57.5	3.7	0.00e+00	0	51	104	0	77	24308
2026-01-26 20:35:41.21	74.94	28.24	-52.9	-57.4	3.7	0.00e+00	0	51	104	0	77	24054
2026-01-26 20:35:43.20	75.93	28.42	-52.7	-57.3	3.7	0.00e+00	0	51	104	0	77	23935
2026-01-26 20:35:45.22	76.95	28.59	-52.8	-57.4	3.7	0.00e+00	0	51	104	0	77	24166
2026-01-26 20:35:47.21	77.96	28.76	-52.9	-57.6	3.7	0.00e+00	0	51	104	0	77	24597
2026-01-26 20:35:49.20	78.99	28.91	-52.8	-57.6	3.7	0.00e+00	0	51	104	0	77	24575
2026-01-26 20:35:51.25	80.06	29.06	-52.8	-57.4	3.7	0.00e+00	0	51	104	0	77	24007
2026-01-26 20:35:53.25	81.11	29.20	-52.5	-57.3	3.7	0.00e+00	0	51	104	0	76	25245
2026-01-26 20:35:55.24	82.16	29.33	-52.4	-57.4	3.7	0.00e+00	0	51	104	0	76	25390
2026-01-26 20:35:57.54	83.40	29.47	-52.2	-57.2	3.7	0.00e+00	0	51	104	0	76	25048
2026-01-26 20:35:59.53	84.47	29.58	-52.2	-57.3	3.7	0.00e+00	0	51	104	0	76	25206
2026-01-26 20:36:01.52	85.55	29.68	-52.1	-57.2	3.7	0.00e+00	0	51	104	0	76	24871
2026-01-26 20:36:03.52	86.65	29.78	-52.3	-57.2	3.7	0.00e+00	0	51	104	0	76	24835
2026-01-26 20:36:05.51	87.75	29.86	-52.5	-57.3	3.7	0.00e+00	0	51	104	0	76	25327
2026-01-26 20:36:07.50	88.85	29.93	-52.7	-57.5	3.7	0.00e+00	0	51	104	0	76	25806
2026-01-26 20:36:09.49	89.95	29.98	-52.6	-57.4	3.7	0.00e+00	0	51	104	0	76	25655
2026-01-26 20:36:11.48	91.06	30.03	-52.7	-57.6	3.7	0.00e+00	0	51	104	0	76	26051
2026-01-26 20:36:13.47	92.18	30.07	-52.5	-57.4	3.7	0.00e+00	0	51	104	0	76	25393
2026-01-26 20:36:15.46	93.29	30.10	-52.9	-57.6	3.7	0.00e+00	0	51	104	0	76	26024
2026-01-26 20:36:17.45	94.41	30.11	-53.0	-57.7	3.7	0.00e+00	0	51	104	0	76	26315
2026-01-26 20:36:19.44	95.53	30.12	-52.8	-57.5	3.7	0.00e+00	0	51	104	0	76	25755
2026-01-26 20:36:21.49	96.68	30.11	-52.8	-57.5	3.7	0.00e+00	0	51	104	0	76	25948
2026-01-26 20:36:23.50	97.81	30.09	-52.7	-57.2	3.7	0.00e+00	0	51	104	0	76	24928
2026-01-26 20:36:25.49	98.93	30.06	-52.6	-57.2	3.7	0.00e+00	0	51	104	0	76	24984
2026-01-26 20:36:27.48	100.04	30.02	-52.7	-57.3	3.7	0.00e+00	0	51	104	0	76	25311
2026-01-26 20:36:29.47	101.15	29.97	-53.1	-57.6	3.7	0.00e+00	0	51	104	0	76	25984
2026-01-26 20:36:31.46	102.26	29.91	-53.1	-57.6	3.7	0.00e+00	0	51	104	0	76	26049
2026-01-26 20:36:33.45	103.36	29.84	-53.1	-57.5	3.7	0.00e+00	0	51	104	0	76	25902
2026-01-26 20:36:35.57	104.53	29.75	-53.0	-57.6	3.7	0.00e+00	0	51	104	0	76	26135
2026-01-26 20:36:37.62	105.65	29.65	-53.1	-57.6	3.7	0.00e+00	0	51	104	0	76	26132
2026-01-26 20:36:39.61	106.74	29.55	-52.9	-57.5	3.7	0.00e+00	0	51	104	0	76	25932
2026-01-26 20:36:41.60	107.81	29.44	-52.8	-57.5	3.7	0.00e+00	0	51	104	0	76	25842
2026-01-26 20:36:43.59	108.88	29.31	-53.1	-57.6	3.7	0.00e+00	0	51	104	0	76	26083
2026-01-26 20:36:45.58	109.93	29.18	-52.7	-57.4	3.7	0.00e+00	0	51	104	0	76	25541
2026-01-26 20:36:47.57	110.98	29.04	-52.3	-57.4	3.7	0.00e+00	0	51	104	0	76	25434
2026-01-26 20:36:49.56	112.02	28.89	-52.7	-57.5	3.7	0.00e+00	0	51	104	0	76	25877
2026-01-26 20:36:51.54	113.04	28.73	-52.6	-57.3	3.7	0.00e+00	0	51	104	0	76	25345
2026-01-26 20:36:53.53	114.06	28.57	-52.7	-57.4	3.7	0.00e+00	0	51	104	0	76	25486
2026-01-26 20:36:55.52	115.06	28.39	-53.0	-57.6	3.7	0.00e+00	0	51	104	0	76	26015
2026-01-26 20:36:57.55	116.07	28.21	-53.0	-57.6	3.7	0.00e+00	0	51	104	0	76	25985
2026-01-26 20:36:59.54	117.05	28.02	-52.9	-57.5	3.7	0.00e+00	0	51	104	0	76	25847
2026-01-26 20:37:01.53	118.02	27.83	-52.7	-57.3	3.7	0.00e+00	0	51	104	0	76	25334
2026-01-26 20:37:03.52	118.97	27.63	-52.8	-57.4	3.7	0.00e+00	0	51	104	0	76	25565
2026-01-26 20:37:05.51	119.92	27.42	-53.0	-57.5	3.7	0.00e+00	0	51	104	0	76	25942
2026-01-26 20:37:07.50	120.84	27.21	-53.1	-57.5	3.7	0.00e+00	0	51	104	0	76	25858
2026-01-26 20:37:09.48	121.75	26.99	-53.1	-57.5	3.7	0.00e+00	0	51	104	0	76	25715
2026-01-26 20:37:11.47	122.66	26.77	-52.9	-57.4	3.7	0.00e+00	0	51	104	0	76	25409
2026-01-26 20:37:13.46	123.54	26.54	-52.9	-57.3	3.7	0.00e+00	0	51	104	0	76	25373
2026-01-26 20:37:15.45	124.42	26.31	-52.5	-57.1	3.7	0.00e+00	0	51	104	0	76	24554
2026-01-26 20:37:17.44	125.28	26.07	-52.5	-57.1	3.7	0.00e+00	0	51	104	0	76	24579
2026-01-26 20:37:19.43	126.12	25.83	-53.0	-57.5	3.7	0.00e+00	0	51	104	0	76	25819
2026-01-26 20:37:21.42	126.95	25.59	-53.0	-57.5	3.7	0.00e+00	0	51	104	0	76	25950
2026-01-26 20:37:23.41	127.77	25.35	-52.4	-57.2	3.7	0.00e+00	0	51	104	0	76	24976
2026-01-26 20:37:25.40	128.58	25.10	-52.6	-57.3	3.7	0.00e+00	0	51	104	0	76	25286
2026-01-26 20:37:27.39	129.37	24.85	-53.1	-57.5	3.7	0.00e+00	0	51	104	0	76	25947
2026-01-26 20:37:29.34	130.13	24.60	-53.0	-57.4	3.7	0.00e+00	0	51	104	0	76	25666
2026-01-26 20:37:31.33	130.89	24.35	-52.5	-57.2	3.7	0.00e+00	0	51	104	0	76	24930
2026-01-26 20:37:33.32	131.64	24.09	-52.6	-57.2	3.7	0.00e+00	0	51	104	0	76	24941
2026-01-26 20:37:35.31	132.38	23.83	-52.6	-57.1	3.7	0.00e+00	0	51	104	0	76	24732
2026-01-26 20:37:37.30	133.10	23.57	-52.7	-57.2	3.7	0.00e+00	0	51	104	0	76	24944
2026-01-26 20:37:39.29	133.81	23.31	-52.6	-57.3	3.7	0.00e+00	0	51	104	0	76	25122
2026-01-26 20:37:41.28	134.51	23.05	-52.5	-57.2	3.7	0.00e+00	0	51	104	0	76	24833
2026-01-26 20:37:43.37	135.23	22.78	-52.5	-57.1	3.7	0.00e+00	0	51	104	0	76	24619
2026-01-26 20:37:45.36	135.90	22.52	-52.7	-57.2	3.7	0.00e+00	0	51	104	0	76	24982
2026-01-26 20:37:47.35	136.56	22.25	-52.8	-57.3	3.7	0.00e+00	0	51	104	0	76	25284
2026-01-26 20:37:49.34	137.20	21.99	-52.9	-57.4	3.7	0.00e+00	0	51	104	0	76	25617
2026-01-26 20:37:51.33	137.84	21.73	-52.7	-57.1	3.7	0.00e+00	0	51	104	0	76	24782
2026-01-26 20:37:53.32	138.46	21.47	-52.6	-57.0	3.7	0.00e+00	0	51	104	0	76	24407
2026-01-26 20:37:55.31	139.07	21.21	-52.4	-57.2	3.7	0.00e+00	0	51	104	0	76	24857
2026-01-26 20:37:57.30	139.67	20.95	-52.4	-57.2	3.7	0.00e+00	0	51	104	0	76	24996
2026-01-26 20:37:59.34	140.27	20.68	-52.6	-57.2	3.7	0.00e+00	0	51	104	0	76	25054
2026-01-26 20:38:01.33	140.85	20.42	-52.7	-57.2	3.7	0.00e+00	0	51	104	0	76	25088
2026-01-26 20:38:03.32	141.42	20.16	-52.7	-57.2	3.7	0.00e+00	0	51	104	0	76	24894
2026-01-26 20:38:05.31	141.97	19.90	-52.6	-57.2	3.7	0.00e+00	0	51	104	0	76	24854
2026-01-26 20:38:07.30	142.52	19.65	-52.0	-56.9	3.7	0.00e+00	0	51	104	0	76	24194
2026-01-26 20:38:09.29	143.05	19.39	-51.7	-56.7	3.7	0.00e+00	0	51	104	0	75	24903
2026-01-26 20:38:11.27	143.57	19.14	-51.3	-56.5	3.7	0.00e+00	0	51	104	0	74	25766
2026-01-26 20:38:13.26	144.09	18.89	-51.2	-56.3	3.7	0.00e+00	0	51	104	0	74	25280
2026-01-26 20:38:15.24	144.59	18.64	-51.8	-56.8	3.7	0.00e+00	0	51	104	0	74	26663
2026-01-26 20:38:17.23	145.09	18.39	-51.8	-56.8	3.7	0.00e+00	0	51	104	0	75	25128
2026-01-26 20:38:19.23	145.58	18.14	-52.8	-57.3	3.7	0.00e+00	0	51	104	0	76	25349
2026-01-26 20:38:21.24	146.06	17.89	-52.7	-57.3	3.7	0.00e+00	0	51	104	0	76	25222
2026-01-26 20:38:23.24	146.53	17.64	-52.7	-57.3	3.7	0.00e+00	0	51	104	0	76	25168
2026-01-26 20:38:25.25	147.00	17.39	-52.6	-57.3	3.7	0.00e+00	0	51	104	0	76	25177
2026-01-26 20:38:27.23	147.45	17.15	-51.9	-56.7	3.7	0.00e+00	0	51	104	0	75	24967
2026-01-26 20:38:29.24	147.89	16.91	-51.8	-56.7	3.7	0.00e+00	0	51	104	0	75	24824
2026-01-26 20:38:31.26	148.34	16.66	-52.5	-57.1	3.7	0.00e+00	0	51	104	0	75	26022
2026-01-26 20:38:33.25	148.76	16.43	-52.7	-57.2	3.7	0.00e+00	0	51	104	0	76	24991
2026-01-26 20:38:35.24	149.18	16.19	-51.8	-56.7	3.7	0.00e+00	0	51	104	0	75	24955
2026-01-26 20:38:37.25	149.60	15.95	-51.5	-56.4	3.7	0.00e+00	0	51	104	0	74	25392
2026-01-26 20:38:39.41	150.04	15.70	-52.3	-57.2	3.7	0.00e+00	0	51	104	0	75	26340
2026-01-26 20:38:41.73	150.50	15.43	-52.2	-57.0	3.7	0.00e+00	0	51	104	0	75	25800
2026-01-26 20:38:43.94	150.93	15.18	-51.7	-56.5	3.7	0.00e+00	0	51	104	0	75	24393
2026-01-26 20:38:46.08	151.34	14.93	-51.9	-56.7	3.7	0.00e+00	0	51	104	0	75	24942
2026-01-26 20:38:48.55	151.80	14.65	-51.9	-56.7	3.7	0.00e+00	0	51	104	0	75	24949
2026-01-26 20:38:50.54	152.17	14.43	-51.8	-56.7	3.7	0.00e+00	0	51	104	0	75	25021
2026-01-26 20:38:52.53	152.53	14.21	-51.5	-56.6	3.7	0.00e+00	0	51	104	0	74	26083
2026-01-26 20:38:54.52	152.88	13.99	-51.5	-56.5	3.7	0.00e+00	0	51	104	0	74	25942
2026-01-26 20:38:56.51	153.23	13.77	-51.7	-56.7	3.7	0.00e+00	0	51	104	0	74	26366
2026-01-26 20:38:58.50	153.57	13.56	-51.5	-56.5	3.7	0.00e+00	0	51	104	0	74	25807
2026-01-26 20:39:00.49	153.91	13.34	-51.3	-56.2	3.7	0.00e+00	0	51	104	0	73	26307
2026-01-26 20:39:02.48	154.24	13.13	-51.5	-56.3	3.7	0.00e+00	0	51	104	0	73	26744
2026-01-26 20:39:04.47	154.56	12.92	-52.2	-56.8	3.7	0.00e+00	0	51	104	0	75	25341
2026-01-26 20:39:06.46	154.88	12.71	-52.2	-56.8	3.7	0.00e+00	0	51	104	0	75	25294
2026-01-26 20:39:08.45	155.19	12.50	-52.2	-56.8	3.7	0.00e+00	0	51	104	0	75	25276
2026-01-26 20:39:10.47	155.51	12.30	-52.1	-56.7	3.7	0.00e+00	0	51	104	0	75	24970
2026-01-26 20:39:12.46	155.81	12.09	-51.9	-56.6	3.7	0.00e+00	0	51	104	0	75	24637
2026-01-26 20:39:14.46	156.11	11.89	-51.9	-56.7	3.7	0.00e+00	0	51	104	0	75	24937
2026-01-26 20:39:16.45	156.40	11.69	-52.1	-56.8	3.7	0.00e+00	0	51	104	0	75	25271
2026-01-26 20:39:18.44	156.69	11.49	-52.5	-57.1	3.7	0.00e+00	0	51	104	0	75	26022
2026-01-26 20:39:20.43	156.98	11.29	-52.6	-57.1	3.7	0.00e+00	0	51	104	0	75	26157
2026-01-26 20:39:22.42	157.26	11.09	-52.0	-56.8	3.7	0.00e+00	0	51	104	0	75	25298
2026-01-26 20:39:24.40	157.53	10.90	-52.2	-56.9	3.7	0.00e+00	0	51	104	0	75	25558
2026-01-26 20:39:26.39	157.80	10.71	-52.3	-56.9	3.7	0.00e+00	0	51	104	0	75	25481
2026-01-26 20:39:28.48	158.08	10.51	-52.1	-56.7	3.7	0.00e+00	0	51	104	0	75	24931
2026-01-26 20:39:30.43	158.34	10.32	-52.3	-56.8	3.7	0.00e+00	0	51	104	0	75	25382
2026-01-26 20:39:32.42	158.60	10.13	-52.2	-56.7	3.7	0.00e+00	0	51	104	0	75	25002
2026-01-26 20:39:34.41	158.85	9.95	-52.3	-56.8	3.7	0.00e+00	0	51	104	0	75	25246
2026-01-26 20:39:36.40	159.10	9.76	-52.3	-56.7	3.7	0.00e+00	0	51	104	0	75	24981
2026-01-26 20:39:38.39	159.35	9.58	-52.2	-56.7	3.7	0.00e+00	0	51	104	0	75	25045
2026-01-26 20:39:40.38	159.59	9.40	-52.2	-56.6	3.7	0.00e+00	0	51	104	0	75	24611
2026-01-26 20:39:42.37	159.83	9.22	-52.1	-56.7	3.7	0.00e+00	0	51	104	0	75	24812
2026-01-26 20:39:44.39	160.07	9.03	-52.2	-56.6	3.7	0.00e+00	0	51	104	0	75	24744
2026-01-26 20:39:46.37	160.30	8.86	-52.5	-57.0	3.7	0.00e+00	0	51	104	0	75	25792
2026-01-26 20:39:48.38	160.54	8.68	-52.4	-57.4	3.6	0.00e+00	0	51	104	0	75	26931
2026-01-26 20:39:50.39	160.76	8.50	-52.5	-57.3	3.7	0.00e+00	0	51	104	0	76	25237
2026-01-26 20:39:52.38	160.99	8.33	-52.5	-57.4	3.7	0.00e+00	0	51	104	0	76	25473
2026-01-26 20:39:54.37	161.21	8.15	-52.9	-57.6	3.7	0.00e+00	0	51	104	0	77	24564
2026-01-26 20:39:56.36	161.42	7.98	-53.3	-57.9	3.7	0.00e+00	0	51	104	0	77	25400
2026-01-26 20:39:58.35	161.64	7.81	-52.8	-57.6	3.7	0.00e+00	0	51	104	0	77	24767
2026-01-26 20:40:00.33	161.84	7.64	-53.3	-57.8	3.7	0.00e+00	0	51	104	0	77	25371
2026-01-26 20:40:02.32	162.05	7.48	-52.9	-57.6	3.7	0.00e+00	0	51	104	0	76	26052
2026-01-26 20:40:04.42	162.27	7.30	-53.2	-57.7	3.7	0.00e+00	0	51	104	0	77	24838
2026-01-26 20:40:06.46	162.47	7.13	-53.1	-57.3	3.7	0.00e+00	0	51	104	0	77	23710
2026-01-26 20:40:08.53	162.68	6.96	-52.1	-57.0	3.7	0.00e+00	0	51	104	0	76	24490
2026-01-26 20:40:10.55	162.88	6.80	-52.4	-57.1	3.7	0.00e+00	0	51	104	0	75	26191
2026-01-26 20:40:12.54	163.07	6.64	-52.4	-57.1	3.6	0.00e+00	0	51	104	0	75	26110
2026-01-26 20:40:14.52	163.26	6.48	-52.4	-57.1	3.7	0.00e+00	0	51	104	0	75	26097
2026-01-26 20:40:16.54	163.45	6.31	-52.3	-57.1	3.7	0.00e+00	0	51	104	0	75	26184
2026-01-26 20:40:18.53	163.64	6.16	-52.3	-57.1	3.7	0.00e+00	0	51	104	0	75	26185
2026-01-26 20:40:20.52	163.82	6.00	-52.3	-57.1	3.7	0.00e+00	0	51	104	0	75	25979
2026-01-26 20:40:22.52	164.00	5.84	-52.4	-57.1	3.7	0.00e+00	0	51	104	0	75	26153
2026-01-26 20:40:24.50	164.18	5.69	-52.3	-57.1	3.7	0.00e+00	0	51	104	0	75	26033
2026-01-26 20:40:26.49	164.36	5.53	-52.3	-57.0	3.7	0.00e+00	0	51	104	0	75	25959
2026-01-26 20:40:28.49	164.53	5.38	-52.3	-57.0	3.7	0.00e+00	0	51	104	0	75	25940
2026-01-26 20:40:30.48	164.70	5.23	-52.3	-57.0	3.7	0.00e+00	0	51	104	0	75	25883
2026-01-26 20:40:32.48	164.87	5.08	-52.3	-57.0	3.7	0.00e+00	0	51	104	0	75	25883

#Closed at: 2026-01-26 20:40:34
#Recorded file [0 MB]: D:/Data/31040_260126_233202.dat