passes_logs/2026/01/26/T1/T1__20260126_110029_SUOMI_NPP_rec.log

#Pass ID: 20260126_110029_SUOMI NPP
#Satellite: SUOMI NPP
#Configuration: NPP
#almurnet v.1.7.20251203
#Start time: 2026-01-26 11:00:31

#Version: 2.0.20230620
#Station: T1
#Location: 37.570604 lon 55.790049 lat
#TLE: 1 37849U 11061A   26025.81780576  .00000180  00000+0  10635-3 0  9993
#TLE: 2 37849  98.7822 327.7738 0002159  45.0809 315.0541 14.19529973738242

#Time	Az	El	Level	Level2	SNR	BER	BlckErr	Temp	State	Recorded	gain1	gain2
2026-01-26 11:00:31.61	192.49	5.16	-48.9	-64.9	3.8	1.49e+00	0	40	0	0	69	22624
2026-01-26 11:00:34.58	192.66	5.35	-48.8	-64.8	3.8	1.49e+00	0	40	104	0	68	23737
2026-01-26 11:00:37.56	192.84	5.56	-48.8	-64.6	3.8	1.49e+00	0	40	104	0	68	23263
2026-01-26 11:00:40.54	193.02	5.76	-48.8	-64.5	3.8	1.49e+00	0	40	104	0	68	22788
2026-01-26 11:00:43.52	193.20	5.96	-48.8	-64.6	3.8	1.49e+00	0	40	104	0	68	23046
2026-01-26 11:00:46.50	193.38	6.17	-48.8	-64.6	3.8	1.49e+00	0	41	104	0	68	23209
2026-01-26 11:00:49.48	193.56	6.38	-48.8	-64.2	3.8	1.49e+00	0	41	104	0	68	22220
2026-01-26 11:00:52.46	193.75	6.59	-48.8	-64.1	3.8	1.49e+00	0	41	104	0	68	21956
2026-01-26 11:00:55.44	193.94	6.80	-48.7	-64.3	3.8	1.49e+00	0	41	104	0	68	22293
2026-01-26 11:00:58.42	194.13	7.01	-48.7	-64.3	3.8	1.49e+00	0	41	104	0	68	22319
2026-01-26 11:01:01.40	194.33	7.22	-48.7	-63.5	3.8	1.49e+00	0	41	104	0	68	20438
2026-01-26 11:01:04.38	194.53	7.43	-48.7	-64.0	3.8	1.49e+00	0	41	104	0	68	21671
2026-01-26 11:01:07.36	194.73	7.65	-48.7	-63.4	3.8	1.49e+00	0	41	104	0	68	20291
2026-01-26 11:01:10.34	194.93	7.87	-47.5	-54.9	8.3	1.44e-01	0	42	0	3145728	67	8082
2026-01-26 11:01:13.32	195.14	8.09	-45.7	-50.1	13.4	9.84e-05	0	41	0	9437184	63	5837
2026-01-26 11:01:16.30	195.35	8.31	-44.7	-48.3	15.2	0.00e+00	0	41	0	14680064	61	5331
2026-01-26 11:01:19.28	195.56	8.53	-44.9	-48.7	14.8	0.00e+00	0	41	0	19922944	61	5535
2026-01-26 11:01:22.26	195.77	8.75	-46.4	-51.7	11.8	1.04e-04	0	41	0	26214400	63	6995
2026-01-26 11:01:25.24	195.99	8.98	-47.8	-56.3	7.1	7.58e-02	0	42	0	31457280	66	9979
2026-01-26 11:01:28.22	196.22	9.21	-46.8	-52.4	11.1	2.08e-03	0	42	0	36700160	64	7139
2026-01-26 11:01:31.20	196.44	9.44	-46.7	-52.1	11.2	4.55e-04	0	42	0	41943040	64	6956
2026-01-26 11:01:34.19	196.67	9.67	-45.8	-50.0	13.6	1.44e-05	0	42	0	47185920	63	5762
2026-01-26 11:01:37.17	196.90	9.90	-45.3	-49.2	14.2	2.20e-06	0	42	0	52428800	62	5581
2026-01-26 11:01:40.16	197.14	10.14	-44.3	-47.7	15.9	0.00e+00	0	42	0	58720256	60	5219
2026-01-26 11:01:43.14	197.38	10.37	-44.2	-47.3	16.1	0.00e+00	0	42	0	63963136	59	5332
2026-01-26 11:01:46.13	197.63	10.61	-44.1	-47.2	16.2	0.00e+00	0	42	0	69206016	59	5276
2026-01-26 11:01:49.12	197.87	10.85	-43.6	-46.5	17.0	0.00e+00	0	42	0	75497472	59	4868
2026-01-26 11:01:52.10	198.12	11.09	-43.7	-46.6	16.8	0.00e+00	0	42	0	80740352	59	4922
2026-01-26 11:01:55.09	198.38	11.34	-43.4	-46.4	16.9	0.00e+00	0	42	0	85983232	58	5079
2026-01-26 11:01:58.07	198.64	11.59	-43.3	-46.4	16.5	0.00e+00	0	42	0	92274688	58	5044
2026-01-26 11:02:01.05	198.90	11.83	-43.3	-46.5	16.2	0.00e+00	0	42	0	97517568	58	5109
2026-01-26 11:02:04.04	199.17	12.08	-43.3	-46.4	16.4	0.00e+00	0	42	0	102760448	58	5060
2026-01-26 11:02:07.02	199.45	12.34	-43.4	-46.4	16.5	0.00e+00	0	42	0	109051904	58	5065
2026-01-26 11:02:10.00	199.72	12.59	-42.9	-46.1	15.6	0.00e+00	0	42	0	114294784	57	5194
2026-01-26 11:02:12.99	200.01	12.85	-42.1	-46.1	13.2	1.06e-05	0	42	0	119537664	56	5469
2026-01-26 11:02:15.97	200.29	13.10	-41.0	-45.5	11.9	2.91e-04	0	42	0	125829120	53	6113
2026-01-26 11:02:18.96	200.59	13.37	-42.1	-45.7	14.3	5.30e-06	0	42	0	131072000	54	5868
2026-01-26 11:02:21.95	200.88	13.63	-43.1	-46.0	16.4	0.00e+00	0	42	0	136314880	56	5416
2026-01-26 11:02:24.93	201.18	13.89	-43.1	-45.8	17.2	0.00e+00	0	42	0	142606336	56	5319
2026-01-26 11:02:27.92	201.49	14.16	-43.1	-45.8	17.5	0.00e+00	0	42	0	147849216	56	5331
2026-01-26 11:02:30.90	201.80	14.43	-43.1	-45.8	17.6	0.00e+00	0	42	0	153092096	56	5289
2026-01-26 11:02:33.88	202.12	14.70	-43.1	-45.8	17.5	0.00e+00	0	42	0	159383552	57	5003
2026-01-26 11:02:36.87	202.45	14.98	-43.2	-45.9	17.5	0.00e+00	0	42	0	164626432	57	5073
2026-01-26 11:02:39.85	202.78	15.25	-43.1	-45.7	17.8	0.00e+00	0	42	0	169869312	57	4973
2026-01-26 11:02:42.83	203.11	15.53	-43.3	-46.0	17.6	0.00e+00	0	42	0	176160768	57	5101
2026-01-26 11:02:45.82	203.45	15.81	-43.3	-45.9	17.6	0.00e+00	0	42	0	181403648	57	5074
2026-01-26 11:02:48.80	203.80	16.09	-43.3	-45.9	17.6	0.00e+00	0	42	0	186646528	57	5081
2026-01-26 11:02:51.79	204.16	16.38	-43.4	-46.0	17.5	0.00e+00	0	42	0	192937984	57	5132
2026-01-26 11:02:54.77	204.52	16.67	-43.4	-45.9	17.7	0.00e+00	0	42	0	198180864	57	5073
2026-01-26 11:02:57.76	204.89	16.96	-43.6	-46.2	17.4	0.00e+00	0	42	0	203423744	57	5252
2026-01-26 11:03:00.74	205.26	17.25	-43.7	-46.4	17.3	0.00e+00	0	42	0	209715200	58	5056
2026-01-26 11:03:03.73	205.64	17.54	-43.5	-46.1	17.5	0.00e+00	0	42	0	214958080	58	4925
2026-01-26 11:03:06.71	206.03	17.84	-43.6	-46.2	17.5	0.00e+00	0	42	0	220200960	58	4941
2026-01-26 11:03:09.69	206.43	18.14	-43.1	-45.6	18.1	0.00e+00	0	42	0	226492416	58	4641
2026-01-26 11:03:12.67	206.83	18.44	-43.1	-45.6	18.1	0.00e+00	0	42	0	231735296	58	4629
2026-01-26 11:03:15.66	207.25	18.75	-43.6	-46.3	17.5	0.00e+00	0	42	0	236978176	58	4995
2026-01-26 11:03:18.64	207.67	19.05	-43.6	-46.3	17.4	0.00e+00	0	42	0	243269632	58	5015
2026-01-26 11:03:21.63	208.10	19.36	-43.9	-46.7	17.0	0.00e+00	0	42	0	248512512	58	5253
2026-01-26 11:03:24.61	208.53	19.67	-43.9	-46.6	17.1	0.00e+00	0	42	0	253755392	58	5206
2026-01-26 11:03:27.60	208.98	19.98	-43.8	-46.5	17.2	0.00e+00	0	42	0	260046848	58	5135
2026-01-26 11:03:30.59	209.44	20.30	-43.7	-46.3	17.4	0.00e+00	0	42	0	265289728	58	5026
2026-01-26 11:03:33.57	209.90	20.62	-43.6	-46.2	17.5	0.00e+00	0	42	0	270532608	58	4978
2026-01-26 11:03:36.56	210.37	20.94	-43.6	-46.3	17.4	0.00e+00	0	42	0	276824064	58	5009
2026-01-26 11:03:39.54	210.86	21.26	-43.9	-46.6	17.2	0.00e+00	0	43	0	282066944	58	5174
2026-01-26 11:03:42.52	211.35	21.58	-44.0	-46.8	17.0	0.00e+00	0	42	0	287309824	58	5301
2026-01-26 11:03:45.51	211.85	21.91	-44.0	-46.7	17.1	0.00e+00	0	42	0	293601280	58	5258
2026-01-26 11:03:48.49	212.37	22.24	-43.7	-46.4	17.5	0.00e+00	0	42	0	298844160	58	5060
2026-01-26 11:03:51.47	212.89	22.57	-43.3	-45.8	17.9	0.00e+00	0	42	0	304087040	58	4724
2026-01-26 11:03:54.46	213.43	22.90	-43.0	-45.5	18.3	0.00e+00	0	42	0	310378496	57	4818
2026-01-26 11:03:57.44	213.97	23.23	-43.5	-46.1	17.7	0.00e+00	0	42	0	315621376	57	5161
2026-01-26 11:04:00.43	214.53	23.57	-43.2	-45.8	18.0	0.00e+00	0	43	0	320864256	57	4990
2026-01-26 11:04:03.42	215.11	23.90	-42.9	-45.3	18.4	0.00e+00	0	42	0	327155712	57	4742
2026-01-26 11:04:06.41	215.69	24.24	-42.6	-45.0	18.7	0.00e+00	0	42	0	332398592	57	4570
2026-01-26 11:04:09.39	216.28	24.58	-43.2	-45.7	18.0	0.00e+00	0	42	0	337641472	57	4958
2026-01-26 11:04:12.38	216.89	24.92	-43.6	-46.3	17.6	0.00e+00	0	42	0	343932928	58	4984
2026-01-26 11:04:15.36	217.51	25.26	-43.3	-45.8	17.9	0.00e+00	0	42	0	349175808	58	4748
2026-01-26 11:04:18.34	218.14	25.61	-43.1	-45.6	18.1	0.00e+00	0	42	0	354418688	58	4629
2026-01-26 11:04:21.33	218.79	25.95	-43.4	-45.9	17.8	0.00e+00	0	42	0	360710144	57	5073
2026-01-26 11:04:24.31	219.45	26.29	-43.4	-45.9	17.9	0.00e+00	0	43	0	365953024	57	5068
2026-01-26 11:04:27.29	220.13	26.63	-43.3	-45.8	18.0	0.00e+00	0	43	0	371195904	57	5006
2026-01-26 11:04:30.28	220.82	26.98	-43.2	-45.7	18.0	0.00e+00	0	43	0	377487360	57	4936
2026-01-26 11:04:33.26	221.52	27.32	-42.9	-45.3	18.5	0.00e+00	0	42	0	382730240	57	4720
2026-01-26 11:04:36.25	222.24	27.67	-42.6	-44.9	18.8	0.00e+00	0	43	0	387973120	57	4536
2026-01-26 11:04:39.23	222.98	28.01	-42.8	-45.2	18.6	0.00e+00	0	42	0	394264576	56	4929
2026-01-26 11:04:42.21	223.73	28.35	-43.0	-45.4	18.2	0.00e+00	0	43	0	399507456	57	4768
2026-01-26 11:04:45.20	224.49	28.69	-43.0	-45.4	18.3	0.00e+00	0	42	0	404750336	57	4813
2026-01-26 11:04:48.18	225.27	29.03	-43.4	-45.9	17.9	0.00e+00	0	43	0	411041792	57	5085
2026-01-26 11:04:51.17	226.07	29.37	-43.8	-46.4	17.5	0.00e+00	0	42	0	416284672	58	5059
2026-01-26 11:04:54.16	226.89	29.71	-44.3	-47.1	16.7	0.00e+00	0	43	0	422576128	59	5211
2026-01-26 11:04:57.14	227.72	30.04	-44.1	-46.8	17.0	0.00e+00	0	43	0	427819008	59	5033
2026-01-26 11:05:00.12	228.57	30.37	-44.6	-47.6	16.3	0.00e+00	0	43	0	433061888	60	5208
2026-01-26 11:05:03.10	229.43	30.70	-45.6	-49.0	15.0	0.00e+00	0	43	0	439353344	61	5774
2026-01-26 11:05:06.09	230.32	31.02	-45.9	-49.6	14.4	0.00e+00	0	43	0	444596224	62	5814
2026-01-26 11:05:09.07	231.22	31.34	-45.7	-49.3	14.7	0.00e+00	0	43	0	449839104	62	5626
2026-01-26 11:05:12.06	232.14	31.66	-46.4	-50.5	13.5	6.80e-06	0	43	0	456130560	63	6077
2026-01-26 11:05:15.04	233.07	31.97	-46.0	-49.6	14.3	3.00e-06	0	42	0	461373440	63	5519
2026-01-26 11:05:18.03	234.02	32.27	-45.7	-49.3	14.7	7.00e-07	0	43	0	466616320	62	5616
2026-01-26 11:05:21.01	234.99	32.57	-45.7	-49.3	14.7	0.00e+00	0	43	0	472907776	62	5630
2026-01-26 11:05:23.99	235.98	32.86	-46.1	-50.2	14.0	9.10e-06	0	43	0	478150656	63	5861
2026-01-26 11:05:26.98	236.99	33.15	-46.0	-49.8	14.2	1.50e-06	0	43	0	483393536	63	5627
2026-01-26 11:05:29.96	238.01	33.43	-45.8	-49.3	14.6	0.00e+00	0	42	0	489684992	63	5340
2026-01-26 11:05:32.94	239.05	33.70	-46.5	-50.4	13.7	6.80e-06	0	43	0	494927872	63	6001
2026-01-26 11:05:35.92	240.10	33.97	-44.6	-47.6	16.4	0.00e+00	0	43	0	500170752	61	4872
2026-01-26 11:05:38.91	241.18	34.22	-44.3	-47.1	16.8	0.00e+00	0	43	0	506462208	59	5162
2026-01-26 11:05:41.90	242.27	34.47	-45.9	-49.4	14.5	1.50e-06	0	43	0	511705088	62	5717
2026-01-26 11:05:44.88	243.38	34.70	-44.6	-47.5	16.4	0.00e+00	0	42	0	516947968	61	4832
2026-01-26 11:05:47.87	244.50	34.93	-43.4	-46.0	17.8	0.00e+00	0	43	0	523239424	58	4855
2026-01-26 11:05:50.85	245.64	35.15	-43.8	-46.5	17.4	0.00e+00	0	42	0	528482304	58	5135
2026-01-26 11:05:53.84	246.79	35.35	-43.8	-46.5	17.3	0.00e+00	0	43	0	533725184	59	4824
2026-01-26 11:05:56.82	247.95	35.54	-43.3	-45.7	18.1	0.00e+00	0	43	0	540016640	58	4704
2026-01-26 11:05:59.80	249.13	35.72	-43.8	-46.4	17.4	0.00e+00	0	42	0	545259520	58	5063
2026-01-26 11:06:02.79	250.32	35.89	-43.5	-46.0	17.7	0.00e+00	0	43	0	550502400	58	4867
2026-01-26 11:06:05.77	251.52	36.05	-43.6	-46.1	17.8	0.00e+00	0	43	0	556793856	58	4895
2026-01-26 11:06:08.75	252.73	36.19	-44.0	-46.7	17.2	0.00e+00	0	43	0	562036736	58	5232
2026-01-26 11:06:11.74	253.96	36.32	-44.2	-47.0	16.9	0.00e+00	0	42	0	567279616	60	4854
2026-01-26 11:06:14.72	255.19	36.43	-44.0	-46.7	17.2	0.00e+00	0	43	0	573571072	59	4945
2026-01-26 11:06:17.71	256.43	36.53	-43.9	-46.5	17.4	0.00e+00	0	42	0	578813952	59	4835
2026-01-26 11:06:20.70	257.68	36.62	-44.5	-47.3	16.6	0.00e+00	0	43	0	584056832	59	5333
2026-01-26 11:06:23.69	258.93	36.69	-44.8	-47.8	16.1	0.00e+00	0	43	0	590348288	60	5337
2026-01-26 11:06:26.67	260.19	36.74	-44.4	-47.2	16.7	0.00e+00	0	43	0	595591168	60	4968
2026-01-26 11:06:29.66	261.45	36.78	-44.4	-47.2	16.7	0.00e+00	0	43	0	600834048	60	4979
2026-01-26 11:06:32.64	262.71	36.81	-44.8	-47.9	16.1	0.00e+00	0	43	0	607125504	60	5378
2026-01-26 11:06:35.62	263.97	36.82	-44.9	-48.1	15.9	0.00e+00	0	43	0	612368384	60	5508
2026-01-26 11:06:38.61	265.24	36.81	-44.3	-47.1	16.8	0.00e+00	0	43	0	617611264	60	4925
2026-01-26 11:06:41.59	266.50	36.79	-45.0	-48.2	15.9	0.00e+00	0	42	0	623902720	60	5534
2026-01-26 11:06:44.57	267.76	36.76	-45.6	-49.0	15.0	0.00e+00	0	43	0	629145600	61	5761
2026-01-26 11:06:47.56	269.02	36.70	-45.2	-48.5	15.6	0.00e+00	0	43	0	634388480	62	5103
2026-01-26 11:06:50.54	270.27	36.64	-44.8	-47.8	16.2	0.00e+00	0	43	0	640679936	61	5002
2026-01-26 11:06:53.52	271.52	36.56	-45.0	-48.1	15.8	0.00e+00	0	43	0	645922816	60	5522
2026-01-26 11:06:56.51	272.76	36.46	-46.3	-50.3	13.6	2.74e-05	0	43	0	651165696	64	5611
2026-01-26 11:06:59.50	273.99	36.35	-45.9	-49.4	14.7	0.00e+00	0	43	0	657457152	62	5694
2026-01-26 11:07:02.48	275.21	36.23	-45.1	-48.1	15.9	0.00e+00	0	42	0	662700032	62	4913
2026-01-26 11:07:05.47	276.43	36.09	-46.0	-49.6	14.4	0.00e+00	0	43	0	667942912	62	5814
2026-01-26 11:07:08.46	277.63	35.94	-45.5	-48.8	15.2	0.00e+00	0	43	0	674234368	63	5027
2026-01-26 11:07:11.44	278.82	35.77	-46.6	-50.5	13.4	4.50e-06	0	43	0	679477248	64	5751
2026-01-26 11:07:14.42	280.00	35.60	-46.5	-50.4	13.5	1.90e-05	0	42	0	684720128	64	5692
2026-01-26 11:07:17.41	281.17	35.41	-47.7	-53.0	10.9	2.94e-03	0	43	0	691011584	66	6831
2026-01-26 11:07:20.39	282.32	35.21	-46.9	-51.2	12.8	6.33e-05	0	43	0	696254464	65	5870
2026-01-26 11:07:23.38	283.46	34.99	-48.2	-54.0	9.8	6.86e-03	0	42	0	701497344	67	7269
2026-01-26 11:07:26.37	284.58	34.77	-47.2	-51.7	12.1	1.17e-03	0	43	0	707788800	66	5919
2026-01-26 11:07:29.35	285.69	34.54	-45.3	-48.5	15.5	0.00e+00	0	43	0	713031680	62	5134
2026-01-26 11:07:32.34	286.78	34.30	-45.1	-48.2	15.8	0.00e+00	0	43	0	718274560	61	5261
2026-01-26 11:07:35.32	287.86	34.04	-44.7	-47.6	16.4	0.00e+00	0	43	0	724566016	61	4887
2026-01-26 11:07:38.31	288.92	33.78	-46.1	-49.7	14.3	7.00e-07	0	43	0	729808896	62	5878
2026-01-26 11:07:41.30	289.96	33.51	-44.8	-47.8	16.2	0.00e+00	0	43	0	735051776	61	5024
2026-01-26 11:07:44.28	290.98	33.24	-45.2	-48.4	15.6	0.00e+00	0	43	0	741343232	61	5388
2026-01-26 11:07:47.27	291.99	32.95	-44.0	-46.6	17.3	0.00e+00	0	43	0	746586112	59	4920
2026-01-26 11:07:50.25	292.98	32.66	-44.3	-47.1	16.8	0.00e+00	0	43	0	751828992	59	5208
2026-01-26 11:07:53.23	293.95	32.37	-44.2	-46.9	17.1	0.00e+00	0	43	0	758120448	59	5051
2026-01-26 11:07:56.22	294.91	32.07	-46.0	-49.8	14.2	0.00e+00	0	43	0	763363328	62	5924
2026-01-26 11:07:59.20	295.84	31.76	-43.9	-46.6	17.3	0.00e+00	0	43	0	768606208	59	4892
2026-01-26 11:08:02.19	296.76	31.45	-43.0	-45.4	18.4	0.00e+00	0	43	0	774897664	57	4797
2026-01-26 11:08:05.17	297.66	31.13	-44.1	-46.9	17.0	0.00e+00	0	43	0	780140544	59	5063
2026-01-26 11:08:08.15	298.55	30.81	-43.0	-45.4	18.4	0.00e+00	0	43	0	785383424	57	4784
2026-01-26 11:08:11.14	299.42	30.48	-44.2	-47.1	16.7	0.00e+00	0	42	0	791674880	59	5187
2026-01-26 11:08:14.12	300.26	30.16	-42.5	-44.9	18.8	0.00e+00	0	43	0	796917760	56	4800
2026-01-26 11:08:17.11	301.10	29.83	-43.2	-45.7	18.2	0.00e+00	0	43	0	802160640	56	5228
2026-01-26 11:08:20.10	301.92	29.49	-42.8	-45.2	18.6	0.00e+00	0	43	0	808452096	57	4681
2026-01-26 11:08:23.08	302.72	29.16	-42.9	-45.3	18.5	0.00e+00	0	43	0	813694976	56	4997
2026-01-26 11:08:26.06	303.50	28.82	-44.2	-47.0	16.9	0.00e+00	0	43	0	818937856	59	5110
2026-01-26 11:08:29.05	304.27	28.48	-42.7	-45.0	18.7	0.00e+00	0	43	0	825229312	57	4574
2026-01-26 11:08:32.03	305.02	28.15	-44.3	-47.1	16.8	0.00e+00	0	43	0	830472192	59	5190
2026-01-26 11:08:35.02	305.76	27.80	-42.9	-45.2	18.5	0.00e+00	0	43	0	835715072	57	4704
2026-01-26 11:08:38.00	306.48	27.46	-42.3	-44.5	19.0	0.00e+00	0	43	0	842006528	55	4858
2026-01-26 11:08:40.99	307.18	27.12	-43.7	-46.3	17.5	0.00e+00	0	43	0	847249408	58	5030
2026-01-26 11:08:43.97	307.87	26.78	-42.9	-45.4	18.4	0.00e+00	0	43	0	853540864	57	4761
2026-01-26 11:08:46.96	308.55	26.44	-44.5	-47.4	16.5	0.00e+00	0	43	0	858783744	59	5371
2026-01-26 11:08:49.95	309.22	26.10	-43.9	-46.6	17.3	0.00e+00	0	43	0	864026624	59	4894
2026-01-26 11:08:52.93	309.86	25.76	-43.0	-45.5	18.3	0.00e+00	0	43	0	870318080	57	4827
2026-01-26 11:08:55.91	310.50	25.42	-45.0	-48.2	15.8	0.00e+00	0	43	0	875560960	60	5559
2026-01-26 11:08:58.90	311.12	25.08	-43.5	-46.1	17.7	0.00e+00	0	43	0	880803840	59	4647
2026-01-26 11:09:01.88	311.73	24.74	-42.2	-44.4	19.3	0.00e+00	0	43	0	887095296	56	4536
2026-01-26 11:09:04.86	312.33	24.41	-43.1	-45.8	18.0	0.00e+00	0	42	0	892338176	56	5285
2026-01-26 11:09:07.85	312.91	24.07	-43.4	-46.2	17.6	0.00e+00	0	42	0	897581056	57	5238
2026-01-26 11:09:10.83	313.48	23.74	-42.3	-44.6	19.0	0.00e+00	0	43	0	903872512	56	4650
2026-01-26 11:09:13.82	314.04	23.40	-42.6	-44.9	18.8	0.00e+00	0	43	0	909115392	56	4778
2026-01-26 11:09:16.81	314.59	23.07	-42.8	-45.2	18.5	0.00e+00	0	43	0	914358272	56	4962
2026-01-26 11:09:19.79	315.13	22.74	-41.7	-44.0	19.4	0.00e+00	0	43	0	920649728	55	4565
2026-01-26 11:09:22.77	315.66	22.41	-41.7	-44.0	19.5	0.00e+00	0	43	0	925892608	54	4820
2026-01-26 11:09:25.75	316.17	22.09	-42.5	-45.0	18.6	0.00e+00	0	43	0	931135488	55	5104
2026-01-26 11:09:28.74	316.68	21.76	-42.5	-44.9	18.6	0.00e+00	0	43	0	937426944	55	5080
2026-01-26 11:09:31.72	317.17	21.44	-41.9	-44.3	19.2	0.00e+00	0	43	0	942669824	55	4744
2026-01-26 11:09:34.70	317.66	21.12	-41.8	-44.1	19.3	0.00e+00	0	43	0	947912704	55	4648
2026-01-26 11:09:37.69	318.14	20.81	-42.1	-44.4	19.1	0.00e+00	0	43	0	954204160	55	4801
2026-01-26 11:09:40.68	318.60	20.49	-42.3	-44.9	18.6	0.00e+00	0	43	0	959447040	55	5052
2026-01-26 11:09:43.66	319.06	20.18	-42.2	-44.8	18.7	0.00e+00	0	43	0	964689920	55	5001
2026-01-26 11:09:46.64	319.51	19.87	-42.0	-44.5	19.0	0.00e+00	0	43	0	970981376	55	4835
2026-01-26 11:09:49.63	319.95	19.56	-42.1	-44.5	19.0	0.00e+00	0	43	0	976224256	55	4836
2026-01-26 11:09:52.62	320.38	19.25	-42.2	-44.6	18.9	0.00e+00	0	43	0	981467136	55	4880
2026-01-26 11:09:55.60	320.80	18.94	-42.0	-44.3	19.1	0.00e+00	0	43	0	987758592	55	4757
2026-01-26 11:09:58.59	321.22	18.64	-41.9	-44.1	19.4	0.00e+00	0	42	0	993001472	55	4641
2026-01-26 11:10:01.57	321.62	18.34	-41.9	-44.2	19.2	0.00e+00	0	43	0	998244352	55	4674
2026-01-26 11:10:04.56	322.02	18.04	-42.8	-45.2	18.4	0.00e+00	0	43	0	1004535808	56	4969
2026-01-26 11:10:07.54	322.41	17.75	-43.9	-46.7	17.1	0.00e+00	0	43	0	1009778688	58	5275
2026-01-26 11:10:10.52	322.80	17.46	-44.3	-47.4	16.4	0.00e+00	0	43	0	1015021568	59	5363
2026-01-26 11:10:13.51	323.18	17.16	-44.3	-47.5	16.4	0.00e+00	0	43	0	1021313024	60	5108
2026-01-26 11:10:16.49	323.55	16.88	-44.2	-47.2	16.6	0.00e+00	0	43	0	1026555904	60	4947
2026-01-26 11:10:19.47	323.91	16.59	-43.4	-46.0	17.8	0.00e+00	0	43	0	1031798784	58	4816
2026-01-26 11:10:22.46	324.27	16.31	-43.2	-45.7	18.0	0.00e+00	0	43	0	1038090240	58	4697
2026-01-26 11:10:25.45	324.62	16.03	-43.4	-46.2	17.5	0.00e+00	0	43	0	1043333120	58	4948
2026-01-26 11:10:28.43	324.96	15.75	-43.8	-46.9	16.8	0.00e+00	0	43	0	1048576000	58	5390
2026-01-26 11:10:31.41	325.30	15.47	-43.8	-47.0	16.7	0.00e+00	0	43	0	1054867456	58	5425
2026-01-26 11:10:34.40	325.63	15.19	-43.4	-46.3	17.3	0.00e+00	0	43	0	1060110336	58	5009
2026-01-26 11:10:37.38	325.96	14.92	-42.9	-45.6	18.0	0.00e+00	0	43	0	1065353216	57	4880
2026-01-26 11:10:40.37	326.28	14.65	-42.8	-45.4	18.2	0.00e+00	0	43	0	1071644672	57	4780
2026-01-26 11:10:43.35	326.59	14.38	-43.1	-45.8	17.8	0.00e+00	0	43	0	1076887552	57	5016
2026-01-26 11:10:46.33	326.90	14.12	-43.4	-46.3	17.4	0.00e+00	0	43	0	1082130432	57	5281
2026-01-26 11:10:49.32	327.21	13.85	-43.3	-46.1	17.5	0.00e+00	0	43	0	1088421888	57	5162
2026-01-26 11:10:52.30	327.51	13.59	-43.2	-45.9	17.7	0.00e+00	0	43	0	1093664768	57	5046
2026-01-26 11:10:55.29	327.80	13.33	-42.9	-45.4	18.1	0.00e+00	0	43	0	1098907648	57	4778
2026-01-26 11:10:58.27	328.09	13.08	-42.9	-45.4	18.1	0.00e+00	0	43	0	1105199104	57	4808
2026-01-26 11:11:01.26	328.38	12.82	-43.3	-45.9	17.7	0.00e+00	0	43	0	1110441984	57	5070
2026-01-26 11:11:04.24	328.66	12.57	-43.4	-46.2	17.4	0.00e+00	0	43	0	1115684864	57	5234
2026-01-26 11:11:07.23	328.93	12.32	-43.7	-46.4	17.1	0.00e+00	0	43	0	1121976320	58	5096
2026-01-26 11:11:10.21	329.21	12.07	-43.7	-46.5	17.0	0.00e+00	0	43	0	1127219200	58	5145
2026-01-26 11:11:13.20	329.47	11.82	-43.7	-46.5	17.0	0.00e+00	0	43	0	1132462080	58	5119
2026-01-26 11:11:16.18	329.74	11.58	-43.6	-46.4	17.1	0.00e+00	0	43	0	1138753536	58	5092
2026-01-26 11:11:19.17	329.99	11.33	-43.7	-46.5	17.1	0.00e+00	0	43	0	1143996416	58	5134
2026-01-26 11:11:22.15	330.25	11.09	-43.8	-46.6	17.0	0.00e+00	0	43	0	1149239296	58	5176
2026-01-26 11:11:25.13	330.50	10.85	-43.9	-46.7	16.9	0.00e+00	0	43	0	1155530752	58	5246
2026-01-26 11:11:28.12	330.75	10.62	-43.7	-46.4	17.1	0.00e+00	0	43	0	1160773632	58	5082
2026-01-26 11:11:31.10	330.99	10.38	-43.6	-46.4	17.2	0.00e+00	0	43	0	1166016512	58	5052
2026-01-26 11:11:34.09	331.23	10.15	-43.5	-46.4	17.2	0.00e+00	0	43	0	1172307968	58	5042
2026-01-26 11:11:37.07	331.47	9.91	-43.5	-46.3	17.1	0.00e+00	0	43	0	1177550848	58	5027
2026-01-26 11:11:40.05	331.70	9.68	-43.1	-45.8	17.6	0.00e+00	0	43	0	1182793728	58	4716
2026-01-26 11:11:43.04	331.93	9.46	-43.2	-45.9	17.5	0.00e+00	0	43	0	1189085184	58	4810
2026-01-26 11:11:46.02	332.15	9.23	-43.1	-45.8	17.6	0.00e+00	0	43	0	1194328064	58	4714
2026-01-26 11:11:49.00	332.37	9.00	-43.3	-46.1	17.3	0.00e+00	0	43	0	1199570944	58	4871
2026-01-26 11:11:51.98	332.59	8.78	-49.5	-65.1	3.8	1.49e+00	0	43	104	1201668096	70	21870
2026-01-26 11:11:54.96	332.81	8.56	-49.6	-65.4	3.8	1.49e+00	0	43	104	1201668096	70	22682
2026-01-26 11:11:57.94	333.02	8.34	-49.1	-65.5	3.8	1.49e+00	0	43	104	1201668096	69	24203
2026-01-26 11:12:00.92	333.23	8.12	-50.2	-65.5	3.8	1.49e+00	0	43	104	1201668096	71	21675
2026-01-26 11:12:03.90	333.44	7.91	-50.2	-65.5	3.8	1.49e+00	0	43	104	1201668096	71	21735
2026-01-26 11:12:06.88	333.64	7.69	-50.3	-65.5	3.8	1.49e+00	0	43	104	1201668096	71	21616
2026-01-26 11:12:09.86	333.84	7.48	-50.2	-65.4	3.8	1.49e+00	0	43	104	1201668096	71	21477
2026-01-26 11:12:12.84	334.04	7.27	-50.1	-65.5	3.8	1.49e+00	0	43	104	1201668096	71	21546
2026-01-26 11:12:15.82	334.24	7.05	-50.0	-65.4	3.8	1.49e+00	0	43	104	1201668096	71	21441
2026-01-26 11:12:18.80	334.43	6.85	-50.0	-65.4	3.8	1.49e+00	0	43	104	1201668096	71	21391
2026-01-26 11:12:21.78	334.62	6.64	-50.0	-65.4	3.8	1.49e+00	0	42	104	1201668096	71	21360
2026-01-26 11:12:24.76	334.81	6.43	-50.0	-65.4	3.8	1.49e+00	0	43	104	1201668096	71	21298
2026-01-26 11:12:27.74	335.00	6.23	-50.0	-65.4	3.8	1.49e+00	0	43	104	1201668096	71	21327
2026-01-26 11:12:30.72	335.18	6.02	-50.0	-65.4	3.8	1.49e+00	0	43	104	1201668096	71	21393
2026-01-26 11:12:33.69	335.36	5.82	-50.0	-65.4	3.8	1.49e+00	0	43	104	1201668096	71	21338
2026-01-26 11:12:36.67	335.54	5.62	-50.0	-65.3	3.8	1.49e+00	0	43	104	1201668096	71	21247
2026-01-26 11:12:39.65	335.72	5.42	-49.9	-65.4	3.8	1.49e+00	0	43	104	1201668096	71	21274
2026-01-26 11:12:42.63	335.89	5.22	-49.9	-65.3	3.8	1.49e+00	0	43	104	1201668096	71	21251
2026-01-26 11:12:45.61	336.06	5.03	-49.9	-65.3	3.8	1.49e+00	0	43	104	1201668096	71	21204

#Closed at: 2026-01-26 11:12:47
#Recorded file [1201 MB]: D:/Data/31040_260126_140031.dat