passes_logs/2026/01/26/T1/T1__20260126_115701_FENGYUN_3D_rec.log

#Pass ID: 20260126_115701_FENGYUN 3D
#Satellite: FENGYUN 3D
#Configuration: FENGYUN 3D
#almurnet v.1.7.20251203
#Start time: 2026-01-26 11:57:01

#Version: 2.0.20230620
#Station: T1
#Location: 37.570604 lon 55.790049 lat
#TLE: 1 43010U 17072A   26025.85700374 -.00000071  00000+0 -11715-4 0  9992
#TLE: 2 43010  98.9962 357.8423 0002518  90.2035 269.9429 14.19699460424796

#Time	Az	El	Level	Level2	SNR	BER	BlckErr	Temp	State	Recorded	gain1	gain2
2026-01-26 11:57:01.43	158.72	5.00	-49.7	-61.9	3.8	8.47e-01	0	40	0	0	70	15143
2026-01-26 11:57:05.39	158.72	5.29	-49.5	-61.7	3.8	8.48e-01	0	40	104	0	71	13889
2026-01-26 11:57:09.37	158.72	5.58	-49.6	-61.9	3.8	8.48e-01	0	40	104	0	71	14213
2026-01-26 11:57:13.34	158.72	5.87	-49.4	-60.7	3.8	8.46e-01	0	41	104	0	70	13228
2026-01-26 11:57:17.31	158.71	6.17	-49.3	-59.4	3.8	8.45e-01	0	41	104	0	70	11315
2026-01-26 11:57:21.28	158.71	6.47	-49.4	-60.1	3.8	8.46e-01	0	41	104	0	70	12244
2026-01-26 11:57:25.26	158.71	6.77	-49.5	-61.6	3.8	8.47e-01	0	41	104	0	70	14619
2026-01-26 11:57:29.23	158.71	7.08	-49.5	-61.0	3.8	8.47e-01	0	41	104	0	70	13631
2026-01-26 11:57:33.21	158.70	7.39	-48.8	-56.9	4.6	8.21e-01	0	41	0	0	69	9009
2026-01-26 11:57:37.18	158.70	7.71	-46.6	-51.0	9.3	2.89e-02	0	41	0	14680064	65	5774
2026-01-26 11:57:41.15	158.69	8.02	-44.5	-47.5	13.0	9.72e-05	0	41	0	37748736	61	4860
2026-01-26 11:57:45.13	158.69	8.35	-43.7	-46.5	14.0	5.70e-06	0	41	0	59768832	59	4823
2026-01-26 11:57:49.10	158.69	8.67	-44.9	-48.1	12.4	1.10e-04	0	41	0	81788928	60	5479
2026-01-26 11:57:53.07	158.68	9.01	-47.6	-53.2	7.1	1.14e-01	0	41	0	103809024	65	7436
2026-01-26 11:57:57.05	158.68	9.34	-40.6	-42.7	17.6	0.00e+00	0	42	0	119537664	53	4409
2026-01-26 11:58:01.03	158.67	9.68	-40.0	-42.1	18.3	0.00e+00	0	42	0	136314880	51	4602
2026-01-26 11:58:05.01	158.67	10.03	-39.4	-41.5	18.9	8.78e-03	0	42	0	158334976	50	4547
2026-01-26 11:58:08.99	158.66	10.38	-39.2	-41.2	19.2	0.00e+00	0	42	0	180355072	50	4393
2026-01-26 11:58:12.97	158.65	10.74	-39.1	-41.0	19.3	0.00e+00	0	42	0	203423744	50	4333
2026-01-26 11:58:16.95	158.65	11.10	-39.1	-41.0	19.3	0.00e+00	0	42	0	225443840	50	4319
2026-01-26 11:58:20.93	158.64	11.47	-39.1	-41.1	19.2	0.00e+00	0	42	0	248512512	50	4360
2026-01-26 11:58:24.91	158.63	11.84	-39.0	-40.9	19.4	0.00e+00	0	42	0	270532608	49	4524
2026-01-26 11:58:28.89	158.62	12.22	-38.7	-40.6	19.7	0.00e+00	0	42	0	292552704	49	4390
2026-01-26 11:58:32.86	158.61	12.60	-38.7	-40.6	19.7	0.00e+00	0	42	0	314572800	49	4359
2026-01-26 11:58:36.84	158.60	12.99	-38.6	-40.5	19.9	1.47e-03	0	42	0	337641472	49	4292
2026-01-26 11:58:40.83	158.59	13.39	-38.3	-40.1	20.2	0.00e+00	0	42	0	359661568	48	4382
2026-01-26 11:58:44.81	158.58	13.79	-38.2	-40.1	20.2	0.00e+00	0	42	0	381681664	48	4361
2026-01-26 11:58:48.79	158.57	14.20	-37.8	-39.6	20.4	0.00e+00	0	42	0	404750336	47	4379
2026-01-26 11:58:52.76	158.56	14.62	-37.6	-39.5	20.5	0.00e+00	0	42	0	426770432	47	4299
2026-01-26 11:58:56.74	158.55	15.04	-37.5	-39.4	20.6	0.00e+00	0	42	0	449839104	47	4251
2026-01-26 11:59:00.72	158.53	15.47	-37.5	-39.3	20.7	0.00e+00	0	42	0	471859200	46	4483
2026-01-26 11:59:04.70	158.52	15.91	-37.3	-39.2	20.8	0.00e+00	0	42	0	493879296	46	4403
2026-01-26 11:59:08.68	158.50	16.36	-37.4	-39.2	20.8	0.00e+00	0	42	0	516947968	46	4418
2026-01-26 11:59:12.67	158.49	16.82	-37.1	-39.0	21.0	0.00e+00	0	42	0	538968064	46	4294
2026-01-26 11:59:16.65	158.47	17.28	-37.1	-38.9	18.5	0.00e+00	0	43	0	560988160	46	4266
2026-01-26 11:59:20.63	158.46	17.76	-36.7	-38.5	21.4	0.00e+00	0	42	0	584056832	45	4309
2026-01-26 11:59:24.61	158.44	18.24	-36.5	-38.3	21.6	0.00e+00	0	42	0	606076928	45	4212
2026-01-26 11:59:28.59	158.42	18.74	-36.4	-38.2	21.7	0.00e+00	0	42	0	628097024	44	4412
2026-01-26 11:59:32.56	158.40	19.24	-36.4	-38.2	21.7	0.00e+00	0	42	0	651165696	44	4396
2026-01-26 11:59:36.54	158.38	19.75	-36.6	-38.4	21.5	0.00e+00	0	42	0	673185792	44	4500
2026-01-26 11:59:40.52	158.35	20.28	-36.6	-38.4	21.5	0.00e+00	0	43	0	695205888	44	4521
2026-01-26 11:59:44.50	158.33	20.81	-36.6	-38.4	21.4	0.00e+00	0	42	0	718274560	44	4520
2026-01-26 11:59:48.48	158.31	21.36	-36.5	-38.3	21.5	0.00e+00	0	43	0	740294656	44	4478
2026-01-26 11:59:52.47	158.28	21.92	-36.4	-38.2	21.7	0.00e+00	0	42	0	762314752	44	4393
2026-01-26 11:59:56.44	158.25	22.49	-36.1	-37.9	21.9	0.00e+00	0	43	0	785383424	44	4248
2026-01-26 12:00:00.42	158.22	23.08	-35.8	-37.6	22.1	0.00e+00	0	42	0	807403520	43	4343
2026-01-26 12:00:04.41	158.19	23.68	-35.7	-37.4	22.2	0.00e+00	0	43	0	829423616	43	4283
2026-01-26 12:00:08.39	158.16	24.29	-35.7	-37.5	22.2	0.00e+00	0	43	0	852492288	43	4299
2026-01-26 12:00:12.37	158.13	24.92	-35.6	-37.4	22.2	0.00e+00	0	43	0	874512384	43	4261
2026-01-26 12:00:16.35	158.09	25.56	-35.7	-37.4	22.2	0.00e+00	0	43	0	897581056	43	4276
2026-01-26 12:00:20.33	158.06	26.22	-35.7	-37.4	22.3	0.00e+00	0	43	0	919601152	43	4270
2026-01-26 12:00:24.31	158.02	26.90	-35.4	-37.1	22.5	0.00e+00	0	43	0	941621248	42	4389
2026-01-26 12:00:28.30	157.97	27.59	-35.6	-37.4	22.2	0.00e+00	0	43	0	964689920	42	4496
2026-01-26 12:00:32.27	157.93	28.30	-35.6	-37.4	22.2	0.00e+00	0	43	0	986710016	42	4502
2026-01-26 12:00:36.25	157.88	29.03	-35.6	-37.4	22.1	0.00e+00	0	42	0	1008730112	42	4524
2026-01-26 12:00:40.23	157.83	29.78	-35.5	-37.3	22.2	0.00e+00	0	43	0	1031798784	42	4463
2026-01-26 12:00:44.20	157.78	30.55	-35.0	-36.8	22.6	0.00e+00	0	43	0	1053818880	42	4217
2026-01-26 12:00:48.18	157.72	31.34	-34.8	-36.5	22.9	0.00e+00	0	43	0	1075838976	41	4331
2026-01-26 12:00:52.17	157.66	32.15	-35.0	-36.7	22.7	0.00e+00	0	43	0	1098907648	41	4432
2026-01-26 12:00:56.15	157.60	32.98	-35.2	-36.9	22.5	0.00e+00	0	43	0	1120927744	41	4535
2026-01-26 12:01:00.13	157.53	33.84	-35.1	-36.8	22.7	0.00e+00	0	43	0	1143996416	41	4484
2026-01-26 12:01:04.11	157.46	34.73	-34.8	-36.6	22.9	0.00e+00	0	43	0	1166016512	41	4354
2026-01-26 12:01:08.09	157.39	35.63	-34.7	-36.4	23.0	0.00e+00	0	43	0	1188036608	41	4257
2026-01-26 12:01:12.06	157.30	36.57	-34.7	-36.4	23.0	0.00e+00	0	42	0	1210056704	41	4286
2026-01-26 12:01:16.04	157.22	37.53	-34.7	-36.4	23.0	0.00e+00	0	43	0	1233125376	41	4266
2026-01-26 12:01:20.02	157.12	38.52	-34.6	-36.3	23.1	0.00e+00	0	43	0	1255145472	40	4486
2026-01-26 12:01:24.00	157.02	39.54	-35.3	-37.0	22.5	0.00e+00	0	43	0	1278214144	41	4581
2026-01-26 12:01:27.99	156.92	40.60	-35.7	-37.5	22.2	0.00e+00	0	43	0	1300234240	42	4555
2026-01-26 12:01:31.97	156.80	41.68	-35.6	-37.3	22.3	0.00e+00	0	43	0	1322254336	42	4482
2026-01-26 12:01:35.95	156.68	42.79	-35.2	-36.9	22.7	0.00e+00	0	43	0	1345323008	42	4255
2026-01-26 12:01:39.93	156.54	43.95	-35.2	-36.9	22.7	0.00e+00	0	43	0	1367343104	42	4285
2026-01-26 12:01:43.91	156.40	45.13	-35.4	-37.1	22.6	0.00e+00	0	43	0	1389363200	42	4370
2026-01-26 12:01:47.89	156.24	46.35	-35.2	-36.9	22.8	0.00e+00	0	43	0	1412431872	42	4257
2026-01-26 12:01:51.86	156.07	47.61	-34.9	-36.6	23.0	0.00e+00	0	43	0	1434451968	41	4363
2026-01-26 12:01:55.84	155.88	48.90	-35.4	-37.2	22.6	0.00e+00	0	43	0	1456472064	41	4654
2026-01-26 12:01:59.82	155.68	50.24	-36.1	-37.8	22.1	0.00e+00	0	43	0	1479540736	43	4475
2026-01-26 12:02:03.81	155.45	51.61	-36.2	-37.9	22.0	0.00e+00	0	43	0	1501560832	43	4535
2026-01-26 12:02:07.79	155.20	53.03	-36.2	-37.9	21.9	0.00e+00	0	43	0	1523580928	43	4525
2026-01-26 12:02:11.77	154.93	54.48	-36.6	-38.4	21.5	0.00e+00	0	43	0	1546649600	43	4762
2026-01-26 12:02:15.75	154.62	55.98	-36.1	-37.9	22.1	0.00e+00	0	43	0	1568669696	44	4262
2026-01-26 12:02:19.73	154.28	57.51	-36.1	-37.9	22.2	0.00e+00	0	43	0	1590689792	44	4246
2026-01-26 12:02:23.71	153.89	59.09	-35.5	-37.2	22.5	0.00e+00	0	43	0	1613758464	42	4400
2026-01-26 12:02:27.69	153.45	60.71	-35.4	-37.1	22.6	0.00e+00	0	43	0	1635778560	42	4354
2026-01-26 12:02:31.67	152.95	62.36	-35.5	-37.2	22.6	0.00e+00	0	43	0	1657798656	42	4426
2026-01-26 12:02:35.65	152.37	64.06	-34.5	-36.1	23.4	0.00e+00	0	43	0	1680867328	41	4144
2026-01-26 12:02:39.63	151.70	65.79	-34.6	-36.3	23.2	0.00e+00	0	43	0	1702887424	40	4493
2026-01-26 12:02:43.61	150.91	67.56	-34.7	-36.5	23.1	0.00e+00	0	43	0	1725956096	40	4551
2026-01-26 12:02:47.59	149.96	69.36	-33.9	-35.5	23.9	0.00e+00	0	43	0	1747976192	39	4312
2026-01-26 12:02:51.56	148.82	71.18	-33.9	-35.6	23.8	0.00e+00	0	43	0	1769996288	39	4370
2026-01-26 12:02:55.55	147.41	73.04	-33.8	-35.5	24.0	0.00e+00	0	43	0	1793064960	39	4296
2026-01-26 12:02:59.52	145.63	74.90	-33.6	-35.3	23.9	0.00e+00	0	43	0	1815085056	38	4465
2026-01-26 12:03:03.50	143.32	76.78	-33.4	-35.1	24.0	0.00e+00	0	43	0	1837105152	38	4363
2026-01-26 12:03:07.48	140.22	78.66	-32.8	-34.5	24.5	0.00e+00	0	43	0	1860173824	37	4304
2026-01-26 12:03:11.46	135.86	80.50	-32.3	-34.0	24.9	0.00e+00	0	43	0	1882193920	36	4293
2026-01-26 12:03:15.44	129.39	82.29	-32.1	-33.8	25.0	0.00e+00	0	42	0	1904214016	36	4209
2026-01-26 12:03:19.42	119.21	83.92	-31.7	-33.3	24.5	0.00e+00	0	43	0	1927282688	34	4487
2026-01-26 12:03:23.40	102.46	85.25	-32.5	-34.2	23.9	0.00e+00	0	43	0	1949302784	35	4691
2026-01-26 12:03:27.38	77.00	85.92	-32.5	-34.1	23.8	0.00e+00	0	43	0	1971322880	35	4646
2026-01-26 12:03:31.35	49.19	85.63	-33.3	-35.0	24.1	0.00e+00	0	43	0	1994391552	37	4561
2026-01-26 12:03:35.34	28.78	84.52	-32.8	-34.4	24.5	0.00e+00	0	43	0	2016411648	37	4277
2026-01-26 12:03:39.31	16.32	82.99	-32.7	-34.4	24.7	0.00e+00	0	43	0	2038431744	36	4502
2026-01-26 12:03:43.29	8.58	81.26	-32.3	-33.9	25.0	0.00e+00	0	43	0	2061500416	36	4262
2026-01-26 12:03:47.28	3.47	79.43	-32.5	-34.1	24.9	0.00e+00	0	43	0	2083520512	36	4355
2026-01-26 12:03:51.26	359.92	77.56	-33.2	-34.9	24.3	0.00e+00	0	43	0	2105540608	37	4534
2026-01-26 12:03:55.24	357.32	75.69	-33.4	-35.0	24.2	0.00e+00	0	43	0	2128609280	37	4598
2026-01-26 12:03:59.21	355.35	73.82	-33.7	-35.4	24.0	0.00e+00	0	43	0	2150629376	38	4514
2026-01-26 12:04:03.19	353.80	71.96	-33.9	-35.5	23.8	0.00e+00	0	43	0	2173698048	38	4598
2026-01-26 12:04:07.17	352.56	70.13	-34.1	-35.8	23.7	0.00e+00	0	43	0	2195718144	38	4725
2026-01-26 12:04:11.15	351.54	68.32	-34.2	-35.9	23.6	0.00e+00	0	43	0	2217738240	40	4259
2026-01-26 12:04:15.13	350.69	66.54	-34.1	-35.8	23.6	0.00e+00	0	43	0	2240806912	40	4217
2026-01-26 12:04:19.11	349.97	64.80	-34.2	-35.8	23.7	0.00e+00	0	43	0	2262827008	40	4241
2026-01-26 12:04:23.09	349.36	63.09	-34.2	-35.9	23.7	0.00e+00	0	43	0	2284847104	40	4243
2026-01-26 12:04:27.07	348.83	61.43	-34.6	-36.3	23.4	0.00e+00	0	43	0	2306867200	40	4478
2026-01-26 12:04:31.05	348.37	59.80	-35.3	-37.0	22.7	0.00e+00	0	43	0	2329935872	41	4561
2026-01-26 12:04:35.03	347.96	58.21	-35.6	-37.4	22.5	0.00e+00	0	43	0	2351955968	41	4780
2026-01-26 12:04:39.02	347.60	56.65	-35.8	-37.6	22.3	0.00e+00	0	43	0	2375024640	42	4610
2026-01-26 12:04:43.00	347.28	55.15	-36.2	-38.0	21.9	0.00e+00	0	43	0	2397044736	43	4572
2026-01-26 12:04:46.98	346.99	53.68	-36.3	-38.0	21.9	0.00e+00	0	43	0	2419064832	43	4565
2026-01-26 12:04:50.96	346.74	52.25	-35.8	-37.5	22.7	0.00e+00	0	43	0	2442133504	43	4311
2026-01-26 12:04:54.95	346.50	50.87	-35.5	-37.2	23.1	0.00e+00	0	43	0	2464153600	43	4156
2026-01-26 12:04:58.92	346.29	49.52	-35.0	-36.7	23.5	0.00e+00	0	43	0	2486173696	41	4394
2026-01-26 12:05:02.90	346.10	48.22	-34.9	-36.5	23.6	0.00e+00	0	43	0	2509242368	41	4326
2026-01-26 12:05:06.88	345.92	46.95	-35.2	-36.8	23.3	0.00e+00	0	43	0	2531262464	41	4488
2026-01-26 12:05:10.86	345.76	45.71	-35.1	-36.8	23.4	0.00e+00	0	43	0	2553282560	41	4465
2026-01-26 12:05:14.84	345.61	44.52	-35.2	-36.8	23.4	0.00e+00	0	43	0	2576351232	41	4463
2026-01-26 12:05:18.82	345.47	43.36	-35.3	-36.9	23.2	0.00e+00	0	43	0	2598371328	41	4539
2026-01-26 12:05:22.79	345.34	42.23	-35.2	-36.8	23.3	0.00e+00	0	43	0	2621440000	41	4471
2026-01-26 12:05:26.78	345.23	41.14	-34.6	-36.2	23.8	0.00e+00	0	43	0	2643460096	41	4193
2026-01-26 12:05:30.75	345.12	40.08	-34.6	-36.2	23.6	0.00e+00	0	42	0	2665480192	41	4183
2026-01-26 12:05:34.74	345.02	39.05	-34.2	-35.8	24.2	0.00e+00	0	43	0	2688548864	40	4216
2026-01-26 12:05:38.72	344.92	38.05	-34.1	-35.6	24.3	0.00e+00	0	43	0	2710568960	40	4143
2026-01-26 12:05:42.69	344.84	37.08	-34.7	-36.4	23.7	0.00e+00	0	43	0	2732589056	40	4529
2026-01-26 12:05:46.68	344.75	36.13	-34.9	-36.6	23.5	0.00e+00	0	43	0	2754609152	40	4619
2026-01-26 12:05:50.66	344.68	35.22	-34.5	-36.1	23.9	0.00e+00	0	43	0	2777677824	40	4361
2026-01-26 12:05:54.64	344.61	34.33	-34.5	-36.1	23.9	0.00e+00	0	43	0	2799697920	40	4375
2026-01-26 12:05:58.61	344.54	33.46	-34.9	-36.6	23.5	0.00e+00	0	43	0	2822766592	40	4604
2026-01-26 12:06:02.59	344.48	32.62	-35.2	-37.0	23.2	0.00e+00	0	43	0	2844786688	41	4547
2026-01-26 12:06:06.57	344.42	31.80	-35.2	-36.9	23.2	0.00e+00	0	43	0	2866806784	41	4498
2026-01-26 12:06:10.55	344.36	31.01	-35.0	-36.7	23.4	0.00e+00	0	43	0	2889875456	41	4409
2026-01-26 12:06:14.53	344.31	30.23	-34.9	-36.5	23.5	0.00e+00	0	43	0	2911895552	41	4336
2026-01-26 12:06:18.51	344.26	29.48	-35.0	-36.6	23.4	0.00e+00	0	43	0	2933915648	41	4384
2026-01-26 12:06:22.50	344.21	28.74	-34.9	-36.6	23.4	0.00e+00	0	43	0	2956984320	41	4377
2026-01-26 12:06:26.47	344.17	28.02	-35.0	-36.6	23.4	0.00e+00	0	43	0	2979004416	41	4367
2026-01-26 12:06:30.45	344.13	27.33	-34.8	-36.4	23.6	0.00e+00	0	43	0	3001024512	41	4264
2026-01-26 12:06:34.43	344.09	26.64	-35.0	-36.7	23.4	0.00e+00	0	43	0	3024093184	41	4393
2026-01-26 12:06:38.41	344.06	25.98	-35.2	-36.9	23.2	0.00e+00	0	43	0	3046113280	41	4514
2026-01-26 12:06:42.40	344.02	25.33	-35.5	-37.2	22.9	0.00e+00	0	43	0	3069181952	41	4657
2026-01-26 12:06:46.38	343.99	24.70	-35.4	-37.1	23.0	0.00e+00	0	43	0	3091202048	41	4616
2026-01-26 12:06:50.36	343.96	24.08	-35.5	-37.2	22.9	0.00e+00	0	43	0	3113222144	41	4661
2026-01-26 12:06:54.33	343.93	23.48	-35.6	-37.2	22.9	0.00e+00	0	43	0	3136290816	41	4686
2026-01-26 12:06:58.31	343.90	22.89	-35.8	-37.5	22.7	0.00e+00	0	43	0	3158310912	42	4565
2026-01-26 12:07:02.29	343.88	22.31	-35.9	-37.6	22.5	0.00e+00	0	43	0	3180331008	42	4637
2026-01-26 12:07:06.28	343.85	21.75	-36.1	-37.9	22.3	0.00e+00	0	43	0	3202351104	42	4791
2026-01-26 12:07:10.26	343.83	21.20	-36.1	-37.8	22.3	0.00e+00	0	43	0	3225419776	42	4756
2026-01-26 12:07:14.23	343.81	20.66	-36.1	-37.8	22.4	0.00e+00	0	43	0	3247439872	43	4447
2026-01-26 12:07:18.21	343.79	20.13	-36.2	-37.9	22.2	0.00e+00	0	43	0	3270508544	43	4539
2026-01-26 12:07:22.19	343.77	19.62	-36.3	-38.0	22.2	0.00e+00	0	43	0	3292528640	43	4557
2026-01-26 12:07:26.16	343.75	19.11	-36.5	-38.1	22.0	0.00e+00	0	43	0	3314548736	43	4649
2026-01-26 12:07:30.14	343.74	18.61	-36.5	-38.2	22.0	0.00e+00	0	43	0	3337617408	43	4666
2026-01-26 12:07:34.12	343.72	18.13	-36.6	-38.3	21.9	0.00e+00	0	43	0	3359637504	43	4746
2026-01-26 12:07:38.10	343.71	17.65	-36.9	-38.7	21.6	0.00e+00	0	43	0	3381657600	44	4687
2026-01-26 12:07:42.07	343.69	17.19	-37.1	-38.9	21.5	0.00e+00	0	43	0	3403677696	44	4782
2026-01-26 12:07:46.05	343.68	16.73	-37.2	-39.0	21.3	0.00e+00	0	43	0	3426746368	45	4580
2026-01-26 12:07:50.03	343.67	16.28	-37.3	-39.1	21.2	0.00e+00	0	43	0	3448766464	45	4644
2026-01-26 12:07:54.02	343.66	15.83	-37.3	-39.2	21.2	0.00e+00	0	43	0	3471835136	45	4671
2026-01-26 12:07:58.00	343.65	15.40	-37.4	-39.2	21.1	0.00e+00	0	43	0	3493855232	45	4701
2026-01-26 12:08:01.97	343.64	14.97	-37.6	-39.4	20.9	0.00e+00	0	43	0	3515875328	45	4793
2026-01-26 12:08:05.95	343.63	14.55	-37.6	-39.4	20.9	0.00e+00	0	43	0	3538944000	45	4801
2026-01-26 12:08:09.93	343.62	14.14	-37.6	-39.6	20.8	0.00e+00	0	43	0	3560964096	46	4618
2026-01-26 12:08:13.91	343.61	13.74	-37.7	-39.7	20.7	0.00e+00	0	43	0	3582984192	46	4654
2026-01-26 12:08:17.89	343.61	13.34	-37.8	-39.8	20.6	0.00e+00	0	43	0	3606052864	46	4709
2026-01-26 12:08:21.87	343.60	12.95	-38.0	-39.9	20.4	0.00e+00	0	43	0	3628072960	46	4809
2026-01-26 12:08:25.85	343.60	12.56	-38.1	-40.0	20.3	0.00e+00	0	43	0	3650093056	46	4844
2026-01-26 12:08:29.83	343.59	12.18	-38.1	-40.1	20.2	0.00e+00	0	43	0	3673161728	47	4612
2026-01-26 12:08:33.81	343.59	11.81	-38.2	-40.2	20.1	0.00e+00	0	43	0	3695181824	47	4683
2026-01-26 12:08:37.79	343.58	11.44	-38.3	-40.3	20.0	0.00e+00	0	43	0	3718250496	47	4732
2026-01-26 12:08:41.77	343.58	11.07	-38.4	-40.4	19.9	0.00e+00	0	43	0	3740270592	47	4792
2026-01-26 12:08:45.75	343.58	10.72	-38.4	-40.5	19.8	0.00e+00	0	43	0	3762290688	47	4840
2026-01-26 12:08:49.73	343.57	10.36	-38.4	-40.6	19.7	0.00e+00	0	43	0	3784310784	47	4874
2026-01-26 12:08:53.71	343.57	10.02	-38.4	-40.6	19.6	0.00e+00	0	43	0	3807379456	47	4925
2026-01-26 12:08:57.69	343.57	9.67	-38.4	-40.7	19.5	0.00e+00	0	43	0	3829399552	47	4981
2026-01-26 12:09:01.67	343.57	9.34	-38.5	-40.9	19.3	0.00e+00	0	43	0	3851419648	47	5051
2026-01-26 12:09:05.65	343.57	9.00	-40.5	-43.4	17.2	0.00e+00	0	43	0	3874488320	51	5364
2026-01-26 12:09:09.62	343.57	8.68	-49.8	-62.2	3.8	8.47e-01	0	43	104	3876585472	70	15735
2026-01-26 12:09:13.59	343.57	8.35	-50.0	-62.4	3.8	8.46e-01	0	43	104	3876585472	70	16057
2026-01-26 12:09:17.56	343.57	8.03	-50.2	-62.4	3.8	8.47e-01	0	43	104	3876585472	71	15132
2026-01-26 12:09:21.54	343.57	7.71	-50.2	-62.4	3.8	8.47e-01	0	43	104	3876585472	71	15215
2026-01-26 12:09:25.51	343.57	7.40	-50.3	-62.4	3.8	8.47e-01	0	43	104	3876585472	71	15070
2026-01-26 12:09:29.48	343.57	7.09	-50.2	-62.4	3.8	8.47e-01	0	43	104	3876585472	71	15095
2026-01-26 12:09:33.45	343.57	6.79	-50.0	-62.3	3.8	8.47e-01	0	43	104	3876585472	71	15024
2026-01-26 12:09:37.43	343.58	6.49	-50.0	-62.3	3.8	8.48e-01	0	43	104	3876585472	71	14959
2026-01-26 12:09:41.40	343.58	6.19	-50.0	-62.3	3.8	8.46e-01	0	43	104	3876585472	71	14942
2026-01-26 12:09:45.37	343.58	5.90	-50.0	-62.3	3.8	8.47e-01	0	43	104	3876585472	71	14960
2026-01-26 12:09:49.34	343.58	5.61	-49.9	-62.3	3.8	8.47e-01	0	43	104	3876585472	71	14921
2026-01-26 12:09:53.31	343.59	5.32	-49.9	-62.3	3.8	8.47e-01	0	43	104	3876585472	71	14918
2026-01-26 12:09:57.29	343.59	5.03	-50.0	-62.3	3.8	8.47e-01	0	43	104	3876585472	71	14929

#Closed at: 2026-01-26 12:09:59
#Recorded file [3876 MB]: D:/Data/31040_260126_145701.dat