passes_logs/2026/01/26/T1/T1__20260126_003946_NOAA_21_JPSS-2_rec.log

#Pass ID: 20260126_003946_NOAA 21 (JPSS-2)
#Satellite: NOAA 21 (JPSS-2)
#Configuration: NOAA 21
#almurnet v.1.7.20251203
#Start time: 2026-01-26 00:39:47

#Version: 2.0.20230620
#Station: T1
#Location: 37.570604 lon 55.790049 lat
#TLE: 1 54234U 22150A   26025.44451686  .00000186  00000+0  10896-3 0  9992
#TLE: 2 54234  98.7509 326.2184 0000763 215.1852 144.9274 14.19539183166293

#Time	Az	El	Level	Level2	SNR	BER	BlckErr	Temp	State	Recorded	gain1	gain2
2026-01-26 00:39:47.50	10.38	5.09	-45.7	-61.0	3.8	1.49e+00	0	36	0	0	61	23014
2026-01-26 00:39:50.48	10.24	5.29	-46.0	-61.0	3.8	1.49e+00	0	37	104	0	62	21565
2026-01-26 00:39:53.46	10.10	5.49	-46.0	-61.0	3.8	1.49e+00	0	37	104	0	62	21527
2026-01-26 00:39:56.44	9.95	5.70	-46.0	-60.9	3.8	1.49e+00	0	37	104	0	62	21503
2026-01-26 00:39:59.42	9.80	5.90	-46.0	-61.0	3.8	1.49e+00	0	37	104	0	62	21526
2026-01-26 00:40:02.40	9.65	6.11	-46.0	-61.0	3.8	1.49e+00	0	37	104	0	62	21569
2026-01-26 00:40:05.37	9.50	6.32	-46.0	-61.0	3.8	1.49e+00	0	37	104	0	62	21571
2026-01-26 00:40:08.35	9.35	6.53	-46.0	-60.8	3.8	1.49e+00	0	37	104	0	62	21189
2026-01-26 00:40:11.33	9.19	6.75	-45.9	-60.2	3.8	1.49e+00	0	37	104	0	62	19811
2026-01-26 00:40:14.31	9.03	6.96	-45.9	-58.8	3.9	1.49e+00	0	37	104	0	62	16794
2026-01-26 00:40:17.29	8.87	7.18	-45.8	-58.4	3.9	1.48e+00	0	37	104	0	62	15957
2026-01-26 00:40:20.27	8.70	7.39	-45.9	-58.5	4.0	1.48e+00	0	37	104	0	62	16215
2026-01-26 00:40:23.25	8.54	7.61	-45.9	-60.2	3.8	1.49e+00	0	37	104	0	62	19689
2026-01-26 00:40:26.23	8.37	7.83	-46.0	-61.0	3.8	1.49e+00	0	37	104	0	62	21538
2026-01-26 00:40:29.21	8.19	8.06	-45.8	-58.4	3.9	1.48e+00	0	37	104	0	62	16053
2026-01-26 00:40:32.19	8.02	8.28	-44.7	-51.5	8.2	9.60e-02	0	38	0	0	61	7656
2026-01-26 00:40:35.17	7.84	8.51	-43.1	-47.1	12.6	1.27e-04	0	38	0	0	58	5508
2026-01-26 00:40:38.15	7.66	8.73	-42.0	-45.3	14.5	3.00e-06	0	37	0	0	56	4996
2026-01-26 00:40:41.12	7.47	8.96	-42.1	-45.6	14.0	1.50e-06	0	38	0	0	55	5481
2026-01-26 00:40:44.11	7.29	9.19	-42.0	-45.2	14.4	0.00e+00	0	38	0	0	54	5582
2026-01-26 00:40:47.09	7.09	9.43	-39.7	-41.9	17.7	0.00e+00	0	38	0	0	51	4522
2026-01-26 00:40:50.08	6.90	9.66	-39.2	-41.3	18.3	0.00e+00	0	38	0	0	50	4457
2026-01-26 00:40:53.14	6.70	9.91	-39.0	-41.0	18.5	0.00e+00	0	38	0	0	50	4314
2026-01-26 00:40:56.09	6.50	10.14	-38.9	-40.9	18.5	0.00e+00	0	38	0	0	49	4543
2026-01-26 00:40:59.25	6.28	10.40	-38.7	-40.7	18.8	0.00e+00	0	38	0	0	49	4430
2026-01-26 00:41:02.10	6.08	10.63	-38.6	-40.6	18.9	0.00e+00	0	38	0	0	49	4382
2026-01-26 00:41:05.23	5.86	10.89	-38.5	-40.5	19.0	0.00e+00	0	38	0	0	49	4335
2026-01-26 00:41:08.07	5.65	11.12	-38.4	-40.4	19.1	0.00e+00	0	38	0	0	48	4530
2026-01-26 00:41:11.20	5.42	11.38	-38.5	-40.4	19.1	0.00e+00	0	38	0	0	48	4526
2026-01-26 00:41:14.13	5.20	11.63	-38.5	-40.4	19.1	0.00e+00	0	38	0	0	48	4533
2026-01-26 00:41:17.11	4.97	11.88	-38.7	-40.6	18.9	0.00e+00	0	38	0	0	48	4635
2026-01-26 00:41:20.45	4.71	12.17	-38.6	-40.5	19.0	0.00e+00	0	38	0	0	48	4587
2026-01-26 00:41:23.18	4.50	12.41	-38.6	-40.5	19.1	0.00e+00	0	38	0	0	48	4553
2026-01-26 00:41:26.46	4.23	12.69	-38.4	-40.3	19.2	0.00e+00	0	38	0	0	48	4456
2026-01-26 00:41:29.18	4.01	12.93	-38.4	-40.3	19.2	0.00e+00	0	38	0	0	48	4444
2026-01-26 00:41:32.51	3.73	13.23	-38.5	-40.4	19.0	0.00e+00	0	38	0	0	48	4536
2026-01-26 00:41:35.24	3.49	13.47	-38.5	-40.4	19.1	0.00e+00	0	38	0	0	48	4511
2026-01-26 00:41:38.51	3.21	13.77	-38.4	-40.3	19.3	0.00e+00	0	38	0	0	48	4456
2026-01-26 00:41:41.21	2.97	14.02	-38.4	-40.4	19.2	0.00e+00	0	38	0	0	48	4502
2026-01-26 00:41:45.11	2.61	14.37	-38.3	-40.2	19.4	0.00e+00	0	38	0	0	48	4428
2026-01-26 00:41:47.94	2.35	14.64	-38.3	-40.2	19.4	0.00e+00	0	38	0	0	48	4418
2026-01-26 00:41:51.35	2.03	14.96	-38.2	-40.1	19.5	0.00e+00	0	38	0	0	48	4366
2026-01-26 00:41:54.27	1.75	15.24	-38.1	-40.0	19.5	0.00e+00	0	38	0	0	48	4339
2026-01-26 00:41:58.24	1.35	15.62	-38.2	-40.2	19.4	0.00e+00	0	38	0	0	48	4416
2026-01-26 00:42:01.08	1.07	15.89	-38.3	-40.2	19.4	0.00e+00	0	38	0	0	48	4414
2026-01-26 00:42:05.15	0.64	16.29	-38.4	-40.3	19.3	0.00e+00	0	38	0	0	48	4481
2026-01-26 00:42:08.00	0.34	16.57	-38.6	-40.5	19.2	0.00e+00	0	38	0	0	48	4570
2026-01-26 00:42:11.64	359.95	16.93	-38.4	-40.3	19.4	0.00e+00	0	38	0	0	48	4471
2026-01-26 00:42:14.83	359.59	17.26	-38.5	-40.4	19.3	0.00e+00	0	38	0	0	48	4514
2026-01-26 00:42:17.68	359.27	17.55	-38.6	-40.4	19.2	0.00e+00	0	38	0	0	48	4534
2026-01-26 00:42:20.90	358.90	17.88	-38.5	-40.3	19.3	0.00e+00	0	38	0	0	48	4481
2026-01-26 00:42:23.74	358.56	18.17	-38.5	-40.4	19.3	0.00e+00	0	38	0	0	48	4517
2026-01-26 00:42:26.96	358.17	18.51	-38.5	-40.4	19.4	0.00e+00	0	38	0	0	48	4500
2026-01-26 00:42:29.80	357.82	18.81	-38.3	-40.2	19.5	0.00e+00	0	38	0	0	48	4417
2026-01-26 00:42:32.93	357.42	19.14	-38.2	-39.9	19.7	0.00e+00	0	38	0	0	48	4280
2026-01-26 00:42:35.77	357.06	19.44	-38.0	-39.8	19.7	0.00e+00	0	38	0	0	48	4207
2026-01-26 00:42:38.89	356.65	19.78	-38.2	-39.9	19.7	0.00e+00	0	38	0	0	48	4282
2026-01-26 00:42:41.81	356.25	20.10	-38.0	-39.7	19.9	0.00e+00	0	38	0	0	48	4186
2026-01-26 00:42:45.27	355.78	20.48	-37.6	-39.3	20.2	0.00e+00	0	38	0	0	47	4227
2026-01-26 00:42:47.97	355.40	20.78	-37.5	-39.2	20.4	0.00e+00	0	38	0	0	47	4173
2026-01-26 00:42:51.25	354.92	21.15	-37.3	-39.0	20.4	0.00e+00	0	38	0	0	46	4302
2026-01-26 00:42:54.00	354.52	21.46	-37.3	-38.9	20.4	0.00e+00	0	38	0	0	46	4287
2026-01-26 00:42:57.60	353.97	21.87	-37.3	-39.0	20.4	0.00e+00	0	38	0	0	46	4306
2026-01-26 00:43:00.30	353.56	22.18	-37.0	-38.6	20.8	0.00e+00	0	38	0	0	46	4137
2026-01-26 00:43:03.60	353.04	22.56	-36.8	-38.5	20.9	0.00e+00	0	38	0	0	45	4304
2026-01-26 00:43:06.50	352.57	22.90	-37.0	-38.7	20.7	0.00e+00	0	38	0	0	45	4396
2026-01-26 00:43:09.49	352.07	23.25	-36.9	-38.5	20.8	0.00e+00	0	38	0	0	45	4336
2026-01-26 00:43:12.47	351.57	23.61	-36.8	-38.5	20.8	0.00e+00	0	38	0	0	45	4335
2026-01-26 00:43:15.45	351.05	23.96	-36.9	-38.6	20.7	0.00e+00	0	38	0	0	45	4374
2026-01-26 00:43:18.53	350.50	24.33	-37.1	-38.8	20.6	0.00e+00	0	38	0	0	45	4488
2026-01-26 00:43:21.40	349.98	24.68	-37.4	-39.1	20.4	0.00e+00	0	38	0	0	45	4624
2026-01-26 00:43:24.71	349.36	25.08	-37.8	-39.5	20.0	0.00e+00	0	38	0	0	46	4585
2026-01-26 00:43:27.50	348.83	25.42	-38.0	-39.8	19.8	0.00e+00	0	38	0	0	46	4746
2026-01-26 00:43:30.63	348.22	25.80	-37.9	-39.7	19.9	0.00e+00	0	38	0	0	46	4692
2026-01-26 00:43:33.70	347.61	26.18	-38.1	-39.9	19.6	0.00e+00	0	38	0	0	46	4782
2026-01-26 00:43:36.83	346.97	26.57	-38.5	-40.3	19.2	0.00e+00	0	38	0	0	47	4743
2026-01-26 00:43:39.81	346.34	26.93	-38.4	-40.3	19.4	0.00e+00	0	38	0	0	47	4728
2026-01-26 00:43:42.80	345.70	27.31	-38.1	-39.9	19.7	0.00e+00	0	38	0	0	47	4506
2026-01-26 00:43:45.78	345.04	27.68	-38.0	-39.8	19.7	0.00e+00	0	38	0	0	47	4451
2026-01-26 00:43:48.85	344.35	28.06	-38.2	-40.0	19.6	0.00e+00	0	38	0	0	47	4556
2026-01-26 00:43:51.72	343.69	28.42	-38.0	-39.9	19.8	0.00e+00	0	38	0	0	47	4496
2026-01-26 00:43:54.85	342.95	28.82	-38.0	-39.8	19.7	0.00e+00	0	38	0	0	47	4463
2026-01-26 00:43:57.69	342.26	29.17	-38.2	-39.9	19.6	0.00e+00	0	38	0	0	47	4526
2026-01-26 00:44:00.82	341.48	29.56	-37.9	-39.6	19.9	0.00e+00	0	38	0	0	47	4378
2026-01-26 00:44:03.75	340.74	29.93	-37.9	-39.6	19.9	0.00e+00	0	38	0	0	47	4389
2026-01-26 00:44:06.88	339.92	30.32	-38.0	-39.8	19.8	0.00e+00	0	38	0	0	47	4458
2026-01-26 00:44:09.79	339.15	30.68	-38.0	-39.8	19.8	0.00e+00	0	38	0	0	47	4475
2026-01-26 00:44:13.09	338.25	31.09	-37.9	-39.8	19.8	0.00e+00	0	38	0	0	47	4458
2026-01-26 00:44:15.80	337.49	31.42	-38.1	-39.9	19.8	0.00e+00	0	38	0	0	47	4525
2026-01-26 00:44:19.03	336.57	31.82	-38.1	-39.9	19.7	0.00e+00	0	38	0	0	47	4512
2026-01-26 00:44:21.88	335.74	32.17	-38.4	-40.2	19.4	0.00e+00	0	38	0	0	47	4666
2026-01-26 00:44:25.01	334.80	32.54	-38.8	-40.6	19.1	0.00e+00	0	38	0	0	48	4631
2026-01-26 00:44:27.93	333.91	32.89	-38.6	-40.5	19.3	0.00e+00	0	38	0	0	48	4592
2026-01-26 00:44:31.09	332.92	33.26	-38.6	-40.4	19.4	0.00e+00	0	38	0	0	48	4545
2026-01-26 00:44:34.42	331.86	33.64	-38.9	-40.7	19.1	0.00e+00	0	38	0	0	48	4674
2026-01-26 00:44:37.13	330.97	33.95	-38.8	-40.6	19.3	0.00e+00	0	38	0	0	48	4608
2026-01-26 00:44:40.54	329.83	34.33	-38.8	-40.6	19.1	0.00e+00	0	38	0	0	48	4646
2026-01-26 00:44:43.26	328.91	34.63	-38.9	-40.7	19.1	0.00e+00	0	38	0	0	48	4688
2026-01-26 00:44:46.53	327.77	34.98	-38.9	-40.7	19.1	0.00e+00	0	38	0	0	48	4677
2026-01-26 00:44:49.24	326.81	35.27	-39.0	-40.9	18.9	0.00e+00	0	38	0	0	48	4780
2026-01-26 00:44:52.52	325.62	35.60	-39.1	-40.9	18.9	0.00e+00	0	38	0	0	49	4514
2026-01-26 00:44:55.25	324.61	35.87	-39.1	-40.9	18.9	0.00e+00	0	38	0	0	49	4537
2026-01-26 00:44:58.52	323.39	36.18	-38.5	-40.4	19.4	0.00e+00	0	38	0	0	49	4249
2026-01-26 00:45:01.26	322.34	36.43	-38.8	-40.7	19.1	0.00e+00	0	38	0	0	48	4693
2026-01-26 00:45:04.64	321.03	36.73	-38.8	-40.6	19.2	0.00e+00	0	38	0	0	48	4621
2026-01-26 00:45:07.70	319.82	36.99	-39.2	-41.1	18.8	0.00e+00	0	38	0	0	49	4609
2026-01-26 00:45:10.97	318.50	37.25	-39.0	-40.8	19.0	0.00e+00	0	38	0	0	49	4444
2026-01-26 00:45:13.67	317.40	37.45	-39.8	-41.7	18.2	0.00e+00	0	38	0	0	50	4677
2026-01-26 00:45:16.96	316.05	37.68	-40.2	-42.2	17.8	0.00e+00	0	38	0	0	51	4674
2026-01-26 00:45:19.67	314.91	37.86	-40.4	-42.4	17.6	0.00e+00	0	38	0	0	51	4807
2026-01-26 00:45:23.22	313.41	38.08	-40.1	-42.1	18.0	0.00e+00	0	38	0	0	51	4605
2026-01-26 00:45:25.94	312.24	38.23	-40.3	-42.2	17.8	0.00e+00	0	38	0	0	51	4702
2026-01-26 00:45:29.22	310.82	38.40	-39.9	-41.8	18.2	0.00e+00	0	38	0	0	51	4476
2026-01-26 00:45:31.95	309.63	38.52	-39.4	-41.3	18.7	0.00e+00	0	38	0	0	50	4460
2026-01-26 00:45:35.28	308.17	38.65	-39.7	-41.6	18.4	0.00e+00	0	38	0	0	50	4638
2026-01-26 00:45:38.00	306.96	38.74	-39.5	-41.4	18.7	0.00e+00	0	38	0	0	50	4498
2026-01-26 00:45:41.22	305.53	38.83	-39.3	-41.1	18.8	0.00e+00	0	38	0	0	50	4382
2026-01-26 00:45:44.20	304.19	38.90	-39.7	-41.6	18.3	0.00e+00	0	38	0	0	50	4632
2026-01-26 00:45:47.18	302.86	38.94	-40.0	-41.9	18.1	0.00e+00	0	38	0	0	50	4792
2026-01-26 00:45:50.15	301.52	38.97	-39.6	-41.4	18.5	0.00e+00	0	38	0	0	50	4543
2026-01-26 00:45:53.16	300.16	38.98	-40.0	-41.9	18.1	0.00e+00	0	38	0	0	50	4776
2026-01-26 00:45:56.48	298.66	38.98	-40.2	-42.2	17.8	0.00e+00	0	38	0	0	51	4674
2026-01-26 00:45:59.21	297.43	38.95	-40.1	-42.1	17.9	0.00e+00	0	38	0	0	51	4610
2026-01-26 00:46:02.49	295.96	38.90	-39.9	-41.8	18.1	0.00e+00	0	38	0	0	51	4488
2026-01-26 00:46:05.21	294.74	38.85	-39.4	-41.2	18.6	0.00e+00	0	38	0	0	50	4401
2026-01-26 00:46:08.48	293.28	38.76	-39.6	-41.5	18.3	0.00e+00	0	38	0	0	50	4550
2026-01-26 00:46:11.24	292.05	38.67	-39.8	-41.7	18.2	0.00e+00	0	38	0	0	50	4679
2026-01-26 00:46:14.65	290.55	38.54	-39.9	-41.8	18.2	0.00e+00	0	38	0	0	50	4743
2026-01-26 00:46:17.67	289.23	38.41	-39.5	-41.3	18.6	0.00e+00	0	38	0	0	50	4475
2026-01-26 00:46:20.96	287.80	38.24	-39.3	-41.1	18.8	0.00e+00	0	38	0	0	50	4370
2026-01-26 00:46:23.69	286.63	38.09	-39.0	-40.8	19.1	0.00e+00	0	38	0	0	49	4443
2026-01-26 00:46:26.96	285.24	37.89	-39.3	-41.2	18.8	0.00e+00	0	38	0	0	49	4652
2026-01-26 00:46:29.67	284.10	37.71	-39.9	-41.8	18.2	0.00e+00	0	38	0	0	50	4712
2026-01-26 00:46:32.96	282.74	37.48	-40.3	-42.3	17.7	0.00e+00	0	38	0	0	51	4728
2026-01-26 00:46:35.69	281.62	37.28	-40.0	-41.9	18.1	0.00e+00	0	38	0	0	51	4508
2026-01-26 00:46:38.97	280.30	37.02	-39.4	-41.2	18.7	0.00e+00	0	38	0	0	50	4431
2026-01-26 00:46:41.70	279.22	36.79	-39.2	-41.0	19.0	0.00e+00	0	38	0	0	50	4295
2026-01-26 00:46:45.05	277.91	36.50	-39.5	-41.4	18.6	0.00e+00	0	38	0	0	50	4497
2026-01-26 00:46:47.86	276.82	36.24	-38.7	-40.4	19.3	0.00e+00	0	38	0	0	49	4273
2026-01-26 00:46:51.46	275.47	35.90	-39.1	-40.9	19.1	0.00e+00	0	38	0	0	48	4777
2026-01-26 00:46:54.41	274.37	35.61	-39.8	-41.7	18.3	0.00e+00	0	38	0	0	50	4686
2026-01-26 00:46:58.39	272.93	35.20	-38.7	-40.4	19.3	0.00e+00	0	38	0	0	49	4263
2026-01-26 00:47:01.35	271.88	34.89	-38.8	-40.6	19.3	0.00e+00	0	38	0	0	48	4614
2026-01-26 00:47:04.64	270.74	34.53	-39.1	-40.9	19.0	0.00e+00	0	38	0	0	48	4775
2026-01-26 00:47:07.38	269.81	34.23	-38.9	-40.6	19.2	0.00e+00	0	38	0	0	48	4651
2026-01-26 00:47:10.78	268.67	33.85	-39.7	-41.7	18.3	0.00e+00	0	38	0	0	50	4657
2026-01-26 00:47:13.49	267.79	33.53	-38.9	-40.6	19.2	0.00e+00	0	38	0	0	49	4367
2026-01-26 00:47:16.77	266.74	33.15	-38.6	-40.3	19.5	0.00e+00	0	38	0	0	48	4475
2026-01-26 00:47:19.51	265.89	32.83	-39.6	-41.4	18.5	0.00e+00	0	38	0	0	49	4796
2026-01-26 00:47:22.80	264.88	32.43	-38.3	-40.0	19.8	0.00e+00	0	38	0	0	48	4308
2026-01-26 00:47:25.51	264.07	32.11	-37.7	-39.4	20.1	0.00e+00	0	38	0	0	47	4246
2026-01-26 00:47:28.80	263.11	31.70	-38.0	-39.7	19.6	0.00e+00	0	38	0	0	47	4431
2026-01-26 00:47:31.72	262.28	31.35	-37.6	-39.3	20.1	0.00e+00	0	38	0	0	47	4195
2026-01-26 00:47:34.70	261.45	30.98	-37.9	-39.6	19.8	0.00e+00	0	38	0	0	47	4388
2026-01-26 00:47:37.74	260.62	30.60	-38.9	-40.7	18.9	0.00e+00	0	38	0	0	48	4689
2026-01-26 00:47:40.74	259.82	30.22	-38.3	-40.0	19.6	0.00e+00	0	38	0	0	48	4304
2026-01-26 00:47:43.72	259.04	29.85	-37.5	-39.2	20.4	0.00e+00	0	38	0	0	47	4161
2026-01-26 00:47:46.70	258.28	29.47	-37.9	-39.6	20.1	0.00e+00	0	38	0	0	47	4358
2026-01-26 00:47:49.69	257.54	29.10	-38.0	-39.8	19.8	0.00e+00	0	38	0	0	47	4443
2026-01-26 00:47:52.67	256.82	28.72	-37.8	-39.5	20.1	0.00e+00	0	38	0	0	47	4293
2026-01-26 00:47:55.74	256.09	28.34	-37.7	-39.4	20.2	0.00e+00	0	38	0	0	47	4252
2026-01-26 00:47:58.64	255.42	27.97	-37.6	-39.3	20.3	0.00e+00	0	38	0	0	47	4209
2026-01-26 00:48:01.63	254.75	27.60	-37.5	-39.2	20.3	0.00e+00	0	38	0	0	47	4158
2026-01-26 00:48:04.61	254.09	27.22	-37.5	-39.2	20.3	0.00e+00	0	38	0	0	47	4181
2026-01-26 00:48:07.60	253.44	26.85	-38.0	-39.7	19.5	0.00e+00	0	38	0	0	47	4431
2026-01-26 00:48:10.58	252.82	26.48	-38.0	-39.8	19.5	0.00e+00	0	38	0	0	47	4465
2026-01-26 00:48:13.56	252.20	26.11	-37.6	-39.3	20.1	0.00e+00	0	38	0	0	47	4211
2026-01-26 00:48:16.55	251.60	25.74	-37.4	-39.1	20.3	0.00e+00	0	38	0	0	46	4360
2026-01-26 00:48:19.53	251.02	25.37	-38.2	-40.0	19.6	0.00e+00	0	38	0	0	47	4554
2026-01-26 00:48:22.51	250.45	25.00	-38.1	-39.8	19.8	0.00e+00	0	38	0	0	47	4490
2026-01-26 00:48:25.54	249.88	24.63	-37.6	-39.3	20.2	0.00e+00	0	38	0	0	47	4209
2026-01-26 00:48:28.38	249.36	24.29	-37.4	-39.1	20.5	0.00e+00	0	38	0	0	46	4369
2026-01-26 00:48:31.50	248.80	23.91	-36.9	-38.6	21.0	0.00e+00	0	38	0	0	45	4342
2026-01-26 00:48:34.35	248.31	23.57	-37.4	-39.0	20.5	0.00e+00	0	38	0	0	45	4586
2026-01-26 00:48:37.48	247.77	23.20	-37.7	-39.4	20.1	0.00e+00	0	38	0	0	46	4531
2026-01-26 00:48:40.37	247.29	22.86	-37.5	-39.2	20.4	0.00e+00	0	38	0	0	46	4402
2026-01-26 00:48:43.65	246.75	22.48	-37.6	-39.3	20.2	0.00e+00	0	38	0	0	46	4470
2026-01-26 00:48:46.35	246.32	22.16	-37.8	-39.5	20.0	0.00e+00	0	38	0	0	46	4559
2026-01-26 00:48:49.63	245.81	21.78	-37.6	-39.3	20.1	0.00e+00	0	38	0	0	46	4488
2026-01-26 00:48:52.45	245.38	21.46	-37.7	-39.4	20.1	0.00e+00	0	38	0	0	46	4505
2026-01-26 00:48:55.73	244.90	21.09	-37.8	-39.5	19.9	0.00e+00	0	38	0	0	46	4590
2026-01-26 00:48:58.46	244.50	20.78	-37.9	-39.6	19.7	0.00e+00	0	38	0	0	46	4616
2026-01-26 00:49:01.76	244.03	20.41	-38.0	-39.7	19.7	0.00e+00	0	38	0	0	46	4685
2026-01-26 00:49:04.71	243.62	20.08	-37.9	-39.6	19.9	0.00e+00	0	38	0	0	46	4620
2026-01-26 00:49:07.85	243.19	19.74	-37.6	-39.3	20.2	0.00e+00	0	38	0	0	46	4464
2026-01-26 00:49:10.69	242.81	19.43	-37.4	-39.1	20.3	0.00e+00	0	38	0	0	46	4384
2026-01-26 00:49:14.14	242.36	19.06	-37.6	-39.4	20.1	0.00e+00	0	38	0	0	46	4508
2026-01-26 00:49:16.89	242.01	18.76	-37.7	-39.4	20.2	0.00e+00	0	38	0	0	46	4513
2026-01-26 00:49:20.17	241.61	18.41	-37.4	-39.0	20.4	0.00e+00	0	38	0	0	46	4330
2026-01-26 00:49:23.07	241.25	18.11	-37.3	-38.9	20.4	0.00e+00	0	38	0	0	46	4286
2026-01-26 00:49:26.19	240.88	17.78	-37.6	-39.3	20.1	0.00e+00	0	38	0	0	46	4449
2026-01-26 00:49:29.03	240.55	17.49	-37.8	-39.5	20.0	0.00e+00	0	38	0	0	46	4554
2026-01-26 00:49:32.16	240.19	17.17	-37.9	-39.6	19.9	0.00e+00	0	38	0	0	46	4642
2026-01-26 00:49:35.00	239.87	16.88	-38.2	-39.9	19.6	0.00e+00	0	38	0	0	46	4810
2026-01-26 00:49:38.13	239.53	16.57	-38.3	-40.1	19.3	0.00e+00	0	38	0	0	47	4635
2026-01-26 00:49:41.30	239.19	16.25	-38.6	-40.4	19.0	0.00e+00	0	38	0	0	47	4796
2026-01-26 00:49:44.14	238.89	15.97	-38.4	-40.3	19.1	0.00e+00	0	38	0	0	47	4710
2026-01-26 00:49:47.27	238.56	15.67	-38.7	-40.5	18.9	0.00e+00	0	38	0	0	47	4846
2026-01-26 00:49:50.17	238.27	15.39	-38.5	-40.3	19.3	0.00e+00	0	38	0	0	48	4467
2026-01-26 00:49:53.41	237.95	15.08	-38.6	-40.3	19.3	0.00e+00	0	38	0	0	48	4478
2026-01-26 00:49:56.33	237.66	14.80	-38.8	-40.7	19.0	0.00e+00	0	38	0	0	48	4656
2026-01-26 00:49:59.60	237.35	14.49	-38.9	-40.8	18.9	0.00e+00	0	38	0	0	48	4716
2026-01-26 00:50:02.44	237.09	14.23	-39.1	-40.9	18.7	0.00e+00	0	38	0	0	48	4805
2026-01-26 00:50:05.59	236.80	13.93	-39.2	-41.0	18.5	0.00e+00	0	38	0	0	49	4590
2026-01-26 00:50:08.46	236.54	13.67	-38.9	-40.8	18.7	0.00e+00	0	38	0	0	49	4450
2026-01-26 00:50:11.59	236.26	13.39	-38.5	-40.3	19.0	0.00e+00	0	38	0	0	49	4237
2026-01-26 00:50:14.43	236.02	13.13	-38.5	-40.3	19.1	0.00e+00	0	38	0	0	49	4219
2026-01-26 00:50:17.55	235.75	12.85	-38.4	-40.2	19.3	0.00e+00	0	38	0	0	48	4405
2026-01-26 00:50:20.78	235.48	12.57	-38.6	-40.4	19.1	0.00e+00	0	38	0	0	48	4532
2026-01-26 00:50:23.85	235.23	12.30	-38.9	-40.7	18.9	0.00e+00	0	38	0	0	48	4684
2026-01-26 00:50:26.69	235.00	12.05	-39.0	-40.9	18.8	0.00e+00	0	38	0	0	48	4767
2026-01-26 00:50:29.82	234.75	11.78	-39.1	-41.0	18.6	0.00e+00	0	38	0	0	48	4864
2026-01-26 00:50:32.66	234.53	11.54	-39.2	-41.1	18.5	0.00e+00	0	38	0	0	49	4632
2026-01-26 00:50:36.05	234.28	11.25	-39.3	-41.2	18.3	0.00e+00	0	38	0	0	49	4705
2026-01-26 00:50:38.76	234.07	11.03	-39.4	-41.3	18.3	0.00e+00	0	38	0	0	49	4731
2026-01-26 00:50:42.06	233.83	10.75	-39.3	-41.2	18.3	0.00e+00	0	38	0	0	49	4656
2026-01-26 00:50:44.77	233.63	10.53	-39.3	-41.1	18.3	0.00e+00	0	38	0	0	49	4645
2026-01-26 00:50:48.06	233.40	10.26	-39.3	-41.2	18.3	0.00e+00	0	38	0	0	49	4652
2026-01-26 00:50:51.26	233.18	10.00	-39.2	-41.1	18.3	0.00e+00	0	38	0	0	49	4613
2026-01-26 00:50:54.28	232.97	9.76	-39.1	-41.0	18.4	0.00e+00	0	38	0	0	49	4564
2026-01-26 00:50:57.26	232.77	9.52	-39.4	-41.3	18.1	0.00e+00	0	38	0	0	49	4736
2026-01-26 00:51:00.25	232.57	9.28	-39.4	-41.3	18.1	0.00e+00	0	38	0	0	49	4759
2026-01-26 00:51:03.24	232.38	9.05	-39.5	-41.4	18.0	0.00e+00	0	38	0	0	49	4812
2026-01-26 00:51:06.22	232.19	8.82	-47.6	-61.3	3.8	1.49e+00	0	38	104	0	66	17819
2026-01-26 00:51:09.53	231.98	8.56	-48.6	-61.6	3.8	1.49e+00	0	38	104	0	67	17293
2026-01-26 00:51:12.45	231.80	8.34	-48.6	-61.6	3.8	1.49e+00	0	38	104	0	67	17359
2026-01-26 00:51:15.79	231.60	8.08	-48.7	-61.8	3.8	1.49e+00	0	38	104	0	68	16802
2026-01-26 00:51:18.49	231.44	7.88	-48.7	-61.9	3.8	1.49e+00	0	38	104	0	68	16909
2026-01-26 00:51:21.78	231.24	7.64	-48.8	-61.8	3.8	1.49e+00	0	38	104	0	68	16839
2026-01-26 00:51:24.48	231.09	7.44	-48.6	-61.8	3.8	1.49e+00	0	38	104	0	68	16849
2026-01-26 00:51:27.76	230.90	7.19	-48.5	-61.8	3.8	1.49e+00	0	38	104	0	68	16729
2026-01-26 00:51:30.46	230.75	7.00	-48.5	-61.7	3.8	1.49e+00	0	38	104	0	68	16622
2026-01-26 00:51:33.72	230.57	6.76	-48.5	-61.7	3.8	1.49e+00	0	38	104	0	68	16617
2026-01-26 00:51:36.43	230.42	6.57	-48.5	-61.7	3.8	1.49e+00	0	38	104	0	68	16554
2026-01-26 00:51:39.71	230.24	6.33	-48.5	-61.7	3.8	1.49e+00	0	38	104	0	68	16581
2026-01-26 00:51:42.42	230.10	6.14	-48.5	-61.7	3.8	1.49e+00	0	38	104	0	68	16556
2026-01-26 00:51:45.70	229.93	5.91	-48.5	-61.7	3.8	1.49e+00	0	38	104	0	68	16554
2026-01-26 00:51:48.40	229.79	5.72	-48.5	-61.7	3.8	1.49e+00	0	38	104	0	68	16516
2026-01-26 00:51:51.66	229.63	5.49	-48.5	-61.6	3.8	1.49e+00	0	38	104	0	68	16490
2026-01-26 00:51:54.37	229.49	5.31	-48.4	-61.6	3.8	1.49e+00	0	38	104	0	68	16489
2026-01-26 00:51:57.65	229.33	5.08	-48.5	-61.6	3.8	1.49e+00	0	38	104	0	68	16482

#Closed at: 2026-01-26 00:52:00
#Recorded file [0 MB]: D:/Data/31040_260126_033947.dat