passes_logs/2026/01/26/T1/T1__20260126_231017_SUOMI_NPP_rec.log

#Pass ID: 20260126_231017_SUOMI NPP
#Satellite: SUOMI NPP
#Configuration: NPP
#almurnet v.1.7.20251203
#Start time: 2026-01-26 23:10:18

#Version: 2.0.20230620
#Station: T1
#Location: 37.570604 lon 55.790049 lat
#TLE: 1 37849U 11061A   26026.52266023  .00000173  00000+0  10323-3 0  9994
#TLE: 2 37849  98.7822 328.4727 0002140  43.9411 316.1934 14.19530258738341

#Time	Az	El	Level	Level2	SNR	BER	BlckErr	Temp	State	Recorded	gain1	gain2
2026-01-26 23:10:18.87	20.76	5.09	-48.7	-64.5	3.8	1.49e+00	0	41	0	0	68	22874
2026-01-26 23:10:22.85	20.91	5.36	-48.5	-64.3	3.8	1.49e+00	0	41	104	0	67	23769
2026-01-26 23:10:26.84	21.06	5.64	-48.5	-64.3	3.8	1.49e+00	0	41	104	0	67	23692
2026-01-26 23:10:30.83	21.22	5.93	-48.5	-64.3	3.8	1.49e+00	0	42	104	0	67	23829
2026-01-26 23:10:34.81	21.37	6.21	-48.5	-64.3	3.8	1.49e+00	0	42	104	0	67	23767
2026-01-26 23:10:38.80	21.53	6.50	-48.5	-64.3	3.8	1.49e+00	0	42	104	0	67	23693
2026-01-26 23:10:42.79	21.69	6.79	-48.5	-64.1	3.8	1.49e+00	0	42	104	0	67	23071
2026-01-26 23:10:46.77	21.86	7.09	-48.4	-63.4	3.8	1.49e+00	0	42	104	0	67	21410
2026-01-26 23:10:50.76	22.02	7.39	-48.4	-62.5	3.8	1.49e+00	0	42	104	0	67	19242
2026-01-26 23:10:54.75	22.20	7.69	-48.4	-62.3	3.8	1.49e+00	0	42	104	0	67	18920
2026-01-26 23:10:58.73	22.37	7.99	-48.4	-62.6	3.8	1.49e+00	0	42	104	0	67	19582
2026-01-26 23:11:02.72	22.55	8.30	-48.4	-62.0	3.9	1.49e+00	0	42	104	0	67	18144
2026-01-26 23:11:06.70	22.73	8.62	-48.1	-58.7	5.0	8.03e-01	0	42	0	2097152	67	12418
2026-01-26 23:11:10.68	22.91	8.93	-47.3	-54.4	8.5	6.63e-02	0	43	0	9437184	66	8021
2026-01-26 23:11:14.68	23.10	9.25	-47.0	-53.5	9.4	5.24e-01	0	43	0	17825792	66	7265
2026-01-26 23:11:18.68	23.29	9.58	-44.3	-47.5	15.6	0.00e+00	0	43	0	24117248	60	5137
2026-01-26 23:11:22.68	23.49	9.91	-44.0	-47.1	16.1	0.00e+00	0	43	0	31457280	59	5193
2026-01-26 23:11:26.69	23.69	10.24	-43.9	-47.0	16.2	0.00e+00	0	43	0	38797312	59	5111
2026-01-26 23:11:30.70	23.89	10.58	-43.6	-46.6	16.5	0.00e+00	0	43	0	47185920	59	4903
2026-01-26 23:11:34.70	24.10	10.92	-43.8	-46.8	16.4	0.00e+00	0	43	0	54525952	59	5010
2026-01-26 23:11:38.71	24.32	11.27	-43.5	-46.5	16.8	0.00e+00	0	43	0	61865984	58	5117
2026-01-26 23:11:42.71	24.53	11.62	-43.5	-46.4	16.9	0.00e+00	0	43	0	69206016	58	5044
2026-01-26 23:11:46.71	24.76	11.98	-43.1	-45.9	17.3	0.00e+00	0	43	0	76546048	57	5067
2026-01-26 23:11:50.71	24.99	12.34	-42.9	-45.6	17.6	0.00e+00	0	43	0	83886080	57	4898
2026-01-26 23:11:54.72	25.22	12.70	-42.6	-45.3	17.8	0.00e+00	0	43	0	91226112	57	4758
2026-01-26 23:11:58.72	25.46	13.08	-42.3	-44.9	18.2	0.00e+00	0	43	0	99614720	56	4790
2026-01-26 23:12:02.73	25.70	13.45	-42.4	-45.0	18.2	0.00e+00	0	43	0	106954752	56	4820
2026-01-26 23:12:06.73	25.95	13.84	-42.1	-44.5	18.6	0.00e+00	0	43	0	114294784	56	4578
2026-01-26 23:12:10.73	26.21	14.22	-42.2	-44.7	18.5	0.00e+00	0	43	0	121634816	56	4691
2026-01-26 23:12:14.73	26.47	14.62	-42.0	-44.5	18.7	0.00e+00	0	43	0	128974848	56	4562
2026-01-26 23:12:18.74	26.74	15.02	-41.8	-44.3	18.7	0.00e+00	0	43	0	136314880	55	4713
2026-01-26 23:12:22.74	27.02	15.42	-41.7	-44.2	18.8	0.00e+00	0	43	0	144703488	55	4692
2026-01-26 23:12:26.75	27.31	15.84	-41.5	-44.0	19.0	0.00e+00	0	43	0	152043520	55	4558
2026-01-26 23:12:30.76	27.60	16.26	-41.6	-44.1	18.9	0.00e+00	0	43	0	159383552	54	4881
2026-01-26 23:12:34.76	27.90	16.68	-41.5	-44.0	19.1	0.00e+00	0	43	0	166723584	54	4818
2026-01-26 23:12:38.77	28.20	17.11	-41.5	-43.9	19.2	0.00e+00	0	43	0	174063616	54	4767
2026-01-26 23:12:42.77	28.52	17.55	-41.6	-43.9	19.2	0.00e+00	0	43	0	181403648	54	4763
2026-01-26 23:12:46.78	28.85	18.00	-41.8	-44.0	19.0	0.00e+00	0	43	0	189792256	54	4865
2026-01-26 23:12:50.78	29.18	18.45	-41.8	-44.1	19.0	0.00e+00	0	43	0	197132288	54	4883
2026-01-26 23:12:54.79	29.52	18.92	-41.7	-43.9	19.2	0.00e+00	0	43	0	204472320	54	4809
2026-01-26 23:12:58.79	29.88	19.39	-41.4	-43.6	19.4	0.00e+00	0	43	0	211812352	54	4646
2026-01-26 23:13:02.79	30.24	19.86	-41.6	-43.9	19.1	0.00e+00	0	43	0	219152384	54	4793
2026-01-26 23:13:06.80	30.62	20.35	-41.7	-44.0	19.1	0.00e+00	0	43	0	226492416	54	4837
2026-01-26 23:13:10.80	31.01	20.84	-41.6	-43.8	19.3	0.00e+00	0	43	0	234881024	54	4726
2026-01-26 23:13:14.80	31.40	21.35	-41.9	-44.3	18.9	0.00e+00	0	43	0	242221056	54	4987
2026-01-26 23:13:18.81	31.82	21.86	-41.9	-44.2	18.9	0.00e+00	0	43	0	249561088	54	4967
2026-01-26 23:13:22.81	32.24	22.38	-41.4	-43.7	19.0	0.00e+00	0	43	0	256901120	54	4663
2026-01-26 23:13:26.82	32.68	22.91	-41.4	-43.7	19.4	0.00e+00	0	44	0	264241152	54	4657
2026-01-26 23:13:30.83	33.14	23.45	-41.9	-44.3	18.9	0.00e+00	0	43	0	271581184	54	4994
2026-01-26 23:13:34.83	33.61	24.00	-41.6	-43.9	19.3	0.00e+00	0	43	0	279969792	54	4774
2026-01-26 23:13:38.84	34.10	24.56	-41.8	-44.1	19.0	0.00e+00	0	43	0	287309824	54	4892
2026-01-26 23:13:42.84	34.60	25.13	-42.0	-44.4	18.8	0.00e+00	0	44	0	294649856	54	5053
2026-01-26 23:13:46.85	35.12	25.71	-42.2	-44.6	18.6	0.00e+00	0	43	0	301989888	55	4875
2026-01-26 23:13:50.85	35.66	26.30	-42.3	-44.7	18.5	0.00e+00	0	44	0	309329920	55	4947
2026-01-26 23:13:54.86	36.22	26.90	-42.7	-45.1	18.3	0.00e+00	0	43	0	316669952	56	4889
2026-01-26 23:13:58.86	36.80	27.51	-43.0	-45.5	18.0	0.00e+00	0	43	0	324009984	56	5136
2026-01-26 23:14:02.87	37.41	28.14	-43.0	-45.5	17.9	0.00e+00	0	43	0	332398592	56	5119
2026-01-26 23:14:06.88	38.04	28.77	-43.9	-46.6	16.9	0.00e+00	0	43	0	339738624	58	5217
2026-01-26 23:14:10.89	38.69	29.42	-44.2	-47.2	16.4	0.00e+00	0	43	0	347078656	59	5246
2026-01-26 23:14:14.89	39.37	30.07	-43.9	-46.7	16.8	0.00e+00	0	44	0	354418688	59	4935
2026-01-26 23:14:18.90	40.07	30.74	-43.7	-46.5	17.0	0.00e+00	0	44	0	361758720	59	4820
2026-01-26 23:14:22.90	40.81	31.41	-43.4	-46.1	17.4	0.00e+00	0	44	0	369098752	58	4904
2026-01-26 23:14:26.90	41.57	32.10	-44.0	-46.9	16.6	0.00e+00	0	43	0	377487360	58	5350
2026-01-26 23:14:30.90	42.37	32.80	-43.6	-46.3	17.3	0.00e+00	0	43	0	384827392	58	4984
2026-01-26 23:14:34.91	43.21	33.51	-42.5	-44.9	18.5	0.00e+00	0	43	0	392167424	56	4776
2026-01-26 23:14:38.92	44.08	34.23	-43.1	-45.6	17.9	0.00e+00	0	44	0	399507456	57	4888
2026-01-26 23:14:42.92	44.98	34.95	-43.3	-46.0	17.5	0.00e+00	0	44	0	406847488	57	5116
2026-01-26 23:14:46.93	45.94	35.69	-42.9	-45.4	18.1	0.00e+00	0	44	0	414187520	57	4765
2026-01-26 23:14:50.94	46.93	36.44	-42.7	-45.2	18.2	0.00e+00	0	43	0	422576128	56	4936
2026-01-26 23:14:54.94	47.97	37.19	-42.6	-45.0	18.4	0.00e+00	0	44	0	429916160	56	4852
2026-01-26 23:14:58.94	49.05	37.95	-42.4	-44.8	18.6	0.00e+00	0	43	0	437256192	56	4738
2026-01-26 23:15:02.95	50.19	38.71	-42.5	-44.9	18.5	0.00e+00	0	44	0	444596224	56	4795
2026-01-26 23:15:06.95	51.39	39.48	-42.6	-45.0	18.5	0.00e+00	0	43	0	451936256	56	4826
2026-01-26 23:15:10.95	52.64	40.25	-42.4	-44.7	18.6	0.00e+00	0	44	0	459276288	56	4696
2026-01-26 23:15:14.97	53.95	41.03	-42.4	-44.8	18.5	0.00e+00	0	43	0	466616320	55	4994
2026-01-26 23:15:18.97	55.32	41.80	-42.6	-45.0	18.4	0.00e+00	0	44	0	475004928	57	4570
2026-01-26 23:15:22.98	56.77	42.58	-42.7	-45.2	18.2	0.00e+00	0	44	0	482344960	56	4951
2026-01-26 23:15:26.99	58.28	43.34	-41.9	-44.2	19.1	0.00e+00	0	43	0	489684992	56	4419
2026-01-26 23:15:31.00	59.87	44.10	-42.6	-45.0	18.3	0.00e+00	0	44	0	497025024	56	4857
2026-01-26 23:15:35.00	61.52	44.85	-43.1	-45.5	17.9	0.00e+00	0	44	0	504365056	57	4869
2026-01-26 23:15:39.01	63.26	45.59	-43.9	-46.7	16.8	0.00e+00	0	43	0	512753664	59	4947
2026-01-26 23:15:43.02	65.09	46.31	-42.4	-44.7	18.7	0.00e+00	0	44	0	520093696	56	4700
2026-01-26 23:15:47.03	66.99	47.01	-41.6	-43.8	19.3	0.00e+00	0	44	0	527433728	55	4486
2026-01-26 23:15:51.03	68.98	47.68	-41.8	-44.1	19.1	0.00e+00	0	44	0	534773760	55	4608
2026-01-26 23:15:55.05	71.06	48.33	-42.4	-44.7	18.7	0.00e+00	0	43	0	542113792	56	4669
2026-01-26 23:15:59.05	73.22	48.94	-42.5	-44.9	18.5	0.00e+00	0	44	0	549453824	56	4799
2026-01-26 23:16:03.05	75.46	49.52	-42.0	-44.3	18.9	0.00e+00	0	44	0	557842432	55	4758
2026-01-26 23:16:07.06	77.79	50.06	-42.8	-45.3	18.2	0.00e+00	0	43	0	565182464	56	4984
2026-01-26 23:16:11.06	80.20	50.55	-43.4	-46.0	17.5	0.00e+00	0	44	0	572522496	57	5149
2026-01-26 23:16:15.07	82.68	50.99	-42.7	-45.3	18.2	0.00e+00	0	44	0	579862528	57	4712
2026-01-26 23:16:19.07	85.23	51.38	-41.7	-44.0	19.2	0.00e+00	0	44	0	587202560	55	4568
2026-01-26 23:16:23.08	87.85	51.72	-41.8	-44.2	19.1	0.00e+00	0	43	0	594542592	54	4939
2026-01-26 23:16:27.09	90.52	51.99	-42.0	-44.4	18.9	0.00e+00	0	43	0	602931200	55	4778
2026-01-26 23:16:31.10	93.24	52.20	-42.1	-44.5	18.8	0.00e+00	0	44	0	610271232	54	5117
2026-01-26 23:16:35.11	95.99	52.34	-43.0	-45.5	18.0	0.00e+00	0	43	0	617611264	56	5108
2026-01-26 23:16:39.11	98.75	52.42	-43.0	-45.5	18.0	0.00e+00	0	43	0	624951296	56	5148
2026-01-26 23:16:43.12	101.53	52.43	-42.7	-45.1	18.2	0.00e+00	0	44	0	632291328	55	5212
2026-01-26 23:16:47.12	104.30	52.37	-42.4	-44.7	18.6	0.00e+00	0	44	0	639631360	56	4701
2026-01-26 23:16:51.12	107.05	52.24	-41.4	-43.7	19.4	0.00e+00	0	43	0	648019968	53	4932
2026-01-26 23:16:55.13	109.78	52.05	-40.6	-42.7	20.4	0.00e+00	0	44	0	655360000	52	4671
2026-01-26 23:16:59.13	112.46	51.80	-41.4	-43.6	19.5	0.00e+00	0	43	0	662700032	53	4921
2026-01-26 23:17:03.14	115.10	51.48	-42.5	-44.9	18.4	0.00e+00	0	44	0	670040064	55	5095
2026-01-26 23:17:07.14	117.67	51.10	-41.6	-43.8	19.4	0.00e+00	0	44	0	677380096	55	4486
2026-01-26 23:17:11.15	120.18	50.67	-40.7	-42.7	20.4	0.00e+00	0	44	0	684720128	53	4421
2026-01-26 23:17:15.15	122.61	50.19	-42.8	-45.3	18.2	0.00e+00	0	44	0	692060160	57	4756
2026-01-26 23:17:19.16	124.96	49.66	-42.1	-44.4	18.8	0.00e+00	0	44	0	700448768	55	4814
2026-01-26 23:17:23.17	127.24	49.09	-43.0	-45.6	18.0	0.00e+00	0	44	0	707788800	56	5163
2026-01-26 23:17:27.18	129.43	48.48	-41.2	-43.4	19.8	0.00e+00	0	43	0	715128832	54	4506
2026-01-26 23:17:31.19	131.53	47.84	-44.2	-47.1	16.5	0.00e+00	0	43	0	722468864	59	5206
2026-01-26 23:17:35.19	133.54	47.17	-45.1	-48.4	15.4	0.00e+00	0	43	0	729808896	60	5665
2026-01-26 23:17:39.20	135.47	46.48	-45.6	-49.3	14.5	8.30e-06	0	44	0	737148928	63	5284
2026-01-26 23:17:43.20	137.32	45.76	-45.0	-48.3	15.3	0.00e+00	0	44	0	745537536	61	5294
2026-01-26 23:17:47.21	139.08	45.02	-46.9	-51.7	11.8	4.92e-04	0	43	0	752877568	64	6617
2026-01-26 23:17:51.21	140.77	44.28	-47.2	-52.2	11.4	1.17e-04	0	44	0	760217600	64	7020
2026-01-26 23:17:55.21	142.37	43.52	-47.0	-52.1	11.6	3.67e-04	0	44	0	767557632	65	6496
2026-01-26 23:17:59.21	143.90	42.75	-47.1	-52.3	11.3	3.87e-03	0	44	0	774897664	66	6276
2026-01-26 23:18:03.21	145.36	41.98	-46.6	-51.1	12.5	1.83e-05	0	44	0	782237696	63	6565
2026-01-26 23:18:07.22	146.76	41.20	-45.1	-48.4	15.2	1.50e-06	0	44	0	790626304	62	5085
2026-01-26 23:18:11.22	148.09	40.42	-45.7	-49.6	14.0	6.80e-06	0	44	0	797966336	62	5794
2026-01-26 23:18:15.23	149.36	39.65	-43.6	-46.3	17.2	0.00e+00	0	44	0	805306368	57	5308
2026-01-26 23:18:19.23	150.57	38.87	-44.1	-47.0	16.6	0.00e+00	0	44	0	812646400	60	4820
2026-01-26 23:18:23.24	151.72	38.10	-44.1	-46.8	16.7	0.00e+00	0	44	0	819986432	59	5037
2026-01-26 23:18:27.23	152.82	37.34	-43.2	-45.7	17.7	0.00e+00	0	44	0	827326464	58	4703
2026-01-26 23:18:31.22	153.87	36.58	-42.6	-45.0	18.4	0.00e+00	0	44	0	835715072	56	4838
2026-01-26 23:18:35.23	154.88	35.83	-42.4	-44.8	18.7	0.00e+00	0	43	0	843055104	56	4710
2026-01-26 23:18:39.24	155.84	35.09	-43.6	-46.2	17.3	0.00e+00	0	44	0	850395136	57	5261
2026-01-26 23:18:43.24	156.76	34.35	-45.6	-49.4	14.5	0.00e+00	0	44	0	857735168	61	6010
2026-01-26 23:18:47.24	157.64	33.63	-44.3	-47.3	16.3	0.00e+00	0	44	0	865075200	60	4994
2026-01-26 23:18:51.25	158.49	32.91	-43.9	-46.7	16.8	0.00e+00	0	44	0	872415232	59	4974
2026-01-26 23:18:55.25	159.30	32.21	-44.9	-48.3	15.3	0.00e+00	0	43	0	879755264	61	5332
2026-01-26 23:18:59.25	160.07	31.52	-43.3	-45.9	17.5	0.00e+00	0	43	0	888143872	58	4808
2026-01-26 23:19:03.26	160.81	30.83	-42.9	-45.4	18.0	0.00e+00	0	43	0	895483904	57	4768
2026-01-26 23:19:07.26	161.53	30.16	-44.6	-47.7	15.8	0.00e+00	0	44	0	902823936	59	5588
2026-01-26 23:19:11.26	162.21	29.50	-45.4	-49.0	14.6	1.50e-06	0	44	0	910163968	62	5425
2026-01-26 23:19:15.27	162.87	28.85	-43.5	-46.2	17.2	0.00e+00	0	44	0	917504000	59	4658
2026-01-26 23:19:19.27	163.50	28.21	-42.7	-45.2	18.2	0.00e+00	0	44	0	924844032	56	4962
2026-01-26 23:19:23.27	164.11	27.58	-42.7	-45.3	18.0	0.00e+00	0	43	0	933232640	56	4997
2026-01-26 23:19:27.28	164.70	26.96	-42.1	-44.4	18.9	0.00e+00	0	44	0	940572672	56	4527
2026-01-26 23:19:31.28	165.27	26.36	-42.2	-44.5	18.7	0.00e+00	0	44	0	947912704	55	4850
2026-01-26 23:19:35.29	165.81	25.76	-44.4	-47.4	16.0	0.00e+00	0	44	0	955252736	59	5392
2026-01-26 23:19:39.29	166.34	25.17	-45.0	-48.3	15.2	0.00e+00	0	43	0	962592768	61	5320
2026-01-26 23:19:43.30	166.84	24.60	-44.2	-47.2	16.3	0.00e+00	0	44	0	969932800	60	4937
2026-01-26 23:19:47.31	167.33	24.03	-42.7	-45.2	18.1	0.00e+00	0	44	0	978321408	57	4677
2026-01-26 23:19:51.31	167.81	23.48	-43.0	-45.6	17.8	0.00e+00	0	44	0	985661440	56	5167
2026-01-26 23:19:55.31	168.26	22.93	-43.9	-46.8	16.6	0.00e+00	0	43	0	993001472	58	5333
2026-01-26 23:19:59.32	168.71	22.40	-43.8	-46.8	16.6	0.00e+00	0	44	0	1000341504	59	5004
2026-01-26 23:20:03.32	169.13	21.87	-42.7	-45.2	18.1	0.00e+00	0	44	0	1007681536	57	4695
2026-01-26 23:20:07.33	169.55	21.35	-42.6	-45.2	18.1	0.00e+00	0	44	0	1015021568	56	4941
2026-01-26 23:20:11.33	169.95	20.85	-42.9	-45.5	17.9	0.00e+00	0	44	0	1022361600	56	5109
2026-01-26 23:20:15.34	170.34	20.35	-42.6	-45.1	18.1	0.00e+00	0	43	0	1030750208	56	4916
2026-01-26 23:20:19.34	170.72	19.86	-42.1	-44.6	18.7	0.00e+00	0	44	0	1038090240	56	4603
2026-01-26 23:20:23.34	171.08	19.37	-41.6	-43.9	19.1	0.00e+00	0	44	0	1045430272	55	4507
2026-01-26 23:20:27.35	171.44	18.90	-41.8	-44.2	18.9	0.00e+00	0	44	0	1052770304	55	4657
2026-01-26 23:20:31.36	171.78	18.43	-42.3	-44.8	18.3	0.00e+00	0	44	0	1060110336	55	4994
2026-01-26 23:20:35.36	172.12	17.97	-43.1	-45.7	17.6	0.00e+00	0	44	0	1067450368	56	5270
2026-01-26 23:20:39.36	172.44	17.52	-43.7	-46.5	16.8	0.00e+00	0	44	0	1075838976	58	5145
2026-01-26 23:20:43.36	172.76	17.08	-43.5	-46.3	17.0	0.00e+00	0	43	0	1083179008	58	5031
2026-01-26 23:20:47.37	173.06	16.64	-43.4	-46.2	17.1	0.00e+00	0	44	0	1090519040	58	4969
2026-01-26 23:20:51.37	173.36	16.21	-42.9	-45.7	17.5	0.00e+00	0	44	0	1097859072	57	4948
2026-01-26 23:20:55.38	173.65	15.79	-42.5	-45.1	18.1	0.00e+00	0	44	0	1105199104	56	4921
2026-01-26 23:20:59.38	173.94	15.38	-42.2	-44.8	18.4	0.00e+00	0	44	0	1112539136	56	4720
2026-01-26 23:21:03.38	174.21	14.97	-42.2	-44.7	18.4	0.00e+00	0	43	0	1120927744	56	4701
2026-01-26 23:21:07.39	174.48	14.56	-42.2	-44.7	18.4	0.00e+00	0	44	0	1128267776	56	4704
2026-01-26 23:21:11.39	174.74	14.17	-42.0	-44.5	18.6	0.00e+00	0	44	0	1135607808	56	4571
2026-01-26 23:21:15.40	175.00	13.77	-42.2	-44.7	18.5	0.00e+00	0	44	0	1142947840	56	4662
2026-01-26 23:21:19.40	175.25	13.39	-42.5	-45.0	18.1	0.00e+00	0	44	0	1150287872	56	4838
2026-01-26 23:21:23.40	175.49	13.01	-42.5	-45.0	18.1	0.00e+00	0	44	0	1157627904	56	4847
2026-01-26 23:21:27.40	175.73	12.63	-42.6	-45.2	17.9	0.00e+00	0	44	0	1164967936	56	4962
2026-01-26 23:21:31.40	175.96	12.26	-42.6	-45.2	17.9	0.00e+00	0	44	0	1173356544	56	4981
2026-01-26 23:21:35.40	176.19	11.90	-42.4	-44.9	18.2	0.00e+00	0	44	0	1180696576	56	4785
2026-01-26 23:21:39.41	176.41	11.54	-42.3	-44.8	18.2	0.00e+00	0	44	0	1188036608	56	4753
2026-01-26 23:21:43.41	176.62	11.19	-42.4	-45.1	18.0	0.00e+00	0	44	0	1195376640	56	4904
2026-01-26 23:21:47.42	176.84	10.84	-42.3	-45.2	17.9	0.00e+00	0	44	0	1202716672	56	4948
2026-01-26 23:21:51.42	177.04	10.49	-42.6	-45.9	17.2	0.00e+00	0	44	0	1210056704	56	5365
2026-01-26 23:21:55.43	177.24	10.15	-42.9	-46.2	16.9	0.00e+00	0	44	0	1218445312	56	5580
2026-01-26 23:21:59.43	177.44	9.81	-43.3	-46.7	16.5	0.00e+00	0	44	0	1225785344	57	5537
2026-01-26 23:22:03.44	177.64	9.48	-43.5	-46.9	16.2	0.00e+00	0	44	0	1233125376	57	5683
2026-01-26 23:22:07.45	177.83	9.15	-43.8	-47.3	15.9	0.00e+00	0	44	0	1240465408	58	5597
2026-01-26 23:22:11.44	178.01	8.83	-49.0	-64.5	3.8	1.49e+00	0	44	104	1245708288	69	21655
2026-01-26 23:22:15.43	178.19	8.51	-49.6	-64.9	3.8	1.49e+00	0	44	104	1245708288	69	22681
2026-01-26 23:22:19.41	178.37	8.20	-49.6	-65.0	3.8	1.49e+00	0	44	104	1245708288	70	21630
2026-01-26 23:22:23.40	178.54	7.89	-49.9	-65.1	3.8	1.49e+00	0	44	104	1245708288	70	21838
2026-01-26 23:22:27.38	178.71	7.58	-49.9	-65.1	3.8	1.49e+00	0	44	104	1245708288	70	21950
2026-01-26 23:22:31.37	178.88	7.28	-49.9	-65.1	3.8	1.49e+00	0	44	104	1245708288	70	21769
2026-01-26 23:22:35.35	179.04	6.98	-49.9	-65.1	3.8	1.49e+00	0	44	104	1245708288	70	21906
2026-01-26 23:22:39.34	179.21	6.68	-49.5	-65.0	3.8	1.49e+00	0	44	104	1245708288	70	21669
2026-01-26 23:22:43.32	179.36	6.38	-49.4	-65.0	3.8	1.49e+00	0	44	104	1245708288	70	21588
2026-01-26 23:22:47.31	179.52	6.09	-49.4	-65.0	3.8	1.49e+00	0	44	104	1245708288	70	21658
2026-01-26 23:22:51.29	179.67	5.81	-49.5	-65.0	3.8	1.49e+00	0	44	104	1245708288	70	21726
2026-01-26 23:22:55.28	179.82	5.52	-49.4	-65.0	3.8	1.49e+00	0	44	104	1245708288	70	21623
2026-01-26 23:22:59.27	179.97	5.24	-49.4	-65.0	3.8	1.49e+00	0	44	104	1245708288	70	21625
2026-01-26 23:23:03.26	180.11	4.96	-49.4	-65.0	3.8	1.49e+00	0	44	104	1245708288	70	21517

#Closed at: 2026-01-26 23:23:04
#Recorded file [1245 MB]: D:/Data/31040_260127_021018.dat