passes_logs/2026/01/26/T1/T1__20260126_182158_FENGYUN_3G_rec.log

#Pass ID: 20260126_182158_FENGYUN 3G
#Satellite: FENGYUN 3G
#Configuration: FENGYUN 3G
#almurnet v.1.7.20251203
#Start time: 2026-01-26 18:21:59

#Version: 2.0.20230620
#Station: T1
#Location: 37.570604 lon 55.790049 lat
#TLE: 1 56232U 23055A   26025.91671677  .00046094  00000+0  69205-3 0  9999
#TLE: 2 56232  49.9949 359.5770 0004051  85.3034 274.8396 15.54373411157896

#Time	Az	El	Level	Level2	SNR	BER	BlckErr	Temp	State	Recorded	gain1	gain2
2026-01-26 18:21:59.48	243.93	5.06	-49.1	-68.1	3.8	8.48e-01	0	40	0	0	69	32749
2026-01-26 18:22:01.46	243.76	5.21	-49.1	-68.1	3.8	8.47e-01	0	41	104	0	70	30809
2026-01-26 18:22:03.45	243.59	5.36	-49.1	-68.1	3.8	8.47e-01	0	41	104	0	70	30885
2026-01-26 18:22:05.44	243.42	5.51	-49.1	-68.0	3.8	8.47e-01	0	41	104	0	70	30500
2026-01-26 18:22:07.42	243.24	5.67	-49.1	-67.8	3.8	8.45e-01	0	41	104	0	70	29922
2026-01-26 18:22:09.41	243.06	5.83	-49.1	-67.7	3.8	8.48e-01	0	41	104	0	70	29497
2026-01-26 18:22:11.39	242.88	5.98	-49.1	-67.6	3.8	8.47e-01	0	41	104	0	70	29241
2026-01-26 18:22:13.38	242.69	6.14	-49.1	-67.7	3.8	8.47e-01	0	41	104	0	70	29503
2026-01-26 18:22:15.37	242.51	6.30	-49.1	-67.8	3.8	8.47e-01	0	41	104	0	70	29778
2026-01-26 18:22:17.36	242.31	6.46	-49.1	-67.4	3.8	8.46e-01	0	41	104	0	70	28368
2026-01-26 18:22:19.34	242.12	6.62	-49.1	-67.2	3.8	8.46e-01	0	41	104	0	70	27982
2026-01-26 18:22:21.33	241.92	6.79	-49.1	-67.5	3.8	8.47e-01	0	41	104	0	70	28814
2026-01-26 18:22:23.32	241.72	6.95	-49.1	-67.8	3.8	8.48e-01	0	41	104	0	70	30002
2026-01-26 18:22:25.30	241.52	7.12	-49.1	-67.8	3.8	8.46e-01	0	41	104	0	70	29828
2026-01-26 18:22:27.29	241.31	7.29	-49.1	-67.9	3.8	8.46e-01	0	42	104	0	70	30266
2026-01-26 18:22:29.28	241.10	7.46	-49.1	-68.0	3.8	8.47e-01	0	41	104	0	70	30439
2026-01-26 18:22:31.26	240.89	7.63	-49.1	-67.0	3.8	8.47e-01	0	41	104	0	70	27221
2026-01-26 18:22:33.25	240.67	7.80	-49.0	-66.1	3.9	8.47e-01	0	41	104	0	70	24603
2026-01-26 18:22:35.24	240.45	7.97	-49.1	-66.8	3.8	8.46e-01	0	42	104	0	70	26680
2026-01-26 18:22:37.22	240.22	8.15	-49.1	-67.5	3.8	8.47e-01	0	42	104	0	70	28684
2026-01-26 18:22:39.21	239.99	8.32	-49.0	-64.8	4.1	8.45e-01	0	42	0	0	70	21104
2026-01-26 18:22:41.20	239.76	8.50	-48.9	-63.8	4.4	8.37e-01	0	42	0	0	69	20053
2026-01-26 18:22:43.18	239.52	8.68	-48.8	-61.7	5.3	8.07e-01	0	42	0	0	69	15685
2026-01-26 18:22:45.17	239.28	8.86	-47.6	-54.8	11.8	2.01e-01	0	42	0	0	67	7940
2026-01-26 18:22:47.15	239.04	9.05	-46.1	-50.8	16.0	1.29e-03	0	42	0	0	64	5969
2026-01-26 18:22:49.14	238.79	9.23	-47.7	-55.7	10.8	4.62e-04	0	42	0	0	66	9296
2026-01-26 18:22:51.13	238.53	9.42	-41.7	-44.3	22.6	6.19e-04	0	42	0	0	55	4707
2026-01-26 18:22:53.17	238.27	9.61	-42.3	-45.1	21.8	2.63e-03	0	42	0	0	56	4873
2026-01-26 18:22:55.22	237.99	9.81	-40.8	-43.2	23.5	0.00e+00	0	42	0	0	53	4697
2026-01-26 18:22:57.28	237.71	10.01	-40.6	-43.0	23.7	0.00e+00	0	42	0	0	53	4554
2026-01-26 18:22:59.27	237.44	10.20	-40.0	-42.2	24.5	0.00e+00	0	42	0	0	51	4677
2026-01-26 18:23:01.25	237.16	10.39	-39.9	-42.1	24.6	0.00e+00	0	42	0	0	51	4649
2026-01-26 18:23:03.24	236.88	10.59	-40.0	-42.2	24.5	0.00e+00	0	42	0	0	51	4673
2026-01-26 18:23:05.23	236.59	10.79	-40.0	-42.3	24.4	0.00e+00	0	42	0	0	51	4726
2026-01-26 18:23:07.22	236.29	10.99	-40.0	-42.2	24.5	0.00e+00	0	42	0	0	51	4703
2026-01-26 18:23:09.21	235.99	11.20	-39.8	-42.0	24.7	0.00e+00	0	42	0	0	51	4584
2026-01-26 18:23:11.28	235.68	11.41	-39.8	-42.0	24.7	0.00e+00	0	42	0	0	51	4571
2026-01-26 18:23:13.27	235.36	11.62	-39.5	-41.7	25.0	0.00e+00	0	42	0	0	51	4401
2026-01-26 18:23:15.39	235.02	11.84	-39.2	-41.4	25.3	0.00e+00	0	42	0	0	50	4523
2026-01-26 18:23:17.38	234.70	12.05	-39.3	-41.5	25.2	0.00e+00	0	42	0	0	50	4553
2026-01-26 18:23:19.39	234.36	12.27	-39.3	-41.5	25.2	0.00e+00	0	42	0	0	50	4548
2026-01-26 18:23:21.38	234.03	12.48	-39.3	-41.5	25.1	0.00e+00	0	42	0	0	50	4568
2026-01-26 18:23:23.39	233.68	12.70	-39.2	-41.4	25.2	0.00e+00	0	42	0	0	50	4542
2026-01-26 18:23:25.41	233.32	12.92	-39.3	-41.5	25.2	0.00e+00	0	42	0	0	50	4552
2026-01-26 18:23:27.40	232.96	13.14	-39.1	-41.2	25.4	0.00e+00	0	42	0	0	50	4429
2026-01-26 18:23:29.51	232.58	13.38	-38.8	-40.9	25.7	0.00e+00	0	42	0	0	49	4516
2026-01-26 18:23:31.51	232.20	13.61	-38.9	-41.0	25.6	0.00e+00	0	42	0	0	49	4589
2026-01-26 18:23:33.51	231.82	13.84	-38.9	-41.0	25.6	0.00e+00	0	42	0	0	49	4557
2026-01-26 18:23:35.52	231.43	14.07	-39.0	-41.1	25.5	0.00e+00	0	42	0	0	49	4621
2026-01-26 18:23:37.52	231.03	14.30	-38.9	-41.0	25.6	0.00e+00	0	42	0	0	49	4590
2026-01-26 18:23:39.53	230.62	14.54	-38.8	-40.9	25.8	0.00e+00	0	42	0	0	49	4510
2026-01-26 18:23:41.52	230.21	14.78	-38.6	-40.6	26.0	0.00e+00	0	42	0	0	49	4377
2026-01-26 18:23:43.52	229.78	15.02	-38.3	-40.4	26.2	0.00e+00	0	42	0	0	48	4517
2026-01-26 18:23:45.53	229.35	15.26	-38.4	-40.4	26.3	0.00e+00	0	42	0	0	48	4513
2026-01-26 18:23:47.52	228.91	15.50	-38.4	-40.4	26.1	0.00e+00	0	42	0	0	48	4544
2026-01-26 18:23:49.53	228.45	15.75	-38.5	-40.5	26.1	0.00e+00	0	42	0	0	48	4579
2026-01-26 18:23:51.74	227.94	16.03	-38.2	-40.2	26.4	0.00e+00	0	42	0	0	48	4427
2026-01-26 18:23:53.84	227.45	16.29	-37.8	-39.8	26.6	0.00e+00	0	42	0	0	47	4492
2026-01-26 18:23:55.83	226.97	16.54	-37.7	-39.7	26.8	0.00e+00	0	42	0	0	47	4393
2026-01-26 18:23:57.82	226.48	16.80	-37.9	-39.9	26.6	0.00e+00	0	42	0	0	47	4521
2026-01-26 18:23:59.82	225.97	17.05	-38.0	-40.0	26.5	0.00e+00	0	42	0	0	47	4598
2026-01-26 18:24:01.82	225.46	17.31	-38.0	-40.1	26.5	0.00e+00	0	43	0	0	47	4616
2026-01-26 18:24:04.16	224.84	17.62	-37.5	-39.5	26.9	0.00e+00	0	42	0	0	46	4569
2026-01-26 18:24:06.35	224.25	17.91	-37.5	-39.5	26.8	0.00e+00	0	42	0	0	46	4546
2026-01-26 18:24:08.34	223.70	18.17	-37.4	-39.4	27.0	0.00e+00	0	42	0	0	46	4505
2026-01-26 18:24:10.33	223.14	18.43	-37.6	-39.6	26.9	0.00e+00	0	42	0	0	46	4602
2026-01-26 18:24:12.32	222.56	18.70	-37.4	-39.3	27.1	0.00e+00	0	42	0	0	46	4487
2026-01-26 18:24:14.31	221.98	18.97	-37.4	-39.4	27.0	0.00e+00	0	42	0	0	46	4517
2026-01-26 18:24:16.30	221.38	19.24	-37.3	-39.3	27.2	0.00e+00	0	42	0	0	46	4443
2026-01-26 18:24:18.31	220.76	19.51	-37.2	-39.2	27.3	0.00e+00	0	42	0	0	46	4403
2026-01-26 18:24:20.31	220.13	19.79	-37.1	-39.0	27.4	0.00e+00	0	42	0	0	46	4320
2026-01-26 18:24:22.28	219.50	20.06	-37.1	-39.1	27.4	0.00e+00	0	43	0	0	46	4345
2026-01-26 18:24:24.31	218.83	20.34	-37.1	-39.1	27.4	0.00e+00	0	42	0	0	46	4359
2026-01-26 18:24:26.30	218.16	20.61	-37.1	-39.0	27.4	0.00e+00	0	42	0	0	46	4329
2026-01-26 18:24:28.28	217.48	20.89	-36.6	-38.6	27.8	0.00e+00	0	42	0	0	45	4350
2026-01-26 18:24:30.28	216.78	21.17	-36.2	-38.1	27.9	0.00e+00	0	42	0	0	44	4369
2026-01-26 18:24:32.27	216.07	21.44	-36.4	-38.4	27.9	0.00e+00	0	43	0	0	44	4496
2026-01-26 18:24:34.26	215.34	21.72	-36.8	-38.8	27.6	0.00e+00	0	42	0	0	44	4712
2026-01-26 18:24:36.33	214.57	22.00	-36.8	-38.7	27.7	0.00e+00	0	43	0	0	44	4700
2026-01-26 18:24:38.25	213.83	22.27	-36.6	-38.5	27.8	0.00e+00	0	42	0	0	44	4578
2026-01-26 18:24:40.24	213.06	22.55	-36.2	-38.2	28.1	0.00e+00	0	43	0	0	44	4396
2026-01-26 18:24:42.53	212.14	22.86	-36.0	-37.9	28.3	0.00e+00	0	43	0	0	44	4273
2026-01-26 18:24:44.52	211.33	23.13	-35.8	-37.7	28.4	0.00e+00	0	43	0	0	43	4420
2026-01-26 18:24:46.51	210.50	23.40	-36.2	-38.1	28.1	0.00e+00	0	42	0	0	43	4621
2026-01-26 18:24:48.50	209.66	23.67	-36.2	-38.1	27.9	0.00e+00	0	42	0	0	43	4648
2026-01-26 18:24:50.57	208.76	23.95	-36.3	-38.2	28.0	0.00e+00	0	42	0	0	43	4667
2026-01-26 18:24:52.56	207.88	24.21	-36.3	-38.2	28.0	0.00e+00	0	42	0	0	43	4688
2026-01-26 18:24:54.73	206.90	24.50	-35.9	-37.8	28.3	0.00e+00	0	42	0	0	43	4479
2026-01-26 18:24:56.72	205.98	24.75	-35.9	-37.8	28.3	0.00e+00	0	42	0	0	43	4471
2026-01-26 18:24:58.73	205.04	25.01	-35.7	-37.6	28.5	0.00e+00	0	43	0	0	43	4379
2026-01-26 18:25:00.72	204.09	25.26	-36.1	-38.0	28.2	0.00e+00	0	42	0	0	43	4596
2026-01-26 18:25:02.73	203.11	25.51	-35.8	-37.7	28.2	0.00e+00	0	43	0	0	43	4405
2026-01-26 18:25:04.76	202.10	25.75	-35.7	-37.5	28.5	0.00e+00	0	42	0	0	43	4331
2026-01-26 18:25:06.77	201.09	25.98	-35.6	-37.5	28.5	0.00e+00	0	42	0	0	43	4321
2026-01-26 18:25:08.76	200.07	26.21	-35.5	-37.4	28.7	0.00e+00	0	43	0	0	43	4244
2026-01-26 18:25:10.75	199.03	26.43	-35.4	-37.2	28.7	0.00e+00	0	43	0	0	42	4428
2026-01-26 18:25:12.74	197.97	26.65	-35.3	-37.2	28.7	0.00e+00	0	42	0	0	42	4393
2026-01-26 18:25:14.79	196.87	26.86	-35.4	-37.2	28.7	0.00e+00	0	42	0	0	42	4440
2026-01-26 18:25:16.86	195.74	27.06	-35.3	-37.1	28.8	0.00e+00	0	42	0	0	42	4377
2026-01-26 18:25:18.88	194.62	27.26	-35.0	-36.9	28.9	0.00e+00	0	43	0	0	42	4258
2026-01-26 18:25:20.90	193.49	27.44	-35.4	-37.3	28.7	0.00e+00	0	42	0	0	42	4458
2026-01-26 18:25:22.89	192.36	27.61	-35.2	-37.1	28.8	0.00e+00	0	43	0	0	42	4369
2026-01-26 18:25:24.89	191.20	27.77	-34.7	-36.5	29.2	0.00e+00	0	42	0	0	41	4313
2026-01-26 18:25:26.87	190.05	27.92	-34.8	-36.6	29.1	0.00e+00	0	42	0	0	41	4370
2026-01-26 18:25:28.97	188.82	28.07	-34.8	-36.6	29.2	0.00e+00	0	43	0	0	41	4361
2026-01-26 18:25:30.99	187.62	28.20	-34.9	-36.7	29.1	0.00e+00	0	43	0	0	41	4424
2026-01-26 18:25:32.98	186.43	28.31	-35.4	-37.2	28.7	0.00e+00	0	43	0	0	41	4700
2026-01-26 18:25:34.97	185.23	28.42	-35.6	-37.4	28.6	0.00e+00	0	42	0	0	41	4812
2026-01-26 18:25:36.96	184.02	28.51	-35.6	-37.5	28.6	0.00e+00	0	43	0	0	42	4556
2026-01-26 18:25:38.97	182.79	28.59	-35.9	-37.8	28.3	0.00e+00	0	43	0	0	42	4731
2026-01-26 18:25:40.96	181.57	28.65	-35.5	-37.4	28.6	0.00e+00	0	43	0	0	42	4502
2026-01-26 18:25:42.95	180.34	28.71	-35.3	-37.1	28.8	0.00e+00	0	42	0	0	42	4381
2026-01-26 18:25:44.94	179.11	28.75	-35.4	-37.3	28.8	0.00e+00	0	43	0	0	42	4443
2026-01-26 18:25:46.93	177.87	28.78	-35.5	-37.4	28.6	0.00e+00	0	42	0	0	42	4517
2026-01-26 18:25:48.91	176.64	28.79	-35.4	-37.3	28.7	0.00e+00	0	43	0	0	42	4442
2026-01-26 18:25:50.91	175.40	28.79	-35.3	-37.2	28.8	0.00e+00	0	43	0	0	42	4410
2026-01-26 18:25:52.89	174.17	28.78	-35.3	-37.2	28.8	0.00e+00	0	42	0	0	42	4419
2026-01-26 18:25:54.88	172.93	28.75	-35.4	-37.2	28.7	0.00e+00	0	43	0	0	42	4434
2026-01-26 18:25:56.98	171.63	28.71	-35.4	-37.3	28.7	0.00e+00	0	43	0	0	42	4447
2026-01-26 18:25:58.99	170.39	28.66	-35.3	-37.1	28.8	0.00e+00	0	43	0	0	42	4369
2026-01-26 18:26:00.98	169.17	28.59	-35.7	-37.6	28.4	0.00e+00	0	43	0	0	42	4625
2026-01-26 18:26:02.97	167.95	28.52	-35.8	-37.7	28.3	0.00e+00	0	43	0	0	42	4683
2026-01-26 18:26:04.96	166.74	28.43	-34.9	-36.7	29.0	0.00e+00	0	42	0	0	41	4439
2026-01-26 18:26:06.95	165.54	28.32	-35.1	-37.0	28.9	0.00e+00	0	43	0	0	41	4582
2026-01-26 18:26:08.97	164.33	28.21	-35.3	-37.2	28.8	0.00e+00	0	43	0	0	41	4653
2026-01-26 18:26:10.96	163.15	28.08	-34.9	-36.7	29.1	0.00e+00	0	43	0	0	41	4436
2026-01-26 18:26:13.11	161.88	27.93	-34.8	-36.7	29.1	0.00e+00	0	43	0	0	41	4421
2026-01-26 18:26:15.10	160.72	27.78	-35.0	-36.9	28.9	0.00e+00	0	43	0	0	41	4508
2026-01-26 18:26:17.11	159.57	27.62	-34.8	-36.7	29.1	0.00e+00	0	43	0	0	41	4416
2026-01-26 18:26:19.11	158.43	27.45	-35.0	-36.9	28.9	0.00e+00	0	43	0	0	41	4530
2026-01-26 18:26:21.11	157.31	27.27	-35.0	-36.9	27.4	0.00e+00	0	43	0	0	41	4496
2026-01-26 18:26:23.21	156.14	27.07	-34.5	-36.4	29.3	0.00e+00	0	43	0	0	41	4269
2026-01-26 18:26:25.24	155.03	26.87	-34.7	-36.6	29.1	0.00e+00	0	43	0	0	40	4606
2026-01-26 18:26:27.23	153.96	26.66	-35.8	-37.7	28.4	0.00e+00	0	43	0	0	42	4669
2026-01-26 18:26:29.29	152.87	26.44	-36.0	-37.9	28.1	0.00e+00	0	43	0	0	43	4510
2026-01-26 18:26:31.47	151.73	26.20	-35.6	-37.5	28.4	0.00e+00	0	43	0	0	42	4564
2026-01-26 18:26:33.49	150.70	25.97	-35.7	-37.6	28.4	0.00e+00	0	43	0	0	42	4617
2026-01-26 18:26:35.48	149.69	25.74	-35.7	-37.6	28.4	0.00e+00	0	43	0	0	42	4617
2026-01-26 18:26:37.50	148.69	25.49	-36.0	-38.0	28.1	0.00e+00	0	43	0	0	42	4823
2026-01-26 18:26:39.51	147.72	25.25	-36.0	-37.9	28.1	0.00e+00	0	43	0	0	42	4792
2026-01-26 18:26:41.50	146.77	25.00	-36.1	-38.0	28.0	0.00e+00	0	43	0	0	43	4589
2026-01-26 18:26:43.59	145.79	24.73	-36.3	-38.2	27.8	0.00e+00	0	43	0	0	43	4702
2026-01-26 18:26:45.78	144.78	24.45	-36.0	-37.9	28.1	0.00e+00	0	43	0	0	43	4514
2026-01-26 18:26:47.71	143.91	24.20	-35.7	-37.6	28.4	0.00e+00	0	43	0	0	43	4344
2026-01-26 18:26:49.69	143.04	23.93	-35.5	-37.4	28.5	0.00e+00	0	43	0	0	42	4530
2026-01-26 18:26:51.68	142.17	23.67	-35.8	-37.7	28.3	0.00e+00	0	43	0	0	42	4698
2026-01-26 18:26:53.68	141.33	23.40	-36.1	-38.1	28.0	0.00e+00	0	43	0	0	43	4603
2026-01-26 18:26:55.73	140.47	23.12	-36.3	-38.3	27.8	0.00e+00	0	43	0	0	43	4717
2026-01-26 18:26:57.72	139.66	22.85	-36.3	-38.2	27.8	0.00e+00	0	43	0	0	43	4695
2026-01-26 18:26:59.71	138.87	22.57	-36.7	-38.6	27.5	0.00e+00	0	43	0	0	43	4897
2026-01-26 18:27:01.70	138.09	22.30	-36.8	-38.7	27.5	0.00e+00	0	43	0	0	44	4691
2026-01-26 18:27:03.69	137.33	22.02	-36.9	-38.9	27.5	0.00e+00	0	43	0	0	44	4760
2026-01-26 18:27:05.68	136.59	21.75	-36.7	-38.6	27.7	0.00e+00	0	43	0	0	44	4638
2026-01-26 18:27:07.67	135.86	21.47	-36.7	-38.7	27.6	0.00e+00	0	43	0	0	44	4660
2026-01-26 18:27:09.66	135.14	21.19	-36.8	-38.8	27.4	0.00e+00	0	43	0	0	44	4736
2026-01-26 18:27:11.71	134.42	20.91	-37.0	-39.0	27.4	0.00e+00	0	43	0	0	44	4861
2026-01-26 18:27:13.73	133.73	20.63	-37.3	-39.3	27.1	0.00e+00	0	43	0	0	45	4734
2026-01-26 18:27:15.78	133.04	20.35	-36.8	-38.7	27.5	0.00e+00	0	43	0	0	45	4432
2026-01-26 18:27:17.77	132.39	20.07	-37.0	-39.0	27.4	0.00e+00	0	43	0	0	45	4558
2026-01-26 18:27:19.76	131.75	19.80	-36.8	-38.8	27.4	0.00e+00	0	43	0	0	45	4468
2026-01-26 18:27:21.77	131.11	19.52	-36.9	-38.9	27.4	0.00e+00	0	43	0	0	45	4523
2026-01-26 18:27:23.76	130.50	19.25	-37.2	-39.2	27.1	0.00e+00	0	43	0	0	45	4705
2026-01-26 18:27:25.75	129.90	18.98	-37.3	-39.3	27.0	0.00e+00	0	43	0	0	45	4752
2026-01-26 18:27:27.78	129.30	18.71	-37.2	-39.2	27.1	0.00e+00	0	43	0	0	45	4689
2026-01-26 18:27:30.15	128.62	18.39	-37.5	-39.5	26.8	0.00e+00	0	43	0	0	45	4870
2026-01-26 18:27:32.19	128.05	18.12	-37.4	-39.4	27.0	0.00e+00	0	43	0	0	45	4764
2026-01-26 18:27:34.18	127.50	17.86	-37.4	-39.4	27.0	0.00e+00	0	42	0	0	45	4767
2026-01-26 18:27:36.17	126.97	17.60	-37.8	-39.8	26.6	0.00e+00	0	43	0	0	46	4758
2026-01-26 18:27:38.16	126.44	17.34	-37.8	-39.8	26.7	0.00e+00	0	43	0	0	46	4720
2026-01-26 18:27:40.17	125.92	17.08	-38.0	-40.1	26.3	0.00e+00	0	43	0	0	46	4907
2026-01-26 18:27:42.15	125.43	16.82	-37.4	-39.4	26.9	0.00e+00	0	43	0	0	46	4514
2026-01-26 18:27:44.14	124.93	16.57	-38.4	-40.5	26.0	0.00e+00	0	43	0	0	47	4852
2026-01-26 18:27:46.18	124.44	16.31	-38.0	-40.0	26.4	0.00e+00	0	43	0	0	47	4573
2026-01-26 18:27:48.17	123.97	16.06	-38.1	-40.1	26.3	0.00e+00	0	43	0	0	47	4646
2026-01-26 18:27:50.18	123.51	15.81	-37.9	-39.9	26.5	0.00e+00	0	43	0	0	47	4506
2026-01-26 18:27:52.36	123.01	15.54	-38.5	-40.6	25.9	0.00e+00	0	43	0	0	47	4891
2026-01-26 18:27:54.63	122.51	15.26	-38.3	-40.4	26.1	0.00e+00	0	43	0	0	47	4780
2026-01-26 18:27:56.91	122.02	14.99	-38.8	-41.0	25.6	0.00e+00	0	43	0	0	48	4816
2026-01-26 18:27:59.18	121.54	14.72	-38.8	-41.0	25.6	0.00e+00	0	43	0	0	48	4821
2026-01-26 18:28:01.61	121.04	14.43	-38.6	-40.6	25.9	0.00e+00	0	43	0	0	48	4644
2026-01-26 18:28:03.89	120.58	14.16	-38.8	-40.9	25.6	0.00e+00	0	43	0	0	48	4802
2026-01-26 18:28:06.16	120.13	13.90	-39.3	-41.5	25.1	0.00e+00	0	43	0	0	49	4828
2026-01-26 18:28:08.43	119.70	13.64	-39.2	-41.4	25.2	0.00e+00	0	43	0	0	49	4784
2026-01-26 18:28:10.81	119.25	13.37	-39.2	-41.4	25.1	0.00e+00	0	43	0	0	49	4787
2026-01-26 18:28:12.95	118.86	13.13	-39.2	-41.3	25.3	0.00e+00	0	43	0	0	49	4737
2026-01-26 18:28:14.94	118.50	12.91	-39.7	-41.9	24.6	0.00e+00	0	43	0	0	50	4813
2026-01-26 18:28:17.16	118.11	12.66	-39.6	-41.8	24.8	0.00e+00	0	43	0	0	50	4737
2026-01-26 18:28:19.20	117.76	12.44	-39.8	-42.0	24.5	0.00e+00	0	43	0	0	50	4863
2026-01-26 18:28:21.30	117.41	12.21	-39.7	-41.9	24.6	0.00e+00	0	43	0	0	50	4794
2026-01-26 18:28:23.29	117.08	12.00	-39.8	-42.1	24.5	0.00e+00	0	43	0	0	50	4881
2026-01-26 18:28:25.28	116.75	11.79	-39.9	-42.2	24.4	0.00e+00	0	43	0	0	50	4932
2026-01-26 18:28:27.27	116.44	11.58	-39.9	-42.2	24.4	0.00e+00	0	43	0	0	50	4929
2026-01-26 18:28:29.26	116.13	11.37	-40.2	-42.5	24.1	0.00e+00	0	43	0	0	51	4822
2026-01-26 18:28:31.25	115.82	11.17	-40.0	-42.2	24.3	0.00e+00	0	43	0	0	51	4677
2026-01-26 18:28:33.32	115.51	10.96	-40.5	-42.9	23.7	0.00e+00	0	43	0	0	51	5051
2026-01-26 18:28:35.31	115.22	10.76	-40.6	-42.9	23.6	0.00e+00	0	43	0	0	52	4798
2026-01-26 18:28:37.30	114.93	10.56	-40.4	-42.8	23.8	0.00e+00	0	43	0	0	52	4712
2026-01-26 18:28:39.29	114.65	10.36	-40.2	-42.6	23.9	0.00e+00	0	43	0	0	52	4606
2026-01-26 18:28:41.28	114.37	10.17	-40.3	-42.6	23.9	0.00e+00	0	43	0	0	52	4606
2026-01-26 18:28:43.27	114.10	9.97	-40.5	-42.9	23.6	0.00e+00	0	43	0	0	52	4763
2026-01-26 18:28:45.26	113.83	9.78	-40.7	-43.2	23.3	0.00e+00	0	43	0	0	52	4935
2026-01-26 18:28:47.25	113.56	9.59	-40.9	-43.4	23.2	0.00e+00	0	43	0	0	52	5046
2026-01-26 18:28:49.24	113.31	9.40	-41.2	-43.7	22.8	0.00e+00	0	43	0	0	53	4928
2026-01-26 18:28:51.23	113.05	9.22	-41.3	-43.8	22.7	0.00e+00	0	43	0	0	53	5011
2026-01-26 18:28:53.29	112.79	9.03	-41.5	-44.0	22.5	0.00e+00	0	43	0	0	53	5127
2026-01-26 18:28:55.39	112.54	8.83	-49.2	-68.2	3.8	4.36e-01	0	43	104	0	69	32970
2026-01-26 18:28:57.44	112.29	8.65	-49.5	-68.5	3.8	8.47e-01	0	43	104	0	69	34115
2026-01-26 18:28:59.49	112.04	8.46	-49.7	-68.6	3.9	8.47e-01	0	43	104	0	70	32712
2026-01-26 18:29:01.54	111.80	8.28	-49.7	-68.6	3.8	8.48e-01	0	43	104	0	70	32812
2026-01-26 18:29:03.53	111.58	8.10	-49.4	-68.6	3.8	8.46e-01	0	43	104	0	70	32904
2026-01-26 18:29:05.52	111.35	7.93	-49.5	-68.7	3.8	8.47e-01	0	43	104	0	70	33025
2026-01-26 18:29:07.50	111.13	7.75	-49.5	-68.7	3.8	8.48e-01	0	43	104	0	70	33066
2026-01-26 18:29:09.49	110.92	7.58	-49.5	-68.7	3.8	8.47e-01	0	43	104	0	70	33121
2026-01-26 18:29:11.48	110.70	7.41	-49.4	-68.7	3.8	8.47e-01	0	43	104	0	70	33073
2026-01-26 18:29:13.47	110.49	7.24	-49.4	-68.7	3.8	8.46e-01	0	43	104	0	70	33085
2026-01-26 18:29:15.45	110.29	7.08	-49.5	-68.6	3.8	8.46e-01	0	43	104	0	70	32871
2026-01-26 18:29:17.53	110.08	6.90	-49.5	-68.6	3.8	8.48e-01	0	43	104	0	70	32858
2026-01-26 18:29:19.52	109.88	6.74	-49.5	-68.6	3.8	8.47e-01	0	43	104	0	70	32925
2026-01-26 18:29:21.51	109.68	6.57	-49.4	-68.6	3.8	8.46e-01	0	43	104	0	70	32848
2026-01-26 18:29:23.49	109.49	6.41	-49.5	-68.6	3.8	8.48e-01	0	43	104	0	70	32731
2026-01-26 18:29:25.48	109.30	6.25	-49.4	-68.6	3.8	8.47e-01	0	43	104	0	70	32721
2026-01-26 18:29:27.47	109.11	6.09	-49.4	-68.6	3.8	8.46e-01	0	43	104	0	70	32699
2026-01-26 18:29:29.45	108.93	5.94	-49.4	-68.6	3.8	8.47e-01	0	43	104	0	70	32626
2026-01-26 18:29:31.44	108.74	5.78	-49.4	-68.6	3.8	8.47e-01	0	43	104	0	70	32688
2026-01-26 18:29:33.42	108.57	5.62	-49.4	-68.6	3.8	8.46e-01	0	43	104	0	70	32749
2026-01-26 18:29:35.41	108.39	5.47	-49.4	-68.6	3.8	8.47e-01	0	43	104	0	70	32602
2026-01-26 18:29:37.40	108.22	5.32	-49.4	-68.6	3.8	8.46e-01	0	43	104	0	70	32640
2026-01-26 18:29:39.39	108.05	5.16	-49.4	-68.6	3.8	8.48e-01	0	43	104	0	70	32580
2026-01-26 18:29:41.37	107.88	5.01	-49.4	-68.6	3.8	8.47e-01	0	43	104	0	70	32596

#Closed at: 2026-01-26 18:29:42
#Recorded file [0 MB]: D:/Data/31040_260126_212159.dat