passes_logs/2026/01/26/T1/T1__20260126_034922_FENGYUN_3E_rec.log

#Pass ID: 20260126_034922_FENGYUN 3E
#Satellite: FENGYUN 3E
#Configuration: FENGYUN 3E
#almurnet v.1.7.20251203
#Start time: 2026-01-26 03:49:23

#Version: 2.0.20230620
#Station: T1
#Location: 37.570604 lon 55.790049 lat
#TLE: 1 49008U 21062A   26025.50541212  .00000123  00000+0  78606-4 0  9993
#TLE: 2 49008  98.7497  30.5110 0002440 117.2537 242.8888 14.19886993236338

#Time	Az	El	Level	Level2	SNR	BER	BlckErr	Temp	State	Recorded	gain1	gain2
2026-01-26 03:49:23.30	17.34	5.05	-47.5	-59.2	3.8	8.46e-01	0	40	0	0	64	14697
2026-01-26 03:49:27.27	17.39	5.34	-47.4	-59.0	3.8	8.47e-01	0	40	104	0	64	14311
2026-01-26 03:49:31.24	17.44	5.62	-47.4	-58.8	3.8	8.48e-01	0	40	104	0	64	13978
2026-01-26 03:49:35.21	17.49	5.91	-47.4	-58.8	3.8	8.47e-01	0	40	104	0	64	14030
2026-01-26 03:49:39.18	17.53	6.21	-47.5	-59.1	3.8	8.46e-01	0	41	104	0	64	14488
2026-01-26 03:49:43.16	17.59	6.50	-47.4	-59.1	3.8	8.46e-01	0	40	104	0	64	14399
2026-01-26 03:49:47.13	17.64	6.80	-47.4	-58.2	3.8	8.46e-01	0	41	104	0	64	12987
2026-01-26 03:49:51.10	17.69	7.11	-47.2	-56.6	3.9	8.46e-01	0	41	104	0	64	10866
2026-01-26 03:49:55.07	17.74	7.41	-46.9	-54.7	4.5	8.23e-01	0	41	0	0	64	8749
2026-01-26 03:49:59.04	17.79	7.72	-46.6	-53.5	5.1	7.59e-01	0	41	0	0	64	7590
2026-01-26 03:50:03.01	17.85	8.04	-46.4	-52.2	6.1	3.17e-01	0	41	0	8388608	63	6889
2026-01-26 03:50:06.99	17.90	8.36	-45.3	-49.3	8.7	4.45e-02	0	41	0	36700160	61	5560
2026-01-26 03:50:10.96	17.96	8.68	-43.7	-46.3	11.7	8.35e-04	0	41	0	66060288	58	4699
2026-01-26 03:50:14.93	18.01	9.01	-42.4	-44.5	13.5	9.10e-06	0	41	0	94371840	55	4522
2026-01-26 03:50:18.91	18.07	9.34	-46.4	-52.9	5.5	1.63e-01	0	42	0	122683392	62	7965
2026-01-26 03:50:22.94	18.13	9.68	-37.5	-38.6	19.3	0.00e+00	0	42	0	150994944	45	4070
2026-01-26 03:50:26.86	18.19	10.02	-37.2	-38.2	19.6	0.00e+00	0	42	0	179306496	45	3899
2026-01-26 03:50:30.84	18.25	10.36	-36.9	-37.9	20.0	0.00e+00	0	42	0	207618048	44	3982
2026-01-26 03:50:34.82	18.31	10.71	-36.9	-37.9	20.0	0.00e+00	0	42	0	236978176	44	3977
2026-01-26 03:50:38.91	18.38	11.08	-36.8	-37.8	20.1	0.00e+00	0	42	0	266338304	44	3935
2026-01-26 03:50:42.89	18.44	11.44	-36.7	-37.7	20.3	0.00e+00	0	42	0	294649856	44	3889
2026-01-26 03:50:46.86	18.50	11.81	-36.5	-37.5	20.4	0.00e+00	0	42	0	324009984	43	4006
2026-01-26 03:50:50.86	18.57	12.18	-36.3	-37.2	20.6	0.00e+00	0	42	0	352321536	43	3911
2026-01-26 03:50:54.98	18.64	12.57	-36.2	-37.2	20.6	0.00e+00	0	42	0	381681664	42	4114
2026-01-26 03:50:58.97	18.71	12.96	-36.2	-37.1	20.8	0.00e+00	0	42	0	411041792	42	4082
2026-01-26 03:51:02.94	18.78	13.35	-35.9	-36.8	21.0	0.00e+00	0	42	0	439353344	42	3932
2026-01-26 03:51:07.24	18.86	13.78	-35.7	-36.6	21.2	0.00e+00	0	42	0	470810624	42	3856
2026-01-26 03:51:11.22	18.93	14.18	-35.4	-36.4	21.4	0.00e+00	0	42	0	499122176	41	3968
2026-01-26 03:51:15.20	19.01	14.59	-35.3	-36.3	21.5	0.00e+00	0	42	0	527433728	41	3937
2026-01-26 03:51:19.28	19.08	15.02	-35.2	-36.1	21.7	0.00e+00	0	42	0	557842432	41	3862
2026-01-26 03:51:23.38	19.16	15.46	-35.0	-36.0	21.8	0.00e+00	0	42	0	587202560	40	4008
2026-01-26 03:51:27.36	19.24	15.90	-34.9	-35.9	21.9	0.00e+00	0	42	0	615514112	40	3970
2026-01-26 03:51:31.34	19.33	16.34	-34.8	-35.7	22.1	0.00e+00	0	42	0	644874240	40	3907
2026-01-26 03:51:35.33	19.41	16.79	-34.9	-35.8	22.1	0.00e+00	0	42	0	673185792	40	3921
2026-01-26 03:51:39.48	19.50	17.27	-34.7	-35.6	22.2	0.00e+00	0	42	0	703594496	40	3850
2026-01-26 03:51:43.46	19.59	17.73	-34.6	-35.5	22.4	0.00e+00	0	42	0	731906048	39	4028
2026-01-26 03:51:47.45	19.68	18.21	-34.7	-35.6	22.3	0.00e+00	0	42	0	760217600	39	4072
2026-01-26 03:51:51.42	19.77	18.69	-34.7	-35.5	22.4	0.00e+00	0	42	0	789577728	39	4040
2026-01-26 03:51:55.41	19.87	19.19	-34.7	-35.6	22.3	0.00e+00	0	42	0	817889280	39	4072
2026-01-26 03:51:59.57	19.97	19.72	-34.7	-35.6	22.3	0.00e+00	0	42	0	848297984	39	4067
2026-01-26 03:52:03.74	20.08	20.26	-34.6	-35.5	22.4	0.00e+00	0	42	0	878706688	39	4011
2026-01-26 03:52:07.75	20.18	20.79	-34.5	-35.3	22.5	0.00e+00	0	42	0	907018240	39	3953
2026-01-26 03:52:11.77	20.29	21.34	-34.4	-35.3	22.6	0.00e+00	0	42	0	936378368	39	3941
2026-01-26 03:52:15.76	20.40	21.89	-34.3	-35.2	22.7	0.00e+00	0	42	0	965738496	39	3877
2026-01-26 03:52:19.71	20.51	22.45	-34.4	-35.2	22.7	0.00e+00	0	42	0	994050048	39	3903
2026-01-26 03:52:23.69	20.63	23.03	-34.4	-35.3	22.6	0.00e+00	0	42	0	1022361600	39	3928
2026-01-26 03:52:27.66	20.75	23.61	-34.2	-35.1	22.9	0.00e+00	0	42	0	1050673152	38	4056
2026-01-26 03:52:31.69	20.88	24.22	-34.0	-34.9	22.9	0.00e+00	0	43	0	1080033280	38	3976
2026-01-26 03:52:36.19	21.03	24.92	-34.0	-34.9	23.0	0.00e+00	0	42	0	1112539136	38	3967
2026-01-26 03:52:40.28	21.17	25.57	-34.0	-34.8	23.0	0.00e+00	0	43	0	1141899264	38	3949
2026-01-26 03:52:44.28	21.31	26.23	-33.9	-34.7	23.2	0.00e+00	0	42	0	1171259392	38	3895
2026-01-26 03:52:48.26	21.45	26.89	-33.6	-34.4	23.4	0.00e+00	0	42	0	1199570944	37	3994
2026-01-26 03:52:52.29	21.61	27.58	-33.5	-34.3	23.5	0.00e+00	0	43	0	1228931072	37	3929
2026-01-26 03:52:56.28	21.76	28.29	-33.3	-34.1	23.7	0.00e+00	0	43	0	1257242624	37	3841
2026-01-26 03:53:00.30	21.93	29.01	-33.2	-34.0	23.8	0.00e+00	0	43	0	1286602752	36	4018
2026-01-26 03:53:04.29	22.10	29.75	-33.2	-34.0	23.8	0.00e+00	0	43	0	1314914304	36	4038
2026-01-26 03:53:08.29	22.28	30.51	-33.1	-33.9	23.9	0.00e+00	0	43	0	1344274432	36	3998
2026-01-26 03:53:12.28	22.47	31.29	-33.3	-34.1	23.7	0.00e+00	0	43	0	1373634560	36	4062
2026-01-26 03:53:16.26	22.66	32.09	-33.6	-34.5	23.4	0.00e+00	0	43	0	1401946112	36	4247
2026-01-26 03:53:20.24	22.87	32.91	-33.9	-34.7	23.3	0.00e+00	0	43	0	1430257664	37	4118
2026-01-26 03:53:24.37	23.09	33.78	-33.7	-34.5	23.4	0.00e+00	0	43	0	1460666368	37	4043
2026-01-26 03:53:28.72	23.33	34.73	-33.5	-34.4	23.6	0.00e+00	0	43	0	1492123648	37	3967
2026-01-26 03:53:32.69	23.57	35.62	-33.2	-34.0	23.9	0.00e+00	0	42	0	1520435200	37	3821
2026-01-26 03:53:36.70	23.82	36.55	-33.2	-34.0	23.9	0.00e+00	0	43	0	1549795328	36	4051
2026-01-26 03:53:40.87	24.10	37.54	-33.5	-34.4	23.5	0.00e+00	0	43	0	1579155456	36	4212
2026-01-26 03:53:44.97	24.39	38.54	-33.7	-34.5	23.4	0.00e+00	0	43	0	1609564160	37	4033
2026-01-26 03:53:48.97	24.69	39.55	-33.9	-34.7	23.3	0.00e+00	0	43	0	1637875712	37	4138
2026-01-26 03:53:52.95	25.00	40.58	-33.9	-34.8	23.2	0.00e+00	0	43	0	1666187264	37	4157
2026-01-26 03:53:57.29	25.37	41.74	-33.7	-34.5	23.4	0.00e+00	0	43	0	1697644544	37	4029
2026-01-26 03:54:01.30	25.73	42.84	-33.9	-34.7	23.3	0.00e+00	0	43	0	1727004672	37	4133
2026-01-26 03:54:05.29	26.11	43.98	-33.7	-34.6	23.4	0.00e+00	0	43	0	1755316224	37	4066
2026-01-26 03:54:09.27	26.53	45.14	-34.3	-35.2	22.9	0.00e+00	0	43	0	1784676352	38	4116
2026-01-26 03:54:13.36	26.98	46.36	-34.3	-35.1	22.9	0.00e+00	0	43	0	1814036480	38	4083
2026-01-26 03:54:17.58	27.49	47.67	-34.8	-35.6	22.4	0.00e+00	0	43	0	1844445184	39	4097
2026-01-26 03:54:21.60	28.01	48.94	-35.1	-36.0	22.0	0.00e+00	0	43	0	1873805312	40	4046
2026-01-26 03:54:25.60	28.58	50.25	-34.9	-35.8	22.3	0.00e+00	0	43	0	1902116864	39	4167
2026-01-26 03:54:29.58	29.19	51.58	-35.2	-36.1	22.0	0.00e+00	0	43	0	1931476992	40	4076
2026-01-26 03:54:33.54	29.86	52.95	-34.7	-35.5	22.5	0.00e+00	0	43	0	1959788544	40	3819
2026-01-26 03:54:37.52	30.59	54.35	-34.9	-35.7	22.3	0.00e+00	0	43	0	1988100096	40	3903
2026-01-26 03:54:41.61	31.43	55.83	-35.2	-36.1	22.0	0.00e+00	0	43	0	2018508800	40	4058
2026-01-26 03:54:45.62	32.33	57.32	-35.3	-36.2	21.9	0.00e+00	0	43	0	2046820352	40	4128
2026-01-26 03:54:49.80	33.39	58.90	-35.2	-36.0	22.1	0.00e+00	0	43	0	2077229056	40	4042
2026-01-26 03:54:53.79	34.52	60.44	-34.9	-35.7	22.3	0.00e+00	0	43	0	2105540608	40	3909
2026-01-26 03:54:57.90	35.84	62.05	-34.7	-35.6	22.5	0.00e+00	0	43	0	2135949312	40	3836
2026-01-26 03:55:01.89	37.30	63.64	-34.4	-35.3	22.8	0.00e+00	0	43	0	2164260864	39	3922
2026-01-26 03:55:05.87	38.97	65.25	-33.9	-34.7	23.3	0.00e+00	0	43	0	2193620992	38	3909
2026-01-26 03:55:09.91	40.93	66.89	-34.1	-35.0	23.1	0.00e+00	0	43	0	2221932544	37	4245
2026-01-26 03:55:14.00	43.24	68.56	-33.6	-34.4	23.5	0.00e+00	0	43	0	2251292672	37	4002
2026-01-26 03:55:18.26	46.10	70.29	-33.9	-34.8	23.2	0.00e+00	0	43	0	2282749952	37	4154
2026-01-26 03:55:22.24	49.30	71.88	-33.9	-34.7	23.3	0.00e+00	0	43	0	2311061504	37	4138
2026-01-26 03:55:26.22	53.14	73.44	-33.4	-34.2	23.7	0.00e+00	0	43	0	2340421632	37	3895
2026-01-26 03:55:30.26	57.88	74.95	-33.0	-33.8	24.1	0.00e+00	0	43	0	2369781760	36	3926
2026-01-26 03:55:34.25	63.59	76.34	-31.7	-32.5	24.1	0.00e+00	0	43	0	2398093312	33	4023
2026-01-26 03:55:38.34	70.75	77.61	-31.5	-32.3	24.4	0.00e+00	0	43	0	2427453440	33	3953
2026-01-26 03:55:42.33	79.20	78.64	-31.5	-32.3	24.4	0.00e+00	0	43	0	2456813568	33	3919
2026-01-26 03:55:46.30	89.05	79.38	-31.4	-32.2	24.4	0.00e+00	0	43	0	2485125120	33	3908
2026-01-26 03:55:50.28	100.07	79.78	-31.7	-32.5	24.2	0.00e+00	0	43	0	2513436672	32	4247
2026-01-26 03:55:54.29	111.63	79.79	-31.5	-32.3	23.9	0.00e+00	0	43	0	2542796800	32	4170
2026-01-26 03:55:58.49	123.26	79.37	-31.2	-32.0	24.6	0.00e+00	0	43	0	2573205504	32	4044
2026-01-26 03:56:02.49	133.15	78.61	-31.4	-32.1	24.5	0.00e+00	0	43	0	2601517056	32	4098
2026-01-26 03:56:06.47	141.54	77.57	-31.4	-32.1	24.5	0.00e+00	0	43	0	2630877184	32	4098
2026-01-26 03:56:10.74	148.94	76.23	-31.9	-32.7	24.0	0.00e+00	0	43	0	2661285888	33	4141
2026-01-26 03:56:14.92	154.81	74.76	-32.5	-33.3	23.5	0.00e+00	0	43	0	2691694592	34	4186
2026-01-26 03:56:18.90	159.38	73.26	-33.1	-33.9	23.1	0.00e+00	0	43	0	2720006144	35	4215
2026-01-26 03:56:22.91	163.17	71.69	-34.7	-35.6	22.5	0.00e+00	0	43	0	2749366272	38	4316
2026-01-26 03:56:26.93	166.33	70.07	-34.8	-35.7	22.5	0.00e+00	0	43	0	2778726400	39	4102
2026-01-26 03:56:31.21	169.14	68.33	-34.0	-34.8	23.2	0.00e+00	0	43	0	2809135104	38	3958
2026-01-26 03:56:35.20	171.36	66.70	-33.6	-34.4	23.6	0.00e+00	0	43	0	2837446656	37	4000
2026-01-26 03:56:39.20	173.27	65.07	-33.9	-34.7	23.4	0.00e+00	0	43	0	2866806784	37	4118
2026-01-26 03:56:43.25	174.94	63.43	-34.3	-35.1	23.0	0.00e+00	0	43	0	2896166912	37	4327
2026-01-26 03:56:47.43	176.44	61.76	-34.9	-35.7	22.5	0.00e+00	0	43	0	2926575616	39	4124
2026-01-26 03:56:51.42	177.70	60.19	-35.1	-36.0	22.3	0.00e+00	0	43	0	2954887168	39	4244
2026-01-26 03:56:55.47	178.83	58.63	-35.2	-36.1	22.1	0.00e+00	0	43	0	2984247296	39	4325
2026-01-26 03:56:59.57	179.85	57.08	-35.4	-36.3	21.9	0.00e+00	0	43	0	3013607424	40	4161
2026-01-26 03:57:03.60	180.75	55.58	-35.4	-36.2	21.9	0.00e+00	0	43	0	3042967552	41	3908
2026-01-26 03:57:07.59	181.55	54.14	-35.1	-35.9	22.2	0.00e+00	0	43	0	3071279104	40	4003
2026-01-26 03:57:11.57	182.28	52.73	-35.1	-36.0	22.1	0.00e+00	0	43	0	3100639232	40	4031
2026-01-26 03:57:15.61	182.95	51.34	-35.4	-36.3	21.8	0.00e+00	0	43	0	3129999360	40	4169
2026-01-26 03:57:19.86	183.60	49.92	-35.0	-35.9	22.2	0.00e+00	0	43	0	3160408064	40	3967
2026-01-26 03:57:24.20	184.20	48.50	-35.3	-36.2	21.9	0.00e+00	0	43	0	3191865344	40	4114
2026-01-26 03:57:28.18	184.70	47.24	-34.4	-35.2	22.8	0.00e+00	0	43	0	3220176896	39	3907
2026-01-26 03:57:32.16	185.17	46.02	-34.2	-35.1	22.9	0.00e+00	0	43	0	3249537024	38	4067
2026-01-26 03:57:36.37	185.63	44.76	-34.1	-34.9	23.2	0.00e+00	0	43	0	3279945728	38	3987
2026-01-26 03:57:40.35	186.04	43.60	-33.5	-34.3	23.7	0.00e+00	0	43	0	3308257280	37	3923
2026-01-26 03:57:44.33	186.41	42.48	-33.8	-34.6	23.2	0.00e+00	0	43	0	3336568832	37	4095
2026-01-26 03:57:48.31	186.77	41.39	-34.0	-34.8	23.2	0.00e+00	0	43	0	3365928960	37	4187
2026-01-26 03:57:52.29	187.10	40.32	-34.0	-34.8	23.2	0.00e+00	0	43	0	3394240512	37	4171
2026-01-26 03:57:56.49	187.42	39.24	-34.3	-35.2	22.9	0.00e+00	0	43	0	3424649216	38	4124
2026-01-26 03:58:00.48	187.72	38.23	-34.1	-35.0	23.0	0.00e+00	0	43	0	3454009344	38	4021
2026-01-26 03:58:04.45	187.99	37.26	-33.4	-34.3	23.0	0.00e+00	0	43	0	3482320896	37	3915
2026-01-26 03:58:08.45	188.25	36.31	-33.3	-34.1	23.8	0.00e+00	0	43	0	3510632448	37	3856
2026-01-26 03:58:12.65	188.51	35.34	-33.6	-34.4	23.5	0.00e+00	0	43	0	3541041152	37	3977
2026-01-26 03:58:16.96	188.77	34.38	-33.4	-34.2	23.7	0.00e+00	0	43	0	3572498432	37	3886
2026-01-26 03:58:21.41	189.01	33.41	-33.3	-34.1	23.8	0.00e+00	0	43	0	3605004288	37	3842
2026-01-26 03:58:25.40	189.22	32.57	-33.2	-34.0	23.8	0.00e+00	0	43	0	3633315840	37	3799
2026-01-26 03:58:29.40	189.42	31.75	-33.5	-34.3	23.6	0.00e+00	0	43	0	3662675968	37	3933
2026-01-26 03:58:33.39	189.61	30.95	-33.7	-34.5	23.4	0.00e+00	0	43	0	3690987520	37	4048
2026-01-26 03:58:37.66	189.81	30.12	-33.8	-34.6	23.3	0.00e+00	0	43	0	3722444800	37	4083
2026-01-26 03:58:41.68	189.99	29.36	-33.6	-34.4	23.5	0.00e+00	0	43	0	3750756352	37	3987
2026-01-26 03:58:45.68	190.15	28.62	-33.7	-34.5	23.5	0.00e+00	0	43	0	3780116480	37	4019
2026-01-26 03:58:49.67	190.31	27.90	-33.7	-34.6	23.3	0.00e+00	0	43	0	3808428032	37	4058
2026-01-26 03:58:53.88	190.47	27.17	-33.8	-34.7	23.3	0.00e+00	0	43	0	3838836736	37	4106
2026-01-26 03:58:58.10	190.63	26.45	-33.9	-34.8	23.2	0.00e+00	0	43	0	3869245440	37	4159
2026-01-26 03:59:02.14	190.77	25.78	-34.0	-34.8	23.1	0.00e+00	0	43	0	3898605568	37	4188
2026-01-26 03:59:06.17	190.91	25.12	-34.1	-34.9	23.1	0.00e+00	0	43	0	3927965696	37	4233
2026-01-26 03:59:10.17	191.04	24.49	-34.2	-35.0	22.9	0.00e+00	0	43	0	3956277248	37	4284
2026-01-26 03:59:14.21	191.17	23.87	-34.2	-35.1	22.9	0.00e+00	0	43	0	3985637376	38	4066
2026-01-26 03:59:18.23	191.29	23.26	-34.3	-35.1	22.9	0.00e+00	0	43	0	4014997504	38	4083
2026-01-26 03:59:22.21	191.41	22.67	-34.3	-35.2	22.8	0.00e+00	0	43	0	4043309056	38	4109
2026-01-26 03:59:26.23	191.53	22.09	-34.2	-35.1	22.8	0.00e+00	0	43	0	4072669184	38	4062
2026-01-26 03:59:30.21	191.64	21.53	-34.3	-35.2	22.7	0.00e+00	0	43	0	4100980736	38	4116
2026-01-26 03:59:34.36	191.75	20.96	-34.3	-35.1	22.8	0.00e+00	0	43	0	4131389440	38	4080
2026-01-26 03:59:38.34	191.85	20.42	-34.3	-35.1	22.8	0.00e+00	0	43	0	4159700992	38	4091
2026-01-26 03:59:42.32	191.95	19.90	-34.3	-35.2	22.8	0.00e+00	0	43	0	4189061120	38	4119
2026-01-26 03:59:46.33	192.05	19.38	-34.5	-35.3	22.6	0.00e+00	0	43	0	4217372672	38	4187
2026-01-26 03:59:50.38	192.15	18.87	-34.6	-35.5	22.4	0.00e+00	0	43	0	4246732800	38	4259
2026-01-26 03:59:54.40	192.24	18.37	-34.8	-35.7	22.3	0.00e+00	0	43	0	4276092928	39	4131
2026-01-26 03:59:58.38	192.33	17.88	-35.0	-35.9	22.1	0.00e+00	0	43	0	4304404480	39	4195
2026-01-26 04:00:02.36	192.41	17.41	-35.1	-36.0	21.9	0.00e+00	0	43	0	4333764608	39	4273
2026-01-26 04:00:06.33	192.50	16.94	-35.3	-36.2	21.8	0.00e+00	0	43	0	4362076160	40	4111
2026-01-26 04:00:10.35	192.58	16.48	-35.4	-36.3	21.6	0.00e+00	0	43	0	4390387712	40	4188
2026-01-26 04:00:14.55	192.67	16.01	-35.6	-36.5	21.4	0.00e+00	0	43	0	4421844992	40	4271
2026-01-26 04:00:18.56	192.75	15.57	-35.6	-36.5	21.3	0.00e+00	0	43	0	4450156544	40	4286
2026-01-26 04:00:22.59	192.82	15.13	-35.8	-36.7	21.2	0.00e+00	0	43	0	4479516672	41	4130
2026-01-26 04:00:26.80	192.90	14.68	-35.8	-36.8	21.1	0.00e+00	0	43	0	4509925376	41	4171
2026-01-26 04:00:30.80	192.97	14.26	-35.9	-36.9	21.0	0.00e+00	0	43	0	4538236928	41	4222
2026-01-26 04:00:34.77	193.04	13.85	-36.0	-37.0	20.8	0.00e+00	0	43	0	4567597056	41	4257
2026-01-26 04:00:38.80	193.11	13.44	-36.0	-37.0	20.9	0.00e+00	0	43	0	4595908608	41	4255
2026-01-26 04:00:43.16	193.19	13.01	-36.1	-37.1	20.8	0.00e+00	0	43	0	4628414464	41	4315
2026-01-26 04:00:47.42	193.26	12.59	-36.1	-37.2	20.7	0.00e+00	0	43	0	4658823168	41	4348
2026-01-26 04:00:51.97	193.33	12.16	-36.3	-37.3	20.6	0.00e+00	0	43	0	4691329024	42	4170
2026-01-26 04:00:56.67	193.41	11.71	-36.6	-37.6	20.3	0.00e+00	0	43	0	4725932032	42	4320
2026-01-26 04:01:01.50	193.48	11.26	-36.5	-37.6	20.3	0.00e+00	0	43	0	4760535040	42	4297
2026-01-26 04:01:06.05	193.55	10.85	-36.7	-37.7	20.1	0.00e+00	0	43	0	4793040896	42	4387
2026-01-26 04:01:10.60	193.62	10.44	-36.7	-37.8	20.0	0.00e+00	0	43	0	4826595328	43	4170
2026-01-26 04:01:15.15	193.68	10.04	-36.8	-37.9	19.8	0.00e+00	0	43	0	4859101184	43	4231
2026-01-26 04:01:20.05	193.75	9.62	-36.9	-38.0	19.8	0.00e+00	0	43	0	4893704192	43	4266
2026-01-26 04:01:24.59	193.81	9.23	-37.1	-38.2	19.5	0.00e+00	0	43	0	4927258624	43	4367
2026-01-26 04:01:29.14	193.87	8.85	-47.9	-59.4	3.8	8.46e-01	0	43	104	4951375872	65	14121
2026-01-26 04:01:34.09	193.94	8.44	-49.2	-60.0	3.8	8.47e-01	0	43	104	4951375872	67	13474
2026-01-26 04:01:38.28	193.99	8.10	-49.4	-60.2	3.8	8.48e-01	0	43	104	4951375872	68	13079
2026-01-26 04:01:42.27	194.04	7.78	-49.4	-60.3	3.8	8.49e-01	0	43	104	4951375872	68	13116
2026-01-26 04:01:46.26	194.09	7.46	-49.4	-60.3	3.8	8.47e-01	0	43	104	4951375872	68	13118
2026-01-26 04:01:50.36	194.14	7.14	-49.3	-60.2	3.8	8.47e-01	0	43	104	4951375872	68	13076
2026-01-26 04:01:54.47	194.19	6.82	-49.1	-60.2	3.8	8.47e-01	0	43	104	4951375872	68	13004
2026-01-26 04:01:58.44	194.24	6.52	-49.1	-60.1	3.8	8.47e-01	0	43	104	4951375872	68	12886
2026-01-26 04:02:02.41	194.29	6.22	-49.1	-60.1	3.8	8.46e-01	0	43	104	4951375872	68	12827
2026-01-26 04:02:06.40	194.33	5.92	-49.1	-60.1	3.8	8.47e-01	0	43	104	4951375872	68	12944
2026-01-26 04:02:10.39	194.38	5.63	-49.1	-60.1	3.8	8.47e-01	0	43	104	4951375872	68	12879
2026-01-26 04:02:14.39	194.42	5.33	-49.1	-60.1	3.8	8.48e-01	0	43	104	4951375872	68	12870
2026-01-26 04:02:18.37	194.47	5.05	-49.1	-60.1	3.8	8.47e-01	0	43	104	4951375872	68	12926

#Closed at: 2026-01-26 04:02:20
#Recorded file [4951 MB]: D:/Data/31040_260126_064923.dat