passes_logs/2026/01/26/T1/T1__20260126_013020_NOAA_20_JPSS-1_rec.log

#Pass ID: 20260126_013020_NOAA 20 (JPSS-1)
#Satellite: NOAA 20 (JPSS-1)
#Configuration: NOAA 20
#almurnet v.1.7.20251203
#Start time: 2026-01-26 01:30:23

#Version: 2.0.20230620
#Station: T1
#Location: 37.570604 lon 55.790049 lat
#TLE: 1 43013U 17073A   26025.47986292  .00000161  00000+0  97249-4 0  9993
#TLE: 2 43013  98.7646 326.3091 0001052  24.2709 335.8516 14.19540188424225

#Time	Az	El	Level	Level2	SNR	BER	BlckErr	Temp	State	Recorded	gain1	gain2
2026-01-26 01:30:23.19	5.59	5.14	-46.6	-62.9	3.8	1.49e+00	0	36	0	0	65	22760
2026-01-26 01:30:26.17	5.33	5.32	-46.6	-62.9	3.8	1.49e+00	0	36	104	0	65	22699
2026-01-26 01:30:29.14	5.07	5.49	-46.6	-63.0	3.8	1.49e+00	0	36	104	0	65	22828
2026-01-26 01:30:32.12	4.81	5.67	-46.6	-63.0	3.8	1.49e+00	0	37	104	0	65	22918
2026-01-26 01:30:35.10	4.54	5.85	-46.6	-63.0	3.8	1.49e+00	0	36	104	0	65	22933
2026-01-26 01:30:38.08	4.27	6.02	-46.6	-63.0	3.8	1.49e+00	0	37	104	0	65	22979
2026-01-26 01:30:41.06	3.99	6.20	-46.6	-63.1	3.8	1.49e+00	0	37	104	0	65	23092
2026-01-26 01:30:44.04	3.71	6.38	-46.6	-63.0	3.8	1.49e+00	0	37	104	0	65	22982
2026-01-26 01:30:47.02	3.43	6.56	-46.5	-63.0	3.8	1.49e+00	0	37	104	0	65	22953
2026-01-26 01:30:49.99	3.14	6.74	-46.6	-63.0	3.8	1.49e+00	0	37	104	0	65	22815
2026-01-26 01:30:52.97	2.85	6.92	-46.6	-63.0	3.8	1.49e+00	0	37	104	0	65	22933
2026-01-26 01:30:55.95	2.56	7.10	-46.6	-63.1	3.8	1.49e+00	0	37	104	0	65	23058
2026-01-26 01:30:58.93	2.26	7.28	-46.5	-63.0	3.8	1.49e+00	0	37	104	0	65	22872
2026-01-26 01:31:01.91	1.96	7.46	-46.5	-62.9	3.8	1.49e+00	0	37	104	0	65	22671
2026-01-26 01:31:04.89	1.65	7.65	-46.5	-62.9	3.8	1.49e+00	0	37	104	0	65	22587
2026-01-26 01:31:07.87	1.34	7.83	-46.5	-62.5	3.8	1.49e+00	0	37	104	0	65	21655
2026-01-26 01:31:10.85	1.03	8.01	-46.5	-62.2	3.8	1.49e+00	0	38	104	0	65	20972
2026-01-26 01:31:13.83	0.71	8.20	-46.5	-62.7	3.8	1.49e+00	0	38	104	0	65	22200
2026-01-26 01:31:16.81	0.39	8.38	-46.6	-62.7	3.8	1.49e+00	0	38	104	0	65	22236
2026-01-26 01:31:19.79	0.06	8.57	-46.3	-58.4	4.6	1.39e+00	0	38	0	0	64	14229
2026-01-26 01:31:22.77	359.73	8.75	-45.4	-52.6	9.3	4.02e-02	0	38	0	5242880	62	8197
2026-01-26 01:31:25.75	359.40	8.94	-44.6	-50.2	11.7	6.62e-04	0	38	0	11534336	61	6631
2026-01-26 01:31:28.73	359.06	9.13	-46.2	-57.7	5.0	2.09e-01	0	38	0	16777216	62	14833
2026-01-26 01:31:31.72	358.71	9.31	-44.1	-48.5	13.6	7.00e-07	0	38	0	22020096	58	6469
2026-01-26 01:31:34.70	358.36	9.50	-43.0	-46.8	15.2	0.00e+00	0	38	0	28311552	58	5280
2026-01-26 01:31:37.69	358.01	9.69	-42.8	-46.7	15.3	0.00e+00	0	38	0	33554432	57	5553
2026-01-26 01:31:40.67	357.65	9.88	-42.7	-46.6	15.3	0.00e+00	0	38	0	38797312	57	5511
2026-01-26 01:31:43.76	357.28	10.07	-42.4	-46.4	15.6	0.00e+00	0	38	0	45088768	56	5660
2026-01-26 01:31:46.60	356.92	10.25	-42.4	-46.5	15.6	0.00e+00	0	38	0	50331648	56	5760
2026-01-26 01:31:49.73	356.53	10.45	-42.3	-46.7	15.4	0.00e+00	0	38	0	56623104	56	5872
2026-01-26 01:31:52.57	356.17	10.63	-42.3	-46.8	15.3	7.00e-07	0	38	0	61865984	56	5965
2026-01-26 01:31:55.70	355.77	10.83	-42.2	-46.6	15.4	7.00e-07	0	38	0	67108864	56	5852
2026-01-26 01:31:58.59	355.40	11.01	-41.6	-46.0	15.9	0.00e+00	0	38	0	72351744	55	5770
2026-01-26 01:32:01.78	354.98	11.22	-41.6	-45.9	16.0	0.00e+00	0	38	0	78643200	55	5704
2026-01-26 01:32:04.72	354.58	11.40	-41.6	-45.7	16.2	0.00e+00	0	38	0	83886080	54	5888
2026-01-26 01:32:08.08	354.13	11.62	-41.5	-45.5	16.4	0.00e+00	0	38	0	90177536	54	5741
2026-01-26 01:32:10.81	353.75	11.79	-41.4	-45.3	16.7	0.00e+00	0	38	0	95420416	54	5603
2026-01-26 01:32:14.08	353.30	12.00	-41.4	-45.3	16.7	0.00e+00	0	38	0	101711872	54	5594
2026-01-26 01:32:17.01	352.88	12.19	-41.4	-45.2	16.7	0.00e+00	0	38	0	106954752	54	5581
2026-01-26 01:32:20.00	352.45	12.38	-41.4	-45.3	16.7	0.00e+00	0	38	0	113246208	54	5639
2026-01-26 01:32:22.98	352.02	12.57	-41.4	-45.1	16.8	0.00e+00	0	38	0	118489088	54	5528
2026-01-26 01:32:25.96	351.58	12.76	-41.6	-45.3	16.6	0.00e+00	0	38	0	123731968	54	5651
2026-01-26 01:32:28.95	351.14	12.95	-41.6	-45.3	16.7	0.00e+00	0	38	0	130023424	54	5610
2026-01-26 01:32:31.93	350.69	13.13	-41.9	-45.2	16.8	0.00e+00	0	38	0	135266304	54	5546
2026-01-26 01:32:34.92	350.23	13.32	-42.2	-45.3	16.7	0.00e+00	0	38	0	140509184	55	5291
2026-01-26 01:32:37.91	349.77	13.51	-42.3	-45.5	16.5	0.00e+00	0	38	0	146800640	55	5463
2026-01-26 01:32:40.89	349.30	13.70	-42.2	-45.6	16.4	0.00e+00	0	38	0	152043520	55	5465
2026-01-26 01:32:43.89	348.83	13.89	-42.1	-45.5	16.5	0.00e+00	0	38	0	157286400	55	5457
2026-01-26 01:32:46.87	348.35	14.08	-41.9	-45.3	16.7	0.00e+00	0	38	0	163577856	55	5323
2026-01-26 01:32:49.82	347.86	14.26	-42.1	-45.4	16.6	0.00e+00	0	38	0	168820736	55	5391
2026-01-26 01:32:53.11	347.32	14.47	-42.3	-45.5	16.5	0.00e+00	0	38	0	175112192	55	5432
2026-01-26 01:32:56.28	346.79	14.66	-42.4	-45.8	16.3	0.00e+00	0	38	0	181403648	55	5593
2026-01-26 01:32:59.14	346.30	14.84	-42.4	-45.9	16.2	0.00e+00	0	38	0	186646528	55	5665
2026-01-26 01:33:02.27	345.77	15.03	-42.2	-45.7	16.3	0.00e+00	0	38	0	191889408	55	5592
2026-01-26 01:33:05.24	345.25	15.21	-42.3	-45.7	16.4	0.00e+00	0	38	0	198180864	55	5562
2026-01-26 01:33:08.22	344.72	15.39	-42.5	-45.8	16.3	0.00e+00	0	38	0	203423744	55	5616
2026-01-26 01:33:11.21	344.19	15.58	-42.3	-45.7	16.4	0.00e+00	0	38	0	208666624	55	5545
2026-01-26 01:33:14.24	343.64	15.76	-42.1	-45.5	16.5	0.00e+00	0	38	0	214958080	55	5463
2026-01-26 01:33:17.34	343.08	15.94	-42.1	-45.1	17.0	0.00e+00	0	38	0	220200960	55	5165
2026-01-26 01:33:20.21	342.55	16.11	-42.0	-44.7	17.4	0.00e+00	0	38	0	225443840	55	4979
2026-01-26 01:33:23.34	341.96	16.29	-41.5	-44.4	17.7	0.00e+00	0	38	0	231735296	55	4799
2026-01-26 01:33:26.18	341.42	16.46	-41.5	-44.3	17.8	0.00e+00	0	38	0	236978176	54	5027
2026-01-26 01:33:29.31	340.82	16.64	-41.3	-44.0	18.1	0.00e+00	0	38	0	243269632	54	4824
2026-01-26 01:33:32.18	340.26	16.80	-41.1	-43.6	18.5	0.00e+00	0	38	0	248512512	54	4646
2026-01-26 01:33:35.31	339.65	16.98	-41.0	-43.6	18.5	0.00e+00	0	38	0	253755392	53	4876
2026-01-26 01:33:38.16	339.08	17.14	-40.8	-43.2	18.9	0.00e+00	0	38	0	260046848	53	4659
2026-01-26 01:33:41.29	338.46	17.31	-40.7	-43.2	18.9	0.00e+00	0	39	0	265289728	53	4658
2026-01-26 01:33:44.18	337.87	17.47	-40.3	-42.7	19.3	0.00e+00	0	38	0	270532608	52	4693
2026-01-26 01:33:47.37	337.21	17.64	-40.3	-42.7	19.3	0.00e+00	0	38	0	276824064	52	4693
2026-01-26 01:33:50.28	336.61	17.79	-40.3	-42.6	19.4	0.00e+00	0	38	0	282066944	52	4635
2026-01-26 01:33:53.42	335.95	17.95	-40.1	-42.6	19.5	0.00e+00	0	38	0	288358400	52	4602
2026-01-26 01:33:56.27	335.35	18.10	-40.0	-42.6	19.4	0.00e+00	0	39	0	293601280	52	4631
2026-01-26 01:33:59.39	334.68	18.25	-40.3	-42.9	19.2	0.00e+00	0	38	0	298844160	52	4776
2026-01-26 01:34:02.23	334.07	18.39	-40.4	-42.9	19.1	0.00e+00	0	38	0	305135616	52	4800
2026-01-26 01:34:05.44	333.37	18.54	-40.6	-43.1	18.9	0.00e+00	0	38	0	310378496	52	4902
2026-01-26 01:34:08.35	332.73	18.68	-40.7	-43.2	18.9	0.00e+00	0	38	0	316669952	52	4930
2026-01-26 01:34:11.60	332.00	18.83	-40.7	-43.1	18.9	0.00e+00	0	38	0	321912832	52	4916
2026-01-26 01:34:14.39	331.38	18.96	-40.6	-42.9	19.1	0.00e+00	0	38	0	327155712	52	4795
2026-01-26 01:34:17.52	330.67	19.09	-40.4	-42.6	19.4	0.00e+00	0	38	0	333447168	52	4637
2026-01-26 01:34:20.36	330.02	19.21	-40.1	-42.5	19.6	0.00e+00	0	38	0	338690048	52	4546
2026-01-26 01:34:23.49	329.30	19.34	-39.9	-42.4	19.7	0.00e+00	0	38	0	344981504	51	4780
2026-01-26 01:34:26.33	328.64	19.45	-39.9	-42.2	19.9	0.00e+00	0	38	0	350224384	51	4697
2026-01-26 01:34:29.46	327.91	19.58	-40.0	-42.3	19.8	0.00e+00	0	38	0	355467264	51	4745
2026-01-26 01:34:32.30	327.24	19.68	-40.0	-42.4	19.7	0.00e+00	0	38	0	360710144	51	4771
2026-01-26 01:34:35.42	326.50	19.79	-39.9	-42.1	20.0	0.00e+00	0	38	0	367001600	51	4613
2026-01-26 01:34:38.27	325.81	19.89	-40.0	-42.2	19.9	0.00e+00	0	38	0	372244480	51	4680
2026-01-26 01:34:41.39	325.06	19.99	-40.1	-42.4	19.7	0.00e+00	0	38	0	378535936	51	4796
2026-01-26 01:34:44.24	324.37	20.09	-40.1	-42.5	19.6	0.00e+00	0	38	0	383778816	51	4840
2026-01-26 01:34:47.59	323.56	20.19	-40.4	-42.8	19.4	0.00e+00	0	38	0	390070272	51	5013
2026-01-26 01:34:50.35	322.88	20.26	-40.7	-43.1	18.2	0.00e+00	0	38	0	395313152	51	5182
2026-01-26 01:34:53.61	322.07	20.35	-40.4	-42.8	19.4	0.00e+00	0	38	0	400556032	51	4984
2026-01-26 01:34:56.57	321.34	20.43	-40.7	-43.1	19.1	0.00e+00	0	39	0	406847488	51	5195
2026-01-26 01:34:59.55	320.60	20.50	-40.7	-43.2	18.9	0.00e+00	0	38	0	412090368	52	4976
2026-01-26 01:35:02.54	319.85	20.56	-40.9	-43.5	18.6	0.00e+00	0	38	0	417333248	52	5115
2026-01-26 01:35:05.52	319.10	20.62	-40.9	-43.7	18.4	0.00e+00	0	38	0	423624704	52	5266
2026-01-26 01:35:08.50	318.35	20.68	-41.2	-44.0	18.2	0.00e+00	0	38	0	428867584	53	5114
2026-01-26 01:35:11.49	317.59	20.73	-41.4	-44.0	18.2	0.00e+00	0	38	0	434110464	53	5107
2026-01-26 01:35:14.48	316.83	20.78	-41.4	-44.0	18.1	0.00e+00	0	38	0	440401920	53	5159
2026-01-26 01:35:17.46	316.07	20.82	-41.8	-44.5	17.7	0.00e+00	0	38	0	445644800	54	5124
2026-01-26 01:35:20.45	315.31	20.85	-41.8	-44.5	17.6	0.00e+00	0	38	0	450887680	54	5154
2026-01-26 01:35:23.43	314.55	20.88	-41.6	-44.3	17.8	0.00e+00	0	39	0	457179136	54	5016
2026-01-26 01:35:26.41	313.78	20.90	-41.4	-44.0	18.2	0.00e+00	0	38	0	462422016	54	4843
2026-01-26 01:35:29.46	313.00	20.92	-41.8	-44.5	17.7	0.00e+00	0	38	0	468713472	54	5118
2026-01-26 01:35:32.31	312.26	20.94	-41.9	-44.6	17.6	0.00e+00	0	39	0	473956352	54	5168
2026-01-26 01:35:35.43	311.46	20.94	-41.8	-44.5	17.6	0.00e+00	0	38	0	479199232	54	5104
2026-01-26 01:35:38.28	310.73	20.95	-41.7	-44.4	17.8	0.00e+00	0	38	0	484442112	54	5050
2026-01-26 01:35:41.48	309.90	20.94	-41.6	-44.2	18.0	0.00e+00	0	38	0	490733568	54	4949
2026-01-26 01:35:44.39	309.16	20.93	-41.5	-44.0	18.1	0.00e+00	0	38	0	495976448	54	4861
2026-01-26 01:35:47.64	308.32	20.92	-41.4	-43.9	18.2	0.00e+00	0	38	0	502267904	54	4801
2026-01-26 01:35:50.57	307.57	20.90	-41.3	-43.7	18.4	0.00e+00	0	38	0	507510784	54	4688
2026-01-26 01:35:53.69	306.77	20.87	-41.3	-43.8	18.4	0.00e+00	0	38	0	513802240	54	4719
2026-01-26 01:35:56.58	306.03	20.84	-41.2	-43.6	18.6	0.00e+00	0	38	0	519045120	54	4625
2026-01-26 01:35:59.85	305.19	20.80	-40.7	-43.0	19.1	0.00e+00	0	38	0	525336576	53	4592
2026-01-26 01:36:02.71	304.46	20.76	-40.6	-42.9	19.2	0.00e+00	0	38	0	530579456	53	4534
2026-01-26 01:36:05.83	303.67	20.71	-40.3	-42.5	19.5	0.00e+00	0	38	0	536870912	52	4578
2026-01-26 01:36:08.68	302.95	20.67	-40.4	-42.6	19.5	0.00e+00	0	38	0	542113792	52	4648
2026-01-26 01:36:11.88	302.14	20.60	-40.4	-42.6	19.5	0.00e+00	0	38	0	547356672	52	4629
2026-01-26 01:36:14.73	301.43	20.54	-40.1	-42.3	19.8	0.00e+00	0	38	0	552599552	52	4486
2026-01-26 01:36:18.09	300.58	20.47	-40.0	-42.1	19.9	0.00e+00	0	39	0	558891008	52	4379
2026-01-26 01:36:20.79	299.91	20.40	-39.9	-42.1	20.1	0.00e+00	0	38	0	564133888	51	4608
2026-01-26 01:36:24.11	299.09	20.32	-39.7	-41.8	20.3	0.00e+00	0	38	0	570425344	51	4477
2026-01-26 01:36:26.81	298.42	20.24	-40.0	-42.2	19.9	0.00e+00	0	38	0	575668224	51	4671
2026-01-26 01:36:30.09	297.62	20.15	-40.2	-42.4	19.7	0.00e+00	0	38	0	581959680	51	4797
2026-01-26 01:36:32.94	296.92	20.06	-39.9	-42.1	20.1	0.00e+00	0	38	0	587202560	51	4603
2026-01-26 01:36:36.17	296.14	19.96	-40.0	-42.1	20.0	0.00e+00	0	38	0	593494016	51	4623
2026-01-26 01:36:39.30	295.39	19.85	-40.3	-42.5	19.7	0.00e+00	0	38	0	598736896	51	4857
2026-01-26 01:36:42.14	294.71	19.75	-40.7	-43.0	19.1	0.00e+00	0	38	0	603979776	52	4848
2026-01-26 01:36:45.30	293.96	19.63	-41.0	-43.3	18.8	0.00e+00	0	38	0	610271232	52	5024
2026-01-26 01:36:48.14	293.29	19.53	-41.0	-43.3	18.8	0.00e+00	0	38	0	615514112	52	5027
2026-01-26 01:36:51.27	292.56	19.40	-40.9	-43.2	19.0	0.00e+00	0	38	0	621805568	52	4948
2026-01-26 01:36:54.30	291.85	19.28	-41.3	-43.7	18.4	0.00e+00	0	38	0	627048448	53	4954
2026-01-26 01:36:57.79	291.05	19.13	-41.3	-43.8	18.4	0.00e+00	0	38	0	633339904	53	5005
2026-01-26 01:37:00.51	290.43	19.02	-41.3	-43.8	18.3	0.00e+00	0	38	0	638582784	53	5013
2026-01-26 01:37:03.79	289.69	18.87	-41.3	-43.8	18.4	0.00e+00	0	38	0	644874240	53	4997
2026-01-26 01:37:06.54	289.07	18.75	-41.3	-43.8	18.4	0.00e+00	0	38	0	650117120	53	4990
2026-01-26 01:37:09.81	288.35	18.59	-41.5	-44.0	18.2	0.00e+00	0	39	0	656408576	53	5112
2026-01-26 01:37:12.54	287.75	18.46	-41.7	-44.3	17.9	0.00e+00	0	38	0	661651456	54	4999
2026-01-26 01:37:15.82	287.03	18.30	-41.7	-44.3	17.9	0.00e+00	0	39	0	667942912	54	4995
2026-01-26 01:37:18.55	286.44	18.17	-41.2	-43.6	18.5	0.00e+00	0	38	0	673185792	54	4637
2026-01-26 01:37:21.83	285.74	18.00	-41.4	-43.9	18.3	0.00e+00	0	38	0	678428672	54	4782
2026-01-26 01:37:24.56	285.17	17.86	-41.7	-44.3	17.9	0.00e+00	0	38	0	683671552	54	4993
2026-01-26 01:37:27.83	284.48	17.69	-41.9	-44.5	17.7	0.00e+00	0	38	0	689963008	54	5117
2026-01-26 01:37:30.58	283.91	17.55	-41.7	-44.2	17.9	0.00e+00	0	38	0	695205888	54	4977
2026-01-26 01:37:33.86	283.24	17.37	-41.8	-44.4	17.8	0.00e+00	0	39	0	701497344	54	5046
2026-01-26 01:37:36.61	282.68	17.22	-41.8	-44.4	17.8	0.00e+00	0	38	0	706740224	54	5071
2026-01-26 01:37:40.04	282.00	17.03	-41.8	-44.4	17.8	0.00e+00	0	38	0	713031680	54	5070
2026-01-26 01:37:42.75	281.46	16.88	-41.8	-44.4	17.8	0.00e+00	0	38	0	718274560	54	5044
2026-01-26 01:37:46.25	280.77	16.68	-41.6	-44.1	18.0	0.00e+00	0	38	0	724566016	54	4913
2026-01-26 01:37:48.97	280.25	16.52	-41.8	-44.3	17.8	0.00e+00	0	38	0	729808896	54	5026
2026-01-26 01:37:52.23	279.62	16.33	-41.9	-44.6	17.6	0.00e+00	0	38	0	736100352	54	5190
2026-01-26 01:37:54.96	279.11	16.17	-41.9	-44.5	17.7	0.00e+00	0	38	0	741343232	54	5144
2026-01-26 01:37:58.24	278.50	15.98	-41.5	-44.0	18.1	0.00e+00	0	39	0	747634688	54	4829
2026-01-26 01:38:00.99	277.99	15.81	-41.6	-44.1	18.0	0.00e+00	0	39	0	751828992	54	4901
2026-01-26 01:38:04.29	277.39	15.62	-42.2	-44.9	17.3	0.00e+00	0	38	0	758120448	54	5362
2026-01-26 01:38:07.01	276.90	15.45	-42.2	-45.0	17.2	0.00e+00	0	38	0	763363328	55	5116
2026-01-26 01:38:10.28	276.32	15.25	-42.2	-44.9	17.3	0.00e+00	0	39	0	769654784	55	5076
2026-01-26 01:38:13.00	275.84	15.09	-42.4	-45.2	16.9	0.00e+00	0	38	0	774897664	55	5257
2026-01-26 01:38:16.28	275.27	14.88	-42.5	-45.3	16.9	0.00e+00	0	39	0	781189120	55	5287
2026-01-26 01:38:19.38	274.74	14.69	-42.3	-45.1	17.1	0.00e+00	0	38	0	786432000	55	5169
2026-01-26 01:38:22.22	274.26	14.52	-42.2	-44.9	17.2	0.00e+00	0	39	0	791674880	55	5073
2026-01-26 01:38:25.35	273.74	14.32	-42.4	-45.1	17.0	0.00e+00	0	38	0	797966336	55	5218
2026-01-26 01:38:28.24	273.26	14.14	-42.5	-45.4	16.8	0.00e+00	0	39	0	803209216	55	5343
2026-01-26 01:38:31.36	272.75	13.94	-42.3	-45.0	17.1	0.00e+00	0	38	0	809500672	55	5135
2026-01-26 01:38:34.21	272.29	13.76	-42.1	-44.7	17.4	0.00e+00	0	38	0	814743552	55	4975
2026-01-26 01:38:37.33	271.80	13.57	-41.9	-44.5	17.6	0.00e+00	0	38	0	819986432	55	4854
2026-01-26 01:38:40.17	271.35	13.39	-41.8	-44.5	17.6	0.00e+00	0	38	0	826277888	55	4827
2026-01-26 01:38:43.30	270.87	13.19	-41.8	-44.5	17.6	0.00e+00	0	38	0	831520768	55	4824
2026-01-26 01:38:46.22	270.42	13.00	-41.7	-44.4	17.7	0.00e+00	0	38	0	836763648	55	4773
2026-01-26 01:38:49.21	269.97	12.81	-41.6	-44.1	17.9	0.00e+00	0	38	0	843055104	55	4640
2026-01-26 01:38:52.20	269.53	12.62	-41.4	-43.9	18.1	0.00e+00	0	39	0	848297984	54	4786
2026-01-26 01:38:55.18	269.09	12.43	-41.3	-43.8	18.2	0.00e+00	0	38	0	853540864	54	4758
2026-01-26 01:38:58.24	268.65	12.23	-41.3	-43.8	18.2	0.00e+00	0	38	0	859832320	54	4743
2026-01-26 01:39:01.11	268.24	12.05	-41.0	-43.5	18.5	0.00e+00	0	38	0	865075200	54	4569
2026-01-26 01:39:04.24	267.80	11.85	-41.0	-43.5	18.5	0.00e+00	0	38	0	871366656	54	4562
2026-01-26 01:39:07.30	267.37	11.65	-41.0	-43.4	18.5	0.00e+00	0	38	0	876609536	53	4800
2026-01-26 01:39:10.57	266.92	11.45	-41.1	-43.5	18.5	0.00e+00	0	38	0	882900992	53	4836
2026-01-26 01:39:13.29	266.55	11.27	-41.1	-43.6	18.4	0.00e+00	0	39	0	888143872	53	4873
2026-01-26 01:39:16.55	266.12	11.06	-40.9	-43.4	18.5	0.00e+00	0	38	0	894435328	53	4777
2026-01-26 01:39:19.27	265.76	10.89	-41.2	-43.7	18.2	0.00e+00	0	38	0	898629632	53	4957
2026-01-26 01:39:22.67	265.32	10.67	-41.3	-43.8	18.1	0.00e+00	0	38	0	905969664	53	5030
2026-01-26 01:39:25.70	264.93	10.48	-41.3	-43.9	18.0	0.00e+00	0	38	0	911212544	53	5060
2026-01-26 01:39:28.97	264.52	10.27	-41.5	-44.1	17.8	0.00e+00	0	39	0	917504000	53	5185
2026-01-26 01:39:31.71	264.17	10.10	-41.4	-44.1	17.8	0.00e+00	0	38	0	922746880	53	5161
2026-01-26 01:39:35.07	263.76	9.88	-41.4	-44.0	17.8	0.00e+00	0	39	0	929038336	53	5154
2026-01-26 01:39:37.79	263.43	9.71	-41.4	-44.1	17.8	0.00e+00	0	38	0	934281216	53	5167
2026-01-26 01:39:41.23	263.02	9.50	-41.4	-44.0	17.8	0.00e+00	0	38	0	940572672	53	5146
2026-01-26 01:39:44.29	262.66	9.30	-41.3	-43.9	17.9	0.00e+00	0	38	0	945815552	53	5079
2026-01-26 01:39:47.13	262.32	9.12	-41.4	-44.0	17.8	0.00e+00	0	38	0	951058432	53	5131
2026-01-26 01:39:50.35	261.95	8.92	-47.8	-63.1	3.8	8.10e-01	0	38	104	956301312	66	21968
2026-01-26 01:39:53.24	261.63	8.74	-48.3	-63.6	3.8	1.49e+00	0	39	104	956301312	67	21919
2026-01-26 01:39:56.49	261.26	8.54	-48.5	-63.8	3.8	1.49e+00	0	38	104	956301312	67	22386
2026-01-26 01:39:59.40	260.94	8.36	-48.8	-64.1	3.8	1.49e+00	0	38	104	956301312	68	21766
2026-01-26 01:40:02.65	260.58	8.15	-48.7	-64.1	3.8	1.49e+00	0	38	104	956301312	68	21840
2026-01-26 01:40:05.55	260.27	7.97	-48.6	-64.1	3.8	1.49e+00	0	38	104	956301312	68	21829
2026-01-26 01:40:08.67	259.94	7.78	-48.7	-64.1	3.8	1.49e+00	0	39	104	956301312	68	21786
2026-01-26 01:40:11.51	259.64	7.61	-48.6	-64.0	3.8	1.49e+00	0	39	104	956301312	68	21638
2026-01-26 01:40:14.63	259.32	7.41	-48.5	-63.9	3.8	1.49e+00	0	39	104	956301312	68	21482
2026-01-26 01:40:17.47	259.03	7.24	-48.5	-63.9	3.8	1.49e+00	0	38	104	956301312	68	21434
2026-01-26 01:40:20.59	258.71	7.05	-48.5	-63.9	3.8	1.49e+00	0	39	104	956301312	68	21401
2026-01-26 01:40:23.43	258.43	6.88	-48.5	-63.9	3.8	1.49e+00	0	38	104	956301312	68	21466
2026-01-26 01:40:26.55	258.12	6.69	-48.5	-63.9	3.8	1.49e+00	0	38	104	956301312	68	21444
2026-01-26 01:40:29.39	257.85	6.52	-48.5	-63.9	3.8	1.49e+00	0	38	104	956301312	68	21405
2026-01-26 01:40:32.52	257.55	6.33	-48.5	-63.9	3.8	1.49e+00	0	38	104	956301312	68	21315
2026-01-26 01:40:35.36	257.28	6.16	-48.5	-63.9	3.8	1.49e+00	0	38	104	956301312	68	21376
2026-01-26 01:40:38.47	256.99	5.97	-48.5	-63.9	3.8	1.49e+00	0	38	104	956301312	68	21359
2026-01-26 01:40:41.31	256.73	5.80	-48.5	-63.9	3.8	1.49e+00	0	39	104	956301312	68	21347
2026-01-26 01:40:44.43	256.44	5.61	-48.5	-63.9	3.8	1.49e+00	0	38	104	956301312	68	21330
2026-01-26 01:40:47.27	256.19	5.45	-48.5	-63.8	3.8	1.49e+00	0	38	104	956301312	68	21239
2026-01-26 01:40:50.39	255.91	5.26	-48.5	-63.9	3.8	1.49e+00	0	38	104	956301312	68	21281
2026-01-26 01:40:53.23	255.66	5.09	-48.5	-63.9	3.8	1.49e+00	0	39	104	956301312	68	21304

#Closed at: 2026-01-26 01:40:56
#Recorded file [956 MB]: D:/Data/31040_260126_043023.dat