passes_logs/2026/01/26/T1/T1__20260126_022048_NOAA_21_JPSS-2_rec.log

#Pass ID: 20260126_022048_NOAA 21 (JPSS-2)
#Satellite: NOAA 21 (JPSS-2)
#Configuration: NOAA 21
#almurnet v.1.7.20251203
#Start time: 2026-01-26 02:20:48

#Version: 2.0.20230620
#Station: T1
#Location: 37.570604 lon 55.790049 lat
#TLE: 1 54234U 22150A   26025.44451686  .00000186  00000+0  10896-3 0  9992
#TLE: 2 54234  98.7509 326.2184 0000763 215.1852 144.9274 14.19539183166293

#Time	Az	El	Level	Level2	SNR	BER	BlckErr	Temp	State	Recorded	gain1	gain2
2026-01-26 02:20:48.89	0.54	5.03	-46.6	-61.2	3.8	1.49e+00	0	37	0	0	65	18560
2026-01-26 02:20:50.87	0.31	5.12	-42.7	-60.9	3.8	1.49e+00	0	37	104	0	55	31908
2026-01-26 02:20:52.85	0.07	5.20	-42.6	-60.9	3.8	1.49e+00	0	37	104	0	55	31988
2026-01-26 02:20:54.84	359.83	5.29	-42.6	-60.9	3.8	1.49e+00	0	37	104	0	55	31917
2026-01-26 02:20:56.83	359.59	5.38	-42.6	-60.9	3.8	1.49e+00	0	37	104	0	55	31869
2026-01-26 02:20:58.81	359.35	5.46	-42.6	-60.9	3.8	1.49e+00	0	37	104	0	55	31899
2026-01-26 02:21:00.80	359.10	5.55	-42.6	-60.9	3.8	1.49e+00	0	37	104	0	55	31900
2026-01-26 02:21:02.79	358.86	5.64	-42.6	-60.9	3.8	1.49e+00	0	37	104	0	55	31998
2026-01-26 02:21:04.77	358.61	5.72	-42.6	-60.9	3.8	1.49e+00	0	37	104	0	55	31861
2026-01-26 02:21:06.76	358.36	5.81	-42.6	-60.9	3.8	1.49e+00	0	37	104	0	55	31932
2026-01-26 02:21:08.75	358.11	5.89	-42.6	-60.9	3.8	1.49e+00	0	37	104	0	55	31822
2026-01-26 02:21:10.73	357.86	5.98	-42.6	-60.9	3.8	1.49e+00	0	37	104	0	55	31924
2026-01-26 02:21:12.72	357.61	6.07	-42.6	-60.9	3.8	1.49e+00	0	37	104	0	55	31882
2026-01-26 02:21:14.71	357.36	6.15	-42.6	-60.9	3.8	1.49e+00	0	37	104	0	55	31856
2026-01-26 02:21:16.69	357.10	6.23	-42.6	-60.8	3.8	1.49e+00	0	37	104	0	55	31765
2026-01-26 02:21:18.68	356.84	6.32	-42.6	-60.9	3.8	1.49e+00	0	37	104	0	55	31937
2026-01-26 02:21:20.67	356.59	6.40	-42.6	-60.9	3.8	1.49e+00	0	38	104	0	55	31834
2026-01-26 02:21:22.65	356.33	6.49	-42.6	-60.9	3.8	1.49e+00	0	37	104	0	55	31859
2026-01-26 02:21:24.64	356.06	6.57	-42.6	-60.9	3.8	1.49e+00	0	37	104	0	55	31865
2026-01-26 02:21:26.63	355.80	6.65	-42.6	-60.8	3.8	1.49e+00	0	38	104	0	55	31777
2026-01-26 02:21:28.61	355.54	6.74	-42.6	-60.8	3.8	1.49e+00	0	37	104	0	55	31729
2026-01-26 02:21:30.60	355.27	6.82	-42.6	-60.8	3.8	1.49e+00	0	38	104	0	55	31642
2026-01-26 02:21:32.58	355.00	6.90	-42.6	-60.8	3.8	1.49e+00	0	37	104	0	55	31710
2026-01-26 02:21:34.57	354.73	6.98	-42.6	-60.8	3.8	1.49e+00	0	38	104	0	55	31781
2026-01-26 02:21:36.56	354.46	7.06	-42.6	-60.8	3.8	1.49e+00	0	37	104	0	55	31729
2026-01-26 02:21:38.54	354.19	7.14	-42.6	-60.8	3.8	1.49e+00	0	38	104	0	55	31729
2026-01-26 02:21:40.53	353.92	7.23	-42.6	-60.8	3.8	1.49e+00	0	38	104	0	55	31804
2026-01-26 02:21:42.52	353.64	7.31	-42.6	-60.8	3.8	1.49e+00	0	38	104	0	55	31800
2026-01-26 02:21:44.50	353.36	7.39	-42.6	-60.8	3.8	1.49e+00	0	38	104	0	55	31644
2026-01-26 02:21:46.49	353.08	7.47	-42.6	-60.8	3.8	1.49e+00	0	38	104	0	55	31478
2026-01-26 02:21:48.48	352.80	7.55	-42.6	-60.8	3.8	1.49e+00	0	38	104	0	55	31749
2026-01-26 02:21:50.46	352.52	7.62	-42.6	-60.9	3.8	1.49e+00	0	38	104	0	55	31854
2026-01-26 02:21:52.45	352.24	7.70	-42.6	-60.9	3.8	1.49e+00	0	38	104	0	55	31904
2026-01-26 02:21:54.44	351.95	7.78	-42.6	-60.8	3.8	1.49e+00	0	38	104	0	55	31791
2026-01-26 02:21:56.42	351.67	7.86	-42.6	-60.8	3.8	1.49e+00	0	38	104	0	55	31538
2026-01-26 02:21:58.41	351.38	7.94	-42.5	-60.5	3.8	1.49e+00	0	38	104	0	55	30566
2026-01-26 02:22:00.40	351.09	8.01	-42.5	-60.3	3.8	1.49e+00	0	38	104	0	55	29872
2026-01-26 02:22:02.39	350.80	8.09	-42.5	-60.5	3.8	1.49e+00	0	38	104	0	55	30393
2026-01-26 02:22:04.37	350.51	8.16	-42.5	-60.6	3.8	1.49e+00	0	38	104	0	55	30926
2026-01-26 02:22:06.36	350.21	8.24	-42.5	-60.6	3.8	1.49e+00	0	38	104	0	55	31075
2026-01-26 02:22:08.34	349.92	8.31	-42.5	-60.6	3.8	1.49e+00	0	38	104	0	55	30967
2026-01-26 02:22:10.33	349.62	8.39	-42.5	-60.6	3.8	1.49e+00	0	38	104	0	55	31014
2026-01-26 02:22:12.32	349.32	8.46	-42.5	-60.6	3.8	1.49e+00	0	38	104	0	55	30754
2026-01-26 02:22:14.30	349.02	8.53	-42.5	-60.0	3.8	1.49e+00	0	38	104	0	55	28842
2026-01-26 02:22:16.29	348.72	8.61	-42.5	-59.2	3.8	1.49e+00	0	38	104	0	55	26196
2026-01-26 02:22:18.27	348.41	8.68	-42.5	-57.8	4.1	1.48e+00	0	38	104	0	55	22337
2026-01-26 02:22:20.26	348.11	8.75	-42.4	-57.6	3.9	1.47e+00	0	38	104	0	55	21836
2026-01-26 02:22:22.25	347.80	8.82	-42.4	-56.4	4.5	1.40e+00	0	38	104	0	55	19100
2026-01-26 02:22:24.23	347.49	8.89	-42.2	-53.8	5.9	4.82e-01	0	38	0	0	55	14129
2026-01-26 02:22:26.22	347.18	8.96	-41.4	-48.8	10.7	6.25e-03	0	38	0	0	54	8370
2026-01-26 02:22:28.20	346.87	9.03	-40.0	-44.7	14.9	2.20e-06	0	38	0	0	51	6236
2026-01-26 02:22:30.15	346.57	9.10	-43.1	-52.9	6.7	2.71e-01	0	38	0	0	57	11364
2026-01-26 02:22:32.20	346.24	9.17	-41.7	-48.2	11.3	5.67e-03	0	38	0	0	54	7813
2026-01-26 02:22:34.25	345.92	9.24	-38.5	-41.7	17.8	0.00e+00	0	38	0	0	48	5247
2026-01-26 02:22:36.24	345.60	9.30	-38.6	-41.7	17.8	0.00e+00	0	38	0	0	48	5230
2026-01-26 02:22:38.31	345.27	9.37	-38.8	-41.6	18.0	0.00e+00	0	38	0	0	48	5188
2026-01-26 02:22:40.33	344.94	9.44	-39.0	-41.6	18.0	0.00e+00	0	38	0	0	48	5184
2026-01-26 02:22:42.33	344.62	9.50	-38.7	-41.2	18.3	0.00e+00	0	38	0	0	48	4978
2026-01-26 02:22:44.33	344.29	9.57	-38.5	-41.2	18.3	0.00e+00	0	38	0	0	48	4968
2026-01-26 02:22:46.32	343.97	9.63	-38.4	-41.2	18.3	0.00e+00	0	38	0	0	48	4975
2026-01-26 02:22:48.33	343.64	9.69	-38.3	-41.1	18.4	0.00e+00	0	38	0	0	48	4886
2026-01-26 02:22:50.32	343.31	9.76	-38.5	-41.1	18.4	0.00e+00	0	38	0	0	48	4893
2026-01-26 02:22:52.66	342.92	9.83	-38.8	-41.1	18.4	0.00e+00	0	38	0	0	48	4900
2026-01-26 02:22:54.85	342.56	9.89	-39.0	-41.3	18.2	0.00e+00	0	38	0	0	48	4992
2026-01-26 02:22:56.84	342.22	9.95	-39.2	-41.4	18.1	0.00e+00	0	38	0	0	48	5067
2026-01-26 02:22:58.83	341.89	10.01	-39.3	-41.5	18.0	0.00e+00	0	38	0	0	49	4827
2026-01-26 02:23:00.82	341.55	10.07	-39.4	-41.6	18.0	0.00e+00	0	38	0	0	49	4888
2026-01-26 02:23:02.89	341.20	10.13	-39.4	-41.6	18.0	0.00e+00	0	38	0	0	49	4878
2026-01-26 02:23:04.88	340.86	10.18	-39.5	-41.7	17.8	0.00e+00	0	38	0	0	49	4953
2026-01-26 02:23:06.87	340.53	10.24	-39.5	-41.7	17.8	0.00e+00	0	38	0	0	49	4964
2026-01-26 02:23:08.85	340.19	10.29	-39.6	-41.7	17.9	0.00e+00	0	38	0	0	49	4958
2026-01-26 02:23:10.89	339.84	10.35	-39.4	-41.4	18.1	0.00e+00	0	38	0	0	50	4541
2026-01-26 02:23:12.88	339.49	10.40	-39.3	-41.2	18.3	0.00e+00	0	38	0	0	50	4425
2026-01-26 02:23:14.87	339.15	10.45	-39.1	-41.1	18.4	0.00e+00	0	38	0	0	50	4378
2026-01-26 02:23:16.87	338.80	10.50	-38.9	-41.1	18.4	0.00e+00	0	38	0	0	49	4611
2026-01-26 02:23:18.86	338.45	10.55	-39.0	-41.2	18.2	0.00e+00	0	38	0	0	49	4701
2026-01-26 02:23:20.85	338.10	10.60	-39.3	-41.6	17.9	0.00e+00	0	38	0	0	49	4901
2026-01-26 02:23:22.87	337.75	10.65	-39.3	-41.6	18.0	0.00e+00	0	38	0	0	49	4878
2026-01-26 02:23:24.86	337.40	10.70	-39.4	-41.7	17.8	0.00e+00	0	38	0	0	49	4938
2026-01-26 02:23:26.85	337.05	10.74	-39.3	-41.7	17.8	0.00e+00	0	38	0	0	49	4939
2026-01-26 02:23:28.84	336.69	10.79	-39.3	-41.7	17.8	0.00e+00	0	38	0	0	49	4953
2026-01-26 02:23:30.83	336.34	10.83	-39.3	-41.7	17.8	0.00e+00	0	38	0	0	49	4940
2026-01-26 02:23:32.82	335.99	10.88	-39.3	-41.5	18.0	0.00e+00	0	38	0	0	49	4838
2026-01-26 02:23:34.81	335.63	10.92	-39.4	-41.6	18.0	0.00e+00	0	38	0	0	49	4882
2026-01-26 02:23:36.80	335.27	10.96	-39.3	-41.3	18.3	0.00e+00	0	38	0	0	49	4717
2026-01-26 02:23:38.89	334.90	11.00	-39.6	-41.6	17.9	0.00e+00	0	38	0	0	49	4905
2026-01-26 02:23:40.88	334.54	11.04	-39.4	-41.5	18.1	0.00e+00	0	38	0	0	49	4819
2026-01-26 02:23:42.87	334.18	11.08	-39.3	-41.2	18.3	0.00e+00	0	38	0	0	49	4698
2026-01-26 02:23:44.86	333.82	11.11	-39.2	-41.1	18.4	0.00e+00	0	38	0	0	49	4646
2026-01-26 02:23:46.85	333.45	11.15	-39.1	-41.1	18.4	0.00e+00	0	38	0	0	49	4624
2026-01-26 02:23:48.84	333.09	11.19	-39.2	-41.2	18.3	0.00e+00	0	38	0	0	49	4668
2026-01-26 02:23:50.83	332.73	11.22	-39.4	-41.4	18.1	0.00e+00	0	38	0	0	49	4770
2026-01-26 02:23:52.82	332.36	11.25	-39.3	-41.4	18.2	0.00e+00	0	38	0	0	49	4770
2026-01-26 02:23:54.90	331.98	11.28	-39.5	-41.5	18.1	0.00e+00	0	38	0	0	49	4820
2026-01-26 02:23:56.98	331.60	11.32	-39.4	-41.4	18.1	0.00e+00	0	38	0	0	49	4801
2026-01-26 02:23:58.96	331.23	11.35	-39.6	-41.6	18.0	0.00e+00	0	38	0	0	49	4877
2026-01-26 02:24:01.09	330.84	11.38	-39.5	-41.5	18.0	0.00e+00	0	38	0	0	49	4835
2026-01-26 02:24:03.11	330.46	11.40	-39.6	-41.5	18.0	0.00e+00	0	38	0	0	49	4867
2026-01-26 02:24:05.10	330.09	11.43	-39.4	-41.4	18.2	0.00e+00	0	38	0	0	49	4778
2026-01-26 02:24:07.15	329.71	11.45	-39.4	-41.4	18.1	0.00e+00	0	38	0	0	49	4796
2026-01-26 02:24:09.10	329.35	11.48	-39.3	-41.2	18.3	0.00e+00	0	38	0	0	49	4698
2026-01-26 02:24:11.09	328.98	11.50	-39.1	-41.0	18.4	0.00e+00	0	38	0	0	49	4598
2026-01-26 02:24:13.08	328.61	11.52	-39.1	-41.0	18.5	0.00e+00	0	38	0	0	49	4591
2026-01-26 02:24:15.09	328.23	11.54	-39.0	-40.9	18.6	0.00e+00	0	38	0	0	49	4525
2026-01-26 02:24:17.07	327.86	11.56	-39.1	-41.0	18.4	0.00e+00	0	38	0	0	49	4583
2026-01-26 02:24:19.19	327.46	11.58	-39.1	-41.0	18.5	0.00e+00	0	38	0	0	49	4586
2026-01-26 02:24:21.13	327.10	11.60	-39.1	-41.1	18.4	0.00e+00	0	38	0	0	49	4623
2026-01-26 02:24:23.12	326.72	11.61	-39.0	-41.0	18.5	0.00e+00	0	38	0	0	49	4550
2026-01-26 02:24:25.11	326.35	11.63	-39.0	-41.0	18.5	0.00e+00	0	38	0	0	49	4571
2026-01-26 02:24:27.10	325.97	11.64	-38.8	-40.9	18.6	0.00e+00	0	38	0	0	49	4538
2026-01-26 02:24:29.09	325.60	11.65	-38.9	-41.0	18.5	0.00e+00	0	38	0	0	49	4591
2026-01-26 02:24:31.08	325.22	11.66	-39.0	-41.2	18.4	0.00e+00	0	38	0	0	49	4652
2026-01-26 02:24:33.07	324.85	11.67	-38.9	-41.1	18.4	0.00e+00	0	38	0	0	49	4618
2026-01-26 02:24:35.06	324.47	11.68	-39.0	-41.1	18.4	0.00e+00	0	38	0	0	49	4611
2026-01-26 02:24:37.05	324.09	11.69	-38.9	-41.0	18.5	0.00e+00	0	38	0	0	49	4573
2026-01-26 02:24:39.04	323.72	11.69	-39.0	-41.1	18.4	0.00e+00	0	38	0	0	49	4636
2026-01-26 02:24:41.02	323.34	11.70	-38.9	-41.0	18.5	0.00e+00	0	38	0	0	49	4591
2026-01-26 02:24:43.01	322.97	11.70	-39.1	-41.1	18.5	0.00e+00	0	38	0	0	49	4603
2026-01-26 02:24:45.00	322.59	11.70	-39.1	-41.0	18.5	0.00e+00	0	38	0	0	49	4576
2026-01-26 02:24:46.99	322.21	11.70	-39.0	-40.9	18.6	0.00e+00	0	38	0	0	49	4522
2026-01-26 02:24:49.31	321.77	11.70	-38.9	-40.9	18.6	0.00e+00	0	38	0	0	49	4505
2026-01-26 02:24:51.33	321.39	11.70	-38.9	-40.8	18.7	0.00e+00	0	38	0	0	49	4473
2026-01-26 02:24:53.32	321.01	11.70	-39.1	-41.0	18.5	0.00e+00	0	38	0	0	49	4571
2026-01-26 02:24:55.31	320.64	11.69	-39.1	-41.0	18.5	0.00e+00	0	38	0	0	49	4588
2026-01-26 02:24:57.30	320.26	11.69	-39.0	-41.1	18.4	0.00e+00	0	38	0	0	49	4604
2026-01-26 02:24:59.29	319.88	11.68	-39.0	-41.1	18.4	0.00e+00	0	38	0	0	49	4637
2026-01-26 02:25:01.30	319.50	11.68	-39.1	-41.2	18.3	0.00e+00	0	38	0	0	49	4657
2026-01-26 02:25:03.37	319.11	11.67	-39.3	-41.3	18.2	0.00e+00	0	38	0	0	49	4728
2026-01-26 02:25:05.36	318.74	11.66	-39.3	-41.2	18.3	0.00e+00	0	38	0	0	49	4694
2026-01-26 02:25:07.33	318.36	11.65	-39.4	-41.4	18.1	0.00e+00	0	38	0	0	49	4781
2026-01-26 02:25:09.35	317.98	11.63	-39.5	-41.5	18.0	0.00e+00	0	38	0	0	49	4833
2026-01-26 02:25:11.34	317.61	11.62	-39.3	-41.3	18.2	0.00e+00	0	38	0	0	49	4716
2026-01-26 02:25:13.33	317.23	11.60	-39.4	-41.3	18.1	0.00e+00	0	38	0	0	49	4750
2026-01-26 02:25:15.32	316.86	11.59	-39.4	-41.4	18.1	0.00e+00	0	38	0	0	49	4760
2026-01-26 02:25:17.31	316.48	11.57	-39.4	-41.4	18.1	0.00e+00	0	38	0	0	49	4780
2026-01-26 02:25:19.34	316.10	11.55	-39.3	-41.3	18.3	0.00e+00	0	38	0	0	49	4711
2026-01-26 02:25:21.35	315.73	11.53	-39.3	-41.2	18.3	0.00e+00	0	38	0	0	49	4689
2026-01-26 02:25:23.34	315.35	11.51	-39.4	-41.3	18.1	0.00e+00	0	38	0	0	49	4757
2026-01-26 02:25:25.55	314.94	11.49	-39.5	-41.4	18.0	0.00e+00	0	38	0	0	49	4812
2026-01-26 02:25:27.54	314.57	11.46	-39.6	-41.5	17.9	0.00e+00	0	38	0	0	49	4862
2026-01-26 02:25:29.53	314.20	11.44	-39.6	-41.6	17.9	0.00e+00	0	38	0	0	49	4883
2026-01-26 02:25:31.52	313.83	11.42	-39.5	-41.5	18.0	0.00e+00	0	38	0	0	49	4868
2026-01-26 02:25:33.51	313.46	11.39	-39.4	-41.4	18.1	0.00e+00	0	38	0	0	49	4791
2026-01-26 02:25:35.50	313.09	11.36	-39.5	-41.4	18.1	0.00e+00	0	38	0	0	49	4814
2026-01-26 02:25:37.55	312.71	11.33	-39.5	-41.5	18.0	0.00e+00	0	38	0	0	49	4834
2026-01-26 02:25:39.60	312.33	11.30	-39.6	-41.6	17.9	0.00e+00	0	38	0	0	49	4901
2026-01-26 02:25:41.59	311.97	11.27	-39.6	-41.6	18.0	0.00e+00	0	38	0	0	49	4877
2026-01-26 02:25:43.58	311.60	11.24	-39.6	-41.6	17.9	0.00e+00	0	38	0	0	49	4904
2026-01-26 02:25:45.56	311.24	11.20	-39.5	-41.5	18.0	0.00e+00	0	38	0	0	49	4840
2026-01-26 02:25:47.55	310.87	11.17	-39.5	-41.5	18.0	0.00e+00	0	38	0	0	49	4855
2026-01-26 02:25:49.54	310.51	11.14	-39.7	-41.6	17.9	0.00e+00	0	38	0	0	49	4918
2026-01-26 02:25:51.53	310.15	11.10	-39.7	-41.7	17.8	0.00e+00	0	38	0	0	50	4681
2026-01-26 02:25:53.52	309.79	11.06	-39.7	-41.7	17.8	0.00e+00	0	38	0	0	50	4705
2026-01-26 02:25:55.61	309.41	11.02	-39.8	-41.8	17.7	0.00e+00	0	38	0	0	50	4735
2026-01-26 02:25:57.60	309.05	10.98	-39.9	-42.0	17.6	0.00e+00	0	38	0	0	50	4830
2026-01-26 02:25:59.59	308.69	10.94	-40.2	-42.2	17.3	0.00e+00	0	38	0	0	50	4980
2026-01-26 02:26:01.58	308.33	10.90	-40.1	-42.2	17.3	0.00e+00	0	38	0	0	51	4690
2026-01-26 02:26:03.57	307.98	10.86	-40.1	-42.2	17.4	0.00e+00	0	38	0	0	51	4673
2026-01-26 02:26:05.56	307.62	10.81	-40.0	-42.0	17.6	0.00e+00	0	38	0	0	51	4570
2026-01-26 02:26:07.55	307.27	10.77	-40.0	-42.0	17.5	0.00e+00	0	38	0	0	51	4590
2026-01-26 02:26:09.54	306.91	10.72	-40.0	-42.0	17.5	0.00e+00	0	38	0	0	51	4588
2026-01-26 02:26:11.53	306.56	10.68	-40.2	-42.2	17.3	0.00e+00	0	38	0	0	51	4699
2026-01-26 02:26:13.60	306.20	10.63	-40.3	-42.4	17.2	0.00e+00	0	38	0	0	51	4811
2026-01-26 02:26:15.59	305.85	10.58	-40.5	-42.6	16.9	0.00e+00	0	38	0	0	51	4923
2026-01-26 02:26:17.58	305.50	10.53	-40.6	-42.8	16.8	0.00e+00	0	38	0	0	51	4994
2026-01-26 02:26:19.57	305.15	10.48	-40.4	-42.5	17.0	0.00e+00	0	38	0	0	51	4860
2026-01-26 02:26:21.56	304.80	10.43	-40.3	-42.3	17.2	0.00e+00	0	38	0	0	51	4758
2026-01-26 02:26:23.55	304.46	10.38	-40.1	-42.1	17.4	0.00e+00	0	38	0	0	51	4639
2026-01-26 02:26:25.54	304.11	10.32	-40.1	-42.1	17.5	0.00e+00	0	38	0	0	51	4606
2026-01-26 02:26:27.53	303.77	10.27	-40.1	-42.2	17.3	0.00e+00	0	38	0	0	51	4666
2026-01-26 02:26:29.63	303.41	10.21	-40.2	-42.3	17.2	0.00e+00	0	38	0	0	51	4744
2026-01-26 02:26:31.62	303.07	10.16	-40.3	-42.4	17.1	0.00e+00	0	38	0	0	51	4806
2026-01-26 02:26:33.61	302.73	10.10	-40.3	-42.4	17.1	0.00e+00	0	38	0	0	51	4794
2026-01-26 02:26:35.60	302.40	10.04	-40.2	-42.3	17.2	0.00e+00	0	38	0	0	51	4732
2026-01-26 02:26:37.79	302.03	9.98	-40.2	-42.3	17.2	0.00e+00	0	38	0	0	51	4733
2026-01-26 02:26:40.00	301.65	9.91	-40.3	-42.4	17.1	0.00e+00	0	38	0	0	51	4786
2026-01-26 02:26:42.20	301.29	9.85	-40.2	-42.3	17.2	0.00e+00	0	38	0	0	51	4737
2026-01-26 02:26:44.19	300.96	9.79	-40.3	-42.4	17.1	0.00e+00	0	38	0	0	51	4777
2026-01-26 02:26:46.12	300.63	9.73	-40.3	-42.4	17.1	0.00e+00	0	38	0	0	51	4781
2026-01-26 02:26:48.11	300.31	9.66	-40.2	-42.3	17.1	0.00e+00	0	38	0	0	51	4722
2026-01-26 02:26:50.10	299.98	9.60	-40.1	-42.1	17.3	0.00e+00	0	38	0	0	51	4639
2026-01-26 02:26:52.09	299.65	9.54	-40.1	-42.1	17.4	0.00e+00	0	38	0	0	51	4618
2026-01-26 02:26:54.19	299.31	9.47	-40.2	-42.3	17.2	0.00e+00	0	38	0	0	51	4722
2026-01-26 02:26:56.18	298.99	9.40	-40.4	-42.5	17.0	0.00e+00	0	38	0	0	51	4831
2026-01-26 02:26:58.18	298.67	9.34	-40.6	-42.7	16.8	0.00e+00	0	38	0	0	51	4975
2026-01-26 02:27:00.17	298.35	9.27	-40.7	-42.9	16.5	0.00e+00	0	38	0	0	52	4801
2026-01-26 02:27:02.19	298.02	9.20	-40.6	-42.7	16.7	0.00e+00	0	38	0	0	52	4697
2026-01-26 02:27:04.18	297.70	9.14	-40.6	-42.7	16.7	0.00e+00	0	38	0	0	52	4698
2026-01-26 02:27:06.22	297.38	9.07	-40.5	-42.7	16.8	0.00e+00	0	38	0	0	52	4661
2026-01-26 02:27:08.21	297.07	9.00	-40.6	-42.8	16.7	0.00e+00	0	38	0	0	52	4714
2026-01-26 02:27:10.21	296.75	8.93	-48.2	-61.2	3.8	1.49e+00	0	38	104	0	67	16543
2026-01-26 02:27:12.19	296.44	8.86	-48.4	-61.4	3.8	1.49e+00	0	38	104	0	67	17063
2026-01-26 02:27:14.18	296.13	8.79	-48.4	-61.6	3.8	1.49e+00	0	38	104	0	67	17311
2026-01-26 02:27:16.22	295.82	8.71	-48.7	-61.8	3.8	1.49e+00	0	38	104	0	68	16751
2026-01-26 02:27:18.25	295.51	8.64	-48.6	-61.9	3.8	1.49e+00	0	39	104	0	68	16893
2026-01-26 02:27:20.35	295.19	8.56	-48.8	-61.8	3.8	1.49e+00	0	38	104	0	68	16883
2026-01-26 02:27:22.37	294.88	8.49	-48.7	-61.9	3.8	1.49e+00	0	38	104	0	68	16957
2026-01-26 02:27:24.45	294.56	8.41	-48.8	-61.9	3.8	1.49e+00	0	38	104	0	68	16978
2026-01-26 02:27:26.48	294.26	8.34	-48.8	-61.9	3.8	1.49e+00	0	38	104	0	68	16950
2026-01-26 02:27:28.53	293.95	8.26	-48.7	-61.9	3.8	1.49e+00	0	38	104	0	68	16894
2026-01-26 02:27:30.58	293.64	8.18	-48.6	-61.8	3.8	1.49e+00	0	38	104	0	68	16786
2026-01-26 02:27:32.58	293.35	8.10	-48.6	-61.8	3.8	1.49e+00	0	38	104	0	68	16722
2026-01-26 02:27:34.57	293.05	8.03	-48.6	-61.8	3.8	1.49e+00	0	38	104	0	68	16740
2026-01-26 02:27:36.57	292.76	7.95	-48.6	-61.8	3.8	1.49e+00	0	38	104	0	68	16752
2026-01-26 02:27:38.57	292.47	7.87	-48.6	-61.8	3.8	1.49e+00	0	38	104	0	68	16738
2026-01-26 02:27:40.56	292.18	7.79	-48.5	-61.8	3.8	1.49e+00	0	38	104	0	68	16709
2026-01-26 02:27:42.56	291.89	7.72	-48.5	-61.7	3.8	1.49e+00	0	38	104	0	68	16657
2026-01-26 02:27:44.57	291.60	7.64	-48.5	-61.7	3.8	1.49e+00	0	38	104	0	68	16685
2026-01-26 02:27:46.57	291.32	7.56	-48.5	-61.7	3.8	1.49e+00	0	38	104	0	68	16635
2026-01-26 02:27:48.56	291.03	7.48	-48.5	-61.7	3.8	1.49e+00	0	38	104	0	68	16607
2026-01-26 02:27:50.57	290.75	7.40	-48.5	-61.7	3.8	1.49e+00	0	38	104	0	68	16624
2026-01-26 02:27:52.59	290.47	7.32	-48.5	-61.7	3.8	1.49e+00	0	38	104	0	68	16633
2026-01-26 02:27:54.57	290.19	7.24	-48.5	-61.6	3.8	1.49e+00	0	39	104	0	68	16492
2026-01-26 02:27:56.58	289.91	7.15	-48.5	-61.7	3.8	1.49e+00	0	38	104	0	68	16632
2026-01-26 02:27:58.56	289.64	7.07	-48.5	-61.7	3.8	1.49e+00	0	38	104	0	68	16561
2026-01-26 02:28:00.55	289.36	6.99	-48.5	-61.7	3.8	1.49e+00	0	38	104	0	68	16637
2026-01-26 02:28:02.53	289.09	6.91	-48.5	-61.7	3.8	1.49e+00	0	38	104	0	68	16594
2026-01-26 02:28:04.52	288.82	6.83	-48.5	-61.7	3.8	1.49e+00	0	38	104	0	68	16556
2026-01-26 02:28:06.52	288.55	6.74	-48.5	-61.7	3.8	1.49e+00	0	39	104	0	68	16573
2026-01-26 02:28:08.51	288.29	6.66	-48.5	-61.7	3.8	1.49e+00	0	38	104	0	68	16593
2026-01-26 02:28:10.50	288.02	6.58	-48.5	-61.7	3.8	1.49e+00	0	38	104	0	68	16608
2026-01-26 02:28:12.48	287.76	6.49	-48.5	-61.7	3.8	1.49e+00	0	39	104	0	68	16509
2026-01-26 02:28:14.47	287.49	6.41	-48.5	-61.7	3.8	1.49e+00	0	38	104	0	68	16576
2026-01-26 02:28:16.46	287.23	6.33	-48.5	-61.7	3.8	1.49e+00	0	39	104	0	68	16615
2026-01-26 02:28:18.46	286.97	6.24	-48.5	-61.7	3.8	1.49e+00	0	38	104	0	68	16526
2026-01-26 02:28:20.44	286.72	6.16	-48.5	-61.7	3.8	1.49e+00	0	38	104	0	68	16575
2026-01-26 02:28:22.43	286.46	6.07	-48.5	-61.7	3.8	1.49e+00	0	39	104	0	68	16579
2026-01-26 02:28:24.44	286.20	5.98	-48.5	-61.7	3.8	1.49e+00	0	38	104	0	68	16593
2026-01-26 02:28:26.42	285.95	5.90	-48.5	-61.7	3.8	1.49e+00	0	39	104	0	68	16545
2026-01-26 02:28:28.42	285.70	5.81	-48.5	-61.7	3.8	1.49e+00	0	38	104	0	68	16568
2026-01-26 02:28:30.41	285.45	5.73	-48.5	-61.7	3.8	1.49e+00	0	38	104	0	68	16565
2026-01-26 02:28:32.40	285.20	5.64	-48.5	-61.7	3.8	1.49e+00	0	38	104	0	68	16565
2026-01-26 02:28:34.40	284.95	5.55	-48.5	-61.7	3.8	1.49e+00	0	38	104	0	68	16524
2026-01-26 02:28:36.40	284.70	5.47	-48.5	-61.6	3.8	1.49e+00	0	38	104	0	68	16497
2026-01-26 02:28:38.40	284.46	5.38	-48.5	-61.7	3.8	1.49e+00	0	38	104	0	68	16510
2026-01-26 02:28:40.39	284.21	5.29	-48.5	-61.7	3.8	1.49e+00	0	39	104	0	68	16525
2026-01-26 02:28:42.38	283.97	5.21	-48.5	-61.7	3.8	1.49e+00	0	39	104	0	68	16514
2026-01-26 02:28:44.36	283.73	5.12	-48.5	-61.7	3.8	1.49e+00	0	38	104	0	68	16509
2026-01-26 02:28:46.35	283.50	5.03	-48.5	-61.6	3.8	1.49e+00	0	39	104	0	68	16481

#Closed at: 2026-01-26 02:28:48
#Recorded file [0 MB]: D:/Data/31040_260126_052048.dat