passes_logs/2026/01/26/T1/T1__20260126_122631_AQUA_rec.log

#Pass ID: 20260126_122631_AQUA
#Satellite: AQUA
#Configuration: AQUA
#almurnet v.1.7.20251203
#Start time: 2026-01-26 12:26:30

#Version: 2.0.20230620
#Station: T1
#Location: 37.570604 lon 55.790049 lat
#TLE: 1 27424U 02022A   26025.63222646  .00001891  00000+0  38818-3 0  9990
#TLE: 2 27424  98.4099 352.2393 0001892  65.6900 348.5270 14.61859542262445

#Time	Az	El	Level	Level2	SNR	BER	BlckErr	Temp	State	Recorded	gain1	gain2
2026-01-26 12:26:30.89	186.29	4.96	-49.5	-71.4	3.8	7.43e-01	0	40	0	0	70	45341
2026-01-26 12:26:33.86	186.45	5.17	-48.7	-70.8	3.8	7.48e-01	0	40	104	0	68	47305
2026-01-26 12:26:36.84	186.61	5.39	-48.7	-71.1	3.8	7.47e-01	0	40	104	0	68	48911
2026-01-26 12:26:39.82	186.77	5.60	-48.7	-70.0	3.8	7.48e-01	0	41	104	0	68	42966
2026-01-26 12:26:42.80	186.94	5.82	-48.6	-69.5	3.8	7.46e-01	0	41	104	0	68	40628
2026-01-26 12:26:45.78	187.10	6.05	-48.7	-70.0	3.8	7.45e-01	0	41	104	0	68	43192
2026-01-26 12:26:48.76	187.27	6.27	-48.7	-69.8	3.8	7.46e-01	0	41	104	0	68	42348
2026-01-26 12:26:51.74	187.44	6.50	-48.8	-69.2	3.9	7.41e-01	0	41	104	0	68	39179
2026-01-26 12:26:54.72	187.62	6.72	-48.7	-69.5	3.8	7.48e-01	0	41	104	0	68	40969
2026-01-26 12:26:57.70	187.80	6.95	-48.6	-68.9	3.9	7.38e-01	0	41	104	0	68	37835
2026-01-26 12:27:00.68	187.98	7.19	-48.5	-65.4	5.1	7.05e-01	0	41	0	0	68	25363
2026-01-26 12:27:03.66	188.16	7.42	-48.6	-69.0	3.8	7.42e-01	0	41	104	0	68	38335
2026-01-26 12:27:06.64	188.35	7.66	-48.3	-60.6	9.2	6.34e-01	0	41	0	1048576	68	14566
2026-01-26 12:27:09.62	188.54	7.90	-46.2	-51.6	18.3	6.06e-01	0	42	0	6291456	64	6499
2026-01-26 12:27:12.60	188.73	8.14	-44.2	-47.7	22.1	6.07e-01	0	41	0	12058624	60	5267
2026-01-26 12:27:15.58	188.93	8.38	-44.0	-47.3	22.7	6.07e-01	0	42	0	17825792	59	5311
2026-01-26 12:27:18.56	189.13	8.63	-45.3	-49.7	20.3	6.06e-01	0	42	0	23068672	61	6217
2026-01-26 12:27:21.53	189.33	8.87	-47.1	-54.2	15.8	6.09e-01	0	42	0	28835840	64	8845
2026-01-26 12:27:24.52	189.54	9.13	-48.1	-59.2	10.4	6.23e-01	0	42	0	34603008	67	13260
2026-01-26 12:27:27.50	189.75	9.38	-48.2	-61.2	8.2	6.43e-01	0	42	0	39845888	67	16610
2026-01-26 12:27:30.49	189.97	9.64	-47.5	-54.4	15.6	6.06e-01	0	42	0	45613056	66	8036
2026-01-26 12:27:33.47	190.18	9.89	-46.5	-52.0	18.1	6.07e-01	0	42	0	51380224	64	6879
2026-01-26 12:27:36.46	190.41	10.16	-46.4	-52.2	18.1	6.06e-01	0	42	0	56623104	64	6985
2026-01-26 12:27:39.45	190.64	10.42	-45.0	-49.3	20.8	6.08e-01	0	42	0	62390272	62	5619
2026-01-26 12:27:42.43	190.87	10.69	-44.1	-47.8	22.2	6.05e-01	0	42	0	68157440	60	5319
2026-01-26 12:27:45.42	191.10	10.96	-43.8	-47.2	22.9	6.08e-01	0	42	0	73400320	59	5250
2026-01-26 12:27:48.40	191.34	11.23	-43.8	-47.1	23.1	6.05e-01	0	42	0	79167488	59	5196
2026-01-26 12:27:51.39	191.59	11.51	-43.6	-46.7	23.4	6.07e-01	0	42	0	84934656	59	4965
2026-01-26 12:27:54.37	191.84	11.79	-43.6	-46.5	23.5	6.07e-01	0	42	0	90177536	59	4870
2026-01-26 12:27:57.36	192.10	12.07	-43.5	-46.4	23.7	6.06e-01	0	42	0	95944704	59	4797
2026-01-26 12:28:00.35	192.36	12.36	-43.5	-46.4	23.8	6.09e-01	0	42	0	101711872	59	4775
2026-01-26 12:28:03.33	192.62	12.64	-43.5	-46.4	23.8	6.05e-01	0	42	0	106954752	58	5065
2026-01-26 12:28:06.31	192.89	12.94	-43.4	-46.2	23.9	6.04e-01	0	42	0	112721920	58	4957
2026-01-26 12:28:09.30	193.17	13.23	-43.3	-46.2	24.0	6.09e-01	0	42	0	118489088	58	4930
2026-01-26 12:28:12.28	193.45	13.53	-43.3	-46.2	24.0	6.06e-01	0	42	0	123731968	58	4960
2026-01-26 12:28:15.27	193.74	13.83	-43.3	-46.2	23.9	6.06e-01	0	42	0	129499136	58	4954
2026-01-26 12:28:18.25	194.04	14.14	-43.3	-46.2	24.0	6.06e-01	0	42	0	135266304	58	4931
2026-01-26 12:28:21.23	194.34	14.45	-43.3	-46.0	24.2	6.09e-01	0	42	0	140509184	58	4851
2026-01-26 12:28:24.22	194.64	14.76	-43.1	-45.8	24.4	6.09e-01	0	42	0	146276352	58	4733
2026-01-26 12:28:27.20	194.96	15.08	-43.0	-45.7	24.4	6.06e-01	0	42	0	152043520	58	4701
2026-01-26 12:28:30.19	195.28	15.40	-43.1	-45.8	24.4	6.05e-01	0	42	0	157286400	58	4751
2026-01-26 12:28:33.17	195.61	15.73	-43.2	-45.9	24.3	6.06e-01	0	42	0	163053568	58	4799
2026-01-26 12:28:36.15	195.94	16.06	-43.1	-45.8	24.4	6.07e-01	0	42	0	168820736	58	4751
2026-01-26 12:28:39.13	196.29	16.39	-43.1	-45.8	24.4	6.07e-01	0	42	0	174063616	58	4726
2026-01-26 12:28:42.12	196.64	16.73	-43.1	-45.8	24.5	6.06e-01	0	43	0	179830784	58	4708
2026-01-26 12:28:45.10	197.00	17.07	-43.1	-45.7	24.5	6.07e-01	0	42	0	185597952	58	4669
2026-01-26 12:28:48.08	197.37	17.41	-43.2	-45.7	24.6	6.04e-01	0	42	0	190840832	58	4660
2026-01-26 12:28:51.07	197.75	17.76	-43.2	-45.7	24.5	6.07e-01	0	42	0	196608000	58	4683
2026-01-26 12:28:54.05	198.13	18.12	-43.1	-45.6	24.6	6.09e-01	0	42	0	202375168	58	4603
2026-01-26 12:28:57.04	198.53	18.48	-43.3	-45.8	24.4	6.07e-01	0	42	0	207618048	58	4722
2026-01-26 12:29:00.02	198.93	18.84	-43.2	-45.7	24.5	6.04e-01	0	42	0	213385216	58	4705
2026-01-26 12:29:03.01	199.35	19.21	-43.2	-45.7	24.5	6.07e-01	0	42	0	219152384	58	4681
2026-01-26 12:29:05.99	199.78	19.58	-43.2	-45.9	24.4	6.07e-01	0	42	0	224919552	58	4768
2026-01-26 12:29:08.97	200.21	19.96	-43.3	-45.8	24.5	6.10e-01	0	42	0	230162432	58	4724
2026-01-26 12:29:11.96	200.66	20.34	-43.3	-45.8	24.5	6.06e-01	0	42	0	235929600	58	4745
2026-01-26 12:29:14.94	201.12	20.73	-43.4	-45.9	24.4	6.06e-01	0	42	0	241696768	58	4769
2026-01-26 12:29:17.93	201.60	21.12	-43.5	-45.9	24.3	6.06e-01	0	43	0	246939648	58	4811
2026-01-26 12:29:20.91	202.08	21.52	-43.7	-46.2	24.1	6.06e-01	0	43	0	252706816	58	4944
2026-01-26 12:29:23.90	202.58	21.92	-43.5	-46.0	24.3	6.06e-01	0	43	0	258473984	58	4839
2026-01-26 12:29:26.88	203.09	22.33	-43.5	-46.0	24.2	6.08e-01	0	42	0	263716864	58	4868
2026-01-26 12:29:29.86	203.62	22.74	-43.5	-46.0	24.3	6.07e-01	0	42	0	269484032	58	4831
2026-01-26 12:29:32.85	204.16	23.15	-43.6	-46.1	24.2	6.08e-01	0	43	0	275251200	58	4883
2026-01-26 12:29:35.83	204.71	23.58	-43.4	-45.9	24.4	6.08e-01	0	43	0	280494080	58	4794
2026-01-26 12:29:38.82	205.28	24.00	-43.5	-46.0	24.3	6.08e-01	0	43	0	286261248	58	4846
2026-01-26 12:29:41.80	205.87	24.43	-43.6	-46.1	22.7	6.06e-01	0	42	0	292028416	58	4872
2026-01-26 12:29:44.79	206.47	24.87	-43.4	-45.9	24.5	6.07e-01	0	42	0	297271296	58	4762
2026-01-26 12:29:47.77	207.09	25.31	-43.5	-45.9	24.4	6.07e-01	0	43	0	303038464	58	4804
2026-01-26 12:29:50.76	207.73	25.75	-43.4	-45.9	24.4	6.05e-01	0	42	0	308805632	58	4785
2026-01-26 12:29:53.75	208.39	26.20	-43.6	-46.0	24.3	6.07e-01	0	43	0	314048512	58	4845
2026-01-26 12:29:56.73	209.07	26.65	-43.5	-46.0	24.4	6.05e-01	0	43	0	319815680	58	4817
2026-01-26 12:29:59.72	209.76	27.11	-43.4	-45.8	24.5	6.05e-01	0	42	0	325582848	58	4736
2026-01-26 12:30:02.70	210.48	27.57	-43.5	-46.0	24.4	6.07e-01	0	43	0	330825728	58	4821
2026-01-26 12:30:05.69	211.22	28.04	-43.5	-46.0	24.4	6.06e-01	0	43	0	336592896	58	4819
2026-01-26 12:30:08.68	211.98	28.51	-43.4	-45.8	24.5	6.06e-01	0	42	0	342360064	58	4738
2026-01-26 12:30:11.66	212.76	28.98	-43.4	-45.8	24.5	6.05e-01	0	42	0	347602944	58	4747
2026-01-26 12:30:14.65	213.57	29.45	-43.5	-46.0	24.4	6.05e-01	0	42	0	353370112	58	4820
2026-01-26 12:30:17.63	214.40	29.93	-43.4	-45.8	24.5	6.05e-01	0	43	0	359137280	58	4757
2026-01-26 12:30:20.61	215.26	30.41	-43.4	-45.8	24.6	6.06e-01	0	43	0	364380160	58	4728
2026-01-26 12:30:23.60	216.14	30.89	-43.5	-46.0	24.3	6.07e-01	0	43	0	370147328	58	4855
2026-01-26 12:30:26.59	217.06	31.37	-43.5	-45.9	24.4	6.05e-01	0	43	0	375914496	58	4807
2026-01-26 12:30:29.57	217.99	31.85	-43.5	-45.9	24.5	6.08e-01	0	42	0	381157376	58	4777
2026-01-26 12:30:32.55	218.96	32.33	-43.6	-46.1	24.3	6.05e-01	0	43	0	386924544	58	4876
2026-01-26 12:30:35.54	219.96	32.81	-43.7	-46.2	24.1	6.04e-01	0	43	0	392691712	58	4981
2026-01-26 12:30:38.52	220.98	33.29	-43.8	-46.3	24.1	6.05e-01	0	43	0	397934592	58	4986
2026-01-26 12:30:41.51	222.04	33.77	-43.7	-46.3	24.1	6.06e-01	0	43	0	403701760	58	4989
2026-01-26 12:30:44.49	223.13	34.25	-43.9	-46.5	23.9	6.07e-01	0	42	0	409468928	58	5105
2026-01-26 12:30:47.48	224.26	34.72	-43.9	-46.5	23.9	6.07e-01	0	43	0	414711808	58	5142
2026-01-26 12:30:50.47	225.41	35.19	-43.9	-46.7	23.8	6.07e-01	0	42	0	420478976	58	5236
2026-01-26 12:30:53.45	226.60	35.64	-43.9	-46.5	23.9	6.07e-01	0	42	0	426246144	58	5120
2026-01-26 12:30:56.43	227.82	36.10	-43.8	-46.4	24.0	6.06e-01	0	42	0	431489024	58	5065
2026-01-26 12:30:59.41	229.08	36.54	-43.9	-46.5	23.9	6.05e-01	0	43	0	437256192	58	5109
2026-01-26 12:31:02.40	230.37	36.98	-43.8	-46.3	24.0	6.08e-01	0	43	0	443023360	58	5017
2026-01-26 12:31:05.38	231.70	37.41	-44.1	-46.6	23.8	6.05e-01	0	43	0	448266240	58	5162
2026-01-26 12:31:08.36	233.06	37.82	-43.8	-46.3	24.1	6.06e-01	0	43	0	454033408	58	5039
2026-01-26 12:31:11.35	234.46	38.22	-43.8	-46.4	24.0	6.03e-01	0	42	0	459800576	58	5063
2026-01-26 12:31:14.33	235.89	38.61	-44.0	-46.5	24.0	6.08e-01	0	43	0	465043456	58	5111
2026-01-26 12:31:17.31	237.35	38.98	-43.5	-45.9	24.3	6.06e-01	0	43	0	470810624	58	4796
2026-01-26 12:31:20.30	238.85	39.34	-43.3	-45.7	24.6	6.08e-01	0	43	0	476577792	58	4702
2026-01-26 12:31:23.28	240.38	39.68	-43.4	-45.9	24.5	6.05e-01	0	43	0	481820672	58	4765
2026-01-26 12:31:26.27	241.95	40.00	-43.1	-45.5	24.8	6.07e-01	0	43	0	487587840	58	4565
2026-01-26 12:31:29.25	243.54	40.29	-43.2	-45.6	24.8	6.05e-01	0	43	0	493355008	58	4624
2026-01-26 12:31:32.24	245.16	40.57	-43.5	-46.0	24.5	6.05e-01	0	43	0	499122176	58	4821
2026-01-26 12:31:35.22	246.81	40.82	-43.2	-45.7	24.6	6.08e-01	0	43	0	504365056	58	4663
2026-01-26 12:31:38.21	248.48	41.05	-43.0	-45.4	24.9	6.07e-01	0	43	0	510132224	58	4529
2026-01-26 12:31:41.20	250.18	41.25	-43.2	-45.5	24.8	6.05e-01	0	43	0	515899392	58	4579
2026-01-26 12:31:44.18	251.89	41.43	-43.2	-45.6	24.8	6.09e-01	0	43	0	521142272	58	4610
2026-01-26 12:31:47.16	253.62	41.57	-43.8	-46.3	24.2	6.05e-01	0	42	0	526909440	58	4987
2026-01-26 12:31:50.15	255.37	41.69	-43.3	-45.7	24.6	6.07e-01	0	43	0	532676608	58	4675
2026-01-26 12:31:53.14	257.13	41.78	-43.2	-45.5	24.8	6.06e-01	0	42	0	537919488	58	4592
2026-01-26 12:31:56.12	258.90	41.85	-43.1	-45.4	24.9	6.04e-01	0	42	0	543686656	57	4791
2026-01-26 12:31:59.10	260.67	41.88	-43.3	-45.8	24.5	6.06e-01	0	43	0	549453824	57	5030
2026-01-26 12:32:02.09	262.44	41.88	-43.0	-45.4	24.9	6.07e-01	0	42	0	554696704	57	4788
2026-01-26 12:32:05.07	264.21	41.85	-43.1	-45.5	24.9	6.07e-01	0	43	0	560463872	57	4818
2026-01-26 12:32:08.05	265.97	41.80	-43.3	-45.8	24.5	6.04e-01	0	43	0	566231040	57	4997
2026-01-26 12:32:11.04	267.74	41.71	-43.4	-45.8	24.6	6.06e-01	0	43	0	571473920	57	5031
2026-01-26 12:32:14.02	269.48	41.60	-43.3	-45.7	24.7	6.06e-01	0	42	0	577241088	57	4937
2026-01-26 12:32:17.01	271.22	41.45	-43.5	-45.9	24.5	6.06e-01	0	43	0	583008256	58	4780
2026-01-26 12:32:19.99	272.93	41.28	-43.4	-45.8	24.6	6.06e-01	0	43	0	588251136	58	4726
2026-01-26 12:32:22.98	274.63	41.08	-43.2	-45.6	24.8	6.06e-01	0	43	0	594018304	58	4631
2026-01-26 12:32:25.96	276.30	40.86	-43.4	-45.8	24.6	6.05e-01	0	43	0	599785472	58	4742
2026-01-26 12:32:28.95	277.95	40.61	-43.4	-45.9	24.4	6.08e-01	0	43	0	605028352	58	4806
2026-01-26 12:32:31.93	279.57	40.34	-43.6	-46.0	24.3	6.09e-01	0	42	0	610795520	58	4850
2026-01-26 12:32:34.91	281.17	40.05	-43.5	-46.0	24.4	6.07e-01	0	43	0	616562688	58	4848
2026-01-26 12:32:37.90	282.73	39.74	-43.5	-45.9	24.5	6.02e-01	0	43	0	621805568	58	4768
2026-01-26 12:32:40.88	284.26	39.41	-43.4	-45.9	24.4	6.08e-01	0	43	0	627572736	58	4779
2026-01-26 12:32:43.86	285.76	39.05	-43.5	-45.9	24.4	6.06e-01	0	42	0	633339904	58	4809
2026-01-26 12:32:46.85	287.23	38.69	-43.6	-46.1	24.3	6.05e-01	0	43	0	638582784	58	4910
2026-01-26 12:32:49.83	288.66	38.30	-43.4	-45.9	24.4	6.07e-01	0	43	0	644349952	58	4762
2026-01-26 12:32:52.81	290.06	37.90	-43.4	-45.7	24.4	6.06e-01	0	43	0	650117120	58	4696
2026-01-26 12:32:55.80	291.43	37.49	-43.8	-46.2	24.0	6.05e-01	0	43	0	655360000	58	4969
2026-01-26 12:32:58.79	292.76	37.07	-43.3	-45.7	24.6	6.07e-01	0	43	0	661127168	58	4701
2026-01-26 12:33:01.77	294.05	36.64	-43.1	-45.5	24.8	6.06e-01	0	43	0	666894336	58	4587
2026-01-26 12:33:04.76	295.31	36.20	-42.9	-45.3	25.0	6.05e-01	0	42	0	672137216	57	4756
2026-01-26 12:33:07.74	296.54	35.75	-42.9	-45.3	25.0	6.07e-01	0	43	0	677904384	57	4754
2026-01-26 12:33:10.72	297.72	35.29	-42.8	-45.2	25.1	6.05e-01	0	43	0	683671552	57	4665
2026-01-26 12:33:13.71	298.88	34.83	-42.8	-45.2	25.1	6.07e-01	0	43	0	688914432	57	4665
2026-01-26 12:33:16.69	300.01	34.36	-42.4	-44.8	25.4	6.06e-01	0	42	0	694681600	56	4757
2026-01-26 12:33:19.68	301.10	33.89	-42.4	-44.7	25.5	6.08e-01	0	43	0	700448768	56	4699
2026-01-26 12:33:22.66	302.16	33.42	-42.3	-44.6	25.5	6.06e-01	0	43	0	705691648	56	4636
2026-01-26 12:33:25.65	303.19	32.94	-42.1	-44.4	25.7	6.06e-01	0	43	0	711458816	56	4540
2026-01-26 12:33:28.63	304.19	32.46	-42.3	-44.7	25.4	6.04e-01	0	43	0	717225984	56	4653
2026-01-26 12:33:31.62	305.16	31.98	-42.1	-44.4	25.7	6.05e-01	0	42	0	722468864	56	4504
2026-01-26 12:33:34.60	306.10	31.50	-42.2	-44.5	25.6	6.05e-01	0	43	0	728236032	56	4572
2026-01-26 12:33:37.59	307.01	31.02	-42.1	-44.3	25.7	6.06e-01	0	43	0	734003200	56	4463
2026-01-26 12:33:40.58	307.90	30.55	-42.2	-44.5	25.6	6.03e-01	0	43	0	739246080	56	4577
2026-01-26 12:33:43.56	308.76	30.07	-42.2	-44.4	25.7	6.06e-01	0	43	0	745013248	56	4537
2026-01-26 12:33:46.55	309.59	29.60	-42.5	-44.8	25.3	6.06e-01	0	43	0	750780416	56	4750
2026-01-26 12:33:49.53	310.40	29.13	-42.4	-44.7	25.4	6.06e-01	0	43	0	756023296	56	4685
2026-01-26 12:33:52.51	311.18	28.66	-42.3	-44.6	25.5	6.06e-01	0	43	0	761790464	56	4617
2026-01-26 12:33:55.50	311.95	28.19	-43.1	-54.7	3.8	7.46e-01	0	43	104	763363328	56	14879
2026-01-26 12:33:58.48	312.69	27.73	-45.7	-57.9	3.7	7.44e-01	0	43	104	763363328	61	15994
2026-01-26 12:34:01.47	313.41	27.27	-44.5	-56.5	3.9	7.42e-01	0	43	104	763363328	61	13646
2026-01-26 12:34:04.45	314.11	26.82	-44.5	-57.6	3.7	7.47e-01	0	43	104	763363328	60	16383
2026-01-26 12:34:07.44	314.79	26.36	-45.2	-58.1	4.1	7.41e-01	0	43	104	763363328	60	17474
2026-01-26 12:34:10.42	315.44	25.92	-44.7	-56.5	4.1	7.36e-01	0	43	104	763363328	61	13696
2026-01-26 12:34:13.41	316.09	25.48	-43.7	-55.5	3.9	7.64e-01	0	43	104	763363328	59	13599
2026-01-26 12:34:16.39	316.71	25.04	-45.3	-57.7	4.0	7.37e-01	0	43	104	763363328	61	15743
2026-01-26 12:34:19.38	317.31	24.60	-50.1	-68.7	3.8	7.44e-01	0	43	104	763363328	71	31172
2026-01-26 12:34:22.36	317.90	24.18	-47.2	-61.0	3.8	7.44e-01	0	43	104	763363328	66	17087
2026-01-26 12:34:25.34	318.47	23.75	-46.8	-60.2	3.8	7.45e-01	0	43	104	763363328	65	16536
2026-01-26 12:34:28.33	319.03	23.33	-49.6	-69.1	3.8	7.44e-01	0	43	104	763363328	70	34564
2026-01-26 12:34:31.32	319.57	22.92	-44.2	-56.6	3.8	7.43e-01	0	43	104	763363328	60	14579
2026-01-26 12:34:34.30	320.10	22.51	-44.3	-56.9	3.8	7.48e-01	0	43	104	763363328	59	16037
2026-01-26 12:34:37.29	320.61	22.10	-44.7	-57.5	3.8	7.45e-01	0	43	104	763363328	60	16177
2026-01-26 12:34:40.27	321.11	21.71	-43.5	-55.4	3.8	7.48e-01	0	43	104	763363328	58	14280
2026-01-26 12:34:43.26	321.60	21.31	-44.0	-56.2	3.8	7.48e-01	0	43	104	763363328	58	15624
2026-01-26 12:34:46.24	322.08	20.92	-44.7	-57.1	3.8	7.47e-01	0	43	104	763363328	60	15544
2026-01-26 12:34:49.23	322.54	20.53	-43.3	-55.2	3.8	7.46e-01	0	43	104	763363328	58	13944
2026-01-26 12:34:52.21	322.99	20.15	-43.8	-55.7	3.8	7.47e-01	0	43	104	763363328	58	14849
2026-01-26 12:34:55.20	323.43	19.78	-44.5	-57.1	3.8	7.43e-01	0	43	104	763363328	60	15430
2026-01-26 12:34:58.18	323.86	19.41	-43.2	-55.3	3.8	7.50e-01	0	43	104	763363328	58	14055
2026-01-26 12:35:01.16	324.28	19.04	-43.5	-55.4	3.8	7.45e-01	0	43	104	763363328	58	14353
2026-01-26 12:35:04.15	324.69	18.68	-49.6	-69.9	3.8	7.45e-01	0	43	104	763363328	70	37934
2026-01-26 12:35:07.13	325.08	18.32	-49.2	-65.6	3.8	7.45e-01	0	43	104	763363328	70	23311
2026-01-26 12:35:10.12	325.47	17.97	-48.4	-62.2	3.8	7.43e-01	0	42	104	763363328	68	17637
2026-01-26 12:35:13.10	325.85	17.62	-50.8	-69.5	3.8	7.49e-01	0	43	104	763363328	72	32547
2026-01-26 12:35:16.09	326.22	17.27	-42.8	-54.9	3.8	7.47e-01	0	43	104	763363328	57	14337
2026-01-26 12:35:19.07	326.59	16.93	-43.2	-55.5	3.8	7.47e-01	0	43	104	763363328	57	15294
2026-01-26 12:35:22.06	326.94	16.60	-44.5	-56.9	3.8	7.50e-01	0	43	104	763363328	59	16053
2026-01-26 12:35:25.04	327.29	16.26	-43.0	-55.1	3.8	7.48e-01	0	43	104	763363328	58	13797
2026-01-26 12:35:28.03	327.63	15.94	-43.2	-55.4	3.8	7.45e-01	0	43	104	763363328	57	15117
2026-01-26 12:35:31.01	327.96	15.61	-44.4	-56.8	3.8	7.45e-01	0	43	104	763363328	59	15790
2026-01-26 12:35:34.00	328.28	15.29	-43.5	-55.3	3.8	7.45e-01	0	43	104	763363328	58	14093
2026-01-26 12:35:36.98	328.60	14.98	-43.8	-55.6	3.8	7.45e-01	0	43	104	763363328	58	14665
2026-01-26 12:35:39.97	328.91	14.66	-50.8	-69.6	3.8	7.43e-01	0	43	104	763363328	72	32610
2026-01-26 12:35:42.95	329.21	14.35	-50.0	-66.2	3.8	7.49e-01	0	43	104	763363328	71	23433
2026-01-26 12:35:45.94	329.51	14.05	-48.0	-62.3	3.8	7.49e-01	0	43	104	763363328	68	17833
2026-01-26 12:35:48.92	329.80	13.75	-49.9	-67.7	3.7	7.51e-01	0	43	104	763363328	70	29652
2026-01-26 12:35:51.91	330.08	13.45	-43.4	-55.3	3.8	7.43e-01	0	43	104	763363328	58	14084
2026-01-26 12:35:54.89	330.36	13.16	-43.9	-55.9	3.8	7.44e-01	0	43	104	763363328	58	15104
2026-01-26 12:35:57.88	330.64	12.86	-49.6	-66.6	3.8	7.50e-01	0	43	104	763363328	69	27435
2026-01-26 12:36:00.86	330.91	12.58	-48.4	-63.6	3.8	7.42e-01	0	43	104	763363328	68	20764
2026-01-26 12:36:03.85	331.17	12.29	-49.4	-67.5	3.8	7.49e-01	0	43	104	763363328	69	30580
2026-01-26 12:36:06.83	331.43	12.01	-44.2	-56.0	3.8	7.45e-01	0	43	104	763363328	59	14443
2026-01-26 12:36:09.81	331.68	11.73	-43.7	-55.5	3.8	7.45e-01	0	43	104	763363328	59	13611
2026-01-26 12:36:12.80	331.93	11.46	-44.3	-56.2	3.9	7.42e-01	0	43	104	763363328	59	14877
2026-01-26 12:36:15.78	332.17	11.18	-50.4	-69.0	3.8	7.49e-01	0	43	104	763363328	71	32356
2026-01-26 12:36:18.77	332.41	10.92	-50.4	-69.7	3.8	7.47e-01	0	43	104	763363328	71	34890
2026-01-26 12:36:21.75	332.64	10.65	-50.4	-68.7	3.8	7.43e-01	0	43	104	763363328	71	31423
2026-01-26 12:36:24.74	332.87	10.39	-44.1	-56.2	3.8	7.46e-01	0	43	104	763363328	59	14734
2026-01-26 12:36:27.73	333.10	10.12	-43.9	-56.0	3.8	7.44e-01	0	43	104	763363328	59	14525
2026-01-26 12:36:30.71	333.32	9.87	-44.5	-57.1	3.8	7.46e-01	0	43	104	763363328	59	16406
2026-01-26 12:36:33.70	333.54	9.61	-49.5	-68.5	3.8	7.45e-01	0	43	104	763363328	70	32445
2026-01-26 12:36:36.68	333.75	9.36	-49.0	-66.8	3.8	7.49e-01	0	43	104	763363328	69	28262
2026-01-26 12:36:39.66	333.96	9.11	-47.7	-63.3	3.8	7.42e-01	0	43	104	763363328	67	21202
2026-01-26 12:36:42.64	334.17	8.86	-50.3	-71.3	3.8	7.47e-01	0	43	104	763363328	72	39778
2026-01-26 12:36:45.62	334.37	8.62	-50.5	-71.7	3.8	7.48e-01	0	43	104	763363328	72	41550
2026-01-26 12:36:48.60	334.57	8.37	-50.9	-71.8	3.8	7.45e-01	0	43	104	763363328	73	39884
2026-01-26 12:36:51.58	334.77	8.13	-51.4	-71.9	3.8	7.45e-01	0	43	104	763363328	74	37891
2026-01-26 12:36:54.56	334.96	7.89	-51.7	-71.9	3.8	7.46e-01	0	43	104	763363328	74	37947
2026-01-26 12:36:57.54	335.15	7.66	-52.0	-71.9	3.8	7.45e-01	0	43	104	763363328	74	38016
2026-01-26 12:37:00.52	335.34	7.43	-51.7	-71.8	3.8	7.48e-01	0	43	104	763363328	74	37740
2026-01-26 12:37:03.50	335.52	7.19	-51.5	-71.8	3.8	7.47e-01	0	43	104	763363328	73	39853
2026-01-26 12:37:06.48	335.70	6.96	-51.1	-71.8	3.8	7.44e-01	0	43	104	763363328	73	39762
2026-01-26 12:37:09.46	335.88	6.74	-51.1	-71.8	3.8	7.45e-01	0	43	104	763363328	73	39675
2026-01-26 12:37:12.44	336.06	6.51	-51.0	-71.7	3.8	7.47e-01	0	43	104	763363328	73	39584
2026-01-26 12:37:15.42	336.23	6.29	-51.1	-71.8	3.8	7.46e-01	0	43	104	763363328	73	39602
2026-01-26 12:37:18.39	336.40	6.07	-51.0	-71.8	3.8	7.47e-01	0	43	104	763363328	73	39637
2026-01-26 12:37:21.37	336.57	5.85	-51.0	-71.7	3.8	7.45e-01	0	43	104	763363328	73	39448
2026-01-26 12:37:24.35	336.73	5.63	-51.1	-71.7	3.8	7.47e-01	0	43	104	763363328	73	39506
2026-01-26 12:37:27.33	336.90	5.42	-51.1	-71.7	3.8	7.47e-01	0	43	104	763363328	73	39540
2026-01-26 12:37:30.31	337.06	5.20	-51.0	-71.7	3.8	7.46e-01	0	43	104	763363328	73	39451
2026-01-26 12:37:33.29	337.21	4.99	-51.0	-71.7	3.8	7.42e-01	0	43	104	763363328	73	39436

#Closed at: 2026-01-26 12:37:34
#Recorded file [763 MB]: D:/Data/31040_260126_152630.dat