passes_logs/2026/01/26/T1/T1__20260126_074238_SUOMI_NPP_rec.log

#Pass ID: 20260126_074238_SUOMI NPP
#Satellite: SUOMI NPP
#Configuration: NPP
#almurnet v.1.7.20251203
#Start time: 2026-01-26 07:42:40

#Version: 2.0.20230620
#Station: T1
#Location: 37.570604 lon 55.790049 lat
#TLE: 1 37849U 11061A   26025.81780576  .00000180  00000+0  10635-3 0  9993
#TLE: 2 37849  98.7822 327.7738 0002159  45.0809 315.0541 14.19529973738242

#Time	Az	El	Level	Level2	SNR	BER	BlckErr	Temp	State	Recorded	gain1	gain2
2026-01-26 07:42:40.13	85.77	5.06	-48.2	-63.4	3.8	1.49e+00	0	39	0	0	68	20246
2026-01-26 07:42:42.11	85.55	5.16	-48.2	-63.4	3.8	1.49e+00	0	40	104	0	68	20134
2026-01-26 07:42:44.09	85.33	5.26	-48.2	-63.4	3.8	1.49e+00	0	40	104	0	68	20145
2026-01-26 07:42:46.08	85.10	5.36	-48.2	-63.3	3.8	1.49e+00	0	40	104	0	68	20066
2026-01-26 07:42:48.07	84.88	5.45	-48.2	-63.4	3.8	1.49e+00	0	40	104	0	68	20120
2026-01-26 07:42:50.05	84.65	5.55	-48.2	-63.4	3.8	1.49e+00	0	40	104	0	68	20107
2026-01-26 07:42:52.04	84.43	5.65	-48.2	-63.4	3.8	1.49e+00	0	40	104	0	68	20100
2026-01-26 07:42:54.03	84.20	5.75	-48.2	-63.4	3.8	1.49e+00	0	40	104	0	68	20113
2026-01-26 07:42:56.01	83.97	5.85	-48.2	-63.4	3.8	1.49e+00	0	41	104	0	68	20145
2026-01-26 07:42:58.00	83.74	5.94	-48.2	-63.4	3.8	1.49e+00	0	40	104	0	68	20192
2026-01-26 07:42:59.99	83.50	6.04	-48.2	-63.4	3.8	1.49e+00	0	41	104	0	68	20143
2026-01-26 07:43:01.97	83.27	6.14	-48.2	-63.4	3.8	1.49e+00	0	41	104	0	68	20138
2026-01-26 07:43:03.96	83.03	6.24	-48.1	-63.4	3.8	1.49e+00	0	41	104	0	68	20105
2026-01-26 07:43:05.95	82.79	6.34	-48.2	-63.3	3.8	1.49e+00	0	41	104	0	68	20046
2026-01-26 07:43:07.93	82.55	6.43	-48.2	-63.4	3.8	1.49e+00	0	41	104	0	68	20141
2026-01-26 07:43:09.92	82.31	6.53	-48.2	-63.3	3.8	1.49e+00	0	41	104	0	68	20040
2026-01-26 07:43:11.90	82.07	6.63	-48.2	-63.3	3.8	1.49e+00	0	41	104	0	68	19965
2026-01-26 07:43:13.89	81.82	6.73	-48.1	-63.3	3.8	1.49e+00	0	41	104	0	68	19883
2026-01-26 07:43:15.88	81.58	6.82	-48.2	-63.2	3.8	1.49e+00	0	41	104	0	68	19829
2026-01-26 07:43:17.86	81.33	6.92	-48.1	-63.2	3.8	1.49e+00	0	41	104	0	68	19800
2026-01-26 07:43:19.85	81.08	7.02	-48.1	-63.3	3.8	1.49e+00	0	41	104	0	68	19857
2026-01-26 07:43:21.84	80.83	7.11	-48.2	-63.2	3.8	1.49e+00	0	41	104	0	68	19727
2026-01-26 07:43:23.82	80.58	7.21	-48.1	-63.1	3.8	1.49e+00	0	41	104	0	68	19470
2026-01-26 07:43:25.81	80.32	7.31	-48.1	-63.0	3.8	1.49e+00	0	41	104	0	68	19309
2026-01-26 07:43:27.80	80.06	7.40	-48.1	-63.2	3.8	1.49e+00	0	41	104	0	68	19668
2026-01-26 07:43:29.78	79.81	7.50	-48.2	-63.2	3.8	1.49e+00	0	41	104	0	68	19769
2026-01-26 07:43:31.77	79.54	7.59	-48.1	-63.3	3.8	1.49e+00	0	41	104	0	68	19995
2026-01-26 07:43:33.76	79.28	7.69	-48.1	-63.2	3.8	1.49e+00	0	41	104	0	68	19746
2026-01-26 07:43:35.74	79.02	7.78	-48.1	-62.9	3.8	1.49e+00	0	41	104	0	68	19048
2026-01-26 07:43:37.73	78.75	7.88	-48.1	-62.6	3.8	1.49e+00	0	41	104	0	68	18441
2026-01-26 07:43:39.71	78.49	7.97	-48.1	-62.9	3.8	1.49e+00	0	41	104	0	68	19123
2026-01-26 07:43:41.70	78.22	8.07	-48.1	-63.2	3.8	1.49e+00	0	41	104	0	68	19797
2026-01-26 07:43:43.69	77.95	8.16	-48.1	-63.2	3.8	1.49e+00	0	42	104	0	68	19836
2026-01-26 07:43:45.67	77.68	8.26	-48.1	-62.7	3.8	1.49e+00	0	42	104	0	68	18602
2026-01-26 07:43:47.66	77.40	8.35	-48.1	-61.9	3.8	1.49e+00	0	42	104	0	68	17032
2026-01-26 07:43:49.65	77.12	8.45	-48.1	-63.1	3.8	1.49e+00	0	42	104	0	68	19434
2026-01-26 07:43:51.63	76.85	8.54	-47.5	-57.4	5.1	1.37e+00	0	41	0	0	67	10712
2026-01-26 07:43:53.62	76.57	8.63	-45.9	-51.2	10.7	7.59e-03	0	42	0	4194304	63	6628
2026-01-26 07:43:55.60	76.29	8.73	-43.9	-47.3	14.7	6.10e-06	0	42	0	7340032	59	5336
2026-01-26 07:43:57.59	76.00	8.82	-43.2	-46.3	15.7	0.00e+00	0	42	0	11534336	58	5032
2026-01-26 07:43:59.58	75.72	8.91	-44.6	-48.5	13.5	1.50e-06	0	42	0	14680064	59	6078
2026-01-26 07:44:01.56	75.43	9.00	-46.6	-53.2	8.6	1.27e-02	0	41	0	18874368	64	7895
2026-01-26 07:44:03.55	75.14	9.09	-44.6	-48.5	13.6	3.80e-06	0	42	0	22020096	60	5773
2026-01-26 07:44:05.54	74.85	9.18	-47.9	-60.7	3.8	1.49e+00	0	42	104	25165824	66	16656
2026-01-26 07:44:07.53	74.56	9.28	-47.8	-59.8	3.9	1.49e+00	0	42	104	25165824	66	14978
2026-01-26 07:44:09.53	74.26	9.37	-47.7	-58.1	4.9	8.40e-01	0	42	0	27262976	66	12248
2026-01-26 07:44:11.51	73.97	9.46	-47.5	-57.1	5.3	6.48e-01	0	42	0	31457280	66	11025
2026-01-26 07:44:13.50	73.67	9.55	-47.1	-54.8	7.3	4.79e-02	0	42	0	35651584	65	8944
2026-01-26 07:44:15.49	73.37	9.63	-46.4	-52.2	10.2	7.32e-05	0	42	0	36700160	63	7456
2026-01-26 07:44:17.48	73.07	9.72	-43.4	-46.5	15.6	2.20e-06	0	42	0	38797312	58	5126
2026-01-26 07:44:19.47	72.76	9.81	-42.9	-45.7	16.4	0.00e+00	0	42	0	41943040	57	4958
2026-01-26 07:44:21.46	72.46	9.90	-42.4	-45.2	16.9	0.00e+00	0	42	0	46137344	56	4927
2026-01-26 07:44:23.45	72.15	9.99	-42.3	-45.0	16.9	0.00e+00	0	42	0	49283072	56	4869
2026-01-26 07:44:25.43	71.84	10.07	-42.3	-45.0	17.1	0.00e+00	0	42	0	53477376	56	4855
2026-01-26 07:44:27.42	71.53	10.16	-42.3	-45.0	17.1	0.00e+00	0	42	0	57671680	56	4868
2026-01-26 07:44:29.41	71.21	10.25	-42.2	-44.8	17.3	0.00e+00	0	42	0	60817408	56	4755
2026-01-26 07:44:31.40	70.90	10.33	-41.8	-44.4	17.6	0.00e+00	0	42	0	65011712	55	4769
2026-01-26 07:44:33.39	70.58	10.42	-41.5	-44.0	17.9	0.00e+00	0	42	0	68157440	55	4591
2026-01-26 07:44:35.38	70.26	10.50	-41.4	-43.9	18.1	0.00e+00	0	42	0	72351744	54	4768
2026-01-26 07:44:37.38	69.94	10.58	-41.4	-44.0	17.8	0.00e+00	0	42	0	75497472	54	4841
2026-01-26 07:44:39.37	69.62	10.67	-41.8	-44.7	17.2	0.00e+00	0	42	0	79691776	54	5225
2026-01-26 07:44:41.36	69.29	10.75	-42.1	-45.0	16.9	0.00e+00	0	42	0	82837504	55	5135
2026-01-26 07:44:43.35	68.97	10.83	-42.1	-44.9	17.0	0.00e+00	0	42	0	87031808	55	5088
2026-01-26 07:44:45.34	68.64	10.91	-42.2	-45.1	16.8	0.00e+00	0	42	0	91226112	55	5190
2026-01-26 07:44:47.33	68.31	10.99	-42.3	-45.3	16.7	0.00e+00	0	42	0	94371840	55	5290
2026-01-26 07:44:49.32	67.98	11.07	-42.0	-44.8	17.2	0.00e+00	0	42	0	98566144	55	5005
2026-01-26 07:44:51.30	67.64	11.15	-41.8	-44.5	17.4	0.00e+00	0	42	0	101711872	55	4846
2026-01-26 07:44:53.29	67.31	11.23	-41.6	-44.3	17.6	0.00e+00	0	42	0	105906176	55	4713
2026-01-26 07:44:55.28	66.97	11.31	-41.9	-44.6	17.3	0.00e+00	0	42	0	109051904	55	4911
2026-01-26 07:44:57.27	66.63	11.39	-42.2	-45.1	16.9	0.00e+00	0	42	0	113246208	55	5161
2026-01-26 07:44:59.26	66.29	11.46	-42.3	-45.2	16.8	0.00e+00	0	42	0	116391936	55	5231
2026-01-26 07:45:01.25	65.95	11.54	-42.2	-45.1	16.8	0.00e+00	0	42	0	120586240	55	5194
2026-01-26 07:45:03.24	65.60	11.61	-41.9	-44.7	17.3	0.00e+00	0	42	0	124780544	55	4937
2026-01-26 07:45:05.23	65.26	11.69	-41.6	-44.3	17.6	0.00e+00	0	42	0	127926272	55	4725
2026-01-26 07:45:07.22	64.91	11.76	-41.6	-44.3	17.6	0.00e+00	0	42	0	132120576	54	5028
2026-01-26 07:45:09.21	64.56	11.83	-41.7	-44.4	17.5	0.00e+00	0	42	0	135266304	54	5091
2026-01-26 07:45:11.20	64.21	11.91	-42.0	-44.9	17.1	0.00e+00	0	42	0	139460608	54	5367
2026-01-26 07:45:13.19	63.86	11.98	-42.1	-44.9	17.1	0.00e+00	0	42	0	142606336	54	5385
2026-01-26 07:45:15.18	63.50	12.05	-41.9	-44.8	17.2	0.00e+00	0	42	0	146800640	55	4998
2026-01-26 07:45:17.17	63.14	12.12	-41.8	-44.5	17.4	0.00e+00	0	42	0	149946368	55	4860
2026-01-26 07:45:19.16	62.79	12.18	-41.8	-44.6	17.3	0.00e+00	0	42	0	154140672	55	4904
2026-01-26 07:45:21.15	62.43	12.25	-41.9	-44.7	17.3	0.00e+00	0	42	0	158334976	55	4941
2026-01-26 07:45:23.14	62.06	12.32	-42.3	-45.3	16.7	0.00e+00	0	42	0	161480704	55	5286
2026-01-26 07:45:25.13	61.70	12.38	-42.5	-45.6	16.4	0.00e+00	0	42	0	165675008	55	5493
2026-01-26 07:45:27.12	61.34	12.45	-42.7	-45.8	16.3	0.00e+00	0	42	0	168820736	56	5313
2026-01-26 07:45:29.11	60.97	12.51	-42.2	-45.1	17.1	0.00e+00	0	42	0	173015040	56	4876
2026-01-26 07:45:31.11	60.60	12.57	-41.6	-44.3	17.7	0.00e+00	0	42	0	176160768	55	4732
2026-01-26 07:45:33.10	60.23	12.64	-41.4	-44.0	17.9	0.00e+00	0	42	0	180355072	54	4835
2026-01-26 07:45:35.09	59.86	12.70	-41.3	-43.8	18.1	0.00e+00	0	42	0	184549376	54	4743
2026-01-26 07:45:37.07	59.49	12.76	-41.3	-43.9	18.1	0.00e+00	0	42	0	187695104	54	4769
2026-01-26 07:45:39.06	59.12	12.81	-41.3	-43.8	18.2	0.00e+00	0	42	0	191889408	54	4740
2026-01-26 07:45:41.05	58.74	12.87	-41.3	-43.9	18.1	0.00e+00	0	42	0	195035136	54	4775
2026-01-26 07:45:43.04	58.36	12.93	-41.1	-43.5	18.4	0.00e+00	0	42	0	199229440	54	4595
2026-01-26 07:45:45.03	57.98	12.98	-40.9	-43.4	18.6	0.00e+00	0	42	0	202375168	53	4767
2026-01-26 07:45:47.02	57.60	13.04	-41.1	-43.6	18.3	0.00e+00	0	42	0	206569472	53	4910
2026-01-26 07:45:49.01	57.22	13.09	-41.4	-43.9	18.1	0.00e+00	0	42	0	209715200	53	5072
2026-01-26 07:45:51.00	56.84	13.14	-41.9	-44.6	17.5	0.00e+00	0	42	0	213909504	54	5160
2026-01-26 07:45:52.99	56.46	13.19	-42.1	-44.9	17.2	0.00e+00	0	42	0	218103808	55	5096
2026-01-26 07:45:54.99	56.07	13.24	-42.0	-44.8	17.3	0.00e+00	0	42	0	221249536	55	5032
2026-01-26 07:45:56.98	55.68	13.29	-42.2	-45.0	17.1	0.00e+00	0	42	0	225443840	55	5118
2026-01-26 07:45:58.97	55.29	13.34	-42.2	-45.0	17.1	0.00e+00	0	42	0	228589568	55	5148
2026-01-26 07:46:00.96	54.91	13.38	-42.3	-45.2	16.9	0.00e+00	0	42	0	232783872	55	5236
2026-01-26 07:46:02.95	54.52	13.43	-42.2	-45.0	17.1	0.00e+00	0	42	0	235929600	55	5141
2026-01-26 07:46:04.94	54.12	13.47	-42.2	-45.0	17.1	0.00e+00	0	42	0	240123904	55	5152
2026-01-26 07:46:06.93	53.73	13.51	-42.0	-44.8	17.3	0.00e+00	0	42	0	243269632	55	5001
2026-01-26 07:46:08.92	53.34	13.55	-41.8	-44.5	17.5	0.00e+00	0	42	0	247463936	55	4844
2026-01-26 07:46:10.91	52.94	13.59	-41.5	-44.1	17.9	0.00e+00	0	42	0	251658240	54	4896
2026-01-26 07:46:12.90	52.55	13.63	-41.4	-44.0	18.0	0.00e+00	0	42	0	254803968	54	4857
2026-01-26 07:46:14.88	52.15	13.67	-41.4	-44.0	18.0	0.00e+00	0	42	0	258998272	54	4831
2026-01-26 07:46:16.88	51.75	13.70	-41.4	-44.0	18.0	0.00e+00	0	42	0	262144000	54	4835
2026-01-26 07:46:18.86	51.36	13.74	-41.4	-44.0	18.0	0.00e+00	0	42	0	266338304	54	4846
2026-01-26 07:46:20.85	50.96	13.77	-41.6	-44.4	17.6	0.00e+00	0	42	0	269484032	54	5046
2026-01-26 07:46:22.84	50.56	13.80	-41.9	-44.7	17.4	0.00e+00	0	42	0	273678336	54	5224
2026-01-26 07:46:24.83	50.16	13.83	-41.3	-43.9	18.0	0.00e+00	0	42	0	277872640	54	4797
2026-01-26 07:46:26.82	49.75	13.86	-41.2	-43.8	18.2	0.00e+00	0	42	0	281018368	54	4730
2026-01-26 07:46:28.81	49.35	13.89	-41.3	-43.9	18.0	0.00e+00	0	42	0	285212672	54	4802
2026-01-26 07:46:30.80	48.95	13.92	-41.5	-44.2	17.9	0.00e+00	0	42	0	288358400	54	4939
2026-01-26 07:46:32.79	48.54	13.94	-41.7	-44.5	17.5	0.00e+00	0	42	0	292552704	54	5104
2026-01-26 07:46:34.78	48.14	13.97	-41.9	-44.7	17.3	0.00e+00	0	42	0	295698432	54	5248
2026-01-26 07:46:36.76	47.73	13.99	-41.8	-44.6	17.4	0.00e+00	0	42	0	299892736	54	5188
2026-01-26 07:46:38.75	47.33	14.01	-41.7	-44.4	17.6	0.00e+00	0	42	0	303038464	54	5099
2026-01-26 07:46:40.74	46.92	14.03	-41.6	-44.3	17.6	0.00e+00	0	42	0	307232768	54	5038
2026-01-26 07:46:42.73	46.51	14.05	-41.6	-44.4	17.6	0.00e+00	0	42	0	311427072	54	5043
2026-01-26 07:46:44.72	46.11	14.06	-41.3	-43.9	18.1	0.00e+00	0	42	0	314572800	54	4784
2026-01-26 07:46:46.71	45.70	14.08	-41.2	-43.8	18.1	0.00e+00	0	42	0	318767104	54	4744
2026-01-26 07:46:48.70	45.29	14.09	-41.4	-44.1	17.9	0.00e+00	0	42	0	321912832	54	4893
2026-01-26 07:46:50.69	44.88	14.10	-41.4	-44.0	18.0	0.00e+00	0	42	0	326107136	54	4840
2026-01-26 07:46:52.68	44.47	14.11	-41.5	-44.2	17.9	0.00e+00	0	42	0	329252864	54	4929
2026-01-26 07:46:54.67	44.06	14.12	-41.6	-44.3	17.7	0.00e+00	0	42	0	333447168	54	4992
2026-01-26 07:46:56.66	43.65	14.13	-41.5	-44.2	17.9	0.00e+00	0	42	0	336592896	54	4930
2026-01-26 07:46:58.65	43.24	14.14	-41.2	-43.8	18.2	0.00e+00	0	42	0	340787200	54	4706
2026-01-26 07:47:00.62	42.84	14.14	-40.9	-43.4	18.6	0.00e+00	0	42	0	343932928	53	4781
2026-01-26 07:47:02.61	42.43	14.15	-41.0	-43.5	18.4	0.00e+00	0	42	0	348127232	53	4867
2026-01-26 07:47:04.60	42.02	14.15	-41.3	-43.9	18.0	0.00e+00	0	42	0	352321536	53	5075
2026-01-26 07:47:06.58	41.61	14.15	-41.5	-44.2	17.7	0.00e+00	0	42	0	355467264	53	5279
2026-01-26 07:47:08.57	41.20	14.15	-41.6	-44.3	17.7	0.00e+00	0	42	0	359661568	53	5298
2026-01-26 07:47:10.56	40.79	14.14	-41.8	-44.6	17.4	0.00e+00	0	42	0	362807296	54	5185
2026-01-26 07:47:12.55	40.38	14.14	-41.9	-44.8	17.2	0.00e+00	0	42	0	367001600	54	5289
2026-01-26 07:47:14.54	39.97	14.14	-42.0	-44.8	17.2	0.00e+00	0	42	0	370147328	54	5319
2026-01-26 07:47:16.54	39.56	14.13	-42.2	-45.2	16.8	0.00e+00	0	42	0	374341632	55	5242
2026-01-26 07:47:18.52	39.15	14.12	-42.1	-45.0	17.0	0.00e+00	0	42	0	377487360	55	5125
2026-01-26 07:47:20.51	38.74	14.11	-41.9	-44.7	17.3	0.00e+00	0	42	0	381681664	55	4976
2026-01-26 07:47:22.50	38.33	14.10	-41.6	-44.3	17.7	0.00e+00	0	42	0	385875968	55	4718
2026-01-26 07:47:24.49	37.93	14.09	-41.3	-43.9	18.0	0.00e+00	0	42	0	389021696	54	4790
2026-01-26 07:47:26.48	37.52	14.07	-41.4	-44.1	17.8	0.00e+00	0	42	0	393216000	54	4918
2026-01-26 07:47:28.47	37.11	14.06	-41.7	-44.5	17.5	0.00e+00	0	42	0	396361728	54	5106
2026-01-26 07:47:30.46	36.70	14.04	-41.7	-44.5	17.6	0.00e+00	0	42	0	400556032	54	5102
2026-01-26 07:47:32.45	36.30	14.02	-41.8	-44.6	17.4	0.00e+00	0	42	0	403701760	54	5212
2026-01-26 07:47:34.44	35.89	14.00	-41.7	-44.4	17.6	0.00e+00	0	42	0	407896064	54	5089
2026-01-26 07:47:36.43	35.48	13.98	-41.5	-44.2	17.8	0.00e+00	0	42	0	412090368	54	4948
2026-01-26 07:47:38.42	35.08	13.96	-41.4	-44.0	18.0	0.00e+00	0	43	0	415236096	54	4853
2026-01-26 07:47:40.41	34.68	13.94	-41.4	-44.0	18.0	0.00e+00	0	42	0	419430400	54	4853
2026-01-26 07:47:42.40	34.27	13.91	-41.5	-44.2	17.9	0.00e+00	0	42	0	422576128	54	4951
2026-01-26 07:47:44.39	33.87	13.88	-41.4	-44.1	18.0	0.00e+00	0	42	0	426770432	54	4884
2026-01-26 07:47:46.38	33.47	13.86	-41.5	-44.2	17.7	0.00e+00	0	43	0	429916160	54	4952
2026-01-26 07:47:48.37	33.07	13.83	-41.8	-44.6	17.5	0.00e+00	0	42	0	434110464	54	5166
2026-01-26 07:47:50.36	32.67	13.80	-41.9	-44.7	17.4	0.00e+00	0	42	0	437256192	54	5230
2026-01-26 07:47:52.35	32.27	13.76	-41.8	-44.6	17.5	0.00e+00	0	42	0	441450496	54	5185
2026-01-26 07:47:54.33	31.87	13.73	-41.9	-44.8	17.3	0.00e+00	0	43	0	445644800	54	5313
2026-01-26 07:47:56.32	31.47	13.70	-42.0	-44.8	17.2	0.00e+00	0	43	0	448790528	54	5339
2026-01-26 07:47:58.31	31.07	13.66	-41.7	-44.5	17.6	0.00e+00	0	43	0	452984832	54	5112
2026-01-26 07:48:00.30	30.68	13.62	-41.3	-43.8	18.2	0.00e+00	0	42	0	456130560	54	4753
2026-01-26 07:48:02.29	30.28	13.59	-41.3	-43.9	18.1	0.00e+00	0	43	0	460324864	54	4788
2026-01-26 07:48:04.29	29.89	13.55	-41.3	-43.9	18.1	0.00e+00	0	42	0	463470592	54	4769
2026-01-26 07:48:06.28	29.50	13.50	-41.1	-43.7	18.3	0.00e+00	0	42	0	467664896	54	4668
2026-01-26 07:48:08.26	29.11	13.46	-41.0	-43.5	18.5	0.00e+00	0	42	0	470810624	53	4829
2026-01-26 07:48:10.26	28.71	13.42	-41.0	-43.6	18.3	0.00e+00	0	42	0	475004928	53	4912
2026-01-26 07:48:12.25	28.32	13.37	-41.2	-43.9	18.0	0.00e+00	0	42	0	479199232	53	5093
2026-01-26 07:48:14.24	27.94	13.33	-41.6	-44.4	17.6	0.00e+00	0	42	0	482344960	53	5364
2026-01-26 07:48:16.23	27.55	13.28	-41.6	-44.4	17.7	0.00e+00	0	42	0	486539264	53	5346
2026-01-26 07:48:18.22	27.17	13.23	-41.7	-44.5	17.6	0.00e+00	0	42	0	489684992	54	5130
2026-01-26 07:48:20.21	26.78	13.18	-41.8	-44.7	17.4	0.00e+00	0	42	0	493879296	54	5222
2026-01-26 07:48:22.20	26.40	13.13	-41.7	-44.6	17.5	0.00e+00	0	42	0	497025024	54	5172
2026-01-26 07:48:24.19	26.02	13.08	-41.8	-44.7	17.4	0.00e+00	0	42	0	501219328	54	5248
2026-01-26 07:48:26.17	25.64	13.03	-41.4	-44.3	17.8	0.00e+00	0	42	0	505413632	54	5009
2026-01-26 07:48:28.16	25.26	12.97	-41.5	-44.4	17.6	0.00e+00	0	42	0	508559360	54	5072
2026-01-26 07:48:30.15	24.88	12.92	-41.3	-44.1	18.0	0.00e+00	0	42	0	512753664	54	4903
2026-01-26 07:48:32.14	24.51	12.86	-41.4	-44.1	18.0	0.00e+00	0	42	0	515899392	54	4886
2026-01-26 07:48:34.13	24.13	12.80	-41.2	-43.9	18.1	0.00e+00	0	42	0	520093696	54	4766
2026-01-26 07:48:36.13	23.76	12.74	-41.3	-43.9	18.0	0.00e+00	0	42	0	523239424	54	4813
2026-01-26 07:48:38.12	23.39	12.68	-41.2	-43.8	18.2	0.00e+00	0	42	0	527433728	54	4730
2026-01-26 07:48:40.11	23.02	12.62	-41.3	-43.9	18.1	0.00e+00	0	42	0	530579456	54	4806
2026-01-26 07:48:42.10	22.65	12.56	-41.1	-43.6	18.4	0.00e+00	0	42	0	534773760	54	4646
2026-01-26 07:48:44.09	22.28	12.50	-40.8	-43.3	18.7	0.00e+00	0	42	0	538968064	53	4736
2026-01-26 07:48:46.08	21.92	12.44	-40.8	-43.4	18.6	0.00e+00	0	42	0	542113792	53	4783
2026-01-26 07:48:48.07	21.56	12.37	-40.9	-43.6	18.4	0.00e+00	0	42	0	546308096	53	4906
2026-01-26 07:48:50.06	21.19	12.31	-41.2	-44.1	18.0	0.00e+00	0	43	0	549453824	53	5167
2026-01-26 07:48:52.05	20.83	12.24	-41.3	-44.3	17.8	0.00e+00	0	42	0	553648128	53	5292
2026-01-26 07:48:54.04	20.48	12.17	-41.4	-44.6	17.5	0.00e+00	0	42	0	556793856	53	5482
2026-01-26 07:48:56.03	20.12	12.10	-41.8	-45.1	17.0	0.00e+00	0	42	0	560988160	54	5479
2026-01-26 07:48:58.02	19.76	12.04	-41.9	-45.1	17.0	0.00e+00	0	42	0	564133888	54	5502
2026-01-26 07:49:00.01	19.41	11.97	-42.1	-45.2	16.9	0.00e+00	0	42	0	568328192	54	5549
2026-01-26 07:49:01.99	19.06	11.89	-42.1	-45.1	17.0	0.00e+00	0	42	0	572522496	54	5488
2026-01-26 07:49:03.98	18.71	11.82	-42.1	-45.0	17.1	0.00e+00	0	42	0	575668224	55	5137
2026-01-26 07:49:05.97	18.36	11.75	-42.2	-45.1	17.0	0.00e+00	0	43	0	579862528	55	5164
2026-01-26 07:49:07.96	18.02	11.68	-42.1	-45.0	17.1	0.00e+00	0	42	0	583008256	55	5121
2026-01-26 07:49:09.95	17.67	11.60	-42.2	-45.1	17.0	0.00e+00	0	43	0	587202560	55	5180
2026-01-26 07:49:11.94	17.33	11.53	-42.1	-45.1	16.9	0.00e+00	0	42	0	590348288	55	5213
2026-01-26 07:49:13.93	16.99	11.45	-41.9	-45.1	17.0	0.00e+00	0	42	0	594542592	55	5195
2026-01-26 07:49:15.93	16.65	11.38	-42.1	-45.5	16.5	0.00e+00	0	42	0	597688320	55	5460
2026-01-26 07:49:17.92	16.31	11.30	-42.2	-45.8	16.3	0.00e+00	0	42	0	601882624	55	5624
2026-01-26 07:49:19.91	15.98	11.22	-42.2	-45.8	16.3	0.00e+00	0	42	0	606076928	55	5642
2026-01-26 07:49:21.90	15.64	11.14	-41.6	-44.9	17.1	0.00e+00	0	42	0	609222656	55	5094
2026-01-26 07:49:23.89	15.31	11.06	-41.4	-44.5	17.5	0.00e+00	0	42	0	613416960	54	5123
2026-01-26 07:49:25.88	14.98	10.98	-41.8	-45.0	17.1	0.00e+00	0	42	0	616562688	54	5420
2026-01-26 07:49:27.87	14.65	10.90	-42.1	-45.4	16.6	0.00e+00	0	42	0	620756992	54	5684
2026-01-26 07:49:29.86	14.33	10.82	-42.6	-46.2	15.9	0.00e+00	0	42	0	623902720	55	5863
2026-01-26 07:49:31.85	14.00	10.74	-43.2	-46.9	15.3	0.00e+00	0	42	0	628097024	57	5696
2026-01-26 07:49:33.84	13.68	10.66	-43.2	-46.7	15.4	0.00e+00	0	42	0	631242752	57	5591
2026-01-26 07:49:35.83	13.36	10.57	-43.1	-46.6	15.6	0.00e+00	0	42	0	635437056	57	5473
2026-01-26 07:49:37.82	13.04	10.49	-42.8	-46.2	16.0	0.00e+00	0	42	0	639631360	57	5231
2026-01-26 07:49:39.81	12.72	10.41	-42.9	-46.2	16.0	0.00e+00	0	43	0	642777088	57	5227
2026-01-26 07:49:41.80	12.41	10.32	-43.2	-46.8	15.4	0.00e+00	0	42	0	646971392	57	5655
2026-01-26 07:49:43.78	12.10	10.24	-43.6	-48.1	14.2	7.00e-07	0	42	0	650117120	57	6506
2026-01-26 07:49:45.78	11.78	10.15	-44.0	-49.4	12.9	3.05e-05	0	42	0	654311424	58	7130
2026-01-26 07:49:47.76	11.48	10.06	-44.0	-49.6	12.6	5.26e-05	0	43	0	657457152	58	7326
2026-01-26 07:49:49.76	11.17	9.98	-43.6	-48.8	13.4	3.12e-05	0	42	0	661651456	58	6664
2026-01-26 07:49:51.74	10.86	9.89	-43.4	-48.4	13.8	3.80e-06	0	42	0	664797184	58	6375
2026-01-26 07:49:53.74	10.56	9.80	-43.2	-48.4	13.7	4.50e-06	0	43	0	668991488	58	6399
2026-01-26 07:49:55.73	10.25	9.71	-42.8	-48.2	13.9	7.00e-07	0	43	0	673185792	57	6642
2026-01-26 07:49:57.71	9.96	9.63	-42.5	-47.9	14.2	2.20e-06	0	43	0	676331520	57	6360
2026-01-26 07:49:59.70	9.66	9.54	-42.2	-47.3	14.9	0.00e+00	0	42	0	680525824	56	6288
2026-01-26 07:50:01.69	9.36	9.45	-42.1	-47.0	15.2	0.00e+00	0	43	0	683671552	56	6091
2026-01-26 07:50:03.68	9.07	9.36	-42.3	-47.1	15.1	0.00e+00	0	42	0	687865856	56	6135
2026-01-26 07:50:05.67	8.77	9.27	-42.5	-47.0	15.2	0.00e+00	0	42	0	691011584	56	6063
2026-01-26 07:50:07.66	8.48	9.18	-42.6	-46.7	15.4	0.00e+00	0	42	0	695205888	56	5921
2026-01-26 07:50:09.65	8.19	9.09	-42.6	-46.5	15.7	0.00e+00	0	42	0	699400192	56	5757
2026-01-26 07:50:11.64	7.91	8.99	-43.8	-48.5	14.0	0.00e+00	0	42	0	702545920	58	6458
2026-01-26 07:50:13.63	7.62	8.90	-46.8	-63.6	3.8	1.49e+00	0	43	104	703594496	65	24591
2026-01-26 07:50:15.61	7.34	8.81	-48.1	-63.9	3.8	1.49e+00	0	43	104	703594496	66	23966
2026-01-26 07:50:17.60	7.06	8.72	-48.3	-64.2	3.8	1.49e+00	0	42	104	703594496	68	22137
2026-01-26 07:50:19.59	6.78	8.62	-48.8	-64.3	3.8	1.49e+00	0	42	104	703594496	68	22332
2026-01-26 07:50:21.57	6.50	8.53	-48.7	-64.3	3.8	1.49e+00	0	42	104	703594496	68	22481
2026-01-26 07:50:23.56	6.23	8.44	-49.1	-64.4	3.8	1.49e+00	0	43	104	703594496	68	22587
2026-01-26 07:50:25.55	5.95	8.35	-49.1	-64.4	3.8	1.49e+00	0	42	104	703594496	69	21324
2026-01-26 07:50:27.53	5.68	8.25	-49.0	-64.4	3.8	1.49e+00	0	42	104	703594496	69	21284
2026-01-26 07:50:29.52	5.41	8.16	-49.0	-64.3	3.8	1.49e+00	0	42	104	703594496	69	21176
2026-01-26 07:50:31.50	5.14	8.06	-49.1	-64.4	3.8	1.49e+00	0	42	104	703594496	69	21314
2026-01-26 07:50:33.49	4.87	7.97	-49.1	-64.3	3.8	1.49e+00	0	42	104	703594496	69	21236
2026-01-26 07:50:35.48	4.61	7.87	-49.0	-64.3	3.8	1.49e+00	0	42	104	703594496	69	21071
2026-01-26 07:50:37.46	4.35	7.78	-48.8	-64.3	3.8	1.49e+00	0	42	104	703594496	69	21160
2026-01-26 07:50:39.45	4.09	7.68	-48.9	-64.3	3.8	1.49e+00	0	43	104	703594496	69	21099
2026-01-26 07:50:41.43	3.83	7.59	-48.8	-64.2	3.8	1.49e+00	0	42	104	703594496	69	20996
2026-01-26 07:50:43.42	3.57	7.49	-48.8	-64.2	3.8	1.49e+00	0	43	104	703594496	69	20966
2026-01-26 07:50:45.41	3.31	7.40	-48.8	-64.2	3.8	1.49e+00	0	43	104	703594496	69	20962
2026-01-26 07:50:47.39	3.06	7.30	-48.8	-64.2	3.8	1.49e+00	0	42	104	703594496	69	20909
2026-01-26 07:50:49.38	2.80	7.21	-48.8	-64.2	3.8	1.49e+00	0	42	104	703594496	69	20841
2026-01-26 07:50:51.36	2.55	7.11	-48.8	-64.2	3.8	1.49e+00	0	43	104	703594496	69	20908
2026-01-26 07:50:53.35	2.30	7.01	-48.8	-64.1	3.8	1.49e+00	0	43	104	703594496	69	20747
2026-01-26 07:50:55.34	2.06	6.92	-48.8	-64.1	3.8	1.49e+00	0	42	104	703594496	69	20775
2026-01-26 07:50:57.32	1.81	6.82	-48.7	-64.1	3.8	1.49e+00	0	42	104	703594496	69	2070
