passes_logs/2026/01/26/T1/T1__20260126_152049_FENGYUN_3E_rec.log

#Pass ID: 20260126_152049_FENGYUN 3E
#Satellite: FENGYUN 3E
#Configuration: FENGYUN 3E
#almurnet v.1.7.20251203
#Start time: 2026-01-26 15:20:49

#Version: 2.0.20230620
#Station: T1
#Location: 37.570604 lon 55.790049 lat
#TLE: 1 49008U 21062A   26025.99868676  .00000027  00000+0  33666-4 0  9992
#TLE: 2 49008  98.7499  30.9985 0002454 117.4834 242.6592 14.19886826236404

#Time	Az	El	Level	Level2	SNR	BER	BlckErr	Temp	State	Recorded	gain1	gain2
2026-01-26 15:20:49.86	196.92	5.07	-48.7	-60.1	3.8	8.47e-01	0	40	0	0	67	13615
2026-01-26 15:20:52.83	197.12	5.26	-48.6	-60.1	3.8	8.47e-01	0	41	104	0	67	13689
2026-01-26 15:20:55.81	197.31	5.46	-48.7	-60.1	3.8	8.48e-01	0	41	104	0	67	13705
2026-01-26 15:20:58.79	197.51	5.65	-48.6	-60.0	3.8	8.48e-01	0	41	104	0	67	13431
2026-01-26 15:21:01.78	197.71	5.85	-48.6	-59.5	3.8	8.46e-01	0	41	104	0	67	12753
2026-01-26 15:21:04.75	197.92	6.05	-48.5	-59.2	3.8	8.47e-01	0	41	104	0	67	12283
2026-01-26 15:21:07.73	198.12	6.25	-48.5	-59.2	3.8	8.46e-01	0	41	104	0	67	12331
2026-01-26 15:21:10.71	198.33	6.46	-48.4	-58.5	3.8	8.46e-01	0	42	104	0	67	11362
2026-01-26 15:21:13.69	198.55	6.66	-48.3	-58.1	3.8	8.45e-01	0	42	104	0	67	10786
2026-01-26 15:21:16.67	198.76	6.86	-48.4	-58.3	3.8	8.45e-01	0	42	104	0	67	11055
2026-01-26 15:21:19.65	198.98	7.07	-48.5	-59.1	3.8	8.46e-01	0	42	104	0	67	12224
2026-01-26 15:21:22.63	199.20	7.28	-48.4	-58.3	3.8	8.46e-01	0	42	104	0	67	11059
2026-01-26 15:21:25.61	199.42	7.49	-48.2	-57.3	4.0	8.42e-01	0	42	0	0	67	9940
2026-01-26 15:21:28.59	199.65	7.70	-48.6	-59.8	3.8	8.47e-01	0	42	104	0	66	13977
2026-01-26 15:21:31.57	199.88	7.91	-45.2	-48.6	10.5	1.10e-02	0	42	0	9437184	61	5102
2026-01-26 15:21:34.55	200.11	8.12	-40.5	-42.3	16.6	0.00e+00	0	42	0	30408704	51	4396
2026-01-26 15:21:37.53	200.35	8.34	-38.3	-39.9	18.5	0.00e+00	0	42	0	52428800	47	4208
2026-01-26 15:21:40.51	200.59	8.55	-38.8	-40.4	18.0	0.00e+00	0	42	0	73400320	46	4728
2026-01-26 15:21:43.49	200.84	8.77	-41.5	-43.5	15.4	0.00e+00	0	42	0	95420416	52	4772
2026-01-26 15:21:46.47	201.08	8.99	-45.2	-48.4	10.6	2.28e-03	0	43	0	116391936	59	5620
2026-01-26 15:21:49.46	201.34	9.21	-44.4	-47.0	12.1	2.86e-05	0	42	0	138412032	58	5098
2026-01-26 15:21:52.44	201.59	9.43	-48.0	-55.2	4.8	8.29e-01	0	42	0	143654912	66	8189
2026-01-26 15:21:55.42	201.85	9.66	-47.6	-53.6	5.7	4.74e-01	0	42	0	155189248	65	7274
2026-01-26 15:21:58.41	202.11	9.88	-47.1	-51.9	7.0	6.11e-01	0	42	0	171966464	65	5958
2026-01-26 15:22:01.39	202.38	10.11	-41.4	-43.2	15.7	0.00e+00	0	43	0	193986560	53	4376
2026-01-26 15:22:04.37	202.65	10.34	-40.6	-42.2	16.7	0.00e+00	0	43	0	214958080	51	4388
2026-01-26 15:22:07.38	202.92	10.57	-39.7	-41.3	17.6	0.00e+00	0	43	0	236978176	50	4152
2026-01-26 15:22:10.48	203.21	10.81	-39.2	-40.8	18.1	0.00e+00	0	43	0	258998272	49	4153
2026-01-26 15:22:13.32	203.48	11.03	-39.1	-40.6	18.3	0.00e+00	0	43	0	279969792	49	4053
2026-01-26 15:22:16.44	203.79	11.28	-38.2	-39.7	18.9	0.00e+00	0	43	0	301989888	47	4105
2026-01-26 15:22:19.35	204.07	11.51	-37.9	-39.3	19.2	0.00e+00	0	43	0	322961408	46	4192
2026-01-26 15:22:22.48	204.38	11.76	-37.8	-39.2	19.3	0.00e+00	0	43	0	346030080	46	4115
2026-01-26 15:22:25.41	204.68	11.99	-37.7	-39.1	19.4	0.00e+00	0	43	0	367001600	45	4306
2026-01-26 15:22:28.68	205.01	12.26	-37.5	-38.9	19.6	0.00e+00	0	43	0	391118848	45	4202
2026-01-26 15:22:31.50	205.31	12.49	-37.4	-38.8	19.7	0.00e+00	0	43	0	411041792	45	4167
2026-01-26 15:22:34.63	205.64	12.74	-37.3	-38.7	19.8	0.00e+00	0	43	0	434110464	45	4124
2026-01-26 15:22:37.98	206.00	13.02	-37.3	-38.7	19.8	0.00e+00	0	43	0	458227712	44	4370
2026-01-26 15:22:40.83	206.31	13.26	-37.0	-38.4	20.1	0.00e+00	0	43	0	478150656	44	4226
2026-01-26 15:22:43.95	206.66	13.52	-37.0	-38.5	20.0	0.00e+00	0	43	0	501219328	44	4252
2026-01-26 15:22:46.79	206.98	13.76	-37.1	-38.6	19.9	0.00e+00	0	43	0	521142272	44	4314
2026-01-26 15:22:49.97	207.35	14.03	-37.0	-38.5	19.9	0.00e+00	0	43	0	544210944	44	4274
2026-01-26 15:22:52.81	207.68	14.27	-36.8	-38.3	20.1	0.00e+00	0	43	0	565182464	44	4188
2026-01-26 15:22:55.94	208.06	14.54	-37.0	-38.5	19.9	0.00e+00	0	43	0	587202560	44	4282
2026-01-26 15:22:58.78	208.40	14.79	-36.8	-38.3	20.0	0.00e+00	0	43	0	608174080	44	4173
2026-01-26 15:23:01.91	208.79	15.06	-36.4	-37.9	20.2	0.00e+00	0	43	0	631242752	43	4225
2026-01-26 15:23:04.75	209.15	15.31	-36.1	-37.6	20.5	0.00e+00	0	43	0	651165696	43	4069
2026-01-26 15:23:07.99	209.56	15.60	-36.1	-37.4	20.7	0.00e+00	0	43	0	674234368	42	4240
2026-01-26 15:23:10.83	209.93	15.85	-36.0	-37.3	20.7	0.00e+00	0	43	0	695205888	42	4175
2026-01-26 15:23:14.12	210.36	16.14	-36.0	-37.3	20.8	0.00e+00	0	43	0	718274560	42	4170
2026-01-26 15:23:16.88	210.73	16.39	-36.1	-37.5	20.6	0.00e+00	0	43	0	738197504	42	4248
2026-01-26 15:23:20.15	211.18	16.69	-36.1	-37.4	20.7	0.00e+00	0	43	0	762314752	42	4241
2026-01-26 15:23:22.88	211.56	16.94	-36.1	-37.4	20.7	0.00e+00	0	43	0	782237696	42	4214
2026-01-26 15:23:26.16	212.03	17.24	-36.0	-37.3	20.8	0.00e+00	0	43	0	805306368	42	4183
2026-01-26 15:23:28.95	212.43	17.50	-36.0	-37.3	20.9	0.00e+00	0	43	0	825229312	42	4167
2026-01-26 15:23:32.24	212.92	17.80	-35.6	-36.9	21.3	0.00e+00	0	43	0	849346560	42	3962
2026-01-26 15:23:34.96	213.32	18.06	-35.4	-36.6	21.5	0.00e+00	0	43	0	869269504	41	4068
2026-01-26 15:23:38.23	213.82	18.36	-35.3	-36.6	21.6	0.00e+00	0	43	0	892338176	41	4052
2026-01-26 15:23:40.94	214.24	18.62	-35.4	-36.7	21.5	0.00e+00	0	43	0	912261120	41	4114
2026-01-26 15:23:44.28	214.77	18.94	-35.5	-36.8	21.4	0.00e+00	0	43	0	936378368	41	4160
2026-01-26 15:23:47.00	215.21	19.19	-35.4	-36.8	21.4	0.00e+00	0	43	0	956301312	41	4153
2026-01-26 15:23:50.29	215.75	19.51	-35.2	-36.5	21.5	0.00e+00	0	43	0	979369984	41	4046
2026-01-26 15:23:53.00	216.20	19.77	-35.1	-36.5	21.5	0.00e+00	0	43	0	999292928	41	4028
2026-01-26 15:23:56.29	216.76	20.09	-35.0	-36.3	21.7	0.00e+00	0	43	0	1023410176	40	4156
2026-01-26 15:23:58.99	217.23	20.35	-35.0	-36.3	21.7	0.00e+00	0	43	0	1042284544	40	4162
2026-01-26 15:24:02.26	217.81	20.67	-35.2	-36.5	21.5	0.00e+00	0	43	0	1066401792	40	4254
2026-01-26 15:24:04.98	218.30	20.93	-35.3	-36.6	21.4	0.00e+00	0	43	0	1086324736	40	4326
2026-01-26 15:24:08.25	218.90	21.25	-35.1	-36.5	21.5	0.00e+00	0	43	0	1109393408	40	4250
2026-01-26 15:24:10.98	219.41	21.52	-34.8	-36.1	21.8	0.00e+00	0	43	0	1129316352	40	4075
2026-01-26 15:24:14.26	220.03	21.84	-34.9	-36.2	21.7	0.00e+00	0	43	0	1153433600	40	4121
2026-01-26 15:24:16.98	220.56	22.11	-34.9	-36.2	21.7	0.00e+00	0	43	0	1172307968	40	4125
2026-01-26 15:24:20.28	221.21	22.44	-34.9	-36.1	21.8	0.00e+00	0	43	0	1196425216	40	4090
2026-01-26 15:24:23.26	221.81	22.73	-35.0	-36.3	21.7	0.00e+00	0	43	0	1218445312	40	4152
2026-01-26 15:24:26.25	222.42	23.03	-35.0	-36.3	21.7	0.00e+00	0	43	0	1239416832	40	4179
2026-01-26 15:24:29.28	223.05	23.33	-34.9	-36.2	21.8	0.00e+00	0	43	0	1261436928	40	4133
2026-01-26 15:24:32.25	223.68	23.62	-34.9	-36.3	21.8	0.00e+00	0	43	0	1282408448	40	4153
2026-01-26 15:24:35.43	224.37	23.93	-34.8	-36.2	21.9	0.00e+00	0	43	0	1305477120	40	4104
2026-01-26 15:24:38.31	225.01	24.22	-34.6	-35.9	22.1	0.00e+00	0	44	0	1326448640	39	4225
2026-01-26 15:24:41.43	225.71	24.52	-34.7	-35.9	22.1	0.00e+00	0	43	0	1348468736	39	4229
2026-01-26 15:24:44.27	226.36	24.80	-34.8	-36.1	21.9	0.00e+00	0	43	0	1369440256	39	4317
2026-01-26 15:24:47.40	227.09	25.11	-34.9	-36.2	21.8	0.00e+00	0	43	0	1391460352	39	4376
2026-01-26 15:24:50.24	227.77	25.38	-34.8	-36.1	21.9	0.00e+00	0	43	0	1412431872	39	4318
2026-01-26 15:24:53.37	228.52	25.68	-34.7	-36.0	22.0	0.00e+00	0	43	0	1435500544	39	4275
2026-01-26 15:24:56.22	229.23	25.96	-34.9	-36.3	21.8	0.00e+00	0	43	0	1455423488	39	4407
2026-01-26 15:24:59.42	230.03	26.26	-34.6	-35.9	22.1	0.00e+00	0	44	0	1478492160	39	4233
2026-01-26 15:25:02.26	230.75	26.53	-34.4	-35.6	22.3	0.00e+00	0	43	0	1499463680	39	4089
2026-01-26 15:25:05.62	231.62	26.85	-34.5	-35.7	22.1	0.00e+00	0	44	0	1523580928	39	4138
2026-01-26 15:25:08.32	232.34	27.10	-34.3	-35.5	22.4	0.00e+00	0	43	0	1543503872	39	4035
2026-01-26 15:25:11.59	233.22	27.40	-34.4	-35.7	22.3	0.00e+00	0	43	0	1566572544	39	4132
2026-01-26 15:25:14.45	234.00	27.66	-34.6	-36.0	22.2	0.00e+00	0	43	0	1587544064	39	4252
2026-01-26 15:25:17.58	234.87	27.94	-34.4	-35.7	22.3	0.00e+00	0	43	0	1609564160	39	4120
2026-01-26 15:25:20.47	235.69	28.19	-34.4	-35.7	22.3	0.00e+00	0	43	0	1630535680	39	4128
2026-01-26 15:25:23.60	236.59	28.47	-34.4	-35.7	22.3	0.00e+00	0	43	0	1653604352	39	4127
2026-01-26 15:25:26.44	237.41	28.71	-34.2	-35.4	22.5	0.00e+00	0	43	0	1673527296	39	3991
2026-01-26 15:25:29.57	238.34	28.97	-34.2	-35.4	22.4	0.00e+00	0	43	0	1696595968	39	3993
2026-01-26 15:25:32.41	239.20	29.20	-34.3	-35.6	22.4	0.00e+00	0	43	0	1717567488	39	4061
2026-01-26 15:25:35.54	240.15	29.45	-34.4	-35.7	22.3	0.00e+00	0	43	0	1739587584	39	4109
2026-01-26 15:25:38.38	241.03	29.67	-34.3	-35.6	22.4	0.00e+00	0	44	0	1760559104	39	4073
2026-01-26 15:25:41.51	242.01	29.91	-34.4	-35.7	22.3	0.00e+00	0	43	0	1782579200	39	4107
2026-01-26 15:25:44.36	242.92	30.12	-34.4	-35.7	22.2	0.00e+00	0	43	0	1803550720	39	4134
2026-01-26 15:25:47.48	243.93	30.34	-34.3	-35.6	22.3	0.00e+00	0	43	0	1825570816	39	4068
2026-01-26 15:25:50.34	244.86	30.54	-34.3	-35.6	22.3	0.00e+00	0	43	0	1846542336	39	4078
2026-01-26 15:25:53.62	245.94	30.76	-34.2	-35.4	22.4	0.00e+00	0	43	0	1870659584	39	4002
2026-01-26 15:25:56.47	246.90	30.94	-34.2	-35.4	22.4	0.00e+00	0	43	0	1890582528	38	4231
2026-01-26 15:25:59.61	247.96	31.13	-34.2	-35.5	22.4	0.00e+00	0	43	0	1913651200	38	4253
2026-01-26 15:26:03.03	249.13	31.33	-33.8	-35.0	22.9	0.00e+00	0	44	0	1937768448	38	4011
2026-01-26 15:26:05.95	250.14	31.48	-33.9	-35.2	22.7	0.00e+00	0	43	0	1958739968	38	4126
2026-01-26 15:26:09.27	251.30	31.65	-34.4	-35.7	22.2	0.00e+00	0	43	0	1982857216	38	4386
2026-01-26 15:26:11.98	252.26	31.78	-34.4	-35.7	22.2	0.00e+00	0	43	0	2002780160	38	4372
2026-01-26 15:26:15.27	253.43	31.93	-34.3	-35.7	22.2	0.00e+00	0	43	0	2026897408	38	4350
2026-01-26 15:26:18.25	254.50	32.05	-34.9	-35.7	23.1	0.00e+00	0	43	0	2047868928	39	4135
2026-01-26 15:26:21.82	255.79	32.18	-34.5	-35.4	23.4	0.00e+00	0	43	0	2074083328	39	3962
2026-01-26 15:26:24.66	256.82	32.28	-34.6	-35.4	23.4	0.00e+00	0	44	0	2094006272	39	3992
2026-01-26 15:26:28.05	258.06	32.38	-34.5	-35.3	23.5	0.00e+00	0	43	0	2118123520	39	3943
2026-01-26 15:26:30.76	259.06	32.44	-34.7	-35.5	23.3	0.00e+00	0	43	0	2138046464	39	4043
2026-01-26 15:26:34.04	260.27	32.52	-34.6	-35.5	23.3	0.00e+00	0	43	0	2162163712	39	4014
2026-01-26 15:26:36.76	261.28	32.56	-34.4	-35.2	23.5	0.00e+00	0	43	0	2181038080	39	3903
2026-01-26 15:26:40.02	262.49	32.61	-34.7	-35.6	23.3	0.00e+00	0	43	0	2205155328	39	4061
2026-01-26 15:26:42.75	263.51	32.64	-34.6	-35.5	23.4	0.00e+00	0	43	0	2225078272	39	4006
2026-01-26 15:26:46.04	264.74	32.66	-34.6	-35.4	23.4	0.00e+00	0	43	0	2248146944	39	3979
2026-01-26 15:26:48.74	265.74	32.66	-34.4	-35.2	23.5	0.00e+00	0	43	0	2268069888	39	3875
2026-01-26 15:26:52.15	267.02	32.65	-34.3	-35.1	23.7	0.00e+00	0	43	0	2292187136	39	3857
2026-01-26 15:26:55.27	268.18	32.63	-34.1	-34.9	23.9	0.00e+00	0	43	0	2315255808	39	3741
2026-01-26 15:26:58.11	269.24	32.60	-34.4	-35.1	23.6	0.00e+00	0	43	0	2335178752	38	4097
2026-01-26 15:27:01.31	270.43	32.56	-34.9	-35.7	23.1	0.00e+00	0	43	0	2359296000	39	4130
2026-01-26 15:27:04.19	271.49	32.51	-34.7	-35.6	23.3	0.00e+00	0	43	0	2379218944	39	4065
2026-01-26 15:27:07.72	272.79	32.43	-34.7	-35.5	23.4	0.00e+00	0	43	0	2405433344	39	4019
2026-01-26 15:27:10.48	273.81	32.35	-34.9	-35.7	23.1	0.00e+00	0	43	0	2425356288	39	4134
2026-01-26 15:27:13.83	275.03	32.25	-34.5	-35.3	23.5	0.00e+00	0	43	0	2449473536	39	3936
2026-01-26 15:27:16.53	276.01	32.16	-34.2	-35.0	23.8	0.00e+00	0	43	0	2468347904	39	3808
2026-01-26 15:27:19.83	277.20	32.04	-34.6	-35.4	23.4	0.00e+00	0	44	0	2492465152	39	3994
2026-01-26 15:27:22.53	278.16	31.93	-34.6	-35.4	23.4	0.00e+00	0	43	0	2512388096	39	3993
2026-01-26 15:27:25.78	279.32	31.78	-34.8	-35.6	23.2	0.00e+00	0	44	0	2535456768	39	4064
2026-01-26 15:27:28.82	280.39	31.64	-34.9	-35.8	23.1	0.00e+00	0	44	0	2557476864	39	4156
2026-01-26 15:27:32.10	281.53	31.47	-34.9	-35.7	23.2	0.00e+00	0	43	0	2580545536	39	4130
2026-01-26 15:27:34.91	282.50	31.32	-34.7	-35.6	23.3	0.00e+00	0	44	0	2601517056	39	4062
2026-01-26 15:27:38.04	283.57	31.14	-34.7	-35.5	23.3	0.00e+00	0	43	0	2623537152	39	4027
2026-01-26 15:27:40.88	284.53	30.97	-34.9	-35.7	23.2	0.00e+00	0	44	0	2644508672	39	4113
2026-01-26 15:27:44.08	285.60	30.77	-35.0	-35.8	23.0	0.00e+00	0	43	0	2667577344	39	4184
2026-01-26 15:27:46.99	286.56	30.58	-34.7	-35.5	23.3	0.00e+00	0	44	0	2688548864	39	4038
2026-01-26 15:27:50.12	287.58	30.36	-34.6	-35.4	23.4	0.00e+00	0	43	0	2711617536	39	3965
2026-01-26 15:27:53.05	288.53	30.15	-34.6	-35.4	23.4	0.00e+00	0	44	0	2732589056	39	3972
2026-01-26 15:27:56.04	289.48	29.94	-34.8	-35.6	23.2	0.00e+00	0	43	0	2753560576	39	4077
2026-01-26 15:27:59.02	290.41	29.71	-34.7	-35.6	23.3	0.00e+00	0	43	0	2775580672	39	4056
2026-01-26 15:28:02.01	291.34	29.48	-34.9	-35.7	23.1	0.00e+00	0	43	0	2796552192	39	4114
2026-01-26 15:28:04.99	292.24	29.24	-34.7	-35.6	23.2	0.00e+00	0	43	0	2818572288	39	4060
2026-01-26 15:28:07.98	293.14	29.00	-34.6	-35.5	23.3	0.00e+00	0	43	0	2839543808	39	4008
2026-01-26 15:28:10.96	294.02	28.75	-34.9	-35.8	23.0	0.00e+00	0	43	0	2861563904	39	4159
2026-01-26 15:28:13.95	294.89	28.50	-34.9	-35.8	23.1	0.00e+00	0	43	0	2882535424	39	4151
2026-01-26 15:28:16.93	295.75	28.24	-34.7	-35.6	23.3	0.00e+00	0	43	0	2904555520	39	4058
2026-01-26 15:28:19.94	296.60	27.98	-34.9	-35.8	23.1	0.00e+00	0	43	0	2926575616	39	4154
2026-01-26 15:28:22.99	297.44	27.71	-34.8	-35.6	23.2	0.00e+00	0	44	0	2948595712	39	4087
2026-01-26 15:28:25.98	298.26	27.44	-34.8	-35.6	23.2	0.00e+00	0	44	0	2969567232	39	4070
2026-01-26 15:28:28.96	299.06	27.17	-34.9	-35.7	23.0	0.00e+00	0	43	0	2991587328	39	4137
2026-01-26 15:28:31.94	299.85	26.89	-35.0	-35.8	23.0	0.00e+00	0	44	0	3012558848	39	4167
2026-01-26 15:28:34.92	300.62	26.62	-35.1	-35.9	22.9	0.00e+00	0	44	0	3034578944	39	4219
2026-01-26 15:28:37.99	301.40	26.33	-35.1	-35.9	23.0	0.00e+00	0	43	0	3056599040	39	4216
2026-01-26 15:28:40.83	302.11	26.06	-35.1	-35.9	22.9	0.00e+00	0	43	0	3077570560	39	4219
2026-01-26 15:28:43.95	302.88	25.76	-35.3	-36.2	22.6	0.00e+00	0	43	0	3099590656	40	4116
2026-01-26 15:28:46.79	303.57	25.49	-35.0	-35.8	23.0	0.00e+00	0	44	0	3120562176	40	3936
2026-01-26 15:28:50.01	304.33	25.18	-34.9	-35.7	23.0	0.00e+00	0	43	0	3143630848	40	3880
2026-01-26 15:28:52.92	305.01	24.90	-35.0	-35.8	23.0	0.00e+00	0	44	0	3164602368	40	3928
2026-01-26 15:28:56.08	305.74	24.59	-35.1	-35.9	22.9	0.00e+00	0	43	0	3187671040	40	3988
2026-01-26 15:28:59.00	306.39	24.30	-35.3	-36.1	22.7	0.00e+00	0	43	0	3208642560	40	4093
2026-01-26 15:29:01.98	307.05	24.01	-35.3	-36.2	22.6	0.00e+00	0	43	0	3229614080	40	4122
2026-01-26 15:29:04.97	307.70	23.72	-35.3	-36.1	22.7	0.00e+00	0	44	0	3251634176	40	4079
2026-01-26 15:29:07.95	308.33	23.43	-35.2	-36.1	22.7	0.00e+00	0	43	0	3272605696	40	4057
2026-01-26 15:29:11.00	308.97	23.13	-35.1	-35.9	22.8	0.00e+00	0	43	0	3294625792	40	3983
2026-01-26 15:29:13.98	309.58	22.84	-35.5	-36.3	22.4	0.00e+00	0	44	0	3316645888	40	4183
2026-01-26 15:29:16.97	310.19	22.54	-35.6	-36.5	22.3	0.00e+00	0	43	0	3337617408	40	4251
2026-01-26 15:29:19.95	310.77	22.25	-35.8	-36.7	22.1	0.00e+00	0	43	0	3359637504	41	4119
2026-01-26 15:29:22.93	311.35	21.96	-35.6	-36.4	22.3	0.00e+00	0	44	0	3380609024	41	4004
2026-01-26 15:29:25.99	311.94	21.66	-35.6	-36.5	22.3	0.00e+00	0	43	0	3402629120	41	4008
2026-01-26 15:29:28.98	312.50	21.37	-35.8	-36.7	22.1	0.00e+00	0	44	0	3424649216	41	4104
2026-01-26 15:29:31.96	313.04	21.08	-36.0	-36.9	22.0	0.00e+00	0	43	0	3445620736	41	4198
2026-01-26 15:29:34.93	313.58	20.79	-36.2	-37.1	21.8	0.00e+00	0	44	0	3467640832	41	4314
2026-01-26 15:29:37.95	314.11	20.50	-36.0	-36.9	21.9	0.00e+00	0	43	0	3489660928	41	4208
2026-01-26 15:29:41.00	314.64	20.21	-35.9	-36.8	21.9	0.00e+00	0	43	0	3511681024	41	4167
2026-01-26 15:29:43.98	315.15	19.92	-35.5	-36.4	22.4	0.00e+00	0	44	0	3532652544	41	3963
2026-01-26 15:29:46.97	315.65	19.64	-35.7	-36.6	22.1	0.00e+00	0	43	0	3554672640	41	4064
2026-01-26 15:29:49.95	316.14	19.35	-36.0	-36.9	21.9	0.00e+00	0	44	0	3575644160	41	4205
2026-01-26 15:29:52.94	316.63	19.07	-36.4	-37.4	21.5	0.00e+00	0	43	0	3597664256	42	4194
2026-01-26 15:29:55.92	317.10	18.79	-36.6	-37.5	21.4	0.00e+00	0	44	0	3619684352	42	4256
2026-01-26 15:29:58.90	317.56	18.51	-36.6	-37.5	21.3	0.00e+00	0	44	0	3640655872	42	4280
2026-01-26 15:30:01.88	318.02	18.23	-36.5	-37.5	21.3	0.00e+00	0	44	0	3662675968	42	4258
2026-01-26 15:30:04.88	318.47	17.95	-36.3	-37.2	21.6	0.00e+00	0	43	0	3683647488	42	4131
2026-01-26 15:30:07.86	318.91	17.68	-36.4	-37.3	21.5	0.00e+00	0	43	0	3704619008	42	4191
2026-01-26 15:30:10.99	319.37	17.39	-36.6	-37.6	21.3	0.00e+00	0	43	0	3727687680	42	4304
2026-01-26 15:30:13.83	319.77	17.13	-36.7	-37.7	21.1	0.00e+00	0	43	0	3748659200	42	4357
2026-01-26 15:30:16.95	320.21	16.85	-36.8	-37.8	21.0	0.00e+00	0	44	0	3770679296	43	4165
2026-01-26 15:30:19.79	320.60	16.59	-37.1	-38.1	20.8	0.00e+00	0	43	0	3791650816	43	4314
2026-01-26 15:30:23.08	321.04	16.30	-37.1	-38.1	20.7	0.00e+00	0	43	0	3814719488	43	4325
2026-01-26 15:30:25.92	321.42	16.05	-37.0	-38.0	20.8	0.00e+00	0	43	0	3835691008	43	4253
2026-01-26 15:30:29.05	321.83	15.77	-36.9	-37.8	21.0	0.00e+00	0	44	0	3857711104	43	4178
2026-01-26 15:30:31.89	322.20	15.52	-36.8	-37.8	21.1	0.00e+00	0	43	0	3878682624	43	4157
2026-01-26 15:30:35.02	322.59	15.25	-36.8	-37.7	21.1	0.00e+00	0	43	0	3901751296	43	4141
2026-01-26 15:30:37.86	322.94	15.00	-36.9	-37.8	21.0	0.00e+00	0	43	0	3921674240	43	4159
2026-01-26 15:30:41.08	323.34	14.72	-37.1	-38.0	20.8	0.00e+00	0	43	0	3944742912	43	4283
2026-01-26 15:30:43.96	323.68	14.47	-37.3	-38.2	20.5	0.00e+00	0	44	0	3965714432	43	4387
2026-01-26 15:30:47.09	324.05	14.21	-37.6	-38.6	20.4	0.00e+00	0	44	0	3988783104	44	4317
2026-01-26 15:30:50.03	324.39	13.96	-37.6	-38.7	20.3	0.00e+00	0	44	0	4009754624	44	4347
2026-01-26 15:30:53.01	324.74	13.71	-37.4	-38.5	20.4	0.00e+00	0	43	0	4031774720	44	4259
2026-01-26 15:30:56.00	325.07	13.46	-37.4	-38.4	20.5	0.00e+00	0	44	0	4052746240	44	4228
2026-01-26 15:30:58.99	325.40	13.21	-37.5	-38.6	20.3	0.00e+00	0	43	0	4074766336	44	4321
2026-01-26 15:31:01.97	325.73	12.97	-37.7	-38.8	20.2	0.00e+00	0	44	0	4095737856	44	4414
2026-01-26 15:31:04.95	326.05	12.72	-37.9	-38.9	20.0	0.00e+00	0	43	0	4117757952	45	4238
2026-01-26 15:31:07.93	326.36	12.48	-37.9	-38.9	19.9	0.00e+00	0	43	0	4138729472	45	4233
2026-01-26 15:31:10.95	326.67	12.24	-37.9	-39.0	19.9	0.00e+00	0	44	0	4160749568	45	4253
2026-01-26 15:31:13.95	326.98	12.00	-38.1	-39.2	19.7	0.00e+00	0	44	0	4182769664	45	4351
2026-01-26 15:31:16.94	327.28	11.76	-38.1	-39.1	19.8	0.00e+00	0	44	0	4203741184	46	4075
2026-01-26 15:31:19.92	327.58	11.53	-37.9	-38.9	20.0	0.00e+00	0	44	0	4225761280	46	3989
2026-01-26 15:31:22.94	327.87	11.29	-37.9	-38.9	20.0	0.00e+00	0	44	0	4246732800	46	3973
2026-01-26 15:31:25.96	328.16	11.05	-38.0	-39.0	19.8	0.00e+00	0	43	0	4268752896	46	4047
2026-01-26 15:31:28.95	328.45	10.82	-38.0	-39.1	19.7	0.00e+00	0	44	0	4290772992	46	4073
2026-01-26 15:31:31.93	328.72	10.59	-38.4	-39.5	19.3	0.00e+00	0	44	0	4311744512	46	4261
2026-01-26 15:31:34.91	329.00	10.37	-38.4	-39.5	19.3	0.00e+00	0	43	0	4333764608	46	4264
2026-01-26 15:31:37.90	329.27	10.14	-38.7	-39.8	19.0	0.00e+00	0	44	0	4354736128	46	4429
2026-01-26 15:31:40.95	329.54	9.91	-38.5	-39.6	19.2	0.00e+00	0	43	0	4376756224	47	4065
2026-01-26 15:31:43.82	329.79	9.70	-38.8	-39.9	18.9	0.00e+00	0	43	0	4397727744	47	4218
2026-01-26 15:31:46.95	330.07	9.47	-38.8	-39.9	18.9	0.00e+00	0	43	0	4420796416	47	4222
2026-01-26 15:31:49.79	330.31	9.26	-38.7	-39.9	18.9	0.00e+00	0	43	0	4440719360	47	4197
2026-01-26 15:31:52.94	330.57	9.03	-38.7	-39.8	18.9	0.00e+00	0	44	0	4463788032	47	4157
2026-01-26 15:31:55.78	330.81	8.82	-48.8	-60.4	3.8	8.46e-01	0	44	104	4471128064	67	14107
2026-01-26 15:31:58.90	331.06	8.59	-49.1	-61.0	3.8	8.47e-01	0	44	104	4471128064	68	14217
2026-01-26 15:32:01.74	331.29	8.39	-50.1	-61.0	3.8	8.46e-01	0	44	104	4471128064	69	13534
2026-01-26 15:32:04.86	331.54	8.17	-50.1	-61.1	3.8	8.46e-01	0	44	104	4471128064	69	13615
2026-01-26 15:32:07.70	331.77	7.97	-50.3	-61.1	3.8	8.46e-01	0	44	104	4471128064	70	12872
2026-01-26 15:32:10.82	332.01	7.75	-50.4	-61.0	3.8	8.46e-01	0	43	104	4471128064	70	12809
2026-01-26 15:32:13.66	332.23	7.55	-50.1	-61.0	3.8	8.46e-01	0	44	104	4471128064	70	12670
2026-01-26 15:32:16.78	332.46	7.33	-49.9	-61.0	3.8	8.45e-01	0	44	104	4471128064	70	12690
2026-01-26 15:32:19.62	332.67	7.14	-49.9	-60.9	3.8	8.46e-01	0	44	104	4471128064	70	12607
2026-01-26 15:32:22.74	332.90	6.92	-49.9	-60.9	3.8	8.47e-01	0	44	104	4471128064	70	12653
2026-01-26 15:32:25.58	333.11	6.73	-49.8	-60.9	3.8	8.47e-01	0	44	104	4471128064	70	12581
2026-01-26 15:32:28.70	333.33	6.52	-49.8	-60.9	3.8	8.46e-01	0	44	104	4471128064	70	12554
2026-01-26 15:32:31.54	333.53	6.33	-49.8	-60.9	3.8	8.47e-01	0	43	104	4471128064	70	12595
2026-01-26 15:32:34.66	333.75	6.12	-49.8	-60.9	3.8	8.46e-01	0	44	104	4471128064	70	12596
2026-01-26 15:32:37.50	333.95	5.93	-49.8	-60.9	3.8	8.48e-01	0	44	104	4471128064	69	13270
2026-01-26 15:32:40.63	334.16	5.72	-49.8	-60.9	3.8	8.48e-01	0	44	104	4471128064	69	13318
2026-01-26 15:32:43.47	334.35	5.54	-49.8	-60.8	3.8	8.47e-01	0	44	104	4471128064	69	13240
