passes_logs/2026/01/26/T1/T1__20260126_085040_NOAA_21_JPSS-2_rec.log

#Pass ID: 20260126_085040_NOAA 21 (JPSS-2)
#Satellite: NOAA 21 (JPSS-2)
#Configuration: NOAA 21
#almurnet v.1.7.20251203
#Start time: 2026-01-26 08:50:39

#Version: 2.0.20230620
#Station: T1
#Location: 37.570604 lon 55.790049 lat
#TLE: 1 54234U 22150A   26025.79694208  .00000182  00000+0  10700-3 0  9999
#TLE: 2 54234  98.7509 326.5666 0000777 213.2444 146.8684 14.19539347166346

#Time	Az	El	Level	Level2	SNR	BER	BlckErr	Temp	State	Recorded	gain1	gain2
2026-01-26 08:50:39.76	126.24	4.98	-48.7	-61.9	3.8	1.49e+00	0	40	0	0	69	15988
2026-01-26 08:50:42.74	126.08	5.18	-48.8	-61.8	3.8	1.49e+00	0	40	104	0	69	15837
2026-01-26 08:50:45.72	125.91	5.39	-48.8	-61.7	3.8	1.49e+00	0	40	104	0	69	15724
2026-01-26 08:50:48.70	125.74	5.59	-48.7	-61.8	3.8	1.49e+00	0	41	104	0	69	15769
2026-01-26 08:50:51.68	125.56	5.79	-48.7	-61.8	3.8	1.49e+00	0	41	104	0	69	15907
2026-01-26 08:50:54.65	125.39	5.99	-48.8	-61.8	3.8	1.49e+00	0	41	104	0	69	15927
2026-01-26 08:50:57.63	125.21	6.20	-48.8	-61.8	3.8	1.49e+00	0	41	104	0	69	15880
2026-01-26 08:51:00.61	125.03	6.41	-48.7	-61.6	3.8	1.49e+00	0	41	104	0	69	15565
2026-01-26 08:51:03.59	124.85	6.62	-48.7	-61.3	3.8	1.49e+00	0	41	104	0	69	14985
2026-01-26 08:51:06.57	124.66	6.83	-48.6	-61.3	3.8	1.49e+00	0	41	104	0	69	14924
2026-01-26 08:51:09.55	124.47	7.04	-48.8	-61.7	3.8	1.49e+00	0	41	104	0	69	15750
2026-01-26 08:51:12.53	124.28	7.25	-48.7	-61.4	3.8	1.49e+00	0	41	104	0	69	15195
2026-01-26 08:51:15.51	124.08	7.47	-48.5	-59.8	3.9	1.49e+00	0	41	104	0	68	13303
2026-01-26 08:51:18.49	123.89	7.68	-47.8	-55.4	5.4	6.98e-01	0	42	0	0	67	8553
2026-01-26 08:51:21.47	123.68	7.90	-45.7	-49.8	10.7	5.56e-03	0	42	0	0	63	5622
2026-01-26 08:51:24.45	123.48	8.12	-42.9	-45.4	15.2	1.50e-06	0	42	0	0	57	4761
2026-01-26 08:51:27.43	123.27	8.34	-41.0	-43.1	17.2	0.00e+00	0	42	0	0	54	4368
2026-01-26 08:51:30.41	123.06	8.56	-41.2	-43.3	17.0	0.00e+00	0	42	0	0	53	4751
2026-01-26 08:51:33.39	122.85	8.79	-43.2	-45.9	14.7	0.00e+00	0	42	0	0	57	5055
2026-01-26 08:51:36.36	122.63	9.01	-46.3	-51.1	9.3	1.23e-02	0	42	0	0	63	6536
2026-01-26 08:51:39.35	122.41	9.24	-43.9	-46.8	13.9	0.00e+00	0	42	0	0	58	5300
2026-01-26 08:51:42.33	122.18	9.47	-47.5	-54.6	5.9	5.12e-01	0	42	0	0	66	8184
2026-01-26 08:51:45.32	121.95	9.70	-45.1	-48.8	11.7	9.31e-04	0	42	0	0	62	5294
2026-01-26 08:51:48.30	121.72	9.93	-42.4	-44.9	15.6	0.00e+00	0	42	0	0	56	4768
2026-01-26 08:51:51.29	121.49	10.17	-41.1	-43.2	17.1	0.00e+00	0	42	0	0	54	4426
2026-01-26 08:51:54.27	121.25	10.40	-40.0	-41.9	18.4	0.00e+00	0	42	0	0	51	4523
2026-01-26 08:51:57.26	121.00	10.64	-39.9	-41.7	18.5	0.00e+00	0	42	0	0	51	4441
2026-01-26 08:52:00.24	120.75	10.88	-39.9	-41.8	18.5	0.00e+00	0	42	0	0	51	4442
2026-01-26 08:52:03.23	120.50	11.12	-39.8	-41.7	18.6	0.00e+00	0	42	0	0	51	4395
2026-01-26 08:52:06.21	120.24	11.37	-39.7	-41.5	18.7	0.00e+00	0	42	0	0	51	4330
2026-01-26 08:52:09.19	119.98	11.61	-39.8	-41.6	18.6	0.00e+00	0	42	0	0	51	4391
2026-01-26 08:52:12.18	119.72	11.86	-39.5	-41.3	18.9	0.00e+00	0	42	0	0	51	4229
2026-01-26 08:52:15.17	119.44	12.11	-39.6	-41.4	18.8	0.00e+00	0	42	0	0	51	4277
2026-01-26 08:52:18.16	119.17	12.36	-39.4	-41.2	19.1	0.00e+00	0	42	0	0	50	4394
2026-01-26 08:52:21.15	118.89	12.61	-39.4	-41.2	19.0	0.00e+00	0	42	0	0	50	4426
2026-01-26 08:52:24.13	118.60	12.87	-39.2	-41.0	19.2	0.00e+00	0	42	0	0	50	4298
2026-01-26 08:52:27.12	118.31	13.13	-39.2	-41.0	19.2	0.00e+00	0	42	0	0	50	4319
2026-01-26 08:52:30.11	118.02	13.39	-39.3	-41.1	19.1	0.00e+00	0	42	0	0	50	4356
2026-01-26 08:52:33.09	117.72	13.65	-39.1	-40.8	19.3	0.00e+00	0	43	0	0	50	4240
2026-01-26 08:52:36.08	117.41	13.91	-39.1	-40.8	19.4	0.00e+00	0	42	0	0	50	4227
2026-01-26 08:52:39.06	117.10	14.17	-39.1	-40.9	19.2	0.00e+00	0	43	0	0	49	4505
2026-01-26 08:52:42.05	116.78	14.44	-39.1	-40.9	19.2	0.00e+00	0	43	0	0	49	4528
2026-01-26 08:52:45.04	116.45	14.71	-39.0	-40.8	19.4	0.00e+00	0	43	0	0	49	4459
2026-01-26 08:52:48.02	116.13	14.98	-39.0	-40.8	19.4	0.00e+00	0	43	0	0	49	4458
2026-01-26 08:52:51.01	115.79	15.25	-39.2	-41.0	19.2	0.00e+00	0	43	0	0	49	4580
2026-01-26 08:52:53.99	115.45	15.53	-39.1	-40.8	19.4	0.00e+00	0	43	0	0	49	4477
2026-01-26 08:52:56.98	115.10	15.81	-39.1	-40.8	19.4	0.00e+00	0	43	0	0	49	4469
2026-01-26 08:52:59.96	114.74	16.09	-39.1	-40.8	19.3	0.00e+00	0	43	0	0	49	4463
2026-01-26 08:53:02.94	114.38	16.37	-39.3	-41.1	19.1	0.00e+00	0	43	0	0	49	4603
2026-01-26 08:53:05.92	114.01	16.65	-39.4	-41.2	19.0	0.00e+00	0	43	0	0	49	4690
2026-01-26 08:53:08.91	113.64	16.94	-39.4	-41.2	19.1	0.00e+00	0	42	0	0	49	4662
2026-01-26 08:53:11.90	113.25	17.22	-39.3	-41.0	19.2	0.00e+00	0	43	0	0	49	4598
2026-01-26 08:53:14.88	112.86	17.51	-39.2	-41.0	19.2	0.00e+00	0	43	0	0	49	4574
2026-01-26 08:53:17.87	112.46	17.80	-39.3	-41.1	19.1	0.00e+00	0	43	0	0	49	4635
2026-01-26 08:53:20.86	112.05	18.10	-39.3	-41.1	19.1	0.00e+00	0	43	0	0	49	4643
2026-01-26 08:53:23.85	111.64	18.39	-39.3	-41.1	19.2	0.00e+00	0	43	0	0	49	4627
2026-01-26 08:53:26.83	111.22	18.69	-38.9	-40.7	19.6	0.00e+00	0	43	0	0	49	4416
2026-01-26 08:53:29.82	110.78	18.99	-38.8	-40.5	19.7	0.00e+00	0	43	0	0	49	4318
2026-01-26 08:53:32.80	110.34	19.29	-38.7	-40.4	19.8	0.00e+00	0	43	0	0	49	4282
2026-01-26 08:53:35.79	109.89	19.60	-38.7	-40.4	19.8	0.00e+00	0	43	0	0	49	4276
2026-01-26 08:53:38.77	109.44	19.90	-38.6	-40.3	19.9	0.00e+00	0	43	0	0	49	4237
2026-01-26 08:53:41.75	108.97	20.21	-38.3	-39.9	20.3	0.00e+00	0	43	0	0	48	4283
2026-01-26 08:53:44.74	108.49	20.52	-38.1	-39.8	20.4	0.00e+00	0	43	0	0	48	4221
2026-01-26 08:53:47.73	108.00	20.83	-37.8	-39.5	20.4	0.00e+00	0	43	0	0	47	4320
2026-01-26 08:53:50.72	107.51	21.14	-37.8	-39.5	20.5	0.00e+00	0	43	0	0	47	4324
2026-01-26 08:53:53.70	107.00	21.45	-37.8	-39.4	20.5	0.00e+00	0	43	0	0	47	4284
2026-01-26 08:53:56.68	106.48	21.77	-37.8	-39.5	20.5	0.00e+00	0	43	0	0	47	4292
2026-01-26 08:53:59.67	105.95	22.08	-37.8	-39.5	20.5	0.00e+00	0	43	0	0	47	4312
2026-01-26 08:54:02.66	105.41	22.40	-38.0	-39.7	20.3	0.00e+00	0	43	0	0	47	4404
2026-01-26 08:54:05.64	104.86	22.72	-38.2	-39.9	20.0	0.00e+00	0	43	0	0	47	4541
2026-01-26 08:54:08.62	104.30	23.04	-37.9	-39.6	20.4	0.00e+00	0	43	0	0	47	4360
2026-01-26 08:54:11.61	103.73	23.36	-37.7	-39.4	20.6	0.00e+00	0	43	0	0	47	4256
2026-01-26 08:54:14.59	103.14	23.68	-37.9	-39.5	20.4	0.00e+00	0	43	0	0	47	4312
2026-01-26 08:54:17.58	102.54	24.00	-37.9	-39.6	20.3	0.00e+00	0	43	0	0	47	4350
2026-01-26 08:54:20.56	101.93	24.32	-38.0	-39.6	20.4	0.00e+00	0	43	0	0	47	4379
2026-01-26 08:54:23.55	101.31	24.65	-38.0	-39.6	20.4	0.00e+00	0	43	0	0	47	4383
2026-01-26 08:54:26.53	100.67	24.97	-38.0	-39.7	20.3	0.00e+00	0	43	0	0	47	4399
2026-01-26 08:54:29.52	100.02	25.29	-38.3	-40.0	20.0	0.00e+00	0	43	0	0	47	4552
2026-01-26 08:54:32.50	99.36	25.61	-38.4	-40.2	20.0	0.00e+00	0	43	0	0	47	4654
2026-01-26 08:54:35.48	98.68	25.94	-38.5	-40.2	19.9	0.00e+00	0	43	0	0	47	4689
2026-01-26 08:54:38.47	97.99	26.26	-38.9	-40.6	19.7	0.00e+00	0	43	0	0	48	4624
2026-01-26 08:54:41.46	97.28	26.58	-38.9	-40.6	19.8	0.00e+00	0	43	0	0	48	4620
2026-01-26 08:54:44.44	96.57	26.90	-38.9	-40.6	19.7	0.00e+00	0	43	0	0	48	4632
2026-01-26 08:54:47.43	95.83	27.22	-38.8	-40.5	19.8	0.00e+00	0	43	0	0	48	4590
2026-01-26 08:54:50.41	95.08	27.53	-38.6	-40.3	20.0	0.00e+00	0	43	0	0	48	4459
2026-01-26 08:54:53.40	94.32	27.85	-38.5	-40.2	20.0	0.00e+00	0	43	0	0	48	4411
2026-01-26 08:54:56.39	93.54	28.16	-38.4	-40.1	20.1	0.00e+00	0	43	0	0	48	4343
2026-01-26 08:54:59.37	92.74	28.47	-38.4	-40.0	20.2	0.00e+00	0	43	0	0	48	4333
2026-01-26 08:55:02.36	91.93	28.78	-38.8	-40.5	19.7	0.00e+00	0	43	0	0	48	4582
2026-01-26 08:55:05.34	91.11	29.08	-38.8	-40.6	19.7	0.00e+00	0	43	0	0	48	4617
2026-01-26 08:55:08.32	90.27	29.38	-38.6	-40.3	20.0	0.00e+00	0	43	0	0	48	4484
2026-01-26 08:55:11.30	89.41	29.68	-38.5	-40.2	20.1	0.00e+00	0	43	0	0	48	4437
2026-01-26 08:55:14.28	88.54	29.97	-38.4	-40.1	20.2	0.00e+00	0	43	0	0	48	4366
2026-01-26 08:55:17.27	87.65	30.26	-38.6	-40.3	19.9	0.00e+00	0	43	0	0	48	4473
2026-01-26 08:55:20.25	86.74	30.54	-38.8	-40.6	19.8	0.00e+00	0	43	0	0	48	4614
2026-01-26 08:55:23.24	85.82	30.82	-38.8	-40.5	19.8	0.00e+00	0	43	0	0	48	4593
2026-01-26 08:55:26.22	84.89	31.09	-38.7	-40.4	20.0	0.00e+00	0	43	0	0	48	4502
2026-01-26 08:55:29.21	83.93	31.35	-38.7	-40.4	20.0	0.00e+00	0	43	0	0	48	4507
2026-01-26 08:55:32.20	82.96	31.61	-39.0	-40.7	19.6	0.00e+00	0	43	0	0	48	4700
2026-01-26 08:55:35.18	81.98	31.86	-39.3	-41.1	19.4	0.00e+00	0	43	0	0	49	4635
2026-01-26 08:55:38.17	80.98	32.11	-39.4	-41.1	19.3	0.00e+00	0	43	0	0	49	4651
2026-01-26 08:55:41.15	79.97	32.34	-39.2	-41.0	19.5	0.00e+00	0	43	0	0	49	4547
2026-01-26 08:55:44.13	78.95	32.57	-39.1	-40.8	19.7	0.00e+00	0	43	0	0	49	4473
2026-01-26 08:55:47.11	77.91	32.78	-39.3	-41.1	19.4	0.00e+00	0	43	0	0	49	4613
2026-01-26 08:55:50.10	76.85	32.99	-39.4	-41.1	19.4	0.00e+00	0	43	0	0	49	4651
2026-01-26 08:55:53.08	75.78	33.19	-39.4	-41.1	19.3	0.00e+00	0	43	0	0	49	4651
2026-01-26 08:55:56.07	74.70	33.38	-39.8	-41.6	18.9	0.00e+00	0	43	0	0	50	4609
2026-01-26 08:55:59.05	73.61	33.56	-39.8	-41.6	19.0	0.00e+00	0	43	0	0	50	4605
2026-01-26 08:56:02.03	72.51	33.72	-39.6	-41.4	19.1	0.00e+00	0	43	0	0	50	4527
2026-01-26 08:56:05.02	71.39	33.88	-39.7	-41.5	19.1	0.00e+00	0	43	0	0	50	4550
2026-01-26 08:56:08.00	70.26	34.02	-39.7	-41.5	19.0	0.00e+00	0	43	0	0	50	4583
2026-01-26 08:56:10.99	69.13	34.15	-40.1	-41.9	18.6	0.00e+00	0	43	0	0	50	4799
2026-01-26 08:56:13.97	67.98	34.27	-39.8	-41.6	18.7	0.00e+00	0	43	0	0	50	4620
2026-01-26 08:56:16.95	66.83	34.38	-39.9	-41.7	18.9	0.00e+00	0	43	0	0	50	4659
2026-01-26 08:56:19.94	65.67	34.47	-39.8	-41.6	19.1	0.00e+00	0	43	0	0	50	4605
2026-01-26 08:56:22.92	64.51	34.55	-39.8	-41.6	19.0	0.00e+00	0	43	0	0	50	4623
2026-01-26 08:56:25.90	63.34	34.62	-39.8	-41.6	19.0	0.00e+00	0	43	0	0	50	4647
2026-01-26 08:56:28.89	62.16	34.67	-40.1	-42.0	18.7	0.00e+00	0	43	0	0	50	4816
2026-01-26 08:56:31.87	60.98	34.71	-40.0	-41.8	18.8	0.00e+00	0	43	0	0	51	4451
2026-01-26 08:56:34.86	59.80	34.74	-39.8	-41.6	19.0	0.00e+00	0	43	0	0	51	4376
2026-01-26 08:56:37.85	58.62	34.75	-39.9	-41.7	18.9	0.00e+00	0	43	0	0	51	4421
2026-01-26 08:56:40.83	57.44	34.75	-40.0	-41.8	18.7	0.00e+00	0	43	0	0	51	4480
2026-01-26 08:56:43.82	56.25	34.73	-40.3	-42.1	18.4	0.00e+00	0	43	0	0	51	4649
2026-01-26 08:56:46.80	55.08	34.70	-40.2	-42.0	18.6	0.00e+00	0	43	0	0	51	4586
2026-01-26 08:56:49.79	53.90	34.66	-40.1	-41.9	18.7	0.00e+00	0	43	0	0	51	4520
2026-01-26 08:56:52.77	52.73	34.60	-40.1	-41.9	18.7	0.00e+00	0	43	0	0	51	4535
2026-01-26 08:56:55.76	51.56	34.53	-40.0	-41.8	18.8	0.00e+00	0	43	0	0	51	4474
2026-01-26 08:56:58.74	50.39	34.45	-40.2	-42.0	18.6	0.00e+00	0	43	0	0	51	4595
2026-01-26 08:57:01.73	49.24	34.35	-40.1	-42.0	18.6	0.00e+00	0	43	0	0	51	4568
2026-01-26 08:57:04.72	48.09	34.24	-39.5	-41.3	19.3	0.00e+00	0	43	0	0	51	4196
2026-01-26 08:57:07.70	46.95	34.12	-39.3	-41.1	19.5	0.00e+00	0	43	0	0	50	4367
2026-01-26 08:57:10.69	45.81	33.99	-39.7	-41.5	19.0	0.00e+00	0	43	0	0	50	4565
2026-01-26 08:57:13.67	44.69	33.84	-39.7	-41.5	18.9	0.00e+00	0	43	0	0	50	4595
2026-01-26 08:57:16.66	43.58	33.68	-39.8	-41.6	18.9	0.00e+00	0	43	0	0	50	4617
2026-01-26 08:57:19.65	42.48	33.51	-39.7	-41.5	19.1	0.00e+00	0	43	0	0	50	4578
2026-01-26 08:57:22.63	41.39	33.33	-40.1	-42.0	18.7	0.00e+00	0	43	0	0	50	4842
2026-01-26 08:57:25.60	40.32	33.14	-39.8	-41.6	18.9	0.00e+00	0	43	0	0	51	4380
2026-01-26 08:57:28.59	39.26	32.94	-39.9	-41.8	18.8	0.00e+00	0	43	0	0	51	4449
2026-01-26 08:57:31.57	38.21	32.73	-40.2	-42.1	18.6	0.00e+00	0	43	0	0	51	4618
2026-01-26 08:57:34.56	37.17	32.51	-39.3	-41.1	19.4	0.00e+00	0	43	0	0	50	4375
2026-01-26 08:57:37.54	36.15	32.29	-39.4	-41.1	19.3	0.00e+00	0	43	0	0	50	4381
2026-01-26 08:57:40.53	35.14	32.05	-40.0	-41.8	18.7	0.00e+00	0	43	0	0	50	4752
2026-01-26 08:57:43.51	34.15	31.80	-39.4	-41.1	19.3	0.00e+00	0	43	0	0	50	4389
2026-01-26 08:57:46.50	33.18	31.55	-39.2	-40.9	19.6	0.00e+00	0	43	0	0	50	4281
2026-01-26 08:57:49.48	32.22	31.29	-39.6	-41.4	19.0	0.00e+00	0	43	0	0	50	4505
2026-01-26 08:57:52.46	31.27	31.03	-38.9	-40.6	19.6	0.00e+00	0	43	0	0	49	4385
2026-01-26 08:57:55.45	30.34	30.76	-39.1	-40.8	19.6	0.00e+00	0	43	0	0	49	4478
2026-01-26 08:57:58.44	29.43	30.48	-39.8	-41.6	18.8	0.00e+00	0	43	0	0	50	4636
2026-01-26 08:58:01.42	28.53	30.20	-39.1	-40.9	19.5	0.00e+00	0	43	0	0	50	4268
2026-01-26 08:58:04.40	27.65	29.91	-39.1	-40.9	19.6	0.00e+00	0	43	0	0	49	4518
2026-01-26 08:58:07.39	26.78	29.62	-39.1	-40.8	19.6	0.00e+00	0	43	0	0	49	4487
2026-01-26 08:58:10.37	25.94	29.32	-38.9	-40.6	19.8	0.00e+00	0	43	0	0	49	4361
2026-01-26 08:58:13.36	25.10	29.02	-39.3	-41.1	19.4	0.00e+00	0	43	0	0	49	4636
2026-01-26 08:58:16.34	24.28	28.72	-39.1	-40.8	19.6	0.00e+00	0	43	0	0	49	4483
2026-01-26 08:58:19.33	23.48	28.41	-38.5	-40.2	20.2	0.00e+00	0	43	0	0	49	4181
2026-01-26 08:58:22.31	22.69	28.10	-38.6	-40.3	20.2	0.00e+00	0	43	0	0	48	4444
2026-01-26 08:58:25.29	21.92	27.79	-38.7	-40.5	20.0	0.00e+00	0	43	0	0	48	4549
2026-01-26 08:58:28.28	21.16	27.48	-38.5	-40.2	20.2	0.00e+00	0	43	0	0	48	4401
2026-01-26 08:58:31.26	20.42	27.16	-39.0	-40.8	19.7	0.00e+00	0	43	0	0	48	4735
2026-01-26 08:58:34.25	19.69	26.84	-38.9	-40.7	19.8	0.00e+00	0	43	0	0	48	4700
2026-01-26 08:58:37.23	18.98	26.52	-38.5	-40.2	20.1	0.00e+00	0	43	0	0	48	4424
2026-01-26 08:58:40.21	18.29	26.21	-38.4	-40.1	20.2	0.00e+00	0	43	0	0	48	4353
2026-01-26 08:58:43.20	17.60	25.88	-38.4	-40.1	20.2	0.00e+00	0	43	0	0	48	4370
2026-01-26 08:58:46.18	16.93	25.56	-38.4	-40.0	20.4	0.00e+00	0	43	0	0	48	4334
2026-01-26 08:58:49.17	16.27	25.24	-39.0	-40.8	19.7	0.00e+00	0	43	0	0	48	4710
2026-01-26 08:58:52.15	15.63	24.92	-39.1	-40.9	19.6	0.00e+00	0	43	0	0	49	4502
2026-01-26 08:58:55.14	15.00	24.60	-38.6	-40.4	20.0	0.00e+00	0	43	0	0	49	4244
2026-01-26 08:58:58.13	14.38	24.28	-38.0	-39.7	20.6	0.00e+00	0	43	0	0	48	4155
2026-01-26 08:59:01.11	13.78	23.96	-38.0	-39.7	20.5	0.00e+00	0	43	0	0	47	4405
2026-01-26 08:59:04.09	13.19	23.64	-38.1	-39.8	20.3	0.00e+00	0	43	0	0	47	4485
2026-01-26 08:59:07.08	12.61	23.32	-38.2	-39.9	20.1	0.00e+00	0	43	0	0	47	4514
2026-01-26 08:59:10.06	12.04	23.00	-38.2	-39.9	20.1	0.00e+00	0	43	0	0	47	4532
2026-01-26 08:59:13.05	11.48	22.68	-38.5	-40.2	19.8	0.00e+00	0	43	0	0	47	4683
2026-01-26 08:59:16.04	10.94	22.36	-38.5	-40.3	19.8	0.00e+00	0	43	0	0	47	4711
2026-01-26 08:59:19.02	10.40	22.05	-38.5	-40.2	19.9	0.00e+00	0	43	0	0	47	4693
2026-01-26 08:59:22.01	9.88	21.73	-38.5	-40.3	19.9	0.00e+00	0	43	0	0	47	4708
2026-01-26 08:59:24.99	9.37	21.42	-38.9	-40.7	19.8	0.00e+00	0	43	0	0	48	4658
2026-01-26 08:59:27.98	8.86	21.11	-38.9	-40.7	19.6	0.00e+00	0	43	0	0	48	4692
2026-01-26 08:59:30.96	8.37	20.80	-38.7	-40.5	19.8	0.00e+00	0	43	0	0	48	4588
2026-01-26 08:59:33.95	7.89	20.49	-38.8	-40.6	19.8	0.00e+00	0	43	0	0	48	4623
2026-01-26 08:59:36.93	7.42	20.18	-38.8	-40.6	19.8	0.00e+00	0	43	0	0	48	4614
2026-01-26 08:59:39.91	6.96	19.88	-38.8	-40.6	19.7	0.00e+00	0	43	0	0	48	4640
2026-01-26 08:59:42.89	6.51	19.58	-38.8	-40.7	19.6	0.00e+00	0	43	0	0	48	4676
2026-01-26 08:59:45.87	6.06	19.28	-38.6	-40.4	19.8	0.00e+00	0	43	0	0	48	4495
2026-01-26 08:59:48.86	5.63	18.98	-38.4	-40.1	20.0	0.00e+00	0	43	0	0	48	4361
2026-01-26 08:59:51.84	5.20	18.68	-38.0	-39.8	20.3	0.00e+00	0	43	0	0	48	4194
2026-01-26 08:59:54.82	4.78	18.38	-38.4	-40.1	20.1	0.00e+00	0	43	0	0	48	4344
2026-01-26 08:59:57.81	4.37	18.09	-38.5	-40.3	20.0	0.00e+00	0	43	0	0	48	4448
2026-01-26 09:00:00.79	3.97	17.80	-38.6	-40.4	19.8	0.00e+00	0	43	0	0	48	4516
2026-01-26 09:00:03.78	3.58	17.51	-38.7	-40.5	19.8	0.00e+00	0	43	0	0	48	4563
2026-01-26 09:00:06.77	3.19	17.22	-38.8	-40.5	19.8	0.00e+00	0	43	0	0	48	4575
2026-01-26 09:00:09.76	2.81	16.93	-38.9	-40.7	19.7	0.00e+00	0	43	0	0	48	4672
2026-01-26 09:00:12.74	2.44	16.65	-39.3	-41.1	19.2	0.00e+00	0	43	0	0	49	4641
2026-01-26 09:00:15.72	2.08	16.37	-39.6	-41.4	19.0	0.00e+00	0	43	0	0	49	4803
2026-01-26 09:00:18.70	1.72	16.09	-39.6	-41.5	19.0	0.00e+00	0	43	0	0	49	4824
2026-01-26 09:00:21.69	1.37	15.81	-39.5	-41.5	18.9	0.00e+00	0	43	0	0	49	4840
2026-01-26 09:00:24.68	1.02	15.54	-39.3	-41.3	19.1	0.00e+00	0	43	0	0	49	4725
2026-01-26 09:00:27.66	0.69	15.26	-39.4	-41.2	19.1	0.00e+00	0	43	0	0	49	4689
2026-01-26 09:00:30.64	0.35	14.99	-39.4	-41.3	19.1	0.00e+00	0	43	0	0	49	4729
2026-01-26 09:00:33.63	0.03	14.72	-39.6	-41.5	18.9	0.00e+00	0	43	0	0	49	4843
2026-01-26 09:00:36.61	359.71	14.46	-39.9	-41.8	18.7	0.00e+00	0	43	0	0	50	4747
2026-01-26 09:00:39.59	359.40	14.19	-40.1	-42.0	18.5	0.00e+00	0	43	0	0	50	4833
2026-01-26 09:00:42.58	359.09	13.93	-40.1	-42.0	18.4	0.00e+00	0	43	0	0	51	4563
2026-01-26 09:00:45.56	358.79	13.67	-39.8	-41.7	18.5	0.00e+00	0	43	0	0	51	4411
2026-01-26 09:00:48.54	358.49	13.41	-39.6	-41.6	18.6	0.00e+00	0	43	0	0	51	4350
2026-01-26 09:00:51.53	358.20	13.15	-39.4	-41.3	18.9	0.00e+00	0	43	0	0	50	4476
2026-01-26 09:00:54.51	357.91	12.89	-39.5	-41.3	19.0	0.00e+00	0	43	0	0	50	4481
2026-01-26 09:00:57.49	357.63	12.64	-39.7	-41.5	18.8	0.00e+00	0	43	0	0	50	4576
2026-01-26 09:01:00.48	357.36	12.39	-39.9	-41.8	18.6	0.00e+00	0	43	0	0	50	4753
2026-01-26 09:01:03.46	357.08	12.14	-40.0	-42.1	18.3	0.00e+00	0	43	0	0	50	4908
2026-01-26 09:01:06.44	356.82	11.89	-40.1	-42.4	18.1	0.00e+00	0	43	0	0	50	5054
2026-01-26 09:01:09.43	356.56	11.65	-40.2	-42.4	18.0	0.00e+00	0	43	0	0	51	4796
2026-01-26 09:01:12.41	356.30	11.40	-40.1	-42.4	18.0	0.00e+00	0	43	0	0	51	4803
2026-01-26 09:01:15.40	356.05	11.16	-39.8	-42.2	18.1	0.00e+00	0	43	0	0	51	4658
2026-01-26 09:01:18.38	355.80	10.92	-39.6	-42.0	18.2	0.00e+00	0	43	0	0	51	4589
2026-01-26 09:01:21.37	355.55	10.68	-39.6	-42.1	18.2	0.00e+00	0	43	0	0	51	4630
2026-01-26 09:01:24.35	355.31	10.44	-39.4	-42.0	18.3	0.00e+00	0	43	0	0	50	4864
2026-01-26 09:01:27.34	355.08	10.21	-39.5	-42.1	18.2	0.00e+00	0	43	0	0	50	4872
2026-01-26 09:01:30.32	354.84	9.98	-39.4	-42.1	18.2	0.00e+00	0	43	0	0	50	4911
2026-01-26 09:01:33.30	354.62	9.74	-39.3	-42.2	18.1	0.00e+00	0	43	0	0	50	4957
2026-01-26 09:01:36.29	354.39	9.51	-39.4	-42.4	18.0	0.00e+00	0	43	0	0	50	5043
2026-01-26 09:01:39.28	354.17	9.29	-39.7	-42.4	17.9	0.00e+00	0	43	0	0	50	5090
2026-01-26 09:01:42.26	353.95	9.06	-40.2	-42.7	17.6	0.00e+00	0	43	0	0	51	4948
2026-01-26 09:01:45.25	353.74	8.83	-48.3	-61.9	3.8	1.49e+00	0	43	104	0	67	17980
2026-01-26 09:01:48.23	353.53	8.61	-48.8	-62.3	3.8	1.49e+00	0	43	104	0	68	17711
2026-01-26 09:01:51.21	353.32	8.39	-49.1	-62.4	3.8	1.49e+00	0	43	104	0	69	16917
2026-01-26 09:01:54.18	353.12	8.17	-49.4	-62.4	3.8	1.49e+00	0	43	104	0	69	17063
2026-01-26 09:01:57.16	352.92	7.95	-49.3	-62.5	3.8	1.49e+00	0	43	104	0	69	17112
2026-01-26 09:02:00.14	352.72	7.74	-49.3	-62.5	3.8	1.49e+00	0	43	104	0	69	17138
2026-01-26 09:02:03.12	352.52	7.52	-49.4	-62.5	3.8	1.49e+00	0	43	104	0	69	17142
2026-01-26 09:02:06.10	352.33	7.31	-49.4	-62.4	3.8	1.49e+00	0	43	104	0	69	17075
2026-01-26 09:02:09.08	352.15	7.09	-49.4	-62.5	3.8	1.49e+00	0	43	104	0	69	17087
2026-01-26 09:02:12.06	351.96	6.88	-49.4	-62.4	3.8	1.49e+00	0	43	104	0	69	17003
2026-01-26 09:02:15.04	351.78	6.67	-49.2	-62.4	3.8	1.49e+00	0	43	104	0	69	16912
2026-01-26 09:02:18.02	351.60	6.47	-49.1	-62.3	3.8	1.49e+00	0	43	104	0	69	16820
2026-01-26 09:02:21.00	351.42	6.26	-49.1	-62.3	3.8	1.49e+00	0	43	104	0	69	16842
2026-01-26 09:02:23.97	351.25	6.05	-49.1	-62.3	3.8	1.49e+00	0	43	104	0	69	16779
2026-01-26 09:02:26.95	351.07	5.85	-49.1	-62.3	3.8	1.49e+00	0	43	104	0	69	16759
2026-01-26 09:02:29.93	350.91	5.65	-49.1	-62.3	3.8	1.49e+00	0	43	104	0	69	16766
2026-01-26 09:02:32.91	350.74	5.45	-49.1	-62.3	3.8	1.49e+00	0	43	104	0	69	16737
2026-01-26 09:02:35.89	350.57	5.25	-49.1	-62.3	3.8	1.49e+00	0	43	104	0	69	16764
2026-01-26 09:02:38.87	350.41	5.05	-49.1	-62.2	3.8	1.49e+00	0	43	104	0	69	16663

#Closed at: 2026-01-26 09:02:40
#Recorded file [0 MB]: D:/Data/31040_260126_115039.dat