passes_logs/2026/01/26/T1/T1__20260126_002632_FENGYUN_3D_rec.log

#Pass ID: 20260126_002632_FENGYUN 3D
#Satellite: FENGYUN 3D
#Configuration: FENGYUN 3D
#almurnet v.1.7.20251203
#Start time: 2026-01-26 00:26:34

#Version: 2.0.20230620
#Station: T1
#Location: 37.570604 lon 55.790049 lat
#TLE: 1 43010U 17072A   26025.50461972  .00000046  00000+0  43592-4 0  9990
#TLE: 2 43010  98.9962 357.4844 0002523  89.7890 270.3575 14.19699798424744

#Time	Az	El	Level	Level2	SNR	BER	BlckErr	Temp	State	Recorded	gain1	gain2
2026-01-26 00:26:34.45	28.32	5.11	-47.7	-59.9	3.8	8.48e-01	0	36	0	0	67	14314
2026-01-26 00:26:37.43	28.55	5.30	-47.7	-59.9	3.8	8.47e-01	0	36	104	0	67	14276
2026-01-26 00:26:40.41	28.79	5.48	-47.7	-59.9	3.8	8.47e-01	0	36	104	0	67	14244
2026-01-26 00:26:43.39	29.04	5.66	-47.7	-59.8	3.8	8.47e-01	0	36	104	0	67	14100
2026-01-26 00:26:46.37	29.28	5.85	-47.7	-59.7	3.8	8.48e-01	0	36	104	0	67	14040
2026-01-26 00:26:49.35	29.53	6.03	-47.7	-59.7	3.8	8.47e-01	0	36	104	0	67	13980
2026-01-26 00:26:52.33	29.78	6.22	-47.7	-59.7	3.8	8.46e-01	0	37	104	0	67	13924
2026-01-26 00:26:55.31	30.03	6.41	-47.7	-59.7	3.8	8.47e-01	0	36	104	0	67	13951
2026-01-26 00:26:58.29	30.29	6.60	-47.7	-59.7	3.8	8.46e-01	0	37	104	0	67	14044
2026-01-26 00:27:01.27	30.55	6.79	-47.7	-59.7	3.8	8.46e-01	0	37	104	0	67	13946
2026-01-26 00:27:04.25	30.82	6.98	-47.7	-59.5	3.8	8.47e-01	0	37	104	0	67	13707
2026-01-26 00:27:07.23	31.08	7.17	-47.7	-59.6	3.8	8.47e-01	0	37	104	0	67	13797
2026-01-26 00:27:10.21	31.35	7.36	-47.7	-59.6	3.8	8.46e-01	0	37	104	0	67	13852
2026-01-26 00:27:13.19	31.63	7.55	-47.6	-59.2	3.8	8.46e-01	0	37	104	0	67	13187
2026-01-26 00:27:16.17	31.90	7.75	-47.6	-59.5	3.8	8.47e-01	0	37	104	0	67	13573
2026-01-26 00:27:19.15	32.19	7.94	-47.7	-59.8	3.8	8.45e-01	0	37	104	0	67	14126
2026-01-26 00:27:22.13	32.47	8.14	-47.7	-59.7	3.8	8.47e-01	0	37	104	0	67	14021
2026-01-26 00:27:25.11	32.76	8.34	-47.7	-59.6	3.8	8.48e-01	0	37	104	0	67	13840
2026-01-26 00:27:28.09	33.05	8.53	-47.6	-59.3	3.8	8.47e-01	0	37	104	0	67	13316
2026-01-26 00:27:31.07	33.35	8.73	-47.5	-58.2	3.8	8.46e-01	0	37	104	0	67	11769
2026-01-26 00:27:34.05	33.65	8.93	-45.9	-51.3	7.3	2.82e-01	0	37	0	3145728	63	6722
2026-01-26 00:27:37.02	33.95	9.13	-42.4	-45.2	13.6	2.74e-05	0	37	0	19922944	56	4964
2026-01-26 00:27:40.01	34.26	9.33	-45.5	-50.4	8.4	2.60e-02	0	37	0	35651584	61	6762
2026-01-26 00:27:42.99	34.57	9.54	-37.6	-39.6	19.0	0.00e+00	0	38	0	52428800	47	4359
2026-01-26 00:27:45.98	34.88	9.74	-37.3	-39.2	19.4	0.00e+00	0	37	0	69206016	46	4431
2026-01-26 00:27:48.97	35.21	9.95	-37.2	-39.1	19.5	0.00e+00	0	38	0	85983232	46	4370
2026-01-26 00:27:51.96	35.53	10.15	-36.9	-38.8	19.8	0.00e+00	0	38	0	102760448	45	4453
2026-01-26 00:27:54.94	35.86	10.36	-36.8	-38.7	20.0	0.00e+00	0	37	0	119537664	45	4402
2026-01-26 00:27:57.93	36.19	10.57	-36.9	-38.8	19.9	0.00e+00	0	37	0	136314880	45	4442
2026-01-26 00:28:00.85	36.53	10.77	-37.0	-38.9	19.7	0.00e+00	0	37	0	153092096	45	4531
2026-01-26 00:28:03.98	36.89	10.99	-36.8	-38.6	20.0	0.00e+00	0	38	0	169869312	45	4373
2026-01-26 00:28:06.82	37.22	11.19	-36.6	-38.5	20.2	0.00e+00	0	37	0	186646528	45	4306
2026-01-26 00:28:09.98	37.59	11.42	-36.6	-38.5	20.2	0.00e+00	0	38	0	204472320	45	4300
2026-01-26 00:28:12.82	37.93	11.62	-36.5	-38.3	20.3	0.00e+00	0	38	0	220200960	45	4234
2026-01-26 00:28:15.95	38.31	11.84	-36.6	-38.4	20.2	0.00e+00	0	38	0	238026752	45	4273
2026-01-26 00:28:18.80	38.66	12.05	-36.6	-38.4	20.3	0.00e+00	0	38	0	253755392	45	4248
2026-01-26 00:28:21.92	39.05	12.27	-36.5	-38.3	20.3	0.00e+00	0	38	0	271581184	45	4220
2026-01-26 00:28:24.76	39.41	12.48	-36.5	-38.3	20.4	0.00e+00	0	38	0	287309824	44	4456
2026-01-26 00:28:27.84	39.81	12.70	-36.5	-38.3	20.4	0.00e+00	0	38	0	304087040	44	4484
2026-01-26 00:28:30.83	40.20	12.92	-36.5	-38.3	20.4	0.00e+00	0	38	0	320864256	44	4480
2026-01-26 00:28:33.81	40.59	13.13	-36.3	-38.0	20.6	0.00e+00	0	38	0	338690048	44	4340
2026-01-26 00:28:36.84	41.00	13.36	-36.2	-38.0	20.7	0.00e+00	0	38	0	355467264	44	4333
2026-01-26 00:28:39.81	41.40	13.58	-36.4	-38.2	20.6	0.00e+00	0	38	0	372244480	44	4409
2026-01-26 00:28:42.80	41.82	13.80	-36.1	-37.9	20.8	0.00e+00	0	38	0	389021696	44	4280
2026-01-26 00:28:45.78	42.24	14.02	-35.6	-37.4	21.1	0.00e+00	0	38	0	405798912	43	4268
2026-01-26 00:28:48.77	42.66	14.24	-35.4	-37.2	21.4	0.00e+00	0	38	0	422576128	42	4396
2026-01-26 00:28:51.75	43.09	14.46	-35.4	-37.1	21.4	0.00e+00	0	38	0	439353344	42	4388
2026-01-26 00:28:54.74	43.53	14.68	-35.5	-37.2	21.3	0.00e+00	0	38	0	456130560	42	4435
2026-01-26 00:28:57.79	43.98	14.91	-35.4	-37.1	21.4	0.00e+00	0	38	0	472907776	42	4379
2026-01-26 00:29:01.10	44.48	15.16	-35.5	-37.2	21.4	0.00e+00	0	38	0	491782144	42	4410
2026-01-26 00:29:03.80	44.90	15.36	-35.6	-37.4	21.2	0.00e+00	0	38	0	506462208	42	4514
2026-01-26 00:29:07.10	45.41	15.61	-35.8	-37.5	21.0	0.00e+00	0	38	0	525336576	42	4587
2026-01-26 00:29:10.01	45.87	15.83	-35.3	-37.0	21.5	0.00e+00	0	38	0	542113792	42	4340
2026-01-26 00:29:12.99	46.34	16.06	-35.3	-37.0	21.5	0.00e+00	0	38	0	558891008	42	4305
2026-01-26 00:29:15.98	46.83	16.28	-35.3	-37.1	21.5	0.00e+00	0	38	0	575668224	42	4353
2026-01-26 00:29:18.96	47.32	16.51	-35.2	-36.9	21.7	0.00e+00	0	38	0	592445440	42	4259
2026-01-26 00:29:21.94	47.82	16.73	-35.1	-36.8	21.7	0.00e+00	0	38	0	609222656	42	4213
2026-01-26 00:29:24.92	48.33	16.96	-35.1	-36.7	21.8	0.00e+00	0	38	0	625999872	41	4441
2026-01-26 00:29:27.93	48.84	17.18	-35.0	-36.7	21.8	0.00e+00	0	38	0	642777088	41	4409
2026-01-26 00:29:30.94	49.37	17.41	-34.9	-36.6	21.9	0.00e+00	0	38	0	659554304	41	4362
2026-01-26 00:29:33.93	49.90	17.64	-35.0	-36.7	21.8	0.00e+00	0	38	0	676331520	41	4419
2026-01-26 00:29:36.91	50.44	17.86	-34.9	-36.6	21.9	0.00e+00	0	38	0	693108736	41	4377
2026-01-26 00:29:39.90	50.98	18.09	-34.7	-36.4	22.2	0.00e+00	0	38	0	709885952	41	4258
2026-01-26 00:29:42.96	51.55	18.32	-34.8	-36.5	22.0	0.00e+00	0	38	0	727711744	41	4306
2026-01-26 00:29:45.95	52.11	18.54	-34.8	-36.5	22.1	0.00e+00	0	38	0	743440384	41	4292
2026-01-26 00:29:48.93	52.68	18.76	-34.6	-36.2	22.3	0.00e+00	0	38	0	760217600	41	4191
2026-01-26 00:29:51.91	53.26	18.99	-34.5	-36.1	22.4	0.00e+00	0	38	0	778043392	40	4384
2026-01-26 00:29:54.90	53.84	19.21	-34.5	-36.2	22.4	0.00e+00	0	38	0	793772032	40	4400
2026-01-26 00:29:57.93	54.45	19.43	-34.5	-36.2	22.4	0.00e+00	0	38	0	811597824	40	4406
2026-01-26 00:30:00.85	55.04	19.65	-34.5	-36.2	22.3	0.00e+00	0	38	0	827326464	40	4420
2026-01-26 00:30:03.98	55.68	19.88	-34.5	-36.2	22.4	0.00e+00	0	38	0	845152256	40	4423
2026-01-26 00:30:06.82	56.27	20.08	-34.6	-36.3	22.2	0.00e+00	0	38	0	860880896	40	4480
2026-01-26 00:30:09.95	56.93	20.31	-34.3	-36.0	22.5	0.00e+00	0	38	0	878706688	40	4331
2026-01-26 00:30:12.83	57.54	20.51	-34.4	-36.1	22.4	0.00e+00	0	38	0	895483904	40	4358
2026-01-26 00:30:15.95	58.22	20.74	-34.4	-36.1	22.5	0.00e+00	0	38	0	912261120	40	4342
2026-01-26 00:30:18.80	58.84	20.94	-34.1	-35.8	22.7	0.00e+00	0	38	0	929038336	40	4220
2026-01-26 00:30:21.93	59.54	21.16	-34.3	-36.0	22.0	0.00e+00	0	38	0	945815552	39	4598
2026-01-26 00:30:24.77	60.18	21.35	-34.2	-36.0	22.0	0.00e+00	0	38	0	962592768	39	4587
2026-01-26 00:30:27.91	60.89	21.57	-33.9	-35.6	22.4	0.00e+00	0	38	0	980418560	39	4382
2026-01-26 00:30:30.76	61.55	21.76	-33.8	-35.5	22.5	0.00e+00	0	38	0	996147200	39	4333
2026-01-26 00:30:33.89	62.29	21.97	-34.1	-35.9	22.1	0.00e+00	0	38	0	1013972992	39	4533
2026-01-26 00:30:36.73	62.96	22.15	-34.0	-35.8	22.3	0.00e+00	0	38	0	1029701632	39	4453
2026-01-26 00:30:39.95	63.73	22.36	-33.8	-35.6	22.4	0.00e+00	0	38	0	1047527424	39	4359
2026-01-26 00:30:42.87	64.44	22.55	-33.8	-35.5	22.5	0.00e+00	0	38	0	1064304640	39	4328
2026-01-26 00:30:46.11	65.24	22.75	-33.8	-35.6	22.5	0.00e+00	0	38	0	1082130432	39	4341
2026-01-26 00:30:49.06	65.97	22.93	-33.7	-35.5	22.5	0.00e+00	0	38	0	1098907648	39	4301
2026-01-26 00:30:52.28	66.79	23.12	-33.8	-35.6	22.5	0.00e+00	0	38	0	1116733440	39	4342
2026-01-26 00:30:55.12	67.51	23.29	-33.6	-35.3	22.6	0.00e+00	0	38	0	1133510656	39	4228
2026-01-26 00:30:58.38	68.35	23.48	-33.7	-35.4	22.6	0.00e+00	0	38	0	1151336448	39	4281
2026-01-26 00:31:01.30	69.11	23.64	-33.5	-35.2	22.8	0.00e+00	0	38	0	1168113664	39	4170
2026-01-26 00:31:04.49	69.95	23.81	-33.6	-35.3	22.7	0.00e+00	0	38	0	1185939456	38	4479
2026-01-26 00:31:07.40	70.73	23.97	-33.5	-35.2	22.8	0.00e+00	0	38	0	1201668096	38	4425
2026-01-26 00:31:10.38	71.53	24.12	-33.4	-35.1	22.9	0.00e+00	0	38	0	1218445312	38	4370
2026-01-26 00:31:13.36	72.34	24.27	-33.4	-35.2	22.8	0.00e+00	0	38	0	1235222528	38	4404
2026-01-26 00:31:16.34	73.15	24.41	-33.3	-35.1	22.9	0.00e+00	0	38	0	1251999744	38	4344
2026-01-26 00:31:19.45	74.01	24.55	-33.2	-34.9	23.0	0.00e+00	0	38	0	1269825536	38	4260
2026-01-26 00:31:22.30	74.81	24.68	-33.2	-34.9	23.0	0.00e+00	0	38	0	1285554176	38	4262
2026-01-26 00:31:25.42	75.68	24.81	-33.2	-34.9	23.1	0.00e+00	0	38	0	1303379968	38	4266
2026-01-26 00:31:28.27	76.49	24.92	-33.4	-35.1	22.8	0.00e+00	0	38	0	1319108608	38	4372
2026-01-26 00:31:31.39	77.38	25.04	-33.1	-34.9	23.1	0.00e+00	0	38	0	1336934400	38	4246
2026-01-26 00:31:34.30	78.22	25.15	-33.2	-34.9	23.0	0.00e+00	0	38	0	1353711616	38	4262
2026-01-26 00:31:37.75	79.21	25.27	-33.0	-34.7	23.2	0.00e+00	0	38	0	1372585984	38	4160
2026-01-26 00:31:40.47	80.01	25.35	-33.2	-34.9	23.1	0.00e+00	0	38	0	1388314624	38	4266
2026-01-26 00:31:43.75	80.97	25.45	-33.1	-34.8	23.1	0.00e+00	0	38	0	1406140416	38	4214
2026-01-26 00:31:46.52	81.78	25.53	-33.1	-34.9	23.0	0.00e+00	0	38	0	1421869056	38	4252
2026-01-26 00:31:49.83	82.76	25.61	-33.2	-34.9	23.0	0.00e+00	0	38	0	1440743424	38	4277
2026-01-26 00:31:52.68	83.61	25.67	-33.0	-34.7	23.2	0.00e+00	0	38	0	1456472064	38	4193
2026-01-26 00:31:56.11	84.63	25.74	-33.4	-35.1	22.8	0.00e+00	0	38	0	1476395008	38	4380
2026-01-26 00:31:58.87	85.46	25.79	-33.3	-35.0	22.9	0.00e+00	0	38	0	1492123648	38	4336
2026-01-26 00:32:02.15	86.44	25.84	-33.2	-34.9	23.0	0.00e+00	0	38	0	1509949440	38	4274
2026-01-26 00:32:05.07	87.32	25.88	-33.2	-34.9	23.0	0.00e+00	0	38	0	1526726656	38	4276
2026-01-26 00:32:08.48	88.35	25.91	-33.1	-34.8	23.1	0.00e+00	0	38	0	1545601024	38	4210
2026-01-26 00:32:11.40	89.24	25.93	-33.2	-34.9	23.0	0.00e+00	0	38	0	1562378240	38	4267
2026-01-26 00:32:15.38	90.44	25.95	-33.1	-34.8	23.0	0.00e+00	0	38	0	1584398336	38	4233
2026-01-26 00:32:18.33	91.34	25.96	-33.2	-34.9	23.0	0.00e+00	0	38	0	1601175552	38	4268
2026-01-26 00:32:21.76	92.38	25.95	-33.1	-34.8	23.1	0.00e+00	0	38	0	1620049920	38	4215
2026-01-26 00:32:24.79	93.30	25.94	-33.0	-34.7	23.2	0.00e+00	0	38	0	1636827136	38	4193
2026-01-26 00:32:28.01	94.27	25.92	-33.0	-34.7	23.2	0.00e+00	0	38	0	1655701504	37	4434
2026-01-26 00:32:30.86	95.14	25.90	-33.2	-34.9	23.0	0.00e+00	0	38	0	1671430144	37	4534
2026-01-26 00:32:33.99	96.08	25.86	-33.1	-34.8	23.0	0.00e+00	0	38	0	1689255936	37	4489
2026-01-26 00:32:36.83	96.94	25.82	-33.3	-35.0	22.9	0.00e+00	0	38	0	1704984576	37	4557
2026-01-26 00:32:39.98	97.88	25.77	-33.3	-35.0	22.9	0.00e+00	0	38	0	1722810368	37	4567
2026-01-26 00:32:42.82	98.73	25.72	-33.2	-35.0	23.0	0.00e+00	0	38	0	1738539008	37	4546
2026-01-26 00:32:45.95	99.67	25.65	-33.1	-34.8	23.1	0.00e+00	0	38	0	1756364800	37	4479
2026-01-26 00:32:48.79	100.51	25.58	-33.2	-34.9	23.0	0.00e+00	0	38	0	1772093440	37	4512
2026-01-26 00:32:51.91	101.44	25.50	-33.4	-35.2	22.7	0.00e+00	0	38	0	1789919232	37	4674
2026-01-26 00:32:54.85	102.30	25.42	-33.4	-35.1	22.8	0.00e+00	0	38	0	1806696448	37	4631
2026-01-26 00:32:57.99	103.22	25.33	-33.2	-34.8	23.0	0.00e+00	0	38	0	1824522240	37	4493
2026-01-26 00:33:00.83	104.05	25.23	-33.4	-35.2	22.7	0.00e+00	0	38	0	1840250880	37	4667
2026-01-26 00:33:03.96	104.95	25.13	-33.3	-35.1	22.8	0.00e+00	0	38	0	1858076672	37	4602
2026-01-26 00:33:06.81	105.77	25.02	-33.3	-35.1	22.8	0.00e+00	0	38	0	1873805312	37	4606
2026-01-26 00:33:09.98	106.68	24.90	-33.1	-34.9	23.0	0.00e+00	0	38	0	1891631104	37	4502
2026-01-26 00:33:12.82	107.48	24.78	-33.2	-34.9	23.0	0.00e+00	0	38	0	1907359744	37	4500
2026-01-26 00:33:16.02	108.38	24.64	-33.4	-35.1	22.8	0.00e+00	0	38	0	1925185536	37	4625
2026-01-26 00:33:18.87	109.18	24.52	-33.6	-35.3	22.6	0.00e+00	0	38	0	1941962752	37	4754
2026-01-26 00:33:22.00	110.04	24.37	-33.5	-35.3	22.6	0.00e+00	0	38	0	1958739968	37	4706
2026-01-26 00:33:24.84	110.82	24.23	-33.5	-35.2	22.7	0.00e+00	0	38	0	1975517184	37	4702
2026-01-26 00:33:27.96	111.67	24.08	-33.7	-35.4	22.5	0.00e+00	0	38	0	1992294400	38	4526
2026-01-26 00:33:31.25	112.55	23.90	-33.5	-35.3	22.7	0.00e+00	0	38	0	2011168768	38	4444
2026-01-26 00:33:34.10	113.31	23.75	-33.7	-35.5	22.5	0.00e+00	0	38	0	2026897408	38	4563
2026-01-26 00:33:37.22	114.13	23.58	-33.6	-35.3	22.6	0.00e+00	0	38	0	2044723200	38	4493
2026-01-26 00:33:40.06	114.87	23.42	-33.8	-35.6	22.4	0.00e+00	0	38	0	2060451840	38	4616
2026-01-26 00:33:43.41	115.74	23.23	-34.0	-35.7	22.2	0.00e+00	0	38	0	2079326208	38	4693
2026-01-26 00:33:46.17	116.44	23.06	-33.8	-35.5	22.4	0.00e+00	0	38	0	2095054848	38	4591
2026-01-26 00:33:49.91	117.38	22.83	-33.6	-35.4	22.6	0.00e+00	0	38	0	2116026368	38	4506
2026-01-26 00:33:52.62	118.06	22.67	-33.8	-35.6	22.4	0.00e+00	0	38	0	2131755008	38	4634
2026-01-26 00:33:55.90	118.86	22.46	-34.0	-35.8	22.1	0.00e+00	0	38	0	2149580800	38	4749
2026-01-26 00:33:58.60	119.52	22.28	-34.1	-35.9	22.1	0.00e+00	0	38	0	2165309440	38	4784
2026-01-26 00:34:02.19	120.38	22.05	-34.0	-35.8	22.1	0.00e+00	0	38	0	2185232384	38	4736
2026-01-26 00:34:05.02	121.05	21.86	-34.0	-35.8	22.2	0.00e+00	0	38	0	2200961024	38	4738
2026-01-26 00:34:09.00	121.98	21.59	-34.0	-35.8	22.2	0.00e+00	0	38	0	2222981120	38	4712
2026-01-26 00:34:11.84	122.63	21.40	-34.0	-35.7	22.3	0.00e+00	0	38	0	2239758336	38	4694
2026-01-26 00:34:15.82	123.53	21.12	-34.2	-36.0	22.0	0.00e+00	0	38	0	2261778432	39	4556
2026-01-26 00:34:18.64	124.16	20.92	-34.3	-36.1	21.9	0.00e+00	0	38	0	2277507072	39	4614
2026-01-26 00:34:22.66	125.05	20.64	-34.4	-36.2	21.7	0.00e+00	0	38	0	2300575744	39	4703
2026-01-26 00:34:25.50	125.66	20.43	-34.5	-36.3	21.7	0.00e+00	0	38	0	2316304384	39	4728
2026-01-26 00:34:29.48	126.51	20.14	-34.7	-36.6	21.4	0.00e+00	0	38	0	2338324480	40	4601
2026-01-26 00:34:32.41	127.12	19.93	-34.3	-36.1	21.8	0.00e+00	0	38	0	2355101696	40	4382
2026-01-26 00:34:35.89	127.84	19.67	-34.2	-35.9	22.0	0.00e+00	0	38	0	2375024640	40	4276
2026-01-26 00:34:38.84	128.44	19.45	-34.4	-36.2	21.8	0.00e+00	0	38	0	2391801856	40	4392
2026-01-26 00:34:42.11	129.10	19.21	-34.8	-36.6	21.3	0.00e+00	0	38	0	2409627648	40	4651
2026-01-26 00:34:44.82	129.63	19.01	-34.7	-36.5	21.4	0.00e+00	0	38	0	2425356288	40	4589
2026-01-26 00:34:48.08	130.27	18.76	-34.8	-36.6	21.4	0.00e+00	0	38	0	2443182080	40	4615
2026-01-26 00:34:50.79	130.79	18.56	-34.9	-36.7	21.2	0.00e+00	0	38	0	2458910720	40	4701
2026-01-26 00:34:54.28	131.45	18.30	-34.9	-36.8	21.2	0.00e+00	0	38	0	2477785088	40	4709
2026-01-26 00:34:56.99	131.96	18.09	-35.0	-36.9	21.1	0.00e+00	0	38	0	2493513728	40	4761
2026-01-26 00:35:00.27	132.56	17.84	-35.2	-37.0	21.0	0.00e+00	0	38	0	2512388096	40	4853
2026-01-26 00:35:02.97	133.05	17.64	-35.1	-37.0	21.0	0.00e+00	0	38	0	2527068160	41	4553
2026-01-26 00:35:06.23	133.63	17.39	-35.2	-37.1	20.9	0.00e+00	0	38	0	2545942528	41	4600
2026-01-26 00:35:09.23	134.16	17.16	-35.2	-37.0	21.0	0.00e+00	0	38	0	2562719744	41	4585
2026-01-26 00:35:12.50	134.72	16.91	-35.2	-37.0	21.0	0.00e+00	0	38	0	2580545536	41	4575
2026-01-26 00:35:15.21	135.18	16.70	-35.2	-37.1	20.9	0.00e+00	0	38	0	2596274176	41	4600
2026-01-26 00:35:18.51	135.74	16.45	-35.4	-37.3	20.8	0.00e+00	0	38	0	2615148544	41	4710
2026-01-26 00:35:21.21	136.18	16.25	-35.4	-37.2	20.8	0.00e+00	0	38	0	2629828608	41	4694
2026-01-26 00:35:24.62	136.74	15.99	-35.2	-37.1	21.0	0.00e+00	0	38	0	2648702976	41	4601
2026-01-26 00:35:27.39	137.18	15.78	-35.3	-37.1	20.9	0.00e+00	0	38	0	2664431616	41	4650
2026-01-26 00:35:30.74	137.71	15.52	-35.5	-37.3	20.8	0.00e+00	0	38	0	2683305984	41	4751
2026-01-26 00:35:33.45	138.14	15.31	-35.4	-37.3	20.8	0.00e+00	0	38	0	2697986048	41	4722
2026-01-26 00:35:36.73	138.64	15.07	-35.6	-37.4	20.6	0.00e+00	0	38	0	2716860416	41	4811
2026-01-26 00:35:39.50	139.06	14.86	-35.8	-37.7	20.4	0.00e+00	0	38	0	2732589056	42	4660
2026-01-26 00:35:42.78	139.55	14.61	-35.7	-37.6	20.5	0.00e+00	0	38	0	2751463424	42	4601
2026-01-26 00:35:45.67	139.97	14.39	-35.9	-37.7	20.3	0.00e+00	0	38	0	2767192064	42	4702
2026-01-26 00:35:49.08	140.46	14.14	-36.0	-37.9	20.2	0.00e+00	0	38	0	2786066432	42	4771
2026-01-26 00:35:52.21	140.91	13.90	-36.1	-38.0	20.2	0.00e+00	0	38	0	2803892224	42	4824
2026-01-26 00:35:55.07	141.31	13.69	-36.2	-38.1	20.0	0.00e+00	0	38	0	2820669440	43	4639
2026-01-26 00:35:58.35	141.76	13.44	-36.2	-38.1	20.0	0.00e+00	0	38	0	2838495232	43	4634
2026-01-26 00:36:01.24	142.15	13.23	-36.1	-38.1	20.1	0.00e+00	0	38	0	2855272448	43	4608
2026-01-26 00:36:05.12	142.67	12.94	-36.2	-38.1	20.1	0.00e+00	0	38	0	2877292544	43	4602
2026-01-26 00:36:07.85	143.03	12.74	-36.0	-37.8	20.2	0.00e+00	0	38	0	2891972608	43	4492
2026-01-26 00:36:11.18	143.47	12.50	-36.2	-38.1	20.0	0.00e+00	0	38	0	2910846976	43	4610
2026-01-26 00:36:14.05	143.83	12.29	-36.3	-38.2	19.9	0.00e+00	0	38	0	2926575616	43	4676
2026-01-26 00:36:17.17	144.22	12.06	-36.5	-38.4	19.7	0.00e+00	0	38	0	2944401408	43	4786
2026-01-26 00:36:20.41	144.63	11.82	-36.2	-38.1	19.9	0.00e+00	0	38	0	2963275776	43	4644
2026-01-26 00:36:23.26	144.98	11.62	-36.5	-38.4	19.7	0.00e+00	0	38	0	2979004416	43	4773
2026-01-26 00:36:26.39	145.35	11.39	-36.5	-38.5	19.6	0.00e+00	0	38	0	2995781632	43	4822
2026-01-26 00:36:29.23	145.69	11.19	-36.7	-38.7	19.4	0.00e+00	0	38	0	3012558848	43	4947
2026-01-26 00:36:32.35	146.06	10.97	-37.1	-39.1	19.2	0.00e+00	0	38	0	3029336064	44	4889
2026-01-26 00:36:35.20	146.38	10.77	-37.0	-39.0	19.3	0.00e+00	0	38	0	3046113280	44	4820
2026-01-26 00:36:38.32	146.74	10.54	-37.0	-39.0	19.3	0.00e+00	0	38	0	3063939072	44	4820
2026-01-26 00:36:41.17	147.06	10.34	-37.1	-39.1	19.1	0.00e+00	0	38	0	3079667712	44	4883
2026-01-26 00:36:44.33	147.41	10.12	-37.3	-39.4	18.9	0.00e+00	0	38	0	3097493504	45	4777
2026-01-26 00:36:47.28	147.73	9.92	-37.4	-39.5	18.7	0.00e+00	0	38	0	3114270720	45	4823
2026-01-26 00:36:50.53	148.08	9.69	-37.5	-39.5	18.7	0.00e+00	0	38	0	3132096512	45	4856
2026-01-26 00:36:53.37	148.39	9.50	-37.6	-39.7	18.5	0.00e+00	0	38	0	3147825152	45	4933
2026-01-26 00:36:56.66	148.73	9.27	-37.6	-39.6	18.5	0.00e+00	0	38	0	3166699520	46	4651
2026-01-26 00:36:59.36	149.01	9.08	-37.7	-39.8	18.4	0.00e+00	0	38	0	3182428160	46	4721
2026-01-26 00:37:02.63	149.34	8.86	-47.9	-59.9	3.8	8.46e-01	0	38	104	3190816768	66	15161
2026-01-26 00:37:05.34	149.61	8.68	-48.2	-60.4	3.8	8.47e-01	0	38	104	3190816768	67	15213
2026-01-26 00:37:08.64	149.94	8.46	-48.3	-60.5	3.8	8.47e-01	0	38	104	3190816768	67	15392
2026-01-26 00:37:11.41	150.21	8.27	-48.5	-60.6	3.8	8.47e-01	0	38	104	3190816768	67	15518
2026-01-26 00:37:14.77	150.54	8.04	-48.4	-60.7	3.8	8.46e-01	0	38	104	3190816768	67	15648
2026-01-26 00:37:17.56	150.80	7.86	-48.4	-60.7	3.8	8.47e-01	0	39	104	3190816768	67	15657
2026-01-26 00:37:20.83	151.11	7.64	-48.4	-60.9	3.8	8.46e-01	0	38	104	3190816768	68	15108
2026-01-26 00:37:23.52	151.36	7.47	-48.5	-60.8	3.8	8.46e-01	0	38	104	3190816768	68	15039
2026-01-26 00:37:26.79	151.66	7.25	-48.5	-60.8	3.8	8.46e-01	0	38	104	3190816768	68	15013
2026-01-26 00:37:29.50	151.91	7.08	-48.5	-60.8	3.8	8.46e-01	0	38	104	3190816768	68	14948
2026-01-26 00:37:32.76	152.20	6.86	-48.5	-60.8	3.8	8.47e-01	0	38	104	3190816768	68	14933
2026-01-26 00:37:35.47	152.44	6.69	-48.5	-60.8	3.8	8.45e-01	0	38	104	3190816768	68	14932
2026-01-26 00:37:38.74	152.72	6.48	-48.5	-60.8	3.8	8.47e-01	0	38	104	3190816768	68	14913
2026-01-26 00:37:41.43	152.95	6.31	-48.5	-60.8	3.8	8.48e-01	0	38	104	3190816768	68	14918
2026-01-26 00:37:44.70	153.23	6.10	-48.4	-60.8	3.8	8.47e-01	0	38	104	3190816768	68	14890
2026-01-26 00:37:47.39	153.46	5.93	-48.4	-60.7	3.8	8.46e-01	0	38	104	3190816768	68	14859
2026-01-26 00:37:50.65	153.73	5.72	-48.4	-60.8	3.8	8.48e-01	0	38	104	3190816768	68	14896
2026-01-26 00:37:53.35	153.95	5.55	-48.4	-60.8	3.8	8.47e-01	0	38	104	3190816768	68	14882
2026-01-26 00:37:56.61	154.21	5.35	-48.4	-60.7	3.8	8.46e-01	0	38	104	3190816768	68	14836
2026-01-26 00:37:59.31	154.43	5.18	-48.4	-60.7	3.8	8.47e-01	0	38	104	3190816768	68	14827
2026-01-26 00:38:02.59	154.68	4.98	-48.4	-60.7	3.8	8.47e-01	0	38	104	3190816768	68	14836

#Closed at: 2026-01-26 00:38:03
#Recorded file [3190 MB]: D:/Data/31040_260126_032634.dat