passes_logs/2026/01/26/T1/T1__20260126_233048_NOAA_20_JPSS-1_rec.log

#Pass ID: 20260126_233048_NOAA 20 (JPSS-1)
#Satellite: NOAA 20 (JPSS-1)
#Configuration: NOAA 20
#almurnet v.1.7.20251203
#Start time: 2026-01-26 23:30:47

#Version: 2.0.20230620
#Station: T1
#Location: 37.570604 lon 55.790049 lat
#TLE: 1 43013U 17073A   26026.46665230  .00000148  00000+0  91302-4 0  9998
#TLE: 2 43013  98.7646 327.2856 0001008  22.9532 337.1688 14.19540616424360

#Time	Az	El	Level	Level2	SNR	BER	BlckErr	Temp	State	Recorded	gain1	gain2
2026-01-26 23:30:47.77	17.57	4.96	-47.9	-64.3	3.8	1.49e+00	0	41	0	0	66	25240
2026-01-26 23:30:50.75	17.61	5.17	-47.8	-64.2	3.8	1.49e+00	0	41	104	0	66	24786
2026-01-26 23:30:53.73	17.65	5.38	-47.8	-64.1	3.8	1.49e+00	0	41	104	0	66	24572
2026-01-26 23:30:56.71	17.69	5.60	-47.8	-64.0	3.8	1.49e+00	0	41	104	0	66	24341
2026-01-26 23:30:59.69	17.73	5.81	-47.8	-64.1	3.8	1.49e+00	0	41	104	0	66	24550
2026-01-26 23:31:02.67	17.78	6.03	-47.8	-64.2	3.8	1.49e+00	0	42	104	0	66	24735
2026-01-26 23:31:05.65	17.82	6.25	-47.8	-64.2	3.8	1.49e+00	0	42	104	0	66	24881
2026-01-26 23:31:08.63	17.86	6.47	-47.8	-64.1	3.8	1.49e+00	0	41	104	0	66	24673
2026-01-26 23:31:11.61	17.91	6.70	-47.8	-63.9	3.8	1.49e+00	0	42	104	0	66	23874
2026-01-26 23:31:14.59	17.95	6.92	-47.7	-63.1	3.8	1.49e+00	0	42	104	0	66	21932
2026-01-26 23:31:17.57	18.00	7.15	-47.7	-62.3	3.8	1.49e+00	0	42	104	0	66	19895
2026-01-26 23:31:20.55	18.04	7.38	-47.7	-61.4	4.0	1.47e+00	0	42	104	0	66	18080
2026-01-26 23:31:23.53	18.09	7.61	-47.6	-61.0	4.1	1.42e+00	0	42	0	0	66	17149
2026-01-26 23:31:26.52	18.13	7.85	-47.6	-60.5	4.3	1.37e+00	0	42	0	0	66	16178
2026-01-26 23:31:29.50	18.18	8.09	-47.5	-59.3	4.7	9.79e-01	0	42	0	4194304	66	14204
2026-01-26 23:31:32.47	18.23	8.32	-47.3	-57.5	5.7	4.54e-01	0	43	0	9437184	66	11510
2026-01-26 23:31:35.45	18.28	8.56	-46.9	-55.1	7.8	9.54e-02	0	42	0	14680064	65	9242
2026-01-26 23:31:38.43	18.32	8.81	-46.4	-53.1	9.9	1.65e-02	0	43	0	20971520	64	7801
2026-01-26 23:31:41.41	18.37	9.05	-46.2	-52.6	10.5	3.33e-03	0	42	0	26214400	64	7291
2026-01-26 23:31:44.40	18.42	9.30	-44.4	-48.2	15.2	0.00e+00	0	42	0	31457280	60	5531
2026-01-26 23:31:47.38	18.47	9.55	-44.0	-47.4	15.9	0.00e+00	0	42	0	37748736	59	5341
2026-01-26 23:31:50.37	18.53	9.81	-44.0	-47.4	15.8	0.00e+00	0	42	0	42991616	59	5348
2026-01-26 23:31:53.48	18.58	10.07	-43.6	-46.8	16.4	0.00e+00	0	43	0	49283072	59	5003
2026-01-26 23:31:56.40	18.63	10.33	-43.5	-46.6	16.7	0.00e+00	0	43	0	54525952	59	4873
2026-01-26 23:31:59.67	18.69	10.61	-43.1	-46.0	17.3	0.00e+00	0	43	0	60817408	58	4815
2026-01-26 23:32:02.39	18.74	10.86	-42.9	-45.8	17.5	0.00e+00	0	43	0	66060288	57	4988
2026-01-26 23:32:05.66	18.80	11.15	-42.9	-45.6	17.6	0.00e+00	0	43	0	71303168	57	4891
2026-01-26 23:32:08.36	18.85	11.39	-42.8	-45.5	17.8	0.00e+00	0	43	0	76546048	57	4817
2026-01-26 23:32:11.63	18.91	11.69	-42.8	-45.5	17.8	0.00e+00	0	43	0	82837504	57	4821
2026-01-26 23:32:14.70	18.97	11.98	-42.6	-45.2	18.1	0.00e+00	0	43	0	89128960	57	4674
2026-01-26 23:32:17.76	19.03	12.27	-42.5	-45.2	18.1	0.00e+00	0	43	0	94371840	57	4666
2026-01-26 23:32:20.61	19.09	12.54	-42.5	-45.2	18.2	0.00e+00	0	43	0	99614720	56	4933
2026-01-26 23:32:23.73	19.15	12.84	-42.3	-44.9	18.4	0.00e+00	0	43	0	105906176	56	4810
2026-01-26 23:32:26.57	19.21	13.11	-42.4	-45.0	18.3	0.00e+00	0	43	0	111149056	56	4851
2026-01-26 23:32:29.70	19.27	13.42	-42.4	-45.0	18.3	0.00e+00	0	43	0	116391936	56	4839
2026-01-26 23:32:32.72	19.34	13.72	-42.3	-44.9	18.5	0.00e+00	0	43	0	122683392	56	4779
2026-01-26 23:32:35.85	19.41	14.04	-42.2	-44.9	18.5	0.00e+00	0	43	0	127926272	56	4775
2026-01-26 23:32:38.69	19.47	14.33	-42.2	-44.9	18.4	0.00e+00	0	43	0	133169152	56	4794
2026-01-26 23:32:41.87	19.54	14.65	-42.3	-45.0	18.4	0.00e+00	0	43	0	139460608	56	4830
2026-01-26 23:32:44.71	19.60	14.95	-42.4	-45.0	18.4	0.00e+00	0	43	0	144703488	56	4855
2026-01-26 23:32:47.84	19.67	15.28	-42.3	-45.0	18.4	0.00e+00	0	43	0	150994944	56	4831
2026-01-26 23:32:50.68	19.74	15.59	-42.5	-45.2	18.2	0.00e+00	0	43	0	156237824	56	4937
2026-01-26 23:32:53.81	19.81	15.93	-42.6	-45.3	18.1	0.00e+00	0	43	0	161480704	56	5025
2026-01-26 23:32:56.65	19.88	16.24	-42.8	-45.4	18.0	0.00e+00	0	43	0	167772160	56	5084
2026-01-26 23:33:00.00	19.97	16.62	-42.8	-45.5	18.0	0.00e+00	0	43	0	174063616	56	5120
2026-01-26 23:33:02.70	20.03	16.92	-42.9	-45.6	17.9	0.00e+00	0	43	0	178257920	56	5186
2026-01-26 23:33:05.97	20.12	17.30	-43.0	-45.7	17.8	0.00e+00	0	43	0	184549376	56	5233
2026-01-26 23:33:08.70	20.19	17.62	-43.2	-45.9	17.6	0.00e+00	0	43	0	189792256	56	5367
2026-01-26 23:33:11.98	20.28	18.01	-43.3	-46.1	17.4	0.00e+00	0	43	0	196083712	57	5165
2026-01-26 23:33:14.69	20.35	18.33	-43.4	-46.3	17.2	0.00e+00	0	43	0	201326592	57	5303
2026-01-26 23:33:18.06	20.44	18.74	-43.5	-46.4	17.1	0.00e+00	0	43	0	207618048	57	5395
2026-01-26 23:33:20.88	20.52	19.09	-43.6	-46.7	16.8	0.00e+00	0	43	0	212860928	57	5547
2026-01-26 23:33:24.29	20.62	19.52	-43.7	-46.7	16.8	0.00e+00	0	43	0	219152384	58	5265
2026-01-26 23:33:26.99	20.70	19.87	-43.6	-46.5	17.1	0.00e+00	0	43	0	224395264	58	5114
2026-01-26 23:33:30.29	20.80	20.30	-43.8	-46.7	16.8	0.00e+00	0	43	0	230686720	58	5261
2026-01-26 23:33:33.02	20.89	20.66	-43.8	-46.6	16.9	0.00e+00	0	43	0	235929600	58	5212
2026-01-26 23:33:36.29	20.99	21.09	-43.8	-46.6	16.9	0.00e+00	0	43	0	241172480	58	5186
2026-01-26 23:33:39.07	21.08	21.47	-43.7	-46.5	17.1	0.00e+00	0	43	0	246415360	58	5126
2026-01-26 23:33:42.35	21.19	21.93	-43.6	-46.4	17.1	0.00e+00	0	43	0	252706816	58	5089
2026-01-26 23:33:45.06	21.28	22.31	-43.7	-46.5	17.0	0.00e+00	0	43	0	257949696	58	5158
2026-01-26 23:33:48.33	21.40	22.77	-43.6	-46.4	17.2	0.00e+00	0	43	0	264241152	58	5046
2026-01-26 23:33:51.27	21.50	23.20	-43.5	-46.2	17.3	0.00e+00	0	43	0	269484032	58	4970
2026-01-26 23:33:54.54	21.62	23.69	-43.1	-45.8	17.7	0.00e+00	0	43	0	275775488	58	4739
2026-01-26 23:33:57.27	21.72	24.10	-43.0	-45.7	17.8	0.00e+00	0	43	0	281018368	58	4689
2026-01-26 23:34:00.74	21.86	24.63	-43.0	-45.6	17.9	0.00e+00	0	43	0	287309824	57	4907
2026-01-26 23:34:03.45	21.97	25.05	-42.9	-45.6	18.0	0.00e+00	0	43	0	292552704	57	4886
2026-01-26 23:34:06.73	22.10	25.57	-43.0	-45.7	17.8	0.00e+00	0	43	0	298844160	57	4971
2026-01-26 23:34:09.48	22.21	26.02	-43.1	-45.9	17.7	0.00e+00	0	43	0	304087040	57	5048
2026-01-26 23:34:12.72	22.35	26.55	-43.5	-46.2	17.4	0.00e+00	0	44	0	310378496	57	5259
2026-01-26 23:34:15.56	22.48	27.03	-43.9	-46.7	16.9	0.00e+00	0	43	0	315621376	58	5265
2026-01-26 23:34:18.69	22.62	27.56	-44.0	-46.9	16.7	0.00e+00	0	43	0	320864256	58	5376
2026-01-26 23:34:21.53	22.76	28.06	-44.4	-47.4	16.2	0.00e+00	0	43	0	326107136	59	5396
2026-01-26 23:34:24.66	22.91	28.61	-44.5	-47.6	16.1	0.00e+00	0	43	0	332398592	59	5476
2026-01-26 23:34:27.50	23.05	29.12	-44.4	-47.4	16.2	0.00e+00	0	43	0	337641472	59	5354
2026-01-26 23:34:30.62	23.21	29.70	-44.2	-47.2	16.4	0.00e+00	0	43	0	343932928	59	5255
2026-01-26 23:34:33.47	23.36	30.23	-44.4	-47.5	16.2	0.00e+00	0	43	0	349175808	59	5409
2026-01-26 23:34:36.61	23.53	30.84	-44.6	-47.7	15.9	0.00e+00	0	43	0	354418688	59	5586
2026-01-26 23:34:39.46	23.70	31.39	-44.7	-47.9	15.8	0.00e+00	0	43	0	359661568	60	5389
2026-01-26 23:34:42.59	23.88	32.02	-44.7	-48.0	15.7	0.00e+00	0	43	0	365953024	60	5432
2026-01-26 23:34:45.67	24.07	32.64	-44.5	-47.8	15.9	0.00e+00	0	43	0	371195904	60	5303
2026-01-26 23:34:48.97	24.28	33.33	-44.3	-47.4	16.4	0.00e+00	0	44	0	377487360	60	5053
2026-01-26 23:34:51.96	24.47	33.96	-43.7	-46.6	16.8	0.00e+00	0	43	0	383778816	59	4884
2026-01-26 23:34:55.25	24.70	34.68	-43.7	-46.6	17.1	0.00e+00	0	43	0	390070272	59	4895
2026-01-26 23:34:57.98	24.89	35.28	-43.4	-46.0	17.6	0.00e+00	0	43	0	395313152	58	4856
2026-01-26 23:35:01.27	25.14	36.02	-43.3	-45.9	17.7	0.00e+00	0	43	0	400556032	58	4812
2026-01-26 23:35:04.32	25.37	36.73	-43.2	-45.8	17.9	0.00e+00	0	44	0	406847488	58	4723
2026-01-26 23:35:07.61	25.63	37.50	-43.5	-46.2	17.5	0.00e+00	0	44	0	413138944	58	4941
2026-01-26 23:35:10.33	25.86	38.16	-43.7	-46.4	17.3	0.00e+00	0	43	0	418381824	58	5045
2026-01-26 23:35:13.61	26.15	38.97	-43.6	-46.3	17.4	0.00e+00	0	44	0	423624704	58	5019
2026-01-26 23:35:16.46	26.41	39.68	-43.6	-46.3	17.4	0.00e+00	0	43	0	429916160	58	4989
2026-01-26 23:35:19.58	26.71	40.48	-43.8	-46.6	17.2	0.00e+00	0	43	0	435159040	58	5160
2026-01-26 23:35:22.43	27.00	41.23	-44.0	-46.8	17.0	0.00e+00	0	43	0	440401920	58	5293
2026-01-26 23:35:25.56	27.32	42.07	-43.6	-46.3	17.4	0.00e+00	0	43	0	446693376	58	5030
2026-01-26 23:35:28.39	27.64	42.84	-43.8	-46.5	17.2	0.00e+00	0	44	0	451936256	58	5138
2026-01-26 23:35:31.52	28.00	43.72	-44.4	-47.3	16.5	0.00e+00	0	43	0	457179136	59	5306
2026-01-26 23:35:34.36	28.34	44.53	-44.5	-47.5	16.2	0.00e+00	0	44	0	463470592	59	5450
2026-01-26 23:35:37.59	28.76	45.47	-44.4	-47.3	16.4	0.00e+00	0	43	0	468713472	59	5304
2026-01-26 23:35:40.44	29.15	46.31	-44.2	-47.0	16.6	0.00e+00	0	43	0	473956352	59	5152
2026-01-26 23:35:43.57	29.60	47.26	-44.5	-47.5	16.2	0.00e+00	0	43	0	480247808	59	5414
2026-01-26 23:35:46.41	30.03	48.14	-44.8	-47.9	15.9	0.00e+00	0	44	0	485490688	60	5388
2026-01-26 23:35:49.53	30.53	49.12	-43.8	-46.6	17.2	0.00e+00	0	43	0	491782144	59	4873
2026-01-26 23:35:52.38	31.02	50.04	-42.8	-45.3	18.4	0.00e+00	0	43	0	497025024	57	4709
2026-01-26 23:35:55.51	31.59	51.06	-41.4	-43.6	19.9	0.00e+00	0	43	0	502267904	54	4600
2026-01-26 23:35:58.41	32.15	52.03	-40.8	-42.8	20.5	0.00e+00	0	43	0	508559360	53	4491
2026-01-26 23:36:01.40	32.78	53.04	-40.4	-42.4	20.9	0.00e+00	0	43	0	513802240	52	4529
2026-01-26 23:36:04.38	33.44	54.07	-40.3	-42.3	21.1	0.00e+00	0	44	0	519045120	52	4460
2026-01-26 23:36:07.39	34.16	55.13	-40.3	-42.3	21.1	0.00e+00	0	43	0	525336576	52	4459
2026-01-26 23:36:10.37	34.92	56.19	-40.6	-42.7	20.7	0.00e+00	0	43	0	530579456	52	4672
2026-01-26 23:36:13.36	35.75	57.27	-41.5	-43.7	19.7	0.00e+00	0	43	0	535822336	53	4977
2026-01-26 23:36:16.34	36.65	58.36	-40.8	-42.8	20.5	0.00e+00	0	43	0	542113792	53	4483
2026-01-26 23:36:19.33	37.62	59.47	-40.6	-42.6	20.7	0.00e+00	0	44	0	547356672	52	4640
2026-01-26 23:36:22.32	38.68	60.60	-40.0	-42.0	21.4	0.00e+00	0	43	0	552599552	51	4569
2026-01-26 23:36:25.46	39.90	61.79	-39.4	-41.3	22.0	0.00e+00	0	43	0	558891008	50	4477
2026-01-26 23:36:28.30	41.11	62.87	-39.6	-41.6	21.8	0.00e+00	0	43	0	564133888	50	4612
2026-01-26 23:36:31.43	42.58	64.07	-40.2	-42.2	21.2	0.00e+00	0	43	0	570425344	51	4690
2026-01-26 23:36:34.28	44.05	65.17	-41.1	-43.2	20.3	0.00e+00	0	43	0	575668224	52	4938
2026-01-26 23:36:37.40	45.84	66.37	-42.4	-44.8	18.8	0.00e+00	0	44	0	580911104	55	4987
2026-01-26 23:36:40.36	47.72	67.51	-43.8	-46.5	17.2	0.00e+00	0	43	0	587202560	58	5130
2026-01-26 23:36:43.61	50.05	68.74	-43.6	-46.3	17.4	0.00e+00	0	43	0	592445440	59	4715
2026-01-26 23:36:46.37	52.26	69.77	-43.6	-46.2	17.5	0.00e+00	0	43	0	597688320	58	4973
2026-01-26 23:36:49.65	55.22	70.98	-43.3	-45.8	17.9	0.00e+00	0	43	0	603979776	58	4753
2026-01-26 23:36:52.53	58.16	72.00	-44.2	-46.9	16.8	0.00e+00	0	43	0	609222656	58	5389
2026-01-26 23:36:55.65	61.76	73.06	-44.6	-47.6	16.1	0.00e+00	0	43	0	615514112	60	5189
2026-01-26 23:36:58.75	65.82	74.05	-43.3	-45.8	17.9	0.00e+00	0	43	0	621805568	58	4736
2026-01-26 23:37:01.73	70.23	74.93	-43.4	-45.9	17.7	0.00e+00	0	43	0	627048448	57	5092
2026-01-26 23:37:05.05	75.78	75.80	-43.6	-46.3	17.4	0.00e+00	0	43	0	633339904	57	5281
2026-01-26 23:37:07.75	80.80	76.41	-44.2	-47.1	16.6	0.00e+00	0	44	0	638582784	59	5207
2026-01-26 23:37:11.03	87.49	77.00	-44.9	-48.3	15.5	0.00e+00	0	43	0	643825664	60	5644
2026-01-26 23:37:13.76	93.48	77.35	-44.2	-47.2	16.6	0.00e+00	0	44	0	649068544	60	4950
2026-01-26 23:37:17.25	101.53	77.60	-44.4	-47.5	16.3	0.00e+00	0	43	0	656408576	60	5154
2026-01-26 23:37:19.97	107.93	77.62	-44.0	-46.9	16.8	0.00e+00	0	43	0	660602880	60	4793
2026-01-26 23:37:23.24	115.54	77.45	-45.6	-49.3	14.5	0.00e+00	0	43	0	666894336	61	5953
2026-01-26 23:37:25.95	121.61	77.15	-45.1	-48.2	15.6	0.00e+00	0	43	0	672137216	61	5276
2026-01-26 23:37:29.53	129.08	76.55	-45.7	-49.3	14.5	0.00e+00	0	44	0	679477248	62	5633
2026-01-26 23:37:32.25	134.26	75.97	-45.8	-49.4	14.3	6.80e-06	0	44	0	683671552	63	5347
2026-01-26 23:37:35.85	140.41	75.04	-46.1	-49.9	13.9	7.00e-07	0	44	0	691011584	62	6047
2026-01-26 23:37:38.57	144.52	74.25	-45.2	-48.7	15.1	0.00e+00	0	44	0	696254464	62	5249
2026-01-26 23:37:41.86	148.94	73.21	-43.9	-46.7	17.1	0.00e+00	0	44	0	702545920	59	4941
2026-01-26 23:37:44.59	152.19	72.30	-43.1	-45.6	18.0	0.00e+00	0	44	0	706740224	58	4611
2026-01-26 23:37:48.37	156.12	70.96	-43.6	-46.3	17.4	0.00e+00	0	43	0	714080256	58	5001
2026-01-26 23:37:51.07	158.58	69.97	-43.6	-46.1	17.6	0.00e+00	0	43	0	719323136	58	4921
2026-01-26 23:37:54.36	161.25	68.74	-44.9	-48.0	15.7	0.00e+00	0	44	0	725614592	61	5144
2026-01-26 23:37:57.16	163.27	67.67	-45.2	-48.6	15.2	0.00e+00	0	44	0	730857472	61	5505
2026-01-26 23:38:00.53	165.45	66.38	-43.1	-45.6	18.1	0.00e+00	0	44	0	737148928	58	4636
2026-01-26 23:38:03.34	167.07	65.30	-41.4	-43.6	19.8	0.00e+00	0	44	0	742391808	54	4651
2026-01-26 23:38:06.67	168.80	64.01	-39.9	-41.8	21.5	0.00e+00	0	44	0	748683264	51	4489
2026-01-26 23:38:09.48	170.11	62.93	-40.1	-42.0	21.4	0.00e+00	0	44	0	753926144	50	4857
2026-01-26 23:38:12.77	171.51	61.67	-40.5	-42.5	20.9	0.00e+00	0	44	0	760217600	51	4836
2026-01-26 23:38:15.48	172.57	60.64	-42.4	-44.8	18.7	0.00e+00	0	44	0	765460480	55	5019
2026-01-26 23:38:18.75	173.73	59.41	-42.8	-45.2	18.5	0.00e+00	0	44	0	771751936	57	4672
2026-01-26 23:38:21.59	174.65	58.35	-44.6	-47.6	16.2	0.00e+00	0	44	0	776994816	59	5477
2026-01-26 23:38:24.71	175.59	57.20	-42.7	-45.1	18.5	0.00e+00	0	43	0	782237696	57	4642
2026-01-26 23:38:27.55	176.38	56.17	-41.6	-43.8	19.6	0.00e+00	0	44	0	787480576	55	4469
2026-01-26 23:38:30.62	177.17	55.07	-40.8	-42.9	20.4	0.00e+00	0	43	0	793772032	53	4535
2026-01-26 23:38:33.60	177.88	54.02	-41.1	-43.3	20.1	0.00e+00	0	44	0	799014912	52	5016
2026-01-26 23:38:36.93	178.62	52.87	-41.8	-44.0	19.5	0.00e+00	0	43	0	805306368	54	4828
2026-01-26 23:38:39.86	179.22	51.87	-43.8	-46.6	17.2	0.00e+00	0	43	0	810549248	58	5164
2026-01-26 23:38:43.84	179.98	50.55	-46.5	-50.6	13.2	1.29e-05	0	43	0	817889280	63	6152
2026-01-26 23:38:46.68	180.49	49.62	-46.1	-50.0	13.8	5.30e-06	0	43	0	824180736	63	5770
2026-01-26 23:38:50.72	181.16	48.33	-45.8	-49.3	14.5	1.50e-06	0	44	0	831520768	63	5328
2026-01-26 23:38:53.44	181.58	47.48	-46.0	-49.7	14.2	7.00e-07	0	43	0	836763648	62	5891
2026-01-26 23:38:57.00	182.09	46.40	-44.7	-47.7	16.0	0.00e+00	0	43	0	843055104	61	4974
2026-01-26 23:38:59.70	182.46	45.59	-42.5	-44.8	18.8	0.00e+00	0	43	0	848297984	57	4471
2026-01-26 23:39:03.03	182.90	44.61	-41.8	-44.1	19.3	0.00e+00	0	43	0	854589440	55	4608
2026-01-26 23:39:05.80	183.24	43.82	-42.9	-45.4	18.2	0.00e+00	0	44	0	859832320	56	5075
2026-01-26 23:39:09.17	183.63	42.87	-42.7	-45.1	18.5	0.00e+00	0	43	0	866123776	57	4642
2026-01-26 23:39:12.20	183.97	42.03	-41.7	-43.9	19.5	0.00e+00	0	44	0	871366656	55	4512
2026-01-26 23:39:15.43	184.30	41.17	-42.6	-45.0	18.5	0.00e+00	0	43	0	877658112	55	5133
2026-01-26 23:39:18.28	184.59	40.41	-44.2	-47.1	16.6	0.00e+00	0	43	0	882900992	59	5177
2026-01-26 23:39:21.42	184.89	39.60	-43.0	-45.5	18.1	0.00e+00	0	44	0	889192448	58	4574
2026-01-26 23:39:24.26	185.15	38.89	-43.0	-45.4	18.2	0.00e+00	0	44	0	894435328	57	4791
2026-01-26 23:39:27.48	185.43	38.09	-44.2	-47.0	16.6	0.00e+00	0	44	0	899678208	58	5437
2026-01-26 23:39:30.33	185.67	37.40	-45.6	-49.3	14.5	0.00e+00	0	44	0	905969664	61	5958
2026-01-26 23:39:33.62	185.93	36.62	-44.9	-48.2	15.4	0.00e+00	0	44	0	911212544	61	5244
2026-01-26 23:39:36.32	186.14	35.99	-43.8	-46.5	17.1	0.00e+00	0	44	0	916455424	59	4837
2026-01-26 23:39:39.60	186.38	35.25	-43.4	-46.0	17.6	0.00e+00	0	44	0	922746880	58	4863
2026-01-26 23:39:42.65	186.60	34.57	-44.5	-47.5	16.2	0.00e+00	0	44	0	929038336	59	5405
2026-01-26 23:39:45.63	186.80	33.92	-46.1	-50.1	13.6	3.00e-06	0	44	0	934281216	62	6160
2026-01-26 23:39:48.62	187.00	33.28	-46.5	-50.8	12.8	6.71e-05	0	43	0	939524096	63	6344
2026-01-26 23:39:51.61	187.19	32.66	-45.4	-48.8	14.9	0.00e+00	0	44	0	945815552	62	5328
2026-01-26 23:39:54.69	187.37	32.02	-44.6	-47.7	16.0	0.00e+00	0	44	0	951058432	61	4931
2026-01-26 23:39:57.53	187.54	31.45	-44.8	-48.0	15.8	0.00e+00	0	44	0	956301312	61	5113
2026-01-26 23:40:00.65	187.72	30.84	-44.6	-47.7	16.0	0.00e+00	0	43	0	962592768	61	4962
2026-01-26 23:40:03.82	187.89	30.23	-44.4	-47.4	16.3	0.00e+00	0	43	0	967835648	60	5087
2026-01-26 23:40:06.83	188.05	29.66	-44.2	-47.1	16.6	0.00e+00	0	44	0	974127104	60	4890
2026-01-26 23:40:09.82	188.21	29.10	-44.0	-46.9	16.7	0.00e+00	0	44	0	979369984	60	4803
2026-01-26 23:40:12.80	188.35	28.56	-43.7	-46.5	17.1	0.00e+00	0	44	0	984612864	59	4834
2026-01-26 23:40:15.79	188.50	28.03	-43.3	-45.9	17.7	0.00e+00	0	44	0	990904320	58	4773
2026-01-26 23:40:18.88	188.64	27.48	-43.0	-45.5	18.1	0.00e+00	0	43	0	996147200	57	4861
2026-01-26 23:40:21.72	188.77	27.00	-42.8	-45.3	18.3	0.00e+00	0	44	0	1001390080	57	4741
2026-01-26 23:40:24.85	188.91	26.47	-42.7	-45.2	18.3	0.00e+00	0	43	0	1007681536	57	4678
2026-01-26 23:40:27.70	189.03	25.99	-42.7	-45.2	18.3	0.00e+00	0	44	0	1012924416	57	4685
2026-01-26 23:40:30.87	189.16	25.48	-42.7	-45.2	18.3	0.00e+00	0	44	0	1019215872	57	4683
2026-01-26 23:40:33.71	189.28	25.02	-42.6	-45.0	18.5	0.00e+00	0	43	0	1024458752	57	4582
2026-01-26 23:40:36.84	189.40	24.53	-42.4	-44.8	18.7	0.00e+00	0	44	0	1029701632	56	4733
2026-01-26 23:40:39.68	189.51	24.09	-42.1	-44.5	19.0	0.00e+00	0	44	0	1035993088	56	4568
2026-01-26 23:40:42.80	189.63	23.62	-42.0	-44.4	19.1	0.00e+00	0	44	0	1041235968	56	4509
2026-01-26 23:40:45.64	189.73	23.20	-41.6	-43.8	19.5	0.00e+00	0	44	0	1046478848	55	4473
2026-01-26 23:40:48.88	189.84	22.72	-41.7	-44.0	19.2	0.00e+00	0	44	0	1052770304	55	4597
2026-01-26 23:40:51.72	189.94	22.31	-41.5	-43.7	19.5	0.00e+00	0	44	0	1058013184	54	4699
2026-01-26 23:40:54.85	190.05	21.87	-41.7	-44.1	19.2	0.00e+00	0	43	0	1064304640	54	4882
2026-01-26 23:40:57.69	190.14	21.47	-41.8	-44.2	19.1	0.00e+00	0	43	0	1069547520	54	4945
2026-01-26 23:41:00.93	190.24	21.03	-41.8	-44.2	19.1	0.00e+00	0	44	0	1075838976	54	4973
2026-01-26 23:41:03.84	190.33	20.63	-41.9	-44.3	19.0	0.00e+00	0	44	0	1081081856	54	5025
2026-01-26 23:41:07.11	190.43	20.20	-42.0	-44.4	18.9	0.00e+00	0	44	0	1087373312	54	5057
2026-01-26 23:41:09.83	190.51	19.84	-41.9	-44.4	18.9	0.00e+00	0	44	0	1092616192	54	5047
2026-01-26 23:41:13.13	190.61	19.42	-42.0	-44.5	18.8	0.00e+00	0	44	0	1097859072	54	5108
2026-01-26 23:41:16.02	190.69	19.05	-42.1	-44.6	18.7	0.00e+00	0	44	0	1103101952	55	4914
2026-01-26 23:41:19.11	190.78	18.67	-42.3	-44.8	18.5	0.00e+00	0	43	0	1109393408	55	5009
2026-01-26 23:41:21.96	190.86	18.32	-42.4	-45.0	18.3	0.00e+00	0	44	0	1114636288	55	5101
2026-01-26 23:41:25.08	190.94	17.94	-42.5	-45.2	18.1	0.00e+00	0	44	0	1120927744	55	5224
2026-01-26 23:41:28.40	191.03	17.54	-42.5	-45.2	18.1	0.00e+00	0	43	0	1127219200	55	5229
2026-01-26 23:41:31.42	191.10	17.19	-42.6	-45.2	18.1	0.00e+00	0	44	0	1132462080	55	5259
2026-01-26 23:41:34.40	191.18	16.84	-42.8	-45.4	18.1	0.00e+00	0	44	0	1137704960	56	5050
2026-01-26 23:41:37.39	191.25	16.50	-42.7	-45.4	18.0	0.00e+00	0	44	0	1143996416	56	5072
2026-01-26 23:41:40.45	191.32	16.16	-42.7	-45.3	18.2	0.00e+00	0	44	0	1149239296	56	4996
2026-01-26 23:41:43.39	191.39	15.83	-42.6	-45.2	18.2	0.00e+00	0	44	0	1154482176	56	4975
2026-01-26 23:41:46.37	191.46	15.50	-42.5	-45.1	18.3	0.00e+00	0	44	0	1160773632	56	4911
2026-01-26 23:41:49.35	191.53	15.18	-42.5	-45.2	18.3	0.00e+00	0	44	0	1166016512	56	4933
2026-01-26 23:41:52.33	191.60	14.86	-42.4	-45.0	18.4	0.00e+00	0	43	0	1171259392	56	4861
2026-01-26 23:41:55.32	191.66	14.55	-42.5	-45.1	18.3	0.00e+00	0	43	0	1177550848	56	4874
2026-01-26 23:41:58.38	191.73	14.23	-42.5	-45.1	18.3	0.00e+00	0	44	0	1182793728	56	4890
2026-01-26 23:42:01.65	191.80	13.89	-42.6	-45.2	18.2	0.00e+00	0	44	0	1189085184	56	4980
2026-01-26 23:42:04.37	191.85	13.62	-42.7	-45.3	18.1	0.00e+00	0	44	0	1194328064	56	4991
2026-01-26 23:42:07.64	191.92	13.29	-42.8	-45.5	17.9	0.00e+00	0	44	0	1200619520	56	5140
2026-01-26 23:42:10.36	191.97	13.02	-42.8	-45.5	17.9	0.00e+00	0	43	0	1205862400	56	5139
2026-01-26 23:42:13.60	192.04	12.70	-42.9	-45.6	17.8	0.00e+00	0	43	0	1211105280	56	5187
2026-01-26 23:42:16.97	192.10	12.38	-42.9	-45.7	17.6	0.00e+00	0	43	0	1217396736	56	5263
2026-01-26 23:42:19.68	192.15	12.12	-43.1	-45.9	17.5	0.00e+00	0	44	0	1222639616	56	5350
2026-01-26 23:42:22.98	192.21	11.81	-43.1	-45.9	17.5	0.00e+00	0	44	0	1228931072	56	5356
2026-01-26 23:42:25.77	192.27	11.55	-43.1	-45.9	17.4	0.00e+00	0	44	0	1234173952	56	5369
2026-01-26 23:42:29.16	192.33	11.24	-43.3	-46.2	17.2	0.00e+00	0	44	0	1240465408	57	5239
2026-01-26 23:42:31.90	192.38	10.99	-43.3	-46.2	17.2	0.00e+00	0	44	0	1245708288	57	5236
2026-01-26 23:42:35.31	192.43	10.68	-43.3	-46.3	17.0	0.00e+00	0	43	0	1251999744	57	5294
2026-01-26 23:42:38.01	192.48	10.44	-43.4	-46.3	17.0	0.00e+00	0	43	0	1257242624	57	5337
2026-01-26 23:42:41.29	192.54	10.15	-43.4	-46.3	16.9	0.00e+00	0	43	0	1263534080	57	5333
2026-01-26 23:42:44.02	192.58	9.91	-43.3	-46.3	16.9	0.00e+00	0	44	0	1268776960	57	5331
2026-01-26 23:42:47.35	192.64	9.63	-43.4	-46.4	16.8	0.00e+00	0	44	0	1275068416	57	5400
2026-01-26 23:42:50.34	192.69	9.37	-43.4	-46.6	16.6	0.00e+00	0	44	0	1280311296	57	5510
2026-01-26 23:42:53.62	192.74	9.10	-43.3	-46.4	16.8	0.00e+00	0	43	0	1286602752	57	5374
