passes_logs/2026/01/26/T1/T1__20260126_112142_NOAA_20_JPSS-1_rec.log

#Pass ID: 20260126_112142_NOAA 20 (JPSS-1)
#Satellite: NOAA 20 (JPSS-1)
#Configuration: NOAA 20
#almurnet v.1.7.20251203
#Start time: 2026-01-26 11:21:43

#Version: 2.0.20230620
#Station: T1
#Location: 37.570604 lon 55.790049 lat
#TLE: 1 43013U 17073A   26025.83228772  .00000162  00000+0  97663-4 0  9996
#TLE: 2 43013  98.7646 326.6579 0001036  23.5840 336.5383 14.19540376424273

#Time	Az	El	Level	Level2	SNR	BER	BlckErr	Temp	State	Recorded	gain1	gain2
2026-01-26 11:21:43.09	207.04	5.05	-49.6	-65.0	3.8	1.49e+00	0	40	0	0	70	21667
2026-01-26 11:21:46.06	207.28	5.23	-49.6	-65.0	3.8	1.49e+00	0	40	104	0	71	20469
2026-01-26 11:21:49.05	207.52	5.41	-49.6	-65.0	3.8	1.49e+00	0	40	104	0	71	20326
2026-01-26 11:21:52.02	207.77	5.60	-49.6	-64.9	3.8	1.49e+00	0	40	104	0	71	20249
2026-01-26 11:21:55.00	208.02	5.78	-49.6	-64.9	3.8	1.49e+00	0	41	104	0	71	20224
2026-01-26 11:21:57.98	208.27	5.97	-49.5	-65.0	3.8	1.49e+00	0	40	104	0	71	20367
2026-01-26 11:22:00.96	208.53	6.15	-49.6	-64.9	3.8	1.49e+00	0	41	104	0	71	20298
2026-01-26 11:22:03.94	208.79	6.34	-49.6	-64.9	3.8	1.49e+00	0	41	104	0	71	20121
2026-01-26 11:22:06.92	209.05	6.53	-49.5	-64.4	3.8	1.49e+00	0	41	104	0	71	19000
2026-01-26 11:22:09.90	209.32	6.72	-49.5	-64.4	3.8	1.49e+00	0	41	104	0	71	19097
2026-01-26 11:22:12.88	209.59	6.91	-49.5	-64.6	3.8	1.49e+00	0	41	104	0	71	19527
2026-01-26 11:22:15.86	209.86	7.10	-49.5	-64.3	3.8	1.49e+00	0	41	104	0	70	20067
2026-01-26 11:22:18.84	210.14	7.29	-49.5	-64.2	3.8	1.49e+00	0	41	104	0	70	19667
2026-01-26 11:22:21.82	210.42	7.49	-49.5	-64.4	3.8	1.49e+00	0	41	104	0	70	20085
2026-01-26 11:22:24.80	210.70	7.68	-49.4	-63.3	3.8	1.49e+00	0	41	104	0	70	17773
2026-01-26 11:22:27.78	210.99	7.88	-49.5	-64.3	3.8	1.49e+00	0	41	104	0	70	19975
2026-01-26 11:22:30.76	211.28	8.07	-49.1	-59.6	4.9	1.13e+00	0	41	0	0	70	11614
2026-01-26 11:22:33.74	211.57	8.27	-46.4	-50.7	12.8	8.17e-04	0	42	0	5242880	64	5886
2026-01-26 11:22:36.72	211.87	8.47	-44.3	-47.3	16.3	0.00e+00	0	42	0	11534336	60	5035
2026-01-26 11:22:39.70	212.18	8.66	-44.6	-47.7	16.0	0.00e+00	0	42	0	16777216	60	5241
2026-01-26 11:22:42.67	212.48	8.86	-46.7	-51.3	12.3	4.65e-05	0	42	0	22020096	64	6280
2026-01-26 11:22:45.65	212.79	9.06	-48.2	-55.2	8.3	9.01e-02	0	42	0	28311552	67	8279
2026-01-26 11:22:48.64	213.11	9.27	-48.8	-57.3	6.3	9.67e-01	0	42	0	33554432	69	9399
2026-01-26 11:22:51.62	213.43	9.47	-46.1	-50.2	13.5	1.29e-05	0	42	0	38797312	64	5549
2026-01-26 11:22:54.60	213.75	9.67	-45.2	-48.6	15.2	0.00e+00	0	42	0	45088768	62	5212
2026-01-26 11:22:57.58	214.08	9.87	-44.8	-48.0	15.8	0.00e+00	0	42	0	50331648	61	5130
2026-01-26 11:23:00.57	214.41	10.08	-44.0	-46.9	16.8	0.00e+00	0	42	0	55574528	60	4811
2026-01-26 11:23:03.55	214.75	10.29	-44.0	-46.8	16.9	0.00e+00	0	42	0	61865984	59	5012
2026-01-26 11:23:06.53	215.09	10.49	-43.8	-46.5	17.2	0.00e+00	0	42	0	67108864	59	4866
2026-01-26 11:23:09.52	215.43	10.70	-43.7	-46.3	17.4	0.00e+00	0	42	0	72351744	59	4744
2026-01-26 11:23:12.50	215.79	10.91	-43.6	-46.3	17.5	0.00e+00	0	42	0	78643200	59	4714
2026-01-26 11:23:15.48	216.14	11.12	-43.6	-46.3	17.4	0.00e+00	0	42	0	83886080	59	4740
2026-01-26 11:23:18.47	216.50	11.33	-43.6	-46.3	17.4	0.00e+00	0	42	0	89128960	59	4747
2026-01-26 11:23:21.46	216.87	11.54	-43.6	-46.2	17.6	0.00e+00	0	42	0	95420416	59	4697
2026-01-26 11:23:24.44	217.24	11.75	-43.6	-46.3	17.5	0.00e+00	0	42	0	100663296	59	4730
2026-01-26 11:23:27.43	217.62	11.96	-43.7	-46.4	17.4	0.00e+00	0	42	0	105906176	59	4785
2026-01-26 11:23:30.42	218.00	12.18	-43.9	-46.6	17.2	0.00e+00	0	42	0	112197632	59	4901
2026-01-26 11:23:33.40	218.39	12.39	-44.0	-46.7	17.2	0.00e+00	0	42	0	117440512	59	4950
2026-01-26 11:23:36.38	218.78	12.60	-43.9	-46.6	17.2	0.00e+00	0	42	0	122683392	59	4914
2026-01-26 11:23:39.37	219.18	12.82	-43.6	-46.2	17.7	0.00e+00	0	42	0	128974848	59	4658
2026-01-26 11:23:42.36	219.58	13.03	-43.5	-46.0	17.8	0.00e+00	0	42	0	134217728	58	4856
2026-01-26 11:23:45.34	219.99	13.25	-43.5	-46.1	17.7	0.00e+00	0	42	0	139460608	58	4912
2026-01-26 11:23:48.33	220.41	13.47	-43.4	-45.9	17.9	0.00e+00	0	42	0	145752064	58	4793
2026-01-26 11:23:51.31	220.83	13.69	-43.3	-45.9	18.0	0.00e+00	0	42	0	150994944	58	4762
2026-01-26 11:23:54.30	221.26	13.90	-43.3	-45.8	18.0	0.00e+00	0	42	0	156237824	58	4741
2026-01-26 11:23:57.28	221.69	14.12	-43.4	-46.0	17.9	0.00e+00	0	42	0	162529280	58	4846
2026-01-26 11:24:00.27	222.13	14.34	-43.5	-46.1	17.8	0.00e+00	0	42	0	167772160	58	4883
2026-01-26 11:24:03.25	222.58	14.56	-43.5	-46.1	17.8	0.00e+00	0	42	0	173015040	58	4908
2026-01-26 11:24:06.23	223.03	14.78	-43.4	-45.9	18.0	0.00e+00	0	42	0	179306496	58	4788
2026-01-26 11:24:09.22	223.49	15.00	-43.3	-45.7	18.1	0.00e+00	0	42	0	184549376	58	4695
2026-01-26 11:24:12.20	223.95	15.22	-43.4	-45.9	18.0	0.00e+00	0	42	0	189792256	58	4777
2026-01-26 11:24:15.18	224.43	15.44	-43.2	-45.8	18.1	0.00e+00	0	42	0	196083712	58	4710
2026-01-26 11:24:18.17	224.91	15.66	-43.1	-45.6	18.3	0.00e+00	0	42	0	201326592	58	4601
2026-01-26 11:24:21.16	225.39	15.88	-43.2	-45.6	18.3	0.00e+00	0	42	0	206569472	58	4639
2026-01-26 11:24:24.14	225.89	16.10	-43.0	-45.4	18.5	0.00e+00	0	42	0	212860928	58	4533
2026-01-26 11:24:27.13	226.39	16.32	-42.9	-45.3	18.6	0.00e+00	0	42	0	218103808	57	4717
2026-01-26 11:24:30.11	226.89	16.54	-42.8	-45.1	18.7	0.00e+00	0	42	0	224395264	57	4644
2026-01-26 11:24:33.10	227.41	16.77	-42.9	-45.2	18.6	0.00e+00	0	42	0	229638144	57	4697
2026-01-26 11:24:36.08	227.93	16.99	-42.8	-45.2	18.7	0.00e+00	0	42	0	234881024	57	4683
2026-01-26 11:24:39.06	228.46	17.20	-42.8	-45.1	18.8	0.00e+00	0	42	0	241172480	57	4637
2026-01-26 11:24:42.04	229.00	17.42	-42.9	-45.3	18.6	0.00e+00	0	42	0	246415360	57	4730
2026-01-26 11:24:45.03	229.54	17.64	-43.2	-45.6	18.3	0.00e+00	0	42	0	251658240	57	4924
2026-01-26 11:24:48.01	230.09	17.86	-43.2	-45.7	18.2	0.00e+00	0	43	0	257949696	57	4964
2026-01-26 11:24:51.00	230.66	18.08	-43.4	-45.9	18.0	0.00e+00	0	43	0	263192576	57	5048
2026-01-26 11:24:53.98	231.22	18.30	-43.0	-45.4	18.5	0.00e+00	0	42	0	268435456	57	4764
2026-01-26 11:24:56.96	231.80	18.51	-42.8	-45.1	18.8	0.00e+00	0	42	0	274726912	57	4640
2026-01-26 11:24:59.94	232.38	18.73	-42.6	-45.0	18.9	0.00e+00	0	42	0	279969792	57	4561
2026-01-26 11:25:02.92	232.97	18.94	-42.5	-44.9	19.0	0.00e+00	0	43	0	285212672	57	4495
2026-01-26 11:25:05.91	233.58	19.15	-42.2	-44.5	19.4	0.00e+00	0	42	0	291504128	56	4567
2026-01-26 11:25:08.89	234.18	19.37	-41.9	-44.1	19.6	0.00e+00	0	43	0	296747008	55	4617
2026-01-26 11:25:11.87	234.80	19.58	-41.9	-44.1	19.6	0.00e+00	0	42	0	301989888	55	4633
2026-01-26 11:25:14.86	235.43	19.78	-41.8	-44.0	19.6	0.00e+00	0	42	0	308281344	55	4588
2026-01-26 11:25:17.84	236.06	19.99	-41.5	-43.7	20.0	0.00e+00	0	42	0	313524224	55	4425
2026-01-26 11:25:20.83	236.70	20.20	-41.7	-43.9	19.8	0.00e+00	0	42	0	318767104	55	4518
2026-01-26 11:25:23.81	237.35	20.40	-41.9	-44.2	19.6	0.00e+00	0	43	0	325058560	55	4655
2026-01-26 11:25:26.79	238.01	20.60	-42.0	-44.2	19.5	0.00e+00	0	42	0	330301440	55	4682
2026-01-26 11:25:29.78	238.68	20.80	-41.8	-44.0	19.7	0.00e+00	0	43	0	335544320	55	4571
2026-01-26 11:25:32.76	239.35	21.00	-42.0	-44.2	19.5	0.00e+00	0	42	0	341835776	55	4688
2026-01-26 11:25:35.75	240.04	21.19	-42.1	-44.3	19.4	0.00e+00	0	42	0	347078656	55	4740
2026-01-26 11:25:38.74	240.73	21.38	-42.2	-44.4	19.3	0.00e+00	0	42	0	352321536	55	4799
2026-01-26 11:25:41.72	241.43	21.57	-42.4	-44.8	19.0	0.00e+00	0	42	0	358612992	55	4994
2026-01-26 11:25:44.70	242.14	21.76	-42.8	-45.2	18.7	0.00e+00	0	42	0	363855872	56	4979
2026-01-26 11:25:47.69	242.85	21.94	-42.9	-45.3	18.7	0.00e+00	0	42	0	369098752	56	5004
2026-01-26 11:25:50.67	243.58	22.12	-42.8	-45.1	18.8	0.00e+00	0	43	0	375390208	56	4913
2026-01-26 11:25:53.66	244.31	22.29	-43.0	-45.5	18.4	0.00e+00	0	43	0	380633088	56	5103
2026-01-26 11:25:56.65	245.06	22.47	-42.7	-45.2	18.7	0.00e+00	0	43	0	385875968	56	4958
2026-01-26 11:25:59.63	245.80	22.64	-42.6	-45.0	18.9	0.00e+00	0	42	0	392167424	56	4851
2026-01-26 11:26:02.62	246.56	22.80	-42.8	-45.2	18.7	0.00e+00	0	43	0	397410304	56	4935
2026-01-26 11:26:05.61	247.33	22.96	-43.3	-45.7	18.2	0.00e+00	0	42	0	402653184	57	4965
2026-01-26 11:26:08.59	248.10	23.12	-43.4	-45.9	18.0	0.00e+00	0	43	0	408944640	57	5072
2026-01-26 11:26:11.57	248.88	23.27	-43.5	-46.1	17.8	0.00e+00	0	43	0	414187520	57	5210
2026-01-26 11:26:14.56	249.67	23.42	-43.6	-46.2	17.7	0.00e+00	0	43	0	419430400	57	5270
2026-01-26 11:26:17.54	250.46	23.56	-44.1	-46.8	17.2	0.00e+00	0	43	0	425721856	58	5337
2026-01-26 11:26:20.52	251.26	23.69	-44.2	-47.0	17.0	0.00e+00	0	43	0	430964736	59	5118
2026-01-26 11:26:23.51	252.07	23.83	-43.7	-46.4	17.6	0.00e+00	0	43	0	436207616	59	4799
2026-01-26 11:26:26.49	252.88	23.95	-43.4	-46.0	18.0	0.00e+00	0	43	0	442499072	58	4853
2026-01-26 11:26:29.48	253.71	24.08	-43.9	-46.5	17.4	0.00e+00	0	43	0	447741952	58	5153
2026-01-26 11:26:32.46	254.53	24.19	-44.5	-47.3	16.7	0.00e+00	0	43	0	452984832	59	5334
2026-01-26 11:26:35.45	255.37	24.30	-44.1	-46.8	17.2	0.00e+00	0	43	0	459276288	59	5026
2026-01-26 11:26:38.43	256.20	24.41	-44.0	-46.8	17.2	0.00e+00	0	43	0	464519168	59	4992
2026-01-26 11:26:41.42	257.05	24.51	-44.6	-47.6	16.4	0.00e+00	0	43	0	469762048	59	5487
2026-01-26 11:26:44.40	257.90	24.60	-44.8	-47.8	16.3	0.00e+00	0	43	0	476053504	60	5297
2026-01-26 11:26:47.38	258.75	24.68	-44.4	-47.3	16.8	0.00e+00	0	43	0	481296384	60	4998
2026-01-26 11:26:50.37	259.61	24.76	-44.1	-46.8	17.2	0.00e+00	0	43	0	486539264	60	4756
2026-01-26 11:26:53.35	260.47	24.84	-44.3	-47.2	16.9	0.00e+00	0	43	0	492830720	60	4929
2026-01-26 11:26:56.33	261.33	24.90	-44.1	-46.9	17.2	0.00e+00	0	43	0	498073600	60	4781
2026-01-26 11:26:59.31	262.20	24.96	-43.6	-46.2	17.8	0.00e+00	0	43	0	503316480	59	4685
2026-01-26 11:27:02.30	263.07	25.02	-43.2	-45.7	18.3	0.00e+00	0	43	0	509607936	58	4655
2026-01-26 11:27:05.29	263.95	25.06	-43.3	-45.9	18.1	0.00e+00	0	43	0	514850816	58	4779
2026-01-26 11:27:08.27	264.82	25.10	-43.2	-45.7	18.2	0.00e+00	0	43	0	520093696	58	4696
2026-01-26 11:27:11.25	265.70	25.14	-43.3	-45.8	18.1	0.00e+00	0	43	0	526385152	58	4740
2026-01-26 11:27:14.23	266.58	25.16	-43.9	-46.5	17.5	0.00e+00	0	43	0	531628032	58	5134
2026-01-26 11:27:17.22	267.46	25.18	-44.3	-47.1	16.9	0.00e+00	0	43	0	536870912	59	5181
2026-01-26 11:27:20.20	268.34	25.19	-43.7	-46.4	17.6	0.00e+00	0	43	0	543162368	59	4775
2026-01-26 11:27:23.19	269.23	25.20	-43.6	-46.2	17.8	0.00e+00	0	43	0	548405248	59	4665
2026-01-26 11:27:26.17	270.11	25.19	-43.7	-46.4	17.6	0.00e+00	0	42	0	553648128	59	4760
2026-01-26 11:27:29.16	270.99	25.19	-43.4	-46.0	18.0	0.00e+00	0	43	0	559939584	58	4821
2026-01-26 11:27:32.14	271.87	25.17	-43.1	-45.6	18.4	0.00e+00	0	43	0	565182464	58	4603
2026-01-26 11:27:35.12	272.75	25.15	-43.0	-45.4	18.5	0.00e+00	0	43	0	570425344	57	4784
2026-01-26 11:27:38.10	273.63	25.12	-43.4	-45.9	18.1	0.00e+00	0	43	0	576716800	57	5090
2026-01-26 11:27:41.08	274.50	25.08	-43.4	-45.8	18.1	0.00e+00	0	43	0	581959680	57	5039
2026-01-26 11:27:44.07	275.38	25.03	-43.1	-45.5	18.4	0.00e+00	0	43	0	587202560	57	4863
2026-01-26 11:27:47.05	276.25	24.98	-43.3	-45.8	18.2	0.00e+00	0	43	0	593494016	57	4984
2026-01-26 11:27:50.04	277.12	24.92	-44.1	-46.7	17.3	0.00e+00	0	43	0	598736896	58	5277
2026-01-26 11:27:53.02	277.98	24.86	-43.9	-46.6	17.4	0.00e+00	0	43	0	603979776	58	5166
2026-01-26 11:27:56.01	278.84	24.79	-43.8	-46.4	17.6	0.00e+00	0	43	0	610271232	58	5052
2026-01-26 11:27:58.99	279.70	24.71	-43.3	-45.8	18.2	0.00e+00	0	43	0	615514112	58	4709
2026-01-26 11:28:01.97	280.55	24.63	-43.7	-46.3	17.7	0.00e+00	0	43	0	620756992	58	5032
2026-01-26 11:28:04.96	281.40	24.54	-43.7	-46.3	17.7	0.00e+00	0	43	0	627048448	58	5016
2026-01-26 11:28:07.94	282.24	24.44	-43.4	-45.8	18.2	0.00e+00	0	43	0	632291328	58	4753
2026-01-26 11:28:10.93	283.08	24.34	-43.6	-46.1	17.9	0.00e+00	0	43	0	637534208	58	4900
2026-01-26 11:28:13.92	283.92	24.23	-43.2	-45.7	18.4	0.00e+00	0	42	0	643825664	58	4652
2026-01-26 11:28:16.90	284.74	24.12	-43.1	-45.5	18.5	0.00e+00	0	43	0	649068544	58	4570
2026-01-26 11:28:19.88	285.56	24.00	-43.0	-45.4	18.6	0.00e+00	0	43	0	654311424	57	4764
2026-01-26 11:28:22.87	286.38	23.88	-42.9	-45.3	18.7	0.00e+00	0	42	0	660602880	57	4734
2026-01-26 11:28:25.85	287.18	23.75	-42.8	-45.2	18.8	0.00e+00	0	43	0	665845760	57	4685
2026-01-26 11:28:28.84	287.99	23.61	-42.5	-44.8	19.1	0.00e+00	0	43	0	671088640	57	4478
2026-01-26 11:28:31.82	288.78	23.47	-42.5	-44.8	19.2	0.00e+00	0	43	0	677380096	56	4734
2026-01-26 11:28:34.80	289.56	23.33	-42.1	-44.3	19.6	0.00e+00	0	43	0	682622976	56	4480
2026-01-26 11:28:37.79	290.35	23.18	-41.5	-43.7	20.0	0.00e+00	0	43	0	687865856	55	4405
2026-01-26 11:28:40.77	291.12	23.02	-41.6	-43.7	19.9	0.00e+00	0	43	0	694157312	55	4441
2026-01-26 11:28:43.75	291.88	22.87	-41.4	-43.5	20.2	0.00e+00	0	43	0	699400192	54	4583
2026-01-26 11:28:46.74	292.64	22.70	-41.5	-43.6	20.1	0.00e+00	0	43	0	704643072	54	4651
2026-01-26 11:28:49.72	293.39	22.54	-42.1	-44.4	19.4	0.00e+00	0	43	0	710934528	54	5062
2026-01-26 11:28:52.70	294.13	22.37	-42.2	-44.4	19.4	0.00e+00	0	43	0	716177408	55	4798
2026-01-26 11:28:55.69	294.86	22.20	-41.9	-44.1	19.6	0.00e+00	0	43	0	721420288	55	4631
2026-01-26 11:28:58.67	295.59	22.02	-41.9	-44.1	19.6	0.00e+00	0	43	0	727711744	55	4643
2026-01-26 11:29:01.66	296.30	21.84	-42.0	-44.2	19.6	0.00e+00	0	43	0	732954624	55	4664
2026-01-26 11:29:04.65	297.01	21.65	-42.7	-45.0	18.8	0.00e+00	0	43	0	738197504	55	5159
2026-01-26 11:29:07.63	297.71	21.47	-43.5	-46.1	18.0	0.00e+00	0	43	0	744488960	57	5165
2026-01-26 11:29:10.61	298.41	21.28	-43.7	-46.3	17.8	0.00e+00	0	43	0	749731840	58	4993
2026-01-26 11:29:13.59	299.09	21.09	-43.6	-46.1	17.9	0.00e+00	0	43	0	754974720	58	4918
2026-01-26 11:29:16.58	299.76	20.89	-43.2	-45.7	18.3	0.00e+00	0	43	0	761266176	58	4661
2026-01-26 11:29:19.56	300.43	20.70	-42.9	-45.3	18.7	0.00e+00	0	43	0	766509056	57	4735
2026-01-26 11:29:22.55	301.09	20.50	-43.2	-45.6	18.4	0.00e+00	0	43	0	771751936	57	4905
2026-01-26 11:29:25.53	301.74	20.30	-43.3	-45.7	18.2	0.00e+00	0	43	0	778043392	57	4982
2026-01-26 11:29:28.52	302.38	20.10	-43.5	-46.0	18.0	0.00e+00	0	43	0	783286272	57	5155
2026-01-26 11:29:31.50	303.02	19.89	-43.5	-46.1	18.0	0.00e+00	0	43	0	788529152	57	5162
2026-01-26 11:29:34.49	303.64	19.68	-43.3	-45.7	18.2	0.00e+00	0	43	0	794820608	57	4983
2026-01-26 11:29:37.47	304.26	19.48	-42.9	-45.3	18.7	0.00e+00	0	43	0	800063488	57	4727
2026-01-26 11:29:40.46	304.87	19.27	-43.2	-45.7	18.3	0.00e+00	0	43	0	805306368	57	4960
2026-01-26 11:29:43.44	305.47	19.06	-43.1	-45.5	18.5	0.00e+00	0	43	0	811597824	57	4845
2026-01-26 11:29:46.42	306.06	18.85	-43.1	-45.6	18.4	0.00e+00	0	43	0	816840704	57	4908
2026-01-26 11:29:49.41	306.65	18.63	-43.3	-45.8	18.2	0.00e+00	0	43	0	822083584	57	5018
2026-01-26 11:29:52.39	307.22	18.42	-43.5	-46.0	18.0	0.00e+00	0	43	0	828375040	57	5114
2026-01-26 11:29:55.37	307.79	18.20	-44.2	-46.9	17.1	0.00e+00	0	43	0	833617920	58	5378
2026-01-26 11:29:58.36	308.35	17.99	-43.9	-46.5	17.5	0.00e+00	0	43	0	838860800	59	4850
2026-01-26 11:30:01.34	308.90	17.77	-43.3	-45.8	18.2	0.00e+00	0	43	0	845152256	58	4711
2026-01-26 11:30:04.32	309.45	17.56	-43.6	-46.2	17.8	0.00e+00	0	43	0	850395136	58	4947
2026-01-26 11:30:07.31	309.99	17.34	-44.2	-47.0	17.0	0.00e+00	0	43	0	855638016	59	5110
2026-01-26 11:30:10.30	310.52	17.12	-43.7	-46.3	17.6	0.00e+00	0	43	0	861929472	59	4721
2026-01-26 11:30:13.28	311.04	16.90	-43.4	-46.0	18.0	0.00e+00	0	43	0	867172352	58	4839
2026-01-26 11:30:16.26	311.56	16.68	-43.8	-46.5	17.4	0.00e+00	0	43	0	872415232	58	5153
2026-01-26 11:30:19.25	312.07	16.47	-43.7	-46.3	17.6	0.00e+00	0	43	0	878706688	58	5020
2026-01-26 11:30:22.23	312.57	16.25	-43.2	-45.8	18.1	0.00e+00	0	43	0	883949568	58	4726
2026-01-26 11:30:25.22	313.06	16.03	-43.7	-46.5	17.5	0.00e+00	0	43	0	889192448	58	5118
2026-01-26 11:30:28.20	313.55	15.81	-30.4	-45.4	9.8	2.32e-04	0	43	0	895483904	32	20253
2026-01-26 11:30:31.18	314.03	15.59	-42.4	-46.1	17.3	0.00e+00	0	43	0	900726784	56	5501
2026-01-26 11:30:34.17	314.50	15.37	-43.4	-46.1	17.8	0.00e+00	0	43	0	905969664	57	5165
2026-01-26 11:30:37.15	314.97	15.16	-44.0	-46.9	17.0	0.00e+00	0	43	0	912261120	58	5382
2026-01-26 11:30:40.13	315.43	14.94	-44.2	-47.1	16.8	0.00e+00	0	43	0	917504000	59	5196
2026-01-26 11:30:43.12	315.88	14.72	-43.7	-46.4	17.5	0.00e+00	0	43	0	922746880	59	4783
2026-01-26 11:30:46.10	316.33	14.50	-43.6	-46.4	17.5	0.00e+00	0	43	0	929038336	59	4769
2026-01-26 11:30:49.08	316.77	14.29	-44.2	-47.2	16.8	0.00e+00	0	43	0	934281216	59	5239
2026-01-26 11:30:52.07	317.21	14.07	-44.1	-46.9	17.0	0.00e+00	0	43	0	939524096	59	5081
2026-01-26 11:30:55.05	317.63	13.85	-43.8	-46.5	17.3	0.00e+00	0	43	0	945815552	59	4869
2026-01-26 11:30:58.03	318.06	13.64	-43.6	-46.3	17.6	0.00e+00	0	43	0	951058432	59	4721
2026-01-26 11:31:01.02	318.47	13.42	-44.1	-46.9	17.0	0.00e+00	0	43	0	956301312	59	5075
2026-01-26 11:31:04.00	318.88	13.21	-44.2	-47.0	16.9	0.00e+00	0	43	0	962592768	59	5148
2026-01-26 11:31:06.98	319.29	13.00	-44.1	-47.0	16.9	0.00e+00	0	43	0	967835648	59	5112
2026-01-26 11:31:09.97	319.69	12.78	-43.8	-46.6	17.2	0.00e+00	0	43	0	973078528	59	4908
2026-01-26 11:31:12.95	320.08	12.57	-44.0	-47.0	16.9	0.00e+00	0	43	0	979369984	59	5143
2026-01-26 11:31:15.93	320.47	12.36	-44.4	-47.5	16.4	0.00e+00	0	43	0	984612864	59	5411
2026-01-26 11:31:18.92	320.86	12.15	-44.4	-47.4	16.5	0.00e+00	0	43	0	989855744	59	5365
2026-01-26 11:31:21.90	321.23	11.94	-44.2	-47.1	16.8	0.00e+00	0	43	0	996147200	59	5182
2026-01-26 11:31:24.89	321.61	11.73	-43.8	-46.7	17.2	0.00e+00	0	43	0	1001390080	59	4931
2026-01-26 11:31:27.87	321.97	11.52	-43.9	-46.8	17.0	0.00e+00	0	43	0	1006632960	59	5011
2026-01-26 11:31:30.85	322.34	11.31	-44.1	-46.9	16.9	0.00e+00	0	43	0	1012924416	59	5071
2026-01-26 11:31:33.83	322.69	11.10	-44.1	-47.0	16.8	0.00e+00	0	43	0	1018167296	59	5157
2026-01-26 11:31:36.82	323.05	10.90	-44.1	-47.2	16.6	0.00e+00	0	43	0	1024458752	59	5260
2026-01-26 11:31:39.80	323.40	10.69	-44.2	-47.6	16.2	0.00e+00	0	43	0	1029701632	59	5484
2026-01-26 11:31:42.79	323.74	10.49	-44.3	-47.8	16.0	0.00e+00	0	43	0	1034944512	59	5619
2026-01-26 11:31:45.77	324.08	10.28	-44.4	-47.9	15.9	0.00e+00	0	43	0	1041235968	59	5711
2026-01-26 11:31:48.76	324.41	10.08	-44.2	-47.7	16.2	0.00e+00	0	43	0	1046478848	59	5529
2026-01-26 11:31:51.74	324.74	9.88	-43.9	-47.7	16.1	0.00e+00	0	43	0	1051721728	59	5552
2026-01-26 11:31:54.73	325.07	9.67	-43.0	-47.7	16.0	0.00e+00	0	43	0	1058013184	57	6221
2026-01-26 11:31:57.71	325.39	9.47	-44.3	-47.9	15.8	0.00e+00	0	43	0	1063256064	59	5709
2026-01-26 11:32:00.69	325.71	9.27	-44.5	-48.2	15.6	0.00e+00	0	43	0	1068498944	59	5874
2026-01-26 11:32:03.67	326.02	9.08	-44.7	-48.4	15.4	0.00e+00	0	43	0	1074790400	60	5700
2026-01-26 11:32:06.65	326.33	8.88	-49.6	-65.3	3.8	1.49e+00	0	43	104	1076887552	70	22389
2026-01-26 11:32:09.63	326.63	8.68	-49.7	-65.6	3.8	1.49e+00	0	43	104	1076887552	70	23148
2026-01-26 11:32:12.61	326.94	8.48	-50.3	-65.6	3.8	1.49e+00	0	43	104	1076887552	71	22005
2026-01-26 11:32:15.59	327.23	8.29	-50.2	-65.7	3.8	1.49e+00	0	43	104	1076887552	71	22065
2026-01-26 11:32:18.57	327.53	8.09	-50.5	-65.7	3.8	1.49e+00	0	43	104	1076887552	71	22032
2026-01-26 11:32:21.55	327.82	7.90	-50.4	-65.7	3.8	1.49e+00	0	43	104	1076887552	71	22089
2026-01-26 11:32:24.53	328.10	7.71	-50.1	-65.6	3.8	1.49e+00	0	43	104	1076887552	71	21923
2026-01-26 11:32:27.51	328.38	7.52	-50.2	-65.6	3.8	1.49e+00	0	43	104	1076887552	71	21895
2026-01-26 11:32:30.49	328.66	7.33	-50.2	-65.6	3.8	1.49e+00	0	43	104	1076887552	71	21854
2026-01-26 11:32:33.47	328.94	7.14	-50.1	-65.6	3.8	1.49e+00	0	43	104	1076887552	71	21821
2026-01-26 11:32:36.45	329.21	6.95	-50.1	-65.5	3.8	1.49e+00	0	43	104	1076887552	71	21746
2026-01-26 11:32:39.42	329.48	6.76	-50.1	-65.6	3.8	1.49e+00	0	43	104	1076887552	71	21780
2026-01-26 11:32:42.40	329.74	6.57	-50.1	-65.5	3.8	1.49e+00	0	43	104	1076887552	71	21680
2026-01-26 11:32:45.38	330.01	6.39	-50.1	-65.6	3.8	1.49e+00	0	43	104	1076887552	71	21846
2026-01-26 11:32:48.36	330.27	6.20	-50.1	-65.5	3.8	1.49e+00	0	43	104	1076887552	71	21696
2026-01-26 11:32:51.34	330.52	6.02	-50.1	-65.5	3.8	1.49e+00	0	43	104	1076887552	71	21723
2026-01-26 11:32:54.31	330.77	5.83	-50.1	-65.5	3.8	1.49e+00	0	43	104	1076887552	71	21718
2026-01-26 11:32:57.29	331.02	5.65	-50.1	-65.5	3.8	1.49e+00	0	43	104	1076887552	71	21653
2026-01-26 11:33:00.27	331.27	5.47	-50.1	-65.5	3.8	1.49e+00	0	43	104	1076887552	71	21687
2026-01-26 11:33:03.25	331.52	5.29	-50.1	-65.6	3.8	1.49e+00	0	43	104	1076887552	71	21785
2026-01-26 11:33:06.23	331.76	5.11	-50.1	-65.5	3.8	1.49e+00	0	43	104	1076887552	71	21580

#Closed at: 2026-01-26 11:33:09
#Recorded file [1076 MB]: D:/Data/31040_260126_142143.dat