passes_logs/2026/01/26/T1/T1__20260126_215112_NOAA_20_JPSS-1_rec.log

#Pass ID: 20260126_215112_NOAA 20 (JPSS-1)
#Satellite: NOAA 20 (JPSS-1)
#Configuration: NOAA 20
#almurnet v.1.7.20251203
#Start time: 2026-01-26 21:51:13

#Version: 2.0.20230620
#Station: T1
#Location: 37.570604 lon 55.790049 lat
#TLE: 1 43013U 17073A   26026.46665230  .00000148  00000+0  91302-4 0  9998
#TLE: 2 43013  98.7646 327.2856 0001008  22.9532 337.1688 14.19540616424360

#Time	Az	El	Level	Level2	SNR	BER	BlckErr	Temp	State	Recorded	gain1	gain2
2026-01-26 21:51:13.87	34.31	5.06	-49.0	-64.4	3.8	1.49e+00	0	41	0	0	70	20190
2026-01-26 21:51:16.85	34.62	5.21	-49.0	-64.4	3.8	1.49e+00	0	41	104	0	68	22606
2026-01-26 21:51:19.83	34.94	5.37	-49.0	-64.4	3.8	1.49e+00	0	41	104	0	68	22540
2026-01-26 21:51:22.81	35.26	5.52	-49.0	-64.4	3.8	1.49e+00	0	41	104	0	68	22548
2026-01-26 21:51:25.79	35.58	5.67	-49.0	-64.3	3.8	1.49e+00	0	41	104	0	68	22449
2026-01-26 21:51:28.77	35.91	5.83	-49.0	-64.3	3.8	1.49e+00	0	41	104	0	68	22462
2026-01-26 21:51:31.75	36.24	5.98	-49.0	-64.4	3.8	1.49e+00	0	41	104	0	68	22560
2026-01-26 21:51:34.73	36.58	6.13	-49.0	-64.3	3.8	1.49e+00	0	41	104	0	68	22456
2026-01-26 21:51:37.71	36.91	6.29	-49.0	-64.3	3.8	1.49e+00	0	42	104	0	68	22501
2026-01-26 21:51:40.69	37.25	6.44	-49.0	-64.3	3.8	1.49e+00	0	42	104	0	68	22504
2026-01-26 21:51:43.67	37.60	6.59	-49.0	-64.3	3.8	1.49e+00	0	42	104	0	68	22429
2026-01-26 21:51:46.65	37.95	6.75	-49.0	-64.3	3.8	1.49e+00	0	42	104	0	68	22498
2026-01-26 21:51:49.63	38.30	6.90	-49.0	-64.3	3.8	1.49e+00	0	42	104	0	68	22432
2026-01-26 21:51:52.61	38.65	7.06	-49.0	-64.3	3.8	1.49e+00	0	42	104	0	68	22339
2026-01-26 21:51:55.59	39.01	7.21	-49.0	-64.2	3.8	1.49e+00	0	42	104	0	68	22231
2026-01-26 21:51:58.57	39.37	7.36	-48.9	-64.2	3.8	1.49e+00	0	42	104	0	68	22189
2026-01-26 21:52:01.55	39.74	7.52	-48.9	-64.2	3.8	1.49e+00	0	42	104	0	68	22241
2026-01-26 21:52:04.53	40.11	7.67	-48.9	-64.2	3.8	1.49e+00	0	42	104	0	68	22240
2026-01-26 21:52:07.51	40.48	7.83	-48.9	-64.3	3.8	1.49e+00	0	42	104	0	68	22347
2026-01-26 21:52:10.49	40.86	7.98	-48.9	-64.0	3.8	1.49e+00	0	42	104	0	68	21680
2026-01-26 21:52:13.47	41.24	8.13	-48.9	-64.0	3.8	1.49e+00	0	42	104	0	68	21578
2026-01-26 21:52:16.45	41.63	8.29	-48.9	-64.2	3.8	1.49e+00	0	42	104	0	68	22235
2026-01-26 21:52:19.43	42.02	8.44	-48.9	-64.2	3.8	1.49e+00	0	42	104	0	68	22191
2026-01-26 21:52:22.41	42.41	8.59	-48.9	-63.9	3.8	1.49e+00	0	43	104	0	68	21308
2026-01-26 21:52:25.40	42.81	8.75	-48.8	-62.9	3.8	1.49e+00	0	43	104	0	68	19007
2026-01-26 21:52:28.37	43.21	8.90	-48.6	-59.7	4.5	1.41e+00	0	42	0	0	68	13235
2026-01-26 21:52:31.35	43.61	9.05	-47.1	-53.0	9.8	1.36e-02	0	43	0	5242880	66	6872
2026-01-26 21:52:34.33	44.02	9.20	-46.6	-51.6	11.4	1.33e-04	0	43	0	10485760	63	6945
2026-01-26 21:52:37.32	44.44	9.36	-43.7	-46.6	16.5	0.00e+00	0	43	0	14680064	59	4873
2026-01-26 21:52:40.30	44.85	9.51	-43.0	-45.7	17.4	0.00e+00	0	43	0	19922944	58	4676
2026-01-26 21:52:43.33	45.28	9.66	-42.9	-45.6	17.5	0.00e+00	0	43	0	26214400	57	4871
2026-01-26 21:52:46.31	45.71	9.81	-43.1	-45.8	17.4	0.00e+00	0	43	0	31457280	57	4995
2026-01-26 21:52:49.30	46.14	9.96	-43.1	-45.8	17.3	0.00e+00	0	43	0	36700160	57	5001
2026-01-26 21:52:52.29	46.58	10.11	-42.9	-45.6	17.6	0.00e+00	0	43	0	42991616	57	4875
2026-01-26 21:52:55.27	47.02	10.26	-43.0	-45.7	17.4	0.00e+00	0	43	0	48234496	57	4944
2026-01-26 21:52:58.26	47.46	10.41	-43.0	-45.6	17.5	0.00e+00	0	43	0	53477376	57	4916
2026-01-26 21:53:01.24	47.91	10.56	-43.2	-45.9	17.3	0.00e+00	0	43	0	59768832	57	5053
2026-01-26 21:53:04.23	48.36	10.71	-42.9	-45.6	17.6	0.00e+00	0	43	0	65011712	57	4888
2026-01-26 21:53:07.22	48.82	10.85	-42.9	-45.5	17.6	0.00e+00	0	43	0	70254592	57	4859
2026-01-26 21:53:10.20	49.28	11.00	-43.0	-45.6	17.5	0.00e+00	0	43	0	76546048	57	4925
2026-01-26 21:53:13.26	49.76	11.15	-43.1	-45.8	17.4	0.00e+00	0	43	0	81788928	57	5023
2026-01-26 21:53:16.24	50.23	11.29	-43.1	-45.7	17.5	0.00e+00	0	43	0	87031808	57	4955
2026-01-26 21:53:19.23	50.71	11.43	-43.0	-45.6	17.6	0.00e+00	0	43	0	93323264	57	4910
2026-01-26 21:53:22.21	51.18	11.58	-43.2	-45.8	17.4	0.00e+00	0	43	0	98566144	57	5027
2026-01-26 21:53:25.19	51.67	11.72	-43.3	-46.0	17.3	0.00e+00	0	43	0	103809024	57	5109
2026-01-26 21:53:28.18	52.16	11.86	-43.3	-46.0	17.2	0.00e+00	0	43	0	110100480	57	5126
2026-01-26 21:53:31.13	52.65	12.00	-43.4	-46.1	17.1	0.00e+00	0	43	0	115343360	57	5198
2026-01-26 21:53:34.43	53.20	12.15	-43.4	-46.2	17.0	0.00e+00	0	43	0	121634816	57	5256
2026-01-26 21:53:37.16	53.66	12.28	-43.5	-46.3	16.9	0.00e+00	0	43	0	126877696	57	5332
2026-01-26 21:53:41.28	54.36	12.46	-43.9	-46.8	16.4	0.00e+00	0	43	0	134217728	58	5327
2026-01-26 21:53:44.12	54.85	12.59	-44.0	-47.0	16.3	0.00e+00	0	43	0	139460608	58	5403
2026-01-26 21:53:48.10	55.54	12.77	-44.0	-47.0	16.3	0.00e+00	0	43	0	146800640	58	5418
2026-01-26 21:53:50.90	56.03	12.89	-44.0	-47.1	16.2	0.00e+00	0	43	0	152043520	58	5469
2026-01-26 21:53:54.12	56.60	13.03	-44.2	-47.2	16.0	0.00e+00	0	43	0	158334976	59	5271
2026-01-26 21:53:57.00	57.12	13.15	-44.3	-47.3	15.9	0.00e+00	0	43	0	163577856	59	5334
2026-01-26 21:54:00.12	57.68	13.29	-44.3	-47.3	16.0	0.00e+00	0	43	0	169869312	59	5302
2026-01-26 21:54:03.20	58.24	13.42	-44.3	-47.4	16.0	0.00e+00	0	43	0	175112192	59	5357
2026-01-26 21:54:06.22	58.79	13.54	-44.4	-47.5	15.9	0.00e+00	0	43	0	181403648	59	5418
2026-01-26 21:54:09.21	59.34	13.66	-44.6	-47.8	15.6	0.00e+00	0	43	0	186646528	60	5292
2026-01-26 21:54:12.19	59.90	13.78	-44.6	-47.9	15.4	0.00e+00	0	43	0	191889408	60	5395
2026-01-26 21:54:15.17	60.46	13.90	-44.4	-47.6	15.7	0.00e+00	0	43	0	198180864	60	5189
2026-01-26 21:54:18.16	61.02	14.01	-44.2	-47.3	16.0	0.00e+00	0	43	0	203423744	60	4994
2026-01-26 21:54:21.14	61.59	14.13	-44.0	-47.0	16.3	0.00e+00	0	43	0	208666624	60	4854
2026-01-26 21:54:24.12	62.16	14.24	-44.0	-47.0	16.3	0.00e+00	0	43	0	214958080	59	5126
2026-01-26 21:54:27.54	62.82	14.36	-44.0	-47.0	16.3	0.00e+00	0	43	0	221249536	59	5117
2026-01-26 21:54:30.26	63.36	14.46	-43.6	-46.4	16.9	0.00e+00	0	43	0	226492416	59	4796
2026-01-26 21:54:33.52	63.99	14.57	-43.1	-45.7	17.6	0.00e+00	0	43	0	231735296	58	4693
2026-01-26 21:54:36.29	64.54	14.67	-42.7	-45.3	18.0	0.00e+00	0	43	0	236978176	57	4716
2026-01-26 21:54:39.56	65.19	14.78	-42.9	-45.5	17.8	0.00e+00	0	43	0	243269632	57	4820
2026-01-26 21:54:42.25	65.73	14.87	-42.9	-45.4	17.9	0.00e+00	0	43	0	248512512	57	4814
2026-01-26 21:54:45.81	66.45	14.98	-43.0	-45.5	17.8	0.00e+00	0	43	0	254803968	57	4857
2026-01-26 21:54:48.52	67.00	15.06	-42.9	-45.5	17.8	0.00e+00	0	43	0	260046848	57	4826
2026-01-26 21:54:51.79	67.67	15.16	-42.8	-45.3	18.0	0.00e+00	0	43	0	266338304	57	4756
2026-01-26 21:54:54.59	68.24	15.24	-42.9	-45.5	17.7	0.00e+00	0	43	0	271581184	57	4866
2026-01-26 21:54:57.72	68.89	15.33	-43.2	-45.9	17.4	0.00e+00	0	43	0	277872640	57	5080
2026-01-26 21:55:00.56	69.48	15.41	-43.3	-46.0	17.4	0.00e+00	0	43	0	283115520	57	5101
2026-01-26 21:55:03.69	70.13	15.49	-43.4	-46.2	16.9	0.00e+00	0	43	0	288358400	57	5235
2026-01-26 21:55:06.53	70.73	15.56	-43.5	-46.3	17.0	0.00e+00	0	43	0	294649856	57	5290
2026-01-26 21:55:09.66	71.39	15.63	-43.6	-46.4	17.0	0.00e+00	0	43	0	299892736	57	5351
2026-01-26 21:55:12.73	72.04	15.71	-43.4	-46.2	17.2	0.00e+00	0	43	0	306184192	57	5219
2026-01-26 21:55:15.57	72.64	15.77	-43.4	-46.1	17.3	0.00e+00	0	43	0	311427072	57	5166
2026-01-26 21:55:18.70	73.31	15.83	-43.4	-46.1	17.2	0.00e+00	0	43	0	316669952	57	5204
2026-01-26 21:55:21.59	73.93	15.89	-43.6	-46.3	17.0	0.00e+00	0	43	0	321912832	58	5032
2026-01-26 21:55:24.86	74.64	15.95	-43.4	-46.1	17.4	0.00e+00	0	43	0	328204288	58	4873
2026-01-26 21:55:27.67	75.24	16.00	-43.1	-45.7	17.6	0.00e+00	0	43	0	333447168	58	4701
2026-01-26 21:55:31.10	75.99	16.06	-43.2	-45.8	17.5	0.00e+00	0	43	0	339738624	58	4742
2026-01-26 21:55:33.81	76.58	16.10	-43.2	-45.9	17.5	0.00e+00	0	43	0	344981504	58	4788
2026-01-26 21:55:37.06	77.29	16.15	-43.4	-46.1	17.3	0.00e+00	0	43	0	351272960	58	4902
2026-01-26 21:55:39.90	77.91	16.18	-43.4	-46.1	17.3	0.00e+00	0	43	0	356515840	58	4894
2026-01-26 21:55:43.03	78.60	16.22	-43.3	-46.0	17.4	0.00e+00	0	43	0	362807296	58	4829
2026-01-26 21:55:45.88	79.22	16.25	-43.0	-45.7	17.7	0.00e+00	0	43	0	368050176	58	4655
2026-01-26 21:55:49.09	79.93	16.28	-43.0	-45.5	17.8	0.00e+00	0	43	0	374341632	57	4869
2026-01-26 21:55:51.93	80.56	16.30	-43.0	-45.6	17.7	0.00e+00	0	43	0	379584512	57	4913
2026-01-26 21:55:55.06	81.25	16.33	-43.1	-45.7	17.7	0.00e+00	0	43	0	384827392	57	4964
2026-01-26 21:55:58.04	81.91	16.34	-43.0	-45.7	17.7	0.00e+00	0	43	0	391118848	57	4947
2026-01-26 21:56:01.03	82.57	16.36	-42.9	-45.5	17.9	0.00e+00	0	43	0	396361728	57	4825
2026-01-26 21:56:04.01	83.23	16.37	-42.8	-45.4	18.0	0.00e+00	0	43	0	401604608	57	4770
2026-01-26 21:56:07.00	83.90	16.37	-43.0	-45.7	17.6	0.00e+00	0	43	0	407896064	57	4955
2026-01-26 21:56:09.99	84.56	16.38	-42.9	-45.5	17.8	0.00e+00	0	43	0	413138944	57	4857
2026-01-26 21:56:12.97	85.22	16.38	-42.9	-45.4	17.9	0.00e+00	0	43	0	418381824	57	4809
2026-01-26 21:56:15.96	85.89	16.37	-42.6	-45.1	18.2	0.00e+00	0	43	0	424673280	57	4642
2026-01-26 21:56:18.94	86.55	16.36	-42.7	-45.2	18.1	0.00e+00	0	43	0	429916160	57	4692
2026-01-26 21:56:21.99	87.23	16.35	-42.8	-45.3	18.0	0.00e+00	0	43	0	435159040	57	4751
2026-01-26 21:56:24.97	87.89	16.34	-43.0	-45.5	17.8	0.00e+00	0	43	0	441450496	57	4867
2026-01-26 21:56:27.95	88.55	16.32	-43.0	-45.7	17.7	0.00e+00	0	43	0	446693376	57	4952
2026-01-26 21:56:30.94	89.21	16.30	-42.7	-45.3	18.1	0.00e+00	0	43	0	451936256	57	4712
2026-01-26 21:56:33.92	89.87	16.27	-42.6	-45.1	18.2	0.00e+00	0	43	0	458227712	57	4646
2026-01-26 21:56:36.98	90.54	16.24	-42.8	-45.4	18.0	0.00e+00	0	43	0	463470592	57	4790
2026-01-26 21:56:39.97	91.20	16.21	-42.7	-45.3	18.1	0.00e+00	0	44	0	469762048	57	4716
2026-01-26 21:56:42.95	91.85	16.17	-42.6	-45.1	18.2	0.00e+00	0	43	0	475004928	57	4640
2026-01-26 21:56:45.93	92.51	16.13	-42.4	-44.8	18.5	0.00e+00	0	43	0	480247808	56	4725
2026-01-26 21:56:48.96	93.17	16.08	-42.5	-45.0	18.4	0.00e+00	0	43	0	486539264	56	4815
2026-01-26 21:56:51.97	93.82	16.04	-42.3	-44.7	18.7	0.00e+00	0	44	0	491782144	56	4663
2026-01-26 21:56:54.96	94.47	15.99	-42.2	-44.6	18.7	0.00e+00	0	43	0	497025024	56	4631
2026-01-26 21:56:57.94	95.12	15.93	-42.1	-44.5	18.9	0.00e+00	0	43	0	503316480	56	4553
2026-01-26 21:57:00.93	95.76	15.88	-42.1	-44.4	18.9	0.00e+00	0	43	0	508559360	56	4524
2026-01-26 21:57:03.95	96.41	15.81	-42.5	-44.9	18.4	0.00e+00	0	43	0	514850816	56	4803
2026-01-26 21:57:06.93	97.05	15.75	-42.5	-44.9	18.5	0.00e+00	0	43	0	520093696	56	4782
2026-01-26 21:57:09.92	97.69	15.68	-42.1	-44.4	18.9	0.00e+00	0	43	0	525336576	56	4535
2026-01-26 21:57:12.90	98.32	15.61	-41.6	-43.9	19.2	0.00e+00	0	43	0	531628032	55	4521
2026-01-26 21:57:15.89	98.95	15.54	-41.5	-43.7	19.4	0.00e+00	0	44	0	536870912	54	4684
2026-01-26 21:57:18.87	99.58	15.46	-41.6	-43.8	19.3	0.00e+00	0	43	0	542113792	54	4742
2026-01-26 21:57:21.86	100.20	15.38	-41.7	-44.0	19.1	0.00e+00	0	43	0	548405248	54	4840
2026-01-26 21:57:24.84	100.82	15.30	-41.9	-44.3	18.8	0.00e+00	0	43	0	553648128	54	5013
2026-01-26 21:57:27.82	101.44	15.22	-41.7	-44.0	19.1	0.00e+00	0	43	0	558891008	54	4856
2026-01-26 21:57:30.84	102.06	15.13	-41.5	-43.7	19.4	0.00e+00	0	43	0	565182464	54	4699
2026-01-26 21:57:33.89	102.68	15.04	-41.5	-43.7	19.4	0.00e+00	0	43	0	570425344	54	4692
2026-01-26 21:57:36.95	103.31	14.94	-41.8	-44.2	19.0	0.00e+00	0	43	0	576716800	54	4934
2026-01-26 21:57:39.80	103.88	14.85	-42.4	-44.9	18.3	0.00e+00	0	43	0	581959680	55	5045
2026-01-26 21:57:42.93	104.51	14.75	-42.5	-44.9	18.2	0.00e+00	0	43	0	587202560	55	5096
2026-01-26 21:57:45.77	105.08	14.65	-42.2	-44.6	18.6	0.00e+00	0	43	0	592445440	55	4905
2026-01-26 21:57:49.01	105.72	14.54	-42.4	-44.9	18.3	0.00e+00	0	44	0	598736896	55	5058
2026-01-26 21:57:51.85	106.28	14.44	-42.3	-44.7	18.4	0.00e+00	0	43	0	603979776	55	4977
2026-01-26 21:57:55.16	106.92	14.32	-42.4	-44.9	18.3	0.00e+00	0	43	0	610271232	55	5067
2026-01-26 21:57:57.88	107.45	14.22	-43.2	-45.9	17.4	0.00e+00	0	43	0	615514112	57	5055
2026-01-26 21:58:01.16	108.08	14.09	-44.0	-47.0	16.4	0.00e+00	0	43	0	621805568	58	5424
2026-01-26 21:58:03.86	108.60	13.99	-44.2	-47.3	16.1	0.00e+00	0	43	0	627048448	59	5291
2026-01-26 21:58:07.14	109.22	13.86	-44.3	-47.4	15.9	0.00e+00	0	43	0	633339904	59	5360
2026-01-26 21:58:09.87	109.74	13.75	-44.2	-47.2	16.1	0.00e+00	0	43	0	637534208	59	5254
2026-01-26 21:58:13.18	110.35	13.62	-43.8	-46.8	16.6	0.00e+00	0	43	0	643825664	59	4984
2026-01-26 21:58:15.89	110.86	13.51	-43.8	-46.7	16.6	0.00e+00	0	43	0	649068544	59	4956
2026-01-26 21:58:19.16	111.46	13.37	-44.0	-46.9	16.3	0.00e+00	0	43	0	655360000	59	5099
2026-01-26 21:58:22.10	111.99	13.25	-44.2	-47.3	16.0	0.00e+00	0	43	0	660602880	59	5326
2026-01-26 21:58:25.08	112.53	13.12	-44.5	-47.8	15.5	0.00e+00	0	43	0	666894336	59	5609
2026-01-26 21:58:28.08	113.07	12.99	-44.4	-47.6	15.7	7.00e-07	0	43	0	672137216	59	5481
2026-01-26 21:58:31.03	113.59	12.86	-44.1	-47.1	16.1	0.00e+00	0	43	0	677380096	59	5217
2026-01-26 21:58:34.16	114.14	12.72	-44.0	-47.0	16.3	0.00e+00	0	43	0	683671552	59	5114
2026-01-26 21:58:37.00	114.64	12.59	-44.0	-46.9	16.3	0.00e+00	0	43	0	688914432	59	5096
2026-01-26 21:58:40.13	115.18	12.45	-43.6	-46.4	16.8	0.00e+00	0	44	0	695205888	59	4811
2026-01-26 21:58:43.02	115.68	12.32	-43.2	-45.9	17.3	0.00e+00	0	43	0	700448768	58	4804
2026-01-26 21:58:46.12	116.20	12.18	-43.3	-46.0	17.2	0.00e+00	0	43	0	705691648	58	4848
2026-01-26 21:58:48.97	116.68	12.04	-43.6	-46.4	16.9	0.00e+00	0	43	0	710934528	58	5058
2026-01-26 21:58:52.09	117.20	11.90	-43.7	-46.6	16.7	0.00e+00	0	43	0	717225984	58	5195
2026-01-26 21:58:54.94	117.68	11.76	-44.0	-46.9	16.4	0.00e+00	0	43	0	722468864	58	5381
2026-01-26 21:58:58.06	118.19	11.61	-43.6	-46.4	16.9	0.00e+00	0	43	0	728760320	58	5063
2026-01-26 21:59:00.91	118.65	11.48	-42.9	-45.4	17.8	0.00e+00	0	44	0	734003200	57	4812
2026-01-26 21:59:04.03	119.15	11.33	-42.7	-45.2	18.0	0.00e+00	0	43	0	739246080	57	4696
2026-01-26 21:59:06.88	119.60	11.19	-43.1	-45.8	17.5	0.00e+00	0	43	0	744488960	57	4988
2026-01-26 21:59:10.12	120.12	11.03	-43.2	-46.1	17.2	0.00e+00	0	43	0	750780416	57	5162
2026-01-26 21:59:12.96	120.56	10.89	-43.1	-45.8	17.4	0.00e+00	0	43	0	756023296	57	5023
2026-01-26 21:59:16.05	121.04	10.73	-43.4	-46.1	17.1	0.00e+00	0	44	0	762314752	57	5200
2026-01-26 21:59:19.04	121.49	10.59	-43.4	-46.2	17.0	0.00e+00	0	43	0	767557632	57	5265
2026-01-26 21:59:22.02	121.95	10.44	-43.0	-45.8	17.3	0.00e+00	0	43	0	772800512	57	5034
2026-01-26 21:59:25.01	122.39	10.29	-42.8	-45.7	17.5	0.00e+00	0	43	0	779091968	57	4931
2026-01-26 21:59:27.99	122.84	10.14	-43.2	-46.0	17.2	0.00e+00	0	43	0	784334848	57	5129
2026-01-26 21:59:30.98	123.28	9.98	-43.6	-46.5	16.7	0.00e+00	0	43	0	789577728	58	5106
2026-01-26 21:59:33.96	123.71	9.83	-43.6	-46.4	16.8	0.00e+00	0	43	0	795869184	58	5055
2026-01-26 21:59:36.95	124.14	9.68	-43.3	-46.0	17.2	0.00e+00	0	43	0	801112064	58	4840
2026-01-26 21:59:39.94	124.57	9.53	-43.3	-46.1	16.9	0.00e+00	0	43	0	806354944	58	4896
2026-01-26 21:59:42.92	124.99	9.37	-43.8	-46.8	16.3	0.00e+00	0	43	0	812646400	58	5286
2026-01-26 21:59:45.90	125.41	9.22	-43.8	-46.9	16.3	0.00e+00	0	44	0	817889280	58	5342
2026-01-26 21:59:48.89	125.82	9.07	-43.5	-46.3	16.8	0.00e+00	0	43	0	823132160	58	5033
2026-01-26 21:59:51.87	126.23	8.91	-49.4	-64.6	3.8	1.49e+00	0	43	104	827326464	69	21932
2026-01-26 21:59:54.85	126.63	8.76	-49.6	-64.9	3.8	1.49e+00	0	43	104	827326464	69	22575
2026-01-26 21:59:57.83	127.03	8.60	-49.7	-65.0	3.8	1.49e+00	0	43	104	827326464	70	21639
2026-01-26 22:00:00.81	127.43	8.45	-49.7	-65.0	3.8	1.49e+00	0	43	104	827326464	70	21724
2026-01-26 22:00:03.79	127.82	8.29	-49.5	-65.1	3.8	1.49e+00	0	43	104	827326464	70	21889
2026-01-26 22:00:06.78	128.21	8.14	-49.5	-65.1	3.8	1.49e+00	0	43	104	827326464	70	21904
2026-01-26 22:00:09.76	128.59	7.98	-49.4	-65.1	3.8	1.49e+00	0	43	104	827326464	70	21796
2026-01-26 22:00:12.74	128.97	7.83	-49.5	-65.0	3.8	1.49e+00	0	44	104	827326464	70	21735
2026-01-26 22:00:15.72	129.35	7.67	-49.5	-65.0	3.8	1.49e+00	0	43	104	827326464	70	21675
2026-01-26 22:00:18.70	129.72	7.52	-49.4	-65.0	3.8	1.49e+00	0	43	104	827326464	70	21628
2026-01-26 22:00:21.68	130.09	7.36	-49.4	-65.0	3.8	1.49e+00	0	44	104	827326464	70	21597
2026-01-26 22:00:24.66	130.46	7.21	-49.4	-65.0	3.8	1.49e+00	0	43	104	827326464	70	21614
2026-01-26 22:00:27.64	130.82	7.05	-49.4	-65.0	3.8	1.49e+00	0	43	104	827326464	70	21626
2026-01-26 22:00:30.62	131.17	6.89	-49.4	-65.0	3.8	1.49e+00	0	43	104	827326464	70	21643
2026-01-26 22:00:33.60	131.53	6.74	-49.4	-65.0	3.8	1.49e+00	0	43	104	827326464	70	21543
2026-01-26 22:00:36.58	131.88	6.58	-49.4	-64.9	3.8	1.49e+00	0	43	104	827326464	70	21445
2026-01-26 22:00:39.57	132.23	6.43	-49.4	-65.0	3.8	1.49e+00	0	43	104	827326464	70	21578
2026-01-26 22:00:42.55	132.57	6.27	-49.4	-65.0	3.8	1.49e+00	0	43	104	827326464	70	21526
2026-01-26 22:00:45.53	132.91	6.12	-49.4	-65.0	3.8	1.49e+00	0	44	104	827326464	70	21659
2026-01-26 22:00:48.51	133.24	5.96	-49.4	-65.0	3.8	1.49e+00	0	43	104	827326464	70	21559
2026-01-26 22:00:51.49	133.58	5.80	-49.4	-65.0	3.8	1.49e+00	0	43	104	827326464	70	21523
2026-01-26 22:00:54.47	133.90	5.65	-49.4	-65.0	3.8	1.49e+00	0	43	104	827326464	70	21527
2026-01-26 22:00:57.45	134.23	5.49	-49.4	-64.9	3.8	1.49e+00	0	43	104	827326464	70	21479
2026-01-26 22:01:00.43	134.55	5.34	-49.4	-65.0	3.8	1.49e+00	0	43	104	827326464	70	21526
2026-01-26 22:01:03.41	134.87	5.18	-49.4	-64.9	3.8	1.49e+00	0	44	104	827326464	70	21429
2026-01-26 22:01:06.40	135.19	5.03	-49.4	-64.9	3.8	1.49e+00	0	44	104	827326464	70	21448

#Closed at: 2026-01-26 22:01:08
#Recorded file [827 MB]: D:/Data/31040_260127_005113.dat