passes_logs/2026/01/26/T1/T1__20260126_101833_FENGYUN_3D_rec.log

#Pass ID: 20260126_101833_FENGYUN 3D
#Satellite: FENGYUN 3D
#Configuration: FENGYUN 3D
#almurnet v.1.7.20251203
#Start time: 2026-01-26 10:18:35

#Version: 2.0.20230620
#Station: T1
#Location: 37.570604 lon 55.790049 lat
#TLE: 1 43010U 17072A   26025.85700374 -.00000071  00000+0 -11715-4 0  9992
#TLE: 2 43010  98.9962 357.8423 0002518  90.2035 269.9429 14.19699460424796

#Time	Az	El	Level	Level2	SNR	BER	BlckErr	Temp	State	Recorded	gain1	gain2
2026-01-26 10:18:35.48	106.50	5.13	-49.4	-61.4	3.8	8.47e-01	0	41	0	0	70	14354
2026-01-26 10:18:38.46	106.24	5.31	-49.4	-61.4	3.8	8.48e-01	0	41	104	0	70	14328
2026-01-26 10:18:41.44	105.99	5.49	-49.4	-61.5	3.8	8.47e-01	0	41	104	0	70	14375
2026-01-26 10:18:44.41	105.73	5.67	-49.4	-61.5	3.8	8.46e-01	0	41	104	0	70	14459
2026-01-26 10:18:47.39	105.47	5.85	-49.4	-61.5	3.8	8.46e-01	0	41	104	0	70	14422
2026-01-26 10:18:50.37	105.20	6.03	-49.4	-61.4	3.8	8.47e-01	0	41	104	0	70	14300
2026-01-26 10:18:53.35	104.93	6.22	-49.3	-61.4	3.8	8.47e-01	0	42	104	0	70	14278
2026-01-26 10:18:56.33	104.66	6.40	-49.3	-61.4	3.8	8.47e-01	0	42	104	0	70	14330
2026-01-26 10:18:59.31	104.38	6.59	-49.3	-61.4	3.8	8.46e-01	0	42	104	0	70	14321
2026-01-26 10:19:02.29	104.10	6.77	-49.3	-61.3	3.8	8.47e-01	0	42	104	0	70	14146
2026-01-26 10:19:05.27	103.82	6.96	-49.3	-60.9	3.8	8.46e-01	0	42	104	0	70	13456
2026-01-26 10:19:08.25	103.53	7.14	-49.2	-60.5	3.8	8.47e-01	0	42	104	0	70	12907
2026-01-26 10:19:11.23	103.24	7.33	-49.3	-61.0	3.8	8.47e-01	0	42	104	0	70	13573
2026-01-26 10:19:14.21	102.95	7.52	-49.3	-61.2	3.8	8.46e-01	0	42	104	0	70	13977
2026-01-26 10:19:17.19	102.65	7.71	-49.2	-60.3	3.8	8.47e-01	0	42	104	0	70	12582
2026-01-26 10:19:20.17	102.35	7.90	-49.2	-59.8	3.8	8.47e-01	0	42	104	0	70	11843
2026-01-26 10:19:23.15	102.04	8.09	-48.9	-58.2	4.1	8.46e-01	0	42	0	0	69	10425
2026-01-26 10:19:26.13	101.73	8.28	-45.1	-48.5	11.7	1.70e-03	0	42	0	11534336	62	5114
2026-01-26 10:19:29.11	101.41	8.47	-41.3	-43.6	16.3	0.00e+00	0	42	0	28311552	54	4638
2026-01-26 10:19:32.09	101.10	8.66	-40.7	-43.0	17.0	0.00e+00	0	42	0	45088768	53	4549
2026-01-26 10:19:35.07	100.77	8.85	-43.1	-45.8	14.4	1.10e-06	0	42	0	61865984	56	5298
2026-01-26 10:19:38.05	100.44	9.04	-47.5	-53.2	6.9	1.37e-01	0	43	0	78643200	65	7374
2026-01-26 10:19:41.03	100.11	9.24	-49.3	-60.7	3.8	8.36e-01	0	43	104	93323264	69	13958
2026-01-26 10:19:44.01	99.77	9.43	-42.4	-44.8	15.4	2.46e-04	0	43	0	101711872	56	4719
2026-01-26 10:19:47.00	99.43	9.63	-40.2	-42.3	17.8	0.00e+00	0	43	0	118489088	51	4711
2026-01-26 10:19:49.98	99.08	9.82	-39.5	-41.5	18.5	0.00e+00	0	43	0	135266304	50	4561
2026-01-26 10:19:52.97	98.73	10.02	-39.4	-41.4	18.7	0.00e+00	0	43	0	152043520	50	4502
2026-01-26 10:19:55.95	98.38	10.22	-39.3	-41.3	18.7	0.00e+00	0	43	0	168820736	50	4473
2026-01-26 10:19:58.93	98.02	10.41	-39.2	-41.3	18.8	0.00e+00	0	43	0	185597952	50	4444
2026-01-26 10:20:01.92	97.65	10.61	-39.3	-41.3	18.7	0.00e+00	0	43	0	202375168	50	4473
2026-01-26 10:20:04.90	97.28	10.81	-39.2	-41.2	18.8	0.00e+00	0	43	0	219152384	50	4431
2026-01-26 10:20:07.89	96.90	11.01	-39.0	-41.0	19.0	0.00e+00	0	43	0	235929600	50	4328
2026-01-26 10:20:10.86	96.52	11.20	-38.7	-40.6	19.4	0.00e+00	0	43	0	252706816	49	4390
2026-01-26 10:20:13.85	96.13	11.40	-38.7	-40.7	19.4	0.00e+00	0	43	0	269484032	49	4401
2026-01-26 10:20:16.83	95.74	11.60	-38.9	-40.9	19.2	0.00e+00	0	43	0	286261248	49	4504
2026-01-26 10:20:19.81	95.34	11.80	-38.9	-40.8	19.2	0.00e+00	0	43	0	303038464	49	4487
2026-01-26 10:20:22.80	94.94	12.00	-38.8	-40.8	19.3	0.00e+00	0	43	0	319815680	49	4458
2026-01-26 10:20:25.78	94.53	12.20	-38.7	-40.7	19.4	0.00e+00	0	43	0	336592896	49	4403
2026-01-26 10:20:28.76	94.12	12.40	-38.5	-40.4	19.6	0.00e+00	0	43	0	353370112	49	4286
2026-01-26 10:20:31.75	93.70	12.60	-38.3	-40.2	19.8	0.00e+00	0	43	0	370147328	48	4431
2026-01-26 10:20:34.73	93.27	12.80	-38.4	-40.4	19.7	0.00e+00	0	43	0	386924544	48	4495
2026-01-26 10:20:37.72	92.84	13.00	-38.3	-40.2	19.9	0.00e+00	0	43	0	403701760	48	4404
2026-01-26 10:20:40.70	92.40	13.20	-38.1	-40.0	20.0	0.00e+00	0	43	0	420478976	48	4304
2026-01-26 10:20:43.69	91.96	13.41	-38.2	-40.1	19.9	0.00e+00	0	43	0	437256192	48	4385
2026-01-26 10:20:46.67	91.51	13.61	-38.1	-40.0	20.1	0.00e+00	0	43	0	454033408	48	4322
2026-01-26 10:20:49.65	91.05	13.81	-38.1	-39.9	20.1	0.00e+00	0	43	0	470810624	48	4290
2026-01-26 10:20:52.64	90.59	14.01	-38.0	-39.8	20.2	0.00e+00	0	43	0	487587840	48	4239
2026-01-26 10:20:55.62	90.12	14.21	-38.1	-40.0	20.1	0.00e+00	0	43	0	504365056	48	4329
2026-01-26 10:20:58.60	89.64	14.41	-38.1	-40.0	20.1	0.00e+00	0	43	0	521142272	48	4304
2026-01-26 10:21:01.59	89.16	14.61	-38.0	-39.9	20.1	0.00e+00	0	43	0	537919488	48	4280
2026-01-26 10:21:04.57	88.67	14.80	-37.7	-39.6	20.2	0.00e+00	0	43	0	554696704	47	4379
2026-01-26 10:21:07.56	88.17	15.00	-37.6	-39.5	20.3	0.00e+00	0	44	0	571473920	47	4303
2026-01-26 10:21:10.54	87.67	15.20	-37.6	-39.5	20.3	0.00e+00	0	43	0	588251136	47	4304
2026-01-26 10:21:13.53	87.16	15.40	-37.6	-39.5	20.3	0.00e+00	0	43	0	605028352	47	4333
2026-01-26 10:21:16.51	86.65	15.60	-37.6	-39.5	20.3	0.00e+00	0	43	0	621805568	47	4303
2026-01-26 10:21:19.49	86.13	15.79	-37.6	-39.5	20.3	0.00e+00	0	43	0	638582784	47	4302
2026-01-26 10:21:22.48	85.60	15.99	-37.6	-39.5	20.3	0.00e+00	0	43	0	655360000	47	4310
2026-01-26 10:21:25.46	85.06	16.18	-37.4	-39.3	20.5	0.00e+00	0	43	0	672137216	46	4447
2026-01-26 10:21:28.44	84.52	16.37	-37.4	-39.3	20.5	0.00e+00	0	43	0	688914432	46	4442
2026-01-26 10:21:31.43	83.97	16.56	-37.4	-39.3	20.5	0.00e+00	0	43	0	705691648	46	4446
2026-01-26 10:21:34.41	83.41	16.75	-37.4	-39.3	20.5	0.00e+00	0	43	0	722468864	46	4449
2026-01-26 10:21:37.39	82.85	16.94	-37.5	-39.4	20.4	0.00e+00	0	43	0	739246080	46	4503
2026-01-26 10:21:40.38	82.27	17.13	-37.2	-39.1	20.7	0.00e+00	0	43	0	756023296	46	4346
2026-01-26 10:21:43.36	81.69	17.32	-36.8	-38.6	21.1	0.00e+00	0	43	0	772800512	45	4367
2026-01-26 10:21:46.35	81.11	17.50	-37.0	-38.9	20.9	0.00e+00	0	43	0	789577728	45	4497
2026-01-26 10:21:49.33	80.51	17.69	-37.1	-39.0	20.8	0.00e+00	0	43	0	806354944	45	4565
2026-01-26 10:21:52.31	79.91	17.87	-37.0	-38.8	20.9	0.00e+00	0	43	0	823132160	45	4493
2026-01-26 10:21:55.30	79.30	18.05	-37.1	-38.9	20.8	0.00e+00	0	43	0	839909376	45	4540
2026-01-26 10:21:58.28	78.69	18.22	-36.9	-38.7	21.0	0.00e+00	0	43	0	857735168	45	4424
2026-01-26 10:22:01.27	78.07	18.40	-36.7	-38.5	21.3	0.00e+00	0	43	0	873463808	45	4295
2026-01-26 10:22:04.25	77.44	18.57	-36.7	-38.5	21.3	0.00e+00	0	43	0	890241024	45	4302
2026-01-26 10:22:07.23	76.80	18.74	-36.5	-38.3	21.4	0.00e+00	0	43	0	907018240	44	4455
2026-01-26 10:22:10.22	76.16	18.91	-36.5	-38.3	21.4	0.00e+00	0	43	0	923795456	44	4454
2026-01-26 10:22:13.20	75.51	19.07	-36.3	-38.1	21.5	0.00e+00	0	44	0	940572672	44	4376
2026-01-26 10:22:16.18	74.85	19.23	-36.1	-37.9	21.7	0.00e+00	0	43	0	958398464	44	4255
2026-01-26 10:22:19.17	74.18	19.39	-36.2	-38.0	21.7	0.00e+00	0	44	0	974127104	44	4303
2026-01-26 10:22:22.16	73.51	19.55	-36.3	-38.1	21.6	0.00e+00	0	43	0	990904320	44	4353
2026-01-26 10:22:25.14	72.83	19.70	-36.2	-38.0	21.6	0.00e+00	0	44	0	1008730112	44	4323
2026-01-26 10:22:28.12	72.15	19.85	-36.4	-38.3	21.4	0.00e+00	0	44	0	1024458752	44	4443
2026-01-26 10:22:31.10	71.45	20.00	-36.5	-38.3	21.4	0.00e+00	0	43	0	1041235968	44	4478
2026-01-26 10:22:34.08	70.76	20.14	-36.5	-38.3	21.4	0.00e+00	0	43	0	1059061760	44	4448
2026-01-26 10:22:37.07	70.05	20.28	-36.4	-38.2	21.4	0.00e+00	0	43	0	1074790400	44	4431
2026-01-26 10:22:40.05	69.34	20.41	-36.3	-38.2	21.5	0.00e+00	0	43	0	1091567616	44	4398
2026-01-26 10:22:43.03	68.62	20.54	-36.2	-38.0	21.7	0.00e+00	0	44	0	1109393408	44	4316
2026-01-26 10:22:46.02	67.90	20.67	-35.8	-37.6	21.9	0.00e+00	0	43	0	1125122048	43	4351
2026-01-26 10:22:49.00	67.17	20.79	-35.6	-37.4	22.0	0.00e+00	0	43	0	1141899264	43	4254
2026-01-26 10:22:51.99	66.43	20.91	-35.6	-37.4	22.0	0.00e+00	0	43	0	1159725056	43	4276
2026-01-26 10:22:54.98	65.69	21.02	-35.6	-37.4	22.0	0.00e+00	0	44	0	1175453696	43	4273
2026-01-26 10:22:57.97	64.94	21.13	-35.7	-37.4	22.0	0.00e+00	0	43	0	1192230912	43	4285
2026-01-26 10:23:00.95	64.19	21.24	-35.7	-37.4	22.0	0.00e+00	0	43	0	1210056704	43	4275
2026-01-26 10:23:03.93	63.44	21.34	-35.8	-37.6	21.9	0.00e+00	0	44	0	1225785344	43	4349
2026-01-26 10:23:06.91	62.67	21.43	-35.8	-37.6	21.8	0.00e+00	0	43	0	1243611136	43	4357
2026-01-26 10:23:09.89	61.91	21.52	-36.0	-37.8	21.6	0.00e+00	0	43	0	1260388352	43	4448
2026-01-26 10:23:12.88	61.14	21.60	-36.0	-37.9	21.6	0.00e+00	0	44	0	1276116992	43	4501
2026-01-26 10:23:15.87	60.36	21.68	-35.5	-37.3	22.1	0.00e+00	0	44	0	1293942784	43	4208
2026-01-26 10:23:18.85	59.59	21.76	-35.5	-37.2	22.1	0.00e+00	0	43	0	1310720000	42	4440
2026-01-26 10:23:21.84	58.80	21.83	-35.5	-37.3	22.1	0.00e+00	0	43	0	1327497216	42	4454
2026-01-26 10:23:24.82	58.02	21.89	-35.5	-37.3	22.1	0.00e+00	0	43	0	1344274432	42	4463
2026-01-26 10:23:27.80	57.23	21.95	-35.4	-37.2	22.2	0.00e+00	0	44	0	1361051648	42	4400
2026-01-26 10:23:30.79	56.44	22.00	-35.3	-37.1	22.3	0.00e+00	0	43	0	1377828864	42	4355
2026-01-26 10:23:33.77	55.65	22.04	-35.7	-37.4	22.5	0.00e+00	0	43	0	1394606080	42	4512
2026-01-26 10:23:36.75	54.85	22.08	-35.8	-37.5	22.5	0.00e+00	0	43	0	1411383296	42	4553
2026-01-26 10:23:39.74	54.05	22.12	-35.6	-37.3	22.6	0.00e+00	0	44	0	1428160512	42	4480
2026-01-26 10:23:42.72	53.26	22.14	-35.3	-37.0	22.9	0.00e+00	0	43	0	1444937728	42	4316
2026-01-26 10:23:45.71	52.46	22.17	-35.4	-37.0	22.8	0.00e+00	0	43	0	1461714944	42	4335
2026-01-26 10:23:48.69	51.66	22.18	-35.5	-37.2	22.7	0.00e+00	0	43	0	1478492160	42	4414
2026-01-26 10:23:51.68	50.85	22.19	-35.6	-37.2	22.6	0.00e+00	0	43	0	1495269376	42	4436
2026-01-26 10:23:54.66	50.05	22.20	-35.8	-37.5	22.4	0.00e+00	0	43	0	1512046592	42	4577
2026-01-26 10:23:57.65	49.25	22.20	-35.8	-37.5	22.5	0.00e+00	0	44	0	1528823808	42	4550
2026-01-26 10:24:00.63	48.45	22.19	-35.7	-37.4	22.5	0.00e+00	0	43	0	1545601024	42	4501
2026-01-26 10:24:03.62	47.65	22.18	-35.6	-37.2	22.6	0.00e+00	0	44	0	1562378240	42	4441
2026-01-26 10:24:06.60	46.85	22.16	-35.6	-37.3	22.6	0.00e+00	0	43	0	1579155456	42	4464
2026-01-26 10:24:09.59	46.05	22.13	-35.4	-37.0	22.9	0.00e+00	0	43	0	1595932672	42	4326
2026-01-26 10:24:12.57	45.25	22.10	-35.6	-37.2	22.7	0.00e+00	0	43	0	1612709888	42	4434
2026-01-26 10:24:15.56	44.45	22.06	-35.3	-37.0	22.9	0.00e+00	0	43	0	1629487104	42	4306
2026-01-26 10:24:18.54	43.66	22.02	-35.5	-37.1	22.8	0.00e+00	0	43	0	1646264320	42	4375
2026-01-26 10:24:21.53	42.87	21.97	-35.4	-37.1	22.8	0.00e+00	0	43	0	1663041536	42	4368
2026-01-26 10:24:24.51	42.08	21.92	-35.3	-37.0	22.9	0.00e+00	0	43	0	1679818752	42	4299
2026-01-26 10:24:27.49	41.30	21.86	-35.5	-37.1	22.8	0.00e+00	0	44	0	1696595968	42	4387
2026-01-26 10:24:30.48	40.51	21.79	-35.5	-37.2	22.7	0.00e+00	0	43	0	1713373184	42	4399
2026-01-26 10:24:33.47	39.73	21.72	-35.4	-37.1	22.7	0.00e+00	0	43	0	1730150400	42	4377
2026-01-26 10:24:36.45	38.96	21.64	-35.4	-37.1	22.8	0.00e+00	0	43	0	1746927616	42	4353
2026-01-26 10:24:39.44	38.19	21.56	-35.7	-37.3	22.6	0.00e+00	0	43	0	1763704832	42	4482
2026-01-26 10:24:42.42	37.42	21.47	-35.7	-37.4	22.5	0.00e+00	0	43	0	1780482048	42	4528
2026-01-26 10:24:45.41	36.66	21.38	-35.6	-37.3	22.6	0.00e+00	0	44	0	1797259264	42	4466
2026-01-26 10:24:48.39	35.90	21.28	-35.8	-37.5	22.4	0.00e+00	0	43	0	1814036480	42	4585
2026-01-26 10:24:51.37	35.15	21.18	-35.6	-37.3	22.6	0.00e+00	0	43	0	1830813696	42	4467
2026-01-26 10:24:54.36	34.40	21.07	-35.5	-37.2	22.7	0.00e+00	0	43	0	1847590912	42	4406
2026-01-26 10:24:57.34	33.66	20.96	-35.6	-37.3	22.6	0.00e+00	0	43	0	1864368128	42	4482
2026-01-26 10:25:00.33	32.92	20.85	-35.6	-37.3	22.6	0.00e+00	0	43	0	1881145344	42	4467
2026-01-26 10:25:03.31	32.19	20.73	-35.8	-37.5	22.5	0.00e+00	0	43	0	1897922560	42	4568
2026-01-26 10:25:06.30	31.47	20.60	-35.8	-37.5	22.4	0.00e+00	0	43	0	1914699776	42	4584
2026-01-26 10:25:09.28	30.75	20.47	-36.0	-37.7	22.3	0.00e+00	0	43	0	1931476992	42	4659
2026-01-26 10:25:12.27	30.04	20.34	-35.9	-37.5	22.4	0.00e+00	0	43	0	1948254208	42	4592
2026-01-26 10:25:15.26	29.33	20.20	-35.9	-37.6	22.4	0.00e+00	0	43	0	1965031424	42	4600
2026-01-26 10:25:18.24	28.63	20.06	-36.0	-37.6	22.3	0.00e+00	0	43	0	1981808640	42	4641
2026-01-26 10:25:21.22	27.94	19.92	-35.9	-37.6	22.3	0.00e+00	0	43	0	1998585856	42	4632
2026-01-26 10:25:24.21	27.25	19.77	-36.0	-37.6	22.3	0.00e+00	0	43	0	2015363072	42	4649
2026-01-26 10:25:27.19	26.57	19.62	-36.1	-37.9	22.1	0.00e+00	0	43	0	2032140288	42	4768
2026-01-26 10:25:30.18	25.90	19.47	-36.1	-37.8	22.2	0.00e+00	0	43	0	2048917504	43	4483
2026-01-26 10:25:33.16	25.23	19.31	-36.2	-38.0	22.0	0.00e+00	0	43	0	2065694720	43	4556
2026-01-26 10:25:36.15	24.57	19.15	-36.4	-38.2	21.8	0.00e+00	0	43	0	2082471936	43	4672
2026-01-26 10:25:39.13	23.92	18.99	-36.2	-37.9	22.1	0.00e+00	0	43	0	2099249152	43	4498
2026-01-26 10:25:42.11	23.28	18.82	-36.3	-38.0	21.9	0.00e+00	0	43	0	2116026368	43	4580
2026-01-26 10:25:45.10	22.64	18.65	-36.4	-38.1	21.9	0.00e+00	0	43	0	2132803584	43	4618
2026-01-26 10:25:48.09	22.01	18.48	-36.3	-38.0	21.9	0.00e+00	0	43	0	2149580800	43	4578
2026-01-26 10:25:51.07	21.38	18.31	-36.5	-38.3	21.7	0.00e+00	0	43	0	2166358016	43	4713
2026-01-26 10:25:54.05	20.77	18.13	-37.1	-38.9	18.1	0.00e+00	0	43	0	2183135232	44	4768
2026-01-26 10:25:57.04	20.16	17.96	-36.8	-38.6	21.5	0.00e+00	0	43	0	2199912448	44	4613
2026-01-26 10:26:00.03	19.56	17.78	-37.0	-38.7	21.4	0.00e+00	0	43	0	2216689664	44	4696
2026-01-26 10:26:03.01	18.96	17.59	-36.8	-38.5	21.6	0.00e+00	0	43	0	2233466880	44	4575
2026-01-26 10:26:06.00	18.38	17.41	-36.7	-38.4	21.7	0.00e+00	0	43	0	2250244096	44	4506
2026-01-26 10:26:08.98	17.80	17.23	-36.8	-38.5	21.6	0.00e+00	0	43	0	2267021312	44	4592
2026-01-26 10:26:11.96	17.23	17.04	-36.6	-38.3	21.8	0.00e+00	0	43	0	2283798528	44	4478
2026-01-26 10:26:14.95	16.66	16.85	-36.8	-38.5	21.6	0.00e+00	0	43	0	2300575744	44	4574
2026-01-26 10:26:17.94	16.10	16.66	-36.9	-38.6	21.5	0.00e+00	0	43	0	2317352960	44	4644
2026-01-26 10:26:20.92	15.55	16.47	-36.7	-38.5	21.6	0.00e+00	0	43	0	2334130176	44	4561
2026-01-26 10:26:23.91	15.00	16.28	-36.8	-38.6	21.5	0.00e+00	0	43	0	2350907392	44	4615
2026-01-26 10:26:26.89	14.47	16.09	-36.9	-38.7	21.5	0.00e+00	0	43	0	2367684608	44	4662
2026-01-26 10:26:29.87	13.94	15.89	-36.9	-38.7	21.4	0.00e+00	0	43	0	2384461824	44	4668
2026-01-26 10:26:32.86	13.42	15.70	-37.0	-38.9	21.3	0.00e+00	0	43	0	2401239040	44	4764
2026-01-26 10:26:35.84	12.90	15.50	-37.2	-39.0	21.1	0.00e+00	0	43	0	2418016256	44	4833
2026-01-26 10:26:38.83	12.39	15.31	-37.4	-39.2	20.9	0.00e+00	0	43	0	2434793472	45	4702
2026-01-26 10:26:41.81	11.89	15.11	-37.4	-39.2	20.9	0.00e+00	0	43	0	2451570688	45	4677
2026-01-26 10:26:44.80	11.39	14.91	-37.4	-39.3	20.9	0.00e+00	0	43	0	2468347904	45	4714
2026-01-26 10:26:47.78	10.90	14.71	-37.4	-39.2	20.9	0.00e+00	0	43	0	2485125120	45	4696
2026-01-26 10:26:50.76	10.42	14.52	-37.3	-39.1	21.0	0.00e+00	0	43	0	2501902336	45	4623
2026-01-26 10:26:53.75	9.95	14.32	-37.3	-39.2	21.0	0.00e+00	0	43	0	2518679552	45	4654
2026-01-26 10:26:56.74	9.48	14.12	-37.5	-39.4	20.7	0.00e+00	0	43	0	2536505344	45	4768
2026-01-26 10:26:59.72	9.01	13.92	-37.6	-39.5	20.7	0.00e+00	0	43	0	2552233984	45	4819
2026-01-26 10:27:02.70	8.56	13.72	-37.9	-39.7	20.4	0.00e+00	0	43	0	2569011200	46	4704
2026-01-26 10:27:05.69	8.11	13.52	-37.7	-39.6	20.5	0.00e+00	0	43	0	2586836992	46	4633
2026-01-26 10:27:08.67	7.66	13.32	-37.6	-39.5	20.6	0.00e+00	0	43	0	2602565632	46	4579
2026-01-26 10:27:11.65	7.23	13.12	-37.8	-39.7	20.4	0.00e+00	0	43	0	2619342848	46	4691
2026-01-26 10:27:14.64	6.79	12.92	-37.9	-39.8	20.3	0.00e+00	0	43	0	2637168640	46	4745
2026-01-26 10:27:17.62	6.37	12.72	-38.1	-40.0	20.2	0.00e+00	0	43	0	2652897280	46	4848
2026-01-26 10:27:20.60	5.95	12.52	-38.2	-40.1	20.0	0.00e+00	0	43	0	2669674496	47	4626
2026-01-26 10:27:23.59	5.53	12.32	-38.3	-40.3	19.9	0.00e+00	0	43	0	2687500288	47	4730
2026-01-26 10:27:26.57	5.13	12.12	-38.2	-40.1	20.0	0.00e+00	0	43	0	2703228928	47	4638
2026-01-26 10:27:29.56	4.72	11.92	-38.2	-40.1	20.0	0.00e+00	0	43	0	2720006144	47	4629
2026-01-26 10:27:32.55	4.32	11.72	-38.6	-40.5	19.7	0.00e+00	0	43	0	2737831936	47	4835
2026-01-26 10:27:35.53	3.93	11.52	-38.5	-40.4	19.7	0.00e+00	0	43	0	2753560576	47	4791
2026-01-26 10:27:38.51	3.55	11.32	-38.5	-40.4	19.7	0.00e+00	0	43	0	2770337792	47	4807
2026-01-26 10:27:41.50	3.17	11.13	-38.6	-40.5	19.6	0.00e+00	0	43	0	2788163584	47	4845
2026-01-26 10:27:44.48	2.79	10.93	-38.6	-40.5	19.6	0.00e+00	0	43	0	2804940800	47	4853
2026-01-26 10:27:47.47	2.42	10.73	-38.6	-40.6	19.6	0.00e+00	0	43	0	2820669440	47	4884
2026-01-26 10:27:50.45	2.05	10.53	-38.8	-40.8	19.5	0.00e+00	0	43	0	2838495232	48	4757
2026-01-26 10:27:53.43	1.69	10.34	-39.1	-41.1	19.3	0.00e+00	0	43	0	2854223872	48	4884
2026-01-26 10:27:56.42	1.34	10.14	-39.2	-41.2	19.1	0.00e+00	0	43	0	2871001088	49	4677
2026-01-26 10:27:59.41	0.99	9.94	-39.2	-41.2	19.1	0.00e+00	0	43	0	2888826880	49	4693
2026-01-26 10:28:02.39	0.64	9.75	-39.2	-41.3	19.1	0.00e+00	0	43	0	2905604096	49	4715
2026-01-26 10:28:05.38	0.30	9.55	-39.1	-41.2	19.1	0.00e+00	0	43	0	2922381312	49	4663
2026-01-26 10:28:08.36	359.96	9.36	-39.2	-41.2	19.1	0.00e+00	0	43	0	2939158528	49	4676
2026-01-26 10:28:11.34	359.63	9.17	-39.2	-41.2	19.1	0.00e+00	0	43	0	2955935744	49	4680
2026-01-26 10:28:14.32	359.30	8.98	-48.9	-61.0	3.8	3.85e-01	0	43	104	2970615808	68	15288
2026-01-26 10:28:17.30	358.98	8.78	-49.6	-62.1	3.8	8.45e-01	0	43	104	2970615808	70	15480
2026-01-26 10:28:20.28	358.66	8.59	-50.1	-62.2	3.8	8.47e-01	0	43	104	2970615808	70	15729
2026-01-26 10:28:23.26	358.35	8.40	-49.6	-62.3	3.8	8.46e-01	0	43	104	2970615808	70	15883
2026-01-26 10:28:26.24	358.04	8.21	-50.1	-62.3	3.8	8.46e-01	0	43	104	2970615808	71	15029
2026-01-26 10:28:29.22	357.73	8.02	-50.1	-62.4	3.8	8.47e-01	0	43	104	2970615808	71	15167
2026-01-26 10:28:32.20	357.43	7.83	-50.2	-62.4	3.8	8.47e-01	0	43	104	2970615808	71	15055
2026-01-26 10:28:35.18	357.14	7.64	-50.1	-62.3	3.8	8.47e-01	0	43	104	2970615808	71	15031
