passes_logs/2026/01/26/T1/T1__20260126_224038_NOAA_21_JPSS-2_rec.log

#Pass ID: 20260126_224038_NOAA 21 (JPSS-2)
#Satellite: NOAA 21 (JPSS-2)
#Configuration: NOAA 21
#almurnet v.1.7.20251203
#Start time: 2026-01-26 22:40:39

#Version: 2.0.20230620
#Station: T1
#Location: 37.570604 lon 55.790049 lat
#TLE: 1 54234U 22150A   26026.43130734  .00000179  00000+0  10559-3 0  9998
#TLE: 2 54234  98.7509 327.1934 0000805 209.8356 150.2774 14.19539635166435

#Time	Az	El	Level	Level2	SNR	BER	BlckErr	Temp	State	Recorded	gain1	gain2
2026-01-26 22:40:39.33	24.22	5.03	-48.8	-62.2	3.8	1.49e+00	0	40	0	0	69	16626
2026-01-26 22:40:42.31	24.40	5.22	-48.8	-62.2	3.8	1.49e+00	0	41	104	0	68	17535
2026-01-26 22:40:45.28	24.58	5.42	-48.8	-62.2	3.8	1.49e+00	0	41	104	0	68	17618
2026-01-26 22:40:48.26	24.76	5.62	-48.8	-62.2	3.8	1.49e+00	0	41	104	0	68	17494
2026-01-26 22:40:51.24	24.95	5.82	-48.8	-62.1	3.8	1.49e+00	0	41	104	0	68	17344
2026-01-26 22:40:54.22	25.13	6.02	-48.8	-62.1	3.8	1.49e+00	0	41	104	0	68	17385
2026-01-26 22:40:57.20	25.32	6.22	-48.8	-62.2	3.8	1.49e+00	0	41	104	0	68	17532
2026-01-26 22:41:00.18	25.52	6.42	-48.8	-62.2	3.8	1.49e+00	0	42	104	0	68	17603
2026-01-26 22:41:03.16	25.71	6.63	-48.8	-62.2	3.8	1.49e+00	0	42	104	0	68	17607
2026-01-26 22:41:06.14	25.91	6.83	-48.8	-62.1	3.8	1.49e+00	0	42	104	0	68	17313
2026-01-26 22:41:09.12	26.11	7.04	-48.8	-62.0	3.8	1.49e+00	0	42	104	0	68	17111
2026-01-26 22:41:12.10	26.31	7.25	-48.8	-62.1	3.8	1.49e+00	0	42	104	0	68	17372
2026-01-26 22:41:15.08	26.52	7.46	-48.8	-62.2	3.8	1.49e+00	0	42	104	0	68	17634
2026-01-26 22:41:18.06	26.72	7.67	-48.8	-62.0	3.8	1.49e+00	0	42	104	0	68	17155
2026-01-26 22:41:21.04	26.94	7.88	-48.8	-61.8	3.8	1.49e+00	0	42	104	0	68	16801
2026-01-26 22:41:24.01	27.15	8.10	-48.8	-61.8	3.8	1.49e+00	0	42	104	0	68	16825
2026-01-26 22:41:26.99	27.37	8.31	-48.8	-61.4	3.8	1.49e+00	0	42	104	0	68	16077
2026-01-26 22:41:29.97	27.59	8.53	-48.6	-60.5	3.8	1.49e+00	0	42	104	0	68	14442
2026-01-26 22:41:32.95	27.81	8.75	-48.1	-56.4	5.1	7.47e-01	0	42	0	0	68	9047
2026-01-26 22:41:35.93	28.03	8.97	-46.3	-51.0	9.6	2.75e-02	0	42	0	0	64	6127
2026-01-26 22:41:38.91	28.26	9.19	-48.1	-57.1	4.7	2.06e-01	0	43	0	0	66	11003
2026-01-26 22:41:41.94	28.50	9.42	-41.4	-43.6	17.2	0.00e+00	0	42	0	0	54	4599
2026-01-26 22:41:44.93	28.74	9.65	-41.2	-43.3	17.5	0.00e+00	0	42	0	0	54	4444
2026-01-26 22:41:47.92	28.98	9.87	-40.9	-43.0	17.7	0.00e+00	0	43	0	0	53	4559
2026-01-26 22:41:50.90	29.22	10.10	-40.9	-43.0	17.8	0.00e+00	0	43	0	0	53	4552
2026-01-26 22:41:53.97	29.48	10.34	-40.6	-42.6	18.1	0.00e+00	0	43	0	0	53	4352
2026-01-26 22:41:56.81	29.72	10.56	-40.6	-42.5	18.2	0.00e+00	0	43	0	0	52	4584
2026-01-26 22:41:59.93	29.98	10.81	-40.4	-42.4	18.3	0.00e+00	0	43	0	0	52	4502
2026-01-26 22:42:02.77	30.23	11.03	-40.4	-42.3	18.4	0.00e+00	0	43	0	0	52	4484
2026-01-26 22:42:05.92	30.51	11.28	-40.4	-42.3	18.4	0.00e+00	0	43	0	0	52	4459
2026-01-26 22:42:08.76	30.76	11.51	-40.3	-42.2	18.5	0.00e+00	0	43	0	0	52	4414
2026-01-26 22:42:12.26	31.08	11.80	-40.1	-42.1	18.6	0.00e+00	0	43	0	0	52	4344
2026-01-26 22:42:15.28	31.36	12.04	-40.2	-42.1	18.6	0.00e+00	0	43	0	0	52	4359
2026-01-26 22:42:18.27	31.64	12.29	-40.1	-42.0	18.8	0.00e+00	0	43	0	0	51	4562
2026-01-26 22:42:21.26	31.92	12.54	-40.1	-42.0	18.8	0.00e+00	0	43	0	0	51	4555
2026-01-26 22:42:24.24	32.21	12.79	-40.0	-41.9	18.8	0.00e+00	0	43	0	0	51	4523
2026-01-26 22:42:27.54	32.54	13.07	-40.0	-41.8	18.9	0.00e+00	0	43	0	0	51	4490
2026-01-26 22:42:30.44	32.83	13.31	-39.9	-41.8	19.0	0.00e+00	0	43	0	0	51	4446
2026-01-26 22:42:33.71	33.17	13.59	-40.0	-41.8	18.9	0.00e+00	0	43	0	0	51	4491
2026-01-26 22:42:36.44	33.45	13.83	-40.0	-41.8	19.0	0.00e+00	0	43	0	0	51	4474
2026-01-26 22:42:39.71	33.79	14.11	-39.9	-41.7	19.1	0.00e+00	0	43	0	0	51	4417
2026-01-26 22:42:42.50	34.09	14.36	-39.9	-41.6	19.1	0.00e+00	0	43	0	0	51	4390
2026-01-26 22:42:45.78	34.45	14.65	-40.0	-41.8	19.1	0.00e+00	0	43	0	0	51	4463
2026-01-26 22:42:48.50	34.76	14.89	-39.9	-41.7	19.1	0.00e+00	0	43	0	0	51	4423
2026-01-26 22:42:51.77	35.13	15.18	-40.0	-41.8	19.1	0.00e+00	0	43	0	0	51	4455
2026-01-26 22:42:54.54	35.44	15.44	-40.0	-41.8	19.1	0.00e+00	0	43	0	0	51	4463
2026-01-26 22:42:57.83	35.83	15.74	-39.9	-41.7	19.1	0.00e+00	0	43	0	0	51	4432
2026-01-26 22:43:00.55	36.16	15.99	-40.0	-41.8	19.1	0.00e+00	0	43	0	0	51	4452
2026-01-26 22:43:03.82	36.55	16.29	-40.0	-41.8	19.1	0.00e+00	0	43	0	0	51	4473
2026-01-26 22:43:06.56	36.89	16.54	-39.9	-41.7	19.2	0.00e+00	0	43	0	0	51	4406
2026-01-26 22:43:09.84	37.30	16.85	-39.9	-41.7	19.2	0.00e+00	0	43	0	0	51	4407
2026-01-26 22:43:12.54	37.65	17.11	-39.8	-41.6	19.2	0.00e+00	0	43	0	0	51	4352
2026-01-26 22:43:15.81	38.08	17.42	-39.9	-41.6	19.2	0.00e+00	0	43	0	0	51	4389
2026-01-26 22:43:18.52	38.44	17.68	-39.9	-41.6	19.2	0.00e+00	0	43	0	0	51	4386
2026-01-26 22:43:22.02	38.91	18.02	-39.8	-41.6	19.3	0.00e+00	0	43	0	0	51	4352
2026-01-26 22:43:24.95	39.32	18.31	-39.7	-41.4	19.4	0.00e+00	0	43	0	0	51	4282
2026-01-26 22:43:28.21	39.78	18.63	-39.7	-41.4	19.4	0.00e+00	0	43	0	0	51	4291
2026-01-26 22:43:30.92	40.17	18.90	-39.7	-41.4	19.4	0.00e+00	0	43	0	0	51	4276
2026-01-26 22:43:34.16	40.64	19.22	-39.9	-41.7	19.2	0.00e+00	0	43	0	0	51	4406
2026-01-26 22:43:37.23	41.10	19.53	-39.7	-41.4	19.5	0.00e+00	0	43	0	0	51	4279
2026-01-26 22:43:40.56	41.61	19.87	-39.4	-41.1	19.6	0.00e+00	0	43	0	0	50	4361
2026-01-26 22:43:43.28	42.03	20.14	-39.3	-41.0	19.7	0.00e+00	0	43	0	0	50	4316
2026-01-26 22:43:46.55	42.55	20.48	-39.1	-40.8	20.0	0.00e+00	0	43	0	0	50	4223
2026-01-26 22:43:49.28	42.99	20.76	-39.2	-40.9	19.9	0.00e+00	0	43	0	0	50	4254
2026-01-26 22:43:52.55	43.53	21.10	-39.0	-40.7	20.0	0.00e+00	0	43	0	0	50	4190
2026-01-26 22:43:55.28	43.99	21.38	-38.8	-40.5	20.2	0.00e+00	0	43	0	0	49	4321
2026-01-26 22:43:58.85	44.60	21.76	-38.6	-40.2	20.5	0.00e+00	0	43	0	0	49	4193
2026-01-26 22:44:01.72	45.11	22.06	-38.8	-40.5	20.3	0.00e+00	0	43	0	0	49	4313
2026-01-26 22:44:05.04	45.70	22.41	-38.7	-40.4	20.4	0.00e+00	0	43	0	0	49	4249
2026-01-26 22:44:07.76	46.20	22.70	-38.5	-40.1	20.5	0.00e+00	0	43	0	0	49	4134
2026-01-26 22:44:11.04	46.81	23.05	-38.4	-40.1	20.6	0.00e+00	0	43	0	0	48	4347
2026-01-26 22:44:13.74	47.32	23.34	-38.5	-40.2	20.6	0.00e+00	0	43	0	0	48	4411
2026-01-26 22:44:17.04	47.96	23.70	-38.6	-40.3	20.4	0.00e+00	0	43	0	0	48	4466
2026-01-26 22:44:19.76	48.50	23.99	-38.5	-40.2	20.4	0.00e+00	0	43	0	0	48	4410
2026-01-26 22:44:23.05	49.17	24.35	-38.6	-40.2	20.5	0.00e+00	0	43	0	0	48	4420
2026-01-26 22:44:25.86	49.74	24.65	-38.7	-40.4	20.4	0.00e+00	0	43	0	0	48	4512
2026-01-26 22:44:29.16	50.44	25.01	-38.8	-40.4	20.4	0.00e+00	0	43	0	0	48	4540
2026-01-26 22:44:31.99	51.05	25.32	-39.0	-40.7	20.1	0.00e+00	0	43	0	0	48	4656
2026-01-26 22:44:35.26	51.77	25.68	-39.2	-40.9	19.9	0.00e+00	0	43	0	0	49	4516
2026-01-26 22:44:37.97	52.37	25.97	-39.3	-41.0	19.9	0.00e+00	0	43	0	0	49	4568
2026-01-26 22:44:41.24	53.12	26.33	-39.4	-41.1	19.8	0.00e+00	0	43	0	0	49	4630
2026-01-26 22:44:43.99	53.76	26.63	-39.2	-41.0	19.9	0.00e+00	0	43	0	0	49	4550
2026-01-26 22:44:47.26	54.54	26.98	-39.6	-41.4	19.6	0.00e+00	0	43	0	0	50	4506
2026-01-26 22:44:50.00	55.20	27.28	-39.5	-41.2	19.8	0.00e+00	0	43	0	0	50	4422
2026-01-26 22:44:53.27	56.01	27.64	-39.7	-41.4	19.5	0.00e+00	0	43	0	0	50	4533
2026-01-26 22:44:56.02	56.71	27.93	-39.8	-41.5	19.5	0.00e+00	0	43	0	0	50	4594
2026-01-26 22:44:59.29	57.55	28.28	-39.5	-41.2	19.5	0.00e+00	0	43	0	0	50	4406
2026-01-26 22:45:02.02	58.27	28.57	-39.3	-41.0	19.8	0.00e+00	0	43	0	0	50	4335
2026-01-26 22:45:05.29	59.15	28.92	-39.7	-41.4	19.5	0.00e+00	0	43	0	0	50	4518
2026-01-26 22:45:08.01	59.89	29.20	-39.6	-41.3	19.5	0.00e+00	0	43	0	0	50	4481
2026-01-26 22:45:11.29	60.80	29.54	-39.4	-41.2	19.8	0.00e+00	0	43	0	0	50	4392
2026-01-26 22:45:14.00	61.57	29.82	-39.3	-40.9	19.9	0.00e+00	0	43	0	0	50	4291
2026-01-26 22:45:17.27	62.52	30.15	-39.4	-41.1	19.8	0.00e+00	0	43	0	0	50	4367
2026-01-26 22:45:20.24	63.40	30.45	-39.4	-41.2	19.8	0.00e+00	0	43	0	0	50	4404
2026-01-26 22:45:23.23	64.29	30.75	-39.3	-41.0	19.9	0.00e+00	0	44	0	0	50	4335
2026-01-26 22:45:26.21	65.21	31.04	-39.3	-41.0	19.9	0.00e+00	0	43	0	0	50	4332
2026-01-26 22:45:29.25	66.15	31.33	-39.2	-40.9	20.1	0.00e+00	0	43	0	0	50	4249
2026-01-26 22:45:32.24	67.10	31.61	-39.4	-41.2	19.8	0.00e+00	0	43	0	0	50	4399
2026-01-26 22:45:35.22	68.06	31.88	-39.5	-41.3	19.7	0.00e+00	0	43	0	0	50	4444
2026-01-26 22:45:38.33	69.08	32.16	-39.4	-41.1	19.8	0.00e+00	0	43	0	0	50	4391
2026-01-26 22:45:41.46	70.12	32.43	-40.1	-41.9	19.1	0.00e+00	0	43	0	0	50	4760
2026-01-26 22:45:44.31	71.08	32.67	-40.2	-42.0	19.0	0.00e+00	0	43	0	0	51	4554
2026-01-26 22:45:47.43	72.16	32.93	-39.9	-41.6	19.3	0.00e+00	0	43	0	0	51	4380
2026-01-26 22:45:50.28	73.15	33.16	-40.3	-42.1	18.9	0.00e+00	0	43	0	0	51	4648
2026-01-26 22:45:53.41	74.26	33.40	-40.2	-42.0	19.1	0.00e+00	0	43	0	0	51	4562
2026-01-26 22:45:56.30	75.29	33.61	-40.1	-41.9	18.9	0.00e+00	0	43	0	0	51	4514
2026-01-26 22:45:59.58	76.49	33.84	-40.0	-41.8	19.2	0.00e+00	0	43	0	0	51	4459
2026-01-26 22:46:02.29	77.48	34.02	-40.0	-41.8	19.1	0.00e+00	0	43	0	0	51	4460
2026-01-26 22:46:05.56	78.70	34.23	-40.3	-42.1	19.0	0.00e+00	0	44	0	0	51	4618
2026-01-26 22:46:08.28	79.73	34.39	-40.4	-42.3	18.8	0.00e+00	0	43	0	0	51	4721
2026-01-26 22:46:11.56	80.97	34.57	-40.0	-41.8	19.3	0.00e+00	0	44	0	0	51	4461
2026-01-26 22:46:14.26	82.01	34.71	-40.1	-41.9	19.1	0.00e+00	0	44	0	0	51	4520
2026-01-26 22:46:17.53	83.28	34.87	-40.0	-41.8	19.2	0.00e+00	0	43	0	0	51	4467
2026-01-26 22:46:20.23	84.34	34.98	-40.2	-42.1	19.0	0.00e+00	0	43	0	0	51	4599
2026-01-26 22:46:23.52	85.63	35.11	-40.6	-42.5	18.5	0.00e+00	0	43	0	0	52	4568
2026-01-26 22:46:26.24	86.71	35.21	-40.7	-42.6	18.4	0.00e+00	0	43	0	0	52	4615
2026-01-26 22:46:29.51	88.02	35.31	-40.4	-42.2	18.8	0.00e+00	0	43	0	0	52	4441
2026-01-26 22:46:32.21	89.10	35.38	-40.4	-42.2	18.8	0.00e+00	0	43	0	0	52	4425
2026-01-26 22:46:35.49	90.42	35.45	-40.2	-42.0	19.0	0.00e+00	0	44	0	0	52	4330
2026-01-26 22:46:38.21	91.52	35.50	-40.2	-42.0	18.9	0.00e+00	0	43	0	0	52	4329
2026-01-26 22:46:41.57	92.89	35.54	-40.3	-42.1	19.0	0.00e+00	0	43	0	0	51	4608
2026-01-26 22:46:44.27	93.99	35.56	-40.1	-41.9	19.1	0.00e+00	0	43	0	0	51	4499
2026-01-26 22:46:47.95	95.48	35.57	-40.4	-42.3	18.8	0.00e+00	0	43	0	0	51	4707
2026-01-26 22:46:50.86	96.67	35.56	-40.1	-41.9	19.2	0.00e+00	0	43	0	0	51	4494
2026-01-26 22:46:54.87	98.30	35.52	-40.3	-42.1	19.0	0.00e+00	0	44	0	0	51	4599
2026-01-26 22:46:57.71	99.45	35.49	-40.4	-42.3	18.8	0.00e+00	0	43	0	0	51	4708
2026-01-26 22:47:02.07	101.21	35.40	-40.3	-42.1	19.0	0.00e+00	0	43	0	0	51	4606
2026-01-26 22:47:05.22	102.48	35.32	-40.3	-42.2	18.9	0.00e+00	0	43	0	0	51	4656
2026-01-26 22:47:09.19	104.06	35.20	-40.6	-42.5	18.5	0.00e+00	0	43	0	0	52	4573
2026-01-26 22:47:12.03	105.19	35.10	-40.3	-42.1	18.8	0.00e+00	0	43	0	0	52	4386
2026-01-26 22:47:15.82	106.69	34.94	-40.2	-42.1	18.9	0.00e+00	0	44	0	0	52	4342
2026-01-26 22:47:18.63	107.78	34.82	-40.3	-42.1	18.9	0.00e+00	0	44	0	0	52	4379
2026-01-26 22:47:22.17	109.15	34.64	-40.7	-42.6	18.5	0.00e+00	0	44	0	0	52	4609
2026-01-26 22:47:24.98	110.23	34.49	-40.3	-42.1	18.9	0.00e+00	0	44	0	0	52	4351
2026-01-26 22:47:28.27	111.48	34.30	-40.5	-42.4	18.6	0.00e+00	0	43	0	0	52	4517
2026-01-26 22:47:30.98	112.50	34.13	-40.1	-41.9	19.0	0.00e+00	0	44	0	0	52	4279
2026-01-26 22:47:34.25	113.71	33.92	-40.0	-41.8	19.2	0.00e+00	0	43	0	0	52	4210
2026-01-26 22:47:37.24	114.81	33.71	-40.6	-42.5	18.5	0.00e+00	0	43	0	0	51	4828
2026-01-26 22:47:40.71	116.06	33.46	-40.0	-41.8	19.0	0.00e+00	0	43	0	0	52	4210
2026-01-26 22:47:43.41	117.03	33.26	-40.1	-41.9	19.1	0.00e+00	0	43	0	0	51	4535
2026-01-26 22:47:46.68	118.18	33.00	-40.3	-42.2	18.9	0.00e+00	0	44	0	0	51	4661
2026-01-26 22:47:49.48	119.15	32.77	-40.1	-41.9	19.2	0.00e+00	0	44	0	0	51	4505
2026-01-26 22:47:52.65	120.23	32.51	-39.5	-41.2	19.7	0.00e+00	0	44	0	0	51	4169
2026-01-26 22:47:55.88	121.31	32.23	-39.7	-41.5	19.5	0.00e+00	0	44	0	0	50	4561
2026-01-26 22:47:58.72	122.25	31.97	-39.6	-41.3	19.6	0.00e+00	0	43	0	0	50	4473
2026-01-26 22:48:01.84	123.27	31.69	-39.5	-41.2	19.7	0.00e+00	0	43	0	0	50	4434
2026-01-26 22:48:04.69	124.18	31.42	-39.2	-40.9	20.0	0.00e+00	0	44	0	0	50	4279
2026-01-26 22:48:07.81	125.16	31.12	-39.6	-41.3	19.6	0.00e+00	0	44	0	0	50	4470
2026-01-26 22:48:10.77	126.07	30.83	-39.5	-41.3	19.7	0.00e+00	0	43	0	0	50	4450
2026-01-26 22:48:13.97	127.05	30.52	-39.3	-41.0	19.9	0.00e+00	0	44	0	0	50	4308
2026-01-26 22:48:16.83	127.90	30.23	-39.5	-41.2	19.7	0.00e+00	0	44	0	0	50	4440
2026-01-26 22:48:20.10	128.85	29.90	-39.5	-41.3	19.7	0.00e+00	0	43	0	0	50	4455
2026-01-26 22:48:22.90	129.66	29.61	-39.3	-41.0	19.8	0.00e+00	0	44	0	0	50	4300
2026-01-26 22:48:26.10	130.56	29.27	-38.9	-40.6	20.1	0.00e+00	0	44	0	0	49	4349
2026-01-26 22:48:28.94	131.34	28.97	-38.8	-40.5	20.3	0.00e+00	0	44	0	0	49	4297
2026-01-26 22:48:32.08	132.19	28.64	-39.0	-40.7	20.0	0.00e+00	0	44	0	0	49	4426
2026-01-26 22:48:35.20	133.02	28.31	-39.4	-41.1	19.7	0.00e+00	0	44	0	0	49	4613
2026-01-26 22:48:38.33	133.83	27.97	-39.1	-40.8	20.0	0.00e+00	0	43	0	0	49	4474
2026-01-26 22:48:41.18	134.56	27.66	-38.9	-40.5	20.2	0.00e+00	0	44	0	0	49	4331
2026-01-26 22:48:44.31	135.34	27.32	-38.9	-40.5	20.3	0.00e+00	0	43	0	0	49	4334
2026-01-26 22:48:47.26	136.06	27.00	-39.0	-40.6	20.2	0.00e+00	0	43	0	0	49	4377
2026-01-26 22:48:50.52	136.84	26.64	-38.8	-40.4	20.4	0.00e+00	0	44	0	0	49	4268
2026-01-26 22:48:53.36	137.51	26.33	-38.8	-40.5	20.3	0.00e+00	0	44	0	0	49	4326
2026-01-26 22:48:56.48	138.23	25.99	-39.1	-40.8	20.1	0.00e+00	0	43	0	0	49	4489
2026-01-26 22:48:59.33	138.87	25.67	-39.0	-40.7	20.2	0.00e+00	0	43	0	0	49	4395
2026-01-26 22:49:02.45	139.56	25.33	-38.6	-40.2	20.6	0.00e+00	0	44	0	0	49	4160
2026-01-26 22:49:05.29	140.17	25.02	-38.5	-40.1	20.7	0.00e+00	0	43	0	0	49	4130
2026-01-26 22:49:08.51	140.86	24.67	-38.7	-40.3	20.5	0.00e+00	0	44	0	0	49	4228
2026-01-26 22:49:11.37	141.45	24.35	-38.6	-40.2	20.5	0.00e+00	0	43	0	0	49	4175
2026-01-26 22:49:14.69	142.13	23.99	-38.5	-40.2	20.5	0.00e+00	0	44	0	0	49	4155
2026-01-26 22:49:17.39	142.67	23.70	-38.7	-40.4	20.3	0.00e+00	0	43	0	0	49	4253
2026-01-26 22:49:20.62	143.30	23.34	-38.8	-40.5	20.3	0.00e+00	0	43	0	0	49	4305
2026-01-26 22:49:23.71	143.89	23.01	-38.9	-40.6	20.2	0.00e+00	0	43	0	0	49	4353
2026-01-26 22:49:26.70	144.45	22.69	-39.2	-40.8	19.9	0.00e+00	0	43	0	0	49	4491
2026-01-26 22:49:29.68	145.00	22.37	-39.2	-40.9	19.9	0.00e+00	0	44	0	0	49	4517
2026-01-26 22:49:32.67	145.53	22.05	-39.3	-41.0	19.8	0.00e+00	0	43	0	0	49	4577
2026-01-26 22:49:35.65	146.06	21.73	-39.0	-40.7	20.0	0.00e+00	0	43	0	0	49	4441
2026-01-26 22:49:38.64	146.58	21.41	-39.2	-41.0	19.8	0.00e+00	0	43	0	0	49	4571
2026-01-26 22:49:41.62	147.08	21.10	-39.4	-41.2	19.6	0.00e+00	0	43	0	0	49	4675
2026-01-26 22:49:44.61	147.58	20.79	-39.4	-41.2	19.7	0.00e+00	0	43	0	0	49	4662
2026-01-26 22:49:47.60	148.07	20.47	-39.3	-41.0	19.8	0.00e+00	0	43	0	0	49	4587
2026-01-26 22:49:50.59	148.55	20.16	-39.4	-41.1	19.7	0.00e+00	0	43	0	0	49	4633
2026-01-26 22:49:53.97	149.07	19.82	-39.2	-40.9	19.9	0.00e+00	0	43	0	0	49	4544
2026-01-26 22:49:56.89	149.52	19.52	-38.9	-40.6	20.2	0.00e+00	0	44	0	0	49	4341
2026-01-26 22:50:00.23	150.02	19.18	-38.9	-40.6	20.2	0.00e+00	0	44	0	0	49	4358
2026-01-26 22:50:02.95	150.43	18.91	-38.9	-40.6	20.2	0.00e+00	0	43	0	0	49	4365
2026-01-26 22:50:06.22	150.90	18.58	-38.9	-40.6	20.2	0.00e+00	0	43	0	0	49	4363
2026-01-26 22:50:09.05	151.30	18.30	-39.1	-40.8	20.0	0.00e+00	0	44	0	0	49	4485
2026-01-26 22:50:12.11	151.73	17.99	-39.2	-40.9	19.9	0.00e+00	0	44	0	0	49	4510
2026-01-26 22:50:15.23	152.15	17.69	-39.3	-41.0	19.8	0.00e+00	0	44	0	0	49	4583
2026-01-26 22:50:18.08	152.53	17.41	-39.3	-41.1	19.7	0.00e+00	0	44	0	0	49	4599
2026-01-26 22:50:21.30	152.96	17.10	-39.5	-41.2	19.5	0.00e+00	0	43	0	0	49	4704
2026-01-26 22:50:24.22	153.33	16.82	-39.6	-41.4	19.4	0.00e+00	0	44	0	0	49	4763
2026-01-26 22:50:27.35	153.73	16.52	-39.6	-41.4	19.4	0.00e+00	0	43	0	0	49	4769
2026-01-26 22:50:30.29	154.10	16.24	-39.6	-41.4	19.4	0.00e+00	0	43	0	0	49	4807
2026-01-26 22:50:33.45	154.48	15.95	-39.6	-41.4	19.3	0.00e+00	0	43	0	0	49	4809
2026-01-26 22:50:36.29	154.82	15.68	-39.7	-41.6	19.2	0.00e+00	0	43	0	0	50	4615
2026-01-26 22:50:39.41	155.19	15.40	-39.8	-41.7	19.1	0.00e+00	0	43	0	0	50	4658
2026-01-26 22:50:42.25	155.52	15.14	-39.9	-41.8	18.9	0.00e+00	0	43	0	0	50	4720
2026-01-26 22:50:45.40	155.88	14.85	-40.1	-42.0	18.8	0.00e+00	0	44	0	0	50	4819
2026-01-26 22:50:48.23	156.19	14.60	-40.0	-41.8	19.0	0.00e+00	0	43	0	0	50	4748
2026-01-26 22:50:51.51	156.55	14.30	-39.9	-41.7	19.1	0.00e+00	0	44	0	0	50	4696
2026-01-26 22:50:54.25	156.85	14.06	-39.9	-41.7	19.1	0.00e+00	0	43	0	0	50	4668
2026-01-26 22:50:57.53	157.19	13.77	-40.0	-41.8	19.0	0.00e+00	0	43	0	0	50	4737
2026-01-26 22:51:00.26	157.48	13.53	-40.1	-41.9	18.9	0.00e+00	0	44	0	0	50	4771
2026-01-26 22:51:03.65	157.83	13.24	-40.1	-42.0	18.8	0.00e+00	0	44	0	0	51	4549
2026-01-26 22:51:06.69	158.13	12.98	-40.3	-42.1	18.6	0.00e+00	0	43	0	0	51	4636
2026-01-26 22:51:09.53	158.41	12.74	-40.4	-42.3	18.4	0.00e+00	0	44	0	0	51	4707
2026-01-26 22:51:12.66	158.72	12.47	-40.5	-42.3	18.4	0.00e+00	0	44	0	0	51	4750
2026-01-26 22:51:15.50	158.99	12.23	-40.4	-42.3	18.5	0.00e+00	0	43	0	0	51	4724
2026-01-26 22:51:18.63	159.28	11.97	-40.3	-42.1	18.6	0.00e+00	0	44	0	0	51	4648
2026-01-26 22:51:21.47	159.55	11.74	-40.4	-42.3	18.4	0.00e+00	0	44	0	0	51	4751
2026-01-26 22:51:24.60	159.83	11.48	-40.5	-42.4	18.4	0.00e+00	0	43	0	0	51	4777
2026-01-26 22:51:27.81	160.12	11.22	-40.4	-42.3	18.4	0.00e+00	0	44	0	0	51	4716
2026-01-26 22:51:30.65	160.37	10.99	-40.5	-42.5	18.0	0.00e+00	0	44	0	0	51	4820
2026-01-26 22:51:33.77	160.64	10.74	-40.7	-42.6	18.0	0.00e+00	0	44	0	0	52	4647
2026-01-26 22:51:36.62	160.89	10.51	-40.9	-42.9	17.7	0.00e+00	0	44	0	0	52	4803
2026-01-26 22:51:39.74	161.15	10.27	-41.2	-43.2	17.5	0.00e+00	0	43	0	0	52	4957
2026-01-26 22:51:42.59	161.38	10.04	-41.1	-43.2	17.5	0.00e+00	0	44	0	0	53	4677
2026-01-26 22:51:45.71	161.64	9.80	-41.2	-43.3	17.3	0.00e+00	0	44	0	0	53	4748
2026-01-26 22:51:48.62	161.87	9.58	-41.2	-43.3	17.3	0.00e+00	0	44	0	0	53	4718
2026-01-26 22:51:52.23	162.16	9.30	-41.1	-43.2	17.4	0.00e+00	0	44	0	0	53	4671
2026-01-26 22:51:55.03	162.38	9.09	-41.1	-43.2	17.4	0.00e+00	0	43	0	0	53	4671
2026-01-26 22:51:58.58	162.65	8.82	-49.0	-62.4	3.8	1.49e+00	0	44	104	0	68	17916
2026-01-26 22:52:01.28	162.85	8.62	-49.5	-62.6	3.8	1.49e+00	0	44	104	0	69	17439
2026-01-26 22:52:04.54	163.09	8.38	-49.7	-62.8	3.8	1.49e+00	0	44	104	0	70	16842
2026-01-26 22:52:07.30	163.30	8.18	-49.8	-62.8	3.8	1.49e+00	0	44	104	0	70	16873
2026-01-26 22:52:10.70	163.54	7.93	-49.7	-62.9	3.8	1.49e+00	0	44	104	0	70	16925
2026-01-26 22:52:13.46	163.74	7.73	-49.9	-62.9	3.8	1.49e+00	0	44	104	0	70	16903
2026-01-26 22:52:16.86	163.98	7.48	-49.9	-62.9	3.8	1.49e+00	0	44	104	0	70	16919
2026-01-26 22:52:19.57	164.16	7.29	-49.7	-62.8	3.8	1.49e+00	0	44	104	0	70	16838
2026-01-26 22:52:22.83	164.39	7.06	-49.4	-62.8	3.8	1.49e+00	0	44	104	0	70	16840
2026-01-26 22:52:25.54	164.57	6.86	-49.4	-62.8	3.8	1.49e+00	0	44	104	0	70	16846
2026-01-26 22:52:28.81	164.78	6.64	-49.4	-62.8	3.8	1.49e+00	0	44	104	0	70	16848
2026-01-26 22:52:31.51	164.96	6.45	-49.4	-62.8	3.8	1.49e+00	0	44	104	0	70	16813
2026-01-26 22:52:34.77	165.17	6.22	-49.4	-62.8	3.8	1.49e+00	0	44	104	0	70	16828
2026-01-26 22:52:37.47	165.34	6.04	-49.4	-62.8	3.8	1.49e+00	0	44	104	0	70	16813
2026-01-26 22:52:40.73	165.55	5.81	-49.4	-62.8	3.8	1.49e+00	0	44	104	0	70	16792
2026-01-26 22:52:43.44	165.72	5.63	-49.4	-62.8	3.8	1.49e+00	0	44	104	0	70	16809
2026-01-26 22:52:46.70	165.92	5.41	-49.4	-62.8	3.8	1.49e+00	0	44	104	0	70	16837
2026-01-26 22:52:49.41	166.08	5.23	-49.4	-62.8	3.8	1.49e+00	0	44	104	0	70	16820
2026-01-26 22:52:52.69	166.28	5.01	-49.4	-62.8	3.8	1.49e+00	0	44	104	0	70	16827

#Closed at: 2026-01-26 22:52:54
#Recorded file [0 MB]: D:/Data/31040_260127_014039.dat