passes_logs/2026/01/26/T1/T1__20260126_213120_SUOMI_NPP_rec.log

#Pass ID: 20260126_213120_SUOMI NPP
#Satellite: SUOMI NPP
#Configuration: NPP
#almurnet v.1.7.20251203
#Start time: 2026-01-26 21:31:20

#Version: 2.0.20230620
#Station: T1
#Location: 37.570604 lon 55.790049 lat
#TLE: 1 37849U 11061A   26026.52266023  .00000173  00000+0  10323-3 0  9994
#TLE: 2 37849  98.7822 328.4727 0002140  43.9411 316.1934 14.19530258738341

#Time	Az	El	Level	Level2	SNR	BER	BlckErr	Temp	State	Recorded	gain1	gain2
2026-01-26 21:31:20.16	42.30	4.99	-48.9	-64.4	3.8	1.49e+00	0	41	0	0	69	21479
2026-01-26 21:31:22.15	42.55	5.06	-48.9	-64.4	3.8	1.49e+00	0	41	104	0	69	21383
2026-01-26 21:31:24.13	42.80	5.14	-48.9	-64.4	3.8	1.49e+00	0	41	104	0	69	21312
2026-01-26 21:31:26.12	43.06	5.22	-48.9	-64.4	3.8	1.49e+00	0	41	104	0	69	21324
2026-01-26 21:31:28.11	43.31	5.29	-48.9	-64.4	3.8	1.49e+00	0	41	104	0	69	21379
2026-01-26 21:31:30.09	43.57	5.37	-48.8	-64.4	3.8	1.49e+00	0	41	104	0	69	21332
2026-01-26 21:31:32.08	43.83	5.44	-48.9	-64.4	3.8	1.49e+00	0	41	104	0	69	21363
2026-01-26 21:31:34.06	44.08	5.52	-48.8	-64.4	3.8	1.49e+00	0	42	104	0	69	21301
2026-01-26 21:31:36.05	44.35	5.60	-48.8	-64.4	3.8	1.49e+00	0	41	104	0	69	21312
2026-01-26 21:31:38.03	44.61	5.67	-48.8	-64.4	3.8	1.49e+00	0	41	104	0	69	21379
2026-01-26 21:31:40.02	44.87	5.74	-48.9	-64.4	3.8	1.49e+00	0	41	104	0	69	21390
2026-01-26 21:31:42.01	45.13	5.82	-48.9	-64.4	3.8	1.49e+00	0	41	104	0	69	21372
2026-01-26 21:31:43.99	45.40	5.89	-48.9	-64.4	3.8	1.49e+00	0	42	104	0	69	21312
2026-01-26 21:31:45.98	45.67	5.97	-48.9	-64.4	3.8	1.49e+00	0	42	104	0	69	21302
2026-01-26 21:31:47.97	45.94	6.04	-48.8	-64.3	3.8	1.49e+00	0	42	104	0	69	21228
2026-01-26 21:31:49.95	46.20	6.11	-48.8	-64.4	3.8	1.49e+00	0	42	104	0	69	21296
2026-01-26 21:31:51.94	46.48	6.19	-48.8	-64.3	3.8	1.49e+00	0	42	104	0	69	21260
2026-01-26 21:31:53.93	46.75	6.26	-48.8	-64.4	3.8	1.49e+00	0	42	104	0	69	21265
2026-01-26 21:31:55.91	47.02	6.33	-48.8	-64.4	3.8	1.49e+00	0	42	104	0	69	21313
2026-01-26 21:31:57.90	47.30	6.40	-48.9	-64.3	3.8	1.49e+00	0	42	104	0	69	21259
2026-01-26 21:31:59.88	47.57	6.47	-48.8	-64.4	3.8	1.49e+00	0	42	104	0	69	21374
2026-01-26 21:32:01.87	47.85	6.55	-48.8	-64.4	3.8	1.49e+00	0	42	104	0	69	21271
2026-01-26 21:32:03.86	48.13	6.62	-48.8	-64.4	3.8	1.49e+00	0	42	104	0	69	21329
2026-01-26 21:32:05.84	48.41	6.69	-48.8	-64.4	3.8	1.49e+00	0	42	104	0	69	21276
2026-01-26 21:32:07.83	48.69	6.76	-48.8	-64.4	3.8	1.49e+00	0	42	104	0	69	21400
2026-01-26 21:32:09.82	48.97	6.83	-48.8	-64.4	3.8	1.49e+00	0	42	104	0	69	21327
2026-01-26 21:32:11.80	49.26	6.90	-48.9	-64.4	3.8	1.49e+00	0	42	104	0	69	21263
2026-01-26 21:32:13.79	49.54	6.96	-48.8	-64.4	3.8	1.49e+00	0	42	104	0	69	21344
2026-01-26 21:32:15.78	49.83	7.03	-48.8	-64.4	3.8	1.49e+00	0	42	104	0	69	21363
2026-01-26 21:32:17.76	50.12	7.10	-48.8	-64.4	3.8	1.49e+00	0	42	104	0	69	21281
2026-01-26 21:32:19.75	50.41	7.17	-48.8	-64.4	3.8	1.49e+00	0	42	104	0	69	21350
2026-01-26 21:32:21.74	50.70	7.24	-48.8	-64.4	3.8	1.49e+00	0	42	104	0	69	21281
2026-01-26 21:32:23.72	50.99	7.30	-48.8	-64.3	3.8	1.49e+00	0	42	104	0	69	21240
2026-01-26 21:32:25.71	51.28	7.37	-48.8	-64.3	3.8	1.49e+00	0	43	104	0	69	21254
2026-01-26 21:32:27.70	51.58	7.43	-48.8	-64.3	3.8	1.49e+00	0	43	104	0	69	21259
2026-01-26 21:32:29.68	51.87	7.50	-48.8	-64.4	3.8	1.49e+00	0	42	104	0	69	21290
2026-01-26 21:32:31.67	52.17	7.56	-48.8	-64.4	3.8	1.49e+00	0	43	104	0	69	21326
2026-01-26 21:32:33.66	52.47	7.63	-48.9	-64.4	3.8	1.49e+00	0	42	104	0	69	21285
2026-01-26 21:32:35.65	52.77	7.69	-48.8	-64.3	3.8	1.49e+00	0	43	104	0	69	21229
2026-01-26 21:32:37.63	53.07	7.76	-48.9	-64.3	3.8	1.49e+00	0	42	104	0	69	21161
2026-01-26 21:32:39.62	53.37	7.82	-48.8	-64.3	3.8	1.49e+00	0	42	104	0	69	21225
2026-01-26 21:32:41.60	53.68	7.88	-48.8	-64.3	3.8	1.49e+00	0	43	104	0	69	21254
2026-01-26 21:32:43.59	53.98	7.94	-48.9	-64.3	3.8	1.49e+00	0	43	104	0	69	21216
2026-01-26 21:32:45.58	54.29	8.00	-48.8	-64.4	3.8	1.49e+00	0	43	104	0	69	21320
2026-01-26 21:32:47.57	54.60	8.07	-48.9	-64.4	3.8	1.49e+00	0	43	104	0	69	21309
2026-01-26 21:32:49.55	54.90	8.13	-48.8	-64.4	3.8	1.49e+00	0	43	104	0	69	21268
2026-01-26 21:32:51.54	55.21	8.18	-48.9	-64.3	3.8	1.49e+00	0	43	104	0	69	21205
2026-01-26 21:32:53.53	55.52	8.24	-48.9	-64.3	3.8	1.49e+00	0	43	104	0	69	21158
2026-01-26 21:32:55.52	55.84	8.30	-48.8	-64.3	3.8	1.49e+00	0	43	104	0	69	21129
2026-01-26 21:32:57.50	56.15	8.36	-48.8	-64.2	3.8	1.49e+00	0	43	104	0	69	20923
2026-01-26 21:32:59.49	56.47	8.42	-48.8	-64.2	3.8	1.49e+00	0	43	104	0	69	20899
2026-01-26 21:33:01.48	56.78	8.47	-48.8	-64.2	3.8	1.49e+00	0	43	104	0	69	20917
2026-01-26 21:33:03.47	57.10	8.53	-48.8	-64.3	3.8	1.49e+00	0	43	104	0	69	21229
2026-01-26 21:33:05.45	57.42	8.59	-48.8	-64.3	3.8	1.49e+00	0	43	104	0	69	21198
2026-01-26 21:33:07.44	57.74	8.64	-48.8	-64.4	3.8	1.49e+00	0	43	104	0	69	21277
2026-01-26 21:33:09.43	58.06	8.69	-48.8	-64.3	3.8	1.49e+00	0	43	104	0	69	21212
2026-01-26 21:33:11.41	58.38	8.75	-48.8	-64.2	3.8	1.49e+00	0	43	104	0	69	21013
2026-01-26 21:33:13.40	58.70	8.80	-48.8	-64.3	3.8	1.49e+00	0	43	104	0	69	21095
2026-01-26 21:33:15.39	59.03	8.85	-48.8	-64.1	3.8	1.49e+00	0	43	104	0	69	20714
2026-01-26 21:33:17.37	59.35	8.90	-48.8	-63.8	3.8	1.49e+00	0	43	104	0	69	19951
2026-01-26 21:33:19.36	59.68	8.95	-48.8	-63.2	3.8	1.49e+00	0	43	104	0	69	18635
2026-01-26 21:33:21.35	60.01	9.00	-48.4	-58.7	5.0	9.62e-01	0	43	0	1048576	68	11813
2026-01-26 21:33:23.34	60.33	9.05	-48.6	-60.3	4.3	1.14e+00	0	43	0	4194304	68	14173
2026-01-26 21:33:25.33	60.66	9.10	-47.2	-53.7	9.2	1.06e-02	0	43	0	5242880	65	7891
2026-01-26 21:33:27.35	61.00	9.15	-45.2	-49.1	14.0	1.08e-03	0	43	0	7340032	62	5508
2026-01-26 21:33:29.34	61.33	9.20	-45.2	-49.0	14.2	3.00e-06	0	43	0	11534336	62	5417
2026-01-26 21:33:31.37	61.67	9.25	-45.0	-48.5	14.6	0.00e+00	0	43	0	14680064	62	5157
2026-01-26 21:33:33.36	62.01	9.29	-44.6	-47.9	15.2	0.00e+00	0	43	0	18874368	61	5087
2026-01-26 21:33:35.35	62.34	9.34	-44.4	-47.6	15.5	0.00e+00	0	43	0	22020096	60	5216
2026-01-26 21:33:37.35	62.68	9.38	-44.8	-48.2	15.0	0.00e+00	0	43	0	26214400	60	5535
2026-01-26 21:33:39.34	63.02	9.42	-44.9	-48.4	14.7	0.00e+00	0	43	0	30408704	60	5717
2026-01-26 21:33:41.32	63.35	9.47	-44.9	-48.4	14.7	7.00e-07	0	43	0	33554432	60	5670
2026-01-26 21:33:43.38	63.71	9.51	-44.5	-47.8	15.3	0.00e+00	0	43	0	37748736	60	5305
2026-01-26 21:33:45.37	64.05	9.55	-44.3	-47.5	15.6	0.00e+00	0	43	0	40894464	60	5123
2026-01-26 21:33:47.50	64.41	9.59	-44.6	-47.9	15.2	7.00e-07	0	43	0	45088768	60	5398
2026-01-26 21:33:49.50	64.76	9.63	-44.8	-48.2	14.9	0.00e+00	0	43	0	49283072	60	5582
2026-01-26 21:33:51.49	65.10	9.67	-44.9	-48.5	14.7	7.00e-07	0	43	0	52428800	60	5734
2026-01-26 21:33:53.48	65.44	9.71	-44.7	-48.0	15.2	0.00e+00	0	43	0	56623104	60	5432
2026-01-26 21:33:55.47	65.79	9.74	-44.2	-47.3	15.8	0.00e+00	0	43	0	59768832	60	5020
2026-01-26 21:33:57.46	66.13	9.78	-44.4	-47.7	15.4	0.00e+00	0	43	0	63963136	60	5251
2026-01-26 21:33:59.51	66.49	9.82	-44.6	-47.9	15.2	0.00e+00	0	43	0	68157440	60	5398
2026-01-26 21:34:01.50	66.84	9.85	-44.4	-47.7	15.4	0.00e+00	0	43	0	71303168	60	5259
2026-01-26 21:34:03.49	67.19	9.88	-44.6	-48.0	15.1	0.00e+00	0	43	0	75497472	60	5443
2026-01-26 21:34:05.70	67.57	9.92	-44.8	-48.3	14.9	0.00e+00	0	43	0	79691776	60	5598
2026-01-26 21:34:07.70	67.92	9.95	-45.2	-48.8	14.3	1.50e-06	0	43	0	82837504	61	5647
2026-01-26 21:34:09.69	68.27	9.98	-46.0	-50.2	13.0	7.60e-06	0	43	0	87031808	62	6218
2026-01-26 21:34:11.69	68.63	10.01	-46.1	-50.3	12.9	4.73e-05	0	43	0	90177536	62	6332
2026-01-26 21:34:13.71	68.98	10.04	-45.7	-49.7	13.5	2.82e-05	0	43	0	94371840	62	5922
2026-01-26 21:34:15.71	69.34	10.07	-45.5	-49.4	13.8	1.50e-06	0	43	0	98566144	62	5686
2026-01-26 21:34:17.71	69.69	10.09	-45.2	-49.0	14.1	0.00e+00	0	43	0	101711872	62	5459
2026-01-26 21:34:19.72	70.05	10.12	-45.3	-49.1	14.0	7.00e-07	0	43	0	105906176	62	5521
2026-01-26 21:34:21.75	70.41	10.15	-45.4	-49.2	14.0	0.00e+00	0	43	0	109051904	62	5571
2026-01-26 21:34:23.75	70.77	10.17	-45.3	-48.9	14.3	2.20e-06	0	43	0	113246208	62	5370
2026-01-26 21:34:25.74	71.13	10.19	-45.3	-49.0	14.2	1.50e-06	0	43	0	117440512	62	5409
2026-01-26 21:34:27.77	71.49	10.22	-45.1	-48.8	14.4	0.00e+00	0	43	0	120586240	62	5293
2026-01-26 21:34:29.73	71.84	10.24	-45.2	-48.8	14.4	3.00e-06	0	43	0	124780544	62	5314
2026-01-26 21:34:31.73	72.20	10.26	-45.1	-48.7	14.5	1.50e-06	0	43	0	127926272	62	5253
2026-01-26 21:34:33.72	72.56	10.28	-44.9	-48.4	14.8	0.00e+00	0	43	0	132120576	61	5354
2026-01-26 21:34:35.79	72.93	10.29	-44.6	-47.9	15.3	0.00e+00	0	43	0	135266304	61	5065
2026-01-26 21:34:37.78	73.29	10.31	-44.7	-48.0	15.2	0.00e+00	0	43	0	139460608	61	5108
2026-01-26 21:34:39.79	73.65	10.33	-44.8	-48.2	15.0	0.00e+00	0	43	0	143654912	61	5232
2026-01-26 21:34:41.88	74.03	10.34	-44.7	-48.1	15.1	0.00e+00	0	43	0	146800640	61	5193
2026-01-26 21:34:43.86	74.39	10.36	-44.7	-48.1	15.1	0.00e+00	0	43	0	150994944	61	5179
2026-01-26 21:34:45.86	74.75	10.37	-44.4	-47.6	15.5	0.00e+00	0	43	0	154140672	60	5195
2026-01-26 21:34:47.85	75.11	10.38	-44.4	-47.7	15.6	0.00e+00	0	43	0	158334976	60	5220
2026-01-26 21:34:49.84	75.47	10.39	-44.7	-48.0	15.1	0.00e+00	0	43	0	162529280	60	5438
2026-01-26 21:34:51.83	75.83	10.40	-44.8	-48.1	15.1	0.00e+00	0	43	0	165675008	60	5503
2026-01-26 21:34:53.82	76.19	10.41	-44.5	-47.7	15.5	0.00e+00	0	43	0	169869312	60	5229
2026-01-26 21:34:55.81	76.55	10.42	-44.0	-47.0	16.1	0.00e+00	0	43	0	173015040	59	5157
2026-01-26 21:34:57.80	76.91	10.43	-44.0	-47.0	16.2	0.00e+00	0	43	0	177209344	59	5105
2026-01-26 21:34:59.79	77.28	10.43	-43.8	-46.8	16.3	0.00e+00	0	43	0	180355072	59	5010
2026-01-26 21:35:01.78	77.64	10.44	-43.9	-46.9	16.3	0.00e+00	0	43	0	184549376	59	5066
2026-01-26 21:35:03.77	78.00	10.44	-43.7	-46.6	16.5	0.00e+00	0	43	0	188743680	59	4911
2026-01-26 21:35:05.86	78.38	10.45	-43.5	-46.3	16.8	0.00e+00	0	43	0	191889408	58	5004
2026-01-26 21:35:07.92	78.76	10.45	-43.6	-46.4	16.7	0.00e+00	0	43	0	196083712	58	5053
2026-01-26 21:35:09.91	79.12	10.45	-43.8	-46.7	16.4	0.00e+00	0	43	0	199229440	58	5260
2026-01-26 21:35:11.90	79.48	10.45	-44.0	-47.0	16.2	0.00e+00	0	43	0	203423744	58	5425
2026-01-26 21:35:13.89	79.84	10.45	-44.1	-47.1	16.0	0.00e+00	0	43	0	207618048	58	5512
2026-01-26 21:35:15.88	80.21	10.45	-43.9	-47.0	16.2	0.00e+00	0	43	0	210763776	58	5420
2026-01-26 21:35:17.87	80.57	10.44	-43.6	-46.5	16.6	0.00e+00	0	43	0	214958080	58	5127
2026-01-26 21:35:19.86	80.93	10.44	-43.7	-46.6	16.5	0.00e+00	0	43	0	218103808	58	5204
2026-01-26 21:35:22.27	81.37	10.43	-43.7	-46.6	16.5	0.00e+00	0	43	0	223346688	58	5212
2026-01-26 21:35:24.26	81.73	10.43	-43.7	-46.7	16.4	0.00e+00	0	43	0	226492416	58	5250
2026-01-26 21:35:26.26	82.09	10.42	-43.7	-46.6	16.5	0.00e+00	0	43	0	230686720	58	5198
2026-01-26 21:35:28.25	82.46	10.41	-43.5	-46.4	16.8	0.00e+00	0	43	0	233832448	58	5060
2026-01-26 21:35:30.24	82.82	10.40	-43.5	-46.4	16.7	0.00e+00	0	43	0	238026752	58	5056
2026-01-26 21:35:32.23	83.18	10.39	-43.4	-46.2	17.0	0.00e+00	0	43	0	241172480	58	4943
2026-01-26 21:35:34.22	83.54	10.38	-43.3	-46.1	17.0	0.00e+00	0	43	0	245366784	58	4898
2026-01-26 21:35:36.21	83.90	10.37	-43.1	-45.9	17.2	0.00e+00	0	43	0	248512512	58	4776
2026-01-26 21:35:38.28	84.27	10.36	-42.7	-45.2	17.8	0.00e+00	0	43	0	252706816	57	4703
2026-01-26 21:35:40.29	84.64	10.34	-42.7	-45.3	17.7	0.00e+00	0	43	0	256901120	57	4749
2026-01-26 21:35:42.28	85.00	10.33	-42.8	-45.5	17.6	0.00e+00	0	43	0	260046848	57	4826
2026-01-26 21:35:44.28	85.36	10.31	-43.0	-45.7	17.4	0.00e+00	0	43	0	264241152	57	4943
2026-01-26 21:35:46.29	85.72	10.29	-43.1	-45.8	17.2	0.00e+00	0	43	0	268435456	57	5039
2026-01-26 21:35:48.31	86.09	10.27	-43.1	-45.9	17.2	0.00e+00	0	43	0	271581184	57	5045
2026-01-26 21:35:50.30	86.44	10.25	-43.0	-45.8	17.3	0.00e+00	0	43	0	275775488	57	4990
2026-01-26 21:35:52.32	86.81	10.23	-43.0	-45.8	17.3	0.00e+00	0	43	0	278921216	57	4985
2026-01-26 21:35:54.34	87.17	10.21	-43.1	-45.8	17.2	0.00e+00	0	43	0	283115520	57	5019
2026-01-26 21:35:56.72	87.60	10.19	-43.3	-46.1	17.0	0.00e+00	0	43	0	287309824	57	5196
2026-01-26 21:35:58.71	87.95	10.16	-43.2	-46.0	17.1	0.00e+00	0	43	0	291504128	57	5109
2026-01-26 21:36:00.70	88.31	10.14	-43.3	-46.1	16.9	0.00e+00	0	43	0	294649856	57	5162
2026-01-26 21:36:02.69	88.66	10.11	-43.3	-46.1	17.0	0.00e+00	0	43	0	298844160	57	5162
2026-01-26 21:36:04.68	89.02	10.09	-43.4	-46.2	16.9	0.00e+00	0	43	0	301989888	57	5237
2026-01-26 21:36:06.77	89.39	10.06	-43.7	-46.6	16.5	0.00e+00	0	43	0	306184192	58	5199
2026-01-26 21:36:08.80	89.75	10.03	-43.9	-46.9	16.2	0.00e+00	0	43	0	310378496	58	5388
2026-01-26 21:36:10.87	90.12	10.00	-43.9	-46.9	16.2	0.00e+00	0	43	0	314572800	58	5393
2026-01-26 21:36:12.94	90.48	9.97	-43.6	-46.5	16.5	0.00e+00	0	43	0	317718528	58	5132
2026-01-26 21:36:14.93	90.83	9.94	-43.3	-46.1	16.9	0.00e+00	0	43	0	321912832	58	4918
2026-01-26 21:36:16.93	91.18	9.90	-43.1	-45.7	17.3	0.00e+00	0	43	0	325058560	58	4679
2026-01-26 21:36:18.92	91.53	9.87	-42.7	-45.3	17.7	0.00e+00	0	43	0	329252864	57	4725
2026-01-26 21:36:21.06	91.91	9.84	-42.4	-44.9	18.0	0.00e+00	0	43	0	333447168	56	4797
2026-01-26 21:36:23.05	92.26	9.80	-42.2	-44.7	18.3	0.00e+00	0	43	0	336592896	56	4689
2026-01-26 21:36:25.04	92.60	9.77	-42.2	-44.6	18.3	0.00e+00	0	43	0	340787200	56	4648
2026-01-26 21:36:27.02	92.95	9.73	-42.4	-44.8	18.2	0.00e+00	0	43	0	343932928	56	4740
2026-01-26 21:36:29.01	93.29	9.69	-42.7	-45.3	17.7	0.00e+00	0	43	0	348127232	56	5005
2026-01-26 21:36:31.00	93.64	9.65	-42.7	-45.2	17.7	0.00e+00	0	43	0	351272960	56	4969
2026-01-26 21:36:32.99	93.98	9.62	-42.9	-45.5	17.5	0.00e+00	0	43	0	355467264	56	5108
2026-01-26 21:36:34.98	94.33	9.58	-42.9	-45.5	17.5	0.00e+00	0	43	0	359661568	56	5135
2026-01-26 21:36:36.97	94.67	9.54	-42.8	-45.4	17.6	0.00e+00	0	43	0	362807296	56	5094
2026-01-26 21:36:38.96	95.01	9.49	-42.8	-45.4	17.6	0.00e+00	0	43	0	367001600	56	5059
2026-01-26 21:36:40.95	95.35	9.45	-43.1	-45.8	17.2	0.00e+00	0	43	0	370147328	56	5295
2026-01-26 21:36:42.95	95.69	9.41	-43.1	-45.9	17.1	0.00e+00	0	43	0	374341632	57	5054
2026-01-26 21:36:44.94	96.03	9.37	-43.2	-46.0	17.0	0.00e+00	0	43	0	377487360	57	5112
2026-01-26 21:36:46.93	96.37	9.32	-43.0	-45.7	17.3	0.00e+00	0	43	0	381681664	57	4929
2026-01-26 21:36:48.92	96.70	9.28	-42.6	-45.1	17.8	0.00e+00	0	43	0	385875968	57	4628
2026-01-26 21:36:50.91	97.04	9.23	-42.3	-44.8	18.1	0.00e+00	0	43	0	389021696	56	4726
2026-01-26 21:36:52.90	97.37	9.18	-42.4	-44.9	18.0	0.00e+00	0	43	0	393216000	56	4796
2026-01-26 21:36:54.89	97.70	9.13	-42.7	-45.3	17.6	0.00e+00	0	43	0	396361728	56	5007
2026-01-26 21:36:56.91	98.04	9.09	-42.8	-45.4	17.6	0.00e+00	0	43	0	400556032	56	5060
2026-01-26 21:36:58.90	98.37	9.04	-42.9	-45.5	17.4	0.00e+00	0	43	0	403701760	56	5157
2026-01-26 21:37:00.86	98.70	8.99	-48.6	-59.1	5.5	8.30e-06	0	43	0	407896064	67	13085
2026-01-26 21:37:02.85	99.03	8.94	-49.5	-64.8	3.8	1.49e+00	0	43	104	407896064	69	22457
2026-01-26 21:37:04.83	99.35	8.89	-49.4	-64.9	3.8	1.49e+00	0	43	104	407896064	69	22780
2026-01-26 21:37:06.82	99.68	8.83	-49.2	-65.0	3.8	1.49e+00	0	43	104	407896064	69	22876
2026-01-26 21:37:08.81	100.00	8.78	-49.3	-65.1	3.8	1.49e+00	0	43	104	407896064	69	23085
2026-01-26 21:37:10.79	100.33	8.73	-49.5	-65.1	3.8	1.49e+00	0	43	104	407896064	69	23151
2026-01-26 21:37:12.78	100.65	8.67	-49.5	-65.1	3.8	1.49e+00	0	44	104	407896064	69	23148
2026-01-26 21:37:14.77	100.97	8.62	-49.6	-65.1	3.8	1.49e+00	0	43	104	407896064	69	23186
2026-01-26 21:37:16.75	101.29	8.56	-49.5	-65.1	3.8	1.49e+00	0	43	104	407896064	69	23108
2026-01-26 21:37:18.74	101.61	8.51	-49.4	-65.1	3.8	1.49e+00	0	43	104	407896064	69	23154
2026-01-26 21:37:20.72	101.93	8.45	-49.4	-65.1	3.8	1.49e+00	0	43	104	407896064	69	23124
2026-01-26 21:37:22.71	102.25	8.39	-49.5	-65.1	3.8	1.49e+00	0	43	104	407896064	69	23082
2026-01-26 21:37:24.70	102.56	8.34	-49.5	-65.1	3.8	1.49e+00	0	43	104	407896064	69	23046
2026-01-26 21:37:26.69	102.88	8.28	-49.5	-65.0	3.8	1.49e+00	0	44	104	407896064	69	22964
2026-01-26 21:37:28.67	103.19	8.22	-49.5	-65.1	3.8	1.49e+00	0	43	104	407896064	69	23052
2026-01-26 21:37:30.66	103.50	8.16	-49.5	-65.0	3.8	1.49e+00	0	43	104	407896064	69	23022
2026-01-26 21:37:32.65	103.81	8.10	-49.5	-65.0	3.8	1.49e+00	0	43	104	407896064	69	23012
2026-01-26 21:37:34.64	104.12	8.04	-49.5	-65.0	3.8	1.49e+00	0	43	104	407896064	69	22972
2026-01-26 21:37:36.62	104.43	7.98	-49.5	-65.0	3.8	1.49e+00	0	43	104	407896064	69	22953
2026-01-26 21:37:38.61	104.74	7.92	-49.4	-65.0	3.8	1.49e+00	0	43	104	407896064	69	22879
2026-01-26 21:37:40.60	105.04	7.85	-49.4	-65.0	3.8	1.49e+00	0	43	104	407896064	69	22922
2026-01-26 21:37:42.58	105.35	7.79	-49.5	-65.0	3.8	1.49e+00	0	43	104	407896064	69	22966
2026-01-26 21:37:44.57	105.65	7.73	-49.4	-65.0	3.8	1.49e+00	0	43	104	407896064	69	22904
2026-01-26 21:37:46.56	105.95	7.66	-49.4	-65.0	3.8	1.49e+00	0	43	104	407896064	69	22885
2026-01-26 21:37:48.55	106.26	7.60	-49.4	-65.0	3.8	1.49e+00	0	43	104	407896064	69	22978
2026-01-26 21:37:50.53	106.55	7.53	-49.4	-65.0	3.8	1.49e+00	0	43	104	407896064	69	22954
2026-01-26 21:37:52.52	106.85	7.47	-49.4	-65.0	3.8	1.49e+00	0	43	104	407896064	69	22875
2026-01-26 21:37:54.51	107.15	7.40	-49.4	-65.0	3.8	1.49e+00	0	43	104	407896064	69	22917
2026-01-26 21:37:56.50	107.45	7.33	-49.4	-65.0	3.8	1.49e+00	0	43	104	407896064	69	22856
2026-01-26 21:37:58.48	107.74	7.27	-49.4	-65.0	3.8	1.49e+00	0	43	104	407896064	69	22819
2026-01-26 21:38:00.47	108.03	7.20	-49.4	-65.0	3.8	1.49e+00	0	43	104	407896064	69	22897
2026-01-26 21:38:02.46	108.32	7.13	-49.4	-65.0	3.8	1.49e+00	0	43	104	407896064	69	22982
2026-01-26 21:38:04.44	108.61	7.06	-49.4	-65.0	3.8	1.49e+00	0	43	104	407896064	69	22862
2026-01-26 21:38:06.43	108.90	6.99	-49.5	-65.0	3.8	1.49e+00	0	43	104	407896064	69	22992
2026-01-26 21:38:08.42	109.19	6.93	-49.5	-65.0	3.8	1.49e+00	0	43	104	407896064	69	23019
2026-01-26 21:38:10.40	109.48	6.86	-49.5	-65.0	3.8	1.49e+00	0	43	104	407896064	69	22866
2026-01-26 21:38:12.39	109.76	6.79	-49.4	-65.0	3.8	1.49e+00	0	44	104	407896064	69	22935
2026-01-26 21:38:14.37	110.04	6.72	-49.5	-65.0	3.8	1.49e+00	0	43	104	407896064	69	22929
2026-01-26 21:38:16.36	110.33	6.64	-49.5	-65.0	3.8	1.49e+00	0	43	104	407896064	69	23037
2026-01-26 21:38:18.35	110.61	6.57	-49.4	-65.0	3.8	1.49e+00	0	44	104	407896064	69	23012
2026-01-26 21:38:20.33	110.89	6.50	-49.5	-65.0	3.8	1.49e+00	0	43	104	407896064	69	22993
2026-01-26 21:38:22.32	111.17	6.43	-49.5	-65.0	3.8	1.49e+00	0	43	104	407896064	69	22961
2026-01-26 21:38:24.31	111.44	6.36	-49.4	-65.0	3.8	1.49e+00	0	43	104	407896064	69	22964
2026-01-26 21:38:26.29	111.72	6.28	-49.4	-65.0	3.8	1.49e+00	0	43	104	407896064	69	22951
2026-01-26 21:38:28.28	111.99	6.21	-49.4	-65.0	3.8	1.49e+00	0	43	104	407896064	69	22879
2026-01-26 21:38:30.27	112.27	6.14	-49.4	-65.0	3.8	1.49e+00	0	43	104	407896064	69	22814
2026-01-26 21:38:32.25	112.54	6.06	-49.4	-65.0	3.8	1.49e+00	0	44	104	407896064	69	22930
2026-01-26 21:38:34.24	112.81	5.99	-49.4	-65.0	3.8	1.49e+00	0	43	104	407896064	69	22841
2026-01-26 21:38:36.23	113.08	5.92	-49.4	-65.0	3.8	1.49e+00	0	44	104	407896064	69	22952
2026-01-26 21:38:38.21	113.35	5.84	-49.4	-65.0	3.8	1.49e+00	0	44	104	407896064	69	22919
2026-01-26 21:38:40.20	113.61	5.77	-49.4	-65.0	3.8	1.49e+00	0	43	104	407896064	69	22866
2026-01-26 21:38:42.18	113.88	5.69	-49.4	-65.0	3.8	1.49e+00	0	43	104	407896064	69	22884
2026-01-26 21:38:44.17	114.14	5.62	-49.4	-65.0	3.8	1.49e+00	0	44	104	407896064	69	22874
2026-01-26 21:38:46.16	114.40	5.54	-49.4	-65.0	3.8	1.49e+00	0	44	104	407896064	69	22909
2026-01-26 21:38:48.15	114.67	5.46	-49.4	-65.0	3.8	1.49e+00	0	43	104	407896064	69	22883
2026-01-26 21:38:50.13	114.92	5.39	-49.5	-65.0	3.8	1.49e+00	0	43	104	407896064	69	22917
2026-01-26 21:38:52.12	115.18	5.31	-49.4	-65.0	3.8	1.49e+00	0	44	104	407896064	69	22895
2026-01-26 21:38:54.10	115.44	5.23	-49.4	-65.0	3.8	1.49e+00	0	43	104	407896064	69	22930
2026-01-26 21:38:56.09	115.70	5.16	-49.4	-65.0	3.8	1.49e+00	0	43	104	407896064	69	22818
2026-01-26 21:38:58.07	115.95	5.08	-49.4	-65.0	3.8	1.49e+00	0	44	104	407896064	69	22819
2026-01-26 21:39:00.06	116.20	5.00	-49.4	-65.0	3.8	1.49e+00	0	43	104	407896064	69	22931

#Closed at: 2026-01-26 21:39:01
#Recorded file [407 MB]: D:/Data/31040_260127_003120.dat