passes_logs/2026/01/26/T1/T1__20260126_121412_NOAA_21_JPSS-2_rec.log

#Pass ID: 20260126_121412_NOAA 21 (JPSS-2)
#Satellite: NOAA 21 (JPSS-2)
#Configuration: NOAA 21
#almurnet v.1.7.20251203
#Start time: 2026-01-26 12:14:12

#Version: 2.0.20230620
#Station: T1
#Location: 37.570604 lon 55.790049 lat
#TLE: 1 54234U 22150A   26025.79694208  .00000182  00000+0  10700-3 0  9999
#TLE: 2 54234  98.7509 326.5666 0000777 213.2444 146.8684 14.19539347166346

#Time	Az	El	Level	Level2	SNR	BER	BlckErr	Temp	State	Recorded	gain1	gain2
2026-01-26 12:14:12.32	241.54	4.99	-49.6	-62.7	3.8	1.49e+00	0	40	0	0	71	15697
2026-01-26 12:14:14.31	241.79	5.07	-49.6	-62.7	3.8	1.49e+00	0	41	104	0	71	15657
2026-01-26 12:14:16.29	242.04	5.15	-49.6	-62.7	3.8	1.49e+00	0	40	104	0	71	15644
2026-01-26 12:14:18.28	242.29	5.23	-49.5	-62.6	3.8	1.49e+00	0	40	104	0	71	15538
2026-01-26 12:14:20.26	242.54	5.31	-49.5	-62.6	3.8	1.49e+00	0	41	104	0	71	15536
2026-01-26 12:14:22.25	242.79	5.39	-49.5	-62.7	3.8	1.49e+00	0	41	104	0	71	15586
2026-01-26 12:14:24.24	243.05	5.47	-49.5	-62.6	3.8	1.49e+00	0	41	104	0	71	15545
2026-01-26 12:14:26.22	243.30	5.55	-49.5	-62.6	3.8	1.49e+00	0	41	104	0	71	15518
2026-01-26 12:14:28.21	243.56	5.63	-49.5	-62.6	3.8	1.49e+00	0	41	104	0	71	15506
2026-01-26 12:14:30.19	243.82	5.71	-49.6	-62.7	3.8	1.49e+00	0	41	104	0	71	15595
2026-01-26 12:14:32.18	244.08	5.79	-49.5	-62.7	3.8	1.49e+00	0	41	104	0	71	15601
2026-01-26 12:14:34.17	244.34	5.87	-49.5	-62.6	3.8	1.49e+00	0	41	104	0	71	15500
2026-01-26 12:14:36.15	244.61	5.95	-49.5	-62.6	3.8	1.49e+00	0	41	104	0	70	16452
2026-01-26 12:14:38.14	244.87	6.03	-49.5	-62.6	3.8	1.49e+00	0	41	104	0	70	16461
2026-01-26 12:14:40.12	245.14	6.10	-49.5	-62.6	3.8	1.49e+00	0	41	104	0	70	16413
2026-01-26 12:14:42.11	245.41	6.18	-49.5	-62.6	3.8	1.49e+00	0	41	104	0	70	16411
2026-01-26 12:14:44.10	245.67	6.26	-49.5	-62.6	3.8	1.49e+00	0	41	104	0	70	16342
2026-01-26 12:14:46.08	245.94	6.34	-49.5	-62.6	3.8	1.49e+00	0	41	104	0	70	16372
2026-01-26 12:14:48.07	246.22	6.41	-49.4	-62.6	3.8	1.49e+00	0	42	104	0	70	16357
2026-01-26 12:14:50.05	246.49	6.49	-49.5	-62.6	3.8	1.49e+00	0	42	104	0	70	16378
2026-01-26 12:14:52.04	246.76	6.57	-49.5	-62.5	3.8	1.49e+00	0	41	104	0	70	16258
2026-01-26 12:14:54.03	247.04	6.64	-49.4	-62.5	3.8	1.49e+00	0	42	104	0	70	16268
2026-01-26 12:14:56.01	247.31	6.72	-49.4	-62.5	3.8	1.49e+00	0	42	104	0	70	16247
2026-01-26 12:14:58.00	247.59	6.79	-49.4	-62.5	3.8	1.49e+00	0	42	104	0	70	16257
2026-01-26 12:14:59.99	247.87	6.87	-49.5	-62.6	3.8	1.49e+00	0	42	104	0	70	16411
2026-01-26 12:15:01.97	248.15	6.94	-49.5	-62.6	3.8	1.49e+00	0	42	104	0	70	16371
2026-01-26 12:15:03.96	248.44	7.02	-49.4	-62.5	3.8	1.49e+00	0	42	104	0	70	16309
2026-01-26 12:15:05.95	248.72	7.09	-49.4	-62.5	3.8	1.49e+00	0	42	104	0	70	16302
2026-01-26 12:15:07.93	249.01	7.16	-49.4	-62.6	3.8	1.49e+00	0	42	104	0	70	16347
2026-01-26 12:15:09.92	249.29	7.23	-49.4	-62.5	3.8	1.49e+00	0	42	104	0	70	16209
2026-01-26 12:15:11.91	249.58	7.31	-49.4	-62.5	3.8	1.49e+00	0	42	104	0	70	16170
2026-01-26 12:15:13.89	249.87	7.38	-49.4	-62.4	3.8	1.49e+00	0	42	104	0	70	16124
2026-01-26 12:15:15.88	250.16	7.45	-49.4	-62.4	3.8	1.49e+00	0	42	104	0	70	16023
2026-01-26 12:15:17.86	250.45	7.52	-49.4	-62.4	3.8	1.49e+00	0	42	104	0	70	15958
2026-01-26 12:15:19.85	250.75	7.59	-49.4	-62.4	3.8	1.49e+00	0	42	104	0	70	16069
2026-01-26 12:15:21.84	251.04	7.66	-49.4	-62.4	3.8	1.49e+00	0	42	104	0	70	16060
2026-01-26 12:15:23.82	251.34	7.73	-49.4	-62.4	3.8	1.49e+00	0	42	104	0	70	16110
2026-01-26 12:15:25.81	251.64	7.80	-49.4	-62.4	3.8	1.49e+00	0	42	104	0	70	16048
2026-01-26 12:15:27.80	251.94	7.87	-49.4	-62.5	3.8	1.49e+00	0	42	104	0	70	16228
2026-01-26 12:15:29.78	252.23	7.94	-49.4	-62.4	3.8	1.49e+00	0	42	104	0	70	16065
2026-01-26 12:15:31.77	252.54	8.01	-49.4	-62.2	3.8	1.49e+00	0	42	104	0	70	15719
2026-01-26 12:15:33.76	252.84	8.07	-49.4	-62.3	3.8	1.49e+00	0	42	104	0	70	15890
2026-01-26 12:15:35.74	253.14	8.14	-49.4	-62.5	3.8	1.49e+00	0	42	104	0	70	16141
2026-01-26 12:15:37.73	253.45	8.21	-49.4	-62.4	3.8	1.49e+00	0	42	104	0	70	16089
2026-01-26 12:15:39.72	253.76	8.27	-49.4	-62.3	3.8	1.49e+00	0	42	104	0	70	15818
2026-01-26 12:15:41.70	254.07	8.34	-49.4	-62.4	3.8	1.49e+00	0	42	104	0	70	15996
2026-01-26 12:15:43.69	254.38	8.40	-49.4	-62.5	3.8	1.49e+00	0	42	104	0	70	16278
2026-01-26 12:15:45.67	254.69	8.47	-49.4	-62.5	3.8	1.49e+00	0	43	104	0	70	16248
2026-01-26 12:15:47.66	255.00	8.53	-49.3	-62.0	3.8	1.49e+00	0	42	104	0	70	15269
2026-01-26 12:15:49.65	255.31	8.59	-49.2	-60.5	3.8	1.48e+00	0	43	104	0	70	12811
2026-01-26 12:15:51.64	255.63	8.66	-49.4	-62.4	3.8	1.49e+00	0	42	104	0	70	15989
2026-01-26 12:15:53.62	255.94	8.72	-48.1	-54.5	6.7	4.42e-01	0	42	0	0	68	7286
2026-01-26 12:15:55.61	256.26	8.78	-44.4	-47.2	14.1	4.50e-06	0	42	0	0	60	4942
2026-01-26 12:15:57.59	256.58	8.84	-42.0	-44.1	17.0	0.00e+00	0	43	0	0	56	4389
2026-01-26 12:15:59.58	256.90	8.90	-41.9	-44.0	17.0	0.00e+00	0	43	0	0	55	4589
2026-01-26 12:16:01.57	257.22	8.96	-44.3	-47.0	14.2	1.50e-06	0	43	0	0	59	5143
2026-01-26 12:16:03.55	257.55	9.02	-48.2	-55.6	6.2	3.66e-03	0	42	0	0	66	9175
2026-01-26 12:16:05.54	257.87	9.08	-46.4	-50.6	10.9	0.00e+00	0	42	0	0	63	6157
2026-01-26 12:16:07.53	258.20	9.13	-46.1	-49.9	11.1	1.24e-01	0	42	0	0	64	5388
2026-01-26 12:16:09.52	258.52	9.19	-46.2	-50.0	11.2	1.19e-03	0	43	0	0	63	5769
2026-01-26 12:16:11.51	258.85	9.25	-46.3	-50.2	11.0	1.73e-03	0	42	0	0	63	5879
2026-01-26 12:16:13.51	259.18	9.30	-44.7	-47.6	13.7	1.14e-05	0	43	0	0	61	4906
2026-01-26 12:16:15.50	259.51	9.36	-44.3	-47.1	14.2	0.00e+00	0	43	0	0	60	4888
2026-01-26 12:16:17.49	259.84	9.41	-43.7	-46.3	15.0	0.00e+00	0	43	0	0	59	4717
2026-01-26 12:16:19.48	260.18	9.46	-42.9	-45.3	15.9	0.00e+00	0	43	0	0	57	4720
2026-01-26 12:16:21.47	260.51	9.52	-42.3	-44.5	16.7	0.00e+00	0	43	0	0	56	4593
2026-01-26 12:16:23.46	260.85	9.57	-42.2	-44.4	16.8	0.00e+00	0	43	0	0	56	4524
2026-01-26 12:16:25.45	261.18	9.62	-41.6	-43.7	17.3	0.00e+00	0	43	0	0	55	4433
2026-01-26 12:16:27.44	261.52	9.67	-41.4	-43.4	17.6	0.00e+00	0	43	0	0	54	4517
2026-01-26 12:16:29.43	261.86	9.72	-41.3	-43.3	17.7	0.00e+00	0	43	0	0	54	4468
2026-01-26 12:16:31.42	262.20	9.77	-41.4	-43.4	17.6	0.00e+00	0	43	0	0	54	4536
2026-01-26 12:16:33.41	262.54	9.82	-41.3	-43.2	17.8	0.00e+00	0	43	0	0	54	4440
2026-01-26 12:16:35.40	262.88	9.86	-41.2	-43.2	17.9	0.00e+00	0	43	0	0	54	4400
2026-01-26 12:16:37.40	263.23	9.91	-41.3	-43.3	17.7	0.00e+00	0	42	0	0	54	4483
2026-01-26 12:16:39.39	263.57	9.95	-41.2	-43.2	17.8	0.00e+00	0	42	0	0	54	4409
2026-01-26 12:16:41.37	263.91	10.00	-41.3	-43.3	17.7	0.00e+00	0	42	0	0	54	4456
2026-01-26 12:16:43.36	264.26	10.04	-41.2	-43.2	17.8	0.00e+00	0	42	0	0	54	4435
2026-01-26 12:16:45.35	264.61	10.09	-41.2	-43.2	17.8	0.00e+00	0	43	0	0	54	4430
2026-01-26 12:16:47.34	264.95	10.13	-41.2	-43.2	17.8	0.00e+00	0	43	0	0	54	4422
2026-01-26 12:16:49.33	265.30	10.17	-41.2	-43.2	17.9	0.00e+00	0	42	0	0	54	4417
2026-01-26 12:16:51.32	265.65	10.21	-41.3	-43.4	17.8	0.00e+00	0	43	0	0	54	4496
2026-01-26 12:16:53.31	266.00	10.25	-41.1	-43.1	17.9	0.00e+00	0	42	0	0	54	4364
2026-01-26 12:16:55.30	266.36	10.29	-41.2	-43.2	17.8	0.00e+00	0	42	0	0	54	4418
2026-01-26 12:16:57.29	266.71	10.33	-41.4	-43.4	17.7	0.00e+00	0	43	0	0	54	4504
2026-01-26 12:16:59.28	267.06	10.36	-41.4	-43.4	17.6	0.00e+00	0	43	0	0	54	4525
2026-01-26 12:17:01.27	267.42	10.40	-41.3	-43.3	17.7	0.00e+00	0	43	0	0	54	4470
2026-01-26 12:17:03.26	267.77	10.43	-41.3	-43.4	17.7	0.00e+00	0	43	0	0	54	4495
2026-01-26 12:17:05.25	268.13	10.47	-41.0	-43.0	18.0	0.00e+00	0	43	0	0	54	4310
2026-01-26 12:17:07.24	268.48	10.50	-41.2	-43.2	17.8	0.00e+00	0	43	0	0	54	4398
2026-01-26 12:17:09.23	268.84	10.53	-41.3	-43.2	17.8	0.00e+00	0	43	0	0	54	4439
2026-01-26 12:17:11.22	269.20	10.56	-41.3	-43.3	17.8	0.00e+00	0	43	0	0	54	4449
2026-01-26 12:17:13.21	269.56	10.59	-41.4	-43.4	17.7	0.00e+00	0	43	0	0	54	4519
2026-01-26 12:17:15.20	269.92	10.62	-41.3	-43.3	17.8	0.00e+00	0	43	0	0	54	4454
2026-01-26 12:17:17.19	270.28	10.65	-41.3	-43.3	17.8	0.00e+00	0	43	0	0	54	4447
2026-01-26 12:17:19.17	270.64	10.68	-41.3	-43.2	17.8	0.00e+00	0	43	0	0	54	4427
2026-01-26 12:17:21.16	271.00	10.70	-41.3	-43.3	17.7	0.00e+00	0	43	0	0	54	4455
2026-01-26 12:17:23.15	271.36	10.73	-41.3	-43.3	17.7	0.00e+00	0	43	0	0	54	4474
2026-01-26 12:17:25.14	271.72	10.75	-41.2	-43.2	17.8	0.00e+00	0	43	0	0	54	4441
2026-01-26 12:17:27.13	272.09	10.78	-41.2	-43.2	17.8	0.00e+00	0	43	0	0	54	4418
2026-01-26 12:17:29.12	272.45	10.80	-41.2	-43.2	17.9	0.00e+00	0	42	0	0	54	4392
2026-01-26 12:17:31.11	272.81	10.82	-41.1	-43.1	17.9	0.00e+00	0	43	0	0	54	4357
2026-01-26 12:17:33.10	273.18	10.84	-41.0	-42.9	18.0	0.00e+00	0	43	0	0	53	4543
2026-01-26 12:17:35.09	273.54	10.86	-41.1	-43.0	18.0	0.00e+00	0	43	0	0	53	4561
2026-01-26 12:17:37.08	273.91	10.88	-41.1	-43.1	17.9	0.00e+00	0	43	0	0	53	4618
2026-01-26 12:17:39.08	274.28	10.90	-41.1	-43.0	18.0	0.00e+00	0	43	0	0	53	4576
2026-01-26 12:17:41.07	274.64	10.91	-41.1	-43.0	18.0	0.00e+00	0	43	0	0	53	4580
2026-01-26 12:17:43.06	275.01	10.93	-41.1	-43.1	18.0	0.00e+00	0	43	0	0	53	4606
2026-01-26 12:17:45.05	275.38	10.94	-41.2	-43.2	17.9	0.00e+00	0	43	0	0	53	4670
2026-01-26 12:17:47.04	275.75	10.96	-41.3	-43.3	17.8	0.00e+00	0	42	0	0	53	4718
2026-01-26 12:17:49.02	276.11	10.97	-41.3	-43.3	17.7	0.00e+00	0	43	0	0	53	4733
2026-01-26 12:17:51.02	276.48	10.98	-41.2	-43.2	17.8	0.00e+00	0	43	0	0	53	4654
2026-01-26 12:17:53.00	276.85	10.99	-41.0	-43.0	18.0	0.00e+00	0	43	0	0	53	4566
2026-01-26 12:17:54.99	277.22	11.00	-40.8	-42.8	18.2	0.00e+00	0	43	0	0	53	4453
2026-01-26 12:17:56.98	277.58	11.01	-40.8	-42.7	18.2	0.00e+00	0	42	0	0	53	4427
2026-01-26 12:17:58.97	277.95	11.01	-40.9	-42.8	18.2	0.00e+00	0	43	0	0	53	4456
2026-01-26 12:18:00.96	278.32	11.02	-40.9	-42.8	18.2	0.00e+00	0	43	0	0	53	4453
2026-01-26 12:18:02.96	278.69	11.02	-40.8	-42.7	18.3	0.00e+00	0	43	0	0	53	4402
2026-01-26 12:18:04.94	279.06	11.03	-40.8	-42.7	18.3	0.00e+00	0	42	0	0	53	4398
2026-01-26 12:18:06.94	279.43	11.03	-40.8	-42.7	18.3	0.00e+00	0	43	0	0	53	4413
2026-01-26 12:18:08.93	279.80	11.03	-40.8	-42.8	18.2	0.00e+00	0	43	0	0	53	4447
2026-01-26 12:18:10.91	280.17	11.03	-41.0	-42.9	18.0	0.00e+00	0	43	0	0	53	4540
2026-01-26 12:18:12.90	280.54	11.03	-41.0	-42.9	18.0	0.00e+00	0	43	0	0	53	4529
2026-01-26 12:18:14.89	280.91	11.03	-41.1	-43.0	17.9	0.00e+00	0	42	0	0	53	4598
2026-01-26 12:18:16.88	281.28	11.03	-41.1	-43.0	17.9	0.00e+00	0	43	0	0	53	4567
2026-01-26 12:18:18.87	281.65	11.02	-41.1	-43.0	17.9	0.00e+00	0	43	0	0	53	4581
2026-01-26 12:18:20.86	282.01	11.02	-41.0	-43.0	18.0	0.00e+00	0	43	0	0	53	4559
2026-01-26 12:18:22.85	282.38	11.01	-41.0	-42.9	18.1	0.00e+00	0	43	0	0	53	4512
2026-01-26 12:18:24.84	282.75	11.01	-41.0	-42.9	18.0	0.00e+00	0	43	0	0	53	4517
2026-01-26 12:18:26.81	283.12	11.00	-41.2	-43.1	17.9	0.00e+00	0	43	0	0	53	4624
2026-01-26 12:18:28.80	283.49	10.99	-41.1	-43.1	18.0	0.00e+00	0	43	0	0	53	4599
2026-01-26 12:18:30.79	283.85	10.98	-41.1	-43.1	17.9	0.00e+00	0	43	0	0	53	4630
2026-01-26 12:18:32.78	284.22	10.97	-41.1	-43.1	17.9	0.00e+00	0	43	0	0	53	4602
2026-01-26 12:18:34.77	284.59	10.96	-41.1	-43.1	17.9	0.00e+00	0	43	0	0	53	4600
2026-01-26 12:18:36.76	284.96	10.94	-41.2	-43.2	17.8	0.00e+00	0	42	0	0	53	4680
2026-01-26 12:18:38.75	285.32	10.93	-41.2	-43.1	18.0	0.00e+00	0	43	0	0	53	4632
2026-01-26 12:18:40.74	285.69	10.91	-41.1	-43.1	17.9	0.00e+00	0	43	0	0	53	4602
2026-01-26 12:18:42.73	286.05	10.90	-41.2	-43.2	17.8	0.00e+00	0	43	0	0	53	4658
2026-01-26 12:18:44.72	286.42	10.88	-41.2	-43.2	17.8	0.00e+00	0	43	0	0	53	4669
2026-01-26 12:18:46.71	286.79	10.86	-41.3	-43.2	17.7	0.00e+00	0	43	0	0	53	4701
2026-01-26 12:18:48.70	287.15	10.84	-41.3	-43.3	17.7	0.00e+00	0	43	0	0	53	4717
2026-01-26 12:18:50.69	287.51	10.82	-41.2	-43.1	17.9	0.00e+00	0	43	0	0	53	4648
2026-01-26 12:18:52.68	287.88	10.80	-41.2	-43.1	17.9	0.00e+00	0	43	0	0	53	4627
2026-01-26 12:18:54.67	288.24	10.78	-41.2	-43.2	17.8	0.00e+00	0	43	0	0	53	4667
2026-01-26 12:18:56.66	288.60	10.76	-41.4	-43.3	17.7	0.00e+00	0	43	0	0	53	4755
2026-01-26 12:18:58.65	288.97	10.73	-41.2	-43.2	17.9	0.00e+00	0	43	0	0	53	4674
2026-01-26 12:19:00.64	289.33	10.71	-41.2	-43.2	17.8	0.00e+00	0	43	0	0	53	4678
2026-01-26 12:19:02.62	289.69	10.68	-41.3	-43.2	17.8	0.00e+00	0	43	0	0	53	4697
2026-01-26 12:19:04.61	290.05	10.65	-41.3	-43.3	17.7	0.00e+00	0	43	0	0	53	4736
2026-01-26 12:19:06.60	290.41	10.63	-41.4	-43.3	17.7	0.00e+00	0	43	0	0	53	4749
2026-01-26 12:19:08.59	290.76	10.60	-41.2	-43.1	17.9	0.00e+00	0	43	0	0	53	4618
2026-01-26 12:19:10.58	291.12	10.57	-41.3	-43.2	17.8	0.00e+00	0	43	0	0	53	4687
2026-01-26 12:19:12.57	291.48	10.54	-41.5	-43.5	17.6	0.00e+00	0	43	0	0	53	4821
2026-01-26 12:19:14.56	291.84	10.50	-41.5	-43.5	17.6	0.00e+00	0	43	0	0	53	4824
2026-01-26 12:19:16.55	292.19	10.47	-41.7	-43.7	17.3	0.00e+00	0	43	0	0	54	4699
2026-01-26 12:19:18.54	292.55	10.44	-41.8	-43.8	17.2	0.00e+00	0	43	0	0	54	4747
2026-01-26 12:19:20.53	292.90	10.40	-41.7	-43.7	17.3	0.00e+00	0	43	0	0	54	4686
2026-01-26 12:19:22.52	293.25	10.37	-41.7	-43.8	17.2	0.00e+00	0	43	0	0	54	4729
2026-01-26 12:19:24.51	293.61	10.33	-41.8	-43.8	17.2	0.00e+00	0	43	0	0	54	4735
2026-01-26 12:19:26.50	293.96	10.29	-41.9	-44.1	17.0	0.00e+00	0	43	0	0	54	4873
2026-01-26 12:19:28.49	294.31	10.25	-41.8	-43.9	17.1	0.00e+00	0	43	0	0	54	4802
2026-01-26 12:19:30.48	294.66	10.21	-41.9	-44.0	17.0	0.00e+00	0	43	0	0	54	4815
2026-01-26 12:19:32.47	295.01	10.17	-41.9	-44.0	17.0	0.00e+00	0	43	0	0	54	4846
2026-01-26 12:19:34.45	295.35	10.13	-41.8	-43.9	17.1	0.00e+00	0	43	0	0	54	4779
2026-01-26 12:19:36.44	295.70	10.09	-41.9	-44.0	17.0	0.00e+00	0	43	0	0	54	4830
2026-01-26 12:19:38.43	296.05	10.05	-42.0	-44.1	16.9	0.00e+00	0	43	0	0	54	4921
2026-01-26 12:19:40.42	296.39	10.01	-42.0	-44.2	16.8	0.00e+00	0	43	0	0	54	4929
2026-01-26 12:19:42.41	296.73	9.96	-42.0	-44.1	16.9	0.00e+00	0	43	0	0	54	4889
2026-01-26 12:19:44.40	297.08	9.92	-42.0	-44.1	16.8	0.00e+00	0	43	0	0	54	4900
2026-01-26 12:19:46.39	297.42	9.87	-42.1	-44.3	16.7	0.00e+00	0	43	0	0	54	4984
2026-01-26 12:19:48.38	297.76	9.82	-42.0	-44.1	16.8	0.00e+00	0	43	0	0	54	4915
2026-01-26 12:19:50.37	298.10	9.78	-41.9	-44.0	16.9	0.00e+00	0	43	0	0	54	4859
2026-01-26 12:19:52.36	298.44	9.73	-41.8	-43.9	17.0	0.00e+00	0	43	0	0	54	4794
2026-01-26 12:19:54.35	298.78	9.68	-41.9	-44.0	16.9	0.00e+00	0	43	0	0	54	4867
2026-01-26 12:19:56.34	299.11	9.63	-41.9	-44.0	16.9	0.00e+00	0	43	0	0	54	4845
2026-01-26 12:19:58.33	299.45	9.58	-41.9	-44.0	17.0	0.00e+00	0	43	0	0	54	4859
2026-01-26 12:20:00.32	299.78	9.53	-42.0	-44.1	16.9	0.00e+00	0	43	0	0	54	4908
2026-01-26 12:20:02.31	300.11	9.48	-42.0	-44.1	16.8	0.00e+00	0	43	0	0	54	4926
2026-01-26 12:20:04.30	300.45	9.42	-42.1	-44.2	16.7	0.00e+00	0	43	0	0	54	4980
2026-01-26 12:20:06.29	300.78	9.37	-42.1	-44.2	16.8	0.00e+00	0	43	0	0	54	4970
2026-01-26 12:20:08.28	301.10	9.32	-42.1	-44.2	16.8	0.00e+00	0	43	0	0	54	4945
2026-01-26 12:20:10.27	301.43	9.26	-42.2	-44.3	16.7	0.00e+00	0	43	0	0	55	4749
2026-01-26 12:20:12.26	301.76	9.20	-42.1	-44.3	16.7	0.00e+00	0	43	0	0	55	4714
2026-01-26 12:20:14.25	302.09	9.15	-42.2	-44.4	16.6	0.00e+00	0	43	0	0	55	4782
2026-01-26 12:20:16.24	302.41	9.09	-42.1	-44.3	16.7	0.00e+00	0	43	0	0	55	4718
2026-01-26 12:20:18.23	302.73	9.03	-42.1	-44.3	16.7	0.00e+00	0	43	0	0	55	4727
2026-01-26 12:20:20.22	303.06	8.98	-49.5	-61.9	3.8	1.49e+00	0	43	104	0	69	15973
2026-01-26 12:20:22.21	303.38	8.92	-49.9	-62.9	3.8	1.49e+00	0	43	104	0	70	17037
2026-01-26 12:20:24.19	303.69	8.86	-50.0	-63.1	3.8	1.49e+00	0	43	104	0	70	17451
2026-01-26 12:20:26.18	304.01	8.80	-50.2	-63.2	3.8	1.49e+00	0	43	104	0	71	16587
2026-01-26 12:20:28.16	304.33	8.74	-50.3	-63.3	3.8	1.49e+00	0	43	104	0	71	16726
2026-01-26 12:20:30.15	304.64	8.68	-50.2	-63.3	3.8	1.49e+00	0	43	104	0	71	16719
2026-01-26 12:20:32.14	304.96	8.61	-50.1	-63.3	3.8	1.49e+00	0	43	104	0	71	16825
2026-01-26 12:20:34.12	305.27	8.55	-50.2	-63.3	3.8	1.49e+00	0	43	104	0	71	16812
2026-01-26 12:20:36.11	305.58	8.49	-50.3	-63.3	3.8	1.49e+00	0	43	104	0	71	16773
2026-01-26 12:20:38.09	305.89	8.43	-50.1	-63.2	3.8	1.49e+00	0	43	104	0	71	16691
2026-01-26 12:20:40.08	306.20	8.36	-49.9	-63.2	3.8	1.49e+00	0	43	104	0	71	16522
2026-01-26 12:20:42.07	306.51	8.30	-49.9	-63.2	3.8	1.49e+00	0	43	104	0	71	16509
2026-01-26 12:20:44.05	306.81	8.23	-49.9	-63.1	3.8	1.49e+00	0	43	104	0	71	16469
2026-01-26 12:20:46.04	307.12	8.17	-49.9	-63.1	3.8	1.49e+00	0	43	104	0	71	16424
2026-01-26 12:20:48.03	307.42	8.10	-49.9	-63.1	3.8	1.49e+00	0	43	104	0	71	16425
2026-01-26 12:20:50.01	307.72	8.03	-49.9	-63.1	3.8	1.49e+00	0	43	104	0	71	16414
2026-01-26 12:20:52.00	308.02	7.97	-49.8	-63.1	3.8	1.49e+00	0	43	104	0	71	16375
2026-01-26 12:20:53.98	308.32	7.90	-49.9	-63.1	3.8	1.49e+00	0	43	104	0	71	16446
2026-01-26 12:20:55.97	308.62	7.83	-49.9	-63.1	3.8	1.49e+00	0	43	104	0	71	16416
2026-01-26 12:20:57.96	308.91	7.76	-49.9	-63.1	3.8	1.49e+00	0	43	104	0	71	16344
2026-01-26 12:20:59.94	309.21	7.69	-49.9	-63.1	3.8	1.49e+00	0	43	104	0	71	16399
2026-01-26 12:21:01.93	309.50	7.62	-49.9	-63.1	3.8	1.49e+00	0	43	104	0	71	16413
2026-01-26 12:21:03.92	309.80	7.55	-49.8	-63.1	3.8	1.49e+00	0	43	104	0	71	16408
2026-01-26 12:21:05.90	310.09	7.48	-49.8	-63.1	3.8	1.49e+00	0	43	104	0	71	16398
2026-01-26 12:21:07.89	310.38	7.41	-49.9	-63.1	3.8	1.49e+00	0	43	104	0	71	16433
2026-01-26 12:21:09.87	310.66	7.34	-49.8	-63.1	3.8	1.49e+00	0	43	104	0	71	16398
2026-01-26 12:21:11.86	310.95	7.27	-49.8	-63.1	3.8	1.49e+00	0	43	104	0	71	16405
2026-01-26 12:21:13.85	311.24	7.20	-49.8	-63.1	3.8	1.49e+00	0	43	104	0	71	16379
2026-01-26 12:21:15.83	311.52	7.13	-49.8	-63.1	3.8	1.49e+00	0	43	104	0	71	16383
2026-01-26 12:21:17.82	311.80	7.05	-49.8	-63.1	3.8	1.49e+00	0	43	104	0	71	16396
2026-01-26 12:21:19.81	312.09	6.98	-49.8	-63.1	3.8	1.49e+00	0	43	104	0	71	16410
2026-01-26 12:21:21.79	312.36	6.91	-49.9	-63.2	3.8	1.49e+00	0	43	104	0	71	16548
2026-01-26 12:21:23.78	312.64	6.83	-49.9	-63.1	3.8	1.49e+00	0	43	104	0	71	16431
2026-01-26 12:21:25.76	312.92	6.76	-49.8	-63.1	3.8	1.49e+00	0	43	104	0	71	16354
2026-01-26 12:21:27.75	313.20	6.68	-49.8	-63.1	3.8	1.49e+00	0	43	104	0	71	16354
2026-01-26 12:21:29.73	313.47	6.61	-49.8	-63.1	3.8	1.49e+00	0	43	104	0	71	16327
2026-01-26 12:21:31.72	313.74	6.53	-49.8	-63.1	3.8	1.49e+00	0	43	104	0	71	16385
2026-01-26 12:21:33.71	314.02	6.46	-49.8	-63.0	3.8	1.49e+00	0	43	104	0	71	16311
2026-01-26 12:21:35.69	314.29	6.38	-49.8	-63.1	3.8	1.49e+00	0	43	104	0	71	16389
2026-01-26 12:21:37.68	314.56	6.31	-49.8	-63.1	3.8	1.49e+00	0	43	104	0	71	16345
2026-01-26 12:21:39.66	314.82	6.23	-49.8	-63.1	3.8	1.49e+00	0	43	104	0	71	16408
2026-01-26 12:21:41.65	315.09	6.15	-49.9	-63.1	3.8	1.49e+00	0	43	104	0	71	16402
2026-01-26 12:21:43.64	315.35	6.08	-49.8	-63.1	3.8	1.49e+00	0	43	104	0	71	16362
2026-01-26 12:21:45.62	315.62	6.00	-49.9	-63.1	3.8	1.49e+00	0	43	104	0	71	16366
2026-01-26 12:21:47.61	315.88	5.92	-49.8	-63.1	3.8	1.49e+00	0	43	104	0	71	16394
2026-01-26 12:21:49.59	316.14	5.84	-49.8	-63.0	3.8	1.49e+00	0	43	104	0	71	16300
2026-01-26 12:21:51.58	316.40	5.77	-49.8	-63.0	3.8	1.49e+00	0	43	104	0	71	16238
2026-01-26 12:21:53.57	316.66	5.69	-49.8	-63.1	3.8	1.49e+00	0	43	104	0	71	16381
2026-01-26 12:21:55.55	316.92	5.61	-49.8	-63.0	3.8	1.49e+00	0	43	104	0	71	16303
2026-01-26 12:21:57.54	317.17	5.53	-49.8	-63.0	3.8	1.49e+00	0	43	104	0	71	16268
2026-01-26 12:21:59.52	317.43	5.45	-49.8	-63.1	3.8	1.49e+00	0	43	104	0	71	16324
2026-01-26 12:22:01.51	317.68	5.37	-49.8	-63.0	3.8	1.49e+00	0	43	104	0	71	16293
2026-01-26 12:22:03.49	317.93	5.29	-49.8	-63.0	3.8	1.49e+00	0	43	104	0	71	16311
2026-01-26 12:22:05.48	318.18	5.21	-49.8	-63.0	3.8	1.49e+00	0	43	104	0	71	16272
2026-01-26 12:22:07.46	318.43	5.13	-49.8	-63.0	3.8	1.49e+00	0	43	104	0	71	16274
2026-01-26 12:22:09.45	318.68	5.05	-49.8	-63.0	3.8	1.49e+00	0	43	104	0	71	16286
2026-01-26 12:22:11.44	318.92	4.97	-49.8	-63.0	3.8	1.49e+00	0	43	104	0	71	16243

#Closed at: 2026-01-26 12:22:12
#Recorded file [0 MB]: D:/Data/31040_260126_151412.dat