passes_logs/2026/01/26/T1/T1__20260126_094014_NOAA_20_JPSS-1_rec.log

#Pass ID: 20260126_094014_NOAA 20 (JPSS-1)
#Satellite: NOAA 20 (JPSS-1)
#Configuration: NOAA 20
#almurnet v.1.7.20251203
#Start time: 2026-01-26 09:40:13

#Version: 2.0.20230620
#Station: T1
#Location: 37.570604 lon 55.790049 lat
#TLE: 1 43013U 17073A   26025.83228772  .00000162  00000+0  97663-4 0  9996
#TLE: 2 43013  98.7646 326.6579 0001036  23.5840 336.5383 14.19540376424273

#Time	Az	El	Level	Level2	SNR	BER	BlckErr	Temp	State	Recorded	gain1	gain2
2026-01-26 09:40:13.88	152.11	4.96	-49.2	-64.5	3.8	1.49e+00	0	40	0	0	70	20325
2026-01-26 09:40:17.85	152.06	5.25	-49.2	-64.4	3.8	1.49e+00	0	41	104	0	70	20285
2026-01-26 09:40:21.82	152.01	5.54	-49.2	-64.6	3.8	1.49e+00	0	41	104	0	70	20574
2026-01-26 09:40:25.79	151.95	5.83	-49.2	-64.1	3.8	1.49e+00	0	41	104	0	70	19604
2026-01-26 09:40:29.77	151.90	6.12	-49.1	-63.2	3.8	1.49e+00	0	41	104	0	70	17682
2026-01-26 09:40:33.74	151.84	6.42	-49.1	-63.5	3.8	1.49e+00	0	41	104	0	70	18233
2026-01-26 09:40:37.71	151.79	6.72	-49.2	-64.5	3.8	1.49e+00	0	41	104	0	70	20477
2026-01-26 09:40:41.69	151.73	7.03	-49.1	-63.6	3.8	1.49e+00	0	42	104	0	70	18486
2026-01-26 09:40:45.66	151.67	7.34	-48.9	-60.7	4.3	1.40e+00	0	42	0	0	69	13967
2026-01-26 09:40:49.63	151.61	7.65	-48.2	-55.8	7.4	1.86e-01	0	42	0	7340032	68	8450
2026-01-26 09:40:53.60	151.55	7.97	-46.6	-51.6	11.6	1.89e-03	0	42	0	14680064	65	6158
2026-01-26 09:40:57.58	151.48	8.29	-45.7	-49.7	13.7	9.10e-06	0	42	0	22020096	63	5557
2026-01-26 09:41:01.55	151.42	8.61	-46.1	-50.5	12.8	4.19e-05	0	42	0	29360128	63	6110
2026-01-26 09:41:05.52	151.35	8.94	-47.5	-54.0	9.1	1.46e-02	0	42	0	36700160	65	8149
2026-01-26 09:41:09.50	151.28	9.28	-48.2	-56.5	6.3	1.10e+00	0	42	0	44040192	67	9672
2026-01-26 09:41:13.48	151.21	9.62	-44.6	-47.8	15.6	0.00e+00	0	42	0	49283072	61	5032
2026-01-26 09:41:17.45	151.14	9.96	-43.5	-46.2	17.2	0.00e+00	0	42	0	56623104	58	4965
2026-01-26 09:41:21.44	151.06	10.31	-43.2	-45.8	17.6	0.00e+00	0	42	0	63963136	58	4748
2026-01-26 09:41:25.41	150.98	10.66	-43.1	-45.7	17.7	0.00e+00	0	42	0	71303168	58	4688
2026-01-26 09:41:29.39	150.90	11.02	-42.9	-45.5	18.0	0.00e+00	0	43	0	78643200	57	4819
2026-01-26 09:41:33.37	150.82	11.38	-42.8	-45.3	18.2	0.00e+00	0	43	0	85983232	57	4730
2026-01-26 09:41:37.35	150.74	11.75	-42.8	-45.3	18.2	0.00e+00	0	43	0	94371840	57	4723
2026-01-26 09:41:41.33	150.65	12.12	-42.6	-45.0	18.5	0.00e+00	0	43	0	101711872	57	4598
2026-01-26 09:41:45.31	150.56	12.50	-42.5	-45.0	18.5	0.00e+00	0	43	0	109051904	57	4583
2026-01-26 09:41:49.29	150.47	12.89	-42.5	-44.9	18.6	0.00e+00	0	42	0	116391936	56	4811
2026-01-26 09:41:53.27	150.38	13.28	-42.4	-44.8	18.7	0.00e+00	0	43	0	123731968	56	4727
2026-01-26 09:41:57.25	150.28	13.68	-42.3	-44.6	18.9	0.00e+00	0	43	0	131072000	56	4633
2026-01-26 09:42:01.23	150.18	14.08	-42.3	-44.6	18.9	0.00e+00	0	43	0	138412032	56	4634
2026-01-26 09:42:05.21	150.08	14.50	-42.1	-44.4	19.1	0.00e+00	0	43	0	145752064	56	4539
2026-01-26 09:42:09.19	149.97	14.91	-41.7	-44.0	19.3	0.00e+00	0	43	0	154140672	55	4592
2026-01-26 09:42:13.16	149.86	15.34	-41.7	-44.1	19.3	0.00e+00	0	43	0	161480704	55	4614
2026-01-26 09:42:17.14	149.75	15.77	-41.8	-44.2	19.2	0.00e+00	0	43	0	168820736	55	4665
2026-01-26 09:42:21.12	149.63	16.21	-41.9	-44.2	19.2	0.00e+00	0	43	0	176160768	55	4696
2026-01-26 09:42:25.10	149.51	16.66	-41.8	-44.0	19.4	0.00e+00	0	43	0	183500800	55	4588
2026-01-26 09:42:29.08	149.39	17.12	-41.8	-44.1	19.3	0.00e+00	0	43	0	190840832	55	4632
2026-01-26 09:42:33.06	149.26	17.59	-41.7	-43.9	19.5	0.00e+00	0	43	0	198180864	55	4539
2026-01-26 09:42:37.04	149.12	18.06	-41.6	-43.8	19.6	0.00e+00	0	43	0	205520896	55	4477
2026-01-26 09:42:41.02	148.99	18.54	-41.5	-43.8	19.6	0.00e+00	0	43	0	212860928	55	4453
2026-01-26 09:42:45.00	148.84	19.04	-41.6	-43.9	19.6	0.00e+00	0	43	0	221249536	55	4498
2026-01-26 09:42:48.98	148.69	19.54	-41.6	-43.8	19.6	0.00e+00	0	43	0	228589568	55	4458
2026-01-26 09:42:52.96	148.54	20.05	-41.6	-43.9	19.6	0.00e+00	0	43	0	235929600	55	4499
2026-01-26 09:42:56.94	148.38	20.58	-41.6	-43.8	19.6	0.00e+00	0	43	0	243269632	55	4465
2026-01-26 09:43:00.92	148.22	21.11	-41.3	-43.5	19.9	0.00e+00	0	43	0	250609664	54	4564
2026-01-26 09:43:04.90	148.05	21.66	-41.3	-43.5	19.9	0.00e+00	0	43	0	257949696	54	4563
2026-01-26 09:43:08.88	147.87	22.22	-41.4	-43.7	19.8	0.00e+00	0	43	0	265289728	54	4663
2026-01-26 09:43:12.86	147.69	22.79	-41.5	-43.8	19.6	0.00e+00	0	43	0	272629760	54	4724
2026-01-26 09:43:16.84	147.49	23.37	-41.4	-43.6	19.8	0.00e+00	0	43	0	279969792	54	4648
2026-01-26 09:43:20.81	147.29	23.96	-41.7	-44.1	19.4	0.00e+00	0	43	0	288358400	54	4874
2026-01-26 09:43:24.79	147.09	24.57	-41.9	-44.2	19.3	0.00e+00	0	43	0	295698432	54	4952
2026-01-26 09:43:28.77	146.87	25.20	-41.9	-44.1	19.3	0.00e+00	0	43	0	303038464	54	4913
2026-01-26 09:43:32.75	146.64	25.83	-42.6	-45.0	18.5	0.00e+00	0	43	0	310378496	55	5154
2026-01-26 09:43:36.73	146.41	26.49	-43.0	-45.6	18.1	0.00e+00	0	43	0	317718528	56	5188
2026-01-26 09:43:40.71	146.16	27.15	-43.0	-45.5	18.1	0.00e+00	0	43	0	325058560	56	5147
2026-01-26 09:43:44.69	145.91	27.84	-43.6	-46.4	17.3	0.00e+00	0	43	0	332398592	57	5341
2026-01-26 09:43:48.67	145.64	28.54	-44.1	-47.0	16.8	0.00e+00	0	43	0	339738624	58	5437
2026-01-26 09:43:52.65	145.36	29.26	-44.5	-47.4	16.3	0.00e+00	0	43	0	347078656	59	5390
2026-01-26 09:43:56.63	145.06	29.99	-44.9	-48.1	15.7	0.00e+00	0	43	0	355467264	60	5501
2026-01-26 09:44:00.61	144.75	30.75	-45.1	-48.3	15.6	0.00e+00	0	43	0	362807296	60	5600
2026-01-26 09:44:04.59	144.43	31.52	-45.3	-48.6	15.2	0.00e+00	0	43	0	370147328	61	5511
2026-01-26 09:44:08.57	144.08	32.32	-45.8	-49.4	14.4	7.00e-07	0	43	0	377487360	62	5712
2026-01-26 09:44:12.55	143.73	33.13	-45.7	-49.3	14.6	0.00e+00	0	43	0	384827392	62	5598
2026-01-26 09:44:16.53	143.35	33.96	-45.9	-49.7	14.1	0.00e+00	0	43	0	392167424	62	5914
2026-01-26 09:44:20.51	142.95	34.82	-45.9	-49.5	14.3	0.00e+00	0	43	0	399507456	62	5757
2026-01-26 09:44:24.49	142.53	35.70	-45.5	-48.9	14.9	7.00e-07	0	43	0	406847488	62	5371
2026-01-26 09:44:28.47	142.08	36.60	-45.5	-49.0	14.8	0.00e+00	0	43	0	415236096	62	5421
2026-01-26 09:44:32.45	141.61	37.52	-45.9	-49.6	14.2	0.00e+00	0	43	0	422576128	62	5823
2026-01-26 09:44:36.43	141.11	38.47	-45.9	-49.6	14.2	0.00e+00	0	43	0	429916160	62	5812
2026-01-26 09:44:40.41	140.58	39.45	-46.0	-50.0	13.9	3.80e-06	0	43	0	437256192	62	6081
2026-01-26 09:44:44.39	140.01	40.44	-45.6	-49.1	14.8	0.00e+00	0	43	0	444596224	62	5481
2026-01-26 09:44:48.37	139.41	41.47	-45.2	-48.5	15.3	0.00e+00	0	43	0	451936256	62	5135
2026-01-26 09:44:52.35	138.76	42.52	-44.8	-47.9	16.0	0.00e+00	0	43	0	459276288	61	5053
2026-01-26 09:44:56.33	138.08	43.59	-44.7	-47.7	16.2	0.00e+00	0	43	0	466616320	60	5227
2026-01-26 09:45:00.31	137.34	44.69	-44.1	-46.8	16.9	0.00e+00	0	43	0	473956352	59	5013
2026-01-26 09:45:04.29	136.55	45.82	-43.3	-45.8	17.9	0.00e+00	0	43	0	482344960	58	4757
2026-01-26 09:45:08.27	135.70	46.97	-43.1	-45.5	18.2	0.00e+00	0	43	0	489684992	58	4593
2026-01-26 09:45:12.25	134.78	48.14	-43.6	-46.2	17.6	0.00e+00	0	43	0	497025024	57	5222
2026-01-26 09:45:16.23	133.79	49.34	-43.5	-46.1	17.7	0.00e+00	0	43	0	504365056	57	5194
2026-01-26 09:45:20.21	132.72	50.56	-42.4	-44.7	19.0	0.00e+00	0	43	0	511705088	56	4701
2026-01-26 09:45:24.19	131.55	51.80	-42.2	-44.5	19.2	0.00e+00	0	43	0	519045120	56	4571
2026-01-26 09:45:28.17	130.28	53.07	-41.8	-44.1	19.6	0.00e+00	0	43	0	526385152	55	4615
2026-01-26 09:45:32.15	128.90	54.34	-42.2	-44.5	19.1	0.00e+00	0	43	0	533725184	55	4826
2026-01-26 09:45:36.12	127.39	55.63	-43.2	-45.8	18.0	0.00e+00	0	43	0	541065216	57	4990
2026-01-26 09:45:40.10	125.72	56.93	-45.2	-48.5	15.5	0.00e+00	0	43	0	549453824	60	5732
2026-01-26 09:45:44.08	123.89	58.23	-46.4	-50.3	13.6	2.59e-05	0	43	0	556793856	63	5959
2026-01-26 09:45:48.06	121.87	59.54	-44.9	-48.0	15.9	0.00e+00	0	43	0	564133888	61	5106
2026-01-26 09:45:52.04	119.64	60.83	-43.4	-45.9	17.9	0.00e+00	0	43	0	571473920	58	4789
2026-01-26 09:45:56.03	117.17	62.11	-41.8	-44.0	19.6	0.00e+00	0	43	0	578813952	55	4593
2026-01-26 09:46:00.01	114.42	63.36	-42.1	-44.4	19.2	0.00e+00	0	43	0	586153984	55	4777
2026-01-26 09:46:03.98	111.39	64.56	-42.0	-44.2	19.3	0.00e+00	0	43	0	593494016	55	4689
2026-01-26 09:46:07.97	108.00	65.72	-43.3	-45.9	18.0	0.00e+00	0	43	0	600834048	57	5051
2026-01-26 09:46:11.94	104.27	66.81	-44.8	-47.8	16.2	0.00e+00	0	43	0	609222656	60	5328
2026-01-26 09:46:15.92	100.14	67.81	-45.0	-48.2	15.8	0.00e+00	0	43	0	616562688	60	5584
2026-01-26 09:46:19.90	95.60	68.70	-44.2	-47.2	16.8	0.00e+00	0	43	0	623902720	60	4970
2026-01-26 09:46:23.88	90.67	69.46	-43.3	-45.9	17.9	0.00e+00	0	43	0	631242752	57	5083
2026-01-26 09:46:27.87	85.36	70.08	-43.1	-45.6	18.2	0.00e+00	0	43	0	638582784	58	4612
2026-01-26 09:46:31.84	79.76	70.53	-43.9	-46.5	17.3	0.00e+00	0	43	0	645922816	58	5143
2026-01-26 09:46:35.82	73.93	70.80	-43.9	-46.5	17.3	0.00e+00	0	43	0	653262848	59	4854
2026-01-26 09:46:39.80	67.98	70.87	-44.3	-47.1	16.8	0.00e+00	0	43	0	660602880	60	4925
2026-01-26 09:46:43.78	62.05	70.75	-43.5	-46.1	17.8	0.00e+00	0	43	0	668991488	58	4896
2026-01-26 09:46:47.76	56.25	70.45	-43.4	-45.9	18.0	0.00e+00	0	43	0	676331520	58	4769
2026-01-26 09:46:51.73	50.72	69.96	-44.0	-46.6	17.3	0.00e+00	0	43	0	683671552	58	5217
2026-01-26 09:46:55.71	45.50	69.31	-44.7	-47.7	16.3	0.00e+00	0	43	0	691011584	60	5264
2026-01-26 09:46:59.69	40.66	68.51	-45.9	-49.5	14.6	0.00e+00	0	43	0	698351616	62	5732
2026-01-26 09:47:03.64	36.26	67.60	-45.8	-49.4	14.6	0.00e+00	0	43	0	705691648	62	5673
2026-01-26 09:47:07.62	32.22	66.59	-45.0	-48.0	16.0	0.00e+00	0	43	0	713031680	62	4843
2026-01-26 09:47:11.60	28.56	65.49	-43.5	-46.1	17.8	0.00e+00	0	44	0	720371712	59	4644
2026-01-26 09:47:15.58	25.26	64.32	-41.9	-44.0	19.6	0.00e+00	0	43	0	727711744	55	4597
2026-01-26 09:47:19.56	22.29	63.11	-41.9	-44.1	19.6	0.00e+00	0	43	0	735051776	55	4603
2026-01-26 09:47:23.54	19.61	61.85	-42.4	-44.7	19.0	0.00e+00	0	43	0	743440384	55	4957
2026-01-26 09:47:27.52	17.20	60.58	-43.3	-45.8	18.2	0.00e+00	0	43	0	750780416	57	5014
2026-01-26 09:47:31.50	15.02	59.28	-44.4	-47.2	16.8	0.00e+00	0	43	0	758120448	59	5276
2026-01-26 09:47:35.48	13.05	57.98	-44.6	-47.5	16.5	0.00e+00	0	43	0	765460480	60	5134
2026-01-26 09:47:39.46	11.26	56.69	-45.0	-48.2	15.8	0.00e+00	0	43	0	772800512	61	5247
2026-01-26 09:47:43.44	9.63	55.39	-43.0	-45.4	18.5	0.00e+00	0	43	0	780140544	57	4781
2026-01-26 09:47:47.42	8.15	54.11	-42.2	-44.5	19.3	0.00e+00	0	43	0	787480576	56	4591
2026-01-26 09:47:51.39	6.79	52.84	-41.8	-43.9	19.7	0.00e+00	0	43	0	794820608	55	4538
2026-01-26 09:47:55.37	5.55	51.59	-42.6	-45.0	18.8	0.00e+00	0	43	0	802160640	55	5103
2026-01-26 09:47:59.35	4.41	50.36	-43.9	-46.5	17.4	0.00e+00	0	43	0	810549248	58	5152
2026-01-26 09:48:03.33	3.35	49.14	-44.7	-47.7	16.3	0.00e+00	0	43	0	817889280	60	5236
2026-01-26 09:48:07.31	2.38	47.95	-44.9	-48.0	16.0	0.00e+00	0	43	0	825229312	60	5438
2026-01-26 09:48:11.29	1.48	46.79	-44.8	-47.9	16.2	0.00e+00	0	43	0	832569344	60	5350
2026-01-26 09:48:15.27	0.64	45.65	-44.1	-46.9	17.2	0.00e+00	0	43	0	839909376	60	4761
2026-01-26 09:48:19.25	359.87	44.53	-44.3	-47.3	16.7	0.00e+00	0	43	0	847249408	60	4995
2026-01-26 09:48:23.23	359.14	43.44	-44.6	-47.7	16.4	0.00e+00	0	43	0	854589440	60	5239
2026-01-26 09:48:27.19	358.47	42.38	-45.8	-49.4	14.6	0.00e+00	0	43	0	861929472	62	5695
2026-01-26 09:48:31.17	357.84	41.34	-45.5	-48.8	15.2	0.00e+00	0	43	0	870318080	62	5313
2026-01-26 09:48:35.15	357.24	40.33	-45.2	-48.5	15.6	0.00e+00	0	43	0	877658112	62	5106
2026-01-26 09:48:39.13	356.69	39.34	-45.2	-48.3	15.7	0.00e+00	0	43	0	884998144	62	5010
2026-01-26 09:48:43.11	356.17	38.38	-44.4	-47.3	16.7	0.00e+00	0	43	0	892338176	60	5007
2026-01-26 09:48:47.10	355.67	37.43	-44.3	-47.5	16.6	0.00e+00	0	43	0	899678208	60	5113
2026-01-26 09:48:51.07	355.21	36.52	-44.4	-47.4	16.7	0.00e+00	0	43	0	907018240	60	5047
2026-01-26 09:48:55.05	354.77	35.63	-44.9	-48.1	15.9	0.00e+00	0	43	0	914358272	60	5517
2026-01-26 09:48:59.03	354.35	34.76	-44.8	-47.9	16.1	0.00e+00	0	43	0	921698304	60	5380
2026-01-26 09:49:03.00	353.96	33.91	-44.9	-48.3	15.8	0.00e+00	0	43	0	929038336	60	5610
2026-01-26 09:49:06.98	353.59	33.08	-45.5	-49.1	14.9	0.00e+00	0	43	0	937426944	61	5836
2026-01-26 09:49:10.96	353.24	32.28	-45.7	-49.3	14.7	0.00e+00	0	44	0	944766976	62	5605
2026-01-26 09:49:14.94	352.90	31.49	-45.5	-49.0	15.1	0.00e+00	0	43	0	952107008	62	5418
2026-01-26 09:49:18.93	352.58	30.72	-45.7	-49.2	14.9	1.50e-06	0	44	0	959447040	62	5529
2026-01-26 09:49:22.91	352.28	29.97	-45.6	-49.0	15.0	0.00e+00	0	43	0	966787072	62	5446
2026-01-26 09:49:26.88	351.99	29.25	-45.4	-48.7	15.3	0.00e+00	0	43	0	974127104	62	5260
2026-01-26 09:49:30.86	351.71	28.53	-45.5	-48.9	15.2	0.00e+00	0	43	0	981467136	62	5346
2026-01-26 09:49:34.84	351.45	27.84	-45.5	-48.8	15.2	0.00e+00	0	43	0	988807168	62	5338
2026-01-26 09:49:38.83	351.19	27.16	-44.8	-48.0	16.0	0.00e+00	0	44	0	997195776	61	5102
2026-01-26 09:49:42.80	350.95	26.50	-44.6	-47.7	16.3	0.00e+00	0	43	0	1004535808	61	4974
2026-01-26 09:49:46.79	350.72	25.85	-44.6	-47.7	16.3	0.00e+00	0	44	0	1011875840	61	4943
2026-01-26 09:49:50.77	350.50	25.22	-44.6	-47.6	16.4	0.00e+00	0	43	0	1019215872	61	4899
2026-01-26 09:49:54.75	350.29	24.60	-44.2	-47.1	16.9	0.00e+00	0	43	0	1026555904	60	4884
2026-01-26 09:49:58.73	350.08	23.99	-43.4	-46.3	17.6	0.00e+00	0	43	0	1033895936	58	5030
2026-01-26 09:50:02.71	349.89	23.40	-43.4	-46.1	17.8	0.00e+00	0	43	0	1041235968	58	4920
2026-01-26 09:50:06.68	349.70	22.83	-43.7	-46.3	17.6	0.00e+00	0	44	0	1048576000	58	5025
2026-01-26 09:50:10.66	349.52	22.26	-43.7	-46.4	17.5	0.00e+00	0	43	0	1055916032	58	5056
2026-01-26 09:50:14.64	349.35	21.71	-44.0	-46.8	17.1	0.00e+00	0	44	0	1064304640	58	5303
2026-01-26 09:50:18.61	349.18	21.17	-43.9	-46.6	17.3	0.00e+00	0	43	0	1071644672	58	5212
2026-01-26 09:50:22.59	349.02	20.64	-44.1	-46.9	17.0	0.00e+00	0	44	0	1078984704	58	5386
2026-01-26 09:50:26.57	348.87	20.12	-44.2	-47.2	16.7	0.00e+00	0	43	0	1086324736	58	5554
2026-01-26 09:50:30.56	348.72	19.60	-44.3	-47.3	16.6	0.00e+00	0	43	0	1093664768	59	5325
2026-01-26 09:50:34.54	348.57	19.10	-44.4	-47.4	16.4	0.00e+00	0	43	0	1101004800	59	5402
2026-01-26 09:50:38.51	348.43	18.62	-44.3	-47.5	16.3	0.00e+00	0	43	0	1108344832	59	5458
2026-01-26 09:50:42.49	348.30	18.14	-44.1	-47.6	16.3	0.00e+00	0	43	0	1115684864	59	5516
2026-01-26 09:50:46.47	348.17	17.66	-44.2	-47.7	16.1	0.00e+00	0	44	0	1124073472	59	5579
2026-01-26 09:50:50.45	348.05	17.20	-44.4	-47.7	16.2	0.00e+00	0	43	0	1131413504	59	5568
2026-01-26 09:50:54.43	347.92	16.75	-44.6	-47.9	16.0	0.00e+00	0	43	0	1138753536	59	5702
2026-01-26 09:50:58.41	347.81	16.30	-44.7	-48.2	15.7	0.00e+00	0	43	0	1146093568	60	5571
2026-01-26 09:51:02.39	347.70	15.86	-44.7	-48.4	15.5	0.00e+00	0	44	0	1153433600	60	5673
2026-01-26 09:51:06.38	347.59	15.43	-44.9	-48.6	15.3	0.00e+00	0	43	0	1160773632	60	5820
2026-01-26 09:51:10.36	347.48	15.01	-45.1	-48.6	15.3	0.00e+00	0	43	0	1168113664	60	5850
2026-01-26 09:51:14.34	347.38	14.59	-45.2	-48.9	14.9	7.00e-07	0	43	0	1175453696	61	5714
2026-01-26 09:51:18.32	347.28	14.18	-44.7	-48.8	15.1	0.00e+00	0	44	0	1182793728	61	5621
2026-01-26 09:51:22.30	347.18	13.78	-44.5	-48.6	15.3	0.00e+00	0	44	0	1191182336	60	5789
2026-01-26 09:51:26.28	347.09	13.38	-44.7	-48.6	15.2	0.00e+00	0	43	0	1198522368	60	5830
2026-01-26 09:51:30.26	347.00	12.99	-44.7	-48.3	15.5	0.00e+00	0	44	0	1205862400	60	5594
2026-01-26 09:51:34.23	346.91	12.61	-44.9	-48.3	15.5	0.00e+00	0	44	0	1213202432	60	5642
2026-01-26 09:51:38.21	346.83	12.23	-44.5	-48.0	15.7	0.00e+00	0	44	0	1220542464	60	5454
2026-01-26 09:51:42.19	346.75	11.86	-44.2	-48.1	15.7	0.00e+00	0	43	0	1227882496	60	5470
2026-01-26 09:51:46.17	346.67	11.49	-43.9	-48.1	15.6	0.00e+00	0	43	0	1235222528	59	5843
2026-01-26 09:51:50.15	346.59	11.13	-43.7	-48.2	15.5	0.00e+00	0	44	0	1242562560	59	5877
2026-01-26 09:51:54.13	346.51	10.78	-43.7	-48.3	15.4	0.00e+00	0	43	0	1249902592	59	5944
2026-01-26 09:51:58.11	346.44	10.43	-43.6	-48.8	14.9	0.00e+00	0	44	0	1258291200	59	6293
2026-01-26 09:52:02.08	346.37	10.08	-43.4	-48.8	14.8	0.00e+00	0	43	0	1265631232	58	6707
2026-01-26 09:52:06.07	346.30	9.74	-43.4	-48.9	14.7	0.00e+00	0	43	0	1272971264	58	6751
2026-01-26 09:52:10.04	346.23	9.40	-43.4	-49.0	14.5	0.00e+00	0	43	0	1280311296	58	6863
2026-01-26 09:52:14.02	346.17	9.07	-43.5	-49.2	14.3	7.00e-07	0	43	0	1287651328	58	7023
2026-01-26 09:52:18.00	346.11	8.74	-49.8	-65.2	3.8	1.49e+00	0	43	104	1289748480	70	22216
2026-01-26 09:52:21.97	346.04	8.42	-49.6	-65.4	3.8	1.49e+00	0	44	104	1289748480	70	22738
2026-01-26 09:52:25.94	345.98	8.10	-49.9	-65.5	3.8	1.49e+00	0	44	104	1289748480	71	21633
2026-01-26 09:52:29.91	345.93	7.79	-49.9	-65.5	3.8	1.49e+00	0	43	104	1289748480	71	21574
2026-01-26 09:52:33.89	345.87	7.47	-50.3	-65.5	3.8	1.49e+00	0	44	104	1289748480	71	21621
2026-01-26 09:52:37.86	345.82	7.17	-50.2	-65.5	3.8	1.49e+00	0	44	104	1289748480	71	21523
2026-01-26 09:52:41.83	345.76	6.86	-50.2	-65.5	3.8	1.49e+00	0	44	104	1289748480	71	21596
2026-01-26 09:52:45.80	345.71	6.56	-50.0	-65.4	3.8	1.49e+00	0	44	104	1289748480	71	21273
2026-01-26 09:52:49.77	345.66	6.27	-50.0	-65.4	3.8	1.49e+00	0	44	104	1289748480	71	21350
2026-01-26 09:52:53.75	345.61	5.97	-49.9	-65.3	3.8	1.49e+00	0	44	104	1289748480	71	21172
2026-01-26 09:52:57.72	345.56	5.68	-49.9	-65.3	3.8	1.49e+00	0	43	104	1289748480	71	21200
2026-01-26 09:53:01.69	345.52	5.39	-49.9	-65.3	3.8	1.49e+00	0	43	104	1289748480	71	21252
2026-01-26 09:53:05.66	345.47	5.11	-49.9	-65.3	3.8	1.49e+00	0	44	104	1289748480	71	21214

#Closed at: 2026-01-26 09:53:08
#Recorded file [1289 MB]: D:/Data/31040_260126_124013.dat