passes_logs/2026/01/26/T1/T1__20260126_080209_NOAA_20_JPSS-1_rec.log

#Pass ID: 20260126_080209_NOAA 20 (JPSS-1)
#Satellite: NOAA 20 (JPSS-1)
#Configuration: NOAA 20
#almurnet v.1.7.20251203
#Start time: 2026-01-26 08:02:09

#Version: 2.0.20230620
#Station: T1
#Location: 37.570604 lon 55.790049 lat
#TLE: 1 43013U 17073A   26025.83228772  .00000162  00000+0  97663-4 0  9996
#TLE: 2 43013  98.7646 326.6579 0001036  23.5840 336.5383 14.19540376424273

#Time	Az	El	Level	Level2	SNR	BER	BlckErr	Temp	State	Recorded	gain1	gain2
2026-01-26 08:02:09.55	99.72	4.98	-48.1	-63.5	3.8	1.49e+00	0	39	0	0	68	20408
2026-01-26 08:02:12.52	99.44	5.15	-48.1	-63.4	3.8	1.49e+00	0	40	104	0	68	20153
2026-01-26 08:02:15.50	99.16	5.32	-48.1	-63.4	3.8	1.49e+00	0	40	104	0	68	20138
2026-01-26 08:02:18.48	98.87	5.49	-48.1	-63.4	3.8	1.49e+00	0	40	104	0	68	20195
2026-01-26 08:02:21.46	98.58	5.66	-48.1	-63.4	3.8	1.49e+00	0	40	104	0	68	20191
2026-01-26 08:02:24.44	98.29	5.83	-48.1	-63.4	3.8	1.49e+00	0	40	104	0	68	20127
2026-01-26 08:02:27.42	97.99	6.00	-48.1	-63.4	3.8	1.49e+00	0	41	104	0	68	20179
2026-01-26 08:02:30.40	97.69	6.17	-48.1	-63.4	3.8	1.49e+00	0	41	104	0	68	20239
2026-01-26 08:02:33.38	97.39	6.34	-48.1	-63.4	3.8	1.49e+00	0	41	104	0	68	20094
2026-01-26 08:02:36.36	97.08	6.51	-48.1	-63.3	3.8	1.49e+00	0	41	104	0	68	20003
2026-01-26 08:02:39.33	96.77	6.69	-48.1	-63.3	3.8	1.49e+00	0	41	104	0	68	19889
2026-01-26 08:02:42.31	96.46	6.86	-48.1	-63.4	3.8	1.49e+00	0	41	104	0	68	20083
2026-01-26 08:02:45.29	96.14	7.03	-48.1	-63.3	3.8	1.49e+00	0	41	104	0	68	19953
2026-01-26 08:02:48.27	95.82	7.21	-48.0	-63.1	3.8	1.49e+00	0	41	104	0	68	19540
2026-01-26 08:02:51.25	95.49	7.38	-48.0	-62.8	3.8	1.49e+00	0	41	104	0	68	18735
2026-01-26 08:02:54.23	95.16	7.55	-48.1	-63.0	3.8	1.49e+00	0	41	104	0	68	19314
2026-01-26 08:02:57.21	94.83	7.73	-48.0	-63.3	3.8	1.49e+00	0	41	104	0	68	19892
2026-01-26 08:03:00.19	94.49	7.90	-48.0	-62.8	3.8	1.49e+00	0	41	104	0	68	18935
2026-01-26 08:03:03.17	94.15	8.08	-48.0	-62.9	3.8	1.49e+00	0	42	104	0	68	18981
2026-01-26 08:03:06.15	93.80	8.25	-47.7	-59.6	4.2	1.49e+00	0	42	0	0	67	13880
2026-01-26 08:03:09.13	93.45	8.43	-45.9	-51.2	10.8	7.46e-03	0	42	0	5242880	63	6638
2026-01-26 08:03:12.11	93.10	8.60	-44.3	-48.0	14.2	2.20e-06	0	42	0	10485760	60	5450
2026-01-26 08:03:15.09	92.74	8.78	-44.6	-48.6	13.6	0.00e+00	0	42	0	15728640	60	5792
2026-01-26 08:03:18.07	92.37	8.95	-46.7	-53.8	8.1	1.61e-02	0	42	0	22020096	64	8457
2026-01-26 08:03:21.05	92.00	9.13	-45.7	-50.7	11.5	2.53e-04	0	42	0	27262976	62	6607
2026-01-26 08:03:24.04	91.63	9.31	-47.4	-57.5	5.1	4.47e-02	0	42	0	30408704	65	12206
2026-01-26 08:03:27.02	91.25	9.48	-45.0	-49.2	13.1	2.44e-05	0	42	0	35651584	61	5878
2026-01-26 08:03:30.00	90.87	9.66	-44.8	-48.7	13.6	7.60e-06	0	42	0	41943040	61	5561
2026-01-26 08:03:32.98	90.48	9.84	-44.2	-47.7	14.6	0.00e+00	0	42	0	47185920	60	5263
2026-01-26 08:03:35.97	90.09	10.01	-44.2	-47.8	14.6	7.00e-07	0	42	0	52428800	60	5317
2026-01-26 08:03:38.95	89.69	10.19	-43.7	-47.0	15.4	0.00e+00	0	42	0	58720256	59	5124
2026-01-26 08:03:41.94	89.29	10.36	-43.5	-46.7	15.6	0.00e+00	0	42	0	63963136	59	4958
2026-01-26 08:03:44.92	88.88	10.54	-43.4	-46.6	15.8	0.00e+00	0	42	0	69206016	58	5178
2026-01-26 08:03:47.91	88.47	10.72	-43.4	-46.5	15.8	0.00e+00	0	42	0	75497472	58	5141
2026-01-26 08:03:50.89	88.05	10.89	-43.5	-46.6	15.8	0.00e+00	0	42	0	80740352	58	5203
2026-01-26 08:03:53.87	87.63	11.07	-43.3	-46.4	16.0	0.00e+00	0	42	0	85983232	58	5071
2026-01-26 08:03:56.86	87.20	11.24	-43.5	-46.7	15.8	0.00e+00	0	42	0	92274688	58	5236
2026-01-26 08:03:59.84	86.77	11.42	-43.5	-46.7	15.6	0.00e+00	0	42	0	97517568	58	5259
2026-01-26 08:04:02.82	86.34	11.59	-43.4	-46.6	15.8	0.00e+00	0	42	0	102760448	58	5179
2026-01-26 08:04:05.81	85.89	11.77	-43.3	-46.3	16.1	0.00e+00	0	42	0	109051904	58	5040
2026-01-26 08:04:08.79	85.44	11.94	-43.3	-46.4	16.0	0.00e+00	0	42	0	114294784	58	5062
2026-01-26 08:04:11.78	84.99	12.11	-43.4	-46.6	15.9	0.00e+00	0	42	0	119537664	58	5180
2026-01-26 08:04:14.76	84.53	12.29	-43.3	-46.6	15.9	0.00e+00	0	42	0	125829120	58	5164
2026-01-26 08:04:17.75	84.07	12.46	-43.1	-46.3	16.2	0.00e+00	0	42	0	131072000	58	5005
2026-01-26 08:04:20.73	83.60	12.63	-43.0	-45.9	16.5	0.00e+00	0	42	0	136314880	57	5092
2026-01-26 08:04:23.72	83.12	12.80	-42.9	-45.8	16.6	0.00e+00	0	42	0	142606336	57	5027
2026-01-26 08:04:26.69	82.64	12.97	-42.7	-45.6	16.9	0.00e+00	0	42	0	147849216	57	4873
2026-01-26 08:04:29.68	82.15	13.14	-42.6	-45.4	17.0	0.00e+00	0	42	0	153092096	57	4795
2026-01-26 08:04:32.67	81.66	13.31	-42.4	-45.2	17.3	0.00e+00	0	42	0	159383552	56	4947
2026-01-26 08:04:35.65	81.16	13.47	-42.3	-45.0	17.5	0.00e+00	0	42	0	164626432	56	4844
2026-01-26 08:04:38.63	80.66	13.64	-42.1	-44.7	17.7	0.00e+00	0	42	0	169869312	56	4683
2026-01-26 08:04:41.61	80.15	13.81	-42.1	-44.7	17.8	0.00e+00	0	42	0	176160768	56	4686
2026-01-26 08:04:44.60	79.64	13.97	-42.1	-44.7	17.7	0.00e+00	0	42	0	181403648	56	4688
2026-01-26 08:04:47.58	79.11	14.13	-42.0	-44.6	17.9	0.00e+00	0	42	0	186646528	56	4617
2026-01-26 08:04:50.57	78.59	14.29	-41.7	-44.3	18.0	0.00e+00	0	42	0	192937984	55	4720
2026-01-26 08:04:53.55	78.06	14.45	-41.5	-43.9	18.4	0.00e+00	0	42	0	198180864	54	4807
2026-01-26 08:04:56.53	77.52	14.61	-41.5	-43.9	18.4	0.00e+00	0	42	0	203423744	54	4811
2026-01-26 08:04:59.52	76.97	14.77	-41.3	-43.7	18.6	0.00e+00	0	42	0	209715200	54	4693
2026-01-26 08:05:02.50	76.42	14.92	-41.4	-43.8	18.5	0.00e+00	0	42	0	214958080	54	4717
2026-01-26 08:05:05.49	75.87	15.08	-41.3	-43.6	18.7	0.00e+00	0	42	0	220200960	54	4641
2026-01-26 08:05:08.47	75.31	15.23	-41.4	-43.8	18.6	0.00e+00	0	42	0	226492416	54	4716
2026-01-26 08:05:11.46	74.74	15.38	-41.4	-43.8	18.5	0.00e+00	0	42	0	231735296	54	4732
2026-01-26 08:05:14.44	74.17	15.53	-41.6	-44.1	18.2	0.00e+00	0	43	0	236978176	54	4896
2026-01-26 08:05:17.43	73.59	15.67	-41.7	-44.2	18.2	0.00e+00	0	42	0	243269632	54	4932
2026-01-26 08:05:20.41	73.00	15.82	-41.8	-44.3	18.1	0.00e+00	0	42	0	248512512	54	4990
2026-01-26 08:05:23.40	72.41	15.96	-41.6	-44.0	18.3	0.00e+00	0	42	0	253755392	54	4858
2026-01-26 08:05:26.39	71.82	16.10	-41.6	-44.0	18.3	0.00e+00	0	42	0	260046848	54	4851
2026-01-26 08:05:29.37	71.22	16.24	-41.4	-43.8	18.5	0.00e+00	0	42	0	265289728	54	4753
2026-01-26 08:05:32.36	70.61	16.37	-41.2	-43.5	18.8	0.00e+00	0	42	0	270532608	54	4585
2026-01-26 08:05:35.34	70.00	16.50	-40.9	-43.2	19.1	0.00e+00	0	42	0	276824064	53	4691
2026-01-26 08:05:38.33	69.38	16.63	-41.0	-43.3	19.1	0.00e+00	0	42	0	282066944	53	4707
2026-01-26 08:05:41.31	68.76	16.76	-41.0	-43.3	19.0	0.00e+00	0	42	0	287309824	53	4752
2026-01-26 08:05:44.29	68.13	16.88	-40.9	-43.2	19.1	0.00e+00	0	42	0	293601280	53	4674
2026-01-26 08:05:47.28	67.50	17.00	-40.9	-43.2	19.1	0.00e+00	0	42	0	298844160	53	4679
2026-01-26 08:05:50.26	66.86	17.12	-40.9	-43.2	19.2	0.00e+00	0	42	0	304087040	53	4654
2026-01-26 08:05:53.25	66.21	17.24	-40.8	-43.1	19.3	0.00e+00	0	42	0	310378496	53	4622
2026-01-26 08:05:56.23	65.57	17.35	-40.8	-43.1	19.2	0.00e+00	0	42	0	315621376	53	4628
2026-01-26 08:05:59.22	64.91	17.46	-41.0	-43.3	19.1	0.00e+00	0	43	0	320864256	53	4720
2026-01-26 08:06:02.20	64.26	17.56	-41.1	-43.5	18.9	0.00e+00	0	43	0	327155712	53	4816
2026-01-26 08:06:05.19	63.59	17.66	-41.0	-43.3	19.1	0.00e+00	0	42	0	332398592	53	4713
2026-01-26 08:06:08.17	62.93	17.76	-40.9	-43.3	19.1	0.00e+00	0	43	0	337641472	53	4708
2026-01-26 08:06:11.15	62.26	17.86	-40.9	-43.1	19.2	0.00e+00	0	42	0	343932928	53	4636
2026-01-26 08:06:14.14	61.58	17.95	-41.1	-43.5	18.9	0.00e+00	0	42	0	349175808	53	4835
2026-01-26 08:06:17.13	60.90	18.03	-41.3	-43.7	18.7	0.00e+00	0	43	0	354418688	53	4946
2026-01-26 08:06:20.11	60.22	18.12	-41.5	-44.0	18.3	0.00e+00	0	43	0	360710144	53	5139
2026-01-26 08:06:23.09	59.54	18.20	-41.9	-44.5	17.9	0.00e+00	0	42	0	365953024	54	5124
2026-01-26 08:06:26.08	58.85	18.27	-41.8	-44.3	18.1	0.00e+00	0	43	0	371195904	54	5027
2026-01-26 08:06:29.06	58.16	18.34	-41.5	-43.9	18.5	0.00e+00	0	43	0	377487360	54	4809
2026-01-26 08:06:32.05	57.46	18.41	-41.6	-44.0	18.4	0.00e+00	0	43	0	382730240	54	4863
2026-01-26 08:06:35.03	56.76	18.47	-41.9	-44.4	18.0	0.00e+00	0	43	0	387973120	54	5081
2026-01-26 08:06:38.01	56.06	18.53	-42.1	-44.7	17.7	0.00e+00	0	43	0	394264576	54	5254
2026-01-26 08:06:41.00	55.36	18.58	-42.2	-44.8	17.6	0.00e+00	0	42	0	399507456	55	5028
2026-01-26 08:06:43.99	54.65	18.63	-42.2	-44.8	17.6	0.00e+00	0	43	0	404750336	55	5014
2026-01-26 08:06:46.97	53.94	18.68	-42.0	-44.5	17.9	0.00e+00	0	42	0	411041792	55	4843
2026-01-26 08:06:49.95	53.23	18.72	-42.2	-44.8	17.6	0.00e+00	0	43	0	416284672	55	4996
2026-01-26 08:06:52.94	52.52	18.75	-42.1	-44.6	17.8	0.00e+00	0	43	0	421527552	55	4913
2026-01-26 08:06:55.92	51.80	18.79	-42.1	-44.7	17.7	0.00e+00	0	43	0	427819008	55	4952
2026-01-26 08:06:58.91	51.09	18.81	-42.0	-44.6	17.8	0.00e+00	0	43	0	433061888	55	4898
2026-01-26 08:07:01.89	50.37	18.84	-42.0	-44.6	17.9	0.00e+00	0	42	0	438304768	55	4882
2026-01-26 08:07:04.88	49.65	18.85	-41.9	-44.4	18.0	0.00e+00	0	43	0	444596224	55	4806
2026-01-26 08:07:07.86	48.94	18.87	-42.2	-44.8	17.7	0.00e+00	0	43	0	449839104	55	5011
2026-01-26 08:07:10.85	48.22	18.87	-41.8	-44.3	18.1	0.00e+00	0	42	0	456130560	55	4712
2026-01-26 08:07:13.83	47.50	18.88	-41.6	-44.0	18.4	0.00e+00	0	42	0	461373440	55	4581
2026-01-26 08:07:16.82	46.78	18.88	-41.5	-43.9	18.5	0.00e+00	0	43	0	466616320	55	4529
2026-01-26 08:07:19.80	46.06	18.87	-41.6	-44.0	18.4	0.00e+00	0	43	0	472907776	54	4853
2026-01-26 08:07:22.78	45.34	18.86	-41.4	-43.8	18.6	0.00e+00	0	43	0	478150656	54	4717
2026-01-26 08:07:25.77	44.63	18.85	-41.3	-43.7	18.7	0.00e+00	0	42	0	483393536	54	4689
2026-01-26 08:07:28.76	43.91	18.83	-41.2	-43.6	18.8	0.00e+00	0	43	0	489684992	54	4606
2026-01-26 08:07:31.74	43.19	18.80	-41.0	-43.3	19.1	0.00e+00	0	43	0	494927872	54	4479
2026-01-26 08:07:34.73	42.48	18.77	-41.1	-43.4	18.9	0.00e+00	0	43	0	500170752	54	4543
2026-01-26 08:07:37.71	41.77	18.74	-40.9	-43.2	19.2	0.00e+00	0	43	0	506462208	53	4659
2026-01-26 08:07:40.70	41.05	18.70	-40.8	-43.1	19.3	0.00e+00	0	43	0	511705088	53	4613
2026-01-26 08:07:43.69	40.34	18.66	-40.8	-43.0	19.3	0.00e+00	0	43	0	516947968	53	4590
2026-01-26 08:07:46.67	39.64	18.61	-40.4	-42.6	19.7	0.00e+00	0	43	0	523239424	52	4635
2026-01-26 08:07:49.66	38.93	18.56	-40.6	-42.8	19.5	0.00e+00	0	43	0	528482304	52	4745
2026-01-26 08:07:52.64	38.23	18.51	-40.8	-43.1	19.2	0.00e+00	0	43	0	533725184	52	4907
2026-01-26 08:07:55.62	37.53	18.45	-40.7	-43.0	19.3	0.00e+00	0	43	0	540016640	52	4848
2026-01-26 08:07:58.61	36.84	18.38	-40.9	-43.2	19.2	0.00e+00	0	43	0	545259520	52	4941
2026-01-26 08:08:01.59	36.14	18.31	-41.0	-43.3	19.0	0.00e+00	0	43	0	550502400	52	5025
2026-01-26 08:08:04.58	35.45	18.24	-41.0	-43.3	19.1	0.00e+00	0	43	0	556793856	52	5004
2026-01-26 08:08:07.57	34.76	18.17	-41.2	-43.7	18.7	0.00e+00	0	42	0	562036736	53	4938
2026-01-26 08:08:10.56	34.08	18.08	-41.4	-44.0	18.4	0.00e+00	0	43	0	567279616	53	5125
2026-01-26 08:08:13.54	33.40	18.00	-41.5	-44.0	18.4	0.00e+00	0	43	0	573571072	53	5105
2026-01-26 08:08:16.53	32.72	17.91	-41.5	-44.0	18.4	0.00e+00	0	43	0	578813952	53	5113
2026-01-26 08:08:19.51	32.05	17.82	-41.9	-44.4	18.0	0.00e+00	0	43	0	584056832	54	5090
2026-01-26 08:08:22.49	31.39	17.72	-41.8	-44.4	18.1	0.00e+00	0	43	0	590348288	54	5048
2026-01-26 08:08:25.48	30.73	17.63	-41.5	-44.0	18.4	0.00e+00	0	43	0	595591168	54	4818
2026-01-26 08:08:28.46	30.07	17.52	-41.6	-44.1	18.3	0.00e+00	0	43	0	600834048	54	4895
2026-01-26 08:08:31.44	29.42	17.42	-41.7	-44.2	18.2	0.00e+00	0	43	0	607125504	54	4961
2026-01-26 08:08:34.43	28.77	17.31	-41.5	-44.0	18.4	0.00e+00	0	43	0	612368384	54	4830
2026-01-26 08:08:37.41	28.12	17.20	-41.6	-44.2	18.2	0.00e+00	0	43	0	617611264	54	4967
2026-01-26 08:08:40.39	27.48	17.08	-41.5	-44.2	18.3	0.00e+00	0	43	0	623902720	54	4932
2026-01-26 08:08:43.38	26.85	16.96	-41.3	-44.0	18.3	0.00e+00	0	43	0	629145600	54	4864
2026-01-26 08:08:46.36	26.22	16.84	-41.6	-44.3	18.1	0.00e+00	0	43	0	634388480	54	5033
2026-01-26 08:08:49.35	25.60	16.71	-41.9	-44.6	17.9	0.00e+00	0	43	0	640679936	54	5165
2026-01-26 08:08:52.33	24.98	16.59	-42.1	-44.7	17.7	0.00e+00	0	43	0	645922816	54	5256
2026-01-26 08:08:55.32	24.37	16.46	-42.1	-44.8	17.7	0.00e+00	0	43	0	651165696	55	4986
2026-01-26 08:08:58.30	23.76	16.32	-42.1	-44.9	17.5	0.00e+00	0	43	0	657457152	55	5084
2026-01-26 08:09:01.29	23.16	16.19	-42.2	-45.0	17.4	0.00e+00	0	43	0	662700032	55	5130
2026-01-26 08:09:04.27	22.56	16.05	-41.9	-44.6	17.8	0.00e+00	0	43	0	667942912	55	4891
2026-01-26 08:09:07.25	21.97	15.91	-41.9	-44.6	17.8	0.00e+00	0	43	0	674234368	55	4896
2026-01-26 08:09:10.24	21.38	15.77	-42.1	-44.7	17.6	0.00e+00	0	43	0	679477248	55	4977
2026-01-26 08:09:13.22	20.81	15.62	-42.2	-44.9	17.5	0.00e+00	0	43	0	684720128	55	5048
2026-01-26 08:09:16.21	20.23	15.48	-42.3	-45.1	17.3	0.00e+00	0	43	0	691011584	55	5205
2026-01-26 08:09:19.19	19.66	15.33	-42.3	-45.3	17.1	0.00e+00	0	43	0	696254464	55	5312
2026-01-26 08:09:22.17	19.10	15.18	-42.3	-45.3	17.1	0.00e+00	0	43	0	701497344	55	5286
2026-01-26 08:09:25.16	18.55	15.03	-42.0	-44.7	17.7	0.00e+00	0	43	0	707788800	55	4943
2026-01-26 08:09:28.14	18.00	14.87	-42.3	-45.0	17.4	0.00e+00	0	43	0	713031680	55	5102
2026-01-26 08:09:31.13	17.45	14.72	-42.9	-45.7	16.8	0.00e+00	0	43	0	718274560	56	5250
2026-01-26 08:09:34.11	16.91	14.56	-42.9	-45.9	16.7	0.00e+00	0	43	0	724566016	56	5365
2026-01-26 08:09:37.09	16.38	14.40	-42.8	-45.9	16.7	0.00e+00	0	43	0	729808896	56	5353
2026-01-26 08:09:40.08	15.85	14.24	-42.8	-46.1	16.4	0.00e+00	0	43	0	735051776	56	5494
2026-01-26 08:09:43.06	15.33	14.08	-42.6	-46.0	16.5	0.00e+00	0	43	0	741343232	56	5416
2026-01-26 08:09:46.04	14.81	13.92	-42.4	-45.8	16.7	0.00e+00	0	43	0	746586112	56	5340
2026-01-26 08:09:49.03	14.30	13.76	-42.5	-46.0	16.6	0.00e+00	0	43	0	751828992	56	5406
2026-01-26 08:09:52.01	13.80	13.59	-42.7	-46.1	16.4	0.00e+00	0	43	0	758120448	56	5519
2026-01-26 08:09:55.00	13.30	13.42	-42.8	-45.9	16.6	0.00e+00	0	43	0	763363328	56	5376
2026-01-26 08:09:57.98	12.81	13.26	-42.7	-45.6	16.9	0.00e+00	0	43	0	768606208	56	5198
2026-01-26 08:10:00.96	12.32	13.09	-42.4	-45.3	17.2	0.00e+00	0	43	0	774897664	56	5012
2026-01-26 08:10:03.94	11.84	12.92	-42.3	-45.3	17.2	0.00e+00	0	43	0	780140544	56	5017
2026-01-26 08:10:06.93	11.36	12.75	-42.2	-45.1	17.4	0.00e+00	0	43	0	785383424	56	4874
2026-01-26 08:10:09.91	10.89	12.58	-42.0	-45.0	17.5	0.00e+00	0	43	0	791674880	56	4849
2026-01-26 08:10:12.90	10.43	12.41	-41.7	-44.9	17.5	0.00e+00	0	43	0	796917760	55	5048
2026-01-26 08:10:15.88	9.97	12.24	-41.7	-44.8	17.5	0.00e+00	0	43	0	802160640	54	5334
2026-01-26 08:10:18.87	9.51	12.07	-41.5	-44.5	17.8	0.00e+00	0	43	0	808452096	54	5114
2026-01-26 08:10:21.85	9.07	11.89	-41.2	-44.2	18.1	0.00e+00	0	43	0	813694976	54	4967
2026-01-26 08:10:24.83	8.62	11.72	-41.0	-44.1	18.2	0.00e+00	0	43	0	818937856	53	5175
2026-01-26 08:10:27.82	8.18	11.55	-41.1	-44.1	18.2	0.00e+00	0	43	0	825229312	53	5196
2026-01-26 08:10:30.80	7.75	11.37	-41.1	-43.8	18.4	0.00e+00	0	43	0	830472192	53	5034
2026-01-26 08:10:33.78	7.33	11.20	-41.0	-43.7	18.5	0.00e+00	0	43	0	835715072	53	4971
2026-01-26 08:10:36.77	6.90	11.02	-40.9	-43.7	18.5	0.00e+00	0	43	0	842006528	53	4928
2026-01-26 08:10:39.75	6.49	10.85	-41.1	-43.9	18.3	0.00e+00	0	43	0	847249408	53	5071
2026-01-26 08:10:42.74	6.07	10.67	-41.2	-44.0	18.2	0.00e+00	0	43	0	852492288	53	5133
2026-01-26 08:10:45.72	5.67	10.50	-41.2	-44.0	18.2	0.00e+00	0	43	0	858783744	53	5146
2026-01-26 08:10:48.70	5.27	10.32	-41.3	-44.3	17.9	0.00e+00	0	43	0	864026624	53	5302
2026-01-26 08:10:51.69	4.87	10.15	-41.5	-44.5	17.7	0.00e+00	0	43	0	869269504	53	5451
2026-01-26 08:10:54.67	4.48	9.97	-41.7	-44.8	17.5	0.00e+00	0	43	0	875560960	54	5296
2026-01-26 08:10:57.66	4.09	9.80	-41.8	-44.7	17.5	0.00e+00	0	43	0	880803840	54	5232
2026-01-26 08:11:00.64	3.71	9.62	-41.9	-44.5	17.7	0.00e+00	0	43	0	886046720	54	5156
2026-01-26 08:11:03.63	3.33	9.44	-41.6	-44.4	17.8	0.00e+00	0	43	0	892338176	54	5069
2026-01-26 08:11:06.61	2.95	9.27	-41.7	-44.5	17.7	0.00e+00	0	43	0	897581056	54	5127
2026-01-26 08:11:09.59	2.59	9.09	-41.8	-44.6	17.6	0.00e+00	0	43	0	902823936	54	5162
2026-01-26 08:11:12.57	2.22	8.92	-47.2	-63.4	3.8	1.45e+00	0	43	104	908066816	66	22759
2026-01-26 08:11:15.55	1.86	8.74	-48.2	-63.9	3.8	1.49e+00	0	43	104	908066816	67	22683
2026-01-26 08:11:18.53	1.51	8.57	-48.8	-64.2	3.8	1.49e+00	0	43	104	908066816	68	22178
2026-01-26 08:11:21.51	1.16	8.39	-49.0	-64.3	3.8	1.49e+00	0	43	104	908066816	68	22387
2026-01-26 08:11:24.49	0.81	8.22	-49.0	-64.4	3.8	1.49e+00	0	43	104	908066816	68	22529
2026-01-26 08:11:27.47	0.47	8.04	-49.1	-64.4	3.8	1.49e+00	0	43	104	908066816	69	21321
2026-01-26 08:11:30.45	0.13	7.87	-49.0	-64.3	3.8	1.49e+00	0	43	104	908066816	69	21159
2026-01-26 08:11:33.43	359.80	7.70	-49.1	-64.4	3.8	1.49e+00	0	43	104	908066816	69	21283
2026-01-26 08:11:36.41	359.47	7.52	-49.1	-64.3	3.8	1.49e+00	0	43	104	908066816	69	21249
2026-01-26 08:11:39.39	359.14	7.35	-49.0	-64.3	3.8	1.49e+00	0	43	104	908066816	69	21255
2026-01-26 08:11:42.37	358.82	7.18	-48.9	-64.3	3.8	1.49e+00	0	43	104	908066816	69	21084
2026-01-26 08:11:45.35	358.51	7.00	-48.9	-64.3	3.8	1.49e+00	0	43	104	908066816	69	21045
2026-01-26 08:11:48.32	358.19	6.83	-48.9	-64.3	3.8	1.49e+00	0	43	104	908066816	69	21079
2026-01-26 08:11:51.30	357.88	6.66	-48.9	-64.3	3.8	1.49e+00	0	43	104	908066816	69	21060
2026-01-26 08:11:54.28	357.58	6.49	-48.9	-64.2	3.8	1.49e+00	0	43	104	908066816	69	20925
2026-01-26 08:11:57.26	357.27	6.32	-48.9	-64.3	3.8	1.49e+00	0	43	104	908066816	69	21022
2026-01-26 08:12:00.24	356.98	6.15	-48.8	-64.2	3.8	1.49e+00	0	43	104	908066816	69	20881
2026-01-26 08:12:03.22	356.68	5.98	-48.8	-64.2	3.8	1.49e+00	0	43	104	908066816	69	20903
2026-01-26 08:12:06.20	356.39	5.81	-48.8	-64.2	3.8	1.49e+00	0	43	104	908066816	69	20843
2026-01-26 08:12:09.18	356.10	5.64	-48.8	-64.2	3.8	1.49e+00	0	43	104	908066816	69	20814
2026-01-26 08:12:12.16	355.82	5.47	-48.8	-64.2	3.8	1.49e+00	0	43	104	908066816	69	20911
2026-01-26 08:12:15.14	355.54	5.30	-48.8	-64.2	3.8	1.49e+00	0	43	104	908066816	69	20883
2026-01-26 08:12:18.12	355.26	5.13	-48.8	-64.2	3.8	1.49e+00	0	43	104	908066816	69	20877
2026-01-26 08:12:21.09	354.98	4.96	-48.8	-64.2	3.8	1.49e+00	0	43	104	908066816	69	20788

#Closed at: 2026-01-26 08:12:22
#Recorded file [908 MB]: D:/Data/31040_260126_110209.dat