passes_logs/2026/01/26/T1/T1__20260126_103020_NOAA_21_JPSS-2_rec.log

#Pass ID: 20260126_103020_NOAA 21 (JPSS-2)
#Satellite: NOAA 21 (JPSS-2)
#Configuration: NOAA 21
#almurnet v.1.7.20251203
#Start time: 2026-01-26 10:30:21

#Version: 2.0.20230620
#Station: T1
#Location: 37.570604 lon 55.790049 lat
#TLE: 1 54234U 22150A   26025.79694208  .00000182  00000+0  10700-3 0  9999
#TLE: 2 54234  98.7509 326.5666 0000777 213.2444 146.8684 14.19539347166346

#Time	Az	El	Level	Level2	SNR	BER	BlckErr	Temp	State	Recorded	gain1	gain2
2026-01-26 10:30:21.04	178.53	5.06	-49.1	-62.8	3.8	1.49e+00	0	42	0	0	69	17814
2026-01-26 10:30:24.01	178.63	5.27	-47.3	-62.1	3.8	1.49e+00	0	42	104	0	65	20590
2026-01-26 10:30:26.99	178.73	5.48	-47.3	-61.8	3.8	1.49e+00	0	42	104	0	65	20065
2026-01-26 10:30:29.97	178.84	5.70	-47.2	-62.0	3.8	1.49e+00	0	42	104	0	65	20341
2026-01-26 10:30:32.95	178.94	5.91	-47.2	-62.2	3.8	1.49e+00	0	42	104	0	65	20875
2026-01-26 10:30:35.93	179.05	6.13	-47.3	-62.3	3.8	1.49e+00	0	42	104	0	65	21182
2026-01-26 10:30:38.91	179.15	6.35	-47.3	-62.2	3.8	1.49e+00	0	42	104	0	65	20986
2026-01-26 10:30:41.89	179.26	6.57	-47.2	-61.5	3.8	1.49e+00	0	42	104	0	65	19196
2026-01-26 10:30:44.87	179.37	6.79	-47.2	-60.7	3.8	1.49e+00	0	42	104	0	65	17598
2026-01-26 10:30:47.85	179.49	7.01	-47.3	-61.6	3.8	1.49e+00	0	42	104	0	65	19526
2026-01-26 10:30:50.83	179.60	7.24	-47.1	-59.8	3.9	1.49e+00	0	42	104	0	65	15800
2026-01-26 10:30:53.81	179.72	7.47	-45.9	-52.2	8.9	4.05e-02	0	42	0	0	63	7423
2026-01-26 10:30:56.79	179.83	7.69	-43.9	-47.5	13.7	7.60e-06	0	42	0	0	59	5439
2026-01-26 10:30:59.77	179.95	7.93	-42.4	-45.1	16.1	0.00e+00	0	42	0	0	56	4901
2026-01-26 10:31:02.75	180.07	8.16	-41.8	-44.4	16.6	0.00e+00	0	42	0	0	55	4770
2026-01-26 10:31:05.72	180.20	8.40	-42.6	-45.5	15.5	0.00e+00	0	42	0	0	55	5461
2026-01-26 10:31:08.70	180.32	8.63	-44.6	-48.7	12.5	8.39e-05	0	42	0	0	59	6255
2026-01-26 10:31:11.68	180.45	8.87	-46.3	-53.5	7.6	6.69e-02	0	42	0	0	63	8617
2026-01-26 10:31:14.66	180.57	9.12	-45.3	-50.3	10.7	1.36e+00	0	42	104	0	62	6298
2026-01-26 10:31:17.64	180.70	9.36	-46.9	-55.3	6.0	1.45e+00	0	43	104	0	65	9448
2026-01-26 10:31:20.62	180.84	9.61	-43.8	-47.1	14.2	2.20e-06	0	43	0	0	59	5198
2026-01-26 10:31:23.61	180.97	9.86	-43.5	-46.3	15.0	7.00e-07	0	42	0	0	58	5030
2026-01-26 10:31:26.60	181.11	10.11	-43.1	-45.7	15.6	0.00e+00	0	43	0	0	58	4663
2026-01-26 10:31:29.58	181.25	10.36	-42.8	-45.2	16.1	0.00e+00	0	43	0	0	57	4670
2026-01-26 10:31:32.56	181.39	10.62	-41.6	-43.7	17.4	0.00e+00	0	42	0	0	55	4435
2026-01-26 10:31:35.55	181.53	10.88	-41.1	-43.1	18.0	0.00e+00	0	43	0	0	54	4388
2026-01-26 10:31:38.53	181.68	11.14	-40.8	-42.7	18.3	0.00e+00	0	43	0	0	53	4429
2026-01-26 10:31:41.52	181.83	11.41	-40.7	-42.7	18.4	0.00e+00	0	42	0	0	53	4401
2026-01-26 10:31:44.50	181.98	11.68	-40.7	-42.6	18.5	0.00e+00	0	42	0	0	53	4382
2026-01-26 10:31:47.48	182.13	11.95	-40.6	-42.5	18.6	0.00e+00	0	42	0	0	53	4311
2026-01-26 10:31:50.47	182.29	12.22	-40.4	-42.3	18.7	0.00e+00	0	42	0	0	52	4479
2026-01-26 10:31:53.45	182.45	12.50	-40.4	-42.3	18.7	0.00e+00	0	42	0	0	52	4479
2026-01-26 10:31:56.44	182.61	12.78	-40.4	-42.3	18.8	0.00e+00	0	42	0	0	52	4476
2026-01-26 10:31:59.42	182.78	13.06	-40.4	-42.4	18.7	0.00e+00	0	43	0	0	52	4519
2026-01-26 10:32:02.41	182.94	13.34	-40.2	-42.1	18.9	0.00e+00	0	43	0	0	52	4368
2026-01-26 10:32:05.40	183.12	13.63	-40.1	-41.9	19.1	0.00e+00	0	42	0	0	52	4284
2026-01-26 10:32:08.38	183.29	13.92	-40.0	-41.8	19.2	0.00e+00	0	42	0	0	52	4229
2026-01-26 10:32:11.37	183.47	14.22	-40.1	-41.9	19.2	0.00e+00	0	43	0	0	51	4535
2026-01-26 10:32:14.35	183.65	14.52	-40.0	-41.9	19.2	0.00e+00	0	42	0	0	51	4512
2026-01-26 10:32:17.34	183.83	14.82	-40.1	-42.0	19.1	0.00e+00	0	42	0	0	51	4576
2026-01-26 10:32:20.32	184.02	15.12	-40.2	-42.1	19.1	0.00e+00	0	43	0	0	51	4630
2026-01-26 10:32:23.31	184.21	15.43	-40.1	-41.9	19.2	0.00e+00	0	42	0	0	51	4539
2026-01-26 10:32:26.30	184.41	15.75	-40.1	-41.9	19.3	0.00e+00	0	43	0	0	51	4508
2026-01-26 10:32:29.28	184.61	16.06	-40.0	-41.8	19.4	0.00e+00	0	42	0	0	51	4449
2026-01-26 10:32:32.26	184.81	16.38	-40.0	-41.7	19.4	0.00e+00	0	42	0	0	51	4434
2026-01-26 10:32:35.25	185.02	16.71	-39.9	-41.7	19.5	0.00e+00	0	42	0	0	51	4396
2026-01-26 10:32:38.24	185.23	17.04	-39.9	-41.7	19.5	0.00e+00	0	42	0	0	51	4410
2026-01-26 10:32:41.22	185.45	17.37	-39.9	-41.7	19.5	0.00e+00	0	42	0	0	51	4424
2026-01-26 10:32:44.21	185.67	17.71	-39.9	-41.7	19.5	0.00e+00	0	42	0	0	51	4421
2026-01-26 10:32:47.19	185.90	18.05	-40.0	-41.8	19.4	0.00e+00	0	42	0	0	51	4457
2026-01-26 10:32:50.18	186.13	18.39	-40.0	-41.8	19.4	0.00e+00	0	43	0	0	51	4488
2026-01-26 10:32:53.16	186.37	18.74	-40.2	-42.0	19.2	0.00e+00	0	42	0	0	51	4563
2026-01-26 10:32:56.14	186.61	19.10	-40.2	-42.0	19.2	0.00e+00	0	43	0	0	51	4578
2026-01-26 10:32:59.13	186.85	19.46	-40.3	-42.2	19.0	0.00e+00	0	43	0	0	51	4653
2026-01-26 10:33:02.11	187.11	19.82	-40.3	-42.2	19.0	0.00e+00	0	43	0	0	51	4667
2026-01-26 10:33:05.10	187.37	20.19	-40.2	-42.1	19.1	0.00e+00	0	43	0	0	51	4609
2026-01-26 10:33:08.09	187.63	20.56	-40.2	-42.0	19.1	0.00e+00	0	43	0	0	51	4584
2026-01-26 10:33:11.08	187.90	20.94	-39.7	-41.5	19.6	0.00e+00	0	43	0	0	51	4324
2026-01-26 10:33:14.06	188.18	21.33	-39.4	-41.2	19.9	0.00e+00	0	43	0	0	50	4400
2026-01-26 10:33:17.05	188.46	21.72	-39.4	-41.1	20.0	0.00e+00	0	42	0	0	50	4383
2026-01-26 10:33:20.03	188.75	22.11	-39.1	-40.8	20.3	0.00e+00	0	42	0	0	50	4210
2026-01-26 10:33:23.01	189.05	22.51	-38.9	-40.5	20.5	0.00e+00	0	42	0	0	49	4338
2026-01-26 10:33:25.99	189.36	22.91	-38.8	-40.5	20.6	0.00e+00	0	42	0	0	49	4300
2026-01-26 10:33:28.98	189.67	23.32	-38.8	-40.4	20.6	0.00e+00	0	43	0	0	49	4276
2026-01-26 10:33:31.96	189.99	23.74	-38.8	-40.5	20.6	0.00e+00	0	43	0	0	49	4309
2026-01-26 10:33:34.95	190.32	24.16	-39.0	-40.6	20.5	0.00e+00	0	43	0	0	49	4369
2026-01-26 10:33:37.94	190.66	24.59	-39.0	-40.6	20.5	0.00e+00	0	43	0	0	49	4368
2026-01-26 10:33:40.92	191.01	25.03	-39.1	-40.8	20.4	0.00e+00	0	43	0	0	49	4448
2026-01-26 10:33:43.91	191.37	25.47	-39.2	-40.9	20.4	0.00e+00	0	42	0	0	49	4507
2026-01-26 10:33:46.90	191.74	25.92	-39.4	-41.0	20.2	0.00e+00	0	43	0	0	49	4584
2026-01-26 10:33:49.89	192.12	26.37	-39.6	-41.3	20.0	0.00e+00	0	43	0	0	49	4712
2026-01-26 10:33:52.87	192.50	26.83	-39.8	-41.5	19.8	0.00e+00	0	43	0	0	50	4575
2026-01-26 10:33:55.86	192.90	27.30	-40.0	-41.7	19.6	0.00e+00	0	43	0	0	50	4691
2026-01-26 10:33:58.84	193.31	27.77	-40.2	-41.9	19.3	0.00e+00	0	42	0	0	51	4537
2026-01-26 10:34:01.82	193.74	28.25	-40.4	-42.2	19.1	0.00e+00	0	43	0	0	51	4676
2026-01-26 10:34:04.81	194.17	28.74	-40.3	-42.1	19.2	0.00e+00	0	43	0	0	51	4624
2026-01-26 10:34:07.79	194.62	29.23	-40.4	-42.1	19.2	0.00e+00	0	42	0	0	51	4636
2026-01-26 10:34:10.78	195.08	29.73	-40.0	-41.8	19.5	0.00e+00	0	42	0	0	51	4453
2026-01-26 10:34:13.76	195.56	30.23	-40.1	-41.9	19.5	0.00e+00	0	42	0	0	51	4503
2026-01-26 10:34:16.75	196.05	30.75	-40.1	-41.9	19.5	0.00e+00	0	43	0	0	51	4517
2026-01-26 10:34:19.74	196.56	31.27	-39.9	-41.6	19.7	0.00e+00	0	43	0	0	51	4385
2026-01-26 10:34:22.72	197.08	31.80	-39.7	-41.5	19.9	0.00e+00	0	43	0	0	51	4302
2026-01-26 10:34:25.71	197.62	32.33	-39.8	-41.5	19.9	0.00e+00	0	43	0	0	51	4331
2026-01-26 10:34:28.69	198.18	32.87	-39.9	-41.6	19.8	0.00e+00	0	42	0	0	51	4356
2026-01-26 10:34:31.67	198.76	33.42	-40.0	-41.7	19.6	0.00e+00	0	43	0	0	51	4441
2026-01-26 10:34:34.66	199.35	33.98	-40.7	-42.5	19.0	0.00e+00	0	43	0	0	51	4832
2026-01-26 10:34:37.64	199.97	34.54	-41.2	-43.1	18.3	0.00e+00	0	43	0	0	53	4619
2026-01-26 10:34:40.62	200.61	35.10	-41.6	-43.6	17.9	0.00e+00	0	43	0	0	53	4891
2026-01-26 10:34:43.61	201.27	35.68	-41.7	-43.6	17.9	0.00e+00	0	43	0	0	54	4630
2026-01-26 10:34:46.59	201.95	36.26	-41.6	-43.5	18.0	0.00e+00	0	43	0	0	54	4589
2026-01-26 10:34:49.58	202.66	36.84	-41.7	-43.7	17.9	0.00e+00	0	43	0	0	54	4655
2026-01-26 10:34:52.57	203.39	37.44	-41.5	-43.4	18.1	0.00e+00	0	43	0	0	54	4535
2026-01-26 10:34:55.56	204.16	38.04	-41.4	-43.3	18.2	0.00e+00	0	43	0	0	54	4457
2026-01-26 10:34:58.54	204.94	38.64	-41.9	-43.9	17.4	0.00e+00	0	43	0	0	54	4799
2026-01-26 10:35:01.53	205.76	39.24	-42.1	-44.2	17.2	0.00e+00	0	43	0	0	54	4935
2026-01-26 10:35:04.51	206.61	39.85	-42.3	-44.4	17.2	0.00e+00	0	43	0	0	55	4785
2026-01-26 10:35:07.49	207.49	40.47	-41.8	-43.8	17.7	0.00e+00	0	43	0	0	55	4463
2026-01-26 10:35:10.48	208.40	41.09	-41.9	-43.8	17.7	0.00e+00	0	43	0	0	55	4485
2026-01-26 10:35:13.46	209.35	41.70	-42.0	-44.0	17.6	0.00e+00	0	43	0	0	55	4547
2026-01-26 10:35:16.45	210.34	42.33	-41.9	-43.9	17.6	0.00e+00	0	43	0	0	55	4521
2026-01-26 10:35:19.43	211.36	42.95	-42.1	-44.2	17.4	0.00e+00	0	43	0	0	55	4668
2026-01-26 10:35:22.42	212.42	43.57	-43.1	-45.4	16.4	0.00e+00	0	43	0	0	56	5044
2026-01-26 10:35:25.40	213.53	44.19	-42.7	-44.9	16.9	0.00e+00	0	43	0	0	57	4510
2026-01-26 10:35:28.39	214.68	44.81	-42.7	-44.8	17.0	0.00e+00	0	43	0	0	57	4456
2026-01-26 10:35:31.37	215.87	45.42	-42.1	-44.0	17.7	0.00e+00	0	43	0	0	56	4337
2026-01-26 10:35:34.36	217.11	46.03	-41.5	-43.4	18.2	0.00e+00	0	43	0	0	54	4507
2026-01-26 10:35:37.34	218.39	46.64	-41.6	-43.5	18.1	0.00e+00	0	43	0	0	54	4593
2026-01-26 10:35:40.33	219.73	47.24	-41.9	-43.8	17.6	0.00e+00	0	43	0	0	54	4751
2026-01-26 10:35:43.31	221.12	47.82	-42.0	-44.0	17.4	0.00e+00	0	43	0	0	54	4870
2026-01-26 10:35:46.29	222.56	48.40	-42.2	-44.2	17.3	0.00e+00	0	42	0	0	55	4688
2026-01-26 10:35:49.28	224.05	48.97	-42.3	-44.3	17.0	0.00e+00	0	43	0	0	55	4749
2026-01-26 10:35:52.26	225.60	49.52	-41.6	-43.5	18.0	0.00e+00	0	43	0	0	55	4316
2026-01-26 10:35:55.25	227.21	50.05	-42.0	-44.0	17.5	0.00e+00	0	43	0	0	55	4586
2026-01-26 10:35:58.23	228.87	50.57	-41.3	-43.1	18.3	0.00e+00	0	43	0	0	54	4387
2026-01-26 10:36:01.22	230.59	51.06	-41.3	-43.1	18.5	0.00e+00	0	43	0	0	54	4378
2026-01-26 10:36:04.20	232.35	51.54	-40.8	-42.6	18.9	0.00e+00	0	43	0	0	53	4341
2026-01-26 10:36:07.18	234.18	51.99	-40.7	-42.5	19.0	0.00e+00	0	43	0	0	53	4300
2026-01-26 10:36:10.17	236.06	52.41	-40.8	-42.6	18.9	0.00e+00	0	43	0	0	53	4368
2026-01-26 10:36:13.15	237.99	52.80	-40.7	-42.5	19.0	0.00e+00	0	43	0	0	53	4309
2026-01-26 10:36:16.13	239.97	53.17	-41.1	-42.9	18.5	0.00e+00	0	43	0	0	53	4539
2026-01-26 10:36:19.11	242.00	53.50	-40.4	-42.2	19.2	0.00e+00	0	43	0	0	52	4412
2026-01-26 10:36:22.10	244.08	53.79	-41.4	-43.4	18.0	0.00e+00	0	43	0	0	53	4778
2026-01-26 10:36:25.08	246.19	54.05	-40.9	-42.7	18.4	0.00e+00	0	43	0	0	53	4437
2026-01-26 10:36:28.07	248.34	54.27	-40.2	-41.9	19.4	0.00e+00	0	42	0	0	52	4281
2026-01-26 10:36:31.05	250.52	54.45	-40.4	-42.1	19.3	0.00e+00	0	43	0	0	52	4384
2026-01-26 10:36:34.03	252.72	54.59	-40.3	-42.0	19.4	0.00e+00	0	43	0	0	52	4339
2026-01-26 10:36:37.02	254.95	54.69	-40.5	-42.3	19.2	0.00e+00	0	43	0	0	52	4458
2026-01-26 10:36:40.01	257.18	54.75	-40.5	-42.3	19.0	0.00e+00	0	43	0	0	52	4459
2026-01-26 10:36:42.99	259.42	54.76	-40.4	-42.2	19.2	0.00e+00	0	43	0	0	52	4423
2026-01-26 10:36:45.98	261.66	54.73	-40.7	-42.6	18.8	0.00e+00	0	43	0	0	52	4612
2026-01-26 10:36:48.96	263.89	54.66	-41.1	-43.0	18.3	0.00e+00	0	43	0	0	52	4851
2026-01-26 10:36:51.94	266.10	54.55	-40.4	-42.2	19.3	0.00e+00	0	43	0	0	52	4396
2026-01-26 10:36:54.93	268.29	54.39	-40.3	-42.0	19.3	0.00e+00	0	43	0	0	52	4314
2026-01-26 10:36:57.91	270.46	54.19	-40.7	-42.6	18.8	0.00e+00	0	43	0	0	52	4613
2026-01-26 10:37:00.90	272.60	53.96	-40.1	-41.8	19.6	0.00e+00	0	43	0	0	51	4464
2026-01-26 10:37:03.88	274.69	53.69	-40.5	-42.2	19.3	0.00e+00	0	43	0	0	51	4697
2026-01-26 10:37:06.87	276.75	53.38	-40.9	-42.7	18.9	0.00e+00	0	43	0	0	52	4678
2026-01-26 10:37:09.85	278.76	53.04	-41.0	-42.8	18.8	0.00e+00	0	43	0	0	52	4749
2026-01-26 10:37:12.84	280.72	52.66	-40.5	-42.4	19.2	0.00e+00	0	43	0	0	52	4494
2026-01-26 10:37:15.83	282.64	52.26	-40.4	-42.2	19.1	0.00e+00	0	43	0	0	52	4402
2026-01-26 10:37:18.81	284.49	51.83	-41.4	-43.3	18.2	0.00e+00	0	43	0	0	53	4737
2026-01-26 10:37:21.79	286.29	51.37	-42.0	-44.0	17.5	0.00e+00	0	42	0	0	54	4863
2026-01-26 10:37:24.77	288.04	50.89	-41.2	-43.1	18.6	0.00e+00	0	42	0	0	54	4366
2026-01-26 10:37:27.76	289.73	50.38	-41.5	-43.4	18.3	0.00e+00	0	43	0	0	54	4517
2026-01-26 10:37:30.74	291.37	49.86	-41.4	-43.3	18.2	0.00e+00	0	43	0	0	54	4459
2026-01-26 10:37:33.73	292.95	49.32	-41.3	-43.1	18.5	0.00e+00	0	43	0	0	54	4385
2026-01-26 10:37:36.72	294.48	48.77	-42.1	-44.1	17.5	0.00e+00	0	43	0	0	54	4890
2026-01-26 10:37:39.70	295.94	48.20	-42.1	-44.1	17.5	0.00e+00	0	43	0	0	55	4650
2026-01-26 10:37:42.69	297.36	47.62	-41.8	-43.7	17.9	0.00e+00	0	42	0	0	55	4436
2026-01-26 10:37:45.67	298.73	47.03	-42.4	-44.5	17.1	0.00e+00	0	43	0	0	55	4837
2026-01-26 10:37:48.66	300.05	46.44	-41.6	-43.5	18.1	0.00e+00	0	43	0	0	55	4335
2026-01-26 10:37:51.64	301.31	45.83	-41.8	-43.8	17.9	0.00e+00	0	43	0	0	54	4709
2026-01-26 10:37:54.62	302.53	45.22	-42.1	-44.1	17.5	0.00e+00	0	43	0	0	54	4892
2026-01-26 10:37:57.61	303.70	44.61	-42.4	-44.4	17.2	0.00e+00	0	43	0	0	55	4806
2026-01-26 10:38:00.59	304.83	43.99	-43.2	-45.4	16.3	0.00e+00	0	43	0	0	57	4814
2026-01-26 10:38:03.57	305.91	43.38	-42.1	-44.1	17.7	0.00e+00	0	43	0	0	56	4342
2026-01-26 10:38:06.56	306.96	42.76	-41.7	-43.7	17.8	0.00e+00	0	43	0	0	55	4406
2026-01-26 10:38:09.54	307.97	42.14	-42.3	-44.4	17.2	0.00e+00	0	43	0	0	55	4796
2026-01-26 10:38:12.53	308.94	41.52	-42.1	-44.1	17.3	0.00e+00	0	43	0	0	55	4651
2026-01-26 10:38:15.51	309.87	40.91	-42.3	-44.4	17.1	0.00e+00	0	43	0	0	55	4778
2026-01-26 10:38:18.50	310.77	40.29	-42.7	-44.8	16.9	0.00e+00	0	43	0	0	56	4752
2026-01-26 10:38:21.48	311.64	39.69	-42.7	-44.8	16.9	0.00e+00	0	43	0	0	56	4747
2026-01-26 10:38:24.47	312.47	39.08	-42.1	-44.1	17.6	0.00e+00	0	43	0	0	56	4349
2026-01-26 10:38:27.45	313.28	38.48	-41.0	-42.8	18.7	0.00e+00	0	43	0	0	54	4229
2026-01-26 10:38:30.43	314.05	37.88	-41.2	-43.1	18.2	0.00e+00	0	43	0	0	53	4631
2026-01-26 10:38:33.42	314.80	37.29	-41.9	-43.9	17.6	0.00e+00	0	43	0	0	54	4782
2026-01-26 10:38:36.40	315.53	36.70	-41.3	-43.2	18.3	0.00e+00	0	42	0	0	54	4433
2026-01-26 10:38:39.39	316.22	36.12	-41.2	-43.1	18.4	0.00e+00	0	43	0	0	54	4347
2026-01-26 10:38:42.37	316.90	35.55	-41.3	-43.2	18.2	0.00e+00	0	42	0	0	54	4412
2026-01-26 10:38:45.35	317.55	34.98	-40.8	-42.6	18.8	0.00e+00	0	43	0	0	53	4358
2026-01-26 10:38:48.34	318.18	34.42	-40.4	-42.3	19.1	0.00e+00	0	43	0	0	52	4442
2026-01-26 10:38:51.33	318.79	33.86	-40.8	-42.8	18.7	0.00e+00	0	43	0	0	52	4723
2026-01-26 10:38:54.31	319.38	33.31	-40.3	-42.3	19.2	0.00e+00	0	43	0	0	52	4470
2026-01-26 10:38:57.30	319.95	32.77	-40.4	-42.3	19.1	0.00e+00	0	43	0	0	52	4460
2026-01-26 10:39:00.28	320.50	32.23	-40.3	-42.1	19.3	0.00e+00	0	43	0	0	52	4354
2026-01-26 10:39:03.26	321.03	31.70	-39.5	-41.2	20.2	0.00e+00	0	43	0	0	50	4393
2026-01-26 10:39:06.25	321.55	31.18	-39.2	-40.9	20.4	0.00e+00	0	43	0	0	50	4269
2026-01-26 10:39:09.23	322.05	30.67	-39.6	-41.4	20.0	0.00e+00	0	43	0	0	50	4500
2026-01-26 10:39:12.21	322.54	30.16	-40.1	-41.9	19.4	0.00e+00	0	43	0	0	50	4798
2026-01-26 10:39:15.20	323.01	29.66	-40.2	-42.1	19.3	0.00e+00	0	43	0	0	51	4611
2026-01-26 10:39:18.19	323.47	29.16	-40.1	-41.9	19.5	0.00e+00	0	43	0	0	51	4530
2026-01-26 10:39:21.17	323.91	28.67	-39.5	-41.3	20.1	0.00e+00	0	43	0	0	51	4201
2026-01-26 10:39:24.16	324.34	28.19	-39.8	-41.6	19.8	0.00e+00	0	43	0	0	51	4349
2026-01-26 10:39:27.14	324.76	27.72	-39.7	-41.4	20.0	0.00e+00	0	43	0	0	51	4270
2026-01-26 10:39:30.12	325.17	27.25	-39.6	-41.4	20.0	0.00e+00	0	43	0	0	51	4248
2026-01-26 10:39:33.11	325.56	26.79	-39.7	-41.5	19.8	0.00e+00	0	43	0	0	51	4340
2026-01-26 10:39:36.09	325.95	26.33	-39.7	-41.5	19.8	0.00e+00	0	43	0	0	51	4313
2026-01-26 10:39:39.07	326.32	25.89	-39.7	-41.4	19.9	0.00e+00	0	43	0	0	51	4291
2026-01-26 10:39:42.05	326.69	25.44	-39.6	-41.3	20.0	0.00e+00	0	43	0	0	51	4223
2026-01-26 10:39:45.04	327.04	25.01	-39.5	-41.2	20.0	0.00e+00	0	43	0	0	51	4191
2026-01-26 10:39:48.02	327.39	24.58	-39.5	-41.3	19.9	0.00e+00	0	43	0	0	50	4477
2026-01-26 10:39:51.01	327.73	24.15	-39.6	-41.5	19.8	0.00e+00	0	43	0	0	50	4552
2026-01-26 10:39:54.00	328.06	23.73	-39.5	-41.3	19.9	0.00e+00	0	43	0	0	50	4487
2026-01-26 10:39:56.98	328.37	23.32	-39.5	-41.2	20.0	0.00e+00	0	43	0	0	50	4431
2026-01-26 10:39:59.96	328.69	22.92	-39.5	-41.2	20.1	0.00e+00	0	42	0	0	50	4424
2026-01-26 10:40:02.95	328.99	22.51	-39.5	-41.2	20.1	0.00e+00	0	43	0	0	50	4396
2026-01-26 10:40:05.93	329.29	22.12	-39.5	-41.2	20.0	0.00e+00	0	43	0	0	50	4432
2026-01-26 10:40:08.92	329.58	21.73	-39.7	-41.5	19.8	0.00e+00	0	43	0	0	50	4565
2026-01-26 10:40:11.90	329.86	21.34	-39.9	-41.7	19.7	0.00e+00	0	43	0	0	50	4659
2026-01-26 10:40:14.89	330.14	20.96	-39.9	-41.7	19.6	0.00e+00	0	43	0	0	50	4694
2026-01-26 10:40:17.87	330.41	20.59	-40.0	-41.8	19.5	0.00e+00	0	43	0	0	50	4756
2026-01-26 10:40:20.85	330.67	20.22	-40.1	-42.0	19.3	0.00e+00	0	43	0	0	50	4819
2026-01-26 10:40:23.84	330.93	19.85	-40.0	-41.8	19.5	0.00e+00	0	42	0	0	50	4752
2026-01-26 10:40:26.82	331.18	19.49	-39.9	-41.7	19.5	0.00e+00	0	43	0	0	50	4672
2026-01-26 10:40:29.81	331.43	19.14	-39.6	-41.4	19.8	0.00e+00	0	42	0	0	50	4515
2026-01-26 10:40:32.79	331.67	18.79	-39.6	-41.3	19.8	0.00e+00	0	43	0	0	50	4475
2026-01-26 10:40:35.78	331.91	18.44	-39.5	-41.3	19.9	0.00e+00	0	43	0	0	50	4449
2026-01-26 10:40:38.76	332.14	18.10	-39.5	-41.3	19.9	0.00e+00	0	43	0	0	50	4479
2026-01-26 10:40:41.74	332.36	17.76	-39.5	-41.3	19.9	0.00e+00	0	42	0	0	50	4485
2026-01-26 10:40:44.73	332.59	17.43	-39.6	-41.3	19.9	0.00e+00	0	43	0	0	50	4493
2026-01-26 10:40:47.71	332.80	17.10	-39.6	-41.4	19.9	0.00e+00	0	43	0	0	50	4513
2026-01-26 10:40:50.69	333.02	16.77	-39.8	-41.5	19.7	0.00e+00	0	43	0	0	50	4597
2026-01-26 10:40:53.67	333.22	16.45	-40.0	-41.8	19.4	0.00e+00	0	43	0	0	50	4735
2026-01-26 10:40:56.66	333.43	16.13	-40.1	-42.0	19.2	0.00e+00	0	43	0	0	50	4857
2026-01-26 10:40:59.64	333.63	15.82	-40.3	-42.2	19.0	0.00e+00	0	43	0	0	51	4672
2026-01-26 10:41:02.63	333.83	15.51	-40.4	-42.3	18.9	0.00e+00	0	43	0	0	51	4756
2026-01-26 10:41:05.61	334.02	15.20	-40.5	-42.4	18.8	0.00e+00	0	43	0	0	51	4814
2026-01-26 10:41:08.60	334.21	14.90	-40.4	-42.3	18.9	0.00e+00	0	43	0	0	52	4465
2026-01-26 10:41:11.59	334.39	14.60	-40.5	-42.4	18.8	0.00e+00	0	43	0	0	52	4511
2026-01-26 10:41:14.57	334.58	14.30	-40.4	-42.4	18.8	0.00e+00	0	43	0	0	52	4497
2026-01-26 10:41:17.55	334.75	14.01	-40.5	-42.5	18.7	0.00e+00	0	43	0	0	52	4560
2026-01-26 10:41:20.53	334.93	13.72	-40.5	-42.5	18.6	0.00e+00	0	43	0	0	52	4556
2026-01-26 10:41:23.52	335.10	13.44	-40.6	-42.5	18.6	0.00e+00	0	43	0	0	52	4595
2026-01-26 10:41:26.50	335.27	13.15	-40.7	-42.5	18.5	0.00e+00	0	43	0	0	52	4598
2026-01-26 10:41:29.49	335.44	12.87	-40.8	-42.7	18.4	0.00e+00	0	43	0	0	52	4658
2026-01-26 10:41:32.47	335.60	12.60	-40.7	-42.7	18.3	0.00e+00	0	43	0	0	52	4697
2026-01-26 10:41:35.45	335.76	12.32	-40.7	-42.9	18.3	0.00e+00	0	43	0	0	52	4763
2026-01-26 10:41:38.43	335.92	12.05	-40.8	-43.0	18.1	0.00e+00	0	43	0	0	52	4844
2026-01-26 10:41:41.42	336.08	11.78	-40.8	-43.0	18.1	0.00e+00	0	43	0	0	52	4838
2026-01-26 10:41:44.40	336.23	11.52	-40.9	-43.0	18.1	0.00e+00	0	43	0	0	52	4859
2026-01-26 10:41:47.39	336.38	11.25	-41.0	-43.1	18.0	0.00e+00	0	42	0	0	52	4917
2026-01-26 10:41:50.37	336.53	10.99	-40.9	-43.0	18.1	0.00e+00	0	43	0	0	52	4852
2026-01-26 10:41:53.35	336.67	10.74	-40.9	-43.2	17.9	0.00e+00	0	43	0	0	52	4930
2026-01-26 10:41:56.34	336.82	10.48	-40.9	-43.2	18.0	0.00e+00	0	43	0	0	52	4928
2026-01-26 10:41:59.33	336.96	10.23	-40.8	-43.1	18.0	0.00e+00	0	43	0	0	52	4871
2026-01-26 10:42:02.31	337.10	9.98	-40.8	-43.0	18.1	0.00e+00	0	43	0	0	52	4818
2026-01-26 10:42:05.30	337.24	9.73	-40.8	-43.0	18.0	0.00e+00	0	42	0	0	52	4839
2026-01-26 10:42:08.28	337.37	9.48	-40.8	-43.0	18.0	0.00e+00	0	43	0	0	52	4834
2026-01-26 10:42:11.27	337.50	9.24	-40.9	-43.1	17.9	0.00e+00	0	42	0	0	52	4894
2026-01-26 10:42:14.26	337.63	9.00	-41.1	-43.4	17.6	0.00e+00	0	43	0	0	52	5080
2026-01-26 10:42:17.24	337.76	8.76	-49.0	-62.9	3.8	1.49e+00	0	43	104	0	69	18077
2026-01-26 10:42:20.22	337.89	8.52	-48.9	-63.2	3.8	1.49e+00	0	43	104	0	69	18625
2026-01-26 10:42:23.20	338.01	8.29	-49.7	-63.3	3.8	1.49e+00	0	42	104	0	70	17887
2026-01-26 10:42:26.17	338.14	8.06	-50.2	-63.3	3.8	1.49e+00	0	42	104	0	71	16878
2026-01-26 10:42:29.15	338.26	7.83	-50.2	-63.3	3.8	1.49e+00	0	43	104	0	71	16809
2026-01-26 10:42:32.13	338.38	7.60	-50.2	-63.3	3.8	1.49e+00	0	43	104	0	71	16862
2026-01-26 10:42:35.11	338.50	7.37	-50.2	-63.3	3.8	1.49e+00	0	43	104	0	71	16728
2026-01-26 10:42:38.09	338.61	7.15	-50.2	-63.3	3.8	1.49e+00	0	43	104	0	71	16754
2026-01-26 10:42:41.07	338.73	6.93	-50.0	-63.2	3.8	1.49e+00	0	43	104	0	71	16649
2026-01-26 10:42:44.05	338.84	6.71	-50.0	-63.2	3.8	1.49e+00	0	43	104	0	71	16621
2026-01-26 10:42:47.03	338.95	6.49	-50.0	-63.2	3.8	1.49e+00	0	43	104	0	71	16603
2026-01-26 10:42:50.01	339.06	6.27	-50.0	-63.2	3.8	1.49e+00	0	43	104	0	71	16592
2026-01-26 10:42:52.99	339.17	6.06	-50.0	-63.2	3.8	1.49e+00	0	43	104	0	71	16590
2026-01-26 10:42:55.97	339.28	5.84	-50.0	-63.2	3.8	1.49e+00	0	43	104	0	71	16572
2026-01-26 10:42:58.95	339.39	5.63	-49.9	-63.2	3.8	1.49e+00	0	43	104	0	71	16533
2026-01-26 10:43:01.92	339.49	5.42	-49.9	-63.2	3.8	1.49e+00	0	43	104	0	71	16513
2026-01-26 10:43:04.90	339.60	5.21	-49.9	-63.2	3.8	1.49e+00	0	43	104	0	71	16520
2026-01-26 10:43:07.88	339.70	5.01	-49.9	-63.2	3.8	1.49e+00	0	43	104	0	71	16509

#Closed at: 2026-01-26 10:43:09
#Recorded file [0 MB]: D:/Data/31040_260126_133021.dat