passes_logs/2026/01/26/T1/T1__20260126_091957_SUOMI_NPP_rec.log

#Pass ID: 20260126_091957_SUOMI NPP
#Satellite: SUOMI NPP
#Configuration: NPP
#almurnet v.1.7.20251203
#Start time: 2026-01-26 09:19:59

#Version: 2.0.20230620
#Station: T1
#Location: 37.570604 lon 55.790049 lat
#TLE: 1 37849U 11061A   26025.81780576  .00000180  00000+0  10635-3 0  9993
#TLE: 2 37849  98.7822 327.7738 0002159  45.0809 315.0541 14.19529973738242

#Time	Az	El	Level	Level2	SNR	BER	BlckErr	Temp	State	Recorded	gain1	gain2
2026-01-26 09:19:59.35	139.11	5.13	-48.8	-64.0	3.8	1.49e+00	0	40	0	0	69	20473
2026-01-26 09:20:02.33	139.01	5.34	-48.7	-63.9	3.8	1.49e+00	0	41	104	0	69	20126
2026-01-26 09:20:05.31	138.90	5.56	-48.7	-63.8	3.8	1.49e+00	0	41	104	0	69	19873
2026-01-26 09:20:08.29	138.80	5.77	-48.7	-63.6	3.8	1.49e+00	0	41	104	0	69	19513
2026-01-26 09:20:11.27	138.69	5.98	-48.7	-63.1	3.8	1.49e+00	0	41	104	0	69	18359
2026-01-26 09:20:14.25	138.57	6.20	-48.7	-62.7	3.8	1.49e+00	0	41	104	0	69	17519
2026-01-26 09:20:17.23	138.46	6.42	-48.7	-63.0	3.8	1.49e+00	0	41	104	0	69	18241
2026-01-26 09:20:20.21	138.35	6.64	-48.7	-63.8	3.8	1.49e+00	0	41	104	0	69	20034
2026-01-26 09:20:23.19	138.23	6.86	-48.7	-63.3	3.8	1.49e+00	0	41	104	0	69	18925
2026-01-26 09:20:26.17	138.11	7.09	-48.6	-61.6	3.8	1.48e+00	0	41	104	0	69	15534
2026-01-26 09:20:29.15	137.99	7.31	-48.5	-60.0	4.3	1.36e+00	0	42	0	0	68	13662
2026-01-26 09:20:32.13	137.87	7.54	-48.0	-56.9	6.0	5.12e-01	0	42	0	5242880	68	9505
2026-01-26 09:20:35.11	137.74	7.77	-46.7	-52.5	10.0	2.34e-02	0	42	0	10485760	65	6802
2026-01-26 09:20:38.09	137.62	8.00	-44.8	-48.5	14.1	6.80e-06	0	42	0	16777216	61	5453
2026-01-26 09:20:41.07	137.49	8.23	-43.6	-46.5	16.1	0.00e+00	0	42	0	22020096	59	4830
2026-01-26 09:20:44.05	137.36	8.47	-43.5	-46.3	16.3	0.00e+00	0	42	0	27262976	58	5039
2026-01-26 09:20:47.03	137.22	8.71	-45.0	-48.7	14.0	2.20e-06	0	42	0	33554432	60	5874
2026-01-26 09:20:50.00	137.09	8.95	-46.9	-53.0	9.5	3.36e-03	0	42	0	38797312	64	7689
2026-01-26 09:20:52.99	136.95	9.19	-48.1	-57.6	5.4	9.40e-02	0	42	0	44040192	66	11671
2026-01-26 09:20:55.97	136.81	9.43	-48.5	-63.2	3.8	4.47e-01	0	42	104	49283072	67	20807
2026-01-26 09:20:58.96	136.67	9.68	-46.4	-51.8	10.9	1.78e-03	0	42	0	52428800	64	6660
2026-01-26 09:21:01.94	136.52	9.93	-44.7	-48.4	14.4	7.00e-07	0	42	0	57671680	61	5369
2026-01-26 09:21:04.93	136.37	10.18	-43.9	-46.9	15.8	0.00e+00	0	42	0	63963136	59	5080
2026-01-26 09:21:07.91	136.22	10.43	-43.1	-45.8	17.0	0.00e+00	0	42	0	69206016	58	4718
2026-01-26 09:21:10.89	136.07	10.69	-41.7	-44.1	18.4	0.00e+00	0	42	0	74448896	55	4621
2026-01-26 09:21:13.88	135.91	10.95	-42.2	-44.7	17.8	0.00e+00	0	42	0	80740352	55	4966
2026-01-26 09:21:16.86	135.75	11.21	-43.4	-46.5	16.3	0.00e+00	0	43	0	85983232	57	5421
2026-01-26 09:21:19.85	135.59	11.47	-44.1	-47.5	15.3	0.00e+00	0	42	0	91226112	59	5461
2026-01-26 09:21:22.83	135.42	11.74	-43.7	-46.8	16.0	0.00e+00	0	43	0	97517568	59	4998
2026-01-26 09:21:25.81	135.25	12.01	-41.7	-44.0	18.5	0.00e+00	0	42	0	102760448	55	4556
2026-01-26 09:21:28.80	135.08	12.28	-40.9	-43.0	19.5	0.00e+00	0	42	0	108003328	53	4557
2026-01-26 09:21:31.78	134.90	12.56	-41.4	-43.7	18.9	0.00e+00	0	43	0	114294784	53	4941
2026-01-26 09:21:34.77	134.72	12.83	-43.3	-46.3	16.6	0.00e+00	0	43	0	119537664	57	5295
2026-01-26 09:21:37.75	134.54	13.11	-44.2	-47.5	15.4	0.00e+00	0	43	0	124780544	59	5458
2026-01-26 09:21:40.74	134.36	13.40	-42.5	-45.0	17.7	0.00e+00	0	43	0	131072000	57	4587
2026-01-26 09:21:43.72	134.17	13.68	-41.1	-43.2	19.4	0.00e+00	0	43	0	136314880	54	4410
2026-01-26 09:21:46.71	133.97	13.97	-41.3	-43.5	19.0	0.00e+00	0	43	0	141557760	53	4865
2026-01-26 09:21:49.69	133.77	14.27	-43.7	-47.0	15.9	0.00e+00	0	43	0	147849216	58	5405
2026-01-26 09:21:52.68	133.57	14.56	-44.0	-47.2	15.7	0.00e+00	0	43	0	153092096	59	5265
2026-01-26 09:21:55.66	133.36	14.86	-41.3	-43.5	19.1	0.00e+00	0	43	0	158334976	54	4574
2026-01-26 09:21:58.65	133.15	15.16	-40.6	-42.6	19.9	0.00e+00	0	43	0	164626432	52	4647
2026-01-26 09:22:01.63	132.94	15.47	-42.3	-44.9	17.6	0.00e+00	0	43	0	169869312	55	5091
2026-01-26 09:22:04.61	132.72	15.78	-44.2	-47.7	15.4	0.00e+00	0	43	0	175112192	59	5546
2026-01-26 09:22:07.60	132.49	16.09	-42.5	-45.0	17.9	0.00e+00	0	43	0	181403648	57	4579
2026-01-26 09:22:10.58	132.27	16.41	-41.0	-43.1	19.5	0.00e+00	0	43	0	186646528	53	4638
2026-01-26 09:22:13.57	132.03	16.73	-42.4	-45.0	17.8	0.00e+00	0	43	0	191889408	55	5123
2026-01-26 09:22:16.55	131.79	17.05	-42.9	-45.6	17.5	0.00e+00	0	43	0	198180864	57	4881
2026-01-26 09:22:19.53	131.55	17.38	-41.3	-43.5	19.3	0.00e+00	0	43	0	203423744	54	4569
2026-01-26 09:22:22.52	131.30	17.71	-41.2	-43.4	19.3	0.00e+00	0	43	0	208666624	53	4778
2026-01-26 09:22:25.50	131.04	18.05	-43.1	-45.8	17.3	0.00e+00	0	43	0	214958080	57	5033
2026-01-26 09:22:28.49	130.78	18.39	-43.0	-45.7	17.4	0.00e+00	0	43	0	220200960	57	4959
2026-01-26 09:22:31.47	130.51	18.73	-41.7	-44.0	18.8	0.00e+00	0	43	0	225443840	55	4585
2026-01-26 09:22:34.46	130.23	19.08	-42.5	-45.1	17.8	0.00e+00	0	43	0	231735296	55	5173
2026-01-26 09:22:37.44	129.95	19.43	-43.0	-45.6	17.4	0.00e+00	0	43	0	236978176	57	4923
2026-01-26 09:22:40.42	129.66	19.78	-42.5	-45.0	18.1	0.00e+00	0	43	0	242221056	57	4567
2026-01-26 09:22:43.41	129.37	20.15	-43.1	-45.7	17.4	0.00e+00	0	43	0	248512512	57	4958
2026-01-26 09:22:46.39	129.07	20.51	-43.5	-46.3	16.9	0.00e+00	0	43	0	253755392	58	5012
2026-01-26 09:22:49.37	128.76	20.88	-43.2	-45.8	17.4	0.00e+00	0	43	0	258998272	58	4733
2026-01-26 09:22:52.36	128.44	21.25	-42.8	-45.4	17.8	0.00e+00	0	43	0	265289728	57	4766
2026-01-26 09:22:55.34	128.11	21.63	-42.5	-44.9	18.2	0.00e+00	0	43	0	270532608	56	4770
2026-01-26 09:22:58.33	127.78	22.02	-42.7	-45.2	18.0	0.00e+00	0	43	0	275775488	56	4957
2026-01-26 09:23:01.31	127.44	22.40	-43.4	-46.2	17.0	0.00e+00	0	43	0	282066944	57	5222
2026-01-26 09:23:04.30	127.09	22.80	-42.9	-45.5	17.6	0.00e+00	0	43	0	287309824	57	4850
2026-01-26 09:23:07.28	126.73	23.20	-43.4	-46.2	17.0	0.00e+00	0	43	0	292552704	57	5229
2026-01-26 09:23:10.27	126.36	23.60	-43.7	-46.6	16.6	0.00e+00	0	43	0	298844160	58	5176
2026-01-26 09:23:13.25	125.98	24.01	-43.0	-45.6	17.6	0.00e+00	0	43	0	304087040	57	4896
2026-01-26 09:23:16.23	125.59	24.42	-43.6	-46.3	16.9	0.00e+00	0	43	0	309329920	57	5339
2026-01-26 09:23:19.22	125.19	24.84	-43.4	-46.1	17.1	0.00e+00	0	43	0	315621376	58	4922
2026-01-26 09:23:22.20	124.78	25.26	-43.4	-46.0	17.2	0.00e+00	0	43	0	320864256	58	4870
2026-01-26 09:23:25.19	124.35	25.69	-44.1	-47.1	16.2	0.00e+00	0	43	0	326107136	58	5481
2026-01-26 09:23:28.17	123.92	26.12	-42.7	-45.2	18.0	0.00e+00	0	43	0	332398592	57	4664
2026-01-26 09:23:31.16	123.47	26.56	-42.9	-45.5	17.7	0.00e+00	0	43	0	337641472	57	4815
2026-01-26 09:23:34.14	123.01	27.00	-42.8	-45.2	17.9	0.00e+00	0	43	0	342884352	57	4696
2026-01-26 09:23:37.12	122.54	27.45	-43.4	-46.1	17.1	0.00e+00	0	43	0	349175808	57	5209
2026-01-26 09:23:40.10	122.05	27.91	-43.3	-46.0	17.2	0.00e+00	0	43	0	354418688	58	4858
2026-01-26 09:23:43.09	121.55	28.37	-43.3	-45.9	17.4	0.00e+00	0	43	0	359661568	57	5044
2026-01-26 09:23:46.07	121.03	28.83	-44.0	-46.9	16.5	0.00e+00	0	43	0	365953024	58	5364
2026-01-26 09:23:49.06	120.50	29.30	-43.6	-46.3	17.0	0.00e+00	0	43	0	371195904	58	5018
2026-01-26 09:23:52.04	119.96	29.77	-43.9	-46.8	16.5	0.00e+00	0	43	0	376438784	58	5334
2026-01-26 09:23:55.03	119.39	30.25	-43.8	-46.6	16.8	0.00e+00	0	43	0	382730240	58	5168
2026-01-26 09:23:58.01	118.81	30.74	-44.2	-47.2	16.1	0.00e+00	0	43	0	387973120	59	5235
2026-01-26 09:24:01.00	118.21	31.23	-44.0	-46.8	16.5	0.00e+00	0	43	0	393216000	59	5025
2026-01-26 09:24:03.98	117.59	31.72	-44.8	-48.1	15.3	0.00e+00	0	43	0	399507456	60	5514
2026-01-26 09:24:06.97	116.96	32.22	-44.6	-47.8	15.7	0.00e+00	0	43	0	404750336	60	5303
2026-01-26 09:24:09.95	116.30	32.72	-44.5	-47.6	15.9	0.00e+00	0	43	0	411041792	60	5165
2026-01-26 09:24:12.94	115.62	33.23	-44.7	-47.9	15.6	0.00e+00	0	43	0	416284672	60	5364
2026-01-26 09:24:15.93	114.92	33.74	-44.4	-47.5	16.1	0.00e+00	0	43	0	421527552	60	5117
2026-01-26 09:24:18.91	114.20	34.25	-44.0	-46.8	16.7	0.00e+00	0	43	0	427819008	59	5008
2026-01-26 09:24:21.90	113.45	34.77	-44.3	-47.3	16.1	0.00e+00	0	43	0	433061888	59	5332
2026-01-26 09:24:24.88	112.68	35.29	-44.9	-48.1	15.4	7.00e-07	0	43	0	438304768	60	5466
2026-01-26 09:24:27.87	111.89	35.81	-45.6	-49.3	14.2	3.80e-06	0	43	0	444596224	63	5282
2026-01-26 09:24:30.86	111.06	36.34	-44.9	-48.2	15.3	0.00e+00	0	43	0	449839104	61	5233
2026-01-26 09:24:33.85	110.21	36.86	-44.2	-47.2	16.3	0.00e+00	0	43	0	455081984	60	4936
2026-01-26 09:24:36.84	109.34	37.39	-44.0	-46.8	16.6	0.00e+00	0	43	0	461373440	59	5024
2026-01-26 09:24:39.82	108.43	37.92	-44.3	-47.2	16.2	0.00e+00	0	43	0	466616320	59	5269
2026-01-26 09:24:42.81	107.49	38.44	-44.2	-47.1	16.4	0.00e+00	0	43	0	471859200	60	4887
2026-01-26 09:24:45.79	106.53	38.97	-44.6	-47.7	15.8	0.00e+00	0	43	0	478150656	60	5275
2026-01-26 09:24:48.78	105.53	39.49	-44.7	-47.9	15.6	0.00e+00	0	43	0	483393536	60	5392
2026-01-26 09:24:51.76	104.50	40.01	-44.1	-47.0	16.5	0.00e+00	0	43	0	488636416	60	4832
2026-01-26 09:24:54.74	103.44	40.53	-43.5	-46.2	17.2	0.00e+00	0	43	0	494927872	58	4960
2026-01-26 09:24:57.73	102.34	41.05	-45.1	-48.4	15.1	0.00e+00	0	43	0	500170752	60	5713
2026-01-26 09:25:00.71	101.21	41.56	-43.2	-45.8	17.7	0.00e+00	0	43	0	505413632	58	4709
2026-01-26 09:25:03.70	100.03	42.06	-44.1	-47.0	16.5	0.00e+00	0	43	0	511705088	58	5410
2026-01-26 09:25:06.68	98.83	42.55	-44.6	-47.8	15.7	0.00e+00	0	43	0	516947968	59	5641
2026-01-26 09:25:09.66	97.58	43.04	-44.1	-47.1	16.3	0.00e+00	0	43	0	522190848	60	4926
2026-01-26 09:25:12.65	96.30	43.52	-42.0	-44.4	18.7	0.00e+00	0	43	0	528482304	56	4543
2026-01-26 09:25:15.63	94.98	43.99	-41.9	-44.3	18.8	0.00e+00	0	43	0	533725184	54	5025
2026-01-26 09:25:18.62	93.62	44.44	-43.6	-46.9	16.3	0.00e+00	0	43	0	538968064	58	5345
2026-01-26 09:25:21.60	92.22	44.88	-42.9	-45.8	17.5	0.00e+00	0	43	0	545259520	57	4988
2026-01-26 09:25:24.58	90.78	45.31	-42.3	-44.9	18.2	0.00e+00	0	43	0	550502400	56	4787
2026-01-26 09:25:27.57	89.30	45.72	-42.6	-45.3	17.9	0.00e+00	0	43	0	555745280	56	5033
2026-01-26 09:25:30.55	87.79	46.11	-42.4	-45.1	17.9	0.00e+00	0	43	0	562036736	55	5210
2026-01-26 09:25:33.53	86.24	46.49	-44.3	-47.9	15.4	0.00e+00	0	43	0	567279616	59	5681
2026-01-26 09:25:36.52	84.65	46.84	-45.1	-49.4	13.8	1.50e-06	0	43	0	572522496	60	6409
2026-01-26 09:25:39.50	83.03	47.17	-45.7	-50.6	12.8	1.91e-04	0	43	0	578813952	63	6164
2026-01-26 09:25:42.49	81.37	47.48	-44.7	-48.8	14.4	5.30e-06	0	43	0	584056832	61	5616
2026-01-26 09:25:45.48	79.68	47.76	-44.4	-48.0	15.4	0.00e+00	0	43	0	589299712	60	5455
2026-01-26 09:25:48.46	77.96	48.02	-43.9	-47.2	16.1	0.00e+00	0	43	0	595591168	59	5236
2026-01-26 09:25:51.44	76.22	48.25	-43.7	-47.0	16.3	0.00e+00	0	43	0	600834048	59	5105
2026-01-26 09:25:54.43	74.44	48.45	-42.9	-45.8	17.4	0.00e+00	0	43	0	606076928	57	5012
2026-01-26 09:25:57.41	72.65	48.62	-43.7	-47.0	16.2	0.00e+00	0	43	0	612368384	58	5439
2026-01-26 09:26:00.40	70.84	48.77	-41.9	-44.6	18.3	0.00e+00	0	43	0	617611264	55	4880
2026-01-26 09:26:03.38	69.02	48.88	-41.0	-43.4	19.3	0.00e+00	0	43	0	622854144	53	4799
2026-01-26 09:26:06.37	67.18	48.96	-43.0	-46.1	17.1	0.00e+00	0	43	0	629145600	56	5501
2026-01-26 09:26:09.36	65.33	49.01	-43.5	-47.0	16.0	0.00e+00	0	43	0	634388480	58	5449
2026-01-26 09:26:12.34	63.48	49.03	-43.3	-46.7	16.3	0.00e+00	0	43	0	639631360	57	5553
2026-01-26 09:26:15.33	61.63	49.01	-42.7	-45.7	17.3	0.00e+00	0	43	0	645922816	57	4973
2026-01-26 09:26:18.31	59.79	48.96	-41.6	-44.1	18.7	0.00e+00	0	43	0	651165696	54	4923
2026-01-26 09:26:21.30	57.95	48.89	-41.2	-43.6	19.2	0.00e+00	0	43	0	656408576	54	4647
2026-01-26 09:26:24.28	56.13	48.78	-42.5	-45.4	17.7	0.00e+00	0	43	0	662700032	56	5064
2026-01-26 09:26:27.27	54.31	48.63	-43.7	-47.2	16.0	0.00e+00	0	43	0	667942912	58	5561
2026-01-26 09:26:30.26	52.52	48.46	-42.9	-45.9	17.3	0.00e+00	0	43	0	673185792	56	5401
2026-01-26 09:26:33.24	50.75	48.26	-43.7	-47.0	16.2	0.00e+00	0	43	0	679477248	59	5138
2026-01-26 09:26:36.22	49.01	48.04	-43.5	-46.6	16.7	0.00e+00	0	43	0	684720128	58	5175
2026-01-26 09:26:39.21	47.29	47.78	-43.5	-46.6	16.6	0.00e+00	0	43	0	689963008	57	5528
2026-01-26 09:26:42.19	45.60	47.50	-43.9	-47.0	16.0	0.00e+00	0	43	0	696254464	59	5142
2026-01-26 09:26:45.18	43.94	47.19	-43.4	-46.4	16.9	0.00e+00	0	43	0	701497344	58	5086
2026-01-26 09:26:48.16	42.32	46.86	-43.5	-46.6	16.6	0.00e+00	0	43	0	706740224	58	5213
2026-01-26 09:26:51.15	40.73	46.51	-44.3	-47.9	15.6	0.00e+00	0	43	0	713031680	59	5657
2026-01-26 09:26:54.14	39.18	46.14	-43.8	-47.1	16.2	0.00e+00	0	43	0	718274560	59	5167
2026-01-26 09:26:57.12	37.67	45.75	-43.4	-46.5	16.8	0.00e+00	0	43	0	723517440	58	5140
2026-01-26 09:27:00.11	36.19	45.34	-43.2	-46.2	17.1	0.00e+00	0	43	0	729808896	57	5239
2026-01-26 09:27:03.09	34.75	44.92	-42.9	-45.8	17.5	0.00e+00	0	43	0	735051776	57	5014
2026-01-26 09:27:06.08	33.35	44.48	-44.0	-47.2	16.1	0.00e+00	0	43	0	740294656	59	5219
2026-01-26 09:27:09.06	32.00	44.03	-43.9	-47.2	16.3	0.00e+00	0	43	0	746586112	58	5536
2026-01-26 09:27:12.05	30.67	43.56	-43.2	-46.0	17.4	0.00e+00	0	43	0	751828992	58	4848
2026-01-26 09:27:15.03	29.39	43.09	-42.9	-45.7	17.7	0.00e+00	0	43	0	757071872	57	4933
2026-01-26 09:27:18.01	28.15	42.60	-41.6	-44.0	19.0	0.00e+00	0	43	0	763363328	55	4564
2026-01-26 09:27:21.00	26.94	42.11	-41.8	-44.3	18.7	0.00e+00	0	43	0	768606208	55	4753
2026-01-26 09:27:23.98	25.77	41.61	-42.9	-45.6	17.7	0.00e+00	0	43	0	773849088	56	5200
2026-01-26 09:27:26.96	24.64	41.10	-44.8	-48.5	15.0	0.00e+00	0	43	0	780140544	60	5777
2026-01-26 09:27:29.95	23.54	40.59	-45.1	-49.1	14.4	3.00e-06	0	43	0	785383424	61	5839
2026-01-26 09:27:32.94	22.48	40.07	-43.9	-47.1	16.6	0.00e+00	0	43	0	790626304	59	5182
2026-01-26 09:27:35.92	21.45	39.55	-43.8	-46.9	16.5	0.00e+00	0	43	0	796917760	59	5053
2026-01-26 09:27:38.91	20.45	39.03	-44.7	-48.4	15.1	0.00e+00	0	43	0	802160640	60	5717
2026-01-26 09:27:41.89	19.49	38.51	-44.2	-47.5	15.9	0.00e+00	0	43	0	807403520	59	5439
2026-01-26 09:27:44.88	18.55	37.98	-45.0	-48.9	14.6	0.00e+00	0	43	0	813694976	60	6030
2026-01-26 09:27:47.86	17.65	37.46	-45.5	-50.0	13.4	4.19e-05	0	43	0	818937856	62	6130
2026-01-26 09:27:50.84	16.78	36.94	-46.2	-51.3	12.3	5.64e-05	0	43	0	824180736	63	6667
2026-01-26 09:27:53.83	15.93	36.41	-45.3	-49.2	14.3	8.30e-06	0	43	0	830472192	62	5553
2026-01-26 09:27:56.81	15.11	35.89	-43.1	-45.8	17.5	0.00e+00	0	43	0	835715072	58	4714
2026-01-26 09:27:59.80	14.32	35.37	-43.5	-46.3	17.2	0.00e+00	0	43	0	842006528	57	5324
2026-01-26 09:28:02.78	13.55	34.86	-44.2	-47.3	16.2	0.00e+00	0	43	0	847249408	59	5314
2026-01-26 09:28:05.76	12.81	34.34	-45.4	-49.1	14.5	0.00e+00	0	43	0	852492288	61	5843
2026-01-26 09:28:08.75	12.08	33.83	-45.7	-49.8	13.8	1.37e-05	0	43	0	858783744	63	5648
2026-01-26 09:28:11.74	11.38	33.32	-45.1	-49.0	14.6	7.00e-07	0	43	0	864026624	61	5740
2026-01-26 09:28:14.72	10.71	32.82	-43.5	-46.3	17.2	0.00e+00	0	43	0	869269504	59	4740
2026-01-26 09:28:17.71	10.05	32.32	-43.9	-46.8	16.7	0.00e+00	0	43	0	875560960	58	5314
2026-01-26 09:28:20.69	9.42	31.82	-45.9	-50.0	13.3	2.20e-06	0	43	0	880803840	62	6129
2026-01-26 09:28:23.67	8.80	31.33	-43.7	-46.6	16.8	0.00e+00	0	43	0	886046720	59	4896
2026-01-26 09:28:26.66	8.20	30.84	-43.2	-45.9	17.6	0.00e+00	0	44	0	892338176	57	5068
2026-01-26 09:28:29.64	7.62	30.36	-44.3	-47.6	16.0	0.00e+00	0	43	0	897581056	59	5492
2026-01-26 09:28:32.62	7.06	29.88	-45.3	-49.2	14.5	0.00e+00	0	43	0	902823936	61	5881
2026-01-26 09:28:35.61	6.51	29.41	-44.1	-47.3	16.3	0.00e+00	0	43	0	909115392	60	4999
2026-01-26 09:28:38.59	5.98	28.94	-44.3	-47.5	16.1	0.00e+00	0	43	0	914358272	60	5102
2026-01-26 09:28:41.58	5.47	28.48	-43.8	-46.8	16.7	0.00e+00	0	43	0	919601152	59	4997
2026-01-26 09:28:44.56	4.97	28.02	-43.3	-46.1	17.4	0.00e+00	0	44	0	925892608	58	4887
2026-01-26 09:28:47.54	4.49	27.57	-43.5	-46.3	17.3	0.00e+00	0	43	0	931135488	58	4999
2026-01-26 09:28:50.52	4.02	27.12	-43.9	-46.8	16.7	0.00e+00	0	43	0	936378368	58	5337
2026-01-26 09:28:53.51	3.56	26.68	-45.1	-48.8	14.8	0.00e+00	0	43	0	942669824	60	5988
2026-01-26 09:28:56.50	3.11	26.24	-45.4	-49.2	14.4	7.00e-07	0	43	0	947912704	62	5567
2026-01-26 09:28:59.48	2.68	25.81	-44.5	-47.8	15.8	0.00e+00	0	43	0	953155584	61	5034
2026-01-26 09:29:02.47	2.25	25.38	-44.1	-47.3	16.3	0.00e+00	0	43	0	959447040	60	5000
2026-01-26 09:29:05.45	1.85	24.96	-43.3	-46.1	17.4	0.00e+00	0	44	0	964689920	58	4894
2026-01-26 09:29:08.44	1.45	24.55	-43.2	-46.0	17.4	0.00e+00	0	43	0	969932800	58	4845
2026-01-26 09:29:11.42	1.06	24.14	-43.9	-47.1	16.4	0.00e+00	0	43	0	976224256	58	5472
2026-01-26 09:29:14.41	0.68	23.73	-43.8	-46.8	16.7	0.00e+00	0	43	0	981467136	59	5009
2026-01-26 09:29:17.40	0.31	23.33	-43.4	-46.2	17.2	0.00e+00	0	43	0	986710016	58	4967
2026-01-26 09:29:20.38	359.95	22.93	-43.0	-45.7	17.7	0.00e+00	0	43	0	993001472	57	4937
2026-01-26 09:29:23.37	359.60	22.54	-42.9	-45.5	17.9	0.00e+00	0	43	0	998244352	57	4840
2026-01-26 09:29:26.35	359.26	22.15	-43.0	-45.6	17.8	0.00e+00	0	43	0	1003487232	57	4910
2026-01-26 09:29:29.33	358.93	21.77	-43.5	-46.4	17.1	0.00e+00	0	44	0	1009778688	57	5345
2026-01-26 09:29:32.31	358.61	21.39	-43.9	-46.9	16.7	0.00e+00	0	43	0	1015021568	58	5344
2026-01-26 09:29:35.30	358.29	21.02	-43.6	-46.4	17.1	0.00e+00	0	43	0	1020264448	58	5070
2026-01-26 09:29:38.29	357.98	20.65	-43.3	-46.0	17.4	0.00e+00	0	43	0	1026555904	58	4863
2026-01-26 09:29:41.27	357.68	20.29	-43.3	-46.1	17.3	0.00e+00	0	43	0	1031798784	57	5196
2026-01-26 09:29:44.25	357.39	19.93	-43.7	-46.6	16.8	0.00e+00	0	44	0	1037041664	58	5189
2026-01-26 09:29:47.24	357.10	19.57	-43.9	-46.8	16.6	0.00e+00	0	43	0	1043333120	58	5338
2026-01-26 09:29:50.23	356.82	19.22	-43.5	-46.4	17.0	0.00e+00	0	43	0	1048576000	58	5099
2026-01-26 09:29:53.22	356.55	18.87	-42.8	-45.6	17.7	0.00e+00	0	43	0	1053818880	57	4907
2026-01-26 09:29:56.20	356.28	18.53	-42.5	-45.0	18.3	0.00e+00	0	43	0	1060110336	57	4595
2026-01-26 09:29:59.19	356.02	18.19	-42.3	-44.8	18.3	0.00e+00	0	43	0	1065353216	56	4734
2026-01-26 09:30:02.17	355.77	17.86	-42.4	-45.0	18.3	0.00e+00	0	43	0	1070596096	56	4846
2026-01-26 09:30:05.16	355.52	17.53	-42.9	-45.8	17.6	0.00e+00	0	43	0	1076887552	56	5330
2026-01-26 09:30:08.14	355.28	17.20	-43.4	-46.5	17.0	0.00e+00	0	43	0	1082130432	57	5416
2026-01-26 09:30:11.12	355.04	16.88	-44.0	-47.3	16.2	0.00e+00	0	44	0	1087373312	58	5599
2026-01-26 09:30:14.10	354.81	16.56	-44.4	-47.9	15.6	0.00e+00	0	44	0	1093664768	59	5664
2026-01-26 09:30:17.08	354.58	16.24	-44.7	-48.4	15.1	0.00e+00	0	43	0	1098907648	60	5704
2026-01-26 09:30:20.07	354.36	15.93	-44.4	-48.2	15.3	0.00e+00	0	44	0	1104150528	60	5545
2026-01-26 09:30:23.05	354.14	15.62	-44.2	-47.7	15.8	0.00e+00	0	43	0	1110441984	60	5250
2026-01-26 09:30:26.04	353.93	15.32	-44.0	-47.3	16.1	0.00e+00	0	43	0	1115684864	59	5317
2026-01-26 09:30:29.02	353.72	15.02	-43.9	-47.2	16.3	0.00e+00	0	43	0	1120927744	59	5235
2026-01-26 09:30:32.01	353.52	14.72	-44.1	-47.5	15.9	0.00e+00	0	43	0	1127219200	59	5439
2026-01-26 09:30:34.99	353.32	14.42	-44.2	-47.3	16.1	0.00e+00	0	43	0	1132462080	59	5312
2026-01-26 09:30:37.97	353.12	14.13	-44.2	-47.7	15.8	0.00e+00	0	43	0	1137704960	59	5542
2026-01-26 09:30:40.96	352.93	13.84	-44.3	-47.9	15.6	0.00e+00	0	44	0	1143996416	59	5689
2026-01-26 09:30:43.94	352.74	13.56	-44.2	-47.7	15.7	0.00e+00	0	43	0	1149239296	59	5581
2026-01-26 09:30:46.93	352.56	13.27	-43.8	-47.6	15.9	0.00e+00	0	44	0	1154482176	59	5486
2026-01-26 09:30:49.92	352.38	12.99	-43.6	-47.5	16.0	0.00e+00	0	43	0	1160773632	59	5406
2026-01-26 09:30:52.90	352.20	12.72	-43.8	-48.0	15.5	0.00e+00	0	44	0	1166016512	59	5778
2026-01-26 09:30:55.89	352.03	12.44	-43.9	-48.1	15.3	0.00e+00	0	43	0	1171259392	59	5839
2026-01-26 09:30:58.88	351.86	12.17	-44.4	-48.8	14.6	0.00e+00	0	43	0	1177550848	59	6333
2026-01-26 09:31:01.86	351.69	11.90	-44.5	-49.0	14.5	0.00e+00	0	44	0	1182793728	60	6074
2026-01-26 09:31:04.84	351.53	11.64	-44.2	-49.0	14.5	2.20e-06	0	43	0	1188036608	60	6091
2026-01-26 09:31:07.83	351.37	11.37	-44.1	-48.9	14.5	0.00e+00	0	44	0	1194328064	59	6393
2026-01-26 09:31:10.81	351.21	11.11	-43.2	-48.2	15.2	0.00e+00	0	44	0	1199570944	58	6261
2026-01-26 09:31:13.79	351.06	10.86	-42.5	-47.6	15.7	0.00e+00	0	43	0	1204813824	57	6133
2026-01-26 09:31:16.78	350.91	10.60	-42.2	-47.1	16.2	0.00e+00	0	44	0	1211105280	56	6142
2026-01-26 09:31:19.76	350.76	10.35	-42.5	-47.1	16.2	0.00e+00	0	43	0	1216348160	56	6143
2026-01-26 09:31:22.75	350.61	10.10	-42.8	-47.0	16.3	0.00e+00	0	43	0	1221591040	56	6128
2026-01-26 09:31:25.73	350.47	9.85	-43.2	-47.2	16.1	0.00e+00	0	43	0	1227882496	56	6234
2026-01-26 09:31:28.72	350.33	9.60	-43.6	-47.6	15.7	0.00e+00	0	44	0	1233125376	57	6180
2026-01-26 09:31:31.70	350.19	9.36	-43.7	-47.6	15.7	0.00e+00	0	43	0	1238368256	58	5810
2026-01-26 09:31:34.68	350.05	9.12	-44.1	-48.0	15.3	0.00e+00	0	44	0	1244659712	58	6073
2026-01-26 09:31:37.67	349.92	8.88	-47.0	-64.6	3.8	1.49e+00	0	43	104	1248854016	64	29241
2026-01-26 09:31:40.65	349.79	8.64	-49.7	-65.4	3.8	1.49e+00	0	44	104	1248854016	70	22656
2026-01-26 09:31:43.63	349.66	8.40	-49.7	-65.3	3.8	1.49e+00	0	43	104	1248854016	70	22281
2026-01-26 09:31:46.61	349.54	8.17	-50.1	-65.3	3.8	1.49e+00	0	43	104	1248854016	70	22415
2026-01-26 09:31:49.59	349.41	7.94	-50.0	-65.3	3.8	1.49e+00	0	43	104	1248854016	70	22467
2026-01-26 09:31:52.57	349.29	7.71	-49.9	-65.4	3.8	1.49e+00	0	44	104	1248854016	70	22562
2026-01-26 09:31:55.55	349.17	7.48	-50.1	-65.3	3.8	1.49e+00	0	44	104	1248854016	70	22479
2026-01-26 09:31:58.53	349.05	7.26	-50.1	-65.4	3.8	1.49e+00	0	44	104	1248854016	71	21286
2026-01-26 09:32:01.51	348.94	7.04	-50.1	-65.3	3.8	1.49e+00	0	44	104	1248854016	71	21121
2026-01-26 09:32:04.49	348.82	6.81	-50.1	-65.3	3.8	1.49e+00	0	43	104	1248854016	71	21208
2026-01-26 09:32:07.46	348.71	6.59	-49.9	-65.3	3.8	1.49e+00	0	44	104	1248854016	71	21048
2026-01-26 09:32:10.44	348.60	6.38	-49.8	-65.2	3.8	1.49e+00	0	44	104	1248854016	71	20974
2026-01-26 09:32:13.42	348.50	6.16	-49.8	-65.3	3.8	1.49e+00	0	43	104	1248854016	71	21076
2026-01-26 09:32:16.40	348.39	5.95	-49.8	-65.2	3.8	1.49e+00	0	44	104	1248854016	71	20988
2026-01-26 09:32:19.38	348.28	5.73	-49.8	-65.3	3.8	1.49e+00	0	43	104	1248854016	71	21104
2026-01-26 09:32:22.36	348.18	5.52	-49.8	-65.2	3.8	1.49e+00	0	43	104	1248854016	71	20986
2026-01-26 09:32:25.34	348.08	5.31	-49.8	-65.3	3.8	1.49e+00	0	43	104	1248854016	71	21043
2026-01-26 09:32:28.32	347.98	5.10	-49.8	-65.2	3.8	1.49e+00	0	43	104	1248854016	71	20920

#Closed at: 2026-01-26 09:32:31
#Recorded file [1248 MB]: D:/Data/31040_260126_121959.dat