passes_logs/2026/01/26/T1/T1__20260126_011504_AQUA_rec.log

#Pass ID: 20260126_011504_AQUA
#Satellite: AQUA
#Configuration: AQUA
#almurnet v.1.7.20251203
#Start time: 2026-01-26 01:15:06

#Version: 2.0.20230620
#Station: T1
#Location: 37.570604 lon 55.790049 lat
#TLE: 1 27424U 02022A   26025.50647354  .00001868  00000+0  38363-3 0  9992
#TLE: 2 27424  98.4099 352.1114 0001896  65.7986  47.0097 14.61858879262422

#Time	Az	El	Level	Level2	SNR	BER	BlckErr	Temp	State	Recorded	gain1	gain2
2026-01-26 01:15:06.05	17.10	5.12	-46.6	-69.7	3.7	7.51e-01	0	35	0	0	65	49831
2026-01-26 01:15:09.02	17.13	5.34	-47.7	-69.4	3.8	7.45e-01	0	36	104	0	66	45361
2026-01-26 01:15:12.00	17.18	5.57	-47.7	-69.4	3.8	7.43e-01	0	36	104	0	66	45085
2026-01-26 01:15:14.98	17.22	5.79	-47.7	-69.2	3.8	7.47e-01	0	36	104	0	66	44374
2026-01-26 01:15:17.96	17.26	6.02	-47.7	-69.2	3.8	7.46e-01	0	36	104	0	66	44034
2026-01-26 01:15:20.94	17.30	6.26	-47.7	-69.2	3.8	7.45e-01	0	36	104	0	66	44077
2026-01-26 01:15:23.92	17.34	6.49	-47.7	-69.2	3.8	7.47e-01	0	36	104	0	66	43990
2026-01-26 01:15:26.90	17.38	6.73	-47.7	-69.1	3.8	7.47e-01	0	36	104	0	66	43417
2026-01-26 01:15:29.88	17.43	6.97	-47.7	-68.9	3.8	7.49e-01	0	36	104	0	66	42805
2026-01-26 01:15:32.86	17.47	7.21	-47.6	-68.5	3.8	7.45e-01	0	37	104	0	66	40713
2026-01-26 01:15:35.84	17.51	7.46	-47.5	-68.0	3.8	7.48e-01	0	37	104	0	66	38626
2026-01-26 01:15:38.82	17.56	7.70	-47.5	-67.7	3.8	7.45e-01	0	37	104	0	66	37273
2026-01-26 01:15:41.80	17.60	7.95	-47.5	-67.6	3.8	7.43e-01	0	36	104	0	66	36652
2026-01-26 01:15:44.78	17.65	8.21	-47.4	-66.9	3.8	7.45e-01	0	37	104	0	66	34008
2026-01-26 01:15:47.76	17.70	8.46	-47.1	-65.4	3.8	7.45e-01	0	37	104	0	66	28401
2026-01-26 01:15:50.74	17.74	8.72	-46.6	-63.3	3.8	7.45e-01	0	37	104	0	65	23852
2026-01-26 01:15:53.72	17.79	8.98	-46.2	-61.9	3.8	7.48e-01	0	37	104	0	64	21370
2026-01-26 01:15:56.72	17.84	9.25	-45.0	-58.7	3.8	7.41e-01	0	37	104	0	62	16683
2026-01-26 01:16:00.26	17.90	9.57	-43.8	-56.4	3.8	7.45e-01	0	37	104	0	59	15056
2026-01-26 01:16:02.97	17.95	9.82	-42.9	-55.1	3.8	7.43e-01	0	37	104	0	57	14597
2026-01-26 01:16:06.26	18.00	10.12	-47.7	-67.1	3.9	7.47e-01	0	37	104	0	66	34773
2026-01-26 01:16:08.97	18.05	10.37	-43.8	-56.5	3.8	7.47e-01	0	37	104	0	59	15290
2026-01-26 01:16:12.24	18.11	10.68	-43.6	-56.3	3.8	7.45e-01	0	37	104	0	58	15800
2026-01-26 01:16:14.94	18.16	10.94	-47.7	-67.1	3.7	7.45e-01	0	37	104	0	66	34797
2026-01-26 01:16:18.22	18.21	11.26	-47.2	-55.4	13.0	6.08e-01	0	37	104	0	66	9005
2026-01-26 01:16:20.95	18.27	11.53	-46.9	-54.4	14.3	6.05e-01	0	37	0	4718592	65	8542
2026-01-26 01:16:24.22	18.33	11.86	-46.1	-51.0	18.0	6.05e-01	0	37	0	10485760	63	6470
2026-01-26 01:16:26.99	18.38	12.14	-45.5	-50.0	18.8	6.03e-01	0	37	0	15728640	62	6092
2026-01-26 01:16:30.32	18.45	12.48	-45.2	-49.7	19.6	6.04e-01	0	38	0	22020096	61	6206
2026-01-26 01:16:33.16	18.50	12.78	-44.0	-47.4	21.7	6.03e-01	0	38	0	27262976	59	5401
2026-01-26 01:16:36.63	18.57	13.14	-43.9	-47.3	22.0	6.04e-01	0	38	0	34078720	58	5618
2026-01-26 01:16:39.33	18.63	13.43	-42.7	-45.5	23.4	6.05e-01	0	37	0	38797312	57	4858
2026-01-26 01:16:42.61	18.70	13.79	-42.0	-44.7	24.3	6.04e-01	0	38	0	45088768	56	4686
2026-01-26 01:16:45.31	18.76	14.09	-41.4	-44.0	24.8	6.04e-01	0	38	0	50331648	54	4858
2026-01-26 01:16:48.66	18.83	14.47	-41.2	-43.9	25.0	6.01e-01	0	38	0	56623104	54	4778
2026-01-26 01:16:51.36	18.89	14.77	-41.1	-43.8	25.0	6.04e-01	0	38	0	61341696	54	4727
2026-01-26 01:16:54.63	18.96	15.15	-41.1	-43.8	25.0	6.02e-01	0	38	0	67633152	54	4754
2026-01-26 01:16:57.46	19.03	15.49	-41.2	-44.0	24.9	6.02e-01	0	38	0	72876032	54	4828
2026-01-26 01:17:00.59	19.10	15.86	-41.2	-44.0	24.1	6.01e-01	0	38	0	78643200	54	4843
2026-01-26 01:17:03.72	19.18	16.24	-41.3	-44.0	24.9	6.04e-01	0	38	0	84934656	54	4829
2026-01-26 01:17:06.56	19.25	16.59	-41.2	-43.8	25.1	6.04e-01	0	38	0	90177536	54	4726
2026-01-26 01:17:09.69	19.33	16.99	-41.4	-43.9	25.0	6.04e-01	0	38	0	95944704	54	4766
2026-01-26 01:17:12.54	19.41	17.35	-41.3	-43.8	25.1	6.07e-01	0	38	0	101187584	54	4724
2026-01-26 01:17:15.66	19.49	17.76	-41.3	-43.7	25.1	6.04e-01	0	38	0	106954752	54	4701
2026-01-26 01:17:18.64	19.57	18.15	-41.4	-43.9	25.1	6.03e-01	0	38	0	112721920	54	4762
2026-01-26 01:17:21.76	19.66	18.57	-41.2	-43.7	25.2	6.04e-01	0	38	0	118489088	54	4691
2026-01-26 01:17:24.60	19.74	18.97	-41.2	-43.7	25.1	6.03e-01	0	38	0	123731968	54	4696
2026-01-26 01:17:27.73	19.83	19.40	-41.1	-43.7	25.1	6.03e-01	0	38	0	129499136	54	4689
2026-01-26 01:17:30.58	19.92	19.81	-41.1	-43.8	25.1	6.03e-01	0	38	0	135266304	54	4757
2026-01-26 01:17:33.71	20.01	20.27	-41.2	-43.8	25.0	6.06e-01	0	38	0	141033472	54	4753
2026-01-26 01:17:36.61	20.10	20.70	-41.3	-43.8	25.1	6.04e-01	0	38	0	146276352	54	4736
2026-01-26 01:17:40.21	20.22	21.24	-41.5	-44.0	25.0	6.05e-01	0	38	0	153092096	54	4822
2026-01-26 01:17:43.06	20.32	21.68	-41.5	-44.0	25.0	6.05e-01	0	38	0	158334976	54	4839
2026-01-26 01:17:47.02	20.45	22.31	-41.5	-43.9	25.0	6.05e-01	0	38	0	166199296	54	4808
2026-01-26 01:17:49.87	20.56	22.77	-41.4	-43.8	25.1	6.05e-01	0	38	0	171442176	54	4727
2026-01-26 01:17:53.85	20.70	23.43	-41.6	-44.0	25.0	6.03e-01	0	38	0	178782208	54	4855
2026-01-26 01:17:56.64	20.81	23.90	-41.6	-44.2	24.8	6.05e-01	0	38	0	184025088	54	4939
2026-01-26 01:18:00.44	20.96	24.56	-41.4	-44.2	24.8	6.03e-01	0	38	0	190840832	54	4950
2026-01-26 01:18:03.29	21.08	25.07	-41.4	-44.2	24.8	6.01e-01	0	38	0	196608000	54	4978
2026-01-26 01:18:06.42	21.21	25.64	-41.4	-44.1	24.8	6.03e-01	0	38	0	202375168	54	4926
2026-01-26 01:18:09.27	21.34	26.17	-41.4	-44.1	24.9	6.03e-01	0	38	0	207618048	54	4911
2026-01-26 01:18:12.39	21.48	26.77	-41.3	-44.0	25.0	6.04e-01	0	38	0	213385216	54	4822
2026-01-26 01:18:15.24	21.61	27.32	-41.2	-43.8	25.2	6.03e-01	0	38	0	218628096	54	4730
2026-01-26 01:18:18.36	21.76	27.94	-41.2	-43.6	25.4	6.01e-01	0	38	0	224919552	54	4645
2026-01-26 01:18:21.21	21.91	28.52	-41.3	-43.7	25.3	6.06e-01	0	38	0	230162432	54	4686
2026-01-26 01:18:24.41	22.07	29.19	-41.0	-43.4	25.6	6.02e-01	0	38	0	235929600	53	4767
2026-01-26 01:18:27.26	22.23	29.80	-41.2	-43.6	25.4	6.04e-01	0	38	0	241172480	53	4910
2026-01-26 01:18:30.59	22.42	30.53	-41.2	-43.5	25.3	6.03e-01	0	38	0	247463936	53	4864
2026-01-26 01:18:33.50	22.59	31.19	-41.3	-43.6	25.4	6.03e-01	0	38	0	253231104	53	4900
2026-01-26 01:18:36.77	22.79	31.94	-41.1	-43.5	25.5	6.03e-01	0	38	0	258998272	53	4822
2026-01-26 01:18:39.50	22.96	32.59	-41.4	-43.8	25.3	6.03e-01	0	38	0	264241152	53	5011
2026-01-26 01:18:42.77	23.18	33.38	-41.3	-43.9	25.1	6.05e-01	0	38	0	270532608	53	5063
2026-01-26 01:18:45.61	23.38	34.09	-41.3	-43.9	25.1	6.02e-01	0	38	0	275775488	53	5098
2026-01-26 01:18:49.28	23.65	35.03	-41.9	-44.5	24.6	6.04e-01	0	38	0	282591232	54	5140
2026-01-26 01:18:51.98	23.86	35.74	-42.0	-44.7	24.5	6.01e-01	0	38	0	287834112	54	5223
2026-01-26 01:18:55.25	24.12	36.63	-42.5	-45.2	24.0	6.01e-01	0	38	0	293601280	55	5229
2026-01-26 01:18:58.01	24.36	37.39	-42.6	-45.3	23.9	6.00e-01	0	38	0	298844160	55	5317
2026-01-26 01:19:01.28	24.65	38.32	-43.2	-46.1	23.3	6.01e-01	0	38	0	305135616	57	5164
2026-01-26 01:19:04.23	24.93	39.19	-43.3	-45.9	23.5	6.03e-01	0	38	0	310902784	57	5093
2026-01-26 01:19:07.77	25.28	40.25	-43.2	-45.9	23.4	6.04e-01	0	38	0	317194240	57	5096
2026-01-26 01:19:10.51	25.57	41.10	-42.8	-45.3	24.0	6.03e-01	0	38	0	322437120	57	4745
2026-01-26 01:19:13.77	25.94	42.14	-42.4	-44.9	24.4	6.04e-01	0	38	0	328728576	56	4788
2026-01-26 01:19:16.51	26.27	43.03	-41.5	-44.0	25.2	6.04e-01	0	38	0	333971456	55	4570
2026-01-26 01:19:19.77	26.68	44.12	-41.2	-43.6	25.5	6.03e-01	0	38	0	339738624	54	4610
2026-01-26 01:19:22.73	27.08	45.14	-41.3	-43.7	25.3	6.06e-01	0	38	0	345505792	54	4701
2026-01-26 01:19:26.01	27.55	46.30	-41.2	-43.6	25.5	6.07e-01	0	38	0	351797248	53	4881
2026-01-26 01:19:28.72	27.97	47.29	-41.0	-43.4	25.6	6.04e-01	0	38	0	356515840	53	4764
2026-01-26 01:19:32.04	28.52	48.53	-41.2	-43.8	25.3	6.04e-01	0	38	0	362807296	53	4985
2026-01-26 01:19:34.86	29.03	49.60	-41.2	-43.8	25.3	6.02e-01	0	38	0	368050176	53	5027
2026-01-26 01:19:38.26	29.69	50.94	-40.7	-43.0	26.0	5.99e-01	0	38	0	374341632	53	4596
2026-01-26 01:19:40.99	30.26	52.04	-40.6	-42.9	26.1	6.03e-01	0	38	0	379584512	53	4519
2026-01-26 01:19:44.27	31.00	53.39	-40.6	-42.9	26.1	6.05e-01	0	38	0	385875968	52	4792
2026-01-26 01:19:46.98	31.68	54.53	-40.7	-42.9	26.1	6.03e-01	0	38	0	390594560	52	4809
2026-01-26 01:19:50.25	32.56	55.93	-41.1	-43.4	25.3	6.03e-01	0	38	0	396886016	52	5058
2026-01-26 01:19:52.95	33.36	57.12	-41.8	-44.2	24.9	6.02e-01	0	38	0	402128896	54	4953
2026-01-26 01:19:56.22	34.43	58.58	-42.2	-44.6	24.6	6.05e-01	0	38	0	408420352	54	5206
2026-01-26 01:19:58.98	35.43	59.84	-42.6	-45.2	24.1	6.04e-01	0	38	0	413138944	55	5259
2026-01-26 01:20:02.25	36.75	61.35	-43.2	-45.8	23.6	6.04e-01	0	38	0	419430400	57	5030
2026-01-26 01:20:04.96	37.97	62.62	-43.8	-46.7	22.8	6.00e-01	0	38	0	424673280	58	5224
2026-01-26 01:20:08.53	39.79	64.31	-44.6	-47.7	21.7	6.07e-01	0	38	0	431489024	60	5277
2026-01-26 01:20:11.23	41.35	65.60	-45.0	-48.2	21.2	6.01e-01	0	38	0	436207616	61	5272
2026-01-26 01:20:14.52	43.52	67.18	-45.5	-48.9	20.6	6.03e-01	0	38	0	442499072	62	5373
2026-01-26 01:20:17.24	45.58	68.48	-45.7	-49.2	20.2	6.03e-01	0	38	0	447741952	63	5225
2026-01-26 01:20:20.50	48.43	70.02	-46.1	-49.9	19.6	6.04e-01	0	38	0	453509120	63	5666
2026-01-26 01:20:23.22	51.20	71.29	-45.3	-48.5	20.9	6.03e-01	0	38	0	458752000	62	5132
2026-01-26 01:20:26.50	55.10	72.78	-44.4	-47.4	21.9	6.03e-01	0	38	0	465043456	60	5080
2026-01-26 01:20:29.26	58.96	73.98	-43.9	-46.7	22.8	6.02e-01	0	38	0	470286336	59	4933
2026-01-26 01:20:32.96	65.15	75.47	-44.2	-47.1	22.4	6.03e-01	0	38	0	477102080	59	5176
2026-01-26 01:20:35.67	70.54	76.45	-44.1	-47.1	22.5	6.04e-01	0	38	0	482344960	59	5177
2026-01-26 01:20:39.02	78.33	77.48	-43.2	-45.9	23.5	6.04e-01	0	38	0	488636416	58	4775
2026-01-26 01:20:41.74	85.57	78.14	-42.9	-45.6	23.8	6.03e-01	0	38	0	493355008	56	5165
2026-01-26 01:20:45.23	95.89	78.67	-43.1	-45.8	23.7	6.03e-01	0	38	0	500170752	56	5304
2026-01-26 01:20:47.93	104.37	78.82	-42.9	-45.6	23.8	6.04e-01	0	38	0	504889344	56	5197
2026-01-26 01:20:51.20	114.66	78.68	-43.1	-45.8	23.7	6.05e-01	0	38	0	511180800	56	5286
2026-01-26 01:20:53.90	122.77	78.31	-43.2	-46.0	22.4	6.03e-01	0	38	0	516423680	57	5110
2026-01-26 01:20:57.19	131.74	77.57	-43.1	-45.7	23.7	6.05e-01	0	38	0	522715136	57	4958
2026-01-26 01:20:59.89	138.23	76.78	-43.9	-46.8	22.8	6.02e-01	0	38	0	527433728	58	5301
2026-01-26 01:21:03.23	145.12	75.60	-44.0	-46.7	22.7	6.05e-01	0	38	0	533725184	59	4976
2026-01-26 01:21:05.96	149.90	74.53	-43.9	-47.0	22.5	6.02e-01	0	38	0	538968064	58	5422
2026-01-26 01:21:09.24	154.77	73.13	-43.8	-46.7	22.7	6.05e-01	0	38	0	545259520	58	5265
2026-01-26 01:21:12.10	158.37	71.85	-44.4	-47.3	22.2	6.05e-01	0	38	0	550502400	59	5324
2026-01-26 01:21:15.23	161.72	70.40	-44.6	-47.6	21.8	6.02e-01	0	38	0	556269568	60	5198
2026-01-26 01:21:18.07	164.33	69.05	-45.0	-48.3	21.1	6.03e-01	0	38	0	561512448	60	5622
2026-01-26 01:21:21.20	166.82	67.56	-44.3	-47.4	22.0	6.04e-01	0	38	0	567279616	60	5082
2026-01-26 01:21:24.06	168.80	66.18	-43.9	-46.8	22.7	6.04e-01	0	38	0	573046784	59	5006
2026-01-26 01:21:27.19	170.70	64.68	-43.8	-46.9	22.6	6.04e-01	0	38	0	578813952	59	5058
2026-01-26 01:21:30.27	172.34	63.21	-43.4	-46.1	23.4	6.03e-01	0	38	0	584581120	58	4912
2026-01-26 01:21:33.73	173.96	61.58	-42.6	-45.1	24.2	6.00e-01	0	38	0	590872576	57	4639
2026-01-26 01:21:36.57	175.13	60.26	-42.4	-44.8	24.6	6.03e-01	0	38	0	596115456	56	4728
2026-01-26 01:21:39.70	176.30	58.82	-41.9	-44.2	24.9	6.06e-01	0	38	0	602406912	55	4678
2026-01-26 01:21:42.65	177.29	57.49	-41.7	-44.1	25.1	6.02e-01	0	38	0	607649792	55	4618
2026-01-26 01:21:45.78	178.24	56.11	-41.3	-43.6	25.4	6.02e-01	0	38	0	613416960	54	4642
2026-01-26 01:21:48.62	179.03	54.88	-40.7	-43.0	26.0	6.02e-01	0	38	0	619184128	53	4586
2026-01-26 01:21:51.75	179.82	53.55	-41.0	-43.4	25.7	6.03e-01	0	39	0	624951296	53	4764
2026-01-26 01:21:54.59	180.48	52.37	-41.1	-43.4	25.6	6.01e-01	0	38	0	630194176	53	4781
2026-01-26 01:21:57.72	181.15	51.10	-41.1	-43.3	25.8	6.03e-01	0	38	0	635961344	53	4730
2026-01-26 01:22:00.64	181.72	49.94	-41.8	-44.1	25.0	6.01e-01	0	38	0	641204224	54	4915
2026-01-26 01:22:04.00	182.33	48.64	-41.7	-44.1	25.0	6.03e-01	0	38	0	648019968	54	4889
2026-01-26 01:22:06.71	182.79	47.62	-41.5	-43.9	25.2	6.01e-01	0	38	0	652738560	54	4773
2026-01-26 01:22:10.00	183.31	46.42	-41.8	-44.2	25.0	6.06e-01	0	38	0	659030016	54	4930
2026-01-26 01:22:12.71	183.71	45.45	-41.9	-44.3	24.8	6.02e-01	0	39	0	664272896	54	5013
2026-01-26 01:22:15.99	184.16	44.30	-41.8	-44.2	24.9	6.05e-01	0	38	0	670040064	54	4962
2026-01-26 01:22:18.73	184.51	43.37	-41.9	-44.3	24.8	6.03e-01	0	38	0	675282944	54	5005
2026-01-26 01:22:21.99	184.91	42.29	-42.3	-44.8	24.4	6.03e-01	0	38	0	681574400	55	4988
2026-01-26 01:22:24.71	185.22	41.42	-42.2	-44.6	24.6	6.04e-01	0	38	0	686817280	55	4889
2026-01-26 01:22:27.99	185.57	40.39	-42.5	-44.9	24.2	6.02e-01	0	38	0	692584448	55	5100
2026-01-26 01:22:30.71	185.85	39.56	-42.8	-45.3	23.9	6.04e-01	0	38	0	697827328	56	5029
2026-01-26 01:22:34.00	186.17	38.58	-42.7	-45.3	24.0	6.04e-01	0	38	0	704118784	56	5039
2026-01-26 01:22:36.92	186.44	37.73	-42.9	-45.5	23.8	6.02e-01	0	38	0	709361664	56	5101
2026-01-26 01:22:40.43	186.74	36.75	-42.1	-44.6	24.7	6.03e-01	0	38	0	716177408	56	4622
2026-01-26 01:22:43.16	186.96	36.00	-41.8	-44.2	24.9	6.06e-01	0	38	0	721420288	55	4685
2026-01-26 01:22:46.43	187.22	35.13	-41.5	-43.9	25.2	6.05e-01	0	38	0	727187456	54	4792
2026-01-26 01:22:49.41	187.44	34.35	-41.4	-43.8	25.3	6.04e-01	0	38	0	732954624	54	4734
2026-01-26 01:22:52.82	187.68	33.49	-41.1	-43.4	25.6	6.04e-01	0	38	0	739246080	54	4532
2026-01-26 01:22:55.53	187.87	32.83	-40.8	-43.0	26.0	6.04e-01	0	38	0	744488960	53	4576
2026-01-26 01:22:58.82	188.08	32.04	-40.5	-42.7	26.1	6.03e-01	0	38	0	750780416	53	4436
2026-01-26 01:23:01.59	188.25	31.39	-40.7	-42.9	26.0	6.02e-01	0	38	0	755499008	53	4544
2026-01-26 01:23:05.19	188.46	30.57	-40.6	-42.9	26.1	6.04e-01	0	38	0	762314752	53	4520
2026-01-26 01:23:08.04	188.63	29.94	-40.7	-42.9	26.0	6.03e-01	0	38	0	767557632	53	4537
2026-01-26 01:23:11.31	188.81	29.23	-40.9	-43.2	25.8	6.02e-01	0	38	0	773849088	53	4687
2026-01-26 01:23:14.04	188.95	28.65	-40.9	-43.2	25.7	6.03e-01	0	38	0	779091968	53	4691
2026-01-26 01:23:17.31	189.11	27.98	-41.0	-43.3	25.6	6.04e-01	0	38	0	785383424	53	4713
2026-01-26 01:23:20.04	189.25	27.43	-40.8	-43.1	25.8	6.04e-01	0	38	0	790102016	53	4620
2026-01-26 01:23:23.63	189.42	26.72	-41.0	-43.3	25.6	6.03e-01	0	38	0	796917760	53	4752
2026-01-26 01:23:26.34	189.54	26.20	-41.2	-43.5	25.5	6.05e-01	0	38	0	802160640	53	4854
2026-01-26 01:23:29.61	189.68	25.59	-41.4	-43.8	25.2	6.02e-01	0	38	0	808452096	53	5027
2026-01-26 01:23:32.33	189.80	25.09	-41.6	-44.2	24.9	6.01e-01	0	38	0	813170688	53	5227
2026-01-26 01:23:35.60	189.93	24.50	-41.7	-44.2	24.8	6.02e-01	0	38	0	819462144	54	4983
2026-01-26 01:23:38.39	190.04	24.01	-41.8	-44.3	24.7	6.05e-01	0	38	0	824705024	54	5033
2026-01-26 01:23:41.73	190.17	23.44	-41.8	-44.3	24.7	6.03e-01	0	38	0	830996480	54	5038
2026-01-26 01:23:44.44	190.27	22.98	-41.8	-44.3	24.7	6.04e-01	0	38	0	836239360	54	4995
2026-01-26 01:23:47.70	190.39	22.44	-41.6	-44.1	24.9	6.02e-01	0	38	0	842006528	54	4890
2026-01-26 01:23:50.52	190.48	21.99	-41.4	-43.9	25.0	6.03e-01	0	38	0	847249408	54	4783
2026-01-26 01:23:53.83	190.60	21.46	-41.3	-43.7	25.2	6.04e-01	0	38	0	853540864	54	4705
2026-01-26 01:23:56.81	190.69	21.00	-41.3	-43.9	25.1	6.04e-01	0	38	0	859308032	54	4764
2026-01-26 01:23:59.80	190.79	20.55	-41.3	-43.8	25.1	6.03e-01	0	38	0	865075200	54	4736
2026-01-26 01:24:02.79	190.88	20.11	-41.4	-44.0	25.0	6.03e-01	0	38	0	870318080	54	4836
2026-01-26 01:24:05.76	190.97	19.67	-41.5	-44.0	23.8	6.01e-01	0	38	0	876085248	54	4851
2026-01-26 01:24:08.85	191.06	19.23	-41.4	-43.9	25.0	6.04e-01	0	38	0	881852416	54	4788
2026-01-26 01:24:11.84	191.15	18.81	-41.5	-44.0	24.9	6.03e-01	0	38	0	887619584	54	4868
2026-01-26 01:24:14.82	191.23	18.40	-41.4	-44.0	24.7	6.01e-01	0	38	0	892862464	54	4866
2026-01-26 01:24:17.81	191.31	17.99	-41.4	-44.0	24.9	6.06e-01	0	38	0	898629632	54	4867
2026-01-26 01:24:20.90	191.40	17.58	-41.5	-44.2	24.7	6.02e-01	0	38	0	904396800	54	4975
2026-01-26 01:24:23.82	191.47	17.20	-41.6	-44.3	24.6	6.04e-01	0	38	0	910163968	54	5038
2026-01-26 01:24:26.81	191.55	16.82	-41.5	-44.1	24.8	6.04e-01	0	38	0	915406848	54	4905
2026-01-26 01:24:29.79	191.62	16.44	-41.5	-44.1	24.7	6.03e-01	0	38	0	921174016	54	4925
2026-01-26 01:24:32.76	191.69	16.07	-41.3	-44.0	24.8	6.05e-01	0	38	0	926941184	54	4866
2026-01-26 01:24:36.09	191.77	15.67	-41.3	-44.1	24.7	6.03e-01	0	38	0	932708352	54	4891
2026-01-26 01:24:38.81	191.83	15.34	-41.1	-43.9	24.9	6.03e-01	0	38	0	937951232	54	4787
2026-01-26 01:24:42.08	191.91	14.95	-41.1	-43.9	24.9	6.05e-01	0	38	0	944242688	54	4763
2026-01-26 01:24:44.78	191.97	14.64	-41.0	-43.8	24.9	6.05e-01	0	39	0	948961280	53	5006
2026-01-26 01:24:48.04	192.04	14.27	-41.0	-43.8	24.9	6.03e-01	0	38	0	955252736	53	5017
2026-01-26 01:24:50.77	192.10	13.96	-41.1	-43.9	24.9	6.05e-01	0	38	0	960495616	53	5053
2026-01-26 01:24:54.06	192.16	13.59	-41.2	-43.9	24.8	6.05e-01	0	38	0	966787072	53	5055
2026-01-26 01:24:56.79	192.22	13.29	-41.1	-43.7	25.0	6.03e-01	0	38	0	971505664	53	4970
2026-01-26 01:25:00.08	192.29	12.94	-41.2	-43.9	24.9	6.02e-01	0	38	0	977797120	53	5056
2026-01-26 01:25:02.87	192.34	12.64	-41.1	-43.9	24.8	6.02e-01	0	38	0	983040000	53	5074
2026-01-26 01:25:06.30	192.41	12.29	-41.1	-43.9	24.9	6.02e-01	0	38	0	989331456	53	5075
2026-01-26 01:25:09.01	192.46	12.01	-41.3	-44.1	24.6	6.03e-01	0	38	0	994574336	53	5201
2026-01-26 01:25:12.29	192.52	11.67	-41.2	-44.0	24.7	6.04e-01	0	38	0	1000865792	53	5146
2026-01-26 01:25:15.13	192.57	11.39	-41.3	-44.1	24.6	6.02e-01	0	38	0	1006108672	53	5177
2026-01-26 01:25:18.26	192.62	11.08	-41.3	-44.1	24.6	6.03e-01	0	38	0	1011875840	53	5188
2026-01-26 01:25:21.10	192.67	10.80	-41.3	-44.2	24.5	6.02e-01	0	38	0	1017118720	53	5219
2026-01-26 01:25:24.23	192.73	10.50	-41.4	-44.3	24.4	6.03e-01	0	38	0	1023410176	53	5311
2026-01-26 01:25:27.24	192.78	10.21	-41.5	-44.3	24.4	6.05e-01	0	38	0	1028653056	53	5318
2026-01-26 01:25:30.72	192.83	9.89	-41.5	-44.4	24.2	6.03e-01	0	38	0	1035468800	53	5394
2026-01-26 01:25:33.71	192.88	9.61	-41.6	-44.5	24.1	6.03e-01	0	38	0	1041235968	53	5443
2026-01-26 01:25:36.69	192.93	9.34	-41.6	-44.6	24.0	6.05e-01	0	38	0	1046478848	53	5504
2026-01-26 01:25:39.75	192.98	9.06	-41.6	-44.7	23.9	6.01e-01	0	38	0	1052246016	54	5254
2026-01-26 01:25:42.62	193.02	8.81	-47.9	-70.1	3.8	7.44e-01	0	38	104	1054343168	67	46311
2026-01-26 01:25:45.75	193.07	8.53	-50.4	-70.5	3.9	7.48e-01	0	38	104	1054343168	71	38654
2026-01-26 01:25:48.59	193.11	8.28	-50.2	-70.7	3.8	7.48e-01	0	38	104	1054343168	71	39387
2026-01-26 01:25:51.71	193.16	8.02	-50.7	-70.8	3.8	7.48e-01	0	38	104	1054343168	71	39706
2026-01-26 01:25:54.55	193.20	7.77	-50.7	-70.8	3.8	7.43e-01	0	38	104	1054343168	71	39776
2026-01-26 01:25:57.67	193.24	7.51	-50.5	-70.8	3.8	7.44e-01	0	38	104	1054343168	71	39782
2026-01-26 01:26:00.51	193.28	7.27	-50.0	-70.7	3.8	7.46e-01	0	38	104	1054343168	72	37344
2026-01-26 01:26:03.63	193.33	7.02	-50.3	-70.8	3.8	7.46e-01	0	38	104	1054343168	71	39789
2026-01-26 01:26:06.47	193.36	6.79	-49.9	-70.7	3.8	7.49e-01	0	38	104	1054343168	71	39409
2026-01-26 01:26:09.62	193.41	6.53	-49.9	-70.7	3.8	7.44e-01	0	39	104	1054343168	71	39405
2026-01-26 01:26:12.46	193.44	6.31	-49.9	-70.7	3.8	7.50e-01	0	39	104	1054343168	71	39382
2026-01-26 01:26:15.59	193.49	6.06	-49.9	-70.7	3.8	7.47e-01	0	38	104	1054343168	71	39312
2026-01-26 01:26:18.43	193.52	5.84	-49.9	-70.7	3.8	7.47e-01	0	38	104	1054343168	71	39321
2026-01-26 01:26:21.55	193.56	5.59	-49.8	-70.7	3.8	7.43e-01	0	38	104	1054343168	71	39267
2026-01-26 01:26:24.39	193.60	5.38	-49.8	-70.7	3.8	7.47e-01	0	38	104	1054343168	71	39220
2026-01-26 01:26:27.51	193.64	5.14	-49.9	-70.7	3.8	7.45e-01	0	38	104	1054343168	71	39313

#Closed at: 2026-01-26 01:26:30
#Recorded file [1054 MB]: D:/Data/31040_260126_041506.dat