passes_logs/2026/01/26/T1/T1__20260126_195811_FENGYUN_3G_rec.log

#Pass ID: 20260126_195811_FENGYUN 3G
#Satellite: FENGYUN 3G
#Configuration: FENGYUN 3G
#almurnet v.1.7.20251203
#Start time: 2026-01-26 19:58:13

#Version: 2.0.20230620
#Station: T1
#Location: 37.570604 lon 55.790049 lat
#TLE: 1 56232U 23055A   26025.91671677  .00046094  00000+0  69205-3 0  9999
#TLE: 2 56232  49.9949 359.5770 0004051  85.3034 274.8396 15.54373411157896

#Time	Az	El	Level	Level2	SNR	BER	BlckErr	Temp	State	Recorded	gain1	gain2
2026-01-26 19:58:13.95	258.10	5.13	-48.8	-67.9	3.8	8.48e-01	0	40	0	0	69	32164
2026-01-26 19:58:15.94	257.89	5.27	-48.8	-68.1	3.8	8.47e-01	0	41	104	0	69	32662
2026-01-26 19:58:17.92	257.68	5.42	-48.8	-68.0	3.8	8.48e-01	0	41	104	0	69	32443
2026-01-26 19:58:19.91	257.47	5.56	-48.7	-67.9	3.8	8.47e-01	0	41	104	0	69	31958
2026-01-26 19:58:21.89	257.25	5.71	-48.8	-67.9	3.8	8.45e-01	0	41	104	0	69	31812
2026-01-26 19:58:23.88	257.02	5.86	-48.8	-68.0	3.8	8.46e-01	0	41	104	0	69	32291
2026-01-26 19:58:25.87	256.80	6.01	-48.8	-68.0	3.8	8.46e-01	0	41	104	0	69	32463
2026-01-26 19:58:27.85	256.57	6.16	-48.7	-68.1	3.8	8.46e-01	0	41	104	0	69	32572
2026-01-26 19:58:29.84	256.34	6.31	-48.8	-68.1	3.8	8.48e-01	0	41	104	0	69	32588
2026-01-26 19:58:31.83	256.10	6.47	-48.7	-68.0	3.8	8.47e-01	0	41	104	0	69	32377
2026-01-26 19:58:33.81	255.86	6.62	-48.7	-67.9	3.8	8.47e-01	0	41	104	0	69	31970
2026-01-26 19:58:35.80	255.62	6.78	-48.8	-67.8	3.8	8.47e-01	0	41	104	0	69	31578
2026-01-26 19:58:37.79	255.37	6.93	-48.8	-67.6	3.8	8.47e-01	0	42	104	0	69	31014
2026-01-26 19:58:39.77	255.12	7.09	-48.8	-67.6	3.8	8.47e-01	0	41	104	0	69	30992
2026-01-26 19:58:41.76	254.87	7.25	-48.8	-67.9	3.8	8.47e-01	0	42	104	0	69	32028
2026-01-26 19:58:43.75	254.61	7.41	-48.8	-68.1	3.8	8.48e-01	0	42	104	0	69	32788
2026-01-26 19:58:45.73	254.34	7.57	-48.8	-68.2	3.8	8.47e-01	0	42	104	0	69	33018
2026-01-26 19:58:47.72	254.08	7.73	-48.8	-67.9	3.8	8.47e-01	0	42	104	0	69	31891
2026-01-26 19:58:49.71	253.81	7.89	-48.8	-66.6	3.8	8.47e-01	0	42	104	0	69	27502
2026-01-26 19:58:51.70	253.53	8.06	-48.8	-66.1	3.8	8.47e-01	0	42	104	0	69	25897
2026-01-26 19:58:53.69	253.25	8.22	-48.8	-67.3	3.8	8.45e-01	0	42	104	0	69	29906
2026-01-26 19:58:55.67	252.97	8.39	-48.8	-66.4	3.8	8.47e-01	0	42	104	0	69	27024
2026-01-26 19:58:57.66	252.68	8.56	-48.7	-64.8	4.2	8.44e-01	0	42	0	0	69	22318
2026-01-26 19:58:59.65	252.38	8.73	-48.6	-62.9	4.8	8.39e-01	0	42	0	0	69	17981
2026-01-26 19:59:01.64	252.08	8.90	-47.4	-54.7	12.0	6.26e-01	0	42	0	0	66	8333
2026-01-26 19:59:03.62	251.78	9.07	-46.2	-51.1	16.3	4.50e-06	0	42	0	0	62	6924
2026-01-26 19:59:05.61	251.47	9.24	-46.6	-52.4	15.3	0.00e+00	0	42	0	0	63	7625
2026-01-26 19:59:07.93	251.11	9.44	-43.4	-46.5	20.5	4.78e-04	0	42	0	0	58	5121
2026-01-26 19:59:09.97	250.78	9.62	-42.8	-45.7	21.3	0.00e+00	0	42	0	0	57	4927
2026-01-26 19:59:11.98	250.45	9.80	-41.5	-44.0	22.7	0.00e+00	0	42	0	0	54	4833
2026-01-26 19:59:13.97	250.12	9.98	-41.0	-43.5	23.1	0.00e+00	0	42	0	0	54	4571
2026-01-26 19:59:15.97	249.78	10.16	-41.1	-43.5	23.3	0.00e+00	0	42	0	0	53	4854
2026-01-26 19:59:17.96	249.44	10.34	-40.8	-43.2	23.5	0.00e+00	0	42	0	0	53	4695
2026-01-26 19:59:20.03	249.08	10.53	-40.8	-43.2	23.6	0.00e+00	0	42	0	0	53	4665
2026-01-26 19:59:22.02	248.73	10.71	-40.4	-42.8	24.0	0.00e+00	0	42	0	0	52	4722
2026-01-26 19:59:24.00	248.37	10.89	-40.2	-42.5	24.2	0.00e+00	0	42	0	0	52	4590
2026-01-26 19:59:26.00	248.00	11.08	-40.2	-42.5	24.3	0.00e+00	0	42	0	0	52	4578
2026-01-26 19:59:28.29	247.57	11.29	-40.1	-42.4	24.4	0.00e+00	0	42	0	0	52	4507
2026-01-26 19:59:30.45	247.16	11.49	-40.0	-42.3	24.5	0.00e+00	0	42	0	0	52	4449
2026-01-26 19:59:32.44	246.77	11.68	-39.8	-42.1	24.7	0.00e+00	0	42	0	0	51	4612
2026-01-26 19:59:34.43	246.38	11.87	-39.6	-41.8	25.0	0.00e+00	0	42	0	0	51	4470
2026-01-26 19:59:36.43	245.97	12.06	-39.4	-41.7	25.1	0.00e+00	0	42	0	0	50	4665
2026-01-26 19:59:38.42	245.57	12.26	-39.3	-41.6	25.2	0.00e+00	0	42	0	0	50	4613
2026-01-26 19:59:40.44	245.15	12.45	-39.5	-41.6	25.2	0.00e+00	0	42	0	0	50	4648
2026-01-26 19:59:42.73	244.66	12.68	-39.6	-41.8	25.1	0.00e+00	0	42	0	0	50	4722
2026-01-26 19:59:44.97	244.17	12.90	-39.5	-41.6	25.2	0.00e+00	0	42	0	0	50	4638
2026-01-26 19:59:47.25	243.67	13.12	-39.2	-41.3	25.5	0.00e+00	0	42	0	0	50	4474
2026-01-26 19:59:49.52	243.16	13.35	-39.4	-41.5	25.3	0.00e+00	0	42	0	0	50	4594
2026-01-26 19:59:51.86	242.62	13.58	-39.3	-41.4	25.3	0.00e+00	0	42	0	0	50	4544
2026-01-26 19:59:54.13	242.09	13.81	-39.4	-41.5	25.2	0.00e+00	0	43	0	0	50	4559
2026-01-26 19:59:56.23	241.58	14.02	-39.1	-41.2	25.6	0.00e+00	0	42	0	0	50	4425
2026-01-26 19:59:58.24	241.09	14.23	-38.7	-40.9	25.9	0.00e+00	0	43	0	0	49	4506
2026-01-26 20:00:00.23	240.60	14.43	-38.6	-40.7	26.0	0.00e+00	0	43	0	0	49	4436
2026-01-26 20:00:02.45	240.04	14.66	-38.8	-40.9	26.0	0.00e+00	0	43	0	0	49	4497
2026-01-26 20:00:04.45	239.52	14.86	-38.5	-40.5	26.2	0.00e+00	0	43	0	0	48	4597
2026-01-26 20:00:06.44	239.00	15.07	-38.6	-40.7	26.1	0.00e+00	0	43	0	0	48	4655
2026-01-26 20:00:08.44	238.47	15.27	-38.4	-40.4	26.3	0.00e+00	0	43	0	0	48	4536
2026-01-26 20:00:10.54	237.89	15.49	-38.2	-40.2	26.5	0.00e+00	0	43	0	0	48	4413
2026-01-26 20:00:12.53	237.34	15.70	-38.4	-40.5	26.3	0.00e+00	0	43	0	0	48	4581
2026-01-26 20:00:14.66	236.74	15.92	-38.5	-40.5	26.3	0.00e+00	0	43	0	0	48	4592
2026-01-26 20:00:16.65	236.17	16.12	-38.8	-40.9	25.9	0.00e+00	0	43	0	0	48	4779
2026-01-26 20:00:18.75	235.56	16.34	-38.7	-40.8	26.0	0.00e+00	0	43	0	0	48	4729
2026-01-26 20:00:20.73	234.97	16.55	-38.5	-40.5	26.3	0.00e+00	0	43	0	0	48	4578
2026-01-26 20:00:22.73	234.36	16.76	-38.1	-40.1	26.6	0.00e+00	0	43	0	0	48	4388
2026-01-26 20:00:24.72	233.75	16.96	-37.7	-39.7	26.9	0.00e+00	0	43	0	0	47	4401
2026-01-26 20:00:26.71	233.12	17.17	-37.9	-39.9	26.7	0.00e+00	0	43	0	0	47	4523
2026-01-26 20:00:28.76	232.47	17.38	-38.2	-40.3	26.3	0.00e+00	0	43	0	0	47	4724
2026-01-26 20:00:30.76	231.82	17.59	-38.1	-40.1	26.5	0.00e+00	0	43	0	0	47	4625
2026-01-26 20:00:32.75	231.16	17.79	-37.6	-39.6	27.0	0.00e+00	0	43	0	0	47	4357
2026-01-26 20:00:34.74	230.50	17.99	-37.3	-39.3	27.3	0.00e+00	0	43	0	0	46	4463
2026-01-26 20:00:36.73	229.82	18.20	-37.0	-38.9	27.5	0.00e+00	0	43	0	0	45	4543
2026-01-26 20:00:38.73	229.12	18.40	-37.3	-39.3	27.3	0.00e+00	0	43	0	0	45	4716
2026-01-26 20:00:40.72	228.42	18.60	-37.8	-39.8	26.8	0.00e+00	0	43	0	0	46	4743
2026-01-26 20:00:42.77	227.69	18.80	-37.9	-39.9	26.8	0.00e+00	0	43	0	0	46	4792
2026-01-26 20:00:44.76	226.96	19.00	-37.6	-39.6	27.0	0.00e+00	0	43	0	0	46	4629
2026-01-26 20:00:47.02	226.12	19.22	-36.8	-38.7	27.6	0.00e+00	0	43	0	0	45	4440
2026-01-26 20:00:49.22	225.29	19.43	-37.0	-39.0	27.6	0.00e+00	0	43	0	0	45	4554
2026-01-26 20:00:51.21	224.53	19.62	-36.9	-38.8	27.6	0.00e+00	0	43	0	0	45	4486
2026-01-26 20:00:53.14	223.78	19.80	-36.8	-38.8	27.7	0.00e+00	0	43	0	0	45	4453
2026-01-26 20:00:55.13	222.99	19.99	-37.3	-39.3	27.3	0.00e+00	0	43	0	0	45	4724
2026-01-26 20:00:57.13	222.19	20.17	-37.3	-39.3	27.2	0.00e+00	0	43	0	0	45	4737
2026-01-26 20:00:59.12	221.39	20.35	-37.5	-39.5	27.1	0.00e+00	0	43	0	0	45	4820
2026-01-26 20:01:01.11	220.57	20.53	-37.4	-39.4	27.2	0.00e+00	0	43	0	0	45	4787
2026-01-26 20:01:03.20	219.69	20.71	-37.0	-39.0	27.6	0.00e+00	0	43	0	0	45	4546
2026-01-26 20:01:05.21	218.84	20.87	-36.7	-38.6	27.9	0.00e+00	0	43	0	0	45	4353
2026-01-26 20:01:07.20	217.99	21.04	-36.8	-38.7	27.7	0.00e+00	0	43	0	0	45	4439
2026-01-26 20:01:09.19	217.12	21.20	-36.7	-38.6	27.8	0.00e+00	0	43	0	0	45	4367
2026-01-26 20:01:11.18	216.25	21.35	-36.7	-38.6	27.9	0.00e+00	0	43	0	0	45	4352
2026-01-26 20:01:13.17	215.36	21.50	-36.4	-38.3	28.0	0.00e+00	0	43	0	0	44	4491
2026-01-26 20:01:15.17	214.46	21.64	-36.4	-38.3	28.0	0.00e+00	0	43	0	0	44	4470
2026-01-26 20:01:17.16	213.56	21.78	-36.3	-38.2	28.1	0.00e+00	0	43	0	0	44	4418
2026-01-26 20:01:19.17	212.63	21.92	-36.5	-38.4	28.0	0.00e+00	0	43	0	0	44	4540
2026-01-26 20:01:21.17	211.70	22.04	-36.9	-38.8	27.7	0.00e+00	0	43	0	0	44	4743
2026-01-26 20:01:23.34	210.69	22.18	-36.6	-38.6	27.9	0.00e+00	0	43	0	0	44	4602
2026-01-26 20:01:25.61	209.61	22.31	-36.4	-38.3	28.1	0.00e+00	0	43	0	0	44	4481
2026-01-26 20:01:27.88	208.52	22.43	-36.2	-38.1	28.1	0.00e+00	0	43	0	0	44	4371
2026-01-26 20:01:30.14	207.43	22.54	-36.4	-38.3	28.1	0.00e+00	0	43	0	0	44	4492
2026-01-26 20:01:32.41	206.33	22.64	-36.4	-38.3	28.0	0.00e+00	0	43	0	0	44	4485
2026-01-26 20:01:34.69	205.21	22.74	-35.9	-37.8	28.4	0.00e+00	0	43	0	0	43	4447
2026-01-26 20:01:36.96	204.09	22.82	-35.9	-37.8	28.4	0.00e+00	0	43	0	0	43	4485
2026-01-26 20:01:39.50	202.83	22.90	-36.1	-38.0	28.2	0.00e+00	0	43	0	0	43	4546
2026-01-26 20:01:41.49	201.83	22.96	-35.8	-37.7	28.5	0.00e+00	0	43	0	0	43	4436
2026-01-26 20:01:43.50	200.83	23.01	-35.9	-37.7	28.3	0.00e+00	0	43	0	0	43	4438
2026-01-26 20:01:45.49	199.83	23.05	-36.0	-37.9	28.4	0.00e+00	0	43	0	0	43	4500
2026-01-26 20:01:47.48	198.82	23.08	-36.4	-38.4	27.9	0.00e+00	0	43	0	0	43	4761
2026-01-26 20:01:49.61	197.74	23.10	-36.5	-38.4	27.9	0.00e+00	0	43	0	0	43	4796
2026-01-26 20:01:51.63	196.72	23.12	-37.0	-38.9	27.6	0.00e+00	0	43	0	0	44	4792
2026-01-26 20:01:53.68	195.68	23.13	-36.6	-38.5	28.0	0.00e+00	0	43	0	0	44	4564
2026-01-26 20:01:55.88	194.57	23.12	-36.3	-38.2	28.2	0.00e+00	0	43	0	0	44	4424
2026-01-26 20:01:57.93	193.53	23.11	-36.5	-38.5	28.0	0.00e+00	0	43	0	0	44	4551
2026-01-26 20:01:59.98	192.49	23.09	-36.9	-38.8	27.8	0.00e+00	0	43	0	0	44	4753
2026-01-26 20:02:01.99	191.48	23.06	-36.9	-38.8	27.6	0.00e+00	0	43	0	0	45	4491
2026-01-26 20:02:03.99	190.47	23.03	-37.5	-39.5	27.0	0.00e+00	0	43	0	0	45	4831
2026-01-26 20:02:05.99	189.46	22.98	-37.0	-38.9	27.7	0.00e+00	0	43	0	0	45	4540
2026-01-26 20:02:07.98	188.47	22.93	-36.6	-38.5	27.9	0.00e+00	0	43	0	0	45	4331
2026-01-26 20:02:10.11	187.40	22.87	-36.3	-38.2	28.2	0.00e+00	0	43	0	0	44	4410
2026-01-26 20:02:12.09	186.42	22.80	-35.6	-37.5	28.6	0.00e+00	0	43	0	0	43	4319
2026-01-26 20:02:14.09	185.44	22.72	-35.8	-37.7	28.4	0.00e+00	0	43	0	0	43	4427
2026-01-26 20:02:16.07	184.47	22.64	-35.9	-37.8	28.3	0.00e+00	0	43	0	0	43	4464
2026-01-26 20:02:18.07	183.49	22.55	-35.5	-37.4	28.6	0.00e+00	0	43	0	0	43	4266
2026-01-26 20:02:20.06	182.53	22.45	-35.3	-37.1	28.9	0.00e+00	0	43	0	0	42	4379
2026-01-26 20:02:22.05	181.57	22.35	-36.0	-37.9	28.3	0.00e+00	0	43	0	0	42	4800
2026-01-26 20:02:24.04	180.63	22.24	-36.3	-38.2	28.1	0.00e+00	0	43	0	0	43	4660
2026-01-26 20:02:26.03	179.69	22.12	-36.2	-38.1	28.1	0.00e+00	0	43	0	0	43	4640
2026-01-26 20:02:28.33	178.61	21.97	-35.7	-37.6	28.5	0.00e+00	0	43	0	0	43	4374
2026-01-26 20:02:30.32	177.69	21.84	-36.1	-38.0	28.2	0.00e+00	0	43	0	0	43	4570
2026-01-26 20:02:32.25	176.81	21.71	-36.6	-38.5	27.7	0.00e+00	0	43	0	0	43	4857
2026-01-26 20:02:34.24	175.91	21.57	-36.4	-38.3	27.9	0.00e+00	0	43	0	0	43	4717
2026-01-26 20:02:36.22	175.02	21.42	-36.2	-38.1	28.1	0.00e+00	0	43	0	0	43	4606
2026-01-26 20:02:38.22	174.13	21.27	-36.6	-38.6	27.7	0.00e+00	0	43	0	0	43	4890
2026-01-26 20:02:40.21	173.26	21.12	-36.8	-38.8	27.7	0.00e+00	0	43	0	0	44	4712
2026-01-26 20:02:42.28	172.37	20.95	-36.6	-38.6	27.8	0.00e+00	0	43	0	0	44	4606
2026-01-26 20:02:44.36	171.48	20.78	-36.9	-38.8	24.6	0.00e+00	0	43	0	0	44	4744
2026-01-26 20:02:46.35	170.65	20.61	-37.0	-39.0	27.5	0.00e+00	0	43	0	0	44	4843
2026-01-26 20:02:48.34	169.82	20.43	-37.0	-39.0	27.5	0.00e+00	0	43	0	0	44	4833
2026-01-26 20:02:50.33	169.00	20.25	-37.5	-39.5	27.1	0.00e+00	0	43	0	0	45	4830
2026-01-26 20:02:52.32	168.20	20.07	-37.4	-39.4	27.1	0.00e+00	0	43	0	0	45	4791
2026-01-26 20:02:54.30	167.41	19.89	-37.1	-39.0	27.4	0.00e+00	0	43	0	0	45	4596
2026-01-26 20:02:56.30	166.63	19.70	-37.1	-39.1	27.4	0.00e+00	0	43	0	0	45	4604
2026-01-26 20:02:58.29	165.86	19.52	-37.7	-39.7	26.8	0.00e+00	0	43	0	0	46	4675
2026-01-26 20:03:00.37	165.07	19.32	-38.2	-40.3	26.4	0.00e+00	0	43	0	0	47	4730
2026-01-26 20:03:02.44	164.29	19.11	-37.4	-39.4	27.2	0.00e+00	0	43	0	0	46	4523
2026-01-26 20:03:04.48	163.54	18.91	-37.0	-38.9	22.1	0.00e+00	0	43	0	0	46	4277
2026-01-26 20:03:06.47	162.82	18.72	-37.0	-39.0	27.5	0.00e+00	0	43	0	0	45	4548
2026-01-26 20:03:08.46	162.11	18.52	-37.2	-39.2	27.3	0.00e+00	0	43	0	0	45	4668
2026-01-26 20:03:10.45	161.41	18.32	-37.4	-39.4	27.1	0.00e+00	0	43	0	0	45	4794
2026-01-26 20:03:12.44	160.72	18.11	-37.4	-39.4	27.1	0.00e+00	0	43	0	0	45	4779
2026-01-26 20:03:14.43	160.05	17.91	-37.3	-39.3	27.1	0.00e+00	0	43	0	0	45	4756
2026-01-26 20:03:16.42	159.38	17.71	-37.5	-39.5	26.9	0.00e+00	0	43	0	0	45	4839
2026-01-26 20:03:18.40	158.73	17.50	-37.5	-39.5	27.0	0.00e+00	0	43	0	0	45	4869
2026-01-26 20:03:20.40	158.09	17.29	-37.5	-39.5	27.0	0.00e+00	0	43	0	0	45	4866
2026-01-26 20:03:22.39	157.45	17.09	-37.6	-39.7	26.9	0.00e+00	0	43	0	0	45	4932
2026-01-26 20:03:24.44	156.81	16.88	-37.9	-39.9	26.7	0.00e+00	0	43	0	0	46	4793
2026-01-26 20:03:26.43	156.20	16.67	-37.8	-39.8	26.8	0.00e+00	0	43	0	0	46	4747
2026-01-26 20:03:28.42	155.60	16.46	-37.7	-39.7	26.9	0.00e+00	0	43	0	0	46	4674
2026-01-26 20:03:30.41	155.01	16.25	-38.0	-40.1	26.6	0.00e+00	0	43	0	0	46	4892
2026-01-26 20:03:32.40	154.44	16.05	-38.2	-40.2	26.3	0.00e+00	0	43	0	0	47	4703
2026-01-26 20:03:34.39	153.87	15.84	-38.0	-40.0	26.5	0.00e+00	0	43	0	0	47	4582
2026-01-26 20:03:36.48	153.28	15.62	-38.3	-40.4	26.3	0.00e+00	0	43	0	0	47	4772
2026-01-26 20:03:38.47	152.73	15.42	-38.4	-40.5	26.1	0.00e+00	0	43	0	0	47	4862
2026-01-26 20:03:40.46	152.19	15.21	-38.3	-40.4	26.1	0.00e+00	0	43	0	0	47	4801
2026-01-26 20:03:42.45	151.66	15.00	-38.3	-40.3	26.2	0.00e+00	0	43	0	0	47	4759
2026-01-26 20:03:44.44	151.14	14.80	-38.6	-40.7	26.0	0.00e+00	0	43	0	0	47	4943
2026-01-26 20:03:46.42	150.63	14.60	-38.8	-40.9	25.9	0.00e+00	0	43	0	0	48	4770
2026-01-26 20:03:48.41	150.13	14.39	-38.7	-40.8	26.0	0.00e+00	0	43	0	0	48	4732
2026-01-26 20:03:50.40	149.63	14.19	-39.0	-41.1	25.7	0.00e+00	0	43	0	0	48	4893
2026-01-26 20:03:52.39	149.15	13.99	-39.2	-41.3	25.4	0.00e+00	0	43	0	0	48	5037
2026-01-26 20:03:54.45	148.65	13.78	-39.1	-41.3	25.5	0.00e+00	0	43	0	0	49	4708
2026-01-26 20:03:56.44	148.19	13.58	-39.0	-41.1	25.6	0.00e+00	0	43	0	0	49	4644
2026-01-26 20:03:58.43	147.73	13.38	-39.1	-41.2	25.6	0.00e+00	0	43	0	0	49	4682
2026-01-26 20:04:00.42	147.27	13.18	-39.4	-41.6	25.2	0.00e+00	0	43	0	0	49	4894
2026-01-26 20:04:02.41	146.83	12.98	-39.6	-41.8	25.0	0.00e+00	0	43	0	0	49	5011
2026-01-26 20:04:04.41	146.39	12.78	-39.6	-41.8	25.0	0.00e+00	0	43	0	0	50	4726
2026-01-26 20:04:06.40	145.96	12.59	-39.7	-42.0	24.9	0.00e+00	0	43	0	0	50	4826
2026-01-26 20:04:08.38	145.54	12.40	-39.9	-42.1	24.7	0.00e+00	0	43	0	0	50	4921
2026-01-26 20:04:10.37	145.13	12.20	-39.9	-42.1	24.7	0.00e+00	0	43	0	0	50	4879
2026-01-26 20:04:12.36	144.72	12.01	-39.8	-42.0	24.8	0.00e+00	0	43	0	0	50	4829
2026-01-26 20:04:14.35	144.32	11.82	-39.9	-42.1	24.7	0.00e+00	0	43	0	0	50	4897
2026-01-26 20:04:16.34	143.93	11.63	-40.0	-42.3	24.5	0.00e+00	0	43	0	0	50	4985
2026-01-26 20:04:18.33	143.54	11.44	-40.0	-42.3	24.6	0.00e+00	0	43	0	0	50	4984
2026-01-26 20:04:20.32	143.16	11.25	-40.0	-42.2	24.6	0.00e+00	0	43	0	0	50	4943
2026-01-26 20:04:22.31	142.79	11.07	-40.0	-42.2	24.6	0.00e+00	0	43	0	0	50	4947
2026-01-26 20:04:24.31	142.42	10.88	-40.2	-42.5	24.3	0.00e+00	0	43	0	0	51	4837
2026-01-26 20:04:26.30	142.06	10.70	-40.4	-42.7	24.0	0.00e+00	0	43	0	0	51	4982
2026-01-26 20:04:28.29	141.70	10.51	-40.5	-42.8	24.0	0.00e+00	0	43	0	0	51	5014
2026-01-26 20:04:30.28	141.35	10.33	-40.5	-42.8	23.9	0.00e+00	0	43	0	0	51	5016
2026-01-26 20:04:32.27	141.01	10.15	-40.8	-43.2	23.5	0.00e+00	0	43	0	0	52	4974
2026-01-26 20:04:34.27	140.67	9.97	-40.8	-43.2	23.5	0.00e+00	0	43	0	0	52	4955
2026-01-26 20:04:36.26	140.34	9.79	-40.8	-43.2	23.5	0.00e+00	0	43	0	0	52	4928
2026-01-26 20:04:38.25	140.01	9.62	-40.8	-43.2	23.5	0.00e+00	0	43	0	0	52	4965
2026-01-26 20:04:40.24	139.69	9.44	-41.1	-43.5	23.2	0.00e+00	0	43	0	0	52	5152
2026-01-26 20:04:42.30	139.36	9.26	-41.2	-43.7	23.0	0.00e+00	0	43	0	0	53	4956
2026-01-26 20:04:44.31	139.05	9.09	-41.3	-43.7	22.9	0.00e+00	0	43	0	0	53	4982
2026-01-26 20:04:46.31	138.74	8.91	-49.3	-66.3	3.9	0.00e+00	0	43	104	0	69	26678
2026-01-26 20:04:48.30	138.44	8.74	-49.5	-68.5	3.8	7.39e-01	0	43	104	0	69	34161
2026-01-26 20:04:50.29	138.15	8.57	-49.7	-68.6	3.8	8.46e-01	0	43	104	0	70	32894
2026-01-26 20:04:52.28	137.86	8.40	-49.9	-68.7	3.8	8.48e-01	0	43	104	0	70	33144
2026-01-26 20:04:54.26	137.57	8.24	-49.9	-68.8	3.8	8.48e-01	0	43	104	0	70	33376
2026-01-26 20:04:56.25	137.29	8.07	-49.9	-68.8	3.8	8.46e-01	0	43	104	0	70	33401
2026-01-26 20:04:58.38	136.99	7.90	-49.9	-68.8	3.8	8.48e-01	0	43	104	0	70	33406
2026-01-26 20:05:00.43	136.71	7.73	-49.9	-68.8	3.8	8.47e-01	0	43	104	0	70	33437
2026-01-26 20:05:02.45	136.44	7.56	-49.7	-68.8	3.8	8.47e-01	0	43	104	0	70	33394
2026-01-26 20:05:04.53	136.16	7.39	-49.5	-68.8	3.8	8.47e-01	0	43	104	0	70	33374
2026-01-26 20:05:06.56	135.90	7.23	-49.6	-68.8	3.8	8.47e-01	0	43	104	0	70	33380
2026-01-26 20:05:08.55	135.64	7.07	-49.6	-68.8	3.8	8.47e-01	0	43	104	0	70	33344
2026-01-26 20:05:10.53	135.39	6.91	-49.6	-68.7	3.8	8.47e-01	0	43	104	0	70	33257
2026-01-26 20:05:12.52	135.14	6.76	-49.6	-68.7	3.8	8.48e-01	0	43	104	0	70	33262
2026-01-26 20:05:14.52	134.90	6.60	-49.6	-68.7	3.8	8.47e-01	0	43	104	0	70	33214
2026-01-26 20:05:16.51	134.66	6.45	-49.5	-68.7	3.8	8.48e-01	0	43	104	0	70	33245
2026-01-26 20:05:18.50	134.42	6.29	-49.5	-68.7	3.8	8.48e-01	0	43	104	0	70	33189
2026-01-26 20:05:20.48	134.19	6.14	-49.5	-68.7	3.8	8.48e-01	0	43	104	0	70	33135
2026-01-26 20:05:22.47	133.96	5.99	-49.5	-68.7	3.8	8.48e-01	0	43	104	0	70	33192
2026-01-26 20:05:24.47	133.73	5.84	-49.6	-68.7	3.8	8.47e-01	0	43	104	0	70	33187
2026-01-26 20:05:26.46	133.50	5.69	-49.6	-68.7	3.8	8.46e-01	0	43	104	0	70	33168
2026-01-26 20:05:28.46	133.28	5.54	-49.6	-68.7	3.8	8.47e-01	0	43	104	0	70	33287
2026-01-26 20:05:30.45	133.07	5.39	-49.6	-68.7	3.8	8.46e-01	0	43	104	0	70	33106
2026-01-26 20:05:32.45	132.85	5.24	-49.5	-68.7	3.8	8.48e-01	0	43	104	0	70	33151
2026-01-26 20:05:34.44	132.64	5.10	-49.5	-68.7	3.8	8.47e-01	0	43	104	0	70	33139

#Closed at: 2026-01-26 20:05:36
#Recorded file [0 MB]: D:/Data/31040_260126_225813.dat