passes_logs/2026/01/26/T1/T1__20260126_220539_KHAYYAM_rec.log

#Pass ID: 20260126_220539_KHAYYAM
#Satellite: KHAYYAM
#Configuration: KHAYYAM_480M
#almurnet v.1.7.20251203
#Start time: 2026-01-26 22:05:39

#Version: 2.0.20230620
#Station: T1
#Location: 37.570604 lon 55.790049 lat
#TLE: 1 53370U 22096A   26026.50770810  .00008520  00000+0  34650-3 0  9996
#TLE: 2 53370  97.3549 293.3113 0002052 107.4606 252.6856 15.24771520192990

#Time	Az	El	Level	Level2	SNR	BER	BlckErr	Temp	State	Recorded	gain1	gain2
2026-01-26 22:05:39.29	3.69	4.95	-49.4	-55.3	3.7	0.00e+00	0	46	104	0	69	29848
2026-01-26 22:05:41.27	3.55	5.10	-50.6	-56.0	3.7	0.00e+00	0	46	104	0	73	25894
2026-01-26 22:05:43.26	3.40	5.25	-50.5	-56.0	3.7	0.00e+00	0	46	104	0	72	27224
2026-01-26 22:05:45.24	3.25	5.40	-50.6	-56.0	3.7	0.00e+00	0	46	104	0	72	27388
2026-01-26 22:05:47.23	3.10	5.55	-50.5	-56.0	3.7	0.00e+00	0	46	104	0	72	27398
2026-01-26 22:05:49.22	2.94	5.71	-50.6	-56.0	3.7	0.00e+00	0	47	104	0	72	27310
2026-01-26 22:05:51.20	2.79	5.86	-50.6	-56.0	3.7	0.00e+00	0	47	104	0	72	27350
2026-01-26 22:05:53.19	2.63	6.02	-50.5	-56.0	3.6	0.00e+00	0	47	104	0	72	27352
2026-01-26 22:05:55.18	2.47	6.18	-50.6	-56.0	3.7	0.00e+00	0	47	104	0	72	27452
2026-01-26 22:05:57.16	2.31	6.34	-50.6	-56.0	3.7	0.00e+00	0	47	104	0	72	27441
2026-01-26 22:05:59.15	2.14	6.50	-50.6	-56.1	3.7	0.00e+00	0	47	104	0	72	27576
2026-01-26 22:06:01.13	1.98	6.66	-50.6	-56.0	3.7	0.00e+00	0	47	104	0	72	27508
2026-01-26 22:06:03.12	1.81	6.82	-50.5	-56.0	3.7	0.00e+00	0	48	104	0	72	27355
2026-01-26 22:06:05.11	1.63	6.99	-50.6	-56.0	3.7	0.00e+00	0	48	104	0	72	27323
2026-01-26 22:06:07.09	1.46	7.15	-50.6	-56.0	3.7	0.00e+00	0	48	104	0	72	27475
2026-01-26 22:06:09.08	1.28	7.32	-50.6	-56.0	3.7	0.00e+00	0	48	104	0	72	27374
2026-01-26 22:06:11.07	1.10	7.49	-50.6	-56.0	3.7	0.00e+00	0	48	104	0	72	27510
2026-01-26 22:06:13.05	0.92	7.66	-50.6	-56.0	3.7	0.00e+00	0	48	104	0	72	27456
2026-01-26 22:06:15.04	0.73	7.83	-50.6	-56.1	3.7	0.00e+00	0	48	104	0	72	27557
2026-01-26 22:06:17.02	0.54	8.00	-50.6	-56.0	3.7	0.00e+00	0	48	104	0	72	27466
2026-01-26 22:06:19.01	0.35	8.17	-50.6	-56.1	3.7	0.00e+00	0	49	104	0	72	27588
2026-01-26 22:06:21.00	0.16	8.35	-50.6	-56.1	3.7	0.00e+00	0	48	104	0	72	27575
2026-01-26 22:06:22.98	359.96	8.52	-50.6	-56.1	3.7	0.00e+00	0	49	104	0	72	27535
2026-01-26 22:06:24.97	359.76	8.70	-50.6	-56.1	3.7	0.00e+00	0	49	104	0	72	27583
2026-01-26 22:06:26.95	359.55	8.88	-50.6	-56.0	3.7	0.00e+00	0	49	104	0	72	27458
2026-01-26 22:06:28.94	359.35	9.06	-50.6	-56.0	3.7	0.00e+00	0	49	104	0	72	27452
2026-01-26 22:06:30.93	359.13	9.24	-51.2	-56.5	3.7	0.00e+00	0	49	104	0	73	27437
2026-01-26 22:06:32.92	358.92	9.42	-51.4	-56.9	3.7	0.00e+00	0	49	104	0	74	27081
2026-01-26 22:06:34.91	358.70	9.61	-51.4	-56.9	3.7	0.00e+00	0	49	104	0	74	26985
2026-01-26 22:06:36.90	358.48	9.79	-50.9	-56.4	3.7	0.00e+00	0	49	104	0	73	27189
2026-01-26 22:06:38.94	358.25	9.99	-50.1	-55.6	3.7	0.00e+00	0	49	104	0	72	26041
2026-01-26 22:06:40.98	358.01	10.18	-50.9	-55.7	3.7	0.00e+00	0	50	104	0	72	26404
2026-01-26 22:06:42.97	357.78	10.37	-50.8	-55.7	3.7	0.00e+00	0	50	104	0	72	26566
2026-01-26 22:06:44.96	357.54	10.56	-50.7	-56.2	3.7	0.00e+00	0	49	104	0	72	28106
2026-01-26 22:06:46.95	357.30	10.76	-50.4	-56.3	3.7	0.00e+00	0	49	104	0	72	28281
2026-01-26 22:06:48.94	357.06	10.95	-49.7	-55.8	3.7	0.00e+00	0	49	104	0	71	28364
2026-01-26 22:06:50.93	356.81	11.15	-48.6	-55.1	3.7	0.00e+00	0	50	104	0	69	29158
2026-01-26 22:06:52.92	356.55	11.35	-48.7	-55.2	3.7	0.00e+00	0	50	104	0	69	29727
2026-01-26 22:06:54.96	356.29	11.56	-48.3	-54.9	3.7	0.00e+00	0	50	104	0	68	30289
2026-01-26 22:06:56.93	356.03	11.76	-48.2	-54.8	3.7	0.00e+00	0	50	104	0	68	29903
2026-01-26 22:06:58.93	355.76	11.96	-48.4	-55.0	3.7	0.00e+00	0	50	104	0	68	30589
2026-01-26 22:07:00.92	355.49	12.17	-47.8	-54.6	3.7	0.00e+00	0	50	104	0	67	30951
2026-01-26 22:07:02.91	355.21	12.38	-47.3	-54.0	3.8	0.00e+00	0	50	104	0	66	30751
2026-01-26 22:07:04.90	354.93	12.59	-47.7	-54.3	3.8	0.00e+00	0	50	104	0	66	31598
2026-01-26 22:07:06.89	354.64	12.80	-47.3	-53.9	3.8	0.00e+00	0	50	104	0	66	30428
2026-01-26 22:07:08.96	354.34	13.02	-50.4	-56.3	3.7	0.00e+00	0	50	104	0	72	28187
2026-01-26 22:07:10.95	354.04	13.24	-48.1	-54.5	3.7	0.00e+00	0	50	104	0	67	30754
2026-01-26 22:07:12.94	353.74	13.45	-49.8	-55.8	3.7	0.00e+00	0	50	104	0	70	30128
2026-01-26 22:07:14.93	353.43	13.67	-51.5	-56.9	3.7	0.00e+00	0	50	104	0	73	28500
2026-01-26 22:07:16.92	353.11	13.89	-50.9	-56.3	3.7	0.00e+00	0	50	104	0	73	26857
2026-01-26 22:07:18.91	352.79	14.12	-51.7	-57.0	3.7	0.00e+00	0	50	104	0	73	28892
2026-01-26 22:07:20.90	352.47	14.34	-50.6	-56.2	3.7	0.00e+00	0	50	104	0	72	27966
2026-01-26 22:07:22.90	352.13	14.57	-51.2	-56.7	3.7	0.00e+00	0	50	104	0	73	27877
2026-01-26 22:07:24.89	351.80	14.80	-51.9	-57.3	3.7	0.00e+00	0	50	104	0	74	28248
2026-01-26 22:07:26.88	351.45	15.03	-51.0	-56.8	3.7	0.00e+00	0	50	104	0	74	26870
2026-01-26 22:07:28.87	351.10	15.26	-50.7	-56.5	3.7	0.00e+00	0	50	104	0	73	27470
2026-01-26 22:07:30.86	350.74	15.50	-51.6	-57.0	3.7	0.00e+00	0	50	104	0	73	29015
2026-01-26 22:07:32.85	350.37	15.73	-52.2	-57.3	3.7	0.00e+00	0	50	104	0	75	26749
2026-01-26 22:07:34.84	350.00	15.97	-51.3	-56.9	3.7	0.00e+00	0	50	104	0	74	27168
2026-01-26 22:07:36.83	349.62	16.21	-51.9	-57.2	3.7	0.00e+00	0	51	104	0	74	28016
2026-01-26 22:07:38.82	349.23	16.46	-51.6	-56.9	3.7	0.00e+00	0	50	104	0	73	28649
2026-01-26 22:07:40.81	348.84	16.70	-50.2	-55.9	3.7	0.00e+00	0	50	104	0	70	30285
2026-01-26 22:07:42.80	348.44	16.95	-49.3	-55.2	3.7	0.00e+00	0	51	104	0	69	29547
2026-01-26 22:07:44.79	348.03	17.20	-50.4	-56.0	3.7	0.00e+00	0	50	104	0	71	28838
2026-01-26 22:07:46.77	347.61	17.45	-51.1	-56.3	3.7	0.00e+00	0	51	104	0	73	26809
2026-01-26 22:07:48.84	347.16	17.71	-51.0	-56.4	3.7	0.00e+00	0	50	104	0	72	28574
2026-01-26 22:07:50.87	346.72	17.97	-50.2	-55.7	3.7	0.00e+00	0	51	104	0	70	29806
2026-01-26 22:07:52.84	346.28	18.22	-51.6	-56.6	3.7	0.00e+00	0	51	104	0	73	27720
2026-01-26 22:07:54.83	345.82	18.48	-51.6	-56.7	3.7	0.00e+00	0	50	104	0	74	26288
2026-01-26 22:07:56.82	345.36	18.74	-52.3	-56.8	3.7	0.00e+00	0	51	104	0	75	25199
2026-01-26 22:07:58.81	344.89	19.00	-51.3	-56.3	3.7	0.00e+00	0	50	104	0	74	25379
2026-01-26 22:08:00.80	344.41	19.27	-52.2	-56.7	3.7	0.00e+00	0	50	104	0	75	25019
2026-01-26 22:08:02.79	343.91	19.53	-51.8	-56.7	3.7	0.00e+00	0	51	104	0	75	25073
2026-01-26 22:08:04.85	343.39	19.81	-51.8	-56.7	3.7	0.00e+00	0	51	104	0	74	26316
2026-01-26 22:08:06.85	342.88	20.08	-49.3	-55.2	3.7	0.00e+00	0	51	104	0	70	28152
2026-01-26 22:08:08.83	342.36	20.35	-49.3	-55.2	3.7	0.00e+00	0	51	104	0	70	27972
2026-01-26 22:08:10.82	341.82	20.62	-51.2	-56.3	3.7	0.00e+00	0	51	104	0	72	28279
2026-01-26 22:08:12.81	341.28	20.89	-51.5	-56.7	3.6	0.00e+00	0	51	104	0	74	26497
2026-01-26 22:08:14.80	340.72	21.17	-52.3	-57.4	3.7	0.00e+00	0	51	104	0	75	26972
2026-01-26 22:08:16.79	340.15	21.44	-48.7	-54.8	3.7	0.00e+00	0	51	104	0	69	28466
2026-01-26 22:08:18.78	339.57	21.72	-49.6	-55.5	3.7	0.00e+00	0	51	104	0	69	30579
2026-01-26 22:08:20.77	338.98	22.00	-51.7	-56.9	3.7	0.00e+00	0	51	104	0	73	28614
2026-01-26 22:08:22.73	338.38	22.27	-50.4	-56.0	3.7	0.00e+00	0	51	104	0	72	27362
2026-01-26 22:08:24.80	337.74	22.56	-50.5	-56.0	3.7	0.00e+00	0	51	104	0	72	27439
2026-01-26 22:08:26.82	337.10	22.85	-51.5	-56.8	3.7	0.00e+00	0	51	104	0	73	28174
2026-01-26 22:08:28.81	336.45	23.13	-52.2	-56.8	3.7	0.00e+00	0	51	104	0	74	26872
2026-01-26 22:08:30.80	335.80	23.41	-52.3	-57.0	3.7	0.00e+00	0	51	104	0	75	25833
2026-01-26 22:08:32.79	335.12	23.69	-51.6	-56.8	3.7	0.00e+00	0	51	104	0	75	25235
2026-01-26 22:08:34.78	334.44	23.97	-51.7	-56.7	3.7	0.00e+00	0	51	104	0	74	26574
2026-01-26 22:08:36.77	333.74	24.25	-52.4	-57.2	3.7	0.00e+00	0	51	104	0	75	26574
2026-01-26 22:08:38.76	333.03	24.53	-52.1	-57.2	3.7	0.00e+00	0	51	104	0	75	26286
2026-01-26 22:08:40.83	332.27	24.82	-52.6	-57.4	3.7	0.00e+00	0	51	104	0	75	26995
2026-01-26 22:08:42.82	331.53	25.09	-51.9	-57.1	3.7	0.00e+00	0	51	104	0	75	25987
2026-01-26 22:08:44.82	330.77	25.37	-50.6	-56.3	3.7	0.00e+00	0	51	104	0	73	26710
2026-01-26 22:08:46.81	329.99	25.64	-51.3	-56.4	3.7	0.00e+00	0	51	104	0	73	26931
2026-01-26 22:08:48.89	329.17	25.93	-51.2	-56.4	3.7	0.00e+00	0	51	104	0	72	28502
2026-01-26 22:08:50.88	328.37	26.20	-51.8	-56.7	3.7	0.00e+00	0	51	104	0	74	26381
2026-01-26 22:08:52.87	327.55	26.47	-51.9	-56.7	3.7	0.00e+00	0	51	104	0	74	26564
2026-01-26 22:08:54.86	326.71	26.73	-50.6	-56.0	3.7	0.00e+00	0	51	104	0	72	27233
2026-01-26 22:08:56.97	325.81	27.01	-51.1	-56.4	3.7	0.00e+00	0	51	104	0	73	27016
2026-01-26 22:08:58.96	324.95	27.27	-51.0	-56.3	3.7	0.00e+00	0	51	104	0	73	26699
2026-01-26 22:09:00.95	324.06	27.52	-51.3	-56.4	3.7	0.00e+00	0	51	104	0	73	27053
2026-01-26 22:09:02.94	323.17	27.77	-52.0	-56.7	3.7	0.00e+00	0	51	104	0	74	26465
2026-01-26 22:09:04.93	322.25	28.02	-50.9	-56.1	3.7	0.00e+00	0	51	104	0	73	26167
2026-01-26 22:09:06.92	321.32	28.26	-51.2	-56.4	3.7	0.00e+00	0	51	104	0	73	27087
2026-01-26 22:09:08.91	320.38	28.50	-52.1	-56.7	3.7	0.00e+00	0	51	104	0	74	26322
2026-01-26 22:09:10.90	319.42	28.72	-52.2	-56.7	3.7	0.00e+00	0	51	104	0	75	24817
2026-01-26 22:09:12.89	318.45	28.95	-51.7	-56.7	3.7	0.00e+00	0	51	104	0	75	24989
2026-01-26 22:09:14.88	317.46	29.17	-50.9	-56.2	3.7	0.00e+00	0	51	104	0	73	26509
2026-01-26 22:09:16.87	316.45	29.38	-51.0	-56.3	3.7	0.00e+00	0	51	104	0	73	26586
2026-01-26 22:09:18.86	315.43	29.58	-51.4	-56.6	3.7	0.00e+00	0	51	104	0	73	27522
2026-01-26 22:09:20.85	314.40	29.77	-52.4	-57.0	3.7	0.00e+00	0	51	104	0	76	24439
2026-01-26 22:09:22.84	313.36	29.96	-53.0	-57.5	3.7	0.00e+00	0	51	104	0	76	25939
2026-01-26 22:09:24.83	312.30	30.14	-52.8	-57.3	3.7	0.00e+00	0	51	104	0	76	25301
2026-01-26 22:09:26.86	311.21	30.31	-52.8	-57.3	3.7	0.00e+00	0	51	104	0	76	25231
2026-01-26 22:09:28.85	310.12	30.47	-52.7	-57.4	3.7	0.00e+00	0	51	104	0	76	25409
2026-01-26 22:09:30.84	309.03	30.62	-52.3	-57.0	3.7	0.00e+00	0	51	104	0	76	24507
2026-01-26 22:09:32.82	307.93	30.76	-52.6	-57.3	3.7	0.00e+00	0	51	104	0	76	25299
2026-01-26 22:09:34.82	306.81	30.88	-52.4	-57.0	3.7	0.00e+00	0	51	104	0	76	24385
2026-01-26 22:09:36.80	305.69	31.00	-52.4	-56.9	3.7	0.00e+00	0	51	104	0	76	24185
2026-01-26 22:09:38.79	304.55	31.11	-52.3	-56.9	3.7	0.00e+00	0	51	104	0	76	23967
2026-01-26 22:09:40.78	303.41	31.20	-52.2	-56.9	3.7	0.00e+00	0	51	104	0	76	24167
2026-01-26 22:09:42.79	302.25	31.29	-51.7	-56.6	3.7	0.00e+00	0	51	104	0	75	24558
2026-01-26 22:09:44.78	301.10	31.36	-52.1	-56.8	3.7	0.00e+00	0	51	104	0	75	25110
2026-01-26 22:09:46.80	299.92	31.42	-52.2	-56.9	3.7	0.00e+00	0	51	104	0	75	25564
2026-01-26 22:09:48.83	298.73	31.47	-52.6	-57.0	3.7	0.00e+00	0	51	104	0	75	25968
2026-01-26 22:09:50.82	297.56	31.50	-52.4	-56.8	3.7	0.00e+00	0	51	104	0	75	25381
2026-01-26 22:09:52.84	296.37	31.53	-52.5	-56.9	3.7	0.00e+00	0	51	104	0	75	25550
2026-01-26 22:09:54.83	295.20	31.53	-53.0	-57.5	3.7	0.00e+00	0	51	104	0	76	25765
2026-01-26 22:09:56.96	293.95	31.53	-52.2	-57.0	3.7	0.00e+00	0	51	104	0	76	24473
2026-01-26 22:09:59.14	292.67	31.51	-52.4	-57.1	3.7	0.00e+00	0	51	104	0	76	24642
2026-01-26 22:10:01.34	291.37	31.48	-52.9	-57.6	3.7	0.00e+00	0	51	104	0	76	25989
2026-01-26 22:10:03.36	290.19	31.43	-52.9	-57.5	3.7	0.00e+00	0	51	104	0	76	25692
2026-01-26 22:10:05.35	289.03	31.37	-52.8	-57.4	3.7	0.00e+00	0	51	104	0	76	25521
2026-01-26 22:10:07.34	287.87	31.31	-53.0	-57.5	3.7	0.00e+00	0	51	104	0	76	25944
2026-01-26 22:10:09.33	286.72	31.22	-53.0	-57.5	3.7	0.00e+00	0	51	104	0	76	25864
2026-01-26 22:10:11.33	285.57	31.13	-53.0	-57.5	3.7	0.00e+00	0	51	104	0	76	25840
2026-01-26 22:10:13.32	284.43	31.03	-53.0	-57.6	3.7	0.00e+00	0	51	104	0	76	26229
2026-01-26 22:10:15.31	283.30	30.91	-53.1	-57.7	3.7	0.00e+00	0	51	104	0	76	26342
2026-01-26 22:10:17.51	282.06	30.77	-53.2	-57.6	3.7	0.00e+00	0	51	104	0	76	26223
2026-01-26 22:10:19.50	280.96	30.63	-53.0	-57.6	3.7	0.00e+00	0	51	104	0	77	24649
2026-01-26 22:10:21.79	279.69	30.46	-52.7	-57.6	3.7	0.00e+00	0	51	104	0	77	24670
2026-01-26 22:10:23.86	278.56	30.30	-52.9	-57.6	3.7	0.00e+00	0	51	104	0	77	24772
2026-01-26 22:10:25.85	277.49	30.13	-52.9	-57.4	3.7	0.00e+00	0	51	104	0	77	24193
2026-01-26 22:10:27.85	276.42	29.95	-52.9	-57.5	3.7	0.00e+00	0	51	104	0	77	24391
2026-01-26 22:10:29.84	275.38	29.76	-52.2	-57.3	3.7	0.00e+00	0	51	104	0	76	25374
2026-01-26 22:10:31.83	274.34	29.56	-52.5	-57.4	3.7	0.00e+00	0	51	104	0	76	25583
2026-01-26 22:10:33.82	273.32	29.36	-52.8	-57.4	3.7	0.00e+00	0	51	104	0	76	25650
2026-01-26 22:10:36.04	272.20	29.12	-52.8	-57.6	3.7	0.00e+00	0	51	104	0	76	26123
2026-01-26 22:10:38.22	271.11	28.88	-52.5	-57.5	3.7	0.00e+00	0	51	104	0	76	25680
2026-01-26 22:10:40.22	270.14	28.65	-52.6	-57.4	3.7	0.00e+00	0	51	104	0	76	25608
2026-01-26 22:10:42.14	269.21	28.43	-52.6	-57.3	3.7	0.00e+00	0	51	104	0	76	25338
2026-01-26 22:10:44.13	268.27	28.19	-52.8	-57.4	3.7	0.00e+00	0	51	104	0	76	25521
2026-01-26 22:10:46.12	267.34	27.95	-52.5	-57.2	3.7	0.00e+00	0	51	104	0	76	25003
2026-01-26 22:10:48.19	266.39	27.69	-52.6	-57.3	3.7	0.00e+00	0	51	104	0	76	25193
2026-01-26 22:10:50.18	265.49	27.44	-52.6	-57.4	3.7	0.00e+00	0	51	104	0	76	25512
2026-01-26 22:10:52.17	264.61	27.18	-51.9	-57.0	3.7	0.00e+00	0	51	104	0	75	25804
2026-01-26 22:10:54.16	263.74	26.92	-52.0	-56.9	3.7	0.00e+00	0	51	104	0	75	25531
2026-01-26 22:10:56.15	262.89	26.66	-52.4	-57.2	3.7	0.00e+00	0	51	104	0	75	26442
2026-01-26 22:10:58.37	261.96	26.36	-52.5	-57.3	3.7	0.00e+00	0	51	104	0	75	26794
2026-01-26 22:11:00.37	261.14	26.09	-52.0	-57.1	3.7	0.00e+00	0	51	104	0	75	26273
2026-01-26 22:11:02.37	260.33	25.81	-52.0	-57.3	3.7	0.00e+00	0	51	104	0	75	26628
2026-01-26 22:11:04.51	259.49	25.52	-52.5	-57.3	3.7	0.00e+00	0	51	104	0	75	26652
2026-01-26 22:11:06.50	258.72	25.24	-52.8	-57.4	3.7	0.00e+00	0	51	104	0	76	25552
2026-01-26 22:11:08.49	257.96	24.96	-52.3	-57.4	3.7	0.00e+00	0	51	104	0	76	25638
2026-01-26 22:11:10.47	257.23	24.68	-52.3	-57.3	3.7	0.00e+00	0	51	104	0	76	25166
2026-01-26 22:11:12.46	256.50	24.40	-52.7	-57.4	3.7	0.00e+00	0	51	104	0	76	25456
2026-01-26 22:11:14.49	255.77	24.12	-52.9	-57.6	3.7	0.00e+00	0	51	104	0	76	26116
2026-01-26 22:11:16.55	255.05	23.83	-52.1	-57.2	3.7	0.00e+00	0	51	104	0	76	25070
2026-01-26 22:11:18.54	254.37	23.54	-51.9	-57.1	3.7	0.00e+00	0	51	104	0	75	26000
2026-01-26 22:11:20.53	253.70	23.26	-52.2	-57.2	3.7	0.00e+00	0	51	104	0	75	26476
2026-01-26 22:11:22.63	253.01	22.96	-52.3	-57.0	3.7	0.00e+00	0	51	104	0	75	25912
2026-01-26 22:11:24.64	252.36	22.68	-52.1	-57.3	3.7	0.00e+00	0	51	104	0	75	26866
2026-01-26 22:11:26.71	251.71	22.39	-52.8	-57.5	3.7	0.00e+00	0	51	104	0	76	25783
2026-01-26 22:11:28.71	251.09	22.11	-52.8	-57.5	3.7	0.00e+00	0	51	104	0	76	25888
2026-01-26 22:11:30.70	250.49	21.83	-52.6	-57.5	3.7	0.00e+00	0	51	104	0	76	25953
2026-01-26 22:11:32.72	249.89	21.54	-52.3	-57.1	3.7	0.00e+00	0	51	104	0	76	24591
2026-01-26 22:11:34.73	249.30	21.26	-52.2	-57.1	3.7	0.00e+00	0	51	104	0	76	24699
2026-01-26 22:11:36.73	248.73	20.98	-52.6	-57.4	3.7	0.00e+00	0	51	104	0	76	25629
2026-01-26 22:11:38.72	248.18	20.71	-52.7	-57.4	3.7	0.00e+00	0	51	104	0	76	25596
2026-01-26 22:11:40.72	247.63	20.43	-52.4	-57.5	3.7	0.00e+00	0	51	104	0	76	25762
2026-01-26 22:11:42.86	247.06	20.14	-52.3	-57.4	3.7	0.00e+00	0	51	104	0	76	25550
2026-01-26 22:11:45.21	246.45	19.82	-52.2	-57.5	3.7	0.00e+00	0	51	104	0	75	27223
2026-01-26 22:11:47.20	245.94	19.55	-52.4	-57.5	3.7	0.00e+00	0	51	104	0	75	27341
2026-01-26 22:11:49.39	245.39	19.26	-52.9	-57.5	3.7	0.00e+00	0	51	104	0	76	25903
2026-01-26 22:11:51.38	244.90	18.99	-52.5	-57.5	3.7	0.00e+00	0	51	104	0	76	25886
2026-01-26 22:11:53.37	244.42	18.73	-51.6	-57.4	3.7	0.00e+00	0	51	104	0	75	27034
2026-01-26 22:11:55.39	243.95	18.46	-51.2	-57.3	3.7	0.00e+00	0	51	104	0	74	28417
2026-01-26 22:11:57.68	243.42	18.16	-51.2	-57.3	3.7	0.00e+00	0	51	104	0	74	28243
2026-01-26 22:11:59.67	242.97	17.90	-51.6	-57.1	3.7	0.00e+00	0	51	104	0	74	27808
2026-01-26 22:12:01.67	242.53	17.64	-51.8	-57.1	3.7	0.00e+00	0	51	104	0	75	26260
2026-01-26 22:12:03.66	242.10	17.39	-52.4	-57.3	3.7	0.00e+00	0	51	104	0	75	26874
2026-01-26 22:12:05.65	241.68	17.14	-52.6	-57.3	3.7	0.00e+00	0	51	104	0	75	26624
2026-01-26 22:12:07.67	241.26	16.88	-52.5	-57.3	3.7	0.00e+00	0	51	104	0	76	25137
2026-01-26 22:12:09.67	240.85	16.63	-52.4	-57.3	3.7	0.00e+00	0	51	104	0	75	26877
2026-01-26 22:12:11.66	240.45	16.39	-51.4	-57.4	3.7	0.00e+00	0	51	104	0	74	28497
2026-01-26 22:12:13.89	240.02	16.11	-51.5	-57.3	3.7	0.00e+00	0	51	104	0	74	28235
2026-01-26 22:12:16.02	239.61	15.85	-52.1	-57.2	3.7	0.00e+00	0	51	104	0	74	27888
2026-01-26 22:12:18.01	239.24	15.61	-52.0	-57.1	3.7	0.00e+00	0	51	104	0	75	26238
2026-01-26 22:12:20.00	238.87	15.38	-52.5	-57.3	3.7	0.00e+00	0	51	104	0	75	26697
2026-01-26 22:12:21.99	238.51	15.14	-52.6	-57.3	3.7	0.00e+00	0	51	104	0	75	26755
2026-01-26 22:12:24.12	238.13	14.89	-52.6	-57.3	3.7	0.00e+00	0	51	104	0	75	26583
2026-01-26 22:12:26.11	237.78	14.66	-52.5	-57.2	3.7	0.00e+00	0	51	104	0	75	26326
2026-01-26 22:12:28.10	237.45	14.43	-52.4	-57.0	3.7	0.00e+00	0	51	104	0	75	25789
2026-01-26 22:12:30.09	237.11	14.20	-52.2	-57.0	3.7	0.00e+00	0	51	104	0	75	25887
2026-01-26 22:12:32.14	236.77	13.97	-52.3	-57.0	3.7	0.00e+00	0	51	104	0	75	25861
2026-01-26 22:12:34.20	236.44	13.74	-52.3	-57.1	3.7	0.00e+00	0	51	104	0	75	26056
2026-01-26 22:12:36.19	236.13	13.51	-52.1	-56.9	3.7	0.00e+00	0	51	104	0	75	25442
2026-01-26 22:12:38.29	235.80	13.28	-52.2	-56.9	3.7	0.00e+00	0	51	104	0	75	25522
2026-01-26 22:12:40.36	235.49	13.06	-52.0	-57.0	3.7	0.00e+00	0	51	104	0	75	25952
2026-01-26 22:12:42.34	235.19	12.84	-52.0	-57.0	3.7	0.00e+00	0	51	104	0	75	25864
2026-01-26 22:12:44.33	234.90	12.63	-52.2	-57.1	3.7	0.00e+00	0	51	104	0	74	27770
2026-01-26 22:12:46.32	234.61	12.42	-51.8	-57.1	3.7	0.00e+00	0	51	104	0	75	26206
2026-01-26 22:12:48.31	234.33	12.20	-52.4	-57.1	3.7	0.00e+00	0	51	104	0	75	26043
2026-01-26 22:12:50.30	234.05	12.00	-52.2	-57.1	3.7	0.00e+00	0	51	104	0	75	26232
2026-01-26 22:12:52.29	233.78	11.79	-52.3	-57.1	3.7	0.00e+00	0	51	104	0	75	26246
2026-01-26 22:12:54.28	233.51	11.58	-52.3	-57.1	3.7	0.00e+00	0	51	104	0	75	25995
2026-01-26 22:12:56.27	233.24	11.38	-52.3	-57.0	3.7	0.00e+00	0	51	104	0	75	25973
2026-01-26 22:12:58.29	232.98	11.18	-52.4	-57.0	3.7	0.00e+00	0	51	104	0	75	25877
2026-01-26 22:13:00.47	232.70	10.96	-52.5	-57.1	3.7	0.00e+00	0	51	104	0	75	26190
2026-01-26 22:13:02.46	232.45	10.76	-52.4	-57.1	3.7	0.00e+00	0	51	104	0	75	26068
2026-01-26 22:13:04.46	232.21	10.56	-52.4	-57.1	3.7	0.00e+00	0	51	104	0	75	26239
2026-01-26 22:13:06.46	231.96	10.37	-52.5	-57.1	3.7	0.00e+00	0	51	104	0	75	26219
2026-01-26 22:13:08.47	231.72	10.17	-52.3	-57.0	3.7	0.00e+00	0	51	104	0	75	25702
2026-01-26 22:13:10.52	231.48	9.98	-52.3	-56.9	3.7	0.00e+00	0	51	104	0	75	25604
2026-01-26 22:13:12.51	231.25	9.79	-52.0	-56.8	3.7	0.00e+00	0	51	104	0	75	25355
2026-01-26 22:13:14.61	231.02	9.59	-52.1	-56.9	3.7	0.00e+00	0	51	104	0	75	25453
2026-01-26 22:13:16.79	230.77	9.38	-52.2	-56.7	3.7	0.00e+00	0	51	104	0	75	25064
2026-01-26 22:13:18.80	230.55	9.20	-52.1	-56.7	3.7	0.00e+00	0	51	104	0	75	24978
2026-01-26 22:13:20.78	230.34	9.02	-51.9	-56.8	3.7	0.00e+00	0	51	104	0	75	25281
2026-01-26 22:13:22.77	230.13	8.83	-52.4	-57.2	3.7	0.00e+00	0	51	104	0	75	26395
2026-01-26 22:13:24.76	229.92	8.65	-51.9	-57.5	3.7	0.00e+00	0	51	104	0	75	27410
2026-01-26 22:13:26.76	229.71	8.47	-53.0	-57.5	3.7	0.00e+00	0	51	104	0	77	24317
2026-01-26 22:13:28.75	229.51	8.30	-52.7	-57.5	3.7	0.00e+00	0	51	104	0	77	24453
2026-01-26 22:13:30.73	229.31	8.12	-52.9	-57.6	3.7	0.00e+00	0	51	104	0	77	24722
2026-01-26 22:13:32.72	229.12	7.95	-53.1	-57.7	3.7	0.00e+00	0	51	104	0	77	25021
2026-01-26 22:13:34.72	228.93	7.77	-52.8	-57.5	3.7	0.00e+00	0	51	104	0	77	24447
2026-01-26 22:13:36.73	228.73	7.60	-53.0	-57.5	3.7	0.00e+00	0	51	104	0	77	24357
2026-01-26 22:13:38.71	228.55	7.43	-52.8	-57.2	3.7	0.00e+00	0	51	104	0	77	23498
2026-01-26 22:13:40.71	228.36	7.26	-52.5	-57.3	3.7	0.00e+00	0	51	104	0	76	25342
2026-01-26 22:13:42.70	228.18	7.09	-52.2	-57.0	3.7	0.00e+00	0	51	104	0	76	24468
2026-01-26 22:13:44.69	228.00	6.93	-52.2	-57.0	3.7	0.00e+00	0	51	104	0	76	24327
2026-01-26 22:13:46.67	227.83	6.76	-52.2	-57.0	3.7	0.00e+00	0	51	104	0	76	24452
2026-01-26 22:13:48.66	227.66	6.60	-52.2	-56.9	3.7	0.00e+00	0	51	104	0	76	24232
2026-01-26 22:13:50.66	227.48	6.43	-52.2	-57.0	3.7	0.00e+00	0	51	104	0	76	24327
2026-01-26 22:13:52.65	227.32	6.27	-52.3	-57.0	3.7	0.00e+00	0	51	104	0	76	24341
2026-01-26 22:13:54.65	227.15	6.11	-52.3	-57.0	3.7	0.00e+00	0	51	104	0	76	24442
2026-01-26 22:13:56.64	226.99	5.95	-52.3	-57.0	3.7	0.00e+00	0	51	104	0	76	24343
2026-01-26 22:13:58.63	226.82	5.79	-52.2	-57.0	3.7	0.00e+00	0	51	104	0	76	24384
2026-01-26 22:14:00.62	226.67	5.63	-52.2	-56.9	3.7	0.00e+00	0	51	104	0	76	24238
2026-01-26 22:14:02.62	226.51	5.48	-52.2	-57.0	3.7	0.00e+00	0	51	104	0	76	24341
2026-01-26 22:14:04.61	226.35	5.32	-52.2	-57.0	3.7	0.00e+00	0	51	104	0	76	24246
2026-01-26 22:14:06.59	226.20	5.17	-52.3	-57.0	3.7	0.00e+00	0	52	104	0	76	24405
2026-01-26 22:14:08.58	226.05	5.02	-52.3	-57.0	3.7	0.00e+00	0	51	104	0	76	24439

#Closed at: 2026-01-26 22:14:09
#Recorded file [0 MB]: D:/Data/31040_260127_010539.dat