passes_logs/2026/01/20/R2.0S_Moscow/R2.0S_Moscow__20260120_115218_AQUA_rec.log

#Pass ID: 20260120_115218_AQUA
#Satellite: AQUA
#Configuration: AQUA
#almurnet v.1.7.20251203
#Start time: 2026-01-20 11:52:19

#Version: 2.2.20231116
#Station: R2.0S_Moscow
#Location: 37.707566 lon 55.798166 lat
#TLE: 1 27424U 02022A   26019.60905539  .00000968  00000+0  20374-3 0  9991
#TLE: 2 27424  98.4090 346.1140 0001992  72.7126 342.3847 14.61830366261565

#Time	Az	El	Level	Level2	SNR	BER	BlckErr	Temp	State	Recorded	gain1	gain2
2026-01-20 11:52:19.65	167.35	2.11	-44.6	-63.3	3.8	7.42e-01	0	51	0	0	60	31776
2026-01-20 11:52:23.68	167.40	2.38	-44.6	-63.3	3.8	7.44e-01	0	51	104	0	60	31666
2026-01-20 11:52:27.72	167.45	2.65	-44.6	-63.3	3.8	7.45e-01	0	51	104	0	60	31729
2026-01-20 11:52:31.76	167.51	2.93	-44.6	-63.3	3.8	7.44e-01	0	52	104	0	60	31783
2026-01-20 11:52:35.80	167.56	3.21	-44.6	-63.3	3.8	7.45e-01	0	52	104	0	60	31795
2026-01-20 11:52:39.85	167.62	3.50	-44.6	-63.3	3.8	7.42e-01	0	52	104	0	60	31756
2026-01-20 11:52:43.89	167.68	3.78	-44.5	-63.2	3.8	7.41e-01	0	52	104	0	60	31420
2026-01-20 11:52:47.93	167.73	4.07	-44.6	-63.3	3.8	7.46e-01	0	53	104	0	60	31591
2026-01-20 11:52:51.97	167.79	4.37	-44.6	-63.2	3.8	7.43e-01	0	53	104	0	60	31285
2026-01-20 11:52:56.01	167.85	4.66	-44.6	-62.8	3.8	7.47e-01	0	53	104	0	60	29854
2026-01-20 11:53:00.05	167.92	4.96	-44.6	-61.5	3.8	7.42e-01	0	53	104	0	60	25795
2026-01-20 11:53:04.09	167.98	5.27	-44.5	-58.8	4.0	7.39e-01	0	53	104	0	60	18797
2026-01-20 11:53:08.14	168.04	5.58	-44.3	-55.5	6.6	6.71e-01	92	54	0	5242880	60	12887
2026-01-20 11:53:12.18	168.11	5.89	-44.3	-55.3	6.8	6.66e-01	90	54	0	12582912	60	12529
2026-01-20 11:53:16.22	168.17	6.21	-44.2	-54.5	7.5	6.56e-01	90	54	0	20447232	60	11516
2026-01-20 11:53:20.26	168.24	6.53	-44.3	-55.6	6.4	6.73e-01	92	54	0	27787264	60	13090
2026-01-20 11:53:24.30	168.31	6.86	-44.3	-55.5	6.6	6.69e-01	92	54	0	35127296	60	12834
2026-01-20 11:53:28.35	168.38	7.19	-44.2	-53.0	9.4	6.32e-01	0	55	0	42991616	59	10197
2026-01-20 11:53:32.39	168.45	7.52	-43.3	-49.4	13.2	6.08e-01	0	54	0	50331648	58	7151
2026-01-20 11:53:36.42	168.53	7.86	-42.7	-47.7	15.0	6.08e-01	0	55	0	58195968	57	6232
2026-01-20 11:53:40.46	168.60	8.21	-43.7	-50.0	13.0	6.11e-01	0	55	0	65536000	57	8163
2026-01-20 11:53:44.51	168.68	8.56	-42.9	-47.8	14.9	6.06e-01	0	55	0	71303168	57	6331
2026-01-20 11:53:48.55	168.76	8.92	-42.5	-47.0	15.9	6.06e-01	0	55	0	78643200	57	5736
2026-01-20 11:53:52.59	168.84	9.28	-42.3	-46.6	16.3	6.08e-01	0	56	0	85983232	56	5809
2026-01-20 11:53:56.62	168.92	9.65	-42.4	-46.5	16.5	6.04e-01	0	55	0	93847552	56	5734
2026-01-20 11:54:00.66	169.00	10.02	-42.2	-46.1	16.9	6.05e-01	0	56	0	101187584	56	5500
2026-01-20 11:54:04.69	169.09	10.40	-42.2	-46.0	17.1	6.06e-01	0	56	0	109051904	56	5445
2026-01-20 11:54:08.73	169.18	10.79	-42.1	-45.9	17.2	6.05e-01	0	56	0	116391936	56	5366
2026-01-20 11:54:12.77	169.27	11.18	-42.1	-45.7	17.4	6.06e-01	0	56	0	124256256	56	5263
2026-01-20 11:54:16.81	169.36	11.58	-42.1	-45.7	17.5	6.09e-01	0	56	0	131596288	56	5262
2026-01-20 11:54:20.84	169.46	11.99	-42.1	-45.7	17.5	6.05e-01	0	56	0	138936320	56	5272
2026-01-20 11:54:24.88	169.56	12.41	-42.1	-45.7	17.6	6.06e-01	0	56	0	146800640	56	5263
2026-01-20 11:54:28.92	169.66	12.83	-42.1	-45.7	17.6	6.05e-01	0	56	0	154140672	56	5222
2026-01-20 11:54:32.96	169.76	13.27	-42.0	-45.5	17.8	6.06e-01	0	56	0	162004992	56	5135
2026-01-20 11:54:37.00	169.87	13.71	-41.9	-45.3	17.9	6.05e-01	0	56	0	169345024	55	5303
2026-01-20 11:54:41.03	169.98	14.16	-41.8	-45.1	18.2	6.07e-01	0	57	0	177209344	55	5175
2026-01-20 11:54:45.07	170.09	14.62	-41.8	-45.2	18.1	6.06e-01	0	57	0	184549376	55	5266
2026-01-20 11:54:49.11	170.21	15.09	-41.9	-45.3	18.0	6.08e-01	0	57	0	192413696	55	5340
2026-01-20 11:54:53.15	170.33	15.57	-41.9	-45.3	18.0	6.06e-01	0	56	0	199753728	55	5323
2026-01-20 11:54:57.18	170.45	16.06	-41.9	-45.3	18.1	6.06e-01	0	57	0	207093760	55	5289
2026-01-20 11:55:01.22	170.58	16.56	-41.8	-45.1	18.3	6.06e-01	0	57	0	214958080	55	5196
2026-01-20 11:55:05.25	170.71	17.07	-41.7	-44.9	18.5	6.04e-01	0	57	0	222298112	55	5091
2026-01-20 11:55:09.29	170.85	17.60	-41.8	-45.0	18.4	6.06e-01	0	57	0	230162432	55	5156
2026-01-20 11:55:13.33	170.99	18.13	-41.9	-45.2	18.3	6.09e-01	0	57	0	237502464	55	5226
2026-01-20 11:55:17.37	171.13	18.69	-41.8	-45.0	18.4	6.07e-01	0	57	0	245366784	55	5157
2026-01-20 11:55:21.41	171.28	19.25	-41.8	-45.0	18.5	6.07e-01	0	57	0	252706816	55	5157
2026-01-20 11:55:25.44	171.44	19.83	-41.8	-44.9	18.6	6.07e-01	0	57	0	260046848	55	5078
2026-01-20 11:55:29.49	171.60	20.42	-41.9	-45.1	18.5	6.07e-01	0	57	0	267911168	55	5196
2026-01-20 11:55:33.52	171.77	21.03	-42.1	-45.5	18.1	6.05e-01	0	57	0	275251200	55	5414
2026-01-20 11:55:37.56	171.95	21.66	-42.2	-45.6	17.9	6.03e-01	0	57	0	283115520	55	5518
2026-01-20 11:55:41.60	172.13	22.30	-42.0	-45.3	18.2	6.06e-01	0	57	0	290455552	55	5338
2026-01-20 11:55:45.64	172.32	22.96	-42.1	-45.5	18.1	6.07e-01	0	57	0	298319872	55	5445
2026-01-20 11:55:49.68	172.52	23.64	-42.2	-45.7	17.9	6.06e-01	0	57	0	305659904	55	5551
2026-01-20 11:55:53.71	172.73	24.34	-42.2	-45.7	18.0	6.06e-01	0	58	0	313524224	55	5535
2026-01-20 11:55:57.75	172.95	25.06	-42.4	-46.0	17.7	6.06e-01	0	57	0	320864256	55	5726
2026-01-20 11:56:01.79	173.17	25.80	-42.3	-45.7	18.0	6.06e-01	0	58	0	328204288	55	5565
2026-01-20 11:56:05.83	173.41	26.56	-42.3	-45.6	18.1	6.04e-01	0	58	0	336068608	55	5527
2026-01-20 11:56:09.87	173.66	27.35	-41.9	-45.0	18.7	6.08e-01	0	58	0	343408640	55	5122
2026-01-20 11:56:13.91	173.92	28.16	-42.0	-45.2	18.5	6.06e-01	0	58	0	351272960	55	5271
2026-01-20 11:56:17.94	174.20	29.00	-41.9	-45.0	18.7	6.07e-01	0	58	0	358612992	55	5153
2026-01-20 11:56:21.98	174.49	29.86	-41.8	-44.8	18.9	6.06e-01	0	58	0	366477312	55	5022
2026-01-20 11:56:26.02	174.79	30.75	-41.8	-44.9	18.8	6.05e-01	0	58	0	373817344	55	5083
2026-01-20 11:56:30.06	175.12	31.67	-42.1	-45.3	18.5	6.05e-01	0	58	0	381681664	55	5304
2026-01-20 11:56:34.09	175.46	32.62	-41.9	-45.1	18.7	6.06e-01	0	58	0	389021696	55	5212
2026-01-20 11:56:38.14	175.82	33.61	-42.5	-46.0	17.8	6.06e-01	0	58	0	396361728	55	5728
2026-01-20 11:56:42.18	176.21	34.63	-42.6	-46.1	17.7	6.07e-01	0	58	0	404226048	55	5831
2026-01-20 11:56:46.21	176.62	35.68	-43.1	-47.0	16.9	6.05e-01	0	58	0	411566080	56	6090
2026-01-20 11:56:50.25	177.06	36.77	-43.3	-47.4	16.5	6.05e-01	0	58	0	419430400	57	6050
2026-01-20 11:56:54.29	177.52	37.90	-43.3	-47.5	16.5	6.07e-01	0	58	0	426770432	57	6078
2026-01-20 11:56:58.33	178.03	39.07	-43.5	-47.8	16.1	6.06e-01	0	58	0	434634752	57	6343
2026-01-20 11:57:02.36	178.57	40.27	-43.3	-47.4	16.6	6.08e-01	0	58	0	441974784	57	6006
2026-01-20 11:57:06.40	179.15	41.52	-43.1	-46.9	17.0	6.06e-01	0	58	0	449839104	57	5704
2026-01-20 11:57:10.44	179.78	42.82	-42.3	-45.4	18.5	6.09e-01	0	58	0	457179136	56	5095
2026-01-20 11:57:14.48	180.46	44.15	-42.2	-45.3	18.6	6.03e-01	0	58	0	464519168	56	5017
2026-01-20 11:57:18.52	181.21	45.54	-42.1	-45.2	18.8	6.08e-01	0	58	0	472383488	56	4935
2026-01-20 11:57:22.56	182.02	46.97	-42.0	-45.1	19.0	6.05e-01	0	58	0	479723520	56	4872
2026-01-20 11:57:26.59	182.91	48.44	-41.8	-44.8	19.1	6.05e-01	0	58	0	487587840	55	4984
2026-01-20 11:57:30.63	183.89	49.96	-41.9	-44.9	19.0	6.07e-01	0	58	0	494927872	55	5043
2026-01-20 11:57:34.66	184.97	51.52	-41.6	-44.4	19.5	6.07e-01	0	58	0	502792192	55	4773
2026-01-20 11:57:38.70	186.18	53.13	-41.4	-44.1	19.8	6.07e-01	0	58	0	510132224	54	4883
2026-01-20 11:57:42.74	187.53	54.77	-41.5	-44.4	19.1	6.05e-01	0	58	0	517472256	54	5068
2026-01-20 11:57:46.77	189.04	56.46	-42.2	-45.4	18.4	6.05e-01	0	58	0	525336576	55	5370
2026-01-20 11:57:50.81	190.75	58.18	-42.6	-46.1	17.8	6.06e-01	0	58	0	532676608	55	5839
2026-01-20 11:57:54.85	192.70	59.92	-43.1	-46.8	17.2	6.07e-01	0	58	0	540540928	56	5986
2026-01-20 11:57:58.89	194.94	61.69	-43.6	-47.9	16.1	6.05e-01	0	58	0	547880960	57	6398
2026-01-20 11:58:02.93	197.51	63.45	-44.0	-48.8	14.9	6.04e-01	0	58	0	555745280	58	6666
2026-01-20 11:58:06.97	200.50	65.21	-44.3	-49.6	14.4	6.08e-01	0	58	0	563085312	59	6918
2026-01-20 11:58:11.01	204.00	66.94	-44.4	-50.3	13.0	6.09e-01	0	59	0	570949632	60	7121
2026-01-20 11:58:15.05	208.11	68.62	-44.7	-51.2	12.2	6.12e-01	0	59	0	578289664	60	7844
2026-01-20 11:58:19.08	212.95	70.20	-44.5	-50.6	12.7	6.09e-01	0	58	0	585629696	60	7323
2026-01-20 11:58:23.12	218.66	71.65	-44.1	-49.1	14.7	6.08e-01	0	59	0	593494016	59	6529
2026-01-20 11:58:27.16	225.34	72.92	-44.0	-48.7	14.8	6.06e-01	0	58	0	600834048	59	6263
2026-01-20 11:58:31.20	233.04	73.95	-44.1	-49.2	14.6	6.07e-01	0	58	0	608698368	59	6583
2026-01-20 11:58:35.23	241.64	74.67	-43.6	-48.0	15.8	6.05e-01	0	58	0	616038400	58	6075
2026-01-20 11:58:39.27	250.92	75.04	-43.6	-48.0	15.8	6.10e-01	0	58	0	623902720	58	6094
2026-01-20 11:58:43.31	260.42	75.01	-43.7	-48.3	15.4	6.05e-01	0	59	0	631242752	58	6329
2026-01-20 11:58:47.35	269.64	74.61	-43.6	-47.9	15.7	6.05e-01	0	59	0	639107072	57	6379
2026-01-20 11:58:51.38	278.13	73.85	-43.6	-48.0	15.7	6.06e-01	0	59	0	646447104	57	6431
2026-01-20 11:58:55.42	285.71	72.79	-43.9	-48.6	15.3	6.06e-01	0	58	0	653787136	58	6567
2026-01-20 11:58:59.46	292.27	71.49	-44.0	-48.8	15.1	6.06e-01	0	59	0	661651456	58	6713
2026-01-20 11:59:03.50	297.87	70.03	-43.8	-48.4	15.6	6.08e-01	0	59	0	668991488	58	6367
2026-01-20 11:59:07.53	302.60	68.44	-44.2	-49.1	14.9	6.04e-01	0	59	0	676855808	59	6521
2026-01-20 11:59:11.57	306.64	66.76	-44.1	-49.0	15.0	6.08e-01	0	59	0	684195840	59	6469
2026-01-20 11:59:15.61	310.07	65.03	-43.3	-47.3	16.8	6.06e-01	0	59	0	692060160	58	5599
2026-01-20 11:59:19.64	313.00	63.28	-43.4	-47.3	16.8	6.06e-01	0	59	0	699400192	58	5617
2026-01-20 11:59:23.68	315.53	61.52	-43.2	-46.9	17.1	6.05e-01	0	59	0	706740224	58	5395
2026-01-20 11:59:27.72	317.73	59.76	-43.0	-46.7	17.5	6.06e-01	0	59	0	714604544	58	5232
2026-01-20 11:59:31.75	319.64	58.03	-42.6	-45.8	18.4	6.06e-01	0	59	0	721944576	57	5026
2026-01-20 11:59:35.79	321.33	56.32	-42.6	-45.9	18.2	6.07e-01	0	59	0	729808896	57	5090
2026-01-20 11:59:39.82	322.83	54.64	-42.0	-44.9	19.1	6.04e-01	0	59	0	737148928	55	5091
2026-01-20 11:59:43.86	324.16	53.00	-42.0	-44.9	19.1	6.05e-01	0	59	0	745013248	55	5090
2026-01-20 11:59:47.89	325.35	51.41	-42.4	-45.7	18.4	6.05e-01	0	59	0	752353280	55	5570
2026-01-20 11:59:51.94	326.42	49.85	-42.7	-46.1	18.1	6.07e-01	0	59	0	759693312	56	5508
2026-01-20 11:59:55.97	327.39	48.35	-42.6	-45.9	18.3	6.06e-01	0	59	0	767557632	56	5367
2026-01-20 12:00:00.01	328.27	46.88	-42.5	-45.8	18.4	6.04e-01	0	59	0	774897664	56	5306
2026-01-20 12:00:04.05	329.08	45.47	-42.7	-46.1	18.0	6.06e-01	0	59	0	782761984	56	5528
2026-01-20 12:00:08.09	329.82	44.09	-42.5	-45.8	18.4	6.08e-01	0	59	0	790102016	56	5305
2026-01-20 12:00:12.13	330.49	42.77	-42.6	-46.0	18.2	6.05e-01	0	59	0	797966336	56	5425
2026-01-20 12:00:16.17	331.12	41.48	-43.1	-46.8	17.4	6.06e-01	0	59	0	805306368	56	5934
2026-01-20 12:00:20.21	331.70	40.24	-43.2	-47.0	17.2	6.04e-01	0	59	0	813170688	56	6063
2026-01-20 12:00:24.24	332.23	39.05	-43.2	-47.0	17.2	6.06e-01	0	59	0	820510720	57	5744
2026-01-20 12:00:28.28	332.73	37.89	-43.0	-46.7	17.4	6.08e-01	0	59	0	827850752	57	5542
2026-01-20 12:00:32.32	333.20	36.77	-42.8	-46.4	17.7	6.06e-01	0	59	0	835715072	57	5343
2026-01-20 12:00:36.35	333.64	35.69	-42.5	-45.9	18.2	6.06e-01	0	59	0	843055104	57	5045
2026-01-20 12:00:40.39	334.05	34.64	-42.3	-45.4	18.6	6.07e-01	0	59	0	850919424	56	5089
2026-01-20 12:00:44.43	334.43	33.63	-41.7	-44.6	19.4	6.05e-01	0	59	0	858259456	55	4907
2026-01-20 12:00:48.47	334.79	32.66	-41.8	-44.8	19.2	6.07e-01	0	59	0	866123776	55	5002
2026-01-20 12:00:52.50	335.13	31.71	-41.7	-44.6	19.3	6.07e-01	0	59	0	873463808	55	4916
2026-01-20 12:00:56.54	335.46	30.80	-41.7	-44.6	19.3	6.05e-01	0	59	0	881328128	55	4902
2026-01-20 12:01:00.58	335.76	29.91	-41.7	-44.7	19.2	6.06e-01	0	59	0	888668160	55	4967
2026-01-20 12:01:04.61	336.05	29.05	-41.9	-45.0	18.9	6.05e-01	0	59	0	896008192	55	5136
2026-01-20 12:01:08.65	336.33	28.22	-42.0	-45.3	18.6	6.04e-01	0	59	0	903872512	55	5281
2026-01-20 12:01:12.69	336.59	27.42	-42.1	-45.4	18.3	6.08e-01	0	59	0	911212544	55	5393
2026-01-20 12:01:16.73	336.84	26.63	-42.1	-45.5	18.3	6.06e-01	0	59	0	919076864	55	5411
2026-01-20 12:01:20.77	337.08	25.88	-42.3	-45.9	17.8	6.03e-01	0	59	0	926416896	55	5687
2026-01-20 12:01:24.80	337.31	25.14	-42.3	-45.8	17.8	6.07e-01	0	59	0	934281216	55	5649
2026-01-20 12:01:28.84	337.52	24.43	-42.2	-45.7	17.9	6.05e-01	0	59	0	941621248	55	5530
2026-01-20 12:01:32.88	337.73	23.73	-42.2	-45.8	17.7	6.06e-01	0	59	0	949485568	55	5609
2026-01-20 12:01:36.92	337.93	23.06	-42.1	-45.8	17.6	6.06e-01	0	59	0	956825600	55	5631
2026-01-20 12:01:40.96	338.12	22.40	-42.1	-45.8	17.5	6.07e-01	0	59	0	964165632	55	5631
2026-01-20 12:01:45.00	338.31	21.76	-42.1	-45.9	17.2	6.08e-01	0	59	0	972029952	55	5711
2026-01-20 12:01:49.04	338.49	21.14	-42.1	-46.0	16.9	6.06e-01	0	59	0	979369984	55	5771
2026-01-20 12:01:53.08	338.66	20.53	-41.7	-45.6	17.0	6.06e-01	0	59	0	987234304	55	5475
2026-01-20 12:01:57.12	338.82	19.94	-41.9	-46.5	15.8	6.06e-01	0	59	0	994574336	55	6089
2026-01-20 12:02:01.16	338.98	19.37	-42.3	-47.8	14.3	6.07e-01	0	59	0	1002438656	55	7056
2026-01-20 12:02:05.20	339.13	18.81	-42.5	-49.0	12.7	6.11e-01	0	59	0	1009778688	55	8175
2026-01-20 12:02:09.24	339.28	18.26	-42.5	-50.1	11.3	6.14e-01	0	59	0	1017118720	55	9209
2026-01-20 12:02:13.27	339.42	17.72	-42.6	-51.4	9.8	6.28e-01	0	59	0	1024983040	55	10776
2026-01-20 12:02:17.31	339.56	17.20	-42.5	-52.9	8.1	6.46e-01	78	59	0	1032323072	55	12775
2026-01-20 12:02:21.35	339.70	16.69	-42.5	-54.6	6.3	6.77e-01	92	59	0	1040187392	55	15428
2026-01-20 12:02:25.39	339.83	16.19	-41.4	-61.2	3.8	7.45e-01	0	59	104	1044381696	54	34958
2026-01-20 12:02:29.43	339.95	15.70	-42.9	-57.2	4.1	7.17e-01	0	59	104	1044381696	56	19806
2026-01-20 12:02:33.46	340.08	15.23	-41.6	-61.1	3.8	7.47e-01	0	59	104	1044381696	54	34576
2026-01-20 12:02:37.50	340.20	14.76	-42.5	-59.5	4.0	7.46e-01	0	59	104	1044381696	56	25607
2026-01-20 12:02:41.54	340.31	14.30	-42.0	-61.1	3.8	7.46e-01	0	59	104	1044381696	55	32698
2026-01-20 12:02:45.58	340.42	13.85	-42.3	-60.2	3.8	7.46e-01	0	59	104	1044381696	55	29512
2026-01-20 12:02:49.62	340.53	13.41	-41.8	-60.8	3.8	7.49e-01	0	59	104	1044381696	55	31715
2026-01-20 12:02:53.66	340.64	12.98	-41.9	-60.7	3.8	7.46e-01	0	59	104	1044381696	55	31313
2026-01-20 12:02:57.70	340.74	12.56	-41.7	-60.7	3.8	7.47e-01	0	59	104	1044381696	54	33253
2026-01-20 12:03:01.74	340.85	12.15	-41.2	-60.6	3.8	7.46e-01	0	59	104	1044381696	54	32678
2026-01-20 12:03:05.77	340.94	11.74	-41.0	-60.5	3.8	7.48e-01	0	59	104	1044381696	54	32252
2026-01-20 12:03:09.81	341.04	11.34	-41.1	-60.5	3.8	7.43e-01	0	59	104	1044381696	53	34244
2026-01-20 12:03:13.85	341.13	10.95	-41.3	-60.5	3.8	7.50e-01	0	59	104	1044381696	54	32541
2026-01-20 12:03:17.89	341.23	10.56	-41.3	-60.5	3.8	7.44e-01	0	59	104	1044381696	53	34375
2026-01-20 12:03:21.92	341.32	10.18	-41.3	-60.4	3.8	7.44e-01	0	59	104	1044381696	54	32179
2026-01-20 12:03:25.96	341.40	9.81	-41.3	-60.4	3.8	7.46e-01	0	59	104	1044381696	54	32092
2026-01-20 12:03:30.00	341.49	9.44	-41.4	-60.5	3.8	7.47e-01	0	59	104	1044381696	54	32287
2026-01-20 12:03:34.04	341.57	9.08	-41.4	-60.5	3.8	7.44e-01	0	59	104	1044381696	54	32443
2026-01-20 12:03:38.07	341.66	8.73	-41.4	-60.5	3.8	7.48e-01	0	59	104	1044381696	54	32328
2026-01-20 12:03:42.11	341.74	8.38	-41.3	-60.5	3.8	7.46e-01	0	59	104	1044381696	54	32188
2026-01-20 12:03:46.15	341.82	8.03	-41.3	-60.5	3.8	7.44e-01	0	59	104	1044381696	54	32209
2026-01-20 12:03:50.19	341.89	7.70	-45.8	-64.4	3.9	7.44e-01	0	59	104	1044381696	62	32109
2026-01-20 12:03:54.23	341.97	7.36	-46.3	-64.9	3.8	7.45e-01	0	59	104	1044381696	63	32140
2026-01-20 12:03:58.28	342.04	7.03	-46.3	-64.9	3.8	7.45e-01	0	59	104	1044381696	63	31837
2026-01-20 12:04:02.32	342.12	6.71	-46.2	-64.8	3.8	7.46e-01	0	59	104	1044381696	63	31535
2026-01-20 12:04:06.36	342.19	6.39	-46.1	-64.7	3.8	7.49e-01	0	59	104	1044381696	63	31359
2026-01-20 12:04:10.40	342.26	6.07	-46.1	-64.7	3.8	7.46e-01	0	59	104	1044381696	62	33152
2026-01-20 12:04:14.44	342.33	5.76	-46.1	-64.7	3.8	7.45e-01	0	59	104	1044381696	62	33299
2026-01-20 12:04:18.49	342.40	5.45	-46.1	-64.7	3.8	7.46e-01	0	59	104	1044381696	62	33121
2026-01-20 12:04:22.53	342.46	5.15	-46.1	-64.7	3.8	7.46e-01	0	59	104	1044381696	62	33178
2026-01-20 12:04:26.57	342.53	4.85	-46.1	-64.7	3.8	7.42e-01	0	59	104	1044381696	62	33195
2026-01-20 12:04:30.61	342.59	4.55	-46.1	-64.7	3.8	7.43e-01	0	59	104	1044381696	62	33055
2026-01-20 12:04:34.66	342.66	4.26	-46.1	-64.7	3.8	7.45e-01	0	59	104	1044381696	62	33039
2026-01-20 12:04:38.70	342.72	3.97	-46.0	-64.7	3.8	7.46e-01	0	59	104	1044381696	62	33064
2026-01-20 12:04:42.74	342.78	3.68	-46.1	-64.7	3.8	7.48e-01	0	59	104	1044381696	62	32966
2026-01-20 12:04:46.78	342.84	3.40	-46.1	-64.7	3.8	7.49e-01	0	59	104	1044381696	62	33057
2026-01-20 12:04:50.82	342.90	3.12	-46.1	-64.7	3.8	7.42e-01	0	59	104	1044381696	62	33014
2026-01-20 12:04:54.86	342.96	2.85	-46.1	-64.7	3.8	7.45e-01	0	59	104	1044381696	62	33022
2026-01-20 12:04:58.91	343.02	2.57	-46.1	-64.7	3.8	7.45e-01	0	59	104	1044381696	62	33021
2026-01-20 12:05:02.95	343.08	2.30	-46.1	-64.7	3.8	7.49e-01	0	59	104	1044381696	62	32984
2026-01-20 12:05:06.99	343.14	2.03	-45.5	-64.7	3.8	7.45e-01	0	59	104	1044381696	62	33010

#Closed at: 2026-01-20 12:05:10
#Recorded file [1044 MB]: D:/lorett/data/31039_260120_145219.dat