passes_logs/2026/01/20/R2.0S_Moscow/R2.0S_Moscow__20260120_104212_NOAA_21_JPSS-2_rec.log

#Pass ID: 20260120_104212_NOAA 21 (JPSS-2)
#Satellite: NOAA 21 (JPSS-2)
#Configuration: NOAA-21
#almurnet v.1.7.20251203
#Start time: 2026-01-20 10:43:49

#Version: 2.2.20231116
#Station: R2.0S_Moscow
#Location: 37.707566 lon 55.798166 lat
#TLE: 1 54234U 22150A   26019.59425193  .00000067  00000+0  52811-4 0  9997
#TLE: 2 54234  98.7505 320.4385 0000607 256.3203 103.7906 14.19535690165464

#Time	Az	El	Level	Level2	SNR	BER	BlckErr	Temp	State	Recorded	gain1	gain2
2026-01-20 10:43:49.23	188.22	8.67	-44.9	-56.7	3.8	8.46e-01	0	59	0	0	60	14716
2026-01-20 10:43:52.26	188.39	8.91	-45.2	-57.6	3.8	1.49e+00	0	59	104	0	62	14597
2026-01-20 10:43:55.29	188.57	9.15	-44.8	-57.2	3.8	1.49e+00	0	59	104	0	61	14811
2026-01-20 10:43:58.32	188.76	9.39	-43.9	-55.9	3.8	1.49e+00	0	59	104	0	58	15187
2026-01-20 10:44:01.36	188.94	9.64	-43.9	-55.7	3.8	1.49e+00	0	59	104	0	58	14756
2026-01-20 10:44:04.39	189.13	9.88	-43.9	-55.5	3.8	1.49e+00	0	59	104	0	58	14494
2026-01-20 10:44:07.42	189.32	10.13	-43.8	-55.2	3.8	1.49e+00	0	59	104	0	58	13971
2026-01-20 10:44:10.45	189.52	10.38	-43.8	-54.6	3.8	1.49e+00	0	59	104	0	58	13015
2026-01-20 10:44:13.48	189.71	10.63	-43.6	-53.6	3.9	1.47e+00	0	59	104	0	58	11615
2026-01-20 10:44:16.51	189.91	10.89	-43.4	-51.5	4.6	1.28e+00	0	59	104	0	58	9092
2026-01-20 10:44:19.55	190.12	11.15	-43.1	-50.0	5.4	5.39e-01	0	59	0	4194304	58	7661
2026-01-20 10:44:22.57	190.33	11.41	-42.8	-48.9	6.2	2.93e-01	0	59	0	13631488	57	7131
2026-01-20 10:44:25.60	190.54	11.67	-42.8	-49.0	6.1	3.02e-01	0	59	0	23068672	57	7255
2026-01-20 10:44:28.63	190.75	11.93	-43.0	-49.7	5.6	4.47e-01	0	59	0	32505856	57	7891
2026-01-20 10:44:31.66	190.97	12.20	-42.8	-48.9	6.2	3.20e-01	0	59	0	41943040	57	7162
2026-01-20 10:44:34.69	191.19	12.47	-41.8	-46.2	8.5	4.83e-02	0	59	0	51380224	55	5891
2026-01-20 10:44:37.73	191.42	12.74	-40.7	-44.0	10.8	3.23e-03	0	59	0	60817408	53	5119
2026-01-20 10:44:40.76	191.65	13.02	-40.1	-43.0	11.8	5.42e-04	0	59	0	70254592	52	4867
2026-01-20 10:44:43.79	191.88	13.30	-44.3	-55.3	3.8	1.22e-02	0	59	104	79691776	59	13384
2026-01-20 10:44:46.82	192.12	13.58	-41.3	-45.1	9.7	1.32e-02	0	59	0	82837504	54	5497
2026-01-20 10:44:49.85	192.37	13.86	-40.2	-43.2	11.5	8.03e-04	0	59	0	90177536	52	4928
2026-01-20 10:44:52.88	192.61	14.15	-40.0	-42.7	12.2	3.51e-04	0	59	0	99614720	52	4694
2026-01-20 10:44:55.91	192.87	14.44	-40.1	-42.9	12.1	2.46e-04	0	59	0	109051904	52	4777
2026-01-20 10:44:58.94	193.12	14.73	-40.1	-42.9	12.2	2.08e-04	0	59	0	118489088	52	4786
2026-01-20 10:45:01.97	193.39	15.03	-40.1	-42.9	12.1	2.78e-04	0	59	0	127926272	52	4814
2026-01-20 10:45:05.00	193.65	15.33	-40.0	-42.9	11.9	3.81e-04	0	59	0	138412032	52	4762
2026-01-20 10:45:08.03	193.92	15.63	-39.9	-42.9	11.4	8.84e-04	0	59	0	147849216	51	5092
2026-01-20 10:45:11.05	194.20	15.93	-39.9	-42.9	11.1	1.63e-03	0	59	0	157286400	51	5095
2026-01-20 10:45:14.08	194.48	16.24	-40.0	-43.1	10.9	2.10e-03	0	59	0	166723584	51	5189
2026-01-20 10:45:17.11	194.77	16.55	-40.1	-43.1	11.4	9.82e-04	0	59	0	176160768	51	5192
2026-01-20 10:45:20.14	195.07	16.86	-40.3	-43.2	11.8	5.62e-04	0	59	0	185597952	51	5233
2026-01-20 10:45:23.17	195.37	17.18	-40.3	-43.1	11.9	3.84e-04	0	59	0	195035136	51	5217
2026-01-20 10:45:26.20	195.68	17.50	-40.5	-43.3	12.0	3.07e-04	0	59	0	204472320	51	5335
2026-01-20 10:45:29.22	195.99	17.83	-40.5	-43.1	12.4	1.62e-04	0	59	0	213909504	51	5213
2026-01-20 10:45:32.25	196.31	18.16	-40.5	-43.2	12.5	1.28e-04	0	59	0	223346688	51	5237
2026-01-20 10:45:35.29	196.64	18.49	-40.4	-43.0	12.7	8.08e-05	0	59	0	232783872	51	5148
2026-01-20 10:45:38.32	196.97	18.83	-40.3	-42.9	12.8	5.49e-05	0	59	0	242221056	51	5043
2026-01-20 10:45:41.35	197.31	19.17	-40.1	-42.6	13.0	3.05e-05	0	59	0	251658240	51	4909
2026-01-20 10:45:44.38	197.66	19.51	-40.1	-42.5	13.2	1.67e-05	0	59	0	261095424	51	4841
2026-01-20 10:45:47.41	198.01	19.86	-40.0	-42.4	13.2	2.05e-05	0	59	0	270532608	51	4805
2026-01-20 10:45:50.43	198.38	20.20	-40.0	-42.4	13.2	1.75e-05	0	59	0	279969792	51	4805
2026-01-20 10:45:53.46	198.75	20.56	-39.9	-42.2	13.5	1.44e-05	0	59	0	289406976	51	4667
2026-01-20 10:45:56.49	199.13	20.92	-39.7	-42.0	13.8	4.50e-06	0	59	0	298844160	51	4563
2026-01-20 10:45:59.53	199.52	21.28	-39.6	-41.8	14.0	7.00e-07	0	59	0	308281344	51	4473
2026-01-20 10:46:02.56	199.92	21.65	-39.7	-42.0	13.8	2.20e-06	0	59	0	317718528	51	4562
2026-01-20 10:46:05.59	200.33	22.02	-39.7	-42.0	13.8	7.00e-07	0	59	0	327155712	51	4562
2026-01-20 10:46:08.61	200.74	22.39	-39.6	-41.8	14.0	3.80e-06	0	59	0	336592896	51	4467
2026-01-20 10:46:11.64	201.17	22.77	-39.5	-41.7	14.2	2.20e-06	0	59	0	346030080	51	4393
2026-01-20 10:46:14.67	201.61	23.15	-39.6	-41.8	14.1	1.50e-06	0	59	0	355467264	51	4446
2026-01-20 10:46:17.70	202.05	23.54	-39.5	-41.6	14.2	1.50e-06	0	59	0	364904448	50	4623
2026-01-20 10:46:20.72	202.51	23.93	-39.5	-41.6	14.3	7.00e-07	0	59	0	374341632	50	4599
2026-01-20 10:46:23.75	202.98	24.32	-39.3	-41.4	14.4	7.00e-07	0	59	0	383778816	50	4529
2026-01-20 10:46:26.78	203.46	24.72	-39.4	-41.5	14.4	2.20e-06	0	59	0	393216000	50	4578
2026-01-20 10:46:29.81	203.96	25.12	-39.6	-41.7	14.3	1.50e-06	0	59	0	402653184	50	4669
2026-01-20 10:46:32.83	204.46	25.52	-39.7	-41.8	14.1	2.20e-06	0	59	0	412090368	50	4753
2026-01-20 10:46:35.86	204.98	25.93	-39.7	-41.9	14.0	3.80e-06	0	59	0	421527552	50	4785
2026-01-20 10:46:38.89	205.51	26.35	-39.8	-42.0	14.0	3.80e-06	0	59	0	430964736	50	4823
2026-01-20 10:46:41.92	206.06	26.76	-39.9	-42.2	13.7	5.30e-06	0	59	0	440401920	50	4969
2026-01-20 10:46:44.95	206.62	27.19	-40.1	-42.4	13.5	9.90e-06	0	59	0	449839104	50	5091
2026-01-20 10:46:47.99	207.19	27.61	-40.2	-42.5	13.4	9.90e-06	0	59	0	459276288	51	4861
2026-01-20 10:46:51.01	207.78	28.04	-40.2	-42.5	13.4	1.29e-05	0	59	0	468713472	51	4857
2026-01-20 10:46:54.05	208.39	28.47	-40.1	-42.5	13.5	9.10e-06	0	59	0	479199232	51	4838
2026-01-20 10:46:57.07	209.01	28.91	-40.2	-42.5	13.4	1.22e-05	0	60	0	488636416	51	4840
2026-01-20 10:47:00.11	209.65	29.34	-40.2	-42.5	13.5	1.14e-05	0	59	0	498073600	51	4828
2026-01-20 10:47:03.14	210.31	29.79	-40.1	-42.4	13.6	1.44e-05	0	59	0	507510784	51	4795
2026-01-20 10:47:06.17	210.98	30.23	-40.1	-42.5	13.6	8.30e-06	0	59	0	516947968	51	4815
2026-01-20 10:47:09.20	211.67	30.68	-40.1	-42.4	13.7	5.30e-06	0	59	0	526385152	51	4768
2026-01-20 10:47:12.23	212.38	31.12	-40.1	-42.3	13.7	3.00e-06	0	60	0	535822336	51	4746
2026-01-20 10:47:15.26	213.12	31.57	-40.2	-42.6	13.5	8.30e-06	0	60	0	545259520	51	4873
2026-01-20 10:47:18.28	213.86	32.03	-40.6	-43.1	12.9	4.65e-05	0	60	0	554696704	51	5190
2026-01-20 10:47:21.31	214.64	32.48	-40.6	-43.1	12.8	6.40e-05	0	59	0	564133888	52	4910
2026-01-20 10:47:24.34	215.43	32.93	-40.7	-43.4	12.5	1.31e-04	0	59	0	573571072	52	5076
2026-01-20 10:47:27.37	216.24	33.39	-40.7	-43.3	12.6	8.69e-05	0	59	0	583008256	52	5013
2026-01-20 10:47:30.40	217.08	33.85	-40.8	-43.5	12.5	1.28e-04	0	59	0	592445440	52	5108
2026-01-20 10:47:33.43	217.94	34.30	-40.6	-43.2	12.7	7.62e-05	0	60	0	601882624	52	4960
2026-01-20 10:47:36.46	218.83	34.76	-40.8	-43.5	12.4	1.42e-04	0	60	0	611319808	52	5145
2026-01-20 10:47:39.49	219.74	35.21	-40.9	-43.6	12.3	1.77e-04	0	59	0	620756992	52	5185
2026-01-20 10:47:42.53	220.68	35.66	-41.0	-43.8	12.1	2.75e-04	0	60	0	630194176	52	5338
2026-01-20 10:47:45.56	221.64	36.11	-41.3	-44.3	11.6	6.48e-04	0	60	0	639631360	53	5305
2026-01-20 10:47:48.59	222.63	36.56	-41.3	-44.3	11.6	7.06e-04	0	59	0	649068544	53	5312
2026-01-20 10:47:51.61	223.64	37.00	-41.4	-44.5	11.5	8.56e-04	0	59	0	658505728	53	5410
2026-01-20 10:47:54.64	224.68	37.44	-41.6	-44.7	11.2	1.18e-03	0	59	0	667942912	53	5569
2026-01-20 10:47:57.67	225.75	37.88	-41.2	-44.2	11.8	5.39e-04	0	59	0	677380096	53	5219
2026-01-20 10:48:00.70	226.85	38.31	-41.1	-43.9	12.0	3.08e-04	0	59	0	686817280	53	5069
2026-01-20 10:48:03.73	227.97	38.73	-41.0	-43.8	12.0	3.11e-04	0	60	0	696254464	53	5029
2026-01-20 10:48:06.75	229.12	39.14	-41.1	-43.9	12.1	3.17e-04	0	60	0	705691648	53	5080
2026-01-20 10:48:09.78	230.31	39.55	-41.2	-44.1	11.9	3.62e-04	0	60	0	715128832	53	5190
2026-01-20 10:48:12.81	231.52	39.95	-41.3	-44.3	11.7	6.23e-04	0	60	0	724566016	53	5308
2026-01-20 10:48:15.84	232.76	40.33	-41.5	-44.5	11.5	9.03e-04	0	60	0	734003200	53	5430
2026-01-20 10:48:18.87	234.04	40.71	-41.8	-45.1	10.9	2.15e-03	0	59	0	743440384	54	5466
2026-01-20 10:48:21.90	235.34	41.07	-41.6	-44.8	11.1	1.30e-03	0	59	0	752877568	54	5306
2026-01-20 10:48:24.92	236.66	41.42	-41.8	-45.0	10.9	1.88e-03	0	59	0	762314752	54	5446
2026-01-20 10:48:27.95	238.02	41.76	-41.9	-45.3	10.6	3.32e-03	0	59	0	771751936	54	5598
2026-01-20 10:48:30.98	239.41	42.08	-42.2	-45.8	10.1	6.44e-03	0	59	0	781189120	54	5968
2026-01-20 10:48:34.01	240.82	42.39	-42.1	-45.6	10.3	5.67e-03	0	59	0	790626304	55	5486
2026-01-20 10:48:37.04	242.26	42.68	-41.9	-45.3	10.5	4.10e-03	0	59	0	800063488	55	5287
2026-01-20 10:48:40.07	243.72	42.95	-41.7	-44.9	10.9	2.26e-03	0	60	0	809500672	55	5092
2026-01-20 10:48:43.10	245.20	43.20	-41.9	-45.2	10.6	2.39e-03	0	59	0	818937856	54	5591
2026-01-20 10:48:46.13	246.71	43.43	-41.8	-45.2	10.7	3.40e-03	0	59	0	829423616	54	5546
2026-01-20 10:48:49.16	248.24	43.64	-42.1	-45.7	10.1	5.42e-03	0	60	0	838860800	54	5873
2026-01-20 10:48:52.19	249.79	43.83	-42.1	-45.6	10.2	7.29e-03	0	59	0	848297984	55	5512
2026-01-20 10:48:55.22	251.36	44.00	-41.8	-45.1	10.8	2.84e-03	0	60	0	857735168	55	5200
2026-01-20 10:48:58.25	252.94	44.15	-41.7	-44.9	11.1	1.79e-03	0	60	0	867172352	55	5042
2026-01-20 10:49:01.28	254.53	44.27	-41.7	-44.9	10.9	1.97e-03	0	60	0	876609536	55	5082
2026-01-20 10:49:04.31	256.14	44.37	-41.7	-44.9	11.0	1.70e-03	0	60	0	886046720	55	5077
2026-01-20 10:49:07.34	257.75	44.44	-41.9	-45.2	10.7	2.90e-03	0	60	0	895483904	55	5225
2026-01-20 10:49:10.37	259.37	44.49	-42.0	-45.5	10.4	5.22e-03	0	60	0	904921088	55	5437
2026-01-20 10:49:13.40	260.99	44.51	-41.8	-45.0	10.8	2.15e-03	0	60	0	914358272	55	5134
2026-01-20 10:49:16.42	262.61	44.51	-41.5	-44.6	11.3	1.17e-03	0	60	0	923795456	55	4895
2026-01-20 10:49:19.45	264.23	44.48	-41.4	-44.4	11.4	9.50e-04	0	60	0	933232640	54	5091
2026-01-20 10:49:22.48	265.85	44.43	-41.8	-45.0	10.8	2.35e-03	0	60	0	942669824	54	5455
2026-01-20 10:49:25.51	267.46	44.35	-41.5	-44.5	11.3	1.17e-03	0	60	0	952107008	54	5134
2026-01-20 10:49:28.54	269.06	44.25	-41.5	-44.5	11.3	1.17e-03	0	60	0	961544192	54	5144
2026-01-20 10:49:31.57	270.65	44.13	-41.4	-44.4	11.5	7.17e-04	0	60	0	970981376	54	5062
2026-01-20 10:49:34.60	272.23	43.98	-41.5	-44.6	11.2	1.16e-03	0	60	0	980418560	54	5174
2026-01-20 10:49:37.63	273.79	43.81	-42.2	-45.9	10.0	6.47e-03	0	60	0	989855744	54	6003
2026-01-20 10:49:40.65	275.33	43.62	-41.8	-45.1	10.7	3.40e-03	0	60	0	999292928	55	5217
2026-01-20 10:49:43.68	276.85	43.41	-41.6	-44.8	11.0	1.91e-03	0	60	0	1008730112	55	5018
2026-01-20 10:49:46.71	278.35	43.17	-41.9	-45.3	10.5	3.61e-03	0	60	0	1018167296	55	5332
2026-01-20 10:49:49.74	279.83	42.92	-41.5	-44.6	11.3	1.17e-03	0	60	0	1027604480	55	4875
2026-01-20 10:49:52.77	281.29	42.65	-41.3	-44.3	11.6	6.31e-04	0	60	0	1037041664	54	5008
2026-01-20 10:49:55.80	282.72	42.36	-42.7	-46.1	9.9	8.07e-03	0	60	0	1046478848	55	5795
2026-01-20 10:49:58.83	284.13	42.05	-41.7	-45.0	10.8	2.85e-03	0	60	0	1055916032	55	5121
2026-01-20 10:50:01.86	285.51	41.73	-41.5	-44.5	11.3	1.08e-03	0	60	0	1065353216	54	5138
2026-01-20 10:50:04.89	286.86	41.39	-42.1	-45.8	9.9	7.88e-03	0	60	0	1074790400	54	5945
2026-01-20 10:50:07.92	288.18	41.04	-41.4	-44.5	11.3	1.05e-03	0	60	0	1084227584	54	5116
2026-01-20 10:50:10.95	289.47	40.68	-41.7	-44.9	10.8	2.13e-03	0	60	0	1093664768	54	5370
2026-01-20 10:50:13.98	290.74	40.30	-41.9	-45.4	10.4	4.78e-03	0	60	0	1103101952	54	5676
2026-01-20 10:50:17.01	291.98	39.91	-41.4	-44.5	11.4	1.12e-03	0	59	0	1112539136	54	5110
2026-01-20 10:50:20.04	293.18	39.52	-41.6	-44.8	11.0	1.72e-03	0	60	0	1121976320	54	5320
2026-01-20 10:50:23.07	294.36	39.11	-41.5	-44.5	11.4	1.28e-03	0	60	0	1131413504	54	5130
2026-01-20 10:50:26.10	295.51	38.70	-41.6	-44.8	11.1	1.82e-03	0	60	0	1140850688	54	5297
2026-01-20 10:50:29.13	296.63	38.28	-41.5	-44.7	11.2	1.46e-03	0	60	0	1151336448	54	5230
2026-01-20 10:50:32.16	297.72	37.85	-41.6	-44.8	11.1	1.97e-03	0	60	0	1159725056	54	5291
2026-01-20 10:50:35.19	298.78	37.42	-41.1	-44.0	11.9	4.72e-04	0	60	0	1170210816	54	4820
2026-01-20 10:50:38.22	299.82	36.98	-40.9	-43.5	12.3	1.73e-04	0	60	0	1179648000	53	4854
2026-01-20 10:50:41.25	300.82	36.54	-41.1	-43.9	11.9	3.87e-04	0	60	0	1189085184	53	5081
2026-01-20 10:50:44.28	301.81	36.09	-41.1	-43.9	11.9	4.52e-04	0	60	0	1198522368	53	5072
2026-01-20 10:50:47.30	302.76	35.65	-41.2	-44.1	11.6	6.41e-04	0	60	0	1207959552	53	5218
2026-01-20 10:50:50.33	303.69	35.20	-41.2	-44.1	11.7	5.35e-04	0	60	0	1217396736	53	5186
2026-01-20 10:50:53.36	304.59	34.75	-41.2	-44.2	11.6	7.00e-04	0	60	0	1226833920	53	5253
2026-01-20 10:50:56.39	305.47	34.29	-40.9	-43.6	12.2	2.87e-04	0	60	0	1236271104	53	4908
2026-01-20 10:50:59.42	306.33	33.84	-40.8	-43.4	12.4	1.38e-04	0	60	0	1245708288	53	4790
2026-01-20 10:51:02.44	307.16	33.39	-40.5	-43.0	12.8	7.24e-05	0	59	0	1255145472	53	4590
2026-01-20 10:51:05.48	307.97	32.93	-40.4	-42.9	12.9	7.47e-05	0	60	0	1264582656	52	4808
2026-01-20 10:51:08.50	308.76	32.48	-40.1	-42.5	13.4	1.83e-05	0	60	0	1274019840	52	4548
2026-01-20 10:51:11.53	309.52	32.03	-40.0	-42.3	13.6	9.90e-06	0	60	0	1283457024	51	4711
2026-01-20 10:51:14.57	310.27	31.58	-39.9	-42.1	13.8	3.80e-06	0	59	0	1292894208	51	4603
2026-01-20 10:51:17.60	311.00	31.14	-39.9	-42.2	13.7	6.80e-06	0	60	0	1302331392	51	4660
2026-01-20 10:51:20.62	311.71	30.69	-39.7	-41.9	13.9	4.50e-06	0	60	0	1311768576	51	4519
2026-01-20 10:51:23.65	312.39	30.25	-39.8	-42.0	13.8	4.50e-06	0	59	0	1321205760	51	4553
2026-01-20 10:51:26.68	313.07	29.81	-40.0	-42.2	13.6	6.80e-06	0	60	0	1330642944	51	4692
2026-01-20 10:51:29.71	313.72	29.37	-40.0	-42.3	13.5	9.90e-06	0	59	0	1340080128	51	4719
2026-01-20 10:51:32.74	314.35	28.94	-40.1	-42.5	13.3	1.83e-05	0	60	0	1349517312	51	4820
2026-01-20 10:51:35.77	314.97	28.51	-40.0	-42.4	13.4	1.52e-05	0	59	0	1358954496	51	4764
2026-01-20 10:51:38.81	315.58	28.08	-40.1	-42.4	13.4	1.14e-05	0	60	0	1368391680	51	4783
2026-01-20 10:51:41.83	316.16	27.65	-40.0	-42.3	13.5	8.30e-06	0	60	0	1377828864	51	4750
2026-01-20 10:51:44.86	316.74	27.23	-40.1	-42.4	13.4	1.52e-05	0	60	0	1387266048	51	4794
2026-01-20 10:51:47.89	317.29	26.81	-40.0	-42.3	13.5	1.14e-05	0	59	0	1396703232	51	4733
2026-01-20 10:51:50.92	317.84	26.40	-39.7	-41.9	13.9	1.50e-06	0	60	0	1406140416	51	4529
2026-01-20 10:51:53.95	318.37	25.99	-39.6	-41.7	14.1	4.50e-06	0	60	0	1415577600	51	4410
2026-01-20 10:51:56.98	318.88	25.58	-39.4	-41.5	14.2	0.00e+00	0	60	0	1425014784	50	4579
2026-01-20 10:52:00.01	319.39	25.18	-39.5	-41.7	14.0	2.20e-06	0	60	0	1434451968	50	4664
2026-01-20 10:52:03.04	319.88	24.78	-39.7	-42.0	13.8	3.00e-06	0	59	0	1443889152	50	4832
2026-01-20 10:52:06.07	320.36	24.38	-39.8	-42.1	13.6	7.60e-06	0	60	0	1453326336	50	4916
2026-01-20 10:52:09.10	320.83	23.99	-39.8	-42.1	13.7	5.30e-06	0	60	0	1462763520	50	4871
2026-01-20 10:52:12.13	321.29	23.61	-39.9	-42.2	13.5	1.14e-05	0	60	0	1473249280	50	4932
2026-01-20 10:52:15.16	321.73	23.22	-39.8	-42.1	13.6	9.90e-06	0	59	0	1481637888	50	4895
2026-01-20 10:52:18.18	322.17	22.85	-39.8	-42.0	13.6	6.80e-06	0	60	0	1492123648	50	4852
2026-01-20 10:52:21.21	322.59	22.47	-39.9	-42.2	13.5	1.14e-05	0	60	0	1500512256	50	4955
2026-01-20 10:52:24.24	323.01	22.10	-39.8	-42.1	13.6	1.22e-05	0	59	0	1510998016	50	4897
2026-01-20 10:52:27.26	323.42	21.73	-39.9	-42.3	13.4	1.60e-05	0	60	0	1520435200	50	4999
2026-01-20 10:52:30.29	323.81	21.37	-39.9	-42.3	13.3	1.98e-05	0	60	0	1529872384	50	5011
2026-01-20 10:52:33.32	324.20	21.01	-39.8	-42.1	13.5	1.22e-05	0	59	0	1539309568	50	4906
2026-01-20 10:52:36.34	324.58	20.66	-39.8	-42.1	13.5	9.10e-06	0	60	0	1548746752	50	4904
2026-01-20 10:52:39.37	324.95	20.30	-39.8	-42.2	13.4	1.22e-05	0	60	0	1558183936	50	4937
2026-01-20 10:52:42.40	325.32	19.96	-39.8	-42.1	13.5	7.60e-06	0	60	0	1567621120	50	4899
2026-01-20 10:52:45.43	325.67	19.61	-39.8	-42.1	13.4	6.80e-06	0	59	0	1577058304	50	4919
2026-01-20 10:52:48.46	326.02	19.27	-39.8	-42.1	13.5	8.30e-06	0	60	0	1586495488	50	4888
2026-01-20 10:52:51.49	326.36	18.94	-39.5	-41.8	13.8	3.00e-06	0	60	0	1595932672	50	4716
2026-01-20 10:52:54.52	326.70	18.60	-39.6	-41.9	13.6	9.10e-06	0	60	0	1605369856	50	4760
2026-01-20 10:52:57.55	327.03	18.27	-39.8	-42.1	13.4	1.60e-05	0	59	0	1614807040	50	4890
2026-01-20 10:53:00.58	327.35	17.95	-39.8	-42.2	13.2	2.28e-05	0	60	0	1624244224	50	4949
2026-01-20 10:53:03.61	327.66	17.62	-40.0	-42.4	13.0	3.66e-05	0	59	0	1633681408	50	5100
2026-01-20 10:53:06.64	327.97	17.30	-40.1	-42.6	12.8	4.27e-05	0	60	0	1643118592	50	5198
2026-01-20 10:53:09.66	328.27	16.99	-40.2	-42.9	12.6	9.15e-05	0	60	0	1652555776	51	5044
2026-01-20 10:53:12.70	328.56	16.68	-40.2	-42.8	12.6	9.15e-05	0	60	0	1661992960	51	5028
2026-01-20 10:53:15.72	328.85	16.37	-40.4	-43.1	12.3	1.61e-04	0	59	0	1671430144	51	5166
2026-01-20 10:53:18.75	329.14	16.06	-40.4	-43.1	12.2	2.31e-04	0	60	0	1680867328	51	5203
2026-01-20 10:53:21.78	329.42	15.76	-40.4	-43.1	12.2	1.76e-04	0	59	0	1690304512	51	5161
2026-01-20 10:53:24.81	329.69	15.46	-40.2	-42.8	12.5	1.16e-04	0	59	0	1699741696	51	5008
2026-01-20 10:53:27.83	329.96	15.16	-40.2	-42.8	12.4	1.37e-04	0	59	0	1709178880	51	4997
2026-01-20 10:53:30.86	330.22	14.87	-40.3	-43.0	12.2	2.13e-04	0	60	0	1718616064	51	5148
2026-01-20 10:53:33.89	330.48	14.58	-40.3	-43.1	12.1	2.77e-04	0	59	0	1728053248	51	5163
2026-01-20 10:53:36.92	330.73	14.29	-40.3	-43.1	12.1	2.76e-04	0	59	0	1737490432	51	5166
2026-01-20 10:53:39.94	330.98	14.01	-40.4	-43.2	12.0	3.81e-04	0	59	0	1746927616	51	5273
2026-01-20 10:53:42.97	331.23	13.73	-40.5	-43.5	11.7	5.35e-04	0	60	0	1756364800	51	5411
2026-01-20 10:53:46.00	331.47	13.45	-40.6	-43.5	11.6	6.74e-04	0	59	0	1765801984	51	5449
2026-01-20 10:53:49.03	331.70	13.17	-40.6	-43.5	11.5	7.62e-04	0	59	0	1775239168	51	5445
2026-01-20 10:53:52.06	331.93	12.90	-40.6	-43.7	11.3	1.17e-03	0	60	0	1784676352	52	5268
2026-01-20 10:53:55.09	332.16	12.63	-40.6	-43.8	11.2	1.31e-03	0	59	0	1794113536	52	5289
2026-01-20 10:53:58.12	332.39	12.36	-40.7	-43.9	11.0	1.78e-03	0	60	0	1803550720	52	5382
2026-01-20 10:54:01.15	332.61	12.09	-40.8	-44.1	10.8	2.27e-03	0	59	0	1812987904	52	5512
2026-01-20 10:54:04.18	332.82	11.83	-40.6	-43.8	11.0	1.98e-03	0	60	0	1822425088	52	5321
2026-01-20 10:54:07.21	333.04	11.57	-40.6	-43.8	11.0	2.05e-03	0	60	0	1831862272	52	5332
2026-01-20 10:54:10.24	333.25	11.31	-40.6	-43.8	11.0	1.83e-03	0	59	0	1841299456	52	5287
2026-01-20 10:54:13.27	333.45	11.06	-40.6	-43.8	11.0	1.97e-03	0	59	0	1850736640	52	5324
2026-01-20 10:54:16.30	333.65	10.80	-40.7	-43.9	10.8	2.30e-03	0	59	0	1860173824	52	5401
2026-01-20 10:54:19.33	333.85	10.55	-40.7	-44.1	10.7	2.99e-03	0	60	0	1870659584	52	5476
2026-01-20 10:54:22.36	334.05	10.30	-40.6	-44.0	10.6	2.94e-03	0	60	0	1880096768	52	5453
2026-01-20 10:54:25.38	334.24	10.06	-40.6	-43.9	10.7	3.16e-03	0	59	0	1889533952	52	5389
2026-01-20 10:54:28.41	334.43	9.81	-40.6	-44.0	10.6	3.27e-03	0	60	0	1898971136	52	5415
2026-01-20 10:54:31.44	334.62	9.57	-40.5	-43.9	10.6	3.40e-03	0	59	0	1908408320	52	5387
2026-01-20 10:54:34.47	334.81	9.33	-40.6	-44.1	10.4	4.39e-03	0	59	0	1917845504	52	5478
2026-01-20 10:54:37.50	334.99	9.09	-40.6	-44.1	10.2	5.08e-03	0	59	0	1927282688	52	5516
2026-01-20 10:54:40.53	335.17	8.86	-40.7	-44.3	10.0	8.74e-03	0	59	0	1936719872	52	5619
2026-01-20 10:54:43.56	335.34	8.62	-40.6	-44.3	9.8	1.01e-02	0	60	0	1946157056	52	5651
2026-01-20 10:54:46.59	335.52	8.39	-40.6	-44.3	9.8	1.11e-02	0	59	0	1955594240	52	5654
2026-01-20 10:54:49.62	335.69	8.16	-40.8	-44.7	9.3	1.56e-02	0	60	0	1965031424	52	5902
2026-01-20 10:54:52.64	335.86	7.93	-44.3	-56.3	3.8	1.49e+00	0	59	104	1971322880	59	14886
2026-01-20 10:54:55.67	336.03	7.71	-44.9	-57.3	3.8	1.49e+00	0	59	104	1971322880	60	15863
2026-01-20 10:54:58.70	336.19	7.48	-45.2	-57.5	3.8	1.49e+00	0	60	104	1971322880	60	16284
2026-01-20 10:55:01.73	336.35	7.26	-45.2	-57.5	3.8	1.49e+00	0	60	104	1971322880	60	16290
2026-01-20 10:55:04.77	336.51	7.04	-45.2	-57.5	3.8	1.49e+00	0	60	104	1971322880	60	16141
2026-01-20 10:55:07.80	336.67	6.82	-45.1	-57.5	3.8	1.49e+00	0	60	104	1971322880	60	16130
2026-01-20 10:55:10.83	336.82	6.60	-45.1	-57.5	3.8	1.49e+00	0	59	104	1971322880	60	16149
2026-01-20 10:55:13.86	336.98	6.38	-45.1	-57.4	3.8	1.49e+00	0	60	104	1971322880	60	16064
2026-01-20 10:55:16.89	337.13	6.17	-45.0	-57.4	3.8	1.49e+00	0	59	104	1971322880	60	16055
2026-01-20 10:55:19.92	337.28	5.96	-45.1	-57.4	3.8	1.49e+00	0	60	104	1971322880	60	15960
2026-01-20 10:55:22.95	337.43	5.75	-45.1	-57.4	3.8	1.49e+00	0	60	104	1971322880	60	16068
2026-01-20 10:55:25.99	337.57	5.54	-45.1	-57.4	3.8	1.49e+00	0	60	104	1971322880	60	15993
2026-01-20 10:55:29.02	337.72	5.33	-45.0	-57.3	3.8	1.49e+00	0	60	104	1971322880	60	15910
2026-01-20 10:55:32.05	337.86	5.12	-45.0	-57.3	3.8	1.49e+00	0	60	104	1971322880	60	15925
2026-01-20 10:55:35.08	338.00	4.92	-45.0	-57.3	3.8	1.49e+00	0	60	104	1971322880	60	15905
2026-01-20 10:55:38.11	338.13	4.71	-45.0	-57.3	3.8	1.49e+00	0	60	104	1971322880	60	15943
2026-01-20 10:55:41.15	338.27	4.51	-45.0	-57.4	3.8	1.49e+00	0	59	104	1971322880	60	15951
2026-01-20 10:55:44.18	338.41	4.31	-45.0	-57.3	3.8	1.49e+00	0	60	104	1971322880	60	15922
2026-01-20 10:55:47.21	338.54	4.11	-45.0	-57.3	3.8	1.49e+00	0	60	104	1971322880	60	15891
2026-01-20 10:55:50.24	338.67	3.91	-45.0	-57.4	3.8	1.49e+00	0	60	104	1971322880	60	15955
2026-01-20 10:55:53.27	338.80	3.71	-45.0	-57.3	3.8	1.49e+00	0	59	104	1971322880	60	15870
2026-01-20 10:55:56.30	338.93	3.52	-45.0	-57.4	3.8	1.49e+00	0	60	104	1971322880	60	15963
2026-01-20 10:55:59.33	339.06	3.32	-45.0	-57.4	3.8	1.49e+00	0	60	104	1971322880	60	15956
2026-01-20 10:56:02.36	339.18	3.13	-45.0	-57.4	3.8	1.49e+00	0	60	104	1971322880	60	15950
2026-01-20 10:56:05.39	339.31	2.94	-45.0	-57.3	3.8	1.49e+00	0	60	104	1971322880	60	15905
2026-01-20 10:56:08.42	339.43	2.75	-45.0	-57.3	3.8	1.49e+00	0	60	104	1971322880	60	15908
2026-01-20 10:56:11.45	339.55	2.56	-45.0	-57.3	3.8	1.49e+00	0	60	104	1971322880	60	15882
2026-01-20 10:56:14.49	339.67	2.37	-45.0	-57.3	3.8	1.49e+00	0	60	104	1971322880	60	15869
2026-01-20 10:56:17.51	339.79	2.19	-45.0	-57.3	3.8	1.49e+00	0	60	104	1971322880	60	15897
2026-01-20 10:56:20.54	339.91	2.00	-45.0	-57.3	3.8	1.49e+00	0	60	104	1971322880	60	15861

#Closed at: 2026-01-20 10:56:22
#Recorded file [1971 MB]: D:/lorett/data/31039_260120_134349.dat