passes_logs/2026/01/20/R2.0S_Moscow/R2.0S_Moscow__20260120_101603_AQUA_rec.log

#Pass ID: 20260120_101603_AQUA
#Satellite: AQUA
#Configuration: AQUA
#almurnet v.1.7.20251203
#Start time: 2026-01-20 10:16:03

#Version: 2.2.20231116
#Station: R2.0S_Moscow
#Location: 37.707566 lon 55.798166 lat
#TLE: 1 27424U 02022A   26019.60905539  .00000968  00000+0  20374-3 0  9991
#TLE: 2 27424  98.4090 346.1140 0001992  72.7126 342.3847 14.61830366261565

#Time	Az	El	Level	Level2	SNR	BER	BlckErr	Temp	State	Recorded	gain1	gain2
2026-01-20 10:16:03.99	117.15	2.06	-45.9	-64.5	3.8	7.45e-01	0	50	0	0	62	32429
2026-01-20 10:16:07.02	116.93	2.24	-45.9	-64.5	3.8	7.46e-01	0	50	104	0	62	32355
2026-01-20 10:16:10.05	116.71	2.42	-45.9	-64.5	3.8	7.44e-01	0	50	104	0	62	32335
2026-01-20 10:16:13.08	116.49	2.60	-45.9	-64.5	3.8	7.45e-01	0	51	104	0	62	32452
2026-01-20 10:16:16.11	116.26	2.78	-45.9	-64.5	3.8	7.44e-01	0	51	104	0	62	32513
2026-01-20 10:16:19.14	116.03	2.97	-45.9	-64.5	3.8	7.47e-01	0	51	104	0	62	32525
2026-01-20 10:16:22.18	115.80	3.15	-45.9	-64.5	3.8	7.46e-01	0	51	104	0	62	32531
2026-01-20 10:16:25.21	115.56	3.34	-45.9	-64.5	3.8	7.44e-01	0	52	104	0	62	32538
2026-01-20 10:16:28.24	115.32	3.53	-45.9	-64.5	3.8	7.46e-01	0	52	104	0	62	32506
2026-01-20 10:16:31.27	115.08	3.71	-45.9	-64.5	3.8	7.44e-01	0	52	104	0	62	32367
2026-01-20 10:16:34.30	114.83	3.90	-45.9	-64.5	3.8	7.47e-01	0	52	104	0	62	32502
2026-01-20 10:16:37.33	114.59	4.09	-45.9	-64.5	3.8	7.46e-01	0	52	104	0	62	32496
2026-01-20 10:16:40.36	114.33	4.28	-45.9	-64.5	3.8	7.46e-01	0	53	104	0	62	32460
2026-01-20 10:16:43.39	114.07	4.47	-45.9	-64.6	3.8	7.44e-01	0	53	104	0	62	32569
2026-01-20 10:16:46.42	113.81	4.67	-45.9	-64.5	3.8	7.42e-01	0	53	104	0	62	32264
2026-01-20 10:16:49.46	113.55	4.86	-45.9	-64.5	3.8	7.49e-01	0	53	104	0	62	32513
2026-01-20 10:16:52.49	113.28	5.06	-46.0	-64.5	3.8	7.45e-01	0	53	104	0	62	32522
2026-01-20 10:16:55.52	113.01	5.25	-46.0	-64.5	3.8	7.44e-01	0	53	104	0	62	32503
2026-01-20 10:16:58.55	112.73	5.45	-46.0	-64.6	3.8	7.47e-01	0	54	104	0	62	32593
2026-01-20 10:17:01.58	112.45	5.65	-46.0	-64.6	3.8	7.46e-01	0	54	104	0	62	32567
2026-01-20 10:17:04.62	112.16	5.85	-46.0	-64.5	3.8	7.48e-01	0	54	104	0	62	32538
2026-01-20 10:17:07.65	111.87	6.05	-46.0	-64.6	3.8	7.42e-01	0	54	104	0	62	32606
2026-01-20 10:17:10.68	111.58	6.25	-46.0	-64.6	3.8	7.46e-01	0	54	104	0	62	32579
2026-01-20 10:17:13.71	111.28	6.45	-46.0	-64.6	3.8	7.43e-01	0	54	104	0	62	32692
2026-01-20 10:17:16.74	110.97	6.65	-46.0	-64.6	3.8	7.43e-01	0	54	104	0	62	32631
2026-01-20 10:17:19.77	110.67	6.86	-46.0	-64.6	3.8	7.43e-01	0	54	104	0	62	32676
2026-01-20 10:17:22.80	110.35	7.06	-46.0	-64.6	3.8	7.44e-01	0	54	104	0	62	32611
2026-01-20 10:17:25.83	110.03	7.27	-46.0	-64.6	3.8	7.45e-01	0	55	104	0	62	32617
2026-01-20 10:17:28.86	109.71	7.48	-46.0	-64.6	3.8	7.46e-01	0	55	104	0	62	32681
2026-01-20 10:17:31.90	109.38	7.69	-46.0	-64.6	3.8	7.43e-01	0	55	104	0	62	32666
2026-01-20 10:17:34.93	109.05	7.90	-46.0	-64.6	3.8	7.45e-01	0	55	104	0	62	32679
2026-01-20 10:17:37.96	108.71	8.11	-46.0	-64.6	3.8	7.44e-01	0	55	104	0	62	32653
2026-01-20 10:17:40.99	108.36	8.32	-46.0	-64.6	3.8	7.47e-01	0	55	104	0	62	32703
2026-01-20 10:17:44.02	108.01	8.53	-46.0	-64.6	3.8	7.43e-01	0	55	104	0	62	32699
2026-01-20 10:17:47.05	107.66	8.75	-46.0	-64.6	3.8	7.44e-01	0	55	104	0	62	32820
2026-01-20 10:17:50.09	107.29	8.96	-46.0	-64.6	3.8	7.48e-01	0	56	104	0	62	32794
2026-01-20 10:17:53.11	106.93	9.18	-46.0	-64.6	3.8	7.46e-01	0	56	104	0	62	32721
2026-01-20 10:17:56.14	106.55	9.39	-46.0	-64.6	3.8	7.44e-01	0	55	104	0	62	32812
2026-01-20 10:17:59.17	106.17	9.61	-46.0	-64.6	3.8	7.46e-01	0	56	104	0	62	32758
2026-01-20 10:18:02.21	105.79	9.83	-46.0	-64.6	3.8	7.46e-01	0	56	104	0	62	32847
2026-01-20 10:18:05.24	105.39	10.05	-46.0	-64.6	3.8	7.45e-01	0	56	104	0	62	32787
2026-01-20 10:18:08.27	104.99	10.27	-46.0	-64.6	3.8	7.42e-01	0	56	104	0	62	32774
2026-01-20 10:18:11.30	104.59	10.50	-46.0	-64.6	3.8	7.45e-01	0	56	104	0	62	32773
2026-01-20 10:18:14.33	104.17	10.72	-46.0	-64.6	3.8	7.44e-01	0	56	104	0	62	32847
2026-01-20 10:18:17.36	103.75	10.94	-46.0	-64.6	3.8	7.48e-01	0	56	104	0	62	32812
2026-01-20 10:18:20.39	103.33	11.17	-46.0	-64.6	3.8	7.45e-01	0	56	104	0	62	32906
2026-01-20 10:18:23.42	102.89	11.39	-46.1	-64.6	3.8	7.45e-01	0	56	104	0	62	32870
2026-01-20 10:18:26.46	102.45	11.62	-46.1	-64.6	3.8	7.44e-01	0	57	104	0	62	32823
2026-01-20 10:18:29.49	102.00	11.85	-46.1	-64.7	3.8	7.44e-01	0	56	104	0	62	32942
2026-01-20 10:18:32.52	101.54	12.07	-46.1	-64.6	3.8	7.47e-01	0	57	104	0	62	32927
2026-01-20 10:18:35.55	101.08	12.30	-46.1	-64.6	3.8	7.44e-01	0	57	104	0	62	32876
2026-01-20 10:18:38.58	100.61	12.53	-46.1	-64.7	3.8	7.43e-01	0	57	104	0	62	32995
2026-01-20 10:18:41.62	100.13	12.76	-46.1	-64.7	3.8	7.48e-01	0	57	104	0	62	33036
2026-01-20 10:18:44.64	99.64	12.99	-46.1	-64.7	3.8	7.49e-01	0	57	104	0	62	32959
2026-01-20 10:18:47.68	99.14	13.22	-46.1	-64.7	3.8	7.41e-01	0	57	104	0	62	33089
2026-01-20 10:18:50.71	98.63	13.45	-46.1	-64.7	3.8	7.45e-01	0	57	104	0	62	33034
2026-01-20 10:18:53.74	98.12	13.68	-46.1	-64.7	3.8	7.46e-01	0	57	104	0	62	33152
2026-01-20 10:18:56.77	97.60	13.91	-46.1	-64.7	3.8	7.43e-01	0	57	104	0	62	33128
2026-01-20 10:18:59.80	97.07	14.15	-46.1	-64.7	3.8	7.44e-01	0	57	104	0	62	33097
2026-01-20 10:19:02.83	96.53	14.38	-46.1	-64.7	3.8	7.42e-01	0	57	104	0	62	33086
2026-01-20 10:19:05.87	95.97	14.61	-46.1	-64.7	3.8	7.45e-01	0	57	104	0	62	33132
2026-01-20 10:19:08.90	95.42	14.84	-46.1	-64.7	3.8	7.46e-01	0	57	104	0	62	33147
2026-01-20 10:19:11.93	94.85	15.07	-46.1	-64.7	3.8	7.48e-01	0	57	104	0	62	33204
2026-01-20 10:19:14.96	94.27	15.30	-46.1	-64.7	3.8	7.46e-01	0	57	104	0	62	33179
2026-01-20 10:19:18.00	93.68	15.53	-46.1	-64.7	3.8	7.45e-01	0	57	104	0	62	33036
2026-01-20 10:19:21.03	93.08	15.76	-46.1	-64.7	3.8	7.44e-01	0	57	104	0	62	33219
2026-01-20 10:19:24.06	92.47	15.99	-46.1	-64.7	3.8	7.46e-01	0	58	104	0	62	33220
2026-01-20 10:19:27.09	91.86	16.22	-46.1	-64.7	3.8	7.47e-01	0	58	104	0	62	33230
2026-01-20 10:19:30.12	91.23	16.45	-46.1	-64.7	3.8	7.47e-01	0	57	104	0	62	33195
2026-01-20 10:19:33.15	90.59	16.67	-46.1	-64.7	3.8	7.43e-01	0	58	104	0	62	33238
2026-01-20 10:19:36.19	89.94	16.90	-46.1	-64.8	3.8	7.44e-01	0	58	104	0	62	33311
2026-01-20 10:19:39.21	89.28	17.12	-46.1	-64.8	3.8	7.44e-01	0	58	104	0	62	33351
2026-01-20 10:19:42.25	88.61	17.35	-46.2	-64.7	3.8	7.45e-01	0	58	104	0	62	33286
2026-01-20 10:19:45.28	87.93	17.57	-46.2	-64.7	3.8	7.46e-01	0	58	104	0	62	33280
2026-01-20 10:19:48.31	87.24	17.79	-46.1	-64.7	3.8	7.45e-01	0	58	104	0	62	33260
2026-01-20 10:19:51.34	86.54	18.00	-46.1	-64.7	3.8	7.48e-01	0	57	104	0	62	33300
2026-01-20 10:19:54.37	85.83	18.22	-46.2	-64.7	3.8	7.47e-01	0	58	104	0	62	33301
2026-01-20 10:19:57.40	85.11	18.43	-46.1	-64.7	3.8	7.45e-01	0	58	104	0	62	33256
2026-01-20 10:20:00.43	84.37	18.64	-46.1	-64.7	3.8	7.44e-01	0	58	104	0	62	33224
2026-01-20 10:20:03.47	83.63	18.85	-46.1	-64.7	3.8	7.43e-01	0	58	104	0	62	33209
2026-01-20 10:20:06.49	82.87	19.05	-46.1	-64.7	3.8	7.45e-01	0	58	104	0	62	33231
2026-01-20 10:20:09.53	82.11	19.25	-46.1	-64.7	3.8	7.40e-01	0	58	104	0	62	33255
2026-01-20 10:20:12.56	81.33	19.45	-46.1	-64.8	3.8	7.45e-01	0	58	104	0	62	33349
2026-01-20 10:20:15.59	80.54	19.64	-46.1	-64.7	3.8	7.44e-01	0	58	104	0	62	33277
2026-01-20 10:20:18.62	79.75	19.83	-46.1	-64.8	3.8	7.46e-01	0	58	104	0	62	33366
2026-01-20 10:20:21.65	78.94	20.02	-46.1	-64.8	3.8	7.41e-01	0	58	104	0	62	33319
2026-01-20 10:20:24.68	78.12	20.20	-46.1	-64.8	3.8	7.42e-01	0	58	104	0	62	33329
2026-01-20 10:20:27.71	77.29	20.38	-46.1	-64.8	3.8	7.43e-01	0	58	104	0	62	33356
2026-01-20 10:20:30.75	76.45	20.55	-46.1	-64.7	3.8	7.45e-01	0	58	104	0	62	33285
2026-01-20 10:20:33.78	75.61	20.72	-46.1	-64.7	3.8	7.47e-01	0	58	104	0	62	33260
2026-01-20 10:20:36.81	74.75	20.88	-46.1	-64.8	3.8	7.49e-01	0	58	104	0	62	33356
2026-01-20 10:20:39.84	73.88	21.04	-46.1	-64.8	3.8	7.45e-01	0	58	104	0	62	33341
2026-01-20 10:20:42.87	73.01	21.19	-46.1	-64.7	3.8	7.44e-01	0	58	104	0	62	33301
2026-01-20 10:20:45.90	72.12	21.33	-46.1	-64.7	3.8	7.45e-01	0	58	104	0	62	33278
2026-01-20 10:20:48.93	71.23	21.47	-46.1	-64.7	3.8	7.48e-01	0	58	104	0	62	33161
2026-01-20 10:20:51.96	70.33	21.60	-46.1	-64.7	3.8	7.47e-01	0	58	104	0	62	33154
2026-01-20 10:20:54.99	69.42	21.73	-46.1	-64.8	3.8	7.47e-01	0	58	104	0	62	33311
2026-01-20 10:20:58.02	68.50	21.85	-46.1	-64.8	3.8	7.44e-01	0	58	104	0	62	33357
2026-01-20 10:21:01.05	67.58	21.96	-46.1	-64.8	3.8	7.47e-01	0	58	104	0	62	33378
2026-01-20 10:21:04.08	66.65	22.06	-46.1	-64.8	3.8	7.42e-01	0	58	104	0	62	33351
2026-01-20 10:21:07.12	65.71	22.16	-46.1	-64.7	3.8	7.47e-01	0	58	104	0	62	33275
2026-01-20 10:21:10.15	64.76	22.25	-46.1	-64.7	3.8	7.48e-01	0	58	104	0	62	33246
2026-01-20 10:21:13.18	63.82	22.33	-46.1	-64.7	3.8	7.47e-01	0	58	104	0	62	33302
2026-01-20 10:21:16.21	62.86	22.41	-46.1	-64.8	3.8	7.47e-01	0	59	104	0	62	33356
2026-01-20 10:21:19.24	61.90	22.47	-46.1	-64.7	3.8	7.48e-01	0	58	104	0	62	33225
2026-01-20 10:21:22.27	60.94	22.53	-46.1	-64.7	3.8	7.44e-01	0	58	104	0	62	33297
2026-01-20 10:21:25.30	59.98	22.58	-46.1	-64.7	3.8	7.45e-01	0	58	104	0	62	33298
2026-01-20 10:21:28.33	59.01	22.62	-46.1	-64.7	3.8	7.44e-01	0	58	104	0	62	33253
2026-01-20 10:21:31.36	58.04	22.66	-46.1	-64.8	3.8	7.47e-01	0	58	104	0	62	33396
2026-01-20 10:21:34.40	57.06	22.68	-46.1	-64.8	3.8	7.44e-01	0	58	104	0	62	33329
2026-01-20 10:21:37.43	56.09	22.70	-46.1	-64.8	3.8	7.42e-01	0	58	104	0	62	33321
2026-01-20 10:21:40.46	55.11	22.71	-46.1	-64.7	3.8	7.46e-01	0	58	104	0	62	33232
2026-01-20 10:21:43.49	54.14	22.71	-46.1	-64.7	3.8	7.44e-01	0	58	104	0	62	33229
2026-01-20 10:21:46.52	53.17	22.70	-46.1	-64.7	3.8	7.49e-01	0	59	104	0	62	33228
2026-01-20 10:21:49.55	52.19	22.68	-46.1	-64.7	3.8	7.48e-01	0	58	104	0	62	33212
2026-01-20 10:21:52.59	51.22	22.66	-46.1	-64.7	3.8	7.43e-01	0	58	104	0	62	33165
2026-01-20 10:21:55.62	50.25	22.62	-46.1	-64.7	3.8	7.48e-01	0	59	104	0	62	33241
2026-01-20 10:21:58.65	49.28	22.58	-46.1	-64.7	3.8	7.47e-01	0	59	104	0	62	33185
2026-01-20 10:22:01.65	48.33	22.53	-46.1	-64.7	3.8	7.46e-01	0	58	104	0	62	33150
2026-01-20 10:22:04.69	47.36	22.47	-46.1	-64.7	3.8	7.44e-01	0	59	104	0	62	33189
2026-01-20 10:22:07.72	46.41	22.40	-46.1	-64.7	3.8	7.42e-01	0	59	104	0	62	33072
2026-01-20 10:22:10.75	45.45	22.33	-46.1	-64.7	3.8	7.44e-01	0	59	104	0	62	33035
2026-01-20 10:22:13.78	44.51	22.24	-46.1	-64.7	3.8	7.46e-01	0	59	104	0	62	33037
2026-01-20 10:22:16.81	43.57	22.15	-46.1	-64.7	3.8	7.44e-01	0	59	104	0	62	33152
2026-01-20 10:22:19.84	42.63	22.05	-46.1	-64.7	3.8	7.45e-01	0	59	104	0	62	32994
2026-01-20 10:22:22.87	41.70	21.95	-46.1	-64.7	3.8	7.48e-01	0	59	104	0	62	33049
2026-01-20 10:22:25.91	40.78	21.84	-46.1	-64.6	3.8	7.50e-01	0	59	104	0	62	32803
2026-01-20 10:22:28.94	39.87	21.72	-46.1	-64.7	3.8	7.46e-01	0	59	104	0	62	32955
2026-01-20 10:22:31.97	38.96	21.59	-46.0	-64.7	3.8	7.46e-01	0	59	104	0	62	32949
2026-01-20 10:22:35.00	38.06	21.46	-46.0	-64.6	3.8	7.46e-01	0	59	104	0	62	32814
2026-01-20 10:22:38.04	37.17	21.32	-46.0	-64.6	3.8	7.43e-01	0	59	104	0	62	32690
2026-01-20 10:22:41.07	36.29	21.17	-46.0	-64.6	3.8	7.44e-01	0	59	104	0	62	32852
2026-01-20 10:22:44.10	35.42	21.02	-45.9	-64.6	3.8	7.44e-01	0	59	104	0	62	32574
2026-01-20 10:22:47.13	34.55	20.87	-46.0	-64.7	3.8	7.43e-01	0	59	104	0	62	32971
2026-01-20 10:22:50.16	33.70	20.70	-46.0	-64.6	3.8	7.45e-01	0	59	104	0	62	32895
2026-01-20 10:22:53.19	32.86	20.54	-46.0	-64.7	3.8	7.47e-01	0	59	104	0	62	32954
2026-01-20 10:22:56.22	32.02	20.36	-46.0	-64.6	3.8	7.44e-01	0	59	104	0	62	32860
2026-01-20 10:22:59.25	31.20	20.19	-46.0	-64.7	3.8	7.46e-01	0	59	104	0	62	32940
2026-01-20 10:23:02.29	30.38	20.01	-46.0	-64.6	3.8	7.45e-01	0	59	104	0	62	32787
2026-01-20 10:23:05.32	29.58	19.82	-46.0	-64.6	3.8	7.45e-01	0	59	104	0	62	32801
2026-01-20 10:23:08.35	28.79	19.63	-46.0	-64.6	3.8	7.40e-01	0	59	104	0	62	32780
2026-01-20 10:23:11.38	28.01	19.44	-46.0	-64.6	3.8	7.47e-01	0	59	104	0	62	32823
2026-01-20 10:23:14.42	27.23	19.24	-46.0	-64.6	3.8	7.46e-01	0	59	104	0	62	32816
2026-01-20 10:23:17.45	26.47	19.04	-46.0	-64.6	3.8	7.49e-01	0	59	104	0	62	32802
2026-01-20 10:23:20.48	25.72	18.84	-46.0	-64.6	3.8	7.49e-01	0	59	104	0	62	32836
2026-01-20 10:23:23.51	24.98	18.63	-46.0	-64.6	3.8	7.45e-01	0	59	104	0	62	32767
2026-01-20 10:23:26.54	24.25	18.42	-46.0	-64.6	3.8	7.48e-01	0	59	104	0	62	32766
2026-01-20 10:23:29.57	23.54	18.21	-46.0	-64.6	3.8	7.46e-01	0	59	104	0	62	32790
2026-01-20 10:23:32.60	22.83	18.00	-46.0	-64.6	3.8	7.46e-01	0	59	104	0	62	32759
2026-01-20 10:23:35.64	22.13	17.78	-46.0	-64.6	3.8	7.44e-01	0	59	104	0	62	32819
2026-01-20 10:23:38.67	21.44	17.56	-46.0	-64.6	3.8	7.46e-01	0	59	104	0	62	32887
2026-01-20 10:23:41.70	20.77	17.34	-46.0	-64.6	3.8	7.48e-01	0	59	104	0	62	32763
2026-01-20 10:23:44.73	20.10	17.12	-46.0	-64.6	3.8	7.43e-01	0	59	104	0	62	32771
2026-01-20 10:23:47.76	19.45	16.90	-46.0	-64.6	3.8	7.48e-01	0	59	104	0	62	32675
2026-01-20 10:23:50.79	18.81	16.67	-46.0	-64.6	3.8	7.44e-01	0	59	104	0	62	32766
2026-01-20 10:23:53.83	18.17	16.45	-46.0	-64.6	3.8	7.46e-01	0	59	104	0	62	32726
2026-01-20 10:23:56.86	17.55	16.22	-46.0	-64.6	3.8	7.44e-01	0	59	104	0	62	32721
2026-01-20 10:23:59.89	16.94	15.99	-46.0	-64.6	3.8	7.43e-01	0	59	104	0	62	32725
2026-01-20 10:24:02.91	16.34	15.77	-46.0	-64.6	3.8	7.46e-01	0	59	104	0	62	32727
2026-01-20 10:24:05.95	15.74	15.54	-46.0	-64.6	3.8	7.47e-01	0	59	104	0	62	32621
2026-01-20 10:24:08.98	15.16	15.31	-46.0	-64.6	3.8	7.45e-01	0	59	104	0	62	32592
2026-01-20 10:24:12.01	14.58	15.08	-46.0	-64.6	3.8	7.45e-01	0	59	104	0	62	32650
2026-01-20 10:24:15.04	14.02	14.85	-46.0	-64.6	3.8	7.46e-01	0	59	104	0	62	32634
2026-01-20 10:24:18.07	13.47	14.62	-46.0	-64.6	3.8	7.42e-01	0	59	104	0	62	32630
2026-01-20 10:24:21.10	12.92	14.39	-45.9	-64.6	3.8	7.47e-01	0	59	104	0	62	32605
2026-01-20 10:24:24.13	12.38	14.16	-46.0	-64.5	3.8	7.46e-01	0	59	104	0	62	32551
2026-01-20 10:24:27.17	11.86	13.92	-45.9	-64.5	3.8	7.43e-01	0	59	104	0	62	32539
2026-01-20 10:24:30.20	11.34	13.69	-45.9	-64.5	3.8	7.49e-01	0	59	104	0	62	32544
2026-01-20 10:24:33.23	10.83	13.46	-45.9	-64.5	3.8	7.44e-01	0	59	104	0	62	32461
2026-01-20 10:24:36.26	10.33	13.24	-45.9	-64.5	3.8	7.43e-01	0	59	104	0	62	32415
2026-01-20 10:24:39.29	9.83	13.01	-45.9	-64.5	3.8	7.43e-01	0	59	104	0	62	32320
2026-01-20 10:24:42.32	9.35	12.78	-45.9	-64.5	3.8	7.48e-01	0	59	104	0	62	32417
2026-01-20 10:24:45.35	8.87	12.55	-45.9	-64.5	3.8	7.43e-01	0	59	104	0	62	32456
2026-01-20 10:24:48.39	8.40	12.32	-45.9	-64.5	3.8	7.45e-01	0	59	104	0	62	32290
2026-01-20 10:24:51.42	7.94	12.09	-45.9	-64.5	3.8	7.47e-01	0	59	104	0	62	32243
2026-01-20 10:24:54.45	7.49	11.87	-45.9	-64.5	3.8	7.44e-01	0	59	104	0	62	32218
2026-01-20 10:24:57.48	7.05	11.64	-45.9	-64.5	3.8	7.45e-01	0	59	104	0	62	32275
2026-01-20 10:25:00.51	6.61	11.42	-45.9	-64.5	3.8	7.47e-01	0	59	104	0	62	32219
2026-01-20 10:25:03.54	6.18	11.19	-45.9	-64.5	3.8	7.46e-01	0	59	104	0	62	32227
2026-01-20 10:25:06.57	5.76	10.97	-45.8	-64.4	3.8	7.45e-01	0	59	104	0	62	32165
2026-01-20 10:25:09.60	5.34	10.75	-45.8	-64.4	3.8	7.47e-01	0	59	104	0	62	32152
2026-01-20 10:25:12.63	4.93	10.52	-45.8	-64.4	3.8	7.45e-01	0	59	104	0	62	32166
2026-01-20 10:25:15.66	4.53	10.30	-45.8	-64.4	3.8	7.44e-01	0	59	104	0	62	32113
2026-01-20 10:25:18.70	4.13	10.08	-45.8	-64.4	3.8	7.45e-01	0	59	104	0	62	32121
2026-01-20 10:25:21.72	3.75	9.86	-45.8	-64.4	3.8	7.43e-01	0	59	104	0	62	32041
2026-01-20 10:25:24.75	3.36	9.65	-45.8	-64.4	3.8	7.44e-01	0	59	104	0	62	32074
2026-01-20 10:25:27.79	2.99	9.43	-45.8	-64.4	3.8	7.45e-01	0	59	104	0	62	32018
2026-01-20 10:25:30.82	2.62	9.21	-45.8	-64.4	3.8	7.46e-01	0	59	104	0	62	31993
2026-01-20 10:25:33.85	2.25	9.00	-45.8	-64.4	3.8	7.45e-01	0	59	104	0	62	31955
2026-01-20 10:25:36.88	1.90	8.78	-45.7	-64.3	3.8	7.45e-01	0	59	104	0	62	31758
2026-01-20 10:25:39.91	1.54	8.57	-45.8	-64.4	3.8	7.44e-01	0	59	104	0	62	31842
2026-01-20 10:25:42.95	1.20	8.36	-45.8	-64.4	3.8	7.44e-01	0	59	104	0	62	31839
2026-01-20 10:25:45.98	0.86	8.15	-45.7	-64.3	3.8	7.48e-01	0	59	104	0	62	31675
2026-01-20 10:25:49.01	0.52	7.94	-45.7	-64.3	3.8	7.49e-01	0	59	104	0	62	31712
2026-01-20 10:25:52.04	0.19	7.73	-45.7	-64.3	3.8	7.48e-01	0	59	104	0	62	31788
2026-01-20 10:25:55.07	359.87	7.52	-45.7	-64.3	3.8	7.45e-01	0	59	104	0	62	31688
2026-01-20 10:25:58.10	359.55	7.31	-45.7	-64.3	3.8	7.47e-01	0	59	104	0	62	31602
2026-01-20 10:26:01.14	359.23	7.11	-45.6	-64.2	3.8	7.43e-01	0	59	104	0	62	31318
2026-01-20 10:26:04.17	358.92	6.90	-45.7	-64.2	3.8	7.45e-01	0	59	104	0	61	33307
2026-01-20 10:26:07.20	358.62	6.70	-45.6	-63.7	3.9	7.44e-01	0	59	104	0	61	31295
2026-01-20 10:26:10.23	358.32	6.50	-45.6	-64.2	3.8	7.44e-01	0	59	104	0	61	33082
2026-01-20 10:26:13.26	358.02	6.30	-45.6	-64.2	3.8	7.45e-01	0	59	104	0	61	33122
2026-01-20 10:26:16.29	357.73	6.10	-45.6	-64.2	3.8	7.45e-01	0	59	104	0	61	33208
2026-01-20 10:26:19.32	357.44	5.90	-45.5	-64.0	3.8	7.48e-01	0	59	104	0	61	32472
2026-01-20 10:26:22.35	357.16	5.70	-45.5	-63.9	3.8	7.45e-01	0	59	104	0	61	31908
2026-01-20 10:26:25.38	356.89	5.50	-45.5	-63.2	4.1	7.47e-01	0	59	104	0	61	29685
2026-01-20 10:26:28.41	356.61	5.30	-45.5	-64.1	3.8	7.46e-01	0	59	104	0	61	32781
2026-01-20 10:26:31.45	356.34	5.11	-45.4	-64.0	3.8	7.47e-01	0	59	104	0	61	32341
2026-01-20 10:26:34.48	356.08	4.91	-45.5	-64.1	3.8	7.47e-01	0	59	104	0	61	32711
2026-01-20 10:26:37.51	355.82	4.72	-45.5	-64.1	3.8	7.44e-01	0	59	104	0	61	32855
2026-01-20 10:26:40.54	355.56	4.53	-45.4	-64.1	3.8	7.47e-01	0	59	104	0	61	32673
2026-01-20 10:26:43.57	355.31	4.34	-45.5	-64.0	3.9	7.47e-01	0	59	104	0	61	32346
2026-01-20 10:26:46.60	355.06	4.15	-45.4	-64.0	3.8	7.44e-01	0	59	104	0	61	32386
2026-01-20 10:26:49.64	354.81	3.96	-45.4	-64.0	3.9	7.48e-01	0	59	104	0	61	32477
2026-01-20 10:26:52.67	354.57	3.77	-45.4	-64.0	3.8	7.46e-01	0	59	104	0	61	32415
2026-01-20 10:26:55.70	354.33	3.58	-45.4	-64.0	3.8	7.49e-01	0	59	104	0	61	32415
2026-01-20 10:26:58.73	354.09	3.40	-44.4	-63.9	3.8	7.46e-01	0	59	104	0	61	31997
2026-01-20 10:27:01.77	353.86	3.21	-45.4	-64.0	3.8	7.44e-01	0	59	104	0	61	32277
2026-01-20 10:27:04.80	353.63	3.03	-44.8	-63.9	3.7	7.45e-01	0	59	104	0	61	32076
2026-01-20 10:27:07.83	353.41	2.85	-45.2	-64.0	3.8	7.43e-01	0	59	104	0	61	32366
2026-01-20 10:27:10.86	353.19	2.66	-45.4	-64.0	3.8	7.44e-01	0	59	104	0	61	32180
2026-01-20 10:27:13.89	352.97	2.48	-45.4	-64.0	3.8	7.44e-01	0	59	104	0	61	32296
2026-01-20 10:27:16.92	352.75	2.30	-45.3	-63.9	3.8	7.46e-01	0	59	104	0	61	32091
2026-01-20 10:27:19.95	352.54	2.12	-45.2	-63.9	3.8	7.49e-01	0	59	104	0	61	32128
2026-01-20 10:27:22.98	352.33	1.94	-45.3	-63.9	3.8	7.47e-01	0	59	104	0	61	32170

#Closed at: 2026-01-20 10:27:23
#Recorded file [0 MB]: D:/lorett/data/31039_260120_131603.dat