passes_logs/2026/01/20/R2.0S_Moscow/R2.0S_Moscow__20260120_202255_FENGYUN_3G_rec.log

#Pass ID: 20260120_202255_FENGYUN 3G
#Satellite: FENGYUN 3G
#Configuration: FENGYUN 3G
#almurnet v.1.7.20251203
#Start time: 2026-01-20 20:22:56

#Version: 2.2.20231116
#Station: R2.0S_Moscow
#Location: 37.707566 lon 55.798166 lat
#TLE: 1 56232U 23055A   26020.00144243  .00036531  00000+0  56251-3 0  9990
#TLE: 2 56232  49.9940  30.1229 0004155  52.6154 307.5191 15.53783627156971

#Time	Az	El	Level	Level2	SNR	BER	BlckErr	Temp	State	Recorded	gain1	gain2
2026-01-20 20:22:56.88	241.19	2.10	-44.1	-62.2	3.8	8.47e-01	0	49	0	0	60	27834
2026-01-20 20:22:59.91	240.99	2.29	-44.1	-62.2	3.8	8.45e-01	0	49	104	0	60	27810
2026-01-20 20:23:02.92	240.78	2.49	-44.1	-62.2	3.8	8.47e-01	0	49	104	0	60	27904
2026-01-20 20:23:05.96	240.57	2.70	-44.1	-62.1	3.8	8.46e-01	0	49	104	0	60	27609
2026-01-20 20:23:08.98	240.35	2.90	-44.1	-62.1	3.8	8.47e-01	0	50	104	0	60	27410
2026-01-20 20:23:12.01	240.13	3.11	-44.1	-62.2	3.8	8.46e-01	0	50	104	0	60	27711
2026-01-20 20:23:15.05	239.91	3.32	-44.1	-62.2	3.8	8.46e-01	0	50	104	0	60	27933
2026-01-20 20:23:18.08	239.68	3.53	-44.1	-62.2	3.8	8.47e-01	0	50	104	0	60	28015
2026-01-20 20:23:21.11	239.44	3.74	-44.1	-62.1	3.8	8.45e-01	0	51	104	0	60	27611
2026-01-20 20:23:24.15	239.20	3.95	-44.1	-62.2	3.8	8.46e-01	0	51	104	0	60	27851
2026-01-20 20:23:27.18	238.95	4.17	-44.1	-61.9	3.8	8.47e-01	0	51	104	0	60	26969
2026-01-20 20:23:30.21	238.70	4.39	-44.1	-61.2	3.8	8.45e-01	0	51	104	0	60	24840
2026-01-20 20:23:33.24	238.44	4.61	-44.1	-61.0	3.8	8.46e-01	0	51	104	0	60	24305
2026-01-20 20:23:36.27	238.18	4.84	-44.1	-61.8	3.8	8.46e-01	0	51	104	0	60	26520
2026-01-20 20:23:39.30	237.91	5.06	-44.1	-61.5	3.8	8.45e-01	0	51	104	0	60	25638
2026-01-20 20:23:42.33	237.64	5.29	-44.1	-60.0	3.9	8.45e-01	0	52	104	0	60	21577
2026-01-20 20:23:45.36	237.36	5.52	-44.0	-58.5	4.2	8.39e-01	0	52	0	0	60	18230
2026-01-20 20:23:48.39	237.07	5.76	-44.0	-58.3	4.3	8.34e-01	0	52	0	0	60	17847
2026-01-20 20:23:51.42	236.78	5.99	-44.0	-58.3	4.2	8.35e-01	0	52	0	0	60	17870
2026-01-20 20:23:54.45	236.47	6.23	-44.0	-56.0	5.3	8.04e-01	0	52	0	0	59	14519
2026-01-20 20:23:57.48	236.17	6.48	-43.5	-52.1	8.7	1.70e-01	0	53	0	2621440	59	9210
2026-01-20 20:24:00.51	235.85	6.72	-43.1	-50.2	10.6	1.04e-02	0	52	0	6291456	58	7812
2026-01-20 20:24:03.54	235.53	6.97	-43.6	-52.6	8.2	9.48e-03	0	53	0	9437184	58	10393
2026-01-20 20:24:06.57	235.19	7.22	-44.2	-59.8	3.8	5.17e-01	0	53	104	11010048	58	23784
2026-01-20 20:24:09.61	234.85	7.48	-43.0	-49.8	11.2	5.26e-01	0	53	0	13107200	58	7532
2026-01-20 20:24:12.64	234.50	7.73	-41.5	-45.9	15.1	1.75e-04	0	53	0	16252928	55	5713
2026-01-20 20:24:15.67	234.15	7.99	-41.8	-46.6	14.4	0.00e+00	0	53	0	19922944	54	6555
2026-01-20 20:24:18.70	233.78	8.26	-43.4	-51.3	10.7	1.10e-06	0	53	0	23068672	57	9403
2026-01-20 20:24:21.73	233.40	8.53	-41.7	-46.4	14.1	2.21e-01	0	53	0	26214400	55	5999
2026-01-20 20:24:24.76	233.02	8.80	-40.8	-44.5	16.7	0.00e+00	0	53	0	29360128	53	5409
2026-01-20 20:24:27.79	232.62	9.07	-40.7	-44.3	16.9	0.00e+00	0	54	0	33030144	53	5288
2026-01-20 20:24:30.82	232.22	9.35	-40.7	-44.2	17.0	0.00e+00	0	54	0	36175872	53	5249
2026-01-20 20:24:33.84	231.80	9.63	-40.5	-43.9	17.3	0.00e+00	0	54	0	39845888	53	5095
2026-01-20 20:24:36.87	231.37	9.92	-40.5	-43.9	17.4	0.00e+00	0	54	0	42991616	52	5375
2026-01-20 20:24:39.90	230.93	10.20	-40.6	-44.1	17.3	0.00e+00	0	54	0	46137344	52	5467
2026-01-20 20:24:42.93	230.48	10.50	-40.6	-44.0	17.3	0.00e+00	0	54	0	49807360	52	5445
2026-01-20 20:24:45.96	230.01	10.79	-40.5	-43.9	17.5	0.00e+00	0	54	0	52953088	52	5344
2026-01-20 20:24:48.99	229.54	11.10	-40.3	-43.5	17.8	0.00e+00	0	54	0	56623104	52	5158
2026-01-20 20:24:52.01	229.05	11.40	-40.3	-43.5	17.9	0.00e+00	0	54	0	59768832	52	5140
2026-01-20 20:24:55.04	228.54	11.71	-40.3	-43.5	18.0	0.00e+00	0	54	0	63438848	52	5121
2026-01-20 20:24:58.07	228.02	12.02	-40.3	-43.4	18.1	0.00e+00	0	54	0	66584576	52	5063
2026-01-20 20:25:01.09	227.49	12.34	-40.1	-43.2	18.3	0.00e+00	0	54	0	70254592	52	4943
2026-01-20 20:25:04.12	226.94	12.66	-40.1	-43.0	18.6	0.00e+00	0	55	0	73400320	51	5122
2026-01-20 20:25:07.15	226.37	12.98	-39.8	-42.6	19.0	0.00e+00	0	55	0	77070336	51	4908
2026-01-20 20:25:10.18	225.79	13.31	-39.9	-42.7	18.9	0.00e+00	0	55	0	80740352	51	4966
2026-01-20 20:25:13.21	225.19	13.65	-39.7	-42.4	19.2	0.00e+00	0	55	0	83886080	51	4800
2026-01-20 20:25:16.23	224.57	13.99	-39.5	-42.2	19.5	0.00e+00	0	55	0	87031808	51	4675
2026-01-20 20:25:19.26	223.94	14.33	-39.4	-41.9	19.7	0.00e+00	0	55	0	90701824	50	4811
2026-01-20 20:25:22.29	223.28	14.67	-39.7	-42.3	19.4	0.00e+00	0	54	0	93847552	50	5036
2026-01-20 20:25:25.32	222.60	15.03	-39.5	-42.1	19.6	0.00e+00	0	55	0	97517568	50	4919
2026-01-20 20:25:28.35	221.91	15.38	-39.4	-41.9	19.8	0.00e+00	0	55	0	100663296	50	4802
2026-01-20 20:25:31.38	221.19	15.74	-39.3	-41.8	20.0	0.00e+00	0	55	0	104333312	50	4732
2026-01-20 20:25:34.41	220.44	16.10	-39.3	-41.8	19.9	0.00e+00	0	55	0	107479040	50	4755
2026-01-20 20:25:37.43	219.68	16.47	-39.1	-41.6	20.2	0.00e+00	0	55	0	111149056	50	4599
2026-01-20 20:25:40.46	218.89	16.84	-38.6	-40.8	20.9	0.00e+00	0	55	0	114294784	49	4481
2026-01-20 20:25:43.49	218.08	17.21	-38.6	-40.8	21.0	0.00e+00	0	55	0	117964800	49	4471
2026-01-20 20:25:46.52	217.24	17.59	-39.1	-41.5	20.3	0.00e+00	0	55	0	121110528	49	4867
2026-01-20 20:25:49.55	216.38	17.96	-39.1	-41.5	20.3	0.00e+00	0	55	0	124780544	49	4840
2026-01-20 20:25:52.58	215.48	18.35	-38.8	-41.0	20.8	0.00e+00	0	55	0	127926272	49	4598
2026-01-20 20:25:55.61	214.56	18.73	-38.7	-40.9	20.9	0.00e+00	0	55	0	131596288	49	4529
2026-01-20 20:25:58.64	213.61	19.11	-38.8	-41.1	20.7	0.00e+00	0	56	0	134742016	49	4643
2026-01-20 20:26:01.67	212.63	19.50	-38.6	-40.9	20.9	0.00e+00	0	55	0	138412032	49	4515
2026-01-20 20:26:04.70	211.62	19.89	-38.1	-40.1	21.7	0.00e+00	0	56	0	141557760	48	4384
2026-01-20 20:26:07.73	210.58	20.28	-38.1	-40.2	21.7	0.00e+00	0	55	0	145227776	47	4674
2026-01-20 20:26:10.76	209.51	20.66	-38.4	-40.6	21.3	0.00e+00	0	55	0	148373504	47	4907
2026-01-20 20:26:13.79	208.40	21.05	-38.5	-40.7	21.2	0.00e+00	0	56	0	152043520	47	4942
2026-01-20 20:26:16.82	207.26	21.43	-38.0	-40.1	21.8	0.00e+00	0	56	0	155189248	47	4608
2026-01-20 20:26:19.85	206.09	21.81	-38.0	-40.0	21.8	0.00e+00	0	56	0	158859264	47	4592
2026-01-20 20:26:22.88	204.88	22.19	-38.0	-40.0	21.8	0.00e+00	0	56	0	162004992	47	4587
2026-01-20 20:26:25.91	203.63	22.56	-38.1	-40.2	21.8	0.00e+00	0	56	0	165675008	47	4658
2026-01-20 20:26:28.94	202.35	22.93	-37.9	-40.0	21.9	0.00e+00	0	56	0	168820736	47	4556
2026-01-20 20:26:31.97	201.04	23.29	-37.5	-39.5	22.4	0.00e+00	0	56	0	172490752	46	4547
2026-01-20 20:26:34.99	199.69	23.64	-37.5	-39.5	22.4	0.00e+00	0	56	0	175636480	46	4549
2026-01-20 20:26:38.02	198.30	23.98	-37.3	-39.2	22.6	0.00e+00	0	56	0	179306496	46	4438
2026-01-20 20:26:41.05	196.88	24.32	-37.5	-39.4	22.4	0.00e+00	0	56	0	182452224	46	4531
2026-01-20 20:26:44.07	195.43	24.64	-37.5	-39.5	22.4	0.00e+00	0	56	0	186122240	46	4561
2026-01-20 20:26:47.10	193.94	24.95	-37.6	-39.6	22.3	0.00e+00	0	56	0	189267968	46	4617
2026-01-20 20:26:50.13	192.41	25.24	-37.8	-39.8	22.1	0.00e+00	0	56	0	192937984	46	4727
2026-01-20 20:26:53.16	190.86	25.52	-37.4	-39.4	22.5	0.00e+00	0	56	0	196083712	46	4504
2026-01-20 20:26:56.19	189.27	25.78	-37.5	-39.4	22.5	0.00e+00	0	56	0	199753728	46	4519
2026-01-20 20:26:59.22	187.65	26.02	-37.5	-39.4	22.4	0.00e+00	0	56	0	202899456	46	4518
2026-01-20 20:27:02.25	186.01	26.24	-37.4	-39.3	22.5	0.00e+00	0	56	0	206569472	46	4481
2026-01-20 20:27:05.28	184.34	26.44	-36.9	-38.8	23.0	0.00e+00	0	56	0	209715200	45	4467
2026-01-20 20:27:08.31	182.65	26.62	-37.2	-39.1	22.8	0.00e+00	0	56	0	213385216	45	4632
2026-01-20 20:27:11.33	180.94	26.78	-37.0	-38.8	23.1	0.00e+00	0	56	0	216530944	45	4464
2026-01-20 20:27:14.36	179.21	26.91	-37.2	-39.0	22.8	0.00e+00	0	56	0	220200960	45	4594
2026-01-20 20:27:17.39	177.46	27.02	-37.1	-38.9	22.9	0.00e+00	0	56	0	223346688	45	4536
2026-01-20 20:27:20.42	175.71	27.10	-37.3	-39.2	22.8	0.00e+00	0	56	0	227016704	45	4656
2026-01-20 20:27:23.45	173.94	27.15	-37.1	-38.9	23.0	0.00e+00	0	56	0	230162432	45	4528
2026-01-20 20:27:26.47	172.18	27.18	-37.3	-39.3	22.7	0.00e+00	0	56	0	233832448	45	4712
2026-01-20 20:27:29.50	170.41	27.18	-37.4	-39.3	22.7	0.00e+00	0	56	0	236978176	45	4755
2026-01-20 20:27:32.53	168.63	27.15	-37.6	-39.5	22.6	0.00e+00	0	56	0	240648192	45	4829
2026-01-20 20:27:35.56	166.87	27.10	-37.0	-38.8	23.2	0.00e+00	0	56	0	243793920	45	4453
2026-01-20 20:27:38.59	165.11	27.02	-37.6	-39.5	22.5	0.00e+00	0	56	0	247463936	45	4869
2026-01-20 20:27:41.62	163.37	26.92	-37.0	-38.8	23.1	0.00e+00	0	56	0	250609664	46	4220
2026-01-20 20:27:44.64	161.64	26.79	-37.3	-39.1	22.9	0.00e+00	0	56	0	254279680	45	4635
2026-01-20 20:27:47.67	159.93	26.63	-37.3	-39.2	22.8	0.00e+00	0	56	0	257425408	45	4685
2026-01-20 20:27:50.70	158.24	26.45	-37.2	-39.1	23.0	0.00e+00	0	56	0	261095424	45	4616
2026-01-20 20:27:53.73	156.57	26.25	-37.5	-39.5	22.6	0.00e+00	0	57	0	264241152	45	4817
2026-01-20 20:27:56.75	154.93	26.03	-38.1	-40.1	22.1	0.00e+00	0	56	0	267911168	46	4908
2026-01-20 20:27:59.78	153.31	25.79	-38.4	-40.5	21.7	0.00e+00	0	57	0	271056896	47	4852
2026-01-20 20:28:02.81	151.73	25.53	-38.1	-40.1	22.1	0.00e+00	0	56	0	274726912	47	4635
2026-01-20 20:28:05.84	150.17	25.26	-37.6	-39.5	22.7	0.00e+00	0	56	0	277872640	46	4579
2026-01-20 20:28:08.87	148.64	24.97	-38.1	-40.1	22.1	0.00e+00	0	57	0	281542656	46	4920
2026-01-20 20:28:11.90	147.15	24.66	-37.8	-39.8	22.4	0.00e+00	0	56	0	284688384	46	4757
2026-01-20 20:28:14.92	145.70	24.34	-38.2	-40.3	22.0	0.00e+00	0	56	0	288358400	46	5008
2026-01-20 20:28:17.95	144.28	24.01	-37.7	-39.6	22.6	0.00e+00	0	57	0	291504128	47	4383
2026-01-20 20:28:20.98	142.89	23.67	-37.5	-39.5	22.7	0.00e+00	0	57	0	295174144	46	4571
2026-01-20 20:28:24.01	141.54	23.31	-38.1	-40.2	22.0	0.00e+00	0	57	0	298319872	46	4976
2026-01-20 20:28:27.03	140.23	22.96	-38.1	-40.1	22.1	0.00e+00	0	57	0	301989888	46	4923
2026-01-20 20:28:30.06	138.95	22.59	-37.6	-39.6	22.6	0.00e+00	0	57	0	305135616	46	4621
2026-01-20 20:28:33.09	137.70	22.22	-38.0	-40.1	22.2	0.00e+00	0	57	0	308805632	46	4873
2026-01-20 20:28:36.12	136.49	21.84	-38.3	-40.4	21.8	0.00e+00	0	57	0	311951360	47	4798
2026-01-20 20:28:39.15	135.32	21.46	-38.2	-40.3	21.9	0.00e+00	0	57	0	315621376	47	4739
2026-01-20 20:28:42.17	134.18	21.08	-38.5	-40.7	21.5	0.00e+00	0	57	0	318767104	47	4942
2026-01-20 20:28:45.20	133.07	20.70	-38.4	-40.6	21.6	0.00e+00	0	57	0	322437120	47	4898
2026-01-20 20:28:48.23	132.00	20.31	-38.5	-40.8	21.3	0.00e+00	0	57	0	325582848	47	4998
2026-01-20 20:28:51.26	130.96	19.92	-38.4	-40.7	21.0	0.00e+00	0	57	0	329252864	47	4944
2026-01-20 20:28:54.29	129.95	19.54	-38.8	-41.4	19.0	0.00e+00	0	57	0	332398592	48	5060
2026-01-20 20:28:57.31	128.97	19.15	-38.5	-40.8	21.1	2.20e-06	0	57	0	336068608	47	5034
2026-01-20 20:29:00.34	128.02	18.77	-38.7	-41.1	20.3	0.00e+00	0	57	0	339214336	48	4926
2026-01-20 20:29:03.37	127.10	18.39	-38.5	-40.9	20.5	0.00e+00	0	57	0	342884352	47	5053
2026-01-20 20:29:06.40	126.21	18.01	-38.9	-41.3	20.0	0.00e+00	0	57	0	346030080	48	5029
2026-01-20 20:29:09.43	125.34	17.63	-39.0	-41.5	20.3	0.00e+00	0	57	0	349700096	48	5113
2026-01-20 20:29:12.46	124.50	17.25	-38.4	-41.3	20.5	0.00e+00	0	57	0	352845824	48	5022
2026-01-20 20:29:15.49	123.69	16.88	-38.9	-41.6	20.0	0.00e+00	0	57	0	356515840	48	5192
2026-01-20 20:29:18.52	122.90	16.51	-39.4	-42.1	19.7	0.00e+00	0	57	0	359661568	49	5201
2026-01-20 20:29:21.54	122.14	16.15	-39.2	-42.1	19.0	3.77e-05	0	57	0	363331584	48	5522
2026-01-20 20:29:24.57	121.40	15.78	-33.6	-41.8	19.2	9.19e-04	0	57	0	366477312	47	5625
2026-01-20 20:29:27.60	120.68	15.43	-34.1	-41.8	15.6	3.05e-03	0	57	0	370147328	41	7955
2026-01-20 20:29:30.63	119.98	15.07	-38.4	-42.4	16.9	6.52e-03	0	57	0	373293056	45	6794
2026-01-20 20:29:33.66	119.30	14.72	-36.7	-42.4	12.2	3.67e-03	0	57	0	376963072	43	7603
2026-01-20 20:29:36.68	118.65	14.38	-38.2	-42.6	15.8	2.51e-02	0	57	0	380108800	44	7316
2026-01-20 20:29:39.71	118.01	14.03	-25.2	-42.7	13.4	3.15e-02	0	57	0	383778816	39	9832
2026-01-20 20:29:42.74	117.39	13.70	-33.3	-43.0	8.8	2.69e-02	0	57	0	386924544	33	14461
2026-01-20 20:29:45.77	116.79	13.36	-21.1	-42.6	6.8	1.15e-01	0	57	0	390070272	16	36708
2026-01-20 20:29:48.79	116.21	13.03	-35.9	-43.6	13.9	8.31e-02	0	57	0	393216000	37	12265
2026-01-20 20:29:51.82	115.64	12.71	-36.5	-44.1	15.3	1.11e-01	0	57	0	395837440	37	12982
2026-01-20 20:29:54.85	115.09	12.39	-36.9	-44.6	13.6	2.47e-02	0	57	0	398983168	45	8690
2026-01-20 20:29:57.87	114.56	12.07	-27.8	-42.1	7.8	1.60e-01	0	57	0	402128896	28	17471
2026-01-20 20:30:00.90	114.04	11.76	-37.5	-44.6	12.4	1.48e-01	0	57	0	405274624	45	8669
2026-01-20 20:30:03.93	113.54	11.45	-36.6	-44.6	11.6	1.72e-01	0	57	0	408420352	43	9789
2026-01-20 20:30:06.96	113.05	11.14	-36.2	-45.2	9.2	1.77e-01	0	57	0	411041792	40	12431
2026-01-20 20:30:09.99	112.57	10.84	-34.7	-43.5	9.2	2.65e-01	0	57	0	414187520	28	20523
2026-01-20 20:30:13.01	112.11	10.55	-32.8	-45.7	7.3	2.79e-01	0	57	0	416808960	32	20871
2026-01-20 20:30:16.04	111.65	10.26	-34.0	-46.1	7.0	2.54e-01	0	57	0	419430400	36	17401
2026-01-20 20:30:19.07	111.21	9.97	-35.2	-44.8	10.1	2.63e-01	0	57	0	422576128	38	13311
2026-01-20 20:30:22.10	110.78	9.68	-35.5	-45.8	9.3	2.11e-01	0	57	0	425197568	39	14088
2026-01-20 20:30:25.12	110.37	9.40	-27.4	-44.9	8.4	2.97e-01	0	57	0	427819008	32	18964
2026-01-20 20:30:28.15	109.96	9.12	-29.6	-44.7	5.2	9.40e-02	0	57	104	430440448	31	19759
2026-01-20 20:30:31.18	109.57	8.85	-27.6	-43.7	8.2	1.30e-01	0	57	0	433061888	32	16534
2026-01-20 20:30:34.21	109.18	8.58	-28.5	-45.4	7.9	4.28e-01	0	57	0	435159040	32	20169
2026-01-20 20:30:37.24	108.81	8.31	-32.6	-45.7	8.5	1.04e-01	0	57	0	438304768	36	16673
2026-01-20 20:30:40.27	108.44	8.05	-38.0	-51.1	6.2	2.52e-01	0	57	0	441450496	45	18406
2026-01-20 20:30:43.30	108.08	7.79	-44.9	-63.2	3.8	8.46e-01	0	57	104	441450496	60	31267
2026-01-20 20:30:46.33	107.73	7.53	-45.5	-63.8	3.8	8.47e-01	0	57	104	441450496	61	31602
2026-01-20 20:30:49.36	107.39	7.28	-45.8	-64.1	3.8	8.46e-01	0	58	104	441450496	62	30850
2026-01-20 20:30:52.40	107.06	7.02	-45.6	-63.9	3.8	8.46e-01	0	58	104	441450496	62	30132
2026-01-20 20:30:55.43	106.74	6.77	-45.5	-63.6	3.8	8.46e-01	0	57	104	441450496	62	29280
2026-01-20 20:30:58.46	106.42	6.53	-45.4	-63.5	3.8	8.46e-01	0	57	104	441450496	61	30446
2026-01-20 20:31:01.49	106.11	6.29	-45.4	-63.5	3.8	8.45e-01	0	58	104	441450496	61	30402
2026-01-20 20:31:04.52	105.81	6.05	-45.3	-63.4	3.8	8.46e-01	0	58	104	441450496	61	30264
2026-01-20 20:31:07.55	105.52	5.81	-45.4	-63.4	3.8	8.47e-01	0	58	104	441450496	61	30306
2026-01-20 20:31:10.58	105.23	5.58	-45.3	-63.4	3.8	8.45e-01	0	57	104	441450496	61	30267
2026-01-20 20:31:13.61	104.95	5.35	-45.3	-63.4	3.8	8.47e-01	0	58	104	441450496	61	30203
2026-01-20 20:31:16.64	104.67	5.12	-45.3	-63.4	3.8	8.46e-01	0	57	104	441450496	61	30271
2026-01-20 20:31:19.68	104.40	4.89	-45.3	-63.4	3.8	8.47e-01	0	58	104	441450496	61	30351
2026-01-20 20:31:22.71	104.14	4.67	-45.3	-63.4	3.8	8.46e-01	0	57	104	441450496	61	30248
2026-01-20 20:31:25.74	103.89	4.44	-45.3	-63.4	3.8	8.47e-01	0	58	104	441450496	61	30310
2026-01-20 20:31:28.77	103.63	4.23	-45.3	-63.4	3.8	8.46e-01	0	58	104	441450496	61	30189
2026-01-20 20:31:31.80	103.39	4.01	-45.3	-63.4	3.8	8.47e-01	0	58	104	441450496	61	30076
2026-01-20 20:31:34.83	103.15	3.79	-45.3	-63.4	3.8	8.45e-01	0	58	104	441450496	61	30191
2026-01-20 20:31:37.86	102.91	3.58	-45.3	-63.4	3.8	8.45e-01	0	57	104	441450496	61	30228
2026-01-20 20:31:40.90	102.68	3.37	-45.1	-63.4	3.8	8.46e-01	0	58	104	441450496	61	30150
2026-01-20 20:31:43.93	102.46	3.16	-45.3	-63.4	3.8	8.46e-01	0	57	104	441450496	61	30227
2026-01-20 20:31:46.96	102.24	2.96	-45.1	-63.4	3.8	8.45e-01	0	58	104	441450496	61	30138
2026-01-20 20:31:49.99	102.02	2.75	-45.3	-63.4	3.8	8.44e-01	0	58	104	441450496	61	30054
2026-01-20 20:31:53.02	101.81	2.55	-45.3	-63.7	3.8	8.46e-01	0	58	104	441450496	61	31193
2026-01-20 20:31:56.05	101.60	2.35	-45.3	-63.4	3.8	8.46e-01	0	58	104	441450496	61	30133
2026-01-20 20:31:59.08	101.40	2.15	-45.3	-63.4	3.8	8.46e-01	0	58	104	441450496	61	30082

#Closed at: 2026-01-20 20:32:01
#Recorded file [441 MB]: D:/lorett/data/31039_260120_232256.dat