passes_logs/2026/01/20/R2.0S_Moscow/R2.0S_Moscow__20260120_113345_NOAA_20_JPSS-1_rec.log

#Pass ID: 20260120_113345_NOAA 20 (JPSS-1)
#Satellite: NOAA 20 (JPSS-1)
#Configuration: NOAA 20
#almurnet v.1.7.20251203
#Start time: 2026-01-20 11:33:45

#Version: 2.2.20231116
#Station: R2.0S_Moscow
#Location: 37.707566 lon 55.798166 lat
#TLE: 1 43013U 17073A   26019.55911981  .00000079  00000+0  58510-4 0  9994
#TLE: 2 43013  98.7641 320.4504 0001323  32.6518 327.4739 14.19537050423380

#Time	Az	El	Level	Level2	SNR	BER	BlckErr	Temp	State	Recorded	gain1	gain2
2026-01-20 11:33:45.32	210.58	1.97	-43.9	-58.4	3.8	1.49e+00	0	50	0	0	59	18952
2026-01-20 11:33:48.34	210.81	2.13	-43.9	-58.4	3.8	1.49e+00	0	51	104	0	59	18991
2026-01-20 11:33:51.37	211.04	2.29	-43.9	-58.4	3.8	1.49e+00	0	51	104	0	59	19000
2026-01-20 11:33:54.40	211.28	2.46	-43.9	-58.3	3.8	1.49e+00	0	51	104	0	59	18903
2026-01-20 11:33:57.43	211.51	2.62	-43.9	-58.3	3.8	1.49e+00	0	51	104	0	59	18871
2026-01-20 11:34:00.47	211.76	2.79	-43.9	-58.3	3.8	1.49e+00	0	51	104	0	59	18911
2026-01-20 11:34:03.50	212.00	2.95	-43.9	-58.3	3.8	1.49e+00	0	52	104	0	59	18887
2026-01-20 11:34:06.53	212.24	3.12	-43.9	-58.3	3.8	1.49e+00	0	52	104	0	59	18898
2026-01-20 11:34:09.56	212.49	3.29	-43.9	-58.4	3.8	1.49e+00	0	52	104	0	59	18954
2026-01-20 11:34:12.59	212.74	3.45	-43.9	-58.3	3.8	1.49e+00	0	52	104	0	59	18900
2026-01-20 11:34:15.62	213.00	3.62	-43.9	-58.3	3.8	1.49e+00	0	52	104	0	59	18892
2026-01-20 11:34:18.65	213.26	3.79	-43.9	-58.3	3.8	1.49e+00	0	53	104	0	59	18911
2026-01-20 11:34:21.68	213.52	3.96	-43.8	-58.3	3.8	1.49e+00	0	53	104	0	59	18921
2026-01-20 11:34:24.71	213.78	4.13	-43.8	-58.3	3.8	1.49e+00	0	53	104	0	59	18946
2026-01-20 11:34:27.74	214.04	4.30	-43.9	-58.3	3.8	1.49e+00	0	53	104	0	59	18884
2026-01-20 11:34:30.78	214.31	4.47	-43.9	-58.3	3.8	1.49e+00	0	53	104	0	59	18947
2026-01-20 11:34:33.81	214.58	4.65	-43.8	-58.3	3.8	1.49e+00	0	53	104	0	59	18816
2026-01-20 11:34:36.84	214.86	4.82	-43.9	-58.3	3.8	1.49e+00	0	54	104	0	59	18896
2026-01-20 11:34:39.87	215.14	4.99	-43.9	-58.3	3.8	1.49e+00	0	54	104	0	59	18870
2026-01-20 11:34:42.90	215.42	5.16	-43.8	-58.3	3.8	1.49e+00	0	54	104	0	59	18827
2026-01-20 11:34:45.94	215.70	5.34	-43.8	-58.2	3.8	1.49e+00	0	54	104	0	59	18653
2026-01-20 11:34:48.97	215.99	5.51	-43.8	-58.2	3.8	1.49e+00	0	54	104	0	59	18672
2026-01-20 11:34:52.00	216.28	5.69	-43.8	-58.1	3.8	1.49e+00	0	54	104	0	59	18409
2026-01-20 11:34:55.03	216.58	5.86	-43.8	-58.1	3.8	1.49e+00	0	54	104	0	59	18368
2026-01-20 11:34:58.06	216.87	6.04	-43.8	-57.8	3.8	1.49e+00	0	55	104	0	59	17799
2026-01-20 11:35:01.09	217.17	6.22	-43.8	-57.3	3.8	1.49e+00	0	55	104	0	59	16794
2026-01-20 11:35:04.13	217.48	6.39	-43.7	-56.7	3.8	1.49e+00	0	55	104	0	59	15723
2026-01-20 11:35:07.16	217.79	6.57	-43.7	-55.6	3.9	1.48e+00	0	55	104	0	59	13728
2026-01-20 11:35:10.19	218.10	6.75	-43.5	-54.2	4.4	1.28e+00	63	55	0	1048576	59	11697
2026-01-20 11:35:13.22	218.42	6.93	-43.5	-53.5	4.7	9.46e-01	0	55	0	6291456	58	11501
2026-01-20 11:35:16.25	218.74	7.11	-43.5	-53.8	4.5	9.88e-01	1	55	0	12582912	58	11850
2026-01-20 11:35:19.28	219.06	7.29	-43.6	-54.2	4.4	1.30e+00	78	55	0	17825792	58	12449
2026-01-20 11:35:22.32	219.39	7.47	-43.4	-53.2	4.8	9.04e-01	0	55	0	23068672	58	11033
2026-01-20 11:35:25.35	219.72	7.65	-43.0	-50.5	6.6	2.87e-01	0	55	0	28311552	58	8141
2026-01-20 11:35:28.38	220.05	7.83	-42.6	-48.7	8.3	5.73e-02	0	56	0	34603008	57	6980
2026-01-20 11:35:31.41	220.39	8.01	-42.4	-48.3	8.7	3.66e-02	0	56	0	39845888	56	7108
2026-01-20 11:35:34.44	220.74	8.20	-43.0	-50.9	4.5	1.49e+00	0	56	104	44040192	57	9040
2026-01-20 11:35:37.47	221.08	8.38	-43.1	-50.6	6.3	1.05e+00	0	56	0	48234496	57	8728
2026-01-20 11:35:40.50	221.44	8.56	-42.5	-48.0	9.2	2.04e-02	0	56	0	54525952	56	6875
2026-01-20 11:35:43.53	221.79	8.75	-42.5	-48.0	9.3	2.10e-02	0	56	0	59768832	56	6842
2026-01-20 11:35:46.56	222.15	8.93	-42.5	-47.8	9.5	1.54e-02	0	56	0	65011712	56	6718
2026-01-20 11:35:49.59	222.52	9.11	-42.5	-47.8	9.6	1.24e-02	0	56	0	71303168	56	6681
2026-01-20 11:35:52.61	222.89	9.30	-42.3	-47.4	10.0	7.64e-03	0	56	0	76546048	56	6380
2026-01-20 11:35:55.64	223.26	9.48	-42.4	-47.5	9.9	9.75e-03	0	56	0	82837504	56	6484
2026-01-20 11:35:58.67	223.64	9.67	-42.4	-47.4	10.0	6.81e-03	0	57	0	88080384	56	6414
2026-01-20 11:36:01.70	224.02	9.85	-42.4	-47.5	10.0	6.90e-03	0	56	0	93323264	56	6424
2026-01-20 11:36:04.73	224.41	10.04	-42.4	-47.4	10.1	6.43e-03	0	56	0	99614720	56	6348
2026-01-20 11:36:07.75	224.80	10.23	-42.4	-47.3	10.2	6.10e-03	0	57	0	104857600	56	6344
2026-01-20 11:36:10.78	225.20	10.41	-42.4	-47.3	10.2	5.85e-03	0	57	0	111149056	56	6306
2026-01-20 11:36:13.81	225.60	10.60	-42.4	-47.4	10.2	5.82e-03	0	57	0	116391936	56	6357
2026-01-20 11:36:16.84	226.01	10.79	-42.4	-47.3	10.3	5.95e-03	0	57	0	122683392	56	6327
2026-01-20 11:36:19.87	226.42	10.97	-42.3	-47.1	10.5	3.58e-03	0	57	0	127926272	56	6143
2026-01-20 11:36:22.89	226.84	11.16	-42.3	-47.0	10.6	3.19e-03	0	57	0	133169152	56	6105
2026-01-20 11:36:25.92	227.26	11.35	-42.3	-47.0	10.6	3.53e-03	0	57	0	139460608	56	6096
2026-01-20 11:36:28.95	227.69	11.53	-42.3	-47.0	10.6	3.04e-03	0	57	0	144703488	56	6077
2026-01-20 11:36:31.98	228.12	11.72	-42.3	-46.8	10.8	2.62e-03	0	57	0	150994944	56	5989
2026-01-20 11:36:35.01	228.56	11.91	-42.3	-46.9	10.8	2.54e-03	0	57	0	156237824	56	6017
2026-01-20 11:36:38.04	229.00	12.09	-42.3	-46.9	10.8	2.74e-03	0	57	0	162529280	56	6041
2026-01-20 11:36:41.07	229.45	12.28	-42.3	-46.9	10.8	3.35e-03	0	57	0	167772160	56	6025
2026-01-20 11:36:44.09	229.91	12.47	-42.3	-46.8	10.9	2.16e-03	0	57	0	173015040	56	5951
2026-01-20 11:36:47.12	230.37	12.65	-42.3	-46.9	10.8	2.49e-03	0	57	0	179306496	56	6012
2026-01-20 11:36:50.15	230.84	12.84	-42.3	-46.9	10.8	2.59e-03	0	57	0	184549376	56	6059
2026-01-20 11:36:53.18	231.31	13.02	-42.3	-46.8	11.0	2.17e-03	0	57	0	190840832	56	5950
2026-01-20 11:36:56.21	231.79	13.21	-42.2	-46.7	11.1	1.76e-03	0	57	0	196083712	56	5868
2026-01-20 11:36:59.24	232.27	13.39	-42.3	-46.8	11.0	1.64e-03	0	57	0	201326592	56	5939
2026-01-20 11:37:02.27	232.76	13.58	-42.2	-46.6	11.2	1.40e-03	0	58	0	207618048	56	5811
2026-01-20 11:37:05.30	233.26	13.76	-42.3	-46.7	11.2	1.37e-03	0	58	0	212860928	56	5856
2026-01-20 11:37:08.33	233.76	13.95	-42.2	-46.6	11.2	1.21e-03	0	57	0	219152384	56	5833
2026-01-20 11:37:11.35	234.26	14.13	-42.3	-46.7	11.1	1.71e-03	0	57	0	224395264	56	5905
2026-01-20 11:37:14.38	234.78	14.31	-42.4	-46.9	10.9	2.34e-03	0	58	0	229638144	56	6011
2026-01-20 11:37:17.41	235.30	14.49	-42.3	-46.6	11.2	1.64e-03	0	58	0	235929600	56	5837
2026-01-20 11:37:20.44	235.82	14.67	-42.3	-46.6	11.2	1.26e-03	0	58	0	241172480	56	5812
2026-01-20 11:37:23.46	236.35	14.85	-42.3	-46.7	11.2	1.30e-03	0	58	0	247463936	56	5869
2026-01-20 11:37:26.49	236.89	15.03	-42.3	-46.6	11.3	1.08e-03	0	58	0	252706816	56	5795
2026-01-20 11:37:29.52	237.44	15.21	-42.0	-46.1	11.8	5.39e-04	0	58	0	258998272	56	5471
2026-01-20 11:37:32.55	237.99	15.38	-41.7	-45.5	12.2	3.11e-04	0	58	0	264241152	55	5464
2026-01-20 11:37:35.58	238.55	15.56	-41.7	-45.5	12.3	1.81e-04	0	58	0	269484032	55	5433
2026-01-20 11:37:38.60	239.11	15.73	-41.7	-45.6	12.1	2.30e-04	0	58	0	275775488	55	5495
2026-01-20 11:37:41.63	239.68	15.90	-41.5	-45.2	12.6	1.01e-04	0	58	0	281018368	55	5222
2026-01-20 11:37:44.66	240.26	16.07	-41.5	-45.1	12.7	7.70e-05	0	58	0	287309824	54	5488
2026-01-20 11:37:47.69	240.84	16.24	-41.6	-45.3	12.5	1.01e-04	0	58	0	292552704	54	5619
2026-01-20 11:37:50.72	241.43	16.41	-41.6	-45.3	12.5	1.14e-04	0	58	0	297795584	54	5607
2026-01-20 11:37:53.75	242.02	16.57	-41.6	-45.2	12.6	9.00e-05	0	58	0	304087040	54	5559
2026-01-20 11:37:56.78	242.63	16.74	-41.6	-45.4	12.4	1.26e-04	0	58	0	309329920	54	5677
2026-01-20 11:37:59.81	243.23	16.90	-41.8	-45.6	12.2	2.54e-04	0	58	0	315621376	54	5827
2026-01-20 11:38:02.84	243.85	17.06	-41.8	-45.7	12.1	2.78e-04	0	58	0	320864256	54	5918
2026-01-20 11:38:05.86	244.47	17.22	-41.8	-45.6	12.2	2.51e-04	0	58	0	327155712	54	5838
2026-01-20 11:38:08.89	245.09	17.37	-41.9	-45.8	12.0	3.02e-04	0	58	0	332398592	54	5966
2026-01-20 11:38:11.92	245.73	17.52	-42.0	-46.1	11.7	5.42e-04	0	58	0	337641472	54	6137
2026-01-20 11:38:14.95	246.37	17.67	-42.0	-46.2	11.6	6.42e-04	0	58	0	343932928	54	6209
2026-01-20 11:38:17.98	247.01	17.82	-42.1	-46.2	11.6	7.52e-04	0	58	0	349175808	54	6263
2026-01-20 11:38:21.01	247.67	17.97	-42.2	-46.5	11.3	1.12e-03	0	58	0	355467264	54	6466
2026-01-20 11:38:24.03	248.32	18.11	-42.4	-47.0	10.8	2.23e-03	0	58	0	360710144	55	6427
2026-01-20 11:38:27.06	248.99	18.25	-42.4	-47.1	10.7	2.81e-03	0	58	0	365953024	55	6495
2026-01-20 11:38:30.09	249.66	18.38	-42.5	-47.3	10.5	4.17e-03	0	58	0	372244480	55	6664
2026-01-20 11:38:33.12	250.33	18.52	-42.6	-47.4	10.3	5.38e-03	0	58	0	377487360	55	6759
2026-01-20 11:38:36.15	251.01	18.65	-42.6	-47.4	10.4	5.11e-03	0	58	0	383778816	55	6749
2026-01-20 11:38:39.18	251.70	18.77	-42.5	-47.1	10.6	3.52e-03	0	58	0	389021696	55	6560
2026-01-20 11:38:42.20	252.39	18.90	-42.5	-47.0	10.7	2.98e-03	0	58	0	395313152	55	6491
2026-01-20 11:38:45.23	253.09	19.02	-42.5	-47.2	10.5	3.70e-03	0	58	0	400556032	55	6623
2026-01-20 11:38:48.26	253.79	19.13	-42.5	-47.2	10.6	3.78e-03	0	59	0	405798912	55	6604
2026-01-20 11:38:51.28	254.50	19.25	-42.4	-46.9	10.9	2.14e-03	0	58	0	412090368	55	6371
2026-01-20 11:38:54.31	255.21	19.36	-42.3	-46.7	11.0	1.67e-03	0	58	0	417333248	55	6246
2026-01-20 11:38:57.34	255.93	19.46	-42.3	-46.8	11.0	1.80e-03	0	59	0	423624704	55	6307
2026-01-20 11:39:00.37	256.65	19.56	-42.4	-47.0	10.8	2.27e-03	0	58	0	428867584	55	6430
2026-01-20 11:39:03.40	257.38	19.66	-42.5	-47.1	10.7	2.98e-03	0	58	0	434110464	55	6497
2026-01-20 11:39:06.42	258.11	19.75	-42.2	-46.6	11.2	1.43e-03	0	58	0	440401920	55	6143
2026-01-20 11:39:09.45	258.84	19.84	-42.1	-46.3	11.5	8.97e-04	0	59	0	445644800	55	5937
2026-01-20 11:39:12.48	259.58	19.92	-42.2	-46.5	11.3	9.55e-04	0	58	0	451936256	55	6074
2026-01-20 11:39:15.51	260.33	20.00	-42.2	-46.5	11.3	1.20e-03	0	59	0	457179136	55	6080
2026-01-20 11:39:18.54	261.07	20.08	-42.2	-46.4	11.3	1.16e-03	0	59	0	463470592	55	6058
2026-01-20 11:39:21.57	261.82	20.15	-42.1	-46.2	11.6	5.84e-04	0	59	0	468713472	55	5864
2026-01-20 11:39:24.60	262.58	20.21	-42.0	-46.0	11.8	5.55e-04	0	59	0	473956352	55	5758
2026-01-20 11:39:27.63	263.33	20.27	-42.1	-46.2	11.6	6.83e-04	0	59	0	480247808	55	5918
2026-01-20 11:39:30.66	264.09	20.33	-42.0	-46.1	11.7	6.02e-04	0	58	0	485490688	55	5823
2026-01-20 11:39:33.68	264.85	20.38	-42.0	-46.0	11.9	4.10e-04	0	59	0	491782144	55	5739
2026-01-20 11:39:36.71	265.62	20.42	-42.2	-46.5	11.3	7.79e-04	0	59	0	497025024	55	6069
2026-01-20 11:39:39.74	266.38	20.47	-42.5	-47.1	10.7	2.70e-03	0	59	0	502267904	55	6526
2026-01-20 11:39:42.77	267.15	20.50	-42.4	-47.0	10.8	3.28e-03	0	59	0	508559360	55	6436
2026-01-20 11:39:45.80	267.92	20.53	-42.2	-46.3	11.4	1.02e-03	0	59	0	513802240	55	5989
2026-01-20 11:39:48.83	268.69	20.56	-42.2	-46.4	11.4	7.68e-04	0	59	0	520093696	55	6007
2026-01-20 11:39:51.85	269.46	20.58	-42.3	-46.8	11.0	1.55e-03	0	59	0	525336576	55	6284
2026-01-20 11:39:54.88	270.24	20.59	-42.5	-47.2	10.6	3.23e-03	0	59	0	531628032	55	6608
2026-01-20 11:39:57.91	271.01	20.60	-42.4	-46.9	10.8	2.98e-03	0	59	0	536870912	55	6407
2026-01-20 11:40:00.94	271.78	20.61	-42.5	-47.2	10.6	3.04e-03	0	59	0	542113792	55	6589
2026-01-20 11:40:03.97	272.56	20.61	-42.6	-47.4	10.3	5.04e-03	0	59	0	548405248	55	6777
2026-01-20 11:40:07.00	273.33	20.60	-42.5	-47.1	10.7	2.96e-03	0	59	0	553648128	55	6525
2026-01-20 11:40:10.02	274.10	20.59	-42.4	-46.9	10.8	2.35e-03	0	59	0	559939584	55	6411
2026-01-20 11:40:13.05	274.88	20.58	-42.2	-46.5	11.3	1.21e-03	0	59	0	565182464	55	6101
2026-01-20 11:40:16.08	275.65	20.56	-42.0	-46.1	11.8	5.84e-04	0	59	0	570425344	55	5817
2026-01-20 11:40:19.11	276.42	20.53	-42.2	-46.4	11.4	7.72e-04	0	59	0	576716800	55	6040
2026-01-20 11:40:22.14	277.19	20.50	-42.3	-46.8	11.0	1.91e-03	0	59	0	581959680	55	6313
2026-01-20 11:40:25.17	277.95	20.46	-42.3	-46.7	11.1	1.63e-03	0	59	0	588251136	55	6251
2026-01-20 11:40:28.20	278.72	20.42	-42.3	-46.8	11.0	1.84e-03	0	59	0	593494016	55	6285
2026-01-20 11:40:31.23	279.48	20.38	-42.4	-46.9	10.8	2.61e-03	0	59	0	598736896	55	6407
2026-01-20 11:40:34.25	280.24	20.32	-42.4	-46.9	10.9	2.08e-03	0	59	0	605028352	55	6368
2026-01-20 11:40:37.28	281.00	20.27	-42.4	-47.0	10.7	3.15e-03	0	59	0	610271232	55	6476
2026-01-20 11:40:40.31	281.75	20.21	-42.1	-46.4	11.4	1.22e-03	0	59	0	616562688	55	6004
2026-01-20 11:40:43.34	282.51	20.14	-42.1	-46.4	11.4	1.03e-03	0	59	0	621805568	55	6000
2026-01-20 11:40:46.37	283.25	20.07	-42.4	-47.0	10.8	2.50e-03	0	59	0	628097024	55	6469
2026-01-20 11:40:49.40	284.00	20.00	-42.2	-46.5	11.3	1.45e-03	0	59	0	633339904	55	6076
2026-01-20 11:40:52.42	284.74	19.92	-42.1	-46.2	11.6	7.80e-04	0	59	0	638582784	55	5884
2026-01-20 11:40:55.44	285.47	19.84	-41.8	-45.6	12.2	2.07e-04	0	59	0	644874240	55	5518
2026-01-20 11:40:58.47	286.21	19.75	-41.7	-45.4	12.4	1.56e-04	0	59	0	650117120	55	5358
2026-01-20 11:41:01.49	286.93	19.66	-41.8	-45.6	12.2	1.98e-04	0	59	0	656408576	55	5488
2026-01-20 11:41:04.52	287.66	19.56	-42.0	-46.1	11.7	5.96e-04	0	59	0	661651456	55	5807
2026-01-20 11:41:07.55	288.38	19.46	-41.9	-46.0	11.8	5.25e-04	0	59	0	666894336	55	5734
2026-01-20 11:41:10.57	289.09	19.35	-41.9	-45.8	12.0	4.07e-04	0	59	0	673185792	55	5627
2026-01-20 11:41:13.60	289.80	19.25	-41.7	-45.5	12.2	2.75e-04	0	59	0	678428672	55	5449
2026-01-20 11:41:16.63	290.51	19.13	-41.4	-44.9	12.9	3.89e-05	0	59	0	684720128	54	5362
2026-01-20 11:41:19.66	291.21	19.02	-41.5	-45.0	12.8	5.11e-05	0	59	0	689963008	54	5449
2026-01-20 11:41:22.69	291.90	18.90	-41.6	-45.3	12.5	8.31e-05	0	59	0	696254464	54	5604
2026-01-20 11:41:25.72	292.59	18.78	-41.6	-45.3	12.4	1.36e-04	0	59	0	701497344	54	5651
2026-01-20 11:41:28.74	293.27	18.65	-41.6	-45.2	12.6	1.09e-04	0	59	0	706740224	54	5571
2026-01-20 11:41:31.77	293.95	18.52	-41.3	-44.7	13.1	3.50e-05	0	59	0	713031680	54	5268
2026-01-20 11:41:34.80	294.63	18.39	-41.2	-44.6	13.1	1.75e-05	0	59	0	718274560	54	5208
2026-01-20 11:41:37.83	295.29	18.25	-41.2	-44.6	13.2	1.90e-05	0	59	0	724566016	54	5175
2026-01-20 11:41:40.86	295.95	18.11	-41.2	-44.6	13.2	3.05e-05	0	59	0	729808896	54	5174
2026-01-20 11:41:43.89	296.61	17.97	-41.4	-45.0	12.8	5.11e-05	0	59	0	735051776	54	5404
2026-01-20 11:41:46.92	297.26	17.83	-41.6	-45.3	12.4	1.20e-04	0	59	0	741343232	54	5611
2026-01-20 11:41:49.95	297.90	17.68	-41.5	-45.1	12.6	8.62e-05	0	59	0	746586112	54	5509
2026-01-20 11:41:52.98	298.54	17.53	-41.8	-45.7	12.0	2.29e-04	0	59	0	752877568	54	5864
2026-01-20 11:41:56.00	299.16	17.38	-42.0	-46.1	11.6	6.10e-04	0	59	0	758120448	54	6186
2026-01-20 11:41:59.03	299.79	17.23	-41.9	-45.9	11.8	5.07e-04	0	59	0	763363328	54	6043
2026-01-20 11:42:02.06	300.41	17.07	-42.1	-46.3	11.3	1.07e-03	0	59	0	769654784	54	6321
2026-01-20 11:42:05.09	301.02	16.91	-42.0	-46.3	11.4	1.20e-03	0	59	0	774897664	54	6285
2026-01-20 11:42:08.12	301.62	16.75	-42.0	-46.1	11.5	7.84e-04	0	59	0	781189120	54	6185
2026-01-20 11:42:11.15	302.22	16.59	-42.1	-46.5	11.2	1.25e-03	0	59	0	786432000	54	6423
2026-01-20 11:42:14.18	302.82	16.43	-42.3	-47.0	10.5	3.51e-03	0	59	0	792723456	55	6481
2026-01-20 11:42:17.21	303.40	16.26	-42.3	-47.0	10.5	4.09e-03	0	59	0	797966336	55	6481
2026-01-20 11:42:20.23	303.98	16.09	-42.3	-46.9	10.7	3.17e-03	0	59	0	803209216	55	6370
2026-01-20 11:42:23.26	304.55	15.93	-42.3	-46.9	10.7	3.15e-03	0	59	0	809500672	55	6385
2026-01-20 11:42:26.29	305.12	15.75	-42.2	-46.8	10.7	3.08e-03	0	59	0	814743552	55	6322
2026-01-20 11:42:29.32	305.68	15.58	-42.3	-47.0	10.5	3.94e-03	0	59	0	821035008	55	6470
2026-01-20 11:42:32.35	306.24	15.41	-42.3	-46.9	10.7	3.42e-03	0	59	0	826277888	55	6369
2026-01-20 11:42:35.38	306.78	15.24	-41.9	-46.1	11.4	1.03e-03	0	59	0	831520768	55	5838
2026-01-20 11:42:38.41	307.33	15.06	-41.8	-45.9	11.6	6.57e-04	0	59	0	837812224	55	5710
2026-01-20 11:42:41.43	307.86	14.88	-41.9	-46.1	11.5	6.91e-04	0	59	0	843055104	55	5798
2026-01-20 11:42:44.46	308.39	14.71	-41.9	-46.2	11.4	1.01e-03	0	59	0	849346560	55	5881
2026-01-20 11:42:47.49	308.91	14.53	-42.3	-47.2	10.3	3.39e-03	0	59	0	854589440	55	6572
2026-01-20 11:42:50.52	309.43	14.35	-42.5	-47.6	9.9	9.14e-03	0	59	0	860880896	55	6942
2026-01-20 11:42:53.55	309.94	14.17	-42.2	-46.8	10.7	3.85e-03	0	59	0	866123776	55	6281
2026-01-20 11:42:56.58	310.45	13.99	-41.9	-46.1	11.4	1.15e-03	0	59	0	871366656	55	5852
2026-01-20 11:42:59.61	310.95	13.81	-41.9	-46.0	11.5	7.78e-04	0	59	0	877658112	55	5769
2026-01-20 11:43:02.63	311.44	13.63	-42.0	-46.2	11.3	1.22e-03	0	59	0	882900992	55	5922
2026-01-20 11:43:05.66	311.93	13.44	-41.9	-46.1	11.3	1.14e-03	0	59	0	889192448	55	5855
2026-01-20 11:43:08.69	312.41	13.26	-41.9	-46.1	11.4	9.25e-04	0	59	0	894435328	55	5801
2026-01-20 11:43:11.73	312.89	13.08	-42.0	-46.3	11.1	1.70e-03	0	59	0	899678208	55	5991
2026-01-20 11:43:14.76	313.36	12.89	-41.9	-46.3	11.2	1.33e-03	0	59	0	905969664	55	5925
2026-01-20 11:43:17.78	313.82	12.71	-41.7	-45.9	11.6	6.30e-04	0	59	0	911212544	55	5664
2026-01-20 11:43:20.81	314.28	12.52	-41.8	-46.0	11.4	6.02e-04	0	59	0	917504000	55	5770
2026-01-20 11:43:23.84	314.73	12.34	-42.0	-46.4	11.0	1.75e-03	0	59	0	922746880	55	6004
2026-01-20 11:43:26.87	315.18	12.15	-41.9	-46.3	11.1	1.96e-03	0	59	0	929038336	55	5965
2026-01-20 11:43:29.89	315.62	11.97	-41.7	-45.9	11.5	8.72e-04	0	59	0	934281216	55	5709
2026-01-20 11:43:32.93	316.06	11.79	-41.8	-46.2	11.3	9.82e-04	0	59	0	939524096	55	5859
2026-01-20 11:43:35.95	316.49	11.60	-42.1	-46.7	10.6	3.00e-03	0	59	0	945815552	55	6248
2026-01-20 11:43:38.98	316.92	11.42	-42.2	-47.0	10.3	4.89e-03	0	59	0	951058432	55	6438
2026-01-20 11:43:42.01	317.34	11.23	-42.0	-46.5	10.8	2.98e-03	0	59	0	957349888	55	6126
2026-01-20 11:43:45.03	317.75	11.05	-42.0	-46.5	10.8	2.50e-03	0	59	0	962592768	55	6108
2026-01-20 11:43:48.07	318.17	10.86	-42.1	-46.8	10.5	3.48e-03	0	59	0	967835648	55	6291
2026-01-20 11:43:51.10	318.57	10.68	-42.1	-47.0	10.2	6.06e-03	0	59	0	974127104	55	6459
2026-01-20 11:43:54.12	318.97	10.49	-42.0	-46.7	10.6	3.44e-03	0	59	0	979369984	55	6225
2026-01-20 11:43:57.15	319.37	10.31	-41.9	-46.5	10.8	2.68e-03	0	59	0	985661440	55	6098
2026-01-20 11:44:00.18	319.76	10.12	-42.1	-46.9	10.3	4.71e-03	0	59	0	990904320	55	6370
2026-01-20 11:44:03.21	320.15	9.94	-42.3	-47.4	9.8	9.36e-03	0	59	0	997195776	55	6768
2026-01-20 11:44:06.25	320.53	9.76	-42.3	-47.4	9.7	1.08e-02	0	59	0	1002438656	55	6800
2026-01-20 11:44:09.27	320.91	9.57	-42.2	-47.2	10.0	8.42e-03	0	59	0	1007681536	55	6575
2026-01-20 11:44:12.31	321.28	9.39	-42.2	-47.3	9.8	9.23e-03	0	59	0	1013972992	55	6704
2026-01-20 11:44:15.33	321.65	9.21	-42.3	-47.6	9.4	1.47e-02	0	59	0	1019215872	55	6954
2026-01-20 11:44:18.36	322.02	9.03	-42.3	-47.8	9.2	2.04e-02	0	59	0	1025507328	55	7091
2026-01-20 11:44:21.39	322.38	8.84	-42.3	-47.9	9.1	2.13e-02	0	59	0	1030750208	55	7122
2026-01-20 11:44:24.42	322.73	8.66	-42.2	-47.5	9.5	1.64e-02	0	59	0	1035993088	55	6845
2026-01-20 11:44:27.44	323.08	8.48	-42.3	-47.7	9.4	1.53e-02	0	59	0	1042284544	55	6982
2026-01-20 11:44:30.47	323.43	8.30	-42.4	-48.1	8.9	2.80e-02	0	59	0	1047527424	55	7340
2026-01-20 11:44:33.50	323.77	8.12	-42.5	-48.4	8.5	4.27e-02	0	59	0	1053818880	55	7617
2026-01-20 11:44:36.53	324.11	7.94	-44.4	-58.7	3.8	1.49e+00	0	59	104	1056964608	59	19675
2026-01-20 11:44:39.56	324.45	7.76	-44.9	-59.5	3.8	1.49e+00	0	59	104	1056964608	60	20503
2026-01-20 11:44:42.59	324.78	7.58	-45.2	-59.7	3.8	1.49e+00	0	59	104	1056964608	60	20936
2026-01-20 11:44:45.62	325.11	7.40	-45.1	-59.7	3.8	1.49e+00	0	59	104	1056964608	60	20973
2026-01-20 11:44:48.65	325.43	7.23	-45.1	-59.7	3.8	1.49e+00	0	59	104	1056964608	60	20811
2026-01-20 11:44:51.68	325.75	7.05	-45.0	-59.6	3.8	1.49e+00	0	59	104	1056964608	60	20617
2026-01-20 11:44:54.71	326.07	6.87	-45.0	-59.6	3.8	1.49e+00	0	59	104	1056964608	60	20669
2026-01-20 11:44:57.75	326.38	6.69	-45.0	-59.6	3.8	1.49e+00	0	59	104	1056964608	60	20658
2026-01-20 11:45:00.78	326.69	6.52	-45.0	-59.5	3.8	1.49e+00	0	59	104	1056964608	60	20534
2026-01-20 11:45:03.81	326.99	6.34	-45.0	-59.5	3.8	1.49e+00	0	59	104	1056964608	60	20538
2026-01-20 11:45:06.84	327.29	6.17	-45.0	-59.6	3.8	1.49e+00	0	59	104	1056964608	60	20563
2026-01-20 11:45:09.87	327.59	5.99	-45.0	-59.6	3.8	1.49e+00	0	59	104	1056964608	60	20568
2026-01-20 11:45:12.90	327.89	5.82	-45.0	-59.5	3.8	1.49e+00	0	59	104	1056964608	60	20532
2026-01-20 11:45:15.93	328.18	5.65	-45.0	-59.5	3.8	1.49e+00	0	59	104	1056964608	60	20534
2026-01-20 11:45:18.97	328.47	5.47	-45.0	-59.5	3.8	1.49e+00	0	59	104	1056964608	60	20479
2026-01-20 11:45:22.00	328.75	5.30	-44.9	-59.5	3.8	1.49e+00	0	59	104	1056964608	60	20514
2026-01-20 11:45:25.03	329.04	5.13	-45.0	-59.5	3.8	1.49e+00	0	60	104	1056964608	60	20509
2026-01-20 11:45:28.06	329.32	4.96	-45.0	-59.5	3.8	1.49e+00	0	59	104	1056964608	60	20493
2026-01-20 11:45:31.09	329.59	4.79	-45.0	-59.5	3.8	1.49e+00	0	59	104	1056964608	60	20490
2026-01-20 11:45:34.12	329.86	4.62	-45.0	-59.5	3.8	1.49e+00	0	59	104	1056964608	60	20434
2026-01-20 11:45:37.15	330.13	4.45	-45.0	-59.5	3.8	1.49e+00	0	59	104	1056964608	60	20481
2026-01-20 11:45:40.19	330.40	4.28	-45.0	-59.5	3.8	1.49e+00	0	60	104	1056964608	60	20486
2026-01-20 11:45:43.22	330.67	4.11	-45.0	-59.5	3.8	1.49e+00	0	59	104	1056964608	60	20468
2026-01-20 11:45:46.25	330.93	3.95	-44.9	-59.5	3.8	1.49e+00	0	59	104	1056964608	60	20476
2026-01-20 11:45:49.28	331.19	3.78	-45.0	-59.5	3.8	1.49e+00	0	60	104	1056964608	60	20427
2026-01-20 11:45:52.31	331.44	3.61	-44.8	-59.5	3.8	1.49e+00	0	59	104	1056964608	60	20388
2026-01-20 11:45:55.34	331.69	3.45	-45.0	-59.5	3.8	1.49e+00	0	59	104	1056964608	60	20453
2026-01-20 11:45:58.37	331.94	3.28	-45.0	-59.5	3.8	1.49e+00	0	59	104	1056964608	60	20392
2026-01-20 11:46:01.41	332.19	3.12	-44.8	-59.5	3.8	1.49e+00	0	60	104	1056964608	60	20413
2026-01-20 11:46:04.44	332.44	2.95	-45.0	-59.5	3.8	1.49e+00	0	60	104	1056964608	60	20504
2026-01-20 11:46:07.46	332.68	2.79	-44.9	-59.5	3.8	1.49e+00	0	59	104	1056964608	60	20467
2026-01-20 11:46:10.50	332.92	2.63	-44.8	-59.5	3.8	1.49e+00	0	60	104	1056964608	60	20511
2026-01-20 11:46:13.53	333.16	2.46	-45.0	-59.5	3.8	1.49e+00	0	60	104	1056964608	60	20465
2026-01-20 11:46:16.56	333.39	2.30	-45.0	-59.5	3.8	1.49e+00	0	59	104	1056964608	60	20448
2026-01-20 11:46:19.59	333.63	2.14	-45.0	-59.5	3.8	1.49e+00	0	59	104	1056964608	60	20488
2026-01-20 11:46:22.62	333.86	1.98	-45.0	-59.5	3.8	1.49e+00	0	59	104	1056964608	60	20427

#Closed at: 2026-01-20 11:46:23
#Recorded file [1056 MB]: D:/lorett/data/31039_260120_143345.dat