passes_logs/2026/01/20/R2.0S_Moscow/R2.0S_Moscow__20260120_135209_FENGYUN_3D_rec.log

#Pass ID: 20260120_135209_FENGYUN 3D
#Satellite: FENGYUN 3D
#Configuration: FENGYUN 3D
#almurnet v.1.7.20251203
#Start time: 2026-01-20 13:52:10

#Version: 2.2.20231116
#Station: R2.0S_Moscow
#Location: 37.707566 lon 55.798166 lat
#TLE: 1 43010U 17072A   26019.93695019 -.00000250  00000+0 -96545-4 0  9996
#TLE: 2 43010  98.9942 351.8290 0002452 100.7901 259.3550 14.19695974423957

#Time	Az	El	Level	Level2	SNR	BER	BlckErr	Temp	State	Recorded	gain1	gain2
2026-01-20 13:52:10.80	219.21	2.09	-44.0	-55.6	3.8	8.47e-01	0	50	0	0	59	13837
2026-01-20 13:52:13.82	219.48	2.24	-44.0	-55.6	3.8	8.46e-01	0	50	104	0	59	13841
2026-01-20 13:52:16.85	219.74	2.39	-44.0	-55.6	3.8	8.48e-01	0	50	104	0	59	13836
2026-01-20 13:52:19.88	220.02	2.54	-44.0	-55.6	3.8	8.45e-01	0	50	104	0	59	13874
2026-01-20 13:52:22.92	220.29	2.69	-44.0	-55.7	3.8	8.45e-01	0	50	104	0	59	13894
2026-01-20 13:52:25.95	220.57	2.85	-44.0	-55.6	3.8	8.46e-01	0	51	104	0	59	13865
2026-01-20 13:52:28.98	220.85	3.00	-44.0	-55.6	3.8	8.47e-01	0	51	104	0	59	13862
2026-01-20 13:52:32.01	221.13	3.15	-44.0	-55.7	3.8	8.45e-01	0	51	104	0	59	13897
2026-01-20 13:52:35.04	221.42	3.31	-44.0	-55.6	3.8	8.46e-01	0	51	104	0	59	13834
2026-01-20 13:52:38.07	221.71	3.46	-44.0	-55.6	3.8	8.47e-01	0	51	104	0	59	13881
2026-01-20 13:52:41.11	222.00	3.62	-44.0	-55.6	3.8	8.46e-01	0	52	104	0	59	13794
2026-01-20 13:52:44.14	222.29	3.77	-44.0	-55.6	3.8	8.46e-01	0	52	104	0	59	13870
2026-01-20 13:52:47.17	222.59	3.92	-44.0	-55.6	3.8	8.46e-01	0	52	104	0	59	13859
2026-01-20 13:52:50.20	222.89	4.08	-44.0	-55.6	3.8	8.46e-01	0	52	104	0	59	13856
2026-01-20 13:52:53.23	223.19	4.23	-44.0	-55.6	3.8	8.46e-01	0	52	104	0	59	13865
2026-01-20 13:52:56.26	223.50	4.39	-44.0	-55.6	3.8	8.45e-01	0	53	104	0	59	13836
2026-01-20 13:52:59.29	223.81	4.55	-44.0	-55.6	3.8	8.46e-01	0	53	104	0	59	13807
2026-01-20 13:53:02.33	224.13	4.70	-44.0	-55.6	3.8	8.47e-01	0	53	104	0	59	13823
2026-01-20 13:53:05.36	224.44	4.86	-44.0	-55.6	3.8	8.46e-01	0	53	104	0	59	13792
2026-01-20 13:53:08.39	224.76	5.01	-44.0	-55.6	3.8	8.45e-01	0	53	104	0	59	13843
2026-01-20 13:53:11.42	225.08	5.17	-44.0	-55.6	3.8	8.45e-01	0	53	104	0	59	13786
2026-01-20 13:53:14.45	225.41	5.33	-44.0	-55.6	3.8	8.45e-01	0	53	104	0	59	13738
2026-01-20 13:53:17.48	225.74	5.48	-44.0	-55.5	3.8	8.45e-01	0	54	104	0	59	13666
2026-01-20 13:53:20.51	226.07	5.64	-44.0	-55.4	3.8	8.47e-01	0	54	104	0	59	13545
2026-01-20 13:53:23.55	226.41	5.80	-44.0	-55.4	3.8	8.45e-01	0	54	104	0	59	13487
2026-01-20 13:53:26.58	226.75	5.96	-44.0	-55.3	3.8	8.46e-01	0	54	104	0	59	13298
2026-01-20 13:53:29.61	227.10	6.11	-43.9	-55.0	3.8	8.47e-01	0	54	104	0	59	12815
2026-01-20 13:53:32.64	227.44	6.27	-43.9	-54.7	3.8	8.45e-01	0	54	104	0	59	12489
2026-01-20 13:53:35.67	227.79	6.43	-43.8	-54.0	3.9	8.46e-01	0	54	104	0	59	11459
2026-01-20 13:53:38.70	228.15	6.59	-43.7	-52.9	3.9	8.43e-01	0	54	104	0	59	10082
2026-01-20 13:53:41.73	228.51	6.74	-43.4	-51.1	4.5	8.27e-01	0	54	0	0	58	8746
2026-01-20 13:53:44.76	228.87	6.90	-43.0	-49.5	5.4	7.28e-01	0	54	0	0	58	7209
2026-01-20 13:53:47.79	229.24	7.06	-42.7	-48.3	6.2	3.38e-01	0	55	0	10485760	57	6690
2026-01-20 13:53:50.82	229.61	7.22	-42.8	-48.6	6.0	3.57e-01	0	55	0	28311552	57	6958
2026-01-20 13:53:53.85	229.98	7.37	-42.9	-49.1	5.6	6.32e-01	0	55	0	42991616	57	7354
2026-01-20 13:53:56.88	230.36	7.53	-42.4	-47.6	6.8	2.54e-01	0	55	0	57671680	56	6505
2026-01-20 13:53:59.92	230.74	7.69	-40.9	-44.4	9.8	1.54e-02	0	55	0	75497472	53	5360
2026-01-20 13:54:02.95	231.12	7.84	-39.8	-42.5	11.9	8.26e-04	0	55	0	92274688	51	4852
2026-01-20 13:54:05.98	231.51	8.00	-39.9	-42.6	11.8	6.11e-04	0	55	0	109051904	51	4886
2026-01-20 13:54:09.01	231.91	8.16	-42.6	-48.6	5.9	2.34e-02	0	55	0	125829120	55	7732
2026-01-20 13:54:12.04	232.31	8.32	-39.6	-42.1	12.3	2.62e-03	0	56	0	135266304	51	4642
2026-01-20 13:54:15.07	232.71	8.47	-39.5	-42.0	12.5	2.12e-04	0	56	0	153092096	51	4571
2026-01-20 13:54:18.10	233.11	8.63	-39.4	-41.8	12.7	1.34e-04	0	56	0	169869312	50	4752
2026-01-20 13:54:21.13	233.52	8.78	-39.1	-41.3	13.2	4.00e-05	0	56	0	186646528	50	4472
2026-01-20 13:54:24.16	233.94	8.94	-39.2	-41.4	13.1	4.46e-05	0	56	0	203423744	50	4543
2026-01-20 13:54:27.19	234.36	9.09	-39.2	-41.5	13.1	4.80e-05	0	56	0	220200960	50	4569
2026-01-20 13:54:30.22	234.78	9.25	-39.3	-41.7	12.9	6.40e-05	0	56	0	238026752	50	4667
2026-01-20 13:54:33.24	235.21	9.40	-39.3	-41.6	13.0	5.95e-05	0	56	0	254803968	50	4638
2026-01-20 13:54:36.27	235.64	9.56	-39.2	-41.6	13.0	5.95e-05	0	56	0	271581184	50	4609
2026-01-20 13:54:39.30	236.08	9.71	-39.1	-41.4	13.2	3.20e-05	0	56	0	289406976	50	4538
2026-01-20 13:54:42.33	236.52	9.86	-39.0	-41.2	13.4	2.74e-05	0	56	0	306184192	50	4437
2026-01-20 13:54:45.36	236.96	10.02	-39.1	-41.3	13.3	2.86e-05	0	56	0	322961408	50	4474
2026-01-20 13:54:48.39	237.41	10.17	-39.1	-41.4	13.3	3.43e-05	0	56	0	339738624	50	4504
2026-01-20 13:54:51.41	237.87	10.32	-39.1	-41.3	13.4	2.17e-05	0	56	0	357564416	50	4470
2026-01-20 13:54:54.44	238.32	10.47	-38.9	-41.0	13.7	9.10e-06	0	56	0	374341632	49	4570
2026-01-20 13:54:57.47	238.79	10.62	-38.9	-41.1	13.6	1.48e-05	0	57	0	391118848	49	4605
2026-01-20 13:55:00.51	239.26	10.77	-39.1	-41.3	13.4	1.83e-05	0	56	0	407896064	49	4742
2026-01-20 13:55:03.54	239.73	10.92	-39.0	-41.1	13.5	1.48e-05	0	56	0	424673280	49	4649
2026-01-20 13:55:06.56	240.21	11.06	-38.9	-41.1	13.6	9.10e-06	0	56	0	442499072	49	4613
2026-01-20 13:55:09.59	240.69	11.21	-38.9	-41.1	13.7	1.60e-05	0	57	0	459276288	49	4608
2026-01-20 13:55:12.62	241.18	11.36	-38.9	-41.0	13.8	1.48e-05	0	57	0	476053504	49	4558
2026-01-20 13:55:15.65	241.67	11.50	-38.7	-40.8	14.0	3.40e-06	0	57	0	493879296	49	4454
2026-01-20 13:55:18.68	242.16	11.64	-38.7	-40.8	14.0	4.50e-06	0	57	0	510656512	49	4456
2026-01-20 13:55:21.71	242.66	11.79	-38.7	-40.8	14.0	4.50e-06	0	57	0	527433728	49	4464
2026-01-20 13:55:24.74	243.17	11.93	-38.7	-40.8	14.0	4.50e-06	0	57	0	544210944	49	4469
2026-01-20 13:55:27.78	243.68	12.07	-38.7	-40.7	14.0	8.00e-06	0	57	0	562036736	49	4439
2026-01-20 13:55:30.80	244.20	12.21	-38.7	-40.7	14.1	1.10e-06	0	57	0	578813952	49	4426
2026-01-20 13:55:33.83	244.72	12.34	-38.8	-40.8	13.9	3.40e-06	0	57	0	595591168	49	4488
2026-01-20 13:55:36.85	245.24	12.48	-38.7	-40.7	14.1	9.10e-06	0	57	0	612368384	49	4424
2026-01-20 13:55:39.88	245.77	12.61	-38.7	-40.8	14.0	5.70e-06	0	57	0	629145600	49	4451
2026-01-20 13:55:42.91	246.30	12.75	-38.5	-40.5	14.3	2.20e-06	0	57	0	646971392	49	4333
2026-01-20 13:55:45.94	246.84	12.88	-38.4	-40.4	14.4	0.00e+00	0	57	0	663748608	48	4517
2026-01-20 13:55:48.97	247.38	13.01	-38.5	-40.5	14.4	0.00e+00	0	57	0	680525824	48	4549
2026-01-20 13:55:52.00	247.93	13.14	-38.4	-40.3	14.6	3.40e-06	0	57	0	697303040	48	4465
2026-01-20 13:55:55.03	248.48	13.26	-38.2	-40.1	14.7	0.00e+00	0	57	0	715128832	48	4372
2026-01-20 13:55:58.06	249.04	13.39	-38.1	-40.0	14.9	0.00e+00	0	57	0	731906048	48	4308
2026-01-20 13:56:01.08	249.60	13.51	-38.3	-40.2	14.7	0.00e+00	0	57	0	748683264	48	4419
2026-01-20 13:56:04.11	250.17	13.63	-38.4	-40.3	14.6	1.10e-06	0	57	0	766509056	48	4448
2026-01-20 13:56:07.14	250.74	13.75	-38.3	-40.2	14.7	0.00e+00	0	57	0	783286272	48	4413
2026-01-20 13:56:10.17	251.31	13.87	-38.4	-40.3	14.6	0.00e+00	0	57	0	800063488	48	4463
2026-01-20 13:56:13.20	251.89	13.98	-38.2	-40.1	14.8	0.00e+00	0	57	0	816840704	48	4367
2026-01-20 13:56:16.23	252.47	14.09	-38.4	-40.4	14.5	0.00e+00	0	57	0	833617920	48	4503
2026-01-20 13:56:19.26	253.06	14.20	-38.3	-40.2	14.7	0.00e+00	0	58	0	851443712	48	4418
2026-01-20 13:56:22.28	253.65	14.31	-38.0	-39.9	15.0	0.00e+00	0	57	0	868220928	48	4252
2026-01-20 13:56:25.31	254.25	14.42	-37.9	-39.7	15.1	0.00e+00	0	58	0	884998144	47	4398
2026-01-20 13:56:28.34	254.85	14.52	-38.1	-39.9	14.9	1.10e-06	0	58	0	901775360	47	4529
2026-01-20 13:56:31.38	255.45	14.62	-38.1	-40.0	14.8	0.00e+00	0	58	0	919601152	47	4593
2026-01-20 13:56:34.41	256.06	14.72	-37.9	-39.8	15.0	0.00e+00	0	58	0	936378368	47	4458
2026-01-20 13:56:37.43	256.67	14.82	-37.8	-39.5	15.3	1.10e-06	0	58	0	953155584	47	4338
2026-01-20 13:56:40.46	257.29	14.91	-37.8	-39.6	15.2	0.00e+00	0	58	0	970981376	47	4360
2026-01-20 13:56:43.49	257.91	15.00	-37.9	-39.8	15.0	0.00e+00	0	58	0	987758592	47	4452
2026-01-20 13:56:46.52	258.53	15.08	-38.0	-39.8	15.0	0.00e+00	0	58	0	1004535808	47	4462
2026-01-20 13:56:49.55	259.16	15.17	-37.8	-39.6	15.2	0.00e+00	0	58	0	1021313024	47	4378
2026-01-20 13:56:52.58	259.79	15.25	-37.8	-39.6	15.2	0.00e+00	0	58	0	1038090240	47	4388
2026-01-20 13:56:55.60	260.42	15.33	-37.9	-39.8	15.1	0.00e+00	0	58	0	1055916032	47	4451
2026-01-20 13:56:58.63	261.05	15.40	-38.0	-39.9	15.0	0.00e+00	0	58	0	1072693248	47	4500
2026-01-20 13:57:01.66	261.69	15.48	-38.0	-39.8	15.0	0.00e+00	0	58	0	1089470464	47	4489
2026-01-20 13:57:04.69	262.33	15.54	-37.9	-39.7	15.2	0.00e+00	0	58	0	1106247680	47	4402
2026-01-20 13:57:07.72	262.98	15.61	-38.0	-39.8	15.0	0.00e+00	0	58	0	1124073472	47	4477
2026-01-20 13:57:10.75	263.63	15.67	-37.8	-39.7	15.2	0.00e+00	0	58	0	1140850688	47	4396
2026-01-20 13:57:13.78	264.28	15.73	-37.8	-39.6	15.2	0.00e+00	0	58	0	1157627904	47	4388
2026-01-20 13:57:16.80	264.93	15.79	-37.7	-39.5	15.4	0.00e+00	0	58	0	1175453696	47	4307
2026-01-20 13:57:19.83	265.58	15.84	-37.9	-39.7	15.2	0.00e+00	0	58	0	1192230912	47	4407
2026-01-20 13:57:22.86	266.24	15.89	-38.0	-39.9	15.0	0.00e+00	0	58	0	1209008128	47	4519
2026-01-20 13:57:25.89	266.90	15.94	-38.1	-39.9	14.9	0.00e+00	0	58	0	1225785344	47	4525
2026-01-20 13:57:28.92	267.56	15.98	-37.7	-39.4	15.4	0.00e+00	0	58	0	1242562560	47	4272
2026-01-20 13:57:31.95	268.22	16.02	-37.7	-39.4	15.4	0.00e+00	0	58	0	1260388352	47	4268
2026-01-20 13:57:34.98	268.88	16.05	-37.7	-39.4	15.4	0.00e+00	0	58	0	1277165568	47	4278
2026-01-20 13:57:38.01	269.55	16.08	-37.6	-39.3	15.5	0.00e+00	0	58	0	1293942784	47	4225
2026-01-20 13:57:41.04	270.22	16.11	-37.7	-39.5	15.4	0.00e+00	0	58	0	1310720000	47	4308
2026-01-20 13:57:44.07	270.88	16.13	-37.7	-39.5	15.4	0.00e+00	0	58	0	1328545792	47	4297
2026-01-20 13:57:47.10	271.55	16.15	-37.6	-39.3	15.5	0.00e+00	0	58	0	1345323008	47	4220
2026-01-20 13:57:50.12	272.22	16.17	-37.7	-39.4	15.4	0.00e+00	0	58	0	1362100224	47	4287
2026-01-20 13:57:53.15	272.89	16.18	-37.7	-39.4	15.4	0.00e+00	0	58	0	1379926016	47	4283
2026-01-20 13:57:56.18	273.56	16.19	-37.8	-39.6	15.2	0.00e+00	0	58	0	1396703232	47	4368
2026-01-20 13:57:59.21	274.23	16.20	-37.8	-39.6	15.2	0.00e+00	0	58	0	1413480448	47	4367
2026-01-20 13:58:02.23	274.90	16.20	-37.8	-39.6	15.2	1.10e-06	0	58	0	1430257664	47	4375
2026-01-20 13:58:05.26	275.57	16.20	-37.7	-39.5	15.3	1.10e-06	0	58	0	1447034880	47	4299
2026-01-20 13:58:08.29	276.24	16.19	-37.7	-39.4	15.4	0.00e+00	0	58	0	1464860672	47	4281
2026-01-20 13:58:11.32	276.91	16.19	-37.7	-39.5	15.2	0.00e+00	0	58	0	1481637888	47	4324
2026-01-20 13:58:14.35	277.58	16.17	-37.6	-39.4	15.4	0.00e+00	0	58	0	1498415104	47	4266
2026-01-20 13:58:17.38	278.25	16.16	-37.8	-39.7	15.1	0.00e+00	0	58	0	1515192320	47	4407
2026-01-20 13:58:20.41	278.92	16.14	-37.8	-39.6	15.1	1.10e-06	0	58	0	1533018112	47	4389
2026-01-20 13:58:23.44	279.58	16.11	-37.9	-39.8	15.0	0.00e+00	0	58	0	1549795328	47	4454
2026-01-20 13:58:26.47	280.25	16.08	-37.9	-39.7	15.0	1.10e-06	0	58	0	1566572544	47	4438
2026-01-20 13:58:29.50	280.91	16.05	-37.8	-39.5	15.2	0.00e+00	0	58	0	1583349760	47	4331
2026-01-20 13:58:32.53	281.58	16.02	-37.6	-39.4	15.4	1.10e-06	0	58	0	1601175552	47	4243
2026-01-20 13:58:35.56	282.24	15.98	-37.7	-39.5	15.2	0.00e+00	0	58	0	1617952768	47	4335
2026-01-20 13:58:38.59	282.90	15.94	-37.9	-39.8	14.9	0.00e+00	0	58	0	1634729984	47	4461
2026-01-20 13:58:41.62	283.56	15.89	-37.9	-39.8	14.9	0.00e+00	0	58	0	1651507200	47	4479
2026-01-20 13:58:44.65	284.21	15.84	-37.9	-39.8	14.9	0.00e+00	0	58	0	1669332992	47	4470
2026-01-20 13:58:47.68	284.87	15.79	-38.0	-39.8	14.8	0.00e+00	0	58	0	1686110208	47	4489
2026-01-20 13:58:50.71	285.52	15.74	-37.8	-39.7	15.0	1.10e-06	0	58	0	1702887424	47	4401
2026-01-20 13:58:53.74	286.17	15.68	-37.9	-39.8	14.8	0.00e+00	0	58	0	1719664640	47	4479
2026-01-20 13:58:56.77	286.81	15.62	-38.1	-40.0	14.6	1.10e-06	0	58	0	1737490432	47	4583
2026-01-20 13:58:59.80	287.46	15.55	-38.1	-40.0	14.6	2.20e-06	0	58	0	1754267648	47	4597
2026-01-20 13:59:02.83	288.10	15.48	-38.1	-40.0	14.5	0.00e+00	0	59	0	1771044864	47	4593
2026-01-20 13:59:05.86	288.73	15.41	-38.0	-40.0	14.7	0.00e+00	0	58	0	1788870656	47	4547
2026-01-20 13:59:08.89	289.37	15.34	-38.1	-40.1	14.6	1.10e-06	0	58	0	1805647872	47	4601
2026-01-20 13:59:11.92	290.00	15.26	-38.1	-40.0	14.6	1.10e-06	0	58	0	1822425088	47	4583
2026-01-20 13:59:14.96	290.63	15.18	-38.3	-40.3	14.2	2.20e-06	0	58	0	1839202304	47	4751
2026-01-20 13:59:17.99	291.25	15.09	-38.3	-40.3	14.3	2.20e-06	0	59	0	1855979520	47	4711
2026-01-20 13:59:21.01	291.87	15.01	-38.2	-40.2	14.3	0.00e+00	0	58	0	1873805312	47	4699
2026-01-20 13:59:24.04	292.49	14.92	-38.3	-40.3	14.2	5.70e-06	0	59	0	1890582528	47	4736
2026-01-20 13:59:27.07	293.10	14.83	-38.3	-40.3	14.2	0.00e+00	0	59	0	1907359744	47	4721
2026-01-20 13:59:30.10	293.71	14.73	-38.3	-40.4	14.1	1.10e-06	0	59	0	1925185536	47	4762
2026-01-20 13:59:33.13	294.32	14.63	-38.3	-40.3	14.2	6.80e-06	0	58	0	1941962752	47	4717
2026-01-20 13:59:36.16	294.92	14.53	-38.3	-40.3	14.2	1.10e-06	0	59	0	1958739968	47	4723
2026-01-20 13:59:39.19	295.52	14.43	-38.4	-40.5	14.0	1.10e-06	0	58	0	1975517184	47	4837
2026-01-20 13:59:42.22	296.11	14.33	-38.3	-40.3	14.2	1.10e-06	0	59	0	1992294400	47	4759
2026-01-20 13:59:45.25	296.70	14.22	-38.4	-40.4	14.1	2.20e-06	0	58	0	2010120192	47	4781
2026-01-20 13:59:48.28	297.29	14.11	-38.4	-40.4	14.1	6.80e-06	0	58	0	2026897408	47	4787
2026-01-20 13:59:51.31	297.87	14.00	-38.3	-40.3	14.2	0.00e+00	0	59	0	2043674624	47	4730
2026-01-20 13:59:54.33	298.45	13.89	-38.3	-40.4	14.2	3.40e-06	0	58	0	2060451840	47	4764
2026-01-20 13:59:57.36	299.02	13.77	-38.4	-40.5	14.1	8.00e-06	0	58	0	2078277632	47	4830
2026-01-20 14:00:00.39	299.59	13.65	-38.4	-40.5	14.2	4.50e-06	0	58	0	2095054848	47	4815
2026-01-20 14:00:03.42	300.15	13.53	-38.5	-40.6	14.1	2.20e-06	0	58	0	2111832064	47	4883
2026-01-20 14:00:06.45	300.71	13.41	-38.5	-40.6	14.0	5.70e-06	0	58	0	2128609280	47	4890
2026-01-20 14:00:09.48	301.27	13.29	-38.5	-40.6	14.0	2.20e-06	0	59	0	2146435072	47	4891
2026-01-20 14:00:12.51	301.82	13.16	-38.6	-40.7	13.9	5.70e-06	0	59	0	2163212288	47	4980
2026-01-20 14:00:15.54	302.36	13.03	-38.7	-40.8	13.8	4.50e-06	0	58	0	2179989504	47	4998
2026-01-20 14:00:18.57	302.90	12.91	-38.6	-40.6	14.1	5.70e-06	0	59	0	2196766720	48	4650
2026-01-20 14:00:21.60	303.44	12.78	-38.7	-40.7	14.0	5.70e-06	0	59	0	2214592512	48	4684
2026-01-20 14:00:24.63	303.97	12.64	-38.9	-41.0	13.7	6.80e-06	0	58	0	2231369728	48	4832
2026-01-20 14:00:27.65	304.50	12.51	-38.8	-40.9	13.8	8.00e-06	0	59	0	2248146944	48	4794
2026-01-20 14:00:30.68	305.02	12.38	-38.8	-40.9	13.8	9.10e-06	0	59	0	2264924160	48	4774
2026-01-20 14:00:33.71	305.54	12.24	-38.7	-40.8	13.8	8.00e-06	0	58	0	2282749952	48	4740
2026-01-20 14:00:36.74	306.05	12.10	-38.8	-40.9	13.7	1.14e-05	0	59	0	2299527168	48	4780
2026-01-20 14:00:39.77	306.56	11.96	-38.8	-40.9	13.7	1.02e-05	0	59	0	2316304384	48	4808
2026-01-20 14:00:42.80	307.06	11.82	-39.0	-41.1	13.5	2.05e-05	0	58	0	2333081600	48	4926
2026-01-20 14:00:45.82	307.56	11.68	-39.1	-41.4	13.3	4.34e-05	0	58	0	2350907392	48	5045
2026-01-20 14:00:48.85	308.06	11.54	-39.1	-41.4	13.2	4.46e-05	0	59	0	2367684608	48	5091
2026-01-20 14:00:51.88	308.55	11.40	-39.1	-41.3	13.3	4.80e-05	0	58	0	2384461824	48	5037
2026-01-20 14:00:54.91	309.03	11.25	-39.1	-41.4	13.1	4.23e-05	0	59	0	2401239040	48	5075
2026-01-20 14:00:57.94	309.51	11.11	-39.2	-41.5	13.1	3.66e-05	0	59	0	2419064832	48	5105
2026-01-20 14:01:00.97	309.99	10.96	-39.2	-41.5	13.1	4.69e-05	0	59	0	2435842048	49	4843
2026-01-20 14:01:04.00	310.46	10.82	-39.2	-41.5	13.1	5.03e-05	0	59	0	2452619264	49	4828
2026-01-20 14:01:07.03	310.93	10.67	-39.2	-41.4	13.1	6.17e-05	0	59	0	2469396480	49	4810
2026-01-20 14:01:10.06	311.39	10.52	-39.1	-41.4	13.1	6.17e-05	0	59	0	2487222272	49	4791
2026-01-20 14:01:13.09	311.85	10.37	-39.1	-41.4	13.1	6.29e-05	0	59	0	2503999488	49	4774
2026-01-20 14:01:16.12	312.30	10.22	-39.0	-41.3	13.2	5.26e-05	0	59	0	2520776704	49	4717
2026-01-20 14:01:19.15	312.75	10.07	-39.1	-41.5	13.0	6.40e-05	0	59	0	2537553920	49	4827
2026-01-20 14:01:22.18	313.19	9.92	-39.3	-41.7	12.7	1.15e-04	0	59	0	2555379712	49	4959
2026-01-20 14:01:25.20	313.63	9.77	-39.3	-41.7	12.7	1.29e-04	0	59	0	2572156928	49	4953
2026-01-20 14:01:28.23	314.07	9.62	-39.2	-41.5	12.8	8.58e-05	0	59	0	2588934144	49	4868
2026-01-20 14:01:31.26	314.50	9.47	-39.3	-41.7	12.7	1.30e-04	0	59	0	2605711360	49	4965
2026-01-20 14:01:34.29	314.92	9.31	-39.5	-42.0	12.3	2.33e-04	0	59	0	2623537152	49	5147
2026-01-20 14:01:37.31	315.34	9.16	-39.4	-41.9	12.4	2.21e-04	0	59	0	2640314368	49	5056
2026-01-20 14:01:40.34	315.76	9.01	-39.5	-41.9	12.3	2.56e-04	0	59	0	2657091584	49	5098
2026-01-20 14:01:43.37	316.18	8.85	-39.5	-42.1	12.2	2.70e-04	0	59	0	2673868800	49	5173
2026-01-20 14:01:46.40	316.59	8.70	-39.6	-42.2	12.1	4.49e-04	0	59	0	2691694592	49	5230
2026-01-20 14:01:49.43	316.99	8.55	-39.6	-42.2	12.1	3.73e-04	0	59	0	2708471808	49	5221
2026-01-20 14:01:52.46	317.39	8.39	-39.6	-42.2	12.1	4.10e-04	0	59	0	2725249024	49	5229
2026-01-20 14:01:55.49	317.79	8.24	-39.7	-42.2	12.0	4.32e-04	0	59	0	2742026240	49	5275
2026-01-20 14:01:58.52	318.18	8.08	-39.8	-42.4	11.9	6.17e-04	0	59	0	2759852032	50	5089
2026-01-20 14:02:01.55	318.57	7.93	-44.5	-55.9	3.8	8.46e-01	0	59	104	2771386368	59	14327
2026-01-20 14:02:04.59	318.96	7.77	-45.0	-56.7	3.8	8.46e-01	0	59	104	2771386368	60	14756
2026-01-20 14:02:07.62	319.34	7.61	-45.2	-56.9	3.8	8.46e-01	0	59	104	2771386368	60	15078
2026-01-20 14:02:10.65	319.72	7.46	-45.1	-56.8	3.8	8.45e-01	0	59	104	2771386368	60	14951
2026-01-20 14:02:13.68	320.09	7.30	-45.1	-56.8	3.8	8.47e-01	0	59	104	2771386368	60	15003
2026-01-20 14:02:16.71	320.46	7.15	-45.1	-56.8	3.8	8.46e-01	0	59	104	2771386368	60	14946
2026-01-20 14:02:19.74	320.83	6.99	-45.1	-56.8	3.8	8.46e-01	0	59	104	2771386368	60	14903
2026-01-20 14:02:22.77	321.19	6.84	-45.1	-56.7	3.8	8.45e-01	0	59	104	2771386368	60	14848
2026-01-20 14:02:25.81	321.55	6.68	-45.1	-56.8	3.8	8.47e-01	0	59	104	2771386368	60	14889
2026-01-20 14:02:28.84	321.90	6.52	-45.1	-56.7	3.8	8.45e-01	0	59	104	2771386368	60	14844
2026-01-20 14:02:31.87	322.25	6.37	-45.0	-56.7	3.8	8.47e-01	0	59	104	2771386368	60	14868
2026-01-20 14:02:34.90	322.60	6.21	-45.0	-56.7	3.8	8.45e-01	0	59	104	2771386368	60	14877
2026-01-20 14:02:37.93	322.95	6.06	-45.1	-56.7	3.8	8.45e-01	0	59	104	2771386368	60	14786
2026-01-20 14:02:40.96	323.29	5.90	-45.1	-56.7	3.8	8.45e-01	0	59	104	2771386368	60	14861
2026-01-20 14:02:43.99	323.62	5.75	-45.0	-56.7	3.8	8.47e-01	0	59	104	2771386368	60	14824
2026-01-20 14:02:47.02	323.96	5.59	-45.0	-56.8	3.8	8.45e-01	0	59	104	2771386368	60	14927
2026-01-20 14:02:50.05	324.29	5.44	-45.0	-56.7	3.8	8.47e-01	0	59	104	2771386368	60	14803
2026-01-20 14:02:53.09	324.61	5.28	-45.0	-56.7	3.8	8.45e-01	0	59	104	2771386368	60	14849
2026-01-20 14:02:56.12	324.94	5.13	-45.0	-56.7	3.8	8.46e-01	0	59	104	2771386368	60	14797
2026-01-20 14:02:59.15	325.26	4.97	-45.0	-56.7	3.8	8.46e-01	0	59	104	2771386368	60	14849
2026-01-20 14:03:02.18	325.58	4.82	-45.0	-56.7	3.8	8.46e-01	0	59	104	2771386368	60	14803
2026-01-20 14:03:05.21	325.89	4.66	-45.0	-56.7	3.8	8.45e-01	0	59	104	2771386368	60	14772
2026-01-20 14:03:08.24	326.20	4.51	-45.0	-56.7	3.8	8.46e-01	0	59	104	2771386368	60	14844
2026-01-20 14:03:11.28	326.51	4.36	-45.0	-56.7	3.8	8.45e-01	0	59	104	2771386368	60	14731
2026-01-20 14:03:14.31	326.81	4.20	-45.0	-56.7	3.8	8.46e-01	0	59	104	2771386368	60	14722
2026-01-20 14:03:17.34	327.12	4.05	-45.0	-56.7	3.8	8.46e-01	0	59	104	2771386368	60	14746
2026-01-20 14:03:20.37	327.41	3.90	-44.4	-56.7	3.8	8.46e-01	0	59	104	2771386368	60	14734
2026-01-20 14:03:23.40	327.71	3.74	-45.0	-56.7	3.8	8.45e-01	0	59	104	2771386368	60	14735
2026-01-20 14:03:26.43	328.00	3.59	-45.0	-56.7	3.8	8.47e-01	0	59	104	2771386368	60	14722
2026-01-20 14:03:29.46	328.29	3.44	-44.9	-56.6	3.8	8.45e-01	0	59	104	2771386368	60	14707
2026-01-20 14:03:32.49	328.58	3.29	-44.7	-56.7	3.8	8.47e-01	0	59	104	2771386368	60	14745
2026-01-20 14:03:35.52	328.86	3.14	-44.9	-56.6	3.8	8.47e-01	0	59	104	2771386368	60	14693
2026-01-20 14:03:38.55	329.14	2.98	-44.7	-56.6	3.8	8.47e-01	0	59	104	2771386368	60	14680
2026-01-20 14:03:41.59	329.42	2.83	-44.9	-56.7	3.8	8.47e-01	0	59	104	2771386368	60	14723
2026-01-20 14:03:44.62	329.70	2.68	-45.0	-56.6	3.8	8.47e-01	0	59	104	2771386368	60	14694
2026-01-20 14:03:47.65	329.97	2.53	-44.9	-56.7	3.8	8.45e-01	0	59	104	2771386368	60	14765
2026-01-20 14:03:50.68	330.24	2.38	-45.0	-56.7	3.8	8.47e-01	0	59	104	2771386368	60	14735
2026-01-20 14:03:53.71	330.51	2.23	-45.0	-56.6	3.8	8.47e-01	0	59	104	2771386368	60	14680
2026-01-20 14:03:56.74	330.78	2.08	-45.0	-56.7	3.8	8.47e-01	0	59	104	2771386368	60	14730
2026-01-20 14:03:59.77	331.04	1.93	-45.0	-56.6	3.8	8.45e-01	0	59	104	2771386368	60	14665

#Closed at: 2026-01-20 14:04:01
#Recorded file [2771 MB]: D:/lorett/data/31039_260120_165210.dat