passes_logs/2026/01/20/R2.0S_Moscow/R2.0S_Moscow__20260120_054346_FENGYUN_3E_rec.log

#Pass ID: 20260120_054346_FENGYUN 3E
#Satellite: FENGYUN 3E
#Configuration: FENGYUN 3E
#almurnet v.1.7.20251203
#Start time: 2026-01-20 05:43:47

#Version: 2.2.20231116
#Station: R2.0S_Moscow
#Location: 37.707566 lon 55.798166 lat
#TLE: 1 49008U 21062A   26019.58611515 -.00000153  00000+0 -51205-4 0  9999
#TLE: 2 49008  98.7481  24.6604 0002215 127.7537 232.3840 14.19884915235499

#Time	Az	El	Level	Level2	SNR	BER	BlckErr	Temp	State	Recorded	gain1	gain2
2026-01-20 05:43:47.85	9.75	2.10	-40.2	-51.3	3.8	8.46e-01	0	52	0	0	51	12551
2026-01-20 05:43:50.87	9.54	2.27	-40.2	-51.3	3.8	8.47e-01	0	53	104	0	50	13290
2026-01-20 05:43:53.90	9.33	2.44	-40.2	-51.3	3.8	8.46e-01	0	53	104	0	50	13333
2026-01-20 05:43:56.93	9.11	2.61	-40.2	-51.3	3.8	8.46e-01	0	53	104	0	50	13288
2026-01-20 05:43:59.96	8.89	2.78	-40.2	-51.3	3.8	8.46e-01	0	54	104	0	50	13307
2026-01-20 05:44:02.99	8.68	2.95	-40.2	-51.3	3.8	8.45e-01	0	54	104	0	50	13286
2026-01-20 05:44:06.03	8.45	3.12	-40.2	-51.3	3.8	8.47e-01	0	54	104	0	50	13285
2026-01-20 05:44:09.06	8.23	3.29	-40.2	-51.3	3.8	8.46e-01	0	55	104	0	50	13308
2026-01-20 05:44:12.09	8.00	3.46	-40.2	-51.2	3.8	8.46e-01	0	55	104	0	50	13254
2026-01-20 05:44:15.13	7.77	3.64	-40.2	-51.2	3.8	8.45e-01	0	55	104	0	50	13250
2026-01-20 05:44:18.15	7.53	3.81	-40.1	-51.2	3.8	8.46e-01	0	55	104	0	50	13243
2026-01-20 05:44:21.19	7.30	3.98	-40.2	-51.3	3.8	8.45e-01	0	55	104	0	50	13264
2026-01-20 05:44:24.22	7.06	4.16	-40.2	-51.2	3.8	8.45e-01	0	55	104	0	50	13241
2026-01-20 05:44:27.25	6.81	4.34	-40.1	-51.2	3.8	8.47e-01	0	55	104	0	50	13245
2026-01-20 05:44:30.28	6.57	4.51	-40.1	-51.3	3.8	8.46e-01	0	56	104	0	50	13272
2026-01-20 05:44:33.31	6.32	4.69	-40.1	-51.3	3.8	8.45e-01	0	56	104	0	50	13288
2026-01-20 05:44:36.34	6.07	4.87	-40.1	-51.2	3.8	8.46e-01	0	56	104	0	50	13227
2026-01-20 05:44:39.37	5.81	5.05	-40.2	-51.3	3.8	8.47e-01	0	56	104	0	50	13268
2026-01-20 05:44:42.40	5.55	5.22	-40.1	-51.2	3.8	8.46e-01	0	56	104	0	50	13207
2026-01-20 05:44:45.43	5.29	5.40	-40.1	-51.2	3.8	8.46e-01	0	56	104	0	50	13234
2026-01-20 05:44:48.47	5.02	5.58	-40.1	-51.3	3.8	8.46e-01	0	57	104	0	50	13262
2026-01-20 05:44:51.50	4.76	5.77	-37.6	-50.8	3.8	8.44e-01	0	57	104	0	45	16785
2026-01-20 05:44:54.53	4.48	5.95	-37.9	-50.7	3.9	8.43e-01	0	57	104	0	45	16636
2026-01-20 05:44:57.56	4.21	6.13	-38.1	-50.8	3.8	8.43e-01	0	57	104	0	45	16793
2026-01-20 05:45:00.59	3.93	6.31	-40.1	-51.2	3.8	8.47e-01	0	57	104	0	49	14036
2026-01-20 05:45:03.62	3.64	6.50	-40.1	-51.3	3.8	8.46e-01	0	57	104	0	49	14058
2026-01-20 05:45:06.65	3.36	6.68	-40.1	-51.2	3.8	8.47e-01	0	57	104	0	49	14006
2026-01-20 05:45:09.69	3.06	6.87	-40.1	-51.2	3.8	8.45e-01	0	58	104	0	49	14031
2026-01-20 05:45:12.72	2.77	7.05	-40.1	-51.2	3.8	8.46e-01	0	58	104	0	49	13965
2026-01-20 05:45:15.75	2.47	7.24	-40.1	-51.2	3.8	8.45e-01	0	58	104	0	49	14017
2026-01-20 05:45:18.78	2.17	7.42	-40.1	-51.2	3.8	8.46e-01	0	58	104	0	49	14031
2026-01-20 05:45:21.81	1.86	7.61	-40.1	-51.2	3.8	8.45e-01	0	58	104	0	49	13949
2026-01-20 05:45:24.84	1.55	7.80	-40.1	-51.2	3.8	8.46e-01	0	58	104	0	49	14036
2026-01-20 05:45:27.87	1.24	7.99	-40.1	-51.2	3.8	8.46e-01	0	58	104	0	49	14024
2026-01-20 05:45:30.90	0.92	8.18	-40.2	-51.4	3.8	8.46e-01	0	59	104	0	49	14287
2026-01-20 05:45:33.93	0.59	8.37	-40.3	-51.3	3.8	8.46e-01	0	58	104	0	50	13341
2026-01-20 05:45:36.95	0.27	8.55	-40.3	-51.4	3.8	8.46e-01	0	58	104	0	50	13538
2026-01-20 05:45:39.98	359.93	8.74	-40.2	-51.3	3.8	8.46e-01	0	59	104	0	50	13405
2026-01-20 05:45:43.01	359.60	8.94	-40.0	-51.4	3.8	8.46e-01	0	59	104	0	50	13468
2026-01-20 05:45:46.04	359.25	9.13	-39.9	-51.3	3.8	8.46e-01	0	59	104	0	50	13347
2026-01-20 05:45:49.06	358.91	9.32	-40.0	-51.4	3.8	8.45e-01	0	59	104	0	50	13452
2026-01-20 05:45:52.09	358.56	9.51	-39.9	-51.4	3.8	8.46e-01	0	59	104	0	50	13421
2026-01-20 05:45:55.12	358.20	9.70	-40.0	-51.4	3.8	8.46e-01	0	59	104	0	50	13466
2026-01-20 05:45:58.15	357.84	9.90	-39.8	-51.3	3.8	8.47e-01	0	59	104	0	50	13344
2026-01-20 05:46:01.17	357.48	10.09	-40.4	-51.5	3.8	8.46e-01	0	59	104	0	50	13677
2026-01-20 05:46:04.20	357.11	10.28	-40.0	-51.4	3.8	8.46e-01	0	59	104	0	50	13439
2026-01-20 05:46:07.23	356.73	10.48	-40.3	-51.5	3.8	8.47e-01	0	60	104	0	50	13648
2026-01-20 05:46:10.26	356.35	10.67	-40.0	-51.3	3.8	8.47e-01	0	59	104	0	50	13370
2026-01-20 05:46:13.29	355.96	10.87	-40.6	-51.6	3.8	8.47e-01	0	60	104	0	50	13879
2026-01-20 05:46:16.32	355.57	11.06	-40.5	-51.5	3.8	8.46e-01	0	60	104	0	51	12892
2026-01-20 05:46:19.35	355.18	11.26	-40.6	-51.5	3.8	8.46e-01	0	60	104	0	51	12832
2026-01-20 05:46:22.38	354.77	11.46	-40.6	-51.5	3.8	8.46e-01	0	60	104	0	51	12919
2026-01-20 05:46:25.41	354.36	11.65	-40.9	-51.8	3.8	8.47e-01	0	60	104	0	51	13334
2026-01-20 05:46:28.43	353.95	11.85	-40.6	-51.6	3.8	8.46e-01	0	60	104	0	51	13040
2026-01-20 05:46:31.46	353.53	12.04	-40.9	-51.8	3.8	8.47e-01	0	60	104	0	51	13380
2026-01-20 05:46:34.49	353.11	12.24	-40.9	-51.8	3.8	8.46e-01	0	60	104	0	51	13404
2026-01-20 05:46:37.52	352.68	12.43	-41.0	-52.0	3.8	8.46e-01	0	60	104	0	51	13611
2026-01-20 05:46:40.54	352.24	12.63	-41.0	-51.9	3.8	8.47e-01	0	60	104	0	52	12776
2026-01-20 05:46:43.57	351.80	12.83	-40.9	-51.9	3.8	8.47e-01	0	60	104	0	52	12725
2026-01-20 05:46:46.60	351.35	13.02	-41.0	-52.0	3.8	8.47e-01	0	60	104	0	52	12892
2026-01-20 05:46:49.63	350.89	13.22	-41.2	-52.1	3.8	8.46e-01	0	60	104	0	52	13079
2026-01-20 05:46:52.66	350.43	13.41	-41.2	-52.2	3.8	8.46e-01	0	60	104	0	52	13111
2026-01-20 05:46:55.68	349.97	13.61	-41.2	-52.1	3.8	8.45e-01	0	60	104	0	52	13093
2026-01-20 05:46:58.72	349.49	13.80	-41.0	-52.1	3.8	8.45e-01	0	60	104	0	52	13014
2026-01-20 05:47:01.75	349.01	14.00	-41.2	-52.2	3.8	8.47e-01	0	60	104	0	52	13182
2026-01-20 05:47:04.77	348.53	14.19	-41.6	-52.6	3.8	8.46e-01	0	60	104	0	52	13804
2026-01-20 05:47:07.80	348.03	14.38	-41.5	-52.5	3.8	8.47e-01	0	60	104	0	53	12953
2026-01-20 05:47:10.83	347.53	14.57	-41.8	-52.8	3.8	8.46e-01	0	60	104	0	53	13283
2026-01-20 05:47:13.86	347.03	14.77	-41.7	-52.7	3.8	8.47e-01	0	61	104	0	53	13162
2026-01-20 05:47:16.88	346.52	14.96	-41.4	-52.3	3.8	8.47e-01	0	61	104	0	53	12650
2026-01-20 05:47:19.91	346.00	15.15	-41.3	-52.2	3.8	8.46e-01	0	61	104	0	53	12517
2026-01-20 05:47:22.94	345.47	15.34	-41.3	-52.2	3.8	8.46e-01	0	61	104	0	53	12444
2026-01-20 05:47:25.97	344.94	15.52	-41.3	-52.3	3.8	8.46e-01	0	61	104	0	53	12574
2026-01-20 05:47:29.00	344.40	15.71	-41.0	-52.0	3.8	8.46e-01	0	61	104	0	52	12956
2026-01-20 05:47:32.03	343.85	15.90	-41.0	-52.0	3.8	8.46e-01	0	61	104	0	52	12889
2026-01-20 05:47:35.05	343.30	16.08	-40.6	-52.0	3.8	8.46e-01	0	61	104	0	52	12899
2026-01-20 05:47:38.08	342.73	16.27	-40.9	-52.0	3.8	8.45e-01	0	61	104	0	52	12912
2026-01-20 05:47:41.11	342.17	16.45	-40.7	-51.9	3.8	8.46e-01	0	61	104	0	52	12734
2026-01-20 05:47:44.14	341.59	16.63	-41.0	-52.0	3.8	8.47e-01	0	61	104	0	52	12834
2026-01-20 05:47:47.17	341.01	16.81	-41.2	-52.1	3.8	8.45e-01	0	61	104	0	52	13040
2026-01-20 05:47:50.19	340.42	16.98	-40.8	-51.9	3.8	8.46e-01	0	61	104	0	52	12721
2026-01-20 05:47:53.22	339.82	17.16	-41.5	-48.0	4.9	7.87e-01	0	61	0	0	53	7635
2026-01-20 05:47:56.25	339.22	17.33	-40.0	-43.3	9.4	2.73e-02	0	61	0	9437184	51	5006
2026-01-20 05:47:59.28	338.61	17.50	-37.4	-39.2	13.9	1.60e-05	0	61	0	30408704	45	4440
2026-01-20 05:48:02.31	337.99	17.67	-36.1	-37.6	15.8	0.00e+00	0	61	0	52428800	43	4127
2026-01-20 05:48:05.34	337.37	17.84	-36.9	-38.5	15.4	0.00e+00	0	61	0	74448896	43	4571
2026-01-20 05:48:08.37	336.74	18.00	-37.3	-38.9	15.4	0.00e+00	0	61	0	96468992	44	4516
2026-01-20 05:48:11.40	336.10	18.16	-37.4	-39.0	15.4	0.00e+00	0	61	0	118489088	44	4549
2026-01-20 05:48:14.43	335.45	18.32	-37.4	-38.9	15.6	0.00e+00	0	61	0	140509184	44	4508
2026-01-20 05:48:17.46	334.80	18.48	-37.1	-38.6	16.0	0.00e+00	0	61	0	162529280	44	4365
2026-01-20 05:48:20.49	334.14	18.63	-36.9	-38.4	16.3	0.00e+00	0	61	0	183500800	44	4248
2026-01-20 05:48:23.51	333.48	18.78	-36.8	-38.1	16.5	0.00e+00	0	61	0	205520896	44	4135
2026-01-20 05:48:26.55	332.80	18.93	-36.5	-37.9	16.9	0.00e+00	0	62	0	227540992	44	4010
2026-01-20 05:48:29.57	332.13	19.07	-36.8	-38.2	16.5	0.00e+00	0	61	0	249561088	44	4184
2026-01-20 05:48:32.60	331.44	19.21	-37.0	-38.4	16.4	0.00e+00	0	62	0	271581184	44	4271
2026-01-20 05:48:35.63	330.75	19.35	-37.0	-38.4	16.5	0.00e+00	0	62	0	293601280	44	4243
2026-01-20 05:48:38.66	330.05	19.48	-36.8	-38.2	16.7	0.00e+00	0	61	0	315621376	44	4158
2026-01-20 05:48:41.69	329.35	19.61	-36.5	-37.8	17.0	0.00e+00	0	61	0	336592896	44	3994
2026-01-20 05:48:44.72	328.64	19.73	-36.4	-37.7	17.0	0.00e+00	0	61	0	358612992	43	4152
2026-01-20 05:48:47.75	327.92	19.86	-36.4	-37.7	17.0	0.00e+00	0	61	0	380633088	43	4157
2026-01-20 05:48:50.78	327.20	19.97	-36.2	-37.5	17.2	0.00e+00	0	62	0	402653184	43	4095
2026-01-20 05:48:53.80	326.47	20.09	-36.1	-37.4	17.3	0.00e+00	0	62	0	424673280	43	4035
2026-01-20 05:48:56.83	325.74	20.19	-36.1	-37.4	17.3	0.00e+00	0	62	0	446693376	43	4005
2026-01-20 05:48:59.86	325.00	20.30	-36.2	-37.5	17.2	0.00e+00	0	62	0	468713472	43	4056
2026-01-20 05:49:02.89	324.26	20.40	-36.2	-37.4	17.2	0.00e+00	0	61	0	489684992	43	4051
2026-01-20 05:49:05.92	323.51	20.49	-36.1	-37.3	17.3	0.00e+00	0	62	0	511705088	43	4002
2026-01-20 05:49:08.94	322.76	20.58	-36.1	-37.4	17.3	0.00e+00	0	62	0	533725184	43	4010
2026-01-20 05:49:11.97	322.01	20.67	-36.1	-37.3	17.3	0.00e+00	0	61	0	555745280	43	4000
2026-01-20 05:49:15.00	321.25	20.75	-36.1	-37.4	17.3	0.00e+00	0	61	0	577765376	43	4005
2026-01-20 05:49:18.03	320.48	20.82	-36.1	-37.3	17.4	0.00e+00	0	62	0	599785472	43	3996
2026-01-20 05:49:21.05	319.72	20.89	-36.2	-37.5	17.2	0.00e+00	0	62	0	621805568	43	4066
2026-01-20 05:49:24.08	318.95	20.95	-36.4	-37.7	17.0	0.00e+00	0	62	0	642777088	43	4191
2026-01-20 05:49:27.11	318.17	21.01	-36.2	-37.5	17.3	0.00e+00	0	62	0	664797184	43	4068
2026-01-20 05:49:30.14	317.39	21.07	-36.1	-37.4	17.4	0.00e+00	0	61	0	686817280	43	4008
2026-01-20 05:49:33.17	316.61	21.11	-36.1	-37.3	17.4	0.00e+00	0	62	0	708837376	43	3999
2026-01-20 05:49:36.20	315.83	21.16	-36.1	-37.4	17.3	0.00e+00	0	62	0	729808896	43	4039
2026-01-20 05:49:39.22	315.05	21.19	-36.3	-37.6	17.2	0.00e+00	0	62	0	751828992	43	4101
2026-01-20 05:49:42.25	314.26	21.23	-36.4	-37.7	17.0	0.00e+00	0	62	0	773849088	43	4191
2026-01-20 05:49:45.28	313.47	21.25	-36.4	-37.7	17.0	0.00e+00	0	62	0	795869184	43	4174
2026-01-20 05:49:48.31	312.69	21.27	-36.1	-37.3	17.4	0.00e+00	0	62	0	817889280	43	3995
2026-01-20 05:49:51.34	311.90	21.28	-36.0	-37.3	17.4	0.00e+00	0	62	0	839909376	43	3982
2026-01-20 05:49:54.37	311.10	21.29	-36.1	-37.3	17.4	0.00e+00	0	62	0	861929472	43	3997
2026-01-20 05:49:57.39	310.32	21.30	-36.1	-37.3	17.4	0.00e+00	0	62	0	882900992	43	3993
2026-01-20 05:50:00.42	309.52	21.29	-36.1	-37.4	17.4	0.00e+00	0	62	0	904921088	43	4008
2026-01-20 05:50:03.45	308.73	21.28	-35.9	-37.1	17.6	0.00e+00	0	62	0	926941184	42	4145
2026-01-20 05:50:06.48	307.94	21.27	-35.8	-37.1	17.7	0.00e+00	0	62	0	948961280	42	4103
2026-01-20 05:50:09.51	307.15	21.25	-36.1	-37.4	17.4	0.00e+00	0	62	0	970981376	42	4265
2026-01-20 05:50:12.53	306.37	21.22	-36.1	-37.4	17.4	0.00e+00	0	62	0	993001472	42	4276
2026-01-20 05:50:15.56	305.58	21.19	-35.9	-37.1	17.7	0.00e+00	0	62	0	1015021568	42	4125
2026-01-20 05:50:18.59	304.80	21.15	-36.1	-37.4	17.4	0.00e+00	0	62	0	1035993088	42	4246
2026-01-20 05:50:21.62	304.01	21.11	-36.2	-37.5	17.3	0.00e+00	0	62	0	1058013184	42	4305
2026-01-20 05:50:24.64	303.23	21.06	-36.0	-37.3	17.5	0.00e+00	0	62	0	1080033280	42	4212
2026-01-20 05:50:27.67	302.46	21.01	-36.0	-37.2	17.6	0.00e+00	0	62	0	1102053376	42	4173
2026-01-20 05:50:30.70	301.68	20.95	-36.2	-37.5	17.3	0.00e+00	0	62	0	1124073472	42	4316
2026-01-20 05:50:33.73	300.91	20.88	-36.3	-37.6	17.1	0.00e+00	0	62	0	1146093568	42	4389
2026-01-20 05:50:36.76	300.14	20.81	-36.3	-37.5	17.2	0.00e+00	0	62	0	1168113664	42	4337
2026-01-20 05:50:39.78	299.38	20.74	-36.1	-37.3	17.5	0.00e+00	0	62	0	1189085184	42	4224
2026-01-20 05:50:42.81	298.62	20.66	-36.1	-37.4	17.3	0.00e+00	0	62	0	1211105280	42	4265
2026-01-20 05:50:45.84	297.86	20.57	-36.2	-37.5	17.3	0.00e+00	0	62	0	1233125376	42	4296
2026-01-20 05:50:48.87	297.10	20.48	-36.1	-37.4	17.3	0.00e+00	0	62	0	1255145472	42	4273
2026-01-20 05:50:51.90	296.36	20.38	-36.3	-37.6	17.2	0.00e+00	0	62	0	1277165568	42	4342
2026-01-20 05:50:54.93	295.61	20.28	-36.3	-37.5	17.2	0.00e+00	0	62	0	1299185664	42	4335
2026-01-20 05:50:57.96	294.87	20.18	-36.2	-37.5	17.3	0.00e+00	0	62	0	1321205760	42	4306
2026-01-20 05:51:00.99	294.14	20.07	-36.3	-37.6	17.2	0.00e+00	0	62	0	1342177280	42	4359
2026-01-20 05:51:04.02	293.41	19.96	-36.4	-37.8	17.0	0.00e+00	0	62	0	1364197376	42	4449
2026-01-20 05:51:07.04	292.69	19.84	-36.4	-37.8	17.0	0.00e+00	0	62	0	1386217472	42	4450
2026-01-20 05:51:10.07	291.97	19.72	-36.3	-37.6	17.1	0.00e+00	0	62	0	1408237568	42	4378
2026-01-20 05:51:13.10	291.26	19.59	-36.4	-37.7	17.0	0.00e+00	0	62	0	1430257664	42	4403
2026-01-20 05:51:16.13	290.56	19.46	-36.3	-37.6	17.1	0.00e+00	0	62	0	1452277760	42	4364
2026-01-20 05:51:19.16	289.86	19.33	-36.2	-37.5	17.2	0.00e+00	0	62	0	1474297856	42	4333
2026-01-20 05:51:22.19	289.16	19.19	-36.2	-37.5	17.2	0.00e+00	0	62	0	1495269376	42	4306
2026-01-20 05:51:25.21	288.48	19.05	-36.3	-37.6	17.1	0.00e+00	0	62	0	1517289472	42	4384
2026-01-20 05:51:28.24	287.80	18.91	-36.4	-37.7	17.0	0.00e+00	0	62	0	1539309568	42	4403
2026-01-20 05:51:31.27	287.12	18.76	-36.5	-37.8	16.9	0.00e+00	0	62	0	1561329664	42	4466
2026-01-20 05:51:34.30	286.46	18.61	-36.5	-37.8	16.9	0.00e+00	0	62	0	1583349760	42	4482
2026-01-20 05:51:37.33	285.80	18.45	-36.4	-37.8	16.9	0.00e+00	0	62	0	1605369856	42	4447
2026-01-20 05:51:40.36	285.14	18.30	-36.5	-37.8	16.9	0.00e+00	0	62	0	1626341376	42	4462
2026-01-20 05:51:43.38	284.50	18.14	-36.6	-38.0	16.6	0.00e+00	0	62	0	1648361472	42	4564
2026-01-20 05:51:46.41	283.86	17.97	-36.6	-38.0	16.6	0.00e+00	0	62	0	1670381568	42	4581
2026-01-20 05:51:49.44	283.22	17.81	-36.6	-37.9	16.7	0.00e+00	0	62	0	1692401664	42	4527
2026-01-20 05:51:52.47	282.60	17.64	-36.5	-37.8	16.8	0.00e+00	0	62	0	1714421760	42	4472
2026-01-20 05:51:55.50	281.98	17.47	-36.7	-38.1	16.5	0.00e+00	0	62	0	1735393280	43	4381
2026-01-20 05:51:58.53	281.36	17.30	-37.0	-38.5	16.2	0.00e+00	0	62	0	1757413376	43	4547
2026-01-20 05:52:01.56	280.76	17.13	-37.4	-38.8	15.9	0.00e+00	0	62	0	1779433472	44	4482
2026-01-20 05:52:04.59	280.16	16.95	-37.3	-38.7	16.0	0.00e+00	0	62	0	1801453568	44	4436
2026-01-20 05:52:07.62	279.57	16.77	-37.2	-38.6	16.1	0.00e+00	0	62	0	1823473664	44	4387
2026-01-20 05:52:10.64	278.99	16.59	-37.1	-38.5	16.2	0.00e+00	0	62	0	1845493760	44	4324
2026-01-20 05:52:13.67	278.41	16.41	-37.1	-38.6	16.1	0.00e+00	0	62	0	1867513856	44	4348
2026-01-20 05:52:16.70	277.84	16.23	-37.2	-38.7	16.0	0.00e+00	0	62	0	1889533952	44	4399
2026-01-20 05:52:19.73	277.27	16.05	-37.3	-38.8	15.9	0.00e+00	0	62	0	1910505472	44	4459
2026-01-20 05:52:22.76	276.72	15.86	-37.3	-38.8	15.8	0.00e+00	0	62	0	1932525568	44	4487
2026-01-20 05:52:25.79	276.17	15.67	-37.2	-38.7	15.9	0.00e+00	0	62	0	1954545664	44	4402
2026-01-20 05:52:28.81	275.63	15.49	-37.4	-38.9	15.7	0.00e+00	0	62	0	1976565760	44	4523
2026-01-20 05:52:31.84	275.09	15.30	-37.4	-38.9	15.7	0.00e+00	0	62	0	1998585856	44	4520
2026-01-20 05:52:34.87	274.56	15.11	-37.4	-38.8	15.7	0.00e+00	0	62	0	2020605952	44	4493
2026-01-20 05:52:37.90	274.04	14.92	-37.5	-39.0	15.5	0.00e+00	0	62	0	2041577472	44	4591
2026-01-20 05:52:40.93	273.52	14.72	-37.5	-39.0	15.6	0.00e+00	0	62	0	2063597568	44	4576
2026-01-20 05:52:43.96	273.02	14.53	-37.5	-39.1	15.4	0.00e+00	0	62	0	2085617664	44	4631
2026-01-20 05:52:46.99	272.51	14.34	-37.5	-39.0	15.5	0.00e+00	0	62	0	2107637760	44	4598
2026-01-20 05:52:50.02	272.02	14.14	-37.7	-39.3	15.2	0.00e+00	0	62	0	2129657856	44	4723
2026-01-20 05:52:53.04	271.53	13.95	-37.7	-39.3	15.2	0.00e+00	0	62	0	2151677952	45	4473
2026-01-20 05:52:56.07	271.05	13.75	-37.8	-39.5	15.0	0.00e+00	0	62	0	2173698048	45	4559
2026-01-20 05:52:59.10	270.57	13.56	-37.9	-39.5	14.9	0.00e+00	0	62	0	2194669568	45	4597
2026-01-20 05:53:02.13	270.10	13.36	-37.9	-39.5	14.9	0.00e+00	0	62	0	2216689664	45	4567
2026-01-20 05:53:05.15	269.64	13.17	-37.9	-39.5	14.9	0.00e+00	0	62	0	2238709760	45	4581
2026-01-20 05:53:08.18	269.18	12.97	-37.9	-39.6	14.8	0.00e+00	0	62	0	2260729856	45	4622
2026-01-20 05:53:11.21	268.73	12.77	-38.1	-39.8	14.6	0.00e+00	0	62	0	2282749952	45	4726
2026-01-20 05:53:14.24	268.29	12.58	-38.0	-39.8	14.6	1.10e-06	0	62	0	2304770048	45	4713
2026-01-20 05:53:17.27	267.85	12.38	-38.0	-39.7	14.6	0.00e+00	0	62	0	2326790144	45	4687
2026-01-20 05:53:20.30	267.41	12.18	-37.9	-39.6	14.7	0.00e+00	0	62	0	2347761664	45	4621
2026-01-20 05:53:23.33	266.99	11.99	-38.0	-39.8	14.5	0.00e+00	0	62	0	2369781760	45	4710
2026-01-20 05:53:26.35	266.56	11.79	-38.1	-39.8	14.5	0.00e+00	0	62	0	2391801856	45	4733
2026-01-20 05:53:29.38	266.15	11.59	-38.0	-39.7	14.5	0.00e+00	0	62	0	2413821952	45	4662
2026-01-20 05:53:32.41	265.74	11.40	-37.9	-39.6	14.6	0.00e+00	0	62	0	2435842048	45	4618
2026-01-20 05:53:35.44	265.33	11.20	-38.0	-39.7	14.5	1.10e-06	0	62	0	2457862144	45	4698
2026-01-20 05:53:38.47	264.93	11.01	-38.3	-40.1	14.1	2.20e-06	0	62	0	2479882240	46	4616
2026-01-20 05:53:41.50	264.54	10.81	-38.5	-40.4	13.8	8.00e-06	0	62	0	2501902336	46	4766
2026-01-20 05:53:44.53	264.15	10.61	-38.4	-40.2	13.9	5.70e-06	0	62	0	2522873856	46	4704
2026-01-20 05:53:47.57	263.77	10.42	-38.4	-40.3	13.8	6.80e-06	0	62	0	2544893952	46	4749
2026-01-20 05:53:50.59	263.39	10.22	-38.5	-40.4	13.7	1.14e-05	0	62	0	2566914048	46	4807
2026-01-20 05:53:53.62	263.02	10.03	-38.6	-40.6	13.5	1.37e-05	0	62	0	2588934144	46	4898
2026-01-20 05:53:56.65	262.65	9.83	-38.7	-40.7	13.3	1.48e-05	0	62	0	2610954240	47	4680
2026-01-20 05:53:59.69	262.28	9.64	-38.6	-40.5	13.5	9.10e-06	0	62	0	2631925760	47	4568
2026-01-20 05:54:02.72	261.92	9.45	-38.4	-40.3	13.7	9.10e-06	0	62	0	2653945856	47	4454
2026-01-20 05:54:05.75	261.57	9.25	-38.5	-40.4	13.6	1.25e-05	0	62	0	2675965952	47	4507
2026-01-20 05:54:08.78	261.22	9.06	-38.7	-40.7	13.3	1.71e-05	0	62	0	2697986048	47	4681
2026-01-20 05:54:11.80	260.88	8.87	-38.8	-40.8	13.1	3.89e-05	0	62	0	2720006144	47	4743
2026-01-20 05:54:14.83	260.54	8.68	-38.6	-40.6	13.4	1.37e-05	0	62	0	2742026240	47	4606
2026-01-20 05:54:17.86	260.20	8.49	-38.5	-40.5	13.4	1.60e-05	0	62	0	2764046336	47	4573
2026-01-20 05:54:20.89	259.87	8.30	-38.6	-40.6	13.3	2.28e-05	0	62	0	2785017856	47	4637
2026-01-20 05:54:23.92	259.55	8.11	-39.0	-41.1	12.7	8.69e-05	0	62	0	2807037952	47	4926
2026-01-20 05:54:26.94	259.23	7.92	-45.0	-56.0	3.8	8.47e-01	0	62	104	2819620864	59	13589
2026-01-20 05:54:29.98	258.91	7.73	-45.4	-56.8	3.8	8.46e-01	0	62	104	2819620864	60	14094
2026-01-20 05:54:33.01	258.59	7.54	-45.6	-57.0	3.8	8.46e-01	0	62	104	2819620864	60	14393
2026-01-20 05:54:36.04	258.28	7.35	-45.5	-56.9	3.8	8.45e-01	0	62	104	2819620864	60	14216
2026-01-20 05:54:39.08	257.98	7.16	-45.5	-56.9	3.8	8.46e-01	0	62	104	2819620864	60	14221
2026-01-20 05:54:42.11	257.68	6.98	-45.6	-56.9	3.8	8.46e-01	0	62	104	2819620864	60	14363
2026-01-20 05:54:45.14	257.38	6.79	-45.5	-56.9	3.8	8.47e-01	0	62	104	2819620864	60	14218
2026-01-20 05:54:48.17	257.09	6.61	-45.5	-56.9	3.8	8.45e-01	0	62	104	2819620864	60	14226
2026-01-20 05:54:51.20	256.80	6.42	-45.5	-56.8	3.8	8.45e-01	0	62	104	2819620864	60	14126
2026-01-20 05:54:54.23	256.51	6.24	-45.4	-56.8	3.8	8.47e-01	0	62	104	2819620864	60	14074
2026-01-20 05:54:57.27	256.23	6.05	-45.4	-56.8	3.8	8.47e-01	0	62	104	2819620864	60	14084
2026-01-20 05:55:00.30	255.95	5.87	-45.4	-56.8	3.8	8.47e-01	0	62	104	2819620864	60	14061
2026-01-20 05:55:03.33	255.67	5.69	-45.4	-56.8	3.8	8.46e-01	0	62	104	2819620864	60	14079
2026-01-20 05:55:06.36	255.40	5.51	-45.4	-56.8	3.8	8.46e-01	0	62	104	2819620864	60	14051
2026-01-20 05:55:09.39	255.13	5.33	-45.4	-56.7	3.8	8.47e-01	0	62	104	2819620864	60	14003
2026-01-20 05:55:12.43	254.87	5.14	-45.4	-56.7	3.8	8.46e-01	0	62	104	2819620864	60	13983
2026-01-20 05:55:15.46	254.60	4.97	-45.4	-56.7	3.8	8.46e-01	0	62	104	2819620864	60	14027
2026-01-20 05:55:18.49	254.35	4.79	-45.4	-56.7	3.8	8.45e-01	0	62	104	2819620864	60	13965
2026-01-20 05:55:21.52	254.09	4.61	-45.4	-56.7	3.8	8.46e-01	0	62	104	2819620864	60	13994
2026-01-20 05:55:24.55	253.84	4.43	-45.4	-56.7	3.8	8.46e-01	0	62	104	2819620864	60	14028
2026-01-20 05:55:27.59	253.59	4.25	-45.4	-56.7	3.8	8.46e-01	0	62	104	2819620864	60	14040
2026-01-20 05:55:30.62	253.34	4.08	-45.4	-56.7	3.8	8.47e-01	0	62	104	2819620864	60	13997
2026-01-20 05:55:33.65	253.10	3.90	-45.4	-56.7	3.8	8.47e-01	0	62	104	2819620864	60	13916
2026-01-20 05:55:36.68	252.86	3.73	-45.4	-56.7	3.8	8.46e-01	0	62	104	2819620864	60	13982
2026-01-20 05:55:39.71	252.62	3.55	-45.3	-56.7	3.8	8.46e-01	0	62	104	2819620864	60	13978
2026-01-20 05:55:42.74	252.39	3.38	-45.4	-56.7	3.8	8.46e-01	0	62	104	2819620864	60	13952
2026-01-20 05:55:45.78	252.16	3.21	-45.4	-56.7	3.8	8.46e-01	0	62	104	2819620864	60	14011
2026-01-20 05:55:48.81	251.93	3.03	-45.4	-56.7	3.8	8.46e-01	0	62	104	2819620864	60	13997
2026-01-20 05:55:51.84	251.70	2.86	-45.4	-56.7	3.8	8.45e-01	0	62	104	2819620864	60	13943
2026-01-20 05:55:54.87	251.48	2.69	-45.4	-56.7	3.8	8.46e-01	0	62	104	2819620864	60	14005
2026-01-20 05:55:57.90	251.26	2.52	-45.4	-56.7	3.8	8.47e-01	0	62	104	2819620864	60	14014
2026-01-20 05:56:00.93	251.04	2.35	-45.4	-56.7	3.8	8.47e-01	0	62	104	2819620864	60	13979
2026-01-20 05:56:03.96	250.83	2.18	-45.4	-56.7	3.8	8.46e-01	0	62	104	2819620864	60	14009
2026-01-20 05:56:06.99	250.62	2.01	-45.4	-56.7	3.8	8.45e-01	0	62	104	2819620864	60	14033

#Closed at: 2026-01-20 05:56:08
#Recorded file [2819 MB]: D:/lorett/data/31039_260120_084347.dat