passes_logs/2026/01/20/R2.0S_Moscow/R2.0S_Moscow__20260120_081318_NOAA_20_JPSS-1_rec.log

#Pass ID: 20260120_081318_NOAA 20 (JPSS-1)
#Satellite: NOAA 20 (JPSS-1)
#Configuration: NOAA 20
#almurnet v.1.7.20251203
#Start time: 2026-01-20 08:13:18

#Version: 2.2.20231116
#Station: R2.0S_Moscow
#Location: 37.707566 lon 55.798166 lat
#TLE: 1 43013U 17073A   26019.55911981  .00000079  00000+0  58510-4 0  9994
#TLE: 2 43013  98.7641 320.4504 0001323  32.6518 327.4739 14.19537050423380

#Time	Az	El	Level	Level2	SNR	BER	BlckErr	Temp	State	Recorded	gain1	gain2
2026-01-20 08:13:18.54	110.68	1.98	-30.5	-45.9	3.9	1.50e+00	0	50	0	0	25	32123
2026-01-20 08:13:21.56	110.47	2.15	-24.4	-42.5	4.3	1.50e+00	0	51	104	0	30	16198
2026-01-20 08:13:24.59	110.26	2.32	-27.6	-43.0	3.8	1.50e+00	0	51	104	0	23	25565
2026-01-20 08:13:27.63	110.05	2.50	-16.9	-39.4	3.9	1.50e+00	0	51	104	0	9	37908
2026-01-20 08:13:30.66	109.84	2.67	-30.4	-47.5	4.0	1.50e+00	0	51	104	0	33	24326
2026-01-20 08:13:33.69	109.62	2.84	-21.1	-38.9	4.1	1.51e+00	0	52	104	0	22	16993
2026-01-20 08:13:36.72	109.40	3.01	-21.2	-40.7	3.8	1.50e+00	0	52	104	0	15	31106
2026-01-20 08:13:39.75	109.18	3.19	-21.7	-39.3	3.7	1.50e+00	0	53	0	0	15	26510
2026-01-20 08:13:42.78	108.95	3.36	-25.7	-41.9	3.6	1.50e+00	0	53	104	0	21	25356
2026-01-20 08:13:45.81	108.72	3.53	-28.8	-47.6	3.8	1.50e+00	0	53	0	0	32	25908
2026-01-20 08:13:48.85	108.49	3.71	-17.2	-41.5	3.9	1.50e+00	0	53	104	0	18	28886
2026-01-20 08:13:51.88	108.26	3.89	-24.9	-41.9	3.9	1.50e+00	0	53	104	0	18	30234
2026-01-20 08:13:54.91	108.02	4.06	-22.5	-42.6	3.7	1.50e+00	0	53	104	0	12	46050
2026-01-20 08:13:57.94	107.78	4.24	-19.9	-38.9	4.0	1.50e+00	0	53	104	0	11	32001
2026-01-20 08:14:00.97	107.54	4.42	-25.8	-43.1	4.1	1.51e+00	0	54	104	0	19	32610
2026-01-20 08:14:04.00	107.29	4.60	-27.1	-46.3	3.7	1.50e+00	0	54	104	0	24	35339
2026-01-20 08:14:07.03	107.05	4.78	-24.0	-41.8	3.8	1.50e+00	0	54	104	0	17	31756
2026-01-20 08:14:10.06	106.79	4.96	-17.6	-41.1	3.8	1.51e+00	0	54	104	0	18	27512
2026-01-20 08:14:13.09	106.54	5.14	-28.5	-43.2	3.8	1.50e+00	0	54	104	0	20	31396
2026-01-20 08:14:16.13	106.28	5.32	-29.4	-46.1	4.0	1.51e+00	0	54	104	0	33	20731
2026-01-20 08:14:19.16	106.02	5.51	-26.1	-42.3	3.8	1.50e+00	0	55	104	0	23	23744
2026-01-20 08:14:22.19	105.75	5.69	-24.0	-46.9	3.7	1.50e+00	0	55	104	0	32	23996
2026-01-20 08:14:25.22	105.48	5.87	-23.9	-42.4	3.9	1.50e+00	0	55	104	0	22	25393
2026-01-20 08:14:28.26	105.21	6.06	-21.7	-41.2	3.9	1.50e+00	0	55	104	0	14	35268
2026-01-20 08:14:31.29	104.94	6.25	-19.9	-38.6	4.0	1.50e+00	0	55	104	0	15	24566
2026-01-20 08:14:34.32	104.66	6.43	-18.4	-39.4	3.8	1.50e+00	0	55	104	0	10	35891
2026-01-20 08:14:37.35	104.37	6.62	-18.0	-38.4	3.9	1.50e+00	0	55	104	0	11	30341
2026-01-20 08:14:40.38	104.09	6.81	-24.3	-42.1	3.8	1.50e+00	0	55	104	0	20	27589
2026-01-20 08:14:43.41	103.80	6.99	-24.1	-42.3	3.8	1.50e+00	0	56	0	0	14	40043
2026-01-20 08:14:46.44	103.50	7.18	-26.1	-43.1	3.8	1.51e+00	0	56	104	0	19	32707
2026-01-20 08:14:49.48	103.20	7.37	-25.0	-44.0	3.7	1.50e+00	0	56	104	0	21	32380
2026-01-20 08:14:52.51	102.90	7.56	-25.1	-44.3	3.5	1.50e+00	0	56	104	0	23	29797
2026-01-20 08:14:55.54	102.59	7.76	-21.6	-39.1	3.9	1.50e+00	0	56	104	0	15	25958
2026-01-20 08:14:58.57	102.28	7.95	-23.3	-41.3	4.2	1.50e+00	0	56	104	0	20	25003
2026-01-20 08:15:01.61	101.97	8.14	-22.0	-43.0	3.9	1.51e+00	0	56	104	0	21	28733
2026-01-20 08:15:04.63	101.65	8.33	-19.4	-41.6	4.1	1.51e+00	0	56	104	0	16	32660
2026-01-20 08:15:07.66	101.32	8.53	-18.6	-39.5	3.7	1.51e+00	0	56	104	0	8	40527
2026-01-20 08:15:10.69	101.00	8.72	-24.4	-43.9	3.8	1.50e+00	0	56	104	0	16	42700
2026-01-20 08:15:13.71	100.67	8.91	-31.2	-45.4	3.9	1.50e+00	0	56	104	0	22	35756
2026-01-20 08:15:16.74	100.33	9.11	-24.9	-43.1	3.9	1.50e+00	0	56	104	0	21	29095
2026-01-20 08:15:19.77	99.99	9.31	-29.8	-47.4	4.6	1.50e+00	0	56	104	0	30	28391
2026-01-20 08:15:22.80	99.64	9.50	-26.9	-42.0	4.1	1.50e+00	0	57	104	0	20	27129
2026-01-20 08:15:25.83	99.29	9.70	-22.5	-39.4	3.5	1.50e+00	0	57	104	0	16	25347
2026-01-20 08:15:28.85	98.94	9.90	-19.7	-40.4	3.8	1.50e+00	0	57	104	0	15	30262
2026-01-20 08:15:31.89	98.57	10.10	-23.5	-40.4	3.8	1.50e+00	0	57	104	0	14	32058
2026-01-20 08:15:34.92	98.21	10.29	-23.9	-44.5	3.8	1.50e+00	0	57	104	0	20	36388
2026-01-20 08:15:37.95	97.84	10.49	-32.6	-45.8	4.0	1.49e+00	0	57	104	0	26	29854
2026-01-20 08:15:40.97	97.46	10.69	-27.2	-45.0	4.9	1.49e+00	5	57	104	0	31	20518
2026-01-20 08:15:44.00	97.08	10.89	-35.3	-51.1	3.9	1.48e+00	0	57	104	0	41	23236
2026-01-20 08:15:47.03	96.69	11.09	-38.7	-47.9	6.6	9.66e-01	21	57	0	0	46	12060
2026-01-20 08:15:50.06	96.30	11.29	-39.1	-47.8	6.6	2.93e-01	5	57	0	3145728	49	10035
2026-01-20 08:15:53.08	95.91	11.49	-40.0	-47.2	6.9	3.04e-01	5	57	0	8388608	49	9329
2026-01-20 08:15:56.11	95.50	11.69	-42.0	-52.9	4.5	1.15e+00	74	57	0	9437184	55	12705
2026-01-20 08:15:59.13	95.10	11.89	-41.4	-48.6	7.2	1.93e-01	0	57	0	14680064	53	8702
2026-01-20 08:16:02.16	94.68	12.10	-41.6	-48.2	7.2	1.11e-01	0	58	0	19922944	52	8848
2026-01-20 08:16:05.19	94.26	12.30	-41.6	-48.1	8.0	8.23e-02	0	58	0	26214400	54	7805
2026-01-20 08:16:08.22	93.83	12.50	-40.1	-47.4	8.3	6.01e-02	0	57	0	31457280	52	8052
2026-01-20 08:16:11.25	93.40	12.70	-41.8	-48.0	8.4	3.65e-02	0	58	0	36700160	54	7666
2026-01-20 08:16:14.27	92.97	12.90	-41.8	-48.3	8.1	5.27e-02	0	58	0	42991616	54	7949
2026-01-20 08:16:17.30	92.52	13.11	-41.8	-47.9	8.5	4.46e-02	0	58	0	48234496	54	7604
2026-01-20 08:16:20.33	92.07	13.31	-41.9	-48.5	7.8	7.73e-02	0	58	0	54525952	54	8148
2026-01-20 08:16:23.36	91.61	13.51	-41.9	-48.4	7.9	5.86e-02	0	58	0	59768832	54	8029
2026-01-20 08:16:26.38	91.15	13.71	-41.7	-47.9	8.3	6.22e-02	0	58	0	65011712	54	7589
2026-01-20 08:16:29.41	90.68	13.91	-41.6	-48.1	8.2	5.30e-02	0	58	0	71303168	54	7772
2026-01-20 08:16:32.44	90.21	14.11	-41.6	-48.3	7.9	7.63e-02	0	58	0	76546048	54	7966
2026-01-20 08:16:35.47	89.73	14.31	-41.5	-47.9	8.1	5.93e-02	0	58	0	82837504	54	7626
2026-01-20 08:16:38.50	89.24	14.52	-41.7	-48.8	7.2	1.26e-01	0	58	0	88080384	54	8435
2026-01-20 08:16:41.52	88.74	14.71	-41.7	-49.0	6.9	1.68e-01	0	58	0	93323264	54	8659
2026-01-20 08:16:44.55	88.24	14.91	-42.4	-55.5	3.8	1.49e+00	0	58	104	97517568	55	17194
2026-01-20 08:16:47.58	87.73	15.11	-41.6	-50.7	5.3	5.42e-01	0	58	0	98566144	55	9920
2026-01-20 08:16:50.61	87.21	15.31	-41.5	-50.7	5.3	5.51e-01	0	58	0	103809024	55	9852
2026-01-20 08:16:53.64	86.69	15.51	-41.6	-52.5	4.4	7.76e-01	37	58	0	109051904	54	12867
2026-01-20 08:16:56.67	86.16	15.71	-41.6	-49.8	6.0	1.49e+00	0	58	104	110100480	55	8941
2026-01-20 08:16:59.69	85.63	15.90	-41.5	-49.7	6.1	3.39e-01	0	59	0	115343360	55	8789
2026-01-20 08:17:02.72	85.08	16.10	-41.4	-49.4	6.2	3.04e-01	0	58	0	120586240	54	9069
2026-01-20 08:17:05.75	84.53	16.29	-42.0	-50.7	5.7	8.04e-01	0	59	0	126877696	54	10456
2026-01-20 08:17:08.78	83.97	16.48	-41.8	-50.0	5.8	1.34e+00	0	59	0	127926272	55	9150
2026-01-20 08:17:11.81	83.40	16.67	-41.7	-49.3	6.5	2.77e-01	0	59	0	133169152	55	8421
2026-01-20 08:17:14.84	82.83	16.86	-42.1	-50.6	5.7	1.66e-01	0	59	0	139460608	55	9766
2026-01-20 08:17:17.86	82.25	17.05	-42.4	-51.6	5.2	9.54e-02	0	59	0	144703488	55	10979
2026-01-20 08:17:20.89	81.67	17.24	-41.3	-47.2	8.7	3.45e-02	0	59	0	148897792	54	7033
2026-01-20 08:17:23.92	81.07	17.42	-41.1	-46.7	9.3	1.68e-02	0	59	0	154140672	54	6620
2026-01-20 08:17:26.95	80.47	17.60	-41.0	-47.2	8.5	3.63e-02	0	59	0	160432128	54	7008
2026-01-20 08:17:29.98	79.86	17.79	-41.0	-47.8	7.6	8.98e-02	0	59	0	165675008	53	7988
2026-01-20 08:17:33.01	79.24	17.96	-41.1	-48.1	7.4	1.15e-01	0	59	0	171966464	53	8238
2026-01-20 08:17:36.03	78.62	18.14	-41.3	-49.7	6.0	1.03e-01	0	59	0	177209344	53	9878
2026-01-20 08:17:39.06	77.99	18.31	-41.7	-54.1	3.8	1.74e-01	0	59	104	181403648	54	15542
2026-01-20 08:17:42.09	77.35	18.49	-41.2	-47.6	8.1	5.99e-02	0	59	0	185597952	54	7329
2026-01-20 08:17:45.12	76.70	18.66	-41.2	-47.8	7.9	7.24e-02	0	59	0	190840832	54	7491
2026-01-20 08:17:48.15	76.05	18.82	-41.2	-47.9	7.7	8.72e-02	0	59	0	197132288	54	7569
2026-01-20 08:17:51.17	75.39	18.99	-41.2	-47.9	7.8	8.59e-02	0	59	0	202375168	54	7599
2026-01-20 08:17:54.20	74.72	19.15	-41.1	-47.2	8.5	5.60e-02	0	59	0	208666624	54	7029
2026-01-20 08:17:57.23	74.05	19.31	-41.2	-47.0	8.9	2.69e-02	0	59	0	213909504	54	6866
2026-01-20 08:18:00.26	73.37	19.46	-41.3	-46.9	9.2	2.12e-02	0	59	0	219152384	54	6786
2026-01-20 08:18:03.28	72.68	19.61	-41.2	-46.4	9.9	9.63e-03	0	59	0	225443840	54	6368
2026-01-20 08:18:06.31	71.98	19.76	-41.2	-46.4	10.0	7.45e-03	0	59	0	230686720	54	6393
2026-01-20 08:18:09.34	71.28	19.90	-41.5	-46.5	10.2	6.19e-03	0	59	0	236978176	54	6474
2026-01-20 08:18:12.37	70.57	20.05	-41.3	-45.7	11.3	1.38e-03	0	59	0	242221056	54	5897
2026-01-20 08:18:15.40	69.86	20.18	-41.3	-45.4	11.9	4.89e-04	0	59	0	248512512	54	5682
2026-01-20 08:18:18.43	69.14	20.32	-41.2	-45.0	12.4	1.36e-04	0	59	0	253755392	54	5421
2026-01-20 08:18:21.45	68.41	20.44	-41.3	-45.0	12.5	1.23e-04	0	59	0	258998272	54	5440
2026-01-20 08:18:24.48	67.68	20.57	-41.4	-45.1	12.5	7.78e-05	0	59	0	265289728	54	5501
2026-01-20 08:18:27.51	66.94	20.69	-41.5	-45.3	12.4	1.36e-04	0	59	0	270532608	54	5649
2026-01-20 08:18:30.54	66.19	20.80	-41.5	-45.3	12.5	8.85e-05	0	59	0	276824064	54	5594
2026-01-20 08:18:33.56	65.45	20.91	-41.4	-45.1	12.8	7.47e-05	0	59	0	282066944	54	5469
2026-01-20 08:18:36.60	64.69	21.02	-41.7	-45.5	12.3	1.34e-04	0	59	0	287309824	54	5769
2026-01-20 08:18:39.62	63.93	21.12	-41.8	-45.8	12.1	2.54e-04	0	59	0	293601280	54	5965
2026-01-20 08:18:42.65	63.16	21.22	-41.9	-46.1	11.7	4.12e-04	0	59	0	298844160	54	6183
2026-01-20 08:18:45.68	62.39	21.31	-42.0	-46.3	11.6	7.86e-04	0	59	0	305135616	54	6311
2026-01-20 08:18:48.71	61.62	21.40	-42.0	-46.2	11.7	7.01e-04	0	59	0	310378496	54	6266
2026-01-20 08:18:51.74	60.84	21.48	-42.2	-46.6	11.2	1.23e-03	0	59	0	316669952	54	6554
2026-01-20 08:18:54.77	60.06	21.55	-42.3	-46.9	11.0	1.96e-03	0	59	0	321912832	55	6359
2026-01-20 08:18:57.80	59.27	21.62	-42.3	-46.8	11.1	1.74e-03	0	59	0	327155712	55	6295
2026-01-20 08:19:00.83	58.48	21.69	-42.3	-46.8	11.0	1.83e-03	0	59	0	333447168	55	6344
2026-01-20 08:19:03.85	57.69	21.74	-42.2	-46.5	11.4	1.01e-03	0	59	0	338690048	55	6103
2026-01-20 08:19:06.88	56.89	21.80	-42.2	-46.5	11.4	1.11e-03	0	59	0	344981504	55	6106
2026-01-20 08:19:09.91	56.09	21.84	-42.3	-46.7	11.1	1.36e-03	0	59	0	350224384	55	6265
2026-01-20 08:19:12.94	55.29	21.89	-42.4	-47.0	10.9	2.22e-03	0	59	0	355467264	55	6437
2026-01-20 08:19:15.97	54.49	21.92	-42.3	-46.9	11.0	1.72e-03	0	59	0	361758720	55	6401
2026-01-20 08:19:19.00	53.69	21.95	-42.2	-46.6	11.3	1.20e-03	0	59	0	367001600	55	6147
2026-01-20 08:19:22.03	52.88	21.97	-42.3	-46.7	11.2	1.41e-03	0	59	0	373293056	55	6241
2026-01-20 08:19:25.06	52.07	21.99	-42.2	-46.5	11.5	9.45e-04	0	59	0	378535936	55	6063
2026-01-20 08:19:28.09	51.27	22.00	-42.1	-46.4	11.6	7.48e-04	0	59	0	384827392	55	6024
2026-01-20 08:19:31.11	50.46	22.01	-42.0	-46.1	11.9	4.41e-04	0	59	0	390070272	55	5834
2026-01-20 08:19:34.14	49.65	22.01	-41.9	-45.9	12.1	3.26e-04	0	59	0	395313152	55	5699
2026-01-20 08:19:37.17	48.85	22.00	-41.7	-45.5	12.6	1.07e-04	0	59	0	401604608	55	5404
2026-01-20 08:19:40.20	48.04	21.99	-41.6	-45.4	12.7	8.46e-05	0	59	0	406847488	55	5351
2026-01-20 08:19:43.23	47.23	21.97	-41.5	-45.1	12.9	4.73e-05	0	59	0	413138944	55	5210
2026-01-20 08:19:46.25	46.43	21.94	-41.5	-45.0	13.1	3.28e-05	0	59	0	418381824	54	5417
2026-01-20 08:19:49.28	45.63	21.91	-41.2	-44.6	13.5	6.80e-06	0	59	0	423624704	54	5164
2026-01-20 08:19:52.31	44.83	21.87	-41.2	-44.4	13.7	3.00e-06	0	59	0	429916160	54	5085
2026-01-20 08:19:55.34	44.03	21.83	-41.1	-44.3	13.8	6.10e-06	0	60	0	435159040	54	5027
2026-01-20 08:19:58.37	43.23	21.78	-41.0	-44.1	14.0	3.80e-06	0	59	0	441450496	54	4918
2026-01-20 08:20:01.40	42.43	21.73	-41.0	-44.1	14.0	3.00e-06	0	59	0	446693376	53	5210
2026-01-20 08:20:04.42	41.65	21.67	-41.0	-44.1	14.0	1.50e-06	0	60	0	451936256	53	5202
2026-01-20 08:20:07.45	40.86	21.60	-41.2	-44.5	13.7	4.50e-06	0	59	0	458227712	53	5412
2026-01-20 08:20:10.48	40.07	21.53	-41.1	-44.2	13.9	3.00e-06	0	59	0	463470592	53	5278
2026-01-20 08:20:13.51	39.29	21.46	-41.2	-44.5	13.6	3.00e-06	0	60	0	469762048	53	5450
2026-01-20 08:20:16.54	38.52	21.37	-41.5	-45.0	13.1	3.35e-05	0	59	0	475004928	53	5762
2026-01-20 08:20:19.56	37.75	21.29	-41.6	-45.3	12.8	5.56e-05	0	60	0	481296384	53	5924
2026-01-20 08:20:22.59	36.98	21.19	-41.8	-45.6	12.5	9.99e-05	0	60	0	486539264	54	5830
2026-01-20 08:20:25.62	36.22	21.10	-42.0	-46.1	12.0	3.09e-04	0	60	0	491782144	54	6137
2026-01-20 08:20:28.65	35.46	20.99	-42.0	-46.1	12.0	2.92e-04	0	59	0	498073600	54	6134
2026-01-20 08:20:31.67	34.71	20.89	-42.1	-46.2	11.8	4.36e-04	0	59	0	503316480	54	6271
2026-01-20 08:20:34.70	33.96	20.78	-42.2	-46.4	11.6	5.61e-04	0	60	0	509607936	54	6356
2026-01-20 08:20:37.73	33.22	20.66	-42.1	-46.3	11.7	6.17e-04	0	59	0	514850816	54	6303
2026-01-20 08:20:40.76	32.48	20.54	-42.2	-46.4	11.6	5.63e-04	0	60	0	520093696	54	6386
2026-01-20 08:20:43.78	31.76	20.41	-42.4	-46.8	11.2	1.24e-03	0	59	0	526385152	55	6321
2026-01-20 08:20:46.81	31.03	20.28	-42.3	-46.7	11.2	1.22e-03	0	60	0	531628032	55	6271
2026-01-20 08:20:49.84	30.32	20.15	-42.2	-46.5	11.5	9.28e-04	0	59	0	537919488	55	6100
2026-01-20 08:20:52.87	29.60	20.01	-42.1	-46.2	11.8	5.30e-04	0	60	0	543162368	55	5909
2026-01-20 08:20:55.90	28.90	19.87	-42.3	-46.8	11.1	1.43e-03	0	59	0	549453824	55	6331
2026-01-20 08:20:58.93	28.20	19.73	-42.3	-46.7	11.3	1.39e-03	0	60	0	554696704	55	6218
2026-01-20 08:21:01.96	27.51	19.58	-42.1	-46.3	11.6	6.44e-04	0	59	0	559939584	55	5988
2026-01-20 08:21:04.99	26.83	19.42	-42.1	-46.4	11.6	6.77e-04	0	60	0	566231040	55	6002
2026-01-20 08:21:08.01	26.15	19.27	-42.3	-46.6	11.3	1.04e-03	0	60	0	571473920	55	6191
2026-01-20 08:21:11.04	25.48	19.11	-42.2	-46.5	11.4	9.54e-04	0	60	0	577765376	55	6118
2026-01-20 08:21:14.07	24.82	18.95	-42.2	-46.5	11.4	9.32e-04	0	60	0	583008256	55	6113
2026-01-20 08:21:17.09	24.17	18.79	-42.2	-46.6	11.4	1.16e-03	0	60	0	588251136	55	6149
2026-01-20 08:21:20.12	23.52	18.62	-42.1	-46.3	11.6	7.18e-04	0	60	0	594542592	55	5956
2026-01-20 08:21:23.15	22.88	18.45	-42.1	-46.4	11.4	8.88e-04	0	60	0	599785472	55	6054
2026-01-20 08:21:26.17	22.24	18.28	-42.1	-46.4	11.5	8.99e-04	0	60	0	606076928	55	6046
2026-01-20 08:21:29.20	21.62	18.10	-42.1	-46.3	11.5	6.90e-04	0	59	0	611319808	55	5982
2026-01-20 08:21:32.24	20.99	17.93	-42.0	-46.2	11.6	7.03e-04	0	60	0	616562688	55	5907
2026-01-20 08:21:35.26	20.38	17.75	-42.1	-46.4	11.5	8.09e-04	0	60	0	622854144	55	6007
2026-01-20 08:21:38.29	19.78	17.57	-42.2	-46.5	11.3	1.26e-03	0	60	0	628097024	55	6129
2026-01-20 08:21:41.32	19.18	17.38	-42.2	-46.8	11.1	1.57e-03	0	60	0	634388480	55	6282
2026-01-20 08:21:44.35	18.59	17.20	-42.3	-46.8	11.0	1.74e-03	0	60	0	639631360	55	6295
2026-01-20 08:21:47.38	18.01	17.01	-42.2	-46.8	11.0	1.82e-03	0	60	0	645922816	55	6277
2026-01-20 08:21:50.40	17.44	16.83	-42.2	-46.7	11.1	1.69e-03	0	60	0	651165696	55	6218
2026-01-20 08:21:53.43	16.87	16.64	-42.2	-46.7	11.0	1.96e-03	0	60	0	656408576	55	6255
2026-01-20 08:21:56.46	16.31	16.45	-42.2	-46.7	11.0	1.93e-03	0	60	0	662700032	55	6259
2026-01-20 08:21:59.49	15.75	16.25	-42.2	-46.7	11.0	1.76e-03	0	60	0	667942912	55	6230
2026-01-20 08:22:02.51	15.21	16.06	-42.1	-46.5	11.2	1.33e-03	0	60	0	674234368	55	6097
2026-01-20 08:22:05.54	14.67	15.87	-42.0	-46.3	11.4	9.93e-04	0	60	0	679477248	55	5948
2026-01-20 08:22:08.57	14.14	15.67	-41.9	-46.2	11.5	8.14e-04	0	60	0	684720128	55	5856
2026-01-20 08:22:11.59	13.61	15.48	-41.8	-46.1	11.5	8.79e-04	0	60	0	691011584	55	5825
2026-01-20 08:22:14.62	13.10	15.28	-41.8	-46.0	11.5	7.94e-04	0	60	0	696254464	55	5771
2026-01-20 08:22:17.65	12.58	15.08	-41.6	-45.7	11.8	6.48e-04	0	60	0	702545920	55	5585
2026-01-20 08:22:20.68	12.08	14.88	-41.5	-45.5	12.0	3.04e-04	0	59	0	707788800	55	5437
2026-01-20 08:22:23.70	11.58	14.69	-41.4	-45.5	12.0	3.35e-04	0	60	0	714080256	54	5729
2026-01-20 08:22:26.73	11.09	14.49	-41.3	-45.4	11.8	4.74e-04	0	60	0	719323136	54	5701
2026-01-20 08:22:29.76	10.61	14.29	-41.3	-45.4	11.8	6.17e-04	0	60	0	724566016	54	5681
2026-01-20 08:22:32.78	10.13	14.09	-41.3	-45.4	11.8	5.26e-04	0	59	0	730857472	54	5700
2026-01-20 08:22:35.81	9.66	13.89	-41.2	-45.4	11.7	7.16e-04	0	60	0	736100352	54	5694
2026-01-20 08:22:38.84	9.20	13.69	-41.2	-45.5	11.4	9.22e-04	0	60	0	742391808	54	5753
2026-01-20 08:22:41.87	8.74	13.49	-41.3	-46.0	10.8	2.55e-03	0	60	0	747634688	54	6068
2026-01-20 08:22:44.90	8.29	13.28	-41.0	-45.6	10.8	3.17e-03	0	60	0	752877568	54	5826
2026-01-20 08:22:47.93	7.84	13.08	-41.1	-46.2	10.0	6.14e-03	0	60	0	759169024	53	6605
2026-01-20 08:22:50.96	7.40	12.88	-41.1	-46.3	9.7	1.32e-02	0	60	0	764411904	53	6681
2026-01-20 08:22:53.99	6.97	12.68	-40.8	-45.7	10.3	5.31e-03	0	60	0	770703360	53	6252
2026-01-20 08:22:57.01	6.54	12.48	-40.7	-45.8	10.1	7.26e-03	0	60	0	775946240	53	6287
2026-01-20 08:23:00.04	6.12	12.28	-40.6	-46.2	9.3	1.48e-02	0	60	0	781189120	53	6619
2026-01-20 08:23:03.07	5.71	12.08	-40.9	-48.2	7.0	1.43e-01	0	60	0	787480576	53	8336
2026-01-20 08:23:06.10	5.30	11.88	-41.2	-50.8	5.0	6.64e-01	0	60	0	792723456	53	11198
2026-01-20 08:23:09.13	4.89	11.68	-40.4	-54.9	3.8	1.49e+00	0	60	104	796917760	52	19046
2026-01-20 08:23:12.16	4.50	11.48	-41.2	-55.6	3.8	1.49e+00	0	60	104	796917760	53	19447
2026-01-20 08:23:15.18	4.10	11.28	-40.9	-55.6	3.8	1.49e+00	0	60	104	796917760	53	19568
2026-01-20 08:23:18.21	3.72	11.08	-40.0	-54.8	3.8	1.49e+00	0	60	104	796917760	51	19913
2026-01-20 08:23:21.24	3.33	10.88	-40.1	-54.8	3.8	1.49e+00	0	60	104	796917760	51	19955
2026-01-20 08:23:24.27	2.96	10.68	-40.1	-54.8	3.8	1.49e+00	0	60	104	796917760	51	19989
2026-01-20 08:23:27.29	2.59	10.48	-40.3	-55.0	3.8	1.49e+00	0	60	104	796917760	51	20456
2026-01-20 08:23:30.32	2.22	10.28	-40.0	-54.8	3.8	1.49e+00	0	60	104	796917760	51	19919
2026-01-20 08:23:33.35	1.86	10.09	-40.0	-54.8	3.8	1.49e+00	0	60	104	796917760	51	19908
2026-01-20 08:23:36.38	1.50	9.89	-40.0	-54.8	3.8	1.49e+00	0	60	104	796917760	51	20021
2026-01-20 08:23:39.41	1.15	9.69	-40.0	-54.8	3.8	1.49e+00	0	60	104	796917760	51	19938
2026-01-20 08:23:42.44	0.81	9.50	-39.8	-54.7	3.8	1.49e+00	0	60	104	796917760	51	19705
2026-01-20 08:23:45.47	0.46	9.30	-39.8	-54.7	3.8	1.49e+00	0	60	104	796917760	51	19713
2026-01-20 08:23:48.50	0.13	9.10	-39.7	-54.7	3.8	1.49e+00	0	60	104	796917760	51	19764
2026-01-20 08:23:51.52	359.80	8.91	-39.7	-54.7	3.8	1.49e+00	0	60	104	796917760	50	20936
2026-01-20 08:23:54.55	359.47	8.72	-39.4	-54.7	3.8	1.49e+00	0	60	104	796917760	50	20866
2026-01-20 08:23:57.58	359.14	8.52	-39.6	-54.6	3.8	1.49e+00	0	60	104	796917760	50	20673
2026-01-20 08:24:00.61	358.83	8.33	-39.6	-54.6	3.8	1.49e+00	0	60	104	796917760	50	20674
2026-01-20 08:24:03.64	358.51	8.14	-39.7	-54.6	3.8	1.49e+00	0	60	104	796917760	50	20704
2026-01-20 08:24:06.67	358.20	7.95	-40.6	-55.5	3.8	1.49e+00	0	60	104	796917760	51	21676
2026-01-20 08:24:09.70	357.89	7.76	-45.0	-59.7	3.8	1.49e+00	0	60	104	796917760	60	20954
2026-01-20 08:24:12.72	357.59	7.57	-45.3	-60.0	3.8	1.49e+00	0	60	104	796917760	61	20427
2026-01-20 08:24:15.76	357.29	7.38	-45.1	-59.9	3.8	1.49e+00	0	60	104	796917760	61	20235
2026-01-20 08:24:18.79	357.00	7.19	-45.2	-59.8	3.8	1.49e+00	0	60	104	796917760	60	21071
2026-01-20 08:24:21.82	356.71	7.00	-45.1	-59.6	3.8	1.49e+00	0	60	104	796917760	60	20755
2026-01-20 08:24:24.85	356.42	6.81	-45.1	-59.6	3.8	1.49e+00	0	60	104	796917760	60	20772
2026-01-20 08:24:27.88	356.14	6.63	-45.1	-59.6	3.8	1.49e+00	0	60	104	796917760	60	20757
2026-01-20 08:24:30.92	355.86	6.44	-45.1	-59.7	3.8	1.49e+00	0	60	104	796917760	60	20789
2026-01-20 08:24:33.95	355.59	6.25	-45.1	-59.6	3.8	1.49e+00	0	60	104	796917760	60	20679
2026-01-20 08:24:36.98	355.31	6.07	-45.0	-59.6	3.8	1.49e+00	0	60	104	796917760	60	20652
2026-01-20 08:24:40.01	355.05	5.88	-45.0	-59.6	3.8	1.49e+00	0	60	104	796917760	60	20726
2026-01-20 08:24:43.04	354.78	5.70	-45.1	-59.6	3.8	1.49e+00	0	60	104	796917760	60	20602
2026-01-20 08:24:46.07	354.52	5.52	-45.1	-59.6	3.8	1.49e+00	0	60	104	796917760	60	20656
2026-01-20 08:24:49.10	354.26	5.34	-45.1	-59.6	3.8	1.49e+00	0	60	104	796917760	60	20664
2026-01-20 08:24:52.13	354.01	5.16	-45.1	-59.6	3.8	1.49e+00	0	60	104	796917760	60	20689
2026-01-20 08:24:55.17	353.76	4.97	-45.0	-59.6	3.8	1.49e+00	0	60	104	796917760	60	20627
2026-01-20 08:24:58.20	353.51	4.79	-45.0	-59.6	3.8	1.49e+00	0	60	104	796917760	60	20629
2026-01-20 08:25:01.23	353.27	4.62	-45.0	-59.6	3.8	1.49e+00	0	60	104	796917760	60	20658
2026-01-20 08:25:04.26	353.02	4.44	-45.0	-59.6	3.8	1.49e+00	0	60	104	796917760	60	20633
2026-01-20 08:25:07.29	352.79	4.26	-45.1	-59.6	3.8	1.49e+00	0	60	104	796917760	60	20609
2026-01-20 08:25:10.32	352.55	4.08	-45.0	-59.6	3.8	1.49e+00	0	60	104	796917760	60	20643
2026-01-20 08:25:13.35	352.32	3.91	-45.0	-59.6	3.8	1.49e+00	0	60	104	796917760	60	20599
2026-01-20 08:25:16.38	352.09	3.73	-45.0	-59.6	3.8	1.49e+00	0	60	104	796917760	60	20591
2026-01-20 08:25:19.42	351.86	3.55	-45.0	-59.6	3.8	1.49e+00	0	60	104	796917760	60	20614
2026-01-20 08:25:22.45	351.64	3.38	-45.0	-59.5	3.8	1.49e+00	0	60	104	796917760	60	20512
2026-01-20 08:25:25.48	351.42	3.21	-45.0	-59.6	3.8	1.49e+00	0	60	104	796917760	60	20623
2026-01-20 08:25:28.51	351.20	3.03	-45.0	-59.6	3.8	1.49e+00	0	60	104	796917760	60	20549
2026-01-20 08:25:31.54	350.98	2.86	-45.0	-59.6	3.8	1.49e+00	0	60	104	796917760	60	20641
2026-01-20 08:25:34.57	350.77	2.69	-45.0	-59.6	3.8	1.49e+00	0	60	104	796917760	60	20620
2026-01-20 08:25:37.61	350.56	2.52	-45.0	-59.6	3.8	1.49e+00	0	60	104	796917760	60	20584
2026-01-20 08:25:40.64	350.35	2.35	-45.0	-59.5	3.8	1.49e+00	0	60	104	796917760	60	20509
2026-01-20 08:25:43.67	350.15	2.18	-45.0	-59.6	3.8	1.49e+00	0	60	104	796917760	60	20556
2026-01-20 08:25:46.70	349.94	2.01	-45.0	-59.6	3.8	1.49e+00	0	60	104	796917760	60	20563

#Closed at: 2026-01-20 08:25:48
#Recorded file [796 MB]: D:/lorett/data/31039_260120_111318.dat