passes_logs/2026/01/20/R2.0S_Moscow/R2.0S_Moscow__20260120_040312_FENGYUN_3E_rec.log

#Pass ID: 20260120_040312_FENGYUN 3E
#Satellite: FENGYUN 3E
#Configuration: FENGYUN 3E
#almurnet v.1.7.20251203
#Start time: 2026-01-20 04:11:22

#Version: 2.2.20231116
#Station: R2.0S_Moscow
#Location: 37.707566 lon 55.798166 lat
#TLE: 1 49008U 21062A   26019.23377557 -.00000048  00000+0 -18182-5 0  9997
#TLE: 2 49008  98.7482  24.3123 0002210 128.5385 231.5989 14.19885253235444

#Time	Az	El	Level	Level2	SNR	BER	BlckErr	Temp	State	Recorded	gain1	gain2
2026-01-20 04:11:22.00	213.90	61.94	-45.0	-56.6	3.8	8.46e-01	0	61	0	0	60	14700
2026-01-20 04:11:24.02	213.42	61.11	-45.7	-56.9	3.8	8.46e-01	0	62	104	0	60	14271
2026-01-20 04:11:26.04	212.97	60.30	-45.6	-56.9	3.8	8.47e-01	0	62	104	0	60	14367
2026-01-20 04:11:28.06	212.55	59.49	-45.6	-56.9	3.8	8.46e-01	0	62	104	0	60	14210
2026-01-20 04:11:30.08	212.15	58.70	-45.6	-56.9	3.8	8.46e-01	0	62	104	0	60	14304
2026-01-20 04:11:32.10	211.78	57.91	-45.6	-56.8	3.8	8.46e-01	0	62	104	0	60	14182
2026-01-20 04:11:34.12	211.43	57.13	-45.6	-56.9	3.8	8.47e-01	0	62	104	0	60	14289
2026-01-20 04:11:36.14	211.10	56.36	-45.6	-56.9	3.8	8.47e-01	0	62	104	0	60	14278
2026-01-20 04:11:38.17	210.78	55.60	-45.5	-56.7	3.8	8.46e-01	0	62	104	0	60	13911
2026-01-20 04:11:40.19	210.49	54.85	-45.6	-56.9	3.8	8.46e-01	0	62	104	0	60	14253
2026-01-20 04:11:42.21	210.21	54.11	-45.5	-56.9	3.8	8.46e-01	0	62	104	0	60	14240
2026-01-20 04:11:44.23	209.94	53.38	-45.5	-56.7	3.8	8.46e-01	0	62	104	0	60	13952
2026-01-20 04:11:46.25	209.68	52.66	-45.5	-56.7	3.8	8.47e-01	0	62	104	0	60	14015
2026-01-20 04:11:48.27	209.44	51.95	-45.5	-56.9	3.8	8.47e-01	0	62	104	0	60	14270
2026-01-20 04:11:50.29	209.21	51.25	-45.5	-56.8	3.8	8.46e-01	0	62	104	0	60	14094
2026-01-20 04:11:52.31	208.99	50.56	-45.5	-56.6	3.8	8.47e-01	0	62	104	0	60	13727
2026-01-20 04:11:54.33	208.79	49.88	-45.5	-56.4	3.8	8.46e-01	0	62	104	0	60	13434
2026-01-20 04:11:56.35	208.59	49.21	-45.5	-56.1	3.8	8.46e-01	0	62	104	0	60	13088
2026-01-20 04:11:58.37	208.40	48.55	-45.3	-54.9	3.8	8.46e-01	0	62	104	0	60	11335
2026-01-20 04:12:00.39	208.21	47.90	-45.5	-56.7	3.8	8.46e-01	0	62	104	0	60	13965
2026-01-20 04:12:02.40	208.04	47.26	-45.2	-54.6	3.8	8.45e-01	0	62	104	0	60	10958
2026-01-20 04:12:04.42	207.87	46.62	-44.6	-50.9	5.2	7.57e-01	0	62	0	0	60	7192
2026-01-20 04:12:06.44	207.71	46.00	-45.4	-55.6	3.8	8.41e-01	0	62	104	0	60	12288
2026-01-20 04:12:08.46	207.55	45.38	-43.7	-48.1	7.2	4.01e-01	0	62	0	2097152	58	5851
2026-01-20 04:12:10.49	207.41	44.77	-41.6	-44.4	11.0	1.66e-03	0	62	0	16777216	54	4760
2026-01-20 04:12:12.51	207.26	44.18	-43.5	-47.7	7.7	9.38e-02	0	62	0	31457280	56	6221
2026-01-20 04:12:14.53	207.13	43.59	-38.5	-40.1	15.5	0.00e+00	0	62	0	45088768	48	4112
2026-01-20 04:12:16.55	206.99	43.01	-37.5	-38.9	16.4	0.00e+00	0	62	0	60817408	44	4516
2026-01-20 04:12:18.57	206.87	42.44	-35.8	-36.9	18.2	5.70e-06	0	62	0	74448896	42	4038
2026-01-20 04:12:20.59	206.74	41.88	-36.2	-37.4	17.8	0.00e+00	0	62	0	89128960	43	4020
2026-01-20 04:12:22.61	206.63	41.32	-36.9	-38.2	17.0	0.00e+00	0	62	0	103809024	44	4190
2026-01-20 04:12:24.62	206.51	40.78	-36.2	-37.4	17.7	0.00e+00	0	62	0	118489088	43	4025
2026-01-20 04:12:26.64	206.40	40.24	-36.1	-37.3	17.9	0.00e+00	0	62	0	133169152	43	3972
2026-01-20 04:12:28.66	206.29	39.71	-35.6	-36.7	18.4	0.00e+00	0	62	0	147849216	42	3942
2026-01-20 04:12:30.68	206.19	39.19	-35.5	-36.7	18.4	0.00e+00	0	62	0	162529280	41	4161
2026-01-20 04:12:32.70	206.09	38.67	-35.5	-36.7	18.4	0.00e+00	0	62	0	177209344	41	4160
2026-01-20 04:12:34.72	206.00	38.17	-35.5	-36.7	18.4	0.00e+00	0	62	0	191889408	41	4164
2026-01-20 04:12:36.74	205.90	37.67	-35.3	-36.4	18.7	0.00e+00	0	62	0	205520896	41	4031
2026-01-20 04:12:38.75	205.81	37.18	-35.3	-36.4	18.7	0.00e+00	0	62	0	220200960	41	4026
2026-01-20 04:12:40.77	205.73	36.69	-35.3	-36.4	18.7	0.00e+00	0	62	0	234881024	41	4024
2026-01-20 04:12:42.79	205.64	36.21	-35.4	-36.5	18.6	0.00e+00	0	62	0	249561088	41	4087
2026-01-20 04:12:44.81	205.56	35.74	-35.5	-36.6	18.4	0.00e+00	0	62	0	264241152	41	4143
2026-01-20 04:12:46.83	205.48	35.28	-35.4	-36.6	18.5	0.00e+00	0	62	0	278921216	41	4111
2026-01-20 04:12:48.86	205.40	34.82	-35.3	-36.5	18.6	0.00e+00	0	62	0	293601280	41	4057
2026-01-20 04:12:50.88	205.33	34.36	-35.3	-36.5	18.6	0.00e+00	0	62	0	308281344	41	4071
2026-01-20 04:12:52.90	205.26	33.92	-35.4	-36.5	18.4	0.00e+00	0	62	0	322961408	41	4094
2026-01-20 04:12:54.91	205.19	33.48	-34.9	-36.0	19.0	0.00e+00	0	62	0	337641472	40	4092
2026-01-20 04:12:56.93	205.12	33.05	-34.9	-36.0	19.0	0.00e+00	0	62	0	351272960	40	4073
2026-01-20 04:12:58.95	205.05	32.62	-35.0	-36.1	19.0	0.00e+00	0	62	0	365953024	40	4113
2026-01-20 04:13:00.97	204.99	32.20	-35.2	-36.3	18.7	0.00e+00	0	62	0	380633088	40	4231
2026-01-20 04:13:02.99	204.92	31.79	-35.2	-36.4	18.5	0.00e+00	0	62	0	395313152	40	4248
2026-01-20 04:13:05.01	204.86	31.38	-35.3	-36.4	18.6	0.00e+00	0	62	0	409993216	40	4264
2026-01-20 04:13:07.03	204.80	30.98	-35.3	-36.4	18.7	0.00e+00	0	62	0	424673280	40	4255
2026-01-20 04:13:09.05	204.74	30.58	-35.2	-36.3	18.7	0.00e+00	0	62	0	439353344	40	4240
2026-01-20 04:13:11.07	204.69	30.19	-35.2	-36.3	18.7	0.00e+00	0	62	0	454033408	40	4230
2026-01-20 04:13:13.09	204.63	29.80	-35.3	-36.4	18.6	0.00e+00	0	62	0	468713472	40	4269
2026-01-20 04:13:15.11	204.58	29.42	-35.4	-36.5	18.5	0.00e+00	0	62	0	483393536	40	4317
2026-01-20 04:13:17.13	204.53	29.04	-35.5	-36.7	18.3	0.00e+00	0	62	0	497025024	40	4412
2026-01-20 04:13:19.15	204.48	28.67	-35.6	-36.8	18.2	0.00e+00	0	62	0	512753664	40	4459
2026-01-20 04:13:21.17	204.43	28.30	-35.8	-36.9	18.1	0.00e+00	0	62	0	526385152	41	4289
2026-01-20 04:13:23.19	204.38	27.94	-35.8	-37.0	18.0	0.00e+00	0	62	0	541065216	41	4334
2026-01-20 04:13:25.21	204.33	27.58	-35.9	-37.1	17.9	0.00e+00	0	62	0	555745280	41	4367
2026-01-20 04:13:27.22	204.29	27.23	-36.0	-37.3	17.7	0.00e+00	0	62	0	570425344	41	4442
2026-01-20 04:13:29.25	204.24	26.88	-36.0	-37.2	17.9	0.00e+00	0	62	0	585105408	41	4407
2026-01-20 04:13:31.26	204.20	26.53	-36.0	-37.2	17.8	0.00e+00	0	62	0	599785472	41	4435
2026-01-20 04:13:33.28	204.15	26.19	-35.8	-37.0	18.0	0.00e+00	0	62	0	614465536	41	4314
2026-01-20 04:13:35.30	204.11	25.86	-35.7	-36.9	18.0	0.00e+00	0	62	0	629145600	41	4268
2026-01-20 04:13:37.32	204.07	25.53	-35.8	-37.0	18.0	0.00e+00	0	62	0	642777088	41	4308
2026-01-20 04:13:39.34	204.03	25.20	-35.8	-37.1	17.9	0.00e+00	0	62	0	657457152	41	4344
2026-01-20 04:13:41.36	203.99	24.87	-35.9	-37.1	17.8	0.00e+00	0	62	0	672137216	41	4390
2026-01-20 04:13:43.37	203.96	24.56	-35.9	-37.1	17.7	0.00e+00	0	62	0	686817280	41	4361
2026-01-20 04:13:45.39	203.92	24.24	-36.0	-37.2	17.7	0.00e+00	0	62	0	701497344	41	4411
2026-01-20 04:13:47.41	203.88	23.93	-36.0	-37.3	17.7	0.00e+00	0	62	0	716177408	41	4442
2026-01-20 04:13:49.43	203.85	23.62	-36.1	-37.4	17.6	0.00e+00	0	62	0	730857472	41	4496
2026-01-20 04:13:51.45	203.81	23.32	-36.1	-37.4	17.5	0.00e+00	0	62	0	745537536	41	4518
2026-01-20 04:13:53.47	203.78	23.01	-36.2	-37.4	17.5	0.00e+00	0	62	0	760217600	41	4535
2026-01-20 04:13:55.49	203.75	22.72	-36.3	-37.6	17.4	0.00e+00	0	62	0	774897664	42	4361
2026-01-20 04:13:57.51	203.71	22.42	-36.2	-37.4	17.5	0.00e+00	0	62	0	789577728	42	4290
2026-01-20 04:13:59.54	203.68	22.13	-36.1	-37.3	17.6	0.00e+00	0	62	0	803209216	42	4240
2026-01-20 04:14:01.56	203.65	21.84	-36.1	-37.4	17.5	0.00e+00	0	62	0	817889280	42	4265
2026-01-20 04:14:03.58	203.62	21.56	-36.0	-37.3	17.6	0.00e+00	0	62	0	832569344	42	4201
2026-01-20 04:14:05.59	203.59	21.28	-36.0	-37.3	17.6	0.00e+00	0	62	0	847249408	42	4198
2026-01-20 04:14:07.61	203.56	21.00	-36.0	-37.3	17.6	0.00e+00	0	62	0	861929472	42	4214
2026-01-20 04:14:09.64	203.54	20.72	-36.0	-37.2	17.6	0.00e+00	0	62	0	876609536	42	4191
2026-01-20 04:14:11.65	203.51	20.45	-36.0	-37.3	17.6	0.00e+00	0	62	0	891289600	42	4203
2026-01-20 04:14:13.68	203.48	20.18	-36.0	-37.2	17.7	0.00e+00	0	62	0	905969664	42	4171
2026-01-20 04:14:15.70	203.45	19.91	-36.1	-37.3	17.5	0.00e+00	0	62	0	920649728	42	4215
2026-01-20 04:14:17.71	203.43	19.65	-36.1	-37.3	17.5	0.00e+00	0	62	0	935329792	42	4240
2026-01-20 04:14:19.73	203.40	19.39	-36.1	-37.3	17.5	0.00e+00	0	62	0	948961280	42	4242
2026-01-20 04:14:21.75	203.38	19.13	-36.2	-37.5	17.4	0.00e+00	0	62	0	963641344	42	4292
2026-01-20 04:14:23.78	203.35	18.88	-36.3	-37.5	17.3	0.00e+00	0	62	0	978321408	42	4327
2026-01-20 04:14:25.80	203.33	18.62	-36.3	-37.6	17.2	0.00e+00	0	62	0	993001472	42	4371
2026-01-20 04:14:27.81	203.31	18.37	-36.4	-37.7	17.1	0.00e+00	0	62	0	1007681536	42	4403
2026-01-20 04:14:29.83	203.28	18.13	-36.5	-37.8	17.0	0.00e+00	0	62	0	1022361600	42	4478
2026-01-20 04:14:31.85	203.26	17.88	-36.6	-37.9	16.9	0.00e+00	0	62	0	1037041664	42	4517
2026-01-20 04:14:33.87	203.24	17.64	-36.7	-38.0	16.7	0.00e+00	0	62	0	1051721728	42	4587
2026-01-20 04:14:35.89	203.22	17.40	-36.7	-38.0	16.7	0.00e+00	0	62	0	1066401792	43	4320
2026-01-20 04:14:37.91	203.20	17.16	-36.6	-38.0	16.8	0.00e+00	0	62	0	1081081856	43	4302
2026-01-20 04:14:39.93	203.17	16.92	-36.7	-38.1	16.6	0.00e+00	0	62	0	1094713344	43	4370
2026-01-20 04:14:41.94	203.15	16.69	-36.8	-38.1	16.6	0.00e+00	0	62	0	1109393408	43	4387
2026-01-20 04:14:43.96	203.13	16.46	-36.9	-38.3	16.5	0.00e+00	0	62	0	1124073472	43	4473
2026-01-20 04:14:45.98	203.12	16.23	-36.9	-38.3	16.4	0.00e+00	0	62	0	1138753536	43	4450
2026-01-20 04:14:48.00	203.10	16.00	-36.9	-38.3	16.4	0.00e+00	0	62	0	1153433600	43	4463
2026-01-20 04:14:50.02	203.08	15.78	-36.9	-38.3	16.4	0.00e+00	0	62	0	1168113664	43	4458
2026-01-20 04:14:52.04	203.06	15.56	-37.0	-38.4	16.2	0.00e+00	0	62	0	1182793728	43	4536
2026-01-20 04:14:54.06	203.04	15.33	-37.1	-38.5	16.2	0.00e+00	0	62	0	1197473792	43	4583
2026-01-20 04:14:56.07	203.02	15.12	-37.1	-38.5	16.1	0.00e+00	0	62	0	1212153856	43	4569
2026-01-20 04:14:58.09	203.01	14.90	-37.1	-38.6	16.0	0.00e+00	0	62	0	1225785344	43	4621
2026-01-20 04:15:00.11	202.99	14.68	-37.5	-38.9	15.9	0.00e+00	0	62	0	1240465408	44	4525
2026-01-20 04:15:02.13	202.97	14.47	-37.4	-38.9	15.9	1.10e-06	0	62	0	1255145472	44	4494
2026-01-20 04:15:04.15	202.96	14.26	-37.5	-39.0	15.7	0.00e+00	0	62	0	1269825536	44	4584
2026-01-20 04:15:06.17	202.94	14.05	-37.6	-39.1	15.7	0.00e+00	0	62	0	1284505600	44	4608
2026-01-20 04:15:08.19	202.92	13.84	-37.6	-39.2	15.6	1.10e-06	0	62	0	1299185664	44	4657
2026-01-20 04:15:10.21	202.91	13.64	-37.7	-39.2	15.5	0.00e+00	0	62	0	1313865728	45	4436
2026-01-20 04:15:12.23	202.89	13.43	-37.8	-39.3	15.4	0.00e+00	0	62	0	1328545792	45	4489
2026-01-20 04:15:14.25	202.88	13.23	-37.8	-39.4	15.3	0.00e+00	0	62	0	1343225856	45	4509
2026-01-20 04:15:16.27	202.86	13.03	-37.9	-39.5	15.2	0.00e+00	0	62	0	1357905920	45	4563
2026-01-20 04:15:18.29	202.85	12.83	-37.9	-39.5	15.2	0.00e+00	0	62	0	1371537408	45	4572
2026-01-20 04:15:20.31	202.83	12.63	-38.0	-39.6	15.0	0.00e+00	0	62	0	1387266048	45	4636
2026-01-20 04:15:22.32	202.82	12.44	-38.0	-39.7	15.0	0.00e+00	0	62	0	1400897536	45	4653
2026-01-20 04:15:24.34	202.81	12.24	-38.0	-39.7	15.0	0.00e+00	0	62	0	1415577600	45	4671
2026-01-20 04:15:26.36	202.79	12.05	-38.1	-39.8	14.9	0.00e+00	0	62	0	1430257664	45	4724
2026-01-20 04:15:28.38	202.78	11.86	-38.2	-39.9	14.7	0.00e+00	0	62	0	1444937728	45	4764
2026-01-20 04:15:30.41	202.77	11.67	-38.1	-39.8	14.8	0.00e+00	0	62	0	1459617792	45	4738
2026-01-20 04:15:32.43	202.75	11.48	-38.2	-39.9	14.7	0.00e+00	0	62	0	1474297856	45	4777
2026-01-20 04:15:34.45	202.74	11.29	-38.2	-39.9	14.7	0.00e+00	0	62	0	1488977920	45	4778
2026-01-20 04:15:36.47	202.73	11.11	-38.3	-40.1	14.5	0.00e+00	0	62	0	1503657984	46	4607
2026-01-20 04:15:38.49	202.72	10.92	-38.3	-40.0	14.5	0.00e+00	0	62	0	1517289472	46	4571
2026-01-20 04:15:40.50	202.71	10.74	-38.3	-40.1	14.4	0.00e+00	0	62	0	1533018112	46	4611
2026-01-20 04:15:42.52	202.69	10.56	-38.4	-40.1	14.3	0.00e+00	0	62	0	1546649600	46	4643
2026-01-20 04:15:44.54	202.68	10.38	-38.4	-40.2	14.3	0.00e+00	0	62	0	1561329664	46	4670
2026-01-20 04:15:46.56	202.67	10.20	-38.4	-40.2	14.2	2.20e-06	0	62	0	1576009728	46	4676
2026-01-20 04:15:48.58	202.66	10.02	-38.4	-40.2	14.2	3.40e-06	0	62	0	1590689792	46	4685
2026-01-20 04:15:50.60	202.65	9.85	-38.4	-40.2	14.2	2.20e-06	0	62	0	1605369856	46	4671
2026-01-20 04:15:52.62	202.64	9.67	-38.4	-40.2	14.1	2.20e-06	0	62	0	1620049920	46	4668
2026-01-20 04:15:54.63	202.63	9.50	-38.5	-40.3	14.0	1.10e-06	0	62	0	1634729984	46	4754
2026-01-20 04:15:56.65	202.62	9.33	-38.5	-40.3	13.9	3.40e-06	0	62	0	1649410048	46	4737
2026-01-20 04:15:58.67	202.61	9.16	-38.5	-40.4	13.8	2.20e-06	0	62	0	1664090112	46	4803
2026-01-20 04:16:00.69	202.60	8.99	-38.6	-40.5	13.7	2.20e-06	0	62	0	1677721600	46	4816
2026-01-20 04:16:02.71	202.59	8.82	-38.6	-40.5	13.6	1.14e-05	0	62	0	1692401664	46	4862
2026-01-20 04:16:04.73	202.58	8.65	-38.6	-40.6	13.5	1.14e-05	0	62	0	1707081728	46	4881
2026-01-20 04:16:06.75	202.57	8.48	-38.6	-40.5	13.5	8.00e-06	0	62	0	1721761792	46	4856
2026-01-20 04:16:08.77	202.56	8.32	-38.6	-40.6	13.4	6.80e-06	0	62	0	1736441856	46	4895
2026-01-20 04:16:10.79	202.55	8.15	-38.7	-40.8	13.1	1.94e-05	0	62	0	1751121920	47	4718
2026-01-20 04:16:12.81	202.54	7.99	-42.8	-47.6	6.8	1.13e-01	0	62	0	1765801984	55	6523
2026-01-20 04:16:14.83	202.53	7.83	-45.3	-56.6	3.8	8.46e-01	0	62	104	1765801984	60	13882
2026-01-20 04:16:16.85	202.53	7.66	-45.5	-56.9	3.8	8.46e-01	0	62	104	1765801984	60	14283
2026-01-20 04:16:18.88	202.52	7.50	-45.6	-57.0	3.8	8.46e-01	0	62	104	1765801984	60	14442
2026-01-20 04:16:20.90	202.51	7.34	-45.7	-57.0	3.8	8.46e-01	0	62	104	1765801984	60	14525
2026-01-20 04:16:22.92	202.50	7.18	-45.6	-57.0	3.8	8.46e-01	0	63	104	1765801984	60	14432
2026-01-20 04:16:24.94	202.49	7.03	-45.6	-56.9	3.8	8.45e-01	0	62	104	1765801984	60	14296
2026-01-20 04:16:26.96	202.49	6.87	-45.6	-56.9	3.8	8.45e-01	0	63	104	1765801984	60	14217
2026-01-20 04:16:28.98	202.48	6.72	-45.5	-56.9	3.8	8.46e-01	0	62	104	1765801984	60	14226
2026-01-20 04:16:31.00	202.47	6.56	-45.5	-56.9	3.8	8.47e-01	0	63	104	1765801984	60	14280
2026-01-20 04:16:33.02	202.46	6.41	-45.5	-56.8	3.8	8.46e-01	0	63	104	1765801984	60	14199
2026-01-20 04:16:35.04	202.46	6.25	-45.5	-56.8	3.8	8.45e-01	0	62	104	1765801984	60	14187
2026-01-20 04:16:37.07	202.45	6.10	-45.5	-56.8	3.8	8.45e-01	0	62	104	1765801984	60	14132
2026-01-20 04:16:39.09	202.44	5.95	-45.5	-56.8	3.8	8.47e-01	0	63	104	1765801984	60	14100
2026-01-20 04:16:41.11	202.43	5.80	-45.5	-56.8	3.8	8.45e-01	0	62	104	1765801984	60	14106
2026-01-20 04:16:43.13	202.43	5.65	-45.5	-56.8	3.8	8.46e-01	0	63	104	1765801984	60	14096
2026-01-20 04:16:45.15	202.42	5.50	-45.5	-56.8	3.8	8.46e-01	0	62	104	1765801984	60	14076
2026-01-20 04:16:47.17	202.41	5.36	-45.5	-56.8	3.8	8.46e-01	0	62	104	1765801984	60	14182
2026-01-20 04:16:49.19	202.41	5.21	-45.5	-56.8	3.8	8.47e-01	0	63	104	1765801984	60	14152
2026-01-20 04:16:51.22	202.40	5.06	-45.5	-56.8	3.8	8.46e-01	0	63	104	1765801984	60	14114
2026-01-20 04:16:53.24	202.40	4.92	-45.5	-56.8	3.8	8.45e-01	0	63	104	1765801984	60	14092
2026-01-20 04:16:55.26	202.39	4.77	-45.5	-56.8	3.8	8.46e-01	0	62	104	1765801984	60	14072
2026-01-20 04:16:57.28	202.38	4.63	-45.4	-56.8	3.8	8.47e-01	0	62	104	1765801984	60	14152
2026-01-20 04:16:59.30	202.38	4.49	-45.5	-56.8	3.8	8.45e-01	0	63	104	1765801984	60	14063
2026-01-20 04:17:01.32	202.37	4.35	-45.5	-56.8	3.8	8.47e-01	0	63	104	1765801984	60	14064
2026-01-20 04:17:03.34	202.37	4.20	-45.5	-56.8	3.8	8.46e-01	0	62	104	1765801984	60	14130
2026-01-20 04:17:05.36	202.36	4.06	-45.5	-56.8	3.8	8.46e-01	0	63	104	1765801984	60	14120
2026-01-20 04:17:07.38	202.36	3.92	-45.5	-56.8	3.8	8.46e-01	0	63	104	1765801984	60	14147
2026-01-20 04:17:09.41	202.35	3.78	-45.5	-56.8	3.8	8.47e-01	0	63	104	1765801984	60	14052
2026-01-20 04:17:11.43	202.35	3.65	-45.5	-56.8	3.8	8.48e-01	0	62	104	1765801984	60	14075
2026-01-20 04:17:13.44	202.34	3.51	-45.4	-56.8	3.8	8.45e-01	0	63	104	1765801984	60	14122
2026-01-20 04:17:15.46	202.33	3.37	-45.4	-56.8	3.8	8.47e-01	0	63	104	1765801984	60	14147
2026-01-20 04:17:17.49	202.33	3.23	-45.4	-56.8	3.8	8.45e-01	0	63	104	1765801984	60	14112
2026-01-20 04:17:19.51	202.32	3.10	-45.4	-56.8	3.8	8.46e-01	0	62	104	1765801984	60	14081
2026-01-20 04:17:21.53	202.32	2.96	-45.4	-56.7	3.8	8.46e-01	0	63	104	1765801984	60	14021
2026-01-20 04:17:23.55	202.32	2.83	-45.4	-56.8	3.8	8.46e-01	0	63	104	1765801984	60	14102
2026-01-20 04:17:25.57	202.31	2.70	-45.4	-56.8	3.8	8.46e-01	0	63	104	1765801984	60	14069
2026-01-20 04:17:27.59	202.31	2.56	-45.4	-56.7	3.8	8.46e-01	0	63	104	1765801984	60	14028
2026-01-20 04:17:29.61	202.30	2.43	-45.4	-56.8	3.8	8.47e-01	0	63	104	1765801984	60	14074
2026-01-20 04:17:31.63	202.30	2.30	-45.4	-56.8	3.8	8.45e-01	0	63	104	1765801984	60	14071
2026-01-20 04:17:33.65	202.29	2.17	-45.4	-56.8	3.8	8.46e-01	0	62	104	1765801984	60	14060
2026-01-20 04:17:35.68	202.29	2.04	-45.4	-56.8	3.8	8.46e-01	0	63	104	1765801984	60	14070
2026-01-20 04:17:37.70	202.28	1.91	-45.4	-56.7	3.8	8.46e-01	0	63	104	1765801984	60	14014

#Closed at: 2026-01-20 04:17:38
#Recorded file [1765 MB]: D:/lorett/data/31039_260120_071121.dat