passes_logs/2026/01/20/R2.0S_Moscow/R2.0S_Moscow__20260120_012116_SUOMI_NPP_rec.log

#Pass ID: 20260120_012116_SUOMI NPP
#Satellite: SUOMI NPP
#Configuration: NPP
#almurnet v.1.7.20251203
#Start time: 2026-01-20 01:21:16

#Version: 2.2.20231116
#Station: R2.0S_Moscow
#Location: 37.707566 lon 55.798166 lat
#TLE: 1 37849U 11061A   26019.26265094  .00000081  00000+0  59609-4 0  9993
#TLE: 2 37849  98.7817 321.2746 0002356  56.2510 303.8890 14.19526363737315

#Time	Az	El	Level	Level2	SNR	BER	BlckErr	Temp	State	Recorded	gain1	gain2
2026-01-20 01:21:16.59	10.46	2.01	-40.0	-54.7	3.8	1.49e+00	0	52	0	0	51	19831
2026-01-20 01:21:19.62	10.27	2.18	-40.0	-54.7	3.8	1.49e+00	0	53	104	0	51	19775
2026-01-20 01:21:22.65	10.08	2.35	-40.0	-54.7	3.8	1.49e+00	0	53	104	0	51	19787
2026-01-20 01:21:25.69	9.89	2.53	-40.0	-54.7	3.8	1.49e+00	0	53	104	0	51	19660
2026-01-20 01:21:28.72	9.69	2.70	-40.0	-54.7	3.8	1.49e+00	0	54	104	0	51	19682
2026-01-20 01:21:31.75	9.49	2.88	-40.0	-54.7	3.8	1.49e+00	0	54	104	0	51	19792
2026-01-20 01:21:34.78	9.29	3.05	-40.0	-54.7	3.8	1.49e+00	0	54	104	0	51	19713
2026-01-20 01:21:37.81	9.09	3.23	-40.0	-54.7	3.8	1.49e+00	0	54	104	0	51	19723
2026-01-20 01:21:40.84	8.88	3.41	-40.0	-54.7	3.8	1.49e+00	0	54	104	0	51	19710
2026-01-20 01:21:43.87	8.68	3.59	-40.0	-54.7	3.8	1.49e+00	0	55	104	0	51	19725
2026-01-20 01:21:46.90	8.46	3.77	-40.0	-54.7	3.8	1.49e+00	0	55	104	0	51	19704
2026-01-20 01:21:49.93	8.25	3.95	-40.0	-54.7	3.8	1.49e+00	0	55	104	0	51	19680
2026-01-20 01:21:52.95	8.03	4.13	-40.0	-54.7	3.8	1.49e+00	0	55	104	0	51	19697
2026-01-20 01:21:55.99	7.81	4.31	-40.0	-54.7	3.8	1.49e+00	0	55	104	0	51	19694
2026-01-20 01:21:59.02	7.59	4.49	-40.0	-54.7	3.8	1.49e+00	0	56	104	0	51	19652
2026-01-20 01:22:02.05	7.37	4.68	-40.0	-54.7	3.8	1.49e+00	0	56	104	0	51	19701
2026-01-20 01:22:05.08	7.14	4.86	-40.0	-54.7	3.8	1.49e+00	0	56	104	0	51	19708
2026-01-20 01:22:08.11	6.91	5.05	-40.0	-54.7	3.8	1.49e+00	0	56	104	0	51	19720
2026-01-20 01:22:11.14	6.67	5.23	-40.0	-54.7	3.8	1.49e+00	0	56	104	0	51	19703
2026-01-20 01:22:14.17	6.43	5.42	-40.0	-54.7	3.8	1.49e+00	0	56	104	0	51	19701
2026-01-20 01:22:17.20	6.19	5.61	-40.0	-54.7	3.8	1.49e+00	0	56	104	0	51	19726
2026-01-20 01:22:20.24	5.95	5.80	-40.0	-54.7	3.8	1.49e+00	0	56	104	0	51	19622
2026-01-20 01:22:23.27	5.70	5.99	-40.0	-54.7	3.8	1.49e+00	0	57	104	0	51	19703
2026-01-20 01:22:26.30	5.45	6.18	-40.0	-54.7	3.8	1.49e+00	0	57	104	0	51	19693
2026-01-20 01:22:29.33	5.19	6.37	-40.0	-54.7	3.8	1.49e+00	0	57	104	0	51	19693
2026-01-20 01:22:32.37	4.93	6.56	-40.0	-54.7	3.8	1.49e+00	0	57	104	0	51	19689
2026-01-20 01:22:35.39	4.67	6.76	-40.0	-54.6	3.8	1.49e+00	0	57	104	0	51	19601
2026-01-20 01:22:38.42	4.41	6.95	-40.0	-54.6	3.8	1.49e+00	0	57	104	0	51	19612
2026-01-20 01:22:41.46	4.14	7.14	-40.0	-54.7	3.8	1.49e+00	0	57	104	0	51	19654
2026-01-20 01:22:44.48	3.87	7.34	-40.0	-54.7	3.8	1.49e+00	0	57	104	0	51	19623
2026-01-20 01:22:47.52	3.59	7.54	-40.0	-54.7	3.8	1.49e+00	0	58	104	0	51	19628
2026-01-20 01:22:50.55	3.31	7.73	-40.0	-54.6	3.8	1.49e+00	0	58	104	0	51	19602
2026-01-20 01:22:53.58	3.02	7.93	-40.0	-54.7	3.8	1.49e+00	0	58	104	0	51	19662
2026-01-20 01:22:56.62	2.73	8.13	-40.0	-54.8	3.8	1.49e+00	0	58	104	0	51	19944
2026-01-20 01:22:59.65	2.44	8.33	-40.1	-54.8	3.8	1.49e+00	0	58	104	0	51	19987
2026-01-20 01:23:02.66	2.15	8.53	-40.1	-54.9	3.8	1.49e+00	0	58	104	0	51	20165
2026-01-20 01:23:05.69	1.84	8.73	-40.1	-54.8	3.8	1.49e+00	0	58	104	0	51	20043
2026-01-20 01:23:08.73	1.54	8.94	-40.2	-54.9	3.8	1.49e+00	0	58	104	0	51	20150
2026-01-20 01:23:11.76	1.23	9.14	-40.1	-54.8	3.8	1.49e+00	0	58	104	0	51	20026
2026-01-20 01:23:14.78	0.91	9.34	-40.0	-54.8	3.8	1.49e+00	0	58	104	0	51	20027
2026-01-20 01:23:17.81	0.59	9.55	-39.9	-54.8	3.8	1.49e+00	0	58	104	0	51	19899
2026-01-20 01:23:20.84	0.27	9.76	-40.2	-54.9	3.8	1.49e+00	0	58	104	0	51	20211
2026-01-20 01:23:23.87	359.94	9.96	-40.0	-54.8	3.8	1.49e+00	0	59	104	0	51	20002
2026-01-20 01:23:26.90	359.61	10.17	-39.8	-54.9	3.8	1.49e+00	0	59	104	0	51	20212
2026-01-20 01:23:29.93	359.27	10.38	-39.6	-54.8	3.8	1.49e+00	0	59	104	0	51	19890
2026-01-20 01:23:32.96	358.93	10.59	-40.2	-55.2	3.8	1.49e+00	0	59	104	0	51	20819
2026-01-20 01:23:35.99	358.58	10.80	-39.8	-54.9	3.8	1.49e+00	0	59	104	0	51	20130
2026-01-20 01:23:39.02	358.22	11.01	-40.3	-55.1	3.8	1.49e+00	0	59	104	0	51	20764
2026-01-20 01:23:42.04	357.86	11.22	-39.7	-54.8	3.8	1.49e+00	0	59	104	0	51	19987
2026-01-20 01:23:45.07	357.50	11.43	-39.9	-54.9	3.8	1.49e+00	0	59	104	0	51	20115
2026-01-20 01:23:48.10	357.13	11.64	-40.2	-55.1	3.8	1.49e+00	0	59	104	0	51	20593
2026-01-20 01:23:51.13	356.76	11.86	-40.2	-55.0	3.8	1.49e+00	0	59	104	0	52	19333
2026-01-20 01:23:54.15	356.38	12.07	-40.1	-54.9	3.8	1.49e+00	0	59	104	0	52	18963
2026-01-20 01:23:57.18	355.99	12.28	-40.1	-55.0	3.8	1.49e+00	0	60	104	0	52	19310
2026-01-20 01:24:00.21	355.60	12.50	-41.1	-55.4	3.8	1.49e+00	0	59	104	0	53	19024
2026-01-20 01:24:03.23	355.20	12.71	-41.0	-54.7	3.8	1.49e+00	0	60	104	0	53	17600
2026-01-20 01:24:06.26	354.79	12.93	-40.5	-55.2	3.8	1.49e+00	0	60	104	0	52	19838
2026-01-20 01:24:09.29	354.38	13.15	-40.7	-55.5	3.8	1.49e+00	0	60	104	0	52	20319
2026-01-20 01:24:12.32	353.97	13.36	-40.4	-55.3	3.8	1.49e+00	0	60	104	0	52	20066
2026-01-20 01:24:15.35	353.54	13.58	-40.7	-55.3	3.8	1.49e+00	0	60	104	0	52	20002
2026-01-20 01:24:18.37	353.11	13.80	-40.7	-55.3	3.8	1.49e+00	0	60	104	0	52	19984
2026-01-20 01:24:21.40	352.68	14.02	-40.7	-55.4	3.8	1.49e+00	0	60	104	0	52	20077
2026-01-20 01:24:24.43	352.23	14.23	-40.7	-55.4	3.8	1.49e+00	0	60	104	0	52	20194
2026-01-20 01:24:27.46	351.78	14.45	-40.5	-55.4	3.8	1.49e+00	0	60	104	0	52	20203
2026-01-20 01:24:30.49	351.33	14.67	-40.7	-55.5	3.8	1.49e+00	0	60	104	0	52	20461
2026-01-20 01:24:33.51	350.87	14.89	-40.5	-55.7	3.8	1.49e+00	0	60	104	0	51	22145
2026-01-20 01:24:36.54	350.40	15.11	-40.2	-55.7	3.8	1.49e+00	0	60	104	0	52	20826
2026-01-20 01:24:39.57	349.92	15.33	-41.0	-55.7	3.8	1.49e+00	0	60	104	0	52	21014
2026-01-20 01:24:42.61	349.43	15.55	-41.1	-56.0	3.8	1.49e+00	0	60	104	0	52	21550
2026-01-20 01:24:45.63	348.94	15.76	-41.2	-56.0	3.8	1.49e+00	0	60	104	0	53	20345
2026-01-20 01:24:48.66	348.44	15.98	-41.2	-56.0	3.8	1.49e+00	0	60	104	0	53	20307
2026-01-20 01:24:51.69	347.94	16.20	-41.4	-56.0	3.8	1.49e+00	0	60	104	0	53	20437
2026-01-20 01:24:54.72	347.42	16.42	-41.4	-56.0	3.8	1.49e+00	0	60	104	0	53	20442
2026-01-20 01:24:57.75	346.90	16.64	-41.4	-56.0	3.8	1.49e+00	0	60	104	0	53	20319
2026-01-20 01:25:00.77	346.37	16.85	-41.4	-56.0	3.8	1.49e+00	0	60	104	0	53	20311
2026-01-20 01:25:03.80	345.83	17.07	-41.4	-56.0	3.8	1.49e+00	0	60	104	0	53	20361
2026-01-20 01:25:06.83	345.29	17.28	-41.0	-55.7	3.8	1.49e+00	0	61	104	0	53	19717
2026-01-20 01:25:09.85	344.74	17.50	-40.7	-55.5	3.8	1.49e+00	0	60	104	0	53	19347
2026-01-20 01:25:12.88	344.18	17.71	-40.8	-55.5	3.8	1.49e+00	0	60	104	0	53	19208
2026-01-20 01:25:15.91	343.61	17.92	-40.9	-55.6	3.8	1.49e+00	0	61	104	0	52	20719
2026-01-20 01:25:18.94	343.03	18.13	-40.8	-55.5	3.8	1.49e+00	0	61	104	0	52	20512
2026-01-20 01:25:21.97	342.44	18.34	-40.6	-55.5	3.8	1.49e+00	0	60	104	0	52	20432
2026-01-20 01:25:25.00	341.85	18.55	-40.9	-55.9	3.8	1.49e+00	0	61	104	0	52	21457
2026-01-20 01:25:28.03	341.25	18.76	-40.7	-55.6	3.8	1.49e+00	0	61	104	0	53	19413
2026-01-20 01:25:31.05	340.64	18.97	-41.6	-56.3	3.8	1.49e+00	0	61	104	0	53	21034
2026-01-20 01:25:34.08	340.02	19.17	-41.1	-55.6	3.8	1.49e+00	0	61	104	0	53	19536
2026-01-20 01:25:37.11	339.39	19.37	-41.4	-56.1	3.8	1.49e+00	0	61	104	0	53	20659
2026-01-20 01:25:40.14	338.75	19.57	-43.4	-56.6	3.8	5.72e-01	0	61	104	0	57	17363
2026-01-20 01:25:43.17	338.11	19.77	-42.1	-47.5	9.4	3.50e-02	0	61	0	4194304	56	6433
2026-01-20 01:25:46.19	337.46	19.96	-42.1	-47.3	9.8	1.17e-02	0	61	0	10485760	55	6697
2026-01-20 01:25:49.22	336.80	20.16	-41.8	-46.3	11.0	1.73e-03	0	61	0	15728640	55	5933
2026-01-20 01:25:52.25	336.13	20.35	-41.9	-46.5	10.9	2.26e-03	0	61	0	22020096	55	6130
2026-01-20 01:25:55.28	335.45	20.54	-41.6	-45.7	11.8	6.93e-04	0	61	0	27262976	55	5538
2026-01-20 01:25:58.30	334.76	20.72	-41.3	-45.0	12.6	8.62e-05	0	61	0	32505856	54	5452
2026-01-20 01:26:01.33	334.07	20.90	-41.4	-45.2	12.5	1.27e-04	0	61	0	38797312	54	5546
2026-01-20 01:26:04.36	333.37	21.08	-41.6	-45.5	12.2	2.49e-04	0	61	0	44040192	54	5759
2026-01-20 01:26:07.39	332.65	21.26	-41.4	-45.0	12.8	6.86e-05	0	61	0	50331648	54	5420
2026-01-20 01:26:10.42	331.93	21.43	-41.3	-44.9	12.9	4.04e-05	0	61	0	55574528	54	5352
2026-01-20 01:26:13.45	331.21	21.60	-41.4	-45.0	12.8	5.41e-05	0	61	0	60817408	54	5415
2026-01-20 01:26:16.47	330.47	21.76	-40.9	-44.2	13.7	4.50e-06	0	61	0	67108864	53	5224
2026-01-20 01:26:19.50	329.73	21.92	-41.1	-44.5	13.3	1.52e-05	0	61	0	72351744	53	5451
2026-01-20 01:26:22.53	328.98	22.07	-41.3	-44.8	13.1	5.03e-05	0	61	0	78643200	53	5618
2026-01-20 01:26:25.56	328.22	22.23	-40.9	-44.1	13.6	6.80e-06	0	61	0	83886080	53	5207
2026-01-20 01:26:28.59	327.45	22.37	-41.3	-44.7	13.2	1.52e-05	0	61	0	90177536	53	5580
2026-01-20 01:26:31.62	326.68	22.52	-41.6	-45.2	12.6	1.13e-04	0	61	0	95420416	53	5912
2026-01-20 01:26:34.65	325.90	22.65	-41.3	-44.8	13.1	3.89e-05	0	61	0	100663296	53	5605
2026-01-20 01:26:37.67	325.11	22.78	-41.3	-44.8	13.1	2.97e-05	0	61	0	106954752	53	5599
2026-01-20 01:26:40.70	324.32	22.91	-41.3	-44.8	13.1	4.65e-05	0	61	0	112197632	53	5628
2026-01-20 01:26:43.73	323.52	23.03	-41.0	-44.3	13.6	6.10e-06	0	61	0	118489088	53	5286
2026-01-20 01:26:46.76	322.71	23.15	-40.9	-43.9	13.9	5.30e-06	0	61	0	123731968	53	5092
2026-01-20 01:26:49.79	321.90	23.26	-41.1	-44.3	13.6	1.06e-05	0	61	0	128974848	53	5329
2026-01-20 01:26:52.82	321.08	23.36	-41.4	-44.9	13.0	3.28e-05	0	61	0	135266304	53	5666
2026-01-20 01:26:55.85	320.26	23.46	-41.5	-45.2	12.7	9.38e-05	0	61	0	140509184	53	5862
2026-01-20 01:26:58.87	319.43	23.56	-42.4	-46.9	11.0	1.58e-03	0	61	0	146800640	55	6366
2026-01-20 01:27:01.90	318.60	23.64	-42.6	-47.4	10.3	5.95e-03	0	61	0	152043520	55	6774
2026-01-20 01:27:04.93	317.76	23.72	-42.0	-46.1	11.7	6.26e-04	0	61	0	158334976	55	5826
2026-01-20 01:27:07.96	316.91	23.80	-41.9	-45.9	11.9	5.56e-04	0	61	0	163577856	55	5690
2026-01-20 01:27:10.99	316.07	23.86	-42.0	-46.3	11.6	6.16e-04	0	61	0	168820736	55	5931
2026-01-20 01:27:14.02	315.22	23.92	-41.8	-45.8	12.0	3.74e-04	0	61	0	175112192	55	5621
2026-01-20 01:27:17.04	314.37	23.98	-42.0	-46.3	11.5	4.50e-04	0	61	0	180355072	55	5933
2026-01-20 01:27:20.07	313.51	24.02	-42.3	-46.9	10.9	1.66e-03	0	62	0	186646528	55	6378
2026-01-20 01:27:23.10	312.65	24.06	-42.4	-47.2	10.5	3.85e-03	0	61	0	191889408	55	6641
2026-01-20 01:27:26.12	311.79	24.10	-42.3	-47.0	10.8	2.41e-03	0	61	0	197132288	55	6450
2026-01-20 01:27:29.15	310.93	24.12	-42.4	-46.9	10.9	2.29e-03	0	62	0	203423744	55	6418
2026-01-20 01:27:32.18	310.07	24.14	-42.6	-47.6	10.0	5.68e-03	0	62	0	208666624	55	6954
2026-01-20 01:27:35.20	309.21	24.16	-42.5	-47.4	10.3	5.45e-03	0	61	0	214958080	55	6774
2026-01-20 01:27:38.23	308.34	24.16	-42.1	-46.4	11.3	1.12e-03	0	61	0	220200960	55	6059
2026-01-20 01:27:41.26	307.48	24.16	-41.6	-45.5	12.4	2.46e-04	0	61	0	225443840	55	5403
2026-01-20 01:27:44.29	306.61	24.15	-42.0	-46.2	11.6	4.70e-04	0	62	0	231735296	55	5918
2026-01-20 01:27:47.32	305.75	24.13	-42.1	-46.6	11.2	1.81e-03	0	61	0	236978176	55	6159
2026-01-20 01:27:50.34	304.89	24.11	-42.1	-46.4	11.5	7.48e-04	0	61	0	243269632	55	6006
2026-01-20 01:27:53.37	304.02	24.08	-41.9	-46.1	11.7	7.38e-04	0	62	0	248512512	55	5851
2026-01-20 01:27:56.40	303.16	24.04	-41.9	-45.9	11.9	3.39e-04	0	62	0	254803968	55	5711
2026-01-20 01:27:59.43	302.31	24.00	-41.9	-45.9	11.9	4.29e-04	0	62	0	260046848	55	5712
2026-01-20 01:28:02.45	301.45	23.95	-41.6	-45.4	12.5	2.04e-04	0	62	0	265289728	55	5374
2026-01-20 01:28:05.48	300.60	23.89	-41.8	-45.7	12.1	1.61e-04	0	62	0	271581184	55	5584
2026-01-20 01:28:08.51	299.75	23.83	-41.2	-44.5	13.4	3.12e-05	0	62	0	276824064	54	5118
2026-01-20 01:28:11.54	298.91	23.76	-41.1	-44.3	13.6	6.80e-06	0	61	0	283115520	53	5324
2026-01-20 01:28:14.57	298.07	23.68	-40.8	-43.8	14.1	2.20e-06	0	62	0	288358400	53	5013
2026-01-20 01:28:17.60	297.23	23.60	-40.8	-43.8	14.1	2.20e-06	0	62	0	293601280	53	5040
2026-01-20 01:28:20.62	296.40	23.51	-40.8	-43.8	14.0	7.00e-07	0	62	0	299892736	53	5034
2026-01-20 01:28:23.65	295.57	23.41	-41.1	-44.4	13.5	7.60e-06	0	62	0	305135616	53	5361
2026-01-20 01:28:26.68	294.75	23.31	-41.1	-44.3	13.5	1.29e-05	0	62	0	311427072	53	5314
2026-01-20 01:28:29.71	293.93	23.20	-41.0	-44.2	13.7	8.30e-06	0	62	0	316669952	53	5243
2026-01-20 01:28:32.74	293.12	23.09	-41.3	-44.7	13.2	1.90e-05	0	61	0	322961408	53	5555
2026-01-20 01:28:35.77	292.31	22.97	-41.7	-45.4	12.4	1.36e-04	0	61	0	328204288	54	5704
2026-01-20 01:28:38.80	291.51	22.84	-41.7	-45.5	12.4	1.17e-04	0	62	0	333447168	54	5765
2026-01-20 01:28:41.83	290.72	22.71	-41.8	-45.7	12.1	2.33e-04	0	61	0	339738624	54	5888
2026-01-20 01:28:44.86	289.94	22.58	-42.2	-46.7	11.3	5.30e-04	0	62	0	344981504	54	6577
2026-01-20 01:28:47.89	289.16	22.44	-42.2	-46.7	11.1	1.70e-03	0	62	0	351272960	55	6244
2026-01-20 01:28:50.92	288.39	22.29	-42.4	-47.2	10.5	2.94e-03	0	62	0	356515840	55	6609
2026-01-20 01:28:53.95	287.62	22.14	-42.2	-46.7	11.0	2.39e-03	0	62	0	361758720	55	6261
2026-01-20 01:28:56.98	286.86	21.99	-42.1	-46.3	11.4	1.22e-03	0	62	0	368050176	55	5986
2026-01-20 01:29:00.01	286.11	21.83	-42.3	-46.9	10.9	1.69e-03	0	62	0	373293056	55	6361
2026-01-20 01:29:03.03	285.38	21.67	-42.3	-46.9	10.9	2.52e-03	0	62	0	379584512	55	6349
2026-01-20 01:29:06.06	284.64	21.50	-42.0	-46.3	11.4	8.15e-04	0	62	0	384827392	55	5991
2026-01-20 01:29:09.09	283.92	21.33	-42.1	-46.4	11.4	7.65e-04	0	62	0	391118848	55	6010
2026-01-20 01:29:12.11	283.20	21.16	-42.1	-46.4	11.2	1.50e-03	0	62	0	396361728	55	6057
2026-01-20 01:29:15.14	282.49	20.98	-42.6	-47.7	9.9	7.14e-03	0	62	0	401604608	55	7023
2026-01-20 01:29:18.17	281.79	20.80	-42.5	-47.4	10.4	4.77e-03	0	62	0	407896064	55	6734
2026-01-20 01:29:21.20	281.10	20.62	-42.2	-46.9	10.8	2.47e-03	0	62	0	413138944	55	6351
2026-01-20 01:29:24.23	280.41	20.43	-42.9	-48.4	9.4	1.18e-02	0	62	0	419430400	56	7158
2026-01-20 01:29:27.26	279.73	20.24	-43.0	-48.9	8.9	3.27e-02	0	62	0	424673280	56	7602
2026-01-20 01:29:30.28	279.07	20.05	-42.7	-47.9	9.9	8.18e-03	0	62	0	429916160	56	6729
2026-01-20 01:29:33.31	278.41	19.85	-42.4	-47.1	10.8	2.45e-03	0	62	0	436207616	56	6180
2026-01-20 01:29:36.34	277.76	19.66	-41.9	-46.1	11.7	5.84e-04	0	62	0	441450496	55	5790
2026-01-20 01:29:39.37	277.12	19.46	-41.6	-45.6	12.1	3.15e-04	0	62	0	447741952	55	5488
2026-01-20 01:29:42.40	276.48	19.25	-41.5	-45.2	12.5	1.19e-04	0	62	0	452984832	54	5561
2026-01-20 01:29:45.42	275.86	19.05	-41.0	-44.4	13.3	1.83e-05	0	62	0	458227712	54	5070
2026-01-20 01:29:48.45	275.24	18.85	-41.2	-44.8	12.9	2.82e-05	0	62	0	464519168	53	5601
2026-01-20 01:29:51.48	274.63	18.64	-41.8	-46.0	11.8	5.68e-04	0	62	0	469762048	54	6075
2026-01-20 01:29:54.51	274.03	18.43	-42.2	-46.9	10.8	2.68e-03	0	62	0	476053504	54	6765
2026-01-20 01:29:57.54	273.44	18.22	-42.1	-46.8	10.7	3.56e-03	0	62	0	481296384	55	6341
2026-01-20 01:30:00.57	272.85	18.01	-41.8	-46.1	11.6	9.62e-04	0	62	0	487587840	55	5806
2026-01-20 01:30:03.59	272.28	17.80	-41.8	-45.8	11.9	3.78e-04	0	62	0	492830720	55	5625
2026-01-20 01:30:06.62	271.71	17.58	-41.4	-44.9	12.8	6.56e-05	0	62	0	498073600	54	5400
2026-01-20 01:30:09.65	271.15	17.37	-41.8	-45.7	12.1	1.77e-04	0	62	0	504365056	54	5858
2026-01-20 01:30:12.68	270.60	17.15	-42.2	-46.5	11.1	1.43e-03	0	62	0	509607936	54	6470
2026-01-20 01:30:15.71	270.05	16.94	-41.9	-46.0	11.7	8.41e-04	0	62	0	515899392	55	5732
2026-01-20 01:30:18.74	269.52	16.72	-41.9	-46.1	11.6	6.32e-04	0	62	0	521142272	55	5809
2026-01-20 01:30:21.77	268.99	16.50	-42.0	-46.3	11.3	1.44e-03	0	62	0	526385152	55	5949
2026-01-20 01:30:24.79	268.47	16.28	-41.9	-46.1	11.5	1.02e-03	0	62	0	532676608	55	5840
2026-01-20 01:30:27.83	267.96	16.06	-41.8	-45.7	11.9	3.81e-04	0	62	0	537919488	55	5554
2026-01-20 01:30:30.85	267.45	15.85	-41.4	-45.0	12.6	8.23e-05	0	62	0	544210944	54	5415
2026-01-20 01:30:33.88	266.95	15.63	-41.5	-45.1	12.5	7.55e-05	0	62	0	549453824	54	5512
2026-01-20 01:30:36.91	266.46	15.41	-41.5	-45.3	12.3	1.76e-04	0	62	0	555745280	54	5617
2026-01-20 01:30:39.94	265.98	15.19	-41.2	-44.6	13.0	3.12e-05	0	62	0	560988160	54	5182
2026-01-20 01:30:42.97	265.50	14.97	-41.0	-44.2	13.4	1.44e-05	0	62	0	566231040	53	5273
2026-01-20 01:30:46.00	265.03	14.75	-41.2	-44.7	12.9	2.89e-05	0	62	0	572522496	53	5573
2026-01-20 01:30:49.02	264.57	14.53	-41.4	-45.0	12.6	6.33e-05	0	62	0	577765376	53	5761
2026-01-20 01:30:52.05	264.12	14.31	-41.4	-45.2	12.4	1.50e-04	0	62	0	584056832	53	5858
2026-01-20 01:30:55.08	263.67	14.09	-41.4	-45.0	12.5	1.23e-04	0	62	0	589299712	53	5777
2026-01-20 01:30:58.11	263.22	13.87	-41.0	-44.4	13.1	2.97e-05	0	62	0	594542592	53	5368
2026-01-20 01:31:01.13	262.79	13.65	-41.4	-45.1	12.5	6.48e-05	0	62	0	600834048	53	5794
2026-01-20 01:31:04.16	262.36	13.44	-41.7	-45.7	11.8	4.42e-04	0	62	0	606076928	54	5908
2026-01-20 01:31:07.19	261.94	13.22	-42.0	-46.3	11.2	1.45e-03	0	62	0	612368384	54	6291
2026-01-20 01:31:10.22	261.52	13.00	-41.8	-46.1	11.4	1.08e-03	0	62	0	617611264	54	6145
2026-01-20 01:31:13.25	261.11	12.78	-41.7	-45.9	11.6	8.69e-04	0	62	0	623902720	54	6003
2026-01-20 01:31:16.28	260.71	12.57	-41.6	-45.6	11.9	3.74e-04	0	62	0	629145600	54	5820
2026-01-20 01:31:19.31	260.31	12.35	-41.3	-44.9	12.5	1.50e-04	0	62	0	634388480	54	5374
2026-01-20 01:31:22.33	259.92	12.14	-41.4	-45.2	12.3	2.35e-04	0	62	0	640679936	54	5545
2026-01-20 01:31:25.37	259.53	11.92	-41.8	-46.2	11.2	9.63e-04	0	62	0	645922816	54	6207
2026-01-20 01:31:28.39	259.15	11.71	-42.2	-46.8	10.5	4.39e-03	0	62	0	652214272	54	6719
2026-01-20 01:31:31.42	258.77	11.49	-41.9	-46.2	11.2	2.31e-03	0	62	0	657457152	54	6245
2026-01-20 01:31:34.45	258.40	11.28	-41.7	-45.9	11.5	8.97e-04	0	62	0	662700032	54	6039
2026-01-20 01:31:37.48	258.04	11.07	-41.7	-46.0	11.4	9.31e-04	0	62	0	668991488	54	6078
2026-01-20 01:31:40.51	257.68	10.86	-41.8	-46.2	11.1	1.49e-03	0	62	0	674234368	54	6250
2026-01-20 01:31:43.54	257.33	10.65	-41.8	-46.2	11.2	1.56e-03	0	62	0	680525824	54	6228
2026-01-20 01:31:46.57	256.98	10.44	-41.9	-46.3	10.9	1.88e-03	0	62	0	685768704	54	6328
2026-01-20 01:31:49.59	256.63	10.23	-42.1	-46.9	10.3	4.87e-03	0	62	0	692060160	54	6747
2026-01-20 01:31:52.62	256.30	10.02	-42.2	-47.2	10.0	6.84e-03	0	62	0	697303040	55	6606
2026-01-20 01:31:55.65	255.96	9.81	-42.2	-47.2	10.0	8.05e-03	0	62	0	702545920	55	6636
2026-01-20 01:31:58.67	255.63	9.60	-42.2	-47.2	10.0	6.29e-03	0	62	0	708837376	55	6604
2026-01-20 01:32:01.70	255.31	9.40	-42.3	-47.4	9.8	1.00e-02	0	62	0	714080256	55	6763
2026-01-20 01:32:04.73	254.99	9.19	-42.4	-48.0	9.2	2.21e-02	0	62	0	720371712	55	7220
2026-01-20 01:32:07.76	254.67	8.99	-42.6	-48.5	8.6	3.33e-02	0	62	0	725614592	55	7646
2026-01-20 01:32:10.79	254.36	8.79	-42.5	-48.1	9.0	3.08e-02	0	62	0	730857472	55	7333
2026-01-20 01:32:13.82	254.06	8.58	-42.2	-47.4	9.7	1.62e-02	0	62	0	737148928	55	6784
2026-01-20 01:32:16.84	253.76	8.38	-42.1	-47.1	10.0	6.93e-03	0	62	0	742391808	55	6506
2026-01-20 01:32:19.87	253.46	8.18	-42.1	-47.2	9.8	8.30e-03	0	62	0	748683264	55	6646
2026-01-20 01:32:22.90	253.16	7.98	-44.3	-58.2	3.8	6.12e-02	0	62	104	753926144	59	18587
2026-01-20 01:32:25.93	252.87	7.78	-45.0	-59.6	3.8	1.49e+00	0	62	104	753926144	60	20544
2026-01-20 01:32:28.96	252.59	7.58	-45.2	-59.7	3.8	1.49e+00	0	62	104	753926144	60	20960
2026-01-20 01:32:32.00	252.31	7.38	-45.2	-59.8	3.8	1.49e+00	0	62	104	753926144	61	19916
2026-01-20 01:32:35.03	252.03	7.19	-45.2	-59.8	3.8	1.49e+00	0	62	104	753926144	61	19858
2026-01-20 01:32:38.06	251.75	6.99	-45.2	-59.7	3.8	1.49e+00	0	62	104	753926144	61	19706
2026-01-20 01:32:41.09	251.48	6.80	-45.1	-59.6	3.8	1.49e+00	0	62	104	753926144	61	19604
2026-01-20 01:32:44.12	251.22	6.60	-45.1	-59.6	3.8	1.49e+00	0	62	104	753926144	61	19528
2026-01-20 01:32:47.15	250.95	6.41	-45.1	-59.6	3.8	1.49e+00	0	62	104	753926144	61	19575
2026-01-20 01:32:50.18	250.70	6.22	-45.1	-59.6	3.8	1.49e+00	0	62	104	753926144	61	19505
2026-01-20 01:32:53.22	250.44	6.03	-45.1	-59.6	3.8	1.49e+00	0	62	104	753926144	61	19490
2026-01-20 01:32:56.25	250.19	5.84	-45.0	-59.6	3.8	1.49e+00	0	62	104	753926144	61	19471
2026-01-20 01:32:59.28	249.94	5.65	-45.0	-59.6	3.8	1.49e+00	0	62	104	753926144	61	19481
2026-01-20 01:33:02.31	249.69	5.46	-45.0	-59.6	3.8	1.49e+00	0	62	104	753926144	61	19452
2026-01-20 01:33:05.34	249.45	5.27	-45.1	-59.6	3.8	1.49e+00	0	62	104	753926144	61	19477
2026-01-20 01:33:08.37	249.21	5.08	-45.0	-59.5	3.8	1.49e+00	0	62	104	753926144	61	19380
2026-01-20 01:33:11.40	248.97	4.90	-45.0	-59.6	3.8	1.49e+00	0	62	104	753926144	61	19451
2026-01-20 01:33:14.43	248.74	4.71	-45.0	-59.5	3.8	1.49e+00	0	62	104	753926144	61	19351
2026-01-20 01:33:17.47	248.51	4.53	-45.0	-59.6	3.8	1.49e+00	0	62	104	753926144	61	19472
2026-01-20 01:33:20.50	248.28	4.34	-45.0	-59.6	3.8	1.49e+00	0	62	104	753926144	61	19405
2026-01-20 01:33:23.53	248.06	4.16	-45.0	-59.6	3.8	1.49e+00	0	62	104	753926144	61	19403
2026-01-20 01:33:26.56	247.84	3.98	-45.0	-59.5	3.8	1.49e+00	0	62	104	753926144	61	19379
2026-01-20 01:33:29.59	247.62	3.80	-45.0	-59.6	3.8	1.49e+00	0	62	104	753926144	61	19416
2026-01-20 01:33:32.62	247.40	3.62	-45.0	-59.5	3.8	1.49e+00	0	62	104	753926144	61	19379
2026-01-20 01:33:35.66	247.19	3.44	-45.0	-59.6	3.8	1.49e+00	0	62	104	753926144	61	19391
2026-01-20 01:33:38.69	246.98	3.26	-45.0	-59.6	3.8	1.49e+00	0	62	104	753926144	61	19403
2026-01-20 01:33:41.72	246.77	3.08	-45.0	-59.6	3.8	1.49e+00	0	62	104	753926144	61	19392
2026-01-20 01:33:44.75	246.56	2.90	-45.0	-59.5	3.8	1.49e+00	0	62	104	753926144	61	19387
2026-01-20 01:33:47.78	246.36	2.72	-45.0	-59.5	3.8	1.49e+00	0	62	104	753926144	61	19367
2026-01-20 01:33:50.82	246.16	2.55	-45.0	-59.6	3.8	1.49e+00	0	62	104	753926144	61	19419
2026-01-20 01:33:53.85	245.96	2.37	-45.0	-59.6	3.8	1.49e+00	0	62	104	753926144	61	19398
2026-01-20 01:33:56.88	245.77	2.20	-45.0	-59.5	3.8	1.49e+00	0	62	104	753926144	61	19374
2026-01-20 01:33:59.91	245.57	2.03	-45.0	-59.6	3.8	1.49e+00	0	62	104	753926144	61	19420

#Closed at: 2026-01-20 01:34:01
#Recorded file [753 MB]: D:/lorett/data/31039_260120_042116.dat