passes_logs/2026/01/20/R2.0S_Moscow/R2.0S_Moscow__20260120_215903_FENGYUN_3G_rec.log

#Pass ID: 20260120_215903_FENGYUN 3G
#Satellite: FENGYUN 3G
#Configuration: FENGYUN 3G
#almurnet v.1.7.20251203
#Start time: 2026-01-20 21:59:05

#Version: 2.2.20231116
#Station: R2.0S_Moscow
#Location: 37.707566 lon 55.798166 lat
#TLE: 1 56232U 23055A   26020.19436899  .00056262  00000+0  85928-3 0  9997
#TLE: 2 56232  49.9940  29.1271 0004169  54.2682 305.8673 15.53816929157008

#Time	Az	El	Level	Level2	SNR	BER	BlckErr	Temp	State	Recorded	gain1	gain2
2026-01-20 21:59:05.39	259.80	2.20	-44.2	-61.9	3.8	8.46e-01	0	49	0	0	60	26893
2026-01-20 21:59:08.42	259.58	2.40	-44.2	-62.2	3.8	8.46e-01	0	49	104	0	60	27907
2026-01-20 21:59:11.45	259.37	2.60	-44.2	-62.2	3.8	8.46e-01	0	49	104	0	60	27974
2026-01-20 21:59:14.48	259.14	2.80	-44.2	-62.3	3.8	8.46e-01	0	49	104	0	60	28100
2026-01-20 21:59:17.51	258.92	3.01	-44.2	-62.0	3.8	8.47e-01	0	50	104	0	60	27316
2026-01-20 21:59:20.54	258.69	3.21	-44.2	-62.0	3.8	8.45e-01	0	50	104	0	60	27279
2026-01-20 21:59:23.57	258.45	3.42	-44.2	-62.1	3.8	8.46e-01	0	50	104	0	60	27700
2026-01-20 21:59:26.60	258.21	3.63	-44.2	-62.3	3.8	8.47e-01	0	50	104	0	60	28120
2026-01-20 21:59:29.63	257.96	3.84	-44.2	-62.3	3.8	8.45e-01	0	50	104	0	60	28216
2026-01-20 21:59:32.66	257.71	4.06	-44.2	-62.3	3.8	8.46e-01	0	50	104	0	60	28231
2026-01-20 21:59:35.69	257.45	4.27	-44.2	-62.3	3.8	8.47e-01	0	51	104	0	60	28164
2026-01-20 21:59:38.72	257.19	4.49	-44.2	-62.0	3.8	8.46e-01	0	51	104	0	60	27127
2026-01-20 21:59:41.75	256.92	4.71	-44.2	-61.3	3.8	8.45e-01	0	51	104	0	60	25085
2026-01-20 21:59:44.78	256.65	4.94	-44.2	-61.2	3.8	8.46e-01	0	51	104	0	60	24972
2026-01-20 21:59:47.81	256.37	5.16	-44.2	-61.9	3.8	8.46e-01	0	51	104	0	60	26918
2026-01-20 21:59:50.85	256.08	5.39	-44.2	-61.3	3.8	8.46e-01	0	51	104	0	60	25011
2026-01-20 21:59:53.88	255.78	5.62	-44.1	-59.9	3.8	8.45e-01	0	51	104	0	60	21264
2026-01-20 21:59:56.91	255.48	5.85	-44.1	-58.9	4.2	8.41e-01	0	52	0	0	60	18982
2026-01-20 21:59:59.94	255.17	6.09	-44.1	-58.8	4.2	8.40e-01	0	52	0	0	60	18862
2026-01-20 22:00:02.97	254.86	6.33	-44.0	-57.1	4.8	8.28e-01	0	52	0	0	60	15421
2026-01-20 22:00:06.00	254.54	6.57	-43.7	-53.3	7.6	4.12e-01	0	52	0	2097152	59	10593
2026-01-20 22:00:09.03	254.21	6.81	-43.3	-50.9	10.1	2.90e-02	0	52	0	5242880	58	8554
2026-01-20 22:00:12.06	253.87	7.06	-43.5	-51.9	9.3	7.38e-03	0	52	0	8912896	58	9498
2026-01-20 22:00:15.09	253.52	7.31	-44.2	-59.3	4.1	1.48e-01	0	53	0	11010048	58	22348
2026-01-20 22:00:18.13	253.17	7.56	-43.6	-52.8	8.2	8.42e-01	0	53	0	11534336	59	9956
2026-01-20 22:00:21.16	252.80	7.82	-41.8	-46.5	14.5	7.98e-03	0	53	0	15204352	55	6108
2026-01-20 22:00:24.19	252.43	8.08	-41.3	-45.5	15.5	0.00e+00	0	53	0	18350080	54	5765
2026-01-20 22:00:27.22	252.05	8.34	-43.7	-53.1	7.5	1.42e-02	0	53	0	22020096	58	10963
2026-01-20 22:00:30.25	251.65	8.60	-41.3	-45.3	15.8	3.07e-01	0	53	0	24641536	54	5636
2026-01-20 22:00:33.27	251.25	8.87	-40.9	-44.7	16.5	0.00e+00	0	53	0	28311552	53	5554
2026-01-20 22:00:36.30	250.84	9.14	-40.8	-44.4	16.9	0.00e+00	0	53	0	31457280	53	5358
2026-01-20 22:00:39.33	250.41	9.42	-40.8	-44.3	17.0	0.00e+00	0	53	0	35127296	53	5322
2026-01-20 22:00:42.36	249.98	9.70	-40.8	-44.4	16.9	0.00e+00	0	54	0	38273024	53	5368
2026-01-20 22:00:45.39	249.53	9.98	-41.0	-44.6	16.7	0.00e+00	0	54	0	41943040	53	5514
2026-01-20 22:00:48.42	249.07	10.26	-40.9	-44.6	16.8	0.00e+00	0	54	0	45088768	53	5469
2026-01-20 22:00:51.44	248.61	10.55	-40.8	-44.3	17.1	0.00e+00	0	54	0	48758784	53	5290
2026-01-20 22:00:54.47	248.12	10.84	-40.5	-43.8	17.6	0.00e+00	0	54	0	51904512	53	5017
2026-01-20 22:00:57.50	247.62	11.14	-40.5	-43.7	17.7	0.00e+00	0	54	0	55574528	52	5252
2026-01-20 22:01:00.53	247.11	11.44	-40.6	-44.0	17.5	0.00e+00	0	54	0	58720256	52	5411
2026-01-20 22:01:03.55	246.59	11.74	-40.5	-43.8	17.7	0.00e+00	0	54	0	62390272	52	5306
2026-01-20 22:01:06.59	246.05	12.05	-40.4	-43.5	17.9	0.00e+00	0	54	0	65536000	52	5143
2026-01-20 22:01:09.61	245.49	12.36	-40.3	-43.5	18.0	0.00e+00	0	54	0	69206016	52	5106
2026-01-20 22:01:12.64	244.92	12.68	-40.1	-43.0	18.6	0.00e+00	0	55	0	72351744	51	5122
2026-01-20 22:01:15.67	244.33	13.00	-40.1	-43.1	18.6	0.00e+00	0	54	0	76021760	51	5177
2026-01-20 22:01:18.69	243.73	13.32	-39.9	-42.8	18.9	0.00e+00	0	54	0	79167488	51	4984
2026-01-20 22:01:21.72	243.11	13.65	-39.7	-42.4	19.3	0.00e+00	0	54	0	82837504	51	4787
2026-01-20 22:01:24.75	242.47	13.98	-39.8	-42.5	19.2	0.00e+00	0	55	0	85983232	51	4822
2026-01-20 22:01:27.79	241.81	14.31	-39.8	-42.6	19.1	0.00e+00	0	54	0	89653248	51	4879
2026-01-20 22:01:30.82	241.13	14.65	-39.8	-42.5	19.2	0.00e+00	0	54	0	92798976	51	4854
2026-01-20 22:01:33.84	240.43	14.99	-39.3	-41.9	19.9	0.00e+00	0	55	0	96468992	50	4772
2026-01-20 22:01:36.87	239.71	15.33	-39.4	-41.9	19.9	0.00e+00	0	55	0	99614720	50	4773
2026-01-20 22:01:39.90	238.97	15.68	-39.6	-42.2	19.6	0.00e+00	0	55	0	103284736	50	4978
2026-01-20 22:01:42.93	238.20	16.03	-39.1	-41.5	20.3	0.00e+00	0	55	0	106430464	50	4585
2026-01-20 22:01:45.96	237.41	16.39	-38.8	-41.1	20.7	0.00e+00	0	55	0	110100480	49	4619
2026-01-20 22:01:48.99	236.60	16.74	-39.2	-41.6	20.2	0.00e+00	0	55	0	113246208	49	4897
2026-01-20 22:01:52.02	235.77	17.10	-39.2	-41.6	20.2	0.00e+00	0	55	0	116916224	49	4911
2026-01-20 22:01:55.05	234.91	17.46	-39.0	-41.4	20.4	0.00e+00	0	55	0	120061952	49	4787
2026-01-20 22:01:58.07	234.02	17.83	-39.0	-41.4	20.5	0.00e+00	0	55	0	123731968	49	4775
2026-01-20 22:02:01.10	233.11	18.19	-39.2	-41.6	20.3	0.00e+00	0	55	0	126877696	49	4877
2026-01-20 22:02:04.13	232.16	18.56	-39.1	-41.4	20.4	0.00e+00	0	55	0	130547712	49	4809
2026-01-20 22:02:07.15	231.20	18.92	-38.8	-41.0	20.8	0.00e+00	0	55	0	133693440	49	4596
2026-01-20 22:02:10.18	230.20	19.29	-38.2	-40.3	21.6	0.00e+00	0	55	0	137363456	48	4481
2026-01-20 22:02:13.21	229.17	19.66	-38.6	-40.8	21.1	0.00e+00	0	55	0	140509184	48	4740
2026-01-20 22:02:16.24	228.11	20.02	-38.8	-41.1	20.8	0.00e+00	0	55	0	144179200	48	4886
2026-01-20 22:02:19.26	227.02	20.38	-38.5	-40.6	21.3	0.00e+00	0	55	0	147324928	48	4638
2026-01-20 22:02:22.29	225.90	20.75	-38.2	-40.3	21.7	0.00e+00	0	55	0	150994944	48	4443
2026-01-20 22:02:25.32	224.74	21.10	-38.2	-40.2	21.7	0.00e+00	0	56	0	154140672	47	4693
2026-01-20 22:02:28.35	223.56	21.46	-38.4	-40.5	21.5	0.00e+00	0	55	0	157810688	47	4846
2026-01-20 22:02:31.38	222.34	21.81	-38.2	-40.2	21.7	0.00e+00	0	56	0	160956416	47	4704
2026-01-20 22:02:34.40	221.09	22.15	-38.1	-40.2	21.8	0.00e+00	0	56	0	164626432	47	4665
2026-01-20 22:02:37.43	219.80	22.49	-37.9	-39.9	22.1	0.00e+00	0	56	0	167772160	47	4522
2026-01-20 22:02:40.46	218.48	22.82	-37.9	-39.9	22.1	0.00e+00	0	56	0	171442176	47	4538
2026-01-20 22:02:43.49	217.13	23.14	-38.2	-40.4	21.7	0.00e+00	0	56	0	174587904	47	4766
2026-01-20 22:02:46.52	215.75	23.45	-37.8	-39.8	22.2	0.00e+00	0	56	0	178257920	47	4469
2026-01-20 22:02:49.55	214.33	23.75	-38.1	-40.1	21.9	0.00e+00	0	56	0	181403648	47	4639
2026-01-20 22:02:52.57	212.89	24.03	-37.9	-40.0	22.1	0.00e+00	0	56	0	185073664	47	4547
2026-01-20 22:02:55.60	211.41	24.31	-37.9	-39.9	22.1	0.00e+00	0	56	0	188219392	47	4520
2026-01-20 22:02:58.63	209.90	24.57	-37.9	-39.9	22.1	0.00e+00	0	56	0	191889408	47	4539
2026-01-20 22:03:01.65	208.37	24.81	-37.5	-39.4	22.6	0.00e+00	0	56	0	195035136	46	4532
2026-01-20 22:03:04.68	206.81	25.03	-37.7	-39.6	22.4	0.00e+00	0	56	0	198705152	46	4644
2026-01-20 22:03:07.71	205.23	25.24	-37.6	-39.5	22.4	0.00e+00	0	56	0	201850880	46	4584
2026-01-20 22:03:10.74	203.61	25.43	-38.0	-40.0	22.0	0.00e+00	0	56	0	205520896	46	4857
2026-01-20 22:03:13.77	201.98	25.59	-37.3	-39.2	22.8	0.00e+00	0	56	0	208666624	46	4409
2026-01-20 22:03:16.81	200.33	25.74	-37.4	-39.3	22.7	0.00e+00	0	56	0	212336640	46	4450
2026-01-20 22:03:19.83	198.67	25.86	-37.2	-39.0	22.9	0.00e+00	0	56	0	215482368	46	4325
2026-01-20 22:03:22.86	196.99	25.96	-37.3	-39.1	22.8	0.00e+00	0	56	0	219152384	46	4389
2026-01-20 22:03:25.89	195.30	26.04	-36.9	-38.7	23.3	0.00e+00	0	56	0	222298112	45	4416
2026-01-20 22:03:28.92	193.60	26.09	-37.2	-39.1	22.9	0.00e+00	0	56	0	225968128	45	4599
2026-01-20 22:03:31.95	191.89	26.12	-37.3	-39.1	22.8	0.00e+00	0	56	0	229113856	45	4635
2026-01-20 22:03:34.97	190.19	26.12	-37.0	-38.9	23.0	0.00e+00	0	56	0	232783872	45	4505
2026-01-20 22:03:38.00	188.49	26.10	-36.8	-38.5	23.3	0.00e+00	0	56	0	235929600	45	4334
2026-01-20 22:03:41.03	186.79	26.06	-37.6	-39.5	22.3	0.00e+00	0	56	0	239599616	45	4863
2026-01-20 22:03:44.06	185.10	25.99	-37.7	-39.7	22.3	0.00e+00	0	56	0	242745344	46	4677
2026-01-20 22:03:47.08	183.42	25.90	-37.4	-39.4	22.5	0.00e+00	0	56	0	246415360	46	4497
2026-01-20 22:03:50.11	181.75	25.78	-37.7	-39.6	22.2	0.00e+00	0	56	0	249561088	46	4647
2026-01-20 22:03:53.14	180.09	25.64	-37.3	-39.2	22.7	0.00e+00	0	56	0	253231104	46	4420
2026-01-20 22:03:56.17	178.45	25.48	-37.9	-39.9	22.0	0.00e+00	0	56	0	256376832	46	4797
2026-01-20 22:03:59.20	176.84	25.30	-37.7	-39.7	22.3	0.00e+00	0	56	0	260046848	46	4662
2026-01-20 22:04:02.22	175.25	25.10	-38.1	-40.1	21.9	0.00e+00	0	56	0	263192576	47	4645
2026-01-20 22:04:05.25	173.68	24.88	-38.0	-40.0	22.0	0.00e+00	0	56	0	266862592	46	4839
2026-01-20 22:04:08.28	172.13	24.64	-38.0	-40.0	22.0	0.00e+00	0	56	0	270008320	46	4843
2026-01-20 22:04:11.31	170.61	24.39	-38.3	-40.5	21.5	0.00e+00	0	56	0	273678336	47	4828
2026-01-20 22:04:14.34	169.13	24.12	-37.8	-39.9	22.1	0.00e+00	0	56	0	276824064	47	4505
2026-01-20 22:04:17.37	167.67	23.84	-38.0	-40.1	22.1	0.00e+00	0	56	0	279969792	47	4618
2026-01-20 22:04:20.40	166.24	23.54	-37.7	-39.7	22.3	0.00e+00	0	56	0	283639808	47	4404
2026-01-20 22:04:23.42	164.85	23.24	-37.2	-39.1	22.9	0.00e+00	0	56	0	286785536	46	4368
2026-01-20 22:04:26.45	163.49	22.92	-38.0	-40.1	22.0	0.00e+00	0	56	0	290455552	46	4902
2026-01-20 22:04:29.48	162.16	22.59	-38.0	-40.0	22.0	0.00e+00	0	56	0	293601280	46	4853
2026-01-20 22:04:32.51	160.87	22.26	-37.8	-39.7	22.2	0.00e+00	0	57	0	297271296	46	4705
2026-01-20 22:04:35.54	159.60	21.92	-38.4	-40.6	21.5	0.00e+00	0	56	0	300941312	47	4916
2026-01-20 22:04:38.56	158.38	21.57	-38.6	-40.9	21.3	0.00e+00	0	57	0	304087040	47	5049
2026-01-20 22:04:41.59	157.18	21.22	-38.1	-40.2	21.9	0.00e+00	0	57	0	307757056	47	4695
2026-01-20 22:04:44.62	156.01	20.86	-38.4	-40.6	21.5	0.00e+00	0	57	0	310902784	47	4910
2026-01-20 22:04:47.65	154.88	20.50	-38.4	-40.6	21.6	0.00e+00	0	56	0	314572800	47	4887
2026-01-20 22:04:50.68	153.78	20.13	-38.6	-40.8	21.3	0.00e+00	0	57	0	317718528	47	5011
2026-01-20 22:04:53.71	152.71	19.77	-38.5	-40.7	21.4	0.00e+00	0	56	0	320864256	47	4962
2026-01-20 22:04:56.73	151.67	19.40	-38.7	-40.9	21.2	0.00e+00	0	57	0	324534272	47	5097
2026-01-20 22:04:59.76	150.66	19.04	-38.8	-41.1	21.2	0.00e+00	0	57	0	327680000	48	4875
2026-01-20 22:05:02.79	149.68	18.67	-38.8	-41.1	21.1	0.00e+00	0	56	0	331350016	48	4904
2026-01-20 22:05:05.82	148.73	18.31	-38.7	-40.9	21.3	0.00e+00	0	57	0	334495744	48	4782
2026-01-20 22:05:08.85	147.81	17.94	-39.0	-41.3	20.8	0.00e+00	0	57	0	338165760	48	5040
2026-01-20 22:05:11.88	146.91	17.58	-39.1	-41.5	20.6	0.00e+00	0	57	0	341311488	48	5120
2026-01-20 22:05:14.91	146.04	17.21	-39.2	-41.6	20.6	0.00e+00	0	56	0	344981504	48	5173
2026-01-20 22:05:17.93	145.20	16.86	-39.1	-41.5	20.6	0.00e+00	0	57	0	348651520	48	5111
2026-01-20 22:05:20.96	144.38	16.50	-39.0	-41.6	20.4	2.20e-06	0	57	0	351797248	49	4912
2026-01-20 22:05:23.99	143.58	16.14	-39.4	-42.0	20.0	5.70e-06	0	57	0	355467264	49	5116
2026-01-20 22:05:27.02	142.81	15.79	-38.9	-41.9	19.9	9.95e-05	0	57	0	358612992	49	5071
2026-01-20 22:05:30.05	142.06	15.44	-39.4	-42.0	20.0	0.00e+00	0	57	0	361758720	49	5120
2026-01-20 22:05:33.07	141.34	15.10	-39.7	-42.4	19.6	0.00e+00	0	57	0	365428736	49	5356
2026-01-20 22:05:36.10	140.63	14.75	-39.8	-42.6	19.3	0.00e+00	0	57	0	368574464	50	5201
2026-01-20 22:05:39.13	139.95	14.42	-39.7	-42.4	19.5	0.00e+00	0	57	0	372244480	50	5081
2026-01-20 22:05:42.16	139.28	14.08	-39.8	-42.8	19.1	6.80e-06	0	57	0	375390208	50	5316
2026-01-20 22:05:45.19	138.63	13.75	-34.6	-43.3	17.8	1.38e-03	0	57	0	379060224	50	5606
2026-01-20 22:05:48.21	138.01	13.42	-30.5	-44.0	16.0	1.85e-02	0	57	0	382205952	50	6105
2026-01-20 22:05:51.24	137.39	13.10	-40.3	-43.6	16.0	5.02e-02	0	57	0	385875968	50	5811
2026-01-20 22:05:54.27	136.80	12.78	-40.0	-43.4	15.8	5.69e-02	0	57	0	389021696	49	5993
2026-01-20 22:05:57.30	136.22	12.46	-36.6	-43.3	12.4	1.27e-01	0	57	0	392167424	42	8928
2026-01-20 22:06:00.32	135.67	12.15	-39.3	-43.7	15.1	8.92e-02	0	57	0	395313152	49	6223
2026-01-20 22:06:03.35	135.12	11.84	-33.8	-43.3	8.1	1.31e-01	0	57	0	397934592	37	11821
2026-01-20 22:06:06.38	134.59	11.53	-29.8	-41.8	9.9	3.75e-01	0	57	0	400556032	35	11224
2026-01-20 22:06:09.41	134.07	11.23	-33.7	-42.7	9.0	5.66e-01	0	57	104	402653184	36	11738
2026-01-20 22:06:12.45	133.57	10.93	-22.0	-40.3	6.0	5.92e-01	0	57	0	403701760	22	19892
2026-01-20 22:06:15.47	133.08	10.64	-24.9	-41.7	3.6	8.28e-01	0	57	104	403701760	16	33124
2026-01-20 22:06:18.50	132.61	10.35	-29.5	-45.3	3.7	8.09e-01	0	57	104	403701760	23	33624
2026-01-20 22:06:21.53	132.14	10.06	-14.6	-32.4	3.8	8.27e-01	0	57	104	403701760	2	25279
2026-01-20 22:06:24.56	131.69	9.78	-19.2	-33.6	3.5	8.27e-01	0	57	104	403701760	3	27599
2026-01-20 22:06:27.59	131.25	9.50	-17.5	-34.0	3.7	8.14e-01	0	57	104	403701760	4	27318
2026-01-20 22:06:30.61	130.83	9.23	-22.5	-40.9	3.4	8.16e-01	0	57	0	403701760	11	40297
2026-01-20 22:06:33.64	130.41	8.95	-20.4	-35.6	3.8	8.10e-01	0	57	104	403701760	3	34720
2026-01-20 22:06:36.67	130.01	8.68	-15.8	-34.3	3.5	8.17e-01	0	57	0	403701760	4	28215
2026-01-20 22:06:39.70	129.61	8.42	-15.7	-32.6	3.8	8.21e-01	0	57	104	403701760	1	27638
2026-01-20 22:06:42.73	129.22	8.15	-24.4	-37.4	3.4	8.31e-01	0	57	104	403701760	5	37842
2026-01-20 22:06:45.76	128.85	7.89	-38.3	-59.0	4.0	8.21e-01	0	57	104	403701760	44	48585
2026-01-20 22:06:48.79	128.48	7.64	-45.3	-63.6	3.8	8.45e-01	0	57	104	403701760	61	31059
2026-01-20 22:06:51.82	128.12	7.38	-45.7	-64.0	3.8	8.45e-01	0	57	104	403701760	61	32181
2026-01-20 22:06:54.85	127.77	7.13	-45.8	-64.1	3.8	8.46e-01	0	57	104	403701760	62	30750
2026-01-20 22:06:57.88	127.43	6.89	-45.6	-63.8	3.8	8.46e-01	0	57	104	403701760	62	29818
2026-01-20 22:07:00.91	127.10	6.64	-45.4	-63.5	3.8	8.46e-01	0	57	104	403701760	62	28997
2026-01-20 22:07:03.94	126.77	6.40	-45.4	-63.5	3.8	8.46e-01	0	57	104	403701760	62	28822
2026-01-20 22:07:06.97	126.45	6.16	-45.4	-63.5	3.8	8.45e-01	0	57	104	403701760	62	28857
2026-01-20 22:07:10.00	126.14	5.92	-45.4	-63.5	3.8	8.46e-01	0	57	104	403701760	62	28781
2026-01-20 22:07:13.03	125.84	5.69	-45.4	-63.5	3.8	8.46e-01	0	57	104	403701760	62	28758
2026-01-20 22:07:16.06	125.54	5.46	-45.4	-63.5	3.8	8.46e-01	0	57	104	403701760	62	28828
2026-01-20 22:07:19.09	125.25	5.23	-45.4	-63.5	3.8	8.47e-01	0	57	104	403701760	62	28747
2026-01-20 22:07:22.13	124.97	5.00	-45.4	-63.5	3.8	8.47e-01	0	57	104	403701760	62	28708
2026-01-20 22:07:25.16	124.69	4.78	-45.4	-63.4	3.8	8.47e-01	0	57	104	403701760	62	28660
2026-01-20 22:07:28.19	124.42	4.56	-45.3	-63.5	3.8	8.46e-01	0	57	104	403701760	62	28706
2026-01-20 22:07:31.22	124.15	4.34	-45.4	-63.4	3.8	8.46e-01	0	57	104	403701760	62	28611
2026-01-20 22:07:34.25	123.89	4.12	-45.3	-63.4	3.8	8.46e-01	0	57	104	403701760	62	28667
2026-01-20 22:07:37.28	123.64	3.91	-45.3	-63.4	3.8	8.47e-01	0	57	104	403701760	62	28585
2026-01-20 22:07:40.32	123.39	3.69	-45.3	-63.4	3.8	8.47e-01	0	57	104	403701760	62	28620
2026-01-20 22:07:43.35	123.15	3.48	-45.3	-63.4	3.8	8.47e-01	0	57	104	403701760	62	28569
2026-01-20 22:07:46.38	122.91	3.27	-45.3	-63.4	3.8	8.46e-01	0	57	104	403701760	62	28550
2026-01-20 22:07:49.41	122.68	3.07	-45.3	-63.4	3.8	8.46e-01	0	57	104	403701760	62	28616
2026-01-20 22:07:52.44	122.45	2.86	-45.3	-63.4	3.8	8.47e-01	0	57	104	403701760	62	28614
2026-01-20 22:07:55.47	122.22	2.66	-45.3	-63.4	3.8	8.46e-01	0	57	104	403701760	62	28597
2026-01-20 22:07:58.51	122.00	2.46	-45.3	-63.4	3.8	8.47e-01	0	57	104	403701760	62	28550
2026-01-20 22:08:01.54	121.79	2.26	-45.3	-63.4	3.8	8.45e-01	0	57	104	403701760	62	28478
2026-01-20 22:08:04.57	121.58	2.06	-45.3	-63.4	3.8	8.46e-01	0	57	104	403701760	62	28512

#Closed at: 2026-01-20 22:08:07
#Recorded file [403 MB]: D:/lorett/data/31039_260121_005905.dat