passes_logs/2026/01/20/R2.0S_Moscow/R2.0S_Moscow__20260120_014159_NOAA_20_JPSS-1_rec.log

#Pass ID: 20260120_014159_NOAA 20 (JPSS-1)
#Satellite: NOAA 20 (JPSS-1)
#Configuration: NOAA 20
#almurnet v.1.7.20251203
#Start time: 2026-01-20 01:42:00

#Version: 2.2.20231116
#Station: R2.0S_Moscow
#Location: 37.707566 lon 55.798166 lat
#TLE: 1 43013U 17073A   26019.27717929  .00000087  00000+0  62288-4 0  9995
#TLE: 2 43013  98.7641 320.1715 0001339  33.1986 326.9274 14.19537047423343

#Time	Az	El	Level	Level2	SNR	BER	BlckErr	Temp	State	Recorded	gain1	gain2
2026-01-20 01:42:00.17	9.24	2.03	-39.6	-54.6	3.8	1.49e+00	0	53	0	0	51	19509
2026-01-20 01:42:03.19	9.00	2.19	-39.6	-54.6	3.8	1.49e+00	0	53	104	0	50	20724
2026-01-20 01:42:06.22	8.77	2.35	-39.6	-54.6	3.8	1.49e+00	0	54	104	0	50	20680
2026-01-20 01:42:09.25	8.53	2.51	-39.6	-54.6	3.8	1.49e+00	0	54	104	0	50	20690
2026-01-20 01:42:12.28	8.29	2.68	-39.6	-54.6	3.8	1.49e+00	0	54	104	0	50	20722
2026-01-20 01:42:15.32	8.04	2.84	-39.5	-54.6	3.8	1.49e+00	0	54	104	0	50	20702
2026-01-20 01:42:18.35	7.79	3.00	-39.5	-54.6	3.8	1.49e+00	0	55	104	0	50	20664
2026-01-20 01:42:21.38	7.54	3.16	-39.6	-54.6	3.8	1.49e+00	0	55	104	0	50	20673
2026-01-20 01:42:24.41	7.29	3.33	-39.6	-54.6	3.8	1.49e+00	0	55	104	0	50	20717
2026-01-20 01:42:27.44	7.03	3.49	-39.6	-54.6	3.8	1.49e+00	0	55	104	0	50	20718
2026-01-20 01:42:30.47	6.78	3.65	-39.6	-54.6	3.8	1.49e+00	0	55	104	0	50	20689
2026-01-20 01:42:33.51	6.51	3.82	-39.6	-54.6	3.8	1.49e+00	0	55	104	0	50	20687
2026-01-20 01:42:36.54	6.25	3.98	-39.6	-54.6	3.8	1.49e+00	0	56	104	0	50	20698
2026-01-20 01:42:39.57	5.98	4.15	-39.6	-54.6	3.8	1.49e+00	0	56	104	0	50	20692
2026-01-20 01:42:42.60	5.71	4.32	-39.6	-54.6	3.8	1.49e+00	0	56	104	0	50	20700
2026-01-20 01:42:45.63	5.43	4.48	-39.6	-54.6	3.8	1.49e+00	0	56	104	0	50	20697
2026-01-20 01:42:48.66	5.15	4.65	-39.6	-54.6	3.8	1.49e+00	0	56	104	0	50	20713
2026-01-20 01:42:51.69	4.87	4.82	-39.6	-54.6	3.8	1.49e+00	0	56	104	0	50	20708
2026-01-20 01:42:54.73	4.59	4.98	-39.6	-54.6	3.8	1.49e+00	0	57	104	0	50	20710
2026-01-20 01:42:57.76	4.30	5.15	-39.6	-54.6	3.8	1.49e+00	0	57	104	0	50	20685
2026-01-20 01:43:00.79	4.01	5.32	-39.6	-54.6	3.8	1.49e+00	0	57	104	0	50	20666
2026-01-20 01:43:03.82	3.71	5.49	-39.6	-54.6	3.8	1.49e+00	0	57	104	0	50	20615
2026-01-20 01:43:06.86	3.41	5.66	-39.6	-54.6	3.8	1.49e+00	0	57	104	0	50	20618
2026-01-20 01:43:09.89	3.11	5.83	-39.6	-54.6	3.8	1.49e+00	0	57	104	0	50	20679
2026-01-20 01:43:12.92	2.80	6.00	-39.6	-54.6	3.8	1.49e+00	0	57	104	0	50	20644
2026-01-20 01:43:15.95	2.49	6.17	-39.6	-54.6	3.8	1.49e+00	0	58	104	0	50	20720
2026-01-20 01:43:18.98	2.18	6.34	-39.6	-54.6	3.8	1.49e+00	0	58	104	0	50	20626
2026-01-20 01:43:22.01	1.86	6.51	-39.5	-54.6	3.8	1.49e+00	0	58	104	0	50	20692
2026-01-20 01:43:25.05	1.54	6.68	-39.6	-54.6	3.8	1.49e+00	0	58	104	0	50	20638
2026-01-20 01:43:28.08	1.21	6.85	-39.5	-54.6	3.8	1.49e+00	0	58	104	0	50	20611
2026-01-20 01:43:31.11	0.88	7.02	-39.6	-54.6	3.8	1.49e+00	0	58	104	0	50	20654
2026-01-20 01:43:34.14	0.55	7.19	-39.5	-54.6	3.8	1.49e+00	0	58	104	0	50	20603
2026-01-20 01:43:37.17	0.21	7.36	-39.5	-54.6	3.8	1.49e+00	0	58	104	0	50	20639
2026-01-20 01:43:40.20	359.87	7.53	-39.5	-54.6	3.8	1.49e+00	0	58	104	0	50	20640
2026-01-20 01:43:43.23	359.53	7.71	-39.6	-54.6	3.8	1.49e+00	0	58	104	0	50	20684
2026-01-20 01:43:46.26	359.18	7.88	-39.6	-54.6	3.8	1.49e+00	0	59	104	0	50	20684
2026-01-20 01:43:49.29	358.82	8.05	-39.6	-54.6	3.8	1.49e+00	0	59	104	0	50	20715
2026-01-20 01:43:52.32	358.46	8.22	-39.6	-54.7	3.8	1.49e+00	0	59	104	0	50	20996
2026-01-20 01:43:55.35	358.10	8.39	-39.6	-54.8	3.8	1.49e+00	0	59	104	0	50	21025
2026-01-20 01:43:58.38	357.73	8.57	-39.4	-54.7	3.8	1.49e+00	0	59	104	0	50	20816
2026-01-20 01:44:01.40	357.36	8.74	-39.4	-54.8	3.8	1.49e+00	0	59	104	0	50	21045
2026-01-20 01:44:04.43	356.99	8.91	-39.4	-54.7	3.8	1.49e+00	0	59	104	0	50	20971
2026-01-20 01:44:07.46	356.60	9.08	-39.7	-54.7	3.8	1.49e+00	0	59	104	0	50	21003
2026-01-20 01:44:10.49	356.22	9.26	-39.7	-54.7	3.8	1.49e+00	0	59	104	0	50	20889
2026-01-20 01:44:13.52	355.83	9.43	-39.7	-54.7	3.8	1.49e+00	0	59	104	0	50	20972
2026-01-20 01:44:16.55	355.43	9.60	-39.7	-54.8	3.8	1.49e+00	0	60	104	0	51	19979
2026-01-20 01:44:19.58	355.03	9.77	-40.2	-54.9	3.8	1.49e+00	0	59	104	0	51	20143
2026-01-20 01:44:22.61	354.63	9.95	-40.2	-54.9	3.8	1.49e+00	0	59	104	0	51	20228
2026-01-20 01:44:25.64	354.22	10.12	-40.2	-54.9	3.8	1.49e+00	0	60	104	0	51	20229
2026-01-20 01:44:28.67	353.80	10.29	-40.3	-55.0	3.8	1.49e+00	0	59	104	0	51	20534
2026-01-20 01:44:31.70	353.38	10.46	-40.3	-55.0	3.8	1.49e+00	0	60	104	0	51	20514
2026-01-20 01:44:34.72	352.96	10.63	-40.4	-55.2	3.8	1.49e+00	0	60	104	0	51	20989
2026-01-20 01:44:37.75	352.53	10.80	-40.4	-55.2	3.8	1.49e+00	0	59	104	0	51	20887
2026-01-20 01:44:40.78	352.10	10.97	-40.7	-55.4	3.8	1.49e+00	0	60	104	0	52	20112
2026-01-20 01:44:43.81	351.66	11.14	-40.5	-55.3	3.8	1.49e+00	0	60	104	0	52	19881
2026-01-20 01:44:46.84	351.21	11.31	-40.9	-55.5	3.8	1.49e+00	0	60	104	0	52	20499
2026-01-20 01:44:49.87	350.76	11.48	-40.6	-55.3	3.8	1.49e+00	0	60	104	0	52	19953
2026-01-20 01:44:52.90	350.30	11.65	-40.7	-55.4	3.8	1.49e+00	0	60	104	0	52	20192
2026-01-20 01:44:55.93	349.84	11.81	-40.9	-55.6	3.8	1.49e+00	0	60	104	0	52	20548
2026-01-20 01:44:58.95	349.38	11.98	-41.0	-55.7	3.8	1.49e+00	0	60	104	0	52	20894
2026-01-20 01:45:01.98	348.90	12.15	-40.9	-55.6	3.8	1.49e+00	0	60	104	0	52	20768
2026-01-20 01:45:05.01	348.43	12.31	-41.2	-55.9	3.8	1.49e+00	0	60	104	0	52	21321
2026-01-20 01:45:08.04	347.94	12.48	-41.0	-55.7	3.8	1.49e+00	0	60	104	0	52	20948
2026-01-20 01:45:11.06	347.46	12.64	-41.2	-55.9	3.8	1.49e+00	0	60	104	0	52	21269
2026-01-20 01:45:14.09	346.96	12.80	-41.1	-55.7	3.8	1.49e+00	0	60	104	0	52	20921
2026-01-20 01:45:17.12	346.46	12.96	-41.2	-55.9	3.8	1.49e+00	0	60	104	0	52	21312
2026-01-20 01:45:20.15	345.96	13.12	-41.2	-55.9	3.8	1.49e+00	0	60	104	0	52	21265
2026-01-20 01:45:23.18	345.45	13.28	-40.9	-55.6	3.8	1.49e+00	0	60	104	0	52	20627
2026-01-20 01:45:26.21	344.93	13.44	-40.5	-55.4	3.8	1.49e+00	0	60	104	0	52	20084
2026-01-20 01:45:29.23	344.41	13.59	-40.7	-55.4	3.8	1.49e+00	0	60	104	0	52	20234
2026-01-20 01:45:32.26	343.88	13.75	-40.9	-55.6	3.8	1.49e+00	0	60	104	0	52	20639
2026-01-20 01:45:35.29	343.35	13.90	-40.7	-55.4	3.8	1.49e+00	0	61	104	0	52	20125
2026-01-20 01:45:38.32	342.81	14.05	-40.7	-55.4	3.8	1.49e+00	0	61	104	0	52	20073
2026-01-20 01:45:41.35	342.27	14.20	-40.6	-55.3	3.8	1.49e+00	0	61	104	0	52	19964
2026-01-20 01:45:44.38	341.71	14.35	-40.6	-55.3	3.8	1.49e+00	0	61	104	0	52	20012
2026-01-20 01:45:47.40	341.16	14.50	-40.7	-55.4	3.8	1.49e+00	0	61	104	0	52	20277
2026-01-20 01:45:50.43	340.60	14.64	-41.0	-55.7	3.8	1.49e+00	0	61	104	0	52	20903
2026-01-20 01:45:53.46	340.03	14.79	-40.9	-55.5	3.8	1.49e+00	0	61	104	0	52	20354
2026-01-20 01:45:56.48	339.46	14.93	-41.2	-52.6	4.2	1.46e+00	0	61	0	0	53	13770
2026-01-20 01:45:59.51	338.88	15.07	-41.1	-47.7	7.8	1.21e-01	0	61	0	5242880	53	7821
2026-01-20 01:46:02.54	338.30	15.20	-40.9	-45.8	10.2	7.78e-03	0	61	0	10485760	53	6345
2026-01-20 01:46:05.57	337.71	15.34	-41.5	-46.8	9.6	1.03e-02	0	61	0	15728640	53	7044
2026-01-20 01:46:08.60	337.12	15.47	-41.6	-46.5	10.1	7.16e-03	0	61	0	22020096	53	6845
2026-01-20 01:46:11.63	336.52	15.60	-41.8	-46.5	10.5	4.40e-03	0	61	0	27262976	54	6453
2026-01-20 01:46:14.65	335.91	15.73	-41.9	-46.6	10.5	4.12e-03	0	61	0	33554432	54	6509
2026-01-20 01:46:17.68	335.30	15.85	-41.9	-46.4	10.8	3.04e-03	0	61	0	38797312	54	6416
2026-01-20 01:46:20.72	334.69	15.97	-41.8	-46.0	11.4	8.11e-04	0	61	0	44040192	54	6099
2026-01-20 01:46:23.74	334.07	16.09	-41.8	-46.0	11.4	8.71e-04	0	61	0	50331648	54	6124
2026-01-20 01:46:26.77	333.44	16.21	-41.6	-45.5	12.0	4.32e-04	0	61	0	55574528	54	5757
2026-01-20 01:46:29.80	332.81	16.32	-41.5	-45.2	12.4	1.96e-04	0	61	0	61865984	54	5580
2026-01-20 01:46:32.83	332.18	16.43	-41.6	-45.3	12.3	2.01e-04	0	61	0	67108864	54	5640
2026-01-20 01:46:35.86	331.54	16.54	-41.5	-45.2	12.4	1.30e-04	0	61	0	73400320	54	5564
2026-01-20 01:46:38.88	330.90	16.64	-41.5	-45.2	12.4	1.33e-04	0	61	0	78643200	54	5575
2026-01-20 01:46:41.91	330.25	16.74	-41.6	-45.3	12.3	1.75e-04	0	61	0	83886080	54	5636
2026-01-20 01:46:44.94	329.60	16.84	-41.4	-45.0	12.7	9.46e-05	0	61	0	90177536	54	5450
2026-01-20 01:46:47.97	328.94	16.93	-41.5	-45.1	12.6	8.39e-05	0	61	0	95420416	54	5493
2026-01-20 01:46:51.00	328.28	17.02	-41.6	-45.3	12.4	1.31e-04	0	61	0	101711872	54	5621
2026-01-20 01:46:54.03	327.61	17.11	-41.6	-45.4	12.3	1.81e-04	0	61	0	106954752	54	5697
2026-01-20 01:46:57.05	326.94	17.19	-41.7	-45.4	12.3	1.84e-04	0	61	0	112197632	54	5710
2026-01-20 01:47:00.08	326.27	17.27	-41.7	-45.5	12.3	2.10e-04	0	61	0	118489088	54	5743
2026-01-20 01:47:03.11	325.60	17.35	-41.7	-45.4	12.3	1.91e-04	0	61	0	123731968	54	5711
2026-01-20 01:47:06.14	324.92	17.42	-41.7	-45.5	12.2	1.70e-04	0	61	0	130023424	54	5728
2026-01-20 01:47:09.17	324.23	17.49	-41.7	-45.4	12.3	1.81e-04	0	61	0	135266304	54	5721
2026-01-20 01:47:12.20	323.55	17.55	-41.8	-45.7	12.0	3.22e-04	0	61	0	141557760	54	5889
2026-01-20 01:47:15.22	322.86	17.61	-42.0	-46.0	11.7	4.99e-04	0	61	0	146800640	54	6125
2026-01-20 01:47:18.25	322.17	17.67	-42.0	-46.1	11.6	7.77e-04	0	62	0	152043520	54	6183
2026-01-20 01:47:21.28	321.47	17.72	-42.0	-46.1	11.7	5.95e-04	0	61	0	158334976	54	6139
2026-01-20 01:47:24.31	320.78	17.76	-42.0	-46.1	11.7	5.06e-04	0	62	0	163577856	54	6156
2026-01-20 01:47:27.34	320.08	17.81	-42.0	-46.0	11.7	5.03e-04	0	61	0	169869312	54	6094
2026-01-20 01:47:30.37	319.38	17.85	-42.2	-46.4	11.3	1.04e-03	0	62	0	175112192	54	6400
2026-01-20 01:47:33.40	318.68	17.88	-42.3	-46.8	10.9	2.10e-03	0	61	0	180355072	55	6304
2026-01-20 01:47:36.43	317.97	17.91	-42.3	-46.8	10.9	2.41e-03	0	61	0	186646528	55	6304
2026-01-20 01:47:39.45	317.27	17.93	-42.2	-46.5	11.2	1.58e-03	0	62	0	191889408	55	6094
2026-01-20 01:47:42.48	316.57	17.96	-42.2	-46.5	11.2	1.40e-03	0	61	0	198180864	55	6075
2026-01-20 01:47:45.51	315.86	17.97	-42.2	-46.5	11.2	1.42e-03	0	62	0	203423744	55	6119
2026-01-20 01:47:48.54	315.15	17.98	-42.3	-46.6	11.1	1.71e-03	0	62	0	209715200	55	6193
2026-01-20 01:47:51.57	314.44	17.99	-42.2	-46.6	11.1	1.38e-03	0	62	0	214958080	55	6139
2026-01-20 01:47:54.60	313.73	17.99	-42.2	-46.4	11.3	1.08e-03	0	62	0	220200960	55	6020
2026-01-20 01:47:57.62	313.03	17.99	-42.2	-46.5	11.2	1.16e-03	0	62	0	226492416	55	6107
2026-01-20 01:48:00.65	312.32	17.99	-42.3	-46.7	11.0	1.61e-03	0	62	0	231735296	55	6215
2026-01-20 01:48:03.68	311.61	17.98	-42.3	-46.7	11.0	2.22e-03	0	62	0	238026752	55	6262
2026-01-20 01:48:06.71	310.90	17.96	-42.2	-46.4	11.3	1.11e-03	0	62	0	243269632	55	6034
2026-01-20 01:48:09.74	310.20	17.94	-42.0	-46.1	11.7	6.26e-04	0	62	0	248512512	55	5790
2026-01-20 01:48:12.76	309.49	17.92	-42.0	-46.1	11.7	6.38e-04	0	61	0	254803968	55	5822
2026-01-20 01:48:15.79	308.79	17.89	-42.1	-46.2	11.5	7.63e-04	0	61	0	260046848	55	5895
2026-01-20 01:48:18.82	308.09	17.85	-42.1	-46.3	11.5	7.99e-04	0	62	0	266338304	55	5930
2026-01-20 01:48:21.85	307.39	17.82	-42.0	-46.0	11.7	6.14e-04	0	62	0	271581184	55	5783
2026-01-20 01:48:24.87	306.69	17.78	-41.8	-45.7	12.1	3.11e-04	0	62	0	277872640	55	5556
2026-01-20 01:48:27.90	305.99	17.73	-41.8	-45.7	12.1	3.00e-04	0	62	0	283115520	55	5539
2026-01-20 01:48:30.93	305.30	17.68	-41.7	-45.5	12.2	2.42e-04	0	62	0	288358400	55	5462
2026-01-20 01:48:33.96	304.60	17.63	-41.7	-45.4	12.3	1.80e-04	0	62	0	294649856	55	5379
2026-01-20 01:48:36.99	303.91	17.57	-41.7	-45.4	12.4	1.56e-04	0	62	0	299892736	55	5371
2026-01-20 01:48:40.02	303.22	17.50	-41.7	-45.5	12.3	1.33e-04	0	62	0	306184192	55	5428
2026-01-20 01:48:43.05	302.54	17.44	-41.5	-45.1	12.6	9.38e-05	0	62	0	311427072	55	5215
2026-01-20 01:48:46.08	301.86	17.37	-41.5	-45.1	12.6	8.77e-05	0	62	0	316669952	55	5195
2026-01-20 01:48:49.11	301.18	17.29	-41.6	-45.2	12.5	1.18e-04	0	62	0	322961408	55	5260
2026-01-20 01:48:52.13	300.51	17.21	-41.6	-45.4	12.4	1.73e-04	0	62	0	328204288	55	5342
2026-01-20 01:48:55.16	299.83	17.13	-41.8	-45.6	12.0	2.39e-04	0	62	0	334495744	55	5514
2026-01-20 01:48:58.19	299.17	17.05	-41.8	-45.8	12.0	4.06e-04	0	62	0	339738624	55	5606
2026-01-20 01:49:01.22	298.50	16.96	-41.8	-45.7	12.0	3.68e-04	0	62	0	344981504	55	5560
2026-01-20 01:49:04.25	297.84	16.86	-41.7	-45.6	12.1	3.00e-04	0	62	0	351272960	55	5493
2026-01-20 01:49:07.27	297.19	16.77	-41.9	-46.0	11.7	4.65e-04	0	62	0	356515840	55	5731
2026-01-20 01:49:10.30	296.54	16.67	-42.0	-46.2	11.4	9.14e-04	0	61	0	362807296	55	5898
2026-01-20 01:49:13.33	295.89	16.56	-42.0	-46.2	11.4	8.62e-04	0	62	0	368050176	55	5868
2026-01-20 01:49:16.36	295.25	16.46	-42.0	-46.2	11.4	1.05e-03	0	62	0	374341632	55	5917
2026-01-20 01:49:19.39	294.61	16.35	-41.9	-46.1	11.5	8.13e-04	0	62	0	379584512	55	5821
2026-01-20 01:49:22.42	293.98	16.23	-41.8	-45.9	11.7	6.73e-04	0	62	0	384827392	55	5690
2026-01-20 01:49:25.44	293.35	16.12	-41.8	-45.8	11.8	5.16e-04	0	62	0	391118848	55	5628
2026-01-20 01:49:28.47	292.73	16.00	-41.8	-45.9	11.6	7.41e-04	0	62	0	396361728	55	5673
2026-01-20 01:49:31.50	292.11	15.88	-41.8	-45.9	11.6	7.18e-04	0	62	0	402653184	55	5706
2026-01-20 01:49:34.53	291.50	15.76	-41.7	-45.7	11.8	5.80e-04	0	62	0	407896064	55	5579
2026-01-20 01:49:37.56	290.89	15.63	-41.8	-45.9	11.6	6.90e-04	0	62	0	413138944	55	5694
2026-01-20 01:49:40.59	290.29	15.50	-41.8	-45.9	11.6	8.09e-04	0	62	0	419430400	55	5703
2026-01-20 01:49:43.61	289.69	15.37	-41.8	-46.0	11.5	8.54e-04	0	62	0	424673280	55	5724
2026-01-20 01:49:46.64	289.10	15.23	-41.8	-46.1	11.3	1.05e-03	0	62	0	430964736	55	5803
2026-01-20 01:49:49.67	288.51	15.10	-41.8	-46.1	11.2	1.32e-03	0	62	0	436207616	55	5844
2026-01-20 01:49:52.70	287.93	14.96	-41.9	-46.3	11.1	1.62e-03	0	62	0	442499072	55	5924
2026-01-20 01:49:55.72	287.35	14.82	-41.9	-46.4	10.8	2.22e-03	0	62	0	447741952	55	6028
2026-01-20 01:49:58.75	286.78	14.67	-42.0	-46.5	10.7	2.94e-03	0	62	0	452984832	55	6125
2026-01-20 01:50:01.78	286.22	14.53	-42.0	-46.7	10.5	3.92e-03	0	62	0	459276288	55	6231
2026-01-20 01:50:04.81	285.66	14.38	-41.9	-46.4	10.7	3.10e-03	0	62	0	464519168	55	6058
2026-01-20 01:50:07.84	285.11	14.23	-42.0	-46.7	10.5	3.92e-03	0	62	0	470810624	55	6226
2026-01-20 01:50:10.86	284.56	14.08	-42.2	-47.1	10.1	6.56e-03	0	62	0	476053504	55	6538
2026-01-20 01:50:13.89	284.02	13.93	-42.2	-47.2	9.9	7.55e-03	0	62	0	481296384	55	6586
2026-01-20 01:50:16.92	283.48	13.78	-42.1	-47.1	10.0	7.42e-03	0	62	0	487587840	55	6566
2026-01-20 01:50:19.95	282.95	13.62	-42.3	-47.5	9.5	1.18e-02	0	62	0	492830720	55	6874
2026-01-20 01:50:22.98	282.42	13.47	-42.5	-48.1	9.0	2.27e-02	0	62	0	499122176	55	7308
2026-01-20 01:50:26.01	281.90	13.31	-42.4	-48.0	9.0	2.51e-02	0	62	0	504365056	55	7245
2026-01-20 01:50:29.03	281.39	13.15	-42.3	-47.7	9.3	1.76e-02	0	62	0	510656512	55	7005
2026-01-20 01:50:32.06	280.88	12.99	-42.4	-47.8	9.2	1.93e-02	0	62	0	515899392	55	7109
2026-01-20 01:50:35.09	280.37	12.83	-42.6	-48.5	8.5	3.86e-02	0	62	0	521142272	55	7694
2026-01-20 01:50:38.12	279.88	12.67	-42.6	-48.6	8.3	4.83e-02	0	62	0	527433728	55	7779
2026-01-20 01:50:41.15	279.38	12.50	-42.5	-48.5	8.4	4.70e-02	0	62	0	532676608	55	7712
2026-01-20 01:50:44.18	278.90	12.34	-42.5	-48.3	8.6	3.72e-02	0	62	0	538968064	55	7515
2026-01-20 01:50:47.21	278.42	12.17	-42.4	-48.3	8.6	3.69e-02	0	62	0	544210944	55	7470
2026-01-20 01:50:50.24	277.94	12.01	-42.4	-48.4	8.5	4.61e-02	0	62	0	549453824	55	7569
2026-01-20 01:50:53.27	277.47	11.84	-42.4	-48.3	8.5	4.59e-02	0	62	0	555745280	55	7513
2026-01-20 01:50:56.30	277.00	11.67	-42.3	-47.9	8.8	3.33e-02	0	62	0	560988160	55	7201
2026-01-20 01:50:59.32	276.54	11.51	-42.3	-48.2	8.5	3.72e-02	0	62	0	567279616	55	7384
2026-01-20 01:51:02.35	276.09	11.34	-42.3	-48.2	8.4	4.55e-02	0	62	0	572522496	55	7441
2026-01-20 01:51:05.38	275.64	11.17	-42.2	-48.2	8.4	4.84e-02	0	62	0	578813952	55	7391
2026-01-20 01:51:08.41	275.20	11.00	-42.0	-48.0	8.4	4.47e-02	0	62	0	584056832	55	7216
2026-01-20 01:51:11.43	274.76	10.83	-41.9	-47.8	8.5	4.37e-02	0	62	0	589299712	55	7120
2026-01-20 01:51:14.46	274.32	10.66	-41.9	-48.1	8.1	5.52e-02	0	62	0	595591168	55	7315
2026-01-20 01:51:17.49	273.90	10.49	-41.9	-48.4	7.6	8.61e-02	0	62	0	600834048	55	7612
2026-01-20 01:51:20.52	273.47	10.31	-42.0	-48.8	7.3	1.20e-01	0	62	0	607125504	55	7950
2026-01-20 01:51:23.55	273.05	10.14	-41.8	-49.4	6.5	2.69e-01	0	62	0	612368384	55	8514
2026-01-20 01:51:26.58	272.64	9.97	-41.6	-50.4	5.6	3.01e-01	0	62	0	617611264	55	9582
2026-01-20 01:51:29.60	272.23	9.80	-41.6	-49.4	6.2	2.83e-01	0	62	0	620756992	54	9043
2026-01-20 01:51:32.63	271.83	9.63	-41.6	-49.4	6.3	2.93e-01	0	62	0	625999872	54	9035
2026-01-20 01:51:35.66	271.43	9.45	-41.3	-52.0	4.5	5.18e-01	27	62	0	632291328	54	12108
2026-01-20 01:51:38.68	271.04	9.28	-41.5	-50.0	5.6	7.91e-01	0	62	0	634388480	54	9637
2026-01-20 01:51:41.71	270.65	9.11	-41.3	-49.6	5.8	3.74e-01	0	62	0	640679936	54	9217
2026-01-20 01:51:44.74	270.26	8.93	-41.2	-50.8	4.9	4.58e-01	0	62	0	645922816	54	10548
2026-01-20 01:51:47.77	269.88	8.76	-41.0	-52.7	4.1	1.48e+00	0	62	0	649068544	52	14773
2026-01-20 01:51:50.80	269.50	8.59	-41.5	-51.1	4.9	7.36e-01	0	62	0	653262848	54	10938
2026-01-20 01:51:53.83	269.13	8.42	-41.4	-51.9	4.5	1.06e+00	52	62	0	658505728	54	12049
2026-01-20 01:51:56.85	268.77	8.24	-41.1	-54.2	3.8	1.45e+00	0	62	104	660602880	54	15581
2026-01-20 01:51:59.88	268.41	8.07	-40.3	-54.3	3.8	1.49e+00	0	62	104	660602880	52	17719
2026-01-20 01:52:02.91	268.05	7.90	-44.6	-59.0	3.8	1.49e+00	0	62	104	660602880	59	20352
2026-01-20 01:52:05.94	267.69	7.72	-45.0	-59.6	3.8	1.49e+00	0	62	104	660602880	60	20707
2026-01-20 01:52:08.98	267.34	7.55	-45.2	-59.8	3.8	1.49e+00	0	62	104	660602880	60	21049
2026-01-20 01:52:12.01	267.00	7.38	-45.2	-59.8	3.8	1.49e+00	0	62	104	660602880	61	19931
2026-01-20 01:52:15.04	266.66	7.21	-45.2	-59.7	3.8	1.49e+00	0	62	104	660602880	61	19747
2026-01-20 01:52:18.07	266.32	7.04	-45.2	-59.7	3.8	1.49e+00	0	62	104	660602880	61	19742
2026-01-20 01:52:21.11	265.98	6.86	-45.1	-59.6	3.8	1.49e+00	0	62	104	660602880	61	19605
2026-01-20 01:52:24.14	265.66	6.69	-45.1	-59.6	3.8	1.49e+00	0	62	104	660602880	61	19568
2026-01-20 01:52:27.17	265.33	6.52	-45.1	-59.6	3.8	1.49e+00	0	62	104	660602880	61	19562
2026-01-20 01:52:30.20	265.01	6.35	-45.1	-59.7	3.8	1.49e+00	0	62	104	660602880	61	19621
2026-01-20 01:52:33.23	264.69	6.18	-45.1	-59.6	3.8	1.49e+00	0	62	104	660602880	61	19533
2026-01-20 01:52:36.26	264.38	6.01	-45.1	-59.6	3.8	1.49e+00	0	62	104	660602880	61	19479
2026-01-20 01:52:39.29	264.07	5.84	-45.1	-59.6	3.8	1.49e+00	0	62	104	660602880	61	19531
2026-01-20 01:52:42.32	263.76	5.67	-45.1	-59.6	3.8	1.49e+00	0	62	104	660602880	61	19522
2026-01-20 01:52:45.36	263.46	5.50	-45.1	-59.6	3.8	1.49e+00	0	62	104	660602880	61	19483
2026-01-20 01:52:48.39	263.16	5.33	-45.1	-59.6	3.8	1.49e+00	0	62	104	660602880	61	19530
2026-01-20 01:52:51.42	262.86	5.16	-45.1	-59.6	3.8	1.49e+00	0	62	104	660602880	61	19471
2026-01-20 01:52:54.45	262.57	4.99	-45.1	-59.6	3.8	1.49e+00	0	62	104	660602880	61	19503
2026-01-20 01:52:57.48	262.28	4.83	-45.1	-59.6	3.8	1.49e+00	0	62	104	660602880	61	19447
2026-01-20 01:53:00.51	262.00	4.66	-45.1	-59.6	3.8	1.49e+00	0	62	104	660602880	61	19471
2026-01-20 01:53:03.55	261.71	4.49	-45.1	-59.6	3.8	1.49e+00	0	62	104	660602880	61	19487
2026-01-20 01:53:06.58	261.43	4.32	-45.1	-59.6	3.8	1.49e+00	0	62	104	660602880	61	19491
2026-01-20 01:53:09.61	261.16	4.16	-45.1	-59.6	3.8	1.49e+00	0	62	104	660602880	61	19466
2026-01-20 01:53:12.64	260.89	3.99	-45.1	-59.6	3.8	1.49e+00	0	62	104	660602880	61	19488
2026-01-20 01:53:15.67	260.62	3.83	-45.1	-59.6	3.8	1.49e+00	0	62	104	660602880	61	19541
2026-01-20 01:53:18.71	260.35	3.66	-45.1	-59.6	3.8	1.49e+00	0	62	104	660602880	61	19486
2026-01-20 01:53:21.74	260.09	3.50	-45.1	-59.6	3.8	1.49e+00	0	62	104	660602880	61	19482
2026-01-20 01:53:24.76	259.83	3.33	-45.1	-59.6	3.8	1.49e+00	0	62	104	660602880	61	19483
2026-01-20 01:53:27.79	259.57	3.17	-45.1	-59.6	3.8	1.49e+00	0	62	104	660602880	61	19472
2026-01-20 01:53:30.83	259.31	3.01	-45.1	-59.6	3.8	1.49e+00	0	62	104	660602880	61	19498
2026-01-20 01:53:33.86	259.06	2.84	-45.1	-59.6	3.8	1.49e+00	0	62	104	660602880	61	19427
2026-01-20 01:53:36.89	258.81	2.68	-45.1	-59.6	3.8	1.49e+00	0	62	104	660602880	61	19400
2026-01-20 01:53:39.92	258.57	2.52	-45.1	-59.6	3.8	1.49e+00	0	62	104	660602880	61	19413
2026-01-20 01:53:42.95	258.33	2.36	-45.1	-59.6	3.8	1.49e+00	0	62	104	660602880	61	19450
2026-01-20 01:53:45.98	258.09	2.20	-45.0	-59.6	3.8	1.49e+00	0	62	104	660602880	61	19440
2026-01-20 01:53:49.02	257.85	2.04	-45.0	-59.5	3.8	1.49e+00	0	62	104	660602880	61	19367

#Closed at: 2026-01-20 01:53:50
#Recorded file [660 MB]: D:/lorett/data/31039_260120_044159.dat