passes_logs/2026/01/20/R2.0S_Moscow/R2.0S_Moscow__20260120_090206_NOAA_21_JPSS-2_rec.log

#Pass ID: 20260120_090206_NOAA 21 (JPSS-2)
#Satellite: NOAA 21 (JPSS-2)
#Configuration: NOAA-21
#almurnet v.1.7.20251203
#Start time: 2026-01-20 09:02:06

#Version: 2.2.20231116
#Station: R2.0S_Moscow
#Location: 37.707566 lon 55.798166 lat
#TLE: 1 54234U 22150A   26019.59425193  .00000067  00000+0  52811-4 0  9997
#TLE: 2 54234  98.7505 320.4385 0000607 256.3203 103.7906 14.19535690165464

#Time	Az	El	Level	Level2	SNR	BER	BlckErr	Temp	State	Recorded	gain1	gain2
2026-01-20 09:02:06.77	134.83	2.03	-21.2	-32.3	3.9	1.51e+00	0	51	0	0	11	14944
2026-01-20 09:02:10.80	134.68	2.28	-17.8	-29.1	4.0	1.50e+00	0	51	104	0	11	10319
2026-01-20 09:02:14.84	134.53	2.54	-16.1	-27.5	3.9	1.51e+00	0	51	104	0	5	12121
2026-01-20 09:02:18.89	134.38	2.79	-18.9	-32.8	3.6	1.51e+00	0	52	104	0	6	21112
2026-01-20 09:02:22.93	134.23	3.05	-14.2	-26.3	3.5	1.51e+00	0	52	104	0	4	11239
2026-01-20 09:02:26.97	134.07	3.31	-14.2	-28.8	3.7	1.51e+00	0	52	104	0	0	18833
2026-01-20 09:02:31.01	133.91	3.58	-14.1	-23.8	3.8	1.51e+00	0	52	104	0	0	10607
2026-01-20 09:02:35.05	133.74	3.84	-17.1	-32.6	3.5	1.51e+00	0	53	104	0	6	20760
2026-01-20 09:02:39.09	133.58	4.11	-22.6	-36.4	3.4	1.51e+00	0	53	104	0	14	20126
2026-01-20 09:02:43.13	133.40	4.38	-18.4	-29.7	3.8	1.51e+00	0	53	104	0	8	13130
2026-01-20 09:02:47.18	133.23	4.65	-15.2	-28.5	4.0	1.51e+00	0	53	104	0	4	14466
2026-01-20 09:02:51.22	133.05	4.93	-15.8	-25.6	3.7	1.51e+00	0	53	104	0	1	12292
2026-01-20 09:02:55.26	132.87	5.21	-18.6	-30.7	3.8	1.51e+00	0	54	104	0	6	16692
2026-01-20 09:02:59.31	132.69	5.49	-22.1	-35.0	3.7	1.51e+00	0	54	104	0	11	20521
2026-01-20 09:03:03.35	132.50	5.77	-14.1	-25.1	4.0	1.51e+00	0	54	104	0	0	12236
2026-01-20 09:03:07.39	132.31	6.06	-17.6	-28.6	3.9	1.51e+00	0	54	104	0	5	13833
2026-01-20 09:03:11.43	132.11	6.34	-22.5	-32.9	3.5	1.51e+00	0	55	104	0	12	15084
2026-01-20 09:03:15.47	131.91	6.64	-16.3	-30.1	3.5	1.51e+00	0	55	104	0	4	17420
2026-01-20 09:03:19.51	131.70	6.93	-15.3	-27.9	3.7	1.51e+00	0	55	104	0	5	12679
2026-01-20 09:03:23.56	131.49	7.23	-14.9	-28.0	3.7	1.51e+00	0	55	104	0	2	15397
2026-01-20 09:03:27.60	131.28	7.53	-17.0	-26.5	3.8	1.51e+00	0	55	104	0	4	11499
2026-01-20 09:03:31.64	131.06	7.83	-17.9	-28.8	3.9	1.51e+00	0	55	104	0	9	11226
2026-01-20 09:03:35.68	130.84	8.14	-23.8	-36.5	3.5	1.51e+00	0	56	104	0	12	23031
2026-01-20 09:03:39.71	130.61	8.45	-15.8	-26.7	3.7	1.52e+00	0	56	104	0	7	9863
2026-01-20 09:03:43.75	130.38	8.77	-14.5	-27.9	3.8	1.52e+00	0	56	104	0	3	14225
2026-01-20 09:03:47.79	130.14	9.08	-19.5	-31.2	3.7	1.51e+00	0	56	104	0	6	17594
2026-01-20 09:03:51.83	129.89	9.40	-16.8	-29.0	3.8	1.51e+00	0	56	104	0	6	13683
2026-01-20 09:03:55.86	129.65	9.73	-17.5	-26.9	3.8	1.51e+00	0	56	104	0	3	12702
2026-01-20 09:03:59.90	129.39	10.06	-18.9	-28.7	3.8	1.51e+00	0	56	104	0	3	15637
2026-01-20 09:04:03.94	129.13	10.39	-18.6	-31.9	3.6	1.51e+00	0	57	104	0	13	12677
2026-01-20 09:04:07.98	128.86	10.73	-17.1	-29.4	3.7	1.51e+00	0	57	104	0	9	12020
2026-01-20 09:04:12.01	128.59	11.07	-20.2	-31.1	3.7	1.51e+00	0	57	104	0	8	15426
2026-01-20 09:04:16.05	128.30	11.41	-22.2	-31.7	3.8	1.50e+00	0	57	104	0	10	14840
2026-01-20 09:04:20.09	128.02	11.76	-17.9	-30.7	3.7	1.51e+00	0	57	104	0	8	14757
2026-01-20 09:04:24.13	127.72	12.11	-21.6	-35.6	3.9	1.51e+00	0	57	104	0	12	20670
2026-01-20 09:04:28.16	127.42	12.47	-26.7	-42.3	3.8	1.50e+00	0	57	104	0	19	29699
2026-01-20 09:04:32.19	127.11	12.83	-21.7	-34.8	3.8	1.50e+00	0	57	104	0	16	15031
2026-01-20 09:04:36.23	126.79	13.20	-20.4	-36.4	3.5	1.51e+00	0	57	104	0	17	16954
2026-01-20 09:04:40.27	126.46	13.57	-36.0	-45.1	4.6	1.47e+00	0	58	104	0	39	12995
2026-01-20 09:04:44.31	126.13	13.94	-40.8	-47.8	4.5	1.45e+00	0	58	104	0	50	9495
2026-01-20 09:04:48.35	125.79	14.32	-40.0	-47.2	7.4	3.23e-01	3	58	0	4194304	54	6995
2026-01-20 09:04:52.38	125.43	14.71	-40.0	-46.9	4.4	1.00e+00	0	58	104	6291456	43	12750
2026-01-20 09:04:56.42	125.07	15.10	-28.7	-42.6	6.6	5.93e-01	4	58	0	11534336	39	9768
2026-01-20 09:05:00.45	124.70	15.49	-40.7	-44.7	10.4	2.39e-02	0	58	0	20971520	52	5863
2026-01-20 09:05:04.49	124.31	15.89	-39.3	-44.8	10.0	1.34e-02	0	58	0	34603008	46	8386
2026-01-20 09:05:08.53	123.92	16.30	-40.6	-44.6	10.3	9.81e-02	0	58	0	47185920	51	6190
2026-01-20 09:05:12.57	123.52	16.71	-40.5	-44.3	10.4	4.00e-02	0	58	0	59768832	49	6696
2026-01-20 09:05:16.61	123.10	17.13	-40.8	-43.9	11.5	1.15e-02	0	58	0	72351744	52	5384
2026-01-20 09:05:20.64	122.67	17.55	-40.8	-43.8	11.7	1.21e-02	0	58	0	84934656	52	5340
2026-01-20 09:05:24.68	122.23	17.98	-40.7	-43.6	12.1	6.09e-04	0	59	0	97517568	51	5476
2026-01-20 09:05:28.73	121.78	18.42	-40.7	-43.7	11.9	2.26e-03	0	58	0	110100480	52	5236
2026-01-20 09:05:32.77	121.31	18.86	-40.5	-43.3	12.4	4.16e-04	0	58	0	122683392	51	5323
2026-01-20 09:05:36.81	120.83	19.30	-40.3	-42.9	12.9	5.79e-05	0	59	0	135266304	51	5051
2026-01-20 09:05:40.85	120.33	19.75	-39.9	-42.3	13.5	6.80e-06	0	59	0	147849216	51	4725
2026-01-20 09:05:44.89	119.82	20.21	-40.0	-42.4	13.4	1.52e-05	0	59	0	160432128	51	4793
2026-01-20 09:05:48.92	119.29	20.67	-39.9	-42.2	13.6	9.90e-06	0	59	0	173015040	51	4694
2026-01-20 09:05:52.96	118.75	21.14	-39.7	-42.0	13.9	3.00e-06	0	59	0	185597952	51	4582
2026-01-20 09:05:57.00	118.19	21.62	-39.7	-41.9	13.9	4.50e-06	0	59	0	198180864	51	4540
2026-01-20 09:06:01.04	117.61	22.10	-39.6	-41.8	14.1	3.00e-06	0	59	0	210763776	51	4483
2026-01-20 09:06:05.08	117.01	22.59	-39.7	-42.0	14.0	1.29e-05	0	59	0	223346688	51	4558
2026-01-20 09:06:09.12	116.40	23.08	-39.4	-41.5	14.4	0.00e+00	0	59	0	235929600	50	4587
2026-01-20 09:06:13.16	115.76	23.58	-39.5	-41.6	14.4	2.20e-06	0	59	0	248512512	50	4643
2026-01-20 09:06:17.20	115.10	24.09	-39.6	-41.7	14.3	0.00e+00	0	59	0	261095424	50	4705
2026-01-20 09:06:21.24	114.42	24.60	-39.7	-41.9	14.2	1.50e-06	0	59	0	273678336	50	4771
2026-01-20 09:06:25.27	113.72	25.11	-39.8	-42.0	14.1	7.00e-07	0	59	0	286261248	50	4816
2026-01-20 09:06:29.31	113.00	25.63	-40.0	-42.4	13.7	3.80e-06	0	59	0	298844160	50	5048
2026-01-20 09:06:33.35	112.25	26.16	-40.3	-42.7	13.4	1.06e-05	0	59	0	311427072	51	4972
2026-01-20 09:06:37.39	111.47	26.69	-40.4	-43.0	13.1	2.89e-05	0	59	0	324009984	51	5115
2026-01-20 09:06:41.42	110.67	27.22	-40.1	-42.4	13.6	6.80e-06	0	59	0	336592896	51	4802
2026-01-20 09:06:45.46	109.84	27.76	-40.2	-42.6	13.4	1.22e-05	0	59	0	349175808	51	4922
2026-01-20 09:06:49.50	108.98	28.31	-40.3	-42.7	13.5	1.37e-05	0	59	0	361758720	51	4946
2026-01-20 09:06:53.54	108.09	28.85	-40.2	-42.6	13.6	9.90e-06	0	59	0	375390208	51	4873
2026-01-20 09:06:57.58	107.17	29.40	-40.3	-42.7	13.4	1.75e-05	0	59	0	387973120	51	4970
2026-01-20 09:07:01.62	106.22	29.96	-40.1	-42.4	13.7	3.80e-06	0	59	0	400556032	51	4796
2026-01-20 09:07:05.65	105.24	30.51	-40.2	-42.5	13.6	4.50e-06	0	59	0	413138944	51	4863
2026-01-20 09:07:09.70	104.21	31.06	-40.3	-42.7	13.4	1.60e-05	0	60	0	425721856	51	4977
2026-01-20 09:07:13.73	103.16	31.61	-40.5	-43.0	13.1	2.74e-05	0	59	0	438304768	51	5149
2026-01-20 09:07:17.77	102.07	32.17	-40.7	-43.4	12.7	5.41e-05	0	59	0	450887680	52	5072
2026-01-20 09:07:21.81	100.94	32.72	-40.5	-43.1	13.0	3.58e-05	0	59	0	463470592	52	4885
2026-01-20 09:07:25.84	99.77	33.26	-40.9	-43.7	12.4	1.07e-04	0	60	0	476053504	52	5230
2026-01-20 09:07:29.88	98.56	33.80	-41.0	-43.8	12.3	1.79e-04	0	60	0	488636416	52	5321
2026-01-20 09:07:33.92	97.31	34.34	-40.9	-43.6	12.5	1.06e-04	0	59	0	501219328	52	5214
2026-01-20 09:07:37.96	96.02	34.87	-41.2	-44.1	12.0	3.97e-04	0	60	0	513802240	53	5205
2026-01-20 09:07:41.99	94.69	35.39	-41.0	-43.8	12.3	1.96e-04	0	60	0	526385152	53	5008
2026-01-20 09:07:46.03	93.31	35.90	-41.1	-43.9	12.2	2.08e-04	0	60	0	538968064	53	5098
2026-01-20 09:07:50.07	91.89	36.40	-41.2	-44.1	12.1	2.58e-04	0	60	0	551550976	53	5161
2026-01-20 09:07:54.11	90.42	36.89	-40.9	-43.5	12.6	9.46e-05	0	60	0	564133888	53	4855
2026-01-20 09:07:58.15	88.91	37.36	-41.1	-43.9	12.3	1.86e-04	0	60	0	576716800	53	5066
2026-01-20 09:08:02.18	87.36	37.82	-41.2	-44.0	12.1	2.13e-04	0	60	0	589299712	53	5141
2026-01-20 09:08:06.22	85.77	38.25	-41.5	-44.7	11.6	7.50e-04	0	60	0	601882624	53	5531
2026-01-20 09:08:10.26	84.13	38.67	-41.6	-44.7	11.5	6.91e-04	0	60	0	614465536	53	5531
2026-01-20 09:08:14.29	82.46	39.06	-41.4	-44.4	11.8	6.50e-04	0	60	0	627048448	53	5393
2026-01-20 09:08:18.34	80.73	39.43	-41.4	-44.4	11.8	5.22e-04	0	60	0	639631360	53	5384
2026-01-20 09:08:22.37	78.98	39.77	-41.9	-45.1	11.1	1.71e-03	0	60	0	652214272	54	5509
2026-01-20 09:08:26.41	77.19	40.09	-41.6	-44.7	11.6	1.13e-03	0	60	0	664797184	54	5235
2026-01-20 09:08:30.45	75.36	40.37	-41.4	-44.4	12.0	3.24e-04	0	60	0	677380096	54	5054
2026-01-20 09:08:34.49	73.51	40.62	-41.4	-44.3	12.1	3.23e-04	0	60	0	689963008	54	4998
2026-01-20 09:08:38.52	71.63	40.84	-41.6	-44.7	11.6	5.77e-04	0	60	0	702545920	54	5233
2026-01-20 09:08:42.56	69.72	41.03	-42.0	-45.4	10.9	2.30e-03	0	60	0	715128832	54	5675
2026-01-20 09:08:46.60	67.79	41.18	-42.0	-45.4	11.0	2.00e-03	0	60	0	727711744	54	5657
2026-01-20 09:08:50.64	65.85	41.29	-42.2	-45.7	10.7	2.86e-03	0	60	0	741343232	54	5867
2026-01-20 09:08:54.67	63.90	41.37	-42.0	-45.4	10.8	2.27e-03	0	60	0	752877568	54	5693
2026-01-20 09:08:58.72	61.94	41.40	-41.9	-45.2	10.9	2.32e-03	0	60	0	766509056	54	5584
2026-01-20 09:09:02.75	59.98	41.40	-41.8	-44.9	11.4	9.33e-04	0	60	0	779091968	54	5365
2026-01-20 09:09:06.79	58.02	41.37	-41.7	-44.7	11.4	1.04e-03	0	60	0	791674880	54	5279
2026-01-20 09:09:10.83	56.07	41.29	-41.7	-44.8	11.5	8.13e-04	0	60	0	804257792	54	5307
2026-01-20 09:09:14.87	54.12	41.18	-41.8	-45.1	11.2	1.24e-03	0	60	0	816840704	54	5466
2026-01-20 09:09:18.91	52.20	41.03	-41.9	-45.2	11.1	1.42e-03	0	60	0	829423616	54	5546
2026-01-20 09:09:22.95	50.29	40.85	-42.2	-45.7	10.6	4.75e-03	0	60	0	842006528	55	5543
2026-01-20 09:09:26.99	48.41	40.63	-41.6	-44.6	11.7	6.91e-04	0	60	0	854589440	55	4925
2026-01-20 09:09:31.03	46.56	40.38	-41.9	-45.2	11.0	1.64e-03	0	60	0	867172352	55	5252
2026-01-20 09:09:35.06	44.74	40.09	-41.7	-44.8	11.4	1.20e-03	0	60	0	879755264	55	5027
2026-01-20 09:09:39.10	42.95	39.78	-41.5	-44.5	11.8	4.77e-04	0	60	0	892338176	54	5108
2026-01-20 09:09:43.14	41.19	39.44	-42.4	-46.1	9.9	8.92e-03	0	60	0	904921088	55	5818
2026-01-20 09:09:47.18	39.48	39.07	-41.6	-44.7	11.6	8.87e-04	0	60	0	917504000	55	4942
2026-01-20 09:09:51.21	37.81	38.68	-42.0	-45.4	10.8	2.79e-03	0	60	0	930086912	55	5377
2026-01-20 09:09:55.25	36.17	38.27	-41.5	-44.6	11.7	4.81e-04	0	60	0	942669824	54	5160
2026-01-20 09:09:59.29	34.58	37.83	-41.8	-45.1	11.1	1.72e-03	0	60	0	955252736	54	5492
2026-01-20 09:10:03.33	33.03	37.38	-41.7	-44.7	11.4	5.04e-04	0	60	0	967835648	54	5276
2026-01-20 09:10:07.37	31.53	36.91	-41.7	-44.8	11.2	1.99e-03	0	60	0	980418560	54	5338
2026-01-20 09:10:11.40	30.07	36.43	-40.9	-43.6	12.7	6.79e-05	0	60	0	993001472	53	4871
2026-01-20 09:10:15.44	28.65	35.93	-41.1	-43.8	12.3	3.07e-04	0	60	0	1005584384	53	5028
2026-01-20 09:10:19.49	27.27	35.42	-41.0	-43.7	12.5	7.47e-05	0	60	0	1018167296	53	4943
2026-01-20 09:10:23.52	25.95	34.90	-41.4	-44.3	11.8	6.60e-04	0	60	0	1030750208	54	5013
2026-01-20 09:10:27.56	24.66	34.37	-41.0	-43.7	12.6	1.01e-04	0	60	0	1043333120	53	4952
2026-01-20 09:10:31.60	23.41	33.84	-41.2	-44.0	12.2	2.42e-04	0	60	0	1055916032	53	5114
2026-01-20 09:10:35.64	22.21	33.30	-40.4	-42.9	13.3	1.29e-05	0	60	0	1068498944	52	4764
2026-01-20 09:10:39.68	21.04	32.75	-41.0	-43.7	12.5	1.23e-04	0	60	0	1082130432	52	5245
2026-01-20 09:10:43.71	19.92	32.21	-40.4	-42.9	13.3	1.60e-05	0	60	0	1093664768	52	4762
2026-01-20 09:10:47.75	18.83	31.66	-40.8	-43.5	12.6	6.48e-05	0	60	0	1107296256	52	5120
2026-01-20 09:10:51.79	17.78	31.10	-40.9	-43.5	12.6	1.17e-04	0	60	0	1119879168	52	5146
2026-01-20 09:10:55.82	16.76	30.56	-40.5	-43.0	13.1	3.35e-05	0	60	0	1132462080	52	4861
2026-01-20 09:10:59.86	15.78	30.01	-40.5	-42.9	13.2	1.75e-05	0	60	0	1145044992	52	4787
2026-01-20 09:11:03.90	14.83	29.46	-39.7	-41.8	14.3	7.00e-07	0	60	0	1157627904	51	4487
2026-01-20 09:11:07.94	13.91	28.91	-40.2	-42.5	13.6	6.10e-06	0	60	0	1170210816	51	4857
2026-01-20 09:11:11.98	13.03	28.37	-40.5	-42.9	13.2	2.51e-05	0	60	0	1182793728	51	5099
2026-01-20 09:11:16.01	12.17	27.83	-40.2	-42.6	13.6	8.30e-06	0	61	0	1195376640	51	4871
2026-01-20 09:11:20.05	11.35	27.29	-40.5	-42.9	13.2	2.36e-05	0	60	0	1207959552	51	5072
2026-01-20 09:11:24.09	10.55	26.76	-40.5	-43.0	13.1	3.81e-05	0	60	0	1220542464	51	5129
2026-01-20 09:11:28.13	9.78	26.23	-39.9	-42.2	13.9	3.80e-06	0	60	0	1233125376	51	4659
2026-01-20 09:11:32.17	9.03	25.70	-39.7	-41.9	14.2	3.80e-06	0	60	0	1245708288	51	4505
2026-01-20 09:11:36.21	8.31	25.18	-39.9	-42.1	13.9	2.20e-06	0	60	0	1258291200	51	4623
2026-01-20 09:11:40.25	7.61	24.67	-39.9	-42.1	13.9	3.00e-06	0	60	0	1270874112	51	4644
2026-01-20 09:11:44.28	6.93	24.16	-40.3	-42.8	13.2	2.59e-05	0	60	0	1283457024	51	5027
2026-01-20 09:11:48.32	6.28	23.66	-40.5	-43.0	12.9	4.27e-05	0	60	0	1296039936	51	5151
2026-01-20 09:11:52.36	5.65	23.16	-40.3	-42.8	13.2	2.97e-05	0	60	0	1308622848	51	4992
2026-01-20 09:11:56.40	5.03	22.67	-40.1	-42.6	13.3	1.60e-05	0	60	0	1321205760	51	4877
2026-01-20 09:12:00.44	4.44	22.19	-40.0	-42.4	13.4	1.52e-05	0	60	0	1333788672	51	4797
2026-01-20 09:12:04.48	3.86	21.71	-39.9	-42.3	13.5	1.75e-05	0	60	0	1346371584	51	4714
2026-01-20 09:12:08.52	3.31	21.23	-39.9	-42.3	13.5	9.90e-06	0	60	0	1358954496	51	4719
2026-01-20 09:12:12.56	2.77	20.77	-39.9	-42.3	13.4	1.22e-05	0	60	0	1371537408	51	4732
2026-01-20 09:12:16.60	2.24	20.30	-40.0	-42.4	13.3	1.44e-05	0	60	0	1384120320	51	4800
2026-01-20 09:12:20.64	1.74	19.85	-40.1	-42.5	13.1	2.51e-05	0	60	0	1396703232	51	4863
2026-01-20 09:12:24.68	1.24	19.40	-39.9	-42.3	13.3	2.67e-05	0	60	0	1409286144	51	4729
2026-01-20 09:12:28.71	0.77	18.95	-39.6	-41.9	13.6	8.30e-06	0	60	0	1421869056	51	4514
2026-01-20 09:12:32.75	0.30	18.52	-39.5	-41.8	13.6	1.29e-05	0	60	0	1434451968	51	4462
2026-01-20 09:12:36.79	359.85	18.08	-39.6	-42.0	13.4	1.83e-05	0	60	0	1448083456	50	4832
2026-01-20 09:12:40.82	359.42	17.66	-40.0	-42.6	12.6	7.70e-05	0	60	0	1460666368	50	5200
2026-01-20 09:12:44.86	358.99	17.24	-40.2	-43.0	12.0	2.53e-04	0	60	0	1473249280	50	5440
2026-01-20 09:12:48.90	358.58	16.82	-40.1	-43.0	11.8	3.89e-04	0	60	0	1485832192	50	5437
2026-01-20 09:12:52.94	358.18	16.41	-39.9	-43.0	11.6	7.51e-04	0	60	0	1498415104	50	5406
2026-01-20 09:12:56.98	357.79	16.01	-40.0	-43.2	11.1	1.53e-03	0	60	0	1510998016	50	5546
2026-01-20 09:13:01.02	357.41	15.61	-39.7	-42.8	11.3	1.11e-03	0	60	0	1523580928	50	5315
2026-01-20 09:13:05.06	357.04	15.21	-39.7	-43.1	10.7	3.06e-03	0	60	0	1536163840	50	5525
2026-01-20 09:13:09.10	356.68	14.82	-39.7	-43.4	10.2	5.32e-03	0	60	0	1548746752	50	5694
2026-01-20 09:13:13.14	356.33	14.44	-40.3	-45.2	8.0	5.55e-02	0	61	0	1561329664	51	6617
2026-01-20 09:13:17.18	355.99	14.06	-40.7	-47.8	5.4	4.69e-01	0	61	0	1573912576	52	8371
2026-01-20 09:13:21.21	355.66	13.69	-40.8	-52.3	3.8	1.49e+00	0	60	104	1577058304	52	14203
2026-01-20 09:13:25.25	355.33	13.32	-41.4	-52.3	3.8	1.49e+00	0	61	104	1577058304	53	13395
2026-01-20 09:13:29.29	355.02	12.95	-40.8	-52.8	3.8	1.49e+00	0	61	104	1577058304	53	14091
2026-01-20 09:13:33.33	354.71	12.59	-40.4	-53.0	3.8	1.49e+00	0	60	104	1577058304	52	15303
2026-01-20 09:13:37.36	354.41	12.23	-40.4	-52.9	3.8	1.49e+00	0	61	104	1577058304	52	15084
2026-01-20 09:13:41.40	354.12	11.88	-40.3	-52.8	3.8	1.49e+00	0	61	104	1577058304	52	15014
2026-01-20 09:13:45.44	353.84	11.53	-40.3	-52.8	3.8	1.49e+00	0	61	104	1577058304	52	14979
2026-01-20 09:13:49.48	353.56	11.19	-40.4	-52.9	3.8	1.49e+00	0	61	104	1577058304	51	15954
2026-01-20 09:13:53.52	353.29	10.85	-40.4	-52.9	3.8	1.49e+00	0	61	104	1577058304	51	16049
2026-01-20 09:13:57.56	353.02	10.52	-40.5	-53.0	3.8	1.49e+00	0	61	104	1577058304	51	16251
2026-01-20 09:14:01.60	352.77	10.19	-40.6	-53.0	3.8	1.49e+00	0	61	104	1577058304	51	16302
2026-01-20 09:14:05.63	352.52	9.86	-40.5	-53.0	3.8	1.49e+00	0	61	104	1577058304	51	16249
2026-01-20 09:14:09.67	352.27	9.53	-40.5	-53.0	3.8	1.49e+00	0	61	104	1577058304	51	16203
2026-01-20 09:14:13.71	352.03	9.21	-40.6	-53.0	3.8	1.49e+00	0	61	104	1577058304	51	16187
2026-01-20 09:14:17.74	351.80	8.90	-40.6	-53.0	3.8	1.49e+00	0	61	104	1577058304	51	16225
2026-01-20 09:14:21.78	351.57	8.58	-40.7	-53.0	3.8	1.49e+00	0	61	104	1577058304	52	15384
2026-01-20 09:14:25.82	351.34	8.27	-40.8	-53.1	3.8	1.49e+00	0	61	104	1577058304	52	15554
2026-01-20 09:14:29.86	351.12	7.97	-40.4	-53.0	3.8	1.49e+00	0	61	104	1577058304	52	15246
2026-01-20 09:14:33.90	350.91	7.67	-44.9	-57.4	3.8	1.49e+00	0	60	104	1577058304	60	15949
2026-01-20 09:14:37.94	350.70	7.37	-45.3	-57.7	3.8	1.49e+00	0	61	104	1577058304	61	15606
2026-01-20 09:14:41.99	350.49	7.07	-45.2	-57.6	3.8	1.49e+00	0	61	104	1577058304	61	15517
2026-01-20 09:14:46.03	350.29	6.77	-45.2	-57.5	3.8	1.49e+00	0	61	104	1577058304	61	15332
2026-01-20 09:14:50.07	350.10	6.48	-45.1	-57.5	3.8	1.49e+00	0	61	104	1577058304	60	16171
2026-01-20 09:14:54.12	349.91	6.19	-45.1	-57.5	3.8	1.49e+00	0	61	104	1577058304	60	16163
2026-01-20 09:14:58.16	349.72	5.91	-45.1	-57.4	3.8	1.49e+00	0	61	104	1577058304	60	16112
2026-01-20 09:15:02.20	349.53	5.63	-45.1	-57.4	3.8	1.49e+00	0	61	104	1577058304	60	16067
2026-01-20 09:15:06.24	349.35	5.35	-44.8	-57.4	3.8	1.49e+00	0	61	104	1577058304	60	16057
2026-01-20 09:15:10.29	349.18	5.07	-45.0	-57.4	3.8	1.49e+00	0	61	104	1577058304	60	16000
2026-01-20 09:15:14.33	349.00	4.79	-45.1	-57.4	3.8	1.49e+00	0	61	104	1577058304	60	16067
2026-01-20 09:15:18.37	348.83	4.52	-45.1	-57.4	3.8	1.49e+00	0	61	104	1577058304	60	16059
2026-01-20 09:15:22.41	348.67	4.25	-45.1	-57.4	3.8	1.49e+00	0	61	104	1577058304	60	16071
2026-01-20 09:15:26.45	348.51	3.99	-45.1	-57.4	3.8	1.49e+00	0	61	104	1577058304	60	16122
2026-01-20 09:15:30.50	348.35	3.72	-45.1	-57.4	3.8	1.49e+00	0	61	104	1577058304	60	16047
2026-01-20 09:15:34.54	348.19	3.46	-45.0	-57.4	3.8	1.49e+00	0	61	104	1577058304	60	16028
2026-01-20 09:15:38.58	348.04	3.20	-45.1	-57.4	3.8	1.49e+00	0	61	104	1577058304	60	16079
2026-01-20 09:15:42.62	347.89	2.94	-45.1	-57.4	3.8	1.49e+00	0	61	104	1577058304	60	16020
2026-01-20 09:15:46.66	347.74	2.68	-45.1	-57.4	3.8	1.49e+00	0	61	104	1577058304	60	16026
2026-01-20 09:15:50.70	347.59	2.43	-45.1	-57.4	3.8	1.49e+00	0	61	104	1577058304	60	16040
2026-01-20 09:15:54.74	347.45	2.18	-45.1	-57.4	3.8	1.49e+00	0	61	104	1577058304	60	15982
2026-01-20 09:15:58.78	347.31	1.93	-44.9	-57.4	3.8	1.49e+00	0	61	104	1577058304	60	16045

#Closed at: 2026-01-20 09:16:00
#Recorded file [1577 MB]: D:/lorett/data/31039_260120_120206.dat