passes_logs/2026/01/20/R2.0S_Moscow/R2.0S_Moscow__20260120_120945_FENGYUN_3D_rec.log

#Pass ID: 20260120_120945_FENGYUN 3D
#Satellite: FENGYUN 3D
#Configuration: FENGYUN 3D
#almurnet v.1.7.20251203
#Start time: 2026-01-20 12:09:45

#Version: 2.2.20231116
#Station: R2.0S_Moscow
#Location: 37.707566 lon 55.798166 lat
#TLE: 1 43010U 17072A   26019.65504262 -.00000232  00000+0 -88147-4 0  9993
#TLE: 2 43010  98.9941 351.5427 0002443 100.5024 259.6427 14.19695886423913

#Time	Az	El	Level	Level2	SNR	BER	BlckErr	Temp	State	Recorded	gain1	gain2
2026-01-20 12:09:45.42	165.89	2.02	-43.9	-55.4	3.8	8.45e-01	0	51	0	0	59	13537
2026-01-20 12:09:49.46	165.93	2.28	-43.8	-55.4	3.8	8.45e-01	0	51	104	0	59	13508
2026-01-20 12:09:53.51	165.98	2.55	-43.9	-55.4	3.8	8.47e-01	0	52	104	0	59	13510
2026-01-20 12:09:57.55	166.03	2.81	-43.8	-55.4	3.8	8.47e-01	0	52	104	0	59	13480
2026-01-20 12:10:01.59	166.08	3.08	-43.8	-55.4	3.8	8.46e-01	0	52	104	0	59	13535
2026-01-20 12:10:05.63	166.12	3.35	-43.8	-55.4	3.8	8.46e-01	0	52	104	0	59	13508
2026-01-20 12:10:09.67	166.17	3.62	-43.8	-55.4	3.8	8.45e-01	0	53	104	0	59	13532
2026-01-20 12:10:13.71	166.22	3.90	-43.8	-55.4	3.8	8.45e-01	0	53	104	0	59	13490
2026-01-20 12:10:17.76	166.27	4.18	-43.8	-55.4	3.8	8.45e-01	0	53	104	0	59	13509
2026-01-20 12:10:21.80	166.32	4.46	-43.8	-55.4	3.8	8.46e-01	0	53	104	0	59	13461
2026-01-20 12:10:25.84	166.38	4.75	-43.8	-55.4	3.8	8.45e-01	0	54	104	0	59	13496
2026-01-20 12:10:29.88	166.43	5.03	-43.8	-55.2	3.8	8.46e-01	0	54	104	0	59	13259
2026-01-20 12:10:33.93	166.48	5.33	-43.7	-54.4	3.8	8.46e-01	0	54	104	0	59	12077
2026-01-20 12:10:37.97	166.54	5.62	-43.3	-51.3	4.3	8.33e-01	0	54	0	0	58	8940
2026-01-20 12:10:42.01	166.59	5.92	-43.1	-50.3	4.7	7.88e-01	0	54	0	0	57	8397
2026-01-20 12:10:46.05	166.65	6.22	-43.0	-50.1	4.8	8.02e-01	0	55	0	0	57	8263
2026-01-20 12:10:50.09	166.71	6.52	-43.2	-51.2	4.4	8.33e-01	0	54	0	0	57	9321
2026-01-20 12:10:54.13	166.76	6.83	-43.5	-53.0	4.0	8.44e-01	0	55	104	0	57	11542
2026-01-20 12:10:58.17	166.82	7.14	-42.9	-49.6	5.1	7.63e-01	0	55	0	0	57	7728
2026-01-20 12:11:02.21	166.88	7.46	-41.1	-45.1	8.8	5.03e-02	0	55	0	19922944	54	5493
2026-01-20 12:11:06.25	166.95	7.78	-40.0	-42.9	11.1	2.05e-03	0	55	0	41943040	51	5100
2026-01-20 12:11:10.30	167.01	8.10	-39.7	-42.5	11.7	8.97e-04	0	56	0	65011712	51	4834
2026-01-20 12:11:14.33	167.07	8.43	-41.4	-45.4	8.5	3.91e-01	0	56	0	75497472	54	5712
2026-01-20 12:11:18.37	167.14	8.76	-39.2	-41.7	12.5	1.82e-04	0	56	0	97517568	50	4690
2026-01-20 12:11:22.41	167.20	9.10	-39.2	-41.7	12.6	1.67e-04	0	56	0	120586240	50	4687
2026-01-20 12:11:26.45	167.27	9.44	-39.1	-41.5	12.9	8.69e-05	0	56	0	142606336	50	4554
2026-01-20 12:11:30.49	167.34	9.79	-39.2	-41.6	12.8	7.89e-05	0	56	0	165675008	50	4629
2026-01-20 12:11:34.53	167.41	10.14	-39.1	-41.6	12.9	6.52e-05	0	56	0	188743680	50	4609
2026-01-20 12:11:38.57	167.48	10.50	-39.1	-41.5	13.0	6.29e-05	0	56	0	211812352	50	4584
2026-01-20 12:11:42.60	167.56	10.86	-39.1	-41.4	13.1	5.95e-05	0	56	0	233832448	50	4520
2026-01-20 12:11:46.65	167.63	11.23	-39.1	-41.4	13.2	4.23e-05	0	56	0	256901120	50	4510
2026-01-20 12:11:50.69	167.71	11.60	-39.1	-41.4	13.2	3.54e-05	0	57	0	279969792	49	4782
2026-01-20 12:11:54.73	167.79	11.98	-39.1	-41.5	13.2	3.20e-05	0	57	0	301989888	49	4828
2026-01-20 12:11:58.77	167.87	12.36	-39.1	-41.4	13.2	4.23e-05	0	57	0	325058560	49	4801
2026-01-20 12:12:02.81	167.95	12.75	-39.0	-41.3	13.4	2.17e-05	0	57	0	347078656	49	4726
2026-01-20 12:12:06.84	168.03	13.15	-39.0	-41.3	13.4	1.94e-05	0	57	0	370147328	49	4723
2026-01-20 12:12:10.88	168.12	13.55	-38.7	-40.9	13.8	9.10e-06	0	57	0	393216000	49	4538
2026-01-20 12:12:14.92	168.20	13.96	-38.6	-40.8	13.9	1.02e-05	0	57	0	416284672	49	4473
2026-01-20 12:12:18.96	168.29	14.38	-38.5	-40.6	14.2	1.10e-06	0	57	0	438304768	49	4341
2026-01-20 12:12:23.00	168.39	14.80	-38.4	-40.5	14.3	0.00e+00	0	57	0	461373440	48	4548
2026-01-20 12:12:27.04	168.48	15.23	-38.2	-40.1	14.7	2.20e-06	0	57	0	484442112	48	4376
2026-01-20 12:12:31.07	168.58	15.67	-38.1	-40.0	14.9	0.00e+00	0	57	0	506462208	48	4316
2026-01-20 12:12:35.11	168.68	16.12	-37.9	-39.8	15.0	0.00e+00	0	57	0	529530880	47	4464
2026-01-20 12:12:39.16	168.78	16.57	-37.6	-39.5	15.2	0.00e+00	0	58	0	551550976	47	4330
2026-01-20 12:12:43.20	168.88	17.04	-37.6	-39.5	15.3	0.00e+00	0	57	0	574619648	47	4332
2026-01-20 12:12:47.23	168.99	17.51	-37.6	-39.4	15.4	0.00e+00	0	57	0	597688320	47	4291
2026-01-20 12:12:51.27	169.10	17.99	-37.5	-39.4	15.4	0.00e+00	0	58	0	620756992	46	4514
2026-01-20 12:12:55.31	169.22	18.49	-37.5	-39.4	15.5	0.00e+00	0	58	0	642777088	46	4500
2026-01-20 12:12:59.36	169.33	18.99	-37.4	-39.2	15.6	0.00e+00	0	58	0	665845760	46	4438
2026-01-20 12:13:03.39	169.46	19.50	-37.4	-39.2	15.6	0.00e+00	0	58	0	688914432	46	4422
2026-01-20 12:13:07.43	169.58	20.02	-37.1	-38.9	15.9	0.00e+00	0	58	0	710934528	46	4270
2026-01-20 12:13:11.46	169.71	20.56	-37.1	-38.9	15.9	0.00e+00	0	58	0	734003200	46	4261
2026-01-20 12:13:15.51	169.84	21.10	-37.0	-38.7	16.1	0.00e+00	0	58	0	756023296	45	4406
2026-01-20 12:13:19.55	169.98	21.66	-37.0	-38.7	16.1	0.00e+00	0	58	0	779091968	45	4413
2026-01-20 12:13:23.59	170.12	22.23	-36.6	-38.3	16.6	0.00e+00	0	58	0	802160640	45	4199
2026-01-20 12:13:27.62	170.27	22.81	-36.5	-38.2	16.7	0.00e+00	0	58	0	825229312	45	4150
2026-01-20 12:13:31.66	170.42	23.41	-36.6	-38.3	16.6	0.00e+00	0	58	0	847249408	45	4207
2026-01-20 12:13:35.71	170.58	24.02	-36.7	-38.4	16.5	0.00e+00	0	58	0	870318080	45	4250
2026-01-20 12:13:39.75	170.74	24.65	-36.7	-38.4	16.5	0.00e+00	0	58	0	893386752	45	4272
2026-01-20 12:13:43.78	170.91	25.28	-36.4	-38.1	16.9	0.00e+00	0	58	0	915406848	44	4345
2026-01-20 12:13:47.82	171.09	25.94	-36.3	-37.9	17.1	0.00e+00	0	58	0	938475520	44	4251
2026-01-20 12:13:51.86	171.27	26.61	-36.2	-37.8	17.2	0.00e+00	0	58	0	961544192	44	4195
2026-01-20 12:13:55.90	171.46	27.30	-36.3	-37.8	17.1	0.00e+00	0	58	0	983564288	44	4241
2026-01-20 12:13:59.93	171.66	28.00	-36.3	-37.9	17.0	0.00e+00	0	58	0	1006632960	44	4270
2026-01-20 12:14:03.98	171.86	28.73	-36.4	-38.0	16.9	0.00e+00	0	58	0	1029701632	44	4337
2026-01-20 12:14:08.01	172.08	29.47	-36.4	-38.0	16.9	0.00e+00	0	58	0	1051721728	44	4323
2026-01-20 12:14:12.05	172.30	30.23	-36.4	-38.0	16.9	0.00e+00	0	58	0	1074790400	44	4320
2026-01-20 12:14:16.08	172.54	31.01	-36.2	-37.8	17.1	0.00e+00	0	58	0	1097859072	44	4223
2026-01-20 12:14:20.13	172.79	31.82	-36.2	-37.8	17.2	0.00e+00	0	59	0	1119879168	44	4206
2026-01-20 12:14:24.17	173.04	32.65	-36.0	-37.5	17.4	0.00e+00	0	58	0	1142947840	44	4087
2026-01-20 12:14:28.20	173.32	33.49	-36.1	-37.6	17.4	0.00e+00	0	59	0	1164967936	44	4139
2026-01-20 12:14:32.24	173.60	34.36	-35.6	-37.1	17.7	0.00e+00	0	58	0	1188036608	43	4126
2026-01-20 12:14:36.28	173.90	35.26	-35.8	-37.3	17.5	0.00e+00	0	59	0	1211105280	43	4209
2026-01-20 12:14:40.31	174.22	36.18	-35.7	-37.2	17.6	0.00e+00	0	59	0	1234173952	43	4171
2026-01-20 12:14:44.36	174.55	37.13	-35.5	-36.9	17.9	0.00e+00	0	59	0	1256194048	42	4287
2026-01-20 12:14:48.40	174.91	38.10	-35.6	-37.0	17.8	0.00e+00	0	59	0	1279262720	42	4329
2026-01-20 12:14:52.44	175.29	39.11	-35.7	-37.2	17.7	0.00e+00	0	59	0	1302331392	42	4413
2026-01-20 12:14:56.48	175.68	40.14	-35.6	-37.0	17.9	0.00e+00	0	59	0	1324351488	42	4326
2026-01-20 12:15:00.52	176.11	41.20	-35.7	-37.2	17.7	0.00e+00	0	58	0	1347420160	42	4410
2026-01-20 12:15:04.56	176.56	42.29	-36.4	-38.0	17.0	0.00e+00	0	59	0	1370488832	43	4553
2026-01-20 12:15:08.60	177.05	43.41	-35.9	-37.3	17.6	0.00e+00	0	59	0	1392508928	43	4239
2026-01-20 12:15:12.64	177.57	44.56	-36.3	-37.8	17.2	0.00e+00	0	59	0	1415577600	43	4477
2026-01-20 12:15:16.68	178.12	45.75	-36.6	-38.2	16.8	0.00e+00	0	59	0	1438646272	43	4692
2026-01-20 12:15:20.73	178.73	46.97	-36.0	-37.5	17.5	0.00e+00	0	59	0	1460666368	43	4316
2026-01-20 12:15:24.77	179.37	48.22	-36.4	-37.9	17.1	0.00e+00	0	59	0	1483735040	43	4543
2026-01-20 12:15:28.80	180.07	49.50	-36.3	-37.9	17.2	0.00e+00	0	59	0	1506803712	43	4504
2026-01-20 12:15:32.84	180.84	50.82	-36.7	-38.3	16.8	0.00e+00	0	59	0	1528823808	43	4746
2026-01-20 12:15:36.88	181.67	52.16	-37.1	-38.7	16.5	0.00e+00	0	59	0	1551892480	44	4700
2026-01-20 12:15:40.92	182.58	53.54	-37.3	-39.0	16.3	0.00e+00	0	59	0	1574961152	45	4551
2026-01-20 12:15:44.96	183.59	54.96	-38.0	-39.9	15.4	0.00e+00	0	59	0	1596981248	46	4761
2026-01-20 12:15:49.00	184.69	56.40	-37.5	-39.2	15.9	0.00e+00	0	59	0	1620049920	46	4438
2026-01-20 12:15:53.03	185.92	57.86	-36.7	-38.3	16.9	0.00e+00	0	59	0	1643118592	45	4204
2026-01-20 12:15:57.07	187.28	59.35	-36.7	-38.3	17.0	0.00e+00	0	59	0	1665138688	44	4452
2026-01-20 12:16:01.11	188.82	60.86	-36.1	-37.6	17.6	0.00e+00	0	59	0	1688207360	44	4109
2026-01-20 12:16:05.15	190.54	62.38	-35.4	-36.8	18.2	0.00e+00	0	59	0	1711276032	42	4230
2026-01-20 12:16:09.19	192.50	63.92	-35.5	-37.0	18.0	0.00e+00	0	59	0	1733296128	42	4306
2026-01-20 12:16:13.23	194.73	65.46	-35.4	-36.8	18.2	0.00e+00	0	59	0	1756364800	42	4219
2026-01-20 12:16:17.27	197.30	66.99	-35.6	-37.1	17.9	0.00e+00	0	59	0	1779433472	42	4361
2026-01-20 12:16:21.32	200.26	68.50	-35.6	-37.1	17.9	0.00e+00	0	59	0	1801453568	42	4364
2026-01-20 12:16:25.36	203.70	69.97	-35.6	-37.1	17.9	0.00e+00	0	59	0	1824522240	42	4343
2026-01-20 12:16:29.40	207.71	71.39	-34.6	-35.9	18.9	0.00e+00	0	59	0	1847590912	41	4024
2026-01-20 12:16:33.44	212.39	72.72	-34.9	-36.2	18.6	0.00e+00	0	59	0	1869611008	41	4192
2026-01-20 12:16:37.48	217.87	73.94	-34.7	-36.0	18.8	0.00e+00	0	59	0	1892679680	40	4339
2026-01-20 12:16:41.52	224.22	75.01	-34.8	-36.2	18.6	0.00e+00	0	59	0	1915748352	40	4434
2026-01-20 12:16:45.55	231.46	75.88	-34.3	-35.7	19.1	0.00e+00	0	59	0	1937768448	40	4164
2026-01-20 12:16:49.60	239.58	76.52	-34.6	-36.0	18.8	0.00e+00	0	59	0	1960837120	40	4317
2026-01-20 12:16:53.64	248.32	76.87	-34.5	-35.8	18.9	0.00e+00	0	59	0	1983905792	40	4225
2026-01-20 12:16:57.67	257.30	76.91	-34.1	-35.5	19.2	0.00e+00	0	59	0	2005925888	40	4057
2026-01-20 12:17:01.71	266.15	76.65	-34.4	-35.7	19.1	0.00e+00	0	59	0	2028994560	40	4153
2026-01-20 12:17:05.76	274.48	76.09	-34.4	-35.7	19.1	1.10e-06	0	59	0	2052063232	40	4155
2026-01-20 12:17:09.79	281.96	75.28	-34.4	-35.7	19.0	0.00e+00	0	59	0	2074083328	40	4188
2026-01-20 12:17:13.83	288.56	74.26	-34.3	-35.6	19.1	0.00e+00	0	59	0	2097152000	40	4136
2026-01-20 12:17:17.87	294.27	73.08	-34.8	-36.3	18.5	0.00e+00	0	59	0	2120220672	40	4450
2026-01-20 12:17:21.91	299.16	71.78	-34.9	-36.3	18.6	0.00e+00	0	59	0	2143289344	40	4450
2026-01-20 12:17:25.95	303.35	70.38	-35.0	-36.4	18.5	0.00e+00	0	59	0	2165309440	40	4508
2026-01-20 12:17:29.99	306.93	68.93	-35.2	-36.6	18.3	0.00e+00	0	59	0	2188378112	41	4369
2026-01-20 12:17:34.03	310.01	67.43	-35.2	-36.6	18.3	0.00e+00	0	59	0	2210398208	41	4377
2026-01-20 12:17:38.07	312.68	65.91	-35.6	-37.1	17.9	0.00e+00	0	59	0	2233466880	41	4605
2026-01-20 12:17:42.11	315.00	64.38	-35.7	-37.2	17.7	0.00e+00	0	59	0	2256535552	42	4431
2026-01-20 12:17:46.15	317.03	62.84	-35.5	-37.0	18.0	0.00e+00	0	59	0	2278555648	42	4308
2026-01-20 12:17:50.19	318.81	61.32	-35.8	-37.3	17.7	0.00e+00	0	59	0	2301624320	42	4446
2026-01-20 12:17:54.23	320.40	59.81	-36.3	-37.8	17.2	0.00e+00	0	59	0	2324692992	43	4456
2026-01-20 12:17:58.27	321.81	58.32	-36.4	-38.0	17.0	0.00e+00	0	59	0	2347761664	43	4565
2026-01-20 12:18:02.30	323.07	56.85	-37.0	-38.6	16.6	0.00e+00	0	59	0	2369781760	44	4644
2026-01-20 12:18:06.35	324.21	55.40	-36.7	-38.3	16.9	0.00e+00	0	59	0	2392850432	44	4455
2026-01-20 12:18:10.38	325.24	53.99	-36.8	-38.3	17.1	0.00e+00	0	59	0	2414870528	44	4458
2026-01-20 12:18:14.43	326.18	52.61	-36.9	-38.4	17.1	0.00e+00	0	59	0	2437939200	44	4504
2026-01-20 12:18:18.46	327.03	51.26	-37.2	-38.8	16.6	0.00e+00	0	59	0	2461007872	45	4471
2026-01-20 12:18:22.50	327.81	49.94	-36.3	-37.7	17.7	0.00e+00	0	59	0	2483027968	44	4168
2026-01-20 12:18:26.54	328.53	48.65	-36.6	-38.0	17.4	0.00e+00	0	59	0	2506096640	44	4314
2026-01-20 12:18:30.58	329.20	47.39	-36.4	-37.8	17.6	0.00e+00	0	59	0	2529165312	44	4212
2026-01-20 12:18:34.61	329.81	46.17	-36.1	-37.4	18.0	0.00e+00	0	59	0	2552233984	44	4042
2026-01-20 12:18:38.65	330.38	44.98	-36.2	-37.6	17.8	0.00e+00	0	59	0	2574254080	44	4113
2026-01-20 12:18:42.69	330.91	43.83	-36.1	-37.5	17.9	0.00e+00	0	59	0	2597322752	44	4060
2026-01-20 12:18:46.73	331.41	42.70	-36.0	-37.4	18.0	0.00e+00	0	59	0	2619342848	44	4020
2026-01-20 12:18:50.76	331.87	41.61	-35.7	-37.0	18.1	0.00e+00	0	59	0	2642411520	43	4097
2026-01-20 12:18:54.80	332.30	40.54	-35.3	-36.5	18.6	0.00e+00	0	59	0	2665480192	42	4094
2026-01-20 12:18:58.84	332.71	39.51	-35.5	-36.8	18.4	0.00e+00	0	59	0	2687500288	42	4197
2026-01-20 12:19:02.88	333.09	38.50	-35.7	-37.0	18.1	0.00e+00	0	59	0	2710568960	42	4335
2026-01-20 12:19:06.92	333.46	37.52	-35.6	-36.9	18.2	0.00e+00	0	59	0	2733637632	42	4291
2026-01-20 12:19:10.96	333.80	36.57	-35.7	-37.0	18.2	0.00e+00	0	59	0	2756706304	42	4315
2026-01-20 12:19:15.00	334.12	35.64	-35.7	-37.1	18.1	0.00e+00	0	59	0	2778726400	42	4370
2026-01-20 12:19:19.04	334.43	34.74	-35.7	-37.0	18.1	0.00e+00	0	59	0	2801795072	42	4328
2026-01-20 12:19:23.08	334.72	33.86	-35.6	-37.0	18.1	0.00e+00	0	59	0	2823815168	42	4306
2026-01-20 12:19:27.12	335.00	33.01	-36.0	-37.4	17.7	0.00e+00	0	59	0	2846883840	42	4512
2026-01-20 12:19:31.16	335.26	32.18	-36.0	-37.4	17.7	0.00e+00	0	59	0	2869952512	42	4514
2026-01-20 12:19:35.20	335.51	31.38	-35.9	-37.3	17.7	0.00e+00	0	59	0	2891972608	42	4485
2026-01-20 12:19:39.23	335.75	30.59	-35.9	-37.3	17.7	0.00e+00	0	59	0	2915041280	42	4479
2026-01-20 12:19:43.27	335.99	29.83	-35.9	-37.3	17.7	0.00e+00	0	59	0	2938109952	42	4482
2026-01-20 12:19:47.31	336.21	29.08	-35.9	-37.3	17.7	0.00e+00	0	59	0	2961178624	42	4461
2026-01-20 12:19:51.35	336.42	28.35	-35.8	-37.2	17.8	0.00e+00	0	59	0	2983198720	42	4420
2026-01-20 12:19:55.39	336.62	27.64	-35.8	-37.2	17.7	0.00e+00	0	59	0	3006267392	42	4428
2026-01-20 12:19:59.42	336.81	26.95	-36.0	-37.5	17.5	0.00e+00	0	59	0	3028287488	42	4555
2026-01-20 12:20:03.46	337.00	26.28	-36.3	-37.8	17.1	0.00e+00	0	59	0	3051356160	43	4468
2026-01-20 12:20:07.50	337.18	25.62	-36.4	-37.9	17.0	0.00e+00	0	59	0	3074424832	43	4508
2026-01-20 12:20:11.54	337.35	24.98	-36.4	-37.9	16.9	0.00e+00	0	59	0	3096444928	43	4541
2026-01-20 12:20:15.58	337.52	24.35	-36.4	-37.9	16.8	0.00e+00	0	59	0	3119513600	43	4539
2026-01-20 12:20:19.62	337.68	23.74	-36.4	-38.0	16.7	0.00e+00	0	59	0	3142582272	43	4553
2026-01-20 12:20:23.66	337.84	23.14	-36.4	-38.0	16.6	0.00e+00	0	59	0	3165650944	43	4546
2026-01-20 12:20:27.70	337.99	22.56	-36.4	-38.0	16.5	0.00e+00	0	59	0	3187671040	43	4546
2026-01-20 12:20:31.74	338.14	21.98	-36.5	-38.1	16.2	0.00e+00	0	59	0	3210739712	43	4641
2026-01-20 12:20:35.78	338.28	21.43	-36.7	-38.4	15.7	0.00e+00	0	59	0	3232759808	43	4776
2026-01-20 12:20:39.82	338.41	20.88	-36.7	-38.4	15.7	0.00e+00	0	59	0	3255828480	44	4517
2026-01-20 12:20:43.86	338.55	20.34	-36.9	-38.7	15.2	0.00e+00	0	59	0	3278897152	44	4669
2026-01-20 12:20:47.90	338.68	19.82	-37.4	-39.4	14.2	2.20e-06	0	59	0	3300917248	45	4802
2026-01-20 12:20:51.94	338.80	19.30	-38.0	-40.3	13.2	4.92e-05	0	59	0	3323985920	46	4988
2026-01-20 12:20:55.98	338.92	18.80	-38.5	-41.1	12.1	4.29e-04	0	59	0	3347054592	47	5192
2026-01-20 12:21:00.02	339.04	18.31	-39.0	-42.0	11.0	2.10e-03	0	60	0	3370123264	48	5438
2026-01-20 12:21:04.05	339.16	17.82	-39.6	-43.0	9.8	1.09e-02	0	59	0	3392143360	49	5782
2026-01-20 12:21:08.09	339.27	17.35	-40.0	-43.9	8.8	3.79e-02	0	59	0	3415212032	50	6057
2026-01-20 12:21:12.13	339.38	16.88	-40.3	-45.0	7.5	1.21e-01	0	59	0	3437232128	51	6456
2026-01-20 12:21:16.17	339.48	16.43	-41.2	-46.4	6.4	2.63e-01	0	59	0	3460300800	52	7129
2026-01-20 12:21:20.20	339.59	15.98	-41.4	-51.5	3.8	8.46e-01	0	60	104	3470786560	53	12197
2026-01-20 12:21:24.24	339.69	15.54	-41.3	-48.7	4.6	8.10e-01	0	59	0	3470786560	54	8306
2026-01-20 12:21:28.28	339.79	15.11	-41.1	-49.0	4.4	8.27e-01	0	60	0	3470786560	54	8661
2026-01-20 12:21:32.32	339.88	14.68	-41.9	-52.3	3.8	8.45e-01	0	60	104	3470786560	54	12654
2026-01-20 12:21:36.35	339.98	14.26	-41.3	-50.3	4.1	8.43e-01	0	60	0	3470786560	54	9978
2026-01-20 12:21:40.39	340.07	13.85	-41.4	-52.0	3.8	8.47e-01	0	59	104	3470786560	53	12891
2026-01-20 12:21:44.43	340.16	13.45	-41.3	-51.2	3.9	8.46e-01	0	59	104	3470786560	53	11742
2026-01-20 12:21:48.46	340.24	13.05	-41.5	-52.4	3.8	8.47e-01	0	60	104	3470786560	53	13437
2026-01-20 12:21:52.50	340.33	12.66	-40.9	-51.9	3.8	8.46e-01	0	60	104	3470786560	53	12748
2026-01-20 12:21:56.53	340.41	12.28	-40.9	-52.1	3.8	8.46e-01	0	59	104	3470786560	53	13079
2026-01-20 12:22:00.55	340.50	11.90	-41.0	-52.2	3.8	8.46e-01	0	60	104	3470786560	53	13258
2026-01-20 12:22:04.59	340.58	11.53	-41.0	-52.4	3.8	8.45e-01	0	59	104	3470786560	52	14210
2026-01-20 12:22:08.63	340.66	11.16	-40.9	-52.4	3.8	8.47e-01	0	60	104	3470786560	52	14222
2026-01-20 12:22:12.66	340.73	10.80	-40.8	-52.3	3.8	8.45e-01	0	60	104	3470786560	52	14161
2026-01-20 12:22:16.70	340.81	10.44	-40.8	-52.3	3.8	8.47e-01	0	60	104	3470786560	52	14189
2026-01-20 12:22:20.74	340.89	10.09	-40.7	-52.4	3.8	8.46e-01	0	59	104	3470786560	52	14217
2026-01-20 12:22:24.78	340.96	9.74	-40.7	-52.4	3.8	8.46e-01	0	60	104	3470786560	52	14227
2026-01-20 12:22:28.81	341.03	9.40	-40.6	-52.3	3.8	8.46e-01	0	60	104	3470786560	52	14147
2026-01-20 12:22:32.85	341.10	9.06	-40.6	-52.3	3.8	8.46e-01	0	60	104	3470786560	52	14202
2026-01-20 12:22:36.89	341.17	8.73	-40.7	-52.4	3.8	8.45e-01	0	60	104	3470786560	52	14276
2026-01-20 12:22:40.93	341.24	8.40	-40.8	-52.4	3.8	8.46e-01	0	60	104	3470786560	52	14307
2026-01-20 12:22:44.97	341.31	8.08	-40.8	-52.4	3.8	8.46e-01	0	59	104	3470786560	52	14238
2026-01-20 12:22:49.01	341.38	7.76	-44.7	-56.4	3.8	8.47e-01	0	60	104	3470786560	60	14340
2026-01-20 12:22:53.06	341.44	7.44	-45.2	-56.9	3.8	8.46e-01	0	60	104	3470786560	60	15113
2026-01-20 12:22:57.10	341.50	7.13	-45.2	-56.8	3.8	8.47e-01	0	60	104	3470786560	60	15032
2026-01-20 12:23:01.14	341.57	6.82	-45.1	-56.8	3.8	8.46e-01	0	60	104	3470786560	60	14978
2026-01-20 12:23:05.19	341.63	6.51	-45.1	-56.7	3.8	8.45e-01	0	59	104	3470786560	60	14847
2026-01-20 12:23:09.23	341.69	6.21	-45.1	-56.7	3.8	8.46e-01	0	60	104	3470786560	60	14841
2026-01-20 12:23:13.27	341.75	5.91	-45.1	-56.7	3.8	8.46e-01	0	60	104	3470786560	60	14858
2026-01-20 12:23:17.31	341.81	5.62	-45.1	-56.7	3.8	8.46e-01	0	60	104	3470786560	60	14815
2026-01-20 12:23:21.35	341.87	5.33	-45.0	-56.8	3.8	8.46e-01	0	60	104	3470786560	60	14886
2026-01-20 12:23:25.39	341.93	5.04	-45.1	-56.7	3.8	8.46e-01	0	60	104	3470786560	60	14823
2026-01-20 12:23:29.44	341.99	4.75	-45.0	-56.7	3.8	8.47e-01	0	60	104	3470786560	60	14833
2026-01-20 12:23:33.48	342.04	4.47	-45.0	-56.7	3.8	8.46e-01	0	60	104	3470786560	60	14772
2026-01-20 12:23:37.52	342.10	4.19	-45.0	-56.7	3.8	8.46e-01	0	59	104	3470786560	60	14844
2026-01-20 12:23:41.56	342.15	3.92	-45.0	-56.7	3.8	8.47e-01	0	59	104	3470786560	60	14810
2026-01-20 12:23:45.60	342.21	3.64	-45.0	-56.7	3.8	8.46e-01	0	60	104	3470786560	60	14822
2026-01-20 12:23:49.64	342.26	3.37	-44.8	-56.7	3.8	8.46e-01	0	60	104	3470786560	60	14723
2026-01-20 12:23:53.68	342.32	3.10	-45.0	-56.7	3.8	8.45e-01	0	60	104	3470786560	60	14752
2026-01-20 12:23:57.72	342.37	2.84	-45.0	-56.7	3.8	8.46e-01	0	60	104	3470786560	60	14787
2026-01-20 12:24:01.75	342.42	2.58	-45.0	-56.7	3.8	8.46e-01	0	60	104	3470786560	60	14776
2026-01-20 12:24:05.80	342.47	2.31	-45.0	-56.7	3.8	8.46e-01	0	60	104	3470786560	60	14750
2026-01-20 12:24:09.84	342.52	2.06	-45.0	-56.7	3.8	8.46e-01	0	60	104	3470786560	60	14766

#Closed at: 2026-01-20 12:24:11
#Recorded file [3470 MB]: D:/lorett/data/31039_260120_150945.dat