passes_logs/2026/01/20/R2.0S_Moscow/R2.0S_Moscow__20260120_021844_AQUA_rec.log

#Pass ID: 20260120_021844_AQUA
#Satellite: AQUA
#Configuration: AQUA
#almurnet v.1.7.20251203
#Start time: 2026-01-20 02:18:44

#Version: 2.2.20231116
#Station: R2.0S_Moscow
#Location: 37.707566 lon 55.798166 lat
#TLE: 1 27424U 02022A   26019.27629806  .00001032  00000+0  21655-3 0  9990
#TLE: 2 27424  98.4090 345.7756 0001997  73.0764  31.8912 14.61830109261513

#Time	Az	El	Level	Level2	SNR	BER	BlckErr	Temp	State	Recorded	gain1	gain2
2026-01-20 02:18:44.37	10.18	2.00	-40.8	-60.0	3.8	7.44e-01	0	52	0	0	53	32331
2026-01-20 02:18:47.39	10.04	2.19	-40.8	-60.0	3.8	7.45e-01	0	52	104	0	52	34202
2026-01-20 02:18:50.42	9.90	2.39	-40.8	-60.0	3.8	7.44e-01	0	53	104	0	52	34234
2026-01-20 02:18:53.45	9.76	2.58	-40.8	-60.0	3.8	7.51e-01	0	53	104	0	52	34281
2026-01-20 02:18:56.48	9.61	2.78	-40.8	-60.0	3.8	7.44e-01	0	53	104	0	52	34223
2026-01-20 02:18:59.52	9.46	2.97	-40.8	-60.0	3.8	7.44e-01	0	53	104	0	52	34206
2026-01-20 02:19:02.55	9.31	3.17	-40.8	-60.0	3.8	7.48e-01	0	53	104	0	52	34242
2026-01-20 02:19:05.58	9.16	3.37	-40.8	-60.0	3.8	7.44e-01	0	54	104	0	52	34165
2026-01-20 02:19:08.61	9.00	3.57	-40.8	-60.0	3.8	7.45e-01	0	54	104	0	52	34153
2026-01-20 02:19:11.64	8.84	3.77	-40.8	-60.0	3.8	7.43e-01	0	54	104	0	52	34190
2026-01-20 02:19:14.67	8.68	3.98	-40.8	-60.0	3.8	7.43e-01	0	55	104	0	52	34155
2026-01-20 02:19:17.70	8.52	4.18	-40.8	-60.0	3.8	7.43e-01	0	54	104	0	52	34169
2026-01-20 02:19:20.74	8.35	4.39	-40.8	-60.0	3.8	7.44e-01	0	55	104	0	52	34166
2026-01-20 02:19:23.77	8.18	4.60	-40.8	-60.0	3.8	7.43e-01	0	55	104	0	52	34130
2026-01-20 02:19:26.80	8.01	4.81	-40.8	-60.0	3.8	7.45e-01	0	55	104	0	52	34105
2026-01-20 02:19:29.83	7.83	5.02	-40.8	-60.0	3.8	7.49e-01	0	55	104	0	52	34128
2026-01-20 02:19:32.86	7.66	5.24	-40.8	-60.0	3.8	7.46e-01	0	55	104	0	52	34205
2026-01-20 02:19:35.89	7.47	5.45	-40.8	-59.9	3.8	7.44e-01	0	55	104	0	52	34069
2026-01-20 02:19:38.92	7.29	5.67	-40.8	-60.0	3.8	7.44e-01	0	56	104	0	52	34093
2026-01-20 02:19:41.95	7.10	5.89	-40.8	-60.0	3.8	7.48e-01	0	56	104	0	52	34146
2026-01-20 02:19:44.99	6.91	6.11	-40.8	-60.0	3.8	7.47e-01	0	56	104	0	52	34183
2026-01-20 02:19:48.01	6.72	6.33	-40.8	-59.9	3.8	7.46e-01	0	56	104	0	52	34058
2026-01-20 02:19:51.05	6.52	6.55	-40.8	-60.0	3.8	7.43e-01	0	56	104	0	52	34087
2026-01-20 02:19:54.08	6.32	6.78	-40.8	-59.9	3.8	7.44e-01	0	56	104	0	52	34051
2026-01-20 02:19:57.11	6.11	7.01	-40.8	-59.9	3.8	7.46e-01	0	56	104	0	52	34067
2026-01-20 02:20:00.14	5.90	7.24	-40.8	-59.9	3.8	7.47e-01	0	57	104	0	52	34001
2026-01-20 02:20:03.17	5.69	7.47	-40.8	-59.9	3.8	7.45e-01	0	57	104	0	52	34066
2026-01-20 02:20:06.20	5.48	7.70	-40.8	-59.9	3.8	7.45e-01	0	57	104	0	52	34012
2026-01-20 02:20:09.23	5.26	7.94	-40.8	-59.9	3.8	7.46e-01	0	57	104	0	52	34083
2026-01-20 02:20:12.27	5.03	8.17	-40.8	-60.0	3.8	7.47e-01	0	57	104	0	52	34250
2026-01-20 02:20:15.29	4.80	8.41	-40.9	-60.1	3.8	7.42e-01	0	57	104	0	52	34613
2026-01-20 02:20:18.32	4.57	8.66	-40.8	-60.0	3.8	7.47e-01	0	57	104	0	52	34435
2026-01-20 02:20:21.35	4.33	8.90	-40.9	-60.1	3.8	7.44e-01	0	57	104	0	52	34682
2026-01-20 02:20:24.38	4.09	9.15	-40.9	-60.0	3.8	7.44e-01	0	57	104	0	52	34415
2026-01-20 02:20:27.41	3.84	9.39	-40.9	-60.2	3.8	7.45e-01	0	58	104	0	52	35076
2026-01-20 02:20:30.44	3.59	9.64	-40.6	-60.0	3.8	7.47e-01	0	58	104	0	52	34398
2026-01-20 02:20:33.47	3.33	9.90	-41.0	-60.3	3.8	7.46e-01	0	58	104	0	53	33379
2026-01-20 02:20:36.50	3.07	10.15	-41.0	-60.2	3.8	7.42e-01	0	58	104	0	53	33300
2026-01-20 02:20:39.53	2.81	10.41	-41.0	-60.3	3.8	7.47e-01	0	58	104	0	53	33349
2026-01-20 02:20:42.55	2.53	10.67	-41.0	-60.2	3.8	7.44e-01	0	58	104	0	53	33160
2026-01-20 02:20:45.58	2.26	10.93	-41.0	-60.3	3.8	7.46e-01	0	58	104	0	53	33388
2026-01-20 02:20:48.61	1.97	11.20	-40.8	-60.1	3.8	7.45e-01	0	58	104	0	53	32853
2026-01-20 02:20:51.64	1.68	11.47	-40.9	-60.2	3.8	7.45e-01	0	59	104	0	53	33027
2026-01-20 02:20:54.67	1.39	11.74	-41.3	-60.7	3.8	7.46e-01	0	59	104	0	54	33121
2026-01-20 02:20:57.69	1.09	12.01	-41.1	-60.3	3.8	7.46e-01	0	59	104	0	53	33591
2026-01-20 02:21:00.70	0.78	12.28	-41.2	-60.5	3.8	7.46e-01	0	59	104	0	53	34124
2026-01-20 02:21:03.74	0.47	12.56	-41.2	-60.4	3.8	7.45e-01	0	59	104	0	54	32130
2026-01-20 02:21:06.76	0.15	12.84	-41.3	-60.6	3.8	7.46e-01	0	59	104	0	54	32567
2026-01-20 02:21:09.79	359.82	13.13	-42.2	-60.3	3.8	7.45e-01	0	59	104	0	55	30016
2026-01-20 02:21:12.82	359.48	13.41	-42.1	-57.5	3.8	7.44e-01	0	59	104	0	56	20459
2026-01-20 02:21:15.85	359.14	13.70	-43.8	-62.4	3.8	7.44e-01	0	59	104	0	58	31840
2026-01-20 02:21:18.88	358.79	13.99	-43.0	-58.3	3.8	7.49e-01	0	59	104	0	56	22350
2026-01-20 02:21:21.91	358.43	14.29	-40.8	-54.4	3.8	7.46e-01	0	59	104	0	53	17002
2026-01-20 02:21:24.94	358.07	14.59	-41.3	-55.2	3.8	7.46e-01	0	59	104	0	54	17567
2026-01-20 02:21:27.97	357.70	14.89	-42.2	-58.4	3.8	7.47e-01	0	59	104	0	54	25551
2026-01-20 02:21:31.00	357.31	15.19	-40.8	-53.9	3.8	7.44e-01	0	59	104	0	53	15980
2026-01-20 02:21:34.03	356.92	15.50	-43.5	-62.0	3.8	7.48e-01	0	59	104	0	57	32197
2026-01-20 02:21:37.06	356.52	15.81	-41.0	-54.7	3.8	7.46e-01	0	60	104	0	54	16536
2026-01-20 02:21:40.08	356.12	16.12	-42.5	-58.5	3.8	7.44e-01	0	60	104	0	55	24310
2026-01-20 02:21:43.12	355.70	16.44	-43.0	-60.5	3.8	7.46e-01	0	60	104	0	57	27279
2026-01-20 02:21:46.15	355.27	16.76	-42.2	-60.7	3.8	7.41e-01	0	60	104	0	56	29382
2026-01-20 02:21:49.18	354.83	17.08	-42.3	-61.2	3.8	7.47e-01	0	60	104	0	56	31245
2026-01-20 02:21:52.21	354.38	17.40	-41.9	-61.2	3.8	7.45e-01	0	60	104	0	54	35179
2026-01-20 02:21:55.23	353.92	17.73	-41.4	-60.9	3.8	7.45e-01	0	60	104	0	54	33728
2026-01-20 02:21:58.26	353.45	18.06	-41.4	-60.7	3.8	7.44e-01	0	60	104	0	54	33297
2026-01-20 02:22:01.29	352.97	18.40	-41.2	-61.0	3.8	7.47e-01	0	60	104	0	54	34104
2026-01-20 02:22:04.32	352.48	18.73	-41.6	-61.0	3.8	7.46e-01	0	60	104	0	54	34116
2026-01-20 02:22:07.35	351.97	19.07	-42.0	-61.3	3.8	7.45e-01	0	60	104	0	54	35329
2026-01-20 02:22:10.38	351.46	19.42	-41.8	-61.0	3.8	7.46e-01	0	60	104	0	54	34176
2026-01-20 02:22:13.40	350.93	19.76	-41.9	-61.0	3.8	7.44e-01	0	60	104	0	54	34170
2026-01-20 02:22:16.43	350.39	20.11	-42.0	-61.1	3.8	7.46e-01	0	60	104	0	54	34660
2026-01-20 02:22:19.46	349.83	20.46	-42.1	-61.4	3.8	7.46e-01	0	60	104	0	56	31972
2026-01-20 02:22:22.49	349.26	20.81	-42.1	-61.4	3.8	7.45e-01	0	60	104	0	55	33749
2026-01-20 02:22:25.52	348.67	21.17	-42.5	-59.2	3.8	7.45e-01	0	60	104	0	56	24924
2026-01-20 02:22:28.54	348.08	21.53	-41.6	-56.9	3.8	7.45e-01	0	60	104	0	55	20189
2026-01-20 02:22:31.57	347.46	21.89	-41.5	-55.3	3.9	7.45e-01	0	60	104	0	54	17691
2026-01-20 02:22:34.60	346.83	22.25	-41.3	-54.8	3.8	7.44e-01	0	61	104	0	54	16846
2026-01-20 02:22:37.63	346.19	22.62	-41.9	-55.9	3.8	7.46e-01	0	60	104	0	54	19007
2026-01-20 02:22:40.66	345.53	22.98	-42.3	-56.7	3.9	7.46e-01	0	60	104	0	56	18700
2026-01-20 02:22:43.69	344.85	23.35	-41.8	-54.9	3.8	7.45e-01	0	60	104	0	55	15983
2026-01-20 02:22:46.72	344.15	23.72	-43.7	-58.0	3.8	7.45e-01	0	60	104	0	59	18188
2026-01-20 02:22:49.74	343.44	24.09	-42.2	-55.2	3.8	7.48e-01	0	60	104	0	56	15723
2026-01-20 02:22:52.77	342.71	24.46	-44.8	-61.1	3.8	7.47e-01	0	60	104	0	60	24479
2026-01-20 02:22:55.80	341.96	24.84	-44.0	-58.8	3.7	7.46e-01	0	60	104	0	58	21147
2026-01-20 02:22:58.83	341.19	25.21	-42.3	-55.5	3.8	7.45e-01	0	60	104	0	56	16244
2026-01-20 02:23:01.85	340.40	25.58	-44.7	-59.8	3.8	7.46e-01	0	61	104	0	59	22416
2026-01-20 02:23:04.88	339.60	25.95	-42.4	-55.3	3.8	7.45e-01	0	61	104	0	56	15794
2026-01-20 02:23:07.91	338.77	26.33	-44.0	-57.9	3.8	7.46e-01	0	60	104	0	58	19102
2026-01-20 02:23:10.94	337.92	26.70	-44.0	-58.1	3.8	7.44e-01	0	61	104	0	59	18388
2026-01-20 02:23:13.96	337.05	27.07	-42.5	-55.4	3.8	7.44e-01	0	61	104	0	56	16066
2026-01-20 02:23:16.99	336.16	27.43	-44.9	-61.2	3.8	7.47e-01	0	61	104	0	60	24972
2026-01-20 02:23:20.02	335.25	27.80	-44.7	-60.0	3.8	7.46e-01	0	61	104	0	59	22800
2026-01-20 02:23:23.04	334.31	28.16	-42.2	-54.9	3.8	7.46e-01	0	61	104	0	56	15189
2026-01-20 02:23:26.07	333.36	28.52	-45.1	-61.5	3.8	7.44e-01	0	61	104	0	60	25775
2026-01-20 02:23:29.10	332.37	28.88	-42.1	-54.8	3.8	7.43e-01	0	61	104	0	56	14978
2026-01-20 02:23:32.13	331.37	29.23	-43.7	-57.3	3.8	7.44e-01	0	61	104	0	58	17828
2026-01-20 02:23:35.16	330.34	29.58	-44.1	-57.9	3.9	7.47e-01	0	61	104	0	59	18093
2026-01-20 02:23:38.19	329.30	29.92	-42.4	-55.2	3.8	7.47e-01	0	61	104	0	56	15611
2026-01-20 02:23:41.21	328.23	30.25	-45.0	-61.1	3.9	7.45e-01	0	61	104	0	61	23058
2026-01-20 02:23:44.24	327.13	30.58	-44.3	-58.8	3.8	7.44e-01	0	61	104	0	59	19913
2026-01-20 02:23:47.27	326.01	30.89	-42.2	-54.9	3.8	7.41e-01	0	61	104	0	56	15052
2026-01-20 02:23:50.30	324.87	31.20	-45.2	-61.6	3.9	7.44e-01	0	61	104	0	61	24522
2026-01-20 02:23:53.33	323.71	31.51	-42.3	-54.9	3.8	7.43e-01	0	61	104	0	56	15121
2026-01-20 02:23:56.36	322.52	31.80	-43.4	-56.6	3.8	7.47e-01	0	61	104	0	57	17413
2026-01-20 02:23:59.38	321.31	32.08	-42.5	-55.5	3.8	7.44e-01	0	61	104	0	57	15272
2026-01-20 02:24:02.41	320.08	32.35	-44.2	-49.5	14.4	6.06e-01	0	61	0	3670016	59	6823
2026-01-20 02:24:05.44	318.83	32.60	-43.5	-47.8	16.2	6.01e-01	0	61	0	9437184	59	5605
2026-01-20 02:24:08.47	317.56	32.85	-42.8	-46.5	17.5	6.02e-01	0	61	0	15204352	57	5405
2026-01-20 02:24:11.50	316.27	33.07	-42.2	-45.4	18.6	6.00e-01	0	61	0	20971520	56	5059
2026-01-20 02:24:14.52	314.97	33.29	-41.7	-44.7	19.3	6.01e-01	0	61	0	26738688	55	4929
2026-01-20 02:24:17.55	313.64	33.49	-41.7	-44.7	19.2	6.04e-01	0	61	0	31981568	55	4959
2026-01-20 02:24:20.58	312.30	33.67	-41.7	-44.6	19.4	6.00e-01	0	61	0	37748736	55	4872
2026-01-20 02:24:23.61	310.94	33.84	-41.6	-44.5	19.4	6.00e-01	0	61	0	43515904	55	4852
2026-01-20 02:24:26.63	309.57	33.99	-41.8	-44.8	19.1	6.00e-01	0	61	0	49283072	55	5025
2026-01-20 02:24:29.66	308.19	34.12	-41.5	-44.2	19.8	6.02e-01	0	61	0	55050240	54	4979
2026-01-20 02:24:32.69	306.80	34.24	-42.3	-45.6	18.4	6.01e-01	0	61	0	60817408	55	5492
2026-01-20 02:24:35.72	305.39	34.33	-41.4	-44.2	19.7	5.99e-01	0	61	0	66060288	54	4954
2026-01-20 02:24:38.75	303.98	34.41	-42.1	-45.3	18.7	6.01e-01	0	61	0	71827456	54	5643
2026-01-20 02:24:41.78	302.56	34.47	-41.8	-44.8	19.2	6.01e-01	0	61	0	77594624	54	5284
2026-01-20 02:24:44.81	301.14	34.50	-41.8	-44.7	19.2	6.00e-01	0	61	0	83361792	54	5254
2026-01-20 02:24:47.84	299.71	34.52	-42.0	-45.1	18.9	5.99e-01	0	61	0	89128960	55	5173
2026-01-20 02:24:50.87	298.29	34.52	-42.0	-45.2	18.8	6.05e-01	0	61	0	94371840	55	5238
2026-01-20 02:24:53.90	296.86	34.50	-42.2	-45.5	18.4	6.04e-01	0	61	0	100139008	55	5443
2026-01-20 02:24:56.93	295.44	34.46	-41.7	-44.6	19.3	6.03e-01	0	61	0	105906176	55	4882
2026-01-20 02:24:59.95	294.02	34.40	-42.1	-45.2	18.8	6.04e-01	0	61	0	111673344	55	5240
2026-01-20 02:25:02.98	292.61	34.32	-42.2	-45.4	18.4	6.02e-01	0	61	0	117440512	55	5346
2026-01-20 02:25:06.01	291.21	34.22	-41.8	-44.7	19.1	6.01e-01	0	61	0	123207680	55	4945
2026-01-20 02:25:09.03	289.82	34.11	-41.5	-44.3	19.6	6.03e-01	0	61	0	128974848	55	4742
2026-01-20 02:25:12.06	288.43	33.97	-41.9	-45.0	19.1	6.03e-01	0	61	0	134217728	55	5113
2026-01-20 02:25:15.09	287.06	33.82	-42.3	-45.6	18.4	6.01e-01	0	61	0	139984896	55	5498
2026-01-20 02:25:18.11	285.71	33.65	-42.0	-45.1	18.9	6.03e-01	0	61	0	145752064	55	5193
2026-01-20 02:25:21.15	284.36	33.46	-41.7	-44.6	19.4	6.01e-01	0	61	0	151519232	55	4880
2026-01-20 02:25:24.18	283.03	33.26	-42.2	-45.6	18.3	6.00e-01	0	61	0	157286400	55	5466
2026-01-20 02:25:27.20	281.73	33.04	-41.6	-44.5	19.4	6.02e-01	0	61	0	162529280	55	4833
2026-01-20 02:25:30.23	280.44	32.81	-42.2	-45.3	18.6	6.02e-01	0	61	0	168296448	55	5335
2026-01-20 02:25:33.26	279.17	32.57	-41.9	-45.0	19.0	5.99e-01	0	61	0	174063616	55	5102
2026-01-20 02:25:36.29	277.91	32.31	-42.4	-45.9	18.0	6.02e-01	0	61	0	179830784	55	5674
2026-01-20 02:25:39.32	276.68	32.04	-42.1	-45.4	18.5	6.02e-01	0	61	0	185597952	55	5349
2026-01-20 02:25:42.35	275.47	31.75	-41.8	-44.8	19.2	6.00e-01	0	61	0	191365120	55	4984
2026-01-20 02:25:45.38	274.29	31.46	-41.9	-44.9	19.0	6.00e-01	0	61	0	197132288	55	5070
2026-01-20 02:25:48.41	273.12	31.16	-41.9	-45.0	18.9	6.01e-01	0	61	0	202375168	55	5137
2026-01-20 02:25:51.43	271.98	30.84	-42.3	-45.6	18.3	6.03e-01	0	61	0	208142336	55	5480
2026-01-20 02:25:54.46	270.86	30.52	-42.1	-45.3	18.6	6.02e-01	0	61	0	213909504	55	5307
2026-01-20 02:25:57.49	269.77	30.19	-42.2	-45.4	18.5	5.98e-01	0	61	0	219676672	55	5384
2026-01-20 02:26:00.52	268.70	29.86	-41.9	-44.9	18.9	6.01e-01	0	61	0	225443840	55	5080
2026-01-20 02:26:03.55	267.65	29.52	-41.9	-45.0	18.9	6.01e-01	0	61	0	230686720	55	5105
2026-01-20 02:26:06.58	266.62	29.17	-42.1	-45.3	18.4	6.02e-01	0	61	0	236453888	55	5329
2026-01-20 02:26:09.60	265.62	28.82	-42.3	-45.6	18.3	6.03e-01	0	61	0	242221056	55	5484
2026-01-20 02:26:12.63	264.64	28.46	-41.9	-45.0	18.8	6.05e-01	0	61	0	247988224	55	5120
2026-01-20 02:26:15.65	263.68	28.10	-42.3	-45.7	18.1	6.02e-01	0	61	0	253755392	55	5555
2026-01-20 02:26:18.68	262.74	27.73	-42.1	-45.4	18.5	6.05e-01	0	61	0	259522560	55	5348
2026-01-20 02:26:21.71	261.83	27.36	-42.2	-45.5	18.3	6.01e-01	0	61	0	264765440	55	5420
2026-01-20 02:26:24.74	260.94	26.99	-42.1	-45.4	18.4	6.01e-01	0	61	0	270532608	55	5360
2026-01-20 02:26:27.77	260.07	26.62	-42.2	-45.5	18.3	6.01e-01	0	61	0	276299776	55	5427
2026-01-20 02:26:30.79	259.22	26.25	-42.1	-45.3	18.5	6.02e-01	0	61	0	282066944	55	5331
2026-01-20 02:26:33.82	258.39	25.88	-42.3	-45.6	18.1	6.01e-01	0	61	0	287834112	55	5520
2026-01-20 02:26:36.85	257.58	25.50	-42.1	-45.3	18.4	6.02e-01	0	61	0	293601280	55	5339
2026-01-20 02:26:39.87	256.79	25.13	-42.2	-45.6	18.2	6.03e-01	0	61	0	298844160	55	5465
2026-01-20 02:26:42.90	256.02	24.75	-42.2	-45.5	18.3	6.01e-01	0	61	0	304611328	55	5411
2026-01-20 02:26:45.93	255.27	24.38	-42.1	-45.3	18.4	5.99e-01	0	61	0	310378496	55	5328
2026-01-20 02:26:48.96	254.54	24.00	-42.2	-45.4	18.3	6.01e-01	0	61	0	316145664	55	5394
2026-01-20 02:26:51.99	253.82	23.63	-42.2	-45.6	18.2	6.04e-01	0	61	0	321912832	55	5479
2026-01-20 02:26:55.02	253.13	23.26	-42.2	-45.6	18.1	6.02e-01	0	61	0	327155712	55	5489
2026-01-20 02:26:58.04	252.45	22.89	-42.3	-45.7	18.0	6.05e-01	0	62	0	332922880	55	5544
2026-01-20 02:27:01.07	251.79	22.52	-42.2	-45.5	18.2	6.02e-01	0	61	0	338690048	55	5434
2026-01-20 02:27:04.10	251.14	22.16	-42.2	-45.5	18.2	6.00e-01	0	61	0	344457216	55	5420
2026-01-20 02:27:07.12	250.51	21.79	-42.2	-45.6	18.1	6.02e-01	0	61	0	350224384	55	5471
2026-01-20 02:27:10.15	249.90	21.43	-42.1	-45.4	18.3	6.01e-01	0	61	0	355991552	55	5373
2026-01-20 02:27:13.18	249.30	21.07	-42.1	-45.4	18.3	6.01e-01	0	61	0	361758720	55	5387
2026-01-20 02:27:16.21	248.71	20.71	-42.1	-45.4	18.2	6.01e-01	0	61	0	367001600	55	5392
2026-01-20 02:27:19.24	248.14	20.36	-42.2	-45.5	18.1	6.02e-01	0	61	0	372768768	55	5455
2026-01-20 02:27:22.27	247.58	20.00	-42.1	-45.5	18.2	6.02e-01	0	61	0	378535936	55	5427
2026-01-20 02:27:25.29	247.04	19.66	-42.1	-45.4	18.2	6.04e-01	0	61	0	384303104	55	5402
2026-01-20 02:27:28.32	246.51	19.31	-42.1	-45.5	18.1	6.03e-01	0	61	0	390070272	55	5431
2026-01-20 02:27:31.35	245.99	18.97	-42.0	-45.3	18.3	6.02e-01	0	61	0	395313152	55	5320
2026-01-20 02:27:34.38	245.48	18.62	-42.2	-45.6	18.0	6.01e-01	0	61	0	401080320	55	5495
2026-01-20 02:27:37.41	244.99	18.29	-42.2	-45.7	17.9	6.03e-01	0	61	0	406847488	55	5542
2026-01-20 02:27:40.44	244.50	17.95	-42.1	-45.4	18.2	6.02e-01	0	61	0	412614656	55	5371
2026-01-20 02:27:43.46	244.03	17.62	-42.1	-45.4	18.2	6.00e-01	0	61	0	418381824	55	5359
2026-01-20 02:27:46.49	243.57	17.29	-42.0	-45.4	18.2	6.01e-01	0	61	0	424148992	55	5364
2026-01-20 02:27:49.52	243.12	16.97	-42.0	-45.4	18.2	6.03e-01	0	61	0	429391872	55	5366
2026-01-20 02:27:52.55	242.68	16.64	-42.0	-45.2	18.3	6.02e-01	0	61	0	435159040	55	5271
2026-01-20 02:27:55.57	242.26	16.32	-42.1	-45.4	18.1	6.01e-01	0	61	0	440926208	55	5382
2026-01-20 02:27:58.60	241.84	16.01	-42.0	-45.3	18.3	6.01e-01	0	61	0	446693376	55	5289
2026-01-20 02:28:01.63	241.43	15.69	-42.0	-45.3	18.2	6.01e-01	0	62	0	452460544	55	5321
2026-01-20 02:28:04.66	241.02	15.38	-42.0	-45.4	18.1	6.00e-01	0	61	0	458227712	55	5376
2026-01-20 02:28:07.68	240.63	15.07	-42.0	-45.3	18.1	6.02e-01	0	61	0	463470592	55	5338
2026-01-20 02:28:10.71	240.25	14.77	-42.1	-45.5	18.0	6.02e-01	0	61	0	469237760	55	5410
2026-01-20 02:28:13.74	239.87	14.47	-42.0	-45.4	18.0	6.02e-01	0	61	0	475004928	55	5396
2026-01-20 02:28:16.77	239.51	14.17	-42.1	-45.6	17.8	6.01e-01	0	61	0	480772096	55	5512
2026-01-20 02:28:19.80	239.15	13.87	-42.2	-45.7	17.7	6.02e-01	0	61	0	486539264	55	5572
2026-01-20 02:28:22.83	238.79	13.58	-42.1	-45.6	17.8	6.03e-01	0	62	0	492306432	55	5491
2026-01-20 02:28:25.85	238.45	13.29	-42.0	-45.5	17.9	6.04e-01	0	61	0	497549312	55	5418
2026-01-20 02:28:28.88	238.11	13.00	-42.1	-45.7	17.7	6.02e-01	0	61	0	503316480	55	5562
2026-01-20 02:28:31.92	237.78	12.72	-42.2	-45.9	17.4	6.04e-01	0	62	0	509083648	55	5697
2026-01-20 02:28:34.94	237.46	12.44	-42.2	-45.8	17.5	6.03e-01	0	61	0	514850816	55	5635
2026-01-20 02:28:37.97	237.15	12.16	-42.2	-45.8	17.5	5.99e-01	0	61	0	520617984	55	5607
2026-01-20 02:28:41.00	236.84	11.88	-42.2	-45.9	17.4	6.03e-01	0	61	0	525860864	55	5662
2026-01-20 02:28:44.02	236.53	11.61	-42.2	-45.9	17.3	6.01e-01	0	61	0	531628032	55	5716
2026-01-20 02:28:47.05	236.24	11.34	-42.1	-45.8	17.4	6.06e-01	0	61	0	537395200	55	5646
2026-01-20 02:28:50.08	235.94	11.07	-42.2	-46.0	17.2	6.03e-01	0	61	0	543162368	55	5746
2026-01-20 02:28:53.11	235.66	10.80	-42.2	-46.0	17.2	6.01e-01	0	61	0	548929536	55	5745
2026-01-20 02:28:56.14	235.38	10.54	-42.3	-46.2	17.0	6.05e-01	0	61	0	554696704	55	5858
2026-01-20 02:28:59.16	235.10	10.28	-42.3	-46.2	16.9	6.02e-01	0	61	0	559939584	55	5914
2026-01-20 02:29:02.19	234.84	10.02	-42.3	-46.2	16.9	6.01e-01	0	61	0	565706752	55	5890
2026-01-20 02:29:05.22	234.57	9.77	-42.3	-46.3	16.8	6.01e-01	0	62	0	571473920	55	5956
2026-01-20 02:29:08.25	234.31	9.51	-42.4	-46.5	16.6	5.99e-01	0	61	0	577241088	55	6089
2026-01-20 02:29:11.28	234.06	9.26	-42.3	-46.4	16.7	6.01e-01	0	61	0	583008256	55	6007
2026-01-20 02:29:14.31	233.81	9.01	-42.3	-46.4	16.7	6.01e-01	0	62	0	588775424	55	5999
2026-01-20 02:29:17.34	233.56	8.77	-42.3	-46.5	16.6	6.02e-01	0	62	0	594018304	55	6065
2026-01-20 02:29:20.37	233.32	8.52	-42.4	-46.6	16.4	6.00e-01	0	61	0	599785472	55	6153
2026-01-20 02:29:23.40	233.09	8.28	-42.5	-46.8	16.2	6.01e-01	0	62	0	605552640	55	6293
2026-01-20 02:29:26.43	232.86	8.04	-43.1	-48.0	15.5	6.04e-01	0	61	0	611319808	56	6862
2026-01-20 02:29:29.46	232.63	7.80	-46.0	-64.6	3.8	7.48e-01	0	61	104	611844096	62	32773
2026-01-20 02:29:32.49	232.41	7.56	-46.3	-64.9	3.8	7.47e-01	0	62	104	611844096	63	31904
2026-01-20 02:29:35.52	232.19	7.33	-46.3	-65.0	3.8	7.45e-01	0	62	104	611844096	63	32221
2026-01-20 02:29:38.55	231.97	7.10	-46.3	-64.8	3.8	7.45e-01	0	62	104	611844096	63	31783
2026-01-20 02:29:41.58	231.76	6.87	-46.2	-64.8	3.8	7.43e-01	0	62	104	611844096	63	31575
2026-01-20 02:29:44.61	231.55	6.64	-46.2	-64.7	3.8	7.47e-01	0	62	104	611844096	63	31427
2026-01-20 02:29:47.65	231.35	6.41	-46.2	-64.7	3.8	7.47e-01	0	62	104	611844096	63	31355
2026-01-20 02:29:50.68	231.15	6.19	-46.2	-64.7	3.8	7.45e-01	0	62	104	611844096	63	31443
2026-01-20 02:29:53.71	230.95	5.97	-46.2	-64.7	3.8	7.46e-01	0	62	104	611844096	63	31400
2026-01-20 02:29:56.74	230.76	5.75	-46.2	-64.7	3.8	7.45e-01	0	62	104	611844096	63	31364
2026-01-20 02:29:59.77	230.57	5.53	-46.2	-64.7	3.8	7.46e-01	0	62	104	611844096	63	31282
2026-01-20 02:30:02.80	230.38	5.31	-46.2	-64.7	3.8	7.43e-01	0	62	104	611844096	63	31300
2026-01-20 02:30:05.83	230.20	5.09	-46.2	-64.7	3.8	7.44e-01	0	62	104	611844096	63	31368
2026-01-20 02:30:08.86	230.02	4.88	-46.2	-64.7	3.8	7.44e-01	0	62	104	611844096	63	31361
2026-01-20 02:30:11.90	229.84	4.67	-46.2	-64.7	3.8	7.43e-01	0	62	104	611844096	63	31307
2026-01-20 02:30:14.93	229.66	4.46	-46.1	-64.7	3.8	7.41e-01	0	62	104	611844096	63	31287
2026-01-20 02:30:17.96	229.49	4.25	-46.2	-64.7	3.8	7.46e-01	0	62	104	611844096	63	31345
2026-01-20 02:30:20.99	229.32	4.04	-46.2	-64.7	3.8	7.43e-01	0	62	104	611844096	63	31362
2026-01-20 02:30:24.02	229.15	3.84	-46.2	-64.7	3.8	7.46e-01	0	62	104	611844096	63	31298
2026-01-20 02:30:27.05	228.99	3.63	-46.1	-64.7	3.8	7.49e-01	0	62	104	611844096	63	31241
2026-01-20 02:30:30.08	228.83	3.43	-46.2	-64.7	3.8	7.41e-01	0	62	104	611844096	63	31246
2026-01-20 02:30:33.12	228.67	3.23	-46.1	-64.7	3.8	7.46e-01	0	62	104	611844096	63	31266
2026-01-20 02:30:36.15	228.51	3.03	-46.1	-64.7	3.8	7.43e-01	0	62	104	611844096	63	31207
2026-01-20 02:30:39.18	228.36	2.83	-46.1	-64.7	3.8	7.48e-01	0	62	104	611844096	63	31241
2026-01-20 02:30:42.21	228.21	2.63	-46.1	-64.7	3.8	7.47e-01	0	62	104	611844096	63	31235
2026-01-20 02:30:45.24	228.06	2.44	-46.1	-64.7	3.8	7.46e-01	0	62	104	611844096	63	31201
2026-01-20 02:30:48.27	227.91	2.24	-46.1	-64.7	3.8	7.48e-01	0	62	104	611844096	63	31257
2026-01-20 02:30:51.31	227.77	2.05	-46.1	-64.7	3.8	7.43e-01	0	62	104	611844096	63	31228

#Closed at: 2026-01-20 02:30:52
#Recorded file [611 MB]: D:/lorett/data/31039_260120_051844.dat