passes_logs/2026/01/20/R2.0S_Moscow/R2.0S_Moscow__20260120_005129_NOAA_21_JPSS-2_rec.log

#Pass ID: 20260120_005129_NOAA 21 (JPSS-2)
#Satellite: NOAA 21 (JPSS-2)
#Configuration: NOAA-21
#almurnet v.1.7.20251203
#Start time: 2026-01-20 00:52:50

#Version: 2.2.20231116
#Station: R2.0S_Moscow
#Location: 37.707566 lon 55.798166 lat
#TLE: 1 54234U 22150A   26019.31231101  .00000073  00000+0  55355-4 0  9994
#TLE: 2 54234  98.7504 320.1599 0000604 258.3686 101.7423 14.19535697165426

#Time	Az	El	Level	Level2	SNR	BER	BlckErr	Temp	State	Recorded	gain1	gain2
2026-01-20 00:52:50.13	7.21	7.21	-45.1	-56.8	3.8	8.46e-01	0	62	0	0	61	14097
2026-01-20 00:52:53.15	7.01	7.42	-45.5	-58.0	3.8	1.49e+00	0	62	104	0	63	14435
2026-01-20 00:52:56.18	6.80	7.64	-45.2	-57.7	3.8	1.49e+00	0	62	104	0	62	14774
2026-01-20 00:52:59.21	6.59	7.85	-44.4	-56.9	3.8	1.49e+00	0	62	104	0	60	15150
2026-01-20 00:53:02.25	6.37	8.07	-40.6	-53.1	3.8	1.49e+00	0	62	104	0	53	14681
2026-01-20 00:53:05.28	6.15	8.29	-40.6	-53.2	3.8	1.49e+00	0	62	104	0	53	14742
2026-01-20 00:53:08.31	5.93	8.51	-40.6	-53.1	3.8	1.49e+00	0	62	104	0	53	14681
2026-01-20 00:53:11.34	5.71	8.74	-40.6	-53.1	3.8	1.49e+00	0	62	104	0	53	14600
2026-01-20 00:53:14.37	5.48	8.96	-40.6	-53.1	3.8	1.49e+00	0	62	104	0	53	14627
2026-01-20 00:53:17.40	5.24	9.19	-40.5	-53.1	3.8	1.49e+00	0	62	104	0	53	14606
2026-01-20 00:53:20.44	5.01	9.41	-40.6	-53.1	3.8	1.49e+00	0	62	104	0	53	14562
2026-01-20 00:53:23.47	4.76	9.64	-40.5	-53.1	3.8	1.49e+00	0	62	104	0	53	14568
2026-01-20 00:53:26.50	4.52	9.87	-40.5	-53.1	3.8	1.49e+00	0	62	104	0	53	14607
2026-01-20 00:53:29.53	4.27	10.11	-40.5	-53.1	3.8	1.49e+00	0	62	104	0	53	14543
2026-01-20 00:53:32.56	4.02	10.34	-40.5	-53.1	3.8	1.49e+00	0	62	104	0	53	14560
2026-01-20 00:53:35.59	3.76	10.58	-40.5	-53.1	3.8	1.49e+00	0	62	104	0	53	14549
2026-01-20 00:53:38.62	3.50	10.81	-40.5	-53.1	3.8	1.49e+00	0	62	104	0	53	14572
2026-01-20 00:53:41.65	3.23	11.05	-40.5	-53.1	3.8	1.49e+00	0	62	104	0	53	14548
2026-01-20 00:53:44.68	2.96	11.29	-40.5	-52.9	3.8	1.49e+00	0	62	104	0	52	15178
2026-01-20 00:53:47.72	2.68	11.54	-40.5	-52.9	3.8	1.49e+00	0	62	104	0	52	15193
2026-01-20 00:53:50.75	2.40	11.78	-40.4	-52.9	3.8	1.49e+00	0	62	104	0	52	15077
2026-01-20 00:53:53.78	2.12	12.03	-40.4	-52.9	3.8	1.49e+00	0	62	104	0	52	15172
2026-01-20 00:53:56.81	1.83	12.28	-40.6	-53.0	3.8	1.49e+00	0	62	104	0	53	14497
2026-01-20 00:53:59.84	1.53	12.52	-40.6	-53.0	3.8	1.49e+00	0	62	104	0	53	14491
2026-01-20 00:54:02.87	1.23	12.78	-41.7	-53.1	3.8	1.49e+00	0	62	104	0	53	14597
2026-01-20 00:54:05.90	0.92	13.03	-41.2	-50.5	4.2	1.49e+00	0	62	104	0	54	10240
2026-01-20 00:54:08.93	0.61	13.28	-40.6	-46.9	6.2	3.32e-01	0	62	0	5242880	53	7194
2026-01-20 00:54:11.96	0.29	13.54	-40.0	-44.8	8.4	5.33e-02	0	62	0	14680064	51	6275
2026-01-20 00:54:14.98	359.97	13.80	-39.7	-43.8	9.4	1.71e-02	0	62	0	24117248	51	5593
2026-01-20 00:54:18.01	359.64	14.06	-39.4	-42.9	10.7	2.34e-03	0	62	0	33554432	50	5381
2026-01-20 00:54:21.04	359.31	14.32	-40.0	-43.8	10.1	5.94e-03	0	62	0	42991616	50	5936
2026-01-20 00:54:24.06	358.97	14.58	-40.0	-43.4	10.6	3.26e-03	0	62	0	52428800	50	5720
2026-01-20 00:54:27.09	358.62	14.85	-40.0	-43.4	10.8	2.59e-03	0	62	0	61865984	50	5659
2026-01-20 00:54:30.12	358.27	15.12	-40.0	-43.1	11.2	1.25e-03	0	62	0	71303168	50	5525
2026-01-20 00:54:33.15	357.91	15.39	-40.1	-43.3	11.0	1.85e-03	0	62	0	80740352	50	5624
2026-01-20 00:54:36.18	357.54	15.66	-39.9	-43.0	11.3	1.10e-03	0	62	0	90177536	50	5443
2026-01-20 00:54:39.21	357.16	15.93	-39.9	-43.2	10.9	2.10e-03	0	62	0	99614720	50	5547
2026-01-20 00:54:42.23	356.78	16.21	-39.8	-43.1	10.9	2.07e-03	0	62	0	109051904	50	5488
2026-01-20 00:54:45.26	356.40	16.48	-40.2	-44.2	9.5	9.45e-03	0	62	0	118489088	50	6231
2026-01-20 00:54:48.29	356.00	16.76	-41.0	-47.3	6.2	2.39e-01	0	62	0	127926272	52	7913
2026-01-20 00:54:51.32	355.60	17.04	-41.2	-50.6	4.2	1.44e+00	0	62	104	132120576	53	10936
2026-01-20 00:54:54.35	355.18	17.32	-42.1	-53.4	3.8	1.49e+00	0	62	104	132120576	54	14243
2026-01-20 00:54:57.38	354.76	17.61	-41.5	-53.7	3.8	1.49e+00	0	62	104	132120576	54	14807
2026-01-20 00:55:00.41	354.34	17.89	-41.4	-53.9	3.8	1.49e+00	0	62	104	132120576	54	15089
2026-01-20 00:55:03.44	353.90	18.18	-41.1	-53.5	3.8	1.49e+00	0	62	104	132120576	54	14524
2026-01-20 00:55:06.47	353.46	18.47	-40.7	-53.3	3.8	1.49e+00	0	62	104	132120576	53	14935
2026-01-20 00:55:09.50	353.00	18.76	-40.9	-53.4	3.8	1.49e+00	0	62	104	132120576	53	15071
2026-01-20 00:55:12.53	352.54	19.05	-41.2	-53.6	3.8	1.49e+00	0	62	104	132120576	53	15471
2026-01-20 00:55:15.56	352.07	19.34	-40.8	-53.3	3.8	1.49e+00	0	62	104	132120576	53	14940
2026-01-20 00:55:18.59	351.59	19.64	-40.9	-53.3	3.8	1.49e+00	0	62	104	132120576	53	14974
2026-01-20 00:55:21.62	351.10	19.93	-41.4	-53.8	3.8	1.49e+00	0	62	104	132120576	53	15826
2026-01-20 00:55:24.64	350.60	20.23	-41.6	-53.4	3.8	1.49e+00	0	62	104	132120576	54	14250
2026-01-20 00:55:27.67	350.09	20.53	-41.6	-53.0	3.8	1.46e+00	0	62	104	132120576	54	13619
2026-01-20 00:55:30.70	349.57	20.83	-41.6	-49.0	5.1	9.45e-01	0	62	104	132120576	54	8635
2026-01-20 00:55:33.73	349.04	21.13	-41.2	-46.7	7.0	1.78e-01	0	62	0	140509184	54	6634
2026-01-20 00:55:36.76	348.50	21.43	-40.6	-44.9	9.0	3.20e-02	0	62	0	150994944	53	5696
2026-01-20 00:55:39.79	347.94	21.73	-39.9	-43.3	10.7	4.27e-03	0	62	0	160432128	51	5305
2026-01-20 00:55:42.81	347.38	22.03	-39.3	-42.1	12.0	2.82e-04	0	62	0	169869312	50	4896
2026-01-20 00:55:45.84	346.81	22.34	-39.0	-41.6	12.7	8.69e-05	0	62	0	179306496	49	4889
2026-01-20 00:55:48.87	346.22	22.64	-38.8	-41.2	13.1	1.75e-05	0	62	0	188743680	49	4694
2026-01-20 00:55:51.90	345.62	22.94	-39.4	-42.2	12.3	2.01e-04	0	62	0	198180864	49	5222
2026-01-20 00:55:54.93	345.01	23.25	-39.2	-41.5	13.4	2.05e-05	0	62	0	207618048	49	4855
2026-01-20 00:55:57.97	344.39	23.55	-39.5	-41.9	13.3	1.67e-05	0	62	0	217055232	49	5055
2026-01-20 00:56:01.00	343.76	23.86	-39.4	-41.7	13.6	9.10e-06	0	62	0	226492416	49	4940
2026-01-20 00:56:04.03	343.11	24.16	-39.6	-42.0	13.3	1.67e-05	0	62	0	235929600	49	5136
2026-01-20 00:56:07.06	342.45	24.46	-39.7	-42.0	13.4	1.60e-05	0	62	0	245366784	50	4867
2026-01-20 00:56:10.09	341.78	24.77	-39.5	-41.8	13.8	5.30e-06	0	62	0	254803968	50	4711
2026-01-20 00:56:13.12	341.09	25.07	-39.8	-42.2	13.4	1.60e-05	0	62	0	264241152	50	4953
2026-01-20 00:56:16.15	340.39	25.37	-39.9	-42.2	13.4	1.06e-05	0	62	0	273678336	50	4956
2026-01-20 00:56:19.18	339.68	25.67	-39.9	-42.2	13.6	8.30e-06	0	62	0	283115520	50	4935
2026-01-20 00:56:22.21	338.95	25.96	-40.1	-42.5	13.3	2.28e-05	0	62	0	292552704	50	5124
2026-01-20 00:56:25.24	338.21	26.26	-40.3	-42.7	13.2	2.97e-05	0	62	0	301989888	51	4958
2026-01-20 00:56:28.27	337.45	26.55	-40.2	-42.7	13.3	1.83e-05	0	62	0	311427072	51	4935
2026-01-20 00:56:31.30	336.69	26.84	-40.3	-42.6	13.3	1.60e-05	0	62	0	320864256	51	4924
2026-01-20 00:56:34.34	335.90	27.13	-40.1	-42.4	13.5	1.14e-05	0	62	0	330301440	51	4807
2026-01-20 00:56:37.36	335.10	27.42	-40.0	-42.3	13.6	3.80e-06	0	62	0	339738624	51	4721
2026-01-20 00:56:40.39	334.29	27.70	-40.0	-42.3	13.7	6.10e-06	0	62	0	349175808	51	4710
2026-01-20 00:56:43.42	333.47	27.98	-40.0	-42.3	13.7	2.20e-06	0	62	0	358612992	51	4706
2026-01-20 00:56:46.45	332.63	28.25	-40.2	-42.6	13.4	1.14e-05	0	62	0	368050176	51	4888
2026-01-20 00:56:49.48	331.77	28.52	-40.2	-42.5	13.5	1.06e-05	0	62	0	377487360	51	4841
2026-01-20 00:56:52.51	330.90	28.79	-40.2	-42.6	13.4	1.52e-05	0	62	0	386924544	51	4893
2026-01-20 00:56:55.54	330.01	29.05	-39.9	-42.1	13.9	2.20e-06	0	62	0	396361728	51	4628
2026-01-20 00:56:58.57	329.12	29.30	-40.0	-42.2	13.7	4.50e-06	0	62	0	405798912	51	4680
2026-01-20 00:57:01.60	328.20	29.55	-40.1	-42.3	13.7	9.10e-06	0	62	0	415236096	51	4745
2026-01-20 00:57:04.63	327.27	29.79	-40.1	-42.3	13.7	5.30e-06	0	62	0	424673280	51	4727
2026-01-20 00:57:07.65	326.33	30.03	-40.2	-42.5	13.5	1.14e-05	0	62	0	434110464	51	4858
2026-01-20 00:57:10.68	325.38	30.26	-40.3	-42.6	13.4	1.29e-05	0	62	0	444596224	51	4885
2026-01-20 00:57:13.72	324.41	30.48	-40.2	-42.5	13.4	9.10e-06	0	62	0	452984832	51	4849
2026-01-20 00:57:16.74	323.43	30.69	-40.4	-42.8	13.2	3.50e-05	0	62	0	463470592	51	5038
2026-01-20 00:57:19.78	322.43	30.90	-40.2	-42.5	13.5	1.29e-05	0	62	0	471859200	51	4868
2026-01-20 00:57:22.81	321.42	31.10	-40.4	-42.9	13.2	2.51e-05	0	62	0	482344960	51	5044
2026-01-20 00:57:25.83	320.40	31.28	-40.5	-43.0	13.0	4.34e-05	0	62	0	491782144	51	5102
2026-01-20 00:57:28.86	319.37	31.46	-40.7	-43.2	12.7	6.71e-05	0	62	0	501219328	52	4953
2026-01-20 00:57:31.89	318.33	31.63	-40.8	-43.4	12.5	1.14e-04	0	62	0	510656512	52	5066
2026-01-20 00:57:34.92	317.27	31.79	-40.7	-43.3	12.7	7.62e-05	0	62	0	520093696	52	5010
2026-01-20 00:57:37.95	316.21	31.94	-40.8	-43.5	12.5	1.23e-04	0	62	0	529530880	52	5121
2026-01-20 00:57:40.98	315.13	32.08	-40.7	-43.3	12.7	7.62e-05	0	62	0	538968064	52	5002
2026-01-20 00:57:44.01	314.05	32.21	-40.6	-43.1	12.8	5.26e-05	0	62	0	548405248	52	4921
2026-01-20 00:57:47.04	312.96	32.33	-40.9	-43.5	12.3	1.87e-04	0	62	0	557842432	52	5144
2026-01-20 00:57:50.07	311.86	32.44	-40.6	-43.1	12.9	5.03e-05	0	62	0	567279616	52	4884
2026-01-20 00:57:53.09	310.75	32.53	-40.4	-42.8	13.2	3.12e-05	0	62	0	576716800	52	4720
2026-01-20 00:57:56.13	309.64	32.61	-40.3	-42.6	13.3	1.29e-05	0	62	0	586153984	52	4643
2026-01-20 00:57:59.16	308.52	32.68	-40.5	-43.0	12.9	4.65e-05	0	62	0	595591168	52	4854
2026-01-20 00:58:02.19	307.40	32.74	-40.6	-43.2	12.7	6.25e-05	0	62	0	605028352	52	4946
2026-01-20 00:58:05.22	306.27	32.79	-40.8	-43.4	12.5	8.08e-05	0	62	0	614465536	52	5055
2026-01-20 00:58:08.25	305.14	32.82	-40.9	-43.6	12.3	2.03e-04	0	62	0	623902720	52	5202
2026-01-20 00:58:11.28	304.01	32.84	-40.9	-43.5	12.4	1.81e-04	0	62	0	633339904	52	5158
2026-01-20 00:58:14.31	302.88	32.85	-40.7	-43.2	12.7	6.56e-05	0	62	0	642777088	52	4955
2026-01-20 00:58:17.34	301.75	32.84	-41.0	-43.7	12.2	1.96e-04	0	62	0	652214272	52	5257
2026-01-20 00:58:20.37	300.62	32.82	-40.9	-43.6	12.3	1.76e-04	0	62	0	661651456	52	5188
2026-01-20 00:58:23.40	299.49	32.79	-40.7	-43.3	12.7	9.00e-05	0	62	0	671088640	52	5012
2026-01-20 00:58:26.43	298.36	32.75	-40.5	-43.0	12.9	4.19e-05	0	62	0	680525824	52	4826
2026-01-20 00:58:29.45	297.24	32.70	-40.6	-43.1	12.9	6.10e-05	0	62	0	689963008	52	4919
2026-01-20 00:58:32.48	296.12	32.63	-40.7	-43.3	12.6	7.47e-05	0	62	0	699400192	52	5029
2026-01-20 00:58:35.51	295.00	32.55	-40.9	-43.6	12.3	1.59e-04	0	62	0	708837376	52	5198
2026-01-20 00:58:38.54	293.89	32.46	-40.7	-43.2	12.7	6.71e-05	0	62	0	718274560	52	4983
2026-01-20 00:58:41.56	292.79	32.35	-40.5	-42.9	13.0	2.89e-05	0	62	0	727711744	52	4796
2026-01-20 00:58:44.59	291.70	32.24	-40.3	-42.6	13.3	1.44e-05	0	62	0	737148928	52	4641
2026-01-20 00:58:47.62	290.61	32.11	-40.6	-43.1	12.9	5.11e-05	0	62	0	746586112	52	4874
2026-01-20 00:58:50.65	289.53	31.98	-40.5	-43.0	12.9	4.95e-05	0	62	0	756023296	52	4846
2026-01-20 00:58:53.68	288.46	31.83	-40.5	-43.0	12.9	5.56e-05	0	62	0	765460480	52	4867
2026-01-20 00:58:56.71	287.41	31.67	-40.5	-43.0	12.8	5.72e-05	0	62	0	774897664	52	4866
2026-01-20 00:58:59.74	286.36	31.50	-40.8	-43.4	12.5	1.06e-04	0	62	0	784334848	52	5075
2026-01-20 00:59:02.77	285.32	31.32	-40.4	-42.8	13.1	3.89e-05	0	62	0	793772032	52	4751
2026-01-20 00:59:05.80	284.29	31.14	-40.4	-42.8	13.2	2.21e-05	0	62	0	804257792	52	4726
2026-01-20 00:59:08.83	283.28	30.94	-40.8	-43.5	12.4	1.35e-04	0	63	0	812646400	52	5137
2026-01-20 00:59:11.86	282.28	30.73	-40.1	-42.5	13.4	1.90e-05	0	62	0	823132160	52	4548
2026-01-20 00:59:14.89	281.29	30.52	-40.0	-42.2	13.7	1.50e-06	0	62	0	832569344	51	4687
2026-01-20 00:59:17.92	280.32	30.30	-40.6	-43.1	12.9	4.11e-05	0	62	0	842006528	51	5191
2026-01-20 00:59:20.95	279.35	30.07	-40.4	-42.8	13.2	2.28e-05	0	62	0	851443712	51	5007
2026-01-20 00:59:23.98	278.41	29.84	-40.1	-42.3	13.6	6.80e-06	0	62	0	860880896	51	4744
2026-01-20 00:59:27.01	277.47	29.59	-40.5	-42.9	13.0	3.96e-05	0	62	0	870318080	51	5096
2026-01-20 00:59:30.04	276.55	29.35	-40.1	-42.4	13.6	1.60e-05	0	62	0	879755264	51	4764
2026-01-20 00:59:33.06	275.65	29.09	-40.1	-42.4	13.7	9.90e-06	0	62	0	889192448	51	4766
2026-01-20 00:59:36.09	274.76	28.83	-40.3	-42.6	13.3	1.98e-05	0	62	0	898629632	51	4911
2026-01-20 00:59:39.12	273.88	28.57	-39.8	-42.0	13.9	3.00e-06	0	62	0	908066816	51	4554
2026-01-20 00:59:42.15	273.02	28.30	-40.0	-42.2	13.7	3.80e-06	0	62	0	917504000	51	4677
2026-01-20 00:59:45.18	272.17	28.02	-40.7	-43.4	12.4	1.17e-04	0	62	0	926941184	52	5076
2026-01-20 00:59:48.21	271.34	27.75	-40.3	-42.8	13.0	4.73e-05	0	62	0	936378368	52	4716
2026-01-20 00:59:51.24	270.52	27.46	-40.0	-42.2	13.7	4.50e-06	0	62	0	945815552	51	4671
2026-01-20 00:59:54.27	269.72	27.18	-40.0	-42.3	13.6	7.60e-06	0	63	0	955252736	51	4717
2026-01-20 00:59:57.30	268.93	26.89	-39.6	-41.7	14.1	7.00e-07	0	62	0	964689920	51	4420
2026-01-20 01:00:00.33	268.15	26.60	-39.3	-41.3	14.6	0.00e+00	0	62	0	974127104	50	4450
2026-01-20 01:00:03.36	267.39	26.30	-39.7	-41.8	14.1	2.20e-06	0	63	0	983564288	50	4744
2026-01-20 01:00:06.39	266.64	26.01	-40.0	-42.3	13.5	6.10e-06	0	62	0	993001472	50	5008
2026-01-20 01:00:09.42	265.91	25.71	-39.9	-42.1	13.6	9.90e-06	0	62	0	1002438656	50	4892
2026-01-20 01:00:12.45	265.19	25.41	-39.8	-42.0	13.8	3.00e-06	0	62	0	1011875840	50	4859
2026-01-20 01:00:15.48	264.48	25.11	-40.4	-42.9	13.0	3.58e-05	0	62	0	1021313024	51	5054
2026-01-20 01:00:18.50	263.79	24.81	-40.3	-42.7	13.2	2.97e-05	0	62	0	1030750208	51	4937
2026-01-20 01:00:21.53	263.11	24.50	-40.0	-42.2	13.6	1.29e-05	0	62	0	1040187392	51	4689
2026-01-20 01:00:24.56	262.45	24.20	-40.2	-42.5	13.2	1.44e-05	0	62	0	1049624576	51	4858
2026-01-20 01:00:27.59	261.80	23.89	-40.3	-42.7	13.1	2.97e-05	0	62	0	1059061760	51	4983
2026-01-20 01:00:30.62	261.15	23.59	-40.1	-42.4	13.4	1.75e-05	0	63	0	1068498944	51	4802
2026-01-20 01:00:33.65	260.53	23.28	-39.9	-42.2	13.7	9.10e-06	0	62	0	1077936128	51	4673
2026-01-20 01:00:36.68	259.91	22.98	-40.2	-42.6	13.3	2.44e-05	0	62	0	1087373312	51	4871
2026-01-20 01:00:39.71	259.31	22.67	-40.2	-42.6	13.3	1.83e-05	0	63	0	1096810496	51	4878
2026-01-20 01:00:42.74	258.72	22.36	-39.9	-42.2	13.7	3.80e-06	0	63	0	1106247680	51	4666
2026-01-20 01:00:45.77	258.13	22.06	-39.6	-41.7	14.2	2.20e-06	0	62	0	1115684864	51	4401
2026-01-20 01:00:48.80	257.57	21.76	-39.8	-42.0	13.9	3.80e-06	0	62	0	1125122048	51	4549
2026-01-20 01:00:51.83	257.01	21.45	-39.7	-41.8	14.0	6.80e-06	0	63	0	1134559232	51	4480
2026-01-20 01:00:54.86	256.46	21.15	-39.5	-41.6	14.2	0.00e+00	0	63	0	1145044992	50	4612
2026-01-20 01:00:57.88	255.93	20.85	-39.8	-42.0	13.7	6.80e-06	0	62	0	1153433600	50	4842
2026-01-20 01:01:00.91	255.40	20.55	-40.0	-42.4	13.4	9.10e-06	0	62	0	1163919360	50	5065
2026-01-20 01:01:03.94	254.88	20.25	-39.7	-41.8	14.0	2.20e-06	0	62	0	1173356544	50	4748
2026-01-20 01:01:06.97	254.38	19.95	-39.7	-41.9	13.9	7.00e-07	0	62	0	1182793728	50	4806
2026-01-20 01:01:10.00	253.88	19.65	-40.1	-42.5	13.2	2.44e-05	0	63	0	1192230912	50	5154
2026-01-20 01:01:13.03	253.40	19.35	-40.0	-42.3	13.5	9.90e-06	0	63	0	1201668096	50	5005
2026-01-20 01:01:16.05	252.92	19.06	-39.7	-41.9	13.8	6.10e-06	0	63	0	1211105280	50	4794
2026-01-20 01:01:19.08	252.45	18.77	-39.9	-42.2	13.5	1.22e-05	0	62	0	1220542464	50	4960
2026-01-20 01:01:22.12	251.99	18.47	-40.4	-42.9	12.7	6.79e-05	0	63	0	1229979648	51	5092
2026-01-20 01:01:25.15	251.54	18.18	-40.5	-43.1	12.6	5.95e-05	0	62	0	1239416832	51	5163
2026-01-20 01:01:28.18	251.10	17.90	-40.3	-42.8	12.9	5.18e-05	0	62	0	1248854016	51	5008
2026-01-20 01:01:31.20	250.67	17.61	-40.1	-42.6	13.1	2.82e-05	0	62	0	1258291200	51	4879
2026-01-20 01:01:34.23	250.25	17.32	-40.0	-42.4	13.2	2.28e-05	0	63	0	1267728384	51	4804
2026-01-20 01:01:37.26	249.83	17.04	-40.3	-42.9	12.8	7.55e-05	0	63	0	1277165568	51	5071
2026-01-20 01:01:40.29	249.42	16.76	-40.4	-42.9	12.7	7.55e-05	0	62	0	1286602752	51	5084
2026-01-20 01:01:43.32	249.02	16.48	-40.3	-42.9	12.7	7.47e-05	0	62	0	1296039936	51	5070
2026-01-20 01:01:46.35	248.63	16.20	-40.0	-42.3	13.3	1.83e-05	0	62	0	1305477120	51	4755
2026-01-20 01:01:49.38	248.24	15.92	-39.9	-42.3	13.3	1.67e-05	0	62	0	1314914304	51	4734
2026-01-20 01:01:52.41	247.86	15.65	-40.3	-42.8	12.8	6.40e-05	0	62	0	1324351488	51	5008
2026-01-20 01:01:55.44	247.49	15.38	-40.6	-43.4	12.2	1.95e-04	0	63	0	1333788672	51	5357
2026-01-20 01:01:58.47	247.13	15.10	-40.7	-43.5	12.0	3.65e-04	0	62	0	1343225856	52	5136
2026-01-20 01:02:01.50	246.77	14.84	-40.4	-43.2	12.3	2.09e-04	0	62	0	1352663040	52	4929
2026-01-20 01:02:04.53	246.42	14.57	-40.1	-42.6	12.9	5.72e-05	0	62	0	1362100224	52	4613
2026-01-20 01:02:07.56	246.07	14.30	-40.1	-42.5	13.0	4.11e-05	0	62	0	1371537408	51	4851
2026-01-20 01:02:10.59	245.73	14.04	-40.3	-42.9	12.7	7.01e-05	0	62	0	1380974592	51	5061
2026-01-20 01:02:13.62	245.40	13.78	-40.5	-43.3	12.3	1.68e-04	0	62	0	1390411776	51	5280
2026-01-20 01:02:16.65	245.07	13.52	-40.7	-43.5	12.1	2.84e-04	0	62	0	1399848960	51	5421
2026-01-20 01:02:19.68	244.75	13.26	-40.7	-43.5	11.9	3.88e-04	0	62	0	1409286144	52	5139
2026-01-20 01:02:22.70	244.43	13.00	-40.5	-43.4	12.0	3.20e-04	0	62	0	1418723328	52	5046
2026-01-20 01:02:25.74	244.12	12.75	-40.5	-43.3	12.0	2.89e-04	0	62	0	1428160512	52	5034
2026-01-20 01:02:28.77	243.82	12.49	-40.4	-43.1	12.2	1.87e-04	0	62	0	1437597696	52	4906
2026-01-20 01:02:31.80	243.52	12.24	-40.5	-43.4	12.0	2.77e-04	0	63	0	1447034880	52	5054
2026-01-20 01:02:34.82	243.22	12.00	-40.6	-43.6	11.8	4.35e-04	0	63	0	1456472064	52	5160
2026-01-20 01:02:37.85	242.93	11.75	-40.8	-43.9	11.4	7.90e-04	0	63	0	1465909248	52	5359
2026-01-20 01:02:40.88	242.65	11.50	-41.0	-44.1	11.2	1.41e-03	0	63	0	1475346432	52	5527
2026-01-20 01:02:43.91	242.37	11.26	-41.1	-44.3	10.9	2.20e-03	0	63	0	1485832192	52	5644
2026-01-20 01:02:46.94	242.09	11.02	-41.1	-44.4	10.8	2.16e-03	0	63	0	1495269376	52	5677
2026-01-20 01:02:49.97	241.82	10.78	-41.0	-44.3	11.0	1.93e-03	0	63	0	1504706560	52	5594
2026-01-20 01:02:53.00	241.56	10.54	-40.8	-44.0	11.2	1.38e-03	0	63	0	1514143744	52	5410
2026-01-20 01:02:56.03	241.29	10.30	-40.8	-43.8	11.4	9.54e-04	0	63	0	1523580928	52	5302
2026-01-20 01:02:59.06	241.04	10.06	-40.8	-43.8	11.4	1.04e-03	0	63	0	1533018112	52	5307
2026-01-20 01:03:02.09	240.78	9.83	-40.8	-43.9	11.2	1.35e-03	0	63	0	1542455296	52	5393
2026-01-20 01:03:05.12	240.53	9.60	-40.9	-44.1	11.0	1.60e-03	0	63	0	1551892480	52	5526
2026-01-20 01:03:08.15	240.29	9.37	-41.1	-44.4	10.7	2.98e-03	0	63	0	1561329664	52	5705
2026-01-20 01:03:11.18	240.05	9.14	-41.2	-44.7	10.4	4.18e-03	0	63	0	1570766848	52	5870
2026-01-20 01:03:14.21	239.81	8.91	-41.3	-44.8	10.2	5.73e-03	0	63	0	1580204032	53	5637
2026-01-20 01:03:17.23	239.58	8.69	-41.3	-44.9	10.1	6.46e-03	0	63	0	1589641216	53	5678
2026-01-20 01:03:20.26	239.35	8.46	-41.2	-44.7	10.3	5.12e-03	0	63	0	1599078400	53	5540
2026-01-20 01:03:23.29	239.12	8.24	-41.0	-44.4	10.6	3.62e-03	0	63	0	1608515584	53	5344
2026-01-20 01:03:26.32	238.90	8.02	-41.0	-44.3	10.6	3.11e-03	0	63	0	1617952768	53	5308
2026-01-20 01:03:29.35	238.68	7.80	-45.0	-57.4	3.8	1.49e+00	0	63	104	1619001344	60	16008
2026-01-20 01:03:32.38	238.46	7.58	-45.2	-57.6	3.8	1.49e+00	0	63	104	1619001344	61	15445
2026-01-20 01:03:35.41	238.25	7.37	-45.3	-57.7	3.8	1.49e+00	0	63	104	1619001344	61	15621
2026-01-20 01:03:38.45	238.04	7.15	-45.3	-57.6	3.8	1.49e+00	0	63	104	1619001344	61	15496
2026-01-20 01:03:41.48	237.84	6.94	-45.3	-57.6	3.8	1.49e+00	0	63	104	1619001344	61	15489
2026-01-20 01:03:44.51	237.63	6.73	-45.2	-57.5	3.8	1.49e+00	0	63	104	1619001344	61	15346
2026-01-20 01:03:47.54	237.43	6.51	-45.2	-57.5	3.8	1.49e+00	0	63	104	1619001344	61	15343
2026-01-20 01:03:50.57	237.23	6.31	-45.2	-57.5	3.8	1.49e+00	0	63	104	1619001344	61	15358
2026-01-20 01:03:53.60	237.04	6.10	-45.2	-57.5	3.8	1.49e+00	0	63	104	1619001344	61	15275
2026-01-20 01:03:56.64	236.85	5.89	-45.2	-57.5	3.8	1.49e+00	0	63	104	1619001344	61	15295
2026-01-20 01:03:59.67	236.66	5.68	-45.2	-57.5	3.8	1.49e+00	0	63	104	1619001344	61	15336
2026-01-20 01:04:02.70	236.47	5.48	-45.1	-57.5	3.8	1.49e+00	0	63	104	1619001344	61	15275
2026-01-20 01:04:05.73	236.29	5.28	-45.1	-57.4	3.8	1.49e+00	0	63	104	1619001344	61	15209
2026-01-20 01:04:08.76	236.11	5.08	-45.1	-57.4	3.8	1.49e+00	0	63	104	1619001344	61	15197
2026-01-20 01:04:11.79	235.93	4.88	-45.1	-57.4	3.8	1.49e+00	0	63	104	1619001344	61	15162
2026-01-20 01:04:14.82	235.76	4.68	-45.1	-57.4	3.8	1.49e+00	0	63	104	1619001344	61	15207
2026-01-20 01:04:17.85	235.58	4.48	-45.1	-57.4	3.8	1.49e+00	0	63	104	1619001344	61	15117
2026-01-20 01:04:20.88	235.41	4.28	-45.1	-57.4	3.8	1.49e+00	0	63	104	1619001344	61	15101
2026-01-20 01:04:23.91	235.24	4.09	-45.1	-57.4	3.8	1.49e+00	0	63	104	1619001344	61	15145
2026-01-20 01:04:26.94	235.08	3.89	-45.1	-57.4	3.8	1.49e+00	0	63	104	1619001344	61	15136
2026-01-20 01:04:29.98	234.91	3.70	-45.1	-57.4	3.8	1.49e+00	0	63	104	1619001344	61	15107
2026-01-20 01:04:33.01	234.75	3.51	-45.1	-57.4	3.8	1.49e+00	0	63	104	1619001344	61	15151
2026-01-20 01:04:36.04	234.59	3.32	-45.1	-57.4	3.8	1.49e+00	0	63	104	1619001344	61	15157
2026-01-20 01:04:39.07	234.44	3.13	-45.1	-57.4	3.8	1.49e+00	0	63	104	1619001344	61	15163
2026-01-20 01:04:42.10	234.28	2.94	-45.1	-57.4	3.8	1.49e+00	0	63	104	1619001344	61	15104
2026-01-20 01:04:45.14	234.13	2.75	-45.1	-57.4	3.8	1.49e+00	0	63	104	1619001344	61	15098
2026-01-20 01:04:48.17	233.98	2.56	-45.1	-57.4	3.8	1.49e+00	0	63	104	1619001344	61	15057
2026-01-20 01:04:51.20	233.83	2.38	-45.1	-57.4	3.8	1.49e+00	0	63	104	1619001344	61	15141
2026-01-20 01:04:54.23	233.68	2.19	-44.7	-57.4	3.8	1.49e+00	0	63	104	1619001344	60	15966
2026-01-20 01:04:57.26	233.53	2.01	-45.1	-57.4	3.8	1.49e+00	0	63	104	1619001344	60	16084

#Closed at: 2026-01-20 01:04:59
#Recorded file [1619 MB]: D:/lorett/data/31039_260120_035249.dat