passes_logs/2026/01/20/R2.0S_Moscow/R2.0S_Moscow__20260120_095155_NOAA_20_JPSS-1_rec.log

#Pass ID: 20260120_095155_NOAA 20 (JPSS-1)
#Satellite: NOAA 20 (JPSS-1)
#Configuration: NOAA 20
#almurnet v.1.7.20251203
#Start time: 2026-01-20 09:51:56

#Version: 2.2.20231116
#Station: R2.0S_Moscow
#Location: 37.707566 lon 55.798166 lat
#TLE: 1 43013U 17073A   26019.55911981  .00000079  00000+0  58510-4 0  9994
#TLE: 2 43013  98.7641 320.4504 0001323  32.6518 327.4739 14.19537050423380

#Time	Az	El	Level	Level2	SNR	BER	BlckErr	Temp	State	Recorded	gain1	gain2
2026-01-20 09:51:56.25	158.93	2.05	-44.0	-58.5	3.8	1.49e+00	0	51	0	0	59	19310
2026-01-20 09:52:00.29	158.93	2.31	-43.9	-58.5	3.8	1.49e+00	0	52	104	0	59	19361
2026-01-20 09:52:04.33	158.93	2.57	-43.9	-58.5	3.8	1.49e+00	0	52	104	0	59	19337
2026-01-20 09:52:08.37	158.93	2.84	-43.9	-58.5	3.8	1.49e+00	0	52	104	0	59	19369
2026-01-20 09:52:12.41	158.93	3.11	-43.9	-58.5	3.8	1.49e+00	0	53	104	0	59	19326
2026-01-20 09:52:16.46	158.93	3.38	-43.9	-58.5	3.8	1.49e+00	0	53	104	0	59	19375
2026-01-20 09:52:20.50	158.92	3.65	-43.9	-58.5	3.8	1.49e+00	0	53	104	0	59	19345
2026-01-20 09:52:24.54	158.92	3.93	-43.9	-58.5	3.8	1.49e+00	0	54	104	0	59	19337
2026-01-20 09:52:28.58	158.92	4.21	-43.9	-58.5	3.8	1.49e+00	0	54	104	0	59	19313
2026-01-20 09:52:32.63	158.92	4.50	-43.9	-58.5	3.8	1.49e+00	0	54	104	0	59	19334
2026-01-20 09:52:36.67	158.92	4.78	-43.9	-58.5	3.8	1.49e+00	0	54	104	0	59	19273
2026-01-20 09:52:40.71	158.91	5.07	-43.9	-58.5	3.8	1.49e+00	0	54	104	0	59	19191
2026-01-20 09:52:44.75	158.91	5.36	-43.9	-58.3	3.8	1.49e+00	0	54	104	0	59	18812
2026-01-20 09:52:48.79	158.91	5.66	-43.9	-57.5	3.8	1.49e+00	0	55	104	0	59	17281
2026-01-20 09:52:52.84	158.90	5.96	-43.8	-56.8	3.8	1.49e+00	0	55	104	0	59	15840
2026-01-20 09:52:56.88	158.90	6.26	-43.8	-56.3	3.9	1.48e+00	0	55	104	0	59	14918
2026-01-20 09:53:00.92	158.89	6.57	-43.8	-56.6	3.8	1.49e+00	0	55	104	0	59	15546
2026-01-20 09:53:04.96	158.89	6.88	-43.9	-58.0	3.8	1.49e+00	0	55	104	0	59	18269
2026-01-20 09:53:09.01	158.88	7.19	-43.8	-57.0	3.8	1.49e+00	0	56	104	0	59	16243
2026-01-20 09:53:13.05	158.88	7.51	-43.5	-53.3	4.8	8.60e-01	0	55	0	2097152	59	10597
2026-01-20 09:53:17.09	158.87	7.83	-43.1	-50.5	6.8	2.26e-01	0	56	0	9437184	58	8140
2026-01-20 09:53:21.13	158.87	8.16	-44.2	-58.5	3.8	8.61e-01	0	56	104	15728640	58	20316
2026-01-20 09:53:25.17	158.86	8.49	-43.1	-50.5	6.8	1.51e-01	0	56	0	15728640	57	8605
2026-01-20 09:53:29.21	158.86	8.82	-42.9	-49.7	7.6	8.37e-02	0	56	0	24117248	57	7840
2026-01-20 09:53:33.25	158.85	9.16	-42.8	-49.3	8.0	6.99e-02	0	56	0	31457280	57	7480
2026-01-20 09:53:37.29	158.84	9.51	-42.8	-49.0	8.4	5.38e-02	0	56	0	38797312	57	7218
2026-01-20 09:53:41.32	158.83	9.86	-42.8	-48.9	8.6	3.98e-02	0	57	0	46137344	57	7167
2026-01-20 09:53:45.36	158.82	10.21	-42.8	-48.7	8.8	3.08e-02	0	57	0	54525952	57	7020
2026-01-20 09:53:49.40	158.82	10.57	-42.8	-48.7	9.0	3.02e-02	0	57	0	61865984	57	6960
2026-01-20 09:53:53.43	158.81	10.93	-42.9	-48.7	9.0	2.66e-02	0	57	0	69206016	57	6964
2026-01-20 09:53:57.47	158.80	11.30	-42.8	-48.4	9.3	1.70e-02	0	57	0	76546048	57	6758
2026-01-20 09:54:01.51	158.79	11.68	-42.8	-48.3	9.4	1.70e-02	0	57	0	83886080	57	6695
2026-01-20 09:54:05.55	158.78	12.06	-42.8	-48.1	9.7	1.21e-02	0	57	0	92274688	57	6562
2026-01-20 09:54:09.58	158.76	12.44	-42.8	-48.1	9.7	1.17e-02	0	57	0	99614720	57	6538
2026-01-20 09:54:13.62	158.75	12.84	-42.8	-47.9	10.0	8.11e-03	0	57	0	106954752	57	6394
2026-01-20 09:54:17.66	158.74	13.24	-42.8	-47.9	10.0	7.22e-03	0	57	0	114294784	57	6387
2026-01-20 09:54:21.69	158.73	13.64	-42.7	-47.7	10.2	6.04e-03	0	58	0	121634816	57	6243
2026-01-20 09:54:25.73	158.71	14.06	-42.7	-47.6	10.4	5.37e-03	0	57	0	130023424	57	6134
2026-01-20 09:54:29.77	158.70	14.48	-42.6	-47.4	10.6	3.32e-03	0	57	0	137363456	57	6015
2026-01-20 09:54:33.81	158.68	14.91	-42.7	-47.5	10.6	3.80e-03	0	58	0	144703488	57	6069
2026-01-20 09:54:37.85	158.67	15.34	-42.7	-47.4	10.7	2.93e-03	0	58	0	152043520	57	6008
2026-01-20 09:54:41.89	158.65	15.79	-42.6	-47.2	10.9	2.64e-03	0	58	0	160432128	57	5885
2026-01-20 09:54:45.92	158.63	16.24	-42.5	-46.9	11.1	1.63e-03	0	58	0	167772160	57	5722
2026-01-20 09:54:49.96	158.61	16.70	-42.4	-46.7	11.4	9.76e-04	0	58	0	175112192	56	5913
2026-01-20 09:54:54.00	158.59	17.17	-42.4	-46.6	11.5	8.14e-04	0	58	0	182452224	56	5823
2026-01-20 09:54:58.04	158.57	17.65	-42.3	-46.5	11.7	6.50e-04	0	58	0	189792256	56	5726
2026-01-20 09:55:02.07	158.55	18.13	-42.3	-46.5	11.7	5.14e-04	0	58	0	198180864	56	5770
2026-01-20 09:55:06.10	158.53	18.63	-42.3	-46.5	11.8	5.52e-04	0	58	0	205520896	56	5731
2026-01-20 09:55:10.14	158.50	19.14	-42.3	-46.3	11.9	4.02e-04	0	58	0	212860928	56	5638
2026-01-20 09:55:14.18	158.48	19.66	-42.3	-46.3	12.0	3.28e-04	0	58	0	220200960	56	5612
2026-01-20 09:55:18.22	158.45	20.19	-42.3	-46.3	12.0	3.05e-04	0	58	0	228589568	56	5615
2026-01-20 09:55:22.25	158.42	20.73	-42.2	-46.1	12.2	3.15e-04	0	58	0	235929600	56	5516
2026-01-20 09:55:26.29	158.39	21.28	-42.2	-46.2	12.1	2.63e-04	0	58	0	243269632	56	5536
2026-01-20 09:55:30.33	158.36	21.85	-42.1	-45.9	12.4	1.71e-04	0	59	0	250609664	56	5396
2026-01-20 09:55:34.37	158.33	22.43	-42.2	-46.1	12.2	2.68e-04	0	58	0	257949696	56	5515
2026-01-20 09:55:38.41	158.30	23.02	-42.1	-46.0	12.3	1.88e-04	0	58	0	266338304	56	5426
2026-01-20 09:55:42.44	158.26	23.62	-42.1	-46.0	12.4	1.94e-04	0	58	0	273678336	56	5408
2026-01-20 09:55:46.48	158.22	24.24	-42.2	-46.1	12.3	2.04e-04	0	58	0	281018368	56	5470
2026-01-20 09:55:50.52	158.18	24.88	-42.4	-46.5	11.8	4.73e-04	0	59	0	288358400	56	5728
2026-01-20 09:55:54.56	158.14	25.53	-42.4	-46.5	11.9	4.40e-04	0	58	0	296747008	56	5723
2026-01-20 09:55:58.59	158.10	26.20	-42.4	-46.4	11.9	4.45e-04	0	58	0	304087040	56	5707
2026-01-20 09:56:02.63	158.05	26.88	-42.5	-46.7	11.7	5.80e-04	0	58	0	311427072	56	5858
2026-01-20 09:56:06.67	158.00	27.58	-42.6	-46.8	11.6	6.47e-04	0	59	0	318767104	56	5928
2026-01-20 09:56:10.71	157.95	28.30	-42.7	-47.1	11.2	1.30e-03	0	58	0	326107136	56	6164
2026-01-20 09:56:14.75	157.89	29.04	-43.0	-47.7	10.6	3.22e-03	0	59	0	334495744	56	6624
2026-01-20 09:56:18.79	157.83	29.80	-43.3	-48.6	9.7	9.73e-03	0	59	0	341835776	57	6897
2026-01-20 09:56:22.83	157.77	30.59	-43.5	-49.1	9.2	1.88e-02	0	59	0	349175808	57	7313
2026-01-20 09:56:26.87	157.71	31.39	-43.6	-49.5	8.8	2.89e-02	0	59	0	356515840	57	7693
2026-01-20 09:56:30.91	157.64	32.21	-43.6	-49.5	8.8	3.23e-02	0	59	0	364904448	57	7653
2026-01-20 09:56:34.95	157.56	33.06	-43.7	-49.7	8.6	3.39e-02	0	59	0	372244480	57	7839
2026-01-20 09:56:38.99	157.49	33.93	-43.6	-49.4	8.9	2.70e-02	0	59	0	379584512	57	7550
2026-01-20 09:56:43.03	157.40	34.83	-43.1	-47.8	10.5	3.95e-03	0	59	0	386924544	57	6345
2026-01-20 09:56:47.06	157.31	35.75	-42.7	-46.9	11.5	1.14e-03	0	59	0	394264576	57	5697
2026-01-20 09:56:51.10	157.22	36.70	-42.1	-45.7	12.7	8.08e-05	0	59	0	402653184	56	5263
2026-01-20 09:56:55.14	157.12	37.68	-42.1	-45.7	12.8	5.26e-05	0	59	0	409993216	56	5226
2026-01-20 09:56:59.18	157.01	38.69	-42.1	-45.7	12.8	7.24e-05	0	59	0	417333248	56	5259
2026-01-20 09:57:03.22	156.89	39.73	-42.2	-45.9	12.6	8.46e-05	0	59	0	424673280	56	5384
2026-01-20 09:57:07.26	156.77	40.80	-42.3	-46.2	12.3	2.44e-04	0	59	0	433061888	56	5537
2026-01-20 09:57:11.30	156.63	41.91	-42.6	-46.7	11.8	4.26e-04	0	59	0	440401920	56	5859
2026-01-20 09:57:15.34	156.49	43.05	-42.6	-46.7	11.7	5.07e-04	0	59	0	447741952	56	5887
2026-01-20 09:57:19.37	156.33	44.22	-42.8	-47.1	11.3	1.13e-03	0	59	0	455081984	56	6171
2026-01-20 09:57:23.42	156.16	45.43	-43.2	-48.2	10.2	3.80e-03	0	59	0	462422016	56	6980
2026-01-20 09:57:27.45	155.98	46.67	-43.7	-49.5	8.8	2.54e-02	0	59	0	470810624	57	7652
2026-01-20 09:57:31.49	155.78	47.96	-43.7	-49.6	8.7	4.23e-02	0	59	0	478150656	58	7306
2026-01-20 09:57:35.53	155.56	49.28	-43.4	-48.7	9.7	1.17e-02	0	59	0	485490688	58	6590
2026-01-20 09:57:39.57	155.32	50.64	-42.9	-47.2	11.2	2.41e-03	0	59	0	492830720	57	5901
2026-01-20 09:57:43.61	155.05	52.04	-41.6	-44.9	13.4	2.21e-05	0	59	0	501219328	55	5095
2026-01-20 09:57:47.64	154.76	53.48	-41.6	-44.9	13.5	1.06e-05	0	59	0	508559360	54	5344
2026-01-20 09:57:51.68	154.43	54.97	-41.7	-45.0	13.4	1.22e-05	0	59	0	515899392	54	5422
2026-01-20 09:57:55.72	154.07	56.50	-42.9	-47.4	11.0	1.23e-03	0	59	0	523239424	56	6403
2026-01-20 09:57:59.76	153.66	58.07	-43.9	-50.2	8.1	4.98e-02	0	59	0	530579456	58	7872
2026-01-20 09:58:03.79	153.20	59.67	-43.6	-49.2	9.1	3.14e-02	0	59	0	538968064	58	6962
2026-01-20 09:58:07.83	152.67	61.32	-42.7	-46.8	11.6	8.02e-04	0	59	0	546308096	57	5604
2026-01-20 09:58:11.87	152.07	63.01	-42.2	-45.9	12.6	8.46e-05	0	59	0	553648128	56	5352
2026-01-20 09:58:15.91	151.37	64.74	-41.9	-45.4	12.8	4.50e-05	0	59	0	560988160	55	5382
2026-01-20 09:58:19.94	150.56	66.50	-42.6	-46.7	11.4	1.31e-03	0	59	0	568328192	55	6260
2026-01-20 09:58:23.98	149.60	68.30	-43.0	-47.7	10.5	3.63e-03	0	59	0	576716800	56	6596
2026-01-20 09:58:28.02	148.44	70.13	-42.9	-47.4	10.9	2.56e-03	0	59	0	584056832	56	6395
2026-01-20 09:58:32.06	147.02	71.98	-42.9	-47.5	10.8	2.51e-03	0	59	0	591396864	56	6455
2026-01-20 09:58:36.09	145.25	73.85	-43.2	-48.1	10.1	4.53e-03	0	59	0	598736896	56	6924
2026-01-20 09:58:40.13	142.99	75.73	-42.9	-47.4	10.9	2.34e-03	0	59	0	607125504	57	6011
2026-01-20 09:58:44.17	140.02	77.61	-43.2	-48.1	10.0	7.22e-03	0	59	0	614465536	57	6569
2026-01-20 09:58:48.20	135.96	79.46	-42.7	-46.9	11.2	2.49e-03	0	59	0	621805568	57	5716
2026-01-20 09:58:52.24	130.15	81.26	-43.2	-48.2	9.9	5.22e-03	0	59	0	629145600	56	7037
2026-01-20 09:58:56.28	121.41	82.93	-42.5	-46.5	11.6	8.45e-04	0	59	0	636485632	57	5457
2026-01-20 09:59:00.31	107.77	84.35	-41.3	-44.5	13.7	1.83e-05	0	59	0	644874240	54	5116
2026-01-20 09:59:04.35	86.99	85.28	-42.0	-45.8	12.3	1.18e-04	0	59	0	652214272	54	5939
2026-01-20 09:59:08.39	61.26	85.38	-42.8	-47.2	11.0	2.87e-03	0	59	0	659554304	56	6269
2026-01-20 09:59:12.43	38.91	84.61	-41.8	-45.3	12.9	6.25e-05	0	59	0	666894336	55	5284
2026-01-20 09:59:16.47	23.81	83.27	-43.0	-47.5	10.8	1.91e-03	0	59	0	675282944	56	6486
2026-01-20 09:59:20.50	14.21	81.64	-42.9	-47.5	10.8	5.00e-03	0	59	0	682622976	57	6067
2026-01-20 09:59:24.54	7.88	79.87	-42.4	-46.2	12.2	3.71e-04	0	59	0	689963008	56	5539
2026-01-20 09:59:28.58	3.50	78.02	-42.5	-46.4	11.9	2.70e-04	0	59	0	697303040	56	5704
2026-01-20 09:59:32.61	0.33	76.16	-43.3	-48.2	10.1	5.68e-03	0	59	0	704643072	57	6615
2026-01-20 09:59:36.65	357.93	74.28	-43.9	-50.2	8.0	6.62e-02	0	59	0	713031680	58	7818
2026-01-20 09:59:40.69	356.07	72.41	-43.0	-47.6	10.7	3.02e-03	0	59	0	720371712	58	5823
2026-01-20 09:59:44.72	354.59	70.56	-43.0	-47.6	10.7	1.13e-03	0	59	0	727711744	56	6550
2026-01-20 09:59:48.76	353.38	68.73	-43.4	-48.6	9.7	8.92e-03	0	59	0	735051776	57	6883
2026-01-20 09:59:52.80	352.37	66.93	-43.8	-49.6	8.7	5.83e-02	0	59	0	742391808	58	7315
2026-01-20 09:59:56.84	351.53	65.16	-42.8	-47.0	11.3	3.90e-03	0	59	0	750780416	56	6101
2026-01-20 10:00:00.87	350.81	63.43	-41.4	-44.5	13.8	2.20e-06	0	59	0	758120448	54	5150
2026-01-20 10:00:04.91	350.19	61.74	-40.9	-43.6	14.6	0.00e+00	0	59	0	765460480	52	5212
2026-01-20 10:00:08.95	349.65	60.08	-43.0	-47.6	10.8	3.08e-03	0	59	0	772800512	56	6538
2026-01-20 10:00:12.99	349.18	58.47	-43.3	-48.2	10.1	5.20e-03	0	59	0	781189120	57	6639
2026-01-20 10:00:17.02	348.76	56.90	-43.3	-48.2	10.1	2.02e-02	0	59	0	788529152	58	6232
2026-01-20 10:00:21.06	348.39	55.37	-41.9	-45.4	12.9	4.80e-05	0	59	0	795869184	55	5389
2026-01-20 10:00:25.10	348.05	53.88	-41.8	-45.2	13.1	2.05e-05	0	59	0	803209216	55	5228
2026-01-20 10:00:29.14	347.75	52.43	-42.1	-45.8	12.6	3.20e-05	0	59	0	810549248	54	5939
2026-01-20 10:00:33.18	347.48	51.03	-43.0	-47.6	10.7	3.40e-03	0	59	0	818937856	57	6191
2026-01-20 10:00:37.22	347.24	49.66	-43.2	-48.1	10.2	5.12e-03	0	59	0	826277888	57	6530
2026-01-20 10:00:41.26	347.02	48.33	-44.3	-51.6	6.6	1.95e-01	0	59	0	833617920	59	8738
2026-01-20 10:00:45.30	346.81	47.04	-43.0	-47.5	10.9	1.89e-03	0	59	0	840957952	57	6069
2026-01-20 10:00:49.33	346.63	45.80	-43.8	-49.8	8.4	3.15e-02	0	60	0	849346560	58	7527
2026-01-20 10:00:53.37	346.45	44.58	-43.2	-48.1	10.1	1.01e-02	0	59	0	856686592	58	6190
2026-01-20 10:00:57.41	346.30	43.41	-42.5	-46.4	12.0	3.11e-04	0	59	0	864026624	56	5699
2026-01-20 10:01:01.44	346.15	42.27	-43.6	-49.4	8.9	1.85e-02	0	59	0	871366656	57	7559
2026-01-20 10:01:05.48	346.02	41.16	-43.8	-49.7	8.4	6.82e-02	0	59	0	878706688	58	7457
2026-01-20 10:01:09.52	345.89	40.09	-42.9	-47.5	10.8	2.36e-03	0	60	0	887095296	57	6069
2026-01-20 10:01:13.56	345.77	39.04	-43.7	-49.6	8.6	2.79e-02	0	60	0	894435328	57	7773
2026-01-20 10:01:17.59	345.66	38.03	-44.2	-51.6	6.7	1.93e-01	0	60	0	901775360	58	9262
2026-01-20 10:01:21.63	345.56	37.05	-44.1	-51.1	7.4	5.15e-01	0	60	0	909115392	59	8230
2026-01-20 10:01:25.67	345.47	36.10	-43.5	-49.1	9.1	3.20e-02	0	59	0	914358272	59	6527
2026-01-20 10:01:29.70	345.38	35.17	-43.8	-49.9	8.2	4.82e-02	0	60	0	921698304	59	7138
2026-01-20 10:01:33.74	345.30	34.27	-44.2	-51.8	6.5	1.90e-01	0	60	0	930086912	59	8899
2026-01-20 10:01:37.78	345.22	33.40	-44.7	-55.9	4.3	7.01e-01	57	59	0	937426944	60	13474
2026-01-20 10:01:41.82	345.15	32.55	-44.0	-51.0	7.1	1.70e-01	0	60	0	938475520	59	8136
2026-01-20 10:01:45.86	345.08	31.72	-43.4	-49.0	9.1	2.43e-02	0	60	0	945815552	58	6821
2026-01-20 10:01:49.90	345.01	30.91	-43.5	-49.5	8.6	3.37e-02	0	60	0	953155584	58	7227
2026-01-20 10:01:53.94	344.95	30.13	-43.8	-50.5	7.6	8.56e-02	0	59	0	961544192	58	8126
2026-01-20 10:01:57.98	344.90	29.37	-43.7	-50.1	7.8	8.58e-02	0	59	0	968884224	58	7791
2026-01-20 10:02:02.02	344.84	28.63	-43.3	-49.0	9.0	3.06e-02	0	60	0	976224256	58	6816
2026-01-20 10:02:06.05	344.79	27.91	-43.0	-48.1	9.8	1.09e-02	0	59	0	983564288	58	6188
2026-01-20 10:02:10.09	344.75	27.20	-42.6	-47.1	10.8	2.96e-03	0	60	0	991952896	57	5829
2026-01-20 10:02:14.13	344.70	26.52	-42.3	-46.7	11.3	1.11e-03	0	59	0	999292928	56	5866
2026-01-20 10:02:18.16	344.66	25.85	-42.2	-46.6	11.1	1.58e-03	0	60	0	1006632960	56	5836
2026-01-20 10:02:22.20	344.62	25.20	-42.2	-46.6	11.1	1.44e-03	0	60	0	1013972992	56	5815
2026-01-20 10:02:26.24	344.58	24.56	-42.0	-46.3	11.2	1.48e-03	0	60	0	1021313024	56	5640
2026-01-20 10:02:30.28	344.54	23.94	-41.7	-46.0	11.3	9.15e-04	0	60	0	1029701632	55	5771
2026-01-20 10:02:34.31	344.51	23.33	-41.3	-45.3	11.8	5.79e-04	0	60	0	1037041664	54	5613
2026-01-20 10:02:38.35	344.48	22.74	-41.1	-45.5	11.2	1.69e-03	0	60	0	1044381696	54	5774
2026-01-20 10:02:42.39	344.45	22.16	-40.6	-44.8	11.3	9.89e-04	0	59	0	1051721728	53	5651
2026-01-20 10:02:46.42	344.42	21.59	-40.8	-45.9	10.0	4.50e-03	0	60	0	1060110336	53	6356
2026-01-20 10:02:50.46	344.39	21.04	-41.5	-50.5	5.3	4.72e-01	0	60	0	1067450368	53	10860
2026-01-20 10:02:54.50	344.37	20.49	-41.4	-54.9	3.8	1.49e+00	0	60	104	1069547520	53	17995
2026-01-20 10:02:58.54	344.34	19.96	-41.0	-55.8	3.8	1.49e+00	0	59	104	1069547520	53	19862
2026-01-20 10:03:02.58	344.32	19.44	-40.8	-55.5	3.8	1.49e+00	0	59	104	1069547520	53	19291
2026-01-20 10:03:06.62	344.30	18.93	-40.8	-55.5	3.8	1.49e+00	0	59	104	1069547520	53	19209
2026-01-20 10:03:10.65	344.28	18.44	-40.9	-55.6	3.8	1.49e+00	0	60	104	1069547520	53	19472
2026-01-20 10:03:14.69	344.26	17.95	-40.9	-55.6	3.8	1.49e+00	0	60	104	1069547520	53	19575
2026-01-20 10:03:18.73	344.24	17.47	-40.6	-55.5	3.8	1.49e+00	0	60	104	1069547520	52	20343
2026-01-20 10:03:22.77	344.23	17.00	-40.6	-55.4	3.8	1.49e+00	0	60	104	1069547520	52	20134
2026-01-20 10:03:26.81	344.21	16.53	-40.8	-55.5	3.8	1.49e+00	0	60	104	1069547520	52	20520
2026-01-20 10:03:30.84	344.20	16.08	-40.8	-55.6	3.8	1.49e+00	0	60	104	1069547520	52	20622
2026-01-20 10:03:34.88	344.18	15.64	-40.6	-55.4	3.8	1.49e+00	0	60	104	1069547520	52	20281
2026-01-20 10:03:38.91	344.17	15.20	-40.5	-55.4	3.8	1.49e+00	0	60	104	1069547520	52	20097
2026-01-20 10:03:42.95	344.16	14.77	-40.7	-55.5	3.8	1.49e+00	0	60	104	1069547520	52	20307
2026-01-20 10:03:46.99	344.15	14.35	-40.8	-55.5	3.8	1.49e+00	0	60	104	1069547520	52	20455
2026-01-20 10:03:51.03	344.13	13.94	-40.6	-55.4	3.8	1.49e+00	0	60	104	1069547520	52	20173
2026-01-20 10:03:55.07	344.12	13.53	-40.4	-55.2	3.8	1.49e+00	0	60	104	1069547520	52	19742
2026-01-20 10:03:59.11	344.12	13.13	-40.4	-55.2	3.8	1.49e+00	0	60	104	1069547520	52	19678
2026-01-20 10:04:03.14	344.11	12.74	-40.6	-55.3	3.8	1.49e+00	0	60	104	1069547520	52	19948
2026-01-20 10:04:07.18	344.10	12.35	-40.7	-55.4	3.8	1.49e+00	0	60	104	1069547520	52	20119
2026-01-20 10:04:11.22	344.09	11.97	-40.7	-55.3	3.8	1.49e+00	0	60	104	1069547520	52	19950
2026-01-20 10:04:15.25	344.09	11.59	-40.6	-55.2	3.8	1.49e+00	0	60	104	1069547520	52	19679
2026-01-20 10:04:19.29	344.08	11.22	-40.4	-55.1	3.8	1.49e+00	0	60	104	1069547520	52	19425
2026-01-20 10:04:23.33	344.07	10.86	-40.4	-55.1	3.8	1.49e+00	0	60	104	1069547520	52	19396
2026-01-20 10:04:27.37	344.07	10.50	-40.5	-55.1	3.8	1.49e+00	0	60	104	1069547520	52	19480
2026-01-20 10:04:31.41	344.06	10.15	-40.5	-55.2	3.8	1.49e+00	0	60	104	1069547520	52	19634
2026-01-20 10:04:35.45	344.06	9.80	-40.6	-55.2	3.8	1.49e+00	0	60	104	1069547520	52	19835
2026-01-20 10:04:39.49	344.06	9.45	-40.6	-55.2	3.8	1.49e+00	0	60	104	1069547520	52	19818
2026-01-20 10:04:43.52	344.05	9.11	-40.6	-55.2	3.8	1.49e+00	0	60	104	1069547520	52	19650
2026-01-20 10:04:47.56	344.05	8.78	-40.6	-55.1	3.8	1.49e+00	0	60	104	1069547520	52	19523
2026-01-20 10:04:51.60	344.05	8.45	-40.4	-55.0	3.8	1.49e+00	0	60	104	1069547520	52	19338
2026-01-20 10:04:55.64	344.05	8.12	-40.4	-55.0	3.8	1.49e+00	0	60	104	1069547520	52	19322
2026-01-20 10:04:59.68	344.05	7.80	-41.5	-56.2	3.8	1.49e+00	0	60	104	1069547520	53	20921
2026-01-20 10:05:03.72	344.05	7.48	-45.1	-59.7	3.8	1.49e+00	0	60	104	1069547520	60	20990
2026-01-20 10:05:07.76	344.05	7.17	-45.0	-59.8	3.8	1.49e+00	0	60	104	1069547520	60	21133
2026-01-20 10:05:11.79	344.05	6.86	-45.1	-59.6	3.8	1.49e+00	0	60	104	1069547520	60	20722
2026-01-20 10:05:15.83	344.05	6.55	-45.1	-59.6	3.8	1.49e+00	0	60	104	1069547520	60	20688
2026-01-20 10:05:19.88	344.05	6.25	-45.1	-59.6	3.8	1.49e+00	0	60	104	1069547520	60	20655
2026-01-20 10:05:23.92	344.05	5.95	-45.0	-59.6	3.8	1.49e+00	0	60	104	1069547520	60	20586
2026-01-20 10:05:27.96	344.05	5.65	-45.0	-59.5	3.8	1.49e+00	0	60	104	1069547520	60	20525
2026-01-20 10:05:32.00	344.05	5.36	-45.0	-59.6	3.8	1.49e+00	0	60	104	1069547520	60	20601
2026-01-20 10:05:36.05	344.05	5.07	-45.0	-59.6	3.8	1.49e+00	0	60	104	1069547520	60	20562
2026-01-20 10:05:40.09	344.06	4.78	-45.0	-59.6	3.8	1.49e+00	0	60	104	1069547520	60	20612
2026-01-20 10:05:44.13	344.06	4.50	-44.8	-59.6	3.8	1.49e+00	0	60	104	1069547520	60	20541
2026-01-20 10:05:48.17	344.06	4.22	-45.0	-59.6	3.8	1.49e+00	0	60	104	1069547520	60	20557
2026-01-20 10:05:52.22	344.06	3.94	-44.8	-59.5	3.8	1.49e+00	0	60	104	1069547520	60	20529
2026-01-20 10:05:56.26	344.07	3.67	-44.9	-59.6	3.8	1.49e+00	0	60	104	1069547520	60	20561
2026-01-20 10:06:00.30	344.07	3.40	-44.9	-59.5	3.8	1.49e+00	0	60	104	1069547520	60	20538
2026-01-20 10:06:04.35	344.08	3.13	-44.6	-59.4	3.8	1.49e+00	0	60	104	1069547520	59	21387
2026-01-20 10:06:08.39	344.08	2.86	-44.8	-59.5	3.8	1.49e+00	0	60	104	1069547520	60	20449
2026-01-20 10:06:12.43	344.08	2.59	-43.3	-59.3	3.8	1.49e+00	0	60	104	1069547520	58	22411
2026-01-20 10:06:16.47	344.09	2.33	-44.0	-59.3	3.8	1.49e+00	0	60	104	1069547520	58	22416
2026-01-20 10:06:20.52	344.09	2.07	-44.6	-59.7	3.8	1.49e+00	0	60	104	1069547520	60	20802

#Closed at: 2026-01-20 10:06:22
#Recorded file [1069 MB]: D:/lorett/data/31039_260120_125156.dat