passes_logs/2026/01/20/R2.0S_Moscow/R2.0S_Moscow__20260120_225216_NOAA_21_JPSS-2_rec.log

#Pass ID: 20260120_225216_NOAA 21 (JPSS-2)
#Satellite: NOAA 21 (JPSS-2)
#Configuration: NOAA-21
#almurnet v.1.7.20251203
#Start time: 2026-01-20 22:52:16

#Version: 2.2.20231116
#Station: R2.0S_Moscow
#Location: 37.707566 lon 55.798166 lat
#TLE: 1 54234U 22150A   26020.29910383  .00000141  00000+0  87571-4 0  9990
#TLE: 2 54234  98.7506 321.1348 0000615 250.8428 109.2682 14.19536295165564

#Time	Az	El	Level	Level2	SNR	BER	BlckErr	Temp	State	Recorded	gain1	gain2
2026-01-20 22:52:16.87	20.25	2.04	-42.1	-54.8	3.8	1.49e+00	0	48	0	0	56	14892
2026-01-20 22:52:20.90	20.42	2.29	-41.9	-54.5	3.8	1.49e+00	0	49	104	0	55	15391
2026-01-20 22:52:24.94	20.58	2.54	-41.9	-54.6	3.8	1.49e+00	0	49	104	0	55	15440
2026-01-20 22:52:28.99	20.75	2.79	-41.9	-54.6	3.8	1.49e+00	0	50	104	0	55	15432
2026-01-20 22:52:33.03	20.91	3.04	-41.9	-54.6	3.8	1.49e+00	0	50	104	0	55	15441
2026-01-20 22:52:37.07	21.08	3.30	-41.9	-54.6	3.8	1.49e+00	0	50	104	0	55	15479
2026-01-20 22:52:41.11	21.26	3.56	-41.9	-54.6	3.8	1.49e+00	0	50	104	0	55	15450
2026-01-20 22:52:45.15	21.44	3.82	-41.9	-54.6	3.8	1.49e+00	0	51	104	0	55	15437
2026-01-20 22:52:49.19	21.61	4.08	-41.9	-54.5	3.8	1.49e+00	0	51	104	0	55	15384
2026-01-20 22:52:53.23	21.80	4.35	-41.9	-54.6	3.8	1.49e+00	0	51	104	0	55	15412
2026-01-20 22:52:57.28	21.98	4.61	-41.9	-54.6	3.8	1.49e+00	0	51	104	0	55	15448
2026-01-20 22:53:01.32	22.17	4.88	-41.9	-54.5	3.8	1.49e+00	0	52	104	0	55	15391
2026-01-20 22:53:05.36	22.36	5.16	-41.9	-54.5	3.8	1.49e+00	0	52	104	0	55	15381
2026-01-20 22:53:09.40	22.56	5.43	-41.9	-54.5	3.8	1.49e+00	0	52	104	0	55	15323
2026-01-20 22:53:13.44	22.76	5.71	-41.9	-54.5	3.8	1.49e+00	0	52	104	0	55	15400
2026-01-20 22:53:17.48	22.96	5.99	-41.9	-54.5	3.8	1.49e+00	0	52	104	0	55	15348
2026-01-20 22:53:21.53	23.16	6.27	-41.9	-54.5	3.8	1.49e+00	0	53	104	0	55	15372
2026-01-20 22:53:25.57	23.37	6.56	-41.9	-54.6	3.8	1.49e+00	0	53	104	0	55	15416
2026-01-20 22:53:29.61	23.59	6.85	-41.9	-54.5	3.8	1.49e+00	0	53	104	0	55	15317
2026-01-20 22:53:33.65	23.80	7.14	-41.9	-54.5	3.8	1.49e+00	0	53	104	0	55	15291
2026-01-20 22:53:37.69	24.02	7.44	-41.9	-54.0	3.8	1.49e+00	0	53	104	0	55	14491
2026-01-20 22:53:41.73	24.25	7.74	-41.6	-51.6	3.9	1.47e+00	0	53	104	0	55	10939
2026-01-20 22:53:45.78	24.48	8.04	-40.6	-46.7	6.6	2.54e-01	0	54	0	6291456	53	6974
2026-01-20 22:53:49.82	24.71	8.34	-41.3	-46.1	8.2	2.36e-02	0	54	0	11534336	53	6555
2026-01-20 22:53:53.85	24.95	8.65	-40.5	-44.4	9.8	1.04e-02	0	54	0	24117248	52	5664
2026-01-20 22:53:57.89	25.19	8.96	-40.5	-44.2	10.1	5.60e-03	0	54	0	36700160	52	5552
2026-01-20 22:54:01.93	25.44	9.28	-40.4	-44.0	10.5	3.79e-03	0	54	0	50331648	52	5427
2026-01-20 22:54:05.96	25.69	9.60	-40.3	-43.6	11.0	3.04e-03	0	54	0	61865984	52	5182
2026-01-20 22:54:10.00	25.95	9.92	-40.5	-43.7	11.1	1.55e-03	0	55	0	75497472	52	5253
2026-01-20 22:54:14.04	26.21	10.24	-40.4	-43.6	11.4	1.17e-03	0	55	0	88080384	52	5169
2026-01-20 22:54:18.07	26.48	10.57	-40.3	-43.2	11.8	5.74e-04	0	55	0	100663296	52	4976
2026-01-20 22:54:22.11	26.76	10.91	-40.2	-43.1	12.0	2.94e-04	0	55	0	113246208	52	4911
2026-01-20 22:54:26.16	27.04	11.25	-40.1	-42.9	12.3	1.78e-04	0	55	0	125829120	52	4778
2026-01-20 22:54:30.20	27.33	11.59	-40.1	-42.9	12.3	2.05e-04	0	55	0	138412032	52	4798
2026-01-20 22:54:34.23	27.62	11.94	-40.1	-42.9	12.4	1.74e-04	0	55	0	150994944	52	4770
2026-01-20 22:54:38.27	27.92	12.29	-40.0	-42.6	12.7	9.15e-05	0	55	0	163577856	52	4642
2026-01-20 22:54:42.31	28.22	12.64	-40.1	-42.8	12.7	8.46e-05	0	55	0	176160768	51	4985
2026-01-20 22:54:46.35	28.54	13.00	-40.1	-42.7	12.8	5.72e-05	0	55	0	188743680	51	4948
2026-01-20 22:54:50.39	28.86	13.37	-40.1	-42.8	12.8	4.95e-05	0	55	0	201326592	51	4995
2026-01-20 22:54:54.43	29.19	13.74	-40.0	-42.6	13.0	4.42e-05	0	55	0	213909504	51	4885
2026-01-20 22:54:58.47	29.52	14.11	-40.1	-42.6	13.0	3.89e-05	0	55	0	226492416	51	4914
2026-01-20 22:55:02.51	29.87	14.49	-40.2	-42.8	12.9	3.96e-05	0	56	0	239075328	51	4990
2026-01-20 22:55:06.55	30.22	14.87	-40.3	-42.9	12.8	4.19e-05	0	56	0	251658240	51	5061
2026-01-20 22:55:10.59	30.59	15.26	-40.2	-42.8	12.9	3.89e-05	0	56	0	264241152	51	5015
2026-01-20 22:55:14.63	30.96	15.66	-40.2	-42.7	13.0	4.88e-05	0	56	0	276824064	51	4979
2026-01-20 22:55:18.67	31.34	16.06	-40.3	-43.0	12.8	6.71e-05	0	56	0	289406976	51	5105
2026-01-20 22:55:22.70	31.73	16.46	-40.5	-43.2	12.6	1.17e-04	0	56	0	301989888	51	5263
2026-01-20 22:55:26.75	32.13	16.88	-40.6	-43.4	12.4	1.24e-04	0	56	0	314572800	51	5347
2026-01-20 22:55:30.79	32.54	17.29	-40.7	-43.5	12.3	1.47e-04	0	56	0	327155712	51	5422
2026-01-20 22:55:34.83	32.96	17.72	-40.6	-43.3	12.6	1.03e-04	0	56	0	339738624	51	5287
2026-01-20 22:55:38.86	33.40	18.15	-40.7	-43.4	12.3	1.44e-04	0	56	0	352321536	52	5084
2026-01-20 22:55:42.91	33.85	18.58	-40.6	-43.3	12.5	1.23e-04	0	56	0	364904448	52	5031
2026-01-20 22:55:46.95	34.30	19.02	-40.4	-42.9	12.9	4.34e-05	0	56	0	377487360	52	4813
2026-01-20 22:55:50.99	34.78	19.47	-40.2	-42.7	13.2	3.43e-05	0	56	0	391118848	52	4688
2026-01-20 22:55:55.02	35.26	19.92	-40.1	-42.5	13.3	1.29e-05	0	57	0	403701760	52	4585
2026-01-20 22:55:59.06	35.76	20.38	-40.1	-42.4	13.6	1.06e-05	0	56	0	416284672	51	4795
2026-01-20 22:56:03.10	36.28	20.85	-40.0	-42.3	13.6	4.50e-06	0	56	0	428867584	51	4740
2026-01-20 22:56:07.14	36.81	21.32	-39.8	-42.0	13.9	3.80e-06	0	57	0	441450496	51	4586
2026-01-20 22:56:11.18	37.35	21.80	-39.7	-41.8	14.1	1.50e-06	0	57	0	454033408	51	4480
2026-01-20 22:56:15.22	37.91	22.29	-39.6	-41.8	14.2	7.00e-07	0	57	0	466616320	51	4478
2026-01-20 22:56:19.25	38.49	22.78	-39.6	-41.7	14.3	0.00e+00	0	57	0	479199232	50	4685
2026-01-20 22:56:23.30	39.09	23.28	-39.5	-41.7	14.4	7.00e-07	0	57	0	491782144	50	4659
2026-01-20 22:56:27.33	39.71	23.79	-39.5	-41.6	14.5	0.00e+00	0	57	0	504365056	50	4632
2026-01-20 22:56:31.37	40.35	24.30	-39.6	-41.7	14.4	1.50e-06	0	57	0	516947968	50	4666
2026-01-20 22:56:35.41	41.00	24.82	-39.7	-41.8	14.3	1.50e-06	0	57	0	529530880	50	4744
2026-01-20 22:56:39.45	41.68	25.35	-39.8	-42.0	14.2	7.00e-07	0	57	0	542113792	50	4826
2026-01-20 22:56:43.50	42.39	25.88	-39.9	-42.1	14.1	3.00e-06	0	57	0	554696704	50	4903
2026-01-20 22:56:47.54	43.11	26.42	-40.1	-42.4	13.8	2.20e-06	0	57	0	567279616	50	5069
2026-01-20 22:56:51.58	43.86	26.96	-40.4	-42.9	13.3	1.22e-05	0	57	0	579862528	51	5043
2026-01-20 22:56:55.62	44.64	27.52	-40.7	-43.2	13.0	4.57e-05	0	57	0	592445440	51	5265
2026-01-20 22:56:59.65	45.44	28.07	-40.6	-43.1	13.0	3.12e-05	0	57	0	605028352	52	4909
2026-01-20 22:57:03.69	46.27	28.63	-40.6	-43.1	13.0	3.89e-05	0	57	0	617611264	52	4921
2026-01-20 22:57:07.74	47.13	29.20	-40.5	-43.0	13.2	2.89e-05	0	57	0	630194176	52	4815
2026-01-20 22:57:11.78	48.02	29.77	-40.2	-42.5	13.6	1.29e-05	0	57	0	642777088	52	4587
2026-01-20 22:57:15.81	48.94	30.34	-40.2	-42.6	13.6	1.52e-05	0	57	0	655360000	52	4610
2026-01-20 22:57:19.85	49.90	30.92	-40.2	-42.6	13.6	8.30e-06	0	57	0	667942912	52	4608
2026-01-20 22:57:23.89	50.89	31.50	-40.1	-42.3	13.8	9.90e-06	0	57	0	680525824	52	4486
2026-01-20 22:57:27.93	51.91	32.09	-40.2	-42.5	13.6	9.90e-06	0	57	0	693108736	52	4581
2026-01-20 22:57:31.97	52.97	32.67	-40.5	-43.0	13.2	2.13e-05	0	57	0	706740224	52	4820
2026-01-20 22:57:36.01	54.07	33.26	-40.6	-43.2	13.0	3.89e-05	0	57	0	718274560	52	4941
2026-01-20 22:57:40.04	55.21	33.84	-40.7	-43.2	13.0	3.35e-05	0	57	0	731906048	52	4973
2026-01-20 22:57:44.08	56.39	34.42	-40.9	-43.5	12.6	1.17e-04	0	57	0	744488960	52	5152
2026-01-20 22:57:48.12	57.61	35.00	-40.9	-43.5	12.6	8.92e-05	0	57	0	757071872	52	5146
2026-01-20 22:57:52.16	58.88	35.58	-41.2	-44.0	12.1	2.12e-04	0	57	0	769654784	52	5455
2026-01-20 22:57:56.20	60.19	36.15	-41.2	-44.0	12.2	2.28e-04	0	57	0	782237696	53	5103
2026-01-20 22:58:00.24	61.54	36.71	-41.3	-44.2	12.0	3.25e-04	0	58	0	794820608	53	5238
2026-01-20 22:58:04.28	62.95	37.27	-41.0	-43.7	12.6	9.61e-05	0	57	0	807403520	53	4931
2026-01-20 22:58:08.32	64.40	37.81	-41.2	-44.0	12.3	1.52e-04	0	57	0	819986432	53	5112
2026-01-20 22:58:12.36	65.90	38.35	-41.4	-44.3	11.9	3.76e-04	0	58	0	832569344	53	5324
2026-01-20 22:58:16.40	67.44	38.86	-41.6	-44.7	11.6	6.81e-04	0	57	0	845152256	53	5552
2026-01-20 22:58:20.44	69.04	39.37	-41.9	-45.1	11.1	1.63e-03	0	58	0	857735168	54	5521
2026-01-20 22:58:24.48	70.69	39.85	-42.0	-45.3	11.0	1.99e-03	0	58	0	870318080	54	5621
2026-01-20 22:58:28.51	72.38	40.31	-42.1	-45.5	10.7	3.48e-03	0	58	0	882900992	55	5449
2026-01-20 22:58:32.55	74.12	40.76	-41.9	-45.2	11.1	1.72e-03	0	58	0	895483904	55	5236
2026-01-20 22:58:36.59	75.91	41.17	-42.1	-45.6	10.7	3.34e-03	0	58	0	908066816	55	5483
2026-01-20 22:58:40.63	77.74	41.56	-41.9	-45.1	11.1	1.47e-03	0	58	0	920649728	55	5184
2026-01-20 22:58:44.67	79.62	41.92	-42.1	-45.4	10.8	3.41e-03	0	57	0	933232640	55	5394
2026-01-20 22:58:48.71	81.53	42.26	-42.0	-45.4	10.8	2.57e-03	0	58	0	945815552	55	5388
2026-01-20 22:58:52.75	83.49	42.55	-41.7	-44.7	11.6	7.17e-04	0	58	0	958398464	55	4934
2026-01-20 22:58:56.79	85.48	42.81	-41.8	-44.9	11.4	8.35e-04	0	58	0	970981376	55	5067
2026-01-20 22:59:00.83	87.50	43.04	-41.9	-45.1	11.1	2.04e-03	0	58	0	983564288	55	5203
2026-01-20 22:59:04.86	89.54	43.23	-41.7	-44.8	11.5	6.90e-04	0	58	0	996147200	55	5004
2026-01-20 22:59:08.90	91.60	43.37	-41.7	-44.7	11.7	6.28e-04	0	58	0	1008730112	55	4933
2026-01-20 22:59:12.94	93.68	43.48	-42.0	-45.2	11.2	1.56e-03	0	58	0	1021313024	55	5225
2026-01-20 22:59:16.98	95.78	43.55	-41.8	-44.9	11.5	8.14e-04	0	57	0	1033895936	55	5051
2026-01-20 22:59:21.01	97.87	43.57	-41.7	-44.7	11.7	4.71e-04	0	58	0	1046478848	55	4952
2026-01-20 22:59:25.05	99.98	43.55	-41.9	-45.0	11.3	1.18e-03	0	58	0	1059061760	55	5150
2026-01-20 22:59:29.09	102.07	43.49	-41.8	-45.0	11.4	9.67e-04	0	58	0	1072693248	55	5102
2026-01-20 22:59:33.13	104.16	43.39	-41.8	-44.9	11.4	1.02e-03	0	58	0	1085276160	55	5063
2026-01-20 22:59:37.17	106.23	43.25	-42.4	-46.0	10.3	5.02e-03	0	58	0	1097859072	55	5740
2026-01-20 22:59:41.21	108.28	43.07	-42.0	-45.2	11.1	1.75e-03	0	58	0	1110441984	55	5272
2026-01-20 22:59:45.24	110.30	42.85	-42.1	-45.5	10.8	2.30e-03	0	58	0	1123024896	55	5464
2026-01-20 22:59:49.28	112.30	42.59	-41.4	-44.3	12.1	3.65e-04	0	58	0	1135607808	54	5011
2026-01-20 22:59:53.32	114.26	42.30	-42.3	-45.8	10.5	3.13e-03	0	58	0	1148190720	55	5628
2026-01-20 22:59:57.36	116.19	41.97	-41.9	-45.0	11.3	1.21e-03	0	58	0	1160773632	55	5155
2026-01-20 23:00:01.40	118.07	41.61	-42.0	-45.3	11.0	1.36e-03	0	58	0	1173356544	55	5312
2026-01-20 23:00:05.43	119.91	41.22	-41.9	-45.1	11.2	1.50e-03	0	58	0	1185939456	55	5188
2026-01-20 23:00:09.47	121.71	40.81	-42.1	-45.4	10.8	2.18e-03	0	58	0	1198522368	55	5388
2026-01-20 23:00:13.51	123.46	40.37	-41.9	-45.1	11.2	1.42e-03	0	58	0	1211105280	55	5177
2026-01-20 23:00:17.54	125.16	39.91	-41.7	-44.8	11.6	6.54e-04	0	58	0	1223688192	54	5297
2026-01-20 23:00:21.58	126.82	39.42	-41.4	-44.2	12.1	3.61e-04	0	58	0	1236271104	54	4972
2026-01-20 23:00:25.62	128.43	38.92	-41.9	-45.1	11.3	1.37e-03	0	58	0	1248854016	54	5468
2026-01-20 23:00:29.66	129.99	38.40	-41.9	-45.1	11.3	1.44e-03	0	58	0	1261436928	54	5476
2026-01-20 23:00:33.70	131.50	37.87	-41.6	-44.6	11.7	4.79e-04	0	58	0	1274019840	54	5194
2026-01-20 23:00:37.73	132.96	37.32	-41.3	-44.1	12.2	2.19e-04	0	58	0	1286602752	54	4924
2026-01-20 23:00:41.77	134.37	36.76	-41.2	-43.9	12.4	1.69e-04	0	58	0	1299185664	54	4771
2026-01-20 23:00:45.81	135.74	36.20	-41.1	-43.8	12.5	1.14e-04	0	58	0	1311768576	54	4759
2026-01-20 23:00:49.85	137.06	35.63	-41.3	-44.1	12.2	1.81e-04	0	58	0	1324351488	54	4874
2026-01-20 23:00:53.89	138.34	35.05	-41.2	-43.9	12.4	1.67e-04	0	58	0	1336934400	54	4806
2026-01-20 23:00:57.93	139.57	34.46	-41.1	-43.9	12.4	1.26e-04	0	58	0	1349517312	54	4765
2026-01-20 23:01:01.97	140.76	33.88	-40.8	-43.4	12.9	5.34e-05	0	58	0	1362100224	53	4794
2026-01-20 23:01:06.01	141.91	33.29	-40.4	-42.7	13.6	9.10e-06	0	58	0	1374683136	52	4704
2026-01-20 23:01:10.05	143.01	32.70	-40.0	-42.2	14.1	2.20e-06	0	58	0	1387266048	52	4437
2026-01-20 23:01:14.08	144.08	32.11	-40.1	-42.3	14.1	2.20e-06	0	58	0	1399848960	51	4718
2026-01-20 23:01:18.12	145.11	31.52	-40.1	-42.4	14.0	2.20e-06	0	58	0	1413480448	51	4772
2026-01-20 23:01:22.17	146.11	30.94	-40.1	-42.3	14.0	7.00e-07	0	58	0	1425014784	51	4746
2026-01-20 23:01:26.21	147.07	30.35	-39.9	-42.0	14.4	7.00e-07	0	58	0	1437597696	51	4565
2026-01-20 23:01:30.24	148.00	29.78	-40.2	-42.5	13.9	3.00e-06	0	58	0	1451229184	51	4832
2026-01-20 23:01:34.28	148.90	29.20	-40.3	-42.6	13.7	9.10e-06	0	58	0	1463812096	51	4910
2026-01-20 23:01:38.32	149.76	28.63	-40.2	-42.5	13.8	4.50e-06	0	58	0	1476395008	51	4860
2026-01-20 23:01:42.36	150.60	28.06	-40.5	-43.0	13.3	9.90e-06	0	58	0	1488977920	51	5114
2026-01-20 23:01:46.40	151.40	27.50	-40.5	-42.9	13.4	1.52e-05	0	58	0	1501560832	51	5066
2026-01-20 23:01:50.44	152.19	26.95	-40.4	-42.8	13.4	1.52e-05	0	58	0	1514143744	51	5023
2026-01-20 23:01:54.48	152.94	26.40	-40.2	-42.5	13.7	6.10e-06	0	58	0	1526726656	51	4840
2026-01-20 23:01:58.52	153.67	25.86	-39.8	-42.0	14.3	2.20e-06	0	58	0	1539309568	51	4553
2026-01-20 23:02:02.56	154.38	25.32	-40.0	-42.3	14.0	2.20e-06	0	58	0	1551892480	51	4708
2026-01-20 23:02:06.61	155.06	24.79	-40.1	-42.4	13.9	2.20e-06	0	58	0	1564475392	51	4773
2026-01-20 23:02:10.65	155.72	24.26	-40.0	-42.2	14.0	2.20e-06	0	58	0	1577058304	51	4677
2026-01-20 23:02:14.68	156.36	23.75	-39.9	-42.2	13.9	2.20e-06	0	58	0	1589641216	51	4655
2026-01-20 23:02:18.72	156.98	23.23	-39.9	-42.2	14.0	7.00e-07	0	58	0	1602224128	51	4663
2026-01-20 23:02:22.76	157.58	22.73	-40.0	-42.3	13.8	3.00e-06	0	58	0	1614807040	51	4752
2026-01-20 23:02:26.80	158.16	22.23	-40.0	-42.3	13.7	5.30e-06	0	58	0	1627389952	51	4729
2026-01-20 23:02:30.84	158.73	21.74	-40.0	-42.3	13.7	8.30e-06	0	58	0	1639972864	51	4733
2026-01-20 23:02:34.88	159.28	21.26	-39.9	-42.2	13.8	4.50e-06	0	58	0	1652555776	51	4674
2026-01-20 23:02:38.92	159.81	20.78	-39.9	-42.2	13.8	2.20e-06	0	58	0	1665138688	51	4681
2026-01-20 23:02:42.96	160.32	20.31	-40.0	-42.4	13.6	2.20e-06	0	58	0	1677721600	51	4771
2026-01-20 23:02:47.00	160.82	19.85	-40.2	-42.6	13.4	1.44e-05	0	58	0	1690304512	51	4891
2026-01-20 23:02:51.03	161.31	19.39	-40.1	-42.5	13.4	9.90e-06	0	58	0	1702887424	51	4855
2026-01-20 23:02:55.07	161.78	18.94	-40.1	-42.5	13.4	1.37e-05	0	58	0	1715470336	51	4855
2026-01-20 23:02:59.11	162.24	18.49	-40.0	-42.4	13.5	9.10e-06	0	58	0	1728053248	51	4760
2026-01-20 23:03:03.14	162.69	18.06	-39.9	-42.2	13.7	8.30e-06	0	58	0	1740636160	51	4671
2026-01-20 23:03:07.18	163.12	17.62	-39.8	-42.1	13.7	8.30e-06	0	58	0	1753219072	51	4624
2026-01-20 23:03:11.22	163.54	17.20	-40.1	-42.5	13.3	1.37e-05	0	58	0	1766850560	51	4848
2026-01-20 23:03:15.26	163.96	16.78	-40.4	-43.0	12.8	5.11e-05	0	58	0	1778384896	51	5119
2026-01-20 23:03:19.30	164.36	16.36	-40.6	-43.3	12.4	1.07e-04	0	58	0	1792016384	51	5303
2026-01-20 23:03:23.35	164.75	15.95	-40.7	-43.4	12.2	2.40e-04	0	58	0	1804599296	52	5099
2026-01-20 23:03:27.39	165.13	15.55	-40.4	-43.0	12.6	1.19e-04	0	58	0	1817182208	52	4832
2026-01-20 23:03:31.42	165.50	15.15	-40.4	-43.0	12.5	1.37e-04	0	58	0	1829765120	52	4853
2026-01-20 23:03:35.46	165.86	14.76	-40.4	-43.1	12.4	1.23e-04	0	58	0	1842348032	52	4905
2026-01-20 23:03:39.51	166.21	14.37	-40.3	-42.9	12.6	1.13e-04	0	58	0	1854930944	52	4797
2026-01-20 23:03:43.54	166.56	13.99	-40.2	-42.8	12.7	8.31e-05	0	58	0	1867513856	52	4757
2026-01-20 23:03:47.59	166.89	13.61	-40.4	-43.1	12.4	1.32e-04	0	58	0	1880096768	52	4886
2026-01-20 23:03:51.62	167.22	13.24	-40.5	-43.2	12.2	2.08e-04	0	58	0	1892679680	52	4967
2026-01-20 23:03:55.66	167.54	12.87	-40.6	-43.5	11.9	3.70e-04	0	58	0	1905262592	52	5105
2026-01-20 23:03:59.70	167.85	12.51	-40.6	-43.5	11.9	4.08e-04	0	58	0	1917845504	52	5115
2026-01-20 23:04:03.74	168.15	12.15	-40.7	-43.6	11.7	5.39e-04	0	58	0	1930428416	52	5200
2026-01-20 23:04:07.78	168.45	11.79	-40.6	-43.5	11.8	5.45e-04	0	58	0	1943011328	52	5154
2026-01-20 23:04:11.82	168.74	11.44	-40.6	-43.5	11.7	5.03e-04	0	58	0	1955594240	52	5139
2026-01-20 23:04:15.86	169.03	11.10	-40.7	-43.7	11.5	8.39e-04	0	58	0	1968177152	52	5275
2026-01-20 23:04:19.90	169.31	10.76	-40.6	-43.7	11.5	1.01e-03	0	58	0	1980760064	52	5220
2026-01-20 23:04:23.94	169.58	10.42	-40.8	-44.0	11.1	1.50e-03	0	58	0	1993342976	52	5407
2026-01-20 23:04:27.98	169.85	10.09	-40.8	-44.0	11.1	1.48e-03	0	58	0	2005925888	52	5407
2026-01-20 23:04:32.01	170.11	9.76	-40.8	-44.0	11.0	1.85e-03	0	58	0	2018508800	52	5453
2026-01-20 23:04:36.05	170.36	9.44	-40.8	-44.1	10.8	2.27e-03	0	58	0	2031091712	52	5506
2026-01-20 23:04:40.09	170.61	9.12	-40.9	-44.3	10.5	4.12e-03	0	58	0	2043674624	52	5609
2026-01-20 23:04:44.13	170.86	8.80	-40.9	-44.4	10.3	4.66e-03	0	58	0	2056257536	52	5687
2026-01-20 23:04:48.17	171.10	8.48	-40.9	-44.5	10.2	6.80e-03	0	58	0	2068840448	52	5731
2026-01-20 23:04:52.21	171.33	8.17	-40.7	-44.2	10.3	5.20e-03	0	58	0	2081423360	52	5554
2026-01-20 23:04:56.25	171.56	7.87	-44.8	-57.2	3.8	1.49e+00	0	58	104	2089811968	60	15750
2026-01-20 23:05:00.29	171.79	7.56	-45.2	-57.6	3.8	1.49e+00	0	58	104	2089811968	60	16440
2026-01-20 23:05:04.33	172.01	7.26	-45.3	-57.6	3.8	1.49e+00	0	58	104	2089811968	61	15544
2026-01-20 23:05:08.37	172.23	6.97	-45.2	-57.6	3.8	1.49e+00	0	59	104	2089811968	61	15419
2026-01-20 23:05:12.41	172.44	6.67	-45.2	-57.6	3.8	1.49e+00	0	58	104	2089811968	61	15435
2026-01-20 23:05:16.46	172.65	6.38	-45.2	-57.5	3.8	1.49e+00	0	58	104	2089811968	61	15339
2026-01-20 23:05:20.50	172.85	6.09	-45.2	-57.5	3.8	1.49e+00	0	59	104	2089811968	61	15391
2026-01-20 23:05:24.54	173.05	5.81	-45.2	-57.5	3.8	1.49e+00	0	58	104	2089811968	61	15352
2026-01-20 23:05:28.58	173.25	5.52	-45.2	-57.5	3.8	1.49e+00	0	58	104	2089811968	61	15400
2026-01-20 23:05:32.62	173.45	5.24	-45.2	-57.5	3.8	1.49e+00	0	59	104	2089811968	61	15328
2026-01-20 23:05:36.66	173.64	4.97	-45.2	-57.5	3.8	1.49e+00	0	58	104	2089811968	61	15325
2026-01-20 23:05:40.70	173.83	4.69	-45.2	-57.5	3.8	1.49e+00	0	59	104	2089811968	61	15342
2026-01-20 23:05:44.75	174.01	4.42	-45.2	-57.5	3.8	1.49e+00	0	58	104	2089811968	61	15323
2026-01-20 23:05:48.79	174.19	4.15	-45.2	-57.5	3.8	1.49e+00	0	59	104	2089811968	61	15373
2026-01-20 23:05:52.83	174.37	3.88	-45.1	-57.5	3.8	1.49e+00	0	59	104	2089811968	61	15338
2026-01-20 23:05:56.87	174.54	3.62	-45.2	-57.5	3.8	1.49e+00	0	59	104	2089811968	61	15276
2026-01-20 23:06:00.91	174.72	3.36	-45.1	-57.5	3.8	1.49e+00	0	59	104	2089811968	61	15295
2026-01-20 23:06:04.96	174.89	3.10	-45.1	-57.5	3.8	1.49e+00	0	59	104	2089811968	61	15275
2026-01-20 23:06:09.00	175.05	2.84	-45.1	-57.4	3.8	1.49e+00	0	59	104	2089811968	61	15217
2026-01-20 23:06:13.04	175.22	2.58	-45.1	-57.5	3.8	1.49e+00	0	59	104	2089811968	61	15286
2026-01-20 23:06:17.08	175.38	2.33	-45.1	-57.5	3.8	1.49e+00	0	59	104	2089811968	61	15268
2026-01-20 23:06:21.12	175.54	2.08	-45.1	-57.5	3.8	1.49e+00	0	59	104	2089811968	61	15346

#Closed at: 2026-01-20 23:06:22
#Recorded file [2089 MB]: D:/lorett/data/31039_260121_015216.dat