passes_logs/2026/01/20/R2.0S_Moscow/R2.0S_Moscow__20260120_111224_SUOMI_NPP_rec.log

#Pass ID: 20260120_111224_SUOMI NPP
#Satellite: SUOMI NPP
#Configuration: NPP
#almurnet v.1.7.20251203
#Start time: 2026-01-20 11:12:25

#Version: 2.2.20231116
#Station: R2.0S_Moscow
#Location: 37.707566 lon 55.798166 lat
#TLE: 1 37849U 11061A   26019.61507914  .00000076  00000+0  57195-4 0  9994
#TLE: 2 37849  98.7817 321.6240 0002347  55.5899 304.5499 14.19526391737369

#Time	Az	El	Level	Level2	SNR	BER	BlckErr	Temp	State	Recorded	gain1	gain2
2026-01-20 11:12:25.16	196.86	2.05	-43.6	-58.1	3.8	1.49e+00	0	49	0	0	57	20614
2026-01-20 11:12:29.20	197.10	2.29	-43.6	-58.1	3.8	1.49e+00	0	50	104	0	59	18311
2026-01-20 11:12:33.24	197.33	2.53	-43.6	-58.1	3.8	1.49e+00	0	50	104	0	59	18362
2026-01-20 11:12:37.28	197.57	2.77	-43.6	-58.1	3.8	1.49e+00	0	51	104	0	59	18330
2026-01-20 11:12:41.32	197.82	3.01	-43.6	-58.1	3.8	1.49e+00	0	51	104	0	59	18316
2026-01-20 11:12:45.37	198.07	3.26	-43.6	-58.0	3.8	1.49e+00	0	51	104	0	59	18279
2026-01-20 11:12:49.41	198.32	3.50	-43.6	-58.1	3.8	1.49e+00	0	51	104	0	59	18345
2026-01-20 11:12:53.45	198.57	3.75	-43.6	-58.0	3.8	1.49e+00	0	52	104	0	59	18305
2026-01-20 11:12:57.49	198.83	4.00	-43.6	-58.1	3.8	1.49e+00	0	52	104	0	59	18372
2026-01-20 11:13:01.53	199.10	4.25	-43.6	-58.1	3.8	1.49e+00	0	52	104	0	59	18307
2026-01-20 11:13:05.57	199.37	4.51	-43.6	-58.0	3.8	1.49e+00	0	52	104	0	59	18301
2026-01-20 11:13:09.61	199.64	4.76	-43.6	-58.0	3.8	1.49e+00	0	52	104	0	59	18272
2026-01-20 11:13:13.66	199.92	5.02	-43.6	-58.0	3.8	1.49e+00	0	53	104	0	59	18269
2026-01-20 11:13:17.70	200.20	5.28	-43.6	-57.9	3.8	1.49e+00	0	53	104	0	59	18083
2026-01-20 11:13:21.73	200.49	5.54	-43.6	-57.9	3.8	1.49e+00	0	53	104	0	59	18013
2026-01-20 11:13:25.77	200.78	5.80	-43.6	-57.5	3.8	1.49e+00	0	53	104	0	59	17146
2026-01-20 11:13:29.81	201.08	6.07	-43.4	-56.2	3.8	1.49e+00	0	54	104	0	58	15652
2026-01-20 11:13:33.85	201.38	6.34	-43.4	-54.7	3.9	1.44e+00	0	54	104	0	58	13234
2026-01-20 11:13:37.90	201.69	6.61	-43.3	-53.7	4.4	1.11e+00	0	54	0	3145728	58	11784
2026-01-20 11:13:41.94	202.01	6.88	-43.3	-53.7	4.5	1.19e+00	0	54	0	9437184	58	11705
2026-01-20 11:13:45.98	202.33	7.16	-43.3	-53.9	4.4	1.33e+00	0	54	0	11534336	58	11983
2026-01-20 11:13:50.03	202.65	7.43	-42.8	-50.7	6.1	4.18e-01	0	54	0	18874368	57	8848
2026-01-20 11:13:54.07	202.98	7.71	-42.4	-48.7	7.9	8.12e-02	0	55	0	27262976	56	7424
2026-01-20 11:13:58.11	203.32	7.99	-42.3	-48.7	8.0	4.43e-02	0	55	0	34603008	56	7373
2026-01-20 11:14:02.15	203.67	8.28	-43.3	-54.8	3.9	4.28e-01	0	55	104	40894464	57	14186
2026-01-20 11:14:06.19	204.02	8.56	-42.1	-47.9	8.8	3.26e-02	0	55	0	45088768	56	6782
2026-01-20 11:14:10.22	204.37	8.85	-41.8	-47.4	9.0	2.19e-02	0	55	0	52428800	55	6796
2026-01-20 11:14:14.26	204.74	9.14	-41.7	-47.0	9.6	1.40e-02	0	55	0	59768832	55	6432
2026-01-20 11:14:18.29	205.11	9.43	-41.7	-46.7	10.0	7.88e-03	0	55	0	68157440	55	6237
2026-01-20 11:14:22.33	205.49	9.73	-41.8	-46.6	10.3	4.91e-03	0	55	0	75497472	55	6164
2026-01-20 11:14:26.37	205.87	10.03	-41.7	-46.2	10.9	2.11e-03	0	56	0	82837504	55	5898
2026-01-20 11:14:30.41	206.27	10.33	-41.7	-46.2	11.0	1.66e-03	0	56	0	90177536	55	5857
2026-01-20 11:14:34.45	206.67	10.63	-41.7	-46.1	11.1	2.27e-03	0	56	0	97517568	55	5791
2026-01-20 11:14:38.48	207.08	10.94	-41.9	-46.4	10.9	2.59e-03	0	56	0	105906176	55	6038
2026-01-20 11:14:42.52	207.49	11.24	-41.9	-46.6	10.8	3.40e-03	0	56	0	113246208	55	6136
2026-01-20 11:14:46.56	207.92	11.55	-41.9	-46.4	11.0	2.29e-03	0	56	0	120586240	55	5995
2026-01-20 11:14:50.60	208.36	11.87	-41.6	-45.7	11.5	2.21e-03	0	56	0	127926272	55	5570
2026-01-20 11:14:54.63	208.80	12.18	-41.5	-45.5	11.9	5.25e-04	0	56	0	136314880	55	5410
2026-01-20 11:14:58.67	209.25	12.50	-41.6	-45.5	12.0	3.32e-04	0	56	0	143654912	54	5750
2026-01-20 11:15:02.71	209.72	12.82	-41.6	-45.5	12.0	4.38e-04	0	56	0	150994944	54	5783
2026-01-20 11:15:06.74	210.19	13.14	-41.7	-45.9	11.5	5.65e-04	0	56	0	158334976	54	6055
2026-01-20 11:15:10.78	210.67	13.47	-41.8	-46.0	11.6	1.01e-03	0	56	0	165675008	54	6064
2026-01-20 11:15:14.82	211.17	13.80	-41.7	-45.7	11.8	5.78e-04	0	57	0	174063616	54	5918
2026-01-20 11:15:18.86	211.67	14.13	-41.7	-45.7	12.0	3.94e-04	0	56	0	181403648	54	5864
2026-01-20 11:15:22.89	212.19	14.46	-41.9	-45.9	11.7	5.73e-04	0	57	0	188743680	54	6054
2026-01-20 11:15:26.93	212.71	14.80	-42.1	-46.5	11.1	1.01e-03	0	57	0	196083712	54	6422
2026-01-20 11:15:30.97	213.25	15.14	-42.0	-46.2	11.4	9.89e-04	0	57	0	204472320	54	6231
2026-01-20 11:15:35.01	213.80	15.48	-41.8	-46.1	11.5	7.54e-03	0	57	0	211812352	54	6171
2026-01-20 11:15:39.04	214.37	15.82	-41.8	-46.5	11.1	8.05e-03	0	57	0	219152384	54	6479
2026-01-20 11:15:43.08	214.94	16.16	-42.0	-46.9	10.7	9.17e-03	0	57	0	226492416	54	6746
2026-01-20 11:15:47.12	215.53	16.51	-41.9	-46.8	10.8	8.92e-03	0	57	0	233832448	54	6712
2026-01-20 11:15:51.16	216.13	16.86	-42.2	-46.5	11.3	2.60e-03	0	57	0	242221056	54	6488
2026-01-20 11:15:55.20	216.75	17.21	-41.8	-45.9	11.9	3.97e-04	0	57	0	249561088	54	6052
2026-01-20 11:15:59.23	217.38	17.56	-41.8	-45.7	12.2	2.47e-04	0	57	0	256901120	54	5889
2026-01-20 11:16:03.27	218.02	17.92	-41.7	-45.5	12.3	2.59e-04	0	57	0	264241152	54	5766
2026-01-20 11:16:07.30	218.68	18.27	-41.7	-45.4	12.4	1.90e-04	0	57	0	272629760	54	5708
2026-01-20 11:16:11.34	219.36	18.63	-41.8	-45.6	12.2	1.91e-04	0	57	0	279969792	54	5845
2026-01-20 11:16:15.37	220.05	18.99	-41.6	-45.5	12.4	1.55e-04	0	57	0	287309824	54	5735
2026-01-20 11:16:19.41	220.75	19.35	-41.8	-45.7	12.2	2.07e-04	0	57	0	294649856	54	5879
2026-01-20 11:16:23.44	221.47	19.71	-41.6	-45.3	12.6	7.32e-05	0	57	0	301989888	54	5620
2026-01-20 11:16:27.48	222.21	20.07	-41.4	-44.9	13.1	4.19e-05	0	57	0	310378496	54	5342
2026-01-20 11:16:31.53	222.97	20.44	-41.3	-44.6	13.4	2.44e-05	0	58	0	317718528	54	5175
2026-01-20 11:16:35.57	223.75	20.80	-41.3	-44.7	13.3	2.89e-05	0	57	0	325058560	54	5226
2026-01-20 11:16:39.60	224.54	21.16	-41.2	-44.5	13.5	1.06e-05	0	58	0	332398592	54	5127
2026-01-20 11:16:43.64	225.35	21.52	-41.4	-44.7	13.2	1.83e-05	0	58	0	340787200	54	5276
2026-01-20 11:16:47.68	226.18	21.88	-41.7	-45.3	12.7	5.18e-05	0	57	0	348127232	54	5629
2026-01-20 11:16:51.72	227.03	22.24	-41.8	-45.5	12.4	1.56e-04	0	58	0	355467264	54	5788
2026-01-20 11:16:55.75	227.89	22.60	-41.6	-45.2	12.8	6.40e-05	0	58	0	362807296	54	5552
2026-01-20 11:16:59.79	228.78	22.96	-41.4	-44.7	13.3	1.60e-05	0	58	0	370147328	54	5241
2026-01-20 11:17:03.83	229.69	23.31	-41.3	-44.6	13.3	1.37e-05	0	58	0	378535936	54	5206
2026-01-20 11:17:07.86	230.62	23.66	-41.4	-44.8	13.2	1.90e-05	0	58	0	385875968	54	5302
2026-01-20 11:17:11.90	231.56	24.01	-41.1	-44.3	13.7	4.50e-06	0	58	0	393216000	53	5285
2026-01-20 11:17:15.94	232.53	24.36	-41.2	-44.4	13.6	3.00e-06	0	58	0	400556032	53	5356
2026-01-20 11:17:19.98	233.52	24.70	-41.6	-45.1	12.9	3.58e-05	0	58	0	407896064	53	5837
2026-01-20 11:17:24.02	234.53	25.04	-41.6	-45.1	12.9	6.86e-05	0	58	0	416284672	54	5505
2026-01-20 11:17:28.05	235.56	25.37	-41.9	-45.6	12.4	1.08e-04	0	58	0	423624704	54	5819
2026-01-20 11:17:32.09	236.62	25.69	-41.7	-45.4	12.6	9.68e-05	0	58	0	430964736	54	5667
2026-01-20 11:17:36.13	237.69	26.01	-41.5	-44.9	13.1	3.20e-05	0	58	0	438304768	54	5346
2026-01-20 11:17:40.17	238.79	26.33	-41.6	-45.2	12.8	3.35e-05	0	58	0	446693376	54	5531
2026-01-20 11:17:44.20	239.90	26.63	-42.0	-45.9	12.1	2.62e-04	0	58	0	454033408	54	6037
2026-01-20 11:17:48.24	241.04	26.93	-41.8	-45.4	12.6	1.43e-04	0	58	0	461373440	55	5391
2026-01-20 11:17:52.27	242.20	27.21	-41.7	-45.3	12.6	4.27e-05	0	58	0	468713472	55	5337
2026-01-20 11:17:56.31	243.37	27.49	-41.9	-45.6	12.4	1.14e-04	0	58	0	476053504	55	5514
2026-01-20 11:18:00.35	244.57	27.76	-42.1	-46.1	11.8	7.08e-04	0	58	0	484442112	55	5855
2026-01-20 11:18:04.39	245.79	28.01	-41.4	-44.7	13.3	1.44e-05	0	58	0	491782144	54	5270
2026-01-20 11:18:08.43	247.03	28.26	-42.1	-46.0	12.0	2.72e-04	0	58	0	499122176	54	6130
2026-01-20 11:18:12.46	248.28	28.49	-41.9	-45.7	12.3	1.64e-04	0	58	0	506462208	54	5890
2026-01-20 11:18:16.50	249.55	28.71	-42.0	-45.9	12.1	1.20e-04	0	58	0	514850816	54	6003
2026-01-20 11:18:20.54	250.84	28.91	-42.6	-47.1	10.9	2.02e-03	0	58	0	522190848	55	6495
2026-01-20 11:18:24.57	252.14	29.11	-42.7	-47.3	10.7	2.41e-03	0	58	0	529530880	55	6664
2026-01-20 11:18:28.61	253.46	29.28	-43.4	-49.1	8.9	2.90e-02	0	58	0	536870912	57	7297
2026-01-20 11:18:32.65	254.79	29.44	-42.4	-46.5	11.6	7.67e-04	0	58	0	544210944	56	5762
2026-01-20 11:18:36.69	256.13	29.59	-43.0	-47.8	10.2	6.19e-03	0	58	0	552599552	56	6718
2026-01-20 11:18:40.73	257.49	29.72	-43.2	-48.3	9.8	1.35e-02	0	58	0	559939584	57	6677
2026-01-20 11:18:44.77	258.85	29.83	-42.4	-46.5	11.7	5.62e-04	0	58	0	567279616	56	5740
2026-01-20 11:18:48.81	260.23	29.92	-42.2	-46.0	12.1	4.02e-04	0	58	0	574619648	56	5442
2026-01-20 11:18:52.85	261.61	30.00	-42.5	-46.6	11.5	9.18e-04	0	58	0	583008256	56	5834
2026-01-20 11:18:56.88	262.99	30.06	-41.7	-45.2	12.8	4.50e-05	0	58	0	590348288	55	5228
2026-01-20 11:19:00.92	264.38	30.10	-41.5	-44.8	13.1	2.44e-05	0	58	0	597688320	54	5313
2026-01-20 11:19:04.96	265.78	30.13	-42.1	-46.0	11.9	2.18e-04	0	58	0	605028352	54	6104
2026-01-20 11:19:09.00	267.17	30.13	-42.4	-46.6	11.3	1.77e-03	0	58	0	612368384	55	6176
2026-01-20 11:19:13.03	268.56	30.12	-42.6	-47.1	10.9	2.40e-03	0	58	0	620756992	55	6498
2026-01-20 11:19:17.07	269.95	30.09	-42.1	-46.1	11.9	2.32e-04	0	58	0	628097024	55	5808
2026-01-20 11:19:21.11	271.34	30.04	-42.7	-47.0	11.1	1.92e-03	0	59	0	635437056	56	6118
2026-01-20 11:19:25.15	272.73	29.97	-42.9	-47.5	10.5	3.04e-03	0	58	0	642777088	56	6482
2026-01-20 11:19:29.18	274.10	29.89	-42.8	-47.4	10.7	2.15e-03	0	59	0	651165696	56	6378
2026-01-20 11:19:33.22	275.47	29.78	-43.2	-48.5	9.6	1.58e-02	0	58	0	658505728	57	6854
2026-01-20 11:19:37.26	276.83	29.66	-43.2	-48.3	9.8	7.89e-03	0	58	0	665845760	57	6683
2026-01-20 11:19:41.29	278.17	29.53	-43.1	-48.2	9.9	7.52e-03	0	58	0	673185792	57	6605
2026-01-20 11:19:45.33	279.51	29.38	-43.4	-49.1	8.9	3.35e-02	0	59	0	680525824	57	7338
2026-01-20 11:19:49.37	280.83	29.21	-43.7	-49.9	8.1	5.45e-02	0	59	0	688914432	57	8065
2026-01-20 11:19:53.41	282.14	29.03	-43.3	-48.7	9.4	1.44e-02	0	59	0	696254464	58	6571
2026-01-20 11:19:57.45	283.43	28.83	-43.9	-50.8	7.2	1.66e-01	0	58	0	703594496	58	8412
2026-01-20 11:20:01.49	284.71	28.62	-43.1	-48.1	9.9	1.11e-02	0	58	0	710934528	58	6199
2026-01-20 11:20:05.53	285.97	28.39	-42.8	-47.4	10.7	2.73e-03	0	58	0	719323136	57	6008
2026-01-20 11:20:09.57	287.22	28.16	-42.9	-47.8	10.3	5.82e-03	0	59	0	726663168	57	6284
2026-01-20 11:20:13.60	288.44	27.91	-42.7	-47.1	10.9	2.86e-03	0	58	0	734003200	57	5849
2026-01-20 11:20:17.64	289.64	27.65	-42.9	-47.6	10.4	4.91e-03	0	59	0	741343232	57	6175
2026-01-20 11:20:21.67	290.82	27.38	-42.7	-47.2	10.8	2.50e-03	0	59	0	748683264	57	5918
2026-01-20 11:20:25.71	291.99	27.10	-42.7	-47.3	10.8	2.29e-03	0	59	0	757071872	57	5932
2026-01-20 11:20:29.75	293.13	26.81	-43.2	-48.5	9.5	1.12e-02	0	59	0	764411904	57	6821
2026-01-20 11:20:33.79	294.26	26.51	-43.0	-47.9	10.2	6.99e-03	0	59	0	771751936	57	6392
2026-01-20 11:20:37.82	295.36	26.21	-42.7	-47.4	10.7	3.63e-03	0	59	0	779091968	57	6000
2026-01-20 11:20:41.87	296.45	25.89	-42.3	-46.3	11.8	7.91e-04	0	58	0	786432000	56	5627
2026-01-20 11:20:45.91	297.51	25.57	-42.8	-47.5	10.4	5.46e-03	0	59	0	794820608	56	6491
2026-01-20 11:20:49.94	298.54	25.25	-42.2	-46.1	12.0	3.75e-04	0	59	0	802160640	56	5504
2026-01-20 11:20:53.98	299.56	24.92	-42.0	-45.8	12.3	2.93e-04	0	59	0	809500672	56	5315
2026-01-20 11:20:58.02	300.56	24.58	-41.9	-45.7	12.2	1.62e-04	0	59	0	816840704	55	5554
2026-01-20 11:21:02.06	301.54	24.24	-42.0	-45.9	11.9	5.81e-04	0	59	0	825229312	55	5693
2026-01-20 11:21:06.10	302.49	23.90	-41.4	-44.8	13.1	1.67e-05	0	59	0	832569344	54	5314
2026-01-20 11:21:10.13	303.43	23.55	-42.0	-45.9	12.0	3.07e-04	0	59	0	839909376	54	6019
2026-01-20 11:21:14.17	304.34	23.20	-41.5	-45.0	13.0	4.88e-05	0	59	0	847249408	54	5429
2026-01-20 11:21:18.21	305.24	22.85	-41.9	-45.8	12.1	4.37e-04	0	58	0	854589440	54	5946
2026-01-20 11:21:22.24	306.11	22.49	-41.2	-44.5	13.4	6.10e-06	0	59	0	862978048	54	5115
2026-01-20 11:21:26.29	306.97	22.13	-42.3	-46.6	11.2	1.75e-03	0	59	0	870318080	55	6185
2026-01-20 11:21:30.33	307.81	21.78	-41.5	-45.0	12.8	7.47e-05	0	59	0	877658112	55	5157
2026-01-20 11:21:34.37	308.63	21.42	-41.7	-45.4	12.4	1.13e-04	0	59	0	884998144	54	5722
2026-01-20 11:21:38.40	309.43	21.06	-41.6	-45.2	12.6	9.30e-05	0	59	0	893386752	54	5535
2026-01-20 11:21:42.44	310.21	20.70	-42.2	-46.4	11.3	7.65e-04	0	59	0	900726784	54	6400
2026-01-20 11:21:46.48	310.97	20.34	-42.3	-46.7	11.0	2.40e-03	0	59	0	908066816	55	6261
2026-01-20 11:21:50.52	311.72	19.98	-42.1	-46.2	11.5	6.00e-04	0	59	0	915406848	55	5905
2026-01-20 11:21:54.55	312.45	19.62	-41.8	-45.7	12.0	3.68e-04	0	59	0	922746880	55	5556
2026-01-20 11:21:58.59	313.16	19.27	-41.2	-44.6	13.2	3.81e-05	0	59	0	931135488	54	5183
2026-01-20 11:22:02.60	313.86	18.91	-41.5	-45.2	12.6	9.53e-05	0	59	0	938475520	54	5556
2026-01-20 11:22:06.64	314.54	18.56	-41.5	-45.2	12.5	1.43e-04	0	59	0	945815552	54	5560
2026-01-20 11:22:10.68	315.20	18.20	-42.1	-46.3	11.5	5.27e-04	0	59	0	953155584	54	6278
2026-01-20 11:22:14.72	315.86	17.85	-42.2	-46.7	11.0	1.92e-03	0	59	0	961544192	55	6214
2026-01-20 11:22:18.76	316.49	17.50	-41.6	-45.4	12.3	2.08e-04	0	59	0	968884224	55	5364
2026-01-20 11:22:22.80	317.12	17.15	-41.4	-45.0	12.7	1.07e-04	0	59	0	976224256	54	5420
2026-01-20 11:22:26.84	317.73	16.80	-41.4	-44.9	12.8	7.70e-05	0	59	0	983564288	54	5368
2026-01-20 11:22:30.87	318.32	16.46	-41.2	-44.5	13.2	1.75e-05	0	59	0	990904320	54	5142
2026-01-20 11:22:34.91	318.90	16.12	-41.5	-45.1	12.5	1.01e-04	0	59	0	999292928	54	5502
2026-01-20 11:22:38.95	319.47	15.77	-41.8	-45.9	11.7	4.49e-04	0	59	0	1006632960	54	6008
2026-01-20 11:22:42.99	320.03	15.44	-42.0	-46.2	11.4	8.77e-04	0	59	0	1013972992	54	6236
2026-01-20 11:22:47.02	320.58	15.10	-41.8	-45.8	11.7	5.46e-04	0	59	0	1021313024	54	5971
2026-01-20 11:22:51.06	321.11	14.77	-41.6	-45.6	12.0	3.46e-04	0	59	0	1028653056	54	5805
2026-01-20 11:22:55.10	321.63	14.43	-41.6	-45.5	12.0	2.97e-04	0	58	0	1037041664	54	5729
2026-01-20 11:22:59.13	322.14	14.10	-41.3	-45.0	12.6	1.23e-04	0	59	0	1044381696	54	5403
2026-01-20 11:23:03.17	322.64	13.78	-41.3	-45.0	12.5	9.15e-05	0	59	0	1051721728	54	5405
2026-01-20 11:23:07.21	323.13	13.45	-41.7	-45.7	11.8	4.69e-04	0	59	0	1059061760	54	5895
2026-01-20 11:23:11.24	323.61	13.13	-42.0	-46.4	11.0	1.93e-03	0	59	0	1067450368	54	6418
2026-01-20 11:23:15.28	324.08	12.81	-42.0	-46.3	11.0	2.03e-03	0	59	0	1074790400	54	6334
2026-01-20 11:23:19.32	324.54	12.50	-41.9	-46.2	11.2	1.57e-03	0	59	0	1082130432	54	6223
2026-01-20 11:23:23.36	324.99	12.18	-42.0	-46.6	10.8	2.57e-03	0	59	0	1089470464	54	6501
2026-01-20 11:23:27.40	325.43	11.87	-42.3	-47.2	10.1	5.71e-03	0	59	0	1096810496	55	6596
2026-01-20 11:23:31.44	325.87	11.56	-42.0	-46.5	10.6	5.07e-03	0	59	0	1105199104	55	6125
2026-01-20 11:23:35.48	326.29	11.25	-42.0	-46.7	10.5	2.89e-03	0	59	0	1112539136	55	6206
2026-01-20 11:23:39.51	326.71	10.95	-42.0	-46.6	10.6	4.31e-03	0	59	0	1119879168	55	6182
2026-01-20 11:23:43.55	327.11	10.65	-42.4	-47.7	9.4	1.35e-02	0	59	0	1127219200	55	7021
2026-01-20 11:23:47.59	327.51	10.35	-42.2	-47.4	9.7	1.29e-02	0	59	0	1135607808	55	6771
2026-01-20 11:23:51.63	327.91	10.05	-42.1	-47.1	10.0	8.95e-03	0	59	0	1142947840	55	6519
2026-01-20 11:23:55.66	328.29	9.76	-41.9	-46.5	10.5	4.02e-03	0	59	0	1150287872	55	6111
2026-01-20 11:23:59.70	328.67	9.47	-42.1	-47.2	9.8	9.30e-03	0	59	0	1157627904	55	6622
2026-01-20 11:24:03.74	329.04	9.18	-42.4	-48.2	8.8	2.84e-02	0	59	0	1164967936	55	7374
2026-01-20 11:24:07.78	329.40	8.89	-42.6	-49.0	7.9	6.15e-02	0	59	0	1173356544	55	8123
2026-01-20 11:24:11.81	329.76	8.60	-42.5	-48.8	8.1	6.84e-02	0	59	0	1180696576	55	7919
2026-01-20 11:24:15.85	330.11	8.32	-42.3	-48.2	8.6	3.84e-02	0	59	0	1188036608	55	7390
2026-01-20 11:24:19.89	330.45	8.04	-42.1	-47.6	9.1	2.47e-02	0	59	0	1195376640	55	6928
2026-01-20 11:24:23.93	330.79	7.76	-44.8	-59.4	3.8	1.49e+00	0	59	104	1197473792	60	20151
2026-01-20 11:24:27.97	331.12	7.49	-45.2	-59.7	3.8	1.49e+00	0	59	104	1197473792	60	21005
2026-01-20 11:24:32.01	331.45	7.21	-45.0	-59.6	3.8	1.49e+00	0	59	104	1197473792	60	20664
2026-01-20 11:24:36.06	331.77	6.94	-45.1	-59.6	3.8	1.49e+00	0	59	104	1197473792	60	20712
2026-01-20 11:24:40.10	332.08	6.67	-45.0	-59.6	3.8	1.49e+00	0	59	104	1197473792	60	20702
2026-01-20 11:24:44.14	332.39	6.41	-45.0	-59.6	3.8	1.49e+00	0	59	104	1197473792	60	20616
2026-01-20 11:24:48.18	332.69	6.14	-45.0	-59.6	3.8	1.49e+00	0	59	104	1197473792	60	20681
2026-01-20 11:24:52.23	332.99	5.88	-45.0	-59.6	3.8	1.49e+00	0	59	104	1197473792	60	20614
2026-01-20 11:24:56.27	333.29	5.62	-45.0	-59.6	3.8	1.49e+00	0	59	104	1197473792	60	20539
2026-01-20 11:25:00.31	333.58	5.36	-45.0	-59.6	3.8	1.49e+00	0	59	104	1197473792	60	20580
2026-01-20 11:25:04.34	333.86	5.10	-45.0	-59.6	3.8	1.49e+00	0	59	104	1197473792	60	20545
2026-01-20 11:25:08.39	334.14	4.85	-45.0	-59.6	3.8	1.49e+00	0	59	104	1197473792	60	20548
2026-01-20 11:25:12.43	334.42	4.59	-45.0	-59.6	3.8	1.49e+00	0	59	104	1197473792	60	20641
2026-01-20 11:25:16.47	334.69	4.34	-45.0	-59.6	3.8	1.49e+00	0	59	104	1197473792	60	20635
2026-01-20 11:25:20.51	334.95	4.09	-45.0	-59.6	3.8	1.49e+00	0	59	104	1197473792	60	20583
2026-01-20 11:25:24.55	335.22	3.85	-45.0	-59.6	3.8	1.49e+00	0	59	104	1197473792	60	20575
2026-01-20 11:25:28.59	335.47	3.60	-45.0	-59.6	3.8	1.49e+00	0	59	104	1197473792	60	20591
2026-01-20 11:25:32.64	335.73	3.36	-45.0	-59.6	3.8	1.49e+00	0	59	104	1197473792	60	20663
2026-01-20 11:25:36.68	335.98	3.11	-45.0	-59.6	3.8	1.49e+00	0	59	104	1197473792	60	20582
2026-01-20 11:25:40.72	336.23	2.87	-45.0	-59.6	3.8	1.49e+00	0	59	104	1197473792	60	20574
2026-01-20 11:25:44.76	336.47	2.63	-45.0	-59.6	3.8	1.49e+00	0	59	104	1197473792	60	20583
2026-01-20 11:25:48.81	336.71	2.40	-45.0	-59.6	3.8	1.49e+00	0	59	104	1197473792	60	20542
2026-01-20 11:25:52.85	336.94	2.16	-45.0	-59.6	3.8	1.49e+00	0	59	104	1197473792	60	20601
2026-01-20 11:25:56.89	337.18	1.93	-45.0	-59.5	3.8	1.49e+00	0	59	104	1197473792	60	20529

#Closed at: 2026-01-20 11:25:58
#Recorded file [1197 MB]: D:/lorett/data/31039_260120_141224.dat