passes_logs/2026/01/20/R2.0S_Moscow/R2.0S_Moscow__20260120_000122_NOAA_20_JPSS-1_rec.log

#Pass ID: 20260120_000122_NOAA 20 (JPSS-1)
#Satellite: NOAA 20 (JPSS-1)
#Configuration: NOAA 20
#almurnet v.1.7.20251203
#Start time: 2026-01-20 00:01:23

#Version: 2.2.20231116
#Station: R2.0S_Moscow
#Location: 37.707566 lon 55.798166 lat
#TLE: 1 43013U 17073A   26019.27717929  .00000087  00000+0  62288-4 0  9995
#TLE: 2 43013  98.7641 320.1715 0001339  33.1986 326.9274 14.19537047423343

#Time	Az	El	Level	Level2	SNR	BER	BlckErr	Temp	State	Recorded	gain1	gain2
2026-01-20 00:01:23.06	14.68	2.07	-43.0	-57.6	3.8	1.49e+00	0	54	0	0	58	18386
2026-01-20 00:01:27.09	14.64	2.33	-43.0	-57.6	3.8	1.49e+00	0	54	104	0	57	19498
2026-01-20 00:01:31.14	14.59	2.59	-43.0	-57.5	3.8	1.49e+00	0	54	104	0	57	19363
2026-01-20 00:01:35.18	14.54	2.85	-43.0	-57.5	3.8	1.49e+00	0	55	104	0	57	19321
2026-01-20 00:01:39.22	14.49	3.12	-43.0	-57.6	3.8	1.49e+00	0	55	104	0	57	19436
2026-01-20 00:01:43.27	14.44	3.39	-43.0	-57.5	3.8	1.49e+00	0	55	104	0	57	19364
2026-01-20 00:01:47.31	14.39	3.66	-43.0	-57.6	3.8	1.49e+00	0	55	104	0	57	19444
2026-01-20 00:01:51.35	14.33	3.93	-43.0	-57.5	3.8	1.49e+00	0	56	104	0	57	19219
2026-01-20 00:01:55.40	14.28	4.21	-43.0	-57.4	3.8	1.49e+00	0	56	104	0	57	19063
2026-01-20 00:01:59.44	14.22	4.49	-43.0	-57.3	3.8	1.49e+00	0	56	104	0	57	18935
2026-01-20 00:02:03.48	14.16	4.77	-43.0	-57.3	3.8	1.49e+00	0	56	104	0	57	18743
2026-01-20 00:02:07.53	14.10	5.05	-43.0	-56.9	3.8	1.49e+00	0	56	104	0	57	17902
2026-01-20 00:02:11.57	14.04	5.34	-42.9	-56.3	3.8	1.49e+00	0	57	104	0	57	16807
2026-01-20 00:02:15.61	13.98	5.63	-42.9	-55.8	3.8	1.49e+00	0	57	104	0	57	15914
2026-01-20 00:02:19.65	13.91	5.93	-42.9	-56.1	3.8	1.49e+00	0	57	104	0	57	16501
2026-01-20 00:02:23.69	13.85	6.22	-43.0	-57.3	3.8	1.49e+00	0	57	104	0	57	18759
2026-01-20 00:02:27.74	13.78	6.53	-42.9	-56.5	3.8	1.49e+00	0	58	104	0	57	17135
2026-01-20 00:02:31.78	13.71	6.83	-42.6	-52.6	4.7	1.14e+00	0	57	0	1048576	57	10977
2026-01-20 00:02:35.82	13.64	7.14	-42.1	-49.6	6.7	2.16e-01	0	58	0	8388608	56	8222
2026-01-20 00:02:39.86	13.56	7.45	-41.7	-48.2	7.9	8.18e-02	0	58	0	16777216	55	7434
2026-01-20 00:02:43.90	13.49	7.77	-41.9	-48.8	7.3	1.17e-01	0	58	0	24117248	55	7944
2026-01-20 00:02:47.95	13.41	8.09	-42.9	-53.0	4.6	4.07e-01	0	58	0	31457280	56	12220
2026-01-20 00:02:51.98	13.33	8.41	-42.8	-56.9	3.8	1.14e+00	0	58	104	36700160	56	18974
2026-01-20 00:02:56.02	13.25	8.74	-41.8	-48.1	8.1	7.75e-02	0	58	0	41943040	55	7344
2026-01-20 00:03:00.06	13.17	9.07	-41.7	-47.7	8.6	4.20e-02	0	59	0	49283072	55	6997
2026-01-20 00:03:04.10	13.08	9.41	-41.8	-47.9	8.5	4.08e-02	0	59	0	56623104	55	7122
2026-01-20 00:03:08.14	12.99	9.75	-41.8	-47.7	8.7	3.32e-02	0	59	0	63963136	55	7027
2026-01-20 00:03:12.18	12.90	10.09	-41.5	-47.1	9.3	1.96e-02	0	59	0	72351744	55	6532
2026-01-20 00:03:16.22	12.81	10.44	-41.6	-47.0	9.4	1.53e-02	0	59	0	79691776	55	6491
2026-01-20 00:03:20.26	12.71	10.80	-41.8	-47.4	9.1	2.20e-02	0	59	0	87031808	55	6729
2026-01-20 00:03:24.29	12.61	11.16	-41.8	-47.4	9.1	2.28e-02	0	59	0	94371840	55	6793
2026-01-20 00:03:28.33	12.51	11.52	-41.8	-47.2	9.4	1.67e-02	0	59	0	101711872	55	6630
2026-01-20 00:03:32.37	12.41	11.89	-41.8	-47.3	9.3	1.62e-02	0	59	0	110100480	55	6667
2026-01-20 00:03:36.41	12.30	12.27	-41.7	-46.8	10.0	8.79e-03	0	59	0	117440512	55	6283
2026-01-20 00:03:40.44	12.19	12.65	-41.7	-46.6	10.2	6.13e-03	0	59	0	124780544	55	6198
2026-01-20 00:03:44.48	12.07	13.04	-41.8	-46.6	10.4	4.91e-03	0	60	0	132120576	55	6193
2026-01-20 00:03:48.52	11.95	13.44	-41.7	-46.4	10.7	2.86e-03	0	60	0	140509184	55	6001
2026-01-20 00:03:52.56	11.83	13.84	-41.7	-46.1	11.1	2.04e-03	0	60	0	147849216	55	5832
2026-01-20 00:03:56.60	11.71	14.24	-41.7	-46.0	11.3	1.23e-03	0	60	0	155189248	55	5752
2026-01-20 00:04:00.63	11.58	14.66	-41.6	-45.8	11.5	8.60e-04	0	60	0	162529280	55	5646
2026-01-20 00:04:04.67	11.44	15.08	-41.6	-45.8	11.8	5.45e-04	0	60	0	169869312	55	5597
2026-01-20 00:04:08.71	11.31	15.51	-41.6	-45.5	12.0	3.04e-04	0	60	0	178257920	55	5453
2026-01-20 00:04:12.74	11.16	15.94	-41.5	-45.4	12.2	2.37e-04	0	60	0	185597952	55	5382
2026-01-20 00:04:16.78	11.02	16.39	-41.5	-45.3	12.5	1.57e-04	0	60	0	192937984	55	5299
2026-01-20 00:04:20.82	10.86	16.84	-41.6	-45.3	12.5	1.18e-04	0	60	0	200278016	55	5311
2026-01-20 00:04:24.85	10.71	17.30	-41.5	-45.2	12.6	9.91e-05	0	60	0	207618048	55	5256
2026-01-20 00:04:28.89	10.54	17.77	-41.4	-45.0	12.9	6.02e-05	0	60	0	216006656	54	5442
2026-01-20 00:04:32.93	10.38	18.25	-41.4	-45.0	13.0	2.82e-05	0	60	0	223346688	54	5413
2026-01-20 00:04:36.97	10.20	18.73	-41.4	-45.0	13.0	3.58e-05	0	60	0	230686720	54	5407
2026-01-20 00:04:41.01	10.02	19.23	-41.4	-44.9	13.1	2.21e-05	0	60	0	238026752	54	5367
2026-01-20 00:04:45.05	9.83	19.74	-41.3	-44.7	13.3	1.52e-05	0	60	0	246415360	54	5267
2026-01-20 00:04:49.09	9.64	20.25	-41.3	-44.7	13.4	6.10e-06	0	61	0	253755392	54	5236
2026-01-20 00:04:53.12	9.44	20.78	-41.3	-44.6	13.5	9.90e-06	0	61	0	261095424	54	5193
2026-01-20 00:04:57.17	9.23	21.32	-41.2	-44.4	13.7	1.14e-05	0	61	0	268435456	54	5084
2026-01-20 00:05:01.20	9.01	21.86	-41.3	-44.5	13.6	6.10e-06	0	60	0	275775488	54	5140
2026-01-20 00:05:05.24	8.79	22.42	-41.2	-44.4	13.8	6.10e-06	0	61	0	284164096	54	5052
2026-01-20 00:05:09.28	8.55	23.00	-41.2	-44.3	13.8	6.10e-06	0	61	0	291504128	54	5033
2026-01-20 00:05:13.32	8.31	23.58	-41.2	-44.4	13.8	4.50e-06	0	61	0	298844160	54	5061
2026-01-20 00:05:17.35	8.06	24.18	-41.4	-44.6	13.5	1.14e-05	0	61	0	306184192	54	5218
2026-01-20 00:05:21.39	7.79	24.79	-41.6	-45.0	13.2	2.13e-05	0	61	0	314572800	54	5430
2026-01-20 00:05:25.43	7.52	25.42	-41.7	-45.3	12.9	6.56e-05	0	61	0	321912832	54	5624
2026-01-20 00:05:29.47	7.23	26.06	-42.0	-45.7	12.5	1.31e-04	0	61	0	329252864	54	5867
2026-01-20 00:05:33.50	6.93	26.71	-42.1	-46.0	12.2	2.02e-04	0	61	0	336592896	54	6063
2026-01-20 00:05:37.54	6.62	27.38	-42.3	-46.4	11.8	5.04e-04	0	61	0	343932928	55	6031
2026-01-20 00:05:41.58	6.29	28.06	-42.5	-46.9	11.3	1.11e-03	0	61	0	352321536	55	6363
2026-01-20 00:05:45.62	5.95	28.77	-42.9	-47.6	10.7	2.68e-03	0	61	0	359661568	56	6536
2026-01-20 00:05:49.66	5.59	29.48	-43.2	-48.2	10.1	6.57e-03	0	61	0	367001600	56	6961
2026-01-20 00:05:53.69	5.21	30.22	-43.3	-48.5	9.8	1.02e-02	0	61	0	374341632	57	6873
2026-01-20 00:05:57.73	4.82	30.97	-43.4	-48.8	9.5	1.40e-02	0	61	0	382730240	57	7076
2026-01-20 00:06:01.77	4.41	31.74	-43.7	-49.5	8.8	3.12e-02	0	61	0	390070272	57	7676
2026-01-20 00:06:05.81	3.97	32.53	-43.9	-50.3	8.0	6.01e-02	0	61	0	397410304	58	7954
2026-01-20 00:06:09.84	3.51	33.34	-43.9	-50.3	8.0	7.32e-02	0	61	0	404750336	58	7969
2026-01-20 00:06:13.88	3.03	34.17	-44.0	-50.4	7.9	7.45e-02	0	61	0	412090368	58	8061
2026-01-20 00:06:17.92	2.52	35.02	-43.9	-50.0	8.3	5.69e-02	0	61	0	420478976	58	7684
2026-01-20 00:06:21.96	1.99	35.89	-43.8	-49.7	8.6	4.24e-02	0	61	0	427819008	58	7438
2026-01-20 00:06:26.00	1.42	36.79	-43.9	-50.2	8.2	5.63e-02	0	61	0	435159040	58	7836
2026-01-20 00:06:30.03	0.82	37.70	-44.1	-50.6	7.8	8.80e-02	0	61	0	442499072	58	8232
2026-01-20 00:06:34.07	0.19	38.64	-44.1	-50.6	7.7	9.24e-02	0	61	0	450887680	58	8267
2026-01-20 00:06:38.11	359.51	39.59	-44.0	-50.4	8.0	8.09e-02	0	61	0	458227712	58	8007
2026-01-20 00:06:42.15	358.79	40.57	-44.0	-50.1	8.3	4.93e-02	0	61	0	465567744	58	7753
2026-01-20 00:06:46.19	358.03	41.58	-43.7	-49.2	9.3	1.98e-02	0	61	0	472907776	58	6967
2026-01-20 00:06:50.23	357.22	42.60	-43.5	-48.7	9.8	1.26e-02	0	62	0	480247808	58	6607
2026-01-20 00:06:54.26	356.35	43.64	-43.1	-47.7	10.7	4.70e-03	0	61	0	488636416	58	5917
2026-01-20 00:06:58.30	355.42	44.71	-43.0	-47.3	11.2	1.20e-03	0	62	0	495976448	57	5984
2026-01-20 00:07:02.33	354.43	45.79	-42.7	-46.7	11.8	4.27e-04	0	62	0	503316480	57	5577
2026-01-20 00:07:06.37	353.36	46.90	-42.7	-46.8	11.7	5.29e-04	0	62	0	510656512	57	5635
2026-01-20 00:07:10.41	352.21	48.02	-42.8	-46.9	11.7	6.24e-04	0	62	0	517996544	57	5657
2026-01-20 00:07:14.44	350.98	49.16	-42.8	-46.8	11.7	5.82e-04	0	62	0	526385152	57	5652
2026-01-20 00:07:18.48	349.65	50.32	-42.4	-46.1	12.5	1.17e-04	0	62	0	533725184	56	5491
2026-01-20 00:07:22.52	348.21	51.48	-42.1	-45.6	13.0	4.80e-05	0	61	0	541065216	56	5193
2026-01-20 00:07:26.55	346.65	52.65	-41.6	-44.7	13.8	5.30e-06	0	61	0	548405248	55	4971
2026-01-20 00:07:30.59	344.96	53.83	-41.8	-45.2	13.3	1.37e-05	0	62	0	556793856	54	5536
2026-01-20 00:07:34.63	343.13	55.01	-42.6	-46.6	11.8	4.10e-04	0	62	0	564133888	55	6166
2026-01-20 00:07:38.67	341.14	56.18	-43.6	-48.8	9.6	8.73e-03	0	62	0	571473920	57	7116
2026-01-20 00:07:42.71	338.97	57.34	-43.7	-49.1	9.3	1.63e-02	0	62	0	578813952	58	6904
2026-01-20 00:07:46.74	336.61	58.48	-43.4	-48.4	9.9	1.24e-02	0	62	0	586153984	58	6364
2026-01-20 00:07:50.78	334.04	59.60	-42.9	-47.1	11.4	1.46e-03	0	62	0	594542592	57	5833
2026-01-20 00:07:54.82	331.23	60.67	-41.8	-45.0	13.3	3.28e-05	0	62	0	601882624	55	5128
2026-01-20 00:07:58.86	328.19	61.70	-41.3	-44.2	14.2	2.20e-06	0	62	0	609222656	54	4975
2026-01-20 00:08:02.90	324.89	62.66	-41.1	-44.0	14.4	1.50e-06	0	62	0	616562688	54	4854
2026-01-20 00:08:06.94	321.32	63.55	-41.0	-43.8	14.6	0.00e+00	0	62	0	624951296	53	5027
2026-01-20 00:08:10.98	317.48	64.35	-41.5	-44.6	13.7	5.30e-06	0	62	0	632291328	53	5507
2026-01-20 00:08:15.02	313.39	65.05	-42.1	-45.7	12.6	6.33e-05	0	62	0	639631360	54	5912
2026-01-20 00:08:19.05	309.06	65.63	-42.5	-46.5	11.8	5.56e-04	0	62	0	646971392	55	6091
2026-01-20 00:08:23.10	304.50	66.09	-43.0	-47.5	11.0	1.67e-03	0	62	0	654311424	56	6435
2026-01-20 00:08:27.14	299.79	66.40	-42.8	-46.9	11.5	9.94e-04	0	62	0	662700032	56	6031
2026-01-20 00:08:31.18	294.97	66.56	-42.8	-47.1	11.3	6.65e-04	0	62	0	670040064	56	6170
2026-01-20 00:08:35.21	290.13	66.57	-42.6	-46.4	12.0	4.04e-04	0	62	0	677380096	56	5721
2026-01-20 00:08:39.25	285.30	66.43	-42.7	-46.8	11.7	6.93e-04	0	62	0	684720128	56	5925
2026-01-20 00:08:43.29	280.57	66.14	-42.7	-46.8	11.5	6.53e-04	0	62	0	693108736	56	5982
2026-01-20 00:08:47.33	275.99	65.70	-42.6	-46.5	11.8	5.75e-04	0	62	0	700448768	56	5749
2026-01-20 00:08:51.36	271.63	65.14	-42.0	-45.4	13.1	6.40e-05	0	62	0	707788800	56	5062
2026-01-20 00:08:55.40	267.49	64.45	-41.1	-44.0	14.3	5.30e-06	0	62	0	715128832	54	4864
2026-01-20 00:08:59.44	263.62	63.66	-40.7	-43.3	15.0	0.00e+00	0	62	0	722468864	53	4741
2026-01-20 00:09:03.47	260.02	62.78	-41.1	-44.0	14.3	7.00e-07	0	62	0	730857472	53	5132
2026-01-20 00:09:07.52	256.67	61.82	-42.0	-45.6	12.7	6.33e-05	0	62	0	738197504	54	5804
2026-01-20 00:09:11.56	253.59	60.80	-43.2	-48.1	10.3	3.64e-03	0	62	0	745537536	57	6498
2026-01-20 00:09:15.59	250.76	59.73	-43.7	-49.2	9.2	1.84e-02	0	62	0	752877568	57	7396
2026-01-20 00:09:19.62	248.16	58.62	-43.8	-49.5	8.8	3.62e-02	0	62	0	761266176	58	7271
2026-01-20 00:09:23.66	245.76	57.48	-43.7	-49.4	8.9	1.88e-02	0	62	0	768606208	58	7143
2026-01-20 00:09:27.70	243.56	56.32	-42.8	-47.0	11.4	1.82e-03	0	62	0	775946240	57	5760
2026-01-20 00:09:31.74	241.54	55.15	-42.1	-45.6	12.7	7.24e-05	0	62	0	783286272	55	5520
2026-01-20 00:09:35.78	239.68	53.97	-42.5	-46.5	11.8	5.31e-04	0	62	0	790626304	55	6084
2026-01-20 00:09:39.81	237.98	52.79	-42.6	-46.7	11.6	3.79e-04	0	62	0	799014912	55	6240
2026-01-20 00:09:43.85	236.40	51.61	-43.1	-47.8	10.6	4.09e-03	0	62	0	806354944	56	6667
2026-01-20 00:09:47.89	234.94	50.43	-42.9	-47.3	11.1	1.79e-03	0	62	0	813694976	56	6306
2026-01-20 00:09:51.93	233.59	49.27	-43.4	-48.4	9.9	6.77e-03	0	62	0	821035008	57	6766
2026-01-20 00:09:55.97	232.34	48.13	-43.0	-47.4	11.0	2.68e-03	0	62	0	829423616	57	6032
2026-01-20 00:10:00.00	231.18	47.00	-42.9	-47.2	11.2	1.32e-03	0	62	0	836763648	57	5911
2026-01-20 00:10:04.04	230.10	45.89	-43.1	-47.8	10.6	3.49e-03	0	62	0	844103680	57	6306
2026-01-20 00:10:08.08	229.09	44.79	-43.2	-47.8	10.6	3.24e-03	0	62	0	851443712	57	6342
2026-01-20 00:10:12.12	228.15	43.72	-43.4	-48.6	9.8	1.06e-02	0	62	0	858783744	57	6905
2026-01-20 00:10:16.16	227.28	42.67	-43.7	-49.4	8.9	2.50e-02	0	62	0	867172352	57	7566
2026-01-20 00:10:20.20	226.45	41.64	-43.9	-50.0	8.3	5.64e-02	0	62	0	874512384	58	7680
2026-01-20 00:10:24.24	225.68	40.63	-44.1	-50.7	7.6	8.92e-02	0	62	0	881852416	58	8341
2026-01-20 00:10:28.28	224.96	39.64	-44.1	-50.9	7.4	1.14e-01	0	62	0	889192448	58	8525
2026-01-20 00:10:32.31	224.28	38.68	-44.3	-52.2	6.1	7.29e-01	0	62	0	895483904	60	8794
2026-01-20 00:10:36.35	223.63	37.74	-43.9	-50.3	8.0	7.09e-02	0	62	0	899678208	59	7480
2026-01-20 00:10:40.39	223.03	36.82	-43.6	-49.3	9.0	2.86e-02	0	62	0	907018240	59	6669
2026-01-20 00:10:44.43	222.45	35.92	-43.1	-47.9	10.4	5.77e-03	0	62	0	914358272	58	6008
2026-01-20 00:10:48.46	221.91	35.04	-43.3	-48.4	9.9	8.35e-03	0	62	0	922746880	58	6361
2026-01-20 00:10:52.50	221.40	34.19	-43.2	-48.2	10.2	7.95e-03	0	62	0	930086912	58	6210
2026-01-20 00:10:56.53	220.91	33.35	-43.3	-48.4	9.9	8.30e-03	0	62	0	937426944	58	6358
2026-01-20 00:11:00.57	220.45	32.54	-43.7	-49.6	8.7	3.27e-02	0	62	0	944766976	58	7288
2026-01-20 00:11:04.61	220.01	31.74	-43.8	-49.9	8.3	4.37e-02	0	62	0	953155584	58	7615
2026-01-20 00:11:08.64	219.59	30.97	-43.9	-50.2	8.1	5.71e-02	0	62	0	960495616	58	7809
2026-01-20 00:11:12.68	219.19	30.21	-43.7	-49.5	8.7	3.42e-02	0	62	0	967835648	58	7274
2026-01-20 00:11:16.72	218.81	29.47	-43.7	-49.6	8.6	3.95e-02	0	62	0	975175680	58	7352
2026-01-20 00:11:20.76	218.45	28.74	-43.9	-50.2	8.0	7.06e-02	0	62	0	982515712	58	7870
2026-01-20 00:11:24.79	218.10	28.04	-43.8	-49.9	8.3	5.91e-02	0	62	0	990904320	58	7604
2026-01-20 00:11:28.83	217.77	27.35	-43.4	-48.8	9.4	1.81e-02	0	62	0	998244352	58	6662
2026-01-20 00:11:32.87	217.45	26.68	-43.2	-48.2	10.1	8.04e-03	0	62	0	1005584384	58	6219
2026-01-20 00:11:36.91	217.15	26.02	-43.4	-48.7	9.5	1.26e-02	0	62	0	1012924416	58	6606
2026-01-20 00:11:40.95	216.86	25.37	-43.5	-49.1	9.1	2.43e-02	0	62	0	1021313024	58	6929
2026-01-20 00:11:44.99	216.58	24.74	-43.3	-48.5	9.7	1.22e-02	0	62	0	1028653056	58	6435
2026-01-20 00:11:49.03	216.31	24.13	-43.0	-47.8	10.4	4.73e-03	0	62	0	1035993088	58	5932
2026-01-20 00:11:53.06	216.05	23.53	-42.8	-47.3	10.9	2.14e-03	0	62	0	1043333120	57	5936
2026-01-20 00:11:57.10	215.80	22.94	-42.8	-47.2	10.9	2.28e-03	0	62	0	1050673152	57	5919
2026-01-20 00:12:01.14	215.57	22.36	-42.7	-47.1	11.1	1.56e-03	0	62	0	1059061760	57	5799
2026-01-20 00:12:05.18	215.34	21.80	-42.5	-46.8	11.4	1.12e-03	0	62	0	1066401792	57	5621
2026-01-20 00:12:09.21	215.12	21.25	-42.4	-46.5	11.7	6.90e-04	0	62	0	1073741824	56	5757
2026-01-20 00:12:13.25	214.90	20.71	-42.4	-46.5	11.6	5.93e-04	0	62	0	1081081856	56	5764
2026-01-20 00:12:17.29	214.70	20.18	-42.5	-46.8	11.3	1.09e-03	0	62	0	1088421888	56	5951
2026-01-20 00:12:21.33	214.50	19.66	-42.7	-47.1	11.0	1.86e-03	0	62	0	1096810496	56	6200
2026-01-20 00:12:25.36	214.31	19.15	-42.7	-47.3	10.8	2.03e-03	0	62	0	1104150528	56	6303
2026-01-20 00:12:29.40	214.13	18.65	-42.7	-47.3	10.8	2.73e-03	0	62	0	1111490560	56	6298
2026-01-20 00:12:33.44	213.95	18.16	-42.6	-47.1	10.9	2.17e-03	0	62	0	1118830592	56	6199
2026-01-20 00:12:37.48	213.78	17.68	-42.5	-46.9	11.1	1.79e-03	0	62	0	1127219200	56	6027
2026-01-20 00:12:41.51	213.61	17.21	-42.4	-46.7	11.3	1.36e-03	0	62	0	1134559232	56	5922
2026-01-20 00:12:45.55	213.45	16.75	-42.5	-46.9	11.1	1.35e-03	0	62	0	1141899264	56	6042
2026-01-20 00:12:49.58	213.29	16.30	-42.7	-47.3	10.6	3.14e-03	0	62	0	1149239296	56	6339
2026-01-20 00:12:53.62	213.14	15.85	-42.7	-47.4	10.5	4.03e-03	0	62	0	1156579328	56	6390
2026-01-20 00:12:57.66	212.99	15.41	-42.7	-47.6	10.3	4.67e-03	0	62	0	1164967936	56	6532
2026-01-20 00:13:01.69	212.85	14.98	-42.7	-47.6	10.3	5.78e-03	0	62	0	1172307968	56	6533
2026-01-20 00:13:05.73	212.72	14.56	-42.7	-47.7	10.1	5.72e-03	0	62	0	1179648000	56	6584
2026-01-20 00:13:09.77	212.58	14.14	-42.7	-47.6	10.2	5.58e-03	0	62	0	1186988032	56	6528
2026-01-20 00:13:13.81	212.45	13.73	-42.7	-47.6	10.2	6.42e-03	0	62	0	1195376640	56	6537
2026-01-20 00:13:17.84	212.33	13.33	-42.8	-47.9	9.9	7.31e-03	0	62	0	1202716672	56	6739
2026-01-20 00:13:21.88	212.20	12.94	-42.8	-47.8	9.9	9.46e-03	0	62	0	1210056704	56	6714
2026-01-20 00:13:25.92	212.09	12.54	-42.8	-48.0	9.7	1.18e-02	0	62	0	1217396736	56	6825
2026-01-20 00:13:29.96	211.97	12.16	-42.8	-48.1	9.6	1.30e-02	0	62	0	1224736768	56	6887
2026-01-20 00:13:33.99	211.86	11.78	-42.9	-48.3	9.3	1.71e-02	0	62	0	1233125376	56	7084
2026-01-20 00:13:38.03	211.75	11.41	-42.8	-48.4	9.2	2.09e-02	0	62	0	1240465408	56	7131
2026-01-20 00:13:42.07	211.64	11.04	-42.9	-48.6	8.9	2.61e-02	0	62	0	1247805440	56	7319
2026-01-20 00:13:46.11	211.54	10.68	-42.9	-48.8	8.7	3.34e-02	0	62	0	1255145472	56	7467
2026-01-20 00:13:50.15	211.44	10.32	-42.9	-48.7	8.7	3.35e-02	0	62	0	1263534080	56	7447
2026-01-20 00:13:54.19	211.34	9.97	-42.9	-48.8	8.6	3.95e-02	0	62	0	1270874112	56	7486
2026-01-20 00:13:58.23	211.25	9.63	-42.9	-48.9	8.5	4.15e-02	0	62	0	1278214144	56	7556
2026-01-20 00:14:02.26	211.15	9.28	-42.8	-48.9	8.4	4.28e-02	0	62	0	1285554176	56	7599
2026-01-20 00:14:06.30	211.06	8.95	-42.8	-48.9	8.4	4.62e-02	0	62	0	1292894208	56	7570
2026-01-20 00:14:10.34	210.97	8.61	-42.8	-48.8	8.4	4.56e-02	0	62	0	1301282816	56	7535
2026-01-20 00:14:14.37	210.89	8.28	-42.7	-48.9	8.2	5.04e-02	0	62	0	1308622848	56	7558
2026-01-20 00:14:18.42	210.80	7.96	-44.6	-59.0	3.8	1.49e+00	0	62	104	1314914304	59	20335
2026-01-20 00:14:22.46	210.72	7.64	-45.2	-59.8	3.8	1.49e+00	0	62	104	1314914304	60	21086
2026-01-20 00:14:26.50	210.64	7.32	-45.3	-59.9	3.8	1.49e+00	0	62	104	1314914304	61	20090
2026-01-20 00:14:30.54	210.56	7.01	-45.2	-59.8	3.8	1.49e+00	0	62	104	1314914304	61	19857
2026-01-20 00:14:34.58	210.49	6.70	-45.2	-59.7	3.8	1.49e+00	0	62	104	1314914304	61	19761
2026-01-20 00:14:38.62	210.41	6.39	-45.2	-59.7	3.8	1.49e+00	0	62	104	1314914304	61	19722
2026-01-20 00:14:42.66	210.34	6.09	-45.2	-59.7	3.8	1.49e+00	0	62	104	1314914304	61	19633
2026-01-20 00:14:46.70	210.27	5.79	-45.1	-59.7	3.8	1.49e+00	0	62	104	1314914304	61	19741
2026-01-20 00:14:50.75	210.20	5.50	-45.1	-59.7	3.8	1.49e+00	0	62	104	1314914304	61	19621
2026-01-20 00:14:54.79	210.13	5.21	-45.1	-59.7	3.8	1.49e+00	0	62	104	1314914304	61	19667
2026-01-20 00:14:58.83	210.07	4.92	-45.1	-59.7	3.8	1.49e+00	0	62	104	1314914304	61	19628
2026-01-20 00:15:02.87	210.00	4.63	-45.1	-59.6	3.8	1.49e+00	0	62	104	1314914304	61	19589
2026-01-20 00:15:06.91	209.94	4.35	-45.1	-59.7	3.8	1.49e+00	0	62	104	1314914304	61	19667
2026-01-20 00:15:10.95	209.88	4.07	-45.1	-59.7	3.8	1.49e+00	0	62	104	1314914304	61	19636
2026-01-20 00:15:14.99	209.82	3.79	-45.1	-59.7	3.8	1.49e+00	0	62	104	1314914304	61	19623
2026-01-20 00:15:19.04	209.76	3.52	-45.1	-59.6	3.8	1.49e+00	0	62	104	1314914304	61	19560
2026-01-20 00:15:23.08	209.70	3.24	-45.1	-59.6	3.8	1.49e+00	0	62	104	1314914304	61	19551
2026-01-20 00:15:27.12	209.64	2.97	-45.1	-59.6	3.8	1.49e+00	0	62	104	1314914304	61	19569
2026-01-20 00:15:31.16	209.59	2.71	-45.1	-59.7	3.8	1.49e+00	0	62	104	1314914304	61	19626
2026-01-20 00:15:35.20	209.53	2.44	-45.1	-59.6	3.8	1.49e+00	0	62	104	1314914304	61	19548
2026-01-20 00:15:39.25	209.48	2.18	-45.1	-59.6	3.8	1.49e+00	0	62	104	1314914304	61	19544
2026-01-20 00:15:43.29	209.43	1.92	-45.1	-59.6	3.8	1.49e+00	0	62	104	1314914304	61	19560

#Closed at: 2026-01-20 00:15:43
#Recorded file [1314 MB]: D:/lorett/data/31039_260120_030122.dat