passes_logs/2026/01/20/R2.0S_Moscow/R2.0S_Moscow__20260120_093128_SUOMI_NPP_rec.log

#Pass ID: 20260120_093128_SUOMI NPP
#Satellite: SUOMI NPP
#Configuration: NPP
#almurnet v.1.7.20251203
#Start time: 2026-01-20 09:31:29

#Version: 2.2.20231116
#Station: R2.0S_Moscow
#Location: 37.707566 lon 55.798166 lat
#TLE: 1 37849U 11061A   26019.61507914  .00000076  00000+0  57195-4 0  9994
#TLE: 2 37849  98.7817 321.6240 0002347  55.5899 304.5499 14.19526391737369

#Time	Az	El	Level	Level2	SNR	BER	BlckErr	Temp	State	Recorded	gain1	gain2
2026-01-20 09:31:29.78	146.84	2.10	-43.8	-58.4	3.8	1.49e+00	0	51	0	0	58	20094
2026-01-20 09:31:33.83	146.76	2.36	-43.6	-58.3	3.8	1.49e+00	0	51	104	0	58	20054
2026-01-20 09:31:37.87	146.68	2.63	-43.6	-58.3	3.8	1.49e+00	0	51	104	0	57	21157
2026-01-20 09:31:41.91	146.60	2.89	-43.6	-58.4	3.8	1.49e+00	0	52	104	0	58	20088
2026-01-20 09:31:45.95	146.52	3.16	-43.1	-58.3	3.8	1.49e+00	0	52	104	0	58	19918
2026-01-20 09:31:50.00	146.44	3.43	-43.7	-58.3	3.8	1.49e+00	0	52	104	0	57	21155
2026-01-20 09:31:54.04	146.36	3.70	-43.7	-58.4	3.8	1.49e+00	0	52	104	0	58	20093
2026-01-20 09:31:58.08	146.27	3.98	-43.7	-58.3	3.8	1.49e+00	0	53	104	0	57	21143
2026-01-20 09:32:02.12	146.19	4.25	-43.4	-58.2	3.8	1.49e+00	0	53	104	0	57	20882
2026-01-20 09:32:06.16	146.10	4.53	-43.7	-57.9	3.8	1.49e+00	0	53	104	0	57	20270
2026-01-20 09:32:10.20	146.01	4.82	-43.7	-57.4	3.8	1.49e+00	0	53	104	0	57	19031
2026-01-20 09:32:14.24	145.91	5.10	-43.6	-58.0	3.8	1.49e+00	0	54	104	0	57	20386
2026-01-20 09:32:18.29	145.82	5.39	-43.7	-58.1	3.8	1.49e+00	0	54	104	0	57	20554
2026-01-20 09:32:22.33	145.72	5.69	-43.6	-57.4	3.8	1.49e+00	0	54	104	0	57	19109
2026-01-20 09:32:26.37	145.62	5.98	-43.6	-56.2	3.8	1.49e+00	0	54	104	0	57	16691
2026-01-20 09:32:30.41	145.52	6.28	-43.3	-54.8	4.2	1.39e+00	0	54	0	0	57	14176
2026-01-20 09:32:34.45	145.42	6.58	-43.4	-54.5	4.3	1.27e+00	0	54	0	2097152	57	13595
2026-01-20 09:32:38.49	145.31	6.89	-43.5	-55.8	3.8	1.47e+00	0	55	104	2097152	57	15924
2026-01-20 09:32:42.53	145.20	7.20	-43.6	-57.3	3.8	1.49e+00	0	55	104	2097152	57	18842
2026-01-20 09:32:46.58	145.09	7.51	-42.9	-53.8	4.5	1.29e+00	0	55	0	2097152	57	12639
2026-01-20 09:32:50.61	144.98	7.83	-42.3	-49.4	7.4	1.42e-01	0	55	0	10485760	55	8495
2026-01-20 09:32:54.65	144.86	8.15	-44.0	-57.2	3.9	1.49e+00	0	55	104	15728640	59	16626
2026-01-20 09:32:58.69	144.74	8.48	-41.7	-47.4	9.3	1.33e-01	0	55	0	19922944	55	6778
2026-01-20 09:33:02.73	144.62	8.81	-41.7	-46.8	10.0	9.60e-03	0	56	0	27262976	54	6652
2026-01-20 09:33:06.77	144.49	9.14	-41.4	-46.5	10.3	4.67e-03	0	56	0	34603008	53	6853
2026-01-20 09:33:10.80	144.36	9.48	-41.6	-46.7	10.2	4.47e-03	0	56	0	41943040	53	7021
2026-01-20 09:33:14.84	144.23	9.82	-42.0	-47.3	9.7	1.17e-02	0	56	0	50331648	54	7047
2026-01-20 09:33:18.87	144.10	10.16	-41.9	-47.0	10.1	8.97e-03	0	56	0	57671680	54	6877
2026-01-20 09:33:22.91	143.96	10.52	-41.8	-46.5	10.8	3.51e-03	0	56	0	65011712	54	6449
2026-01-20 09:33:26.95	143.82	10.87	-41.5	-45.7	11.6	8.86e-04	0	57	0	72351744	53	6220
2026-01-20 09:33:30.99	143.67	11.23	-41.3	-45.2	12.2	6.63e-04	0	56	0	79691776	53	5916
2026-01-20 09:33:35.03	143.52	11.60	-41.4	-45.4	12.0	8.14e-04	0	57	0	88080384	53	6045
2026-01-20 09:33:39.06	143.37	11.97	-41.4	-45.4	12.0	9.80e-04	0	57	0	95420416	53	6030
2026-01-20 09:33:43.10	143.21	12.35	-41.6	-45.7	11.9	6.14e-04	0	57	0	102760448	53	6263
2026-01-20 09:33:47.14	143.04	12.73	-41.4	-45.8	11.7	6.77e-04	0	57	0	110100480	53	6319
2026-01-20 09:33:51.18	142.88	13.12	-41.5	-45.4	12.3	1.83e-04	0	57	0	118489088	53	6019
2026-01-20 09:33:55.22	142.70	13.52	-41.1	-44.4	13.3	1.13e-03	0	57	0	125829120	52	5705
2026-01-20 09:33:59.26	142.53	13.92	-41.1	-44.4	13.3	9.99e-05	0	57	0	133169152	52	5721
2026-01-20 09:34:03.29	142.34	14.33	-41.6	-45.7	12.1	7.64e-03	0	57	0	140509184	53	6216
2026-01-20 09:34:07.33	142.16	14.74	-41.8	-46.1	11.7	5.99e-03	0	57	0	147849216	54	6177
2026-01-20 09:34:11.37	141.96	15.17	-40.6	-44.4	13.5	3.40e-04	0	57	0	156237824	52	5679
2026-01-20 09:34:15.41	141.76	15.59	-40.8	-43.9	14.0	3.40e-04	0	57	0	163577856	52	5351
2026-01-20 09:34:19.44	141.56	16.03	-41.4	-45.6	12.1	7.68e-03	0	57	0	170917888	53	6193
2026-01-20 09:34:23.48	141.35	16.47	-41.6	-45.3	12.6	7.36e-04	0	58	0	178257920	53	5962
2026-01-20 09:34:27.52	141.13	16.93	-40.8	-43.8	14.1	1.90e-03	0	58	0	186646528	52	5315
2026-01-20 09:34:31.56	140.90	17.38	-41.3	-44.8	13.3	1.65e-03	0	58	0	193986560	53	5600
2026-01-20 09:34:35.60	140.67	17.85	-42.2	-46.5	11.4	4.35e-03	0	58	0	201326592	54	6490
2026-01-20 09:34:39.63	140.43	18.33	-41.3	-44.6	13.4	8.62e-05	0	58	0	208666624	53	5526
2026-01-20 09:34:43.67	140.18	18.81	-41.4	-44.9	13.1	6.93e-04	0	58	0	216006656	53	5668
2026-01-20 09:34:47.71	139.92	19.31	-41.9	-45.9	12.2	2.01e-03	0	58	0	224395264	54	6019
2026-01-20 09:34:51.74	139.66	19.81	-41.5	-45.1	13.0	1.37e-04	0	58	0	231735296	54	5467
2026-01-20 09:34:55.78	139.38	20.32	-41.5	-44.9	13.2	5.11e-05	0	58	0	239075328	53	5704
2026-01-20 09:34:59.82	139.10	20.85	-42.0	-46.0	12.2	2.31e-04	0	58	0	246415360	54	6095
2026-01-20 09:35:03.86	138.80	21.38	-41.1	-44.0	14.2	6.10e-06	0	58	0	254803968	54	4867
2026-01-20 09:35:07.90	138.49	21.93	-41.8	-45.5	12.7	4.95e-05	0	58	0	262144000	54	5736
2026-01-20 09:35:11.94	138.18	22.48	-41.8	-45.4	12.9	1.31e-04	0	59	0	269484032	55	5352
2026-01-20 09:35:15.97	137.85	23.05	-41.8	-45.4	12.8	6.17e-05	0	58	0	276824064	55	5378
2026-01-20 09:35:20.01	137.51	23.62	-42.4	-46.7	11.5	9.34e-04	0	58	0	284164096	55	6246
2026-01-20 09:35:24.05	137.15	24.21	-42.0	-45.8	12.5	1.27e-04	0	58	0	292552704	55	5625
2026-01-20 09:35:28.09	136.78	24.82	-42.5	-46.8	11.5	5.40e-04	0	58	0	299892736	55	6307
2026-01-20 09:35:32.13	136.39	25.43	-42.5	-46.8	11.5	1.06e-03	0	58	0	307232768	55	6314
2026-01-20 09:35:36.16	136.00	26.06	-42.3	-46.3	12.1	2.12e-04	0	59	0	314572800	55	5954
2026-01-20 09:35:40.20	135.58	26.70	-42.6	-46.9	11.4	9.08e-04	0	59	0	322961408	55	6414
2026-01-20 09:35:44.24	135.14	27.36	-42.7	-47.2	11.1	9.63e-04	0	59	0	330301440	55	6588
2026-01-20 09:35:48.28	134.69	28.03	-42.8	-47.3	11.2	1.53e-03	0	59	0	337641472	56	6317
2026-01-20 09:35:52.31	134.22	28.71	-43.1	-47.9	10.6	1.12e-03	0	59	0	344981504	56	6738
2026-01-20 09:35:56.35	133.72	29.41	-43.4	-48.7	9.7	1.12e-02	0	59	0	352321536	57	7001
2026-01-20 09:36:00.39	133.20	30.12	-43.0	-47.6	10.9	2.46e-03	0	59	0	360710144	57	6173
2026-01-20 09:36:04.43	132.66	30.85	-43.1	-47.8	10.7	3.25e-03	0	59	0	368050176	57	6289
2026-01-20 09:36:08.47	132.09	31.59	-42.9	-47.4	11.2	8.60e-04	0	59	0	375390208	57	6001
2026-01-20 09:36:12.50	131.50	32.35	-42.9	-47.2	11.4	1.71e-03	0	59	0	382730240	57	5878
2026-01-20 09:36:16.54	130.87	33.13	-43.3	-48.3	10.3	4.75e-03	0	59	0	391118848	57	6648
2026-01-20 09:36:20.58	130.22	33.92	-43.2	-48.1	10.4	4.26e-03	0	59	0	398458880	58	6161
2026-01-20 09:36:24.62	129.53	34.73	-43.7	-49.3	9.2	1.21e-02	0	59	0	405798912	58	7063
2026-01-20 09:36:28.66	128.80	35.56	-43.4	-48.5	10.0	1.08e-02	0	59	0	413138944	58	6488
2026-01-20 09:36:32.69	128.04	36.40	-44.1	-50.8	7.7	7.40e-02	0	59	0	420478976	58	8390
2026-01-20 09:36:36.73	127.24	37.25	-44.2	-51.2	7.4	1.46e-01	0	59	0	428867584	59	8305
2026-01-20 09:36:40.77	126.39	38.13	-43.5	-48.8	9.9	8.34e-03	0	59	0	436207616	58	6688
2026-01-20 09:36:44.80	125.49	39.01	-43.5	-48.7	9.9	8.36e-03	0	59	0	443547648	58	6623
2026-01-20 09:36:48.84	124.55	39.91	-43.8	-49.8	8.8	3.02e-02	0	59	0	450887680	58	7493
2026-01-20 09:36:52.88	123.54	40.83	-44.1	-50.8	7.7	1.03e-01	0	59	0	458227712	59	7972
2026-01-20 09:36:56.92	122.48	41.76	-44.3	-51.4	7.1	1.40e-01	0	59	0	466616320	59	8559
2026-01-20 09:37:00.96	121.36	42.70	-44.1	-50.5	7.9	6.40e-02	0	59	0	473956352	59	7708
2026-01-20 09:37:04.99	120.16	43.65	-43.7	-49.2	9.3	1.67e-02	0	59	0	481296384	59	6628
2026-01-20 09:37:09.03	118.89	44.61	-43.4	-48.3	10.5	2.74e-03	0	59	0	488636416	58	6326
2026-01-20 09:37:13.07	117.54	45.58	-43.2	-47.9	10.7	3.07e-03	0	59	0	497025024	58	6019
2026-01-20 09:37:17.11	116.11	46.56	-43.5	-48.8	9.8	8.79e-03	0	59	0	504365056	58	6706
2026-01-20 09:37:21.15	114.58	47.53	-42.8	-46.9	11.8	3.74e-04	0	59	0	511705088	57	5712
2026-01-20 09:37:25.18	112.96	48.50	-43.5	-48.7	9.9	7.78e-03	0	60	0	519045120	57	6989
2026-01-20 09:37:29.22	111.23	49.47	-43.2	-47.8	10.6	2.70e-03	0	59	0	526385152	57	6322
2026-01-20 09:37:33.26	109.38	50.43	-42.8	-46.9	11.8	5.64e-04	0	59	0	534773760	57	5673
2026-01-20 09:37:37.30	107.42	51.37	-42.0	-46.1	12.3	1.49e-04	0	59	0	542113792	55	5814
2026-01-20 09:37:41.33	105.33	52.29	-42.2	-46.5	11.8	2.63e-04	0	59	0	549453824	55	6124
2026-01-20 09:37:45.37	103.10	53.19	-42.0	-46.0	12.5	9.15e-05	0	59	0	556793856	54	6074
2026-01-20 09:37:49.41	100.74	54.06	-42.6	-47.2	11.2	9.78e-04	0	59	0	565182464	55	6607
2026-01-20 09:37:53.45	98.23	54.89	-42.4	-46.8	11.7	1.15e-03	0	59	0	572522496	55	6306
2026-01-20 09:37:57.49	95.57	55.67	-42.4	-46.8	11.6	2.88e-04	0	59	0	579862528	55	6318
2026-01-20 09:38:01.52	92.77	56.40	-42.6	-47.1	11.4	6.48e-04	0	59	0	587202560	55	6547
2026-01-20 09:38:05.56	89.83	57.07	-43.3	-48.9	9.7	1.59e-02	0	59	0	594542592	57	7131
2026-01-20 09:38:09.60	86.74	57.67	-42.5	-47.1	11.6	6.40e-04	0	59	0	602931200	56	6161
2026-01-20 09:38:13.64	83.52	58.19	-41.6	-45.2	13.4	2.97e-05	0	59	0	610271232	55	5233
2026-01-20 09:38:17.67	80.19	58.63	-41.9	-45.9	12.5	1.02e-04	0	59	0	617611264	54	6059
2026-01-20 09:38:21.71	76.75	58.97	-41.5	-45.0	13.5	2.67e-05	0	59	0	624951296	54	5436
2026-01-20 09:38:25.75	73.23	59.23	-41.6	-45.3	13.3	1.06e-05	0	60	0	633339904	53	5940
2026-01-20 09:38:29.79	69.66	59.38	-40.7	-43.6	15.0	0.00e+00	0	59	0	640679936	53	4884
2026-01-20 09:38:33.82	66.07	59.43	-40.6	-43.4	15.2	0.00e+00	0	60	0	648019968	52	5061
2026-01-20 09:38:37.86	62.47	59.37	-40.9	-44.0	14.5	7.00e-07	0	59	0	655360000	53	5141
2026-01-20 09:38:41.90	58.91	59.21	-41.5	-45.0	13.5	3.00e-06	0	59	0	662700032	53	5740
2026-01-20 09:38:45.93	55.40	58.96	-40.3	-43.0	15.5	0.00e+00	0	59	0	671088640	52	4836
2026-01-20 09:38:49.97	51.97	58.61	-42.1	-46.1	12.3	1.71e-04	0	59	0	678428672	54	6181
2026-01-20 09:38:54.01	48.64	58.17	-42.2	-46.2	12.2	5.48e-04	0	59	0	685768704	55	5879
2026-01-20 09:38:58.05	45.43	57.64	-41.7	-45.2	13.4	1.83e-05	0	59	0	693108736	55	5221
2026-01-20 09:39:02.08	42.36	57.04	-41.8	-45.4	13.0	2.51e-05	0	59	0	701497344	54	5712
2026-01-20 09:39:06.12	39.43	56.37	-41.2	-44.3	14.2	0.00e+00	0	59	0	708837376	54	5025
2026-01-20 09:39:10.16	36.63	55.64	-41.1	-44.2	14.2	7.00e-07	0	60	0	716177408	53	5251
2026-01-20 09:39:14.20	33.99	54.86	-42.3	-46.5	11.8	1.85e-04	0	60	0	723517440	55	6095
2026-01-20 09:39:18.23	31.50	54.03	-42.0	-45.8	12.7	2.02e-04	0	59	0	730857472	55	5599
2026-01-20 09:39:22.27	29.14	53.16	-42.5	-46.7	11.6	9.41e-04	0	60	0	739246080	56	5919
2026-01-20 09:39:26.31	26.93	52.26	-42.0	-45.7	12.8	7.01e-05	0	60	0	746586112	56	5272
2026-01-20 09:39:30.35	24.85	51.34	-42.3	-46.2	12.3	6.84e-04	0	59	0	753926144	56	5554
2026-01-20 09:39:34.39	22.89	50.40	-43.3	-48.6	9.8	5.79e-03	0	60	0	761266176	57	6919
2026-01-20 09:39:38.42	21.06	49.45	-43.0	-47.9	10.4	5.97e-03	0	60	0	768606208	57	6400
2026-01-20 09:39:42.46	19.34	48.48	-44.2	-52.2	6.4	1.83e-01	0	59	0	776994816	58	9895
2026-01-20 09:39:46.51	17.72	47.51	-43.0	-47.9	10.4	4.50e-03	0	59	0	784334848	57	6402
2026-01-20 09:39:50.54	16.20	46.54	-43.7	-50.1	8.2	5.60e-02	0	60	0	791674880	58	7775
2026-01-20 09:39:54.58	14.78	45.58	-42.9	-47.8	10.7	1.80e-03	0	60	0	799014912	57	6291
2026-01-20 09:39:58.62	13.43	44.61	-43.4	-49.2	9.1	3.07e-02	0	59	0	807403520	57	7414
2026-01-20 09:40:02.66	12.17	43.66	-43.4	-48.8	9.5	6.89e-03	0	60	0	814743552	57	7121
2026-01-20 09:40:06.70	10.98	42.71	-43.0	-47.9	10.5	8.57e-03	0	60	0	822083584	57	6367
2026-01-20 09:40:10.73	9.87	41.77	-42.7	-47.2	11.0	1.43e-03	0	60	0	829423616	55	6643
2026-01-20 09:40:14.77	8.81	40.85	-43.8	-50.3	8.1	6.12e-02	0	60	0	836763648	58	7919
2026-01-20 09:40:18.80	7.82	39.94	-44.1	-51.3	7.0	1.14e-01	0	60	0	845152256	58	8867
2026-01-20 09:40:22.84	6.87	39.04	-44.1	-51.3	7.1	1.35e-01	0	60	0	852492288	58	8931
2026-01-20 09:40:26.88	5.98	38.15	-43.6	-49.5	8.9	4.35e-02	0	60	0	859832320	58	7208
2026-01-20 09:40:30.92	5.14	37.29	-43.9	-50.8	7.5	7.94e-02	0	60	0	867172352	58	8447
2026-01-20 09:40:34.95	4.34	36.44	-44.0	-51.2	7.2	1.32e-01	0	60	0	875560960	59	8280
2026-01-20 09:40:38.99	3.58	35.60	-44.5	-53.9	5.1	1.29e+00	0	60	0	879755264	60	10765
2026-01-20 09:40:43.03	2.86	34.78	-44.1	-52.6	6.0	3.83e-01	0	60	0	884998144	60	9197
2026-01-20 09:40:47.07	2.18	33.97	-44.5	-53.6	5.3	3.41e-01	0	60	0	893386752	59	10939
2026-01-20 09:40:51.11	1.52	33.18	-44.9	-58.1	3.8	1.00e+00	0	60	104	897581056	60	17310
2026-01-20 09:40:55.14	0.90	32.41	-43.2	-48.9	9.2	1.57e-02	0	60	0	902823936	57	7180
2026-01-20 09:40:59.18	0.31	31.66	-43.1	-48.6	9.5	2.05e-02	0	60	0	911212544	57	6900
2026-01-20 09:41:03.22	359.75	30.92	-43.6	-50.0	8.1	5.60e-02	0	60	0	918552576	57	8139
2026-01-20 09:41:07.25	359.21	30.19	-42.3	-46.5	11.7	1.02e-03	0	60	0	925892608	56	5730
2026-01-20 09:41:11.29	358.70	29.48	-42.6	-47.1	11.0	1.58e-03	0	60	0	933232640	56	6186
2026-01-20 09:41:15.33	358.21	28.79	-42.5	-47.1	11.1	2.23e-03	0	60	0	941621248	56	6140
2026-01-20 09:41:19.37	357.74	28.11	-43.4	-49.6	8.5	2.89e-02	0	60	0	948961280	57	7720
2026-01-20 09:41:23.41	357.29	27.44	-43.4	-49.6	8.3	6.34e-02	0	60	0	956301312	58	7339
2026-01-20 09:41:27.44	356.86	26.79	-43.0	-48.2	9.7	1.27e-02	0	60	0	963641344	58	6269
2026-01-20 09:41:31.48	356.44	26.15	-42.6	-47.3	10.7	4.24e-03	0	60	0	970981376	57	5925
2026-01-20 09:41:35.52	356.04	25.53	-42.3	-46.8	11.2	1.65e-03	0	60	0	979369984	56	5961
2026-01-20 09:41:39.55	355.66	24.91	-42.8	-48.3	9.4	1.42e-02	0	60	0	986710016	56	7047
2026-01-20 09:41:43.59	355.30	24.32	-42.8	-48.2	9.4	1.86e-02	0	60	0	994050048	56	7025
2026-01-20 09:41:47.62	354.94	23.73	-42.6	-47.9	9.8	8.66e-03	0	60	0	1001390080	56	6731
2026-01-20 09:41:51.66	354.61	23.15	-43.1	-50.1	7.3	9.34e-02	0	60	0	1008730112	56	8756
2026-01-20 09:41:55.70	354.28	22.59	-42.7	-49.7	7.3	1.81e-01	0	60	0	1017118720	56	8355
2026-01-20 09:41:59.74	353.96	22.04	-41.6	-47.2	9.2	2.68e-02	0	60	0	1024458752	55	6624
2026-01-20 09:42:03.78	353.66	21.49	-41.4	-47.2	8.9	1.59e-02	0	60	0	1031798784	54	7021
2026-01-20 09:42:07.82	353.37	20.96	-41.7	-50.1	5.8	2.65e-01	0	60	0	1039138816	54	9754
2026-01-20 09:42:11.85	353.09	20.44	-42.0	-53.9	4.0	1.44e+00	0	60	0	1044381696	54	15068
2026-01-20 09:42:15.89	352.82	19.93	-41.6	-55.7	3.8	1.49e+00	0	60	104	1044381696	54	18597
2026-01-20 09:42:19.93	352.55	19.43	-41.4	-56.1	3.8	1.49e+00	0	60	104	1044381696	54	19514
2026-01-20 09:42:23.97	352.30	18.94	-40.8	-55.5	3.8	1.49e+00	0	60	104	1044381696	53	19257
2026-01-20 09:42:28.00	352.06	18.45	-40.7	-55.5	3.8	1.49e+00	0	60	104	1044381696	53	19183
2026-01-20 09:42:32.04	351.82	17.98	-40.3	-55.5	3.8	1.49e+00	0	60	104	1044381696	52	20331
2026-01-20 09:42:36.08	351.59	17.51	-39.8	-55.5	3.8	1.49e+00	0	60	104	1044381696	51	21741
2026-01-20 09:42:40.12	351.37	17.06	-39.8	-55.6	3.8	1.49e+00	0	60	104	1044381696	51	22000
2026-01-20 09:42:44.16	351.15	16.61	-40.3	-55.8	3.8	1.49e+00	0	60	104	1044381696	51	22281
2026-01-20 09:42:48.19	350.94	16.17	-40.6	-55.7	3.8	1.49e+00	0	60	104	1044381696	52	20929
2026-01-20 09:42:52.23	350.74	15.73	-40.7	-55.6	3.8	1.49e+00	0	60	104	1044381696	52	20748
2026-01-20 09:42:56.27	350.55	15.30	-40.7	-55.5	3.8	1.49e+00	0	60	104	1044381696	52	20412
2026-01-20 09:43:00.31	350.36	14.88	-40.8	-55.5	3.8	1.49e+00	0	60	104	1044381696	52	20438
2026-01-20 09:43:04.35	350.17	14.47	-40.9	-55.5	3.8	1.49e+00	0	60	104	1044381696	52	20528
2026-01-20 09:43:08.39	349.99	14.06	-40.8	-55.5	3.8	1.49e+00	0	60	104	1044381696	52	20509
2026-01-20 09:43:12.42	349.82	13.66	-40.8	-55.5	3.8	1.49e+00	0	60	104	1044381696	52	20433
2026-01-20 09:43:16.46	349.65	13.27	-40.7	-55.4	3.8	1.49e+00	0	60	104	1044381696	52	20248
2026-01-20 09:43:20.50	349.49	12.88	-40.7	-55.4	3.8	1.49e+00	0	60	104	1044381696	52	20294
2026-01-20 09:43:24.55	349.33	12.50	-40.8	-55.5	3.8	1.49e+00	0	60	104	1044381696	52	20311
2026-01-20 09:43:28.58	349.17	12.12	-40.8	-55.5	3.8	1.49e+00	0	60	104	1044381696	52	20417
2026-01-20 09:43:32.62	349.02	11.75	-40.9	-55.6	3.8	1.49e+00	0	60	104	1044381696	52	20560
2026-01-20 09:43:36.66	348.88	11.38	-40.9	-55.6	3.8	1.49e+00	0	60	104	1044381696	52	20630
2026-01-20 09:43:40.69	348.73	11.02	-40.9	-55.6	3.8	1.49e+00	0	60	104	1044381696	52	20676
2026-01-20 09:43:44.73	348.60	10.67	-40.8	-55.6	3.8	1.49e+00	0	60	104	1044381696	52	20701
2026-01-20 09:43:48.77	348.46	10.32	-40.9	-55.6	3.8	1.49e+00	0	60	104	1044381696	52	20723
2026-01-20 09:43:52.81	348.33	9.97	-40.9	-55.6	3.8	1.49e+00	0	60	104	1044381696	52	20716
2026-01-20 09:43:56.84	348.20	9.63	-41.0	-55.6	3.8	1.49e+00	0	60	104	1044381696	52	20775
2026-01-20 09:44:00.88	348.08	9.30	-41.0	-55.7	3.8	1.49e+00	0	60	104	1044381696	52	20818
2026-01-20 09:44:04.92	347.96	8.96	-41.0	-55.6	3.8	1.49e+00	0	60	104	1044381696	52	20763
2026-01-20 09:44:08.96	347.84	8.63	-41.0	-55.6	3.8	1.49e+00	0	60	104	1044381696	52	20679
2026-01-20 09:44:13.00	347.72	8.31	-41.0	-55.6	3.8	1.49e+00	0	60	104	1044381696	52	20591
2026-01-20 09:44:17.03	347.61	7.99	-41.0	-55.7	3.8	1.49e+00	0	60	104	1044381696	52	20824
2026-01-20 09:44:21.08	347.50	7.67	-44.8	-59.5	3.8	1.49e+00	0	60	104	1044381696	60	20427
2026-01-20 09:44:25.12	347.40	7.36	-45.1	-59.8	3.8	1.49e+00	0	60	104	1044381696	60	21195
2026-01-20 09:44:29.16	347.29	7.05	-45.0	-59.7	3.8	1.49e+00	0	60	104	1044381696	60	20991
2026-01-20 09:44:33.20	347.19	6.75	-45.1	-59.6	3.8	1.49e+00	0	60	104	1044381696	60	20746
2026-01-20 09:44:37.25	347.09	6.45	-45.0	-59.6	3.8	1.49e+00	0	60	104	1044381696	60	20639
2026-01-20 09:44:41.29	346.99	6.15	-45.0	-59.6	3.8	1.49e+00	0	60	104	1044381696	60	20591
2026-01-20 09:44:45.33	346.90	5.85	-45.0	-59.6	3.8	1.49e+00	0	60	104	1044381696	60	20609
2026-01-20 09:44:49.37	346.81	5.56	-45.0	-59.6	3.8	1.49e+00	0	60	104	1044381696	60	20583
2026-01-20 09:44:53.41	346.72	5.27	-45.0	-59.6	3.8	1.49e+00	0	60	104	1044381696	60	20622
2026-01-20 09:44:57.46	346.63	4.99	-45.0	-59.5	3.8	1.49e+00	0	60	104	1044381696	60	20522
2026-01-20 09:45:01.50	346.54	4.70	-45.0	-59.5	3.8	1.49e+00	0	60	104	1044381696	60	20474
2026-01-20 09:45:05.54	346.46	4.42	-45.0	-59.5	3.8	1.49e+00	0	60	104	1044381696	60	20526
2026-01-20 09:45:09.58	346.38	4.15	-45.0	-59.5	3.8	1.49e+00	0	60	104	1044381696	60	20519
2026-01-20 09:45:13.62	346.29	3.87	-45.0	-59.6	3.8	1.49e+00	0	60	104	1044381696	60	20549
2026-01-20 09:45:17.67	346.22	3.60	-45.0	-59.5	3.8	1.49e+00	0	60	104	1044381696	60	20478
2026-01-20 09:45:21.71	346.14	3.33	-45.0	-59.5	3.8	1.49e+00	0	60	104	1044381696	60	20448
2026-01-20 09:45:25.75	346.06	3.06	-44.9	-59.5	3.8	1.49e+00	0	60	104	1044381696	60	20469
2026-01-20 09:45:29.79	345.99	2.80	-44.8	-59.5	3.8	1.49e+00	0	60	104	1044381696	60	20446
2026-01-20 09:45:33.83	345.92	2.54	-44.9	-59.5	3.8	1.49e+00	0	60	104	1044381696	60	20476
2026-01-20 09:45:37.88	345.85	2.28	-45.0	-59.5	3.8	1.49e+00	0	60	104	1044381696	60	20424
2026-01-20 09:45:41.92	345.78	2.02	-44.9	-59.5	3.8	1.49e+00	0	60	104	1044381696	60	20375

#Closed at: 2026-01-20 09:45:44
#Recorded file [1044 MB]: D:/lorett/data/31039_260120_123129.dat