passes_logs/2026/01/20/R2.0S_Moscow/R2.0S_Moscow__20260120_232156_SUOMI_NPP_rec.log

#Pass ID: 20260120_232156_SUOMI NPP
#Satellite: SUOMI NPP
#Configuration: NPP
#almurnet v.1.7.20251203
#Start time: 2026-01-20 23:21:57

#Version: 2.2.20231116
#Station: R2.0S_Moscow
#Location: 37.707566 lon 55.798166 lat
#TLE: 1 37849U 11061A   26020.31993517  .00000142  00000+0  88240-4 0  9990
#TLE: 2 37849  98.7818 322.3228 0002330  54.3778 305.7615 14.19527005737466

#Time	Az	El	Level	Level2	SNR	BER	BlckErr	Temp	State	Recorded	gain1	gain2
2026-01-20 23:21:57.83	18.06	2.12	-41.4	-56.6	3.8	1.49e+00	0	49	0	0	54	20611
2026-01-20 23:22:01.87	18.15	2.38	-41.4	-56.6	3.8	1.49e+00	0	49	104	0	54	20632
2026-01-20 23:22:05.91	18.24	2.63	-41.4	-56.6	3.8	1.49e+00	0	50	104	0	54	20601
2026-01-20 23:22:09.96	18.33	2.90	-41.4	-56.6	3.8	1.49e+00	0	50	104	0	54	20634
2026-01-20 23:22:14.00	18.42	3.16	-41.4	-56.6	3.8	1.49e+00	0	50	104	0	54	20604
2026-01-20 23:22:18.04	18.51	3.43	-41.4	-56.6	3.8	1.49e+00	0	50	104	0	54	20638
2026-01-20 23:22:22.08	18.60	3.70	-41.4	-56.6	3.8	1.49e+00	0	51	104	0	54	20641
2026-01-20 23:22:26.12	18.69	3.97	-41.4	-56.6	3.8	1.49e+00	0	51	104	0	54	20561
2026-01-20 23:22:30.16	18.79	4.24	-41.4	-56.6	3.8	1.49e+00	0	51	104	0	54	20553
2026-01-20 23:22:34.20	18.88	4.52	-41.4	-56.6	3.8	1.49e+00	0	51	104	0	54	20588
2026-01-20 23:22:38.24	18.98	4.80	-41.4	-56.6	3.8	1.49e+00	0	51	104	0	54	20584
2026-01-20 23:22:42.28	19.08	5.08	-41.4	-56.6	3.8	1.49e+00	0	52	104	0	54	20585
2026-01-20 23:22:46.32	19.18	5.37	-41.4	-56.6	3.8	1.49e+00	0	52	104	0	54	20576
2026-01-20 23:22:50.37	19.29	5.66	-41.4	-56.6	3.8	1.49e+00	0	52	104	0	54	20607
2026-01-20 23:22:54.41	19.39	5.95	-41.4	-56.6	3.8	1.49e+00	0	52	104	0	54	20601
2026-01-20 23:22:58.45	19.50	6.24	-41.4	-56.6	3.8	1.49e+00	0	53	104	0	54	20543
2026-01-20 23:23:02.46	19.60	6.54	-41.4	-56.6	3.8	1.49e+00	0	53	104	0	54	20582
2026-01-20 23:23:06.50	19.71	6.84	-41.4	-56.5	3.8	1.49e+00	0	53	104	0	54	20497
2026-01-20 23:23:10.54	19.83	7.15	-41.4	-56.5	3.8	1.49e+00	0	53	104	0	54	20454
2026-01-20 23:23:14.59	19.94	7.46	-41.4	-56.4	3.8	1.49e+00	0	53	104	0	54	20076
2026-01-20 23:23:18.63	20.06	7.77	-41.4	-55.8	3.8	1.49e+00	0	53	104	0	54	18860
2026-01-20 23:23:22.67	20.17	8.09	-41.8	-54.8	3.8	1.49e+00	0	54	104	0	54	16775
2026-01-20 23:23:26.70	20.29	8.41	-41.7	-48.6	7.6	1.10e+00	0	54	104	1048576	54	8209
2026-01-20 23:23:30.74	20.42	8.73	-41.2	-46.5	9.9	8.07e-03	0	54	0	8388608	54	6446
2026-01-20 23:23:34.78	20.54	9.06	-41.5	-47.2	9.2	2.33e-02	0	54	0	15728640	54	7004
2026-01-20 23:23:38.82	20.67	9.40	-41.6	-47.2	9.4	1.50e-02	0	54	0	23068672	54	7023
2026-01-20 23:23:42.85	20.80	9.73	-41.6	-46.8	10.0	8.80e-03	0	54	0	30408704	54	6689
2026-01-20 23:23:46.89	20.93	10.07	-41.9	-47.1	10.0	6.81e-03	0	54	0	37748736	54	6910
2026-01-20 23:23:50.93	21.07	10.42	-41.9	-46.9	10.2	5.84e-03	0	54	0	46137344	54	6776
2026-01-20 23:23:54.97	21.20	10.77	-41.9	-46.6	10.6	4.11e-03	0	55	0	53477376	54	6570
2026-01-20 23:23:59.00	21.35	11.13	-41.9	-46.7	10.7	2.77e-03	0	55	0	60817408	54	6605
2026-01-20 23:24:03.04	21.49	11.49	-41.9	-46.4	11.0	1.91e-03	0	55	0	68157440	54	6383
2026-01-20 23:24:07.07	21.64	11.86	-41.8	-46.2	11.4	1.20e-03	0	55	0	76546048	54	6209
2026-01-20 23:24:11.11	21.79	12.23	-41.8	-46.2	11.3	9.74e-04	0	55	0	83886080	54	6235
2026-01-20 23:24:15.15	21.94	12.61	-41.7	-45.9	11.7	5.40e-04	0	55	0	91226112	54	6040
2026-01-20 23:24:19.19	22.10	12.99	-41.8	-46.0	11.7	7.51e-04	0	55	0	98566144	54	6099
2026-01-20 23:24:23.23	22.26	13.38	-41.8	-45.9	11.8	5.43e-04	0	55	0	105906176	54	6019
2026-01-20 23:24:27.26	22.43	13.78	-41.7	-45.7	12.1	3.17e-04	0	55	0	114294784	54	5858
2026-01-20 23:24:31.30	22.59	14.18	-41.7	-45.7	12.1	2.55e-04	0	56	0	121634816	54	5863
2026-01-20 23:24:35.34	22.77	14.59	-41.7	-45.7	12.1	1.85e-04	0	56	0	128974848	54	5869
2026-01-20 23:24:39.38	22.95	15.01	-41.6	-45.4	12.4	1.48e-04	0	56	0	136314880	54	5718
2026-01-20 23:24:43.41	23.13	15.43	-41.7	-45.6	12.2	1.83e-04	0	55	0	143654912	54	5825
2026-01-20 23:24:47.45	23.32	15.86	-41.7	-45.6	12.3	1.64e-04	0	56	0	152043520	54	5849
2026-01-20 23:24:51.49	23.51	16.30	-41.8	-45.8	12.2	3.13e-04	0	56	0	159383552	54	5936
2026-01-20 23:24:55.53	23.71	16.75	-41.8	-45.8	12.2	2.13e-04	0	56	0	166723584	54	5928
2026-01-20 23:24:59.57	23.91	17.20	-41.9	-45.8	12.2	2.39e-04	0	56	0	174063616	54	5957
2026-01-20 23:25:03.60	24.12	17.66	-41.9	-45.8	12.2	2.39e-04	0	56	0	182452224	54	5975
2026-01-20 23:25:07.64	24.33	18.13	-42.1	-46.2	11.9	3.85e-04	0	56	0	189792256	54	6203
2026-01-20 23:25:11.67	24.55	18.61	-42.1	-46.1	11.9	5.54e-04	0	56	0	197132288	54	6195
2026-01-20 23:25:15.72	24.78	19.10	-42.2	-46.5	11.6	5.81e-04	0	56	0	204472320	55	6065
2026-01-20 23:25:19.76	25.01	19.60	-42.3	-46.6	11.4	6.38e-04	0	56	0	211812352	55	6195
2026-01-20 23:25:23.79	25.26	20.11	-42.4	-46.7	11.4	1.06e-03	0	56	0	220200960	55	6239
2026-01-20 23:25:27.83	25.51	20.62	-42.4	-46.8	11.3	1.40e-03	0	57	0	227540992	55	6326
2026-01-20 23:25:31.87	25.76	21.15	-42.2	-46.3	11.8	7.19e-04	0	56	0	234881024	55	5964
2026-01-20 23:25:35.90	26.03	21.69	-42.0	-45.8	12.4	2.01e-04	0	57	0	242221056	55	5631
2026-01-20 23:25:39.94	26.30	22.24	-42.0	-45.7	12.5	1.06e-04	0	57	0	250609664	55	5567
2026-01-20 23:25:43.98	26.59	22.81	-41.8	-45.3	12.9	3.66e-05	0	57	0	257949696	55	5324
2026-01-20 23:25:48.02	26.88	23.38	-41.6	-45.1	13.2	1.98e-05	0	57	0	265289728	55	5168
2026-01-20 23:25:52.06	27.19	23.97	-41.5	-44.8	13.6	6.80e-06	0	57	0	272629760	54	5290
2026-01-20 23:25:56.09	27.50	24.56	-41.6	-45.0	13.3	1.52e-05	0	57	0	279969792	54	5411
2026-01-20 23:26:00.13	27.83	25.18	-41.4	-44.6	13.7	6.10e-06	0	57	0	288358400	54	5208
2026-01-20 23:26:04.17	28.17	25.80	-41.7	-45.1	13.2	8.30e-06	0	57	0	295698432	54	5516
2026-01-20 23:26:08.20	28.52	26.44	-41.7	-45.2	13.1	2.44e-05	0	57	0	303038464	54	5543
2026-01-20 23:26:12.24	28.89	27.10	-41.6	-45.0	13.4	1.22e-05	0	57	0	310378496	54	5408
2026-01-20 23:26:16.28	29.27	27.77	-41.7	-45.0	13.4	3.80e-06	0	57	0	318767104	54	5433
2026-01-20 23:26:20.32	29.67	28.45	-41.7	-45.2	13.2	2.59e-05	0	57	0	326107136	54	5533
2026-01-20 23:26:24.36	30.08	29.15	-42.0	-45.6	12.8	3.28e-05	0	57	0	333447168	54	5797
2026-01-20 23:26:28.39	30.51	29.87	-42.2	-46.0	12.5	2.75e-04	0	57	0	340787200	55	5728
2026-01-20 23:26:32.43	30.97	30.60	-42.9	-47.4	11.1	1.37e-03	0	57	0	348127232	56	6415
2026-01-20 23:26:36.47	31.44	31.35	-43.5	-48.8	9.7	1.04e-02	0	57	0	356515840	57	7098
2026-01-20 23:26:40.51	31.93	32.12	-44.0	-50.3	8.1	8.55e-02	0	57	0	363855872	58	7964
2026-01-20 23:26:44.55	32.45	32.91	-43.7	-49.3	9.2	3.69e-02	0	57	0	371195904	58	7065
2026-01-20 23:26:48.58	32.99	33.71	-43.3	-48.2	10.3	6.46e-03	0	57	0	378535936	58	6223
2026-01-20 23:26:52.62	33.56	34.54	-43.1	-47.6	10.9	1.94e-03	0	57	0	385875968	57	6200
2026-01-20 23:26:56.65	34.16	35.38	-43.3	-48.1	10.4	3.64e-03	0	57	0	394264576	57	6567
2026-01-20 23:27:00.69	34.79	36.24	-43.6	-48.9	9.5	1.06e-02	0	57	0	401604608	57	7193
2026-01-20 23:27:04.73	35.45	37.13	-43.5	-48.6	9.9	5.59e-03	0	57	0	408944640	57	6886
2026-01-20 23:27:08.77	36.15	38.03	-43.6	-48.9	9.7	7.82e-03	0	57	0	416284672	57	7178
2026-01-20 23:27:12.81	36.89	38.95	-43.6	-49.0	9.6	2.67e-02	0	57	0	424673280	58	6834
2026-01-20 23:27:16.84	37.67	39.89	-43.6	-48.9	9.7	1.26e-02	0	57	0	432013312	58	6771
2026-01-20 23:27:20.88	38.50	40.86	-43.6	-48.9	9.7	7.22e-03	0	58	0	439353344	58	6740
2026-01-20 23:27:24.92	39.38	41.84	-43.5	-48.7	9.9	4.23e-03	0	57	0	446693376	58	6572
2026-01-20 23:27:28.96	40.31	42.84	-43.3	-48.1	10.5	4.38e-03	0	58	0	454033408	58	6190
2026-01-20 23:27:32.99	41.30	43.86	-43.6	-48.9	9.8	9.54e-03	0	57	0	462422016	58	6783
2026-01-20 23:27:37.03	42.36	44.90	-43.4	-48.4	10.2	5.17e-03	0	57	0	469762048	58	6377
2026-01-20 23:27:41.07	43.49	45.95	-43.3	-48.1	10.5	4.70e-03	0	58	0	477102080	58	6175
2026-01-20 23:27:45.11	44.70	47.02	-42.8	-46.8	11.9	2.76e-04	0	58	0	484442112	57	5644
2026-01-20 23:27:49.15	45.99	48.11	-42.9	-47.1	11.7	4.83e-04	0	57	0	492830720	57	5795
2026-01-20 23:27:53.19	47.37	49.20	-43.0	-47.3	11.4	1.58e-03	0	58	0	500170752	57	5952
2026-01-20 23:27:57.23	48.86	50.30	-43.0	-47.3	11.4	9.47e-04	0	58	0	507510784	57	5954
2026-01-20 23:28:01.27	50.46	51.41	-42.1	-45.5	13.3	1.37e-05	0	58	0	514850816	56	5151
2026-01-20 23:28:05.30	52.17	52.52	-42.0	-45.4	13.4	2.89e-05	0	58	0	522190848	56	5046
2026-01-20 23:28:09.34	54.03	53.63	-42.3	-46.0	12.6	7.55e-05	0	57	0	530579456	55	5758
2026-01-20 23:28:13.38	56.03	54.73	-41.4	-44.4	14.2	1.50e-06	0	58	0	537919488	54	5069
2026-01-20 23:28:17.42	58.18	55.81	-40.8	-43.4	15.2	0.00e+00	0	58	0	545259520	53	4788
2026-01-20 23:28:21.45	60.51	56.88	-41.9	-45.2	13.5	1.75e-05	0	58	0	552599552	54	5550
2026-01-20 23:28:25.49	63.02	57.91	-42.1	-45.6	13.1	5.30e-06	0	58	0	560988160	54	5811
2026-01-20 23:28:29.53	65.73	58.91	-42.4	-46.1	12.5	5.41e-05	0	58	0	568328192	55	5829
2026-01-20 23:28:33.57	68.64	59.86	-42.2	-45.7	12.9	6.71e-05	0	58	0	575668224	55	5541
2026-01-20 23:28:37.61	71.78	60.76	-43.0	-47.2	11.6	1.23e-03	0	58	0	583008256	56	6253
2026-01-20 23:28:41.64	75.12	61.58	-42.4	-46.0	12.8	5.41e-05	0	58	0	590348288	56	5456
2026-01-20 23:28:45.68	78.69	62.33	-41.4	-44.4	14.2	0.00e+00	0	58	0	598736896	54	5086
2026-01-20 23:28:49.72	82.47	62.99	-40.7	-43.3	15.5	0.00e+00	0	58	0	606076928	53	4715
2026-01-20 23:28:53.76	86.45	63.54	-41.3	-44.2	14.4	0.00e+00	0	58	0	613416960	53	5238
2026-01-20 23:28:57.79	90.59	63.98	-42.6	-46.5	12.1	1.85e-04	0	58	0	620756992	55	6127
2026-01-20 23:29:01.83	94.88	64.29	-42.1	-45.6	13.1	1.06e-05	0	58	0	629145600	54	5842
2026-01-20 23:29:05.87	99.26	64.48	-42.3	-46.1	12.5	4.88e-05	0	58	0	636485632	55	5817
2026-01-20 23:29:09.91	103.69	64.53	-41.5	-44.5	14.1	0.00e+00	0	58	0	643825664	54	5158
2026-01-20 23:29:13.94	108.11	64.45	-41.8	-45.1	13.6	7.00e-07	0	58	0	651165696	54	5490
2026-01-20 23:29:17.98	112.47	64.24	-41.5	-44.6	14.0	3.00e-06	0	58	0	658505728	53	5466
2026-01-20 23:29:22.02	116.74	63.89	-42.2	-45.8	12.6	5.03e-05	0	58	0	666894336	55	5654
2026-01-20 23:29:26.06	120.85	63.43	-41.0	-43.7	14.8	0.00e+00	0	58	0	674234368	53	4974
2026-01-20 23:29:30.09	124.79	62.85	-41.5	-44.7	13.9	0.00e+00	0	58	0	681574400	53	5529
2026-01-20 23:29:34.13	128.53	62.17	-41.4	-44.4	14.2	0.00e+00	0	58	0	688914432	53	5358
2026-01-20 23:29:38.17	132.05	61.40	-41.8	-45.0	13.6	6.10e-06	0	58	0	697303040	54	5453
2026-01-20 23:29:42.21	135.36	60.56	-41.3	-44.2	14.3	0.00e+00	0	58	0	704643072	53	5266
2026-01-20 23:29:46.24	138.44	59.65	-40.4	-42.8	15.6	0.00e+00	0	58	0	711983104	52	4759
2026-01-20 23:29:50.28	141.31	58.68	-40.7	-43.3	15.2	0.00e+00	0	58	0	719323136	52	5036
2026-01-20 23:29:54.32	143.98	57.67	-40.8	-43.4	15.1	0.00e+00	0	58	0	726663168	52	5094
2026-01-20 23:29:58.36	146.46	56.62	-41.3	-44.2	14.3	0.00e+00	0	58	0	735051776	53	5255
2026-01-20 23:30:02.39	148.74	55.55	-40.7	-43.4	15.1	0.00e+00	0	58	0	742391808	53	4774
2026-01-20 23:30:06.43	150.87	54.46	-41.2	-44.2	14.4	0.00e+00	0	58	0	749731840	53	5225
2026-01-20 23:30:10.47	152.83	53.35	-41.5	-44.6	13.9	0.00e+00	0	58	0	757071872	53	5517
2026-01-20 23:30:14.51	154.66	52.24	-41.9	-45.3	13.1	1.88e-04	0	58	0	765460480	55	5323
2026-01-20 23:30:18.55	156.35	51.13	-41.8	-45.2	13.3	4.88e-05	0	58	0	772800512	55	5229
2026-01-20 23:30:22.58	157.92	50.02	-41.7	-44.9	13.5	8.30e-06	0	58	0	780140544	55	5065
2026-01-20 23:30:26.62	159.39	48.91	-42.9	-47.3	11.2	1.61e-03	0	58	0	787480576	56	6308
2026-01-20 23:30:30.66	160.75	47.82	-42.9	-47.1	11.3	4.52e-04	0	58	0	794820608	56	6152
2026-01-20 23:30:34.70	162.02	46.73	-42.3	-45.9	12.7	8.85e-05	0	58	0	803209216	56	5360
2026-01-20 23:30:38.73	163.21	45.66	-42.7	-46.8	11.6	4.41e-03	0	58	0	810549248	57	5635
2026-01-20 23:30:42.77	164.32	44.61	-41.8	-45.1	13.3	2.20e-06	0	58	0	817889280	54	5479
2026-01-20 23:30:46.81	165.37	43.57	-44.3	-51.9	6.5	4.15e-01	0	58	0	825229312	59	9003
2026-01-20 23:30:50.85	166.35	42.55	-41.6	-44.8	13.5	5.30e-06	0	58	0	833617920	54	5310
2026-01-20 23:30:54.88	167.27	41.55	-42.4	-46.2	12.3	8.75e-04	0	58	0	840957952	56	5532
2026-01-20 23:30:58.92	168.13	40.57	-41.6	-44.9	13.4	3.00e-06	0	58	0	848297984	53	5690
2026-01-20 23:31:02.96	168.95	39.60	-43.6	-49.3	9.0	1.99e-02	0	58	0	855638016	57	7523
2026-01-20 23:31:07.00	169.72	38.66	-42.2	-45.8	12.6	1.56e-04	0	58	0	862978048	56	5328
2026-01-20 23:31:11.03	170.45	37.74	-42.1	-45.7	12.6	3.73e-05	0	58	0	871366656	54	5896
2026-01-20 23:31:15.07	171.14	36.84	-43.0	-47.6	10.7	4.17e-03	0	58	0	878706688	57	6161
2026-01-20 23:31:19.11	171.80	35.95	-41.9	-45.3	12.9	4.19e-05	0	58	0	886046720	55	5326
2026-01-20 23:31:23.15	172.42	35.09	-41.4	-44.6	13.7	1.06e-05	0	58	0	893386752	54	5191
2026-01-20 23:31:27.19	173.01	34.25	-42.3	-46.2	11.9	1.69e-04	0	58	0	901775360	55	5921
2026-01-20 23:31:31.22	173.57	33.43	-43.4	-48.5	9.7	1.34e-02	0	58	0	909115392	57	6862
2026-01-20 23:31:35.26	174.11	32.62	-43.3	-48.5	9.8	1.37e-02	0	58	0	916455424	57	6805
2026-01-20 23:31:39.29	174.62	31.84	-42.3	-46.0	12.4	1.78e-04	0	58	0	923795456	56	5421
2026-01-20 23:31:43.33	175.10	31.07	-42.5	-46.5	11.8	3.20e-04	0	58	0	931135488	56	5764
2026-01-20 23:31:47.37	175.57	30.32	-43.1	-47.9	10.3	3.98e-03	0	58	0	939524096	56	6774
2026-01-20 23:31:51.41	176.02	29.59	-43.0	-47.6	10.6	4.14e-03	0	58	0	946864128	56	6511
2026-01-20 23:31:55.44	176.44	28.87	-43.1	-47.9	10.3	4.78e-03	0	58	0	954204160	56	6759
2026-01-20 23:31:59.48	176.85	28.17	-42.3	-46.0	12.3	5.13e-04	0	58	0	961544192	56	5451
2026-01-20 23:32:03.52	177.24	27.49	-41.4	-44.5	13.6	1.22e-05	0	58	0	968884224	54	5149
2026-01-20 23:32:07.56	177.62	26.82	-41.5	-44.9	13.3	1.83e-05	0	58	0	977272832	54	5342
2026-01-20 23:32:11.60	177.98	26.16	-41.6	-45.1	13.1	2.05e-05	0	58	0	984612864	54	5478
2026-01-20 23:32:15.63	178.33	25.53	-41.5	-44.9	13.2	1.44e-05	0	58	0	991952896	54	5371
2026-01-20 23:32:19.67	178.66	24.90	-41.9	-45.6	12.5	9.99e-05	0	58	0	999292928	54	5800
2026-01-20 23:32:23.71	178.99	24.29	-41.8	-45.4	12.7	8.77e-05	0	58	0	1007681536	54	5685
2026-01-20 23:32:27.75	179.30	23.69	-41.6	-45.0	13.1	3.35e-05	0	58	0	1015021568	54	5430
2026-01-20 23:32:31.78	179.60	23.10	-41.3	-44.5	13.5	5.30e-06	0	58	0	1022361600	54	5154
2026-01-20 23:32:35.82	179.89	22.53	-41.2	-44.3	13.8	3.00e-06	0	58	0	1029701632	54	5026
2026-01-20 23:32:39.86	180.17	21.97	-41.0	-44.0	14.1	3.00e-06	0	58	0	1037041664	53	5126
2026-01-20 23:32:43.90	180.44	21.42	-41.4	-44.7	13.4	9.10e-06	0	58	0	1045430272	53	5539
2026-01-20 23:32:47.93	180.70	20.88	-41.7	-45.3	12.7	5.72e-05	0	58	0	1052770304	53	5945
2026-01-20 23:32:51.97	180.95	20.35	-41.7	-45.3	12.7	6.33e-05	0	58	0	1060110336	54	5647
2026-01-20 23:32:56.01	181.19	19.83	-41.3	-44.6	13.3	1.29e-05	0	58	0	1067450368	54	5217
2026-01-20 23:33:00.04	181.43	19.33	-40.9	-43.9	14.1	1.50e-06	0	58	0	1075838976	53	5060
2026-01-20 23:33:04.07	181.66	18.83	-40.9	-43.9	14.1	2.20e-06	0	58	0	1083179008	53	5089
2026-01-20 23:33:08.11	181.88	18.34	-41.1	-44.2	13.7	6.10e-06	0	58	0	1090519040	53	5264
2026-01-20 23:33:12.15	182.10	17.86	-41.2	-44.5	13.5	1.29e-05	0	58	0	1097859072	53	5411
2026-01-20 23:33:16.18	182.31	17.39	-41.3	-44.7	13.3	6.10e-06	0	58	0	1105199104	53	5544
2026-01-20 23:33:20.22	182.52	16.93	-41.4	-44.8	13.1	2.82e-05	0	58	0	1113587712	53	5648
2026-01-20 23:33:24.26	182.71	16.48	-41.4	-44.7	13.2	2.13e-05	0	58	0	1120927744	53	5555
2026-01-20 23:33:28.30	182.91	16.03	-41.5	-45.0	12.9	3.96e-05	0	58	0	1128267776	53	5760
2026-01-20 23:33:32.34	183.10	15.59	-41.6	-45.2	12.7	6.94e-05	0	58	0	1135607808	53	5888
2026-01-20 23:33:36.37	183.28	15.16	-41.9	-45.7	12.2	1.84e-04	0	58	0	1142947840	54	5893
2026-01-20 23:33:40.41	183.46	14.74	-42.0	-46.1	11.9	3.52e-04	0	58	0	1151336448	54	6145
2026-01-20 23:33:44.45	183.63	14.33	-42.3	-46.8	11.0	1.16e-03	0	58	0	1158676480	55	6331
2026-01-20 23:33:48.48	183.80	13.92	-42.5	-47.4	10.4	3.67e-03	0	58	0	1166016512	55	6743
2026-01-20 23:33:52.52	183.96	13.51	-42.9	-48.0	9.9	9.04e-03	0	58	0	1173356544	56	6809
2026-01-20 23:33:56.56	184.12	13.12	-43.0	-48.2	9.6	1.14e-02	0	58	0	1181745152	56	7024
2026-01-20 23:34:00.59	184.28	12.73	-43.1	-48.7	9.2	1.93e-02	0	58	0	1189085184	56	7403
2026-01-20 23:34:04.63	184.43	12.34	-43.0	-48.3	9.6	1.40e-02	0	58	0	1196425216	56	7087
2026-01-20 23:34:08.67	184.58	11.97	-42.9	-48.1	9.8	1.16e-02	0	58	0	1203765248	56	6884
2026-01-20 23:34:12.71	184.73	11.59	-42.5	-47.1	10.7	3.02e-03	0	58	0	1211105280	56	6190
2026-01-20 23:34:16.74	184.87	11.23	-42.3	-46.8	11.0	1.77e-03	0	58	0	1219493888	56	5952
2026-01-20 23:34:20.78	185.01	10.86	-42.3	-46.7	11.2	1.25e-03	0	58	0	1226833920	56	5893
2026-01-20 23:34:24.82	185.15	10.51	-42.1	-46.4	11.5	9.54e-04	0	58	0	1234173952	56	5663
2026-01-20 23:34:28.86	185.28	10.16	-42.0	-46.2	11.6	8.38e-04	0	58	0	1241513984	56	5558
2026-01-20 23:34:32.89	185.41	9.81	-41.8	-45.8	11.8	6.07e-04	0	58	0	1249902592	55	5656
2026-01-20 23:34:36.93	185.54	9.47	-41.8	-45.9	11.8	5.10e-04	0	58	0	1257242624	55	5660
2026-01-20 23:34:40.97	185.67	9.13	-41.9	-46.3	11.3	1.23e-03	0	58	0	1264582656	55	5927
2026-01-20 23:34:45.01	185.79	8.80	-41.9	-46.3	11.2	1.04e-03	0	58	0	1271922688	55	5939
2026-01-20 23:34:49.04	185.91	8.47	-41.8	-46.1	11.3	8.64e-04	0	58	0	1279262720	55	5812
2026-01-20 23:34:53.08	186.03	8.14	-41.9	-46.3	11.1	1.50e-03	0	58	0	1287651328	55	5956
2026-01-20 23:34:57.12	186.14	7.82	-45.0	-59.7	3.8	1.49e+00	0	58	104	1290797056	60	20843
2026-01-20 23:35:01.16	186.25	7.50	-45.3	-60.0	3.8	1.49e+00	0	58	104	1290797056	61	20446
2026-01-20 23:35:05.20	186.36	7.19	-45.4	-60.0	3.8	1.49e+00	0	58	104	1290797056	61	20387
2026-01-20 23:35:09.25	186.47	6.88	-45.4	-59.9	3.8	1.49e+00	0	58	104	1290797056	61	20268
2026-01-20 23:35:13.29	186.58	6.58	-45.3	-59.9	3.8	1.49e+00	0	58	104	1290797056	61	20226
2026-01-20 23:35:17.33	186.69	6.27	-45.3	-59.9	3.8	1.49e+00	0	58	104	1290797056	61	20156
2026-01-20 23:35:21.37	186.79	5.97	-45.3	-59.9	3.8	1.49e+00	0	58	104	1290797056	61	20174
2026-01-20 23:35:25.41	186.89	5.68	-45.3	-59.9	3.8	1.49e+00	0	58	104	1290797056	61	20140
2026-01-20 23:35:29.45	186.99	5.39	-45.3	-59.9	3.8	1.49e+00	0	58	104	1290797056	61	20094
2026-01-20 23:35:33.49	187.09	5.10	-45.3	-59.9	3.8	1.49e+00	0	58	104	1290797056	61	20080
2026-01-20 23:35:37.53	187.18	4.81	-45.3	-59.8	3.8	1.49e+00	0	58	104	1290797056	61	20049
2026-01-20 23:35:41.58	187.28	4.53	-45.3	-59.9	3.8	1.49e+00	0	58	104	1290797056	61	20075
2026-01-20 23:35:45.62	187.37	4.25	-45.2	-59.8	3.8	1.49e+00	0	58	104	1290797056	61	20029
2026-01-20 23:35:49.66	187.46	3.97	-45.2	-59.8	3.8	1.49e+00	0	58	104	1290797056	61	19965
2026-01-20 23:35:53.70	187.55	3.70	-45.2	-59.8	3.8	1.49e+00	0	58	104	1290797056	61	20036
2026-01-20 23:35:57.74	187.64	3.42	-45.2	-59.8	3.8	1.49e+00	0	58	104	1290797056	61	20042
2026-01-20 23:36:01.78	187.72	3.16	-45.2	-59.8	3.8	1.49e+00	0	58	104	1290797056	61	19979
2026-01-20 23:36:05.83	187.81	2.89	-45.2	-59.8	3.8	1.49e+00	0	58	104	1290797056	61	19970
2026-01-20 23:36:09.87	187.89	2.62	-45.2	-59.8	3.8	1.49e+00	0	58	104	1290797056	61	19975
2026-01-20 23:36:13.91	187.98	2.36	-45.2	-59.8	3.8	1.49e+00	0	58	104	1290797056	61	19945
2026-01-20 23:36:17.95	188.06	2.10	-45.2	-59.8	3.8	1.49e+00	0	58	104	1290797056	61	19904

#Closed at: 2026-01-20 23:36:21
#Recorded file [1290 MB]: D:/lorett/data/31039_260121_022157.dat