passes_logs/2026/01/20/R2.0S_Moscow/R2.0S_Moscow__20260120_075333_SUOMI_NPP_rec.log

#Pass ID: 20260120_075333_SUOMI NPP
#Satellite: SUOMI NPP
#Configuration: NPP
#almurnet v.1.7.20251203
#Start time: 2026-01-20 07:53:35

#Version: 2.2.20231116
#Station: R2.0S_Moscow
#Location: 37.707566 lon 55.798166 lat
#TLE: 1 37849U 11061A   26019.61507914  .00000076  00000+0  57195-4 0  9994
#TLE: 2 37849  98.7817 321.6240 0002347  55.5899 304.5499 14.19526391737369

#Time	Az	El	Level	Level2	SNR	BER	BlckErr	Temp	State	Recorded	gain1	gain2
2026-01-20 07:53:35.18	98.22	2.11	-40.2	-55.0	3.8	1.49e+00	0	50	0	0	50	21638
2026-01-20 07:53:38.20	97.97	2.27	-40.1	-54.9	3.8	1.49e+00	0	50	104	0	50	21471
2026-01-20 07:53:41.23	97.71	2.43	-40.1	-55.0	3.8	1.49e+00	0	51	104	0	50	21566
2026-01-20 07:53:44.26	97.45	2.58	-40.0	-54.9	3.8	1.49e+00	0	51	104	0	50	21501
2026-01-20 07:53:47.29	97.19	2.74	-40.0	-54.9	3.8	1.49e+00	0	51	104	0	50	21479
2026-01-20 07:53:50.32	96.93	2.90	-39.9	-54.9	3.8	1.49e+00	0	52	104	0	50	21421
2026-01-20 07:53:53.35	96.66	3.06	-40.1	-55.0	3.8	1.49e+00	0	52	104	0	50	21636
2026-01-20 07:53:56.39	96.39	3.22	-40.1	-55.0	3.8	1.49e+00	0	52	104	0	50	21522
2026-01-20 07:53:59.42	96.12	3.38	-38.9	-54.5	3.8	1.49e+00	0	52	104	0	49	21628
2026-01-20 07:54:02.45	95.85	3.53	-39.1	-54.8	3.8	1.49e+00	0	52	104	0	50	21169
2026-01-20 07:54:05.48	95.57	3.69	-40.1	-54.9	3.8	1.49e+00	0	53	104	0	50	21449
2026-01-20 07:54:08.51	95.29	3.85	-39.3	-54.8	3.8	1.49e+00	0	53	104	0	50	21209
2026-01-20 07:54:11.55	95.00	4.01	-39.9	-54.9	3.8	1.49e+00	0	53	104	0	50	21327
2026-01-20 07:54:14.57	94.71	4.17	-38.5	-54.7	3.8	1.49e+00	0	53	104	0	49	22225
2026-01-20 07:54:17.60	94.42	4.34	-40.1	-55.0	3.8	1.49e+00	0	53	104	0	50	21547
2026-01-20 07:54:20.63	94.13	4.50	-40.1	-55.0	3.8	1.49e+00	0	53	104	0	50	21552
2026-01-20 07:54:23.66	93.83	4.66	-40.1	-55.0	3.8	1.49e+00	0	54	104	0	50	21518
2026-01-20 07:54:26.69	93.53	4.82	-40.1	-54.9	3.8	1.49e+00	0	54	104	0	50	21493
2026-01-20 07:54:29.72	93.22	4.98	-40.1	-55.0	3.8	1.49e+00	0	54	104	0	50	21540
2026-01-20 07:54:32.76	92.92	5.14	-40.1	-55.0	3.8	1.49e+00	0	54	104	0	50	21559
2026-01-20 07:54:35.79	92.60	5.30	-40.1	-55.0	3.8	1.49e+00	0	54	104	0	50	21578
2026-01-20 07:54:38.82	92.29	5.47	-40.1	-55.0	3.8	1.49e+00	0	54	104	0	50	21507
2026-01-20 07:54:41.85	91.97	5.63	-40.1	-55.0	3.8	1.49e+00	0	54	104	0	50	21525
2026-01-20 07:54:44.88	91.65	5.79	-40.1	-55.0	3.8	1.49e+00	0	54	104	0	50	21547
2026-01-20 07:54:47.91	91.32	5.95	-39.7	-54.9	3.8	1.49e+00	0	55	104	0	50	21301
2026-01-20 07:54:50.94	90.99	6.12	-39.6	-54.8	3.8	1.49e+00	0	55	104	0	50	21039
2026-01-20 07:54:53.97	90.66	6.28	-40.0	-54.9	3.8	1.49e+00	0	55	104	0	50	21339
2026-01-20 07:54:57.00	90.32	6.44	-40.1	-54.9	3.8	1.49e+00	0	55	104	0	50	21475
2026-01-20 07:55:00.03	89.98	6.61	-40.1	-54.9	3.8	1.49e+00	0	55	104	0	50	21490
2026-01-20 07:55:03.06	89.63	6.77	-40.1	-54.9	3.8	1.49e+00	0	55	104	0	50	21431
2026-01-20 07:55:06.09	89.28	6.93	-39.9	-54.8	3.8	1.49e+00	0	55	104	0	50	21208
2026-01-20 07:55:09.12	88.93	7.10	-39.6	-54.8	3.8	1.49e+00	0	56	104	0	50	21170
2026-01-20 07:55:12.16	88.57	7.26	-40.1	-55.0	3.8	1.49e+00	0	56	104	0	50	21538
2026-01-20 07:55:15.19	88.21	7.42	-39.9	-55.0	3.8	1.49e+00	0	56	104	0	50	21645
2026-01-20 07:55:18.22	87.85	7.59	-39.9	-54.9	3.8	1.49e+00	0	55	104	0	50	21280
2026-01-20 07:55:21.25	87.48	7.75	-40.0	-54.9	3.8	1.49e+00	0	56	104	0	50	21426
2026-01-20 07:55:24.28	87.10	7.91	-40.1	-54.9	3.8	1.49e+00	0	56	104	0	50	21424
2026-01-20 07:55:27.31	86.72	8.08	-39.4	-54.9	3.8	1.49e+00	0	56	104	0	50	21351
2026-01-20 07:55:30.34	86.34	8.24	-40.0	-55.0	3.8	1.49e+00	0	56	104	0	50	21699
2026-01-20 07:55:33.37	85.95	8.40	-40.2	-54.9	3.8	1.49e+00	0	56	104	0	51	20285
2026-01-20 07:55:36.40	85.56	8.57	-39.9	-55.0	3.8	1.49e+00	0	56	104	0	50	21739
2026-01-20 07:55:39.43	85.17	8.73	-40.2	-54.9	3.8	1.49e+00	0	56	104	0	50	21411
2026-01-20 07:55:42.45	84.77	8.89	-40.0	-54.8	3.8	1.49e+00	0	56	104	0	50	21078
2026-01-20 07:55:45.48	84.36	9.05	-40.2	-54.9	3.8	1.49e+00	0	56	104	0	51	20259
2026-01-20 07:55:48.51	83.95	9.21	-40.2	-54.9	3.8	1.49e+00	0	57	104	0	51	20197
2026-01-20 07:55:51.54	83.54	9.38	-40.3	-55.0	3.8	1.49e+00	0	57	104	0	51	20326
2026-01-20 07:55:54.57	83.12	9.54	-40.2	-54.9	3.8	1.49e+00	0	56	104	0	51	20128
2026-01-20 07:55:57.60	82.70	9.70	-40.1	-54.9	3.8	1.49e+00	0	57	104	0	51	20081
2026-01-20 07:56:00.62	82.27	9.86	-40.1	-54.9	3.8	1.49e+00	0	57	104	0	51	20075
2026-01-20 07:56:03.65	81.84	10.01	-40.2	-54.9	3.8	1.49e+00	0	57	104	0	51	20303
2026-01-20 07:56:06.68	81.40	10.17	-40.2	-54.9	3.8	1.49e+00	0	57	104	0	51	20288
2026-01-20 07:56:09.71	80.96	10.33	-40.3	-55.0	3.8	1.49e+00	0	57	104	0	51	20528
2026-01-20 07:56:12.74	80.51	10.49	-40.3	-55.0	3.8	1.49e+00	0	57	104	0	51	20459
2026-01-20 07:56:15.76	80.06	10.65	-40.5	-55.2	3.8	1.49e+00	0	57	104	0	51	20869
2026-01-20 07:56:18.79	79.60	10.80	-40.4	-55.1	3.8	1.49e+00	0	57	104	0	51	20679
2026-01-20 07:56:21.82	79.14	10.96	-40.7	-55.4	3.8	1.49e+00	0	57	104	0	51	21282
2026-01-20 07:56:24.85	78.67	11.11	-40.6	-55.3	3.9	1.49e+00	0	57	104	0	52	20010
2026-01-20 07:56:27.88	78.20	11.26	-40.5	-55.3	3.8	1.49e+00	0	57	104	0	52	20005
2026-01-20 07:56:30.91	77.72	11.42	-40.6	-55.3	3.8	1.49e+00	0	57	104	0	52	20040
2026-01-20 07:56:33.94	77.24	11.57	-40.9	-55.6	3.8	1.49e+00	0	57	104	0	52	20544
2026-01-20 07:56:36.97	76.75	11.72	-40.9	-55.6	3.8	1.49e+00	0	57	104	0	52	20585
2026-01-20 07:56:40.00	76.26	11.87	-40.8	-55.6	3.8	1.49e+00	0	58	104	0	52	20666
2026-01-20 07:56:43.02	75.77	12.02	-40.9	-55.5	3.8	1.49e+00	0	58	104	0	52	20504
2026-01-20 07:56:46.05	75.26	12.16	-41.1	-55.7	3.8	1.49e+00	0	57	104	0	52	20954
2026-01-20 07:56:49.08	74.76	12.31	-41.0	-55.7	3.8	1.49e+00	0	58	104	0	52	20931
2026-01-20 07:56:52.11	74.24	12.45	-41.1	-55.8	3.8	1.49e+00	0	58	104	0	52	21020
2026-01-20 07:56:55.14	73.73	12.60	-41.1	-55.7	3.8	1.49e+00	0	58	104	0	52	20879
2026-01-20 07:56:58.16	73.20	12.74	-41.0	-55.7	3.8	1.49e+00	0	58	104	0	52	20827
2026-01-20 07:57:01.19	72.68	12.88	-41.0	-55.7	3.8	1.49e+00	0	58	104	0	52	20959
2026-01-20 07:57:04.22	72.14	13.01	-41.0	-55.7	3.8	1.49e+00	0	58	104	0	52	20817
2026-01-20 07:57:07.25	71.61	13.15	-41.0	-55.7	3.8	1.49e+00	0	58	104	0	52	20925
2026-01-20 07:57:10.27	71.07	13.29	-41.2	-55.9	3.8	1.49e+00	0	58	104	0	53	20169
2026-01-20 07:57:13.30	70.52	13.42	-41.0	-55.7	3.8	1.49e+00	0	58	104	0	53	19670
2026-01-20 07:57:16.33	69.97	13.55	-41.5	-55.1	3.8	1.49e+00	0	58	104	0	53	18508
2026-01-20 07:57:19.36	69.41	13.68	-41.4	-55.6	3.8	1.49e+00	0	58	104	0	53	19422
2026-01-20 07:57:22.39	68.85	13.81	-41.4	-54.4	3.8	1.49e+00	0	58	104	0	53	16972
2026-01-20 07:57:25.42	68.28	13.93	-41.3	-55.7	3.8	1.49e+00	0	58	104	0	54	18641
2026-01-20 07:57:28.44	67.71	14.05	-41.2	-50.4	5.3	6.38e-01	0	58	0	2097152	54	10072
2026-01-20 07:57:31.47	67.13	14.17	-41.3	-49.2	6.4	2.52e-01	0	59	0	7340032	54	8792
2026-01-20 07:57:34.50	66.55	14.29	-42.0	-49.6	6.6	1.32e-01	0	58	0	13631488	54	9250
2026-01-20 07:57:37.53	65.96	14.41	-40.8	-45.8	10.1	2.04e-01	0	58	0	16777216	53	6330
2026-01-20 07:57:40.56	65.37	14.52	-40.8	-45.9	10.2	5.17e-03	0	58	0	23068672	52	6777
2026-01-20 07:57:43.59	64.78	14.63	-41.1	-46.1	10.2	8.24e-03	0	58	0	28311552	52	6948
2026-01-20 07:57:46.61	64.18	14.74	-41.2	-46.1	10.5	4.21e-03	0	59	0	33554432	53	6534
2026-01-20 07:57:49.64	63.58	14.85	-41.2	-45.7	11.2	1.53e-03	0	59	0	39845888	53	6203
2026-01-20 07:57:52.67	62.97	14.95	-41.1	-45.3	11.6	8.25e-04	0	58	0	45088768	53	5981
2026-01-20 07:57:55.70	62.36	15.05	-41.3	-45.7	11.4	8.27e-04	0	59	0	51380224	53	6207
2026-01-20 07:57:58.73	61.74	15.14	-41.5	-45.9	11.3	1.16e-03	0	59	0	56623104	53	6389
2026-01-20 07:58:01.75	61.12	15.24	-41.4	-45.6	11.7	5.01e-04	0	58	0	61865984	53	6154
2026-01-20 07:58:04.78	60.50	15.33	-41.4	-45.7	11.7	5.19e-04	0	59	0	68157440	53	6213
2026-01-20 07:58:07.81	59.87	15.42	-41.7	-46.1	11.3	7.40e-04	0	59	0	73400320	53	6533
2026-01-20 07:58:10.84	59.24	15.50	-41.7	-46.3	11.1	1.77e-03	0	59	0	79691776	54	6279
2026-01-20 07:58:13.86	58.61	15.58	-41.8	-46.3	11.1	1.32e-03	0	59	0	84934656	54	6318
2026-01-20 07:58:16.89	57.97	15.66	-41.7	-46.2	11.2	1.31e-03	0	59	0	91226112	54	6253
2026-01-20 07:58:19.92	57.33	15.74	-41.7	-46.1	11.4	1.30e-03	0	59	0	96468992	54	6172
2026-01-20 07:58:22.95	56.68	15.81	-41.6	-45.9	11.6	7.72e-04	0	59	0	101711872	54	6024
2026-01-20 07:58:25.98	56.03	15.88	-41.6	-45.8	11.7	5.93e-04	0	59	0	108003328	54	5965
2026-01-20 07:58:29.01	55.38	15.94	-41.4	-45.5	12.0	3.40e-04	0	59	0	113246208	54	5756
2026-01-20 07:58:32.04	54.73	16.00	-41.5	-45.7	11.8	3.97e-04	0	59	0	119537664	54	5885
2026-01-20 07:58:35.07	54.07	16.06	-41.6	-46.0	11.5	6.57e-04	0	59	0	124780544	54	6086
2026-01-20 07:58:38.10	53.42	16.11	-41.6	-46.0	11.5	8.29e-04	0	59	0	130023424	54	6084
2026-01-20 07:58:41.13	52.75	16.16	-41.8	-46.5	11.1	1.13e-03	0	59	0	136314880	54	6426
2026-01-20 07:58:44.15	52.09	16.21	-42.0	-46.8	10.7	2.85e-03	0	59	0	141557760	54	6676
2026-01-20 07:58:47.18	51.43	16.25	-41.9	-46.7	10.8	2.17e-03	0	59	0	147849216	54	6594
2026-01-20 07:58:50.21	50.76	16.29	-41.8	-46.4	11.2	1.68e-03	0	59	0	153092096	54	6372
2026-01-20 07:58:53.24	50.09	16.32	-41.8	-46.3	11.2	1.07e-03	0	59	0	159383552	54	6326
2026-01-20 07:58:56.26	49.43	16.35	-41.7	-46.2	11.4	1.41e-03	0	59	0	164626432	54	6255
2026-01-20 07:58:59.29	48.76	16.38	-41.6	-45.8	11.8	4.99e-04	0	59	0	169869312	54	5963
2026-01-20 07:59:02.32	48.08	16.40	-41.6	-45.8	11.8	4.59e-04	0	59	0	176160768	54	5939
2026-01-20 07:59:05.35	47.41	16.42	-41.8	-46.2	11.4	1.07e-03	0	59	0	181403648	54	6270
2026-01-20 07:59:08.38	46.74	16.44	-41.9	-46.4	11.2	1.37e-03	0	59	0	187695104	54	6375
2026-01-20 07:59:11.41	46.06	16.45	-41.7	-46.1	11.4	9.21e-04	0	59	0	192937984	54	6197
2026-01-20 07:59:14.43	45.39	16.45	-41.5	-45.5	12.2	2.99e-04	0	59	0	198180864	54	5751
2026-01-20 07:59:17.46	44.72	16.46	-41.6	-45.8	11.8	4.97e-04	0	59	0	204472320	54	5978
2026-01-20 07:59:20.49	44.04	16.45	-41.9	-46.4	11.2	1.28e-03	0	59	0	209715200	54	6401
2026-01-20 07:59:23.51	43.37	16.45	-42.1	-47.1	10.5	3.01e-03	0	59	0	216006656	54	6881
2026-01-20 07:59:26.54	42.70	16.44	-42.2	-47.3	10.3	4.67e-03	0	59	0	221249536	54	7063
2026-01-20 07:59:29.57	42.02	16.43	-42.1	-47.1	10.5	4.85e-03	0	59	0	226492416	55	6547
2026-01-20 07:59:32.60	41.35	16.41	-41.9	-46.6	11.0	2.02e-03	0	59	0	232783872	55	6164
2026-01-20 07:59:35.63	40.68	16.39	-41.8	-46.2	11.4	1.13e-03	0	59	0	238026752	55	5900
2026-01-20 07:59:38.66	40.01	16.36	-41.8	-46.4	11.3	8.89e-04	0	59	0	244318208	55	5998
2026-01-20 07:59:41.69	39.34	16.33	-41.8	-46.2	11.5	1.25e-03	0	59	0	249561088	55	5870
2026-01-20 07:59:44.72	38.67	16.30	-41.6	-45.8	11.9	5.64e-04	0	59	0	255852544	55	5601
2026-01-20 07:59:47.74	38.01	16.26	-41.3	-45.1	12.6	9.91e-05	0	59	0	261095424	54	5491
2026-01-20 07:59:50.77	37.34	16.22	-41.2	-45.1	12.6	1.04e-04	0	59	0	266338304	54	5475
2026-01-20 07:59:53.80	36.68	16.18	-41.5	-45.5	12.2	1.71e-04	0	59	0	272629760	54	5774
2026-01-20 07:59:56.83	36.02	16.13	-41.5	-45.5	12.1	2.43e-04	0	59	0	277872640	54	5767
2026-01-20 07:59:59.86	35.36	16.08	-41.6	-45.8	11.9	4.78e-04	0	59	0	284164096	54	5950
2026-01-20 08:00:02.89	34.71	16.02	-41.8	-46.2	11.4	7.04e-04	0	59	0	289406976	54	6264
2026-01-20 08:00:05.92	34.05	15.96	-41.9	-46.4	11.3	1.03e-03	0	59	0	294649856	54	6374
2026-01-20 08:00:08.95	33.40	15.90	-41.7	-45.9	11.8	4.24e-04	0	59	0	300941312	54	6000
2026-01-20 08:00:11.98	32.76	15.83	-41.5	-45.4	12.2	2.31e-04	0	59	0	306184192	54	5716
2026-01-20 08:00:15.01	32.11	15.76	-41.4	-45.4	12.3	2.11e-04	0	59	0	312475648	54	5680
2026-01-20 08:00:18.04	31.47	15.69	-41.6	-45.6	12.0	2.38e-04	0	59	0	317718528	54	5842
2026-01-20 08:00:21.06	30.83	15.61	-41.6	-45.8	11.8	6.45e-04	0	59	0	324009984	54	5955
2026-01-20 08:00:24.09	30.20	15.53	-41.8	-46.1	11.5	8.89e-04	0	59	0	329252864	54	6202
2026-01-20 08:00:27.12	29.57	15.45	-41.8	-46.3	11.2	1.21e-03	0	60	0	334495744	54	6341
2026-01-20 08:00:30.15	28.94	15.36	-42.0	-46.8	10.8	2.85e-03	0	59	0	340787200	54	6692
2026-01-20 08:00:33.18	28.32	15.27	-42.0	-46.8	10.7	2.62e-03	0	59	0	346030080	54	6714
2026-01-20 08:00:36.21	27.70	15.18	-41.9	-46.6	11.0	1.88e-03	0	59	0	352321536	54	6510
2026-01-20 08:00:39.23	27.08	15.08	-41.8	-46.2	11.3	1.10e-03	0	60	0	357564416	54	6274
2026-01-20 08:00:42.26	26.47	14.98	-41.7	-46.2	11.4	9.90e-04	0	59	0	362807296	54	6224
2026-01-20 08:00:45.29	25.86	14.88	-41.6	-45.8	11.8	5.25e-04	0	59	0	369098752	54	5947
2026-01-20 08:00:48.32	25.26	14.78	-41.3	-45.1	12.5	1.33e-04	0	59	0	374341632	54	5522
2026-01-20 08:00:51.35	24.66	14.67	-41.3	-45.3	12.3	1.69e-04	0	60	0	380633088	54	5623
2026-01-20 08:00:54.37	24.07	14.56	-41.5	-45.6	11.9	2.66e-04	0	59	0	385875968	54	5850
2026-01-20 08:00:57.40	23.48	14.45	-41.7	-46.3	11.2	9.51e-04	0	59	0	392167424	54	6290
2026-01-20 08:01:00.43	22.89	14.33	-42.1	-47.3	10.2	4.00e-03	0	60	0	397410304	54	7083
2026-01-20 08:01:03.46	22.31	14.22	-42.2	-47.5	10.1	7.82e-03	0	59	0	402653184	55	6817
2026-01-20 08:01:06.49	21.74	14.10	-42.0	-47.0	10.4	4.93e-03	0	59	0	408944640	55	6484
2026-01-20 08:01:09.52	21.17	13.98	-42.1	-47.1	10.3	5.13e-03	0	59	0	414187520	55	6521
2026-01-20 08:01:12.55	20.60	13.85	-42.1	-47.4	10.0	6.78e-03	0	59	0	420478976	55	6727
2026-01-20 08:01:15.58	20.04	13.73	-42.0	-47.0	10.3	4.90e-03	0	59	0	425721856	55	6478
2026-01-20 08:01:18.60	19.48	13.60	-41.9	-46.8	10.5	4.09e-03	0	59	0	430964736	55	6338
2026-01-20 08:01:21.63	18.93	13.47	-41.8	-46.6	10.7	3.84e-03	0	59	0	437256192	55	6163
2026-01-20 08:01:24.65	18.39	13.34	-41.5	-45.9	11.4	1.11e-03	0	59	0	442499072	55	5683
2026-01-20 08:01:27.68	17.84	13.20	-41.7	-46.3	11.0	1.85e-03	0	60	0	448790528	55	5931
2026-01-20 08:01:30.71	17.31	13.07	-41.9	-46.9	10.3	4.83e-03	0	60	0	454033408	55	6388
2026-01-20 08:01:33.74	16.78	12.93	-41.9	-47.0	10.1	6.00e-03	0	59	0	460324864	55	6480
2026-01-20 08:01:36.77	16.25	12.79	-41.7	-46.5	10.6	4.13e-03	0	60	0	465567744	55	6114
2026-01-20 08:01:39.80	15.73	12.65	-41.7	-46.6	10.5	2.88e-03	0	59	0	470810624	55	6134
2026-01-20 08:01:42.82	15.21	12.51	-42.2	-48.0	9.1	1.55e-02	0	60	0	477102080	55	7212
2026-01-20 08:01:45.85	14.70	12.37	-42.7	-50.1	6.9	1.39e-01	0	60	0	482344960	55	9213
2026-01-20 08:01:48.88	14.19	12.22	-42.7	-50.1	6.9	1.94e-01	0	60	0	488636416	56	8735
2026-01-20 08:01:51.91	13.69	12.07	-43.6	-57.0	3.8	3.67e-01	0	59	104	493879296	57	18096
2026-01-20 08:01:54.94	13.20	11.93	-42.5	-49.3	7.6	1.70e-01	0	59	0	497025024	57	7458
2026-01-20 08:01:57.97	12.71	11.78	-42.2	-48.5	8.3	6.07e-02	0	60	0	503316480	56	7230
2026-01-20 08:02:01.00	12.22	11.63	-41.8	-47.9	8.6	3.65e-02	0	60	0	508559360	55	7144
2026-01-20 08:02:04.03	11.74	11.48	-41.6	-47.9	8.2	5.11e-02	0	60	0	514850816	55	7187
2026-01-20 08:02:07.05	11.26	11.33	-41.5	-47.9	8.0	6.65e-02	0	60	0	520093696	55	7128
2026-01-20 08:02:10.09	10.79	11.17	-41.6	-49.5	6.2	2.52e-01	0	60	0	525336576	54	9132
2026-01-20 08:02:13.11	10.33	11.02	-41.6	-51.7	4.7	8.72e-01	0	60	0	531628032	54	11762
2026-01-20 08:02:16.14	9.87	10.87	-41.1	-55.5	3.8	1.49e+00	0	60	104	532676608	53	19320
2026-01-20 08:02:19.17	9.41	10.71	-41.4	-55.0	3.8	1.49e+00	0	60	104	532676608	54	17084
2026-01-20 08:02:22.20	8.96	10.55	-41.1	-55.5	3.8	1.49e+00	0	60	104	532676608	54	18224
2026-01-20 08:02:25.22	8.51	10.40	-40.7	-55.4	3.8	1.49e+00	0	60	104	532676608	52	20286
2026-01-20 08:02:28.25	8.07	10.24	-40.0	-54.6	3.8	1.49e+00	0	60	104	532676608	52	18509
2026-01-20 08:02:31.28	7.64	10.08	-40.0	-54.6	3.8	1.49e+00	0	60	104	532676608	52	18473
2026-01-20 08:02:34.31	7.21	9.92	-40.1	-54.7	3.8	1.49e+00	0	60	104	532676608	51	19790
2026-01-20 08:02:37.34	6.78	9.77	-40.1	-54.8	3.8	1.49e+00	0	60	104	532676608	51	19859
2026-01-20 08:02:40.36	6.36	9.61	-40.0	-54.6	3.8	1.49e+00	0	60	104	532676608	51	19560
2026-01-20 08:02:43.39	5.94	9.45	-40.2	-54.9	3.8	1.49e+00	0	60	104	532676608	51	20196
2026-01-20 08:02:46.42	5.53	9.29	-40.1	-54.8	3.8	1.49e+00	0	60	104	532676608	51	19930
2026-01-20 08:02:49.45	5.12	9.13	-40.1	-54.8	3.8	1.49e+00	0	60	104	532676608	51	19874
2026-01-20 08:02:52.48	4.72	8.96	-40.0	-54.6	3.8	1.49e+00	0	60	104	532676608	51	19604
2026-01-20 08:02:55.51	4.32	8.80	-40.0	-54.6	3.8	1.49e+00	0	60	104	532676608	51	19571
2026-01-20 08:02:58.54	3.92	8.64	-40.0	-54.7	3.8	1.49e+00	0	60	104	532676608	51	19620
2026-01-20 08:03:01.57	3.53	8.48	-39.9	-54.7	3.8	1.49e+00	0	60	104	532676608	51	19644
2026-01-20 08:03:04.60	3.15	8.32	-39.9	-54.5	3.8	1.49e+00	0	60	104	532676608	51	19372
2026-01-20 08:03:07.62	2.77	8.15	-39.8	-54.6	3.8	1.49e+00	0	60	104	532676608	51	19606
2026-01-20 08:03:10.65	2.39	7.99	-40.0	-54.8	3.8	1.49e+00	0	60	104	532676608	51	19866
2026-01-20 08:03:13.69	2.02	7.83	-45.0	-59.7	3.8	1.49e+00	0	60	104	532676608	60	20837
2026-01-20 08:03:16.72	1.65	7.67	-45.3	-60.0	3.8	1.49e+00	0	60	104	532676608	61	20367
2026-01-20 08:03:19.75	1.28	7.50	-45.3	-60.0	3.8	1.49e+00	0	60	104	532676608	61	20314
2026-01-20 08:03:22.78	0.92	7.34	-45.2	-59.8	3.8	1.49e+00	0	60	104	532676608	61	19928
2026-01-20 08:03:25.81	0.57	7.18	-45.1	-59.7	3.8	1.49e+00	0	60	104	532676608	61	19686
2026-01-20 08:03:28.84	0.22	7.01	-45.1	-59.7	3.8	1.49e+00	0	60	104	532676608	61	19660
2026-01-20 08:03:31.87	359.87	6.85	-45.1	-59.7	3.8	1.49e+00	0	60	104	532676608	60	20812
2026-01-20 08:03:34.90	359.53	6.69	-45.1	-59.6	3.8	1.49e+00	0	60	104	532676608	60	20652
2026-01-20 08:03:37.93	359.19	6.53	-45.0	-59.6	3.8	1.49e+00	0	60	104	532676608	60	20681
2026-01-20 08:03:40.97	358.85	6.36	-45.0	-59.6	3.8	1.49e+00	0	60	104	532676608	60	20595
2026-01-20 08:03:44.00	358.52	6.20	-45.0	-59.6	3.8	1.49e+00	0	60	104	532676608	60	20644
2026-01-20 08:03:47.03	358.19	6.04	-45.0	-59.6	3.8	1.49e+00	0	60	104	532676608	60	20650
2026-01-20 08:03:50.06	357.87	5.87	-44.5	-59.6	3.8	1.49e+00	0	60	104	532676608	60	20657
2026-01-20 08:03:53.09	357.55	5.71	-45.0	-59.6	3.8	1.49e+00	0	60	104	532676608	60	20598
2026-01-20 08:03:56.13	357.23	5.55	-45.1	-59.6	3.8	1.49e+00	0	60	104	532676608	60	20604
2026-01-20 08:03:59.16	356.91	5.39	-45.0	-59.6	3.8	1.49e+00	0	60	104	532676608	60	20612
2026-01-20 08:04:02.19	356.60	5.23	-45.1	-59.6	3.8	1.49e+00	0	60	104	532676608	60	20659
2026-01-20 08:04:05.22	356.30	5.06	-45.0	-59.6	3.8	1.49e+00	0	60	104	532676608	60	20631
2026-01-20 08:04:08.25	356.00	4.90	-45.0	-59.6	3.8	1.49e+00	0	60	104	532676608	60	20548
2026-01-20 08:04:11.28	355.70	4.74	-45.0	-59.5	3.8	1.49e+00	0	60	104	532676608	60	20453
2026-01-20 08:04:14.31	355.40	4.58	-45.0	-59.5	3.8	1.49e+00	0	60	104	532676608	60	20533
2026-01-20 08:04:17.35	355.11	4.42	-45.0	-59.5	3.8	1.49e+00	0	60	104	532676608	60	20461
2026-01-20 08:04:20.38	354.82	4.26	-45.0	-59.5	3.8	1.49e+00	0	60	104	532676608	60	20500
2026-01-20 08:04:23.41	354.53	4.10	-45.0	-59.5	3.8	1.49e+00	0	60	104	532676608	60	20435
2026-01-20 08:04:26.45	354.25	3.94	-45.0	-59.6	3.8	1.49e+00	0	60	104	532676608	60	20543
2026-01-20 08:04:29.48	353.97	3.78	-45.0	-59.5	3.8	1.49e+00	0	60	104	532676608	60	20439
2026-01-20 08:04:32.51	353.69	3.62	-45.0	-59.5	3.8	1.49e+00	0	60	104	532676608	60	20457
2026-01-20 08:04:35.54	353.42	3.46	-45.0	-59.5	3.8	1.49e+00	0	60	104	532676608	60	20501
2026-01-20 08:04:38.57	353.15	3.30	-45.0	-59.5	3.8	1.49e+00	0	60	104	532676608	60	20416
2026-01-20 08:04:41.60	352.88	3.15	-45.0	-59.5	3.8	1.49e+00	0	60	104	532676608	60	20447
2026-01-20 08:04:44.63	352.62	2.99	-45.0	-59.5	3.8	1.49e+00	0	60	104	532676608	60	20499
2026-01-20 08:04:47.66	352.36	2.83	-44.9	-59.5	3.8	1.49e+00	0	60	104	532676608	60	20510
2026-01-20 08:04:50.69	352.10	2.67	-45.0	-59.5	3.8	1.49e+00	0	60	104	532676608	60	20423
2026-01-20 08:04:53.73	351.84	2.52	-45.0	-59.5	3.8	1.49e+00	0	60	104	532676608	60	20410
2026-01-20 08:04:56.76	351.59	2.36	-44.8	-59.5	3.8	1.49e+00	0	60	104	532676608	60	20443
2026-01-20 08:04:59.79	351.34	2.20	-44.9	-59.5	3.8	1.49e+00	0	60	104	532676608	60	20373
2026-01-20 08:05:02.82	351.09	2.05	-44.9	-59.5	3.8	1.49e+00	0	60	104	532676608	60	20451

#Closed at: 2026-01-20 08:05:04
#Recorded file [532 MB]: D:/lorett/data/31039_260120_105335.dat