passes_logs/2026/01/20/R2.0S_Moscow/R2.0S_Moscow__20260120_103044_FENGYUN_3D_rec.log

#Pass ID: 20260120_103044_FENGYUN 3D
#Satellite: FENGYUN 3D
#Configuration: FENGYUN 3D
#almurnet v.1.7.20251203
#Start time: 2026-01-20 10:30:46

#Version: 2.2.20231116
#Station: R2.0S_Moscow
#Location: 37.707566 lon 55.798166 lat
#TLE: 1 43010U 17072A   26019.65504262 -.00000232  00000+0 -88147-4 0  9993
#TLE: 2 43010  98.9941 351.5427 0002443 100.5024 259.6427 14.19695886423913

#Time	Az	El	Level	Level2	SNR	BER	BlckErr	Temp	State	Recorded	gain1	gain2
2026-01-20 10:30:46.11	117.58	2.12	-30.1	-44.1	4.1	8.41e-01	0	52	0	0	27	23292
2026-01-20 10:30:50.14	117.34	2.36	-28.8	-46.6	4.0	8.41e-01	0	52	104	0	32	23151
2026-01-20 10:30:54.18	117.09	2.59	-32.9	-46.3	4.1	8.37e-01	0	53	104	0	34	20047
2026-01-20 10:30:58.23	116.84	2.83	-33.6	-47.2	4.2	8.37e-01	0	53	104	0	33	23529
2026-01-20 10:31:02.27	116.59	3.07	-29.8	-44.4	3.6	8.36e-01	0	53	104	0	29	21310
2026-01-20 10:31:06.31	116.33	3.32	-29.0	-45.2	3.8	8.34e-01	0	54	104	0	31	20885
2026-01-20 10:31:10.35	116.07	3.56	-32.8	-48.9	4.3	8.33e-01	0	54	104	0	35	25284
2026-01-20 10:31:14.39	115.80	3.81	-28.9	-43.3	3.9	8.39e-01	0	54	104	0	26	22305
2026-01-20 10:31:18.43	115.53	4.05	-33.3	-48.7	4.2	8.34e-01	0	54	104	0	35	24727
2026-01-20 10:31:22.48	115.25	4.30	-27.7	-43.4	3.6	8.38e-01	0	54	104	0	27	21306
2026-01-20 10:31:26.52	114.97	4.56	-33.6	-47.9	4.3	8.38e-01	0	54	104	0	38	19015
2026-01-20 10:31:30.56	114.69	4.81	-33.2	-49.0	4.5	8.35e-01	0	55	104	0	35	25580
2026-01-20 10:31:34.60	114.40	5.06	-30.4	-46.4	3.9	8.37e-01	0	55	104	0	33	21263
2026-01-20 10:31:38.64	114.10	5.32	-30.3	-45.1	3.7	8.38e-01	0	55	104	0	23	32927
2026-01-20 10:31:42.68	113.80	5.58	-27.8	-43.2	3.8	8.39e-01	0	55	0	0	28	19654
2026-01-20 10:31:46.72	113.49	5.84	-23.4	-38.4	4.1	8.37e-01	0	55	104	0	19	18989
2026-01-20 10:31:50.76	113.18	6.10	-25.9	-41.6	4.0	8.39e-01	0	56	104	0	23	21998
2026-01-20 10:31:54.81	112.86	6.36	-27.2	-42.5	3.8	8.39e-01	0	55	104	0	26	20313
2026-01-20 10:31:58.85	112.53	6.63	-24.6	-40.8	3.7	8.43e-01	0	56	104	0	25	17793
2026-01-20 10:32:02.89	112.20	6.89	-26.5	-41.9	3.9	8.45e-01	0	56	104	0	22	24093
2026-01-20 10:32:06.93	111.86	7.16	-26.6	-42.4	3.7	8.44e-01	0	56	104	0	26	20075
2026-01-20 10:32:10.97	111.52	7.43	-26.6	-41.6	4.0	8.44e-01	0	56	104	0	26	18309
2026-01-20 10:32:15.02	111.17	7.71	-30.9	-42.4	4.5	8.35e-01	0	56	104	0	33	13464
2026-01-20 10:32:19.06	110.81	7.98	-28.9	-40.2	4.6	8.44e-01	0	56	104	0	28	13959
2026-01-20 10:32:23.10	110.44	8.26	-29.1	-42.7	4.1	8.44e-01	0	56	104	0	29	17505
2026-01-20 10:32:27.13	110.07	8.54	-32.1	-43.1	4.3	8.41e-01	0	56	104	0	31	16354
2026-01-20 10:32:31.17	109.69	8.82	-27.7	-44.2	4.0	8.36e-01	0	57	104	0	29	20956
2026-01-20 10:32:35.21	109.31	9.10	-25.7	-42.8	4.1	8.42e-01	0	57	104	0	26	21085
2026-01-20 10:32:39.25	108.91	9.38	-36.4	-45.9	5.6	6.88e-01	0	57	0	0	42	12023
2026-01-20 10:32:43.29	108.51	9.67	-34.5	-41.6	8.7	3.23e-01	0	57	0	7340032	41	7801
2026-01-20 10:32:47.33	108.10	9.96	-37.6	-41.9	10.5	2.51e-01	0	57	0	25165824	45	6364
2026-01-20 10:32:51.37	107.68	10.25	-34.9	-41.6	8.1	3.01e-01	0	57	0	45088768	39	8666
2026-01-20 10:32:55.41	107.25	10.54	-35.9	-41.4	8.1	2.98e-01	0	57	0	65011712	38	9001
2026-01-20 10:32:59.45	106.82	10.83	-33.9	-41.5	7.2	5.22e-01	0	57	0	82837504	36	10183
2026-01-20 10:33:03.49	106.37	11.13	-35.8	-41.2	8.9	4.52e-01	0	57	0	96468992	40	7823
2026-01-20 10:33:07.53	105.92	11.43	-30.6	-40.4	7.2	3.34e-01	0	57	0	111149056	33	10678
2026-01-20 10:33:11.57	105.45	11.73	-30.0	-39.4	6.1	6.74e-01	0	57	0	122683392	24	16101
2026-01-20 10:33:15.61	104.98	12.03	-30.0	-38.8	5.5	5.36e-01	0	57	0	127926272	25	14156
2026-01-20 10:33:19.64	104.49	12.33	-28.0	-40.3	5.7	7.87e-01	0	57	0	128974848	25	16821
2026-01-20 10:33:23.68	104.00	12.63	-25.0	-39.4	5.7	4.84e-01	0	58	0	134217728	21	18950
2026-01-20 10:33:27.72	103.49	12.94	-27.2	-41.5	6.4	3.51e-01	0	58	0	149946368	28	16176
2026-01-20 10:33:31.75	102.98	13.25	-40.2	-44.9	7.2	7.02e-01	0	58	0	154140672	38	13530
2026-01-20 10:33:35.80	102.45	13.56	-23.4	-42.0	4.6	8.38e-01	0	58	104	156237824	18	30587
2026-01-20 10:33:39.83	101.91	13.87	-22.2	-41.0	4.3	8.38e-01	0	58	104	156237824	17	28829
2026-01-20 10:33:43.87	101.36	14.18	-39.6	-47.3	6.2	3.16e-01	0	58	0	160432128	51	8419
2026-01-20 10:33:47.91	100.80	14.50	-38.0	-42.4	9.8	3.20e-02	0	58	0	178257920	44	7160
2026-01-20 10:33:51.95	100.23	14.81	-37.9	-40.9	12.7	4.20e-03	0	58	0	201326592	47	5045
2026-01-20 10:33:55.99	99.64	15.13	-38.0	-40.3	14.0	2.83e-04	0	58	0	223346688	47	4710
2026-01-20 10:34:00.03	99.04	15.44	-38.0	-40.2	14.1	2.40e-05	0	58	0	246415360	46	4959
2026-01-20 10:34:04.07	98.43	15.76	-38.0	-40.3	14.1	2.95e-04	0	58	0	269484032	46	4991
2026-01-20 10:34:08.11	97.81	16.08	-37.7	-40.0	14.2	4.92e-05	0	58	0	291504128	46	4859
2026-01-20 10:34:12.14	97.17	16.40	-37.9	-40.1	14.4	2.20e-06	0	58	0	314572800	46	4885
2026-01-20 10:34:16.18	96.52	16.72	-37.8	-40.1	14.4	3.40e-06	0	58	0	337641472	46	4881
2026-01-20 10:34:20.22	95.85	17.04	-37.8	-39.9	14.5	1.94e-05	0	58	0	359661568	46	4807
2026-01-20 10:34:24.26	95.17	17.36	-37.7	-39.8	14.8	1.10e-06	0	58	0	382730240	46	4712
2026-01-20 10:34:28.30	94.47	17.68	-37.7	-39.8	14.8	0.00e+00	0	58	0	405798912	46	4708
2026-01-20 10:34:32.34	93.76	18.00	-37.7	-39.7	14.8	0.00e+00	0	58	0	427819008	46	4692
2026-01-20 10:34:36.38	93.03	18.32	-37.6	-39.6	14.9	0.00e+00	0	58	0	450887680	46	4616
2026-01-20 10:34:40.42	92.29	18.64	-37.7	-39.8	14.6	1.10e-06	0	58	0	473956352	46	4717
2026-01-20 10:34:44.45	91.53	18.96	-37.5	-39.6	14.6	0.00e+00	0	58	0	495976448	46	4624
2026-01-20 10:34:48.49	90.76	19.28	-37.6	-39.7	14.5	0.00e+00	0	58	0	519045120	46	4664
2026-01-20 10:34:52.54	89.97	19.59	-37.6	-39.8	14.3	1.10e-06	0	58	0	542113792	46	4710
2026-01-20 10:34:56.58	89.16	19.90	-37.7	-39.9	13.8	3.40e-06	0	59	0	564133888	46	4800
2026-01-20 10:35:00.61	88.34	20.22	-37.6	-39.8	14.0	8.00e-06	0	58	0	587202560	46	4740
2026-01-20 10:35:04.66	87.49	20.52	-37.7	-40.0	13.8	1.02e-05	0	59	0	610271232	46	4833
2026-01-20 10:35:08.70	86.64	20.83	-37.7	-39.9	13.8	6.80e-06	0	58	0	632291328	46	4811
2026-01-20 10:35:12.74	85.76	21.13	-37.7	-39.9	14.0	4.50e-06	0	59	0	655360000	46	4807
2026-01-20 10:35:16.78	84.87	21.43	-37.7	-39.9	14.2	0.00e+00	0	59	0	678428672	46	4780
2026-01-20 10:35:20.82	83.96	21.73	-37.1	-39.1	15.0	1.10e-06	0	58	0	701497344	46	4355
2026-01-20 10:35:24.86	83.03	22.02	-37.1	-39.0	15.3	0.00e+00	0	59	0	723517440	46	4328
2026-01-20 10:35:28.90	82.09	22.30	-37.0	-38.9	15.5	0.00e+00	0	59	0	746586112	46	4281
2026-01-20 10:35:32.94	81.12	22.58	-36.8	-38.7	15.7	0.00e+00	0	59	0	768606208	45	4409
2026-01-20 10:35:36.98	80.14	22.86	-36.8	-38.7	15.8	0.00e+00	0	59	0	791674880	45	4407
2026-01-20 10:35:41.02	79.15	23.12	-36.8	-38.6	16.0	0.00e+00	0	59	0	814743552	45	4352
2026-01-20 10:35:45.05	78.13	23.39	-36.7	-38.4	16.1	0.00e+00	0	59	0	836763648	45	4284
2026-01-20 10:35:49.10	77.10	23.64	-36.7	-38.5	16.1	0.00e+00	0	59	0	859832320	45	4304
2026-01-20 10:35:53.14	76.05	23.89	-36.7	-38.6	16.0	0.00e+00	0	59	0	882900992	45	4346
2026-01-20 10:35:57.18	74.99	24.12	-36.7	-38.4	16.3	0.00e+00	0	59	0	905969664	45	4263
2026-01-20 10:36:01.22	73.91	24.35	-36.5	-38.2	16.5	0.00e+00	0	59	0	927989760	45	4171
2026-01-20 10:36:05.26	72.81	24.57	-36.4	-38.1	16.6	0.00e+00	0	58	0	951058432	44	4375
2026-01-20 10:36:09.30	71.70	24.78	-36.4	-38.1	16.6	0.00e+00	0	59	0	973078528	44	4383
2026-01-20 10:36:13.34	70.58	24.98	-36.4	-38.0	16.7	0.00e+00	0	58	0	996147200	44	4324
2026-01-20 10:36:17.38	69.44	25.17	-36.6	-38.4	16.4	0.00e+00	0	59	0	1019215872	44	4527
2026-01-20 10:36:21.42	68.29	25.35	-36.6	-38.3	16.6	0.00e+00	0	59	0	1042284544	44	4451
2026-01-20 10:36:25.46	67.12	25.52	-36.4	-38.1	16.8	0.00e+00	0	59	0	1064304640	44	4346
2026-01-20 10:36:29.50	65.95	25.67	-36.4	-38.1	16.7	0.00e+00	0	59	0	1087373312	44	4374
2026-01-20 10:36:33.55	64.76	25.81	-36.6	-38.3	16.5	0.00e+00	0	59	0	1110441984	44	4462
2026-01-20 10:36:37.59	63.56	25.94	-36.5	-38.2	16.7	0.00e+00	0	59	0	1132462080	44	4414
2026-01-20 10:36:41.62	62.35	26.05	-36.5	-38.2	16.7	0.00e+00	0	59	0	1155530752	44	4405
2026-01-20 10:36:45.66	61.14	26.16	-36.7	-38.4	16.5	0.00e+00	0	59	0	1178599424	44	4528
2026-01-20 10:36:49.70	59.92	26.24	-36.6	-38.3	16.6	0.00e+00	0	59	0	1200619520	44	4491
2026-01-20 10:36:53.74	58.69	26.32	-36.2	-37.9	17.1	0.00e+00	0	59	0	1223688192	44	4246
2026-01-20 10:36:57.78	57.45	26.38	-35.8	-37.4	17.4	0.00e+00	0	59	0	1246756864	43	4272
2026-01-20 10:37:01.82	56.21	26.42	-36.1	-37.7	17.1	0.00e+00	0	59	0	1268776960	43	4426
2026-01-20 10:37:05.86	54.97	26.45	-36.2	-37.9	17.0	0.00e+00	0	59	0	1291845632	43	4502
2026-01-20 10:37:09.90	53.73	26.47	-36.0	-37.7	17.1	0.00e+00	0	59	0	1314914304	43	4398
2026-01-20 10:37:13.93	52.49	26.47	-35.9	-37.5	17.3	0.00e+00	0	59	0	1336934400	43	4319
2026-01-20 10:37:17.97	51.25	26.45	-36.2	-37.8	17.0	0.00e+00	0	59	0	1360003072	43	4476
2026-01-20 10:37:22.01	50.01	26.42	-36.3	-38.0	16.9	0.00e+00	0	59	0	1383071744	43	4560
2026-01-20 10:37:26.05	48.77	26.38	-36.4	-37.8	17.3	0.00e+00	0	59	0	1405091840	43	4492
2026-01-20 10:37:30.09	47.54	26.32	-36.4	-37.9	17.2	0.00e+00	0	59	0	1428160512	43	4515
2026-01-20 10:37:34.12	46.31	26.25	-36.1	-37.5	17.6	0.00e+00	0	59	0	1451229184	43	4338
2026-01-20 10:37:38.16	45.09	26.16	-36.5	-38.0	17.1	0.00e+00	0	59	0	1473249280	43	4570
2026-01-20 10:37:42.20	43.88	26.06	-36.5	-38.0	17.2	0.00e+00	0	59	0	1496317952	43	4563
2026-01-20 10:37:46.24	42.67	25.95	-36.0	-37.4	17.7	0.00e+00	0	59	0	1519386624	43	4278
2026-01-20 10:37:50.28	41.48	25.82	-36.2	-37.7	17.5	0.00e+00	0	59	0	1541406720	43	4409
2026-01-20 10:37:54.31	40.29	25.68	-36.3	-37.7	17.4	0.00e+00	0	59	0	1564475392	43	4430
2026-01-20 10:37:58.35	39.12	25.53	-36.3	-37.8	17.3	0.00e+00	0	59	0	1586495488	43	4473
2026-01-20 10:38:02.40	37.95	25.36	-36.5	-38.0	17.2	0.00e+00	0	59	0	1609564160	43	4551
2026-01-20 10:38:06.43	36.80	25.19	-36.4	-37.9	17.3	0.00e+00	0	59	0	1632632832	43	4496
2026-01-20 10:38:10.47	35.66	25.00	-36.2	-37.6	17.5	0.00e+00	0	59	0	1655701504	43	4385
2026-01-20 10:38:14.51	34.54	24.80	-36.2	-37.6	17.5	0.00e+00	0	59	0	1677721600	43	4390
2026-01-20 10:38:18.55	33.43	24.59	-36.3	-37.8	17.3	0.00e+00	0	59	0	1700790272	43	4470
2026-01-20 10:38:22.59	32.34	24.37	-36.3	-37.8	17.3	0.00e+00	0	59	0	1723858944	43	4478
2026-01-20 10:38:26.63	31.26	24.14	-36.4	-37.9	17.2	0.00e+00	0	59	0	1745879040	43	4545
2026-01-20 10:38:30.66	30.20	23.91	-36.5	-38.0	17.2	0.00e+00	0	59	0	1768947712	43	4562
2026-01-20 10:38:34.70	29.16	23.66	-36.4	-37.9	17.2	0.00e+00	0	59	0	1790967808	43	4529
2026-01-20 10:38:38.74	28.13	23.41	-36.6	-38.1	17.0	0.00e+00	0	59	0	1814036480	43	4630
2026-01-20 10:38:42.79	27.11	23.15	-36.5	-38.0	17.1	0.00e+00	0	59	0	1837105152	43	4588
2026-01-20 10:38:46.82	26.12	22.88	-36.4	-37.9	17.2	0.00e+00	0	59	0	1860173824	43	4502
2026-01-20 10:38:50.86	25.14	22.61	-36.6	-38.2	16.9	0.00e+00	0	59	0	1882193920	43	4674
2026-01-20 10:38:54.90	24.18	22.33	-36.6	-38.2	16.9	0.00e+00	0	59	0	1905262592	43	4674
2026-01-20 10:38:58.94	23.24	22.05	-36.6	-38.1	16.9	0.00e+00	0	59	0	1927282688	43	4634
2026-01-20 10:39:02.98	22.32	21.76	-37.0	-38.6	16.6	0.00e+00	0	59	0	1950351360	44	4626
2026-01-20 10:39:07.02	21.41	21.46	-37.1	-38.7	16.5	0.00e+00	0	59	0	1973420032	44	4701
2026-01-20 10:39:11.06	20.52	21.17	-37.2	-38.8	16.4	0.00e+00	0	59	0	1995440128	45	4454
2026-01-20 10:39:15.09	19.65	20.87	-37.3	-39.0	16.2	0.00e+00	0	59	0	2018508800	45	4560
2026-01-20 10:39:19.14	18.79	20.56	-37.4	-39.0	16.1	0.00e+00	0	59	0	2041577472	45	4593
2026-01-20 10:39:23.18	17.95	20.25	-37.3	-39.0	16.2	0.00e+00	0	59	0	2064646144	45	4562
2026-01-20 10:39:27.21	17.13	19.95	-37.3	-39.0	16.1	0.00e+00	0	59	0	2086666240	45	4562
2026-01-20 10:39:31.25	16.33	19.63	-37.1	-38.7	16.4	0.00e+00	0	59	0	2109734912	45	4435
2026-01-20 10:39:35.29	15.54	19.32	-37.6	-39.3	15.9	0.00e+00	0	59	0	2131755008	45	4710
2026-01-20 10:39:39.33	14.77	19.00	-37.5	-39.2	15.9	0.00e+00	0	59	0	2154823680	45	4659
2026-01-20 10:39:43.37	14.01	18.69	-37.3	-38.9	16.1	0.00e+00	0	59	0	2177892352	45	4537
2026-01-20 10:39:47.41	13.27	18.37	-37.4	-39.1	16.0	0.00e+00	0	59	0	2200961024	45	4616
2026-01-20 10:39:51.45	12.55	18.05	-37.7	-39.4	15.6	0.00e+00	0	59	0	2222981120	45	4800
2026-01-20 10:39:55.49	11.84	17.73	-37.7	-39.5	15.5	0.00e+00	0	59	0	2246049792	46	4565
2026-01-20 10:39:59.54	11.15	17.41	-37.9	-39.7	15.2	0.00e+00	0	59	0	2269118464	46	4695
2026-01-20 10:40:03.57	10.47	17.09	-38.0	-39.8	15.0	0.00e+00	0	59	0	2291138560	46	4756
2026-01-20 10:40:07.61	9.80	16.77	-37.9	-39.8	15.1	0.00e+00	0	59	0	2314207232	46	4712
2026-01-20 10:40:11.65	9.15	16.46	-38.0	-39.9	14.9	0.00e+00	0	59	0	2336227328	46	4764
2026-01-20 10:40:15.69	8.52	16.14	-37.9	-39.8	14.9	0.00e+00	0	59	0	2359296000	46	4747
2026-01-20 10:40:19.73	7.90	15.82	-38.0	-39.9	14.6	0.00e+00	0	59	0	2382364672	46	4809
2026-01-20 10:40:23.77	7.29	15.50	-38.1	-40.2	14.3	3.40e-06	0	59	0	2405433344	47	4663
2026-01-20 10:40:27.80	6.69	15.19	-38.2	-40.2	14.0	3.40e-06	0	59	0	2427453440	47	4702
2026-01-20 10:40:31.84	6.11	14.87	-38.2	-40.4	13.8	5.70e-06	0	59	0	2450522112	47	4769
2026-01-20 10:40:35.88	5.54	14.56	-38.3	-40.5	13.5	1.83e-05	0	59	0	2473590784	47	4846
2026-01-20 10:40:39.92	4.98	14.24	-38.4	-40.8	12.9	6.29e-05	0	59	0	2495610880	47	4995
2026-01-20 10:40:43.96	4.43	13.93	-37.9	-40.2	13.2	2.51e-05	0	59	0	2518679552	47	4682
2026-01-20 10:40:47.99	3.90	13.62	-37.7	-40.0	13.1	3.08e-05	0	59	0	2540699648	47	4582
2026-01-20 10:40:52.03	3.38	13.31	-39.4	-43.1	9.5	1.52e-02	0	59	0	2563768320	49	5807
2026-01-20 10:40:56.06	2.86	13.01	-40.6	-47.0	5.5	4.35e-01	0	59	0	2585788416	51	8147
2026-01-20 10:41:00.10	2.36	12.70	-40.9	-51.4	3.8	8.47e-01	0	59	104	2586836992	52	12687
2026-01-20 10:41:04.14	1.87	12.40	-42.0	-53.1	3.8	8.46e-01	0	59	104	2586836992	54	13852
2026-01-20 10:41:08.17	1.39	12.10	-41.2	-52.6	3.8	8.46e-01	0	59	104	2586836992	54	12985
2026-01-20 10:41:12.21	0.92	11.80	-40.3	-52.0	3.8	8.46e-01	0	59	104	2586836992	52	13677
2026-01-20 10:41:16.25	0.46	11.50	-40.0	-51.8	3.8	8.46e-01	0	59	104	2586836992	51	14091
2026-01-20 10:41:20.29	0.01	11.20	-40.1	-51.9	3.8	8.46e-01	0	59	104	2586836992	51	14287
2026-01-20 10:41:24.33	359.56	10.91	-39.7	-51.7	3.8	8.46e-01	0	59	104	2586836992	51	14030
2026-01-20 10:41:28.36	359.13	10.61	-40.2	-52.1	3.8	8.46e-01	0	59	104	2586836992	51	14565
2026-01-20 10:41:32.40	358.71	10.32	-39.9	-51.9	3.8	8.46e-01	0	59	104	2586836992	51	14349
2026-01-20 10:41:36.44	358.29	10.03	-39.7	-51.9	3.8	8.46e-01	0	59	104	2586836992	51	14211
2026-01-20 10:41:40.48	357.89	9.75	-39.7	-51.8	3.8	8.46e-01	0	59	104	2586836992	50	15038
2026-01-20 10:41:44.52	357.49	9.46	-39.6	-51.8	3.8	8.46e-01	0	59	104	2586836992	50	14926
2026-01-20 10:41:48.55	357.10	9.18	-39.4	-51.8	3.8	8.46e-01	0	59	104	2586836992	50	14889
2026-01-20 10:41:52.59	356.71	8.90	-39.5	-51.7	3.8	8.47e-01	0	59	104	2586836992	50	14772
2026-01-20 10:41:56.63	356.34	8.62	-39.6	-51.7	3.8	8.46e-01	0	59	104	2586836992	50	14739
2026-01-20 10:42:00.67	355.97	8.34	-39.7	-51.7	3.8	8.46e-01	0	59	104	2586836992	50	14761
2026-01-20 10:42:04.70	355.61	8.06	-39.7	-51.7	3.8	8.47e-01	0	59	104	2586836992	50	14855
2026-01-20 10:42:08.74	355.25	7.79	-44.7	-56.5	3.8	8.46e-01	0	60	104	2586836992	60	14539
2026-01-20 10:42:12.79	354.91	7.52	-45.2	-57.0	3.8	8.46e-01	0	59	104	2586836992	60	15237
2026-01-20 10:42:16.83	354.57	7.25	-45.1	-56.9	3.8	8.46e-01	0	59	104	2586836992	60	15077
2026-01-20 10:42:20.87	354.23	6.98	-45.0	-56.8	3.8	8.47e-01	0	60	104	2586836992	60	14947
2026-01-20 10:42:24.91	353.90	6.71	-44.6	-56.8	3.8	8.46e-01	0	59	104	2586836992	60	14905
2026-01-20 10:42:28.95	353.58	6.45	-45.1	-56.8	3.8	8.46e-01	0	60	104	2586836992	60	14915
2026-01-20 10:42:33.00	353.27	6.18	-45.0	-56.7	3.8	8.47e-01	0	59	104	2586836992	60	14821
2026-01-20 10:42:37.04	352.96	5.92	-45.0	-56.7	3.8	8.47e-01	0	59	104	2586836992	60	14809
2026-01-20 10:42:41.08	352.65	5.66	-45.0	-56.7	3.8	8.46e-01	0	59	104	2586836992	60	14799
2026-01-20 10:42:45.12	352.36	5.41	-45.0	-56.7	3.8	8.46e-01	0	59	104	2586836992	60	14853
2026-01-20 10:42:49.16	352.06	5.15	-45.0	-56.7	3.8	8.46e-01	0	59	104	2586836992	60	14797
2026-01-20 10:42:53.20	351.78	4.90	-44.9	-56.6	3.8	8.46e-01	0	59	104	2586836992	60	14707
2026-01-20 10:42:57.24	351.49	4.64	-45.0	-56.7	3.8	8.46e-01	0	60	104	2586836992	60	14766
2026-01-20 10:43:01.29	351.22	4.39	-45.0	-56.7	3.8	8.45e-01	0	59	104	2586836992	60	14740
2026-01-20 10:43:05.33	350.94	4.14	-45.0	-56.6	3.8	8.46e-01	0	59	104	2586836992	60	14708
2026-01-20 10:43:09.37	350.68	3.90	-45.0	-56.6	3.8	8.46e-01	0	59	104	2586836992	60	14671
2026-01-20 10:43:13.42	350.41	3.65	-45.0	-56.7	3.8	8.45e-01	0	59	104	2586836992	60	14713
2026-01-20 10:43:17.46	350.16	3.41	-44.9	-56.7	3.8	8.47e-01	0	59	104	2586836992	60	14737
2026-01-20 10:43:21.50	349.90	3.17	-44.9	-56.6	3.8	8.46e-01	0	59	104	2586836992	60	14622
2026-01-20 10:43:25.54	349.65	2.92	-44.9	-56.6	3.8	8.46e-01	0	59	104	2586836992	60	14675
2026-01-20 10:43:29.59	349.41	2.68	-44.9	-56.6	3.8	8.47e-01	0	59	104	2586836992	60	14672
2026-01-20 10:43:33.62	349.17	2.45	-44.9	-56.6	3.8	8.45e-01	0	59	104	2586836992	60	14610
2026-01-20 10:43:37.67	348.93	2.21	-45.0	-56.6	3.8	8.46e-01	0	60	104	2586836992	60	14696
2026-01-20 10:43:41.71	348.70	1.98	-45.0	-56.6	3.8	8.46e-01	0	60	104	2586836992	60	14616

#Closed at: 2026-01-20 10:43:42
#Recorded file [2586 MB]: D:/lorett/data/31039_260120_133045.dat