passes_logs/2026/01/20/R2.0S_Moscow/R2.0S_Moscow__20260120_153457_FENGYUN_3E_rec.log

#Pass ID: 20260120_153457_FENGYUN 3E
#Satellite: FENGYUN 3E
#Configuration: FENGYUN 3E
#almurnet v.1.7.20251203
#Start time: 2026-01-20 15:34:58

#Version: 2.2.20231116
#Station: R2.0S_Moscow
#Location: 37.707566 lon 55.798166 lat
#TLE: 1 49008U 21062A   26020.00892250 -.00000287  00000+0 -11478-3 0  9990
#TLE: 2 49008  98.7482  25.0782 0002252 128.5071 231.6308 14.19884466235554

#Time	Az	El	Level	Level2	SNR	BER	BlckErr	Temp	State	Recorded	gain1	gain2
2026-01-20 15:34:58.61	202.26	2.06	-44.3	-55.4	3.8	8.46e-01	0	50	0	0	59	12691
2026-01-20 15:35:02.65	202.52	2.29	-44.3	-55.3	3.8	8.46e-01	0	50	104	0	59	12580
2026-01-20 15:35:06.70	202.79	2.53	-44.3	-55.3	3.8	8.46e-01	0	50	104	0	59	12632
2026-01-20 15:35:10.74	203.06	2.76	-44.3	-55.3	3.8	8.45e-01	0	51	104	0	59	12619
2026-01-20 15:35:14.78	203.34	3.00	-44.3	-55.3	3.8	8.46e-01	0	51	104	0	59	12574
2026-01-20 15:35:18.82	203.62	3.23	-44.3	-55.3	3.8	8.47e-01	0	51	104	0	59	12605
2026-01-20 15:35:22.86	203.90	3.47	-44.3	-55.3	3.8	8.46e-01	0	51	104	0	59	12642
2026-01-20 15:35:26.90	204.19	3.71	-44.3	-55.3	3.8	8.46e-01	0	52	104	0	59	12555
2026-01-20 15:35:30.95	204.49	3.95	-44.3	-55.3	3.8	8.45e-01	0	52	104	0	59	12614
2026-01-20 15:35:34.99	204.79	4.20	-44.3	-55.3	3.8	8.45e-01	0	52	104	0	59	12601
2026-01-20 15:35:39.03	205.09	4.44	-44.3	-55.3	3.8	8.46e-01	0	52	104	0	59	12644
2026-01-20 15:35:43.07	205.40	4.69	-44.2	-55.3	3.8	8.46e-01	0	53	104	0	59	12573
2026-01-20 15:35:47.11	205.71	4.93	-44.3	-55.3	3.8	8.46e-01	0	53	104	0	59	12589
2026-01-20 15:35:51.16	206.03	5.18	-44.3	-55.2	3.8	8.44e-01	0	53	104	0	59	12502
2026-01-20 15:35:55.20	206.35	5.43	-44.3	-55.1	3.8	8.46e-01	0	53	104	0	59	12265
2026-01-20 15:35:59.24	206.68	5.69	-44.2	-54.6	3.8	8.45e-01	0	54	104	0	59	11628
2026-01-20 15:36:03.28	207.01	5.94	-44.1	-53.7	3.8	8.46e-01	0	54	104	0	59	10523
2026-01-20 15:36:07.32	207.35	6.20	-43.8	-51.6	4.2	8.39e-01	0	54	0	0	58	8707
2026-01-20 15:36:11.36	207.70	6.45	-43.1	-49.1	5.4	7.33e-01	0	54	0	0	57	6891
2026-01-20 15:36:15.40	208.05	6.71	-42.8	-48.0	6.2	2.85e-01	0	54	0	23068672	56	6482
2026-01-20 15:36:19.44	208.41	6.97	-42.9	-48.1	6.1	3.19e-01	0	54	0	52428800	56	6560
2026-01-20 15:36:23.48	208.77	7.24	-42.6	-47.5	6.6	2.44e-01	0	55	0	81788928	56	6083
2026-01-20 15:36:27.53	209.14	7.50	-40.9	-44.1	9.8	1.37e-02	0	55	0	111149056	52	5193
2026-01-20 15:36:31.57	209.52	7.77	-39.3	-41.5	12.6	1.64e-04	0	55	0	140509184	49	4572
2026-01-20 15:36:35.62	209.90	8.04	-39.5	-41.8	12.3	1.46e-04	0	55	0	169869312	49	4742
2026-01-20 15:36:39.66	210.29	8.31	-40.1	-42.6	11.7	3.48e-03	0	55	0	191889408	51	4599
2026-01-20 15:36:43.69	210.69	8.58	-39.2	-41.3	12.9	6.17e-05	0	55	0	219152384	49	4489
2026-01-20 15:36:47.73	211.10	8.85	-38.9	-40.8	13.5	1.83e-05	0	55	0	248512512	48	4487
2026-01-20 15:36:51.77	211.51	9.12	-38.9	-40.8	13.7	3.40e-06	0	55	0	277872640	48	4451
2026-01-20 15:36:55.82	211.93	9.40	-38.9	-40.8	13.7	4.50e-06	0	56	0	307232768	48	4466
2026-01-20 15:36:59.85	212.36	9.68	-38.9	-40.9	13.6	6.80e-06	0	56	0	335544320	48	4507
2026-01-20 15:37:03.89	212.79	9.96	-38.9	-40.9	13.7	6.80e-06	0	56	0	364904448	48	4502
2026-01-20 15:37:07.93	213.23	10.24	-38.8	-40.6	13.9	3.40e-06	0	56	0	394264576	48	4378
2026-01-20 15:37:11.97	213.69	10.53	-38.7	-40.5	14.1	2.20e-06	0	56	0	423624704	48	4321
2026-01-20 15:37:16.01	214.15	10.81	-38.6	-40.4	14.2	3.40e-06	0	56	0	452984832	48	4265
2026-01-20 15:37:20.05	214.62	11.10	-38.6	-40.4	14.3	1.10e-06	0	56	0	481296384	48	4262
2026-01-20 15:37:24.10	215.10	11.39	-38.6	-40.4	14.3	1.10e-06	0	56	0	510656512	48	4256
2026-01-20 15:37:28.14	215.58	11.68	-38.5	-40.3	14.5	0.00e+00	0	56	0	540016640	48	4198
2026-01-20 15:37:32.18	216.08	11.97	-38.3	-40.1	14.5	1.10e-06	0	56	0	569376768	47	4354
2026-01-20 15:37:36.21	216.59	12.26	-38.4	-40.1	14.4	2.20e-06	0	56	0	598736896	47	4373
2026-01-20 15:37:40.25	217.10	12.56	-38.2	-39.9	14.7	0.00e+00	0	57	0	627048448	47	4281
2026-01-20 15:37:44.29	217.63	12.86	-38.2	-39.9	14.7	0.00e+00	0	57	0	656408576	47	4270
2026-01-20 15:37:48.33	218.17	13.15	-38.3	-40.0	14.6	1.10e-06	0	57	0	685768704	47	4340
2026-01-20 15:37:52.37	218.71	13.45	-38.2	-40.0	14.7	1.10e-06	0	57	0	715128832	46	4548
2026-01-20 15:37:56.41	219.27	13.75	-38.2	-39.8	14.8	0.00e+00	0	57	0	744488960	46	4493
2026-01-20 15:38:00.45	219.84	14.06	-38.0	-39.6	15.1	0.00e+00	0	57	0	773849088	46	4367
2026-01-20 15:38:04.49	220.42	14.36	-37.9	-39.5	15.2	0.00e+00	0	57	0	802160640	46	4323
2026-01-20 15:38:08.53	221.02	14.66	-37.7	-39.2	15.5	0.00e+00	0	57	0	831520768	46	4186
2026-01-20 15:38:12.57	221.62	14.97	-37.6	-39.1	15.7	0.00e+00	0	57	0	860880896	46	4104
2026-01-20 15:38:16.61	222.24	15.27	-37.5	-39.0	15.8	0.00e+00	0	57	0	890241024	45	4296
2026-01-20 15:38:20.65	222.87	15.58	-37.2	-38.7	16.1	0.00e+00	0	57	0	919601152	45	4157
2026-01-20 15:38:24.68	223.51	15.89	-37.4	-38.9	16.0	0.00e+00	0	57	0	947912704	45	4255
2026-01-20 15:38:28.72	224.16	16.19	-37.4	-38.9	15.9	0.00e+00	0	58	0	977272832	45	4251
2026-01-20 15:38:32.76	224.83	16.50	-37.2	-38.6	16.2	0.00e+00	0	58	0	1006632960	45	4116
2026-01-20 15:38:36.80	225.51	16.81	-37.0	-38.4	16.5	0.00e+00	0	57	0	1035993088	44	4251
2026-01-20 15:38:40.84	226.21	17.12	-36.9	-38.3	16.6	0.00e+00	0	58	0	1065353216	44	4199
2026-01-20 15:38:44.87	226.91	17.42	-36.7	-38.0	16.9	0.00e+00	0	58	0	1094713344	44	4086
2026-01-20 15:38:48.92	227.64	17.73	-37.0	-38.4	16.5	0.00e+00	0	58	0	1123024896	44	4265
2026-01-20 15:38:52.96	228.38	18.04	-36.9	-38.3	16.6	0.00e+00	0	58	0	1152385024	44	4212
2026-01-20 15:38:57.00	229.13	18.35	-37.0	-38.4	16.5	0.00e+00	0	58	0	1181745152	44	4254
2026-01-20 15:39:01.03	229.90	18.65	-37.0	-38.4	16.6	0.00e+00	0	58	0	1211105280	44	4256
2026-01-20 15:39:05.07	230.68	18.95	-36.6	-37.9	17.0	0.00e+00	0	58	0	1240465408	44	4046
2026-01-20 15:39:09.11	231.47	19.25	-36.9	-38.2	16.7	0.00e+00	0	58	0	1269825536	44	4173
2026-01-20 15:39:13.15	232.29	19.55	-36.7	-38.1	16.9	0.00e+00	0	58	0	1298137088	44	4101
2026-01-20 15:39:17.19	233.12	19.85	-36.7	-38.0	17.0	0.00e+00	0	58	0	1327497216	44	4074
2026-01-20 15:39:21.23	233.96	20.15	-36.6	-37.9	17.0	0.00e+00	0	58	0	1356857344	44	4034
2026-01-20 15:39:25.27	234.82	20.44	-36.6	-37.9	17.1	0.00e+00	0	58	0	1386217472	44	4009
2026-01-20 15:39:29.31	235.70	20.73	-36.1	-37.4	17.5	0.00e+00	0	58	0	1415577600	43	4005
2026-01-20 15:39:33.35	236.59	21.01	-36.1	-37.4	17.4	0.00e+00	0	58	0	1443889152	43	4022
2026-01-20 15:39:37.39	237.50	21.30	-36.3	-37.5	17.3	0.00e+00	0	58	0	1473249280	43	4096
2026-01-20 15:39:41.43	238.42	21.57	-36.3	-37.5	17.3	0.00e+00	0	58	0	1502609408	43	4081
2026-01-20 15:39:45.47	239.37	21.85	-36.3	-37.5	17.3	0.00e+00	0	58	0	1531969536	43	4092
2026-01-20 15:39:49.51	240.32	22.12	-36.2	-37.5	17.3	0.00e+00	0	58	0	1561329664	43	4077
2026-01-20 15:39:53.55	241.30	22.38	-35.9	-37.2	17.7	0.00e+00	0	58	0	1589641216	42	4150
2026-01-20 15:39:57.59	242.29	22.63	-35.8	-37.0	17.8	0.00e+00	0	58	0	1619001344	42	4087
2026-01-20 15:40:01.63	243.29	22.88	-35.8	-37.1	17.8	0.00e+00	0	58	0	1648361472	42	4102
2026-01-20 15:40:05.66	244.31	23.13	-35.9	-37.1	17.7	0.00e+00	0	58	0	1677721600	42	4145
2026-01-20 15:40:09.70	245.34	23.36	-36.0	-37.3	17.6	0.00e+00	0	58	0	1706033152	42	4202
2026-01-20 15:40:13.74	246.40	23.59	-36.0	-37.3	17.6	0.00e+00	0	58	0	1735393280	42	4205
2026-01-20 15:40:17.78	247.46	23.81	-35.9	-37.1	17.7	0.00e+00	0	58	0	1764753408	42	4140
2026-01-20 15:40:21.82	248.54	24.03	-35.6	-36.8	18.1	0.00e+00	0	58	0	1794113536	42	3979
2026-01-20 15:40:25.86	249.64	24.23	-35.5	-36.7	18.2	0.00e+00	0	58	0	1823473664	42	3927
2026-01-20 15:40:29.90	250.75	24.42	-35.5	-36.7	18.2	0.00e+00	0	58	0	1851785216	41	4150
2026-01-20 15:40:33.93	251.86	24.61	-35.3	-36.4	18.4	0.00e+00	0	59	0	1881145344	41	4038
2026-01-20 15:40:37.97	253.00	24.78	-35.7	-36.9	18.0	0.00e+00	0	59	0	1910505472	41	4275
2026-01-20 15:40:42.01	254.14	24.94	-35.5	-36.6	18.2	0.00e+00	0	59	0	1939865600	41	4135
2026-01-20 15:40:46.05	255.30	25.10	-35.6	-36.8	18.0	0.00e+00	0	59	0	1969225728	41	4242
2026-01-20 15:40:50.09	256.47	25.24	-35.5	-36.7	18.2	0.00e+00	0	59	0	1997537280	41	4152
2026-01-20 15:40:54.13	257.65	25.37	-35.5	-36.7	18.2	0.00e+00	0	59	0	2026897408	41	4157
2026-01-20 15:40:58.16	258.83	25.48	-35.5	-36.7	18.2	0.00e+00	0	59	0	2056257536	41	4180
2026-01-20 15:41:02.20	260.02	25.59	-35.8	-37.0	17.9	0.00e+00	0	58	0	2085617664	41	4326
2026-01-20 15:41:06.24	261.22	25.68	-35.5	-36.7	18.2	0.00e+00	0	59	0	2114977792	41	4155
2026-01-20 15:41:10.28	262.43	25.76	-35.4	-36.6	18.3	0.00e+00	0	58	0	2144337920	41	4125
2026-01-20 15:41:14.32	263.64	25.82	-35.2	-36.3	18.5	0.00e+00	0	59	0	2172649472	41	4004
2026-01-20 15:41:18.35	264.86	25.88	-35.3	-36.5	18.4	0.00e+00	0	59	0	2202009600	41	4070
2026-01-20 15:41:22.39	266.08	25.91	-35.4	-36.5	18.4	0.00e+00	0	59	0	2231369728	41	4080
2026-01-20 15:41:26.43	267.30	25.94	-35.3	-36.5	18.4	0.00e+00	0	59	0	2260729856	41	4060
2026-01-20 15:41:30.46	268.52	25.95	-35.4	-36.6	18.4	0.00e+00	0	59	0	2290089984	41	4100
2026-01-20 15:41:34.50	269.75	25.95	-35.6	-36.8	18.1	0.00e+00	0	59	0	2318401536	41	4197
2026-01-20 15:41:38.55	270.97	25.93	-35.5	-36.7	18.2	0.00e+00	0	59	0	2347761664	41	4153
2026-01-20 15:41:42.59	272.20	25.90	-35.5	-36.7	18.2	0.00e+00	0	59	0	2377121792	41	4151
2026-01-20 15:41:46.62	273.41	25.86	-35.3	-36.4	18.4	0.00e+00	0	59	0	2406481920	41	4043
2026-01-20 15:41:50.66	274.63	25.81	-35.4	-36.6	18.3	0.00e+00	0	59	0	2435842048	41	4124
2026-01-20 15:41:54.70	275.84	25.74	-35.3	-36.5	18.4	0.00e+00	0	59	0	2465202176	41	4066
2026-01-20 15:41:58.74	277.04	25.65	-35.6	-36.8	18.1	0.00e+00	0	59	0	2493513728	41	4240
2026-01-20 15:42:02.77	278.24	25.56	-35.6	-36.8	18.0	0.00e+00	0	59	0	2522873856	41	4235
2026-01-20 15:42:06.81	279.43	25.45	-35.4	-36.6	18.3	0.00e+00	0	59	0	2552233984	41	4107
2026-01-20 15:42:10.85	280.61	25.33	-35.4	-36.5	18.3	0.00e+00	0	59	0	2581594112	41	4093
2026-01-20 15:42:14.89	281.78	25.20	-35.4	-36.5	18.4	0.00e+00	0	59	0	2609905664	41	4075
2026-01-20 15:42:18.93	282.94	25.06	-35.6	-36.7	18.1	0.00e+00	0	59	0	2639265792	41	4192
2026-01-20 15:42:22.97	284.09	24.90	-35.6	-36.8	18.0	0.00e+00	0	59	0	2668625920	41	4232
2026-01-20 15:42:27.01	285.23	24.74	-35.7	-36.9	18.0	0.00e+00	0	59	0	2697986048	41	4255
2026-01-20 15:42:31.05	286.36	24.56	-35.8	-37.0	17.8	0.00e+00	0	59	0	2727346176	41	4332
2026-01-20 15:42:35.09	287.47	24.37	-35.7	-36.9	18.0	0.00e+00	0	59	0	2755657728	41	4257
2026-01-20 15:42:39.13	288.58	24.18	-35.7	-36.9	18.0	0.00e+00	0	59	0	2785017856	41	4266
2026-01-20 15:42:43.17	289.66	23.97	-35.9	-37.1	17.7	0.00e+00	0	59	0	2814377984	41	4369
2026-01-20 15:42:47.21	290.74	23.76	-36.0	-37.2	17.6	0.00e+00	0	59	0	2843738112	41	4419
2026-01-20 15:42:51.24	291.79	23.54	-36.1	-37.4	17.5	0.00e+00	0	59	0	2872049664	42	4261
2026-01-20 15:42:55.28	292.84	23.31	-36.0	-37.2	17.6	0.00e+00	0	59	0	2901409792	42	4169
2026-01-20 15:42:59.32	293.87	23.07	-35.8	-37.1	17.8	0.00e+00	0	59	0	2930769920	42	4103
2026-01-20 15:43:03.36	294.88	22.83	-35.9	-37.2	17.6	0.00e+00	0	59	0	2960130048	42	4161
2026-01-20 15:43:07.40	295.88	22.58	-36.2	-37.4	17.3	0.00e+00	0	59	0	2989490176	42	4291
2026-01-20 15:43:11.44	296.86	22.32	-36.3	-37.6	17.2	0.00e+00	0	59	0	3018850304	42	4379
2026-01-20 15:43:15.48	297.82	22.06	-36.2	-37.5	17.3	0.00e+00	0	59	0	3047161856	42	4325
2026-01-20 15:43:19.52	298.77	21.79	-36.2	-37.5	17.3	0.00e+00	0	59	0	3076521984	42	4321
2026-01-20 15:43:23.56	299.70	21.52	-36.4	-37.7	17.0	0.00e+00	0	59	0	3105882112	42	4423
2026-01-20 15:43:27.60	300.62	21.24	-36.2	-37.5	17.3	0.00e+00	0	59	0	3135242240	42	4323
2026-01-20 15:43:31.64	301.52	20.96	-36.4	-37.7	17.0	0.00e+00	0	59	0	3164602368	42	4439
2026-01-20 15:43:35.68	302.41	20.67	-36.5	-37.8	17.0	0.00e+00	0	59	0	3192913920	42	4472
2026-01-20 15:43:39.72	303.28	20.39	-36.4	-37.7	17.0	0.00e+00	0	59	0	3222274048	42	4439
2026-01-20 15:43:43.76	304.13	20.10	-36.3	-37.6	17.2	0.00e+00	0	59	0	3251634176	42	4355
2026-01-20 15:43:47.79	304.96	19.80	-36.6	-37.9	16.8	0.00e+00	0	59	0	3280994304	42	4541
2026-01-20 15:43:51.83	305.78	19.51	-36.9	-38.3	16.5	0.00e+00	0	59	0	3310354432	43	4460
2026-01-20 15:43:55.87	306.59	19.21	-36.9	-38.3	16.4	0.00e+00	0	59	0	3339714560	43	4483
2026-01-20 15:43:59.91	307.38	18.91	-36.9	-38.3	16.4	0.00e+00	0	59	0	3368026112	43	4481
2026-01-20 15:44:03.94	308.16	18.61	-36.8	-38.2	16.5	0.00e+00	0	59	0	3397386240	43	4428
2026-01-20 15:44:07.98	308.92	18.31	-36.8	-38.2	16.4	0.00e+00	0	59	0	3426746368	43	4418
2026-01-20 15:44:12.02	309.66	18.00	-37.0	-38.5	16.2	0.00e+00	0	59	0	3456106496	43	4547
2026-01-20 15:44:16.06	310.39	17.70	-37.4	-38.9	15.9	0.00e+00	0	59	0	3485466624	44	4503
2026-01-20 15:44:20.10	311.11	17.39	-37.3	-38.7	16.1	0.00e+00	0	59	0	3513778176	44	4438
2026-01-20 15:44:24.13	311.81	17.09	-37.0	-38.4	16.4	0.00e+00	0	59	0	3543138304	44	4249
2026-01-20 15:44:28.17	312.50	16.78	-37.1	-38.5	16.3	0.00e+00	0	59	0	3572498432	44	4338
2026-01-20 15:44:32.21	313.18	16.48	-37.5	-39.0	15.8	0.00e+00	0	59	0	3601858560	44	4579
2026-01-20 15:44:36.24	313.84	16.17	-38.0	-39.7	15.1	0.00e+00	0	59	0	3630170112	45	4657
2026-01-20 15:44:40.28	314.49	15.87	-37.7	-39.3	15.5	0.00e+00	0	59	0	3659530240	45	4460
2026-01-20 15:44:44.33	315.13	15.56	-37.4	-38.9	15.8	0.00e+00	0	59	0	3688890368	45	4288
2026-01-20 15:44:48.36	315.75	15.26	-37.3	-38.8	15.9	0.00e+00	0	59	0	3718250496	45	4227
2026-01-20 15:44:52.41	316.36	14.96	-37.4	-38.9	15.8	0.00e+00	0	59	0	3747610624	45	4277
2026-01-20 15:44:56.44	316.96	14.66	-37.9	-39.5	15.1	0.00e+00	0	59	0	3775922176	45	4574
2026-01-20 15:45:00.48	317.55	14.36	-38.3	-40.1	14.6	0.00e+00	0	59	0	3805282304	46	4599
2026-01-20 15:45:04.53	318.13	14.05	-38.2	-39.9	14.7	0.00e+00	0	59	0	3834642432	46	4536
2026-01-20 15:45:08.56	318.70	13.76	-37.9	-39.5	15.1	1.10e-06	0	59	0	3864002560	46	4321
2026-01-20 15:45:12.60	319.25	13.46	-37.8	-39.4	15.2	0.00e+00	0	59	0	3893362688	46	4255
2026-01-20 15:45:16.64	319.80	13.16	-37.7	-39.3	15.2	0.00e+00	0	59	0	3921674240	46	4226
2026-01-20 15:45:20.67	320.33	12.87	-37.9	-39.5	15.0	0.00e+00	0	59	0	3951034368	46	4322
2026-01-20 15:45:24.72	320.85	12.57	-38.3	-40.0	14.5	1.10e-06	0	59	0	3980394496	46	4571
2026-01-20 15:45:28.76	321.37	12.28	-38.3	-40.1	14.5	0.00e+00	0	59	0	4009754624	46	4611
2026-01-20 15:45:32.79	321.87	11.99	-38.4	-40.2	14.3	0.00e+00	0	59	0	4039114752	46	4663
2026-01-20 15:45:36.83	322.37	11.70	-38.3	-40.0	14.4	1.10e-06	0	59	0	4068474880	46	4598
2026-01-20 15:45:40.87	322.85	11.42	-38.5	-40.3	14.2	0.00e+00	0	59	0	4096786432	46	4708
2026-01-20 15:45:44.91	323.33	11.13	-38.3	-40.1	14.4	1.10e-06	0	59	0	4126146560	46	4626
2026-01-20 15:45:48.95	323.80	10.85	-38.3	-40.1	14.3	1.10e-06	0	59	0	4155506688	46	4628
2026-01-20 15:45:52.98	324.25	10.56	-38.5	-40.3	14.1	2.20e-06	0	59	0	4184866816	46	4742
2026-01-20 15:45:57.03	324.70	10.28	-38.5	-40.4	13.9	1.10e-06	0	59	0	4214226944	46	4791
2026-01-20 15:46:01.06	325.15	10.00	-38.6	-40.5	13.8	6.80e-06	0	59	0	4242538496	46	4818
2026-01-20 15:46:05.10	325.58	9.73	-38.8	-40.7	13.5	1.83e-05	0	59	0	4271898624	47	4690
2026-01-20 15:46:09.15	326.01	9.45	-38.8	-40.8	13.4	1.37e-05	0	59	0	4301258752	47	4734
2026-01-20 15:46:13.19	326.43	9.18	-39.0	-41.1	13.0	3.31e-05	0	59	0	4330618880	47	4884
2026-01-20 15:46:17.22	326.84	8.90	-38.9	-40.9	13.2	3.08e-05	0	59	0	4359979008	47	4801
2026-01-20 15:46:21.26	327.24	8.63	-38.9	-41.0	13.1	3.77e-05	0	59	0	4389339136	47	4849
2026-01-20 15:46:25.30	327.64	8.36	-39.0	-41.0	13.0	3.77e-05	0	59	0	4417650688	47	4861
2026-01-20 15:46:29.34	328.03	8.10	-38.9	-41.0	13.0	4.00e-05	0	59	0	4447010816	47	4853
2026-01-20 15:46:33.39	328.41	7.83	-45.2	-56.5	3.8	8.45e-01	0	59	104	4456448000	60	13624
2026-01-20 15:46:37.43	328.79	7.57	-45.6	-56.9	3.8	8.46e-01	0	59	104	4456448000	60	14316
2026-01-20 15:46:41.48	329.16	7.31	-45.5	-56.9	3.8	8.46e-01	0	59	104	4456448000	60	14250
2026-01-20 15:46:45.52	329.53	7.05	-45.5	-56.8	3.8	8.47e-01	0	59	104	4456448000	60	14106
2026-01-20 15:46:49.56	329.89	6.79	-45.5	-56.8	3.8	8.45e-01	0	59	104	4456448000	60	14157
2026-01-20 15:46:53.60	330.24	6.53	-45.5	-56.8	3.8	8.47e-01	0	59	104	4456448000	60	14156
2026-01-20 15:46:57.65	330.59	6.28	-45.5	-56.8	3.8	8.46e-01	0	59	104	4456448000	60	14133
2026-01-20 15:47:01.69	330.93	6.02	-45.5	-56.8	3.8	8.46e-01	0	59	104	4456448000	60	14081
2026-01-20 15:47:05.73	331.26	5.77	-45.5	-56.8	3.8	8.45e-01	0	59	104	4456448000	60	14144
2026-01-20 15:47:09.77	331.59	5.52	-45.5	-56.8	3.8	8.46e-01	0	59	104	4456448000	60	14172
2026-01-20 15:47:13.81	331.92	5.27	-45.3	-56.7	3.8	8.46e-01	0	59	104	4456448000	60	14040
2026-01-20 15:47:17.85	332.24	5.03	-45.4	-56.7	3.8	8.46e-01	0	59	104	4456448000	60	14031
2026-01-20 15:47:21.90	332.55	4.78	-45.4	-56.8	3.8	8.46e-01	0	59	104	4456448000	60	14092
2026-01-20 15:47:25.94	332.86	4.54	-45.4	-56.8	3.8	8.46e-01	0	59	104	4456448000	60	14125
2026-01-20 15:47:29.98	333.17	4.30	-45.4	-56.8	3.8	8.46e-01	0	59	104	4456448000	60	14089
2026-01-20 15:47:34.02	333.47	4.06	-45.3	-56.8	3.8	8.45e-01	0	60	104	4456448000	60	14069
2026-01-20 15:47:38.07	333.76	3.82	-45.4	-56.7	3.8	8.45e-01	0	59	104	4456448000	60	14045
2026-01-20 15:47:42.11	334.05	3.58	-45.4	-56.7	3.8	8.45e-01	0	59	104	4456448000	60	14041
2026-01-20 15:47:46.15	334.34	3.34	-45.4	-56.8	3.8	8.45e-01	0	59	104	4456448000	60	14113
2026-01-20 15:47:50.19	334.62	3.11	-45.4	-56.8	3.8	8.47e-01	0	59	104	4456448000	60	14158
2026-01-20 15:47:54.23	334.90	2.88	-45.4	-56.8	3.8	8.47e-01	0	60	104	4456448000	60	14116
2026-01-20 15:47:58.27	335.18	2.64	-45.4	-56.8	3.8	8.47e-01	0	59	104	4456448000	60	14108
2026-01-20 15:48:02.32	335.45	2.41	-45.4	-56.7	3.8	8.46e-01	0	59	104	4456448000	60	14036
2026-01-20 15:48:06.36	335.71	2.19	-45.4	-56.8	3.8	8.46e-01	0	60	104	4456448000	60	14059

#Closed at: 2026-01-20 15:48:10
#Recorded file [4456 MB]: D:/lorett/data/31039_260120_183458.dat