passes_logs/2026/01/20/R2.0S_Moscow/R2.0S_Moscow__20260120_022311_FENGYUN_3E_rec.log

#Pass ID: 20260120_022311_FENGYUN 3E
#Satellite: FENGYUN 3E
#Configuration: FENGYUN 3E
#almurnet v.1.7.20251203
#Start time: 2026-01-20 02:30:59

#Version: 2.2.20231116
#Station: R2.0S_Moscow
#Location: 37.707566 lon 55.798166 lat
#TLE: 1 49008U 21062A   26019.23377557 -.00000048  00000+0 -18182-5 0  9997
#TLE: 2 49008  98.7482  24.3123 0002210 128.5385 231.5989 14.19885253235444

#Time	Az	El	Level	Level2	SNR	BER	BlckErr	Temp	State	Recorded	gain1	gain2
2026-01-20 02:30:59.65	109.95	19.34	-46.1	-64.7	3.8	7.47e-01	0	62	0	0	63	31199
2026-01-20 02:31:01.66	110.41	19.25	-46.0	-57.3	3.8	8.46e-01	0	62	104	0	62	13358
2026-01-20 02:31:03.68	110.87	19.16	-45.9	-57.2	3.8	8.47e-01	0	62	104	0	62	13133
2026-01-20 02:31:05.71	111.34	19.06	-45.7	-57.0	3.8	8.46e-01	0	62	104	0	62	12867
2026-01-20 02:31:07.73	111.79	18.97	-45.5	-56.8	3.8	8.47e-01	0	62	104	0	62	12567
2026-01-20 02:31:09.75	112.25	18.87	-45.1	-56.0	3.8	8.48e-01	0	62	104	0	59	13589
2026-01-20 02:31:11.77	112.70	18.77	-45.0	-55.8	3.8	8.46e-01	0	62	104	0	59	13383
2026-01-20 02:31:13.79	113.14	18.67	-45.1	-55.7	3.8	8.46e-01	0	62	104	0	59	13224
2026-01-20 02:31:15.81	113.59	18.57	-44.9	-55.7	3.8	8.45e-01	0	62	104	0	59	13198
2026-01-20 02:31:17.83	114.03	18.47	-44.9	-55.2	3.8	8.46e-01	0	62	104	0	59	12498
2026-01-20 02:31:19.85	114.47	18.37	-44.8	-54.3	3.8	8.45e-01	0	62	104	0	59	11158
2026-01-20 02:31:21.87	114.91	18.26	-44.6	-53.4	4.0	8.44e-01	0	62	104	0	59	10169
2026-01-20 02:31:23.89	115.34	18.16	-44.8	-53.9	3.8	8.45e-01	0	62	104	0	59	10699
2026-01-20 02:31:25.91	115.77	18.05	-44.7	-53.8	3.9	8.43e-01	0	62	104	0	59	10619
2026-01-20 02:31:27.94	116.20	17.94	-44.7	-53.3	4.0	8.42e-01	0	62	0	0	58	10595
2026-01-20 02:31:29.96	116.63	17.83	-44.8	-53.9	3.8	8.44e-01	0	62	104	0	59	10715
2026-01-20 02:31:31.98	117.05	17.72	-44.9	-55.1	3.8	8.48e-01	0	62	104	0	59	12373
2026-01-20 02:31:34.00	117.47	17.61	-45.0	-56.0	3.8	8.46e-01	0	62	104	0	59	13585
2026-01-20 02:31:36.02	117.88	17.50	-45.0	-55.5	3.8	8.46e-01	0	62	104	0	59	12882
2026-01-20 02:31:38.04	118.30	17.39	-44.6	-53.4	4.0	8.43e-01	0	62	104	0	59	10119
2026-01-20 02:31:40.06	118.71	17.28	-44.0	-50.2	5.2	7.56e-01	0	62	0	0	58	7379
2026-01-20 02:31:42.09	119.12	17.16	-42.7	-47.1	7.7	1.14e-01	0	62	0	10485760	56	5789
2026-01-20 02:31:44.11	119.52	17.05	-41.8	-45.4	9.2	2.03e-02	0	62	0	26214400	54	5389
2026-01-20 02:31:46.13	119.92	16.93	-42.7	-47.4	7.3	7.69e-02	0	62	0	39845888	54	6789
2026-01-20 02:31:48.15	120.32	16.81	-44.9	-54.9	3.8	8.45e-01	0	62	104	45088768	59	11984
2026-01-20 02:31:50.17	120.71	16.69	-42.0	-45.9	8.7	8.22e-02	0	62	0	50331648	55	5346
2026-01-20 02:31:52.19	121.10	16.58	-38.8	-41.2	13.6	2.05e-05	0	62	0	63963136	48	4665
2026-01-20 02:31:54.21	121.49	16.46	-37.4	-39.5	15.0	1.10e-06	0	62	0	79691776	45	4594
2026-01-20 02:31:56.23	121.88	16.34	-40.2	-42.8	11.8	4.36e-03	0	62	0	93323264	51	4725
2026-01-20 02:31:58.25	122.26	16.22	-40.4	-43.3	11.3	1.80e-02	0	62	0	102760448	51	4995
2026-01-20 02:32:00.27	122.64	16.10	-37.4	-39.6	14.9	2.20e-06	0	62	0	117440512	45	4618
2026-01-20 02:32:02.29	123.02	15.98	-37.2	-39.3	15.1	2.20e-06	0	62	0	131072000	45	4473
2026-01-20 02:32:04.31	123.39	15.85	-37.2	-39.2	15.2	9.10e-06	0	62	0	146800640	44	4698
2026-01-20 02:32:06.33	123.76	15.73	-37.0	-39.1	15.4	6.80e-06	0	62	0	160432128	44	4609
2026-01-20 02:32:08.35	124.13	15.61	-37.1	-39.2	15.2	3.40e-06	0	62	0	175112192	44	4679
2026-01-20 02:32:10.37	124.50	15.48	-37.2	-39.4	15.0	1.48e-05	0	62	0	189792256	44	4796
2026-01-20 02:32:12.39	124.86	15.36	-37.4	-39.6	14.8	2.28e-05	0	62	0	204472320	44	4898
2026-01-20 02:32:14.41	125.22	15.24	-37.6	-39.8	14.5	9.04e-05	0	62	0	219152384	44	4993
2026-01-20 02:32:16.43	125.57	15.11	-37.5	-40.0	14.2	8.42e-04	0	62	0	233832448	44	5102
2026-01-20 02:32:18.45	125.93	14.99	-37.7	-40.0	14.1	1.22e-03	0	62	0	248512512	44	5103
2026-01-20 02:32:20.46	126.28	14.86	-37.2	-39.7	14.1	2.68e-03	0	62	0	263192576	44	4958
2026-01-20 02:32:22.48	126.62	14.74	-37.1	-39.2	14.7	1.22e-02	0	62	0	277872640	43	4954
2026-01-20 02:32:24.50	126.97	14.61	-36.9	-39.0	14.9	8.76e-03	0	62	0	291504128	43	4834
2026-01-20 02:32:26.52	127.31	14.48	-36.9	-39.1	14.7	2.52e-02	0	62	0	306184192	43	4883
2026-01-20 02:32:28.54	127.65	14.36	-36.8	-39.2	14.5	4.25e-02	0	62	0	320864256	43	4960
2026-01-20 02:32:30.56	127.99	14.23	-36.6	-39.3	14.0	5.20e-02	0	62	0	334495744	43	4993
2026-01-20 02:32:32.58	128.32	14.10	-36.7	-39.4	13.3	8.16e-02	0	62	0	348127232	41	5718
2026-01-20 02:32:34.60	128.65	13.97	-31.3	-39.6	10.0	1.13e-01	0	62	0	361758720	39	6498
2026-01-20 02:32:36.62	128.98	13.85	-28.1	-40.2	9.2	1.23e-01	0	62	0	374341632	40	6632
2026-01-20 02:32:38.64	129.31	13.72	-34.8	-40.1	9.9	2.25e-01	0	62	0	386924544	37	7752
2026-01-20 02:32:40.66	129.63	13.59	-35.1	-40.1	11.7	1.99e-01	0	62	0	399507456	37	7740
2026-01-20 02:32:42.68	129.95	13.46	-30.6	-38.9	10.5	2.43e-01	0	62	0	411041792	32	9029
2026-01-20 02:32:44.70	130.27	13.33	-31.3	-38.3	10.0	2.46e-01	0	62	0	422576128	28	10604
2026-01-20 02:32:46.72	130.58	13.21	-31.0	-38.2	11.3	2.90e-01	0	62	0	434110464	28	10436
2026-01-20 02:32:48.73	130.89	13.08	-32.0	-38.1	9.7	2.89e-01	0	62	0	444596224	28	10325
2026-01-20 02:32:50.75	131.20	12.95	-31.0	-38.6	9.3	3.16e-01	0	62	0	455081984	27	11557
2026-01-20 02:32:52.77	131.51	12.82	-28.5	-38.9	9.6	3.60e-01	0	62	0	465567744	29	10662
2026-01-20 02:32:54.79	131.81	12.69	-32.1	-38.6	8.6	3.53e-01	0	62	0	475004928	30	9740
2026-01-20 02:32:56.81	132.11	12.56	-31.8	-38.8	8.4	3.57e-01	0	62	0	485490688	31	9401
2026-01-20 02:32:58.83	132.41	12.43	-23.7	-38.2	7.0	4.45e-01	0	62	0	492830720	23	13899
2026-01-20 02:33:00.85	132.71	12.31	-31.9	-39.3	8.3	4.65e-01	0	62	0	501219328	28	11819
2026-01-20 02:33:02.86	133.00	12.18	-30.5	-39.1	8.4	3.78e-01	0	62	0	508559360	31	9775
2026-01-20 02:33:04.89	133.29	12.05	-34.5	-40.3	8.9	3.22e-01	0	62	0	517996544	36	8410
2026-01-20 02:33:06.90	133.58	11.92	-33.4	-39.6	9.6	3.00e-01	0	62	0	528482304	35	8227
2026-01-20 02:33:08.92	133.87	11.79	-23.7	-38.4	8.5	2.64e-01	0	62	0	538968064	35	7126
2026-01-20 02:33:10.95	134.15	11.66	-34.0	-39.6	9.8	1.86e-01	0	62	0	551550976	37	7340
2026-01-20 02:33:12.96	134.43	11.53	-35.7	-39.4	10.6	1.21e-01	0	62	0	565182464	40	6052
2026-01-20 02:33:14.98	134.71	11.41	-36.1	-39.6	10.9	1.33e-01	0	62	0	577765376	40	6165
2026-01-20 02:33:17.01	134.99	11.28	-36.7	-39.6	10.2	1.11e-01	0	62	0	591396864	40	6173
2026-01-20 02:33:19.02	135.26	11.15	-36.6	-39.9	11.2	7.77e-02	0	62	0	605028352	41	6010
2026-01-20 02:33:21.04	135.54	11.02	-37.8	-40.5	11.8	1.04e-01	0	62	0	618659840	45	5102
2026-01-20 02:33:23.06	135.81	10.89	-36.9	-39.4	11.9	4.21e-02	0	62	0	633339904	43	5052
2026-01-20 02:33:25.08	136.08	10.76	-35.2	-39.4	12.0	3.65e-02	0	62	0	646971392	42	5393
2026-01-20 02:33:27.10	136.34	10.64	-38.0	-40.6	11.8	4.09e-02	0	62	0	661651456	45	5208
2026-01-20 02:33:29.12	136.60	10.51	-39.6	-43.0	9.7	6.83e-02	0	62	0	675282944	48	5772
2026-01-20 02:33:31.14	136.87	10.38	-40.7	-45.7	6.7	2.23e-01	0	62	0	688914432	51	6602
2026-01-20 02:33:33.16	137.12	10.25	-41.4	-48.2	5.0	7.47e-01	0	62	0	697303040	50	9347
2026-01-20 02:33:35.18	137.38	10.13	-42.2	-51.5	3.8	8.44e-01	0	62	104	697303040	52	12128
2026-01-20 02:33:37.20	137.64	10.00	-40.8	-52.0	4.1	8.43e-01	0	62	104	697303040	51	13595
2026-01-20 02:33:39.22	137.89	9.87	-41.7	-53.6	3.8	8.46e-01	0	62	104	697303040	52	15448
2026-01-20 02:33:41.24	138.14	9.74	-40.1	-54.4	3.8	8.46e-01	0	62	104	697303040	52	16918
2026-01-20 02:33:43.26	138.39	9.62	-42.1	-53.5	3.8	8.46e-01	0	62	104	697303040	48	19284
2026-01-20 02:33:45.28	138.63	9.49	-39.0	-53.4	3.8	8.45e-01	0	62	104	697303040	52	15139
2026-01-20 02:33:47.30	138.88	9.36	-43.4	-52.0	4.0	8.43e-01	0	62	0	697303040	56	10286
2026-01-20 02:33:49.31	139.12	9.24	-44.0	-54.2	3.8	8.47e-01	0	62	104	697303040	57	12378
2026-01-20 02:33:51.33	139.36	9.11	-42.5	-48.3	5.5	7.09e-01	0	62	0	697303040	54	7473
2026-01-20 02:33:53.35	139.60	8.99	-41.8	-46.5	6.9	2.17e-01	0	62	0	709885952	54	6128
2026-01-20 02:33:55.37	139.83	8.86	-40.7	-44.3	9.2	2.47e-02	0	62	0	724566016	51	5628
2026-01-20 02:33:57.39	140.07	8.74	-39.7	-42.7	10.8	3.13e-03	0	62	0	739246080	50	4939
2026-01-20 02:33:59.41	140.30	8.61	-39.3	-42.1	11.5	1.33e-03	0	62	0	753926144	49	4900
2026-01-20 02:34:01.42	140.53	8.49	-39.0	-41.6	12.0	6.20e-04	0	62	0	768606208	48	4918
2026-01-20 02:34:03.44	140.76	8.36	-39.1	-41.9	11.7	3.73e-04	0	62	0	783286272	48	5069
2026-01-20 02:34:05.46	140.98	8.24	-38.9	-41.6	12.1	5.32e-04	0	62	0	797966336	48	4878
2026-01-20 02:34:07.48	141.21	8.11	-39.3	-42.1	11.6	6.97e-04	0	62	0	812646400	48	5185
2026-01-20 02:34:09.50	141.43	7.99	-40.5	-44.0	9.9	7.04e-04	0	62	0	826277888	50	5723
2026-01-20 02:34:11.52	141.65	7.87	-44.9	-56.1	3.8	8.45e-01	0	62	104	827326464	58	14613
2026-01-20 02:34:13.54	141.87	7.74	-45.7	-57.0	3.8	8.47e-01	0	62	104	827326464	61	13636
2026-01-20 02:34:15.56	142.09	7.62	-45.9	-57.2	3.8	8.45e-01	0	62	104	827326464	61	13949
2026-01-20 02:34:17.58	142.30	7.50	-46.1	-57.3	3.8	8.46e-01	0	62	104	827326464	61	14080
2026-01-20 02:34:19.61	142.52	7.37	-46.0	-57.3	3.8	8.45e-01	0	62	104	827326464	61	14100
2026-01-20 02:34:21.63	142.73	7.25	-45.9	-57.2	3.8	8.46e-01	0	62	104	827326464	61	14019
2026-01-20 02:34:23.65	142.94	7.13	-45.9	-57.1	3.8	8.46e-01	0	62	104	827326464	61	13885
2026-01-20 02:34:25.67	143.15	7.01	-45.7	-57.0	3.8	8.47e-01	0	62	104	827326464	61	13658
2026-01-20 02:34:27.69	143.36	6.89	-45.7	-57.0	3.8	8.46e-01	0	62	104	827326464	61	13676
2026-01-20 02:34:29.71	143.56	6.76	-45.7	-57.0	3.8	8.46e-01	0	62	104	827326464	61	13701
2026-01-20 02:34:31.73	143.77	6.64	-45.7	-57.0	3.8	8.47e-01	0	62	104	827326464	61	13703
2026-01-20 02:34:33.75	143.97	6.52	-45.7	-57.0	3.8	8.46e-01	0	62	104	827326464	61	13696
2026-01-20 02:34:35.78	144.17	6.40	-45.7	-57.0	3.8	8.46e-01	0	62	104	827326464	61	13661
2026-01-20 02:34:37.79	144.37	6.28	-45.7	-57.0	3.8	8.46e-01	0	62	104	827326464	61	13599
2026-01-20 02:34:39.81	144.56	6.16	-45.7	-57.0	3.8	8.46e-01	0	62	104	827326464	61	13648
2026-01-20 02:34:41.83	144.76	6.04	-45.7	-57.0	3.8	8.46e-01	0	62	104	827326464	61	13612
2026-01-20 02:34:43.85	144.95	5.92	-45.7	-57.0	3.8	8.46e-01	0	62	104	827326464	61	13588
2026-01-20 02:34:45.87	145.15	5.80	-45.7	-57.0	3.8	8.47e-01	0	62	104	827326464	61	13577
2026-01-20 02:34:47.89	145.34	5.68	-45.7	-57.0	3.8	8.47e-01	0	62	104	827326464	61	13594
2026-01-20 02:34:49.92	145.53	5.57	-45.7	-57.0	3.8	8.47e-01	0	62	104	827326464	61	13597
2026-01-20 02:34:51.94	145.72	5.45	-45.7	-56.9	3.8	8.46e-01	0	62	104	827326464	61	13564
2026-01-20 02:34:53.96	145.90	5.33	-45.7	-57.0	3.8	8.46e-01	0	62	104	827326464	61	13619
2026-01-20 02:34:55.98	146.09	5.21	-45.7	-57.0	3.8	8.47e-01	0	62	104	827326464	61	13574
2026-01-20 02:34:58.00	146.27	5.09	-45.7	-57.0	3.8	8.46e-01	0	62	104	827326464	61	13605
2026-01-20 02:35:00.02	146.46	4.98	-45.6	-56.9	3.8	8.45e-01	0	62	104	827326464	61	13541
2026-01-20 02:35:02.04	146.64	4.86	-45.7	-56.9	3.8	8.46e-01	0	62	104	827326464	61	13568
2026-01-20 02:35:04.06	146.82	4.74	-45.7	-56.9	3.8	8.45e-01	0	63	104	827326464	61	13568
2026-01-20 02:35:06.09	147.00	4.63	-45.6	-57.0	3.8	8.46e-01	0	63	104	827326464	61	13588
2026-01-20 02:35:08.11	147.17	4.51	-45.6	-56.9	3.8	8.47e-01	0	62	104	827326464	61	13462
2026-01-20 02:35:10.13	147.35	4.39	-45.6	-57.0	3.8	8.45e-01	0	62	104	827326464	61	13595
2026-01-20 02:35:12.15	147.52	4.28	-45.6	-57.0	3.8	8.45e-01	0	62	104	827326464	61	13605
2026-01-20 02:35:14.17	147.70	4.16	-45.6	-56.9	3.8	8.47e-01	0	62	104	827326464	61	13527
2026-01-20 02:35:16.19	147.87	4.05	-45.6	-56.9	3.8	8.46e-01	0	62	104	827326464	61	13553
2026-01-20 02:35:18.21	148.04	3.93	-45.6	-56.9	3.8	8.45e-01	0	62	104	827326464	61	13486
2026-01-20 02:35:20.24	148.21	3.82	-45.6	-56.9	3.8	8.47e-01	0	62	104	827326464	61	13513
2026-01-20 02:35:22.26	148.38	3.70	-45.6	-56.9	3.8	8.46e-01	0	62	104	827326464	61	13536
2026-01-20 02:35:24.28	148.54	3.59	-45.6	-56.9	3.8	8.45e-01	0	62	104	827326464	61	13457
2026-01-20 02:35:26.30	148.71	3.48	-45.6	-56.9	3.8	8.47e-01	0	62	104	827326464	61	13471
2026-01-20 02:35:28.32	148.87	3.36	-45.6	-56.9	3.8	8.46e-01	0	62	104	827326464	61	13459
2026-01-20 02:35:30.34	149.03	3.25	-45.6	-56.9	3.8	8.47e-01	0	62	104	827326464	61	13502
2026-01-20 02:35:32.36	149.20	3.14	-45.6	-56.9	3.8	8.45e-01	0	62	104	827326464	61	13429
2026-01-20 02:35:34.38	149.36	3.03	-45.6	-56.9	3.8	8.45e-01	0	62	104	827326464	61	13471
2026-01-20 02:35:36.40	149.52	2.91	-45.6	-56.9	3.8	8.46e-01	0	62	104	827326464	61	13542
2026-01-20 02:35:38.42	149.67	2.80	-45.6	-56.9	3.8	8.48e-01	0	62	104	827326464	61	13486
2026-01-20 02:35:40.44	149.83	2.69	-45.6	-56.9	3.8	8.46e-01	0	63	104	827326464	61	13494
2026-01-20 02:35:42.46	149.99	2.58	-45.6	-56.9	3.8	8.47e-01	0	63	104	827326464	61	13453
2026-01-20 02:35:44.48	150.14	2.47	-45.6	-56.9	3.8	8.47e-01	0	62	104	827326464	61	13433
2026-01-20 02:35:46.50	150.30	2.36	-45.6	-56.9	3.8	8.47e-01	0	62	104	827326464	61	13417
2026-01-20 02:35:48.53	150.45	2.25	-45.6	-56.9	3.8	8.45e-01	0	63	104	827326464	61	13437
2026-01-20 02:35:50.55	150.60	2.14	-45.6	-56.9	3.8	8.46e-01	0	62	104	827326464	61	13437
2026-01-20 02:35:52.57	150.75	2.03	-45.6	-56.9	3.8	8.45e-01	0	62	104	827326464	61	13472
2026-01-20 02:35:54.59	150.90	1.92	-45.6	-56.9	3.8	8.47e-01	0	62	104	827326464	61	13460

#Closed at: 2026-01-20 02:35:54
#Recorded file [827 MB]: D:/lorett/data/31039_260120_053059.dat