passes_logs/2026/01/20/R2.0S_Moscow/R2.0S_Moscow__20260120_003903_FENGYUN_3D_rec.log

#Pass ID: 20260120_003903_FENGYUN 3D
#Satellite: FENGYUN 3D
#Configuration: FENGYUN 3D
#almurnet v.1.7.20251203
#Start time: 2026-01-20 00:39:04

#Version: 2.2.20231116
#Station: R2.0S_Moscow
#Location: 37.707566 lon 55.798166 lat
#TLE: 1 43010U 17072A   26019.30265705  .00000224  00000+0  12791-3 0  9991
#TLE: 2 43010  98.9940 351.1850 0002428 100.8496 259.2953 14.19697535423864

#Time	Az	El	Level	Level2	SNR	BER	BlckErr	Temp	State	Recorded	gain1	gain2
2026-01-20 00:39:04.54	22.76	2.05	-42.3	-54.4	3.8	8.46e-01	0	53	0	0	56	14362
2026-01-20 00:39:08.57	22.98	2.29	-42.2	-54.3	3.8	8.45e-01	0	53	104	0	55	14900
2026-01-20 00:39:12.61	23.20	2.53	-42.2	-54.2	3.8	8.46e-01	0	53	104	0	55	14866
2026-01-20 00:39:16.66	23.43	2.77	-42.2	-54.2	3.8	8.45e-01	0	54	104	0	55	14854
2026-01-20 00:39:20.70	23.66	3.01	-42.2	-54.2	3.8	8.45e-01	0	54	104	0	55	14854
2026-01-20 00:39:24.74	23.89	3.26	-42.2	-54.2	3.8	8.47e-01	0	54	104	0	55	14849
2026-01-20 00:39:28.78	24.13	3.51	-42.2	-54.3	3.8	8.47e-01	0	55	104	0	55	14922
2026-01-20 00:39:32.82	24.37	3.76	-42.2	-54.2	3.8	8.46e-01	0	55	104	0	55	14845
2026-01-20 00:39:36.86	24.61	4.01	-42.2	-54.3	3.8	8.46e-01	0	55	104	0	55	14904
2026-01-20 00:39:40.91	24.86	4.26	-42.2	-54.3	3.8	8.46e-01	0	55	104	0	55	14953
2026-01-20 00:39:44.95	25.11	4.51	-42.2	-54.2	3.8	8.46e-01	0	56	104	0	55	14847
2026-01-20 00:39:48.99	25.37	4.77	-42.2	-54.3	3.8	8.45e-01	0	56	104	0	55	14890
2026-01-20 00:39:53.03	25.63	5.03	-42.2	-54.2	3.8	8.46e-01	0	56	104	0	55	14856
2026-01-20 00:39:57.08	25.89	5.29	-42.2	-54.2	3.8	8.46e-01	0	56	104	0	55	14857
2026-01-20 00:40:01.12	26.16	5.55	-42.1	-54.2	3.8	8.46e-01	0	56	104	0	55	14758
2026-01-20 00:40:05.16	26.44	5.82	-42.1	-54.2	3.8	8.45e-01	0	57	104	0	55	14710
2026-01-20 00:40:09.20	26.72	6.09	-42.1	-54.1	3.8	8.45e-01	0	57	104	0	55	14584
2026-01-20 00:40:13.24	27.00	6.36	-42.1	-54.0	3.8	8.46e-01	0	57	104	0	55	14510
2026-01-20 00:40:17.28	27.29	6.63	-42.1	-53.4	3.8	8.45e-01	0	57	104	0	55	13556
2026-01-20 00:40:21.32	27.58	6.90	-41.9	-51.9	3.8	8.43e-01	0	57	104	0	55	11306
2026-01-20 00:40:25.36	27.88	7.18	-42.0	-52.9	3.8	8.45e-01	0	58	104	0	55	12797
2026-01-20 00:40:29.40	28.18	7.46	-41.1	-47.5	5.7	4.27e-01	0	58	0	5242880	54	7254
2026-01-20 00:40:33.45	28.50	7.74	-40.0	-44.3	8.7	3.97e-02	0	58	0	28311552	51	5930
2026-01-20 00:40:37.49	28.81	8.02	-39.5	-43.2	9.8	1.82e-02	0	58	0	50331648	51	5276
2026-01-20 00:40:41.53	29.13	8.31	-40.3	-43.9	9.8	1.39e-02	0	58	0	63963136	52	5393
2026-01-20 00:40:45.58	29.46	8.60	-39.0	-41.8	12.0	3.22e-04	0	58	0	87031808	50	4736
2026-01-20 00:40:49.61	29.79	8.89	-38.9	-41.6	12.3	1.57e-04	0	58	0	110100480	49	4905
2026-01-20 00:40:53.65	30.13	9.18	-38.9	-41.5	12.5	8.12e-05	0	59	0	132120576	49	4847
2026-01-20 00:40:57.68	30.48	9.48	-39.1	-41.7	12.4	7.09e-05	0	59	0	155189248	49	4938
2026-01-20 00:41:01.72	30.83	9.78	-39.3	-41.9	12.4	1.10e-04	0	59	0	178257920	49	5048
2026-01-20 00:41:05.76	31.19	10.08	-39.2	-41.7	12.6	5.37e-05	0	59	0	200278016	49	4973
2026-01-20 00:41:09.79	31.56	10.39	-39.3	-41.8	12.7	6.06e-05	0	59	0	223346688	49	4986
2026-01-20 00:41:13.83	31.93	10.69	-39.0	-41.4	13.1	1.37e-05	0	59	0	245366784	49	4781
2026-01-20 00:41:17.86	32.32	11.00	-38.9	-41.2	13.3	1.60e-05	0	59	0	268435456	49	4678
2026-01-20 00:41:21.91	32.71	11.32	-38.9	-41.2	13.5	8.00e-06	0	59	0	291504128	49	4655
2026-01-20 00:41:25.95	33.11	11.64	-38.9	-41.2	13.4	8.00e-06	0	59	0	314572800	49	4673
2026-01-20 00:41:29.98	33.51	11.95	-38.8	-40.9	13.8	6.80e-06	0	59	0	336592896	49	4539
2026-01-20 00:41:34.02	33.93	12.28	-38.7	-40.9	13.9	2.20e-06	0	59	0	359661568	49	4499
2026-01-20 00:41:38.06	34.35	12.60	-38.8	-40.9	13.9	1.10e-06	0	60	0	381681664	49	4502
2026-01-20 00:41:42.10	34.78	12.93	-38.8	-40.9	13.9	0.00e+00	0	59	0	404750336	49	4517
2026-01-20 00:41:46.14	35.23	13.26	-38.6	-40.6	14.2	1.10e-06	0	60	0	427819008	49	4385
2026-01-20 00:41:50.18	35.68	13.60	-38.5	-40.5	14.4	1.10e-06	0	60	0	449839104	48	4571
2026-01-20 00:41:54.22	36.14	13.93	-38.6	-40.6	14.3	0.00e+00	0	60	0	472907776	48	4646
2026-01-20 00:41:58.25	36.61	14.27	-38.4	-40.4	14.6	0.00e+00	0	60	0	495976448	48	4506
2026-01-20 00:42:02.29	37.10	14.62	-38.5	-40.4	14.5	0.00e+00	0	60	0	519045120	48	4538
2026-01-20 00:42:06.33	37.59	14.96	-38.3	-40.3	14.7	0.00e+00	0	60	0	541065216	48	4453
2026-01-20 00:42:10.37	38.10	15.31	-38.3	-40.3	14.7	0.00e+00	0	60	0	564133888	48	4448
2026-01-20 00:42:14.41	38.61	15.67	-38.1	-39.9	15.1	0.00e+00	0	60	0	586153984	48	4282
2026-01-20 00:42:18.44	39.14	16.02	-38.1	-40.0	15.1	0.00e+00	0	60	0	609222656	48	4293
2026-01-20 00:42:22.48	39.68	16.38	-38.1	-39.9	15.2	0.00e+00	0	60	0	632291328	48	4280
2026-01-20 00:42:26.52	40.24	16.74	-37.8	-39.5	15.5	0.00e+00	0	60	0	654311424	47	4321
2026-01-20 00:42:30.57	40.81	17.11	-37.7	-39.4	15.6	0.00e+00	0	60	0	677380096	47	4290
2026-01-20 00:42:34.60	41.39	17.48	-37.7	-39.4	15.6	0.00e+00	0	60	0	700448768	47	4287
2026-01-20 00:42:38.64	41.98	17.85	-37.7	-39.5	15.6	0.00e+00	0	60	0	723517440	47	4307
2026-01-20 00:42:42.68	42.59	18.22	-37.7	-39.4	15.7	0.00e+00	0	61	0	745537536	47	4291
2026-01-20 00:42:46.72	43.21	18.59	-37.6	-39.3	15.9	0.00e+00	0	60	0	768606208	47	4203
2026-01-20 00:42:50.76	43.85	18.97	-37.5	-39.2	15.9	0.00e+00	0	61	0	790626304	47	4164
2026-01-20 00:42:54.80	44.51	19.35	-37.4	-39.0	16.1	0.00e+00	0	60	0	813694976	46	4334
2026-01-20 00:42:58.84	45.18	19.74	-37.3	-39.0	16.2	0.00e+00	0	61	0	836763648	46	4294
2026-01-20 00:43:02.88	45.86	20.12	-37.4	-39.0	16.1	0.00e+00	0	60	0	858783744	46	4330
2026-01-20 00:43:06.92	46.57	20.51	-37.3	-39.0	16.2	0.00e+00	0	61	0	881852416	46	4293
2026-01-20 00:43:10.96	47.29	20.89	-37.1	-38.7	16.5	0.00e+00	0	61	0	904921088	46	4187
2026-01-20 00:43:15.00	48.03	21.28	-37.1	-38.7	16.6	0.00e+00	0	61	0	927989760	46	4149
2026-01-20 00:43:19.03	48.79	21.67	-37.2	-38.8	16.4	0.00e+00	0	61	0	950009856	46	4212
2026-01-20 00:43:23.07	49.57	22.07	-37.2	-38.8	16.4	0.00e+00	0	61	0	973078528	46	4234
2026-01-20 00:43:27.12	50.36	22.46	-37.0	-38.5	16.7	0.00e+00	0	61	0	995098624	45	4336
2026-01-20 00:43:31.16	51.18	22.85	-36.9	-38.4	16.8	0.00e+00	0	61	0	1018167296	45	4279
2026-01-20 00:43:35.19	52.02	23.25	-36.8	-38.3	16.9	0.00e+00	0	61	0	1041235968	45	4213
2026-01-20 00:43:39.23	52.87	23.64	-36.8	-38.3	17.0	0.00e+00	0	61	0	1063256064	45	4222
2026-01-20 00:43:43.27	53.75	24.03	-36.8	-38.4	16.9	0.00e+00	0	61	0	1086324736	45	4265
2026-01-20 00:43:47.30	54.65	24.42	-36.5	-38.0	17.3	0.00e+00	0	61	0	1109393408	45	4059
2026-01-20 00:43:51.34	55.58	24.81	-36.3	-38.0	17.0	0.00e+00	0	61	0	1132462080	44	4295
2026-01-20 00:43:55.38	56.52	25.20	-36.4	-38.0	16.9	0.00e+00	0	61	0	1154482176	44	4328
2026-01-20 00:43:59.42	57.49	25.58	-36.3	-37.9	17.1	0.00e+00	0	61	0	1177550848	44	4269
2026-01-20 00:44:03.46	58.49	25.96	-36.1	-37.7	17.3	0.00e+00	0	61	0	1199570944	44	4158
2026-01-20 00:44:07.50	59.50	26.34	-36.1	-37.6	17.4	0.00e+00	0	61	0	1222639616	44	4123
2026-01-20 00:44:11.55	60.54	26.72	-36.1	-37.7	17.4	0.00e+00	0	61	0	1245708288	44	4163
2026-01-20 00:44:15.59	61.61	27.09	-35.8	-37.3	17.6	0.00e+00	0	61	0	1268776960	43	4221
2026-01-20 00:44:19.63	62.70	27.45	-35.6	-37.1	17.7	0.00e+00	0	61	0	1290797056	43	4142
2026-01-20 00:44:23.67	63.81	27.81	-35.7	-37.3	17.7	0.00e+00	0	61	0	1313865728	43	4195
2026-01-20 00:44:27.70	64.95	28.16	-35.5	-36.9	17.9	0.00e+00	0	61	0	1336934400	42	4290
2026-01-20 00:44:31.74	66.11	28.50	-35.8	-37.3	17.6	0.00e+00	0	61	0	1358954496	42	4462
2026-01-20 00:44:35.78	67.30	28.83	-35.8	-37.3	17.6	0.00e+00	0	62	0	1382023168	42	4485
2026-01-20 00:44:39.82	68.51	29.15	-35.9	-37.4	17.5	0.00e+00	0	61	0	1404043264	42	4534
2026-01-20 00:44:43.85	69.74	29.47	-35.6	-37.1	17.8	0.00e+00	0	61	0	1427111936	42	4367
2026-01-20 00:44:47.89	71.00	29.77	-35.7	-37.2	17.7	0.00e+00	0	61	0	1450180608	42	4422
2026-01-20 00:44:51.93	72.28	30.06	-35.8	-37.3	17.6	0.00e+00	0	61	0	1472200704	42	4467
2026-01-20 00:44:55.97	73.58	30.34	-35.6	-37.1	17.8	0.00e+00	0	61	0	1495269376	42	4368
2026-01-20 00:45:00.00	74.91	30.60	-35.7	-37.3	17.6	0.00e+00	0	61	0	1518338048	42	4473
2026-01-20 00:45:04.04	76.25	30.85	-35.8	-37.3	17.6	0.00e+00	0	61	0	1541406720	42	4471
2026-01-20 00:45:08.08	77.62	31.08	-35.7	-37.2	17.8	0.00e+00	0	62	0	1563426816	42	4427
2026-01-20 00:45:12.12	79.01	31.30	-35.7	-37.2	17.8	0.00e+00	0	62	0	1586495488	42	4409
2026-01-20 00:45:16.16	80.41	31.50	-35.7	-37.2	17.7	0.00e+00	0	61	0	1608515584	42	4429
2026-01-20 00:45:20.20	81.83	31.69	-35.6	-37.2	17.8	0.00e+00	0	62	0	1631584256	42	4394
2026-01-20 00:45:24.24	83.27	31.85	-35.8	-37.3	17.7	0.00e+00	0	61	0	1654652928	42	4473
2026-01-20 00:45:28.28	84.72	32.00	-35.8	-37.4	17.6	0.00e+00	0	61	0	1676673024	42	4506
2026-01-20 00:45:32.31	86.18	32.13	-35.8	-37.3	17.8	0.00e+00	0	62	0	1699741696	42	4448
2026-01-20 00:45:36.35	87.65	32.23	-35.4	-36.9	18.1	0.00e+00	0	62	0	1722810368	42	4271
2026-01-20 00:45:40.39	89.14	32.32	-35.7	-37.2	17.8	0.00e+00	0	61	0	1745879040	42	4430
2026-01-20 00:45:44.43	90.63	32.39	-35.7	-37.2	17.8	0.00e+00	0	62	0	1767899136	42	4428
2026-01-20 00:45:48.47	92.12	32.43	-35.6	-37.1	17.8	0.00e+00	0	62	0	1790967808	42	4385
2026-01-20 00:45:52.51	93.62	32.46	-35.6	-37.0	17.9	0.00e+00	0	62	0	1812987904	42	4337
2026-01-20 00:45:56.55	95.12	32.46	-35.6	-37.1	17.8	0.00e+00	0	62	0	1836056576	42	4387
2026-01-20 00:46:00.58	96.61	32.44	-35.9	-37.4	17.6	0.00e+00	0	62	0	1859125248	42	4517
2026-01-20 00:46:04.62	98.11	32.40	-35.8	-37.4	17.7	0.00e+00	0	62	0	1881145344	42	4495
2026-01-20 00:46:08.65	99.60	32.34	-35.5	-37.0	18.0	0.00e+00	0	62	0	1904214016	42	4303
2026-01-20 00:46:12.69	101.08	32.26	-35.5	-37.0	18.0	0.00e+00	0	62	0	1927282688	42	4339
2026-01-20 00:46:16.73	102.56	32.15	-35.8	-37.4	17.6	0.00e+00	0	62	0	1949302784	42	4523
2026-01-20 00:46:20.77	104.03	32.03	-35.8	-37.3	17.7	0.00e+00	0	62	0	1972371456	42	4486
2026-01-20 00:46:24.81	105.48	31.89	-35.9	-37.4	17.6	0.00e+00	0	62	0	1995440128	42	4534
2026-01-20 00:46:28.85	106.92	31.73	-35.7	-37.3	17.8	0.00e+00	0	62	0	2017460224	42	4453
2026-01-20 00:46:32.88	108.35	31.55	-35.7	-37.2	17.8	0.00e+00	0	62	0	2040528896	42	4429
2026-01-20 00:46:36.92	109.76	31.35	-35.7	-37.3	17.8	0.00e+00	0	62	0	2063597568	42	4445
2026-01-20 00:46:40.96	111.15	31.14	-36.0	-37.6	17.5	0.00e+00	0	62	0	2085617664	42	4604
2026-01-20 00:46:45.00	112.53	30.90	-35.9	-37.4	17.6	0.00e+00	0	62	0	2108686336	42	4536
2026-01-20 00:46:49.04	113.88	30.66	-36.0	-37.5	17.6	0.00e+00	0	62	0	2131755008	42	4576
2026-01-20 00:46:53.08	115.22	30.40	-35.8	-37.3	17.7	0.00e+00	0	62	0	2153775104	42	4467
2026-01-20 00:46:57.12	116.53	30.12	-36.0	-37.6	17.5	0.00e+00	0	62	0	2176843776	42	4600
2026-01-20 00:47:01.17	117.83	29.83	-35.8	-37.4	17.6	0.00e+00	0	62	0	2199912448	42	4509
2026-01-20 00:47:05.20	119.09	29.53	-36.0	-37.5	17.6	0.00e+00	0	62	0	2221932544	42	4576
2026-01-20 00:47:09.24	120.34	29.22	-35.9	-37.5	17.5	0.00e+00	0	62	0	2245001216	42	4569
2026-01-20 00:47:13.28	121.56	28.89	-35.9	-37.5	17.5	0.00e+00	0	62	0	2268069888	42	4574
2026-01-20 00:47:17.32	122.75	28.56	-36.0	-37.6	17.5	0.00e+00	0	62	0	2290089984	42	4607
2026-01-20 00:47:21.36	123.93	28.22	-36.1	-37.7	17.4	0.00e+00	0	62	0	2313158656	43	4415
2026-01-20 00:47:25.40	125.07	27.87	-36.3	-38.0	17.1	0.00e+00	0	62	0	2336227328	43	4553
2026-01-20 00:47:29.44	126.20	27.51	-36.1	-37.7	17.4	0.00e+00	0	62	0	2359296000	43	4400
2026-01-20 00:47:33.48	127.30	27.15	-36.1	-37.7	17.3	0.00e+00	0	62	0	2381316096	43	4439
2026-01-20 00:47:37.52	128.37	26.78	-36.2	-37.9	17.2	0.00e+00	0	62	0	2404384768	43	4500
2026-01-20 00:47:41.56	129.42	26.40	-36.1	-37.7	17.3	0.00e+00	0	62	0	2426404864	43	4441
2026-01-20 00:47:45.59	130.44	26.02	-36.2	-37.9	17.1	0.00e+00	0	62	0	2449473536	43	4500
2026-01-20 00:47:49.63	131.44	25.64	-36.2	-37.9	17.1	0.00e+00	0	62	0	2472542208	43	4503
2026-01-20 00:47:53.67	132.42	25.25	-36.2	-37.8	17.2	0.00e+00	0	62	0	2494562304	43	4458
2026-01-20 00:47:57.71	133.38	24.86	-36.4	-38.1	16.9	0.00e+00	0	62	0	2517630976	43	4602
2026-01-20 00:48:01.75	134.31	24.47	-36.4	-38.1	16.9	0.00e+00	0	62	0	2540699648	43	4608
2026-01-20 00:48:05.79	135.22	24.08	-36.6	-38.2	16.8	0.00e+00	0	62	0	2563768320	43	4689
2026-01-20 00:48:09.83	136.11	23.68	-36.5	-38.1	16.8	0.00e+00	0	62	0	2585788416	43	4643
2026-01-20 00:48:13.87	136.97	23.29	-36.5	-38.2	16.8	0.00e+00	0	62	0	2608857088	43	4667
2026-01-20 00:48:17.91	137.82	22.89	-36.7	-38.3	16.6	0.00e+00	0	62	0	2630877184	43	4754
2026-01-20 00:48:21.95	138.64	22.49	-37.1	-38.9	16.2	0.00e+00	0	62	0	2653945856	44	4782
2026-01-20 00:48:25.99	139.44	22.10	-37.1	-38.9	16.2	0.00e+00	0	62	0	2677014528	44	4766
2026-01-20 00:48:30.03	140.23	21.70	-37.3	-39.2	15.9	0.00e+00	0	62	0	2699034624	45	4659
2026-01-20 00:48:34.07	140.99	21.31	-37.3	-39.1	15.9	0.00e+00	0	62	0	2722103296	45	4644
2026-01-20 00:48:38.11	141.74	20.91	-37.1	-38.8	16.2	0.00e+00	0	62	0	2745171968	45	4476
2026-01-20 00:48:42.15	142.47	20.52	-37.1	-38.8	16.2	0.00e+00	0	62	0	2768240640	45	4464
2026-01-20 00:48:46.19	143.18	20.13	-37.3	-39.2	15.9	0.00e+00	0	62	0	2790260736	45	4657
2026-01-20 00:48:50.23	143.87	19.74	-37.5	-39.3	15.7	0.00e+00	0	62	0	2813329408	45	4743
2026-01-20 00:48:54.26	144.54	19.36	-37.5	-39.3	15.7	0.00e+00	0	62	0	2835349504	45	4753
2026-01-20 00:48:58.31	145.20	18.97	-37.5	-39.3	15.7	0.00e+00	0	62	0	2858418176	45	4734
2026-01-20 00:49:02.35	145.85	18.59	-37.7	-39.6	15.3	0.00e+00	0	62	0	2881486848	45	4914
2026-01-20 00:49:06.38	146.47	18.21	-37.9	-39.9	15.1	0.00e+00	0	62	0	2904555520	46	4814
2026-01-20 00:49:10.42	147.09	17.84	-37.9	-39.8	15.2	0.00e+00	0	62	0	2926575616	46	4746
2026-01-20 00:49:14.46	147.69	17.46	-38.0	-40.0	15.0	1.10e-06	0	62	0	2949644288	46	4848
2026-01-20 00:49:18.50	148.27	17.09	-38.2	-40.2	14.8	0.00e+00	0	62	0	2972712960	47	4667
2026-01-20 00:49:22.54	148.84	16.72	-38.0	-40.0	15.0	0.00e+00	0	62	0	2994733056	47	4558
2026-01-20 00:49:26.58	149.40	16.36	-38.0	-40.0	15.0	0.00e+00	0	62	0	3017801728	47	4570
2026-01-20 00:49:30.62	149.94	16.00	-38.0	-40.0	14.9	0.00e+00	0	62	0	3039821824	47	4572
2026-01-20 00:49:34.66	150.47	15.64	-38.1	-40.1	14.8	0.00e+00	0	62	0	3062890496	47	4608
2026-01-20 00:49:38.70	150.99	15.28	-38.2	-40.3	14.6	0.00e+00	0	62	0	3085959168	47	4711
2026-01-20 00:49:42.74	151.50	14.93	-38.3	-40.4	14.5	0.00e+00	0	62	0	3109027840	47	4792
2026-01-20 00:49:46.78	152.00	14.58	-38.4	-40.5	14.4	0.00e+00	0	62	0	3131047936	47	4843
2026-01-20 00:49:50.82	152.48	14.23	-38.5	-40.6	14.2	1.10e-06	0	62	0	3154116608	47	4925
2026-01-20 00:49:54.85	152.95	13.89	-38.5	-40.7	14.1	2.20e-06	0	62	0	3177185280	47	4956
2026-01-20 00:49:58.89	153.42	13.54	-38.5	-40.7	14.1	1.10e-06	0	62	0	3199205376	47	4954
2026-01-20 00:50:02.94	153.87	13.21	-38.7	-40.9	13.9	2.20e-06	0	62	0	3222274048	47	5081
2026-01-20 00:50:06.98	154.32	12.87	-38.9	-41.2	13.7	2.20e-06	0	62	0	3244294144	48	4944
2026-01-20 00:50:11.01	154.75	12.54	-39.0	-41.3	13.5	5.70e-06	0	62	0	3267362816	48	5018
2026-01-20 00:50:15.05	155.17	12.21	-39.0	-41.3	13.5	8.00e-06	0	62	0	3290431488	48	5002
2026-01-20 00:50:19.09	155.59	11.89	-39.1	-41.5	13.3	9.10e-06	0	62	0	3313500160	48	5105
2026-01-20 00:50:23.13	156.00	11.56	-39.2	-41.7	13.0	1.48e-05	0	62	0	3335520256	49	4970
2026-01-20 00:50:27.17	156.39	11.24	-39.2	-41.7	13.0	1.71e-05	0	62	0	3358588928	49	4949
2026-01-20 00:50:31.20	156.78	10.93	-39.2	-41.7	12.9	1.94e-05	0	62	0	3381657600	49	4959
2026-01-20 00:50:35.24	157.17	10.61	-39.2	-41.7	12.9	2.63e-05	0	62	0	3403677696	49	4973
2026-01-20 00:50:39.28	157.54	10.30	-39.2	-41.7	12.9	3.43e-05	0	62	0	3426746368	49	4943
2026-01-20 00:50:43.32	157.91	10.00	-39.3	-41.8	12.7	5.26e-05	0	62	0	3448766464	49	5018
2026-01-20 00:50:47.37	158.27	9.69	-39.3	-41.9	12.6	4.23e-05	0	62	0	3471835136	49	5047
2026-01-20 00:50:51.41	158.62	9.39	-39.4	-42.0	12.5	6.40e-05	0	62	0	3494903808	49	5105
2026-01-20 00:50:55.45	158.97	9.09	-39.4	-42.1	12.3	1.01e-04	0	62	0	3517972480	49	5193
2026-01-20 00:50:59.49	159.31	8.79	-39.3	-41.9	12.4	1.05e-04	0	62	0	3539992576	49	5098
2026-01-20 00:51:03.52	159.64	8.50	-39.3	-42.0	12.3	1.32e-04	0	62	0	3563061248	49	5116
2026-01-20 00:51:07.56	159.96	8.21	-39.5	-42.2	12.0	2.47e-04	0	62	0	3586129920	49	5267
2026-01-20 00:51:11.60	160.28	7.92	-44.7	-56.2	3.8	8.47e-01	0	62	104	3602907136	59	14794
2026-01-20 00:51:15.64	160.60	7.63	-45.3	-57.1	3.8	8.47e-01	0	62	104	3602907136	61	14680
2026-01-20 00:51:19.69	160.91	7.35	-45.4	-57.2	3.8	8.47e-01	0	62	104	3602907136	61	14756
2026-01-20 00:51:23.73	161.21	7.06	-45.3	-57.0	3.8	8.45e-01	0	62	104	3602907136	61	14390
2026-01-20 00:51:27.77	161.50	6.78	-45.2	-56.9	3.8	8.45e-01	0	62	104	3602907136	61	14316
2026-01-20 00:51:31.82	161.80	6.51	-45.2	-56.9	3.8	8.46e-01	0	62	104	3602907136	61	14247
2026-01-20 00:51:35.86	162.08	6.23	-45.2	-56.9	3.8	8.45e-01	0	62	104	3602907136	61	14221
2026-01-20 00:51:39.90	162.36	5.96	-45.2	-56.9	3.8	8.46e-01	0	62	104	3602907136	61	14257
2026-01-20 00:51:43.94	162.64	5.69	-45.2	-56.9	3.8	8.47e-01	0	62	104	3602907136	61	14231
2026-01-20 00:51:47.98	162.91	5.42	-45.2	-56.9	3.8	8.46e-01	0	62	104	3602907136	61	14211
2026-01-20 00:51:52.03	163.18	5.16	-45.2	-56.8	3.8	8.46e-01	0	62	104	3602907136	61	14179
2026-01-20 00:51:56.07	163.44	4.89	-45.2	-56.8	3.8	8.47e-01	0	62	104	3602907136	61	14190
2026-01-20 00:52:00.11	163.70	4.63	-45.2	-56.8	3.8	8.46e-01	0	62	104	3602907136	61	14178
2026-01-20 00:52:04.15	163.95	4.37	-45.2	-56.8	3.8	8.46e-01	0	62	104	3602907136	61	14173
2026-01-20 00:52:08.19	164.20	4.12	-45.2	-56.8	3.8	8.46e-01	0	62	104	3602907136	61	14145
2026-01-20 00:52:12.23	164.45	3.86	-45.2	-56.8	3.8	8.46e-01	0	62	104	3602907136	61	14154
2026-01-20 00:52:16.27	164.69	3.61	-45.2	-56.8	3.8	8.47e-01	0	62	104	3602907136	61	14157
2026-01-20 00:52:20.31	164.92	3.36	-45.1	-56.8	3.8	8.45e-01	0	62	104	3602907136	61	14148
2026-01-20 00:52:24.35	165.16	3.11	-45.1	-56.8	3.8	8.46e-01	0	62	104	3602907136	61	14090
2026-01-20 00:52:28.39	165.39	2.86	-45.1	-56.8	3.8	8.46e-01	0	62	104	3602907136	61	14121
2026-01-20 00:52:32.43	165.61	2.62	-45.1	-56.8	3.8	8.46e-01	0	62	104	3602907136	61	14097
2026-01-20 00:52:36.48	165.84	2.37	-45.1	-56.8	3.8	8.46e-01	0	62	104	3602907136	61	14084
2026-01-20 00:52:40.52	166.05	2.13	-45.1	-56.7	3.8	8.46e-01	0	62	104	3602907136	61	14041

#Closed at: 2026-01-20 00:52:43
#Recorded file [3602 MB]: D:/lorett/data/31039_260120_033904.dat