passes_logs/2026/01/20/R2.0S_Moscow/R2.0S_Moscow__20260120_234209_AQUA_rec.log

#Pass ID: 20260120_234209_AQUA
#Satellite: AQUA
#Configuration: AQUA
#almurnet v.1.7.20251203
#Start time: 2026-01-20 23:42:08

#Version: 2.2.20231116
#Station: R2.0S_Moscow
#Location: 37.707566 lon 55.798166 lat
#TLE: 1 27424U 02022A   26020.30984080  .00001497  00000+0  30942-3 0  9998
#TLE: 2 27424  98.4092 346.8266 0001984  71.7888  69.0903 14.61835321261661

#Time	Az	El	Level	Level2	SNR	BER	BlckErr	Temp	State	Recorded	gain1	gain2
2026-01-20 23:42:08.57	29.88	1.98	-43.4	-63.1	3.8	7.46e-01	0	50	0	0	58	34689
2026-01-20 23:42:11.59	30.16	2.14	-43.4	-63.1	3.8	7.44e-01	0	50	104	0	57	36702
2026-01-20 23:42:14.62	30.45	2.29	-43.4	-63.1	3.8	7.46e-01	0	50	104	0	57	36658
2026-01-20 23:42:17.65	30.75	2.45	-43.3	-63.1	3.8	7.44e-01	0	51	104	0	57	36631
2026-01-20 23:42:20.68	31.04	2.61	-43.4	-63.1	3.8	7.42e-01	0	51	104	0	57	36644
2026-01-20 23:42:23.72	31.34	2.77	-43.4	-63.1	3.8	7.49e-01	0	51	104	0	57	36635
2026-01-20 23:42:26.75	31.65	2.93	-43.3	-63.1	3.8	7.45e-01	0	51	104	0	57	36737
2026-01-20 23:42:29.78	31.95	3.09	-43.3	-63.1	3.8	7.45e-01	0	51	104	0	57	36586
2026-01-20 23:42:32.81	32.26	3.25	-43.4	-63.1	3.8	7.46e-01	0	51	104	0	57	36668
2026-01-20 23:42:35.84	32.58	3.41	-43.4	-63.1	3.8	7.48e-01	0	51	104	0	57	36644
2026-01-20 23:42:38.87	32.89	3.57	-43.4	-63.1	3.8	7.46e-01	0	52	104	0	57	36623
2026-01-20 23:42:41.90	33.21	3.73	-43.3	-63.1	3.8	7.47e-01	0	52	104	0	57	36587
2026-01-20 23:42:44.94	33.54	3.90	-43.4	-63.1	3.8	7.45e-01	0	52	104	0	57	36571
2026-01-20 23:42:47.97	33.87	4.06	-43.4	-63.1	3.8	7.43e-01	0	52	104	0	57	36541
2026-01-20 23:42:51.00	34.20	4.22	-43.4	-63.1	3.8	7.46e-01	0	52	104	0	57	36535
2026-01-20 23:42:54.03	34.54	4.39	-43.3	-63.1	3.8	7.41e-01	0	53	104	0	57	36573
2026-01-20 23:42:57.06	34.88	4.55	-43.3	-63.1	3.8	7.46e-01	0	53	104	0	57	36652
2026-01-20 23:43:00.09	35.22	4.71	-43.4	-63.1	3.8	7.45e-01	0	53	104	0	57	36546
2026-01-20 23:43:03.13	35.57	4.88	-43.3	-63.1	3.8	7.46e-01	0	53	104	0	57	36561
2026-01-20 23:43:06.16	35.92	5.04	-43.4	-63.1	3.8	7.45e-01	0	53	104	0	57	36623
2026-01-20 23:43:09.19	36.28	5.21	-43.4	-63.1	3.8	7.44e-01	0	53	104	0	57	36583
2026-01-20 23:43:12.22	36.64	5.37	-43.3	-63.1	3.8	7.43e-01	0	53	104	0	57	36549
2026-01-20 23:43:15.25	37.01	5.54	-43.3	-63.0	3.8	7.43e-01	0	53	104	0	57	36515
2026-01-20 23:43:18.29	37.38	5.70	-43.4	-63.1	3.8	7.47e-01	0	54	104	0	57	36577
2026-01-20 23:43:21.32	37.75	5.87	-43.3	-63.1	3.8	7.43e-01	0	54	104	0	57	36543
2026-01-20 23:43:24.35	38.13	6.04	-43.4	-63.1	3.8	7.43e-01	0	54	104	0	57	36528
2026-01-20 23:43:27.38	38.51	6.20	-43.3	-63.1	3.8	7.46e-01	0	54	104	0	57	36529
2026-01-20 23:43:30.41	38.90	6.37	-43.3	-63.0	3.8	7.43e-01	0	54	104	0	57	36141
2026-01-20 23:43:33.44	39.29	6.54	-43.4	-62.7	3.8	7.45e-01	0	54	104	0	57	35063
2026-01-20 23:43:36.48	39.69	6.70	-43.3	-62.5	3.8	7.47e-01	0	54	104	0	57	34115
2026-01-20 23:43:39.51	40.09	6.87	-43.3	-61.8	3.8	7.48e-01	0	54	104	0	57	31572
2026-01-20 23:43:42.54	40.50	7.04	-43.2	-57.5	4.9	7.09e-01	0	54	0	0	57	19286
2026-01-20 23:43:45.57	40.91	7.20	-43.0	-55.0	6.7	6.67e-01	93	55	0	3145728	57	14512
2026-01-20 23:43:48.60	41.33	7.37	-43.0	-55.0	6.9	6.66e-01	92	55	0	8912896	57	14414
2026-01-20 23:43:51.63	41.75	7.54	-43.3	-60.0	4.1	7.39e-01	0	55	104	11010048	57	25641
2026-01-20 23:43:54.66	42.18	7.71	-43.1	-56.9	5.3	7.04e-01	41	55	104	11010048	57	18005
2026-01-20 23:43:57.69	42.61	7.87	-42.4	-50.3	11.6	6.10e-01	0	55	0	16252928	56	8868
2026-01-20 23:44:00.72	43.05	8.04	-42.2	-48.6	13.5	6.02e-01	0	55	0	21495808	56	7314
2026-01-20 23:44:03.75	43.49	8.21	-42.1	-60.0	3.8	7.45e-01	0	55	104	26738688	56	27295
2026-01-20 23:44:06.78	43.94	8.37	-42.0	-47.2	15.1	6.05e-01	0	55	0	30408704	56	6239
2026-01-20 23:44:09.81	44.39	8.54	-42.0	-47.0	15.5	6.03e-01	0	55	0	36175872	55	6453
2026-01-20 23:44:12.84	44.85	8.71	-42.2	-47.2	15.3	6.01e-01	0	55	0	41943040	55	6631
2026-01-20 23:44:15.86	45.32	8.87	-42.1	-46.8	15.8	6.02e-01	0	55	0	47710208	55	6324
2026-01-20 23:44:18.89	45.79	9.04	-42.1	-46.8	15.8	6.02e-01	0	55	0	52953088	55	6324
2026-01-20 23:44:21.92	46.26	9.20	-42.2	-46.7	15.9	6.02e-01	0	55	0	58720256	55	6260
2026-01-20 23:44:24.95	46.74	9.37	-42.1	-46.6	16.1	6.06e-01	0	55	0	64487424	55	6179
2026-01-20 23:44:27.98	47.23	9.53	-42.2	-46.6	16.1	6.03e-01	0	56	0	70254592	55	6170
2026-01-20 23:44:31.01	47.72	9.70	-42.2	-46.4	16.4	6.03e-01	0	56	0	76021760	55	6033
2026-01-20 23:44:34.03	48.22	9.86	-42.3	-46.6	16.3	6.04e-01	0	56	0	81788928	55	6146
2026-01-20 23:44:37.06	48.73	10.02	-42.2	-46.3	16.6	6.02e-01	0	56	0	87031808	55	5973
2026-01-20 23:44:40.09	49.24	10.19	-42.2	-46.3	16.6	6.04e-01	0	56	0	92798976	55	5950
2026-01-20 23:44:43.12	49.76	10.35	-42.3	-46.4	16.5	6.05e-01	0	56	0	98566144	55	6012
2026-01-20 23:44:46.14	50.28	10.51	-42.2	-46.2	16.7	6.03e-01	0	56	0	104333312	55	5896
2026-01-20 23:44:49.17	50.81	10.67	-42.2	-46.2	16.7	6.05e-01	0	56	0	110100480	55	5898
2026-01-20 23:44:52.20	51.34	10.83	-42.1	-46.1	16.8	6.04e-01	0	56	0	115867648	55	5816
2026-01-20 23:44:55.23	51.88	10.98	-42.2	-46.3	16.7	6.03e-01	0	56	0	121110528	55	5931
2026-01-20 23:44:58.26	52.43	11.14	-42.2	-46.3	16.7	6.04e-01	0	56	0	126877696	55	5947
2026-01-20 23:45:01.28	52.98	11.30	-42.1	-46.1	16.9	6.03e-01	0	56	0	132644864	55	5823
2026-01-20 23:45:04.31	53.54	11.45	-42.0	-45.7	17.3	6.04e-01	0	56	0	138412032	55	5575
2026-01-20 23:45:07.34	54.11	11.60	-42.1	-46.1	16.9	6.02e-01	0	56	0	144179200	55	5807
2026-01-20 23:45:10.37	54.68	11.76	-42.1	-46.1	16.9	6.03e-01	0	56	0	149422080	55	5806
2026-01-20 23:45:13.40	55.26	11.91	-42.1	-46.0	17.0	6.01e-01	0	56	0	155189248	55	5761
2026-01-20 23:45:16.43	55.84	12.06	-42.1	-45.9	17.1	6.04e-01	0	56	0	160956416	55	5717
2026-01-20 23:45:19.46	56.44	12.20	-42.1	-45.9	17.2	6.04e-01	0	56	0	166723584	55	5659
2026-01-20 23:45:22.48	57.03	12.35	-42.0	-45.8	17.2	6.03e-01	0	56	0	172490752	55	5652
2026-01-20 23:45:25.51	57.64	12.49	-42.1	-46.0	17.1	6.04e-01	0	56	0	178257920	55	5725
2026-01-20 23:45:28.54	58.25	12.64	-42.0	-45.8	17.2	6.05e-01	0	56	0	184025088	55	5654
2026-01-20 23:45:31.57	58.86	12.78	-42.1	-45.9	17.2	6.02e-01	0	56	0	189267968	55	5673
2026-01-20 23:45:34.60	59.48	12.92	-41.9	-45.6	17.4	6.02e-01	0	57	0	195035136	55	5477
2026-01-20 23:45:37.62	60.11	13.05	-42.0	-45.9	17.1	6.04e-01	0	57	0	200802304	55	5698
2026-01-20 23:45:40.65	60.74	13.19	-42.0	-45.9	17.0	6.03e-01	0	57	0	206569472	55	5666
2026-01-20 23:45:43.68	61.39	13.32	-41.8	-45.6	17.1	6.05e-01	0	57	0	212336640	55	5516
2026-01-20 23:45:46.70	62.03	13.45	-41.9	-46.1	16.6	6.03e-01	0	56	0	217579520	55	5804
2026-01-20 23:45:49.73	62.68	13.58	-42.0	-46.3	16.3	6.03e-01	0	57	0	223346688	55	5958
2026-01-20 23:45:52.76	63.34	13.70	-43.3	-50.1	12.3	6.08e-01	0	57	0	229113856	57	8245
2026-01-20 23:45:55.78	64.00	13.82	-43.3	-50.1	12.2	6.08e-01	0	57	0	234881024	57	8242
2026-01-20 23:45:58.81	64.67	13.94	-43.3	-50.9	11.2	6.12e-01	0	57	0	240648192	57	9015
2026-01-20 23:46:01.84	65.35	14.06	-42.8	-49.8	12.0	6.09e-01	0	57	0	246415360	57	7959
2026-01-20 23:46:04.86	66.03	14.17	-42.2	-48.1	13.7	6.03e-01	0	57	0	251658240	56	6915
2026-01-20 23:46:07.89	66.71	14.28	-42.1	-48.7	12.8	6.07e-01	0	57	0	257425408	56	7394
2026-01-20 23:46:10.92	67.41	14.39	-41.8	-48.0	13.2	6.06e-01	0	57	0	263192576	55	7258
2026-01-20 23:46:13.95	68.10	14.49	-41.5	-47.2	13.9	6.05e-01	0	57	0	268959744	55	6616
2026-01-20 23:46:16.98	68.81	14.60	-41.6	-47.6	13.4	6.06e-01	0	57	0	274726912	54	7338
2026-01-20 23:46:20.00	69.51	14.69	-41.6	-47.7	13.2	6.05e-01	0	57	0	280494080	54	7441
2026-01-20 23:46:23.04	70.23	14.79	-41.3	-47.3	13.5	6.04e-01	0	57	0	285736960	54	7074
2026-01-20 23:46:26.06	70.94	14.88	-41.7	-49.5	11.0	6.12e-01	0	57	0	291504128	54	9172
2026-01-20 23:46:29.09	71.66	14.96	-41.6	-50.0	10.2	6.19e-01	0	57	0	297271296	54	9668
2026-01-20 23:46:32.12	72.39	15.05	-41.7	-51.2	8.9	6.33e-01	0	57	0	303038464	54	11074
2026-01-20 23:46:35.15	73.12	15.13	-41.6	-49.5	10.8	6.15e-01	0	57	0	308805632	54	9083
2026-01-20 23:46:38.17	73.85	15.20	-41.5	-49.1	11.3	6.15e-01	0	57	0	314572800	54	8686
2026-01-20 23:46:41.20	74.59	15.27	-41.7	-50.6	9.6	6.26e-01	0	57	0	319815680	54	10367
2026-01-20 23:46:44.23	75.33	15.34	-41.9	-50.9	9.4	6.30e-01	0	57	0	325582848	54	10668
2026-01-20 23:46:47.26	76.07	15.40	-41.9	-50.2	10.3	6.19e-01	0	57	0	331350016	54	9840
2026-01-20 23:46:50.28	76.82	15.46	-41.7	-49.3	11.2	6.14e-01	0	57	0	337117184	54	8954
2026-01-20 23:46:53.31	77.57	15.52	-41.8	-49.7	10.9	6.15e-01	0	57	0	342884352	54	9323
2026-01-20 23:46:56.34	78.33	15.57	-41.8	-48.3	12.8	6.05e-01	0	57	0	348651520	54	7905
2026-01-20 23:46:59.37	79.08	15.62	-41.9	-48.1	13.1	6.05e-01	0	57	0	353894400	54	7800
2026-01-20 23:47:02.40	79.84	15.66	-41.8	-48.9	11.9	6.09e-01	0	57	0	359661568	54	8526
2026-01-20 23:47:05.43	80.60	15.69	-42.0	-49.3	11.6	6.12e-01	0	57	0	365428736	54	8921
2026-01-20 23:47:08.45	81.36	15.73	-42.1	-48.6	12.6	6.06e-01	0	57	0	371195904	54	8225
2026-01-20 23:47:11.48	82.13	15.76	-42.2	-49.0	12.2	6.08e-01	0	57	0	376963072	54	8607
2026-01-20 23:47:14.51	82.90	15.78	-42.0	-48.0	13.4	6.06e-01	0	58	0	382205952	55	7219
2026-01-20 23:47:17.54	83.66	15.80	-41.9	-47.8	13.6	6.07e-01	0	58	0	387973120	55	7081
2026-01-20 23:47:20.57	84.43	15.81	-42.1	-48.9	12.3	6.09e-01	0	57	0	393740288	55	8023
2026-01-20 23:47:23.60	85.20	15.82	-41.9	-48.4	12.7	6.07e-01	0	57	0	399507456	55	7574
2026-01-20 23:47:26.62	85.97	15.83	-42.1	-48.6	12.6	6.07e-01	0	57	0	405274624	55	7767
2026-01-20 23:47:29.65	86.74	15.83	-41.9	-48.3	12.9	6.04e-01	0	57	0	411041792	55	7516
2026-01-20 23:47:32.68	87.51	15.82	-42.0	-47.9	13.6	6.08e-01	0	57	0	416808960	55	7174
2026-01-20 23:47:35.71	88.28	15.81	-42.2	-47.3	14.8	6.06e-01	0	57	0	422051840	55	6668
2026-01-20 23:47:38.73	89.05	15.80	-41.8	-46.3	15.9	6.04e-01	0	58	0	427819008	55	5939
2026-01-20 23:47:41.76	89.81	15.78	-41.9	-46.4	15.9	6.03e-01	0	58	0	433586176	55	6010
2026-01-20 23:47:44.79	90.58	15.76	-41.9	-45.9	16.7	6.02e-01	0	58	0	439353344	55	5695
2026-01-20 23:47:47.82	91.35	15.73	-42.1	-46.2	16.6	6.05e-01	0	58	0	445120512	55	5859
2026-01-20 23:47:50.85	92.11	15.70	-42.0	-45.8	17.0	6.02e-01	0	58	0	450363392	55	5626
2026-01-20 23:47:53.87	92.87	15.66	-41.9	-45.7	17.1	6.00e-01	0	58	0	456130560	55	5567
2026-01-20 23:47:56.90	93.63	15.62	-41.9	-45.5	17.4	6.02e-01	0	58	0	461897728	55	5463
2026-01-20 23:47:59.93	94.39	15.58	-42.1	-45.9	17.1	6.02e-01	0	58	0	467664896	55	5669
2026-01-20 23:48:02.96	95.15	15.53	-42.1	-45.9	17.0	6.03e-01	0	58	0	473432064	55	5714
2026-01-20 23:48:05.99	95.90	15.47	-42.0	-45.8	17.2	6.05e-01	0	58	0	479199232	55	5636
2026-01-20 23:48:09.02	96.65	15.41	-42.1	-45.9	17.1	6.02e-01	0	58	0	484442112	55	5693
2026-01-20 23:48:12.04	97.40	15.35	-42.0	-45.8	17.3	6.04e-01	0	58	0	490209280	55	5613
2026-01-20 23:48:15.07	98.14	15.29	-42.2	-46.0	17.1	5.99e-01	0	58	0	495976448	55	5760
2026-01-20 23:48:18.10	98.88	15.21	-42.2	-46.0	17.0	6.03e-01	0	58	0	501743616	55	5759
2026-01-20 23:48:21.13	99.62	15.14	-40.9	-45.9	15.9	6.04e-01	0	58	0	507510784	52	6725
2026-01-20 23:48:24.15	100.35	15.06	-41.7	-45.5	17.6	6.02e-01	0	58	0	513277952	54	5759
2026-01-20 23:48:27.18	101.08	14.98	-41.5	-45.2	17.7	6.02e-01	0	58	0	518520832	53	5881
2026-01-20 23:48:30.21	101.80	14.89	-35.3	-45.0	12.5	6.10e-01	9	58	0	524288000	43	10291
2026-01-20 23:48:33.24	102.52	14.80	-41.9	-45.8	17.2	6.05e-01	0	58	0	530055168	54	5932
2026-01-20 23:48:36.26	103.24	14.71	-41.9	-45.8	17.2	6.05e-01	0	58	0	535822336	54	5964
2026-01-20 23:48:39.29	103.95	14.61	-42.0	-45.9	17.1	6.04e-01	0	58	0	541589504	54	5996
2026-01-20 23:48:42.32	104.65	14.51	-41.9	-46.0	17.0	6.03e-01	0	58	0	547356672	54	6125
2026-01-20 23:48:45.35	105.35	14.40	-42.0	-45.7	17.3	6.04e-01	0	58	0	552599552	54	5904
2026-01-20 23:48:48.38	106.05	14.30	-41.0	-45.9	16.5	6.06e-01	0	58	0	558366720	54	6047
2026-01-20 23:48:51.41	106.74	14.19	-42.1	-45.9	16.9	6.03e-01	0	57	0	564133888	54	6046
2026-01-20 23:48:54.44	107.42	14.07	-41.9	-45.7	17.2	6.04e-01	0	58	0	569901056	54	5908
2026-01-20 23:48:57.46	108.10	13.95	-42.1	-45.9	17.2	6.04e-01	0	58	0	575668224	54	6044
2026-01-20 23:49:00.49	108.78	13.84	-42.1	-45.8	17.3	6.04e-01	0	58	0	581435392	55	5638
2026-01-20 23:49:03.52	109.44	13.71	-42.1	-45.9	17.2	6.04e-01	0	58	0	586678272	54	5997
2026-01-20 23:49:06.55	110.11	13.59	-42.1	-45.9	17.2	6.02e-01	0	57	0	592445440	54	6030
2026-01-20 23:49:09.58	110.76	13.46	-42.2	-45.9	17.2	6.03e-01	0	58	0	598212608	54	6037
2026-01-20 23:49:12.61	111.41	13.33	-42.2	-45.9	17.2	6.04e-01	0	58	0	603979776	54	6032
2026-01-20 23:49:15.64	112.06	13.20	-42.2	-45.9	17.2	6.04e-01	0	58	0	609746944	54	6056
2026-01-20 23:49:18.67	112.70	13.06	-42.1	-45.7	17.3	6.03e-01	0	58	0	614989824	54	5913
2026-01-20 23:49:21.69	113.33	12.92	-42.2	-46.0	17.1	6.04e-01	0	58	0	620756992	54	6092
2026-01-20 23:49:24.72	113.95	12.79	-42.1	-45.8	17.2	6.04e-01	0	58	0	626524160	55	5617
2026-01-20 23:49:27.75	114.57	12.64	-41.9	-45.8	16.8	6.04e-01	0	58	0	632291328	54	5937
2026-01-20 23:49:30.78	115.19	12.50	-40.9	-45.6	15.9	6.05e-01	0	58	0	638058496	52	6556
2026-01-20 23:49:33.81	115.80	12.35	-41.4	-46.2	12.8	6.12e-01	9	58	0	643825664	53	6626
2026-01-20 23:49:36.84	116.40	12.21	-41.4	-46.0	12.4	6.16e-01	22	58	0	649068544	52	6805
2026-01-20 23:49:39.86	116.99	12.06	-41.1	-45.8	10.9	6.34e-01	32	58	0	654835712	49	7917
2026-01-20 23:49:42.89	117.58	11.91	-37.9	-45.9	10.3	6.36e-01	15	58	0	660078592	48	8547
2026-01-20 23:49:45.92	118.16	11.76	-30.7	-44.0	7.5	6.60e-01	47	58	104	664272896	41	10245
2026-01-20 23:49:48.95	118.74	11.60	-39.4	-46.0	9.8	6.13e-01	32	58	0	667418624	48	8578
2026-01-20 23:49:51.98	119.31	11.45	-40.1	-46.2	12.5	6.09e-01	17	58	0	671612928	49	8341
2026-01-20 23:49:55.01	119.87	11.29	-39.8	-45.7	13.5	6.09e-01	18	58	0	674234368	50	7396
2026-01-20 23:49:58.03	120.43	11.14	-41.3	-46.6	10.9	6.18e-01	25	58	0	679477248	51	7736
2026-01-20 23:50:01.07	120.98	10.98	-35.6	-45.6	10.6	6.36e-01	22	58	0	681574400	49	7767
2026-01-20 23:50:04.09	121.52	10.82	-35.0	-44.4	9.4	6.43e-01	63	58	0	686292992	42	10105
2026-01-20 23:50:07.13	122.06	10.66	-35.7	-45.3	9.8	6.23e-01	64	58	0	689438720	49	7492
2026-01-20 23:50:10.15	122.59	10.50	-35.3	-45.5	4.9	7.35e-01	0	58	104	692584448	37	15349
2026-01-20 23:50:13.18	123.12	10.33	-19.1	-36.5	4.1	7.44e-01	0	58	104	692584448	28	9115
2026-01-20 23:50:16.21	123.64	10.17	-32.6	-44.3	4.2	7.40e-01	0	58	104	693108736	32	17825
2026-01-20 23:50:19.23	124.15	10.01	-31.1	-45.0	4.9	7.35e-01	0	58	104	693108736	32	19370
2026-01-20 23:50:22.26	124.66	9.84	-25.7	-40.6	3.7	7.60e-01	0	58	104	693108736	19	24582
2026-01-20 23:50:25.29	125.17	9.68	-22.9	-41.5	3.4	7.70e-01	0	58	104	693108736	13	38640
2026-01-20 23:50:28.32	125.66	9.51	-14.0	-36.1	3.7	7.59e-01	0	58	104	693108736	11	23287
2026-01-20 23:50:31.35	126.15	9.35	-21.1	-41.1	7.4	7.59e-01	0	58	104	693108736	15	32634
2026-01-20 23:50:34.38	126.64	9.18	-13.6	-29.1	3.7	7.57e-01	0	58	104	693108736	0	19552
2026-01-20 23:50:37.41	127.12	9.01	-21.8	-35.2	4.0	7.31e-01	0	58	104	693108736	8	24821
2026-01-20 23:50:40.43	127.59	8.85	-17.1	-31.0	3.6	7.52e-01	0	58	104	693108736	0	24258
2026-01-20 23:50:43.46	128.05	8.68	-11.9	-32.1	2.9	7.33e-01	0	58	104	693108736	1	26107
2026-01-20 23:50:46.49	128.52	8.51	-18.7	-33.2	3.1	7.48e-01	0	58	104	693108736	1	29645
2026-01-20 23:50:49.52	128.97	8.34	-12.6	-36.4	2.8	7.39e-01	0	58	104	693108736	3	37907
2026-01-20 23:50:52.54	129.42	8.17	-12.3	-33.1	2.8	7.33e-01	0	58	104	693108736	1	29098
2026-01-20 23:50:55.57	129.87	8.01	-16.2	-35.3	3.0	7.34e-01	0	58	104	693108736	2	35476
2026-01-20 23:50:58.60	130.31	7.84	-46.1	-64.7	3.8	7.48e-01	0	58	104	693108736	62	33105
2026-01-20 23:51:01.63	130.74	7.67	-46.5	-65.1	3.8	7.48e-01	0	58	104	693108736	63	32755
2026-01-20 23:51:04.66	131.17	7.50	-46.7	-65.2	3.8	7.46e-01	0	58	104	693108736	64	31338
2026-01-20 23:51:07.69	131.60	7.33	-46.4	-65.0	3.8	7.45e-01	0	58	104	693108736	64	30602
2026-01-20 23:51:10.72	132.01	7.16	-46.4	-64.9	3.8	7.46e-01	0	58	104	693108736	64	30334
2026-01-20 23:51:13.76	132.43	6.99	-46.2	-64.8	3.8	7.44e-01	0	58	104	693108736	64	29934
2026-01-20 23:51:16.79	132.84	6.82	-46.2	-64.8	3.8	7.47e-01	0	58	104	693108736	64	29910
2026-01-20 23:51:19.82	133.24	6.65	-46.2	-64.8	3.8	7.45e-01	0	58	104	693108736	64	29960
2026-01-20 23:51:22.85	133.64	6.48	-46.2	-64.8	3.8	7.45e-01	0	58	104	693108736	64	29884
2026-01-20 23:51:25.89	134.04	6.32	-46.2	-64.8	3.8	7.45e-01	0	58	104	693108736	64	29819
2026-01-20 23:51:28.92	134.43	6.15	-46.2	-64.8	3.8	7.44e-01	0	58	104	693108736	64	29794
2026-01-20 23:51:31.95	134.81	5.98	-46.2	-64.8	3.8	7.41e-01	0	58	104	693108736	64	29800
2026-01-20 23:51:34.98	135.19	5.81	-46.2	-64.7	3.8	7.45e-01	0	58	104	693108736	64	29659
2026-01-20 23:51:38.01	135.57	5.64	-46.2	-64.8	3.8	7.47e-01	0	58	104	693108736	64	29771
2026-01-20 23:51:41.04	135.94	5.48	-46.2	-64.8	3.8	7.45e-01	0	58	104	693108736	64	29761
2026-01-20 23:51:44.07	136.30	5.31	-46.2	-64.8	3.8	7.49e-01	0	58	104	693108736	64	29733
2026-01-20 23:51:47.11	136.67	5.14	-46.2	-64.8	3.8	7.44e-01	0	58	104	693108736	64	29732
2026-01-20 23:51:50.14	137.02	4.97	-46.2	-64.7	3.8	7.48e-01	0	58	104	693108736	64	29573
2026-01-20 23:51:53.17	137.38	4.81	-46.2	-64.8	3.8	7.46e-01	0	58	104	693108736	64	29703
2026-01-20 23:51:56.20	137.73	4.64	-46.2	-64.7	3.8	7.46e-01	0	58	104	693108736	64	29681
2026-01-20 23:51:59.23	138.07	4.48	-46.2	-64.8	3.8	7.45e-01	0	58	104	693108736	64	29722
2026-01-20 23:52:02.26	138.41	4.31	-46.2	-64.7	3.8	7.43e-01	0	58	104	693108736	64	29683
2026-01-20 23:52:05.29	138.75	4.14	-46.2	-64.7	3.8	7.46e-01	0	58	104	693108736	64	29645
2026-01-20 23:52:08.32	139.08	3.98	-46.2	-64.7	3.8	7.48e-01	0	59	104	693108736	64	29635
2026-01-20 23:52:11.35	139.41	3.82	-46.2	-64.7	3.8	7.44e-01	0	58	104	693108736	64	29602
2026-01-20 23:52:14.39	139.74	3.65	-46.1	-64.7	3.8	7.45e-01	0	58	104	693108736	64	29588
2026-01-20 23:52:17.42	140.06	3.49	-46.1	-64.7	3.8	7.49e-01	0	58	104	693108736	64	29608
2026-01-20 23:52:20.45	140.37	3.32	-46.1	-64.7	3.8	7.46e-01	0	58	104	693108736	64	29467
2026-01-20 23:52:23.48	140.69	3.16	-46.1	-64.6	3.8	7.43e-01	0	58	104	693108736	63	30868
2026-01-20 23:52:26.51	141.00	3.00	-46.2	-64.6	3.8	7.44e-01	0	58	104	693108736	63	30903
2026-01-20 23:52:29.54	141.30	2.84	-45.8	-64.0	3.8	7.44e-01	0	58	104	693108736	63	28740
2026-01-20 23:52:32.57	141.61	2.68	-45.6	-64.3	3.8	7.44e-01	0	58	104	693108736	62	31658
2026-01-20 23:52:35.61	141.91	2.51	-43.9	-62.2	3.8	7.48e-01	0	58	104	693108736	59	29438
2026-01-20 23:52:38.64	142.20	2.35	-42.9	-61.6	3.8	7.45e-01	0	58	104	693108736	57	30811
2026-01-20 23:52:41.67	142.50	2.19	-45.3	-64.4	3.8	7.44e-01	0	58	104	693108736	62	32038
2026-01-20 23:52:44.70	142.78	2.03	-40.8	-59.3	3.8	7.44e-01	0	58	104	693108736	53	30004

#Closed at: 2026-01-20 23:52:46
#Recorded file [693 MB]: D:/lorett/data/31039_260121_024208.dat