passes_logs/2026/01/20/R2.0S_Moscow/R2.0S_Moscow__20260120_035953_FENGYUN_3D_rec.log

#Pass ID: 20260120_035953_FENGYUN 3D
#Satellite: FENGYUN 3D
#Configuration: FENGYUN 3D
#almurnet v.1.7.20251203
#Start time: 2026-01-20 03:59:54

#Version: 2.2.20231116
#Station: R2.0S_Moscow
#Location: 37.707566 lon 55.798166 lat
#TLE: 1 43010U 17072A   26019.30265705  .00000224  00000+0  12791-3 0  9991
#TLE: 2 43010  98.9940 351.1850 0002428 100.8496 259.2953 14.19697535423864

#Time	Az	El	Level	Level2	SNR	BER	BlckErr	Temp	State	Recorded	gain1	gain2
2026-01-20 03:59:54.76	9.18	2.08	-39.4	-51.7	3.8	8.46e-01	0	52	0	0	50	14732
2026-01-20 03:59:57.79	8.93	2.23	-39.4	-51.7	3.8	8.46e-01	0	53	104	0	49	15597
2026-01-20 04:00:00.82	8.67	2.39	-39.4	-51.6	3.8	8.46e-01	0	53	104	0	49	15551
2026-01-20 04:00:03.85	8.41	2.54	-39.4	-51.7	3.8	8.46e-01	0	53	104	0	49	15581
2026-01-20 04:00:06.88	8.15	2.69	-39.4	-51.6	3.8	8.47e-01	0	54	104	0	49	15576
2026-01-20 04:00:09.92	7.88	2.85	-39.4	-51.7	3.8	8.46e-01	0	54	104	0	49	15617
2026-01-20 04:00:12.95	7.61	3.00	-39.4	-51.6	3.8	8.47e-01	0	54	104	0	49	15565
2026-01-20 04:00:15.98	7.34	3.16	-39.4	-51.7	3.8	8.46e-01	0	54	104	0	49	15581
2026-01-20 04:00:19.01	7.06	3.32	-39.4	-51.7	3.8	8.47e-01	0	55	104	0	49	15586
2026-01-20 04:00:22.04	6.78	3.47	-39.4	-51.6	3.8	8.46e-01	0	55	104	0	49	15576
2026-01-20 04:00:25.07	6.50	3.63	-39.4	-51.6	3.8	8.46e-01	0	55	104	0	49	15554
2026-01-20 04:00:28.10	6.22	3.78	-39.4	-51.6	3.8	8.45e-01	0	55	104	0	49	15541
2026-01-20 04:00:31.13	5.93	3.94	-39.4	-51.6	3.8	8.45e-01	0	55	104	0	49	15578
2026-01-20 04:00:34.17	5.64	4.10	-39.4	-51.6	3.8	8.47e-01	0	55	104	0	49	15559
2026-01-20 04:00:37.20	5.35	4.25	-39.4	-51.6	3.8	8.46e-01	0	56	104	0	49	15530
2026-01-20 04:00:40.23	5.05	4.41	-39.4	-51.6	3.8	8.46e-01	0	56	104	0	49	15531
2026-01-20 04:00:43.26	4.75	4.57	-39.4	-51.6	3.8	8.47e-01	0	56	104	0	49	15563
2026-01-20 04:00:46.29	4.44	4.73	-39.4	-51.6	3.8	8.45e-01	0	56	104	0	49	15538
2026-01-20 04:00:49.32	4.14	4.88	-39.3	-51.7	3.8	8.46e-01	0	56	104	0	49	15593
2026-01-20 04:00:52.35	3.83	5.04	-39.4	-51.6	3.8	8.47e-01	0	57	104	0	49	15529
2026-01-20 04:00:55.39	3.51	5.20	-39.4	-51.7	3.8	8.47e-01	0	56	104	0	49	15623
2026-01-20 04:00:58.41	3.19	5.36	-39.4	-51.6	3.8	8.47e-01	0	57	104	0	49	15546
2026-01-20 04:01:01.44	2.87	5.52	-39.4	-51.6	3.8	8.46e-01	0	57	104	0	49	15516
2026-01-20 04:01:04.48	2.55	5.67	-39.4	-51.6	3.8	8.47e-01	0	57	104	0	49	15531
2026-01-20 04:01:07.51	2.22	5.83	-39.4	-51.6	3.8	8.45e-01	0	57	104	0	49	15537
2026-01-20 04:01:10.54	1.88	5.99	-39.4	-51.6	3.8	8.45e-01	0	57	104	0	49	15536
2026-01-20 04:01:13.57	1.55	6.15	-39.4	-51.6	3.8	8.45e-01	0	57	104	0	49	15521
2026-01-20 04:01:16.60	1.21	6.31	-39.4	-51.6	3.8	8.45e-01	0	57	104	0	49	15532
2026-01-20 04:01:19.63	0.86	6.47	-39.4	-51.6	3.8	8.46e-01	0	57	104	0	49	15555
2026-01-20 04:01:22.67	0.52	6.63	-39.4	-51.6	3.8	8.46e-01	0	58	104	0	49	15565
2026-01-20 04:01:25.70	0.16	6.78	-39.4	-51.6	3.8	8.47e-01	0	57	104	0	49	15506
2026-01-20 04:01:28.73	359.81	6.94	-39.4	-51.6	3.8	8.45e-01	0	58	104	0	49	15546
2026-01-20 04:01:31.76	359.45	7.10	-39.4	-51.6	3.8	8.45e-01	0	58	104	0	49	15574
2026-01-20 04:01:34.79	359.08	7.26	-39.4	-51.6	3.8	8.45e-01	0	58	104	0	49	15507
2026-01-20 04:01:37.82	358.72	7.42	-39.4	-51.6	3.8	8.47e-01	0	58	104	0	49	15572
2026-01-20 04:01:40.85	358.34	7.57	-39.4	-51.7	3.8	8.47e-01	0	58	104	0	49	15582
2026-01-20 04:01:43.88	357.97	7.73	-39.4	-51.6	3.8	8.46e-01	0	58	104	0	49	15492
2026-01-20 04:01:46.91	357.59	7.89	-39.4	-51.6	3.8	8.47e-01	0	58	104	0	49	15542
2026-01-20 04:01:49.95	357.20	8.05	-39.4	-51.6	3.8	8.45e-01	0	58	104	0	49	15577
2026-01-20 04:01:52.98	356.81	8.20	-39.8	-51.7	3.8	8.46e-01	0	59	104	0	50	14728
2026-01-20 04:01:56.00	356.42	8.36	-39.7	-51.8	3.8	8.47e-01	0	59	104	0	50	14923
2026-01-20 04:01:59.03	356.02	8.52	-39.6	-51.7	3.8	8.46e-01	0	59	104	0	50	14768
2026-01-20 04:02:02.06	355.62	8.67	-40.0	-51.9	3.8	8.45e-01	0	59	104	0	50	15092
2026-01-20 04:02:05.09	355.21	8.83	-40.0	-51.8	3.8	8.46e-01	0	59	104	0	50	15008
2026-01-20 04:02:08.12	354.80	8.98	-40.2	-51.9	3.8	8.45e-01	0	59	104	0	51	14349
2026-01-20 04:02:11.15	354.39	9.14	-40.0	-51.8	3.8	8.47e-01	0	59	104	0	51	14145
2026-01-20 04:02:14.18	353.97	9.29	-40.4	-52.0	3.8	8.47e-01	0	59	104	0	51	14507
2026-01-20 04:02:17.21	353.54	9.45	-40.3	-52.0	3.8	8.46e-01	0	59	104	0	51	14448
2026-01-20 04:02:20.24	353.11	9.60	-40.4	-52.0	3.8	8.47e-01	0	59	104	0	51	14526
2026-01-20 04:02:23.26	352.68	9.75	-40.4	-52.0	3.8	8.46e-01	0	59	104	0	51	14495
2026-01-20 04:02:26.29	352.24	9.90	-40.3	-52.2	3.8	8.46e-01	0	59	104	0	51	14856
2026-01-20 04:02:29.32	351.80	10.05	-40.5	-52.3	3.8	8.46e-01	0	59	104	0	51	14955
2026-01-20 04:02:32.35	351.35	10.20	-40.3	-52.2	3.8	8.46e-01	0	60	104	0	51	14839
2026-01-20 04:02:35.38	350.90	10.35	-40.2	-52.1	3.8	8.47e-01	0	60	104	0	52	13763
2026-01-20 04:02:38.41	350.44	10.50	-40.6	-52.4	3.8	8.46e-01	0	60	104	0	52	14236
2026-01-20 04:02:41.44	349.98	10.65	-40.6	-52.3	3.8	8.46e-01	0	60	104	0	52	14113
2026-01-20 04:02:44.46	349.51	10.80	-40.7	-52.4	3.8	8.46e-01	0	60	104	0	52	14353
2026-01-20 04:02:47.49	349.04	10.94	-40.7	-52.5	3.8	8.46e-01	0	60	104	0	52	14421
2026-01-20 04:02:50.52	348.57	11.09	-40.9	-52.7	3.8	8.45e-01	0	60	104	0	52	14787
2026-01-20 04:02:53.55	348.09	11.23	-41.0	-52.7	3.8	8.46e-01	0	60	104	0	52	14791
2026-01-20 04:02:56.58	347.60	11.37	-41.0	-52.8	3.8	8.46e-01	0	60	104	0	52	14905
2026-01-20 04:02:59.61	347.11	11.51	-41.0	-52.8	3.8	8.46e-01	0	60	104	0	52	14905
2026-01-20 04:03:02.64	346.61	11.65	-41.1	-52.8	3.8	8.46e-01	0	60	104	0	52	15003
2026-01-20 04:03:05.67	346.11	11.79	-40.7	-52.5	3.8	8.46e-01	0	60	104	0	52	14394
2026-01-20 04:03:08.70	345.61	11.93	-40.7	-52.5	3.8	8.46e-01	0	60	104	0	52	14424
2026-01-20 04:03:11.72	345.10	12.06	-40.7	-52.5	3.8	8.46e-01	0	60	104	0	52	14395
2026-01-20 04:03:14.75	344.58	12.20	-40.5	-52.4	3.8	8.46e-01	0	60	104	0	52	14212
2026-01-20 04:03:17.78	344.06	12.33	-40.5	-52.2	3.8	8.46e-01	0	60	104	0	52	14003
2026-01-20 04:03:20.81	343.54	12.46	-40.6	-52.3	3.8	8.45e-01	0	60	104	0	52	14095
2026-01-20 04:03:23.84	343.01	12.59	-40.8	-52.3	3.8	8.46e-01	0	60	104	0	52	14205
2026-01-20 04:03:26.87	342.48	12.72	-40.6	-52.3	3.8	8.46e-01	0	60	104	0	52	14088
2026-01-20 04:03:29.89	341.94	12.85	-40.5	-52.2	3.8	8.45e-01	0	60	104	0	52	13970
2026-01-20 04:03:32.92	341.39	12.97	-40.6	-52.3	3.8	8.45e-01	0	61	104	0	52	14054
2026-01-20 04:03:35.95	340.85	13.09	-40.7	-52.5	3.8	8.45e-01	0	61	104	0	52	14433
2026-01-20 04:03:38.98	340.29	13.21	-40.6	-52.3	3.8	8.46e-01	0	61	104	0	52	14050
2026-01-20 04:03:42.01	339.74	13.33	-41.5	-49.4	4.4	8.34e-01	0	61	0	0	53	9580
2026-01-20 04:03:45.04	339.17	13.45	-40.5	-45.2	7.4	1.69e-01	0	60	0	5242880	53	5881
2026-01-20 04:03:48.07	338.61	13.56	-39.5	-42.6	10.6	8.39e-03	0	61	0	22020096	51	4913
2026-01-20 04:03:51.10	338.04	13.67	-38.4	-40.8	12.9	6.63e-05	0	61	0	38797312	48	4708
2026-01-20 04:03:54.12	337.46	13.78	-39.1	-41.5	12.5	1.91e-04	0	61	0	56623104	48	5120
2026-01-20 04:03:57.16	336.88	13.89	-38.6	-40.8	13.4	2.63e-05	0	61	0	73400320	48	4733
2026-01-20 04:04:00.18	336.30	13.99	-38.2	-40.2	14.1	2.20e-06	0	61	0	90177536	48	4409
2026-01-20 04:04:03.21	335.71	14.09	-38.3	-40.4	14.0	2.20e-06	0	61	0	106954752	48	4502
2026-01-20 04:04:06.24	335.12	14.19	-38.3	-40.2	14.3	1.10e-06	0	61	0	124780544	48	4440
2026-01-20 04:04:09.27	334.53	14.29	-38.0	-39.9	14.7	1.10e-06	0	61	0	141557760	48	4275
2026-01-20 04:04:12.30	333.93	14.38	-38.3	-40.3	14.3	3.40e-06	0	61	0	158334976	48	4471
2026-01-20 04:04:15.32	333.32	14.47	-38.1	-40.0	14.7	0.00e+00	0	61	0	175112192	48	4297
2026-01-20 04:04:18.36	332.72	14.56	-38.1	-39.9	14.7	0.00e+00	0	61	0	192937984	48	4289
2026-01-20 04:04:21.39	332.10	14.65	-38.1	-40.0	14.7	0.00e+00	0	61	0	209715200	48	4332
2026-01-20 04:04:24.41	331.49	14.73	-38.1	-40.0	14.7	0.00e+00	0	61	0	226492416	48	4322
2026-01-20 04:04:27.44	330.87	14.81	-38.2	-40.1	14.7	0.00e+00	0	61	0	243269632	48	4367
2026-01-20 04:04:30.47	330.25	14.88	-38.2	-40.1	14.7	0.00e+00	0	61	0	261095424	48	4363
2026-01-20 04:04:33.50	329.63	14.96	-38.1	-39.9	14.9	0.00e+00	0	61	0	277872640	48	4274
2026-01-20 04:04:36.53	329.00	15.02	-37.9	-39.7	15.0	0.00e+00	0	61	0	294649856	47	4399
2026-01-20 04:04:39.56	328.37	15.09	-37.9	-39.7	15.0	0.00e+00	0	61	0	311427072	47	4432
2026-01-20 04:04:42.58	327.74	15.15	-37.9	-39.7	15.0	0.00e+00	0	61	0	329252864	47	4419
2026-01-20 04:04:45.61	327.11	15.21	-37.9	-39.7	15.0	0.00e+00	0	61	0	346030080	47	4439
2026-01-20 04:04:48.64	326.47	15.27	-37.8	-39.6	15.2	0.00e+00	0	61	0	362807296	47	4362
2026-01-20 04:04:51.66	325.83	15.32	-37.9	-39.7	15.1	0.00e+00	0	61	0	379584512	47	4399
2026-01-20 04:04:54.69	325.19	15.37	-37.9	-39.7	15.1	0.00e+00	0	61	0	396361728	47	4425
2026-01-20 04:04:57.72	324.54	15.42	-38.1	-40.0	14.8	0.00e+00	0	61	0	414187520	47	4570
2026-01-20 04:05:00.75	323.89	15.46	-37.8	-39.6	15.1	0.00e+00	0	61	0	430964736	47	4384
2026-01-20 04:05:03.78	323.25	15.50	-37.6	-39.4	15.4	0.00e+00	0	61	0	447741952	47	4258
2026-01-20 04:05:06.80	322.60	15.53	-37.7	-39.4	15.3	0.00e+00	0	61	0	465567744	47	4287
2026-01-20 04:05:09.83	321.95	15.56	-37.7	-39.4	15.4	0.00e+00	0	61	0	482344960	47	4279
2026-01-20 04:05:12.86	321.29	15.59	-37.8	-39.6	15.2	0.00e+00	0	61	0	499122176	47	4382
2026-01-20 04:05:15.89	320.64	15.62	-37.7	-39.4	15.4	0.00e+00	0	61	0	515899392	47	4280
2026-01-20 04:05:18.92	319.98	15.64	-37.8	-39.6	15.2	0.00e+00	0	61	0	533725184	47	4341
2026-01-20 04:05:21.95	319.33	15.65	-37.8	-39.6	15.2	0.00e+00	0	61	0	550502400	47	4358
2026-01-20 04:05:24.97	318.67	15.66	-37.5	-39.2	15.6	0.00e+00	0	61	0	567279616	47	4184
2026-01-20 04:05:28.00	318.01	15.67	-37.7	-39.4	15.4	0.00e+00	0	61	0	584056832	47	4267
2026-01-20 04:05:31.03	317.36	15.68	-37.7	-39.5	15.4	0.00e+00	0	61	0	600834048	47	4297
2026-01-20 04:05:34.05	316.70	15.68	-37.7	-39.5	15.3	0.00e+00	0	61	0	618659840	47	4302
2026-01-20 04:05:37.08	316.04	15.68	-37.7	-39.5	15.3	0.00e+00	0	61	0	635437056	47	4315
2026-01-20 04:05:40.11	315.39	15.67	-37.8	-39.6	15.2	0.00e+00	0	61	0	652214272	47	4388
2026-01-20 04:05:43.14	314.73	15.66	-38.0	-39.8	15.0	0.00e+00	0	62	0	668991488	47	4484
2026-01-20 04:05:46.17	314.07	15.65	-37.8	-39.6	15.3	1.10e-06	0	61	0	686817280	47	4351
2026-01-20 04:05:49.20	313.42	15.63	-37.8	-39.5	15.3	0.00e+00	0	61	0	703594496	47	4327
2026-01-20 04:05:52.23	312.76	15.61	-37.8	-39.5	15.3	0.00e+00	0	61	0	720371712	47	4339
2026-01-20 04:05:55.25	312.11	15.58	-37.8	-39.6	15.2	0.00e+00	0	61	0	738197504	47	4350
2026-01-20 04:05:58.28	311.45	15.55	-37.7	-39.5	15.3	0.00e+00	0	61	0	754974720	47	4292
2026-01-20 04:06:01.31	310.80	15.52	-37.7	-39.5	15.3	0.00e+00	0	61	0	771751936	47	4318
2026-01-20 04:06:04.34	310.15	15.48	-38.0	-39.8	15.0	0.00e+00	0	61	0	788529152	47	4484
2026-01-20 04:06:07.37	309.50	15.44	-37.9	-39.7	15.1	0.00e+00	0	61	0	805306368	47	4405
2026-01-20 04:06:10.40	308.86	15.40	-37.9	-39.7	15.1	0.00e+00	0	61	0	823132160	47	4427
2026-01-20 04:06:13.43	308.21	15.35	-37.7	-39.5	15.3	0.00e+00	0	62	0	839909376	47	4323
2026-01-20 04:06:16.46	307.57	15.30	-37.7	-39.5	15.3	0.00e+00	0	62	0	856686592	47	4302
2026-01-20 04:06:19.49	306.93	15.25	-37.7	-39.5	15.3	0.00e+00	0	61	0	873463808	47	4299
2026-01-20 04:06:22.52	306.29	15.19	-37.6	-39.4	15.4	0.00e+00	0	61	0	891289600	47	4251
2026-01-20 04:06:25.55	305.65	15.13	-37.6	-39.3	15.5	0.00e+00	0	61	0	908066816	47	4220
2026-01-20 04:06:28.58	305.02	15.06	-37.8	-39.6	15.1	0.00e+00	0	61	0	924844032	47	4373
2026-01-20 04:06:31.61	304.39	15.00	-37.9	-39.7	15.0	1.10e-06	0	61	0	942669824	47	4435
2026-01-20 04:06:34.63	303.77	14.92	-37.8	-39.6	15.1	0.00e+00	0	62	0	959447040	47	4361
2026-01-20 04:06:37.66	303.14	14.85	-37.8	-39.6	15.1	0.00e+00	0	62	0	976224256	47	4380
2026-01-20 04:06:40.69	302.52	14.77	-37.8	-39.6	15.0	0.00e+00	0	61	0	993001472	47	4378
2026-01-20 04:06:43.72	301.90	14.69	-37.9	-39.7	15.0	0.00e+00	0	62	0	1009778688	47	4431
2026-01-20 04:06:46.75	301.29	14.61	-37.8	-39.7	15.0	0.00e+00	0	61	0	1027604480	47	4395
2026-01-20 04:06:49.78	300.68	14.52	-37.9	-39.8	14.9	0.00e+00	0	62	0	1044381696	47	4456
2026-01-20 04:06:52.81	300.07	14.43	-38.1	-40.0	14.7	1.10e-06	0	61	0	1061158912	47	4566
2026-01-20 04:06:55.84	299.47	14.34	-38.1	-40.0	14.6	1.10e-06	0	62	0	1077936128	47	4575
2026-01-20 04:06:58.87	298.87	14.25	-38.2	-40.2	14.4	0.00e+00	0	62	0	1095761920	47	4674
2026-01-20 04:07:01.90	298.27	14.15	-38.4	-40.5	14.1	2.20e-06	0	62	0	1112539136	47	4829
2026-01-20 04:07:04.93	297.68	14.05	-38.1	-40.0	14.5	0.00e+00	0	61	0	1129316352	47	4553
2026-01-20 04:07:07.95	297.09	13.95	-38.3	-40.3	14.2	1.10e-06	0	62	0	1147142144	47	4711
2026-01-20 04:07:10.98	296.51	13.84	-38.0	-39.9	14.4	1.10e-06	0	62	0	1163919360	47	4542
2026-01-20 04:07:14.01	295.93	13.73	-37.9	-39.8	14.5	0.00e+00	0	62	0	1180696576	47	4449
2026-01-20 04:07:17.04	295.36	13.62	-37.9	-39.9	14.3	2.20e-06	0	61	0	1197473792	47	4535
2026-01-20 04:07:20.07	294.79	13.51	-38.1	-40.2	14.0	3.40e-06	0	61	0	1214251008	47	4665
2026-01-20 04:07:23.10	294.22	13.39	-38.4	-40.5	13.5	1.25e-05	0	61	0	1232076800	47	4863
2026-01-20 04:07:26.13	293.66	13.28	-38.3	-40.5	13.3	3.31e-05	0	62	0	1248854016	47	4846
2026-01-20 04:07:29.16	293.10	13.16	-38.3	-40.5	13.2	4.11e-05	0	62	0	1265631232	47	4868
2026-01-20 04:07:32.19	292.55	13.04	-38.4	-40.7	12.9	7.20e-05	0	62	0	1282408448	47	4983
2026-01-20 04:07:35.21	292.00	12.91	-38.4	-40.9	12.6	9.38e-05	0	62	0	1300234240	47	5054
2026-01-20 04:07:38.24	291.46	12.79	-38.5	-41.0	12.4	1.99e-04	0	62	0	1317011456	47	5127
2026-01-20 04:07:41.27	290.92	12.66	-38.6	-41.2	12.0	4.29e-04	0	62	0	1333788672	47	5223
2026-01-20 04:07:44.30	290.38	12.53	-38.5	-41.1	12.0	5.77e-04	0	62	0	1350565888	47	5171
2026-01-20 04:07:47.33	289.85	12.40	-38.5	-41.2	11.8	7.53e-04	0	62	0	1368391680	47	5240
2026-01-20 04:07:50.36	289.33	12.27	-38.7	-41.6	11.2	1.75e-03	0	62	0	1385168896	47	5474
2026-01-20 04:07:53.39	288.81	12.14	-39.2	-42.6	10.0	8.31e-03	0	62	0	1401946112	49	5488
2026-01-20 04:07:56.42	288.29	12.00	-39.6	-43.3	9.1	2.43e-02	0	62	0	1418723328	49	5980
2026-01-20 04:07:59.44	287.79	11.86	-40.1	-44.8	7.5	9.78e-02	0	62	0	1436549120	50	6689
2026-01-20 04:08:02.47	287.28	11.73	-40.4	-45.7	6.6	2.36e-01	0	62	0	1453326336	51	7013
2026-01-20 04:08:05.51	286.78	11.59	-42.0	-48.1	5.5	8.45e-01	0	62	104	1464860672	56	6883
2026-01-20 04:08:08.54	286.28	11.44	-40.8	-48.5	4.6	5.63e-01	0	62	0	1469054976	53	8633
2026-01-20 04:08:11.57	285.79	11.30	-41.1	-46.7	6.2	3.18e-01	0	62	0	1478492160	53	6987
2026-01-20 04:08:14.59	285.30	11.16	-41.1	-46.7	6.1	3.49e-01	0	62	0	1495269376	53	7014
2026-01-20 04:08:17.62	284.82	11.02	-41.1	-51.3	3.8	5.68e-01	0	62	104	1502609408	53	11833
2026-01-20 04:08:20.65	284.35	10.87	-40.8	-45.9	6.8	7.68e-01	0	62	0	1506803712	53	6364
2026-01-20 04:08:23.68	283.87	10.72	-40.5	-44.8	7.9	9.17e-02	0	62	0	1523580928	53	5638
2026-01-20 04:08:26.71	283.41	10.58	-39.8	-43.3	9.5	2.01e-02	0	62	0	1540358144	51	5330
2026-01-20 04:08:29.74	282.94	10.43	-39.3	-42.5	10.2	8.42e-03	0	62	0	1557135360	50	5142
2026-01-20 04:08:32.76	282.49	10.28	-39.2	-42.5	10.2	8.30e-03	0	62	0	1574961152	50	5123
2026-01-20 04:08:35.80	282.03	10.13	-38.7	-41.6	11.0	2.38e-03	0	62	0	1591738368	49	4919
2026-01-20 04:08:38.82	281.59	9.98	-38.9	-42.0	10.8	3.22e-03	0	62	0	1608515584	49	5115
2026-01-20 04:08:41.85	281.14	9.83	-39.3	-42.6	10.1	8.40e-03	0	62	0	1625292800	49	5484
2026-01-20 04:08:44.88	280.70	9.67	-39.5	-43.1	9.5	1.57e-02	0	62	0	1643118592	49	5796
2026-01-20 04:08:47.91	280.27	9.52	-39.9	-44.1	8.3	5.55e-02	0	62	0	1659895808	50	6194
2026-01-20 04:08:50.94	279.84	9.37	-40.2	-45.0	7.3	1.34e-01	0	62	0	1676673024	50	6836
2026-01-20 04:08:53.97	279.41	9.21	-40.4	-45.8	6.4	2.70e-01	0	62	0	1693450240	51	7111
2026-01-20 04:08:57.00	278.99	9.06	-40.4	-48.8	4.2	8.11e-01	0	62	0	1701838848	52	9491
2026-01-20 04:09:00.03	278.58	8.90	-40.7	-48.0	4.7	8.33e-01	0	62	0	1702887424	52	8647
2026-01-20 04:09:03.06	278.17	8.75	-40.6	-48.9	4.3	8.35e-01	0	62	0	1702887424	52	9604
2026-01-20 04:09:06.08	277.76	8.59	-40.1	-50.2	3.8	8.46e-01	0	62	104	1702887424	52	11147
2026-01-20 04:09:09.11	277.36	8.43	-40.6	-51.2	3.8	8.45e-01	0	62	104	1702887424	52	12377
2026-01-20 04:09:12.14	276.96	8.28	-40.7	-50.7	3.8	8.46e-01	0	62	104	1702887424	52	11796
2026-01-20 04:09:15.17	276.56	8.12	-40.8	-51.4	3.8	8.46e-01	0	62	104	1702887424	52	12673
2026-01-20 04:09:18.20	276.17	7.96	-43.8	-55.2	3.8	8.46e-01	0	62	104	1702887424	58	14014
2026-01-20 04:09:21.23	275.79	7.80	-44.9	-56.7	3.8	8.46e-01	0	62	104	1702887424	60	14765
2026-01-20 04:09:24.26	275.41	7.65	-45.1	-56.9	3.8	8.46e-01	0	62	104	1702887424	60	15085
2026-01-20 04:09:27.29	275.03	7.49	-45.2	-56.9	3.8	8.47e-01	0	62	104	1702887424	60	15156
2026-01-20 04:09:30.32	274.66	7.33	-45.1	-56.8	3.8	8.46e-01	0	62	104	1702887424	60	14995
2026-01-20 04:09:33.36	274.29	7.17	-44.9	-56.7	3.8	8.45e-01	0	62	104	1702887424	59	15630
2026-01-20 04:09:36.39	273.92	7.01	-45.1	-56.8	3.8	8.46e-01	0	62	104	1702887424	60	14880
2026-01-20 04:09:39.42	273.56	6.85	-45.1	-56.7	3.8	8.46e-01	0	62	104	1702887424	60	14816
2026-01-20 04:09:42.45	273.20	6.70	-45.0	-56.7	3.8	8.45e-01	0	62	104	1702887424	60	14826
2026-01-20 04:09:45.48	272.85	6.54	-45.0	-56.7	3.8	8.46e-01	0	62	104	1702887424	60	14825
2026-01-20 04:09:48.51	272.50	6.38	-45.0	-56.7	3.8	8.46e-01	0	62	104	1702887424	60	14861
2026-01-20 04:09:51.54	272.16	6.22	-45.0	-56.7	3.8	8.47e-01	0	62	104	1702887424	60	14813
2026-01-20 04:09:54.57	271.82	6.06	-45.0	-56.7	3.8	8.48e-01	0	62	104	1702887424	60	14818
2026-01-20 04:09:57.60	271.48	5.90	-45.0	-56.7	3.8	8.47e-01	0	62	104	1702887424	60	14795
2026-01-20 04:10:00.63	271.15	5.74	-45.0	-56.7	3.8	8.47e-01	0	62	104	1702887424	60	14765
2026-01-20 04:10:03.67	270.81	5.58	-45.0	-56.7	3.8	8.46e-01	0	62	104	1702887424	60	14779
2026-01-20 04:10:06.70	270.49	5.43	-45.0	-56.7	3.8	8.47e-01	0	62	104	1702887424	60	14744
2026-01-20 04:10:09.73	270.16	5.27	-45.0	-56.7	3.8	8.47e-01	0	62	104	1702887424	60	14760
2026-01-20 04:10:12.76	269.85	5.11	-44.9	-56.7	3.8	8.46e-01	0	62	104	1702887424	60	14749
2026-01-20 04:10:15.79	269.53	4.95	-45.0	-56.6	3.8	8.46e-01	0	62	104	1702887424	60	14675
2026-01-20 04:10:18.82	269.22	4.79	-45.0	-56.7	3.8	8.47e-01	0	62	104	1702887424	60	14750
2026-01-20 04:10:21.85	268.91	4.63	-45.0	-56.7	3.8	8.46e-01	0	62	104	1702887424	60	14722
2026-01-20 04:10:24.88	268.60	4.48	-44.9	-56.7	3.8	8.46e-01	0	62	104	1702887424	60	14710
2026-01-20 04:10:27.92	268.30	4.32	-45.0	-56.7	3.8	8.46e-01	0	62	104	1702887424	60	14797
2026-01-20 04:10:30.95	268.00	4.16	-45.0	-56.7	3.8	8.46e-01	0	62	104	1702887424	60	14782
2026-01-20 04:10:33.98	267.71	4.00	-45.0	-56.7	3.8	8.46e-01	0	62	104	1702887424	60	14757
2026-01-20 04:10:37.01	267.41	3.85	-45.0	-56.7	3.8	8.46e-01	0	62	104	1702887424	60	14731
2026-01-20 04:10:40.04	267.12	3.69	-45.0	-56.7	3.8	8.45e-01	0	62	104	1702887424	60	14731
2026-01-20 04:10:43.07	266.84	3.53	-45.0	-56.7	3.8	8.46e-01	0	62	104	1702887424	60	14732
2026-01-20 04:10:46.10	266.56	3.38	-45.0	-56.7	3.8	8.47e-01	0	62	104	1702887424	60	14737
2026-01-20 04:10:49.14	266.27	3.22	-45.0	-56.7	3.8	8.46e-01	0	62	104	1702887424	60	14735
2026-01-20 04:10:52.17	266.00	3.07	-45.0	-56.7	3.8	8.46e-01	0	62	104	1702887424	60	14746
2026-01-20 04:10:55.19	265.73	2.91	-45.0	-56.7	3.8	8.46e-01	0	62	104	1702887424	60	14751
2026-01-20 04:10:58.22	265.45	2.76	-44.8	-56.6	3.8	8.47e-01	0	62	104	1702887424	60	14697
2026-01-20 04:11:01.25	265.19	2.60	-45.0	-56.7	3.8	8.47e-01	0	62	104	1702887424	60	14792
2026-01-20 04:11:04.28	264.92	2.45	-45.0	-56.7	3.8	8.46e-01	0	62	104	1702887424	60	14758
2026-01-20 04:11:07.31	264.66	2.29	-45.0	-56.7	3.8	8.48e-01	0	62	104	1702887424	60	14722
2026-01-20 04:11:10.35	264.40	2.14	-45.0	-56.6	3.8	8.45e-01	0	62	104	1702887424	60	14682
2026-01-20 04:11:13.38	264.14	1.98	-45.0	-56.7	3.8	8.46e-01	0	62	104	1702887424	60	14710

#Closed at: 2026-01-20 04:11:15
#Recorded file [1702 MB]: D:/lorett/data/31039_260120_065954.dat