passes_logs/2026/01/05/R3.0SM8_Murmansk_STILSPACE/R3.0SM8_Murmansk_STILSPACE__20260105_055753_SUOMI_NPP_rec.log

#Pass ID: 20260105_055753_SUOMI NPP
#Satellite: SUOMI NPP
#Configuration: NPP
#almurnet v.1.7.20240730
#Start time: 2026-01-05 05:57:53

#Version: 2.2.20231116
#Station: R3.0SM8_Murmansk_STILSPACE
#Location: 33.092731 lon 68.902999 lat
#TLE: 1 37849U 11061A   26003.96724563  .00000164  00000+0  98899-4 0  9990
#TLE: 2 37849  98.7800 306.1116 0002573  82.3190 277.8279 14.19522066735141

#Time	Az	El	Level	Level2	SNR	BER	BlckErr	Temp	State	Recorded	gain1	gain2
2026-01-05 05:57:53.43	72.85	3.01	-52.3	-66.2	3.8	1.49e+00	0	49	0	0	67	17796
2026-01-05 05:57:56.38	72.66	3.18	-52.2	-66.0	3.8	1.49e+00	0	50	104	0	67	17326
2026-01-05 05:57:59.35	72.46	3.36	-51.8	-65.6	3.8	1.49e+00	0	50	104	0	66	17522
2026-01-05 05:58:02.33	72.25	3.53	-51.5	-65.3	3.8	1.49e+00	0	50	104	0	65	17901
2026-01-05 05:58:05.29	72.05	3.71	-51.5	-65.2	3.8	1.49e+00	0	50	104	0	65	17846
2026-01-05 05:58:08.25	71.84	3.89	-51.5	-65.3	3.8	1.49e+00	0	50	104	0	65	17906
2026-01-05 05:58:11.22	71.63	4.07	-51.5	-65.3	3.8	1.49e+00	0	50	104	0	65	17992
2026-01-05 05:58:14.19	71.42	4.24	-51.4	-65.2	3.8	1.49e+00	0	51	104	0	65	17806
2026-01-05 05:58:17.15	71.20	4.42	-51.5	-64.7	3.8	1.49e+00	0	51	104	0	65	16780
2026-01-05 05:58:20.11	70.99	4.60	-51.3	-63.1	3.8	1.49e+00	0	51	104	0	65	13929
2026-01-05 05:58:23.08	70.76	4.79	-51.1	-60.7	4.6	1.28e+00	0	51	0	1048576	65	10600
2026-01-05 05:58:26.05	70.54	4.97	-50.8	-58.8	5.6	4.87e-01	0	51	0	6291456	64	9035
2026-01-05 05:58:28.99	70.31	5.15	-50.8	-58.4	5.8	3.45e-01	0	51	0	12582912	64	8657
2026-01-05 05:58:31.95	70.08	5.33	-50.6	-57.7	6.4	2.40e-01	0	51	0	17825792	64	7929
2026-01-05 05:58:34.92	69.85	5.52	-50.5	-57.1	6.9	2.19e-01	0	51	0	23068672	64	7429
2026-01-05 05:58:37.89	69.61	5.70	-49.9	-55.0	9.0	3.35e-02	0	52	0	28311552	62	6529
2026-01-05 05:58:40.86	69.38	5.89	-49.2	-53.2	10.9	3.67e-03	0	52	0	34603008	61	5636
2026-01-05 05:58:43.81	69.13	6.08	-48.9	-52.5	11.7	7.42e-04	0	52	0	39845888	60	5481
2026-01-05 05:58:46.78	68.89	6.27	-49.2	-53.0	11.3	1.31e-03	0	52	0	45088768	60	5789
2026-01-05 05:58:49.73	68.64	6.45	-49.1	-53.0	11.3	1.09e-03	0	52	0	51380224	60	5796
2026-01-05 05:58:52.70	68.39	6.64	-49.4	-53.6	10.7	1.87e-03	0	52	0	56623104	60	6214
2026-01-05 05:58:55.68	68.13	6.84	-48.8	-52.3	12.0	5.76e-04	0	52	0	61865984	60	5368
2026-01-05 05:58:58.66	67.87	7.03	-48.9	-52.5	11.7	3.66e-04	0	52	0	68157440	60	5519
2026-01-05 05:59:01.62	67.61	7.22	-49.1	-52.8	11.4	9.30e-04	0	53	0	73400320	60	5682
2026-01-05 05:59:04.59	67.34	7.41	-49.3	-53.3	11.0	1.24e-03	0	52	0	78643200	60	6011
2026-01-05 05:59:07.56	67.07	7.61	-49.2	-53.2	11.2	1.54e-03	0	53	0	84934656	60	5932
2026-01-05 05:59:10.52	66.80	7.80	-49.0	-52.6	11.7	5.55e-04	0	53	0	90177536	60	5585
2026-01-05 05:59:13.49	66.52	8.00	-49.2	-53.0	11.4	1.29e-03	0	53	0	95420416	60	5845
2026-01-05 05:59:16.46	66.23	8.20	-48.8	-52.2	12.2	1.76e-04	0	53	0	100663296	60	5283
2026-01-05 05:59:19.42	65.95	8.39	-48.6	-51.7	12.7	6.33e-05	0	53	0	106954752	60	5016
2026-01-05 05:59:22.38	65.66	8.59	-48.5	-51.5	13.0	4.50e-05	0	53	0	112197632	59	5175
2026-01-05 05:59:25.35	65.37	8.79	-48.5	-51.5	13.0	4.95e-05	0	53	0	117440512	59	5174
2026-01-05 05:59:28.31	65.07	8.99	-48.5	-51.4	13.1	2.67e-05	0	53	0	123731968	59	5118
2026-01-05 05:59:31.26	64.77	9.19	-48.3	-51.1	13.4	1.98e-05	0	53	0	128974848	59	4941
2026-01-05 05:59:34.24	64.46	9.40	-48.3	-51.1	13.4	1.83e-05	0	53	0	134217728	59	4956
2026-01-05 05:59:37.21	64.15	9.60	-48.4	-51.2	13.4	2.28e-05	0	53	0	140509184	59	5004
2026-01-05 05:59:40.18	63.83	9.80	-48.4	-51.2	13.3	1.60e-05	0	54	0	145752064	59	5024
2026-01-05 05:59:43.14	63.51	10.01	-48.4	-51.3	13.3	1.98e-05	0	54	0	150994944	59	5055
2026-01-05 05:59:46.09	63.19	10.21	-48.5	-51.5	13.2	8.30e-06	0	54	0	156237824	59	5167
2026-01-05 05:59:49.06	62.86	10.42	-48.8	-51.8	12.7	2.59e-05	0	54	0	162529280	59	5384
2026-01-05 05:59:52.03	62.52	10.62	-48.7	-51.7	12.9	4.42e-05	0	54	0	167772160	59	5280
2026-01-05 05:59:55.00	62.18	10.83	-48.4	-51.2	13.4	1.67e-05	0	54	0	173015040	59	4988
2026-01-05 05:59:57.97	61.84	11.04	-48.6	-51.6	13.1	4.73e-05	0	54	0	179306496	59	5229
2026-01-05 06:00:00.93	61.49	11.25	-48.8	-51.8	12.8	7.55e-05	0	54	0	184549376	59	5363
2026-01-05 06:00:03.89	61.14	11.46	-48.6	-51.4	13.2	2.28e-05	0	54	0	189792256	59	5149
2026-01-05 06:00:06.86	60.78	11.67	-49.0	-52.1	12.6	6.33e-05	0	54	0	196083712	59	5543
2026-01-05 06:00:09.82	60.41	11.88	-48.2	-50.8	13.8	5.30e-06	0	54	0	201326592	59	4810
2026-01-05 06:00:12.80	60.04	12.09	-48.0	-50.4	14.3	7.00e-07	0	54	0	206569472	59	4582
2026-01-05 06:00:15.78	59.66	12.31	-48.0	-50.4	14.3	0.00e+00	0	54	0	212860928	58	4842
2026-01-05 06:00:18.74	59.28	12.52	-48.0	-50.5	14.3	0.00e+00	0	54	0	218103808	58	4888
2026-01-05 06:00:21.72	58.89	12.73	-47.9	-50.4	14.3	7.00e-07	0	54	0	223346688	58	4819
2026-01-05 06:00:24.68	58.50	12.95	-48.3	-50.9	13.8	3.80e-06	0	55	0	228589568	58	5131
2026-01-05 06:00:27.65	58.10	13.16	-47.9	-50.1	14.6	0.00e+00	0	54	0	234881024	58	4704
2026-01-05 06:00:30.61	57.70	13.38	-47.9	-50.3	14.5	7.00e-07	0	55	0	240123904	58	4783
2026-01-05 06:00:33.58	57.28	13.59	-47.6	-49.8	14.9	0.00e+00	0	55	0	245366784	58	4526
2026-01-05 06:00:36.55	56.87	13.81	-47.7	-49.9	14.8	0.00e+00	0	55	0	251658240	58	4589
2026-01-05 06:00:39.52	56.44	14.02	-47.5	-49.7	15.0	0.00e+00	0	55	0	256901120	58	4473
2026-01-05 06:00:42.48	56.01	14.24	-47.6	-49.9	14.8	0.00e+00	0	55	0	262144000	58	4573
2026-01-05 06:00:45.44	55.58	14.46	-47.8	-50.2	14.6	0.00e+00	0	55	0	268435456	58	4709
2026-01-05 06:00:48.42	55.13	14.68	-48.0	-50.4	14.3	1.50e-06	0	55	0	273678336	58	4858
2026-01-05 06:00:51.39	54.68	14.89	-48.2	-50.9	13.9	2.20e-06	0	55	0	278921216	58	5126
2026-01-05 06:00:54.37	54.22	15.11	-48.1	-50.6	14.2	0.00e+00	0	55	0	284164096	58	4934
2026-01-05 06:00:57.33	53.76	15.33	-48.0	-50.5	14.3	7.00e-07	0	55	0	290455552	58	4874
2026-01-05 06:01:00.30	53.29	15.55	-47.9	-50.4	14.4	7.00e-07	0	55	0	295698432	58	4816
2026-01-05 06:01:03.27	52.81	15.76	-48.2	-50.7	14.0	3.80e-06	0	55	0	300941312	58	5036
2026-01-05 06:01:06.25	52.33	15.98	-48.4	-51.2	13.5	3.00e-06	0	55	0	307232768	58	5321
2026-01-05 06:01:09.23	51.83	16.20	-48.3	-51.0	13.8	3.00e-06	0	55	0	312475648	58	5192
2026-01-05 06:01:12.20	51.33	16.42	-48.0	-50.6	14.2	1.50e-06	0	55	0	317718528	58	4942
2026-01-05 06:01:15.15	50.83	16.63	-48.1	-50.6	14.2	2.20e-06	0	55	0	324009984	58	4981
2026-01-05 06:01:18.13	50.32	16.85	-48.3	-51.0	13.9	1.50e-06	0	55	0	329252864	58	5177
2026-01-05 06:01:21.10	49.79	17.07	-48.3	-50.9	13.9	1.50e-06	0	55	0	334495744	58	5143
2026-01-05 06:01:24.07	49.26	17.28	-48.2	-50.8	14.0	4.50e-06	0	55	0	340787200	58	5096
2026-01-05 06:01:27.03	48.73	17.50	-48.0	-50.4	14.4	0.00e+00	0	55	0	346030080	58	4852
2026-01-05 06:01:30.01	48.18	17.71	-48.1	-50.5	14.4	0.00e+00	0	56	0	351272960	58	4895
2026-01-05 06:01:32.98	47.63	17.92	-48.0	-50.4	14.4	1.50e-06	0	55	0	357564416	58	4870
2026-01-05 06:01:35.94	47.07	18.13	-47.9	-50.2	14.6	0.00e+00	0	55	0	362807296	58	4752
2026-01-05 06:01:38.92	46.50	18.35	-47.8	-50.0	14.9	0.00e+00	0	56	0	368050176	58	4615
2026-01-05 06:01:41.88	45.93	18.55	-47.5	-49.6	15.2	0.00e+00	0	56	0	374341632	57	4690
2026-01-05 06:01:44.85	45.34	18.76	-47.9	-50.2	14.6	7.00e-07	0	55	0	379584512	57	5027
2026-01-05 06:01:47.82	44.75	18.97	-47.4	-49.6	15.2	0.00e+00	0	56	0	384827392	57	4694
2026-01-05 06:01:50.78	44.15	19.17	-47.1	-49.2	15.6	0.00e+00	0	55	0	390070272	57	4469
2026-01-05 06:01:53.75	43.54	19.38	-46.8	-48.6	16.2	0.00e+00	0	56	0	396361728	56	4432
2026-01-05 06:01:56.73	42.92	19.58	-46.5	-48.2	16.6	0.00e+00	0	56	0	401604608	56	4212
2026-01-05 06:01:59.70	42.30	19.78	-46.9	-48.7	16.1	0.00e+00	0	56	0	406847488	56	4476
2026-01-05 06:02:02.66	41.66	19.98	-46.8	-48.7	16.1	0.00e+00	0	56	0	413138944	56	4486
2026-01-05 06:02:05.63	41.02	20.17	-46.6	-48.4	16.4	0.00e+00	0	56	0	418381824	56	4321
2026-01-05 06:02:08.61	40.37	20.37	-46.7	-48.6	16.2	0.00e+00	0	56	0	423624704	56	4418
2026-01-05 06:02:11.58	39.71	20.56	-46.7	-48.5	16.2	0.00e+00	0	56	0	429916160	56	4373
2026-01-05 06:02:14.55	39.04	20.75	-46.3	-48.0	16.7	0.00e+00	0	56	0	435159040	55	4368
2026-01-05 06:02:17.51	38.37	20.93	-46.1	-47.6	17.0	0.00e+00	0	56	0	440401920	55	4192
2026-01-05 06:02:20.49	37.69	21.12	-45.7	-47.2	17.5	0.00e+00	0	56	0	446693376	54	4199
2026-01-05 06:02:23.46	36.99	21.30	-46.0	-47.6	17.0	0.00e+00	0	56	0	451936256	54	4400
2026-01-05 06:02:26.42	36.30	21.47	-46.1	-47.6	17.1	0.00e+00	0	56	0	457179136	54	4433
2026-01-05 06:02:29.38	35.59	21.64	-46.0	-47.6	17.2	0.00e+00	0	56	0	462422016	54	4396
2026-01-05 06:02:32.33	34.88	21.81	-46.2	-47.7	17.1	0.00e+00	0	56	0	468713472	54	4481
2026-01-05 06:02:35.30	34.16	21.98	-46.2	-47.7	17.0	0.00e+00	0	56	0	473956352	54	4482
2026-01-05 06:02:38.25	33.43	22.14	-46.1	-47.7	17.1	0.00e+00	0	56	0	479199232	54	4446
2026-01-05 06:02:41.22	32.69	22.30	-46.6	-48.4	16.4	0.00e+00	0	56	0	485490688	55	4570
2026-01-05 06:02:44.20	31.94	22.45	-46.2	-47.8	16.9	0.00e+00	0	56	0	490733568	55	4284
2026-01-05 06:02:47.17	31.19	22.60	-46.4	-48.0	16.8	0.00e+00	0	56	0	495976448	55	4374
2026-01-05 06:02:50.14	30.43	22.74	-46.9	-48.7	16.0	0.00e+00	0	56	0	502267904	55	4753
2026-01-05 06:02:53.11	29.66	22.88	-47.3	-49.3	15.6	0.00e+00	0	56	0	507510784	56	4787
2026-01-05 06:02:56.08	28.89	23.02	-47.2	-49.2	15.7	0.00e+00	0	56	0	512753664	56	4716
2026-01-05 06:02:59.06	28.10	23.15	-46.8	-48.7	16.2	0.00e+00	0	56	0	517996544	56	4450
2026-01-05 06:03:02.02	27.32	23.27	-46.0	-47.5	17.2	0.00e+00	0	56	0	524288000	55	4110
2026-01-05 06:03:04.98	26.53	23.39	-46.3	-47.8	16.9	0.00e+00	0	56	0	529530880	54	4524
2026-01-05 06:03:07.95	25.73	23.51	-46.6	-48.3	16.5	0.00e+00	0	56	0	534773760	54	4775
2026-01-05 06:03:10.92	24.92	23.62	-47.7	-49.9	14.9	0.00e+00	0	56	0	541065216	57	4854
2026-01-05 06:03:13.88	24.11	23.72	-47.8	-50.0	14.7	0.00e+00	0	56	0	546308096	58	4635
2026-01-05 06:03:16.85	23.30	23.82	-47.7	-50.0	14.9	0.00e+00	0	56	0	551550976	58	4607
2026-01-05 06:03:19.82	22.48	23.91	-47.0	-48.8	16.0	0.00e+00	0	56	0	557842432	57	4271
2026-01-05 06:03:22.78	21.65	23.99	-47.1	-49.0	15.9	0.00e+00	0	56	0	563085312	56	4601
2026-01-05 06:03:25.74	20.83	24.07	-47.3	-49.3	15.6	0.00e+00	0	56	0	568328192	56	4783
2026-01-05 06:03:28.70	20.00	24.14	-47.3	-49.3	15.6	0.00e+00	0	56	0	573571072	56	4790
2026-01-05 06:03:31.66	19.16	24.21	-47.5	-49.7	15.2	0.00e+00	0	56	0	579862528	57	4709
2026-01-05 06:03:34.62	18.32	24.27	-47.7	-49.9	14.9	0.00e+00	0	56	0	585105408	57	4852
2026-01-05 06:03:37.58	17.48	24.32	-47.9	-50.3	14.6	1.50e-06	0	56	0	590348288	57	5072
2026-01-05 06:03:40.56	16.63	24.37	-47.3	-49.4	15.5	0.00e+00	0	56	0	596639744	57	4556
2026-01-05 06:03:43.53	15.78	24.40	-48.1	-50.5	14.3	7.00e-07	0	56	0	601882624	58	4883
2026-01-05 06:03:46.50	14.93	24.44	-47.8	-50.1	14.7	7.00e-07	0	56	0	607125504	58	4693
2026-01-05 06:03:49.47	14.08	24.46	-48.2	-50.7	14.1	3.00e-06	0	56	0	613416960	58	5028
2026-01-05 06:03:52.44	13.22	24.48	-47.0	-49.0	15.7	0.00e+00	0	56	0	618659840	57	4351
2026-01-05 06:03:55.41	12.37	24.49	-46.7	-48.7	15.9	0.00e+00	0	56	0	623902720	56	4442
2026-01-05 06:03:58.39	11.51	24.50	-47.8	-50.5	13.9	0.00e+00	0	56	0	630194176	57	5160
2026-01-05 06:04:01.35	10.66	24.50	-48.5	-52.1	11.6	4.61e-04	0	56	0	635437056	58	5880
2026-01-05 06:04:04.33	9.80	24.49	-49.2	-54.4	8.8	1.84e-02	0	57	0	640679936	60	6866
2026-01-05 06:04:07.30	8.95	24.47	-49.0	-53.9	9.3	2.65e-02	0	56	0	646971392	60	6442
2026-01-05 06:04:10.28	8.09	24.45	-49.0	-53.3	10.2	7.80e-03	0	56	0	652214272	60	6037
2026-01-05 06:04:13.23	7.24	24.42	-48.4	-51.7	12.1	4.41e-04	0	56	0	657457152	59	5295
2026-01-05 06:04:16.20	6.39	24.38	-48.0	-50.7	13.3	2.36e-05	0	57	0	662700032	59	4748
2026-01-05 06:04:19.17	5.55	24.34	-46.5	-48.3	16.2	0.00e+00	0	56	0	668991488	56	4257
2026-01-05 06:04:22.14	4.70	24.29	-47.7	-50.2	14.2	0.00e+00	0	56	0	674234368	57	4988
2026-01-05 06:04:25.11	3.86	24.23	-49.0	-53.8	9.5	7.62e-03	0	56	0	679477248	60	6414
2026-01-05 06:04:28.09	3.02	24.17	-46.7	-48.7	15.4	0.00e+00	0	56	0	685768704	56	4455
2026-01-05 06:04:31.06	2.18	24.10	-46.2	-47.7	17.0	0.00e+00	0	56	0	691011584	55	4238
2026-01-05 06:04:34.03	1.35	24.02	-45.9	-47.4	17.4	0.00e+00	0	56	0	696254464	54	4298
2026-01-05 06:04:36.99	0.53	23.94	-45.9	-47.3	17.4	0.00e+00	0	56	0	702545920	54	4264
2026-01-05 06:04:39.96	359.70	23.85	-46.2	-47.7	17.0	0.00e+00	0	56	0	707788800	54	4490
2026-01-05 06:04:42.93	358.89	23.75	-46.1	-47.6	17.1	0.00e+00	0	57	0	713031680	54	4406
2026-01-05 06:04:45.90	358.07	23.65	-46.7	-48.5	16.3	0.00e+00	0	56	0	719323136	55	4603
2026-01-05 06:04:48.85	357.27	23.55	-46.5	-48.1	16.6	0.00e+00	0	57	0	724566016	55	4430
2026-01-05 06:04:51.82	356.47	23.44	-46.8	-48.6	16.2	0.00e+00	0	56	0	729808896	55	4657
2026-01-05 06:04:54.78	355.68	23.32	-47.3	-49.2	15.6	0.00e+00	0	56	0	735051776	56	4752
2026-01-05 06:04:57.74	354.89	23.20	-47.6	-49.7	15.1	0.00e+00	0	57	0	741343232	57	4730
2026-01-05 06:05:00.70	354.11	23.07	-47.7	-49.8	15.0	0.00e+00	0	56	0	746586112	57	4802
2026-01-05 06:05:03.66	353.34	22.94	-47.8	-50.1	14.7	7.00e-07	0	57	0	751828992	57	4959
2026-01-05 06:05:06.64	352.56	22.80	-47.4	-49.4	15.3	0.00e+00	0	56	0	758120448	57	4563
2026-01-05 06:05:09.61	351.80	22.65	-47.4	-49.5	15.3	0.00e+00	0	56	0	763363328	57	4614
2026-01-05 06:05:12.58	351.05	22.51	-47.6	-49.8	15.0	0.00e+00	0	57	0	768606208	57	4773
2026-01-05 06:05:15.54	350.30	22.36	-47.2	-49.2	15.5	0.00e+00	0	57	0	774897664	57	4468
2026-01-05 06:05:18.50	349.56	22.20	-47.3	-49.4	15.4	0.00e+00	0	57	0	780140544	57	4560
2026-01-05 06:05:21.48	348.83	22.04	-47.3	-49.4	15.3	0.00e+00	0	56	0	785383424	57	4564
2026-01-05 06:05:24.45	348.10	21.88	-48.0	-50.5	14.2	7.00e-07	0	57	0	790626304	57	5201
2026-01-05 06:05:27.42	347.38	21.71	-47.8	-50.2	14.6	0.00e+00	0	57	0	796917760	58	4720
2026-01-05 06:05:30.38	346.67	21.54	-47.9	-50.3	14.5	7.00e-07	0	56	0	802160640	58	4773
2026-01-05 06:05:33.35	345.97	21.36	-48.2	-50.9	13.8	3.00e-06	0	56	0	807403520	58	5131
2026-01-05 06:05:36.31	345.28	21.18	-48.9	-52.2	12.5	1.15e-04	0	57	0	813694976	59	5639
2026-01-05 06:05:39.28	344.60	21.00	-48.0	-50.6	14.1	9.10e-06	0	57	0	818937856	59	4690
2026-01-05 06:05:42.26	343.92	20.82	-47.7	-50.1	14.7	0.00e+00	0	57	0	824180736	58	4659
2026-01-05 06:05:45.23	343.25	20.63	-47.8	-50.2	14.4	7.00e-07	0	57	0	830472192	58	4733
2026-01-05 06:05:48.19	342.59	20.44	-46.6	-48.5	15.9	0.00e+00	0	57	0	835715072	56	4363
2026-01-05 06:05:51.17	341.93	20.25	-46.0	-47.7	16.4	0.00e+00	0	56	0	840957952	54	4475
2026-01-05 06:05:54.14	341.29	20.05	-46.1	-47.9	16.2	0.00e+00	0	57	0	847249408	54	4546
2026-01-05 06:05:57.10	340.65	19.86	-47.5	-49.9	14.2	7.00e-07	0	57	0	852492288	56	5130
2026-01-05 06:06:00.07	340.03	19.66	-48.4	-51.6	12.5	1.06e-04	0	56	0	857735168	58	5566
2026-01-05 06:06:03.05	339.40	19.45	-48.6	-52.0	12.1	3.07e-04	0	57	0	862978048	59	5486
2026-01-05 06:06:06.02	338.79	19.25	-48.8	-52.5	11.6	6.48e-04	0	57	0	869269504	59	5801
2026-01-05 06:06:08.98	338.19	19.05	-47.4	-49.9	14.3	7.00e-07	0	57	0	874512384	58	4551
2026-01-05 06:06:11.95	337.60	18.84	-47.1	-49.4	14.8	0.00e+00	0	57	0	879755264	57	4591
2026-01-05 06:06:14.93	337.01	18.63	-46.9	-49.1	15.3	0.00e+00	0	57	0	886046720	56	4654
2026-01-05 06:06:17.88	336.43	18.43	-47.4	-49.6	14.9	0.00e+00	0	57	0	891289600	56	4941
2026-01-05 06:06:20.86	335.86	18.21	-47.4	-49.6	15.1	7.00e-07	0	57	0	896532480	57	4652
2026-01-05 06:06:23.83	335.30	18.00	-46.9	-48.8	16.0	0.00e+00	0	57	0	902823936	56	4512
2026-01-05 06:06:26.81	334.74	17.79	-47.3	-49.5	15.2	0.00e+00	0	57	0	908066816	56	4898
2026-01-05 06:06:29.76	334.20	17.58	-47.5	-49.7	15.0	0.00e+00	0	57	0	913309696	57	4758
2026-01-05 06:06:32.73	333.66	17.36	-47.5	-49.6	15.2	0.00e+00	0	57	0	919601152	57	4696
2026-01-05 06:06:35.69	333.13	17.15	-47.3	-49.3	15.4	0.00e+00	0	57	0	924844032	57	4537
2026-01-05 06:06:38.65	332.61	16.93	-47.1	-49.0	15.7	0.00e+00	0	57	0	930086912	57	4375
2026-01-05 06:06:41.62	332.09	16.72	-47.1	-49.0	15.7	0.00e+00	0	57	0	935329792	56	4628
2026-01-05 06:06:44.60	331.58	16.50	-47.2	-49.2	15.6	0.00e+00	0	57	0	941621248	56	4713
2026-01-05 06:06:47.56	331.08	16.29	-47.0	-48.8	16.0	0.00e+00	0	57	0	946864128	56	4530
2026-01-05 06:06:50.52	330.59	16.07	-46.7	-48.4	16.4	0.00e+00	0	57	0	952107008	56	4325
2026-01-05 06:06:53.48	330.10	15.85	-46.6	-48.2	16.5	0.00e+00	0	57	0	958398464	56	4242
2026-01-05 06:06:56.44	329.62	15.64	-46.7	-48.5	16.3	0.00e+00	0	57	0	963641344	56	4367
2026-01-05 06:06:59.40	329.15	15.42	-46.6	-48.3	16.4	0.00e+00	0	57	0	968884224	56	4262
2026-01-05 06:07:02.37	328.69	15.20	-46.1	-47.7	16.9	0.00e+00	0	57	0	975175680	55	4199
2026-01-05 06:07:05.34	328.23	14.98	-46.1	-47.7	17.0	0.00e+00	0	57	0	980418560	55	4216
2026-01-05 06:07:08.32	327.78	14.77	-46.9	-48.8	15.9	0.00e+00	0	57	0	985661440	55	4779
2026-01-05 06:07:11.28	327.33	14.55	-47.5	-49.5	15.2	0.00e+00	0	57	0	991952896	56	4918
2026-01-05 06:07:14.25	326.89	14.33	-47.3	-49.4	15.3	0.00e+00	0	57	0	997195776	57	4557
2026-01-05 06:07:17.21	326.46	14.12	-46.7	-48.5	16.2	0.00e+00	0	57	0	1002438656	56	4354
2026-01-05 06:07:20.18	326.04	13.90	-46.4	-48.1	16.5	0.00e+00	0	57	0	1007681536	55	4406
2026-01-05 06:07:23.13	325.62	13.68	-46.5	-48.2	16.4	0.00e+00	0	57	0	1013972992	55	4466
2026-01-05 06:07:26.11	325.20	13.47	-46.8	-48.6	16.0	0.00e+00	0	57	0	1019215872	55	4701
2026-01-05 06:07:29.06	324.80	13.25	-47.6	-49.8	14.9	0.00e+00	0	57	0	1024458752	57	4806
2026-01-05 06:07:32.04	324.40	13.04	-47.7	-49.9	14.8	0.00e+00	0	57	0	1030750208	57	4829
2026-01-05 06:07:35.01	324.00	12.82	-47.4	-49.6	15.1	0.00e+00	0	57	0	1035993088	57	4664
2026-01-05 06:07:37.98	323.61	12.61	-46.6	-48.4	16.3	0.00e+00	0	57	0	1041235968	56	4296
2026-01-05 06:07:40.95	323.23	12.40	-46.7	-48.5	16.1	0.00e+00	0	57	0	1047527424	56	4363
2026-01-05 06:07:43.93	322.85	12.18	-46.8	-48.6	16.0	0.00e+00	0	57	0	1052770304	56	4413
2026-01-05 06:07:46.90	322.48	11.97	-47.0	-49.0	15.6	0.00e+00	0	57	0	1058013184	56	4612
2026-01-05 06:07:49.86	322.11	11.76	-47.0	-48.9	15.7	0.00e+00	0	57	0	1063256064	56	4565
2026-01-05 06:07:52.83	321.75	11.55	-47.3	-49.5	15.1	0.00e+00	0	57	0	1069547520	56	4880
2026-01-05 06:07:55.79	321.39	11.34	-47.7	-50.0	14.6	7.00e-07	0	57	0	1074790400	57	4896
2026-01-05 06:07:58.76	321.04	11.13	-47.6	-49.8	14.8	0.00e+00	0	57	0	1080033280	57	4793
2026-01-05 06:08:01.72	320.70	10.92	-47.8	-50.2	14.4	1.50e-06	0	57	0	1086324736	57	4989
2026-01-05 06:08:04.70	320.36	10.71	-48.1	-50.6	13.9	1.50e-06	0	57	0	1091567616	57	5273
2026-01-05 06:08:07.65	320.02	10.51	-48.4	-51.1	13.5	7.60e-06	0	57	0	1096810496	58	5256
2026-01-05 06:08:10.61	319.69	10.30	-48.2	-50.9	13.8	1.50e-06	0	57	0	1103101952	58	5104
2026-01-05 06:08:13.59	319.36	10.10	-47.9	-50.2	14.4	7.00e-07	0	57	0	1108344832	58	4752
2026-01-05 06:08:16.57	319.04	9.89	-47.8	-50.1	14.5	0.00e+00	0	57	0	1113587712	58	4679
2026-01-05 06:08:19.55	318.72	9.69	-47.6	-49.9	14.7	7.00e-07	0	57	0	1119879168	58	4558
2026-01-05 06:08:22.53	318.41	9.48	-48.1	-50.6	14.0	2.20e-06	0	57	0	1125122048	58	4935
2026-01-05 06:08:25.50	318.10	9.28	-48.0	-50.6	13.9	7.60e-06	0	57	0	1130364928	58	4935
2026-01-05 06:08:28.45	317.80	9.08	-48.0	-50.5	14.0	3.00e-06	0	57	0	1135607808	58	4918
2026-01-05 06:08:31.42	317.50	8.88	-47.8	-50.2	14.2	1.50e-06	0	57	0	1141899264	58	4757
2026-01-05 06:08:34.39	317.20	8.68	-47.7	-50.0	14.5	0.00e+00	0	57	0	1147142144	58	4645
2026-01-05 06:08:37.35	316.91	8.48	-47.7	-50.1	14.4	1.50e-06	0	57	0	1152385024	58	4682
2026-01-05 06:08:40.32	316.63	8.28	-48.2	-50.9	13.6	3.80e-06	0	57	0	1158676480	58	5107
2026-01-05 06:08:43.28	316.34	8.09	-48.5	-51.4	13.0	3.20e-05	0	57	0	1163919360	58	5457
2026-01-05 06:08:46.24	316.07	7.89	-48.6	-51.8	12.6	7.70e-05	0	57	0	1169162240	59	5368
2026-01-05 06:08:49.21	315.79	7.70	-49.0	-52.3	12.0	2.46e-04	0	57	0	1175453696	59	5701
2026-01-05 06:08:52.18	315.52	7.50	-49.2	-52.8	11.5	6.55e-04	0	57	0	1180696576	60	5702
2026-01-05 06:08:55.14	315.25	7.31	-49.3	-53.2	11.1	1.12e-03	0	57	0	1185939456	60	5939
2026-01-05 06:08:58.12	314.99	7.11	-49.3	-53.3	11.1	1.71e-03	0	57	0	1191182336	60	6006
2026-01-05 06:09:01.08	314.73	6.92	-49.3	-53.1	11.2	1.72e-03	0	57	0	1197473792	60	5870
2026-01-05 06:09:04.04	314.47	6.73	-49.2	-53.0	11.3	2.15e-03	0	57	0	1202716672	60	5843
2026-01-05 06:09:07.01	314.22	6.54	-49.2	-53.0	11.2	1.06e-03	0	57	0	1207959552	60	5797
2026-01-05 06:09:09.98	313.97	6.35	-49.4	-53.4	10.8	2.23e-03	0	57	0	1214251008	60	6078
2026-01-05 06:09:12.95	313.72	6.16	-49.6	-53.9	10.3	4.14e-03	0	57	0	1219493888	60	6434
2026-01-05 06:09:15.93	313.48	5.97	-49.6	-54.0	10.1	6.52e-03	0	57	0	1224736768	61	6159
2026-01-05 06:09:18.90	313.24	5.79	-49.5	-53.8	10.4	4.54e-03	0	57	0	1231028224	61	5994
2026-01-05 06:09:21.86	313.00	5.60	-49.0	-52.7	11.5	1.02e-03	0	57	0	1236271104	61	5290
2026-01-05 06:09:24.83	312.76	5.42	-49.0	-52.7	11.5	5.41e-04	0	57	0	1241513984	60	5648
2026-01-05 06:09:27.79	312.53	5.23	-48.5	-51.5	12.6	1.06e-04	0	57	0	1247805440	59	5186
2026-01-05 06:09:30.74	312.31	5.05	-48.3	-51.3	12.9	3.96e-05	0	57	0	1253048320	59	5072
2026-01-05 06:09:33.71	312.08	4.87	-51.7	-65.6	3.8	1.49e+00	0	57	104	1254096896	65	18602
2026-01-05 06:09:36.67	311.86	4.69	-52.0	-65.8	3.8	1.49e+00	0	57	104	1254096896	65	19151
2026-01-05 06:09:39.63	311.64	4.51	-52.3	-66.1	3.8	1.49e+00	0	57	104	1254096896	66	18615
2026-01-05 06:09:42.60	311.43	4.33	-52.4	-66.2	3.8	1.49e+00	0	57	104	1254096896	66	18870
2026-01-05 06:09:45.56	311.21	4.15	-52.4	-66.3	3.8	1.49e+00	0	57	104	1254096896	66	18998
2026-01-05 06:09:48.53	311.00	3.97	-52.5	-66.3	3.8	1.49e+00	0	57	104	1254096896	66	19068
2026-01-05 06:09:51.49	310.80	3.79	-52.4	-66.3	3.8	1.49e+00	0	57	104	1254096896	66	19115
2026-01-05 06:09:54.47	310.59	3.61	-52.4	-66.4	3.8	1.49e+00	0	57	104	1254096896	66	19254
2026-01-05 06:09:57.45	310.39	3.44	-52.5	-66.4	3.8	1.49e+00	0	57	104	1254096896	67	18175
2026-01-05 06:10:00.43	310.19	3.26	-52.6	-66.4	3.8	1.49e+00	0	57	104	1254096896	67	18115
2026-01-05 06:10:03.39	309.99	3.09	-52.6	-66.4	3.8	1.49e+00	0	57	104	1254096896	67	18153
2026-01-05 06:10:06.36	309.79	2.91	-52.5	-66.4	3.8	1.49e+00	0	57	104	1254096896	67	18112

#Closed at: 2026-01-05 06:10:07
#Recorded file [1254 MB]: D:/Data/31026_260105_090931.dat