passes_logs/2026/01/05/R3.0SM8_Murmansk_STILSPACE/R3.0SM8_Murmansk_STILSPACE__20260105_091601_SUOMI_NPP_rec.log

#Pass ID: 20260105_091601_SUOMI NPP
#Satellite: SUOMI NPP
#Configuration: NPP
#almurnet v.1.7.20240730
#Start time: 2026-01-05 09:16:02

#Version: 2.2.20231116
#Station: R3.0SM8_Murmansk_STILSPACE
#Location: 33.092731 lon 68.902999 lat
#TLE: 1 37849U 11061A   26003.96724563  .00000164  00000+0  98899-4 0  9990
#TLE: 2 37849  98.7800 306.1116 0002573  82.3190 277.8279 14.19522066735141

#Time	Az	El	Level	Level2	SNR	BER	BlckErr	Temp	State	Recorded	gain1	gain2
2026-01-05 09:16:02.14	143.73	3.03	-52.1	-66.1	3.8	1.49e+00	0	46	0	0	66	18642
2026-01-05 09:16:06.11	143.70	3.29	-52.0	-65.9	3.8	1.49e+00	0	46	104	0	67	17165
2026-01-05 09:16:10.07	143.68	3.56	-51.4	-65.3	3.8	1.49e+00	0	47	104	0	66	16936
2026-01-05 09:16:14.02	143.65	3.83	-51.4	-64.8	3.8	1.49e+00	0	47	104	0	65	16992
2026-01-05 09:16:17.96	143.62	4.10	-51.4	-63.9	3.8	1.49e+00	0	47	104	0	65	15251
2026-01-05 09:16:21.91	143.59	4.38	-51.2	-62.7	4.0	1.49e+00	0	47	104	0	65	13307
2026-01-05 09:16:25.88	143.57	4.66	-51.2	-61.2	4.3	1.35e+00	0	48	0	0	65	11251
2026-01-05 09:16:29.79	143.54	4.93	-50.9	-58.9	5.5	5.62e-01	0	48	0	7340032	64	9132
2026-01-05 09:16:33.75	143.50	5.22	-50.7	-57.8	6.3	2.10e-01	0	48	0	14680064	64	8078
2026-01-05 09:16:37.71	143.47	5.51	-50.0	-55.1	8.9	4.63e-02	0	48	0	22020096	63	6269
2026-01-05 09:16:41.66	143.44	5.80	-49.5	-53.7	10.4	4.23e-03	0	49	0	29360128	62	5649
2026-01-05 09:16:45.62	143.41	6.09	-49.3	-53.2	10.9	2.31e-03	0	49	0	36700160	61	5642
2026-01-05 09:16:49.56	143.37	6.38	-49.0	-52.5	11.7	4.09e-04	0	49	0	44040192	60	5505
2026-01-05 09:16:53.51	143.34	6.68	-48.9	-52.3	12.0	5.20e-04	0	49	0	51380224	60	5380
2026-01-05 09:16:57.46	143.30	6.99	-48.4	-51.3	13.0	3.20e-05	0	49	0	58720256	59	5056
2026-01-05 09:17:01.43	143.26	7.30	-48.7	-51.9	12.4	8.31e-05	0	50	0	66060288	59	5444
2026-01-05 09:17:05.38	143.23	7.61	-48.8	-52.0	12.4	1.18e-04	0	50	0	73400320	59	5497
2026-01-05 09:17:09.34	143.19	7.92	-48.8	-51.9	12.5	1.02e-04	0	50	0	80740352	59	5431
2026-01-05 09:17:13.29	143.15	8.24	-48.9	-52.1	12.4	6.56e-05	0	50	0	88080384	59	5534
2026-01-05 09:17:17.25	143.10	8.56	-49.3	-53.2	11.2	6.58e-04	0	50	0	96468992	60	5953
2026-01-05 09:17:21.19	143.06	8.89	-49.4	-53.2	11.2	1.42e-03	0	50	0	103809024	60	5953
2026-01-05 09:17:25.16	143.02	9.22	-49.6	-53.5	11.0	1.69e-03	0	51	0	111149056	61	5799
2026-01-05 09:17:29.10	142.97	9.56	-48.5	-51.3	13.2	3.66e-05	0	51	0	118489088	60	4814
2026-01-05 09:17:33.08	142.92	9.90	-48.2	-50.8	13.9	3.80e-06	0	51	0	125829120	59	4761
2026-01-05 09:17:37.04	142.87	10.24	-48.4	-51.2	13.4	9.90e-06	0	51	0	133169152	59	5015
2026-01-05 09:17:41.01	142.82	10.59	-48.7	-51.7	13.0	4.27e-05	0	51	0	140509184	59	5290
2026-01-05 09:17:44.96	142.77	10.95	-48.7	-51.6	13.0	4.65e-05	0	52	0	147849216	59	5272
2026-01-05 09:17:48.91	142.72	11.31	-48.8	-51.8	12.8	4.73e-05	0	52	0	155189248	59	5350
2026-01-05 09:17:52.87	142.66	11.68	-47.8	-50.1	14.6	0.00e+00	0	52	0	162529280	58	4672
2026-01-05 09:17:56.80	142.61	12.04	-47.6	-49.7	15.0	0.00e+00	0	52	0	169869312	58	4467
2026-01-05 09:18:00.75	142.55	12.42	-47.4	-49.5	15.2	0.00e+00	0	52	0	177209344	57	4614
2026-01-05 09:18:04.71	142.49	12.80	-47.7	-49.9	14.8	0.00e+00	0	52	0	184549376	57	4825
2026-01-05 09:18:08.67	142.43	13.19	-47.6	-49.7	15.0	0.00e+00	0	52	0	191889408	57	4715
2026-01-05 09:18:12.64	142.36	13.59	-47.7	-49.9	14.9	0.00e+00	0	52	0	200278016	57	4817
2026-01-05 09:18:16.59	142.30	13.99	-47.8	-50.1	14.7	0.00e+00	0	52	0	207618048	57	4930
2026-01-05 09:18:20.55	142.23	14.40	-47.3	-49.5	15.2	0.00e+00	0	52	0	214958080	57	4624
2026-01-05 09:18:24.51	142.16	14.81	-47.3	-49.4	15.3	0.00e+00	0	52	0	222298112	57	4588
2026-01-05 09:18:28.46	142.08	15.23	-47.3	-49.5	15.2	0.00e+00	0	53	0	229638144	57	4636
2026-01-05 09:18:32.39	142.01	15.66	-46.7	-48.6	16.1	0.00e+00	0	53	0	236978176	56	4417
2026-01-05 09:18:36.34	141.93	16.10	-46.3	-48.0	16.7	0.00e+00	0	53	0	244318208	55	4348
2026-01-05 09:18:40.28	141.85	16.54	-46.2	-48.0	16.7	0.00e+00	0	53	0	251658240	55	4344
2026-01-05 09:18:44.25	141.77	17.00	-46.3	-47.9	16.7	0.00e+00	0	53	0	258998272	55	4326
2026-01-05 09:18:48.20	141.68	17.46	-46.3	-48.0	16.7	0.00e+00	0	53	0	266338304	55	4349
2026-01-05 09:18:52.16	141.59	17.93	-46.3	-48.0	16.6	0.00e+00	0	53	0	273678336	55	4369
2026-01-05 09:18:56.13	141.49	18.41	-46.3	-48.0	16.7	0.00e+00	0	53	0	281018368	55	4355
2026-01-05 09:19:00.08	141.40	18.90	-46.3	-48.0	16.7	0.00e+00	0	53	0	288358400	55	4368
2026-01-05 09:19:04.05	141.30	19.40	-46.2	-48.0	16.7	0.00e+00	0	53	0	296747008	55	4352
2026-01-05 09:19:08.00	141.19	19.91	-46.4	-48.1	16.6	0.00e+00	0	53	0	304087040	55	4427
2026-01-05 09:19:11.97	141.08	20.43	-46.4	-48.2	16.6	0.00e+00	0	54	0	311427072	55	4450
2026-01-05 09:19:15.93	140.97	20.96	-46.5	-48.2	16.5	0.00e+00	0	54	0	318767104	55	4477
2026-01-05 09:19:19.90	140.85	21.50	-46.7	-48.6	16.2	0.00e+00	0	54	0	326107136	55	4669
2026-01-05 09:19:23.86	140.73	22.06	-46.8	-48.6	16.2	0.00e+00	0	54	0	333447168	55	4694
2026-01-05 09:19:27.81	140.61	22.62	-47.3	-49.3	15.6	0.00e+00	0	54	0	340787200	56	4779
2026-01-05 09:19:31.75	140.47	23.20	-47.5	-49.5	15.4	0.00e+00	0	54	0	348127232	57	4639
2026-01-05 09:19:35.69	140.34	23.79	-47.9	-50.2	14.8	0.00e+00	0	54	0	355467264	57	5018
2026-01-05 09:19:39.66	140.19	24.39	-47.6	-49.7	15.3	0.00e+00	0	54	0	362807296	57	4740
2026-01-05 09:19:43.62	140.04	25.01	-48.3	-50.7	14.2	2.20e-06	0	54	0	370147328	58	5032
2026-01-05 09:19:47.57	139.89	25.64	-48.7	-51.4	13.6	6.80e-06	0	54	0	377487360	59	5113
2026-01-05 09:19:51.55	139.72	26.30	-48.6	-51.2	13.9	4.50e-06	0	54	0	384827392	59	5004
2026-01-05 09:19:55.52	139.55	26.96	-48.3	-50.7	14.3	2.20e-06	0	54	0	393216000	59	4733
2026-01-05 09:19:59.48	139.37	27.64	-48.3	-50.7	14.2	7.00e-07	0	54	0	400556032	59	4750
2026-01-05 09:20:03.42	139.19	28.34	-48.5	-50.9	14.1	2.20e-06	0	55	0	407896064	59	4851
2026-01-05 09:20:07.37	138.99	29.05	-48.7	-51.5	13.5	1.75e-05	0	55	0	415236096	60	4887
2026-01-05 09:20:11.33	138.79	29.79	-49.4	-52.6	12.4	1.33e-04	0	55	0	422576128	60	5581
2026-01-05 09:20:15.28	138.57	30.54	-49.5	-52.9	12.1	3.07e-04	0	55	0	429916160	62	5102
2026-01-05 09:20:19.23	138.34	31.31	-49.1	-52.2	12.9	6.48e-05	0	55	0	437256192	61	5009
2026-01-05 09:20:23.18	138.11	32.10	-49.5	-53.1	11.9	1.87e-04	0	55	0	444596224	61	5532
2026-01-05 09:20:27.13	137.85	32.91	-49.8	-53.6	11.4	9.73e-04	0	55	0	451936256	61	5862
2026-01-05 09:20:31.08	137.59	33.74	-49.7	-53.3	11.6	5.84e-04	0	55	0	459276288	61	5703
2026-01-05 09:20:35.03	137.31	34.60	-49.9	-53.8	11.1	4.10e-03	0	55	0	466616320	62	5714
2026-01-05 09:20:38.99	137.01	35.48	-48.7	-51.5	13.5	8.30e-06	0	55	0	473956352	60	4914
2026-01-05 09:20:42.94	136.70	36.38	-49.0	-52.1	13.0	2.51e-05	0	55	0	481296384	59	5541
2026-01-05 09:20:46.91	136.37	37.31	-48.4	-51.1	14.0	5.30e-06	0	55	0	488636416	59	4971
2026-01-05 09:20:50.85	136.02	38.27	-48.0	-50.2	14.9	0.00e+00	0	55	0	495976448	58	4751
2026-01-05 09:20:54.82	135.64	39.25	-48.7	-51.6	13.4	7.00e-07	0	55	0	504365056	59	5237
2026-01-05 09:20:58.78	135.24	40.26	-48.9	-51.8	13.2	1.52e-05	0	55	0	511705088	59	5365
2026-01-05 09:21:02.74	134.81	41.29	-48.2	-50.6	14.5	7.00e-07	0	55	0	519045120	59	4702
2026-01-05 09:21:06.70	134.36	42.36	-49.1	-52.2	12.9	1.98e-05	0	55	0	526385152	59	5607
2026-01-05 09:21:10.66	133.87	43.45	-49.3	-53.0	12.0	3.26e-04	0	55	0	533725184	60	5850
2026-01-05 09:21:14.63	133.34	44.58	-48.6	-51.7	13.3	3.89e-05	0	55	0	541065216	60	5020
2026-01-05 09:21:18.58	132.78	45.73	-47.7	-50.0	15.1	0.00e+00	0	55	0	548405248	58	4602
2026-01-05 09:21:22.54	132.17	46.91	-48.6	-51.4	13.7	2.13e-05	0	55	0	555745280	59	5127
2026-01-05 09:21:26.50	131.51	48.13	-47.9	-50.2	15.0	0.00e+00	0	55	0	563085312	58	4730
2026-01-05 09:21:30.45	130.79	49.37	-47.0	-48.8	16.3	0.00e+00	0	55	0	570425344	56	4524
2026-01-05 09:21:34.40	130.02	50.64	-47.2	-49.1	15.9	0.00e+00	0	55	0	577765376	56	4688
2026-01-05 09:21:38.36	129.17	51.94	-47.2	-49.1	16.0	0.00e+00	0	55	0	585105408	56	4654
2026-01-05 09:21:42.32	128.24	53.27	-47.7	-50.0	15.0	7.00e-07	0	55	0	593494016	58	4620
2026-01-05 09:21:46.27	127.23	54.63	-47.4	-49.5	15.6	0.00e+00	0	56	0	600834048	56	4879
2026-01-05 09:21:50.23	126.11	56.01	-47.3	-49.2	15.8	0.00e+00	0	55	0	608174080	57	4492
2026-01-05 09:21:54.19	124.87	57.42	-48.5	-51.0	14.1	0.00e+00	0	55	0	615514112	58	5198
2026-01-05 09:21:58.15	123.49	58.85	-49.0	-51.9	13.3	1.98e-05	0	55	0	622854144	60	5102
2026-01-05 09:22:02.10	121.95	60.29	-49.1	-52.2	12.8	2.03e-04	0	56	0	630194176	61	4992
2026-01-05 09:22:06.05	120.23	61.74	-47.1	-48.9	16.2	0.00e+00	0	56	0	637534208	57	4304
2026-01-05 09:22:10.02	118.28	63.21	-45.4	-46.7	18.1	0.00e+00	0	56	0	644874240	54	3995
2026-01-05 09:22:13.99	116.07	64.68	-45.9	-47.4	17.6	0.00e+00	0	56	0	652214272	54	4323
2026-01-05 09:22:17.95	113.56	66.13	-48.3	-50.9	14.3	0.00e+00	0	56	0	659554304	58	5131
2026-01-05 09:22:21.92	110.69	67.56	-47.5	-49.4	15.7	0.00e+00	0	56	0	666894336	58	4325
2026-01-05 09:22:25.87	107.40	68.95	-48.9	-51.6	13.5	7.60e-06	0	56	0	674234368	59	5249
2026-01-05 09:22:29.82	103.63	70.29	-48.9	-51.9	13.3	5.41e-05	0	56	0	681574400	61	4825
2026-01-05 09:22:33.77	99.28	71.55	-48.0	-50.2	14.9	7.00e-07	0	56	0	688914432	58	4707
2026-01-05 09:22:37.73	94.26	72.71	-46.4	-47.9	17.1	0.00e+00	0	56	0	697303040	56	4085
2026-01-05 09:22:41.70	88.52	73.74	-46.6	-48.2	16.8	0.00e+00	0	56	0	704643072	55	4459
2026-01-05 09:22:45.66	82.05	74.59	-47.6	-49.5	15.7	0.00e+00	0	56	0	711983104	58	4356
2026-01-05 09:22:49.62	74.89	75.24	-49.0	-51.9	13.2	6.80e-06	0	56	0	719323136	60	5134
2026-01-05 09:22:53.58	67.18	75.65	-50.1	-54.2	10.7	6.07e-03	0	56	0	726663168	63	5621
2026-01-05 09:22:57.53	59.17	75.80	-47.6	-49.6	15.5	7.00e-07	0	56	0	734003200	57	4664
2026-01-05 09:23:01.48	51.16	75.67	-48.8	-51.8	13.2	9.30e-05	0	56	0	741343232	60	5099
2026-01-05 09:23:05.44	43.41	75.28	-48.9	-51.6	13.6	0.00e+00	0	56	0	748683264	59	5222
2026-01-05 09:23:09.40	36.21	74.65	-48.5	-51.0	14.2	0.00e+00	0	56	0	756023296	59	4874
2026-01-05 09:23:13.36	29.69	73.81	-50.2	-54.1	11.2	1.80e-03	0	56	0	763363328	62	5897
2026-01-05 09:23:17.30	23.93	72.80	-49.8	-53.1	12.1	2.24e-04	0	56	0	770703360	62	5238
2026-01-05 09:23:21.26	18.87	71.65	-50.2	-54.1	11.1	1.67e-03	0	56	0	778043392	63	5544
2026-01-05 09:23:25.21	14.47	70.40	-49.5	-52.8	12.3	9.00e-05	0	56	0	785383424	61	5394
2026-01-05 09:23:29.17	10.64	69.07	-49.9	-53.5	11.6	8.59e-04	0	56	0	793772032	61	5804
2026-01-05 09:23:33.11	7.33	67.69	-48.5	-51.2	13.9	1.14e-05	0	56	0	801112064	60	4742
2026-01-05 09:23:37.05	4.45	66.27	-48.8	-51.7	13.4	9.90e-06	0	56	0	808452096	60	5000
2026-01-05 09:23:41.02	1.91	64.82	-46.8	-48.5	16.6	0.00e+00	0	56	0	815792128	56	4371
2026-01-05 09:23:44.97	359.68	63.36	-45.6	-46.9	18.0	0.00e+00	0	56	0	823132160	54	4064
2026-01-05 09:23:48.93	357.72	61.90	-47.0	-48.7	16.3	0.00e+00	0	56	0	830472192	55	4710
2026-01-05 09:23:52.90	355.97	60.44	-49.1	-52.1	13.0	2.05e-05	0	56	0	837812224	60	5273
2026-01-05 09:23:56.86	354.41	59.00	-50.1	-54.3	10.7	1.50e-02	0	56	0	845152256	63	5687
2026-01-05 09:24:00.81	353.03	57.58	-47.2	-49.1	15.9	0.00e+00	0	56	0	852492288	57	4403
2026-01-05 09:24:04.77	351.77	56.17	-47.8	-50.1	15.0	0.00e+00	0	56	0	859832320	57	4938
2026-01-05 09:24:08.72	350.65	54.79	-47.2	-49.2	15.8	0.00e+00	0	56	0	867172352	57	4477
2026-01-05 09:24:12.67	349.62	53.43	-47.1	-49.1	15.8	0.00e+00	0	56	0	874512384	57	4425
2026-01-05 09:24:16.62	348.69	52.11	-47.7	-49.9	15.1	0.00e+00	0	56	0	881852416	57	4865
2026-01-05 09:24:20.57	347.84	50.81	-48.9	-52.2	12.7	4.95e-05	0	56	0	889192448	60	5291
2026-01-05 09:24:24.53	347.06	49.53	-48.3	-50.8	14.3	7.00e-07	0	56	0	897581056	58	5074
2026-01-05 09:24:28.47	346.34	48.30	-48.4	-51.0	14.1	7.00e-07	0	56	0	904921088	59	4874
2026-01-05 09:24:32.44	345.67	47.08	-48.7	-51.8	13.2	1.98e-05	0	56	0	912261120	60	5047
2026-01-05 09:24:36.40	345.06	45.90	-49.2	-52.4	12.6	1.89e-04	0	56	0	919601152	61	5139
2026-01-05 09:24:40.36	344.49	44.74	-48.2	-50.5	14.6	0.00e+00	0	56	0	926941184	58	4893
2026-01-05 09:24:44.32	343.97	43.62	-49.1	-52.3	12.7	8.39e-05	0	56	0	934281216	61	5083
2026-01-05 09:24:48.28	343.47	42.53	-48.5	-51.3	13.8	5.30e-06	0	56	0	941621248	59	5074
2026-01-05 09:24:52.23	343.02	41.46	-49.9	-54.1	10.9	4.69e-03	0	56	0	948961280	62	5867
2026-01-05 09:24:56.18	342.59	40.43	-47.9	-50.1	15.0	0.00e+00	0	56	0	956301312	58	4670
2026-01-05 09:25:00.12	342.19	39.43	-48.9	-51.9	13.2	1.06e-05	0	56	0	963641344	59	5419
2026-01-05 09:25:04.09	341.81	38.44	-48.4	-51.0	14.0	1.22e-05	0	56	0	970981376	59	4884
2026-01-05 09:25:08.03	341.46	37.49	-48.2	-50.8	14.2	7.00e-07	0	56	0	978321408	58	5051
2026-01-05 09:25:11.99	341.12	36.56	-48.1	-50.5	14.4	2.20e-06	0	56	0	985661440	59	4637
2026-01-05 09:25:15.95	340.81	35.65	-48.9	-52.0	13.0	1.75e-05	0	56	0	994050048	59	5482
2026-01-05 09:25:19.90	340.51	34.77	-48.8	-51.9	13.0	4.73e-05	0	56	0	1001390080	60	5121
2026-01-05 09:25:23.86	340.23	33.92	-48.3	-50.8	14.2	6.80e-06	0	56	0	1008730112	59	4768
2026-01-05 09:25:27.82	339.97	33.08	-49.1	-52.1	12.8	1.67e-05	0	56	0	1016070144	60	5249
2026-01-05 09:25:31.76	339.71	32.27	-49.3	-52.4	12.6	4.34e-05	0	56	0	1023410176	60	5412
2026-01-05 09:25:35.72	339.48	31.48	-48.8	-51.5	13.5	6.10e-06	0	57	0	1030750208	59	5179
2026-01-05 09:25:39.67	339.25	30.71	-48.7	-51.6	13.4	1.90e-05	0	56	0	1038090240	59	5221
2026-01-05 09:25:43.63	339.03	29.95	-48.7	-51.6	13.3	3.96e-05	0	56	0	1045430272	60	4948
2026-01-05 09:25:47.59	338.83	29.22	-49.2	-52.3	12.5	1.07e-04	0	56	0	1052770304	60	5392
2026-01-05 09:25:51.55	338.63	28.50	-48.0	-50.2	15.0	0.00e+00	0	56	0	1060110336	58	4718
2026-01-05 09:25:55.50	338.45	27.81	-48.1	-50.5	14.4	1.50e-06	0	56	0	1067450368	58	4919
2026-01-05 09:25:59.45	338.27	27.13	-48.6	-51.2	13.7	5.30e-06	0	56	0	1074790400	59	5037
2026-01-05 09:26:03.41	338.10	26.46	-48.4	-50.9	14.1	2.20e-06	0	56	0	1082130432	59	4845
2026-01-05 09:26:07.36	337.94	25.82	-47.1	-49.0	15.9	0.00e+00	0	56	0	1089470464	57	4376
2026-01-05 09:26:11.30	337.78	25.18	-47.1	-49.0	15.9	0.00e+00	0	56	0	1097859072	57	4369
2026-01-05 09:26:15.27	337.63	24.56	-47.6	-49.7	15.2	0.00e+00	0	56	0	1105199104	57	4717
2026-01-05 09:26:19.21	337.49	23.96	-48.2	-50.7	14.2	7.00e-07	0	56	0	1112539136	58	4984
2026-01-05 09:26:23.15	337.35	23.37	-48.7	-51.6	13.3	6.80e-06	0	56	0	1119879168	59	5221
2026-01-05 09:26:27.12	337.22	22.79	-48.7	-51.6	13.2	4.42e-05	0	56	0	1127219200	59	5221
2026-01-05 09:26:31.07	337.10	22.23	-48.1	-50.6	14.1	4.50e-06	0	56	0	1134559232	59	4692
2026-01-05 09:26:35.03	336.98	21.67	-48.5	-51.2	13.4	1.29e-05	0	56	0	1141899264	59	5023
2026-01-05 09:26:38.98	336.86	21.13	-49.0	-52.4	11.9	2.34e-04	0	56	0	1149239296	59	5754
2026-01-05 09:26:42.94	336.75	20.60	-49.2	-53.2	10.9	1.38e-03	0	56	0	1156579328	60	5960
2026-01-05 09:26:46.90	336.64	20.08	-48.4	-51.6	12.5	3.45e-04	0	56	0	1163919360	60	4946
2026-01-05 09:26:50.86	336.54	19.57	-47.2	-49.4	14.8	0.00e+00	0	56	0	1171259392	57	4587
2026-01-05 09:26:54.82	336.44	19.07	-46.6	-48.5	16.1	0.00e+00	0	56	0	1178599424	56	4347
2026-01-05 09:26:58.78	336.34	18.58	-47.4	-49.5	15.1	7.00e-07	0	56	0	1185939456	56	4906
2026-01-05 09:27:02.70	336.25	18.10	-48.6	-51.5	13.2	1.37e-05	0	56	0	1193279488	59	5185
2026-01-05 09:27:06.68	336.16	17.63	-48.9	-52.2	12.4	1.59e-04	0	56	0	1201668096	60	5328
2026-01-05 09:27:10.64	336.08	17.17	-49.3	-53.0	11.7	8.05e-04	0	56	0	1209008128	60	5792
2026-01-05 09:27:14.59	335.99	16.72	-49.2	-52.8	11.7	5.38e-04	0	56	0	1216348160	60	5711
2026-01-05 09:27:18.55	335.91	16.27	-49.2	-52.8	11.9	3.46e-04	0	56	0	1223688192	60	5668
2026-01-05 09:27:22.51	335.84	15.83	-49.2	-52.9	11.7	5.49e-04	0	56	0	1231028224	60	5735
2026-01-05 09:27:26.48	335.76	15.40	-49.1	-52.6	11.9	4.05e-04	0	56	0	1238368256	60	5586
2026-01-05 09:27:30.43	335.69	14.98	-49.0	-52.5	12.1	2.50e-04	0	56	0	1245708288	60	5479
2026-01-05 09:27:34.40	335.62	14.56	-49.1	-52.5	12.1	3.36e-04	0	56	0	1253048320	60	5502
2026-01-05 09:27:38.35	335.56	14.16	-48.7	-52.0	12.6	9.07e-05	0	56	0	1260388352	60	5161
2026-01-05 09:27:42.31	335.49	13.75	-48.4	-51.4	13.2	3.66e-05	0	56	0	1267728384	60	4838
2026-01-05 09:27:46.28	335.43	13.36	-48.0	-50.5	14.1	3.00e-06	0	56	0	1275068416	59	4641
2026-01-05 09:27:50.23	335.37	12.97	-48.1	-50.7	13.8	5.30e-06	0	56	0	1282408448	58	5018
2026-01-05 09:27:54.20	335.31	12.59	-48.0	-50.6	13.9	3.80e-06	0	56	0	1289748480	58	4946
2026-01-05 09:27:58.14	335.25	12.21	-48.1	-50.7	13.8	4.50e-06	0	56	0	1298137088	58	5038
2026-01-05 09:28:02.11	335.20	11.84	-47.9	-50.5	14.0	5.30e-06	0	56	0	1305477120	58	4918
2026-01-05 09:28:06.07	335.15	11.47	-47.9	-50.5	13.9	3.80e-06	0	56	0	1312817152	58	4924
2026-01-05 09:28:10.02	335.09	11.11	-48.3	-51.1	13.3	1.06e-05	0	56	0	1320157184	58	5225
2026-01-05 09:28:13.99	335.04	10.76	-48.2	-51.0	13.3	8.30e-06	0	56	0	1327497216	58	5218
2026-01-05 09:28:17.95	335.00	10.41	-48.3	-51.1	13.2	2.21e-05	0	56	0	1334837248	58	5274
2026-01-05 09:28:21.91	334.95	10.06	-48.3	-51.1	13.3	1.37e-05	0	56	0	1342177280	58	5227
2026-01-05 09:28:25.88	334.91	9.72	-48.2	-51.0	13.4	1.22e-05	0	56	0	1349517312	58	5188
2026-01-05 09:28:29.82	334.86	9.38	-48.4	-51.3	13.1	1.98e-05	0	56	0	1356857344	58	5352
2026-01-05 09:28:33.77	334.82	9.05	-48.1	-50.8	13.6	5.30e-06	0	56	0	1364197376	58	5073
2026-01-05 09:28:37.72	334.78	8.73	-48.2	-51.0	13.3	1.14e-05	0	56	0	1371537408	58	5175
2026-01-05 09:28:41.67	334.74	8.40	-48.3	-51.2	13.1	1.90e-05	0	56	0	1378877440	58	5302
2026-01-05 09:28:45.62	334.70	8.09	-48.4	-51.6	12.7	6.48e-05	0	56	0	1386217472	58	5529
2026-01-05 09:28:49.58	334.66	7.77	-48.5	-51.7	12.6	1.01e-04	0	56	0	1394606080	59	5302
2026-01-05 09:28:53.53	334.63	7.46	-48.7	-51.9	12.3	1.83e-04	0	56	0	1401946112	59	5458
2026-01-05 09:28:57.48	334.59	7.15	-48.8	-52.2	11.9	4.49e-04	0	56	0	1409286144	59	5639
2026-01-05 09:29:01.45	334.56	6.85	-48.6	-51.9	12.3	1.23e-04	0	56	0	1416626176	59	5423
2026-01-05 09:29:05.43	334.53	6.55	-48.6	-51.9	12.2	2.45e-04	0	56	0	1423966208	59	5451
2026-01-05 09:29:09.39	334.49	6.25	-48.8	-52.4	11.7	4.27e-04	0	56	0	1431306240	59	5786
2026-01-05 09:29:13.36	334.46	5.96	-48.9	-52.5	11.6	7.26e-04	0	56	0	1438646272	59	5834
2026-01-05 09:29:17.31	334.43	5.67	-49.0	-53.0	11.0	2.14e-03	0	56	0	1445986304	60	5825
2026-01-05 09:29:21.26	334.40	5.38	-49.2	-53.3	10.6	3.17e-03	0	56	0	1453326336	60	6040
2026-01-05 09:29:25.22	334.38	5.10	-48.8	-52.7	11.3	1.43e-03	0	56	0	1460666368	60	5608
2026-01-05 09:29:29.17	334.35	4.82	-52.0	-65.7	3.8	1.49e+00	0	56	104	1462763520	65	18818
2026-01-05 09:29:33.13	334.32	4.54	-52.2	-66.0	3.8	1.49e+00	0	57	104	1462763520	66	18472
2026-01-05 09:29:37.08	334.30	4.26	-52.3	-66.2	3.8	1.49e+00	0	57	104	1462763520	66	18791
2026-01-05 09:29:41.03	334.27	3.99	-52.4	-66.3	3.8	1.49e+00	0	57	104	1462763520	66	19023
2026-01-05 09:29:44.99	334.25	3.72	-52.5	-66.3	3.8	1.49e+00	0	57	104	1462763520	66	19088
2026-01-05 09:29:48.95	334.23	3.45	-52.5	-66.3	3.8	1.49e+00	0	57	104	1462763520	66	19155
2026-01-05 09:29:52.91	334.20	3.19	-52.5	-66.3	3.8	1.49e+00	0	57	104	1462763520	66	19158

#Closed at: 2026-01-05 09:29:55
#Recorded file [1462 MB]: D:/Data/31026_260105_122926.dat