passes_logs/2026/01/05/R3.0SM8_Murmansk_STILSPACE/R3.0SM8_Murmansk_STILSPACE__20260105_041852_SUOMI_NPP_rec.log

#Pass ID: 20260105_041852_SUOMI NPP
#Satellite: SUOMI NPP
#Configuration: NPP
#almurnet v.1.7.20240730
#Start time: 2026-01-05 04:18:53

#Version: 2.2.20231116
#Station: R3.0SM8_Murmansk_STILSPACE
#Location: 33.092731 lon 68.902999 lat
#TLE: 1 37849U 11061A   26003.96724563  .00000164  00000+0  98899-4 0  9990
#TLE: 2 37849  98.7800 306.1116 0002573  82.3190 277.8279 14.19522066735141

#Time	Az	El	Level	Level2	SNR	BER	BlckErr	Temp	State	Recorded	gain1	gain2
2026-01-05 04:18:53.00	48.81	3.00	-52.6	-66.4	3.8	1.49e+00	0	57	0	0	67	18263
2026-01-05 04:18:55.97	48.62	3.18	-52.7	-66.5	3.8	1.49e+00	0	57	104	0	68	17470
2026-01-05 04:18:58.95	48.42	3.35	-52.7	-66.5	3.8	1.49e+00	0	57	104	0	68	17430
2026-01-05 04:19:01.92	48.22	3.53	-52.6	-66.5	3.8	1.49e+00	0	57	104	0	68	17432
2026-01-05 04:19:04.89	48.02	3.71	-52.5	-66.5	3.8	1.49e+00	0	57	104	0	68	17476
2026-01-05 04:19:07.86	47.81	3.89	-52.6	-66.5	3.8	1.49e+00	0	57	104	0	68	17424
2026-01-05 04:19:10.84	47.61	4.07	-52.5	-66.5	3.8	1.49e+00	0	57	104	0	68	17455
2026-01-05 04:19:13.80	47.40	4.24	-52.7	-66.6	3.8	1.49e+00	0	57	104	0	68	17501
2026-01-05 04:19:16.77	47.18	4.43	-52.7	-66.5	3.8	1.49e+00	0	57	104	0	68	17409
2026-01-05 04:19:19.74	46.97	4.61	-52.7	-66.5	3.8	1.49e+00	0	57	104	0	68	17426
2026-01-05 04:19:22.70	46.75	4.79	-52.5	-66.5	3.8	1.49e+00	0	57	104	0	68	17308
2026-01-05 04:19:25.67	46.53	4.97	-52.6	-66.5	3.8	1.49e+00	0	57	104	0	68	17309
2026-01-05 04:19:28.63	46.31	5.16	-52.6	-66.4	3.8	1.49e+00	0	57	104	0	68	17160
2026-01-05 04:19:31.58	46.08	5.34	-52.4	-66.2	3.8	1.49e+00	0	57	104	0	67	17755
2026-01-05 04:19:34.54	45.85	5.52	-52.2	-66.0	3.8	1.49e+00	0	57	104	0	67	17481
2026-01-05 04:19:37.51	45.62	5.71	-51.8	-65.1	3.8	1.49e+00	0	57	104	0	66	16533
2026-01-05 04:19:40.47	45.38	5.90	-50.5	-56.5	7.8	1.13e-01	0	57	0	3145728	63	7330
2026-01-05 04:19:43.45	45.14	6.09	-50.2	-55.5	8.7	3.43e-02	0	57	0	8388608	63	6556
2026-01-05 04:19:46.42	44.90	6.28	-50.2	-55.5	8.8	3.29e-02	0	57	0	14680064	63	6545
2026-01-05 04:19:49.39	44.65	6.47	-50.4	-55.7	8.6	3.42e-02	0	57	0	19922944	63	6719
2026-01-05 04:19:52.35	44.41	6.66	-49.8	-54.2	10.1	1.07e-02	0	57	0	25165824	62	5978
2026-01-05 04:19:55.32	44.15	6.85	-49.1	-52.7	11.7	9.25e-04	0	57	0	31457280	61	5326
2026-01-05 04:19:58.30	43.90	7.04	-48.7	-51.9	12.5	1.31e-04	0	57	0	36700160	60	5132
2026-01-05 04:20:01.26	43.64	7.23	-48.7	-51.9	12.5	1.50e-04	0	57	0	41943040	60	5151
2026-01-05 04:20:04.23	43.37	7.43	-48.7	-51.8	12.6	9.23e-05	0	57	0	48234496	60	5066
2026-01-05 04:20:07.18	43.11	7.62	-48.9	-52.2	12.3	1.27e-04	0	57	0	53477376	60	5305
2026-01-05 04:20:10.16	42.84	7.82	-48.8	-52.1	12.2	1.78e-04	0	57	0	58720256	60	5259
2026-01-05 04:20:13.13	42.56	8.02	-49.0	-52.4	12.1	3.32e-04	0	57	0	63963136	60	5457
2026-01-05 04:20:16.10	42.28	8.21	-49.1	-52.7	11.8	3.39e-04	0	57	0	70254592	60	5650
2026-01-05 04:20:19.08	42.00	8.41	-49.0	-52.4	12.1	3.22e-04	0	57	0	75497472	60	5442
2026-01-05 04:20:22.05	41.71	8.61	-49.0	-52.5	12.0	2.66e-04	0	57	0	80740352	60	5521
2026-01-05 04:20:25.02	41.42	8.81	-49.0	-52.4	12.2	4.13e-04	0	57	0	87031808	60	5418
2026-01-05 04:20:27.99	41.13	9.02	-48.7	-51.8	12.8	6.33e-05	0	57	0	92274688	60	5092
2026-01-05 04:20:30.96	40.83	9.22	-48.5	-51.5	13.1	3.43e-05	0	57	0	97517568	60	4899
2026-01-05 04:20:33.92	40.52	9.42	-48.6	-51.5	13.1	1.29e-05	0	57	0	103809024	59	5193
2026-01-05 04:20:36.89	40.22	9.63	-49.0	-52.2	12.5	6.71e-05	0	57	0	109051904	59	5599
2026-01-05 04:20:39.85	39.90	9.83	-48.4	-51.2	13.4	1.75e-05	0	57	0	114294784	59	5030
2026-01-05 04:20:42.83	39.59	10.04	-48.4	-51.2	13.5	1.22e-05	0	57	0	120586240	59	4995
2026-01-05 04:20:45.80	39.26	10.24	-48.5	-51.3	13.4	1.52e-05	0	57	0	125829120	59	5080
2026-01-05 04:20:48.76	38.94	10.45	-48.5	-51.2	13.5	1.90e-05	0	57	0	131072000	59	5005
2026-01-05 04:20:51.74	38.61	10.66	-48.3	-51.0	13.8	5.30e-06	0	57	0	136314880	59	4874
2026-01-05 04:20:54.70	38.27	10.87	-48.5	-51.2	13.5	8.30e-06	0	57	0	142606336	59	5033
2026-01-05 04:20:57.68	37.93	11.08	-48.6	-51.5	13.3	1.98e-05	0	57	0	147849216	59	5165
2026-01-05 04:21:00.65	37.58	11.29	-48.6	-51.4	13.4	2.13e-05	0	57	0	153092096	59	5112
2026-01-05 04:21:03.62	37.23	11.50	-48.7	-51.6	13.1	1.44e-05	0	57	0	159383552	59	5237
2026-01-05 04:21:06.61	36.87	11.71	-48.9	-52.0	12.8	5.64e-05	0	57	0	164626432	59	5465
2026-01-05 04:21:09.59	36.51	11.93	-48.8	-51.8	13.0	4.88e-05	0	57	0	169869312	59	5345
2026-01-05 04:21:12.56	36.14	12.14	-48.4	-51.1	13.6	6.80e-06	0	57	0	176160768	59	4953
2026-01-05 04:21:15.54	35.77	12.36	-48.3	-50.9	13.9	3.00e-06	0	57	0	181403648	59	4836
2026-01-05 04:21:18.51	35.39	12.57	-47.9	-50.3	14.5	7.00e-07	0	57	0	186646528	59	4500
2026-01-05 04:21:21.49	35.00	12.79	-47.9	-50.2	14.5	0.00e+00	0	57	0	192937984	58	4752
2026-01-05 04:21:24.44	34.62	13.00	-47.7	-50.0	14.8	7.00e-07	0	57	0	198180864	58	4603
2026-01-05 04:21:27.41	34.22	13.22	-47.9	-50.1	14.7	0.00e+00	0	57	0	203423744	58	4694
2026-01-05 04:21:30.37	33.82	13.44	-47.8	-50.2	14.6	0.00e+00	0	57	0	209715200	58	4737
2026-01-05 04:21:33.34	33.41	13.65	-47.7	-49.9	14.9	7.00e-07	0	57	0	214958080	58	4584
2026-01-05 04:21:36.31	33.00	13.87	-47.8	-50.0	14.8	0.00e+00	0	57	0	220200960	58	4639
2026-01-05 04:21:39.26	32.58	14.09	-47.8	-50.0	14.9	0.00e+00	0	57	0	225443840	58	4613
2026-01-05 04:21:42.23	32.15	14.31	-47.7	-49.8	15.0	0.00e+00	0	57	0	231735296	58	4543
2026-01-05 04:21:45.21	31.72	14.53	-47.8	-50.0	14.8	0.00e+00	0	57	0	236978176	58	4642
2026-01-05 04:21:48.20	31.28	14.75	-47.9	-50.2	14.7	0.00e+00	0	57	0	242221056	58	4723
2026-01-05 04:21:51.17	30.83	14.97	-47.9	-50.2	14.6	7.00e-07	0	57	0	248512512	58	4755
2026-01-05 04:21:54.14	30.38	15.19	-48.4	-51.1	13.8	3.80e-06	0	57	0	253755392	58	5230
2026-01-05 04:21:57.11	29.92	15.41	-48.5	-51.3	13.6	1.22e-05	0	57	0	258998272	59	5056
2026-01-05 04:22:00.08	29.45	15.63	-48.5	-51.2	13.6	6.80e-06	0	57	0	265289728	59	5040
2026-01-05 04:22:03.04	28.98	15.85	-48.5	-51.2	13.7	3.00e-06	0	57	0	270532608	59	5009
2026-01-05 04:22:06.01	28.49	16.07	-48.1	-50.6	14.3	2.20e-06	0	57	0	275775488	59	4675
2026-01-05 04:22:08.99	28.00	16.29	-48.1	-50.5	14.4	0.00e+00	0	57	0	282066944	59	4632
2026-01-05 04:22:11.96	27.51	16.51	-48.4	-51.1	13.8	2.20e-06	0	57	0	287309824	59	4930
2026-01-05 04:22:14.92	27.01	16.73	-48.2	-50.6	14.2	7.00e-07	0	57	0	292552704	59	4693
2026-01-05 04:22:17.90	26.49	16.95	-48.1	-50.5	14.3	7.00e-07	0	57	0	298844160	59	4638
2026-01-05 04:22:20.89	25.97	17.17	-47.9	-50.2	14.7	0.00e+00	0	57	0	304087040	58	4716
2026-01-05 04:22:23.87	25.44	17.39	-47.9	-50.3	14.6	7.00e-07	0	57	0	309329920	58	4773
2026-01-05 04:22:26.83	24.91	17.61	-48.1	-50.6	14.3	1.50e-06	0	57	0	315621376	58	4963
2026-01-05 04:22:29.80	24.37	17.83	-47.9	-50.3	14.6	7.00e-07	0	57	0	320864256	58	4803
2026-01-05 04:22:32.77	23.82	18.04	-48.1	-50.6	14.3	7.00e-07	0	57	0	326107136	58	4980
2026-01-05 04:22:35.73	23.26	18.26	-48.1	-50.5	14.4	1.50e-06	0	58	0	331350016	58	4888
2026-01-05 04:22:38.70	22.69	18.47	-48.1	-50.6	14.3	1.50e-06	0	57	0	337641472	58	4950
2026-01-05 04:22:41.67	22.12	18.69	-48.0	-50.4	14.5	0.00e+00	0	57	0	342884352	58	4847
2026-01-05 04:22:44.64	21.54	18.90	-47.6	-49.7	15.2	0.00e+00	0	57	0	348127232	58	4478
2026-01-05 04:22:47.61	20.95	19.11	-48.1	-50.5	14.4	0.00e+00	0	57	0	354418688	58	4918
2026-01-05 04:22:50.59	20.34	19.32	-48.0	-50.4	14.6	7.00e-07	0	57	0	359661568	58	4836
2026-01-05 04:22:53.57	19.74	19.53	-47.8	-50.1	14.8	7.00e-07	0	57	0	364904448	58	4684
2026-01-05 04:22:56.54	19.12	19.73	-47.7	-49.9	15.1	7.00e-07	0	57	0	371195904	58	4553
2026-01-05 04:22:59.51	18.49	19.94	-46.7	-48.4	16.5	0.00e+00	0	57	0	376438784	56	4301
2026-01-05 04:23:02.48	17.86	20.14	-46.9	-48.7	16.1	0.00e+00	0	57	0	381681664	56	4490
2026-01-05 04:23:05.44	17.22	20.34	-46.6	-48.4	16.5	0.00e+00	0	57	0	387973120	56	4313
2026-01-05 04:23:08.41	16.57	20.54	-46.8	-48.5	16.4	0.00e+00	0	57	0	393216000	56	4385
2026-01-05 04:23:11.39	15.91	20.73	-46.9	-48.8	16.1	0.00e+00	0	57	0	398458880	56	4503
2026-01-05 04:23:14.36	15.25	20.93	-46.8	-48.7	16.3	0.00e+00	0	57	0	404750336	56	4461
2026-01-05 04:23:17.34	14.57	21.12	-47.0	-48.9	16.0	0.00e+00	0	57	0	409993216	56	4585
2026-01-05 04:23:20.31	13.88	21.30	-46.6	-48.4	16.5	0.00e+00	0	58	0	415236096	56	4309
2026-01-05 04:23:23.28	13.19	21.49	-46.2	-47.8	17.0	0.00e+00	0	57	0	420478976	55	4271
2026-01-05 04:23:26.24	12.49	21.67	-46.1	-47.6	17.1	0.00e+00	0	57	0	426770432	55	4180
2026-01-05 04:23:29.21	11.79	21.85	-45.8	-47.2	17.5	0.00e+00	0	57	0	432013312	54	4241
2026-01-05 04:23:32.17	11.07	22.02	-46.2	-47.8	17.0	0.00e+00	0	57	0	437256192	54	4502
2026-01-05 04:23:35.13	10.35	22.19	-45.9	-47.4	17.3	0.00e+00	0	57	0	443547648	54	4333
2026-01-05 04:23:38.11	9.61	22.36	-46.0	-47.6	16.9	0.00e+00	0	57	0	448790528	54	4419
2026-01-05 04:23:41.08	8.87	22.52	-45.9	-47.5	17.0	0.00e+00	0	57	0	454033408	54	4359
2026-01-05 04:23:44.05	8.13	22.68	-46.6	-48.5	15.7	0.00e+00	0	57	0	460324864	54	4900
2026-01-05 04:23:47.02	7.37	22.83	-48.6	-52.2	11.5	1.75e-04	0	57	0	465567744	59	5644
2026-01-05 04:23:49.98	6.61	22.98	-49.0	-54.1	9.1	2.42e-02	0	57	0	470810624	60	6608
2026-01-05 04:23:52.94	5.84	23.13	-49.1	-53.9	9.3	3.31e-02	0	57	0	476053504	60	6490
2026-01-05 04:23:55.91	5.06	23.27	-48.3	-51.7	11.7	6.31e-04	0	57	0	482344960	59	5338
2026-01-05 04:23:58.87	4.28	23.40	-49.4	-54.5	9.1	1.98e-02	0	57	0	487587840	60	6907
2026-01-05 04:24:01.84	3.49	23.53	-49.6	-54.5	9.3	3.16e-02	0	57	0	492830720	61	6502
2026-01-05 04:24:04.81	2.69	23.65	-47.9	-50.3	14.3	3.80e-06	0	57	0	499122176	58	4793
2026-01-05 04:24:07.77	1.89	23.77	-47.6	-49.6	15.3	0.00e+00	0	57	0	504365056	57	4688
2026-01-05 04:24:10.75	1.08	23.89	-47.5	-49.5	15.5	0.00e+00	0	57	0	509607936	57	4600
2026-01-05 04:24:13.72	0.26	23.99	-47.8	-49.9	15.0	0.00e+00	0	57	0	515899392	57	4833
2026-01-05 04:24:16.69	359.44	24.10	-48.6	-51.2	13.8	9.90e-06	0	57	0	521142272	59	4998
2026-01-05 04:24:19.65	358.61	24.19	-48.1	-50.4	14.5	3.00e-06	0	57	0	526385152	59	4596
2026-01-05 04:24:22.63	357.78	24.28	-47.3	-49.2	15.8	0.00e+00	0	57	0	532676608	57	4472
2026-01-05 04:24:25.59	356.95	24.36	-47.8	-49.9	15.1	0.00e+00	0	57	0	537919488	57	4860
2026-01-05 04:24:28.55	356.11	24.44	-47.1	-49.0	16.0	0.00e+00	0	57	0	543162368	57	4343
2026-01-05 04:24:31.51	355.27	24.51	-47.5	-49.5	15.4	0.00e+00	0	57	0	548405248	57	4647
2026-01-05 04:24:34.48	354.42	24.57	-48.0	-50.3	14.7	0.00e+00	0	57	0	554696704	58	4767
2026-01-05 04:24:37.45	353.57	24.63	-48.0	-50.2	14.7	0.00e+00	0	57	0	559939584	58	4755
2026-01-05 04:24:40.42	352.71	24.68	-48.4	-51.0	14.0	3.80e-06	0	57	0	565182464	58	5162
2026-01-05 04:24:43.39	351.86	24.72	-48.4	-51.0	14.1	2.20e-06	0	57	0	571473920	58	5166
2026-01-05 04:24:46.37	350.99	24.76	-49.0	-52.0	13.0	2.21e-05	0	57	0	576716800	59	5479
2026-01-05 04:24:49.34	350.13	24.79	-49.4	-52.8	12.1	3.04e-04	0	57	0	581959680	60	5716
2026-01-05 04:24:52.29	349.28	24.81	-49.1	-52.1	12.8	4.27e-05	0	57	0	588251136	60	5259
2026-01-05 04:24:55.27	348.41	24.82	-48.6	-51.4	13.6	1.44e-05	0	58	0	593494016	60	4817
2026-01-05 04:24:58.24	347.55	24.83	-47.3	-49.3	15.6	0.00e+00	0	57	0	598736896	57	4504
2026-01-05 04:25:01.21	346.68	24.83	-47.6	-49.7	15.3	0.00e+00	0	57	0	605028352	57	4750
2026-01-05 04:25:04.18	345.82	24.83	-48.0	-50.4	14.5	0.00e+00	0	57	0	610271232	57	5121
2026-01-05 04:25:07.15	344.95	24.81	-48.0	-50.3	14.6	0.00e+00	0	57	0	615514112	58	4791
2026-01-05 04:25:10.12	344.09	24.79	-47.8	-50.0	15.0	7.00e-07	0	57	0	621805568	58	4604
2026-01-05 04:25:13.08	343.23	24.76	-47.9	-50.2	14.8	0.00e+00	0	57	0	627048448	58	4713
2026-01-05 04:25:16.07	342.37	24.73	-48.2	-50.5	14.6	0.00e+00	0	57	0	632291328	58	4891
2026-01-05 04:25:19.04	341.51	24.69	-47.5	-49.5	15.5	0.00e+00	0	57	0	637534208	58	4361
2026-01-05 04:25:21.99	340.66	24.64	-47.2	-49.1	15.9	0.00e+00	0	57	0	643825664	57	4415
2026-01-05 04:25:24.96	339.81	24.58	-47.4	-49.4	15.6	0.00e+00	0	57	0	649068544	57	4547
2026-01-05 04:25:27.92	338.96	24.52	-46.0	-47.5	17.3	0.00e+00	0	57	0	654311424	55	4130
2026-01-05 04:25:30.85	338.13	24.45	-45.3	-46.6	18.2	0.00e+00	0	57	0	660602880	53	4189
2026-01-05 04:25:33.82	337.29	24.38	-45.6	-46.9	17.9	0.00e+00	0	57	0	665845760	53	4322
2026-01-05 04:25:36.80	336.44	24.30	-46.0	-47.5	17.4	0.00e+00	0	57	0	671088640	53	4601
2026-01-05 04:25:39.76	335.61	24.21	-46.3	-47.8	16.9	0.00e+00	0	57	0	677380096	54	4513
2026-01-05 04:25:42.73	334.79	24.11	-46.5	-48.2	16.7	0.00e+00	0	57	0	682622976	54	4712
2026-01-05 04:25:45.71	333.96	24.01	-46.5	-48.1	16.8	0.00e+00	0	57	0	687865856	54	4677
2026-01-05 04:25:48.68	333.14	23.91	-47.4	-49.3	15.7	0.00e+00	0	57	0	693108736	56	4791
2026-01-05 04:25:51.65	332.33	23.80	-47.3	-49.1	15.9	0.00e+00	0	57	0	699400192	57	4427
2026-01-05 04:25:54.62	331.53	23.68	-47.0	-48.8	16.2	0.00e+00	0	57	0	704643072	57	4269
2026-01-05 04:25:57.60	330.72	23.55	-47.5	-49.4	15.5	0.00e+00	0	57	0	709885952	57	4598
2026-01-05 04:26:00.56	329.93	23.42	-47.7	-49.8	15.2	0.00e+00	0	57	0	716177408	57	4789
2026-01-05 04:26:03.53	329.15	23.29	-47.7	-49.9	15.1	0.00e+00	0	57	0	721420288	57	4860
2026-01-05 04:26:06.49	328.37	23.15	-48.1	-50.4	14.6	0.00e+00	0	57	0	726663168	58	4862
2026-01-05 04:26:09.45	327.60	23.01	-47.5	-49.5	15.5	0.00e+00	0	57	0	732954624	58	4371
2026-01-05 04:26:12.43	326.83	22.86	-47.7	-49.8	15.3	0.00e+00	0	57	0	738197504	57	4765
2026-01-05 04:26:15.40	326.07	22.71	-48.1	-50.5	14.6	0.00e+00	0	57	0	743440384	58	4888
2026-01-05 04:26:18.38	325.32	22.55	-47.9	-50.1	14.9	0.00e+00	0	57	0	749731840	58	4682
2026-01-05 04:26:21.36	324.58	22.39	-47.7	-49.8	15.2	0.00e+00	0	57	0	754974720	58	4531
2026-01-05 04:26:24.33	323.84	22.22	-47.7	-49.8	15.3	0.00e+00	0	57	0	760217600	58	4521
2026-01-05 04:26:27.30	323.12	22.05	-48.2	-50.7	14.3	1.50e-06	0	57	0	766509056	58	5027
2026-01-05 04:26:30.26	322.40	21.88	-47.9	-50.2	14.8	0.00e+00	0	57	0	771751936	58	4726
2026-01-05 04:26:33.23	321.69	21.70	-47.5	-49.6	15.4	0.00e+00	0	57	0	776994816	58	4399
2026-01-05 04:26:36.19	320.99	21.52	-48.0	-50.3	14.6	0.00e+00	0	57	0	782237696	57	5094
2026-01-05 04:26:39.15	320.30	21.34	-48.8	-51.8	13.2	9.10e-06	0	57	0	788529152	59	5371
2026-01-05 04:26:42.12	319.61	21.15	-48.1	-50.5	14.3	0.00e+00	0	57	0	793772032	59	4646
2026-01-05 04:26:45.10	318.93	20.96	-47.9	-50.1	14.9	0.00e+00	0	58	0	799014912	58	4679
2026-01-05 04:26:48.06	318.27	20.77	-47.8	-50.0	15.0	0.00e+00	0	57	0	805306368	58	4617
2026-01-05 04:26:51.04	317.60	20.57	-47.8	-50.1	14.9	0.00e+00	0	57	0	810549248	58	4657
2026-01-05 04:26:54.01	316.95	20.37	-46.5	-48.1	16.7	0.00e+00	0	57	0	815792128	56	4182
2026-01-05 04:26:56.98	316.31	20.17	-45.8	-47.3	17.5	0.00e+00	0	57	0	822083584	54	4244
2026-01-05 04:26:59.95	315.67	19.97	-46.1	-47.7	17.1	0.00e+00	0	57	0	827326464	54	4442
2026-01-05 04:27:02.92	315.05	19.77	-46.9	-48.7	16.0	0.00e+00	0	57	0	832569344	55	4750
2026-01-05 04:27:05.89	314.43	19.56	-47.5	-49.6	15.4	0.00e+00	0	57	0	837812224	56	4935
2026-01-05 04:27:08.86	313.82	19.35	-47.6	-49.8	15.1	0.00e+00	0	57	0	844103680	57	4786
2026-01-05 04:27:11.82	313.22	19.15	-47.4	-49.4	15.5	0.00e+00	0	58	0	849346560	57	4586
2026-01-05 04:27:14.80	312.63	18.93	-47.0	-48.9	16.0	0.00e+00	0	57	0	854589440	57	4303
2026-01-05 04:27:17.76	312.04	18.72	-46.6	-48.3	16.5	0.00e+00	0	57	0	860880896	56	4290
2026-01-05 04:27:20.73	311.47	18.51	-46.8	-48.6	16.3	0.00e+00	0	57	0	866123776	56	4405
2026-01-05 04:27:23.71	310.90	18.29	-47.3	-49.3	15.5	0.00e+00	0	57	0	871366656	56	4799
2026-01-05 04:27:26.68	310.34	18.08	-46.9	-48.8	16.1	0.00e+00	0	57	0	877658112	56	4513
2026-01-05 04:27:29.65	309.78	17.86	-47.3	-49.3	15.6	0.00e+00	0	57	0	882900992	56	4792
2026-01-05 04:27:32.60	309.24	17.65	-47.4	-49.4	15.5	0.00e+00	0	57	0	888143872	56	4839
2026-01-05 04:27:35.58	308.71	17.43	-47.1	-49.0	15.9	0.00e+00	0	57	0	894435328	56	4643
2026-01-05 04:27:38.55	308.18	17.21	-47.1	-49.0	15.9	0.00e+00	0	57	0	899678208	56	4640
2026-01-05 04:27:41.51	307.66	16.99	-46.9	-48.7	16.1	0.00e+00	0	57	0	904921088	56	4486
2026-01-05 04:27:44.49	307.14	16.77	-47.3	-49.2	15.6	7.00e-07	0	57	0	911212544	56	4739
2026-01-05 04:27:47.46	306.64	16.55	-47.2	-49.1	15.8	0.00e+00	0	57	0	916455424	56	4664
2026-01-05 04:27:50.43	306.14	16.33	-46.3	-47.8	16.9	0.00e+00	0	57	0	921698304	55	4287
2026-01-05 04:27:53.40	305.65	16.11	-46.3	-47.9	16.9	0.00e+00	0	57	0	926941184	55	4292
2026-01-05 04:27:56.38	305.16	15.89	-46.4	-48.1	16.7	0.00e+00	0	57	0	933232640	55	4408
2026-01-05 04:27:59.34	304.69	15.67	-46.5	-48.2	16.6	0.00e+00	0	57	0	938475520	55	4465
2026-01-05 04:28:02.31	304.22	15.45	-46.6	-48.3	16.4	0.00e+00	0	57	0	943718400	55	4529
2026-01-05 04:28:05.28	303.76	15.23	-46.2	-47.7	17.0	0.00e+00	0	57	0	950009856	55	4208
2026-01-05 04:28:08.24	303.30	15.01	-46.1	-47.6	17.1	0.00e+00	0	57	0	955252736	55	4165
2026-01-05 04:28:11.22	302.85	14.79	-46.9	-48.7	16.1	0.00e+00	0	57	0	960495616	55	4722
2026-01-05 04:28:14.19	302.41	14.57	-47.5	-49.6	15.2	0.00e+00	0	57	0	966787072	56	4970
2026-01-05 04:28:17.15	301.98	14.35	-47.2	-49.1	15.7	0.00e+00	0	57	0	972029952	57	4408
2026-01-05 04:28:20.13	301.55	14.13	-46.8	-48.7	16.1	0.00e+00	0	57	0	977272832	56	4455
2026-01-05 04:28:23.09	301.13	13.91	-46.6	-48.3	16.4	0.00e+00	0	57	0	983564288	56	4291
2026-01-05 04:28:26.06	300.71	13.69	-46.4	-48.1	16.6	0.00e+00	0	57	0	988807168	55	4399
2026-01-05 04:28:29.02	300.30	13.47	-46.7	-48.5	16.1	0.00e+00	0	57	0	994050048	55	4640
2026-01-05 04:28:31.99	299.90	13.26	-47.7	-49.9	14.9	0.00e+00	0	57	0	999292928	57	4822
2026-01-05 04:28:34.95	299.50	13.04	-48.0	-50.5	14.2	7.00e-07	0	57	0	1005584384	58	4889
2026-01-05 04:28:37.92	299.11	12.82	-47.2	-49.2	15.5	0.00e+00	0	57	0	1010827264	57	4471
2026-01-05 04:28:40.90	298.72	12.61	-46.9	-48.8	15.8	0.00e+00	0	57	0	1016070144	56	4506
2026-01-05 04:28:43.87	298.34	12.39	-46.9	-48.8	15.6	0.00e+00	0	57	0	1022361600	56	4543
2026-01-05 04:28:46.83	297.97	12.18	-47.1	-49.2	15.3	0.00e+00	0	57	0	1027604480	56	4709
2026-01-05 04:28:49.80	297.60	11.96	-47.1	-49.2	15.1	0.00e+00	0	57	0	1032847360	56	4741
2026-01-05 04:28:52.77	297.24	11.75	-47.3	-49.6	14.7	7.00e-07	0	57	0	1039138816	56	4957
2026-01-05 04:28:55.74	296.88	11.54	-48.1	-50.8	13.5	3.00e-06	0	57	0	1044381696	57	5373
2026-01-05 04:28:58.70	296.53	11.33	-48.2	-51.1	13.2	2.89e-05	0	57	0	1049624576	58	5230
2026-01-05 04:29:01.67	296.18	11.11	-48.6	-51.7	12.7	7.09e-05	0	57	0	1055916032	59	5287
2026-01-05 04:29:04.64	295.84	10.90	-48.6	-51.8	12.5	1.01e-04	0	57	0	1061158912	59	5362
2026-01-05 04:29:07.61	295.50	10.70	-48.8	-52.1	12.0	3.43e-04	0	57	0	1066401792	59	5582
2026-01-05 04:29:10.58	295.17	10.49	-48.9	-52.6	11.5	6.10e-04	0	57	0	1071644672	60	5533
2026-01-05 04:29:13.55	294.84	10.28	-48.9	-52.5	11.6	6.61e-04	0	57	0	1077936128	60	5491
2026-01-05 04:29:16.52	294.52	10.07	-48.8	-52.4	11.6	8.41e-04	0	57	0	1083179008	60	5426
2026-01-05 04:29:19.48	294.20	9.87	-48.3	-51.4	12.7	7.40e-05	0	57	0	1088421888	59	5126
2026-01-05 04:29:22.45	293.88	9.66	-48.4	-51.5	12.6	1.17e-04	0	57	0	1094713344	59	5193
2026-01-05 04:29:25.41	293.58	9.46	-48.7	-52.2	11.7	4.16e-04	0	57	0	1099956224	59	5654
2026-01-05 04:29:28.38	293.27	9.25	-49.0	-52.9	10.8	2.39e-03	0	57	0	1105199104	59	6123
2026-01-05 04:29:31.34	292.97	9.05	-48.9	-52.9	10.8	3.15e-03	0	57	0	1111490560	60	5788
2026-01-05 04:29:34.32	292.67	8.85	-49.0	-53.2	10.5	3.13e-03	0	57	0	1116733440	60	5925
2026-01-05 04:29:37.28	292.38	8.65	-48.9	-53.1	10.6	4.31e-03	0	57	0	1121976320	60	5895
2026-01-05 04:29:40.25	292.09	8.45	-49.0	-53.3	10.3	4.71e-03	0	57	0	1127219200	60	6048
2026-01-05 04:29:43.22	291.81	8.25	-49.2	-54.1	9.4	1.40e-02	0	57	0	1133510656	60	6604
2026-01-05 04:29:46.19	291.53	8.05	-49.2	-54.4	9.1	2.40e-02	0	57	0	1138753536	60	6805
2026-01-05 04:29:49.17	291.25	7.85	-49.5	-55.2	8.2	5.45e-02	0	57	0	1143996416	60	7488
2026-01-05 04:29:52.13	290.98	7.66	-49.7	-55.8	7.4	9.36e-02	0	57	0	1150287872	61	7610
2026-01-05 04:29:55.09	290.71	7.46	-49.7	-56.2	7.0	1.61e-01	0	58	0	1155530752	61	7935
2026-01-05 04:29:58.05	290.45	7.27	-49.7	-57.0	6.3	2.39e-01	0	57	0	1160773632	61	8666
2026-01-05 04:30:01.01	290.19	7.07	-49.6	-56.8	6.3	2.35e-01	0	57	0	1167065088	61	8485
2026-01-05 04:30:03.98	289.93	6.88	-49.6	-57.0	6.1	3.14e-01	0	57	0	1172307968	61	8742
2026-01-05 04:30:06.94	289.68	6.69	-49.7	-57.6	5.7	4.58e-01	0	57	0	1177550848	61	9305
2026-01-05 04:30:09.91	289.43	6.50	-49.4	-56.6	6.2	2.96e-01	0	57	0	1183842304	61	8301
2026-01-05 04:30:12.88	289.18	6.31	-49.3	-56.9	5.9	3.76e-01	0	57	0	1189085184	61	8606
2026-01-05 04:30:15.85	288.94	6.12	-49.5	-57.9	5.2	5.24e-01	0	57	0	1194328064	61	9702
2026-01-05 04:30:18.81	288.70	5.93	-49.4	-58.2	4.9	7.29e-01	0	57	0	1200619520	61	10006
2026-01-05 04:30:21.77	288.46	5.74	-49.4	-58.6	4.7	8.11e-01	0	57	0	1205862400	61	10440
2026-01-05 04:30:24.74	288.22	5.56	-49.3	-58.8	4.6	8.96e-01	0	57	0	1211105280	61	10679
2026-01-05 04:30:27.70	287.99	5.37	-49.1	-58.5	4.7	9.04e-01	0	57	0	1216348160	61	10312
2026-01-05 04:30:30.66	287.77	5.19	-49.1	-58.5	4.6	8.63e-01	0	57	0	1222639616	61	10314
2026-01-05 04:30:33.63	287.54	5.00	-50.0	-63.8	3.8	1.49e+00	0	58	104	1225785344	61	19137
2026-01-05 04:30:36.59	287.32	4.82	-52.2	-66.0	3.8	1.49e+00	0	57	104	1225785344	66	18355
2026-01-05 04:30:39.57	287.10	4.64	-52.2	-66.1	3.8	1.49e+00	0	57	104	1225785344	66	18541
2026-01-05 04:30:42.55	286.88	4.45	-52.3	-66.2	3.8	1.49e+00	0	57	104	1225785344	66	18937
2026-01-05 04:30:45.52	286.67	4.27	-52.5	-66.3	3.8	1.49e+00	0	57	104	1225785344	66	19115
2026-01-05 04:30:48.49	286.46	4.09	-52.5	-66.4	3.8	1.49e+00	0	57	104	1225785344	66	19248
2026-01-05 04:30:51.45	286.25	3.92	-52.5	-66.4	3.8	1.49e+00	0	57	104	1225785344	67	18251
2026-01-05 04:30:54.42	286.04	3.74	-52.6	-66.4	3.8	1.49e+00	0	58	104	1225785344	67	18239
2026-01-05 04:30:57.39	285.84	3.56	-52.6	-66.5	3.8	1.49e+00	0	58	104	1225785344	67	18345
2026-01-05 04:31:00.36	285.64	3.38	-52.6	-66.4	3.8	1.49e+00	0	58	104	1225785344	67	18288
2026-01-05 04:31:03.33	285.44	3.21	-52.5	-66.4	3.8	1.49e+00	0	58	104	1225785344	67	18263
2026-01-05 04:31:06.31	285.25	3.03	-52.6	-66.4	3.8	1.49e+00	0	58	104	1225785344	67	18251

#Closed at: 2026-01-05 04:31:07
#Recorded file [1225 MB]: D:/Data/31026_260105_073032.dat