passes_logs/2026/01/05/R3.0SM8_Murmansk_STILSPACE/R3.0SM8_Murmansk_STILSPACE__20260105_084631_FENGYUN_3E_rec.log

#Pass ID: 20260105_084631_FENGYUN 3E
#Satellite: FENGYUN 3E
#Configuration: FENGYUN 3E
#almurnet v.1.7.20240730
#Start time: 2026-01-05 08:50:59

#Version: 2.2.20231116
#Station: R3.0SM8_Murmansk_STILSPACE
#Location: 33.092731 lon 68.902999 lat
#TLE: 1 49008U 21062A   26004.29457719  .00000106  00000+0  70678-4 0  9996
#TLE: 2 49008  98.7471   9.5487 0001503 159.9821 200.1414 14.19883545233329

#Time	Az	El	Level	Level2	SNR	BER	BlckErr	Temp	State	Recorded	gain1	gain2
2026-01-05 08:50:59.16	16.34	20.87	-52.5	-63.4	3.8	8.45e-01	0	56	0	0	67	12847
2026-01-05 08:51:01.12	15.88	20.99	-52.7	-62.8	3.8	8.46e-01	0	57	104	0	68	11280
2026-01-05 08:51:03.10	15.42	21.10	-52.7	-62.9	3.8	8.45e-01	0	57	104	0	68	11345
2026-01-05 08:51:05.08	14.96	21.22	-52.6	-62.8	3.8	8.46e-01	0	57	104	0	67	11890
2026-01-05 08:51:07.04	14.49	21.33	-52.5	-62.8	3.8	8.46e-01	0	57	104	0	67	11826
2026-01-05 08:51:09.02	14.02	21.43	-52.5	-62.7	3.8	8.46e-01	0	57	104	0	67	11777
2026-01-05 08:51:11.01	13.54	21.54	-52.5	-62.7	3.8	8.45e-01	0	57	104	0	67	11816
2026-01-05 08:51:12.99	13.06	21.65	-52.6	-62.7	3.8	8.46e-01	0	57	104	0	67	11736
2026-01-05 08:51:14.97	12.58	21.75	-52.5	-62.6	3.8	8.45e-01	0	57	104	0	67	11671
2026-01-05 08:51:16.94	12.09	21.86	-52.5	-62.6	3.8	8.46e-01	0	57	104	0	67	11611
2026-01-05 08:51:18.92	11.61	21.96	-52.3	-62.6	3.8	8.46e-01	0	57	104	0	67	11556
2026-01-05 08:51:20.90	11.11	22.06	-52.2	-62.2	3.8	8.47e-01	0	57	104	0	67	11101
2026-01-05 08:51:22.88	10.62	22.15	-51.8	-61.9	3.8	8.47e-01	0	57	104	0	66	11299
2026-01-05 08:51:24.85	10.12	22.25	-51.7	-61.5	3.8	8.46e-01	0	57	104	0	66	10829
2026-01-05 08:51:26.83	9.62	22.34	-51.6	-60.9	3.8	8.45e-01	0	57	104	0	66	10140
2026-01-05 08:51:28.80	9.12	22.43	-51.7	-61.4	3.8	8.47e-01	0	57	104	0	66	10746
2026-01-05 08:51:30.78	8.61	22.52	-51.7	-61.7	3.8	8.46e-01	0	57	104	0	66	11088
2026-01-05 08:51:32.77	8.10	22.61	-51.6	-60.9	3.8	8.46e-01	0	57	104	0	66	10145
2026-01-05 08:51:34.75	7.58	22.69	-51.7	-62.0	3.8	8.46e-01	0	57	104	0	66	11436
2026-01-05 08:51:36.74	7.07	22.78	-51.5	-60.5	3.8	8.46e-01	0	57	104	0	65	10287
2026-01-05 08:51:38.73	6.54	22.86	-51.4	-59.9	3.8	8.46e-01	0	57	104	0	65	9509
2026-01-05 08:51:40.71	6.02	22.94	-51.6	-61.0	3.8	8.46e-01	0	57	104	0	65	10826
2026-01-05 08:51:42.69	5.50	23.01	-51.7	-61.8	3.8	8.46e-01	0	57	104	0	65	11826
2026-01-05 08:51:44.67	4.97	23.09	-51.6	-61.4	3.8	8.46e-01	0	57	104	0	65	11349
2026-01-05 08:51:46.66	4.44	23.16	-51.5	-60.3	3.8	8.45e-01	0	57	104	0	65	10023
2026-01-05 08:51:48.64	3.91	23.22	-50.7	-56.3	5.0	8.18e-01	0	57	0	0	64	6712
2026-01-05 08:51:50.62	3.37	23.29	-47.6	-49.6	11.4	2.55e-03	0	57	0	12582912	58	4344
2026-01-05 08:51:52.61	2.83	23.35	-44.6	-45.6	15.5	0.00e+00	0	57	0	26214400	51	4133
2026-01-05 08:51:54.60	2.29	23.42	-43.7	-44.5	16.9	0.00e+00	0	57	0	40894464	50	3844
2026-01-05 08:51:56.57	1.76	23.47	-43.5	-44.2	17.2	0.00e+00	0	57	0	55574528	49	3951
2026-01-05 08:51:58.54	1.22	23.53	-43.4	-44.1	17.3	0.00e+00	0	57	0	69206016	49	3906
2026-01-05 08:52:00.51	0.67	23.58	-43.7	-44.5	16.9	0.00e+00	0	57	0	83886080	49	4067
2026-01-05 08:52:02.50	0.13	23.63	-42.6	-43.2	18.3	0.00e+00	0	57	0	97517568	48	3728
2026-01-05 08:52:04.48	359.58	23.68	-41.7	-42.3	19.1	0.00e+00	0	57	0	112197632	46	3754
2026-01-05 08:52:06.46	359.03	23.72	-41.0	-41.6	19.7	0.00e+00	0	57	0	125829120	44	3884
2026-01-05 08:52:08.44	358.48	23.77	-40.5	-41.0	20.1	0.00e+00	0	57	0	140509184	43	3832
2026-01-05 08:52:10.41	357.93	23.80	-40.4	-40.9	20.2	0.00e+00	0	57	0	155189248	43	3786
2026-01-05 08:52:12.39	357.37	23.84	-40.2	-40.7	20.3	0.00e+00	0	57	0	168820736	43	3708
2026-01-05 08:52:14.36	356.82	23.87	-40.2	-40.7	20.4	0.00e+00	0	57	0	183500800	42	3932
2026-01-05 08:52:16.34	356.27	23.91	-40.1	-40.6	20.6	0.00e+00	0	57	0	197132288	42	3900
2026-01-05 08:52:18.31	355.71	23.93	-40.1	-40.6	20.6	0.00e+00	0	57	0	211812352	42	3903
2026-01-05 08:52:20.31	355.15	23.96	-40.2	-40.7	20.5	0.00e+00	0	57	0	226492416	42	3948
2026-01-05 08:52:22.29	354.59	23.98	-40.4	-40.9	20.2	0.00e+00	0	57	0	240123904	42	4034
2026-01-05 08:52:24.28	354.03	24.00	-40.4	-40.9	20.2	0.00e+00	0	57	0	254803968	42	4020
2026-01-05 08:52:26.25	353.47	24.01	-40.7	-41.3	19.9	0.00e+00	0	57	0	269484032	43	3961
2026-01-05 08:52:28.23	352.91	24.03	-40.8	-41.3	19.9	0.00e+00	0	57	0	283115520	43	3991
2026-01-05 08:52:30.20	352.35	24.04	-40.5	-41.0	20.0	0.00e+00	0	57	0	297795584	43	3859
2026-01-05 08:52:32.19	351.78	24.04	-40.6	-41.2	20.0	0.00e+00	0	57	0	312475648	43	3923
2026-01-05 08:52:34.18	351.22	24.05	-40.5	-41.0	20.1	0.00e+00	0	57	0	326107136	43	3826
2026-01-05 08:52:36.16	350.66	24.05	-41.0	-41.6	19.6	0.00e+00	0	57	0	340787200	43	4101
2026-01-05 08:52:38.15	350.09	24.05	-40.4	-40.9	20.1	0.00e+00	0	57	0	355467264	43	3806
2026-01-05 08:52:40.12	349.53	24.04	-40.4	-40.9	20.2	0.00e+00	0	57	0	369098752	43	3798
2026-01-05 08:52:42.10	348.97	24.03	-40.7	-41.2	19.9	0.00e+00	0	57	0	383778816	43	3940
2026-01-05 08:52:44.08	348.41	24.02	-40.7	-41.2	19.9	0.00e+00	0	57	0	398458880	43	3955
2026-01-05 08:52:46.05	347.85	24.01	-40.9	-41.4	19.8	0.00e+00	0	57	0	412090368	44	3823
2026-01-05 08:52:48.03	347.29	23.99	-40.3	-40.8	20.3	0.00e+00	0	57	0	426770432	43	3760
2026-01-05 08:52:50.01	346.73	23.97	-40.3	-40.8	20.3	0.00e+00	0	57	0	440401920	43	3768
2026-01-05 08:52:51.99	346.17	23.95	-40.2	-40.7	20.4	0.00e+00	0	57	0	455081984	43	3729
2026-01-05 08:52:53.97	345.62	23.92	-40.2	-40.7	20.3	0.00e+00	0	57	0	469762048	43	3729
2026-01-05 08:52:55.96	345.06	23.89	-40.4	-40.9	20.2	0.00e+00	0	57	0	483393536	43	3803
2026-01-05 08:52:57.94	344.50	23.86	-40.5	-41.0	20.1	0.00e+00	0	57	0	498073600	43	3840
2026-01-05 08:52:59.92	343.95	23.83	-40.9	-41.4	19.7	0.00e+00	0	57	0	512753664	43	4026
2026-01-05 08:53:01.91	343.39	23.79	-40.4	-41.0	20.2	0.00e+00	0	57	0	526385152	43	3827
2026-01-05 08:53:03.88	342.84	23.75	-40.5	-41.0	20.1	0.00e+00	0	57	0	541065216	43	3829
2026-01-05 08:53:05.87	342.29	23.71	-40.9	-41.4	19.7	0.00e+00	0	57	0	555745280	43	4044
2026-01-05 08:53:07.85	341.74	23.66	-40.3	-40.8	20.3	0.00e+00	0	57	0	569376768	43	3766
2026-01-05 08:53:09.82	341.19	23.61	-40.0	-40.5	20.6	0.00e+00	0	57	0	584056832	43	3626
2026-01-05 08:53:11.79	340.65	23.56	-40.2	-40.7	20.4	0.00e+00	0	57	0	597688320	43	3730
2026-01-05 08:53:13.77	340.11	23.51	-40.1	-40.6	20.4	0.00e+00	0	57	0	612368384	43	3685
2026-01-05 08:53:15.74	339.57	23.45	-40.1	-40.5	20.5	0.00e+00	0	57	0	625999872	42	3862
2026-01-05 08:53:17.72	339.03	23.39	-40.1	-40.6	20.5	0.00e+00	0	57	0	640679936	42	3883
2026-01-05 08:53:19.68	338.50	23.33	-40.1	-40.6	20.5	0.00e+00	0	57	0	655360000	42	3903
2026-01-05 08:53:21.66	337.96	23.27	-39.9	-40.4	20.7	0.00e+00	0	57	0	668991488	42	3806
2026-01-05 08:53:23.63	337.43	23.20	-40.2	-40.6	20.4	0.00e+00	0	57	0	683671552	42	3912
2026-01-05 08:53:25.61	336.90	23.13	-40.3	-40.8	20.3	0.00e+00	0	57	0	697303040	42	3980
2026-01-05 08:53:27.58	336.37	23.06	-40.1	-40.6	20.5	0.00e+00	0	57	0	711983104	42	3880
2026-01-05 08:53:29.54	335.85	22.99	-40.3	-40.8	20.3	0.00e+00	0	57	0	725614592	42	3969
2026-01-05 08:53:31.52	335.33	22.91	-40.9	-41.4	19.6	0.00e+00	0	57	0	740294656	43	4034
2026-01-05 08:53:33.49	334.81	22.83	-41.4	-42.0	19.1	0.00e+00	0	57	0	754974720	44	4063
2026-01-05 08:53:35.47	334.29	22.75	-41.4	-41.9	19.1	0.00e+00	0	57	0	768606208	44	4050
2026-01-05 08:53:37.46	333.77	22.67	-40.9	-41.4	19.8	0.00e+00	0	57	0	783286272	44	3801
2026-01-05 08:53:39.44	333.26	22.58	-40.6	-41.1	20.1	0.00e+00	0	57	0	797966336	44	3679
2026-01-05 08:53:41.42	332.75	22.49	-40.3	-40.8	20.3	0.00e+00	0	57	0	811597824	43	3768
2026-01-05 08:53:43.40	332.24	22.40	-40.6	-41.1	20.1	0.00e+00	0	58	0	826277888	43	3887
2026-01-05 08:53:45.38	331.74	22.31	-40.6	-41.1	20.0	0.00e+00	0	57	0	840957952	43	3901
2026-01-05 08:53:47.36	331.24	22.22	-40.2	-40.7	20.4	0.00e+00	0	57	0	854589440	43	3714
2026-01-05 08:53:49.34	330.74	22.12	-40.2	-40.7	20.4	0.00e+00	0	57	0	869269504	43	3725
2026-01-05 08:53:51.32	330.25	22.02	-40.5	-41.1	20.1	0.00e+00	0	57	0	882900992	43	3876
2026-01-05 08:53:53.29	329.76	21.92	-40.8	-41.3	19.9	0.00e+00	0	57	0	897581056	43	3996
2026-01-05 08:53:55.28	329.27	21.82	-40.8	-41.4	19.8	0.00e+00	0	57	0	912261120	43	4027
2026-01-05 08:53:57.27	328.78	21.72	-40.5	-41.0	20.1	0.00e+00	0	57	0	925892608	43	3863
2026-01-05 08:53:59.24	328.30	21.61	-40.6	-41.1	20.0	0.00e+00	0	57	0	940572672	43	3913
2026-01-05 08:54:01.22	327.82	21.51	-40.2	-40.7	20.4	0.00e+00	0	58	0	955252736	43	3731
2026-01-05 08:54:03.20	327.34	21.40	-40.2	-40.7	20.4	0.00e+00	0	57	0	968884224	43	3729
2026-01-05 08:54:05.18	326.87	21.29	-40.2	-40.7	20.5	0.00e+00	0	58	0	983564288	43	3716
2026-01-05 08:54:07.17	326.40	21.17	-40.5	-41.1	20.1	0.00e+00	0	57	0	998244352	43	3872
2026-01-05 08:54:09.15	325.94	21.06	-40.4	-40.9	20.3	0.00e+00	0	57	0	1011875840	43	3786
2026-01-05 08:54:11.13	325.48	20.95	-40.6	-41.1	20.0	0.00e+00	0	57	0	1026555904	43	3901
2026-01-05 08:54:13.11	325.02	20.83	-40.6	-41.1	20.0	0.00e+00	0	58	0	1040187392	43	3902
2026-01-05 08:54:15.10	324.56	20.71	-40.9	-41.4	19.7	0.00e+00	0	58	0	1054867456	43	4044
2026-01-05 08:54:17.08	324.11	20.59	-40.7	-41.2	19.9	0.00e+00	0	58	0	1069547520	43	3939
2026-01-05 08:54:19.07	323.66	20.47	-40.7	-41.2	19.5	0.00e+00	0	57	0	1084227584	43	3931
2026-01-05 08:54:21.05	323.22	20.35	-41.3	-41.9	19.4	0.00e+00	0	57	0	1097859072	44	4030
2026-01-05 08:54:23.04	322.77	20.23	-41.3	-41.8	19.5	0.00e+00	0	58	0	1112539136	44	3994
2026-01-05 08:54:25.02	322.34	20.10	-41.0	-41.6	19.7	0.00e+00	0	57	0	1126170624	44	3872
2026-01-05 08:54:26.99	321.91	19.98	-41.2	-41.7	19.5	0.00e+00	0	58	0	1140850688	44	3955
2026-01-05 08:54:28.96	321.48	19.85	-41.2	-41.7	19.5	0.00e+00	0	57	0	1154482176	44	3947
2026-01-05 08:54:30.94	321.05	19.73	-41.0	-41.5	19.7	0.00e+00	0	57	0	1169162240	44	3861
2026-01-05 08:54:32.93	320.63	19.60	-41.1	-41.6	19.7	0.00e+00	0	58	0	1183842304	44	3900
2026-01-05 08:54:34.91	320.21	19.47	-41.1	-41.6	19.6	0.00e+00	0	58	0	1197473792	44	3902
2026-01-05 08:54:36.88	319.79	19.34	-41.5	-42.1	19.1	0.00e+00	0	58	0	1212153856	44	4121
2026-01-05 08:54:38.87	319.38	19.21	-41.6	-42.2	19.1	0.00e+00	0	57	0	1226833920	44	4159
2026-01-05 08:54:40.84	318.97	19.08	-41.3	-41.9	19.3	0.00e+00	0	58	0	1240465408	45	3803
2026-01-05 08:54:42.82	318.57	18.94	-41.7	-42.3	19.0	0.00e+00	0	57	0	1255145472	45	3974
2026-01-05 08:54:44.79	318.17	18.81	-41.8	-42.4	18.9	0.00e+00	0	58	0	1268776960	45	4006
2026-01-05 08:54:46.78	317.77	18.68	-41.4	-42.0	19.2	0.00e+00	0	57	0	1283457024	45	3850
2026-01-05 08:54:48.75	317.38	18.54	-41.5	-42.0	19.2	0.00e+00	0	58	0	1298137088	45	3862
2026-01-05 08:54:50.74	316.99	18.41	-41.4	-42.0	19.3	0.00e+00	0	57	0	1311768576	45	3841
2026-01-05 08:54:52.73	316.60	18.27	-41.1	-41.7	19.5	0.00e+00	0	57	0	1326448640	45	3699
2026-01-05 08:54:54.70	316.22	18.13	-41.1	-41.6	19.6	0.00e+00	0	58	0	1341128704	45	3679
2026-01-05 08:54:56.67	315.84	18.00	-41.3	-41.8	19.4	0.00e+00	0	58	0	1354760192	45	3775
2026-01-05 08:54:58.66	315.46	17.86	-41.3	-41.9	19.3	0.00e+00	0	58	0	1369440256	45	3782
2026-01-05 08:55:00.64	315.09	17.72	-41.4	-41.9	19.2	0.00e+00	0	58	0	1384120320	45	3822
2026-01-05 08:55:02.62	314.72	17.58	-41.5	-42.1	19.1	0.00e+00	0	58	0	1397751808	45	3904
2026-01-05 08:55:04.60	314.35	17.44	-41.5	-42.1	19.1	0.00e+00	0	58	0	1412431872	45	3880
2026-01-05 08:55:06.59	313.99	17.30	-41.4	-42.0	19.2	0.00e+00	0	58	0	1427111936	45	3833
2026-01-05 08:55:08.57	313.63	17.16	-41.8	-42.4	18.9	0.00e+00	0	58	0	1440743424	45	4015
2026-01-05 08:55:10.54	313.27	17.02	-42.0	-42.6	18.6	0.00e+00	0	57	0	1455423488	45	4113
2026-01-05 08:55:12.53	312.92	16.88	-42.1	-42.8	18.4	0.00e+00	0	58	0	1469054976	45	4210
2026-01-05 08:55:14.51	312.57	16.74	-42.2	-42.9	18.3	0.00e+00	0	58	0	1483735040	46	4020
2026-01-05 08:55:16.50	312.22	16.60	-42.1	-42.7	18.5	0.00e+00	0	58	0	1498415104	46	3929
2026-01-05 08:55:18.48	311.88	16.46	-42.3	-42.9	18.3	0.00e+00	0	58	0	1512046592	46	4044
2026-01-05 08:55:20.46	311.54	16.32	-42.4	-43.1	18.1	0.00e+00	0	58	0	1526726656	46	4131
2026-01-05 08:55:22.44	311.20	16.17	-42.6	-43.3	18.0	0.00e+00	0	58	0	1541406720	46	4204
2026-01-05 08:55:24.41	310.87	16.03	-42.3	-42.9	18.3	0.00e+00	0	58	0	1555038208	47	3823
2026-01-05 08:55:26.40	310.54	15.89	-41.9	-42.6	18.7	0.00e+00	0	58	0	1569718272	46	3875
2026-01-05 08:55:28.35	310.22	15.75	-41.9	-42.5	18.7	0.00e+00	0	58	0	1583349760	46	3837
2026-01-05 08:55:30.34	309.89	15.61	-41.8	-42.5	18.7	0.00e+00	0	58	0	1598029824	46	3833
2026-01-05 08:55:32.31	309.57	15.46	-41.9	-42.5	18.7	0.00e+00	0	57	0	1611661312	46	3861
2026-01-05 08:55:34.28	309.26	15.32	-42.1	-42.8	18.4	0.00e+00	0	58	0	1626341376	46	3966
2026-01-05 08:55:36.25	308.94	15.18	-42.1	-42.8	18.4	0.00e+00	0	58	0	1641021440	46	3984
2026-01-05 08:55:38.23	308.63	15.04	-42.1	-42.8	18.4	0.00e+00	0	58	0	1654652928	46	3976
2026-01-05 08:55:40.21	308.32	14.90	-42.2	-42.8	18.4	0.00e+00	0	58	0	1669332992	46	3980
2026-01-05 08:55:42.19	308.02	14.75	-42.2	-42.9	18.3	0.00e+00	0	58	0	1684013056	46	4029
2026-01-05 08:55:44.18	307.72	14.61	-42.3	-43.0	18.2	0.00e+00	0	58	0	1697644544	46	4085
2026-01-05 08:55:46.15	307.42	14.47	-42.5	-43.2	18.0	0.00e+00	0	58	0	1712324608	46	4165
2026-01-05 08:55:48.12	307.12	14.33	-42.8	-43.5	17.7	0.00e+00	0	58	0	1727004672	47	4089
2026-01-05 08:55:50.10	306.83	14.18	-42.9	-43.6	17.6	0.00e+00	0	58	0	1740636160	47	4126
2026-01-05 08:55:52.07	306.54	14.04	-42.6	-43.3	17.9	0.00e+00	0	58	0	1755316224	47	3963
2026-01-05 08:55:54.06	306.25	13.90	-42.5	-43.2	18.0	0.00e+00	0	58	0	1768947712	47	3925
2026-01-05 08:55:56.04	305.96	13.76	-42.5	-43.1	18.0	0.00e+00	0	57	0	1783627776	47	3905
2026-01-05 08:55:58.02	305.68	13.61	-42.5	-43.2	17.9	0.00e+00	0	57	0	1798307840	47	3940
2026-01-05 08:55:59.99	305.40	13.47	-42.5	-43.2	17.9	0.00e+00	0	58	0	1811939328	47	3943
2026-01-05 08:56:01.97	305.13	13.33	-42.8	-43.6	17.6	0.00e+00	0	58	0	1826619392	47	4106
2026-01-05 08:56:03.96	304.85	13.19	-42.9	-43.6	17.5	0.00e+00	0	58	0	1840250880	47	4132
2026-01-05 08:56:05.94	304.58	13.05	-43.0	-43.7	17.4	0.00e+00	0	58	0	1854930944	47	4172
2026-01-05 08:56:07.91	304.31	12.91	-43.2	-43.9	17.2	0.00e+00	0	58	0	1869611008	47	4281
2026-01-05 08:56:09.90	304.05	12.76	-43.4	-44.2	17.2	0.00e+00	0	58	0	1883242496	48	4146
2026-01-05 08:56:11.88	303.78	12.62	-43.6	-44.4	16.9	0.00e+00	0	58	0	1897922560	48	4262
2026-01-05 08:56:13.85	303.52	12.48	-43.7	-44.6	16.7	0.00e+00	0	58	0	1911554048	49	4108
2026-01-05 08:56:15.84	303.26	12.34	-43.3	-44.1	17.2	0.00e+00	0	58	0	1926234112	49	3875
2026-01-05 08:56:17.82	303.01	12.20	-43.0	-43.8	17.4	0.00e+00	0	58	0	1940914176	49	3748
2026-01-05 08:56:19.81	302.75	12.06	-43.0	-43.7	17.5	0.00e+00	0	58	0	1954545664	48	3953
2026-01-05 08:56:21.80	302.50	11.92	-43.0	-43.8	17.4	0.00e+00	0	58	0	1969225728	48	3959
2026-01-05 08:56:23.79	302.25	11.78	-43.1	-43.9	17.3	0.00e+00	0	58	0	1983905792	48	4020
2026-01-05 08:56:25.76	302.00	11.64	-43.4	-44.2	16.9	0.00e+00	0	58	0	1997537280	48	4158
2026-01-05 08:56:27.75	301.76	11.50	-43.7	-44.6	16.5	0.00e+00	0	58	0	2012217344	49	4126
2026-01-05 08:56:29.72	301.52	11.36	-43.9	-44.8	16.2	0.00e+00	0	58	0	2026897408	49	4238
2026-01-05 08:56:31.69	301.28	11.23	-43.8	-44.7	16.2	0.00e+00	0	58	0	2040528896	49	4165
2026-01-05 08:56:33.67	301.04	11.09	-44.0	-44.9	15.9	0.00e+00	0	58	0	2055208960	49	4287
2026-01-05 08:56:35.65	300.81	10.95	-44.0	-45.0	15.8	0.00e+00	0	58	0	2069889024	49	4300
2026-01-05 08:56:37.62	300.58	10.81	-44.7	-45.7	15.0	0.00e+00	0	58	0	2083520512	50	4439
2026-01-05 08:56:39.60	300.35	10.68	-44.9	-46.0	14.7	0.00e+00	0	58	0	2098200576	51	4325
2026-01-05 08:56:41.58	300.12	10.54	-45.1	-46.3	14.3	0.00e+00	0	58	0	2112880640	51	4460
2026-01-05 08:56:43.56	299.89	10.40	-45.4	-46.8	13.7	4.57e-05	0	58	0	2126512128	52	4442
2026-01-05 08:56:45.54	299.67	10.27	-45.0	-46.2	14.1	1.10e-06	0	58	0	2141192192	52	4176
2026-01-05 08:56:47.52	299.45	10.13	-44.9	-46.1	14.2	1.10e-06	0	58	0	2154823680	52	4109
2026-01-05 08:56:49.48	299.23	10.00	-45.4	-46.7	13.4	1.71e-05	0	58	0	2169503744	52	4432
2026-01-05 08:56:51.47	299.01	9.86	-45.4	-46.8	13.2	1.37e-05	0	58	0	2184183808	52	4471
2026-01-05 08:56:53.45	298.80	9.73	-45.7	-47.3	12.6	7.78e-05	0	58	0	2197815296	53	4458
2026-01-05 08:56:55.44	298.58	9.59	-46.0	-47.8	12.0	3.25e-04	0	58	0	2212495360	53	4732
2026-01-05 08:56:57.42	298.37	9.46	-46.6	-48.7	11.0	2.08e-03	0	58	0	2227175424	55	4666
2026-01-05 08:56:59.39	298.16	9.32	-46.4	-48.4	11.1	1.72e-03	0	58	0	2240806912	55	4525
2026-01-05 08:57:01.37	297.96	9.19	-46.6	-48.8	10.7	2.87e-03	0	58	0	2255486976	55	4717
2026-01-05 08:57:03.35	297.75	9.06	-46.4	-48.6	10.8	2.56e-03	0	58	0	2269118464	55	4604
2026-01-05 08:57:05.32	297.55	8.92	-46.3	-48.5	10.8	2.51e-03	0	58	0	2283798528	54	4817
2026-01-05 08:57:07.30	297.35	8.79	-46.5	-48.7	10.5	3.96e-03	0	58	0	2297430016	54	4937
2026-01-05 08:57:09.28	297.15	8.66	-46.6	-48.8	10.3	5.04e-03	0	58	0	2312110080	54	5033
2026-01-05 08:57:11.27	296.95	8.53	-46.5	-48.8	10.4	5.27e-03	0	58	0	2326790144	54	4999
2026-01-05 08:57:13.25	296.75	8.39	-46.5	-48.7	10.5	4.65e-03	0	58	0	2340421632	54	4938
2026-01-05 08:57:15.23	296.56	8.26	-46.5	-48.7	10.6	5.16e-03	0	58	0	2355101696	54	4931
2026-01-05 08:57:17.21	296.37	8.13	-46.5	-48.7	10.6	4.43e-03	0	58	0	2369781760	54	4963
2026-01-05 08:57:19.19	296.17	8.00	-46.2	-48.2	11.1	1.73e-03	0	58	0	2383413248	54	4676
2026-01-05 08:57:21.16	295.99	7.87	-46.2	-48.2	11.1	2.44e-03	0	58	0	2398093312	54	4704
2026-01-05 08:57:23.14	295.80	7.74	-46.4	-48.5	10.9	2.20e-03	0	58	0	2412773376	54	4836
2026-01-05 08:57:25.12	295.61	7.61	-46.3	-48.4	10.9	2.56e-03	0	58	0	2426404864	54	4788
2026-01-05 08:57:27.10	295.43	7.49	-46.2	-48.2	11.0	1.93e-03	0	58	0	2441084928	54	4681
2026-01-05 08:57:29.07	295.25	7.36	-46.6	-48.9	10.4	3.94e-03	0	58	0	2455764992	54	5042
2026-01-05 08:57:31.05	295.07	7.23	-46.3	-48.4	10.9	2.70e-03	0	58	0	2469396480	54	4790
2026-01-05 08:57:33.03	294.89	7.10	-46.4	-48.5	10.8	3.09e-03	0	58	0	2484076544	54	4834
2026-01-05 08:57:35.01	294.71	6.97	-46.6	-48.8	10.4	4.54e-03	0	58	0	2497708032	54	5027
2026-01-05 08:57:36.99	294.54	6.85	-46.6	-48.9	10.3	5.59e-03	0	58	0	2512388096	54	5056
2026-01-05 08:57:38.95	294.37	6.72	-46.4	-48.7	10.4	4.80e-03	0	58	0	2526019584	54	4938
2026-01-05 08:57:40.94	294.19	6.59	-46.8	-49.2	9.9	7.88e-03	0	58	0	2540699648	55	4950
2026-01-05 08:57:42.91	294.02	6.47	-47.0	-49.6	9.5	1.35e-02	0	58	0	2555379712	55	5168
2026-01-05 08:57:44.89	293.85	6.34	-47.1	-49.8	9.2	1.71e-02	0	58	0	2569011200	55	5324
2026-01-05 08:57:46.87	293.68	6.22	-47.4	-50.4	8.6	4.48e-02	0	58	0	2583691264	56	5376
2026-01-05 08:57:48.86	293.52	6.09	-47.3	-50.3	8.7	3.24e-02	0	58	0	2597322752	56	5289
2026-01-05 08:57:50.84	293.35	5.97	-47.6	-51.0	7.8	6.88e-02	0	58	0	2612002816	56	5725
2026-01-05 08:57:52.82	293.19	5.84	-47.8	-51.4	7.3	1.16e-01	0	58	0	2626682880	57	5710
2026-01-05 08:57:54.80	293.03	5.72	-47.8	-51.7	7.0	1.46e-01	0	58	0	2640314368	57	5863
2026-01-05 08:57:56.78	292.87	5.60	-47.9	-52.0	6.7	2.05e-01	0	58	0	2654994432	57	6067
2026-01-05 08:57:58.76	292.71	5.47	-48.0	-52.2	6.4	2.33e-01	0	58	0	2668625920	57	6234
2026-01-05 08:58:00.75	292.55	5.35	-47.8	-51.8	6.6	1.98e-01	0	58	0	2683305984	57	5977
2026-01-05 08:58:02.72	292.39	5.23	-47.7	-51.7	6.7	1.93e-01	0	58	0	2697986048	57	5922
2026-01-05 08:58:04.70	292.24	5.11	-47.8	-51.9	6.5	2.34e-01	0	58	0	2711617536	57	6006
2026-01-05 08:58:06.68	292.08	4.99	-49.3	-59.3	3.8	8.46e-01	0	58	104	2720006144	60	11913
2026-01-05 08:58:08.66	291.93	4.86	-51.9	-62.2	3.8	8.47e-01	0	58	104	2720006144	65	12418
2026-01-05 08:58:10.64	291.78	4.74	-52.1	-62.2	3.8	8.46e-01	0	58	104	2720006144	65	12519
2026-01-05 08:58:12.63	291.63	4.62	-52.2	-62.4	3.8	8.46e-01	0	58	104	2720006144	66	12080
2026-01-05 08:58:14.61	291.48	4.50	-51.9	-62.2	3.9	8.45e-01	0	58	104	2720006144	66	11702
2026-01-05 08:58:16.60	291.33	4.38	-52.0	-62.5	3.8	8.46e-01	0	58	104	2720006144	66	12131
2026-01-05 08:58:18.58	291.19	4.26	-51.7	-62.3	3.9	8.45e-01	0	58	104	2720006144	66	11916
2026-01-05 08:58:20.56	291.04	4.14	-51.4	-62.2	3.9	8.41e-01	0	58	104	2720006144	65	12460
2026-01-05 08:58:22.53	290.90	4.02	-51.2	-62.3	3.9	8.41e-01	0	58	104	2720006144	65	12562
2026-01-05 08:58:24.51	290.76	3.91	-51.4	-62.4	3.9	8.41e-01	0	58	104	2720006144	65	12776
2026-01-05 08:58:26.50	290.62	3.79	-51.6	-62.4	3.9	8.42e-01	0	58	104	2720006144	65	12700
2026-01-05 08:58:28.48	290.48	3.67	-51.9	-62.5	3.9	8.41e-01	0	58	104	2720006144	65	12828
2026-01-05 08:58:30.45	290.34	3.55	-51.9	-62.5	3.9	8.43e-01	0	58	104	2720006144	65	12828
2026-01-05 08:58:32.45	290.20	3.43	-52.2	-62.7	3.8	8.43e-01	0	58	104	2720006144	66	12380
2026-01-05 08:58:34.43	290.06	3.32	-52.2	-62.7	3.8	8.44e-01	0	58	104	2720006144	66	12470
2026-01-05 08:58:36.43	289.93	3.20	-52.7	-62.8	3.8	8.47e-01	0	58	104	2720006144	66	12632
2026-01-05 08:58:38.40	289.79	3.08	-52.6	-62.9	3.8	8.45e-01	0	58	104	2720006144	66	12707
2026-01-05 08:58:40.39	289.66	2.97	-52.6	-62.8	3.8	8.45e-01	0	58	104	2720006144	66	12639

#Closed at: 2026-01-05 08:58:40
#Recorded file [2720 MB]: D:/Data/31026_260105_115806.dat