passes_logs/2026/01/05/R3.0SM8_Murmansk_STILSPACE/R3.0SM8_Murmansk_STILSPACE__20260105_093645_NOAA_20_JPSS-1_rec.log

#Pass ID: 20260105_093645_NOAA 20 (JPSS-1)
#Satellite: NOAA 20 (JPSS-1)
#Configuration: NOAA 20
#almurnet v.1.7.20240730
#Start time: 2026-01-05 09:36:47

#Version: 2.2.20231116
#Station: R3.0SM8_Murmansk_STILSPACE
#Location: 33.092731 lon 68.902999 lat
#TLE: 1 43013U 17073A   26004.47528369  .00000132  00000+0  83671-4 0  9999
#TLE: 2 43013  98.7626 305.5264 0001854  54.5883 305.5466 14.19533142421242

#Time	Az	El	Level	Level2	SNR	BER	BlckErr	Temp	State	Recorded	gain1	gain2
2026-01-05 09:36:47.64	153.87	3.11	-52.3	-66.1	3.8	1.49e+00	0	47	0	0	66	18653
2026-01-05 09:36:51.61	153.89	3.38	-51.7	-65.5	3.8	1.49e+00	0	47	104	0	66	17467
2026-01-05 09:36:55.59	153.91	3.65	-49.1	-62.3	3.8	1.49e+00	0	48	104	0	61	15949
2026-01-05 09:36:59.55	153.93	3.92	-49.0	-59.6	4.2	1.43e+00	0	48	0	0	61	11684
2026-01-05 09:37:03.52	153.95	4.20	-48.7	-56.9	5.3	6.05e-01	0	48	0	5242880	60	9134
2026-01-05 09:37:07.49	153.98	4.47	-48.6	-56.4	5.7	4.30e-01	0	48	0	12582912	60	8600
2026-01-05 09:37:11.44	154.00	4.75	-48.7	-57.2	5.2	6.15e-01	0	49	0	19922944	60	9421
2026-01-05 09:37:15.40	154.02	5.03	-48.6	-56.0	6.0	3.39e-01	0	49	0	28311552	60	8188
2026-01-05 09:37:19.36	154.04	5.32	-48.9	-56.5	5.9	2.92e-01	0	49	0	35651584	60	8721
2026-01-05 09:37:23.31	154.07	5.61	-49.2	-56.9	5.8	4.92e-01	0	49	0	42991616	60	9127
2026-01-05 09:37:27.25	154.09	5.90	-49.1	-55.4	7.2	1.31e-01	0	49	0	50331648	60	7706
2026-01-05 09:37:31.18	154.11	6.19	-49.7	-56.9	6.2	2.44e-01	0	49	0	57671680	61	8568
2026-01-05 09:37:35.13	154.14	6.49	-49.6	-54.5	9.2	2.99e-02	0	50	0	65011712	61	6498
2026-01-05 09:37:39.09	154.16	6.79	-49.5	-53.8	10.2	4.73e-03	0	50	0	72351744	61	6032
2026-01-05 09:37:43.05	154.18	7.10	-49.3	-53.4	10.7	2.86e-03	0	50	0	79691776	61	5766
2026-01-05 09:37:47.02	154.21	7.41	-49.4	-53.5	10.7	4.21e-03	0	50	0	87031808	61	5829
2026-01-05 09:37:50.98	154.23	7.72	-49.0	-52.6	11.7	5.51e-04	0	50	0	94371840	61	5241
2026-01-05 09:37:54.94	154.26	8.04	-49.1	-52.5	11.9	5.50e-04	0	51	0	101711872	61	5184
2026-01-05 09:37:58.90	154.28	8.36	-49.1	-52.5	12.0	4.07e-04	0	51	0	109051904	61	5160
2026-01-05 09:38:02.84	154.31	8.68	-49.0	-52.4	12.0	3.03e-04	0	51	0	116391936	61	5139
2026-01-05 09:38:06.81	154.33	9.01	-48.9	-52.3	12.2	2.00e-04	0	51	0	123731968	61	5068
2026-01-05 09:38:10.77	154.36	9.35	-49.0	-52.3	12.2	1.88e-04	0	51	0	131072000	60	5381
2026-01-05 09:38:14.73	154.39	9.68	-48.9	-52.0	12.5	8.77e-05	0	51	0	139460608	60	5201
2026-01-05 09:38:18.69	154.41	10.03	-48.9	-52.1	12.5	1.17e-04	0	52	0	146800640	60	5229
2026-01-05 09:38:22.66	154.44	10.38	-49.0	-52.2	12.4	1.10e-04	0	52	0	154140672	60	5291
2026-01-05 09:38:26.61	154.46	10.73	-48.7	-51.7	12.9	6.86e-05	0	52	0	161480704	60	5032
2026-01-05 09:38:30.54	154.49	11.08	-48.6	-51.4	13.3	1.83e-05	0	52	0	168820736	60	4838
2026-01-05 09:38:34.51	154.52	11.45	-48.5	-51.3	13.4	1.98e-05	0	52	0	176160768	60	4790
2026-01-05 09:38:38.48	154.55	11.82	-48.7	-51.6	13.1	3.43e-05	0	52	0	183500800	60	4969
2026-01-05 09:38:42.44	154.58	12.19	-48.7	-51.6	13.1	2.59e-05	0	52	0	190840832	60	4950
2026-01-05 09:38:46.40	154.60	12.57	-48.4	-51.1	13.7	9.90e-06	0	52	0	198180864	60	4667
2026-01-05 09:38:50.35	154.63	12.96	-48.3	-50.7	14.1	3.00e-06	0	53	0	205520896	59	4759
2026-01-05 09:38:54.32	154.66	13.35	-48.1	-50.4	14.4	2.20e-06	0	52	0	212860928	59	4597
2026-01-05 09:38:58.28	154.69	13.75	-48.3	-50.8	14.0	7.00e-07	0	52	0	220200960	59	4792
2026-01-05 09:39:02.24	154.72	14.16	-48.0	-50.2	14.6	0.00e+00	0	53	0	228589568	59	4485
2026-01-05 09:39:06.20	154.75	14.57	-48.1	-50.5	14.4	0.00e+00	0	53	0	235929600	58	4909
2026-01-05 09:39:10.16	154.79	14.99	-48.1	-50.4	14.5	0.00e+00	0	53	0	243269632	58	4837
2026-01-05 09:39:14.13	154.82	15.42	-47.7	-49.7	15.2	0.00e+00	0	53	0	250609664	58	4474
2026-01-05 09:39:18.08	154.85	15.85	-47.9	-50.2	14.8	7.00e-07	0	53	0	257949696	58	4716
2026-01-05 09:39:22.03	154.88	16.29	-47.5	-49.5	15.5	0.00e+00	0	53	0	265289728	58	4345
2026-01-05 09:39:25.99	154.92	16.74	-47.8	-49.8	15.1	0.00e+00	0	53	0	272629760	58	4528
2026-01-05 09:39:29.95	154.95	17.20	-47.4	-49.3	15.7	0.00e+00	0	53	0	279969792	57	4521
2026-01-05 09:39:33.91	154.98	17.67	-47.4	-49.3	15.7	0.00e+00	0	54	0	287309824	57	4533
2026-01-05 09:39:37.86	155.02	18.15	-47.3	-49.3	15.8	0.00e+00	0	54	0	294649856	57	4496
2026-01-05 09:39:41.82	155.05	18.63	-47.3	-49.1	15.9	0.00e+00	0	54	0	301989888	57	4423
2026-01-05 09:39:45.77	155.09	19.13	-47.2	-49.1	15.9	0.00e+00	0	54	0	309329920	57	4412
2026-01-05 09:39:49.73	155.13	19.64	-47.1	-48.9	16.2	0.00e+00	0	54	0	316669952	57	4302
2026-01-05 09:39:53.70	155.17	20.15	-47.1	-49.0	16.0	0.00e+00	0	54	0	325058560	57	4369
2026-01-05 09:39:57.64	155.21	20.68	-47.0	-48.7	16.4	0.00e+00	0	54	0	332398592	57	4215
2026-01-05 09:40:01.62	155.25	21.22	-47.3	-49.2	15.9	0.00e+00	0	54	0	339738624	57	4459
2026-01-05 09:40:05.56	155.29	21.77	-46.8	-48.5	16.6	0.00e+00	0	54	0	347078656	56	4363
2026-01-05 09:40:09.52	155.33	22.33	-47.0	-48.7	16.4	0.00e+00	0	54	0	354418688	56	4462
2026-01-05 09:40:13.48	155.37	22.91	-46.9	-48.7	16.4	0.00e+00	0	54	0	361758720	56	4443
2026-01-05 09:40:17.44	155.41	23.50	-46.9	-48.6	16.5	0.00e+00	0	54	0	369098752	56	4434
2026-01-05 09:40:21.39	155.46	24.10	-47.2	-49.0	16.1	0.00e+00	0	54	0	376438784	56	4623
2026-01-05 09:40:25.37	155.51	24.72	-47.3	-49.0	16.1	0.00e+00	0	54	0	383778816	56	4645
2026-01-05 09:40:29.31	155.55	25.35	-47.6	-49.6	15.5	0.00e+00	0	54	0	391118848	57	4670
2026-01-05 09:40:33.26	155.60	26.00	-47.7	-49.7	15.4	0.00e+00	0	54	0	398458880	57	4751
2026-01-05 09:40:37.20	155.65	26.66	-47.8	-49.8	15.4	0.00e+00	0	55	0	405798912	57	4783
2026-01-05 09:40:41.17	155.70	27.34	-47.8	-49.9	15.3	0.00e+00	0	54	0	413138944	57	4830
2026-01-05 09:40:45.12	155.76	28.03	-48.3	-50.6	14.6	0.00e+00	0	55	0	420478976	58	4964
2026-01-05 09:40:49.08	155.81	28.75	-48.8	-51.4	13.8	7.60e-06	0	55	0	428867584	59	5123
2026-01-05 09:40:53.05	155.87	29.49	-49.3	-52.3	12.9	4.50e-05	0	55	0	436207616	60	5361
2026-01-05 09:40:57.01	155.93	30.24	-49.4	-52.5	12.6	9.91e-05	0	55	0	443547648	60	5519
2026-01-05 09:41:00.96	155.99	31.01	-49.4	-52.5	12.6	9.91e-05	0	55	0	450887680	61	5210
2026-01-05 09:41:04.93	156.05	31.81	-49.4	-52.5	12.6	5.64e-05	0	55	0	458227712	61	5214
2026-01-05 09:41:08.89	156.12	32.63	-49.3	-52.4	12.8	8.01e-05	0	55	0	465567744	61	5111
2026-01-05 09:41:12.83	156.19	33.46	-49.0	-51.7	13.5	1.67e-05	0	55	0	472907776	61	4754
2026-01-05 09:41:16.78	156.26	34.32	-49.1	-51.9	13.3	6.10e-06	0	55	0	480247808	61	4850
2026-01-05 09:41:20.73	156.33	35.21	-48.8	-51.5	13.7	6.10e-06	0	55	0	487587840	60	4875
2026-01-05 09:41:24.68	156.41	36.12	-48.0	-50.1	15.2	0.00e+00	0	55	0	494927872	59	4402
2026-01-05 09:41:28.63	156.49	37.06	-46.9	-48.5	16.7	0.00e+00	0	55	0	502267904	56	4379
2026-01-05 09:41:32.59	156.58	38.02	-45.9	-47.3	17.9	0.00e+00	0	55	0	509607936	54	4246
2026-01-05 09:41:36.56	156.67	39.02	-46.2	-47.6	17.6	0.00e+00	0	55	0	517996544	54	4413
2026-01-05 09:41:40.54	156.76	40.05	-45.9	-47.3	17.9	0.00e+00	0	55	0	525336576	54	4244
2026-01-05 09:41:44.50	156.86	41.11	-45.7	-46.9	18.2	0.00e+00	0	56	0	532676608	54	4095
2026-01-05 09:41:48.47	156.97	42.20	-46.1	-47.5	17.7	0.00e+00	0	55	0	540016640	54	4363
2026-01-05 09:41:52.43	157.08	43.32	-46.6	-48.2	17.0	0.00e+00	0	56	0	547356672	55	4449
2026-01-05 09:41:56.39	157.20	44.48	-47.3	-49.1	16.2	0.00e+00	0	56	0	554696704	56	4691
2026-01-05 09:42:00.36	157.33	45.67	-48.3	-50.6	14.8	0.00e+00	0	56	0	562036736	58	4937
2026-01-05 09:42:04.31	157.46	46.89	-49.1	-52.0	13.3	1.44e-05	0	55	0	569376768	60	5163
2026-01-05 09:42:08.27	157.61	48.16	-48.8	-51.5	13.8	1.50e-06	0	55	0	576716800	60	4905
2026-01-05 09:42:12.23	157.77	49.46	-49.4	-52.3	12.9	3.43e-05	0	55	0	584056832	60	5389
2026-01-05 09:42:16.19	157.94	50.79	-48.7	-51.1	14.2	7.00e-07	0	56	0	591396864	60	4660
2026-01-05 09:42:20.16	158.13	52.18	-47.7	-49.6	15.8	0.00e+00	0	56	0	598736896	58	4402
2026-01-05 09:42:24.11	158.33	53.59	-47.2	-48.9	16.4	0.00e+00	0	55	0	607125504	56	4592
2026-01-05 09:42:28.07	158.55	55.05	-47.2	-48.8	16.5	0.00e+00	0	56	0	614465536	56	4540
2026-01-05 09:42:32.01	158.79	56.54	-47.7	-49.6	15.8	0.00e+00	0	56	0	621805568	57	4678
2026-01-05 09:42:35.98	159.06	58.08	-48.0	-50.0	15.3	0.00e+00	0	56	0	629145600	57	4897
2026-01-05 09:42:39.94	159.37	59.66	-46.9	-48.5	16.8	0.00e+00	0	56	0	636485632	57	4128
2026-01-05 09:42:43.89	159.71	61.28	-46.0	-47.3	17.9	0.00e+00	0	56	0	643825664	55	4018
2026-01-05 09:42:47.85	160.09	62.94	-45.0	-46.1	19.1	0.00e+00	0	56	0	651165696	53	3939
2026-01-05 09:42:51.82	160.54	64.64	-47.2	-48.9	16.5	0.00e+00	0	56	0	658505728	56	4548
2026-01-05 09:42:55.78	161.05	66.38	-47.4	-49.2	16.1	0.00e+00	0	56	0	665845760	57	4482
2026-01-05 09:42:59.73	161.65	68.15	-48.4	-50.7	14.7	0.00e+00	0	56	0	673185792	58	5000
2026-01-05 09:43:03.68	162.36	69.95	-47.6	-49.4	15.9	0.00e+00	0	56	0	680525824	58	4294
2026-01-05 09:43:07.64	163.22	71.79	-48.2	-50.3	15.1	0.00e+00	0	56	0	687865856	58	4791
2026-01-05 09:43:11.60	164.29	73.65	-48.7	-51.2	14.2	0.00e+00	0	56	0	695205888	59	5000
2026-01-05 09:43:15.55	165.64	75.53	-48.8	-51.3	14.1	1.44e-05	0	56	0	703594496	60	4762
2026-01-05 09:43:19.51	167.42	77.44	-48.1	-50.1	15.2	0.00e+00	0	56	0	710934528	59	4435
2026-01-05 09:43:23.47	169.84	79.35	-46.9	-48.5	16.7	0.00e+00	0	56	0	718274560	57	4136
2026-01-05 09:43:27.42	173.34	81.25	-47.5	-49.3	16.0	0.00e+00	0	56	0	725614592	56	4796
2026-01-05 09:43:31.38	178.78	83.12	-49.4	-52.3	12.9	5.64e-05	0	56	0	732954624	61	5063
2026-01-05 09:43:35.34	188.16	84.89	-50.2	-53.8	11.4	3.82e-04	0	56	0	740294656	62	5708
2026-01-05 09:43:39.31	206.46	86.41	-51.3	-57.2	7.8	6.86e-02	0	56	0	747634688	64	7541
2026-01-05 09:43:43.25	240.70	87.17	-51.7	-59.1	6.1	3.30e-01	0	56	0	754974720	65	8833
2026-01-05 09:43:47.21	277.79	86.63	-51.9	-59.6	5.7	3.66e-01	0	56	0	762314752	65	9376
2026-01-05 09:43:51.17	298.65	85.21	-51.8	-59.5	5.8	3.94e-01	0	56	0	769654784	65	9244
2026-01-05 09:43:55.12	309.20	83.47	-52.1	-61.2	4.8	6.76e-01	0	56	0	776994816	66	10543
2026-01-05 09:43:59.08	315.19	81.62	-52.2	-61.7	4.6	9.74e-01	0	56	0	784334848	66	11160
2026-01-05 09:44:03.02	318.96	79.73	-51.8	-59.9	5.6	5.19e-01	0	56	0	791674880	66	9144
2026-01-05 09:44:06.99	321.56	77.81	-52.3	-62.7	4.2	1.36e+00	0	56	0	795869184	66	12619
2026-01-05 09:44:10.94	323.44	75.92	-52.2	-62.9	4.1	1.48e+00	0	56	104	795869184	66	12908
2026-01-05 09:44:14.90	324.86	74.03	-52.0	-60.4	5.1	1.15e+00	0	56	0	3145728	66	9715
2026-01-05 09:44:18.85	325.98	72.16	-51.6	-58.3	6.8	3.42e-01	0	56	0	10485760	66	7583
2026-01-05 09:44:22.81	326.87	70.32	-51.2	-56.9	8.3	1.37e-02	0	57	0	17825792	64	7225
2026-01-05 09:44:26.77	327.61	68.52	-51.3	-57.3	7.7	3.88e-02	0	56	0	26214400	65	7175
2026-01-05 09:44:30.70	328.23	66.75	-50.6	-54.9	10.2	2.16e-02	0	56	0	33554432	64	5732
2026-01-05 09:44:34.67	328.76	65.01	-49.9	-53.6	11.6	7.36e-03	0	56	0	40894464	63	5242
2026-01-05 09:44:38.64	329.22	63.30	-47.7	-49.5	15.8	0.00e+00	0	57	0	48234496	58	4372
2026-01-05 09:44:42.60	329.61	61.63	-47.0	-48.6	16.7	0.00e+00	0	56	0	55574528	57	4163
2026-01-05 09:44:46.55	329.96	60.01	-49.2	-52.0	13.2	4.80e-05	0	56	0	62914560	61	4908
2026-01-05 09:44:50.50	330.27	58.43	-50.3	-54.4	10.8	1.31e-03	0	57	0	70254592	62	6067
2026-01-05 09:44:54.47	330.55	56.89	-49.5	-52.6	12.6	4.75e-04	0	56	0	77594624	62	4937
2026-01-05 09:44:58.43	330.80	55.38	-47.8	-49.7	15.6	0.00e+00	0	56	0	84934656	58	4485
2026-01-05 09:45:02.41	331.03	53.91	-47.8	-49.8	15.6	0.00e+00	0	56	0	92274688	57	4772
2026-01-05 09:45:06.36	331.23	52.50	-46.8	-48.4	16.9	0.00e+00	0	56	0	99614720	56	4295
2026-01-05 09:45:10.31	331.42	51.12	-49.1	-51.8	13.5	5.30e-06	0	56	0	106954752	60	5072
2026-01-05 09:45:14.26	331.59	49.78	-49.0	-51.7	13.6	2.51e-05	0	56	0	114294784	60	5004
2026-01-05 09:45:18.23	331.76	48.47	-52.0	-60.8	4.9	2.41e-01	0	56	0	122683392	65	10748
2026-01-05 09:45:22.20	331.90	47.20	-47.6	-49.5	15.7	0.00e+00	0	56	0	130023424	58	4377
2026-01-05 09:45:26.16	332.04	45.97	-48.8	-51.3	14.0	0.00e+00	0	56	0	137363456	59	5075
2026-01-05 09:45:30.09	332.17	44.79	-48.2	-50.3	14.9	0.00e+00	0	56	0	144703488	59	4544
2026-01-05 09:45:34.05	332.30	43.63	-46.6	-48.0	17.2	0.00e+00	0	56	0	152043520	56	4137
2026-01-05 09:45:38.01	332.41	42.50	-48.4	-50.8	14.5	0.00e+00	0	56	0	159383552	58	5075
2026-01-05 09:45:41.97	332.52	41.41	-48.9	-51.6	13.6	1.04e-04	0	56	0	166723584	61	4703
2026-01-05 09:45:45.91	332.62	40.36	-47.0	-48.6	16.7	0.00e+00	0	57	0	174063616	57	4166
2026-01-05 09:45:49.87	332.72	39.33	-48.5	-50.9	14.4	7.00e-07	0	57	0	181403648	58	5105
2026-01-05 09:45:53.85	332.81	38.32	-50.6	-55.2	9.8	1.03e-02	0	57	0	188743680	63	6345
2026-01-05 09:45:57.80	332.90	37.35	-50.0	-53.6	11.5	1.26e-03	0	56	0	196083712	63	5261
2026-01-05 09:46:01.75	332.98	36.41	-49.2	-52.0	13.2	3.50e-05	0	57	0	203423744	61	4886
2026-01-05 09:46:05.71	333.06	35.50	-49.2	-52.2	13.0	1.75e-05	0	57	0	210763776	61	5015
2026-01-05 09:46:09.67	333.14	34.61	-50.9	-56.0	9.0	1.21e-02	0	56	0	219152384	63	6929
2026-01-05 09:46:13.63	333.21	33.74	-51.3	-57.3	7.5	1.42e-01	0	57	0	226492416	64	7618
2026-01-05 09:46:17.58	333.28	32.90	-50.7	-55.6	9.3	1.99e-02	0	57	0	233832448	64	6251
2026-01-05 09:46:21.54	333.35	32.08	-50.1	-53.9	11.2	2.40e-03	0	57	0	241172480	63	5439
2026-01-05 09:46:25.49	333.41	31.28	-50.0	-53.7	11.4	1.14e-03	0	57	0	248512512	62	5636
2026-01-05 09:46:29.45	333.47	30.51	-49.9	-53.5	11.5	7.86e-04	0	57	0	255852544	62	5526
2026-01-05 09:46:33.42	333.53	29.75	-49.9	-53.4	11.6	6.37e-04	0	56	0	263192576	62	5464
2026-01-05 09:46:37.36	333.59	29.02	-49.9	-53.6	11.5	6.58e-04	0	57	0	270532608	62	5545
2026-01-05 09:46:41.31	333.65	28.30	-49.8	-53.5	11.6	7.63e-04	0	56	0	277872640	62	5484
2026-01-05 09:46:45.26	333.70	27.60	-49.4	-52.6	12.5	9.38e-05	0	57	0	285212672	61	5224
2026-01-05 09:46:49.21	333.76	26.92	-48.6	-51.2	13.9	9.10e-06	0	57	0	292552704	60	4717
2026-01-05 09:46:53.17	333.81	26.26	-48.1	-50.2	14.9	7.00e-07	0	57	0	299892736	59	4493
2026-01-05 09:46:57.13	333.86	25.61	-48.0	-50.1	15.0	0.00e+00	0	57	0	307232768	59	4437
2026-01-05 09:47:01.08	333.91	24.98	-48.1	-50.3	14.8	0.00e+00	0	57	0	314572800	59	4536
2026-01-05 09:47:05.03	333.96	24.36	-47.0	-48.7	16.4	0.00e+00	0	57	0	322961408	57	4218
2026-01-05 09:47:09.00	334.00	23.75	-46.6	-48.2	16.9	0.00e+00	0	57	0	330301440	56	4204
2026-01-05 09:47:12.95	334.05	23.16	-46.5	-48.1	16.9	0.00e+00	0	57	0	337641472	56	4178
2026-01-05 09:47:16.89	334.09	22.59	-47.2	-49.0	16.0	0.00e+00	0	57	0	344981504	56	4631
2026-01-05 09:47:20.84	334.14	22.03	-47.9	-50.1	14.7	1.50e-06	0	57	0	352321536	57	4965
2026-01-05 09:47:24.81	334.18	21.47	-48.0	-50.4	14.3	7.00e-07	0	57	0	359661568	58	4863
2026-01-05 09:47:28.74	334.22	20.93	-48.5	-51.4	13.2	3.66e-05	0	57	0	367001600	59	5123
2026-01-05 09:47:32.68	334.26	20.41	-48.7	-51.6	13.0	4.27e-05	0	57	0	374341632	59	5219
2026-01-05 09:47:36.65	334.30	19.89	-48.3	-50.7	14.2	1.50e-06	0	57	0	381681664	59	4714
2026-01-05 09:47:40.60	334.34	19.38	-48.2	-50.5	14.5	2.20e-06	0	57	0	389021696	59	4639
2026-01-05 09:47:44.57	334.38	18.88	-48.5	-51.0	14.0	3.80e-06	0	57	0	396361728	59	4884
2026-01-05 09:47:48.53	334.42	18.39	-48.0	-50.3	14.7	0.00e+00	0	57	0	403701760	58	4776
2026-01-05 09:47:52.49	334.46	17.92	-48.3	-50.7	14.3	1.50e-06	0	57	0	411041792	58	4995
2026-01-05 09:47:56.45	334.49	17.45	-47.9	-50.0	15.0	0.00e+00	0	57	0	419430400	58	4634
2026-01-05 09:48:00.41	334.53	16.99	-47.8	-49.9	15.0	0.00e+00	0	57	0	426770432	58	4593
2026-01-05 09:48:04.37	334.56	16.53	-48.0	-50.2	14.7	7.00e-07	0	57	0	434110464	58	4723
2026-01-05 09:48:08.32	334.60	16.09	-47.9	-50.0	14.9	0.00e+00	0	57	0	441450496	58	4644
2026-01-05 09:48:12.27	334.63	15.66	-47.8	-49.9	15.0	0.00e+00	0	57	0	448790528	58	4592
2026-01-05 09:48:16.22	334.67	15.23	-47.4	-49.3	15.5	0.00e+00	0	57	0	456130560	57	4541
2026-01-05 09:48:20.19	334.70	14.81	-47.3	-49.3	15.6	0.00e+00	0	57	0	463470592	57	4511
2026-01-05 09:48:24.17	334.73	14.39	-47.3	-49.2	15.6	0.00e+00	0	57	0	470810624	57	4492
2026-01-05 09:48:28.13	334.77	13.99	-47.1	-49.1	15.8	0.00e+00	0	57	0	478150656	57	4392
2026-01-05 09:48:32.07	334.80	13.59	-47.4	-49.4	15.4	0.00e+00	0	57	0	485490688	57	4546
2026-01-05 09:48:36.03	334.83	13.20	-47.6	-49.7	15.1	0.00e+00	0	57	0	492830720	57	4728
2026-01-05 09:48:39.98	334.86	12.81	-47.6	-49.7	15.1	0.00e+00	0	57	0	500170752	57	4715
2026-01-05 09:48:43.95	334.89	12.43	-47.8	-50.0	14.7	0.00e+00	0	57	0	507510784	57	4910
2026-01-05 09:48:47.89	334.92	12.05	-47.8	-50.1	14.6	0.00e+00	0	57	0	515899392	57	4975
2026-01-05 09:48:51.84	334.95	11.69	-48.2	-50.7	13.9	2.20e-06	0	57	0	523239424	58	5027
2026-01-05 09:48:55.81	334.98	11.32	-48.0	-50.4	14.3	0.00e+00	0	57	0	530579456	58	4826
2026-01-05 09:48:59.75	335.01	10.96	-47.8	-50.2	14.4	7.00e-07	0	57	0	537919488	58	4737
2026-01-05 09:49:03.71	335.04	10.61	-48.0	-50.5	14.1	7.00e-07	0	57	0	545259520	58	4888
2026-01-05 09:49:07.68	335.07	10.26	-48.1	-50.6	14.1	0.00e+00	0	57	0	552599552	58	4929
2026-01-05 09:49:11.64	335.10	9.92	-47.9	-50.4	14.2	1.50e-06	0	57	0	559939584	58	4825
2026-01-05 09:49:15.60	335.13	9.58	-48.0	-50.4	14.1	2.20e-06	0	57	0	567279616	58	4870
2026-01-05 09:49:19.57	335.16	9.24	-48.0	-50.6	13.9	3.00e-06	0	57	0	574619648	58	4932
2026-01-05 09:49:23.53	335.18	8.91	-47.9	-50.4	14.1	7.00e-07	0	57	0	581959680	58	4828
2026-01-05 09:49:27.47	335.21	8.59	-47.9	-50.3	14.2	0.00e+00	0	57	0	589299712	58	4789
2026-01-05 09:49:31.44	335.24	8.27	-48.0	-50.5	14.0	0.00e+00	0	57	0	596639744	58	4888
2026-01-05 09:49:35.40	335.27	7.95	-47.9	-50.5	13.9	1.50e-06	0	57	0	603979776	58	4901
2026-01-05 09:49:39.35	335.29	7.64	-48.2	-50.8	13.6	5.30e-06	0	57	0	612368384	58	5089
2026-01-05 09:49:43.30	335.32	7.33	-48.2	-50.8	13.5	1.37e-05	0	57	0	619708416	58	5084
2026-01-05 09:49:47.25	335.35	7.02	-48.4	-51.3	13.0	3.81e-05	0	57	0	627048448	58	5365
2026-01-05 09:49:51.22	335.37	6.72	-48.6	-51.6	12.6	8.08e-05	0	57	0	634388480	59	5274
2026-01-05 09:49:55.17	335.40	6.42	-48.5	-51.7	12.5	1.10e-04	0	57	0	641728512	59	5302
2026-01-05 09:49:59.11	335.43	6.13	-48.3	-51.2	12.9	4.80e-05	0	57	0	649068544	59	5040
2026-01-05 09:50:03.06	335.45	5.84	-48.2	-51.0	13.1	2.13e-05	0	57	0	656408576	59	4901
2026-01-05 09:50:07.03	335.48	5.55	-48.1	-50.8	13.3	1.67e-05	0	57	0	663748608	59	4793
2026-01-05 09:50:11.00	335.50	5.26	-48.1	-51.0	13.1	4.42e-05	0	57	0	671088640	58	5215
2026-01-05 09:50:14.97	335.53	4.98	-51.5	-65.3	3.8	1.45e+00	0	57	104	677380096	64	19078
2026-01-05 09:50:18.92	335.55	4.70	-50.6	-64.5	3.8	1.49e+00	0	57	104	677380096	64	17354
2026-01-05 09:50:22.87	335.58	4.42	-52.4	-66.3	3.8	1.49e+00	0	57	104	677380096	66	18973
2026-01-05 09:50:26.83	335.60	4.15	-52.4	-66.3	3.8	1.49e+00	0	57	104	677380096	66	19117
2026-01-05 09:50:30.76	335.63	3.88	-52.5	-66.4	3.8	1.49e+00	0	57	104	677380096	66	19249
2026-01-05 09:50:34.74	335.65	3.61	-52.5	-66.4	3.8	1.49e+00	0	57	104	677380096	67	18227
2026-01-05 09:50:38.70	335.68	3.34	-52.5	-66.4	3.8	1.49e+00	0	57	104	677380096	67	18251
2026-01-05 09:50:42.66	335.70	3.08	-52.6	-66.4	3.8	1.49e+00	0	57	104	677380096	67	18213

#Closed at: 2026-01-05 09:50:44
#Recorded file [677 MB]: D:/Data/31026_260105_125014.dat