passes_logs/2026/01/05/R3.0SM8_Murmansk_STILSPACE/R3.0SM8_Murmansk_STILSPACE__20260105_120410_FENGYUN_3E_rec.log

#Pass ID: 20260105_120410_FENGYUN 3E
#Satellite: FENGYUN 3E
#Configuration: FENGYUN 3E
#almurnet v.1.7.20240730
#Start time: 2026-01-05 12:11:59

#Version: 2.2.20231116
#Station: R3.0SM8_Murmansk_STILSPACE
#Location: 33.092731 lon 68.902999 lat
#TLE: 1 49008U 21062A   26005.28112830  .00000370  00000+0  19519-3 0  9997
#TLE: 2 49008  98.7472  10.5234 0001546 158.4425 201.6816 14.19884714233469

#Time	Az	El	Level	Level2	SNR	BER	BlckErr	Temp	State	Recorded	gain1	gain2
2026-01-05 12:11:59.77	9.18	34.69	-48.5	-58.6	3.8	8.47e-01	0	57	0	0	58	12320
2026-01-05 12:12:01.74	8.51	34.47	-48.5	-58.6	3.8	8.46e-01	0	56	0	0	59	11667
2026-01-05 12:12:03.71	7.86	34.24	-48.5	-58.6	3.8	8.46e-01	0	56	0	0	59	11667
2026-01-05 12:12:05.68	7.21	34.02	-48.5	-58.6	3.8	8.46e-01	0	56	0	0	59	11667
2026-01-05 12:12:07.65	6.57	33.79	-48.5	-58.6	3.8	8.46e-01	0	56	0	0	59	11667
2026-01-05 12:12:09.62	5.94	33.55	-48.5	-58.6	3.8	8.46e-01	0	56	0	0	59	11667
2026-01-05 12:12:11.58	5.32	33.32	-48.5	-58.6	3.8	8.46e-01	0	55	0	0	59	11667
2026-01-05 12:12:13.55	4.70	33.08	-48.5	-58.6	3.8	8.46e-01	0	55	0	0	59	11667
2026-01-05 12:12:15.53	4.10	32.85	-48.5	-58.6	3.8	8.46e-01	0	55	0	0	59	11667
2026-01-05 12:12:17.49	3.50	32.61	-48.5	-58.6	3.8	8.46e-01	0	55	0	0	59	11667
2026-01-05 12:12:19.45	2.92	32.37	-48.5	-58.6	3.8	8.46e-01	0	55	0	0	59	11667
2026-01-05 12:12:21.42	2.34	32.12	-48.5	-58.6	3.8	8.46e-01	0	55	0	0	59	11667
2026-01-05 12:12:23.39	1.78	31.88	-48.5	-58.6	3.8	8.46e-01	0	55	0	0	59	11667
2026-01-05 12:12:25.36	1.22	31.64	-48.5	-58.6	3.8	8.46e-01	0	55	0	0	59	11667
2026-01-05 12:12:27.36	0.66	31.39	-48.5	-58.6	3.8	8.46e-01	0	54	0	0	59	11667
2026-01-05 12:12:29.33	0.11	31.14	-48.5	-58.6	3.8	8.46e-01	0	54	0	0	59	11667
2026-01-05 12:12:31.30	359.58	30.89	-48.5	-58.6	3.8	8.46e-01	0	54	0	0	59	11667
2026-01-05 12:12:33.27	359.05	30.64	-48.5	-58.6	3.8	8.46e-01	0	54	0	0	59	11667
2026-01-05 12:12:35.23	358.53	30.39	-48.5	-58.6	3.8	8.46e-01	0	54	0	0	59	11667
2026-01-05 12:12:37.19	358.03	30.15	-48.5	-58.6	3.8	8.46e-01	0	54	0	0	59	11667
2026-01-05 12:12:39.16	357.52	29.90	-48.5	-58.6	3.8	8.46e-01	0	53	0	0	59	11667
2026-01-05 12:12:41.13	357.03	29.65	-48.5	-58.6	3.8	8.46e-01	0	53	0	0	59	11667
2026-01-05 12:12:43.10	356.54	29.40	-48.5	-58.6	3.8	8.46e-01	0	53	0	0	59	11667
2026-01-05 12:12:45.07	356.06	29.15	-48.5	-58.6	3.8	8.46e-01	0	53	0	0	59	11667
2026-01-05 12:12:47.05	355.59	28.89	-48.5	-58.6	3.8	8.46e-01	0	53	0	0	59	11667
2026-01-05 12:12:49.03	355.12	28.64	-48.5	-58.6	3.8	8.46e-01	0	53	0	0	59	11667
2026-01-05 12:12:51.00	354.66	28.39	-48.5	-58.6	3.8	8.46e-01	0	52	0	0	59	11667
2026-01-05 12:12:52.97	354.21	28.14	-48.5	-58.6	3.8	8.46e-01	0	52	0	0	59	11667
2026-01-05 12:12:54.93	353.77	27.89	-48.5	-58.6	3.8	8.46e-01	0	53	0	0	59	11667
2026-01-05 12:12:56.90	353.34	27.64	-48.5	-58.6	3.8	8.46e-01	0	52	0	0	59	11667
2026-01-05 12:12:58.88	352.91	27.39	-48.5	-58.6	3.8	8.46e-01	0	52	0	0	59	11667
2026-01-05 12:13:00.84	352.49	27.15	-48.5	-58.6	3.8	8.46e-01	0	52	0	0	59	11667
2026-01-05 12:13:02.81	352.07	26.90	-48.5	-58.6	3.8	8.46e-01	0	52	0	0	59	11667
2026-01-05 12:13:04.79	351.66	26.65	-48.5	-58.6	3.8	8.46e-01	0	52	0	0	59	11667
2026-01-05 12:13:06.77	351.25	26.40	-48.5	-58.6	3.8	8.46e-01	0	51	0	0	59	11667
2026-01-05 12:13:08.75	350.86	26.16	-48.5	-58.6	3.8	8.46e-01	0	51	0	0	59	11667
2026-01-05 12:13:10.73	350.46	25.91	-48.5	-58.6	3.8	8.46e-01	0	51	0	0	59	11667
2026-01-05 12:13:12.70	350.08	25.67	-48.5	-58.6	3.8	8.46e-01	0	51	0	0	59	11667
2026-01-05 12:13:14.67	349.70	25.42	-48.5	-58.6	3.8	8.46e-01	0	51	0	0	59	11667
2026-01-05 12:13:16.64	349.33	25.18	-48.5	-58.6	3.8	8.46e-01	0	51	0	0	59	11667
2026-01-05 12:13:18.62	348.96	24.94	-48.5	-58.6	3.8	8.46e-01	0	51	0	0	59	11667
2026-01-05 12:13:20.60	348.60	24.69	-48.5	-58.6	3.8	8.46e-01	0	51	0	0	59	11667
2026-01-05 12:13:22.57	348.24	24.45	-48.5	-58.6	3.8	8.46e-01	0	50	0	0	59	11667
2026-01-05 12:13:24.56	347.89	24.21	-48.5	-58.6	3.8	8.46e-01	0	50	0	0	59	11667
2026-01-05 12:13:26.52	347.54	23.98	-48.5	-58.6	3.8	8.46e-01	0	50	0	0	59	11667
2026-01-05 12:13:28.49	347.21	23.74	-48.5	-58.6	3.8	8.46e-01	0	50	0	0	59	11667
2026-01-05 12:13:30.47	346.87	23.50	-48.5	-58.6	3.8	8.46e-01	0	50	0	0	59	11667
2026-01-05 12:13:32.45	346.54	23.27	-48.5	-58.6	3.8	8.46e-01	0	50	0	0	59	11667
2026-01-05 12:13:34.42	346.22	23.03	-48.5	-58.6	3.8	8.46e-01	0	50	0	0	59	11667
2026-01-05 12:13:36.39	345.90	22.80	-48.5	-58.6	3.8	8.46e-01	0	50	0	0	59	11667
2026-01-05 12:13:38.37	345.58	22.57	-48.5	-58.6	3.8	8.46e-01	0	50	0	0	59	11667
2026-01-05 12:13:40.34	345.27	22.34	-48.5	-58.6	3.8	8.46e-01	0	50	0	0	59	11667
2026-01-05 12:13:42.33	344.96	22.11	-48.5	-58.6	3.8	8.46e-01	0	49	0	0	59	11667
2026-01-05 12:13:44.30	344.66	21.88	-48.5	-58.6	3.8	8.46e-01	0	49	0	0	59	11667
2026-01-05 12:13:46.28	344.36	21.65	-48.5	-58.6	3.8	8.46e-01	0	50	0	0	59	11667
2026-01-05 12:13:48.25	344.07	21.43	-48.5	-58.6	3.8	8.46e-01	0	49	0	0	59	11667
2026-01-05 12:13:50.23	343.78	21.20	-48.5	-58.6	3.8	8.46e-01	0	49	0	0	59	11667
2026-01-05 12:13:52.19	343.50	20.98	-48.5	-58.6	3.8	8.46e-01	0	49	0	0	59	11667
2026-01-05 12:13:54.18	343.22	20.76	-48.5	-58.6	3.8	8.46e-01	0	49	0	0	59	11667
2026-01-05 12:13:56.15	342.95	20.54	-48.5	-58.6	3.8	8.46e-01	0	49	0	0	59	11667
2026-01-05 12:13:58.12	342.68	20.32	-48.5	-58.6	3.8	8.46e-01	0	49	0	0	59	11667
2026-01-05 12:14:00.11	342.41	20.10	-48.5	-58.6	3.8	8.46e-01	0	49	0	0	59	11667
2026-01-05 12:14:02.09	342.14	19.88	-48.5	-58.6	3.8	8.46e-01	0	49	0	0	59	11667
2026-01-05 12:14:04.06	341.88	19.66	-48.5	-58.6	3.8	8.46e-01	0	49	0	0	59	11667
2026-01-05 12:14:06.03	341.63	19.45	-48.5	-58.6	3.8	8.46e-01	0	49	0	0	59	11667
2026-01-05 12:14:08.01	341.38	19.23	-48.5	-58.6	3.8	8.46e-01	0	49	0	0	59	11667
2026-01-05 12:14:10.00	341.12	19.02	-48.5	-58.6	3.8	8.46e-01	0	48	0	0	59	11667
2026-01-05 12:14:11.97	340.88	18.81	-48.5	-58.6	3.8	8.46e-01	0	48	0	0	59	11667
2026-01-05 12:14:13.95	340.64	18.60	-48.5	-58.6	3.8	8.46e-01	0	48	0	0	59	11667
2026-01-05 12:14:15.91	340.40	18.39	-48.5	-58.6	3.8	8.46e-01	0	48	0	0	59	11667
2026-01-05 12:14:17.89	340.17	18.18	-48.5	-58.6	3.8	8.46e-01	0	48	0	0	59	11667
2026-01-05 12:14:19.87	339.93	17.98	-48.5	-58.6	3.8	8.46e-01	0	48	0	0	59	11667
2026-01-05 12:14:21.84	339.70	17.77	-48.5	-58.6	3.8	8.46e-01	0	48	0	0	59	11667
2026-01-05 12:14:23.82	339.48	17.57	-48.5	-58.6	3.8	8.46e-01	0	48	0	0	59	11667
2026-01-05 12:14:25.80	339.26	17.37	-48.5	-58.6	3.8	8.46e-01	0	48	0	0	59	11667
2026-01-05 12:14:27.79	339.03	17.16	-48.5	-58.6	3.8	8.46e-01	0	48	0	0	59	11667
2026-01-05 12:14:29.76	338.82	16.96	-48.5	-58.6	3.8	8.46e-01	0	48	0	0	59	11667
2026-01-05 12:14:31.73	338.61	16.76	-48.5	-58.6	3.8	8.46e-01	0	48	0	0	59	11667
2026-01-05 12:14:33.70	338.40	16.57	-48.5	-58.6	3.8	8.46e-01	0	48	0	0	59	11667
2026-01-05 12:14:35.68	338.19	16.37	-48.5	-58.6	3.8	8.46e-01	0	47	0	0	59	11667
2026-01-05 12:14:37.66	337.98	16.17	-48.5	-58.6	3.8	8.46e-01	0	47	0	0	59	11667
2026-01-05 12:14:39.63	337.78	15.98	-48.5	-58.6	3.8	8.46e-01	0	47	0	0	59	11667
2026-01-05 12:14:41.60	337.58	15.79	-48.5	-58.6	3.8	8.46e-01	0	47	0	0	59	11667
2026-01-05 12:14:43.57	337.39	15.60	-48.5	-58.6	3.8	8.46e-01	0	47	0	0	59	11667
2026-01-05 12:14:45.54	337.19	15.41	-48.5	-58.6	3.8	8.46e-01	0	47	0	0	59	11667
2026-01-05 12:14:47.52	337.00	15.22	-48.5	-58.6	3.8	8.46e-01	0	47	0	0	59	11667
2026-01-05 12:14:49.51	336.81	15.03	-48.5	-58.6	3.8	8.46e-01	0	47	0	0	59	11667
2026-01-05 12:14:51.48	336.62	14.84	-48.5	-58.6	3.8	8.46e-01	0	47	0	0	59	11667
2026-01-05 12:14:53.46	336.44	14.65	-48.5	-58.6	3.8	8.46e-01	0	47	0	0	59	11667
2026-01-05 12:14:55.43	336.26	14.47	-48.5	-58.6	3.8	8.46e-01	0	47	0	0	59	11667
2026-01-05 12:14:57.41	336.08	14.28	-48.5	-58.6	3.8	8.46e-01	0	47	0	0	59	11667
2026-01-05 12:14:59.38	335.90	14.10	-48.5	-58.6	3.8	8.46e-01	0	47	0	0	59	11667
2026-01-05 12:15:00.37	335.81	14.01	-48.5	-58.6	3.8	8.46e-01	0	47	0	0	59	11667
2026-01-05 12:15:02.34	335.64	13.83	-48.5	-58.6	3.8	8.46e-01	0	47	0	0	59	11667
2026-01-05 12:15:04.31	335.47	13.65	-48.5	-58.6	3.8	8.46e-01	0	47	0	0	59	11667
2026-01-05 12:15:06.29	335.30	13.47	-48.5	-58.6	3.8	8.46e-01	0	47	0	0	59	11667
2026-01-05 12:15:08.27	335.13	13.29	-48.5	-58.6	3.8	8.46e-01	0	47	0	0	59	11667
2026-01-05 12:15:10.26	334.96	13.11	-48.5	-58.6	3.8	8.46e-01	0	46	0	0	59	11667
2026-01-05 12:15:12.23	334.80	12.94	-48.5	-58.6	3.8	8.46e-01	0	46	0	0	59	11667
2026-01-05 12:15:14.20	334.64	12.76	-48.5	-58.6	3.8	8.46e-01	0	46	0	0	59	11667
2026-01-05 12:15:16.18	334.48	12.59	-48.5	-58.6	3.8	8.46e-01	0	46	0	0	59	11667
2026-01-05 12:15:18.15	334.32	12.42	-48.5	-58.6	3.8	8.46e-01	0	46	0	0	59	11667
2026-01-05 12:15:20.12	334.17	12.25	-48.5	-58.6	3.8	8.46e-01	0	46	0	0	59	11667
2026-01-05 12:15:22.08	334.02	12.08	-48.5	-58.6	3.8	8.46e-01	0	46	0	0	59	11667
2026-01-05 12:15:24.06	333.86	11.91	-48.5	-58.6	3.8	8.46e-01	0	46	0	0	59	11667
2026-01-05 12:15:26.02	333.71	11.74	-48.5	-58.6	3.8	8.46e-01	0	46	0	0	59	11667
2026-01-05 12:15:27.99	333.57	11.57	-48.5	-58.6	3.8	8.46e-01	0	46	0	0	59	11667
2026-01-05 12:15:29.96	333.42	11.40	-48.5	-58.6	3.8	8.46e-01	0	46	0	0	59	11667
2026-01-05 12:15:31.92	333.28	11.24	-48.5	-58.6	3.8	8.46e-01	0	46	0	0	59	11667
2026-01-05 12:15:33.91	333.13	11.07	-48.5	-58.6	3.8	8.46e-01	0	46	0	0	59	11667
2026-01-05 12:15:35.87	332.99	10.91	-48.5	-58.6	3.8	8.46e-01	0	46	0	0	59	11667
2026-01-05 12:15:37.84	332.85	10.75	-48.5	-58.6	3.8	8.46e-01	0	46	0	0	59	11667
2026-01-05 12:15:39.81	332.72	10.58	-48.5	-58.6	3.8	8.46e-01	0	46	0	0	59	11667
2026-01-05 12:15:41.78	332.58	10.42	-48.5	-58.6	3.8	8.46e-01	0	46	0	0	59	11667
2026-01-05 12:15:43.75	332.45	10.26	-48.5	-58.6	3.8	8.46e-01	0	46	0	0	59	11667
2026-01-05 12:15:45.72	332.31	10.10	-48.5	-58.6	3.8	8.46e-01	0	46	0	0	59	11667
2026-01-05 12:15:47.69	332.18	9.95	-48.5	-58.6	3.8	8.46e-01	0	46	0	0	59	11667
2026-01-05 12:15:49.66	332.05	9.79	-48.5	-58.6	3.8	8.46e-01	0	46	0	0	59	11667
2026-01-05 12:15:51.62	331.92	9.63	-48.5	-58.6	3.8	8.46e-01	0	46	0	0	59	11667
2026-01-05 12:15:53.61	331.80	9.47	-48.5	-58.6	3.8	8.46e-01	0	46	0	0	59	11667
2026-01-05 12:15:55.58	331.67	9.32	-48.5	-58.6	3.8	8.46e-01	0	46	0	0	59	11667
2026-01-05 12:15:57.56	331.55	9.16	-48.5	-58.6	3.8	8.46e-01	0	46	0	0	59	11667
2026-01-05 12:15:59.53	331.42	9.01	-48.5	-58.6	3.8	8.46e-01	0	46	0	0	59	11667
2026-01-05 12:16:02.51	331.24	8.78	-48.5	-58.6	3.8	8.46e-01	0	45	0	0	59	11667
2026-01-05 12:16:04.48	331.12	8.63	-48.5	-58.6	3.8	8.46e-01	0	46	0	0	59	11667
2026-01-05 12:16:06.46	331.00	8.48	-48.5	-58.6	3.8	8.46e-01	0	45	0	0	59	11667
2026-01-05 12:16:08.44	330.88	8.33	-48.5	-58.6	3.8	8.46e-01	0	45	0	0	59	11667
2026-01-05 12:16:10.42	330.77	8.18	-48.5	-58.6	3.8	8.46e-01	0	46	0	0	59	11667
2026-01-05 12:16:12.39	330.65	8.03	-48.5	-58.6	3.8	8.46e-01	0	45	0	0	59	11667
2026-01-05 12:16:14.37	330.54	7.88	-48.5	-58.6	3.8	8.46e-01	0	46	0	0	59	11667
2026-01-05 12:16:16.35	330.43	7.73	-48.5	-58.6	3.8	8.46e-01	0	45	0	0	59	11667
2026-01-05 12:16:18.33	330.32	7.58	-48.5	-58.6	3.8	8.46e-01	0	45	0	0	59	11667
2026-01-05 12:16:20.29	330.21	7.44	-48.5	-58.6	3.8	8.46e-01	0	45	0	0	59	11667
2026-01-05 12:16:22.27	330.10	7.29	-48.5	-58.6	3.8	8.46e-01	0	45	0	0	59	11667
2026-01-05 12:16:24.24	329.99	7.15	-48.5	-58.6	3.8	8.46e-01	0	45	0	0	59	11667
2026-01-05 12:16:26.21	329.89	7.01	-48.5	-58.6	3.8	8.46e-01	0	45	0	0	59	11667
2026-01-05 12:16:28.17	329.78	6.87	-48.5	-58.6	3.8	8.46e-01	0	45	0	0	59	11667
2026-01-05 12:16:30.10	329.68	6.73	-48.5	-58.6	3.8	8.46e-01	0	45	0	0	59	11667
2026-01-05 12:16:32.08	329.58	6.58	-48.5	-58.6	3.8	8.46e-01	0	45	0	0	59	11667
2026-01-05 12:16:34.06	329.47	6.44	-48.5	-58.6	3.8	8.46e-01	0	45	0	0	59	11667
2026-01-05 12:16:36.03	329.37	6.30	-48.5	-58.6	3.8	8.46e-01	0	45	0	0	59	11667
2026-01-05 12:16:38.02	329.27	6.16	-48.5	-58.6	3.8	8.46e-01	0	45	0	0	59	11667
2026-01-05 12:16:40.01	329.17	6.02	-48.5	-58.6	3.8	8.46e-01	0	45	0	0	59	11667
2026-01-05 12:16:41.99	329.08	5.88	-48.5	-58.6	3.8	8.46e-01	0	45	0	0	59	11667
2026-01-05 12:16:43.97	328.98	5.75	-48.5	-58.6	3.8	8.46e-01	0	45	0	0	59	11667
2026-01-05 12:16:45.94	328.88	5.61	-48.5	-58.6	3.8	8.46e-01	0	45	0	0	59	11667
2026-01-05 12:16:47.93	328.79	5.47	-48.5	-58.6	3.8	8.46e-01	0	45	0	0	59	11667
2026-01-05 12:16:49.90	328.69	5.34	-48.5	-58.6	3.8	8.46e-01	0	45	0	0	59	11667
2026-01-05 12:16:51.87	328.60	5.20	-48.5	-58.6	3.8	8.46e-01	0	45	0	0	59	11667
2026-01-05 12:16:53.85	328.51	5.07	-48.5	-58.6	3.8	8.46e-01	0	45	0	0	59	11667
2026-01-05 12:16:55.83	328.42	4.93	-48.5	-58.6	3.8	8.46e-01	0	45	0	0	59	11667
2026-01-05 12:16:57.81	328.33	4.80	-48.5	-58.6	3.8	8.46e-01	0	45	0	0	59	11667
2026-01-05 12:16:59.79	328.24	4.67	-48.5	-58.6	3.8	8.46e-01	0	45	0	0	59	11667
2026-01-05 12:17:01.76	328.15	4.53	-48.5	-58.6	3.8	8.46e-01	0	45	0	0	59	11667
2026-01-05 12:17:03.73	328.06	4.40	-48.5	-58.6	3.8	8.46e-01	0	45	0	0	59	11667
2026-01-05 12:17:05.72	327.98	4.27	-48.5	-58.6	3.8	8.46e-01	0	45	0	0	59	11667
2026-01-05 12:17:07.70	327.89	4.14	-48.5	-58.6	3.8	8.46e-01	0	45	0	0	59	11667
2026-01-05 12:17:09.67	327.80	4.01	-48.5	-58.6	3.8	8.46e-01	0	45	0	0	59	11667
2026-01-05 12:17:11.64	327.72	3.88	-48.5	-58.6	3.8	8.46e-01	0	45	0	0	59	11667
2026-01-05 12:17:13.60	327.64	3.75	-48.5	-58.6	3.8	8.46e-01	0	45	0	0	59	11667
2026-01-05 12:17:15.58	327.55	3.62	-48.5	-58.6	3.8	8.46e-01	0	45	0	0	59	11667
2026-01-05 12:17:17.56	327.47	3.50	-48.5	-58.6	3.8	8.46e-01	0	45	0	0	59	11667
2026-01-05 12:17:19.53	327.39	3.37	-48.5	-58.6	3.8	8.46e-01	0	44	0	0	59	11667
2026-01-05 12:17:21.50	327.31	3.24	-48.5	-58.6	3.8	8.46e-01	0	45	0	0	59	11667
2026-01-05 12:17:23.48	327.23	3.12	-48.5	-58.6	3.8	8.46e-01	0	44	0	0	59	11667

#Closed at: 2026-01-05 12:17:25
#Recorded file [0 MB]: D:/Data/31026_260105_151159.datle [0 MB]: D:/Data/31026_260105_151159.dat
2026-01-05 12:16:36.63	329.34	6.26	-48.5	-58.6	3.8	8.46e-01	0	45	0	0	59	11667
2026-01-05 12:16:38.62	329.24	6.12	-48.5	-58.6	3.8	8.46e-01	0	45	0	0	59	11667
2026-01-05 12:16:40.60	329.14	5.98	-48.5	-58.6	3.8	8.46e-01	0	45	0	0	59	11667
2026-01-05 12:16:42.59	329.05	5.84	-48.5	-58.6	3.8	8.46e-01	0	45	0	0	59	11667
2026-01-05 12:16:44.56	328.95	5.70	-48.5	-58.6	3.8	8.46e-01	0	45	0	0	59	11667
2026-01-05 12:16:46.54	328.85	5.57	-48.5	-58.6	3.8	8.46e-01	0	45	0	0	59	11667
2026-01-05 12:16:48.52	328.76	5.43	-48.5	-58.6	3.8	8.46e-01	0	45	0	0	59	11667
2026-01-05 12:16:50.49	328.67	5.30	-48.5	-58.6	3.8	8.46e-01	0	45	0	0	59	11667
2026-01-05 12:16:52.46	328.57	5.16	-48.5	-58.6	3.8	8.46e-01	0	45	0	0	59	11667
2026-01-05 12:16:54.44	328.48	5.03	-48.5	-58.6	3.8	8.46e-01	0	45	0	0	59	11667
2026-01-05 12:16:56.43	328.39	4.89	-48.5	-58.6	3.8	8.46e-01	0	45	0	0	59	11667
2026-01-05 12:16:58.40	328.30	4.76	-48.5	-58.6	3.8	8.46e-01	0	45	0	0	59	11667
2026-01-05 12:17:00.38	328.21	4.63	-48.5	-58.6	3.8	8.46e-01	0	45	0	0	59	11667
2026-01-05 12:17:02.35	328.12	4.49	-48.5	-58.6	3.8	8.46e-01	0	45	0	0	59	11667
2026-01-05 12:17:04.32	328.04	4.36	-48.5	-58.6	3.8	8.46e-01	0	45	0	0	59	11667
2026-01-05 12:17:06.32	327.95	4.23	-48.5	-58.6	3.8	8.46e-01	0	45	0	0	59	11667
2026-01-05 12:17:08.29	327.86	4.10	-48.5	-58.6	3.8	8.46e-01	0	45	0	0	59	11667
2026-01-05 12:17:10.26	327.78	3.97	-48.5	-58.6	3.8	8.46e-01	0	45	0	0	59	11667
2026-01-05 12:17:12.23	327.70	3.84	-48.5	-58.6	3.8	8.46e-01	0	45	0	0	59	11667
2026-01-05 12:17:14.20	327.61	3.71	-48.5	-58.6	3.8	8.46e-01	0	45	0	0	59	11667
2026-01-05 12:17:16.18	327.53	3.59	-48.5	-58.6	3.8	8.46e-01	0	45	0	0	59	11667
2026-01-05 12:17:18.15	327.45	3.46	-48.5	-58.6	3.8	8.46e-01	0	44	0	0	59	11667
2026-01-05 12:17:20.12	327.37	3.33	-48.5	-58.6	3.8	8.46e-01	0	45	0	0	59	11667
2026-01-05 12:17:22.10	327.29	3.21	-48.5	-58.6	3.8	8.46e-01	0	44	0	0	59	11667
2026-01-05 12:17:24.08	327.21	3.08	-48.5	-58.6	3.8	8.46e-01	0	44	0	0	59	11667
2026-01-05 12:17:26.06	327.13	2.95	-48.5	-58.6	3.8	8.46e-01	0	44	0	0	59	11667
2026-01-05 12:17:28.03	327.05	2.83	-48.5	-58.6	3.8	8.46e-01	0	45	0	0	59	11667

#Closed at: 2026-01-05 12:17:29
#Recorded file [0 MB]: D:/Data/31026_260105_151159.dat