passes_logs/2026/01/05/R3.0SM8_Murmansk_STILSPACE/R3.0SM8_Murmansk_STILSPACE__20260105_034622_FENGYUN_3E_rec.log

#Pass ID: 20260105_034622_FENGYUN 3E
#Satellite: FENGYUN 3E
#Configuration: FENGYUN 3E
#almurnet v.1.7.20240730
#Start time: 2026-01-05 03:53:55

#Version: 2.2.20231116
#Station: R3.0SM8_Murmansk_STILSPACE
#Location: 33.092731 lon 68.902999 lat
#TLE: 1 49008U 21062A   26004.29457719  .00000106  00000+0  70678-4 0  9996
#TLE: 2 49008  98.7471   9.5487 0001503 159.9821 200.1414 14.19883545233329

#Time	Az	El	Level	Level2	SNR	BER	BlckErr	Temp	State	Recorded	gain1	gain2
2026-01-05 03:53:55.87	122.55	43.74	-52.6	-63.3	3.8	8.45e-01	0	56	0	0	67	12791
2026-01-05 03:53:57.85	123.50	43.51	-52.4	-62.7	3.8	8.47e-01	0	57	104	0	67	11768
2026-01-05 03:53:59.82	124.44	43.29	-52.3	-62.7	3.8	8.47e-01	0	57	104	0	67	11794
2026-01-05 03:54:01.80	125.36	43.05	-52.6	-62.7	3.8	8.46e-01	0	57	104	0	67	11817
2026-01-05 03:54:03.77	126.27	42.81	-52.5	-62.8	3.8	8.47e-01	0	57	104	0	67	11833
2026-01-05 03:54:05.75	127.17	42.56	-52.6	-62.8	3.8	8.46e-01	0	57	104	0	67	11835
2026-01-05 03:54:07.73	128.05	42.31	-52.5	-62.7	3.8	8.46e-01	0	57	104	0	67	11730
2026-01-05 03:54:09.71	128.93	42.05	-52.5	-62.6	3.8	8.46e-01	0	57	104	0	67	11570
2026-01-05 03:54:11.70	129.79	41.78	-52.5	-62.5	3.8	8.46e-01	0	57	104	0	67	11537
2026-01-05 03:54:13.68	130.63	41.51	-52.5	-62.7	3.8	8.47e-01	0	57	104	0	67	11686
2026-01-05 03:54:15.66	131.46	41.24	-52.5	-62.6	3.8	8.45e-01	0	57	104	0	67	11624
2026-01-05 03:54:17.65	132.28	40.96	-52.4	-62.6	3.8	8.46e-01	0	57	104	0	67	11612
2026-01-05 03:54:19.63	133.08	40.68	-52.5	-62.7	3.8	8.46e-01	0	57	104	0	67	11710
2026-01-05 03:54:21.59	133.86	40.39	-52.5	-62.6	3.8	8.46e-01	0	57	104	0	67	11603
2026-01-05 03:54:23.57	134.64	40.10	-52.4	-62.4	3.8	8.45e-01	0	57	104	0	67	11393
2026-01-05 03:54:25.54	135.40	39.81	-52.4	-62.4	3.8	8.46e-01	0	57	104	0	67	11336
2026-01-05 03:54:27.51	136.14	39.52	-52.4	-62.5	3.8	8.46e-01	0	57	104	0	67	11502
2026-01-05 03:54:29.48	136.87	39.22	-52.4	-62.3	3.8	8.47e-01	0	58	104	0	67	11238
2026-01-05 03:54:31.45	137.59	38.92	-52.5	-62.5	3.8	8.47e-01	0	58	104	0	67	11434
2026-01-05 03:54:33.43	138.30	38.62	-52.3	-62.2	3.8	8.46e-01	0	57	104	0	67	11082
2026-01-05 03:54:35.41	138.99	38.31	-52.2	-60.7	3.8	8.45e-01	0	58	104	0	67	9312
2026-01-05 03:54:37.39	139.68	38.00	-52.1	-59.8	3.9	8.41e-01	0	57	104	0	67	8458
2026-01-05 03:54:39.36	140.34	37.69	-52.1	-60.0	4.0	8.43e-01	0	57	104	0	66	9170
2026-01-05 03:54:41.35	141.00	37.38	-52.3	-61.3	3.8	8.45e-01	0	57	104	0	66	10601
2026-01-05 03:54:43.32	141.65	37.07	-52.1	-59.8	4.0	8.44e-01	0	57	104	0	66	8898
2026-01-05 03:54:45.31	142.28	36.76	-52.2	-60.8	3.8	8.45e-01	0	58	104	0	66	9995
2026-01-05 03:54:47.28	142.90	36.45	-50.7	-54.8	6.6	4.21e-01	0	58	0	1048576	64	5632
2026-01-05 03:54:49.26	143.51	36.13	-44.7	-45.6	15.9	0.00e+00	0	58	0	15728640	52	3882
2026-01-05 03:54:51.24	144.11	35.82	-42.4	-43.1	18.4	0.00e+00	0	58	0	29360128	47	3893
2026-01-05 03:54:53.22	144.70	35.50	-42.7	-43.4	18.2	0.00e+00	0	57	0	44040192	48	3797
2026-01-05 03:54:55.19	145.27	35.19	-41.5	-42.0	19.0	0.00e+00	0	58	0	58720256	45	3859
2026-01-05 03:54:57.15	145.83	34.88	-40.6	-41.1	20.2	0.00e+00	0	58	0	72351744	44	3667
2026-01-05 03:54:59.14	146.39	34.56	-40.2	-40.7	20.5	0.00e+00	0	57	0	87031808	43	3712
2026-01-05 03:55:01.13	146.94	34.25	-40.4	-40.8	20.4	0.00e+00	0	58	0	100663296	43	3770
2026-01-05 03:55:03.11	147.47	33.93	-39.8	-40.2	21.0	0.00e+00	0	58	0	115343360	42	3715
2026-01-05 03:55:05.09	147.99	33.62	-39.7	-40.1	21.0	0.00e+00	0	58	0	130023424	42	3685
2026-01-05 03:55:07.06	148.51	33.31	-40.1	-40.6	20.7	0.00e+00	0	57	0	143654912	42	3880
2026-01-05 03:55:09.04	149.01	33.00	-40.2	-40.7	20.5	0.00e+00	0	57	0	158334976	42	3933
2026-01-05 03:55:11.01	149.50	32.69	-40.2	-40.7	20.6	0.00e+00	0	57	0	171966464	42	3932
2026-01-05 03:55:12.99	149.99	32.38	-39.8	-40.3	20.8	0.00e+00	0	58	0	186646528	42	3763
2026-01-05 03:55:14.97	150.47	32.07	-39.8	-40.2	21.0	0.00e+00	0	58	0	200278016	42	3725
2026-01-05 03:55:16.95	150.94	31.76	-39.7	-40.2	21.0	0.00e+00	0	58	0	214958080	42	3707
2026-01-05 03:55:18.92	151.40	31.46	-39.5	-39.9	21.3	0.00e+00	0	58	0	229638144	42	3606
2026-01-05 03:55:20.91	151.85	31.15	-39.5	-39.9	21.1	0.00e+00	0	57	0	243269632	41	3819
2026-01-05 03:55:22.88	152.29	30.85	-39.5	-40.0	21.2	0.00e+00	0	57	0	257949696	41	3827
2026-01-05 03:55:24.86	152.73	30.54	-39.9	-40.4	20.8	0.00e+00	0	58	0	272629760	41	4007
2026-01-05 03:55:26.83	153.15	30.24	-39.8	-40.3	20.8	0.00e+00	0	58	0	286261248	41	3980
2026-01-05 03:55:28.82	153.57	29.94	-40.1	-40.6	20.6	0.00e+00	0	58	0	300941312	41	4134
2026-01-05 03:55:30.78	153.98	29.65	-40.3	-40.8	20.4	0.00e+00	0	57	0	315621376	42	4002
2026-01-05 03:55:32.75	154.39	29.35	-40.1	-40.5	20.7	0.00e+00	0	58	0	329252864	42	3862
2026-01-05 03:55:34.74	154.79	29.05	-39.8	-40.3	20.9	0.00e+00	0	58	0	343932928	42	3749
2026-01-05 03:55:36.72	155.18	28.76	-39.7	-40.2	21.0	0.00e+00	0	58	0	357564416	42	3711
2026-01-05 03:55:38.71	155.56	28.47	-40.1	-40.5	20.6	0.00e+00	0	58	0	372244480	42	3862
2026-01-05 03:55:40.68	155.94	28.18	-40.1	-40.6	20.6	0.00e+00	0	58	0	386924544	42	3886
2026-01-05 03:55:42.65	156.31	27.89	-40.3	-40.8	20.5	0.00e+00	0	57	0	400556032	42	3967
2026-01-05 03:55:44.63	156.67	27.60	-40.4	-40.9	20.3	0.00e+00	0	58	0	415236096	42	4018
2026-01-05 03:55:46.61	157.03	27.32	-40.4	-40.9	20.3	0.00e+00	0	58	0	428867584	42	4035
2026-01-05 03:55:48.59	157.38	27.04	-40.7	-41.2	20.0	0.00e+00	0	58	0	443547648	43	3944
2026-01-05 03:55:50.57	157.73	26.76	-40.8	-41.3	19.9	0.00e+00	0	58	0	458227712	43	3993
2026-01-05 03:55:52.55	158.07	26.48	-40.6	-41.2	20.0	0.00e+00	0	58	0	471859200	43	3916
2026-01-05 03:55:54.52	158.40	26.20	-40.7	-41.3	19.9	0.00e+00	0	58	0	486539264	43	3968
2026-01-05 03:55:56.50	158.73	25.92	-40.4	-40.9	20.2	0.00e+00	0	58	0	501219328	43	3807
2026-01-05 03:55:58.46	159.05	25.65	-40.5	-41.0	20.1	0.00e+00	0	58	0	514850816	43	3832
2026-01-05 03:56:00.45	159.37	25.38	-40.7	-41.2	20.0	0.00e+00	0	58	0	529530880	43	3928
2026-01-05 03:56:02.41	159.68	25.11	-40.5	-41.0	20.2	0.00e+00	0	58	0	543162368	43	3849
2026-01-05 03:56:04.39	159.98	24.84	-40.8	-41.3	19.9	0.00e+00	0	57	0	557842432	43	3994
2026-01-05 03:56:06.37	160.29	24.58	-40.5	-41.0	20.2	0.00e+00	0	58	0	571473920	43	3852
2026-01-05 03:56:08.36	160.59	24.31	-40.7	-41.2	20.0	0.00e+00	0	58	0	586153984	43	3926
2026-01-05 03:56:10.33	160.88	24.05	-40.5	-41.0	20.1	0.00e+00	0	58	0	600834048	43	3843
2026-01-05 03:56:12.31	161.17	23.79	-40.2	-40.7	20.4	0.00e+00	0	58	0	614465536	43	3701
2026-01-05 03:56:14.28	161.45	23.53	-40.2	-40.7	20.5	0.00e+00	0	58	0	629145600	43	3706
2026-01-05 03:56:16.26	161.73	23.28	-40.5	-41.0	20.2	0.00e+00	0	58	0	642777088	43	3833
2026-01-05 03:56:18.24	162.00	23.02	-40.3	-40.7	20.4	0.00e+00	0	58	0	657457152	43	3730
2026-01-05 03:56:20.22	162.27	22.77	-40.5	-41.0	20.2	0.00e+00	0	58	0	672137216	43	3827
2026-01-05 03:56:22.20	162.54	22.52	-40.6	-41.1	20.1	0.00e+00	0	58	0	685768704	43	3878
2026-01-05 03:56:24.17	162.80	22.27	-40.3	-40.8	20.4	0.00e+00	0	58	0	700448768	43	3741
2026-01-05 03:56:26.16	163.06	22.02	-40.3	-40.8	20.3	0.00e+00	0	58	0	715128832	43	3766
2026-01-05 03:56:28.13	163.31	21.77	-40.7	-41.2	19.9	0.00e+00	0	58	0	728760320	43	3939
2026-01-05 03:56:30.11	163.56	21.53	-40.8	-41.4	19.6	0.00e+00	0	58	0	743440384	43	4020
2026-01-05 03:56:32.08	163.81	21.29	-40.9	-41.4	19.7	0.00e+00	0	58	0	758120448	43	4051
2026-01-05 03:56:34.05	164.05	21.05	-41.1	-41.6	19.6	0.00e+00	0	58	0	771751936	43	4120
2026-01-05 03:56:36.03	164.29	20.81	-41.1	-41.7	19.5	0.00e+00	0	58	0	786432000	43	4152
2026-01-05 03:56:38.02	164.53	20.57	-41.2	-41.7	19.4	0.00e+00	0	58	0	800063488	43	4191
2026-01-05 03:56:40.01	164.76	20.34	-40.8	-41.3	19.8	0.00e+00	0	58	0	814743552	43	4001
2026-01-05 03:56:41.99	164.99	20.10	-41.2	-41.7	19.4	0.00e+00	0	58	0	829423616	43	4175
2026-01-05 03:56:43.98	165.22	19.87	-40.9	-41.5	19.7	0.00e+00	0	58	0	844103680	43	4059
2026-01-05 03:56:45.95	165.44	19.64	-41.3	-41.9	19.4	0.00e+00	0	58	0	857735168	44	4019
2026-01-05 03:56:47.94	165.66	19.41	-41.4	-42.0	19.3	0.00e+00	0	58	0	872415232	44	4066
2026-01-05 03:56:49.91	165.87	19.19	-41.1	-41.6	19.6	0.00e+00	0	58	0	886046720	44	3899
2026-01-05 03:56:51.90	166.09	18.96	-41.0	-41.6	19.7	0.00e+00	0	58	0	900726784	44	3871
2026-01-05 03:56:53.86	166.29	18.74	-41.4	-41.9	19.3	0.00e+00	0	58	0	914358272	44	4043
2026-01-05 03:56:55.83	166.50	18.52	-41.2	-41.7	19.5	0.00e+00	0	58	0	929038336	44	3938
2026-01-05 03:56:57.81	166.71	18.30	-41.4	-42.0	19.3	0.00e+00	0	58	0	943718400	44	4062
2026-01-05 03:56:59.79	166.91	18.08	-41.5	-42.1	19.2	0.00e+00	0	58	0	957349888	44	4103
2026-01-05 03:57:01.77	167.11	17.87	-41.6	-42.1	19.1	0.00e+00	0	58	0	972029952	44	4144
2026-01-05 03:57:03.75	167.30	17.65	-41.3	-41.9	19.3	0.00e+00	0	58	0	985661440	44	4008
2026-01-05 03:57:05.73	167.50	17.44	-41.6	-42.2	19.0	0.00e+00	0	58	0	1000341504	44	4181
2026-01-05 03:57:07.71	167.69	17.23	-41.8	-42.4	18.8	0.00e+00	0	58	0	1015021568	45	4040
2026-01-05 03:57:09.69	167.87	17.01	-42.2	-42.8	18.4	0.00e+00	0	58	0	1028653056	45	4217
2026-01-05 03:57:11.67	168.06	16.81	-41.9	-42.5	18.7	0.00e+00	0	58	0	1043333120	46	3863
2026-01-05 03:57:13.64	168.24	16.60	-41.9	-42.5	18.7	0.00e+00	0	58	0	1058013184	46	3846
2026-01-05 03:57:15.63	168.42	16.39	-42.0	-42.6	18.6	0.00e+00	0	58	0	1071644672	46	3897
2026-01-05 03:57:17.61	168.60	16.19	-41.6	-42.2	19.0	0.00e+00	0	58	0	1086324736	46	3723
2026-01-05 03:57:19.60	168.78	15.98	-41.5	-42.1	19.1	0.00e+00	0	58	0	1101004800	46	3675
2026-01-05 03:57:21.57	168.95	15.78	-41.6	-42.2	19.0	0.00e+00	0	58	0	1114636288	46	3700
2026-01-05 03:57:23.55	169.13	15.58	-41.6	-42.2	19.0	0.00e+00	0	58	0	1129316352	46	3716
2026-01-05 03:57:25.53	169.30	15.38	-41.9	-42.5	18.7	0.00e+00	0	58	0	1143996416	46	3846
2026-01-05 03:57:27.50	169.46	15.19	-41.9	-42.5	18.7	0.00e+00	0	58	0	1157627904	46	3841
2026-01-05 03:57:29.47	169.63	14.99	-42.1	-42.7	18.4	0.00e+00	0	58	0	1171259392	46	3929
2026-01-05 03:57:31.45	169.79	14.80	-41.9	-42.5	18.6	0.00e+00	0	58	0	1185939456	46	3862
2026-01-05 03:57:33.42	169.95	14.61	-42.1	-42.7	18.4	0.00e+00	0	58	0	1200619520	46	3958
2026-01-05 03:57:35.40	170.11	14.41	-42.2	-42.8	18.3	0.00e+00	0	58	0	1214251008	46	4001
2026-01-05 03:57:37.37	170.27	14.23	-42.1	-42.7	18.4	0.00e+00	0	58	0	1228931072	46	3949
2026-01-05 03:57:39.35	170.42	14.04	-42.3	-43.0	18.2	0.00e+00	0	58	0	1243611136	46	4061
2026-01-05 03:57:41.33	170.58	13.85	-42.5	-43.2	17.9	0.00e+00	0	58	0	1257242624	46	4181
2026-01-05 03:57:43.31	170.73	13.66	-42.6	-43.3	17.9	0.00e+00	0	58	0	1271922688	47	3963
2026-01-05 03:57:45.30	170.88	13.47	-42.5	-43.1	18.0	0.00e+00	0	58	0	1286602752	47	3911
2026-01-05 03:57:47.27	171.03	13.29	-42.3	-43.0	18.1	0.00e+00	0	58	0	1300234240	47	3849
2026-01-05 03:57:49.27	171.18	13.11	-42.4	-43.1	18.0	0.00e+00	0	58	0	1314914304	47	3895
2026-01-05 03:57:51.25	171.32	12.92	-42.5	-43.2	17.9	0.00e+00	0	58	0	1328545792	47	3928
2026-01-05 03:57:53.23	171.47	12.74	-42.5	-43.1	18.0	0.00e+00	0	58	0	1343225856	47	3911
2026-01-05 03:57:55.21	171.61	12.56	-42.4	-43.1	18.0	0.00e+00	0	58	0	1357905920	47	3871
2026-01-05 03:57:57.19	171.75	12.39	-42.6	-43.3	17.8	0.00e+00	0	58	0	1371537408	47	3972
2026-01-05 03:57:59.16	171.89	12.21	-42.7	-43.4	17.7	0.00e+00	0	58	0	1386217472	47	4018
2026-01-05 03:58:01.14	172.02	12.03	-42.8	-43.5	17.6	0.00e+00	0	58	0	1400897536	47	4080
2026-01-05 03:58:03.12	172.16	11.86	-42.8	-43.6	17.5	0.00e+00	0	58	0	1414529024	47	4110
2026-01-05 03:58:05.10	172.29	11.69	-42.9	-43.6	17.4	0.00e+00	0	58	0	1429209088	47	4139
2026-01-05 03:58:07.07	172.42	11.51	-43.5	-44.3	17.0	0.00e+00	0	58	0	1443889152	48	4213
2026-01-05 03:58:09.06	172.56	11.34	-43.2	-44.0	17.3	0.00e+00	0	58	0	1457520640	48	4067
2026-01-05 03:58:11.03	172.68	11.17	-43.3	-44.1	17.2	0.00e+00	0	58	0	1472200704	48	4122
2026-01-05 03:58:13.01	172.81	11.00	-43.5	-44.3	16.9	0.00e+00	0	58	0	1485832192	48	4222
2026-01-05 03:58:14.99	172.94	10.83	-43.4	-44.2	17.0	0.00e+00	0	58	0	1500512256	48	4167
2026-01-05 03:58:16.98	173.07	10.67	-43.5	-44.3	16.9	0.00e+00	0	58	0	1515192320	48	4207
2026-01-05 03:58:18.95	173.19	10.50	-43.6	-44.4	16.9	0.00e+00	0	58	0	1528823808	48	4251
2026-01-05 03:58:20.93	173.31	10.33	-43.6	-44.5	16.7	0.00e+00	0	58	0	1543503872	49	4053
2026-01-05 03:58:22.91	173.43	10.17	-43.9	-44.7	16.4	0.00e+00	0	58	0	1557135360	49	4190
2026-01-05 03:58:24.88	173.55	10.01	-43.8	-44.6	16.6	0.00e+00	0	58	0	1571815424	49	4114
2026-01-05 03:58:26.86	173.67	9.85	-43.7	-44.6	16.6	0.00e+00	0	58	0	1586495488	49	4102
2026-01-05 03:58:28.84	173.79	9.68	-43.8	-44.7	16.5	0.00e+00	0	58	0	1600126976	49	4147
2026-01-05 03:58:30.80	173.91	9.52	-43.6	-44.5	16.7	0.00e+00	0	58	0	1614807040	49	4054
2026-01-05 03:58:32.79	174.02	9.36	-43.9	-44.7	16.4	0.00e+00	0	58	0	1628438528	49	4188
2026-01-05 03:58:34.77	174.14	9.21	-43.8	-44.6	16.5	0.00e+00	0	58	0	1643118592	49	4130
2026-01-05 03:58:36.74	174.25	9.05	-43.9	-44.8	16.3	0.00e+00	0	58	0	1657798656	49	4218
2026-01-05 03:58:38.72	174.36	8.89	-44.0	-44.9	16.2	0.00e+00	0	58	0	1671430144	49	4260
2026-01-05 03:58:40.70	174.47	8.74	-43.9	-44.8	16.3	0.00e+00	0	58	0	1686110208	49	4206
2026-01-05 03:58:42.68	174.58	8.58	-43.9	-44.8	16.2	0.00e+00	0	58	0	1700790272	49	4222
2026-01-05 03:58:44.66	174.69	8.43	-44.0	-44.8	16.2	0.00e+00	0	58	0	1714421760	49	4242
2026-01-05 03:58:46.63	174.80	8.27	-43.9	-44.8	16.2	0.00e+00	0	58	0	1729101824	49	4224
2026-01-05 03:58:48.61	174.90	8.12	-44.1	-45.0	16.1	0.00e+00	0	58	0	1742733312	49	4311
2026-01-05 03:58:50.59	175.01	7.97	-44.3	-45.2	15.8	0.00e+00	0	58	0	1757413376	50	4163
2026-01-05 03:58:52.56	175.11	7.82	-44.0	-44.9	16.1	0.00e+00	0	58	0	1771044864	50	4047
2026-01-05 03:58:54.54	175.22	7.67	-44.0	-44.9	16.1	0.00e+00	0	58	0	1785724928	50	4036
2026-01-05 03:58:56.52	175.32	7.52	-44.2	-45.2	15.8	0.00e+00	0	58	0	1800404992	50	4151
2026-01-05 03:58:58.50	175.42	7.37	-44.4	-45.3	15.6	0.00e+00	0	58	0	1814036480	50	4239
2026-01-05 03:59:00.48	175.52	7.23	-44.3	-45.3	15.7	0.00e+00	0	58	0	1828716544	50	4211
2026-01-05 03:59:02.45	175.62	7.08	-44.4	-45.4	15.5	0.00e+00	0	58	0	1843396608	50	4268
2026-01-05 03:59:04.43	175.72	6.93	-44.4	-45.4	15.5	0.00e+00	0	58	0	1857028096	50	4270
2026-01-05 03:59:06.41	175.82	6.79	-44.5	-45.5	15.3	0.00e+00	0	58	0	1871708160	50	4333
2026-01-05 03:59:08.38	175.91	6.64	-44.5	-45.5	15.3	0.00e+00	0	58	0	1886388224	51	4082
2026-01-05 03:59:10.36	176.01	6.50	-44.7	-45.8	15.0	1.10e-06	0	58	0	1900019712	51	4205
2026-01-05 03:59:12.33	176.10	6.36	-44.8	-45.9	14.9	0.00e+00	0	58	0	1914699776	51	4253
2026-01-05 03:59:14.30	176.20	6.22	-44.7	-45.7	15.1	0.00e+00	0	58	0	1928331264	51	4171
2026-01-05 03:59:16.28	176.29	6.07	-44.6	-45.6	15.2	1.10e-06	0	58	0	1943011328	51	4112
2026-01-05 03:59:18.27	176.38	5.93	-44.6	-45.7	15.1	0.00e+00	0	58	0	1956642816	51	4151
2026-01-05 03:59:20.26	176.48	5.79	-44.6	-45.7	15.0	0.00e+00	0	58	0	1971322880	51	4164
2026-01-05 03:59:22.24	176.57	5.65	-44.8	-45.9	14.9	0.00e+00	0	58	0	1986002944	51	4248
2026-01-05 03:59:24.22	176.66	5.51	-44.9	-46.1	14.6	0.00e+00	0	58	0	1999634432	51	4361
2026-01-05 03:59:26.20	176.75	5.38	-44.9	-46.0	14.6	0.00e+00	0	58	0	2014314496	51	4336
2026-01-05 03:59:28.18	176.84	5.24	-44.7	-45.8	14.9	0.00e+00	0	58	0	2028994560	51	4211
2026-01-05 03:59:30.15	176.92	5.10	-44.9	-46.0	14.6	0.00e+00	0	58	0	2042626048	51	4320
2026-01-05 03:59:32.12	177.01	4.97	-51.6	-61.7	3.8	8.45e-01	0	58	104	2049966080	64	12445
2026-01-05 03:59:34.10	177.10	4.83	-52.1	-62.2	3.8	8.48e-01	0	58	104	2049966080	65	12514
2026-01-05 03:59:36.09	177.18	4.70	-52.3	-62.5	3.8	8.46e-01	0	58	104	2049966080	66	12114
2026-01-05 03:59:38.06	177.27	4.56	-52.4	-62.6	3.8	8.47e-01	0	58	104	2049966080	66	12239
2026-01-05 03:59:40.03	177.35	4.43	-52.5	-62.6	3.8	8.46e-01	0	58	104	2049966080	66	12347
2026-01-05 03:59:42.00	177.44	4.30	-52.4	-62.7	3.8	8.46e-01	0	58	104	2049966080	66	12429
2026-01-05 03:59:43.99	177.52	4.16	-52.5	-62.7	3.8	8.47e-01	0	58	104	2049966080	66	12467
2026-01-05 03:59:45.97	177.60	4.03	-52.5	-62.7	3.8	8.45e-01	0	58	104	2049966080	66	12510
2026-01-05 03:59:47.95	177.68	3.90	-52.6	-62.7	3.8	8.47e-01	0	58	104	2049966080	66	12490
2026-01-05 03:59:49.93	177.76	3.77	-52.6	-62.8	3.8	8.46e-01	0	58	104	2049966080	66	12626
2026-01-05 03:59:51.90	177.84	3.64	-52.6	-62.8	3.8	8.46e-01	0	58	104	2049966080	66	12583
2026-01-05 03:59:53.88	177.92	3.51	-52.7	-62.8	3.8	8.46e-01	0	58	104	2049966080	66	12601
2026-01-05 03:59:55.85	178.00	3.38	-52.5	-62.8	3.8	8.45e-01	0	58	104	2049966080	66	12589
2026-01-05 03:59:57.83	178.08	3.26	-52.6	-62.8	3.8	8.47e-01	0	58	104	2049966080	66	12592
2026-01-05 03:59:59.80	178.16	3.13	-52.5	-62.8	3.8	8.45e-01	0	58	104	2049966080	66	12526
2026-01-05 04:00:01.77	178.23	3.00	-52.6	-62.8	3.8	8.45e-01	0	58	104	2049966080	66	12566
2026-01-05 04:00:03.75	178.31	2.88	-52.6	-62.8	3.8	8.46e-01	0	58	104	2049966080	66	12535

#Closed at: 2026-01-05 04:00:03
#Recorded file [2049 MB]: D:/Data/31026_260105_065931.dat