passes_logs/2026/01/05/R3.0SM8_Murmansk_STILSPACE/R3.0SM8_Murmansk_STILSPACE__20260105_005857_SUOMI_NPP_rec.log

#Pass ID: 20260105_005857_SUOMI NPP
#Satellite: SUOMI NPP
#Configuration: NPP
#almurnet v.1.7.20240730
#Start time: 2026-01-05 01:03:59

#Version: 2.2.20231116
#Station: R3.0SM8_Murmansk_STILSPACE
#Location: 33.092731 lon 68.902999 lat
#TLE: 1 37849U 11061A   26003.96724563  .00000164  00000+0  98899-4 0  9990
#TLE: 2 37849  98.7800 306.1116 0002573  82.3190 277.8279 14.19522066735141

#Time	Az	El	Level	Level2	SNR	BER	BlckErr	Temp	State	Recorded	gain1	gain2
2026-01-05 01:03:59.61	19.79	41.34	-54.4	-74.4	3.8	7.42e-01	0	56	0	0	71	37168
2026-01-05 01:04:02.55	19.56	42.13	-52.7	-66.5	3.8	1.49e+00	0	57	104	0	68	17441
2026-01-05 01:04:05.53	19.32	42.96	-52.7	-66.6	3.8	1.49e+00	0	56	104	0	68	17485
2026-01-05 01:04:08.48	19.07	43.79	-52.7	-66.5	3.8	1.49e+00	0	56	104	0	68	17455
2026-01-05 01:04:11.45	18.80	44.65	-52.7	-66.5	3.8	1.49e+00	0	57	104	0	68	17377
2026-01-05 01:04:14.42	18.51	45.53	-52.5	-66.5	3.8	1.49e+00	0	57	104	0	68	17302
2026-01-05 01:04:17.39	18.21	46.42	-52.7	-66.5	3.8	1.49e+00	0	57	104	0	68	17424
2026-01-05 01:04:20.35	17.89	47.34	-52.6	-66.5	3.8	1.49e+00	0	57	104	0	68	17401
2026-01-05 01:04:23.33	17.55	48.27	-52.6	-66.5	3.8	1.49e+00	0	57	104	0	68	17350
2026-01-05 01:04:26.29	17.18	49.22	-52.7	-66.5	3.8	1.49e+00	0	57	104	0	68	17350
2026-01-05 01:04:29.26	16.80	50.19	-52.7	-66.5	3.8	1.49e+00	0	56	104	0	68	17298
2026-01-05 01:04:32.20	16.39	51.18	-52.5	-66.3	3.8	1.49e+00	0	56	104	0	68	17067
2026-01-05 01:04:35.15	15.95	52.18	-52.7	-66.4	3.8	1.49e+00	0	57	104	0	68	17154
2026-01-05 01:04:38.14	15.47	53.22	-52.7	-66.3	3.8	1.49e+00	0	57	104	0	68	16996
2026-01-05 01:04:41.11	14.95	54.27	-52.7	-66.3	3.8	1.49e+00	0	57	104	0	68	16975
2026-01-05 01:04:44.07	14.40	55.33	-52.5	-66.3	3.8	1.49e+00	0	57	104	0	68	17062
2026-01-05 01:04:47.04	13.81	56.42	-52.5	-66.2	3.8	1.49e+00	0	57	104	0	68	16810
2026-01-05 01:04:50.02	13.16	57.53	-52.5	-66.0	3.8	1.49e+00	0	57	104	0	68	16446
2026-01-05 01:04:52.99	12.45	58.66	-51.5	-58.0	6.9	3.92e-01	0	57	0	1048576	66	7326
2026-01-05 01:04:55.96	11.69	59.80	-49.8	-53.3	11.9	1.68e-04	0	57	0	7340032	62	5402
2026-01-05 01:04:58.92	10.85	60.95	-48.9	-51.8	13.5	1.06e-05	0	57	0	12582912	60	5054
2026-01-05 01:05:01.88	9.93	62.12	-48.6	-51.1	14.2	0.00e+00	0	57	0	17825792	60	4671
2026-01-05 01:05:04.84	8.91	63.30	-47.6	-49.4	15.9	0.00e+00	0	56	0	23068672	58	4330
2026-01-05 01:05:07.80	7.79	64.49	-47.2	-48.9	16.3	0.00e+00	0	57	0	29360128	57	4330
2026-01-05 01:05:10.77	6.54	65.70	-47.8	-49.9	15.5	0.00e+00	0	57	0	34603008	57	4818
2026-01-05 01:05:13.75	5.13	66.92	-48.3	-50.5	14.9	0.00e+00	0	57	0	39845888	58	4888
2026-01-05 01:05:16.70	3.57	68.13	-48.4	-50.8	14.5	0.00e+00	0	57	0	46137344	58	5096
2026-01-05 01:05:19.66	1.80	69.34	-48.1	-50.3	15.1	7.00e-07	0	57	0	51380224	59	4514
2026-01-05 01:05:22.63	359.79	70.55	-47.1	-48.8	16.4	0.00e+00	0	57	0	56623104	57	4288
2026-01-05 01:05:25.59	357.50	71.75	-46.2	-47.6	17.5	0.00e+00	0	57	0	62914560	55	4177
2026-01-05 01:05:28.54	354.87	72.92	-46.2	-47.7	17.5	0.00e+00	0	57	0	68157440	54	4444
2026-01-05 01:05:31.50	351.83	74.07	-47.5	-49.5	15.8	0.00e+00	0	57	0	73400320	56	4897
2026-01-05 01:05:34.47	348.29	75.18	-48.8	-51.3	14.1	1.50e-06	0	57	0	78643200	59	5057
2026-01-05 01:05:37.42	344.20	76.23	-49.3	-52.1	13.3	2.89e-05	0	57	0	84934656	61	4975
2026-01-05 01:05:40.38	339.41	77.21	-50.0	-53.4	12.0	1.77e-03	0	57	0	90177536	62	5435
2026-01-05 01:05:43.34	333.84	78.10	-49.4	-52.3	12.9	9.76e-05	0	57	0	95420416	61	5075
2026-01-05 01:05:46.32	327.38	78.87	-49.8	-53.2	12.1	3.07e-04	0	57	0	101711872	62	5281
2026-01-05 01:05:49.28	320.10	79.47	-51.3	-57.5	7.7	7.89e-02	0	57	0	106954752	64	7729
2026-01-05 01:05:52.25	312.02	79.90	-51.7	-59.2	6.1	2.18e-01	0	57	0	112197632	65	8892
2026-01-05 01:05:55.21	303.44	80.11	-52.1	-61.1	4.9	6.81e-01	0	57	0	118489088	66	10420
2026-01-05 01:05:58.17	294.68	80.10	-52.4	-63.5	3.9	1.46e+00	0	57	104	121634816	66	13837
2026-01-05 01:06:01.13	286.15	79.86	-52.3	-62.1	4.4	1.27e+00	0	57	0	121634816	66	11720
2026-01-05 01:06:04.10	278.15	79.41	-51.9	-59.3	6.0	3.68e-01	0	57	0	6291456	66	8549
2026-01-05 01:06:07.08	270.93	78.78	-51.9	-59.9	5.6	3.10e-01	0	57	0	11534336	66	9080
2026-01-05 01:06:10.06	264.57	77.99	-52.0	-61.0	4.9	6.68e-01	0	57	0	16777216	66	10365
2026-01-05 01:06:13.03	259.09	77.09	-52.2	-62.0	4.5	1.10e+00	0	57	0	22020096	66	11585
2026-01-05 01:06:15.99	254.40	76.09	-52.1	-60.7	5.0	1.18e+00	0	57	0	24117248	66	10025
2026-01-05 01:06:18.95	250.37	75.03	-50.9	-55.6	9.4	3.67e-02	0	57	0	5242880	64	6253
2026-01-05 01:06:21.92	246.90	73.91	-49.2	-52.0	13.3	3.35e-05	0	57	0	11534336	61	4890
2026-01-05 01:06:24.88	243.92	72.75	-46.8	-48.4	16.9	0.00e+00	0	57	0	16777216	56	4294
2026-01-05 01:06:27.85	241.33	71.57	-48.1	-50.2	15.1	0.00e+00	0	57	0	22020096	59	4486
2026-01-05 01:06:30.82	239.07	70.37	-46.8	-48.5	16.7	0.00e+00	0	57	0	28311552	55	4615
2026-01-05 01:06:33.80	237.09	69.15	-47.5	-49.4	15.8	0.00e+00	0	57	0	33554432	57	4574
2026-01-05 01:06:36.78	235.34	67.93	-48.4	-50.8	14.3	7.00e-07	0	57	0	38797312	59	4806
2026-01-05 01:06:39.74	233.80	66.71	-46.0	-47.5	17.6	0.00e+00	0	57	0	45088768	55	4101
2026-01-05 01:06:42.72	232.42	65.49	-47.5	-49.5	15.7	0.00e+00	0	57	0	50331648	57	4618
2026-01-05 01:06:45.69	231.19	64.29	-47.9	-50.1	15.2	7.00e-07	0	57	0	55574528	58	4665
2026-01-05 01:06:48.65	230.08	63.09	-50.2	-54.4	10.8	1.87e-03	0	57	0	60817408	62	6086
2026-01-05 01:06:51.62	229.08	61.91	-49.9	-53.7	11.5	1.11e-02	0	57	0	67108864	62	5605
2026-01-05 01:06:54.59	228.17	60.74	-48.1	-50.1	15.1	0.00e+00	0	57	0	72351744	59	4440
2026-01-05 01:06:57.54	227.35	59.59	-48.6	-51.0	14.3	2.20e-06	0	57	0	77594624	59	4880
2026-01-05 01:07:00.52	226.59	58.44	-49.1	-51.8	13.5	4.50e-06	0	57	0	83886080	60	5078
2026-01-05 01:07:03.50	225.89	57.31	-47.9	-49.8	15.5	0.00e+00	0	57	0	89128960	58	4522
2026-01-05 01:07:06.47	225.25	56.21	-49.6	-53.0	12.4	1.52e-05	0	57	0	94371840	61	5479
2026-01-05 01:07:09.44	224.66	55.12	-49.5	-53.0	12.2	3.47e-04	0	57	0	100663296	61	5486
2026-01-05 01:07:12.41	224.12	54.05	-48.1	-50.3	14.9	7.00e-07	0	57	0	105906176	59	4533
2026-01-05 01:07:15.38	223.61	53.00	-48.4	-50.7	14.5	7.00e-07	0	57	0	111149056	58	5032
2026-01-05 01:07:18.34	223.14	51.98	-48.5	-50.9	14.4	0.00e+00	0	57	0	117440512	58	5114
2026-01-05 01:07:21.31	222.70	50.97	-48.9	-51.8	13.5	3.20e-05	0	57	0	122683392	60	5044
2026-01-05 01:07:24.27	222.29	49.98	-49.9	-53.6	11.6	3.65e-04	0	57	0	127926272	61	5894
2026-01-05 01:07:27.24	221.91	49.01	-49.3	-52.4	12.8	1.02e-04	0	57	0	133169152	61	5124
2026-01-05 01:07:30.18	221.55	48.07	-50.5	-55.1	9.6	1.37e-03	0	57	0	139460608	63	6260
2026-01-05 01:07:33.15	221.21	47.13	-49.9	-53.5	11.7	2.05e-03	0	57	0	144703488	62	5496
2026-01-05 01:07:36.12	220.90	46.22	-50.1	-54.0	11.2	1.11e-03	0	57	0	149946368	62	5812
2026-01-05 01:07:39.08	220.60	45.33	-49.3	-52.4	12.8	3.89e-05	0	57	0	156237824	60	5437
2026-01-05 01:07:42.06	220.31	44.45	-49.6	-53.1	12.2	2.27e-04	0	57	0	161480704	61	5533
2026-01-05 01:07:45.02	220.05	43.60	-49.8	-53.5	11.7	6.30e-04	0	57	0	166723584	61	5795
2026-01-05 01:07:48.00	219.79	42.75	-50.3	-54.7	10.3	2.09e-03	0	57	0	173015040	62	6317
2026-01-05 01:07:50.97	219.55	41.93	-49.7	-53.1	12.0	2.86e-03	0	57	0	178257920	62	5257
2026-01-05 01:07:53.94	219.32	41.13	-49.5	-52.8	12.4	1.73e-04	0	57	0	183500800	61	5375
2026-01-05 01:07:56.92	219.11	40.34	-49.0	-52.0	13.2	1.29e-05	0	57	0	189792256	60	5211
2026-01-05 01:07:59.90	218.90	39.56	-49.9	-53.8	11.2	1.86e-04	0	57	0	195035136	61	6052
2026-01-05 01:08:02.87	218.70	38.81	-48.8	-51.6	13.5	3.12e-05	0	57	0	200278016	60	4977
2026-01-05 01:08:05.84	218.52	38.07	-48.5	-51.0	14.3	7.00e-07	0	57	0	205520896	59	4889
2026-01-05 01:08:08.82	218.34	37.35	-49.8	-53.4	11.7	2.09e-04	0	57	0	211812352	61	5763
2026-01-05 01:08:11.79	218.17	36.64	-49.8	-53.4	11.7	6.48e-04	0	57	0	217055232	62	5443
2026-01-05 01:08:14.75	218.01	35.95	-50.3	-54.4	10.7	2.93e-03	0	57	0	222298112	62	6077
2026-01-05 01:08:17.73	217.85	35.27	-50.2	-54.4	10.7	4.06e-03	0	57	0	228589568	62	6075
2026-01-05 01:08:20.70	217.70	34.60	-49.8	-53.3	11.8	6.45e-04	0	57	0	233832448	62	5385
2026-01-05 01:08:23.66	217.56	33.95	-49.6	-53.0	12.1	1.81e-04	0	57	0	239075328	62	5209
2026-01-05 01:08:26.62	217.43	33.32	-50.0	-53.8	11.3	1.14e-03	0	57	0	245366784	62	5672
2026-01-05 01:08:29.57	217.30	32.70	-49.9	-53.5	11.6	7.16e-04	0	57	0	250609664	62	5523
2026-01-05 01:08:32.54	217.17	32.08	-49.8	-53.2	12.0	9.38e-04	0	57	0	255852544	62	5291
2026-01-05 01:08:35.51	217.05	31.48	-49.2	-52.2	12.9	5.26e-05	0	57	0	262144000	61	5016
2026-01-05 01:08:38.47	216.93	30.90	-49.1	-52.1	13.1	4.95e-05	0	57	0	267386880	60	5229
2026-01-05 01:08:41.44	216.82	30.32	-49.1	-52.0	13.2	2.05e-05	0	57	0	272629760	60	5168
2026-01-05 01:08:44.40	216.72	29.75	-49.2	-52.4	12.7	8.54e-05	0	57	0	277872640	60	5430
2026-01-05 01:08:47.38	216.61	29.20	-48.8	-51.5	13.6	9.90e-06	0	57	0	284164096	60	4877
2026-01-05 01:08:50.35	216.51	28.65	-47.7	-49.8	15.3	0.00e+00	0	57	0	289406976	58	4507
2026-01-05 01:08:53.32	216.42	28.12	-47.6	-49.6	15.6	0.00e+00	0	57	0	294649856	58	4402
2026-01-05 01:08:56.29	216.33	27.59	-47.9	-50.0	15.1	0.00e+00	0	57	0	300941312	58	4645
2026-01-05 01:08:59.27	216.24	27.08	-48.3	-50.6	14.6	0.00e+00	0	57	0	306184192	59	4676
2026-01-05 01:09:02.23	216.15	26.58	-47.3	-49.1	16.0	0.00e+00	0	57	0	311427072	57	4417
2026-01-05 01:09:05.19	216.07	26.08	-47.1	-48.9	16.2	0.00e+00	0	57	0	317718528	57	4314
2026-01-05 01:09:08.17	215.99	25.59	-46.9	-48.6	16.5	0.00e+00	0	57	0	322961408	56	4428
2026-01-05 01:09:11.13	215.91	25.12	-47.2	-49.0	16.1	0.00e+00	0	57	0	328204288	56	4619
2026-01-05 01:09:14.10	215.84	24.65	-47.3	-49.2	15.9	0.00e+00	0	57	0	334495744	56	4750
2026-01-05 01:09:17.07	215.76	24.18	-47.7	-49.7	15.3	0.00e+00	0	57	0	339738624	57	4753
2026-01-05 01:09:20.03	215.69	23.73	-48.4	-50.8	14.4	7.00e-07	0	57	0	344981504	58	5054
2026-01-05 01:09:23.01	215.63	23.29	-48.8	-51.4	13.7	3.80e-06	0	57	0	351272960	59	5117
2026-01-05 01:09:25.99	215.56	22.85	-48.4	-50.8	14.3	0.00e+00	0	57	0	356515840	59	4781
2026-01-05 01:09:28.94	215.50	22.42	-48.1	-50.3	14.8	7.00e-07	0	57	0	361758720	59	4538
2026-01-05 01:09:31.90	215.44	21.99	-47.7	-49.7	15.4	0.00e+00	0	56	0	367001600	58	4463
2026-01-05 01:09:34.87	215.38	21.58	-47.2	-48.9	16.2	0.00e+00	0	57	0	373293056	57	4301
2026-01-05 01:09:37.84	215.32	21.17	-47.1	-48.8	16.3	0.00e+00	0	57	0	378535936	56	4511
2026-01-05 01:09:40.80	215.26	20.76	-47.3	-49.0	16.0	0.00e+00	0	57	0	383778816	56	4627
2026-01-05 01:09:43.77	215.21	20.37	-47.4	-49.3	15.8	0.00e+00	0	57	0	390070272	56	4777
2026-01-05 01:09:46.74	215.16	19.98	-47.5	-49.3	15.7	0.00e+00	0	57	0	395313152	57	4543
2026-01-05 01:09:49.70	215.11	19.59	-47.0	-48.7	16.3	0.00e+00	0	56	0	400556032	56	4464
2026-01-05 01:09:52.65	215.06	19.21	-47.3	-49.1	15.9	0.00e+00	0	57	0	406847488	56	4679
2026-01-05 01:09:55.62	215.01	18.84	-47.7	-49.7	15.3	0.00e+00	0	57	0	412090368	57	4739
2026-01-05 01:09:58.59	214.96	18.47	-48.2	-50.4	14.6	0.00e+00	0	57	0	417333248	58	4867
2026-01-05 01:10:01.56	214.92	18.11	-48.7	-51.3	13.7	4.50e-06	0	57	0	422576128	59	5058
2026-01-05 01:10:04.52	214.87	17.75	-49.4	-52.7	12.3	2.24e-04	0	57	0	428867584	60	5608
2026-01-05 01:10:07.48	214.83	17.40	-49.7	-53.2	11.8	4.96e-04	0	57	0	434110464	61	5651
2026-01-05 01:10:10.45	214.79	17.05	-50.1	-54.1	10.8	3.20e-03	0	57	0	439353344	62	5874
2026-01-05 01:10:13.43	214.75	16.71	-50.1	-54.2	10.7	3.57e-03	0	57	0	445644800	62	5940
2026-01-05 01:10:16.39	214.71	16.37	-50.2	-54.3	10.6	4.22e-03	0	57	0	450887680	62	6012
2026-01-05 01:10:19.36	214.67	16.04	-50.3	-54.9	9.9	5.16e-03	0	57	0	456130560	62	6489
2026-01-05 01:10:22.33	214.63	15.71	-50.3	-54.6	10.2	7.38e-03	0	57	0	462422016	63	5912
2026-01-05 01:10:25.30	214.60	15.39	-50.1	-54.3	10.6	4.75e-03	0	57	0	467664896	63	5657
2026-01-05 01:10:28.26	214.56	15.07	-50.5	-55.1	9.7	1.02e-02	0	57	0	472907776	63	6208
2026-01-05 01:10:31.23	214.53	14.75	-50.1	-54.1	10.7	2.22e-03	0	57	0	478150656	63	5544
2026-01-05 01:10:34.20	214.50	14.44	-49.7	-53.3	11.6	6.34e-04	0	57	0	484442112	62	5379
2026-01-05 01:10:37.16	214.46	14.13	-49.8	-53.6	11.3	7.95e-04	0	57	0	489684992	62	5532
2026-01-05 01:10:40.13	214.43	13.83	-49.5	-52.9	12.0	4.72e-04	0	57	0	494927872	62	5142
2026-01-05 01:10:43.10	214.40	13.53	-49.7	-53.3	11.4	6.31e-04	0	57	0	501219328	62	5387
2026-01-05 01:10:46.07	214.37	13.23	-49.1	-52.2	12.7	1.68e-04	0	57	0	506462208	61	5001
2026-01-05 01:10:49.03	214.34	12.94	-48.9	-51.8	13.0	3.96e-05	0	57	0	511705088	60	5093
2026-01-05 01:10:51.99	214.31	12.65	-48.7	-51.5	13.4	3.50e-05	0	57	0	517996544	60	4873
2026-01-05 01:10:54.95	214.29	12.36	-48.6	-51.3	13.5	9.90e-06	0	56	0	523239424	60	4791
2026-01-05 01:10:57.91	214.26	12.08	-48.8	-51.7	13.2	2.05e-05	0	57	0	528482304	60	4986
2026-01-05 01:11:00.88	214.23	11.80	-48.7	-51.6	13.1	2.28e-05	0	57	0	533725184	60	4967
2026-01-05 01:11:03.86	214.21	11.52	-48.9	-51.8	12.9	4.57e-05	0	57	0	540016640	60	5090
2026-01-05 01:11:06.82	214.18	11.25	-48.8	-51.7	13.0	4.27e-05	0	57	0	545259520	60	5013
2026-01-05 01:11:09.78	214.16	10.98	-49.0	-52.1	12.7	6.10e-05	0	57	0	550502400	60	5222
2026-01-05 01:11:12.77	214.14	10.71	-48.9	-52.0	12.8	8.01e-05	0	57	0	556793856	60	5164
2026-01-05 01:11:15.73	214.11	10.45	-49.1	-52.3	12.4	7.70e-05	0	57	0	562036736	60	5373
2026-01-05 01:11:18.69	214.09	10.19	-48.9	-52.0	12.7	5.64e-05	0	57	0	567279616	60	5176
2026-01-05 01:11:21.66	214.07	9.93	-49.1	-52.4	12.2	2.52e-04	0	57	0	573571072	60	5446
2026-01-05 01:11:24.62	214.05	9.67	-49.3	-52.7	11.9	4.00e-04	0	57	0	578813952	60	5631
2026-01-05 01:11:27.59	214.03	9.42	-48.9	-51.9	12.7	1.01e-04	0	57	0	584056832	60	5147
2026-01-05 01:11:30.55	214.01	9.17	-48.7	-51.6	13.0	5.64e-05	0	57	0	589299712	60	4967
2026-01-05 01:11:33.52	213.99	8.92	-48.7	-51.6	13.0	5.72e-05	0	57	0	595591168	60	4943
2026-01-05 01:11:36.50	213.97	8.67	-48.8	-51.8	12.7	6.71e-05	0	57	0	600834048	60	5095
2026-01-05 01:11:39.47	213.95	8.43	-48.9	-52.0	12.5	8.62e-05	0	57	0	606076928	60	5178
2026-01-05 01:11:42.43	213.93	8.19	-49.1	-52.3	12.2	2.48e-04	0	57	0	612368384	60	5391
2026-01-05 01:11:45.40	213.91	7.95	-49.2	-52.7	11.8	5.16e-04	0	57	0	617611264	60	5613
2026-01-05 01:11:48.37	213.90	7.71	-48.9	-52.2	12.3	1.86e-04	0	57	0	622854144	60	5285
2026-01-05 01:11:51.34	213.88	7.48	-49.1	-52.5	11.9	2.40e-04	0	57	0	629145600	60	5503
2026-01-05 01:11:54.31	213.86	7.24	-49.0	-52.2	12.2	2.11e-04	0	57	0	634388480	60	5329
2026-01-05 01:11:57.27	213.85	7.01	-49.2	-52.7	11.8	4.31e-04	0	57	0	639631360	60	5606
2026-01-05 01:12:00.23	213.83	6.78	-49.0	-52.3	12.0	4.03e-04	0	57	0	645922816	60	5399
2026-01-05 01:12:03.19	213.82	6.56	-49.2	-52.8	11.5	5.73e-04	0	57	0	651165696	60	5709
2026-01-05 01:12:06.16	213.80	6.33	-49.2	-52.7	11.6	9.63e-04	0	57	0	656408576	60	5647
2026-01-05 01:12:09.13	213.79	6.11	-49.2	-52.9	11.4	1.63e-03	0	57	0	662700032	60	5749
2026-01-05 01:12:12.11	213.77	5.89	-49.3	-53.2	11.0	1.64e-03	0	57	0	667942912	60	5946
2026-01-05 01:12:15.07	213.76	5.67	-49.3	-53.3	10.9	2.37e-03	0	57	0	673185792	60	6014
2026-01-05 01:12:18.04	213.75	5.45	-49.3	-53.1	11.1	2.15e-03	0	57	0	678428672	60	5906
2026-01-05 01:12:21.01	213.73	5.24	-49.4	-53.6	10.5	2.92e-03	0	57	0	684720128	60	6217
2026-01-05 01:12:23.97	213.72	5.03	-50.6	-57.3	7.3	5.10e-03	0	57	0	689963008	63	8081
2026-01-05 01:12:26.95	213.71	4.81	-52.0	-65.8	3.8	1.49e+00	0	57	104	689963008	65	19005
2026-01-05 01:12:29.90	213.70	4.60	-52.3	-66.1	3.8	1.49e+00	0	57	104	689963008	66	18654
2026-01-05 01:12:32.85	213.69	4.40	-52.4	-66.2	3.8	1.49e+00	0	57	104	689963008	66	18843
2026-01-05 01:12:35.81	213.67	4.19	-52.4	-66.2	3.8	1.49e+00	0	57	104	689963008	66	18924
2026-01-05 01:12:38.78	213.66	3.98	-52.5	-66.3	3.8	1.49e+00	0	57	104	689963008	66	19045
2026-01-05 01:12:41.75	213.65	3.78	-52.5	-66.4	3.8	1.49e+00	0	57	104	689963008	66	19208
2026-01-05 01:12:44.72	213.64	3.58	-52.5	-66.4	3.8	1.49e+00	0	57	104	689963008	67	18188
2026-01-05 01:12:47.68	213.63	3.38	-52.3	-66.4	3.8	1.49e+00	0	57	104	689963008	67	18182
2026-01-05 01:12:50.65	213.62	3.18	-52.6	-66.4	3.8	1.49e+00	0	57	104	689963008	67	18244

#Closed at: 2026-01-05 01:12:53
#Recorded file [689 MB]: D:/Data/31026_260105_041224.dat