passes_logs/2026/01/05/R3.0SM8_Murmansk_STILSPACE/R3.0SM8_Murmansk_STILSPACE__20260105_130136_NOAA_20_JPSS-1_rec.log

#Pass ID: 20260105_130136_NOAA 20 (JPSS-1)
#Satellite: NOAA 20 (JPSS-1)
#Configuration: NOAA 20
#almurnet v.1.7.20240730
#Start time: 2026-01-05 13:01:38

#Version: 2.2.20231116
#Station: R3.0SM8_Murmansk_STILSPACE
#Location: 33.092731 lon 68.902999 lat
#TLE: 1 43013U 17073A   26004.89819562  .00000113  00000+0  74278-4 0  9995
#TLE: 2 43013  98.7626 305.9448 0001841  53.9015 306.2332 14.19533229421309

#Time	Az	El	Level	Level2	SNR	BER	BlckErr	Temp	State	Recorded	gain1	gain2
2026-01-05 13:01:38.28	245.91	3.09	-48.5	-62.2	3.8	1.49e+00	0	48	0	0	58	18847
2026-01-05 13:01:41.22	246.22	3.22	-48.5	-62.2	3.8	1.49e+00	0	48	104	0	59	17767
2026-01-05 13:01:44.18	246.54	3.35	-48.4	-62.2	3.8	1.49e+00	0	49	104	0	59	17793
2026-01-05 13:01:47.15	246.86	3.49	-48.5	-62.2	3.8	1.49e+00	0	49	104	0	59	17767
2026-01-05 13:01:50.10	247.19	3.62	-48.5	-62.2	3.8	1.49e+00	0	49	104	0	59	17777
2026-01-05 13:01:53.06	247.51	3.75	-48.5	-62.2	3.8	1.49e+00	0	49	104	0	59	17774
2026-01-05 13:01:56.02	247.84	3.88	-48.4	-62.2	3.8	1.49e+00	0	49	104	0	59	17800
2026-01-05 13:01:58.98	248.18	4.01	-48.5	-62.2	3.8	1.49e+00	0	50	104	0	59	17791
2026-01-05 13:02:01.94	248.51	4.14	-48.4	-62.2	3.8	1.49e+00	0	50	104	0	59	17831
2026-01-05 13:02:04.90	248.85	4.27	-48.5	-62.2	3.8	1.49e+00	0	50	104	0	59	17818
2026-01-05 13:02:07.86	249.19	4.40	-48.5	-62.2	3.8	1.49e+00	0	50	104	0	59	17797
2026-01-05 13:02:10.81	249.54	4.53	-48.5	-62.2	3.8	1.49e+00	0	50	104	0	59	17808
2026-01-05 13:02:13.77	249.89	4.65	-48.5	-62.2	3.8	1.49e+00	0	50	104	0	59	17797
2026-01-05 13:02:16.73	250.24	4.78	-48.4	-62.2	3.8	1.49e+00	0	51	104	0	59	17793
2026-01-05 13:02:19.68	250.59	4.91	-48.5	-62.2	3.8	1.49e+00	0	51	104	0	59	17809
2026-01-05 13:02:22.64	250.94	5.04	-48.5	-62.2	3.8	1.49e+00	0	51	104	0	59	17798
2026-01-05 13:02:25.60	251.30	5.17	-48.5	-62.2	3.8	1.49e+00	0	52	104	0	59	17863
2026-01-05 13:02:28.56	251.67	5.30	-48.5	-62.2	3.8	1.49e+00	0	52	104	0	59	17811
2026-01-05 13:02:31.52	252.03	5.42	-48.4	-62.2	3.8	1.49e+00	0	52	104	0	59	17878
2026-01-05 13:02:34.48	252.40	5.55	-48.5	-62.2	3.8	1.49e+00	0	52	104	0	59	17801
2026-01-05 13:02:37.44	252.77	5.68	-48.5	-62.2	3.8	1.49e+00	0	52	104	0	59	17815
2026-01-05 13:02:40.40	253.15	5.80	-48.5	-62.2	3.8	1.49e+00	0	52	104	0	59	17821
2026-01-05 13:02:43.36	253.52	5.93	-48.5	-62.2	3.8	1.49e+00	0	52	104	0	59	17821
2026-01-05 13:02:46.32	253.91	6.05	-48.5	-62.2	3.8	1.49e+00	0	53	104	0	59	17844
2026-01-05 13:02:49.28	254.29	6.18	-48.5	-62.2	3.8	1.49e+00	0	53	104	0	59	17815
2026-01-05 13:02:52.24	254.68	6.30	-48.5	-62.2	3.8	1.49e+00	0	53	104	0	59	17867
2026-01-05 13:02:55.20	255.07	6.43	-48.5	-62.2	3.8	1.49e+00	0	53	104	0	59	17797
2026-01-05 13:02:58.16	255.46	6.55	-48.5	-62.2	3.8	1.49e+00	0	53	104	0	59	17779
2026-01-05 13:03:01.11	255.86	6.67	-48.5	-62.2	3.8	1.49e+00	0	53	104	0	59	17855
2026-01-05 13:03:04.08	256.26	6.80	-48.5	-62.2	3.8	1.49e+00	0	53	104	0	59	17844
2026-01-05 13:03:07.03	256.66	6.92	-48.5	-62.2	3.8	1.49e+00	0	54	104	0	59	17834
2026-01-05 13:03:09.99	257.07	7.04	-48.5	-62.2	3.8	1.49e+00	0	54	104	0	59	17801
2026-01-05 13:03:12.95	257.48	7.16	-48.5	-62.2	3.8	1.49e+00	0	54	104	0	59	17804
2026-01-05 13:03:15.91	257.89	7.28	-48.5	-62.2	3.8	1.49e+00	0	54	104	0	59	17817
2026-01-05 13:03:18.87	258.31	7.40	-48.5	-62.2	3.8	1.49e+00	0	54	104	0	59	17832
2026-01-05 13:03:21.82	258.72	7.52	-48.5	-62.2	3.8	1.49e+00	0	54	104	0	59	17802
2026-01-05 13:03:24.78	259.15	7.64	-48.5	-62.2	3.8	1.49e+00	0	54	104	0	59	17859
2026-01-05 13:03:27.74	259.57	7.75	-48.5	-62.2	3.8	1.49e+00	0	55	104	0	59	17843
2026-01-05 13:03:30.70	260.00	7.87	-48.5	-62.2	3.8	1.49e+00	0	55	104	0	59	17880
2026-01-05 13:03:33.65	260.43	7.98	-48.5	-62.2	3.8	1.49e+00	0	55	104	0	59	17848
2026-01-05 13:03:36.61	260.87	8.10	-48.5	-62.2	3.8	1.49e+00	0	55	104	0	59	17834
2026-01-05 13:03:39.57	261.31	8.21	-48.5	-62.2	3.8	1.49e+00	0	55	104	0	59	17876
2026-01-05 13:03:42.52	261.75	8.32	-48.5	-62.2	3.8	1.49e+00	0	55	104	0	59	17808
2026-01-05 13:03:45.49	262.20	8.43	-48.5	-62.2	3.8	1.49e+00	0	55	104	0	59	17835
2026-01-05 13:03:48.45	262.65	8.55	-48.5	-62.2	3.8	1.49e+00	0	55	104	0	59	17875
2026-01-05 13:03:51.40	263.10	8.65	-48.5	-62.2	3.8	1.49e+00	0	56	104	0	59	17872
2026-01-05 13:03:54.36	263.55	8.76	-48.5	-62.2	3.8	1.49e+00	0	56	104	0	59	17810
2026-01-05 13:03:57.31	264.01	8.87	-48.5	-62.2	3.8	1.49e+00	0	56	104	0	59	17869
2026-01-05 13:04:00.28	264.48	8.98	-48.5	-62.3	3.8	1.49e+00	0	56	104	0	59	17898
2026-01-05 13:04:03.23	264.94	9.08	-48.5	-62.2	3.8	1.49e+00	0	56	104	0	59	17838
2026-01-05 13:04:06.19	265.41	9.18	-48.5	-62.3	3.8	1.49e+00	0	56	104	0	59	17911
2026-01-05 13:04:09.16	265.88	9.29	-48.5	-62.2	3.8	1.49e+00	0	56	104	0	59	17839
2026-01-05 13:04:12.12	266.36	9.39	-48.5	-62.2	3.8	1.49e+00	0	56	104	0	59	17810
2026-01-05 13:04:15.08	266.83	9.49	-48.5	-62.2	3.8	1.49e+00	0	56	104	0	59	17884
2026-01-05 13:04:18.03	267.31	9.59	-48.5	-62.3	3.8	1.49e+00	0	56	104	0	59	17903
2026-01-05 13:04:21.00	267.80	9.69	-48.5	-62.2	3.8	1.49e+00	0	56	104	0	59	17840
2026-01-05 13:04:23.96	268.29	9.78	-48.5	-62.3	3.8	1.49e+00	0	57	104	0	59	17895
2026-01-05 13:04:26.92	268.78	9.88	-48.5	-62.2	3.8	1.49e+00	0	57	104	0	59	17855
2026-01-05 13:04:29.87	269.27	9.97	-48.5	-62.2	3.8	1.49e+00	0	57	104	0	59	17841
2026-01-05 13:04:32.83	269.77	10.06	-48.5	-62.2	3.8	1.49e+00	0	57	104	0	59	17839
2026-01-05 13:04:35.79	270.27	10.15	-48.5	-62.2	3.8	1.49e+00	0	57	104	0	59	17869
2026-01-05 13:04:38.75	270.77	10.24	-48.5	-62.2	3.8	1.49e+00	0	57	104	0	59	17876
2026-01-05 13:04:41.71	271.27	10.32	-48.5	-62.3	3.8	1.49e+00	0	57	104	0	59	17932
2026-01-05 13:04:44.66	271.78	10.41	-48.5	-62.2	3.8	1.49e+00	0	57	104	0	59	17858
2026-01-05 13:04:47.62	272.29	10.49	-48.5	-62.2	3.8	1.49e+00	0	57	104	0	59	17846
2026-01-05 13:04:50.58	272.81	10.57	-48.5	-62.2	3.8	1.49e+00	0	57	104	0	59	17868
2026-01-05 13:04:53.53	273.32	10.65	-48.5	-62.2	3.8	1.49e+00	0	57	104	0	59	17878
2026-01-05 13:04:56.49	273.84	10.73	-48.5	-62.3	3.8	1.49e+00	0	57	104	0	59	17905
2026-01-05 13:04:59.45	274.36	10.81	-48.5	-62.3	3.8	1.49e+00	0	57	104	0	59	17920
2026-01-05 13:05:02.42	274.89	10.88	-48.5	-62.3	3.8	1.49e+00	0	57	104	0	59	17909
2026-01-05 13:05:05.37	275.41	10.95	-48.5	-62.3	3.8	1.49e+00	0	57	104	0	59	17932
2026-01-05 13:05:08.34	275.94	11.02	-48.5	-62.3	3.8	1.49e+00	0	58	104	0	59	17917
2026-01-05 13:05:11.30	276.48	11.09	-48.5	-62.3	3.8	1.49e+00	0	57	104	0	59	17923
2026-01-05 13:05:14.25	277.01	11.16	-48.5	-62.2	3.8	1.49e+00	0	58	104	0	59	17885
2026-01-05 13:05:17.21	277.54	11.22	-48.5	-62.3	3.8	1.49e+00	0	58	104	0	59	17895
2026-01-05 13:05:20.17	278.08	11.28	-48.5	-62.3	3.8	1.49e+00	0	58	104	0	59	17893
2026-01-05 13:05:23.13	278.62	11.35	-48.5	-62.3	3.8	1.49e+00	0	58	104	0	59	17935
2026-01-05 13:05:26.08	279.17	11.40	-48.6	-62.3	3.8	1.49e+00	0	58	104	0	59	17924
2026-01-05 13:05:29.04	279.71	11.46	-48.5	-62.3	3.8	1.49e+00	0	58	104	0	59	17942
2026-01-05 13:05:31.98	280.25	11.51	-48.5	-62.3	3.8	1.49e+00	0	58	104	0	59	17904
2026-01-05 13:05:34.94	280.80	11.56	-48.5	-62.3	3.8	1.49e+00	0	58	104	0	59	17932
2026-01-05 13:05:37.89	281.35	11.61	-48.5	-62.3	3.8	1.49e+00	0	58	104	0	59	17915
2026-01-05 13:05:40.85	281.90	11.66	-48.5	-62.2	3.8	1.49e+00	0	58	104	0	59	17872
2026-01-05 13:05:43.81	282.46	11.70	-48.5	-62.3	3.8	1.49e+00	0	58	104	0	59	17927
2026-01-05 13:05:46.77	283.01	11.75	-48.5	-62.3	3.8	1.49e+00	0	59	104	0	59	17891
2026-01-05 13:05:49.73	283.57	11.79	-48.5	-62.3	3.8	1.49e+00	0	59	104	0	59	17933
2026-01-05 13:05:52.68	284.13	11.82	-48.5	-62.3	3.8	1.49e+00	0	59	104	0	59	17957
2026-01-05 13:05:55.64	284.69	11.86	-48.5	-62.3	3.8	1.49e+00	0	59	104	0	59	17903
2026-01-05 13:05:58.61	285.25	11.89	-48.5	-62.3	3.8	1.49e+00	0	59	104	0	59	17932
2026-01-05 13:06:01.56	285.81	11.92	-48.5	-62.3	3.8	1.49e+00	0	59	104	0	59	17972
2026-01-05 13:06:04.52	286.37	11.95	-48.5	-62.3	3.8	1.49e+00	0	59	104	0	59	17942
2026-01-05 13:06:07.48	286.94	11.98	-48.5	-62.3	3.8	1.49e+00	0	59	104	0	59	17924
2026-01-05 13:06:10.44	287.50	12.00	-48.5	-62.3	3.8	1.49e+00	0	59	104	0	59	17942
2026-01-05 13:06:13.39	288.06	12.02	-48.5	-62.3	3.8	1.49e+00	0	59	104	0	59	17890
2026-01-05 13:06:16.35	288.63	12.04	-48.5	-62.3	3.8	1.49e+00	0	59	104	0	59	17966
2026-01-05 13:06:19.31	289.20	12.05	-48.6	-62.3	3.8	1.49e+00	0	59	104	0	59	17915
2026-01-05 13:06:22.27	289.77	12.07	-48.5	-62.3	3.8	1.49e+00	0	59	104	0	59	17895
2026-01-05 13:06:25.24	290.34	12.08	-48.6	-62.3	3.8	1.49e+00	0	59	104	0	59	17937
2026-01-05 13:06:28.20	290.90	12.09	-48.5	-62.3	3.8	1.49e+00	0	59	104	0	59	17958
2026-01-05 13:06:31.16	291.47	12.09	-48.5	-62.3	3.8	1.49e+00	0	59	104	0	59	17913
2026-01-05 13:06:34.12	292.04	12.09	-48.5	-62.3	3.8	1.49e+00	0	59	104	0	59	17939
2026-01-05 13:06:37.09	292.61	12.09	-48.6	-62.3	3.8	1.49e+00	0	59	104	0	59	17948
2026-01-05 13:06:40.05	293.18	12.09	-48.6	-62.2	3.8	1.49e+00	0	59	104	0	59	17863
2026-01-05 13:06:43.01	293.75	12.09	-48.5	-62.2	3.8	1.49e+00	0	59	104	0	59	17871
2026-01-05 13:06:45.98	294.32	12.08	-48.6	-62.3	3.8	1.49e+00	0	60	104	0	59	17938
2026-01-05 13:06:48.94	294.89	12.07	-48.5	-62.3	3.8	1.49e+00	0	59	104	0	59	17944
2026-01-05 13:06:51.91	295.46	12.06	-48.5	-62.3	3.8	1.49e+00	0	60	104	0	59	17944
2026-01-05 13:06:54.86	296.02	12.04	-48.5	-62.3	3.8	1.49e+00	0	60	104	0	59	17890
2026-01-05 13:06:57.82	296.59	12.03	-48.5	-62.3	3.8	1.49e+00	0	60	104	0	59	17916
2026-01-05 13:07:00.77	297.15	12.01	-48.5	-62.3	3.8	1.49e+00	0	60	104	0	59	17952
2026-01-05 13:07:03.73	297.72	11.98	-48.5	-62.3	3.8	1.49e+00	0	60	104	0	59	17954
2026-01-05 13:07:06.69	298.28	11.96	-48.5	-62.3	3.8	1.49e+00	0	60	104	0	59	17955
2026-01-05 13:07:09.65	298.84	11.93	-48.6	-62.3	3.8	1.49e+00	0	60	104	0	59	17935
2026-01-05 13:07:12.61	299.40	11.90	-48.5	-62.3	3.8	1.49e+00	0	60	104	0	59	17918
2026-01-05 13:07:15.56	299.96	11.87	-48.5	-62.3	3.8	1.49e+00	0	60	104	0	59	17986
2026-01-05 13:07:18.52	300.52	11.84	-48.5	-62.3	3.8	1.49e+00	0	60	104	0	59	17961
2026-01-05 13:07:21.48	301.08	11.80	-48.5	-62.3	3.8	1.49e+00	0	60	104	0	59	17933
2026-01-05 13:07:24.44	301.64	11.76	-48.5	-62.3	3.8	1.49e+00	0	60	104	0	59	17922
2026-01-05 13:07:27.39	302.19	11.72	-48.5	-62.2	3.8	1.49e+00	0	60	104	0	59	17881
2026-01-05 13:07:30.35	302.74	11.68	-48.5	-62.3	3.8	1.49e+00	0	60	104	0	59	17983
2026-01-05 13:07:33.31	303.30	11.63	-48.6	-62.3	3.8	1.49e+00	0	60	104	0	59	17903
2026-01-05 13:07:36.27	303.85	11.58	-48.5	-62.3	3.8	1.49e+00	0	60	104	0	59	17962
2026-01-05 13:07:39.23	304.39	11.53	-48.5	-62.3	3.8	1.49e+00	0	60	104	0	59	17946
2026-01-05 13:07:42.18	304.94	11.48	-48.5	-62.3	3.8	1.49e+00	0	60	104	0	59	17951
2026-01-05 13:07:45.14	305.48	11.43	-48.5	-62.3	3.8	1.49e+00	0	60	104	0	59	17977
2026-01-05 13:07:48.10	306.03	11.37	-48.6	-62.3	3.8	1.49e+00	0	60	104	0	59	17943
2026-01-05 13:07:51.06	306.57	11.31	-48.6	-62.3	3.8	1.49e+00	0	60	104	0	59	17997
2026-01-05 13:07:54.03	307.11	11.25	-48.5	-62.2	3.8	1.49e+00	0	60	104	0	59	17882
2026-01-05 13:07:56.99	307.64	11.18	-48.5	-62.3	3.8	1.49e+00	0	60	104	0	59	17926
2026-01-05 13:07:59.94	308.17	11.12	-48.5	-62.3	3.8	1.49e+00	0	60	104	0	59	17972
2026-01-05 13:08:02.89	308.70	11.05	-48.6	-62.3	3.8	1.49e+00	0	60	104	0	59	17946
2026-01-05 13:08:05.85	309.23	10.98	-48.6	-62.3	3.8	1.49e+00	0	60	104	0	59	17957
2026-01-05 13:08:08.81	309.76	10.91	-48.5	-62.3	3.8	1.49e+00	0	60	104	0	59	17932
2026-01-05 13:08:11.77	310.28	10.84	-48.5	-62.3	3.8	1.49e+00	0	60	104	0	59	17957
2026-01-05 13:08:14.74	310.81	10.76	-48.5	-62.3	3.8	1.49e+00	0	60	104	0	59	17971
2026-01-05 13:08:17.69	311.32	10.69	-48.5	-62.3	3.8	1.49e+00	0	60	104	0	59	17985
2026-01-05 13:08:20.65	311.84	10.61	-48.5	-62.3	3.8	1.49e+00	0	60	104	0	59	17987
2026-01-05 13:08:23.60	312.35	10.53	-48.6	-62.3	3.8	1.49e+00	0	60	104	0	59	17987
2026-01-05 13:08:26.56	312.86	10.45	-48.5	-62.3	3.8	1.49e+00	0	60	104	0	59	17905
2026-01-05 13:08:29.52	313.37	10.36	-48.6	-62.3	3.8	1.49e+00	0	60	104	0	59	17994
2026-01-05 13:08:32.47	313.87	10.28	-48.5	-62.3	3.8	1.49e+00	0	61	104	0	59	17955
2026-01-05 13:08:35.43	314.37	10.19	-48.5	-62.3	3.8	1.49e+00	0	60	104	0	59	17935
2026-01-05 13:08:38.38	314.87	10.10	-48.6	-62.3	3.8	1.49e+00	0	60	104	0	59	17897
2026-01-05 13:08:41.34	315.37	10.01	-48.5	-62.3	3.8	1.49e+00	0	61	104	0	59	17916
2026-01-05 13:08:44.30	315.86	9.92	-48.5	-62.3	3.8	1.49e+00	0	61	104	0	59	17947
2026-01-05 13:08:47.26	316.35	9.83	-48.5	-62.3	3.8	1.49e+00	0	61	104	0	59	17960
2026-01-05 13:08:50.22	316.84	9.73	-48.6	-62.2	3.8	1.49e+00	0	60	104	0	59	17876
2026-01-05 13:08:53.16	317.32	9.64	-48.5	-62.3	3.8	1.49e+00	0	61	104	0	59	17950
2026-01-05 13:08:56.12	317.80	9.54	-48.5	-62.3	3.8	1.49e+00	0	61	104	0	59	17999
2026-01-05 13:08:59.09	318.28	9.44	-48.5	-62.3	3.8	1.49e+00	0	61	104	0	59	17967
2026-01-05 13:09:02.04	318.75	9.34	-48.6	-62.3	3.8	1.49e+00	0	61	104	0	59	17972
2026-01-05 13:09:05.00	319.22	9.24	-48.6	-62.3	3.8	1.49e+00	0	61	104	0	59	17945
2026-01-05 13:09:07.97	319.69	9.14	-48.5	-62.3	3.8	1.49e+00	0	61	104	0	59	17913
2026-01-05 13:09:10.93	320.16	9.03	-48.5	-62.3	3.8	1.49e+00	0	61	104	0	59	17938
2026-01-05 13:09:13.89	320.62	8.93	-48.6	-62.3	3.8	1.49e+00	0	61	104	0	59	17903
2026-01-05 13:09:16.84	321.08	8.82	-48.5	-62.3	3.8	1.49e+00	0	61	104	0	59	17915
2026-01-05 13:09:19.80	321.53	8.71	-48.5	-62.3	3.8	1.49e+00	0	61	104	0	59	17994
2026-01-05 13:09:22.76	321.98	8.61	-48.5	-62.3	3.8	1.49e+00	0	61	104	0	59	17969
2026-01-05 13:09:25.72	322.43	8.50	-48.5	-62.3	3.8	1.49e+00	0	61	104	0	59	17946
2026-01-05 13:09:28.67	322.88	8.39	-48.5	-62.3	3.8	1.49e+00	0	61	104	0	59	17930
2026-01-05 13:09:31.62	323.32	8.27	-48.5	-62.3	3.8	1.49e+00	0	61	104	0	59	17974
2026-01-05 13:09:34.58	323.76	8.16	-48.5	-62.3	3.8	1.49e+00	0	61	104	0	59	17979
2026-01-05 13:09:37.53	324.19	8.05	-48.6	-62.3	3.8	1.49e+00	0	61	104	0	59	17974
2026-01-05 13:09:40.49	324.62	7.94	-48.5	-62.3	3.8	1.49e+00	0	61	104	0	59	17917
2026-01-05 13:09:43.45	325.05	7.82	-48.5	-62.3	3.8	1.49e+00	0	61	104	0	59	17953
2026-01-05 13:09:46.40	325.48	7.71	-48.5	-62.3	3.8	1.49e+00	0	61	104	0	59	17964
2026-01-05 13:09:49.35	325.90	7.59	-48.5	-62.3	3.8	1.49e+00	0	61	104	0	59	17914
2026-01-05 13:09:52.31	326.32	7.47	-48.6	-62.3	3.8	1.49e+00	0	61	104	0	59	17954
2026-01-05 13:09:55.28	326.74	7.35	-48.5	-62.3	3.8	1.49e+00	0	61	104	0	59	17963
2026-01-05 13:09:58.23	327.15	7.24	-48.5	-62.3	3.8	1.49e+00	0	61	104	0	59	17963
2026-01-05 13:10:01.22	327.56	7.12	-48.5	-62.3	3.8	1.49e+00	0	61	104	0	59	17990
2026-01-05 13:10:04.17	327.97	7.00	-48.5	-62.3	3.8	1.49e+00	0	61	104	0	59	17948
2026-01-05 13:10:07.13	328.37	6.88	-48.6	-62.3	3.8	1.49e+00	0	61	104	0	59	17973
2026-01-05 13:10:10.10	328.77	6.75	-48.6	-62.3	3.8	1.49e+00	0	61	104	0	59	17945
2026-01-05 13:10:13.06	329.17	6.63	-48.6	-62.3	3.8	1.49e+00	0	61	104	0	59	17977
2026-01-05 13:10:16.03	329.56	6.51	-48.5	-62.3	3.8	1.49e+00	0	61	104	0	59	17978
2026-01-05 13:10:18.99	329.95	6.39	-48.6	-62.3	3.8	1.49e+00	0	61	104	0	59	17941
2026-01-05 13:10:21.96	330.34	6.26	-48.6	-62.3	3.8	1.49e+00	0	61	104	0	59	17965
2026-01-05 13:10:24.92	330.73	6.14	-48.5	-62.3	3.8	1.49e+00	0	61	104	0	59	17990
2026-01-05 13:10:27.89	331.11	6.01	-48.6	-62.3	3.8	1.49e+00	0	61	104	0	59	18013
2026-01-05 13:10:30.92	331.50	5.89	-48.5	-62.3	3.8	1.49e+00	0	61	104	0	59	18011
2026-01-05 13:10:34.14	331.90	5.75	-48.6	-62.3	3.8	1.49e+00	0	61	104	0	59	17992
2026-01-05 13:10:36.96	332.26	5.63	-48.6	-62.3	3.8	1.49e+00	0	61	104	0	59	17957
2026-01-05 13:10:40.06	332.64	5.50	-48.5	-62.3	3.8	1.49e+00	0	61	104	0	59	17981
2026-01-05 13:10:42.88	332.99	5.38	-48.5	-62.3	3.8	1.49e+00	0	61	104	0	59	18017
2026-01-05 13:10:45.99	333.37	5.25	-48.5	-62.3	3.8	1.49e+00	0	61	104	0	59	17932
2026-01-05 13:10:48.80	333.71	5.13	-48.5	-62.3	3.8	1.49e+00	0	61	104	0	59	17929
2026-01-05 13:10:51.90	334.09	4.99	-48.5	-62.3	3.8	1.49e+00	0	61	104	0	59	17969
2026-01-05 13:10:54.72	334.42	4.87	-48.5	-62.3	3.8	1.49e+00	0	61	104	0	59	18000
2026-01-05 13:10:57.82	334.79	4.74	-48.5	-62.3	3.8	1.49e+00	0	61	104	0	59	17995
2026-01-05 13:11:00.64	335.12	4.62	-48.5	-62.3	3.8	1.49e+00	0	61	104	0	59	17942
2026-01-05 13:11:03.73	335.48	4.48	-48.5	-62.3	3.8	1.49e+00	0	61	104	0	59	17981
2026-01-05 13:11:06.55	335.81	4.36	-48.5	-62.3	3.8	1.49e+00	0	61	104	0	59	17971
2026-01-05 13:11:09.65	336.16	4.22	-48.5	-62.3	3.8	1.49e+00	0	61	104	0	59	17939
2026-01-05 13:11:12.46	336.48	4.10	-48.5	-62.3	3.8	1.49e+00	0	61	104	0	59	18000
2026-01-05 13:11:15.55	336.83	3.97	-48.5	-62.3	3.8	1.49e+00	0	61	104	0	59	17999
2026-01-05 13:11:18.36	337.14	3.85	-48.6	-62.3	3.8	1.49e+00	0	61	104	0	59	17976
2026-01-05 13:11:21.45	337.48	3.71	-48.6	-62.3	3.8	1.49e+00	0	61	104	0	59	17987
2026-01-05 13:11:24.27	337.79	3.59	-48.6	-62.3	3.8	1.49e+00	0	61	104	0	59	17973
2026-01-05 13:11:27.37	338.13	3.45	-48.5	-62.3	3.8	1.49e+00	0	61	104	0	59	17981
2026-01-05 13:11:30.19	338.44	3.33	-48.6	-62.3	3.8	1.49e+00	0	61	104	0	59	17977
2026-01-05 13:11:33.29	338.77	3.19	-48.6	-62.3	3.8	1.49e+00	0	61	104	0	59	18036
2026-01-05 13:11:36.11	339.07	3.07	-48.6	-62.3	3.8	1.49e+00	0	61	104	0	59	17958
2026-01-05 13:11:39.20	339.39	2.93	-48.6	-62.3	3.8	1.49e+00	0	61	104	0	59	17964

#Closed at: 2026-01-05 13:11:39
#Recorded file [0 MB]: D:/Data/31026_260105_160137.dat