passes_logs/2026/01/05/R3.0SM8_Murmansk_STILSPACE/R3.0SM8_Murmansk_STILSPACE__20260105_020941_NOAA_21_JPSS-2_rec.log

#Pass ID: 20260105_020941_NOAA 21 (JPSS-2)
#Satellite: NOAA 21 (JPSS-2)
#Configuration: NOAA-21
#almurnet v.1.7.20240730
#Start time: 2026-01-05 02:17:31

#Version: 2.2.20231116
#Station: R3.0SM8_Murmansk_STILSPACE
#Location: 33.092731 lon 68.902999 lat
#TLE: 1 54234U 22150A   26004.22845673  .00000174  00000+0  10347-3 0  9996
#TLE: 2 54234  98.7489 305.2591 0001115 345.0884  15.0259 14.19531906163281

#Time	Az	El	Level	Level2	SNR	BER	BlckErr	Temp	State	Recorded	gain1	gain2
2026-01-05 02:17:31.10	285.92	38.84	-52.5	-62.8	3.8	8.46e-01	0	57	0	0	67	11865
2026-01-05 02:17:33.06	285.17	38.58	-52.8	-64.3	3.8	1.49e+00	0	58	104	0	68	13455
2026-01-05 02:17:35.04	284.44	38.31	-52.8	-64.3	3.8	1.49e+00	0	58	104	0	68	13485
2026-01-05 02:17:37.02	283.71	38.04	-52.7	-64.3	3.8	1.49e+00	0	58	104	0	68	13460
2026-01-05 02:17:39.00	283.00	37.77	-52.8	-64.3	3.8	1.49e+00	0	58	104	0	68	13424
2026-01-05 02:17:40.98	282.30	37.49	-52.8	-64.2	3.8	1.49e+00	0	58	104	0	68	13336
2026-01-05 02:17:42.96	281.61	37.21	-52.7	-64.2	3.8	1.49e+00	0	58	104	0	68	13399
2026-01-05 02:17:44.93	280.93	36.93	-52.8	-64.2	3.8	1.49e+00	0	58	104	0	68	13321
2026-01-05 02:17:46.91	280.26	36.65	-52.7	-64.2	3.8	1.49e+00	0	58	104	0	68	13293
2026-01-05 02:17:48.91	279.60	36.36	-52.6	-64.0	3.8	1.49e+00	0	57	104	0	68	13084
2026-01-05 02:17:50.89	278.96	36.08	-52.7	-64.1	3.8	1.49e+00	0	58	104	0	68	13222
2026-01-05 02:17:52.86	278.33	35.79	-52.7	-64.1	3.8	1.49e+00	0	58	104	0	68	13146
2026-01-05 02:17:54.85	277.71	35.50	-52.6	-64.1	3.8	1.49e+00	0	58	104	0	68	13150
2026-01-05 02:17:56.83	277.10	35.21	-52.7	-64.0	3.8	1.49e+00	0	58	104	0	68	13084
2026-01-05 02:17:58.83	276.49	34.91	-52.7	-64.1	3.8	1.49e+00	0	58	104	0	68	13202
2026-01-05 02:18:00.80	275.91	34.62	-52.7	-64.2	3.8	1.49e+00	0	58	104	0	68	13304
2026-01-05 02:18:02.79	275.33	34.33	-52.7	-63.9	3.8	1.49e+00	0	58	104	0	68	12931
2026-01-05 02:18:04.76	274.76	34.04	-52.6	-64.1	3.8	1.49e+00	0	58	104	0	68	13123
2026-01-05 02:18:06.74	274.21	33.74	-52.7	-64.0	3.8	1.49e+00	0	58	104	0	68	13021
2026-01-05 02:18:08.72	273.66	33.45	-52.4	-64.0	3.8	1.49e+00	0	58	104	0	68	13062
2026-01-05 02:18:10.70	273.12	33.15	-52.5	-64.0	3.8	1.49e+00	0	58	104	0	68	13002
2026-01-05 02:18:12.68	272.59	32.86	-52.6	-63.9	3.8	1.49e+00	0	58	104	0	68	12884
2026-01-05 02:18:14.66	272.08	32.57	-52.4	-62.9	3.8	1.49e+00	0	58	104	0	67	12213
2026-01-05 02:18:16.64	271.57	32.27	-52.3	-62.0	3.8	1.49e+00	0	58	104	0	67	11002
2026-01-05 02:18:18.61	271.07	31.98	-50.6	-54.6	8.1	1.44e-01	0	58	0	2097152	64	5547
2026-01-05 02:18:20.59	270.58	31.69	-47.1	-48.6	14.3	3.80e-06	0	58	0	8388608	57	4180
2026-01-05 02:18:22.57	270.10	31.40	-44.7	-45.7	17.1	0.00e+00	0	58	0	14680064	52	3984
2026-01-05 02:18:24.54	269.63	31.10	-46.1	-47.4	15.5	0.00e+00	0	58	0	20971520	53	4554
2026-01-05 02:18:26.52	269.16	30.81	-47.0	-48.5	14.5	7.00e-07	0	58	0	27262976	56	4341
2026-01-05 02:18:28.49	268.71	30.52	-46.5	-47.9	15.1	0.00e+00	0	58	0	32505856	56	4064
2026-01-05 02:18:30.47	268.26	30.24	-44.7	-45.7	17.1	0.00e+00	0	57	0	38797312	52	3975
2026-01-05 02:18:32.43	267.83	29.95	-43.5	-44.2	18.5	0.00e+00	0	57	0	45088768	50	3780
2026-01-05 02:18:34.41	267.39	29.66	-43.5	-44.3	18.5	0.00e+00	0	58	0	51380224	49	4017
2026-01-05 02:18:36.38	266.97	29.38	-44.1	-44.9	17.9	0.00e+00	0	58	0	57671680	50	4090
2026-01-05 02:18:38.35	266.56	29.09	-44.4	-45.3	17.6	0.00e+00	0	57	0	63963136	50	4249
2026-01-05 02:18:40.33	266.15	28.81	-44.5	-45.4	17.5	0.00e+00	0	58	0	70254592	50	4310
2026-01-05 02:18:42.31	265.75	28.53	-44.3	-45.2	17.6	0.00e+00	0	58	0	76546048	51	4002
2026-01-05 02:18:44.30	265.35	28.24	-44.7	-45.7	17.2	0.00e+00	0	58	0	82837504	51	4212
2026-01-05 02:18:46.28	264.96	27.96	-45.0	-46.0	16.9	0.00e+00	0	57	0	88080384	51	4374
2026-01-05 02:18:48.25	264.58	27.69	-45.1	-46.2	16.6	0.00e+00	0	57	0	94371840	52	4224
2026-01-05 02:18:50.24	264.20	27.41	-45.2	-46.3	16.6	0.00e+00	0	57	0	100663296	52	4258
2026-01-05 02:18:52.22	263.84	27.13	-44.9	-45.9	16.9	0.00e+00	0	57	0	106954752	52	4075
2026-01-05 02:18:54.20	263.47	26.86	-44.7	-45.7	17.1	0.00e+00	0	57	0	113246208	52	3968
2026-01-05 02:18:56.16	263.12	26.59	-44.7	-45.6	17.1	0.00e+00	0	58	0	119537664	52	3936
2026-01-05 02:18:58.15	262.77	26.31	-44.4	-45.3	17.4	0.00e+00	0	57	0	125829120	52	3813
2026-01-05 02:19:00.13	262.43	26.04	-43.9	-44.7	18.1	0.00e+00	0	57	0	132120576	50	3982
2026-01-05 02:19:02.11	262.09	25.77	-43.8	-44.6	18.2	0.00e+00	0	57	0	138412032	50	3939
2026-01-05 02:19:04.09	261.76	25.51	-43.8	-44.6	18.1	0.00e+00	0	57	0	143654912	50	3958
2026-01-05 02:19:06.07	261.43	25.24	-43.8	-44.6	18.2	0.00e+00	0	57	0	149946368	50	3946
2026-01-05 02:19:08.05	261.11	24.98	-44.1	-45.0	17.8	0.00e+00	0	57	0	156237824	50	4107
2026-01-05 02:19:10.03	260.80	24.72	-43.9	-44.8	18.0	0.00e+00	0	57	0	162529280	50	4019
2026-01-05 02:19:12.01	260.49	24.46	-44.3	-45.2	17.6	0.00e+00	0	57	0	168820736	50	4215
2026-01-05 02:19:13.99	260.18	24.20	-44.6	-45.6	17.2	0.00e+00	0	57	0	175112192	50	4394
2026-01-05 02:19:15.97	259.88	23.94	-44.8	-45.8	17.0	0.00e+00	0	57	0	181403648	51	4258
2026-01-05 02:19:17.97	259.58	23.68	-44.8	-45.8	17.1	0.00e+00	0	57	0	187695104	51	4247
2026-01-05 02:19:19.94	259.29	23.43	-44.6	-45.6	17.2	0.00e+00	0	57	0	193986560	51	4160
2026-01-05 02:19:21.92	259.01	23.18	-44.7	-45.7	17.1	0.00e+00	0	57	0	200278016	51	4225
2026-01-05 02:19:23.90	258.73	22.93	-44.5	-45.4	17.3	0.00e+00	0	57	0	206569472	51	4097
2026-01-05 02:19:25.87	258.45	22.68	-44.5	-45.4	17.4	0.00e+00	0	57	0	211812352	51	4094
2026-01-05 02:19:27.86	258.18	22.43	-44.3	-45.2	17.6	0.00e+00	0	57	0	218103808	51	3976
2026-01-05 02:19:29.82	257.92	22.19	-44.3	-45.2	17.5	0.00e+00	0	57	0	224395264	51	3991
2026-01-05 02:19:31.81	257.65	21.94	-44.5	-45.4	17.3	0.00e+00	0	57	0	230686720	51	4091
2026-01-05 02:19:33.78	257.39	21.70	-44.3	-45.3	17.5	0.00e+00	0	57	0	236978176	51	4005
2026-01-05 02:19:35.76	257.14	21.46	-44.5	-45.4	17.3	0.00e+00	0	57	0	243269632	51	4065
2026-01-05 02:19:37.74	256.89	21.22	-44.3	-45.3	17.4	0.00e+00	0	57	0	249561088	51	4006
2026-01-05 02:19:39.71	256.64	20.99	-44.5	-45.4	17.3	0.00e+00	0	57	0	255852544	51	4086
2026-01-05 02:19:41.69	256.40	20.75	-44.2	-45.1	17.6	0.00e+00	0	57	0	262144000	51	3943
2026-01-05 02:19:43.66	256.16	20.52	-44.2	-45.1	17.7	0.00e+00	0	57	0	267386880	51	3927
2026-01-05 02:19:45.64	255.93	20.29	-44.4	-45.3	17.4	0.00e+00	0	57	0	273678336	51	4039
2026-01-05 02:19:47.61	255.69	20.06	-44.0	-44.8	17.9	0.00e+00	0	57	0	279969792	51	3822
2026-01-05 02:19:49.59	255.47	19.83	-44.0	-44.9	17.8	0.00e+00	0	57	0	286261248	51	3839
2026-01-05 02:19:51.56	255.24	19.60	-44.1	-44.9	17.8	0.00e+00	0	57	0	292552704	51	3867
2026-01-05 02:19:53.54	255.02	19.38	-44.4	-45.3	17.4	0.00e+00	0	57	0	298844160	51	4033
2026-01-05 02:19:55.52	254.80	19.15	-44.2	-45.1	17.6	0.00e+00	0	57	0	305135616	51	3936
2026-01-05 02:19:57.50	254.59	18.93	-44.1	-45.0	17.7	0.00e+00	0	57	0	311427072	51	3875
2026-01-05 02:19:59.48	254.37	18.71	-44.4	-45.3	17.4	0.00e+00	0	57	0	317718528	51	4018
2026-01-05 02:20:01.47	254.16	18.49	-44.0	-44.9	17.7	0.00e+00	0	57	0	324009984	51	3847
2026-01-05 02:20:03.45	253.96	18.27	-43.8	-44.7	18.0	0.00e+00	0	57	0	329252864	50	3969
2026-01-05 02:20:05.42	253.76	18.06	-44.0	-44.8	17.8	0.00e+00	0	57	0	335544320	50	4027
2026-01-05 02:20:07.40	253.56	17.84	-43.9	-44.7	17.9	0.00e+00	0	57	0	341835776	50	3986
2026-01-05 02:20:09.38	253.36	17.63	-44.1	-44.9	17.7	0.00e+00	0	57	0	348127232	50	4090
2026-01-05 02:20:11.36	253.16	17.42	-44.3	-45.2	17.5	0.00e+00	0	57	0	354418688	50	4220
2026-01-05 02:20:13.32	252.98	17.21	-44.6	-45.6	17.1	0.00e+00	0	57	0	360710144	51	4160
2026-01-05 02:20:15.29	252.79	17.00	-44.8	-45.8	16.8	0.00e+00	0	57	0	367001600	51	4270
2026-01-05 02:20:17.27	252.60	16.79	-45.0	-46.1	16.6	0.00e+00	0	57	0	373293056	51	4404
2026-01-05 02:20:19.26	252.42	16.58	-45.0	-46.1	16.5	0.00e+00	0	57	0	379584512	52	4165
2026-01-05 02:20:21.22	252.24	16.38	-45.0	-46.0	16.6	0.00e+00	0	57	0	384827392	52	4142
2026-01-05 02:20:23.20	252.06	16.18	-45.0	-46.1	16.5	0.00e+00	0	57	0	391118848	52	4166
2026-01-05 02:20:25.19	251.88	15.97	-45.0	-46.0	16.5	0.00e+00	0	57	0	397410304	52	4140
2026-01-05 02:20:27.16	251.71	15.78	-44.8	-45.8	16.8	0.00e+00	0	57	0	403701760	52	4040
2026-01-05 02:20:29.13	251.54	15.58	-44.9	-45.9	16.7	0.00e+00	0	57	0	409993216	52	4070
2026-01-05 02:20:31.10	251.37	15.38	-45.2	-46.3	16.3	0.00e+00	0	57	0	416284672	52	4257
2026-01-05 02:20:33.09	251.20	15.18	-45.2	-46.3	16.2	0.00e+00	0	57	0	422576128	52	4289
2026-01-05 02:20:35.07	251.04	14.99	-45.3	-46.4	16.2	0.00e+00	0	57	0	428867584	52	4323
2026-01-05 02:20:37.06	250.88	14.79	-45.7	-47.0	15.6	0.00e+00	0	57	0	435159040	53	4348
2026-01-05 02:20:39.03	250.72	14.60	-45.3	-46.4	16.2	0.00e+00	0	57	0	440401920	53	4067
2026-01-05 02:20:41.01	250.56	14.41	-45.2	-46.3	16.2	0.00e+00	0	57	0	446693376	53	4039
2026-01-05 02:20:42.99	250.41	14.22	-45.5	-46.7	15.9	0.00e+00	0	57	0	452984832	53	4221
2026-01-05 02:20:44.98	250.25	14.03	-45.0	-46.0	16.5	0.00e+00	0	57	0	459276288	53	3902
2026-01-05 02:20:46.95	250.10	13.84	-44.9	-45.9	16.6	0.00e+00	0	57	0	465567744	52	4090
2026-01-05 02:20:48.93	249.95	13.66	-45.1	-46.2	16.4	0.00e+00	0	57	0	471859200	52	4196
2026-01-05 02:20:50.90	249.80	13.47	-45.2	-46.3	16.2	0.00e+00	0	57	0	478150656	52	4275
2026-01-05 02:20:52.88	249.66	13.29	-44.9	-46.0	16.6	0.00e+00	0	57	0	484442112	52	4101
2026-01-05 02:20:54.85	249.51	13.11	-45.1	-46.2	16.3	0.00e+00	0	57	0	490733568	52	4226
2026-01-05 02:20:56.83	249.37	12.92	-45.1	-46.3	16.2	0.00e+00	0	57	0	495976448	52	4258
2026-01-05 02:20:58.81	249.23	12.74	-45.3	-46.4	16.1	0.00e+00	0	57	0	502267904	52	4320
2026-01-05 02:21:00.78	249.09	12.57	-45.5	-46.7	15.8	0.00e+00	0	57	0	508559360	52	4458
2026-01-05 02:21:02.76	248.96	12.39	-45.4	-46.6	15.9	0.00e+00	0	57	0	514850816	52	4412
2026-01-05 02:21:04.74	248.82	12.21	-45.5	-46.7	15.7	0.00e+00	0	57	0	521142272	52	4483
2026-01-05 02:21:06.72	248.69	12.04	-45.6	-46.8	15.7	0.00e+00	0	57	0	527433728	53	4275
2026-01-05 02:21:08.69	248.56	11.86	-45.8	-47.1	15.4	0.00e+00	0	57	0	533725184	53	4397
2026-01-05 02:21:10.68	248.43	11.69	-45.8	-47.1	15.3	0.00e+00	0	57	0	540016640	53	4429
2026-01-05 02:21:12.66	248.30	11.51	-45.6	-46.8	15.6	0.00e+00	0	57	0	546308096	53	4287
2026-01-05 02:21:14.64	248.17	11.34	-45.8	-47.1	15.3	0.00e+00	0	57	0	552599552	53	4432
2026-01-05 02:21:16.62	248.05	11.17	-45.9	-47.2	15.2	0.00e+00	0	57	0	557842432	53	4491
2026-01-05 02:21:18.60	247.92	11.00	-46.3	-47.8	14.7	7.00e-07	0	57	0	564133888	54	4498
2026-01-05 02:21:20.58	247.80	10.83	-45.8	-47.1	15.3	0.00e+00	0	57	0	570425344	54	4176
2026-01-05 02:21:22.55	247.68	10.67	-45.8	-47.0	15.4	0.00e+00	0	57	0	576716800	54	4135
2026-01-05 02:21:24.53	247.56	10.50	-46.0	-47.3	15.1	0.00e+00	0	57	0	583008256	54	4274
2026-01-05 02:21:26.51	247.44	10.34	-46.1	-47.4	15.0	7.00e-07	0	57	0	589299712	54	4331
2026-01-05 02:21:28.49	247.32	10.17	-46.1	-47.5	15.0	0.00e+00	0	57	0	595591168	54	4350
2026-01-05 02:21:30.47	247.21	10.01	-46.4	-47.8	14.5	0.00e+00	0	57	0	601882624	54	4543
2026-01-05 02:21:32.45	247.09	9.84	-46.5	-48.0	14.4	0.00e+00	0	57	0	608174080	54	4609
2026-01-05 02:21:34.43	246.98	9.68	-46.4	-47.9	14.4	0.00e+00	0	57	0	614465536	55	4332
2026-01-05 02:21:36.41	246.87	9.52	-46.4	-47.9	14.5	0.00e+00	0	57	0	619708416	55	4305
2026-01-05 02:21:38.38	246.76	9.36	-46.4	-47.8	14.5	0.00e+00	0	57	0	625999872	55	4278
2026-01-05 02:21:40.37	246.65	9.20	-46.8	-48.5	13.9	2.20e-06	0	57	0	632291328	55	4603
2026-01-05 02:21:42.36	246.54	9.05	-46.4	-47.9	14.5	0.00e+00	0	57	0	638582784	55	4296
2026-01-05 02:21:44.33	246.44	8.89	-46.3	-47.8	14.5	0.00e+00	0	57	0	644874240	55	4278
2026-01-05 02:21:46.31	246.33	8.73	-46.4	-47.9	14.4	1.50e-06	0	57	0	651165696	55	4301
2026-01-05 02:21:48.29	246.23	8.58	-46.7	-48.2	14.0	3.00e-06	0	57	0	657457152	55	4487
2026-01-05 02:21:50.27	246.13	8.42	-46.5	-48.0	14.3	7.00e-07	0	57	0	663748608	55	4380
2026-01-05 02:21:52.25	246.02	8.27	-46.5	-48.0	14.2	0.00e+00	0	57	0	670040064	55	4377
2026-01-05 02:21:54.22	245.92	8.12	-46.5	-48.1	14.2	7.00e-07	0	57	0	676331520	55	4399
2026-01-05 02:21:56.20	245.82	7.97	-46.6	-48.2	14.1	5.30e-06	0	57	0	681574400	55	4458
2026-01-05 02:21:58.18	245.73	7.81	-46.6	-48.2	14.1	2.20e-06	0	57	0	687865856	55	4456
2026-01-05 02:22:00.17	245.63	7.66	-46.8	-48.5	13.7	5.30e-06	0	57	0	694157312	55	4635
2026-01-05 02:22:02.14	245.53	7.51	-46.6	-48.2	14.0	5.30e-06	0	57	0	700448768	55	4460
2026-01-05 02:22:04.12	245.44	7.37	-46.9	-48.7	13.5	6.10e-06	0	57	0	706740224	55	4721
2026-01-05 02:22:06.10	245.34	7.22	-46.9	-48.6	13.5	1.29e-05	0	57	0	713031680	55	4686
2026-01-05 02:22:08.07	245.25	7.07	-47.3	-49.2	13.0	2.97e-05	0	57	0	719323136	56	4751
2026-01-05 02:22:10.05	245.16	6.92	-47.0	-48.8	13.5	9.90e-06	0	57	0	725614592	56	4499
2026-01-05 02:22:12.03	245.07	6.78	-47.1	-48.8	13.3	1.60e-05	0	57	0	731906048	56	4535
2026-01-05 02:22:14.00	244.98	6.63	-46.8	-48.5	13.8	1.14e-05	0	57	0	738197504	56	4344
2026-01-05 02:22:15.98	244.89	6.49	-46.8	-48.5	13.7	6.10e-06	0	57	0	743440384	56	4347
2026-01-05 02:22:17.96	244.80	6.35	-47.2	-49.0	13.2	2.21e-05	0	57	0	749731840	56	4621
2026-01-05 02:22:19.93	244.71	6.21	-47.0	-48.8	13.4	1.14e-05	0	57	0	756023296	56	4495
2026-01-05 02:22:21.90	244.63	6.06	-47.1	-48.9	13.2	3.05e-05	0	57	0	762314752	56	4571
2026-01-05 02:22:23.88	244.54	5.92	-46.9	-48.7	13.4	1.44e-05	0	57	0	768606208	56	4467
2026-01-05 02:22:25.86	244.46	5.78	-47.0	-48.8	13.2	2.28e-05	0	57	0	774897664	56	4512
2026-01-05 02:22:27.84	244.37	5.64	-47.0	-49.0	12.9	5.26e-05	0	57	0	781189120	56	4629
2026-01-05 02:22:29.79	244.29	5.50	-47.0	-49.0	12.8	6.40e-05	0	57	0	787480576	56	4600
2026-01-05 02:22:31.77	244.21	5.37	-46.5	-48.3	13.3	1.83e-05	0	57	0	792723456	56	4269
2026-01-05 02:22:33.76	244.13	5.23	-47.1	-49.2	12.3	1.26e-04	0	57	0	799014912	56	4745
2026-01-05 02:22:35.74	244.05	5.09	-48.0	-50.8	10.4	3.98e-03	0	57	0	805306368	57	5401
2026-01-05 02:22:37.73	243.97	4.95	-51.7	-63.0	3.8	1.49e+00	0	57	104	809500672	65	13841
2026-01-05 02:22:39.70	243.89	4.82	-52.0	-63.5	3.8	1.49e+00	0	57	104	809500672	65	14562
2026-01-05 02:22:41.68	243.81	4.68	-51.0	-62.5	3.8	1.49e+00	0	57	104	809500672	63	14554
2026-01-05 02:22:43.67	243.73	4.55	-52.4	-63.9	3.8	1.49e+00	0	57	104	809500672	66	14489
2026-01-05 02:22:45.64	243.66	4.41	-52.3	-63.9	3.8	1.49e+00	0	57	104	809500672	66	14523
2026-01-05 02:22:47.62	243.58	4.28	-52.5	-64.0	3.8	1.49e+00	0	57	104	809500672	66	14557
2026-01-05 02:22:49.61	243.50	4.15	-52.5	-64.0	3.8	1.49e+00	0	57	104	809500672	67	13858
2026-01-05 02:22:51.58	243.43	4.01	-52.6	-64.1	3.8	1.49e+00	0	57	104	809500672	67	13908
2026-01-05 02:22:53.56	243.36	3.88	-52.6	-64.1	3.8	1.49e+00	0	57	104	809500672	67	13994
2026-01-05 02:22:55.54	243.28	3.75	-52.7	-64.1	3.8	1.49e+00	0	57	104	809500672	67	14014
2026-01-05 02:22:57.52	243.21	3.62	-52.6	-64.1	3.8	1.49e+00	0	57	104	809500672	67	14044
2026-01-05 02:22:59.50	243.14	3.49	-52.6	-64.2	3.8	1.49e+00	0	57	104	809500672	67	14088
2026-01-05 02:23:01.48	243.07	3.36	-52.7	-64.2	3.8	1.49e+00	0	57	104	809500672	67	14100
2026-01-05 02:23:03.46	243.00	3.23	-52.6	-64.2	3.8	1.49e+00	0	57	104	809500672	67	14086
2026-01-05 02:23:05.44	242.93	3.10	-52.6	-64.1	3.8	1.49e+00	0	57	104	809500672	67	14045
2026-01-05 02:23:07.41	242.86	2.98	-52.7	-64.2	3.8	1.49e+00	0	57	104	809500672	67	14057

#Closed at: 2026-01-05 02:23:08
#Recorded file [809 MB]: D:/Data/31026_260105_052236.dat