passes_logs/2026/01/05/R3.0SM8_Murmansk_STILSPACE/R3.0SM8_Murmansk_STILSPACE__20260105_075704_NOAA_20_JPSS-1_rec.log

#Pass ID: 20260105_075704_NOAA 20 (JPSS-1)
#Satellite: NOAA 20 (JPSS-1)
#Configuration: NOAA 20
#almurnet v.1.7.20240730
#Start time: 2026-01-05 07:57:06

#Version: 2.2.20231116
#Station: R3.0SM8_Murmansk_STILSPACE
#Location: 33.092731 lon 68.902999 lat
#TLE: 1 43013U 17073A   26004.47528369  .00000132  00000+0  83671-4 0  9999
#TLE: 2 43013  98.7626 305.5264 0001854  54.5883 305.5466 14.19533142421242

#Time	Az	El	Level	Level2	SNR	BER	BlckErr	Temp	State	Recorded	gain1	gain2
2026-01-05 07:57:06.84	114.61	3.12	-52.4	-66.1	3.8	1.49e+00	0	47	0	0	66	18712
2026-01-05 07:57:10.80	114.46	3.38	-51.9	-65.7	3.8	1.49e+00	0	47	104	0	66	17847
2026-01-05 07:57:14.77	114.31	3.64	-51.6	-65.2	3.8	1.49e+00	0	48	104	0	66	16809
2026-01-05 07:57:18.72	114.16	3.90	-51.6	-65.2	3.8	1.49e+00	0	48	104	0	66	16792
2026-01-05 07:57:22.69	114.00	4.16	-51.5	-64.6	3.8	1.49e+00	0	48	104	0	65	16571
2026-01-05 07:57:26.64	113.84	4.43	-51.4	-63.5	3.8	1.49e+00	0	48	104	0	65	14566
2026-01-05 07:57:30.59	113.67	4.69	-51.3	-61.7	4.2	1.40e+00	0	49	0	0	65	11820
2026-01-05 07:57:34.55	113.50	4.96	-51.1	-59.5	5.2	6.43e-01	0	49	0	5242880	65	9276
2026-01-05 07:57:38.51	113.33	5.24	-50.9	-58.9	5.6	5.34e-01	0	49	0	12582912	64	9147
2026-01-05 07:57:42.47	113.16	5.51	-50.5	-56.9	7.3	1.43e-01	0	49	0	19922944	64	7208
2026-01-05 07:57:46.43	112.98	5.79	-50.5	-56.3	7.9	8.99e-02	0	50	0	27262976	63	7155
2026-01-05 07:57:50.39	112.80	6.07	-49.6	-53.7	10.6	6.22e-03	0	50	0	34603008	62	5626
2026-01-05 07:57:54.36	112.61	6.35	-48.9	-52.3	12.1	3.16e-04	0	50	0	41943040	60	5362
2026-01-05 07:57:58.32	112.42	6.64	-48.9	-52.1	12.3	2.62e-04	0	50	0	50331648	60	5255
2026-01-05 07:58:02.29	112.23	6.93	-48.9	-52.1	12.3	1.11e-04	0	50	0	57671680	60	5269
2026-01-05 07:58:06.25	112.03	7.22	-48.6	-51.5	12.9	4.73e-05	0	50	0	65011712	60	4912
2026-01-05 07:58:10.20	111.83	7.52	-48.5	-51.3	13.2	2.28e-05	0	51	0	72351744	59	5082
2026-01-05 07:58:14.15	111.62	7.81	-48.3	-51.0	13.6	4.50e-06	0	51	0	79691776	59	4878
2026-01-05 07:58:18.11	111.41	8.11	-48.2	-50.7	13.8	9.90e-06	0	51	0	87031808	59	4750
2026-01-05 07:58:22.06	111.20	8.42	-48.1	-50.7	14.0	1.50e-06	0	51	0	94371840	59	4719
2026-01-05 07:58:26.03	110.97	8.73	-48.2	-50.6	14.0	3.00e-06	0	51	0	101711872	59	4700
2026-01-05 07:58:29.98	110.75	9.04	-48.1	-50.6	14.0	7.00e-07	0	52	0	109051904	59	4697
2026-01-05 07:58:33.93	110.52	9.35	-48.2	-50.6	14.0	3.80e-06	0	52	0	116391936	59	4705
2026-01-05 07:58:37.89	110.28	9.67	-48.0	-50.3	14.4	2.20e-06	0	52	0	123731968	59	4539
2026-01-05 07:58:41.84	110.04	9.99	-48.1	-50.5	14.3	0.00e+00	0	52	0	131072000	59	4610
2026-01-05 07:58:45.80	109.80	10.32	-47.9	-50.2	14.6	7.00e-07	0	52	0	138412032	58	4717
2026-01-05 07:58:49.76	109.54	10.65	-47.8	-50.0	14.8	7.00e-07	0	52	0	146800640	58	4617
2026-01-05 07:58:53.72	109.28	10.98	-47.9	-50.2	14.7	0.00e+00	0	52	0	154140672	58	4706
2026-01-05 07:58:57.68	109.02	11.32	-48.0	-50.2	14.6	0.00e+00	0	53	0	161480704	58	4738
2026-01-05 07:59:01.63	108.75	11.66	-47.5	-49.6	15.2	0.00e+00	0	53	0	168820736	58	4398
2026-01-05 07:59:05.60	108.47	12.00	-47.8	-49.9	15.0	0.00e+00	0	53	0	176160768	58	4571
2026-01-05 07:59:09.55	108.18	12.35	-47.9	-50.2	14.7	0.00e+00	0	53	0	183500800	58	4707
2026-01-05 07:59:13.52	107.89	12.71	-47.9	-50.1	14.8	0.00e+00	0	53	0	190840832	58	4686
2026-01-05 07:59:17.48	107.59	13.06	-47.7	-49.8	15.1	0.00e+00	0	53	0	198180864	58	4501
2026-01-05 07:59:21.44	107.28	13.43	-47.6	-49.5	15.4	0.00e+00	0	53	0	205520896	58	4385
2026-01-05 07:59:25.40	106.96	13.80	-47.7	-49.8	15.1	0.00e+00	0	53	0	212860928	58	4525
2026-01-05 07:59:29.32	106.64	14.16	-48.0	-50.2	14.7	0.00e+00	0	53	0	220200960	58	4725
2026-01-05 07:59:33.29	106.31	14.54	-47.6	-49.7	15.2	0.00e+00	0	53	0	227540992	58	4471
2026-01-05 07:59:37.25	105.97	14.92	-47.7	-49.9	15.1	0.00e+00	0	53	0	234881024	58	4558
2026-01-05 07:59:41.20	105.62	15.31	-47.9	-50.0	15.0	0.00e+00	0	54	0	243269632	58	4629
2026-01-05 07:59:45.16	105.26	15.70	-47.8	-49.9	15.0	0.00e+00	0	54	0	250609664	58	4583
2026-01-05 07:59:49.12	104.89	16.10	-48.1	-50.4	14.6	0.00e+00	0	54	0	257949696	58	4840
2026-01-05 07:59:53.07	104.51	16.50	-47.7	-49.8	15.2	0.00e+00	0	54	0	265289728	58	4518
2026-01-05 07:59:57.02	104.12	16.91	-47.6	-49.6	15.3	0.00e+00	0	54	0	272629760	58	4431
2026-01-05 08:00:00.97	103.71	17.32	-47.5	-49.5	15.5	0.00e+00	0	54	0	279969792	57	4617
2026-01-05 08:00:04.93	103.30	17.74	-47.5	-49.4	15.6	0.00e+00	0	54	0	287309824	57	4591
2026-01-05 08:00:08.89	102.87	18.16	-47.9	-50.0	14.9	7.00e-07	0	54	0	294649856	57	4926
2026-01-05 08:00:12.86	102.43	18.59	-47.7	-49.8	15.3	0.00e+00	0	54	0	301989888	57	4762
2026-01-05 08:00:16.81	101.98	19.02	-47.7	-49.8	15.3	0.00e+00	0	54	0	309329920	57	4766
2026-01-05 08:00:20.78	101.52	19.47	-47.7	-49.7	15.4	0.00e+00	0	54	0	316669952	57	4723
2026-01-05 08:00:24.74	101.04	19.91	-47.7	-49.7	15.3	0.00e+00	0	54	0	324009984	57	4742
2026-01-05 08:00:28.69	100.55	20.37	-48.0	-50.2	14.9	0.00e+00	0	55	0	331350016	57	5014
2026-01-05 08:00:32.63	100.04	20.82	-47.7	-49.7	15.4	0.00e+00	0	55	0	338690048	57	4730
2026-01-05 08:00:36.58	99.52	21.29	-47.8	-49.9	15.2	0.00e+00	0	55	0	347078656	57	4829
2026-01-05 08:00:40.55	98.97	21.76	-47.9	-49.9	15.2	0.00e+00	0	55	0	354418688	57	4850
2026-01-05 08:00:44.50	98.42	22.23	-47.6	-49.6	15.5	0.00e+00	0	55	0	361758720	57	4705
2026-01-05 08:00:48.45	97.84	22.71	-47.5	-49.3	15.8	0.00e+00	0	55	0	369098752	57	4516
2026-01-05 08:00:52.41	97.25	23.20	-47.7	-49.7	15.4	0.00e+00	0	55	0	376438784	57	4758
2026-01-05 08:00:56.38	96.63	23.70	-47.8	-49.8	15.3	0.00e+00	0	55	0	383778816	57	4801
2026-01-05 08:01:00.34	96.00	24.20	-47.8	-49.9	15.2	0.00e+00	0	55	0	391118848	57	4826
2026-01-05 08:01:04.29	95.35	24.70	-48.2	-50.4	14.8	0.00e+00	0	55	0	398458880	58	4818
2026-01-05 08:01:08.26	94.67	25.22	-47.9	-50.0	15.2	0.00e+00	0	55	0	405798912	58	4608
2026-01-05 08:01:12.23	93.97	25.73	-47.9	-50.1	15.0	0.00e+00	0	55	0	413138944	58	4684
2026-01-05 08:01:16.18	93.25	26.26	-48.1	-50.2	14.9	0.00e+00	0	55	0	420478976	58	4738
2026-01-05 08:01:20.14	92.50	26.78	-48.3	-50.5	14.6	0.00e+00	0	55	0	427819008	58	4926
2026-01-05 08:01:24.09	91.73	27.31	-48.4	-50.8	14.4	1.50e-06	0	55	0	435159040	58	5046
2026-01-05 08:01:28.04	90.93	27.85	-48.9	-51.6	13.6	4.50e-06	0	55	0	443547648	59	5230
2026-01-05 08:01:31.98	90.11	28.38	-49.5	-52.7	12.4	9.99e-05	0	55	0	450887680	60	5603
2026-01-05 08:01:35.93	89.25	28.93	-49.9	-53.4	11.7	5.57e-04	0	55	0	458227712	61	5730
2026-01-05 08:01:39.89	88.37	29.47	-49.8	-53.4	11.7	5.26e-04	0	55	0	465567744	61	5753
2026-01-05 08:01:43.85	87.45	30.02	-49.6	-52.8	12.3	2.27e-04	0	55	0	472907776	61	5374
2026-01-05 08:01:47.81	86.50	30.57	-49.6	-52.9	12.2	2.10e-04	0	55	0	480247808	61	5446
2026-01-05 08:01:51.77	85.52	31.13	-49.7	-53.1	12.0	2.95e-04	0	55	0	487587840	61	5543
2026-01-05 08:01:55.72	84.51	31.68	-49.9	-53.6	11.6	6.15e-04	0	55	0	494927872	61	5877
2026-01-05 08:01:59.67	83.46	32.23	-50.0	-53.8	11.3	9.96e-04	0	55	0	502267904	61	6018
2026-01-05 08:02:03.62	82.37	32.78	-49.6	-52.8	12.4	1.65e-04	0	55	0	509607936	62	5060
2026-01-05 08:02:07.57	81.25	33.33	-49.0	-51.8	13.4	1.22e-05	0	56	0	516947968	60	5060
2026-01-05 08:02:11.54	80.08	33.87	-48.7	-51.3	13.8	4.50e-06	0	55	0	524288000	60	4809
2026-01-05 08:02:15.48	78.88	34.41	-49.2	-52.2	13.0	1.52e-05	0	56	0	531628032	60	5323
2026-01-05 08:02:19.44	77.64	34.95	-49.1	-52.0	13.2	2.13e-05	0	56	0	538968064	60	5186
2026-01-05 08:02:23.40	76.35	35.48	-49.5	-52.5	12.6	4.73e-05	0	56	0	547356672	60	5524
2026-01-05 08:02:27.35	75.02	36.00	-49.1	-52.0	13.2	2.67e-05	0	55	0	554696704	61	4873
2026-01-05 08:02:31.30	73.66	36.51	-49.6	-52.7	12.5	1.04e-04	0	56	0	562036736	61	5317
2026-01-05 08:02:35.27	72.24	37.01	-49.3	-52.3	13.0	6.10e-05	0	56	0	569376768	61	5042
2026-01-05 08:02:39.23	70.78	37.49	-49.2	-52.0	13.1	2.67e-05	0	56	0	576716800	61	4925
2026-01-05 08:02:43.18	69.28	37.96	-49.0	-51.7	13.5	1.52e-05	0	56	0	584056832	61	4755
2026-01-05 08:02:47.14	67.73	38.41	-48.9	-51.6	13.7	1.29e-05	0	56	0	591396864	60	4929
2026-01-05 08:02:51.10	66.14	38.85	-49.0	-51.8	13.4	9.10e-06	0	56	0	598736896	60	5054
2026-01-05 08:02:55.07	64.51	39.27	-49.0	-51.7	13.6	6.80e-06	0	56	0	606076928	60	5015
2026-01-05 08:02:59.02	62.84	39.66	-48.7	-51.1	14.2	5.30e-06	0	56	0	613416960	60	4702
2026-01-05 08:03:02.98	61.13	40.02	-47.8	-49.7	15.6	0.00e+00	0	56	0	620756992	58	4489
2026-01-05 08:03:06.95	59.37	40.37	-47.1	-48.8	16.5	0.00e+00	0	56	0	628097024	57	4266
2026-01-05 08:03:10.91	57.59	40.68	-46.9	-48.5	16.7	0.00e+00	0	56	0	636485632	57	4131
2026-01-05 08:03:14.87	55.77	40.96	-47.4	-49.2	16.1	0.00e+00	0	56	0	643825664	57	4473
2026-01-05 08:03:18.83	53.92	41.22	-47.3	-49.0	16.3	0.00e+00	0	56	0	651165696	57	4364
2026-01-05 08:03:22.78	52.05	41.43	-47.0	-48.6	16.7	0.00e+00	0	56	0	658505728	56	4417
2026-01-05 08:03:26.75	50.14	41.62	-47.2	-48.9	16.5	0.00e+00	0	56	0	665845760	56	4556
2026-01-05 08:03:30.69	48.23	41.77	-47.3	-49.1	16.2	0.00e+00	0	56	0	673185792	56	4672
2026-01-05 08:03:34.63	46.31	41.88	-47.5	-49.3	16.0	0.00e+00	0	56	0	680525824	56	4784
2026-01-05 08:03:38.59	44.36	41.96	-47.8	-49.8	15.5	0.00e+00	0	56	0	687865856	57	4793
2026-01-05 08:03:42.55	42.41	42.00	-48.1	-50.2	15.2	7.00e-07	0	56	0	695205888	58	4739
2026-01-05 08:03:46.49	40.46	42.00	-48.6	-51.0	14.2	0.00e+00	0	56	0	702545920	59	4920
2026-01-05 08:03:50.45	38.50	41.97	-49.0	-51.7	13.6	1.22e-05	0	56	0	709885952	60	5013
2026-01-05 08:03:54.41	36.56	41.89	-49.2	-52.0	13.3	9.90e-06	0	56	0	717225984	60	5181
2026-01-05 08:03:58.36	34.63	41.78	-49.8	-53.2	11.9	1.67e-04	0	56	0	724566016	61	5629
2026-01-05 08:04:02.32	32.70	41.64	-50.0	-53.7	11.5	9.50e-04	0	56	0	731906048	62	5652
2026-01-05 08:04:06.28	30.80	41.46	-50.4	-54.4	10.7	2.68e-03	0	56	0	739246080	62	6097
2026-01-05 08:04:10.23	28.93	41.24	-49.8	-53.1	12.1	2.66e-04	0	56	0	747634688	62	5256
2026-01-05 08:04:14.20	27.08	40.99	-48.6	-51.1	14.2	2.20e-06	0	56	0	754974720	60	4655
2026-01-05 08:04:18.16	25.26	40.71	-48.1	-50.2	15.0	0.00e+00	0	56	0	762314752	59	4482
2026-01-05 08:04:22.12	23.47	40.40	-47.7	-49.6	15.6	0.00e+00	0	56	0	769654784	58	4430
2026-01-05 08:04:26.09	21.71	40.06	-47.1	-48.8	16.5	0.00e+00	0	56	0	776994816	56	4504
2026-01-05 08:04:30.02	20.01	39.70	-46.1	-47.5	17.6	0.00e+00	0	56	0	784334848	55	4137
2026-01-05 08:04:34.00	18.33	39.31	-46.6	-48.1	17.0	0.00e+00	0	56	0	791674880	55	4416
2026-01-05 08:04:37.96	16.70	38.90	-46.5	-48.0	17.2	0.00e+00	0	56	0	799014912	55	4351
2026-01-05 08:04:41.92	15.11	38.46	-46.3	-47.8	17.3	0.00e+00	0	56	0	806354944	55	4289
2026-01-05 08:04:45.89	13.55	38.01	-46.3	-47.7	17.4	0.00e+00	0	56	0	813694976	55	4239
2026-01-05 08:04:49.87	12.04	37.54	-46.6	-48.2	16.9	0.00e+00	0	56	0	821035008	55	4465
2026-01-05 08:04:53.83	10.58	37.06	-46.9	-48.5	16.7	0.00e+00	0	57	0	829423616	55	4601
2026-01-05 08:04:57.80	9.16	36.56	-47.4	-49.2	16.0	0.00e+00	0	56	0	836763648	56	4746
2026-01-05 08:05:01.77	7.78	36.05	-47.4	-49.2	16.0	0.00e+00	0	56	0	844103680	56	4754
2026-01-05 08:05:05.72	6.46	35.53	-47.9	-49.9	15.4	0.00e+00	0	57	0	851443712	57	4840
2026-01-05 08:05:09.67	5.17	35.01	-48.2	-50.4	14.9	7.00e-07	0	57	0	858783744	58	4838
2026-01-05 08:05:13.63	3.93	34.47	-48.3	-50.4	14.8	0.00e+00	0	57	0	866123776	58	4859
2026-01-05 08:05:17.59	2.72	33.94	-48.6	-51.1	14.0	2.20e-06	0	56	0	873463808	59	4975
2026-01-05 08:05:21.56	1.55	33.39	-49.0	-51.7	13.5	7.60e-06	0	57	0	880803840	59	5281
2026-01-05 08:05:25.51	0.43	32.84	-49.4	-52.4	12.7	4.73e-05	0	57	0	888143872	60	5442
2026-01-05 08:05:29.46	359.34	32.30	-49.5	-52.8	12.3	1.65e-04	0	56	0	895483904	60	5693
2026-01-05 08:05:33.41	358.29	31.75	-49.3	-52.5	12.6	1.59e-04	0	57	0	902823936	61	5198
2026-01-05 08:05:37.37	357.28	31.19	-49.6	-52.9	12.2	1.85e-04	0	57	0	910163968	61	5451
2026-01-05 08:05:41.33	356.29	30.64	-49.0	-51.8	13.3	2.28e-05	0	57	0	917504000	61	4796
2026-01-05 08:05:45.29	355.34	30.09	-49.0	-51.8	13.4	1.67e-05	0	57	0	925892608	61	4793
2026-01-05 08:05:49.25	354.43	29.55	-48.7	-51.3	13.8	4.50e-06	0	57	0	933232640	60	4780
2026-01-05 08:05:53.21	353.54	29.00	-48.4	-50.7	14.4	0.00e+00	0	56	0	940572672	59	4743
2026-01-05 08:05:57.16	352.69	28.46	-48.2	-50.4	14.7	0.00e+00	0	57	0	947912704	59	4566
2026-01-05 08:06:01.13	351.86	27.92	-48.2	-50.4	14.6	7.00e-07	0	57	0	955252736	59	4595
2026-01-05 08:06:05.08	351.06	27.39	-48.0	-50.1	15.1	0.00e+00	0	56	0	962592768	58	4661
2026-01-05 08:06:09.04	350.29	26.86	-48.1	-50.3	14.8	0.00e+00	0	56	0	969932800	58	4782
2026-01-05 08:06:12.99	349.54	26.33	-48.3	-50.6	14.6	7.00e-07	0	56	0	977272832	58	4938
2026-01-05 08:06:16.93	348.82	25.81	-48.3	-50.6	14.5	0.00e+00	0	56	0	984612864	58	4942
2026-01-05 08:06:20.90	348.12	25.30	-49.0	-51.8	13.4	1.83e-05	0	57	0	991952896	59	5348
2026-01-05 08:06:24.85	347.45	24.79	-49.1	-52.1	13.0	2.74e-05	0	57	0	999292928	60	5238
2026-01-05 08:06:28.80	346.80	24.28	-48.9	-51.6	13.4	2.21e-05	0	57	0	1006632960	60	4962
2026-01-05 08:06:32.76	346.16	23.78	-48.2	-50.5	14.7	0.00e+00	0	57	0	1013972992	59	4612
2026-01-05 08:06:36.73	345.55	23.29	-48.4	-50.8	14.3	7.00e-07	0	57	0	1022361600	59	4792
2026-01-05 08:06:40.69	344.95	22.80	-48.1	-50.3	14.8	0.00e+00	0	57	0	1029701632	59	4524
2026-01-05 08:06:44.66	344.38	22.32	-48.3	-50.6	14.3	3.80e-06	0	57	0	1037041664	59	4700
2026-01-05 08:06:48.61	343.82	21.84	-48.3	-50.7	14.3	7.00e-07	0	57	0	1044381696	59	4727
2026-01-05 08:06:52.57	343.28	21.38	-48.5	-51.1	13.9	1.50e-06	0	57	0	1051721728	59	4934
2026-01-05 08:06:56.53	342.76	20.91	-48.3	-50.8	14.1	1.50e-06	0	57	0	1059061760	59	4779
2026-01-05 08:07:00.48	342.25	20.45	-47.9	-50.1	14.8	0.00e+00	0	57	0	1066401792	58	4657
2026-01-05 08:07:04.45	341.76	20.00	-48.8	-51.8	12.8	2.51e-05	0	57	0	1073741824	59	5395
2026-01-05 08:07:08.41	341.28	19.55	-49.4	-53.4	10.7	1.49e-03	0	57	0	1081081856	60	6121
2026-01-05 08:07:12.36	340.81	19.12	-49.7	-54.4	9.6	9.94e-03	0	57	0	1088421888	61	6471
2026-01-05 08:07:16.32	340.36	18.68	-49.7	-54.5	9.5	1.91e-02	0	57	0	1095761920	61	6529
2026-01-05 08:07:20.28	339.93	18.25	-48.8	-52.2	12.1	2.48e-04	0	57	0	1103101952	60	5284
2026-01-05 08:07:24.24	339.50	17.83	-48.6	-51.6	12.9	5.87e-05	0	57	0	1110441984	59	5230
2026-01-05 08:07:28.19	339.09	17.41	-49.0	-52.1	12.5	9.46e-05	0	57	0	1118830592	59	5558
2026-01-05 08:07:32.12	338.69	17.00	-48.5	-51.2	13.6	9.90e-06	0	57	0	1126170624	59	5006
2026-01-05 08:07:36.08	338.30	16.60	-48.7	-51.4	13.3	1.37e-05	0	57	0	1133510656	59	5129
2026-01-05 08:07:40.05	337.92	16.19	-48.4	-51.0	13.8	3.80e-06	0	57	0	1140850688	59	4874
2026-01-05 08:07:44.00	337.55	15.80	-48.4	-50.9	13.9	3.00e-06	0	57	0	1148190720	59	4845
2026-01-05 08:07:47.95	337.19	15.41	-48.4	-50.9	13.8	4.50e-06	0	57	0	1155530752	59	4853
2026-01-05 08:07:51.91	336.84	15.02	-48.3	-50.9	13.9	1.50e-06	0	57	0	1162870784	59	4841
2026-01-05 08:07:55.86	336.50	14.64	-48.4	-51.0	13.8	3.00e-06	0	57	0	1170210816	59	4885
2026-01-05 08:07:59.82	336.17	14.26	-48.6	-51.3	13.5	1.06e-05	0	57	0	1177550848	59	5075
2026-01-05 08:08:03.78	335.85	13.89	-48.9	-51.8	12.9	6.02e-05	0	57	0	1184890880	59	5402
2026-01-05 08:08:07.73	335.53	13.53	-49.2	-52.4	12.4	2.14e-04	0	57	0	1192230912	60	5416
2026-01-05 08:08:11.68	335.23	13.17	-49.1	-52.2	12.6	9.61e-05	0	57	0	1199570944	60	5292
2026-01-05 08:08:15.63	334.93	12.81	-49.0	-52.0	12.7	1.18e-04	0	57	0	1206910976	60	5203
2026-01-05 08:08:19.60	334.64	12.45	-48.6	-51.4	13.4	1.67e-05	0	57	0	1215299584	59	5118
2026-01-05 08:08:23.56	334.35	12.10	-48.7	-51.4	13.3	1.75e-05	0	57	0	1222639616	59	5155
2026-01-05 08:08:27.51	334.08	11.76	-48.7	-51.5	13.2	2.21e-05	0	57	0	1229979648	59	5203
2026-01-05 08:08:31.44	333.81	11.42	-48.9	-52.0	12.7	8.39e-05	0	57	0	1237319680	59	5482
2026-01-05 08:08:35.38	333.55	11.09	-49.1	-52.3	12.4	1.65e-04	0	57	0	1244659712	60	5351
2026-01-05 08:08:39.32	333.29	10.76	-49.2	-52.6	12.0	3.37e-04	0	57	0	1251999744	60	5547
2026-01-05 08:08:43.28	333.04	10.43	-49.1	-52.6	12.0	3.61e-04	0	57	0	1259339776	60	5540
2026-01-05 08:08:47.23	332.79	10.10	-49.2	-52.6	12.0	3.62e-04	0	57	0	1266679808	60	5559
2026-01-05 08:08:51.19	332.55	9.78	-49.0	-52.2	12.3	1.72e-04	0	57	0	1274019840	60	5335
2026-01-05 08:08:55.15	332.32	9.46	-49.1	-52.4	12.2	1.88e-04	0	57	0	1281359872	60	5424
2026-01-05 08:08:59.12	332.09	9.15	-49.4	-53.2	11.3	7.38e-04	0	57	0	1288699904	60	5945
2026-01-05 08:09:03.07	331.86	8.84	-49.4	-53.0	11.5	7.03e-04	0	57	0	1296039936	60	5824
2026-01-05 08:09:07.03	331.64	8.53	-49.4	-53.1	11.4	9.99e-04	0	57	0	1303379968	60	5907
2026-01-05 08:09:10.97	331.43	8.23	-49.1	-52.5	12.0	2.82e-04	0	57	0	1310720000	60	5471
2026-01-05 08:09:14.92	331.22	7.93	-49.1	-52.5	11.9	4.97e-04	0	57	0	1318060032	60	5511
2026-01-05 08:09:18.87	331.02	7.63	-49.1	-52.6	11.8	4.82e-04	0	57	0	1325400064	60	5539
2026-01-05 08:09:22.84	330.82	7.33	-49.2	-52.7	11.7	7.88e-04	0	57	0	1333788672	60	5638
2026-01-05 08:09:26.82	330.62	7.04	-49.2	-52.8	11.5	7.15e-04	0	57	0	1341128704	60	5684
2026-01-05 08:09:30.76	330.43	6.75	-49.2	-52.8	11.6	8.73e-04	0	57	0	1348468736	60	5657
2026-01-05 08:09:34.71	330.24	6.47	-49.2	-53.0	11.4	1.21e-03	0	57	0	1355808768	60	5793
2026-01-05 08:09:38.67	330.06	6.18	-49.3	-53.1	11.2	1.62e-03	0	57	0	1363148800	60	5868
2026-01-05 08:09:42.62	329.88	5.90	-49.4	-53.4	10.8	1.99e-03	0	57	0	1370488832	60	6075
2026-01-05 08:09:46.57	329.70	5.63	-49.3	-53.3	10.8	2.69e-03	0	57	0	1377828864	60	6053
2026-01-05 08:09:50.52	329.53	5.35	-49.4	-53.7	10.4	4.12e-03	0	57	0	1385168896	60	6330
2026-01-05 08:09:54.48	329.36	5.08	-49.7	-54.3	9.8	1.07e-02	0	57	0	1392508928	61	6385
2026-01-05 08:09:58.44	329.19	4.81	-52.0	-65.8	3.8	1.49e+00	0	57	104	1395654656	65	19024
2026-01-05 08:10:02.40	329.03	4.54	-52.3	-66.1	3.8	1.49e+00	0	57	104	1395654656	66	18597
2026-01-05 08:10:06.37	328.87	4.28	-52.4	-66.3	3.8	1.49e+00	0	57	104	1395654656	66	18969
2026-01-05 08:10:10.32	328.72	4.01	-52.4	-66.4	3.8	1.49e+00	0	57	104	1395654656	66	19175
2026-01-05 08:10:14.27	328.56	3.75	-52.6	-66.4	3.8	1.49e+00	0	57	104	1395654656	67	18168
2026-01-05 08:10:18.21	328.41	3.50	-52.6	-66.4	3.8	1.49e+00	0	57	104	1395654656	67	18220
2026-01-05 08:10:22.16	328.27	3.24	-52.6	-66.4	3.8	1.49e+00	0	57	104	1395654656	67	18288
2026-01-05 08:10:26.12	328.12	2.99	-52.5	-66.4	3.8	1.49e+00	0	57	104	1395654656	67	18216

#Closed at: 2026-01-05 08:10:27
#Recorded file [1395 MB]: D:/Data/31026_260105_110955.dat