passes_logs/2026/01/05/R3.0SM8_Murmansk_STILSPACE/R3.0SM8_Murmansk_STILSPACE__20260105_120918_NOAA_21_JPSS-2_rec.log

#Pass ID: 20260105_120918_NOAA 21 (JPSS-2)
#Satellite: NOAA 21 (JPSS-2)
#Configuration: NOAA-21
#almurnet v.1.7.20240730
#Start time: 2026-01-05 12:18:39

#Version: 2.2.20231116
#Station: R3.0SM8_Murmansk_STILSPACE
#Location: 33.092731 lon 68.902999 lat
#TLE: 1 54234U 22150A   26005.21525222  .00000150  00000+0  91957-4 0  9992
#TLE: 2 54234  98.7490 306.2339 0001053 341.6032  18.5106 14.19532220163427

#Time	Az	El	Level	Level2	SNR	BER	BlckErr	Temp	State	Recorded	gain1	gain2
2026-01-05 12:18:39.66	322.40	12.20	-48.5	-60.0	3.8	1.49e+00	0	50	0	0	58	14615
2026-01-05 12:18:40.63	322.55	12.14	-48.5	-60.0	3.8	1.49e+00	0	50	104	0	59	13741
2026-01-05 12:18:41.62	322.69	12.08	-48.6	-60.0	3.8	1.49e+00	0	50	104	0	59	13738
2026-01-05 12:18:42.61	322.84	12.02	-48.5	-60.0	3.8	1.49e+00	0	50	104	0	59	13766
2026-01-05 12:18:43.60	322.98	11.97	-48.5	-60.0	3.8	1.49e+00	0	50	104	0	59	13780
2026-01-05 12:18:44.59	323.13	11.91	-48.6	-60.0	3.8	1.49e+00	0	50	104	0	59	13828
2026-01-05 12:18:45.58	323.27	11.85	-48.5	-60.0	3.8	1.49e+00	0	50	104	0	59	13800
2026-01-05 12:18:46.57	323.42	11.79	-48.5	-60.0	3.8	1.49e+00	0	50	104	0	59	13825
2026-01-05 12:18:47.56	323.56	11.73	-48.6	-60.0	3.8	1.49e+00	0	50	104	0	59	13799
2026-01-05 12:18:48.54	323.70	11.67	-48.5	-60.0	3.8	1.49e+00	0	51	104	0	59	13796
2026-01-05 12:18:49.53	323.84	11.61	-48.5	-60.0	3.8	1.49e+00	0	50	104	0	58	14548
2026-01-05 12:18:50.52	323.98	11.55	-48.5	-60.0	3.8	1.49e+00	0	50	104	0	58	14657
2026-01-05 12:18:51.51	324.12	11.49	-48.5	-60.0	3.8	1.49e+00	0	51	104	0	58	14642
2026-01-05 12:18:52.49	324.26	11.43	-48.5	-60.0	3.8	1.49e+00	0	51	104	0	58	14587
2026-01-05 12:18:53.48	324.40	11.37	-48.5	-60.0	3.8	1.49e+00	0	51	104	0	58	14599
2026-01-05 12:18:54.46	324.54	11.31	-48.5	-60.0	3.8	1.49e+00	0	51	104	0	58	14620
2026-01-05 12:18:55.45	324.68	11.25	-48.5	-60.0	3.8	1.49e+00	0	51	104	0	58	14618
2026-01-05 12:18:56.44	324.81	11.19	-48.5	-60.0	3.8	1.49e+00	0	51	104	0	58	14637
2026-01-05 12:18:57.43	324.95	11.13	-48.5	-60.0	3.8	1.49e+00	0	51	104	0	58	14682
2026-01-05 12:18:58.41	325.09	11.07	-48.5	-60.0	3.8	1.49e+00	0	51	104	0	58	14646
2026-01-05 12:18:59.39	325.22	11.02	-48.5	-60.0	3.8	1.49e+00	0	51	104	0	58	14676
2026-01-05 12:19:00.38	325.36	10.96	-48.5	-60.0	3.8	1.49e+00	0	51	104	0	58	14676
2026-01-05 12:19:01.37	325.49	10.90	-48.5	-60.0	3.8	1.49e+00	0	51	104	0	58	14659
2026-01-05 12:19:02.36	325.63	10.84	-48.5	-60.0	3.8	1.49e+00	0	51	104	0	58	14621
2026-01-05 12:19:03.35	325.76	10.78	-48.5	-60.0	3.8	1.49e+00	0	51	104	0	58	14633
2026-01-05 12:19:04.33	325.89	10.72	-48.5	-60.0	3.8	1.49e+00	0	51	104	0	58	14609
2026-01-05 12:19:05.32	326.03	10.66	-48.5	-60.0	3.8	1.49e+00	0	51	104	0	58	14615
2026-01-05 12:19:06.31	326.16	10.60	-48.5	-60.0	3.8	1.49e+00	0	51	104	0	58	14654
2026-01-05 12:19:07.31	326.29	10.54	-48.5	-60.0	3.8	1.49e+00	0	51	104	0	58	14629
2026-01-05 12:19:08.29	326.42	10.48	-48.5	-60.0	3.8	1.49e+00	0	51	104	0	58	14632
2026-01-05 12:19:09.27	326.55	10.42	-48.5	-60.0	3.8	1.49e+00	0	51	104	0	58	14659
2026-01-05 12:19:10.26	326.68	10.36	-48.5	-60.0	3.8	1.49e+00	0	52	104	0	58	14648
2026-01-05 12:19:11.25	326.81	10.30	-48.5	-60.0	3.8	1.49e+00	0	51	104	0	58	14619
2026-01-05 12:19:12.23	326.94	10.24	-48.5	-60.0	3.8	1.49e+00	0	51	104	0	58	14668
2026-01-05 12:19:13.22	327.07	10.18	-48.5	-60.0	3.8	1.49e+00	0	52	104	0	58	14648
2026-01-05 12:19:14.21	327.20	10.12	-48.5	-60.0	3.8	1.49e+00	0	52	104	0	58	14654
2026-01-05 12:19:15.20	327.33	10.07	-48.5	-60.0	3.8	1.49e+00	0	52	104	0	58	14567
2026-01-05 12:19:16.18	327.45	10.01	-48.5	-60.0	3.8	1.49e+00	0	52	104	0	58	14647
2026-01-05 12:19:17.16	327.58	9.95	-48.5	-60.0	3.8	1.49e+00	0	51	104	0	58	14629
2026-01-05 12:19:18.15	327.71	9.89	-48.5	-60.0	3.8	1.49e+00	0	52	104	0	58	14613
2026-01-05 12:19:19.13	327.83	9.83	-48.5	-60.0	3.8	1.49e+00	0	52	104	0	58	14639
2026-01-05 12:19:20.12	327.96	9.77	-48.5	-60.0	3.8	1.49e+00	0	52	104	0	58	14640
2026-01-05 12:19:21.11	328.08	9.71	-48.5	-60.0	3.8	1.49e+00	0	52	104	0	58	14665
2026-01-05 12:19:22.10	328.21	9.65	-48.5	-60.0	3.8	1.49e+00	0	52	104	0	58	14614
2026-01-05 12:19:23.08	328.33	9.59	-48.5	-60.0	3.8	1.49e+00	0	52	104	0	58	14697
2026-01-05 12:19:24.07	328.45	9.53	-48.5	-60.0	3.8	1.49e+00	0	52	104	0	58	14681
2026-01-05 12:19:25.06	328.57	9.47	-48.5	-60.0	3.8	1.49e+00	0	52	104	0	58	14632
2026-01-05 12:19:26.03	328.70	9.42	-48.5	-60.0	3.8	1.49e+00	0	52	104	0	58	14609
2026-01-05 12:19:27.01	328.82	9.36	-48.5	-60.0	3.8	1.49e+00	0	52	104	0	58	14651
2026-01-05 12:19:28.00	328.94	9.30	-48.6	-60.0	3.8	1.49e+00	0	52	104	0	58	14640
2026-01-05 12:19:28.98	329.06	9.24	-48.6	-60.0	3.8	1.49e+00	0	52	104	0	58	14614
2026-01-05 12:19:29.96	329.18	9.18	-48.6	-60.0	3.8	1.49e+00	0	52	104	0	58	14613
2026-01-05 12:19:30.95	329.30	9.12	-48.5	-60.0	3.8	1.49e+00	0	52	104	0	58	14605
2026-01-05 12:19:31.94	329.42	9.06	-48.5	-60.0	3.8	1.49e+00	0	52	104	0	58	14657
2026-01-05 12:19:32.92	329.54	9.01	-48.5	-60.0	3.8	1.49e+00	0	52	104	0	58	14668
2026-01-05 12:19:33.92	329.66	8.95	-48.5	-60.0	3.8	1.49e+00	0	52	104	0	58	14633
2026-01-05 12:19:34.90	329.77	8.89	-48.5	-60.0	3.8	1.49e+00	0	52	104	0	58	14670
2026-01-05 12:19:35.87	329.89	8.83	-48.5	-60.0	3.8	1.49e+00	0	52	104	0	58	14629
2026-01-05 12:19:36.86	330.01	8.77	-48.5	-60.0	3.8	1.49e+00	0	52	104	0	58	14644
2026-01-05 12:19:37.85	330.12	8.71	-48.5	-60.0	3.8	1.49e+00	0	52	104	0	58	14632
2026-01-05 12:19:38.84	330.24	8.66	-48.6	-60.0	3.8	1.49e+00	0	52	104	0	58	14645
2026-01-05 12:19:39.84	330.36	8.60	-48.5	-60.0	3.8	1.49e+00	0	52	104	0	58	14599
2026-01-05 12:19:40.83	330.47	8.54	-48.5	-60.0	3.8	1.49e+00	0	53	104	0	58	14686
2026-01-05 12:19:41.82	330.59	8.48	-48.5	-60.0	3.8	1.49e+00	0	52	104	0	58	14659
2026-01-05 12:19:42.80	330.70	8.42	-48.6	-60.0	3.8	1.49e+00	0	53	104	0	58	14647
2026-01-05 12:19:43.78	330.82	8.36	-48.5	-60.0	3.8	1.49e+00	0	53	104	0	58	14620
2026-01-05 12:19:44.77	330.93	8.30	-48.5	-60.0	3.8	1.49e+00	0	52	104	0	58	14621
2026-01-05 12:19:45.76	331.04	8.25	-48.5	-60.0	3.8	1.49e+00	0	53	104	0	58	14653
2026-01-05 12:19:46.74	331.16	8.19	-48.6	-60.0	3.8	1.49e+00	0	52	104	0	58	14639
2026-01-05 12:19:47.73	331.27	8.13	-48.5	-60.0	3.8	1.49e+00	0	53	104	0	58	14663
2026-01-05 12:19:48.72	331.38	8.07	-48.5	-60.0	3.8	1.49e+00	0	52	104	0	58	14635
2026-01-05 12:19:49.69	331.49	8.01	-48.6	-60.0	3.8	1.49e+00	0	53	104	0	58	14704
2026-01-05 12:19:50.68	331.60	7.96	-48.6	-60.0	3.8	1.49e+00	0	53	104	0	58	14644
2026-01-05 12:19:51.67	331.71	7.90	-48.6	-60.0	3.8	1.49e+00	0	53	104	0	58	14620
2026-01-05 12:19:52.65	331.82	7.84	-48.6	-60.0	3.8	1.49e+00	0	53	104	0	58	14637
2026-01-05 12:19:53.65	331.93	7.78	-48.6	-60.0	3.8	1.49e+00	0	53	104	0	58	14641
2026-01-05 12:19:54.63	332.04	7.73	-48.5	-60.0	3.8	1.49e+00	0	53	104	0	58	14678
2026-01-05 12:19:55.62	332.15	7.67	-48.5	-60.0	3.8	1.49e+00	0	53	104	0	58	14684
2026-01-05 12:19:56.61	332.26	7.61	-48.5	-60.0	3.8	1.49e+00	0	53	104	0	58	14614
2026-01-05 12:19:57.60	332.37	7.55	-48.6	-60.0	3.8	1.49e+00	0	53	104	0	58	14629
2026-01-05 12:19:58.59	332.48	7.49	-48.5	-60.0	3.8	1.49e+00	0	53	104	0	58	14618
2026-01-05 12:19:59.58	332.59	7.44	-48.6	-60.0	3.8	1.49e+00	0	53	104	0	58	14654
2026-01-05 12:20:00.56	332.69	7.38	-48.5	-60.0	3.8	1.49e+00	0	53	104	0	58	14631
2026-01-05 12:20:01.55	332.80	7.32	-48.5	-60.0	3.8	1.49e+00	0	53	104	0	58	14690
2026-01-05 12:20:02.53	332.90	7.26	-48.5	-60.0	3.8	1.49e+00	0	53	104	0	58	14627
2026-01-05 12:20:03.53	333.01	7.21	-48.5	-60.0	3.8	1.49e+00	0	53	104	0	58	14630
2026-01-05 12:20:04.51	333.12	7.15	-48.6	-60.0	3.8	1.49e+00	0	53	104	0	58	14646
2026-01-05 12:20:05.49	333.22	7.09	-48.5	-60.0	3.8	1.49e+00	0	53	104	0	58	14617
2026-01-05 12:20:06.47	333.32	7.04	-48.6	-60.0	3.8	1.49e+00	0	53	104	0	58	14670
2026-01-05 12:20:07.46	333.43	6.98	-48.6	-60.0	3.8	1.49e+00	0	53	104	0	58	14667
2026-01-05 12:20:08.44	333.53	6.92	-48.6	-60.1	3.8	1.49e+00	0	53	104	0	58	14712
2026-01-05 12:20:09.42	333.63	6.86	-48.6	-60.0	3.8	1.49e+00	0	53	104	0	58	14639
2026-01-05 12:20:10.40	333.74	6.81	-48.6	-60.0	3.8	1.49e+00	0	53	104	0	58	14673
2026-01-05 12:20:11.38	333.84	6.75	-48.6	-60.0	3.8	1.49e+00	0	53	104	0	58	14628
2026-01-05 12:20:12.36	333.94	6.69	-48.5	-60.0	3.8	1.49e+00	0	53	104	0	58	14642
2026-01-05 12:20:13.35	334.04	6.64	-48.6	-60.0	3.8	1.49e+00	0	53	104	0	58	14633
2026-01-05 12:20:14.34	334.14	6.58	-48.6	-60.0	3.8	1.49e+00	0	54	104	0	58	14619
2026-01-05 12:20:15.32	334.24	6.52	-48.5	-60.0	3.8	1.49e+00	0	54	104	0	58	14708
2026-01-05 12:20:16.31	334.35	6.47	-48.5	-60.0	3.8	1.49e+00	0	53	104	0	58	14681
2026-01-05 12:20:17.29	334.45	6.41	-48.6	-60.0	3.8	1.49e+00	0	53	104	0	58	14639
2026-01-05 12:20:18.28	334.55	6.35	-48.5	-60.0	3.8	1.49e+00	0	53	104	0	58	14644
2026-01-05 12:20:19.27	334.65	6.30	-48.6	-60.0	3.8	1.49e+00	0	53	104	0	58	14641
2026-01-05 12:20:20.25	334.74	6.24	-48.6	-60.0	3.8	1.49e+00	0	53	104	0	58	14657
2026-01-05 12:20:21.24	334.84	6.18	-48.6	-60.0	3.8	1.49e+00	0	53	104	0	58	14685
2026-01-05 12:20:22.23	334.94	6.13	-48.6	-60.0	3.8	1.49e+00	0	54	104	0	58	14629
2026-01-05 12:20:23.22	335.04	6.07	-48.6	-60.0	3.8	1.49e+00	0	54	104	0	58	14629
2026-01-05 12:20:24.21	335.14	6.02	-48.6	-60.0	3.8	1.49e+00	0	54	104	0	58	14628
2026-01-05 12:20:25.20	335.24	5.96	-48.5	-60.0	3.8	1.49e+00	0	54	104	0	58	14662
2026-01-05 12:20:26.19	335.33	5.90	-48.5	-60.0	3.8	1.49e+00	0	54	104	0	58	14640
2026-01-05 12:20:27.17	335.43	5.85	-48.5	-60.0	3.8	1.49e+00	0	54	104	0	58	14685
2026-01-05 12:20:28.15	335.53	5.79	-48.5	-60.0	3.8	1.49e+00	0	54	104	0	58	14655
2026-01-05 12:20:29.13	335.62	5.74	-48.6	-60.0	3.8	1.49e+00	0	53	104	0	58	14628
2026-01-05 12:20:30.12	335.72	5.68	-48.5	-60.0	3.8	1.49e+00	0	54	104	0	58	14700
2026-01-05 12:20:31.11	335.81	5.62	-48.5	-60.0	3.8	1.49e+00	0	54	104	0	58	14656
2026-01-05 12:20:32.09	335.91	5.57	-48.5	-60.0	3.8	1.49e+00	0	54	104	0	58	14655
2026-01-05 12:20:33.08	336.00	5.51	-48.5	-60.0	3.8	1.49e+00	0	54	104	0	58	14697
2026-01-05 12:20:34.07	336.10	5.46	-48.5	-60.0	3.8	1.49e+00	0	54	104	0	58	14632
2026-01-05 12:20:35.05	336.19	5.40	-48.5	-60.0	3.8	1.49e+00	0	54	104	0	58	14678
2026-01-05 12:20:36.04	336.29	5.34	-48.6	-60.0	3.8	1.49e+00	0	54	104	0	58	14697
2026-01-05 12:20:37.03	336.38	5.29	-48.5	-60.0	3.8	1.49e+00	0	54	104	0	58	14655
2026-01-05 12:20:38.01	336.47	5.23	-48.5	-60.0	3.8	1.49e+00	0	54	104	0	58	14653
2026-01-05 12:20:38.99	336.56	5.18	-48.5	-60.0	3.8	1.49e+00	0	54	104	0	58	14633
2026-01-05 12:20:39.97	336.66	5.12	-48.5	-60.0	3.8	1.49e+00	0	54	104	0	58	14654
2026-01-05 12:20:40.96	336.75	5.07	-48.5	-60.0	3.8	1.49e+00	0	54	104	0	58	14640
2026-01-05 12:20:41.95	336.84	5.01	-48.5	-60.1	3.8	1.49e+00	0	54	104	0	58	14720
2026-01-05 12:20:42.94	336.93	4.96	-48.5	-60.0	3.8	1.49e+00	0	54	104	0	58	14628
2026-01-05 12:20:43.92	337.02	4.90	-48.5	-60.1	3.8	1.49e+00	0	54	104	0	58	14714
2026-01-05 12:20:44.91	337.11	4.85	-48.6	-60.0	3.8	1.49e+00	0	54	104	0	58	14682
2026-01-05 12:20:45.89	337.20	4.79	-48.5	-60.0	3.8	1.49e+00	0	54	104	0	58	14677
2026-01-05 12:20:46.88	337.29	4.74	-48.5	-60.0	3.8	1.49e+00	0	54	104	0	58	14659
2026-01-05 12:20:47.87	337.38	4.68	-48.5	-60.0	3.8	1.49e+00	0	54	104	0	58	14619
2026-01-05 12:20:48.86	337.47	4.63	-48.5	-60.0	3.8	1.49e+00	0	54	104	0	58	14663
2026-01-05 12:20:49.85	337.56	4.57	-48.5	-60.0	3.8	1.49e+00	0	54	104	0	58	14678
2026-01-05 12:20:50.84	337.65	4.52	-48.5	-60.0	3.8	1.49e+00	0	54	104	0	58	14652
2026-01-05 12:20:51.82	337.74	4.46	-48.5	-60.0	3.8	1.49e+00	0	54	104	0	58	14675
2026-01-05 12:20:52.81	337.83	4.41	-48.1	-60.0	3.8	1.49e+00	0	54	104	0	58	14692
2026-01-05 12:20:53.80	337.92	4.35	-48.5	-60.0	3.8	1.49e+00	0	54	104	0	58	14641
2026-01-05 12:20:54.79	338.00	4.30	-48.5	-60.0	3.8	1.49e+00	0	54	104	0	58	14643
2026-01-05 12:20:55.77	338.09	4.24	-48.5	-60.0	3.8	1.49e+00	0	54	104	0	58	14683
2026-01-05 12:20:56.76	338.18	4.19	-48.5	-60.0	3.8	1.49e+00	0	54	104	0	58	14686
2026-01-05 12:20:57.75	338.26	4.14	-48.5	-60.0	3.8	1.49e+00	0	54	104	0	58	14627
2026-01-05 12:20:58.73	338.35	4.08	-48.5	-60.0	3.8	1.49e+00	0	54	104	0	58	14658
2026-01-05 12:20:59.71	338.44	4.03	-48.5	-60.0	3.8	1.49e+00	0	54	104	0	58	14639
2026-01-05 12:21:00.70	338.52	3.97	-48.6	-60.0	3.8	1.49e+00	0	54	104	0	58	14665
2026-01-05 12:21:01.69	338.61	3.92	-48.5	-60.0	3.8	1.49e+00	0	54	104	0	58	14668
2026-01-05 12:21:02.68	338.69	3.87	-48.5	-60.0	3.8	1.49e+00	0	54	104	0	58	14636
2026-01-05 12:21:03.67	338.78	3.81	-48.5	-60.0	3.8	1.49e+00	0	54	104	0	58	14624
2026-01-05 12:21:04.65	338.86	3.76	-48.5	-60.0	3.8	1.49e+00	0	54	104	0	58	14605
2026-01-05 12:21:05.64	338.95	3.70	-48.6	-60.0	3.8	1.49e+00	0	54	104	0	58	14701
2026-01-05 12:21:06.63	339.03	3.65	-48.6	-60.0	3.8	1.49e+00	0	54	104	0	58	14638
2026-01-05 12:21:07.62	339.11	3.60	-48.6	-60.0	3.8	1.49e+00	0	54	104	0	58	14671
2026-01-05 12:21:08.62	339.20	3.54	-48.6	-60.0	3.8	1.49e+00	0	54	104	0	58	14655
2026-01-05 12:21:09.61	339.28	3.49	-48.5	-60.0	3.8	1.49e+00	0	54	104	0	58	14692
2026-01-05 12:21:10.59	339.36	3.43	-48.5	-60.0	3.8	1.49e+00	0	54	104	0	58	14688
2026-01-05 12:21:11.57	339.45	3.38	-48.6	-60.0	3.8	1.49e+00	0	55	104	0	58	14656
2026-01-05 12:21:12.56	339.53	3.33	-48.5	-60.0	3.8	1.49e+00	0	54	104	0	58	14654
2026-01-05 12:21:13.55	339.61	3.27	-48.6	-60.0	3.8	1.49e+00	0	54	104	0	58	14662
2026-01-05 12:21:14.54	339.69	3.22	-48.6	-60.0	3.8	1.49e+00	0	55	104	0	58	14636
2026-01-05 12:21:15.52	339.77	3.17	-48.6	-60.0	3.8	1.49e+00	0	54	104	0	58	14694
2026-01-05 12:21:16.50	339.86	3.11	-48.5	-60.0	3.8	1.49e+00	0	55	104	0	58	14630
2026-01-05 12:21:17.49	339.94	3.06	-48.5	-60.0	3.8	1.49e+00	0	55	104	0	58	14680
2026-01-05 12:21:18.48	340.02	3.01	-48.5	-60.0	3.8	1.49e+00	0	55	104	0	58	14652
2026-01-05 12:21:19.46	340.10	2.95	-48.5	-60.0	3.8	1.49e+00	0	55	104	0	58	14654

#Closed at: 2026-01-05 12:21:19
#Recorded file [0 MB]: D:/Data/31026_260105_151839.dat	-60.0	3.8	1.49e+00	0	53	104	0	58	14634
2026-01-05 12:20:15.22	334.23	6.53	-48.4	-60.0	3.8	1.49e+00	0	53	104	0	58	14635
2026-01-05 12:20:16.20	334.33	6.47	-48.5	-60.0	3.8	1.49e+00	0	53	104	0	58	14644
2026-01-05 12:20:17.18	334.43	6.42	-48.6	-60.0	3.8	1.49e+00	0	53	104	0	58	14670
2026-01-05 12:20:18.18	334.54	6.36	-48.5	-60.0	3.8	1.49e+00	0	53	104	0	58	14639
2026-01-05 12:20:19.16	334.63	6.30	-48.6	-60.0	3.8	1.49e+00	0	54	104	0	58	14667
2026-01-05 12:20:20.14	334.73	6.25	-48.5	-60.0	3.8	1.49e+00	0	53	104	0	58	14638
2026-01-05 12:20:21.13	334.83	6.19	-48.6	-60.0	3.8	1.49e+00	0	53	104	0	58	14660
2026-01-05 12:20:22.12	334.93	6.13	-48.5	-60.0	3.8	1.49e+00	0	53	104	0	58	14653
2026-01-05 12:20:23.11	335.03	6.08	-48.5	-60.0	3.8	1.49e+00	0	54	104	0	58	14692
2026-01-05 12:20:24.10	335.13	6.02	-48.6	-60.0	3.8	1.49e+00	0	54	104	0	58	14662
2026-01-05 12:20:25.09	335.23	5.97	-48.6	-60.0	3.8	1.49e+00	0	54	104	0	58	14655
2026-01-05 12:20:26.08	335.32	5.91	-48.5	-60.0	3.8	1.49e+00	0	53	104	0	58	14672
2026-01-05 12:20:27.06	335.42	5.85	-48.5	-60.0	3.8	1
