passes_logs/2026/01/05/R3.0SM8_Murmansk_STILSPACE/R3.0SM8_Murmansk_STILSPACE__20260105_065927_FENGYUN_3D_rec.log

#Pass ID: 20260105_065927_FENGYUN 3D
#Satellite: FENGYUN 3D
#Configuration: FENGYUN 3D
#almurnet v.1.7.20240730
#Start time: 2026-01-05 06:59:29

#Version: 2.2.20231116
#Station: R3.0SM8_Murmansk_STILSPACE
#Location: 33.092731 lon 68.902999 lat
#TLE: 1 43010U 17072A   26004.50247883 -.00000063  00000+0 -78815-5 0  9998
#TLE: 2 43010  98.9915 336.1565 0001968 126.3752 233.7605 14.19691805421760

#Time	Az	El	Level	Level2	SNR	BER	BlckErr	Temp	State	Recorded	gain1	gain2
2026-01-05 06:59:29.26	58.36	3.09	-52.4	-63.1	3.8	8.46e-01	0	46	0	0	66	13169
2026-01-05 06:59:32.22	58.16	3.26	-52.0	-62.7	3.8	8.46e-01	0	46	104	0	67	11919
2026-01-05 06:59:35.20	57.96	3.44	-51.5	-62.2	3.8	8.47e-01	0	47	104	0	66	11896
2026-01-05 06:59:38.17	57.75	3.61	-51.5	-62.1	3.8	8.46e-01	0	47	104	0	65	12513
2026-01-05 06:59:41.15	57.54	3.79	-51.4	-62.1	3.8	8.46e-01	0	47	104	0	65	12402
2026-01-05 06:59:44.12	57.33	3.97	-51.4	-62.1	3.8	8.47e-01	0	47	104	0	65	12499
2026-01-05 06:59:47.10	57.11	4.15	-51.4	-62.2	3.8	8.46e-01	0	48	104	0	65	12526
2026-01-05 06:59:50.07	56.89	4.32	-51.3	-61.6	3.8	8.45e-01	0	48	104	0	65	11815
2026-01-05 06:59:53.04	56.67	4.50	-51.1	-59.7	4.0	8.46e-01	0	48	104	0	65	9465
2026-01-05 06:59:56.01	56.45	4.68	-50.6	-56.8	4.9	7.93e-01	0	48	0	0	64	7186
2026-01-05 06:59:58.96	56.23	4.86	-49.7	-54.1	7.0	2.19e-01	0	48	0	10485760	62	5890
2026-01-05 07:00:01.94	56.00	5.05	-49.0	-52.3	8.7	4.92e-02	0	48	0	27262976	61	5071
2026-01-05 07:00:04.91	55.77	5.23	-49.0	-52.2	8.8	3.79e-02	0	48	0	42991616	61	5006
2026-01-05 07:00:07.89	55.53	5.41	-48.7	-51.7	9.4	2.25e-02	0	49	0	60817408	60	4992
2026-01-05 07:00:10.85	55.29	5.60	-48.8	-51.8	9.3	2.87e-02	0	49	0	76546048	60	5084
2026-01-05 07:00:13.83	55.05	5.78	-47.3	-49.4	11.8	8.04e-04	0	49	0	93323264	57	4561
2026-01-05 07:00:16.80	54.81	5.97	-46.3	-47.9	13.3	6.75e-05	0	49	0	110100480	55	4315
2026-01-05 07:00:19.78	54.56	6.16	-45.2	-46.5	14.7	0.00e+00	0	50	0	126877696	53	4108
2026-01-05 07:00:22.76	54.31	6.34	-44.8	-46.0	15.2	1.10e-06	0	50	0	143654912	52	4107
2026-01-05 07:00:25.73	54.05	6.53	-44.9	-46.1	15.1	0.00e+00	0	50	0	160432128	52	4189
2026-01-05 07:00:28.68	53.80	6.72	-44.8	-46.0	15.2	0.00e+00	0	50	0	177209344	52	4128
2026-01-05 07:00:31.66	53.53	6.91	-45.0	-46.3	15.0	0.00e+00	0	50	0	193986560	52	4265
2026-01-05 07:00:34.62	53.27	7.10	-44.9	-46.2	15.1	0.00e+00	0	50	0	210763776	52	4214
2026-01-05 07:00:37.59	53.00	7.29	-44.8	-46.1	15.2	0.00e+00	0	50	0	227540992	52	4148
2026-01-05 07:00:40.56	52.73	7.48	-44.9	-46.2	15.2	0.00e+00	0	51	0	244318208	52	4211
2026-01-05 07:00:43.51	52.45	7.68	-44.5	-45.7	15.7	0.00e+00	0	51	0	261095424	52	3985
2026-01-05 07:00:46.48	52.17	7.87	-44.6	-45.7	15.8	0.00e+00	0	51	0	277872640	51	4223
2026-01-05 07:00:49.44	51.89	8.06	-44.3	-45.4	16.1	0.00e+00	0	51	0	293601280	51	4078
2026-01-05 07:00:52.39	51.61	8.26	-44.5	-45.6	15.9	0.00e+00	0	51	0	310378496	51	4182
2026-01-05 07:00:55.35	51.32	8.45	-44.5	-45.6	15.9	0.00e+00	0	51	0	327155712	51	4175
2026-01-05 07:00:58.32	51.02	8.65	-44.8	-45.9	15.7	0.00e+00	0	51	0	343932928	51	4323
2026-01-05 07:01:01.30	50.72	8.85	-44.5	-45.6	16.0	0.00e+00	0	51	0	360710144	51	4191
2026-01-05 07:01:04.26	50.42	9.05	-44.7	-45.8	15.8	0.00e+00	0	51	0	377487360	51	4269
2026-01-05 07:01:07.24	50.11	9.25	-44.2	-45.3	16.3	0.00e+00	0	52	0	394264576	51	4019
2026-01-05 07:01:10.21	49.79	9.45	-44.5	-45.6	16.0	0.00e+00	0	52	0	411041792	51	4174
2026-01-05 07:01:13.17	49.48	9.65	-44.3	-45.4	16.3	0.00e+00	0	52	0	427819008	51	4064
2026-01-05 07:01:16.14	49.16	9.85	-44.5	-45.6	16.0	0.00e+00	0	52	0	444596224	51	4154
2026-01-05 07:01:19.11	48.83	10.05	-44.4	-45.5	16.2	0.00e+00	0	52	0	461373440	51	4115
2026-01-05 07:01:22.07	48.50	10.26	-44.1	-45.1	16.6	0.00e+00	0	52	0	478150656	51	3917
2026-01-05 07:01:25.04	48.16	10.46	-44.1	-45.1	16.6	0.00e+00	0	52	0	493879296	50	4158
2026-01-05 07:01:28.01	47.82	10.67	-43.7	-44.6	17.1	0.00e+00	0	52	0	510656512	50	3945
2026-01-05 07:01:30.97	47.48	10.87	-43.7	-44.6	17.1	0.00e+00	0	52	0	527433728	50	3949
2026-01-05 07:01:33.94	47.13	11.08	-43.7	-44.7	17.1	0.00e+00	0	52	0	544210944	50	3974
2026-01-05 07:01:36.91	46.77	11.28	-44.0	-45.0	16.8	0.00e+00	0	52	0	560988160	50	4109
2026-01-05 07:01:39.88	46.41	11.49	-43.7	-44.6	17.2	0.00e+00	0	53	0	577765376	50	3942
2026-01-05 07:01:42.84	46.04	11.70	-43.8	-44.7	17.1	0.00e+00	0	53	0	594542592	50	3978
2026-01-05 07:01:45.80	45.67	11.91	-43.6	-44.5	17.2	0.00e+00	0	53	0	611319808	50	3910
2026-01-05 07:01:48.77	45.30	12.12	-43.3	-44.2	17.6	0.00e+00	0	53	0	628097024	49	3985
2026-01-05 07:01:51.74	44.91	12.33	-43.6	-44.4	17.3	0.00e+00	0	53	0	644874240	49	4095
2026-01-05 07:01:54.71	44.53	12.54	-43.6	-44.6	17.3	0.00e+00	0	53	0	660602880	49	4148
2026-01-05 07:01:57.67	44.13	12.75	-43.4	-44.3	17.5	0.00e+00	0	53	0	678428672	49	4028
2026-01-05 07:02:00.64	43.73	12.96	-43.2	-44.1	17.7	0.00e+00	0	53	0	694157312	49	3929
2026-01-05 07:02:03.62	43.33	13.17	-43.4	-44.2	17.5	0.00e+00	0	53	0	710934528	49	3988
2026-01-05 07:02:06.58	42.91	13.38	-43.0	-43.8	18.0	0.00e+00	0	53	0	727711744	48	4029
2026-01-05 07:02:09.54	42.50	13.59	-42.9	-43.8	18.1	0.00e+00	0	53	0	744488960	48	4007
2026-01-05 07:02:12.51	42.07	13.81	-43.1	-43.9	17.9	0.00e+00	0	53	0	761266176	48	4080
2026-01-05 07:02:15.47	41.65	14.02	-43.2	-44.1	17.7	0.00e+00	0	54	0	778043392	48	4158
2026-01-05 07:02:18.44	41.21	14.23	-43.2	-44.1	17.8	0.00e+00	0	54	0	794820608	48	4169
2026-01-05 07:02:21.40	40.77	14.45	-43.3	-44.2	17.7	0.00e+00	0	54	0	811597824	48	4197
2026-01-05 07:02:24.36	40.32	14.66	-42.9	-43.7	18.2	0.00e+00	0	54	0	828375040	48	3969
2026-01-05 07:02:27.32	39.86	14.87	-42.6	-43.3	18.5	0.00e+00	0	54	0	845152256	48	3824
2026-01-05 07:02:30.26	39.41	15.08	-42.6	-43.4	18.4	0.00e+00	0	54	0	860880896	48	3841
2026-01-05 07:02:33.24	38.94	15.30	-42.3	-43.0	18.6	0.00e+00	0	54	0	877658112	47	3893
2026-01-05 07:02:36.20	38.46	15.51	-42.5	-43.3	18.5	0.00e+00	0	54	0	894435328	47	4020
2026-01-05 07:02:39.17	37.98	15.72	-42.7	-43.5	18.2	0.00e+00	0	54	0	911212544	47	4113
2026-01-05 07:02:42.15	37.48	15.94	-42.7	-43.6	18.2	0.00e+00	0	54	0	927989760	47	4151
2026-01-05 07:02:45.12	36.99	16.15	-42.8	-43.6	18.1	0.00e+00	0	54	0	944766976	47	4152
2026-01-05 07:02:48.09	36.48	16.36	-42.6	-43.4	18.4	0.00e+00	0	54	0	961544192	47	4069
2026-01-05 07:02:51.05	35.97	16.57	-42.2	-42.9	18.8	0.00e+00	0	54	0	978321408	47	3847
2026-01-05 07:02:54.03	35.45	16.78	-42.3	-43.1	18.7	0.00e+00	0	54	0	995098624	47	3934
2026-01-05 07:02:57.01	34.92	17.00	-42.5	-43.3	18.5	0.00e+00	0	54	0	1011875840	47	4044
2026-01-05 07:02:59.97	34.39	17.21	-42.6	-43.4	18.3	0.00e+00	0	54	0	1028653056	47	4084
2026-01-05 07:03:02.94	33.85	17.41	-42.9	-43.7	18.1	0.00e+00	0	55	0	1045430272	47	4222
2026-01-05 07:03:05.91	33.30	17.62	-42.8	-43.6	18.3	0.00e+00	0	55	0	1061158912	48	3934
2026-01-05 07:03:08.87	32.74	17.83	-42.3	-43.0	18.7	0.00e+00	0	55	0	1078984704	47	3903
2026-01-05 07:03:11.83	32.18	18.03	-42.1	-42.8	19.0	0.00e+00	0	55	0	1094713344	47	3804
2026-01-05 07:03:14.81	31.60	18.24	-42.3	-43.1	18.7	0.00e+00	0	55	0	1111490560	47	3919
2026-01-05 07:03:17.78	31.02	18.44	-41.5	-42.2	19.5	0.00e+00	0	55	0	1128267776	46	3744
2026-01-05 07:03:20.74	30.43	18.64	-41.2	-41.9	19.9	0.00e+00	0	55	0	1145044992	45	3845
2026-01-05 07:03:23.70	29.84	18.84	-41.2	-41.9	19.9	0.00e+00	0	55	0	1161822208	45	3834
2026-01-05 07:03:26.67	29.23	19.04	-41.5	-42.1	19.6	0.00e+00	0	55	0	1178599424	45	3946
2026-01-05 07:03:29.63	28.62	19.24	-41.3	-41.9	19.8	0.00e+00	0	55	0	1195376640	45	3858
2026-01-05 07:03:32.60	28.00	19.43	-41.3	-42.0	19.7	0.00e+00	0	55	0	1212153856	45	3891
2026-01-05 07:03:35.57	27.37	19.63	-41.4	-42.0	19.6	0.00e+00	0	55	0	1228931072	45	3913
2026-01-05 07:03:38.53	26.74	19.82	-41.4	-42.0	19.7	0.00e+00	0	55	0	1245708288	45	3912
2026-01-05 07:03:41.49	26.10	20.00	-41.2	-41.9	19.9	0.00e+00	0	55	0	1261436928	45	3838
2026-01-05 07:03:44.47	25.44	20.19	-41.6	-42.2	19.5	0.00e+00	0	55	0	1279262720	45	3992
2026-01-05 07:03:47.44	24.78	20.37	-41.2	-41.8	19.9	0.00e+00	0	55	0	1294991360	45	3814
2026-01-05 07:03:50.40	24.11	20.55	-41.3	-42.0	19.8	0.00e+00	0	55	0	1311768576	45	3880
2026-01-05 07:03:53.38	23.44	20.73	-41.4	-42.1	19.7	0.00e+00	0	55	0	1328545792	45	3922
2026-01-05 07:03:56.35	22.75	20.91	-41.7	-42.4	19.3	0.00e+00	0	55	0	1345323008	45	4082
2026-01-05 07:03:59.33	22.06	21.08	-42.0	-42.7	19.1	0.00e+00	0	55	0	1362100224	46	3975
2026-01-05 07:04:02.31	21.35	21.25	-41.8	-42.5	19.4	0.00e+00	0	56	0	1378877440	46	3880
2026-01-05 07:04:05.27	20.65	21.41	-41.6	-42.3	19.5	0.00e+00	0	55	0	1395654656	46	3795
2026-01-05 07:04:08.23	19.93	21.57	-41.0	-41.6	20.1	0.00e+00	0	56	0	1412431872	45	3722
2026-01-05 07:04:11.19	19.21	21.73	-41.1	-41.7	20.0	0.00e+00	0	56	0	1429209088	44	3987
2026-01-05 07:04:14.15	18.49	21.88	-41.0	-41.7	20.1	0.00e+00	0	56	0	1445986304	44	3968
2026-01-05 07:04:17.11	17.75	22.03	-41.1	-41.7	20.0	0.00e+00	0	56	0	1461714944	44	3983
2026-01-05 07:04:20.08	17.01	22.17	-41.1	-41.7	20.0	0.00e+00	0	56	0	1478492160	44	3997
2026-01-05 07:04:23.04	16.26	22.31	-40.8	-41.4	20.3	0.00e+00	0	56	0	1495269376	44	3850
2026-01-05 07:04:26.01	15.50	22.45	-40.5	-41.1	20.6	0.00e+00	0	56	0	1512046592	44	3737
2026-01-05 07:04:28.97	14.74	22.58	-40.7	-41.3	20.4	0.00e+00	0	56	0	1528823808	44	3790
2026-01-05 07:04:31.93	13.97	22.70	-40.8	-41.4	20.4	0.00e+00	0	56	0	1545601024	44	3842
2026-01-05 07:04:34.90	13.19	22.82	-40.8	-41.4	20.3	0.00e+00	0	56	0	1562378240	44	3865
2026-01-05 07:04:37.87	12.41	22.94	-40.5	-41.0	20.6	0.00e+00	0	56	0	1579155456	44	3687
2026-01-05 07:04:40.84	11.62	23.05	-40.6	-41.2	20.5	0.00e+00	0	56	0	1595932672	44	3770
2026-01-05 07:04:43.81	10.83	23.16	-40.5	-41.1	20.4	0.00e+00	0	56	0	1612709888	44	3730
2026-01-05 07:04:46.75	10.03	23.25	-40.4	-41.0	20.1	0.00e+00	0	56	0	1628438528	43	3900
2026-01-05 07:04:49.72	9.23	23.35	-41.5	-42.2	18.6	0.00e+00	0	56	0	1646264320	44	4230
2026-01-05 07:04:52.68	8.42	23.44	-42.8	-43.7	17.1	0.00e+00	0	56	0	1661992960	47	4204
2026-01-05 07:04:55.64	7.61	23.52	-44.2	-45.3	15.5	0.00e+00	0	56	0	1678770176	50	4277
2026-01-05 07:04:58.61	6.79	23.59	-44.5	-45.7	15.1	0.00e+00	0	56	0	1695547392	51	4214
2026-01-05 07:05:01.58	5.97	23.66	-43.8	-44.7	16.6	0.00e+00	0	56	0	1712324608	50	3994
2026-01-05 07:05:04.54	5.15	23.73	-44.2	-45.2	16.5	0.00e+00	0	56	0	1729101824	50	4202
2026-01-05 07:05:07.51	4.32	23.78	-46.0	-47.7	13.1	1.94e-05	0	56	0	1745879040	53	4755
2026-01-05 07:05:10.48	3.49	23.84	-45.4	-47.0	13.5	5.72e-05	0	56	0	1762656256	54	4135
2026-01-05 07:05:13.45	2.66	23.88	-44.4	-45.6	15.5	0.00e+00	0	56	0	1779433472	51	4175
2026-01-05 07:05:16.41	1.82	23.92	-43.9	-44.8	17.0	0.00e+00	0	56	0	1795162112	51	3794
2026-01-05 07:05:19.38	0.98	23.95	-43.8	-44.7	17.3	0.00e+00	0	56	0	1812987904	50	3999
2026-01-05 07:05:22.35	0.14	23.97	-43.3	-44.1	17.9	0.00e+00	0	56	0	1828716544	49	3948
2026-01-05 07:05:25.31	359.31	23.99	-43.2	-44.0	18.0	0.00e+00	0	56	0	1845493760	49	3881
2026-01-05 07:05:28.27	358.47	24.00	-41.1	-41.7	20.0	0.00e+00	0	56	0	1862270976	45	3777
2026-01-05 07:05:31.24	357.63	24.01	-40.1	-40.7	21.0	0.00e+00	0	56	0	1879048192	43	3746
2026-01-05 07:05:34.20	356.79	24.01	-40.1	-40.7	21.0	0.00e+00	0	56	0	1895825408	43	3747
2026-01-05 07:05:37.17	355.94	24.00	-40.1	-40.7	21.0	0.00e+00	0	56	0	1912602624	43	3748
2026-01-05 07:05:40.14	355.10	23.98	-40.2	-40.7	20.9	0.00e+00	0	57	0	1929379840	43	3773
2026-01-05 07:05:43.10	354.27	23.96	-40.4	-41.0	20.6	0.00e+00	0	56	0	1946157056	43	3879
2026-01-05 07:05:46.07	353.43	23.93	-40.1	-40.7	20.9	0.00e+00	0	56	0	1962934272	43	3762
2026-01-05 07:05:49.03	352.59	23.90	-40.1	-40.7	20.9	0.00e+00	0	56	0	1979711488	43	3747
2026-01-05 07:05:52.00	351.76	23.85	-40.0	-40.6	21.1	0.00e+00	0	56	0	1995440128	43	3698
2026-01-05 07:05:54.96	350.93	23.81	-40.0	-40.5	21.1	0.00e+00	0	56	0	2012217344	43	3691
2026-01-05 07:05:57.93	350.10	23.75	-40.0	-40.5	21.1	0.00e+00	0	56	0	2028994560	43	3681
2026-01-05 07:06:00.89	349.27	23.69	-40.2	-40.7	20.8	0.00e+00	0	56	0	2045771776	43	3780
2026-01-05 07:06:03.87	348.45	23.62	-40.1	-40.7	20.9	0.00e+00	0	57	0	2062548992	43	3746
2026-01-05 07:06:06.84	347.63	23.55	-40.2	-40.7	20.9	0.00e+00	0	56	0	2079326208	43	3776
2026-01-05 07:06:09.80	346.82	23.47	-40.2	-40.8	20.8	0.00e+00	0	57	0	2096103424	43	3808
2026-01-05 07:06:12.76	346.01	23.38	-40.2	-40.8	20.8	0.00e+00	0	56	0	2112880640	43	3813
2026-01-05 07:06:15.73	345.20	23.29	-40.1	-40.7	20.9	0.00e+00	0	57	0	2129657856	43	3749
2026-01-05 07:06:18.70	344.40	23.19	-40.2	-40.8	20.8	0.00e+00	0	57	0	2146435072	43	3805
2026-01-05 07:06:21.66	343.60	23.09	-40.2	-40.7	20.9	0.00e+00	0	57	0	2163212288	43	3780
2026-01-05 07:06:24.64	342.81	22.98	-40.0	-40.6	21.0	0.00e+00	0	57	0	2179989504	43	3714
2026-01-05 07:06:27.61	342.02	22.87	-40.1	-40.7	20.9	0.00e+00	0	57	0	2195718144	42	3975
2026-01-05 07:06:30.56	341.25	22.75	-40.2	-40.8	20.7	0.00e+00	0	57	0	2212495360	42	4039
2026-01-05 07:06:33.55	340.47	22.63	-40.2	-40.8	20.8	0.00e+00	0	57	0	2229272576	42	4022
2026-01-05 07:06:36.52	339.70	22.50	-39.9	-40.5	21.1	0.00e+00	0	57	0	2246049792	42	3872
2026-01-05 07:06:39.48	338.95	22.36	-40.2	-40.8	20.7	0.00e+00	0	57	0	2262827008	42	4022
2026-01-05 07:06:42.45	338.19	22.23	-40.2	-40.8	20.8	0.00e+00	0	57	0	2279604224	42	4015
2026-01-05 07:06:45.42	337.44	22.08	-40.7	-41.4	20.1	0.00e+00	0	57	0	2296381440	43	4063
2026-01-05 07:06:48.40	336.70	21.93	-41.3	-42.0	19.5	0.00e+00	0	57	0	2313158656	44	4100
2026-01-05 07:06:51.37	335.97	21.78	-42.2	-43.0	18.4	0.00e+00	0	57	0	2329935872	46	4110
2026-01-05 07:06:54.33	335.25	21.63	-43.1	-44.0	17.3	0.00e+00	0	57	0	2346713088	47	4343
2026-01-05 07:06:57.31	334.52	21.47	-42.9	-43.8	17.4	0.00e+00	0	57	0	2363490304	48	4031
2026-01-05 07:07:00.28	333.81	21.30	-43.2	-44.1	17.3	0.00e+00	0	57	0	2380267520	48	4165
2026-01-05 07:07:03.25	333.11	21.14	-42.3	-43.1	18.5	0.00e+00	0	57	0	2397044736	47	3916
2026-01-05 07:07:06.21	332.42	20.97	-42.1	-42.8	19.0	0.00e+00	0	57	0	2413821952	47	3822
2026-01-05 07:07:09.18	331.73	20.79	-42.4	-43.1	18.7	0.00e+00	0	57	0	2430599168	47	3952
2026-01-05 07:07:12.15	331.05	20.62	-42.3	-43.0	18.8	0.00e+00	0	57	0	2446327808	47	3907
2026-01-05 07:07:15.11	330.38	20.44	-41.3	-42.0	19.8	0.00e+00	0	57	0	2463105024	45	3884
2026-01-05 07:07:18.07	329.72	20.26	-41.8	-42.5	19.4	0.00e+00	0	57	0	2479882240	45	4102
2026-01-05 07:07:21.04	329.06	20.07	-41.7	-42.4	19.4	0.00e+00	0	57	0	2496659456	45	4060
2026-01-05 07:07:24.00	328.42	19.89	-41.6	-42.2	19.6	0.00e+00	0	57	0	2513436672	45	3989
2026-01-05 07:07:26.97	327.78	19.70	-41.6	-42.2	19.6	0.00e+00	0	57	0	2530213888	46	3778
2026-01-05 07:07:29.92	327.15	19.50	-41.1	-41.8	20.0	0.00e+00	0	57	0	2546991104	45	3793
2026-01-05 07:07:32.89	326.52	19.31	-41.4	-42.1	19.6	0.00e+00	0	57	0	2563768320	45	3936
2026-01-05 07:07:35.86	325.91	19.11	-41.4	-42.1	19.7	0.00e+00	0	57	0	2580545536	45	3917
2026-01-05 07:07:38.82	325.30	18.92	-41.6	-42.3	19.5	0.00e+00	0	57	0	2597322752	45	4006
2026-01-05 07:07:41.79	324.70	18.72	-41.5	-42.2	19.6	0.00e+00	0	57	0	2613051392	45	3981
2026-01-05 07:07:44.76	324.11	18.52	-41.3	-41.9	19.8	0.00e+00	0	57	0	2629828608	45	3852
2026-01-05 07:07:47.73	323.53	18.31	-41.3	-42.0	19.8	0.00e+00	0	57	0	2646605824	45	3878
2026-01-05 07:07:50.69	322.95	18.11	-41.3	-41.9	19.8	0.00e+00	0	57	0	2663383040	45	3851
2026-01-05 07:07:53.66	322.38	17.90	-41.4	-42.0	19.7	0.00e+00	0	57	0	2680160256	45	3900
2026-01-05 07:07:56.62	321.82	17.70	-41.5	-42.2	19.5	0.00e+00	0	57	0	2696937472	45	3986
2026-01-05 07:07:59.58	321.27	17.49	-41.6	-42.2	19.5	0.00e+00	0	57	0	2713714688	45	4002
2026-01-05 07:08:02.55	320.73	17.28	-41.6	-42.3	19.4	0.00e+00	0	57	0	2730491904	45	4030
2026-01-05 07:08:05.52	320.19	17.07	-41.4	-42.0	19.7	0.00e+00	0	57	0	2747269120	45	3907
2026-01-05 07:08:08.49	319.66	16.86	-41.6	-42.3	19.5	0.00e+00	0	57	0	2764046336	45	4006
2026-01-05 07:08:11.46	319.14	16.65	-41.4	-42.1	19.6	0.00e+00	0	57	0	2780823552	45	3935
2026-01-05 07:08:14.43	318.62	16.44	-41.6	-42.3	19.4	0.00e+00	0	57	0	2797600768	45	4043
2026-01-05 07:08:17.38	318.12	16.23	-41.9	-42.6	19.1	0.00e+00	0	57	0	2813329408	45	4183
2026-01-05 07:08:20.35	317.62	16.01	-42.2	-42.9	18.8	0.00e+00	0	57	0	2830106624	46	4081
2026-01-05 07:08:23.32	317.12	15.80	-41.9	-42.7	19.1	0.00e+00	0	57	0	2846883840	46	3960
2026-01-05 07:08:26.29	316.64	15.59	-42.1	-42.9	18.9	0.00e+00	0	57	0	2863661056	46	4056
2026-01-05 07:08:29.25	316.16	15.38	-41.9	-42.6	19.1	0.00e+00	0	57	0	2880438272	46	3941
2026-01-05 07:08:32.22	315.69	15.16	-42.0	-42.7	19.0	0.00e+00	0	57	0	2897215488	46	3987
2026-01-05 07:08:35.19	315.22	14.95	-42.3	-43.0	18.7	0.00e+00	0	57	0	2913992704	46	4134
2026-01-05 07:08:38.16	314.76	14.73	-42.2	-43.0	18.8	0.00e+00	0	57	0	2930769920	46	4102
2026-01-05 07:08:41.13	314.31	14.52	-42.6	-43.4	18.4	0.00e+00	0	57	0	2947547136	46	4296
2026-01-05 07:08:44.10	313.86	14.31	-42.6	-43.3	18.4	0.00e+00	0	57	0	2964324352	46	4289
2026-01-05 07:08:47.07	313.42	14.09	-42.5	-43.2	18.5	0.00e+00	0	57	0	2981101568	47	3994
2026-01-05 07:08:50.02	312.99	13.88	-42.4	-43.2	18.5	0.00e+00	0	57	0	2997878784	47	3976
2026-01-05 07:08:52.98	312.57	13.67	-42.5	-43.2	18.5	0.00e+00	0	57	0	3013607424	47	3989
2026-01-05 07:08:55.95	312.15	13.46	-42.6	-43.3	18.3	0.00e+00	0	57	0	3030384640	47	4047
2026-01-05 07:08:58.91	311.73	13.25	-42.8	-43.6	18.1	0.00e+00	0	57	0	3047161856	47	4163
2026-01-05 07:09:01.89	311.33	13.03	-42.9	-43.7	18.0	0.00e+00	0	57	0	3063939072	47	4216
2026-01-05 07:09:04.85	310.92	12.82	-43.1	-43.9	17.8	0.00e+00	0	57	0	3080716288	47	4322
2026-01-05 07:09:07.82	310.53	12.61	-43.0	-43.9	18.0	0.00e+00	0	57	0	3097493504	48	4057
2026-01-05 07:09:10.77	310.14	12.40	-43.4	-44.3	17.5	0.00e+00	0	57	0	3114270720	48	4260
2026-01-05 07:09:13.74	309.75	12.19	-43.4	-44.2	17.6	0.00e+00	0	57	0	3131047936	48	4220
2026-01-05 07:09:16.71	309.37	11.98	-43.2	-44.0	17.8	0.00e+00	0	57	0	3147825152	48	4108
2026-01-05 07:09:19.68	309.00	11.77	-43.3	-44.1	17.7	0.00e+00	0	57	0	3164602368	48	4188
2026-01-05 07:09:22.64	308.63	11.56	-43.3	-44.1	17.7	0.00e+00	0	57	0	3180331008	48	4191
2026-01-05 07:09:25.61	308.27	11.36	-43.2	-44.0	17.7	0.00e+00	0	57	0	3197108224	48	4140
2026-01-05 07:09:28.57	307.91	11.15	-43.4	-44.3	17.5	0.00e+00	0	57	0	3213885440	48	4260
2026-01-05 07:09:31.54	307.56	10.94	-43.7	-44.6	17.1	0.00e+00	0	57	0	3230662656	49	4170
2026-01-05 07:09:34.51	307.21	10.74	-43.9	-44.8	16.9	0.00e+00	0	57	0	3247439872	49	4277
2026-01-05 07:09:37.48	306.87	10.53	-43.9	-44.8	16.9	0.00e+00	0	57	0	3264217088	49	4287
2026-01-05 07:09:40.44	306.53	10.33	-43.7	-44.6	17.1	0.00e+00	0	57	0	3280994304	49	4162
2026-01-05 07:09:43.42	306.20	10.12	-43.7	-44.7	17.0	0.00e+00	0	57	0	3297771520	49	4206
2026-01-05 07:09:46.37	305.87	9.92	-43.9	-44.8	16.8	0.00e+00	0	57	0	3314548736	49	4290
2026-01-05 07:09:49.34	305.55	9.72	-43.7	-44.6	17.0	0.00e+00	0	57	0	3331325952	49	4172
2026-01-05 07:09:52.30	305.23	9.52	-44.0	-45.0	16.7	0.00e+00	0	57	0	3348103168	49	4355
2026-01-05 07:09:55.27	304.91	9.32	-44.3	-45.3	16.3	0.00e+00	0	57	0	3364880384	50	4270
2026-01-05 07:09:58.25	304.60	9.12	-44.4	-45.4	16.2	0.00e+00	0	57	0	3380609024	50	4326
2026-01-05 07:10:01.22	304.30	8.92	-44.6	-45.7	15.8	0.00e+00	0	57	0	3398434816	51	4225
2026-01-05 07:10:04.18	304.00	8.72	-44.8	-46.0	15.5	0.00e+00	0	57	0	3414163456	51	4360
2026-01-05 07:10:07.15	303.70	8.52	-44.5	-45.6	15.8	0.00e+00	0	57	0	3430940672	51	4152
2026-01-05 07:10:10.12	303.41	8.32	-44.9	-46.2	15.1	0.00e+00	0	57	0	3447717888	51	4460
2026-01-05 07:10:13.09	303.12	8.13	-44.8	-46.1	15.1	0.00e+00	0	57	0	3464495104	52	4159
2026-01-05 07:10:16.07	302.83	7.93	-45.1	-46.5	14.6	2.20e-06	0	57	0	3481272320	52	4341
2026-01-05 07:10:19.04	302.55	7.74	-45.4	-46.8	14.0	2.20e-06	0	57	0	3498049536	52	4523
2026-01-05 07:10:22.00	302.27	7.55	-45.7	-47.3	13.5	1.83e-05	0	57	0	3514826752	53	4505
2026-01-05 07:10:24.97	302.00	7.35	-45.9	-47.6	12.9	6.75e-05	0	58	0	3531603968	54	4429
2026-01-05 07:10:27.93	301.73	7.16	-45.9	-47.7	12.7	1.81e-04	0	57	0	3548381184	54	4479
2026-01-05 07:10:30.91	301.46	6.97	-46.2	-48.2	12.1	3.39e-04	0	57	0	3565158400	54	4706
2026-01-05 07:10:33.87	301.20	6.78	-46.3	-48.5	11.6	1.04e-03	0	57	0	3581935616	54	4880
2026-01-05 07:10:36.84	300.94	6.59	-46.7	-49.2	10.6	3.68e-03	0	57	0	3598712832	55	5001
2026-01-05 07:10:39.80	300.69	6.40	-46.8	-49.4	10.2	8.43e-03	0	57	0	3614441472	55	5136
2026-01-05 07:10:42.77	300.43	6.21	-47.2	-50.2	9.4	1.92e-02	0	57	0	3631218688	56	5304
2026-01-05 07:10:45.75	300.18	6.03	-47.4	-50.8	8.5	4.59e-02	0	58	0	3647995904	56	5709
2026-01-05 07:10:48.71	299.94	5.84	-47.5	-51.2	7.9	9.08e-02	0	57	0	3664773120	57	5632
2026-01-05 07:10:51.68	299.70	5.66	-47.8	-52.1	6.9	1.61e-01	0	57	0	3681550336	57	6259
2026-01-05 07:10:54.66	299.46	5.47	-47.7	-52.3	6.6	2.08e-01	0	58	0	3698327552	57	6359
2026-01-05 07:10:57.62	299.22	5.29	-48.1	-53.5	5.6	4.45e-01	0	58	0	3715104768	58	6887
2026-01-05 07:11:00.59	298.99	5.10	-48.2	-54.3	5.1	7.50e-01	0	57	0	3720347648	58	7545
2026-01-05 07:11:03.56	298.76	4.92	-51.7	-62.5	3.8	8.45e-01	0	58	104	3720347648	65	13011
2026-01-05 07:11:06.53	298.53	4.74	-51.2	-62.0	3.8	8.46e-01	0	58	104	3720347648	65	12298
2026-01-05 07:11:09.51	298.30	4.56	-52.3	-63.1	3.8	8.45e-01	0	58	104	3720347648	66	13159
2026-01-05 07:11:12.48	298.08	4.38	-52.5	-63.2	3.8	8.46e-01	0	58	104	3720347648	66	13382
2026-01-05 07:11:15.44	297.86	4.20	-52.6	-63.3	3.8	8.46e-01	0	57	104	3720347648	67	12747
2026-01-05 07:11:18.40	297.65	4.02	-52.6	-63.4	3.8	8.47e-01	0	58	104	3720347648	67	12814
2026-01-05 07:11:21.36	297.44	3.85	-52.6	-63.4	3.8	8.46e-01	0	57	104	3720347648	67	12887
2026-01-05 07:11:24.32	297.23	3.67	-52.7	-63.4	3.8	8.47e-01	0	57	104	3720347648	67	12847
2026-01-05 07:11:27.30	297.02	3.49	-52.6	-63.4	3.8	8.46e-01	0	58	104	3720347648	67	12917
2026-01-05 07:11:30.27	296.81	3.32	-52.5	-63.4	3.8	8.46e-01	0	58	104	3720347648	67	12861
2026-01-05 07:11:33.24	296.61	3.14	-52.4	-63.4	3.8	8.46e-01	0	58	104	3720347648	67	12845
2026-01-05 07:11:36.21	296.41	2.97	-52.5	-63.4	3.8	8.47e-01	0	57	104	3720347648	67	12875

#Closed at: 2026-01-05 07:11:37
#Recorded file [3720 MB]: D:/Data/31026_260105_101102.dat