passes_logs/2026/01/05/R3.0SM8_Murmansk_STILSPACE/R3.0SM8_Murmansk_STILSPACE__20260105_034005_FENGYUN_3D_rec.log

#Pass ID: 20260105_034005_FENGYUN 3D
#Satellite: FENGYUN 3D
#Configuration: FENGYUN 3D
#almurnet v.1.7.20240730
#Start time: 2026-01-05 03:40:07

#Version: 2.2.20231116
#Station: R3.0SM8_Murmansk_STILSPACE
#Location: 33.092731 lon 68.902999 lat
#TLE: 1 43010U 17072A   26004.50247883 -.00000063  00000+0 -78815-5 0  9998
#TLE: 2 43010  98.9915 336.1565 0001968 126.3752 233.7605 14.19691805421760

#Time	Az	El	Level	Level2	SNR	BER	BlckErr	Temp	State	Recorded	gain1	gain2
2026-01-05 03:40:07.48	28.87	3.15	-52.4	-63.0	3.8	8.46e-01	0	46	0	0	67	12358
2026-01-05 03:40:11.44	28.79	3.41	-51.8	-62.4	3.8	8.46e-01	0	47	104	0	66	12219
2026-01-05 03:40:15.39	28.71	3.68	-51.1	-60.1	3.8	8.45e-01	0	47	104	0	65	9832
2026-01-05 03:40:19.34	28.62	3.94	-50.9	-58.3	4.3	8.35e-01	0	47	0	0	64	8556
2026-01-05 03:40:23.30	28.54	4.21	-50.5	-56.2	5.3	7.27e-01	0	47	0	0	63	7073
2026-01-05 03:40:27.25	28.45	4.48	-49.6	-53.5	7.6	1.30e-01	0	48	0	18874368	62	5476
2026-01-05 03:40:31.21	28.36	4.76	-48.3	-50.9	10.2	9.68e-03	0	48	0	40894464	59	4841
2026-01-05 03:40:35.17	28.26	5.04	-47.1	-49.0	12.1	4.61e-04	0	48	0	62914560	57	4375
2026-01-05 03:40:39.12	28.17	5.32	-46.7	-48.5	12.7	1.56e-04	0	49	0	84934656	56	4375
2026-01-05 03:40:43.08	28.07	5.60	-46.1	-47.6	13.5	2.28e-05	0	49	0	106954752	55	4189
2026-01-05 03:40:47.04	27.97	5.88	-45.6	-47.0	14.2	3.40e-06	0	49	0	130023424	54	4132
2026-01-05 03:40:51.00	27.87	6.17	-44.9	-46.1	15.1	0.00e+00	0	49	0	152043520	52	4168
2026-01-05 03:40:54.96	27.77	6.47	-44.9	-46.2	15.1	0.00e+00	0	49	0	174063616	52	4201
2026-01-05 03:40:58.89	27.66	6.76	-44.9	-46.1	15.2	0.00e+00	0	50	0	196083712	52	4185
2026-01-05 03:41:02.84	27.55	7.06	-44.8	-46.0	15.3	0.00e+00	0	50	0	219152384	52	4142
2026-01-05 03:41:06.80	27.44	7.36	-44.9	-46.1	15.3	0.00e+00	0	50	0	241172480	52	4173
2026-01-05 03:41:10.77	27.33	7.67	-44.7	-45.8	15.6	0.00e+00	0	50	0	263192576	52	4044
2026-01-05 03:41:14.73	27.21	7.98	-44.5	-45.6	16.0	0.00e+00	0	50	0	285212672	51	4153
2026-01-05 03:41:18.68	27.09	8.29	-44.5	-45.5	16.0	0.00e+00	0	51	0	307232768	51	4138
2026-01-05 03:41:22.64	26.97	8.60	-44.2	-45.2	16.3	0.00e+00	0	51	0	330301440	51	4004
2026-01-05 03:41:26.60	26.84	8.93	-44.4	-45.4	16.2	0.00e+00	0	51	0	352321536	51	4092
2026-01-05 03:41:30.54	26.71	9.25	-44.6	-45.7	15.9	0.00e+00	0	51	0	374341632	51	4213
2026-01-05 03:41:34.50	26.58	9.58	-44.1	-45.1	16.5	0.00e+00	0	52	0	396361728	51	3944
2026-01-05 03:41:38.45	26.44	9.91	-44.4	-45.5	16.2	0.00e+00	0	52	0	418381824	51	4115
2026-01-05 03:41:42.40	26.31	10.25	-44.0	-45.0	16.7	0.00e+00	0	52	0	441450496	51	3883
2026-01-05 03:41:46.37	26.16	10.59	-44.1	-45.1	16.6	0.00e+00	0	52	0	463470592	51	3927
2026-01-05 03:41:50.34	26.01	10.94	-44.4	-45.4	16.3	0.00e+00	0	52	0	485490688	51	4090
2026-01-05 03:41:54.30	25.86	11.29	-43.8	-44.8	17.0	0.00e+00	0	52	0	508559360	50	4011
2026-01-05 03:41:58.26	25.71	11.64	-43.6	-44.5	17.3	0.00e+00	0	52	0	530579456	50	3890
2026-01-05 03:42:02.23	25.55	12.00	-43.6	-44.5	17.2	0.00e+00	0	52	0	552599552	50	3906
2026-01-05 03:42:06.18	25.39	12.37	-43.7	-44.6	17.2	0.00e+00	0	53	0	574619648	50	3931
2026-01-05 03:42:10.12	25.22	12.74	-43.9	-44.8	16.9	0.00e+00	0	53	0	596639744	50	4049
2026-01-05 03:42:14.08	25.05	13.12	-43.1	-43.9	17.9	0.00e+00	0	53	0	618659840	49	3846
2026-01-05 03:42:18.03	24.87	13.50	-42.9	-43.8	18.1	0.00e+00	0	53	0	641728512	49	3783
2026-01-05 03:42:21.98	24.69	13.89	-43.1	-43.9	17.9	0.00e+00	0	53	0	663748608	49	3832
2026-01-05 03:42:25.94	24.50	14.28	-42.8	-43.6	18.2	0.00e+00	0	53	0	685768704	48	3930
2026-01-05 03:42:29.87	24.31	14.68	-42.8	-43.6	18.2	0.00e+00	0	53	0	707788800	48	3953
2026-01-05 03:42:33.82	24.11	15.08	-43.0	-43.8	18.1	0.00e+00	0	53	0	729808896	48	4009
2026-01-05 03:42:37.75	23.90	15.49	-42.8	-43.6	18.2	0.00e+00	0	53	0	752877568	48	3949
2026-01-05 03:42:41.70	23.69	15.91	-42.8	-43.6	18.3	0.00e+00	0	53	0	774897664	48	3934
2026-01-05 03:42:45.66	23.48	16.34	-42.1	-42.9	18.9	0.00e+00	0	53	0	796917760	47	3833
2026-01-05 03:42:49.63	23.25	16.77	-42.1	-42.8	18.9	0.00e+00	0	53	0	818937856	47	3794
2026-01-05 03:42:53.60	23.02	17.22	-41.9	-42.6	19.2	0.00e+00	0	54	0	842006528	46	3917
2026-01-05 03:42:57.55	22.78	17.67	-41.9	-42.7	19.1	0.00e+00	0	54	0	864026624	46	3959
2026-01-05 03:43:01.51	22.53	18.12	-41.6	-42.2	19.5	0.00e+00	0	54	0	886046720	46	3776
2026-01-05 03:43:05.47	22.28	18.59	-41.6	-42.2	19.5	0.00e+00	0	54	0	908066816	46	3775
2026-01-05 03:43:09.44	22.01	19.06	-41.4	-42.1	19.6	0.00e+00	0	54	0	931135488	46	3717
2026-01-05 03:43:13.40	21.74	19.54	-41.5	-42.2	19.6	0.00e+00	0	54	0	953155584	46	3759
2026-01-05 03:43:17.36	21.46	20.03	-41.7	-42.4	19.4	0.00e+00	0	54	0	975175680	46	3842
2026-01-05 03:43:21.32	21.17	20.53	-41.4	-42.0	19.7	0.00e+00	0	54	0	997195776	45	3911
2026-01-05 03:43:25.28	20.87	21.04	-41.4	-42.1	19.7	0.00e+00	0	54	0	1019215872	45	3933
2026-01-05 03:43:29.22	20.56	21.56	-41.1	-41.7	20.1	0.00e+00	0	54	0	1042284544	45	3759
2026-01-05 03:43:33.16	20.23	22.08	-40.9	-41.6	20.2	0.00e+00	0	54	0	1064304640	45	3699
2026-01-05 03:43:37.12	19.90	22.62	-41.0	-41.6	20.2	0.00e+00	0	54	0	1086324736	45	3714
2026-01-05 03:43:41.08	19.55	23.17	-40.8	-41.4	20.4	0.00e+00	0	54	0	1108344832	44	3846
2026-01-05 03:43:45.03	19.19	23.73	-40.9	-41.5	20.3	0.00e+00	0	54	0	1131413504	44	3905
2026-01-05 03:43:48.99	18.82	24.30	-40.4	-41.0	20.8	0.00e+00	0	54	0	1153433600	44	3682
2026-01-05 03:43:52.94	18.43	24.88	-40.2	-40.7	20.9	0.00e+00	0	55	0	1175453696	43	3774
2026-01-05 03:43:56.90	18.02	25.47	-40.2	-40.7	20.9	0.00e+00	0	55	0	1197473792	43	3779
2026-01-05 03:44:00.86	17.60	26.07	-40.0	-40.6	21.1	0.00e+00	0	55	0	1219493888	43	3698
2026-01-05 03:44:04.82	17.17	26.69	-40.0	-40.6	21.0	0.00e+00	0	55	0	1242562560	43	3699
2026-01-05 03:44:08.77	16.71	27.32	-40.1	-40.7	20.7	0.00e+00	0	55	0	1264582656	43	3772
2026-01-05 03:44:12.72	16.24	27.96	-40.7	-41.4	19.6	0.00e+00	0	55	0	1286602752	43	4078
2026-01-05 03:44:16.69	15.74	28.61	-43.4	-44.4	16.7	0.00e+00	0	55	0	1308622848	48	4301
2026-01-05 03:44:20.66	15.22	29.28	-44.5	-45.7	15.2	0.00e+00	0	55	0	1331691520	50	4486
2026-01-05 03:44:24.62	14.69	29.96	-44.0	-45.0	16.3	0.00e+00	0	55	0	1353711616	51	3905
2026-01-05 03:44:28.57	14.12	30.66	-42.1	-42.8	19.0	0.00e+00	0	55	0	1375731712	47	3801
2026-01-05 03:44:32.52	13.54	31.36	-41.5	-42.1	19.7	0.00e+00	0	55	0	1397751808	45	3957
2026-01-05 03:44:36.47	12.92	32.08	-41.0	-41.7	20.2	0.00e+00	0	55	0	1419771904	45	3749
2026-01-05 03:44:40.42	12.28	32.82	-40.2	-40.7	21.0	0.00e+00	0	55	0	1442840576	43	3774
2026-01-05 03:44:44.37	11.61	33.56	-39.8	-40.3	21.4	0.00e+00	0	55	0	1464860672	42	3820
2026-01-05 03:44:48.32	10.90	34.33	-39.9	-40.4	21.3	0.00e+00	0	55	0	1486880768	42	3859
2026-01-05 03:44:52.27	10.16	35.10	-40.2	-40.8	20.9	0.00e+00	0	55	0	1508900864	42	4039
2026-01-05 03:44:56.23	9.38	35.89	-39.8	-40.4	21.4	0.00e+00	0	55	0	1531969536	42	3838
2026-01-05 03:45:00.18	8.56	36.70	-40.3	-40.8	21.0	0.00e+00	0	56	0	1553989632	42	4049
2026-01-05 03:45:04.13	7.70	37.51	-39.7	-40.3	21.5	0.00e+00	0	55	0	1576009728	42	3799
2026-01-05 03:45:08.07	6.80	38.34	-39.4	-39.9	21.8	0.00e+00	0	55	0	1598029824	42	3632
2026-01-05 03:45:12.03	5.84	39.18	-40.1	-40.6	21.2	0.00e+00	0	56	0	1620049920	42	3948
2026-01-05 03:45:15.98	4.84	40.03	-40.0	-40.5	21.3	0.00e+00	0	56	0	1643118592	42	3890
2026-01-05 03:45:19.94	3.77	40.89	-40.2	-40.8	21.1	0.00e+00	0	56	0	1665138688	42	4012
2026-01-05 03:45:23.91	2.65	41.77	-40.0	-40.5	21.3	0.00e+00	0	56	0	1687158784	42	3898
2026-01-05 03:45:27.85	1.47	42.64	-39.9	-40.5	21.3	0.00e+00	0	56	0	1709178880	42	3897
2026-01-05 03:45:31.80	0.22	43.52	-39.9	-40.5	21.4	0.00e+00	0	56	0	1731198976	42	3881
2026-01-05 03:45:35.76	358.89	44.41	-40.3	-40.9	21.0	0.00e+00	0	56	0	1753219072	42	4055
2026-01-05 03:45:39.72	357.49	45.31	-40.0	-40.5	21.3	0.00e+00	0	56	0	1776287744	42	3904
2026-01-05 03:45:43.67	356.01	46.20	-40.4	-41.0	20.9	0.00e+00	0	56	0	1798307840	42	4119
2026-01-05 03:45:47.63	354.43	47.08	-40.7	-41.3	20.6	0.00e+00	0	56	0	1820327936	43	4011
2026-01-05 03:45:51.58	352.77	47.96	-41.3	-41.9	20.1	0.00e+00	0	56	0	1842348032	44	4081
2026-01-05 03:45:55.54	351.01	48.84	-41.2	-41.9	20.1	0.00e+00	0	56	0	1865416704	44	4052
2026-01-05 03:45:59.50	349.15	49.69	-41.8	-42.5	19.5	0.00e+00	0	56	0	1887436800	45	4133
2026-01-05 03:46:03.44	347.19	50.53	-41.1	-41.7	20.3	0.00e+00	0	56	0	1909456896	45	3761
2026-01-05 03:46:07.39	345.11	51.34	-41.4	-42.1	19.9	0.00e+00	0	56	0	1931476992	45	3926
2026-01-05 03:46:11.34	342.91	52.13	-41.1	-41.7	20.4	0.00e+00	0	56	0	1953497088	45	3743
2026-01-05 03:46:15.29	340.60	52.88	-41.1	-41.7	20.3	0.00e+00	0	56	0	1976565760	45	3779
2026-01-05 03:46:19.26	338.16	53.60	-40.8	-41.3	20.7	0.00e+00	0	56	0	1998585856	44	3821
2026-01-05 03:46:23.21	335.61	54.26	-41.1	-41.8	20.3	0.00e+00	0	56	0	2020605952	44	4010
2026-01-05 03:46:27.19	332.92	54.88	-41.2	-41.8	20.2	0.00e+00	0	56	0	2042626048	44	4050
2026-01-05 03:46:31.13	330.15	55.43	-40.8	-41.4	20.7	0.00e+00	0	56	0	2065694720	44	3828
2026-01-05 03:46:35.09	327.25	55.93	-42.0	-42.6	19.5	0.00e+00	0	56	0	2087714816	45	4193
2026-01-05 03:46:39.04	324.27	56.35	-41.3	-41.9	20.1	0.00e+00	0	56	0	2109734912	45	3859
2026-01-05 03:46:43.01	321.19	56.70	-40.9	-41.4	20.6	0.00e+00	0	56	0	2131755008	44	3859
2026-01-05 03:46:46.99	318.03	56.96	-41.2	-41.8	20.3	0.00e+00	0	56	0	2154823680	44	4037
2026-01-05 03:46:50.94	314.84	57.15	-40.7	-41.3	20.6	0.00e+00	0	56	0	2176843776	43	4023
2026-01-05 03:46:54.89	311.61	57.24	-40.4	-40.9	21.0	0.00e+00	0	56	0	2198863872	43	3851
2026-01-05 03:46:58.85	308.37	57.25	-41.0	-41.6	20.4	0.00e+00	0	56	0	2220883968	43	4158
2026-01-05 03:47:02.83	305.11	57.17	-40.5	-41.1	20.8	0.00e+00	0	56	0	2242904064	43	3947
2026-01-05 03:47:06.80	301.90	57.01	-40.5	-41.1	20.8	0.00e+00	0	56	0	2265972736	43	3951
2026-01-05 03:47:10.75	298.75	56.76	-40.9	-41.5	20.4	0.00e+00	0	56	0	2287992832	43	4135
2026-01-05 03:47:14.71	295.65	56.43	-40.7	-41.3	20.6	0.00e+00	0	56	0	2310012928	43	4044
2026-01-05 03:47:18.66	292.65	56.02	-40.9	-41.5	20.5	0.00e+00	0	56	0	2332033024	43	4111
2026-01-05 03:47:22.61	289.74	55.54	-40.5	-41.1	20.9	0.00e+00	0	56	0	2355101696	43	3930
2026-01-05 03:47:26.57	286.93	55.00	-40.0	-40.5	21.4	0.00e+00	0	57	0	2377121792	42	3898
2026-01-05 03:47:30.51	284.24	54.40	-40.2	-40.8	21.1	0.00e+00	0	56	0	2399141888	42	4021
2026-01-05 03:47:34.45	281.66	53.74	-40.8	-41.4	20.6	0.00e+00	0	56	0	2421161984	43	4052
2026-01-05 03:47:38.40	279.20	53.04	-40.7	-41.3	20.7	0.00e+00	0	57	0	2443182080	44	3789
2026-01-05 03:47:42.36	276.86	52.29	-40.3	-40.9	21.0	0.00e+00	0	56	0	2466250752	43	3842
2026-01-05 03:47:46.32	274.63	51.51	-40.7	-41.3	20.7	0.00e+00	0	57	0	2488270848	43	4015
2026-01-05 03:47:50.29	272.51	50.70	-40.4	-40.9	21.0	0.00e+00	0	57	0	2510290944	43	3859
2026-01-05 03:47:54.24	270.52	49.86	-40.3	-40.9	21.0	0.00e+00	0	57	0	2532311040	43	3838
2026-01-05 03:47:58.20	268.63	49.01	-40.4	-41.0	20.9	0.00e+00	0	57	0	2555379712	43	3902
2026-01-05 03:48:02.15	266.85	48.14	-40.2	-40.8	21.1	0.00e+00	0	57	0	2577399808	43	3784
2026-01-05 03:48:06.11	265.16	47.25	-39.9	-40.4	21.4	0.00e+00	0	57	0	2599419904	42	3855
2026-01-05 03:48:10.07	263.57	46.36	-40.1	-40.6	21.3	0.00e+00	0	57	0	2621440000	42	3943
2026-01-05 03:48:14.02	262.06	45.47	-40.6	-41.2	20.7	0.00e+00	0	57	0	2643460096	43	3966
2026-01-05 03:48:17.97	260.65	44.58	-40.1	-40.6	21.2	0.00e+00	0	57	0	2666528768	43	3736
2026-01-05 03:48:21.92	259.30	43.69	-40.9	-41.6	20.4	0.00e+00	0	57	0	2688548864	44	3930
2026-01-05 03:48:25.88	258.03	42.80	-39.3	-39.8	22.0	0.00e+00	0	57	0	2710568960	41	3820
2026-01-05 03:48:29.82	256.84	41.92	-39.3	-39.8	22.0	0.00e+00	0	57	0	2732589056	41	3795
2026-01-05 03:48:33.76	255.70	41.05	-39.7	-40.3	21.6	0.00e+00	0	57	0	2754609152	41	4016
2026-01-05 03:48:37.70	254.63	40.19	-40.0	-40.5	21.3	0.00e+00	0	57	0	2777677824	41	4138
2026-01-05 03:48:41.66	253.61	39.33	-40.3	-40.8	21.0	0.00e+00	0	57	0	2799697920	43	3818
2026-01-05 03:48:45.62	252.64	38.48	-39.5	-40.1	21.8	0.00e+00	0	57	0	2821718016	42	3695
2026-01-05 03:48:49.58	251.72	37.65	-39.4	-40.0	21.8	0.00e+00	0	57	0	2843738112	42	3671
2026-01-05 03:48:53.54	250.85	36.82	-39.6	-40.2	21.6	0.00e+00	0	57	0	2866806784	42	3740
2026-01-05 03:48:57.49	250.02	36.02	-39.4	-40.0	21.8	0.00e+00	0	57	0	2888826880	42	3657
2026-01-05 03:49:01.44	249.23	35.22	-39.8	-40.4	21.4	0.00e+00	0	57	0	2910846976	41	4067
2026-01-05 03:49:05.40	248.48	34.44	-39.7	-40.3	21.6	0.00e+00	0	57	0	2932867072	42	3790
2026-01-05 03:49:09.36	247.76	33.67	-39.4	-39.9	21.9	0.00e+00	0	57	0	2954887168	41	3839
2026-01-05 03:49:13.33	247.07	32.91	-39.5	-40.1	21.7	0.00e+00	0	57	0	2977955840	41	3923
2026-01-05 03:49:17.29	246.42	32.17	-39.7	-40.3	21.5	0.00e+00	0	57	0	2999975936	41	4028
2026-01-05 03:49:21.24	245.80	31.45	-39.9	-40.5	21.3	0.00e+00	0	57	0	3021996032	41	4101
2026-01-05 03:49:25.21	245.20	30.73	-40.1	-40.7	21.2	0.00e+00	0	57	0	3044016128	42	3963
2026-01-05 03:49:29.16	244.63	30.04	-40.3	-40.8	21.0	0.00e+00	0	57	0	3067084800	42	4043
2026-01-05 03:49:33.12	244.09	29.35	-40.3	-40.9	20.9	0.00e+00	0	57	0	3089104896	42	4086
2026-01-05 03:49:37.07	243.57	28.68	-40.9	-41.5	20.3	0.00e+00	0	57	0	3111124992	43	4138
2026-01-05 03:49:41.04	243.07	28.02	-40.4	-41.0	20.8	0.00e+00	0	57	0	3133145088	43	3878
2026-01-05 03:49:44.99	242.59	27.38	-40.1	-40.7	21.1	0.00e+00	0	57	0	3156213760	43	3765
2026-01-05 03:49:48.96	242.12	26.74	-40.1	-40.7	21.1	0.00e+00	0	57	0	3178233856	43	3750
2026-01-05 03:49:52.91	241.68	26.12	-40.1	-40.7	21.1	0.00e+00	0	57	0	3200253952	43	3764
2026-01-05 03:49:56.86	241.26	25.51	-39.8	-40.3	21.4	0.00e+00	0	57	0	3222274048	42	3805
2026-01-05 03:50:00.83	240.85	24.92	-40.1	-40.7	21.1	0.00e+00	0	57	0	3244294144	42	3965
2026-01-05 03:50:04.77	240.46	24.33	-40.2	-40.8	21.0	0.00e+00	0	57	0	3267362816	42	4007
2026-01-05 03:50:08.73	240.08	23.76	-40.3	-40.9	20.9	0.00e+00	0	57	0	3289382912	42	4072
2026-01-05 03:50:12.70	239.71	23.20	-40.6	-41.2	20.6	0.00e+00	0	57	0	3311403008	43	3981
2026-01-05 03:50:16.66	239.36	22.64	-40.6	-41.2	20.5	0.00e+00	0	57	0	3333423104	43	3990
2026-01-05 03:50:20.62	239.02	22.10	-40.4	-41.0	20.7	0.00e+00	0	57	0	3356491776	43	3902
2026-01-05 03:50:24.57	238.69	21.57	-40.7	-41.3	20.5	0.00e+00	0	57	0	3378511872	43	4007
2026-01-05 03:50:28.54	238.38	21.05	-41.4	-42.1	19.8	0.00e+00	0	57	0	3400531968	44	4166
2026-01-05 03:50:32.47	238.07	20.54	-42.0	-42.8	19.2	0.00e+00	0	57	0	3422552064	46	4008
2026-01-05 03:50:36.44	237.78	20.04	-41.8	-42.5	19.4	0.00e+00	0	57	0	3445620736	46	3907
2026-01-05 03:50:40.39	237.49	19.55	-41.3	-41.9	19.9	0.00e+00	0	57	0	3467640832	45	3865
2026-01-05 03:50:44.35	237.22	19.06	-41.6	-42.2	19.6	0.00e+00	0	57	0	3489660928	45	3999
2026-01-05 03:50:48.30	236.95	18.59	-41.6	-42.2	19.6	0.00e+00	0	57	0	3511681024	45	3999
2026-01-05 03:50:52.26	236.69	18.12	-41.6	-42.3	19.5	0.00e+00	0	57	0	3533701120	45	4045
2026-01-05 03:50:56.22	236.44	17.66	-42.0	-42.7	19.0	0.00e+00	0	57	0	3556769792	45	4242
2026-01-05 03:51:00.17	236.20	17.21	-42.1	-42.8	19.0	0.00e+00	0	57	0	3578789888	46	4018
2026-01-05 03:51:04.13	235.97	16.77	-41.9	-42.6	19.2	0.00e+00	0	57	0	3600809984	46	3918
2026-01-05 03:51:08.08	235.74	16.33	-42.1	-42.8	18.9	0.00e+00	0	57	0	3622830080	46	4040
2026-01-05 03:51:12.05	235.52	15.90	-42.3	-43.1	18.6	0.00e+00	0	57	0	3645898752	46	4156
2026-01-05 03:51:16.01	235.30	15.48	-42.5	-43.3	18.4	0.00e+00	0	57	0	3667918848	46	4255
2026-01-05 03:51:19.97	235.09	15.06	-42.7	-43.5	18.2	0.00e+00	0	57	0	3689938944	47	4103
2026-01-05 03:51:23.93	234.89	14.65	-43.3	-44.2	17.6	0.00e+00	0	57	0	3711959040	48	4210
2026-01-05 03:51:27.88	234.70	14.25	-43.5	-44.4	17.4	0.00e+00	0	57	0	3735027712	49	4069
2026-01-05 03:51:31.83	234.51	13.86	-43.1	-44.0	17.7	0.00e+00	0	57	0	3755999232	49	3878
2026-01-05 03:51:35.78	234.32	13.47	-43.2	-44.1	17.6	0.00e+00	0	57	0	3779067904	49	3915
2026-01-05 03:51:39.71	234.14	13.09	-43.4	-44.3	17.3	0.00e+00	0	57	0	3801088000	49	4035
2026-01-05 03:51:43.67	233.97	12.71	-43.5	-44.4	17.2	0.00e+00	0	57	0	3823108096	49	4061
2026-01-05 03:51:47.61	233.80	12.34	-43.8	-44.7	16.8	0.00e+00	0	57	0	3845128192	49	4236
2026-01-05 03:51:51.57	233.63	11.97	-44.0	-45.0	16.6	0.00e+00	0	57	0	3867148288	49	4341
2026-01-05 03:51:55.52	233.47	11.61	-44.7	-45.8	15.7	0.00e+00	0	57	0	3890216960	51	4271
2026-01-05 03:51:59.49	233.31	11.25	-45.0	-46.3	15.0	0.00e+00	0	57	0	3912237056	52	4251
2026-01-05 03:52:03.46	233.16	10.89	-45.6	-47.0	14.3	1.10e-06	0	57	0	3934257152	53	4343
2026-01-05 03:52:07.42	233.01	10.55	-45.9	-47.3	13.9	8.00e-06	0	57	0	3956277248	53	4539
2026-01-05 03:52:11.37	232.86	10.20	-45.5	-46.9	14.2	0.00e+00	0	57	0	3979345920	53	4336
2026-01-05 03:52:15.32	232.72	9.87	-45.0	-46.2	14.8	0.00e+00	0	57	0	4001366016	53	4004
2026-01-05 03:52:19.29	232.58	9.53	-45.4	-46.8	14.2	2.20e-06	0	57	0	4023386112	53	4268
2026-01-05 03:52:23.25	232.44	9.20	-45.2	-46.6	14.4	1.10e-06	0	57	0	4045406208	53	4166
2026-01-05 03:52:27.21	232.31	8.87	-45.4	-46.9	14.0	4.50e-06	0	57	0	4068474880	53	4332
2026-01-05 03:52:31.15	232.18	8.55	-45.6	-47.2	13.6	1.14e-05	0	57	0	4090494976	53	4468
2026-01-05 03:52:35.10	232.06	8.24	-46.1	-47.8	13.0	6.29e-05	0	57	0	4112515072	54	4540
2026-01-05 03:52:39.06	231.94	7.92	-46.3	-48.2	12.6	1.88e-04	0	57	0	4134535168	54	4713
2026-01-05 03:52:43.02	231.82	7.61	-46.7	-48.6	12.1	4.39e-04	0	57	0	4156555264	55	4696
2026-01-05 03:52:46.98	231.70	7.30	-46.8	-49.0	11.7	1.08e-03	0	57	0	4179623936	55	4880
2026-01-05 03:52:50.95	231.58	7.00	-47.2	-49.4	11.3	1.87e-03	0	57	0	4201644032	56	4867
2026-01-05 03:52:54.91	231.47	6.70	-47.5	-49.9	10.7	3.73e-03	0	57	0	4223664128	56	5125
2026-01-05 03:52:58.88	231.36	6.40	-47.4	-49.8	10.7	3.93e-03	0	57	0	4245684224	57	4800
2026-01-05 03:53:02.84	231.26	6.11	-47.3	-49.7	10.8	3.40e-03	0	57	0	4268752896	57	4718
2026-01-05 03:53:06.80	231.15	5.82	-47.7	-50.4	10.0	9.33e-03	0	57	0	4290772992	57	5134
2026-01-05 03:53:10.75	231.05	5.53	-47.7	-50.5	9.9	1.35e-02	0	57	0	4312793088	57	5166
2026-01-05 03:53:14.70	230.95	5.25	-48.0	-51.0	9.3	1.96e-02	0	57	0	4334813184	57	5479
2026-01-05 03:53:18.68	230.85	4.97	-51.0	-61.2	3.8	8.42e-01	0	57	104	4354736128	63	12604
2026-01-05 03:53:22.64	230.76	4.69	-52.3	-63.0	3.8	8.47e-01	0	57	104	4354736128	66	12991
2026-01-05 03:53:26.59	230.66	4.41	-52.3	-63.1	3.8	8.46e-01	0	57	104	4354736128	66	13235
2026-01-05 03:53:30.52	230.57	4.14	-52.5	-63.2	3.8	8.46e-01	0	57	104	4354736128	66	13380
2026-01-05 03:53:34.48	230.48	3.87	-52.6	-63.3	3.8	8.47e-01	0	57	104	4354736128	67	12714
2026-01-05 03:53:38.44	230.39	3.61	-52.6	-63.3	3.8	8.46e-01	0	57	104	4354736128	67	12781
2026-01-05 03:53:42.41	230.31	3.34	-52.5	-63.3	3.8	8.47e-01	0	57	104	4354736128	67	12807
2026-01-05 03:53:46.37	230.22	3.08	-52.6	-63.4	3.8	8.47e-01	0	57	104	4354736128	67	12816

#Closed at: 2026-01-05 03:53:48
#Recorded file [4354 MB]: D:/Data/31026_260105_065318.dat