passes_logs/2026/01/05/R3.0SM8_Murmansk_STILSPACE/R3.0SM8_Murmansk_STILSPACE__20260105_061815_NOAA_20_JPSS-1_rec.log

#Pass ID: 20260105_061815_NOAA 20 (JPSS-1)
#Satellite: NOAA 20 (JPSS-1)
#Configuration: NOAA 20
#almurnet v.1.7.20240730
#Start time: 2026-01-05 06:18:16

#Version: 2.2.20231116
#Station: R3.0SM8_Murmansk_STILSPACE
#Location: 33.092731 lon 68.902999 lat
#TLE: 1 43013U 17073A   26004.47528369  .00000132  00000+0  83671-4 0  9999
#TLE: 2 43013  98.7626 305.5264 0001854  54.5883 305.5466 14.19533142421242

#Time	Az	El	Level	Level2	SNR	BER	BlckErr	Temp	State	Recorded	gain1	gain2
2026-01-05 06:18:16.86	80.24	3.07	-52.3	-66.1	3.8	1.49e+00	0	46	0	0	67	17594
2026-01-05 06:18:19.82	80.05	3.25	-51.9	-65.7	3.8	1.49e+00	0	46	104	0	66	17753
2026-01-05 06:18:22.80	79.86	3.43	-51.6	-65.3	3.8	1.49e+00	0	47	104	0	66	17025
2026-01-05 06:18:25.78	79.67	3.61	-51.5	-65.3	3.8	1.49e+00	0	47	104	0	66	17011
2026-01-05 06:18:28.75	79.47	3.79	-51.5	-65.3	3.8	1.49e+00	0	47	104	0	66	17014
2026-01-05 06:18:31.71	79.27	3.97	-51.5	-65.3	3.8	1.49e+00	0	47	104	0	66	17003
2026-01-05 06:18:34.69	79.07	4.15	-51.6	-65.3	3.8	1.49e+00	0	47	104	0	66	17023
2026-01-05 06:18:37.65	78.87	4.33	-51.5	-65.1	3.8	1.49e+00	0	48	104	0	65	17557
2026-01-05 06:18:40.62	78.66	4.51	-51.5	-64.2	3.8	1.49e+00	0	48	104	0	65	15924
2026-01-05 06:18:43.58	78.45	4.70	-51.3	-62.4	4.1	1.47e+00	0	48	0	0	65	12835
2026-01-05 06:18:46.56	78.24	4.88	-51.1	-60.1	4.8	9.28e-01	0	48	0	2097152	65	9934
2026-01-05 06:18:49.53	78.02	5.07	-50.8	-58.6	5.7	4.08e-01	0	49	0	8388608	64	8820
2026-01-05 06:18:52.49	77.81	5.26	-50.9	-58.4	5.9	4.02e-01	0	49	0	13631488	64	8617
2026-01-05 06:18:55.47	77.58	5.44	-50.8	-57.9	6.3	2.67e-01	0	49	0	18874368	64	8135
2026-01-05 06:18:58.44	77.36	5.63	-50.7	-57.6	6.6	2.59e-01	0	49	0	24117248	64	7833
2026-01-05 06:19:01.41	77.13	5.82	-50.2	-55.3	8.9	3.32e-02	0	49	0	30408704	63	6411
2026-01-05 06:19:04.39	76.90	6.01	-49.6	-54.0	10.3	7.44e-03	0	50	0	35651584	62	5801
2026-01-05 06:19:07.35	76.67	6.20	-49.3	-53.0	11.3	1.16e-03	0	50	0	40894464	61	5508
2026-01-05 06:19:10.31	76.43	6.40	-49.4	-53.3	11.0	1.36e-03	0	50	0	47185920	61	5686
2026-01-05 06:19:13.27	76.19	6.59	-49.2	-52.9	11.5	1.06e-03	0	50	0	52428800	61	5429
2026-01-05 06:19:16.23	75.95	6.78	-49.3	-53.1	11.3	1.64e-03	0	50	0	57671680	61	5538
2026-01-05 06:19:19.20	75.71	6.98	-49.5	-53.4	10.9	1.62e-03	0	50	0	63963136	61	5788
2026-01-05 06:19:22.17	75.46	7.18	-49.3	-53.1	11.3	1.60e-03	0	50	0	69206016	61	5550
2026-01-05 06:19:25.13	75.20	7.37	-49.0	-52.5	11.9	3.81e-04	0	50	0	74448896	61	5202
2026-01-05 06:19:28.11	74.95	7.57	-48.9	-52.1	12.3	1.69e-04	0	51	0	80740352	60	5267
2026-01-05 06:19:31.07	74.69	7.77	-48.9	-52.2	12.3	1.66e-04	0	51	0	85983232	60	5287
2026-01-05 06:19:34.03	74.42	7.97	-49.2	-52.7	11.8	3.39e-04	0	51	0	91226112	60	5597
2026-01-05 06:19:37.01	74.15	8.17	-48.8	-51.9	12.6	1.03e-04	0	51	0	96468992	60	5125
2026-01-05 06:19:39.97	73.88	8.37	-48.8	-51.9	12.6	1.12e-04	0	51	0	102760448	60	5148
2026-01-05 06:19:42.93	73.61	8.58	-48.8	-51.9	12.6	9.23e-05	0	51	0	108003328	60	5142
2026-01-05 06:19:45.90	73.33	8.78	-49.0	-52.3	12.2	1.62e-04	0	51	0	113246208	60	5377
2026-01-05 06:19:48.85	73.04	8.98	-48.9	-52.1	12.5	2.12e-04	0	51	0	119537664	60	5242
2026-01-05 06:19:51.81	72.76	9.19	-48.7	-51.8	12.8	5.95e-05	0	52	0	124780544	60	5050
2026-01-05 06:19:54.78	72.46	9.40	-48.8	-51.9	12.6	7.01e-05	0	52	0	130023424	60	5153
2026-01-05 06:19:57.74	72.17	9.61	-48.9	-52.0	12.6	1.81e-04	0	52	0	136314880	60	5200
2026-01-05 06:20:00.71	71.87	9.81	-48.6	-51.6	13.0	2.82e-05	0	52	0	141557760	60	4965
2026-01-05 06:20:03.68	71.56	10.02	-47.8	-51.6	12.9	3.35e-05	0	52	0	146800640	58	5578
2026-01-05 06:20:06.64	71.25	10.24	-48.5	-51.4	13.3	3.05e-05	0	52	0	152043520	58	5418
2026-01-05 06:20:09.61	70.94	10.45	-48.5	-51.2	13.5	1.06e-05	0	52	0	158334976	58	5283
2026-01-05 06:20:12.57	70.62	10.66	-48.5	-51.2	13.5	1.52e-05	0	52	0	163577856	58	5283
2026-01-05 06:20:15.54	70.29	10.87	-48.7	-51.5	13.2	1.60e-05	0	52	0	168820736	59	5176
2026-01-05 06:20:18.49	69.97	11.09	-48.8	-51.8	12.9	4.34e-05	0	52	0	175112192	59	5361
2026-01-05 06:20:21.46	69.63	11.30	-48.9	-51.9	12.8	5.18e-05	0	53	0	180355072	59	5437
2026-01-05 06:20:24.42	69.30	11.52	-48.8	-51.6	13.2	3.58e-05	0	53	0	185597952	59	5226
2026-01-05 06:20:27.39	68.95	11.74	-48.7	-51.5	13.2	1.52e-05	0	53	0	191889408	59	5201
2026-01-05 06:20:30.35	68.60	11.96	-49.0	-52.0	12.7	6.17e-05	0	53	0	197132288	59	5487
2026-01-05 06:20:33.31	68.25	12.17	-49.2	-52.4	12.4	1.01e-04	0	53	0	202375168	60	5418
2026-01-05 06:20:36.28	67.89	12.39	-49.1	-52.4	12.4	1.40e-04	0	53	0	207618048	60	5403
2026-01-05 06:20:39.25	67.52	12.62	-48.7	-51.6	13.2	3.35e-05	0	53	0	213909504	60	4936
2026-01-05 06:20:42.20	67.15	12.84	-48.8	-51.7	13.1	3.20e-05	0	53	0	219152384	60	5020
2026-01-05 06:20:45.17	66.77	13.06	-48.7	-51.4	13.4	1.75e-05	0	53	0	224395264	60	4833
2026-01-05 06:20:48.13	66.39	13.28	-48.3	-50.8	14.1	2.20e-06	0	53	0	230686720	59	4760
2026-01-05 06:20:51.11	66.00	13.51	-48.4	-50.9	13.9	1.50e-06	0	53	0	235929600	59	4851
2026-01-05 06:20:54.09	65.60	13.73	-48.1	-50.3	14.5	7.00e-07	0	53	0	241172480	59	4536
2026-01-05 06:20:57.06	65.20	13.96	-48.1	-50.3	14.5	0.00e+00	0	53	0	247463936	59	4541
2026-01-05 06:21:00.02	64.79	14.19	-48.1	-50.4	14.4	0.00e+00	0	53	0	252706816	59	4590
2026-01-05 06:21:03.00	64.38	14.41	-48.2	-50.6	14.3	2.20e-06	0	54	0	257949696	59	4657
2026-01-05 06:21:05.95	63.96	14.64	-48.2	-50.6	14.2	7.00e-07	0	53	0	263192576	59	4682
2026-01-05 06:21:08.92	63.53	14.87	-48.0	-50.3	14.6	7.00e-07	0	54	0	269484032	59	4509
2026-01-05 06:21:11.88	63.10	15.10	-47.9	-50.1	14.8	0.00e+00	0	54	0	274726912	58	4670
2026-01-05 06:21:14.85	62.66	15.33	-47.7	-49.8	15.1	0.00e+00	0	54	0	279969792	58	4519
2026-01-05 06:21:17.82	62.21	15.55	-47.7	-49.8	15.1	0.00e+00	0	54	0	286261248	58	4529
2026-01-05 06:21:20.79	61.76	15.78	-47.8	-50.0	15.0	0.00e+00	0	54	0	291504128	58	4601
2026-01-05 06:21:23.76	61.29	16.01	-48.0	-50.2	14.8	0.00e+00	0	54	0	296747008	58	4736
2026-01-05 06:21:26.73	60.82	16.25	-48.0	-50.2	14.7	0.00e+00	0	54	0	303038464	58	4731
2026-01-05 06:21:29.69	60.35	16.48	-48.2	-50.5	14.5	0.00e+00	0	54	0	308281344	58	4873
2026-01-05 06:21:32.65	59.86	16.71	-48.1	-50.4	14.5	7.00e-07	0	54	0	313524224	58	4854
2026-01-05 06:21:35.61	59.37	16.94	-48.3	-50.6	14.3	7.00e-07	0	54	0	319815680	58	4964
2026-01-05 06:21:38.59	58.87	17.17	-48.2	-50.5	14.5	7.00e-07	0	54	0	325058560	58	4881
2026-01-05 06:21:41.56	58.36	17.40	-48.1	-50.3	14.6	0.00e+00	0	54	0	330301440	58	4795
2026-01-05 06:21:44.53	57.85	17.63	-48.1	-50.4	14.6	0.00e+00	0	54	0	335544320	58	4823
2026-01-05 06:21:47.50	57.33	17.86	-48.1	-50.3	14.6	7.00e-07	0	54	0	341835776	58	4811
2026-01-05 06:21:50.47	56.79	18.09	-48.2	-50.7	14.3	1.50e-06	0	54	0	347078656	58	5004
2026-01-05 06:21:53.44	56.25	18.32	-48.3	-50.6	14.4	0.00e+00	0	55	0	352321536	58	4979
2026-01-05 06:21:56.40	55.71	18.54	-48.2	-50.5	14.5	7.00e-07	0	55	0	358612992	58	4903
2026-01-05 06:21:59.37	55.15	18.77	-48.1	-50.4	14.6	0.00e+00	0	55	0	363855872	58	4821
2026-01-05 06:22:02.35	54.58	19.00	-48.0	-50.2	14.8	0.00e+00	0	55	0	369098752	58	4743
2026-01-05 06:22:05.32	54.01	19.23	-47.8	-49.9	15.1	0.00e+00	0	55	0	375390208	58	4573
2026-01-05 06:22:08.30	53.43	19.45	-47.8	-49.9	15.1	0.00e+00	0	55	0	380633088	58	4573
2026-01-05 06:22:11.28	52.83	19.68	-47.6	-49.5	15.5	0.00e+00	0	55	0	385875968	58	4374
2026-01-05 06:22:14.25	52.23	19.90	-47.4	-49.3	15.8	0.00e+00	0	55	0	392167424	57	4507
2026-01-05 06:22:17.22	51.62	20.12	-47.5	-49.4	15.6	0.00e+00	0	55	0	397410304	57	4572
2026-01-05 06:22:20.18	51.01	20.34	-47.0	-48.6	16.3	0.00e+00	0	55	0	402653184	57	4193
2026-01-05 06:22:23.15	50.38	20.56	-46.7	-48.3	16.7	0.00e+00	0	55	0	408944640	56	4279
2026-01-05 06:22:26.12	49.75	20.78	-46.6	-48.2	16.8	0.00e+00	0	55	0	414187520	56	4212
2026-01-05 06:22:29.08	49.10	20.99	-46.3	-47.7	17.2	0.00e+00	0	55	0	419430400	55	4242
2026-01-05 06:22:32.06	48.45	21.20	-46.4	-47.9	17.0	0.00e+00	0	55	0	424673280	55	4319
2026-01-05 06:22:35.02	47.79	21.41	-46.3	-47.7	17.2	0.00e+00	0	55	0	430964736	55	4239
2026-01-05 06:22:37.99	47.11	21.62	-46.5	-48.1	16.9	0.00e+00	0	55	0	436207616	55	4393
2026-01-05 06:22:40.96	46.43	21.83	-46.2	-47.6	17.3	0.00e+00	0	55	0	441450496	55	4180
2026-01-05 06:22:43.93	45.74	22.03	-46.1	-47.5	17.4	0.00e+00	0	55	0	447741952	55	4136
2026-01-05 06:22:46.90	45.04	22.23	-46.1	-47.5	17.5	0.00e+00	0	55	0	452984832	55	4132
2026-01-05 06:22:49.87	44.33	22.42	-46.3	-47.8	17.2	0.00e+00	0	55	0	458227712	55	4249
2026-01-05 06:22:52.84	43.62	22.62	-46.3	-47.9	17.0	0.00e+00	0	55	0	464519168	55	4296
2026-01-05 06:22:55.81	42.89	22.81	-46.4	-47.9	17.1	0.00e+00	0	55	0	469762048	55	4300
2026-01-05 06:22:58.78	42.16	22.99	-46.4	-48.0	17.0	0.00e+00	0	55	0	475004928	55	4351
2026-01-05 06:23:01.75	41.41	23.17	-46.4	-48.0	17.0	0.00e+00	0	55	0	481296384	55	4353
2026-01-05 06:23:04.72	40.66	23.35	-46.2	-47.7	17.2	0.00e+00	0	55	0	486539264	55	4208
2026-01-05 06:23:07.70	39.90	23.53	-46.2	-47.6	17.3	0.00e+00	0	55	0	491782144	55	4192
2026-01-05 06:23:10.67	39.13	23.70	-46.0	-47.5	17.4	0.00e+00	0	55	0	498073600	55	4122
2026-01-05 06:23:13.64	38.35	23.86	-46.2	-47.7	17.3	0.00e+00	0	56	0	503316480	55	4215
2026-01-05 06:23:16.60	37.57	24.02	-45.9	-47.3	17.6	0.00e+00	0	55	0	508559360	55	4041
2026-01-05 06:23:19.58	36.77	24.18	-45.8	-47.2	17.7	0.00e+00	0	55	0	513802240	54	4224
2026-01-05 06:23:22.55	35.97	24.33	-45.7	-47.0	18.0	0.00e+00	0	56	0	520093696	54	4124
2026-01-05 06:23:25.52	35.16	24.47	-46.1	-47.6	17.4	0.00e+00	0	55	0	525336576	54	4411
2026-01-05 06:23:28.49	34.34	24.61	-46.2	-47.7	17.3	0.00e+00	0	56	0	530579456	54	4470
2026-01-05 06:23:31.45	33.52	24.74	-46.6	-48.2	16.7	0.00e+00	0	56	0	536870912	55	4478
2026-01-05 06:23:34.41	32.69	24.87	-46.8	-48.5	16.5	0.00e+00	0	56	0	542113792	55	4606
2026-01-05 06:23:37.38	31.85	24.99	-47.3	-49.2	15.9	0.00e+00	0	56	0	547356672	56	4710
2026-01-05 06:23:40.35	31.01	25.11	-47.2	-49.0	16.1	0.00e+00	0	55	0	553648128	56	4615
2026-01-05 06:23:43.32	30.16	25.21	-47.5	-49.4	15.7	0.00e+00	0	55	0	558891008	56	4825
2026-01-05 06:23:46.29	29.30	25.32	-47.5	-49.5	15.6	0.00e+00	0	55	0	564133888	56	4872
2026-01-05 06:23:49.26	28.44	25.41	-47.7	-49.7	15.4	0.00e+00	0	56	0	570425344	57	4720
2026-01-05 06:23:52.22	27.58	25.50	-47.7	-49.6	15.5	0.00e+00	0	56	0	575668224	57	4702
2026-01-05 06:23:55.18	26.71	25.58	-47.7	-49.7	15.4	0.00e+00	0	56	0	580911104	57	4746
2026-01-05 06:23:58.17	25.83	25.66	-47.7	-49.7	15.4	0.00e+00	0	55	0	586153984	57	4729
2026-01-05 06:24:01.13	24.96	25.73	-48.1	-50.3	14.7	0.00e+00	0	56	0	592445440	58	4812
2026-01-05 06:24:04.10	24.07	25.79	-48.3	-50.5	14.6	0.00e+00	0	56	0	597688320	58	4904
2026-01-05 06:24:07.07	23.19	25.84	-47.9	-50.0	15.1	7.00e-07	0	56	0	602931200	58	4600
2026-01-05 06:24:10.04	22.30	25.88	-47.8	-49.9	15.2	0.00e+00	0	56	0	609222656	58	4560
2026-01-05 06:24:13.00	21.41	25.92	-48.2	-50.5	14.6	0.00e+00	0	56	0	614465536	58	4891
2026-01-05 06:24:15.97	20.52	25.95	-48.1	-50.3	14.8	0.00e+00	0	56	0	619708416	58	4800
2026-01-05 06:24:18.95	19.62	25.98	-47.8	-49.9	15.2	0.00e+00	0	56	0	625999872	58	4565
2026-01-05 06:24:21.92	18.73	25.99	-47.6	-49.6	15.5	0.00e+00	0	56	0	631242752	58	4404
2026-01-05 06:24:24.89	17.83	26.00	-47.5	-49.4	15.7	0.00e+00	0	56	0	636485632	58	4332
2026-01-05 06:24:27.86	16.94	26.00	-47.6	-49.6	15.5	0.00e+00	0	56	0	642777088	58	4405
2026-01-05 06:24:30.81	16.05	25.99	-47.3	-49.1	15.8	0.00e+00	0	56	0	648019968	57	4438
2026-01-05 06:24:33.78	15.15	25.97	-46.8	-48.5	16.5	0.00e+00	0	56	0	653262848	56	4348
2026-01-05 06:24:36.75	14.26	25.95	-46.7	-48.4	16.4	0.00e+00	0	56	0	658505728	56	4311
2026-01-05 06:24:39.71	13.37	25.92	-47.1	-49.0	15.4	0.00e+00	0	56	0	664797184	56	4650
2026-01-05 06:24:42.67	12.48	25.88	-47.5	-49.8	14.5	7.00e-07	0	56	0	670040064	56	5064
2026-01-05 06:24:45.63	11.59	25.83	-47.8	-50.5	13.5	3.80e-06	0	56	0	675282944	57	5197
2026-01-05 06:24:48.60	10.71	25.78	-48.5	-52.3	11.2	7.18e-04	0	56	0	681574400	58	6040
2026-01-05 06:24:51.54	9.84	25.72	-49.2	-54.4	8.7	2.88e-02	0	56	0	686817280	60	6864
2026-01-05 06:24:54.52	8.96	25.65	-49.0	-53.3	10.2	9.94e-03	0	56	0	692060160	60	6028
2026-01-05 06:24:57.50	8.08	25.58	-47.9	-50.3	14.2	7.00e-07	0	56	0	698351616	59	4509
2026-01-05 06:25:00.46	7.21	25.50	-47.7	-49.8	15.0	0.00e+00	0	56	0	703594496	58	4495
2026-01-05 06:25:03.43	6.35	25.41	-47.2	-49.1	15.7	0.00e+00	0	56	0	708837376	57	4418
2026-01-05 06:25:06.40	5.49	25.31	-47.6	-49.6	15.3	0.00e+00	0	56	0	714080256	57	4667
2026-01-05 06:25:09.36	4.63	25.21	-49.5	-53.6	10.6	8.62e-04	0	56	0	720371712	60	6231
2026-01-05 06:25:12.33	3.79	25.10	-50.1	-57.1	6.4	2.60e-01	0	56	0	725614592	62	8365
2026-01-05 06:25:15.29	2.95	24.98	-48.5	-51.6	12.4	1.80e-03	0	56	0	730857472	60	4978
2026-01-05 06:25:18.25	2.11	24.86	-47.2	-49.0	15.8	0.00e+00	0	56	0	737148928	57	4378
2026-01-05 06:25:21.22	1.28	24.73	-48.1	-50.3	14.7	0.00e+00	0	56	0	742391808	58	4807
2026-01-05 06:25:24.18	0.46	24.60	-47.5	-49.5	15.5	0.00e+00	0	56	0	747634688	58	4367
2026-01-05 06:25:27.15	359.65	24.46	-47.6	-49.6	15.4	0.00e+00	0	56	0	753926144	58	4437
2026-01-05 06:25:30.10	358.84	24.32	-47.7	-49.7	15.4	0.00e+00	0	56	0	759169024	58	4465
2026-01-05 06:25:33.07	358.04	24.17	-47.8	-49.9	15.1	0.00e+00	0	56	0	764411904	58	4578
2026-01-05 06:25:36.04	357.25	24.01	-48.1	-50.4	14.6	0.00e+00	0	56	0	769654784	58	4845
2026-01-05 06:25:39.00	356.47	23.85	-47.8	-49.8	15.3	0.00e+00	0	56	0	775946240	58	4508
2026-01-05 06:25:41.98	355.69	23.69	-47.7	-49.7	15.3	0.00e+00	0	56	0	781189120	58	4463
2026-01-05 06:25:44.95	354.92	23.52	-47.6	-49.5	15.5	0.00e+00	0	56	0	786432000	58	4372
2026-01-05 06:25:47.92	354.16	23.35	-48.0	-50.2	14.8	0.00e+00	0	56	0	792723456	58	4723
2026-01-05 06:25:50.89	353.41	23.17	-47.8	-49.8	15.2	0.00e+00	0	56	0	797966336	58	4538
2026-01-05 06:25:53.87	352.66	22.98	-47.8	-49.8	15.2	0.00e+00	0	56	0	803209216	58	4545
2026-01-05 06:25:56.84	351.93	22.80	-48.0	-50.1	14.9	0.00e+00	0	57	0	809500672	58	4680
2026-01-05 06:25:59.82	351.20	22.61	-47.6	-49.6	15.4	0.00e+00	0	56	0	814743552	58	4392
2026-01-05 06:26:02.76	350.49	22.42	-47.2	-49.1	15.9	0.00e+00	0	56	0	819986432	57	4392
2026-01-05 06:26:05.72	349.79	22.22	-47.2	-49.0	16.0	0.00e+00	0	56	0	826277888	57	4362
2026-01-05 06:26:08.69	349.09	22.02	-47.0	-48.7	16.3	0.00e+00	0	56	0	831520768	57	4217
2026-01-05 06:26:11.67	348.40	21.82	-46.7	-48.3	16.6	0.00e+00	0	57	0	836763648	56	4259
2026-01-05 06:26:14.64	347.72	21.62	-46.7	-48.4	16.5	0.00e+00	0	56	0	842006528	56	4309
2026-01-05 06:26:17.61	347.05	21.41	-46.8	-48.5	16.4	0.00e+00	0	57	0	848297984	56	4350
2026-01-05 06:26:20.59	346.39	21.20	-46.9	-48.7	16.2	0.00e+00	0	56	0	853540864	56	4448
2026-01-05 06:26:23.57	345.73	20.98	-47.1	-49.0	15.9	0.00e+00	0	57	0	858783744	56	4617
2026-01-05 06:26:26.55	345.09	20.77	-47.5	-49.5	15.4	0.00e+00	0	57	0	865075200	56	4872
2026-01-05 06:26:29.50	344.46	20.55	-47.4	-49.4	15.4	0.00e+00	0	57	0	870318080	57	4576
2026-01-05 06:26:32.48	343.83	20.34	-47.4	-49.5	15.4	0.00e+00	0	56	0	875560960	57	4599
2026-01-05 06:26:35.45	343.21	20.12	-46.5	-48.2	16.6	0.00e+00	0	56	0	881852416	56	4199
2026-01-05 06:26:38.43	342.60	19.89	-46.9	-48.8	15.8	0.00e+00	0	56	0	887095296	56	4512
2026-01-05 06:26:41.40	342.01	19.67	-46.9	-48.9	15.3	0.00e+00	0	56	0	892338176	56	4593
2026-01-05 06:26:44.38	341.41	19.45	-48.0	-50.8	13.2	3.80e-06	0	57	0	898629632	57	5356
2026-01-05 06:26:47.35	340.83	19.22	-48.2	-51.1	12.9	7.09e-05	0	57	0	903872512	58	5249
2026-01-05 06:26:50.32	340.26	19.00	-48.0	-50.6	13.7	2.20e-06	0	56	0	909115392	58	4931
2026-01-05 06:26:53.30	339.70	18.77	-47.9	-50.3	14.0	6.10e-06	0	56	0	915406848	58	4807
2026-01-05 06:26:56.28	339.14	18.54	-46.9	-48.8	15.6	0.00e+00	0	56	0	920649728	56	4525
2026-01-05 06:26:59.24	338.59	18.31	-46.7	-48.5	16.0	0.00e+00	0	57	0	925892608	56	4382
2026-01-05 06:27:02.20	338.06	18.08	-46.4	-48.0	16.5	0.00e+00	0	57	0	932184064	55	4390
2026-01-05 06:27:05.17	337.53	17.85	-46.3	-47.9	16.7	0.00e+00	0	57	0	937426944	55	4333
2026-01-05 06:27:08.14	337.00	17.62	-46.3	-47.9	16.8	0.00e+00	0	57	0	942669824	55	4330
2026-01-05 06:27:11.10	336.49	17.40	-46.1	-47.6	17.1	0.00e+00	0	57	0	947912704	55	4173
2026-01-05 06:27:14.06	335.99	17.17	-46.0	-47.5	17.2	0.00e+00	0	57	0	954204160	55	4113
2026-01-05 06:27:17.03	335.49	16.94	-46.1	-47.6	17.2	0.00e+00	0	57	0	959447040	55	4153
2026-01-05 06:27:20.00	335.00	16.71	-46.3	-47.9	16.9	0.00e+00	0	56	0	964689920	55	4297
2026-01-05 06:27:22.97	334.51	16.48	-46.2	-47.7	17.0	0.00e+00	0	57	0	970981376	55	4236
2026-01-05 06:27:25.94	334.04	16.24	-46.2	-47.8	17.0	0.00e+00	0	57	0	976224256	55	4251
2026-01-05 06:27:28.89	333.57	16.02	-46.6	-48.3	16.5	0.00e+00	0	57	0	981467136	55	4520
2026-01-05 06:27:31.86	333.11	15.79	-46.8	-48.6	16.2	0.00e+00	0	57	0	987758592	55	4664
2026-01-05 06:27:34.83	332.66	15.56	-47.0	-48.8	16.0	0.00e+00	0	57	0	993001472	55	4783
2026-01-05 06:27:37.79	332.21	15.33	-47.2	-49.0	15.9	0.00e+00	0	57	0	998244352	56	4602
2026-01-05 06:27:40.77	331.77	15.10	-47.3	-49.2	15.6	0.00e+00	0	56	0	1004535808	56	4753
2026-01-05 06:27:43.74	331.34	14.87	-47.5	-49.5	15.3	0.00e+00	0	57	0	1009778688	57	4636
2026-01-05 06:27:46.71	330.91	14.64	-47.2	-49.0	15.8	0.00e+00	0	57	0	1015021568	57	4387
2026-01-05 06:27:49.68	330.49	14.42	-47.3	-49.2	15.7	0.00e+00	0	57	0	1020264448	57	4476
2026-01-05 06:27:52.64	330.08	14.19	-47.4	-49.3	15.6	0.00e+00	0	56	0	1026555904	57	4507
2026-01-05 06:27:55.62	329.67	13.96	-47.5	-49.4	15.5	0.00e+00	0	57	0	1031798784	57	4582
2026-01-05 06:27:58.59	329.27	13.74	-47.6	-49.6	15.2	0.00e+00	0	57	0	1037041664	57	4678
2026-01-05 06:28:01.55	328.88	13.51	-47.5	-49.5	15.3	0.00e+00	0	57	0	1043333120	57	4647
2026-01-05 06:28:04.52	328.49	13.29	-47.6	-49.6	15.2	0.00e+00	0	57	0	1048576000	57	4704
2026-01-05 06:28:07.49	328.11	13.07	-47.8	-50.0	14.8	0.00e+00	0	56	0	1053818880	57	4907
2026-01-05 06:28:10.45	327.73	12.84	-47.9	-50.1	14.7	7.00e-07	0	57	0	1060110336	57	4975
2026-01-05 06:28:13.42	327.36	12.62	-47.6	-49.7	15.1	0.00e+00	0	57	0	1065353216	57	4723
2026-01-05 06:28:16.40	327.00	12.40	-47.7	-49.8	15.0	0.00e+00	0	57	0	1070596096	57	4768
2026-01-05 06:28:19.37	326.64	12.18	-47.9	-50.1	14.7	7.00e-07	0	57	0	1076887552	57	4952
2026-01-05 06:28:22.35	326.28	11.96	-47.9	-50.1	14.7	0.00e+00	0	57	0	1082130432	57	4965
2026-01-05 06:28:25.31	325.93	11.74	-47.9	-50.1	14.6	0.00e+00	0	57	0	1087373312	57	4978
2026-01-05 06:28:28.27	325.59	11.53	-48.1	-50.6	14.2	1.50e-06	0	57	0	1092616192	58	4931
2026-01-05 06:28:31.23	325.25	11.31	-48.4	-51.0	13.8	8.30e-06	0	57	0	1098907648	58	5174
2026-01-05 06:28:34.20	324.92	11.09	-48.3	-50.9	13.9	2.20e-06	0	57	0	1104150528	58	5104
2026-01-05 06:28:37.16	324.59	10.88	-48.5	-51.1	13.6	8.30e-06	0	57	0	1109393408	58	5272
2026-01-05 06:28:40.13	324.27	10.67	-48.6	-51.4	13.3	1.83e-05	0	57	0	1115684864	59	5126
2026-01-05 06:28:43.11	323.95	10.45	-48.8	-51.7	12.9	3.81e-05	0	57	0	1120927744	59	5325
2026-01-05 06:28:46.08	323.64	10.24	-48.6	-51.4	13.2	2.36e-05	0	57	0	1126170624	59	5137
2026-01-05 06:28:49.06	323.33	10.03	-48.5	-51.3	13.4	6.80e-06	0	57	0	1132462080	59	5045
2026-01-05 06:28:52.03	323.02	9.82	-48.7	-51.5	13.1	1.67e-05	0	57	0	1137704960	59	5199
2026-01-05 06:28:54.99	322.72	9.61	-48.5	-51.2	13.4	1.14e-05	0	57	0	1142947840	59	5017
2026-01-05 06:28:57.96	322.43	9.40	-48.5	-51.2	13.5	1.37e-05	0	57	0	1149239296	59	5002
2026-01-05 06:29:00.93	322.14	9.20	-48.5	-51.2	13.4	1.06e-05	0	57	0	1154482176	59	5035
2026-01-05 06:29:03.91	321.85	8.99	-48.6	-51.3	13.3	1.22e-05	0	57	0	1159725056	59	5090
2026-01-05 06:29:06.88	321.57	8.79	-48.8	-51.7	12.8	5.79e-05	0	57	0	1164967936	59	5313
2026-01-05 06:29:09.84	321.29	8.58	-48.9	-52.0	12.6	7.40e-05	0	57	0	1171259392	59	5477
2026-01-05 06:29:12.81	321.01	8.38	-49.0	-52.1	12.4	1.40e-04	0	57	0	1176502272	59	5586
2026-01-05 06:29:15.77	320.74	8.18	-48.9	-52.0	12.5	1.23e-04	0	57	0	1181745152	59	5518
2026-01-05 06:29:18.75	320.48	7.98	-48.9	-52.0	12.5	1.14e-04	0	57	0	1188036608	59	5515
2026-01-05 06:29:21.74	320.21	7.77	-49.0	-52.4	12.1	2.53e-04	0	57	0	1193279488	60	5403
2026-01-05 06:29:24.70	319.95	7.58	-49.3	-53.0	11.4	7.32e-04	0	57	0	1198522368	60	5823
2026-01-05 06:29:27.66	319.70	7.38	-49.4	-53.2	11.2	1.25e-03	0	57	0	1204813824	60	5934
2026-01-05 06:29:30.62	319.45	7.18	-49.3	-53.1	11.3	1.06e-03	0	57	0	1210056704	60	5858
2026-01-05 06:29:33.59	319.20	6.99	-49.2	-52.8	11.5	1.07e-03	0	57	0	1215299584	60	5717
2026-01-05 06:29:36.55	318.95	6.79	-49.0	-52.5	11.8	3.98e-04	0	57	0	1221591040	60	5497
2026-01-05 06:29:39.52	318.71	6.60	-49.1	-52.7	11.6	7.93e-04	0	57	0	1226833920	60	5627
2026-01-05 06:29:42.50	318.47	6.40	-49.2	-52.9	11.4	1.60e-03	0	57	0	1232076800	60	5782
2026-01-05 06:29:45.47	318.24	6.21	-49.4	-53.4	10.9	2.24e-03	0	57	0	1238368256	60	6085
2026-01-05 06:29:48.44	318.01	6.02	-49.6	-53.7	10.5	3.39e-03	0	57	0	1243611136	60	6345
2026-01-05 06:29:51.42	317.78	5.83	-49.8	-54.2	10.0	8.59e-03	0	57	0	1248854016	61	6321
2026-01-05 06:29:54.39	317.55	5.64	-49.7	-54.1	10.1	8.45e-03	0	57	0	1254096896	61	6257
2026-01-05 06:29:57.36	317.33	5.45	-49.4	-53.5	10.7	3.44e-03	0	57	0	1260388352	61	5839
2026-01-05 06:30:00.33	317.11	5.26	-49.6	-53.8	10.3	5.82e-03	0	57	0	1265631232	61	6057
2026-01-05 06:30:03.31	316.89	5.08	-49.3	-53.4	10.7	2.21e-03	0	57	0	1270874112	61	5741
2026-01-05 06:30:06.28	316.68	4.89	-51.7	-65.5	3.8	1.49e+00	0	57	104	1272971264	65	18438
2026-01-05 06:30:09.24	316.47	4.71	-51.9	-65.7	3.8	1.49e+00	0	57	104	1272971264	65	18820
2026-01-05 06:30:12.21	316.26	4.52	-52.2	-66.1	3.8	1.49e+00	0	57	104	1272971264	66	18620
2026-01-05 06:30:15.18	316.05	4.34	-52.4	-66.2	3.8	1.49e+00	0	57	104	1272971264	66	18832
2026-01-05 06:30:18.14	315.85	4.16	-52.4	-66.3	3.8	1.49e+00	0	57	104	1272971264	66	18991
2026-01-05 06:30:21.11	315.65	3.98	-52.5	-66.3	3.8	1.49e+00	0	57	104	1272971264	66	19114
2026-01-05 06:30:24.07	315.45	3.80	-52.6	-66.4	3.8	1.49e+00	0	57	104	1272971264	66	19179
2026-01-05 06:30:27.03	315.26	3.62	-52.5	-66.4	3.8	1.49e+00	0	57	104	1272971264	66	19237
2026-01-05 06:30:30.00	315.06	3.44	-52.6	-66.4	3.8	1.49e+00	0	57	104	1272971264	67	18185
2026-01-05 06:30:32.97	314.87	3.26	-52.5	-66.3	3.8	1.49e+00	0	57	104	1272971264	67	18076
2026-01-05 06:30:35.94	314.69	3.08	-52.5	-66.4	3.8	1.49e+00	0	57	104	1272971264	67	18152
2026-01-05 06:30:38.91	314.50	2.91	-52.6	-66.4	3.8	1.49e+00	0	57	104	1272971264	67	18114

#Closed at: 2026-01-05 06:30:40
#Recorded file [1272 MB]: D:/Data/31026_260105_093004.dat