passes_logs/2026/01/05/R3.0SM8_Murmansk_STILSPACE/R3.0SM8_Murmansk_STILSPACE__20260105_073638_SUOMI_NPP_rec.log

#Pass ID: 20260105_073638_SUOMI NPP
#Satellite: SUOMI NPP
#Configuration: NPP
#almurnet v.1.7.20240730
#Start time: 2026-01-05 07:36:40

#Version: 2.2.20231116
#Station: R3.0SM8_Murmansk_STILSPACE
#Location: 33.092731 lon 68.902999 lat
#TLE: 1 37849U 11061A   26003.96724563  .00000164  00000+0  98899-4 0  9990
#TLE: 2 37849  98.7800 306.1116 0002573  82.3190 277.8279 14.19522066735141

#Time	Az	El	Level	Level2	SNR	BER	BlckErr	Temp	State	Recorded	gain1	gain2
2026-01-05 07:36:40.20	105.46	3.12	-52.3	-66.1	3.8	1.49e+00	0	47	0	0	67	17559
2026-01-05 07:36:44.15	105.28	3.37	-51.9	-65.6	3.8	1.49e+00	0	48	104	0	66	17663
2026-01-05 07:36:48.11	105.09	3.62	-51.6	-65.2	3.8	1.49e+00	0	48	104	0	66	16883
2026-01-05 07:36:52.08	104.91	3.88	-51.5	-65.2	3.8	1.49e+00	0	48	104	0	66	16838
2026-01-05 07:36:56.06	104.71	4.14	-51.5	-65.0	3.8	1.49e+00	0	49	104	0	66	16373
2026-01-05 07:37:00.01	104.52	4.40	-51.5	-64.1	3.8	1.49e+00	0	49	104	0	65	15689
2026-01-05 07:37:03.95	104.32	4.66	-51.4	-62.5	3.9	1.46e+00	0	49	104	0	65	13057
2026-01-05 07:37:07.92	104.11	4.92	-51.2	-60.6	4.6	9.86e-01	0	49	0	3145728	65	10476
2026-01-05 07:37:11.88	103.90	5.19	-51.1	-60.0	4.9	6.36e-01	0	49	0	10485760	65	9726
2026-01-05 07:37:15.83	103.69	5.45	-51.0	-59.4	5.2	5.75e-01	0	50	0	17825792	65	9117
2026-01-05 07:37:19.80	103.48	5.73	-50.7	-57.7	6.5	2.87e-01	0	50	0	25165824	64	7958
2026-01-05 07:37:23.75	103.26	6.00	-50.5	-56.4	7.7	1.17e-01	0	50	0	32505856	63	7273
2026-01-05 07:37:27.71	103.03	6.28	-49.8	-54.2	10.0	1.09e-02	0	50	0	39845888	62	5961
2026-01-05 07:37:31.64	102.80	6.55	-49.6	-53.7	10.5	5.31e-03	0	51	0	47185920	62	5653
2026-01-05 07:37:35.61	102.57	6.83	-49.5	-53.5	10.8	3.32e-03	0	51	0	54525952	61	5797
2026-01-05 07:37:39.56	102.33	7.12	-49.3	-53.0	11.3	1.92e-03	0	51	0	61865984	61	5525
2026-01-05 07:37:43.51	102.09	7.40	-48.7	-51.8	12.5	1.50e-04	0	51	0	70254592	60	5068
2026-01-05 07:37:47.48	101.84	7.69	-48.6	-51.6	12.8	6.71e-05	0	51	0	77594624	60	4949
2026-01-05 07:37:51.45	101.58	7.98	-48.3	-51.1	13.4	1.29e-05	0	52	0	84934656	59	4931
2026-01-05 07:37:55.41	101.32	8.28	-48.4	-51.2	13.3	1.52e-05	0	52	0	92274688	59	5008
2026-01-05 07:37:59.36	101.06	8.57	-48.4	-51.3	13.2	3.20e-05	0	52	0	99614720	59	5070
2026-01-05 07:38:03.32	100.78	8.88	-48.3	-51.0	13.5	8.30e-06	0	52	0	106954752	59	4899
2026-01-05 07:38:07.27	100.51	9.18	-48.4	-51.2	13.3	2.21e-05	0	52	0	114294784	59	5027
2026-01-05 07:38:11.23	100.23	9.48	-48.4	-51.3	13.3	1.29e-05	0	52	0	121634816	59	5052
2026-01-05 07:38:15.18	99.94	9.79	-48.2	-50.9	13.6	1.22e-05	0	52	0	128974848	59	4844
2026-01-05 07:38:19.12	99.64	10.10	-48.1	-50.7	13.9	2.20e-06	0	52	0	136314880	58	4991
2026-01-05 07:38:23.08	99.34	10.42	-47.9	-50.4	14.2	1.50e-06	0	53	0	143654912	58	4817
2026-01-05 07:38:27.04	99.03	10.74	-47.8	-50.2	14.4	1.50e-06	0	53	0	150994944	58	4731
2026-01-05 07:38:30.97	98.72	11.06	-47.9	-50.2	14.4	2.20e-06	0	53	0	158334976	58	4752
2026-01-05 07:38:34.93	98.39	11.38	-47.6	-50.0	14.7	0.00e+00	0	53	0	165675008	58	4600
2026-01-05 07:38:38.89	98.06	11.71	-47.8	-50.3	14.4	1.50e-06	0	53	0	174063616	58	4771
2026-01-05 07:38:42.85	97.72	12.05	-48.1	-50.7	14.0	3.00e-06	0	53	0	181403648	58	4995
2026-01-05 07:38:46.81	97.37	12.38	-47.9	-50.2	14.5	0.00e+00	0	53	0	188743680	58	4756
2026-01-05 07:38:50.77	97.02	12.72	-48.0	-50.5	14.2	7.00e-07	0	53	0	196083712	58	4880
2026-01-05 07:38:54.73	96.65	13.07	-47.9	-50.2	14.5	7.00e-07	0	54	0	203423744	58	4756
2026-01-05 07:38:58.69	96.28	13.41	-47.6	-49.8	14.9	0.00e+00	0	53	0	210763776	58	4536
2026-01-05 07:39:02.66	95.90	13.76	-48.0	-50.5	14.3	7.00e-07	0	54	0	218103808	58	4875
2026-01-05 07:39:06.63	95.50	14.12	-47.5	-49.7	15.1	7.00e-07	0	54	0	225443840	58	4454
2026-01-05 07:39:10.58	95.10	14.48	-47.6	-49.8	15.0	7.00e-07	0	54	0	232783872	57	4771
2026-01-05 07:39:14.55	94.69	14.84	-47.3	-49.3	15.5	0.00e+00	0	54	0	240123904	57	4509
2026-01-05 07:39:18.52	94.27	15.21	-47.2	-49.1	15.7	7.00e-07	0	54	0	247463936	56	4669
2026-01-05 07:39:22.48	93.83	15.58	-47.3	-49.2	15.6	0.00e+00	0	54	0	254803968	56	4756
2026-01-05 07:39:26.45	93.39	15.95	-47.0	-48.8	15.9	0.00e+00	0	54	0	263192576	56	4544
2026-01-05 07:39:30.39	92.93	16.33	-47.6	-49.7	15.1	0.00e+00	0	54	0	270532608	56	5021
2026-01-05 07:39:34.35	92.46	16.71	-47.3	-49.4	15.5	0.00e+00	0	54	0	277872640	57	4558
2026-01-05 07:39:38.29	91.99	17.10	-47.7	-49.8	15.1	0.00e+00	0	54	0	285212672	57	4780
2026-01-05 07:39:42.26	91.49	17.49	-47.9	-50.2	14.7	0.00e+00	0	54	0	292552704	57	5005
2026-01-05 07:39:46.22	90.99	17.88	-47.8	-50.0	14.9	0.00e+00	0	54	0	299892736	58	4634
2026-01-05 07:39:50.19	90.46	18.28	-48.1	-50.5	14.4	0.00e+00	0	54	0	307232768	58	4875
2026-01-05 07:39:54.15	89.93	18.68	-47.5	-49.6	15.3	0.00e+00	0	55	0	314572800	57	4699
2026-01-05 07:39:58.11	89.38	19.09	-47.9	-50.3	14.6	0.00e+00	0	55	0	321912832	57	5043
2026-01-05 07:40:02.06	88.82	19.50	-47.8	-49.9	15.0	0.00e+00	0	55	0	329252864	58	4597
2026-01-05 07:40:06.03	88.24	19.91	-48.0	-50.3	14.7	0.00e+00	0	55	0	336592896	58	4760
2026-01-05 07:40:10.00	87.64	20.33	-47.7	-49.8	15.1	0.00e+00	0	55	0	343932928	58	4535
2026-01-05 07:40:13.95	87.03	20.75	-48.0	-50.4	14.6	0.00e+00	0	55	0	351272960	58	4818
2026-01-05 07:40:17.91	86.40	21.17	-47.3	-49.3	15.6	0.00e+00	0	55	0	359661568	57	4514
2026-01-05 07:40:21.87	85.75	21.60	-47.3	-49.3	15.6	0.00e+00	0	55	0	367001600	57	4511
2026-01-05 07:40:25.85	85.08	22.03	-47.3	-49.3	15.6	0.00e+00	0	55	0	374341632	57	4535
2026-01-05 07:40:29.80	84.40	22.46	-47.4	-49.4	15.6	0.00e+00	0	55	0	381681664	57	4556
2026-01-05 07:40:33.75	83.69	22.90	-48.0	-50.2	14.8	0.00e+00	0	55	0	389021696	58	4742
2026-01-05 07:40:37.72	82.96	23.34	-48.4	-50.9	14.0	3.80e-06	0	55	0	396361728	59	4862
2026-01-05 07:40:41.68	82.22	23.78	-49.0	-52.0	13.0	4.95e-05	0	55	0	403701760	59	5488
2026-01-05 07:40:45.64	81.45	24.22	-48.8	-51.8	13.2	1.60e-05	0	55	0	411041792	60	5057
2026-01-05 07:40:49.61	80.66	24.67	-48.5	-51.2	13.8	6.10e-06	0	55	0	418381824	59	4994
2026-01-05 07:40:53.58	79.84	25.12	-48.8	-51.8	13.2	3.81e-05	0	55	0	425721856	60	5042
2026-01-05 07:40:57.56	79.00	25.57	-48.4	-51.0	14.0	1.50e-06	0	56	0	434110464	59	4902
2026-01-05 07:41:01.50	78.14	26.01	-48.2	-50.7	14.3	1.50e-06	0	55	0	441450496	59	4727
2026-01-05 07:41:05.45	77.26	26.46	-48.3	-50.7	14.3	0.00e+00	0	55	0	448790528	59	4731
2026-01-05 07:41:09.41	76.35	26.91	-48.1	-50.5	14.5	7.00e-07	0	56	0	456130560	59	4605
2026-01-05 07:41:13.37	75.41	27.35	-47.7	-49.8	15.2	0.00e+00	0	56	0	463470592	58	4530
2026-01-05 07:41:17.32	74.44	27.80	-48.6	-51.2	13.8	0.00e+00	0	56	0	470810624	59	5037
2026-01-05 07:41:21.27	73.45	28.24	-48.7	-51.4	13.7	6.80e-06	0	56	0	478150656	59	5138
2026-01-05 07:41:25.22	72.44	28.68	-48.3	-50.6	14.4	7.00e-07	0	56	0	485490688	59	4653
2026-01-05 07:41:29.17	71.39	29.12	-49.1	-52.0	13.1	3.12e-05	0	56	0	492830720	59	5480
2026-01-05 07:41:33.13	70.31	29.55	-48.9	-51.7	13.1	6.56e-05	0	56	0	500170752	60	5041
2026-01-05 07:41:37.09	69.20	29.97	-49.6	-53.1	11.9	1.64e-04	0	56	0	507510784	60	5923
2026-01-05 07:41:41.04	68.07	30.39	-49.6	-53.2	11.8	4.04e-04	0	56	0	514850816	61	5626
2026-01-05 07:41:45.00	66.90	30.81	-49.2	-52.4	12.6	6.63e-05	0	56	0	522190848	61	5147
2026-01-05 07:41:48.95	65.71	31.21	-49.8	-53.7	11.2	4.02e-03	0	56	0	529530880	62	5635
2026-01-05 07:41:52.91	64.48	31.61	-50.4	-55.3	9.6	2.13e-02	0	56	0	537919488	63	6419
2026-01-05 07:41:56.87	63.23	32.00	-50.4	-55.5	9.4	5.78e-03	0	56	0	545259520	63	6521
2026-01-05 07:42:00.84	61.94	32.37	-49.7	-53.7	11.2	2.76e-03	0	56	0	552599552	62	5634
2026-01-05 07:42:04.79	60.62	32.73	-49.0	-52.1	13.0	7.09e-05	0	56	0	559939584	61	4942
2026-01-05 07:42:08.75	59.28	33.08	-49.6	-53.2	11.8	3.15e-04	0	56	0	567279616	61	5649
2026-01-05 07:42:12.71	57.90	33.42	-49.4	-53.0	11.9	3.13e-04	0	56	0	574619648	61	5524
2026-01-05 07:42:16.67	56.50	33.74	-49.5	-53.5	11.4	2.19e-03	0	56	0	581959680	61	5816
2026-01-05 07:42:20.63	55.07	34.04	-49.1	-52.5	12.5	5.79e-05	0	56	0	589299712	60	5465
2026-01-05 07:42:24.60	53.61	34.33	-48.3	-50.8	14.2	7.00e-07	0	56	0	596639744	59	4773
2026-01-05 07:42:28.54	52.13	34.59	-47.7	-49.8	15.3	7.00e-07	0	56	0	603979776	57	4769
2026-01-05 07:42:32.49	50.63	34.84	-47.7	-49.8	15.2	0.00e+00	0	56	0	611319808	58	4533
2026-01-05 07:42:36.45	49.11	35.06	-48.9	-51.8	13.3	5.30e-06	0	56	0	618659840	59	5356
2026-01-05 07:42:40.40	47.56	35.26	-47.5	-49.5	15.6	0.00e+00	0	56	0	625999872	58	4359
2026-01-05 07:42:44.36	46.00	35.44	-46.9	-48.7	16.3	0.00e+00	0	56	0	634388480	56	4474
2026-01-05 07:42:48.33	44.41	35.60	-47.5	-49.6	15.5	0.00e+00	0	56	0	641728512	56	4954
2026-01-05 07:42:52.30	42.81	35.73	-46.7	-48.4	16.7	0.00e+00	0	57	0	649068544	56	4295
2026-01-05 07:42:56.27	41.20	35.84	-48.5	-51.1	14.0	7.00e-07	0	57	0	656408576	58	5262
2026-01-05 07:43:00.24	39.58	35.92	-48.1	-50.5	14.6	7.00e-07	0	56	0	663748608	59	4627
2026-01-05 07:43:04.22	37.95	35.97	-48.1	-50.5	14.7	0.00e+00	0	56	0	671088640	59	4615
2026-01-05 07:43:08.18	36.32	36.00	-48.0	-50.2	14.9	0.00e+00	0	57	0	678428672	59	4466
2026-01-05 07:43:12.14	34.69	36.00	-48.4	-50.9	14.2	7.00e-07	0	56	0	685768704	58	5140
2026-01-05 07:43:16.10	33.07	35.98	-48.7	-51.4	13.6	5.30e-06	0	56	0	693108736	59	5154
2026-01-05 07:43:20.05	31.45	35.93	-48.0	-50.4	14.7	0.00e+00	0	57	0	700448768	58	4820
2026-01-05 07:43:24.01	29.83	35.85	-49.0	-52.1	12.8	5.95e-05	0	56	0	707788800	60	5260
2026-01-05 07:43:27.96	28.23	35.75	-48.5	-51.1	13.8	8.30e-06	0	56	0	715128832	60	4688
2026-01-05 07:43:31.90	26.64	35.62	-49.3	-52.6	12.3	1.18e-04	0	56	0	723517440	60	5561
2026-01-05 07:43:35.87	25.05	35.47	-50.4	-55.6	8.9	1.83e-02	0	57	0	730857472	62	7027
2026-01-05 07:43:39.82	23.49	35.30	-49.7	-54.1	10.2	4.70e-03	0	57	0	738197504	62	5914
2026-01-05 07:43:43.79	21.93	35.10	-49.6	-53.4	11.4	4.25e-04	0	57	0	745537536	61	5772
2026-01-05 07:43:47.76	20.40	34.87	-48.9	-51.9	13.0	7.93e-05	0	56	0	752877568	60	5141
2026-01-05 07:43:51.73	18.89	34.63	-48.8	-51.7	13.3	6.80e-06	0	57	0	760217600	59	5299
2026-01-05 07:43:55.68	17.41	34.37	-49.8	-53.7	11.2	2.60e-03	0	57	0	767557632	61	5955
2026-01-05 07:43:59.65	15.95	34.09	-47.3	-49.2	15.8	0.00e+00	0	57	0	774897664	57	4476
2026-01-05 07:44:03.62	14.51	33.79	-49.0	-52.1	12.9	2.13e-05	0	57	0	782237696	59	5551
2026-01-05 07:44:07.58	13.11	33.47	-48.9	-52.0	12.9	1.59e-04	0	56	0	789577728	60	5202
2026-01-05 07:44:11.53	11.73	33.14	-49.0	-52.3	12.7	1.62e-04	0	57	0	796917760	60	5376
2026-01-05 07:44:15.48	10.39	32.79	-48.8	-51.9	13.0	4.73e-05	0	57	0	804257792	60	5122
2026-01-05 07:44:19.43	9.07	32.43	-48.5	-51.1	13.9	1.37e-05	0	57	0	811597824	59	4959
2026-01-05 07:44:23.38	7.79	32.06	-48.1	-50.5	14.5	0.00e+00	0	57	0	819986432	58	4924
2026-01-05 07:44:27.34	6.53	31.68	-48.9	-51.8	13.1	5.34e-05	0	57	0	827326464	60	5098
2026-01-05 07:44:31.27	5.31	31.28	-48.6	-51.1	13.9	3.00e-06	0	57	0	834666496	59	4975
2026-01-05 07:44:35.24	4.10	30.88	-49.6	-53.2	11.7	5.97e-04	0	57	0	842006528	61	5647
2026-01-05 07:44:39.19	2.94	30.47	-49.3	-52.5	12.5	1.69e-04	0	57	0	849346560	61	5186
2026-01-05 07:44:43.15	1.80	30.05	-49.0	-52.0	13.0	1.22e-05	0	57	0	856686592	60	5218
2026-01-05 07:44:47.11	0.69	29.62	-49.1	-52.2	12.7	6.71e-05	0	57	0	864026624	60	5329
2026-01-05 07:44:51.06	359.61	29.20	-49.4	-52.6	12.4	2.39e-04	0	57	0	871366656	61	5266
2026-01-05 07:44:55.02	358.56	28.76	-48.9	-51.7	13.2	3.73e-05	0	57	0	878706688	60	5041
2026-01-05 07:44:58.97	357.54	28.32	-48.3	-50.7	14.3	1.50e-06	0	57	0	886046720	59	4719
2026-01-05 07:45:02.91	356.55	27.88	-48.6	-51.3	13.7	9.90e-06	0	57	0	893386752	59	5058
2026-01-05 07:45:06.87	355.58	27.44	-48.4	-51.0	14.0	2.20e-06	0	57	0	900726784	59	4910
2026-01-05 07:45:10.83	354.64	26.99	-48.1	-50.4	14.6	0.00e+00	0	57	0	908066816	58	4868
2026-01-05 07:45:14.79	353.73	26.55	-48.3	-50.8	14.3	3.00e-06	0	57	0	915406848	59	4773
2026-01-05 07:45:18.75	352.84	26.10	-46.8	-48.5	16.5	0.00e+00	0	57	0	923795456	56	4369
2026-01-05 07:45:22.72	351.97	25.65	-46.8	-48.6	16.2	0.00e+00	0	57	0	931135488	56	4436
2026-01-05 07:45:26.67	351.14	25.21	-47.1	-48.9	16.0	0.00e+00	0	57	0	938475520	56	4593
2026-01-05 07:45:30.60	350.33	24.77	-47.1	-48.9	16.0	0.00e+00	0	57	0	945815552	56	4583
2026-01-05 07:45:34.58	349.53	24.32	-47.4	-49.4	15.5	0.00e+00	0	57	0	953155584	56	4835
2026-01-05 07:45:38.55	348.76	23.87	-47.2	-49.2	15.7	7.00e-07	0	57	0	960495616	56	4713
2026-01-05 07:45:42.50	348.01	23.44	-48.0	-50.4	14.5	0.00e+00	0	57	0	967835648	57	5130
2026-01-05 07:45:46.46	347.29	23.00	-48.5	-51.0	14.0	7.00e-07	0	57	0	975175680	59	4887
2026-01-05 07:45:50.40	346.58	22.56	-48.4	-50.9	14.0	2.20e-06	0	57	0	982515712	59	4851
2026-01-05 07:45:54.37	345.89	22.13	-47.9	-50.1	14.7	7.00e-07	0	57	0	989855744	58	4696
2026-01-05 07:45:58.33	345.23	21.70	-48.2	-50.7	14.1	7.00e-07	0	57	0	997195776	58	5016
2026-01-05 07:46:02.28	344.58	21.27	-47.7	-49.9	14.9	1.50e-06	0	57	0	1004535808	58	4578
2026-01-05 07:46:06.23	343.95	20.85	-47.0	-48.9	15.9	0.00e+00	0	57	0	1011875840	57	4305
2026-01-05 07:46:10.19	343.34	20.43	-48.0	-50.4	14.4	0.00e+00	0	57	0	1020264448	57	5135
2026-01-05 07:46:14.15	342.74	20.01	-47.5	-49.7	14.9	0.00e+00	0	57	0	1027604480	57	4741
2026-01-05 07:46:18.10	342.16	19.60	-47.6	-50.0	14.3	7.00e-07	0	57	0	1034944512	57	4892
2026-01-05 07:46:22.07	341.59	19.19	-49.4	-54.0	9.7	7.51e-03	0	57	0	1042284544	60	6551
2026-01-05 07:46:26.03	341.04	18.79	-50.1	-56.3	7.4	5.89e-02	0	57	0	1049624576	61	8022
2026-01-05 07:46:29.99	340.51	18.39	-50.0	-55.5	8.5	7.88e-02	0	57	0	1056964608	62	6918
2026-01-05 07:46:33.94	339.99	17.99	-48.7	-52.0	12.4	2.49e-04	0	57	0	1064304640	60	5182
2026-01-05 07:46:37.92	339.48	17.59	-48.5	-51.4	13.2	5.26e-05	0	57	0	1071644672	60	4855
2026-01-05 07:46:41.87	338.99	17.20	-49.4	-52.9	11.8	4.67e-04	0	57	0	1078984704	60	5742
2026-01-05 07:46:45.82	338.51	16.82	-49.0	-52.2	12.4	2.72e-04	0	57	0	1086324736	61	5011
2026-01-05 07:46:49.78	338.04	16.44	-47.5	-49.6	15.1	1.50e-06	0	57	0	1093664768	58	4403
2026-01-05 07:46:53.76	337.58	16.06	-47.7	-49.9	14.8	7.00e-07	0	57	0	1101004800	57	4845
2026-01-05 07:46:57.71	337.14	15.68	-47.8	-50.1	14.5	0.00e+00	0	57	0	1109393408	57	4978
2026-01-05 07:47:01.68	336.70	15.31	-47.8	-50.1	14.5	0.00e+00	0	57	0	1116733440	57	4967
2026-01-05 07:47:05.64	336.28	14.95	-48.3	-50.8	13.9	1.50e-06	0	57	0	1124073472	58	5055
2026-01-05 07:47:09.60	335.87	14.59	-48.2	-50.6	14.1	2.20e-06	0	57	0	1131413504	58	4960
2026-01-05 07:47:13.54	335.47	14.23	-48.1	-50.5	14.2	1.50e-06	0	57	0	1138753536	58	4907
2026-01-05 07:47:17.50	335.07	13.87	-48.5	-51.1	13.6	9.90e-06	0	57	0	1146093568	59	4951
2026-01-05 07:47:21.46	334.69	13.52	-49.4	-52.9	11.8	2.68e-04	0	57	0	1153433600	60	5740
2026-01-05 07:47:25.42	334.32	13.18	-49.6	-53.4	11.2	1.55e-03	0	57	0	1160773632	61	5777
2026-01-05 07:47:29.37	333.96	12.83	-49.0	-52.3	12.3	2.07e-04	0	57	0	1168113664	61	5057
2026-01-05 07:47:33.33	333.60	12.49	-48.3	-51.0	13.7	2.59e-05	0	57	0	1175453696	59	4892
2026-01-05 07:47:37.30	333.25	12.16	-48.1	-50.5	14.1	1.50e-06	0	57	0	1182793728	59	4632
2026-01-05 07:47:41.25	332.91	11.83	-47.7	-50.0	14.6	0.00e+00	0	57	0	1190133760	58	4615
2026-01-05 07:47:45.21	332.58	11.50	-47.7	-50.0	14.6	7.00e-07	0	57	0	1197473792	58	4612
2026-01-05 07:47:49.18	332.26	11.17	-47.9	-50.2	14.4	1.50e-06	0	57	0	1205862400	58	4725
2026-01-05 07:47:53.15	331.94	10.85	-48.2	-50.8	13.8	2.20e-06	0	57	0	1213202432	58	5076
2026-01-05 07:47:57.12	331.63	10.53	-48.4	-51.1	13.4	1.52e-05	0	57	0	1220542464	58	5270
2026-01-05 07:48:01.08	331.33	10.21	-48.5	-51.4	13.1	2.28e-05	0	57	0	1227882496	59	5136
2026-01-05 07:48:05.05	331.03	9.90	-48.7	-51.6	12.9	3.66e-05	0	57	0	1235222528	59	5252
2026-01-05 07:48:09.02	330.74	9.59	-48.9	-52.0	12.5	1.38e-04	0	57	0	1242562560	59	5515
2026-01-05 07:48:12.98	330.46	9.28	-49.3	-53.1	11.4	4.45e-04	0	57	0	1249902592	60	5862
2026-01-05 07:48:16.93	330.19	8.98	-49.6	-53.7	10.8	2.70e-03	0	57	0	1257242624	61	5954
2026-01-05 07:48:20.88	329.92	8.68	-49.7	-54.0	10.3	4.23e-03	0	57	0	1264582656	61	6144
2026-01-05 07:48:24.84	329.65	8.38	-49.4	-53.3	11.0	1.89e-03	0	57	0	1271922688	61	5703
2026-01-05 07:48:28.79	329.39	8.09	-49.1	-52.6	11.8	6.38e-04	0	57	0	1279262720	61	5248
2026-01-05 07:48:32.72	329.14	7.80	-48.5	-51.5	12.8	5.79e-05	0	57	0	1286602752	60	4920
2026-01-05 07:48:36.68	328.89	7.51	-48.4	-51.3	13.1	4.27e-05	0	57	0	1293942784	59	5049
2026-01-05 07:48:40.65	328.65	7.22	-48.5	-51.4	13.0	4.19e-05	0	57	0	1302331392	59	5106
2026-01-05 07:48:44.61	328.41	6.94	-48.5	-51.5	12.8	6.56e-05	0	57	0	1309671424	59	5192
2026-01-05 07:48:48.57	328.18	6.66	-48.8	-52.1	12.2	2.55e-04	0	57	0	1317011456	59	5569
2026-01-05 07:48:52.52	327.95	6.38	-49.1	-52.8	11.5	7.85e-04	0	57	0	1324351488	60	5678
2026-01-05 07:48:56.50	327.73	6.10	-49.5	-53.6	10.6	2.61e-03	0	57	0	1331691520	60	6250
2026-01-05 07:49:00.47	327.51	5.83	-49.5	-54.0	10.2	6.83e-03	0	57	0	1339031552	61	6160
2026-01-05 07:49:04.44	327.29	5.56	-49.6	-54.0	10.1	5.32e-03	0	57	0	1346371584	61	6164
2026-01-05 07:49:08.38	327.08	5.29	-49.7	-54.4	9.7	9.35e-03	0	57	0	1353711616	61	6472
2026-01-05 07:49:12.33	326.88	5.02	-51.4	-64.8	3.8	9.01e-02	0	57	104	1361051648	64	18039
2026-01-05 07:49:16.31	326.67	4.76	-49.2	-63.0	3.8	1.49e+00	0	57	104	1361051648	60	18408
2026-01-05 07:49:20.24	326.47	4.50	-52.3	-66.1	3.8	1.49e+00	0	57	104	1361051648	66	18672
2026-01-05 07:49:24.20	326.28	4.24	-52.5	-66.3	3.8	1.49e+00	0	57	104	1361051648	66	18998
2026-01-05 07:49:28.14	326.09	3.98	-52.5	-66.4	3.8	1.49e+00	0	57	104	1361051648	66	19194
2026-01-05 07:49:32.09	325.90	3.73	-52.5	-66.4	3.8	1.49e+00	0	57	104	1361051648	67	18198
2026-01-05 07:49:36.05	325.72	3.47	-52.5	-66.4	3.8	1.49e+00	0	57	104	1361051648	67	18244
2026-01-05 07:49:40.02	325.54	3.22	-52.6	-66.4	3.8	1.49e+00	0	57	104	1361051648	67	18244
2026-01-05 07:49:43.97	325.36	2.97	-52.6	-66.4	3.8	1.49e+00	0	57	104	1361051648	67	18187

#Closed at: 2026-01-05 07:49:45
#Recorded file [1361 MB]: D:/Data/31026_260105_104912.dat