passes_logs/2026/01/05/R3.0SM8_Murmansk_STILSPACE/R3.0SM8_Murmansk_STILSPACE__20260105_023911_SUOMI_NPP_rec.log

#Pass ID: 20260105_023911_SUOMI NPP
#Satellite: SUOMI NPP
#Configuration: NPP
#almurnet v.1.7.20240730
#Start time: 2026-01-05 02:42:08

#Version: 2.2.20231116
#Station: R3.0SM8_Murmansk_STILSPACE
#Location: 33.092731 lon 68.902999 lat
#TLE: 1 37849U 11061A   26003.96724563  .00000164  00000+0  98899-4 0  9990
#TLE: 2 37849  98.7800 306.1116 0002573  82.3190 277.8279 14.19522066735141

#Time	Az	El	Level	Level2	SNR	BER	BlckErr	Temp	State	Recorded	gain1	gain2
2026-01-05 02:42:08.21	21.39	16.88	-54.3	-74.2	3.8	7.44e-01	0	56	0	0	70	38640
2026-01-05 02:42:11.16	21.05	17.17	-52.6	-66.4	3.8	1.49e+00	0	56	104	0	68	17143
2026-01-05 02:42:14.12	20.70	17.47	-52.5	-66.3	3.8	1.49e+00	0	56	104	0	67	17990
2026-01-05 02:42:17.08	20.34	17.77	-52.5	-66.3	3.8	1.49e+00	0	57	104	0	67	17968
2026-01-05 02:42:20.04	19.98	18.07	-52.5	-66.3	3.8	1.49e+00	0	56	104	0	67	17930
2026-01-05 02:42:23.00	19.60	18.37	-52.3	-66.2	3.8	1.49e+00	0	56	104	0	67	17842
2026-01-05 02:42:25.97	19.22	18.68	-52.4	-66.2	3.8	1.49e+00	0	57	104	0	67	17779
2026-01-05 02:42:28.93	18.83	18.99	-52.4	-66.2	3.8	1.49e+00	0	57	104	0	67	17739
2026-01-05 02:42:31.89	18.44	19.30	-51.8	-65.7	3.8	1.49e+00	0	56	104	0	66	17764
2026-01-05 02:42:34.86	18.03	19.61	-52.2	-65.9	3.8	1.49e+00	0	57	104	0	66	18114
2026-01-05 02:42:37.83	17.61	19.93	-52.2	-65.9	3.8	1.49e+00	0	57	104	0	66	18102
2026-01-05 02:42:40.80	17.19	20.25	-52.2	-65.6	3.8	1.49e+00	0	57	104	0	66	17565
2026-01-05 02:42:43.76	16.76	20.57	-52.0	-65.5	3.8	1.49e+00	0	56	104	0	66	17335
2026-01-05 02:42:46.73	16.32	20.89	-52.2	-65.8	3.8	1.49e+00	0	57	104	0	66	17933
2026-01-05 02:42:49.70	15.86	21.22	-52.2	-65.5	3.8	1.49e+00	0	57	104	0	66	17363
2026-01-05 02:42:52.66	15.40	21.54	-52.2	-65.8	3.8	1.49e+00	0	57	104	0	66	17945
2026-01-05 02:42:55.64	14.93	21.87	-52.1	-65.1	3.8	1.49e+00	0	57	104	0	66	16543
2026-01-05 02:42:58.60	14.45	22.21	-51.4	-58.8	6.0	5.56e-01	0	57	0	2097152	66	8033
2026-01-05 02:43:01.56	13.96	22.54	-49.2	-52.5	12.4	4.71e-04	0	57	0	7340032	61	5178
2026-01-05 02:43:04.53	13.45	22.88	-48.7	-51.5	13.3	3.28e-05	0	57	0	12582912	60	4894
2026-01-05 02:43:07.49	12.94	23.21	-48.8	-51.8	13.0	2.89e-05	0	57	0	18874368	60	5046
2026-01-05 02:43:10.45	12.41	23.55	-48.2	-50.7	14.1	7.60e-06	0	57	0	24117248	59	4721
2026-01-05 02:43:13.42	11.87	23.90	-47.0	-48.9	15.7	0.00e+00	0	57	0	29360128	57	4319
2026-01-05 02:43:16.38	11.32	24.24	-47.1	-49.2	15.2	0.00e+00	0	57	0	35651584	56	4737
2026-01-05 02:43:19.34	10.76	24.58	-48.6	-52.0	11.9	1.83e-04	0	57	0	40894464	59	5483
2026-01-05 02:43:22.30	10.19	24.93	-49.2	-54.2	9.0	2.16e-02	0	57	0	46137344	60	6713
2026-01-05 02:43:25.26	9.60	25.28	-49.6	-56.1	7.0	1.24e-01	0	57	0	52428800	61	7852
2026-01-05 02:43:28.23	9.00	25.63	-49.9	-56.0	7.4	1.19e-01	0	57	0	57671680	61	7789
2026-01-05 02:43:31.19	8.38	25.98	-49.1	-53.0	11.2	4.24e-03	0	57	0	62914560	61	5478
2026-01-05 02:43:34.17	7.75	26.33	-49.3	-52.8	11.7	5.57e-04	0	57	0	69206016	61	5386
2026-01-05 02:43:37.14	7.11	26.68	-49.6	-53.6	11.0	1.22e-03	0	57	0	74448896	61	5889
2026-01-05 02:43:40.12	6.45	27.04	-49.2	-53.0	11.7	7.48e-04	0	57	0	79691776	61	5472
2026-01-05 02:43:43.10	5.77	27.39	-48.3	-50.9	13.8	1.98e-05	0	57	0	84934656	59	4855
2026-01-05 02:43:46.06	5.08	27.74	-48.1	-50.5	14.2	2.20e-06	0	57	0	91226112	58	4888
2026-01-05 02:43:49.03	4.38	28.09	-48.0	-50.3	14.5	4.50e-06	0	57	0	96468992	58	4806
2026-01-05 02:43:51.99	3.66	28.44	-48.1	-50.4	14.5	0.00e+00	0	57	0	101711872	58	4836
2026-01-05 02:43:54.96	2.92	28.80	-48.4	-51.0	14.0	3.80e-06	0	57	0	108003328	58	5178
2026-01-05 02:43:57.93	2.17	29.15	-48.4	-51.0	13.9	3.00e-06	0	57	0	113246208	58	5200
2026-01-05 02:44:00.89	1.40	29.49	-48.7	-51.5	13.4	4.50e-06	0	57	0	118489088	59	5205
2026-01-05 02:44:03.86	0.61	29.84	-48.7	-51.5	13.4	1.22e-05	0	57	0	124780544	60	4925
2026-01-05 02:44:06.84	359.81	30.19	-48.5	-51.1	13.9	4.50e-06	0	57	0	130023424	59	4937
2026-01-05 02:44:09.80	358.99	30.53	-49.0	-52.0	13.0	2.59e-05	0	57	0	135266304	59	5475
2026-01-05 02:44:12.77	358.15	30.87	-48.8	-51.6	13.3	1.37e-05	0	57	0	141557760	59	5253
2026-01-05 02:44:15.73	357.29	31.21	-48.7	-51.4	13.5	6.80e-06	0	57	0	146800640	59	5157
2026-01-05 02:44:18.70	356.42	31.54	-49.4	-53.1	11.7	2.34e-04	0	57	0	152043520	61	5591
2026-01-05 02:44:21.66	355.52	31.87	-49.4	-53.1	11.9	9.74e-04	0	57	0	157286400	61	5540
2026-01-05 02:44:24.64	354.61	32.19	-49.6	-53.5	11.4	7.37e-04	0	57	0	163577856	61	5792
2026-01-05 02:44:27.60	353.68	32.51	-49.6	-53.3	11.6	5.97e-04	0	57	0	168820736	61	5670
2026-01-05 02:44:30.56	352.73	32.82	-49.5	-53.2	11.7	4.01e-04	0	57	0	174063616	61	5608
2026-01-05 02:44:33.54	351.76	33.13	-50.4	-55.4	9.4	1.58e-02	0	57	0	180355072	62	6848
2026-01-05 02:44:36.51	350.78	33.44	-49.9	-53.9	10.8	4.68e-03	0	57	0	185597952	62	5783
2026-01-05 02:44:39.48	349.77	33.73	-49.9	-54.0	11.0	2.50e-03	0	57	0	190840832	62	5797
2026-01-05 02:44:42.45	348.75	34.02	-50.5	-55.6	9.2	3.58e-02	0	57	0	197132288	63	6583
2026-01-05 02:44:45.43	347.70	34.30	-50.4	-55.2	9.7	1.08e-02	0	57	0	202375168	63	6315
2026-01-05 02:44:48.38	346.65	34.57	-50.4	-55.3	9.7	2.09e-02	0	57	0	207618048	63	6360
2026-01-05 02:44:51.35	345.57	34.83	-49.7	-53.6	11.3	2.69e-03	0	57	0	212860928	62	5580
2026-01-05 02:44:54.31	344.48	35.08	-49.2	-52.9	12.0	2.00e-04	0	57	0	219152384	61	5410
2026-01-05 02:44:57.28	343.37	35.33	-48.8	-51.8	13.1	7.09e-05	0	57	0	224395264	60	5079
2026-01-05 02:45:00.24	342.25	35.56	-48.6	-51.6	13.3	6.10e-06	0	57	0	229638144	59	5266
2026-01-05 02:45:03.20	341.11	35.78	-48.5	-51.3	13.6	9.90e-06	0	57	0	235929600	59	5048
2026-01-05 02:45:06.16	339.95	35.98	-47.6	-49.9	15.0	0.00e+00	0	57	0	241172480	58	4579
2026-01-05 02:45:09.14	338.77	36.18	-47.8	-50.2	14.8	7.00e-07	0	57	0	246415360	58	4712
2026-01-05 02:45:12.10	337.59	36.36	-47.4	-49.4	15.5	0.00e+00	0	57	0	252706816	57	4594
2026-01-05 02:45:15.06	336.40	36.53	-47.2	-49.1	15.9	0.00e+00	0	57	0	257949696	56	4697
2026-01-05 02:45:18.03	335.18	36.69	-47.3	-49.4	15.6	0.00e+00	0	57	0	263192576	57	4560
2026-01-05 02:45:21.00	333.96	36.83	-46.9	-48.7	16.3	0.00e+00	0	57	0	268435456	56	4451
2026-01-05 02:45:23.98	332.72	36.96	-47.3	-49.3	15.7	0.00e+00	0	57	0	274726912	57	4509
2026-01-05 02:45:26.94	331.48	37.08	-46.8	-48.5	16.5	0.00e+00	0	57	0	279969792	56	4353
2026-01-05 02:45:29.89	330.24	37.17	-47.9	-50.1	14.9	0.00e+00	0	57	0	285212672	58	4691
2026-01-05 02:45:32.85	328.98	37.26	-47.1	-48.8	16.2	0.00e+00	0	57	0	291504128	57	4279
2026-01-05 02:45:35.81	327.72	37.32	-47.2	-49.1	16.0	0.00e+00	0	57	0	296747008	57	4406
2026-01-05 02:45:38.77	326.46	37.37	-48.2	-50.5	14.5	2.20e-06	0	57	0	301989888	58	4914
2026-01-05 02:45:41.75	325.18	37.41	-48.7	-51.3	13.8	1.50e-06	0	58	0	308281344	59	5066
2026-01-05 02:45:44.71	323.91	37.43	-49.5	-53.1	11.9	3.08e-04	0	57	0	313524224	61	5535
2026-01-05 02:45:47.68	322.64	37.43	-49.6	-53.3	11.8	1.08e-03	0	58	0	318767104	61	5678
2026-01-05 02:45:50.64	321.37	37.42	-49.1	-52.2	12.9	5.95e-05	0	57	0	325058560	61	5012
2026-01-05 02:45:53.61	320.09	37.39	-49.4	-52.7	12.4	1.81e-04	0	57	0	330301440	61	5306
2026-01-05 02:45:56.57	318.82	37.34	-47.9	-50.0	15.1	7.00e-07	0	57	0	335544320	58	4625
2026-01-05 02:45:59.54	317.56	37.28	-48.6	-51.3	13.8	7.00e-07	0	57	0	340787200	59	5068
2026-01-05 02:46:02.52	316.29	37.21	-49.1	-52.1	12.9	2.59e-05	0	57	0	347078656	59	5581
2026-01-05 02:46:05.49	315.04	37.11	-49.6	-53.4	11.6	1.96e-03	0	57	0	352321536	61	5786
2026-01-05 02:46:08.46	313.79	37.01	-48.7	-51.6	13.3	1.22e-05	0	57	0	357564416	60	4977
2026-01-05 02:46:11.42	312.56	36.88	-48.9	-52.2	12.9	1.11e-04	0	57	0	363855872	60	5280
2026-01-05 02:46:14.40	311.32	36.75	-48.5	-51.3	13.7	5.30e-06	0	57	0	369098752	59	5062
2026-01-05 02:46:17.37	310.11	36.59	-48.4	-51.1	13.9	4.50e-06	0	58	0	374341632	59	4960
2026-01-05 02:46:20.35	308.90	36.43	-48.8	-52.0	12.9	4.04e-05	0	58	0	380633088	59	5499
2026-01-05 02:46:23.32	307.70	36.25	-49.0	-52.4	12.5	4.04e-05	0	57	0	385875968	59	5769
2026-01-05 02:46:26.29	306.52	36.06	-49.1	-52.7	12.3	2.82e-04	0	58	0	391118848	60	5640
2026-01-05 02:46:29.24	305.37	35.85	-48.4	-51.2	13.7	2.28e-05	0	57	0	397410304	60	4726
2026-01-05 02:46:32.22	304.21	35.64	-48.7	-51.7	13.3	3.00e-06	0	58	0	402653184	59	5331
2026-01-05 02:46:35.20	303.07	35.41	-47.7	-49.9	15.1	0.00e+00	0	57	0	407896064	58	4585
2026-01-05 02:46:38.16	301.96	35.17	-47.0	-48.8	16.1	0.00e+00	0	58	0	413138944	56	4541
2026-01-05 02:46:41.14	300.85	34.92	-48.1	-50.6	14.5	0.00e+00	0	57	0	419430400	57	5245
2026-01-05 02:46:44.13	299.76	34.66	-48.6	-51.6	13.4	6.10e-06	0	58	0	424673280	59	5232
2026-01-05 02:46:47.11	298.69	34.39	-48.0	-50.4	14.6	0.00e+00	0	58	0	430964736	59	4583
2026-01-05 02:46:50.07	297.65	34.11	-48.7	-51.6	13.4	1.14e-05	0	58	0	436207616	59	5225
2026-01-05 02:46:53.03	296.62	33.83	-49.3	-52.7	12.4	1.63e-04	0	57	0	441450496	60	5635
2026-01-05 02:46:56.01	295.60	33.53	-48.6	-51.3	13.6	2.74e-05	0	58	0	446693376	60	4792
2026-01-05 02:46:58.98	294.61	33.23	-48.5	-51.0	14.0	1.44e-05	0	58	0	452984832	59	4896
2026-01-05 02:47:01.95	293.63	32.93	-48.3	-50.7	14.4	0.00e+00	0	58	0	458227712	59	4753
2026-01-05 02:47:04.93	292.67	32.61	-49.1	-52.1	12.8	6.86e-05	0	58	0	463470592	60	5277
2026-01-05 02:47:07.89	291.74	32.29	-48.3	-50.8	14.3	3.00e-06	0	58	0	469762048	59	4764
2026-01-05 02:47:10.87	290.81	31.97	-48.6	-51.1	13.9	7.00e-07	0	57	0	475004928	59	4972
2026-01-05 02:47:13.84	289.91	31.64	-48.9	-51.8	13.2	2.28e-05	0	57	0	480247808	59	5367
2026-01-05 02:47:16.82	289.02	31.31	-48.2	-50.7	14.3	2.20e-06	0	58	0	486539264	59	4750
2026-01-05 02:47:19.79	288.16	30.97	-48.5	-51.3	13.8	5.30e-06	0	58	0	491782144	59	5060
2026-01-05 02:47:22.76	287.31	30.63	-49.2	-52.5	12.5	7.32e-05	0	58	0	497025024	60	5508
2026-01-05 02:47:25.73	286.48	30.29	-49.2	-52.4	12.5	4.16e-04	0	58	0	503316480	61	5149
2026-01-05 02:47:28.68	285.68	29.94	-49.2	-52.3	12.7	5.03e-05	0	58	0	508559360	60	5359
2026-01-05 02:47:31.65	284.88	29.60	-48.9	-51.8	13.1	2.82e-05	0	58	0	513802240	60	5094
2026-01-05 02:47:34.63	284.10	29.25	-48.4	-50.8	14.2	1.50e-06	0	58	0	519045120	59	4807
2026-01-05 02:47:37.60	283.34	28.90	-47.8	-50.0	15.0	0.00e+00	0	58	0	525336576	58	4624
2026-01-05 02:47:40.57	282.60	28.54	-47.6	-49.6	15.4	0.00e+00	0	58	0	530579456	57	4694
2026-01-05 02:47:43.53	281.87	28.19	-48.1	-50.4	14.7	7.00e-07	0	58	0	535822336	58	4848
2026-01-05 02:47:46.50	281.16	27.84	-48.4	-50.8	14.2	7.00e-07	0	58	0	542113792	58	5092
2026-01-05 02:47:49.48	280.46	27.49	-47.3	-49.2	15.9	0.00e+00	0	58	0	547356672	57	4460
2026-01-05 02:47:52.46	279.78	27.13	-48.0	-50.3	14.8	0.00e+00	0	57	0	552599552	57	5071
2026-01-05 02:47:55.43	279.11	26.78	-47.2	-49.0	16.0	0.00e+00	0	57	0	558891008	57	4362
2026-01-05 02:47:58.41	278.46	26.42	-46.6	-48.1	16.9	0.00e+00	0	58	0	564133888	56	4192
2026-01-05 02:48:01.36	277.83	26.07	-46.7	-48.3	16.6	0.00e+00	0	58	0	569376768	56	4287
2026-01-05 02:48:04.33	277.21	25.72	-46.9	-48.7	16.3	0.00e+00	0	58	0	575668224	56	4455
2026-01-05 02:48:07.30	276.60	25.37	-47.2	-49.1	15.9	0.00e+00	0	58	0	580911104	56	4652
2026-01-05 02:48:10.27	276.00	25.02	-47.0	-48.9	16.1	0.00e+00	0	58	0	586153984	56	4550
2026-01-05 02:48:13.24	275.42	24.67	-47.1	-48.9	16.0	0.00e+00	0	58	0	591396864	56	4572
2026-01-05 02:48:16.21	274.85	24.32	-46.9	-48.7	16.3	0.00e+00	0	57	0	597688320	56	4455
2026-01-05 02:48:19.16	274.30	23.98	-46.8	-48.6	16.4	0.00e+00	0	57	0	602931200	56	4392
2026-01-05 02:48:22.14	273.75	23.64	-47.2	-49.1	15.9	0.00e+00	0	58	0	608174080	56	4660
2026-01-05 02:48:25.10	273.22	23.30	-47.6	-49.6	15.3	0.00e+00	0	58	0	614465536	57	4697
2026-01-05 02:48:28.07	272.70	22.96	-47.5	-49.5	15.5	0.00e+00	0	58	0	619708416	57	4603
2026-01-05 02:48:31.02	272.20	22.62	-47.6	-49.6	15.3	0.00e+00	0	58	0	624951296	57	4695
2026-01-05 02:48:33.98	271.70	22.29	-47.9	-50.1	14.9	0.00e+00	0	58	0	631242752	58	4669
2026-01-05 02:48:36.94	271.22	21.95	-48.2	-50.6	14.4	1.50e-06	0	58	0	636485632	58	4944
2026-01-05 02:48:39.91	270.74	21.62	-48.3	-50.8	14.2	0.00e+00	0	58	0	641728512	58	5084
2026-01-05 02:48:42.90	270.27	21.29	-47.9	-50.2	14.7	7.00e-07	0	58	0	648019968	58	4738
2026-01-05 02:48:45.86	269.81	20.96	-47.5	-49.5	15.5	0.00e+00	0	58	0	653262848	58	4376
2026-01-05 02:48:48.83	269.37	20.64	-47.5	-49.5	15.5	0.00e+00	0	58	0	658505728	57	4644
2026-01-05 02:48:51.82	268.93	20.31	-47.8	-50.0	14.9	0.00e+00	0	58	0	664797184	57	4892
2026-01-05 02:48:54.79	268.50	19.99	-47.5	-49.6	15.3	7.00e-07	0	58	0	670040064	58	4404
2026-01-05 02:48:57.75	268.08	19.67	-46.5	-48.2	16.7	0.00e+00	0	57	0	675282944	56	4194
2026-01-05 02:49:00.71	267.67	19.36	-46.8	-48.6	16.3	0.00e+00	0	58	0	680525824	56	4392
2026-01-05 02:49:03.68	267.27	19.05	-47.7	-49.8	15.0	0.00e+00	0	58	0	686817280	57	4805
2026-01-05 02:49:06.65	266.87	18.74	-48.7	-51.5	13.4	1.50e-06	0	58	0	692060160	59	5190
2026-01-05 02:49:09.62	266.49	18.43	-49.4	-52.7	12.2	2.05e-04	0	58	0	697303040	60	5600
2026-01-05 02:49:12.58	266.11	18.12	-49.1	-52.1	12.8	1.43e-04	0	58	0	703594496	61	4973
2026-01-05 02:49:15.55	265.74	17.82	-48.2	-50.4	14.5	1.50e-06	0	58	0	708837376	59	4595
2026-01-05 02:49:18.51	265.38	17.52	-47.7	-49.7	15.2	7.00e-07	0	58	0	714080256	58	4478
2026-01-05 02:49:21.47	265.03	17.22	-48.4	-50.8	14.1	0.00e+00	0	58	0	720371712	58	5096
2026-01-05 02:49:24.43	264.68	16.93	-49.0	-51.9	13.0	4.65e-05	0	58	0	725614592	60	5153
2026-01-05 02:49:27.40	264.34	16.63	-48.4	-51.0	13.9	7.60e-06	0	57	0	730857472	60	4611
2026-01-05 02:49:30.35	264.01	16.35	-48.1	-50.3	14.6	0.00e+00	0	58	0	736100352	59	4540
2026-01-05 02:49:33.31	263.68	16.06	-47.8	-49.9	15.0	0.00e+00	0	58	0	742391808	58	4577
2026-01-05 02:49:36.28	263.36	15.77	-48.0	-50.2	14.7	0.00e+00	0	58	0	747634688	58	4729
2026-01-05 02:49:39.25	263.04	15.49	-48.1	-50.4	14.6	7.00e-07	0	58	0	752877568	58	4833
2026-01-05 02:49:42.22	262.73	15.21	-48.1	-50.4	14.5	1.50e-06	0	58	0	759169024	58	4856
2026-01-05 02:49:45.18	262.43	14.93	-48.2	-50.5	14.4	7.00e-07	0	58	0	764411904	58	4894
2026-01-05 02:49:48.16	262.13	14.65	-48.4	-50.8	14.0	4.50e-06	0	58	0	769654784	59	4814
2026-01-05 02:49:51.13	261.84	14.38	-48.6	-51.1	13.7	1.50e-06	0	58	0	775946240	59	4972
2026-01-05 02:49:54.11	261.55	14.10	-47.8	-49.8	14.9	0.00e+00	0	58	0	781189120	58	4522
2026-01-05 02:49:57.08	261.27	13.83	-47.7	-49.8	15.0	0.00e+00	0	58	0	786432000	58	4514
2026-01-05 02:50:00.03	260.99	13.57	-48.1	-50.5	14.3	7.00e-07	0	58	0	791674880	58	4915
2026-01-05 02:50:03.01	260.72	13.30	-48.7	-51.3	13.5	7.60e-06	0	58	0	797966336	59	5096
2026-01-05 02:50:05.98	260.46	13.04	-49.4	-52.7	12.0	2.04e-04	0	58	0	803209216	60	5652
2026-01-05 02:50:08.95	260.20	12.78	-49.4	-52.8	11.9	3.43e-04	0	58	0	808452096	60	5664
2026-01-05 02:50:11.91	259.94	12.52	-49.1	-52.2	12.5	2.02e-04	0	58	0	814743552	60	5335
2026-01-05 02:50:14.89	259.69	12.26	-48.5	-51.2	13.6	8.30e-06	0	58	0	819986432	60	4724
2026-01-05 02:50:17.85	259.44	12.01	-48.1	-50.5	14.2	0.00e+00	0	58	0	825229312	59	4621
2026-01-05 02:50:20.82	259.20	11.76	-48.0	-50.3	14.5	0.00e+00	0	58	0	831520768	59	4520
2026-01-05 02:50:23.78	258.96	11.51	-48.0	-50.3	14.4	0.00e+00	0	58	0	836763648	58	4805
2026-01-05 02:50:26.74	258.72	11.26	-48.0	-50.3	14.4	0.00e+00	0	58	0	842006528	58	4808
2026-01-05 02:50:29.69	258.50	11.02	-48.3	-50.7	14.0	1.50e-06	0	58	0	847249408	58	5024
2026-01-05 02:50:32.65	258.27	10.77	-48.2	-50.6	14.1	4.50e-06	0	58	0	853540864	58	4957
2026-01-05 02:50:35.62	258.05	10.53	-48.6	-51.2	13.4	7.60e-06	0	58	0	858783744	59	5019
2026-01-05 02:50:38.58	257.83	10.29	-48.6	-51.2	13.4	1.37e-05	0	58	0	864026624	59	5029
2026-01-05 02:50:41.55	257.61	10.05	-48.8	-51.5	13.2	3.89e-05	0	58	0	870318080	59	5203
2026-01-05 02:50:44.52	257.40	9.82	-48.6	-51.3	13.4	1.29e-05	0	58	0	875560960	59	5083
2026-01-05 02:50:47.49	257.19	9.58	-48.8	-51.6	13.0	6.63e-05	0	58	0	880803840	59	5272
2026-01-05 02:50:50.46	256.99	9.35	-49.0	-52.0	12.6	8.62e-05	0	58	0	887095296	59	5527
2026-01-05 02:50:53.43	256.79	9.12	-48.9	-52.0	12.6	1.28e-04	0	58	0	892338176	59	5512
2026-01-05 02:50:56.40	256.59	8.89	-49.1	-52.5	12.1	2.68e-04	0	58	0	897581056	60	5468
2026-01-05 02:50:59.37	256.39	8.66	-49.5	-53.2	11.3	1.34e-03	0	58	0	903872512	61	5631
2026-01-05 02:51:02.34	256.20	8.44	-49.5	-53.3	11.2	1.39e-03	0	58	0	909115392	61	5687
2026-01-05 02:51:05.30	256.01	8.21	-49.7	-53.8	10.6	3.33e-03	0	58	0	914358272	61	6026
2026-01-05 02:51:08.27	255.83	7.99	-49.6	-53.5	10.9	2.76e-03	0	58	0	919601152	61	5853
2026-01-05 02:51:11.24	255.65	7.77	-49.4	-53.1	11.4	1.43e-03	0	58	0	925892608	61	5537
2026-01-05 02:51:14.21	255.47	7.55	-49.2	-52.7	11.7	9.34e-04	0	58	0	931135488	61	5303
2026-01-05 02:51:17.18	255.29	7.33	-49.1	-52.4	12.0	5.80e-04	0	58	0	936378368	61	5148
2026-01-05 02:51:20.13	255.12	7.12	-48.7	-51.7	12.7	8.62e-05	0	58	0	942669824	60	5012
2026-01-05 02:51:23.10	254.94	6.90	-48.9	-52.1	12.3	1.66e-04	0	58	0	947912704	60	5223
2026-01-05 02:51:26.07	254.78	6.69	-48.4	-51.4	13.0	3.66e-05	0	58	0	953155584	60	4832
2026-01-05 02:51:29.03	254.61	6.48	-48.6	-51.6	12.8	9.99e-05	0	58	0	959447040	60	4927
2026-01-05 02:51:32.00	254.45	6.27	-48.6	-51.7	12.6	1.08e-04	0	58	0	964689920	60	5012
2026-01-05 02:51:34.96	254.29	6.06	-48.8	-52.0	12.2	2.20e-04	0	58	0	969932800	60	5189
2026-01-05 02:51:37.93	254.13	5.86	-49.1	-52.6	11.6	5.26e-04	0	58	0	976224256	60	5580
2026-01-05 02:51:40.89	253.97	5.65	-49.2	-53.0	11.3	1.16e-03	0	58	0	981467136	60	5799
2026-01-05 02:51:43.86	253.82	5.45	-49.5	-53.6	10.5	2.82e-03	0	58	0	986710016	60	6231
2026-01-05 02:51:46.83	253.66	5.24	-49.6	-53.9	10.2	6.03e-03	0	58	0	991952896	61	6063
2026-01-05 02:51:49.81	253.51	5.04	-50.2	-55.6	8.7	8.23e-03	0	58	0	998244352	62	7000
2026-01-05 02:51:52.79	253.37	4.84	-51.8	-65.6	3.8	1.49e+00	0	58	104	998244352	65	18664
2026-01-05 02:51:55.76	253.22	4.64	-52.3	-66.1	3.8	1.49e+00	0	58	104	998244352	66	18525
2026-01-05 02:51:58.73	253.08	4.44	-52.3	-66.1	3.8	1.49e+00	0	58	104	998244352	66	18679
2026-01-05 02:52:01.70	252.94	4.25	-52.4	-66.2	3.8	1.49e+00	0	58	104	998244352	66	18870
2026-01-05 02:52:04.68	252.80	4.05	-52.5	-66.3	3.8	1.49e+00	0	58	104	998244352	66	19038
2026-01-05 02:52:07.65	252.66	3.86	-52.5	-66.3	3.8	1.49e+00	0	58	104	998244352	66	19161
2026-01-05 02:52:10.61	252.52	3.67	-52.6	-66.4	3.8	1.49e+00	0	58	104	998244352	66	19204
2026-01-05 02:52:13.57	252.39	3.48	-52.5	-66.4	3.8	1.49e+00	0	58	104	998244352	67	18146
2026-01-05 02:52:16.55	252.26	3.29	-52.4	-66.4	3.8	1.49e+00	0	58	104	998244352	67	18186
2026-01-05 02:52:19.51	252.13	3.10	-52.4	-66.4	3.8	1.49e+00	0	58	104	998244352	67	18100
2026-01-05 02:52:22.48	252.00	2.91	-52.5	-66.4	3.8	1.49e+00	0	58	104	998244352	67	18115

#Closed at: 2026-01-05 02:52:23
#Recorded file [998 MB]: D:/Data/31026_260105_055150.dat