passes_logs/2026/01/05/R3.0SM8_Murmansk_STILSPACE/R3.0SM8_Murmansk_STILSPACE__20260105_103238_AQUA_rec.log

#Pass ID: 20260105_103238_AQUA
#Satellite: AQUA
#Configuration: AQUA
#almurnet v.1.7.20240730
#Start time: 2026-01-05 10:37:51

#Version: 2.2.20231116
#Station: R3.0SM8_Murmansk_STILSPACE
#Location: 33.092731 lon 68.902999 lat
#TLE: 1 27424U 02022A   26003.93831470  .00001925  00000+0  39553-3 0  9995
#TLE: 2 27424  98.4067 330.1809 0002003  92.1713 343.8415 14.61796291259276

#Time	Az	El	Level	Level2	SNR	BER	BlckErr	Temp	State	Recorded	gain1	gain2
2026-01-05 10:37:51.68	95.07	48.69	-51.6	-61.9	3.8	8.46e-01	0	57	0	0	65	11990
2026-01-05 10:37:53.70	93.93	49.21	-53.4	-73.2	3.8	7.49e-01	0	58	104	0	68	38654
2026-01-05 10:37:55.77	92.72	49.73	-53.4	-73.2	3.8	7.44e-01	0	58	104	0	68	38614
2026-01-05 10:37:57.84	91.48	50.25	-53.4	-73.2	3.8	7.42e-01	0	58	104	0	68	38535
2026-01-05 10:37:59.92	90.18	50.76	-53.3	-73.2	3.8	7.42e-01	0	57	104	0	68	38561
2026-01-05 10:38:01.99	88.84	51.25	-53.3	-73.2	3.8	7.42e-01	0	58	104	0	68	38548
2026-01-05 10:38:04.07	87.45	51.74	-52.7	-73.2	3.8	7.45e-01	0	58	104	0	68	38383
2026-01-05 10:38:06.08	86.06	52.20	-53.3	-73.2	3.8	7.44e-01	0	58	104	0	68	38519
2026-01-05 10:38:08.11	84.62	52.65	-53.3	-73.2	3.8	7.47e-01	0	58	104	0	68	38368
2026-01-05 10:38:10.16	83.12	53.08	-53.3	-73.2	3.8	7.42e-01	0	58	104	0	68	38415
2026-01-05 10:38:12.20	81.58	53.50	-53.3	-73.2	3.8	7.46e-01	0	58	104	0	68	38411
2026-01-05 10:38:14.30	79.94	53.92	-53.3	-73.2	3.8	7.43e-01	0	58	104	0	68	38282
2026-01-05 10:38:16.33	78.32	54.29	-53.3	-73.2	3.8	7.43e-01	0	57	104	0	68	38322
2026-01-05 10:38:18.39	76.63	54.66	-53.3	-73.2	3.8	7.46e-01	0	58	104	0	68	38252
2026-01-05 10:38:20.45	74.90	55.00	-53.3	-73.2	3.8	7.47e-01	0	58	104	0	68	38272
2026-01-05 10:38:22.55	73.09	55.32	-53.3	-73.1	3.8	7.43e-01	0	58	104	0	68	38128
2026-01-05 10:38:24.57	71.31	55.60	-53.3	-73.1	3.8	7.43e-01	0	57	104	0	68	38163
2026-01-05 10:38:26.59	69.50	55.86	-53.3	-73.1	3.8	7.46e-01	0	58	104	0	68	38140
2026-01-05 10:38:28.66	67.61	56.10	-53.3	-73.1	3.8	7.45e-01	0	57	104	0	68	38094
2026-01-05 10:38:30.76	65.66	56.31	-53.3	-73.1	3.8	7.46e-01	0	58	104	0	68	38107
2026-01-05 10:38:32.73	63.80	56.47	-53.2	-73.1	3.8	7.47e-01	0	58	104	0	68	38018
2026-01-05 10:38:34.72	61.91	56.61	-53.2	-73.1	3.8	7.44e-01	0	58	104	0	68	37991
2026-01-05 10:38:36.70	60.01	56.72	-53.2	-73.1	3.8	7.42e-01	0	58	104	0	68	37949
2026-01-05 10:38:38.68	58.09	56.80	-53.2	-73.1	3.8	7.45e-01	0	58	104	0	68	37942
2026-01-05 10:38:40.64	56.19	56.85	-53.2	-73.1	3.8	7.46e-01	0	58	104	0	68	37857
2026-01-05 10:38:42.62	54.26	56.86	-53.2	-73.1	3.8	7.43e-01	0	58	104	0	68	37877
2026-01-05 10:38:44.60	52.34	56.85	-53.2	-73.1	3.8	7.42e-01	0	58	104	0	68	37821
2026-01-05 10:38:46.58	50.41	56.80	-53.2	-73.0	3.8	7.46e-01	0	58	104	0	68	37789
2026-01-05 10:38:48.55	48.51	56.73	-53.2	-73.0	3.8	7.45e-01	0	58	104	0	68	37732
2026-01-05 10:38:50.52	46.61	56.62	-53.2	-73.0	3.8	7.45e-01	0	58	104	0	68	37678
2026-01-05 10:38:52.50	44.73	56.49	-53.2	-73.0	3.8	7.44e-01	0	58	104	0	68	37686
2026-01-05 10:38:54.47	42.87	56.32	-53.2	-73.0	3.8	7.45e-01	0	58	104	0	68	37609
2026-01-05 10:38:56.45	41.03	56.13	-53.2	-73.0	3.8	7.47e-01	0	58	104	0	68	37595
2026-01-05 10:38:58.45	39.20	55.91	-53.1	-73.0	3.8	7.45e-01	0	58	104	0	68	37567
2026-01-05 10:39:00.42	37.43	55.66	-53.1	-73.0	3.8	7.45e-01	0	58	104	0	68	37510
2026-01-05 10:39:02.40	35.68	55.39	-53.1	-73.0	3.8	7.47e-01	0	57	104	0	68	37484
2026-01-05 10:39:04.38	33.97	55.09	-53.1	-73.0	3.8	7.46e-01	0	58	104	0	68	37452
2026-01-05 10:39:06.36	32.29	54.78	-53.1	-73.0	3.8	7.46e-01	0	57	104	0	68	37394
2026-01-05 10:39:08.35	30.64	54.43	-53.1	-73.0	3.8	7.46e-01	0	57	104	0	68	37375
2026-01-05 10:39:10.33	29.05	54.07	-53.1	-72.9	3.8	7.44e-01	0	58	104	0	68	37243
2026-01-05 10:39:12.31	27.49	53.69	-53.1	-72.9	3.8	7.44e-01	0	58	104	0	68	37300
2026-01-05 10:39:14.30	25.97	53.29	-53.1	-72.9	3.8	7.45e-01	0	58	104	0	68	37252
2026-01-05 10:39:16.28	24.50	52.88	-53.1	-72.9	3.9	7.43e-01	0	58	104	0	68	37206
2026-01-05 10:39:18.26	23.07	52.45	-53.1	-72.9	3.8	7.45e-01	0	58	104	0	68	37116
2026-01-05 10:39:20.22	21.69	52.01	-53.0	-72.9	3.8	7.46e-01	0	58	104	0	68	37110
2026-01-05 10:39:22.19	20.35	51.56	-53.0	-72.9	3.8	7.48e-01	0	58	104	0	68	37049
2026-01-05 10:39:24.18	19.04	51.09	-53.0	-72.9	3.8	7.46e-01	0	58	104	0	68	36975
2026-01-05 10:39:26.16	17.78	50.61	-53.0	-72.9	3.8	7.45e-01	0	58	104	0	68	36997
2026-01-05 10:39:28.13	16.56	50.13	-53.0	-72.8	3.8	7.44e-01	0	58	104	0	68	36886
2026-01-05 10:39:30.10	15.39	49.64	-53.0	-72.8	3.8	7.46e-01	0	57	104	0	68	36909
2026-01-05 10:39:32.09	14.23	49.13	-53.0	-72.8	3.8	7.48e-01	0	58	104	0	68	36778
2026-01-05 10:39:34.08	13.12	48.62	-53.0	-72.8	3.8	7.44e-01	0	58	104	0	68	36769
2026-01-05 10:39:36.06	12.05	48.11	-53.0	-72.8	3.8	7.48e-01	0	58	104	0	68	36570
2026-01-05 10:39:38.04	11.02	47.60	-52.9	-72.7	3.8	7.44e-01	0	58	104	0	68	36506
2026-01-05 10:39:40.01	10.02	47.08	-52.9	-72.8	3.8	7.42e-01	0	58	104	0	68	36603
2026-01-05 10:39:41.99	9.05	46.56	-52.9	-72.7	3.8	7.43e-01	0	58	104	0	68	36520
2026-01-05 10:39:43.97	8.12	46.04	-52.9	-72.7	3.8	7.44e-01	0	58	104	0	67	38415
2026-01-05 10:39:45.95	7.21	45.52	-52.8	-72.7	3.8	7.45e-01	0	58	104	0	67	38457
2026-01-05 10:39:47.93	6.34	44.99	-52.6	-72.7	3.8	7.48e-01	0	57	104	0	67	38308
2026-01-05 10:39:49.90	5.50	44.47	-52.8	-72.7	3.8	7.46e-01	0	58	104	0	67	38266
2026-01-05 10:39:51.87	4.69	43.95	-52.8	-72.6	3.8	7.46e-01	0	58	104	0	67	38223
2026-01-05 10:39:53.86	3.89	43.43	-52.8	-72.6	3.8	7.45e-01	0	58	104	0	67	38183
2026-01-05 10:39:55.84	3.13	42.91	-52.8	-72.6	3.8	7.43e-01	0	58	104	0	67	38095
2026-01-05 10:39:57.81	2.39	42.39	-52.8	-72.6	3.8	7.43e-01	0	58	104	0	67	37912
2026-01-05 10:39:59.79	1.68	41.87	-52.7	-72.6	3.8	7.43e-01	0	58	104	0	67	37871
2026-01-05 10:40:01.77	0.99	41.36	-52.7	-72.6	3.8	7.44e-01	0	58	104	0	67	37854
2026-01-05 10:40:03.76	0.31	40.85	-52.7	-72.6	3.8	7.43e-01	0	58	104	0	67	37810
2026-01-05 10:40:05.74	359.66	40.34	-52.7	-72.5	3.8	7.44e-01	0	58	104	0	67	37635
2026-01-05 10:40:07.73	359.03	39.83	-52.7	-72.5	3.8	7.47e-01	0	57	104	0	67	37607
2026-01-05 10:40:09.70	358.43	39.34	-52.6	-72.5	3.8	7.46e-01	0	57	104	0	67	37604
2026-01-05 10:40:11.68	357.84	38.84	-52.6	-72.5	3.8	7.46e-01	0	58	104	0	67	37514
2026-01-05 10:40:13.64	357.27	38.36	-52.6	-72.5	3.8	7.45e-01	0	58	104	0	67	37388
2026-01-05 10:40:15.62	356.72	37.87	-52.6	-72.4	3.8	7.45e-01	0	58	104	0	67	37285
2026-01-05 10:40:17.60	356.18	37.39	-52.6	-72.4	3.8	7.47e-01	0	58	104	0	67	37137
2026-01-05 10:40:19.59	355.66	36.91	-52.6	-72.4	3.8	7.45e-01	0	58	104	0	67	37052
2026-01-05 10:40:21.57	355.15	36.43	-52.5	-72.3	3.8	7.45e-01	0	58	104	0	67	36937
2026-01-05 10:40:23.54	354.66	35.97	-52.5	-72.3	3.8	7.49e-01	0	58	104	0	67	36837
2026-01-05 10:40:25.52	354.19	35.50	-52.5	-72.3	3.8	7.45e-01	0	58	104	0	67	36816
2026-01-05 10:40:27.50	353.72	35.05	-52.5	-72.3	3.8	7.43e-01	0	58	104	0	67	36720
2026-01-05 10:40:29.48	353.28	34.59	-52.5	-72.3	3.8	7.42e-01	0	58	104	0	67	36622
2026-01-05 10:40:31.46	352.84	34.14	-52.4	-72.3	3.8	7.46e-01	0	58	104	0	67	36595
2026-01-05 10:40:33.43	352.42	33.70	-52.4	-72.2	3.8	7.43e-01	0	58	104	0	67	36414
2026-01-05 10:40:35.41	352.00	33.26	-52.4	-72.2	3.8	7.48e-01	0	57	104	0	67	36368
2026-01-05 10:40:37.40	351.60	32.83	-52.4	-72.2	3.8	7.45e-01	0	58	104	0	67	36249
2026-01-05 10:40:39.37	351.21	32.40	-52.4	-72.2	3.8	7.47e-01	0	57	104	0	67	36111
2026-01-05 10:40:41.33	350.84	31.98	-52.3	-72.1	3.8	7.42e-01	0	58	104	0	66	38187
2026-01-05 10:40:43.32	350.47	31.56	-52.3	-72.1	3.8	7.48e-01	0	58	104	0	66	37979
2026-01-05 10:40:45.31	350.10	31.15	-52.3	-72.1	3.8	7.42e-01	0	58	104	0	66	37882
2026-01-05 10:40:47.29	349.75	30.74	-52.2	-72.0	3.8	7.45e-01	0	58	104	0	66	37806
2026-01-05 10:40:49.27	349.41	30.33	-52.2	-72.0	3.8	7.45e-01	0	58	104	0	66	37726
2026-01-05 10:40:51.25	349.08	29.94	-52.2	-72.0	3.8	7.45e-01	0	58	104	0	66	37496
2026-01-05 10:40:53.24	348.76	29.54	-52.1	-71.9	3.8	7.45e-01	0	58	104	0	66	37335
2026-01-05 10:40:55.22	348.44	29.15	-52.1	-71.9	3.8	7.46e-01	0	58	104	0	66	37174
2026-01-05 10:40:57.21	348.13	28.76	-52.1	-71.9	3.6	7.42e-01	0	58	104	0	66	37249
2026-01-05 10:40:59.19	347.83	28.39	-52.0	-71.9	3.8	7.46e-01	0	58	104	0	66	36964
2026-01-05 10:41:01.15	347.54	28.01	-52.0	-71.8	3.8	7.45e-01	0	58	104	0	66	36753
2026-01-05 10:41:03.14	347.26	27.64	-51.9	-71.7	3.8	7.44e-01	0	58	104	0	66	36521
2026-01-05 10:41:05.13	346.98	27.27	-51.9	-71.7	3.8	7.44e-01	0	58	104	0	66	36403
2026-01-05 10:41:07.11	346.70	26.91	-51.9	-71.7	3.8	7.48e-01	0	58	104	0	66	36278
2026-01-05 10:41:09.08	346.44	26.56	-51.8	-71.6	3.8	7.46e-01	0	58	104	0	65	38154
2026-01-05 10:41:11.07	346.18	26.20	-51.8	-71.6	3.8	7.45e-01	0	58	104	0	65	37951
2026-01-05 10:41:13.05	345.93	25.86	-51.7	-71.5	3.8	7.47e-01	0	58	104	0	65	37778
2026-01-05 10:41:15.04	345.68	25.51	-51.7	-71.5	3.8	7.45e-01	0	58	104	0	65	37543
2026-01-05 10:41:17.01	345.44	25.17	-51.6	-71.4	3.8	7.43e-01	0	58	104	0	65	37186
2026-01-05 10:41:18.98	345.20	24.84	-51.6	-71.4	3.8	7.48e-01	0	58	104	0	65	36959
2026-01-05 10:41:20.97	344.97	24.51	-51.5	-71.3	3.8	7.42e-01	0	58	104	0	65	36803
2026-01-05 10:41:22.94	344.75	24.18	-51.5	-71.3	3.8	7.47e-01	0	58	104	0	65	36554
2026-01-05 10:41:24.92	344.53	23.86	-51.4	-71.2	3.8	7.45e-01	0	58	104	0	65	36240
2026-01-05 10:41:26.91	344.31	23.53	-51.4	-71.2	3.8	7.44e-01	0	58	104	0	65	36113
2026-01-05 10:41:28.88	344.10	23.22	-51.3	-71.2	3.9	7.46e-01	0	58	104	0	64	38285
2026-01-05 10:41:30.85	343.90	22.91	-51.2	-71.0	3.8	7.46e-01	0	58	104	0	64	37648
2026-01-05 10:41:32.84	343.69	22.60	-51.2	-71.0	3.8	7.45e-01	0	58	104	0	64	37445
2026-01-05 10:41:34.83	343.49	22.29	-51.1	-70.9	3.8	7.44e-01	0	58	104	0	64	37163
2026-01-05 10:41:36.80	343.30	21.99	-51.0	-70.8	3.8	7.46e-01	0	58	104	0	64	36832
2026-01-05 10:41:38.79	343.11	21.69	-51.0	-70.7	3.8	7.47e-01	0	58	104	0	64	36469
2026-01-05 10:41:40.77	342.92	21.40	-50.9	-70.7	3.8	7.45e-01	0	58	104	0	64	36230
2026-01-05 10:41:42.75	342.74	21.11	-50.8	-70.6	3.8	7.45e-01	0	58	104	0	64	35845
2026-01-05 10:41:44.73	342.56	20.82	-50.7	-70.5	3.8	7.43e-01	0	58	104	0	64	35509
2026-01-05 10:41:46.72	342.39	20.54	-50.7	-70.5	3.8	7.44e-01	0	58	104	0	63	37413
2026-01-05 10:41:48.70	342.22	20.25	-50.6	-70.4	3.8	7.45e-01	0	58	104	0	63	37145
2026-01-05 10:41:50.69	342.05	19.98	-50.6	-70.3	3.8	7.45e-01	0	58	104	0	63	36646
2026-01-05 10:41:52.67	341.88	19.70	-50.5	-70.2	3.8	7.45e-01	0	58	104	0	63	36314
2026-01-05 10:41:54.65	341.72	19.43	-50.4	-70.1	3.8	7.48e-01	0	58	104	0	63	35917
2026-01-05 10:41:56.64	341.56	19.16	-50.3	-70.0	3.8	7.45e-01	0	58	104	0	62	37639
2026-01-05 10:41:58.62	341.41	18.89	-50.2	-69.9	3.8	7.49e-01	0	58	104	0	62	37292
2026-01-05 10:42:00.59	341.26	18.63	-50.1	-70.4	3.9	7.60e-01	0	58	104	0	61	41697
2026-01-05 10:42:02.57	341.11	18.37	-50.1	-69.8	3.8	7.44e-01	0	58	104	0	62	36668
2026-01-05 10:42:04.56	340.96	18.11	-50.0	-69.7	3.8	7.44e-01	0	58	104	0	62	36411
2026-01-05 10:42:06.53	340.82	17.86	-50.0	-69.7	3.8	7.47e-01	0	58	104	0	62	36397
2026-01-05 10:42:08.51	340.68	17.61	-49.9	-69.6	3.8	7.46e-01	0	58	104	0	62	36005
2026-01-05 10:42:10.50	340.54	17.36	-49.9	-69.6	3.8	7.44e-01	0	58	104	0	62	35903
2026-01-05 10:42:12.48	340.40	17.11	-49.8	-69.5	3.8	7.45e-01	0	58	104	0	61	37802
2026-01-05 10:42:14.47	340.27	16.86	-49.8	-69.5	3.8	7.48e-01	0	58	104	0	61	37733
2026-01-05 10:42:16.46	340.14	16.62	-49.8	-69.5	3.8	7.46e-01	0	58	104	0	61	37635
2026-01-05 10:42:18.43	340.01	16.38	-49.8	-69.5	3.8	7.47e-01	0	58	104	0	61	37502
2026-01-05 10:42:20.41	339.88	16.15	-49.7	-69.5	3.8	7.42e-01	0	58	104	0	61	37381
2026-01-05 10:42:22.39	339.76	15.91	-49.7	-69.4	3.8	7.46e-01	0	58	104	0	61	37208
2026-01-05 10:42:24.37	339.64	15.68	-49.7	-69.4	3.8	7.45e-01	0	58	104	0	61	37164
2026-01-05 10:42:26.34	339.52	15.45	-49.7	-69.4	3.8	7.47e-01	0	58	104	0	61	37191
2026-01-05 10:42:28.31	339.40	15.23	-49.7	-69.4	3.8	7.45e-01	0	58	104	0	61	37143
2026-01-05 10:42:30.29	339.28	15.00	-49.7	-69.4	3.8	7.40e-01	0	58	104	0	61	37111
2026-01-05 10:42:32.27	339.17	14.78	-49.7	-69.4	3.8	7.46e-01	0	58	104	0	61	37081
2026-01-05 10:42:34.25	339.06	14.56	-49.7	-69.4	3.8	7.44e-01	0	58	104	0	61	37136
2026-01-05 10:42:36.24	338.95	14.34	-49.7	-69.4	3.8	7.42e-01	0	58	104	0	61	37142
2026-01-05 10:42:38.21	338.84	14.12	-49.7	-69.4	3.8	7.44e-01	0	58	104	0	61	37085
2026-01-05 10:42:40.18	338.73	13.91	-49.7	-69.4	3.8	7.44e-01	0	58	104	0	61	37225
2026-01-05 10:42:42.16	338.63	13.69	-49.7	-69.4	3.8	7.45e-01	0	58	104	0	61	37181
2026-01-05 10:42:44.15	338.52	13.48	-49.7	-69.4	3.8	7.47e-01	0	58	104	0	61	37218
2026-01-05 10:42:46.14	338.42	13.27	-49.7	-69.4	3.8	7.44e-01	0	58	104	0	61	37220
2026-01-05 10:42:48.12	338.32	13.06	-49.7	-69.4	3.8	7.44e-01	0	58	104	0	61	37164
2026-01-05 10:42:50.10	338.23	12.86	-49.7	-69.4	3.8	7.44e-01	0	58	104	0	61	37160
2026-01-05 10:42:52.07	338.13	12.66	-49.7	-69.4	3.8	7.44e-01	0	58	104	0	61	37253
2026-01-05 10:42:54.06	338.03	12.45	-49.7	-69.4	3.8	7.45e-01	0	58	104	0	61	37268
2026-01-05 10:42:56.04	337.94	12.25	-49.7	-69.4	3.8	7.46e-01	0	58	104	0	61	37278
2026-01-05 10:42:58.01	337.85	12.06	-49.8	-69.4	3.8	7.43e-01	0	58	104	0	61	37349
2026-01-05 10:43:00.00	337.76	11.86	-49.8	-69.4	3.8	7.45e-01	0	58	104	0	61	37293
2026-01-05 10:43:01.98	337.67	11.66	-49.8	-69.5	3.8	7.48e-01	0	58	104	0	61	37407
2026-01-05 10:43:03.97	337.58	11.47	-49.8	-69.5	3.8	7.44e-01	0	58	104	0	61	37404
2026-01-05 10:43:05.95	337.49	11.28	-49.8	-69.5	3.8	7.43e-01	0	58	104	0	61	37512
2026-01-05 10:43:07.94	337.41	11.09	-49.8	-69.5	3.8	7.44e-01	0	58	104	0	61	37503
2026-01-05 10:43:09.91	337.32	10.90	-49.8	-69.5	3.8	7.43e-01	0	58	104	0	61	37515
2026-01-05 10:43:11.90	337.24	10.71	-49.8	-69.5	3.8	7.44e-01	0	58	104	0	61	37565
2026-01-05 10:43:13.87	337.16	10.53	-49.8	-69.5	3.8	7.44e-01	0	58	104	0	61	37540
2026-01-05 10:43:15.86	337.08	10.34	-49.8	-69.5	3.8	7.46e-01	0	58	104	0	61	37535
2026-01-05 10:43:17.84	337.00	10.16	-49.8	-69.5	3.8	7.45e-01	0	58	104	0	61	37571
2026-01-05 10:43:19.83	336.92	9.98	-49.8	-69.5	3.8	7.48e-01	0	58	104	0	61	37577
2026-01-05 10:43:21.80	336.85	9.80	-49.8	-69.5	3.8	7.45e-01	0	58	104	0	61	37624
2026-01-05 10:43:23.78	336.77	9.62	-49.8	-69.5	3.8	7.47e-01	0	58	104	0	61	37582
2026-01-05 10:43:25.76	336.70	9.45	-49.8	-69.5	3.8	7.45e-01	0	58	104	0	61	37594
2026-01-05 10:43:27.75	336.62	9.27	-49.8	-69.5	3.8	7.46e-01	0	58	104	0	61	37569
2026-01-05 10:43:29.73	336.55	9.09	-49.8	-69.5	3.8	7.49e-01	0	58	104	0	61	37654
2026-01-05 10:43:31.70	336.48	8.92	-49.8	-69.5	3.8	7.45e-01	0	58	104	0	61	37564
2026-01-05 10:43:33.68	336.41	8.75	-49.8	-69.5	3.8	7.47e-01	0	58	104	0	61	37614
2026-01-05 10:43:35.66	336.34	8.58	-49.8	-69.5	3.8	7.46e-01	0	58	104	0	61	37574
2026-01-05 10:43:37.64	336.27	8.41	-49.8	-69.5	3.8	7.43e-01	0	58	104	0	61	37624
2026-01-05 10:43:39.62	336.20	8.24	-49.8	-69.5	3.8	7.45e-01	0	58	104	0	61	37518
2026-01-05 10:43:41.61	336.14	8.08	-49.8	-69.5	3.8	7.48e-01	0	58	104	0	61	37558
2026-01-05 10:43:43.60	336.07	7.91	-49.8	-69.5	3.8	7.49e-01	0	58	104	0	61	37517
2026-01-05 10:43:45.59	336.01	7.74	-49.8	-69.5	3.8	7.47e-01	0	58	104	0	61	37469
2026-01-05 10:43:47.56	335.94	7.58	-49.8	-69.5	3.8	7.44e-01	0	58	104	0	61	37477
2026-01-05 10:43:49.54	335.88	7.42	-49.7	-69.5	3.8	7.47e-01	0	58	104	0	61	37377
2026-01-05 10:43:51.52	335.82	7.26	-49.7	-69.4	3.8	7.46e-01	0	58	104	0	61	37365
2026-01-05 10:43:53.49	335.76	7.10	-49.7	-69.4	3.8	7.48e-01	0	58	104	0	61	37342
2026-01-05 10:43:55.48	335.70	6.94	-49.7	-69.5	3.8	7.43e-01	0	58	104	0	61	37386
2026-01-05 10:43:57.46	335.64	6.78	-49.7	-69.4	3.8	7.45e-01	0	58	104	0	61	37323
2026-01-05 10:43:59.44	335.58	6.63	-49.7	-69.4	3.8	7.47e-01	0	58	104	0	61	37228
2026-01-05 10:44:01.41	335.52	6.47	-49.7	-69.4	3.8	7.42e-01	0	58	104	0	61	37163
2026-01-05 10:44:03.39	335.46	6.32	-49.7	-69.4	3.8	7.48e-01	0	58	104	0	61	37155
2026-01-05 10:44:05.37	335.41	6.16	-49.7	-69.4	3.8	7.45e-01	0	58	104	0	61	37204
2026-01-05 10:44:07.35	335.35	6.01	-49.7	-69.4	3.8	7.44e-01	0	58	104	0	61	37205
2026-01-05 10:44:09.33	335.30	5.86	-49.7	-69.4	3.8	7.47e-01	0	58	104	0	61	37123
2026-01-05 10:44:11.30	335.24	5.71	-49.7	-69.4	3.8	7.47e-01	0	58	104	0	61	37208
2026-01-05 10:44:13.29	335.19	5.56	-49.7	-69.4	3.8	7.43e-01	0	58	104	0	61	37274
2026-01-05 10:44:15.27	335.13	5.41	-49.7	-69.4	3.8	7.48e-01	0	58	104	0	61	37108
2026-01-05 10:44:17.26	335.08	5.26	-49.7	-69.4	3.8	7.44e-01	0	58	104	0	61	37170
2026-01-05 10:44:19.24	335.03	5.11	-49.7	-69.4	3.8	7.44e-01	0	58	104	0	61	37078
2026-01-05 10:44:21.21	334.98	4.97	-49.7	-69.4	3.8	7.47e-01	0	58	104	0	61	37020
2026-01-05 10:44:23.19	334.93	4.82	-49.7	-69.4	3.8	7.44e-01	0	58	104	0	61	37105
2026-01-05 10:44:25.18	334.88	4.68	-49.7	-69.4	3.8	7.47e-01	0	58	104	0	61	37011
2026-01-05 10:44:27.16	334.83	4.53	-49.7	-69.4	3.8	7.43e-01	0	58	104	0	61	37068
2026-01-05 10:44:29.13	334.78	4.39	-49.7	-69.4	3.8	7.48e-01	0	58	104	0	61	37092
2026-01-05 10:44:31.11	334.73	4.25	-49.7	-69.4	3.8	7.47e-01	0	58	104	0	61	37109
2026-01-05 10:44:33.09	334.69	4.11	-49.7	-69.4	3.8	7.41e-01	0	58	104	0	61	37051
2026-01-05 10:44:35.07	334.64	3.97	-49.7	-69.4	3.8	7.44e-01	0	58	104	0	61	37082
2026-01-05 10:44:37.04	334.59	3.83	-49.7	-69.4	3.8	7.45e-01	0	58	104	0	61	37064
2026-01-05 10:44:39.02	334.55	3.69	-49.7	-69.4	3.8	7.43e-01	0	58	104	0	61	37148
2026-01-05 10:44:41.00	334.50	3.55	-49.7	-69.4	3.8	7.44e-01	0	58	104	0	61	37087
2026-01-05 10:44:42.98	334.46	3.41	-49.7	-69.4	3.8	7.46e-01	0	58	104	0	61	37146
2026-01-05 10:44:44.96	334.42	3.28	-49.7	-69.4	3.8	7.47e-01	0	58	104	0	61	37157
2026-01-05 10:44:46.94	334.37	3.14	-49.7	-69.4	3.8	7.46e-01	0	58	104	0	61	37124
2026-01-05 10:44:48.92	334.33	3.00	-49.7	-69.4	3.8	7.50e-01	0	58	104	0	61	37117

#Closed at: 2026-01-05 10:44:50
#Recorded file [0 MB]: D:/Data/31026_260105_133751.dat