passes_logs/2026/01/05/R3.0SM8_Murmansk_STILSPACE/R3.0SM8_Murmansk_STILSPACE__20260105_043923_NOAA_20_JPSS-1_rec.log

#Pass ID: 20260105_043923_NOAA 20 (JPSS-1)
#Satellite: NOAA 20 (JPSS-1)
#Configuration: NOAA 20
#almurnet v.1.7.20240730
#Start time: 2026-01-05 04:39:22

#Version: 2.2.20231116
#Station: R3.0SM8_Murmansk_STILSPACE
#Location: 33.092731 lon 68.902999 lat
#TLE: 1 43013U 17073A   26004.47528369  .00000132  00000+0  83671-4 0  9999
#TLE: 2 43013  98.7626 305.5264 0001854  54.5883 305.5466 14.19533142421242

#Time	Az	El	Level	Level2	SNR	BER	BlckErr	Temp	State	Recorded	gain1	gain2
2026-01-05 04:39:22.92	53.92	2.98	-52.4	-66.2	3.8	1.49e+00	0	47	0	0	67	17767
2026-01-05 04:39:25.89	53.72	3.15	-52.2	-66.0	3.8	1.49e+00	0	47	104	0	67	17381
2026-01-05 04:39:28.85	53.51	3.33	-51.8	-65.7	3.8	1.49e+00	0	47	104	0	66	17787
2026-01-05 04:39:31.80	53.31	3.50	-51.4	-65.2	3.8	1.49e+00	0	47	104	0	65	17751
2026-01-05 04:39:34.77	53.10	3.67	-51.4	-65.1	3.8	1.49e+00	0	48	104	0	65	17560
2026-01-05 04:39:37.74	52.89	3.85	-51.4	-65.2	3.8	1.49e+00	0	48	104	0	65	17749
2026-01-05 04:39:40.71	52.67	4.03	-51.3	-65.2	3.8	1.49e+00	0	48	104	0	65	17791
2026-01-05 04:39:43.68	52.46	4.20	-51.4	-65.1	3.8	1.49e+00	0	48	104	0	65	17536
2026-01-05 04:39:46.64	52.24	4.38	-51.3	-64.2	3.8	1.49e+00	0	48	104	0	65	15802
2026-01-05 04:39:49.61	52.01	4.56	-51.2	-61.7	4.2	1.47e+00	0	49	104	0	65	11837
2026-01-05 04:39:52.58	51.79	4.74	-50.7	-58.6	5.6	5.61e-01	0	49	0	4194304	64	8848
2026-01-05 04:39:55.55	51.56	4.92	-50.4	-56.6	7.4	1.53e-01	0	49	0	9437184	63	7388
2026-01-05 04:39:58.53	51.33	5.10	-50.4	-56.3	7.8	7.33e-02	0	49	0	15728640	63	7125
2026-01-05 04:40:01.51	51.09	5.29	-50.2	-55.8	8.3	5.30e-02	0	49	0	20971520	63	6749
2026-01-05 04:40:04.48	50.86	5.47	-50.2	-55.7	8.3	4.80e-02	0	50	0	26214400	63	6699
2026-01-05 04:40:07.47	50.61	5.66	-49.7	-54.3	9.8	1.04e-02	0	50	0	32505856	62	6014
2026-01-05 04:40:10.43	50.37	5.84	-49.3	-53.3	10.8	3.12e-03	0	50	0	37748736	61	5697
2026-01-05 04:40:13.40	50.12	6.03	-49.2	-53.0	11.2	1.30e-03	0	50	0	42991616	61	5469
2026-01-05 04:40:16.37	49.87	6.21	-49.2	-53.0	11.2	1.84e-03	0	50	0	49283072	61	5492
2026-01-05 04:40:19.35	49.62	6.40	-48.9	-52.5	11.8	5.32e-04	0	50	0	54525952	61	5166
2026-01-05 04:40:22.31	49.36	6.59	-48.9	-52.4	11.8	5.90e-04	0	50	0	59768832	60	5413
2026-01-05 04:40:25.27	49.10	6.78	-49.0	-52.6	11.8	6.00e-04	0	51	0	66060288	60	5535
2026-01-05 04:40:28.24	48.84	6.96	-48.9	-52.2	12.1	3.44e-04	0	50	0	71303168	60	5332
2026-01-05 04:40:31.20	48.57	7.15	-48.9	-52.2	12.1	3.02e-04	0	51	0	76546048	60	5333
2026-01-05 04:40:34.16	48.30	7.34	-49.0	-52.3	12.1	3.35e-04	0	51	0	81788928	60	5370
2026-01-05 04:40:37.12	48.03	7.54	-49.1	-52.6	11.9	3.26e-04	0	51	0	88080384	60	5538
2026-01-05 04:40:40.09	47.75	7.73	-49.2	-52.7	11.8	7.06e-04	0	51	0	93323264	60	5617
2026-01-05 04:40:43.06	47.46	7.92	-49.1	-52.5	11.9	2.80e-04	0	51	0	98566144	60	5493
2026-01-05 04:40:46.01	47.18	8.12	-49.1	-52.5	12.0	3.75e-04	0	51	0	104857600	60	5495
2026-01-05 04:40:48.99	46.89	8.31	-49.0	-52.2	12.3	1.78e-04	0	51	0	110100480	60	5311
2026-01-05 04:40:51.97	46.59	8.51	-48.8	-51.9	12.7	1.15e-04	0	51	0	115343360	60	5102
2026-01-05 04:40:54.93	46.29	8.70	-48.6	-51.6	12.9	6.40e-05	0	52	0	121634816	60	4969
2026-01-05 04:40:57.92	45.99	8.90	-48.6	-51.5	13.0	3.58e-05	0	52	0	126877696	60	4920
2026-01-05 04:41:00.89	45.68	9.10	-48.7	-51.7	12.9	6.02e-05	0	52	0	132120576	60	5006
2026-01-05 04:41:03.86	45.37	9.30	-48.7	-51.7	12.9	4.42e-05	0	52	0	137363456	60	4993
2026-01-05 04:41:06.83	45.05	9.50	-48.9	-51.9	12.7	4.80e-05	0	52	0	143654912	60	5116
2026-01-05 04:41:09.79	44.73	9.70	-48.8	-51.7	12.9	3.66e-05	0	52	0	148897792	60	5024
2026-01-05 04:41:12.75	44.41	9.90	-48.8	-51.9	12.8	6.94e-05	0	52	0	154140672	60	5101
2026-01-05 04:41:15.73	44.08	10.10	-49.0	-52.1	12.6	8.31e-05	0	52	0	160432128	60	5236
2026-01-05 04:41:18.70	43.74	10.30	-49.0	-52.1	12.5	9.46e-05	0	52	0	165675008	60	5250
2026-01-05 04:41:21.66	43.41	10.51	-48.8	-51.8	12.9	5.87e-05	0	52	0	170917888	60	5053
2026-01-05 04:41:24.63	43.06	10.71	-48.8	-51.8	12.9	6.56e-05	0	53	0	177209344	60	5071
2026-01-05 04:41:27.60	42.71	10.92	-48.8	-51.7	13.0	3.96e-05	0	53	0	182452224	60	5032
2026-01-05 04:41:30.56	42.36	11.12	-48.9	-52.0	12.7	8.85e-05	0	53	0	187695104	60	5184
2026-01-05 04:41:33.53	42.00	11.33	-49.1	-52.3	12.4	1.64e-04	0	53	0	193986560	60	5390
2026-01-05 04:41:36.49	41.64	11.53	-49.2	-52.5	12.2	3.00e-04	0	53	0	199229440	60	5482
2026-01-05 04:41:39.45	41.27	11.74	-48.6	-51.4	13.3	2.82e-05	0	53	0	204472320	60	4857
2026-01-05 04:41:42.43	40.89	11.95	-48.5	-51.2	13.6	4.50e-06	0	53	0	210763776	60	4729
2026-01-05 04:41:45.41	40.51	12.16	-48.7	-51.5	13.3	9.90e-06	0	53	0	216006656	60	4879
2026-01-05 04:41:48.38	40.12	12.36	-48.8	-51.7	13.0	3.50e-05	0	53	0	221249536	60	5036
2026-01-05 04:41:51.34	39.73	12.57	-48.9	-51.9	12.9	4.11e-05	0	53	0	226492416	60	5138
2026-01-05 04:41:54.31	39.33	12.78	-48.8	-51.7	13.2	2.51e-05	0	53	0	232783872	60	4984
2026-01-05 04:41:57.28	38.93	12.99	-48.9	-51.8	13.0	3.50e-05	0	53	0	238026752	60	5042
2026-01-05 04:42:00.25	38.52	13.20	-48.2	-50.6	14.3	4.50e-06	0	54	0	243269632	59	4653
2026-01-05 04:42:03.21	38.11	13.41	-48.0	-50.2	14.7	0.00e+00	0	54	0	249561088	58	4725
2026-01-05 04:42:06.17	37.69	13.62	-48.1	-50.3	14.5	0.00e+00	0	54	0	254803968	58	4813
2026-01-05 04:42:09.13	37.26	13.83	-47.8	-50.0	14.9	0.00e+00	0	54	0	260046848	58	4634
2026-01-05 04:42:12.10	36.83	14.04	-48.0	-50.2	14.6	7.00e-07	0	54	0	266338304	58	4749
2026-01-05 04:42:15.08	36.39	14.26	-47.9	-50.1	14.8	0.00e+00	0	54	0	271581184	58	4690
2026-01-05 04:42:18.05	35.94	14.47	-48.1	-50.3	14.6	0.00e+00	0	54	0	276824064	58	4795
2026-01-05 04:42:21.03	35.48	14.68	-48.1	-50.5	14.4	0.00e+00	0	54	0	283115520	58	4924
2026-01-05 04:42:24.02	35.02	14.89	-48.2	-50.5	14.4	0.00e+00	0	54	0	288358400	58	4888
2026-01-05 04:42:26.98	34.56	15.11	-48.2	-50.6	14.3	2.20e-06	0	54	0	293601280	58	4969
2026-01-05 04:42:29.94	34.08	15.32	-48.4	-50.9	14.0	0.00e+00	0	54	0	298844160	58	5134
2026-01-05 04:42:32.91	33.60	15.53	-48.6	-51.2	13.7	4.50e-06	0	54	0	305135616	59	5023
2026-01-05 04:42:35.87	33.12	15.74	-48.6	-51.3	13.6	6.10e-06	0	54	0	310378496	59	5072
2026-01-05 04:42:38.84	32.62	15.95	-48.9	-51.6	13.3	1.37e-05	0	54	0	315621376	59	5237
2026-01-05 04:42:41.80	32.12	16.16	-48.9	-51.7	13.2	1.67e-05	0	54	0	321912832	59	5333
2026-01-05 04:42:44.78	31.61	16.37	-48.9	-51.7	13.2	1.83e-05	0	54	0	327155712	60	5030
2026-01-05 04:42:47.75	31.10	16.58	-48.8	-51.6	13.3	2.36e-05	0	54	0	332398592	60	4944
2026-01-05 04:42:50.72	30.57	16.79	-49.0	-51.9	13.0	2.67e-05	0	54	0	338690048	60	5151
2026-01-05 04:42:53.69	30.04	16.99	-48.5	-51.0	13.9	6.80e-06	0	54	0	343932928	60	4624
2026-01-05 04:42:56.66	29.51	17.20	-48.5	-51.0	14.0	1.50e-06	0	55	0	349175808	59	4888
2026-01-05 04:42:59.63	28.96	17.41	-48.7	-51.4	13.6	9.90e-06	0	55	0	355467264	59	5103
2026-01-05 04:43:02.61	28.41	17.61	-48.3	-50.7	14.3	0.00e+00	0	55	0	360710144	59	4719
2026-01-05 04:43:05.58	27.84	17.82	-48.5	-50.9	14.1	2.20e-06	0	55	0	365953024	59	4833
2026-01-05 04:43:08.56	27.27	18.02	-48.0	-50.2	14.8	0.00e+00	0	55	0	371195904	59	4451
2026-01-05 04:43:11.54	26.70	18.22	-47.9	-50.0	15.0	0.00e+00	0	55	0	377487360	58	4624
2026-01-05 04:43:14.49	26.12	18.42	-48.0	-50.1	14.9	0.00e+00	0	55	0	382730240	58	4684
2026-01-05 04:43:17.46	25.52	18.62	-47.1	-48.9	16.1	0.00e+00	0	55	0	387973120	57	4330
2026-01-05 04:43:20.43	24.92	18.82	-47.0	-48.8	16.2	0.00e+00	0	55	0	394264576	57	4261
2026-01-05 04:43:23.40	24.32	19.01	-46.8	-48.5	16.5	0.00e+00	0	55	0	399507456	56	4390
2026-01-05 04:43:26.37	23.70	19.21	-46.9	-48.7	16.3	0.00e+00	0	55	0	404750336	56	4445
2026-01-05 04:43:29.33	23.08	19.40	-46.7	-48.3	16.7	0.00e+00	0	55	0	411041792	56	4288
2026-01-05 04:43:32.27	22.45	19.58	-46.9	-48.6	16.5	0.00e+00	0	55	0	416284672	56	4405
2026-01-05 04:43:35.26	21.81	19.77	-46.9	-48.6	16.4	0.00e+00	0	55	0	421527552	56	4437
2026-01-05 04:43:38.21	21.17	19.95	-47.0	-48.7	16.3	0.00e+00	0	55	0	427819008	56	4476
2026-01-05 04:43:41.18	20.51	20.14	-46.6	-48.2	16.8	0.00e+00	0	55	0	433061888	56	4240
2026-01-05 04:43:44.14	19.85	20.32	-46.6	-48.2	16.9	0.00e+00	0	55	0	438304768	56	4197
2026-01-05 04:43:47.11	19.18	20.49	-46.6	-48.1	16.9	0.00e+00	0	55	0	443547648	56	4179
2026-01-05 04:43:50.07	18.51	20.66	-46.4	-47.9	17.0	0.00e+00	0	55	0	449839104	55	4313
2026-01-05 04:43:53.04	17.82	20.83	-46.5	-48.1	16.8	0.00e+00	0	55	0	455081984	55	4415
2026-01-05 04:43:56.00	17.13	21.00	-46.5	-48.1	16.8	0.00e+00	0	55	0	460324864	55	4437
2026-01-05 04:43:58.96	16.43	21.16	-46.7	-48.4	16.6	0.00e+00	0	55	0	466616320	55	4559
2026-01-05 04:44:01.94	15.72	21.32	-46.6	-48.2	16.8	0.00e+00	0	55	0	471859200	55	4446
2026-01-05 04:44:04.91	15.01	21.48	-46.4	-47.9	17.0	0.00e+00	0	55	0	477102080	55	4326
2026-01-05 04:44:07.88	14.28	21.63	-46.5	-48.0	16.9	0.00e+00	0	55	0	483393536	55	4374
2026-01-05 04:44:10.85	13.55	21.78	-46.0	-47.4	17.5	0.00e+00	0	55	0	488636416	55	4096
2026-01-05 04:44:13.81	12.82	21.92	-46.2	-47.7	17.3	0.00e+00	0	55	0	493879296	55	4194
2026-01-05 04:44:16.79	12.07	22.07	-45.8	-47.2	17.7	0.00e+00	0	55	0	500170752	54	4206
2026-01-05 04:44:19.76	11.32	22.20	-45.7	-47.1	17.8	0.00e+00	0	55	0	505413632	54	4162
2026-01-05 04:44:22.72	10.57	22.33	-45.8	-47.2	17.7	0.00e+00	0	55	0	510656512	54	4211
2026-01-05 04:44:25.70	9.80	22.46	-45.6	-46.9	17.8	0.00e+00	0	55	0	515899392	54	4082
2026-01-05 04:44:28.67	9.03	22.58	-45.8	-47.3	17.2	0.00e+00	0	56	0	522190848	54	4273
2026-01-05 04:44:31.62	8.26	22.69	-46.6	-48.5	15.8	0.00e+00	0	55	0	527433728	54	4874
2026-01-05 04:44:34.60	7.48	22.80	-48.6	-52.2	11.5	1.63e-04	0	56	0	532676608	59	5611
2026-01-05 04:44:37.56	6.69	22.91	-49.5	-55.2	8.0	7.46e-02	0	56	0	538968064	60	7511
2026-01-05 04:44:40.54	5.90	23.01	-49.7	-56.0	7.3	1.23e-01	0	56	0	544210944	61	7757
2026-01-05 04:44:43.51	5.10	23.10	-49.2	-54.0	9.4	3.05e-02	0	56	0	549453824	61	6145
2026-01-05 04:44:46.47	4.30	23.19	-49.4	-54.3	9.3	1.24e-02	0	56	0	555745280	61	6362
2026-01-05 04:44:49.43	3.50	23.28	-49.8	-55.2	8.4	6.28e-02	0	55	0	560988160	61	7046
2026-01-05 04:44:52.40	2.69	23.35	-48.3	-50.9	13.6	3.35e-05	0	56	0	566231040	59	4868
2026-01-05 04:44:55.38	1.87	23.42	-48.0	-50.1	14.9	0.00e+00	0	56	0	572522496	59	4421
2026-01-05 04:44:58.35	1.05	23.49	-47.8	-49.8	15.2	0.00e+00	0	56	0	577765376	58	4524
2026-01-05 04:45:01.31	0.23	23.55	-48.2	-50.5	14.5	0.00e+00	0	56	0	583008256	58	4919
2026-01-05 04:45:04.27	359.41	23.60	-48.0	-50.2	14.9	0.00e+00	0	56	0	588251136	58	4709
2026-01-05 04:45:07.24	358.59	23.65	-47.9	-50.1	15.0	0.00e+00	0	56	0	594542592	58	4659
2026-01-05 04:45:10.21	357.76	23.68	-48.1	-50.3	14.8	0.00e+00	0	56	0	599785472	58	4761
2026-01-05 04:45:13.18	356.93	23.72	-47.6	-49.6	15.4	0.00e+00	0	56	0	605028352	58	4435
2026-01-05 04:45:16.14	356.10	23.74	-47.9	-50.1	15.0	0.00e+00	0	56	0	611319808	58	4664
2026-01-05 04:45:19.10	355.27	23.77	-48.0	-50.2	14.9	0.00e+00	0	56	0	616562688	58	4737
2026-01-05 04:45:22.07	354.43	23.78	-47.9	-50.0	15.1	0.00e+00	0	56	0	621805568	58	4626
2026-01-05 04:45:25.03	353.60	23.79	-47.9	-50.0	15.1	0.00e+00	0	56	0	628097024	58	4607
2026-01-05 04:45:28.00	352.76	23.79	-47.9	-50.1	15.0	7.00e-07	0	56	0	633339904	58	4675
2026-01-05 04:45:30.96	351.93	23.78	-47.4	-49.3	15.8	0.00e+00	0	56	0	638582784	57	4508
2026-01-05 04:45:33.92	351.10	23.77	-47.4	-49.2	15.9	0.00e+00	0	56	0	643825664	57	4474
2026-01-05 04:45:36.89	350.26	23.75	-46.9	-48.7	16.3	0.00e+00	0	56	0	650117120	57	4224
2026-01-05 04:45:39.85	349.43	23.72	-46.7	-48.3	16.7	0.00e+00	0	56	0	655360000	56	4281
2026-01-05 04:45:42.83	348.60	23.69	-46.6	-48.2	16.9	0.00e+00	0	56	0	660602880	56	4194
2026-01-05 04:45:45.80	347.77	23.65	-46.6	-48.2	16.8	0.00e+00	0	56	0	666894336	56	4208
2026-01-05 04:45:48.77	346.94	23.61	-45.9	-47.2	17.7	0.00e+00	0	56	0	672137216	54	4238
2026-01-05 04:45:51.72	346.13	23.56	-45.9	-47.3	17.6	0.00e+00	0	56	0	677380096	54	4262
2026-01-05 04:45:54.69	345.30	23.50	-45.9	-47.3	17.6	0.00e+00	0	56	0	683671552	54	4248
2026-01-05 04:45:57.64	344.49	23.43	-45.8	-47.1	17.8	0.00e+00	0	56	0	688914432	54	4182
2026-01-05 04:46:00.61	343.68	23.36	-45.3	-46.6	18.3	0.00e+00	0	56	0	694157312	53	4164
2026-01-05 04:46:03.58	342.87	23.29	-45.6	-46.9	18.0	0.00e+00	0	56	0	699400192	53	4302
2026-01-05 04:46:06.55	342.06	23.21	-45.9	-47.3	17.6	0.00e+00	0	56	0	705691648	53	4496
2026-01-05 04:46:09.51	341.26	23.12	-45.9	-47.4	17.5	0.00e+00	0	56	0	710934528	53	4559
2026-01-05 04:46:12.47	340.46	23.03	-45.8	-47.3	17.7	0.00e+00	0	56	0	716177408	53	4494
2026-01-05 04:46:15.45	339.67	22.93	-46.2	-47.6	17.3	0.00e+00	0	56	0	722468864	54	4437
2026-01-05 04:46:18.41	338.88	22.82	-46.4	-48.0	17.0	0.00e+00	0	56	0	727711744	54	4617
2026-01-05 04:46:21.38	338.10	22.71	-47.0	-48.9	16.0	0.00e+00	0	56	0	732954624	55	4820
2026-01-05 04:46:24.34	337.33	22.60	-47.1	-48.9	16.1	0.00e+00	0	56	0	739246080	56	4571
2026-01-05 04:46:27.32	336.55	22.48	-47.1	-48.9	16.0	0.00e+00	0	56	0	744488960	56	4571
2026-01-05 04:46:30.28	335.79	22.35	-47.6	-49.8	14.9	0.00e+00	0	56	0	749731840	57	4771
2026-01-05 04:46:33.25	335.03	22.22	-48.8	-51.9	12.7	3.43e-05	0	56	0	754974720	59	5415
2026-01-05 04:46:36.21	334.28	22.09	-48.7	-51.8	12.6	1.81e-04	0	56	0	761266176	59	5375
2026-01-05 04:46:39.18	333.54	21.95	-48.3	-50.5	14.5	2.20e-06	0	56	0	766509056	59	4649
2026-01-05 04:46:42.15	332.80	21.81	-48.3	-50.6	14.5	7.00e-07	0	56	0	771751936	59	4664
2026-01-05 04:46:45.13	332.07	21.66	-47.9	-50.1	15.0	7.00e-07	0	56	0	778043392	59	4398
2026-01-05 04:46:48.09	331.34	21.51	-48.0	-50.0	15.1	0.00e+00	0	56	0	783286272	58	4646
2026-01-05 04:46:51.06	330.63	21.35	-47.5	-49.3	15.8	0.00e+00	0	56	0	788529152	57	4529
2026-01-05 04:46:54.03	329.92	21.19	-47.7	-49.6	15.4	0.00e+00	0	56	0	794820608	57	4693
2026-01-05 04:46:57.00	329.22	21.03	-48.0	-50.1	15.0	0.00e+00	0	56	0	800063488	57	4937
2026-01-05 04:46:59.97	328.52	20.86	-48.1	-50.3	14.8	0.00e+00	0	56	0	805306368	58	4779
2026-01-05 04:47:02.94	327.83	20.69	-47.9	-50.0	15.1	1.50e-06	0	56	0	811597824	58	4617
2026-01-05 04:47:05.90	327.16	20.52	-47.7	-49.6	15.5	0.00e+00	0	56	0	816840704	58	4424
2026-01-05 04:47:08.87	326.48	20.34	-47.2	-49.1	16.0	0.00e+00	0	56	0	822083584	57	4407
2026-01-05 04:47:11.83	325.82	20.17	-47.2	-48.9	16.2	0.00e+00	0	56	0	828375040	57	4307
2026-01-05 04:47:14.81	325.16	19.98	-47.4	-49.2	15.8	0.00e+00	0	56	0	833617920	57	4484
2026-01-05 04:47:17.76	324.52	19.80	-47.2	-49.1	16.0	0.00e+00	0	56	0	838860800	57	4403
2026-01-05 04:47:20.74	323.88	19.61	-47.5	-49.4	15.7	0.00e+00	0	56	0	844103680	57	4583
2026-01-05 04:47:23.68	323.25	19.43	-47.3	-49.2	15.9	0.00e+00	0	56	0	850395136	57	4452
2026-01-05 04:47:26.64	322.63	19.24	-47.4	-49.3	15.8	0.00e+00	0	56	0	855638016	57	4525
2026-01-05 04:47:29.61	322.01	19.04	-47.3	-49.1	15.9	0.00e+00	0	56	0	860880896	57	4440
2026-01-05 04:47:32.57	321.40	18.85	-47.3	-49.1	16.0	0.00e+00	0	56	0	867172352	57	4405
2026-01-05 04:47:35.53	320.81	18.65	-47.4	-49.2	15.8	0.00e+00	0	56	0	872415232	57	4479
2026-01-05 04:47:38.50	320.21	18.46	-47.5	-49.4	15.6	0.00e+00	0	56	0	877658112	57	4581
2026-01-05 04:47:41.48	319.62	18.25	-47.7	-49.8	15.3	7.00e-07	0	56	0	883949568	57	4766
2026-01-05 04:47:44.46	319.05	18.05	-47.9	-50.0	15.0	0.00e+00	0	56	0	889192448	57	4888
2026-01-05 04:47:47.42	318.48	17.85	-47.7	-49.7	15.3	0.00e+00	0	56	0	894435328	57	4719
2026-01-05 04:47:50.38	317.92	17.65	-47.8	-49.9	15.2	0.00e+00	0	56	0	899678208	57	4823
2026-01-05 04:47:53.34	317.36	17.44	-47.4	-49.2	15.8	0.00e+00	0	56	0	905969664	57	4488
2026-01-05 04:47:56.31	316.82	17.24	-47.5	-49.4	15.6	0.00e+00	0	56	0	911212544	57	4559
2026-01-05 04:47:59.28	316.28	17.03	-47.5	-49.5	15.5	0.00e+00	0	56	0	916455424	57	4628
2026-01-05 04:48:02.25	315.75	16.82	-47.6	-49.5	15.5	0.00e+00	0	56	0	922746880	57	4631
2026-01-05 04:48:05.22	315.22	16.61	-47.1	-49.0	16.1	0.00e+00	0	56	0	927989760	57	4342
2026-01-05 04:48:08.19	314.70	16.40	-47.3	-49.2	15.8	0.00e+00	0	56	0	933232640	57	4480
2026-01-05 04:48:11.16	314.19	16.19	-47.5	-49.5	15.5	0.00e+00	0	56	0	939524096	57	4627
2026-01-05 04:48:14.13	313.69	15.98	-46.9	-48.7	16.3	0.00e+00	0	56	0	944766976	57	4209
2026-01-05 04:48:17.10	313.20	15.77	-46.7	-48.3	16.7	0.00e+00	0	57	0	950009856	56	4268
2026-01-05 04:48:20.08	312.71	15.56	-46.6	-48.2	16.8	0.00e+00	0	56	0	956301312	56	4215
2026-01-05 04:48:23.03	312.23	15.35	-46.6	-48.2	16.8	0.00e+00	0	56	0	961544192	56	4233
2026-01-05 04:48:26.00	311.75	15.14	-46.8	-48.5	16.5	0.00e+00	0	56	0	966787072	56	4358
2026-01-05 04:48:28.97	311.28	14.93	-46.6	-48.2	16.7	0.00e+00	0	56	0	972029952	56	4236
2026-01-05 04:48:31.93	310.82	14.72	-46.5	-48.1	16.8	0.00e+00	0	57	0	978321408	56	4173
2026-01-05 04:48:34.89	310.37	14.51	-46.7	-48.4	16.6	0.00e+00	0	57	0	983564288	56	4308
2026-01-05 04:48:37.86	309.92	14.30	-46.8	-48.5	16.4	0.00e+00	0	56	0	988807168	56	4376
2026-01-05 04:48:40.82	309.48	14.09	-46.6	-48.3	16.6	0.00e+00	0	56	0	995098624	56	4266
2026-01-05 04:48:43.80	309.05	13.87	-46.9	-48.7	16.3	0.00e+00	0	56	0	1000341504	56	4453
2026-01-05 04:48:46.76	308.62	13.66	-47.1	-48.9	16.0	0.00e+00	0	56	0	1005584384	56	4577
2026-01-05 04:48:49.73	308.20	13.45	-47.4	-49.4	15.5	0.00e+00	0	57	0	1011875840	56	4847
2026-01-05 04:48:52.70	307.78	13.24	-47.5	-49.6	15.4	7.00e-07	0	56	0	1017118720	57	4661
2026-01-05 04:48:55.66	307.37	13.03	-47.4	-49.4	15.5	0.00e+00	0	56	0	1022361600	57	4577
2026-01-05 04:48:58.63	306.96	12.82	-47.4	-49.4	15.5	0.00e+00	0	56	0	1027604480	57	4557
2026-01-05 04:49:01.60	306.57	12.61	-47.5	-49.6	15.3	0.00e+00	0	56	0	1033895936	57	4681
2026-01-05 04:49:04.57	306.17	12.40	-47.4	-49.5	15.4	0.00e+00	0	57	0	1039138816	57	4605
2026-01-05 04:49:07.53	305.79	12.19	-47.7	-49.9	15.0	0.00e+00	0	56	0	1044381696	57	4824
2026-01-05 04:49:10.50	305.40	11.99	-47.8	-50.0	14.9	0.00e+00	0	57	0	1050673152	57	4883
2026-01-05 04:49:13.47	305.03	11.78	-48.1	-50.4	14.5	0.00e+00	0	57	0	1055916032	57	5110
2026-01-05 04:49:16.43	304.66	11.57	-48.1	-50.4	14.5	0.00e+00	0	57	0	1061158912	58	4823
2026-01-05 04:49:19.39	304.29	11.37	-48.1	-50.4	14.4	7.00e-07	0	57	0	1067450368	58	4862
2026-01-05 04:49:22.35	303.93	11.16	-48.3	-50.7	14.1	7.00e-07	0	56	0	1072693248	58	5008
2026-01-05 04:49:25.32	303.58	10.96	-47.9	-50.1	14.7	0.00e+00	0	57	0	1077936128	58	4668
2026-01-05 04:49:28.29	303.23	10.75	-48.1	-50.5	14.3	2.20e-06	0	57	0	1084227584	58	4874
2026-01-05 04:49:31.27	302.88	10.55	-48.2	-50.6	14.1	1.50e-06	0	56	0	1089470464	58	4954
2026-01-05 04:49:34.24	302.54	10.34	-48.3	-50.9	13.7	9.10e-06	0	57	0	1094713344	58	5148
2026-01-05 04:49:37.20	302.21	10.14	-48.6	-51.4	13.1	3.81e-05	0	57	0	1099956224	59	5133
2026-01-05 04:49:40.18	301.87	9.94	-48.3	-51.1	13.2	1.44e-05	0	57	0	1106247680	59	4943
2026-01-05 04:49:43.15	301.55	9.74	-48.6	-51.6	12.6	8.46e-05	0	57	0	1111490560	59	5256
2026-01-05 04:49:46.12	301.23	9.54	-48.8	-52.2	11.8	3.52e-04	0	57	0	1116733440	59	5639
2026-01-05 04:49:49.09	300.91	9.34	-48.9	-52.6	11.2	1.20e-03	0	56	0	1123024896	59	5906
2026-01-05 04:49:52.07	300.59	9.14	-49.2	-53.5	10.2	5.33e-03	0	57	0	1128267776	60	6153
2026-01-05 04:49:55.03	300.29	8.94	-49.3	-54.2	9.3	1.29e-02	0	57	0	1133510656	60	6704
2026-01-05 04:49:57.98	299.99	8.74	-49.2	-54.5	8.8	3.26e-02	0	57	0	1139802112	60	6909
2026-01-05 04:50:00.95	299.69	8.54	-49.4	-55.2	7.9	7.20e-02	0	57	0	1145044992	60	7462
2026-01-05 04:50:03.92	299.39	8.35	-49.5	-56.0	6.9	1.51e-01	0	57	0	1150287872	60	8259
2026-01-05 04:50:06.89	299.10	8.15	-49.6	-57.2	5.9	2.91e-01	0	57	0	1156579328	61	8925
2026-01-05 04:50:09.87	298.81	7.96	-49.6	-57.8	5.4	5.17e-01	0	57	0	1161822208	61	9497
2026-01-05 04:50:12.84	298.53	7.76	-49.6	-58.8	4.8	7.57e-01	0	57	0	1167065088	61	10682
2026-01-05 04:50:15.82	298.24	7.57	-49.5	-59.1	4.5	1.04e+00	2	57	0	1173356544	61	11030
2026-01-05 04:50:18.78	297.97	7.38	-49.2	-58.2	4.9	7.95e-01	0	57	0	1178599424	61	9953
2026-01-05 04:50:21.75	297.70	7.19	-49.1	-57.8	5.0	6.99e-01	0	57	0	1183842304	61	9563
2026-01-05 04:50:24.71	297.43	7.00	-49.0	-58.4	4.6	9.34e-01	0	57	0	1189085184	61	10288
2026-01-05 04:50:27.68	297.16	6.81	-49.1	-58.9	4.5	1.01e+00	33	57	0	1195376640	61	10855
2026-01-05 04:50:30.64	296.90	6.62	-49.1	-59.5	4.2	1.32e+00	17	57	0	1199570944	61	11608
2026-01-05 04:50:33.62	296.64	6.43	-49.2	-59.7	4.2	1.40e+00	0	57	0	1199570944	61	11864
2026-01-05 04:50:36.60	296.39	6.24	-49.0	-58.3	4.7	9.61e-01	0	57	0	1203765248	61	10171
2026-01-05 04:50:39.56	296.14	6.06	-48.9	-57.6	5.0	6.91e-01	0	57	0	1209008128	60	9862
2026-01-05 04:50:42.53	295.89	5.87	-48.8	-57.6	5.0	7.01e-01	0	57	0	1215299584	60	9852
2026-01-05 04:50:45.50	295.65	5.69	-48.9	-57.6	5.0	7.29e-01	0	57	0	1220542464	60	9885
2026-01-05 04:50:48.46	295.41	5.50	-49.0	-57.7	5.0	7.07e-01	0	57	0	1225785344	60	10058
2026-01-05 04:50:51.42	295.17	5.32	-48.9	-57.7	5.0	6.98e-01	0	57	0	1232076800	60	9998
2026-01-05 04:50:54.39	294.93	5.14	-49.0	-58.4	4.6	8.98e-01	0	57	0	1237319680	60	10826
2026-01-05 04:50:57.36	294.70	4.96	-51.0	-65.2	3.8	1.49e+00	0	57	104	1239416832	64	18747
2026-01-05 04:51:00.33	294.47	4.78	-52.1	-65.9	3.8	1.49e+00	0	57	104	1239416832	66	18176
2026-01-05 04:51:03.29	294.25	4.60	-52.3	-66.1	3.8	1.49e+00	0	57	104	1239416832	66	18616
2026-01-05 04:51:06.25	294.02	4.42	-52.4	-66.2	3.8	1.49e+00	0	57	104	1239416832	66	18911
2026-01-05 04:51:09.22	293.80	4.24	-52.4	-66.3	3.8	1.49e+00	0	57	104	1239416832	66	19071
2026-01-05 04:51:12.19	293.58	4.06	-52.6	-66.4	3.8	1.49e+00	0	57	104	1239416832	66	19216
2026-01-05 04:51:15.15	293.37	3.89	-52.6	-66.4	3.8	1.49e+00	0	57	104	1239416832	67	18235
2026-01-05 04:51:18.13	293.16	3.71	-52.6	-66.5	3.8	1.49e+00	0	57	104	1239416832	67	18313
2026-01-05 04:51:21.09	292.95	3.53	-52.6	-66.4	3.8	1.49e+00	0	57	104	1239416832	67	18275
2026-01-05 04:51:24.07	292.74	3.36	-52.6	-66.4	3.8	1.49e+00	0	57	104	1239416832	67	18249
2026-01-05 04:51:27.05	292.53	3.18	-52.6	-66.4	3.8	1.49e+00	0	57	104	1239416832	67	18214
2026-01-05 04:51:30.00	292.33	3.01	-52.6	-66.4	3.8	1.49e+00	0	57	104	1239416832	67	18254

#Closed at: 2026-01-05 04:51:31
#Recorded file [1239 MB]: D:/Data/31026_260105_075055.dat