passes_logs/2026/01/05/R3.0SM8_Murmansk_STILSPACE/R3.0SM8_Murmansk_STILSPACE__20260105_085618_AQUA_rec.log

#Pass ID: 20260105_085618_AQUA
#Satellite: AQUA
#Configuration: AQUA
#almurnet v.1.7.20240730
#Start time: 2026-01-05 08:58:47

#Version: 2.2.20231116
#Station: R3.0SM8_Murmansk_STILSPACE
#Location: 33.092731 lon 68.902999 lat
#TLE: 1 27424U 02022A   26003.93831470  .00001925  00000+0  39553-3 0  9995
#TLE: 2 27424  98.4067 330.1809 0002003  92.1713 343.8415 14.61796291259276

#Time	Az	El	Level	Level2	SNR	BER	BlckErr	Temp	State	Recorded	gain1	gain2
2026-01-05 08:58:47.57	81.22	14.04	-52.6	-62.8	3.8	8.47e-01	0	57	0	0	66	12612
2026-01-05 08:58:50.54	80.77	14.30	-54.4	-74.4	3.8	7.44e-01	0	58	104	0	71	37154
2026-01-05 08:58:53.50	80.31	14.56	-54.4	-74.4	3.8	7.44e-01	0	58	104	0	71	36991
2026-01-05 08:58:56.48	79.83	14.82	-54.4	-74.3	3.8	7.45e-01	0	58	104	0	71	36876
2026-01-05 08:58:59.46	79.35	15.08	-54.4	-74.3	3.8	7.43e-01	0	58	104	0	71	36773
2026-01-05 08:59:02.43	78.86	15.34	-54.3	-74.3	3.8	7.42e-01	0	58	104	0	71	36564
2026-01-05 08:59:05.41	78.36	15.61	-54.3	-74.2	3.8	7.45e-01	0	58	104	0	71	36306
2026-01-05 08:59:08.39	77.85	15.87	-54.2	-74.0	3.8	7.46e-01	0	58	104	0	71	35311
2026-01-05 08:59:11.36	77.33	16.14	-54.1	-73.9	3.8	7.46e-01	0	58	104	0	71	34925
2026-01-05 08:59:14.33	76.80	16.41	-54.1	-73.6	3.8	7.46e-01	0	58	104	0	71	33980
2026-01-05 08:59:17.29	76.27	16.67	-54.1	-73.6	3.8	7.46e-01	0	58	104	0	71	33860
2026-01-05 08:59:20.25	75.72	16.94	-54.1	-73.1	3.8	7.44e-01	0	58	104	0	71	31989
2026-01-05 08:59:23.22	75.16	17.21	-54.0	-72.0	3.8	7.41e-01	0	58	104	0	71	28222
2026-01-05 08:59:26.20	74.59	17.48	-54.0	-70.5	4.2	7.34e-01	0	58	104	0	71	23708
2026-01-05 08:59:29.15	74.01	17.74	-54.0	-71.2	3.8	7.40e-01	0	58	104	0	71	25585
2026-01-05 08:59:32.13	73.42	18.01	-54.0	-71.3	3.9	7.42e-01	0	58	104	0	71	26134
2026-01-05 08:59:35.11	72.81	18.28	-54.1	-72.9	3.8	7.42e-01	0	58	104	0	71	31431
2026-01-05 08:59:38.06	72.20	18.55	-54.0	-69.2	4.2	7.26e-01	0	58	104	0	71	20371
2026-01-05 08:59:41.02	71.57	18.82	-52.9	-59.5	13.3	6.03e-01	0	58	0	4718592	69	7524
2026-01-05 08:59:43.98	70.94	19.09	-52.7	-58.6	14.4	6.02e-01	0	58	0	9961472	68	7198
2026-01-05 08:59:46.94	70.29	19.36	-52.5	-58.2	14.7	6.01e-01	0	58	0	15728640	68	6806
2026-01-05 08:59:49.91	69.62	19.62	-52.6	-58.4	14.5	6.04e-01	0	58	0	20971520	68	6987
2026-01-05 08:59:52.87	68.95	19.89	-50.9	-54.4	18.5	6.01e-01	0	58	0	26738688	65	5230
2026-01-05 08:59:55.84	68.26	20.16	-49.7	-52.2	20.8	6.01e-01	0	58	0	32505856	63	4560
2026-01-05 08:59:58.81	67.56	20.42	-48.7	-50.8	22.1	6.02e-01	0	58	0	37748736	61	4342
2026-01-05 09:00:01.79	66.84	20.69	-48.6	-50.4	22.8	6.02e-01	0	58	0	43515904	59	4691
2026-01-05 09:00:04.75	66.12	20.95	-48.7	-50.6	22.6	6.00e-01	0	58	0	48758784	59	4792
2026-01-05 09:00:07.72	65.38	21.21	-48.6	-50.5	22.7	6.04e-01	0	58	0	54525952	59	4736
2026-01-05 09:00:10.69	64.62	21.47	-48.7	-50.7	22.5	6.02e-01	0	58	0	60293120	59	4827
2026-01-05 09:00:13.65	63.86	21.72	-48.8	-50.8	22.5	6.05e-01	0	57	0	65536000	59	4878
2026-01-05 09:00:16.61	63.08	21.97	-48.5	-50.4	22.5	6.02e-01	0	57	0	71303168	60	4439
2026-01-05 09:00:19.57	62.29	22.22	-48.6	-50.6	22.3	6.02e-01	0	57	0	77070336	60	4520
2026-01-05 09:00:22.55	61.48	22.47	-48.6	-50.6	22.3	6.05e-01	0	57	0	82313216	60	4526
2026-01-05 09:00:25.51	60.66	22.72	-48.4	-50.3	22.6	6.02e-01	0	57	0	88080384	60	4366
2026-01-05 09:00:28.48	59.83	22.96	-48.7	-50.7	22.2	6.03e-01	0	57	0	93323264	60	4592
2026-01-05 09:00:31.44	58.98	23.19	-48.2	-50.0	22.9	6.02e-01	0	57	0	99090432	60	4234
2026-01-05 09:00:34.41	58.12	23.42	-48.7	-50.6	22.7	6.02e-01	0	57	0	104333312	59	4797
2026-01-05 09:00:37.38	57.24	23.65	-48.9	-50.8	22.4	6.02e-01	0	57	0	110100480	59	4908
2026-01-05 09:00:40.35	56.35	23.87	-48.8	-50.8	22.1	6.02e-01	0	57	0	115867648	60	4615
2026-01-05 09:00:43.31	55.46	24.09	-48.8	-50.8	22.2	6.00e-01	0	57	0	121110528	60	4613
2026-01-05 09:00:46.27	54.54	24.30	-48.6	-50.6	22.3	6.01e-01	0	57	0	126877696	60	4527
2026-01-05 09:00:49.25	53.61	24.51	-48.8	-50.8	22.1	6.04e-01	0	57	0	132644864	60	4647
2026-01-05 09:00:52.21	52.68	24.70	-48.5	-50.4	22.5	6.01e-01	0	57	0	137887744	60	4426
2026-01-05 09:00:55.18	51.73	24.90	-48.7	-50.6	22.7	6.00e-01	0	57	0	143654912	59	4775
2026-01-05 09:00:58.14	50.76	25.08	-48.6	-50.5	22.8	6.00e-01	0	57	0	148897792	59	4716
2026-01-05 09:01:01.11	49.79	25.26	-48.7	-50.6	22.7	6.03e-01	0	57	0	154664960	59	4795
2026-01-05 09:01:04.09	48.80	25.43	-48.7	-50.6	22.7	6.03e-01	0	57	0	160432128	59	4768
2026-01-05 09:01:07.06	47.80	25.59	-48.7	-50.6	22.7	6.04e-01	0	57	0	165675008	59	4792
2026-01-05 09:01:10.02	46.79	25.75	-48.5	-50.6	22.6	5.99e-01	0	57	0	171442176	59	4772
2026-01-05 09:01:12.99	45.78	25.89	-48.4	-50.5	22.7	6.00e-01	0	57	0	177209344	59	4727
2026-01-05 09:01:15.95	44.75	26.03	-48.8	-50.9	22.5	5.99e-01	0	57	0	182452224	59	4936
2026-01-05 09:01:18.93	43.71	26.16	-48.6	-50.6	22.7	6.01e-01	0	57	0	188219392	59	4791
2026-01-05 09:01:21.89	42.67	26.27	-48.8	-50.8	22.5	6.04e-01	0	57	0	193462272	59	4875
2026-01-05 09:01:24.85	41.62	26.38	-48.7	-50.7	22.7	6.03e-01	0	57	0	199229440	59	4817
2026-01-05 09:01:27.83	40.56	26.48	-48.6	-50.5	22.8	6.04e-01	0	57	0	204996608	59	4724
2026-01-05 09:01:30.80	39.49	26.57	-48.8	-50.8	22.6	6.04e-01	0	57	0	210239488	59	4875
2026-01-05 09:01:33.77	38.42	26.65	-48.5	-50.4	22.5	6.04e-01	0	57	0	216006656	60	4420
2026-01-05 09:01:36.74	37.34	26.71	-48.3	-50.2	22.8	6.01e-01	0	57	0	221249536	60	4304
2026-01-05 09:01:39.71	36.26	26.77	-48.4	-50.2	22.7	6.00e-01	0	57	0	227016704	60	4324
2026-01-05 09:01:42.68	35.17	26.82	-48.4	-50.3	22.7	6.03e-01	0	57	0	232783872	60	4343
2026-01-05 09:01:45.64	34.09	26.85	-48.2	-50.0	22.9	6.02e-01	0	57	0	238026752	60	4213
2026-01-05 09:01:48.61	33.00	26.88	-48.7	-50.7	22.6	6.01e-01	0	57	0	243793920	59	4827
2026-01-05 09:01:51.58	31.90	26.89	-48.9	-50.8	22.5	6.03e-01	0	57	0	249561088	59	4904
2026-01-05 09:01:54.55	30.81	26.89	-48.9	-50.9	22.0	6.03e-01	0	57	0	254803968	60	4704
2026-01-05 09:01:57.52	29.72	26.88	-48.7	-50.7	22.3	6.02e-01	0	57	0	260571136	60	4558
2026-01-05 09:02:00.47	28.64	26.86	-48.9	-51.0	22.0	6.01e-01	0	57	0	265814016	60	4751
2026-01-05 09:02:03.43	27.55	26.83	-48.6	-50.5	22.5	5.98e-01	0	57	0	271581184	60	4452
2026-01-05 09:02:06.39	26.47	26.79	-48.6	-50.5	22.4	6.04e-01	0	57	0	277348352	60	4478
2026-01-05 09:02:09.37	25.38	26.73	-49.1	-51.3	21.6	6.01e-01	0	57	0	282591232	60	4896
2026-01-05 09:02:12.33	24.31	26.67	-49.2	-51.4	21.5	6.02e-01	0	57	0	288358400	60	4963
2026-01-05 09:02:15.30	23.23	26.59	-49.1	-51.2	21.7	6.03e-01	0	57	0	293601280	60	4864
2026-01-05 09:02:18.26	22.17	26.51	-48.7	-50.7	22.3	6.03e-01	0	57	0	299368448	60	4561
2026-01-05 09:02:21.23	21.11	26.41	-48.6	-50.6	22.3	6.02e-01	0	57	0	305135616	60	4529
2026-01-05 09:02:24.20	20.05	26.31	-48.4	-50.3	22.6	6.03e-01	0	57	0	310378496	60	4379
2026-01-05 09:02:27.16	19.01	26.19	-48.6	-50.6	22.3	6.04e-01	0	57	0	316145664	60	4533
2026-01-05 09:02:30.12	17.98	26.07	-48.7	-50.7	22.2	6.04e-01	0	57	0	321388544	60	4587
2026-01-05 09:02:33.09	16.95	25.93	-48.7	-50.8	22.1	6.00e-01	0	57	0	327155712	60	4613
2026-01-05 09:02:36.06	15.93	25.79	-48.8	-50.9	22.0	6.06e-01	0	57	0	332922880	60	4695
2026-01-05 09:02:39.02	14.92	25.64	-48.8	-50.9	21.8	6.03e-01	0	57	0	338165760	60	4671
2026-01-05 09:02:41.99	13.92	25.48	-48.7	-50.8	21.7	6.02e-01	0	57	0	343932928	60	4637
2026-01-05 09:02:44.96	12.93	25.31	-48.7	-51.0	21.3	6.03e-01	0	57	0	349175808	60	4706
2026-01-05 09:02:47.94	11.95	25.13	-48.9	-51.3	20.8	6.02e-01	0	57	0	354942976	60	4920
2026-01-05 09:02:50.91	10.98	24.95	-49.5	-52.6	19.2	6.02e-01	0	57	0	360710144	61	5386
2026-01-05 09:02:53.88	10.03	24.76	-50.8	-56.5	14.7	6.03e-01	0	57	0	365953024	63	7471
2026-01-05 09:02:56.85	9.09	24.56	-51.0	-57.5	13.5	6.04e-01	0	57	0	371720192	64	7931
2026-01-05 09:02:59.81	8.16	24.36	-51.1	-56.8	14.6	6.00e-01	0	57	0	376963072	64	7328
2026-01-05 09:03:02.78	7.24	24.15	-50.4	-54.4	17.4	6.01e-01	0	57	0	382730240	64	5564
2026-01-05 09:03:05.74	6.34	23.94	-50.3	-53.7	18.5	6.03e-01	0	57	0	388497408	63	5449
2026-01-05 09:03:08.71	5.45	23.72	-50.4	-53.7	18.7	6.02e-01	0	57	0	393740288	63	5437
2026-01-05 09:03:11.68	4.57	23.49	-51.0	-56.5	15.0	6.01e-01	0	57	0	399507456	64	7077
2026-01-05 09:03:14.65	3.71	23.26	-51.1	-56.8	14.6	6.03e-01	0	57	0	405274624	64	7299
2026-01-05 09:03:17.62	2.86	23.03	-50.4	-54.1	17.9	6.04e-01	0	57	0	410517504	64	5363
2026-01-05 09:03:20.59	2.02	22.79	-49.8	-52.6	20.1	6.03e-01	0	57	0	416284672	63	4761
2026-01-05 09:03:23.55	1.20	22.55	-49.7	-52.2	20.6	6.01e-01	0	57	0	421527552	62	4846
2026-01-05 09:03:26.51	0.39	22.30	-49.6	-52.1	20.7	6.00e-01	0	57	0	427294720	62	4789
2026-01-05 09:03:29.49	359.60	22.05	-49.9	-52.5	20.3	6.03e-01	0	57	0	433061888	62	5035
2026-01-05 09:03:32.45	358.82	21.80	-49.4	-51.7	21.1	6.02e-01	0	57	0	438304768	62	4597
2026-01-05 09:03:35.42	358.05	21.55	-49.4	-51.8	21.0	6.02e-01	0	57	0	444071936	62	4634
2026-01-05 09:03:38.39	357.29	21.29	-49.3	-51.6	21.2	6.03e-01	0	57	0	449839104	62	4503
2026-01-05 09:03:41.36	356.55	21.03	-49.3	-51.6	21.3	6.01e-01	0	57	0	455081984	62	4501
2026-01-05 09:03:44.33	355.82	20.77	-49.1	-51.3	21.5	5.99e-01	0	57	0	460849152	61	4622
2026-01-05 09:03:47.29	355.10	20.51	-49.6	-52.1	20.7	6.00e-01	0	57	0	466092032	61	5098
2026-01-05 09:03:50.26	354.40	20.24	-49.2	-51.5	21.3	6.00e-01	0	57	0	471859200	62	4455
2026-01-05 09:03:53.23	353.71	19.98	-49.4	-51.8	20.9	6.03e-01	0	57	0	477626368	61	4916
2026-01-05 09:03:56.20	353.03	19.71	-49.1	-51.4	21.2	6.03e-01	0	57	0	482869248	61	4698
2026-01-05 09:03:59.16	352.37	19.44	-48.6	-50.7	21.9	6.05e-01	0	57	0	488636416	60	4573
2026-01-05 09:04:02.13	351.72	19.18	-49.1	-51.4	21.2	6.01e-01	0	57	0	493879296	60	4968
2026-01-05 09:04:05.09	351.08	18.91	-48.8	-50.9	22.0	5.99e-01	0	57	0	499646464	59	4933
2026-01-05 09:04:08.07	350.45	18.64	-48.7	-50.8	21.7	6.03e-01	0	57	0	505413632	60	4628
2026-01-05 09:04:11.04	349.83	18.37	-49.5	-52.1	20.3	6.02e-01	0	57	0	510656512	61	5066
2026-01-05 09:04:14.01	349.22	18.10	-49.4	-52.0	20.5	6.03e-01	0	57	0	516423680	61	4999
2026-01-05 09:04:16.99	348.63	17.83	-48.2	-50.2	22.1	6.04e-01	0	57	0	522190848	60	4310
2026-01-05 09:04:19.95	348.05	17.56	-49.3	-52.2	19.8	6.03e-01	0	57	0	527433728	60	5435
2026-01-05 09:04:22.93	347.47	17.30	-49.8	-53.2	18.4	6.02e-01	0	57	0	533200896	61	5768
2026-01-05 09:04:25.90	346.91	17.03	-51.1	-58.6	12.0	6.09e-01	0	57	0	538443776	64	9062
2026-01-05 09:04:28.87	346.36	16.76	-51.2	-61.6	8.3	6.37e-01	40	57	0	544210944	65	12085
2026-01-05 09:04:31.82	345.83	16.50	-51.3	-61.9	8.2	6.40e-01	48	57	0	549978112	65	12428
2026-01-05 09:04:34.80	345.29	16.23	-49.7	-54.2	16.3	6.02e-01	0	57	0	555220992	63	5770
2026-01-05 09:04:37.76	344.78	15.96	-49.4	-53.4	17.4	6.04e-01	0	57	0	560988160	61	5860
2026-01-05 09:04:40.74	344.27	15.70	-50.7	-57.1	13.6	6.06e-01	0	57	0	566755328	63	8021
2026-01-05 09:04:43.71	343.77	15.44	-50.7	-57.3	13.3	6.04e-01	0	57	0	571998208	64	7752
2026-01-05 09:04:46.69	343.27	15.17	-50.8	-58.3	12.0	6.08e-01	0	57	0	577765376	64	8683
2026-01-05 09:04:49.67	342.79	14.91	-50.9	-60.5	9.5	6.27e-01	0	57	0	583008256	64	11179
2026-01-05 09:04:52.63	342.32	14.65	-51.0	-63.2	6.6	6.70e-01	91	57	0	588775424	64	15326
2026-01-05 09:04:55.61	341.85	14.39	-50.8	-64.1	5.7	6.93e-01	91	57	0	594018304	64	17048
2026-01-05 09:04:58.59	341.40	14.14	-50.6	-65.2	4.9	7.13e-01	0	57	104	595066880	64	19277
2026-01-05 09:05:01.57	340.95	13.88	-50.5	-66.3	3.9	7.28e-01	0	58	104	595066880	64	21943
2026-01-05 09:05:04.54	340.51	13.62	-50.3	-64.6	5.0	7.11e-01	0	57	0	595066880	63	18950
2026-01-05 09:05:07.50	340.09	13.37	-50.2	-66.1	4.2	7.39e-01	0	57	104	595066880	63	22525
2026-01-05 09:05:10.47	339.66	13.12	-50.0	-66.1	4.3	7.31e-01	0	57	104	595066880	63	22554
2026-01-05 09:05:13.43	339.25	12.87	-50.1	-69.8	3.8	7.47e-01	0	57	104	595066880	63	34812
2026-01-05 09:05:16.39	338.85	12.62	-49.9	-60.1	8.6	6.33e-01	3	57	0	2097152	63	11292
2026-01-05 09:05:19.37	338.45	12.37	-49.7	-57.0	12.2	6.05e-01	0	57	0	7340032	62	8433
2026-01-05 09:05:22.33	338.06	12.13	-49.4	-54.9	14.8	6.05e-01	0	57	0	13107200	62	6605
2026-01-05 09:05:25.30	337.67	11.88	-50.0	-54.8	15.9	6.02e-01	0	57	0	18874368	62	6515
2026-01-05 09:05:28.27	337.29	11.64	-51.0	-56.2	15.5	6.04e-01	0	57	0	24117248	64	6828
2026-01-05 09:05:31.23	336.93	11.40	-51.1	-55.6	16.5	6.03e-01	0	57	0	29884416	64	6360
2026-01-05 09:05:34.19	336.56	11.16	-50.3	-53.8	18.4	5.97e-01	0	57	0	35651584	64	5203
2026-01-05 09:05:37.16	336.21	10.92	-49.6	-52.3	19.9	5.99e-01	0	57	0	40894464	62	4913
2026-01-05 09:05:40.12	335.86	10.69	-48.9	-51.3	21.0	6.01e-01	0	57	0	46661632	61	4641
2026-01-05 09:05:43.10	335.51	10.45	-48.9	-51.3	21.0	6.00e-01	0	57	0	51904512	61	4643
2026-01-05 09:05:46.06	335.17	10.22	-49.0	-51.4	21.0	6.02e-01	0	57	0	57671680	61	4654
2026-01-05 09:05:49.03	334.84	9.98	-48.8	-51.2	21.1	5.99e-01	0	57	0	63438848	61	4559
2026-01-05 09:05:52.01	334.51	9.75	-48.8	-51.1	21.2	6.00e-01	0	57	0	68681728	61	4538
2026-01-05 09:05:54.98	334.19	9.52	-49.0	-51.4	20.8	6.03e-01	0	57	0	74448896	61	4704
2026-01-05 09:05:57.95	333.87	9.30	-49.3	-51.9	20.4	6.03e-01	0	57	0	79691776	61	4967
2026-01-05 09:06:00.91	333.57	9.07	-48.9	-51.3	20.9	6.00e-01	0	57	0	85458944	61	4609
2026-01-05 09:06:03.88	333.26	8.85	-49.1	-51.6	20.7	6.00e-01	0	57	0	91226112	61	4794
2026-01-05 09:06:06.83	332.96	8.62	-49.1	-51.6	20.7	6.02e-01	0	57	0	96468992	61	4783
2026-01-05 09:06:09.79	332.67	8.40	-49.3	-51.9	20.3	6.01e-01	0	57	0	102236160	61	4962
2026-01-05 09:06:12.76	332.38	8.18	-49.2	-51.8	20.4	6.00e-01	0	57	0	107479040	61	4920
2026-01-05 09:06:15.73	332.09	7.96	-49.3	-51.9	20.3	6.01e-01	0	57	0	113246208	61	4953
2026-01-05 09:06:18.70	331.81	7.75	-49.5	-52.2	20.1	6.00e-01	0	57	0	119013376	61	5124
2026-01-05 09:06:21.65	331.54	7.53	-49.5	-52.3	19.9	5.98e-01	0	57	0	124256256	61	5186
2026-01-05 09:06:24.61	331.27	7.32	-49.6	-52.4	19.8	6.01e-01	0	57	0	130023424	61	5254
2026-01-05 09:06:27.58	331.01	7.10	-49.5	-52.2	20.0	6.01e-01	0	57	0	135266304	61	5152
2026-01-05 09:06:30.54	330.74	6.89	-49.4	-52.2	19.9	5.99e-01	0	57	0	141033472	61	5142
2026-01-05 09:06:33.52	330.49	6.68	-49.5	-52.3	19.9	6.01e-01	0	57	0	146800640	61	5178
2026-01-05 09:06:36.49	330.23	6.47	-49.7	-52.6	19.5	6.02e-01	0	57	0	152043520	61	5374
2026-01-05 09:06:39.46	329.98	6.27	-49.5	-52.3	19.7	6.01e-01	0	57	0	157810688	61	5199
2026-01-05 09:06:42.43	329.74	6.06	-49.4	-52.3	19.7	6.01e-01	0	57	0	163577856	61	5188
2026-01-05 09:06:45.40	329.50	5.85	-49.6	-52.7	19.3	6.02e-01	0	57	0	168820736	61	5417
2026-01-05 09:06:48.38	329.26	5.65	-49.7	-52.7	19.3	6.02e-01	0	57	0	174587904	61	5441
2026-01-05 09:06:51.33	329.02	5.45	-49.6	-52.7	19.3	6.01e-01	0	57	0	179830784	61	5406
2026-01-05 09:06:54.30	328.79	5.25	-49.7	-52.8	19.1	6.01e-01	0	57	0	185597952	61	5514
2026-01-05 09:06:57.28	328.57	5.05	-53.2	-72.2	3.5	7.50e-01	0	57	104	190840832	68	34149
2026-01-05 09:07:00.25	328.34	4.85	-49.4	-69.1	3.8	7.47e-01	0	57	104	190840832	62	33969
2026-01-05 09:07:03.20	328.13	4.65	-53.9	-73.8	3.9	7.45e-01	0	57	104	190840832	70	36899
2026-01-05 09:07:06.18	327.91	4.46	-54.2	-74.1	3.8	7.43e-01	0	57	104	190840832	70	38078
2026-01-05 09:07:09.15	327.70	4.26	-54.3	-74.2	3.8	7.45e-01	0	57	104	190840832	70	38500
2026-01-05 09:07:12.12	327.49	4.07	-54.4	-74.3	3.8	7.45e-01	0	57	104	190840832	70	38831
2026-01-05 09:07:15.11	327.28	3.87	-54.4	-74.3	3.8	7.45e-01	0	57	104	190840832	71	36881
2026-01-05 09:07:18.08	327.07	3.68	-54.4	-74.3	3.8	7.45e-01	0	57	104	190840832	71	36916
2026-01-05 09:07:21.05	326.87	3.49	-54.4	-74.3	3.8	7.45e-01	0	57	104	190840832	71	36652
2026-01-05 09:07:24.02	326.68	3.30	-54.4	-74.4	3.8	7.46e-01	0	57	104	190840832	71	37106
2026-01-05 09:07:26.99	326.48	3.12	-54.4	-74.4	3.8	7.46e-01	0	57	104	190840832	71	37041
2026-01-05 09:07:29.95	326.29	2.93	-54.4	-74.4	3.8	7.47e-01	0	57	104	190840832	71	37090

#Closed at: 2026-01-05 09:07:31
#Recorded file [190 MB]: D:/Data/31026_260105_120657.dat