passes_logs/2026/01/05/R3.0SM8_Murmansk_STILSPACE/R3.0SM8_Murmansk_STILSPACE__20260105_115705_FENGYUN_3D_rec.log

#Pass ID: 20260105_115705_FENGYUN 3D
#Satellite: FENGYUN 3D
#Configuration: FENGYUN 3D
#almurnet v.1.7.20240730
#Start time: 2026-01-05 11:57:07

#Version: 2.2.20231116
#Station: R3.0SM8_Murmansk_STILSPACE
#Location: 33.092731 lon 68.902999 lat
#TLE: 1 43010U 17072A   26005.27772741  .00000192  00000+0  11272-3 0  9992
#TLE: 2 43010  98.9919 336.9437 0001997 125.0511 235.0852 14.19692734421874

#Time	Az	El	Level	Level2	SNR	BER	BlckErr	Temp	State	Recorded	gain1	gain2
2026-01-05 11:57:07.41	161.59	3.12	-48.4	-59.2	3.8	8.46e-01	0	46	0	0	58	13356
2026-01-05 11:57:11.36	161.65	3.39	-48.4	-59.2	3.8	8.46e-01	0	46	104	0	59	12610
2026-01-05 11:57:15.32	161.71	3.66	-48.5	-59.2	3.8	8.47e-01	0	47	104	0	59	12639
2026-01-05 11:57:19.27	161.77	3.92	-48.5	-59.2	3.8	8.47e-01	0	47	104	0	59	12608
2026-01-05 11:57:23.20	161.84	4.19	-48.5	-59.2	3.8	8.45e-01	0	47	104	0	59	12639
2026-01-05 11:57:27.16	161.90	4.47	-48.4	-59.2	3.8	8.45e-01	0	48	104	0	59	12635
2026-01-05 11:57:31.11	161.97	4.75	-48.5	-59.2	3.8	8.46e-01	0	48	104	0	58	13400
2026-01-05 11:57:35.06	162.03	5.03	-48.5	-59.3	3.8	8.45e-01	0	48	104	0	58	13415
2026-01-05 11:57:39.01	162.10	5.31	-48.5	-59.2	3.8	8.46e-01	0	48	104	0	58	13401
2026-01-05 11:57:42.96	162.17	5.60	-48.4	-59.3	3.8	8.47e-01	0	49	104	0	58	13440
2026-01-05 11:57:46.90	162.24	5.88	-48.5	-59.2	3.8	8.46e-01	0	49	104	0	58	13404
2026-01-05 11:57:50.85	162.31	6.18	-48.5	-59.3	3.8	8.47e-01	0	49	104	0	58	13435
2026-01-05 11:57:54.83	162.39	6.47	-48.5	-59.2	3.8	8.47e-01	0	49	104	0	58	13384
2026-01-05 11:57:58.79	162.46	6.77	-48.5	-59.2	3.8	8.46e-01	0	49	104	0	58	13387
2026-01-05 11:58:02.74	162.54	7.08	-48.5	-59.3	3.8	8.47e-01	0	50	104	0	58	13425
2026-01-05 11:58:06.70	162.61	7.38	-48.5	-59.2	3.8	8.47e-01	0	50	104	0	58	13406
2026-01-05 11:58:10.65	162.69	7.69	-48.5	-59.2	3.8	8.47e-01	0	50	104	0	58	13376
2026-01-05 11:58:14.60	162.77	8.01	-48.5	-59.3	3.8	8.46e-01	0	50	104	0	58	13423
2026-01-05 11:58:18.56	162.85	8.33	-48.5	-59.3	3.8	8.46e-01	0	51	104	0	58	13439
2026-01-05 11:58:22.52	162.93	8.65	-48.5	-59.2	3.8	8.46e-01	0	51	104	0	58	13411
2026-01-05 11:58:26.47	163.02	8.98	-48.5	-59.3	3.8	8.47e-01	0	51	104	0	58	13417
2026-01-05 11:58:30.41	163.10	9.30	-48.5	-59.2	3.8	8.46e-01	0	51	104	0	58	13387
2026-01-05 11:58:34.36	163.19	9.64	-48.4	-59.2	3.8	8.46e-01	0	51	104	0	58	13380
2026-01-05 11:58:38.30	163.28	9.98	-48.5	-59.2	3.8	8.46e-01	0	51	104	0	58	13402
2026-01-05 11:58:42.24	163.37	10.32	-47.5	-59.2	3.8	8.45e-01	0	52	104	0	58	13400
2026-01-05 11:58:46.19	163.46	10.67	-48.5	-59.2	3.8	8.45e-01	0	52	104	0	58	13359
2026-01-05 11:58:50.14	163.55	11.02	-48.4	-59.2	3.8	8.46e-01	0	52	104	0	58	13396
2026-01-05 11:58:54.08	163.65	11.38	-48.5	-59.2	3.8	8.45e-01	0	52	104	0	58	13411
2026-01-05 11:58:58.03	163.75	11.74	-48.5	-59.3	3.8	8.45e-01	0	52	104	0	58	13444
2026-01-05 11:59:01.98	163.85	12.11	-48.5	-59.3	3.8	8.46e-01	0	53	104	0	58	13432
2026-01-05 11:59:05.95	163.95	12.49	-48.5	-59.3	3.8	8.46e-01	0	53	104	0	58	13459
2026-01-05 11:59:09.89	164.05	12.87	-48.5	-59.3	3.8	8.45e-01	0	53	104	0	58	13431
2026-01-05 11:59:13.86	164.16	13.26	-48.5	-59.3	3.8	8.47e-01	0	53	104	0	58	13438
2026-01-05 11:59:17.82	164.27	13.65	-48.4	-59.2	3.8	8.46e-01	0	53	104	0	58	13406
2026-01-05 11:59:21.77	164.38	14.05	-48.5	-59.3	3.8	8.46e-01	0	53	104	0	58	13439
2026-01-05 11:59:25.72	164.50	14.46	-48.5	-59.3	3.8	8.47e-01	0	54	104	0	58	13419
2026-01-05 11:59:29.66	164.62	14.87	-48.5	-59.3	3.8	8.46e-01	0	53	104	0	58	13415
2026-01-05 11:59:33.60	164.74	15.29	-48.5	-59.2	3.8	8.47e-01	0	54	104	0	58	13392
2026-01-05 11:59:37.54	164.86	15.72	-48.5	-59.3	3.8	8.45e-01	0	54	104	0	58	13452
2026-01-05 11:59:41.50	164.99	16.15	-48.5	-59.3	3.8	8.46e-01	0	54	104	0	58	13444
2026-01-05 11:59:45.45	165.12	16.59	-48.5	-59.2	3.8	8.47e-01	0	54	104	0	58	13410
2026-01-05 11:59:49.40	165.25	17.04	-48.5	-59.3	3.8	8.46e-01	0	54	104	0	58	13422
2026-01-05 11:59:53.34	165.39	17.50	-48.5	-59.2	3.8	8.46e-01	0	54	104	0	58	13404
2026-01-05 11:59:57.28	165.53	17.97	-48.4	-59.3	3.8	8.46e-01	0	54	104	0	58	13425
2026-01-05 12:00:01.23	165.67	18.44	-48.5	-59.3	3.8	8.47e-01	0	54	104	0	58	13435
2026-01-05 12:00:05.20	165.82	18.93	-48.5	-59.2	3.8	8.47e-01	0	54	104	0	58	13411
2026-01-05 12:00:09.16	165.98	19.43	-48.4	-59.3	3.8	8.48e-01	0	55	104	0	58	13420
2026-01-05 12:00:13.11	166.13	19.93	-48.5	-59.2	3.8	8.47e-01	0	54	104	0	58	13410
2026-01-05 12:00:17.06	166.30	20.45	-48.5	-59.2	3.8	8.46e-01	0	54	104	0	58	13409
2026-01-05 12:00:21.01	166.46	20.97	-48.5	-59.2	3.8	8.46e-01	0	55	104	0	58	13382
2026-01-05 12:00:24.97	166.64	21.51	-48.5	-59.3	3.8	8.45e-01	0	55	104	0	58	13474
2026-01-05 12:00:28.89	166.82	22.06	-48.5	-59.3	3.8	8.45e-01	0	55	104	0	58	13418
2026-01-05 12:00:32.83	167.00	22.62	-48.5	-59.2	3.8	8.46e-01	0	55	104	0	58	13414
2026-01-05 12:00:36.78	167.19	23.19	-48.5	-59.3	3.8	8.46e-01	0	55	104	0	58	13420
2026-01-05 12:00:40.74	167.39	23.77	-48.4	-59.3	3.8	8.47e-01	0	55	104	0	58	13444
2026-01-05 12:00:44.68	167.59	24.37	-48.5	-59.3	3.8	8.46e-01	0	55	104	0	58	13420
2026-01-05 12:00:48.64	167.81	24.98	-48.5	-59.2	3.8	8.47e-01	0	55	104	0	58	13411
2026-01-05 12:00:52.60	168.03	25.61	-48.5	-59.2	3.8	8.46e-01	0	55	104	0	58	13402
2026-01-05 12:00:56.54	168.26	26.25	-48.5	-59.3	3.8	8.47e-01	0	55	104	0	58	13433
2026-01-05 12:01:00.50	168.49	26.91	-48.5	-59.3	3.8	8.46e-01	0	55	104	0	58	13418
2026-01-05 12:01:04.44	168.74	27.58	-48.5	-59.3	3.8	8.46e-01	0	55	104	0	58	13433
2026-01-05 12:01:08.39	169.00	28.27	-48.5	-59.3	3.8	8.46e-01	0	56	104	0	58	13433
2026-01-05 12:01:12.32	169.26	28.97	-48.5	-59.3	3.8	8.45e-01	0	55	104	0	58	13456
2026-01-05 12:01:16.26	169.54	29.69	-48.5	-59.3	3.8	8.47e-01	0	55	104	0	58	13438
2026-01-05 12:01:20.20	169.83	30.43	-48.5	-59.3	3.8	8.47e-01	0	56	104	0	58	13449
2026-01-05 12:01:24.15	170.14	31.18	-48.5	-59.3	3.8	8.46e-01	0	56	104	0	58	13422
2026-01-05 12:01:28.10	170.45	31.96	-48.5	-59.3	3.8	8.46e-01	0	56	104	0	58	13447
2026-01-05 12:01:32.05	170.79	32.76	-48.5	-59.3	3.8	8.47e-01	0	56	104	0	58	13426
2026-01-05 12:01:36.01	171.14	33.58	-48.5	-59.3	3.8	8.46e-01	0	56	104	0	58	13427
2026-01-05 12:01:39.95	171.50	34.42	-48.5	-59.3	3.8	8.47e-01	0	55	104	0	58	13480
2026-01-05 12:01:43.90	171.89	35.28	-48.5	-59.3	3.8	8.47e-01	0	56	104	0	58	13427
2026-01-05 12:01:47.87	172.30	36.17	-48.5	-59.3	3.8	8.46e-01	0	56	104	0	58	13415
2026-01-05 12:01:51.81	172.72	37.08	-48.5	-59.2	3.8	8.46e-01	0	56	104	0	58	13395
2026-01-05 12:01:55.74	173.17	38.00	-48.5	-59.3	3.8	8.46e-01	0	55	104	0	58	13421
2026-01-05 12:01:59.70	173.65	38.96	-48.5	-59.3	3.8	8.48e-01	0	56	104	0	58	13488
2026-01-05 12:02:03.66	174.16	39.95	-48.5	-59.3	3.8	8.45e-01	0	56	104	0	58	13421
2026-01-05 12:02:07.61	174.69	40.96	-48.5	-59.3	3.8	8.46e-01	0	56	104	0	58	13482
2026-01-05 12:02:11.56	175.26	41.99	-48.5	-59.3	3.8	8.47e-01	0	56	104	0	58	13435
2026-01-05 12:02:15.51	175.87	43.05	-48.5	-59.3	3.8	8.46e-01	0	56	104	0	58	13440
2026-01-05 12:02:19.46	176.52	44.13	-48.5	-59.3	3.8	8.46e-01	0	56	104	0	58	13423
2026-01-05 12:02:23.41	177.21	45.25	-48.5	-59.3	3.8	8.46e-01	0	56	104	0	58	13436
2026-01-05 12:02:27.36	177.96	46.39	-48.6	-59.3	3.8	8.44e-01	0	56	104	0	58	13461
2026-01-05 12:02:31.31	178.76	47.56	-48.5	-59.3	3.8	8.46e-01	0	56	104	0	58	13455
2026-01-05 12:02:35.27	179.62	48.75	-48.5	-59.3	3.8	8.47e-01	0	56	104	0	58	13429
2026-01-05 12:02:39.22	180.55	49.97	-48.5	-59.3	3.8	8.47e-01	0	56	104	0	58	13463
2026-01-05 12:02:43.16	181.55	51.21	-48.4	-59.3	3.8	8.46e-01	0	56	104	0	58	13451
2026-01-05 12:02:47.12	182.65	52.48	-48.5	-59.3	3.8	8.46e-01	0	56	104	0	58	13488
2026-01-05 12:02:51.04	183.83	53.76	-48.5	-59.3	3.8	8.45e-01	0	56	104	0	58	13429
2026-01-05 12:02:55.00	185.13	55.08	-48.5	-59.3	3.8	8.47e-01	0	56	104	0	58	13488
2026-01-05 12:02:58.94	186.56	56.40	-48.5	-59.3	3.8	8.46e-01	0	56	104	0	58	13452
2026-01-05 12:03:02.89	188.12	57.74	-48.5	-59.3	3.8	8.45e-01	0	56	104	0	58	13471
2026-01-05 12:03:06.84	189.85	59.09	-48.5	-59.3	3.8	8.47e-01	0	56	104	0	58	13436
2026-01-05 12:03:10.79	191.77	60.45	-48.5	-59.2	3.8	8.46e-01	0	57	104	0	58	13395
2026-01-05 12:03:14.71	193.88	61.79	-48.5	-59.3	3.8	8.46e-01	0	57	104	0	58	13427
2026-01-05 12:03:18.65	196.25	63.12	-48.5	-59.3	3.8	8.46e-01	0	57	104	0	58	13452
2026-01-05 12:03:22.60	198.90	64.45	-48.5	-59.3	3.8	8.46e-01	0	56	104	0	58	13464
2026-01-05 12:03:26.54	201.86	65.73	-48.5	-59.3	3.8	8.45e-01	0	56	104	0	58	13466
2026-01-05 12:03:30.46	205.16	66.97	-48.5	-59.3	3.8	8.46e-01	0	57	104	0	58	13441
2026-01-05 12:03:34.40	208.88	68.15	-48.5	-59.3	3.8	8.46e-01	0	57	104	0	58	13442
2026-01-05 12:03:38.36	213.07	69.26	-48.5	-59.3	3.8	8.46e-01	0	57	104	0	58	13449
2026-01-05 12:03:42.30	217.71	70.26	-48.5	-59.3	3.8	8.46e-01	0	57	104	0	58	13463
2026-01-05 12:03:46.25	222.86	71.13	-48.5	-59.3	3.8	8.45e-01	0	57	104	0	58	13449
2026-01-05 12:03:50.20	228.50	71.86	-48.5	-59.3	3.8	8.46e-01	0	57	104	0	58	13495
2026-01-05 12:03:54.14	234.56	72.41	-48.5	-59.3	3.8	8.46e-01	0	57	104	0	58	13457
2026-01-05 12:03:58.09	240.97	72.77	-48.5	-59.3	3.8	8.46e-01	0	57	104	0	58	13452
2026-01-05 12:04:02.03	247.56	72.91	-48.5	-59.3	3.8	8.48e-01	0	57	104	0	58	13456
2026-01-05 12:04:05.97	254.18	72.84	-48.5	-59.3	3.8	8.46e-01	0	57	104	0	58	13441
2026-01-05 12:04:09.91	260.66	72.56	-48.5	-59.3	3.8	8.44e-01	0	57	104	0	58	13443
2026-01-05 12:04:13.87	266.88	72.07	-48.5	-59.3	3.8	8.46e-01	0	57	104	0	58	13446
2026-01-05 12:04:17.81	272.66	71.41	-48.5	-59.3	3.8	8.46e-01	0	57	104	0	58	13420
2026-01-05 12:04:21.77	277.99	70.58	-48.5	-59.3	3.8	8.45e-01	0	57	104	0	58	13454
2026-01-05 12:04:25.71	282.81	69.62	-48.5	-59.3	3.8	8.46e-01	0	57	104	0	58	13439
2026-01-05 12:04:29.63	287.12	68.56	-48.5	-59.3	3.8	8.46e-01	0	57	104	0	58	13458
2026-01-05 12:04:33.58	291.00	67.41	-48.5	-59.3	3.8	8.47e-01	0	57	104	0	58	13447
2026-01-05 12:04:37.53	294.46	66.18	-48.6	-59.3	3.8	8.46e-01	0	57	104	0	58	13456
2026-01-05 12:04:41.49	297.56	64.90	-48.6	-59.3	3.8	8.47e-01	0	57	104	0	58	13436
2026-01-05 12:04:45.44	300.31	63.60	-48.6	-59.3	3.8	8.45e-01	0	57	104	0	58	13453
2026-01-05 12:04:49.38	302.77	62.27	-48.5	-59.3	3.8	8.46e-01	0	57	104	0	58	13428
2026-01-05 12:04:53.32	304.97	60.92	-48.6	-59.3	3.8	8.46e-01	0	57	104	0	58	13460
2026-01-05 12:04:57.27	306.95	59.57	-48.6	-59.3	3.8	8.47e-01	0	57	104	0	58	13479
2026-01-05 12:05:01.20	308.74	58.23	-48.5	-59.3	3.8	8.46e-01	0	57	104	0	58	13454
2026-01-05 12:05:05.13	310.35	56.90	-48.6	-59.3	3.8	8.46e-01	0	57	104	0	58	13427
2026-01-05 12:05:09.07	311.82	55.57	-48.5	-59.3	3.8	8.46e-01	0	57	104	0	58	13475
2026-01-05 12:05:13.03	313.16	54.25	-48.5	-59.3	3.8	8.47e-01	0	57	104	0	58	13421
2026-01-05 12:05:16.99	314.39	52.96	-48.5	-59.3	3.8	8.45e-01	0	57	104	0	58	13447
2026-01-05 12:05:20.93	315.52	51.69	-48.5	-59.3	3.8	8.46e-01	0	57	104	0	58	13428
2026-01-05 12:05:24.86	316.55	50.44	-48.5	-59.3	3.8	8.46e-01	0	57	104	0	58	13437
2026-01-05 12:05:28.80	317.50	49.22	-48.5	-59.3	3.8	8.46e-01	0	57	104	0	58	13451
2026-01-05 12:05:32.74	318.38	48.03	-48.5	-59.3	3.8	8.46e-01	0	57	104	0	58	13480
2026-01-05 12:05:36.68	319.20	46.85	-48.5	-59.2	3.8	8.46e-01	0	57	104	0	58	13402
2026-01-05 12:05:40.64	319.96	45.70	-48.5	-59.3	3.8	8.46e-01	0	57	104	0	58	13440
2026-01-05 12:05:44.57	320.67	44.59	-48.5	-59.3	3.8	8.45e-01	0	57	104	0	58	13429
2026-01-05 12:05:48.51	321.34	43.50	-48.5	-59.3	3.8	8.48e-01	0	57	104	0	58	13437
2026-01-05 12:05:52.47	321.96	42.43	-48.5	-59.3	3.8	8.47e-01	0	57	104	0	58	13454
2026-01-05 12:05:56.43	322.55	41.39	-48.5	-59.3	3.8	8.46e-01	0	57	104	0	58	13442
2026-01-05 12:06:00.38	323.09	40.37	-48.5	-59.3	3.8	8.46e-01	0	57	104	0	58	13462
2026-01-05 12:06:04.32	323.61	39.39	-48.6	-59.3	3.8	8.46e-01	0	57	104	0	58	13447
2026-01-05 12:06:08.26	324.10	38.43	-48.5	-59.2	3.8	8.45e-01	0	57	104	0	58	13409
2026-01-05 12:06:12.20	324.56	37.49	-48.5	-59.3	3.8	8.47e-01	0	57	104	0	58	13433
2026-01-05 12:06:16.16	325.00	36.57	-48.5	-59.2	3.8	8.46e-01	0	57	104	0	58	13368
2026-01-05 12:06:20.09	325.41	35.69	-48.5	-59.3	3.8	8.47e-01	0	57	104	0	58	13444
2026-01-05 12:06:24.03	325.80	34.82	-48.6	-59.3	3.8	8.45e-01	0	57	104	0	58	13437
2026-01-05 12:06:27.99	326.18	33.97	-48.5	-59.2	3.8	8.47e-01	0	57	104	0	58	13393
2026-01-05 12:06:31.93	326.53	33.15	-48.5	-59.3	3.8	8.46e-01	0	57	104	0	58	13448
2026-01-05 12:06:35.88	326.87	32.35	-48.5	-59.3	3.8	8.46e-01	0	57	104	0	58	13428
2026-01-05 12:06:39.84	327.20	31.56	-48.5	-59.2	3.8	8.47e-01	0	57	104	0	58	13399
2026-01-05 12:06:43.79	327.51	30.80	-48.5	-59.3	3.8	8.47e-01	0	58	104	0	58	13421
2026-01-05 12:06:47.75	327.81	30.05	-48.4	-59.3	3.8	8.46e-01	0	57	104	0	58	13452
2026-01-05 12:06:51.69	328.09	29.33	-48.5	-59.2	3.8	8.45e-01	0	57	104	0	58	13315
2026-01-05 12:06:55.64	328.36	28.62	-48.5	-59.2	3.8	8.46e-01	0	57	104	0	58	13372
2026-01-05 12:06:59.60	328.62	27.92	-48.5	-59.3	3.8	8.46e-01	0	57	104	0	58	13420
2026-01-05 12:07:03.56	328.88	27.25	-48.4	-59.3	3.8	8.46e-01	0	57	104	0	58	13471
2026-01-05 12:07:07.50	329.12	26.59	-48.5	-59.2	3.8	8.46e-01	0	57	104	0	58	13381
2026-01-05 12:07:11.46	329.35	25.94	-48.5	-59.3	3.8	8.46e-01	0	57	104	0	58	13467
2026-01-05 12:07:15.41	329.58	25.31	-48.5	-59.3	3.8	8.47e-01	0	57	104	0	58	13449
2026-01-05 12:07:19.37	329.79	24.69	-48.5	-59.3	3.8	8.46e-01	0	57	104	0	58	13422
2026-01-05 12:07:23.32	330.00	24.09	-48.5	-59.2	3.8	8.45e-01	0	57	104	0	58	13412
2026-01-05 12:07:27.28	330.20	23.50	-48.5	-59.3	3.8	8.47e-01	0	57	104	0	58	13436
2026-01-05 12:07:31.21	330.40	22.93	-48.5	-59.3	3.8	8.46e-01	0	57	104	0	58	13429
2026-01-05 12:07:35.14	330.59	22.37	-48.5	-59.2	3.8	8.46e-01	0	57	104	0	58	13402
2026-01-05 12:07:39.10	330.77	21.82	-48.5	-59.2	3.8	8.47e-01	0	57	104	0	58	13405
2026-01-05 12:07:43.06	330.95	21.28	-48.5	-59.3	3.8	8.46e-01	0	57	104	0	58	13451
2026-01-05 12:07:47.00	331.12	20.75	-48.5	-59.2	3.8	8.46e-01	0	57	104	0	58	13412
2026-01-05 12:07:50.96	331.28	20.23	-48.5	-59.2	3.8	8.45e-01	0	57	104	0	58	13408
2026-01-05 12:07:54.92	331.45	19.72	-48.4	-59.2	3.8	8.46e-01	0	57	104	0	58	13395
2026-01-05 12:07:58.88	331.60	19.22	-48.5	-59.2	3.8	8.45e-01	0	57	104	0	58	13377
2026-01-05 12:08:02.84	331.76	18.73	-48.5	-59.3	3.8	8.45e-01	0	57	104	0	58	13429
2026-01-05 12:08:06.79	331.90	18.25	-48.5	-59.3	3.8	8.47e-01	0	57	104	0	58	13444
2026-01-05 12:08:10.75	332.05	17.78	-48.5	-59.3	3.8	8.46e-01	0	57	104	0	58	13422
2026-01-05 12:08:14.71	332.19	17.32	-48.5	-59.3	3.8	8.47e-01	0	57	104	0	58	13446
2026-01-05 12:08:18.66	332.33	16.87	-48.5	-59.3	3.8	8.46e-01	0	57	104	0	58	13445
2026-01-05 12:08:22.63	332.46	16.42	-48.5	-59.3	3.8	8.46e-01	0	57	104	0	58	13419
2026-01-05 12:08:26.56	332.59	15.99	-48.5	-59.3	3.8	8.46e-01	0	57	104	0	58	13460
2026-01-05 12:08:30.50	332.72	15.56	-48.5	-59.3	3.8	8.47e-01	0	57	104	0	58	13446
2026-01-05 12:08:34.42	332.84	15.14	-48.5	-59.3	3.8	8.46e-01	0	57	104	0	58	13505
2026-01-05 12:08:38.39	332.96	14.73	-48.5	-59.3	3.8	8.47e-01	0	57	104	0	58	13463
2026-01-05 12:08:42.36	333.08	14.32	-48.5	-59.2	3.8	8.46e-01	0	57	104	0	58	13396
2026-01-05 12:08:46.32	333.19	13.91	-48.5	-59.3	3.8	8.46e-01	0	57	104	0	58	13439
2026-01-05 12:08:50.27	333.31	13.52	-48.5	-59.2	3.8	8.46e-01	0	57	104	0	58	13412
2026-01-05 12:08:54.23	333.42	13.13	-48.5	-59.3	3.8	8.46e-01	0	57	104	0	58	13451
2026-01-05 12:08:58.19	333.52	12.75	-48.5	-59.3	3.8	8.46e-01	0	57	104	0	58	13432
2026-01-05 12:09:02.15	333.63	12.37	-48.5	-59.2	3.8	8.46e-01	0	57	104	0	58	13374
2026-01-05 12:09:06.11	333.73	12.00	-48.5	-59.2	3.8	8.45e-01	0	57	104	0	58	13412
2026-01-05 12:09:10.06	333.83	11.63	-48.5	-59.3	3.8	8.47e-01	0	57	104	0	58	13469
2026-01-05 12:09:14.02	333.93	11.27	-48.5	-59.3	3.8	8.47e-01	0	57	104	0	58	13463
2026-01-05 12:09:17.98	334.03	10.92	-48.5	-59.3	3.8	8.46e-01	0	57	104	0	58	13438
2026-01-05 12:09:21.93	334.13	10.57	-48.6	-59.3	3.8	8.45e-01	0	57	104	0	58	13423
2026-01-05 12:09:25.88	334.22	10.22	-48.5	-59.3	3.8	8.47e-01	0	57	104	0	58	13442
2026-01-05 12:09:29.82	334.31	9.88	-48.5	-59.2	3.8	8.46e-01	0	57	104	0	58	13394
2026-01-05 12:09:33.76	334.40	9.55	-48.5	-59.3	3.8	8.47e-01	0	57	104	0	58	13431
2026-01-05 12:09:37.72	334.49	9.22	-48.5	-59.3	3.8	8.46e-01	0	57	104	0	58	13454
2026-01-05 12:09:41.68	334.58	8.89	-48.5	-59.3	3.8	8.47e-01	0	57	104	0	58	13443
2026-01-05 12:09:45.63	334.66	8.57	-48.5	-59.3	3.8	8.47e-01	0	57	104	0	58	13435
2026-01-05 12:09:49.56	334.75	8.25	-48.5	-59.3	3.8	8.46e-01	0	57	104	0	58	13494
2026-01-05 12:09:53.49	334.83	7.94	-48.6	-59.2	3.8	8.46e-01	0	57	104	0	58	13396
2026-01-05 12:09:57.43	334.91	7.63	-48.5	-59.3	3.8	8.45e-01	0	57	104	0	58	13437
2026-01-05 12:10:01.37	334.99	7.32	-48.5	-59.3	3.8	8.46e-01	0	57	104	0	58	13442
2026-01-05 12:10:05.30	335.07	7.02	-48.6	-59.3	3.8	8.45e-01	0	57	104	0	58	13467
2026-01-05 12:10:09.24	335.14	6.72	-48.5	-59.3	3.8	8.48e-01	0	57	104	0	58	13453
2026-01-05 12:10:13.21	335.22	6.42	-48.5	-59.3	3.8	8.46e-01	0	57	104	0	58	13497
2026-01-05 12:10:17.14	335.29	6.13	-48.5	-59.3	3.8	8.47e-01	0	57	104	0	58	13427
2026-01-05 12:10:21.08	335.37	5.84	-48.6	-59.3	3.8	8.47e-01	0	57	104	0	58	13435
2026-01-05 12:10:25.02	335.44	5.56	-48.5	-59.3	3.8	8.46e-01	0	57	104	0	58	13450
2026-01-05 12:10:28.95	335.51	5.27	-48.5	-59.3	3.8	8.48e-01	0	57	104	0	58	13416
2026-01-05 12:10:32.89	335.58	4.99	-48.6	-59.3	3.8	8.47e-01	0	57	104	0	58	13491
2026-01-05 12:10:36.84	335.65	4.72	-48.5	-59.2	3.8	8.46e-01	0	57	104	0	58	13393
2026-01-05 12:10:40.78	335.72	4.44	-48.5	-59.3	3.8	8.45e-01	0	57	104	0	58	13459
2026-01-05 12:10:44.71	335.79	4.17	-48.5	-59.3	3.8	8.46e-01	0	57	104	0	58	13419
2026-01-05 12:10:48.65	335.85	3.90	-48.5	-59.3	3.8	8.46e-01	0	58	104	0	58	13467
2026-01-05 12:10:52.61	335.92	3.64	-48.5	-59.3	3.8	8.45e-01	0	57	104	0	58	13439
2026-01-05 12:10:56.55	335.98	3.37	-48.5	-59.3	3.8	8.46e-01	0	57	104	0	58	13470
2026-01-05 12:11:00.53	336.05	3.11	-48.5	-59.3	3.8	8.47e-01	0	58	104	0	58	13471

#Closed at: 2026-01-05 12:11:03
#Recorded file [0 MB]: D:/Data/31026_260105_145707.dat