passes_logs/2026/01/05/R3.0SM8_Murmansk_STILSPACE/R3.0SM8_Murmansk_STILSPACE__20260105_015942_FENGYUN_3D_rec.log

#Pass ID: 20260105_015942_FENGYUN 3D
#Satellite: FENGYUN 3D
#Configuration: FENGYUN 3D
#almurnet v.1.7.20240730
#Start time: 2026-01-05 01:59:42

#Version: 2.2.20231116
#Station: R3.0SM8_Murmansk_STILSPACE
#Location: 33.092731 lon 68.902999 lat
#TLE: 1 43010U 17072A   26004.50247883 -.00000063  00000+0 -78815-5 0  9998
#TLE: 2 43010  98.9915 336.1565 0001968 126.3752 233.7605 14.19691805421760

#Time	Az	El	Level	Level2	SNR	BER	BlckErr	Temp	State	Recorded	gain1	gain2
2026-01-05 01:59:42.36	23.00	2.99	-52.1	-62.8	3.8	8.46e-01	0	46	0	0	67	12062
2026-01-05 01:59:46.32	23.10	3.25	-52.1	-62.9	3.8	8.47e-01	0	47	104	0	67	12185
2026-01-05 01:59:50.26	23.21	3.51	-48.7	-52.1	8.5	6.71e-01	0	46	104	0	60	5232
2026-01-05 01:59:54.23	23.32	3.77	-48.0	-50.7	10.1	8.27e-03	0	47	0	22020096	58	4988
2026-01-05 01:59:58.20	23.43	4.04	-47.7	-50.2	10.6	5.71e-03	0	47	0	44040192	58	4736
2026-01-05 02:00:02.16	23.54	4.31	-47.3	-49.5	11.3	1.66e-03	0	47	0	66060288	57	4637
2026-01-05 02:00:06.12	23.66	4.58	-47.3	-49.5	11.3	1.20e-03	0	48	0	89128960	57	4637
2026-01-05 02:00:10.07	23.77	4.85	-47.6	-50.0	10.9	2.51e-03	0	48	0	111149056	57	4879
2026-01-05 02:00:14.02	23.89	5.13	-47.7	-50.2	10.5	5.05e-03	0	48	0	133169152	57	5041
2026-01-05 02:00:18.00	24.01	5.41	-46.9	-48.9	12.1	4.05e-04	0	48	0	155189248	56	4568
2026-01-05 02:00:21.95	24.13	5.69	-46.0	-47.6	13.5	1.25e-05	0	49	0	177209344	55	4180
2026-01-05 02:00:25.90	24.25	5.97	-45.9	-47.4	13.8	2.51e-05	0	49	0	200278016	55	4077
2026-01-05 02:00:29.84	24.38	6.26	-44.8	-46.0	15.3	0.00e+00	0	49	0	222298112	52	4099
2026-01-05 02:00:33.82	24.51	6.55	-44.7	-45.8	15.4	0.00e+00	0	49	0	244318208	52	4051
2026-01-05 02:00:37.77	24.64	6.84	-44.8	-46.0	15.3	0.00e+00	0	50	0	267386880	52	4139
2026-01-05 02:00:41.72	24.77	7.14	-44.6	-45.8	15.6	0.00e+00	0	50	0	289406976	52	4025
2026-01-05 02:00:45.68	24.90	7.44	-44.3	-45.4	16.1	0.00e+00	0	50	0	311427072	51	4072
2026-01-05 02:00:49.64	25.04	7.75	-44.1	-45.1	16.5	0.00e+00	0	50	0	333447168	51	3937
2026-01-05 02:00:53.60	25.18	8.05	-44.2	-45.2	16.4	0.00e+00	0	50	0	355467264	51	3976
2026-01-05 02:00:57.54	25.32	8.36	-44.3	-45.3	16.3	0.00e+00	0	51	0	377487360	51	4047
2026-01-05 02:01:01.50	25.46	8.68	-44.2	-45.2	16.5	0.00e+00	0	51	0	400556032	51	3972
2026-01-05 02:01:05.46	25.61	9.00	-44.2	-45.3	16.4	0.00e+00	0	51	0	422576128	51	4008
2026-01-05 02:01:09.41	25.76	9.32	-44.3	-45.3	16.4	0.00e+00	0	51	0	444596224	51	4016
2026-01-05 02:01:13.36	25.91	9.65	-44.0	-45.0	16.8	0.00e+00	0	51	0	466616320	51	3877
2026-01-05 02:01:17.32	26.07	9.98	-44.1	-45.1	16.6	0.00e+00	0	51	0	489684992	51	3939
2026-01-05 02:01:21.27	26.23	10.32	-44.0	-44.9	16.8	0.00e+00	0	52	0	511705088	51	3860
2026-01-05 02:01:25.23	26.39	10.66	-43.9	-44.8	17.0	0.00e+00	0	52	0	533725184	50	4030
2026-01-05 02:01:29.18	26.56	11.00	-43.5	-44.4	17.4	0.00e+00	0	52	0	555745280	50	3862
2026-01-05 02:01:33.14	26.73	11.35	-43.6	-44.5	17.3	0.00e+00	0	52	0	577765376	50	3899
2026-01-05 02:01:37.10	26.90	11.71	-43.4	-44.3	17.6	0.00e+00	0	52	0	600834048	50	3793
2026-01-05 02:01:41.04	27.08	12.06	-43.4	-44.3	17.6	0.00e+00	0	52	0	622854144	50	3787
2026-01-05 02:01:45.00	27.26	12.43	-43.0	-43.8	18.0	0.00e+00	0	52	0	644874240	49	3820
2026-01-05 02:01:48.97	27.45	12.80	-43.1	-44.0	17.9	0.00e+00	0	53	0	666894336	49	3878
2026-01-05 02:01:52.92	27.63	13.17	-43.7	-44.6	17.3	0.00e+00	0	53	0	689963008	49	4166
2026-01-05 02:01:56.87	27.83	13.55	-43.6	-44.4	17.5	0.00e+00	0	53	0	711983104	49	4094
2026-01-05 02:02:00.82	28.03	13.94	-43.2	-44.0	17.9	0.00e+00	0	53	0	734003200	49	3895
2026-01-05 02:02:04.79	28.23	14.34	-42.6	-43.4	18.5	0.00e+00	0	53	0	756023296	48	3848
2026-01-05 02:02:08.74	28.44	14.73	-42.8	-43.6	18.3	0.00e+00	0	53	0	778043392	48	3936
2026-01-05 02:02:12.69	28.65	15.14	-42.5	-43.3	18.7	0.00e+00	0	53	0	801112064	48	3793
2026-01-05 02:02:16.64	28.87	15.55	-42.6	-43.3	18.7	0.00e+00	0	53	0	823132160	48	3805
2026-01-05 02:02:20.59	29.10	15.97	-42.6	-43.3	18.6	0.00e+00	0	53	0	845152256	48	3813
2026-01-05 02:02:24.56	29.33	16.40	-42.1	-42.9	19.0	0.00e+00	0	53	0	867172352	47	3833
2026-01-05 02:02:28.52	29.56	16.83	-41.9	-42.6	19.2	0.00e+00	0	54	0	890241024	47	3730
2026-01-05 02:02:32.47	29.81	17.27	-41.9	-42.6	19.2	0.00e+00	0	54	0	912261120	46	3958
2026-01-05 02:02:36.44	30.06	17.72	-41.8	-42.5	19.3	0.00e+00	0	54	0	934281216	46	3897
2026-01-05 02:02:40.39	30.31	18.17	-41.8	-42.5	19.4	0.00e+00	0	54	0	956301312	46	3872
2026-01-05 02:02:44.34	30.58	18.64	-42.0	-42.7	19.2	0.00e+00	0	54	0	978321408	46	3984
2026-01-05 02:02:48.30	30.85	19.11	-41.5	-42.2	19.7	0.00e+00	0	54	0	1001390080	46	3763
2026-01-05 02:02:52.26	31.13	19.59	-41.6	-42.3	19.6	0.00e+00	0	54	0	1023410176	46	3794
2026-01-05 02:02:56.23	31.42	20.08	-41.7	-42.4	19.5	0.00e+00	0	54	0	1045430272	46	3840
2026-01-05 02:03:00.18	31.72	20.58	-41.7	-42.4	19.5	0.00e+00	0	54	0	1067450368	46	3839
2026-01-05 02:03:04.15	32.02	21.09	-41.4	-42.0	19.9	0.00e+00	0	54	0	1090519040	46	3694
2026-01-05 02:03:08.12	32.34	21.61	-41.0	-41.6	20.3	0.00e+00	0	54	0	1112539136	45	3705
2026-01-05 02:03:12.08	32.67	22.14	-41.2	-41.8	20.1	0.00e+00	0	54	0	1134559232	45	3802
2026-01-05 02:03:16.04	33.01	22.68	-41.1	-41.7	20.2	0.00e+00	0	54	0	1156579328	45	3780
2026-01-05 02:03:19.99	33.36	23.22	-40.9	-41.6	20.4	0.00e+00	0	54	0	1179648000	45	3698
2026-01-05 02:03:23.95	33.72	23.78	-40.7	-41.3	20.6	0.00e+00	0	54	0	1201668096	44	3824
2026-01-05 02:03:27.90	34.09	24.35	-40.6	-41.2	20.7	0.00e+00	0	54	0	1223688192	44	3766
2026-01-05 02:03:31.85	34.48	24.94	-40.2	-40.8	21.0	0.00e+00	0	55	0	1245708288	43	3793
2026-01-05 02:03:35.81	34.88	25.53	-39.9	-40.5	21.3	0.00e+00	0	55	0	1267728384	42	3895
2026-01-05 02:03:39.78	35.29	26.14	-40.2	-40.8	21.0	0.00e+00	0	54	0	1290797056	42	4022
2026-01-05 02:03:43.73	35.72	26.76	-40.3	-40.9	20.9	0.00e+00	0	55	0	1312817152	42	4074
2026-01-05 02:03:47.68	36.17	27.39	-40.4	-41.0	20.8	0.00e+00	0	55	0	1334837248	43	3880
2026-01-05 02:03:51.64	36.64	28.03	-40.5	-41.1	20.8	0.00e+00	0	55	0	1356857344	43	3917
2026-01-05 02:03:55.59	37.12	28.69	-40.3	-40.9	21.0	0.00e+00	0	55	0	1379926016	43	3834
2026-01-05 02:03:59.55	37.62	29.36	-40.0	-40.6	21.3	0.00e+00	0	55	0	1401946112	43	3697
2026-01-05 02:04:03.50	38.15	30.05	-39.9	-40.5	21.4	0.00e+00	0	55	0	1423966208	42	3872
2026-01-05 02:04:07.45	38.69	30.75	-40.0	-40.5	21.3	0.00e+00	0	55	0	1445986304	42	3912
2026-01-05 02:04:11.40	39.26	31.46	-40.1	-40.7	21.2	0.00e+00	0	55	0	1468006400	42	3978
2026-01-05 02:04:15.35	39.86	32.19	-39.7	-40.3	21.6	0.00e+00	0	55	0	1491075072	42	3792
2026-01-05 02:04:19.32	40.48	32.94	-39.6	-40.2	21.7	0.00e+00	0	55	0	1513095168	42	3739
2026-01-05 02:04:23.29	41.14	33.70	-39.8	-40.4	21.5	0.00e+00	0	55	0	1535115264	42	3835
2026-01-05 02:04:27.26	41.82	34.48	-39.8	-40.4	21.5	0.00e+00	0	55	0	1557135360	42	3844
2026-01-05 02:04:31.20	42.53	35.27	-39.9	-40.4	21.5	0.00e+00	0	55	0	1580204032	42	3858
2026-01-05 02:04:35.16	43.28	36.07	-39.9	-40.4	21.4	0.00e+00	0	55	0	1602224128	42	3864
2026-01-05 02:04:39.13	44.07	36.89	-39.6	-40.1	21.8	0.00e+00	0	55	0	1624244224	42	3713
2026-01-05 02:04:43.10	44.90	37.73	-39.4	-39.9	22.0	0.00e+00	0	55	0	1646264320	41	3833
2026-01-05 02:04:47.05	45.77	38.58	-39.7	-40.2	21.6	0.00e+00	0	55	0	1669332992	41	3993
2026-01-05 02:04:51.00	46.68	39.44	-39.8	-40.3	21.6	0.00e+00	0	55	0	1691353088	41	4019
2026-01-05 02:04:54.98	47.66	40.33	-39.6	-40.2	21.7	0.00e+00	0	56	0	1713373184	41	3965
2026-01-05 02:04:58.93	48.67	41.22	-39.8	-40.3	21.6	0.00e+00	0	55	0	1735393280	41	4036
2026-01-05 02:05:02.89	49.75	42.12	-39.9	-40.4	21.5	0.00e+00	0	56	0	1758461952	41	4074
2026-01-05 02:05:06.85	50.89	43.03	-40.3	-40.8	21.1	0.00e+00	0	56	0	1780482048	42	4049
2026-01-05 02:05:10.81	52.09	43.96	-40.5	-41.1	20.9	0.00e+00	0	56	0	1802502144	42	4146
2026-01-05 02:05:14.77	53.37	44.89	-40.2	-40.7	21.2	0.00e+00	0	56	0	1824522240	42	4002
2026-01-05 02:05:18.72	54.72	45.82	-40.2	-40.7	21.2	0.00e+00	0	56	0	1847590912	42	3997
2026-01-05 02:05:22.67	56.14	46.76	-40.1	-40.6	21.3	0.00e+00	0	56	0	1869611008	42	3936
2026-01-05 02:05:26.64	57.67	47.71	-40.1	-40.7	21.3	0.00e+00	0	56	0	1891631104	42	3964
2026-01-05 02:05:30.59	59.28	48.64	-40.2	-40.8	21.2	0.00e+00	0	56	0	1913651200	42	4020
2026-01-05 02:05:34.55	61.00	49.58	-40.2	-40.7	21.2	0.00e+00	0	56	0	1935671296	43	3764
2026-01-05 02:05:38.51	62.82	50.51	-41.1	-41.8	20.3	0.00e+00	0	56	0	1958739968	44	4028
2026-01-05 02:05:42.47	64.75	51.42	-40.6	-41.2	20.9	0.00e+00	0	56	0	1980760064	44	3759
2026-01-05 02:05:46.43	66.81	52.31	-40.6	-41.2	20.8	0.00e+00	0	56	0	2002780160	43	3973
2026-01-05 02:05:50.38	68.98	53.18	-41.0	-41.6	20.4	0.00e+00	0	56	0	2024800256	43	4188
2026-01-05 02:05:54.34	71.30	54.03	-41.4	-42.0	20.1	0.00e+00	0	56	0	2047868928	44	4115
2026-01-05 02:05:58.30	73.74	54.83	-41.5	-42.1	20.0	0.00e+00	0	56	0	2069889024	44	4177
2026-01-05 02:06:02.26	76.33	55.60	-41.6	-42.3	19.9	0.00e+00	0	56	0	2091909120	45	4006
2026-01-05 02:06:06.21	79.05	56.31	-41.7	-42.4	19.8	0.00e+00	0	56	0	2113929216	45	4058
2026-01-05 02:06:10.17	81.91	56.97	-41.2	-41.9	20.3	0.00e+00	0	56	0	2136997888	45	3825
2026-01-05 02:06:14.13	84.90	57.57	-41.5	-42.2	20.0	0.00e+00	0	56	0	2159017984	45	3965
2026-01-05 02:06:18.09	88.02	58.09	-40.6	-41.2	21.0	0.00e+00	0	56	0	2181038080	44	3741
2026-01-05 02:06:22.04	91.25	58.54	-40.8	-41.4	20.7	0.00e+00	0	56	0	2203058176	44	3833
2026-01-05 02:06:26.01	94.60	58.91	-40.5	-41.1	20.9	0.00e+00	0	56	0	2225078272	43	3920
2026-01-05 02:06:29.97	98.02	59.18	-40.6	-41.2	20.8	0.00e+00	0	56	0	2248146944	43	3987
2026-01-05 02:06:33.92	101.49	59.36	-40.5	-41.1	20.8	0.00e+00	0	57	0	2270167040	43	3944
2026-01-05 02:06:37.86	104.99	59.45	-41.0	-41.7	20.3	0.00e+00	0	56	0	2292187136	43	4217
2026-01-05 02:06:41.81	108.50	59.44	-40.1	-40.6	21.3	0.00e+00	0	56	0	2314207232	43	3735
2026-01-05 02:06:45.76	112.00	59.33	-40.3	-40.9	21.1	0.00e+00	0	56	0	2336227328	43	3831
2026-01-05 02:06:49.71	115.47	59.13	-40.4	-41.0	21.0	0.00e+00	0	56	0	2359296000	43	3891
2026-01-05 02:06:53.66	118.86	58.84	-40.9	-41.5	20.5	0.00e+00	0	56	0	2381316096	43	4125
2026-01-05 02:06:57.60	122.17	58.46	-40.9	-41.5	20.6	0.00e+00	0	56	0	2403336192	44	3885
2026-01-05 02:07:01.54	125.37	58.00	-41.0	-41.5	20.6	0.00e+00	0	56	0	2425356288	44	3911
2026-01-05 02:07:05.50	128.47	57.46	-42.0	-42.7	19.5	0.00e+00	0	57	0	2447376384	46	3970
2026-01-05 02:07:09.47	131.46	56.85	-42.5	-43.3	19.0	0.00e+00	0	56	0	2470445056	47	4008
2026-01-05 02:07:13.44	134.30	56.17	-42.1	-42.8	19.4	0.00e+00	0	56	0	2492465152	46	4040
2026-01-05 02:07:17.38	136.99	55.45	-41.5	-42.2	20.0	0.00e+00	0	56	0	2514485248	45	3963
2026-01-05 02:07:21.33	139.55	54.68	-41.1	-41.7	20.4	0.00e+00	0	56	0	2536505344	44	3992
2026-01-05 02:07:25.29	141.97	53.86	-41.5	-42.1	20.0	0.00e+00	0	56	0	2559574016	45	3946
2026-01-05 02:07:29.24	144.26	53.01	-41.1	-41.7	20.4	0.00e+00	0	56	0	2581594112	45	3774
2026-01-05 02:07:33.19	146.41	52.14	-41.1	-41.7	20.4	0.00e+00	0	56	0	2603614208	44	3994
2026-01-05 02:07:37.15	148.45	51.23	-40.5	-41.1	21.0	0.00e+00	0	56	0	2625634304	44	3705
2026-01-05 02:07:41.11	150.36	50.32	-40.6	-41.1	21.0	0.00e+00	0	57	0	2647654400	44	3736
2026-01-05 02:07:45.06	152.16	49.39	-40.6	-41.2	21.0	0.00e+00	0	57	0	2669674496	44	3740
2026-01-05 02:07:49.01	153.86	48.45	-41.1	-41.7	20.4	0.00e+00	0	57	0	2692743168	44	3977
2026-01-05 02:07:52.96	155.45	47.51	-40.3	-40.8	21.1	0.00e+00	0	57	0	2714763264	43	3824
2026-01-05 02:07:56.91	156.96	46.56	-40.3	-40.9	21.1	0.00e+00	0	57	0	2736783360	43	3857
2026-01-05 02:08:00.84	158.37	45.63	-39.8	-40.3	21.6	0.00e+00	0	57	0	2758803456	42	3813
2026-01-05 02:08:04.81	159.71	44.68	-40.1	-40.7	21.3	0.00e+00	0	57	0	2780823552	42	3968
2026-01-05 02:08:08.78	160.98	43.75	-40.2	-40.7	21.3	0.00e+00	0	57	0	2803892224	42	3995
2026-01-05 02:08:12.75	162.17	42.82	-40.4	-41.0	21.0	0.00e+00	0	56	0	2825912320	42	4120
2026-01-05 02:08:16.69	163.29	41.91	-40.6	-41.2	20.8	0.00e+00	0	57	0	2847932416	43	3964
2026-01-05 02:08:20.65	164.36	41.00	-40.8	-41.4	20.6	0.00e+00	0	57	0	2869952512	43	4069
2026-01-05 02:08:24.59	165.37	40.12	-40.0	-40.6	21.3	0.00e+00	0	57	0	2893021184	43	3706
2026-01-05 02:08:28.54	166.32	39.24	-39.9	-40.5	21.5	0.00e+00	0	56	0	2915041280	43	3672
2026-01-05 02:08:32.49	167.23	38.38	-39.7	-40.2	21.7	0.00e+00	0	57	0	2937061376	42	3753
2026-01-05 02:08:36.44	168.09	37.53	-39.4	-39.9	22.0	0.00e+00	0	57	0	2959081472	42	3629
2026-01-05 02:08:40.39	168.91	36.69	-39.8	-40.4	21.5	0.00e+00	0	56	0	2981101568	41	4061
2026-01-05 02:08:44.34	169.69	35.87	-40.2	-40.8	21.2	0.00e+00	0	56	0	3004170240	42	4006
2026-01-05 02:08:48.30	170.44	35.06	-40.2	-40.8	21.2	0.00e+00	0	57	0	3026190336	42	4011
2026-01-05 02:08:52.27	171.15	34.27	-40.0	-40.6	21.3	0.00e+00	0	57	0	3048210432	42	3914
2026-01-05 02:08:56.23	171.82	33.50	-39.9	-40.5	21.1	0.00e+00	0	57	0	3070230528	42	3911
2026-01-05 02:09:00.19	172.47	32.73	-39.8	-40.4	21.3	0.00e+00	0	57	0	3093299200	42	3846
2026-01-05 02:09:04.15	173.09	31.99	-39.9	-40.5	21.1	0.00e+00	0	57	0	3115319296	42	3900
2026-01-05 02:09:08.10	173.68	31.26	-39.7	-40.3	21.3	0.00e+00	0	57	0	3137339392	42	3816
2026-01-05 02:09:12.06	174.25	30.54	-39.8	-40.4	21.3	0.00e+00	0	57	0	3159359488	42	3829
2026-01-05 02:09:16.00	174.79	29.85	-39.7	-40.3	21.3	0.00e+00	0	57	0	3181379584	42	3810
2026-01-05 02:09:19.95	175.31	29.16	-40.3	-40.9	20.8	0.00e+00	0	57	0	3204448256	42	4079
2026-01-05 02:09:23.90	175.80	28.49	-40.0	-40.6	21.0	0.00e+00	0	57	0	3226468352	42	3955
2026-01-05 02:09:27.86	176.29	27.83	-40.2	-40.8	20.8	0.00e+00	0	57	0	3248488448	42	4045
2026-01-05 02:09:31.81	176.75	27.19	-40.3	-40.9	20.8	0.00e+00	0	57	0	3270508544	42	4061
2026-01-05 02:09:35.77	177.19	26.55	-40.0	-40.6	21.1	0.00e+00	0	57	0	3293577216	42	3925
2026-01-05 02:09:39.72	177.62	25.93	-40.0	-40.7	21.0	0.00e+00	0	57	0	3315597312	42	3964
2026-01-05 02:09:43.66	178.03	25.33	-40.2	-40.9	20.8	0.00e+00	0	57	0	3337617408	42	4061
2026-01-05 02:09:47.63	178.43	24.73	-40.2	-40.9	20.8	0.00e+00	0	57	0	3359637504	42	4073
2026-01-05 02:09:51.58	178.81	24.15	-40.5	-41.2	20.5	0.00e+00	0	57	0	3381657600	42	4221
2026-01-05 02:09:55.54	179.18	23.58	-40.4	-41.1	20.6	0.00e+00	0	57	0	3404726272	43	3933
2026-01-05 02:09:59.49	179.54	23.02	-40.5	-41.1	20.5	0.00e+00	0	57	0	3426746368	43	3952
2026-01-05 02:10:03.44	179.88	22.47	-40.7	-41.4	20.3	0.00e+00	0	57	0	3448766464	43	4067
2026-01-05 02:10:07.41	180.22	21.93	-41.3	-42.0	19.8	0.00e+00	0	57	0	3470786560	44	4121
2026-01-05 02:10:11.37	180.54	21.40	-41.5	-42.2	19.6	0.00e+00	0	57	0	3493855232	44	4216
2026-01-05 02:10:15.33	180.86	20.88	-41.6	-42.3	19.5	0.00e+00	0	57	0	3515875328	45	4026
2026-01-05 02:10:19.28	181.16	20.38	-41.4	-42.1	19.7	0.00e+00	0	57	0	3537895424	45	3922
2026-01-05 02:10:23.23	181.45	19.88	-41.4	-42.1	19.7	0.00e+00	0	57	0	3559915520	45	3929
2026-01-05 02:10:27.19	181.74	19.39	-41.8	-42.6	19.2	0.00e+00	0	57	0	3581935616	45	4179
2026-01-05 02:10:31.13	182.02	18.91	-41.9	-42.7	19.1	0.00e+00	0	57	0	3605004288	45	4202
2026-01-05 02:10:35.07	182.29	18.44	-42.3	-43.1	18.7	0.00e+00	0	57	0	3627024384	46	4183
2026-01-05 02:10:39.03	182.55	17.97	-42.0	-42.8	19.1	0.00e+00	0	57	0	3649044480	46	4005
2026-01-05 02:10:42.97	182.80	17.52	-41.6	-42.3	19.4	0.00e+00	0	57	0	3671064576	46	3824
2026-01-05 02:10:46.93	183.05	17.07	-41.7	-42.5	19.3	0.00e+00	0	57	0	3693084672	46	3871
2026-01-05 02:10:50.88	183.29	16.63	-42.0	-42.7	19.1	0.00e+00	0	57	0	3715104768	46	3992
2026-01-05 02:10:54.84	183.52	16.20	-42.2	-43.0	18.8	0.00e+00	0	57	0	3738173440	46	4119
2026-01-05 02:10:58.79	183.75	15.77	-42.3	-43.1	18.6	0.00e+00	0	57	0	3760193536	46	4180
2026-01-05 02:11:02.75	183.97	15.35	-42.5	-43.3	18.5	0.00e+00	0	57	0	3782213632	46	4273
2026-01-05 02:11:06.71	184.19	14.94	-42.6	-43.5	18.3	0.00e+00	0	57	0	3804233728	47	4100
2026-01-05 02:11:10.66	184.40	14.53	-42.9	-43.8	18.0	0.00e+00	0	57	0	3826253824	47	4243
2026-01-05 02:11:14.61	184.60	14.14	-42.8	-43.7	18.1	0.00e+00	0	57	0	3849322496	47	4201
2026-01-05 02:11:18.57	184.81	13.74	-42.9	-43.7	18.0	0.00e+00	0	57	0	3871342592	47	4241
2026-01-05 02:11:22.52	185.00	13.35	-43.3	-44.2	17.7	0.00e+00	0	57	0	3893362688	48	4206
2026-01-05 02:11:26.49	185.19	12.97	-43.1	-43.9	18.0	0.00e+00	0	57	0	3915382784	48	4086
2026-01-05 02:11:30.40	185.38	12.60	-43.0	-43.8	18.0	0.00e+00	0	57	0	3937402880	48	4050
2026-01-05 02:11:34.37	185.56	12.23	-43.2	-44.0	17.8	0.00e+00	0	57	0	3960471552	48	4140
2026-01-05 02:11:38.32	185.74	11.86	-43.6	-44.5	17.4	0.00e+00	0	57	0	3982491648	48	4356
2026-01-05 02:11:42.27	185.91	11.51	-43.7	-44.6	17.2	0.00e+00	0	57	0	4004511744	49	4175
2026-01-05 02:11:46.24	186.08	11.15	-43.8	-44.7	17.1	0.00e+00	0	57	0	4026531840	49	4229
2026-01-05 02:11:50.19	186.25	10.80	-44.2	-45.2	16.6	0.00e+00	0	57	0	4049600512	50	4210
2026-01-05 02:11:54.14	186.41	10.46	-44.4	-45.4	16.4	0.00e+00	0	57	0	4071620608	50	4327
2026-01-05 02:11:58.08	186.57	10.12	-43.7	-44.7	17.1	0.00e+00	0	57	0	4093640704	50	3984
2026-01-05 02:12:02.02	186.73	9.78	-44.0	-45.0	16.7	0.00e+00	0	57	0	4115660800	50	4143
2026-01-05 02:12:05.98	186.88	9.45	-44.1	-45.2	16.6	0.00e+00	0	57	0	4137680896	50	4198
2026-01-05 02:12:09.94	187.03	9.12	-44.0	-45.0	16.7	0.00e+00	0	57	0	4160749568	50	4144
2026-01-05 02:12:13.89	187.18	8.80	-44.3	-45.3	16.4	0.00e+00	0	57	0	4182769664	50	4284
2026-01-05 02:12:17.85	187.32	8.48	-44.5	-45.6	16.1	0.00e+00	0	57	0	4204789760	51	4163
2026-01-05 02:12:21.82	187.47	8.16	-44.6	-45.7	15.9	0.00e+00	0	57	0	4226809856	51	4214
2026-01-05 02:12:25.75	187.60	7.85	-44.7	-45.8	15.8	0.00e+00	0	57	0	4248829952	51	4278
2026-01-05 02:12:29.71	187.74	7.54	-44.9	-46.1	15.5	0.00e+00	0	57	0	4270850048	51	4431
2026-01-05 02:12:33.67	187.87	7.24	-44.6	-45.7	15.8	0.00e+00	0	57	0	4293918720	51	4232
2026-01-05 02:12:37.62	188.01	6.94	-44.7	-45.8	15.7	0.00e+00	0	57	0	4315938816	51	4282
2026-01-05 02:12:41.58	188.13	6.64	-44.6	-45.8	15.7	0.00e+00	0	57	0	4337958912	51	4260
2026-01-05 02:12:45.53	188.26	6.35	-44.6	-45.9	15.6	0.00e+00	0	57	0	4359979008	51	4299
2026-01-05 02:12:49.50	188.39	6.05	-45.0	-46.3	15.0	0.00e+00	0	57	0	4383047680	52	4262
2026-01-05 02:12:53.47	188.51	5.76	-45.1	-46.4	14.9	0.00e+00	0	57	0	4405067776	52	4315
2026-01-05 02:12:57.41	188.63	5.48	-45.1	-46.4	14.8	0.00e+00	0	57	0	4427087872	52	4336
2026-01-05 02:13:01.35	188.75	5.20	-45.5	-47.0	14.2	2.20e-06	0	57	0	4449107968	53	4347
2026-01-05 02:13:05.32	188.86	4.92	-51.9	-62.6	3.8	8.46e-01	0	57	104	4464836608	65	13150
2026-01-05 02:13:09.26	188.98	4.64	-52.4	-63.1	3.8	8.46e-01	0	57	104	4464836608	66	13254
2026-01-05 02:13:13.22	189.09	4.37	-52.6	-63.3	3.8	8.46e-01	0	57	104	4464836608	67	12776
2026-01-05 02:13:17.19	189.20	4.10	-52.6	-63.3	3.8	8.46e-01	0	57	104	4464836608	67	12808
2026-01-05 02:13:21.16	189.31	3.83	-52.7	-63.4	3.8	8.46e-01	0	57	104	4464836608	67	12923
2026-01-05 02:13:25.11	189.41	3.56	-52.6	-63.4	3.8	8.47e-01	0	57	104	4464836608	67	12943
2026-01-05 02:13:29.05	189.52	3.30	-52.8	-63.4	3.8	8.46e-01	0	57	104	4464836608	67	12951
2026-01-05 02:13:33.00	189.62	3.04	-52.7	-63.4	3.8	8.46e-01	0	57	104	4464836608	67	12927

#Closed at: 2026-01-05 02:13:35
#Recorded file [4464 MB]: D:/Data/31026_260105_051304.dat