passes_logs/2026/01/05/R3.0SM8_Murmansk_STILSPACE/R3.0SM8_Murmansk_STILSPACE__20260105_070657_FENGYUN_3E_rec.log

#Pass ID: 20260105_070657_FENGYUN 3E
#Satellite: FENGYUN 3E
#Configuration: FENGYUN 3E
#almurnet v.1.7.20240730
#Start time: 2026-01-05 07:11:44

#Version: 2.2.20231116
#Station: R3.0SM8_Murmansk_STILSPACE
#Location: 33.092731 lon 68.902999 lat
#TLE: 1 49008U 21062A   26004.29457719  .00000106  00000+0  70678-4 0  9996
#TLE: 2 49008  98.7471   9.5487 0001503 159.9821 200.1414 14.19883545233329

#Time	Az	El	Level	Level2	SNR	BER	BlckErr	Temp	State	Recorded	gain1	gain2
2026-01-05 07:11:44.48	1.70	27.71	-52.6	-63.4	3.8	8.46e-01	0	57	0	0	67	12856
2026-01-05 07:11:46.57	1.16	27.92	-52.7	-62.9	3.8	8.46e-01	0	58	104	0	68	11367
2026-01-05 07:11:48.55	0.63	28.12	-52.7	-62.9	3.8	8.45e-01	0	58	104	0	68	11388
2026-01-05 07:11:50.53	0.10	28.32	-52.7	-62.9	3.8	8.47e-01	0	58	104	0	68	11369
2026-01-05 07:11:52.50	359.57	28.52	-52.7	-62.9	3.8	8.45e-01	0	58	104	0	68	11380
2026-01-05 07:11:54.48	359.02	28.71	-52.7	-62.9	3.8	8.47e-01	0	58	104	0	68	11319
2026-01-05 07:11:56.45	358.48	28.90	-52.6	-62.8	3.8	8.47e-01	0	58	104	0	68	11196
2026-01-05 07:11:58.43	357.92	29.10	-52.5	-62.7	3.8	8.46e-01	0	58	104	0	67	11786
2026-01-05 07:12:00.42	357.35	29.29	-52.6	-62.7	3.8	8.46e-01	0	58	104	0	67	11734
2026-01-05 07:12:02.40	356.78	29.48	-52.4	-62.7	3.8	8.46e-01	0	57	104	0	67	11695
2026-01-05 07:12:04.38	356.20	29.66	-52.4	-62.6	3.8	8.46e-01	0	58	104	0	67	11591
2026-01-05 07:12:06.37	355.62	29.85	-52.4	-62.5	3.8	8.46e-01	0	58	104	0	67	11510
2026-01-05 07:12:08.36	355.02	30.03	-52.3	-62.5	3.8	8.46e-01	0	58	104	0	67	11512
2026-01-05 07:12:10.34	354.42	30.21	-52.4	-62.4	3.8	8.47e-01	0	58	104	0	67	11409
2026-01-05 07:12:12.33	353.82	30.39	-52.4	-62.2	3.8	8.45e-01	0	58	104	0	67	11047
2026-01-05 07:12:14.32	353.20	30.56	-52.3	-62.4	3.8	8.47e-01	0	58	104	0	67	11375
2026-01-05 07:12:16.30	352.58	30.74	-52.3	-62.5	3.8	8.45e-01	0	58	104	0	67	11462
2026-01-05 07:12:18.28	351.96	30.90	-52.3	-62.4	3.8	8.45e-01	0	58	104	0	67	11338
2026-01-05 07:12:20.26	351.33	31.07	-52.3	-62.4	3.8	8.46e-01	0	58	104	0	67	11386
2026-01-05 07:12:22.24	350.69	31.23	-52.4	-62.4	3.8	8.45e-01	0	58	104	0	67	11309
2026-01-05 07:12:24.22	350.05	31.39	-52.4	-62.2	3.8	8.46e-01	0	58	104	0	67	11156
2026-01-05 07:12:26.20	349.40	31.55	-52.1	-60.6	3.9	8.45e-01	0	58	104	0	67	9229
2026-01-05 07:12:28.17	348.74	31.70	-51.9	-59.1	4.2	8.39e-01	0	58	0	0	66	8238
2026-01-05 07:12:30.15	348.08	31.85	-52.0	-59.4	4.1	8.40e-01	0	58	0	0	66	8540
2026-01-05 07:12:32.13	347.41	32.00	-52.0	-59.7	4.0	8.40e-01	0	58	0	0	66	8774
2026-01-05 07:12:34.12	346.73	32.14	-51.6	-57.6	4.7	8.28e-01	0	58	0	0	66	6928
2026-01-05 07:12:36.11	346.05	32.28	-46.2	-47.4	14.1	1.94e-05	0	58	0	11534336	55	4047
2026-01-05 07:12:38.09	345.36	32.42	-42.0	-42.6	18.9	0.00e+00	0	58	0	26214400	46	3873
2026-01-05 07:12:40.07	344.67	32.55	-42.0	-42.6	18.8	0.00e+00	0	58	0	39845888	46	3909
2026-01-05 07:12:42.05	343.97	32.67	-41.5	-42.1	19.3	0.00e+00	0	58	0	54525952	46	3670
2026-01-05 07:12:44.04	343.26	32.80	-41.4	-42.0	19.4	0.00e+00	0	58	0	69206016	45	3848
2026-01-05 07:12:46.02	342.55	32.91	-41.5	-42.0	19.3	0.00e+00	0	57	0	82837504	45	3859
2026-01-05 07:12:48.01	341.84	33.03	-40.6	-41.1	20.3	0.00e+00	0	58	0	97517568	44	3667
2026-01-05 07:12:49.98	341.12	33.13	-40.0	-40.4	20.8	0.00e+00	0	58	0	112197632	42	3816
2026-01-05 07:12:51.96	340.40	33.24	-39.5	-39.9	21.2	0.00e+00	0	58	0	125829120	42	3607
2026-01-05 07:12:53.94	339.67	33.34	-39.5	-40.0	21.3	0.00e+00	0	58	0	140509184	41	3827
2026-01-05 07:12:55.92	338.94	33.43	-39.4	-39.9	21.3	0.00e+00	0	58	0	154140672	41	3800
2026-01-05 07:12:57.90	338.20	33.52	-39.4	-39.9	21.3	0.00e+00	0	58	0	168820736	41	3793
2026-01-05 07:12:59.88	337.46	33.60	-39.3	-39.7	21.5	0.00e+00	0	58	0	182452224	41	3718
2026-01-05 07:13:01.86	336.71	33.68	-39.6	-40.1	21.2	0.00e+00	0	58	0	197132288	41	3888
2026-01-05 07:13:03.84	335.97	33.75	-39.8	-40.3	21.0	0.00e+00	0	58	0	211812352	41	3975
2026-01-05 07:13:05.81	335.22	33.82	-39.5	-39.9	21.3	0.00e+00	0	58	0	225443840	41	3822
2026-01-05 07:13:07.79	334.47	33.88	-39.4	-39.9	21.3	0.00e+00	0	57	0	240123904	41	3798
2026-01-05 07:13:09.78	333.70	33.93	-39.7	-40.2	21.0	0.00e+00	0	58	0	254803968	41	3936
2026-01-05 07:13:11.75	332.95	33.98	-39.6	-40.1	21.2	0.00e+00	0	58	0	268435456	41	3893
2026-01-05 07:13:13.73	332.19	34.03	-39.8	-40.2	21.0	0.00e+00	0	58	0	283115520	41	3947
2026-01-05 07:13:15.72	331.42	34.07	-39.5	-40.0	21.3	0.00e+00	0	58	0	297795584	41	3830
2026-01-05 07:13:17.69	330.66	34.10	-39.6	-40.1	21.1	0.00e+00	0	57	0	311427072	41	3884
2026-01-05 07:13:19.68	329.89	34.13	-39.4	-39.9	21.3	0.00e+00	0	58	0	326107136	41	3785
2026-01-05 07:13:21.66	329.12	34.15	-39.4	-39.9	21.3	0.00e+00	0	58	0	340787200	41	3788
2026-01-05 07:13:23.64	328.35	34.17	-39.3	-39.7	21.5	0.00e+00	0	58	0	354418688	41	3737
2026-01-05 07:13:25.62	327.58	34.18	-39.3	-39.7	21.5	0.00e+00	0	58	0	369098752	41	3716
2026-01-05 07:13:27.61	326.81	34.18	-39.3	-39.8	21.5	0.00e+00	0	58	0	383778816	41	3754
2026-01-05 07:13:29.57	326.05	34.18	-39.6	-40.1	21.1	0.00e+00	0	57	0	397410304	41	3888
2026-01-05 07:13:31.55	325.28	34.17	-39.7	-40.1	21.1	0.00e+00	0	58	0	412090368	41	3909
2026-01-05 07:13:33.53	324.51	34.16	-39.4	-39.9	21.3	0.00e+00	0	58	0	425721856	41	3793
2026-01-05 07:13:35.52	323.73	34.14	-39.5	-40.0	21.2	0.00e+00	0	58	0	440401920	41	3843
2026-01-05 07:13:37.50	322.97	34.11	-39.4	-39.8	21.4	0.00e+00	0	58	0	455081984	41	3776
2026-01-05 07:13:39.48	322.20	34.08	-39.6	-40.0	21.2	0.00e+00	0	58	0	468713472	41	3862
2026-01-05 07:13:41.45	321.44	34.04	-39.7	-40.2	21.1	0.00e+00	0	58	0	483393536	41	3930
2026-01-05 07:13:43.42	320.68	34.00	-39.9	-40.3	20.9	0.00e+00	0	58	0	497025024	41	3986
2026-01-05 07:13:45.41	319.92	33.95	-39.9	-40.4	20.9	0.00e+00	0	58	0	511705088	41	4013
2026-01-05 07:13:47.38	319.16	33.90	-39.8	-40.3	21.0	0.00e+00	0	58	0	525336576	41	3989
2026-01-05 07:13:49.36	318.41	33.84	-40.2	-40.7	20.7	0.00e+00	0	58	0	540016640	42	3931
2026-01-05 07:13:51.33	317.66	33.77	-39.3	-39.7	21.5	0.00e+00	0	58	0	554696704	41	3731
2026-01-05 07:13:53.31	316.91	33.70	-39.3	-39.8	21.5	0.00e+00	0	58	0	568328192	41	3748
2026-01-05 07:13:55.29	316.16	33.63	-39.4	-39.8	21.4	0.00e+00	0	58	0	583008256	41	3775
2026-01-05 07:13:57.26	315.42	33.55	-39.2	-39.6	21.6	0.00e+00	0	58	0	597688320	41	3671
2026-01-05 07:13:59.24	314.68	33.46	-39.2	-39.6	21.6	0.00e+00	0	58	0	611319808	41	3690
2026-01-05 07:14:01.23	313.95	33.37	-39.4	-39.8	21.4	0.00e+00	0	58	0	625999872	41	3767
2026-01-05 07:14:03.21	313.22	33.27	-39.6	-40.0	21.2	0.00e+00	0	58	0	640679936	41	3868
2026-01-05 07:14:05.20	312.49	33.17	-39.8	-40.2	21.0	0.00e+00	0	58	0	654311424	41	3954
2026-01-05 07:14:07.18	311.76	33.06	-39.7	-40.2	21.0	0.00e+00	0	58	0	668991488	41	3936
2026-01-05 07:14:09.16	311.05	32.95	-39.5	-39.9	21.4	0.00e+00	0	58	0	683671552	41	3802
2026-01-05 07:14:11.13	310.34	32.84	-39.8	-40.3	20.9	0.00e+00	0	58	0	697303040	41	3978
2026-01-05 07:14:13.11	309.63	32.72	-39.8	-40.3	20.9	0.00e+00	0	58	0	711983104	41	3992
2026-01-05 07:14:15.09	308.93	32.59	-39.8	-40.2	21.0	0.00e+00	0	58	0	726663168	41	3958
2026-01-05 07:14:17.07	308.24	32.46	-39.5	-40.0	21.3	0.00e+00	0	58	0	740294656	41	3825
2026-01-05 07:14:19.05	307.55	32.33	-39.8	-40.2	21.0	0.00e+00	0	58	0	754974720	41	3944
2026-01-05 07:14:21.03	306.86	32.19	-39.3	-39.7	21.5	0.00e+00	0	58	0	768606208	41	3737
2026-01-05 07:14:23.02	306.18	32.05	-39.3	-39.8	21.5	0.00e+00	0	58	0	783286272	41	3739
2026-01-05 07:14:24.99	305.51	31.91	-39.6	-40.0	21.2	0.00e+00	0	58	0	797966336	41	3858
2026-01-05 07:14:26.97	304.85	31.76	-39.8	-40.3	21.0	0.00e+00	0	58	0	811597824	41	3963
2026-01-05 07:14:28.94	304.19	31.61	-40.0	-40.5	20.8	0.00e+00	0	58	0	826277888	41	4057
2026-01-05 07:14:30.93	303.53	31.45	-40.2	-40.7	20.6	0.00e+00	0	58	0	839909376	41	4147
2026-01-05 07:14:32.92	302.88	31.29	-39.5	-39.9	21.3	0.00e+00	0	58	0	854589440	41	3812
2026-01-05 07:14:34.88	302.25	31.13	-39.3	-39.8	21.4	0.00e+00	0	58	0	869269504	41	3748
2026-01-05 07:14:36.86	301.61	30.96	-39.4	-39.9	21.3	0.00e+00	0	58	0	882900992	41	3781
2026-01-05 07:14:38.84	300.98	30.79	-39.6	-40.1	21.1	0.00e+00	0	58	0	897581056	41	3888
2026-01-05 07:14:40.82	300.36	30.62	-39.7	-40.1	21.1	0.00e+00	0	58	0	911212544	41	3905
2026-01-05 07:14:42.80	299.75	30.45	-39.8	-40.3	21.0	0.00e+00	0	58	0	925892608	41	3963
2026-01-05 07:14:44.78	299.14	30.27	-39.8	-40.3	20.9	0.00e+00	0	58	0	940572672	41	3987
2026-01-05 07:14:46.76	298.54	30.09	-39.6	-40.1	21.1	0.00e+00	0	58	0	954204160	41	3870
2026-01-05 07:14:48.74	297.94	29.91	-39.7	-40.2	21.0	0.00e+00	0	58	0	968884224	41	3932
2026-01-05 07:14:50.72	297.35	29.73	-39.8	-40.3	20.9	0.00e+00	0	58	0	983564288	41	3986
2026-01-05 07:14:52.71	296.77	29.54	-39.8	-40.2	21.0	0.00e+00	0	58	0	997195776	41	3957
2026-01-05 07:14:54.70	296.19	29.35	-39.9	-40.4	20.8	0.00e+00	0	58	0	1011875840	41	4029
2026-01-05 07:14:56.68	295.62	29.16	-39.9	-40.4	20.8	0.00e+00	0	58	0	1026555904	41	4024
2026-01-05 07:14:58.66	295.06	28.97	-39.7	-40.2	21.0	0.00e+00	0	58	0	1040187392	41	3914
2026-01-05 07:15:00.65	294.51	28.78	-40.0	-40.4	20.8	0.00e+00	0	58	0	1054867456	41	4040
2026-01-05 07:15:02.62	293.96	28.58	-39.7	-40.2	21.0	0.00e+00	0	57	0	1069547520	41	3926
2026-01-05 07:15:04.61	293.42	28.38	-40.1	-40.5	20.7	0.00e+00	0	58	0	1083179008	41	4094
2026-01-05 07:15:06.59	292.88	28.19	-40.2	-40.7	20.5	0.00e+00	0	58	0	1097859072	42	3953
2026-01-05 07:15:08.58	292.35	27.98	-40.2	-40.7	20.5	0.00e+00	0	58	0	1111490560	42	3920
2026-01-05 07:15:10.55	291.84	27.79	-40.6	-41.1	20.1	0.00e+00	0	58	0	1126170624	42	4119
2026-01-05 07:15:12.54	291.32	27.58	-40.6	-41.2	20.1	0.00e+00	0	58	0	1140850688	42	4149
2026-01-05 07:15:14.52	290.81	27.38	-40.5	-41.0	20.3	0.00e+00	0	58	0	1154482176	43	3849
2026-01-05 07:15:16.50	290.31	27.18	-40.4	-40.9	20.3	0.00e+00	0	58	0	1169162240	43	3811
2026-01-05 07:15:18.48	289.82	26.97	-40.5	-41.0	20.3	0.00e+00	0	58	0	1183842304	43	3852
2026-01-05 07:15:20.47	289.32	26.76	-40.0	-40.5	20.8	0.00e+00	0	58	0	1197473792	42	3825
2026-01-05 07:15:22.44	288.84	26.56	-40.2	-40.8	20.5	0.00e+00	0	58	0	1212153856	42	3960
2026-01-05 07:15:24.42	288.37	26.35	-40.4	-40.9	20.3	0.00e+00	0	58	0	1226833920	42	4033
2026-01-05 07:15:26.40	287.90	26.14	-40.6	-41.1	20.1	0.00e+00	0	58	0	1240465408	42	4119
2026-01-05 07:15:28.38	287.44	25.94	-40.4	-40.9	20.3	0.00e+00	0	58	0	1255145472	43	3806
2026-01-05 07:15:30.38	286.97	25.73	-40.3	-40.8	20.4	0.00e+00	0	58	0	1269825536	43	3763
2026-01-05 07:15:32.35	286.52	25.52	-40.6	-41.1	20.1	0.00e+00	0	58	0	1283457024	43	3899
2026-01-05 07:15:34.33	286.08	25.31	-40.3	-40.8	20.3	0.00e+00	0	58	0	1298137088	43	3757
2026-01-05 07:15:36.30	285.64	25.10	-40.3	-40.8	20.3	0.00e+00	0	58	0	1312817152	43	3775
2026-01-05 07:15:38.27	285.21	24.89	-40.5	-41.0	20.1	0.00e+00	0	58	0	1326448640	43	3829
2026-01-05 07:15:40.25	284.78	24.68	-40.5	-41.1	20.0	0.00e+00	0	58	0	1341128704	43	3879
2026-01-05 07:15:42.22	284.36	24.47	-40.7	-41.2	19.9	0.00e+00	0	58	0	1354760192	43	3929
2026-01-05 07:15:44.20	283.95	24.26	-40.6	-41.1	20.0	0.00e+00	0	58	0	1369440256	43	3909
2026-01-05 07:15:46.18	283.53	24.05	-40.5	-41.0	20.1	0.00e+00	0	58	0	1383071744	43	3836
2026-01-05 07:15:48.16	283.13	23.85	-40.6	-41.1	20.1	0.00e+00	0	58	0	1397751808	43	3882
2026-01-05 07:15:50.14	282.73	23.64	-40.9	-41.4	19.7	0.00e+00	0	58	0	1412431872	43	4045
2026-01-05 07:15:52.12	282.33	23.43	-40.7	-41.2	20.0	0.00e+00	0	57	0	1426063360	43	3951
2026-01-05 07:15:54.10	281.95	23.22	-40.3	-40.8	20.4	0.00e+00	0	58	0	1440743424	43	3757
2026-01-05 07:15:56.08	281.56	23.01	-40.3	-40.8	20.3	0.00e+00	0	58	0	1455423488	43	3740
2026-01-05 07:15:58.07	281.18	22.80	-40.2	-40.7	20.5	0.00e+00	0	58	0	1469054976	43	3723
2026-01-05 07:16:00.05	280.81	22.59	-40.4	-40.9	20.3	0.00e+00	0	58	0	1483735040	43	3802
2026-01-05 07:16:02.03	280.44	22.38	-40.5	-41.0	20.2	0.00e+00	0	58	0	1498415104	43	3833
2026-01-05 07:16:04.01	280.07	22.18	-40.7	-41.3	19.9	0.00e+00	0	58	0	1512046592	43	3968
2026-01-05 07:16:05.99	279.71	21.97	-40.8	-41.3	19.9	0.00e+00	0	58	0	1526726656	43	3986
2026-01-05 07:16:07.96	279.36	21.76	-41.1	-41.7	19.7	0.00e+00	0	58	0	1540358144	44	3918
2026-01-05 07:16:09.94	279.01	21.56	-41.1	-41.6	19.7	0.00e+00	0	58	0	1555038208	44	3895
2026-01-05 07:16:11.92	278.67	21.35	-41.2	-41.7	19.5	0.00e+00	0	57	0	1569718272	44	3952
2026-01-05 07:16:13.91	278.33	21.15	-41.3	-41.8	19.5	0.00e+00	0	58	0	1583349760	44	3990
2026-01-05 07:16:15.88	277.99	20.94	-40.9	-41.4	19.9	0.00e+00	0	58	0	1598029824	44	3789
2026-01-05 07:16:17.86	277.66	20.74	-40.9	-41.4	19.9	0.00e+00	0	58	0	1612709888	44	3804
2026-01-05 07:16:19.83	277.34	20.54	-40.8	-41.3	20.0	0.00e+00	0	58	0	1626341376	44	3758
2026-01-05 07:16:21.81	277.01	20.34	-40.8	-41.4	19.9	0.00e+00	0	58	0	1641021440	44	3788
2026-01-05 07:16:23.79	276.69	20.13	-40.9	-41.4	19.9	0.00e+00	0	58	0	1655701504	44	3807
2026-01-05 07:16:25.76	276.38	19.93	-41.2	-41.8	19.5	0.00e+00	0	58	0	1669332992	44	3969
2026-01-05 07:16:27.73	276.07	19.74	-41.1	-41.6	19.6	0.00e+00	0	58	0	1684013056	44	3908
2026-01-05 07:16:29.70	275.77	19.54	-40.8	-41.4	19.9	0.00e+00	0	58	0	1697644544	44	3781
2026-01-05 07:16:31.67	275.47	19.34	-41.2	-41.8	19.3	0.00e+00	0	58	0	1712324608	44	3967
2026-01-05 07:16:33.66	275.17	19.14	-41.2	-41.7	19.6	0.00e+00	0	58	0	1725956096	44	3931
2026-01-05 07:16:35.64	274.88	18.94	-41.4	-42.0	19.3	0.00e+00	0	57	0	1740636160	44	4055
2026-01-05 07:16:37.61	274.59	18.75	-41.5	-42.1	19.2	0.00e+00	0	57	0	1755316224	44	4130
2026-01-05 07:16:39.59	274.30	18.55	-41.5	-42.1	19.2	0.00e+00	0	58	0	1768947712	44	4103
2026-01-05 07:16:41.57	274.02	18.36	-41.2	-41.8	19.5	0.00e+00	0	58	0	1783627776	44	3968
2026-01-05 07:16:43.54	273.74	18.16	-41.2	-41.7	19.5	0.00e+00	0	58	0	1797259264	44	3953
2026-01-05 07:16:45.53	273.46	17.97	-41.2	-41.8	19.5	0.00e+00	0	58	0	1811939328	44	3971
2026-01-05 07:16:47.50	273.19	17.78	-41.6	-42.2	19.1	0.00e+00	0	58	0	1826619392	44	4171
2026-01-05 07:16:49.48	272.93	17.59	-41.7	-42.3	18.9	0.00e+00	0	58	0	1840250880	45	4001
2026-01-05 07:16:51.46	272.66	17.40	-41.9	-42.5	18.7	0.00e+00	0	57	0	1854930944	45	4078
2026-01-05 07:16:53.43	272.40	17.21	-42.3	-42.9	18.4	0.00e+00	0	58	0	1869611008	46	4047
2026-01-05 07:16:55.42	272.14	17.02	-42.5	-43.2	18.0	0.00e+00	0	57	0	1883242496	46	4181
2026-01-05 07:16:57.40	271.89	16.83	-42.5	-43.2	18.1	0.00e+00	0	58	0	1897922560	46	4158
2026-01-05 07:16:59.38	271.63	16.64	-42.3	-42.9	18.3	0.00e+00	0	57	0	1912602624	46	4048
2026-01-05 07:17:01.36	271.39	16.45	-42.0	-42.6	18.6	0.00e+00	0	58	0	1926234112	46	3883
2026-01-05 07:17:03.34	271.14	16.27	-42.0	-42.6	18.6	0.00e+00	0	57	0	1940914176	46	3882
2026-01-05 07:17:05.33	270.90	16.08	-41.6	-42.2	19.0	0.00e+00	0	58	0	1955594240	46	3717
2026-01-05 07:17:07.32	270.66	15.90	-41.5	-42.0	19.2	0.00e+00	0	58	0	1969225728	45	3865
2026-01-05 07:17:09.29	270.42	15.72	-41.6	-42.2	19.0	0.00e+00	0	57	0	1983905792	45	3925
2026-01-05 07:17:11.27	270.19	15.53	-41.8	-42.4	18.8	0.00e+00	0	58	0	1997537280	45	4031
2026-01-05 07:17:13.25	269.96	15.35	-42.0	-42.7	18.6	0.00e+00	0	58	0	2012217344	45	4156
2026-01-05 07:17:15.23	269.73	15.17	-42.3	-43.0	18.3	0.00e+00	0	58	0	2026897408	46	4057
2026-01-05 07:17:17.21	269.51	14.99	-42.4	-43.1	18.1	0.00e+00	0	58	0	2040528896	46	4118
2026-01-05 07:17:19.19	269.28	14.81	-42.4	-43.0	18.1	0.00e+00	0	58	0	2055208960	46	4090
2026-01-05 07:17:21.16	269.07	14.64	-42.4	-43.1	18.1	0.00e+00	0	58	0	2068840448	46	4119
2026-01-05 07:17:23.14	268.85	14.46	-42.6	-43.3	17.9	0.00e+00	0	58	0	2083520512	46	4196
2026-01-05 07:17:25.11	268.64	14.29	-42.7	-43.4	17.8	0.00e+00	0	58	0	2098200576	47	4021
2026-01-05 07:17:27.10	268.42	14.11	-42.8	-43.5	17.7	0.00e+00	0	58	0	2111832064	47	4074
2026-01-05 07:17:29.07	268.22	13.94	-42.8	-43.5	17.6	0.00e+00	0	58	0	2126512128	47	4097
2026-01-05 07:17:31.05	268.01	13.76	-42.8	-43.5	17.7	0.00e+00	0	58	0	2140143616	47	4065
2026-01-05 07:17:33.03	267.80	13.59	-42.7	-43.5	17.7	0.00e+00	0	57	0	2154823680	47	4052
2026-01-05 07:17:35.01	267.60	13.42	-42.4	-43.1	18.1	0.00e+00	0	58	0	2169503744	47	3874
2026-01-05 07:17:36.99	267.40	13.25	-42.3	-43.0	18.1	0.00e+00	0	57	0	2183135232	47	3830
2026-01-05 07:17:38.98	267.21	13.08	-42.7	-43.4	17.8	0.00e+00	0	58	0	2197815296	47	4007
2026-01-05 07:17:40.96	267.01	12.91	-42.7	-43.4	17.7	0.00e+00	0	57	0	2212495360	47	4049
2026-01-05 07:17:42.94	266.82	12.74	-42.8	-43.5	17.6	0.00e+00	0	58	0	2226126848	47	4092
2026-01-05 07:17:44.91	266.63	12.57	-43.0	-43.7	17.3	0.00e+00	0	58	0	2240806912	47	4189
2026-01-05 07:17:46.89	266.44	12.40	-43.1	-43.9	17.3	0.00e+00	0	58	0	2255486976	47	4251
2026-01-05 07:17:48.86	266.26	12.24	-43.4	-44.1	17.2	0.00e+00	0	58	0	2269118464	48	4133
2026-01-05 07:17:50.84	266.07	12.07	-43.5	-44.3	17.0	0.00e+00	0	58	0	2283798528	48	4222
2026-01-05 07:17:52.82	265.89	11.91	-43.2	-44.0	17.3	0.00e+00	0	58	0	2297430016	48	4068
2026-01-05 07:17:54.79	265.71	11.75	-43.6	-44.3	17.0	0.00e+00	0	58	0	2312110080	48	4237
2026-01-05 07:17:56.77	265.54	11.58	-43.3	-44.1	17.2	0.00e+00	0	58	0	2326790144	48	4100
2026-01-05 07:17:58.75	265.36	11.42	-43.3	-44.1	17.2	0.00e+00	0	57	0	2340421632	48	4122
2026-01-05 07:18:00.74	265.19	11.26	-43.4	-44.2	17.1	0.00e+00	0	57	0	2355101696	48	4173
2026-01-05 07:18:02.72	265.02	11.10	-43.7	-44.5	16.8	0.00e+00	0	58	0	2369781760	49	4064
2026-01-05 07:18:04.70	264.85	10.94	-43.7	-44.5	16.8	0.00e+00	0	58	0	2383413248	49	4064
2026-01-05 07:18:06.68	264.68	10.78	-43.7	-44.6	16.7	0.00e+00	0	58	0	2398093312	49	4113
2026-01-05 07:18:08.66	264.51	10.62	-43.7	-44.5	16.8	0.00e+00	0	57	0	2411724800	49	4072
2026-01-05 07:18:10.64	264.35	10.47	-43.4	-44.1	17.1	0.00e+00	0	58	0	2426404864	49	3907
2026-01-05 07:18:12.63	264.19	10.31	-43.3	-44.1	17.1	0.00e+00	0	58	0	2441084928	49	3882
2026-01-05 07:18:14.60	264.03	10.16	-43.0	-43.7	17.5	0.00e+00	0	57	0	2454716416	48	3950
2026-01-05 07:18:16.58	263.87	10.00	-43.0	-43.7	17.5	0.00e+00	0	58	0	2469396480	48	3946
2026-01-05 07:18:18.56	263.71	9.85	-42.9	-43.6	17.5	0.00e+00	0	57	0	2483027968	48	3907
2026-01-05 07:18:20.54	263.56	9.69	-43.2	-43.9	17.3	0.00e+00	0	57	0	2497708032	48	4042
2026-01-05 07:18:22.51	263.41	9.54	-43.3	-44.1	17.0	0.00e+00	0	57	0	2512388096	48	4123
2026-01-05 07:18:24.48	263.25	9.39	-43.5	-44.3	16.8	0.00e+00	0	58	0	2526019584	48	4232
2026-01-05 07:18:26.45	263.11	9.24	-43.6	-44.4	16.7	0.00e+00	0	58	0	2540699648	48	4281
2026-01-05 07:18:28.43	262.96	9.09	-43.9	-44.8	16.3	0.00e+00	0	58	0	2555379712	49	4209
2026-01-05 07:18:30.40	262.81	8.94	-44.2	-45.2	16.0	0.00e+00	0	57	0	2569011200	50	4156
2026-01-05 07:18:32.38	262.67	8.79	-44.5	-45.5	15.7	0.00e+00	0	57	0	2583691264	50	4300
2026-01-05 07:18:34.36	262.52	8.64	-44.6	-45.6	15.5	0.00e+00	0	57	0	2597322752	50	4367
2026-01-05 07:18:36.34	262.38	8.49	-44.7	-45.8	15.3	0.00e+00	0	57	0	2612002816	51	4214
2026-01-05 07:18:38.32	262.24	8.35	-44.8	-45.8	15.3	0.00e+00	0	58	0	2626682880	51	4238
2026-01-05 07:18:40.31	262.10	8.20	-44.7	-45.7	15.4	0.00e+00	0	58	0	2640314368	51	4176
2026-01-05 07:18:42.29	261.96	8.06	-44.7	-45.8	15.3	0.00e+00	0	57	0	2654994432	51	4196
2026-01-05 07:18:44.28	261.82	7.91	-44.9	-45.9	15.1	0.00e+00	0	58	0	2669674496	51	4284
2026-01-05 07:18:46.25	261.69	7.77	-44.8	-45.8	15.2	0.00e+00	0	57	0	2683305984	51	4229
2026-01-05 07:18:48.24	261.55	7.62	-44.6	-45.7	15.3	0.00e+00	0	58	0	2697986048	51	4150
2026-01-05 07:18:50.21	261.42	7.48	-44.7	-45.7	15.3	0.00e+00	0	58	0	2711617536	51	4169
2026-01-05 07:18:52.19	261.29	7.34	-44.7	-45.7	15.3	0.00e+00	0	57	0	2726297600	51	4163
2026-01-05 07:18:54.17	261.16	7.20	-45.0	-46.1	14.9	0.00e+00	0	58	0	2740977664	51	4356
2026-01-05 07:18:56.15	261.03	7.05	-45.0	-46.0	14.9	0.00e+00	0	57	0	2754609152	51	4337
2026-01-05 07:18:58.13	260.91	6.91	-45.1	-46.2	14.6	0.00e+00	0	58	0	2769289216	52	4183
2026-01-05 07:19:00.12	260.78	6.77	-45.3	-46.5	14.3	3.40e-06	0	57	0	2783969280	52	4332
2026-01-05 07:19:02.10	260.66	6.63	-45.0	-46.1	14.7	0.00e+00	0	58	0	2797600768	52	4136
2026-01-05 07:19:04.08	260.53	6.50	-45.0	-46.1	14.7	0.00e+00	0	58	0	2812280832	52	4140
2026-01-05 07:19:06.05	260.41	6.36	-45.1	-46.2	14.6	0.00e+00	0	57	0	2825912320	52	4185
2026-01-05 07:19:08.03	260.29	6.22	-44.6	-45.6	15.3	0.00e+00	0	58	0	2840592384	51	4104
2026-01-05 07:19:10.02	260.17	6.08	-44.3	-45.3	15.5	0.00e+00	0	58	0	2855272448	51	4000
2026-01-05 07:19:11.99	260.05	5.95	-44.4	-45.4	15.4	0.00e+00	0	58	0	2868903936	51	4032
2026-01-05 07:19:13.96	259.94	5.81	-44.5	-45.5	15.3	0.00e+00	0	57	0	2883584000	51	4072
2026-01-05 07:19:15.93	259.82	5.68	-44.6	-45.6	15.2	1.10e-06	0	58	0	2898264064	51	4133
2026-01-05 07:19:17.91	259.71	5.54	-44.7	-45.8	14.9	0.00e+00	0	58	0	2911895552	51	4237
2026-01-05 07:19:19.87	259.59	5.41	-44.9	-46.0	14.7	0.00e+00	0	58	0	2926575616	51	4314
2026-01-05 07:19:21.84	259.48	5.28	-45.1	-46.2	14.4	0.00e+00	0	58	0	2940207104	52	4193
2026-01-05 07:19:23.82	259.37	5.15	-45.2	-46.5	14.1	1.10e-06	0	58	0	2954887168	52	4299
2026-01-05 07:19:25.80	259.26	5.01	-46.1	-47.6	13.1	2.20e-06	0	58	0	2968518656	53	4613
2026-01-05 07:19:27.76	259.15	4.88	-50.2	-60.4	3.8	8.46e-01	0	58	104	2970615808	63	11325
2026-01-05 07:19:29.73	259.04	4.75	-52.0	-62.2	3.8	8.46e-01	0	58	104	2970615808	65	12412
2026-01-05 07:19:31.71	258.93	4.62	-52.3	-62.5	3.8	8.46e-01	0	58	104	2970615808	66	12169
2026-01-05 07:19:33.69	258.83	4.49	-52.4	-62.5	3.8	8.46e-01	0	58	104	2970615808	66	12175
2026-01-05 07:19:35.67	258.72	4.36	-52.4	-62.6	3.8	8.45e-01	0	58	104	2970615808	66	12312
2026-01-05 07:19:37.65	258.62	4.24	-52.5	-62.6	3.8	8.46e-01	0	58	104	2970615808	66	12369
2026-01-05 07:19:39.62	258.51	4.11	-52.5	-62.7	3.8	8.46e-01	0	58	104	2970615808	66	12496
2026-01-05 07:19:41.60	258.41	3.98	-52.5	-62.7	3.8	8.46e-01	0	58	104	2970615808	66	12508
2026-01-05 07:19:43.57	258.31	3.85	-52.6	-62.8	3.8	8.46e-01	0	58	104	2970615808	66	12527
2026-01-05 07:19:45.55	258.21	3.73	-52.6	-62.8	3.8	8.47e-01	0	58	104	2970615808	66	12565
2026-01-05 07:19:47.54	258.11	3.60	-52.7	-62.8	3.8	8.46e-01	0	58	104	2970615808	66	12645
2026-01-05 07:19:49.52	258.01	3.47	-52.7	-62.9	3.8	8.45e-01	0	58	104	2970615808	66	12676
2026-01-05 07:19:51.50	257.91	3.35	-52.7	-62.8	3.8	8.46e-01	0	58	104	2970615808	66	12586
2026-01-05 07:19:53.48	257.82	3.22	-52.6	-62.8	3.8	8.46e-01	0	58	104	2970615808	67	11934
2026-01-05 07:19:55.46	257.72	3.10	-52.6	-62.8	3.8	8.46e-01	0	58	104	2970615808	67	11901
2026-01-05 07:19:57.45	257.62	2.97	-52.6	-62.8	3.8	8.45e-01	0	58	104	2970615808	67	11912

#Closed at: 2026-01-05 07:19:59
#Recorded file [2970 MB]: D:/Data/31026_260105_101926.dat