passes_logs/2026/01/05/R3.0SM8_Murmansk_STILSPACE/R3.0SM8_Murmansk_STILSPACE__20260105_011944_NOAA_20_JPSS-1_rec.log

#Pass ID: 20260105_011944_NOAA 20 (JPSS-1)
#Satellite: NOAA 20 (JPSS-1)
#Configuration: NOAA 20
#almurnet v.1.7.20240730
#Start time: 2026-01-05 01:19:44

#Version: 2.2.20231116
#Station: R3.0SM8_Murmansk_STILSPACE
#Location: 33.092731 lon 68.902999 lat
#TLE: 1 43013U 17073A   26004.47528369  .00000132  00000+0  83671-4 0  9999
#TLE: 2 43013  98.7626 305.5264 0001854  54.5883 305.5466 14.19533142421242

#Time	Az	El	Level	Level2	SNR	BER	BlckErr	Temp	State	Recorded	gain1	gain2
2026-01-05 01:19:44.48	27.03	2.97	-52.4	-66.2	3.8	1.49e+00	0	47	0	0	67	17801
2026-01-05 01:19:48.45	26.98	3.23	-52.2	-66.0	3.8	1.49e+00	0	47	104	0	67	17309
2026-01-05 01:19:52.40	26.92	3.50	-51.5	-64.9	3.8	1.49e+00	0	47	104	0	66	16135
2026-01-05 01:19:56.37	26.86	3.76	-51.4	-63.8	3.8	1.49e+00	0	47	104	0	65	15090
2026-01-05 01:20:00.33	26.80	4.03	-51.3	-62.6	4.0	1.48e+00	0	48	104	0	65	13204
2026-01-05 01:20:04.31	26.74	4.31	-51.1	-60.9	4.5	1.15e+00	32	48	0	1048576	65	10849
2026-01-05 01:20:08.27	26.68	4.58	-50.7	-58.0	6.1	3.74e-01	0	48	0	8388608	64	8228
2026-01-05 01:20:12.23	26.62	4.86	-50.2	-55.6	8.4	5.49e-02	0	49	0	15728640	63	6641
2026-01-05 01:20:16.21	26.55	5.14	-49.9	-54.7	9.4	1.37e-02	0	49	0	23068672	62	6332
2026-01-05 01:20:20.16	26.49	5.42	-49.5	-53.7	10.5	4.92e-03	0	49	0	30408704	62	5596
2026-01-05 01:20:24.12	26.42	5.71	-49.1	-52.8	11.4	1.23e-03	0	49	0	37748736	61	5390
2026-01-05 01:20:28.07	26.35	6.00	-48.8	-52.1	12.1	3.33e-04	0	49	0	45088768	60	5271
2026-01-05 01:20:32.02	26.28	6.29	-48.4	-51.5	12.9	6.56e-05	0	50	0	52428800	60	4899
2026-01-05 01:20:35.99	26.20	6.59	-48.5	-51.4	13.0	4.42e-05	0	50	0	60817408	59	5114
2026-01-05 01:20:39.95	26.13	6.88	-48.7	-51.8	12.6	9.68e-05	0	50	0	68157440	59	5378
2026-01-05 01:20:43.91	26.05	7.19	-48.8	-52.0	12.5	1.21e-04	0	50	0	75497472	59	5492
2026-01-05 01:20:47.87	25.97	7.49	-48.8	-52.0	12.5	8.46e-05	0	50	0	82837504	59	5514
2026-01-05 01:20:51.83	25.89	7.80	-48.3	-50.9	13.6	5.30e-06	0	51	0	90177536	59	4846
2026-01-05 01:20:55.79	25.81	8.12	-48.4	-51.0	13.5	2.13e-05	0	51	0	97517568	59	4922
2026-01-05 01:20:59.74	25.72	8.43	-48.3	-50.9	13.7	3.00e-06	0	51	0	104857600	59	4854
2026-01-05 01:21:03.71	25.63	8.75	-47.9	-50.4	14.3	3.00e-06	0	51	0	112197632	59	4550
2026-01-05 01:21:07.66	25.54	9.08	-48.1	-50.6	14.1	7.00e-07	0	51	0	119537664	59	4662
2026-01-05 01:21:11.62	25.45	9.41	-48.2	-50.7	14.0	7.00e-07	0	51	0	126877696	59	4741
2026-01-05 01:21:15.56	25.36	9.74	-48.0	-50.3	14.4	0.00e+00	0	52	0	134217728	59	4539
2026-01-05 01:21:19.53	25.26	10.08	-48.2	-50.7	14.0	1.50e-06	0	52	0	141557760	59	4713
2026-01-05 01:21:23.47	25.16	10.42	-47.8	-50.0	14.8	7.00e-07	0	52	0	148897792	58	4610
2026-01-05 01:21:27.43	25.06	10.77	-47.5	-49.6	15.2	0.00e+00	0	52	0	157286400	58	4393
2026-01-05 01:21:31.37	24.95	11.12	-47.2	-49.2	15.6	0.00e+00	0	52	0	164626432	57	4477
2026-01-05 01:21:35.33	24.84	11.48	-47.6	-49.6	15.2	0.00e+00	0	52	0	171966464	57	4686
2026-01-05 01:21:39.28	24.73	11.84	-47.7	-49.7	15.1	0.00e+00	0	52	0	179306496	57	4749
2026-01-05 01:21:43.24	24.61	12.21	-47.9	-50.2	14.6	0.00e+00	0	53	0	186646528	57	5003
2026-01-05 01:21:47.20	24.49	12.58	-48.2	-50.6	14.3	3.00e-06	0	52	0	193986560	58	4937
2026-01-05 01:21:51.16	24.37	12.96	-47.6	-49.7	15.1	7.00e-07	0	53	0	201326592	58	4473
2026-01-05 01:21:55.11	24.25	13.34	-47.4	-49.3	15.6	0.00e+00	0	53	0	208666624	57	4524
2026-01-05 01:21:59.05	24.12	13.73	-47.0	-48.8	16.1	0.00e+00	0	53	0	216006656	57	4272
2026-01-05 01:22:03.00	23.98	14.13	-46.7	-48.4	16.5	0.00e+00	0	53	0	223346688	56	4333
2026-01-05 01:22:06.95	23.85	14.53	-47.0	-48.8	16.1	0.00e+00	0	53	0	230686720	56	4531
2026-01-05 01:22:10.91	23.71	14.94	-46.7	-48.3	16.6	0.00e+00	0	53	0	238026752	56	4267
2026-01-05 01:22:14.87	23.56	15.36	-46.8	-48.5	16.5	0.00e+00	0	53	0	245366784	56	4342
2026-01-05 01:22:18.82	23.41	15.78	-47.0	-48.8	16.1	0.00e+00	0	54	0	252706816	56	4538
2026-01-05 01:22:22.78	23.25	16.21	-47.0	-48.8	16.1	0.00e+00	0	53	0	261095424	56	4543
2026-01-05 01:22:26.75	23.09	16.65	-47.3	-49.1	15.9	0.00e+00	0	54	0	268435456	56	4687
2026-01-05 01:22:30.68	22.93	17.10	-46.5	-48.0	17.0	0.00e+00	0	54	0	275775488	56	4125
2026-01-05 01:22:34.64	22.76	17.55	-46.4	-47.9	17.0	0.00e+00	0	54	0	283115520	55	4324
2026-01-05 01:22:38.59	22.58	18.01	-46.1	-47.6	17.3	0.00e+00	0	54	0	290455552	55	4147
2026-01-05 01:22:42.54	22.40	18.48	-46.1	-47.6	17.3	0.00e+00	0	54	0	297795584	55	4158
2026-01-05 01:22:46.52	22.20	18.96	-46.2	-47.7	17.2	0.00e+00	0	54	0	305135616	55	4228
2026-01-05 01:22:50.48	22.01	19.45	-46.0	-47.5	17.4	0.00e+00	0	54	0	312475648	55	4116
2026-01-05 01:22:54.44	21.81	19.95	-46.4	-47.9	17.0	0.00e+00	0	54	0	319815680	55	4311
2026-01-05 01:22:58.39	21.60	20.46	-46.3	-47.8	17.2	0.00e+00	0	54	0	327155712	55	4243
2026-01-05 01:23:02.35	21.38	20.98	-46.2	-47.6	17.3	0.00e+00	0	54	0	334495744	55	4192
2026-01-05 01:23:06.30	21.15	21.51	-46.4	-47.9	17.1	0.00e+00	0	54	0	341835776	55	4317
2026-01-05 01:23:10.27	20.92	22.05	-45.9	-47.2	17.7	0.00e+00	0	55	0	349175808	54	4227
2026-01-05 01:23:14.22	20.67	22.60	-46.0	-47.4	17.6	0.00e+00	0	54	0	357564416	54	4308
2026-01-05 01:23:18.18	20.42	23.16	-46.0	-47.4	17.6	0.00e+00	0	55	0	364904448	54	4324
2026-01-05 01:23:22.13	20.16	23.73	-46.4	-47.9	17.2	0.00e+00	0	55	0	372244480	54	4553
2026-01-05 01:23:26.08	19.88	24.32	-46.5	-48.1	16.9	0.00e+00	0	55	0	379584512	55	4421
2026-01-05 01:23:30.02	19.60	24.91	-46.7	-48.4	16.6	0.00e+00	0	55	0	386924544	55	4555
2026-01-05 01:23:34.00	19.30	25.53	-47.2	-48.9	16.2	0.00e+00	0	55	0	394264576	56	4578
2026-01-05 01:23:37.95	19.00	26.15	-47.4	-49.3	15.9	0.00e+00	0	55	0	401604608	56	4760
2026-01-05 01:23:41.90	18.67	26.79	-47.7	-49.7	15.4	7.00e-07	0	55	0	408944640	57	4748
2026-01-05 01:23:45.86	18.34	27.44	-48.0	-50.2	14.8	0.00e+00	0	55	0	416284672	57	5028
2026-01-05 01:23:49.82	17.99	28.11	-48.5	-51.0	13.9	1.50e-06	0	55	0	423624704	58	5202
2026-01-05 01:23:53.79	17.62	28.80	-49.1	-52.4	12.0	1.33e-04	0	55	0	430964736	60	5453
2026-01-05 01:23:57.74	17.24	29.49	-49.3	-53.4	10.7	2.07e-03	0	55	0	438304768	60	6103
2026-01-05 01:24:01.67	16.84	30.20	-49.7	-54.5	9.5	1.49e-02	0	55	0	445644800	61	6527
2026-01-05 01:24:05.62	16.42	30.93	-49.9	-54.2	10.2	1.17e-02	0	55	0	452984832	61	6281
2026-01-05 01:24:09.59	15.98	31.68	-49.5	-52.9	11.8	6.38e-04	0	55	0	461373440	61	5442
2026-01-05 01:24:13.53	15.52	32.45	-49.6	-53.0	12.0	2.82e-04	0	55	0	468713472	61	5486
2026-01-05 01:24:17.49	15.04	33.23	-49.9	-53.6	11.5	8.01e-04	0	55	0	476053504	61	5866
2026-01-05 01:24:21.45	14.53	34.03	-49.8	-53.4	11.7	4.86e-04	0	55	0	483393536	61	5771
2026-01-05 01:24:25.40	13.99	34.85	-49.8	-53.1	11.9	4.84e-04	0	56	0	490733568	61	5587
2026-01-05 01:24:29.34	13.43	35.69	-49.7	-53.2	12.0	3.13e-04	0	56	0	498073600	61	5619
2026-01-05 01:24:33.30	12.83	36.54	-49.8	-53.3	11.8	4.16e-04	0	56	0	505413632	61	5704
2026-01-05 01:24:37.24	12.21	37.42	-49.9	-53.3	11.9	5.03e-04	0	56	0	512753664	61	5694
2026-01-05 01:24:41.20	11.54	38.31	-49.6	-53.0	12.2	2.20e-04	0	56	0	520093696	61	5501
2026-01-05 01:24:45.16	10.84	39.23	-49.5	-52.7	12.5	1.07e-04	0	56	0	527433728	61	5330
2026-01-05 01:24:49.10	10.09	40.16	-49.3	-52.2	13.0	4.50e-05	0	56	0	534773760	61	5038
2026-01-05 01:24:53.06	9.30	41.12	-48.6	-51.1	14.2	3.00e-06	0	56	0	542113792	60	4660
2026-01-05 01:24:57.01	8.46	42.09	-48.3	-50.5	14.8	7.00e-07	0	56	0	549453824	59	4612
2026-01-05 01:25:00.97	7.57	43.08	-48.3	-50.4	14.9	0.00e+00	0	56	0	556793856	59	4595
2026-01-05 01:25:04.93	6.61	44.09	-47.8	-49.8	15.5	0.00e+00	0	56	0	565182464	58	4524
2026-01-05 01:25:08.89	5.59	45.12	-48.0	-50.1	15.2	0.00e+00	0	56	0	572522496	58	4699
2026-01-05 01:25:12.85	4.51	46.17	-47.9	-49.8	15.5	0.00e+00	0	56	0	579862528	58	4518
2026-01-05 01:25:16.82	3.34	47.23	-47.7	-49.6	15.7	0.00e+00	0	56	0	587202560	58	4418
2026-01-05 01:25:20.79	2.09	48.30	-47.6	-49.5	15.8	0.00e+00	0	56	0	594542592	58	4346
2026-01-05 01:25:24.76	0.75	49.39	-47.6	-49.4	15.9	0.00e+00	0	56	0	601882624	58	4330
2026-01-05 01:25:28.70	359.31	50.47	-47.6	-49.4	15.9	0.00e+00	0	56	0	609222656	58	4334
2026-01-05 01:25:32.65	357.77	51.57	-46.9	-48.5	16.7	0.00e+00	0	56	0	616562688	56	4372
2026-01-05 01:25:36.59	356.11	52.66	-47.0	-48.6	16.7	0.00e+00	0	56	0	623902720	56	4419
2026-01-05 01:25:40.54	354.32	53.75	-46.6	-48.1	17.2	0.00e+00	0	56	0	631242752	56	4185
2026-01-05 01:25:44.50	352.38	54.84	-47.0	-48.7	16.7	0.00e+00	0	56	0	638582784	56	4455
2026-01-05 01:25:48.46	350.29	55.91	-48.2	-50.3	15.1	0.00e+00	0	56	0	645922816	58	4769
2026-01-05 01:25:52.41	348.04	56.97	-48.4	-50.6	14.7	0.00e+00	0	56	0	653262848	59	4705
2026-01-05 01:25:56.36	345.61	57.99	-48.3	-50.4	14.9	7.00e-07	0	56	0	660602880	59	4587
2026-01-05 01:26:00.32	342.98	58.98	-48.5	-50.8	14.6	1.50e-06	0	56	0	668991488	59	4798
2026-01-05 01:26:04.26	340.16	59.93	-47.0	-48.7	16.6	0.00e+00	0	56	0	676331520	57	4199
2026-01-05 01:26:08.23	337.12	60.82	-47.5	-49.3	16.1	0.00e+00	0	56	0	683671552	57	4519
2026-01-05 01:26:12.18	333.87	61.65	-46.6	-48.1	17.3	0.00e+00	0	56	0	691011584	56	4149
2026-01-05 01:26:16.14	330.39	62.40	-45.7	-47.0	18.2	0.00e+00	0	56	0	698351616	54	4106
2026-01-05 01:26:20.09	326.72	63.06	-45.7	-46.9	18.3	0.00e+00	0	56	0	705691648	54	4096
2026-01-05 01:26:24.05	322.84	63.63	-46.1	-47.5	17.8	0.00e+00	0	56	0	713031680	54	4350
2026-01-05 01:26:28.02	318.78	64.08	-46.0	-47.3	18.0	0.00e+00	0	56	0	720371712	54	4278
2026-01-05 01:26:31.96	314.61	64.42	-46.0	-47.4	17.9	0.00e+00	0	56	0	727711744	54	4295
2026-01-05 01:26:35.92	310.31	64.63	-46.3	-47.7	17.5	0.00e+00	0	56	0	735051776	54	4477
2026-01-05 01:26:39.88	305.96	64.71	-46.7	-48.2	17.1	0.00e+00	0	56	0	742391808	55	4454
2026-01-05 01:26:43.84	301.60	64.66	-46.5	-47.9	17.3	0.00e+00	0	56	0	749731840	55	4335
2026-01-05 01:26:47.79	297.30	64.48	-46.1	-47.5	17.8	0.00e+00	0	56	0	757071872	54	4343
2026-01-05 01:26:51.75	293.07	64.18	-46.1	-47.4	17.9	0.00e+00	0	56	0	765460480	54	4316
2026-01-05 01:26:55.70	288.99	63.75	-46.0	-47.3	17.9	0.00e+00	0	57	0	772800512	55	4026
2026-01-05 01:26:59.64	285.08	63.22	-45.6	-46.8	18.5	0.00e+00	0	56	0	780140544	54	4035
2026-01-05 01:27:03.59	281.36	62.58	-45.1	-46.3	18.9	0.00e+00	0	56	0	787480576	53	4018
2026-01-05 01:27:07.55	277.83	61.85	-46.0	-47.3	17.9	0.00e+00	0	56	0	794820608	53	4544
2026-01-05 01:27:11.51	274.51	61.03	-46.9	-48.5	16.7	0.00e+00	0	56	0	802160640	55	4631
2026-01-05 01:27:15.47	271.41	60.16	-48.1	-50.1	15.3	0.00e+00	0	57	0	809500672	58	4686
2026-01-05 01:27:19.44	268.52	59.22	-49.9	-53.3	12.0	2.83e-04	0	56	0	816840704	61	5710
2026-01-05 01:27:23.40	265.84	58.23	-49.4	-52.4	12.9	5.49e-05	0	57	0	824180736	61	5117
2026-01-05 01:27:27.36	263.35	57.21	-49.2	-51.9	13.3	5.11e-05	0	56	0	831520768	61	4860
2026-01-05 01:27:31.32	261.05	56.16	-48.0	-50.0	15.4	0.00e+00	0	56	0	838860800	59	4360
2026-01-05 01:27:35.27	258.92	55.09	-47.9	-50.0	15.5	0.00e+00	0	56	0	846200832	58	4608
2026-01-05 01:27:39.24	256.94	54.00	-47.7	-49.6	15.8	0.00e+00	0	56	0	853540864	57	4655
2026-01-05 01:27:43.18	255.12	52.91	-49.1	-51.9	13.4	7.60e-06	0	57	0	861929472	60	5116
2026-01-05 01:27:47.13	253.42	51.82	-48.5	-50.9	14.4	0.00e+00	0	56	0	869269504	60	4562
2026-01-05 01:27:51.10	251.84	50.71	-49.3	-52.2	13.1	3.28e-05	0	57	0	876609536	60	5287
2026-01-05 01:27:55.06	250.38	49.62	-49.5	-52.4	12.9	4.27e-05	0	57	0	883949568	60	5457
2026-01-05 01:27:59.02	249.02	48.53	-48.9	-51.4	14.0	1.50e-06	0	57	0	891289600	60	4844
2026-01-05 01:28:02.97	247.75	47.46	-48.3	-50.5	14.8	7.00e-07	0	56	0	898629632	59	4636
2026-01-05 01:28:06.91	246.57	46.40	-47.8	-49.7	15.6	0.00e+00	0	56	0	905969664	58	4490
2026-01-05 01:28:10.88	245.46	45.34	-48.0	-50.1	15.2	0.00e+00	0	57	0	913309696	58	4671
2026-01-05 01:28:14.85	244.42	44.31	-48.2	-50.3	15.0	7.00e-07	0	56	0	920649728	58	4814
2026-01-05 01:28:18.80	243.45	43.29	-49.1	-51.7	13.5	1.52e-05	0	57	0	927989760	60	5030
2026-01-05 01:28:22.76	242.54	42.29	-49.1	-51.8	13.5	1.14e-05	0	57	0	935329792	60	5066
2026-01-05 01:28:26.72	241.69	41.31	-49.7	-52.8	12.4	9.15e-05	0	57	0	942669824	61	5369
2026-01-05 01:28:30.65	240.89	40.36	-50.3	-54.2	11.0	2.40e-03	0	57	0	950009856	62	5966
2026-01-05 01:28:34.61	240.13	39.41	-50.7	-55.0	10.1	6.47e-03	0	57	0	957349888	63	6174
2026-01-05 01:28:38.56	239.41	38.49	-50.4	-54.3	10.9	1.56e-03	0	57	0	964689920	63	5693
2026-01-05 01:28:42.52	238.74	37.59	-49.6	-52.7	12.6	1.57e-04	0	57	0	973078528	62	5003
2026-01-05 01:28:46.48	238.10	36.70	-49.1	-51.8	13.5	2.28e-05	0	57	0	980418560	61	4786
2026-01-05 01:28:50.43	237.49	35.84	-48.6	-51.1	14.2	1.50e-06	0	57	0	987758592	60	4655
2026-01-05 01:28:54.39	236.92	34.99	-49.0	-51.6	13.7	4.50e-06	0	57	0	995098624	60	4966
2026-01-05 01:28:58.35	236.38	34.17	-49.4	-52.3	12.9	6.02e-05	0	57	0	1002438656	60	5382
2026-01-05 01:29:02.30	235.86	33.36	-48.7	-51.2	14.0	1.50e-06	0	57	0	1009778688	60	4724
2026-01-05 01:29:06.26	235.37	32.57	-49.1	-51.9	13.4	7.60e-06	0	57	0	1017118720	60	5128
2026-01-05 01:29:10.20	234.90	31.80	-49.5	-52.5	12.7	7.24e-05	0	57	0	1024458752	60	5502
2026-01-05 01:29:14.16	234.45	31.05	-49.5	-52.8	12.4	1.33e-04	0	57	0	1031798784	61	5368
2026-01-05 01:29:18.11	234.03	30.31	-48.9	-51.5	13.7	9.10e-06	0	57	0	1039138816	60	4917
2026-01-05 01:29:22.07	233.62	29.59	-49.2	-52.1	13.2	2.89e-05	0	57	0	1046478848	60	5230
2026-01-05 01:29:26.03	233.23	28.89	-49.5	-52.7	12.5	8.62e-05	0	57	0	1053818880	61	5291
2026-01-05 01:29:29.97	232.86	28.20	-49.4	-52.5	12.7	9.00e-05	0	57	0	1061158912	61	5191
2026-01-05 01:29:33.93	232.51	27.53	-48.8	-51.4	13.8	6.10e-06	0	57	0	1069547520	60	4844
2026-01-05 01:29:37.89	232.17	26.87	-48.6	-51.2	14.0	3.00e-06	0	57	0	1076887552	60	4714
2026-01-05 01:29:41.84	231.84	26.23	-48.8	-51.4	13.8	3.80e-06	0	57	0	1084227584	60	4861
2026-01-05 01:29:45.80	231.53	25.60	-49.0	-51.6	13.5	1.29e-05	0	57	0	1091567616	60	4979
2026-01-05 01:29:49.76	231.23	24.98	-48.9	-51.5	13.7	7.60e-06	0	57	0	1098907648	60	4898
2026-01-05 01:29:53.72	230.94	24.38	-48.9	-51.5	13.6	4.50e-06	0	57	0	1106247680	60	4901
2026-01-05 01:29:57.67	230.66	23.79	-49.1	-51.9	13.3	7.60e-06	0	57	0	1113587712	60	5105
2026-01-05 01:30:01.61	230.40	23.21	-48.5	-50.8	14.4	7.00e-07	0	57	0	1120927744	60	4540
2026-01-05 01:30:05.56	230.14	22.65	-48.2	-50.5	14.7	0.00e+00	0	57	0	1128267776	59	4605
2026-01-05 01:30:09.53	229.89	22.09	-47.8	-49.8	15.4	0.00e+00	0	57	0	1135607808	58	4502
2026-01-05 01:30:13.49	229.65	21.55	-47.7	-49.7	15.4	0.00e+00	0	57	0	1142947840	58	4467
2026-01-05 01:30:17.44	229.43	21.02	-47.9	-50.0	15.1	0.00e+00	0	57	0	1150287872	58	4610
2026-01-05 01:30:21.40	229.20	20.50	-47.9	-49.9	15.1	0.00e+00	0	57	0	1157627904	58	4592
2026-01-05 01:30:25.35	228.99	19.99	-48.0	-50.2	14.9	7.00e-07	0	57	0	1164967936	58	4707
2026-01-05 01:30:29.28	228.79	19.49	-47.9	-50.2	14.9	0.00e+00	0	57	0	1173356544	58	4726
2026-01-05 01:30:33.24	228.59	19.00	-48.1	-50.2	14.8	0.00e+00	0	57	0	1180696576	58	4752
2026-01-05 01:30:37.19	228.39	18.51	-48.2	-50.5	14.5	1.50e-06	0	57	0	1188036608	58	4902
2026-01-05 01:30:41.14	228.21	18.04	-48.2	-50.6	14.4	0.00e+00	0	57	0	1195376640	58	4948
2026-01-05 01:30:45.11	228.03	17.57	-48.4	-50.9	14.1	1.50e-06	0	57	0	1202716672	58	5114
2026-01-05 01:30:49.08	227.85	17.12	-47.9	-50.1	14.8	0.00e+00	0	57	0	1210056704	58	4691
2026-01-05 01:30:53.03	227.68	16.67	-48.1	-50.4	14.5	0.00e+00	0	57	0	1217396736	58	4831
2026-01-05 01:30:56.98	227.52	16.23	-48.6	-51.2	13.6	4.50e-06	0	57	0	1224736768	59	5024
2026-01-05 01:31:00.92	227.36	15.80	-48.8	-51.6	13.1	2.36e-05	0	57	0	1232076800	59	5266
2026-01-05 01:31:04.88	227.21	15.37	-48.7	-51.5	13.3	1.06e-05	0	57	0	1239416832	59	5160
2026-01-05 01:31:08.83	227.06	14.95	-48.8	-51.6	13.1	4.57e-05	0	57	0	1246756864	59	5270
2026-01-05 01:31:12.78	226.91	14.54	-48.8	-51.6	13.1	2.67e-05	0	57	0	1254096896	59	5253
2026-01-05 01:31:16.73	226.77	14.13	-48.6	-51.5	13.1	3.28e-05	0	57	0	1261436928	59	5203
2026-01-05 01:31:20.70	226.64	13.73	-48.9	-51.9	12.6	7.01e-05	0	57	0	1268776960	59	5455
2026-01-05 01:31:24.65	226.50	13.34	-49.1	-52.4	12.1	2.19e-04	0	57	0	1276116992	60	5439
2026-01-05 01:31:28.61	226.38	12.96	-49.2	-52.8	11.7	5.94e-04	0	57	0	1284505600	60	5672
2026-01-05 01:31:32.58	226.25	12.57	-49.4	-53.1	11.4	1.25e-03	0	57	0	1291845632	60	5880
2026-01-05 01:31:36.53	226.13	12.20	-49.2	-52.9	11.6	6.53e-04	0	57	0	1299185664	60	5735
2026-01-05 01:31:40.49	226.01	11.83	-49.4	-53.2	11.2	1.29e-03	0	57	0	1306525696	60	5978
2026-01-05 01:31:44.44	225.90	11.47	-49.5	-53.4	11.0	1.69e-03	0	57	0	1313865728	60	6088
2026-01-05 01:31:48.39	225.78	11.11	-49.6	-53.8	10.4	3.84e-03	0	57	0	1321205760	61	6054
2026-01-05 01:31:52.35	225.67	10.75	-49.7	-54.2	10.0	7.70e-03	0	57	0	1328545792	61	6302
2026-01-05 01:31:56.31	225.57	10.40	-49.8	-54.6	9.6	1.34e-02	0	57	0	1335885824	61	6587
2026-01-05 01:32:00.27	225.47	10.06	-49.9	-54.7	9.4	1.54e-02	0	57	0	1343225856	61	6663
2026-01-05 01:32:04.21	225.37	9.72	-50.1	-55.4	8.5	3.85e-02	0	57	0	1350565888	62	6861
2026-01-05 01:32:08.17	225.27	9.39	-50.1	-55.7	8.3	5.62e-02	0	57	0	1357905920	62	7060
2026-01-05 01:32:12.12	225.17	9.06	-50.2	-55.9	8.0	6.29e-02	0	57	0	1365245952	62	7257
2026-01-05 01:32:16.10	225.08	8.73	-50.2	-56.1	7.8	9.68e-02	0	57	0	1372585984	62	7407
2026-01-05 01:32:20.06	224.99	8.40	-50.2	-56.2	7.7	9.58e-02	0	57	0	1380974592	62	7475
2026-01-05 01:32:24.02	224.90	8.09	-50.1	-55.9	7.9	7.32e-02	0	57	0	1388314624	62	7220
2026-01-05 01:32:27.95	224.81	7.77	-49.9	-55.5	8.3	5.06e-02	0	57	0	1395654656	62	6906
2026-01-05 01:32:31.89	224.73	7.46	-50.0	-55.8	8.0	6.42e-02	0	57	0	1402994688	62	7135
2026-01-05 01:32:35.84	224.65	7.16	-50.0	-55.9	7.8	7.65e-02	0	57	0	1410334720	62	7227
2026-01-05 01:32:39.80	224.57	6.85	-50.2	-56.4	7.3	1.32e-01	0	57	0	1417674752	62	7702
2026-01-05 01:32:43.77	224.49	6.55	-50.1	-56.2	7.4	1.13e-01	0	57	0	1425014784	62	7533
2026-01-05 01:32:47.72	224.41	6.26	-50.2	-56.7	6.9	1.38e-01	0	57	0	1432354816	62	7968
2026-01-05 01:32:51.68	224.34	5.96	-50.2	-57.0	6.7	1.79e-01	0	57	0	1439694848	62	8192
2026-01-05 01:32:55.63	224.27	5.67	-50.4	-57.8	6.0	2.82e-01	0	57	0	1447034880	62	9050
2026-01-05 01:32:59.59	224.19	5.39	-50.1	-57.4	6.3	2.68e-01	0	57	0	1454374912	62	8581
2026-01-05 01:33:03.55	224.12	5.10	-50.3	-58.2	5.6	3.89e-01	0	57	0	1461714944	62	9491
2026-01-05 01:33:07.51	224.06	4.82	-52.1	-65.9	3.8	1.49e+00	0	57	104	1462763520	66	18243
2026-01-05 01:33:11.45	223.99	4.54	-52.4	-66.1	3.8	1.49e+00	0	57	104	1462763520	66	18701
2026-01-05 01:33:15.42	223.93	4.27	-52.2	-66.2	3.8	1.49e+00	0	57	104	1462763520	66	18869
2026-01-05 01:33:19.38	223.86	3.99	-52.4	-66.3	3.8	1.49e+00	0	57	104	1462763520	66	19052
2026-01-05 01:33:23.34	223.80	3.72	-52.6	-66.4	3.8	1.49e+00	0	57	104	1462763520	66	19185
2026-01-05 01:33:27.29	223.74	3.46	-52.6	-66.4	3.8	1.49e+00	0	57	104	1462763520	67	18194
2026-01-05 01:33:31.24	223.68	3.19	-52.6	-66.4	3.8	1.49e+00	0	57	104	1462763520	67	18144

#Closed at: 2026-01-05 01:33:35
#Recorded file [1462 MB]: D:/Data/31026_260105_043303.dat