passes_logs/2026/01/05/R3.0SM8_Murmansk_STILSPACE/R3.0SM8_Murmansk_STILSPACE__20260105_105651_SUOMI_NPP_rec.log

#Pass ID: 20260105_105651_SUOMI NPP
#Satellite: SUOMI NPP
#Configuration: NPP
#almurnet v.1.7.20240730
#Start time: 2026-01-05 10:56:51

#Version: 2.2.20231116
#Station: R3.0SM8_Murmansk_STILSPACE
#Location: 33.092731 lon 68.902999 lat
#TLE: 1 37849U 11061A   26003.96724563  .00000164  00000+0  98899-4 0  9990
#TLE: 2 37849  98.7800 306.1116 0002573  82.3190 277.8279 14.19522066735141

#Time	Az	El	Level	Level2	SNR	BER	BlckErr	Temp	State	Recorded	gain1	gain2
2026-01-05 10:56:51.70	185.67	3.02	-48.4	-62.1	3.8	1.49e+00	0	46	0	0	58	18716
2026-01-05 10:56:55.65	185.84	3.27	-48.4	-62.1	3.8	1.49e+00	0	46	104	0	58	18727
2026-01-05 10:56:59.63	186.02	3.52	-48.4	-62.1	3.8	1.49e+00	0	47	104	0	58	18668
2026-01-05 10:57:03.60	186.20	3.78	-48.4	-62.1	3.8	1.49e+00	0	47	104	0	58	18651
2026-01-05 10:57:07.55	186.38	4.04	-48.4	-62.1	3.8	1.49e+00	0	47	104	0	58	18687
2026-01-05 10:57:11.51	186.56	4.30	-48.4	-62.1	3.8	1.49e+00	0	48	104	0	58	18702
2026-01-05 10:57:15.48	186.75	4.56	-48.4	-62.1	3.8	1.49e+00	0	48	104	0	58	18680
2026-01-05 10:57:19.43	186.94	4.83	-48.4	-62.1	3.8	1.49e+00	0	48	104	0	58	18697
2026-01-05 10:57:23.40	187.14	5.10	-48.4	-62.1	3.8	1.49e+00	0	48	104	0	58	18640
2026-01-05 10:57:27.36	187.34	5.37	-48.4	-62.1	3.8	1.49e+00	0	49	104	0	58	18725
2026-01-05 10:57:31.30	187.54	5.64	-48.4	-62.1	3.8	1.49e+00	0	49	104	0	58	18644
2026-01-05 10:57:35.25	187.74	5.92	-48.2	-62.1	3.8	1.49e+00	0	49	104	0	58	18658
2026-01-05 10:57:39.23	187.95	6.20	-48.4	-62.1	3.8	1.49e+00	0	49	104	0	58	18686
2026-01-05 10:57:43.17	188.17	6.48	-48.4	-62.1	3.8	1.49e+00	0	49	104	0	58	18672
2026-01-05 10:57:47.12	188.38	6.76	-48.4	-62.1	3.8	1.49e+00	0	49	104	0	58	18713
2026-01-05 10:57:51.09	188.60	7.05	-48.4	-62.1	3.8	1.49e+00	0	50	104	0	58	18672
2026-01-05 10:57:55.05	188.83	7.34	-48.4	-62.1	3.8	1.49e+00	0	50	104	0	58	18721
2026-01-05 10:57:59.01	189.06	7.63	-48.4	-62.1	3.8	1.49e+00	0	50	104	0	58	18692
2026-01-05 10:58:02.99	189.29	7.93	-48.4	-62.1	3.8	1.49e+00	0	50	104	0	58	18724
2026-01-05 10:58:06.95	189.53	8.22	-48.4	-62.1	3.8	1.49e+00	0	51	104	0	58	18716
2026-01-05 10:58:10.89	189.77	8.53	-48.4	-62.1	3.8	1.49e+00	0	51	104	0	58	18690
2026-01-05 10:58:14.85	190.02	8.83	-48.4	-62.1	3.8	1.49e+00	0	51	104	0	58	18731
2026-01-05 10:58:18.81	190.27	9.14	-48.4	-62.2	3.8	1.49e+00	0	51	104	0	58	18746
2026-01-05 10:58:22.76	190.53	9.45	-48.4	-62.2	3.8	1.49e+00	0	51	104	0	58	18742
2026-01-05 10:58:26.71	190.79	9.77	-48.4	-62.1	3.8	1.49e+00	0	51	104	0	58	18717
2026-01-05 10:58:30.66	191.05	10.08	-48.4	-62.1	3.8	1.49e+00	0	52	104	0	58	18726
2026-01-05 10:58:34.62	191.33	10.41	-48.4	-62.1	3.8	1.49e+00	0	52	104	0	58	18700
2026-01-05 10:58:38.58	191.61	10.73	-48.4	-62.1	3.8	1.49e+00	0	52	104	0	58	18728
2026-01-05 10:58:42.55	191.89	11.06	-48.4	-62.1	3.8	1.49e+00	0	52	104	0	58	18716
2026-01-05 10:58:46.51	192.18	11.40	-48.4	-62.1	3.8	1.49e+00	0	52	104	0	58	18716
2026-01-05 10:58:50.46	192.48	11.74	-48.4	-62.2	3.8	1.49e+00	0	52	104	0	58	18767
2026-01-05 10:58:54.41	192.79	12.08	-48.4	-62.2	3.8	1.49e+00	0	52	104	0	58	18756
2026-01-05 10:58:58.36	193.10	12.42	-48.4	-62.2	3.8	1.49e+00	0	53	104	0	58	18787
2026-01-05 10:59:02.31	193.41	12.77	-48.4	-62.2	3.8	1.49e+00	0	52	104	0	58	18823
2026-01-05 10:59:06.27	193.74	13.13	-48.4	-62.2	3.8	1.49e+00	0	53	104	0	58	18736
2026-01-05 10:59:10.23	194.07	13.49	-48.4	-62.2	3.8	1.49e+00	0	53	104	0	58	18741
2026-01-05 10:59:14.20	194.41	13.85	-48.4	-62.2	3.8	1.49e+00	0	53	104	0	58	18733
2026-01-05 10:59:18.15	194.76	14.22	-48.4	-62.2	3.8	1.49e+00	0	53	104	0	58	18779
2026-01-05 10:59:22.10	195.12	14.59	-48.4	-62.1	3.8	1.49e+00	0	53	104	0	58	18716
2026-01-05 10:59:26.08	195.49	14.97	-48.4	-62.2	3.8	1.49e+00	0	53	104	0	58	18736
2026-01-05 10:59:30.02	195.86	15.35	-48.4	-62.1	3.8	1.49e+00	0	53	104	0	58	18718
2026-01-05 10:59:33.99	196.25	15.74	-48.4	-62.1	3.8	1.49e+00	0	53	104	0	58	18688
2026-01-05 10:59:37.95	196.64	16.13	-48.4	-62.1	3.8	1.49e+00	0	53	104	0	58	18719
2026-01-05 10:59:41.91	197.04	16.53	-48.4	-62.1	3.8	1.49e+00	0	53	104	0	58	18724
2026-01-05 10:59:45.87	197.46	16.93	-48.4	-62.1	3.8	1.49e+00	0	54	104	0	58	18716
2026-01-05 10:59:49.84	197.89	17.34	-48.4	-62.1	3.8	1.49e+00	0	54	104	0	58	18713
2026-01-05 10:59:53.80	198.32	17.76	-48.4	-62.1	3.8	1.49e+00	0	54	104	0	58	18724
2026-01-05 10:59:57.75	198.77	18.18	-48.4	-62.2	3.8	1.49e+00	0	54	104	0	58	18764
2026-01-05 11:00:01.71	199.23	18.60	-48.5	-62.1	3.8	1.49e+00	0	54	104	0	58	18729
2026-01-05 11:00:05.68	199.70	19.03	-48.4	-62.1	3.8	1.49e+00	0	54	104	0	58	18728
2026-01-05 11:00:09.65	200.19	19.47	-48.4	-62.2	3.8	1.49e+00	0	54	104	0	58	18790
2026-01-05 11:00:13.61	200.69	19.91	-48.4	-62.2	3.8	1.49e+00	0	54	104	0	58	18758
2026-01-05 11:00:17.58	201.21	20.36	-48.4	-62.2	3.8	1.49e+00	0	54	104	0	58	18761
2026-01-05 11:00:21.55	201.74	20.82	-48.4	-62.2	3.8	1.49e+00	0	54	104	0	58	18835
2026-01-05 11:00:25.53	202.29	21.28	-48.4	-62.2	3.8	1.49e+00	0	54	104	0	58	18798
2026-01-05 11:00:29.46	202.84	21.74	-48.5	-62.2	3.8	1.49e+00	0	54	104	0	58	18752
2026-01-05 11:00:33.43	203.42	22.21	-48.5	-62.2	3.8	1.49e+00	0	55	104	0	58	18832
2026-01-05 11:00:37.38	204.01	22.69	-48.4	-62.2	3.8	1.49e+00	0	55	104	0	58	18765
2026-01-05 11:00:41.32	204.62	23.17	-48.5	-62.2	3.8	1.49e+00	0	55	104	0	58	18812
2026-01-05 11:00:45.29	205.26	23.66	-48.5	-62.2	3.8	1.49e+00	0	55	104	0	58	18748
2026-01-05 11:00:49.24	205.91	24.15	-48.5	-62.2	3.8	1.49e+00	0	55	104	0	58	18772
2026-01-05 11:00:53.20	206.58	24.65	-48.4	-62.2	3.8	1.49e+00	0	55	104	0	58	18754
2026-01-05 11:00:57.16	207.27	25.16	-48.4	-62.2	3.8	1.49e+00	0	55	104	0	58	18735
2026-01-05 11:01:01.12	207.98	25.67	-48.4	-62.2	3.8	1.49e+00	0	55	104	0	58	18761
2026-01-05 11:01:05.09	208.72	26.19	-48.5	-62.2	3.8	1.49e+00	0	55	104	0	58	18759
2026-01-05 11:01:09.05	209.48	26.71	-48.5	-62.2	3.8	1.49e+00	0	55	104	0	58	18750
2026-01-05 11:01:13.02	210.27	27.24	-48.4	-62.2	3.8	1.49e+00	0	55	104	0	58	18778
2026-01-05 11:01:16.98	211.08	27.77	-48.4	-62.2	3.8	1.49e+00	0	55	104	0	58	18806
2026-01-05 11:01:20.93	211.92	28.30	-48.5	-62.2	3.8	1.49e+00	0	55	104	0	58	18820
2026-01-05 11:01:24.89	212.78	28.84	-48.5	-62.2	3.8	1.49e+00	0	55	104	0	58	18814
2026-01-05 11:01:28.84	213.68	29.38	-48.4	-62.2	3.8	1.49e+00	0	55	104	0	58	18782
2026-01-05 11:01:32.78	214.60	29.92	-48.4	-62.2	3.8	1.49e+00	0	55	104	0	58	18759
2026-01-05 11:01:36.73	215.55	30.46	-48.5	-62.2	3.8	1.49e+00	0	55	104	0	58	18752
2026-01-05 11:01:40.68	216.54	31.01	-48.4	-62.2	3.8	1.49e+00	0	55	104	0	58	18746
2026-01-05 11:01:44.62	217.55	31.56	-48.4	-62.2	3.8	1.49e+00	0	55	104	0	58	18783
2026-01-05 11:01:48.57	218.60	32.10	-48.5	-62.2	3.8	1.49e+00	0	55	104	0	58	18782
2026-01-05 11:01:52.52	219.69	32.65	-48.4	-62.2	3.8	1.49e+00	0	55	104	0	58	18755
2026-01-05 11:01:56.49	220.82	33.20	-48.4	-62.2	3.8	1.49e+00	0	55	104	0	58	18732
2026-01-05 11:02:00.45	221.99	33.74	-48.4	-62.2	3.8	1.49e+00	0	56	104	0	58	18769
2026-01-05 11:02:04.39	223.18	34.28	-48.5	-62.2	3.8	1.49e+00	0	55	104	0	58	18780
2026-01-05 11:02:08.35	224.43	34.81	-48.5	-62.2	3.8	1.49e+00	0	56	104	0	58	18812
2026-01-05 11:02:12.32	225.71	35.34	-48.5	-62.2	3.8	1.49e+00	0	56	104	0	58	18787
2026-01-05 11:02:16.29	227.04	35.87	-48.4	-62.2	3.8	1.49e+00	0	56	104	0	58	18788
2026-01-05 11:02:20.25	228.41	36.38	-48.4	-62.2	3.8	1.49e+00	0	56	104	0	58	18754
2026-01-05 11:02:24.22	229.82	36.88	-48.4	-62.2	3.8	1.49e+00	0	56	104	0	58	18767
2026-01-05 11:02:28.17	231.27	37.37	-48.5	-62.2	3.8	1.49e+00	0	56	104	0	58	18847
2026-01-05 11:02:32.13	232.77	37.85	-48.4	-62.2	3.8	1.49e+00	0	56	104	0	58	18786
2026-01-05 11:02:36.08	234.30	38.31	-48.4	-62.2	3.8	1.49e+00	0	56	104	0	58	18798
2026-01-05 11:02:40.02	235.87	38.75	-48.4	-62.2	3.8	1.49e+00	0	56	104	0	58	18732
2026-01-05 11:02:43.98	237.49	39.17	-48.4	-62.2	3.8	1.49e+00	0	56	104	0	58	18797
2026-01-05 11:02:47.94	239.16	39.58	-48.4	-62.2	3.8	1.49e+00	0	56	104	0	58	18813
2026-01-05 11:02:51.90	240.86	39.96	-48.5	-62.2	3.8	1.49e+00	0	56	104	0	58	18805
2026-01-05 11:02:55.86	242.60	40.31	-48.4	-62.2	3.8	1.49e+00	0	56	104	0	58	18789
2026-01-05 11:02:59.81	244.38	40.64	-48.4	-62.2	3.8	1.49e+00	0	56	104	0	58	18756
2026-01-05 11:03:03.77	246.19	40.94	-48.5	-62.2	3.8	1.49e+00	0	56	104	0	58	18799
2026-01-05 11:03:07.74	248.04	41.21	-48.5	-62.2	3.8	1.49e+00	0	56	104	0	58	18786
2026-01-05 11:03:11.71	249.92	41.45	-48.4	-62.2	3.8	1.49e+00	0	56	104	0	58	18756
2026-01-05 11:03:15.68	251.82	41.66	-48.4	-62.2	3.8	1.49e+00	0	56	104	0	58	18812
2026-01-05 11:03:19.65	253.75	41.84	-48.4	-62.2	3.8	1.49e+00	0	56	104	0	58	18798
2026-01-05 11:03:23.61	255.69	41.98	-48.4	-62.2	3.8	1.49e+00	0	56	104	0	58	18759
2026-01-05 11:03:27.57	257.64	42.08	-48.5	-62.2	3.8	1.49e+00	0	56	104	0	58	18822
2026-01-05 11:03:31.53	259.61	42.14	-48.4	-62.2	3.8	1.49e+00	0	56	104	0	58	18773
2026-01-05 11:03:35.48	261.57	42.17	-48.4	-62.2	3.8	1.49e+00	0	56	104	0	58	18820
2026-01-05 11:03:39.43	263.54	42.16	-48.5	-62.2	3.8	1.49e+00	0	56	104	0	58	18794
2026-01-05 11:03:43.41	265.51	42.12	-48.5	-62.2	3.8	1.49e+00	0	56	104	0	58	18878
2026-01-05 11:03:47.38	267.48	42.04	-48.4	-62.2	3.8	1.49e+00	0	56	104	0	58	18802
2026-01-05 11:03:51.33	269.42	41.92	-48.4	-62.2	3.8	1.49e+00	0	56	104	0	58	18763
2026-01-05 11:03:55.30	271.36	41.77	-48.4	-62.2	3.8	1.49e+00	0	56	104	0	58	18781
2026-01-05 11:03:59.25	273.26	41.58	-48.4	-62.2	3.8	1.49e+00	0	56	104	0	58	18789
2026-01-05 11:04:03.22	275.15	41.36	-48.5	-62.2	3.8	1.49e+00	0	56	104	0	58	18786
2026-01-05 11:04:07.17	277.01	41.10	-48.5	-62.2	3.8	1.49e+00	0	57	104	0	58	18800
2026-01-05 11:04:11.14	278.84	40.82	-48.5	-62.2	3.8	1.49e+00	0	57	104	0	58	18786
2026-01-05 11:04:15.11	280.64	40.51	-48.5	-62.2	3.8	1.49e+00	0	56	104	0	58	18830
2026-01-05 11:04:19.07	282.40	40.17	-48.4	-62.2	3.8	1.49e+00	0	57	104	0	58	18830
2026-01-05 11:04:23.03	284.13	39.80	-48.5	-62.2	3.8	1.49e+00	0	56	104	0	58	18780
2026-01-05 11:04:27.00	285.81	39.41	-48.5	-62.2	3.8	1.49e+00	0	57	104	0	58	18780
2026-01-05 11:04:30.94	287.45	39.00	-48.5	-62.2	3.8	1.49e+00	0	57	104	0	58	18802
2026-01-05 11:04:34.91	289.05	38.57	-48.4	-62.2	3.8	1.49e+00	0	57	104	0	58	18818
2026-01-05 11:04:38.87	290.61	38.12	-48.5	-62.2	3.8	1.49e+00	0	57	104	0	58	18793
2026-01-05 11:04:42.84	292.13	37.65	-48.4	-62.2	3.8	1.49e+00	0	57	104	0	58	18823
2026-01-05 11:04:46.79	293.60	37.17	-48.5	-62.2	3.8	1.49e+00	0	57	104	0	58	18822
2026-01-05 11:04:50.76	295.04	36.68	-48.4	-62.2	3.8	1.49e+00	0	56	104	0	58	18844
2026-01-05 11:04:54.73	296.43	36.17	-48.4	-62.2	3.8	1.49e+00	0	57	104	0	58	18822
2026-01-05 11:04:58.68	297.77	35.66	-48.5	-62.2	3.8	1.49e+00	0	57	104	0	58	18816
2026-01-05 11:05:02.62	299.07	35.14	-48.5	-62.2	3.8	1.49e+00	0	57	104	0	58	18839
2026-01-05 11:05:06.59	300.33	34.61	-48.5	-62.2	3.8	1.49e+00	0	57	104	0	58	18800
2026-01-05 11:05:10.54	301.55	34.08	-48.4	-62.2	3.8	1.49e+00	0	57	104	0	58	18794
2026-01-05 11:05:14.48	302.73	33.54	-48.5	-62.2	3.8	1.49e+00	0	57	104	0	58	18832
2026-01-05 11:05:18.44	303.88	33.00	-48.5	-62.2	3.8	1.49e+00	0	57	104	0	58	18833
2026-01-05 11:05:22.41	304.99	32.45	-48.5	-62.2	3.8	1.49e+00	0	57	104	0	58	18871
2026-01-05 11:05:26.37	306.06	31.91	-48.5	-62.2	3.8	1.49e+00	0	57	104	0	58	18781
2026-01-05 11:05:30.32	307.10	31.36	-48.4	-62.2	3.8	1.49e+00	0	57	104	0	58	18847
2026-01-05 11:05:34.27	308.10	30.82	-48.5	-62.2	3.8	1.49e+00	0	57	104	0	58	18801
2026-01-05 11:05:38.22	309.07	30.27	-48.4	-62.2	3.8	1.49e+00	0	57	104	0	58	18804
2026-01-05 11:05:42.18	310.01	29.73	-48.5	-62.2	3.8	1.49e+00	0	57	104	0	58	18816
2026-01-05 11:05:46.14	310.92	29.19	-48.4	-62.2	3.8	1.49e+00	0	57	104	0	58	18827
2026-01-05 11:05:50.10	311.80	28.65	-48.5	-62.2	3.8	1.49e+00	0	57	104	0	58	18829
2026-01-05 11:05:54.05	312.65	28.12	-48.5	-62.2	3.8	1.49e+00	0	57	104	0	58	18830
2026-01-05 11:05:58.02	313.48	27.59	-48.5	-62.2	3.8	1.49e+00	0	57	104	0	58	18834
2026-01-05 11:06:01.99	314.28	27.06	-48.4	-62.2	3.8	1.49e+00	0	57	104	0	58	18861
2026-01-05 11:06:05.94	315.05	26.54	-48.5	-62.2	3.8	1.49e+00	0	57	104	0	58	18860
2026-01-05 11:06:09.87	315.80	26.03	-48.5	-62.2	3.8	1.49e+00	0	57	104	0	58	18840
2026-01-05 11:06:13.84	316.53	25.52	-48.4	-62.2	3.8	1.49e+00	0	57	104	0	58	18823
2026-01-05 11:06:17.81	317.23	25.01	-48.5	-62.2	3.8	1.49e+00	0	57	104	0	58	18785
2026-01-05 11:06:21.78	317.92	24.51	-48.5	-62.2	3.8	1.49e+00	0	57	104	0	58	18830
2026-01-05 11:06:25.75	318.58	24.01	-48.5	-62.2	3.8	1.49e+00	0	57	104	0	58	18849
2026-01-05 11:06:29.69	319.22	23.52	-48.5	-62.2	3.8	1.49e+00	0	57	104	0	58	18859
2026-01-05 11:06:33.65	319.84	23.04	-48.5	-62.2	3.8	1.49e+00	0	57	104	0	58	18767
2026-01-05 11:06:37.59	320.44	22.56	-48.5	-62.2	3.8	1.49e+00	0	57	104	0	58	18854
2026-01-05 11:06:41.55	321.03	22.09	-48.5	-62.2	3.8	1.49e+00	0	57	104	0	58	18846
2026-01-05 11:06:45.51	321.60	21.63	-48.5	-62.2	3.8	1.49e+00	0	57	104	0	58	18838
2026-01-05 11:06:49.47	322.15	21.16	-48.5	-62.2	3.8	1.49e+00	0	57	104	0	58	18849
2026-01-05 11:06:53.42	322.69	20.71	-48.5	-62.2	3.8	1.49e+00	0	57	104	0	58	18796
2026-01-05 11:06:57.39	323.21	20.26	-48.4	-62.2	3.8	1.49e+00	0	57	104	0	58	18830
2026-01-05 11:07:01.34	323.72	19.82	-48.5	-62.2	3.8	1.49e+00	0	57	104	0	58	18830
2026-01-05 11:07:05.30	324.22	19.38	-48.5	-62.2	3.8	1.49e+00	0	57	104	0	58	18834
2026-01-05 11:07:09.26	324.70	18.95	-48.5	-62.2	3.8	1.49e+00	0	57	104	0	58	18812
2026-01-05 11:07:13.22	325.17	18.52	-48.5	-62.2	3.8	1.49e+00	0	57	104	0	58	18851
2026-01-05 11:07:17.18	325.62	18.10	-48.5	-62.2	3.8	1.49e+00	0	57	104	0	58	18892
2026-01-05 11:07:21.14	326.07	17.69	-48.5	-62.2	3.8	1.49e+00	0	57	104	0	58	18831
2026-01-05 11:07:25.10	326.50	17.28	-48.5	-62.2	3.8	1.49e+00	0	57	104	0	58	18901
2026-01-05 11:07:29.04	326.92	16.87	-48.5	-62.2	3.8	1.49e+00	0	57	104	0	58	18849
2026-01-05 11:07:32.99	327.33	16.48	-48.5	-62.2	3.8	1.49e+00	0	57	104	0	58	18867
2026-01-05 11:07:36.95	327.73	16.08	-48.5	-62.2	3.8	1.49e+00	0	57	104	0	58	18872
2026-01-05 11:07:40.91	328.12	15.69	-48.5	-62.2	3.8	1.49e+00	0	57	104	0	58	18857
2026-01-05 11:07:44.87	328.50	15.31	-48.5	-62.2	3.8	1.49e+00	0	57	104	0	58	18911
2026-01-05 11:07:48.83	328.88	14.93	-48.5	-62.2	3.8	1.49e+00	0	57	104	0	58	18939
2026-01-05 11:07:52.80	329.24	14.55	-48.5	-62.2	3.8	1.49e+00	0	57	104	0	58	18901
2026-01-05 11:07:56.75	329.60	14.19	-48.5	-62.2	3.8	1.49e+00	0	57	104	0	58	18910
2026-01-05 11:08:00.69	329.94	13.82	-48.5	-62.2	3.8	1.49e+00	0	57	104	0	58	18881
2026-01-05 11:08:04.65	330.28	13.46	-48.5	-62.2	3.8	1.49e+00	0	57	104	0	58	18893
2026-01-05 11:08:08.62	330.61	13.11	-48.5	-62.2	3.8	1.49e+00	0	57	104	0	58	18910
2026-01-05 11:08:12.58	330.94	12.75	-48.5	-62.2	3.8	1.49e+00	0	57	104	0	58	18844
2026-01-05 11:08:16.54	331.25	12.41	-48.5	-62.2	3.8	1.49e+00	0	57	104	0	58	18877
2026-01-05 11:08:20.50	331.56	12.06	-48.5	-62.2	3.8	1.49e+00	0	57	104	0	58	18885
2026-01-05 11:08:24.47	331.87	11.72	-48.5	-62.2	3.8	1.49e+00	0	57	104	0	58	18923
2026-01-05 11:08:28.41	332.16	11.39	-48.5	-62.2	3.8	1.49e+00	0	57	104	0	58	18868
2026-01-05 11:08:32.36	332.45	11.06	-48.5	-62.2	3.8	1.49e+00	0	57	104	0	58	18847
2026-01-05 11:08:36.33	332.74	10.73	-48.5	-62.2	3.8	1.49e+00	0	57	104	0	58	18869
2026-01-05 11:08:40.27	333.02	10.41	-48.5	-62.2	3.8	1.49e+00	0	57	104	0	58	18879
2026-01-05 11:08:44.23	333.29	10.09	-48.5	-62.2	3.8	1.49e+00	0	57	104	0	58	18934
2026-01-05 11:08:48.21	333.56	9.77	-48.5	-62.2	3.8	1.49e+00	0	57	104	0	58	18866
2026-01-05 11:08:52.17	333.82	9.46	-48.5	-62.2	3.8	1.49e+00	0	57	104	0	58	18794
2026-01-05 11:08:56.14	334.08	9.15	-48.5	-62.2	3.8	1.49e+00	0	57	104	0	58	18839
2026-01-05 11:09:00.10	334.33	8.84	-48.5	-62.2	3.8	1.49e+00	0	57	104	0	58	18866
2026-01-05 11:09:04.08	334.58	8.54	-48.4	-62.2	3.8	1.49e+00	0	57	104	0	58	18850
2026-01-05 11:09:08.04	334.82	8.24	-48.5	-62.2	3.8	1.49e+00	0	57	104	0	58	18873
2026-01-05 11:09:12.01	335.06	7.94	-48.5	-62.2	3.8	1.49e+00	0	57	104	0	58	18907
2026-01-05 11:09:15.98	335.29	7.65	-48.5	-62.2	3.8	1.49e+00	0	57	104	0	58	18889
2026-01-05 11:09:19.94	335.52	7.36	-48.5	-62.2	3.8	1.49e+00	0	57	104	0	58	18912
2026-01-05 11:09:23.90	335.75	7.07	-48.5	-62.2	3.8	1.49e+00	0	57	104	0	58	18874
2026-01-05 11:09:27.85	335.97	6.79	-48.5	-62.2	3.8	1.49e+00	0	57	104	0	58	18866
2026-01-05 11:09:31.81	336.19	6.51	-48.5	-62.2	3.8	1.49e+00	0	57	104	0	58	18851
2026-01-05 11:09:35.77	336.40	6.23	-48.5	-62.2	3.8	1.49e+00	0	57	104	0	58	18886
2026-01-05 11:09:39.72	336.61	5.95	-48.5	-62.2	3.8	1.49e+00	0	57	104	0	58	18863
2026-01-05 11:09:43.69	336.82	5.68	-48.4	-62.2	3.8	1.49e+00	0	57	104	0	58	18856
2026-01-05 11:09:47.66	337.02	5.41	-48.5	-62.2	3.8	1.49e+00	0	57	104	0	58	18846
2026-01-05 11:09:51.61	337.22	5.14	-48.5	-62.2	3.8	1.49e+00	0	57	104	0	58	18906
2026-01-05 11:09:55.56	337.42	4.87	-48.5	-62.2	3.8	1.49e+00	0	57	104	0	58	18866
2026-01-05 11:09:59.52	337.61	4.61	-48.5	-62.2	3.8	1.49e+00	0	57	104	0	58	18917
2026-01-05 11:10:03.49	337.80	4.35	-48.5	-62.2	3.8	1.49e+00	0	57	104	0	58	18890
2026-01-05 11:10:07.45	337.99	4.09	-48.5	-62.2	3.8	1.49e+00	0	57	104	0	58	18836
2026-01-05 11:10:11.40	338.17	3.83	-48.5	-62.2	3.8	1.49e+00	0	58	104	0	58	18894
2026-01-05 11:10:15.36	338.35	3.58	-48.5	-62.2	3.8	1.49e+00	0	57	104	0	58	18872
2026-01-05 11:10:19.32	338.53	3.32	-48.5	-62.2	3.8	1.49e+00	0	57	104	0	58	18915
2026-01-05 11:10:23.28	338.71	3.07	-48.5	-62.2	3.8	1.49e+00	0	57	104	0	58	18919

#Closed at: 2026-01-05 11:10:27
#Recorded file [0 MB]: D:/Data/31026_260105_135651.dat