passes_logs/2026/01/05/R3.0SM8_Murmansk_STILSPACE/R3.0SM8_Murmansk_STILSPACE__20260105_040706_AQUA_rec.log

#Pass ID: 20260105_040706_AQUA
#Satellite: AQUA
#Configuration: AQUA
#almurnet v.1.7.20240730
#Start time: 2026-01-05 04:07:06

#Version: 2.2.20231116
#Station: R3.0SM8_Murmansk_STILSPACE
#Location: 33.092731 lon 68.902999 lat
#TLE: 1 27424U 02022A   26003.93831470  .00001925  00000+0  39553-3 0  9995
#TLE: 2 27424  98.4067 330.1809 0002003  92.1713 343.8415 14.61796291259276

#Time	Az	El	Level	Level2	SNR	BER	BlckErr	Temp	State	Recorded	gain1	gain2
2026-01-05 04:07:06.86	30.19	2.99	-54.2	-74.1	3.8	7.45e-01	0	47	0	0	70	38081
2026-01-05 04:07:09.83	30.04	3.19	-53.9	-73.9	3.8	7.42e-01	0	47	104	0	70	36982
2026-01-05 04:07:12.80	29.88	3.38	-53.5	-73.3	3.8	7.45e-01	0	47	104	0	70	34507
2026-01-05 04:07:15.76	29.72	3.58	-53.1	-72.9	3.8	7.42e-01	0	47	104	0	69	34944
2026-01-05 04:07:18.73	29.56	3.78	-53.1	-72.8	3.8	7.44e-01	0	47	104	0	69	34858
2026-01-05 04:07:21.70	29.40	3.98	-53.0	-72.5	3.8	7.46e-01	0	48	104	0	69	33510
2026-01-05 04:07:24.66	29.23	4.18	-52.9	-71.7	3.8	7.46e-01	0	48	104	0	69	30674
2026-01-05 04:07:27.62	29.06	4.38	-52.6	-69.9	3.8	7.46e-01	0	48	104	0	68	26347
2026-01-05 04:07:30.58	28.89	4.58	-52.1	-67.7	3.8	7.42e-01	0	48	104	0	67	21617
2026-01-05 04:07:33.56	28.71	4.78	-51.4	-65.7	3.8	7.47e-01	0	48	104	0	66	18211
2026-01-05 04:07:36.53	28.54	4.99	-50.8	-64.3	3.8	7.43e-01	0	49	104	0	65	16468
2026-01-05 04:07:39.49	28.35	5.20	-50.9	-64.4	3.8	7.46e-01	0	49	104	0	65	16662
2026-01-05 04:07:42.45	28.17	5.41	-51.3	-65.5	3.8	7.46e-01	0	49	104	0	65	18881
2026-01-05 04:07:45.42	27.98	5.62	-52.2	-67.8	3.8	7.41e-01	0	49	104	0	66	23136
2026-01-05 04:07:48.39	27.79	5.83	-52.7	-69.9	3.8	7.43e-01	0	49	104	0	67	27791
2026-01-05 04:07:51.36	27.60	6.05	-52.8	-70.1	3.8	7.43e-01	0	49	104	0	67	28578
2026-01-05 04:07:54.32	27.40	6.26	-52.7	-69.6	3.8	7.47e-01	0	50	104	0	67	26988
2026-01-05 04:07:57.30	27.20	6.48	-52.3	-68.1	3.8	7.42e-01	0	50	104	0	67	22641
2026-01-05 04:08:00.26	27.00	6.70	-51.2	-65.0	3.8	7.43e-01	0	50	104	0	66	16810
2026-01-05 04:08:03.22	26.79	6.92	-50.6	-63.7	3.8	7.44e-01	0	50	104	0	64	16162
2026-01-05 04:08:06.20	26.58	7.14	-50.9	-64.3	3.8	7.44e-01	0	50	104	0	64	17439
2026-01-05 04:08:09.15	26.37	7.37	-51.0	-64.6	3.8	7.42e-01	0	50	104	0	64	18012
2026-01-05 04:08:12.12	26.15	7.59	-50.3	-63.2	3.8	7.47e-01	0	50	104	0	64	15378
2026-01-05 04:08:15.09	25.93	7.82	-49.7	-62.1	3.8	7.44e-01	0	50	104	0	63	14287
2026-01-05 04:08:18.07	25.70	8.05	-49.2	-61.3	3.8	7.48e-01	0	51	104	0	62	13757
2026-01-05 04:08:21.04	25.47	8.28	-49.2	-61.2	3.8	7.43e-01	0	51	104	0	61	14537
2026-01-05 04:08:24.01	25.23	8.52	-49.7	-62.0	3.8	7.47e-01	0	51	104	0	61	15896
2026-01-05 04:08:26.99	24.99	8.76	-50.5	-63.4	3.8	7.45e-01	0	51	104	0	63	16535
2026-01-05 04:08:29.94	24.75	8.99	-51.0	-64.4	3.8	7.45e-01	0	51	104	0	64	17512
2026-01-05 04:08:32.90	24.50	9.23	-51.4	-65.0	3.8	7.45e-01	0	51	104	0	65	17850
2026-01-05 04:08:35.87	24.25	9.47	-52.3	-67.2	3.8	7.42e-01	0	51	104	0	66	21721
2026-01-05 04:08:38.84	23.99	9.72	-53.0	-69.5	3.8	7.46e-01	0	51	104	0	68	25152
2026-01-05 04:08:41.83	23.73	9.97	-52.9	-69.2	3.8	7.45e-01	0	52	104	0	68	24408
2026-01-05 04:08:44.80	23.46	10.22	-52.9	-69.0	3.8	7.44e-01	0	52	104	0	68	23809
2026-01-05 04:08:47.76	23.19	10.47	-52.1	-66.6	3.8	7.45e-01	0	52	104	0	67	19089
2026-01-05 04:08:50.74	22.91	10.72	-50.7	-63.7	3.8	7.44e-01	0	52	104	0	65	15230
2026-01-05 04:08:53.70	22.62	10.97	-50.4	-63.1	3.8	7.45e-01	0	52	104	0	63	15953
2026-01-05 04:08:56.69	22.33	11.23	-50.7	-63.5	3.8	7.41e-01	0	52	104	0	64	15903
2026-01-05 04:08:59.66	22.04	11.49	-50.0	-62.4	3.8	7.44e-01	0	52	104	0	63	14781
2026-01-05 04:09:02.64	21.74	11.76	-49.2	-61.1	3.8	7.46e-01	0	52	104	0	61	14213
2026-01-05 04:09:05.62	21.43	12.02	-48.6	-60.3	3.8	7.43e-01	0	53	104	0	60	13773
2026-01-05 04:09:08.59	21.11	12.29	-48.6	-60.2	3.8	7.45e-01	0	52	104	0	60	13725
2026-01-05 04:09:11.57	20.79	12.56	-49.2	-61.1	3.8	7.45e-01	0	52	104	0	60	15092
2026-01-05 04:09:14.55	20.46	12.84	-49.7	-61.9	3.8	7.49e-01	0	53	104	0	61	15684
2026-01-05 04:09:17.52	20.13	13.11	-50.6	-63.4	3.8	7.44e-01	0	53	104	0	63	16596
2026-01-05 04:09:20.49	19.79	13.39	-51.2	-64.6	3.8	7.43e-01	0	53	104	0	65	16947
2026-01-05 04:09:23.46	19.44	13.67	-50.6	-63.3	3.8	7.46e-01	0	53	104	0	64	15494
2026-01-05 04:09:26.45	19.09	13.95	-51.9	-65.9	3.8	7.45e-01	0	53	104	0	65	19787
2026-01-05 04:09:29.41	18.72	14.24	-52.7	-68.2	3.8	7.43e-01	0	53	104	0	67	22976
2026-01-05 04:09:32.37	18.35	14.52	-52.6	-67.9	3.8	7.45e-01	0	53	104	0	67	22181
2026-01-05 04:09:35.35	17.98	14.81	-52.7	-68.0	3.8	7.43e-01	0	53	104	0	67	22371
2026-01-05 04:09:38.31	17.59	15.11	-51.6	-65.1	3.8	7.44e-01	0	53	104	0	66	16966
2026-01-05 04:09:41.28	17.20	15.40	-50.2	-62.7	3.8	7.40e-01	0	53	104	0	64	14379
2026-01-05 04:09:44.24	16.79	15.70	-50.5	-63.1	3.8	7.42e-01	0	53	104	0	63	16019
2026-01-05 04:09:47.22	16.38	16.00	-49.7	-61.8	3.8	7.44e-01	0	53	104	0	63	13871
2026-01-05 04:09:50.19	15.96	16.30	-48.9	-60.6	3.8	7.43e-01	0	53	104	0	61	13497
2026-01-05 04:09:53.16	15.53	16.61	-48.5	-60.0	3.8	7.45e-01	0	54	104	0	59	14094
2026-01-05 04:09:56.13	15.09	16.92	-48.4	-59.8	3.8	7.45e-01	0	54	104	0	59	13804
2026-01-05 04:09:59.09	14.64	17.23	-48.8	-60.4	3.8	7.46e-01	0	54	104	0	60	13988
2026-01-05 04:10:02.06	14.18	17.54	-49.7	-61.8	3.8	7.45e-01	0	54	104	0	61	15565
2026-01-05 04:10:05.03	13.70	17.86	-50.3	-62.8	3.8	7.46e-01	0	54	104	0	62	16350
2026-01-05 04:10:08.01	13.22	18.18	-51.2	-64.4	3.8	7.43e-01	0	54	104	0	64	17617
2026-01-05 04:10:10.97	12.73	18.50	-50.2	-62.6	3.8	7.43e-01	0	54	104	0	64	14366
2026-01-05 04:10:13.94	12.22	18.82	-50.1	-62.3	3.8	7.47e-01	0	54	104	0	63	14600
2026-01-05 04:10:16.90	11.71	19.15	-51.4	-64.7	3.8	7.43e-01	0	54	104	0	64	18169
2026-01-05 04:10:19.87	11.18	19.48	-52.5	-67.1	3.8	7.47e-01	0	54	104	0	67	20288
2026-01-05 04:10:22.82	10.64	19.80	-52.5	-67.3	3.8	7.42e-01	0	54	104	0	67	20663
2026-01-05 04:10:25.78	10.09	20.14	-52.7	-68.0	3.8	7.45e-01	0	54	104	0	67	22346
2026-01-05 04:10:28.75	9.52	20.47	-51.5	-64.9	3.8	7.44e-01	0	54	104	0	66	16536
2026-01-05 04:10:31.72	8.94	20.81	-50.5	-63.1	3.8	7.43e-01	0	54	104	0	64	15122
2026-01-05 04:10:34.70	8.35	21.15	-49.7	-61.7	3.8	7.49e-01	0	54	104	0	62	14406
2026-01-05 04:10:37.67	7.74	21.49	-49.8	-62.3	3.8	7.45e-01	0	54	104	0	62	15449
2026-01-05 04:10:40.65	7.12	21.83	-49.9	-63.1	3.8	7.45e-01	0	54	104	0	62	17001
2026-01-05 04:10:43.61	6.48	22.18	-50.9	-66.6	3.8	7.45e-01	0	54	104	0	64	22750
2026-01-05 04:10:46.59	5.82	22.52	-51.2	-67.4	3.8	7.48e-01	0	55	104	0	64	24786
2026-01-05 04:10:49.57	5.15	22.87	-51.7	-67.5	3.8	7.47e-01	0	55	104	0	65	23632
2026-01-05 04:10:52.53	4.47	23.22	-51.5	-67.1	3.8	7.47e-01	0	55	104	0	65	22542
2026-01-05 04:10:55.50	3.77	23.56	-51.2	-66.1	3.8	7.46e-01	0	55	104	0	65	20287
2026-01-05 04:10:58.48	3.05	23.91	-50.9	-64.4	3.8	7.44e-01	0	55	104	0	65	16674
2026-01-05 04:11:01.45	2.32	24.26	-49.7	-61.8	3.8	7.49e-01	0	55	104	0	63	13818
2026-01-05 04:11:04.41	1.57	24.61	-49.9	-62.0	3.8	7.45e-01	0	55	104	0	62	14990
2026-01-05 04:11:07.39	0.80	24.96	-51.2	-64.3	3.8	7.46e-01	0	55	104	0	64	17431
2026-01-05 04:11:10.35	0.01	25.31	-52.1	-66.2	3.8	7.46e-01	0	55	104	0	66	19258
2026-01-05 04:11:13.33	359.20	25.65	-52.5	-67.1	3.8	7.47e-01	0	55	104	0	67	20080
2026-01-05 04:11:16.31	358.37	26.00	-52.1	-66.1	3.8	7.45e-01	0	55	104	0	67	18033
2026-01-05 04:11:19.29	357.53	26.34	-50.6	-63.2	3.8	7.44e-01	0	55	104	0	64	15249
2026-01-05 04:11:22.25	356.67	26.68	-49.6	-61.5	3.8	7.44e-01	0	55	104	0	62	14082
2026-01-05 04:11:25.24	355.78	27.03	-49.0	-60.7	3.8	7.44e-01	0	55	104	0	61	13658
2026-01-05 04:11:28.20	354.88	27.36	-49.2	-61.0	3.8	7.45e-01	0	55	104	0	61	14075
2026-01-05 04:11:31.17	353.96	27.69	-48.5	-59.9	3.8	7.44e-01	0	55	104	0	60	13205
2026-01-05 04:11:34.13	353.02	28.02	-48.6	-59.9	3.8	7.43e-01	0	55	104	0	59	14046
2026-01-05 04:11:37.10	352.05	28.35	-49.3	-61.1	3.8	7.43e-01	0	55	104	0	60	15105
2026-01-05 04:11:40.07	351.07	28.66	-48.7	-60.3	3.8	7.46e-01	0	55	104	0	61	13006
2026-01-05 04:11:43.04	350.06	28.98	-48.4	-59.8	3.8	7.42e-01	0	55	104	0	60	13017
2026-01-05 04:11:45.99	349.05	29.28	-48.8	-60.4	3.8	7.46e-01	0	55	104	0	60	13949
2026-01-05 04:11:48.96	348.00	29.59	-48.8	-60.3	3.8	7.46e-01	0	55	104	0	60	13800
2026-01-05 04:11:51.92	346.94	29.88	-48.7	-60.2	3.8	7.43e-01	0	55	104	0	60	13640
2026-01-05 04:11:54.89	345.85	30.16	-49.4	-61.3	3.8	7.43e-01	0	55	104	0	61	14548
2026-01-05 04:11:57.87	344.74	30.44	-50.8	-63.3	3.8	7.45e-01	0	56	104	0	63	16484
2026-01-05 04:12:00.83	343.62	30.71	-51.7	-65.2	3.8	7.47e-01	0	56	104	0	65	18144
2026-01-05 04:12:03.78	342.49	30.97	-51.6	-64.9	3.8	7.43e-01	0	55	104	0	66	16552
2026-01-05 04:12:06.75	341.32	31.22	-50.7	-63.3	3.8	7.47e-01	0	56	104	0	65	14573
2026-01-05 04:12:09.72	340.14	31.45	-49.3	-61.1	3.8	7.43e-01	0	56	104	0	62	13445
2026-01-05 04:12:12.70	338.94	31.68	-48.6	-60.0	3.8	7.46e-01	0	56	104	0	60	13413
2026-01-05 04:12:15.66	337.73	31.89	-48.6	-60.1	3.8	7.45e-01	0	56	104	0	60	13433
2026-01-05 04:12:18.63	336.49	32.09	-49.2	-60.9	3.8	7.45e-01	0	55	104	0	60	14751
2026-01-05 04:12:21.60	335.25	32.28	-48.6	-60.1	3.8	7.42e-01	0	56	104	0	60	13553
2026-01-05 04:12:24.56	333.99	32.45	-48.9	-60.5	3.8	7.44e-01	0	56	104	0	60	14138
2026-01-05 04:12:27.52	332.72	32.61	-48.9	-60.4	3.8	7.46e-01	0	56	104	0	61	13232
2026-01-05 04:12:30.49	331.43	32.75	-48.3	-59.6	3.8	7.46e-01	0	56	104	0	60	12798
2026-01-05 04:12:33.46	330.13	32.88	-48.5	-59.8	3.8	7.43e-01	0	56	104	0	59	13857
2026-01-05 04:12:36.43	328.82	32.99	-48.7	-60.1	3.8	7.45e-01	0	56	104	0	59	14307
2026-01-05 04:12:39.40	327.50	33.09	-48.8	-60.4	3.8	7.45e-01	0	56	104	0	60	13975
2026-01-05 04:12:42.36	326.18	33.17	-49.8	-61.8	3.8	7.43e-01	0	56	104	0	61	15530
2026-01-05 04:12:45.33	324.85	33.23	-50.4	-62.6	3.8	7.43e-01	0	56	104	0	63	15207
2026-01-05 04:12:48.30	323.52	33.27	-51.2	-64.1	3.8	7.43e-01	0	56	104	0	64	17028
2026-01-05 04:12:51.27	322.18	33.30	-51.5	-64.7	3.8	7.45e-01	0	56	104	0	66	16142
2026-01-05 04:12:54.25	320.83	33.31	-50.7	-63.1	3.9	7.38e-01	0	56	104	0	65	14251
2026-01-05 04:12:57.22	319.49	33.31	-50.8	-54.1	19.0	6.04e-01	0	56	0	3145728	64	5364
2026-01-05 04:13:00.17	318.16	33.28	-49.5	-51.8	21.3	6.03e-01	0	56	0	8388608	62	4617
2026-01-05 04:13:03.14	316.82	33.24	-48.5	-50.4	22.6	6.02e-01	0	56	0	14155776	60	4423
2026-01-05 04:13:06.11	315.49	33.18	-48.6	-50.5	22.5	6.00e-01	0	56	0	19398656	60	4478
2026-01-05 04:13:09.07	314.17	33.11	-48.9	-50.8	22.6	6.04e-01	0	56	0	25165824	59	4912
2026-01-05 04:13:12.04	312.85	33.01	-48.4	-50.2	23.1	6.02e-01	0	56	0	30408704	59	4573
2026-01-05 04:13:15.00	311.54	32.91	-48.7	-50.7	22.3	6.03e-01	0	56	0	36175872	60	4563
2026-01-05 04:13:17.97	310.24	32.78	-49.0	-51.1	22.0	6.04e-01	0	56	0	41943040	60	4786
2026-01-05 04:13:20.94	308.95	32.64	-49.5	-51.9	21.2	6.01e-01	0	56	0	47185920	61	4932
2026-01-05 04:13:23.91	307.67	32.49	-48.6	-50.6	22.5	6.04e-01	0	56	0	52953088	60	4503
2026-01-05 04:13:26.87	306.41	32.32	-48.6	-50.6	22.4	6.03e-01	0	56	0	58720256	60	4508
2026-01-05 04:13:29.84	305.15	32.13	-48.3	-50.0	23.3	6.04e-01	0	56	0	63963136	59	4484
2026-01-05 04:13:32.81	303.92	31.93	-48.4	-50.2	22.6	6.03e-01	0	56	0	69730304	60	4321
2026-01-05 04:13:35.79	302.69	31.72	-49.2	-51.4	21.7	6.01e-01	0	56	0	74973184	60	4945
2026-01-05 04:13:38.76	301.49	31.50	-48.3	-50.1	23.3	6.04e-01	0	56	0	80740352	59	4500
2026-01-05 04:13:41.73	300.30	31.26	-49.1	-51.3	21.7	6.02e-01	0	56	0	86507520	60	4914
2026-01-05 04:13:44.69	299.14	31.02	-48.5	-50.3	23.1	6.03e-01	0	56	0	91750400	59	4603
2026-01-05 04:13:47.68	297.98	30.76	-48.9	-51.0	22.1	6.02e-01	0	56	0	97517568	60	4722
2026-01-05 04:13:50.64	296.85	30.49	-49.2	-51.3	21.6	6.04e-01	0	56	0	103284736	60	4926
2026-01-05 04:13:53.62	295.74	30.22	-49.3	-51.5	21.5	6.03e-01	0	56	0	108527616	60	5026
2026-01-05 04:13:56.60	294.64	29.93	-48.9	-51.0	22.0	6.04e-01	0	56	0	114294784	60	4723
2026-01-05 04:13:59.56	293.57	29.64	-49.2	-51.5	21.6	6.05e-01	0	56	0	119537664	60	4994
2026-01-05 04:14:02.53	292.52	29.34	-48.5	-50.4	22.6	6.05e-01	0	56	0	125304832	60	4410
2026-01-05 04:14:05.50	291.49	29.03	-48.3	-50.1	22.8	6.05e-01	0	56	0	131072000	60	4258
2026-01-05 04:14:08.46	290.49	28.72	-48.8	-50.9	22.1	6.03e-01	0	56	0	136314880	60	4676
2026-01-05 04:14:11.41	289.50	28.40	-48.5	-50.3	22.7	6.04e-01	0	56	0	142082048	60	4378
2026-01-05 04:14:14.38	288.53	28.08	-48.9	-51.0	21.9	6.03e-01	0	56	0	147324928	60	4720
2026-01-05 04:14:17.35	287.58	27.75	-48.6	-50.4	22.9	6.02e-01	0	56	0	153092096	59	4661
2026-01-05 04:14:20.34	286.65	27.41	-48.8	-50.9	22.1	6.04e-01	0	56	0	158859264	60	4668
2026-01-05 04:14:23.31	285.74	27.08	-48.3	-50.0	23.1	6.03e-01	0	56	0	164102144	59	4482
2026-01-05 04:14:26.28	284.85	26.74	-48.8	-50.7	22.4	6.06e-01	0	56	0	169869312	59	4846
2026-01-05 04:14:29.25	283.98	26.40	-49.0	-51.2	21.8	6.03e-01	0	56	0	175636480	60	4832
2026-01-05 04:14:32.21	283.13	26.05	-49.0	-51.1	21.5	6.04e-01	0	56	0	180879360	60	4802
2026-01-05 04:14:35.20	282.30	25.70	-48.2	-49.9	22.7	6.02e-01	0	56	0	186646528	60	4177
2026-01-05 04:14:38.17	281.49	25.36	-48.4	-50.2	22.6	6.03e-01	0	56	0	192413696	60	4295
2026-01-05 04:14:41.11	280.70	25.01	-48.4	-50.1	22.9	6.04e-01	0	56	0	197656576	59	4530
2026-01-05 04:14:44.09	279.92	24.66	-48.6	-50.5	22.2	6.04e-01	0	56	0	203423744	60	4466
2026-01-05 04:14:47.05	279.17	24.31	-49.0	-51.2	21.5	6.03e-01	0	56	0	208666624	61	4557
2026-01-05 04:14:50.01	278.43	23.96	-49.0	-51.2	21.8	6.01e-01	0	56	0	214433792	60	4815
2026-01-05 04:14:52.98	277.71	23.62	-49.3	-51.5	21.4	6.03e-01	0	56	0	219676672	60	5036
2026-01-05 04:14:55.96	277.00	23.27	-48.4	-50.3	22.6	6.05e-01	0	56	0	225443840	60	4353
2026-01-05 04:14:58.93	276.31	22.92	-48.4	-50.3	22.5	6.05e-01	0	56	0	231211008	60	4384
2026-01-05 04:15:01.90	275.64	22.57	-48.8	-50.8	22.2	6.03e-01	0	56	0	236453888	60	4620
2026-01-05 04:15:04.85	274.99	22.23	-48.4	-50.3	22.6	6.01e-01	0	56	0	242221056	60	4343
2026-01-05 04:15:07.82	274.34	21.88	-48.4	-50.3	22.6	6.03e-01	0	56	0	247988224	60	4354
2026-01-05 04:15:10.78	273.72	21.54	-48.3	-50.1	22.8	6.04e-01	0	56	0	253231104	60	4271
2026-01-05 04:15:13.75	273.10	21.20	-48.6	-50.6	22.3	6.04e-01	0	56	0	258998272	60	4524
2026-01-05 04:15:16.72	272.51	20.86	-48.6	-50.6	22.3	6.03e-01	0	57	0	264241152	60	4512
2026-01-05 04:15:19.67	271.93	20.52	-49.0	-51.2	21.7	5.99e-01	0	56	0	270008320	60	4828
2026-01-05 04:15:22.63	271.36	20.18	-49.0	-51.1	21.8	6.04e-01	0	56	0	275775488	60	4768
2026-01-05 04:15:25.60	270.80	19.85	-48.7	-50.7	22.2	6.03e-01	0	56	0	281018368	60	4547
2026-01-05 04:15:28.56	270.25	19.52	-48.4	-50.2	22.6	6.04e-01	0	56	0	286785536	60	4338
2026-01-05 04:15:31.53	269.72	19.19	-48.4	-50.3	22.5	6.05e-01	0	57	0	292028416	60	4380
2026-01-05 04:15:34.51	269.20	18.86	-48.5	-50.4	22.5	6.01e-01	0	57	0	297795584	60	4411
2026-01-05 04:15:37.48	268.69	18.53	-48.3	-50.2	22.6	6.02e-01	0	57	0	303562752	60	4338
2026-01-05 04:15:40.44	268.19	18.21	-48.5	-50.5	22.3	6.03e-01	0	57	0	308805632	60	4443
2026-01-05 04:15:43.41	267.71	17.89	-48.4	-50.3	22.5	6.05e-01	0	57	0	314572800	60	4370
2026-01-05 04:15:46.38	267.23	17.57	-48.3	-50.2	22.5	6.02e-01	0	57	0	319815680	60	4340
2026-01-05 04:15:49.34	266.77	17.26	-48.6	-50.5	22.2	6.05e-01	0	57	0	325582848	60	4479
2026-01-05 04:15:52.32	266.31	16.95	-48.9	-51.0	21.9	6.04e-01	0	56	0	331350016	60	4713
2026-01-05 04:15:55.27	265.87	16.64	-48.8	-50.9	21.9	6.02e-01	0	57	0	336592896	60	4656
2026-01-05 04:15:58.25	265.43	16.33	-48.3	-50.2	22.6	6.03e-01	0	57	0	342360064	60	4302
2026-01-05 04:16:01.21	265.01	16.03	-48.5	-50.5	22.3	6.04e-01	0	56	0	347602944	60	4445
2026-01-05 04:16:04.18	264.59	15.72	-48.6	-50.6	22.2	6.03e-01	0	57	0	353370112	60	4496
2026-01-05 04:16:07.14	264.19	15.43	-48.3	-50.2	22.5	6.02e-01	0	57	0	359137280	60	4304
2026-01-05 04:16:10.13	263.79	15.13	-48.4	-50.4	22.4	6.01e-01	0	56	0	364380160	60	4396
2026-01-05 04:16:13.10	263.40	14.83	-48.5	-50.5	22.3	6.04e-01	0	57	0	370147328	60	4468
2026-01-05 04:16:16.06	263.02	14.54	-48.6	-50.6	22.1	6.04e-01	0	57	0	375390208	60	4538
2026-01-05 04:16:19.02	262.64	14.25	-48.5	-50.5	22.2	6.02e-01	0	57	0	381157376	60	4465
2026-01-05 04:16:21.99	262.28	13.97	-48.9	-51.1	21.7	6.04e-01	0	57	0	386924544	60	4781
2026-01-05 04:16:24.96	261.92	13.68	-48.9	-51.0	21.7	6.04e-01	0	57	0	392167424	60	4733
2026-01-05 04:16:27.93	261.57	13.40	-48.7	-50.9	21.7	6.01e-01	0	57	0	397934592	60	4652
2026-01-05 04:16:30.74	261.24	13.14	-48.4	-50.3	22.3	6.03e-01	0	57	0	403701760	60	4371
2026-01-05 04:16:33.87	260.89	12.85	-48.5	-50.5	22.1	6.02e-01	0	57	0	409468928	60	4487
2026-01-05 04:16:36.69	260.58	12.59	-48.7	-50.9	21.8	6.00e-01	0	57	0	414711808	60	4657
2026-01-05 04:16:39.80	260.24	12.30	-49.1	-51.5	21.2	6.04e-01	0	57	0	420478976	60	4987
2026-01-05 04:16:42.63	259.94	12.05	-49.1	-51.4	21.2	6.02e-01	0	57	0	426246144	60	4973
2026-01-05 04:16:45.75	259.61	11.77	-49.5	-52.0	20.6	6.02e-01	0	57	0	432013312	61	5004
2026-01-05 04:16:48.57	259.32	11.52	-48.8	-51.0	21.6	6.05e-01	0	57	0	437256192	61	4474
2026-01-05 04:16:51.67	259.01	11.25	-48.7	-50.9	21.7	6.03e-01	0	57	0	443023360	60	4660
2026-01-05 04:16:54.49	258.73	11.00	-49.0	-51.3	21.3	6.02e-01	0	57	0	448266240	60	4874
2026-01-05 04:16:57.60	258.43	10.73	-48.9	-51.1	21.5	6.00e-01	0	57	0	454033408	60	4766
2026-01-05 04:17:00.43	258.16	10.49	-49.1	-51.4	21.2	6.04e-01	0	57	0	459276288	60	4936
2026-01-05 04:17:03.53	257.88	10.23	-49.1	-51.5	21.1	6.04e-01	0	57	0	465043456	60	5012
2026-01-05 04:17:06.36	257.62	9.99	-49.3	-51.8	20.8	6.03e-01	0	57	0	470286336	60	5175
2026-01-05 04:17:09.47	257.34	9.73	-49.3	-51.8	20.7	6.04e-01	0	57	0	476577792	61	4890
2026-01-05 04:17:12.30	257.09	9.49	-49.5	-52.0	20.5	6.04e-01	0	57	0	481820672	61	5031
2026-01-05 04:17:15.40	256.82	9.24	-49.2	-51.7	20.9	6.03e-01	0	57	0	487587840	61	4815
2026-01-05 04:17:18.24	256.58	9.01	-49.3	-51.7	20.7	6.02e-01	0	57	0	492830720	61	4860
2026-01-05 04:17:21.34	256.33	8.76	-49.0	-51.4	21.0	6.01e-01	0	57	0	498597888	61	4686
2026-01-05 04:17:24.17	256.10	8.53	-49.2	-51.6	20.8	6.03e-01	0	57	0	503840768	61	4796
2026-01-05 04:17:27.28	255.85	8.29	-49.2	-51.6	20.8	6.01e-01	0	57	0	509607936	61	4801
2026-01-05 04:17:30.10	255.62	8.06	-49.2	-51.7	20.7	6.02e-01	0	57	0	514850816	61	4849
2026-01-05 04:17:33.21	255.38	7.82	-49.3	-51.9	20.4	6.02e-01	0	57	0	520617984	61	4971
2026-01-05 04:17:36.05	255.17	7.60	-49.2	-51.8	20.6	6.03e-01	0	57	0	525860864	61	4889
2026-01-05 04:17:39.16	254.94	7.36	-49.4	-52.1	20.2	6.03e-01	0	57	0	532152320	61	5061
2026-01-05 04:17:42.00	254.73	7.15	-49.3	-52.0	20.3	6.03e-01	0	57	0	537395200	61	4992
2026-01-05 04:17:45.10	254.51	6.92	-49.5	-52.2	20.0	6.04e-01	0	57	0	543162368	61	5141
2026-01-05 04:17:47.94	254.31	6.70	-49.3	-51.9	20.3	6.02e-01	0	57	0	548405248	61	4964
2026-01-05 04:17:51.04	254.09	6.47	-49.3	-52.0	20.1	6.04e-01	0	57	0	554172416	61	5009
2026-01-05 04:17:53.87	253.90	6.26	-49.5	-52.3	19.8	6.03e-01	0	57	0	559415296	61	5193
2026-01-05 04:17:56.99	253.69	6.04	-49.5	-52.4	19.7	6.01e-01	0	57	0	565182464	61	5234
2026-01-05 04:17:59.82	253.50	5.83	-49.6	-52.5	19.6	6.04e-01	0	57	0	570949632	61	5319
2026-01-05 04:18:02.92	253.30	5.61	-49.7	-52.7	19.4	6.02e-01	0	57	0	576716800	61	5431
2026-01-05 04:18:05.76	253.12	5.41	-49.9	-53.1	18.9	6.02e-01	0	57	0	581959680	62	5379
2026-01-05 04:18:08.88	252.92	5.19	-49.9	-53.2	18.7	6.02e-01	0	57	0	587726848	62	5438
2026-01-05 04:18:11.70	252.75	4.99	-53.3	-72.5	3.8	7.44e-01	0	57	104	591396864	68	35514
2026-01-05 04:18:14.81	252.56	4.77	-53.2	-73.0	3.8	7.43e-01	0	57	104	591396864	68	37711
2026-01-05 04:18:17.63	252.39	4.58	-54.2	-74.1	3.8	7.46e-01	0	57	104	591396864	70	37877
2026-01-05 04:18:20.74	252.21	4.36	-54.2	-74.1	3.8	7.47e-01	0	57	104	591396864	70	38230
2026-01-05 04:18:23.57	252.04	4.17	-54.3	-74.2	3.8	7.45e-01	0	57	104	591396864	70	38613
2026-01-05 04:18:26.69	251.87	3.96	-54.4	-74.3	3.8	7.48e-01	0	57	104	591396864	70	39033
2026-01-05 04:18:29.50	251.71	3.77	-54.4	-74.4	3.8	7.46e-01	0	57	104	591396864	71	36977
2026-01-05 04:18:32.61	251.54	3.56	-54.4	-74.4	3.8	7.46e-01	0	57	104	591396864	71	37146
2026-01-05 04:18:35.44	251.38	3.37	-54.5	-74.4	3.8	7.47e-01	0	57	104	591396864	71	37257
2026-01-05 04:18:38.55	251.22	3.17	-54.5	-74.4	3.8	7.47e-01	0	57	104	591396864	71	37182
2026-01-05 04:18:41.38	251.07	2.98	-54.4	-74.4	3.8	7.43e-01	0	57	104	591396864	71	37078

#Closed at: 2026-01-05 04:18:42
#Recorded file [591 MB]: D:/Data/31026_260105_071810.dat