passes_logs/2026/01/05/R3.0SM8_Murmansk_STILSPACE/R3.0SM8_Murmansk_STILSPACE__20260105_054407_AQUA_rec.log

#Pass ID: 20260105_054407_AQUA
#Satellite: AQUA
#Configuration: AQUA
#almurnet v.1.7.20240730
#Start time: 2026-01-05 05:44:07

#Version: 2.2.20231116
#Station: R3.0SM8_Murmansk_STILSPACE
#Location: 33.092731 lon 68.902999 lat
#TLE: 1 27424U 02022A   26003.93831470  .00001925  00000+0  39553-3 0  9995
#TLE: 2 27424  98.4067 330.1809 0002003  92.1713 343.8415 14.61796291259276

#Time	Az	El	Level	Level2	SNR	BER	BlckErr	Temp	State	Recorded	gain1	gain2
2026-01-05 05:44:07.06	42.58	3.00	-54.1	-74.1	3.8	7.46e-01	0	50	0	0	70	37893
2026-01-05 05:44:10.02	42.34	3.17	-53.8	-73.8	3.8	7.47e-01	0	50	104	0	70	36587
2026-01-05 05:44:12.99	42.10	3.35	-53.3	-73.1	3.8	7.43e-01	0	50	104	0	70	34046
2026-01-05 05:44:15.97	41.85	3.53	-53.1	-72.9	3.8	7.45e-01	0	50	104	0	69	34995
2026-01-05 05:44:18.94	41.59	3.71	-53.1	-72.8	3.8	7.48e-01	0	50	104	0	69	34693
2026-01-05 05:44:21.92	41.34	3.88	-53.1	-72.8	3.8	7.44e-01	0	51	104	0	69	34705
2026-01-05 05:44:24.90	41.08	4.07	-53.1	-72.9	3.8	7.45e-01	0	51	104	0	69	34976
2026-01-05 05:44:27.85	40.81	4.25	-53.1	-73.0	3.8	7.47e-01	0	51	104	0	69	35289
2026-01-05 05:44:30.81	40.55	4.43	-53.1	-72.7	3.8	7.46e-01	0	51	104	0	69	34233
2026-01-05 05:44:33.78	40.28	4.61	-52.9	-71.4	3.8	7.45e-01	0	51	104	0	69	29480
2026-01-05 05:44:36.75	40.00	4.79	-52.4	-68.8	3.8	7.43e-01	0	51	104	0	68	23104
2026-01-05 05:44:39.72	39.72	4.98	-51.6	-66.3	3.8	7.50e-01	0	51	104	0	66	19609
2026-01-05 05:44:42.69	39.44	5.16	-51.5	-65.9	3.8	7.46e-01	0	52	104	0	66	18681
2026-01-05 05:44:45.65	39.15	5.35	-51.9	-67.1	3.8	7.42e-01	0	52	104	0	66	21451
2026-01-05 05:44:48.62	38.86	5.53	-52.5	-68.9	3.8	7.46e-01	0	52	104	0	67	24732
2026-01-05 05:44:51.58	38.57	5.72	-52.8	-70.4	3.8	7.44e-01	0	52	104	0	67	29483
2026-01-05 05:44:54.57	38.27	5.91	-53.0	-71.0	3.8	7.42e-01	0	52	104	0	68	29916
2026-01-05 05:44:57.53	37.97	6.10	-53.0	-70.6	3.8	7.47e-01	0	52	104	0	68	28432
2026-01-05 05:45:00.50	37.66	6.29	-52.8	-69.8	3.8	7.44e-01	0	52	104	0	68	25892
2026-01-05 05:45:03.47	37.34	6.48	-52.1	-67.2	3.8	7.45e-01	0	52	104	0	67	20353
2026-01-05 05:45:06.45	37.03	6.67	-51.1	-64.7	3.8	7.47e-01	0	53	104	0	65	17168
2026-01-05 05:45:09.41	36.70	6.86	-50.9	-64.2	3.8	7.42e-01	0	53	104	0	65	16250
2026-01-05 05:45:12.38	36.38	7.05	-50.9	-64.4	3.8	7.44e-01	0	53	104	0	65	16529
2026-01-05 05:45:15.34	36.05	7.24	-50.3	-63.1	3.8	7.46e-01	0	53	104	0	64	15185
2026-01-05 05:45:18.31	35.71	7.44	-50.3	-63.0	3.8	7.45e-01	0	53	104	0	63	15880
2026-01-05 05:45:21.27	35.37	7.63	-49.9	-62.4	3.8	7.46e-01	0	53	104	0	63	14784
2026-01-05 05:45:24.23	35.02	7.83	-49.8	-62.2	3.8	7.45e-01	0	53	104	0	63	14477
2026-01-05 05:45:27.19	34.67	8.02	-50.7	-63.6	3.8	7.43e-01	0	53	104	0	63	17081
2026-01-05 05:45:30.16	34.31	8.22	-51.7	-65.9	3.8	7.48e-01	0	53	104	0	65	19720
2026-01-05 05:45:33.12	33.95	8.42	-52.3	-67.4	3.8	7.45e-01	0	53	104	0	66	22160
2026-01-05 05:45:36.08	33.58	8.62	-52.6	-68.4	3.8	7.45e-01	0	53	104	0	67	23557
2026-01-05 05:45:39.06	33.21	8.82	-53.0	-69.9	3.8	7.44e-01	0	53	104	0	68	26420
2026-01-05 05:45:42.02	32.83	9.02	-53.1	-70.4	3.8	7.45e-01	0	53	104	0	68	27943
2026-01-05 05:45:44.97	32.44	9.21	-53.0	-70.0	3.8	7.45e-01	0	54	104	0	68	26461
2026-01-05 05:45:47.93	32.05	9.41	-52.8	-68.9	3.8	7.47e-01	0	54	104	0	68	23499
2026-01-05 05:45:50.91	31.65	9.62	-52.2	-67.0	3.8	7.43e-01	0	54	104	0	68	18942
2026-01-05 05:45:53.88	31.25	9.82	-50.9	-64.1	3.8	7.44e-01	0	54	104	0	65	16080
2026-01-05 05:45:56.84	30.84	10.02	-50.1	-62.6	3.8	7.46e-01	0	54	104	0	63	15055
2026-01-05 05:45:59.80	30.43	10.22	-50.1	-62.5	3.8	7.42e-01	0	54	104	0	63	15003
2026-01-05 05:46:02.77	30.00	10.43	-50.2	-62.7	3.8	7.45e-01	0	54	104	0	63	15308
2026-01-05 05:46:05.75	29.57	10.63	-49.8	-62.1	3.8	7.41e-01	0	54	104	0	63	14297
2026-01-05 05:46:08.71	29.14	10.84	-50.4	-63.1	3.8	7.44e-01	0	54	104	0	63	16016
2026-01-05 05:46:11.68	28.69	11.04	-50.0	-62.3	3.8	7.45e-01	0	54	104	0	63	14596
2026-01-05 05:46:14.64	28.25	11.24	-49.9	-62.2	3.8	7.47e-01	0	54	104	0	63	14469
2026-01-05 05:46:17.61	27.79	11.45	-51.2	-64.5	3.8	7.47e-01	0	54	104	0	64	17712
2026-01-05 05:46:20.58	27.33	11.65	-52.5	-67.7	3.8	7.47e-01	0	54	104	0	67	21753
2026-01-05 05:46:23.55	26.85	11.86	-52.7	-68.4	3.8	7.45e-01	0	54	104	0	67	23345
2026-01-05 05:46:26.52	26.38	12.07	-52.9	-69.2	3.8	7.43e-01	0	55	104	0	68	24321
2026-01-05 05:46:29.47	25.89	12.27	-53.2	-70.1	3.8	7.44e-01	0	54	104	0	68	26894
2026-01-05 05:46:32.45	25.40	12.48	-52.7	-68.4	3.8	7.44e-01	0	55	104	0	68	22031
2026-01-05 05:46:35.42	24.90	12.68	-52.5	-67.5	3.8	7.44e-01	0	55	104	0	68	19904
2026-01-05 05:46:38.38	24.39	12.89	-52.0	-66.2	3.8	7.47e-01	0	55	104	0	67	18234
2026-01-05 05:46:41.35	23.87	13.09	-50.8	-63.8	3.8	7.44e-01	0	55	104	0	65	15462
2026-01-05 05:46:44.30	23.35	13.30	-49.7	-61.8	3.8	7.41e-01	0	55	104	0	63	13759
2026-01-05 05:46:47.26	22.82	13.50	-49.1	-60.9	3.8	7.46e-01	0	55	104	0	61	13963
2026-01-05 05:46:50.23	22.28	13.70	-49.2	-61.1	3.8	7.44e-01	0	55	104	0	61	14220
2026-01-05 05:46:53.21	21.73	13.91	-49.4	-61.4	3.9	7.43e-01	0	55	104	0	61	14755
2026-01-05 05:46:56.17	21.18	14.11	-50.0	-62.2	3.8	7.42e-01	0	55	104	0	62	15386
2026-01-05 05:46:59.15	20.61	14.31	-50.8	-63.6	3.8	7.43e-01	0	55	104	0	63	16996
2026-01-05 05:47:02.12	20.04	14.51	-50.3	-62.7	3.8	7.41e-01	0	55	104	0	63	15326
2026-01-05 05:47:05.08	19.46	14.71	-50.6	-63.3	3.8	7.43e-01	0	55	104	0	63	16470
2026-01-05 05:47:08.06	18.87	14.91	-52.0	-66.2	3.8	7.44e-01	0	55	104	0	66	19241
2026-01-05 05:47:11.03	18.27	15.11	-53.1	-69.3	3.8	7.41e-01	0	55	104	0	68	24490
2026-01-05 05:47:14.00	17.66	15.31	-53.1	-69.2	3.8	7.48e-01	0	55	104	0	68	24333
2026-01-05 05:47:16.96	17.05	15.50	-53.3	-70.1	3.8	7.43e-01	0	55	104	0	68	26878
2026-01-05 05:47:19.92	16.42	15.69	-52.7	-68.1	3.8	7.42e-01	0	55	104	0	68	21493
2026-01-05 05:47:22.89	15.79	15.89	-51.6	-65.3	3.8	7.44e-01	0	55	104	0	66	17372
2026-01-05 05:47:25.86	15.15	16.08	-51.3	-64.5	3.8	7.45e-01	0	55	104	0	66	15937
2026-01-05 05:47:28.82	14.50	16.26	-50.6	-63.3	3.8	7.43e-01	0	55	104	0	64	15406
2026-01-05 05:47:31.79	13.84	16.45	-49.6	-61.6	3.8	7.45e-01	0	55	104	0	62	14257
2026-01-05 05:47:34.76	13.17	16.63	-48.8	-60.5	3.8	7.43e-01	0	56	104	0	61	13319
2026-01-05 05:47:37.74	12.49	16.82	-48.9	-60.5	3.8	7.45e-01	0	55	104	0	61	13379
2026-01-05 05:47:40.71	11.81	17.00	-49.2	-60.9	3.8	7.44e-01	0	55	104	0	61	14038
2026-01-05 05:47:43.68	11.11	17.17	-50.1	-62.4	3.8	7.43e-01	0	56	104	0	62	15590
2026-01-05 05:47:46.65	10.41	17.35	-50.7	-63.3	3.8	7.46e-01	0	56	104	0	63	16495
2026-01-05 05:47:49.61	9.70	17.52	-51.2	-64.4	3.8	7.44e-01	0	55	104	0	65	16596
2026-01-05 05:47:52.57	8.98	17.68	-50.9	-63.7	3.8	7.46e-01	0	56	104	0	65	15354
2026-01-05 05:47:55.55	8.25	17.85	-51.4	-64.8	3.8	7.45e-01	0	56	104	0	65	17328
2026-01-05 05:47:58.52	7.51	18.01	-52.7	-68.2	3.8	7.44e-01	0	56	104	0	67	22997
2026-01-05 05:48:01.50	6.76	18.17	-52.0	-66.4	3.8	7.44e-01	0	56	104	0	67	18561
2026-01-05 05:48:04.46	6.01	18.32	-51.6	-66.7	3.8	7.46e-01	0	56	104	0	66	20466
2026-01-05 05:48:07.42	5.25	18.47	-51.4	-69.5	3.8	7.45e-01	0	56	104	0	66	28275
2026-01-05 05:48:10.39	4.48	18.62	-51.0	-69.4	3.8	7.44e-01	0	56	104	0	65	29398
2026-01-05 05:48:13.34	3.70	18.76	-50.4	-68.3	3.8	7.51e-01	0	56	104	0	64	27506
2026-01-05 05:48:16.31	2.92	18.89	-50.7	-69.1	3.8	7.45e-01	0	56	104	0	64	30252
2026-01-05 05:48:19.29	2.12	19.03	-50.9	-66.1	3.8	7.44e-01	0	56	104	0	64	21443
2026-01-05 05:48:22.26	1.32	19.15	-49.5	-61.5	3.8	7.44e-01	0	56	104	0	62	14199
2026-01-05 05:48:25.23	0.51	19.28	-49.1	-60.9	3.8	7.47e-01	0	56	104	0	61	14005
2026-01-05 05:48:28.20	359.70	19.39	-49.4	-61.4	3.8	7.41e-01	0	56	104	0	61	14819
2026-01-05 05:48:31.15	358.88	19.51	-50.0	-62.2	3.8	7.43e-01	0	56	104	0	62	15282
2026-01-05 05:48:34.13	358.05	19.61	-50.7	-63.4	3.8	7.43e-01	0	56	104	0	63	16631
2026-01-05 05:48:37.11	357.21	19.71	-51.6	-65.1	3.8	7.43e-01	0	56	104	0	65	17998
2026-01-05 05:48:40.09	356.37	19.81	-52.0	-66.1	3.8	7.40e-01	0	56	104	0	66	19024
2026-01-05 05:48:43.05	355.53	19.90	-51.5	-65.1	3.8	7.43e-01	0	56	104	0	66	16926
2026-01-05 05:48:46.02	354.68	19.98	-52.3	-66.8	3.8	7.45e-01	0	56	104	0	66	20773
2026-01-05 05:48:48.99	353.83	20.06	-52.0	-66.0	3.8	7.46e-01	0	56	104	0	67	17856
2026-01-05 05:48:51.95	352.97	20.13	-50.9	-63.8	3.8	7.44e-01	0	56	104	0	65	15496
2026-01-05 05:48:54.92	352.11	20.20	-51.2	-64.4	3.8	7.45e-01	0	56	104	0	65	16586
2026-01-05 05:48:57.90	351.24	20.26	-51.3	-64.7	3.8	7.41e-01	0	56	104	0	65	17103
2026-01-05 05:49:00.86	350.37	20.31	-50.2	-62.5	3.8	7.46e-01	0	56	104	0	64	14139
2026-01-05 05:49:03.83	349.50	20.35	-50.1	-62.4	3.8	7.43e-01	0	56	104	0	63	14721
2026-01-05 05:49:06.80	348.62	20.39	-49.4	-61.3	3.8	7.38e-01	0	56	104	0	62	13784
2026-01-05 05:49:09.76	347.75	20.43	-49.3	-61.2	3.8	7.44e-01	0	56	104	0	61	14519
2026-01-05 05:49:12.73	346.87	20.45	-50.1	-62.6	3.8	7.43e-01	0	56	104	0	62	16030
2026-01-05 05:49:15.71	345.98	20.47	-49.9	-62.1	3.8	7.44e-01	0	56	104	0	62	15143
2026-01-05 05:49:18.67	345.10	20.48	-50.3	-62.6	3.8	7.46e-01	0	56	104	0	62	16070
2026-01-05 05:49:21.64	344.22	20.49	-50.8	-63.7	3.9	7.48e-01	0	56	104	0	64	16262
2026-01-05 05:49:24.61	343.34	20.48	-51.4	-64.9	3.8	7.44e-01	0	56	104	0	65	17558
2026-01-05 05:49:27.57	342.46	20.48	-52.5	-67.5	3.8	7.47e-01	0	56	104	0	67	21146
2026-01-05 05:49:30.54	341.58	20.46	-52.6	-67.6	3.8	7.44e-01	0	56	104	0	67	21452
2026-01-05 05:49:33.50	340.70	20.44	-52.3	-66.9	3.8	7.43e-01	0	56	104	0	67	19742
2026-01-05 05:49:36.47	339.82	20.41	-52.3	-67.1	3.8	7.46e-01	0	56	104	0	67	20201
2026-01-05 05:49:39.43	338.95	20.37	-51.5	-65.5	3.8	7.46e-01	0	56	104	0	66	17767
2026-01-05 05:49:42.40	338.07	20.33	-51.0	-64.4	3.8	7.43e-01	0	56	104	0	65	16651
2026-01-05 05:49:45.36	337.20	20.28	-51.3	-65.4	3.8	7.43e-01	0	56	104	0	65	18689
2026-01-05 05:49:48.34	336.33	20.23	-50.6	-63.7	3.8	7.44e-01	0	56	104	0	64	16211
2026-01-05 05:49:51.31	335.47	20.16	-49.7	-61.8	3.9	7.42e-01	0	56	104	0	62	14689
2026-01-05 05:49:54.28	334.61	20.09	-49.6	-61.8	3.8	7.44e-01	0	56	104	0	62	14641
2026-01-05 05:49:57.24	333.75	20.02	-48.5	-60.0	3.8	7.45e-01	0	56	104	0	60	13279
2026-01-05 05:50:00.21	332.90	19.94	-49.0	-60.6	3.8	7.48e-01	0	56	104	0	60	14352
2026-01-05 05:50:03.18	332.05	19.85	-49.4	-61.1	3.8	7.42e-01	0	56	104	0	61	14281
2026-01-05 05:50:06.15	331.21	19.76	-50.0	-61.9	3.8	7.43e-01	0	56	104	0	62	14822
2026-01-05 05:50:09.12	330.37	19.66	-50.5	-63.0	3.8	7.43e-01	0	57	104	0	63	15922
2026-01-05 05:50:12.09	329.54	19.56	-51.2	-64.4	3.8	7.41e-01	0	56	104	0	64	17595
2026-01-05 05:50:15.05	328.72	19.45	-52.1	-65.8	3.8	7.40e-01	0	56	104	0	66	18475
2026-01-05 05:50:18.02	327.90	19.33	-52.5	-66.6	3.8	7.45e-01	0	56	104	0	67	19009
2026-01-05 05:50:20.99	327.09	19.21	-52.2	-66.1	3.8	7.45e-01	0	56	104	0	67	18005
2026-01-05 05:50:23.96	326.29	19.09	-51.6	-65.5	3.8	7.44e-01	0	56	104	0	66	17703
2026-01-05 05:50:26.92	325.49	18.96	-50.4	-63.0	3.8	7.47e-01	0	56	104	0	64	14901
2026-01-05 05:50:29.87	324.71	18.82	-49.8	-61.5	3.8	7.45e-01	0	56	104	0	63	13363
2026-01-05 05:50:32.84	323.92	18.68	-49.2	-61.0	3.8	7.45e-01	0	56	104	0	62	13270
2026-01-05 05:50:35.81	323.15	18.54	-49.1	-60.7	3.8	7.48e-01	0	56	104	0	61	13574
2026-01-05 05:50:38.77	322.38	18.39	-49.1	-61.0	3.9	7.43e-01	0	56	104	0	61	14150
2026-01-05 05:50:41.75	321.62	18.24	-48.6	-50.7	21.2	6.03e-01	0	57	0	0	60	4557
2026-01-05 05:50:44.73	320.87	18.08	-48.7	-50.7	21.9	6.02e-01	0	56	0	5767168	60	4595
2026-01-05 05:50:47.70	320.13	17.92	-49.1	-51.4	21.4	6.04e-01	0	56	0	11010048	60	4956
2026-01-05 05:50:50.66	319.39	17.76	-48.7	-50.8	22.0	6.05e-01	0	56	0	16777216	60	4615
2026-01-05 05:50:53.64	318.67	17.59	-49.0	-51.2	21.6	6.02e-01	0	57	0	22020096	60	4842
2026-01-05 05:50:56.61	317.95	17.42	-48.6	-50.5	22.2	6.02e-01	0	57	0	27787264	60	4486
2026-01-05 05:50:59.58	317.24	17.25	-48.8	-50.9	21.7	6.05e-01	0	57	0	33554432	60	4691
2026-01-05 05:51:02.54	316.54	17.08	-48.8	-50.9	21.3	6.04e-01	0	57	0	38797312	60	4662
2026-01-05 05:51:05.50	315.85	16.90	-48.2	-50.1	22.6	6.03e-01	0	57	0	44564480	60	4282
2026-01-05 05:51:08.47	315.17	16.72	-48.7	-50.8	21.5	6.03e-01	0	57	0	49807360	60	4648
2026-01-05 05:51:11.44	314.50	16.53	-48.5	-50.4	22.6	6.02e-01	0	57	0	55574528	59	4692
2026-01-05 05:51:14.41	313.83	16.35	-48.6	-50.7	21.9	6.02e-01	0	56	0	61341696	60	4549
2026-01-05 05:51:17.37	313.18	16.16	-48.8	-50.8	22.2	6.04e-01	0	57	0	66584576	59	4924
2026-01-05 05:51:20.34	312.53	15.97	-48.6	-50.6	22.0	6.03e-01	0	57	0	72351744	60	4524
2026-01-05 05:51:23.31	311.89	15.78	-48.7	-50.6	22.4	6.03e-01	0	57	0	78118912	59	4810
2026-01-05 05:51:26.28	311.26	15.59	-48.9	-51.1	21.6	6.04e-01	0	57	0	83361792	60	4786
2026-01-05 05:51:29.25	310.64	15.39	-48.7	-50.8	21.9	6.01e-01	0	57	0	89128960	60	4623
2026-01-05 05:51:32.22	310.03	15.20	-48.7	-50.9	21.9	6.03e-01	0	57	0	94371840	60	4653
2026-01-05 05:51:35.19	309.43	15.00	-48.9	-51.2	21.5	6.01e-01	0	56	0	100139008	60	4831
2026-01-05 05:51:38.16	308.83	14.80	-48.6	-50.6	22.0	6.05e-01	0	57	0	105906176	60	4533
2026-01-05 05:51:41.13	308.25	14.60	-48.5	-50.5	22.1	6.02e-01	0	57	0	111149056	60	4491
2026-01-05 05:51:44.09	307.67	14.40	-48.3	-50.2	22.4	6.03e-01	0	57	0	116916224	60	4297
2026-01-05 05:51:47.05	307.10	14.20	-48.3	-50.3	22.3	6.04e-01	0	57	0	122159104	60	4353
2026-01-05 05:51:50.03	306.54	14.00	-48.6	-50.6	22.0	6.04e-01	0	57	0	127926272	60	4545
2026-01-05 05:51:53.01	305.98	13.79	-48.5	-50.6	22.1	6.03e-01	0	57	0	133693440	60	4501
2026-01-05 05:51:55.98	305.44	13.59	-48.5	-50.5	22.1	6.02e-01	0	57	0	138936320	60	4481
2026-01-05 05:51:58.94	304.91	13.38	-48.9	-51.1	21.5	6.04e-01	0	57	0	144703488	60	4769
2026-01-05 05:52:01.91	304.38	13.18	-49.2	-51.5	21.1	6.02e-01	0	57	0	150470656	60	5022
2026-01-05 05:52:04.89	303.85	12.97	-49.3	-51.8	20.8	6.04e-01	0	56	0	155713536	60	5187
2026-01-05 05:52:07.85	303.34	12.77	-48.6	-50.7	21.8	6.05e-01	0	57	0	161480704	60	4582
2026-01-05 05:52:10.83	302.84	12.56	-48.7	-50.8	21.8	6.03e-01	0	57	0	166723584	60	4631
2026-01-05 05:52:13.78	302.34	12.36	-48.9	-51.2	21.3	6.01e-01	0	57	0	172490752	60	4825
2026-01-05 05:52:16.76	301.85	12.15	-48.8	-51.0	21.4	6.02e-01	0	57	0	178257920	60	4739
2026-01-05 05:52:19.73	301.37	11.94	-48.8	-51.0	21.4	6.05e-01	0	57	0	183500800	60	4733
2026-01-05 05:52:22.70	300.89	11.74	-48.8	-51.1	21.1	6.02e-01	0	57	0	189267968	60	4774
2026-01-05 05:52:25.66	300.43	11.53	-49.2	-51.9	20.3	6.04e-01	0	57	0	195035136	60	5231
2026-01-05 05:52:28.62	299.97	11.33	-49.0	-51.6	20.4	6.02e-01	0	57	0	200278016	60	5052
2026-01-05 05:52:31.58	299.51	11.12	-49.4	-52.3	19.5	6.02e-01	0	57	0	206045184	61	5200
2026-01-05 05:52:34.55	299.07	10.92	-49.6	-52.9	18.9	6.02e-01	0	57	0	211288064	61	5540
2026-01-05 05:52:37.52	298.63	10.71	-49.8	-53.3	18.2	6.02e-01	0	57	0	217055232	62	5523
2026-01-05 05:52:40.49	298.19	10.51	-49.5	-52.9	18.5	6.02e-01	0	57	0	222298112	62	5271
2026-01-05 05:52:43.46	297.77	10.31	-50.0	-53.9	17.4	6.04e-01	0	57	0	228065280	62	5895
2026-01-05 05:52:46.43	297.35	10.10	-50.0	-54.0	17.3	6.03e-01	0	57	0	233832448	62	5950
2026-01-05 05:52:49.39	296.93	9.90	-50.2	-54.5	16.7	6.01e-01	0	57	0	239075328	62	6340
2026-01-05 05:52:52.37	296.52	9.70	-50.2	-54.5	16.7	6.02e-01	0	57	0	244842496	62	6313
2026-01-05 05:52:55.34	296.12	9.50	-50.4	-55.1	16.2	6.02e-01	0	57	0	250609664	63	6369
2026-01-05 05:52:58.32	295.73	9.29	-50.3	-54.7	16.6	6.05e-01	0	57	0	255852544	63	6091
2026-01-05 05:53:01.28	295.34	9.09	-50.2	-54.5	16.8	6.02e-01	0	57	0	261619712	63	5938
2026-01-05 05:53:04.25	294.95	8.89	-50.5	-55.2	16.1	6.01e-01	0	57	0	266862592	63	6486
2026-01-05 05:53:07.22	294.58	8.69	-50.1	-54.2	17.2	6.03e-01	0	57	0	272629760	63	5730
2026-01-05 05:53:10.18	294.21	8.49	-50.0	-53.9	17.5	6.02e-01	0	57	0	278396928	63	5536
2026-01-05 05:53:13.15	293.84	8.30	-50.1	-54.2	17.1	6.02e-01	0	57	0	283639808	63	5759
2026-01-05 05:53:16.12	293.48	8.10	-50.4	-54.9	16.3	6.04e-01	0	57	0	289406976	63	6268
2026-01-05 05:53:19.09	293.12	7.90	-50.3	-55.1	16.0	6.01e-01	0	57	0	295174144	63	6391
2026-01-05 05:53:22.05	292.77	7.71	-50.4	-55.5	15.4	6.06e-01	0	57	0	300417024	63	6719
2026-01-05 05:53:25.02	292.43	7.51	-50.4	-55.9	14.9	6.03e-01	0	57	0	306184192	63	6987
2026-01-05 05:53:27.99	292.09	7.32	-50.6	-56.5	14.1	6.04e-01	0	57	0	311427072	63	7511
2026-01-05 05:53:30.94	291.76	7.12	-50.7	-57.0	13.6	6.04e-01	0	57	0	317194240	63	7957
2026-01-05 05:53:33.92	291.42	6.93	-50.4	-56.3	14.3	6.03e-01	0	57	0	322961408	63	7292
2026-01-05 05:53:36.88	291.10	6.74	-50.4	-56.3	14.2	6.04e-01	0	57	0	328204288	63	7340
2026-01-05 05:53:39.85	290.78	6.55	-50.3	-56.4	14.0	6.05e-01	0	57	0	333971456	63	7408
2026-01-05 05:53:42.81	290.47	6.35	-50.3	-56.7	13.5	6.04e-01	0	57	0	339214336	63	7653
2026-01-05 05:53:45.78	290.15	6.16	-50.4	-57.4	12.7	6.07e-01	0	57	0	344981504	63	8346
2026-01-05 05:53:48.76	289.85	5.97	-50.3	-57.6	12.4	6.09e-01	0	57	0	350748672	63	8535
2026-01-05 05:53:51.73	289.54	5.79	-50.3	-57.8	12.0	6.10e-01	0	57	0	355991552	63	8744
2026-01-05 05:53:54.70	289.25	5.60	-50.3	-58.2	11.4	6.11e-01	0	57	0	361758720	63	9139
2026-01-05 05:53:57.67	288.95	5.41	-50.4	-59.2	10.4	6.18e-01	0	57	0	367525888	63	10237
2026-01-05 05:54:00.64	288.66	5.23	-50.2	-59.3	10.0	6.20e-01	0	57	0	372768768	63	10401
2026-01-05 05:54:03.61	288.38	5.04	-50.2	-59.7	9.5	6.26e-01	0	57	0	378535936	63	10888
2026-01-05 05:54:06.58	288.10	4.86	-53.7	-73.6	3.8	7.45e-01	0	57	104	379060224	69	37871
2026-01-05 05:54:09.55	287.82	4.67	-53.1	-72.8	3.8	7.47e-01	0	57	104	379060224	68	36805
2026-01-05 05:54:12.52	287.55	4.49	-54.1	-74.0	3.8	7.43e-01	0	57	104	379060224	70	37757
2026-01-05 05:54:15.48	287.28	4.31	-54.2	-74.1	3.8	7.44e-01	0	57	104	379060224	70	38149
2026-01-05 05:54:18.45	287.01	4.13	-54.3	-74.2	3.8	7.47e-01	0	57	104	379060224	70	38677
2026-01-05 05:54:21.42	286.75	3.95	-54.4	-74.3	3.8	7.45e-01	0	57	104	379060224	70	38936
2026-01-05 05:54:24.38	286.49	3.77	-54.4	-74.3	3.9	7.44e-01	0	57	104	379060224	71	36920
2026-01-05 05:54:27.34	286.24	3.59	-54.4	-74.4	3.8	7.42e-01	0	57	104	379060224	71	37088
2026-01-05 05:54:30.30	285.99	3.41	-54.4	-74.4	3.8	7.44e-01	0	57	104	379060224	71	37163
2026-01-05 05:54:33.27	285.74	3.23	-54.4	-74.4	3.8	7.46e-01	0	57	104	379060224	71	36965
2026-01-05 05:54:36.24	285.49	3.06	-54.4	-74.3	3.8	7.43e-01	0	57	104	379060224	71	36921

#Closed at: 2026-01-05 05:54:39
#Recorded file [379 MB]: D:/Data/31026_260105_085404.dat