passes_logs/2026/01/05/R3.0SM8_Murmansk_STILSPACE/R3.0SM8_Murmansk_STILSPACE__20260105_101710_FENGYUN_3D_rec.log

#Pass ID: 20260105_101710_FENGYUN 3D
#Satellite: FENGYUN 3D
#Configuration: FENGYUN 3D
#almurnet v.1.7.20240730
#Start time: 2026-01-05 10:17:11

#Version: 2.2.20231116
#Station: R3.0SM8_Murmansk_STILSPACE
#Location: 33.092731 lon 68.902999 lat
#TLE: 1 43010U 17072A   26004.50247883 -.00000063  00000+0 -78815-5 0  9998
#TLE: 2 43010  98.9915 336.1565 0001968 126.3752 233.7605 14.19691805421760

#Time	Az	El	Level	Level2	SNR	BER	BlckErr	Temp	State	Recorded	gain1	gain2
2026-01-05 10:17:11.57	121.74	3.09	-52.3	-63.1	3.8	8.47e-01	0	46	0	0	67	12480
2026-01-05 10:17:15.52	121.62	3.35	-51.8	-62.6	3.8	8.47e-01	0	46	104	0	66	12451
2026-01-05 10:17:19.48	121.50	3.61	-51.5	-61.5	3.8	8.46e-01	0	46	104	0	65	11564
2026-01-05 10:17:23.44	121.38	3.87	-51.3	-60.3	3.9	8.45e-01	0	47	104	0	65	10166
2026-01-05 10:17:27.39	121.26	4.14	-51.0	-58.4	4.3	8.35e-01	0	47	0	0	65	8165
2026-01-05 10:17:31.35	121.13	4.41	-50.6	-56.8	5.0	7.72e-01	0	47	0	0	64	7130
2026-01-05 10:17:35.30	121.00	4.68	-49.9	-54.3	7.0	2.09e-01	0	47	0	13631488	62	5994
2026-01-05 10:17:39.27	120.87	4.95	-49.0	-52.2	8.9	4.30e-02	0	48	0	36700160	61	5037
2026-01-05 10:17:43.23	120.73	5.23	-48.7	-51.8	9.5	2.14e-02	0	48	0	58720256	60	5042
2026-01-05 10:17:47.18	120.59	5.51	-48.2	-50.8	10.6	4.85e-03	0	48	0	80740352	59	4773
2026-01-05 10:17:51.16	120.45	5.79	-47.1	-49.0	12.4	2.95e-04	0	48	0	102760448	57	4368
2026-01-05 10:17:55.12	120.31	6.08	-45.6	-47.0	14.3	3.40e-06	0	49	0	125829120	54	4129
2026-01-05 10:17:59.09	120.16	6.37	-44.9	-46.2	15.1	0.00e+00	0	49	0	147849216	52	4216
2026-01-05 10:18:03.05	120.01	6.66	-45.4	-46.7	14.7	0.00e+00	0	49	0	169869312	52	4481
2026-01-05 10:18:07.00	119.85	6.96	-44.6	-45.8	15.6	0.00e+00	0	49	0	191889408	52	4040
2026-01-05 10:18:10.95	119.70	7.25	-44.8	-46.1	15.3	0.00e+00	0	50	0	214958080	52	4156
2026-01-05 10:18:14.91	119.54	7.55	-44.5	-45.7	15.9	0.00e+00	0	49	0	236978176	51	4196
2026-01-05 10:18:18.85	119.37	7.86	-44.6	-45.8	15.8	0.00e+00	0	50	0	258998272	51	4248
2026-01-05 10:18:22.83	119.20	8.17	-44.5	-45.6	16.0	0.00e+00	0	50	0	281018368	51	4173
2026-01-05 10:18:26.79	119.03	8.48	-44.3	-45.3	16.3	0.00e+00	0	50	0	304087040	51	4048
2026-01-05 10:18:30.73	118.86	8.79	-44.6	-45.7	15.9	0.00e+00	0	50	0	326107136	51	4240
2026-01-05 10:18:34.68	118.68	9.11	-43.9	-44.9	16.7	0.00e+00	0	51	0	348127232	50	4091
2026-01-05 10:18:38.65	118.49	9.43	-43.9	-44.9	16.7	0.00e+00	0	51	0	370147328	50	4085
2026-01-05 10:18:42.60	118.30	9.76	-44.1	-45.1	16.6	0.00e+00	0	51	0	392167424	50	4166
2026-01-05 10:18:46.56	118.11	10.09	-44.2	-45.2	16.5	0.00e+00	0	51	0	415236096	50	4223
2026-01-05 10:18:50.52	117.91	10.43	-44.0	-45.0	16.7	0.00e+00	0	51	0	437256192	50	4134
2026-01-05 10:18:54.48	117.71	10.77	-43.8	-44.8	16.9	0.00e+00	0	51	0	459276288	50	4047
2026-01-05 10:18:58.44	117.50	11.11	-44.2	-45.3	16.5	0.00e+00	0	51	0	481296384	50	4246
2026-01-05 10:19:02.39	117.29	11.46	-43.5	-44.5	17.3	0.00e+00	0	51	0	504365056	50	3869
2026-01-05 10:19:06.35	117.07	11.81	-43.5	-44.5	17.3	0.00e+00	0	51	0	526385152	50	3886
2026-01-05 10:19:10.31	116.84	12.17	-43.6	-44.5	17.3	0.00e+00	0	52	0	548405248	49	4144
2026-01-05 10:19:14.26	116.61	12.53	-44.0	-45.0	16.8	0.00e+00	0	52	0	570425344	51	3893
2026-01-05 10:19:18.22	116.37	12.89	-43.4	-44.4	17.4	0.00e+00	0	52	0	592445440	49	4057
2026-01-05 10:19:22.18	116.13	13.27	-43.3	-44.2	17.7	0.00e+00	0	52	0	615514112	49	3962
2026-01-05 10:19:26.13	115.88	13.64	-43.0	-43.9	17.9	0.00e+00	0	52	0	637534208	48	4064
2026-01-05 10:19:30.08	115.63	14.02	-43.3	-44.2	17.7	0.00e+00	0	52	0	659554304	48	4214
2026-01-05 10:19:34.04	115.36	14.41	-43.0	-43.9	18.0	0.00e+00	0	52	0	681574400	48	4067
2026-01-05 10:19:38.00	115.09	14.81	-43.1	-43.9	17.9	0.00e+00	0	53	0	704643072	48	4080
2026-01-05 10:19:41.97	114.81	15.21	-42.6	-43.4	18.5	0.00e+00	0	53	0	726663168	48	3835
2026-01-05 10:19:45.92	114.53	15.61	-42.5	-43.3	18.6	0.00e+00	0	53	0	748683264	48	3808
2026-01-05 10:19:49.88	114.23	16.02	-42.3	-43.1	18.5	0.00e+00	0	53	0	770703360	47	3948
2026-01-05 10:19:53.85	113.93	16.44	-42.3	-43.1	18.6	0.00e+00	0	53	0	793772032	47	3956
2026-01-05 10:19:57.83	113.61	16.87	-42.6	-43.4	18.3	0.00e+00	0	53	0	815792128	47	4074
2026-01-05 10:20:01.79	113.29	17.30	-42.3	-43.1	18.6	0.00e+00	0	53	0	837812224	47	3958
2026-01-05 10:20:05.74	112.96	17.73	-42.0	-42.8	18.9	0.00e+00	0	53	0	860880896	46	4010
2026-01-05 10:20:09.70	112.62	18.18	-42.0	-42.8	19.0	0.00e+00	0	53	0	882900992	46	4022
2026-01-05 10:20:13.65	112.27	18.63	-42.0	-42.8	18.9	0.00e+00	0	53	0	904921088	46	4032
2026-01-05 10:20:17.62	111.91	19.09	-41.9	-42.6	19.1	0.00e+00	0	53	0	926941184	46	3955
2026-01-05 10:20:21.57	111.53	19.55	-41.6	-42.4	19.4	0.00e+00	0	54	0	950009856	46	3836
2026-01-05 10:20:25.56	111.14	20.03	-41.4	-42.1	19.7	0.00e+00	0	54	0	972029952	45	3926
2026-01-05 10:20:29.50	110.75	20.51	-41.4	-42.0	19.8	0.00e+00	0	54	0	994050048	45	3910
2026-01-05 10:20:33.44	110.34	20.99	-41.4	-42.1	19.8	0.00e+00	0	54	0	1016070144	45	3928
2026-01-05 10:20:37.41	109.91	21.49	-41.2	-41.9	20.0	0.00e+00	0	54	0	1038090240	45	3836
2026-01-05 10:20:41.36	109.47	21.99	-41.5	-42.2	19.7	0.00e+00	0	54	0	1060110336	45	3970
2026-01-05 10:20:45.31	109.01	22.51	-42.1	-42.8	19.2	0.00e+00	0	54	0	1083179008	46	4023
2026-01-05 10:20:49.27	108.54	23.03	-42.2	-42.9	19.1	0.00e+00	0	54	0	1105199104	46	4072
2026-01-05 10:20:53.22	108.06	23.56	-42.5	-43.3	18.7	0.00e+00	0	54	0	1127219200	47	4031
2026-01-05 10:20:57.17	107.55	24.09	-42.0	-42.7	19.3	0.00e+00	0	54	0	1149239296	46	3965
2026-01-05 10:21:01.13	107.03	24.64	-42.0	-42.7	19.2	0.00e+00	0	54	0	1172307968	46	3997
2026-01-05 10:21:05.07	106.49	25.19	-41.5	-42.1	19.8	0.00e+00	0	54	0	1194328064	45	3937
2026-01-05 10:21:09.04	105.93	25.76	-40.9	-41.6	20.4	0.00e+00	0	55	0	1216348160	45	3697
2026-01-05 10:21:13.00	105.34	26.33	-41.2	-41.9	20.0	0.00e+00	0	55	0	1238368256	44	4061
2026-01-05 10:21:16.96	104.74	26.92	-40.8	-41.5	20.4	0.00e+00	0	55	0	1260388352	44	3884
2026-01-05 10:21:20.93	104.11	27.51	-41.4	-42.1	19.9	0.00e+00	0	55	0	1283457024	44	4165
2026-01-05 10:21:24.88	103.46	28.11	-40.5	-41.1	20.8	0.00e+00	0	55	0	1305477120	44	3731
2026-01-05 10:21:28.83	102.78	28.71	-40.1	-40.7	21.1	0.00e+00	0	55	0	1327497216	43	3769
2026-01-05 10:21:32.80	102.08	29.33	-40.0	-40.6	21.2	0.00e+00	0	55	0	1349517312	42	3925
2026-01-05 10:21:36.77	101.34	29.96	-40.3	-40.9	20.9	0.00e+00	0	55	0	1372585984	42	4068
2026-01-05 10:21:40.74	100.58	30.60	-40.3	-40.8	21.0	0.00e+00	0	55	0	1394606080	42	4049
2026-01-05 10:21:44.71	99.78	31.24	-40.3	-40.9	20.9	0.00e+00	0	55	0	1416626176	42	4065
2026-01-05 10:21:48.65	98.96	31.89	-40.0	-40.6	21.2	0.00e+00	0	55	0	1439694848	42	3930
2026-01-05 10:21:52.62	98.10	32.55	-40.5	-41.1	20.7	0.00e+00	0	55	0	1461714944	42	4167
2026-01-05 10:21:56.59	97.20	33.22	-39.8	-40.3	21.5	0.00e+00	0	55	0	1483735040	42	3798
2026-01-05 10:22:00.54	96.26	33.89	-40.0	-40.6	21.3	0.00e+00	0	55	0	1505755136	42	3915
2026-01-05 10:22:04.50	95.29	34.56	-39.6	-40.2	21.6	0.00e+00	0	55	0	1528823808	42	3743
2026-01-05 10:22:08.45	94.27	35.24	-39.7	-40.3	21.6	0.00e+00	0	55	0	1550843904	42	3791
2026-01-05 10:22:12.41	93.21	35.93	-39.7	-40.2	21.6	0.00e+00	0	55	0	1572864000	42	3765
2026-01-05 10:22:16.37	92.10	36.62	-39.8	-40.4	21.4	0.00e+00	0	55	0	1594884096	42	3838
2026-01-05 10:22:20.33	90.95	37.31	-40.4	-41.0	20.8	0.00e+00	0	56	0	1617952768	42	4135
2026-01-05 10:22:24.28	89.75	37.99	-40.3	-40.8	21.0	0.00e+00	0	56	0	1639972864	42	4040
2026-01-05 10:22:28.25	88.49	38.68	-40.8	-41.4	20.5	0.00e+00	0	55	0	1661992960	43	4072
2026-01-05 10:22:32.20	87.18	39.37	-40.0	-40.5	21.3	0.00e+00	0	56	0	1684013056	43	3682
2026-01-05 10:22:36.16	85.81	40.05	-39.8	-40.3	21.5	0.00e+00	0	56	0	1706033152	42	3799
2026-01-05 10:22:40.12	84.38	40.73	-40.1	-40.7	21.2	0.00e+00	0	56	0	1729101824	42	3974
2026-01-05 10:22:44.08	82.89	41.39	-40.2	-40.8	21.1	0.00e+00	0	56	0	1751121920	42	4006
2026-01-05 10:22:48.04	81.34	42.05	-40.6	-41.2	20.7	0.00e+00	0	55	0	1773142016	43	3970
2026-01-05 10:22:52.00	79.72	42.69	-40.7	-41.3	20.6	0.00e+00	0	56	0	1795162112	43	4027
2026-01-05 10:22:55.98	78.03	43.32	-40.4	-40.9	20.9	0.00e+00	0	56	0	1818230784	43	3867
2026-01-05 10:22:59.94	76.28	43.93	-39.6	-40.2	21.7	0.00e+00	0	56	0	1840250880	42	3750
2026-01-05 10:23:03.92	74.46	44.52	-39.6	-40.1	21.7	0.00e+00	0	56	0	1862270976	42	3723
2026-01-05 10:23:07.88	72.58	45.08	-39.9	-40.5	21.4	0.00e+00	0	56	0	1885339648	42	3885
2026-01-05 10:23:11.83	70.63	45.61	-39.8	-40.4	21.5	0.00e+00	0	56	0	1907359744	42	3840
2026-01-05 10:23:15.79	68.62	46.11	-40.5	-41.1	20.8	0.00e+00	0	56	0	1929379840	43	3927
2026-01-05 10:23:19.75	66.54	46.58	-40.6	-41.2	20.7	0.00e+00	0	56	0	1951399936	43	3989
2026-01-05 10:23:23.71	64.41	47.00	-41.2	-41.8	20.2	0.00e+00	0	56	0	1973420032	44	4050
2026-01-05 10:23:27.67	62.21	47.39	-41.5	-42.2	19.9	0.00e+00	0	56	0	1996488704	44	4195
2026-01-05 10:23:31.60	59.99	47.73	-40.8	-41.4	20.7	0.00e+00	0	56	0	2018508800	44	3844
2026-01-05 10:23:35.57	57.69	48.03	-40.8	-41.4	20.6	0.00e+00	0	56	0	2040528896	44	3849
2026-01-05 10:23:39.53	55.36	48.28	-41.0	-41.6	20.4	0.00e+00	0	56	0	2062548992	44	3950
2026-01-05 10:23:43.49	52.99	48.48	-41.2	-41.9	20.2	0.00e+00	0	56	0	2085617664	44	4076
2026-01-05 10:23:47.45	50.60	48.62	-41.4	-42.0	20.1	0.00e+00	0	56	0	2107637760	44	4137
2026-01-05 10:23:51.42	48.18	48.71	-40.5	-41.1	20.9	0.00e+00	0	56	0	2129657856	44	3719
2026-01-05 10:23:55.37	45.77	48.74	-40.1	-40.7	21.2	0.00e+00	0	56	0	2151677952	43	3740
2026-01-05 10:23:59.34	43.34	48.72	-40.4	-41.0	20.9	0.00e+00	0	56	0	2174746624	43	3904
2026-01-05 10:24:03.30	40.93	48.65	-40.5	-41.1	20.8	0.00e+00	0	56	0	2196766720	43	3931
2026-01-05 10:24:07.27	38.52	48.52	-40.1	-40.7	21.2	0.00e+00	0	56	0	2218786816	43	3749
2026-01-05 10:24:11.23	36.15	48.33	-40.3	-40.9	21.0	0.00e+00	0	56	0	2240806912	43	3838
2026-01-05 10:24:15.19	33.81	48.10	-40.6	-41.2	20.7	0.00e+00	0	56	0	2263875584	43	3995
2026-01-05 10:24:19.16	31.50	47.81	-40.8	-41.4	20.5	0.00e+00	0	56	0	2285895680	43	4088
2026-01-05 10:24:23.13	29.24	47.48	-40.0	-40.5	21.4	0.00e+00	0	57	0	2307915776	42	3895
2026-01-05 10:24:27.09	27.04	47.10	-40.2	-40.8	21.1	0.00e+00	0	56	0	2330984448	42	4028
2026-01-05 10:24:31.03	24.90	46.69	-40.5	-41.1	20.8	0.00e+00	0	56	0	2353004544	42	4154
2026-01-05 10:24:34.98	22.82	46.23	-39.8	-40.3	21.5	0.00e+00	0	56	0	2375024640	42	3810
2026-01-05 10:24:38.93	20.79	45.74	-40.0	-40.6	21.3	0.00e+00	0	56	0	2397044736	42	3924
2026-01-05 10:24:42.90	18.83	45.22	-39.8	-40.3	21.5	0.00e+00	0	56	0	2419064832	42	3805
2026-01-05 10:24:46.86	16.93	44.66	-39.8	-40.3	21.6	0.00e+00	0	56	0	2441084928	42	3806
2026-01-05 10:24:50.82	15.10	44.08	-39.6	-40.1	21.7	0.00e+00	0	56	0	2464153600	42	3734
2026-01-05 10:24:54.79	13.33	43.48	-39.6	-40.1	21.7	0.00e+00	0	56	0	2486173696	42	3714
2026-01-05 10:24:58.76	11.63	42.86	-39.4	-39.9	21.9	0.00e+00	0	56	0	2508193792	41	3841
2026-01-05 10:25:02.73	10.00	42.22	-39.4	-39.9	21.9	0.00e+00	0	56	0	2531262464	41	3856
2026-01-05 10:25:06.69	8.43	41.57	-40.2	-40.8	21.1	0.00e+00	0	56	0	2553282560	42	4023
2026-01-05 10:25:10.65	6.93	40.91	-40.3	-40.9	21.0	0.00e+00	0	56	0	2575302656	42	4077
2026-01-05 10:25:14.61	5.49	40.23	-40.2	-40.7	21.1	0.00e+00	0	57	0	2597322752	43	3769
2026-01-05 10:25:18.58	4.11	39.55	-40.0	-40.5	21.3	0.00e+00	0	57	0	2620391424	42	3911
2026-01-05 10:25:22.53	2.79	38.87	-39.4	-40.0	21.8	0.00e+00	0	56	0	2642411520	42	3661
2026-01-05 10:25:26.49	1.52	38.18	-39.4	-40.0	21.9	0.00e+00	0	57	0	2664431616	42	3654
2026-01-05 10:25:30.44	0.30	37.50	-39.1	-39.6	22.1	0.00e+00	0	57	0	2686451712	41	3736
2026-01-05 10:25:34.40	359.14	36.81	-39.3	-39.8	21.9	0.00e+00	0	56	0	2709520384	41	3802
2026-01-05 10:25:38.36	358.02	36.12	-39.5	-40.1	21.7	0.00e+00	0	56	0	2731540480	41	3924
2026-01-05 10:25:42.31	356.95	35.44	-39.3	-39.8	21.9	0.00e+00	0	57	0	2753560576	41	3802
2026-01-05 10:25:46.26	355.93	34.76	-39.7	-40.2	21.6	0.00e+00	0	57	0	2775580672	41	3973
2026-01-05 10:25:50.20	354.95	34.09	-39.4	-39.9	21.9	0.00e+00	0	56	0	2797600768	41	3846
2026-01-05 10:25:54.18	354.00	33.41	-39.6	-40.1	21.7	0.00e+00	0	56	0	2820669440	41	3936
2026-01-05 10:25:58.15	353.10	32.74	-39.8	-40.4	21.4	0.00e+00	0	57	0	2842689536	41	4072
2026-01-05 10:26:02.12	352.22	32.08	-40.2	-40.7	21.1	0.00e+00	0	57	0	2864709632	42	3996
2026-01-05 10:26:06.09	351.39	31.43	-39.8	-40.3	21.4	0.00e+00	0	57	0	2887778304	42	3809
2026-01-05 10:26:10.07	350.59	30.79	-39.4	-40.0	21.8	0.00e+00	0	57	0	2909798400	42	3657
2026-01-05 10:26:14.03	349.82	30.15	-40.0	-40.6	21.2	0.00e+00	0	56	0	2931818496	42	3939
2026-01-05 10:26:18.00	349.08	29.52	-39.8	-40.4	21.4	0.00e+00	0	57	0	2953838592	42	3833
2026-01-05 10:26:21.97	348.37	28.90	-40.0	-40.6	21.1	0.00e+00	0	56	0	2976907264	42	3932
2026-01-05 10:26:25.91	347.69	28.29	-40.2	-40.8	20.9	0.00e+00	0	56	0	2998927360	42	4012
2026-01-05 10:26:29.84	347.03	27.70	-40.2	-40.8	20.9	0.00e+00	0	57	0	3020947456	42	4024
2026-01-05 10:26:33.80	346.40	27.11	-40.2	-40.8	20.9	0.00e+00	0	56	0	3042967552	42	4025
2026-01-05 10:26:37.77	345.79	26.52	-39.8	-40.4	21.3	0.00e+00	0	57	0	3064987648	42	3849
2026-01-05 10:26:41.73	345.20	25.95	-39.8	-40.4	21.3	0.00e+00	0	57	0	3088056320	42	3844
2026-01-05 10:26:45.68	344.64	25.38	-40.1	-40.7	20.9	0.00e+00	0	57	0	3110076416	42	3994
2026-01-05 10:26:49.64	344.10	24.82	-40.0	-40.6	21.1	0.00e+00	0	56	0	3132096512	42	3940
2026-01-05 10:26:53.59	343.57	24.28	-40.3	-40.8	20.8	0.00e+00	0	57	0	3154116608	42	4046
2026-01-05 10:26:57.56	343.06	23.74	-40.4	-41.0	20.7	0.00e+00	0	57	0	3177185280	42	4103
2026-01-05 10:27:01.49	342.57	23.21	-40.4	-41.0	20.7	0.00e+00	0	57	0	3199205376	43	3895
2026-01-05 10:27:05.45	342.10	22.69	-40.7	-41.3	20.4	0.00e+00	0	57	0	3221225472	43	4019
2026-01-05 10:27:09.40	341.64	22.18	-40.8	-41.4	20.2	0.00e+00	0	57	0	3243245568	43	4084
2026-01-05 10:27:13.37	341.20	21.67	-40.5	-41.1	20.5	0.00e+00	0	57	0	3265265664	43	3935
2026-01-05 10:27:17.32	340.77	21.17	-40.5	-41.1	20.4	0.00e+00	0	57	0	3288334336	43	3925
2026-01-05 10:27:21.28	340.36	20.68	-41.4	-42.1	19.5	0.00e+00	0	57	0	3310354432	44	4163
2026-01-05 10:27:25.24	339.96	20.20	-43.4	-44.4	17.1	0.00e+00	0	57	0	3332374528	48	4308
2026-01-05 10:27:29.18	339.57	19.73	-44.0	-45.1	16.2	0.00e+00	0	57	0	3354394624	50	4162
2026-01-05 10:27:33.13	339.20	19.26	-44.3	-45.5	15.9	0.00e+00	0	57	0	3377463296	50	4343
2026-01-05 10:27:37.07	338.84	18.81	-42.9	-43.8	17.6	0.00e+00	0	57	0	3398434816	49	3803
2026-01-05 10:27:41.02	338.48	18.36	-41.4	-42.1	19.3	0.00e+00	0	57	0	3421503488	46	3720
2026-01-05 10:27:44.97	338.14	17.91	-41.8	-42.5	19.0	0.00e+00	0	57	0	3443523584	45	4140
2026-01-05 10:27:48.94	337.81	17.47	-42.0	-42.8	18.9	0.00e+00	0	57	0	3465543680	46	4005
2026-01-05 10:27:52.91	337.48	17.04	-42.2	-43.0	18.7	0.00e+00	0	57	0	3488612352	46	4118
2026-01-05 10:27:56.88	337.17	16.61	-43.0	-43.8	17.9	0.00e+00	0	57	0	3510632448	47	4289
2026-01-05 10:28:00.84	336.87	16.19	-42.8	-43.7	18.0	0.00e+00	0	57	0	3532652544	47	4209
2026-01-05 10:28:04.80	336.57	15.78	-42.7	-43.5	18.3	0.00e+00	0	57	0	3554672640	48	3909
2026-01-05 10:28:08.76	336.29	15.38	-42.2	-43.0	18.6	0.00e+00	0	57	0	3577741312	47	3896
2026-01-05 10:28:12.71	336.01	14.98	-42.4	-43.2	18.4	0.00e+00	0	57	0	3599761408	47	3960
2026-01-05 10:28:16.67	335.74	14.58	-42.3	-43.0	18.6	0.00e+00	0	57	0	3621781504	47	3903
2026-01-05 10:28:20.64	335.47	14.19	-42.5	-43.3	18.3	0.00e+00	0	57	0	3643801600	47	4019
2026-01-05 10:28:24.61	335.21	13.81	-43.2	-44.0	17.8	0.00e+00	0	57	0	3666870272	48	4144
2026-01-05 10:28:28.57	334.97	13.43	-42.8	-43.6	18.1	0.00e+00	0	57	0	3688890368	48	3946
2026-01-05 10:28:32.52	334.72	13.06	-43.1	-43.9	17.8	0.00e+00	0	57	0	3710910464	48	4096
2026-01-05 10:28:36.49	334.49	12.69	-43.4	-44.3	17.4	0.00e+00	0	57	0	3732930560	49	4032
2026-01-05 10:28:40.45	334.26	12.33	-43.3	-44.2	17.6	0.00e+00	0	57	0	3755999232	49	3995
2026-01-05 10:28:44.42	334.03	11.97	-43.2	-44.1	17.6	0.00e+00	0	57	0	3778019328	49	3935
2026-01-05 10:28:48.37	333.81	11.62	-43.8	-44.8	17.0	0.00e+00	0	57	0	3800039424	49	4253
2026-01-05 10:28:52.33	333.60	11.27	-43.9	-44.9	16.9	0.00e+00	0	57	0	3822059520	49	4296
2026-01-05 10:28:56.29	333.39	10.92	-43.7	-44.6	17.1	0.00e+00	0	57	0	3845128192	49	4165
2026-01-05 10:29:00.24	333.19	10.58	-43.4	-44.3	17.4	0.00e+00	0	57	0	3867148288	49	4021
2026-01-05 10:29:04.21	332.99	10.25	-43.8	-44.8	16.9	0.00e+00	0	57	0	3889168384	49	4260
2026-01-05 10:29:08.16	332.80	9.92	-43.6	-44.5	17.1	0.00e+00	0	57	0	3911188480	49	4130
2026-01-05 10:29:12.13	332.61	9.59	-43.9	-44.8	16.8	0.00e+00	0	57	0	3934257152	49	4274
2026-01-05 10:29:16.09	332.43	9.27	-44.1	-45.2	16.4	0.00e+00	0	57	0	3956277248	50	4214
2026-01-05 10:29:20.04	332.25	8.95	-44.0	-45.0	16.6	0.00e+00	0	57	0	3978297344	50	4110
2026-01-05 10:29:24.01	332.07	8.63	-44.5	-45.6	15.9	0.00e+00	0	57	0	4000317440	51	4191
2026-01-05 10:29:27.96	331.90	8.32	-44.2	-45.3	16.3	0.00e+00	0	57	0	4022337536	51	4023
2026-01-05 10:29:31.90	331.73	8.01	-44.6	-45.8	15.8	0.00e+00	0	57	0	4045406208	51	4255
2026-01-05 10:29:35.86	331.57	7.71	-44.8	-46.0	15.6	0.00e+00	0	57	0	4067426304	51	4358
2026-01-05 10:29:39.82	331.41	7.40	-44.8	-46.0	15.4	0.00e+00	0	57	0	4089446400	52	4102
2026-01-05 10:29:43.78	331.26	7.11	-44.4	-45.5	16.0	0.00e+00	0	57	0	4111466496	51	4109
2026-01-05 10:29:47.72	331.10	6.81	-44.7	-45.8	15.6	0.00e+00	0	57	0	4133486592	51	4283
2026-01-05 10:29:51.68	330.95	6.52	-44.7	-45.8	15.6	0.00e+00	0	57	0	4156555264	51	4289
2026-01-05 10:29:55.65	330.81	6.23	-45.1	-46.4	15.0	0.00e+00	0	57	0	4178575360	51	4555
2026-01-05 10:29:59.60	330.67	5.95	-45.1	-46.4	14.8	0.00e+00	0	57	0	4200595456	52	4322
2026-01-05 10:30:03.54	330.53	5.66	-45.2	-46.5	14.7	0.00e+00	0	57	0	4222615552	52	4359
2026-01-05 10:30:07.51	330.39	5.38	-45.0	-46.3	14.9	1.10e-06	0	57	0	4245684224	52	4255
2026-01-05 10:30:11.48	330.26	5.10	-45.2	-46.5	14.6	0.00e+00	0	57	0	4267704320	52	4384
2026-01-05 10:30:15.43	330.12	4.83	-51.9	-62.8	3.8	8.45e-01	0	57	104	4275044352	65	13454
2026-01-05 10:30:19.39	330.00	4.56	-52.3	-63.1	3.8	8.45e-01	0	57	104	4275044352	66	13164
2026-01-05 10:30:23.34	329.87	4.29	-52.5	-63.2	3.8	8.46e-01	0	57	104	4275044352	66	13357
2026-01-05 10:30:27.28	329.75	4.02	-52.6	-63.3	3.8	8.45e-01	0	57	104	4275044352	67	12790
2026-01-05 10:30:31.24	329.63	3.76	-52.6	-63.4	3.8	8.46e-01	0	57	104	4275044352	67	12884
2026-01-05 10:30:35.20	329.51	3.50	-52.7	-63.4	3.8	8.46e-01	0	57	104	4275044352	67	12919
2026-01-05 10:30:39.16	329.39	3.24	-52.7	-63.5	3.8	8.46e-01	0	57	104	4275044352	67	12962
2026-01-05 10:30:43.12	329.28	2.98	-52.5	-63.4	3.8	8.46e-01	0	57	104	4275044352	67	12887

#Closed at: 2026-01-05 10:30:43
#Recorded file [4275 MB]: D:/Data/31026_260105_133013.dat