passes_logs/2026/01/05/R3.0SM8_Murmansk_STILSPACE/R3.0SM8_Murmansk_STILSPACE__20260105_134938_AQUA_rec.log

#Pass ID: 20260105_134938_AQUA
#Satellite: AQUA
#Configuration: AQUA
#almurnet v.1.7.20240730
#Start time: 2026-01-05 13:51:40

#Version: 2.2.20231116
#Station: R3.0SM8_Murmansk_STILSPACE
#Location: 33.092731 lon 68.902999 lat
#TLE: 1 27424U 02022A   26003.93831470  .00001925  00000+0  39553-3 0  9995
#TLE: 2 27424  98.4067 330.1809 0002003  92.1713 343.8415 14.61796291259276

#Time	Az	El	Level	Level2	SNR	BER	BlckErr	Temp	State	Recorded	gain1	gain2
2026-01-05 13:51:40.63	238.00	10.10	-48.6	-59.3	3.8	8.46e-01	0	62	0	0	59	12783
2026-01-05 13:51:42.59	238.31	10.22	-49.8	-69.5	3.8	7.46e-01	0	62	104	0	61	37543
2026-01-05 13:51:44.56	238.63	10.34	-49.8	-69.5	3.8	7.44e-01	0	62	104	0	61	37561
2026-01-05 13:51:46.53	238.96	10.45	-49.8	-69.5	3.8	7.47e-01	0	62	104	0	61	37531
2026-01-05 13:51:48.49	239.28	10.57	-49.8	-69.5	3.8	7.44e-01	0	62	104	0	61	37548
2026-01-05 13:51:50.47	239.61	10.69	-49.8	-69.5	3.8	7.45e-01	0	62	104	0	61	37519
2026-01-05 13:51:52.44	239.94	10.80	-49.8	-69.5	3.8	7.45e-01	0	62	104	0	61	37491
2026-01-05 13:51:54.41	240.28	10.92	-49.8	-69.5	3.8	7.45e-01	0	62	104	0	61	37579
2026-01-05 13:51:56.38	240.61	11.03	-49.8	-69.5	3.8	7.46e-01	0	62	104	0	61	37490
2026-01-05 13:51:58.35	240.95	11.15	-49.8	-69.5	3.8	7.48e-01	0	62	104	0	61	37657
2026-01-05 13:52:00.31	241.29	11.26	-49.8	-69.5	3.8	7.45e-01	0	62	104	0	61	37543
2026-01-05 13:52:02.28	241.64	11.38	-49.8	-69.5	3.8	7.47e-01	0	62	104	0	61	37548
2026-01-05 13:52:04.25	241.98	11.49	-49.8	-69.5	3.8	7.44e-01	0	62	104	0	61	37538
2026-01-05 13:52:06.22	242.33	11.61	-49.8	-69.5	3.8	7.45e-01	0	62	104	0	61	37523
2026-01-05 13:52:08.18	242.69	11.72	-49.8	-69.5	3.8	7.43e-01	0	62	104	0	61	37534
2026-01-05 13:52:10.15	243.04	11.83	-49.8	-69.5	3.8	7.45e-01	0	62	104	0	61	37517
2026-01-05 13:52:12.12	243.40	11.95	-49.8	-69.5	3.8	7.46e-01	0	62	104	0	61	37455
2026-01-05 13:52:14.10	243.77	12.06	-49.8	-69.5	3.8	7.48e-01	0	62	104	0	61	37573
2026-01-05 13:52:16.07	244.13	12.17	-49.8	-69.5	3.8	7.43e-01	0	62	104	0	61	37570
2026-01-05 13:52:18.03	244.50	12.28	-49.8	-69.5	3.8	7.47e-01	0	62	104	0	61	37482
2026-01-05 13:52:20.01	244.87	12.39	-49.8	-69.5	3.8	7.45e-01	0	62	104	0	61	37474
2026-01-05 13:52:21.98	245.24	12.50	-49.8	-69.5	3.8	7.45e-01	0	62	104	0	61	37534
2026-01-05 13:52:23.96	245.62	12.62	-49.8	-69.5	3.8	7.44e-01	0	62	104	0	61	37607
2026-01-05 13:52:25.92	246.00	12.72	-49.8	-69.5	3.8	7.46e-01	0	62	104	0	61	37557
2026-01-05 13:52:27.89	246.38	12.83	-49.8	-69.5	3.8	7.48e-01	0	62	104	0	61	37543
2026-01-05 13:52:29.86	246.77	12.94	-49.8	-69.5	3.8	7.43e-01	0	62	104	0	61	37517
2026-01-05 13:52:31.83	247.15	13.05	-49.8	-69.5	3.8	7.46e-01	0	62	104	0	61	37575
2026-01-05 13:52:33.80	247.55	13.16	-49.8	-69.5	3.8	7.47e-01	0	62	104	0	61	37534
2026-01-05 13:52:35.77	247.94	13.27	-49.8	-69.5	3.8	7.47e-01	0	62	104	0	61	37540
2026-01-05 13:52:37.74	248.34	13.37	-49.8	-69.5	3.8	7.48e-01	0	62	104	0	61	37539
2026-01-05 13:52:39.71	248.74	13.48	-49.8	-69.5	3.8	7.43e-01	0	62	104	0	61	37486
2026-01-05 13:52:41.67	249.14	13.58	-49.8	-69.5	3.8	7.44e-01	0	62	104	0	61	37600
2026-01-05 13:52:43.65	249.55	13.69	-49.8	-69.5	3.8	7.47e-01	0	62	104	0	61	37550
2026-01-05 13:52:45.61	249.95	13.79	-49.8	-69.5	3.8	7.46e-01	0	62	104	0	61	37550
2026-01-05 13:52:47.58	250.37	13.89	-49.8	-69.5	3.8	7.45e-01	0	62	104	0	61	37592
2026-01-05 13:52:49.55	250.78	13.99	-49.8	-69.5	3.8	7.44e-01	0	62	104	0	61	37580
2026-01-05 13:52:51.52	251.20	14.09	-49.8	-69.5	3.8	7.44e-01	0	62	104	0	61	37513
2026-01-05 13:52:53.49	251.62	14.19	-49.8	-69.5	3.8	7.43e-01	0	62	104	0	61	37616
2026-01-05 13:52:55.46	252.04	14.29	-49.8	-69.5	3.8	7.46e-01	0	62	104	0	61	37559
2026-01-05 13:52:57.42	252.47	14.39	-49.8	-69.5	3.8	7.49e-01	0	62	104	0	61	37524
2026-01-05 13:52:59.39	252.90	14.49	-49.8	-69.5	3.8	7.45e-01	0	62	104	0	61	37533
2026-01-05 13:53:01.37	253.33	14.58	-49.8	-69.5	3.8	7.46e-01	0	62	104	0	61	37553
2026-01-05 13:53:03.33	253.77	14.68	-49.8	-69.5	3.8	7.48e-01	0	62	104	0	61	37562
2026-01-05 13:53:05.30	254.20	14.77	-49.8	-69.5	3.8	7.45e-01	0	62	104	0	61	37546
2026-01-05 13:53:07.27	254.65	14.87	-49.8	-69.5	3.8	7.47e-01	0	62	104	0	61	37566
2026-01-05 13:53:09.25	255.09	14.96	-49.8	-69.5	3.8	7.43e-01	0	62	104	0	61	37555
2026-01-05 13:53:11.22	255.54	15.05	-49.8	-69.5	3.8	7.47e-01	0	62	104	0	61	37475
2026-01-05 13:53:13.19	255.99	15.14	-49.8	-69.5	3.8	7.47e-01	0	62	104	0	61	37537
2026-01-05 13:53:15.16	256.44	15.23	-49.8	-69.5	3.8	7.43e-01	0	62	104	0	61	37537
2026-01-05 13:53:17.13	256.90	15.31	-49.8	-69.5	3.8	7.45e-01	0	62	104	0	61	37526
2026-01-05 13:53:19.10	257.35	15.40	-49.8	-69.5	3.8	7.45e-01	0	62	104	0	61	37535
2026-01-05 13:53:21.08	257.82	15.48	-49.8	-69.5	3.8	7.45e-01	0	62	104	0	61	37506
2026-01-05 13:53:23.05	258.28	15.57	-49.8	-69.5	3.8	7.45e-01	0	62	104	0	61	37528
2026-01-05 13:53:25.02	258.75	15.65	-49.8	-69.5	3.8	7.49e-01	0	62	104	0	61	37619
2026-01-05 13:53:26.99	259.21	15.73	-49.8	-69.5	3.8	7.48e-01	0	62	104	0	61	37554
2026-01-05 13:53:28.95	259.68	15.81	-49.8	-69.5	3.8	7.42e-01	0	62	104	0	61	37567
2026-01-05 13:53:30.93	260.16	15.88	-49.8	-69.5	3.8	7.45e-01	0	62	104	0	61	37556
2026-01-05 13:53:32.90	260.64	15.96	-49.8	-69.5	3.8	7.45e-01	0	62	104	0	61	37463
2026-01-05 13:53:34.86	261.11	16.03	-49.8	-69.5	3.8	7.47e-01	0	62	104	0	61	37522
2026-01-05 13:53:36.83	261.59	16.11	-49.8	-69.5	3.8	7.45e-01	0	62	104	0	61	37619
2026-01-05 13:53:38.81	262.08	16.18	-49.8	-69.5	3.8	7.44e-01	0	62	104	0	61	37535
2026-01-05 13:53:40.78	262.56	16.25	-49.8	-69.5	3.8	7.44e-01	0	62	104	0	61	37486
2026-01-05 13:53:42.74	263.05	16.31	-49.8	-69.5	3.8	7.45e-01	0	62	104	0	61	37529
2026-01-05 13:53:44.71	263.54	16.38	-49.8	-69.5	3.8	7.45e-01	0	62	104	0	61	37511
2026-01-05 13:53:46.69	264.04	16.44	-49.8	-69.5	3.8	7.46e-01	0	62	104	0	61	37519
2026-01-05 13:53:48.66	264.53	16.51	-49.8	-69.5	3.8	7.44e-01	0	62	104	0	61	37559
2026-01-05 13:53:50.64	265.03	16.57	-49.8	-69.5	3.8	7.48e-01	0	62	104	0	61	37443
2026-01-05 13:53:52.61	265.53	16.63	-49.8	-69.5	3.8	7.44e-01	0	62	104	0	61	37523
2026-01-05 13:53:54.58	266.03	16.68	-49.8	-69.5	3.8	7.45e-01	0	62	104	0	61	37556
2026-01-05 13:53:56.55	266.53	16.74	-49.8	-69.5	3.8	7.46e-01	0	62	104	0	61	37530
2026-01-05 13:53:58.52	267.04	16.79	-49.8	-69.5	3.8	7.43e-01	0	62	104	0	61	37526
2026-01-05 13:54:00.48	267.54	16.84	-49.8	-69.5	3.8	7.44e-01	0	62	104	0	61	37567
2026-01-05 13:54:02.46	268.05	16.89	-49.8	-69.5	3.8	7.48e-01	0	62	104	0	61	37537
2026-01-05 13:54:04.42	268.56	16.94	-49.8	-69.5	3.8	7.45e-01	0	62	104	0	61	37549
2026-01-05 13:54:06.40	269.07	16.99	-49.8	-69.5	3.8	7.44e-01	0	62	104	0	61	37549
2026-01-05 13:54:08.37	269.58	17.03	-49.8	-69.5	3.8	7.44e-01	0	62	104	0	61	37468
2026-01-05 13:54:10.34	270.10	17.07	-49.8	-69.5	3.8	7.46e-01	0	62	104	0	61	37617
2026-01-05 13:54:12.32	270.62	17.11	-49.8	-69.5	3.8	7.44e-01	0	62	104	0	61	37590
2026-01-05 13:54:14.29	271.13	17.15	-49.8	-69.5	3.8	7.45e-01	0	62	104	0	61	37599
2026-01-05 13:54:16.26	271.65	17.18	-49.8	-69.5	3.8	7.44e-01	0	62	104	0	61	37561
2026-01-05 13:54:18.24	272.18	17.22	-49.8	-69.5	3.8	7.44e-01	0	62	104	0	61	37497
2026-01-05 13:54:20.20	272.69	17.25	-49.8	-69.5	3.8	7.47e-01	0	62	104	0	61	37524
2026-01-05 13:54:22.17	273.22	17.28	-49.8	-69.5	3.8	7.43e-01	0	62	104	0	61	37546
2026-01-05 13:54:24.14	273.74	17.30	-49.8	-69.5	3.8	7.44e-01	0	62	104	0	61	37590
2026-01-05 13:54:26.11	274.26	17.33	-49.8	-69.5	3.8	7.48e-01	0	62	104	0	61	37557
2026-01-05 13:54:28.08	274.79	17.35	-49.8	-69.5	3.8	7.46e-01	0	62	104	0	61	37597
2026-01-05 13:54:30.05	275.31	17.37	-49.8	-69.5	3.8	7.43e-01	0	62	104	0	61	37513
2026-01-05 13:54:32.03	275.84	17.39	-49.8	-69.5	3.8	7.45e-01	0	62	104	0	61	37528
2026-01-05 13:54:33.99	276.36	17.40	-49.8	-69.5	3.8	7.44e-01	0	62	104	0	61	37589
2026-01-05 13:54:35.97	276.89	17.42	-49.8	-69.5	3.8	7.44e-01	0	62	104	0	61	37622
2026-01-05 13:54:37.94	277.42	17.43	-49.8	-69.5	3.8	7.44e-01	0	62	104	0	61	37573
2026-01-05 13:54:39.90	277.95	17.44	-49.8	-69.5	3.8	7.46e-01	0	62	104	0	61	37464
2026-01-05 13:54:41.87	278.47	17.44	-49.8	-69.5	3.8	7.48e-01	0	62	104	0	61	37509
2026-01-05 13:54:43.84	279.00	17.45	-49.8	-69.5	3.8	7.45e-01	0	62	104	0	61	37600
2026-01-05 13:54:45.81	279.53	17.45	-49.8	-69.5	3.8	7.45e-01	0	62	104	0	61	37555
2026-01-05 13:54:47.78	280.06	17.45	-49.8	-69.5	3.8	7.45e-01	0	62	104	0	61	37555
2026-01-05 13:54:49.75	280.59	17.45	-49.8	-69.5	3.8	7.46e-01	0	62	104	0	61	37482
2026-01-05 13:54:51.72	281.12	17.44	-49.8	-69.5	3.8	7.47e-01	0	62	104	0	61	37553
2026-01-05 13:54:53.69	281.64	17.44	-49.8	-69.5	3.8	7.45e-01	0	62	104	0	61	37538
2026-01-05 13:54:55.66	282.17	17.43	-49.8	-69.5	3.8	7.44e-01	0	62	104	0	61	37587
2026-01-05 13:54:57.63	282.70	17.42	-49.8	-69.5	3.8	7.41e-01	0	62	104	0	61	37572
2026-01-05 13:54:59.60	283.23	17.41	-49.8	-69.5	3.8	7.46e-01	0	62	104	0	61	37452
2026-01-05 13:55:01.56	283.75	17.39	-49.8	-69.5	3.8	7.47e-01	0	62	104	0	61	37498
2026-01-05 13:55:03.53	284.28	17.37	-49.8	-69.5	3.8	7.44e-01	0	62	104	0	61	37471
2026-01-05 13:55:05.50	284.80	17.35	-49.8	-69.5	3.8	7.45e-01	0	62	104	0	61	37538
2026-01-05 13:55:07.47	285.32	17.33	-49.8	-69.5	3.8	7.43e-01	0	62	104	0	61	37498
2026-01-05 13:55:09.44	285.85	17.31	-49.8	-69.5	3.8	7.46e-01	0	62	104	0	61	37621
2026-01-05 13:55:11.41	286.37	17.28	-49.8	-69.5	3.8	7.49e-01	0	62	104	0	61	37552
2026-01-05 13:55:13.38	286.89	17.25	-49.8	-69.5	3.8	7.46e-01	0	62	104	0	61	37540
2026-01-05 13:55:15.35	287.41	17.22	-49.8	-69.5	3.8	7.43e-01	0	62	104	0	61	37560
2026-01-05 13:55:17.33	287.93	17.19	-49.8	-69.5	3.8	7.48e-01	0	62	104	0	61	37601
2026-01-05 13:55:19.30	288.45	17.15	-49.8	-69.5	3.8	7.43e-01	0	62	104	0	61	37575
2026-01-05 13:55:21.27	288.97	17.12	-49.8	-69.5	3.8	7.47e-01	0	62	104	0	61	37552
2026-01-05 13:55:23.24	289.48	17.08	-49.8	-69.5	3.8	7.48e-01	0	62	104	0	61	37578
2026-01-05 13:55:25.22	290.00	17.03	-49.8	-69.5	3.8	7.39e-01	0	62	104	0	61	37548
2026-01-05 13:55:27.18	290.51	16.99	-49.8	-69.5	3.8	7.44e-01	0	62	104	0	61	37543
2026-01-05 13:55:29.16	291.02	16.95	-49.8	-69.5	3.8	7.47e-01	0	62	104	0	61	37643
2026-01-05 13:55:31.12	291.53	16.90	-49.8	-69.5	3.8	7.47e-01	0	62	104	0	61	37481
2026-01-05 13:55:33.10	292.04	16.85	-49.8	-69.5	3.8	7.47e-01	0	62	104	0	61	37576
2026-01-05 13:55:35.07	292.55	16.80	-49.8	-69.5	3.8	7.47e-01	0	62	104	0	61	37549
2026-01-05 13:55:37.03	293.05	16.75	-49.8	-69.5	3.8	7.46e-01	0	62	104	0	61	37536
2026-01-05 13:55:39.00	293.55	16.69	-49.8	-69.5	3.8	7.44e-01	0	62	104	0	61	37582
2026-01-05 13:55:40.97	294.05	16.64	-49.8	-69.5	3.8	7.44e-01	0	62	104	0	61	37511
2026-01-05 13:55:42.94	294.55	16.58	-49.8	-69.5	3.8	7.45e-01	0	62	104	0	61	37553
2026-01-05 13:55:44.90	295.04	16.52	-49.8	-69.5	3.8	7.42e-01	0	62	104	0	61	37551
2026-01-05 13:55:46.87	295.53	16.46	-49.8	-69.5	3.8	7.45e-01	0	62	104	0	61	37518
2026-01-05 13:55:48.84	296.02	16.39	-49.8	-69.5	3.8	7.44e-01	0	62	104	0	61	37487
2026-01-05 13:55:50.82	296.52	16.33	-49.8	-69.5	3.8	7.47e-01	0	62	104	0	61	37520
2026-01-05 13:55:52.79	297.00	16.26	-49.8	-69.5	3.8	7.44e-01	0	62	104	0	61	37488
2026-01-05 13:55:54.76	297.49	16.19	-49.8	-69.5	3.8	7.49e-01	0	62	104	0	61	37579
2026-01-05 13:55:56.73	297.97	16.12	-49.8	-69.5	3.8	7.44e-01	0	62	104	0	61	37566
2026-01-05 13:55:58.71	298.45	16.05	-49.8	-69.5	3.8	7.45e-01	0	62	104	0	61	37515
2026-01-05 13:56:00.68	298.93	15.97	-49.8	-69.5	3.8	7.44e-01	0	62	104	0	61	37579
2026-01-05 13:56:02.65	299.41	15.90	-49.8	-69.5	3.8	7.50e-01	0	62	104	0	61	37493
2026-01-05 13:56:04.63	299.88	15.82	-49.8	-69.5	3.8	7.47e-01	0	62	104	0	61	37623
2026-01-05 13:56:06.60	300.35	15.74	-49.8	-69.5	3.8	7.50e-01	0	62	104	0	61	37542
2026-01-05 13:56:08.56	300.82	15.66	-49.8	-69.5	3.8	7.47e-01	0	62	104	0	61	37552
2026-01-05 13:56:10.53	301.28	15.58	-49.8	-69.5	3.8	7.44e-01	0	62	104	0	61	37496
2026-01-05 13:56:12.50	301.74	15.50	-49.8	-69.5	3.8	7.48e-01	0	62	104	0	61	37585
2026-01-05 13:56:14.47	302.20	15.42	-49.8	-69.5	3.8	7.41e-01	0	62	104	0	61	37554
2026-01-05 13:56:16.44	302.66	15.33	-49.8	-69.5	3.8	7.42e-01	0	62	104	0	61	37587
2026-01-05 13:56:18.41	303.11	15.25	-49.8	-69.5	3.8	7.41e-01	0	62	104	0	61	37545
2026-01-05 13:56:20.38	303.57	15.16	-49.8	-69.5	3.8	7.46e-01	0	62	104	0	61	37555
2026-01-05 13:56:22.35	304.01	15.07	-49.8	-69.5	3.8	7.47e-01	0	62	104	0	61	37507
2026-01-05 13:56:24.32	304.46	14.98	-49.8	-69.5	3.8	7.47e-01	0	62	104	0	61	37455
2026-01-05 13:56:26.29	304.90	14.89	-49.8	-69.5	3.8	7.45e-01	0	62	104	0	61	37514
2026-01-05 13:56:28.26	305.34	14.80	-49.8	-69.5	3.8	7.43e-01	0	62	104	0	61	37569
2026-01-05 13:56:30.23	305.78	14.70	-49.8	-69.5	3.8	7.45e-01	0	62	104	0	61	37565
2026-01-05 13:56:32.19	306.21	14.61	-49.8	-69.5	3.8	7.47e-01	0	62	104	0	61	37515
2026-01-05 13:56:34.16	306.64	14.51	-49.8	-69.5	3.8	7.47e-01	0	62	104	0	61	37535
2026-01-05 13:56:36.14	307.07	14.42	-49.8	-69.5	3.8	7.46e-01	0	62	104	0	61	37541
2026-01-05 13:56:38.11	307.50	14.32	-49.8	-69.5	3.8	7.46e-01	0	62	104	0	61	37572
2026-01-05 13:56:40.08	307.92	14.22	-49.8	-69.5	3.8	7.46e-01	0	62	104	0	61	37573
2026-01-05 13:56:42.05	308.34	14.12	-49.8	-69.5	3.8	7.47e-01	0	62	104	0	61	37456
2026-01-05 13:56:44.02	308.76	14.02	-49.8	-69.5	3.8	7.44e-01	0	62	104	0	61	37571
2026-01-05 13:56:46.00	309.18	13.92	-49.8	-69.5	3.8	7.45e-01	0	62	104	0	61	37397
2026-01-05 13:56:47.96	309.58	13.82	-49.8	-69.5	3.8	7.44e-01	0	62	104	0	61	37514
2026-01-05 13:56:49.93	309.99	13.72	-49.8	-69.5	3.8	7.44e-01	0	62	104	0	61	37573
2026-01-05 13:56:51.91	310.40	13.61	-49.8	-69.5	3.8	7.46e-01	0	62	104	0	61	37521
2026-01-05 13:56:53.88	310.80	13.51	-49.8	-69.5	3.8	7.45e-01	0	62	104	0	61	37464
2026-01-05 13:56:55.85	311.20	13.41	-49.8	-69.5	3.8	7.45e-01	0	62	104	0	61	37491
2026-01-05 13:56:57.82	311.60	13.30	-49.8	-69.4	3.8	7.42e-01	0	62	104	0	61	37199
2026-01-05 13:56:59.79	311.99	13.19	-49.8	-69.4	3.8	7.49e-01	0	62	104	0	61	37145
2026-01-05 13:57:01.76	312.38	13.09	-49.8	-69.4	3.8	7.41e-01	0	62	104	0	61	37141
2026-01-05 13:57:03.73	312.77	12.98	-49.8	-69.4	3.8	7.43e-01	0	62	104	0	61	37273
2026-01-05 13:57:05.70	313.15	12.87	-49.8	-69.4	3.8	7.41e-01	0	62	104	0	61	37156
2026-01-05 13:57:07.68	313.54	12.76	-49.8	-69.4	3.8	7.42e-01	0	62	104	0	61	37272
2026-01-05 13:57:09.66	313.92	12.65	-49.8	-69.4	3.8	7.44e-01	0	62	104	0	61	37255
2026-01-05 13:57:11.63	314.29	12.54	-49.8	-69.5	3.8	7.43e-01	0	62	104	0	61	37449
2026-01-05 13:57:13.59	314.66	12.43	-49.8	-69.5	3.8	7.43e-01	0	62	104	0	61	37416
2026-01-05 13:57:15.56	315.03	12.32	-49.8	-69.5	3.8	7.42e-01	0	62	104	0	61	37447
2026-01-05 13:57:17.52	315.40	12.21	-49.8	-69.5	3.8	7.46e-01	0	62	104	0	61	37568
2026-01-05 13:57:19.49	315.76	12.10	-49.8	-69.5	3.8	7.44e-01	0	62	104	0	61	37513
2026-01-05 13:57:21.46	316.12	11.99	-49.8	-69.5	3.8	7.45e-01	0	62	104	0	61	37513
2026-01-05 13:57:23.42	316.48	11.88	-49.8	-69.5	3.8	7.44e-01	0	62	104	0	61	37479
2026-01-05 13:57:25.39	316.83	11.77	-49.8	-69.5	3.8	7.44e-01	0	62	104	0	61	37518
2026-01-05 13:57:27.36	317.19	11.65	-49.8	-69.5	3.8	7.48e-01	0	62	104	0	61	37483
2026-01-05 13:57:29.33	317.54	11.54	-49.8	-69.5	3.8	7.49e-01	0	62	104	0	61	37413
2026-01-05 13:57:31.30	317.88	11.43	-49.8	-69.5	3.8	7.46e-01	0	62	104	0	61	37573
2026-01-05 13:57:33.27	318.23	11.31	-49.8	-69.5	3.8	7.47e-01	0	62	104	0	61	37596
2026-01-05 13:57:35.24	318.57	11.20	-49.8	-69.5	3.8	7.43e-01	0	62	104	0	61	37570
2026-01-05 13:57:37.21	318.91	11.08	-49.8	-69.5	3.8	7.45e-01	0	62	104	0	61	37408
2026-01-05 13:57:39.18	319.24	10.97	-49.8	-69.5	3.8	7.45e-01	0	62	104	0	61	37530
2026-01-05 13:57:41.14	319.57	10.86	-49.8	-69.5	3.8	7.45e-01	0	62	104	0	61	37456
2026-01-05 13:57:43.12	319.90	10.74	-49.8	-69.5	3.8	7.45e-01	0	62	104	0	61	37393
2026-01-05 13:57:45.09	320.23	10.62	-49.8	-69.5	3.8	7.47e-01	0	62	104	0	61	37412
2026-01-05 13:57:47.06	320.56	10.51	-49.8	-69.4	3.8	7.46e-01	0	62	104	0	61	37127
2026-01-05 13:57:49.03	320.88	10.39	-49.8	-69.4	3.8	7.45e-01	0	62	104	0	61	37144
2026-01-05 13:57:51.01	321.20	10.28	-49.8	-69.5	3.8	7.47e-01	0	62	104	0	61	37528
2026-01-05 13:57:52.98	321.52	10.16	-49.8	-69.5	3.8	7.45e-01	0	62	104	0	61	37554
2026-01-05 13:57:54.94	321.83	10.05	-49.8	-69.5	3.8	7.45e-01	0	62	104	0	61	37540
2026-01-05 13:57:56.92	322.14	9.93	-49.8	-69.5	3.8	7.45e-01	0	62	104	0	61	37527
2026-01-05 13:57:58.89	322.45	9.81	-49.8	-69.5	3.8	7.46e-01	0	62	104	0	61	37458
2026-01-05 13:58:00.86	322.76	9.70	-49.8	-69.5	3.8	7.45e-01	0	62	104	0	61	37530
2026-01-05 13:58:02.83	323.06	9.58	-49.8	-69.5	3.8	7.46e-01	0	62	104	0	61	37431
2026-01-05 13:58:04.80	323.36	9.47	-49.8	-69.4	3.8	7.45e-01	0	62	104	0	61	37250
2026-01-05 13:58:06.77	323.66	9.35	-49.8	-69.4	3.8	7.45e-01	0	62	104	0	61	37309
2026-01-05 13:58:08.74	323.96	9.23	-49.8	-69.4	3.8	7.49e-01	0	62	104	0	61	37352
2026-01-05 13:58:10.71	324.25	9.12	-49.8	-69.5	3.8	7.45e-01	0	62	104	0	61	37495
2026-01-05 13:58:12.68	324.55	9.00	-49.8	-69.5	3.8	7.46e-01	0	62	104	0	61	37537
2026-01-05 13:58:14.65	324.83	8.88	-49.8	-69.5	3.8	7.43e-01	0	62	104	0	61	37572
2026-01-05 13:58:16.62	325.12	8.77	-49.8	-69.5	3.8	7.46e-01	0	62	104	0	61	37604
2026-01-05 13:58:18.60	325.41	8.65	-49.8	-69.5	3.8	7.45e-01	0	62	104	0	61	37581
2026-01-05 13:58:20.56	325.69	8.54	-49.8	-69.5	3.8	7.48e-01	0	62	104	0	61	37580
2026-01-05 13:58:22.53	325.97	8.42	-49.8	-69.5	3.8	7.47e-01	0	62	104	0	61	37521
2026-01-05 13:58:24.50	326.24	8.30	-49.8	-69.5	3.8	7.44e-01	0	62	104	0	61	37534
2026-01-05 13:58:26.48	326.52	8.19	-49.8	-69.5	3.8	7.43e-01	0	62	104	0	61	37531
2026-01-05 13:58:28.45	326.79	8.07	-49.8	-69.5	3.8	7.45e-01	0	62	104	0	61	37550
2026-01-05 13:58:30.43	327.07	7.95	-49.8	-69.5	3.8	7.44e-01	0	62	104	0	61	37487
2026-01-05 13:58:32.40	327.33	7.84	-49.8	-69.5	3.8	7.46e-01	0	62	104	0	61	37527
2026-01-05 13:58:34.37	327.60	7.72	-49.8	-69.4	3.8	7.44e-01	0	62	104	0	61	37338
2026-01-05 13:58:36.33	327.86	7.61	-49.8	-69.5	3.8	7.46e-01	0	62	104	0	61	37446
2026-01-05 13:58:38.30	328.12	7.49	-49.8	-69.5	3.8	7.44e-01	0	62	104	0	61	37537
2026-01-05 13:58:40.27	328.38	7.38	-49.8	-69.5	3.8	7.48e-01	0	62	104	0	61	37578
2026-01-05 13:58:42.24	328.64	7.26	-49.8	-69.5	3.8	7.44e-01	0	62	104	0	61	37666
2026-01-05 13:58:44.21	328.90	7.15	-49.8	-69.5	3.8	7.41e-01	0	62	104	0	61	37625
2026-01-05 13:58:46.18	329.15	7.03	-49.8	-69.5	3.8	7.46e-01	0	62	104	0	61	37551
2026-01-05 13:58:48.15	329.40	6.92	-49.8	-69.5	3.8	7.47e-01	0	62	104	0	61	37615
2026-01-05 13:58:50.11	329.65	6.80	-49.8	-69.4	3.8	7.44e-01	0	62	104	0	61	37372
2026-01-05 13:58:52.09	329.90	6.69	-49.8	-69.5	3.8	7.45e-01	0	62	104	0	61	37579
2026-01-05 13:58:54.06	330.14	6.57	-49.8	-69.5	3.8	7.46e-01	0	62	104	0	61	37550
2026-01-05 13:58:56.03	330.38	6.46	-49.8	-69.5	3.8	7.47e-01	0	62	104	0	61	37561
2026-01-05 13:58:57.99	330.62	6.35	-49.8	-69.5	3.8	7.45e-01	0	62	104	0	61	37535
2026-01-05 13:58:59.96	330.86	6.23	-49.8	-69.5	3.8	7.46e-01	0	62	104	0	61	37567
2026-01-05 13:59:01.93	331.10	6.12	-49.8	-69.5	3.8	7.47e-01	0	62	104	0	61	37598
2026-01-05 13:59:03.91	331.34	6.01	-49.8	-69.5	3.8	7.45e-01	0	62	104	0	61	37534
2026-01-05 13:59:05.88	331.57	5.89	-49.8	-69.5	3.8	7.48e-01	0	62	104	0	61	37591
2026-01-05 13:59:07.85	331.80	5.78	-49.8	-69.5	3.8	7.49e-01	0	62	104	0	61	37561
2026-01-05 13:59:09.82	332.03	5.67	-49.8	-69.5	3.8	7.43e-01	0	62	104	0	61	37597
2026-01-05 13:59:11.79	332.26	5.55	-49.8	-69.5	3.8	7.47e-01	0	62	104	0	61	37603
2026-01-05 13:59:13.76	332.48	5.44	-49.8	-69.5	3.8	7.46e-01	0	62	104	0	61	37567
2026-01-05 13:59:15.72	332.71	5.33	-49.8	-69.5	3.8	7.42e-01	0	62	104	0	61	37643
2026-01-05 13:59:17.69	332.93	5.22	-49.8	-69.5	3.8	7.46e-01	0	62	104	0	61	37426
2026-01-05 13:59:19.66	333.15	5.11	-49.8	-69.5	3.8	7.42e-01	0	62	104	0	61	37567
2026-01-05 13:59:21.62	333.37	4.99	-49.8	-69.5	3.8	7.42e-01	0	62	104	0	61	37523
2026-01-05 13:59:23.59	333.58	4.88	-49.8	-69.5	3.8	7.48e-01	0	62	104	0	61	37558
2026-01-05 13:59:25.56	333.80	4.77	-49.8	-69.5	3.8	7.44e-01	0	62	104	0	61	37639
2026-01-05 13:59:27.53	334.01	4.66	-49.8	-69.5	3.8	7.45e-01	0	62	104	0	61	37589
2026-01-05 13:59:29.50	334.22	4.55	-49.8	-69.5	3.8	7.45e-01	0	62	104	0	61	37574
2026-01-05 13:59:31.47	334.43	4.44	-49.8	-69.5	3.8	7.46e-01	0	62	104	0	61	37577
2026-01-05 13:59:33.44	334.64	4.33	-49.8	-69.5	3.8	7.46e-01	0	62	104	0	61	37572
2026-01-05 13:59:35.42	334.85	4.22	-49.8	-69.5	3.8	7.44e-01	0	62	104	0	61	37630
2026-01-05 13:59:37.39	335.06	4.11	-49.8	-69.5	3.8	7.46e-01	0	62	104	0	61	37647
2026-01-05 13:59:39.36	335.26	4.00	-49.8	-69.5	3.8	7.47e-01	0	62	104	0	61	37595
2026-01-05 13:59:41.34	335.46	3.89	-49.8	-69.5	3.8	7.46e-01	0	62	104	0	61	37565
2026-01-05 13:59:43.31	335.66	3.78	-49.8	-69.5	3.8	7.47e-01	0	62	104	0	61	37487
2026-01-05 13:59:45.28	335.86	3.67	-49.8	-69.5	3.8	7.43e-01	0	62	104	0	61	37584
2026-01-05 13:59:47.25	336.06	3.56	-49.8	-69.5	3.8	7.46e-01	0	62	104	0	61	37581
2026-01-05 13:59:49.22	336.26	3.45	-49.8	-69.5	3.8	7.45e-01	0	62	104	0	61	37553
2026-01-05 13:59:51.19	336.45	3.34	-49.8	-69.5	3.8	7.47e-01	0	62	104	0	61	37644
2026-01-05 13:59:53.16	336.64	3.24	-49.8	-69.5	3.8	7.45e-01	0	62	104	0	61	37627
2026-01-05 13:59:55.12	336.83	3.13	-49.8	-69.5	3.8	7.45e-01	0	62	104	0	61	37617
2026-01-05 13:59:57.09	337.02	3.02	-49.8	-69.5	3.8	7.48e-01	0	62	104	0	61	37507

#Closed at: 2026-01-05 13:59:57
#Recorded file [0 MB]: D:/Data/31026_260105_165140.dat