passes_logs/2026/01/05/R3.0SM8_Murmansk_STILSPACE/R3.0SM8_Murmansk_STILSPACE__20260105_111803_NOAA_20_JPSS-1_rec.log

#Pass ID: 20260105_111803_NOAA 20 (JPSS-1)
#Satellite: NOAA 20 (JPSS-1)
#Configuration: NOAA 20
#almurnet v.1.7.20240730
#Start time: 2026-01-05 11:18:03

#Version: 2.2.20231116
#Station: R3.0SM8_Murmansk_STILSPACE
#Location: 33.092731 lon 68.902999 lat
#TLE: 1 43013U 17073A   26004.47528369  .00000132  00000+0  83671-4 0  9999
#TLE: 2 43013  98.7626 305.5264 0001854  54.5883 305.5466 14.19533142421242

#Time	Az	El	Level	Level2	SNR	BER	BlckErr	Temp	State	Recorded	gain1	gain2
2026-01-05 11:18:03.89	196.82	3.04	-48.4	-62.2	3.8	1.49e+00	0	46	0	0	58	18750
2026-01-05 11:18:06.85	196.99	3.22	-48.4	-62.2	3.8	1.49e+00	0	47	104	0	59	17774
2026-01-05 11:18:09.80	197.16	3.40	-48.4	-62.2	3.8	1.49e+00	0	47	104	0	58	18765
2026-01-05 11:18:12.76	197.34	3.59	-48.4	-62.2	3.8	1.49e+00	0	47	104	0	58	18780
2026-01-05 11:18:15.72	197.51	3.77	-48.4	-62.2	3.8	1.49e+00	0	48	104	0	58	18805
2026-01-05 11:18:18.69	197.69	3.96	-48.4	-62.2	3.8	1.49e+00	0	48	104	0	58	18738
2026-01-05 11:18:21.66	197.87	4.15	-48.4	-62.2	3.8	1.49e+00	0	48	104	0	58	18753
2026-01-05 11:18:24.62	198.05	4.33	-48.4	-62.1	3.8	1.49e+00	0	48	104	0	58	18711
2026-01-05 11:18:27.60	198.23	4.52	-48.4	-62.2	3.8	1.49e+00	0	48	104	0	58	18786
2026-01-05 11:18:30.56	198.42	4.71	-48.4	-62.2	3.8	1.49e+00	0	48	104	0	58	18751
2026-01-05 11:18:33.51	198.60	4.90	-48.4	-62.2	3.8	1.49e+00	0	49	104	0	58	18743
2026-01-05 11:18:36.47	198.79	5.10	-48.4	-62.2	3.8	1.49e+00	0	49	104	0	58	18773
2026-01-05 11:18:39.43	198.99	5.29	-48.4	-62.2	3.8	1.49e+00	0	49	104	0	58	18753
2026-01-05 11:18:42.39	199.18	5.49	-48.4	-62.2	3.8	1.49e+00	0	49	104	0	58	18759
2026-01-05 11:18:45.37	199.38	5.68	-48.5	-62.2	3.8	1.49e+00	0	49	104	0	58	18771
2026-01-05 11:18:48.33	199.58	5.88	-48.4	-62.2	3.8	1.49e+00	0	49	104	0	58	18767
2026-01-05 11:18:51.29	199.78	6.08	-48.5	-62.1	3.8	1.49e+00	0	50	104	0	58	18731
2026-01-05 11:18:54.25	199.99	6.28	-48.5	-62.2	3.8	1.49e+00	0	50	104	0	58	18785
2026-01-05 11:18:57.21	200.19	6.48	-48.4	-62.2	3.8	1.49e+00	0	50	104	0	58	18740
2026-01-05 11:19:00.18	200.41	6.68	-48.4	-62.2	3.8	1.49e+00	0	50	104	0	58	18740
2026-01-05 11:19:03.14	200.62	6.88	-48.4	-62.1	3.8	1.49e+00	0	50	104	0	58	18697
2026-01-05 11:19:06.11	200.84	7.09	-48.4	-62.2	3.8	1.49e+00	0	50	104	0	58	18755
2026-01-05 11:19:09.07	201.05	7.30	-48.4	-62.1	3.8	1.49e+00	0	51	104	0	58	18717
2026-01-05 11:19:12.04	201.28	7.50	-48.4	-62.2	3.8	1.49e+00	0	51	104	0	58	18758
2026-01-05 11:19:15.01	201.50	7.71	-48.4	-62.2	3.8	1.49e+00	0	51	104	0	58	18741
2026-01-05 11:19:17.97	201.73	7.92	-48.5	-62.2	3.8	1.49e+00	0	51	104	0	58	18735
2026-01-05 11:19:20.93	201.96	8.13	-48.4	-62.2	3.8	1.49e+00	0	51	104	0	58	18818
2026-01-05 11:19:23.91	202.20	8.35	-48.4	-62.2	3.8	1.49e+00	0	51	104	0	58	18767
2026-01-05 11:19:26.88	202.44	8.56	-48.4	-62.2	3.8	1.49e+00	0	51	104	0	58	18772
2026-01-05 11:19:29.84	202.68	8.78	-48.4	-62.2	3.8	1.49e+00	0	51	104	0	58	18757
2026-01-05 11:19:32.80	202.92	9.00	-48.4	-62.2	3.8	1.49e+00	0	51	104	0	58	18786
2026-01-05 11:19:35.78	203.17	9.22	-48.4	-62.2	3.8	1.49e+00	0	52	104	0	58	18771
2026-01-05 11:19:38.75	203.42	9.44	-48.4	-62.2	3.8	1.49e+00	0	52	104	0	58	18770
2026-01-05 11:19:41.72	203.68	9.66	-48.4	-62.2	3.8	1.49e+00	0	52	104	0	58	18788
2026-01-05 11:19:44.69	203.94	9.88	-48.4	-62.2	3.8	1.49e+00	0	52	104	0	58	18753
2026-01-05 11:19:47.66	204.20	10.11	-48.4	-62.2	3.8	1.49e+00	0	52	104	0	58	18797
2026-01-05 11:19:50.62	204.47	10.34	-48.4	-62.2	3.8	1.49e+00	0	52	104	0	58	18791
2026-01-05 11:19:53.61	204.74	10.57	-48.4	-62.2	3.8	1.49e+00	0	52	104	0	58	18772
2026-01-05 11:19:56.57	205.02	10.79	-48.4	-62.2	3.8	1.49e+00	0	52	104	0	58	18757
2026-01-05 11:19:59.54	205.30	11.03	-48.5	-62.2	3.8	1.49e+00	0	53	104	0	58	18793
2026-01-05 11:20:02.51	205.58	11.26	-48.5	-62.2	3.8	1.49e+00	0	53	104	0	58	18794
2026-01-05 11:20:05.47	205.87	11.49	-48.4	-62.2	3.8	1.49e+00	0	53	104	0	58	18824
2026-01-05 11:20:08.44	206.16	11.73	-48.5	-62.2	3.8	1.49e+00	0	53	104	0	58	18759
2026-01-05 11:20:11.41	206.46	11.97	-48.5	-62.2	3.8	1.49e+00	0	53	104	0	58	18808
2026-01-05 11:20:14.38	206.76	12.21	-48.5	-62.2	3.8	1.49e+00	0	53	104	0	58	18755
2026-01-05 11:20:17.34	207.07	12.45	-48.4	-62.2	3.8	1.49e+00	0	53	104	0	58	18756
2026-01-05 11:20:20.31	207.38	12.69	-48.5	-62.2	3.8	1.49e+00	0	53	104	0	58	18780
2026-01-05 11:20:23.28	207.69	12.94	-48.4	-62.2	3.8	1.49e+00	0	53	104	0	58	18795
2026-01-05 11:20:26.25	208.02	13.18	-48.4	-62.2	3.8	1.49e+00	0	54	104	0	58	18798
2026-01-05 11:20:29.20	208.34	13.43	-48.5	-62.2	3.8	1.49e+00	0	53	104	0	58	18775
2026-01-05 11:20:32.15	208.67	13.68	-48.5	-62.2	3.8	1.49e+00	0	53	104	0	58	18799
2026-01-05 11:20:35.13	209.01	13.93	-48.5	-62.2	3.8	1.49e+00	0	54	104	0	58	18815
2026-01-05 11:20:38.09	209.35	14.18	-48.4	-62.2	3.8	1.49e+00	0	54	104	0	58	18776
2026-01-05 11:20:41.06	209.70	14.44	-48.4	-62.2	3.8	1.49e+00	0	54	104	0	58	18810
2026-01-05 11:20:44.02	210.05	14.69	-48.4	-62.2	3.8	1.49e+00	0	54	104	0	58	18799
2026-01-05 11:20:46.98	210.41	14.95	-48.5	-62.2	3.8	1.49e+00	0	54	104	0	58	18789
2026-01-05 11:20:49.95	210.78	15.21	-48.5	-62.2	3.8	1.49e+00	0	54	104	0	58	18782
2026-01-05 11:20:52.91	211.15	15.47	-48.5	-62.2	3.8	1.49e+00	0	54	104	0	58	18825
2026-01-05 11:20:55.88	211.53	15.74	-48.5	-62.2	3.8	1.49e+00	0	54	104	0	58	18782
2026-01-05 11:20:58.86	211.92	16.00	-48.4	-62.2	3.8	1.49e+00	0	54	104	0	58	18767
2026-01-05 11:21:01.82	212.31	16.27	-48.5	-62.2	3.8	1.49e+00	0	54	104	0	58	18779
2026-01-05 11:21:04.79	212.71	16.54	-48.5	-62.2	3.8	1.49e+00	0	54	104	0	58	18782
2026-01-05 11:21:07.76	213.11	16.81	-48.4	-62.2	3.8	1.49e+00	0	54	104	0	58	18808
2026-01-05 11:21:10.72	213.53	17.08	-48.4	-62.2	3.8	1.49e+00	0	54	104	0	58	18789
2026-01-05 11:21:13.68	213.95	17.35	-48.4	-62.2	3.8	1.49e+00	0	54	104	0	58	18797
2026-01-05 11:21:16.64	214.37	17.63	-48.5	-62.2	3.8	1.49e+00	0	55	104	0	58	18791
2026-01-05 11:21:19.62	214.81	17.90	-48.5	-62.2	3.8	1.49e+00	0	55	104	0	58	18803
2026-01-05 11:21:22.57	215.25	18.18	-48.5	-62.2	3.8	1.49e+00	0	55	104	0	58	18844
2026-01-05 11:21:25.54	215.70	18.46	-48.5	-62.2	3.8	1.49e+00	0	55	104	0	58	18807
2026-01-05 11:21:28.49	216.16	18.74	-48.4	-62.2	3.8	1.49e+00	0	55	104	0	58	18870
2026-01-05 11:21:31.46	216.63	19.02	-48.4	-62.2	3.8	1.49e+00	0	55	104	0	58	18814
2026-01-05 11:21:34.43	217.10	19.31	-48.5	-62.2	3.8	1.49e+00	0	55	104	0	58	18837
2026-01-05 11:21:37.40	217.59	19.59	-48.5	-62.2	3.8	1.49e+00	0	55	104	0	58	18832
2026-01-05 11:21:40.37	218.08	19.88	-48.5	-62.2	3.8	1.49e+00	0	55	104	0	58	18859
2026-01-05 11:21:43.33	218.58	20.17	-48.5	-62.2	3.8	1.49e+00	0	55	104	0	58	18860
2026-01-05 11:21:46.29	219.09	20.45	-48.4	-62.2	3.8	1.49e+00	0	55	104	0	58	18798
2026-01-05 11:21:49.25	219.61	20.74	-48.5	-62.2	3.8	1.49e+00	0	55	104	0	58	18800
2026-01-05 11:21:52.22	220.14	21.03	-48.5	-62.2	3.8	1.49e+00	0	55	104	0	58	18851
2026-01-05 11:21:55.19	220.68	21.33	-48.4	-62.2	3.8	1.49e+00	0	55	104	0	58	18882
2026-01-05 11:21:58.15	221.23	21.62	-48.4	-62.2	3.8	1.49e+00	0	55	104	0	58	18815
2026-01-05 11:22:01.11	221.79	21.91	-48.4	-62.2	3.8	1.49e+00	0	55	104	0	58	18801
2026-01-05 11:22:04.08	222.36	22.20	-48.4	-62.2	3.8	1.49e+00	0	55	104	0	58	18833
2026-01-05 11:22:07.05	222.94	22.50	-48.4	-62.2	3.8	1.49e+00	0	56	104	0	58	18802
2026-01-05 11:22:10.01	223.54	22.79	-48.5	-62.2	3.8	1.49e+00	0	55	104	0	58	18859
2026-01-05 11:22:12.99	224.14	23.09	-48.4	-62.2	3.8	1.49e+00	0	56	104	0	58	18838
2026-01-05 11:22:15.95	224.75	23.38	-48.4	-62.2	3.8	1.49e+00	0	55	104	0	58	18827
2026-01-05 11:22:18.92	225.38	23.68	-48.4	-62.2	3.8	1.49e+00	0	56	104	0	58	18835
2026-01-05 11:22:21.90	226.02	23.97	-48.4	-62.2	3.8	1.49e+00	0	56	104	0	58	18791
2026-01-05 11:22:24.86	226.67	24.27	-48.5	-62.2	3.8	1.49e+00	0	56	104	0	58	18791
2026-01-05 11:22:27.81	227.33	24.56	-48.5	-62.2	3.8	1.49e+00	0	56	104	0	58	18792
2026-01-05 11:22:30.78	228.00	24.85	-48.5	-62.2	3.8	1.49e+00	0	56	104	0	58	18830
2026-01-05 11:22:33.74	228.68	25.14	-48.5	-62.2	3.8	1.49e+00	0	56	104	0	58	18816
2026-01-05 11:22:36.73	229.39	25.44	-48.4	-62.2	3.8	1.49e+00	0	56	104	0	58	18808
2026-01-05 11:22:39.70	230.10	25.73	-48.4	-62.2	3.8	1.49e+00	0	56	104	0	58	18845
2026-01-05 11:22:42.67	230.82	26.02	-48.5	-62.2	3.8	1.49e+00	0	56	104	0	58	18849
2026-01-05 11:22:45.63	231.56	26.30	-48.5	-62.2	3.8	1.49e+00	0	56	104	0	58	18886
2026-01-05 11:22:48.59	232.31	26.59	-48.5	-62.2	3.8	1.49e+00	0	56	104	0	58	18868
2026-01-05 11:22:51.54	233.06	26.87	-48.5	-62.2	3.8	1.49e+00	0	56	104	0	58	18841
2026-01-05 11:22:54.49	233.83	27.15	-48.4	-62.2	3.8	1.49e+00	0	56	104	0	58	18816
2026-01-05 11:22:57.46	234.62	27.42	-48.4	-62.2	3.8	1.49e+00	0	56	104	0	58	18860
2026-01-05 11:23:00.42	235.42	27.70	-48.4	-62.2	3.8	1.49e+00	0	56	104	0	58	18814
2026-01-05 11:23:03.40	236.24	27.97	-48.4	-62.2	3.8	1.49e+00	0	56	104	0	58	18843
2026-01-05 11:23:06.37	237.07	28.24	-48.5	-62.2	3.8	1.49e+00	0	56	104	0	58	18852
2026-01-05 11:23:09.33	237.92	28.50	-48.5	-62.2	3.8	1.49e+00	0	56	104	0	58	18849
2026-01-05 11:23:12.29	238.77	28.76	-48.4	-62.2	3.8	1.49e+00	0	56	104	0	58	18885
2026-01-05 11:23:15.26	239.64	29.01	-48.5	-62.2	3.8	1.49e+00	0	56	104	0	58	18877
2026-01-05 11:23:18.22	240.52	29.26	-48.5	-62.2	3.8	1.49e+00	0	56	104	0	58	18874
2026-01-05 11:23:21.19	241.42	29.51	-48.5	-62.2	3.8	1.49e+00	0	56	104	0	58	18829
2026-01-05 11:23:24.16	242.33	29.74	-48.4	-62.2	3.8	1.49e+00	0	56	104	0	58	18853
2026-01-05 11:23:27.12	243.25	29.98	-48.4	-62.2	3.8	1.49e+00	0	56	104	0	58	18838
2026-01-05 11:23:30.06	244.18	30.20	-48.5	-62.2	3.8	1.49e+00	0	56	104	0	58	18808
2026-01-05 11:23:33.01	245.12	30.42	-48.5	-62.2	3.8	1.49e+00	0	56	104	0	58	18874
2026-01-05 11:23:35.96	246.08	30.63	-48.4	-62.2	3.8	1.49e+00	0	57	104	0	58	18895
2026-01-05 11:23:38.92	247.05	30.84	-48.4	-62.2	3.8	1.49e+00	0	56	104	0	58	18842
2026-01-05 11:23:41.89	248.03	31.04	-48.5	-62.2	3.8	1.49e+00	0	57	104	0	58	18875
2026-01-05 11:23:44.87	249.04	31.23	-48.5	-62.2	3.8	1.49e+00	0	57	104	0	58	18833
2026-01-05 11:23:47.84	250.04	31.41	-48.5	-62.2	3.8	1.49e+00	0	57	104	0	58	18835
2026-01-05 11:23:50.80	251.06	31.58	-48.5	-62.2	3.8	1.49e+00	0	57	104	0	58	18850
2026-01-05 11:23:53.77	252.09	31.75	-48.5	-62.2	3.8	1.49e+00	0	56	104	0	58	18855
2026-01-05 11:23:56.73	253.13	31.90	-48.5	-62.2	3.8	1.49e+00	0	57	104	0	58	18873
2026-01-05 11:23:59.69	254.18	32.05	-48.5	-62.2	3.8	1.49e+00	0	56	104	0	58	18892
2026-01-05 11:24:02.66	255.23	32.18	-48.5	-62.2	3.8	1.49e+00	0	57	104	0	58	18890
2026-01-05 11:24:05.63	256.30	32.31	-48.4	-62.2	3.8	1.49e+00	0	57	104	0	58	18856
2026-01-05 11:24:08.59	257.37	32.43	-48.5	-62.2	3.8	1.49e+00	0	57	104	0	58	18902
2026-01-05 11:24:11.55	258.45	32.53	-48.4	-62.2	3.8	1.49e+00	0	57	104	0	58	18925
2026-01-05 11:24:14.52	259.54	32.62	-48.5	-62.2	3.8	1.49e+00	0	57	104	0	58	18837
2026-01-05 11:24:17.48	260.63	32.71	-48.5	-62.2	3.8	1.49e+00	0	57	104	0	58	18860
2026-01-05 11:24:20.45	261.73	32.78	-48.5	-62.2	3.8	1.49e+00	0	56	104	0	58	18865
2026-01-05 11:24:23.43	262.84	32.84	-48.5	-62.2	3.8	1.49e+00	0	57	104	0	58	18886
2026-01-05 11:24:26.39	263.94	32.89	-48.4	-62.2	3.8	1.49e+00	0	57	104	0	58	18863
2026-01-05 11:24:29.33	265.04	32.93	-48.5	-62.2	3.8	1.49e+00	0	57	104	0	58	18897
2026-01-05 11:24:32.30	266.15	32.95	-48.5	-62.2	3.8	1.49e+00	0	57	104	0	58	18855
2026-01-05 11:24:35.26	267.26	32.97	-48.5	-62.2	3.8	1.49e+00	0	57	104	0	58	18918
2026-01-05 11:24:38.22	268.37	32.97	-48.4	-62.2	3.8	1.49e+00	0	57	104	0	58	18853
2026-01-05 11:24:41.20	269.49	32.96	-48.4	-62.2	3.8	1.49e+00	0	57	104	0	58	18884
2026-01-05 11:24:44.16	270.60	32.94	-48.4	-62.2	3.8	1.49e+00	0	57	104	0	58	18879
2026-01-05 11:24:47.12	271.71	32.91	-48.5	-62.2	3.8	1.49e+00	0	57	104	0	58	18872
2026-01-05 11:24:50.10	272.82	32.86	-48.5	-62.2	3.8	1.49e+00	0	57	104	0	58	18917
2026-01-05 11:24:53.07	273.93	32.81	-48.5	-62.2	3.8	1.49e+00	0	57	104	0	58	18811
2026-01-05 11:24:56.04	275.03	32.74	-48.5	-62.2	3.8	1.49e+00	0	57	104	0	58	18840
2026-01-05 11:24:59.01	276.12	32.66	-48.4	-62.2	3.8	1.49e+00	0	57	104	0	58	18878
2026-01-05 11:25:01.98	277.21	32.57	-48.5	-62.2	3.8	1.49e+00	0	57	104	0	58	18926
2026-01-05 11:25:04.96	278.30	32.47	-48.5	-62.2	3.8	1.49e+00	0	57	104	0	58	18911
2026-01-05 11:25:07.93	279.38	32.36	-48.5	-62.2	3.8	1.49e+00	0	57	104	0	58	18913
2026-01-05 11:25:10.89	280.44	32.24	-48.5	-62.2	3.8	1.49e+00	0	57	104	0	58	18865
2026-01-05 11:25:13.85	281.50	32.10	-48.5	-62.2	3.8	1.49e+00	0	57	104	0	58	18864
2026-01-05 11:25:16.82	282.55	31.96	-48.4	-62.2	3.8	1.49e+00	0	57	104	0	58	18902
2026-01-05 11:25:19.77	283.59	31.81	-48.5	-62.2	3.8	1.49e+00	0	57	104	0	58	18888
2026-01-05 11:25:22.74	284.62	31.65	-48.5	-62.2	3.8	1.49e+00	0	57	104	0	58	18849
2026-01-05 11:25:25.71	285.64	31.48	-48.5	-62.2	3.8	1.49e+00	0	57	104	0	58	18920
2026-01-05 11:25:28.66	286.64	31.30	-48.5	-62.2	3.8	1.49e+00	0	57	104	0	58	18863
2026-01-05 11:25:31.61	287.64	31.12	-48.5	-62.2	3.8	1.49e+00	0	57	104	0	58	18863
2026-01-05 11:25:34.59	288.63	30.92	-48.5	-62.2	3.8	1.49e+00	0	57	104	0	58	18849
2026-01-05 11:25:37.57	289.61	30.72	-48.5	-62.2	3.8	1.49e+00	0	57	104	0	58	18900
2026-01-05 11:25:40.53	290.57	30.51	-48.5	-62.2	3.8	1.49e+00	0	57	104	0	58	18855
2026-01-05 11:25:43.50	291.52	30.29	-48.5	-62.2	3.8	1.49e+00	0	57	104	0	58	18909
2026-01-05 11:25:46.45	292.46	30.07	-48.5	-62.2	3.8	1.49e+00	0	57	104	0	58	18884
2026-01-05 11:25:49.42	293.38	29.84	-48.5	-62.2	3.8	1.49e+00	0	57	104	0	58	18860
2026-01-05 11:25:52.39	294.30	29.61	-48.5	-62.2	3.8	1.49e+00	0	57	104	0	58	18901
2026-01-05 11:25:55.35	295.19	29.37	-48.5	-62.2	3.8	1.49e+00	0	57	104	0	58	18916
2026-01-05 11:25:58.33	296.08	29.12	-48.5	-62.2	3.8	1.49e+00	0	57	104	0	58	18891
2026-01-05 11:26:01.29	296.95	28.87	-48.5	-62.3	3.8	1.49e+00	0	57	104	0	58	19003
2026-01-05 11:26:04.26	297.81	28.61	-48.5	-62.2	3.8	1.49e+00	0	57	104	0	58	18915
2026-01-05 11:26:07.22	298.66	28.35	-48.5	-62.2	3.8	1.49e+00	0	57	104	0	58	18860
2026-01-05 11:26:10.21	299.50	28.09	-48.5	-62.2	3.8	1.49e+00	0	57	104	0	58	18934
2026-01-05 11:26:13.17	300.31	27.82	-48.5	-62.2	3.8	1.49e+00	0	57	104	0	58	18857
2026-01-05 11:26:16.15	301.12	27.55	-48.5	-62.2	3.8	1.49e+00	0	57	104	0	58	18894
2026-01-05 11:26:19.10	301.91	27.27	-48.5	-62.2	3.8	1.49e+00	0	57	104	0	58	18905
2026-01-05 11:26:22.07	302.69	26.99	-48.5	-62.2	3.8	1.49e+00	0	57	104	0	58	18906
2026-01-05 11:26:25.04	303.45	26.71	-48.5	-62.2	3.8	1.49e+00	0	57	104	0	58	18920
2026-01-05 11:26:27.98	304.20	26.44	-48.5	-62.2	3.8	1.49e+00	0	57	104	0	58	18899
2026-01-05 11:26:30.94	304.94	26.15	-48.5	-62.2	3.8	1.49e+00	0	57	104	0	58	18884
2026-01-05 11:26:33.90	305.66	25.87	-48.5	-62.3	3.8	1.49e+00	0	57	104	0	58	18963
2026-01-05 11:26:36.87	306.37	25.58	-48.5	-62.2	3.8	1.49e+00	0	57	104	0	58	18854
2026-01-05 11:26:39.84	307.08	25.29	-48.5	-62.3	3.8	1.49e+00	0	57	104	0	58	18957
2026-01-05 11:26:42.82	307.77	25.00	-48.5	-62.2	3.8	1.49e+00	0	57	104	0	58	18890
2026-01-05 11:26:45.79	308.44	24.71	-48.5	-62.2	3.8	1.49e+00	0	57	104	0	58	18919
2026-01-05 11:26:48.76	309.11	24.41	-48.5	-62.2	3.8	1.49e+00	0	57	104	0	58	18867
2026-01-05 11:26:51.71	309.76	24.12	-48.5	-62.2	3.8	1.49e+00	0	57	104	0	58	18934
2026-01-05 11:26:54.68	310.40	23.83	-48.5	-62.2	3.8	1.49e+00	0	57	104	0	58	18936
2026-01-05 11:26:57.65	311.03	23.54	-48.5	-62.2	3.8	1.49e+00	0	57	104	0	58	18866
2026-01-05 11:27:00.61	311.64	23.24	-48.5	-62.2	3.8	1.49e+00	0	57	104	0	58	18903
2026-01-05 11:27:03.58	312.25	22.95	-48.5	-62.3	3.8	1.49e+00	0	57	104	0	58	18962
2026-01-05 11:27:06.54	312.84	22.66	-48.1	-62.2	3.8	1.49e+00	0	57	104	0	58	18892
2026-01-05 11:27:09.50	313.42	22.37	-48.5	-62.2	3.8	1.49e+00	0	57	104	0	58	18903
2026-01-05 11:27:12.47	314.00	22.07	-48.5	-62.2	3.8	1.49e+00	0	57	104	0	58	18893
2026-01-05 11:27:15.44	314.56	21.78	-48.5	-62.2	3.8	1.49e+00	0	57	104	0	58	18934
2026-01-05 11:27:18.41	315.12	21.49	-48.5	-62.2	3.8	1.49e+00	0	57	104	0	58	18899
2026-01-05 11:27:21.38	315.66	21.20	-48.5	-62.2	3.8	1.49e+00	0	57	104	0	58	18904
2026-01-05 11:27:24.35	316.19	20.91	-48.5	-62.2	3.8	1.49e+00	0	57	104	0	58	18900
2026-01-05 11:27:27.31	316.72	20.62	-48.5	-62.2	3.8	1.49e+00	0	57	104	0	58	18938
2026-01-05 11:27:30.27	317.23	20.34	-48.5	-62.2	3.8	1.49e+00	0	57	104	0	58	18900
2026-01-05 11:27:33.24	317.73	20.05	-48.5	-62.3	3.8	1.49e+00	0	57	104	0	58	18957
2026-01-05 11:27:36.20	318.23	19.77	-48.5	-62.2	3.8	1.49e+00	0	57	104	0	58	18911
2026-01-05 11:27:39.18	318.72	19.48	-48.5	-62.2	3.8	1.49e+00	0	57	104	0	58	18942
2026-01-05 11:27:42.14	319.19	19.20	-48.5	-62.2	3.8	1.49e+00	0	57	104	0	58	18912
2026-01-05 11:27:45.09	319.66	18.92	-48.5	-62.2	3.8	1.49e+00	0	57	104	0	58	18871
2026-01-05 11:27:48.05	320.12	18.64	-48.5	-62.2	3.8	1.49e+00	0	57	104	0	58	18895
2026-01-05 11:27:51.02	320.57	18.36	-48.5	-62.2	3.8	1.49e+00	0	57	104	0	58	18874
2026-01-05 11:27:53.98	321.02	18.09	-48.5	-62.2	3.8	1.49e+00	0	57	104	0	58	18904
2026-01-05 11:27:56.94	321.46	17.81	-48.5	-62.3	3.8	1.49e+00	0	57	104	0	58	18953
2026-01-05 11:27:59.91	321.89	17.54	-48.5	-62.2	3.8	1.49e+00	0	57	104	0	58	18924
2026-01-05 11:28:02.87	322.31	17.27	-48.5	-62.2	3.8	1.49e+00	0	57	104	0	58	18895
2026-01-05 11:28:05.84	322.72	17.00	-48.5	-62.3	3.8	1.49e+00	0	57	104	0	58	18951
2026-01-05 11:28:08.81	323.13	16.73	-48.5	-62.2	3.8	1.49e+00	0	57	104	0	58	18911
2026-01-05 11:28:11.77	323.53	16.46	-48.5	-62.2	3.8	1.49e+00	0	57	104	0	58	18912
2026-01-05 11:28:14.73	323.93	16.19	-48.5	-62.2	3.8	1.49e+00	0	57	104	0	58	18911
2026-01-05 11:28:17.70	324.31	15.93	-48.5	-62.2	3.8	1.49e+00	0	57	104	0	58	18815
2026-01-05 11:28:20.67	324.70	15.67	-48.5	-62.2	3.8	1.49e+00	0	57	104	0	58	18922
2026-01-05 11:28:23.64	325.07	15.41	-48.5	-62.2	3.8	1.49e+00	0	57	104	0	58	18882
2026-01-05 11:28:26.61	325.44	15.15	-48.5	-62.2	3.8	1.49e+00	0	57	104	0	58	18946
2026-01-05 11:28:29.56	325.80	14.89	-48.5	-62.3	3.8	1.49e+00	0	57	104	0	58	18953
2026-01-05 11:28:32.53	326.16	14.64	-48.5	-62.3	3.8	1.49e+00	0	57	104	0	58	18954
2026-01-05 11:28:35.50	326.51	14.38	-48.5	-62.3	3.8	1.49e+00	0	57	104	0	58	19004
2026-01-05 11:28:38.47	326.86	14.13	-48.5	-62.2	3.8	1.49e+00	0	57	104	0	58	18920
2026-01-05 11:28:41.44	327.20	13.88	-48.5	-62.3	3.8	1.49e+00	0	57	104	0	58	18998
2026-01-05 11:28:44.40	327.53	13.63	-48.5	-62.2	3.8	1.49e+00	0	57	104	0	58	18947
2026-01-05 11:28:47.36	327.86	13.38	-48.5	-62.2	3.8	1.49e+00	0	57	104	0	58	18941
2026-01-05 11:28:50.33	328.18	13.14	-48.5	-62.2	3.8	1.49e+00	0	57	104	0	58	18931
2026-01-05 11:28:53.29	328.50	12.89	-48.5	-62.3	3.8	1.49e+00	0	57	104	0	58	18958
2026-01-05 11:28:56.26	328.81	12.65	-48.5	-62.2	3.8	1.49e+00	0	57	104	0	58	18910
2026-01-05 11:28:59.23	329.12	12.41	-48.5	-62.2	3.8	1.49e+00	0	57	104	0	58	18918
2026-01-05 11:29:02.19	329.43	12.17	-48.5	-62.2	3.8	1.49e+00	0	57	104	0	58	18911
2026-01-05 11:29:05.15	329.72	11.94	-48.5	-62.3	3.8	1.49e+00	0	57	104	0	58	18970
2026-01-05 11:29:08.12	330.02	11.70	-48.5	-62.3	3.8	1.49e+00	0	57	104	0	58	18987
2026-01-05 11:29:11.09	330.31	11.47	-48.5	-62.2	3.8	1.49e+00	0	57	104	0	58	18929
2026-01-05 11:29:14.04	330.59	11.24	-48.5	-62.2	3.8	1.49e+00	0	57	104	0	58	18927
2026-01-05 11:29:17.01	330.88	11.00	-48.5	-62.3	3.8	1.49e+00	0	57	104	0	58	18989
2026-01-05 11:29:19.97	331.15	10.78	-48.5	-62.2	3.8	1.49e+00	0	57	104	0	58	18919
2026-01-05 11:29:22.94	331.43	10.55	-48.5	-62.3	3.8	1.49e+00	0	57	104	0	58	18949
2026-01-05 11:29:25.91	331.70	10.32	-48.5	-62.2	3.8	1.49e+00	0	57	104	0	58	18907
2026-01-05 11:29:28.87	331.96	10.10	-48.5	-62.2	3.8	1.49e+00	0	57	104	0	58	18916
2026-01-05 11:29:31.84	332.23	9.87	-48.5	-62.2	3.8	1.49e+00	0	57	104	0	58	18894
2026-01-05 11:29:34.80	332.48	9.65	-48.5	-62.3	3.8	1.49e+00	0	57	104	0	58	18968
2026-01-05 11:29:37.77	332.74	9.43	-48.4	-62.2	3.8	1.49e+00	0	57	104	0	58	18913
2026-01-05 11:29:40.73	332.99	9.22	-48.5	-62.3	3.8	1.49e+00	0	57	104	0	58	18964
2026-01-05 11:29:43.69	333.24	9.00	-48.5	-62.2	3.8	1.49e+00	0	57	104	0	58	18919
2026-01-05 11:29:46.65	333.48	8.78	-48.5	-62.2	3.8	1.49e+00	0	58	104	0	58	18926
2026-01-05 11:29:49.62	333.72	8.57	-48.5	-62.2	3.8	1.49e+00	0	57	104	0	58	18924
2026-01-05 11:29:52.58	333.96	8.36	-48.5	-62.2	3.8	1.49e+00	0	57	104	0	58	18946
2026-01-05 11:29:55.55	334.19	8.15	-48.5	-62.2	3.8	1.49e+00	0	57	104	0	58	18934
2026-01-05 11:29:58.53	334.42	7.94	-48.5	-62.2	3.8	1.49e+00	0	57	104	0	58	18939
2026-01-05 11:30:01.49	334.65	7.73	-48.5	-62.2	3.8	1.49e+00	0	57	104	0	58	18912
2026-01-05 11:30:04.46	334.88	7.52	-48.5	-62.3	3.8	1.49e+00	0	57	104	0	58	18976
2026-01-05 11:30:07.42	335.10	7.31	-48.5	-62.3	3.8	1.49e+00	0	57	104	0	58	18952
2026-01-05 11:30:10.39	335.32	7.11	-48.5	-62.3	3.8	1.49e+00	0	57	104	0	58	18995
2026-01-05 11:30:13.35	335.53	6.91	-48.5	-62.3	3.8	1.49e+00	0	57	104	0	58	18956
2026-01-05 11:30:16.30	335.74	6.71	-48.5	-62.3	3.8	1.49e+00	0	57	104	0	58	18957
2026-01-05 11:30:19.27	335.96	6.50	-48.5	-62.3	3.8	1.49e+00	0	57	104	0	58	19017
2026-01-05 11:30:22.22	336.16	6.31	-48.4	-62.2	3.8	1.49e+00	0	57	104	0	58	18894
2026-01-05 11:30:25.19	336.37	6.11	-48.5	-62.2	3.8	1.49e+00	0	57	104	0	58	18907
2026-01-05 11:30:28.15	336.57	5.91	-48.5	-62.3	3.8	1.49e+00	0	58	104	0	58	18968
2026-01-05 11:30:31.10	336.77	5.72	-48.5	-62.3	3.8	1.49e+00	0	57	104	0	58	18974
2026-01-05 11:30:34.06	336.97	5.52	-48.5	-62.3	3.8	1.49e+00	0	58	104	0	58	18975
2026-01-05 11:30:37.04	337.16	5.33	-48.5	-62.3	3.8	1.49e+00	0	58	104	0	58	18957
2026-01-05 11:30:40.02	337.36	5.14	-48.5	-62.2	3.8	1.49e+00	0	57	104	0	58	18927
2026-01-05 11:30:42.99	337.55	4.94	-48.4	-62.2	3.8	1.49e+00	0	57	104	0	58	18928
2026-01-05 11:30:45.94	337.74	4.76	-48.5	-62.3	3.8	1.49e+00	0	57	104	0	58	18962
2026-01-05 11:30:48.90	337.92	4.57	-48.5	-62.3	3.8	1.49e+00	0	57	104	0	58	18975
2026-01-05 11:30:51.87	338.11	4.38	-48.5	-62.2	3.8	1.49e+00	0	57	104	0	58	18933
2026-01-05 11:30:54.84	338.29	4.19	-48.5	-62.3	3.8	1.49e+00	0	57	104	0	58	18977
2026-01-05 11:30:57.81	338.47	4.01	-48.5	-62.2	3.8	1.49e+00	0	58	104	0	58	18916
2026-01-05 11:31:00.77	338.65	3.82	-48.5	-62.2	3.8	1.49e+00	0	57	104	0	58	18909
2026-01-05 11:31:03.73	338.82	3.64	-48.5	-62.2	3.8	1.49e+00	0	57	104	0	58	18944
2026-01-05 11:31:06.70	338.99	3.46	-48.5	-62.2	3.8	1.49e+00	0	57	104	0	58	18927
2026-01-05 11:31:09.67	339.17	3.27	-48.5	-62.3	3.8	1.49e+00	0	57	104	0	58	18954
2026-01-05 11:31:12.63	339.34	3.09	-48.4	-62.3	3.8	1.49e+00	0	57	104	0	58	18958

#Closed at: 2026-01-05 11:31:15
#Recorded file [0 MB]: D:/Data/31026_260105_141803.dat