passes_logs/2026/01/05/R3.0SM8_Murmansk_STILSPACE/R3.0SM8_Murmansk_STILSPACE__20260105_002921_NOAA_21_JPSS-2_rec.log

#Pass ID: 20260105_002921_NOAA 21 (JPSS-2)
#Satellite: NOAA 21 (JPSS-2)
#Configuration: NOAA-21
#almurnet v.1.7.20240730
#Start time: 2026-01-05 00:31:35

#Version: 2.2.20231116
#Station: R3.0SM8_Murmansk_STILSPACE
#Location: 33.092731 lon 68.902999 lat
#TLE: 1 54234U 22150A   26004.22845673  .00000174  00000+0  10347-3 0  9996
#TLE: 2 54234  98.7489 305.2591 0001115 345.0884  15.0259 14.19531906163281

#Time	Az	El	Level	Level2	SNR	BER	BlckErr	Temp	State	Recorded	gain1	gain2
2026-01-05 00:31:35.97	25.43	13.80	-52.6	-63.4	3.8	8.45e-01	0	57	0	0	67	12942
2026-01-05 00:31:38.95	25.47	14.10	-52.7	-64.3	3.8	1.49e+00	0	57	104	0	68	13547
2026-01-05 00:31:41.91	25.52	14.40	-52.9	-64.3	3.8	1.49e+00	0	57	104	0	68	13515
2026-01-05 00:31:44.89	25.56	14.71	-52.8	-64.3	3.8	1.49e+00	0	57	104	0	68	13542
2026-01-05 00:31:47.84	25.61	15.03	-52.8	-64.3	3.8	1.49e+00	0	57	104	0	68	13483
2026-01-05 00:31:50.81	25.65	15.34	-52.8	-64.3	3.8	1.49e+00	0	57	104	0	68	13440
2026-01-05 00:31:53.78	25.70	15.66	-52.8	-64.2	3.8	1.49e+00	0	57	104	0	68	13350
2026-01-05 00:31:56.75	25.75	15.99	-52.2	-63.7	3.8	1.49e+00	0	57	104	0	67	13312
2026-01-05 00:31:59.73	25.80	16.32	-52.5	-64.0	3.8	1.49e+00	0	57	104	0	67	13794
2026-01-05 00:32:02.70	25.85	16.65	-52.3	-63.0	3.8	1.49e+00	0	57	104	0	67	12332
2026-01-05 00:32:05.66	25.90	16.99	-51.8	-59.0	4.7	1.12e+00	2	58	104	0	66	8223
2026-01-05 00:32:08.63	25.95	17.33	-51.3	-57.0	5.8	4.24e-01	0	57	0	6291456	65	6934
2026-01-05 00:32:11.59	26.00	17.68	-50.2	-53.8	8.9	3.42e-02	0	57	0	15728640	63	5354
2026-01-05 00:32:14.56	26.05	18.03	-48.1	-50.1	12.7	1.20e-04	0	57	0	24117248	59	4441
2026-01-05 00:32:17.54	26.10	18.39	-46.8	-48.3	14.6	2.20e-06	0	57	0	33554432	56	4249
2026-01-05 00:32:20.52	26.16	18.76	-45.4	-46.5	16.2	0.00e+00	0	57	0	42991616	54	3898
2026-01-05 00:32:23.48	26.21	19.13	-44.5	-45.4	17.2	0.00e+00	0	57	0	52428800	52	3860
2026-01-05 00:32:26.47	26.27	19.51	-44.9	-45.9	16.8	0.00e+00	0	57	0	61865984	52	4088
2026-01-05 00:32:29.43	26.33	19.88	-46.2	-47.5	15.2	0.00e+00	0	57	0	71303168	54	4388
2026-01-05 00:32:32.41	26.39	20.27	-46.1	-47.5	15.3	0.00e+00	0	57	0	80740352	55	4099
2026-01-05 00:32:35.36	26.45	20.66	-45.4	-46.5	16.3	0.00e+00	0	57	0	89128960	53	4113
2026-01-05 00:32:38.33	26.51	21.06	-44.4	-45.4	17.4	0.00e+00	0	57	0	98566144	51	4067
2026-01-05 00:32:41.30	26.57	21.47	-44.0	-44.8	18.0	0.00e+00	0	57	0	108003328	51	3809
2026-01-05 00:32:44.26	26.63	21.88	-43.9	-44.7	18.1	0.00e+00	0	57	0	117440512	50	4001
2026-01-05 00:32:47.24	26.70	22.30	-43.7	-44.5	18.3	0.00e+00	0	57	0	126877696	50	3889
2026-01-05 00:32:50.20	26.77	22.72	-43.6	-44.3	18.4	0.00e+00	0	57	0	136314880	50	3814
2026-01-05 00:32:53.17	26.83	23.15	-43.5	-44.3	18.5	0.00e+00	0	57	0	144703488	50	3792
2026-01-05 00:32:56.12	26.90	23.59	-43.7	-44.5	18.3	0.00e+00	0	57	0	154140672	50	3877
2026-01-05 00:32:59.09	26.97	24.04	-43.6	-44.4	18.4	0.00e+00	0	57	0	163577856	50	3854
2026-01-05 00:33:02.07	27.05	24.50	-43.8	-44.7	18.2	0.00e+00	0	57	0	173015040	50	3962
2026-01-05 00:33:05.03	27.12	24.96	-43.8	-44.6	18.3	0.00e+00	0	57	0	182452224	50	3921
2026-01-05 00:33:08.01	27.20	25.43	-44.2	-45.1	17.8	0.00e+00	0	57	0	191889408	50	4148
2026-01-05 00:33:10.97	27.28	25.91	-44.2	-45.1	17.7	0.00e+00	0	57	0	201326592	50	4191
2026-01-05 00:33:13.94	27.36	26.40	-44.4	-45.3	17.5	0.00e+00	0	57	0	209715200	50	4289
2026-01-05 00:33:16.92	27.44	26.90	-44.6	-45.6	17.3	0.00e+00	0	57	0	219152384	51	4158
2026-01-05 00:33:19.89	27.53	27.40	-44.9	-45.9	17.0	0.00e+00	0	57	0	228589568	51	4300
2026-01-05 00:33:22.85	27.61	27.92	-44.7	-45.6	17.2	0.00e+00	0	57	0	238026752	51	4188
2026-01-05 00:33:25.82	27.70	28.45	-44.9	-45.9	17.1	0.00e+00	0	57	0	247463936	51	4296
2026-01-05 00:33:28.77	27.79	28.98	-45.0	-46.0	16.9	0.00e+00	0	57	0	256901120	51	4365
2026-01-05 00:33:31.72	27.89	29.52	-44.8	-45.7	17.1	0.00e+00	0	57	0	266338304	52	4004
2026-01-05 00:33:34.68	27.99	30.08	-44.8	-45.7	17.1	0.00e+00	0	57	0	274726912	52	3991
2026-01-05 00:33:37.64	28.09	30.64	-44.7	-45.6	17.2	0.00e+00	0	57	0	284164096	52	3950
2026-01-05 00:33:40.58	28.19	31.22	-44.4	-45.4	17.5	0.00e+00	0	57	0	293601280	52	3833
2026-01-05 00:33:43.56	28.30	31.81	-44.5	-45.4	17.5	0.00e+00	0	57	0	303038464	51	4086
2026-01-05 00:33:46.52	28.41	32.41	-44.0	-44.8	18.1	0.00e+00	0	57	0	312475648	51	3800
2026-01-05 00:33:49.49	28.52	33.03	-44.2	-45.1	17.8	0.00e+00	0	57	0	320864256	50	4166
2026-01-05 00:33:52.46	28.64	33.66	-44.6	-45.6	17.4	0.00e+00	0	57	0	330301440	51	4146
2026-01-05 00:33:55.44	28.77	34.30	-45.0	-46.0	16.8	0.00e+00	0	57	0	339738624	52	4118
2026-01-05 00:33:58.40	28.89	34.95	-45.6	-46.8	16.1	0.00e+00	0	57	0	349175808	53	4266
2026-01-05 00:34:01.37	29.03	35.62	-46.1	-47.4	15.5	0.00e+00	0	57	0	358612992	54	4321
2026-01-05 00:34:04.34	29.16	36.31	-46.2	-47.6	15.3	0.00e+00	0	57	0	368050176	54	4398
2026-01-05 00:34:07.32	29.31	37.01	-46.0	-47.2	15.7	0.00e+00	0	57	0	376438784	55	3979
2026-01-05 00:34:10.29	29.45	37.72	-46.1	-47.3	15.6	0.00e+00	0	57	0	385875968	55	4047
2026-01-05 00:34:13.26	29.61	38.45	-46.0	-47.2	15.7	0.00e+00	0	57	0	395313152	55	3985
2026-01-05 00:34:16.22	29.77	39.19	-46.0	-47.2	15.7	0.00e+00	0	57	0	404750336	55	3979
2026-01-05 00:34:19.19	29.94	39.95	-45.9	-47.1	15.7	0.00e+00	0	57	0	414187520	54	4184
2026-01-05 00:34:22.14	30.11	40.72	-46.3	-47.6	15.4	0.00e+00	0	57	0	423624704	54	4416
2026-01-05 00:34:25.10	30.30	41.51	-47.3	-48.9	14.2	7.00e-07	0	57	0	433061888	56	4573
2026-01-05 00:34:28.07	30.49	42.32	-47.5	-49.2	13.8	1.06e-05	0	57	0	441450496	57	4479
2026-01-05 00:34:31.04	30.69	43.15	-47.5	-49.1	14.0	3.80e-06	0	57	0	450887680	57	4403
2026-01-05 00:34:34.02	30.90	44.00	-47.4	-49.1	13.9	7.00e-07	0	57	0	460324864	57	4407
2026-01-05 00:34:36.98	31.13	44.86	-47.6	-49.3	13.8	3.00e-06	0	57	0	469762048	57	4527
2026-01-05 00:34:39.94	31.36	45.74	-47.5	-49.3	13.9	4.50e-06	0	57	0	479199232	57	4496
2026-01-05 00:34:42.91	31.61	46.65	-47.4	-49.0	14.1	2.20e-06	0	57	0	488636416	57	4347
2026-01-05 00:34:45.88	31.87	47.57	-47.6	-49.3	13.8	3.80e-06	0	57	0	498073600	57	4518
2026-01-05 00:34:48.85	32.15	48.51	-45.8	-47.5	15.4	0.00e+00	0	57	0	506462208	55	4117
2026-01-05 00:34:51.83	32.44	49.48	-46.3	-47.6	15.4	0.00e+00	0	58	0	515899392	55	4169
2026-01-05 00:34:54.81	32.76	50.46	-45.7	-46.8	16.2	0.00e+00	0	57	0	525336576	54	4018
2026-01-05 00:34:57.79	33.09	51.47	-45.7	-46.8	16.2	0.00e+00	0	57	0	534773760	54	4015
2026-01-05 00:35:00.76	33.45	52.50	-45.9	-47.1	15.9	0.00e+00	0	57	0	544210944	54	4183
2026-01-05 00:35:03.72	33.83	53.54	-45.9	-47.1	15.9	0.00e+00	0	57	0	553648128	54	4188
2026-01-05 00:35:06.69	34.24	54.60	-44.8	-45.8	17.1	0.00e+00	0	57	0	563085312	52	4031
2026-01-05 00:35:09.65	34.68	55.69	-44.5	-45.4	17.6	0.00e+00	0	57	0	571473920	52	3834
2026-01-05 00:35:12.62	35.15	56.79	-45.1	-46.1	16.8	0.00e+00	0	57	0	580911104	52	4192
2026-01-05 00:35:15.57	35.66	57.91	-44.6	-45.6	17.4	0.00e+00	0	57	0	590348288	52	3931
2026-01-05 00:35:18.53	36.22	59.06	-44.2	-45.1	17.9	0.00e+00	0	57	0	599785472	51	3918
2026-01-05 00:35:21.51	36.83	60.23	-43.9	-44.6	18.4	0.00e+00	0	57	0	609222656	50	3956
2026-01-05 00:35:24.48	37.50	61.41	-43.5	-44.2	18.7	0.00e+00	0	57	0	618659840	50	3780
2026-01-05 00:35:27.45	38.23	62.62	-43.2	-43.9	19.1	0.00e+00	0	57	0	627048448	49	3837
2026-01-05 00:35:30.40	39.03	63.83	-43.3	-44.0	19.0	0.00e+00	0	57	0	636485632	49	3881
2026-01-05 00:35:33.38	39.93	65.07	-43.1	-43.7	19.2	0.00e+00	0	57	0	645922816	49	3778
2026-01-05 00:35:36.34	40.93	66.32	-44.0	-44.8	18.2	0.00e+00	0	57	0	655360000	49	4253
2026-01-05 00:35:39.30	42.05	67.58	-43.6	-44.3	18.6	0.00e+00	0	57	0	664797184	50	3818
2026-01-05 00:35:42.27	43.32	68.85	-43.3	-44.0	18.8	0.00e+00	0	57	0	673185792	49	3904
2026-01-05 00:35:45.23	44.76	70.13	-42.5	-43.1	19.7	0.00e+00	0	57	0	682622976	48	3731
2026-01-05 00:35:48.20	46.41	71.41	-43.3	-44.0	18.9	0.00e+00	0	57	0	692060160	48	4123
2026-01-05 00:35:51.17	48.33	72.70	-43.1	-43.8	19.1	0.00e+00	0	58	0	701497344	49	3792
2026-01-05 00:35:54.15	50.57	73.98	-42.8	-43.5	19.4	0.00e+00	0	57	0	710934528	48	3894
2026-01-05 00:35:57.12	53.21	75.24	-42.6	-43.2	19.2	0.00e+00	0	58	0	720371712	48	3776
2026-01-05 00:36:00.09	56.36	76.48	-43.1	-43.8	19.1	0.00e+00	0	57	0	729808896	48	4029
2026-01-05 00:36:03.06	60.15	77.68	-43.3	-44.0	18.9	0.00e+00	0	58	0	738197504	48	4130
2026-01-05 00:36:06.03	64.76	78.83	-43.5	-44.2	18.7	0.00e+00	0	58	0	747634688	48	4222
2026-01-05 00:36:08.98	70.36	79.89	-42.3	-42.9	19.7	0.00e+00	0	57	0	757071872	47	3838
2026-01-05 00:36:11.95	77.28	80.85	-44.0	-44.8	18.2	0.00e+00	0	57	0	766509056	49	4280
2026-01-05 00:36:14.91	85.64	81.64	-43.3	-44.1	18.8	0.00e+00	0	57	0	775946240	49	3925
2026-01-05 00:36:17.88	95.57	82.24	-42.8	-43.5	19.4	0.00e+00	0	57	0	785383424	48	3884
2026-01-05 00:36:20.84	106.71	82.56	-43.2	-43.9	19.0	0.00e+00	0	57	0	793772032	48	4055
2026-01-05 00:36:23.82	118.49	82.59	-44.5	-45.3	17.7	0.00e+00	0	57	0	803209216	50	4276
2026-01-05 00:36:26.79	129.85	82.32	-43.8	-44.7	18.4	0.00e+00	0	57	0	812646400	50	3960
2026-01-05 00:36:29.74	140.00	81.78	-42.7	-43.3	19.5	0.00e+00	0	57	0	822083584	48	3818
2026-01-05 00:36:32.71	148.71	81.02	-43.3	-44.0	18.9	0.00e+00	0	58	0	831520768	48	4137
2026-01-05 00:36:35.68	155.91	80.09	-43.8	-44.6	18.3	0.00e+00	0	57	0	840957952	49	4186
2026-01-05 00:36:38.65	161.79	79.04	-44.0	-44.8	18.1	0.00e+00	0	57	0	850395136	49	4276
2026-01-05 00:36:41.62	166.58	77.91	-42.8	-43.5	19.4	0.00e+00	0	57	0	858783744	48	3882
2026-01-05 00:36:44.60	170.53	76.71	-43.3	-44.0	18.9	0.00e+00	0	58	0	868220928	49	3892
2026-01-05 00:36:47.57	173.79	75.47	-42.7	-43.4	19.5	0.00e+00	0	58	0	877658112	48	3845
2026-01-05 00:36:50.52	176.50	74.22	-43.7	-44.5	18.4	0.00e+00	0	57	0	887095296	49	4138
2026-01-05 00:36:53.49	178.81	72.95	-43.0	-43.7	19.2	0.00e+00	0	57	0	896532480	48	3988
2026-01-05 00:36:56.46	180.79	71.66	-43.4	-44.2	18.7	0.00e+00	0	57	0	905969664	48	4208
2026-01-05 00:36:59.44	182.50	70.37	-42.4	-43.0	19.6	0.00e+00	0	57	0	915406848	48	3694
2026-01-05 00:37:02.41	183.98	69.09	-43.6	-44.4	18.5	0.00e+00	0	57	0	923795456	49	4093
2026-01-05 00:37:05.38	185.28	67.81	-43.9	-44.7	18.3	0.00e+00	0	57	0	933232640	50	3987
2026-01-05 00:37:08.35	186.43	66.54	-43.6	-44.4	18.4	0.00e+00	0	58	0	942669824	49	4056
2026-01-05 00:37:11.33	187.45	65.28	-44.8	-45.8	17.1	0.00e+00	0	58	0	952107008	51	4249
2026-01-05 00:37:14.30	188.37	64.04	-43.5	-44.2	18.7	0.00e+00	0	57	0	961544192	50	3773
2026-01-05 00:37:17.27	189.19	62.81	-44.3	-45.2	17.6	0.00e+00	0	57	0	970981376	50	4228
2026-01-05 00:37:20.24	189.94	61.60	-46.2	-47.5	15.5	0.00e+00	0	58	0	980418560	54	4351
2026-01-05 00:37:23.22	190.62	60.41	-44.3	-45.2	17.8	0.00e+00	0	58	0	988807168	51	3974
2026-01-05 00:37:26.20	191.24	59.23	-44.0	-44.9	18.1	0.00e+00	0	57	0	998244352	51	3827
2026-01-05 00:37:29.15	191.80	58.08	-44.3	-45.2	17.7	0.00e+00	0	57	0	1007681536	50	4217
2026-01-05 00:37:32.12	192.32	56.95	-43.7	-44.5	18.4	0.00e+00	0	57	0	1017118720	50	3890
2026-01-05 00:37:35.08	192.80	55.84	-44.1	-45.0	17.8	0.00e+00	0	57	0	1026555904	50	4116
2026-01-05 00:37:38.05	193.25	54.75	-45.8	-46.9	16.0	0.00e+00	0	57	0	1035993088	53	4315
2026-01-05 00:37:41.00	193.66	53.68	-45.7	-46.9	16.1	0.00e+00	0	57	0	1044381696	53	4316
2026-01-05 00:37:43.97	194.04	52.63	-45.1	-46.1	16.8	0.00e+00	0	57	0	1053818880	53	3952
2026-01-05 00:37:46.93	194.40	51.61	-46.8	-48.2	14.8	0.00e+00	0	57	0	1063256064	55	4459
2026-01-05 00:37:49.91	194.74	50.59	-46.8	-48.2	14.8	0.00e+00	0	57	0	1072693248	56	4234
2026-01-05 00:37:52.88	195.06	49.60	-46.4	-47.6	15.3	0.00e+00	0	57	0	1082130432	54	4433
2026-01-05 00:37:55.85	195.35	48.63	-46.4	-47.8	15.2	0.00e+00	0	58	0	1091567616	55	4245
2026-01-05 00:37:58.81	195.63	47.69	-45.5	-46.6	16.3	0.00e+00	0	57	0	1099956224	54	3922
2026-01-05 00:38:01.78	195.90	46.76	-47.5	-49.1	14.0	2.20e-06	0	57	0	1109393408	56	4663
2026-01-05 00:38:04.75	196.15	45.85	-48.0	-49.8	13.2	3.35e-05	0	57	0	1118830592	58	4540
2026-01-05 00:38:07.71	196.38	44.96	-46.8	-48.2	14.8	0.00e+00	0	58	0	1128267776	56	4221
2026-01-05 00:38:10.67	196.61	44.10	-48.3	-50.3	12.6	1.04e-04	0	57	0	1137704960	58	4790
2026-01-05 00:38:13.63	196.82	43.25	-48.3	-50.3	12.5	1.37e-04	0	57	0	1147142144	59	4521
2026-01-05 00:38:16.59	197.02	42.41	-46.6	-47.9	15.0	7.00e-07	0	57	0	1155530752	56	4091
2026-01-05 00:38:19.56	197.22	41.60	-46.7	-48.1	14.8	0.00e+00	0	58	0	1164967936	55	4393
2026-01-05 00:38:22.53	197.40	40.80	-47.2	-48.8	14.2	0.00e+00	0	57	0	1174405120	56	4515
2026-01-05 00:38:25.49	197.58	40.02	-46.7	-48.1	14.9	7.00e-07	0	57	0	1183842304	56	4172
2026-01-05 00:38:28.44	197.75	39.26	-46.4	-47.7	15.2	0.00e+00	0	57	0	1193279488	55	4241
2026-01-05 00:38:31.39	197.91	38.52	-46.4	-47.8	15.2	0.00e+00	0	57	0	1202716672	55	4246
2026-01-05 00:38:34.36	198.06	37.78	-45.7	-46.8	16.1	0.00e+00	0	57	0	1211105280	54	4051
2026-01-05 00:38:37.32	198.21	37.07	-45.1	-46.1	16.8	0.00e+00	0	57	0	1220542464	53	3927
2026-01-05 00:38:40.28	198.35	36.37	-44.9	-45.8	17.0	0.00e+00	0	57	0	1229979648	52	4034
2026-01-05 00:38:43.23	198.49	35.68	-45.6	-46.7	16.2	0.00e+00	0	57	0	1239416832	53	4225
2026-01-05 00:38:46.21	198.62	35.01	-45.6	-46.7	16.3	0.00e+00	0	57	0	1248854016	53	4194
2026-01-05 00:38:49.17	198.75	34.35	-46.0	-47.2	15.7	0.00e+00	0	57	0	1258291200	53	4456
2026-01-05 00:38:52.12	198.87	33.71	-45.6	-46.7	16.2	0.00e+00	0	57	0	1266679808	53	4211
2026-01-05 00:38:55.09	198.99	33.08	-45.5	-46.7	16.2	0.00e+00	0	58	0	1276116992	53	4198
2026-01-05 00:38:58.05	199.11	32.46	-45.4	-46.5	16.4	0.00e+00	0	57	0	1285554176	53	4128
2026-01-05 00:39:01.02	199.22	31.85	-44.8	-45.8	17.1	0.00e+00	0	57	0	1294991360	52	4017
2026-01-05 00:39:03.99	199.33	31.26	-45.1	-46.2	16.7	0.00e+00	0	57	0	1304428544	52	4195
2026-01-05 00:39:06.96	199.43	30.67	-44.8	-45.8	17.0	0.00e+00	0	57	0	1313865728	52	4048
2026-01-05 00:39:09.94	199.53	30.10	-45.0	-46.0	16.9	0.00e+00	0	57	0	1322254336	52	4117
2026-01-05 00:39:12.89	199.63	29.54	-45.0	-46.0	16.8	0.00e+00	0	57	0	1331691520	52	4137
2026-01-05 00:39:15.86	199.72	28.99	-44.8	-45.8	17.0	0.00e+00	0	57	0	1341128704	52	4041
2026-01-05 00:39:18.83	199.81	28.45	-45.1	-46.1	16.7	0.00e+00	0	57	0	1350565888	52	4187
2026-01-05 00:39:21.79	199.90	27.92	-45.1	-46.2	16.6	0.00e+00	0	57	0	1360003072	52	4204
2026-01-05 00:39:24.77	199.99	27.40	-44.5	-45.4	17.4	0.00e+00	0	57	0	1369440256	52	3862
2026-01-05 00:39:27.75	200.08	26.89	-44.2	-45.1	17.7	0.00e+00	0	58	0	1378877440	51	3946
2026-01-05 00:39:30.71	200.16	26.39	-44.1	-44.9	17.9	0.00e+00	0	57	0	1387266048	51	3858
2026-01-05 00:39:33.67	200.24	25.90	-43.6	-44.4	18.4	0.00e+00	0	57	0	1396703232	50	3851
2026-01-05 00:39:36.65	200.32	25.41	-43.6	-44.4	18.4	0.00e+00	0	57	0	1406140416	50	3854
2026-01-05 00:39:39.62	200.39	24.94	-43.9	-44.7	18.1	0.00e+00	0	58	0	1415577600	50	3977
2026-01-05 00:39:42.59	200.47	24.47	-44.1	-44.9	17.9	0.00e+00	0	57	0	1425014784	50	4082
2026-01-05 00:39:45.57	200.54	24.01	-44.4	-45.3	17.6	0.00e+00	0	57	0	1434451968	50	4248
2026-01-05 00:39:48.54	200.61	23.56	-44.0	-44.9	18.0	0.00e+00	0	57	0	1442840576	50	4063
2026-01-05 00:39:51.51	200.68	23.12	-44.3	-45.2	17.7	0.00e+00	0	57	0	1452277760	50	4210
2026-01-05 00:39:54.47	200.74	22.69	-44.1	-44.9	17.9	0.00e+00	0	57	0	1461714944	50	4096
2026-01-05 00:39:57.44	200.81	22.26	-44.4	-45.3	17.6	0.00e+00	0	57	0	1471152128	50	4255
2026-01-05 00:40:00.42	200.87	21.84	-44.3	-45.1	17.7	0.00e+00	0	57	0	1480589312	50	4193
2026-01-05 00:40:03.39	200.94	21.42	-44.4	-45.3	17.5	0.00e+00	0	57	0	1490026496	50	4277
2026-01-05 00:40:06.35	201.00	21.02	-44.4	-45.3	17.5	0.00e+00	0	57	0	1499463680	50	4247
2026-01-05 00:40:09.32	201.06	20.62	-44.4	-45.3	17.4	0.00e+00	0	57	0	1507852288	51	4050
2026-01-05 00:40:12.29	201.12	20.22	-44.5	-45.4	17.3	0.00e+00	0	57	0	1517289472	51	4090
2026-01-05 00:40:15.26	201.17	19.83	-44.4	-45.3	17.4	0.00e+00	0	57	0	1526726656	51	4036
2026-01-05 00:40:18.22	201.23	19.45	-44.3	-45.1	17.6	0.00e+00	0	58	0	1536163840	51	3956
2026-01-05 00:40:21.20	201.29	19.08	-44.4	-45.3	17.5	0.00e+00	0	57	0	1545601024	51	4018
2026-01-05 00:40:24.18	201.34	18.70	-44.6	-45.5	17.2	0.00e+00	0	57	0	1555038208	51	4131
2026-01-05 00:40:27.14	201.39	18.34	-44.6	-45.5	17.2	0.00e+00	0	57	0	1564475392	51	4139
2026-01-05 00:40:30.09	201.45	17.98	-44.9	-45.9	16.8	0.00e+00	0	57	0	1572864000	51	4326
2026-01-05 00:40:33.06	201.50	17.63	-45.0	-46.0	16.8	0.00e+00	0	57	0	1582301184	51	4358
2026-01-05 00:40:36.02	201.55	17.28	-45.1	-46.2	16.5	0.00e+00	0	58	0	1591738368	52	4212
2026-01-05 00:40:38.99	201.60	16.93	-45.0	-46.1	16.6	0.00e+00	0	57	0	1601175552	52	4159
2026-01-05 00:40:41.96	201.64	16.59	-45.3	-46.4	16.3	0.00e+00	0	58	0	1610612736	52	4310
2026-01-05 00:40:44.92	201.69	16.26	-45.2	-46.3	16.4	0.00e+00	0	57	0	1620049920	52	4267
2026-01-05 00:40:47.89	201.74	15.93	-45.2	-46.3	16.3	0.00e+00	0	57	0	1628438528	52	4291
2026-01-05 00:40:50.86	201.79	15.60	-45.1	-46.2	16.5	0.00e+00	0	57	0	1637875712	52	4207
2026-01-05 00:40:53.84	201.83	15.28	-45.3	-46.4	16.2	0.00e+00	0	57	0	1647312896	52	4325
2026-01-05 00:40:56.80	201.88	14.96	-45.5	-46.7	15.9	0.00e+00	0	58	0	1656750080	52	4482
2026-01-05 00:40:59.77	201.92	14.64	-44.8	-45.8	16.8	0.00e+00	0	57	0	1666187264	52	4046
2026-01-05 00:41:02.73	201.96	14.34	-45.0	-46.1	16.5	0.00e+00	0	57	0	1675624448	52	4158
2026-01-05 00:41:05.71	202.01	14.03	-45.0	-46.0	16.6	0.00e+00	0	58	0	1684013056	52	4138
2026-01-05 00:41:08.68	202.05	13.73	-45.1	-46.2	16.3	0.00e+00	0	57	0	1693450240	52	4228
2026-01-05 00:41:11.65	202.09	13.43	-44.9	-46.0	16.6	0.00e+00	0	57	0	1702887424	52	4119
2026-01-05 00:41:14.62	202.13	13.13	-45.2	-46.2	16.3	0.00e+00	0	57	0	1712324608	52	4239
2026-01-05 00:41:17.59	202.17	12.84	-45.3	-46.4	16.1	0.00e+00	0	58	0	1721761792	52	4332
2026-01-05 00:41:20.56	202.21	12.55	-45.1	-46.2	16.4	0.00e+00	0	57	0	1731198976	52	4199
2026-01-05 00:41:23.54	202.25	12.27	-45.4	-46.6	16.0	0.00e+00	0	57	0	1740636160	52	4397
2026-01-05 00:41:26.51	202.29	11.98	-45.4	-46.6	16.0	0.00e+00	0	58	0	1749024768	52	4408
2026-01-05 00:41:29.47	202.32	11.71	-45.0	-46.0	16.5	0.00e+00	0	57	0	1758461952	52	4128
2026-01-05 00:41:32.44	202.36	11.43	-45.0	-46.0	16.5	0.00e+00	0	57	0	1767899136	52	4132
2026-01-05 00:41:35.39	202.40	11.16	-45.1	-46.2	16.3	0.00e+00	0	57	0	1777336320	52	4222
2026-01-05 00:41:38.37	202.43	10.89	-45.1	-46.3	16.2	0.00e+00	0	57	0	1786773504	52	4246
2026-01-05 00:41:41.35	202.47	10.62	-45.1	-46.2	16.2	0.00e+00	0	57	0	1796210688	52	4242
2026-01-05 00:41:44.33	202.51	10.36	-45.3	-46.5	16.0	0.00e+00	0	57	0	1805647872	52	4356
2026-01-05 00:41:47.30	202.54	10.10	-45.6	-46.9	15.5	0.00e+00	0	57	0	1814036480	53	4301
2026-01-05 00:41:50.25	202.58	9.84	-45.5	-46.7	15.7	0.00e+00	0	57	0	1823473664	53	4219
2026-01-05 00:41:53.23	202.61	9.59	-45.8	-47.2	15.2	0.00e+00	0	57	0	1832910848	53	4447
2026-01-05 00:41:56.21	202.64	9.33	-45.8	-47.0	15.3	0.00e+00	0	57	0	1842348032	54	4135
2026-01-05 00:41:59.17	202.68	9.08	-45.9	-47.3	15.1	0.00e+00	0	57	0	1851785216	54	4250
2026-01-05 00:42:02.14	202.71	8.84	-46.0	-47.3	15.0	0.00e+00	0	57	0	1861222400	54	4289
2026-01-05 00:42:05.11	202.74	8.59	-46.2	-47.7	14.7	7.00e-07	0	57	0	1869611008	54	4457
2026-01-05 00:42:08.07	202.77	8.35	-46.1	-47.6	14.7	0.00e+00	0	57	0	1879048192	54	4413
2026-01-05 00:42:11.05	202.81	8.11	-46.1	-47.6	14.7	7.00e-07	0	57	0	1888485376	54	4394
2026-01-05 00:42:14.02	202.84	7.87	-46.3	-47.8	14.5	0.00e+00	0	57	0	1897922560	54	4522
2026-01-05 00:42:16.98	202.87	7.63	-46.3	-47.8	14.4	7.00e-07	0	57	0	1907359744	54	4542
2026-01-05 00:42:19.94	202.90	7.40	-46.6	-48.2	14.1	7.00e-07	0	58	0	1916796928	54	4711
2026-01-05 00:42:22.90	202.93	7.17	-46.5	-48.2	14.0	2.20e-06	0	57	0	1925185536	55	4447
2026-01-05 00:42:25.87	202.96	6.94	-46.6	-48.2	14.0	5.30e-06	0	57	0	1934622720	55	4479
2026-01-05 00:42:28.84	202.99	6.71	-46.7	-48.4	13.8	7.60e-06	0	57	0	1944059904	55	4579
2026-01-05 00:42:31.80	203.02	6.49	-47.0	-48.7	13.4	1.52e-05	0	57	0	1953497088	55	4749
2026-01-05 00:42:34.76	203.05	6.27	-47.0	-48.8	13.3	1.90e-05	0	57	0	1962934272	55	4779
2026-01-05 00:42:37.73	203.08	6.04	-47.0	-48.8	13.3	1.67e-05	0	57	0	1972371456	55	4798
2026-01-05 00:42:40.69	203.11	5.82	-47.2	-49.1	13.0	3.81e-05	0	57	0	1981808640	56	4682
2026-01-05 00:42:43.66	203.14	5.61	-47.4	-49.4	12.7	5.11e-05	0	57	0	1990197248	56	4831
2026-01-05 00:42:46.62	203.16	5.39	-47.3	-49.2	12.9	5.11e-05	0	57	0	1999634432	56	4747
2026-01-05 00:42:49.59	203.19	5.18	-47.5	-49.5	12.5	1.32e-04	0	57	0	2009071616	56	4907
2026-01-05 00:42:52.56	203.22	4.96	-51.7	-63.2	3.8	1.49e+00	0	58	104	2017460224	65	14130
2026-01-05 00:42:55.53	203.25	4.75	-52.3	-63.8	3.8	1.49e+00	0	57	104	2017460224	66	14240
2026-01-05 00:42:58.49	203.27	4.54	-52.5	-64.0	3.8	1.49e+00	0	57	104	2017460224	66	14557
2026-01-05 00:43:01.46	203.30	4.34	-52.6	-64.1	3.8	1.49e+00	0	57	104	2017460224	67	13908
2026-01-05 00:43:04.42	203.33	4.13	-52.7	-64.1	3.8	1.49e+00	0	57	104	2017460224	67	14043
2026-01-05 00:43:07.40	203.35	3.92	-52.7	-64.2	3.8	1.49e+00	0	57	104	2017460224	67	14076
2026-01-05 00:43:10.37	203.38	3.72	-52.8	-64.2	3.8	1.49e+00	0	57	104	2017460224	67	14148
2026-01-05 00:43:13.34	203.40	3.52	-52.8	-64.2	3.8	1.49e+00	0	58	104	2017460224	67	14179
2026-01-05 00:43:16.31	203.43	3.32	-52.8	-64.2	3.8	1.49e+00	0	58	104	2017460224	67	14163
2026-01-05 00:43:19.28	203.46	3.12	-52.7	-64.2	3.8	1.49e+00	0	58	104	2017460224	67	14138
2026-01-05 00:43:22.25	203.48	2.92	-52.8	-64.2	3.8	1.49e+00	0	58	104	2017460224	67	14144

#Closed at: 2026-01-05 00:43:23
#Recorded file [2017 MB]: D:/Data/31026_260105_034252.dat