passes_logs/2026/01/05/R3.0SM8_Murmansk_STILSPACE/R3.0SM8_Murmansk_STILSPACE__20260105_005202_AQUA_rec.log

#Pass ID: 20260105_005202_AQUA
#Satellite: AQUA
#Configuration: AQUA
#almurnet v.1.7.20240730
#Start time: 2026-01-05 00:52:02

#Version: 2.2.20231116
#Station: R3.0SM8_Murmansk_STILSPACE
#Location: 33.092731 lon 68.902999 lat
#TLE: 1 27424U 02022A   26003.93831470  .00001925  00000+0  39553-3 0  9995
#TLE: 2 27424  98.4067 330.1809 0002003  92.1713 343.8415 14.61796291259276

#Time	Az	El	Level	Level2	SNR	BER	BlckErr	Temp	State	Recorded	gain1	gain2
2026-01-05 00:52:02.40	22.03	2.99	-52.8	-72.7	3.8	7.50e-01	0	46	0	0	69	34314
2026-01-05 00:52:05.38	22.20	3.19	-53.9	-73.8	3.8	7.45e-01	0	47	104	0	70	36731
2026-01-05 00:52:08.35	22.37	3.38	-53.3	-73.1	3.8	7.47e-01	0	47	104	0	70	34028
2026-01-05 00:52:11.32	22.54	3.57	-52.7	-69.0	4.2	7.32e-01	0	47	104	0	68	23833
2026-01-05 00:52:14.29	22.72	3.77	-52.6	-68.1	4.5	7.21e-01	0	47	104	0	68	21362
2026-01-05 00:52:17.24	22.90	3.96	-52.7	-69.4	3.9	7.39e-01	0	47	104	0	68	24949
2026-01-05 00:52:20.21	23.08	4.16	-52.5	-64.6	6.8	6.69e-01	92	48	0	1572864	68	14264
2026-01-05 00:52:23.18	23.26	4.36	-52.0	-60.8	10.5	6.21e-01	0	48	0	7340032	67	9747
2026-01-05 00:52:26.14	23.45	4.56	-51.6	-58.5	12.9	6.07e-01	0	48	0	12582912	66	7951
2026-01-05 00:52:29.11	23.64	4.76	-51.4	-57.6	13.8	6.05e-01	0	48	0	18350080	66	7177
2026-01-05 00:52:32.05	23.83	4.96	-51.2	-57.1	14.4	6.05e-01	0	48	0	24117248	66	6729
2026-01-05 00:52:35.00	24.02	5.17	-51.0	-56.3	15.2	6.04e-01	0	49	0	29360128	65	6530
2026-01-05 00:52:37.96	24.22	5.37	-51.2	-56.8	14.7	6.03e-01	0	49	0	35127296	65	6895
2026-01-05 00:52:40.91	24.41	5.58	-50.7	-55.3	16.4	6.02e-01	0	49	0	40370176	65	5797
2026-01-05 00:52:43.86	24.62	5.79	-50.2	-53.8	18.1	6.04e-01	0	49	0	46137344	63	5517
2026-01-05 00:52:46.81	24.82	6.00	-50.0	-53.5	18.4	6.01e-01	0	49	0	51380224	63	5299
2026-01-05 00:52:49.77	25.03	6.21	-49.9	-53.1	18.9	6.05e-01	0	49	0	57147392	63	5058
2026-01-05 00:52:52.74	25.24	6.43	-49.5	-52.3	19.7	6.04e-01	0	49	0	62390272	62	4914
2026-01-05 00:52:55.71	25.46	6.64	-49.5	-52.4	19.7	6.05e-01	0	50	0	68157440	62	4938
2026-01-05 00:52:58.68	25.67	6.86	-49.6	-52.5	19.6	6.05e-01	0	50	0	73924608	62	5009
2026-01-05 00:53:01.65	25.90	7.08	-49.5	-52.3	19.8	6.02e-01	0	50	0	79167488	62	4913
2026-01-05 00:53:04.61	26.12	7.30	-49.5	-52.2	19.9	6.01e-01	0	50	0	84934656	62	4867
2026-01-05 00:53:07.58	26.35	7.53	-49.7	-52.6	19.6	6.03e-01	0	50	0	90177536	62	5090
2026-01-05 00:53:10.55	26.58	7.75	-49.5	-52.2	20.0	6.03e-01	0	50	0	95944704	62	4869
2026-01-05 00:53:13.51	26.82	7.98	-49.6	-52.4	19.8	6.03e-01	0	50	0	101711872	62	4941
2026-01-05 00:53:16.47	27.06	8.21	-49.7	-52.6	19.7	6.04e-01	0	50	0	106954752	62	5043
2026-01-05 00:53:19.45	27.30	8.44	-49.9	-52.9	19.3	6.04e-01	0	50	0	112721920	62	5276
2026-01-05 00:53:22.41	27.55	8.67	-50.1	-53.2	19.1	6.05e-01	0	51	0	118489088	62	5428
2026-01-05 00:53:25.38	27.80	8.91	-50.0	-53.1	19.3	6.03e-01	0	51	0	123731968	62	5350
2026-01-05 00:53:28.35	28.06	9.14	-49.6	-52.3	20.1	6.04e-01	0	51	0	129499136	62	4885
2026-01-05 00:53:31.32	28.32	9.38	-49.2	-51.6	20.8	6.03e-01	0	51	0	134742016	61	4796
2026-01-05 00:53:34.29	28.58	9.62	-49.1	-51.5	20.9	6.04e-01	0	51	0	140509184	61	4725
2026-01-05 00:53:37.25	28.85	9.87	-48.9	-51.1	21.3	6.01e-01	0	51	0	146276352	61	4536
2026-01-05 00:53:40.21	29.12	10.11	-48.8	-51.0	21.5	6.06e-01	0	51	0	151519232	61	4459
2026-01-05 00:53:43.17	29.40	10.36	-48.9	-51.2	21.3	6.02e-01	0	51	0	157286400	61	4549
2026-01-05 00:53:46.14	29.68	10.61	-48.8	-51.0	21.5	6.06e-01	0	51	0	162529280	60	4713
2026-01-05 00:53:49.11	29.97	10.86	-49.0	-51.3	21.3	6.04e-01	0	51	0	168296448	60	4874
2026-01-05 00:53:52.08	30.27	11.12	-49.0	-51.3	21.2	6.03e-01	0	52	0	174063616	60	4922
2026-01-05 00:53:55.05	30.57	11.37	-48.8	-51.0	21.5	6.05e-01	0	52	0	179306496	60	4709
2026-01-05 00:53:58.02	30.87	11.63	-48.5	-50.6	21.9	6.04e-01	0	52	0	185073664	60	4527
2026-01-05 00:54:00.99	31.18	11.90	-48.4	-50.5	22.1	6.04e-01	0	52	0	190316544	60	4456
2026-01-05 00:54:03.96	31.50	12.16	-48.6	-50.7	21.9	6.04e-01	0	52	0	196083712	60	4550
2026-01-05 00:54:06.92	31.82	12.43	-48.7	-50.9	21.7	6.02e-01	0	52	0	201850880	60	4681
2026-01-05 00:54:09.88	32.15	12.70	-48.7	-50.8	21.8	6.03e-01	0	52	0	207093760	60	4643
2026-01-05 00:54:12.84	32.48	12.97	-48.8	-50.9	21.7	6.05e-01	0	52	0	212860928	60	4688
2026-01-05 00:54:15.81	32.82	13.24	-48.5	-50.5	22.1	6.05e-01	0	52	0	218628096	60	4458
2026-01-05 00:54:18.77	33.17	13.52	-48.7	-50.8	21.9	6.05e-01	0	52	0	223870976	60	4602
2026-01-05 00:54:21.74	33.52	13.80	-48.3	-50.3	22.3	6.03e-01	0	52	0	229638144	60	4376
2026-01-05 00:54:24.71	33.88	14.08	-48.3	-50.2	22.5	6.03e-01	0	53	0	234881024	60	4311
2026-01-05 00:54:27.66	34.25	14.36	-48.6	-50.6	22.5	6.03e-01	0	53	0	240648192	59	4771
2026-01-05 00:54:30.64	34.62	14.65	-48.7	-50.7	22.3	6.04e-01	0	52	0	246415360	59	4819
2026-01-05 00:54:33.60	35.01	14.94	-48.5	-50.4	22.6	6.02e-01	0	53	0	251658240	59	4702
2026-01-05 00:54:36.57	35.40	15.24	-48.8	-50.8	22.3	6.02e-01	0	53	0	257425408	59	4888
2026-01-05 00:54:39.56	35.80	15.54	-48.5	-50.4	22.7	6.03e-01	0	53	0	263192576	59	4667
2026-01-05 00:54:42.53	36.21	15.84	-48.6	-50.6	22.6	6.02e-01	0	53	0	268435456	59	4771
2026-01-05 00:54:45.50	36.62	16.14	-48.8	-50.8	21.9	6.02e-01	0	53	0	274202624	60	4645
2026-01-05 00:54:48.48	37.05	16.44	-48.7	-50.8	22.0	6.05e-01	0	53	0	279445504	60	4612
2026-01-05 00:54:51.45	37.48	16.75	-48.6	-50.6	22.2	6.02e-01	0	53	0	285212672	60	4507
2026-01-05 00:54:54.43	37.93	17.06	-48.9	-51.1	21.7	6.03e-01	0	53	0	290979840	60	4787
2026-01-05 00:54:57.39	38.38	17.37	-48.5	-50.4	22.4	6.01e-01	0	53	0	296222720	60	4421
2026-01-05 00:55:00.36	38.84	17.69	-48.5	-50.5	22.3	6.02e-01	0	53	0	301989888	60	4460
2026-01-05 00:55:03.34	39.31	18.01	-48.6	-50.5	22.6	6.04e-01	0	53	0	307232768	59	4720
2026-01-05 00:55:06.30	39.79	18.33	-48.7	-50.7	22.5	6.04e-01	0	53	0	312999936	59	4817
2026-01-05 00:55:09.27	40.29	18.66	-48.5	-50.4	22.8	6.04e-01	0	53	0	318767104	59	4658
2026-01-05 00:55:12.25	40.79	18.99	-48.6	-50.5	22.7	6.04e-01	0	54	0	324009984	59	4747
2026-01-05 00:55:15.22	41.31	19.32	-48.6	-50.6	22.6	6.01e-01	0	54	0	329777152	59	4760
2026-01-05 00:55:18.19	41.84	19.65	-48.7	-50.6	22.6	6.05e-01	0	53	0	335544320	59	4776
2026-01-05 00:55:21.16	42.38	19.98	-48.9	-50.9	21.9	6.04e-01	0	53	0	340787200	60	4694
2026-01-05 00:55:24.13	42.93	20.32	-48.6	-50.4	22.9	6.02e-01	0	53	0	346554368	59	4681
2026-01-05 00:55:27.09	43.49	20.66	-48.7	-50.6	22.6	6.02e-01	0	53	0	351797248	59	4786
2026-01-05 00:55:30.06	44.07	21.00	-48.6	-50.6	22.4	6.03e-01	0	54	0	357564416	60	4528
2026-01-05 00:55:33.02	44.65	21.35	-48.7	-50.7	22.2	6.03e-01	0	54	0	363331584	60	4556
2026-01-05 00:55:35.99	45.26	21.69	-48.9	-51.0	22.0	6.03e-01	0	54	0	368574464	60	4711
2026-01-05 00:55:38.96	45.88	22.04	-48.6	-50.6	22.3	6.03e-01	0	54	0	374341632	60	4518
2026-01-05 00:55:41.93	46.51	22.40	-48.7	-50.6	22.2	6.05e-01	0	54	0	379584512	60	4542
2026-01-05 00:55:44.90	47.16	22.75	-48.3	-50.2	22.8	6.05e-01	0	54	0	385351680	60	4294
2026-01-05 00:55:47.87	47.82	23.10	-48.4	-50.3	22.6	6.04e-01	0	54	0	391118848	60	4379
2026-01-05 00:55:50.83	48.50	23.46	-48.6	-50.5	22.5	6.05e-01	0	54	0	396361728	60	4468
2026-01-05 00:55:53.79	49.19	23.82	-48.4	-50.2	22.7	6.03e-01	0	54	0	402128896	60	4320
2026-01-05 00:55:56.76	49.90	24.18	-48.4	-50.2	22.7	6.04e-01	0	54	0	407896064	60	4337
2026-01-05 00:55:59.72	50.63	24.53	-48.6	-50.5	22.4	6.03e-01	0	54	0	413138944	60	4493
2026-01-05 00:56:02.68	51.37	24.89	-48.7	-50.7	22.2	6.04e-01	0	54	0	418906112	60	4575
2026-01-05 00:56:05.66	52.13	25.26	-48.8	-50.9	22.1	6.05e-01	0	54	0	424148992	60	4652
2026-01-05 00:56:08.63	52.91	25.62	-48.9	-50.9	22.0	6.03e-01	0	54	0	429916160	60	4705
2026-01-05 00:56:11.60	53.71	25.98	-48.7	-50.6	22.3	6.06e-01	0	54	0	435683328	60	4538
2026-01-05 00:56:14.56	54.53	26.34	-48.9	-51.0	22.1	6.03e-01	0	54	0	440926208	60	4717
2026-01-05 00:56:17.53	55.36	26.70	-48.4	-50.3	22.7	6.01e-01	0	54	0	446693376	60	4372
2026-01-05 00:56:20.50	56.22	27.06	-48.5	-50.4	22.6	6.02e-01	0	54	0	452460544	60	4425
2026-01-05 00:56:23.48	57.10	27.42	-48.5	-50.4	22.6	6.03e-01	0	54	0	457703424	60	4400
2026-01-05 00:56:26.44	57.99	27.77	-48.4	-50.3	22.7	6.05e-01	0	54	0	463470592	60	4362
2026-01-05 00:56:29.40	58.91	28.12	-48.7	-50.7	22.3	6.02e-01	0	55	0	468713472	60	4584
2026-01-05 00:56:32.37	59.85	28.47	-48.8	-50.8	22.3	6.03e-01	0	54	0	474480640	60	4617
2026-01-05 00:56:35.35	60.81	28.82	-48.8	-50.8	22.1	6.05e-01	0	54	0	480247808	60	4647
2026-01-05 00:56:38.31	61.79	29.16	-49.0	-51.1	21.9	6.03e-01	0	54	0	485490688	60	4791
2026-01-05 00:56:41.27	62.78	29.50	-48.6	-50.5	22.6	6.02e-01	0	55	0	491257856	60	4445
2026-01-05 00:56:44.24	63.81	29.83	-48.5	-50.4	22.6	6.03e-01	0	54	0	496500736	60	4428
2026-01-05 00:56:47.20	64.85	30.16	-48.8	-50.8	22.3	6.03e-01	0	55	0	502267904	60	4638
2026-01-05 00:56:50.17	65.91	30.48	-48.5	-50.4	22.6	6.04e-01	0	55	0	508035072	60	4418
2026-01-05 00:56:53.14	67.00	30.79	-48.5	-50.4	22.6	6.04e-01	0	55	0	513277952	60	4424
2026-01-05 00:56:56.10	68.11	31.10	-48.6	-50.5	22.6	6.03e-01	0	55	0	519045120	60	4442
2026-01-05 00:56:59.07	69.24	31.40	-48.6	-50.5	22.6	6.02e-01	0	55	0	524288000	60	4449
2026-01-05 00:57:02.03	70.39	31.69	-48.6	-50.5	22.5	6.02e-01	0	55	0	530055168	60	4469
2026-01-05 00:57:05.00	71.56	31.97	-48.8	-50.8	22.3	6.03e-01	0	55	0	535822336	60	4642
2026-01-05 00:57:07.97	72.75	32.24	-48.6	-50.5	22.5	6.06e-01	0	55	0	541065216	60	4464
2026-01-05 00:57:10.95	73.97	32.50	-48.9	-50.9	22.2	6.02e-01	0	55	0	546832384	60	4677
2026-01-05 00:57:13.92	75.20	32.74	-48.7	-50.7	22.4	6.03e-01	0	55	0	552599552	60	4566
2026-01-05 00:57:16.90	76.46	32.98	-48.7	-50.6	22.5	6.03e-01	0	55	0	557842432	60	4514
2026-01-05 00:57:19.85	77.72	33.20	-48.4	-50.2	22.9	6.05e-01	0	55	0	563609600	60	4302
2026-01-05 00:57:22.81	79.00	33.41	-48.4	-50.3	22.8	6.02e-01	0	55	0	568852480	60	4350
2026-01-05 00:57:25.77	80.30	33.60	-48.6	-50.5	22.6	6.03e-01	0	55	0	574619648	60	4471
2026-01-05 00:57:28.74	81.62	33.78	-48.5	-50.3	22.8	6.02e-01	0	55	0	579862528	60	4371
2026-01-05 00:57:31.71	82.95	33.95	-48.6	-50.5	22.6	6.03e-01	0	55	0	585629696	60	4479
2026-01-05 00:57:34.66	84.29	34.10	-48.5	-50.3	23.0	6.03e-01	0	55	0	591396864	59	4649
2026-01-05 00:57:37.62	85.64	34.23	-48.7	-50.6	22.9	6.04e-01	0	55	0	596639744	59	4785
2026-01-05 00:57:40.60	87.01	34.34	-48.6	-50.5	22.5	6.06e-01	0	55	0	602406912	60	4466
2026-01-05 00:57:43.58	88.39	34.44	-48.7	-50.5	22.9	6.03e-01	0	55	0	608174080	59	4748
2026-01-05 00:57:46.54	89.78	34.52	-48.4	-50.2	23.2	6.06e-01	0	55	0	613416960	59	4560
2026-01-05 00:57:49.51	91.17	34.59	-48.6	-50.4	23.0	6.02e-01	0	55	0	619184128	59	4682
2026-01-05 00:57:52.47	92.56	34.63	-48.9	-50.9	22.2	6.05e-01	0	55	0	624427008	60	4672
2026-01-05 00:57:55.44	93.96	34.66	-48.3	-50.1	23.0	6.01e-01	0	55	0	630194176	60	4256
2026-01-05 00:57:58.40	95.35	34.66	-48.8	-50.7	22.4	6.05e-01	0	55	0	635961344	60	4597
2026-01-05 00:58:01.36	96.75	34.65	-48.4	-50.2	22.9	6.03e-01	0	55	0	641204224	60	4322
2026-01-05 00:58:04.32	98.15	34.62	-48.4	-50.3	22.8	6.03e-01	0	55	0	646971392	60	4357
2026-01-05 00:58:07.30	99.55	34.58	-48.4	-50.2	23.2	6.02e-01	0	55	0	652214272	59	4553
2026-01-05 00:58:10.28	100.94	34.51	-48.3	-50.0	23.4	6.04e-01	0	55	0	657981440	59	4451
2026-01-05 00:58:13.24	102.32	34.43	-48.4	-50.2	23.2	6.05e-01	0	55	0	663748608	59	4584
2026-01-05 00:58:16.21	103.70	34.33	-48.2	-49.9	23.5	6.04e-01	0	56	0	668991488	59	4422
2026-01-05 00:58:19.17	105.06	34.21	-48.3	-50.1	23.4	6.03e-01	0	55	0	674758656	59	4514
2026-01-05 00:58:22.15	106.43	34.07	-48.2	-49.9	23.5	6.02e-01	0	56	0	680525824	59	4430
2026-01-05 00:58:25.13	107.78	33.92	-48.4	-50.1	23.3	6.02e-01	0	55	0	685768704	59	4539
2026-01-05 00:58:28.09	109.10	33.76	-48.3	-50.0	23.3	6.04e-01	0	55	0	691535872	59	4471
2026-01-05 00:58:31.04	110.41	33.57	-48.1	-49.8	23.5	6.04e-01	0	55	0	696778752	59	4375
2026-01-05 00:58:34.02	111.72	33.38	-48.0	-49.6	23.8	6.04e-01	0	55	0	702545920	59	4253
2026-01-05 00:58:36.99	113.01	33.16	-47.9	-49.6	23.8	6.03e-01	0	55	0	708313088	59	4248
2026-01-05 00:58:39.95	114.27	32.94	-48.0	-49.7	23.7	6.04e-01	0	55	0	713555968	59	4308
2026-01-05 00:58:42.92	115.52	32.70	-48.2	-49.9	23.5	6.04e-01	0	56	0	719323136	59	4414
2026-01-05 00:58:45.88	116.75	32.45	-48.4	-50.1	23.3	6.03e-01	0	55	0	724566016	59	4526
2026-01-05 00:58:48.85	117.96	32.19	-48.2	-49.9	23.5	6.00e-01	0	56	0	730333184	59	4405
2026-01-05 00:58:51.82	119.15	31.92	-48.0	-49.6	23.7	6.06e-01	0	56	0	736100352	59	4268
2026-01-05 00:58:54.78	120.32	31.63	-47.7	-49.2	24.1	6.03e-01	0	55	0	741343232	58	4328
2026-01-05 00:58:57.73	121.47	31.34	-47.8	-49.4	23.9	6.03e-01	0	56	0	747110400	58	4412
2026-01-05 00:59:00.71	122.60	31.04	-48.1	-49.8	23.6	6.05e-01	0	56	0	752353280	58	4631
2026-01-05 00:59:03.68	123.71	30.73	-47.7	-49.3	24.0	6.03e-01	0	55	0	758120448	58	4350
2026-01-05 00:59:06.66	124.80	30.41	-47.6	-49.2	24.1	6.05e-01	0	55	0	763887616	58	4308
2026-01-05 00:59:09.62	125.86	30.09	-47.8	-49.4	24.0	6.05e-01	0	56	0	769130496	58	4396
2026-01-05 00:59:12.60	126.91	29.76	-47.8	-49.4	23.9	6.01e-01	0	56	0	774897664	58	4412
2026-01-05 00:59:15.57	127.93	29.42	-48.1	-49.8	23.6	6.06e-01	0	55	0	780664832	58	4601
2026-01-05 00:59:18.53	128.93	29.09	-48.1	-49.7	23.6	6.03e-01	0	56	0	785907712	58	4579
2026-01-05 00:59:21.50	129.91	28.74	-47.9	-49.5	23.7	6.02e-01	0	56	0	791674880	58	4490
2026-01-05 00:59:24.47	130.87	28.39	-47.9	-49.6	23.8	6.04e-01	0	56	0	796917760	58	4494
2026-01-05 00:59:27.44	131.80	28.04	-48.1	-49.7	23.6	6.03e-01	0	56	0	802684928	58	4579
2026-01-05 00:59:30.40	132.72	27.69	-48.1	-49.7	23.6	6.04e-01	0	56	0	808452096	58	4580
2026-01-05 00:59:33.38	133.61	27.33	-48.1	-49.8	23.6	6.02e-01	0	56	0	813694976	58	4603
2026-01-05 00:59:36.34	134.49	26.97	-48.3	-50.0	23.4	6.07e-01	0	56	0	819462144	58	4730
2026-01-05 00:59:39.30	135.34	26.61	-48.4	-50.1	23.2	6.03e-01	0	56	0	825229312	59	4539
2026-01-05 00:59:42.27	136.18	26.25	-48.2	-49.9	23.4	6.04e-01	0	56	0	830472192	59	4419
2026-01-05 00:59:45.24	136.99	25.88	-48.4	-50.2	23.2	6.04e-01	0	56	0	836239360	59	4547
2026-01-05 00:59:48.20	137.79	25.52	-48.4	-50.1	23.2	6.03e-01	0	56	0	841482240	59	4542
2026-01-05 00:59:51.17	138.57	25.16	-48.7	-50.6	22.7	6.03e-01	0	56	0	847249408	59	4801
2026-01-05 00:59:54.14	139.33	24.80	-48.5	-50.3	23.0	6.04e-01	0	56	0	852492288	59	4624
2026-01-05 00:59:57.11	140.07	24.43	-48.5	-50.3	23.0	6.03e-01	0	56	0	858259456	59	4624
2026-01-05 01:00:00.08	140.80	24.07	-48.7	-50.6	22.8	6.05e-01	0	56	0	864026624	59	4766
2026-01-05 01:00:03.06	141.51	23.71	-48.5	-50.4	22.8	6.05e-01	0	56	0	869269504	59	4662
2026-01-05 01:00:06.02	142.20	23.35	-49.1	-51.2	21.8	6.05e-01	0	56	0	875036672	60	4842
2026-01-05 01:00:08.99	142.88	22.99	-48.3	-50.2	22.7	6.05e-01	0	56	0	880803840	60	4314
2026-01-05 01:00:11.97	143.54	22.63	-48.6	-50.5	22.8	6.03e-01	0	56	0	886046720	59	4708
2026-01-05 01:00:14.94	144.19	22.28	-48.4	-50.2	23.0	6.04e-01	0	56	0	891813888	59	4560
2026-01-05 01:00:17.91	144.82	21.93	-48.2	-49.9	23.3	6.04e-01	0	56	0	897581056	59	4436
2026-01-05 01:00:20.89	145.44	21.57	-48.3	-50.1	23.1	6.04e-01	0	56	0	902823936	59	4519
2026-01-05 01:00:23.84	146.04	21.23	-48.5	-50.3	22.9	6.04e-01	0	56	0	908591104	59	4614
2026-01-05 01:00:26.81	146.63	20.88	-48.6	-50.5	22.8	6.04e-01	0	56	0	913833984	59	4724
2026-01-05 01:00:29.76	147.20	20.54	-48.2	-49.9	23.2	6.04e-01	0	56	0	919601152	59	4440
2026-01-05 01:00:32.73	147.76	20.20	-48.3	-50.0	23.2	6.05e-01	0	56	0	924844032	59	4477
2026-01-05 01:00:35.71	148.32	19.86	-48.4	-50.2	23.1	6.03e-01	0	56	0	930611200	59	4556
2026-01-05 01:00:38.68	148.85	19.52	-48.1	-49.8	23.4	6.04e-01	0	56	0	936378368	59	4391
2026-01-05 01:00:41.66	149.38	19.18	-48.3	-50.1	23.1	6.05e-01	0	56	0	941621248	59	4495
2026-01-05 01:00:44.63	149.90	18.85	-48.6	-50.5	22.6	6.04e-01	0	56	0	947388416	59	4751
2026-01-05 01:00:47.60	150.40	18.52	-48.7	-50.7	22.5	6.03e-01	0	56	0	953155584	59	4821
2026-01-05 01:00:50.57	150.89	18.20	-48.4	-50.2	22.9	6.06e-01	0	56	0	958398464	59	4562
2026-01-05 01:00:53.53	151.37	17.88	-48.2	-49.9	23.2	6.06e-01	0	56	0	964165632	59	4435
2026-01-05 01:00:56.50	151.84	17.56	-48.1	-49.8	23.3	6.03e-01	0	56	0	969932800	59	4373
2026-01-05 01:00:59.46	152.30	17.24	-48.1	-49.8	23.3	6.05e-01	0	56	0	975175680	59	4380
2026-01-05 01:01:02.43	152.75	16.92	-48.2	-49.9	23.2	6.04e-01	0	56	0	980942848	59	4427
2026-01-05 01:01:05.40	153.19	16.61	-48.2	-50.0	23.1	6.03e-01	0	56	0	986185728	59	4466
2026-01-05 01:01:08.37	153.63	16.30	-48.0	-49.8	23.3	6.02e-01	0	56	0	991952896	59	4341
2026-01-05 01:01:11.35	154.05	16.00	-48.3	-50.1	23.0	6.04e-01	0	56	0	997720064	59	4524
2026-01-05 01:01:14.32	154.46	15.69	-48.5	-50.4	22.7	6.02e-01	0	56	0	1002962944	59	4703
2026-01-05 01:01:17.29	154.87	15.39	-48.3	-50.1	23.0	6.03e-01	0	56	0	1008730112	59	4533
2026-01-05 01:01:20.26	155.27	15.10	-48.3	-50.1	22.9	6.03e-01	0	56	0	1014497280	59	4544
2026-01-05 01:01:23.22	155.66	14.80	-48.5	-50.4	22.7	6.04e-01	0	56	0	1019740160	59	4671
2026-01-05 01:01:26.19	156.04	14.51	-48.3	-50.1	23.0	6.01e-01	0	56	0	1025507328	59	4505
2026-01-05 01:01:29.13	156.41	14.22	-48.1	-49.8	23.2	6.05e-01	0	56	0	1030750208	59	4365
2026-01-05 01:01:32.09	156.77	13.94	-48.1	-49.8	23.2	6.05e-01	0	56	0	1036517376	59	4379
2026-01-05 01:01:35.07	157.14	13.65	-48.3	-50.1	22.9	6.05e-01	0	56	0	1041760256	59	4526
2026-01-05 01:01:38.04	157.49	13.37	-48.4	-50.3	22.7	6.02e-01	0	56	0	1047527424	59	4622
2026-01-05 01:01:41.01	157.83	13.09	-48.6	-50.6	22.5	6.03e-01	0	56	0	1053294592	59	4767
2026-01-05 01:01:43.98	158.17	12.82	-48.5	-50.4	22.5	6.07e-01	0	56	0	1058537472	59	4697
2026-01-05 01:01:46.94	158.51	12.55	-49.0	-51.2	21.5	6.02e-01	0	56	0	1064304640	60	4838
2026-01-05 01:01:49.89	158.83	12.28	-48.2	-50.2	22.4	6.04e-01	0	56	0	1069547520	60	4292
2026-01-05 01:01:52.87	159.15	12.01	-48.8	-50.8	22.1	6.02e-01	0	56	0	1075314688	59	4899
2026-01-05 01:01:55.84	159.47	11.74	-48.6	-50.6	22.3	6.03e-01	0	56	0	1081081856	59	4797
2026-01-05 01:01:58.81	159.77	11.48	-48.8	-50.8	22.1	6.03e-01	0	56	0	1086324736	59	4926
2026-01-05 01:02:01.77	160.08	11.22	-48.7	-50.8	22.1	6.05e-01	0	56	0	1092091904	59	4888
2026-01-05 01:02:04.73	160.37	10.96	-48.6	-50.6	22.3	6.06e-01	0	56	0	1097334784	59	4782
2026-01-05 01:02:07.70	160.67	10.71	-48.6	-50.6	22.3	6.04e-01	0	56	0	1103101952	59	4787
2026-01-05 01:02:10.67	160.95	10.45	-48.6	-50.6	22.2	6.04e-01	0	56	0	1108869120	59	4796
2026-01-05 01:02:13.64	161.24	10.20	-48.7	-50.7	22.1	6.04e-01	0	56	0	1114112000	59	4839
2026-01-05 01:02:16.60	161.51	9.95	-48.8	-51.0	21.5	6.06e-01	0	56	0	1119879168	60	4717
2026-01-05 01:02:19.57	161.78	9.71	-48.3	-50.4	22.1	6.04e-01	0	56	0	1125646336	60	4396
2026-01-05 01:02:22.53	162.05	9.46	-48.5	-50.5	21.9	6.03e-01	0	56	0	1130889216	60	4492
2026-01-05 01:02:25.51	162.31	9.22	-48.7	-50.9	21.6	6.04e-01	0	56	0	1136656384	60	4660
2026-01-05 01:02:28.48	162.57	8.98	-48.9	-51.2	21.2	6.03e-01	0	56	0	1141899264	60	4845
2026-01-05 01:02:31.44	162.83	8.74	-49.1	-51.6	20.8	6.04e-01	0	56	0	1147666432	60	5065
2026-01-05 01:02:34.41	163.08	8.51	-49.1	-51.6	20.8	6.03e-01	0	56	0	1153433600	60	5046
2026-01-05 01:02:37.39	163.32	8.27	-49.2	-51.7	20.6	6.05e-01	0	56	0	1158676480	60	5158
2026-01-05 01:02:40.35	163.57	8.04	-49.2	-51.7	20.6	6.04e-01	0	56	0	1164443648	60	5142
2026-01-05 01:02:43.32	163.80	7.81	-49.5	-52.2	20.0	6.06e-01	0	56	0	1170210816	61	5152
2026-01-05 01:02:46.29	164.04	7.58	-49.0	-51.5	20.7	6.05e-01	0	56	0	1175453696	61	4728
2026-01-05 01:02:49.26	164.27	7.36	-49.1	-51.6	20.6	6.03e-01	0	56	0	1181220864	61	4797
2026-01-05 01:02:52.22	164.49	7.13	-49.2	-51.8	20.3	6.03e-01	0	56	0	1186463744	61	4903
2026-01-05 01:02:55.20	164.72	6.91	-49.4	-52.2	19.7	6.04e-01	0	56	0	1192230912	61	5159
2026-01-05 01:02:58.17	164.94	6.69	-49.5	-52.5	19.3	6.03e-01	0	56	0	1197998080	61	5314
2026-01-05 01:03:01.13	165.15	6.47	-49.2	-52.0	19.8	6.09e-01	0	56	0	1203240960	61	5015
2026-01-05 01:03:04.10	165.37	6.25	-49.1	-52.0	19.8	6.04e-01	0	56	0	1209008128	61	5000
2026-01-05 01:03:07.06	165.58	6.04	-49.2	-52.4	19.0	6.02e-01	0	56	0	1214251008	61	5227
2026-01-05 01:03:10.03	165.78	5.83	-49.2	-52.5	18.7	6.03e-01	0	56	0	1220018176	61	5298
2026-01-05 01:03:12.99	165.99	5.61	-49.5	-53.6	17.2	6.05e-01	0	56	0	1225785344	61	6029
2026-01-05 01:03:15.95	166.19	5.40	-49.6	-54.7	15.4	6.02e-01	0	56	0	1231028224	61	6868
2026-01-05 01:03:18.91	166.38	5.20	-49.7	-56.3	13.2	6.04e-01	0	57	0	1236795392	61	8201
2026-01-05 01:03:21.88	166.58	4.99	-53.0	-72.8	3.8	7.43e-01	0	56	104	1240989696	68	36538
2026-01-05 01:03:24.85	166.77	4.78	-54.0	-73.9	3.8	7.43e-01	0	56	104	1240989696	70	37018
2026-01-05 01:03:27.81	166.96	4.58	-54.2	-74.1	3.8	7.44e-01	0	57	104	1240989696	70	38069
2026-01-05 01:03:30.77	167.14	4.38	-54.3	-74.3	3.8	7.45e-01	0	57	104	1240989696	70	38739
2026-01-05 01:03:33.74	167.33	4.18	-54.4	-74.3	3.8	7.46e-01	0	56	104	1240989696	71	36875
2026-01-05 01:03:36.72	167.51	3.98	-54.4	-74.4	3.8	7.44e-01	0	57	104	1240989696	71	37048
2026-01-05 01:03:39.68	167.69	3.78	-54.5	-74.4	3.8	7.46e-01	0	57	104	1240989696	71	37242
2026-01-05 01:03:42.64	167.86	3.58	-54.5	-74.4	3.8	7.45e-01	0	57	104	1240989696	71	37291
2026-01-05 01:03:45.61	168.04	3.39	-54.5	-74.4	3.8	7.47e-01	0	57	104	1240989696	71	37281
2026-01-05 01:03:48.58	168.21	3.19	-54.5	-74.4	3.8	7.47e-01	0	57	104	1240989696	71	37230
2026-01-05 01:03:51.55	168.38	3.00	-54.4	-74.4	3.8	7.46e-01	0	57	104	1240989696	71	37239

#Closed at: 2026-01-05 01:03:52
#Recorded file [1240 MB]: D:/Data/31026_260105_040321.dat