passes_logs/2026/01/05/R3.0SM8_Murmansk_STILSPACE/R3.0SM8_Murmansk_STILSPACE__20260105_133844_FENGYUN_3D_rec.log

#Pass ID: 20260105_133844_FENGYUN 3D
#Satellite: FENGYUN 3D
#Configuration: FENGYUN 3D
#almurnet v.1.7.20240730
#Start time: 2026-01-05 13:38:46

#Version: 2.2.20231116
#Station: R3.0SM8_Murmansk_STILSPACE
#Location: 33.092731 lon 68.902999 lat
#TLE: 1 43010U 17072A   26004.99581904 -.00000126  00000+0 -37613-4 0  9996
#TLE: 2 43010  98.9917 336.6574 0001994 126.4096 233.7264 14.19691690421839

#Time	Az	El	Level	Level2	SNR	BER	BlckErr	Temp	State	Recorded	gain1	gain2
2026-01-05 13:38:46.54	205.46	3.13	-48.5	-59.3	3.8	8.47e-01	0	50	0	0	58	13417
2026-01-05 13:38:49.49	205.66	3.31	-48.5	-59.2	3.8	8.46e-01	0	50	104	0	59	12654
2026-01-05 13:38:52.45	205.86	3.48	-48.5	-59.2	3.8	8.47e-01	0	51	104	0	59	12646
2026-01-05 13:38:55.41	206.07	3.66	-48.5	-59.2	3.8	8.47e-01	0	51	104	0	59	12635
2026-01-05 13:38:58.36	206.27	3.84	-48.5	-59.3	3.8	8.46e-01	0	51	104	0	59	12676
2026-01-05 13:39:01.31	206.48	4.01	-48.5	-59.2	3.8	8.44e-01	0	51	104	0	59	12650
2026-01-05 13:39:04.26	206.70	4.19	-48.5	-59.2	3.8	8.46e-01	0	51	104	0	59	12601
2026-01-05 13:39:07.22	206.91	4.37	-48.5	-59.2	3.8	8.44e-01	0	51	104	0	59	12634
2026-01-05 13:39:10.18	207.13	4.55	-48.5	-59.2	3.8	8.46e-01	0	52	104	0	59	12652
2026-01-05 13:39:13.14	207.35	4.74	-48.5	-59.2	3.8	8.47e-01	0	52	104	0	59	12655
2026-01-05 13:39:16.09	207.57	4.92	-48.5	-59.2	3.8	8.46e-01	0	52	104	0	59	12639
2026-01-05 13:39:19.04	207.79	5.10	-48.5	-59.2	3.8	8.46e-01	0	52	104	0	59	12642
2026-01-05 13:39:21.99	208.02	5.28	-48.5	-59.2	3.8	8.47e-01	0	53	104	0	59	12653
2026-01-05 13:39:24.95	208.25	5.47	-48.5	-59.2	3.8	8.46e-01	0	53	104	0	59	12644
2026-01-05 13:39:27.91	208.48	5.66	-48.5	-59.2	3.8	8.46e-01	0	53	104	0	59	12654
2026-01-05 13:39:30.86	208.72	5.84	-48.5	-59.2	3.8	8.46e-01	0	53	104	0	59	12645
2026-01-05 13:39:33.82	208.96	6.03	-48.5	-59.2	3.8	8.46e-01	0	53	104	0	59	12644
2026-01-05 13:39:36.77	209.20	6.22	-48.5	-59.2	3.8	8.46e-01	0	53	104	0	59	12633
2026-01-05 13:39:39.73	209.45	6.41	-48.5	-59.2	3.8	8.47e-01	0	54	104	0	59	12635
2026-01-05 13:39:42.67	209.69	6.60	-48.5	-59.3	3.8	8.46e-01	0	54	104	0	59	12684
2026-01-05 13:39:45.63	209.94	6.79	-48.5	-59.2	3.8	8.47e-01	0	54	104	0	59	12644
2026-01-05 13:39:48.59	210.20	6.99	-48.5	-59.2	3.8	8.45e-01	0	54	104	0	59	12636
2026-01-05 13:39:51.58	210.46	7.18	-48.5	-59.3	3.8	8.46e-01	0	54	104	0	59	12675
2026-01-05 13:39:54.54	210.72	7.38	-48.5	-59.3	3.8	8.46e-01	0	54	104	0	59	12669
2026-01-05 13:39:57.49	210.98	7.57	-48.5	-59.2	3.8	8.47e-01	0	55	104	0	59	12664
2026-01-05 13:40:00.45	211.25	7.77	-48.6	-59.2	3.8	8.46e-01	0	55	104	0	59	12653
2026-01-05 13:40:03.42	211.52	7.97	-48.5	-59.2	3.8	8.45e-01	0	55	104	0	59	12656
2026-01-05 13:40:06.38	211.80	8.17	-48.5	-59.3	3.8	8.47e-01	0	55	104	0	59	12673
2026-01-05 13:40:09.33	212.07	8.37	-48.5	-59.2	3.8	8.45e-01	0	55	104	0	59	12649
2026-01-05 13:40:12.29	212.36	8.57	-48.5	-59.3	3.8	8.45e-01	0	55	104	0	59	12683
2026-01-05 13:40:15.24	212.64	8.77	-48.5	-59.3	3.8	8.46e-01	0	55	104	0	59	12687
2026-01-05 13:40:18.20	212.93	8.98	-48.5	-59.3	3.8	8.47e-01	0	55	104	0	59	12679
2026-01-05 13:40:21.16	213.22	9.18	-48.5	-59.2	3.8	8.46e-01	0	56	104	0	59	12653
2026-01-05 13:40:24.13	213.52	9.39	-48.5	-59.3	3.8	8.45e-01	0	56	104	0	59	12672
2026-01-05 13:40:27.09	213.83	9.59	-48.5	-59.3	3.8	8.47e-01	0	56	104	0	59	12666
2026-01-05 13:40:30.04	214.13	9.80	-48.5	-59.3	3.8	8.45e-01	0	56	104	0	59	12679
2026-01-05 13:40:33.00	214.44	10.01	-48.6	-59.2	3.8	8.45e-01	0	56	104	0	59	12645
2026-01-05 13:40:35.95	214.75	10.22	-48.5	-59.3	3.8	8.46e-01	0	56	104	0	59	12672
2026-01-05 13:40:38.91	215.07	10.43	-48.5	-59.3	3.8	8.47e-01	0	56	104	0	59	12693
2026-01-05 13:40:41.86	215.39	10.64	-48.5	-59.2	3.8	8.46e-01	0	56	104	0	59	12650
2026-01-05 13:40:44.82	215.72	10.85	-48.5	-59.3	3.8	8.46e-01	0	56	104	0	59	12672
2026-01-05 13:40:47.78	216.05	11.07	-48.5	-59.3	3.8	8.46e-01	0	57	104	0	59	12692
2026-01-05 13:40:50.73	216.39	11.28	-48.5	-59.3	3.8	8.47e-01	0	57	104	0	59	12710
2026-01-05 13:40:53.69	216.73	11.50	-48.5	-59.2	3.8	8.47e-01	0	57	104	0	59	12662
2026-01-05 13:40:56.65	217.08	11.71	-48.5	-59.3	3.8	8.47e-01	0	57	104	0	59	12668
2026-01-05 13:40:59.60	217.43	11.93	-48.6	-59.3	3.8	8.45e-01	0	57	104	0	59	12695
2026-01-05 13:41:02.56	217.78	12.15	-48.5	-59.2	3.8	8.46e-01	0	57	104	0	59	12663
2026-01-05 13:41:05.51	218.14	12.37	-48.6	-59.3	3.8	8.46e-01	0	57	104	0	59	12702
2026-01-05 13:41:08.47	218.51	12.59	-48.6	-59.3	3.8	8.47e-01	0	57	104	0	59	12666
2026-01-05 13:41:11.42	218.88	12.81	-48.6	-59.3	3.8	8.45e-01	0	57	104	0	59	12668
2026-01-05 13:41:14.38	219.26	13.03	-48.5	-59.3	3.8	8.45e-01	0	57	104	0	59	12675
2026-01-05 13:41:17.34	219.64	13.26	-48.5	-59.3	3.8	8.46e-01	0	58	104	0	59	12673
2026-01-05 13:41:20.31	220.03	13.48	-48.6	-59.2	3.8	8.45e-01	0	58	104	0	59	12640
2026-01-05 13:41:23.27	220.43	13.71	-48.5	-59.2	3.8	8.46e-01	0	58	104	0	59	12658
2026-01-05 13:41:26.23	220.83	13.94	-48.5	-59.2	3.8	8.44e-01	0	58	104	0	59	12662
2026-01-05 13:41:29.19	221.23	14.16	-48.5	-59.3	3.8	8.48e-01	0	58	104	0	59	12722
2026-01-05 13:41:32.15	221.65	14.39	-48.5	-59.3	3.8	8.46e-01	0	58	104	0	59	12672
2026-01-05 13:41:35.11	222.06	14.62	-48.5	-59.2	3.8	8.47e-01	0	58	104	0	59	12645
2026-01-05 13:41:38.07	222.49	14.85	-48.5	-59.3	3.8	8.47e-01	0	58	104	0	59	12703
2026-01-05 13:41:41.02	222.92	15.08	-48.5	-59.3	3.8	8.46e-01	0	58	104	0	59	12700
2026-01-05 13:41:43.97	223.35	15.31	-48.6	-59.3	3.8	8.45e-01	0	58	104	0	59	12711
2026-01-05 13:41:46.93	223.80	15.54	-48.5	-59.3	3.8	8.46e-01	0	58	104	0	59	12677
2026-01-05 13:41:49.88	224.25	15.77	-48.5	-59.3	3.8	8.46e-01	0	58	104	0	59	12689
2026-01-05 13:41:52.84	224.71	16.00	-48.5	-59.3	3.8	8.47e-01	0	58	104	0	59	12709
2026-01-05 13:41:55.79	225.17	16.24	-48.5	-59.2	3.8	8.46e-01	0	58	104	0	59	12656
2026-01-05 13:41:58.74	225.64	16.47	-48.6	-59.3	3.8	8.46e-01	0	58	104	0	59	12692
2026-01-05 13:42:01.69	226.12	16.70	-48.6	-59.3	3.8	8.47e-01	0	59	104	0	59	12734
2026-01-05 13:42:04.64	226.60	16.94	-48.5	-59.3	3.8	8.45e-01	0	59	104	0	59	12685
2026-01-05 13:42:07.59	227.09	17.17	-48.5	-59.3	3.8	8.47e-01	0	59	104	0	59	12677
2026-01-05 13:42:10.55	227.59	17.40	-48.5	-59.3	3.8	8.47e-01	0	59	104	0	59	12703
2026-01-05 13:42:13.51	228.10	17.64	-48.5	-59.3	3.8	8.45e-01	0	59	104	0	59	12718
2026-01-05 13:42:16.47	228.62	17.87	-48.6	-59.3	3.8	8.47e-01	0	59	104	0	59	12725
2026-01-05 13:42:19.42	229.14	18.11	-48.6	-59.3	3.8	8.45e-01	0	59	104	0	59	12697
2026-01-05 13:42:22.37	229.67	18.34	-48.6	-59.3	3.8	8.46e-01	0	59	104	0	59	12676
2026-01-05 13:42:25.32	230.21	18.58	-48.6	-59.3	3.8	8.47e-01	0	59	104	0	59	12699
2026-01-05 13:42:28.28	230.76	18.81	-48.6	-59.3	3.8	8.46e-01	0	59	104	0	59	12759
2026-01-05 13:42:31.24	231.31	19.05	-48.6	-59.3	3.8	8.46e-01	0	59	104	0	59	12741
2026-01-05 13:42:34.19	231.88	19.28	-48.6	-59.3	3.8	8.47e-01	0	59	104	0	59	12691
2026-01-05 13:42:37.14	232.45	19.51	-48.6	-59.3	3.8	8.46e-01	0	59	104	0	59	12727
2026-01-05 13:42:40.10	233.03	19.74	-48.6	-59.3	3.8	8.46e-01	0	60	104	0	59	12701
2026-01-05 13:42:43.06	233.62	19.97	-48.5	-59.3	3.8	8.48e-01	0	59	104	0	59	12711
2026-01-05 13:42:46.01	234.22	20.20	-48.5	-59.3	3.8	8.47e-01	0	60	104	0	59	12733
2026-01-05 13:42:48.98	234.82	20.44	-48.5	-59.3	3.8	8.45e-01	0	60	104	0	59	12711
2026-01-05 13:42:51.94	235.44	20.66	-48.5	-59.3	3.8	8.47e-01	0	60	104	0	59	12680
2026-01-05 13:42:54.89	236.06	20.89	-48.6	-59.3	3.8	8.46e-01	0	60	104	0	59	12724
2026-01-05 13:42:57.84	236.70	21.12	-48.5	-59.3	3.8	8.45e-01	0	60	104	0	59	12685
2026-01-05 13:43:00.80	237.34	21.34	-48.6	-59.3	3.8	8.46e-01	0	60	104	0	59	12696
2026-01-05 13:43:03.75	237.99	21.56	-48.6	-59.3	3.8	8.46e-01	0	60	104	0	59	12720
2026-01-05 13:43:06.70	238.65	21.78	-48.5	-59.3	3.8	8.46e-01	0	60	104	0	59	12746
2026-01-05 13:43:09.66	239.32	22.00	-48.5	-59.3	3.8	8.46e-01	0	60	104	0	59	12699
2026-01-05 13:43:12.61	240.00	22.22	-48.6	-59.3	3.8	8.46e-01	0	60	104	0	59	12727
2026-01-05 13:43:15.82	240.75	22.45	-48.6	-59.3	3.8	8.46e-01	0	60	104	0	59	12709
2026-01-05 13:43:18.64	241.41	22.65	-48.6	-59.3	3.8	8.46e-01	0	60	104	0	59	12693
2026-01-05 13:43:21.75	242.16	22.87	-48.6	-59.3	3.8	8.47e-01	0	60	104	0	59	12728
2026-01-05 13:43:24.56	242.84	23.07	-48.6	-59.3	3.8	8.46e-01	0	60	104	0	59	12707
2026-01-05 13:43:27.66	243.60	23.28	-48.6	-59.3	3.8	8.46e-01	0	60	104	0	59	12738
2026-01-05 13:43:30.48	244.30	23.47	-48.6	-59.3	3.8	8.47e-01	0	60	104	0	59	12736
2026-01-05 13:43:33.59	245.09	23.68	-48.6	-59.3	3.8	8.45e-01	0	60	104	0	59	12732
2026-01-05 13:43:36.41	245.81	23.87	-48.6	-59.3	3.8	8.47e-01	0	60	104	0	59	12783
2026-01-05 13:43:39.51	246.61	24.06	-48.6	-59.3	3.8	8.46e-01	0	60	104	0	59	12702
2026-01-05 13:43:42.33	247.34	24.24	-48.6	-59.3	3.8	8.47e-01	0	60	104	0	59	12719
2026-01-05 13:43:45.44	248.16	24.43	-48.6	-59.3	3.8	8.46e-01	0	61	104	0	59	12707
2026-01-05 13:43:48.26	248.92	24.60	-48.6	-59.3	3.8	8.46e-01	0	60	104	0	59	12726
2026-01-05 13:43:51.36	249.75	24.78	-48.6	-59.3	3.8	8.47e-01	0	61	104	0	59	12746
2026-01-05 13:43:54.18	250.52	24.94	-48.6	-59.3	3.8	8.47e-01	0	60	104	0	59	12748
2026-01-05 13:43:57.27	251.37	25.11	-48.6	-59.3	3.8	8.47e-01	0	61	104	0	59	12700
2026-01-05 13:44:00.09	252.16	25.26	-48.5	-59.3	3.8	8.45e-01	0	61	104	0	59	12703
2026-01-05 13:44:03.20	253.03	25.43	-48.5	-59.3	3.8	8.45e-01	0	61	104	0	59	12733
2026-01-05 13:44:06.02	253.83	25.57	-48.6	-59.3	3.8	8.46e-01	0	61	104	0	59	12732
2026-01-05 13:44:09.13	254.72	25.72	-48.6	-59.3	3.8	8.46e-01	0	61	104	0	59	12727
2026-01-05 13:44:11.95	255.54	25.84	-48.5	-59.3	3.8	8.46e-01	0	61	104	0	59	12725
2026-01-05 13:44:15.05	256.44	25.98	-48.5	-59.3	3.8	8.45e-01	0	61	104	0	59	12695
2026-01-05 13:44:17.88	257.27	26.10	-48.5	-59.3	3.8	8.47e-01	0	61	104	0	59	12749
2026-01-05 13:44:20.98	258.19	26.22	-48.6	-59.3	3.8	8.45e-01	0	61	104	0	59	12689
2026-01-05 13:44:23.80	259.02	26.33	-48.6	-59.3	3.8	8.47e-01	0	61	104	0	59	12723
2026-01-05 13:44:26.91	259.96	26.44	-48.6	-59.3	3.8	8.47e-01	0	61	104	0	59	12699
2026-01-05 13:44:29.73	260.81	26.53	-48.6	-59.3	3.8	8.46e-01	0	61	104	0	59	12746
2026-01-05 13:44:32.83	261.75	26.62	-48.6	-59.3	3.8	8.46e-01	0	61	104	0	59	12708
2026-01-05 13:44:35.66	262.61	26.70	-48.6	-59.3	3.8	8.46e-01	0	61	104	0	59	12754
2026-01-05 13:44:38.75	263.55	26.78	-48.6	-59.3	3.8	8.45e-01	0	61	104	0	59	12732
2026-01-05 13:44:41.57	264.42	26.85	-48.6	-59.3	3.8	8.46e-01	0	61	104	0	59	12724
2026-01-05 13:44:44.67	265.38	26.91	-48.6	-59.3	3.8	8.46e-01	0	61	104	0	59	12767
2026-01-05 13:44:47.49	266.25	26.96	-48.6	-59.3	3.8	8.46e-01	0	61	104	0	59	12732
2026-01-05 13:44:50.60	267.22	27.01	-48.6	-59.3	3.8	8.47e-01	0	61	104	0	59	12719
2026-01-05 13:44:53.42	268.10	27.05	-48.6	-59.3	3.8	8.46e-01	0	61	104	0	59	12752
2026-01-05 13:44:56.53	269.07	27.08	-48.6	-59.3	3.8	8.46e-01	0	61	104	0	59	12704
2026-01-05 13:44:59.34	269.95	27.10	-48.6	-59.3	3.8	8.47e-01	0	61	104	0	59	12728
2026-01-05 13:45:02.45	270.92	27.12	-48.6	-59.3	3.8	8.47e-01	0	61	104	0	59	12747
2026-01-05 13:45:05.27	271.81	27.12	-48.6	-59.3	3.8	8.46e-01	0	61	104	0	59	12770
2026-01-05 13:45:08.37	272.78	27.12	-48.6	-59.3	3.8	8.46e-01	0	61	104	0	59	12711
2026-01-05 13:45:11.18	273.66	27.11	-48.6	-59.3	3.8	8.47e-01	0	61	104	0	59	12771
2026-01-05 13:45:14.28	274.63	27.09	-48.6	-59.3	3.8	8.46e-01	0	61	104	0	59	12758
2026-01-05 13:45:17.11	275.51	27.07	-48.6	-59.3	3.8	8.47e-01	0	61	104	0	59	12711
2026-01-05 13:45:20.21	276.48	27.04	-48.6	-59.3	3.8	8.46e-01	0	61	104	0	59	12707
2026-01-05 13:45:23.03	277.36	27.00	-48.6	-59.3	3.8	8.46e-01	0	61	104	0	59	12734
2026-01-05 13:45:26.14	278.32	26.95	-48.6	-59.3	3.8	8.46e-01	0	61	104	0	59	12762
2026-01-05 13:45:28.96	279.19	26.89	-48.6	-59.3	3.8	8.48e-01	0	61	104	0	59	12721
2026-01-05 13:45:32.06	280.15	26.83	-48.6	-59.3	3.8	8.46e-01	0	61	104	0	59	12749
2026-01-05 13:45:34.87	281.01	26.76	-48.6	-59.3	3.8	8.46e-01	0	61	104	0	59	12707
2026-01-05 13:45:37.98	281.96	26.68	-48.6	-59.3	3.8	8.46e-01	0	61	104	0	59	12749
2026-01-05 13:45:40.81	282.82	26.60	-48.6	-59.3	3.8	8.47e-01	0	61	104	0	59	12768
2026-01-05 13:45:43.91	283.76	26.50	-48.6	-59.3	3.8	8.46e-01	0	62	104	0	59	12737
2026-01-05 13:45:46.73	284.60	26.41	-48.6	-59.3	3.8	8.46e-01	0	61	104	0	59	12756
2026-01-05 13:45:49.83	285.53	26.30	-48.6	-59.3	3.8	8.47e-01	0	62	104	0	59	12752
2026-01-05 13:45:52.65	286.37	26.19	-48.6	-59.3	3.8	8.46e-01	0	61	104	0	59	12749
2026-01-05 13:45:55.76	287.28	26.06	-48.6	-59.3	3.8	8.46e-01	0	62	104	0	59	12745
2026-01-05 13:45:58.58	288.11	25.94	-48.6	-59.3	3.8	8.46e-01	0	61	104	0	59	12757
2026-01-05 13:46:01.69	289.01	25.81	-48.6	-59.3	3.8	8.46e-01	0	62	104	0	59	12773
2026-01-05 13:46:04.51	289.82	25.68	-48.6	-59.3	3.8	8.46e-01	0	62	104	0	59	12742
2026-01-05 13:46:07.61	290.70	25.53	-48.5	-59.3	3.8	8.45e-01	0	62	104	0	59	12726
2026-01-05 13:46:10.43	291.50	25.38	-48.6	-59.3	3.8	8.47e-01	0	62	104	0	59	12764
2026-01-05 13:46:13.54	292.37	25.22	-48.6	-59.3	3.8	8.46e-01	0	62	104	0	59	12744
2026-01-05 13:46:16.36	293.15	25.07	-48.6	-59.3	3.8	8.47e-01	0	62	104	0	59	12724
2026-01-05 13:46:19.48	294.00	24.90	-48.6	-59.3	3.8	8.46e-01	0	62	104	0	59	12735
2026-01-05 13:46:22.28	294.76	24.74	-48.6	-59.3	3.8	8.46e-01	0	62	104	0	59	12734
2026-01-05 13:46:25.37	295.59	24.56	-48.6	-59.3	3.8	8.46e-01	0	62	104	0	59	12775
2026-01-05 13:46:28.17	296.34	24.39	-48.6	-59.3	3.8	8.46e-01	0	62	104	0	59	12741
2026-01-05 13:46:31.26	297.15	24.20	-48.6	-59.3	3.8	8.46e-01	0	62	104	0	59	12757
2026-01-05 13:46:34.06	297.87	24.02	-48.5	-59.3	3.8	8.46e-01	0	62	104	0	59	12734
2026-01-05 13:46:37.14	298.66	23.82	-48.6	-59.3	3.8	8.46e-01	0	62	104	0	59	12748
2026-01-05 13:46:39.96	299.38	23.64	-48.6	-59.3	3.8	8.45e-01	0	62	104	0	59	12803
2026-01-05 13:46:43.06	300.15	23.43	-48.6	-59.3	3.8	8.47e-01	0	62	104	0	59	12752
2026-01-05 13:46:45.87	300.85	23.24	-48.6	-59.3	3.8	8.46e-01	0	62	104	0	59	12750
2026-01-05 13:46:48.98	301.61	23.03	-48.5	-59.3	3.8	8.46e-01	0	62	104	0	59	12712
2026-01-05 13:46:51.79	302.29	22.83	-48.6	-59.3	3.8	8.44e-01	0	62	104	0	59	12739
2026-01-05 13:46:54.88	303.02	22.61	-48.6	-59.3	3.8	8.46e-01	0	62	104	0	59	12727
2026-01-05 13:46:57.70	303.68	22.41	-48.6	-59.3	3.8	8.46e-01	0	62	104	0	59	12726
2026-01-05 13:47:00.79	304.40	22.19	-48.6	-59.3	3.8	8.46e-01	0	62	104	0	59	12684
2026-01-05 13:47:03.61	305.04	21.98	-48.6	-59.3	3.8	8.48e-01	0	62	104	0	59	12759
2026-01-05 13:47:06.71	305.74	21.75	-48.6	-59.3	3.8	8.46e-01	0	62	104	0	59	12778
2026-01-05 13:47:09.53	306.37	21.54	-48.6	-59.3	3.8	8.45e-01	0	62	104	0	59	12786
2026-01-05 13:47:12.63	307.05	21.31	-48.6	-59.3	3.8	8.46e-01	0	62	104	0	59	12719
2026-01-05 13:47:15.45	307.66	21.10	-48.6	-59.3	3.8	8.46e-01	0	62	104	0	59	12779
2026-01-05 13:47:18.55	308.32	20.86	-48.6	-59.3	3.8	8.46e-01	0	62	104	0	59	12787
2026-01-05 13:47:21.36	308.91	20.65	-48.6	-59.3	3.8	8.46e-01	0	62	104	0	59	12800
2026-01-05 13:47:24.45	309.55	20.41	-48.6	-59.3	3.8	8.45e-01	0	62	104	0	59	12793
2026-01-05 13:47:27.27	310.13	20.19	-48.6	-59.3	3.8	8.46e-01	0	62	104	0	59	12775
2026-01-05 13:47:30.37	310.75	19.95	-48.6	-59.3	3.8	8.47e-01	0	62	104	0	59	12753
2026-01-05 13:47:33.18	311.31	19.73	-48.6	-59.3	3.8	8.47e-01	0	62	104	0	59	12723
2026-01-05 13:47:36.29	311.92	19.49	-48.6	-59.3	3.8	8.46e-01	0	62	104	0	59	12737
2026-01-05 13:47:39.11	312.46	19.27	-48.6	-59.3	3.8	8.47e-01	0	62	104	0	59	12809
2026-01-05 13:47:42.20	313.05	19.03	-48.6	-59.3	3.8	8.45e-01	0	62	104	0	59	12782
2026-01-05 13:47:45.01	313.57	18.81	-48.6	-59.3	3.8	8.46e-01	0	62	104	0	59	12777
2026-01-05 13:47:48.11	314.14	18.56	-48.6	-59.3	3.8	8.45e-01	0	62	104	0	59	12766
2026-01-05 13:47:50.93	314.65	18.34	-48.6	-59.3	3.8	8.47e-01	0	62	104	0	59	12764
2026-01-05 13:47:54.03	315.21	18.09	-48.6	-59.3	3.8	8.46e-01	0	62	104	0	59	12730
2026-01-05 13:47:56.84	315.70	17.87	-48.6	-59.3	3.8	8.44e-01	0	62	104	0	59	12715
2026-01-05 13:47:59.94	316.24	17.63	-48.6	-59.3	3.8	8.47e-01	0	62	104	0	59	12791
2026-01-05 13:48:02.75	316.72	17.41	-48.6	-59.3	3.8	8.46e-01	0	62	104	0	59	12768
2026-01-05 13:48:05.84	317.24	17.16	-48.6	-59.3	3.8	8.46e-01	0	62	104	0	59	12780
2026-01-05 13:48:08.65	317.71	16.94	-48.6	-59.3	3.8	8.47e-01	0	62	104	0	59	12757
2026-01-05 13:48:11.76	318.21	16.70	-48.6	-59.3	3.8	8.47e-01	0	62	104	0	59	12810
2026-01-05 13:48:14.57	318.67	16.48	-48.6	-59.3	3.8	8.45e-01	0	62	104	0	59	12773
2026-01-05 13:48:17.66	319.16	16.23	-48.6	-59.3	3.8	8.46e-01	0	62	104	0	59	12747
2026-01-05 13:48:20.48	319.60	16.01	-48.6	-59.3	3.8	8.46e-01	0	62	104	0	59	12688
2026-01-05 13:48:23.58	320.07	15.77	-48.6	-59.3	3.8	8.46e-01	0	62	104	0	59	12735
2026-01-05 13:48:26.39	320.50	15.55	-48.6	-59.3	3.8	8.46e-01	0	62	104	0	59	12698
2026-01-05 13:48:29.49	320.96	15.31	-48.6	-59.3	3.8	8.46e-01	0	62	104	0	59	12706
2026-01-05 13:48:32.30	321.38	15.09	-48.6	-59.3	3.8	8.46e-01	0	62	104	0	59	12754
2026-01-05 13:48:35.40	321.83	14.85	-48.6	-59.3	3.8	8.46e-01	0	62	104	0	59	12726
2026-01-05 13:48:38.21	322.23	14.64	-48.6	-59.3	3.8	8.46e-01	0	62	104	0	59	12761
2026-01-05 13:48:41.30	322.66	14.40	-48.6	-59.3	3.8	8.47e-01	0	62	104	0	59	12737
2026-01-05 13:48:44.12	323.05	14.19	-48.6	-59.3	3.8	8.46e-01	0	62	104	0	59	12768
2026-01-05 13:48:47.22	323.48	13.95	-48.6	-59.3	3.8	8.46e-01	0	62	104	0	59	12747
2026-01-05 13:48:50.03	323.86	13.74	-48.6	-59.3	3.8	8.46e-01	0	62	104	0	59	12734
2026-01-05 13:48:53.12	324.27	13.50	-48.6	-59.3	3.8	8.46e-01	0	62	104	0	59	12693
2026-01-05 13:48:55.94	324.64	13.29	-48.6	-59.3	3.8	8.47e-01	0	62	104	0	59	12785
2026-01-05 13:48:59.04	325.04	13.06	-48.6	-59.3	3.8	8.46e-01	0	62	104	0	59	12771
2026-01-05 13:49:01.85	325.39	12.85	-48.6	-59.3	3.8	8.45e-01	0	62	104	0	59	12779
2026-01-05 13:49:04.95	325.78	12.62	-48.6	-59.3	3.8	8.46e-01	0	62	104	0	59	12756
2026-01-05 13:49:07.76	326.13	12.41	-48.6	-59.3	3.8	8.46e-01	0	62	104	0	59	12765
2026-01-05 13:49:10.86	326.51	12.18	-48.6	-59.3	3.8	8.46e-01	0	62	104	0	59	12782
2026-01-05 13:49:13.66	326.84	11.97	-48.6	-59.3	3.8	8.47e-01	0	62	104	0	59	12734
2026-01-05 13:49:16.76	327.21	11.75	-48.6	-59.3	3.8	8.45e-01	0	62	104	0	59	12756
2026-01-05 13:49:19.58	327.54	11.54	-48.6	-59.3	3.8	8.47e-01	0	62	104	0	59	12808
2026-01-05 13:49:22.68	327.90	11.32	-48.6	-59.3	3.8	8.46e-01	0	62	104	0	59	12775
2026-01-05 13:49:25.49	328.22	11.11	-48.6	-59.3	3.8	8.45e-01	0	62	104	0	59	12738
2026-01-05 13:49:28.59	328.56	10.89	-48.6	-59.3	3.8	8.46e-01	0	62	104	0	59	12737
2026-01-05 13:49:31.40	328.87	10.69	-48.6	-59.3	3.8	8.45e-01	0	62	104	0	59	12779
2026-01-05 13:49:34.50	329.21	10.47	-48.6	-59.3	3.8	8.46e-01	0	62	104	0	59	12792
2026-01-05 13:49:37.31	329.51	10.27	-48.6	-59.3	3.8	8.46e-01	0	62	104	0	59	12758
2026-01-05 13:49:40.41	329.84	10.05	-48.6	-59.3	3.8	8.46e-01	0	62	104	0	59	12754
2026-01-05 13:49:43.23	330.14	9.86	-48.6	-59.3	3.8	8.47e-01	0	62	104	0	59	12772
2026-01-05 13:49:46.33	330.46	9.64	-48.6	-59.3	3.8	8.46e-01	0	62	104	0	59	12769
2026-01-05 13:49:49.14	330.74	9.45	-48.6	-59.4	3.8	8.45e-01	0	62	104	0	59	12814
2026-01-05 13:49:52.24	331.06	9.23	-48.6	-59.3	3.8	8.45e-01	0	62	104	0	59	12753
2026-01-05 13:49:55.06	331.34	9.04	-48.6	-59.3	3.8	8.47e-01	0	62	104	0	59	12749
2026-01-05 13:49:58.15	331.64	8.83	-48.6	-59.3	3.8	8.47e-01	0	62	104	0	59	12806
2026-01-05 13:50:00.93	331.91	8.64	-48.6	-59.3	3.8	8.46e-01	0	62	104	0	59	12746
2026-01-05 13:50:04.05	332.20	8.43	-48.6	-59.3	3.8	8.46e-01	0	62	104	0	59	12752
2026-01-05 13:50:06.87	332.47	8.24	-48.6	-59.3	3.8	8.46e-01	0	62	104	0	59	12753
2026-01-05 13:50:09.96	332.76	8.03	-48.6	-59.3	3.8	8.46e-01	0	62	104	0	59	12771
2026-01-05 13:50:12.77	333.01	7.84	-48.6	-59.3	3.8	8.47e-01	0	62	104	0	59	12761
2026-01-05 13:50:15.87	333.30	7.64	-48.6	-59.3	3.8	8.46e-01	0	62	104	0	59	12783
2026-01-05 13:50:18.68	333.55	7.45	-48.6	-59.3	3.8	8.45e-01	0	62	104	0	59	12732
2026-01-05 13:50:21.78	333.82	7.25	-48.6	-59.3	3.8	8.45e-01	0	62	104	0	59	12751
2026-01-05 13:50:24.60	334.07	7.07	-48.6	-59.3	3.8	8.47e-01	0	62	104	0	59	12737
2026-01-05 13:50:27.69	334.33	6.87	-48.6	-59.3	3.8	8.46e-01	0	62	104	0	59	12792
2026-01-05 13:50:30.51	334.57	6.68	-48.6	-59.3	3.8	8.46e-01	0	62	104	0	59	12787
2026-01-05 13:50:33.61	334.83	6.49	-48.6	-59.3	3.8	8.46e-01	0	62	104	0	59	12763
2026-01-05 13:50:36.42	335.07	6.31	-48.6	-59.3	3.8	8.46e-01	0	62	104	0	59	12770
2026-01-05 13:50:39.52	335.32	6.11	-48.6	-59.3	3.8	8.46e-01	0	62	104	0	59	12735
2026-01-05 13:50:42.34	335.55	5.93	-48.6	-59.3	3.8	8.47e-01	0	62	104	0	59	12769
2026-01-05 13:50:45.44	335.80	5.74	-48.6	-59.3	3.8	8.46e-01	0	62	104	0	59	12722
2026-01-05 13:50:48.25	336.02	5.56	-48.6	-59.3	3.8	8.45e-01	0	62	104	0	59	12760
2026-01-05 13:50:51.35	336.26	5.37	-48.6	-59.3	3.8	8.47e-01	0	62	104	0	59	12767
2026-01-05 13:50:54.17	336.48	5.19	-48.6	-59.3	3.8	8.46e-01	0	62	104	0	59	12783
2026-01-05 13:50:57.26	336.72	5.00	-48.6	-59.3	3.8	8.47e-01	0	62	104	0	59	12782
2026-01-05 13:51:00.08	336.93	4.83	-48.6	-59.3	3.8	8.45e-01	0	62	104	0	59	12748
2026-01-05 13:51:03.17	337.16	4.64	-48.6	-59.3	3.8	8.46e-01	0	62	104	0	59	12738
2026-01-05 13:51:05.99	337.37	4.47	-48.6	-59.4	3.8	8.47e-01	0	62	104	0	59	12818
2026-01-05 13:51:09.09	337.59	4.28	-48.6	-59.3	3.8	8.47e-01	0	62	104	0	59	12759
2026-01-05 13:51:11.91	337.80	4.11	-48.6	-59.3	3.8	8.46e-01	0	62	104	0	59	12744
2026-01-05 13:51:15.00	338.02	3.93	-48.6	-59.3	3.8	8.45e-01	0	62	104	0	59	12766
2026-01-05 13:51:17.82	338.22	3.76	-48.6	-59.3	3.8	8.47e-01	0	62	104	0	59	12769
2026-01-05 13:51:20.92	338.43	3.58	-48.6	-59.3	3.8	8.47e-01	0	62	104	0	59	12774
2026-01-05 13:51:23.74	338.63	3.41	-48.6	-59.3	3.8	8.44e-01	0	62	104	0	59	12760
2026-01-05 13:51:26.83	338.84	3.23	-48.6	-59.3	3.8	8.46e-01	0	62	104	0	59	12787
2026-01-05 13:51:29.65	339.03	3.06	-48.6	-59.3	3.8	8.46e-01	0	62	104	0	59	12791
2026-01-05 13:51:32.75	339.24	2.88	-48.6	-59.3	3.8	8.46e-01	0	62	104	0	59	12729

#Closed at: 2026-01-05 13:51:33
#Recorded file [0 MB]: D:/Data/31026_260105_163845.dat