passes_logs/2026/01/05/R3.0SM8_Murmansk_STILSPACE/R3.0SM8_Murmansk_STILSPACE__20260105_022939_AQUA_rec.log

#Pass ID: 20260105_022939_AQUA
#Satellite: AQUA
#Configuration: AQUA
#almurnet v.1.7.20240730
#Start time: 2026-01-05 02:29:40

#Version: 2.2.20231116
#Station: R3.0SM8_Murmansk_STILSPACE
#Location: 33.092731 lon 68.902999 lat
#TLE: 1 27424U 02022A   26003.93831470  .00001925  00000+0  39553-3 0  9995
#TLE: 2 27424  98.4067 330.1809 0002003  92.1713 343.8415 14.61796291259276

#Time	Az	El	Level	Level2	SNR	BER	BlckErr	Temp	State	Recorded	gain1	gain2
2026-01-05 02:29:40.88	24.06	3.10	-54.0	-73.9	3.8	7.47e-01	0	47	0	0	70	37339
2026-01-05 02:29:43.84	24.05	3.31	-53.5	-73.4	3.8	7.43e-01	0	47	104	0	70	35011
2026-01-05 02:29:46.80	24.04	3.51	-53.0	-70.4	4.0	7.44e-01	0	47	104	0	69	26192
2026-01-05 02:29:49.78	24.03	3.72	-52.9	-67.2	5.1	7.07e-01	0	48	104	0	68	19301
2026-01-05 02:29:52.75	24.02	3.93	-52.8	-65.3	6.4	6.75e-01	93	48	0	3145728	68	15473
2026-01-05 02:29:55.72	24.01	4.15	-52.7	-63.5	8.1	6.41e-01	65	48	0	8912896	68	12550
2026-01-05 02:29:58.68	24.00	4.36	-52.4	-61.2	10.4	6.13e-01	0	48	0	14155776	68	9709
2026-01-05 02:30:01.66	23.99	4.58	-51.9	-58.7	13.1	6.07e-01	0	49	0	19922944	67	7689
2026-01-05 02:30:04.63	23.98	4.80	-51.4	-56.8	14.9	6.00e-01	0	48	0	25690112	66	6548
2026-01-05 02:30:07.59	23.97	5.02	-50.7	-55.1	16.7	6.02e-01	0	49	0	30932992	65	5703
2026-01-05 02:30:10.57	23.96	5.24	-50.7	-54.9	17.0	6.02e-01	0	49	0	36700160	64	5876
2026-01-05 02:30:13.54	23.95	5.47	-50.1	-53.5	18.4	5.99e-01	0	49	0	41943040	63	5321
2026-01-05 02:30:16.52	23.93	5.69	-49.7	-52.9	19.0	6.02e-01	0	49	0	47710208	62	5270
2026-01-05 02:30:19.48	23.92	5.92	-49.9	-53.2	18.8	6.01e-01	0	49	0	53477376	62	5435
2026-01-05 02:30:22.47	23.91	6.16	-49.4	-52.2	19.8	5.99e-01	0	49	0	58720256	62	4835
2026-01-05 02:30:25.43	23.89	6.39	-49.1	-51.8	20.1	5.98e-01	0	49	0	64487424	61	4898
2026-01-05 02:30:28.39	23.88	6.62	-49.0	-51.5	20.5	6.01e-01	0	50	0	69730304	61	4743
2026-01-05 02:30:31.35	23.87	6.86	-49.1	-51.6	20.5	6.00e-01	0	50	0	75497472	61	4810
2026-01-05 02:30:34.31	23.85	7.10	-49.1	-51.6	20.5	6.04e-01	0	50	0	81264640	61	4804
2026-01-05 02:30:37.29	23.83	7.35	-48.9	-51.4	20.8	6.00e-01	0	50	0	86507520	60	4932
2026-01-05 02:30:40.24	23.82	7.59	-48.8	-51.2	21.0	6.00e-01	0	50	0	92274688	60	4837
2026-01-05 02:30:43.22	23.80	7.84	-48.7	-51.1	21.1	6.02e-01	0	50	0	97517568	60	4779
2026-01-05 02:30:46.20	23.78	8.09	-48.7	-51.1	21.1	6.01e-01	0	51	0	103284736	60	4782
2026-01-05 02:30:49.16	23.77	8.35	-48.8	-51.1	21.1	6.02e-01	0	51	0	109051904	60	4802
2026-01-05 02:30:52.12	23.75	8.60	-48.9	-51.3	21.0	6.00e-01	0	51	0	114294784	60	4901
2026-01-05 02:30:55.07	23.73	8.86	-48.7	-51.0	21.3	6.03e-01	0	51	0	120061952	60	4713
2026-01-05 02:30:58.04	23.71	9.13	-48.7	-51.0	21.3	6.01e-01	0	51	0	125829120	60	4749
2026-01-05 02:31:01.00	23.69	9.39	-48.6	-50.9	21.5	6.01e-01	0	51	0	131072000	60	4661
2026-01-05 02:31:03.96	23.67	9.66	-48.7	-50.9	21.4	6.00e-01	0	51	0	136839168	60	4702
2026-01-05 02:31:06.92	23.65	9.93	-48.6	-50.7	21.7	5.99e-01	0	51	0	142082048	60	4582
2026-01-05 02:31:09.89	23.62	10.21	-48.5	-50.6	21.8	6.01e-01	0	51	0	147849216	60	4515
2026-01-05 02:31:12.85	23.60	10.49	-48.5	-50.6	21.8	6.02e-01	0	51	0	153092096	60	4544
2026-01-05 02:31:15.82	23.58	10.77	-48.7	-51.0	21.2	6.02e-01	0	52	0	158859264	60	4738
2026-01-05 02:31:18.79	23.55	11.06	-48.6	-50.8	21.6	6.02e-01	0	52	0	164626432	60	4608
2026-01-05 02:31:21.75	23.53	11.35	-48.6	-50.6	22.2	5.99e-01	0	52	0	169869312	59	4788
2026-01-05 02:31:24.71	23.50	11.64	-48.7	-50.7	22.0	6.00e-01	0	52	0	175636480	59	4855
2026-01-05 02:31:27.67	23.47	11.94	-48.4	-50.5	22.0	6.00e-01	0	52	0	180879360	60	4447
2026-01-05 02:31:30.63	23.44	12.24	-48.6	-50.6	22.2	6.00e-01	0	52	0	186646528	59	4805
2026-01-05 02:31:33.59	23.42	12.55	-48.7	-50.7	22.1	6.03e-01	0	52	0	192413696	59	4848
2026-01-05 02:31:36.56	23.39	12.86	-48.7	-50.9	21.6	6.00e-01	0	52	0	197656576	60	4694
2026-01-05 02:31:39.53	23.35	13.18	-48.2	-50.2	22.3	6.00e-01	0	52	0	203423744	60	4294
2026-01-05 02:31:42.50	23.32	13.50	-48.5	-50.5	22.4	6.01e-01	0	52	0	208666624	59	4734
2026-01-05 02:31:45.48	23.29	13.82	-48.7	-50.8	22.2	6.00e-01	0	52	0	214433792	59	4879
2026-01-05 02:31:48.45	23.26	14.15	-48.4	-50.4	22.5	6.02e-01	0	52	0	220200960	59	4653
2026-01-05 02:31:51.43	23.22	14.49	-48.5	-50.5	22.5	6.01e-01	0	53	0	225443840	59	4713
2026-01-05 02:31:54.40	23.18	14.83	-48.2	-50.1	22.9	6.01e-01	0	53	0	231211008	59	4503
2026-01-05 02:31:57.37	23.15	15.17	-48.2	-50.0	22.9	6.01e-01	0	53	0	236978176	59	4473
2026-01-05 02:32:00.33	23.11	15.52	-48.2	-50.0	22.9	6.04e-01	0	53	0	242221056	59	4466
2026-01-05 02:32:03.30	23.07	15.88	-47.9	-49.7	23.3	6.02e-01	0	53	0	247988224	59	4297
2026-01-05 02:32:06.28	23.03	16.25	-47.8	-49.5	23.4	6.01e-01	0	53	0	253231104	59	4237
2026-01-05 02:32:09.24	22.98	16.61	-47.9	-49.6	23.4	6.02e-01	0	53	0	258998272	59	4275
2026-01-05 02:32:12.21	22.94	16.99	-48.0	-49.7	23.3	6.02e-01	0	53	0	264765440	59	4315
2026-01-05 02:32:15.18	22.89	17.37	-47.9	-49.7	23.3	6.02e-01	0	53	0	270008320	59	4300
2026-01-05 02:32:18.15	22.85	17.76	-48.1	-49.9	23.1	6.01e-01	0	53	0	275775488	59	4408
2026-01-05 02:32:21.12	22.80	18.15	-48.3	-50.2	22.8	6.00e-01	0	53	0	281542656	59	4572
2026-01-05 02:32:24.09	22.75	18.55	-48.5	-50.4	22.6	6.00e-01	0	53	0	286785536	59	4675
2026-01-05 02:32:27.07	22.69	18.96	-48.7	-50.6	22.5	6.01e-01	0	53	0	292552704	59	4804
2026-01-05 02:32:30.02	22.64	19.38	-48.5	-50.4	22.7	6.01e-01	0	53	0	297795584	59	4663
2026-01-05 02:32:32.99	22.58	19.80	-48.4	-50.2	22.8	6.03e-01	0	54	0	303562752	59	4590
2026-01-05 02:32:35.94	22.52	20.23	-48.5	-50.4	22.8	6.01e-01	0	53	0	309329920	59	4658
2026-01-05 02:32:38.92	22.46	20.68	-48.7	-50.7	22.4	6.01e-01	0	54	0	314572800	59	4833
2026-01-05 02:32:41.89	22.40	21.12	-48.3	-50.3	22.5	6.01e-01	0	54	0	320339968	60	4351
2026-01-05 02:32:44.86	22.33	21.58	-48.5	-50.4	22.4	6.00e-01	0	54	0	325582848	60	4438
2026-01-05 02:32:47.82	22.27	22.05	-48.5	-50.3	22.8	6.02e-01	0	54	0	331350016	59	4648
2026-01-05 02:32:50.77	22.20	22.52	-48.5	-50.4	22.8	6.00e-01	0	54	0	337117184	59	4684
2026-01-05 02:32:53.74	22.12	23.01	-48.5	-50.3	22.8	6.02e-01	0	54	0	342360064	59	4631
2026-01-05 02:32:56.70	22.05	23.51	-48.3	-50.1	23.1	6.01e-01	0	54	0	348127232	59	4508
2026-01-05 02:32:59.66	21.97	24.01	-48.4	-50.2	23.0	6.02e-01	0	54	0	353370112	59	4568
2026-01-05 02:33:02.62	21.89	24.53	-48.2	-50.0	23.2	6.00e-01	0	54	0	359137280	59	4444
2026-01-05 02:33:05.60	21.80	25.06	-48.5	-50.3	22.9	6.01e-01	0	54	0	364904448	59	4632
2026-01-05 02:33:08.55	21.71	25.60	-48.4	-50.3	22.8	6.03e-01	0	54	0	370147328	59	4609
2026-01-05 02:33:11.53	21.62	26.15	-48.7	-50.6	22.6	6.01e-01	0	54	0	375914496	59	4761
2026-01-05 02:33:14.48	21.52	26.71	-48.8	-50.7	22.5	6.02e-01	0	54	0	381681664	59	4846
2026-01-05 02:33:17.45	21.42	27.29	-48.7	-50.6	22.6	6.02e-01	0	54	0	386924544	59	4774
2026-01-05 02:33:20.42	21.32	27.89	-48.2	-50.0	23.2	6.02e-01	0	54	0	392691712	59	4455
2026-01-05 02:33:23.38	21.21	28.49	-48.4	-50.2	22.9	6.02e-01	0	54	0	397934592	59	4569
2026-01-05 02:33:26.37	21.09	29.11	-47.8	-49.4	23.7	6.00e-01	0	54	0	403701760	59	4170
2026-01-05 02:33:29.33	20.98	29.75	-47.8	-49.4	23.5	6.01e-01	0	54	0	409468928	59	4189
2026-01-05 02:33:32.29	20.85	30.40	-48.3	-50.2	22.6	6.00e-01	0	54	0	414711808	59	4569
2026-01-05 02:33:35.26	20.72	31.06	-48.6	-50.8	21.8	5.99e-01	0	54	0	420478976	59	4897
2026-01-05 02:33:38.23	20.58	31.75	-48.9	-51.5	20.5	6.01e-01	0	54	0	425721856	60	5028
2026-01-05 02:33:41.19	20.44	32.44	-49.5	-52.5	19.4	6.02e-01	0	54	0	431489024	61	5332
2026-01-05 02:33:44.17	20.29	33.17	-49.7	-52.6	19.6	6.02e-01	0	54	0	437256192	61	5381
2026-01-05 02:33:47.14	20.13	33.90	-48.5	-50.6	21.8	6.01e-01	0	55	0	442499072	60	4531
2026-01-05 02:33:50.11	19.96	34.66	-48.6	-50.6	22.6	5.99e-01	0	54	0	448266240	59	4762
2026-01-05 02:33:53.09	19.78	35.44	-48.7	-50.7	22.3	6.03e-01	0	54	0	454033408	60	4547
2026-01-05 02:33:56.05	19.60	36.23	-49.0	-51.1	21.9	5.99e-01	0	54	0	459276288	60	4813
2026-01-05 02:33:59.01	19.40	37.04	-49.2	-51.4	21.7	5.99e-01	0	55	0	465043456	60	4935
2026-01-05 02:34:01.99	19.20	37.88	-49.5	-51.8	21.3	6.01e-01	0	55	0	470286336	61	4880
2026-01-05 02:34:04.96	18.98	38.74	-49.4	-51.7	21.3	6.01e-01	0	55	0	476053504	61	4844
2026-01-05 02:34:07.93	18.75	39.63	-49.2	-51.4	21.6	6.00e-01	0	55	0	481820672	61	4692
2026-01-05 02:34:10.90	18.50	40.53	-49.2	-51.4	21.7	6.03e-01	0	55	0	487063552	61	4680
2026-01-05 02:34:13.86	18.24	41.46	-49.0	-51.1	22.0	6.02e-01	0	55	0	492830720	61	4509
2026-01-05 02:34:16.83	17.96	42.42	-48.8	-50.8	22.3	6.00e-01	0	55	0	498073600	61	4381
2026-01-05 02:34:19.79	17.67	43.40	-48.4	-50.2	22.8	6.01e-01	0	55	0	503840768	60	4317
2026-01-05 02:34:22.76	17.35	44.41	-48.4	-50.1	23.2	6.01e-01	0	55	0	509607936	59	4528
2026-01-05 02:34:25.73	17.02	45.44	-48.4	-50.1	23.2	6.01e-01	0	55	0	514850816	59	4525
2026-01-05 02:34:28.68	16.66	46.50	-48.5	-50.2	23.1	6.00e-01	0	55	0	520617984	59	4594
2026-01-05 02:34:31.64	16.27	47.59	-48.5	-50.3	22.7	6.01e-01	0	55	0	525860864	60	4387
2026-01-05 02:34:34.61	15.85	48.71	-48.7	-50.6	22.8	6.00e-01	0	55	0	531628032	59	4785
2026-01-05 02:34:37.57	15.40	49.85	-48.7	-50.5	22.9	6.02e-01	0	55	0	537395200	59	4759
2026-01-05 02:34:40.54	14.91	51.03	-48.5	-50.2	23.1	6.00e-01	0	55	0	542638080	59	4597
2026-01-05 02:34:43.49	14.38	52.22	-47.7	-49.2	24.1	5.99e-01	0	55	0	548405248	59	4093
2026-01-05 02:34:46.46	13.81	53.46	-47.8	-49.4	24.0	6.02e-01	0	55	0	553648128	58	4406
2026-01-05 02:34:49.42	13.18	54.72	-48.0	-49.6	23.7	6.00e-01	0	55	0	559415296	58	4530
2026-01-05 02:34:52.39	12.49	56.01	-48.2	-49.9	23.5	6.02e-01	0	55	0	565182464	58	4686
2026-01-05 02:34:55.36	11.72	57.33	-48.6	-50.5	22.6	6.02e-01	0	55	0	570425344	60	4471
2026-01-05 02:34:58.34	10.88	58.68	-48.6	-50.5	22.6	6.04e-01	0	55	0	576192512	60	4452
2026-01-05 02:35:01.31	9.95	60.06	-48.7	-50.7	22.4	6.02e-01	0	55	0	581435392	60	4555
2026-01-05 02:35:04.27	8.91	61.45	-48.9	-50.9	22.2	6.02e-01	0	55	0	587202560	60	4685
2026-01-05 02:35:07.25	7.73	62.87	-49.2	-51.4	21.8	6.00e-01	0	55	0	592969728	60	4941
2026-01-05 02:35:10.22	6.41	64.31	-49.7	-52.1	21.2	5.99e-01	0	55	0	598212608	61	5048
2026-01-05 02:35:13.19	4.91	65.76	-50.5	-53.2	20.0	6.02e-01	0	55	0	603979776	63	5155
2026-01-05 02:35:16.17	3.19	67.23	-50.9	-54.1	19.1	6.02e-01	0	55	0	609746944	64	5347
2026-01-05 02:35:19.14	1.21	68.70	-51.2	-54.7	18.5	6.00e-01	0	55	0	614989824	64	5724
2026-01-05 02:35:22.09	358.92	70.16	-50.9	-54.0	19.1	6.01e-01	0	55	0	620756992	64	5325
2026-01-05 02:35:25.06	356.23	71.61	-50.8	-54.0	19.3	6.02e-01	0	56	0	625999872	64	5284
2026-01-05 02:35:28.02	353.05	73.03	-51.1	-54.5	18.7	6.01e-01	0	55	0	631767040	64	5623
2026-01-05 02:35:30.98	349.27	74.41	-51.2	-54.6	18.6	6.02e-01	0	55	0	637009920	64	5673
2026-01-05 02:35:33.95	344.73	75.74	-51.0	-54.2	18.9	6.00e-01	0	56	0	642777088	64	5459
2026-01-05 02:35:36.92	339.25	76.96	-51.2	-54.7	18.5	6.00e-01	0	55	0	648544256	64	5786
2026-01-05 02:35:39.87	332.70	78.06	-50.1	-52.7	20.5	5.99e-01	0	55	0	653787136	63	4847
2026-01-05 02:35:42.84	324.87	78.98	-50.0	-52.5	20.7	5.98e-01	0	56	0	659554304	62	5008
2026-01-05 02:35:45.81	315.78	79.67	-49.5	-51.8	21.4	6.00e-01	0	55	0	665321472	62	4611
2026-01-05 02:35:48.78	305.65	80.07	-49.0	-51.0	22.2	6.02e-01	0	55	0	670564352	61	4447
2026-01-05 02:35:51.74	295.06	80.14	-49.5	-51.7	21.5	6.02e-01	0	55	0	676331520	61	4863
2026-01-05 02:35:54.71	284.62	79.89	-49.8	-52.3	21.0	6.00e-01	0	56	0	681574400	61	5179
2026-01-05 02:35:57.68	275.00	79.33	-50.7	-53.7	19.7	6.02e-01	0	55	0	687341568	63	5408
2026-01-05 02:36:00.64	266.59	78.51	-50.4	-53.1	20.1	6.01e-01	0	56	0	693108736	63	5064
2026-01-05 02:36:03.61	259.44	77.49	-51.0	-54.3	18.9	6.00e-01	0	55	0	698351616	64	5475
2026-01-05 02:36:06.57	253.49	76.31	-51.2	-54.8	18.5	6.01e-01	0	56	0	704118784	64	5792
2026-01-05 02:36:09.54	248.53	75.03	-51.9	-56.2	16.9	6.02e-01	0	55	0	709885952	66	6118
2026-01-05 02:36:12.50	244.42	73.67	-51.8	-56.0	17.3	6.01e-01	0	56	0	715128832	66	5939
2026-01-05 02:36:15.47	240.97	72.26	-52.1	-56.7	16.5	6.00e-01	0	56	0	720896000	66	6460
2026-01-05 02:36:18.45	238.05	70.81	-51.4	-55.0	18.2	6.01e-01	0	56	0	726138880	66	5337
2026-01-05 02:36:21.41	235.59	69.35	-51.9	-56.0	17.2	6.01e-01	0	56	0	731906048	66	5972
2026-01-05 02:36:24.39	233.47	67.88	-52.3	-57.1	16.0	6.03e-01	0	56	0	737673216	67	6418
2026-01-05 02:36:27.35	231.64	66.41	-52.5	-57.7	15.3	6.00e-01	0	56	0	742916096	67	6842
2026-01-05 02:36:30.31	230.05	64.96	-51.4	-55.0	18.1	6.02e-01	0	56	0	748683264	65	5632
2026-01-05 02:36:33.27	228.66	63.51	-49.9	-52.3	20.8	6.00e-01	0	56	0	753926144	63	4648
2026-01-05 02:36:36.23	227.42	62.09	-50.1	-52.7	20.5	6.00e-01	0	56	0	759693312	63	4865
2026-01-05 02:36:39.19	226.33	60.68	-49.2	-51.4	21.8	5.99e-01	0	56	0	765460480	61	4675
2026-01-05 02:36:42.16	225.34	59.30	-49.2	-51.3	21.8	6.01e-01	0	56	0	770703360	61	4627
2026-01-05 02:36:45.12	224.46	57.94	-49.5	-51.7	21.4	6.01e-01	0	56	0	776470528	61	4862
2026-01-05 02:36:48.08	223.67	56.61	-48.8	-50.7	22.4	6.00e-01	0	56	0	781713408	61	4308
2026-01-05 02:36:51.05	222.94	55.30	-49.2	-51.3	21.8	5.98e-01	0	56	0	787480576	61	4636
2026-01-05 02:36:54.02	222.28	54.02	-48.2	-50.0	23.0	6.01e-01	0	56	0	793247744	60	4224
2026-01-05 02:36:56.99	221.68	52.76	-48.7	-50.6	22.9	6.00e-01	0	56	0	798490624	59	4765
2026-01-05 02:36:59.97	221.13	51.54	-49.4	-51.6	21.4	6.01e-01	0	56	0	804257792	61	4814
2026-01-05 02:37:02.94	220.62	50.34	-48.4	-50.3	22.8	6.02e-01	0	56	0	810024960	60	4344
2026-01-05 02:37:05.90	220.15	49.18	-49.0	-51.1	21.9	6.01e-01	0	56	0	815267840	60	4774
2026-01-05 02:37:08.88	219.72	48.04	-48.4	-50.2	22.8	5.98e-01	0	56	0	821035008	60	4308
2026-01-05 02:37:11.83	219.32	46.95	-48.4	-50.2	23.2	6.01e-01	0	56	0	826277888	59	4573
2026-01-05 02:37:14.81	218.94	45.86	-48.7	-50.6	22.8	6.01e-01	0	56	0	832045056	59	4781
2026-01-05 02:37:17.79	218.59	44.81	-48.1	-49.7	23.6	6.00e-01	0	56	0	837812224	59	4323
2026-01-05 02:37:20.75	218.26	43.79	-48.4	-50.2	23.2	6.02e-01	0	56	0	843055104	59	4582
2026-01-05 02:37:23.73	217.96	42.79	-48.8	-50.7	22.7	5.99e-01	0	56	0	848822272	59	4860
2026-01-05 02:37:26.68	217.67	41.83	-48.9	-50.9	22.2	5.99e-01	0	56	0	854065152	60	4691
2026-01-05 02:37:29.65	217.40	40.88	-49.1	-51.1	22.0	6.00e-01	0	56	0	859832320	60	4805
2026-01-05 02:37:32.61	217.15	39.96	-49.3	-51.5	21.6	6.02e-01	0	56	0	865599488	60	5028
2026-01-05 02:37:35.57	216.92	39.07	-49.4	-51.6	21.5	6.01e-01	0	56	0	870842368	61	4809
2026-01-05 02:37:38.54	216.69	38.20	-49.3	-51.5	21.5	6.00e-01	0	56	0	876609536	61	4748
2026-01-05 02:37:41.50	216.48	37.35	-49.0	-51.1	22.0	6.02e-01	0	56	0	881852416	61	4517
2026-01-05 02:37:44.45	216.28	36.53	-48.9	-51.0	22.1	6.00e-01	0	56	0	887619584	61	4463
2026-01-05 02:37:47.41	216.09	35.72	-48.9	-50.9	22.1	5.99e-01	0	56	0	892862464	61	4437
2026-01-05 02:37:50.38	215.91	34.94	-48.7	-50.6	22.4	6.00e-01	0	56	0	898629632	61	4280
2026-01-05 02:37:53.34	215.74	34.17	-48.6	-50.5	22.5	5.99e-01	0	56	0	904396800	60	4483
2026-01-05 02:37:56.31	215.57	33.42	-48.3	-50.1	22.9	6.01e-01	0	56	0	909639680	60	4277
2026-01-05 02:37:59.29	215.42	32.69	-48.3	-50.0	23.3	6.00e-01	0	56	0	915406848	59	4465
2026-01-05 02:38:02.25	215.27	31.98	-48.0	-49.6	23.6	6.00e-01	0	56	0	921174016	59	4291
2026-01-05 02:38:05.22	215.13	31.29	-47.7	-49.3	23.9	6.00e-01	0	56	0	926416896	59	4140
2026-01-05 02:38:08.20	214.99	30.61	-47.6	-49.2	24.1	6.01e-01	0	56	0	932184064	58	4323
2026-01-05 02:38:11.17	214.86	29.95	-48.0	-49.7	23.6	6.02e-01	0	56	0	937426944	58	4566
2026-01-05 02:38:14.14	214.74	29.31	-47.4	-48.8	24.4	5.99e-01	0	56	0	943194112	58	4141
2026-01-05 02:38:17.10	214.62	28.68	-47.7	-49.3	24.0	6.00e-01	0	56	0	948961280	58	4348
2026-01-05 02:38:20.08	214.51	28.07	-48.0	-49.7	23.6	6.02e-01	0	56	0	954204160	58	4552
2026-01-05 02:38:23.05	214.40	27.47	-48.0	-49.6	23.6	6.02e-01	0	56	0	959971328	58	4545
2026-01-05 02:38:26.02	214.30	26.88	-48.0	-49.7	23.5	6.01e-01	0	56	0	965738496	58	4589
2026-01-05 02:38:28.98	214.20	26.31	-48.4	-50.2	23.1	6.00e-01	0	56	0	970981376	59	4594
2026-01-05 02:38:31.95	214.10	25.75	-48.5	-50.4	22.9	6.03e-01	0	56	0	976748544	59	4654
2026-01-05 02:38:34.92	214.01	25.20	-48.7	-50.7	22.6	6.03e-01	0	56	0	981991424	59	4824
2026-01-05 02:38:37.87	213.93	24.67	-48.6	-50.5	22.7	5.99e-01	0	56	0	987758592	59	4737
2026-01-05 02:38:40.83	213.84	24.15	-48.5	-50.3	22.9	6.00e-01	0	56	0	993525760	59	4642
2026-01-05 02:38:43.79	213.76	23.63	-48.6	-50.5	22.7	6.00e-01	0	56	0	998768640	59	4738
2026-01-05 02:38:46.76	213.68	23.13	-48.8	-50.7	22.5	5.99e-01	0	56	0	1004535808	59	4849
2026-01-05 02:38:49.72	213.61	22.64	-48.7	-50.7	22.1	6.01e-01	0	56	0	1009778688	60	4573
2026-01-05 02:38:52.70	213.53	22.16	-49.0	-51.1	21.7	6.00e-01	0	56	0	1015545856	60	4806
2026-01-05 02:38:55.66	213.46	21.68	-48.4	-50.3	22.5	6.00e-01	0	56	0	1021313024	60	4362
2026-01-05 02:38:58.63	213.40	21.22	-48.5	-50.4	22.5	6.03e-01	0	56	0	1026555904	60	4418
2026-01-05 02:39:01.60	213.33	20.77	-48.4	-50.3	22.9	6.00e-01	0	56	0	1032323072	59	4607
2026-01-05 02:39:04.57	213.27	20.32	-48.6	-50.5	22.7	5.99e-01	0	56	0	1037565952	59	4718
2026-01-05 02:39:07.53	213.21	19.89	-48.6	-50.5	22.7	5.99e-01	0	56	0	1043333120	59	4721
2026-01-05 02:39:10.50	213.15	19.46	-48.4	-50.4	22.4	6.01e-01	0	56	0	1049100288	60	4404
2026-01-05 02:39:13.45	213.09	19.04	-48.6	-50.6	22.2	6.00e-01	0	56	0	1054343168	60	4516
2026-01-05 02:39:16.42	213.04	18.62	-48.6	-50.5	22.6	6.00e-01	0	56	0	1060110336	59	4755
2026-01-05 02:39:19.38	212.99	18.22	-48.8	-50.8	22.3	6.02e-01	0	56	0	1065353216	59	4925
2026-01-05 02:39:22.35	212.93	17.82	-48.8	-50.9	21.9	6.02e-01	0	56	0	1071120384	60	4672
2026-01-05 02:39:25.31	212.88	17.43	-49.1	-51.3	21.4	6.03e-01	0	56	0	1076887552	61	4630
2026-01-05 02:39:28.27	212.84	17.05	-49.2	-51.5	21.3	5.99e-01	0	56	0	1082130432	61	4721
2026-01-05 02:39:31.22	212.79	16.67	-49.4	-51.8	21.0	6.00e-01	0	56	0	1087897600	61	4907
2026-01-05 02:39:34.19	212.75	16.30	-49.0	-51.2	21.5	5.99e-01	0	56	0	1093140480	61	4551
2026-01-05 02:39:37.16	212.70	15.93	-48.3	-50.3	22.4	6.00e-01	0	56	0	1098907648	60	4342
2026-01-05 02:39:40.13	212.66	15.57	-48.2	-50.1	22.5	6.01e-01	0	56	0	1104674816	60	4278
2026-01-05 02:39:43.09	212.62	15.22	-48.4	-50.3	22.6	6.02e-01	0	56	0	1109917696	59	4634
2026-01-05 02:39:46.06	212.58	14.87	-48.6	-50.6	22.4	6.00e-01	0	56	0	1115684864	59	4766
2026-01-05 02:39:49.04	212.54	14.52	-48.5	-50.4	22.6	6.04e-01	0	56	0	1121452032	59	4667
2026-01-05 02:39:52.01	212.50	14.19	-48.6	-50.5	22.4	6.03e-01	0	56	0	1126694912	59	4745
2026-01-05 02:39:54.98	212.47	13.85	-48.7	-50.9	21.8	6.03e-01	0	56	0	1132462080	60	4669
2026-01-05 02:39:57.94	212.43	13.53	-49.0	-51.2	21.4	6.01e-01	0	56	0	1137704960	60	4868
2026-01-05 02:40:00.91	212.40	13.20	-48.9	-51.1	21.6	6.01e-01	0	56	0	1143472128	60	4768
2026-01-05 02:40:03.88	212.37	12.88	-48.7	-50.9	21.7	6.00e-01	0	56	0	1149239296	60	4658
2026-01-05 02:40:06.85	212.34	12.57	-48.5	-50.5	22.1	5.99e-01	0	56	0	1154482176	60	4466
2026-01-05 02:40:09.83	212.30	12.26	-48.7	-50.8	21.7	6.02e-01	0	56	0	1160249344	60	4646
2026-01-05 02:40:12.79	212.27	11.96	-48.5	-50.6	21.9	6.01e-01	0	56	0	1165492224	60	4520
2026-01-05 02:40:15.74	212.25	11.66	-48.4	-50.4	22.1	6.03e-01	0	56	0	1171259392	60	4440
2026-01-05 02:40:18.70	212.22	11.36	-48.5	-50.6	21.9	6.03e-01	0	56	0	1177026560	60	4497
2026-01-05 02:40:21.67	212.19	11.07	-48.6	-50.8	21.7	6.00e-01	0	56	0	1182269440	60	4617
2026-01-05 02:40:24.64	212.16	10.78	-49.0	-51.3	21.1	6.03e-01	0	56	0	1188036608	60	4907
2026-01-05 02:40:27.61	212.14	10.49	-49.1	-51.5	21.0	6.03e-01	0	56	0	1193279488	60	4984
2026-01-05 02:40:30.58	212.11	10.21	-49.0	-51.3	21.1	5.99e-01	0	56	0	1199046656	60	4903
2026-01-05 02:40:33.55	212.09	9.93	-48.7	-50.9	21.5	6.01e-01	0	56	0	1204813824	60	4699
2026-01-05 02:40:36.51	212.06	9.66	-49.1	-51.4	21.0	6.02e-01	0	56	0	1210056704	60	4980
2026-01-05 02:40:39.48	212.04	9.39	-48.7	-50.9	21.4	5.99e-01	0	56	0	1215823872	60	4680
2026-01-05 02:40:42.46	212.02	9.12	-48.9	-51.2	21.2	6.01e-01	0	56	0	1221066752	60	4824
2026-01-05 02:40:45.42	212.00	8.85	-48.9	-51.2	21.1	6.00e-01	0	56	0	1226833920	60	4845
2026-01-05 02:40:48.39	211.98	8.59	-49.2	-51.7	20.6	6.00e-01	0	56	0	1232601088	60	5104
2026-01-05 02:40:51.36	211.96	8.33	-49.2	-51.7	20.6	6.01e-01	0	56	0	1237843968	60	5124
2026-01-05 02:40:54.33	211.94	8.08	-49.2	-51.7	20.5	6.00e-01	0	56	0	1243611136	60	5143
2026-01-05 02:40:57.30	211.92	7.82	-49.5	-52.2	20.0	5.99e-01	0	56	0	1249378304	61	5153
2026-01-05 02:41:00.27	211.90	7.57	-49.8	-52.8	19.5	6.00e-01	0	56	0	1254621184	61	5502
2026-01-05 02:41:03.23	211.88	7.32	-50.0	-53.1	19.1	6.00e-01	0	56	0	1260388352	62	5401
2026-01-05 02:41:06.20	211.86	7.08	-49.9	-53.1	19.1	6.00e-01	0	57	0	1265631232	62	5368
2026-01-05 02:41:09.16	211.84	6.84	-50.1	-53.3	18.8	6.00e-01	0	56	0	1271398400	62	5513
2026-01-05 02:41:12.12	211.83	6.60	-50.4	-53.9	18.2	6.01e-01	0	56	0	1277165568	63	5582
2026-01-05 02:41:15.08	211.81	6.36	-49.5	-52.3	19.8	6.00e-01	0	56	0	1282408448	62	4889
2026-01-05 02:41:18.06	211.80	6.13	-49.0	-51.6	20.5	6.01e-01	0	56	0	1288175616	61	4785
2026-01-05 02:41:21.01	211.78	5.89	-49.0	-51.6	20.4	6.01e-01	0	56	0	1293418496	61	4770
2026-01-05 02:41:23.98	211.76	5.66	-49.2	-51.9	20.1	6.01e-01	0	56	0	1299185664	61	4950
2026-01-05 02:41:26.93	211.75	5.44	-49.2	-51.9	20.0	6.04e-01	0	56	0	1304428544	61	4968
2026-01-05 02:41:29.89	211.74	5.21	-49.2	-51.9	20.0	6.00e-01	0	56	0	1310195712	61	4977
2026-01-05 02:41:32.86	211.72	4.99	-53.1	-72.4	3.8	7.44e-01	0	56	104	1314914304	68	34956
2026-01-05 02:41:35.83	211.71	4.76	-53.8	-73.7	3.8	7.50e-01	0	57	104	1314914304	69	38594
2026-01-05 02:41:38.80	211.70	4.54	-54.0	-73.9	3.8	7.45e-01	0	56	104	1314914304	70	37291
2026-01-05 02:41:41.76	211.68	4.33	-54.1	-74.1	3.8	7.46e-01	0	56	104	1314914304	70	37916
2026-01-05 02:41:44.73	211.67	4.11	-54.2	-74.1	3.8	7.47e-01	0	57	104	1314914304	70	38107
2026-01-05 02:41:47.71	211.66	3.90	-54.2	-74.2	3.8	7.43e-01	0	57	104	1314914304	70	38305
2026-01-05 02:41:50.68	211.65	3.68	-54.3	-74.2	3.8	7.44e-01	0	57	104	1314914304	70	38631
2026-01-05 02:41:53.64	211.64	3.47	-54.3	-74.3	3.8	7.46e-01	0	57	104	1314914304	70	38738
2026-01-05 02:41:56.61	211.63	3.27	-54.3	-74.3	3.8	7.43e-01	0	57	104	1314914304	70	38844
2026-01-05 02:41:59.58	211.62	3.06	-54.3	-74.3	3.8	7.43e-01	0	57	104	1314914304	70	38885

#Closed at: 2026-01-05 02:42:01
#Recorded file [1314 MB]: D:/Data/31026_260105_054132.dat