passes_logs/2026/01/05/R3.0SM8_Murmansk_STILSPACE/R3.0SM8_Murmansk_STILSPACE__20260105_083815_FENGYUN_3D_rec.log

#Pass ID: 20260105_083815_FENGYUN 3D
#Satellite: FENGYUN 3D
#Configuration: FENGYUN 3D
#almurnet v.1.7.20240730
#Start time: 2026-01-05 08:38:16

#Version: 2.2.20231116
#Station: R3.0SM8_Murmansk_STILSPACE
#Location: 33.092731 lon 68.902999 lat
#TLE: 1 43010U 17072A   26004.50247883 -.00000063  00000+0 -78815-5 0  9998
#TLE: 2 43010  98.9915 336.1565 0001968 126.3752 233.7605 14.19691805421760

#Time	Az	El	Level	Level2	SNR	BER	BlckErr	Temp	State	Recorded	gain1	gain2
2026-01-05 08:38:16.62	86.39	3.06	-52.3	-63.1	3.8	8.46e-01	0	45	0	0	67	12406
2026-01-05 08:38:20.58	86.15	3.31	-51.7	-62.4	3.8	8.46e-01	0	46	104	0	66	12229
2026-01-05 08:38:24.52	85.92	3.55	-51.4	-62.2	3.8	8.46e-01	0	46	104	0	66	11851
2026-01-05 08:38:28.46	85.67	3.79	-51.5	-62.2	3.8	8.46e-01	0	47	104	0	66	11868
2026-01-05 08:38:32.40	85.43	4.03	-51.5	-62.2	3.8	8.45e-01	0	47	104	0	66	11924
2026-01-05 08:38:36.36	85.18	4.28	-51.4	-61.5	3.8	8.47e-01	0	47	104	0	65	11641
2026-01-05 08:38:40.31	84.92	4.53	-51.0	-59.0	4.1	8.44e-01	0	47	104	0	65	8674
2026-01-05 08:38:44.27	84.66	4.78	-50.3	-55.6	5.8	4.77e-01	0	48	0	2097152	63	6580
2026-01-05 08:38:48.23	84.40	5.03	-49.4	-53.0	8.1	8.14e-02	0	48	0	24117248	61	5469
2026-01-05 08:38:52.20	84.12	5.29	-49.3	-52.7	8.4	5.34e-02	0	48	0	46137344	61	5314
2026-01-05 08:38:56.14	83.85	5.54	-48.9	-52.2	9.0	2.67e-02	0	48	0	68157440	60	5308
2026-01-05 08:39:00.10	83.57	5.80	-47.8	-50.2	11.1	2.81e-03	0	49	0	91226112	58	4709
2026-01-05 08:39:04.06	83.28	6.06	-46.0	-47.6	13.6	1.48e-05	0	49	0	113246208	55	4180
2026-01-05 08:39:08.01	82.99	6.32	-45.1	-46.4	14.9	0.00e+00	0	49	0	135266304	53	4084
2026-01-05 08:39:11.97	82.70	6.59	-44.7	-45.9	15.3	0.00e+00	0	49	0	157286400	52	4097
2026-01-05 08:39:15.92	82.40	6.85	-44.7	-45.9	15.4	0.00e+00	0	49	0	180355072	52	4070
2026-01-05 08:39:19.87	82.09	7.12	-44.9	-46.2	15.1	0.00e+00	0	50	0	202375168	52	4234
2026-01-05 08:39:23.83	81.78	7.39	-44.8	-46.0	15.3	0.00e+00	0	50	0	224395264	52	4140
2026-01-05 08:39:27.79	81.45	7.66	-45.2	-46.5	14.9	0.00e+00	0	50	0	246415360	52	4386
2026-01-05 08:39:31.74	81.13	7.93	-45.1	-46.5	14.9	0.00e+00	0	50	0	268435456	52	4353
2026-01-05 08:39:35.69	80.80	8.21	-44.3	-45.4	16.1	0.00e+00	0	50	0	291504128	51	4092
2026-01-05 08:39:39.66	80.46	8.49	-44.2	-45.4	16.2	0.00e+00	0	51	0	313524224	51	4055
2026-01-05 08:39:43.60	80.11	8.76	-44.3	-45.4	16.1	0.00e+00	0	51	0	335544320	51	4097
2026-01-05 08:39:47.57	79.76	9.05	-44.3	-45.5	16.1	0.00e+00	0	51	0	357564416	51	4102
2026-01-05 08:39:51.52	79.40	9.33	-44.1	-45.2	16.4	0.00e+00	0	51	0	380633088	51	3960
2026-01-05 08:39:55.47	79.03	9.62	-44.4	-45.5	16.0	0.00e+00	0	51	0	401604608	51	4130
2026-01-05 08:39:59.43	78.66	9.91	-44.3	-45.3	16.3	0.00e+00	0	51	0	424673280	51	4047
2026-01-05 08:40:03.38	78.28	10.19	-43.9	-44.9	16.7	0.00e+00	0	51	0	446693376	50	4090
2026-01-05 08:40:07.35	77.88	10.49	-43.6	-44.5	17.2	0.00e+00	0	52	0	468713472	50	3900
2026-01-05 08:40:11.31	77.48	10.78	-43.6	-44.6	17.0	0.00e+00	0	52	0	490733568	50	3942
2026-01-05 08:40:15.25	77.08	11.08	-43.7	-44.7	17.0	0.00e+00	0	52	0	513802240	50	3990
2026-01-05 08:40:19.21	76.66	11.38	-43.9	-44.9	16.8	0.00e+00	0	52	0	535822336	50	4070
2026-01-05 08:40:23.17	76.24	11.68	-44.2	-45.1	16.7	0.00e+00	0	52	0	557842432	50	4187
2026-01-05 08:40:27.12	75.81	11.98	-44.5	-45.6	16.2	0.00e+00	0	52	0	580911104	50	4420
2026-01-05 08:40:31.05	75.37	12.29	-44.2	-45.3	16.5	0.00e+00	0	52	0	601882624	51	4014
2026-01-05 08:40:35.01	74.91	12.59	-44.3	-45.3	16.5	0.00e+00	0	52	0	624951296	51	4043
2026-01-05 08:40:38.97	74.45	12.90	-43.8	-44.7	17.2	0.00e+00	0	52	0	646971392	50	3965
2026-01-05 08:40:42.93	73.98	13.21	-43.7	-44.6	17.3	0.00e+00	0	53	0	668991488	50	3923
2026-01-05 08:40:46.89	73.49	13.53	-43.2	-44.1	17.7	0.00e+00	0	53	0	691011584	49	3947
2026-01-05 08:40:50.84	73.00	13.84	-43.0	-43.8	18.1	0.00e+00	0	53	0	714080256	49	3792
2026-01-05 08:40:54.78	72.50	14.16	-43.3	-44.1	17.7	0.00e+00	0	53	0	736100352	49	3950
2026-01-05 08:40:58.74	71.98	14.48	-42.7	-43.4	18.4	0.00e+00	0	53	0	758120448	48	3861
2026-01-05 08:41:02.69	71.46	14.80	-42.7	-43.5	18.4	0.00e+00	0	53	0	780140544	48	3880
2026-01-05 08:41:06.67	70.92	15.12	-42.4	-43.1	18.6	0.00e+00	0	53	0	803209216	47	3946
2026-01-05 08:41:10.63	70.37	15.45	-42.5	-43.3	18.4	0.00e+00	0	53	0	825229312	47	4046
2026-01-05 08:41:14.58	69.80	15.77	-42.6	-43.4	18.3	0.00e+00	0	53	0	847249408	47	4096
2026-01-05 08:41:18.54	69.23	16.10	-42.6	-43.4	18.3	0.00e+00	0	53	0	869269504	47	4078
2026-01-05 08:41:22.49	68.64	16.43	-42.4	-43.1	18.6	0.00e+00	0	53	0	891289600	47	3947
2026-01-05 08:41:26.45	68.04	16.76	-42.5	-43.2	18.6	0.00e+00	0	53	0	914358272	47	3995
2026-01-05 08:41:30.39	67.43	17.09	-42.0	-42.7	19.1	0.00e+00	0	54	0	936378368	47	3744
2026-01-05 08:41:34.33	66.80	17.42	-41.9	-42.6	19.1	0.00e+00	0	54	0	958398464	46	3942
2026-01-05 08:41:38.29	66.16	17.75	-41.9	-42.6	19.1	0.00e+00	0	54	0	980418560	46	3949
2026-01-05 08:41:42.24	65.50	18.09	-42.1	-42.8	19.0	0.00e+00	0	54	0	1002438656	46	4024
2026-01-05 08:41:46.19	64.83	18.42	-42.2	-42.9	18.8	0.00e+00	0	54	0	1025507328	46	4091
2026-01-05 08:41:50.14	64.14	18.75	-41.7	-42.4	19.4	0.00e+00	0	54	0	1047527424	46	3858
2026-01-05 08:41:54.10	63.44	19.09	-41.9	-42.7	19.1	0.00e+00	0	54	0	1069547520	46	3963
2026-01-05 08:41:58.05	62.72	19.42	-41.6	-42.2	19.5	0.00e+00	0	54	0	1091567616	46	3776
2026-01-05 08:42:02.00	61.98	19.76	-41.5	-42.2	19.6	0.00e+00	0	54	0	1113587712	46	3758
2026-01-05 08:42:05.97	61.23	20.09	-41.6	-42.3	19.6	0.00e+00	0	54	0	1136656384	46	3782
2026-01-05 08:42:09.92	60.46	20.42	-41.8	-42.5	19.3	0.00e+00	0	54	0	1158676480	46	3910
2026-01-05 08:42:13.86	59.68	20.75	-42.1	-42.9	19.0	0.00e+00	0	54	0	1180696576	46	4055
2026-01-05 08:42:17.82	58.88	21.08	-41.2	-41.9	19.9	0.00e+00	0	54	0	1202716672	45	3834
2026-01-05 08:42:21.75	58.06	21.41	-40.9	-41.5	20.3	0.00e+00	0	54	0	1224736768	45	3671
2026-01-05 08:42:25.71	57.22	21.74	-41.1	-41.8	20.0	0.00e+00	0	55	0	1246756864	44	4031
2026-01-05 08:42:29.67	56.37	22.06	-41.1	-41.8	20.1	0.00e+00	0	55	0	1269825536	44	4009
2026-01-05 08:42:33.63	55.49	22.38	-41.0	-41.7	20.1	0.00e+00	0	54	0	1291845632	44	3976
2026-01-05 08:42:37.57	54.60	22.70	-40.7	-41.3	20.5	0.00e+00	0	55	0	1313865728	44	3812
2026-01-05 08:42:41.51	53.70	23.01	-40.8	-41.4	20.4	0.00e+00	0	55	0	1335885824	44	3868
2026-01-05 08:42:45.47	52.77	23.32	-40.9	-41.6	20.2	0.00e+00	0	55	0	1358954496	44	3927
2026-01-05 08:42:49.44	51.82	23.62	-41.3	-42.0	19.9	0.00e+00	0	55	0	1380974592	44	4103
2026-01-05 08:42:53.38	50.85	23.92	-40.7	-41.3	20.5	0.00e+00	0	55	0	1402994688	44	3802
2026-01-05 08:42:57.33	49.87	24.21	-40.6	-41.2	20.6	0.00e+00	0	55	0	1425014784	44	3770
2026-01-05 08:43:01.29	48.87	24.50	-40.6	-41.2	20.6	0.00e+00	0	55	0	1447034880	44	3777
2026-01-05 08:43:05.24	47.85	24.78	-40.8	-41.4	20.4	0.00e+00	0	55	0	1470103552	44	3848
2026-01-05 08:43:09.20	46.81	25.05	-40.1	-40.7	21.0	0.00e+00	0	55	0	1492123648	43	3743
2026-01-05 08:43:13.16	45.75	25.32	-40.1	-40.7	21.0	0.00e+00	0	55	0	1514143744	43	3761
2026-01-05 08:43:17.12	44.67	25.58	-40.6	-41.2	20.5	0.00e+00	0	55	0	1536163840	43	3976
2026-01-05 08:43:21.08	43.58	25.82	-40.4	-41.1	20.7	0.00e+00	0	55	0	1559232512	43	3919
2026-01-05 08:43:25.04	42.46	26.06	-40.3	-40.9	20.8	0.00e+00	0	55	0	1581252608	43	3858
2026-01-05 08:43:29.00	41.34	26.29	-40.4	-41.0	20.8	0.00e+00	0	55	0	1603272704	43	3875
2026-01-05 08:43:32.92	40.20	26.51	-40.1	-40.7	21.0	0.00e+00	0	55	0	1625292800	43	3766
2026-01-05 08:43:36.89	39.04	26.72	-40.4	-41.0	20.7	0.00e+00	0	55	0	1647312896	43	3887
2026-01-05 08:43:40.86	37.87	26.91	-40.1	-40.7	21.1	0.00e+00	0	55	0	1670381568	43	3750
2026-01-05 08:43:44.81	36.68	27.10	-40.0	-40.6	21.1	0.00e+00	0	55	0	1692401664	43	3715
2026-01-05 08:43:48.77	35.48	27.27	-39.7	-40.3	21.4	0.00e+00	0	55	0	1714421760	42	3793
2026-01-05 08:43:52.73	34.26	27.42	-40.0	-40.5	21.1	0.00e+00	0	55	0	1736441856	42	3907
2026-01-05 08:43:56.71	33.03	27.57	-40.1	-40.7	21.1	0.00e+00	0	55	0	1759510528	42	3977
2026-01-05 08:44:00.68	31.79	27.70	-39.8	-40.4	21.3	0.00e+00	0	56	0	1781530624	42	3841
2026-01-05 08:44:04.64	30.55	27.82	-40.2	-40.8	20.9	0.00e+00	0	56	0	1803550720	42	4016
2026-01-05 08:44:08.59	29.30	27.92	-39.7	-40.2	21.4	0.00e+00	0	55	0	1825570816	42	3775
2026-01-05 08:44:12.56	28.03	28.00	-39.9	-40.5	21.2	0.00e+00	0	56	0	1848639488	42	3887
2026-01-05 08:44:16.52	26.76	28.07	-39.5	-40.0	21.7	0.00e+00	0	55	0	1870659584	41	3894
2026-01-05 08:44:20.48	25.49	28.13	-39.5	-40.1	21.6	0.00e+00	0	56	0	1892679680	41	3928
2026-01-05 08:44:24.43	24.22	28.17	-39.8	-40.4	21.3	0.00e+00	0	56	0	1915748352	41	4057
2026-01-05 08:44:28.38	22.94	28.19	-39.8	-40.3	21.2	0.00e+00	0	56	0	1937768448	41	4032
2026-01-05 08:44:32.34	21.66	28.20	-39.6	-40.2	21.5	0.00e+00	0	56	0	1959788544	41	3973
2026-01-05 08:44:36.30	20.38	28.19	-39.5	-40.0	21.6	0.00e+00	0	56	0	1981808640	41	3895
2026-01-05 08:44:40.26	19.10	28.16	-39.7	-40.2	21.3	0.00e+00	0	56	0	2003828736	41	3991
2026-01-05 08:44:44.22	17.82	28.12	-40.0	-40.6	20.8	0.00e+00	0	56	0	2026897408	42	3943
2026-01-05 08:44:48.18	16.55	28.07	-40.5	-41.2	20.0	0.00e+00	0	56	0	2048917504	42	4196
2026-01-05 08:44:52.14	15.28	28.00	-42.6	-43.5	17.3	0.00e+00	0	56	0	2070937600	47	4130
2026-01-05 08:44:56.08	14.03	27.91	-44.2	-45.3	15.5	0.00e+00	0	56	0	2092957696	50	4288
2026-01-05 08:45:00.03	12.78	27.81	-44.4	-45.6	15.2	0.00e+00	0	56	0	2114977792	50	4420
2026-01-05 08:45:04.00	11.53	27.69	-42.1	-42.9	18.3	0.00e+00	0	56	0	2138046464	47	3834
2026-01-05 08:45:07.95	10.30	27.56	-41.0	-41.6	19.7	0.00e+00	0	56	0	2160066560	45	3732
2026-01-05 08:45:11.89	9.08	27.42	-40.2	-40.8	20.6	0.00e+00	0	56	0	2182086656	43	3816
2026-01-05 08:45:15.84	7.87	27.26	-39.7	-40.2	21.2	0.00e+00	0	56	0	2204106752	42	3763
2026-01-05 08:45:19.81	6.66	27.09	-40.2	-40.8	20.6	0.00e+00	0	56	0	2226126848	42	4024
2026-01-05 08:45:23.77	5.48	26.91	-40.5	-41.1	20.3	0.00e+00	0	56	0	2249195520	43	3955
2026-01-05 08:45:27.72	4.31	26.71	-43.2	-44.1	17.2	0.00e+00	0	56	0	2271215616	48	4166
2026-01-05 08:45:31.68	3.15	26.50	-43.1	-44.0	17.4	0.00e+00	0	56	0	2293235712	49	3901
2026-01-05 08:45:35.63	2.01	26.28	-39.6	-40.1	21.5	0.00e+00	0	56	0	2315255808	42	3727
2026-01-05 08:45:39.58	0.89	26.06	-39.7	-40.3	21.3	0.00e+00	0	56	0	2338324480	42	3803
2026-01-05 08:45:43.55	359.77	25.82	-39.6	-40.2	21.5	0.00e+00	0	56	0	2360344576	42	3750
2026-01-05 08:45:47.50	358.68	25.57	-40.2	-40.8	20.9	0.00e+00	0	56	0	2382364672	42	4015
2026-01-05 08:45:51.45	357.61	25.31	-40.3	-40.9	20.7	0.00e+00	0	56	0	2404384768	42	4071
2026-01-05 08:45:55.41	356.56	25.04	-40.1	-40.7	21.0	0.00e+00	0	56	0	2426404864	42	3982
2026-01-05 08:45:59.36	355.52	24.77	-40.3	-40.9	20.8	0.00e+00	0	56	0	2449473536	42	4058
2026-01-05 08:46:03.32	354.50	24.49	-40.6	-41.3	20.5	0.00e+00	0	56	0	2471493632	43	4005
2026-01-05 08:46:07.29	353.49	24.20	-40.5	-41.1	20.5	0.00e+00	0	56	0	2493513728	43	3952
2026-01-05 08:46:11.25	352.51	23.91	-40.3	-40.9	20.7	0.00e+00	0	56	0	2515533824	43	3849
2026-01-05 08:46:15.21	351.54	23.61	-40.3	-40.9	20.7	0.00e+00	0	56	0	2538602496	43	3855
2026-01-05 08:46:19.15	350.60	23.31	-40.1	-40.7	20.9	0.00e+00	0	56	0	2560622592	43	3749
2026-01-05 08:46:23.12	349.67	23.00	-40.3	-40.9	20.7	0.00e+00	0	56	0	2582642688	43	3858
2026-01-05 08:46:27.07	348.76	22.69	-40.5	-41.1	20.5	0.00e+00	0	56	0	2604662784	43	3921
2026-01-05 08:46:31.02	347.88	22.37	-40.4	-41.0	20.6	0.00e+00	0	56	0	2627731456	43	3888
2026-01-05 08:46:34.99	347.00	22.05	-40.9	-41.5	20.1	0.00e+00	0	56	0	2649751552	43	4145
2026-01-05 08:46:38.94	346.15	21.73	-41.6	-42.3	19.4	0.00e+00	0	56	0	2671771648	45	4013
2026-01-05 08:46:42.90	345.31	21.40	-40.7	-41.3	20.3	0.00e+00	0	56	0	2693791744	44	3823
2026-01-05 08:46:46.87	344.49	21.07	-41.0	-41.7	20.0	0.00e+00	0	56	0	2716860416	44	3979
2026-01-05 08:46:50.83	343.69	20.74	-40.9	-41.5	20.1	0.00e+00	0	56	0	2738880512	44	3890
2026-01-05 08:46:54.79	342.91	20.41	-40.9	-41.6	20.0	0.00e+00	0	56	0	2760900608	44	3919
2026-01-05 08:46:58.76	342.14	20.08	-41.7	-42.4	19.0	0.00e+00	0	56	0	2782920704	45	4080
2026-01-05 08:47:02.72	341.39	19.74	-42.9	-43.8	17.4	0.00e+00	0	57	0	2805989376	47	4269
2026-01-05 08:47:06.69	340.65	19.41	-43.8	-44.9	16.4	0.00e+00	0	57	0	2828009472	49	4294
2026-01-05 08:47:10.65	339.93	19.07	-43.6	-44.6	16.7	0.00e+00	0	57	0	2850029568	49	4159
2026-01-05 08:47:14.61	339.23	18.74	-42.8	-43.7	17.7	0.00e+00	0	57	0	2872049664	48	3982
2026-01-05 08:47:18.56	338.55	18.41	-41.3	-42.0	19.2	0.00e+00	0	57	0	2894069760	45	3900
2026-01-05 08:47:22.53	337.87	18.07	-42.4	-43.2	18.3	0.00e+00	0	57	0	2917138432	46	4233
2026-01-05 08:47:26.47	337.22	17.74	-42.7	-43.5	18.2	0.00e+00	0	57	0	2939158528	47	4119
2026-01-05 08:47:30.39	336.58	17.41	-42.1	-42.9	18.8	0.00e+00	0	57	0	2961178624	47	3841
2026-01-05 08:47:34.34	335.96	17.08	-42.1	-42.9	18.8	0.00e+00	0	56	0	2983198720	47	3838
2026-01-05 08:47:38.29	335.35	16.75	-41.9	-42.7	19.0	0.00e+00	0	57	0	3005218816	46	3969
2026-01-05 08:47:42.25	334.75	16.42	-42.1	-42.8	18.9	0.00e+00	0	56	0	3028287488	46	4046
2026-01-05 08:47:46.19	334.16	16.09	-42.5	-43.3	18.4	0.00e+00	0	57	0	3050307584	46	4273
2026-01-05 08:47:50.14	333.59	15.76	-42.6	-43.4	18.4	0.00e+00	0	56	0	3072327680	47	4054
2026-01-05 08:47:54.08	333.03	15.44	-43.3	-44.1	17.8	0.00e+00	0	57	0	3094347776	48	4176
2026-01-05 08:47:58.04	332.48	15.12	-43.1	-43.9	18.0	0.00e+00	0	57	0	3116367872	49	3827
2026-01-05 08:48:01.97	331.95	14.80	-42.7	-43.4	18.4	0.00e+00	0	57	0	3139436544	48	3862
2026-01-05 08:48:05.91	331.43	14.48	-42.6	-43.4	18.5	0.00e+00	0	56	0	3160408064	48	3839
2026-01-05 08:48:09.86	330.91	14.16	-42.6	-43.4	18.5	0.00e+00	0	57	0	3183476736	48	3832
2026-01-05 08:48:13.83	330.41	13.84	-42.5	-43.3	18.5	0.00e+00	0	56	0	3205496832	48	3799
2026-01-05 08:48:17.77	329.92	13.53	-43.0	-43.8	18.0	0.00e+00	0	57	0	3227516928	48	4045
2026-01-05 08:48:21.73	329.44	13.21	-43.3	-44.1	17.7	0.00e+00	0	57	0	3249537024	48	4189
2026-01-05 08:48:25.67	328.97	12.90	-43.1	-43.9	17.9	0.00e+00	0	57	0	3272605696	48	4092
2026-01-05 08:48:29.60	328.51	12.60	-43.5	-44.4	17.4	0.00e+00	0	57	0	3294625792	48	4308
2026-01-05 08:48:33.56	328.06	12.29	-43.5	-44.4	17.4	0.00e+00	0	56	0	3316645888	49	4078
2026-01-05 08:48:37.52	327.62	11.98	-43.5	-44.4	17.4	0.00e+00	0	57	0	3338665984	49	4085
2026-01-05 08:48:41.48	327.19	11.68	-43.3	-44.2	17.6	0.00e+00	0	57	0	3360686080	49	3973
2026-01-05 08:48:45.44	326.76	11.38	-43.5	-44.4	17.3	0.00e+00	0	57	0	3383754752	49	4086
2026-01-05 08:48:49.39	326.35	11.08	-43.6	-44.6	17.2	0.00e+00	0	56	0	3405774848	49	4146
2026-01-05 08:48:53.35	325.94	10.79	-43.7	-44.7	17.1	0.00e+00	0	57	0	3427794944	49	4204
2026-01-05 08:48:57.30	325.55	10.49	-44.1	-45.1	16.6	0.00e+00	0	56	0	3449815040	50	4193
2026-01-05 08:49:01.28	325.16	10.20	-44.1	-45.1	16.7	0.00e+00	0	57	0	3472883712	50	4146
2026-01-05 08:49:05.26	324.77	9.91	-44.3	-45.3	16.4	0.00e+00	0	57	0	3494903808	50	4282
2026-01-05 08:49:09.21	324.40	9.62	-43.8	-44.8	16.9	0.00e+00	0	56	0	3516923904	50	4010
2026-01-05 08:49:13.16	324.03	9.33	-44.1	-45.1	16.6	0.00e+00	0	56	0	3538944000	50	4174
2026-01-05 08:49:17.13	323.67	9.05	-43.9	-44.9	16.8	0.00e+00	0	57	0	3562012672	50	4055
2026-01-05 08:49:21.09	323.32	8.77	-44.2	-45.2	16.4	0.00e+00	0	57	0	3584032768	50	4229
2026-01-05 08:49:25.05	322.98	8.49	-44.3	-45.3	16.3	0.00e+00	0	57	0	3606052864	50	4288
2026-01-05 08:49:29.00	322.64	8.21	-44.4	-45.5	16.2	0.00e+00	0	57	0	3628072960	50	4346
2026-01-05 08:49:32.96	322.31	7.93	-44.2	-45.3	16.3	0.00e+00	0	57	0	3650093056	50	4248
2026-01-05 08:49:36.92	321.99	7.66	-44.2	-45.3	16.3	0.00e+00	0	57	0	3673161728	50	4246
2026-01-05 08:49:40.88	321.67	7.39	-44.4	-45.5	16.0	0.00e+00	0	57	0	3695181824	50	4357
2026-01-05 08:49:44.84	321.35	7.12	-44.6	-45.7	15.8	0.00e+00	0	57	0	3717201920	51	4240
2026-01-05 08:49:48.81	321.05	6.85	-45.0	-46.2	15.2	0.00e+00	0	57	0	3739222016	52	4232
2026-01-05 08:49:52.77	320.75	6.59	-44.9	-46.1	15.2	0.00e+00	0	57	0	3762290688	52	4180
2026-01-05 08:49:56.74	320.45	6.32	-44.7	-45.9	15.5	0.00e+00	0	56	0	3784310784	52	4053
2026-01-05 08:50:00.69	320.16	6.06	-44.8	-46.0	15.2	0.00e+00	0	57	0	3806330880	52	4136
2026-01-05 08:50:04.65	319.88	5.80	-45.1	-46.4	14.8	1.10e-06	0	57	0	3828350976	52	4323
2026-01-05 08:50:08.61	319.60	5.54	-45.0	-46.3	14.9	0.00e+00	0	57	0	3851419648	52	4283
2026-01-05 08:50:12.56	319.33	5.29	-45.3	-46.7	14.5	0.00e+00	0	56	0	3873439744	52	4460
2026-01-05 08:50:16.51	319.06	5.04	-45.1	-46.3	14.8	0.00e+00	0	57	0	3895459840	52	4284
2026-01-05 08:50:20.47	318.79	4.78	-48.2	-59.0	3.8	8.45e-01	0	57	104	3898605568	59	12246
2026-01-05 08:50:24.43	318.54	4.53	-52.3	-63.1	3.8	8.48e-01	0	57	104	3898605568	66	13133
2026-01-05 08:50:28.39	318.28	4.28	-52.4	-63.3	3.8	8.47e-01	0	57	104	3898605568	66	13432
2026-01-05 08:50:32.35	318.03	4.04	-52.5	-63.3	3.8	8.46e-01	0	57	104	3898605568	67	12775
2026-01-05 08:50:36.32	317.79	3.79	-52.6	-63.3	3.8	8.46e-01	0	57	104	3898605568	67	12760
2026-01-05 08:50:40.27	317.55	3.55	-52.6	-63.4	3.8	8.47e-01	0	57	104	3898605568	67	12811
2026-01-05 08:50:44.23	317.31	3.31	-52.7	-63.4	3.8	8.46e-01	0	57	104	3898605568	67	12890
2026-01-05 08:50:48.18	317.08	3.07	-52.7	-63.4	3.8	8.47e-01	0	57	104	3898605568	67	12825

#Closed at: 2026-01-05 08:50:51
#Recorded file [3898 MB]: D:/Data/31026_260105_115017.dat