passes_logs/2026/01/25/R2M6_AANII_01/R2M6_AANII_01__20260125_005810_NOAA_21_JPSS-2_rec.log

#Pass ID: 20260125_005810_NOAA 21 (JPSS-2)
#Satellite: NOAA 21 (JPSS-2)
#Configuration: NOAA 21
#almurnet v.1.7.20240730
#Start time: 2026-01-25 00:58:11

#Version: 2.2.20231116
#Station: R2M6_AANII_01
#Location: 30.233357 lon 59.946436 lat
#TLE: 1 54234U 22150A   26024.45772595  .00000201  00000+0  11607-3 0  9996
#TLE: 2 54234  98.7508 325.2435 0000728 220.7365 139.3757 14.19538765166156

#Time	Az	El	Level	Level2	SNR	BER	BlckErr	Temp	State	Recorded	gain1	gain2
2026-01-25 00:58:11.11	15.12	7.05	-31.4	-37.5	4.4	1.42e+00	0	42	0	0	22	7241
2026-01-25 00:58:14.10	15.03	7.28	-31.7	-37.2	6.6	1.99e-01	0	42	102	1048576	23	6798
2026-01-25 00:58:17.11	14.94	7.51	-31.2	-35.8	8.1	6.85e-02	0	42	102	1048576	22	6087
2026-01-25 00:58:20.13	14.84	7.74	-30.9	-35.1	9.0	2.55e-02	0	43	102	1048576	21	5846
2026-01-25 00:58:23.15	14.75	7.98	-30.2	-33.6	10.5	6.13e-03	0	42	102	1048576	20	5311
2026-01-25 00:58:26.16	14.65	8.21	-29.4	-31.7	12.1	2.75e-04	0	42	102	1048576	19	4726
2026-01-25 00:58:29.16	14.55	8.45	-29.3	-31.9	12.4	1.63e-04	0	42	102	1048576	18	4900
2026-01-25 00:58:32.17	14.45	8.69	-29.2	-31.9	12.4	1.59e-04	0	43	102	1048576	18	4880
2026-01-25 00:58:35.19	14.35	8.94	-29.1	-31.6	12.6	7.78e-05	0	43	102	1048576	18	4778
2026-01-25 00:58:38.20	14.25	9.18	-28.9	-31.0	13.0	5.11e-05	0	43	102	1048576	18	4590
2026-01-25 00:58:41.20	14.14	9.43	-29.0	-31.3	12.8	5.18e-05	0	43	102	1048576	18	4682
2026-01-25 00:58:44.21	14.03	9.68	-28.8	-31.3	13.1	2.97e-05	0	43	102	1048576	17	4801
2026-01-25 00:58:47.23	13.92	9.93	-28.5	-30.6	13.6	1.22e-05	0	43	102	1048576	17	4576
2026-01-25 00:58:50.24	13.81	10.19	-27.7	-29.9	13.9	7.00e-07	0	43	102	1048576	16	4658
2026-01-25 00:58:53.26	13.70	10.45	-28.2	-30.2	14.1	7.00e-07	0	43	102	1048576	16	4547
2026-01-25 00:58:56.27	13.58	10.71	-27.9	-30.1	14.3	7.11e-04	0	43	102	1048576	15	4646
2026-01-25 00:58:59.29	13.46	10.97	-27.8	-29.9	14.5	1.50e-06	0	43	102	1048576	15	4576
2026-01-25 00:59:02.30	13.34	11.24	-27.8	-29.8	12.8	7.47e-04	0	43	102	1048576	15	4561
2026-01-25 00:59:05.31	13.22	11.50	-27.7	-29.7	14.6	8.94e-04	0	43	102	1048576	15	4527
2026-01-25 00:59:08.33	13.09	11.78	-27.8	-29.8	14.6	4.96e-03	0	43	102	1048576	15	4533
2026-01-25 00:59:11.33	12.96	12.05	-27.7	-29.6	14.7	1.38e-03	0	43	102	1048576	15	4496
2026-01-25 00:59:14.35	12.83	12.33	-27.6	-29.5	14.8	4.94e-03	0	43	102	1048576	15	4444
2026-01-25 00:59:17.36	12.69	12.61	-27.6	-29.4	14.8	5.16e-03	0	43	102	1048576	15	4434
2026-01-25 00:59:20.36	12.56	12.89	-27.6	-29.5	14.8	3.63e-03	0	43	102	1048576	15	4447
2026-01-25 00:59:23.38	12.42	13.18	-27.7	-29.7	14.7	5.20e-03	0	43	102	1048576	15	4519
2026-01-25 00:59:26.39	12.27	13.47	-27.7	-29.6	14.8	3.80e-03	0	43	102	1048576	15	4475
2026-01-25 00:59:29.40	12.13	13.76	-27.6	-29.4	14.9	3.45e-03	0	43	102	1048576	15	4427
2026-01-25 00:59:32.41	11.98	14.06	-27.5	-29.2	15.0	0.00e+00	0	43	102	1048576	15	4372
2026-01-25 00:59:35.42	11.83	14.36	-27.5	-29.2	15.0	3.90e-03	0	43	102	1048576	15	4356
2026-01-25 00:59:38.43	11.67	14.66	-27.4	-29.3	15.2	0.00e+00	0	43	102	1048576	14	4521
2026-01-25 00:59:41.45	11.51	14.97	-27.5	-29.5	15.1	0.00e+00	0	44	102	1048576	14	4575
2026-01-25 00:59:44.46	11.35	15.28	-27.8	-29.9	14.6	0.00e+00	0	44	102	1048576	15	4574
2026-01-25 00:59:47.47	11.18	15.59	-27.9	-30.1	14.6	7.00e-07	0	43	102	1048576	15	4641
2026-01-25 00:59:50.48	11.01	15.91	-27.9	-30.1	14.6	7.00e-07	0	44	102	1048576	15	4634
2026-01-25 00:59:53.49	10.83	16.23	-27.6	-29.5	15.0	0.00e+00	0	43	102	1048576	15	4444
2026-01-25 00:59:56.50	10.66	16.56	-27.6	-29.3	15.1	7.00e-07	0	44	102	1048576	15	4397
2026-01-25 00:59:59.51	10.47	16.89	-27.8	-29.7	14.9	0.00e+00	0	43	102	1048576	15	4511
2026-01-25 01:00:02.53	10.29	17.22	-27.8	-29.7	14.9	0.00e+00	0	44	102	1048576	15	4507
2026-01-25 01:00:05.55	10.09	17.56	-27.8	-29.9	14.8	0.00e+00	0	44	102	1048576	15	4567
2026-01-25 01:00:08.56	9.90	17.90	-27.7	-29.5	15.0	0.00e+00	0	43	102	1048576	15	4448
2026-01-25 01:00:11.57	9.70	18.25	-27.7	-29.6	15.0	7.00e-07	0	44	102	1048576	15	4462
2026-01-25 01:00:14.57	9.49	18.60	-27.6	-29.3	15.2	0.00e+00	0	44	102	1048576	15	4386
2026-01-25 01:00:17.59	9.28	18.96	-27.6	-29.2	15.2	0.00e+00	0	44	102	1048576	15	4359
2026-01-25 01:00:20.60	9.06	19.32	-27.6	-29.2	15.2	0.00e+00	0	43	102	1048576	15	4363
2026-01-25 01:00:23.61	8.84	19.69	-27.5	-29.0	15.4	0.00e+00	0	44	102	1048576	15	4300
2026-01-25 01:00:26.62	8.61	20.06	-27.6	-29.4	15.2	7.00e-07	0	44	102	1048576	15	4396
2026-01-25 01:00:29.64	8.38	20.44	-27.7	-29.6	15.1	0.00e+00	0	44	102	1048576	15	4469
2026-01-25 01:00:32.65	8.14	20.82	-27.3	-29.1	13.3	0.00e+00	0	44	102	1048576	14	4435
2026-01-25 01:00:35.65	7.89	21.20	-27.2	-28.9	15.8	0.00e+00	0	44	102	1048576	14	4383
2026-01-25 01:00:38.66	7.64	21.60	-26.9	-28.7	16.1	0.00e+00	0	44	102	1048576	13	4431
2026-01-25 01:00:41.66	7.38	21.99	-26.8	-28.5	16.3	3.00e-03	0	44	102	1048576	13	4377
2026-01-25 01:00:44.68	7.12	22.40	-26.6	-28.0	16.5	0.00e+00	0	44	102	1048576	13	4251
2026-01-25 01:00:47.70	6.84	22.81	-26.6	-28.1	16.5	3.11e-03	0	44	102	1048576	13	4264
2026-01-25 01:00:50.71	6.56	23.22	-26.8	-28.5	16.2	3.29e-03	0	43	102	1048576	13	4368
2026-01-25 01:00:53.71	6.27	23.64	-26.7	-28.3	16.4	2.87e-03	0	44	102	1048576	13	4317
2026-01-25 01:00:56.73	5.97	24.07	-26.6	-28.1	16.5	2.95e-03	0	43	102	1048576	13	4280
2026-01-25 01:00:59.74	5.67	24.51	-26.5	-27.8	16.7	3.34e-03	0	44	102	1048576	13	4183
2026-01-25 01:01:02.75	5.35	24.95	-26.5	-27.9	16.6	3.40e-03	0	44	102	1048576	13	4217
2026-01-25 01:01:05.77	5.03	25.39	-26.8	-28.4	16.4	0.00e+00	0	44	102	1048576	13	4356
2026-01-25 01:01:08.78	4.69	25.85	-27.1	-28.8	15.9	3.61e-03	0	44	102	1048576	14	4336
2026-01-25 01:01:11.80	4.35	26.31	-27.5	-29.2	15.5	0.00e+00	0	44	102	1048576	15	4336
2026-01-25 01:01:14.80	4.00	26.77	-27.8	-29.8	15.2	0.00e+00	0	44	102	1048576	15	4506
2026-01-25 01:01:17.82	3.63	27.25	-27.6	-29.2	15.5	0.00e+00	0	44	102	1048576	15	4332
2026-01-25 01:01:20.83	3.25	27.73	-28.0	-30.1	15.0	0.00e+00	0	44	102	1048576	15	4596
2026-01-25 01:01:23.84	2.86	28.21	-27.4	-28.8	15.7	0.00e+00	0	44	102	1048576	15	4226
2026-01-25 01:01:26.86	2.46	28.71	-27.3	-29.1	15.8	0.00e+00	0	44	102	1048576	14	4412
2026-01-25 01:01:29.86	2.05	29.21	-27.2	-29.0	15.9	0.00e+00	0	44	102	1048576	14	4393
2026-01-25 01:01:32.86	1.62	29.72	-27.4	-29.2	15.8	0.00e+00	0	44	102	1048576	14	4467
2026-01-25 01:01:35.86	1.18	30.23	-27.1	-28.7	16.0	0.00e+00	0	44	102	1048576	14	4316
2026-01-25 01:01:38.88	0.73	30.76	-27.2	-28.7	16.0	0.00e+00	0	44	102	1048576	14	4327
2026-01-25 01:01:41.90	0.25	31.29	-27.6	-29.3	15.4	0.00e+00	0	44	102	1048576	15	4382
2026-01-25 01:01:44.92	359.76	31.83	-27.9	-30.0	15.0	0.00e+00	0	44	102	1048576	15	4582
2026-01-25 01:01:47.92	359.26	32.37	-27.3	-29.1	15.8	7.55e-05	0	44	102	1048576	14	4421
2026-01-25 01:01:50.93	358.74	32.93	-27.4	-29.2	15.8	0.00e+00	0	44	102	1048576	14	4453
2026-01-25 01:01:53.94	358.19	33.49	-27.7	-29.5	15.3	0.00e+00	0	44	102	1048576	15	4418
2026-01-25 01:01:56.95	357.63	34.06	-28.3	-30.3	14.8	7.00e-07	0	44	102	1048576	16	4545
2026-01-25 01:01:59.96	357.05	34.63	-28.4	-30.6	14.6	2.11e-04	0	44	102	1048576	16	4618
2026-01-25 01:02:02.96	356.45	35.21	-29.0	-31.0	13.8	2.39e-04	0	44	102	1048576	18	4514
2026-01-25 01:02:05.98	355.82	35.80	-28.9	-31.2	14.0	7.00e-07	0	44	102	1048576	17	4690
2026-01-25 01:02:09.00	355.17	36.40	-29.3	-31.8	13.3	2.00e-04	0	44	102	1048576	18	4768
2026-01-25 01:02:12.01	354.50	37.01	-29.0	-30.6	13.8	2.59e-05	0	44	102	1048576	19	4283
2026-01-25 01:02:15.03	353.80	37.62	-28.5	-30.1	14.6	0.00e+00	0	44	102	1048576	17	4374
2026-01-25 01:02:18.05	353.07	38.24	-28.8	-31.0	14.1	7.00e-07	0	44	102	1048576	17	4650
2026-01-25 01:02:21.05	352.31	38.86	-29.2	-31.3	13.7	1.14e-05	0	44	102	1048576	18	4611
2026-01-25 01:02:24.07	351.53	39.49	-29.2	-31.5	13.6	8.30e-06	0	44	102	1048576	18	4665
2026-01-25 01:02:27.09	350.71	40.12	-29.0	-30.9	14.0	3.00e-06	0	44	102	1048576	18	4475
2026-01-25 01:02:30.11	349.85	40.76	-28.8	-31.0	14.1	6.80e-06	0	44	102	1048576	17	4615
2026-01-25 01:02:33.12	348.97	41.40	-29.3	-31.6	13.5	6.10e-06	0	44	102	1048576	18	4709
2026-01-25 01:02:36.13	348.05	42.05	-29.3	-31.2	13.4	1.60e-05	0	44	102	1048576	19	4477
2026-01-25 01:02:39.13	347.09	42.69	-29.3	-31.5	13.6	8.30e-06	0	44	102	1048576	18	4682
2026-01-25 01:02:42.15	346.09	43.34	-29.6	-31.8	13.1	2.97e-05	0	44	102	1048576	19	4642
2026-01-25 01:02:45.16	345.05	43.99	-29.5	-31.6	13.2	2.51e-05	0	44	102	1048576	19	4585
2026-01-25 01:02:48.17	343.96	44.64	-29.6	-31.9	13.0	2.97e-05	0	44	102	1048576	19	4687
2026-01-25 01:02:51.18	342.83	45.29	-29.9	-32.3	12.4	1.81e-04	0	44	102	1048576	20	4725
2026-01-25 01:02:54.19	341.65	45.93	-29.6	-31.8	13.2	2.36e-05	0	44	102	1048576	19	4655
2026-01-25 01:02:57.19	340.43	46.57	-29.8	-32.3	12.8	6.10e-05	0	44	102	1048576	19	4828
2026-01-25 01:03:00.20	339.15	47.21	-29.6	-31.9	13.0	4.80e-05	0	44	102	1048576	19	4688
2026-01-25 01:03:03.22	337.82	47.84	-29.4	-31.5	13.2	1.60e-05	0	44	102	1048576	19	4574
2026-01-25 01:03:06.22	336.43	48.46	-29.1	-31.2	13.8	3.80e-06	0	44	102	1048576	18	4562
2026-01-25 01:03:09.24	334.98	49.07	-29.3	-31.8	13.4	1.06e-05	0	44	102	1048576	18	4750
2026-01-25 01:03:12.26	333.48	49.67	-28.9	-30.7	14.1	2.20e-06	0	44	102	1048576	18	4417
2026-01-25 01:03:15.27	331.91	50.26	-29.0	-31.0	13.8	3.80e-06	0	44	102	1048576	18	4529
2026-01-25 01:03:18.29	330.28	50.83	-29.3	-31.7	13.4	1.06e-05	0	44	102	1048576	18	4738
2026-01-25 01:03:21.30	328.60	51.38	-28.5	-29.8	14.6	0.00e+00	0	44	102	1048576	18	4166
2026-01-25 01:03:24.31	326.85	51.91	-28.8	-31.0	14.1	1.50e-06	0	44	102	1048576	17	4645
2026-01-25 01:03:27.32	325.04	52.41	-28.0	-29.6	15.2	0.00e+00	0	44	102	1048576	16	4325
2026-01-25 01:03:30.33	323.16	52.89	-28.0	-29.7	15.1	0.00e+00	0	44	102	1048576	16	4360
2026-01-25 01:03:33.34	321.23	53.35	-28.6	-30.5	14.4	7.78e-05	0	44	102	1048576	17	4499
2026-01-25 01:03:36.35	319.24	53.77	-27.6	-28.6	15.7	1.44e-05	0	44	102	1048576	16	4058
2026-01-25 01:03:39.36	317.19	54.15	-27.7	-29.0	15.5	0.00e+00	0	44	102	1048576	16	4168
2026-01-25 01:03:42.38	315.07	54.51	-27.5	-29.1	15.6	0.00e+00	0	44	102	1048576	15	4302
2026-01-25 01:03:45.39	312.92	54.82	-28.1	-29.8	15.0	2.51e-04	0	44	102	1048576	16	4405
2026-01-25 01:03:48.42	310.70	55.10	-28.2	-30.0	14.9	0.00e+00	0	44	102	1048576	16	4458
2026-01-25 01:03:51.43	308.46	55.33	-27.4	-28.7	15.8	4.81e-04	0	44	102	1048576	15	4205
2026-01-25 01:03:54.45	306.18	55.52	-27.4	-29.3	15.7	1.89e-04	0	44	102	1048576	14	4490
2026-01-25 01:03:57.44	303.89	55.67	-27.4	-28.8	15.7	7.09e-04	0	44	102	1048576	15	4219
2026-01-25 01:04:00.44	301.58	55.77	-27.4	-28.9	15.7	2.59e-04	0	44	102	1048576	15	4256
2026-01-25 01:04:03.47	299.23	55.82	-27.6	-29.3	15.4	2.63e-04	0	44	102	1048576	15	4389
2026-01-25 01:04:06.49	296.88	55.83	-27.0	-28.3	16.3	7.00e-07	0	44	102	1048576	14	4211
2026-01-25 01:04:09.50	294.54	55.79	-27.7	-29.5	15.3	0.00e+00	0	44	102	1048576	15	4443
2026-01-25 01:04:12.53	292.20	55.70	-27.0	-28.4	16.2	2.10e-03	0	44	102	1048576	14	4235
2026-01-25 01:04:15.55	289.88	55.57	-27.1	-28.6	16.0	0.00e+00	0	44	102	1048576	14	4293
2026-01-25 01:04:18.56	287.59	55.39	-27.3	-29.1	15.7	0.00e+00	0	44	102	1048576	14	4423
2026-01-25 01:04:21.57	285.34	55.17	-27.4	-29.4	15.6	0.00e+00	0	44	102	1048576	14	4532
2026-01-25 01:04:24.58	283.13	54.90	-27.2	-28.8	15.9	0.00e+00	0	44	102	1048576	14	4354
2026-01-25 01:04:27.59	280.96	54.60	-27.0	-28.5	16.0	0.00e+00	0	44	102	1048576	14	4263
2026-01-25 01:04:30.61	278.83	54.26	-27.3	-28.6	15.7	0.00e+00	0	44	102	1048576	15	4175
2026-01-25 01:04:33.62	276.76	53.88	-27.6	-29.4	15.2	0.00e+00	0	44	102	1048576	15	4414
2026-01-25 01:04:36.62	274.75	53.47	-28.4	-30.1	14.4	0.00e+00	0	44	102	1048576	17	4390
2026-01-25 01:04:39.64	272.79	53.02	-27.5	-29.1	15.5	0.00e+00	0	44	102	1048576	15	4310
2026-01-25 01:04:42.64	270.90	52.55	-29.2	-31.4	13.3	1.67e-05	0	44	102	1048576	18	4663
2026-01-25 01:04:45.65	269.07	52.05	-28.9	-31.2	13.8	3.80e-06	0	44	102	1048576	17	4697
2026-01-25 01:04:48.66	267.30	51.52	-30.5	-33.4	11.2	1.24e-03	0	44	102	1048576	21	5032
2026-01-25 01:04:51.67	265.59	50.98	-29.6	-31.4	12.7	9.00e-05	0	44	102	1048576	20	4456
2026-01-25 01:04:54.68	263.95	50.41	-30.0	-32.4	12.1	2.41e-04	0	44	102	1048576	20	4793
2026-01-25 01:04:57.69	262.36	49.83	-28.9	-30.4	13.7	2.21e-05	0	44	102	1048576	19	4242
2026-01-25 01:05:00.69	260.84	49.24	-28.0	-29.7	14.8	0.00e+00	0	44	102	1048576	16	4360
2026-01-25 01:05:03.70	259.38	48.63	-29.9	-32.8	12.1	1.02e-04	0	44	102	1048576	19	5028
2026-01-25 01:05:06.71	257.97	48.01	-28.5	-29.7	14.2	1.50e-06	0	44	102	1048576	18	4173
2026-01-25 01:05:09.72	256.62	47.38	-28.0	-30.2	13.6	7.00e-07	0	44	102	1048576	15	4649
2026-01-25 01:05:12.73	255.32	46.74	-29.9	-32.8	12.2	1.71e-04	0	44	102	1048576	19	5025
2026-01-25 01:05:15.76	254.07	46.09	-28.6	-30.6	13.9	8.30e-06	0	44	102	1048576	17	4542
2026-01-25 01:05:18.77	252.87	45.45	-29.1	-31.2	13.3	1.03e-03	0	44	102	1048576	18	4615
2026-01-25 01:05:21.78	251.73	44.80	-30.8	-34.3	10.3	5.42e-03	0	44	102	1048576	21	5400
2026-01-25 01:05:24.80	250.62	44.14	-29.5	-31.8	12.7	1.58e-03	0	44	102	1048576	19	4707
2026-01-25 01:05:27.82	249.56	43.49	-29.1	-31.3	13.3	3.66e-05	0	44	102	1048576	18	4635
2026-01-25 01:05:30.84	248.55	42.84	-30.4	-33.7	11.1	5.85e-03	0	44	102	1048576	20	5285
2026-01-25 01:05:33.86	247.57	42.18	-28.9	-30.8	13.5	1.83e-05	0	44	102	1048576	18	4494
2026-01-25 01:05:36.87	246.64	41.54	-29.0	-31.1	13.4	4.47e-03	0	44	102	1048576	18	4592
2026-01-25 01:05:39.88	245.74	40.89	-29.4	-32.2	12.8	3.96e-03	0	44	102	1048576	18	4931
2026-01-25 01:05:42.89	244.88	40.25	-29.3	-31.3	13.0	4.27e-05	0	44	102	1048576	19	4529
2026-01-25 01:05:45.92	244.04	39.61	-27.6	-28.8	15.3	3.86e-03	0	44	102	1048576	16	4141
2026-01-25 01:05:48.93	243.25	38.98	-27.8	-29.8	14.9	0.00e+00	0	44	102	1048576	15	4517
2026-01-25 01:05:51.93	242.48	38.35	-29.7	-32.4	12.3	1.01e-03	0	44	102	1048576	19	4891
2026-01-25 01:05:54.95	241.75	37.73	-29.1	-31.4	13.3	3.28e-05	0	44	102	1048576	18	4665
2026-01-25 01:05:57.95	241.04	37.12	-29.8	-32.6	12.2	1.09e-04	0	44	102	1048576	19	4971
2026-01-25 01:06:00.96	240.36	36.51	-28.2	-29.7	14.4	6.10e-06	0	44	102	1048576	17	4290
2026-01-25 01:06:03.98	239.69	35.91	-28.3	-30.5	14.2	6.10e-06	0	44	102	1048576	16	4639
2026-01-25 01:06:06.99	239.06	35.31	-28.6	-30.6	13.9	1.14e-05	0	44	102	1048576	17	4540
2026-01-25 01:06:10.01	238.45	34.72	-28.6	-30.7	13.9	7.60e-06	0	44	102	1048576	17	4564
2026-01-25 01:06:13.02	237.86	34.14	-28.0	-29.8	14.7	0.00e+00	0	44	102	1048576	16	4401
2026-01-25 01:06:16.03	237.29	33.57	-28.3	-30.5	14.3	7.00e-07	0	44	102	1048576	16	4622
2026-01-25 01:06:19.06	236.74	33.00	-28.0	-29.7	14.7	1.50e-06	0	44	102	1048576	16	4399
2026-01-25 01:06:22.07	236.21	32.44	-27.1	-28.2	15.6	0.00e+00	0	44	102	1048576	15	4095
2026-01-25 01:06:25.08	235.70	31.89	-27.0	-28.0	15.7	0.00e+00	0	44	102	1048576	15	4048
2026-01-25 01:06:28.09	235.20	31.35	-27.6	-29.4	15.0	0.00e+00	0	44	102	1048576	15	4414
2026-01-25 01:06:31.11	234.72	30.81	-27.5	-29.1	15.1	3.35e-05	0	44	102	1048576	15	4348
2026-01-25 01:06:34.12	234.26	30.29	-27.4	-29.1	15.1	1.29e-04	0	44	102	1048576	15	4336
2026-01-25 01:06:37.12	233.81	29.77	-27.0	-28.4	15.7	1.79e-04	0	44	102	1048576	14	4261
2026-01-25 01:06:40.14	233.38	29.25	-26.8	-28.1	15.9	0.00e+00	0	44	102	1048576	14	4163
2026-01-25 01:06:43.15	232.96	28.75	-26.8	-28.1	15.9	0.00e+00	0	44	102	1048576	14	4165
2026-01-25 01:06:46.16	232.55	28.25	-26.7	-27.8	16.0	6.10e-05	0	44	102	1048576	14	4110
2026-01-25 01:06:49.17	232.16	27.76	-26.7	-28.5	15.9	0.00e+00	0	44	102	1048576	13	4402
2026-01-25 01:06:52.18	231.78	27.27	-26.6	-28.1	16.0	1.63e-03	0	44	102	1048576	13	4305
2026-01-25 01:06:55.19	231.41	26.80	-26.6	-28.3	15.9	0.00e+00	0	44	102	1048576	13	4342
2026-01-25 01:06:58.21	231.05	26.33	-26.6	-28.2	16.0	0.00e+00	0	44	102	1048576	13	4311
2026-01-25 01:07:01.21	230.70	25.86	-26.6	-28.2	16.0	0.00e+00	0	44	102	1048576	13	4321
2026-01-25 01:07:04.23	230.36	25.41	-26.7	-28.4	15.9	0.00e+00	0	44	102	1048576	13	4375
2026-01-25 01:07:07.24	230.03	24.96	-26.7	-28.3	15.9	0.00e+00	0	44	102	1048576	13	4354
2026-01-25 01:07:10.26	229.71	24.51	-26.2	-27.7	16.5	0.00e+00	0	44	102	1048576	12	4305
2026-01-25 01:07:13.27	229.40	24.07	-26.2	-27.7	16.5	0.00e+00	0	44	102	1048576	12	4310
2026-01-25 01:07:16.27	229.10	23.65	-26.3	-27.9	16.3	0.00e+00	0	44	102	1048576	12	4363
2026-01-25 01:07:19.29	228.80	23.22	-26.8	-28.5	15.7	0.00e+00	0	44	102	1048576	13	4426
2026-01-25 01:07:22.29	228.52	22.80	-26.9	-28.9	15.5	0.00e+00	0	44	102	1048576	13	4521
2026-01-25 01:07:25.30	228.24	22.39	-27.3	-29.4	15.0	2.04e-04	0	44	102	1048576	14	4575
2026-01-25 01:07:28.31	227.97	21.98	-27.2	-29.1	15.1	7.00e-07	0	44	102	1048576	14	4476
2026-01-25 01:07:31.34	227.71	21.58	-27.0	-28.6	15.4	0.00e+00	0	44	102	1048576	14	4338
2026-01-25 01:07:34.34	227.45	21.19	-26.7	-28.4	15.7	0.00e+00	0	44	102	1048576	13	4399
2026-01-25 01:07:37.36	227.20	20.80	-26.2	-27.9	16.3	0.00e+00	0	44	102	1048576	12	4356
2026-01-25 01:07:40.37	226.96	20.41	-26.0	-27.4	16.5	0.00e+00	0	44	102	1048576	12	4229
2026-01-25 01:07:43.39	226.72	20.03	-25.9	-27.1	16.7	0.00e+00	0	44	102	1048576	12	4139
2026-01-25 01:07:46.41	226.49	19.66	-25.9	-27.7	16.7	0.00e+00	0	44	102	1048576	11	4416
2026-01-25 01:07:49.42	226.26	19.29	-26.3	-28.1	16.2	3.96e-04	0	44	102	1048576	12	4401
2026-01-25 01:07:52.42	226.04	18.93	-26.4	-28.2	16.0	0.00e+00	0	44	102	1048576	12	4452
2026-01-25 01:07:55.43	225.83	18.57	-26.6	-28.2	15.8	0.00e+00	0	44	102	1048576	13	4341
2026-01-25 01:07:58.44	225.62	18.21	-26.8	-28.6	15.5	2.88e-04	0	44	102	1048576	13	4448
2026-01-25 01:08:01.45	225.42	17.86	-26.9	-28.8	15.4	0.00e+00	0	44	102	1048576	13	4504
2026-01-25 01:08:04.47	225.22	17.52	-27.2	-29.2	14.9	3.55e-04	0	44	102	1048576	14	4501
2026-01-25 01:08:07.48	225.02	17.18	-27.2	-29.2	14.9	3.55e-04	0	44	102	1048576	14	4514
2026-01-25 01:08:10.49	224.83	16.84	-27.4	-29.6	14.6	4.55e-04	0	44	102	1048576	14	4648
2026-01-25 01:08:13.50	224.65	16.51	-27.4	-29.6	14.7	3.48e-04	0	44	102	1048576	14	4619
2026-01-25 01:08:16.52	224.46	16.18	-27.4	-29.6	14.7	2.44e-04	0	44	102	1048576	14	4619
2026-01-25 01:08:19.53	224.29	15.85	-27.3	-28.9	14.7	1.35e-04	0	44	102	1048576	15	4321
2026-01-25 01:08:22.53	224.11	15.53	-27.2	-29.1	14.9	0.00e+00	0	44	102	1048576	14	4494
2026-01-25 01:08:25.55	223.94	15.22	-27.1	-28.9	15.0	6.80e-06	0	44	102	1048576	14	4427
2026-01-25 01:08:28.56	223.78	14.91	-27.0	-28.7	15.1	2.10e-03	0	44	102	1048576	14	4379
2026-01-25 01:08:31.57	223.61	14.60	-27.2	-29.1	14.8	7.00e-07	0	44	102	1048576	14	4479
2026-01-25 01:08:34.59	223.45	14.29	-26.9	-28.9	15.2	1.71e-03	0	44	102	1048576	13	4552
2026-01-25 01:08:37.60	223.30	13.99	-27.2	-29.0	14.8	8.67e-04	0	44	102	1048576	14	4462
2026-01-25 01:08:40.61	223.14	13.69	-27.0	-28.8	15.0	8.69e-04	0	44	102	1048576	14	4392
2026-01-25 01:08:43.62	223.00	13.40	-27.2	-29.1	14.8	1.01e-03	0	44	102	1048576	14	4479
2026-01-25 01:08:46.63	222.85	13.11	-27.3	-29.3	14.6	3.23e-04	0	44	102	1048576	14	4541
2026-01-25 01:08:49.66	222.70	12.82	-27.3	-29.4	14.3	1.46e-03	0	44	102	1048576	14	4580
2026-01-25 01:08:52.66	222.56	12.53	-27.2	-29.3	14.3	1.14e-05	0	44	102	1048576	14	4546
2026-01-25 01:08:55.67	222.43	12.25	-27.3	-29.3	14.5	2.44e-03	0	44	102	1048576	14	4569
2026-01-25 01:08:58.66	222.29	11.97	-27.3	-29.4	14.4	1.50e-06	0	44	102	1048576	14	4595
2026-01-25 01:09:01.67	222.16	11.70	-27.5	-29.4	14.0	3.80e-06	0	44	102	1048576	15	4493
2026-01-25 01:09:04.69	222.03	11.42	-27.5	-29.9	13.9	1.22e-05	0	44	102	1048576	14	4754
2026-01-25 01:09:07.71	221.90	11.15	-27.5	-29.6	13.7	7.24e-05	0	44	102	1048576	15	4548
2026-01-25 01:09:10.72	221.78	10.89	-27.6	-29.8	13.6	5.79e-05	0	44	102	1048576	15	4605
2026-01-25 01:09:13.72	221.66	10.62	-27.7	-29.9	13.7	3.20e-05	0	44	102	1048576	15	4645
2026-01-25 01:09:16.72	221.54	10.36	-27.6	-29.6	13.9	9.10e-06	0	44	102	1048576	15	4563
2026-01-25 01:09:19.72	221.42	10.10	-27.7	-29.8	13.7	1.06e-05	0	44	102	1048576	15	4617
2026-01-25 01:09:22.73	221.31	9.85	-27.7	-29.8	13.8	1.14e-05	0	44	102	1048576	15	4606
2026-01-25 01:09:25.74	221.19	9.59	-27.8	-30.1	13.7	1.83e-05	0	44	102	1048576	15	4685
2026-01-25 01:09:28.76	221.08	9.34	-27.8	-30.3	13.5	1.75e-05	0	44	102	1048576	15	4755
2026-01-25 01:09:31.77	220.97	9.09	-28.2	-30.6	13.1	3.66e-05	0	44	102	1048576	16	4736
2026-01-25 01:09:34.78	220.86	8.85	-28.3	-30.9	12.9	4.34e-05	0	44	102	1048576	16	4835
2026-01-25 01:09:37.79	220.76	8.60	-28.2	-30.7	13.0	3.58e-05	0	44	102	1048576	16	4767
2026-01-25 01:09:40.80	220.66	8.36	-28.2	-30.7	13.0	3.05e-05	0	44	102	1048576	16	4760
2026-01-25 01:09:43.81	220.55	8.12	-28.3	-30.9	12.8	5.26e-05	0	44	102	1048576	16	4867
2026-01-25 01:09:46.81	220.45	7.88	-28.3	-30.9	12.8	5.72e-05	0	44	102	1048576	16	4861
2026-01-25 01:09:49.82	220.36	7.65	-28.4	-31.1	12.7	6.94e-05	0	44	102	1048576	16	4912
2026-01-25 01:09:52.84	220.26	7.41	-28.7	-31.4	11.6	1.62e-04	0	44	102	1048576	17	4900
2026-01-25 01:09:55.85	220.17	7.18	-28.6	-31.3	12.1	1.86e-04	0	44	102	1048576	17	4876
2026-01-25 01:09:58.87	220.07	6.95	-33.2	-45.3	3.8	1.49e+00	0	44	104	1048576	26	14461

#Closed at: 2026-01-25 01:10:00
#Recorded file [1 MB]: D:/data/31010_260125_035812.dat