passes_logs/2026/01/25/R2M6_AANII_01/R2M6_AANII_01__20260125_135940_FENGYUN_3D_rec.log

#Pass ID: 20260125_135940_FENGYUN 3D
#Satellite: FENGYUN 3D
#Configuration: FENGYUN 3D
#almurnet v.1.7.20240730
#Start time: 2026-01-25 13:59:41

#Version: 2.2.20231116
#Station: R2M6_AANII_01
#Location: 30.233357 lon 59.946436 lat
#TLE: 1 43010U 17072A   26025.22271248  .00000124  00000+0  80472-4 0  9999
#TLE: 2 43010  98.9962 357.1981 0002521  90.5723 269.5741 14.19700000424706

#Time	Az	El	Level	Level2	SNR	BER	BlckErr	Temp	State	Recorded	gain1	gain2
2026-01-25 13:59:41.80	212.98	7.06	-28.2	-30.7	5.7	7.60e-01	0	41	0	0	16	4799
2026-01-25 13:59:44.81	213.27	7.25	-29.2	-31.7	10.5	6.74e-03	0	41	102	1048576	19	4815
2026-01-25 13:59:47.82	213.57	7.44	-28.1	-29.9	12.4	3.18e-04	0	41	102	1048576	17	4417
2026-01-25 13:59:50.83	213.86	7.63	-27.5	-29.0	13.3	2.74e-05	0	42	102	1048576	16	4262
2026-01-25 13:59:53.84	214.16	7.82	-27.4	-28.7	13.5	1.48e-05	0	42	102	1048576	16	4166
2026-01-25 13:59:56.85	214.47	8.02	-27.3	-28.4	13.7	2.28e-05	0	42	102	1048576	16	4087
2026-01-25 13:59:59.87	214.78	8.21	-26.3	-27.2	14.8	3.40e-06	0	42	102	1048576	14	3993
2026-01-25 14:00:02.88	215.09	8.41	-26.5	-27.5	14.7	0.00e+00	0	42	102	1048576	14	4072
2026-01-25 14:00:05.89	215.41	8.60	-26.2	-27.5	14.9	1.10e-06	0	42	102	1048576	13	4169
2026-01-25 14:00:08.91	215.73	8.80	-26.3	-27.7	14.9	0.00e+00	0	42	102	1048576	13	4216
2026-01-25 14:00:11.92	216.05	9.00	-26.4	-27.8	14.9	0.00e+00	0	42	102	1048576	13	4247
2026-01-25 14:00:14.93	216.38	9.19	-26.3	-27.6	14.9	1.10e-06	0	42	102	1048576	13	4199
2026-01-25 14:00:17.93	216.72	9.39	-26.4	-27.8	14.9	1.10e-06	0	42	102	1048576	13	4250
2026-01-25 14:00:20.95	217.06	9.59	-26.3	-27.6	15.0	0.00e+00	0	43	102	1048576	13	4204
2026-01-25 14:00:23.96	217.40	9.79	-26.4	-27.8	14.9	1.10e-06	0	42	102	1048576	13	4260
2026-01-25 14:00:26.96	217.74	9.99	-25.8	-26.6	15.6	0.00e+00	0	43	102	1048576	13	3939
2026-01-25 14:00:29.97	218.10	10.20	-25.9	-26.8	15.5	0.00e+00	0	42	102	1048576	13	3977
2026-01-25 14:00:32.98	218.45	10.40	-26.1	-27.2	15.3	0.00e+00	0	43	102	1048576	13	4091
2026-01-25 14:00:35.99	218.81	10.60	-25.9	-26.8	15.5	0.00e+00	0	43	102	1048576	13	3986
2026-01-25 14:00:39.00	219.18	10.81	-25.9	-26.8	15.6	0.00e+00	0	43	102	1048576	13	3977
2026-01-25 14:00:42.01	219.55	11.01	-25.6	-26.5	16.0	0.00e+00	0	43	102	1048576	12	4015
2026-01-25 14:00:45.01	219.92	11.21	-25.7	-26.7	15.9	0.00e+00	0	43	102	1048576	12	4054
2026-01-25 14:00:48.02	220.31	11.42	-25.7	-26.7	15.9	0.00e+00	0	43	102	1048576	12	4056
2026-01-25 14:00:51.03	220.69	11.63	-25.7	-26.7	15.9	0.00e+00	0	43	102	1048576	12	4057
2026-01-25 14:00:54.04	221.08	11.83	-25.7	-26.8	15.9	0.00e+00	0	43	102	1048576	12	4072
2026-01-25 14:00:57.06	221.48	12.04	-25.6	-26.6	16.0	0.00e+00	0	43	102	1048576	12	4038
2026-01-25 14:01:00.07	221.89	12.25	-25.7	-26.7	16.0	0.00e+00	0	43	102	1048576	12	4059
2026-01-25 14:01:03.08	222.29	12.46	-25.6	-26.4	16.1	0.00e+00	0	43	102	1048576	12	3986
2026-01-25 14:01:06.09	222.71	12.67	-25.7	-26.8	16.0	0.00e+00	0	43	102	1048576	12	4086
2026-01-25 14:01:09.11	223.13	12.88	-25.8	-27.0	15.8	0.00e+00	0	43	102	1048576	12	4140
2026-01-25 14:01:12.12	223.55	13.09	-25.7	-26.7	16.0	0.00e+00	0	43	102	1048576	12	4060
2026-01-25 14:01:15.12	223.98	13.30	-25.4	-26.1	16.4	0.00e+00	0	43	102	1048576	12	3898
2026-01-25 14:01:18.13	224.42	13.51	-25.4	-26.6	16.5	1.10e-06	0	43	102	1048576	11	4121
2026-01-25 14:01:21.15	224.86	13.72	-25.4	-26.6	16.5	0.00e+00	0	43	102	1048576	11	4122
2026-01-25 14:01:24.16	225.31	13.93	-25.5	-26.9	16.3	0.00e+00	0	43	102	1048576	11	4203
2026-01-25 14:01:27.17	225.77	14.14	-25.3	-26.4	16.6	0.00e+00	0	43	102	1048576	11	4088
2026-01-25 14:01:30.19	226.23	14.35	-25.3	-26.3	16.7	0.00e+00	0	43	102	1048576	11	4050
2026-01-25 14:01:33.19	226.70	14.56	-25.1	-26.0	16.8	0.00e+00	0	43	102	1048576	11	3978
2026-01-25 14:01:36.20	227.18	14.77	-24.9	-25.5	17.1	0.00e+00	0	43	102	1048576	11	3863
2026-01-25 14:01:39.20	227.66	14.99	-24.9	-25.5	17.1	0.00e+00	0	43	102	1048576	11	3849
2026-01-25 14:01:42.21	228.14	15.20	-25.0	-25.8	17.0	0.00e+00	0	43	102	1048576	11	3923
2026-01-25 14:01:45.23	228.64	15.41	-25.0	-25.7	17.0	0.00e+00	0	43	102	1048576	11	3903
2026-01-25 14:01:48.24	229.14	15.62	-24.9	-25.5	17.2	0.00e+00	0	43	102	1048576	11	3862
2026-01-25 14:01:51.25	229.65	15.83	-24.7	-25.6	17.4	0.00e+00	0	43	102	1048576	10	3983
2026-01-25 14:01:54.25	230.16	16.04	-24.8	-25.8	17.3	0.00e+00	0	43	102	1048576	10	4045
2026-01-25 14:01:57.27	230.69	16.25	-24.9	-26.1	17.2	0.00e+00	0	43	102	1048576	10	4103
2026-01-25 14:02:00.29	231.22	16.46	-24.7	-25.6	17.5	0.00e+00	0	43	102	1048576	10	3977
2026-01-25 14:02:03.30	231.76	16.67	-24.5	-25.2	17.7	0.00e+00	0	43	102	1048576	10	3880
2026-01-25 14:02:06.32	232.30	16.88	-24.9	-25.9	17.3	0.00e+00	0	43	102	1048576	10	4066
2026-01-25 14:02:09.32	232.85	17.09	-24.6	-25.4	17.6	0.00e+00	0	43	102	1048576	10	3934
2026-01-25 14:02:12.33	233.41	17.30	-24.9	-25.9	17.3	0.00e+00	0	43	102	1048576	10	4066
2026-01-25 14:02:15.35	233.98	17.50	-24.5	-25.0	17.8	0.00e+00	0	43	102	1048576	10	3844
2026-01-25 14:02:18.36	234.56	17.71	-24.4	-24.8	17.9	0.00e+00	0	44	102	1048576	10	3793
2026-01-25 14:02:21.37	235.14	17.91	-24.4	-24.9	17.9	0.00e+00	0	43	102	1048576	10	3821
2026-01-25 14:02:24.39	235.73	18.12	-24.3	-24.7	18.0	0.00e+00	0	43	102	1048576	10	3774
2026-01-25 14:02:27.38	236.32	18.32	-24.2	-25.0	18.1	0.00e+00	0	43	102	1048576	9	3938
2026-01-25 14:02:30.40	236.93	18.52	-24.3	-25.1	18.0	0.00e+00	0	44	102	1048576	9	3975
2026-01-25 14:02:33.42	237.55	18.72	-24.4	-25.4	17.9	0.00e+00	0	44	102	1048576	9	4042
2026-01-25 14:02:36.43	238.17	18.91	-24.1	-24.8	18.2	0.00e+00	0	44	102	1048576	9	3890
2026-01-25 14:02:39.44	238.79	19.11	-24.1	-24.8	18.2	0.00e+00	0	43	102	1048576	9	3898
2026-01-25 14:02:42.45	239.43	19.30	-24.3	-25.3	18.0	0.00e+00	0	43	102	1048576	9	4008
2026-01-25 14:02:45.45	240.07	19.49	-24.4	-25.4	17.9	0.00e+00	0	43	102	1048576	9	4033
2026-01-25 14:02:48.48	240.73	19.68	-24.5	-25.5	17.9	0.00e+00	0	44	102	1048576	9	4068
2026-01-25 14:02:51.49	241.39	19.87	-24.4	-25.4	17.9	0.00e+00	0	43	102	1048576	9	4044
2026-01-25 14:02:54.51	242.06	20.06	-24.1	-24.8	18.2	0.00e+00	0	44	102	1048576	9	3882
2026-01-25 14:02:57.53	242.74	20.24	-23.7	-24.4	18.7	0.00e+00	0	44	102	1048576	8	3900
2026-01-25 14:03:00.55	243.42	20.42	-24.0	-25.1	18.3	0.00e+00	0	44	102	1048576	8	4086
2026-01-25 14:03:03.56	244.11	20.59	-23.9	-24.9	18.5	0.00e+00	0	44	102	1048576	8	4014
2026-01-25 14:03:06.56	244.81	20.77	-23.7	-24.4	18.7	0.00e+00	0	44	102	1048576	8	3898
2026-01-25 14:03:09.57	245.52	20.94	-23.9	-24.8	18.5	0.00e+00	0	44	102	1048576	8	3989
2026-01-25 14:03:12.58	246.23	21.10	-24.0	-25.1	18.4	0.00e+00	0	44	102	1048576	8	4067
2026-01-25 14:03:15.59	246.95	21.27	-23.7	-24.5	18.7	0.00e+00	0	44	102	1048576	8	3915
2026-01-25 14:03:18.60	247.68	21.43	-23.6	-24.2	18.9	0.00e+00	0	44	102	1048576	8	3851
2026-01-25 14:03:21.62	248.42	21.59	-23.6	-24.2	18.9	0.00e+00	0	44	102	1048576	8	3858
2026-01-25 14:03:24.64	249.17	21.74	-23.6	-24.3	18.8	0.00e+00	0	44	102	1048576	8	3871
2026-01-25 14:03:27.65	249.92	21.89	-23.4	-23.7	19.1	0.00e+00	0	44	102	1048576	8	3740
2026-01-25 14:03:30.66	250.67	22.03	-23.7	-24.4	18.8	0.00e+00	0	44	102	1048576	8	3902
2026-01-25 14:03:33.67	251.44	22.17	-23.6	-24.3	18.9	0.00e+00	0	44	102	1048576	8	3872
2026-01-25 14:03:36.69	252.21	22.31	-23.6	-24.2	18.9	0.00e+00	0	44	102	1048576	8	3845
2026-01-25 14:03:39.71	252.99	22.44	-23.5	-24.0	19.0	0.00e+00	0	43	102	1048576	8	3812
2026-01-25 14:03:42.71	253.77	22.57	-23.5	-24.0	19.0	0.00e+00	0	44	102	1048576	8	3814
2026-01-25 14:03:45.72	254.56	22.69	-23.4	-23.8	19.1	0.00e+00	0	44	102	1048576	8	3772
2026-01-25 14:03:48.72	255.36	22.80	-23.6	-24.1	19.0	0.00e+00	0	44	102	1048576	8	3839
2026-01-25 14:03:51.73	256.16	22.92	-23.5	-24.0	19.0	0.00e+00	0	44	102	1048576	8	3812
2026-01-25 14:03:54.74	256.96	23.02	-23.3	-23.6	19.2	0.00e+00	0	44	102	1048576	8	3717
2026-01-25 14:03:57.75	257.78	23.12	-23.3	-24.0	19.2	0.00e+00	0	44	102	1048576	7	3928
2026-01-25 14:04:00.76	258.59	23.22	-23.2	-23.8	19.4	0.00e+00	0	44	102	1048576	7	3872
2026-01-25 14:04:03.77	259.42	23.31	-23.3	-24.1	19.2	0.00e+00	0	44	102	1048576	7	3933
2026-01-25 14:04:06.79	260.24	23.39	-23.4	-24.2	19.1	0.00e+00	0	44	102	1048576	7	3971
2026-01-25 14:04:09.81	261.08	23.47	-23.1	-23.7	19.4	0.00e+00	0	44	102	1048576	7	3840
2026-01-25 14:04:12.82	261.91	23.54	-23.4	-24.2	19.2	0.00e+00	0	44	102	1048576	7	3947
2026-01-25 14:04:15.84	262.75	23.61	-23.0	-23.4	19.6	0.00e+00	0	44	102	1048576	7	3764
2026-01-25 14:04:18.86	263.60	23.67	-23.0	-23.5	19.6	0.00e+00	0	44	102	1048576	7	3787
2026-01-25 14:04:21.87	264.44	23.72	-23.1	-23.6	19.5	0.00e+00	0	44	102	1048576	7	3822
2026-01-25 14:04:24.89	265.29	23.77	-23.0	-23.5	19.5	1.10e-06	0	44	102	1048576	7	3797
2026-01-25 14:04:27.91	266.14	23.81	-23.5	-24.4	19.1	0.00e+00	0	44	102	1048576	7	4021
2026-01-25 14:04:30.92	266.99	23.84	-23.3	-24.0	19.3	2.20e-06	0	44	102	1048576	7	3913
2026-01-25 14:04:33.94	267.85	23.87	-23.2	-23.8	19.4	0.00e+00	0	44	102	1048576	7	3870
2026-01-25 14:04:36.94	268.70	23.89	-23.2	-23.9	19.3	0.00e+00	0	44	102	1048576	7	3893
2026-01-25 14:04:39.94	269.55	23.91	-23.0	-23.4	19.6	0.00e+00	0	44	102	1048576	7	3785
2026-01-25 14:04:42.96	270.41	23.92	-23.0	-23.5	19.5	0.00e+00	0	44	102	1048576	7	3787
2026-01-25 14:04:45.97	271.26	23.92	-23.1	-23.6	19.5	0.00e+00	0	44	102	1048576	7	3821
2026-01-25 14:04:48.98	272.12	23.92	-23.1	-23.7	19.4	0.00e+00	0	44	102	1048576	7	3849
2026-01-25 14:04:52.00	272.98	23.90	-23.0	-23.4	19.6	0.00e+00	0	44	102	1048576	7	3779
2026-01-25 14:04:55.01	273.83	23.89	-23.2	-23.8	19.4	0.00e+00	0	44	102	1048576	7	3861
2026-01-25 14:04:58.01	274.68	23.86	-23.1	-23.7	19.4	0.00e+00	0	44	102	1048576	7	3835
2026-01-25 14:05:01.03	275.53	23.83	-23.1	-23.6	19.5	0.00e+00	0	44	102	1048576	7	3814
2026-01-25 14:05:04.05	276.38	23.79	-23.1	-23.7	19.4	0.00e+00	0	44	102	1048576	7	3832
2026-01-25 14:05:07.06	277.23	23.75	-23.3	-24.1	19.2	0.00e+00	0	44	102	1048576	7	3945
2026-01-25 14:05:10.08	278.08	23.70	-23.2	-23.8	19.4	0.00e+00	0	44	102	1048576	7	3872
2026-01-25 14:05:13.09	278.92	23.64	-23.1	-23.6	19.5	0.00e+00	0	44	102	1048576	7	3813
2026-01-25 14:05:16.11	279.76	23.58	-23.1	-23.6	19.5	0.00e+00	0	44	102	1048576	7	3818
2026-01-25 14:05:19.12	280.60	23.51	-23.1	-23.5	19.5	0.00e+00	0	44	102	1048576	7	3807
2026-01-25 14:05:22.14	281.43	23.44	-23.1	-23.6	19.5	0.00e+00	0	44	102	1048576	7	3829
2026-01-25 14:05:25.15	282.26	23.36	-23.3	-24.0	19.3	0.00e+00	0	44	102	1048576	7	3920
2026-01-25 14:05:28.16	283.08	23.27	-23.2	-23.9	19.3	0.00e+00	0	44	102	1048576	7	3893
2026-01-25 14:05:31.17	283.90	23.18	-23.3	-24.0	19.3	0.00e+00	0	44	102	1048576	7	3905
2026-01-25 14:05:34.18	284.71	23.08	-23.3	-24.1	19.3	0.00e+00	0	44	102	1048576	7	3925
2026-01-25 14:05:37.20	285.52	22.98	-23.4	-24.2	19.2	0.00e+00	0	44	102	1048576	7	3951
2026-01-25 14:05:40.20	286.32	22.87	-23.6	-24.6	19.0	0.00e+00	0	44	102	1048576	7	4060
2026-01-25 14:05:43.21	287.12	22.76	-23.6	-24.6	18.9	0.00e+00	0	44	102	1048576	7	4067
2026-01-25 14:05:46.22	287.91	22.64	-23.4	-24.3	19.1	0.00e+00	0	44	102	1048576	7	3976
2026-01-25 14:05:49.23	288.70	22.52	-23.6	-24.6	19.0	0.00e+00	0	44	102	1048576	7	4055
2026-01-25 14:05:52.24	289.48	22.39	-23.5	-24.5	19.0	0.00e+00	0	44	102	1048576	7	4042
2026-01-25 14:05:55.24	290.25	22.26	-23.7	-25.0	18.8	0.00e+00	0	44	102	1048576	7	4159
2026-01-25 14:05:58.27	291.02	22.12	-23.8	-25.2	18.7	0.00e+00	0	44	102	1048576	7	4203
2026-01-25 14:06:01.27	291.77	21.98	-23.8	-25.1	18.7	0.00e+00	0	44	102	1048576	7	4179
2026-01-25 14:06:04.29	292.53	21.83	-23.6	-24.7	18.9	0.00e+00	0	44	102	1048576	7	4077
2026-01-25 14:06:07.31	293.28	21.68	-23.8	-25.1	18.7	0.00e+00	0	44	102	1048576	7	4173
2026-01-25 14:06:10.33	294.02	21.53	-23.8	-25.2	18.6	0.00e+00	0	44	102	1048576	7	4204
2026-01-25 14:06:13.34	294.75	21.37	-23.8	-25.2	18.6	0.00e+00	0	44	102	1048576	7	4202
2026-01-25 14:06:16.35	295.47	21.21	-23.9	-25.4	18.5	0.00e+00	0	44	102	1048576	7	4261
2026-01-25 14:06:19.37	296.19	21.05	-23.9	-24.8	18.6	0.00e+00	0	44	102	1048576	8	4000
2026-01-25 14:06:22.38	296.90	20.88	-24.1	-25.3	18.3	0.00e+00	0	44	102	1048576	8	4136
2026-01-25 14:06:25.39	297.60	20.71	-24.1	-25.2	18.4	0.00e+00	0	44	102	1048576	8	4099
2026-01-25 14:06:28.40	298.29	20.54	-24.1	-25.2	18.4	0.00e+00	0	44	102	1048576	8	4090
2026-01-25 14:06:31.41	298.98	20.36	-24.1	-25.3	18.3	0.00e+00	0	44	102	1048576	8	4130
2026-01-25 14:06:34.42	299.66	20.18	-24.2	-25.5	18.2	0.00e+00	0	44	102	1048576	8	4175
2026-01-25 14:06:37.43	300.33	20.00	-24.2	-25.4	18.3	0.00e+00	0	44	102	1048576	8	4131
2026-01-25 14:06:40.45	300.99	19.81	-24.2	-25.5	18.2	0.00e+00	0	44	102	1048576	8	4184
2026-01-25 14:06:43.46	301.64	19.63	-24.6	-25.9	17.8	0.00e+00	0	44	102	1048576	9	4167
2026-01-25 14:06:46.48	302.29	19.44	-24.5	-25.6	17.9	0.00e+00	0	44	102	1048576	9	4088
2026-01-25 14:06:49.49	302.93	19.25	-24.6	-25.7	17.8	0.00e+00	0	44	102	1048576	9	4117
2026-01-25 14:06:52.50	303.56	19.05	-24.4	-25.4	18.0	0.00e+00	0	44	102	1048576	9	4031
2026-01-25 14:06:55.52	304.19	18.86	-24.4	-25.4	18.0	0.00e+00	0	44	102	1048576	9	4045
2026-01-25 14:06:58.52	304.80	18.66	-24.5	-25.5	17.9	0.00e+00	0	44	102	1048576	9	4062
2026-01-25 14:07:01.53	305.41	18.47	-24.7	-26.0	17.7	0.00e+00	0	44	102	1048576	9	4191
2026-01-25 14:07:04.55	306.01	18.27	-24.7	-26.0	17.6	0.00e+00	0	44	102	1048576	9	4186
2026-01-25 14:07:07.55	306.60	18.07	-24.9	-26.4	17.4	0.00e+00	0	44	102	1048576	9	4283
2026-01-25 14:07:10.56	307.18	17.86	-25.2	-26.6	17.1	0.00e+00	0	44	102	1048576	10	4234
2026-01-25 14:07:13.58	307.76	17.66	-25.2	-26.6	17.0	0.00e+00	0	44	102	1048576	10	4239
2026-01-25 14:07:16.59	308.33	17.46	-25.2	-26.6	17.0	0.00e+00	0	44	102	1048576	10	4230
2026-01-25 14:07:19.60	308.89	17.25	-25.2	-26.6	17.1	0.00e+00	0	44	102	1048576	10	4230
2026-01-25 14:07:22.59	309.44	17.05	-25.2	-26.5	17.1	0.00e+00	0	44	102	1048576	10	4214
2026-01-25 14:07:25.61	309.99	16.84	-24.9	-25.9	17.4	0.00e+00	0	44	102	1048576	10	4041
2026-01-25 14:07:28.63	310.53	16.63	-25.0	-26.1	17.3	0.00e+00	0	44	102	1048576	10	4112
2026-01-25 14:07:31.64	311.07	16.43	-25.2	-26.7	17.0	0.00e+00	0	44	102	1048576	10	4251
2026-01-25 14:07:34.66	311.59	16.22	-25.1	-26.3	17.2	0.00e+00	0	44	102	1048576	10	4157
2026-01-25 14:07:37.66	312.11	16.01	-25.1	-26.3	17.2	0.00e+00	0	44	102	1048576	10	4158
2026-01-25 14:07:40.68	312.62	15.80	-25.4	-27.0	16.8	0.00e+00	0	44	102	1048576	10	4347
2026-01-25 14:07:43.68	313.13	15.59	-25.8	-27.4	16.3	0.00e+00	0	44	102	1048576	11	4350
2026-01-25 14:07:46.69	313.62	15.38	-25.5	-26.8	16.6	0.00e+00	0	44	102	1048576	11	4168
2026-01-25 14:07:49.69	314.11	15.17	-25.7	-27.1	16.4	0.00e+00	0	44	102	1048576	11	4260
2026-01-25 14:07:52.71	314.60	14.96	-25.7	-27.3	16.3	0.00e+00	0	44	102	1048576	11	4299
2026-01-25 14:07:55.71	315.08	14.75	-26.1	-27.6	15.7	0.00e+00	0	44	102	1048576	12	4286
2026-01-25 14:07:58.72	315.55	14.54	-25.6	-26.5	16.3	0.00e+00	0	44	102	1048576	12	4002
2026-01-25 14:08:01.74	316.01	14.33	-25.5	-26.2	16.5	0.00e+00	0	44	102	1048576	12	3930
2026-01-25 14:08:04.76	316.47	14.12	-25.4	-26.0	16.6	0.00e+00	0	44	102	1048576	12	3877
2026-01-25 14:08:07.77	316.92	13.91	-25.4	-26.0	16.6	0.00e+00	0	44	102	1048576	12	3860
2026-01-25 14:08:10.79	317.37	13.70	-25.6	-26.4	16.4	0.00e+00	0	44	102	1048576	12	3980
2026-01-25 14:08:13.80	317.81	13.49	-25.7	-26.6	16.3	0.00e+00	0	44	102	1048576	12	4025
2026-01-25 14:08:16.81	318.25	13.29	-25.6	-26.6	16.2	0.00e+00	0	44	102	1048576	12	4029
2026-01-25 14:08:19.82	318.67	13.08	-25.6	-26.6	16.2	0.00e+00	0	44	102	1048576	12	4011
2026-01-25 14:08:22.85	319.10	12.87	-25.6	-26.5	16.3	0.00e+00	0	44	102	1048576	12	3984
2026-01-25 14:08:25.85	319.51	12.66	-25.8	-27.0	16.0	0.00e+00	0	44	102	1048576	12	4113
2026-01-25 14:08:28.86	319.92	12.45	-26.0	-27.4	15.7	0.00e+00	0	44	102	1048576	12	4230
2026-01-25 14:08:31.87	320.33	12.25	-26.1	-27.6	15.6	0.00e+00	0	44	102	1048576	12	4296
2026-01-25 14:08:34.89	320.73	12.04	-26.3	-28.2	15.3	0.00e+00	0	44	102	1048576	12	4440
2026-01-25 14:08:37.90	321.13	11.84	-26.1	-27.7	15.5	0.00e+00	0	44	102	1048576	12	4306
2026-01-25 14:08:40.91	321.52	11.63	-26.1	-27.7	15.5	0.00e+00	0	44	102	1048576	12	4327
2026-01-25 14:08:43.93	321.90	11.43	-26.3	-28.1	15.3	0.00e+00	0	44	102	1048576	12	4423
2026-01-25 14:08:46.94	322.28	11.22	-26.3	-28.2	15.2	0.00e+00	0	44	102	1048576	12	4447
2026-01-25 14:08:49.97	322.66	11.02	-26.2	-27.9	15.3	2.20e-06	0	44	102	1048576	12	4377
2026-01-25 14:08:52.99	323.03	10.82	-26.2	-27.8	15.4	0.00e+00	0	44	102	1048576	12	4332
2026-01-25 14:08:56.01	323.39	10.61	-26.1	-27.6	15.5	0.00e+00	0	44	102	1048576	12	4287
2026-01-25 14:08:59.03	323.75	10.41	-26.1	-27.7	15.4	0.00e+00	0	44	102	1048576	12	4311
2026-01-25 14:09:02.04	324.11	10.21	-26.3	-28.1	15.2	0.00e+00	0	44	102	1048576	12	4411
2026-01-25 14:09:05.04	324.46	10.01	-26.5	-28.1	14.9	1.10e-06	0	44	102	1048576	13	4321
2026-01-25 14:09:08.05	324.80	9.81	-26.5	-28.2	14.9	0.00e+00	0	44	102	1048576	13	4331
2026-01-25 14:09:11.08	325.14	9.61	-26.5	-28.0	15.0	0.00e+00	0	44	102	1048576	13	4290
2026-01-25 14:09:14.10	325.48	9.42	-26.4	-27.9	15.0	0.00e+00	0	44	102	1048576	13	4271
2026-01-25 14:09:17.11	325.81	9.22	-26.4	-27.8	15.0	0.00e+00	0	44	102	1048576	13	4247
2026-01-25 14:09:20.12	326.14	9.02	-26.4	-27.8	15.0	0.00e+00	0	44	102	1048576	13	4242
2026-01-25 14:09:23.13	326.47	8.83	-26.6	-28.2	14.8	3.40e-06	0	44	102	1048576	13	4338
2026-01-25 14:09:26.15	326.79	8.63	-26.6	-28.3	14.7	0.00e+00	0	44	102	1048576	13	4367
2026-01-25 14:09:29.16	327.10	8.44	-26.7	-28.6	14.5	0.00e+00	0	44	102	1048576	13	4464
2026-01-25 14:09:32.17	327.41	8.25	-26.8	-28.9	14.3	5.70e-06	0	44	102	1048576	13	4538
2026-01-25 14:09:35.19	327.72	8.05	-27.0	-28.8	14.1	2.20e-06	0	44	102	1048576	14	4407
2026-01-25 14:09:38.20	328.03	7.86	-27.1	-28.8	14.0	1.02e-05	0	44	102	1048576	14	4421
2026-01-25 14:09:41.23	328.33	7.67	-27.1	-29.1	13.9	5.70e-06	0	44	102	1048576	14	4497
2026-01-25 14:09:44.23	328.62	7.48	-27.4	-29.7	13.5	1.83e-05	0	44	102	1048576	14	4676
2026-01-25 14:09:47.25	328.92	7.29	-27.2	-29.2	13.7	4.50e-06	0	44	102	1048576	14	4548
2026-01-25 14:09:50.26	329.21	7.10	-28.4	-31.1	12.4	1.94e-05	0	44	102	1048576	16	4899

#Closed at: 2026-01-25 14:09:52
#Recorded file [1 MB]: D:/data/31010_260125_165943.dat