passes_logs/2026/01/25/R2M6_AANII_01/R2M6_AANII_01__20260125_014837_NOAA_20_JPSS-1_rec.log

#Pass ID: 20260125_014837_NOAA 20 (JPSS-1)
#Satellite: NOAA 20 (JPSS-1)
#Configuration: NOAA 20
#almurnet v.1.7.20240730
#Start time: 2026-01-25 01:48:38

#Version: 2.2.20231116
#Station: R2M6_AANII_01
#Location: 30.233357 lon 59.946436 lat
#TLE: 1 43013U 17073A   26024.42258823  .00000183  00000+0  10747-3 0  9990
#TLE: 2 43013  98.7646 325.2629 0001105  25.8644 334.2587 14.19539754424075

#Time	Az	El	Level	Level2	SNR	BER	BlckErr	Temp	State	Recorded	gain1	gain2
2026-01-25 01:48:38.36	11.88	7.04	-32.3	-41.4	4.3	1.41e+00	0	41	0	0	24	10237
2026-01-25 01:48:41.36	11.67	7.25	-32.3	-40.8	5.6	4.69e-01	0	42	102	1048576	24	9581
2026-01-25 01:48:44.37	11.45	7.46	-32.4	-41.5	5.2	5.09e-01	0	42	102	1048576	24	10275
2026-01-25 01:48:47.39	11.23	7.67	-32.2	-39.9	6.2	3.71e-01	0	42	102	1048576	24	8756
2026-01-25 01:48:50.40	11.01	7.89	-31.7	-37.6	8.3	7.29e-02	0	42	102	1048576	23	7089
2026-01-25 01:48:53.41	10.78	8.10	-31.1	-35.9	10.1	8.32e-03	0	42	102	1048576	22	6219
2026-01-25 01:48:56.43	10.55	8.32	-31.0	-35.5	10.4	3.75e-03	0	42	102	1048576	22	6032
2026-01-25 01:48:59.45	10.31	8.53	-31.1	-35.7	10.3	5.87e-03	0	42	102	1048576	22	6096
2026-01-25 01:49:02.47	10.07	8.75	-31.0	-35.4	10.7	3.47e-03	0	42	102	1048576	22	5934
2026-01-25 01:49:05.48	9.83	8.97	-30.9	-35.0	10.9	2.27e-03	0	42	102	1048576	22	5768
2026-01-25 01:49:08.49	9.59	9.19	-30.9	-35.4	11.0	1.87e-03	0	42	102	1048576	21	6060
2026-01-25 01:49:11.50	9.34	9.42	-30.8	-35.3	11.1	1.74e-03	0	42	102	1048576	21	5993
2026-01-25 01:49:14.52	9.08	9.64	-30.8	-35.0	11.3	1.24e-03	0	42	102	1048576	21	5873
2026-01-25 01:49:17.53	8.83	9.87	-30.7	-34.7	11.5	1.04e-03	0	42	102	1048576	21	5736
2026-01-25 01:49:20.55	8.56	10.10	-30.6	-34.6	11.6	5.55e-04	0	43	102	1048576	21	5676
2026-01-25 01:49:23.56	8.30	10.33	-30.6	-34.3	11.9	6.39e-04	0	43	102	1048576	21	5540
2026-01-25 01:49:26.57	8.03	10.56	-30.5	-34.2	11.9	3.66e-04	0	43	102	1048576	21	5483
2026-01-25 01:49:29.58	7.75	10.79	-30.7	-34.8	11.5	5.66e-04	0	43	102	1048576	21	5771
2026-01-25 01:49:32.59	7.47	11.02	-30.4	-33.8	12.2	2.30e-04	0	43	102	1048576	21	5343
2026-01-25 01:49:35.60	7.19	11.26	-30.4	-34.3	12.3	1.81e-04	0	43	102	1048576	20	5641
2026-01-25 01:49:38.62	6.90	11.49	-30.4	-34.4	12.2	2.56e-04	0	43	102	1048576	20	5699
2026-01-25 01:49:41.63	6.61	11.73	-30.3	-34.1	12.0	1.88e-03	0	43	102	1048576	20	5564
2026-01-25 01:49:44.64	6.31	11.97	-30.4	-34.3	12.0	1.88e-04	0	43	102	1048576	20	5626
2026-01-25 01:49:47.65	6.01	12.21	-30.4	-34.3	12.3	1.72e-04	0	43	102	1048576	20	5635
2026-01-25 01:49:50.66	5.70	12.45	-30.7	-34.5	11.9	3.24e-04	0	43	102	1048576	21	5634
2026-01-25 01:49:53.67	5.38	12.70	-30.4	-34.2	12.5	1.42e-04	0	43	102	1048576	20	5569
2026-01-25 01:49:56.68	5.06	12.94	-30.4	-34.2	12.4	1.01e-04	0	43	102	1048576	20	5583
2026-01-25 01:49:59.69	4.74	13.19	-30.4	-34.4	12.3	2.32e-03	0	43	102	1048576	20	5659
2026-01-25 01:50:02.69	4.41	13.44	-30.7	-34.6	11.8	2.88e-03	0	43	102	1048576	21	5662
2026-01-25 01:50:05.70	4.07	13.69	-30.5	-34.1	12.2	2.53e-03	0	43	102	1048576	21	5411
2026-01-25 01:50:08.71	3.73	13.94	-30.5	-34.1	12.3	1.41e-04	0	43	102	1048576	21	5433
2026-01-25 01:50:11.72	3.38	14.20	-30.3	-33.8	12.8	6.56e-05	0	43	102	1048576	20	5393
2026-01-25 01:50:14.72	3.03	14.45	-30.3	-33.8	12.8	3.81e-05	0	43	102	1048576	20	5418
2026-01-25 01:50:17.73	2.66	14.71	-30.4	-34.0	12.7	2.16e-03	0	43	102	1048576	20	5490
2026-01-25 01:50:20.74	2.30	14.97	-30.5	-34.3	12.5	2.44e-03	0	43	102	1048576	20	5611
2026-01-25 01:50:23.74	1.92	15.22	-30.4	-34.2	12.6	2.36e-03	0	43	102	1048576	20	5570
2026-01-25 01:50:26.76	1.54	15.49	-30.5	-33.9	12.5	2.52e-03	0	43	102	1048576	21	5340
2026-01-25 01:50:29.77	1.15	15.75	-30.4	-33.6	12.7	2.65e-03	0	43	102	1048576	21	5209
2026-01-25 01:50:32.78	0.76	16.01	-30.4	-34.2	12.7	4.80e-04	0	43	102	1048576	20	5541
2026-01-25 01:50:35.79	0.36	16.28	-30.7	-34.5	12.1	2.55e-03	0	43	102	1048576	21	5587
2026-01-25 01:50:38.80	359.95	16.55	-30.5	-33.9	12.6	2.49e-03	0	43	102	1048576	21	5326
2026-01-25 01:50:41.81	359.53	16.82	-30.6	-34.0	12.5	2.43e-03	0	43	102	1048576	21	5374
2026-01-25 01:50:44.83	359.10	17.09	-30.6	-34.0	12.6	2.51e-03	0	43	102	1048576	21	5345
2026-01-25 01:50:47.84	358.67	17.36	-30.7	-34.3	12.4	3.30e-03	0	43	102	1048576	21	5459
2026-01-25 01:50:50.86	358.23	17.63	-30.6	-34.1	12.5	7.92e-04	0	44	102	1048576	21	5381
2026-01-25 01:50:53.86	357.78	17.90	-30.7	-34.3	12.4	9.32e-04	0	44	102	1048576	21	5454
2026-01-25 01:50:56.88	357.32	18.18	-30.3	-33.7	13.1	1.21e-03	0	44	102	1048576	20	5331
2026-01-25 01:50:59.89	356.85	18.46	-30.2	-33.4	13.3	8.16e-04	0	44	102	1048576	20	5218
2026-01-25 01:51:02.90	356.38	18.73	-30.2	-33.4	13.4	1.60e-05	0	44	102	1048576	20	5215
2026-01-25 01:51:05.92	355.89	19.01	-30.1	-33.1	13.5	9.85e-04	0	44	102	1048576	20	5109
2026-01-25 01:51:08.92	355.40	19.29	-30.1	-33.2	13.5	1.28e-03	0	44	102	1048576	20	5153
2026-01-25 01:51:11.93	354.90	19.57	-30.0	-32.8	13.7	1.09e-03	0	44	102	1048576	20	5003
2026-01-25 01:51:14.93	354.39	19.85	-30.0	-32.7	13.8	1.26e-03	0	44	102	1048576	20	4960
2026-01-25 01:51:17.95	353.87	20.13	-29.9	-32.6	13.9	5.30e-06	0	44	102	1048576	20	4907
2026-01-25 01:51:20.96	353.33	20.41	-30.0	-32.8	13.8	3.80e-06	0	44	102	1048576	20	4986
2026-01-25 01:51:23.96	352.80	20.70	-30.1	-33.0	13.7	3.80e-06	0	44	102	1048576	20	5056
2026-01-25 01:51:26.96	352.25	20.98	-30.3	-33.6	13.3	7.77e-04	0	44	102	1048576	20	5285
2026-01-25 01:51:29.99	351.68	21.26	-30.3	-33.6	13.3	3.88e-04	0	44	102	1048576	20	5271
2026-01-25 01:51:33.01	351.11	21.55	-30.3	-33.6	13.3	3.81e-04	0	44	102	1048576	20	5293
2026-01-25 01:51:36.02	350.52	21.83	-30.4	-33.9	13.2	2.13e-05	0	44	102	1048576	20	5393
2026-01-25 01:51:39.03	349.93	22.12	-30.5	-33.8	12.9	2.21e-05	0	44	102	1048576	21	5228
2026-01-25 01:51:42.03	349.32	22.40	-30.5	-33.6	13.0	5.41e-05	0	44	102	1048576	21	5174
2026-01-25 01:51:45.03	348.71	22.68	-30.3	-33.5	13.4	5.58e-04	0	44	102	1048576	20	5223
2026-01-25 01:51:48.04	348.08	22.96	-30.1	-33.1	13.7	2.73e-04	0	44	102	1048576	20	5081
2026-01-25 01:51:51.07	347.44	23.25	-30.1	-33.0	13.7	3.66e-05	0	44	102	1048576	20	5049
2026-01-25 01:51:54.08	346.79	23.53	-30.2	-33.3	13.5	9.10e-06	0	44	102	1048576	20	5147
2026-01-25 01:51:57.09	346.12	23.81	-29.7	-32.1	14.3	2.49e-04	0	44	102	1048576	20	4724
2026-01-25 01:52:00.09	345.45	24.08	-29.7	-32.5	14.4	8.00e-04	0	44	102	1048576	19	4960
2026-01-25 01:52:03.10	344.76	24.36	-29.8	-32.8	14.3	1.37e-03	0	44	102	1048576	19	5082
2026-01-25 01:52:06.12	344.06	24.64	-29.8	-32.7	14.4	1.42e-03	0	44	102	1048576	19	5030
2026-01-25 01:52:09.14	343.34	24.91	-29.9	-32.9	14.3	1.72e-03	0	44	102	1048576	19	5097
2026-01-25 01:52:12.15	342.62	25.18	-29.9	-32.5	14.1	2.37e-03	0	44	102	1048576	20	4863
2026-01-25 01:52:15.15	341.88	25.45	-29.6	-32.3	14.6	2.45e-03	0	44	102	1048576	19	4901
2026-01-25 01:52:18.17	341.13	25.72	-29.8	-32.8	14.4	9.83e-04	0	44	102	1048576	19	5061
2026-01-25 01:52:21.18	340.37	25.98	-29.8	-32.6	14.4	1.15e-03	0	44	102	1048576	19	4988
2026-01-25 01:52:24.19	339.59	26.24	-30.0	-32.7	14.0	1.67e-03	0	44	102	1048576	20	4941
2026-01-25 01:52:27.20	338.80	26.50	-30.2	-33.4	13.6	1.92e-03	0	44	102	1048576	20	5181
2026-01-25 01:52:30.21	338.00	26.75	-30.2	-33.4	13.6	3.62e-03	0	44	102	1048576	20	5173
2026-01-25 01:52:33.21	337.19	27.00	-30.1	-33.2	13.8	3.40e-03	0	44	102	1048576	20	5096
2026-01-25 01:52:36.22	336.36	27.24	-30.4	-33.8	13.4	1.99e-03	0	44	102	1048576	20	5357
2026-01-25 01:52:39.24	335.51	27.49	-30.5	-33.6	13.2	2.07e-03	0	44	102	1048576	21	5134
2026-01-25 01:52:42.25	334.66	27.72	-30.7	-34.1	12.8	1.99e-03	0	44	102	1048576	21	5345
2026-01-25 01:52:45.26	333.79	27.95	-30.5	-33.7	13.1	3.20e-05	0	44	102	1048576	21	5186
2026-01-25 01:52:48.27	332.92	28.18	-30.7	-34.2	12.7	5.49e-05	0	44	102	1048576	21	5390
2026-01-25 01:52:51.28	332.02	28.39	-30.7	-34.2	12.7	7.85e-05	0	44	102	1048576	21	5375
2026-01-25 01:52:54.29	331.12	28.61	-30.6	-33.9	12.9	6.63e-05	0	44	102	1048576	21	5268
2026-01-25 01:52:57.31	330.20	28.81	-30.7	-34.3	12.8	4.88e-05	0	44	102	1048576	21	5410
2026-01-25 01:53:00.32	329.27	29.01	-30.8	-34.5	12.6	6.46e-04	0	44	102	1048576	21	5511
2026-01-25 01:53:03.33	328.34	29.21	-30.8	-34.5	12.5	9.91e-05	0	44	102	1048576	21	5499
2026-01-25 01:53:06.35	327.38	29.39	-30.9	-34.9	12.3	1.64e-04	0	44	102	1048576	21	5667
2026-01-25 01:53:09.36	326.42	29.57	-31.0	-34.4	12.3	2.31e-04	0	44	102	1048576	22	5359
2026-01-25 01:53:12.37	325.45	29.74	-30.9	-34.8	12.4	2.49e-04	0	44	102	1048576	21	5628
2026-01-25 01:53:15.38	324.47	29.90	-30.8	-34.4	12.7	1.88e-04	0	44	102	1048576	21	5441
2026-01-25 01:53:18.39	323.48	30.05	-30.9	-34.7	12.4	1.08e-04	0	44	102	1048576	21	5571
2026-01-25 01:53:21.40	322.48	30.19	-31.0	-34.5	12.2	2.13e-04	0	44	102	1048576	22	5405
2026-01-25 01:53:24.41	321.47	30.33	-31.2	-35.0	11.9	4.27e-04	0	44	102	1048576	22	5625
2026-01-25 01:53:27.42	320.45	30.45	-31.1	-34.8	12.0	2.30e-04	0	44	102	1048576	22	5510
2026-01-25 01:53:30.44	319.42	30.56	-31.3	-35.3	11.8	6.16e-04	0	44	102	1048576	22	5735
2026-01-25 01:53:33.45	318.39	30.67	-31.0	-34.5	12.3	2.97e-04	0	44	102	1048576	22	5371
2026-01-25 01:53:36.47	317.35	30.76	-30.8	-34.6	12.5	1.17e-04	0	44	102	1048576	21	5529
2026-01-25 01:53:39.48	316.30	30.85	-31.2	-35.2	11.8	8.84e-04	0	44	102	1048576	22	5675
2026-01-25 01:53:42.49	315.25	30.92	-30.8	-34.3	12.7	1.71e-04	0	44	102	1048576	21	5411
2026-01-25 01:53:45.50	314.20	30.98	-30.8	-34.3	12.7	9.38e-05	0	44	102	1048576	21	5427
2026-01-25 01:53:48.51	313.14	31.03	-31.1	-34.7	12.1	2.13e-04	0	44	102	1048576	22	5470
2026-01-25 01:53:51.53	312.08	31.08	-31.4	-35.6	11.6	6.06e-04	0	44	102	1048576	22	5857
2026-01-25 01:53:54.53	311.02	31.10	-31.8	-36.6	10.5	4.02e-03	0	44	102	1048576	23	6238
2026-01-25 01:53:57.53	309.96	31.12	-31.9	-36.5	10.0	8.02e-03	0	44	102	1048576	24	6108
2026-01-25 01:54:00.55	308.89	31.13	-31.7	-36.3	10.6	3.21e-03	0	44	102	1048576	23	6125
2026-01-25 01:54:03.57	307.82	31.13	-31.7	-36.3	10.6	3.36e-03	0	44	102	1048576	23	6075
2026-01-25 01:54:06.59	306.75	31.11	-31.5	-35.7	11.1	1.75e-03	0	44	102	1048576	23	5812
2026-01-25 01:54:09.59	305.69	31.09	-31.3	-35.3	11.7	7.82e-04	0	44	102	1048576	22	5709
2026-01-25 01:54:12.61	304.62	31.05	-30.8	-34.5	12.6	9.91e-05	0	44	102	1048576	21	5483
2026-01-25 01:54:15.62	303.56	31.00	-30.8	-34.5	12.6	8.54e-05	0	44	102	1048576	21	5490
2026-01-25 01:54:18.62	302.51	30.94	-31.1	-34.8	11.9	3.84e-04	0	44	102	1048576	22	5516
2026-01-25 01:54:21.64	301.45	30.87	-30.7	-34.1	12.8	6.56e-05	0	44	102	1048576	21	5341
2026-01-25 01:54:24.65	300.41	30.79	-30.9	-34.8	12.3	1.11e-04	0	44	102	1048576	21	5624
2026-01-25 01:54:27.66	299.37	30.70	-31.3	-35.5	11.5	4.07e-04	0	44	102	1048576	22	5857
2026-01-25 01:54:30.68	298.33	30.60	-31.1	-35.0	11.5	4.39e-04	0	44	102	1048576	22	5632
2026-01-25 01:54:33.70	297.30	30.49	-30.8	-34.6	12.4	1.63e-04	0	44	102	1048576	21	5533
2026-01-25 01:54:36.72	296.27	30.36	-30.7	-34.2	12.7	7.55e-05	0	44	102	1048576	21	5383
2026-01-25 01:54:39.74	295.25	30.23	-31.0	-34.9	12.2	1.83e-04	0	44	102	1048576	21	5702
2026-01-25 01:54:42.75	294.25	30.09	-30.9	-34.7	12.3	1.11e-03	0	44	102	1048576	21	5604
2026-01-25 01:54:45.76	293.25	29.94	-30.5	-33.7	13.0	1.55e-03	0	44	102	1048576	21	5214
2026-01-25 01:54:48.77	292.27	29.78	-30.5	-33.7	13.0	1.36e-03	0	44	102	1048576	21	5188
2026-01-25 01:54:51.78	291.29	29.62	-30.8	-34.5	12.5	6.94e-05	0	44	102	1048576	21	5511
2026-01-25 01:54:54.81	290.32	29.44	-31.0	-35.1	12.0	2.90e-04	0	44	102	1048576	21	5781
2026-01-25 01:54:57.82	289.36	29.26	-30.9	-34.8	12.2	2.63e-03	0	44	102	1048576	21	5656
2026-01-25 01:55:00.85	288.41	29.07	-30.8	-34.6	12.3	2.10e-03	0	44	102	1048576	21	5582
2026-01-25 01:55:03.86	287.48	28.87	-31.1	-34.8	11.9	2.54e-03	0	44	102	1048576	22	5557
2026-01-25 01:55:06.87	286.56	28.66	-31.2	-35.1	11.6	2.79e-03	0	44	102	1048576	22	5697
2026-01-25 01:55:09.88	285.65	28.45	-31.2	-35.2	11.6	2.64e-03	0	44	102	1048576	22	5711
2026-01-25 01:55:12.88	284.76	28.24	-31.0	-35.1	12.0	3.46e-03	0	44	102	1048576	21	5765
2026-01-25 01:55:15.90	283.87	28.01	-30.9	-35.0	12.0	6.06e-04	0	44	102	1048576	21	5752
2026-01-25 01:55:18.90	283.00	27.78	-30.7	-34.2	12.5	3.35e-04	0	44	102	1048576	21	5401
2026-01-25 01:55:21.91	282.14	27.55	-30.6	-33.9	12.7	8.54e-05	0	44	102	1048576	21	5302
2026-01-25 01:55:24.93	281.29	27.31	-30.5	-33.7	12.9	7.01e-05	0	44	102	1048576	21	5205
2026-01-25 01:55:27.96	280.45	27.06	-30.7	-34.3	12.5	9.29e-04	0	44	102	1048576	21	5442
2026-01-25 01:55:30.97	279.63	26.81	-30.7	-34.4	12.3	6.39e-04	0	44	102	1048576	21	5507
2026-01-25 01:55:33.99	278.82	26.56	-30.5	-33.9	12.7	9.55e-04	0	44	102	1048576	21	5293
2026-01-25 01:55:36.99	278.02	26.30	-30.4	-34.1	12.9	4.84e-04	0	44	102	1048576	20	5477
2026-01-25 01:55:40.01	277.24	26.04	-30.3	-33.6	13.2	2.82e-05	0	44	102	1048576	20	5304
2026-01-25 01:55:43.03	276.47	25.78	-30.2	-33.6	13.2	2.21e-05	0	44	102	1048576	20	5279
2026-01-25 01:55:46.03	275.71	25.51	-30.3	-33.7	13.2	2.28e-05	0	44	102	1048576	20	5318
2026-01-25 01:55:49.03	274.97	25.24	-29.9	-32.7	13.7	9.54e-04	0	44	102	1048576	20	4976
2026-01-25 01:55:52.03	274.24	24.97	-29.9	-33.0	14.0	3.80e-04	0	44	102	1048576	19	5170
2026-01-25 01:55:55.03	273.52	24.70	-29.7	-32.7	14.2	1.55e-04	0	44	102	1048576	19	5047
2026-01-25 01:55:58.04	272.82	24.42	-29.7	-32.6	14.3	2.23e-04	0	44	102	1048576	19	5011
2026-01-25 01:56:01.05	272.12	24.15	-29.5	-31.9	14.6	0.00e+00	0	44	102	1048576	19	4789
2026-01-25 01:56:04.07	271.44	23.87	-29.0	-31.3	15.2	0.00e+00	0	44	102	1048576	18	4703
2026-01-25 01:56:07.08	270.77	23.59	-29.0	-31.2	15.4	0.00e+00	0	44	102	1048576	18	4661
2026-01-25 01:56:10.09	270.11	23.31	-28.8	-31.2	15.6	1.14e-03	0	44	102	1048576	17	4784
2026-01-25 01:56:13.10	269.47	23.02	-28.5	-30.6	16.0	1.17e-03	0	44	102	1048576	17	4575
2026-01-25 01:56:16.12	268.83	22.74	-28.2	-30.3	16.4	0.00e+00	0	44	102	1048576	16	4595
2026-01-25 01:56:19.13	268.21	22.45	-28.1	-30.1	16.5	0.00e+00	0	44	102	1048576	16	4532
2026-01-25 01:56:22.14	267.60	22.17	-27.7	-29.8	16.8	0.00e+00	0	44	102	1048576	15	4562
2026-01-25 01:56:25.14	267.00	21.89	-27.8	-30.0	16.6	0.00e+00	0	44	102	1048576	15	4652
2026-01-25 01:56:28.15	266.41	21.60	-27.9	-30.3	16.5	2.28e-03	0	44	102	1048576	15	4727
2026-01-25 01:56:31.15	265.83	21.32	-27.5	-29.8	16.1	2.16e-03	0	44	102	1048576	16	4670
2026-01-25 01:56:34.18	265.26	21.03	-28.3	-30.5	16.2	2.46e-03	0	44	102	1048576	16	4683
2026-01-25 01:56:37.19	264.70	20.75	-28.4	-31.0	15.9	4.18e-03	0	44	102	1048576	16	4819
2026-01-25 01:56:40.20	264.16	20.46	-28.5	-30.7	15.8	2.81e-03	0	44	102	1048576	17	4636
2026-01-25 01:56:43.20	263.62	20.18	-28.5	-30.7	15.8	4.34e-05	0	44	102	1048576	17	4629
2026-01-25 01:56:46.21	263.10	19.90	-28.6	-30.8	15.7	1.58e-03	0	44	102	1048576	17	4673
2026-01-25 01:56:49.22	262.58	19.62	-28.7	-31.2	15.4	1.17e-03	0	44	102	1048576	17	4802
2026-01-25 01:56:52.23	262.07	19.34	-29.1	-31.6	14.9	5.00e-04	0	44	102	1048576	18	4825
2026-01-25 01:56:55.25	261.57	19.05	-29.1	-31.6	14.9	1.16e-03	0	44	102	1048576	18	4803
2026-01-25 01:56:58.26	261.08	18.77	-29.2	-31.8	14.7	6.99e-04	0	44	102	1048576	18	4900
2026-01-25 01:57:01.28	260.60	18.50	-29.3	-32.1	14.5	8.69e-05	0	44	102	1048576	18	5000
2026-01-25 01:57:04.29	260.13	18.22	-29.2	-32.0	14.6	7.00e-07	0	44	102	1048576	18	4958
2026-01-25 01:57:07.31	259.66	17.94	-29.2	-31.9	14.6	5.34e-05	0	44	102	1048576	18	4936
2026-01-25 01:57:10.33	259.21	17.66	-29.3	-32.2	14.4	7.00e-07	0	44	102	1048576	18	5041
2026-01-25 01:57:13.33	258.76	17.39	-29.6	-32.6	13.9	2.62e-04	0	44	102	1048576	19	5055
2026-01-25 01:57:16.36	258.32	17.12	-29.4	-32.5	14.2	1.08e-03	0	44	102	1048576	18	5152
2026-01-25 01:57:19.37	257.89	16.85	-29.6	-32.5	13.9	9.44e-04	0	44	102	1048576	19	5030
2026-01-25 01:57:22.39	257.47	16.58	-29.5	-32.3	14.0	2.87e-04	0	44	102	1048576	19	4949
2026-01-25 01:57:25.40	257.06	16.31	-29.5	-32.3	14.0	1.98e-03	0	44	102	1048576	19	4946
2026-01-25 01:57:28.42	256.65	16.04	-29.6	-32.5	13.8	9.10e-06	0	44	102	1048576	19	5029
2026-01-25 01:57:31.43	256.25	15.77	-29.7	-32.7	13.7	6.10e-06	0	44	102	1048576	19	5094
2026-01-25 01:57:34.44	255.86	15.51	-29.5	-32.7	13.5	7.60e-06	0	44	102	1048576	19	5224
2026-01-25 01:57:37.45	255.47	15.25	-29.8	-33.0	13.4	1.14e-05	0	44	102	1048576	19	5222
2026-01-25 01:57:40.47	255.09	14.98	-29.9	-33.4	13.2	3.58e-04	0	44	102	1048576	19	5386
2026-01-25 01:57:43.49	254.72	14.72	-29.9	-33.5	13.1	3.05e-05	0	44	102	1048576	19	5415
2026-01-25 01:57:46.50	254.35	14.47	-30.1	-33.5	12.7	4.73e-05	0	44	102	1048576	20	5332
2026-01-25 01:57:49.51	253.99	14.21	-30.1	-33.5	12.7	8.16e-05	0	44	102	1048576	20	5331
2026-01-25 01:57:52.51	253.64	13.95	-30.2	-33.8	12.4	1.24e-04	0	44	102	1048576	20	5474
2026-01-25 01:57:55.52	253.29	13.70	-30.2	-33.8	12.4	4.86e-04	0	44	102	1048576	20	5459
2026-01-25 01:57:58.54	252.95	13.45	-30.1	-33.5	12.6	5.33e-04	0	44	102	1048576	20	5329
2026-01-25 01:58:01.57	252.61	13.20	-30.2	-33.9	12.2	6.76e-04	0	44	102	1048576	20	5493
2026-01-25 01:58:04.58	252.29	12.95	-30.0	-33.5	12.6	4.67e-04	0	44	102	1048576	20	5339
2026-01-25 01:58:07.58	251.96	12.70	-30.1	-33.6	12.5	2.78e-04	0	44	102	1048576	20	5374
2026-01-25 01:58:10.58	251.65	12.46	-30.2	-33.8	12.3	1.76e-04	0	44	102	1048576	20	5487
2026-01-25 01:58:13.58	251.33	12.21	-30.2	-33.9	12.2	2.66e-04	0	44	102	1048576	20	5536
2026-01-25 01:58:16.59	251.03	11.97	-30.1	-33.8	12.3	2.07e-04	0	44	102	1048576	20	5472
2026-01-25 01:58:19.60	250.72	11.73	-30.2	-34.1	12.0	3.89e-04	0	44	102	1048576	20	5592
2026-01-25 01:58:22.61	250.43	11.49	-30.2	-33.8	12.2	4.12e-04	0	44	102	1048576	20	5500
2026-01-25 01:58:25.64	250.13	11.25	-30.2	-34.0	12.0	5.46e-04	0	44	102	1048576	20	5598
2026-01-25 01:58:28.66	249.84	11.02	-30.3	-34.4	11.8	4.77e-04	0	44	102	1048576	20	5732
2026-01-25 01:58:31.67	249.56	10.78	-30.3	-34.4	11.7	4.85e-04	0	44	102	1048576	20	5741
2026-01-25 01:58:34.68	249.28	10.55	-30.4	-34.6	11.6	7.29e-04	0	44	102	1048576	20	5839
2026-01-25 01:58:37.68	249.01	10.32	-30.4	-34.8	11.4	9.14e-04	0	44	102	1048576	20	5978
2026-01-25 01:58:40.69	248.74	10.09	-30.7	-35.1	10.8	3.65e-03	0	44	102	1048576	21	5974
2026-01-25 01:58:43.70	248.47	9.86	-30.5	-34.4	11.2	1.72e-03	0	44	102	1048576	21	5686
2026-01-25 01:58:46.71	248.21	9.63	-30.5	-34.6	11.1	1.43e-03	0	44	102	1048576	21	5746
2026-01-25 01:58:49.72	247.96	9.41	-30.3	-34.6	11.4	9.68e-04	0	44	102	1048576	20	5857
2026-01-25 01:58:52.73	247.70	9.18	-30.4	-34.8	11.3	9.04e-04	0	44	102	1048576	20	5969
2026-01-25 01:58:55.73	247.46	8.96	-30.3	-34.5	11.4	8.73e-04	0	44	102	1048576	20	5850
2026-01-25 01:58:58.74	247.21	8.74	-30.3	-34.5	11.4	9.53e-04	0	44	102	1048576	20	5846
2026-01-25 01:59:01.76	246.97	8.52	-30.4	-34.8	11.1	1.41e-03	0	44	102	1048576	20	6010
2026-01-25 01:59:04.78	246.73	8.30	-30.4	-34.6	10.9	2.11e-03	0	44	102	1048576	21	5786
2026-01-25 01:59:07.79	246.50	8.09	-30.6	-35.1	10.5	2.97e-03	0	44	102	1048576	21	6042
2026-01-25 01:59:10.81	246.27	7.87	-30.6	-35.1	10.5	4.45e-03	0	44	102	1048576	21	6047
2026-01-25 01:59:13.83	246.04	7.66	-30.6	-35.3	10.2	6.22e-03	0	44	102	1048576	21	6156
2026-01-25 01:59:16.83	245.82	7.44	-30.7	-35.7	9.9	6.73e-03	0	44	102	1048576	21	6374
2026-01-25 01:59:19.85	245.59	7.23	-30.7	-35.7	9.9	9.75e-03	0	44	102	1048576	21	6401
2026-01-25 01:59:22.87	245.38	7.02	-32.8	-46.8	3.8	1.33e+00	0	44	104	1048576	25	18036

#Closed at: 2026-01-25 01:59:24
#Recorded file [1 MB]: D:/data/31010_260125_044840.dat