passes_logs/2026/01/25/R2M6_AANII_01/R2M6_AANII_01__20260125_012758_SUOMI_NPP_rec.log

#Pass ID: 20260125_012758_SUOMI NPP
#Satellite: SUOMI NPP
#Configuration: NPP
#almurnet v.1.7.20240730
#Start time: 2026-01-25 01:27:58

#Version: 2.2.20231116
#Station: R2M6_AANII_01
#Location: 30.233357 lon 59.946436 lat
#TLE: 1 37849U 11061A   26024.54906732  .00000185  00000+0  10878-3 0  9990
#TLE: 2 37849  98.7821 326.5159 0002200  47.3746 312.7615 14.19529340738061

#Time	Az	El	Level	Level2	SNR	BER	BlckErr	Temp	State	Recorded	gain1	gain2
2026-01-25 01:27:58.41	13.51	7.00	-32.1	-38.3	4.6	1.38e+00	0	41	0	0	24	7330
2026-01-25 01:28:01.41	13.36	7.22	-32.2	-38.4	5.9	3.36e-01	0	41	102	1048576	24	7416
2026-01-25 01:28:04.42	13.20	7.44	-32.1	-37.8	6.5	2.37e-01	0	42	102	1048576	24	6904
2026-01-25 01:28:07.44	13.04	7.66	-31.9	-36.6	7.3	1.64e-01	0	42	102	1048576	24	6205
2026-01-25 01:28:10.45	12.88	7.89	-31.1	-34.5	9.8	1.75e-02	0	42	102	1048576	22	5279
2026-01-25 01:28:13.47	12.72	8.12	-30.9	-34.1	10.4	5.41e-03	0	42	102	1048576	21	5232
2026-01-25 01:28:16.50	12.55	8.35	-31.0	-34.3	10.2	4.44e-03	0	42	102	1048576	21	5315
2026-01-25 01:28:19.51	12.38	8.58	-31.0	-34.0	10.2	4.91e-03	0	42	102	1048576	22	5060
2026-01-25 01:28:22.52	12.21	8.81	-30.6	-33.1	11.2	1.93e-03	0	42	102	1048576	21	4812
2026-01-25 01:28:25.53	12.04	9.05	-30.3	-32.6	12.0	1.36e-03	0	42	102	1048576	20	4713
2026-01-25 01:28:28.54	11.86	9.28	-30.4	-32.8	11.9	1.33e-03	0	42	102	1048576	20	4783
2026-01-25 01:28:31.56	11.68	9.52	-30.4	-32.9	11.8	1.25e-03	0	42	102	1048576	20	4801
2026-01-25 01:28:34.57	11.50	9.76	-30.2	-32.2	12.3	9.35e-04	0	42	102	1048576	20	4560
2026-01-25 01:28:37.57	11.31	10.01	-30.2	-32.3	12.3	2.76e-04	0	42	102	1048576	20	4579
2026-01-25 01:28:40.57	11.12	10.25	-30.2	-32.4	12.2	3.06e-04	0	42	102	1048576	20	4638
2026-01-25 01:28:43.58	10.93	10.50	-30.2	-32.4	12.3	8.34e-04	0	43	102	1048576	20	4603
2026-01-25 01:28:46.59	10.73	10.75	-30.4	-32.8	12.0	1.11e-03	0	43	102	1048576	20	4754
2026-01-25 01:28:49.61	10.53	11.00	-30.3	-32.5	12.2	9.73e-04	0	42	102	1048576	20	4650
2026-01-25 01:28:52.63	10.32	11.25	-30.3	-32.6	12.2	1.00e-03	0	42	102	1048576	20	4672
2026-01-25 01:28:55.64	10.11	11.51	-30.1	-31.9	12.7	9.71e-04	0	43	102	1048576	20	4454
2026-01-25 01:28:58.63	9.90	11.77	-30.1	-32.1	12.5	1.14e-04	0	43	102	1048576	20	4517
2026-01-25 01:29:01.64	9.69	12.03	-30.1	-32.0	12.6	7.29e-04	0	43	102	1048576	20	4474
2026-01-25 01:29:04.66	9.46	12.29	-30.2	-32.4	12.4	7.22e-04	0	43	102	1048576	20	4604
2026-01-25 01:29:07.68	9.24	12.56	-30.2	-32.3	12.4	6.67e-04	0	43	102	1048576	20	4578
2026-01-25 01:29:10.70	9.01	12.83	-30.2	-32.3	12.5	8.65e-04	0	43	102	1048576	20	4561
2026-01-25 01:29:13.71	8.78	13.10	-30.2	-32.2	12.5	5.22e-04	0	43	102	1048576	20	4546
2026-01-25 01:29:16.73	8.54	13.37	-30.1	-31.8	12.7	9.61e-05	0	43	102	1048576	20	4409
2026-01-25 01:29:19.74	8.29	13.65	-30.1	-32.0	12.7	5.56e-05	0	43	102	1048576	20	4478
2026-01-25 01:29:22.76	8.05	13.93	-30.0	-31.5	13.1	4.80e-05	0	43	102	1048576	20	4289
2026-01-25 01:29:25.76	7.79	14.21	-30.1	-31.8	12.9	4.57e-05	0	43	102	1048576	20	4380
2026-01-25 01:29:28.77	7.54	14.49	-30.1	-31.8	12.9	7.32e-05	0	43	102	1048576	20	4398
2026-01-25 01:29:31.78	7.27	14.78	-30.1	-31.7	12.9	6.56e-05	0	43	102	1048576	20	4369
2026-01-25 01:29:34.80	7.01	15.07	-30.1	-31.8	12.9	4.19e-05	0	43	102	1048576	20	4399
2026-01-25 01:29:37.82	6.73	15.36	-30.2	-32.1	12.7	4.88e-05	0	43	102	1048576	20	4504
2026-01-25 01:29:40.83	6.45	15.65	-30.0	-31.7	13.0	3.28e-05	0	43	102	1048576	20	4372
2026-01-25 01:29:43.84	6.17	15.95	-30.2	-32.3	12.6	3.28e-05	0	43	102	1048576	20	4554
2026-01-25 01:29:46.85	5.88	16.25	-30.1	-32.0	12.9	7.40e-05	0	43	102	1048576	20	4444
2026-01-25 01:29:49.86	5.58	16.55	-30.1	-31.8	13.0	2.35e-03	0	43	102	1048576	20	4376
2026-01-25 01:29:52.87	5.28	16.86	-30.3	-32.5	12.5	2.15e-03	0	43	102	1048576	20	4626
2026-01-25 01:29:55.90	4.96	17.17	-30.6	-32.8	12.1	2.82e-03	0	43	102	1048576	21	4609
2026-01-25 01:29:58.91	4.65	17.49	-30.4	-32.2	12.5	1.95e-04	0	44	102	1048576	21	4424
2026-01-25 01:30:01.92	4.32	17.80	-30.5	-32.5	12.3	1.14e-04	0	43	102	1048576	21	4498
2026-01-25 01:30:04.94	3.99	18.12	-30.3	-32.3	12.8	3.96e-05	0	43	102	1048576	20	4515
2026-01-25 01:30:07.93	3.66	18.44	-30.2	-32.1	12.9	2.33e-03	0	43	102	1048576	20	4456
2026-01-25 01:30:10.95	3.31	18.77	-30.7	-32.8	12.2	2.30e-03	0	43	102	1048576	21	4612
2026-01-25 01:30:13.97	2.96	19.10	-30.4	-32.5	12.7	2.27e-03	0	43	102	1048576	20	4591
2026-01-25 01:30:16.99	2.60	19.43	-30.8	-33.2	11.9	2.42e-03	0	43	102	1048576	21	4739
2026-01-25 01:30:20.00	2.23	19.76	-30.3	-32.1	13.0	2.10e-03	0	43	102	1048576	20	4462
2026-01-25 01:30:23.01	1.85	20.10	-30.0	-31.5	13.4	1.67e-05	0	43	102	1048576	20	4262
2026-01-25 01:30:26.02	1.46	20.44	-30.1	-31.6	13.4	1.75e-05	0	44	102	1048576	20	4305
2026-01-25 01:30:29.03	1.07	20.79	-30.0	-31.2	13.6	2.05e-03	0	44	102	1048576	20	4177
2026-01-25 01:30:32.04	0.66	21.13	-30.2	-31.9	13.3	2.31e-03	0	43	102	1048576	20	4373
2026-01-25 01:30:35.05	0.25	21.48	-30.5	-32.4	12.6	2.34e-03	0	44	102	1048576	21	4446
2026-01-25 01:30:38.06	359.83	21.84	-30.7	-32.9	12.2	2.33e-03	0	43	102	1048576	21	4630
2026-01-25 01:30:41.06	359.39	22.19	-30.8	-33.1	12.0	2.59e-04	0	44	102	1048576	21	4717
2026-01-25 01:30:44.07	358.95	22.55	-30.4	-31.9	12.8	8.39e-05	0	44	102	1048576	21	4313
2026-01-25 01:30:47.08	358.49	22.92	-30.4	-32.5	12.8	4.57e-05	0	44	102	1048576	20	4591
2026-01-25 01:30:50.10	358.03	23.29	-30.9	-32.9	11.9	4.13e-04	0	44	102	1048576	22	4539
2026-01-25 01:30:53.11	357.55	23.66	-31.0	-33.2	11.7	1.03e-03	0	44	102	1048576	22	4623
2026-01-25 01:30:56.11	357.06	24.03	-31.3	-34.2	11.1	1.36e-03	0	44	102	1048576	22	5020
2026-01-25 01:30:59.11	356.56	24.40	-30.8	-33.2	12.0	2.63e-04	0	44	102	1048576	21	4729
2026-01-25 01:31:02.12	356.05	24.78	-30.1	-31.7	13.4	3.20e-05	0	44	102	1048576	20	4319
2026-01-25 01:31:05.13	355.53	25.17	-30.5	-32.2	12.7	7.09e-05	0	44	102	1048576	21	4399
2026-01-25 01:31:08.13	354.99	25.55	-30.7	-33.0	12.2	1.11e-04	0	44	102	1048576	21	4653
2026-01-25 01:31:11.13	354.44	25.94	-30.5	-32.3	12.1	1.14e-04	0	44	102	1048576	21	4438
2026-01-25 01:31:14.14	353.87	26.33	-30.1	-31.7	13.2	3.28e-05	0	43	102	1048576	20	4327
2026-01-25 01:31:17.16	353.29	26.72	-30.3	-32.4	13.0	6.10e-04	0	44	102	1048576	20	4540
2026-01-25 01:31:20.18	352.69	27.12	-30.6	-32.5	12.5	6.36e-04	0	44	102	1048576	21	4486
2026-01-25 01:31:23.20	352.08	27.51	-30.7	-32.8	12.4	2.84e-04	0	44	102	1048576	21	4588
2026-01-25 01:31:26.22	351.45	27.92	-30.5	-32.3	12.7	8.69e-05	0	44	102	1048576	21	4418
2026-01-25 01:31:29.23	350.80	28.32	-31.0	-33.7	11.8	3.28e-04	0	44	102	1048576	21	4902
2026-01-25 01:31:32.25	350.14	28.72	-31.4	-34.3	11.0	1.69e-03	0	44	102	1048576	22	5075
2026-01-25 01:31:35.26	349.47	29.13	-31.6	-34.6	10.4	7.53e-03	0	44	102	1048576	23	5090
2026-01-25 01:31:38.28	348.77	29.53	-31.5	-34.3	10.7	6.55e-03	0	44	102	1048576	23	4984
2026-01-25 01:31:41.28	348.06	29.94	-31.5	-34.4	10.6	4.37e-03	0	44	102	1048576	23	4996
2026-01-25 01:31:44.30	347.33	30.35	-31.9	-35.7	9.6	9.69e-03	0	44	102	1048576	23	5605
2026-01-25 01:31:47.31	346.58	30.75	-32.1	-35.9	9.1	2.77e-02	0	44	102	1048576	24	5575
2026-01-25 01:31:50.32	345.81	31.16	-31.4	-33.9	11.0	2.71e-03	0	44	102	1048576	23	4781
2026-01-25 01:31:53.32	345.02	31.57	-31.3	-34.0	11.3	2.45e-03	0	44	102	1048576	22	4901
2026-01-25 01:31:56.33	344.21	31.97	-31.8	-35.3	10.0	8.29e-03	0	44	102	1048576	23	5366
2026-01-25 01:31:59.35	343.38	32.38	-31.3	-33.9	11.4	2.19e-03	0	44	102	1048576	22	4886
2026-01-25 01:32:02.34	342.53	32.78	-31.0	-33.2	11.8	1.29e-03	0	44	102	1048576	22	4614
2026-01-25 01:32:05.36	341.66	33.19	-31.4	-34.6	10.9	1.75e-03	0	44	102	1048576	22	5166
2026-01-25 01:32:08.37	340.76	33.59	-31.5	-34.0	10.8	2.91e-03	0	44	102	1048576	23	4855
2026-01-25 01:32:11.39	339.84	33.98	-31.0	-33.0	12.0	4.78e-04	0	44	102	1048576	22	4561
2026-01-25 01:32:14.41	338.90	34.38	-30.9	-33.4	12.1	2.65e-04	0	44	102	1048576	21	4781
2026-01-25 01:32:17.42	337.94	34.77	-31.2	-33.7	11.6	7.45e-04	0	44	102	1048576	22	4784
2026-01-25 01:32:20.44	336.95	35.15	-31.0	-33.1	11.9	1.61e-03	0	44	102	1048576	22	4615
2026-01-25 01:32:23.45	335.94	35.53	-31.4	-34.7	10.8	2.00e-03	0	44	102	1048576	22	5235
2026-01-25 01:32:26.46	334.90	35.91	-32.2	-37.0	8.1	2.96e-02	0	44	102	1048576	24	6201
2026-01-25 01:32:29.47	333.85	36.27	-31.7	-35.2	10.0	1.44e-02	0	44	102	1048576	23	5358
2026-01-25 01:32:32.48	332.76	36.63	-31.9	-36.0	9.4	1.26e-02	0	44	102	1048576	23	5714
2026-01-25 01:32:35.51	331.65	36.98	-30.9	-34.3	10.0	5.23e-03	0	44	102	1048576	23	5334
2026-01-25 01:32:38.52	330.52	37.33	-31.5	-34.4	10.7	3.84e-03	0	44	102	1048576	23	5022
2026-01-25 01:32:41.53	329.37	37.66	-31.5	-34.5	10.6	2.99e-03	0	44	102	1048576	23	5056
2026-01-25 01:32:44.55	328.18	37.98	-30.6	-32.7	12.4	1.19e-03	0	44	102	1048576	21	4556
2026-01-25 01:32:47.57	326.98	38.29	-30.6	-32.6	12.4	1.80e-03	0	44	102	1048576	21	4564
2026-01-25 01:32:50.59	325.75	38.59	-30.7	-33.1	12.1	4.68e-04	0	44	102	1048576	21	4715
2026-01-25 01:32:53.60	324.50	38.88	-30.4	-32.1	12.9	1.40e-04	0	44	102	1048576	21	4360
2026-01-25 01:32:56.62	323.23	39.16	-30.0	-31.6	13.4	2.89e-05	0	44	102	1048576	20	4302
2026-01-25 01:32:59.64	321.94	39.42	-29.9	-31.8	13.6	8.57e-04	0	44	102	1048576	19	4470
2026-01-25 01:33:02.65	320.63	39.66	-29.8	-31.1	13.7	4.38e-04	0	44	102	1048576	20	4166
2026-01-25 01:33:05.67	319.29	39.89	-28.9	-29.6	15.3	3.16e-04	0	44	102	1048576	18	3911
2026-01-25 01:33:08.68	317.95	40.10	-29.6	-31.0	14.2	4.91e-04	0	44	102	1048576	19	4214
2026-01-25 01:33:11.70	316.58	40.29	-29.3	-30.5	14.8	2.75e-04	0	44	102	1048576	18	4156
2026-01-25 01:33:14.72	315.19	40.47	-30.4	-32.6	12.7	7.32e-05	0	44	102	1048576	20	4647
2026-01-25 01:33:17.73	313.80	40.63	-29.9	-31.2	13.9	3.00e-06	0	44	102	1048576	20	4165
2026-01-25 01:33:20.74	312.39	40.77	-30.1	-31.6	13.5	7.74e-04	0	44	102	1048576	20	4297
2026-01-25 01:33:23.74	310.97	40.89	-29.8	-30.9	14.0	1.00e-03	0	44	102	1048576	20	4082
2026-01-25 01:33:26.76	309.54	40.99	-29.7	-31.1	14.2	1.25e-03	0	44	102	1048576	19	4224
2026-01-25 01:33:29.77	308.10	41.07	-29.1	-30.0	15.2	9.06e-04	0	44	102	1048576	18	3997
2026-01-25 01:33:32.77	306.66	41.13	-29.7	-31.1	14.3	1.50e-06	0	44	102	1048576	19	4212
2026-01-25 01:33:35.78	305.21	41.17	-29.9	-31.4	14.1	0.00e+00	0	44	102	1048576	19	4317
2026-01-25 01:33:38.79	303.76	41.19	-29.8	-30.8	14.0	2.20e-06	0	44	102	1048576	20	4064
2026-01-25 01:33:41.80	302.31	41.19	-30.6	-32.5	12.5	5.18e-05	0	44	102	1048576	21	4515
2026-01-25 01:33:44.81	300.86	41.17	-30.1	-31.7	13.5	8.30e-06	0	44	102	1048576	20	4327
2026-01-25 01:33:47.83	299.40	41.12	-30.3	-31.7	13.1	3.28e-05	0	44	102	1048576	21	4233
2026-01-25 01:33:50.84	297.96	41.06	-31.2	-33.9	11.3	6.10e-04	0	44	102	1048576	22	4933
2026-01-25 01:33:53.84	296.53	40.97	-31.6	-34.9	10.1	1.26e-02	0	44	102	1048576	23	5278
2026-01-25 01:33:56.85	295.10	40.87	-31.0	-33.2	11.6	2.05e-04	0	44	102	1048576	22	4660
2026-01-25 01:33:59.85	293.68	40.74	-31.7	-35.3	9.7	1.47e-02	0	44	102	1048576	23	5447
2026-01-25 01:34:02.87	292.27	40.60	-31.1	-33.3	11.2	2.82e-03	0	44	102	1048576	23	4634
2026-01-25 01:34:05.89	290.87	40.44	-32.1	-36.4	8.6	3.81e-02	0	44	102	1048576	24	5927
2026-01-25 01:34:08.90	289.49	40.26	-31.9	-35.7	9.0	2.66e-02	0	44	102	1048576	24	5578
2026-01-25 01:34:11.90	288.13	40.06	-31.3	-34.1	10.5	3.48e-03	0	44	102	1048576	23	4966
2026-01-25 01:34:14.92	286.78	39.84	-32.0	-36.4	8.3	5.58e-02	0	44	102	1048576	24	5971
2026-01-25 01:34:17.93	285.46	39.61	-31.0	-33.2	11.1	3.57e-03	0	44	102	1048576	23	4640
2026-01-25 01:34:20.94	284.15	39.36	-30.3	-31.9	12.7	4.52e-04	0	44	102	1048576	21	4363
2026-01-25 01:34:23.96	282.86	39.10	-30.1	-31.9	13.0	4.04e-05	0	44	102	1048576	20	4438
2026-01-25 01:34:26.97	281.59	38.82	-29.5	-31.1	14.2	4.50e-06	0	44	102	1048576	18	4365
2026-01-25 01:34:29.97	280.35	38.54	-28.7	-29.5	15.8	4.92e-04	0	44	102	1048576	17	3922
2026-01-25 01:34:32.98	279.13	38.23	-28.9	-30.0	15.6	9.23e-05	0	44	102	1048576	17	4066
2026-01-25 01:34:35.99	277.93	37.92	-28.9	-30.0	15.5	6.70e-04	0	44	102	1048576	17	4080
2026-01-25 01:34:39.01	276.75	37.59	-28.5	-29.0	16.2	1.13e-03	0	44	102	1048576	17	3804
2026-01-25 01:34:42.02	275.60	37.26	-30.4	-32.3	13.1	4.18e-04	0	44	102	1048576	20	4488
2026-01-25 01:34:45.03	274.47	36.91	-30.2	-31.8	13.5	1.60e-05	0	44	102	1048576	20	4328
2026-01-25 01:34:48.03	273.37	36.56	-30.4	-32.2	13.3	1.65e-04	0	44	102	1048576	20	4463
2026-01-25 01:34:51.04	272.29	36.20	-30.4	-31.9	13.0	6.54e-04	0	44	102	1048576	21	4275
2026-01-25 01:34:54.06	271.23	35.83	-30.3	-31.6	13.2	1.22e-03	0	44	102	1048576	21	4176
2026-01-25 01:34:57.08	270.19	35.45	-29.2	-29.8	15.0	4.65e-04	0	44	102	1048576	19	3821
2026-01-25 01:35:00.10	269.18	35.07	-30.6	-32.3	12.7	9.26e-04	0	44	102	1048576	21	4415
2026-01-25 01:35:03.12	268.19	34.68	-30.1	-31.5	13.5	1.22e-05	0	44	102	1048576	20	4249
2026-01-25 01:35:06.12	267.23	34.29	-30.6	-32.4	12.7	6.48e-05	0	44	102	1048576	21	4432
2026-01-25 01:35:09.14	266.29	33.90	-30.6	-32.3	12.7	4.11e-05	0	44	102	1048576	21	4411
2026-01-25 01:35:12.13	265.38	33.50	-30.7	-32.8	12.4	2.34e-03	0	44	102	1048576	21	4567
2026-01-25 01:35:15.15	264.48	33.10	-31.1	-33.5	11.6	2.63e-03	0	44	102	1048576	22	4714
2026-01-25 01:35:18.16	263.61	32.69	-31.1	-33.5	11.6	2.01e-03	0	44	102	1048576	22	4719
2026-01-25 01:35:21.17	262.76	32.29	-31.2	-33.6	11.4	1.66e-03	0	44	102	1048576	22	4776
2026-01-25 01:35:24.18	261.93	31.88	-30.7	-32.8	12.3	1.11e-04	0	44	102	1048576	21	4588
2026-01-25 01:35:27.20	261.12	31.47	-30.4	-31.9	13.0	5.49e-05	0	44	102	1048576	21	4266
2026-01-25 01:35:30.22	260.33	31.06	-30.3	-32.3	12.9	2.82e-05	0	44	102	1048576	20	4497
2026-01-25 01:35:33.24	259.56	30.65	-31.3	-34.0	11.1	9.31e-04	0	44	102	1048576	22	4905
2026-01-25 01:35:36.24	258.81	30.24	-32.1	-36.0	8.9	2.59e-02	0	44	102	1048576	24	5656
2026-01-25 01:35:39.25	258.08	29.83	-31.4	-34.5	10.7	2.37e-03	0	44	102	1048576	22	5129
2026-01-25 01:35:42.27	257.37	29.43	-31.0	-33.3	11.4	1.39e-03	0	44	102	1048576	22	4662
2026-01-25 01:35:45.28	256.68	29.02	-30.6	-32.6	12.1	1.94e-04	0	44	102	1048576	21	4528
2026-01-25 01:35:48.30	256.00	28.61	-30.7	-32.7	12.3	2.38e-04	0	44	102	1048576	21	4575
2026-01-25 01:35:51.31	255.34	28.21	-30.0	-31.5	13.4	3.89e-05	0	44	102	1048576	20	4249
2026-01-25 01:35:54.31	254.70	27.81	-30.2	-31.8	13.2	9.10e-06	0	44	102	1048576	20	4356
2026-01-25 01:35:57.33	254.07	27.40	-30.1	-31.8	13.2	2.10e-04	0	44	102	1048576	20	4337
2026-01-25 01:36:00.35	253.46	27.00	-30.2	-31.9	13.1	1.18e-03	0	44	102	1048576	20	4372
2026-01-25 01:36:03.36	252.86	26.61	-29.8	-31.3	13.9	2.16e-03	0	44	102	1048576	19	4278
2026-01-25 01:36:06.38	252.28	26.21	-29.6	-30.7	14.2	1.81e-03	0	44	102	1048576	19	4107
2026-01-25 01:36:09.37	251.72	25.82	-29.6	-30.9	14.1	1.14e-04	0	44	102	1048576	19	4169
2026-01-25 01:36:12.39	251.16	25.43	-29.9	-31.1	13.6	1.15e-04	0	44	102	1048576	20	4129
2026-01-25 01:36:15.39	250.63	25.05	-30.4	-32.4	12.7	6.58e-04	0	44	102	1048576	20	4571
2026-01-25 01:36:18.40	250.10	24.67	-30.8	-33.2	11.8	2.98e-03	0	44	102	1048576	21	4751
2026-01-25 01:36:21.42	249.58	24.29	-30.6	-32.6	12.2	3.46e-03	0	44	102	1048576	21	4549
2026-01-25 01:36:24.42	249.09	23.91	-30.8	-33.2	11.8	3.21e-03	0	44	102	1048576	21	4743
2026-01-25 01:36:27.43	248.60	23.54	-30.1	-31.8	13.0	3.36e-03	0	44	102	1048576	20	4377
2026-01-25 01:36:30.43	248.12	23.17	-29.9	-31.2	13.4	2.76e-03	0	44	102	1048576	20	4184
2026-01-25 01:36:33.43	247.66	22.80	-30.0	-31.5	13.2	2.21e-05	0	44	102	1048576	20	4274
2026-01-25 01:36:36.43	247.20	22.44	-30.3	-32.2	12.7	3.49e-03	0	44	102	1048576	20	4516
2026-01-25 01:36:39.45	246.76	22.07	-29.8	-31.1	13.4	2.15e-03	0	44	102	1048576	20	4151
2026-01-25 01:36:42.47	246.32	21.71	-29.7	-31.2	13.8	1.14e-03	0	44	102	1048576	19	4277
2026-01-25 01:36:45.48	245.90	21.36	-30.2	-32.2	12.7	8.28e-04	0	44	102	1048576	20	4516
2026-01-25 01:36:48.49	245.48	21.01	-31.1	-33.8	10.9	1.02e-03	0	44	102	1048576	22	4897
2026-01-25 01:36:51.51	245.08	20.66	-31.2	-34.3	10.5	3.87e-03	0	44	102	1048576	22	5099
2026-01-25 01:36:54.51	244.68	20.32	-31.0	-33.5	11.0	1.47e-03	0	44	102	1048576	22	4791
2026-01-25 01:36:57.53	244.29	19.97	-30.4	-32.2	12.3	2.73e-04	0	44	102	1048576	21	4418
2026-01-25 01:37:00.54	243.92	19.63	-30.1	-31.8	12.9	5.87e-05	0	44	102	1048576	20	4380
2026-01-25 01:37:03.56	243.55	19.30	-30.2	-32.1	12.1	1.12e-03	0	44	102	1048576	20	4495
2026-01-25 01:37:06.57	243.18	18.97	-30.4	-32.8	12.1	2.63e-04	0	44	102	1048576	20	4745
2026-01-25 01:37:09.58	242.83	18.64	-30.1	-31.8	12.8	6.71e-05	0	44	102	1048576	20	4398
2026-01-25 01:37:12.59	242.48	18.31	-29.6	-31.1	13.6	1.37e-05	0	44	102	1048576	19	4245
2026-01-25 01:37:15.59	242.15	17.99	-29.7	-31.2	13.6	2.20e-06	0	44	102	1048576	19	4283
2026-01-25 01:37:18.61	241.81	17.67	-30.2	-32.3	12.4	1.88e-03	0	44	102	1048576	20	4568
2026-01-25 01:37:21.62	241.49	17.36	-30.5	-32.5	11.9	2.14e-03	0	44	102	1048576	21	4553
2026-01-25 01:37:24.63	241.17	17.04	-30.3	-32.5	12.2	1.77e-03	0	44	102	1048576	20	4644
2026-01-25 01:37:27.63	240.86	16.73	-30.2	-32.4	12.3	1.91e-03	0	44	102	1048576	20	4594
2026-01-25 01:37:30.64	240.56	16.43	-30.2	-32.2	12.4	2.11e-04	0	44	102	1048576	20	4532
2026-01-25 01:37:33.65	240.26	16.12	-30.1	-32.0	12.5	1.72e-04	0	44	102	1048576	20	4484
2026-01-25 01:37:36.67	239.97	15.82	-30.1	-32.0	12.4	1.05e-03	0	44	102	1048576	20	4486
2026-01-25 01:37:39.67	239.68	15.52	-30.1	-31.9	12.6	7.13e-04	0	44	102	1048576	20	4448
2026-01-25 01:37:42.68	239.40	15.23	-30.3	-32.6	12.0	8.15e-04	0	44	102	1048576	20	4707
2026-01-25 01:37:45.69	239.13	14.94	-30.5	-32.8	11.5	1.09e-03	0	44	102	1048576	21	4675
2026-01-25 01:37:48.71	238.86	14.65	-30.6	-33.0	11.3	1.37e-03	0	44	102	1048576	21	4755
2026-01-25 01:37:51.73	238.59	14.36	-30.2	-32.2	12.3	2.88e-04	0	44	102	1048576	20	4551
2026-01-25 01:37:54.73	238.33	14.08	-29.9	-31.9	12.8	7.17e-05	0	44	102	1048576	19	4550
2026-01-25 01:37:57.74	238.08	13.79	-29.9	-31.6	12.6	4.08e-04	0	44	102	1048576	20	4372
2026-01-25 01:38:00.75	237.83	13.52	-30.2	-32.3	12.1	4.75e-04	0	44	102	1048576	20	4611
2026-01-25 01:38:03.76	237.59	13.24	-30.2	-32.4	11.9	4.61e-04	0	44	102	1048576	20	4651
2026-01-25 01:38:06.76	237.35	12.97	-30.0	-31.9	12.3	2.27e-04	0	44	102	1048576	20	4480
2026-01-25 01:38:09.78	237.11	12.70	-30.0	-32.2	12.5	1.05e-04	0	44	102	1048576	19	4649
2026-01-25 01:38:12.79	236.88	12.43	-30.0	-32.0	12.2	1.48e-04	0	44	102	1048576	20	4504
2026-01-25 01:38:15.81	236.65	12.16	-29.9	-31.7	12.4	1.17e-04	0	44	102	1048576	20	4424
2026-01-25 01:38:18.83	236.43	11.90	-30.1	-32.2	11.9	3.79e-04	0	44	102	1048576	20	4601
2026-01-25 01:38:21.85	236.21	11.64	-30.2	-32.6	11.7	4.65e-04	0	44	102	1048576	20	4744
2026-01-25 01:38:24.85	236.00	11.38	-30.3	-32.9	11.5	7.09e-04	0	44	102	1048576	20	4835
2026-01-25 01:38:27.87	235.79	11.12	-30.6	-33.3	10.8	1.47e-03	0	44	102	1048576	21	4934
2026-01-25 01:38:30.87	235.58	10.87	-30.3	-32.9	11.4	8.51e-04	0	44	102	1048576	20	4858
2026-01-25 01:38:33.89	235.38	10.61	-30.5	-33.1	10.9	1.85e-03	0	44	102	1048576	21	4828
2026-01-25 01:38:36.89	235.18	10.37	-30.7	-33.6	10.6	3.54e-03	0	44	102	1048576	21	5069
2026-01-25 01:38:39.90	234.98	10.12	-30.9	-34.4	9.9	6.86e-03	0	44	102	1048576	21	5380
2026-01-25 01:38:42.91	234.79	9.87	-31.1	-34.8	9.2	1.90e-02	0	44	102	1048576	22	5509
2026-01-25 01:38:45.91	234.60	9.63	-31.0	-34.5	9.4	1.50e-02	0	44	102	1048576	22	5340
2026-01-25 01:38:48.92	234.42	9.39	-30.9	-34.6	9.7	1.19e-02	0	44	102	1048576	21	5489
2026-01-25 01:38:51.93	234.23	9.15	-30.7	-33.8	10.2	6.11e-03	0	44	102	1048576	21	5160
2026-01-25 01:38:54.95	234.05	8.91	-30.4	-32.9	10.9	2.19e-03	0	44	102	1048576	21	4781
2026-01-25 01:38:57.95	233.88	8.68	-30.3	-33.2	11.0	1.45e-03	0	44	102	1048576	20	4994
2026-01-25 01:39:00.95	233.71	8.45	-30.2	-32.6	11.4	9.17e-04	0	44	102	1048576	20	4773
2026-01-25 01:39:03.97	233.53	8.21	-30.1	-32.5	11.4	7.64e-04	0	44	102	1048576	20	4748
2026-01-25 01:39:06.97	233.37	7.98	-30.3	-33.0	11.0	1.24e-03	0	44	102	1048576	20	4922
2026-01-25 01:39:09.99	233.20	7.76	-30.4	-33.6	10.6	2.82e-03	0	44	102	1048576	20	5190
2026-01-25 01:39:13.00	233.04	7.53	-30.5	-33.2	10.4	7.12e-03	0	44	102	1048576	21	4954
2026-01-25 01:39:16.00	232.88	7.31	-30.7	-34.3	9.6	1.31e-02	0	44	102	1048576	21	5399
2026-01-25 01:39:19.01	232.72	7.08	-30.7	-34.1	9.8	1.01e-02	0	44	102	1048576	21	5301

#Closed at: 2026-01-25 01:39:21
#Recorded file [1 MB]: D:/data/31010_260125_042800.dat