passes_logs/2026/01/25/R2M6_AANII_01/R2M6_AANII_01__20260125_114215_NOAA_20_JPSS-1_rec.log

#Pass ID: 20260125_114215_NOAA 20 (JPSS-1)
#Satellite: NOAA 20 (JPSS-1)
#Configuration: NOAA 20
#almurnet v.1.7.20240730
#Start time: 2026-01-25 11:42:17

#Version: 2.2.20231116
#Station: R2M6_AANII_01
#Location: 30.233357 lon 59.946436 lat
#TLE: 1 43013U 17073A   26024.42258823  .00000183  00000+0  10747-3 0  9990
#TLE: 2 43013  98.7646 325.2629 0001105  25.8644 334.2587 14.19539754424075

#Time	Az	El	Level	Level2	SNR	BER	BlckErr	Temp	State	Recorded	gain1	gain2
2026-01-25 11:42:17.51	204.99	7.11	-31.0	-36.2	5.3	1.19e+00	0	41	0	0	22	6609
2026-01-25 11:42:20.52	205.24	7.31	-31.1	-36.0	9.2	2.41e-02	0	41	102	1048576	23	6279
2026-01-25 11:42:23.53	205.49	7.51	-30.7	-34.8	10.8	3.77e-03	0	41	102	1048576	22	5713
2026-01-25 11:42:26.54	205.75	7.72	-30.5	-33.9	11.5	1.14e-03	0	42	102	1048576	22	5325
2026-01-25 11:42:29.53	206.01	7.92	-30.3	-33.4	11.9	4.31e-04	0	42	102	1048576	22	5116
2026-01-25 11:42:32.54	206.27	8.13	-30.3	-33.6	12.0	2.92e-04	0	41	102	1048576	21	5320
2026-01-25 11:42:35.55	206.54	8.34	-30.1	-33.3	12.2	2.77e-04	0	42	102	1048576	21	5188
2026-01-25 11:42:38.57	206.81	8.55	-30.0	-32.9	12.4	1.33e-04	0	42	102	1048576	21	5037
2026-01-25 11:42:41.58	207.09	8.76	-30.0	-32.9	12.5	1.25e-04	0	42	102	1048576	21	5019
2026-01-25 11:42:44.58	207.37	8.97	-30.1	-33.1	12.4	1.87e-04	0	42	102	1048576	21	5105
2026-01-25 11:42:47.59	207.65	9.19	-30.1	-33.0	12.6	1.03e-04	0	42	102	1048576	21	5056
2026-01-25 11:42:50.61	207.94	9.40	-30.1	-33.2	12.5	9.23e-05	0	42	102	1048576	21	5136
2026-01-25 11:42:53.62	208.23	9.62	-30.1	-33.2	12.5	9.15e-05	0	42	102	1048576	21	5114
2026-01-25 11:42:56.63	208.52	9.84	-30.2	-33.4	12.4	1.35e-04	0	42	102	1048576	21	5186
2026-01-25 11:42:59.64	208.82	10.05	-30.0	-32.9	12.7	6.79e-05	0	42	102	1048576	21	4995
2026-01-25 11:43:02.64	209.12	10.27	-30.1	-33.0	12.7	7.17e-05	0	42	102	1048576	21	5036
2026-01-25 11:43:05.65	209.43	10.49	-30.2	-33.3	12.5	1.36e-04	0	42	102	1048576	21	5141
2026-01-25 11:43:08.66	209.75	10.72	-30.1	-33.1	12.7	9.46e-05	0	43	102	1048576	21	5063
2026-01-25 11:43:11.68	210.06	10.94	-30.0	-32.7	13.0	3.12e-05	0	43	102	1048576	21	4911
2026-01-25 11:43:14.70	210.39	11.17	-29.7	-32.5	13.5	1.06e-05	0	42	102	1048576	20	4949
2026-01-25 11:43:17.71	210.71	11.39	-29.8	-32.5	13.5	1.60e-05	0	43	102	1048576	20	4949
2026-01-25 11:43:20.72	211.05	11.62	-29.8	-32.6	13.4	1.75e-05	0	43	102	1048576	20	4990
2026-01-25 11:43:23.73	211.38	11.85	-29.8	-32.6	13.5	7.60e-06	0	43	102	1048576	20	4980
2026-01-25 11:43:26.75	211.73	12.08	-29.9	-32.8	13.4	9.10e-06	0	43	102	1048576	20	5041
2026-01-25 11:43:29.76	212.07	12.31	-30.0	-33.0	13.3	2.13e-05	0	43	102	1048576	20	5134
2026-01-25 11:43:32.77	212.43	12.55	-30.0	-33.2	13.1	3.05e-05	0	43	102	1048576	20	5182
2026-01-25 11:43:35.77	212.78	12.78	-30.2	-33.7	12.8	4.88e-05	0	43	102	1048576	20	5389
2026-01-25 11:43:38.78	213.15	13.01	-30.0	-33.2	13.1	3.20e-05	0	43	102	1048576	20	5192
2026-01-25 11:43:41.79	213.51	13.25	-30.1	-33.3	13.1	3.58e-05	0	43	102	1048576	20	5210
2026-01-25 11:43:44.80	213.89	13.49	-30.0	-33.0	13.3	1.90e-05	0	43	102	1048576	20	5126
2026-01-25 11:43:47.81	214.27	13.73	-29.9	-32.8	13.5	1.52e-05	0	43	102	1048576	20	5024
2026-01-25 11:43:50.83	214.66	13.97	-30.0	-33.0	13.4	1.37e-05	0	43	102	1048576	20	5091
2026-01-25 11:43:53.84	215.05	14.21	-30.2	-33.6	13.0	4.11e-05	0	43	102	1048576	20	5319
2026-01-25 11:43:56.85	215.45	14.45	-30.2	-33.6	13.0	4.19e-05	0	43	102	1048576	20	5339
2026-01-25 11:43:59.86	215.86	14.69	-30.1	-33.3	13.2	2.05e-05	0	43	102	1048576	20	5198
2026-01-25 11:44:02.87	216.27	14.94	-30.1	-33.3	13.2	1.90e-05	0	43	102	1048576	20	5211
2026-01-25 11:44:05.88	216.69	15.18	-30.1	-33.2	13.3	2.05e-05	0	43	102	1048576	20	5175
2026-01-25 11:44:08.89	217.11	15.43	-30.0	-32.9	13.5	8.30e-06	0	43	102	1048576	20	5056
2026-01-25 11:44:11.90	217.54	15.68	-30.0	-33.0	13.5	1.29e-05	0	43	102	1048576	20	5102
2026-01-25 11:44:14.91	217.98	15.93	-30.0	-33.0	13.5	4.50e-06	0	43	102	1048576	20	5065
2026-01-25 11:44:17.92	218.43	16.18	-29.9	-32.7	13.7	6.80e-06	0	43	102	1048576	20	4969
2026-01-25 11:44:20.95	218.89	16.43	-29.9	-32.7	13.8	6.10e-06	0	43	102	1048576	20	4964
2026-01-25 11:44:23.95	219.35	16.68	-29.9	-32.7	13.8	5.30e-06	0	43	102	1048576	20	4950
2026-01-25 11:44:26.96	219.81	16.93	-29.8	-32.5	13.9	2.20e-06	0	43	102	1048576	20	4896
2026-01-25 11:44:29.97	220.29	17.19	-29.9	-32.6	13.8	2.20e-06	0	43	102	1048576	20	4933
2026-01-25 11:44:32.98	220.77	17.44	-30.0	-32.8	13.7	3.80e-06	0	43	102	1048576	20	5006
2026-01-25 11:44:36.00	221.27	17.70	-29.9	-32.5	13.9	6.10e-06	0	43	102	1048576	20	4897
2026-01-25 11:44:39.02	221.77	17.95	-29.9	-32.6	13.9	4.50e-06	0	43	102	1048576	20	4915
2026-01-25 11:44:42.02	222.28	18.21	-29.3	-31.5	15.0	0.00e+00	0	43	102	1048576	19	4657
2026-01-25 11:44:45.04	222.79	18.46	-29.3	-31.5	15.0	0.00e+00	0	43	102	1048576	19	4659
2026-01-25 11:44:48.06	223.32	18.72	-29.3	-31.5	15.0	0.00e+00	0	43	102	1048576	19	4658
2026-01-25 11:44:51.07	223.86	18.98	-29.3	-31.6	15.0	7.00e-07	0	44	102	1048576	19	4670
2026-01-25 11:44:54.08	224.40	19.23	-29.2	-31.4	15.1	0.00e+00	0	43	102	1048576	19	4614
2026-01-25 11:44:57.08	224.95	19.49	-29.2	-31.4	15.1	0.00e+00	0	43	102	1048576	19	4596
2026-01-25 11:45:00.09	225.51	19.75	-29.1	-31.1	15.3	0.00e+00	0	43	102	1048576	19	4511
2026-01-25 11:45:03.10	226.08	20.00	-29.3	-31.6	15.0	0.00e+00	0	44	102	1048576	19	4673
2026-01-25 11:45:06.11	226.66	20.26	-29.0	-30.8	15.5	0.00e+00	0	43	102	1048576	19	4416
2026-01-25 11:45:09.13	227.25	20.52	-28.9	-30.5	15.7	0.00e+00	0	44	102	1048576	19	4339
2026-01-25 11:45:12.13	227.85	20.77	-28.7	-30.6	16.0	0.00e+00	0	43	102	1048576	18	4454
2026-01-25 11:45:15.15	228.46	21.03	-28.7	-30.5	16.0	0.00e+00	0	44	102	1048576	18	4423
2026-01-25 11:45:18.16	229.08	21.29	-28.5	-30.1	16.2	0.00e+00	0	43	102	1048576	18	4327
2026-01-25 11:45:21.18	229.71	21.54	-28.6	-30.2	16.2	0.00e+00	0	43	102	1048576	18	4347
2026-01-25 11:45:24.19	230.34	21.79	-28.5	-30.1	16.3	0.00e+00	0	43	102	1048576	18	4322
2026-01-25 11:45:27.21	230.99	22.05	-28.8	-30.7	15.9	0.00e+00	0	44	102	1048576	18	4503
2026-01-25 11:45:30.22	231.65	22.30	-29.2	-31.7	15.4	0.00e+00	0	43	102	1048576	18	4792
2026-01-25 11:45:33.23	232.32	22.55	-29.2	-31.7	15.3	0.00e+00	0	43	102	1048576	18	4821
2026-01-25 11:45:36.24	233.00	22.79	-29.2	-31.7	15.4	0.00e+00	0	43	102	1048576	18	4807
2026-01-25 11:45:39.25	233.69	23.04	-29.3	-32.0	15.2	0.00e+00	0	44	102	1048576	18	4881
2026-01-25 11:45:42.27	234.40	23.28	-29.5	-31.9	15.0	0.00e+00	0	44	102	1048576	19	4764
2026-01-25 11:45:45.29	235.11	23.53	-29.5	-31.9	15.0	7.00e-07	0	43	102	1048576	19	4739
2026-01-25 11:45:48.29	235.83	23.77	-29.7	-32.5	14.6	0.00e+00	0	43	102	1048576	19	4962
2026-01-25 11:45:51.29	236.56	24.00	-29.6	-32.2	14.8	0.00e+00	0	44	102	1048576	19	4862
2026-01-25 11:45:54.30	237.31	24.24	-29.8	-32.5	14.6	0.00e+00	0	43	102	1048576	19	4966
2026-01-25 11:45:57.31	238.06	24.47	-29.8	-32.7	14.5	0.00e+00	0	44	102	1048576	19	5033
2026-01-25 11:46:00.32	238.83	24.70	-29.7	-32.4	14.7	0.00e+00	0	44	102	1048576	19	4918
2026-01-25 11:46:03.33	239.60	24.92	-29.7	-32.5	14.7	0.00e+00	0	43	102	1048576	19	4951
2026-01-25 11:46:06.35	240.39	25.14	-29.9	-32.5	14.3	1.50e-06	0	44	102	1048576	20	4855
2026-01-25 11:46:09.37	241.19	25.36	-30.1	-32.9	14.0	3.80e-06	0	43	102	1048576	20	4992
2026-01-25 11:46:12.37	242.00	25.57	-30.4	-33.8	13.5	1.14e-05	0	44	102	1048576	20	5308
2026-01-25 11:46:15.39	242.82	25.78	-30.7	-34.0	13.0	3.50e-05	0	44	102	1048576	21	5287
2026-01-25 11:46:18.40	243.65	25.98	-30.8	-34.3	12.8	4.57e-05	0	44	102	1048576	21	5410
2026-01-25 11:46:21.41	244.49	26.18	-30.9	-34.7	12.5	1.01e-04	0	43	102	1048576	21	5578
2026-01-25 11:46:24.43	245.35	26.38	-31.1	-34.8	12.2	2.04e-04	0	44	102	1048576	22	5513
2026-01-25 11:46:27.45	246.21	26.57	-31.2	-35.0	12.1	2.86e-04	0	43	102	1048576	22	5602
2026-01-25 11:46:30.47	247.08	26.75	-31.3	-35.4	11.8	4.52e-04	0	44	102	1048576	22	5772
2026-01-25 11:46:33.47	247.96	26.93	-31.1	-34.6	12.3	2.12e-04	0	44	102	1048576	22	5408
2026-01-25 11:46:36.48	248.85	27.10	-31.2	-34.9	12.1	2.37e-04	0	44	102	1048576	22	5550
2026-01-25 11:46:39.49	249.75	27.26	-31.0	-34.4	12.5	1.30e-04	0	44	102	1048576	22	5339
2026-01-25 11:46:42.50	250.66	27.42	-31.0	-34.5	12.4	1.01e-04	0	44	102	1048576	22	5388
2026-01-25 11:46:45.51	251.57	27.57	-31.1	-34.7	12.3	2.04e-04	0	44	102	1048576	22	5455
2026-01-25 11:46:48.53	252.50	27.72	-31.1	-34.8	12.2	2.35e-04	0	44	102	1048576	22	5494
2026-01-25 11:46:51.54	253.43	27.86	-31.1	-34.7	12.3	1.92e-04	0	43	102	1048576	22	5449
2026-01-25 11:46:54.54	254.37	27.98	-31.6	-35.7	11.2	1.17e-03	0	44	102	1048576	23	5775
2026-01-25 11:46:57.56	255.32	28.11	-31.9	-36.8	10.5	3.48e-03	0	44	102	1048576	23	6301
2026-01-25 11:47:00.57	256.28	28.22	-31.6	-35.7	11.3	1.29e-03	0	44	102	1048576	23	5761
2026-01-25 11:47:03.59	257.24	28.33	-31.4	-35.1	11.7	8.68e-04	0	44	102	1048576	23	5500
2026-01-25 11:47:06.60	258.21	28.43	-31.2	-34.6	12.0	3.55e-04	0	44	102	1048576	23	5308
2026-01-25 11:47:09.60	259.17	28.51	-31.2	-34.6	12.0	3.44e-04	0	44	102	1048576	23	5284
2026-01-25 11:47:12.62	260.15	28.60	-31.3	-34.9	11.7	4.67e-04	0	43	102	1048576	23	5441
2026-01-25 11:47:15.63	261.14	28.67	-31.6	-35.8	11.2	1.39e-03	0	44	102	1048576	23	5824
2026-01-25 11:47:18.65	262.13	28.73	-31.6	-35.6	11.2	1.72e-03	0	44	102	1048576	23	5742
2026-01-25 11:47:21.66	263.11	28.79	-31.3	-34.9	11.8	5.86e-04	0	44	102	1048576	23	5407
2026-01-25 11:47:24.67	264.11	28.83	-31.3	-34.8	11.9	5.44e-04	0	44	102	1048576	23	5378
2026-01-25 11:47:27.68	265.10	28.87	-31.1	-34.3	12.2	2.04e-04	0	43	102	1048576	23	5173
2026-01-25 11:47:30.69	266.10	28.89	-31.3	-34.9	11.8	4.29e-04	0	44	102	1048576	23	5439
2026-01-25 11:47:33.71	267.10	28.91	-30.8	-33.3	12.9	9.00e-05	0	43	102	1048576	23	4819
2026-01-25 11:47:36.73	268.10	28.92	-30.6	-33.3	13.2	1.90e-05	0	44	102	1048576	22	4916
2026-01-25 11:47:39.74	269.10	28.92	-31.3	-35.4	11.8	4.30e-04	0	44	102	1048576	22	5732
2026-01-25 11:47:42.77	270.10	28.91	-31.3	-35.2	11.9	5.03e-04	0	44	102	1048576	22	5659
2026-01-25 11:47:45.77	271.10	28.89	-31.2	-35.1	12.0	2.60e-04	0	44	102	1048576	22	5614
2026-01-25 11:47:48.78	272.09	28.86	-31.2	-34.9	12.1	2.42e-04	0	44	102	1048576	22	5528
2026-01-25 11:47:51.79	273.08	28.82	-31.4	-35.5	11.7	4.62e-04	0	44	102	1048576	22	5786
2026-01-25 11:47:54.80	274.08	28.78	-30.8	-33.9	12.8	1.03e-04	0	43	102	1048576	22	5147
2026-01-25 11:47:57.82	275.07	28.72	-30.6	-33.2	13.3	1.52e-05	0	44	102	1048576	22	4860
2026-01-25 11:48:00.82	276.05	28.66	-31.0	-34.4	12.5	1.27e-04	0	44	102	1048576	22	5346
2026-01-25 11:48:03.83	277.03	28.58	-31.3	-35.3	11.9	4.70e-04	0	44	102	1048576	22	5697
2026-01-25 11:48:06.84	278.00	28.50	-30.9	-34.0	12.8	9.38e-05	0	44	102	1048576	22	5169
2026-01-25 11:48:09.86	278.97	28.41	-31.1	-34.8	12.2	9.84e-05	0	44	102	1048576	22	5511
2026-01-25 11:48:12.88	279.94	28.31	-32.1	-36.8	10.0	4.61e-03	0	44	102	1048576	24	6233
2026-01-25 11:48:15.89	280.90	28.20	-31.7	-35.6	11.0	2.82e-03	0	43	102	1048576	24	5630
2026-01-25 11:48:18.91	281.85	28.09	-31.6	-35.2	11.2	1.78e-03	0	44	102	1048576	24	5468
2026-01-25 11:48:21.93	282.80	27.96	-31.4	-34.7	11.6	1.12e-03	0	44	102	1048576	24	5237
2026-01-25 11:48:24.94	283.73	27.83	-31.2	-34.5	12.1	3.50e-04	0	44	102	1048576	23	5271
2026-01-25 11:48:27.95	284.66	27.69	-31.5	-35.3	11.5	6.96e-04	0	44	102	1048576	23	5613
2026-01-25 11:48:30.97	285.59	27.55	-31.1	-34.0	12.4	1.52e-04	0	44	102	1048576	23	5072
2026-01-25 11:48:33.97	286.50	27.40	-30.5	-33.0	13.5	1.98e-05	0	44	102	1048576	22	4781
2026-01-25 11:48:36.99	287.40	27.24	-30.1	-32.4	14.1	3.00e-06	0	44	102	1048576	21	4704
2026-01-25 11:48:40.01	288.30	27.07	-30.1	-32.4	14.1	7.00e-07	0	44	102	1048576	21	4691
2026-01-25 11:48:43.02	289.18	26.90	-30.1	-32.4	14.1	3.00e-06	0	44	102	1048576	21	4696
2026-01-25 11:48:46.03	290.06	26.72	-30.1	-32.6	14.0	3.80e-06	0	44	102	1048576	21	4762
2026-01-25 11:48:49.04	290.93	26.54	-30.2	-32.7	13.9	6.10e-06	0	44	102	1048576	21	4810
2026-01-25 11:48:52.04	291.78	26.35	-30.3	-33.1	13.6	9.10e-06	0	44	102	1048576	21	4944
2026-01-25 11:48:55.05	292.62	26.16	-30.2	-32.7	13.9	2.20e-06	0	44	102	1048576	21	4811
2026-01-25 11:48:58.08	293.47	25.96	-30.1	-32.5	14.1	1.50e-06	0	44	102	1048576	21	4743
2026-01-25 11:49:01.08	294.29	25.75	-30.2	-32.8	13.8	3.80e-06	0	44	102	1048576	21	4845
2026-01-25 11:49:04.10	295.10	25.54	-30.6	-33.8	13.2	1.67e-05	0	44	102	1048576	21	5202
2026-01-25 11:49:07.11	295.91	25.33	-30.4	-33.3	13.5	1.37e-05	0	44	102	1048576	21	5016
2026-01-25 11:49:10.12	296.70	25.12	-30.0	-32.3	14.1	7.00e-07	0	44	102	1048576	21	4653
2026-01-25 11:49:13.14	297.49	24.90	-30.3	-32.9	13.8	2.20e-06	0	44	102	1048576	21	4874
2026-01-25 11:49:16.15	298.26	24.67	-30.4	-33.1	13.6	6.10e-06	0	44	102	1048576	21	4943
2026-01-25 11:49:19.16	299.02	24.44	-30.4	-33.3	13.5	9.10e-06	0	44	102	1048576	21	5025
2026-01-25 11:49:22.18	299.77	24.21	-30.3	-33.0	13.7	2.20e-06	0	44	102	1048576	21	4902
2026-01-25 11:49:25.18	300.51	23.98	-30.0	-32.2	14.2	3.00e-06	0	44	102	1048576	21	4625
2026-01-25 11:49:28.18	301.23	23.75	-29.9	-32.3	14.4	0.00e+00	0	44	102	1048576	20	4780
2026-01-25 11:49:31.20	301.95	23.51	-29.9	-32.5	14.3	7.00e-07	0	44	102	1048576	20	4837
2026-01-25 11:49:34.22	302.66	23.27	-30.3	-33.4	13.7	5.30e-06	0	44	102	1048576	20	5178
2026-01-25 11:49:37.23	303.36	23.02	-30.0	-32.7	14.1	2.20e-06	0	44	102	1048576	20	4909
2026-01-25 11:49:40.24	304.04	22.78	-29.8	-32.1	14.5	7.00e-07	0	44	102	1048576	20	4693
2026-01-25 11:49:43.24	304.72	22.53	-30.1	-32.9	14.0	0.00e+00	0	44	102	1048576	20	4995
2026-01-25 11:49:46.25	305.38	22.29	-29.9	-32.5	14.2	1.50e-06	0	44	102	1048576	20	4862
2026-01-25 11:49:49.27	306.04	22.04	-30.3	-33.6	13.6	7.60e-06	0	44	102	1048576	20	5230
2026-01-25 11:49:52.29	306.69	21.79	-30.9	-34.8	12.4	1.30e-04	0	44	102	1048576	21	5632
2026-01-25 11:49:55.31	307.32	21.53	-30.6	-33.9	12.9	6.25e-05	0	44	102	1048576	21	5271
2026-01-25 11:49:58.31	307.94	21.28	-30.8	-34.4	12.7	5.03e-05	0	44	102	1048576	21	5448
2026-01-25 11:50:01.31	308.56	21.03	-31.1	-34.8	12.1	2.84e-04	0	44	102	1048576	22	5509
2026-01-25 11:50:04.33	309.16	20.78	-30.5	-33.0	13.3	2.74e-05	0	44	102	1048576	22	4805
2026-01-25 11:50:07.33	309.75	20.52	-30.7	-33.8	12.7	4.50e-05	0	44	102	1048576	22	5107
2026-01-25 11:50:10.34	310.34	20.27	-30.8	-34.0	12.5	1.59e-04	0	44	102	1048576	22	5213
2026-01-25 11:50:13.34	310.91	20.01	-29.9	-32.0	14.2	0.00e+00	0	44	102	1048576	21	4586
2026-01-25 11:50:16.36	311.48	19.76	-30.2	-32.9	13.6	3.80e-06	0	44	102	1048576	21	4905
2026-01-25 11:50:19.37	312.04	19.50	-30.8	-34.6	12.4	1.44e-04	0	44	102	1048576	21	5570
2026-01-25 11:50:22.38	312.59	19.25	-30.2	-32.7	13.7	3.00e-06	0	44	102	1048576	21	4820
2026-01-25 11:50:25.41	313.13	18.99	-30.2	-32.8	13.6	3.80e-06	0	44	102	1048576	21	4868
2026-01-25 11:50:28.43	313.66	18.74	-30.8	-34.6	12.4	9.30e-05	0	44	102	1048576	21	5548
2026-01-25 11:50:31.44	314.19	18.48	-30.7	-34.3	12.6	1.07e-04	0	44	102	1048576	21	5443
2026-01-25 11:50:34.46	314.70	18.23	-30.9	-34.8	12.2	1.87e-04	0	44	102	1048576	21	5648
2026-01-25 11:50:37.47	315.21	17.98	-31.0	-34.8	11.9	2.69e-04	0	44	102	1048576	22	5522
2026-01-25 11:50:40.49	315.71	17.72	-31.2	-35.2	11.6	5.23e-04	0	44	102	1048576	22	5723
2026-01-25 11:50:43.49	316.19	17.47	-30.5	-33.3	12.9	8.46e-05	0	44	102	1048576	22	4950
2026-01-25 11:50:46.50	316.67	17.22	-30.3	-33.2	13.3	1.06e-05	0	44	102	1048576	21	5015
2026-01-25 11:50:49.52	317.15	16.97	-30.6	-34.0	12.8	6.71e-05	0	44	102	1048576	21	5309
2026-01-25 11:50:52.53	317.62	16.72	-30.2	-32.8	13.5	6.10e-06	0	44	102	1048576	21	4868
2026-01-25 11:50:55.54	318.07	16.47	-30.1	-32.5	13.7	1.14e-05	0	44	102	1048576	21	4771
2026-01-25 11:50:58.55	318.53	16.22	-30.0	-32.4	13.8	8.30e-06	0	44	102	1048576	21	4725
2026-01-25 11:51:01.55	318.97	15.97	-30.2	-32.8	13.5	5.30e-06	0	44	102	1048576	21	4859
2026-01-25 11:51:04.55	319.40	15.73	-30.1	-32.5	13.7	5.30e-06	0	44	102	1048576	21	4768
2026-01-25 11:51:07.56	319.83	15.48	-30.1	-32.6	13.6	2.20e-06	0	44	102	1048576	21	4789
2026-01-25 11:51:10.58	320.26	15.24	-30.2	-33.0	13.3	1.37e-05	0	44	102	1048576	21	4944
2026-01-25 11:51:13.60	320.68	14.99	-30.0	-32.3	13.8	2.20e-06	0	44	102	1048576	21	4711
2026-01-25 11:51:16.61	321.09	14.75	-30.2	-32.8	13.5	8.30e-06	0	44	102	1048576	21	4872
2026-01-25 11:51:19.62	321.49	14.51	-30.2	-33.0	13.3	1.98e-05	0	44	102	1048576	21	4947
2026-01-25 11:51:22.62	321.89	14.27	-30.3	-33.2	13.1	1.67e-05	0	44	102	1048576	21	5036
2026-01-25 11:51:25.63	322.28	14.03	-30.3	-33.1	13.2	2.44e-05	0	44	102	1048576	21	4999
2026-01-25 11:51:28.64	322.66	13.79	-30.2	-32.9	13.3	2.74e-05	0	44	102	1048576	21	4937
2026-01-25 11:51:31.65	323.04	13.56	-30.3	-33.2	13.1	3.58e-05	0	44	102	1048576	21	5043
2026-01-25 11:51:34.67	323.42	13.32	-30.2	-33.1	13.2	2.51e-05	0	44	102	1048576	21	4977
2026-01-25 11:51:37.67	323.79	13.09	-30.2	-33.1	13.1	1.22e-05	0	44	102	1048576	21	4995
2026-01-25 11:51:40.68	324.15	12.85	-30.4	-33.6	12.8	4.11e-05	0	44	102	1048576	21	5180
2026-01-25 11:51:43.68	324.50	12.62	-30.7	-34.4	12.2	1.96e-04	0	44	102	1048576	21	5505
2026-01-25 11:51:46.70	324.86	12.39	-30.9	-35.2	11.6	5.09e-04	0	44	102	1048576	21	5870
2026-01-25 11:51:49.70	325.20	12.16	-31.1	-35.2	11.3	1.18e-03	0	44	102	1048576	22	5780
2026-01-25 11:51:52.71	325.54	11.94	-31.2	-35.5	11.1	2.07e-03	0	44	102	1048576	22	5910
2026-01-25 11:51:55.73	325.88	11.71	-31.1	-35.3	11.2	1.64e-03	0	44	102	1048576	22	5811
2026-01-25 11:51:58.74	326.21	11.48	-31.0	-35.0	11.4	9.67e-04	0	44	102	1048576	22	5690
2026-01-25 11:52:01.76	326.54	11.26	-31.1	-35.3	11.2	1.15e-03	0	44	102	1048576	22	5817
2026-01-25 11:52:04.77	326.86	11.03	-31.2	-35.6	10.9	1.76e-03	0	44	102	1048576	22	5978
2026-01-25 11:52:07.78	327.18	10.81	-31.0	-35.0	11.4	9.55e-04	0	44	102	1048576	22	5671
2026-01-25 11:52:10.79	327.49	10.59	-31.0	-34.8	11.4	9.94e-04	0	44	102	1048576	22	5609
2026-01-25 11:52:13.80	327.80	10.37	-30.9	-34.5	11.7	8.21e-04	0	44	102	1048576	22	5473
2026-01-25 11:52:16.81	328.11	10.16	-30.9	-34.5	11.6	7.94e-04	0	44	102	1048576	22	5484
2026-01-25 11:52:19.83	328.41	9.94	-31.0	-35.0	11.2	1.19e-03	0	44	102	1048576	22	5724
2026-01-25 11:52:22.85	328.70	9.72	-31.0	-35.1	11.1	1.57e-03	0	44	102	1048576	22	5773
2026-01-25 11:52:25.86	328.99	9.51	-31.0	-35.2	11.0	1.75e-03	0	44	102	1048576	22	5824
2026-01-25 11:52:28.87	329.28	9.30	-31.0	-35.1	11.1	1.48e-03	0	44	102	1048576	22	5767
2026-01-25 11:52:31.86	329.56	9.08	-30.7	-34.2	11.7	5.83e-04	0	44	102	1048576	22	5366
2026-01-25 11:52:34.88	329.84	8.87	-30.7	-34.1	11.8	8.78e-04	0	44	102	1048576	22	5340
2026-01-25 11:52:37.90	330.12	8.66	-30.6	-33.9	11.8	4.49e-04	0	44	102	1048576	22	5284
2026-01-25 11:52:40.91	330.39	8.46	-30.7	-34.2	11.6	7.21e-04	0	44	102	1048576	22	5381
2026-01-25 11:52:43.92	330.66	8.25	-30.6	-34.1	11.6	8.46e-04	0	44	102	1048576	22	5355
2026-01-25 11:52:46.93	330.92	8.04	-30.8	-34.5	11.3	1.03e-03	0	44	102	1048576	22	5533
2026-01-25 11:52:49.95	331.19	7.84	-30.9	-35.0	10.9	1.38e-03	0	44	102	1048576	22	5762
2026-01-25 11:52:52.96	331.44	7.63	-31.0	-35.1	10.8	2.14e-03	0	44	102	1048576	22	5820
2026-01-25 11:52:55.98	331.70	7.43	-30.9	-35.1	10.8	3.27e-03	0	44	102	1048576	22	5826
2026-01-25 11:52:58.99	331.95	7.23	-30.9	-35.1	10.7	3.47e-03	0	44	102	1048576	22	5824
2026-01-25 11:53:01.99	332.20	7.03	-33.4	-47.5	3.8	1.46e+00	0	44	104	1048576	26	18359

#Closed at: 2026-01-25 11:53:04
#Recorded file [1 MB]: D:/data/31010_260125_144219.dat