passes_logs/2026/01/25/R2M6_AANII_01/R2M6_AANII_01__20260125_080243_SUOMI_NPP_rec.log

#Pass ID: 20260125_080243_SUOMI NPP
#Satellite: SUOMI NPP
#Configuration: NPP
#almurnet v.1.7.20240730
#Start time: 2026-01-25 08:02:44

#Version: 2.2.20231116
#Station: R2M6_AANII_01
#Location: 30.233357 lon 59.946436 lat
#TLE: 1 37849U 11061A   26024.54906732  .00000185  00000+0  10878-3 0  9990
#TLE: 2 37849  98.7821 326.5159 0002200  47.3746 312.7615 14.19529340738061

#Time	Az	El	Level	Level2	SNR	BER	BlckErr	Temp	State	Recorded	gain1	gain2
2026-01-25 08:02:44.05	86.94	7.06	-32.6	-42.0	3.8	1.49e+00	0	41	0	0	26	10697
2026-01-25 08:02:47.07	86.61	7.23	-32.2	-38.9	4.3	1.39e+00	0	41	104	0	25	7829
2026-01-25 08:02:50.08	86.27	7.41	-32.3	-39.5	4.2	7.70e-01	0	41	104	0	25	8250
2026-01-25 08:02:53.09	85.94	7.58	-31.7	-36.1	7.4	1.64e-01	0	41	102	1048576	24	5981
2026-01-25 08:02:56.11	85.59	7.75	-31.3	-34.9	8.8	3.09e-02	0	41	102	1048576	23	5473
2026-01-25 08:02:59.12	85.25	7.93	-31.5	-35.7	8.2	6.63e-02	0	41	102	1048576	23	5851
2026-01-25 08:03:02.12	84.90	8.10	-31.2	-34.7	9.0	2.61e-02	0	42	102	1048576	23	5350
2026-01-25 08:03:05.13	84.54	8.28	-31.2	-34.4	9.2	2.25e-02	0	41	102	1048576	23	5243
2026-01-25 08:03:08.14	84.18	8.45	-30.9	-33.4	10.1	7.72e-03	0	42	102	1048576	23	4784
2026-01-25 08:03:11.15	83.82	8.63	-30.8	-32.9	10.5	4.80e-03	0	42	102	1048576	23	4598
2026-01-25 08:03:14.17	83.45	8.80	-30.7	-33.2	10.8	3.28e-03	0	42	102	1048576	22	4760
2026-01-25 08:03:17.18	83.07	8.98	-30.6	-32.8	11.0	1.87e-03	0	42	102	1048576	22	4621
2026-01-25 08:03:20.20	82.70	9.15	-30.7	-33.0	10.8	3.00e-03	0	42	102	1048576	22	4713
2026-01-25 08:03:23.21	82.31	9.33	-30.7	-33.0	10.9	2.23e-03	0	42	102	1048576	22	4680
2026-01-25 08:03:26.24	81.92	9.50	-31.0	-33.9	10.2	4.76e-03	0	42	102	1048576	22	5051
2026-01-25 08:03:29.26	81.53	9.68	-31.1	-34.3	9.9	8.48e-03	0	42	102	1048576	22	5231
2026-01-25 08:03:32.27	81.13	9.85	-31.0	-34.0	10.2	6.71e-03	0	42	102	1048576	22	5077
2026-01-25 08:03:35.28	80.73	10.03	-31.0	-34.0	10.3	5.32e-03	0	42	102	1048576	22	5066
2026-01-25 08:03:38.28	80.33	10.20	-30.9	-33.8	10.4	3.77e-03	0	42	102	1048576	22	4988
2026-01-25 08:03:41.28	79.92	10.38	-30.5	-32.4	11.5	1.48e-03	0	42	102	1048576	22	4456
2026-01-25 08:03:44.30	79.50	10.55	-30.7	-33.0	11.1	1.60e-03	0	42	102	1048576	22	4660
2026-01-25 08:03:47.30	79.08	10.72	-30.8	-33.2	10.9	1.91e-03	0	42	102	1048576	22	4746
2026-01-25 08:03:50.31	78.65	10.90	-30.8	-33.1	11.0	2.12e-03	0	43	102	1048576	22	4707
2026-01-25 08:03:53.31	78.22	11.07	-31.0	-33.6	10.7	2.67e-03	0	43	102	1048576	22	4893
2026-01-25 08:03:56.33	77.78	11.24	-31.1	-34.0	10.4	3.88e-03	0	43	102	1048576	22	5056
2026-01-25 08:03:59.34	77.34	11.42	-31.2	-34.4	10.1	8.17e-03	0	42	102	1048576	22	5209
2026-01-25 08:04:02.35	76.90	11.59	-31.3	-34.9	9.7	9.39e-03	0	43	102	1048576	22	5440
2026-01-25 08:04:05.36	76.44	11.76	-31.3	-34.7	10.0	9.83e-03	0	43	102	1048576	22	5342
2026-01-25 08:04:08.37	75.98	11.93	-31.1	-34.2	10.4	5.05e-03	0	42	102	1048576	22	5096
2026-01-25 08:04:11.38	75.52	12.10	-30.9	-33.4	11.0	1.92e-03	0	43	102	1048576	22	4782
2026-01-25 08:04:14.40	75.05	12.27	-30.9	-33.5	10.8	1.80e-03	0	43	102	1048576	22	4838
2026-01-25 08:04:17.41	74.58	12.44	-30.6	-32.8	11.3	1.11e-03	0	43	102	1048576	22	4616
2026-01-25 08:04:20.42	74.10	12.61	-30.5	-32.3	11.6	8.09e-04	0	43	102	1048576	22	4459
2026-01-25 08:04:23.43	73.61	12.78	-30.5	-32.5	11.5	1.17e-03	0	43	102	1048576	22	4510
2026-01-25 08:04:26.45	73.12	12.94	-30.0	-31.4	12.5	1.46e-04	0	43	102	1048576	21	4242
2026-01-25 08:04:29.47	72.62	13.11	-30.0	-31.6	12.4	1.44e-04	0	43	102	1048576	21	4305
2026-01-25 08:04:32.47	72.12	13.27	-29.8	-31.0	12.8	7.55e-05	0	43	102	1048576	21	4112
2026-01-25 08:04:35.47	71.61	13.44	-29.8	-31.5	12.7	7.85e-05	0	43	102	1048576	20	4367
2026-01-25 08:04:38.49	71.10	13.60	-29.8	-31.4	12.9	5.34e-05	0	43	102	1048576	20	4327
2026-01-25 08:04:41.50	70.58	13.76	-29.9	-31.6	12.8	8.39e-05	0	43	102	1048576	20	4366
2026-01-25 08:04:44.52	70.05	13.92	-30.0	-31.9	12.6	7.47e-05	0	43	102	1048576	20	4474
2026-01-25 08:04:47.52	69.52	14.08	-30.1	-32.3	12.3	2.20e-04	0	43	102	1048576	20	4614
2026-01-25 08:04:50.53	68.99	14.23	-30.0	-32.2	12.3	1.85e-04	0	43	102	1048576	20	4605
2026-01-25 08:04:53.54	68.44	14.39	-30.1	-32.4	12.2	1.91e-04	0	43	102	1048576	20	4669
2026-01-25 08:04:56.56	67.89	14.54	-30.0	-32.1	12.4	2.01e-04	0	43	102	1048576	20	4573
2026-01-25 08:04:59.57	67.34	14.69	-29.5	-30.6	13.4	1.60e-05	0	43	102	1048576	20	4079
2026-01-25 08:05:02.59	66.78	14.84	-29.6	-30.8	13.3	1.60e-05	0	43	102	1048576	20	4122
2026-01-25 08:05:05.61	66.21	14.99	-29.7	-30.9	13.3	2.13e-05	0	43	102	1048576	20	4138
2026-01-25 08:05:08.63	65.64	15.14	-29.6	-30.8	13.3	2.36e-05	0	43	102	1048576	20	4129
2026-01-25 08:05:11.63	65.06	15.28	-29.7	-31.0	13.2	2.13e-05	0	43	102	1048576	20	4182
2026-01-25 08:05:14.64	64.48	15.43	-29.9	-31.4	13.0	2.74e-05	0	43	102	1048576	20	4304
2026-01-25 08:05:17.65	63.89	15.57	-29.3	-29.9	14.0	3.80e-06	0	43	102	1048576	20	3843
2026-01-25 08:05:20.66	63.30	15.70	-29.5	-30.8	13.8	2.20e-06	0	43	102	1048576	19	4187
2026-01-25 08:05:23.68	62.70	15.84	-29.6	-31.1	13.6	3.00e-06	0	43	102	1048576	19	4290
2026-01-25 08:05:26.68	62.10	15.97	-29.5	-30.9	13.8	4.50e-06	0	43	102	1048576	19	4230
2026-01-25 08:05:29.70	61.49	16.10	-29.5	-30.9	13.9	2.20e-06	0	43	102	1048576	19	4205
2026-01-25 08:05:32.71	60.87	16.23	-29.5	-30.9	13.8	1.50e-06	0	43	102	1048576	19	4216
2026-01-25 08:05:35.72	60.25	16.35	-29.7	-31.3	13.6	6.80e-06	0	43	102	1048576	19	4353
2026-01-25 08:05:38.73	59.63	16.48	-29.7	-31.3	13.6	1.06e-05	0	43	102	1048576	19	4329
2026-01-25 08:05:41.75	59.00	16.60	-29.4	-30.5	14.1	5.30e-06	0	43	102	1048576	19	4082
2026-01-25 08:05:44.76	58.36	16.71	-29.3	-30.3	14.2	3.00e-06	0	43	102	1048576	19	4031
2026-01-25 08:05:47.78	57.72	16.83	-29.0	-29.6	14.7	0.00e+00	0	43	102	1048576	19	3830
2026-01-25 08:05:50.79	57.07	16.94	-28.8	-29.0	15.0	0.00e+00	0	43	102	1048576	19	3687
2026-01-25 08:05:53.81	56.42	17.04	-29.1	-29.7	14.7	2.20e-06	0	43	102	1048576	19	3842
2026-01-25 08:05:56.82	55.77	17.15	-29.5	-30.8	13.9	3.00e-06	0	43	102	1048576	19	4167
2026-01-25 08:05:59.82	55.11	17.25	-29.6	-31.0	13.9	2.20e-06	0	44	102	1048576	19	4235
2026-01-25 08:06:02.84	54.45	17.34	-29.6	-30.9	13.9	5.30e-06	0	43	102	1048576	19	4216
2026-01-25 08:06:05.86	53.78	17.43	-29.4	-30.5	14.1	7.00e-07	0	43	102	1048576	19	4087
2026-01-25 08:06:08.88	53.11	17.52	-29.6	-31.1	13.8	3.00e-06	0	43	102	1048576	19	4277
2026-01-25 08:06:11.89	52.43	17.61	-29.7	-31.4	13.6	2.20e-06	0	43	102	1048576	19	4348
2026-01-25 08:06:14.90	51.75	17.69	-29.7	-31.2	13.7	9.10e-06	0	43	102	1048576	19	4311
2026-01-25 08:06:17.91	51.07	17.77	-29.6	-31.0	13.9	3.80e-06	0	43	102	1048576	19	4225
2026-01-25 08:06:20.93	50.38	17.84	-29.4	-30.5	14.2	3.00e-06	0	43	102	1048576	19	4089
2026-01-25 08:06:23.94	49.69	17.91	-29.7	-31.3	13.7	1.83e-05	0	43	102	1048576	19	4338
2026-01-25 08:06:26.96	49.00	17.98	-29.6	-30.9	14.0	1.50e-06	0	43	102	1048576	19	4208
2026-01-25 08:06:29.96	48.31	18.04	-29.9	-31.5	13.1	1.60e-05	0	43	102	1048576	20	4313
2026-01-25 08:06:32.97	47.61	18.10	-30.2	-32.2	12.7	5.11e-05	0	43	102	1048576	20	4534
2026-01-25 08:06:35.99	46.91	18.15	-30.7	-33.2	11.6	5.93e-04	0	43	102	1048576	21	4835
2026-01-25 08:06:39.02	46.20	18.20	-30.4	-32.4	12.2	2.69e-04	0	43	102	1048576	21	4526
2026-01-25 08:06:42.03	45.50	18.24	-30.2	-32.0	12.4	9.76e-05	0	43	102	1048576	21	4401
2026-01-25 08:06:45.04	44.79	18.28	-30.1	-31.7	12.6	7.24e-05	0	43	102	1048576	21	4301
2026-01-25 08:06:48.04	44.08	18.32	-29.9	-30.9	13.1	2.67e-05	0	43	102	1048576	21	4064
2026-01-25 08:06:51.06	43.37	18.35	-29.6	-30.5	13.7	1.06e-05	0	43	102	1048576	20	4028
2026-01-25 08:06:54.08	42.66	18.37	-29.5	-30.5	13.8	6.10e-06	0	43	102	1048576	20	4009
2026-01-25 08:06:57.09	41.95	18.40	-29.7	-30.8	13.6	1.06e-05	0	43	102	1048576	20	4095
2026-01-25 08:07:00.10	41.23	18.41	-30.0	-31.6	13.0	2.28e-05	0	43	102	1048576	20	4351
2026-01-25 08:07:03.11	40.52	18.43	-30.1	-31.8	12.8	9.00e-05	0	43	102	1048576	20	4418
2026-01-25 08:07:06.12	39.81	18.43	-29.9	-31.5	13.1	3.05e-05	0	43	102	1048576	20	4332
2026-01-25 08:07:09.12	39.09	18.44	-29.9	-31.4	13.2	2.51e-05	0	43	102	1048576	20	4286
2026-01-25 08:07:12.14	38.38	18.43	-30.0	-31.6	13.0	3.81e-05	0	43	102	1048576	20	4367
2026-01-25 08:07:15.16	37.66	18.43	-30.6	-33.0	11.7	3.86e-04	0	43	102	1048576	21	4746
2026-01-25 08:07:18.18	36.94	18.42	-30.4	-32.5	12.0	3.18e-04	0	43	102	1048576	21	4556
2026-01-25 08:07:21.19	36.23	18.40	-30.0	-31.2	12.9	6.94e-05	0	43	102	1048576	21	4132
2026-01-25 08:07:24.21	35.52	18.38	-29.5	-30.4	13.7	1.29e-05	0	43	102	1048576	20	3991
2026-01-25 08:07:27.22	34.81	18.36	-29.6	-30.5	13.7	2.20e-06	0	43	102	1048576	20	4002
2026-01-25 08:07:30.24	34.09	18.33	-29.5	-30.3	13.9	3.00e-06	0	44	102	1048576	20	3950
2026-01-25 08:07:33.25	33.39	18.30	-29.4	-30.4	14.1	1.50e-06	0	43	102	1048576	19	4071
2026-01-25 08:07:36.26	32.68	18.26	-29.1	-29.8	14.6	1.50e-06	0	43	102	1048576	19	3890
2026-01-25 08:07:39.27	31.97	18.22	-29.0	-29.4	14.8	0.00e+00	0	44	102	1048576	19	3770
2026-01-25 08:07:42.28	31.27	18.17	-29.0	-29.3	14.9	0.00e+00	0	43	102	1048576	19	3751
2026-01-25 08:07:45.29	30.57	18.12	-29.3	-30.1	14.4	0.00e+00	0	44	102	1048576	19	3961
2026-01-25 08:07:48.30	29.87	18.06	-29.6	-30.9	13.9	7.00e-07	0	43	102	1048576	19	4204
2026-01-25 08:07:51.32	29.18	18.00	-29.9	-31.8	13.4	2.13e-05	0	43	102	1048576	19	4459
2026-01-25 08:07:54.33	28.49	17.94	-29.3	-30.2	14.3	3.80e-06	0	44	102	1048576	19	3986
2026-01-25 08:07:57.33	27.80	17.87	-29.3	-30.1	14.4	0.00e+00	0	43	102	1048576	19	3969
2026-01-25 08:08:00.35	27.11	17.80	-29.7	-31.3	13.6	5.30e-06	0	43	102	1048576	19	4319
2026-01-25 08:08:03.36	26.43	17.73	-29.9	-31.2	13.3	2.44e-05	0	43	102	1048576	20	4219
2026-01-25 08:08:06.37	25.75	17.65	-30.1	-31.9	12.8	6.10e-05	0	43	102	1048576	20	4433
2026-01-25 08:08:09.40	25.07	17.56	-30.1	-32.0	12.8	6.17e-05	0	43	102	1048576	20	4452
2026-01-25 08:08:12.41	24.40	17.47	-30.0	-31.5	13.1	3.28e-05	0	43	102	1048576	20	4305
2026-01-25 08:08:15.42	23.73	17.38	-29.9	-31.4	13.1	2.51e-05	0	43	102	1048576	20	4263
2026-01-25 08:08:18.44	23.07	17.29	-30.2	-32.2	12.6	7.24e-05	0	43	102	1048576	20	4541
2026-01-25 08:08:21.45	22.41	17.19	-30.3	-32.5	12.5	8.23e-05	0	43	102	1048576	20	4623
2026-01-25 08:08:24.46	21.75	17.09	-29.9	-31.4	13.2	2.74e-05	0	43	102	1048576	20	4269
2026-01-25 08:08:27.47	21.10	16.98	-30.0	-31.5	13.1	4.27e-05	0	43	102	1048576	20	4315
2026-01-25 08:08:30.48	20.46	16.88	-29.7	-30.8	13.5	8.30e-06	0	43	102	1048576	20	4090
2026-01-25 08:08:33.49	19.82	16.76	-29.9	-31.3	13.2	1.52e-05	0	43	102	1048576	20	4241
2026-01-25 08:08:36.50	19.18	16.65	-29.4	-29.9	14.1	2.20e-06	0	43	102	1048576	20	3838
2026-01-25 08:08:39.52	18.55	16.53	-29.1	-29.6	14.6	0.00e+00	0	43	102	1048576	19	3825
2026-01-25 08:08:42.54	17.92	16.41	-29.2	-29.8	14.5	1.50e-06	0	43	102	1048576	19	3896
2026-01-25 08:08:45.54	17.30	16.29	-29.6	-31.1	13.7	3.80e-06	0	43	102	1048576	19	4276
2026-01-25 08:08:48.56	16.69	16.16	-30.4	-32.9	12.1	1.95e-04	0	43	102	1048576	20	4799
2026-01-25 08:08:51.57	16.08	16.03	-30.5	-32.5	11.9	5.13e-04	0	44	102	1048576	21	4557
2026-01-25 08:08:54.58	15.47	15.90	-30.4	-32.3	12.0	3.56e-04	0	43	102	1048576	21	4492
2026-01-25 08:08:57.60	14.87	15.77	-30.3	-32.2	12.2	2.04e-04	0	44	102	1048576	21	4447
2026-01-25 08:09:00.61	14.28	15.63	-30.6	-32.9	11.6	7.28e-04	0	44	102	1048576	21	4715
2026-01-25 08:09:03.62	13.69	15.49	-29.8	-30.7	13.2	8.08e-05	0	44	102	1048576	21	3985
2026-01-25 08:09:06.65	13.11	15.35	-29.9	-31.4	13.1	1.90e-05	0	43	102	1048576	20	4276
2026-01-25 08:09:09.67	12.53	15.21	-29.5	-30.5	13.6	1.60e-05	0	43	102	1048576	20	4013
2026-01-25 08:09:12.67	11.96	15.06	-29.6	-30.7	13.4	1.52e-05	0	43	102	1048576	20	4083
2026-01-25 08:09:15.67	11.39	14.92	-30.0	-31.7	12.7	6.17e-05	0	44	102	1048576	20	4408
2026-01-25 08:09:18.68	10.83	14.77	-30.0	-31.7	12.7	9.53e-05	0	43	102	1048576	20	4400
2026-01-25 08:09:21.69	10.28	14.62	-29.6	-30.8	13.3	1.67e-05	0	43	102	1048576	20	4103
2026-01-25 08:09:24.70	9.73	14.46	-29.8	-31.2	13.1	2.74e-05	0	44	102	1048576	20	4225
2026-01-25 08:09:27.71	9.19	14.31	-30.5	-33.2	11.7	3.72e-04	0	44	102	1048576	20	4925
2026-01-25 08:09:30.73	8.65	14.15	-31.1	-34.3	10.1	4.70e-03	0	43	102	1048576	22	5215
2026-01-25 08:09:33.75	8.12	14.00	-31.3	-35.1	9.5	1.28e-02	0	44	102	1048576	22	5543
2026-01-25 08:09:36.76	7.59	13.84	-31.1	-34.3	10.1	7.48e-03	0	44	102	1048576	22	5189
2026-01-25 08:09:39.76	7.08	13.68	-31.1	-34.2	10.2	9.18e-03	0	43	102	1048576	22	5150
2026-01-25 08:09:42.78	6.56	13.52	-31.1	-34.1	10.2	7.90e-03	0	44	102	1048576	22	5107
2026-01-25 08:09:45.78	6.05	13.36	-30.6	-32.5	11.4	1.05e-03	0	43	102	1048576	22	4492
2026-01-25 08:09:48.79	5.55	13.19	-30.5	-32.2	11.6	6.61e-04	0	44	102	1048576	22	4390
2026-01-25 08:09:51.80	5.05	13.03	-30.8	-33.3	10.8	2.02e-03	0	44	102	1048576	22	4805
2026-01-25 08:09:54.82	4.56	12.86	-30.1	-31.7	12.3	2.55e-04	0	44	102	1048576	21	4318
2026-01-25 08:09:57.83	4.08	12.70	-30.1	-31.6	12.3	1.53e-04	0	44	102	1048576	21	4278
2026-01-25 08:10:00.84	3.60	12.53	-30.1	-31.7	12.2	2.18e-04	0	43	102	1048576	21	4314
2026-01-25 08:10:03.85	3.12	12.36	-30.2	-32.0	11.9	4.12e-04	0	44	102	1048576	21	4440
2026-01-25 08:10:06.87	2.65	12.19	-30.3	-32.4	11.7	6.38e-04	0	44	102	1048576	21	4566
2026-01-25 08:10:09.87	2.19	12.02	-30.5	-32.9	11.4	9.25e-04	0	44	102	1048576	21	4727
2026-01-25 08:10:12.88	1.73	11.85	-30.4	-32.4	11.8	6.09e-04	0	44	102	1048576	21	4561
2026-01-25 08:10:15.88	1.28	11.68	-30.3	-32.2	11.8	3.59e-04	0	44	102	1048576	21	4492
2026-01-25 08:10:18.90	0.83	11.51	-29.5	-30.5	13.3	1.90e-05	0	43	102	1048576	20	4036
2026-01-25 08:10:21.91	0.39	11.34	-29.1	-30.0	14.0	3.00e-06	0	44	102	1048576	19	3954
2026-01-25 08:10:24.92	359.95	11.17	-29.2	-30.0	13.9	2.20e-06	0	44	102	1048576	19	3980
2026-01-25 08:10:27.91	359.52	11.00	-29.6	-31.3	13.2	1.83e-05	0	43	102	1048576	19	4344
2026-01-25 08:10:30.93	359.10	10.82	-30.0	-32.2	12.6	7.17e-05	0	43	102	1048576	19	4680
2026-01-25 08:10:33.96	358.67	10.65	-29.7	-31.0	13.0	4.57e-05	0	43	102	1048576	20	4170
2026-01-25 08:10:36.97	358.26	10.47	-29.5	-30.5	13.3	1.75e-05	0	44	102	1048576	20	4036
2026-01-25 08:10:39.98	357.85	10.30	-29.5	-30.9	13.3	1.52e-05	0	43	102	1048576	19	4241
2026-01-25 08:10:42.99	357.44	10.13	-29.6	-31.2	13.1	2.74e-05	0	44	102	1048576	19	4338
2026-01-25 08:10:46.00	357.04	9.95	-29.9	-32.2	12.5	8.54e-05	0	44	102	1048576	19	4670
2026-01-25 08:10:49.02	356.64	9.78	-30.3	-32.7	11.7	3.84e-04	0	44	102	1048576	20	4763
2026-01-25 08:10:52.04	356.25	9.60	-30.3	-33.0	11.5	7.72e-04	0	44	102	1048576	20	4891
2026-01-25 08:10:55.06	355.86	9.43	-31.0	-33.7	11.1	1.42e-03	0	43	102	1048576	21	4904
2026-01-25 08:10:58.08	355.48	9.25	-29.9	-31.1	12.4	2.91e-04	0	44	102	1048576	21	4162
2026-01-25 08:11:01.08	355.10	9.08	-29.7	-31.2	12.6	5.64e-05	0	44	102	1048576	20	4283
2026-01-25 08:11:04.11	354.73	8.90	-29.3	-30.1	13.4	1.98e-05	0	43	102	1048576	20	3936
2026-01-25 08:11:07.12	354.36	8.73	-29.6	-30.8	12.9	3.20e-05	0	44	102	1048576	20	4161
2026-01-25 08:11:10.13	353.99	8.55	-30.2	-32.6	11.6	4.05e-04	0	44	102	1048576	20	4755
2026-01-25 08:11:13.14	353.64	8.38	-30.4	-33.4	11.1	1.58e-03	0	44	102	1048576	20	5050
2026-01-25 08:11:16.15	353.28	8.21	-30.0	-32.2	11.9	3.13e-04	0	43	102	1048576	20	4593
2026-01-25 08:11:19.17	352.93	8.03	-29.8	-31.5	12.4	1.56e-04	0	44	102	1048576	20	4375
2026-01-25 08:11:22.19	352.58	7.86	-29.7	-31.1	12.6	9.91e-05	0	44	102	1048576	20	4243
2026-01-25 08:11:25.20	352.24	7.68	-29.7	-31.2	12.4	1.31e-04	0	44	102	1048576	20	4288
2026-01-25 08:11:28.22	351.90	7.51	-29.8	-31.6	12.2	2.47e-04	0	44	102	1048576	20	4418
2026-01-25 08:11:31.23	351.57	7.34	-30.0	-32.2	11.8	4.25e-04	0	44	102	1048576	20	4617
2026-01-25 08:11:34.23	351.24	7.17	-30.3	-33.2	10.9	1.62e-03	0	44	102	1048576	20	5002
2026-01-25 08:11:37.25	350.91	6.99	-33.0	-44.9	3.8	1.49e+00	0	43	104	1048576	26	14135

#Closed at: 2026-01-25 08:11:39
#Recorded file [1 MB]: D:/data/31010_260125_110251.dat