passes_logs/2026/01/25/R2M6_AANII_01/R2M6_AANII_01__20260125_154146_FENGYUN_3E_rec.log

#Pass ID: 20260125_154146_FENGYUN 3E
#Satellite: FENGYUN 3E
#Configuration: FENGYUN 3E
#almurnet v.1.7.20240730
#Start time: 2026-01-25 15:41:48

#Version: 2.2.20231116
#Station: R2M6_AANII_01
#Location: 30.233357 lon 59.946436 lat
#TLE: 1 49008U 21062A   26025.22354119 -.00000045  00000+0 -39974-6 0  9992
#TLE: 2 49008  98.7496  30.2323 0002444 117.8821 242.2603 14.19886325236299

#Time	Az	El	Level	Level2	SNR	BER	BlckErr	Temp	State	Recorded	gain1	gain2
2026-01-25 15:41:48.81	195.24	7.14	-28.4	-30.5	5.5	7.61e-01	0	42	0	0	16	4566
2026-01-25 15:41:51.82	195.44	7.35	-28.4	-29.4	10.9	2.93e-03	0	42	0	7340032	18	4033
2026-01-25 15:41:54.83	195.64	7.57	-27.0	-27.6	12.8	8.69e-05	0	42	0	28311552	15	3843
2026-01-25 15:41:57.85	195.85	7.79	-26.4	-26.7	13.7	9.10e-06	0	42	102	44040192	14	3706
2026-01-25 15:42:00.86	196.06	8.01	-26.3	-26.8	13.9	1.10e-06	0	42	102	44040192	13	3838
2026-01-25 15:42:03.87	196.28	8.23	-26.0	-26.4	14.2	1.10e-06	0	42	102	44040192	13	3732
2026-01-25 15:42:06.88	196.49	8.45	-26.3	-27.0	13.8	8.00e-06	0	42	102	44040192	13	3892
2026-01-25 15:42:09.89	196.71	8.68	-26.3	-27.0	13.8	3.40e-06	0	42	102	44040192	13	3885
2026-01-25 15:42:12.92	196.94	8.91	-26.2	-26.7	14.0	4.50e-06	0	42	102	44040192	13	3814
2026-01-25 15:42:15.94	197.17	9.14	-26.2	-26.7	14.1	3.40e-06	0	43	102	44040192	13	3808
2026-01-25 15:42:18.94	197.40	9.36	-26.0	-26.6	14.4	1.10e-06	0	42	102	44040192	12	3891
2026-01-25 15:42:21.95	197.63	9.60	-25.9	-26.4	14.5	1.10e-06	0	43	102	44040192	12	3843
2026-01-25 15:42:24.97	197.87	9.83	-25.8	-26.2	14.7	0.00e+00	0	43	102	44040192	12	3782
2026-01-25 15:42:27.98	198.11	10.06	-25.7	-26.1	14.8	0.00e+00	0	43	102	44040192	12	3759
2026-01-25 15:42:30.99	198.35	10.30	-25.6	-25.8	14.9	0.00e+00	0	43	102	44040192	12	3694
2026-01-25 15:42:34.01	198.60	10.54	-25.5	-26.2	15.1	0.00e+00	0	43	102	44040192	11	3879
2026-01-25 15:42:37.02	198.86	10.78	-25.4	-26.0	15.3	0.00e+00	0	43	102	44040192	11	3824
2026-01-25 15:42:40.04	199.11	11.03	-25.4	-25.9	15.3	0.00e+00	0	43	102	44040192	11	3799
2026-01-25 15:42:43.05	199.37	11.27	-25.4	-25.8	15.4	0.00e+00	0	43	102	44040192	11	3797
2026-01-25 15:42:46.07	199.64	11.52	-25.5	-26.0	15.3	0.00e+00	0	43	102	44040192	11	3824
2026-01-25 15:42:49.08	199.91	11.77	-25.6	-26.2	15.1	0.00e+00	0	43	102	44040192	11	3889
2026-01-25 15:42:52.09	200.18	12.02	-25.6	-26.3	15.1	0.00e+00	0	43	102	44040192	11	3914
2026-01-25 15:42:55.09	200.46	12.27	-25.6	-26.3	15.1	0.00e+00	0	43	102	44040192	11	3902
2026-01-25 15:42:58.11	200.74	12.52	-25.6	-26.3	15.1	0.00e+00	0	43	102	44040192	11	3890
2026-01-25 15:43:01.12	201.03	12.78	-25.6	-26.3	15.1	0.00e+00	0	43	102	44040192	11	3911
2026-01-25 15:43:04.14	201.32	13.04	-25.4	-25.9	15.4	1.14e-05	0	44	102	44040192	11	3810
2026-01-25 15:43:07.15	201.62	13.30	-25.4	-25.8	15.5	4.50e-06	0	44	102	44040192	11	3773
2026-01-25 15:43:10.16	201.92	13.56	-25.3	-25.7	15.5	2.20e-06	0	43	102	44040192	11	3769
2026-01-25 15:43:13.17	202.23	13.83	-25.3	-25.7	15.6	0.00e+00	0	43	102	44040192	11	3749
2026-01-25 15:43:16.19	202.55	14.10	-25.0	-25.0	15.9	1.14e-05	0	44	102	44040192	11	3598
2026-01-25 15:43:19.19	202.86	14.36	-24.9	-25.3	16.1	9.10e-06	0	43	102	44040192	10	3765
2026-01-25 15:43:22.20	203.19	14.64	-24.8	-25.1	16.2	8.00e-06	0	44	102	44040192	10	3723
2026-01-25 15:43:25.21	203.52	14.91	-24.9	-25.2	16.1	0.00e+00	0	44	102	44040192	10	3741
2026-01-25 15:43:28.22	203.86	15.18	-24.9	-25.3	16.1	0.00e+00	0	44	102	44040192	10	3760
2026-01-25 15:43:31.23	204.20	15.46	-24.9	-25.3	16.1	0.00e+00	0	44	102	44040192	10	3753
2026-01-25 15:43:34.25	204.55	15.74	-24.6	-24.7	16.5	0.00e+00	0	44	102	44040192	10	3627
2026-01-25 15:43:37.25	204.90	16.03	-24.6	-24.5	16.6	0.00e+00	0	44	102	44040192	10	3588
2026-01-25 15:43:40.26	205.26	16.31	-24.3	-24.5	16.8	0.00e+00	0	44	102	44040192	9	3688
2026-01-25 15:43:43.28	205.63	16.60	-24.4	-24.8	16.7	0.00e+00	0	44	102	44040192	9	3740
2026-01-25 15:43:46.29	206.01	16.89	-24.4	-24.6	16.8	0.00e+00	0	44	102	44040192	9	3701
2026-01-25 15:43:49.31	206.39	17.18	-24.5	-24.8	16.7	0.00e+00	0	44	102	44040192	9	3755
2026-01-25 15:43:52.33	206.78	17.48	-24.3	-24.4	16.9	0.00e+00	0	44	102	44040192	9	3650
2026-01-25 15:43:55.35	207.18	17.77	-24.3	-24.5	16.9	0.00e+00	0	44	102	44040192	9	3686
2026-01-25 15:43:58.36	207.58	18.07	-24.3	-24.6	16.9	0.00e+00	0	44	102	44040192	9	3695
2026-01-25 15:44:01.36	207.99	18.37	-24.1	-24.2	17.1	0.00e+00	0	44	102	44040192	9	3605
2026-01-25 15:44:04.38	208.41	18.68	-24.1	-24.1	17.2	0.00e+00	0	44	102	44040192	9	3581
2026-01-25 15:44:07.38	208.84	18.98	-23.9	-24.1	17.4	0.00e+00	0	44	102	44040192	8	3692
2026-01-25 15:44:10.40	209.28	19.29	-23.9	-24.1	17.4	0.00e+00	0	44	102	44040192	8	3699
2026-01-25 15:44:13.41	209.73	19.60	-23.9	-24.2	17.4	0.00e+00	0	44	102	44040192	8	3699
2026-01-25 15:44:16.42	210.18	19.91	-24.0	-24.2	17.4	0.00e+00	0	44	102	44040192	8	3716
2026-01-25 15:44:19.42	210.64	20.23	-24.0	-24.4	17.3	0.00e+00	0	44	102	44040192	8	3746
2026-01-25 15:44:22.43	211.11	20.54	-23.8	-24.0	17.5	0.00e+00	0	44	102	44040192	8	3660
2026-01-25 15:44:25.45	211.60	20.86	-23.8	-23.9	17.6	0.00e+00	0	44	102	44040192	8	3640
2026-01-25 15:44:28.46	212.09	21.18	-23.7	-23.7	17.7	0.00e+00	0	44	102	44040192	8	3604
2026-01-25 15:44:31.47	212.59	21.51	-23.6	-23.4	17.9	0.00e+00	0	44	102	44040192	8	3540
2026-01-25 15:44:34.47	213.10	21.83	-23.5	-23.3	18.0	0.00e+00	0	44	102	44040192	8	3501
2026-01-25 15:44:37.48	213.63	22.16	-23.5	-23.3	17.9	0.00e+00	0	44	102	44040192	8	3514
2026-01-25 15:44:40.49	214.16	22.48	-23.7	-23.7	17.7	0.00e+00	0	44	102	44040192	8	3605
2026-01-25 15:44:43.51	214.71	22.81	-23.7	-23.8	17.7	0.00e+00	0	44	102	44040192	8	3610
2026-01-25 15:44:46.52	215.27	23.15	-23.6	-23.5	17.9	0.00e+00	0	44	102	44040192	8	3553
2026-01-25 15:44:49.53	215.83	23.48	-23.3	-23.4	18.2	0.00e+00	0	44	102	44040192	7	3619
2026-01-25 15:44:52.54	216.41	23.81	-23.3	-23.4	18.1	0.00e+00	0	44	102	44040192	7	3634
2026-01-25 15:44:55.56	217.01	24.15	-23.0	-22.7	18.5	0.00e+00	0	44	102	44040192	7	3480
2026-01-25 15:44:58.57	217.61	24.49	-22.9	-22.9	18.6	0.00e+00	0	44	102	44040192	6	3631
2026-01-25 15:45:01.59	218.23	24.83	-22.9	-23.0	18.6	0.00e+00	0	44	102	44040192	6	3647
2026-01-25 15:45:04.60	218.86	25.16	-22.9	-22.9	18.6	0.00e+00	0	44	102	44040192	6	3626
2026-01-25 15:45:07.59	219.50	25.50	-23.1	-23.4	18.4	0.00e+00	0	44	102	44040192	6	3738
2026-01-25 15:45:10.61	220.16	25.84	-23.2	-23.7	18.3	0.00e+00	0	44	102	44040192	6	3805
2026-01-25 15:45:13.63	220.84	26.18	-23.3	-23.8	18.2	0.00e+00	0	44	102	44040192	6	3833
2026-01-25 15:45:16.64	221.52	26.52	-23.3	-23.8	18.2	0.00e+00	0	44	102	44040192	6	3833
2026-01-25 15:45:19.64	222.22	26.86	-22.8	-22.9	18.7	0.00e+00	0	44	102	44040192	6	3619
2026-01-25 15:45:22.66	222.94	27.20	-22.9	-23.0	18.7	0.00e+00	0	44	102	44040192	6	3652
2026-01-25 15:45:25.66	223.67	27.54	-22.9	-23.1	18.6	0.00e+00	0	44	102	44040192	6	3678
2026-01-25 15:45:28.67	224.41	27.88	-22.9	-23.0	18.7	0.00e+00	0	44	102	44040192	6	3634
2026-01-25 15:45:31.68	225.17	28.22	-22.8	-22.9	18.8	0.00e+00	0	44	102	44040192	6	3616
2026-01-25 15:45:34.68	225.95	28.55	-22.9	-22.9	18.8	0.00e+00	0	44	102	44040192	6	3627
2026-01-25 15:45:37.70	226.74	28.89	-22.8	-22.8	18.8	0.00e+00	0	44	102	44040192	6	3590
2026-01-25 15:45:40.71	227.55	29.22	-22.7	-22.7	18.9	0.00e+00	0	44	102	44040192	6	3568
2026-01-25 15:45:43.72	228.38	29.55	-23.0	-23.1	18.7	0.00e+00	0	44	102	44040192	6	3671
2026-01-25 15:45:46.74	229.22	29.88	-22.9	-23.0	18.7	0.00e+00	0	44	102	44040192	6	3650
2026-01-25 15:45:49.76	230.09	30.20	-22.8	-22.9	18.8	0.00e+00	0	44	102	44040192	6	3616
2026-01-25 15:45:52.77	230.96	30.52	-22.9	-22.9	18.8	0.00e+00	0	44	102	44040192	6	3622
2026-01-25 15:45:55.77	231.85	30.84	-22.7	-22.6	19.0	0.00e+00	0	44	102	44040192	6	3548
2026-01-25 15:45:58.79	232.77	31.15	-22.8	-22.8	18.9	0.00e+00	0	44	102	44040192	6	3588
2026-01-25 15:46:01.80	233.69	31.46	-22.8	-22.9	18.8	0.00e+00	0	44	102	44040192	6	3615
2026-01-25 15:46:04.81	234.64	31.76	-22.7	-22.6	18.9	0.00e+00	0	44	102	44040192	6	3559
2026-01-25 15:46:07.82	235.60	32.06	-22.8	-22.8	18.9	0.00e+00	0	44	102	44040192	6	3585
2026-01-25 15:46:10.85	236.59	32.35	-22.9	-22.9	18.8	0.00e+00	0	44	102	44040192	6	3621
2026-01-25 15:46:13.85	237.58	32.64	-22.7	-22.6	19.0	0.00e+00	0	44	102	44040192	6	3558
2026-01-25 15:46:16.87	238.60	32.92	-22.6	-22.4	19.1	0.00e+00	0	44	102	44040192	6	3499
2026-01-25 15:46:19.88	239.63	33.19	-22.7	-22.5	19.1	0.00e+00	0	44	102	44040192	6	3528
2026-01-25 15:46:22.90	240.68	33.45	-22.8	-22.7	19.0	0.00e+00	0	44	102	44040192	6	3570
2026-01-25 15:46:25.91	241.75	33.70	-22.6	-22.4	19.1	0.00e+00	0	44	102	44040192	6	3515
2026-01-25 15:46:28.91	242.82	33.95	-22.6	-22.4	19.1	0.00e+00	0	44	102	44040192	6	3517
2026-01-25 15:46:31.91	243.92	34.18	-22.9	-22.9	18.9	0.00e+00	0	44	102	44040192	6	3621
2026-01-25 15:46:34.92	245.03	34.41	-22.9	-23.0	18.8	0.00e+00	0	44	102	44040192	6	3645
2026-01-25 15:46:37.92	246.15	34.62	-22.8	-22.9	18.9	0.00e+00	0	44	102	44040192	6	3610
2026-01-25 15:46:40.94	247.29	34.83	-22.8	-22.8	18.9	0.00e+00	0	44	102	44040192	6	3600
2026-01-25 15:46:43.95	248.45	35.02	-22.9	-22.9	18.8	0.00e+00	0	44	102	44040192	6	3621
2026-01-25 15:46:46.95	249.61	35.20	-22.8	-22.8	18.9	0.00e+00	0	44	102	44040192	6	3602
2026-01-25 15:46:49.96	250.79	35.37	-22.6	-22.3	19.2	0.00e+00	0	44	102	44040192	6	3480
2026-01-25 15:46:52.97	251.98	35.53	-23.0	-23.2	18.8	0.00e+00	0	44	102	44040192	6	3683
2026-01-25 15:46:55.98	253.19	35.67	-22.5	-22.1	19.3	0.00e+00	0	44	102	44040192	6	3438
2026-01-25 15:46:59.00	254.40	35.80	-22.6	-22.3	19.2	0.00e+00	0	44	102	44040192	6	3492
2026-01-25 15:47:02.01	255.62	35.92	-22.6	-22.9	19.1	2.20e-06	0	44	102	44040192	5	3708
2026-01-25 15:47:05.01	256.85	36.02	-23.1	-23.4	18.6	1.10e-06	0	44	102	44040192	6	3737
2026-01-25 15:47:08.01	258.08	36.10	-22.5	-22.1	19.3	0.00e+00	0	44	102	44040192	6	3441
2026-01-25 15:47:11.03	259.33	36.18	-22.8	-22.7	19.0	2.20e-06	0	44	102	44040192	6	3578
2026-01-25 15:47:14.05	260.58	36.24	-22.6	-22.4	19.2	0.00e+00	0	44	102	44040192	6	3514
2026-01-25 15:47:17.06	261.83	36.28	-22.4	-21.9	19.4	0.00e+00	0	44	102	44040192	6	3397
2026-01-25 15:47:20.07	263.08	36.31	-22.5	-22.7	19.2	1.10e-06	0	44	102	44040192	5	3685
2026-01-25 15:47:23.09	264.34	36.32	-22.5	-22.7	19.3	1.10e-06	0	44	102	44040192	5	3672
2026-01-25 15:47:26.10	265.60	36.32	-22.9	-23.5	18.9	0.00e+00	0	44	102	44040192	5	3849
2026-01-25 15:47:29.11	266.85	36.30	-22.7	-23.1	19.0	0.00e+00	0	44	102	44040192	5	3774
2026-01-25 15:47:32.13	268.11	36.27	-22.6	-22.9	19.1	0.00e+00	0	44	102	44040192	5	3729
2026-01-25 15:47:35.14	269.36	36.23	-22.7	-23.1	19.0	0.00e+00	0	44	102	44040192	5	3767
2026-01-25 15:47:38.15	270.60	36.16	-22.7	-23.0	19.1	0.00e+00	0	44	102	44040192	5	3736
2026-01-25 15:47:41.16	271.84	36.09	-22.6	-22.9	19.1	0.00e+00	0	44	102	44040192	5	3720
2026-01-25 15:47:44.16	273.07	36.00	-22.6	-22.9	19.2	0.00e+00	0	44	102	44040192	5	3714
2026-01-25 15:47:47.19	274.30	35.89	-22.6	-23.0	19.1	0.00e+00	0	44	102	44040192	5	3728
2026-01-25 15:47:50.20	275.52	35.77	-22.7	-23.2	19.0	0.00e+00	0	44	102	44040192	5	3772
2026-01-25 15:47:53.21	276.73	35.64	-22.5	-22.7	19.3	0.00e+00	0	44	102	44040192	5	3667
2026-01-25 15:47:56.22	277.93	35.49	-22.4	-22.5	19.4	0.00e+00	0	44	102	44040192	5	3628
2026-01-25 15:47:59.24	279.12	35.33	-22.8	-23.2	19.0	0.00e+00	0	44	102	44040192	5	3776
2026-01-25 15:48:02.25	280.30	35.16	-22.7	-23.1	19.1	0.00e+00	0	44	102	44040192	5	3767
2026-01-25 15:48:05.26	281.46	34.98	-22.8	-23.3	19.0	0.00e+00	0	44	102	44040192	5	3809
2026-01-25 15:48:08.26	282.60	34.79	-22.8	-23.2	19.0	0.00e+00	0	44	102	44040192	5	3779
2026-01-25 15:48:11.27	283.74	34.58	-22.9	-23.5	18.9	0.00e+00	0	44	102	44040192	5	3867
2026-01-25 15:48:14.28	284.86	34.36	-23.1	-23.3	18.7	0.00e+00	0	44	102	44040192	6	3702
2026-01-25 15:48:17.29	285.97	34.14	-23.0	-23.1	18.8	0.00e+00	0	44	102	44040192	6	3665
2026-01-25 15:48:20.30	287.06	33.90	-23.1	-23.3	18.7	0.00e+00	0	44	102	44040192	6	3711
2026-01-25 15:48:23.31	288.13	33.65	-22.9	-23.0	18.9	0.00e+00	0	44	102	44040192	6	3632
2026-01-25 15:48:26.32	289.19	33.40	-22.7	-22.5	19.1	0.00e+00	0	44	102	44040192	6	3519
2026-01-25 15:48:29.32	290.23	33.14	-22.8	-22.9	18.9	0.00e+00	0	44	102	44040192	6	3606
2026-01-25 15:48:32.34	291.25	32.87	-23.0	-23.3	18.7	0.00e+00	0	44	102	44040192	6	3693
2026-01-25 15:48:35.35	292.26	32.59	-23.0	-23.1	18.8	0.00e+00	0	44	102	44040192	6	3661
2026-01-25 15:48:38.36	293.25	32.30	-22.7	-22.5	19.1	0.00e+00	0	44	102	44040192	6	3532
2026-01-25 15:48:41.37	294.23	32.01	-22.9	-23.0	18.9	0.00e+00	0	44	102	44040192	6	3638
2026-01-25 15:48:44.39	295.19	31.71	-23.2	-23.6	18.6	0.00e+00	0	44	102	44040192	6	3765
2026-01-25 15:48:47.40	296.13	31.41	-23.1	-23.4	18.7	0.00e+00	0	44	102	44040192	6	3725
2026-01-25 15:48:50.42	297.05	31.10	-23.1	-23.3	18.7	0.00e+00	0	44	102	44040192	6	3704
2026-01-25 15:48:53.44	297.96	30.79	-23.0	-23.1	18.8	0.00e+00	0	44	102	44040192	6	3665
2026-01-25 15:48:56.45	298.84	30.47	-23.0	-23.2	18.7	0.00e+00	0	44	102	44040192	6	3692
2026-01-25 15:48:59.46	299.71	30.15	-23.1	-23.5	18.6	0.00e+00	0	44	102	44040192	6	3748
2026-01-25 15:49:02.47	300.57	29.83	-23.1	-23.4	18.6	0.00e+00	0	44	102	44040192	6	3723
2026-01-25 15:49:05.49	301.41	29.50	-23.3	-23.7	18.4	0.00e+00	0	44	102	44040192	6	3797
2026-01-25 15:49:08.49	302.22	29.18	-23.2	-23.5	18.6	0.00e+00	0	44	102	44040192	6	3755
2026-01-25 15:49:11.51	303.03	28.85	-23.0	-23.3	18.7	0.00e+00	0	44	102	44040192	6	3696
2026-01-25 15:49:14.52	303.82	28.51	-23.0	-23.2	18.7	0.00e+00	0	44	102	44040192	6	3676
2026-01-25 15:49:17.54	304.59	28.18	-23.2	-23.6	18.5	0.00e+00	0	44	102	44040192	6	3771
2026-01-25 15:49:20.55	305.35	27.84	-23.3	-23.8	18.4	0.00e+00	0	44	102	44040192	6	3829
2026-01-25 15:49:23.57	306.09	27.50	-23.2	-23.5	18.5	0.00e+00	0	44	102	44040192	6	3753
2026-01-25 15:49:26.58	306.81	27.17	-23.0	-23.2	18.6	0.00e+00	0	44	102	44040192	6	3672
2026-01-25 15:49:29.60	307.53	26.83	-23.1	-23.4	18.6	0.00e+00	0	44	102	44040192	6	3721
2026-01-25 15:49:32.61	308.22	26.49	-23.3	-23.8	18.4	0.00e+00	0	44	102	44040192	6	3816
2026-01-25 15:49:35.62	308.90	26.15	-23.4	-24.0	18.3	0.00e+00	0	44	102	44040192	6	3857
2026-01-25 15:49:38.63	309.57	25.82	-23.4	-23.9	18.3	0.00e+00	0	44	102	44040192	6	3849
2026-01-25 15:49:41.65	310.23	25.48	-23.3	-23.8	18.4	0.00e+00	0	44	102	44040192	6	3817
2026-01-25 15:49:44.67	310.87	25.14	-23.2	-23.7	18.4	0.00e+00	0	44	102	44040192	6	3791
2026-01-25 15:49:47.68	311.49	24.80	-23.3	-23.8	18.4	0.00e+00	0	44	102	44040192	6	3815
2026-01-25 15:49:50.69	312.11	24.47	-23.7	-24.1	18.0	0.00e+00	0	44	102	44040192	7	3774
2026-01-25 15:49:53.72	312.71	24.13	-23.6	-23.9	18.0	0.00e+00	0	44	102	44040192	7	3738
2026-01-25 15:49:56.73	313.30	23.80	-23.6	-24.0	18.0	0.00e+00	0	44	102	44040192	7	3746
2026-01-25 15:49:59.75	313.88	23.47	-23.5	-23.7	18.1	0.00e+00	0	44	102	44040192	7	3700
2026-01-25 15:50:02.76	314.44	23.13	-23.6	-23.9	18.0	0.00e+00	0	44	102	44040192	7	3735
2026-01-25 15:50:05.76	314.99	22.81	-23.8	-24.3	17.8	0.00e+00	0	44	102	44040192	7	3828
2026-01-25 15:50:08.77	315.54	22.48	-23.8	-24.4	17.8	0.00e+00	0	44	102	44040192	7	3854
2026-01-25 15:50:11.79	316.07	22.15	-23.8	-24.3	17.8	0.00e+00	0	44	102	44040192	7	3823
2026-01-25 15:50:14.80	316.59	21.83	-23.7	-24.1	17.9	0.00e+00	0	44	102	44040192	7	3781
2026-01-25 15:50:17.81	317.10	21.51	-23.7	-24.2	17.8	0.00e+00	0	44	102	44040192	7	3806
2026-01-25 15:50:20.83	317.60	21.19	-23.9	-24.7	17.6	0.00e+00	0	44	102	44040192	7	3923
2026-01-25 15:50:23.85	318.09	20.87	-24.3	-25.0	17.2	0.00e+00	0	44	102	44040192	8	3882
2026-01-25 15:50:26.87	318.57	20.55	-24.4	-25.2	17.1	0.00e+00	0	44	102	44040192	8	3933
2026-01-25 15:50:29.88	319.04	20.24	-24.4	-25.1	17.1	0.00e+00	0	44	102	44040192	8	3921
2026-01-25 15:50:32.90	319.50	19.92	-24.2	-24.7	17.3	0.00e+00	0	44	102	44040192	8	3807
2026-01-25 15:50:35.91	319.96	19.61	-24.6	-25.1	16.8	0.00e+00	0	44	102	44040192	9	3808
2026-01-25 15:50:38.92	320.40	19.31	-24.6	-25.0	16.8	0.00e+00	0	44	102	44040192	9	3785
2026-01-25 15:50:41.94	320.84	19.00	-24.8	-25.4	16.6	0.00e+00	0	44	102	44040192	9	3883
2026-01-25 15:50:44.96	321.26	18.70	-24.4	-24.6	17.0	0.00e+00	0	44	102	44040192	9	3684
2026-01-25 15:50:47.97	321.68	18.40	-24.5	-24.9	16.9	0.00e+00	0	44	102	44040192	9	3751
2026-01-25 15:50:50.99	322.09	18.10	-24.6	-25.0	16.8	0.00e+00	0	44	102	44040192	9	3791
2026-01-25 15:50:54.00	322.50	17.80	-24.7	-25.2	16.7	0.00e+00	0	44	102	44040192	9	3841
2026-01-25 15:50:57.01	322.89	17.51	-24.7	-25.4	16.6	0.00e+00	0	44	102	44040192	9	3868
2026-01-25 15:51:00.01	323.28	17.22	-24.6	-25.0	16.8	0.00e+00	0	44	102	44040192	9	3779
2026-01-25 15:51:03.03	323.66	16.92	-24.5	-24.8	16.9	0.00e+00	0	44	102	44040192	9	3737
2026-01-25 15:51:06.04	324.03	16.64	-24.5	-24.8	16.8	0.00e+00	0	44	102	44040192	9	3738
2026-01-25 15:51:09.04	324.40	16.35	-24.7	-25.2	16.6	0.00e+00	0	44	102	44040192	9	3839
2026-01-25 15:51:12.05	324.76	16.07	-24.8	-25.5	16.5	0.00e+00	0	44	102	44040192	9	3899
2026-01-25 15:51:15.06	325.11	15.79	-25.0	-25.9	16.2	0.00e+00	0	44	102	44040192	9	4005
2026-01-25 15:51:18.07	325.46	15.51	-25.1	-26.1	16.1	0.00e+00	0	44	102	44040192	9	4050
2026-01-25 15:51:21.09	325.80	15.24	-25.2	-25.8	16.0	0.00e+00	0	44	102	44040192	10	3873
2026-01-25 15:51:24.10	326.14	14.96	-25.3	-26.0	15.8	0.00e+00	0	44	102	44040192	10	3930
2026-01-25 15:51:27.12	326.47	14.69	-25.2	-25.9	15.9	0.00e+00	0	44	102	44040192	10	3894
2026-01-25 15:51:30.13	326.79	14.42	-25.3	-26.0	15.8	0.00e+00	0	44	102	44040192	10	3934
2026-01-25 15:51:33.15	327.11	14.15	-25.4	-26.4	15.6	0.00e+00	0	44	102	44040192	10	4011
2026-01-25 15:51:36.17	327.43	13.89	-25.4	-26.4	15.6	0.00e+00	0	45	102	44040192	10	4023
2026-01-25 15:51:39.18	327.74	13.62	-25.6	-26.7	15.5	0.00e+00	0	44	102	44040192	10	4086
2026-01-25 15:51:42.19	328.04	13.36	-25.5	-26.1	15.5	0.00e+00	0	44	102	44040192	11	3835
2026-01-25 15:51:45.20	328.34	13.10	-25.6	-26.2	15.4	0.00e+00	0	44	102	44040192	11	3877
2026-01-25 15:51:48.20	328.63	12.85	-25.9	-26.8	15.1	0.00e+00	0	45	102	44040192	11	4025
2026-01-25 15:51:51.22	328.92	12.59	-25.7	-26.4	15.3	0.00e+00	0	44	102	44040192	11	3930
2026-01-25 15:51:54.24	329.20	12.34	-25.7	-26.4	15.3	0.00e+00	0	44	102	44040192	11	3913
2026-01-25 15:51:57.25	329.48	12.09	-25.8	-26.6	15.1	0.00e+00	0	44	102	44040192	11	3973
2026-01-25 15:52:00.27	329.75	11.84	-25.8	-26.7	15.1	1.10e-06	0	44	102	44040192	11	3994
2026-01-25 15:52:03.27	330.02	11.60	-26.0	-27.1	14.8	0.00e+00	0	44	102	44040192	11	4093
2026-01-25 15:52:06.28	330.29	11.35	-26.1	-27.3	14.7	0.00e+00	0	44	102	44040192	11	4146
2026-01-25 15:52:09.30	330.55	11.11	-26.1	-27.0	14.5	3.40e-06	0	44	102	44040192	12	3966
2026-01-25 15:52:12.31	330.81	10.87	-26.2	-27.1	14.4	1.10e-06	0	44	102	44040192	12	3986
2026-01-25 15:52:15.32	331.06	10.63	-26.2	-27.2	14.3	1.10e-06	0	44	102	44040192	12	4019
2026-01-25 15:52:18.33	331.31	10.39	-26.3	-27.4	14.2	3.40e-06	0	44	102	44040192	12	4089
2026-01-25 15:52:21.34	331.56	10.16	-26.3	-27.3	14.3	1.10e-06	0	44	102	44040192	12	4057
2026-01-25 15:52:24.35	331.80	9.92	-26.2	-27.2	14.3	4.50e-06	0	44	102	44040192	12	4023
2026-01-25 15:52:27.36	332.04	9.69	-26.3	-27.3	14.2	0.00e+00	0	44	102	44040192	12	4058
2026-01-25 15:52:30.37	332.27	9.46	-26.2	-27.3	14.2	1.10e-06	0	44	102	44040192	12	4049
2026-01-25 15:52:33.38	332.50	9.23	-26.2	-27.2	14.2	2.20e-06	0	44	102	44040192	12	4021
2026-01-25 15:52:36.39	332.73	9.01	-26.3	-27.4	14.1	0.00e+00	0	45	102	44040192	12	4076
2026-01-25 15:52:39.40	332.96	8.78	-26.5	-27.7	13.9	2.20e-06	0	44	102	44040192	12	4162
2026-01-25 15:52:42.42	333.18	8.56	-26.8	-28.0	13.4	2.17e-05	0	44	102	44040192	13	4129
2026-01-25 15:52:45.44	333.40	8.34	-26.7	-27.7	13.6	8.00e-06	0	44	102	44040192	13	4055
2026-01-25 15:52:48.46	333.61	8.12	-26.6	-27.6	13.6	1.60e-05	0	44	102	44040192	13	4035
2026-01-25 15:52:51.48	333.83	7.90	-26.7	-27.7	13.5	5.70e-06	0	45	102	44040192	13	4065
2026-01-25 15:52:54.50	334.04	7.68	-26.6	-27.7	13.5	1.02e-05	0	44	102	44040192	13	4061
2026-01-25 15:52:57.52	334.24	7.46	-26.7	-27.7	13.5	6.80e-06	0	44	102	44040192	13	4073
2026-01-25 15:53:00.53	334.45	7.25	-26.7	-27.9	13.4	2.63e-05	0	44	102	44040192	13	4112
2026-01-25 15:53:03.55	334.65	7.04	-32.8	-41.3	3.8	4.15e-03	0	44	104	44040192	25	9637

#Closed at: 2026-01-25 15:53:05
#Recorded file [44 MB]: D:/data/31010_260125_184150.dat