passes_logs/2026/01/25/R2M6_AANII_01/R2M6_AANII_01__20260125_035207_AQUA_rec.log

#Pass ID: 20260125_035207_AQUA
#Satellite: AQUA
#Configuration: AQUA
#almurnet v.1.7.20240730
#Start time: 2026-01-25 03:52:09

#Version: 2.2.20231116
#Station: R2M6_AANII_01
#Location: 30.233357 lon 59.946436 lat
#TLE: 1 27424U 02022A   26024.53919639  .00001970  00000+0  40397-3 0  9996
#TLE: 2 27424  98.4098 351.1277 0001915  66.8561 358.4840 14.61855303262281

#Time	Az	El	Level	Level2	SNR	BER	BlckErr	Temp	State	Recorded	gain1	gain2
2026-01-25 03:52:09.10	5.24	7.11	-32.6	-49.6	3.8	7.45e-01	0	41	0	0	26	25451
2026-01-25 03:52:11.10	5.02	7.24	-32.5	-49.1	3.8	7.44e-01	0	41	104	0	25	24481
2026-01-25 03:52:13.10	4.79	7.37	-32.7	-49.4	3.8	7.46e-01	0	41	104	0	26	24785
2026-01-25 03:52:15.10	4.57	7.50	-32.6	-49.1	3.8	7.45e-01	0	41	104	0	26	23969
2026-01-25 03:52:17.12	4.33	7.64	-32.3	-48.1	3.8	7.46e-01	0	41	104	0	25	22240
2026-01-25 03:52:19.12	4.10	7.77	-32.0	-47.2	3.8	7.44e-01	0	41	104	0	24	20789
2026-01-25 03:52:21.13	3.86	7.90	-32.1	-47.6	3.8	7.43e-01	0	41	104	0	24	21433
2026-01-25 03:52:23.14	3.63	8.03	-31.6	-46.0	3.8	7.42e-01	0	41	104	0	24	18733
2026-01-25 03:52:25.15	3.38	8.17	-31.2	-45.1	3.8	7.41e-01	0	41	104	0	23	17748
2026-01-25 03:52:27.16	3.14	8.30	-31.4	-45.5	3.8	7.46e-01	0	41	104	0	23	18340
2026-01-25 03:52:29.17	2.89	8.43	-31.9	-46.8	3.8	7.46e-01	0	42	104	0	24	20094
2026-01-25 03:52:31.17	2.65	8.57	-32.3	-48.2	3.8	7.46e-01	0	42	104	0	25	22282
2026-01-25 03:52:33.16	2.40	8.70	-32.4	-48.6	3.8	7.44e-01	0	42	104	0	25	23191
2026-01-25 03:52:35.17	2.14	8.83	-32.4	-48.6	3.8	7.44e-01	0	42	104	0	25	23099
2026-01-25 03:52:37.18	1.89	8.97	-32.5	-48.9	3.8	7.46e-01	0	42	104	0	25	23862
2026-01-25 03:52:39.19	1.63	9.11	-32.6	-49.0	3.8	7.46e-01	0	42	104	0	26	23661
2026-01-25 03:52:41.20	1.37	9.24	-32.9	-50.3	3.8	7.45e-01	0	42	104	0	26	26584
2026-01-25 03:52:43.20	1.10	9.38	-33.0	-51.1	3.8	7.48e-01	0	42	104	0	26	28753
2026-01-25 03:52:45.22	0.83	9.51	-33.1	-51.1	3.8	7.47e-01	0	42	104	0	27	28539
2026-01-25 03:52:47.22	0.56	9.65	-33.0	-51.1	3.8	7.47e-01	0	42	104	0	26	28711
2026-01-25 03:52:49.23	0.29	9.79	-33.0	-50.5	3.8	7.46e-01	0	42	104	0	26	27236
2026-01-25 03:52:51.24	0.01	9.92	-32.9	-50.0	3.8	7.44e-01	0	42	104	0	26	25864
2026-01-25 03:52:53.25	359.74	10.06	-32.8	-49.6	3.8	7.45e-01	0	42	104	0	26	24817
2026-01-25 03:52:55.26	359.45	10.20	-32.7	-48.8	3.8	7.46e-01	0	42	104	0	26	23044
2026-01-25 03:52:57.27	359.17	10.33	-32.5	-47.7	3.8	7.44e-01	0	42	104	0	26	20899
2026-01-25 03:52:59.27	358.88	10.47	-32.5	-48.7	3.8	7.44e-01	0	42	104	0	25	23237
2026-01-25 03:53:01.29	358.59	10.61	-32.8	-49.0	3.8	7.50e-01	0	42	104	0	26	23440
2026-01-25 03:53:03.29	358.30	10.75	-32.9	-50.0	3.8	7.43e-01	0	42	104	0	26	25559
2026-01-25 03:53:05.31	358.00	10.89	-32.7	-48.7	3.8	7.45e-01	0	42	104	0	26	22828
2026-01-25 03:53:07.32	357.70	11.03	-32.3	-47.6	3.8	7.44e-01	0	42	104	0	25	20976
2026-01-25 03:53:09.33	357.40	11.16	-31.9	-46.1	3.8	7.44e-01	0	42	104	0	25	18484
2026-01-25 03:53:11.33	357.09	11.30	-31.4	-45.1	3.8	7.45e-01	0	42	104	0	24	17282
2026-01-25 03:53:13.34	356.78	11.44	-30.9	-44.0	3.8	7.48e-01	0	42	104	0	23	16178
2026-01-25 03:53:15.35	356.47	11.58	-30.5	-43.4	3.8	7.46e-01	0	43	104	0	22	15798
2026-01-25 03:53:17.35	356.16	11.72	-30.8	-44.2	3.8	7.45e-01	0	43	104	0	22	16819
2026-01-25 03:53:19.35	355.84	11.86	-31.5	-45.7	3.8	7.45e-01	0	42	104	0	23	18483
2026-01-25 03:53:21.36	355.52	12.00	-32.2	-47.1	3.8	7.44e-01	0	42	104	0	25	20043
2026-01-25 03:53:23.36	355.19	12.13	-32.4	-47.8	3.8	7.47e-01	0	42	104	0	25	21402
2026-01-25 03:53:25.37	354.86	12.27	-32.4	-48.0	3.8	7.45e-01	0	43	104	0	25	21636
2026-01-25 03:53:27.38	354.53	12.41	-32.5	-48.3	3.8	7.46e-01	0	43	104	0	25	22314
2026-01-25 03:53:29.38	354.19	12.55	-32.4	-48.1	3.8	7.45e-01	0	43	104	0	25	21749
2026-01-25 03:53:31.39	353.85	12.69	-32.8	-49.3	3.8	7.46e-01	0	43	104	0	26	23947
2026-01-25 03:53:33.40	353.51	12.83	-33.1	-50.5	3.8	7.47e-01	0	43	104	0	26	26670
2026-01-25 03:53:35.39	353.17	12.97	-33.2	-50.6	3.8	7.45e-01	0	43	104	0	27	26581
2026-01-25 03:53:37.39	352.82	13.10	-33.1	-50.1	3.8	7.45e-01	0	43	104	0	27	25421
2026-01-25 03:53:39.41	352.46	13.24	-33.1	-50.1	3.8	7.44e-01	0	43	104	0	26	25739
2026-01-25 03:53:41.41	352.11	13.38	-33.0	-49.9	3.8	7.45e-01	0	43	104	0	26	25052
2026-01-25 03:53:43.43	351.74	13.52	-32.9	-49.6	3.8	7.46e-01	0	43	104	0	26	24422
2026-01-25 03:53:45.43	351.38	13.66	-32.8	-48.8	3.8	7.44e-01	0	43	104	0	26	22633
2026-01-25 03:53:47.45	351.01	13.80	-32.6	-47.8	3.8	7.43e-01	0	43	104	0	26	20877
2026-01-25 03:53:49.45	350.64	13.93	-32.9	-49.1	3.8	7.44e-01	0	43	104	0	26	23241
2026-01-25 03:53:51.46	350.26	14.07	-33.0	-49.8	3.8	7.45e-01	0	43	104	0	26	24943
2026-01-25 03:53:53.47	349.88	14.21	-32.6	-40.5	4.9	7.11e-01	0	43	104	0	26	8949
2026-01-25 03:53:55.47	349.50	14.34	-32.2	-38.3	13.5	6.03e-01	0	43	102	524288	25	7227
2026-01-25 03:53:57.48	349.11	14.48	-31.7	-36.7	15.2	6.02e-01	0	43	102	524288	24	6392
2026-01-25 03:53:59.49	348.72	14.62	-31.2	-35.4	16.5	6.01e-01	0	43	102	524288	23	5871
2026-01-25 03:54:01.49	348.33	14.75	-30.9	-35.2	16.9	6.01e-01	0	43	102	524288	22	5873
2026-01-25 03:54:03.50	347.93	14.89	-31.2	-35.7	16.3	6.01e-01	0	43	102	524288	23	5997
2026-01-25 03:54:05.51	347.53	15.02	-30.6	-34.2	17.6	6.00e-01	0	43	102	524288	22	5459
2026-01-25 03:54:07.53	347.12	15.15	-30.1	-33.5	18.4	6.00e-01	0	43	102	524288	21	5282
2026-01-25 03:54:09.54	346.71	15.29	-30.1	-33.3	18.5	6.01e-01	0	43	102	524288	21	5201
2026-01-25 03:54:11.55	346.29	15.42	-29.9	-33.3	18.8	6.00e-01	0	43	102	524288	20	5330
2026-01-25 03:54:13.56	345.87	15.55	-30.0	-33.5	18.7	6.01e-01	0	43	102	524288	20	5395
2026-01-25 03:54:15.58	345.44	15.68	-30.0	-33.6	18.7	5.99e-01	0	43	102	524288	20	5426
2026-01-25 03:54:17.59	345.02	15.81	-29.8	-32.6	18.9	6.03e-01	0	43	102	524288	21	4932
2026-01-25 03:54:19.60	344.59	15.94	-29.6	-32.6	19.2	6.01e-01	0	43	102	524288	20	5049
2026-01-25 03:54:21.60	344.15	16.07	-29.6	-32.5	19.3	6.01e-01	0	43	102	524288	20	5007
2026-01-25 03:54:23.61	343.71	16.20	-29.6	-32.6	19.3	6.02e-01	0	43	102	524288	20	5047
2026-01-25 03:54:25.62	343.27	16.33	-29.6	-32.3	19.4	5.99e-01	0	43	102	524288	20	4960
2026-01-25 03:54:27.63	342.82	16.45	-29.6	-32.4	19.3	6.01e-01	0	43	102	524288	20	4994
2026-01-25 03:54:29.64	342.37	16.58	-29.7	-32.7	19.3	6.00e-01	0	43	102	524288	20	5073
2026-01-25 03:54:31.65	341.91	16.70	-29.6	-32.4	19.4	5.99e-01	0	43	102	524288	20	4969
2026-01-25 03:54:33.65	341.46	16.82	-29.7	-32.7	19.3	6.01e-01	0	43	102	524288	20	5082
2026-01-25 03:54:35.66	340.99	16.95	-29.7	-32.7	19.3	6.02e-01	0	43	102	524288	20	5096
2026-01-25 03:54:37.67	340.53	17.07	-29.6	-32.4	19.4	5.99e-01	0	43	102	524288	20	4982
2026-01-25 03:54:39.68	340.05	17.19	-29.6	-32.3	19.5	6.03e-01	0	43	102	524288	20	4942
2026-01-25 03:54:41.69	339.58	17.30	-29.7	-32.6	19.3	6.01e-01	0	43	102	524288	20	5065
2026-01-25 03:54:43.71	339.10	17.42	-29.9	-33.2	19.0	5.99e-01	0	43	102	524288	20	5274
2026-01-25 03:54:45.72	338.61	17.54	-29.8	-33.0	19.1	6.02e-01	0	43	102	524288	20	5207
2026-01-25 03:54:47.72	338.13	17.65	-28.1	-31.4	19.3	6.06e-01	0	43	102	524288	19	5284
2026-01-25 03:54:49.73	337.63	17.76	-29.8	-33.1	19.1	6.03e-01	0	43	102	524288	20	5216
2026-01-25 03:54:51.74	337.14	17.87	-29.7	-32.7	17.9	6.01e-01	0	43	102	524288	20	5099
2026-01-25 03:54:53.75	336.64	17.98	-29.7	-32.7	18.2	6.04e-01	0	43	102	524288	20	5084
2026-01-25 03:54:55.75	336.14	18.09	-29.6	-32.3	19.5	6.00e-01	0	43	102	524288	20	4956
2026-01-25 03:54:57.74	335.64	18.20	-29.7	-32.7	19.2	5.99e-01	0	43	102	524288	20	5083
2026-01-25 03:54:59.74	335.13	18.30	-29.7	-32.8	19.0	6.01e-01	0	43	102	524288	20	5124
2026-01-25 03:55:01.76	334.61	18.40	-29.6	-32.4	19.4	6.03e-01	0	43	102	524288	20	4985
2026-01-25 03:55:03.75	334.10	18.50	-29.6	-32.5	19.4	5.99e-01	0	43	102	524288	20	5006
2026-01-25 03:55:05.76	333.57	18.60	-29.8	-33.1	19.0	5.99e-01	0	43	102	524288	20	5215
2026-01-25 03:55:07.76	333.05	18.70	-29.6	-32.5	19.4	6.01e-01	0	43	102	524288	20	5017
2026-01-25 03:55:09.77	332.52	18.79	-29.6	-32.5	19.3	6.03e-01	0	43	102	524288	20	5024
2026-01-25 03:55:11.77	331.99	18.89	-29.7	-32.7	19.2	6.03e-01	0	43	102	524288	20	5082
2026-01-25 03:55:13.78	331.46	18.98	-29.8	-33.0	19.1	6.01e-01	0	43	102	524288	20	5189
2026-01-25 03:55:15.79	330.92	19.06	-29.7	-32.6	19.3	6.02e-01	0	43	102	524288	20	5060
2026-01-25 03:55:17.80	330.37	19.15	-29.7	-32.7	19.2	6.01e-01	0	43	102	524288	20	5075
2026-01-25 03:55:19.81	329.83	19.24	-29.9	-33.1	19.0	5.99e-01	0	43	102	524288	20	5235
2026-01-25 03:55:21.81	329.28	19.32	-30.0	-33.4	18.8	6.03e-01	0	43	102	524288	20	5328
2026-01-25 03:55:23.82	328.73	19.40	-29.7	-32.8	19.2	6.00e-01	0	43	102	524288	20	5097
2026-01-25 03:55:25.82	328.17	19.47	-29.7	-32.8	19.2	6.01e-01	0	43	102	524288	20	5103
2026-01-25 03:55:27.83	327.62	19.55	-29.7	-32.8	19.2	6.05e-01	0	43	102	524288	20	5102
2026-01-25 03:55:29.84	327.05	19.62	-29.6	-32.5	19.4	6.01e-01	0	43	102	524288	20	4996
2026-01-25 03:55:31.84	326.49	19.69	-29.8	-32.8	19.2	6.01e-01	0	43	102	524288	20	5115
2026-01-25 03:55:33.85	325.93	19.76	-29.7	-32.7	19.3	5.98e-01	0	43	102	524288	20	5075
2026-01-25 03:55:35.87	325.35	19.82	-29.7	-32.7	19.3	6.02e-01	0	43	102	524288	20	5065
2026-01-25 03:55:37.88	324.78	19.88	-29.7	-32.8	19.2	6.02e-01	0	43	102	524288	20	5105
2026-01-25 03:55:39.89	324.21	19.94	-29.7	-32.7	19.3	6.00e-01	0	43	102	524288	20	5100
2026-01-25 03:55:41.90	323.63	20.00	-29.8	-33.0	19.2	6.03e-01	0	43	102	524288	20	5179
2026-01-25 03:55:43.91	323.05	20.05	-29.9	-33.1	19.0	6.01e-01	0	43	102	524288	20	5234
2026-01-25 03:55:45.93	322.47	20.10	-29.8	-33.0	19.1	6.03e-01	0	43	102	524288	20	5191
2026-01-25 03:55:47.93	321.89	20.15	-30.0	-33.4	18.9	6.01e-01	0	43	102	524288	20	5348
2026-01-25 03:55:49.94	321.30	20.20	-29.9	-33.1	19.0	6.00e-01	0	43	102	524288	20	5242
2026-01-25 03:55:51.95	320.72	20.24	-29.9	-33.3	18.9	6.02e-01	0	43	102	524288	20	5311
2026-01-25 03:55:53.94	320.13	20.28	-29.9	-33.3	19.0	6.03e-01	0	43	102	524288	20	5298
2026-01-25 03:55:55.94	319.55	20.31	-29.9	-33.3	19.0	5.99e-01	0	43	102	524288	20	5287
2026-01-25 03:55:57.95	318.95	20.34	-30.0	-33.5	18.8	6.02e-01	0	43	102	524288	20	5376
2026-01-25 03:55:59.96	318.36	20.37	-29.9	-33.3	18.9	6.02e-01	0	43	102	524288	20	5309
2026-01-25 03:56:01.96	317.77	20.40	-30.1	-33.2	18.6	5.99e-01	0	43	102	524288	21	5148
2026-01-25 03:56:03.97	317.18	20.43	-30.0	-33.5	18.8	6.01e-01	0	43	102	524288	20	5397
2026-01-25 03:56:05.97	316.58	20.45	-29.9	-33.1	19.0	6.01e-01	0	43	102	524288	20	5226
2026-01-25 03:56:07.98	315.99	20.46	-30.0	-33.3	18.9	6.00e-01	0	43	102	524288	20	5320
2026-01-25 03:56:09.99	315.39	20.48	-30.2	-33.5	18.5	6.02e-01	0	43	102	524288	21	5275
2026-01-25 03:56:12.01	314.79	20.49	-29.9	-33.3	18.9	6.02e-01	0	43	102	524288	20	5295
2026-01-25 03:56:14.01	314.19	20.50	-30.2	-33.4	18.6	5.99e-01	0	43	102	524288	21	5244
2026-01-25 03:56:16.01	313.60	20.50	-30.3	-33.9	18.2	6.01e-01	0	43	102	524288	21	5422
2026-01-25 03:56:18.02	313.00	20.51	-30.8	-34.7	17.3	6.01e-01	0	43	102	524288	22	5660
2026-01-25 03:56:20.03	312.40	20.50	-30.5	-33.9	17.9	5.98e-01	0	43	102	524288	22	5322
2026-01-25 03:56:22.03	311.80	20.50	-30.7	-34.3	17.6	6.00e-01	0	43	102	524288	22	5472
2026-01-25 03:56:24.04	311.20	20.49	-30.8	-34.6	17.3	6.03e-01	0	43	102	524288	22	5618
2026-01-25 03:56:26.04	310.61	20.48	-30.5	-34.0	17.7	6.04e-01	0	43	102	524288	22	5335
2026-01-25 03:56:28.06	310.01	20.47	-30.6	-34.0	17.8	6.00e-01	0	43	102	524288	22	5333
2026-01-25 03:56:30.07	309.41	20.45	-30.8	-34.6	16.0	6.02e-01	0	43	102	524288	22	5587
2026-01-25 03:56:32.08	308.81	20.43	-30.8	-34.7	16.1	5.98e-01	0	43	102	524288	22	5632
2026-01-25 03:56:34.08	308.22	20.41	-30.0	-32.4	18.9	6.01e-01	0	43	102	524288	22	4731
2026-01-25 03:56:36.10	307.62	20.38	-30.4	-34.1	18.2	6.00e-01	0	43	102	524288	21	5493
2026-01-25 03:56:38.10	307.03	20.35	-29.8	-33.0	19.1	5.99e-01	0	43	102	524288	20	5170
2026-01-25 03:56:40.10	306.44	20.32	-30.1	-33.3	18.6	6.01e-01	0	43	102	524288	21	5172
2026-01-25 03:56:42.11	305.85	20.29	-29.8	-32.8	19.2	6.00e-01	0	43	102	524288	20	5115
2026-01-25 03:56:44.11	305.26	20.25	-30.2	-33.5	18.5	6.01e-01	0	43	102	524288	21	5266
2026-01-25 03:56:46.13	304.67	20.21	-30.1	-33.3	18.5	6.01e-01	0	43	102	524288	21	5202
2026-01-25 03:56:48.14	304.09	20.16	-30.3	-33.7	18.3	6.03e-01	0	43	102	524288	21	5358
2026-01-25 03:56:50.14	303.51	20.11	-29.7	-32.7	19.2	5.99e-01	0	43	102	524288	20	5095
2026-01-25 03:56:52.15	302.92	20.06	-30.0	-32.9	18.9	6.01e-01	0	43	102	524288	21	5033
2026-01-25 03:56:54.16	302.34	20.01	-29.9	-32.8	18.9	6.01e-01	0	43	102	524288	21	5008
2026-01-25 03:56:56.16	301.77	19.96	-29.8	-33.0	19.1	5.98e-01	0	43	102	524288	20	5167
2026-01-25 03:56:58.17	301.19	19.90	-29.6	-32.5	19.4	6.04e-01	0	44	102	524288	20	5000
2026-01-25 03:57:00.18	300.62	19.84	-30.2	-33.6	18.5	6.03e-01	0	43	102	524288	21	5310
2026-01-25 03:57:02.20	300.04	19.77	-30.0	-33.4	18.8	6.01e-01	0	43	102	524288	20	5335
2026-01-25 03:57:04.21	299.48	19.71	-30.3	-33.8	18.3	5.98e-01	0	44	102	524288	21	5397
2026-01-25 03:57:06.22	298.91	19.64	-30.5	-34.4	18.0	6.00e-01	0	43	102	524288	21	5652
2026-01-25 03:57:08.23	298.35	19.57	-30.4	-34.1	18.0	6.01e-01	0	43	102	524288	21	5527
2026-01-25 03:57:10.24	297.79	19.49	-30.2	-33.4	18.4	6.02e-01	0	44	102	524288	21	5256
2026-01-25 03:57:12.24	297.23	19.42	-30.2	-33.5	18.3	6.01e-01	0	43	102	524288	21	5299
2026-01-25 03:57:14.26	296.67	19.34	-30.4	-34.2	17.9	6.02e-01	0	44	102	524288	21	5578
2026-01-25 03:57:16.26	296.13	19.25	-30.3	-33.8	18.2	6.01e-01	0	43	102	524288	21	5378
2026-01-25 03:57:18.26	295.58	19.17	-30.1	-33.7	18.6	6.01e-01	0	43	102	524288	20	5451
2026-01-25 03:57:20.27	295.03	19.09	-30.0	-33.6	18.7	6.01e-01	0	44	102	524288	20	5422
2026-01-25 03:57:22.27	294.50	19.00	-30.1	-33.3	18.5	6.00e-01	0	44	102	524288	21	5219
2026-01-25 03:57:24.28	293.96	18.91	-30.2	-33.5	18.2	6.01e-01	0	44	102	524288	21	5288
2026-01-25 03:57:26.30	293.42	18.81	-30.1	-33.4	18.3	6.02e-01	0	43	102	524288	21	5258
2026-01-25 03:57:28.30	292.89	18.72	-30.5	-34.0	17.6	6.04e-01	0	43	102	524288	22	5373
2026-01-25 03:57:30.31	292.36	18.62	-30.0	-33.5	18.6	6.02e-01	0	44	102	524288	20	5400
2026-01-25 03:57:32.32	291.84	18.52	-29.9	-33.2	18.8	6.01e-01	0	43	102	524288	20	5284
2026-01-25 03:57:34.32	291.32	18.42	-29.7	-32.8	19.1	6.01e-01	0	43	102	524288	20	5119
2026-01-25 03:57:36.33	290.80	18.32	-29.7	-32.9	19.0	6.00e-01	0	43	102	524288	20	5156
2026-01-25 03:57:38.33	290.29	18.22	-30.0	-33.6	18.6	6.02e-01	0	43	102	524288	20	5452
2026-01-25 03:57:40.35	289.78	18.11	-30.1	-33.8	18.4	6.02e-01	0	44	102	524288	20	5552
2026-01-25 03:57:42.36	289.27	18.00	-30.4	-34.2	17.8	5.99e-01	0	43	102	524288	21	5581
2026-01-25 03:57:44.35	288.78	17.90	-29.9	-33.3	18.7	6.01e-01	0	43	102	524288	20	5342
2026-01-25 03:57:46.36	288.28	17.78	-30.2	-33.6	18.2	5.99e-01	0	43	102	524288	21	5331
2026-01-25 03:57:48.37	287.78	17.67	-29.8	-32.5	18.9	6.00e-01	0	43	102	524288	21	4912
2026-01-25 03:57:50.37	287.29	17.56	-29.9	-32.7	18.8	6.01e-01	0	43	102	524288	21	4981
2026-01-25 03:57:52.39	286.81	17.44	-30.3	-33.9	18.0	6.02e-01	0	43	102	524288	21	5444
2026-01-25 03:57:54.40	286.32	17.33	-30.4	-34.3	17.7	6.00e-01	0	44	102	524288	21	5660
2026-01-25 03:57:56.40	285.85	17.21	-30.6	-34.8	17.5	6.02e-01	0	43	102	524288	21	5858
2026-01-25 03:57:58.41	285.37	17.09	-29.9	-32.8	16.9	6.05e-01	0	43	102	524288	21	5041
2026-01-25 03:58:00.41	284.90	16.97	-29.8	-32.7	18.7	6.00e-01	0	43	102	524288	21	5002
2026-01-25 03:58:02.41	284.44	16.85	-30.4	-34.2	16.1	6.03e-01	0	43	102	524288	21	5611
2026-01-25 03:58:04.42	283.98	16.72	-30.3	-34.0	17.6	5.99e-01	0	43	102	524288	21	5519
2026-01-25 03:58:06.42	283.52	16.60	-30.0	-33.0	18.5	5.99e-01	0	44	102	524288	21	5107
2026-01-25 03:58:08.43	283.07	16.48	-30.0	-33.2	18.3	6.00e-01	0	44	102	524288	21	5185
2026-01-25 03:58:10.45	282.61	16.35	-30.1	-34.0	18.2	6.01e-01	0	44	102	524288	20	5620
2026-01-25 03:58:12.45	282.17	16.22	-29.3	-32.3	19.6	6.01e-01	0	44	102	524288	19	5068
2026-01-25 03:58:14.46	281.73	16.09	-29.7	-32.8	18.8	6.00e-01	0	44	102	524288	20	5166
2026-01-25 03:58:16.46	281.29	15.97	-29.7	-32.9	18.7	6.01e-01	0	44	102	524288	20	5184
2026-01-25 03:58:18.45	280.86	15.84	-29.5	-32.3	18.9	6.01e-01	0	43	102	524288	20	4999
2026-01-25 03:58:20.45	280.43	15.71	-29.6	-32.6	18.8	5.99e-01	0	44	102	524288	20	5090
2026-01-25 03:58:22.46	280.01	15.58	-29.4	-32.6	19.1	6.00e-01	0	43	102	524288	19	5197
2026-01-25 03:58:24.47	279.58	15.44	-29.4	-32.6	19.0	6.00e-01	0	44	102	524288	19	5186
2026-01-25 03:58:26.48	279.17	15.31	-29.6	-33.0	18.7	5.99e-01	0	43	102	524288	19	5338
2026-01-25 03:58:28.48	278.75	15.18	-29.3	-32.3	19.2	6.01e-01	0	44	102	524288	19	5066
2026-01-25 03:58:30.49	278.34	15.04	-29.5	-32.9	18.8	6.00e-01	0	44	102	524288	19	5297
2026-01-25 03:58:32.50	277.94	14.91	-29.5	-32.7	19.0	5.99e-01	0	43	102	524288	19	5242
2026-01-25 03:58:34.50	277.54	14.77	-29.6	-32.6	18.8	6.01e-01	0	43	102	524288	20	5106
2026-01-25 03:58:36.51	277.14	14.64	-29.5	-32.3	19.0	6.01e-01	0	43	102	524288	20	4998
2026-01-25 03:58:38.51	276.75	14.50	-29.3	-32.3	19.4	5.99e-01	0	43	102	524288	19	5100
2026-01-25 03:58:40.53	276.35	14.37	-29.2	-32.2	19.5	6.02e-01	0	43	102	524288	19	5039
2026-01-25 03:58:42.53	275.97	14.23	-29.3	-32.2	19.4	6.02e-01	0	43	102	524288	19	5063
2026-01-25 03:58:44.53	275.59	14.09	-29.3	-32.3	19.4	6.00e-01	0	44	102	524288	19	5095
2026-01-25 03:58:46.54	275.21	13.96	-29.2	-32.1	19.6	6.01e-01	0	43	102	524288	19	5034
2026-01-25 03:58:48.55	274.83	13.82	-29.3	-32.5	19.3	6.01e-01	0	43	102	524288	19	5156
2026-01-25 03:58:50.56	274.46	13.68	-29.2	-32.2	19.5	6.01e-01	0	43	102	524288	19	5052
2026-01-25 03:58:52.56	274.09	13.54	-29.4	-32.7	19.2	6.01e-01	0	43	102	524288	19	5248
2026-01-25 03:58:54.56	273.73	13.40	-29.5	-32.8	19.1	6.01e-01	0	43	102	524288	19	5269
2026-01-25 03:58:56.57	273.37	13.26	-29.5	-32.3	19.0	5.99e-01	0	43	102	524288	20	4984
2026-01-25 03:58:58.58	273.01	13.12	-29.4	-32.7	19.1	6.02e-01	0	43	102	524288	19	5261
2026-01-25 03:59:00.58	272.66	12.99	-29.6	-32.6	18.8	5.99e-01	0	43	102	524288	20	5118
2026-01-25 03:59:02.59	272.31	12.85	-29.5	-32.4	18.9	6.02e-01	0	43	102	524288	20	5035
2026-01-25 03:59:04.59	271.97	12.71	-29.6	-33.1	18.9	6.00e-01	0	44	102	524288	19	5397
2026-01-25 03:59:06.60	271.63	12.57	-29.7	-33.1	18.4	5.99e-01	0	44	102	524288	20	5319
2026-01-25 03:59:08.61	271.29	12.43	-29.4	-32.1	19.1	6.00e-01	0	43	102	524288	20	4931
2026-01-25 03:59:10.62	270.95	12.29	-29.3	-32.5	19.3	6.02e-01	0	43	102	524288	19	5165
2026-01-25 03:59:12.62	270.62	12.15	-29.5	-32.8	19.0	6.03e-01	0	44	102	524288	19	5303
2026-01-25 03:59:14.64	270.29	12.01	-29.5	-33.0	18.9	6.02e-01	0	44	102	524288	19	5382
2026-01-25 03:59:16.65	269.96	11.87	-29.4	-32.7	19.0	6.03e-01	0	43	102	524288	19	5254
2026-01-25 03:59:18.65	269.64	11.73	-29.4	-32.6	19.1	6.00e-01	0	44	102	524288	19	5215
2026-01-25 03:59:20.66	269.33	11.59	-29.5	-32.9	18.9	6.00e-01	0	44	102	524288	19	5333
2026-01-25 03:59:22.66	269.01	11.45	-29.5	-33.1	18.8	6.01e-01	0	44	102	524288	19	5406
2026-01-25 03:59:24.67	268.70	11.31	-29.4	-32.8	18.9	5.98e-01	0	44	102	524288	19	5303
2026-01-25 03:59:26.67	268.39	11.18	-29.5	-33.1	18.8	5.98e-01	0	43	102	524288	19	5405
2026-01-25 03:59:28.68	268.09	11.04	-29.5	-32.9	18.9	6.01e-01	0	44	102	524288	19	5343
2026-01-25 03:59:30.69	267.78	10.90	-29.5	-33.1	18.7	6.02e-01	0	44	102	524288	19	5426
2026-01-25 03:59:32.70	267.48	10.76	-29.5	-32.5	18.6	6.00e-01	0	44	102	524288	20	5086
2026-01-25 03:59:34.71	267.19	10.62	-28.1	-31.9	18.6	5.99e-01	0	44	102	524288	18	5602
2026-01-25 03:59:36.72	266.89	10.48	-29.6	-33.4	17.9	6.14e-01	0	44	102	524288	19	5571
2026-01-25 03:59:38.72	266.60	10.34	-29.6	-33.0	17.6	6.06e-01	0	44	102	524288	20	5283
2026-01-25 03:59:40.73	266.32	10.20	-29.7	-33.1	16.8	6.00e-01	0	44	102	524288	20	5335
2026-01-25 03:59:42.73	266.03	10.07	-29.6	-33.0	18.2	6.01e-01	0	44	102	524288	20	5287
2026-01-25 03:59:44.73	265.75	9.93	-29.6	-33.0	18.3	6.02e-01	0	44	102	524288	20	5310
2026-01-25 03:59:46.74	265.48	9.79	-29.6	-32.9	18.3	6.01e-01	0	44	102	524288	20	5261
2026-01-25 03:59:48.75	265.20	9.66	-29.6	-33.0	18.3	6.02e-01	0	44	102	524288	20	5304
2026-01-25 03:59:50.76	264.93	9.52	-29.7	-33.2	18.1	6.00e-01	0	44	102	524288	20	5398
2026-01-25 03:59:52.77	264.66	9.38	-29.8	-33.6	17.8	6.00e-01	0	44	102	524288	20	5539
2026-01-25 03:59:54.78	264.39	9.25	-29.7	-33.1	18.1	6.00e-01	0	44	102	524288	20	5368
2026-01-25 03:59:56.80	264.12	9.11	-29.7	-33.3	17.9	6.01e-01	0	44	102	524288	20	5456
2026-01-25 03:59:58.81	263.86	8.97	-29.6	-32.9	18.2	6.01e-01	0	44	102	524288	20	5270
2026-01-25 04:00:00.82	263.60	8.84	-29.6	-32.9	18.2	6.03e-01	0	44	102	524288	20	5283
2026-01-25 04:00:02.82	263.35	8.70	-29.7	-33.2	17.9	6.01e-01	0	44	102	524288	20	5418
2026-01-25 04:00:04.83	263.09	8.57	-29.8	-33.5	17.8	6.01e-01	0	44	102	524288	20	5515
2026-01-25 04:00:06.84	262.84	8.43	-29.8	-33.5	17.8	6.01e-01	0	44	102	524288	20	5553
2026-01-25 04:00:08.84	262.59	8.30	-29.8	-33.7	17.5	6.03e-01	0	44	102	524288	20	5619
2026-01-25 04:00:10.86	262.35	8.16	-29.7	-33.5	17.7	6.03e-01	0	44	102	524288	20	5528
2026-01-25 04:00:12.87	262.10	8.03	-29.9	-33.8	17.6	6.02e-01	0	44	102	524288	20	5663
2026-01-25 04:00:14.89	261.86	7.90	-29.7	-33.4	17.9	6.03e-01	0	43	102	524288	20	5484
2026-01-25 04:00:16.90	261.62	7.76	-29.7	-33.4	17.8	6.00e-01	0	43	102	524288	20	5493
2026-01-25 04:00:18.89	261.39	7.63	-29.8	-33.8	17.5	6.01e-01	0	44	102	524288	20	5660
2026-01-25 04:00:20.90	261.15	7.50	-29.8	-33.7	17.6	6.00e-01	0	43	102	524288	20	5620
2026-01-25 04:00:22.92	260.92	7.37	-29.9	-34.1	17.2	6.00e-01	0	44	102	524288	20	5835
2026-01-25 04:00:24.93	260.69	7.23	-29.8	-33.7	17.5	6.00e-01	0	44	102	524288	20	5642
2026-01-25 04:00:26.93	260.46	7.10	-29.9	-33.9	17.4	6.02e-01	0	44	102	524288	20	5727
2026-01-25 04:00:28.94	260.24	6.97	-33.6	-53.1	3.8	7.48e-01	0	44	104	524288	27	34235
2026-01-25 04:00:30.93	260.02	6.84	-34.1	-53.7	3.8	7.47e-01	0	43	104	524288	28	34514

#Closed at: 2026-01-25 04:00:31
#Recorded file [0 MB]: D:/data/31010_260125_065355.dat