passes_logs/2026/01/25/R2M6_AANII_01/R2M6_AANII_01__20260125_040542_FENGYUN_3D_rec.log

#Pass ID: 20260125_040542_FENGYUN 3D
#Satellite: FENGYUN 3D
#Configuration: FENGYUN 3D
#almurnet v.1.7.20240730
#Start time: 2026-01-25 04:05:42

#Version: 2.2.20231116
#Station: R2M6_AANII_01
#Location: 30.233357 lon 59.946436 lat
#TLE: 1 43010U 17072A   26024.51794477  .00000040  00000+0  40682-4 0  9990
#TLE: 2 43010  98.9961 356.4820 0002494  91.2631 268.8830 14.19699550424601

#Time	Az	El	Level	Level2	SNR	BER	BlckErr	Temp	State	Recorded	gain1	gain2
2026-01-25 04:05:42.07	11.88	6.99	-31.0	-35.8	4.8	8.10e-01	0	41	0	0	22	6207
2026-01-25 04:05:45.08	11.65	7.19	-30.5	-34.3	8.2	5.30e-02	0	41	102	1048576	21	5566
2026-01-25 04:05:48.10	11.41	7.40	-30.6	-34.5	8.1	5.17e-02	0	41	102	1048576	21	5646
2026-01-25 04:05:51.11	11.16	7.60	-29.6	-32.3	10.0	7.23e-03	0	42	102	1048576	20	4889
2026-01-25 04:05:54.13	10.91	7.81	-28.1	-30.0	12.5	1.14e-04	0	42	102	1048576	17	4456
2026-01-25 04:05:57.15	10.66	8.02	-27.2	-29.1	13.8	5.70e-06	0	42	102	1048576	14	4504
2026-01-25 04:06:00.15	10.41	8.23	-27.4	-29.6	13.6	4.50e-06	0	42	102	1048576	14	4640
2026-01-25 04:06:03.16	10.15	8.44	-27.2	-29.2	13.8	1.10e-06	0	42	102	1048576	14	4521
2026-01-25 04:06:06.18	9.89	8.65	-27.4	-29.6	13.6	6.80e-06	0	42	102	1048576	14	4661
2026-01-25 04:06:09.19	9.62	8.86	-26.9	-28.9	14.3	1.25e-05	0	42	102	1048576	13	4557
2026-01-25 04:06:12.20	9.35	9.07	-26.8	-28.9	14.3	5.70e-06	0	42	102	1048576	13	4541
2026-01-25 04:06:15.22	9.07	9.29	-26.6	-28.4	14.6	1.10e-06	0	43	102	1048576	13	4406
2026-01-25 04:06:18.23	8.80	9.51	-26.5	-28.0	14.9	5.83e-05	0	42	102	1048576	13	4306
2026-01-25 04:06:21.24	8.51	9.72	-26.6	-28.3	14.7	6.06e-05	0	42	102	1048576	13	4371
2026-01-25 04:06:24.26	8.22	9.94	-26.4	-28.4	15.0	7.66e-05	0	42	102	1048576	12	4517
2026-01-25 04:06:27.27	7.93	10.16	-26.3	-28.1	15.2	8.58e-05	0	42	102	1048576	12	4416
2026-01-25 04:06:30.30	7.63	10.38	-26.4	-28.2	15.1	6.63e-05	0	43	102	1048576	12	4472
2026-01-25 04:06:33.31	7.33	10.61	-26.3	-28.1	15.2	5.70e-06	0	43	102	1048576	12	4429
2026-01-25 04:06:36.32	7.02	10.83	-26.2	-27.8	15.4	0.00e+00	0	43	102	1048576	12	4339
2026-01-25 04:06:39.34	6.71	11.06	-26.1	-27.7	15.5	0.00e+00	0	43	102	1048576	12	4314
2026-01-25 04:06:42.36	6.39	11.28	-26.2	-27.8	15.4	0.00e+00	0	43	102	1048576	12	4340
2026-01-25 04:06:45.38	6.07	11.51	-26.0	-27.5	15.6	0.00e+00	0	43	102	1048576	12	4259
2026-01-25 04:06:48.39	5.74	11.74	-25.9	-27.3	15.7	0.00e+00	0	43	102	1048576	12	4197
2026-01-25 04:06:51.41	5.41	11.97	-26.1	-27.6	15.6	0.00e+00	0	43	102	1048576	12	4286
2026-01-25 04:06:54.43	5.07	12.20	-26.1	-27.6	15.6	0.00e+00	0	43	102	1048576	12	4281
2026-01-25 04:06:57.44	4.73	12.43	-26.1	-27.7	15.6	0.00e+00	0	43	102	1048576	12	4303
2026-01-25 04:07:00.46	4.38	12.66	-25.9	-27.1	15.9	0.00e+00	0	43	102	1048576	12	4157
2026-01-25 04:07:03.49	4.02	12.90	-26.0	-27.8	15.8	0.00e+00	0	43	102	1048576	11	4451
2026-01-25 04:07:06.50	3.66	13.13	-26.0	-27.3	15.8	0.00e+00	0	43	102	1048576	12	4207
2026-01-25 04:07:09.52	3.30	13.37	-25.9	-27.2	15.9	0.00e+00	0	43	102	1048576	12	4170
2026-01-25 04:07:12.54	2.92	13.61	-25.8	-27.5	16.0	0.00e+00	0	43	102	1048576	11	4356
2026-01-25 04:07:15.55	2.54	13.85	-25.7	-27.2	16.2	0.00e+00	0	43	102	1048576	11	4275
2026-01-25 04:07:18.57	2.16	14.09	-25.6	-26.9	16.4	0.00e+00	0	43	102	1048576	11	4207
2026-01-25 04:07:21.58	1.77	14.33	-25.5	-26.8	16.5	0.00e+00	0	43	102	1048576	11	4174
2026-01-25 04:07:24.60	1.37	14.57	-25.5	-26.7	16.5	1.34e-03	0	43	102	1048576	11	4161
2026-01-25 04:07:27.60	0.96	14.81	-25.6	-26.9	16.4	0.00e+00	0	43	102	1048576	11	4207
2026-01-25 04:07:30.61	0.55	15.06	-25.2	-26.1	16.9	0.00e+00	0	43	102	1048576	11	4003
2026-01-25 04:07:33.61	0.14	15.30	-25.1	-26.5	16.9	0.00e+00	0	43	102	1048576	10	4211
2026-01-25 04:07:36.63	359.71	15.55	-25.1	-26.4	17.0	1.31e-03	0	43	102	1048576	10	4192
2026-01-25 04:07:39.65	359.27	15.79	-25.1	-26.4	17.0	7.48e-04	0	43	102	1048576	10	4188
2026-01-25 04:07:42.66	358.83	16.04	-24.9	-26.0	17.2	1.24e-03	0	43	102	1048576	10	4093
2026-01-25 04:07:45.68	358.39	16.29	-25.0	-26.2	17.1	1.15e-03	0	43	102	1048576	10	4135
2026-01-25 04:07:48.69	357.93	16.54	-25.1	-26.3	17.1	1.08e-03	0	43	102	1048576	10	4158
2026-01-25 04:07:51.71	357.47	16.79	-24.8	-25.9	17.3	0.00e+00	0	44	102	1048576	10	4044
2026-01-25 04:07:54.72	356.99	17.04	-24.9	-26.0	17.3	1.11e-03	0	43	102	1048576	10	4070
2026-01-25 04:07:57.73	356.52	17.29	-24.9	-26.0	17.3	9.55e-04	0	43	102	1048576	10	4077
2026-01-25 04:08:00.74	356.03	17.54	-24.9	-25.9	17.3	0.00e+00	0	43	102	1048576	10	4059
2026-01-25 04:08:03.75	355.53	17.79	-24.7	-26.0	17.6	0.00e+00	0	44	102	1048576	9	4181
2026-01-25 04:08:06.77	355.03	18.04	-24.5	-25.5	17.8	7.62e-04	0	44	102	1048576	9	4070
2026-01-25 04:08:09.78	354.51	18.29	-24.4	-25.5	17.9	0.00e+00	0	43	102	1048576	9	4055
2026-01-25 04:08:12.80	353.99	18.54	-24.6	-25.8	17.7	0.00e+00	0	43	102	1048576	9	4142
2026-01-25 04:08:15.81	353.46	18.80	-24.5	-25.7	17.8	0.00e+00	0	43	102	1048576	9	4101
2026-01-25 04:08:18.81	352.92	19.05	-24.3	-25.1	18.0	0.00e+00	0	44	102	1048576	9	3971
2026-01-25 04:08:21.83	352.37	19.30	-24.1	-25.2	18.3	0.00e+00	0	43	102	1048576	8	4086
2026-01-25 04:08:24.83	351.82	19.55	-24.3	-25.8	18.0	0.00e+00	0	43	102	1048576	8	4244
2026-01-25 04:08:27.83	351.25	19.80	-24.4	-25.5	17.9	0.00e+00	0	44	102	1048576	9	4053
2026-01-25 04:08:30.84	350.68	20.05	-24.4	-25.9	17.9	0.00e+00	0	44	102	1048576	8	4270
2026-01-25 04:08:33.86	350.09	20.30	-24.6	-25.9	17.7	0.00e+00	0	44	102	1048576	9	4169
2026-01-25 04:08:36.86	349.49	20.55	-24.4	-25.3	18.0	0.00e+00	0	44	102	1048576	9	4014
2026-01-25 04:08:39.88	348.89	20.80	-24.2	-25.4	18.2	0.00e+00	0	44	102	1048576	8	4160
2026-01-25 04:08:42.89	348.27	21.05	-24.2	-25.4	18.2	0.00e+00	0	44	102	1048576	8	4148
2026-01-25 04:08:45.91	347.64	21.29	-24.0	-25.0	18.4	0.00e+00	0	44	102	1048576	8	4041
2026-01-25 04:08:48.93	347.00	21.54	-23.8	-24.7	18.6	0.00e+00	0	43	102	1048576	8	3966
2026-01-25 04:08:51.94	346.36	21.78	-23.6	-24.3	17.8	0.00e+00	0	44	102	1048576	8	3903
2026-01-25 04:08:54.95	345.70	22.02	-23.6	-24.7	18.8	0.00e+00	0	44	102	1048576	7	4077
2026-01-25 04:08:57.96	345.03	22.26	-23.6	-24.8	18.8	0.00e+00	0	43	102	1048576	7	4105
2026-01-25 04:09:00.97	344.36	22.50	-23.7	-25.0	18.7	9.90e-04	0	44	102	1048576	7	4160
2026-01-25 04:09:03.98	343.67	22.74	-23.9	-25.3	18.5	1.11e-03	0	44	102	1048576	7	4238
2026-01-25 04:09:06.99	342.97	22.97	-23.7	-25.0	18.7	0.00e+00	0	44	102	1048576	7	4167
2026-01-25 04:09:10.00	342.26	23.20	-23.5	-24.6	18.9	0.00e+00	0	44	102	1048576	7	4055
2026-01-25 04:09:13.02	341.54	23.43	-23.5	-24.5	18.9	1.24e-03	0	44	102	1048576	7	4041
2026-01-25 04:09:16.04	340.80	23.65	-23.8	-25.1	18.6	1.19e-03	0	44	102	1048576	7	4194
2026-01-25 04:09:19.06	340.06	23.88	-23.6	-24.8	18.8	1.31e-03	0	44	102	1048576	7	4106
2026-01-25 04:09:22.08	339.30	24.09	-23.9	-25.3	18.5	1.30e-03	0	44	102	1048576	7	4227
2026-01-25 04:09:25.08	338.54	24.31	-23.5	-24.4	19.0	1.14e-03	0	44	102	1048576	7	4009
2026-01-25 04:09:28.10	337.77	24.52	-23.4	-24.4	19.0	0.00e+00	0	44	102	1048576	7	4005
2026-01-25 04:09:31.11	336.98	24.73	-23.2	-23.8	19.3	0.00e+00	0	44	102	1048576	7	3875
2026-01-25 04:09:34.13	336.19	24.93	-23.4	-24.3	19.1	1.05e-03	0	44	102	1048576	7	3985
2026-01-25 04:09:37.15	335.38	25.13	-23.3	-24.0	19.2	0.00e+00	0	44	102	1048576	7	3912
2026-01-25 04:09:40.16	334.57	25.32	-23.0	-23.9	19.5	0.00e+00	0	44	102	1048576	6	3999
2026-01-25 04:09:43.17	333.74	25.51	-22.9	-23.7	19.6	0.00e+00	0	44	102	1048576	6	3949
2026-01-25 04:09:46.18	332.91	25.69	-23.1	-24.2	19.3	0.00e+00	0	44	102	1048576	6	4081
2026-01-25 04:09:49.19	332.06	25.87	-23.2	-24.3	19.3	0.00e+00	0	44	102	1048576	6	4096
2026-01-25 04:09:52.20	331.21	26.04	-23.2	-24.3	19.3	0.00e+00	0	44	102	1048576	6	4091
2026-01-25 04:09:55.20	330.35	26.20	-23.1	-24.1	19.4	0.00e+00	0	44	102	1048576	6	4049
2026-01-25 04:09:58.22	329.48	26.36	-23.1	-24.3	19.3	0.00e+00	0	43	102	1048576	6	4092
2026-01-25 04:10:01.23	328.60	26.51	-23.0	-23.9	19.5	0.00e+00	0	44	102	1048576	6	4000
2026-01-25 04:10:04.25	327.70	26.66	-22.9	-23.7	19.6	0.00e+00	0	44	102	1048576	6	3958
2026-01-25 04:10:07.27	326.80	26.80	-23.1	-24.2	19.3	0.00e+00	0	44	102	1048576	6	4087
2026-01-25 04:10:10.28	325.90	26.93	-22.9	-23.7	19.6	0.00e+00	0	44	102	1048576	6	3961
2026-01-25 04:10:13.28	324.99	27.06	-23.2	-24.4	19.2	0.00e+00	0	44	102	1048576	6	4137
2026-01-25 04:10:16.29	324.07	27.17	-23.0	-23.9	19.5	0.00e+00	0	44	102	1048576	6	4005
2026-01-25 04:10:19.29	323.15	27.28	-22.8	-23.6	19.7	0.00e+00	0	44	102	1048576	6	3919
2026-01-25 04:10:22.31	322.21	27.38	-22.7	-23.8	17.2	0.00e+00	0	44	102	1048576	5	4100
2026-01-25 04:10:25.33	321.27	27.48	-22.6	-23.7	19.8	0.00e+00	0	44	102	1048576	5	4063
2026-01-25 04:10:28.34	320.33	27.56	-22.9	-23.8	19.6	0.00e+00	0	44	102	1048576	6	3989
2026-01-25 04:10:31.34	319.38	27.64	-22.9	-24.2	19.6	1.70e-04	0	44	102	1048576	5	4196
2026-01-25 04:10:34.35	318.43	27.70	-22.9	-23.6	19.6	0.00e+00	0	44	102	1048576	6	3939
2026-01-25 04:10:37.36	317.48	27.76	-22.7	-23.2	19.8	0.00e+00	0	44	102	1048576	6	3842
2026-01-25 04:10:40.37	316.52	27.81	-22.4	-23.1	20.2	0.00e+00	0	44	102	1048576	5	3923
2026-01-25 04:10:43.39	315.55	27.86	-22.4	-23.2	20.1	0.00e+00	0	44	102	1048576	5	3948
2026-01-25 04:10:46.41	314.58	27.89	-22.3	-22.9	20.2	0.00e+00	0	44	102	1048576	5	3884
2026-01-25 04:10:49.40	313.62	27.91	-22.6	-23.6	19.9	0.00e+00	0	44	102	1048576	5	4041
2026-01-25 04:10:52.42	312.65	27.93	-22.5	-23.4	20.0	1.02e-05	0	44	102	1048576	5	3988
2026-01-25 04:10:55.44	311.68	27.93	-22.5	-23.4	20.0	2.97e-05	0	44	102	1048576	5	3986
2026-01-25 04:10:58.46	310.71	27.93	-22.7	-23.9	19.8	0.00e+00	0	44	102	1048576	5	4105
2026-01-25 04:11:01.47	309.74	27.91	-22.8	-24.0	19.7	7.89e-05	0	44	102	1048576	5	4145
2026-01-25 04:11:04.48	308.78	27.89	-22.6	-23.7	19.9	0.00e+00	0	44	102	1048576	5	4055
2026-01-25 04:11:07.49	307.81	27.86	-22.4	-23.3	20.1	0.00e+00	0	44	102	1048576	5	3965
2026-01-25 04:11:10.49	306.85	27.82	-22.6	-23.7	19.8	0.00e+00	0	44	102	1048576	5	4064
2026-01-25 04:11:13.51	305.89	27.77	-22.4	-23.2	20.1	0.00e+00	0	44	102	1048576	5	3938
2026-01-25 04:11:16.52	304.93	27.72	-22.6	-23.6	19.9	0.00e+00	0	44	102	1048576	5	4035
2026-01-25 04:11:19.53	303.97	27.65	-22.5	-23.3	20.0	0.00e+00	0	44	102	1048576	5	3979
2026-01-25 04:11:22.54	303.03	27.57	-22.5	-23.5	19.9	0.00e+00	0	44	102	1048576	5	4014
2026-01-25 04:11:25.55	302.08	27.49	-22.5	-23.4	20.0	0.00e+00	0	44	102	1048576	5	4006
2026-01-25 04:11:28.58	301.13	27.40	-22.6	-23.6	19.8	0.00e+00	0	44	102	1048576	5	4042
2026-01-25 04:11:31.59	300.20	27.30	-22.6	-23.7	19.8	0.00e+00	0	43	102	1048576	5	4057
2026-01-25 04:11:34.61	299.27	27.19	-22.6	-23.6	19.9	0.00e+00	0	44	102	1048576	5	4028
2026-01-25 04:11:37.61	298.35	27.08	-22.6	-23.5	19.9	0.00e+00	0	44	102	1048576	5	4023
2026-01-25 04:11:40.62	297.44	26.95	-22.6	-23.5	19.9	0.00e+00	0	44	102	1048576	5	4022
2026-01-25 04:11:43.63	296.53	26.82	-22.7	-23.8	19.7	0.00e+00	0	44	102	1048576	5	4101
2026-01-25 04:11:46.65	295.63	26.68	-22.5	-23.5	19.9	0.00e+00	0	44	102	1048576	5	4009
2026-01-25 04:11:49.65	294.74	26.54	-22.4	-23.2	20.0	0.00e+00	0	44	102	1048576	5	3941
2026-01-25 04:11:52.66	293.85	26.39	-22.4	-23.1	20.0	0.00e+00	0	44	102	1048576	5	3926
2026-01-25 04:11:55.67	292.98	26.23	-22.5	-23.5	19.8	0.00e+00	0	44	102	1048576	5	4019
2026-01-25 04:11:58.68	292.11	26.06	-22.6	-23.7	19.8	7.46e-04	0	44	102	1048576	5	4069
2026-01-25 04:12:01.70	291.25	25.89	-22.5	-23.4	19.9	0.00e+00	0	44	102	1048576	5	3996
2026-01-25 04:12:04.71	290.40	25.72	-22.4	-23.3	19.9	0.00e+00	0	43	102	1048576	5	3966
2026-01-25 04:12:07.72	289.57	25.54	-22.5	-23.4	19.8	8.60e-04	0	44	102	1048576	5	3982
2026-01-25 04:12:10.74	288.74	25.35	-22.5	-23.4	19.8	1.16e-03	0	44	102	1048576	5	4006
2026-01-25 04:12:13.76	287.91	25.15	-22.5	-23.5	19.8	0.00e+00	0	44	102	1048576	5	4019
2026-01-25 04:12:16.76	287.11	24.96	-22.5	-23.5	19.8	1.08e-03	0	44	102	1048576	5	4020
2026-01-25 04:12:19.77	286.31	24.76	-22.8	-23.9	19.6	8.23e-04	0	44	102	1048576	5	4124
2026-01-25 04:12:22.78	285.52	24.55	-22.7	-23.8	19.6	7.83e-04	0	44	102	1048576	5	4087
2026-01-25 04:12:25.79	284.75	24.34	-23.1	-24.1	19.2	0.00e+00	0	44	102	1048576	6	4049
2026-01-25 04:12:28.79	283.98	24.12	-22.8	-23.5	19.6	2.62e-04	0	44	102	1048576	6	3901
2026-01-25 04:12:31.81	283.22	23.91	-22.9	-23.8	19.4	2.59e-04	0	44	102	1048576	6	3977
2026-01-25 04:12:34.83	282.47	23.68	-22.7	-23.2	19.7	0.00e+00	0	44	102	1048576	6	3840
2026-01-25 04:12:37.84	281.74	23.46	-22.7	-23.3	19.6	0.00e+00	0	44	102	1048576	6	3864
2026-01-25 04:12:40.86	281.01	23.23	-22.8	-23.6	19.4	0.00e+00	0	44	102	1048576	6	3947
2026-01-25 04:12:43.87	280.30	23.00	-22.8	-23.5	19.5	0.00e+00	0	44	102	1048576	6	3909
2026-01-25 04:12:46.87	279.60	22.77	-22.8	-23.5	19.5	0.00e+00	0	44	102	1048576	6	3910
2026-01-25 04:12:49.88	278.90	22.53	-22.9	-23.8	19.3	0.00e+00	0	44	102	1048576	6	3980
2026-01-25 04:12:52.89	278.22	22.29	-22.8	-23.5	19.5	0.00e+00	0	44	102	1048576	6	3904
2026-01-25 04:12:55.88	277.56	22.05	-23.0	-23.9	19.2	0.00e+00	0	44	102	1048576	6	4015
2026-01-25 04:12:58.90	276.89	21.81	-23.0	-23.9	19.2	0.00e+00	0	44	102	1048576	6	4000
2026-01-25 04:13:01.90	276.24	21.57	-23.4	-24.8	18.8	0.00e+00	0	44	102	1048576	6	4231
2026-01-25 04:13:04.91	275.60	21.32	-23.3	-24.6	18.9	0.00e+00	0	44	102	1048576	6	4164
2026-01-25 04:13:07.93	274.97	21.07	-23.4	-24.8	18.8	0.00e+00	0	44	102	1048576	6	4232
2026-01-25 04:13:10.94	274.35	20.83	-23.8	-24.6	18.4	0.00e+00	0	44	102	1048576	8	3969
2026-01-25 04:13:13.95	273.74	20.58	-23.6	-24.7	18.5	0.00e+00	0	44	102	1048576	7	4101
2026-01-25 04:13:16.96	273.14	20.33	-23.8	-25.2	18.3	0.00e+00	0	44	102	1048576	7	4207
2026-01-25 04:13:19.96	272.55	20.08	-23.7	-25.0	18.4	0.00e+00	0	44	102	1048576	7	4165
2026-01-25 04:13:22.97	271.97	19.83	-23.6	-24.7	18.5	0.00e+00	0	44	102	1048576	7	4101
2026-01-25 04:13:25.98	271.40	19.58	-23.6	-24.7	18.5	0.00e+00	0	44	102	1048576	7	4080
2026-01-25 04:13:28.99	270.84	19.32	-23.6	-24.7	18.5	0.00e+00	0	44	102	1048576	7	4083
2026-01-25 04:13:32.01	270.28	19.07	-23.9	-25.3	14.9	0.00e+00	0	44	102	1048576	7	4254
2026-01-25 04:13:35.02	269.74	18.82	-23.9	-24.8	18.2	0.00e+00	0	44	102	1048576	8	4014
2026-01-25 04:13:38.03	269.20	18.57	-24.0	-25.1	18.0	1.27e-03	0	44	102	1048576	8	4072
2026-01-25 04:13:41.06	268.67	18.31	-23.8	-25.1	18.3	0.00e+00	0	44	102	1048576	7	4192
2026-01-25 04:13:44.08	268.15	18.06	-23.8	-25.2	18.2	1.25e-03	0	44	102	1048576	7	4210
2026-01-25 04:13:47.10	267.65	17.80	-24.2	-25.6	17.7	1.11e-03	0	44	102	1048576	8	4212
2026-01-25 04:13:50.10	267.15	17.55	-24.2	-25.6	17.7	1.45e-03	0	44	102	1048576	8	4207
2026-01-25 04:13:53.12	266.65	17.30	-24.2	-25.6	17.7	1.47e-03	0	44	102	1048576	8	4210
2026-01-25 04:13:56.14	266.17	17.05	-24.4	-25.9	17.5	1.79e-03	0	44	102	1048576	8	4295
2026-01-25 04:13:59.16	265.69	16.80	-24.3	-25.8	17.5	1.52e-03	0	44	102	1048576	8	4267
2026-01-25 04:14:02.18	265.22	16.55	-24.5	-25.7	17.3	0.00e+00	0	44	102	1048576	9	4131
2026-01-25 04:14:05.19	264.77	16.30	-24.6	-25.9	17.3	9.10e-06	0	44	102	1048576	9	4171
2026-01-25 04:14:08.20	264.31	16.05	-24.4	-25.5	17.4	1.27e-03	0	44	102	1048576	9	4083
2026-01-25 04:14:11.21	263.87	15.80	-24.4	-25.5	17.4	0.00e+00	0	44	102	1048576	9	4082
2026-01-25 04:14:14.23	263.43	15.55	-24.6	-25.8	17.3	0.00e+00	0	44	102	1048576	9	4144
2026-01-25 04:14:17.24	263.00	15.31	-24.7	-26.1	17.1	0.00e+00	0	44	102	1048576	9	4224
2026-01-25 04:14:20.26	262.58	15.06	-24.9	-26.6	16.8	0.00e+00	0	44	102	1048576	9	4355
2026-01-25 04:14:23.27	262.16	14.82	-24.9	-26.1	16.8	0.00e+00	0	44	102	1048576	10	4104
2026-01-25 04:14:26.29	261.75	14.57	-24.8	-25.9	16.9	0.00e+00	0	44	102	1048576	10	4067
2026-01-25 04:14:29.30	261.35	14.33	-24.8	-25.9	16.9	0.00e+00	0	44	102	1048576	10	4063
2026-01-25 04:14:32.32	260.96	14.09	-24.9	-26.0	16.8	0.00e+00	0	44	102	1048576	10	4092
2026-01-25 04:14:35.34	260.57	13.85	-24.9	-26.6	16.7	0.00e+00	0	44	102	1048576	9	4367
2026-01-25 04:14:38.35	260.18	13.61	-25.2	-26.8	16.4	0.00e+00	0	44	102	1048576	10	4304
2026-01-25 04:14:41.36	259.81	13.37	-25.4	-27.1	16.2	0.00e+00	0	44	102	1048576	10	4401
2026-01-25 04:14:44.37	259.44	13.13	-25.3	-26.9	16.2	0.00e+00	0	44	102	1048576	10	4332
2026-01-25 04:14:47.39	259.07	12.89	-25.2	-26.7	16.3	0.00e+00	0	44	102	1048576	10	4289
2026-01-25 04:14:50.40	258.72	12.66	-25.2	-26.8	16.3	0.00e+00	0	44	102	1048576	10	4303
2026-01-25 04:14:53.41	258.36	12.42	-25.3	-26.9	16.2	0.00e+00	0	44	102	1048576	10	4322
2026-01-25 04:14:56.42	258.02	12.19	-25.2	-26.8	16.3	0.00e+00	0	44	102	1048576	10	4301
2026-01-25 04:14:59.43	257.68	11.96	-25.3	-27.0	16.1	0.00e+00	0	44	102	1048576	10	4354
2026-01-25 04:15:02.45	257.34	11.73	-25.5	-27.0	15.9	0.00e+00	0	44	102	1048576	11	4238
2026-01-25 04:15:05.47	257.01	11.50	-25.7	-27.4	15.6	4.50e-06	0	44	102	1048576	11	4350
2026-01-25 04:15:08.48	256.68	11.27	-25.8	-27.5	15.5	0.00e+00	0	44	102	1048576	11	4393
2026-01-25 04:15:11.50	256.36	11.04	-25.7	-27.4	15.6	2.41e-04	0	44	102	1048576	11	4352
2026-01-25 04:15:14.51	256.05	10.82	-25.8	-27.4	15.5	4.78e-04	0	44	102	1048576	11	4370
2026-01-25 04:15:17.52	255.74	10.59	-25.9	-27.8	15.3	8.58e-04	0	44	102	1048576	11	4487
2026-01-25 04:15:20.52	255.43	10.37	-25.9	-27.4	15.2	7.93e-04	0	44	102	1048576	12	4246
2026-01-25 04:15:23.54	255.13	10.15	-26.0	-27.9	15.2	6.12e-04	0	44	102	1048576	11	4511
2026-01-25 04:15:26.55	254.84	9.93	-25.9	-27.8	15.2	1.32e-04	0	44	102	1048576	11	4485
2026-01-25 04:15:29.56	254.55	9.71	-26.2	-27.9	14.8	1.10e-06	0	44	102	1048576	12	4404
2026-01-25 04:15:32.57	254.26	9.49	-26.1	-27.8	14.9	1.06e-04	0	44	102	1048576	12	4368
2026-01-25 04:15:35.58	253.98	9.28	-26.1	-27.7	14.9	1.69e-04	0	44	102	1048576	12	4358
2026-01-25 04:15:38.60	253.70	9.06	-26.0	-27.6	14.9	0.00e+00	0	44	102	1048576	12	4323
2026-01-25 04:15:41.61	253.42	8.84	-26.1	-27.8	14.8	0.00e+00	0	44	102	1048576	12	4378
2026-01-25 04:15:44.63	253.15	8.63	-26.1	-27.9	14.7	0.00e+00	0	44	102	1048576	12	4391
2026-01-25 04:15:47.63	252.89	8.42	-26.2	-28.0	14.6	0.00e+00	0	44	102	1048576	12	4432
2026-01-25 04:15:50.63	252.63	8.21	-26.3	-28.2	14.5	0.00e+00	0	44	102	1048576	12	4502
2026-01-25 04:15:53.63	252.37	8.00	-26.3	-28.4	14.4	1.10e-06	0	44	102	1048576	12	4542
2026-01-25 04:15:56.64	252.12	7.79	-26.5	-28.2	14.2	1.10e-06	0	44	102	1048576	13	4372
2026-01-25 04:15:59.66	251.86	7.58	-26.3	-28.2	14.4	1.10e-06	0	44	102	1048576	12	4495
2026-01-25 04:16:02.67	251.62	7.38	-26.3	-28.2	14.4	0.00e+00	0	44	102	1048576	12	4504
2026-01-25 04:16:05.69	251.37	7.17	-26.5	-28.6	14.1	0.00e+00	0	44	102	1048576	12	4629
2026-01-25 04:16:08.70	251.13	6.97	-33.0	-44.1	3.8	8.46e-01	0	44	104	1048576	26	12959

#Closed at: 2026-01-25 04:16:10
#Recorded file [1 MB]: D:/data/31010_260125_070543.dat