passes_logs/2026/01/25/R2M6_AANII_01/R2M6_AANII_01__20260125_234918_NOAA_20_JPSS-1_rec.log

#Pass ID: 20260125_234918_NOAA 20 (JPSS-1)
#Satellite: NOAA 20 (JPSS-1)
#Configuration: NOAA 20
#almurnet v.1.7.20240730
#Start time: 2026-01-25 23:49:18

#Version: 2.2.20231116
#Station: R2M6_AANII_01
#Location: 30.233357 lon 59.946436 lat
#TLE: 1 43013U 17073A   26025.47986292  .00000161  00000+0  97249-4 0  9993
#TLE: 2 43013  98.7646 326.3091 0001052  24.2709 335.8516 14.19540188424225

#Time	Az	El	Level	Level2	SNR	BER	BlckErr	Temp	State	Recorded	gain1	gain2
2026-01-25 23:49:18.82	21.14	7.04	-31.1	-37.2	5.1	1.26e+00	0	42	0	0	22	7197
2026-01-25 23:49:21.82	21.24	7.27	-31.5	-38.6	7.2	9.95e-02	0	42	102	1048576	22	8165
2026-01-25 23:49:24.84	21.34	7.50	-31.3	-37.6	7.9	7.57e-02	0	42	102	1048576	22	7429
2026-01-25 23:49:27.86	21.44	7.73	-31.3	-37.7	8.0	4.74e-02	0	42	102	1048576	22	7484
2026-01-25 23:49:30.86	21.54	7.96	-30.8	-36.1	9.5	2.11e-02	0	42	102	1048576	21	6649
2026-01-25 23:49:33.88	21.65	8.20	-30.9	-36.6	9.2	2.67e-02	0	42	102	1048576	21	6919
2026-01-25 23:49:36.87	21.76	8.43	-30.8	-36.0	9.7	1.81e-02	0	42	102	1048576	21	6565
2026-01-25 23:49:39.88	21.86	8.67	-30.8	-35.8	9.8	1.15e-02	0	42	102	1048576	21	6469
2026-01-25 23:49:42.89	21.98	8.92	-30.9	-36.4	9.5	1.84e-02	0	42	102	1048576	21	6752
2026-01-25 23:49:45.89	22.09	9.16	-31.0	-36.0	9.4	1.86e-02	0	42	102	1048576	22	6442
2026-01-25 23:49:48.90	22.20	9.41	-31.1	-36.5	9.0	2.25e-02	0	42	102	1048576	22	6690
2026-01-25 23:49:51.92	22.32	9.66	-31.3	-37.2	8.5	3.73e-02	0	43	102	1048576	22	7112
2026-01-25 23:49:54.94	22.43	9.91	-30.7	-35.7	10.1	1.18e-02	0	42	102	1048576	21	6346
2026-01-25 23:49:57.95	22.55	10.16	-30.5	-34.8	10.7	3.25e-03	0	42	102	1048576	21	5927
2026-01-25 23:50:00.96	22.67	10.42	-30.3	-34.8	11.1	1.95e-03	0	42	102	1048576	20	5989
2026-01-25 23:50:03.98	22.80	10.68	-30.8	-35.9	9.9	5.67e-03	0	43	102	1048576	21	6465
2026-01-25 23:50:06.98	22.92	10.94	-30.8	-35.9	10.0	7.17e-03	0	43	102	1048576	21	6472
2026-01-25 23:50:09.99	23.05	11.21	-30.8	-35.7	10.2	6.16e-03	0	43	102	1048576	21	6325
2026-01-25 23:50:13.00	23.18	11.48	-30.6	-35.0	10.7	4.09e-03	0	43	102	1048576	21	5977
2026-01-25 23:50:16.02	23.31	11.75	-30.0	-34.0	12.1	2.49e-04	0	43	102	1048576	19	5704
2026-01-25 23:50:19.04	23.44	12.02	-30.0	-33.6	12.1	1.30e-03	0	43	102	1048576	20	5447
2026-01-25 23:50:22.04	23.57	12.30	-29.9	-33.8	12.4	1.98e-04	0	43	102	1048576	19	5615
2026-01-25 23:50:25.06	23.71	12.58	-29.8	-33.4	12.7	1.18e-04	0	43	102	1048576	19	5460
2026-01-25 23:50:28.08	23.85	12.86	-29.9	-33.8	12.5	8.23e-05	0	43	102	1048576	19	5597
2026-01-25 23:50:31.08	24.00	13.15	-30.2	-34.2	11.8	4.61e-04	0	43	102	1048576	20	5673
2026-01-25 23:50:34.10	24.14	13.44	-30.2	-34.0	11.9	3.46e-04	0	43	102	1048576	20	5606
2026-01-25 23:50:37.10	24.29	13.73	-30.1	-33.8	12.0	1.92e-03	0	43	102	1048576	20	5533
2026-01-25 23:50:40.12	24.44	14.02	-29.9	-33.5	12.7	2.21e-03	0	43	102	1048576	19	5493
2026-01-25 23:50:43.13	24.59	14.32	-29.5	-33.0	13.5	1.98e-03	0	43	102	1048576	18	5369
2026-01-25 23:50:46.14	24.75	14.63	-29.4	-32.7	13.6	1.52e-03	0	43	102	1048576	18	5271
2026-01-25 23:50:49.15	24.91	14.93	-29.4	-32.6	13.7	3.80e-06	0	43	102	1048576	18	5230
2026-01-25 23:50:52.17	25.07	15.24	-29.3	-32.4	13.8	1.70e-04	0	43	102	1048576	18	5161
2026-01-25 23:50:55.18	25.23	15.56	-29.3	-32.4	13.9	3.78e-04	0	43	102	1048576	18	5153
2026-01-25 23:50:58.19	25.40	15.88	-29.2	-32.3	14.0	3.64e-04	0	43	102	1048576	18	5094
2026-01-25 23:51:01.19	25.57	16.20	-29.4	-32.5	13.8	4.04e-04	0	43	102	1048576	18	5195
2026-01-25 23:51:04.20	25.75	16.52	-29.2	-32.2	14.0	1.09e-03	0	43	102	1048576	18	5086
2026-01-25 23:51:07.21	25.93	16.85	-29.2	-32.1	14.2	1.40e-03	0	43	102	1048576	18	5033
2026-01-25 23:51:10.21	26.11	17.19	-29.3	-32.3	14.0	7.83e-04	0	43	102	1048576	18	5097
2026-01-25 23:51:13.22	26.29	17.53	-29.2	-32.1	14.2	2.24e-03	0	43	102	1048576	18	5016
2026-01-25 23:51:16.23	26.48	17.87	-29.2	-32.0	14.2	2.23e-03	0	44	102	1048576	18	4986
2026-01-25 23:51:19.24	26.68	18.22	-29.0	-31.6	14.5	2.09e-03	0	43	102	1048576	18	4862
2026-01-25 23:51:22.25	26.88	18.57	-28.9	-31.9	14.6	1.58e-03	0	44	102	1048576	17	5061
2026-01-25 23:51:25.25	27.08	18.93	-28.8	-31.6	14.8	4.90e-04	0	43	102	1048576	17	4953
2026-01-25 23:51:28.27	27.29	19.29	-28.8	-31.6	14.8	0.00e+00	0	43	102	1048576	17	4958
2026-01-25 23:51:31.28	27.50	19.66	-28.7	-31.2	15.1	0.00e+00	0	43	102	1048576	17	4828
2026-01-25 23:51:34.29	27.72	20.03	-28.5	-30.8	15.3	0.00e+00	0	44	102	1048576	17	4692
2026-01-25 23:51:37.32	27.94	20.41	-28.6	-31.1	15.2	0.00e+00	0	44	102	1048576	17	4793
2026-01-25 23:51:40.34	28.17	20.80	-28.5	-30.8	15.4	0.00e+00	0	44	102	1048576	17	4687
2026-01-25 23:51:43.35	28.40	21.18	-28.6	-31.0	15.3	0.00e+00	0	44	102	1048576	17	4745
2026-01-25 23:51:46.37	28.64	21.58	-28.5	-30.9	15.3	0.00e+00	0	44	102	1048576	17	4702
2026-01-25 23:51:49.38	28.88	21.98	-28.5	-30.8	15.4	7.00e-07	0	44	102	1048576	17	4696
2026-01-25 23:51:52.40	29.13	22.39	-28.4	-30.9	15.6	0.00e+00	0	44	102	1048576	16	4838
2026-01-25 23:51:55.41	29.39	22.80	-28.3	-30.7	15.8	0.00e+00	0	44	102	1048576	16	4765
2026-01-25 23:51:58.43	29.65	23.22	-28.1	-30.3	16.0	0.00e+00	0	44	102	1048576	16	4636
2026-01-25 23:52:01.44	29.92	23.65	-28.0	-30.1	16.2	0.00e+00	0	44	102	1048576	16	4569
2026-01-25 23:52:04.45	30.20	24.08	-27.8	-30.1	16.3	0.00e+00	0	44	102	1048576	15	4684
2026-01-25 23:52:07.45	30.49	24.51	-28.0	-30.5	16.1	0.00e+00	0	44	102	1048576	15	4827
2026-01-25 23:52:10.46	30.78	24.96	-28.2	-30.4	16.1	0.00e+00	0	44	102	1048576	16	4659
2026-01-25 23:52:13.47	31.08	25.41	-28.4	-30.9	15.7	0.00e+00	0	44	102	1048576	16	4835
2026-01-25 23:52:16.49	31.39	25.87	-28.5	-30.7	15.6	0.00e+00	0	44	102	1048576	17	4629
2026-01-25 23:52:19.50	31.70	26.34	-28.6	-31.1	15.4	0.00e+00	0	44	102	1048576	17	4756
2026-01-25 23:52:22.51	32.03	26.81	-28.8	-31.4	15.2	0.00e+00	0	44	102	1048576	17	4875
2026-01-25 23:52:25.53	32.37	27.29	-28.8	-31.4	15.2	0.00e+00	0	44	102	1048576	17	4879
2026-01-25 23:52:28.54	32.71	27.78	-29.2	-32.0	14.6	0.00e+00	0	44	102	1048576	18	4949
2026-01-25 23:52:31.55	33.07	28.28	-29.5	-32.2	14.1	1.50e-06	0	44	102	1048576	19	4930
2026-01-25 23:52:34.56	33.44	28.78	-29.7	-32.8	13.7	4.50e-06	0	44	102	1048576	19	5125
2026-01-25 23:52:37.57	33.82	29.29	-30.0	-33.1	13.2	2.51e-05	0	44	102	1048576	20	5138
2026-01-25 23:52:40.57	34.21	29.81	-30.3	-33.9	12.6	6.79e-05	0	44	102	1048576	20	5470
2026-01-25 23:52:43.58	34.61	30.34	-30.5	-34.5	12.3	1.55e-04	0	44	102	1048576	20	5706
2026-01-25 23:52:46.59	35.03	30.88	-30.8	-34.8	11.7	3.97e-04	0	44	102	1048576	21	5732
2026-01-25 23:52:49.60	35.46	31.42	-31.0	-35.1	11.2	1.21e-03	0	44	102	1048576	22	5776
2026-01-25 23:52:52.62	35.90	31.98	-31.1	-35.3	11.0	1.70e-03	0	44	102	1048576	22	5862
2026-01-25 23:52:55.64	36.36	32.54	-31.1	-35.3	11.1	2.13e-03	0	44	102	1048576	22	5832
2026-01-25 23:52:58.65	36.84	33.11	-30.7	-34.5	12.0	5.07e-04	0	44	102	1048576	21	5608
2026-01-25 23:53:01.68	37.33	33.70	-30.7	-34.4	12.0	3.12e-04	0	44	102	1048576	21	5562
2026-01-25 23:53:04.69	37.84	34.29	-30.7	-34.6	11.9	2.79e-04	0	44	102	1048576	21	5624
2026-01-25 23:53:07.71	38.37	34.89	-30.8	-34.8	11.8	4.16e-04	0	44	102	1048576	21	5728
2026-01-25 23:53:10.72	38.92	35.49	-30.4	-33.6	12.6	1.27e-04	0	44	102	1048576	21	5222
2026-01-25 23:53:13.72	39.49	36.11	-30.0	-32.6	13.2	3.50e-05	0	44	102	1048576	21	4865
2026-01-25 23:53:16.73	40.08	36.73	-30.2	-33.2	13.0	2.74e-05	0	44	102	1048576	21	5055
2026-01-25 23:53:19.74	40.69	37.37	-29.9	-32.1	13.7	9.10e-06	0	44	102	1048576	21	4675
2026-01-25 23:53:22.76	41.33	38.01	-30.1	-33.3	13.1	1.98e-05	0	44	102	1048576	20	5214
2026-01-25 23:53:25.77	41.99	38.66	-30.2	-33.7	13.0	7.09e-05	0	44	102	1048576	20	5338
2026-01-25 23:53:28.78	42.68	39.32	-29.9	-33.1	13.8	8.30e-06	0	44	102	1048576	19	5216
2026-01-25 23:53:31.79	43.39	39.99	-29.7	-32.6	14.1	2.20e-06	0	44	102	1048576	19	5037
2026-01-25 23:53:34.81	44.14	40.66	-29.3	-31.7	14.7	1.52e-05	0	44	102	1048576	19	4715
2026-01-25 23:53:37.82	44.92	41.35	-29.6	-32.3	14.3	3.00e-06	0	44	102	1048576	19	4947
2026-01-25 23:53:40.83	45.73	42.04	-29.5	-32.0	14.5	0.00e+00	0	44	102	1048576	19	4838
2026-01-25 23:53:43.84	46.57	42.73	-29.7	-32.7	14.1	0.00e+00	0	44	102	1048576	19	5081
2026-01-25 23:53:46.84	47.45	43.43	-29.5	-32.2	14.4	7.00e-07	0	44	102	1048576	19	4874
2026-01-25 23:53:49.86	48.38	44.14	-29.8	-32.9	14.0	2.20e-06	0	44	102	1048576	19	5146
2026-01-25 23:53:52.88	49.35	44.86	-30.4	-34.1	12.8	1.42e-04	0	44	102	1048576	20	5502
2026-01-25 23:53:55.88	50.35	45.57	-30.5	-34.0	12.5	2.12e-04	0	44	102	1048576	21	5349
2026-01-25 23:53:58.89	51.40	46.29	-30.7	-34.4	12.2	1.95e-04	0	44	102	1048576	21	5526
2026-01-25 23:54:01.90	52.50	47.01	-31.5	-35.9	10.4	3.57e-03	0	44	102	1048576	23	5998
2026-01-25 23:54:04.91	53.66	47.73	-31.9	-36.9	9.4	2.04e-02	0	44	102	1048576	24	6409
2026-01-25 23:54:07.91	54.86	48.45	-32.0	-37.2	9.2	1.68e-02	0	44	102	1048576	24	6546
2026-01-25 23:54:10.93	56.13	49.17	-32.2	-38.0	8.6	6.44e-02	0	44	102	1048576	24	7027
2026-01-25 23:54:13.94	57.45	49.88	-31.6	-35.8	10.2	6.75e-03	0	44	102	1048576	24	5845
2026-01-25 23:54:16.95	58.84	50.59	-31.5	-35.7	10.8	3.50e-03	0	44	102	1048576	23	5892
2026-01-25 23:54:19.96	60.29	51.30	-31.4	-35.4	11.0	1.89e-03	0	44	102	1048576	23	5731
2026-01-25 23:54:22.99	61.83	51.99	-31.3	-35.1	11.2	1.77e-03	0	44	102	1048576	23	5590
2026-01-25 23:54:26.00	63.42	52.67	-30.7	-34.0	12.3	1.59e-04	0	44	102	1048576	22	5212
2026-01-25 23:54:29.01	65.09	53.34	-30.2	-33.1	13.3	3.35e-05	0	44	102	1048576	21	4989
2026-01-25 23:54:32.02	66.84	53.99	-30.9	-35.0	12.0	1.99e-04	0	44	102	1048576	21	5762
2026-01-25 23:54:35.03	68.66	54.62	-29.5	-31.6	14.5	2.16e-04	0	44	102	1048576	20	4579
2026-01-25 23:54:38.05	70.57	55.23	-29.3	-31.5	15.0	0.00e+00	0	44	102	1048576	19	4628
2026-01-25 23:54:41.07	72.57	55.82	-29.6	-32.1	14.7	7.00e-07	0	44	102	1048576	19	4839
2026-01-25 23:54:44.08	74.63	56.37	-29.6	-32.3	14.6	0.00e+00	0	44	102	1048576	19	4885
2026-01-25 23:54:47.09	76.79	56.90	-29.9	-32.5	14.0	3.80e-06	0	44	102	1048576	20	4878
2026-01-25 23:54:50.09	79.01	57.38	-29.9	-33.0	14.1	0.00e+00	0	44	102	1048576	19	5156
2026-01-25 23:54:53.11	81.33	57.83	-30.1	-33.1	13.6	6.10e-06	0	44	102	1048576	20	5105
2026-01-25 23:54:56.12	83.71	58.24	-29.7	-32.1	14.4	0.00e+00	0	44	102	1048576	20	4720
2026-01-25 23:54:59.14	86.17	58.61	-29.9	-32.9	14.2	1.50e-06	0	44	102	1048576	19	5131
2026-01-25 23:55:02.15	88.69	58.92	-30.5	-33.7	13.0	9.20e-04	0	44	102	1048576	21	5184
2026-01-25 23:55:05.16	91.26	59.19	-31.2	-35.2	11.7	8.46e-05	0	44	102	1048576	22	5698
2026-01-25 23:55:08.17	93.88	59.40	-31.4	-35.6	11.0	3.12e-03	0	44	102	1048576	23	5793
2026-01-25 23:55:11.19	96.55	59.56	-31.3	-35.5	11.4	1.42e-03	0	44	102	1048576	22	5866
2026-01-25 23:55:14.21	99.24	59.67	-29.6	-31.8	14.6	7.00e-07	0	44	102	1048576	20	4622
2026-01-25 23:55:17.22	101.95	59.71	-29.9	-32.6	14.0	5.94e-04	0	44	102	1048576	20	4904
2026-01-25 23:55:20.23	104.65	59.70	-29.1	-31.6	15.5	5.26e-04	0	44	102	1048576	18	4754
2026-01-25 23:55:23.23	107.34	59.64	-29.4	-31.6	15.1	9.68e-05	0	44	102	1048576	19	4675
2026-01-25 23:55:26.25	110.03	59.51	-30.2	-33.4	13.5	8.08e-05	0	44	102	1048576	20	5206
2026-01-25 23:55:29.26	112.68	59.33	-31.1	-34.9	11.9	5.08e-04	0	44	102	1048576	22	5583
2026-01-25 23:55:32.27	115.28	59.10	-31.1	-34.9	11.9	3.35e-04	0	44	102	1048576	22	5574
2026-01-25 23:55:35.27	117.83	58.82	-32.1	-37.4	9.4	8.63e-03	0	44	102	1048576	24	6611
2026-01-25 23:55:38.29	120.34	58.49	-32.2	-37.8	9.0	1.43e-02	0	44	102	1048576	24	6849
2026-01-25 23:55:41.30	122.77	58.11	-31.7	-35.8	10.5	1.86e-03	0	44	102	1048576	24	5776
2026-01-25 23:55:44.33	125.15	57.68	-30.6	-33.5	12.8	3.16e-04	0	44	102	1048576	22	5029
2026-01-25 23:55:47.34	127.44	57.22	-30.6	-33.9	13.0	9.89e-04	0	44	102	1048576	21	5277
2026-01-25 23:55:50.35	129.64	56.71	-30.0	-32.7	14.0	8.54e-05	0	44	102	1048576	20	4933
2026-01-25 23:55:53.37	131.78	56.18	-29.3	-31.4	15.2	7.00e-07	0	44	102	1048576	19	4596
2026-01-25 23:55:56.38	133.82	55.61	-28.5	-30.6	16.2	0.00e+00	0	44	102	1048576	17	4585
2026-01-25 23:55:59.39	135.78	55.02	-27.8	-29.4	17.2	0.00e+00	0	44	102	1048576	16	4309
2026-01-25 23:56:02.39	137.66	54.40	-29.1	-31.5	15.4	1.01e-03	0	44	102	1048576	18	4749
2026-01-25 23:56:05.41	139.46	53.76	-28.2	-30.3	16.6	1.31e-03	0	44	102	1048576	16	4601
2026-01-25 23:56:08.41	141.18	53.10	-27.8	-29.9	16.9	0.00e+00	0	44	102	1048576	15	4609
2026-01-25 23:56:11.43	142.83	52.43	-27.1	-28.7	17.9	0.00e+00	0	44	102	1048576	14	4367
2026-01-25 23:56:14.44	144.40	51.74	-28.6	-30.8	16.0	0.00e+00	0	44	102	1048576	17	4628
2026-01-25 23:56:17.46	145.91	51.04	-28.5	-30.9	16.3	0.00e+00	0	44	102	1048576	16	4793
2026-01-25 23:56:20.48	147.35	50.33	-30.0	-32.9	13.7	4.50e-06	0	44	102	1048576	20	5028
2026-01-25 23:56:23.50	148.72	49.61	-31.5	-35.6	11.8	2.36e-04	0	44	102	1048576	22	5796
2026-01-25 23:56:26.51	150.03	48.89	-30.8	-34.1	12.3	1.72e-04	0	44	102	1048576	22	5285
2026-01-25 23:56:29.52	151.27	48.17	-32.1	-37.8	8.8	2.25e-02	0	44	102	1048576	24	6893
2026-01-25 23:56:32.53	152.46	47.44	-32.4	-38.5	7.8	1.38e-01	0	44	102	1048576	25	7277
2026-01-25 23:56:35.54	153.60	46.72	-31.9	-36.6	9.7	5.82e-03	0	44	102	1048576	24	6238
2026-01-25 23:56:38.55	154.68	46.00	-32.1	-37.2	8.8	1.25e-01	0	44	102	1048576	25	6448
2026-01-25 23:56:41.56	155.72	45.28	-31.6	-36.2	10.4	1.66e-03	0	44	102	1048576	23	6133
2026-01-25 23:56:44.56	156.71	44.56	-31.2	-34.9	11.3	1.25e-03	0	44	102	1048576	23	5510
2026-01-25 23:56:47.57	157.66	43.85	-31.0	-34.5	11.6	1.50e-03	0	44	102	1048576	23	5359
2026-01-25 23:56:50.57	158.57	43.14	-29.8	-32.4	14.0	2.20e-06	0	44	102	1048576	20	4847
2026-01-25 23:56:53.58	159.44	42.44	-29.4	-31.8	14.7	0.00e+00	0	44	102	1048576	19	4746
2026-01-25 23:56:56.58	160.27	41.74	-30.3	-33.8	13.0	1.37e-05	0	44	102	1048576	20	5413
2026-01-25 23:56:59.60	161.07	41.05	-28.7	-30.5	15.8	0.00e+00	0	44	102	1048576	18	4447
2026-01-25 23:57:02.60	161.84	40.37	-30.4	-34.1	12.8	4.50e-06	0	44	102	1048576	20	5535
2026-01-25 23:57:05.62	162.58	39.69	-29.9	-32.3	13.6	1.90e-05	0	44	102	1048576	21	4724
2026-01-25 23:57:08.63	163.28	39.03	-29.8	-32.5	13.8	8.30e-06	0	44	102	1048576	20	4904
2026-01-25 23:57:11.65	163.96	38.36	-31.2	-35.7	11.0	9.08e-04	0	44	102	1048576	22	5995
2026-01-25 23:57:14.66	164.62	37.71	-30.2	-33.1	13.1	8.69e-05	0	44	102	1048576	21	5000
2026-01-25 23:57:17.67	165.24	37.07	-29.0	-31.4	15.2	0.00e+00	0	44	102	1048576	18	4738
2026-01-25 23:57:20.68	165.85	36.44	-30.2	-33.6	13.1	1.37e-05	0	44	102	1048576	20	5315
2026-01-25 23:57:23.70	166.43	35.81	-30.7	-34.5	12.1	3.66e-04	0	44	102	1048576	21	5596
2026-01-25 23:57:26.72	167.00	35.19	-30.0	-33.0	13.4	2.51e-05	0	44	102	1048576	20	5112
2026-01-25 23:57:29.73	167.54	34.59	-30.1	-33.3	13.2	2.05e-05	0	44	102	1048576	20	5219
2026-01-25 23:57:32.74	168.06	33.99	-31.0	-35.5	11.3	5.90e-04	0	44	102	1048576	21	6053
2026-01-25 23:57:35.74	168.56	33.40	-30.9	-35.3	11.5	5.60e-04	0	44	102	1048576	21	5955
2026-01-25 23:57:38.76	169.05	32.82	-30.8	-35.0	11.7	4.20e-04	0	44	102	1048576	21	5799
2026-01-25 23:57:41.78	169.52	32.25	-30.4	-33.8	12.5	3.52e-04	0	44	102	1048576	21	5290
2026-01-25 23:57:44.80	169.97	31.68	-30.8	-34.7	11.9	3.48e-04	0	44	102	1048576	21	5695
2026-01-25 23:57:47.80	170.41	31.13	-30.6	-34.1	12.3	2.03e-04	0	44	102	1048576	21	5435
2026-01-25 23:57:50.82	170.84	30.59	-30.7	-34.5	12.0	3.23e-04	0	44	102	1048576	21	5594
2026-01-25 23:57:53.82	171.25	30.05	-30.7	-34.5	12.0	5.45e-04	0	44	102	1048576	21	5609
2026-01-25 23:57:56.83	171.64	29.52	-30.5	-33.9	12.4	2.31e-04	0	44	102	1048576	21	5344
2026-01-25 23:57:59.84	172.03	29.00	-30.3	-34.0	12.7	2.50e-04	0	44	102	1048576	20	5498
2026-01-25 23:58:02.84	172.40	28.49	-30.2	-33.7	12.3	1.39e-04	0	44	102	1048576	20	5389
2026-01-25 23:58:05.84	172.76	27.99	-30.2	-33.7	12.9	1.60e-04	0	44	102	1048576	20	5358
2026-01-25 23:58:08.84	173.12	27.50	-30.3	-33.9	12.7	1.69e-04	0	44	102	1048576	20	5443
2026-01-25 23:58:11.85	173.46	27.01	-30.2	-33.7	12.8	2.46e-04	0	44	102	1048576	20	5375
2026-01-25 23:58:14.86	173.79	26.53	-30.0	-33.0	13.3	1.69e-04	0	44	102	1048576	20	5114
2026-01-25 23:58:17.88	174.11	26.05	-29.8	-33.0	13.7	4.77e-04	0	44	102	1048576	19	5195
2026-01-25 23:58:20.89	174.43	25.59	-29.0	-31.3	15.0	1.69e-04	0	44	102	1048576	18	4729
2026-01-25 23:58:23.90	174.73	25.13	-29.2	-32.0	14.6	1.85e-04	0	44	102	1048576	18	4950
2026-01-25 23:58:26.91	175.03	24.68	-29.5	-32.3	14.1	2.21e-04	0	44	102	1048576	19	4957
2026-01-25 23:58:29.92	175.32	24.23	-29.8	-32.9	13.7	1.46e-04	0	44	102	1048576	19	5189
2026-01-25 23:58:32.93	175.60	23.80	-29.3	-31.7	14.4	9.84e-05	0	44	102	1048576	19	4742
2026-01-25 23:58:35.94	175.87	23.37	-28.7	-30.6	15.4	7.70e-05	0	44	102	1048576	18	4499
2026-01-25 23:58:38.95	176.14	22.94	-28.5	-30.6	15.7	5.49e-05	0	44	102	1048576	17	4592
2026-01-25 23:58:41.97	176.40	22.52	-28.2	-30.6	16.0	1.05e-04	0	44	102	1048576	16	4699
2026-01-25 23:58:44.97	176.65	22.11	-28.6	-30.9	15.5	2.04e-04	0	44	102	1048576	17	4721
2026-01-25 23:58:47.99	176.90	21.70	-28.4	-31.0	15.7	9.99e-05	0	44	102	1048576	16	4867
2026-01-25 23:58:51.00	177.14	21.30	-28.7	-31.2	15.3	9.61e-05	0	44	102	1048576	17	4808
2026-01-25 23:58:54.01	177.37	20.91	-28.9	-31.8	14.9	6.56e-05	0	44	102	1048576	17	5030
2026-01-25 23:58:57.02	177.60	20.52	-29.1	-31.8	14.6	7.32e-05	0	44	102	1048576	18	4906
2026-01-25 23:59:00.03	177.82	20.14	-29.1	-31.8	14.6	7.24e-05	0	44	102	1048576	18	4905
2026-01-25 23:59:03.03	178.04	19.76	-28.8	-31.5	15.1	3.29e-04	0	44	102	1048576	17	4911
2026-01-25 23:59:06.04	178.26	19.39	-28.6	-31.1	15.3	5.30e-06	0	44	102	1048576	17	4779
2026-01-25 23:59:09.07	178.47	19.02	-28.2	-30.7	15.8	4.06e-04	0	44	102	1048576	16	4756
2026-01-25 23:59:12.07	178.67	18.66	-28.4	-31.1	15.6	5.59e-04	0	44	102	1048576	16	4894
2026-01-25 23:59:15.08	178.87	18.30	-28.6	-31.2	15.2	1.70e-03	0	44	102	1048576	17	4816
2026-01-25 23:59:18.09	179.06	17.95	-28.8	-31.7	14.9	1.72e-03	0	44	102	1048576	17	4982
2026-01-25 23:59:21.10	179.26	17.60	-28.8	-31.7	14.9	7.60e-06	0	44	102	1048576	17	4986
2026-01-25 23:59:24.11	179.44	17.26	-29.1	-31.8	14.5	3.20e-04	0	44	102	1048576	18	4925
2026-01-25 23:59:27.12	179.63	16.92	-29.2	-32.2	14.2	3.20e-04	0	44	102	1048576	18	5053
2026-01-25 23:59:30.13	179.80	16.58	-29.0	-32.0	14.6	3.37e-04	0	44	102	1048576	17	5100
2026-01-25 23:59:33.13	179.98	16.25	-29.4	-32.6	13.9	3.03e-04	0	44	102	1048576	18	5205
2026-01-25 23:59:36.15	180.15	15.93	-29.1	-31.8	14.4	4.09e-04	0	44	102	1048576	18	4939
2026-01-25 23:59:39.16	180.32	15.60	-29.3	-32.5	14.0	4.50e-06	0	44	102	1048576	18	5184
2026-01-25 23:59:42.17	180.49	15.29	-29.3	-32.4	14.0	3.91e-04	0	44	102	1048576	18	5137
2026-01-25 23:59:45.18	180.65	14.97	-29.4	-32.7	13.8	3.52e-04	0	44	102	1048576	18	5253
2026-01-25 23:59:48.18	180.81	14.66	-29.6	-32.6	13.5	3.77e-04	0	44	102	1048576	19	5126
2026-01-25 23:59:51.18	180.96	14.36	-29.8	-33.3	13.0	3.24e-04	0	44	102	1048576	19	5387
2026-01-25 23:59:54.20	181.11	14.05	-30.0	-33.7	12.8	4.07e-04	0	44	102	1048576	19	5545
2026-01-25 23:59:57.22	181.26	13.75	-30.0	-33.3	12.6	7.93e-05	0	44	102	1048576	20	5287
2026-01-26 00:00:00.24	181.41	13.46	-30.0	-33.3	12.6	2.22e-04	0	44	102	1048576	20	5292
2026-01-26 00:00:03.24	181.56	13.17	-30.0	-33.8	12.7	3.11e-04	0	44	102	1048576	19	5590
2026-01-26 00:00:06.25	181.70	12.88	-30.2	-33.9	12.2	2.80e-04	0	44	102	1048576	20	5554
2026-01-26 00:00:09.26	181.84	12.59	-30.2	-34.0	12.1	8.38e-04	0	44	102	1048576	20	5589
2026-01-26 00:00:12.28	181.97	12.31	-30.2	-34.1	12.0	4.49e-04	0	44	102	1048576	20	5613
2026-01-26 00:00:15.29	182.11	12.03	-30.0	-33.6	12.3	2.84e-04	0	44	102	1048576	20	5413
2026-01-26 00:00:18.31	182.24	11.75	-29.9	-33.3	12.5	1.91e-04	0	44	102	1048576	20	5296
2026-01-26 00:00:21.32	182.37	11.48	-30.0	-33.5	12.4	3.24e-04	0	44	102	1048576	20	5368
2026-01-26 00:00:24.32	182.50	11.21	-29.9	-33.6	12.7	1.17e-04	0	44	102	1048576	19	5525
2026-01-26 00:00:27.34	182.62	10.94	-29.9	-33.3	12.5	2.38e-04	0	44	102	1048576	20	5303
2026-01-26 00:00:30.35	182.75	10.67	-29.9	-33.3	12.4	3.46e-04	0	44	102	1048576	20	5306
2026-01-26 00:00:33.37	182.87	10.41	-29.9	-33.7	12.5	8.23e-05	0	44	102	1048576	19	5581
2026-01-26 00:00:36.37	182.99	10.15	-29.7	-33.0	13.0	2.23e-04	0	44	102	1048576	19	5290
2026-01-26 00:00:39.38	183.11	9.90	-29.6	-32.9	13.1	2.98e-04	0	44	102	1048576	19	5252
2026-01-26 00:00:42.38	183.22	9.64	-29.5	-33.0	13.3	2.94e-04	0	44	102	1048576	18	5391
2026-01-26 00:00:45.40	183.34	9.39	-29.5	-32.7	13.2	4.49e-04	0	44	102	1048576	19	5179
2026-01-26 00:00:48.42	183.45	9.14	-29.6	-32.9	13.0	3.20e-05	0	44	102	1048576	19	5268
2026-01-26 00:00:51.43	183.56	8.89	-29.6	-32.9	12.9	3.43e-05	0	44	102	1048576	19	5274
2026-01-26 00:00:54.45	183.67	8.65	-29.7	-33.0	12.9	6.02e-05	0	44	102	1048576	19	5314
2026-01-26 00:00:57.46	183.77	8.40	-29.7	-33.1	12.8	4.19e-05	0	44	102	1048576	19	5335
2026-01-26 00:01:00.49	183.88	8.16	-29.6	-33.0	12.8	6.10e-05	0	44	102	1048576	19	5332
2026-01-26 00:01:03.51	183.98	7.92	-29.7	-33.1	12.7	7.32e-05	0	44	102	1048576	19	5377
2026-01-26 00:01:06.53	184.09	7.69	-29.8	-33.6	12.4	1.75e-04	0	44	102	1048576	19	5547
2026-01-26 00:01:09.54	184.19	7.45	-29.9	-33.6	11.9	3.73e-04	0	44	102	1048576	20	5477
2026-01-26 00:01:12.55	184.29	7.22	-29.9	-33.9	12.1	3.41e-04	0	44	102	1048576	19	5718
2026-01-26 00:01:15.56	184.38	6.99	-32.7	-47.3	3.8	1.49e+00	0	44	104	1048576	25	19138

#Closed at: 2026-01-26 00:01:17
#Recorded file [1 MB]: D:/data/31010_260126_024920.dat