passes_logs/2026/01/25/R2M6_AANII_01/R2M6_AANII_01__20260125_112106_SUOMI_NPP_rec.log

#Pass ID: 20260125_112106_SUOMI NPP
#Satellite: SUOMI NPP
#Configuration: NPP
#almurnet v.1.7.20240730
#Start time: 2026-01-25 11:21:07

#Version: 2.2.20231116
#Station: R2M6_AANII_01
#Location: 30.233357 lon 59.946436 lat
#TLE: 1 37849U 11061A   26024.54906732  .00000185  00000+0  10878-3 0  9990
#TLE: 2 37849  98.7821 326.5159 0002200  47.3746 312.7615 14.19529340738061

#Time	Az	El	Level	Level2	SNR	BER	BlckErr	Temp	State	Recorded	gain1	gain2
2026-01-25 11:21:07.60	190.53	7.05	-31.3	-35.1	5.1	1.25e+00	0	41	0	0	23	5585
2026-01-25 11:21:10.61	190.70	7.27	-31.7	-36.4	7.2	1.64e-01	0	41	102	1048576	24	6159
2026-01-25 11:21:13.62	190.88	7.49	-31.2	-34.4	9.3	3.46e-02	0	41	102	1048576	23	5186
2026-01-25 11:21:16.64	191.07	7.72	-30.8	-32.8	10.6	4.93e-03	0	42	102	1048576	23	4527
2026-01-25 11:21:19.64	191.25	7.94	-30.7	-33.0	10.8	3.14e-03	0	42	102	1048576	22	4695
2026-01-25 11:21:22.64	191.44	8.17	-30.8	-33.4	10.5	4.31e-03	0	42	102	1048576	22	4838
2026-01-25 11:21:25.65	191.63	8.39	-30.8	-33.2	10.7	3.31e-03	0	41	102	1048576	22	4772
2026-01-25 11:21:28.67	191.82	8.62	-30.9	-33.5	10.5	5.16e-03	0	42	102	1048576	22	4862
2026-01-25 11:21:31.68	192.02	8.86	-30.7	-32.9	11.0	1.73e-03	0	42	102	1048576	22	4648
2026-01-25 11:21:34.70	192.22	9.09	-30.7	-32.8	11.1	1.63e-03	0	42	102	1048576	22	4617
2026-01-25 11:21:37.71	192.42	9.33	-30.7	-32.8	11.0	2.28e-03	0	42	102	1048576	22	4606
2026-01-25 11:21:40.72	192.63	9.56	-30.6	-32.7	11.1	1.79e-03	0	42	102	1048576	22	4581
2026-01-25 11:21:43.73	192.84	9.80	-30.7	-33.0	10.8	3.38e-03	0	42	102	1048576	22	4697
2026-01-25 11:21:46.75	193.05	10.05	-30.2	-32.1	11.7	7.20e-04	0	42	102	1048576	21	4447
2026-01-25 11:21:49.76	193.27	10.29	-30.3	-32.2	11.8	3.39e-04	0	42	102	1048576	21	4480
2026-01-25 11:21:52.78	193.49	10.53	-30.1	-31.6	12.3	1.32e-04	0	43	102	1048576	21	4262
2026-01-25 11:21:55.80	193.71	10.78	-30.1	-31.6	12.4	1.90e-04	0	42	102	1048576	21	4250
2026-01-25 11:21:58.80	193.94	11.03	-30.0	-31.3	12.7	1.11e-04	0	42	102	1048576	21	4143
2026-01-25 11:22:01.81	194.17	11.28	-29.8	-30.8	12.7	7.32e-05	0	42	102	1048576	21	4035
2026-01-25 11:22:04.82	194.40	11.54	-29.8	-31.6	12.4	8.01e-05	0	42	102	1048576	20	4386
2026-01-25 11:22:07.83	194.64	11.79	-29.5	-30.9	12.3	1.79e-04	0	43	102	1048576	20	4229
2026-01-25 11:22:10.84	194.88	12.05	-29.4	-30.8	12.5	1.20e-04	0	43	102	1048576	20	4188
2026-01-25 11:22:13.85	195.13	12.31	-29.4	-30.4	13.1	2.97e-05	0	43	102	1048576	20	4038
2026-01-25 11:22:16.87	195.38	12.58	-29.5	-30.4	13.6	4.50e-06	0	43	102	1048576	20	3979
2026-01-25 11:22:19.89	195.63	12.85	-29.4	-30.1	13.9	4.50e-06	0	43	102	1048576	20	3888
2026-01-25 11:22:22.91	195.89	13.11	-29.3	-29.8	14.0	1.50e-06	0	43	102	1048576	20	3818
2026-01-25 11:22:25.92	196.16	13.39	-29.4	-30.5	13.9	7.60e-06	0	43	102	1048576	19	4094
2026-01-25 11:22:28.93	196.43	13.66	-29.4	-30.6	13.9	2.20e-06	0	43	102	1048576	19	4102
2026-01-25 11:22:31.94	196.70	13.93	-29.6	-31.0	13.5	7.60e-06	0	43	102	1048576	19	4234
2026-01-25 11:22:34.96	196.98	14.21	-29.5	-31.0	13.4	1.06e-05	0	43	102	1048576	19	4244
2026-01-25 11:22:37.98	197.26	14.50	-29.4	-30.8	13.3	2.13e-05	0	43	102	1048576	19	4194
2026-01-25 11:22:41.00	197.55	14.78	-29.5	-30.9	13.3	2.67e-05	0	43	102	1048576	19	4234
2026-01-25 11:22:44.01	197.84	15.07	-29.7	-31.3	13.3	2.36e-05	0	43	102	1048576	19	4352
2026-01-25 11:22:47.01	198.14	15.35	-29.9	-31.7	13.2	2.13e-05	0	43	102	1048576	19	4455
2026-01-25 11:22:50.02	198.45	15.65	-29.9	-31.3	13.1	2.21e-05	0	43	102	1048576	20	4233
2026-01-25 11:22:53.05	198.76	15.94	-30.0	-31.6	13.1	3.66e-05	0	43	102	1048576	20	4315
2026-01-25 11:22:56.07	199.08	16.24	-29.9	-31.1	13.5	1.60e-05	0	43	102	1048576	20	4145
2026-01-25 11:22:59.08	199.40	16.54	-30.2	-31.9	13.0	1.83e-05	0	43	102	1048576	20	4404
2026-01-25 11:23:02.07	199.73	16.84	-29.8	-31.0	13.6	1.52e-05	0	43	102	1048576	20	4112
2026-01-25 11:23:05.09	200.06	17.15	-30.1	-31.8	13.0	1.90e-05	0	43	102	1048576	20	4377
2026-01-25 11:23:08.10	200.41	17.46	-30.3	-32.3	12.7	5.41e-05	0	43	102	1048576	20	4541
2026-01-25 11:23:11.11	200.76	17.77	-30.0	-31.6	13.2	3.58e-05	0	43	102	1048576	20	4298
2026-01-25 11:23:14.13	201.11	18.09	-29.9	-31.3	13.4	8.30e-06	0	43	102	1048576	20	4217
2026-01-25 11:23:17.14	201.48	18.40	-29.9	-31.3	13.4	1.22e-05	0	43	102	1048576	20	4220
2026-01-25 11:23:20.14	201.85	18.72	-29.9	-31.3	13.4	6.80e-06	0	43	102	1048576	20	4202
2026-01-25 11:23:23.15	202.22	19.05	-29.9	-31.2	13.5	9.10e-06	0	43	102	1048576	20	4180
2026-01-25 11:23:26.17	202.61	19.38	-30.0	-31.3	13.5	1.67e-05	0	43	102	1048576	20	4189
2026-01-25 11:23:29.18	203.01	19.71	-30.0	-31.4	13.4	1.44e-05	0	43	102	1048576	20	4240
2026-01-25 11:23:32.20	203.41	20.04	-30.1	-31.6	13.3	1.06e-05	0	43	102	1048576	20	4278
2026-01-25 11:23:35.21	203.82	20.38	-30.1	-31.5	13.4	1.06e-05	0	43	102	1048576	20	4275
2026-01-25 11:23:38.23	204.24	20.72	-30.2	-31.9	13.2	6.80e-06	0	43	102	1048576	20	4377
2026-01-25 11:23:41.25	204.68	21.06	-30.3	-32.2	13.1	1.98e-05	0	43	102	1048576	20	4466
2026-01-25 11:23:44.26	205.11	21.41	-30.3	-32.1	13.1	2.28e-05	0	43	102	1048576	20	4428
2026-01-25 11:23:47.28	205.56	21.75	-30.2	-31.8	13.3	2.82e-05	0	43	102	1048576	20	4356
2026-01-25 11:23:50.28	206.02	22.11	-30.6	-32.5	12.5	7.55e-05	0	43	102	1048576	21	4488
2026-01-25 11:23:53.28	206.49	22.46	-30.4	-32.0	12.9	7.01e-05	0	43	102	1048576	21	4323
2026-01-25 11:23:56.30	206.97	22.82	-30.4	-31.9	13.0	5.79e-05	0	43	102	1048576	21	4272
2026-01-25 11:23:59.32	207.46	23.18	-30.1	-31.1	13.5	2.44e-05	0	43	102	1048576	21	4026
2026-01-25 11:24:02.33	207.96	23.54	-29.9	-30.6	13.8	5.30e-06	0	43	102	1048576	21	3901
2026-01-25 11:24:05.35	208.48	23.91	-29.4	-29.8	14.6	6.80e-06	0	43	102	1048576	20	3761
2026-01-25 11:24:08.36	209.00	24.28	-29.2	-29.8	15.0	2.20e-06	0	43	102	1048576	19	3839
2026-01-25 11:24:11.36	209.54	24.65	-29.5	-30.4	14.7	6.10e-06	0	43	102	1048576	19	4006
2026-01-25 11:24:14.36	210.08	25.02	-29.9	-31.4	14.0	6.10e-06	0	43	102	1048576	19	4300
2026-01-25 11:24:17.38	210.65	25.40	-29.9	-31.1	13.9	4.50e-06	0	44	102	1048576	20	4103
2026-01-25 11:24:20.40	211.23	25.78	-29.7	-30.4	14.3	1.50e-06	0	43	102	1048576	20	3905
2026-01-25 11:24:23.42	211.82	26.17	-29.9	-31.1	14.0	7.00e-07	0	43	102	1048576	20	4101
2026-01-25 11:24:26.42	212.42	26.55	-30.3	-32.2	13.2	1.67e-05	0	43	102	1048576	20	4454
2026-01-25 11:24:29.44	213.04	26.94	-30.5	-32.2	12.9	7.47e-05	0	44	102	1048576	21	4368
2026-01-25 11:24:32.46	213.67	27.33	-30.2	-31.4	13.5	3.05e-05	0	44	102	1048576	21	4099
2026-01-25 11:24:35.46	214.32	27.72	-30.5	-32.2	12.9	3.12e-05	0	43	102	1048576	21	4364
2026-01-25 11:24:38.47	214.98	28.11	-31.0	-33.4	12.1	1.56e-04	0	44	102	1048576	21	4767
2026-01-25 11:24:41.49	215.67	28.50	-31.2	-33.7	11.6	7.98e-04	0	43	102	1048576	22	4777
2026-01-25 11:24:44.50	216.36	28.90	-30.8	-32.5	12.3	1.17e-04	0	44	102	1048576	22	4376
2026-01-25 11:24:47.49	217.07	29.29	-31.3	-33.8	11.4	5.90e-04	0	44	102	1048576	22	4825
2026-01-25 11:24:50.51	217.80	29.69	-31.3	-34.0	11.4	8.39e-04	0	43	102	1048576	22	4893
2026-01-25 11:24:53.53	218.55	30.09	-31.2	-33.7	11.6	9.90e-04	0	44	102	1048576	22	4780
2026-01-25 11:24:56.54	219.32	30.48	-30.5	-31.5	13.2	4.11e-05	0	43	102	1048576	22	4051
2026-01-25 11:24:59.55	220.11	30.88	-30.9	-32.8	12.3	1.69e-04	0	44	102	1048576	22	4446
2026-01-25 11:25:02.55	220.91	31.28	-30.9	-32.8	12.3	2.59e-04	0	44	102	1048576	22	4444
2026-01-25 11:25:05.57	221.73	31.67	-30.7	-32.1	12.8	2.51e-05	0	44	102	1048576	22	4229
2026-01-25 11:25:08.59	222.58	32.07	-30.9	-32.8	12.3	1.30e-04	0	43	102	1048576	22	4451
2026-01-25 11:25:11.61	223.45	32.46	-32.0	-35.3	9.8	4.40e-03	0	43	102	1048576	24	5264
2026-01-25 11:25:14.61	224.33	32.85	-32.5	-36.7	8.3	6.48e-02	0	44	102	1048576	25	5829
2026-01-25 11:25:17.63	225.24	33.24	-31.7	-34.0	10.7	2.54e-03	0	44	102	1048576	24	4720
2026-01-25 11:25:20.64	226.17	33.62	-31.8	-34.5	10.5	6.23e-03	0	44	102	1048576	24	4908
2026-01-25 11:25:23.66	227.12	34.00	-31.9	-34.7	10.3	1.08e-02	0	44	102	1048576	24	4995
2026-01-25 11:25:26.67	228.09	34.38	-31.8	-34.6	10.4	5.49e-03	0	43	102	1048576	24	4934
2026-01-25 11:25:29.68	229.08	34.75	-31.9	-34.8	10.2	5.10e-03	0	44	102	1048576	24	5033
2026-01-25 11:25:32.70	230.10	35.12	-32.4	-36.6	8.9	2.39e-02	0	44	102	1048576	24	5859
2026-01-25 11:25:35.72	231.14	35.48	-32.5	-36.4	8.6	2.64e-02	0	43	102	1048576	25	5669
2026-01-25 11:25:38.74	232.21	35.84	-32.1	-35.1	9.7	1.85e-02	0	43	102	1048576	25	5048
2026-01-25 11:25:41.75	233.29	36.18	-32.1	-35.0	9.8	1.42e-02	0	44	102	1048576	25	5028
2026-01-25 11:25:44.76	234.40	36.52	-31.7	-34.1	10.8	2.97e-03	0	44	102	1048576	24	4727
2026-01-25 11:25:47.77	235.52	36.85	-31.8	-34.4	10.7	3.09e-03	0	43	102	1048576	24	4814
2026-01-25 11:25:50.78	236.68	37.18	-32.0	-35.0	10.3	7.87e-03	0	44	102	1048576	24	5058
2026-01-25 11:25:53.79	237.85	37.49	-31.7	-33.9	11.0	2.99e-03	0	43	102	1048576	24	4634
2026-01-25 11:25:56.80	239.04	37.79	-31.7	-33.9	10.8	2.83e-03	0	43	102	1048576	24	4654
2026-01-25 11:25:59.81	240.26	38.08	-31.7	-33.8	11.1	1.92e-03	0	43	102	1048576	24	4621
2026-01-25 11:26:02.82	241.50	38.35	-31.7	-33.8	11.1	1.21e-03	0	44	102	1048576	24	4608
2026-01-25 11:26:05.84	242.76	38.62	-31.9	-34.7	10.4	2.39e-03	0	44	102	1048576	24	4950
2026-01-25 11:26:08.85	244.04	38.87	-31.4	-32.8	11.7	1.12e-03	0	44	102	1048576	24	4269
2026-01-25 11:26:11.87	245.34	39.11	-31.2	-32.9	12.1	2.14e-04	0	44	102	1048576	23	4367
2026-01-25 11:26:14.88	246.65	39.33	-32.2	-35.8	9.6	4.09e-03	0	43	102	1048576	24	5416
2026-01-25 11:26:17.91	247.99	39.54	-32.0	-34.3	10.3	8.60e-03	0	43	102	1048576	25	4714
2026-01-25 11:26:20.92	249.34	39.73	-31.9	-34.5	10.6	2.62e-03	0	43	102	1048576	24	4872
2026-01-25 11:26:23.93	250.70	39.90	-32.1	-35.4	9.9	4.19e-03	0	44	102	1048576	24	5245
2026-01-25 11:26:26.94	252.08	40.06	-32.0	-34.5	10.2	9.60e-03	0	44	102	1048576	25	4793
2026-01-25 11:26:29.94	253.46	40.19	-31.9	-34.0	10.6	4.17e-03	0	44	102	1048576	25	4596
2026-01-25 11:26:32.96	254.87	40.31	-31.4	-33.5	11.8	4.15e-04	0	44	102	1048576	23	4569
2026-01-25 11:26:35.97	256.28	40.42	-32.5	-36.3	8.9	3.74e-02	0	44	102	1048576	25	5555
2026-01-25 11:26:38.98	257.69	40.50	-31.7	-34.0	11.0	2.83e-03	0	44	102	1048576	24	4660
2026-01-25 11:26:41.99	259.12	40.56	-32.0	-34.7	10.4	4.44e-03	0	44	102	1048576	24	4945
2026-01-25 11:26:44.99	260.54	40.61	-33.2	-38.9	6.6	1.31e-01	0	44	102	1048576	26	6918
2026-01-25 11:26:48.00	261.97	40.63	-32.8	-36.8	8.2	7.34e-02	0	44	102	1048576	26	5700
2026-01-25 11:26:51.02	263.41	40.63	-32.2	-35.0	9.9	1.16e-02	0	44	102	1048576	25	4979
2026-01-25 11:26:54.03	264.84	40.62	-33.5	-39.9	5.5	4.48e-01	0	44	102	1048576	27	7563
2026-01-25 11:26:57.04	266.27	40.58	-32.6	-35.9	8.9	4.85e-02	0	44	102	1048576	26	5270
2026-01-25 11:27:00.05	267.69	40.53	-32.2	-35.1	9.8	1.65e-02	0	44	102	1048576	25	5017
2026-01-25 11:27:03.07	269.11	40.46	-31.0	-32.2	12.6	4.10e-04	0	44	102	1048576	23	4133
2026-01-25 11:27:06.09	270.53	40.36	-30.6	-32.1	13.3	1.37e-05	0	43	102	1048576	21	4289
2026-01-25 11:27:09.10	271.93	40.25	-31.0	-32.3	12.5	8.06e-04	0	44	102	1048576	23	4180
2026-01-25 11:27:12.11	273.33	40.12	-31.4	-33.8	11.8	4.39e-04	0	44	102	1048576	22	4788
2026-01-25 11:27:15.13	274.71	39.98	-31.0	-32.2	12.6	8.92e-05	0	44	102	1048576	23	4124
2026-01-25 11:27:18.14	276.08	39.81	-31.7	-34.2	11.2	1.17e-03	0	44	102	1048576	23	4848
2026-01-25 11:27:21.14	277.43	39.63	-31.2	-32.9	12.2	1.40e-04	0	44	102	1048576	23	4348
2026-01-25 11:27:24.16	278.77	39.43	-31.7	-33.9	11.1	3.37e-03	0	44	102	1048576	24	4630
2026-01-25 11:27:27.16	280.08	39.22	-30.6	-31.7	13.2	1.29e-05	0	44	102	1048576	22	4081
2026-01-25 11:27:30.17	281.39	38.99	-30.3	-31.4	13.7	6.80e-06	0	44	102	1048576	21	4075
2026-01-25 11:27:33.17	282.67	38.75	-29.8	-30.1	14.6	7.00e-07	0	44	102	1048576	21	3707
2026-01-25 11:27:36.18	283.93	38.49	-30.1	-31.3	14.1	7.00e-07	0	44	102	1048576	20	4151
2026-01-25 11:27:39.19	285.17	38.22	-30.8	-32.7	12.9	4.73e-05	0	44	102	1048576	21	4492
2026-01-25 11:27:42.20	286.40	37.94	-29.8	-30.6	14.5	7.00e-07	0	44	102	1048576	20	3950
2026-01-25 11:27:45.21	287.60	37.64	-29.3	-29.8	15.4	0.00e+00	0	44	102	1048576	19	3813
2026-01-25 11:27:48.22	288.78	37.34	-30.2	-31.6	14.0	4.50e-06	0	44	102	1048576	20	4239
2026-01-25 11:27:51.23	289.94	37.02	-29.5	-29.7	15.1	0.00e+00	0	44	102	1048576	20	3708
2026-01-25 11:27:54.24	291.08	36.70	-28.9	-28.8	15.9	0.00e+00	0	44	102	1048576	19	3562
2026-01-25 11:27:57.24	292.19	36.37	-28.9	-29.3	16.0	0.00e+00	0	44	102	1048576	18	3777
2026-01-25 11:28:00.25	293.28	36.02	-30.2	-31.5	14.0	1.50e-06	0	44	102	1048576	20	4199
2026-01-25 11:28:03.25	294.34	35.68	-30.7	-32.5	13.1	1.14e-05	0	44	102	1048576	21	4407
2026-01-25 11:28:06.25	295.38	35.32	-31.7	-34.5	11.0	2.44e-03	0	44	102	1048576	23	4927
2026-01-25 11:28:09.27	296.41	34.96	-30.1	-30.7	14.1	7.00e-07	0	44	102	1048576	21	3883
2026-01-25 11:28:12.28	297.41	34.59	-31.7	-34.5	11.1	1.59e-03	0	44	102	1048576	23	4943
2026-01-25 11:28:15.29	298.39	34.22	-31.8	-34.8	10.8	1.93e-03	0	44	102	1048576	23	5057
2026-01-25 11:28:18.30	299.35	33.84	-32.7	-37.1	8.2	6.30e-02	0	44	102	1048576	25	5938
2026-01-25 11:28:21.30	300.28	33.46	-31.5	-33.2	11.4	1.29e-03	0	44	102	1048576	24	4397
2026-01-25 11:28:24.31	301.19	33.08	-32.0	-34.8	10.4	1.46e-03	0	44	102	1048576	24	4987
2026-01-25 11:28:27.33	302.09	32.69	-32.2	-35.2	9.7	1.23e-02	0	44	102	1048576	25	5047
2026-01-25 11:28:30.35	302.97	32.30	-32.9	-37.9	7.6	4.41e-02	0	44	102	1048576	25	6415
2026-01-25 11:28:33.36	303.82	31.91	-32.4	-35.4	9.1	3.90e-02	0	44	102	1048576	26	5087
2026-01-25 11:28:36.36	304.65	31.52	-32.1	-34.6	10.1	7.36e-03	0	44	102	1048576	25	4828
2026-01-25 11:28:39.37	305.46	31.13	-32.5	-36.1	9.1	2.34e-02	0	44	102	1048576	25	5450
2026-01-25 11:28:42.38	306.25	30.74	-32.2	-35.2	9.6	1.15e-02	0	44	102	1048576	25	5076
2026-01-25 11:28:45.39	307.02	30.34	-32.0	-34.3	10.3	7.31e-03	0	44	102	1048576	25	4694
2026-01-25 11:28:48.41	307.78	29.95	-30.7	-31.9	13.0	2.92e-04	0	44	102	1048576	22	4135
2026-01-25 11:28:51.41	308.52	29.55	-29.6	-30.0	14.9	0.00e+00	0	44	102	1048576	20	3773
2026-01-25 11:28:54.42	309.24	29.16	-30.7	-32.6	12.9	6.63e-05	0	44	102	1048576	21	4445
2026-01-25 11:28:57.43	309.94	28.77	-29.4	-29.6	15.1	0.00e+00	0	44	102	1048576	20	3678
2026-01-25 11:29:00.45	310.63	28.38	-29.7	-30.8	14.7	0.00e+00	0	44	102	1048576	19	4074
2026-01-25 11:29:03.45	311.30	27.99	-30.4	-31.7	13.4	3.96e-05	0	44	102	1048576	21	4174
2026-01-25 11:29:06.47	311.96	27.60	-29.0	-29.1	15.7	0.00e+00	0	44	102	1048576	19	3634
2026-01-25 11:29:09.47	312.59	27.21	-28.8	-29.0	16.1	0.00e+00	0	44	102	1048576	18	3708
2026-01-25 11:29:12.49	313.22	26.83	-29.2	-30.0	15.5	0.00e+00	0	44	102	1048576	18	3959
2026-01-25 11:29:15.50	313.83	26.44	-28.7	-28.8	16.1	0.00e+00	0	43	102	1048576	18	3665
2026-01-25 11:29:18.51	314.42	26.06	-28.6	-28.7	16.2	0.00e+00	0	44	102	1048576	18	3642
2026-01-25 11:29:21.52	315.00	25.68	-29.7	-30.8	14.7	0.00e+00	0	44	102	1048576	19	4098
2026-01-25 11:29:24.53	315.57	25.31	-29.1	-29.3	15.6	0.00e+00	0	43	102	1048576	19	3684
2026-01-25 11:29:27.55	316.13	24.93	-28.3	-28.4	16.6	0.00e+00	0	43	102	1048576	17	3650
2026-01-25 11:29:30.57	316.67	24.56	-28.6	-29.1	16.2	0.00e+00	0	44	102	1048576	17	3831
2026-01-25 11:29:33.58	317.20	24.19	-29.0	-29.7	15.6	0.00e+00	0	44	102	1048576	18	3901
2026-01-25 11:29:36.61	317.73	23.83	-28.8	-29.2	15.8	0.00e+00	0	43	102	1048576	18	3748
2026-01-25 11:29:39.62	318.23	23.46	-28.7	-28.8	16.1	0.00e+00	0	44	102	1048576	18	3650
2026-01-25 11:29:42.63	318.73	23.10	-29.0	-29.6	15.6	0.00e+00	0	44	102	1048576	18	3855
2026-01-25 11:29:45.64	319.21	22.75	-29.4	-30.5	15.0	0.00e+00	0	44	102	1048576	18	4126
2026-01-25 11:29:48.65	319.69	22.39	-29.4	-30.2	14.9	0.00e+00	0	44	102	1048576	19	3939
2026-01-25 11:29:51.67	320.15	22.04	-29.2	-29.6	15.2	0.00e+00	0	44	102	1048576	19	3786
2026-01-25 11:29:54.68	320.61	21.69	-29.3	-29.9	15.1	0.00e+00	0	44	102	1048576	19	3859
2026-01-25 11:29:57.70	321.05	21.35	-29.4	-30.2	14.9	7.00e-07	0	43	102	1048576	19	3925
2026-01-25 11:30:00.71	321.49	21.01	-29.5	-30.5	14.7	0.00e+00	0	43	102	1048576	19	4024
2026-01-25 11:30:03.72	321.91	20.67	-29.7	-30.9	14.4	0.00e+00	0	44	102	1048576	19	4144
2026-01-25 11:30:06.74	322.33	20.33	-29.8	-31.1	14.3	7.00e-07	0	44	102	1048576	19	4185
2026-01-25 11:30:09.75	322.74	20.00	-29.5	-30.3	14.8	0.00e+00	0	44	102	1048576	19	3960
2026-01-25 11:30:12.75	323.13	19.67	-30.1	-31.4	13.8	1.50e-06	0	44	102	1048576	20	4189
2026-01-25 11:30:15.76	323.52	19.34	-31.1	-33.4	11.8	2.01e-04	0	44	102	1048576	22	4685
2026-01-25 11:30:18.78	323.91	19.02	-31.5	-34.2	10.8	1.75e-03	0	44	102	1048576	23	4888
2026-01-25 11:30:21.80	324.28	18.70	-31.1	-32.7	11.8	5.58e-04	0	44	102	1048576	23	4362
2026-01-25 11:30:24.81	324.65	18.38	-30.2	-31.2	13.5	2.44e-05	0	44	102	1048576	21	4059
2026-01-25 11:30:27.83	325.01	18.06	-29.8	-30.8	14.0	3.00e-06	0	44	102	1048576	20	4031
2026-01-25 11:30:30.85	325.37	17.75	-30.0	-31.2	13.8	8.30e-06	0	44	102	1048576	20	4145
2026-01-25 11:30:33.86	325.71	17.44	-30.3	-32.2	13.2	1.90e-05	0	44	102	1048576	20	4466
2026-01-25 11:30:36.87	326.05	17.14	-30.3	-31.7	13.2	2.36e-05	0	44	102	1048576	21	4211
2026-01-25 11:30:39.89	326.39	16.83	-30.3	-31.6	13.1	2.21e-05	0	44	102	1048576	21	4179
2026-01-25 11:30:42.89	326.71	16.54	-30.4	-31.8	13.0	1.44e-05	0	44	102	1048576	21	4244
2026-01-25 11:30:45.91	327.04	16.24	-30.3	-31.7	13.1	2.82e-05	0	44	102	1048576	21	4212
2026-01-25 11:30:48.92	327.35	15.94	-30.2	-31.4	13.3	4.04e-05	0	43	102	1048576	21	4106
2026-01-25 11:30:51.93	327.66	15.65	-30.2	-31.3	13.2	2.28e-05	0	44	102	1048576	21	4108
2026-01-25 11:30:54.95	327.96	15.36	-30.1	-31.2	13.3	1.98e-05	0	44	102	1048576	21	4073
2026-01-25 11:30:57.95	328.26	15.08	-30.1	-31.0	13.5	9.10e-06	0	44	102	1048576	21	4001
2026-01-25 11:31:00.97	328.55	14.79	-30.0	-30.7	13.6	9.90e-06	0	44	102	1048576	21	3939
2026-01-25 11:31:03.98	328.84	14.51	-30.0	-30.9	13.4	7.60e-06	0	44	102	1048576	21	3998
2026-01-25 11:31:06.99	329.12	14.24	-30.3	-31.7	13.0	4.50e-05	0	44	102	1048576	21	4234
2026-01-25 11:31:09.99	329.40	13.96	-30.6	-32.6	12.3	1.47e-04	0	44	102	1048576	21	4532
2026-01-25 11:31:13.01	329.67	13.69	-31.0	-33.4	11.5	7.19e-04	0	44	102	1048576	22	4706
2026-01-25 11:31:16.02	329.94	13.42	-31.2	-33.8	11.1	1.32e-03	0	44	102	1048576	22	4863
2026-01-25 11:31:19.04	330.20	13.15	-31.1	-33.7	11.2	1.36e-03	0	44	102	1048576	22	4844
2026-01-25 11:31:22.05	330.46	12.88	-31.1	-33.6	11.2	1.73e-03	0	44	102	1048576	22	4797
2026-01-25 11:31:25.06	330.72	12.62	-30.7	-32.3	12.1	3.00e-04	0	44	102	1048576	22	4334
2026-01-25 11:31:28.08	330.97	12.36	-30.6	-32.0	12.3	1.51e-04	0	44	102	1048576	22	4247
2026-01-25 11:31:31.10	331.21	12.10	-30.3	-31.3	12.8	6.79e-05	0	44	102	1048576	22	4029
2026-01-25 11:31:34.10	331.45	11.84	-30.2	-31.5	12.9	3.66e-05	0	44	102	1048576	21	4183
2026-01-25 11:31:37.11	331.69	11.59	-30.2	-31.5	12.9	3.96e-05	0	44	102	1048576	21	4169
2026-01-25 11:31:40.12	331.93	11.34	-30.2	-31.6	12.8	3.58e-05	0	44	102	1048576	21	4212
2026-01-25 11:31:43.13	332.16	11.09	-30.2	-31.6	12.8	6.48e-05	0	44	102	1048576	21	4205
2026-01-25 11:31:46.15	332.38	10.84	-30.2	-31.5	12.9	5.26e-05	0	44	102	1048576	21	4186
2026-01-25 11:31:49.15	332.61	10.60	-30.2	-31.6	12.8	8.39e-05	0	44	102	1048576	21	4207
2026-01-25 11:31:52.17	332.83	10.35	-30.4	-32.1	12.5	9.99e-05	0	44	102	1048576	21	4379
2026-01-25 11:31:55.18	333.04	10.11	-30.5	-32.4	12.2	2.23e-04	0	44	102	1048576	21	4487
2026-01-25 11:31:58.20	333.26	9.87	-30.8	-33.2	11.6	5.10e-04	0	44	102	1048576	21	4774
2026-01-25 11:32:01.21	333.47	9.63	-30.9	-33.6	11.3	8.91e-04	0	44	102	1048576	21	4935
2026-01-25 11:32:04.22	333.67	9.40	-31.1	-33.7	10.9	1.72e-03	0	44	102	1048576	22	4859
2026-01-25 11:32:07.23	333.88	9.17	-31.1	-33.7	10.9	2.40e-03	0	44	102	1048576	22	4875
2026-01-25 11:32:10.25	334.08	8.93	-31.1	-33.8	10.8	3.13e-03	0	44	102	1048576	22	4924
2026-01-25 11:32:13.26	334.28	8.71	-31.1	-33.9	10.6	3.90e-03	0	44	102	1048576	22	4966
2026-01-25 11:32:16.27	334.47	8.48	-31.1	-34.0	10.6	3.76e-03	0	44	102	1048576	22	5002
2026-01-25 11:32:19.28	334.66	8.25	-31.0	-33.7	10.7	2.50e-03	0	44	102	1048576	22	4887
2026-01-25 11:32:22.29	334.85	8.03	-30.9	-33.4	11.0	1.99e-03	0	44	102	1048576	22	4775
2026-01-25 11:32:25.30	335.04	7.81	-31.0	-33.8	10.6	4.56e-03	0	44	102	1048576	22	4931
2026-01-25 11:32:28.31	335.22	7.58	-31.1	-34.1	10.3	4.50e-03	0	43	102	1048576	22	5073
2026-01-25 11:32:31.32	335.40	7.37	-31.2	-34.3	10.1	6.61e-03	0	44	102	1048576	22	5173
2026-01-25 11:32:34.34	335.58	7.15	-31.1	-34.2	10.2	7.59e-03	0	44	102	1048576	22	5123
2026-01-25 11:32:37.36	335.76	6.93	-33.8	-46.0	3.8	1.49e+00	0	44	104	1048576	27	14716

#Closed at: 2026-01-25 11:32:39
#Recorded file [1 MB]: D:/data/31010_260125_142109.dat