passes_logs/2026/01/25/R2M6_AANII_01/R2M6_AANII_01__20260125_003702_AQUA_rec.log

#Pass ID: 20260125_003702_AQUA
#Satellite: AQUA
#Configuration: AQUA
#almurnet v.1.7.20240730
#Start time: 2026-01-25 00:37:03

#Version: 2.2.20231116
#Station: R2M6_AANII_01
#Location: 30.233357 lon 59.946436 lat
#TLE: 1 27424U 02022A   26024.53919639  .00001970  00000+0  40397-3 0  9996
#TLE: 2 27424  98.4098 351.1277 0001915  66.8561 358.4840 14.61855303262281

#Time	Az	El	Level	Level2	SNR	BER	BlckErr	Temp	State	Recorded	gain1	gain2
2026-01-25 00:37:03.08	31.25	7.02	-31.5	-46.8	3.8	7.44e-01	0	41	0	0	23	20937
2026-01-25 00:37:06.07	31.56	7.22	-31.9	-48.0	3.8	7.41e-01	0	41	104	0	24	22872
2026-01-25 00:37:09.09	31.88	7.43	-31.6	-46.5	3.8	7.45e-01	0	42	104	0	24	19984
2026-01-25 00:37:12.09	32.20	7.63	-32.2	-48.6	3.8	7.44e-01	0	41	104	0	25	23627
2026-01-25 00:37:15.10	32.53	7.84	-32.6	-50.0	3.8	7.48e-01	0	42	104	0	26	26500
2026-01-25 00:37:18.11	32.86	8.05	-32.6	-50.0	3.8	7.43e-01	0	42	104	0	26	26694
2026-01-25 00:37:21.11	33.20	8.25	-32.6	-50.2	3.8	7.45e-01	0	42	104	0	26	27404
2026-01-25 00:37:24.12	33.54	8.46	-32.5	-50.1	3.8	7.43e-01	0	42	104	0	25	27246
2026-01-25 00:37:27.13	33.89	8.67	-32.3	-48.9	3.8	7.44e-01	0	42	104	0	25	24333
2026-01-25 00:37:30.15	34.25	8.89	-32.5	-49.6	3.8	7.46e-01	0	42	104	0	25	25948
2026-01-25 00:37:33.16	34.61	9.10	-32.7	-49.9	3.8	7.39e-01	0	42	104	0	26	26180
2026-01-25 00:37:36.17	34.97	9.31	-32.8	-50.4	3.8	7.45e-01	0	42	104	0	26	27331
2026-01-25 00:37:39.18	35.34	9.53	-33.0	-51.1	3.8	7.46e-01	0	42	104	0	26	29050
2026-01-25 00:37:42.20	35.72	9.74	-32.7	-49.5	3.8	7.45e-01	0	42	104	0	26	24949
2026-01-25 00:37:45.21	36.10	9.96	-31.9	-38.7	5.0	7.11e-01	0	42	104	0	25	7906
2026-01-25 00:37:48.24	36.49	10.18	-30.9	-35.2	16.1	6.03e-01	0	42	102	1048576	23	5901
2026-01-25 00:37:51.25	36.89	10.40	-30.3	-33.5	17.7	6.03e-01	0	43	102	1048576	22	5251
2026-01-25 00:37:54.26	37.29	10.62	-30.1	-33.5	18.1	6.02e-01	0	42	102	1048576	21	5339
2026-01-25 00:37:57.29	37.70	10.84	-30.1	-33.5	18.0	6.04e-01	0	43	102	1048576	21	5350
2026-01-25 00:38:00.30	38.11	11.06	-30.1	-33.6	18.0	6.05e-01	0	43	102	1048576	21	5389
2026-01-25 00:38:03.31	38.53	11.29	-29.9	-33.1	18.4	6.01e-01	0	43	102	1048576	21	5184
2026-01-25 00:38:06.31	38.96	11.51	-29.7	-32.5	18.7	6.02e-01	0	43	102	1048576	21	4973
2026-01-25 00:38:09.31	39.39	11.74	-29.6	-32.3	18.9	6.06e-01	0	43	102	1048576	21	4873
2026-01-25 00:38:12.32	39.83	11.96	-29.6	-32.1	18.9	6.02e-01	0	43	102	1048576	21	4836
2026-01-25 00:38:15.33	40.28	12.19	-29.5	-32.5	19.0	6.03e-01	0	43	102	1048576	20	5078
2026-01-25 00:38:18.33	40.73	12.42	-29.6	-32.8	18.8	6.03e-01	0	43	102	1048576	20	5201
2026-01-25 00:38:21.35	41.19	12.65	-29.7	-32.9	18.8	6.03e-01	0	43	102	1048576	20	5226
2026-01-25 00:38:24.35	41.66	12.88	-29.6	-32.8	18.9	6.03e-01	0	43	102	1048576	20	5167
2026-01-25 00:38:27.36	42.14	13.11	-29.2	-32.2	19.1	6.03e-01	0	43	102	1048576	20	5061
2026-01-25 00:38:30.37	42.62	13.34	-28.9	-32.1	19.4	6.03e-01	0	43	102	1048576	19	5230
2026-01-25 00:38:33.38	43.12	13.57	-29.0	-32.8	19.4	6.03e-01	0	43	102	1048576	18	5560
2026-01-25 00:38:36.39	43.62	13.80	-29.6	-32.8	18.9	6.05e-01	0	43	102	1048576	20	5180
2026-01-25 00:38:39.39	44.13	14.03	-29.6	-32.8	19.0	6.04e-01	0	43	102	1048576	20	5172
2026-01-25 00:38:42.40	44.65	14.27	-29.5	-32.8	19.3	6.01e-01	0	43	102	1048576	19	5303
2026-01-25 00:38:45.42	45.17	14.50	-29.6	-32.5	19.2	6.04e-01	0	43	102	1048576	20	5058
2026-01-25 00:38:48.44	45.71	14.74	-30.0	-32.9	18.9	6.02e-01	0	43	102	1048576	21	5041
2026-01-25 00:38:51.45	46.26	14.97	-29.5	-31.6	19.7	6.03e-01	0	43	102	1048576	21	4610
2026-01-25 00:38:54.46	46.81	15.21	-29.6	-32.4	19.5	6.03e-01	0	43	102	1048576	20	4978
2026-01-25 00:38:57.48	47.37	15.44	-29.5	-32.6	19.8	6.03e-01	0	43	102	1048576	19	5164
2026-01-25 00:39:00.49	47.95	15.68	-29.5	-32.0	19.8	6.06e-01	0	43	102	1048576	20	4850
2026-01-25 00:39:03.50	48.53	15.91	-29.5	-32.0	19.8	6.03e-01	0	43	102	1048576	20	4831
2026-01-25 00:39:06.52	49.12	16.15	-29.5	-32.1	19.8	6.04e-01	0	43	102	1048576	20	4867
2026-01-25 00:39:09.54	49.72	16.38	-29.4	-31.8	19.9	6.03e-01	0	43	102	1048576	20	4761
2026-01-25 00:39:12.56	50.33	16.62	-29.4	-32.4	19.9	6.01e-01	0	43	102	1048576	19	5068
2026-01-25 00:39:15.56	50.95	16.85	-29.9	-33.1	19.1	6.01e-01	0	43	102	1048576	20	5218
2026-01-25 00:39:18.58	51.58	17.08	-29.5	-32.5	20.0	6.02e-01	0	43	102	1048576	19	5091
2026-01-25 00:39:21.58	52.22	17.31	-29.5	-32.7	19.7	6.04e-01	0	43	102	1048576	19	5191
2026-01-25 00:39:24.59	52.87	17.55	-29.7	-32.8	19.4	6.03e-01	0	43	102	1048576	20	5094
2026-01-25 00:39:27.60	53.54	17.78	-29.7	-32.7	19.4	6.02e-01	0	43	102	1048576	20	5086
2026-01-25 00:39:30.62	54.21	18.01	-29.6	-32.7	19.9	6.01e-01	0	43	102	1048576	19	5172
2026-01-25 00:39:33.64	54.89	18.23	-29.4	-32.2	20.1	6.02e-01	0	43	102	1048576	19	5008
2026-01-25 00:39:36.66	55.59	18.46	-29.4	-32.3	20.0	6.04e-01	0	43	102	1048576	19	5048
2026-01-25 00:39:39.68	56.30	18.69	-29.4	-32.3	20.1	6.03e-01	0	43	102	1048576	19	5031
2026-01-25 00:39:42.70	57.01	18.91	-29.5	-32.5	19.9	6.02e-01	0	43	102	1048576	19	5109
2026-01-25 00:39:45.70	57.74	19.13	-29.4	-31.8	20.0	6.03e-01	0	43	102	1048576	20	4770
2026-01-25 00:39:48.71	58.47	19.35	-29.4	-32.3	20.1	6.02e-01	0	43	102	1048576	19	5017
2026-01-25 00:39:51.72	59.22	19.56	-29.6	-32.7	19.9	6.01e-01	0	43	102	1048576	19	5180
2026-01-25 00:39:54.73	59.98	19.78	-29.7	-32.7	19.5	6.03e-01	0	43	102	1048576	20	5072
2026-01-25 00:39:57.75	60.75	19.99	-29.8	-32.7	19.4	6.01e-01	0	44	102	1048576	20	5079
2026-01-25 00:40:00.76	61.53	20.20	-29.7	-32.6	19.5	6.05e-01	0	43	102	1048576	20	5028
2026-01-25 00:40:03.76	62.32	20.40	-29.5	-32.1	19.8	6.03e-01	0	44	102	1048576	20	4857
2026-01-25 00:40:06.77	63.12	20.60	-29.5	-32.4	20.0	6.03e-01	0	43	102	1048576	19	5072
2026-01-25 00:40:09.77	63.93	20.80	-29.4	-32.4	20.0	6.04e-01	0	43	102	1048576	19	5054
2026-01-25 00:40:12.79	64.76	20.99	-29.5	-32.2	19.7	6.05e-01	0	43	102	1048576	20	4908
2026-01-25 00:40:15.81	65.60	21.18	-29.5	-32.2	19.7	6.04e-01	0	43	102	1048576	20	4887
2026-01-25 00:40:18.82	66.44	21.36	-29.4	-32.4	19.4	6.05e-01	0	43	102	1048576	19	5069
2026-01-25 00:40:21.83	67.30	21.54	-29.6	-32.4	19.3	6.05e-01	0	43	102	1048576	20	4972
2026-01-25 00:40:24.83	68.16	21.72	-29.5	-32.2	19.4	6.03e-01	0	43	102	1048576	20	4904
2026-01-25 00:40:27.85	69.04	21.89	-29.5	-32.0	19.9	6.03e-01	0	44	102	1048576	20	4825
2026-01-25 00:40:30.87	69.93	22.05	-29.6	-32.2	19.8	6.06e-01	0	44	102	1048576	20	4906
2026-01-25 00:40:33.87	70.82	22.21	-29.5	-32.2	19.8	6.06e-01	0	43	102	1048576	20	4898
2026-01-25 00:40:36.89	71.73	22.36	-29.7	-32.7	19.5	6.04e-01	0	44	102	1048576	20	5065
2026-01-25 00:40:39.91	72.65	22.51	-29.6	-32.4	19.7	6.00e-01	0	44	102	1048576	20	4954
2026-01-25 00:40:42.93	73.57	22.65	-29.7	-32.6	19.6	6.04e-01	0	43	102	1048576	20	5040
2026-01-25 00:40:45.94	74.50	22.79	-29.9	-33.2	19.2	6.03e-01	0	43	102	1048576	20	5233
2026-01-25 00:40:48.96	75.45	22.91	-30.1	-33.2	19.0	6.03e-01	0	43	102	1048576	21	5131
2026-01-25 00:40:51.97	76.39	23.03	-30.1	-33.2	19.0	6.03e-01	0	44	102	1048576	21	5112
2026-01-25 00:40:54.98	77.35	23.15	-30.4	-33.8	18.5	6.03e-01	0	43	102	1048576	21	5368
2026-01-25 00:40:57.99	78.31	23.25	-30.0	-33.0	19.1	6.03e-01	0	44	102	1048576	21	5038
2026-01-25 00:41:01.01	79.28	23.35	-30.1	-33.6	19.0	6.05e-01	0	44	102	1048576	20	5386
2026-01-25 00:41:04.03	80.26	23.44	-30.1	-33.0	19.1	6.03e-01	0	43	102	1048576	21	5053
2026-01-25 00:41:07.04	81.24	23.52	-29.8	-32.9	19.5	6.02e-01	0	43	102	1048576	20	5113
2026-01-25 00:41:10.06	82.23	23.60	-29.8	-32.8	19.5	6.06e-01	0	44	102	1048576	20	5102
2026-01-25 00:41:13.07	83.22	23.66	-29.7	-32.7	19.6	6.03e-01	0	44	102	1048576	20	5049
2026-01-25 00:41:16.07	84.21	23.72	-29.5	-32.0	20.0	6.03e-01	0	44	102	1048576	20	4822
2026-01-25 00:41:19.08	85.21	23.77	-29.7	-32.7	19.6	6.05e-01	0	43	102	1048576	20	5051
2026-01-25 00:41:22.10	86.21	23.81	-29.7	-32.5	19.7	6.04e-01	0	43	102	1048576	20	4987
2026-01-25 00:41:25.09	87.21	23.84	-30.1	-33.2	19.0	6.03e-01	0	43	102	1048576	21	5122
2026-01-25 00:41:28.10	88.21	23.87	-30.0	-33.0	19.1	6.03e-01	0	44	102	1048576	21	5047
2026-01-25 00:41:31.12	89.22	23.88	-30.2	-33.5	18.7	6.04e-01	0	44	102	1048576	21	5264
2026-01-25 00:41:34.14	90.23	23.89	-30.1	-33.0	19.0	6.03e-01	0	44	102	1048576	21	5077
2026-01-25 00:41:37.15	91.24	23.88	-29.7	-32.5	19.7	6.01e-01	0	44	102	1048576	20	4985
2026-01-25 00:41:40.17	92.25	23.87	-29.8	-32.9	19.5	6.03e-01	0	44	102	1048576	20	5143
2026-01-25 00:41:43.18	93.25	23.85	-29.6	-31.9	19.8	6.01e-01	0	44	102	1048576	21	4677
2026-01-25 00:41:46.20	94.26	23.82	-29.6	-31.8	19.9	6.02e-01	0	44	102	1048576	21	4629
2026-01-25 00:41:49.21	95.26	23.78	-29.6	-31.8	19.8	6.07e-01	0	44	102	1048576	21	4657
2026-01-25 00:41:52.22	96.26	23.74	-29.6	-31.9	19.8	6.04e-01	0	44	102	1048576	21	4660
2026-01-25 00:41:55.24	97.26	23.68	-29.7	-32.0	19.7	6.02e-01	0	44	102	1048576	21	4707
2026-01-25 00:41:58.26	98.25	23.62	-29.7	-32.1	19.6	6.03e-01	0	44	102	1048576	21	4750
2026-01-25 00:42:01.27	99.24	23.54	-29.6	-31.9	19.7	6.02e-01	0	44	102	1048576	21	4688
2026-01-25 00:42:04.28	100.23	23.46	-29.7	-32.1	19.6	6.05e-01	0	44	102	1048576	21	4752
2026-01-25 00:42:07.30	101.21	23.37	-29.6	-31.9	19.7	6.01e-01	0	44	102	1048576	21	4688
2026-01-25 00:42:10.31	102.18	23.28	-29.5	-32.2	19.8	6.04e-01	0	43	102	1048576	20	4890
2026-01-25 00:42:13.33	103.15	23.17	-29.7	-32.5	19.6	6.03e-01	0	44	102	1048576	20	4999
2026-01-25 00:42:16.34	104.10	23.06	-29.6	-32.4	19.7	6.03e-01	0	43	102	1048576	20	4958
2026-01-25 00:42:19.35	105.06	22.94	-29.6	-32.7	19.9	6.00e-01	0	44	102	1048576	19	5177
2026-01-25 00:42:22.35	106.00	22.82	-29.6	-32.4	19.7	6.05e-01	0	44	102	1048576	20	4965
2026-01-25 00:42:25.35	106.93	22.68	-29.5	-32.1	19.9	6.05e-01	0	44	102	1048576	20	4874
2026-01-25 00:42:28.36	107.86	22.55	-29.6	-32.3	19.8	6.01e-01	0	44	102	1048576	20	4930
2026-01-25 00:42:31.37	108.78	22.40	-29.5	-32.1	19.8	6.01e-01	0	44	102	1048576	20	4870
2026-01-25 00:42:34.38	109.69	22.25	-29.6	-32.8	19.8	6.04e-01	0	44	102	1048576	19	5230
2026-01-25 00:42:37.39	110.59	22.09	-29.5	-32.7	19.7	6.02e-01	0	44	102	1048576	19	5229
2026-01-25 00:42:40.40	111.48	21.93	-29.4	-32.5	19.9	6.03e-01	0	44	102	1048576	19	5129
2026-01-25 00:42:43.39	112.35	21.76	-29.5	-32.8	19.7	6.06e-01	0	44	102	1048576	19	5267
2026-01-25 00:42:46.40	113.22	21.58	-29.7	-32.7	19.3	6.02e-01	0	44	102	1048576	20	5111
2026-01-25 00:42:49.41	114.09	21.40	-29.4	-31.9	19.8	6.04e-01	0	44	102	1048576	20	4851
2026-01-25 00:42:52.42	114.94	21.22	-29.6	-32.9	19.6	6.07e-01	0	44	102	1048576	19	5292
2026-01-25 00:42:55.43	115.78	21.03	-29.6	-32.5	19.3	6.04e-01	0	44	102	1048576	20	5065
2026-01-25 00:42:58.44	116.61	20.84	-29.5	-32.3	19.5	6.04e-01	0	44	102	1048576	20	4973
2026-01-25 00:43:01.45	117.43	20.64	-29.6	-32.6	19.3	6.06e-01	0	44	102	1048576	20	5093
2026-01-25 00:43:04.46	118.24	20.44	-29.7	-32.9	19.1	6.03e-01	0	44	102	1048576	20	5221
2026-01-25 00:43:07.46	119.03	20.23	-29.5	-32.4	19.4	6.04e-01	0	44	102	1048576	20	5006
2026-01-25 00:43:10.47	119.82	20.03	-29.6	-32.4	19.5	6.06e-01	0	44	102	1048576	20	5012
2026-01-25 00:43:13.47	120.59	19.82	-29.3	-31.7	19.9	6.05e-01	0	44	102	1048576	20	4766
2026-01-25 00:43:16.48	121.36	19.60	-29.3	-31.9	19.7	6.03e-01	0	44	102	1048576	20	4830
2026-01-25 00:43:19.48	122.11	19.39	-29.2	-31.7	19.9	6.05e-01	0	43	102	1048576	20	4766
2026-01-25 00:43:22.50	122.85	19.17	-29.3	-31.7	19.8	6.04e-01	0	44	102	1048576	20	4784
2026-01-25 00:43:25.52	123.59	18.94	-29.1	-31.3	20.0	6.03e-01	0	44	102	1048576	20	4663
2026-01-25 00:43:28.53	124.31	18.72	-29.3	-31.7	19.8	6.01e-01	0	44	102	1048576	20	4768
2026-01-25 00:43:31.54	125.02	18.49	-29.1	-31.4	19.9	6.02e-01	0	44	102	1048576	20	4701
2026-01-25 00:43:34.55	125.72	18.27	-29.2	-31.6	19.8	6.04e-01	0	44	102	1048576	20	4764
2026-01-25 00:43:37.56	126.40	18.04	-29.2	-31.7	19.7	6.02e-01	0	44	102	1048576	20	4795
2026-01-25 00:43:40.58	127.08	17.81	-29.2	-31.4	19.9	6.03e-01	0	44	102	1048576	20	4672
2026-01-25 00:43:43.59	127.75	17.57	-29.2	-31.7	19.7	6.03e-01	0	44	102	1048576	20	4810
2026-01-25 00:43:46.60	128.41	17.34	-29.3	-32.3	19.7	6.03e-01	0	44	102	1048576	19	5102
2026-01-25 00:43:49.61	129.05	17.11	-29.3	-32.1	19.8	6.05e-01	0	44	102	1048576	19	4997
2026-01-25 00:43:52.61	129.69	16.87	-29.3	-32.2	19.8	6.02e-01	0	44	102	1048576	19	5043
2026-01-25 00:43:55.63	130.31	16.64	-29.4	-32.5	19.5	6.01e-01	0	44	102	1048576	19	5167
2026-01-25 00:43:58.64	130.93	16.40	-29.3	-32.4	19.6	6.02e-01	0	44	102	1048576	19	5141
2026-01-25 00:44:01.65	131.54	16.17	-29.3	-32.4	19.6	6.04e-01	0	44	102	1048576	19	5123
2026-01-25 00:44:04.66	132.13	15.93	-29.4	-32.6	19.5	6.04e-01	0	44	102	1048576	19	5209
2026-01-25 00:44:07.68	132.72	15.69	-29.2	-32.1	19.7	6.02e-01	0	44	102	1048576	19	5015
2026-01-25 00:44:10.68	133.29	15.46	-29.3	-32.4	19.6	6.04e-01	0	44	102	1048576	19	5113
2026-01-25 00:44:13.68	133.86	15.22	-29.2	-32.5	19.3	6.04e-01	0	44	102	1048576	19	5242
2026-01-25 00:44:16.70	134.42	14.98	-29.0	-32.2	19.4	6.05e-01	0	44	102	1048576	19	5171
2026-01-25 00:44:19.68	134.96	14.75	-29.3	-32.5	19.3	6.03e-01	0	44	102	1048576	19	5233
2026-01-25 00:44:22.69	135.50	14.51	-29.4	-32.7	19.3	6.06e-01	0	44	102	1048576	19	5241
2026-01-25 00:44:25.70	136.03	14.28	-29.2	-32.3	19.4	6.03e-01	0	44	102	1048576	19	5119
2026-01-25 00:44:28.71	136.56	14.04	-29.3	-32.5	19.3	6.01e-01	0	44	102	1048576	19	5201
2026-01-25 00:44:31.73	137.07	13.80	-29.5	-33.0	19.0	6.03e-01	0	44	102	1048576	19	5377
2026-01-25 00:44:34.74	137.58	13.57	-29.5	-32.6	18.8	6.03e-01	0	44	102	1048576	20	5156
2026-01-25 00:44:37.76	138.08	13.34	-29.5	-32.8	18.6	6.04e-01	0	44	102	1048576	20	5235
2026-01-25 00:44:40.78	138.57	13.10	-29.4	-32.5	18.8	6.03e-01	0	44	102	1048576	20	5132
2026-01-25 00:44:43.79	139.05	12.87	-29.4	-32.4	18.8	6.04e-01	0	44	102	1048576	20	5099
2026-01-25 00:44:46.80	139.52	12.64	-29.4	-32.4	18.8	6.03e-01	0	44	102	1048576	20	5106
2026-01-25 00:44:49.82	139.99	12.40	-29.4	-32.9	18.8	6.02e-01	0	44	102	1048576	19	5396
2026-01-25 00:44:52.82	140.44	12.18	-29.6	-33.4	18.5	6.03e-01	0	44	102	1048576	19	5581
2026-01-25 00:44:55.83	140.89	11.95	-29.6	-33.3	18.5	6.03e-01	0	44	102	1048576	19	5569
2026-01-25 00:44:58.84	141.34	11.72	-29.6	-33.0	18.3	6.02e-01	0	44	102	1048576	20	5309
2026-01-25 00:45:01.86	141.77	11.49	-29.7	-33.3	18.0	6.04e-01	0	44	102	1048576	20	5460
2026-01-25 00:45:04.87	142.20	11.26	-29.5	-33.5	18.2	6.03e-01	0	43	102	1048576	19	5693
2026-01-25 00:45:07.88	142.63	11.04	-28.9	-33.4	17.5	6.05e-01	0	44	102	1048576	19	6033
2026-01-25 00:45:10.89	143.04	10.81	-29.6	-33.2	17.3	6.03e-01	0	44	102	1048576	20	5467
2026-01-25 00:45:13.91	143.45	10.59	-29.6	-33.3	17.4	6.02e-01	0	44	102	1048576	20	5491
2026-01-25 00:45:16.92	143.85	10.37	-29.5	-32.9	18.1	6.05e-01	0	44	102	1048576	20	5357
2026-01-25 00:45:19.93	144.25	10.14	-29.6	-33.8	17.9	6.03e-01	0	44	102	1048576	19	5850
2026-01-25 00:45:22.95	144.64	9.92	-29.6	-33.7	18.0	6.03e-01	0	44	102	1048576	19	5791
2026-01-25 00:45:25.97	145.03	9.70	-29.5	-33.0	18.1	6.02e-01	0	44	102	1048576	20	5356
2026-01-25 00:45:28.98	145.41	9.49	-29.6	-33.3	17.8	6.03e-01	0	43	102	1048576	20	5516
2026-01-25 00:45:31.99	145.78	9.27	-29.5	-33.4	17.6	6.04e-01	0	44	102	1048576	20	5641
2026-01-25 00:45:35.00	146.14	9.05	-29.5	-33.7	17.8	6.03e-01	0	44	102	1048576	19	5829
2026-01-25 00:45:38.01	146.50	8.84	-29.6	-33.8	17.8	6.06e-01	0	44	102	1048576	19	5893
2026-01-25 00:45:41.02	146.86	8.62	-29.6	-34.1	17.5	6.01e-01	0	44	102	1048576	19	6061
2026-01-25 00:45:44.03	147.21	8.41	-29.5	-34.0	17.4	6.02e-01	0	44	102	1048576	19	6089
2026-01-25 00:45:47.04	147.55	8.20	-29.4	-34.4	17.0	6.02e-01	0	44	102	1048576	19	6357
2026-01-25 00:45:50.04	147.89	7.99	-29.6	-35.1	16.4	6.02e-01	0	44	102	1048576	19	6794
2026-01-25 00:45:53.06	148.23	7.78	-29.8	-35.0	16.1	6.03e-01	0	44	102	1048576	20	6581
2026-01-25 00:45:56.06	148.56	7.57	-29.8	-35.4	15.7	6.04e-01	0	44	102	1048576	20	6846
2026-01-25 00:45:59.06	148.88	7.37	-29.6	-35.6	15.3	6.04e-01	0	44	102	1048576	20	7189
2026-01-25 00:46:02.08	149.20	7.16	-28.5	-34.6	16.3	6.02e-01	0	44	102	1048576	18	7233
2026-01-25 00:46:05.10	149.52	6.96	-33.5	-52.8	3.8	7.46e-01	0	44	104	1048576	28	33167

#Closed at: 2026-01-25 00:46:07
#Recorded file [1 MB]: D:/data/31010_260125_033747.dat