passes_logs/2026/01/25/R2M6_AANII_01/R2M6_AANII_01__20260125_022510_FENGYUN_3D_rec.log

#Pass ID: 20260125_022510_FENGYUN 3D
#Satellite: FENGYUN 3D
#Configuration: FENGYUN 3D
#almurnet v.1.7.20240730
#Start time: 2026-01-25 02:25:12

#Version: 2.2.20231116
#Station: R2M6_AANII_01
#Location: 30.233357 lon 59.946436 lat
#TLE: 1 43010U 17072A   26024.51794477  .00000040  00000+0  40682-4 0  9990
#TLE: 2 43010  98.9961 356.4820 0002494  91.2631 268.8830 14.19699550424601

#Time	Az	El	Level	Level2	SNR	BER	BlckErr	Temp	State	Recorded	gain1	gain2
2026-01-25 02:25:12.42	18.78	7.15	-34.1	-45.2	3.8	8.46e-01	0	44	0	0	28	12998
2026-01-25 02:25:15.43	18.80	7.38	-34.1	-45.2	3.8	8.46e-01	0	44	104	0	28	13050
2026-01-25 02:25:18.44	18.81	7.62	-33.9	-45.3	3.8	8.46e-01	0	44	104	0	27	13478
2026-01-25 02:25:21.44	18.83	7.85	-33.6	-44.7	3.8	8.45e-01	0	44	104	0	27	12993
2026-01-25 02:25:24.46	18.85	8.10	-33.4	-44.9	3.8	8.47e-01	0	44	104	0	26	13552
2026-01-25 02:25:27.48	18.87	8.34	-33.1	-44.3	3.8	8.47e-01	0	44	104	0	26	13056
2026-01-25 02:25:30.49	18.88	8.58	-32.1	-39.6	4.0	8.40e-01	0	44	104	0	24	8617
2026-01-25 02:25:33.49	18.90	8.83	-31.8	-38.6	4.9	7.92e-01	0	44	0	0	23	7902
2026-01-25 02:25:36.49	18.92	9.08	-31.4	-37.1	6.0	4.53e-01	0	44	102	1048576	22	6962
2026-01-25 02:25:39.49	18.94	9.33	-30.4	-34.3	8.0	8.62e-02	0	44	102	1048576	21	5620
2026-01-25 02:25:42.51	18.95	9.59	-29.4	-32.2	10.3	1.09e-02	0	44	102	1048576	19	4963
2026-01-25 02:25:45.51	18.97	9.84	-28.6	-31.1	11.6	2.87e-03	0	44	102	1048576	17	4816
2026-01-25 02:25:48.52	18.99	10.10	-28.4	-31.1	11.9	5.78e-04	0	44	102	1048576	16	4920
2026-01-25 02:25:51.53	19.01	10.37	-28.5	-30.9	11.7	6.75e-04	0	45	102	1048576	17	4749
2026-01-25 02:25:54.54	19.02	10.63	-28.4	-30.7	11.9	2.39e-03	0	44	102	1048576	17	4668
2026-01-25 02:25:57.55	19.04	10.90	-27.0	-28.4	13.7	1.25e-05	0	44	102	1048576	15	4201
2026-01-25 02:26:00.56	19.06	11.17	-26.0	-27.6	15.0	2.20e-06	0	44	102	1048576	12	4305
2026-01-25 02:26:03.57	19.08	11.45	-26.1	-27.7	15.0	0.00e+00	0	44	102	1048576	12	4328
2026-01-25 02:26:06.58	19.10	11.73	-26.0	-27.6	15.1	0.00e+00	0	44	102	1048576	12	4302
2026-01-25 02:26:09.58	19.11	12.01	-26.1	-27.7	15.0	0.00e+00	0	44	102	1048576	12	4347
2026-01-25 02:26:12.59	19.13	12.29	-25.7	-26.9	15.5	0.00e+00	0	44	102	1048576	12	4117
2026-01-25 02:26:15.61	19.15	12.58	-25.7	-27.3	15.6	0.00e+00	0	44	102	1048576	11	4326
2026-01-25 02:26:18.63	19.17	12.87	-25.7	-27.2	15.7	0.00e+00	0	44	102	1048576	11	4318
2026-01-25 02:26:21.65	19.19	13.17	-25.7	-27.3	15.7	0.00e+00	0	44	102	1048576	11	4328
2026-01-25 02:26:24.66	19.21	13.47	-25.5	-26.8	15.9	0.00e+00	0	44	102	1048576	11	4199
2026-01-25 02:26:27.69	19.23	13.77	-25.5	-26.8	15.9	0.00e+00	0	44	102	1048576	11	4209
2026-01-25 02:26:30.70	19.25	14.08	-25.3	-26.5	16.1	0.00e+00	0	44	102	1048576	11	4127
2026-01-25 02:26:33.71	19.27	14.39	-25.3	-26.9	16.2	0.00e+00	0	44	102	1048576	10	4327
2026-01-25 02:26:36.73	19.29	14.70	-25.1	-26.6	16.4	0.00e+00	0	44	102	1048576	10	4251
2026-01-25 02:26:39.75	19.31	15.02	-25.1	-26.5	16.4	0.00e+00	0	44	102	1048576	10	4222
2026-01-25 02:26:42.75	19.33	15.34	-24.5	-25.5	16.6	0.00e+00	0	44	102	1048576	10	4067
2026-01-25 02:26:45.76	19.35	15.67	-24.9	-26.1	16.3	0.00e+00	0	44	102	1048576	10	4118
2026-01-25 02:26:48.77	19.37	16.00	-24.9	-26.0	16.7	0.00e+00	0	44	102	1048576	10	4106
2026-01-25 02:26:51.78	19.39	16.34	-24.7	-26.1	16.9	9.31e-04	0	44	102	1048576	9	4230
2026-01-25 02:26:54.80	19.41	16.68	-24.5	-25.8	17.1	0.00e+00	0	44	102	1048576	9	4157
2026-01-25 02:26:57.82	19.43	17.02	-24.5	-25.8	17.1	0.00e+00	0	44	102	1048576	9	4152
2026-01-25 02:27:00.82	19.45	17.37	-24.7	-26.1	17.0	8.08e-04	0	44	102	1048576	9	4231
2026-01-25 02:27:03.82	19.47	17.73	-24.8	-26.2	16.9	7.57e-04	0	44	102	1048576	9	4268
2026-01-25 02:27:06.84	19.49	18.09	-24.8	-25.7	16.9	0.00e+00	0	44	102	1048576	10	4034
2026-01-25 02:27:09.86	19.51	18.46	-24.3	-25.6	17.5	8.07e-04	0	44	102	1048576	8	4228
2026-01-25 02:27:12.88	19.53	18.83	-24.1	-25.4	17.7	7.41e-04	0	44	102	1048576	8	4158
2026-01-25 02:27:15.89	19.56	19.21	-23.6	-24.7	18.2	0.00e+00	0	44	102	1048576	7	4098
2026-01-25 02:27:18.90	19.58	19.59	-23.5	-24.5	18.3	7.37e-04	0	44	102	1048576	7	4056
2026-01-25 02:27:21.91	19.60	19.98	-23.4	-24.4	18.4	6.60e-04	0	44	102	1048576	7	4021
2026-01-25 02:27:24.92	19.62	20.37	-23.4	-24.3	18.5	7.45e-04	0	44	102	1048576	7	3996
2026-01-25 02:27:27.92	19.65	20.77	-23.6	-24.6	18.3	0.00e+00	0	44	102	1048576	7	4083
2026-01-25 02:27:30.93	19.67	21.18	-23.6	-24.8	18.3	0.00e+00	0	44	102	1048576	7	4106
2026-01-25 02:27:33.93	19.69	21.60	-23.6	-24.8	18.3	0.00e+00	0	44	102	1048576	7	4122
2026-01-25 02:27:36.96	19.72	22.02	-23.8	-25.3	18.0	0.00e+00	0	44	102	1048576	7	4235
2026-01-25 02:27:39.97	19.74	22.45	-23.3	-24.1	18.6	0.00e+00	0	44	102	1048576	7	3960
2026-01-25 02:27:42.99	19.77	22.89	-23.4	-24.3	18.6	0.00e+00	0	44	102	1048576	7	4000
2026-01-25 02:27:45.98	19.79	23.33	-23.3	-24.1	18.7	0.00e+00	0	44	102	1048576	7	3949
2026-01-25 02:27:48.98	19.82	23.78	-23.3	-24.1	18.7	0.00e+00	0	44	102	1048576	7	3955
2026-01-25 02:27:52.00	19.84	24.24	-23.3	-24.1	18.7	0.00e+00	0	44	102	1048576	7	3945
2026-01-25 02:27:55.01	19.87	24.71	-22.9	-23.8	19.1	0.00e+00	0	44	102	1048576	6	3977
2026-01-25 02:27:58.01	19.89	25.18	-22.7	-23.3	19.4	0.00e+00	0	44	102	1048576	6	3868
2026-01-25 02:28:01.02	19.92	25.67	-22.7	-23.3	19.4	0.00e+00	0	44	102	1048576	6	3858
2026-01-25 02:28:04.03	19.95	26.16	-22.7	-23.4	19.3	0.00e+00	0	44	102	1048576	6	3905
2026-01-25 02:28:07.04	19.98	26.67	-22.6	-23.7	19.5	0.00e+00	0	44	102	1048576	5	4070
2026-01-25 02:28:10.04	20.01	27.18	-22.5	-23.4	19.6	0.00e+00	0	44	102	1048576	5	4006
2026-01-25 02:28:13.06	20.03	27.70	-22.6	-23.7	19.5	0.00e+00	0	44	102	1048576	5	4069
2026-01-25 02:28:16.07	20.06	28.24	-22.7	-23.9	19.4	0.00e+00	0	44	102	1048576	5	4114
2026-01-25 02:28:19.07	20.09	28.78	-22.8	-24.0	19.3	0.00e+00	0	44	102	1048576	5	4155
2026-01-25 02:28:22.09	20.12	29.34	-22.8	-24.1	19.3	0.00e+00	0	44	102	1048576	5	4167
2026-01-25 02:28:25.11	20.16	29.91	-22.8	-24.0	19.4	0.00e+00	0	44	102	1048576	5	4140
2026-01-25 02:28:28.13	20.19	30.48	-22.8	-24.1	19.3	0.00e+00	0	44	102	1048576	5	4170
2026-01-25 02:28:31.14	20.22	31.07	-23.0	-24.4	19.2	0.00e+00	0	44	102	1048576	5	4251
2026-01-25 02:28:34.16	20.25	31.68	-22.6	-23.7	19.6	0.00e+00	0	44	102	1048576	5	4064
2026-01-25 02:28:37.16	20.29	32.29	-22.5	-23.3	19.8	0.00e+00	0	44	102	1048576	5	3983
2026-01-25 02:28:40.17	20.32	32.92	-22.5	-23.4	19.7	0.00e+00	0	44	102	1048576	5	3989
2026-01-25 02:28:43.18	20.36	33.56	-22.7	-24.0	19.4	0.00e+00	0	44	102	1048576	5	4138
2026-01-25 02:28:46.18	20.40	34.21	-22.6	-23.7	19.6	0.00e+00	0	44	102	1048576	5	4064
2026-01-25 02:28:49.19	20.44	34.88	-22.7	-23.9	19.5	0.00e+00	0	44	102	1048576	5	4135
2026-01-25 02:28:52.21	20.48	35.56	-22.8	-24.0	19.5	0.00e+00	0	44	102	1048576	5	4138
2026-01-25 02:28:55.22	20.52	36.26	-22.6	-23.6	19.7	0.00e+00	0	44	102	1048576	5	4047
2026-01-25 02:28:58.23	20.56	36.98	-22.4	-23.2	19.9	0.00e+00	0	44	102	1048576	5	3957
2026-01-25 02:29:01.24	20.60	37.71	-22.4	-23.2	19.9	0.00e+00	0	44	102	1048576	5	3945
2026-01-25 02:29:04.25	20.65	38.45	-22.7	-23.8	19.6	0.00e+00	0	44	102	1048576	5	4099
2026-01-25 02:29:07.26	20.69	39.21	-22.4	-23.3	19.9	0.00e+00	0	44	102	1048576	5	3969
2026-01-25 02:29:10.27	20.74	39.99	-22.4	-23.1	19.9	0.00e+00	0	44	102	1048576	5	3934
2026-01-25 02:29:13.27	20.79	40.79	-22.4	-23.3	19.9	0.00e+00	0	44	102	1048576	5	3961
2026-01-25 02:29:16.28	20.84	41.60	-22.5	-23.5	19.8	0.00e+00	0	44	102	1048576	5	4023
2026-01-25 02:29:19.29	20.90	42.44	-22.5	-23.5	19.8	0.00e+00	0	44	102	1048576	5	4018
2026-01-25 02:29:22.30	20.95	43.29	-22.6	-23.7	19.7	0.00e+00	0	44	102	1048576	5	4060
2026-01-25 02:29:25.32	21.01	44.17	-22.8	-24.0	19.6	0.00e+00	0	44	102	1048576	5	4143
2026-01-25 02:29:28.32	21.07	45.06	-23.8	-25.2	18.5	0.00e+00	0	44	102	1048576	7	4222
2026-01-25 02:29:31.34	21.14	45.98	-23.9	-24.8	18.5	0.00e+00	0	44	102	1048576	8	4011
2026-01-25 02:29:34.36	21.20	46.92	-23.8	-24.7	18.6	0.00e+00	0	44	102	1048576	8	3968
2026-01-25 02:29:37.37	21.27	47.87	-24.3	-25.7	18.0	0.00e+00	0	44	102	1048576	8	4238
2026-01-25 02:29:40.39	21.35	48.85	-23.4	-23.7	19.1	0.00e+00	0	44	102	1048576	8	3738
2026-01-25 02:29:43.40	21.43	49.86	-23.5	-24.5	18.9	0.00e+00	0	44	102	1048576	7	4050
2026-01-25 02:29:46.42	21.51	50.88	-22.7	-23.3	19.8	0.00e+00	0	44	102	1048576	6	3857
2026-01-25 02:29:49.44	21.60	51.93	-23.1	-24.1	19.4	0.00e+00	0	44	102	1048576	6	4057
2026-01-25 02:29:52.44	21.70	53.00	-23.9	-25.3	18.5	0.00e+00	0	44	102	1048576	7	4255
2026-01-25 02:29:55.45	21.80	54.09	-23.7	-25.0	18.7	0.00e+00	0	44	102	1048576	7	4158
2026-01-25 02:29:58.47	21.91	55.21	-24.7	-26.0	17.7	0.00e+00	0	44	102	1048576	9	4191
2026-01-25 02:30:01.46	22.02	56.35	-24.7	-26.0	17.7	0.00e+00	0	44	102	1048576	9	4187
2026-01-25 02:30:04.46	22.14	57.51	-24.5	-25.7	17.9	0.00e+00	0	44	102	1048576	9	4105
2026-01-25 02:30:07.47	22.28	58.70	-23.6	-24.2	19.0	0.00e+00	0	44	102	1048576	8	3850
2026-01-25 02:30:10.49	22.43	59.91	-23.4	-23.8	19.1	3.40e-06	0	44	102	1048576	8	3752
2026-01-25 02:30:13.50	22.59	61.15	-22.8	-23.0	19.8	0.00e+00	0	44	102	1048576	7	3690
2026-01-25 02:30:16.51	22.76	62.41	-22.9	-23.7	19.7	0.00e+00	0	44	102	1048576	6	3952
2026-01-25 02:30:19.53	22.96	63.70	-22.8	-23.1	19.7	3.54e-05	0	44	102	1048576	7	3709
2026-01-25 02:30:22.53	23.18	65.00	-22.3	-23.1	20.2	1.96e-04	0	44	102	1048576	5	3914
2026-01-25 02:30:25.54	23.42	66.33	-22.2	-22.8	20.4	2.94e-04	0	44	102	1048576	5	3845
2026-01-25 02:30:28.55	23.69	67.68	-22.2	-22.7	20.5	2.75e-04	0	44	102	1048576	5	3826
2026-01-25 02:30:31.56	24.00	69.06	-21.9	-22.2	20.7	1.70e-04	0	44	102	1048576	5	3723
2026-01-25 02:30:34.57	24.36	70.45	-21.6	-22.1	21.0	0.00e+00	0	44	102	1048576	4	3789
2026-01-25 02:30:37.58	24.77	71.86	-22.0	-22.8	20.6	0.00e+00	0	44	102	1048576	4	3974
2026-01-25 02:30:40.61	25.26	73.30	-21.8	-22.4	20.8	5.60e-05	0	44	102	1048576	4	3884
2026-01-25 02:30:43.61	25.83	74.75	-21.4	-21.7	21.2	4.50e-06	0	44	102	1048576	4	3706
2026-01-25 02:30:46.63	26.54	76.21	-21.2	-21.7	21.5	0.00e+00	0	44	102	1048576	3	3806
2026-01-25 02:30:49.65	27.42	77.69	-21.0	-21.3	21.7	0.00e+00	0	44	102	1048576	3	3729
2026-01-25 02:30:52.66	28.55	79.18	-20.7	-21.3	21.9	5.70e-06	0	44	102	1048576	2	3826
2026-01-25 02:30:55.66	30.02	80.67	-20.4	-20.6	22.3	0.00e+00	0	44	102	1048576	2	3678
2026-01-25 02:30:58.67	32.08	82.16	-20.1	-20.5	22.6	0.00e+00	0	44	102	1048576	1	3763
2026-01-25 02:31:01.68	35.11	83.65	-20.1	-20.4	22.6	0.00e+00	0	44	102	1048576	1	3740
2026-01-25 02:31:04.70	40.01	85.12	-21.4	-22.6	21.4	0.00e+00	0	44	102	1048576	2	4142
2026-01-25 02:31:07.71	48.99	86.53	-22.3	-23.4	20.5	0.00e+00	0	44	102	1048576	4	4118
2026-01-25 02:31:10.72	68.80	87.75	-22.6	-23.7	20.2	0.00e+00	0	44	102	1048576	5	4053
2026-01-25 02:31:13.73	112.49	88.30	-23.1	-24.1	19.9	0.00e+00	0	44	102	1048576	6	4047
2026-01-25 02:31:16.75	153.71	87.64	-23.8	-25.1	19.3	0.00e+00	0	44	102	1048576	7	4170
2026-01-25 02:31:19.76	171.70	86.38	-23.5	-24.5	19.5	0.00e+00	0	44	102	1048576	7	4038
2026-01-25 02:31:22.77	180.02	84.96	-23.3	-24.0	19.7	0.00e+00	0	44	102	1048576	7	3913
2026-01-25 02:31:25.78	184.63	83.49	-22.8	-23.0	20.2	0.00e+00	0	44	102	1048576	7	3682
2026-01-25 02:31:28.79	187.53	82.00	-22.6	-23.1	20.4	0.00e+00	0	44	102	1048576	6	3804
2026-01-25 02:31:31.80	189.51	80.50	-22.9	-23.6	20.1	0.00e+00	0	44	102	1048576	6	3915
2026-01-25 02:31:34.81	190.94	79.01	-22.4	-22.7	20.4	0.00e+00	0	44	102	1048576	6	3724
2026-01-25 02:31:37.83	192.04	77.52	-21.1	-21.6	21.8	0.00e+00	0	44	102	1048576	3	3787
2026-01-25 02:31:40.84	192.89	76.04	-21.7	-22.7	21.1	0.00e+00	0	44	102	1048576	3	4063
2026-01-25 02:31:43.85	193.58	74.58	-22.0	-22.9	20.8	0.00e+00	0	44	102	1048576	4	3991
2026-01-25 02:31:46.86	194.15	73.13	-22.3	-23.4	20.6	1.46e-04	0	44	102	1048576	4	4098
2026-01-25 02:31:49.87	194.63	71.70	-22.2	-23.3	20.6	1.22e-04	0	44	102	1048576	4	4089
2026-01-25 02:31:52.89	195.03	70.28	-22.3	-23.1	20.4	0.00e+00	0	44	102	1048576	5	3914
2026-01-25 02:31:55.90	195.38	68.89	-21.9	-22.1	20.9	0.00e+00	0	44	102	1048576	5	3685
2026-01-25 02:31:58.92	195.69	67.51	-22.1	-22.5	20.7	1.59e-04	0	44	102	1048576	5	3781
2026-01-25 02:32:01.93	195.96	66.16	-22.5	-23.4	20.3	0.00e+00	0	44	102	1048576	5	3981
2026-01-25 02:32:04.94	196.19	64.83	-22.6	-23.6	20.2	1.59e-04	0	44	102	1048576	5	4036
2026-01-25 02:32:07.95	196.41	63.52	-22.0	-22.4	20.7	1.94e-04	0	44	102	1048576	5	3750
2026-01-25 02:32:10.96	196.60	62.23	-22.2	-22.8	20.5	0.00e+00	0	44	102	1048576	5	3860
2026-01-25 02:32:13.96	196.77	60.98	-22.4	-23.2	20.3	0.00e+00	0	44	102	1048576	5	3948
2026-01-25 02:32:16.96	196.93	59.74	-22.7	-23.8	20.0	2.08e-04	0	44	102	1048576	5	4090
2026-01-25 02:32:19.97	197.08	58.53	-22.8	-23.9	19.9	0.00e+00	0	44	102	1048576	5	4119
2026-01-25 02:32:22.98	197.21	57.34	-23.7	-25.0	18.9	0.00e+00	0	44	102	1048576	7	4148
2026-01-25 02:32:25.98	197.33	56.18	-23.6	-24.6	19.1	0.00e+00	0	44	102	1048576	7	4058
2026-01-25 02:32:28.99	197.45	55.03	-23.6	-24.6	19.1	0.00e+00	0	44	102	1048576	7	4061
2026-01-25 02:32:32.01	197.56	53.91	-23.8	-25.1	18.8	0.00e+00	0	44	102	1048576	7	4183
2026-01-25 02:32:35.01	197.65	52.82	-23.3	-24.1	19.3	0.00e+00	0	44	102	1048576	7	3941
2026-01-25 02:32:38.02	197.75	51.75	-23.5	-24.5	19.1	0.00e+00	0	44	102	1048576	7	4041
2026-01-25 02:32:41.04	197.84	50.70	-23.2	-23.9	19.4	0.00e+00	0	44	102	1048576	7	3900
2026-01-25 02:32:44.04	197.92	49.68	-22.4	-22.7	20.2	0.00e+00	0	44	102	1048576	6	3728
2026-01-25 02:32:47.06	198.00	48.68	-22.8	-23.6	19.8	0.00e+00	0	44	102	1048576	6	3934
2026-01-25 02:32:50.05	198.07	47.70	-22.7	-23.3	19.9	0.00e+00	0	44	102	1048576	6	3857
2026-01-25 02:32:53.07	198.14	46.74	-22.5	-22.9	20.1	0.00e+00	0	44	102	1048576	6	3776
2026-01-25 02:32:56.09	198.20	45.80	-22.5	-22.9	20.1	0.00e+00	0	44	102	1048576	6	3769
2026-01-25 02:32:59.10	198.27	44.89	-22.5	-22.9	20.1	0.00e+00	0	44	102	1048576	6	3761
2026-01-25 02:33:02.11	198.33	43.99	-22.2	-22.8	20.3	0.00e+00	0	44	102	1048576	5	3840
2026-01-25 02:33:05.12	198.39	43.12	-22.6	-23.6	19.9	0.00e+00	0	44	102	1048576	5	4052
2026-01-25 02:33:08.14	198.44	42.26	-22.7	-23.8	19.8	0.00e+00	0	44	102	1048576	5	4082
2026-01-25 02:33:11.15	198.49	41.43	-22.5	-23.4	20.0	0.00e+00	0	44	102	1048576	5	3986
2026-01-25 02:33:14.16	198.54	40.61	-22.3	-22.9	20.2	0.00e+00	0	44	102	1048576	5	3885
2026-01-25 02:33:17.17	198.59	39.81	-22.4	-23.2	20.1	0.00e+00	0	44	102	1048576	5	3956
2026-01-25 02:33:20.18	198.64	39.03	-22.3	-22.9	20.2	0.00e+00	0	44	102	1048576	5	3873
2026-01-25 02:33:23.19	198.68	38.27	-21.8	-22.5	20.6	0.00e+00	0	44	102	1048576	4	3888
2026-01-25 02:33:26.21	198.73	37.52	-22.0	-22.9	20.5	0.00e+00	0	44	102	1048576	4	3973
2026-01-25 02:33:29.23	198.77	36.79	-22.3	-23.5	20.1	0.00e+00	0	44	102	1048576	4	4135
2026-01-25 02:33:32.25	198.81	36.07	-22.5	-23.9	19.9	0.00e+00	0	44	102	1048576	4	4232
2026-01-25 02:33:35.26	198.85	35.37	-22.2	-23.4	20.2	0.00e+00	0	44	102	1048576	4	4104
2026-01-25 02:33:38.27	198.89	34.69	-22.1	-23.1	20.3	0.00e+00	0	44	102	1048576	4	4036
2026-01-25 02:33:41.27	198.93	34.02	-22.1	-23.1	20.3	0.00e+00	0	44	102	1048576	4	4040
2026-01-25 02:33:44.28	198.96	33.37	-22.4	-23.8	19.9	0.00e+00	0	44	102	1048576	4	4209
2026-01-25 02:33:47.29	199.00	32.73	-22.8	-24.2	19.5	0.00e+00	0	44	102	1048576	5	4187
2026-01-25 02:33:50.31	199.03	32.10	-23.0	-24.5	19.3	0.00e+00	0	44	102	1048576	5	4264
2026-01-25 02:33:53.31	199.06	31.48	-23.0	-24.0	19.3	0.00e+00	0	44	102	1048576	6	4040
2026-01-25 02:33:56.32	199.10	30.88	-22.8	-23.5	19.6	0.00e+00	0	44	102	1048576	6	3901
2026-01-25 02:33:59.32	199.13	30.29	-22.6	-23.1	19.8	0.00e+00	0	44	102	1048576	6	3822
2026-01-25 02:34:02.34	199.16	29.71	-22.7	-23.8	19.7	0.00e+00	0	44	102	1048576	5	4083
2026-01-25 02:34:05.35	199.19	29.15	-22.8	-23.9	19.6	0.00e+00	0	44	102	1048576	5	4126
2026-01-25 02:34:08.35	199.22	28.59	-22.7	-23.9	19.6	0.00e+00	0	44	102	1048576	5	4118
2026-01-25 02:34:11.36	199.25	28.05	-22.4	-23.3	19.9	0.00e+00	0	44	102	1048576	5	3971
2026-01-25 02:34:14.37	199.27	27.51	-22.4	-23.1	19.9	0.00e+00	0	44	102	1048576	5	3928
2026-01-25 02:34:17.39	199.30	26.99	-22.5	-23.5	19.7	0.00e+00	0	44	102	1048576	5	4019
2026-01-25 02:34:20.40	199.33	26.48	-22.6	-23.6	19.7	0.00e+00	0	44	102	1048576	5	4046
2026-01-25 02:34:23.41	199.35	25.97	-22.7	-23.8	19.6	0.00e+00	0	44	102	1048576	5	4095
2026-01-25 02:34:26.42	199.38	25.48	-22.9	-24.3	19.3	1.37e-05	0	44	102	1048576	5	4236
2026-01-25 02:34:29.43	199.40	24.99	-23.1	-24.2	19.1	9.10e-06	0	44	102	1048576	6	4084
2026-01-25 02:34:32.43	199.43	24.51	-23.2	-24.4	19.0	1.14e-05	0	44	102	1048576	6	4143
2026-01-25 02:34:35.44	199.45	24.05	-23.3	-24.5	18.9	0.00e+00	0	44	102	1048576	6	4164
2026-01-25 02:34:38.46	199.48	23.58	-23.5	-24.9	18.7	3.40e-06	0	44	102	1048576	6	4259
2026-01-25 02:34:41.46	199.50	23.13	-23.3	-24.1	18.9	5.70e-06	0	44	102	1048576	7	3955
2026-01-25 02:34:44.47	199.52	22.69	-23.2	-24.4	15.6	0.00e+00	0	44	102	1048576	6	4133
2026-01-25 02:34:47.47	199.55	22.25	-23.3	-24.6	18.9	0.00e+00	0	44	102	1048576	6	4175
2026-01-25 02:34:50.48	199.57	21.82	-23.5	-25.0	18.7	0.00e+00	0	44	102	1048576	6	4275
2026-01-25 02:34:53.50	199.59	21.40	-23.8	-25.1	18.3	7.82e-04	0	44	102	1048576	7	4204
2026-01-25 02:34:56.51	199.61	20.99	-24.0	-25.5	18.1	0.00e+00	0	44	102	1048576	7	4306
2026-01-25 02:34:59.52	199.64	20.58	-24.3	-25.7	17.8	0.00e+00	0	44	102	1048576	8	4233
2026-01-25 02:35:02.53	199.66	20.17	-24.3	-25.8	17.7	4.11e-04	0	44	102	1048576	8	4246
2026-01-25 02:35:05.54	199.68	19.78	-24.3	-25.2	17.7	3.44e-04	0	44	102	1048576	9	4004
2026-01-25 02:35:08.54	199.70	19.39	-23.8	-24.7	18.3	2.72e-04	0	44	102	1048576	8	3989
2026-01-25 02:35:11.55	199.72	19.01	-24.0	-25.1	18.1	1.85e-04	0	44	102	1048576	8	4069
2026-01-25 02:35:14.55	199.74	18.63	-24.0	-25.1	18.0	1.22e-04	0	44	102	1048576	8	4092
2026-01-25 02:35:17.57	199.76	18.26	-24.2	-25.5	17.8	3.66e-05	0	44	102	1048576	8	4190
2026-01-25 02:35:20.57	199.78	17.89	-24.3	-25.7	17.7	0.00e+00	0	44	102	1048576	8	4237
2026-01-25 02:35:23.59	199.80	17.53	-24.4	-25.9	17.6	1.14e-04	0	44	102	1048576	8	4299
2026-01-25 02:35:26.62	199.82	17.17	-24.4	-25.5	17.5	1.80e-04	0	44	102	1048576	9	4064
2026-01-25 02:35:29.63	199.83	16.82	-24.5	-25.7	17.4	0.00e+00	0	44	102	1048576	9	4132
2026-01-25 02:35:32.65	199.85	16.47	-24.6	-25.9	17.3	0.00e+00	0	44	102	1048576	9	4185
2026-01-25 02:35:35.65	199.87	16.14	-24.8	-26.2	17.1	4.30e-04	0	44	102	1048576	9	4259
2026-01-25 02:35:38.66	199.89	15.80	-24.9	-26.5	16.9	0.00e+00	0	44	102	1048576	9	4335
2026-01-25 02:35:41.66	199.91	15.47	-25.0	-26.2	16.8	0.00e+00	0	44	102	1048576	10	4150
2026-01-25 02:35:44.68	199.92	15.14	-25.2	-26.7	16.6	0.00e+00	0	44	102	1048576	10	4261
2026-01-25 02:35:47.68	199.94	14.82	-25.4	-27.1	16.3	0.00e+00	0	44	102	1048576	10	4380
2026-01-25 02:35:50.69	199.96	14.50	-25.8	-27.4	15.9	0.00e+00	0	44	102	1048576	11	4345
2026-01-25 02:35:53.70	199.98	14.19	-25.8	-27.4	15.9	0.00e+00	0	44	102	1048576	11	4351
2026-01-25 02:35:56.71	199.99	13.88	-25.9	-27.7	15.7	0.00e+00	0	44	102	1048576	11	4445
2026-01-25 02:35:59.73	200.01	13.57	-25.5	-26.9	16.1	0.00e+00	0	44	102	1048576	11	4218
2026-01-25 02:36:02.74	200.03	13.27	-25.5	-26.9	16.1	0.00e+00	0	44	102	1048576	11	4220
2026-01-25 02:36:05.75	200.04	12.97	-25.8	-27.5	15.7	0.00e+00	0	44	102	1048576	11	4389
2026-01-25 02:36:08.75	200.06	12.67	-25.6	-27.1	15.9	0.00e+00	0	44	102	1048576	11	4275
2026-01-25 02:36:11.77	200.08	12.38	-25.8	-27.4	15.8	0.00e+00	0	44	102	1048576	11	4360
2026-01-25 02:36:14.78	200.09	12.09	-25.3	-26.5	16.3	0.00e+00	0	44	102	1048576	11	4112
2026-01-25 02:36:17.78	200.11	11.81	-25.4	-27.2	16.1	0.00e+00	0	44	102	1048576	10	4413
2026-01-25 02:36:20.79	200.12	11.53	-25.7	-27.2	15.8	0.00e+00	0	44	102	1048576	11	4312
2026-01-25 02:36:23.80	200.14	11.25	-26.0	-27.6	15.3	0.00e+00	0	44	102	1048576	12	4290
2026-01-25 02:36:26.81	200.16	10.97	-25.6	-27.2	14.3	0.00e+00	0	44	102	1048576	12	4330
2026-01-25 02:36:29.82	200.17	10.70	-26.3	-28.2	14.8	0.00e+00	0	44	102	1048576	12	4477
2026-01-25 02:36:32.83	200.19	10.43	-26.2	-27.9	15.1	1.12e-03	0	44	102	1048576	12	4379
2026-01-25 02:36:35.84	200.20	10.17	-26.0	-27.5	15.3	0.00e+00	0	44	102	1048576	12	4273
2026-01-25 02:36:38.85	200.22	9.90	-26.0	-27.6	15.2	0.00e+00	0	44	102	1048576	12	4290
2026-01-25 02:36:41.85	200.23	9.64	-26.2	-27.9	15.0	1.07e-03	0	44	102	1048576	12	4389
2026-01-25 02:36:44.85	200.25	9.39	-26.1	-27.8	15.0	1.10e-03	0	44	102	1048576	12	4352
2026-01-25 02:36:47.87	200.26	9.13	-26.2	-27.9	14.9	4.50e-06	0	44	102	1048576	12	4385
2026-01-25 02:36:50.89	200.28	8.88	-26.2	-27.9	14.9	1.04e-03	0	44	102	1048576	12	4399
2026-01-25 02:36:53.90	200.29	8.63	-26.2	-28.0	14.8	1.04e-03	0	44	102	1048576	12	4424
2026-01-25 02:36:56.92	200.31	8.38	-26.1	-27.7	15.0	1.02e-03	0	44	102	1048576	12	4345
2026-01-25 02:36:59.93	200.32	8.13	-26.3	-28.1	14.7	1.10e-06	0	44	102	1048576	12	4465
2026-01-25 02:37:02.95	200.33	7.89	-26.2	-28.1	14.7	9.57e-04	0	44	102	1048576	12	4444
2026-01-25 02:37:05.97	200.35	7.65	-26.4	-28.4	14.5	1.01e-03	0	44	102	1048576	12	4557
2026-01-25 02:37:08.99	200.36	7.41	-26.7	-28.6	14.1	4.50e-06	0	44	102	1048576	13	4498
2026-01-25 02:37:12.00	200.38	7.17	-26.7	-28.6	14.1	1.10e-06	0	44	102	1048576	13	4489
2026-01-25 02:37:15.01	200.39	6.94	-33.2	-44.4	3.8	8.46e-01	0	44	104	1048576	26	13100

#Closed at: 2026-01-25 02:37:17
#Recorded file [1 MB]: D:/data/31010_260125_052531.dat