passes_logs/2026/01/25/R2M6_AANII_01/R2M6_AANII_01__20260125_054839_FENGYUN_3E_rec.log

#Pass ID: 20260125_054839_FENGYUN 3E
#Satellite: FENGYUN 3E
#Configuration: FENGYUN 3E
#almurnet v.1.7.20240730
#Start time: 2026-01-25 05:48:40

#Version: 2.2.20231116
#Station: R2M6_AANII_01
#Location: 30.233357 lon 59.946436 lat
#TLE: 1 49008U 21062A   26024.51886291 -.00000133  00000+0 -41802-4 0  9993
#TLE: 2 49008  98.7494  29.5356 0002407 118.1139 242.0281 14.19886269236195

#Time	Az	El	Level	Level2	SNR	BER	BlckErr	Temp	State	Recorded	gain1	gain2
2026-01-25 05:48:40.15	12.82	7.03	-30.0	-33.2	5.0	7.94e-01	0	41	0	0	19	5248
2026-01-25 05:48:43.16	12.64	7.25	-30.2	-33.5	7.3	1.35e-01	0	42	102	1048576	20	5240
2026-01-25 05:48:46.16	12.47	7.47	-30.1	-32.9	7.8	7.08e-02	0	42	102	1048576	20	4989
2026-01-25 05:48:49.17	12.29	7.69	-29.5	-31.1	9.0	2.93e-02	0	42	102	1048576	20	4374
2026-01-25 05:48:52.18	12.10	7.91	-27.2	-28.5	10.8	5.48e-04	0	42	102	1048576	16	4174
2026-01-25 05:48:55.20	11.92	8.14	-26.9	-28.2	13.0	3.43e-05	0	42	102	1048576	13	4209
2026-01-25 05:48:58.21	11.73	8.36	-26.7	-27.8	13.3	1.37e-05	0	42	102	1048576	13	4086
2026-01-25 05:49:01.22	11.53	8.59	-26.5	-28.0	13.5	2.14e-03	0	42	102	1048576	12	4247
2026-01-25 05:49:04.22	11.34	8.82	-26.5	-27.9	13.6	2.14e-03	0	42	102	1048576	12	4234
2026-01-25 05:49:07.22	11.14	9.05	-26.2	-27.2	14.0	1.95e-03	0	42	102	1048576	12	4041
2026-01-25 05:49:10.23	10.94	9.28	-26.2	-27.3	13.9	2.05e-03	0	42	102	1048576	12	4073
2026-01-25 05:49:13.25	10.73	9.51	-26.3	-27.4	13.9	5.70e-06	0	42	102	1048576	12	4091
2026-01-25 05:49:16.27	10.52	9.75	-26.0	-26.7	14.3	1.68e-03	0	42	102	1048576	12	3905
2026-01-25 05:49:19.29	10.31	9.99	-26.3	-27.5	13.9	1.80e-03	0	43	102	1048576	12	4104
2026-01-25 05:49:22.29	10.09	10.23	-26.0	-26.8	14.3	1.61e-03	0	42	102	1048576	12	3944
2026-01-25 05:49:25.30	9.87	10.47	-26.1	-27.0	14.2	1.38e-03	0	43	102	1048576	12	3987
2026-01-25 05:49:28.31	9.64	10.71	-26.1	-27.4	14.3	1.10e-06	0	43	102	1048576	11	4191
2026-01-25 05:49:31.32	9.41	10.96	-26.3	-27.4	14.0	2.20e-06	0	43	102	1048576	12	4086
2026-01-25 05:49:34.33	9.18	11.21	-26.0	-27.1	14.5	1.10e-06	0	43	102	1048576	11	4119
2026-01-25 05:49:37.34	8.94	11.46	-25.9	-26.9	14.7	0.00e+00	0	43	102	1048576	11	4070
2026-01-25 05:49:40.33	8.71	11.71	-25.7	-26.5	14.9	0.00e+00	0	43	102	1048576	11	3959
2026-01-25 05:49:43.35	8.46	11.96	-25.6	-26.4	15.0	0.00e+00	0	43	102	1048576	11	3926
2026-01-25 05:49:46.36	8.21	12.22	-25.4	-26.5	15.2	0.00e+00	0	43	102	1048576	10	4055
2026-01-25 05:49:49.37	7.95	12.47	-25.4	-26.3	15.4	0.00e+00	0	43	102	1048576	10	4008
2026-01-25 05:49:52.38	7.69	12.74	-25.4	-26.3	15.4	0.00e+00	0	43	102	1048576	10	3997
2026-01-25 05:49:55.40	7.43	13.00	-25.5	-26.5	15.2	0.00e+00	0	43	102	1048576	10	4063
2026-01-25 05:49:58.41	7.16	13.26	-25.5	-26.2	15.2	0.00e+00	0	43	102	1048576	11	3873
2026-01-25 05:50:01.43	6.88	13.53	-25.4	-25.9	15.3	0.00e+00	0	43	102	1048576	11	3818
2026-01-25 05:50:04.44	6.60	13.80	-25.4	-26.5	15.3	0.00e+00	0	43	102	1048576	10	4051
2026-01-25 05:50:07.45	6.32	14.07	-25.4	-26.5	15.3	0.00e+00	0	43	102	1048576	10	4051
2026-01-25 05:50:10.47	6.03	14.35	-25.4	-26.3	15.4	0.00e+00	0	43	102	1048576	10	4020
2026-01-25 05:50:13.47	5.73	14.62	-25.8	-26.8	14.9	0.00e+00	0	43	102	1048576	11	4014
2026-01-25 05:50:16.49	5.43	14.90	-25.2	-25.9	15.7	0.00e+00	0	43	102	1048576	10	3911
2026-01-25 05:50:19.51	5.12	15.18	-25.0	-25.5	15.9	0.00e+00	0	43	102	1048576	10	3808
2026-01-25 05:50:22.52	4.81	15.47	-25.1	-25.7	15.8	0.00e+00	0	43	102	1048576	10	3852
2026-01-25 05:50:25.53	4.49	15.75	-25.2	-26.0	15.7	0.00e+00	0	43	102	1048576	10	3923
2026-01-25 05:50:28.55	4.16	16.04	-24.9	-25.2	16.1	0.00e+00	0	43	102	1048576	10	3745
2026-01-25 05:50:31.54	3.83	16.33	-24.5	-25.2	13.4	0.00e+00	0	44	102	1048576	10	3896
2026-01-25 05:50:34.55	3.49	16.62	-25.2	-25.8	15.8	5.01e-04	0	43	102	1048576	10	3889
2026-01-25 05:50:37.57	3.14	16.92	-25.2	-25.8	15.8	0.00e+00	0	43	102	1048576	10	3887
2026-01-25 05:50:40.58	2.79	17.22	-24.7	-25.4	16.3	0.00e+00	0	43	102	1048576	9	3897
2026-01-25 05:50:43.59	2.43	17.52	-24.5	-25.4	16.6	0.00e+00	0	43	102	1048576	8	4007
2026-01-25 05:50:46.59	2.06	17.82	-24.1	-24.5	17.1	1.49e-03	0	44	102	1048576	8	3771
2026-01-25 05:50:49.60	1.68	18.13	-24.3	-24.9	16.8	1.44e-03	0	43	102	1048576	8	3877
2026-01-25 05:50:52.62	1.30	18.43	-24.1	-24.6	17.0	1.29e-03	0	43	102	1048576	8	3812
2026-01-25 05:50:55.64	0.90	18.75	-24.1	-24.7	17.0	0.00e+00	0	43	102	1048576	8	3818
2026-01-25 05:50:58.66	0.50	19.06	-24.1	-24.5	17.1	1.35e-03	0	43	102	1048576	8	3778
2026-01-25 05:51:01.66	0.09	19.38	-24.1	-24.5	17.1	1.29e-03	0	44	102	1048576	8	3783
2026-01-25 05:51:04.68	359.67	19.69	-23.8	-24.4	17.4	1.35e-03	0	44	102	1048576	7	3867
2026-01-25 05:51:07.69	359.24	20.01	-23.8	-24.5	17.4	0.00e+00	0	44	102	1048576	7	3880
2026-01-25 05:51:10.71	358.81	20.34	-23.6	-23.9	17.7	0.00e+00	0	43	102	1048576	7	3741
2026-01-25 05:51:13.73	358.36	20.66	-23.6	-23.9	17.6	0.00e+00	0	44	102	1048576	7	3752
2026-01-25 05:51:16.74	357.90	20.99	-23.6	-23.9	17.6	0.00e+00	0	44	102	1048576	7	3756
2026-01-25 05:51:19.74	357.44	21.32	-23.9	-24.6	17.3	0.00e+00	0	43	102	1048576	7	3918
2026-01-25 05:51:22.75	356.96	21.65	-24.1	-24.6	17.1	0.00e+00	0	44	102	1048576	8	3803
2026-01-25 05:51:25.77	356.47	21.99	-24.1	-24.5	17.2	0.00e+00	0	44	102	1048576	8	3779
2026-01-25 05:51:28.79	355.97	22.33	-23.9	-24.0	17.4	0.00e+00	0	44	102	1048576	8	3676
2026-01-25 05:51:31.80	355.46	22.67	-23.6	-24.0	17.6	0.00e+00	0	44	102	1048576	7	3782
2026-01-25 05:51:34.82	354.94	23.01	-23.4	-23.6	17.8	0.00e+00	0	44	102	1048576	7	3686
2026-01-25 05:51:37.83	354.41	23.35	-23.4	-23.6	17.8	0.00e+00	0	44	102	1048576	7	3688
2026-01-25 05:51:40.84	353.86	23.69	-23.4	-24.0	17.9	0.00e+00	0	44	102	1048576	6	3877
2026-01-25 05:51:43.86	353.30	24.04	-23.4	-24.0	17.9	0.00e+00	0	44	102	1048576	6	3871
2026-01-25 05:51:46.87	352.73	24.39	-23.2	-23.7	18.0	0.00e+00	0	44	102	1048576	6	3814
2026-01-25 05:51:49.88	352.15	24.74	-23.0	-23.2	18.4	0.00e+00	0	44	102	1048576	6	3696
2026-01-25 05:51:52.89	351.56	25.09	-22.7	-22.7	18.6	0.00e+00	0	44	102	1048576	6	3577
2026-01-25 05:51:55.90	350.95	25.44	-22.7	-22.6	18.6	0.00e+00	0	44	102	1048576	6	3567
2026-01-25 05:51:58.93	350.32	25.80	-22.7	-23.2	18.6	0.00e+00	0	44	102	1048576	5	3783
2026-01-25 05:52:01.94	349.68	26.15	-23.1	-23.5	18.2	0.00e+00	0	44	102	1048576	6	3769
2026-01-25 05:52:04.95	349.03	26.50	-23.0	-23.3	18.0	0.00e+00	0	44	102	1048576	6	3714
2026-01-25 05:52:07.96	348.36	26.86	-23.1	-23.3	18.3	0.00e+00	0	44	102	1048576	6	3722
2026-01-25 05:52:10.97	347.68	27.21	-23.1	-23.5	18.3	0.00e+00	0	44	102	1048576	6	3751
2026-01-25 05:52:13.99	346.98	27.57	-23.4	-24.1	17.9	0.00e+00	0	44	102	1048576	6	3908
2026-01-25 05:52:17.01	346.26	27.92	-23.2	-23.7	18.2	0.00e+00	0	44	102	1048576	6	3794
2026-01-25 05:52:20.03	345.53	28.28	-23.3	-23.9	18.1	0.00e+00	0	44	102	1048576	6	3841
2026-01-25 05:52:23.04	344.78	28.63	-23.2	-23.1	18.2	0.00e+00	0	44	102	1048576	7	3570
2026-01-25 05:52:26.04	344.02	28.98	-23.2	-23.6	18.2	0.00e+00	0	44	102	1048576	6	3777
2026-01-25 05:52:29.05	343.24	29.33	-23.2	-23.7	18.2	0.00e+00	0	44	102	1048576	6	3799
2026-01-25 05:52:32.08	342.43	29.69	-22.9	-23.1	18.5	0.00e+00	0	44	102	1048576	6	3666
2026-01-25 05:52:35.08	341.62	30.03	-22.7	-23.2	18.7	0.00e+00	0	44	102	1048576	5	3791
2026-01-25 05:52:38.08	340.79	30.38	-22.2	-22.1	19.2	0.00e+00	0	44	102	1048576	5	3558
2026-01-25 05:52:41.09	339.94	30.72	-22.4	-23.0	19.1	0.00e+00	0	44	102	1048576	4	3846
2026-01-25 05:52:44.10	339.07	31.05	-22.4	-23.0	19.0	0.00e+00	0	44	102	1048576	4	3858
2026-01-25 05:52:47.11	338.18	31.39	-22.5	-22.6	19.0	0.00e+00	0	44	102	1048576	5	3664
2026-01-25 05:52:50.13	337.27	31.72	-23.1	-23.4	18.4	0.00e+00	0	44	102	1048576	6	3724
2026-01-25 05:52:53.14	336.34	32.05	-23.1	-23.5	18.4	0.00e+00	0	44	102	1048576	6	3761
2026-01-25 05:52:56.16	335.39	32.37	-23.0	-23.2	18.6	0.00e+00	0	44	102	1048576	6	3686
2026-01-25 05:52:59.16	334.43	32.68	-22.8	-22.7	18.8	0.00e+00	0	44	102	1048576	6	3580
2026-01-25 05:53:02.16	333.45	32.99	-22.5	-22.7	19.0	0.00e+00	0	44	102	1048576	5	3671
2026-01-25 05:53:05.18	332.45	33.29	-22.1	-21.8	19.5	0.00e+00	0	44	102	1048576	5	3489
2026-01-25 05:53:08.19	331.43	33.59	-22.1	-22.3	19.5	0.00e+00	0	44	102	1048576	4	3682
2026-01-25 05:53:11.22	330.38	33.88	-22.4	-22.9	19.1	0.00e+00	0	44	102	1048576	4	3834
2026-01-25 05:53:14.23	329.32	34.15	-22.4	-22.9	19.2	0.00e+00	0	44	102	1048576	4	3836
2026-01-25 05:53:17.24	328.25	34.42	-22.9	-23.4	18.7	0.00e+00	0	44	102	1048576	5	3834
2026-01-25 05:53:20.25	327.15	34.68	-22.8	-23.2	18.8	0.00e+00	0	44	102	1048576	5	3793
2026-01-25 05:53:23.27	326.04	34.93	-22.8	-23.2	18.8	0.00e+00	0	44	102	1048576	5	3789
2026-01-25 05:53:26.29	324.90	35.18	-22.7	-22.6	18.8	0.00e+00	0	44	102	1048576	6	3548
2026-01-25 05:53:29.31	323.76	35.40	-22.6	-22.9	18.9	0.00e+00	0	44	102	1048576	5	3730
2026-01-25 05:53:32.33	322.59	35.62	-22.9	-23.5	18.7	0.00e+00	0	44	102	1048576	5	3859
2026-01-25 05:53:35.34	321.42	35.83	-22.5	-23.2	17.9	0.00e+00	0	44	102	1048576	5	3918
2026-01-25 05:53:38.35	320.22	36.02	-22.5	-22.8	19.0	1.05e-03	0	44	102	1048576	5	3693
2026-01-25 05:53:41.38	319.01	36.20	-22.6	-22.9	18.9	8.98e-04	0	44	102	1048576	5	3721
2026-01-25 05:53:44.39	317.79	36.36	-22.8	-23.3	18.8	0.00e+00	0	44	102	1048576	5	3816
2026-01-25 05:53:47.40	316.56	36.51	-22.4	-22.6	19.0	0.00e+00	0	44	102	1048576	5	3675
2026-01-25 05:53:50.42	315.32	36.65	-22.3	-22.4	19.1	1.83e-04	0	44	102	1048576	5	3638
2026-01-25 05:53:53.44	314.06	36.77	-22.5	-23.0	18.7	4.46e-05	0	44	102	1048576	5	3791
2026-01-25 05:53:56.45	312.81	36.88	-22.4	-23.0	18.6	8.47e-04	0	44	102	1048576	5	3826
2026-01-25 05:53:59.46	311.54	36.97	-22.2	-23.0	18.9	0.00e+00	0	44	102	1048576	4	3922
2026-01-25 05:54:02.47	310.26	37.04	-22.1	-22.6	19.1	0.00e+00	0	44	102	1048576	4	3819
2026-01-25 05:54:05.47	308.99	37.10	-22.3	-22.9	19.1	5.68e-04	0	44	102	1048576	4	3851
2026-01-25 05:54:08.48	307.71	37.15	-22.3	-23.0	19.0	1.19e-03	0	44	102	1048576	4	3898
2026-01-25 05:54:11.49	306.42	37.17	-22.3	-22.9	19.1	1.02e-03	0	44	102	1048576	4	3844
2026-01-25 05:54:14.50	305.13	37.18	-22.5	-23.2	19.0	0.00e+00	0	44	102	1048576	4	3921
2026-01-25 05:54:17.51	303.84	37.17	-22.5	-22.8	19.0	0.00e+00	0	44	102	1048576	5	3714
2026-01-25 05:54:20.50	302.57	37.15	-22.1	-21.9	19.4	0.00e+00	0	44	102	1048576	5	3533
2026-01-25 05:54:23.51	301.28	37.11	-22.2	-22.7	19.2	0.00e+00	0	44	102	1048576	4	3795
2026-01-25 05:54:26.52	300.00	37.05	-22.2	-22.7	19.2	0.00e+00	0	44	102	1048576	4	3798
2026-01-25 05:54:29.54	298.72	36.98	-22.2	-22.5	19.3	0.00e+00	0	44	102	1048576	4	3755
2026-01-25 05:54:32.54	297.46	36.89	-22.3	-22.8	19.2	0.00e+00	0	44	102	1048576	4	3817
2026-01-25 05:54:35.56	296.19	36.79	-22.1	-22.3	19.4	0.00e+00	0	44	102	1048576	4	3692
2026-01-25 05:54:38.57	294.94	36.67	-22.4	-22.9	19.2	0.00e+00	0	44	102	1048576	4	3822
2026-01-25 05:54:41.58	293.69	36.54	-22.8	-23.3	18.7	0.00e+00	0	44	102	1048576	5	3802
2026-01-25 05:54:44.61	292.45	36.39	-22.4	-22.5	19.1	0.00e+00	0	44	102	1048576	5	3629
2026-01-25 05:54:47.63	291.23	36.22	-22.3	-22.3	19.2	0.00e+00	0	44	102	1048576	5	3585
2026-01-25 05:54:50.65	290.01	36.05	-22.3	-22.9	19.1	0.00e+00	0	44	102	1048576	4	3820
2026-01-25 05:54:53.67	288.82	35.85	-21.9	-22.0	19.6	0.00e+00	0	44	102	1048576	4	3627
2026-01-25 05:54:56.67	287.64	35.65	-21.9	-21.9	19.6	0.00e+00	0	44	102	1048576	4	3596
2026-01-25 05:54:59.68	286.47	35.44	-22.0	-22.0	19.5	0.00e+00	0	44	102	1048576	4	3634
2026-01-25 05:55:02.69	285.32	35.21	-22.0	-22.2	19.5	0.00e+00	0	44	102	1048576	4	3671
2026-01-25 05:55:05.71	284.19	34.97	-22.1	-22.5	15.1	0.00e+00	0	44	102	1048576	4	3731
2026-01-25 05:55:08.72	283.07	34.72	-22.2	-22.5	19.3	0.00e+00	0	44	102	1048576	4	3729
2026-01-25 05:55:11.73	281.97	34.46	-22.3	-22.7	19.2	0.00e+00	0	44	102	1048576	4	3792
2026-01-25 05:55:14.74	280.89	34.19	-22.4	-22.9	19.1	0.00e+00	0	44	102	1048576	4	3835
2026-01-25 05:55:17.76	279.82	33.91	-22.2	-22.5	19.3	9.27e-04	0	44	102	1048576	4	3731
2026-01-25 05:55:20.77	278.78	33.63	-22.4	-23.0	19.1	3.32e-04	0	44	102	1048576	4	3842
2026-01-25 05:55:23.78	277.75	33.33	-22.4	-23.0	19.0	4.69e-05	0	44	102	1048576	4	3857
2026-01-25 05:55:26.79	276.74	33.03	-22.3	-22.8	19.1	0.00e+00	0	44	102	1048576	4	3805
2026-01-25 05:55:29.80	275.75	32.72	-22.6	-23.3	18.9	5.42e-04	0	44	102	1048576	4	3920
2026-01-25 05:55:32.80	274.79	32.41	-22.7	-23.1	18.7	7.61e-04	0	44	102	1048576	5	3759
2026-01-25 05:55:35.81	273.83	32.09	-22.3	-22.3	19.1	8.80e-04	0	44	102	1048576	5	3586
2026-01-25 05:55:38.82	272.90	31.76	-22.4	-22.4	19.0	7.52e-04	0	44	102	1048576	5	3622
2026-01-25 05:55:41.84	271.98	31.43	-22.3	-22.3	19.1	0.00e+00	0	44	102	1048576	5	3594
2026-01-25 05:55:44.85	271.09	31.09	-22.2	-22.6	19.2	0.00e+00	0	44	102	1048576	4	3764
2026-01-25 05:55:47.86	270.21	30.76	-22.4	-22.4	19.0	0.00e+00	0	44	102	1048576	5	3622
2026-01-25 05:55:50.88	269.35	30.41	-22.3	-22.3	19.1	0.00e+00	0	44	102	1048576	5	3592
2026-01-25 05:55:53.89	268.51	30.07	-22.6	-22.8	18.8	0.00e+00	0	44	102	1048576	5	3704
2026-01-25 05:55:56.91	267.69	29.72	-22.4	-22.9	18.9	0.00e+00	0	44	102	1048576	4	3837
2026-01-25 05:55:59.93	266.88	29.37	-22.5	-23.2	18.9	0.00e+00	0	44	102	1048576	4	3892
2026-01-25 05:56:02.93	266.10	29.02	-22.8	-23.3	18.5	0.00e+00	0	44	102	1048576	5	3829
2026-01-25 05:56:05.94	265.33	28.66	-22.7	-23.1	18.6	0.00e+00	0	44	102	1048576	5	3775
2026-01-25 05:56:08.96	264.57	28.31	-22.6	-22.8	18.8	0.00e+00	0	44	102	1048576	5	3699
2026-01-25 05:56:11.96	263.84	27.95	-22.7	-23.1	18.7	0.00e+00	0	44	102	1048576	5	3759
2026-01-25 05:56:14.97	263.12	27.60	-22.6	-23.0	18.7	0.00e+00	0	44	102	1048576	5	3738
2026-01-25 05:56:17.98	262.41	27.24	-22.6	-22.9	18.7	0.00e+00	0	44	102	1048576	5	3722
2026-01-25 05:56:21.00	261.72	26.88	-22.7	-23.1	18.6	0.00e+00	0	44	102	1048576	5	3769
2026-01-25 05:56:24.00	261.05	26.53	-22.8	-23.2	18.6	0.00e+00	0	44	102	1048576	5	3801
2026-01-25 05:56:27.01	260.39	26.17	-22.9	-23.5	18.4	0.00e+00	0	44	102	1048576	5	3854
2026-01-25 05:56:30.03	259.75	25.82	-22.9	-23.6	18.4	0.00e+00	0	44	102	1048576	5	3882
2026-01-25 05:56:33.04	259.12	25.46	-22.4	-22.5	18.8	0.00e+00	0	44	102	1048576	5	3644
2026-01-25 05:56:36.06	258.50	25.11	-22.5	-22.6	18.8	0.00e+00	0	44	102	1048576	5	3659
2026-01-25 05:56:39.07	257.90	24.75	-22.8	-23.3	18.5	0.00e+00	0	44	102	1048576	5	3807
2026-01-25 05:56:42.09	257.31	24.40	-22.8	-23.3	18.4	0.00e+00	0	44	102	1048576	5	3813
2026-01-25 05:56:45.09	256.74	24.05	-22.8	-23.4	18.4	0.00e+00	0	44	102	1048576	5	3836
2026-01-25 05:56:48.10	256.18	23.71	-22.9	-23.6	18.2	0.00e+00	0	44	102	1048576	5	3888
2026-01-25 05:56:51.11	255.63	23.36	-23.0	-23.2	18.2	0.00e+00	0	44	102	1048576	6	3688
2026-01-25 05:56:54.12	255.09	23.02	-22.8	-22.7	18.4	0.00e+00	0	44	102	1048576	6	3584
2026-01-25 05:56:57.14	254.57	22.67	-22.8	-23.2	18.4	0.00e+00	0	44	102	1048576	5	3799
2026-01-25 05:57:00.14	254.05	22.33	-23.0	-23.8	18.1	0.00e+00	0	44	102	1048576	5	3929
2026-01-25 05:57:03.15	253.55	21.99	-23.2	-23.6	18.0	0.00e+00	0	44	102	1048576	6	3778
2026-01-25 05:57:06.16	253.06	21.66	-23.1	-23.6	18.0	7.66e-05	0	44	102	1048576	6	3772
2026-01-25 05:57:09.17	252.58	21.32	-23.1	-23.4	18.1	1.25e-04	0	44	102	1048576	6	3734
2026-01-25 05:57:12.17	252.11	20.99	-23.3	-23.8	17.8	0.00e+00	0	44	102	1048576	6	3834
2026-01-25 05:57:15.19	251.65	20.66	-23.6	-24.0	17.4	0.00e+00	0	44	102	1048576	7	3775
2026-01-25 05:57:18.21	251.20	20.33	-23.6	-24.1	17.4	0.00e+00	0	44	102	1048576	7	3794
2026-01-25 05:57:21.23	250.75	20.01	-23.4	-24.0	17.6	2.95e-04	0	44	102	1048576	6	3885
2026-01-25 05:57:24.24	250.32	19.69	-23.4	-24.1	17.6	0.00e+00	0	44	102	1048576	6	3896
2026-01-25 05:57:27.26	249.90	19.37	-23.6	-24.1	17.4	0.00e+00	0	44	102	1048576	7	3786
2026-01-25 05:57:30.27	249.48	19.05	-23.7	-24.3	17.2	0.00e+00	0	44	102	1048576	7	3850
2026-01-25 05:57:33.29	249.08	18.73	-24.1	-25.0	16.9	0.00e+00	0	44	102	1048576	7	4006
2026-01-25 05:57:36.31	248.68	18.42	-24.2	-24.7	16.7	0.00e+00	0	44	102	1048576	8	3840
2026-01-25 05:57:39.32	248.29	18.11	-24.1	-24.7	16.7	0.00e+00	0	44	102	1048576	8	3824
2026-01-25 05:57:42.33	247.91	17.80	-23.9	-24.1	17.0	0.00e+00	0	44	102	1048576	8	3700
2026-01-25 05:57:45.34	247.54	17.50	-24.1	-24.5	16.8	0.00e+00	0	44	102	1048576	8	3781
2026-01-25 05:57:48.36	247.17	17.19	-24.3	-24.9	16.6	0.00e+00	0	44	102	1048576	8	3885
2026-01-25 05:57:51.37	246.81	16.89	-24.4	-25.2	16.4	0.00e+00	0	44	102	1048576	8	3954
2026-01-25 05:57:54.38	246.46	16.60	-24.4	-25.3	16.3	0.00e+00	0	44	102	1048576	8	3984
2026-01-25 05:57:57.39	246.12	16.30	-24.3	-25.0	16.5	0.00e+00	0	44	102	1048576	8	3906
2026-01-25 05:58:00.40	245.78	16.01	-24.3	-25.0	16.4	0.00e+00	0	44	102	1048576	8	3914
2026-01-25 05:58:03.41	245.45	15.72	-24.3	-25.0	16.5	0.00e+00	0	44	102	1048576	8	3916
2026-01-25 05:58:06.42	245.13	15.43	-24.3	-24.9	16.5	0.00e+00	0	44	102	1048576	8	3891
2026-01-25 05:58:09.42	244.81	15.15	-24.3	-25.0	16.4	0.00e+00	0	44	102	1048576	8	3900
2026-01-25 05:58:12.43	244.50	14.87	-24.3	-25.0	16.4	0.00e+00	0	44	102	1048576	8	3901
2026-01-25 05:58:15.45	244.19	14.59	-24.1	-25.0	15.6	0.00e+00	0	44	102	1048576	8	4017
2026-01-25 05:58:18.45	243.90	14.31	-24.8	-25.6	15.8	2.19e-03	0	44	102	1048576	9	3944
2026-01-25 05:58:21.48	243.60	14.03	-25.0	-26.0	15.6	0.00e+00	0	44	102	1048576	9	4039
2026-01-25 05:58:24.50	243.31	13.76	-25.4	-26.3	15.1	0.00e+00	0	44	102	1048576	10	4028
2026-01-25 05:58:27.50	243.03	13.49	-25.2	-26.0	15.3	0.00e+00	0	44	102	1048576	10	3949
2026-01-25 05:58:30.50	242.75	13.22	-25.4	-26.4	15.1	1.99e-03	0	44	102	1048576	10	4032
2026-01-25 05:58:33.52	242.48	12.96	-25.3	-26.1	15.2	2.09e-03	0	44	102	1048576	10	3961
2026-01-25 05:58:36.54	242.21	12.69	-25.0	-26.2	15.4	1.93e-03	0	44	102	1048576	9	4094
2026-01-25 05:58:39.55	241.95	12.43	-25.2	-26.1	15.2	0.00e+00	0	44	102	1048576	10	3965
2026-01-25 05:58:42.57	241.69	12.17	-24.9	-25.9	15.5	0.00e+00	0	44	102	1048576	9	4031
2026-01-25 05:58:45.58	241.43	11.91	-25.3	-26.1	15.1	1.12e-03	0	44	102	1048576	10	3973
2026-01-25 05:58:48.58	241.19	11.66	-25.1	-25.7	15.4	7.44e-04	0	44	102	1048576	10	3876
2026-01-25 05:58:51.60	240.94	11.40	-25.2	-26.0	15.2	0.00e+00	0	44	102	1048576	10	3940
2026-01-25 05:58:54.62	240.70	11.15	-25.3	-26.1	15.1	0.00e+00	0	44	102	1048576	10	3975
2026-01-25 05:58:57.64	240.46	10.90	-25.4	-26.5	14.9	0.00e+00	0	44	102	1048576	10	4061
2026-01-25 05:59:00.65	240.23	10.66	-25.8	-26.8	14.4	1.10e-06	0	44	102	1048576	11	4052
2026-01-25 05:59:03.66	240.00	10.41	-26.1	-27.5	14.0	2.20e-06	0	44	102	1048576	11	4226
2026-01-25 05:59:06.67	239.78	10.17	-26.1	-27.1	13.8	4.50e-06	0	44	102	1048576	12	4037
2026-01-25 05:59:09.67	239.56	9.93	-26.1	-27.1	13.8	5.70e-06	0	44	102	1048576	12	4036
2026-01-25 05:59:12.69	239.34	9.69	-26.1	-27.1	13.8	6.80e-06	0	44	102	1048576	12	4021
2026-01-25 05:59:15.70	239.13	9.45	-26.1	-27.0	13.8	4.50e-06	0	44	102	1048576	12	3999
2026-01-25 05:59:18.72	238.92	9.22	-26.0	-27.3	14.0	2.20e-06	0	44	102	1048576	11	4186
2026-01-25 05:59:21.74	238.71	8.98	-26.0	-27.3	14.0	1.10e-06	0	44	102	1048576	11	4178
2026-01-25 05:59:24.75	238.51	8.75	-26.2	-27.2	13.6	3.40e-06	0	44	102	1048576	12	4050
2026-01-25 05:59:27.76	238.31	8.52	-26.0	-26.9	13.8	3.40e-06	0	44	102	1048576	12	3976
2026-01-25 05:59:30.77	238.11	8.29	-26.0	-26.9	13.8	2.20e-06	0	44	102	1048576	12	3985
2026-01-25 05:59:33.78	237.92	8.07	-26.0	-26.8	13.8	4.50e-06	0	44	102	1048576	12	3953
2026-01-25 05:59:36.79	237.73	7.84	-25.9	-27.2	13.9	1.10e-06	0	44	102	1048576	11	4154
2026-01-25 05:59:39.80	237.55	7.62	-26.0	-27.4	13.8	4.50e-06	0	44	102	1048576	11	4217
2026-01-25 05:59:42.81	237.36	7.40	-26.4	-27.7	13.2	1.83e-05	0	44	102	1048576	12	4210
2026-01-25 05:59:45.84	237.18	7.18	-26.4	-27.7	10.4	6.86e-05	0	44	102	1048576	13	4183
2026-01-25 05:59:48.85	237.00	6.96	-33.0	-42.8	3.8	8.47e-01	0	44	104	1048576	25	11198

#Closed at: 2026-01-25 05:59:50
#Recorded file [1 MB]: D:/data/31010_260125_084842.dat