passes_logs/2026/01/25/R2M6_AANII_01/R2M6_AANII_01__20260125_023850_NOAA_21_JPSS-2_rec.log

#Pass ID: 20260125_023850_NOAA 21 (JPSS-2)
#Satellite: NOAA 21 (JPSS-2)
#Configuration: NOAA 21
#almurnet v.1.7.20240730
#Start time: 2026-01-25 02:38:51

#Version: 2.2.20231116
#Station: R2M6_AANII_01
#Location: 30.233357 lon 59.946436 lat
#TLE: 1 54234U 22150A   26024.45772595  .00000201  00000+0  11607-3 0  9996
#TLE: 2 54234  98.7508 325.2435 0000728 220.7365 139.3757 14.19538765166156

#Time	Az	El	Level	Level2	SNR	BER	BlckErr	Temp	State	Recorded	gain1	gain2
2026-01-25 02:38:51.14	9.17	7.02	-31.8	-38.5	4.1	1.45e+00	0	43	0	0	24	7845
2026-01-25 02:38:54.13	8.86	7.19	-31.3	-36.7	7.0	1.59e-01	0	43	102	1048576	22	6710
2026-01-25 02:38:57.14	8.54	7.37	-31.3	-36.8	7.0	1.58e-01	0	43	102	1048576	22	6711
2026-01-25 02:39:00.16	8.21	7.55	-31.3	-36.1	7.1	1.62e-01	0	43	102	1048576	23	6229
2026-01-25 02:39:03.16	7.88	7.72	-30.6	-34.6	8.8	3.24e-02	0	43	102	1048576	21	5720
2026-01-25 02:39:06.18	7.54	7.90	-29.5	-31.9	11.1	1.88e-03	0	43	102	1048576	20	4748
2026-01-25 02:39:09.17	7.21	8.07	-29.6	-32.6	11.1	1.52e-03	0	43	102	1048576	19	5064
2026-01-25 02:39:12.18	6.86	8.25	-29.5	-32.3	11.3	1.17e-03	0	43	102	1048576	19	4974
2026-01-25 02:39:15.19	6.52	8.43	-29.5	-32.7	11.5	7.46e-04	0	43	102	1048576	18	5216
2026-01-25 02:39:18.21	6.16	8.61	-29.1	-31.2	12.1	3.55e-04	0	43	102	1048576	19	4592
2026-01-25 02:39:21.23	5.81	8.79	-28.6	-30.8	13.0	4.34e-05	0	43	102	1048576	17	4678
2026-01-25 02:39:24.24	5.45	8.96	-28.5	-30.6	13.1	2.67e-05	0	43	102	1048576	17	4601
2026-01-25 02:39:27.26	5.08	9.14	-28.4	-30.8	13.3	2.05e-05	0	44	102	1048576	16	4767
2026-01-25 02:39:30.26	4.71	9.32	-28.2	-30.5	13.5	8.30e-06	0	44	102	1048576	16	4683
2026-01-25 02:39:33.27	4.34	9.50	-28.4	-30.8	13.3	1.22e-05	0	43	102	1048576	16	4784
2026-01-25 02:39:36.28	3.96	9.68	-28.3	-30.7	13.4	9.90e-06	0	43	102	1048576	16	4743
2026-01-25 02:39:39.29	3.57	9.86	-28.3	-30.6	13.5	1.22e-05	0	43	102	1048576	16	4693
2026-01-25 02:39:42.29	3.18	10.04	-28.0	-30.0	13.9	3.00e-06	0	44	102	1048576	16	4512
2026-01-25 02:39:45.30	2.79	10.21	-27.7	-29.7	14.2	0.00e+00	0	43	102	1048576	15	4546
2026-01-25 02:39:48.32	2.39	10.39	-27.9	-30.2	13.9	4.50e-06	0	44	102	1048576	15	4692
2026-01-25 02:39:51.33	1.99	10.57	-27.6	-29.5	14.3	7.00e-07	0	44	102	1048576	15	4504
2026-01-25 02:39:54.35	1.58	10.75	-27.5	-29.2	14.5	0.00e+00	0	44	102	1048576	15	4402
2026-01-25 02:39:57.38	1.16	10.93	-27.4	-29.5	14.7	7.00e-07	0	44	102	1048576	14	4585
2026-01-25 02:40:00.39	0.74	11.11	-27.4	-29.6	14.5	7.00e-07	0	44	102	1048576	14	4636
2026-01-25 02:40:03.39	0.32	11.29	-27.7	-29.8	14.2	1.50e-06	0	44	102	1048576	15	4579
2026-01-25 02:40:06.40	359.89	11.46	-27.5	-29.4	14.4	3.96e-03	0	44	102	1048576	15	4457
2026-01-25 02:40:09.40	359.45	11.64	-27.5	-29.2	14.5	0.00e+00	0	44	102	1048576	15	4395
2026-01-25 02:40:12.71	358.97	11.83	-27.5	-29.2	14.6	3.38e-03	0	44	102	1048576	15	4396
2026-01-25 02:40:15.44	358.56	11.99	-27.4	-29.7	14.6	7.00e-07	0	44	102	1048576	14	4646
2026-01-25 02:40:18.74	358.07	12.19	-27.4	-29.6	14.7	3.67e-03	0	43	102	1048576	14	4615
2026-01-25 02:40:21.46	357.65	12.35	-27.5	-29.3	14.6	0.00e+00	0	44	102	1048576	15	4415
2026-01-25 02:40:24.76	357.15	12.54	-27.6	-29.6	14.4	1.50e-06	0	44	102	1048576	15	4502
2026-01-25 02:40:27.50	356.72	12.70	-27.7	-29.7	14.4	0.00e+00	0	44	102	1048576	15	4534
2026-01-25 02:40:30.79	356.20	12.89	-27.6	-29.6	14.4	7.00e-07	0	44	102	1048576	15	4500
2026-01-25 02:40:33.53	355.76	13.04	-27.6	-29.6	14.4	7.00e-07	0	44	102	1048576	15	4510
2026-01-25 02:40:36.83	355.23	13.23	-27.6	-29.4	14.5	1.50e-06	0	44	102	1048576	15	4454
2026-01-25 02:40:39.57	354.78	13.39	-27.5	-29.3	14.6	2.07e-03	0	44	102	1048576	15	4437
2026-01-25 02:40:42.87	354.24	13.57	-27.4	-29.6	14.7	7.00e-07	0	44	102	1048576	14	4607
2026-01-25 02:40:45.60	353.78	13.73	-27.2	-29.2	14.9	1.66e-03	0	44	102	1048576	14	4496
2026-01-25 02:40:48.90	353.22	13.91	-27.2	-29.1	14.9	0.00e+00	0	44	102	1048576	14	4481
2026-01-25 02:40:51.64	352.75	14.06	-27.3	-29.4	14.9	8.86e-04	0	44	102	1048576	14	4550
2026-01-25 02:40:54.94	352.18	14.25	-27.3	-29.4	14.9	0.00e+00	0	44	102	1048576	14	4550
2026-01-25 02:40:57.67	351.70	14.40	-27.4	-29.0	14.8	3.57e-04	0	44	102	1048576	15	4327
2026-01-25 02:41:00.98	351.12	14.57	-27.4	-29.1	14.7	7.00e-07	0	44	102	1048576	15	4361
2026-01-25 02:41:03.70	350.63	14.72	-27.4	-29.6	14.8	7.00e-07	0	44	102	1048576	14	4621
2026-01-25 02:41:07.01	350.03	14.90	-27.4	-29.7	14.7	0.00e+00	0	44	102	1048576	14	4661
2026-01-25 02:41:09.75	349.53	15.04	-27.5	-29.2	14.7	0.00e+00	0	44	102	1048576	15	4405
2026-01-25 02:41:13.04	348.92	15.21	-27.6	-29.5	14.6	7.00e-07	0	44	102	1048576	15	4471
2026-01-25 02:41:15.77	348.41	15.35	-27.4	-29.1	14.8	7.00e-07	0	44	102	1048576	15	4363
2026-01-25 02:41:19.08	347.79	15.52	-27.7	-29.6	14.3	7.00e-07	0	44	102	1048576	15	4511
2026-01-25 02:41:21.82	347.26	15.66	-27.6	-29.4	14.7	7.00e-07	0	44	102	1048576	15	4433
2026-01-25 02:41:25.12	346.63	15.82	-27.8	-29.8	14.4	0.00e+00	0	44	102	1048576	15	4576
2026-01-25 02:41:27.85	346.09	15.96	-27.5	-29.2	14.7	0.00e+00	0	44	102	1048576	15	4394
2026-01-25 02:41:31.17	345.44	16.12	-27.4	-29.4	14.9	2.87e-03	0	44	102	1048576	14	4572
2026-01-25 02:41:33.90	344.90	16.25	-27.2	-29.1	15.1	0.00e+00	0	44	102	1048576	14	4483
2026-01-25 02:41:37.20	344.23	16.40	-27.1	-28.9	15.2	3.31e-03	0	44	102	1048576	14	4400
2026-01-25 02:41:39.93	343.68	16.52	-26.5	-28.4	14.2	1.23e-03	0	44	102	1048576	14	4480
2026-01-25 02:41:43.23	343.01	16.67	-27.4	-29.6	14.8	3.85e-03	0	44	102	1048576	14	4602
2026-01-25 02:41:45.96	342.44	16.79	-27.5	-29.3	14.7	0.00e+00	0	44	102	1048576	15	4403
2026-01-25 02:41:49.27	341.75	16.94	-27.7	-29.7	14.5	3.57e-03	0	44	102	1048576	15	4531
2026-01-25 02:41:52.00	341.18	17.05	-27.3	-29.3	15.0	7.00e-07	0	44	102	1048576	14	4526
2026-01-25 02:41:55.30	340.48	17.19	-27.0	-28.6	15.4	0.00e+00	0	44	102	1048576	14	4327
2026-01-25 02:41:58.02	339.90	17.30	-26.9	-28.8	15.6	0.00e+00	0	44	102	1048576	13	4481
2026-01-25 02:42:01.32	339.19	17.42	-27.2	-29.1	15.1	0.00e+00	0	44	102	1048576	14	4472
2026-01-25 02:42:04.05	338.60	17.53	-26.8	-28.7	15.7	3.92e-03	0	44	102	1048576	13	4458
2026-01-25 02:42:07.35	337.88	17.65	-27.1	-28.7	15.4	0.00e+00	0	44	102	1048576	14	4351
2026-01-25 02:42:10.07	337.28	17.75	-26.8	-28.7	15.6	3.90e-03	0	44	102	1048576	13	4449
2026-01-25 02:42:13.37	336.54	17.86	-27.1	-28.8	15.3	0.00e+00	0	44	102	1048576	14	4382
2026-01-25 02:42:16.09	335.94	17.95	-27.1	-28.8	15.3	3.33e-03	0	44	102	1048576	14	4376
2026-01-25 02:42:19.39	335.19	18.06	-27.1	-28.8	15.3	0.00e+00	0	44	102	1048576	14	4372
2026-01-25 02:42:22.13	334.57	18.14	-26.7	-28.4	15.8	3.71e-03	0	44	102	1048576	13	4368
2026-01-25 02:42:25.42	333.83	18.24	-26.6	-28.3	15.8	0.00e+00	0	44	102	1048576	13	4338
2026-01-25 02:42:28.14	333.20	18.32	-26.8	-28.6	15.6	0.00e+00	0	44	102	1048576	13	4449
2026-01-25 02:42:31.44	332.44	18.41	-26.6	-28.1	16.0	0.00e+00	0	44	102	1048576	13	4281
2026-01-25 02:42:34.16	331.81	18.47	-26.5	-28.0	16.0	0.00e+00	0	44	102	1048576	13	4266
2026-01-25 02:42:37.46	331.04	18.55	-26.6	-28.2	15.9	0.00e+00	0	44	102	1048576	13	4315
2026-01-25 02:42:40.19	330.41	18.62	-26.8	-28.6	15.7	0.00e+00	0	44	102	1048576	13	4446
2026-01-25 02:42:43.49	329.63	18.69	-26.8	-28.6	15.7	0.00e+00	0	44	102	1048576	13	4444
2026-01-25 02:42:46.22	328.99	18.74	-26.8	-28.7	15.7	0.00e+00	0	44	102	1048576	13	4452
2026-01-25 02:42:49.52	328.21	18.80	-26.9	-28.8	15.6	0.00e+00	0	44	102	1048576	13	4490
2026-01-25 02:42:52.23	327.56	18.85	-27.0	-28.6	15.4	0.00e+00	0	44	102	1048576	14	4332
2026-01-25 02:42:55.54	326.77	18.90	-27.0	-28.6	15.4	0.00e+00	0	44	102	1048576	14	4329
2026-01-25 02:42:58.27	326.12	18.94	-27.2	-29.1	15.2	0.00e+00	0	44	102	1048576	14	4461
2026-01-25 02:43:01.59	325.32	18.98	-26.9	-28.8	15.6	0.00e+00	0	44	102	1048576	13	4494
2026-01-25 02:43:04.31	324.67	19.01	-26.8	-28.6	15.7	0.00e+00	0	44	102	1048576	13	4445
2026-01-25 02:43:07.61	323.88	19.04	-27.2	-29.1	15.2	0.00e+00	0	44	102	1048576	14	4469
2026-01-25 02:43:10.33	323.22	19.06	-27.3	-29.4	15.0	0.00e+00	0	44	102	1048576	14	4540
2026-01-25 02:43:13.63	322.42	19.08	-27.3	-29.2	15.1	0.00e+00	0	44	102	1048576	14	4507
2026-01-25 02:43:16.37	321.76	19.09	-27.1	-28.7	15.4	0.00e+00	0	44	102	1048576	14	4352
2026-01-25 02:43:19.66	320.97	19.10	-27.0	-28.6	15.4	0.00e+00	0	44	102	1048576	14	4314
2026-01-25 02:43:22.38	320.31	19.10	-27.2	-29.1	15.2	0.00e+00	0	44	102	1048576	14	4452
2026-01-25 02:43:25.68	319.51	19.10	-26.9	-28.4	15.5	0.00e+00	0	44	102	1048576	14	4274
2026-01-25 02:43:28.40	318.85	19.09	-26.9	-28.8	15.6	0.00e+00	0	44	102	1048576	13	4485
2026-01-25 02:43:31.71	318.05	19.08	-26.6	-28.1	16.0	0.00e+00	0	44	102	1048576	13	4300
2026-01-25 02:43:34.43	317.39	19.07	-26.7	-28.4	15.8	2.20e-06	0	44	102	1048576	13	4383
2026-01-25 02:43:37.72	316.60	19.04	-27.2	-29.0	15.2	0.00e+00	0	44	102	1048576	14	4421
2026-01-25 02:43:40.44	315.94	19.02	-27.1	-28.8	15.3	1.26e-04	0	44	102	1048576	14	4368
2026-01-25 02:43:43.75	315.14	18.99	-27.1	-28.7	15.4	0.00e+00	0	44	102	1048576	14	4350
2026-01-25 02:43:46.47	314.49	18.96	-27.5	-29.6	14.9	1.98e-04	0	44	102	1048576	14	4623
2026-01-25 02:43:49.77	313.70	18.91	-27.1	-28.9	15.2	0.00e+00	0	44	102	1048576	14	4402
2026-01-25 02:43:52.49	313.05	18.87	-27.1	-28.9	15.3	2.67e-05	0	44	102	1048576	14	4402
2026-01-25 02:43:55.80	312.26	18.82	-26.8	-28.7	15.6	0.00e+00	0	44	102	1048576	13	4468
2026-01-25 02:43:58.52	311.62	18.77	-27.0	-28.7	15.4	0.00e+00	0	44	102	1048576	14	4341
2026-01-25 02:44:01.83	310.83	18.71	-27.2	-29.1	15.1	0.00e+00	0	44	102	1048576	14	4451
2026-01-25 02:44:04.57	310.19	18.65	-27.4	-29.5	14.8	0.00e+00	0	44	102	1048576	14	4592
2026-01-25 02:44:07.88	309.41	18.58	-27.8	-29.9	14.3	7.00e-07	0	44	102	1048576	15	4603
2026-01-25 02:44:10.60	308.78	18.52	-27.1	-28.4	15.2	0.00e+00	0	44	102	1048576	15	4146
2026-01-25 02:44:13.91	308.01	18.43	-27.2	-28.9	15.2	0.00e+00	0	44	102	1048576	14	4421
2026-01-25 02:44:16.64	307.38	18.36	-27.0	-28.5	15.4	0.00e+00	0	44	102	1048576	14	4300
2026-01-25 02:44:19.93	306.62	18.27	-27.0	-28.5	15.4	0.00e+00	0	44	102	1048576	14	4309
2026-01-25 02:44:22.66	305.99	18.19	-26.5	-28.0	15.9	0.00e+00	0	44	102	1048576	13	4265
2026-01-25 02:44:25.97	305.24	18.09	-26.6	-28.1	15.9	2.02e-03	0	44	102	1048576	13	4298
2026-01-25 02:44:28.69	304.63	18.00	-26.6	-28.2	15.8	0.00e+00	0	44	102	1048576	13	4329
2026-01-25 02:44:32.00	303.88	17.89	-26.8	-28.7	15.5	3.27e-03	0	44	102	1048576	13	4465
2026-01-25 02:44:34.73	303.27	17.80	-26.8	-28.7	15.5	0.00e+00	0	44	102	1048576	13	4469
2026-01-25 02:44:38.02	302.55	17.69	-26.9	-28.8	15.5	4.83e-04	0	44	102	1048576	13	4494
2026-01-25 02:44:40.75	301.95	17.59	-27.0	-29.0	15.3	0.00e+00	0	44	102	1048576	13	4561
2026-01-25 02:44:44.05	301.23	17.46	-27.4	-29.5	14.8	7.60e-06	0	44	102	1048576	14	4576
2026-01-25 02:44:46.78	300.63	17.36	-26.9	-28.3	15.4	0.00e+00	0	44	102	1048576	14	4256
2026-01-25 02:44:50.10	299.92	17.22	-26.8	-28.1	15.6	5.30e-06	0	44	102	1048576	14	4179
2026-01-25 02:44:52.83	299.34	17.11	-26.8	-28.7	15.5	0.00e+00	0	44	102	1048576	13	4461
2026-01-25 02:44:56.14	298.64	16.97	-27.1	-28.8	15.2	5.30e-06	0	44	102	1048576	14	4370
2026-01-25 02:44:58.87	298.07	16.86	-27.0	-28.7	15.2	2.01e-03	0	44	102	1048576	14	4349
2026-01-25 02:45:02.16	297.38	16.71	-26.8	-28.5	15.5	0.00e+00	0	44	102	1048576	13	4415
2026-01-25 02:45:04.89	296.82	16.59	-26.8	-28.5	15.5	3.15e-03	0	44	102	1048576	13	4423
2026-01-25 02:45:08.19	296.15	16.44	-26.7	-28.5	15.6	0.00e+00	0	44	102	1048576	13	4408
2026-01-25 02:45:10.92	295.59	16.32	-26.8	-28.8	15.4	2.34e-03	0	44	102	1048576	13	4494
2026-01-25 02:45:14.22	294.93	16.16	-26.8	-28.7	15.4	0.00e+00	0	44	102	1048576	13	4467
2026-01-25 02:45:16.92	294.40	16.03	-26.7	-28.5	15.5	6.01e-04	0	44	102	1048576	13	4407
2026-01-25 02:45:20.22	293.75	15.87	-27.0	-29.1	15.2	7.00e-07	0	44	102	1048576	13	4585
2026-01-25 02:45:22.95	293.22	15.73	-27.2	-29.0	14.9	7.00e-07	0	44	102	1048576	14	4460
2026-01-25 02:45:26.25	292.58	15.57	-27.0	-28.7	15.1	0.00e+00	0	44	102	1048576	14	4352
2026-01-25 02:45:28.99	292.06	15.43	-27.2	-29.1	14.9	0.00e+00	0	44	102	1048576	14	4481
2026-01-25 02:45:32.29	291.44	15.26	-27.1	-28.9	15.0	0.00e+00	0	44	102	1048576	14	4430
2026-01-25 02:45:35.01	290.93	15.12	-27.1	-28.9	15.0	0.00e+00	0	44	102	1048576	14	4429
2026-01-25 02:45:38.33	290.31	14.94	-27.0	-29.1	15.0	7.00e-07	0	44	102	1048576	13	4577
2026-01-25 02:45:41.06	289.82	14.80	-27.0	-28.6	15.1	7.00e-07	0	44	102	1048576	14	4341
2026-01-25 02:45:44.37	289.22	14.62	-27.0	-28.7	15.0	0.00e+00	0	44	102	1048576	14	4366
2026-01-25 02:45:47.10	288.73	14.47	-27.1	-28.9	14.9	0.00e+00	0	44	102	1048576	14	4420
2026-01-25 02:45:50.39	288.15	14.29	-27.0	-28.8	15.0	3.05e-03	0	44	102	1048576	14	4385
2026-01-25 02:45:53.14	287.67	14.14	-27.2	-29.1	14.8	0.00e+00	0	44	102	1048576	14	4484
2026-01-25 02:45:56.45	287.10	13.96	-27.3	-29.3	14.6	3.77e-03	0	44	102	1048576	14	4544
2026-01-25 02:45:59.18	286.63	13.81	-27.4	-29.6	14.4	0.00e+00	0	44	102	1048576	14	4648
2026-01-25 02:46:02.47	286.07	13.62	-27.6	-29.5	14.2	4.09e-03	0	44	102	1048576	15	4510
2026-01-25 02:46:05.20	285.62	13.47	-27.3	-29.3	14.6	0.00e+00	0	44	102	1048576	14	4548
2026-01-25 02:46:08.50	285.07	13.28	-27.3	-29.3	14.6	0.00e+00	0	44	102	1048576	14	4550
2026-01-25 02:46:11.23	284.63	13.12	-27.2	-29.2	14.6	0.00e+00	0	44	102	1048576	14	4535
2026-01-25 02:46:14.54	284.09	12.93	-27.6	-29.6	14.1	2.20e-06	0	44	102	1048576	15	4537
2026-01-25 02:46:17.27	283.66	12.78	-27.6	-29.7	14.0	1.50e-06	0	44	102	1048576	15	4562
2026-01-25 02:46:20.57	283.14	12.58	-27.8	-30.0	13.8	2.20e-06	0	44	102	1048576	15	4652
2026-01-25 02:46:23.30	282.71	12.42	-27.7	-29.9	13.8	4.23e-03	0	44	102	1048576	15	4630
2026-01-25 02:46:26.60	282.21	12.23	-27.8	-30.2	13.7	3.00e-06	0	44	102	1048576	15	4706
2026-01-25 02:46:29.33	281.79	12.07	-27.6	-29.7	14.0	3.97e-03	0	44	102	1048576	15	4563
2026-01-25 02:46:32.64	281.30	11.88	-27.5	-29.5	14.1	0.00e+00	0	44	102	1048576	15	4487
2026-01-25 02:46:35.36	280.89	11.72	-27.5	-29.3	14.2	3.69e-03	0	44	102	1048576	15	4453
2026-01-25 02:46:38.66	280.41	11.52	-27.5	-29.8	14.2	0.00e+00	0	44	102	1048576	14	4693
2026-01-25 02:46:41.40	280.02	11.36	-27.3	-29.4	14.4	4.17e-03	0	44	102	1048576	14	4593
2026-01-25 02:46:44.71	279.54	11.16	-27.7	-29.9	13.8	7.00e-07	0	44	102	1048576	15	4617
2026-01-25 02:46:47.44	279.16	11.00	-28.0	-30.5	13.4	1.22e-05	0	44	102	1048576	15	4826
2026-01-25 02:46:50.75	278.70	10.81	-27.8	-30.2	13.6	9.90e-06	0	44	102	1048576	15	4717
2026-01-25 02:46:53.47	278.32	10.64	-27.9	-30.3	13.6	1.22e-05	0	44	102	1048576	15	4742
2026-01-25 02:46:56.77	277.87	10.45	-28.0	-30.6	13.3	1.75e-05	0	44	102	1048576	15	4861
2026-01-25 02:46:59.50	277.51	10.29	-28.1	-30.3	13.4	1.52e-05	0	44	102	1048576	16	4636
2026-01-25 02:47:02.82	277.07	10.09	-27.7	-29.9	13.8	7.60e-06	0	44	102	1048576	15	4622
2026-01-25 02:47:05.55	276.71	9.93	-27.7	-29.9	13.7	6.10e-06	0	44	102	1048576	15	4627
2026-01-25 02:47:08.85	276.28	9.73	-27.6	-29.7	13.8	6.10e-06	0	44	102	1048576	15	4565
2026-01-25 02:47:11.58	275.94	9.57	-27.7	-29.8	13.7	5.30e-06	0	44	102	1048576	15	4604
2026-01-25 02:47:14.88	275.52	9.37	-27.6	-29.6	13.8	3.00e-06	0	44	102	1048576	15	4544
2026-01-25 02:47:17.61	275.18	9.21	-27.8	-30.2	13.5	6.10e-06	0	44	102	1048576	15	4718
2026-01-25 02:47:20.90	274.78	9.01	-28.2	-30.7	13.0	3.12e-05	0	44	102	1048576	16	4758
2026-01-25 02:47:23.63	274.45	8.85	-28.4	-31.0	12.8	7.17e-05	0	44	102	1048576	16	4867
2026-01-25 02:47:26.94	274.05	8.65	-28.2	-30.5	13.1	1.83e-05	0	44	102	1048576	16	4708
2026-01-25 02:47:29.66	273.73	8.49	-28.2	-30.6	13.0	9.00e-05	0	44	102	1048576	16	4752
2026-01-25 02:47:32.97	273.34	8.30	-28.5	-31.0	12.5	1.76e-04	0	44	102	1048576	17	4767
2026-01-25 02:47:35.70	273.02	8.13	-28.5	-31.0	12.4	2.28e-04	0	44	102	1048576	17	4764
2026-01-25 02:47:39.01	272.65	7.94	-28.8	-31.6	12.1	2.41e-04	0	44	102	1048576	17	4969
2026-01-25 02:47:41.74	272.34	7.78	-28.5	-30.8	12.5	9.51e-04	0	44	102	1048576	17	4719
2026-01-25 02:47:45.04	271.97	7.58	-28.3	-31.0	12.6	5.56e-05	0	44	102	1048576	16	4884
2026-01-25 02:47:47.76	271.67	7.42	-28.2	-30.7	12.8	7.62e-05	0	44	102	1048576	16	4805
2026-01-25 02:47:51.05	271.32	7.23	-28.2	-30.6	12.9	4.11e-05	0	44	102	1048576	16	4753
2026-01-25 02:47:53.80	271.02	7.07	-32.6	-43.9	3.8	7.83e-01	0	44	104	1048576	25	13246

#Closed at: 2026-01-25 02:47:55
#Recorded file [1 MB]: D:/data/31010_260125_053853.dat