passes_logs/2026/01/25/R2M6_AANII_01/R2M6_AANII_01__20260125_094034_SUOMI_NPP_rec.log

#Pass ID: 20260125_094034_SUOMI NPP
#Satellite: SUOMI NPP
#Configuration: NPP
#almurnet v.1.7.20240730
#Start time: 2026-01-25 09:40:33

#Version: 2.2.20231116
#Station: R2M6_AANII_01
#Location: 30.233357 lon 59.946436 lat
#TLE: 1 37849U 11061A   26024.54906732  .00000185  00000+0  10878-3 0  9990
#TLE: 2 37849  98.7821 326.5159 0002200  47.3746 312.7615 14.19529340738061

#Time	Az	El	Level	Level2	SNR	BER	BlckErr	Temp	State	Recorded	gain1	gain2
2026-01-25 09:40:33.60	137.91	6.94	-31.0	-35.4	4.9	1.31e+00	0	41	0	0	23	5982
2026-01-25 09:40:36.60	137.80	7.17	-31.0	-35.5	7.6	9.66e-02	0	41	102	1048576	23	5990
2026-01-25 09:40:39.61	137.70	7.40	-30.8	-34.8	8.0	7.75e-02	0	41	102	1048576	23	5704
2026-01-25 09:40:42.62	137.59	7.63	-30.9	-36.2	7.2	7.90e-02	0	41	102	1048576	22	6668
2026-01-25 09:40:45.64	137.48	7.87	-30.7	-35.2	8.1	6.83e-02	0	42	102	1048576	22	6041
2026-01-25 09:40:48.66	137.37	8.11	-30.3	-33.1	9.9	1.08e-02	0	42	102	1048576	22	4975
2026-01-25 09:40:51.66	137.26	8.35	-29.7	-31.8	11.7	9.54e-04	0	42	102	1048576	20	4597
2026-01-25 09:40:54.68	137.15	8.59	-29.4	-30.6	12.6	9.91e-05	0	42	102	1048576	20	4157
2026-01-25 09:40:57.69	137.03	8.83	-29.2	-30.5	13.2	1.67e-05	0	42	102	1048576	19	4182
2026-01-25 09:41:00.70	136.91	9.08	-29.6	-31.8	12.3	1.17e-04	0	42	102	1048576	19	4640
2026-01-25 09:41:03.71	136.79	9.32	-30.0	-32.5	11.3	1.32e-03	0	42	102	1048576	20	4834
2026-01-25 09:41:06.72	136.67	9.57	-30.2	-33.4	10.8	2.65e-03	0	42	102	1048576	20	5160
2026-01-25 09:41:09.73	136.54	9.83	-30.0	-32.4	11.6	8.80e-04	0	42	102	1048576	20	4754
2026-01-25 09:41:12.74	136.41	10.08	-29.3	-30.2	13.1	3.28e-05	0	42	102	1048576	20	3996
2026-01-25 09:41:15.73	136.28	10.34	-29.3	-30.8	13.2	1.37e-05	0	42	102	1048576	19	4250
2026-01-25 09:41:18.75	136.15	10.60	-29.9	-32.4	12.1	2.02e-04	0	42	102	1048576	19	4805
2026-01-25 09:41:21.77	136.01	10.86	-30.0	-32.5	11.6	8.22e-04	0	42	102	1048576	20	4777
2026-01-25 09:41:24.78	135.88	11.13	-29.5	-31.0	12.6	9.99e-05	0	43	102	1048576	20	4280
2026-01-25 09:41:27.79	135.74	11.40	-29.1	-30.2	13.7	1.22e-05	0	42	102	1048576	19	4074
2026-01-25 09:41:30.79	135.59	11.67	-28.9	-30.0	14.2	2.20e-06	0	43	102	1048576	18	4086
2026-01-25 09:41:33.81	135.45	11.94	-29.4	-31.4	13.2	1.52e-05	0	42	102	1048576	18	4542
2026-01-25 09:41:36.82	135.30	12.22	-29.9	-32.6	12.1	2.28e-04	0	43	102	1048576	19	4861
2026-01-25 09:41:39.84	135.15	12.50	-29.7	-31.3	12.6	1.01e-04	0	43	102	1048576	20	4346
2026-01-25 09:41:42.84	134.99	12.78	-29.4	-30.4	13.3	3.89e-05	0	43	102	1048576	20	4018
2026-01-25 09:41:45.85	134.83	13.07	-28.9	-29.4	14.3	0.00e+00	0	43	102	1048576	19	3822
2026-01-25 09:41:48.86	134.67	13.35	-29.4	-30.7	13.5	3.80e-06	0	43	102	1048576	19	4207
2026-01-25 09:41:51.88	134.51	13.65	-29.9	-32.3	12.4	1.07e-04	0	43	102	1048576	19	4738
2026-01-25 09:41:54.88	134.34	13.94	-29.4	-30.8	13.4	2.89e-05	0	43	102	1048576	19	4257
2026-01-25 09:41:57.90	134.17	14.24	-29.2	-30.4	13.6	9.10e-06	0	43	102	1048576	19	4142
2026-01-25 09:42:00.91	133.99	14.54	-29.6	-31.5	12.9	3.35e-05	0	43	102	1048576	19	4508
2026-01-25 09:42:03.92	133.81	14.85	-29.6	-31.5	12.9	4.95e-05	0	43	102	1048576	19	4502
2026-01-25 09:42:06.93	133.63	15.16	-29.3	-30.3	13.9	7.60e-06	0	43	102	1048576	19	4071
2026-01-25 09:42:09.95	133.44	15.47	-28.9	-29.3	14.6	0.00e+00	0	43	102	1048576	19	3748
2026-01-25 09:42:12.96	133.25	15.79	-29.3	-30.3	14.1	7.00e-07	0	43	102	1048576	19	4018
2026-01-25 09:42:15.97	133.05	16.11	-29.7	-31.4	13.4	1.37e-05	0	43	102	1048576	19	4362
2026-01-25 09:42:18.98	132.85	16.44	-29.5	-31.0	13.6	9.10e-06	0	43	102	1048576	19	4254
2026-01-25 09:42:22.00	132.65	16.77	-29.2	-30.1	14.3	7.00e-07	0	43	102	1048576	19	3971
2026-01-25 09:42:25.02	132.44	17.10	-29.7	-31.2	13.6	4.50e-06	0	43	102	1048576	19	4299
2026-01-25 09:42:28.03	132.22	17.44	-29.9	-31.8	13.2	2.82e-05	0	43	102	1048576	19	4471
2026-01-25 09:42:31.04	132.00	17.78	-29.8	-31.5	13.4	1.75e-05	0	43	102	1048576	19	4398
2026-01-25 09:42:34.02	131.78	18.12	-29.7	-31.2	13.7	4.50e-06	0	43	102	1048576	19	4284
2026-01-25 09:42:37.03	131.55	18.47	-29.8	-31.5	13.5	4.50e-06	0	43	102	1048576	19	4395
2026-01-25 09:42:40.04	131.31	18.82	-29.8	-31.1	13.4	2.05e-05	0	43	102	1048576	20	4183
2026-01-25 09:42:43.06	131.07	19.18	-29.7	-30.8	13.6	2.36e-05	0	43	102	1048576	20	4092
2026-01-25 09:42:46.06	130.83	19.55	-29.6	-30.7	13.7	2.13e-05	0	43	102	1048576	20	4047
2026-01-25 09:42:49.08	130.57	19.92	-30.2	-32.3	12.7	5.03e-05	0	43	102	1048576	20	4549
2026-01-25 09:42:52.09	130.31	20.29	-30.2	-32.0	13.0	8.62e-05	0	43	102	1048576	20	4428
2026-01-25 09:42:55.11	130.04	20.67	-30.2	-31.9	13.0	4.95e-05	0	43	102	1048576	20	4403
2026-01-25 09:42:58.12	129.77	21.05	-30.0	-31.3	13.5	1.06e-05	0	43	102	1048576	20	4203
2026-01-25 09:43:01.13	129.49	21.44	-30.0	-31.4	13.5	1.90e-05	0	43	102	1048576	20	4218
2026-01-25 09:43:04.15	129.20	21.84	-29.9	-31.2	13.6	1.50e-06	0	43	102	1048576	20	4158
2026-01-25 09:43:07.16	128.91	22.24	-30.0	-31.5	13.4	1.14e-05	0	43	102	1048576	20	4281
2026-01-25 09:43:10.17	128.60	22.64	-30.2	-31.9	13.1	4.19e-05	0	43	102	1048576	20	4390
2026-01-25 09:43:13.18	128.29	23.05	-30.0	-31.3	13.6	5.30e-06	0	43	102	1048576	20	4203
2026-01-25 09:43:16.20	127.97	23.47	-30.3	-32.3	13.0	5.11e-05	0	43	102	1048576	20	4505
2026-01-25 09:43:19.21	127.64	23.89	-30.9	-33.3	12.0	2.20e-04	0	43	102	1048576	21	4743
2026-01-25 09:43:22.22	127.30	24.32	-30.9	-33.5	11.8	3.08e-04	0	43	102	1048576	21	4827
2026-01-25 09:43:25.23	126.95	24.75	-30.4	-31.9	13.0	3.35e-05	0	43	102	1048576	21	4282
2026-01-25 09:43:28.24	126.60	25.19	-30.3	-31.6	13.1	2.89e-05	0	43	102	1048576	21	4210
2026-01-25 09:43:31.26	126.23	25.64	-30.5	-32.3	12.8	3.50e-05	0	43	102	1048576	21	4408
2026-01-25 09:43:34.27	125.85	26.09	-30.9	-32.9	12.1	2.20e-04	0	43	102	1048576	22	4515
2026-01-25 09:43:37.27	125.46	26.55	-30.6	-31.9	12.8	6.79e-05	0	43	102	1048576	22	4179
2026-01-25 09:43:40.29	125.05	27.01	-30.0	-30.8	13.9	6.10e-06	0	43	102	1048576	21	3928
2026-01-25 09:43:43.29	124.64	27.48	-30.0	-30.6	14.0	2.20e-06	0	43	102	1048576	21	3885
2026-01-25 09:43:46.31	124.21	27.96	-29.8	-30.6	14.3	7.00e-07	0	43	102	1048576	20	3947
2026-01-25 09:43:49.32	123.77	28.44	-30.2	-31.8	13.6	3.00e-06	0	43	102	1048576	20	4307
2026-01-25 09:43:52.33	123.32	28.94	-30.5	-32.0	13.1	2.67e-05	0	44	102	1048576	21	4291
2026-01-25 09:43:55.34	122.85	29.43	-30.3	-31.6	13.5	1.50e-06	0	43	102	1048576	21	4148
2026-01-25 09:43:58.35	122.37	29.94	-30.9	-33.1	12.4	8.39e-05	0	43	102	1048576	21	4658
2026-01-25 09:44:01.36	121.87	30.45	-31.0	-32.9	12.3	2.10e-04	0	43	102	1048576	22	4479
2026-01-25 09:44:04.38	121.35	30.96	-31.0	-33.0	12.2	2.72e-04	0	43	102	1048576	22	4502
2026-01-25 09:44:07.39	120.82	31.49	-31.1	-33.3	12.0	2.78e-04	0	44	102	1048576	22	4620
2026-01-25 09:44:10.41	120.26	32.02	-31.6	-34.2	11.1	1.32e-03	0	43	102	1048576	23	4867
2026-01-25 09:44:13.41	119.70	32.55	-31.2	-33.0	11.9	4.87e-04	0	43	102	1048576	23	4415
2026-01-25 09:44:16.43	119.11	33.10	-31.3	-33.4	11.6	7.85e-04	0	44	102	1048576	23	4549
2026-01-25 09:44:19.44	118.50	33.65	-31.6	-34.0	11.2	1.64e-03	0	44	102	1048576	23	4797
2026-01-25 09:44:22.46	117.87	34.20	-31.3	-33.2	11.8	4.23e-04	0	43	102	1048576	23	4467
2026-01-25 09:44:25.47	117.21	34.76	-31.5	-33.8	11.5	8.95e-04	0	44	102	1048576	23	4678
2026-01-25 09:44:28.49	116.54	35.33	-31.4	-33.6	11.6	3.55e-04	0	44	102	1048576	23	4601
2026-01-25 09:44:31.49	115.84	35.90	-31.3	-33.2	11.9	9.84e-04	0	43	102	1048576	23	4478
2026-01-25 09:44:34.50	115.11	36.48	-31.8	-34.6	10.8	1.47e-03	0	43	102	1048576	23	4986
2026-01-25 09:44:37.52	114.36	37.06	-31.2	-33.0	12.0	4.29e-04	0	43	102	1048576	23	4395
2026-01-25 09:44:40.54	113.58	37.65	-31.7	-34.4	11.0	9.74e-04	0	44	102	1048576	23	4926
2026-01-25 09:44:43.55	112.77	38.24	-31.2	-32.9	12.1	4.03e-04	0	44	102	1048576	23	4361
2026-01-25 09:44:46.56	111.93	38.84	-31.8	-34.6	10.9	1.70e-03	0	44	102	1048576	23	4999
2026-01-25 09:44:49.56	111.06	39.43	-30.9	-31.9	12.8	1.07e-04	0	44	102	1048576	23	4048
2026-01-25 09:44:52.58	110.16	40.03	-30.8	-32.2	13.0	6.48e-05	0	43	102	1048576	22	4225
2026-01-25 09:44:55.60	109.22	40.64	-30.7	-31.8	13.2	6.80e-06	0	43	102	1048576	22	4100
2026-01-25 09:44:58.61	108.25	41.24	-31.2	-33.4	12.1	2.34e-04	0	44	102	1048576	22	4621
2026-01-25 09:45:01.62	107.24	41.84	-32.0	-34.6	10.5	5.60e-03	0	44	102	1048576	24	4889
2026-01-25 09:45:04.63	106.19	42.44	-31.2	-32.7	12.3	2.03e-04	0	44	102	1048576	23	4300
2026-01-25 09:45:07.64	105.10	43.04	-31.7	-34.2	11.3	6.71e-04	0	43	102	1048576	23	4816
2026-01-25 09:45:10.65	103.97	43.64	-32.4	-35.6	9.5	1.71e-02	0	44	102	1048576	25	5242
2026-01-25 09:45:13.66	102.80	44.23	-32.4	-35.6	9.5	1.10e-02	0	43	102	1048576	25	5214
2026-01-25 09:45:16.67	101.58	44.82	-32.5	-36.0	9.2	1.69e-02	0	43	102	1048576	25	5414
2026-01-25 09:45:19.68	100.31	45.41	-32.4	-35.5	9.7	2.97e-02	0	43	102	1048576	25	5153
2026-01-25 09:45:22.68	99.01	45.98	-31.5	-33.3	11.7	2.05e-03	0	43	102	1048576	24	4396
2026-01-25 09:45:25.69	97.65	46.54	-30.2	-31.1	14.1	9.90e-06	0	43	102	1048576	21	3973
2026-01-25 09:45:28.70	96.24	47.10	-31.7	-34.3	11.3	5.66e-04	0	44	102	1048576	23	4868
2026-01-25 09:45:31.72	94.78	47.64	-30.9	-31.8	13.0	9.68e-05	0	44	102	1048576	23	4007
2026-01-25 09:45:34.73	93.27	48.17	-30.9	-32.5	13.0	1.67e-05	0	44	102	1048576	22	4304
2026-01-25 09:45:37.75	91.70	48.68	-30.7	-31.8	13.4	3.96e-05	0	44	102	1048576	22	4083
2026-01-25 09:45:40.75	90.09	49.17	-30.4	-31.5	14.0	7.00e-07	0	44	102	1048576	21	4087
2026-01-25 09:45:43.77	88.42	49.65	-30.9	-32.4	13.0	2.67e-05	0	44	102	1048576	22	4278
2026-01-25 09:45:46.78	86.70	50.10	-30.5	-32.2	13.8	4.50e-06	0	43	102	1048576	20	4411
2026-01-25 09:45:49.79	84.93	50.52	-31.3	-33.6	12.2	1.60e-05	0	44	102	1048576	22	4684
2026-01-25 09:45:52.80	83.12	50.93	-32.4	-36.3	9.6	1.04e-02	0	44	102	1048576	24	5582
2026-01-25 09:45:55.81	81.25	51.30	-31.2	-32.6	12.5	1.06e-04	0	44	102	1048576	23	4242
2026-01-25 09:45:58.82	79.34	51.64	-31.1	-32.3	12.8	1.76e-04	0	44	102	1048576	23	4136
2026-01-25 09:46:01.83	77.39	51.95	-31.3	-33.5	12.3	1.05e-04	0	44	102	1048576	22	4645
2026-01-25 09:46:04.84	75.40	52.23	-30.0	-30.6	14.6	7.00e-07	0	44	102	1048576	21	3833
2026-01-25 09:46:07.85	73.37	52.47	-29.3	-29.2	15.6	1.50e-06	0	44	102	1048576	20	3565
2026-01-25 09:46:10.85	71.32	52.68	-29.4	-29.9	15.6	0.00e+00	0	43	102	1048576	19	3832
2026-01-25 09:46:13.86	69.24	52.85	-29.2	-29.5	15.9	0.00e+00	0	44	102	1048576	19	3712
2026-01-25 09:46:16.88	67.13	52.97	-28.7	-28.7	16.6	2.20e-06	0	44	102	1048576	18	3611
2026-01-25 09:46:19.90	65.00	53.06	-29.0	-29.6	16.1	1.50e-06	0	44	102	1048576	18	3833
2026-01-25 09:46:22.90	62.87	53.11	-29.9	-31.2	14.8	1.50e-06	0	44	102	1048576	19	4168
2026-01-25 09:46:25.91	60.74	53.12	-29.6	-29.8	15.3	0.00e+00	0	44	102	1048576	20	3713
2026-01-25 09:46:28.92	58.61	53.09	-29.7	-30.1	15.2	0.00e+00	0	44	102	1048576	20	3791
2026-01-25 09:46:31.93	56.48	53.02	-29.9	-30.7	14.8	7.00e-07	0	44	102	1048576	20	3937
2026-01-25 09:46:34.94	54.37	52.90	-30.0	-31.0	14.7	0.00e+00	0	44	102	1048576	20	4030
2026-01-25 09:46:37.95	52.28	52.75	-28.6	-28.5	16.7	0.00e+00	0	44	102	1048576	18	3565
2026-01-25 09:46:40.96	50.21	52.56	-28.3	-28.8	17.1	0.00e+00	0	43	102	1048576	16	3808
2026-01-25 09:46:43.97	48.18	52.33	-28.9	-29.8	16.3	0.00e+00	0	44	102	1048576	17	3976
2026-01-25 09:46:46.98	46.17	52.07	-29.1	-29.7	16.1	0.00e+00	0	43	102	1048576	18	3855
2026-01-25 09:46:49.99	44.21	51.77	-29.2	-29.4	15.9	0.00e+00	0	44	102	1048576	19	3693
2026-01-25 09:46:53.02	42.27	51.44	-30.2	-31.4	14.3	0.00e+00	0	44	102	1048576	20	4141
2026-01-25 09:46:56.03	40.39	51.08	-31.1	-32.5	12.7	1.52e-04	0	44	102	1048576	23	4191
2026-01-25 09:46:59.04	38.56	50.69	-30.6	-31.4	13.8	1.50e-06	0	43	102	1048576	22	3954
2026-01-25 09:47:02.04	36.78	50.28	-31.5	-34.0	12.0	1.07e-04	0	43	102	1048576	22	4795
2026-01-25 09:47:05.05	35.04	49.83	-31.4	-33.4	12.1	2.39e-04	0	44	102	1048576	23	4489
2026-01-25 09:47:08.07	33.36	49.37	-30.9	-32.4	13.2	1.22e-05	0	44	102	1048576	22	4247
2026-01-25 09:47:11.09	31.72	48.88	-30.8	-32.1	13.2	6.48e-05	0	44	102	1048576	22	4173
2026-01-25 09:47:14.10	30.14	48.38	-30.3	-31.2	14.1	2.20e-06	0	44	102	1048576	21	3994
2026-01-25 09:47:17.11	28.61	47.86	-30.6	-32.1	13.6	1.90e-05	0	44	102	1048576	21	4263
2026-01-25 09:47:20.13	27.13	47.33	-31.4	-33.3	12.0	3.78e-04	0	43	102	1048576	23	4491
2026-01-25 09:47:23.15	25.70	46.78	-30.3	-31.2	14.2	1.50e-06	0	44	102	1048576	21	4001
2026-01-25 09:47:26.15	24.33	46.22	-32.5	-36.0	9.4	3.10e-03	0	43	102	1048576	25	5364
2026-01-25 09:47:29.16	23.00	45.65	-32.4	-35.6	9.6	1.09e-02	0	44	102	1048576	25	5182
2026-01-25 09:47:32.16	21.73	45.07	-32.5	-35.9	9.3	3.01e-02	0	44	102	1048576	25	5333
2026-01-25 09:47:35.17	20.50	44.49	-32.2	-34.8	10.2	8.11e-03	0	44	102	1048576	25	4881
2026-01-25 09:47:38.18	19.31	43.90	-30.7	-31.7	13.3	1.17e-04	0	43	102	1048576	22	4064
2026-01-25 09:47:41.19	18.17	43.31	-30.2	-31.5	14.1	7.00e-07	0	44	102	1048576	20	4176
2026-01-25 09:47:44.21	17.06	42.71	-31.3	-33.0	12.1	3.42e-04	0	44	102	1048576	23	4382
2026-01-25 09:47:47.21	16.00	42.11	-32.0	-34.7	10.6	2.27e-03	0	44	102	1048576	24	4907
2026-01-25 09:47:50.23	14.98	41.51	-32.0	-34.7	10.6	4.70e-03	0	44	102	1048576	24	4936
2026-01-25 09:47:53.24	13.99	40.91	-32.1	-35.1	10.3	7.28e-03	0	43	102	1048576	24	5069
2026-01-25 09:47:56.25	13.04	40.31	-32.2	-35.6	10.0	6.57e-03	0	44	102	1048576	24	5290
2026-01-25 09:47:59.27	12.13	39.71	-32.0	-34.1	10.5	4.40e-03	0	44	102	1048576	25	4627
2026-01-25 09:48:02.28	11.25	39.11	-32.1	-35.3	10.1	4.98e-03	0	44	102	1048576	24	5186
2026-01-25 09:48:05.29	10.40	38.52	-31.3	-33.3	11.9	5.03e-04	0	44	102	1048576	23	4485
2026-01-25 09:48:08.31	9.58	37.93	-31.7	-34.4	11.1	3.97e-04	0	44	102	1048576	23	4911
2026-01-25 09:48:11.32	8.79	37.34	-31.8	-34.8	10.9	1.76e-03	0	44	102	1048576	23	5060
2026-01-25 09:48:14.33	8.03	36.76	-32.0	-34.8	10.4	1.60e-03	0	44	102	1048576	24	4985
2026-01-25 09:48:17.35	7.30	36.19	-31.6	-33.6	11.2	1.68e-03	0	44	102	1048576	24	4536
2026-01-25 09:48:20.35	6.59	35.62	-31.1	-32.7	12.2	1.22e-04	0	44	102	1048576	23	4291
2026-01-25 09:48:23.36	5.91	35.05	-32.0	-35.3	10.3	2.79e-03	0	44	102	1048576	23	5296
2026-01-25 09:48:26.37	5.25	34.49	-31.6	-33.7	11.1	3.07e-03	0	44	102	1048576	24	4566
2026-01-25 09:48:29.39	4.61	33.93	-30.5	-31.9	13.3	9.90e-06	0	44	102	1048576	21	4249
2026-01-25 09:48:32.41	3.99	33.38	-31.0	-33.2	12.5	1.23e-04	0	44	102	1048576	21	4672
2026-01-25 09:48:35.42	3.40	32.84	-30.6	-31.7	13.1	1.37e-05	0	44	102	1048576	22	4079
2026-01-25 09:48:38.42	2.83	32.30	-30.9	-32.6	12.5	1.27e-04	0	44	102	1048576	22	4365
2026-01-25 09:48:41.43	2.27	31.77	-31.2	-33.5	11.9	2.91e-04	0	44	102	1048576	22	4685
2026-01-25 09:48:44.44	1.73	31.25	-31.6	-34.2	11.0	1.63e-03	0	44	102	1048576	23	4869
2026-01-25 09:48:47.45	1.21	30.73	-31.1	-32.7	12.0	3.77e-04	0	44	102	1048576	23	4302
2026-01-25 09:48:50.46	0.71	30.22	-31.3	-33.2	11.7	3.36e-04	0	44	102	1048576	23	4490
2026-01-25 09:48:53.48	0.22	29.72	-31.3	-33.2	11.6	7.34e-04	0	44	102	1048576	23	4510
2026-01-25 09:48:56.49	359.75	29.22	-31.3	-33.2	11.7	3.63e-04	0	44	102	1048576	23	4501
2026-01-25 09:48:59.50	359.29	28.73	-31.6	-34.1	10.9	3.03e-03	0	44	102	1048576	23	4836
2026-01-25 09:49:02.51	358.85	28.24	-30.1	-30.9	13.8	3.80e-06	0	44	102	1048576	21	3936
2026-01-25 09:49:05.52	358.42	27.77	-29.5	-29.9	14.7	0.00e+00	0	44	102	1048576	20	3768
2026-01-25 09:49:08.53	358.00	27.29	-29.8	-30.8	14.2	3.00e-06	0	44	102	1048576	20	4012
2026-01-25 09:49:11.54	357.59	26.83	-30.2	-31.6	13.7	8.30e-06	0	44	102	1048576	20	4261
2026-01-25 09:49:14.55	357.20	26.37	-30.8	-33.0	12.5	7.78e-05	0	44	102	1048576	21	4604
2026-01-25 09:49:17.56	356.82	25.92	-30.8	-32.5	12.4	2.23e-04	0	44	102	1048576	22	4342
2026-01-25 09:49:20.57	356.45	25.47	-30.6	-31.9	12.9	4.42e-05	0	44	102	1048576	22	4157
2026-01-25 09:49:23.59	356.09	25.03	-30.5	-32.1	13.0	2.51e-05	0	44	102	1048576	21	4318
2026-01-25 09:49:26.60	355.74	24.59	-31.2	-33.5	11.7	4.87e-04	0	44	102	1048576	22	4708
2026-01-25 09:49:29.60	355.40	24.17	-31.3	-34.0	11.4	1.29e-03	0	44	102	1048576	22	4891
2026-01-25 09:49:32.61	355.07	23.74	-30.9	-32.6	12.3	1.36e-04	0	44	102	1048576	22	4400
2026-01-25 09:49:35.63	354.74	23.33	-31.3	-33.9	11.4	4.03e-04	0	44	102	1048576	22	4838
2026-01-25 09:49:38.64	354.43	22.92	-31.2	-33.5	11.7	7.64e-04	0	44	102	1048576	22	4704
2026-01-25 09:49:41.66	354.13	22.51	-30.9	-32.8	12.1	4.71e-04	0	44	102	1048576	22	4463
2026-01-25 09:49:44.68	353.83	22.11	-30.9	-32.8	12.2	2.68e-04	0	44	102	1048576	22	4472
2026-01-25 09:49:47.69	353.54	21.71	-31.0	-33.2	11.8	4.41e-04	0	44	102	1048576	22	4605
2026-01-25 09:49:50.70	353.26	21.32	-30.9	-32.6	12.2	3.31e-04	0	44	102	1048576	22	4414
2026-01-25 09:49:53.71	352.98	20.94	-30.2	-31.3	13.4	1.44e-05	0	44	102	1048576	21	4088
2026-01-25 09:49:56.72	352.72	20.56	-30.2	-31.3	13.4	9.90e-06	0	44	102	1048576	21	4082
2026-01-25 09:49:59.72	352.46	20.19	-30.0	-30.7	13.7	4.50e-06	0	44	102	1048576	21	3927
2026-01-25 09:50:02.73	352.20	19.82	-30.7	-32.8	12.4	1.05e-04	0	44	102	1048576	21	4568
2026-01-25 09:50:05.74	351.95	19.45	-31.4	-34.3	10.9	1.16e-03	0	44	102	1048576	22	5028
2026-01-25 09:50:08.75	351.71	19.09	-31.5	-34.2	10.6	3.07e-03	0	44	102	1048576	23	4917
2026-01-25 09:50:11.77	351.48	18.74	-30.9	-32.4	11.8	7.28e-04	0	44	102	1048576	23	4273
2026-01-25 09:50:14.79	351.25	18.39	-30.5	-31.7	12.7	7.78e-05	0	44	102	1048576	22	4123
2026-01-25 09:50:17.81	351.02	18.04	-30.4	-31.4	12.9	7.62e-05	0	44	102	1048576	22	4028
2026-01-25 09:50:20.81	350.80	17.70	-30.0	-30.8	13.5	1.67e-05	0	44	102	1048576	21	3958
2026-01-25 09:50:23.83	350.59	17.36	-30.3	-31.6	13.0	1.67e-05	0	44	102	1048576	21	4194
2026-01-25 09:50:26.85	350.38	17.03	-30.3	-31.6	13.0	3.12e-05	0	44	102	1048576	21	4210
2026-01-25 09:50:29.86	350.17	16.70	-30.6	-32.6	12.4	6.79e-05	0	44	102	1048576	21	4514
2026-01-25 09:50:32.88	349.97	16.37	-30.7	-32.7	12.2	2.29e-04	0	44	102	1048576	21	4565
2026-01-25 09:50:35.90	349.78	16.05	-30.7	-33.0	11.9	3.00e-04	0	44	102	1048576	21	4682
2026-01-25 09:50:38.90	349.59	15.73	-30.6	-32.5	12.4	1.60e-04	0	44	102	1048576	21	4489
2026-01-25 09:50:41.92	349.40	15.42	-30.4	-32.0	12.6	6.40e-05	0	44	102	1048576	21	4335
2026-01-25 09:50:44.93	349.22	15.11	-30.4	-32.1	12.5	9.99e-05	0	44	102	1048576	21	4362
2026-01-25 09:50:47.94	349.04	14.80	-30.5	-32.3	12.4	2.84e-04	0	44	102	1048576	21	4448
2026-01-25 09:50:50.95	348.86	14.50	-30.6	-32.8	12.1	2.58e-04	0	44	102	1048576	21	4598
2026-01-25 09:50:53.96	348.69	14.20	-31.0	-33.4	11.2	1.04e-03	0	44	102	1048576	22	4754
2026-01-25 09:50:56.98	348.52	13.90	-31.1	-33.7	11.0	1.56e-03	0	44	102	1048576	22	4876
2026-01-25 09:50:59.99	348.36	13.61	-31.3	-34.3	10.5	2.87e-03	0	44	102	1048576	22	5092
2026-01-25 09:51:03.01	348.20	13.32	-30.9	-33.0	11.4	1.41e-03	0	44	102	1048576	22	4630
2026-01-25 09:51:06.03	348.04	13.03	-30.7	-32.5	11.7	1.08e-03	0	44	102	1048576	22	4437
2026-01-25 09:51:09.03	347.89	12.75	-30.6	-32.2	12.0	4.02e-04	0	44	102	1048576	22	4334
2026-01-25 09:51:12.05	347.74	12.47	-30.4	-32.0	12.4	1.88e-04	0	44	102	1048576	21	4373
2026-01-25 09:51:15.06	347.59	12.19	-30.2	-31.7	12.5	9.00e-05	0	44	102	1048576	21	4268
2026-01-25 09:51:18.08	347.44	11.92	-30.2	-31.5	12.7	9.91e-05	0	44	102	1048576	21	4217
2026-01-25 09:51:21.10	347.30	11.64	-30.4	-32.2	12.2	1.91e-04	0	44	102	1048576	21	4430
2026-01-25 09:51:24.12	347.16	11.38	-30.5	-32.7	11.8	3.79e-04	0	44	102	1048576	21	4615
2026-01-25 09:51:27.13	347.03	11.11	-30.7	-33.1	11.6	6.71e-04	0	44	102	1048576	21	4742
2026-01-25 09:51:30.15	346.89	10.85	-30.7	-33.3	11.2	1.35e-03	0	44	102	1048576	21	4852
2026-01-25 09:51:33.17	346.76	10.58	-30.8	-33.4	11.2	1.19e-03	0	44	102	1048576	21	4876
2026-01-25 09:51:36.18	346.63	10.33	-30.8	-33.5	11.1	1.30e-03	0	44	102	1048576	21	4936
2026-01-25 09:51:39.20	346.50	10.07	-30.8	-33.5	11.2	9.90e-04	0	44	102	1048576	21	4906
2026-01-25 09:51:42.21	346.38	9.82	-30.8	-33.5	11.1	1.56e-03	0	44	102	1048576	21	4914
2026-01-25 09:51:45.22	346.26	9.57	-30.9	-33.9	10.8	2.19e-03	0	44	102	1048576	21	5085
2026-01-25 09:51:48.23	346.14	9.32	-30.8	-33.7	10.9	2.03e-03	0	43	102	1048576	21	5021
2026-01-25 09:51:51.24	346.02	9.07	-31.1	-34.0	10.3	4.89e-03	0	44	102	1048576	22	5070
2026-01-25 09:51:54.26	345.91	8.83	-31.2	-34.4	9.9	6.05e-03	0	44	102	1048576	22	5248
2026-01-25 09:51:57.27	345.80	8.59	-31.2	-34.5	9.8	1.27e-02	0	44	102	1048576	22	5279
2026-01-25 09:52:00.29	345.69	8.35	-31.3	-34.9	9.5	1.68e-02	0	44	102	1048576	22	5444
2026-01-25 09:52:03.30	345.58	8.11	-31.2	-34.8	9.6	1.57e-02	0	44	102	1048576	22	5423
2026-01-25 09:52:06.31	345.47	7.88	-31.3	-35.2	9.2	2.12e-02	0	44	102	1048576	22	5616
2026-01-25 09:52:09.32	345.37	7.64	-31.4	-35.3	9.1	2.36e-02	0	44	102	1048576	22	5674
2026-01-25 09:52:12.33	345.26	7.41	-31.3	-35.3	9.0	2.24e-02	0	44	102	1048576	22	5668
2026-01-25 09:52:15.34	345.16	7.18	-31.4	-35.7	8.6	3.58e-02	0	44	102	1048576	22	5917
2026-01-25 09:52:18.36	345.06	6.96	-33.6	-45.9	3.8	1.49e+00	0	44	104	1048576	27	14880

#Closed at: 2026-01-25 09:52:20
#Recorded file [1 MB]: D:/data/31010_260125_124035.dat