passes_logs/2026/01/25/R2M6_AANII_01/R2M6_AANII_01__20260125_101422_AQUA_rec.log

#Pass ID: 20260125_101422_AQUA
#Satellite: AQUA
#Configuration: AQUA
#almurnet v.1.7.20240730
#Start time: 2026-01-25 10:14:22

#Version: 2.2.20231116
#Station: R2M6_AANII_01
#Location: 30.233357 lon 59.946436 lat
#TLE: 1 27424U 02022A   26024.53919639  .00001970  00000+0  40397-3 0  9996
#TLE: 2 27424  98.4098 351.1277 0001915  66.8561 358.4840 14.61855303262281

#Time	Az	El	Level	Level2	SNR	BER	BlckErr	Temp	State	Recorded	gain1	gain2
2026-01-25 10:14:22.36	98.75	7.00	-32.0	-51.1	3.8	7.45e-01	0	43	0	0	25	32294
2026-01-25 10:14:24.36	98.52	7.13	-32.0	-50.4	3.8	7.45e-01	0	43	104	0	26	30038
2026-01-25 10:14:26.37	98.29	7.26	-31.9	-50.4	3.8	7.42e-01	0	43	104	0	26	30148
2026-01-25 10:14:28.37	98.06	7.39	-31.8	-50.8	3.8	7.44e-01	0	43	104	0	25	31939
2026-01-25 10:14:30.37	97.82	7.52	-31.7	-50.5	3.8	7.45e-01	0	43	104	0	25	31471
2026-01-25 10:14:32.39	97.58	7.66	-31.6	-50.3	3.8	7.45e-01	0	43	104	0	25	31036
2026-01-25 10:14:34.40	97.34	7.79	-31.6	-50.2	3.8	7.50e-01	0	43	104	0	25	30649
2026-01-25 10:14:36.40	97.10	7.92	-31.6	-50.1	3.8	7.47e-01	0	43	104	0	25	30364
2026-01-25 10:14:38.42	96.85	8.05	-31.6	-50.2	3.8	7.42e-01	0	43	104	0	25	30634
2026-01-25 10:14:40.43	96.61	8.19	-31.6	-50.3	3.8	7.44e-01	0	43	104	0	25	30854
2026-01-25 10:14:42.43	96.36	8.32	-31.6	-50.2	3.8	7.46e-01	0	43	104	0	25	30514
2026-01-25 10:14:44.43	96.11	8.45	-31.5	-50.1	3.8	7.47e-01	0	43	104	0	25	30725
2026-01-25 10:14:46.43	95.85	8.58	-31.4	-50.1	3.8	7.44e-01	0	43	104	0	25	30706
2026-01-25 10:14:48.44	95.59	8.72	-31.5	-50.2	3.8	7.44e-01	0	43	104	0	25	30961
2026-01-25 10:14:50.45	95.33	8.85	-31.5	-50.2	3.8	7.46e-01	0	44	104	0	25	30722
2026-01-25 10:14:52.45	95.07	8.99	-31.6	-50.4	3.8	7.43e-01	0	43	104	0	25	31236
2026-01-25 10:14:54.46	94.80	9.12	-31.7	-50.5	3.8	7.45e-01	0	43	104	0	25	31527
2026-01-25 10:14:56.47	94.54	9.26	-31.8	-50.2	3.8	7.46e-01	0	43	104	0	25	29851
2026-01-25 10:14:58.47	94.27	9.39	-31.8	-49.3	3.8	7.46e-01	0	43	104	0	25	26766
2026-01-25 10:15:00.49	93.99	9.53	-32.1	-49.5	3.9	7.45e-01	0	43	104	0	25	26605
2026-01-25 10:15:02.49	93.71	9.66	-32.2	-45.7	5.3	7.04e-01	0	43	104	0	25	17005
2026-01-25 10:15:04.50	93.43	9.80	-32.2	-44.5	6.3	6.75e-01	0	43	102	524288	25	14772
2026-01-25 10:15:06.51	93.15	9.93	-32.4	-44.0	7.1	6.64e-01	0	43	102	524288	25	13653
2026-01-25 10:15:08.52	92.87	10.07	-32.9	-46.3	5.6	6.95e-01	0	43	102	524288	26	16739
2026-01-25 10:15:10.54	92.58	10.21	-33.0	-44.0	7.7	6.52e-01	0	43	102	524288	26	12820
2026-01-25 10:15:12.55	92.28	10.34	-33.1	-43.8	8.1	6.43e-01	0	43	102	524288	26	12378
2026-01-25 10:15:14.55	91.99	10.48	-33.0	-42.4	9.4	6.31e-01	0	43	102	524288	26	10656
2026-01-25 10:15:16.56	91.69	10.61	-32.8	-41.2	10.7	6.18e-01	0	43	102	524288	26	9398
2026-01-25 10:15:18.56	91.39	10.75	-32.8	-40.3	11.6	6.14e-01	0	43	102	524288	26	8582
2026-01-25 10:15:20.57	91.09	10.89	-32.7	-39.8	12.2	6.14e-01	0	43	102	524288	26	8175
2026-01-25 10:15:22.58	90.78	11.03	-32.6	-39.2	12.7	6.11e-01	0	43	102	524288	26	7678
2026-01-25 10:15:24.60	90.47	11.16	-32.0	-36.6	14.7	6.09e-01	0	43	102	524288	26	6112
2026-01-25 10:15:26.61	90.16	11.30	-31.3	-35.1	16.5	6.07e-01	0	43	102	524288	24	5615
2026-01-25 10:15:28.62	89.84	11.44	-30.7	-33.9	17.8	6.05e-01	0	44	102	524288	23	5183
2026-01-25 10:15:30.62	89.53	11.58	-30.4	-33.0	18.3	6.04e-01	0	43	102	524288	23	4856
2026-01-25 10:15:32.62	89.20	11.71	-30.4	-33.4	18.4	6.07e-01	0	43	102	524288	22	5111
2026-01-25 10:15:34.64	88.88	11.85	-30.3	-33.1	18.7	6.05e-01	0	44	102	524288	22	4993
2026-01-25 10:15:36.63	88.55	11.99	-30.3	-33.2	18.6	6.06e-01	0	44	102	524288	22	5009
2026-01-25 10:15:38.63	88.22	12.12	-30.4	-33.3	18.7	6.05e-01	0	43	102	524288	22	5034
2026-01-25 10:15:40.65	87.88	12.26	-30.3	-33.3	18.7	6.05e-01	0	43	102	524288	22	5033
2026-01-25 10:15:42.65	87.54	12.40	-30.2	-33.0	18.9	6.08e-01	0	43	102	524288	22	4924
2026-01-25 10:15:44.66	87.20	12.54	-30.3	-33.2	18.7	6.04e-01	0	43	102	524288	22	5032
2026-01-25 10:15:46.66	86.85	12.67	-30.4	-33.5	18.6	6.06e-01	0	43	102	524288	22	5114
2026-01-25 10:15:48.67	86.50	12.81	-30.3	-33.2	18.8	6.06e-01	0	43	102	524288	22	4991
2026-01-25 10:15:50.68	86.15	12.95	-30.3	-33.2	18.9	6.06e-01	0	43	102	524288	22	4985
2026-01-25 10:15:52.69	85.79	13.08	-30.2	-32.9	19.0	6.07e-01	0	43	102	524288	22	4894
2026-01-25 10:15:54.70	85.43	13.22	-30.3	-33.1	18.9	6.06e-01	0	43	102	524288	22	4972
2026-01-25 10:15:56.70	85.07	13.35	-30.2	-33.0	19.0	6.07e-01	0	44	102	524288	22	4926
2026-01-25 10:15:58.71	84.70	13.49	-30.3	-33.1	18.9	6.04e-01	0	44	102	524288	22	4968
2026-01-25 10:16:00.71	84.33	13.63	-30.4	-33.4	18.7	6.08e-01	0	44	102	524288	22	5069
2026-01-25 10:16:02.72	83.96	13.76	-30.4	-33.3	18.8	6.07e-01	0	44	102	524288	22	5026
2026-01-25 10:16:04.74	83.57	13.90	-30.4	-33.4	18.8	6.06e-01	0	43	102	524288	22	5073
2026-01-25 10:16:06.74	83.19	14.03	-30.4	-33.3	18.8	6.04e-01	0	44	102	524288	22	5051
2026-01-25 10:16:08.75	82.81	14.17	-30.3	-32.9	19.0	6.06e-01	0	43	102	524288	22	4911
2026-01-25 10:16:10.75	82.42	14.30	-30.3	-33.1	19.0	6.04e-01	0	43	102	524288	22	4976
2026-01-25 10:16:12.76	82.02	14.43	-30.4	-33.3	18.9	6.07e-01	0	43	102	524288	22	5039
2026-01-25 10:16:14.78	81.62	14.57	-30.4	-33.2	18.9	6.07e-01	0	44	102	524288	22	5006
2026-01-25 10:16:16.79	81.22	14.70	-30.4	-33.3	18.8	6.06e-01	0	43	102	524288	22	5030
2026-01-25 10:16:18.80	80.82	14.83	-30.4	-33.4	18.8	6.09e-01	0	43	102	524288	22	5065
2026-01-25 10:16:20.81	80.41	14.96	-30.3	-33.0	19.0	6.03e-01	0	43	102	524288	22	4915
2026-01-25 10:16:22.82	79.99	15.09	-30.3	-33.2	19.0	6.04e-01	0	43	102	524288	22	4978
2026-01-25 10:16:24.83	79.57	15.22	-30.3	-32.9	19.1	6.07e-01	0	44	102	524288	22	4894
2026-01-25 10:16:26.83	79.16	15.35	-30.3	-33.0	19.1	6.06e-01	0	44	102	524288	22	4933
2026-01-25 10:16:28.85	78.73	15.48	-30.2	-32.9	19.2	6.05e-01	0	43	102	524288	22	4873
2026-01-25 10:16:30.86	78.30	15.61	-30.3	-33.0	19.1	6.07e-01	0	44	102	524288	22	4927
2026-01-25 10:16:32.87	77.87	15.73	-30.4	-33.2	19.0	6.04e-01	0	43	102	524288	22	4987
2026-01-25 10:16:34.89	77.43	15.86	-30.3	-33.1	19.1	6.03e-01	0	43	102	524288	22	4931
2026-01-25 10:16:36.90	76.98	15.99	-30.3	-33.1	19.1	6.05e-01	0	43	102	524288	22	4936
2026-01-25 10:16:38.91	76.54	16.11	-30.3	-32.9	19.2	6.06e-01	0	44	102	524288	22	4860
2026-01-25 10:16:40.92	76.09	16.23	-30.3	-32.9	19.2	6.06e-01	0	44	102	524288	22	4862
2026-01-25 10:16:42.92	75.64	16.36	-30.5	-33.4	18.9	6.06e-01	0	43	102	524288	22	5044
2026-01-25 10:16:44.92	75.19	16.48	-30.5	-33.5	18.8	6.05e-01	0	44	102	524288	22	5085
2026-01-25 10:16:46.93	74.72	16.60	-30.5	-33.5	18.8	6.06e-01	0	44	102	524288	22	5089
2026-01-25 10:16:48.95	74.26	16.72	-30.3	-33.0	19.1	6.05e-01	0	43	102	524288	22	4918
2026-01-25 10:16:50.96	73.79	16.83	-30.5	-33.4	18.9	6.06e-01	0	43	102	524288	22	5066
2026-01-25 10:16:52.98	73.31	16.95	-30.4	-33.2	19.0	6.08e-01	0	43	102	524288	22	4984
2026-01-25 10:16:54.99	72.84	17.06	-30.4	-33.1	19.1	6.09e-01	0	43	102	524288	22	4951
2026-01-25 10:16:57.00	72.36	17.18	-30.4	-33.2	19.0	6.07e-01	0	44	102	524288	22	4971
2026-01-25 10:16:58.99	71.88	17.29	-30.6	-33.6	18.8	6.04e-01	0	44	102	524288	22	5115
2026-01-25 10:17:00.99	71.39	17.40	-30.5	-33.5	18.8	6.07e-01	0	43	102	524288	22	5070
2026-01-25 10:17:02.99	70.90	17.51	-30.5	-33.5	18.9	6.06e-01	0	44	102	524288	22	5069
2026-01-25 10:17:05.00	70.41	17.62	-30.4	-33.2	19.0	6.06e-01	0	43	102	524288	22	4989
2026-01-25 10:17:07.01	69.91	17.72	-30.5	-33.5	18.9	6.06e-01	0	44	102	524288	22	5072
2026-01-25 10:17:09.03	69.40	17.83	-30.5	-33.4	19.0	6.07e-01	0	43	102	524288	22	5033
2026-01-25 10:17:11.04	68.90	17.93	-30.7	-33.9	18.7	6.07e-01	0	44	102	524288	22	5213
2026-01-25 10:17:13.06	68.38	18.03	-30.4	-33.3	19.1	6.04e-01	0	44	102	524288	22	4986
2026-01-25 10:17:15.06	67.87	18.13	-30.4	-33.3	19.1	6.06e-01	0	44	102	524288	22	4987
2026-01-25 10:17:17.05	67.36	18.23	-30.4	-33.3	19.1	6.07e-01	0	43	102	524288	22	5019
2026-01-25 10:17:19.06	66.84	18.32	-30.7	-34.0	18.7	6.07e-01	0	44	102	524288	22	5243
2026-01-25 10:17:21.08	66.31	18.42	-30.5	-33.4	19.0	6.05e-01	0	44	102	524288	22	5024
2026-01-25 10:17:23.09	65.78	18.51	-30.5	-33.3	19.0	6.05e-01	0	44	102	524288	22	4990
2026-01-25 10:17:25.09	65.25	18.60	-30.5	-33.5	18.9	6.05e-01	0	44	102	524288	22	5084
2026-01-25 10:17:27.10	64.72	18.68	-30.4	-33.2	19.1	6.03e-01	0	44	102	524288	22	4969
2026-01-25 10:17:29.11	64.18	18.77	-30.6	-33.5	18.9	6.08e-01	0	44	102	524288	22	5077
2026-01-25 10:17:31.12	63.64	18.85	-30.5	-33.3	19.1	6.08e-01	0	44	102	524288	22	4998
2026-01-25 10:17:33.12	63.10	18.93	-30.5	-33.5	19.0	6.06e-01	0	44	102	524288	22	5051
2026-01-25 10:17:35.12	62.56	19.01	-30.8	-34.1	18.6	6.06e-01	0	43	102	524288	22	5279
2026-01-25 10:17:37.12	62.01	19.09	-30.6	-33.7	18.9	6.06e-01	0	43	102	524288	22	5150
2026-01-25 10:17:39.14	61.45	19.16	-30.7	-33.9	18.7	6.05e-01	0	43	102	524288	22	5206
2026-01-25 10:17:41.14	60.90	19.23	-30.6	-33.7	18.9	6.08e-01	0	44	102	524288	22	5113
2026-01-25 10:17:43.15	60.34	19.30	-30.7	-33.9	18.7	6.09e-01	0	44	102	524288	22	5207
2026-01-25 10:17:45.14	59.79	19.37	-30.8	-34.1	18.6	6.08e-01	0	44	102	524288	22	5276
2026-01-25 10:17:47.15	59.22	19.43	-30.4	-33.2	19.2	6.08e-01	0	43	102	524288	22	4932
2026-01-25 10:17:49.16	58.66	19.49	-30.6	-33.6	18.9	6.07e-01	0	43	102	524288	22	5094
2026-01-25 10:17:51.16	58.09	19.55	-30.5	-33.5	19.0	6.06e-01	0	44	102	524288	22	5044
2026-01-25 10:17:53.17	57.52	19.61	-30.6	-33.6	18.9	6.04e-01	0	44	102	524288	22	5089
2026-01-25 10:17:55.18	56.95	19.66	-30.5	-33.4	19.0	6.06e-01	0	43	102	524288	22	5028
2026-01-25 10:17:57.19	56.38	19.71	-30.5	-33.3	19.1	6.04e-01	0	44	102	524288	22	4979
2026-01-25 10:17:59.20	55.80	19.76	-30.6	-33.7	18.9	6.07e-01	0	44	102	524288	22	5147
2026-01-25 10:18:01.21	55.22	19.80	-30.6	-33.7	18.9	6.07e-01	0	44	102	524288	22	5136
2026-01-25 10:18:03.22	54.64	19.84	-30.7	-33.9	18.7	6.06e-01	0	44	102	524288	22	5219
2026-01-25 10:18:05.23	54.06	19.88	-30.8	-34.1	18.6	6.08e-01	0	44	102	524288	22	5292
2026-01-25 10:18:07.23	53.48	19.92	-30.7	-34.0	18.6	6.06e-01	0	43	102	524288	22	5260
2026-01-25 10:18:09.24	52.90	19.95	-30.7	-34.1	18.6	6.08e-01	0	44	102	524288	22	5281
2026-01-25 10:18:11.25	52.31	19.98	-30.9	-34.4	18.4	6.06e-01	0	44	102	524288	22	5416
2026-01-25 10:18:13.27	51.72	20.01	-30.6	-33.6	18.9	6.05e-01	0	44	102	524288	22	5083
2026-01-25 10:18:15.27	51.14	20.04	-30.4	-33.2	19.1	6.05e-01	0	44	102	524288	22	4955
2026-01-25 10:18:17.28	50.55	20.06	-30.6	-33.6	19.0	6.05e-01	0	44	102	524288	22	5080
2026-01-25 10:18:19.28	49.96	20.08	-30.5	-33.5	19.0	6.05e-01	0	44	102	524288	22	5062
2026-01-25 10:18:21.29	49.37	20.09	-30.5	-33.3	19.1	6.06e-01	0	44	102	524288	22	4977
2026-01-25 10:18:23.30	48.78	20.10	-30.4	-33.2	19.2	6.05e-01	0	44	102	524288	22	4949
2026-01-25 10:18:25.31	48.19	20.11	-30.6	-33.5	19.0	6.06e-01	0	43	102	524288	22	5068
2026-01-25 10:18:27.32	47.60	20.12	-30.5	-33.3	19.2	6.07e-01	0	43	102	524288	22	4981
2026-01-25 10:18:29.32	47.01	20.12	-30.5	-33.3	19.1	6.07e-01	0	44	102	524288	22	4984
2026-01-25 10:18:31.34	46.42	20.12	-30.5	-33.5	19.0	6.07e-01	0	43	102	524288	22	5041
2026-01-25 10:18:33.34	45.83	20.12	-30.6	-33.5	19.0	6.06e-01	0	44	102	524288	22	5073
2026-01-25 10:18:35.35	45.24	20.11	-30.4	-33.2	19.2	6.06e-01	0	43	102	524288	22	4950
2026-01-25 10:18:37.37	44.64	20.10	-30.7	-33.9	18.8	6.08e-01	0	44	102	524288	22	5203
2026-01-25 10:18:39.37	44.05	20.09	-30.7	-33.9	18.8	6.06e-01	0	43	102	524288	22	5219
2026-01-25 10:18:41.38	43.46	20.08	-30.7	-33.8	18.8	6.07e-01	0	44	102	524288	22	5189
2026-01-25 10:18:43.39	42.88	20.06	-30.7	-34.0	18.7	6.05e-01	0	43	102	524288	22	5256
2026-01-25 10:18:45.40	42.29	20.04	-30.7	-33.9	18.8	6.05e-01	0	44	102	524288	22	5209
2026-01-25 10:18:47.40	41.70	20.01	-30.6	-33.7	18.9	6.07e-01	0	44	102	524288	22	5123
2026-01-25 10:18:49.42	41.11	19.99	-30.7	-33.9	18.8	6.07e-01	0	44	102	524288	22	5197
2026-01-25 10:18:51.42	40.53	19.96	-30.7	-34.1	18.6	6.06e-01	0	44	102	524288	22	5281
2026-01-25 10:18:53.43	39.95	19.92	-30.4	-33.2	19.1	6.05e-01	0	44	102	524288	22	4968
2026-01-25 10:18:55.43	39.37	19.89	-30.4	-33.2	19.1	6.07e-01	0	44	102	524288	22	4953
2026-01-25 10:18:57.43	38.79	19.85	-30.3	-33.0	19.3	6.07e-01	0	44	102	524288	22	4888
2026-01-25 10:18:59.44	38.21	19.81	-30.4	-33.3	19.0	6.07e-01	0	43	102	524288	22	5020
2026-01-25 10:19:01.45	37.63	19.76	-30.3	-32.9	19.4	6.07e-01	0	44	102	524288	22	4845
2026-01-25 10:19:03.46	37.06	19.71	-30.3	-33.0	19.3	6.06e-01	0	44	102	524288	22	4887
2026-01-25 10:19:05.46	36.49	19.66	-30.5	-33.4	19.0	6.06e-01	0	44	102	524288	22	5025
2026-01-25 10:19:07.46	35.92	19.61	-30.4	-33.1	19.2	6.08e-01	0	44	102	524288	22	4923
2026-01-25 10:19:09.46	35.35	19.56	-30.7	-34.0	18.7	6.07e-01	0	44	102	524288	22	5252
2026-01-25 10:19:11.47	34.78	19.50	-30.6	-33.8	18.8	6.07e-01	0	44	102	524288	22	5169
2026-01-25 10:19:13.49	34.22	19.44	-30.6	-33.8	18.8	6.07e-01	0	43	102	524288	22	5192
2026-01-25 10:19:15.48	33.66	19.37	-30.5	-33.3	19.1	6.09e-01	0	43	102	524288	22	5009
2026-01-25 10:19:17.50	33.10	19.31	-30.4	-33.2	19.1	6.07e-01	0	44	102	524288	22	4960
2026-01-25 10:19:19.50	32.54	19.24	-30.5	-33.5	18.9	6.07e-01	0	43	102	524288	22	5071
2026-01-25 10:19:21.52	31.99	19.17	-30.2	-32.5	19.6	6.07e-01	0	44	102	524288	22	4729
2026-01-25 10:19:23.52	31.44	19.09	-30.2	-32.8	19.4	6.08e-01	0	44	102	524288	22	4810
2026-01-25 10:19:25.52	30.89	19.02	-30.3	-32.8	19.3	6.06e-01	0	44	102	524288	22	4839
2026-01-25 10:19:27.53	30.35	18.94	-30.2	-32.7	19.4	6.07e-01	0	44	102	524288	22	4793
2026-01-25 10:19:29.54	29.80	18.86	-30.4	-33.1	19.2	6.08e-01	0	44	102	524288	22	4922
2026-01-25 10:19:31.55	29.26	18.78	-30.4	-33.2	19.2	6.06e-01	0	44	102	524288	22	4945
2026-01-25 10:19:33.55	28.73	18.69	-30.4	-33.2	19.1	6.06e-01	0	44	102	524288	22	4972
2026-01-25 10:19:35.56	28.20	18.61	-30.5	-33.5	18.9	6.03e-01	0	44	102	524288	22	5056
2026-01-25 10:19:37.57	27.67	18.52	-30.5	-33.3	19.0	6.03e-01	0	44	102	524288	22	5009
2026-01-25 10:19:39.58	27.14	18.43	-30.5	-33.4	19.0	6.02e-01	0	44	102	524288	22	5024
2026-01-25 10:19:41.59	26.62	18.33	-30.5	-33.5	18.9	6.03e-01	0	43	102	524288	22	5087
2026-01-25 10:19:43.59	26.10	18.24	-30.5	-33.5	18.9	6.02e-01	0	44	102	524288	22	5073
2026-01-25 10:19:45.59	25.59	18.14	-30.3	-32.8	19.4	6.03e-01	0	44	102	524288	22	4808
2026-01-25 10:19:47.60	25.08	18.04	-30.3	-32.9	19.2	6.02e-01	0	44	102	524288	22	4873
2026-01-25 10:19:49.61	24.57	17.94	-30.2	-32.6	19.5	6.04e-01	0	43	102	524288	22	4740
2026-01-25 10:19:51.63	24.06	17.84	-30.2	-32.6	19.5	6.02e-01	0	44	102	524288	22	4748
2026-01-25 10:19:53.64	23.56	17.73	-30.2	-32.7	19.4	6.03e-01	0	44	102	524288	22	4787
2026-01-25 10:19:55.65	23.06	17.63	-30.2	-32.6	19.4	6.01e-01	0	44	102	524288	22	4757
2026-01-25 10:19:57.66	22.57	17.52	-30.1	-32.3	19.6	6.05e-01	0	44	102	524288	22	4654
2026-01-25 10:19:59.67	22.08	17.41	-30.1	-32.5	19.5	6.03e-01	0	44	102	524288	22	4723
2026-01-25 10:20:01.68	21.59	17.30	-30.1	-32.5	19.5	6.02e-01	0	44	102	524288	22	4720
2026-01-25 10:20:03.68	21.11	17.19	-30.3	-33.0	19.2	6.02e-01	0	44	102	524288	22	4892
2026-01-25 10:20:05.68	20.63	17.08	-30.2	-32.6	19.3	6.04e-01	0	44	102	524288	22	4763
2026-01-25 10:20:07.69	20.16	16.96	-30.2	-32.6	19.3	6.04e-01	0	44	102	524288	22	4757
2026-01-25 10:20:09.70	19.69	16.85	-30.1	-32.5	19.4	6.03e-01	0	44	102	524288	22	4725
2026-01-25 10:20:11.70	19.22	16.73	-30.0	-32.0	19.7	6.03e-01	0	43	102	524288	22	4577
2026-01-25 10:20:13.72	18.76	16.61	-30.0	-32.3	19.5	6.05e-01	0	44	102	524288	22	4647
2026-01-25 10:20:15.73	18.30	16.49	-30.2	-32.7	19.3	6.05e-01	0	44	102	524288	22	4798
2026-01-25 10:20:17.74	17.84	16.37	-30.1	-32.4	19.5	6.04e-01	0	44	102	524288	22	4683
2026-01-25 10:20:19.75	17.39	16.25	-30.1	-32.4	19.5	6.03e-01	0	44	102	524288	22	4708
2026-01-25 10:20:21.76	16.94	16.13	-30.2	-32.6	19.4	6.05e-01	0	44	102	524288	22	4765
2026-01-25 10:20:23.77	16.50	16.01	-30.1	-32.5	19.4	6.04e-01	0	44	102	524288	22	4753
2026-01-25 10:20:25.77	16.06	15.88	-30.3	-32.9	19.1	6.05e-01	0	44	102	524288	22	4887
2026-01-25 10:20:27.78	15.63	15.76	-30.4	-33.2	18.9	6.03e-01	0	43	102	524288	22	4979
2026-01-25 10:20:29.79	15.20	15.63	-30.1	-32.5	19.3	6.03e-01	0	44	102	524288	22	4749
2026-01-25 10:20:31.80	14.77	15.50	-30.2	-32.6	19.2	6.02e-01	0	44	102	524288	22	4783
2026-01-25 10:20:33.80	14.35	15.37	-30.2	-32.7	19.2	6.05e-01	0	44	102	524288	22	4805
2026-01-25 10:20:35.80	13.93	15.25	-30.1	-32.4	19.4	6.02e-01	0	43	102	524288	22	4690
2026-01-25 10:20:37.81	13.51	15.12	-30.0	-32.2	19.5	6.04e-01	0	44	102	524288	22	4636
2026-01-25 10:20:39.82	13.10	14.99	-30.1	-32.5	19.3	6.03e-01	0	44	102	524288	22	4756
2026-01-25 10:20:41.83	12.69	14.86	-30.2	-32.7	19.2	6.02e-01	0	44	102	524288	22	4828
2026-01-25 10:20:43.84	12.29	14.73	-30.0	-32.3	19.4	6.03e-01	0	44	102	524288	22	4681
2026-01-25 10:20:45.85	11.89	14.59	-30.1	-32.4	19.4	6.01e-01	0	44	102	524288	22	4708
2026-01-25 10:20:47.85	11.49	14.46	-30.2	-32.7	19.2	6.03e-01	0	44	102	524288	22	4792
2026-01-25 10:20:49.86	11.10	14.33	-30.1	-32.6	19.2	6.05e-01	0	44	102	524288	22	4771
2026-01-25 10:20:51.86	10.71	14.20	-30.2	-32.8	19.0	6.04e-01	0	44	102	524288	22	4840
2026-01-25 10:20:53.87	10.33	14.06	-30.1	-32.6	19.2	6.01e-01	0	44	102	524288	22	4768
2026-01-25 10:20:55.88	9.95	13.93	-30.1	-32.5	19.2	6.03e-01	0	44	102	524288	22	4752
2026-01-25 10:20:57.89	9.57	13.79	-30.2	-32.7	19.0	6.04e-01	0	43	102	524288	22	4832
2026-01-25 10:20:59.91	9.20	13.66	-30.0	-32.2	19.4	6.05e-01	0	44	102	524288	22	4650
2026-01-25 10:21:01.90	8.83	13.52	-30.2	-32.7	19.1	6.04e-01	0	44	102	524288	22	4809
2026-01-25 10:21:03.90	8.46	13.39	-30.2	-32.7	19.0	6.03e-01	0	44	102	524288	22	4834
2026-01-25 10:21:05.91	8.10	13.25	-30.0	-32.2	19.4	6.02e-01	0	43	102	524288	22	4637
2026-01-25 10:21:07.91	7.74	13.12	-30.1	-32.6	19.1	6.04e-01	0	43	102	524288	22	4777
2026-01-25 10:21:09.92	7.39	12.98	-30.2	-32.9	18.9	6.04e-01	0	43	102	524288	22	4872
2026-01-25 10:21:11.93	7.04	12.85	-30.3	-33.1	18.8	6.02e-01	0	43	102	524288	22	4950
2026-01-25 10:21:13.94	6.69	12.71	-30.3	-33.0	18.8	6.03e-01	0	44	102	524288	22	4942
2026-01-25 10:21:15.94	6.34	12.57	-30.3	-33.2	18.7	6.03e-01	0	44	102	524288	22	5005
2026-01-25 10:21:17.95	6.00	12.44	-30.3	-33.2	18.7	6.05e-01	0	43	102	524288	22	5008
2026-01-25 10:21:19.95	5.67	12.30	-30.5	-33.6	18.5	6.05e-01	0	44	102	524288	22	5138
2026-01-25 10:21:21.96	5.33	12.16	-30.2	-32.8	19.0	6.04e-01	0	44	102	524288	22	4863
2026-01-25 10:21:23.96	5.00	12.03	-30.3	-33.1	18.7	6.02e-01	0	44	102	524288	22	4978
2026-01-25 10:21:25.96	4.68	11.89	-30.4	-33.3	18.7	6.04e-01	0	43	102	524288	22	5029
2026-01-25 10:21:27.97	4.35	11.76	-30.3	-33.0	18.8	6.04e-01	0	44	102	524288	22	4949
2026-01-25 10:21:29.98	4.03	11.62	-30.3	-33.0	18.8	6.04e-01	0	44	102	524288	22	4935
2026-01-25 10:21:31.99	3.71	11.48	-30.5	-33.7	18.4	6.03e-01	0	44	102	524288	22	5195
2026-01-25 10:21:33.99	3.40	11.34	-30.6	-33.8	18.3	6.00e-01	0	44	102	524288	22	5237
2026-01-25 10:21:36.00	3.09	11.21	-30.5	-33.7	18.4	6.01e-01	0	43	102	524288	22	5201
2026-01-25 10:21:38.01	2.78	11.07	-30.5	-33.8	18.3	6.03e-01	0	44	102	524288	22	5243
2026-01-25 10:21:40.02	2.47	10.93	-30.6	-33.9	18.2	6.02e-01	0	44	102	524288	22	5280
2026-01-25 10:21:42.03	2.17	10.80	-30.4	-33.3	18.5	6.01e-01	0	44	102	524288	22	5060
2026-01-25 10:21:44.03	1.88	10.66	-30.3	-33.1	18.6	6.03e-01	0	44	102	524288	22	4987
2026-01-25 10:21:46.04	1.58	10.53	-30.4	-33.3	18.5	6.02e-01	0	44	102	524288	22	5061
2026-01-25 10:21:48.05	1.29	10.39	-30.6	-34.1	18.0	6.02e-01	0	44	102	524288	22	5345
2026-01-25 10:21:50.06	1.00	10.25	-30.4	-33.5	18.3	6.03e-01	0	44	102	524288	22	5150
2026-01-25 10:21:52.07	0.71	10.12	-30.4	-33.4	18.5	6.04e-01	0	44	102	524288	22	5104
2026-01-25 10:21:54.07	0.43	9.98	-30.4	-33.4	18.5	6.03e-01	0	44	102	524288	22	5099
2026-01-25 10:21:56.08	0.15	9.85	-30.4	-33.5	18.4	6.03e-01	0	44	102	524288	22	5148
2026-01-25 10:21:58.09	359.87	9.71	-30.5	-33.8	18.2	6.01e-01	0	44	102	524288	22	5266
2026-01-25 10:22:00.10	359.59	9.58	-30.8	-34.5	17.7	6.01e-01	0	44	102	524288	22	5561
2026-01-25 10:22:02.11	359.32	9.44	-30.5	-33.7	18.2	6.03e-01	0	44	102	524288	22	5238
2026-01-25 10:22:04.12	359.05	9.31	-30.5	-33.8	18.2	6.03e-01	0	44	102	524288	22	5244
2026-01-25 10:22:06.12	358.78	9.17	-30.6	-33.9	18.1	6.02e-01	0	44	102	524288	22	5305
2026-01-25 10:22:08.12	358.52	9.04	-30.6	-34.2	17.8	6.02e-01	0	44	102	524288	22	5417
2026-01-25 10:22:10.13	358.26	8.91	-30.7	-34.4	17.7	6.03e-01	0	44	102	524288	22	5508
2026-01-25 10:22:12.14	358.00	8.77	-31.0	-44.5	3.9	7.44e-01	0	44	104	524288	22	16996
2026-01-25 10:22:14.15	357.74	8.64	-31.3	-44.6	3.8	7.44e-01	0	44	104	524288	23	16639
2026-01-25 10:22:16.16	357.49	8.51	-31.7	-45.5	3.8	7.46e-01	0	44	104	524288	24	17635
2026-01-25 10:22:18.16	357.24	8.37	-32.2	-46.7	3.8	7.47e-01	0	44	104	524288	25	19174
2026-01-25 10:22:20.18	356.99	8.24	-32.5	-48.0	3.8	7.44e-01	0	44	104	524288	25	21343
2026-01-25 10:22:22.19	356.74	8.11	-32.8	-48.8	3.8	7.45e-01	0	44	104	524288	26	22521
2026-01-25 10:22:24.19	356.50	7.98	-33.0	-49.7	3.8	7.43e-01	0	44	104	524288	26	24369
2026-01-25 10:22:26.21	356.26	7.85	-33.2	-49.9	3.8	7.46e-01	0	43	104	524288	27	24603
2026-01-25 10:22:28.21	356.02	7.72	-33.3	-50.5	3.8	7.45e-01	0	44	104	524288	27	26316
2026-01-25 10:22:30.22	355.79	7.58	-33.3	-51.0	3.8	7.45e-01	0	44	104	524288	27	27443
2026-01-25 10:22:32.23	355.55	7.45	-33.3	-51.1	3.8	7.46e-01	0	44	104	524288	27	27873
2026-01-25 10:22:34.23	355.32	7.32	-33.3	-51.2	3.8	7.45e-01	0	44	104	524288	27	28148
2026-01-25 10:22:36.25	355.09	7.19	-33.3	-51.1	3.8	7.47e-01	0	44	104	524288	27	27940
2026-01-25 10:22:38.26	354.86	7.06	-33.2	-50.4	3.8	7.44e-01	0	44	104	524288	27	26155
2026-01-25 10:22:40.27	354.64	6.93	-34.2	-53.3	3.8	7.46e-01	0	44	104	524288	29	32687

#Closed at: 2026-01-25 10:22:41
#Recorded file [0 MB]: D:/data/31010_260125_131502.dat