passes_logs/2026/01/25/R2M6_AANII_01/R2M6_AANII_01__20260125_004516_FENGYUN_3D_rec.log

#Pass ID: 20260125_004516_FENGYUN 3D
#Satellite: FENGYUN 3D
#Configuration: FENGYUN 3D
#almurnet v.1.7.20240730
#Start time: 2026-01-25 00:46:14

#Version: 2.2.20231116
#Station: R2M6_AANII_01
#Location: 30.233357 lon 59.946436 lat
#TLE: 1 43010U 17072A   26024.51794477  .00000040  00000+0  40682-4 0  9990
#TLE: 2 43010  98.9961 356.4820 0002494  91.2631 268.8830 14.19699550424601

#Time	Az	El	Level	Level2	SNR	BER	BlckErr	Temp	State	Recorded	gain1	gain2
2026-01-25 00:46:14.12	37.83	10.60	-34.4	-53.9	3.8	7.47e-01	0	43	0	0	29	33928
2026-01-25 00:46:17.12	38.21	10.80	-34.3	-45.7	3.8	8.46e-01	0	43	104	0	28	13398
2026-01-25 00:46:20.14	38.60	10.99	-34.3	-45.7	3.8	8.46e-01	0	44	104	0	28	13369
2026-01-25 00:46:23.14	38.98	11.19	-34.3	-45.6	3.8	8.45e-01	0	44	104	0	28	13305
2026-01-25 00:46:26.15	39.38	11.38	-34.2	-45.6	3.8	8.46e-01	0	44	104	0	28	13240
2026-01-25 00:46:29.17	39.78	11.58	-34.2	-45.5	3.8	8.47e-01	0	44	104	0	28	13213
2026-01-25 00:46:32.19	40.18	11.78	-34.5	-45.6	3.8	8.47e-01	0	44	104	0	29	12873
2026-01-25 00:46:35.21	40.59	11.97	-34.4	-45.9	3.8	8.45e-01	0	44	104	0	28	13536
2026-01-25 00:46:38.22	41.01	12.17	-34.4	-45.8	3.8	8.46e-01	0	44	104	0	28	13375
2026-01-25 00:46:41.23	41.43	12.37	-34.2	-45.5	3.8	8.45e-01	0	44	104	0	28	13250
2026-01-25 00:46:44.24	41.86	12.57	-33.7	-44.5	3.8	8.46e-01	0	44	104	0	28	12503
2026-01-25 00:46:47.24	42.29	12.77	-33.4	-43.7	3.7	8.46e-01	0	44	104	0	27	11696
2026-01-25 00:46:50.25	42.72	12.96	-33.3	-43.0	3.8	8.47e-01	0	44	104	0	27	10948
2026-01-25 00:46:53.27	43.17	13.16	-33.3	-42.7	3.8	8.45e-01	0	44	104	0	27	10638
2026-01-25 00:46:56.29	43.62	13.36	-33.5	-44.3	3.8	8.46e-01	0	44	104	0	27	12592
2026-01-25 00:46:59.29	44.07	13.56	-31.3	-34.6	8.0	2.02e-01	0	44	104	0	24	5254
2026-01-25 00:47:02.30	44.53	13.76	-28.3	-29.5	13.3	2.30e-04	0	44	102	1048576	18	4135
2026-01-25 00:47:05.32	45.00	13.96	-27.9	-29.5	13.9	1.10e-06	0	44	102	1048576	16	4348
2026-01-25 00:47:08.33	45.47	14.16	-29.9	-33.0	10.9	1.96e-03	0	44	102	1048576	19	5160
2026-01-25 00:47:11.34	45.95	14.35	-29.7	-32.5	11.2	1.67e-03	0	44	102	1048576	19	4954
2026-01-25 00:47:14.36	46.44	14.55	-28.6	-30.1	13.1	4.40e-04	0	44	102	1048576	18	4319
2026-01-25 00:47:17.37	46.93	14.75	-27.7	-29.1	14.2	1.93e-04	0	44	102	1048576	16	4240
2026-01-25 00:47:20.38	47.43	14.95	-28.0	-29.9	13.7	2.35e-04	0	44	102	1048576	16	4462
2026-01-25 00:47:23.39	47.93	15.14	-26.2	-27.3	15.9	4.19e-04	0	44	102	1048576	13	4078
2026-01-25 00:47:26.41	48.45	15.34	-25.6	-27.0	16.7	0.00e+00	0	44	102	1048576	11	4219
2026-01-25 00:47:29.42	48.96	15.54	-25.5	-26.8	16.8	2.31e-04	0	44	102	1048576	11	4165
2026-01-25 00:47:32.45	49.49	15.73	-25.6	-26.9	16.8	0.00e+00	0	44	102	1048576	11	4181
2026-01-25 00:47:35.46	50.02	15.93	-25.3	-26.2	17.1	0.00e+00	0	44	102	1048576	11	4020
2026-01-25 00:47:38.47	50.56	16.12	-24.9	-25.5	17.5	0.00e+00	0	44	102	1048576	11	3839
2026-01-25 00:47:41.48	51.10	16.32	-24.9	-26.0	17.5	0.00e+00	0	44	102	1048576	10	4073
2026-01-25 00:47:44.50	51.66	16.51	-25.0	-26.2	17.5	0.00e+00	0	44	102	1048576	10	4112
2026-01-25 00:47:47.51	52.22	16.70	-24.9	-25.9	17.6	0.00e+00	0	44	102	1048576	10	4042
2026-01-25 00:47:50.51	52.78	16.89	-24.9	-26.0	17.5	0.00e+00	0	44	102	1048576	10	4068
2026-01-25 00:47:53.52	53.35	17.08	-24.8	-25.6	17.7	0.00e+00	0	44	102	1048576	10	3980
2026-01-25 00:47:56.53	53.93	17.27	-24.6	-25.3	17.9	0.00e+00	0	44	102	1048576	10	3902
2026-01-25 00:47:59.55	54.52	17.45	-24.6	-25.8	17.9	0.00e+00	0	44	102	1048576	9	4124
2026-01-25 00:48:02.56	55.11	17.64	-24.7	-26.0	17.8	0.00e+00	0	44	102	1048576	9	4177
2026-01-25 00:48:05.57	55.71	17.82	-24.7	-25.9	17.8	0.00e+00	0	44	102	1048576	9	4171
2026-01-25 00:48:08.59	56.32	18.00	-24.6	-25.9	17.8	0.00e+00	0	44	102	1048576	9	4150
2026-01-25 00:48:11.59	56.93	18.18	-24.5	-25.6	18.0	0.00e+00	0	44	102	1048576	9	4086
2026-01-25 00:48:14.61	57.56	18.36	-24.6	-25.9	17.8	0.00e+00	0	44	102	1048576	9	4156
2026-01-25 00:48:17.62	58.19	18.54	-24.6	-25.7	17.9	0.00e+00	0	44	102	1048576	9	4117
2026-01-25 00:48:20.63	58.82	18.71	-24.6	-25.8	17.9	0.00e+00	0	44	102	1048576	9	4123
2026-01-25 00:48:23.64	59.47	18.88	-24.5	-25.5	18.0	0.00e+00	0	44	102	1048576	9	4061
2026-01-25 00:48:26.65	60.12	19.05	-24.6	-25.8	17.9	0.00e+00	0	44	102	1048576	9	4142
2026-01-25 00:48:29.66	60.78	19.22	-24.2	-24.9	18.3	0.00e+00	0	44	102	1048576	9	3913
2026-01-25 00:48:32.67	61.44	19.38	-24.2	-24.9	18.3	0.00e+00	0	44	102	1048576	9	3921
2026-01-25 00:48:35.69	62.11	19.54	-24.2	-25.0	18.3	0.00e+00	0	44	102	1048576	9	3928
2026-01-25 00:48:38.71	62.79	19.70	-24.4	-25.4	18.1	0.00e+00	0	44	102	1048576	9	4025
2026-01-25 00:48:41.72	63.48	19.86	-24.4	-25.3	18.2	0.00e+00	0	44	102	1048576	9	4018
2026-01-25 00:48:44.72	64.17	20.01	-24.1	-25.3	18.4	0.00e+00	0	44	102	1048576	8	4106
2026-01-25 00:48:47.73	64.87	20.16	-24.3	-25.6	18.3	0.00e+00	0	44	102	1048576	8	4190
2026-01-25 00:48:50.75	65.58	20.30	-24.1	-25.3	18.5	0.00e+00	0	44	102	1048576	8	4110
2026-01-25 00:48:53.76	66.29	20.45	-24.1	-25.3	18.5	0.00e+00	0	44	102	1048576	8	4106
2026-01-25 00:48:56.78	67.01	20.59	-24.2	-25.5	18.3	0.00e+00	0	44	102	1048576	8	4169
2026-01-25 00:48:59.80	67.74	20.72	-24.1	-25.2	18.5	0.00e+00	0	44	102	1048576	8	4090
2026-01-25 00:49:02.81	68.47	20.85	-24.0	-24.9	18.6	0.00e+00	0	44	102	1048576	8	4029
2026-01-25 00:49:05.82	69.21	20.98	-23.7	-24.4	18.9	8.00e-06	0	44	102	1048576	8	3901
2026-01-25 00:49:08.83	69.95	21.10	-23.6	-24.1	19.0	0.00e+00	0	44	102	1048576	8	3836
2026-01-25 00:49:11.84	70.70	21.22	-23.7	-24.4	18.9	0.00e+00	0	44	102	1048576	8	3903
2026-01-25 00:49:14.85	71.45	21.33	-23.8	-24.6	18.8	0.00e+00	0	44	102	1048576	8	3954
2026-01-25 00:49:17.86	72.21	21.44	-23.9	-24.8	18.7	0.00e+00	0	44	102	1048576	8	3992
2026-01-25 00:49:20.87	72.98	21.55	-23.8	-24.6	18.7	0.00e+00	0	44	102	1048576	8	3957
2026-01-25 00:49:23.89	73.75	21.65	-23.9	-24.9	18.5	0.00e+00	0	44	102	1048576	8	4051
2026-01-25 00:49:26.90	74.52	21.75	-23.8	-24.6	18.7	1.10e-06	0	44	102	1048576	8	3961
2026-01-25 00:49:29.91	75.30	21.84	-23.7	-24.5	18.7	0.00e+00	0	44	102	1048576	8	3951
2026-01-25 00:49:32.91	76.09	21.92	-23.6	-24.3	18.8	0.00e+00	0	44	102	1048576	8	3880
2026-01-25 00:49:35.93	76.88	22.00	-23.7	-24.5	18.7	0.00e+00	0	44	102	1048576	8	3932
2026-01-25 00:49:38.93	77.67	22.08	-23.7	-24.6	18.6	0.00e+00	0	44	102	1048576	8	3956
2026-01-25 00:49:41.95	78.47	22.15	-23.6	-24.2	18.9	0.00e+00	0	44	102	1048576	8	3864
2026-01-25 00:49:44.96	79.26	22.21	-23.6	-24.2	18.8	0.00e+00	0	44	102	1048576	8	3879
2026-01-25 00:49:47.98	80.07	22.27	-23.5	-24.0	18.9	0.00e+00	0	44	102	1048576	8	3833
2026-01-25 00:49:51.00	80.88	22.33	-23.3	-24.1	19.1	0.00e+00	0	44	102	1048576	7	3956
2026-01-25 00:49:54.00	81.68	22.37	-23.5	-24.6	17.5	0.00e+00	0	44	102	1048576	7	4077
2026-01-25 00:49:57.01	82.49	22.41	-23.6	-24.9	18.7	0.00e+00	0	44	102	1048576	7	4145
2026-01-25 00:50:00.04	83.31	22.45	-23.6	-24.7	18.8	0.00e+00	0	44	102	1048576	7	4098
2026-01-25 00:50:03.04	84.12	22.48	-23.5	-24.6	18.9	3.89e-05	0	44	102	1048576	7	4063
2026-01-25 00:50:06.06	84.94	22.51	-23.4	-24.3	19.0	3.40e-06	0	44	102	1048576	7	3999
2026-01-25 00:50:09.07	85.76	22.53	-23.3	-24.1	19.1	0.00e+00	0	44	102	1048576	7	3942
2026-01-25 00:50:12.08	86.58	22.54	-23.3	-24.2	19.0	6.63e-05	0	44	102	1048576	7	3977
2026-01-25 00:50:15.10	87.40	22.55	-23.5	-24.5	18.9	8.92e-05	0	44	102	1048576	7	4047
2026-01-25 00:50:18.12	88.22	22.55	-23.6	-24.7	18.8	2.07e-04	0	44	102	1048576	7	4109
2026-01-25 00:50:21.13	89.04	22.54	-23.4	-24.4	18.9	1.29e-04	0	44	102	1048576	7	4040
2026-01-25 00:50:24.13	89.85	22.53	-23.7	-25.0	18.6	1.70e-04	0	44	102	1048576	7	4167
2026-01-25 00:50:27.13	90.67	22.51	-23.2	-24.0	19.1	1.82e-04	0	44	102	1048576	7	3919
2026-01-25 00:50:30.15	91.49	22.49	-23.3	-24.2	19.0	0.00e+00	0	44	102	1048576	7	3981
2026-01-25 00:50:33.16	92.30	22.46	-23.3	-24.2	19.0	0.00e+00	0	44	102	1048576	7	3971
2026-01-25 00:50:36.17	93.12	22.43	-23.4	-24.3	18.9	0.00e+00	0	44	102	1048576	7	4008
2026-01-25 00:50:39.18	93.93	22.39	-23.4	-24.3	18.9	0.00e+00	0	44	102	1048576	7	4014
2026-01-25 00:50:42.19	94.74	22.34	-23.4	-24.4	18.9	0.00e+00	0	44	102	1048576	7	4020
2026-01-25 00:50:45.20	95.55	22.29	-23.4	-24.4	18.9	0.00e+00	0	44	102	1048576	7	4030
2026-01-25 00:50:48.22	96.35	22.23	-23.5	-24.6	18.8	0.00e+00	0	44	102	1048576	7	4087
2026-01-25 00:50:51.23	97.16	22.17	-23.5	-24.6	18.8	0.00e+00	0	44	102	1048576	7	4087
2026-01-25 00:50:54.24	97.95	22.10	-23.5	-24.5	18.8	0.00e+00	0	44	102	1048576	7	4050
2026-01-25 00:50:57.25	98.75	22.03	-23.6	-24.8	18.7	0.00e+00	0	44	102	1048576	7	4120
2026-01-25 00:51:00.27	99.54	21.95	-23.7	-24.9	18.6	0.00e+00	0	44	102	1048576	7	4157
2026-01-25 00:51:03.27	100.33	21.87	-23.7	-25.1	18.5	0.00e+00	0	44	102	1048576	7	4213
2026-01-25 00:51:06.27	101.11	21.78	-23.5	-24.5	18.8	0.00e+00	0	44	102	1048576	7	4054
2026-01-25 00:51:09.29	101.89	21.68	-23.5	-24.6	18.7	0.00e+00	0	44	102	1048576	7	4072
2026-01-25 00:51:12.28	102.66	21.59	-23.5	-24.7	18.7	0.00e+00	0	44	102	1048576	7	4093
2026-01-25 00:51:15.30	103.43	21.48	-23.8	-25.1	18.5	0.00e+00	0	44	102	1048576	7	4209
2026-01-25 00:51:18.32	104.20	21.37	-23.9	-25.5	18.3	0.00e+00	0	44	102	1048576	7	4323
2026-01-25 00:51:21.34	104.96	21.26	-23.7	-25.1	18.5	0.00e+00	0	44	102	1048576	7	4188
2026-01-25 00:51:24.35	105.71	21.14	-24.2	-25.5	18.1	0.00e+00	0	44	102	1048576	8	4179
2026-01-25 00:51:27.36	106.46	21.02	-24.4	-26.0	17.8	0.00e+00	0	44	102	1048576	8	4336
2026-01-25 00:51:30.36	107.20	20.89	-24.3	-25.7	17.9	0.00e+00	0	44	102	1048576	8	4257
2026-01-25 00:51:33.38	107.93	20.76	-24.1	-24.9	18.1	6.75e-05	0	44	102	1048576	9	3934
2026-01-25 00:51:36.40	108.67	20.63	-24.0	-24.5	18.3	0.00e+00	0	44	102	1048576	9	3849
2026-01-25 00:51:39.42	109.39	20.49	-24.0	-24.6	18.2	0.00e+00	0	44	102	1048576	9	3876
2026-01-25 00:51:42.43	110.11	20.35	-24.3	-25.3	17.9	2.39e-04	0	44	102	1048576	9	4023
2026-01-25 00:51:45.43	110.82	20.20	-24.1	-24.9	18.1	1.98e-04	0	44	102	1048576	9	3942
2026-01-25 00:51:48.44	111.52	20.05	-24.1	-24.8	18.0	8.00e-06	0	44	102	1048576	9	3924
2026-01-25 00:51:51.46	112.22	19.90	-24.2	-25.2	17.9	1.66e-04	0	44	102	1048576	9	4008
2026-01-25 00:51:54.48	112.91	19.75	-24.1	-24.9	18.0	4.50e-06	0	44	102	1048576	9	3953
2026-01-25 00:51:57.49	113.60	19.59	-24.0	-24.7	18.1	0.00e+00	0	44	102	1048576	9	3894
2026-01-25 00:52:00.50	114.27	19.43	-24.4	-25.4	17.7	0.00e+00	0	44	102	1048576	9	4082
2026-01-25 00:52:03.52	114.94	19.26	-24.5	-25.7	17.5	4.00e-05	0	44	102	1048576	9	4144
2026-01-25 00:52:06.53	115.61	19.09	-24.4	-25.5	17.6	0.00e+00	0	44	102	1048576	9	4075
2026-01-25 00:52:09.55	116.26	18.92	-24.4	-25.5	17.6	0.00e+00	0	44	102	1048576	9	4098
2026-01-25 00:52:12.57	116.91	18.75	-24.4	-25.5	17.6	0.00e+00	0	44	102	1048576	9	4090
2026-01-25 00:52:15.58	117.56	18.58	-24.3	-25.3	17.7	0.00e+00	0	44	102	1048576	9	4051
2026-01-25 00:52:18.60	118.19	18.40	-24.4	-25.6	17.6	0.00e+00	0	44	102	1048576	9	4109
2026-01-25 00:52:21.60	118.82	18.22	-24.6	-25.9	17.4	0.00e+00	0	44	102	1048576	9	4209
2026-01-25 00:52:24.62	119.44	18.04	-24.7	-26.1	17.3	1.10e-06	0	44	102	1048576	9	4245
2026-01-25 00:52:27.63	120.05	17.86	-24.9	-26.6	17.0	1.10e-06	0	44	102	1048576	9	4368
2026-01-25 00:52:30.64	120.66	17.68	-24.9	-26.6	17.0	3.40e-06	0	44	102	1048576	9	4379
2026-01-25 00:52:33.65	121.25	17.49	-24.8	-26.3	17.2	0.00e+00	0	44	102	1048576	9	4295
2026-01-25 00:52:36.65	121.84	17.30	-25.1	-26.5	16.8	0.00e+00	0	44	102	1048576	10	4228
2026-01-25 00:52:39.67	122.43	17.11	-24.9	-26.0	17.1	0.00e+00	0	44	102	1048576	10	4098
2026-01-25 00:52:42.69	123.01	16.92	-25.0	-26.4	16.8	0.00e+00	0	44	102	1048576	10	4212
2026-01-25 00:52:45.70	123.58	16.73	-25.2	-26.7	16.7	0.00e+00	0	44	102	1048576	10	4286
2026-01-25 00:52:48.71	124.14	16.54	-25.3	-26.5	16.5	0.00e+00	0	44	102	1048576	11	4141
2026-01-25 00:52:51.72	124.70	16.35	-24.8	-25.3	17.1	0.00e+00	0	44	102	1048576	11	3821
2026-01-25 00:52:54.73	125.25	16.15	-24.9	-25.7	16.9	0.00e+00	0	44	102	1048576	11	3913
2026-01-25 00:52:57.74	125.79	15.96	-25.3	-26.4	16.5	0.00e+00	0	44	102	1048576	11	4119
2026-01-25 00:53:00.76	126.32	15.76	-25.3	-26.5	16.4	7.32e-05	0	44	102	1048576	11	4150
2026-01-25 00:53:03.77	126.85	15.56	-25.3	-26.4	16.4	0.00e+00	0	44	102	1048576	11	4112
2026-01-25 00:53:06.79	127.38	15.37	-25.2	-26.3	16.5	0.00e+00	0	44	102	1048576	11	4080
2026-01-25 00:53:09.80	127.89	15.17	-25.3	-26.5	16.4	4.69e-05	0	44	102	1048576	11	4139
2026-01-25 00:53:12.81	128.40	14.97	-25.2	-26.4	16.4	2.20e-06	0	44	102	1048576	11	4115
2026-01-25 00:53:15.82	128.90	14.77	-25.3	-26.5	16.4	0.00e+00	0	44	102	1048576	11	4134
2026-01-25 00:53:18.84	129.40	14.57	-25.3	-26.4	16.4	0.00e+00	0	44	102	1048576	11	4092
2026-01-25 00:53:21.85	129.89	14.37	-25.3	-26.4	16.4	3.40e-06	0	44	102	1048576	11	4103
2026-01-25 00:53:24.86	130.37	14.17	-25.5	-26.9	16.1	0.00e+00	0	44	102	1048576	11	4232
2026-01-25 00:53:27.88	130.85	13.97	-25.5	-27.0	16.0	0.00e+00	0	44	102	1048576	11	4270
2026-01-25 00:53:30.87	131.31	13.77	-25.4	-26.8	16.1	0.00e+00	0	44	102	1048576	11	4194
2026-01-25 00:53:33.88	131.78	13.57	-25.4	-26.7	16.1	9.26e-05	0	44	102	1048576	11	4191
2026-01-25 00:53:36.89	132.24	13.37	-25.5	-27.0	15.9	0.00e+00	0	44	102	1048576	11	4293
2026-01-25 00:53:39.90	132.69	13.17	-25.8	-27.6	15.6	0.00e+00	0	44	102	1048576	11	4454
2026-01-25 00:53:42.90	133.13	12.97	-25.9	-27.4	15.4	0.00e+00	0	44	102	1048576	12	4268
2026-01-25 00:53:45.90	133.57	12.77	-25.9	-27.4	15.4	0.00e+00	0	44	102	1048576	12	4266
2026-01-25 00:53:48.92	134.01	12.57	-26.1	-27.8	15.1	0.00e+00	0	44	102	1048576	12	4389
2026-01-25 00:53:51.94	134.44	12.37	-25.8	-27.3	15.4	0.00e+00	0	44	102	1048576	12	4240
2026-01-25 00:53:54.94	134.86	12.17	-26.0	-27.7	15.2	0.00e+00	0	44	102	1048576	12	4352
2026-01-25 00:53:57.95	135.28	11.97	-26.2	-28.0	14.9	0.00e+00	0	44	102	1048576	12	4453
2026-01-25 00:54:00.96	135.69	11.77	-26.0	-27.6	15.1	0.00e+00	0	44	102	1048576	12	4354
2026-01-25 00:54:03.97	136.10	11.57	-25.8	-27.2	15.3	0.00e+00	0	44	102	1048576	12	4236
2026-01-25 00:54:06.98	136.50	11.37	-25.8	-27.3	15.2	0.00e+00	0	44	102	1048576	12	4263
2026-01-25 00:54:09.99	136.90	11.18	-25.9	-27.6	15.0	0.00e+00	0	44	102	1048576	12	4346
2026-01-25 00:54:13.00	137.29	10.98	-26.0	-27.7	15.0	0.00e+00	0	44	102	1048576	12	4369
2026-01-25 00:54:16.01	137.67	10.78	-26.2	-28.0	14.8	0.00e+00	0	44	102	1048576	12	4456
2026-01-25 00:54:19.02	138.05	10.58	-26.0	-27.7	15.0	0.00e+00	0	44	102	1048576	12	4366
2026-01-25 00:54:22.04	138.43	10.39	-26.0	-27.8	14.9	0.00e+00	0	44	102	1048576	12	4404
2026-01-25 00:54:25.05	138.80	10.19	-26.1	-27.9	14.8	0.00e+00	0	44	102	1048576	12	4409
2026-01-25 00:54:28.07	139.17	10.00	-26.0	-27.7	15.0	0.00e+00	0	44	102	1048576	12	4360
2026-01-25 00:54:31.08	139.53	9.80	-26.1	-27.9	14.5	0.00e+00	0	44	102	1048576	12	4420
2026-01-25 00:54:34.09	139.89	9.61	-26.3	-28.4	14.5	0.00e+00	0	44	102	1048576	12	4582
2026-01-25 00:54:37.09	140.24	9.41	-26.4	-28.7	14.0	1.10e-06	0	44	102	1048576	12	4680
2026-01-25 00:54:40.11	140.59	9.22	-26.8	-29.0	13.7	3.71e-04	0	44	102	1048576	13	4645
2026-01-25 00:54:43.13	140.94	9.03	-26.8	-29.0	13.7	3.40e-06	0	44	102	1048576	13	4628
2026-01-25 00:54:46.14	141.28	8.84	-26.8	-28.5	13.6	5.70e-06	0	44	102	1048576	14	4391
2026-01-25 00:54:49.16	141.61	8.64	-26.8	-28.5	13.5	3.62e-04	0	44	102	1048576	14	4408
2026-01-25 00:54:52.15	141.94	8.45	-26.9	-28.8	13.3	2.43e-04	0	44	102	1048576	14	4490
2026-01-25 00:54:55.16	142.27	8.26	-26.9	-28.9	13.2	1.02e-05	0	44	102	1048576	14	4528
2026-01-25 00:54:58.17	142.59	8.07	-26.8	-28.8	13.2	2.88e-04	0	44	102	1048576	14	4510
2026-01-25 00:55:01.18	142.91	7.89	-26.9	-28.9	13.1	3.08e-04	0	44	102	1048576	14	4556
2026-01-25 00:55:04.20	143.23	7.70	-27.2	-29.5	12.7	5.81e-04	0	44	102	1048576	14	4724
2026-01-25 00:55:07.21	143.54	7.51	-27.2	-29.5	12.8	1.06e-03	0	44	102	1048576	14	4688
2026-01-25 00:55:10.23	143.85	7.32	-27.2	-29.6	12.8	1.00e-03	0	44	102	1048576	14	4713
2026-01-25 00:55:13.25	144.15	7.14	-27.3	-29.8	12.6	6.75e-05	0	44	102	1048576	14	4798

#Closed at: 2026-01-25 00:55:15
#Recorded file [1 MB]: D:/data/31010_260125_034659.dat