passes_logs/2026/01/25/R2M6_AANII_01/R2M6_AANII_01__20260125_105100_NOAA_21_JPSS-2_rec.log

#Pass ID: 20260125_105100_NOAA 21 (JPSS-2)
#Satellite: NOAA 21 (JPSS-2)
#Configuration: NOAA 21
#almurnet v.1.7.20240730
#Start time: 2026-01-25 10:51:02

#Version: 2.2.20231116
#Station: R2M6_AANII_01
#Location: 30.233357 lon 59.946436 lat
#TLE: 1 54234U 22150A   26024.45772595  .00000201  00000+0  11607-3 0  9996
#TLE: 2 54234  98.7508 325.2435 0000728 220.7365 139.3757 14.19538765166156

#Time	Az	El	Level	Level2	SNR	BER	BlckErr	Temp	State	Recorded	gain1	gain2
2026-01-25 10:51:02.51	176.82	7.14	-29.8	-33.7	4.9	1.34e+00	0	43	0	0	19	5687
2026-01-25 10:51:05.51	176.92	7.37	-30.4	-33.8	9.6	1.49e-02	0	43	102	1048576	21	5345
2026-01-25 10:51:08.53	177.03	7.60	-29.4	-31.6	11.5	1.19e-03	0	43	102	1048576	20	4610
2026-01-25 10:51:11.55	177.14	7.84	-29.3	-31.8	11.8	4.78e-04	0	43	102	1048576	19	4767
2026-01-25 10:51:14.56	177.25	8.07	-29.5	-32.2	11.6	5.94e-04	0	43	102	1048576	19	4893
2026-01-25 10:51:17.57	177.36	8.31	-29.4	-31.8	11.8	3.59e-04	0	43	102	1048576	19	4789
2026-01-25 10:51:20.58	177.47	8.55	-29.0	-30.8	12.6	1.36e-04	0	43	102	1048576	19	4445
2026-01-25 10:51:23.59	177.58	8.80	-28.9	-30.6	12.7	9.99e-05	0	43	102	1048576	19	4385
2026-01-25 10:51:26.61	177.70	9.04	-28.7	-30.7	13.0	3.43e-05	0	43	102	1048576	18	4501
2026-01-25 10:51:29.61	177.82	9.29	-28.5	-30.1	13.3	1.67e-05	0	43	102	1048576	18	4330
2026-01-25 10:51:32.63	177.94	9.54	-28.4	-29.9	13.5	5.30e-06	0	43	102	1048576	18	4266
2026-01-25 10:51:35.64	178.06	9.79	-28.4	-29.7	13.6	8.30e-06	0	43	102	1048576	18	4218
2026-01-25 10:51:38.65	178.19	10.05	-28.2	-30.0	13.8	6.10e-06	0	43	102	1048576	17	4390
2026-01-25 10:51:41.66	178.31	10.31	-28.2	-30.0	13.8	4.50e-06	0	43	102	1048576	17	4392
2026-01-25 10:51:44.67	178.44	10.57	-28.2	-29.9	13.8	9.90e-06	0	43	102	1048576	17	4372
2026-01-25 10:51:47.68	178.57	10.83	-28.2	-29.9	13.9	3.00e-06	0	43	102	1048576	17	4360
2026-01-25 10:51:50.70	178.70	11.09	-28.0	-29.5	14.2	7.00e-07	0	43	102	1048576	17	4234
2026-01-25 10:51:53.72	178.84	11.36	-28.0	-29.4	14.3	0.00e+00	0	43	102	1048576	17	4206
2026-01-25 10:51:56.71	178.97	11.63	-28.0	-29.2	14.3	7.00e-07	0	43	102	1048576	17	4173
2026-01-25 10:51:59.73	179.11	11.91	-28.1	-29.5	14.2	1.50e-06	0	43	102	1048576	17	4231
2026-01-25 10:52:02.73	179.25	12.19	-28.1	-29.5	14.2	1.50e-06	0	43	102	1048576	17	4258
2026-01-25 10:52:05.74	179.40	12.47	-28.0	-29.2	14.4	7.00e-07	0	43	102	1048576	17	4174
2026-01-25 10:52:08.76	179.55	12.75	-27.8	-29.3	14.6	0.00e+00	0	43	102	1048576	16	4299
2026-01-25 10:52:11.76	179.69	13.03	-27.7	-29.1	14.8	0.00e+00	0	43	102	1048576	16	4240
2026-01-25 10:52:14.77	179.85	13.32	-27.6	-28.9	14.9	0.00e+00	0	43	102	1048576	16	4178
2026-01-25 10:52:17.78	180.00	13.62	-27.6	-28.9	15.0	0.00e+00	0	43	102	1048576	16	4168
2026-01-25 10:52:20.79	180.16	13.91	-27.5	-28.7	15.1	0.00e+00	0	44	102	1048576	16	4127
2026-01-25 10:52:23.81	180.32	14.21	-27.5	-28.6	15.1	0.00e+00	0	43	102	1048576	16	4098
2026-01-25 10:52:26.82	180.48	14.52	-27.5	-28.7	15.1	0.00e+00	0	44	102	1048576	16	4115
2026-01-25 10:52:29.83	180.65	14.83	-27.5	-28.6	15.1	0.00e+00	0	44	102	1048576	16	4085
2026-01-25 10:52:32.83	180.82	15.14	-27.5	-28.6	15.2	7.00e-07	0	43	102	1048576	16	4084
2026-01-25 10:52:35.85	181.00	15.45	-27.5	-28.6	15.2	0.00e+00	0	43	102	1048576	16	4096
2026-01-25 10:52:38.87	181.17	15.77	-27.6	-28.8	15.1	0.00e+00	0	43	102	1048576	16	4154
2026-01-25 10:52:41.88	181.35	16.09	-27.7	-29.1	15.0	0.00e+00	0	44	102	1048576	16	4219
2026-01-25 10:52:44.90	181.54	16.42	-27.6	-29.0	15.0	0.00e+00	0	43	102	1048576	16	4191
2026-01-25 10:52:47.91	181.73	16.75	-27.7	-29.1	14.9	0.00e+00	0	44	102	1048576	16	4232
2026-01-25 10:52:50.91	181.92	17.08	-27.7	-29.0	15.0	0.00e+00	0	43	102	1048576	16	4208
2026-01-25 10:52:53.93	182.12	17.43	-27.7	-29.0	15.0	0.00e+00	0	43	102	1048576	16	4219
2026-01-25 10:52:56.94	182.32	17.77	-27.9	-29.5	14.7	7.00e-07	0	44	102	1048576	16	4358
2026-01-25 10:52:59.95	182.52	18.12	-27.8	-29.3	14.8	0.00e+00	0	43	102	1048576	16	4305
2026-01-25 10:53:02.96	182.73	18.47	-27.9	-29.5	14.8	0.00e+00	0	43	102	1048576	16	4357
2026-01-25 10:53:05.98	182.95	18.83	-27.9	-29.6	14.8	7.00e-07	0	44	102	1048576	16	4371
2026-01-25 10:53:09.00	183.17	19.19	-27.8	-29.3	14.9	0.00e+00	0	44	102	1048576	16	4305
2026-01-25 10:53:12.01	183.39	19.56	-27.6	-29.0	15.1	0.00e+00	0	43	102	1048576	16	4212
2026-01-25 10:53:15.02	183.62	19.93	-27.5	-28.7	15.3	0.00e+00	0	43	102	1048576	16	4118
2026-01-25 10:53:18.03	183.86	20.31	-27.4	-28.3	15.5	0.00e+00	0	43	102	1048576	16	4023
2026-01-25 10:53:21.04	184.10	20.69	-27.4	-28.4	15.4	0.00e+00	0	44	102	1048576	16	4057
2026-01-25 10:53:24.04	184.34	21.08	-26.7	-27.9	16.2	0.00e+00	0	44	102	1048576	14	4116
2026-01-25 10:53:27.06	184.60	21.48	-26.7	-27.8	16.2	0.00e+00	0	44	102	1048576	14	4109
2026-01-25 10:53:30.07	184.86	21.88	-26.5	-27.4	16.5	0.00e+00	0	44	102	1048576	14	3985
2026-01-25 10:53:33.08	185.12	22.28	-26.7	-27.9	16.2	0.00e+00	0	43	102	1048576	14	4119
2026-01-25 10:53:36.10	185.40	22.70	-26.5	-27.4	16.5	0.00e+00	0	44	102	1048576	14	3990
2026-01-25 10:53:39.10	185.67	23.11	-26.4	-27.1	16.6	0.00e+00	0	44	102	1048576	14	3920
2026-01-25 10:53:42.11	185.96	23.54	-26.6	-27.5	16.4	0.00e+00	0	44	102	1048576	14	4020
2026-01-25 10:53:45.13	186.25	23.97	-26.5	-27.3	16.6	0.00e+00	0	44	102	1048576	14	3963
2026-01-25 10:53:48.15	186.56	24.41	-26.3	-27.0	16.7	0.00e+00	0	44	102	1048576	14	3877
2026-01-25 10:53:51.16	186.87	24.85	-26.4	-27.1	16.7	0.00e+00	0	44	102	1048576	14	3912
2026-01-25 10:53:54.16	187.19	25.30	-26.5	-27.4	16.5	0.00e+00	0	44	102	1048576	14	3992
2026-01-25 10:53:57.16	187.51	25.75	-26.7	-27.8	16.3	0.00e+00	0	43	102	1048576	14	4081
2026-01-25 10:54:00.18	187.85	26.22	-26.9	-28.1	16.2	0.00e+00	0	44	102	1048576	14	4168
2026-01-25 10:54:03.19	188.20	26.69	-27.1	-28.7	15.8	6.80e-06	0	43	102	1048576	14	4324
2026-01-25 10:54:06.20	188.55	27.17	-27.3	-29.1	15.6	0.00e+00	0	44	102	1048576	14	4447
2026-01-25 10:54:09.21	188.92	27.65	-27.4	-29.3	15.5	1.50e-06	0	44	102	1048576	14	4501
2026-01-25 10:54:12.22	189.30	28.15	-27.6	-29.2	15.3	9.10e-06	0	44	102	1048576	15	4364
2026-01-25 10:54:15.23	189.69	28.65	-27.4	-28.9	15.5	1.14e-05	0	44	102	1048576	15	4277
2026-01-25 10:54:18.24	190.09	29.15	-27.3	-28.6	15.7	1.22e-05	0	44	102	1048576	15	4189
2026-01-25 10:54:21.26	190.51	29.67	-27.3	-28.7	15.7	0.00e+00	0	43	102	1048576	15	4211
2026-01-25 10:54:24.26	190.93	30.19	-27.2	-28.4	15.8	0.00e+00	0	43	102	1048576	15	4142
2026-01-25 10:54:27.27	191.37	30.73	-27.2	-28.4	15.8	0.00e+00	0	44	102	1048576	15	4137
2026-01-25 10:54:30.28	191.83	31.26	-27.1	-28.2	15.9	0.00e+00	0	43	102	1048576	15	4076
2026-01-25 10:54:33.30	192.30	31.81	-27.1	-28.2	15.9	0.00e+00	0	43	102	1048576	15	4073
2026-01-25 10:54:36.30	192.79	32.37	-27.0	-27.9	16.1	0.00e+00	0	43	102	1048576	15	4005
2026-01-25 10:54:39.31	193.29	32.93	-27.2	-28.4	15.9	0.00e+00	0	43	102	1048576	15	4121
2026-01-25 10:54:42.32	193.81	33.51	-27.4	-28.8	15.7	0.00e+00	0	44	102	1048576	15	4230
2026-01-25 10:54:45.32	194.35	34.08	-27.7	-29.5	15.2	0.00e+00	0	43	102	1048576	15	4446
2026-01-25 10:54:48.34	194.91	34.67	-28.1	-29.9	14.9	0.00e+00	0	44	102	1048576	16	4432
2026-01-25 10:54:51.35	195.49	35.27	-28.2	-30.1	14.9	0.00e+00	0	44	102	1048576	16	4474
2026-01-25 10:54:54.36	196.09	35.88	-28.3	-30.2	14.7	7.00e-07	0	43	102	1048576	16	4528
2026-01-25 10:54:57.38	196.71	36.49	-28.5	-30.3	14.4	1.50e-06	0	44	102	1048576	17	4444
2026-01-25 10:55:00.40	197.36	37.12	-28.4	-30.0	14.6	0.00e+00	0	44	102	1048576	17	4337
2026-01-25 10:55:03.41	198.03	37.74	-28.5	-30.2	14.5	7.00e-07	0	44	102	1048576	17	4406
2026-01-25 10:55:06.42	198.73	38.38	-28.7	-30.7	14.3	7.00e-07	0	44	102	1048576	17	4532
2026-01-25 10:55:09.44	199.45	39.03	-28.9	-31.4	13.9	2.20e-06	0	43	102	1048576	17	4757
2026-01-25 10:55:12.46	200.21	39.68	-29.4	-32.0	13.3	1.37e-05	0	44	102	1048576	18	4838
2026-01-25 10:55:15.47	200.99	40.34	-29.4	-31.4	13.3	2.51e-05	0	44	102	1048576	19	4542
2026-01-25 10:55:18.48	201.81	41.00	-29.1	-30.6	13.8	9.10e-06	0	44	102	1048576	19	4300
2026-01-25 10:55:21.49	202.66	41.67	-29.0	-30.5	13.9	3.80e-06	0	44	102	1048576	19	4252
2026-01-25 10:55:24.51	203.54	42.35	-29.2	-30.8	13.6	6.80e-06	0	44	102	1048576	19	4369
2026-01-25 10:55:27.52	204.47	43.02	-29.4	-31.3	13.3	1.67e-05	0	44	102	1048576	19	4511
2026-01-25 10:55:30.54	205.43	43.71	-29.3	-31.1	13.5	1.37e-05	0	43	102	1048576	19	4455
2026-01-25 10:55:33.56	206.44	44.40	-29.6	-31.9	13.1	2.89e-05	0	44	102	1048576	19	4686
2026-01-25 10:55:36.57	207.48	45.09	-29.6	-31.9	12.9	3.58e-05	0	44	102	1048576	19	4702
2026-01-25 10:55:39.58	208.57	45.77	-29.6	-31.9	13.1	3.81e-05	0	44	102	1048576	19	4688
2026-01-25 10:55:42.60	209.72	46.47	-28.8	-30.5	14.2	1.50e-06	0	44	102	1048576	18	4379
2026-01-25 10:55:45.60	210.91	47.15	-29.0	-30.9	13.9	3.00e-06	0	44	102	1048576	18	4498
2026-01-25 10:55:48.61	212.15	47.84	-29.1	-31.3	13.8	7.60e-06	0	44	102	1048576	18	4612
2026-01-25 10:55:51.63	213.45	48.52	-29.1	-31.1	13.9	1.50e-06	0	44	102	1048576	18	4539
2026-01-25 10:55:54.65	214.81	49.20	-28.9	-30.7	14.0	2.20e-06	0	44	102	1048576	18	4432
2026-01-25 10:55:57.67	216.23	49.87	-29.0	-30.8	14.1	7.00e-07	0	44	102	1048576	18	4457
2026-01-25 10:56:00.67	217.71	50.52	-28.5	-29.8	14.7	0.00e+00	0	44	102	1048576	18	4156
2026-01-25 10:56:03.68	219.25	51.17	-28.6	-29.9	14.6	7.00e-07	0	44	102	1048576	18	4203
2026-01-25 10:56:06.70	220.87	51.81	-28.3	-29.7	15.0	0.00e+00	0	44	102	1048576	17	4245
2026-01-25 10:56:09.71	222.55	52.42	-28.3	-29.7	15.0	0.00e+00	0	44	102	1048576	17	4261
2026-01-25 10:56:12.72	224.30	53.02	-28.4	-30.1	14.8	3.00e-06	0	44	102	1048576	17	4371
2026-01-25 10:56:15.73	226.12	53.60	-28.5	-30.4	14.6	7.00e-07	0	44	102	1048576	17	4437
2026-01-25 10:56:18.73	228.00	54.15	-28.5	-30.2	14.7	0.00e+00	0	44	102	1048576	17	4398
2026-01-25 10:56:21.75	229.97	54.68	-28.4	-30.1	14.8	0.00e+00	0	44	102	1048576	17	4363
2026-01-25 10:56:24.75	232.00	55.18	-28.1	-29.4	15.2	0.00e+00	0	44	102	1048576	17	4164
2026-01-25 10:56:27.77	234.12	55.65	-28.1	-29.4	15.2	0.00e+00	0	43	102	1048576	17	4174
2026-01-25 10:56:30.79	236.30	56.08	-27.8	-29.2	15.7	0.00e+00	0	44	102	1048576	16	4209
2026-01-25 10:56:33.81	238.54	56.48	-28.0	-29.7	15.4	0.00e+00	0	44	102	1048576	16	4358
2026-01-25 10:56:36.81	240.84	56.83	-27.4	-28.3	16.2	0.00e+00	0	44	102	1048576	16	3961
2026-01-25 10:56:39.81	243.18	57.14	-26.5	-27.3	17.1	0.00e+00	0	44	102	1048576	14	3932
2026-01-25 10:56:42.82	245.59	57.41	-26.9	-28.1	16.6	0.00e+00	0	44	102	1048576	14	4153
2026-01-25 10:56:45.83	248.04	57.63	-27.8	-29.6	15.5	0.00e+00	0	44	102	1048576	15	4453
2026-01-25 10:56:48.85	250.53	57.80	-26.7	-27.7	16.8	0.00e+00	0	44	102	1048576	14	4047
2026-01-25 10:56:51.87	253.04	57.92	-26.7	-27.7	16.9	0.00e+00	0	44	102	1048576	14	4030
2026-01-25 10:56:54.88	255.57	57.99	-26.8	-28.0	16.7	0.00e+00	0	44	102	1048576	14	4119
2026-01-25 10:56:57.89	258.10	58.00	-26.9	-28.0	16.6	0.00e+00	0	44	102	1048576	14	4123
2026-01-25 10:57:00.90	260.64	57.97	-27.2	-28.8	16.3	3.00e-06	0	44	102	1048576	14	4333
2026-01-25 10:57:03.92	263.17	57.88	-27.2	-28.8	16.3	0.00e+00	0	44	102	1048576	14	4341
2026-01-25 10:57:06.93	265.67	57.74	-27.4	-29.3	16.0	7.60e-06	0	44	102	1048576	14	4466
2026-01-25 10:57:09.95	268.14	57.55	-27.8	-29.7	15.5	7.60e-06	0	44	102	1048576	15	4468
2026-01-25 10:57:12.96	270.57	57.32	-27.4	-28.7	16.1	6.10e-06	0	44	102	1048576	15	4195
2026-01-25 10:57:15.96	272.95	57.04	-27.4	-28.7	16.0	1.22e-05	0	44	102	1048576	15	4207
2026-01-25 10:57:18.97	275.29	56.71	-27.3	-28.6	16.1	0.00e+00	0	44	102	1048576	15	4156
2026-01-25 10:57:21.99	277.57	56.34	-27.5	-29.0	15.9	7.00e-07	0	43	102	1048576	15	4283
2026-01-25 10:57:25.01	279.79	55.93	-27.7	-29.3	15.7	0.00e+00	0	44	102	1048576	15	4364
2026-01-25 10:57:28.02	281.93	55.49	-28.6	-30.4	14.8	7.00e-07	0	44	102	1048576	17	4433
2026-01-25 10:57:31.03	284.01	55.01	-28.9	-31.2	14.3	7.00e-07	0	44	102	1048576	17	4693
2026-01-25 10:57:34.04	286.02	54.50	-28.0	-29.1	15.5	0.00e+00	0	44	102	1048576	17	4070
2026-01-25 10:57:37.06	287.96	53.96	-28.6	-30.4	14.8	0.00e+00	0	44	102	1048576	17	4441
2026-01-25 10:57:40.08	289.83	53.40	-28.6	-30.5	14.7	7.00e-07	0	43	102	1048576	17	4480
2026-01-25 10:57:43.09	291.62	52.81	-28.7	-30.6	14.7	0.00e+00	0	44	102	1048576	17	4479
2026-01-25 10:57:46.09	293.33	52.21	-28.9	-30.5	14.4	0.00e+00	0	44	102	1048576	18	4364
2026-01-25 10:57:49.11	294.99	51.59	-28.7	-30.2	14.6	7.00e-07	0	44	102	1048576	18	4262
2026-01-25 10:57:52.12	296.57	50.95	-28.9	-30.7	14.3	1.50e-06	0	44	102	1048576	18	4416
2026-01-25 10:57:55.14	298.09	50.30	-29.6	-31.7	13.5	7.60e-06	0	44	102	1048576	19	4613
2026-01-25 10:57:58.15	299.55	49.64	-29.5	-31.1	13.4	1.37e-05	0	44	102	1048576	20	4329
2026-01-25 10:58:01.16	300.94	48.97	-29.6	-31.3	13.3	2.28e-05	0	44	102	1048576	20	4394
2026-01-25 10:58:04.17	302.27	48.30	-29.8	-31.9	12.9	4.65e-05	0	44	102	1048576	20	4587
2026-01-25 10:58:07.19	303.55	47.62	-29.3	-31.0	13.7	9.10e-06	0	44	102	1048576	19	4402
2026-01-25 10:58:10.20	304.77	46.93	-28.9	-30.1	14.4	7.00e-07	0	44	102	1048576	19	4118
2026-01-25 10:58:13.22	305.95	46.25	-29.5	-31.6	13.6	8.30e-06	0	44	102	1048576	19	4565
2026-01-25 10:58:16.24	307.07	45.56	-29.9	-32.1	12.7	6.94e-05	0	44	102	1048576	20	4627
2026-01-25 10:58:19.24	308.14	44.87	-29.7	-31.5	13.1	4.19e-05	0	44	102	1048576	20	4452
2026-01-25 10:58:22.25	309.17	44.19	-29.6	-31.3	13.3	1.98e-05	0	44	102	1048576	20	4377
2026-01-25 10:58:25.26	310.15	43.51	-30.2	-32.8	12.3	1.62e-04	0	44	102	1048576	20	4869
2026-01-25 10:58:28.28	311.10	42.83	-29.6	-31.4	13.1	2.36e-05	0	44	102	1048576	20	4410
2026-01-25 10:58:31.29	312.01	42.15	-30.0	-32.4	12.6	7.55e-05	0	44	102	1048576	20	4716
2026-01-25 10:58:34.30	312.88	41.49	-30.0	-32.2	12.7	1.07e-04	0	44	102	1048576	20	4673
2026-01-25 10:58:37.32	313.72	40.82	-29.7	-31.6	13.1	3.28e-05	0	44	102	1048576	20	4478
2026-01-25 10:58:40.32	314.52	40.16	-29.8	-31.9	12.9	6.71e-05	0	44	102	1048576	20	4581
2026-01-25 10:58:43.33	315.29	39.51	-29.1	-30.5	14.1	1.50e-06	0	44	102	1048576	19	4260
2026-01-25 10:58:46.34	316.03	38.87	-29.3	-31.1	13.7	4.50e-06	0	44	102	1048576	19	4420
2026-01-25 10:58:49.36	316.75	38.23	-29.3	-31.1	13.7	9.90e-06	0	44	102	1048576	19	4442
2026-01-25 10:58:52.37	317.43	37.60	-29.1	-30.6	14.0	1.50e-06	0	44	102	1048576	19	4274
2026-01-25 10:58:55.38	318.09	36.97	-28.6	-30.0	14.6	0.00e+00	0	44	102	1048576	18	4208
2026-01-25 10:58:58.39	318.73	36.36	-28.5	-29.8	14.7	2.20e-06	0	44	102	1048576	18	4165
2026-01-25 10:59:01.41	319.35	35.75	-28.6	-30.0	14.6	7.00e-07	0	44	102	1048576	18	4217
2026-01-25 10:59:04.43	319.94	35.15	-28.5	-29.8	14.7	0.00e+00	0	44	102	1048576	18	4166
2026-01-25 10:59:07.45	320.52	34.55	-28.7	-30.2	14.4	7.00e-07	0	44	102	1048576	18	4274
2026-01-25 10:59:10.45	321.06	33.97	-28.1	-29.3	15.2	0.00e+00	0	44	102	1048576	17	4144
2026-01-25 10:59:13.46	321.60	33.40	-28.8	-31.0	14.2	7.00e-07	0	44	102	1048576	17	4643
2026-01-25 10:59:16.47	322.11	32.83	-29.1	-31.3	13.8	1.44e-05	0	44	102	1048576	18	4605
2026-01-25 10:59:19.49	322.61	32.27	-28.0	-29.0	15.3	0.00e+00	0	44	102	1048576	17	4075
2026-01-25 10:59:22.50	323.09	31.72	-27.4	-28.1	16.1	0.00e+00	0	44	102	1048576	16	3937
2026-01-25 10:59:25.51	323.56	31.18	-27.1	-28.1	16.2	0.00e+00	0	44	102	1048576	15	4031
2026-01-25 10:59:28.52	324.01	30.64	-27.2	-28.3	16.1	0.00e+00	0	44	102	1048576	15	4080
2026-01-25 10:59:31.53	324.45	30.12	-27.6	-29.1	15.6	0.00e+00	0	44	102	1048576	15	4324
2026-01-25 10:59:34.54	324.87	29.60	-27.5	-28.9	15.7	0.00e+00	0	44	102	1048576	15	4262
2026-01-25 10:59:37.56	325.28	29.09	-27.5	-29.0	15.7	0.00e+00	0	44	102	1048576	15	4271
2026-01-25 10:59:40.58	325.68	28.58	-27.3	-28.6	15.9	0.00e+00	0	44	102	1048576	15	4171
2026-01-25 10:59:43.59	326.07	28.09	-27.2	-28.3	16.0	0.00e+00	0	44	102	1048576	15	4101
2026-01-25 10:59:46.61	326.44	27.60	-27.3	-28.5	15.9	0.00e+00	0	44	102	1048576	15	4149
2026-01-25 10:59:49.62	326.81	27.12	-27.2	-28.3	16.0	0.00e+00	0	44	102	1048576	15	4104
2026-01-25 10:59:52.63	327.16	26.64	-27.2	-28.4	16.0	7.00e-07	0	44	102	1048576	15	4128
2026-01-25 10:59:55.65	327.51	26.18	-27.1	-28.0	16.1	0.00e+00	0	44	102	1048576	15	4031
2026-01-25 10:59:58.66	327.84	25.72	-27.1	-28.1	16.1	0.00e+00	0	44	102	1048576	15	4054
2026-01-25 11:00:01.66	328.17	25.27	-26.8	-27.5	16.4	0.00e+00	0	44	102	1048576	15	3907
2026-01-25 11:00:04.67	328.48	24.82	-26.8	-28.0	16.4	7.00e-07	0	44	102	1048576	14	4114
2026-01-25 11:00:07.69	328.79	24.38	-27.1	-28.6	16.1	3.00e-06	0	44	102	1048576	14	4290
2026-01-25 11:00:10.71	329.09	23.95	-27.2	-28.8	15.9	0.00e+00	0	44	102	1048576	14	4348
2026-01-25 11:00:13.73	329.39	23.52	-27.2	-28.8	16.0	0.00e+00	0	44	102	1048576	14	4337
2026-01-25 11:00:16.73	329.67	23.10	-27.0	-28.4	16.1	0.00e+00	0	44	102	1048576	14	4245
2026-01-25 11:00:19.74	329.95	22.69	-27.2	-28.8	16.0	0.00e+00	0	44	102	1048576	14	4339
2026-01-25 11:00:22.76	330.22	22.28	-27.2	-29.0	15.8	0.00e+00	0	44	102	1048576	14	4396
2026-01-25 11:00:25.78	330.49	21.88	-27.4	-29.3	15.7	0.00e+00	0	44	102	1048576	14	4483
2026-01-25 11:00:28.80	330.74	21.48	-27.2	-29.0	15.8	0.00e+00	0	44	102	1048576	14	4397
2026-01-25 11:00:31.82	331.00	21.09	-27.0	-28.5	16.1	0.00e+00	0	44	102	1048576	14	4264
2026-01-25 11:00:34.81	331.24	20.70	-27.0	-28.5	16.1	0.00e+00	0	44	102	1048576	14	4254
2026-01-25 11:00:37.82	331.48	20.32	-27.0	-28.4	16.1	0.00e+00	0	44	102	1048576	14	4251
2026-01-25 11:00:40.84	331.72	19.95	-27.0	-28.5	16.0	0.00e+00	0	44	102	1048576	14	4256
2026-01-25 11:00:43.85	331.95	19.58	-27.0	-28.5	16.0	0.00e+00	0	44	102	1048576	14	4275
2026-01-25 11:00:46.87	332.17	19.21	-27.2	-28.9	15.8	0.00e+00	0	44	102	1048576	14	4380
2026-01-25 11:00:49.87	332.39	18.86	-27.3	-29.1	15.7	0.00e+00	0	44	102	1048576	14	4438
2026-01-25 11:00:52.88	332.60	18.50	-27.5	-29.5	15.4	0.00e+00	0	43	102	1048576	14	4560
2026-01-25 11:00:55.89	332.81	18.15	-27.5	-29.2	15.3	0.00e+00	0	44	102	1048576	15	4342
2026-01-25 11:00:58.90	333.02	17.81	-27.7	-29.6	15.0	0.00e+00	0	44	102	1048576	15	4480
2026-01-25 11:01:01.92	333.22	17.47	-27.8	-29.8	14.9	0.00e+00	0	44	102	1048576	15	4515
2026-01-25 11:01:04.93	333.42	17.13	-28.0	-30.2	14.7	0.00e+00	0	44	102	1048576	15	4657
2026-01-25 11:01:07.94	333.61	16.80	-28.3	-30.4	14.5	7.00e-07	0	44	102	1048576	16	4576
2026-01-25 11:01:10.95	333.80	16.47	-28.4	-30.7	14.3	0.00e+00	0	44	102	1048576	16	4675
2026-01-25 11:01:13.96	333.98	16.15	-28.2	-30.1	14.6	1.50e-06	0	44	102	1048576	16	4494
2026-01-25 11:01:16.97	334.17	15.83	-28.2	-30.2	14.5	7.00e-07	0	44	102	1048576	16	4524
2026-01-25 11:01:19.98	334.34	15.51	-28.1	-29.9	14.7	0.00e+00	0	44	102	1048576	16	4443
2026-01-25 11:01:22.99	334.52	15.20	-28.0	-29.8	14.8	0.00e+00	0	44	102	1048576	16	4408
2026-01-25 11:01:26.00	334.69	14.89	-28.2	-30.1	14.6	7.00e-07	0	44	102	1048576	16	4499
2026-01-25 11:01:29.01	334.86	14.59	-28.2	-30.3	14.4	7.00e-07	0	44	102	1048576	16	4545
2026-01-25 11:01:32.02	335.02	14.28	-28.4	-30.6	14.2	7.00e-07	0	44	102	1048576	16	4644
2026-01-25 11:01:35.04	335.19	13.99	-28.4	-30.8	14.1	7.00e-07	0	44	102	1048576	16	4706
2026-01-25 11:01:38.05	335.34	13.69	-28.3	-30.6	14.2	7.00e-07	0	44	102	1048576	16	4646
2026-01-25 11:01:41.07	335.50	13.40	-28.2	-30.3	14.4	0.00e+00	0	44	102	1048576	16	4560
2026-01-25 11:01:44.07	335.65	13.11	-28.4	-30.8	14.1	7.00e-07	0	44	102	1048576	16	4721
2026-01-25 11:01:47.08	335.81	12.83	-28.3	-30.6	14.2	0.00e+00	0	44	102	1048576	16	4653
2026-01-25 11:01:50.09	335.95	12.55	-28.5	-30.9	13.9	7.00e-07	0	44	102	1048576	16	4747
2026-01-25 11:01:53.10	336.10	12.27	-28.1	-29.6	14.4	7.00e-07	0	44	102	1048576	17	4251
2026-01-25 11:01:56.12	336.24	11.99	-28.2	-29.8	14.3	1.50e-06	0	44	102	1048576	17	4321
2026-01-25 11:01:59.13	336.38	11.72	-28.3	-30.0	14.1	2.20e-06	0	44	102	1048576	17	4392
2026-01-25 11:02:02.14	336.52	11.45	-28.4	-30.2	14.0	3.00e-06	0	44	102	1048576	17	4439
2026-01-25 11:02:05.15	336.66	11.19	-28.4	-30.2	14.0	1.50e-06	0	44	102	1048576	17	4437
2026-01-25 11:02:08.15	336.79	10.92	-28.4	-30.3	13.9	4.50e-06	0	44	102	1048576	17	4490
2026-01-25 11:02:11.17	336.92	10.66	-28.5	-30.6	13.7	3.00e-06	0	44	102	1048576	17	4559
2026-01-25 11:02:14.18	337.05	10.40	-28.6	-30.6	13.7	8.30e-06	0	44	102	1048576	17	4577
2026-01-25 11:02:17.19	337.18	10.15	-28.6	-30.8	13.5	7.60e-06	0	44	102	1048576	17	4630
2026-01-25 11:02:20.21	337.31	9.89	-28.7	-31.1	13.4	1.52e-05	0	44	102	1048576	17	4722
2026-01-25 11:02:23.22	337.43	9.64	-29.2	-31.7	12.7	9.30e-05	0	44	102	1048576	18	4809
2026-01-25 11:02:26.23	337.55	9.39	-29.0	-31.3	12.9	6.17e-05	0	44	102	1048576	18	4683
2026-01-25 11:02:29.24	337.67	9.15	-28.9	-30.9	13.1	2.36e-05	0	43	102	1048576	18	4548
2026-01-25 11:02:32.24	337.79	8.91	-29.0	-31.1	13.0	3.96e-05	0	44	102	1048576	18	4617
2026-01-25 11:02:35.26	337.91	8.66	-28.9	-31.1	13.0	5.18e-05	0	44	102	1048576	18	4623
2026-01-25 11:02:38.28	338.02	8.42	-29.1	-31.4	12.7	7.85e-05	0	44	102	1048576	18	4717
2026-01-25 11:02:41.29	338.14	8.19	-29.2	-31.8	12.5	1.05e-04	0	44	102	1048576	18	4838
2026-01-25 11:02:44.29	338.25	7.95	-29.3	-32.0	12.3	1.94e-04	0	44	102	1048576	18	4931
2026-01-25 11:02:47.30	338.36	7.72	-29.4	-32.3	12.1	2.78e-04	0	44	102	1048576	18	5044
2026-01-25 11:02:50.29	338.47	7.49	-29.5	-32.0	11.9	3.59e-04	0	44	102	1048576	19	4818
2026-01-25 11:02:53.31	338.57	7.26	-29.7	-32.5	11.6	8.52e-04	0	44	102	1048576	19	5003
2026-01-25 11:02:56.31	338.68	7.04	-33.6	-45.6	3.8	1.49e+00	0	44	104	1048576	27	14287

#Closed at: 2026-01-25 11:02:58
#Recorded file [1 MB]: D:/data/31010_260125_135104.dat