passes_logs/2026/01/25/R2M6_AANII_01/R2M6_AANII_01__20260125_021413_AQUA_rec.log

#Pass ID: 20260125_021413_AQUA
#Satellite: AQUA
#Configuration: AQUA
#almurnet v.1.7.20240730
#Start time: 2026-01-25 02:14:12

#Version: 2.2.20231116
#Station: R2M6_AANII_01
#Location: 30.233357 lon 59.946436 lat
#TLE: 1 27424U 02022A   26024.53919639  .00001970  00000+0  40397-3 0  9996
#TLE: 2 27424  98.4098 351.1277 0001915  66.8561 358.4840 14.61855303262281

#Time	Az	El	Level	Level2	SNR	BER	BlckErr	Temp	State	Recorded	gain1	gain2
2026-01-25 02:14:12.93	16.05	6.97	-31.7	-46.4	3.8	7.46e-01	0	41	0	0	24	19632
2026-01-25 02:14:15.93	16.02	7.22	-32.1	-47.6	3.8	7.45e-01	0	41	104	0	25	21382
2026-01-25 02:14:18.95	15.99	7.46	-31.5	-45.4	3.8	7.46e-01	0	41	104	0	24	18004
2026-01-25 02:14:21.96	15.96	7.72	-30.9	-44.3	3.8	7.42e-01	0	41	104	0	23	16707
2026-01-25 02:14:24.97	15.93	7.97	-30.7	-43.9	3.8	7.46e-01	0	42	104	0	22	16583
2026-01-25 02:14:27.98	15.89	8.22	-30.5	-44.0	3.8	7.45e-01	0	42	104	0	21	17044
2026-01-25 02:14:30.99	15.86	8.48	-31.3	-45.4	3.8	7.47e-01	0	42	104	0	23	18227
2026-01-25 02:14:34.00	15.82	8.75	-31.7	-46.0	3.8	7.44e-01	0	42	104	0	24	18784
2026-01-25 02:14:37.02	15.78	9.01	-31.9	-46.7	3.8	7.44e-01	0	42	104	0	24	19890
2026-01-25 02:14:40.03	15.75	9.28	-32.3	-47.7	3.8	7.46e-01	0	42	104	0	25	21268
2026-01-25 02:14:43.04	15.71	9.55	-32.8	-49.4	3.8	7.43e-01	0	42	104	0	26	24480
2026-01-25 02:14:46.05	15.67	9.83	-33.0	-50.5	3.8	7.47e-01	0	42	104	0	26	26940
2026-01-25 02:14:49.05	15.63	10.10	-33.0	-50.3	3.8	7.45e-01	0	42	104	0	26	26499
2026-01-25 02:14:52.07	15.58	10.39	-33.1	-50.3	3.9	7.45e-01	0	42	104	0	27	25957
2026-01-25 02:14:55.08	15.54	10.67	-32.9	-49.7	3.8	7.43e-01	0	42	104	0	26	24789
2026-01-25 02:14:58.10	15.50	10.96	-32.8	-49.0	3.8	7.48e-01	0	42	104	0	26	23223
2026-01-25 02:15:01.10	15.45	11.25	-32.6	-48.1	3.8	7.47e-01	0	42	104	0	26	21405
2026-01-25 02:15:04.13	15.40	11.55	-32.3	-47.4	3.8	7.42e-01	0	42	104	0	25	20481
2026-01-25 02:15:07.14	15.35	11.85	-31.3	-44.7	3.8	7.43e-01	0	43	104	0	24	16670
2026-01-25 02:15:10.16	15.30	12.16	-30.5	-43.2	3.8	7.46e-01	0	43	104	0	22	15518
2026-01-25 02:15:13.18	15.25	12.47	-30.0	-42.5	3.8	7.45e-01	0	42	104	0	21	15134
2026-01-25 02:15:16.20	15.20	12.79	-30.0	-42.9	3.8	7.45e-01	0	43	104	0	20	15892
2026-01-25 02:15:19.21	15.15	13.10	-30.2	-42.9	3.8	7.45e-01	0	43	104	0	21	15596
2026-01-25 02:15:22.23	15.09	13.43	-31.2	-44.6	3.8	7.47e-01	0	43	104	0	23	16898
2026-01-25 02:15:25.25	15.03	13.76	-31.5	-45.7	3.8	7.48e-01	0	43	104	0	23	18343
2026-01-25 02:15:28.27	14.97	14.09	-32.1	-47.0	3.8	7.45e-01	0	43	104	0	24	20043
2026-01-25 02:15:31.28	14.91	14.43	-32.7	-48.2	3.8	7.47e-01	0	43	104	0	26	21499
2026-01-25 02:15:34.29	14.85	14.77	-33.0	-49.8	3.8	7.46e-01	0	43	104	0	26	24799
2026-01-25 02:15:37.30	14.79	15.12	-33.1	-50.0	3.7	7.46e-01	0	43	104	0	26	25199
2026-01-25 02:15:40.31	14.72	15.48	-33.1	-49.5	3.8	7.42e-01	0	43	104	0	27	23763
2026-01-25 02:15:43.33	14.65	15.84	-33.1	-49.5	3.8	7.48e-01	0	43	104	0	27	23734
2026-01-25 02:15:46.34	14.58	16.20	-32.8	-48.5	3.8	7.46e-01	0	43	104	0	26	21981
2026-01-25 02:15:49.36	14.51	16.58	-32.4	-47.7	3.8	7.45e-01	0	43	104	0	25	20737
2026-01-25 02:15:52.36	14.43	16.95	-32.1	-46.7	3.8	7.46e-01	0	43	104	0	24	19526
2026-01-25 02:15:55.36	14.36	17.34	-31.4	-45.0	3.8	7.45e-01	0	43	104	0	23	17323
2026-01-25 02:15:58.38	14.28	17.73	-30.2	-42.7	3.8	7.42e-01	0	43	104	0	21	15316
2026-01-25 02:16:01.40	14.20	18.13	-29.7	-41.9	3.9	7.41e-01	0	43	104	0	20	14724
2026-01-25 02:16:04.41	14.11	18.54	-29.6	-32.3	19.6	6.04e-01	0	43	102	524288	20	4945
2026-01-25 02:16:07.42	14.02	18.95	-29.8	-32.8	19.3	6.03e-01	0	43	102	524288	20	5103
2026-01-25 02:16:10.43	13.93	19.37	-29.6	-32.7	19.8	6.03e-01	0	43	102	524288	19	5171
2026-01-25 02:16:13.45	13.84	19.80	-29.6	-32.4	19.7	6.03e-01	0	43	102	524288	20	4959
2026-01-25 02:16:16.46	13.74	20.24	-29.6	-32.7	19.8	6.04e-01	0	43	102	524288	19	5169
2026-01-25 02:16:19.48	13.64	20.68	-29.7	-32.5	19.7	6.01e-01	0	43	102	524288	20	4996
2026-01-25 02:16:22.48	13.54	21.14	-29.7	-32.7	19.5	6.01e-01	0	43	102	524288	20	5043
2026-01-25 02:16:25.50	13.43	21.60	-29.9	-33.1	19.3	6.03e-01	0	43	102	524288	20	5193
2026-01-25 02:16:28.51	13.32	22.07	-29.8	-32.7	19.5	6.03e-01	0	43	102	524288	20	5070
2026-01-25 02:16:31.53	13.20	22.56	-29.7	-32.6	19.5	6.03e-01	0	43	102	524288	20	5036
2026-01-25 02:16:34.54	13.08	23.05	-29.6	-32.4	19.7	6.03e-01	0	43	102	524288	20	4941
2026-01-25 02:16:37.55	12.96	23.55	-29.6	-32.3	19.9	6.01e-01	0	44	102	524288	20	4919
2026-01-25 02:16:40.55	12.83	24.06	-29.6	-32.4	19.8	6.01e-01	0	43	102	524288	20	4929
2026-01-25 02:16:43.56	12.70	24.59	-29.6	-32.4	19.8	6.01e-01	0	43	102	524288	20	4927
2026-01-25 02:16:46.56	12.56	25.12	-29.7	-32.4	19.9	6.02e-01	0	43	102	524288	20	4950
2026-01-25 02:16:49.59	12.41	25.67	-29.6	-32.7	20.0	6.01e-01	0	43	102	524288	19	5140
2026-01-25 02:16:52.60	12.26	26.23	-29.5	-32.6	20.1	6.03e-01	0	43	102	524288	19	5110
2026-01-25 02:16:55.62	12.11	26.80	-29.8	-32.9	19.5	6.02e-01	0	43	102	524288	20	5107
2026-01-25 02:16:58.64	11.94	27.39	-29.5	-32.5	20.2	6.01e-01	0	44	102	524288	19	5066
2026-01-25 02:17:01.66	11.77	27.99	-29.4	-32.2	19.7	6.04e-01	0	43	102	524288	19	4964
2026-01-25 02:17:04.67	11.60	28.61	-29.4	-32.2	19.0	6.01e-01	0	44	102	524288	19	4982
2026-01-25 02:17:07.69	11.41	29.24	-29.6	-32.2	20.0	6.02e-01	0	44	102	524288	20	4868
2026-01-25 02:17:10.69	11.22	29.88	-29.5	-32.4	20.3	6.00e-01	0	44	102	524288	19	5023
2026-01-25 02:17:13.71	11.02	30.54	-29.4	-31.8	20.3	6.01e-01	0	44	102	524288	20	4730
2026-01-25 02:17:16.72	10.81	31.21	-29.5	-32.3	20.3	6.02e-01	0	43	102	524288	19	5013
2026-01-25 02:17:19.74	10.59	31.90	-29.3	-31.6	20.5	6.02e-01	0	43	102	524288	20	4648
2026-01-25 02:17:22.74	10.36	32.61	-29.2	-31.8	20.7	6.03e-01	0	44	102	524288	19	4812
2026-01-25 02:17:25.75	10.12	33.34	-29.5	-32.3	20.4	6.04e-01	0	43	102	524288	19	5002
2026-01-25 02:17:28.76	9.86	34.08	-29.6	-32.2	20.1	6.03e-01	0	44	102	524288	20	4847
2026-01-25 02:17:31.78	9.59	34.85	-29.8	-32.7	19.8	6.03e-01	0	44	102	524288	20	5026
2026-01-25 02:17:34.79	9.31	35.63	-29.8	-32.8	19.8	6.02e-01	0	43	102	524288	20	5061
2026-01-25 02:17:37.81	9.02	36.43	-30.3	-33.4	19.1	6.03e-01	0	44	102	524288	21	5177
2026-01-25 02:17:40.83	8.70	37.26	-30.3	-33.5	19.1	6.00e-01	0	44	102	524288	21	5207
2026-01-25 02:17:43.83	8.37	38.10	-30.6	-33.8	18.6	6.03e-01	0	43	102	524288	22	5181
2026-01-25 02:17:46.83	8.03	38.97	-30.8	-34.2	18.3	6.04e-01	0	44	102	524288	22	5358
2026-01-25 02:17:49.85	7.66	39.86	-30.8	-34.2	18.4	6.02e-01	0	44	102	524288	22	5338
2026-01-25 02:17:52.85	7.27	40.77	-30.5	-33.4	18.8	6.02e-01	0	44	102	524288	22	5058
2026-01-25 02:17:55.87	6.85	41.71	-30.6	-33.6	18.7	6.01e-01	0	44	102	524288	22	5136
2026-01-25 02:17:58.88	6.41	42.67	-30.2	-33.3	19.2	6.03e-01	0	43	102	524288	21	5110
2026-01-25 02:18:01.89	5.94	43.65	-29.8	-32.8	19.8	6.01e-01	0	44	102	524288	20	5056
2026-01-25 02:18:04.90	5.44	44.66	-29.9	-32.9	19.7	6.01e-01	0	44	102	524288	20	5084
2026-01-25 02:18:07.90	4.91	45.69	-30.1	-33.4	19.5	6.04e-01	0	44	102	524288	20	5263
2026-01-25 02:18:10.91	4.34	46.75	-29.9	-32.8	19.9	6.02e-01	0	44	102	524288	20	5043
2026-01-25 02:18:13.93	3.72	47.84	-30.2	-33.2	19.3	6.02e-01	0	44	102	524288	21	5078
2026-01-25 02:18:16.95	3.06	48.96	-30.5	-33.6	18.7	6.02e-01	0	43	102	524288	22	5118
2026-01-25 02:18:19.97	2.34	50.10	-30.5	-34.0	18.8	6.01e-01	0	44	102	524288	21	5381
2026-01-25 02:18:22.98	1.57	51.26	-31.0	-34.8	18.1	6.03e-01	0	44	102	524288	22	5568
2026-01-25 02:18:25.99	0.73	52.44	-29.4	-31.7	20.5	6.03e-01	0	44	102	524288	20	4684
2026-01-25 02:18:29.01	359.82	53.66	-29.1	-31.5	20.9	6.04e-01	0	44	102	524288	19	4722
2026-01-25 02:18:32.02	358.83	54.89	-29.2	-31.6	20.9	6.00e-01	0	44	102	524288	19	4761
2026-01-25 02:18:35.03	357.75	56.15	-29.4	-32.2	20.5	6.04e-01	0	44	102	524288	19	4969
2026-01-25 02:18:38.03	356.57	57.42	-29.7	-32.4	20.1	6.01e-01	0	44	102	524288	20	4902
2026-01-25 02:18:41.02	355.27	58.70	-30.3	-33.5	19.1	6.03e-01	0	44	102	524288	21	5205
2026-01-25 02:18:44.02	353.83	60.00	-30.6	-33.8	18.6	6.04e-01	0	44	102	524288	22	5198
2026-01-25 02:18:47.04	352.23	61.32	-30.3	-33.3	19.3	6.03e-01	0	44	102	524288	21	5102
2026-01-25 02:18:50.05	350.45	62.64	-30.4	-33.8	19.0	6.01e-01	0	44	102	524288	21	5287
2026-01-25 02:18:53.06	348.46	63.96	-30.9	-34.6	18.2	6.03e-01	0	44	102	524288	22	5490
2026-01-25 02:18:56.07	346.23	65.27	-31.6	-35.5	17.1	6.01e-01	0	44	102	524288	24	5625
2026-01-25 02:18:59.07	343.73	66.56	-31.9	-35.8	16.5	6.02e-01	0	44	102	524288	25	5690
2026-01-25 02:19:02.09	340.89	67.84	-31.9	-36.6	16.4	6.02e-01	0	44	102	524288	24	6140
2026-01-25 02:19:05.10	337.68	69.07	-32.0	-36.5	16.0	6.02e-01	0	44	102	524288	25	5996
2026-01-25 02:19:08.12	334.03	70.26	-32.1	-36.7	15.7	6.02e-01	0	44	102	524288	25	6148
2026-01-25 02:19:11.13	329.91	71.37	-31.9	-35.9	16.4	6.03e-01	0	44	102	524288	25	5698
2026-01-25 02:19:14.14	325.26	72.39	-31.6	-34.9	17.2	6.02e-01	0	44	102	524288	25	5269
2026-01-25 02:19:17.15	320.03	73.30	-31.6	-34.9	17.0	6.02e-01	0	44	102	524288	25	5271
2026-01-25 02:19:20.16	314.23	74.06	-31.7	-35.1	17.1	6.01e-01	0	44	102	524288	25	5334
2026-01-25 02:19:23.17	307.88	74.65	-32.1	-36.5	16.1	6.01e-01	0	44	102	524288	25	5986
2026-01-25 02:19:26.18	301.09	75.05	-31.6	-35.1	16.7	6.03e-01	0	44	102	524288	25	5359
2026-01-25 02:19:29.20	293.99	75.24	-31.3	-34.7	17.0	6.02e-01	0	44	102	524288	24	5328
2026-01-25 02:19:32.22	286.81	75.21	-31.7	-36.0	16.4	6.00e-01	0	44	102	524288	24	5869
2026-01-25 02:19:35.24	279.78	74.95	-31.4	-34.9	17.2	6.02e-01	0	44	102	524288	24	5390
2026-01-25 02:19:38.25	273.10	74.49	-31.6	-35.4	16.9	6.03e-01	0	44	102	524288	24	5625
2026-01-25 02:19:41.28	266.87	73.84	-31.2	-35.2	15.1	6.03e-01	0	44	102	524288	24	5698
2026-01-25 02:19:44.28	261.25	73.04	-31.1	-35.3	14.8	6.04e-01	0	44	102	524288	23	5860
2026-01-25 02:19:47.30	256.17	72.09	-31.0	-35.4	14.2	6.00e-01	0	44	102	524288	23	5972
2026-01-25 02:19:50.31	251.68	71.04	-30.6	-36.1	10.8	6.16e-01	0	44	102	524288	23	6787
2026-01-25 02:19:53.31	247.72	69.91	-29.0	-35.7	7.9	6.45e-01	0	44	102	524288	20	7753
2026-01-25 02:19:56.32	244.22	68.71	-28.6	-36.9	6.1	6.82e-01	0	44	102	524288	18	9357
2026-01-25 02:19:59.34	241.11	67.45	-28.9	-38.8	5.5	7.00e-01	0	44	102	524288	18	11215
2026-01-25 02:20:02.35	238.38	66.17	-29.6	-36.9	8.7	6.36e-01	0	44	102	524288	20	8324
2026-01-25 02:20:05.35	235.96	64.87	-29.1	-34.3	10.5	6.17e-01	0	44	102	524288	20	6570
2026-01-25 02:20:08.37	233.80	63.54	-29.9	-34.2	14.1	6.05e-01	0	44	102	524288	20	5932
2026-01-25 02:20:11.39	231.87	62.21	-30.3	-34.5	14.9	6.03e-01	0	44	102	524288	21	5819
2026-01-25 02:20:14.40	230.15	60.89	-30.2	-33.8	16.5	6.02e-01	0	44	102	524288	21	5467
2026-01-25 02:20:17.41	228.60	59.58	-30.0	-33.1	17.3	6.01e-01	0	44	102	524288	21	5176
2026-01-25 02:20:20.42	227.20	58.27	-29.8	-33.4	16.9	6.03e-01	0	44	102	524288	20	5430
2026-01-25 02:20:23.42	225.93	56.99	-29.7	-33.1	17.2	6.00e-01	0	44	102	524288	20	5319
2026-01-25 02:20:26.44	224.77	55.71	-28.8	-31.0	19.1	6.01e-01	0	44	102	524288	19	4656
2026-01-25 02:20:29.45	223.72	54.46	-28.4	-30.4	20.5	6.02e-01	0	44	102	524288	18	4551
2026-01-25 02:20:32.46	222.76	53.23	-28.7	-31.1	20.6	6.02e-01	0	44	102	524288	18	4760
2026-01-25 02:20:35.46	221.87	52.03	-28.3	-30.2	20.9	6.01e-01	0	44	102	524288	18	4474
2026-01-25 02:20:38.47	221.06	50.85	-28.8	-31.5	20.5	6.03e-01	0	44	102	524288	18	4877
2026-01-25 02:20:41.48	220.30	49.69	-29.1	-32.1	20.3	6.02e-01	0	44	102	524288	18	5070
2026-01-25 02:20:44.48	219.61	48.56	-29.3	-32.2	19.8	6.04e-01	0	44	102	524288	19	5007
2026-01-25 02:20:47.49	218.96	47.45	-29.5	-32.5	19.8	6.00e-01	0	44	102	524288	19	5088
2026-01-25 02:20:50.51	218.36	46.37	-29.1	-31.5	20.2	6.04e-01	0	44	102	524288	19	4755
2026-01-25 02:20:53.52	217.79	45.31	-29.4	-32.4	19.7	6.03e-01	0	44	102	524288	19	5095
2026-01-25 02:20:56.53	217.27	44.28	-29.4	-32.3	20.0	6.02e-01	0	44	102	524288	19	5029
2026-01-25 02:20:59.55	216.77	43.27	-29.2	-31.7	20.5	6.01e-01	0	44	102	524288	19	4822
2026-01-25 02:21:02.56	216.31	42.29	-29.6	-32.7	19.9	6.00e-01	0	44	102	524288	19	5180
2026-01-25 02:21:05.57	215.88	41.34	-29.7	-32.6	19.6	6.02e-01	0	44	102	524288	20	5040
2026-01-25 02:21:08.58	215.47	40.41	-29.9	-33.0	19.3	6.01e-01	0	44	102	524288	20	5183
2026-01-25 02:21:11.59	215.09	39.50	-30.0	-33.4	19.1	6.01e-01	0	44	102	524288	20	5312
2026-01-25 02:21:14.61	214.72	38.61	-30.2	-33.3	18.8	6.02e-01	0	44	102	524288	21	5186
2026-01-25 02:21:17.62	214.38	37.75	-30.2	-33.3	18.8	6.02e-01	0	44	102	524288	21	5182
2026-01-25 02:21:20.64	214.05	36.90	-30.2	-33.4	18.7	6.00e-01	0	44	102	524288	21	5225
2026-01-25 02:21:23.66	213.75	36.08	-30.0	-33.0	19.0	6.03e-01	0	44	102	524288	21	5073
2026-01-25 02:21:26.67	213.45	35.28	-29.5	-32.5	20.0	6.01e-01	0	44	102	524288	19	5109
2026-01-25 02:21:29.68	213.18	34.50	-29.5	-32.2	19.8	6.01e-01	0	44	102	524288	20	4893
2026-01-25 02:21:32.70	212.91	33.74	-29.2	-31.5	20.2	6.01e-01	0	44	102	524288	20	4655
2026-01-25 02:21:35.71	212.66	33.00	-28.9	-31.7	20.5	6.01e-01	0	44	102	524288	18	4939
2026-01-25 02:21:38.72	212.42	32.28	-28.8	-31.3	20.9	6.01e-01	0	44	102	524288	18	4807
2026-01-25 02:21:41.73	212.19	31.57	-28.7	-31.2	20.9	6.01e-01	0	44	102	524288	18	4793
2026-01-25 02:21:44.73	211.97	30.89	-27.4	-30.1	20.7	6.01e-01	0	44	102	524288	18	4911
2026-01-25 02:21:47.75	211.77	30.21	-28.7	-31.1	19.9	6.08e-01	0	44	102	524288	18	4755
2026-01-25 02:21:50.77	211.56	29.56	-28.7	-31.2	18.0	6.11e-01	0	44	102	524288	18	4797
2026-01-25 02:21:53.79	211.37	28.91	-28.6	-31.1	20.9	6.02e-01	0	44	102	524288	18	4749
2026-01-25 02:21:56.80	211.19	28.29	-28.9	-31.8	20.5	6.03e-01	0	44	102	524288	18	4982
2026-01-25 02:21:59.81	211.01	27.68	-28.9	-31.7	20.6	6.01e-01	0	44	102	524288	18	4969
2026-01-25 02:22:02.82	210.85	27.08	-28.8	-31.5	20.6	6.02e-01	0	44	102	524288	18	4902
2026-01-25 02:22:05.83	210.68	26.50	-28.9	-31.7	20.6	6.02e-01	0	44	102	524288	18	4946
2026-01-25 02:22:08.85	210.53	25.93	-29.1	-31.7	20.2	6.03e-01	0	44	102	524288	19	4846
2026-01-25 02:22:11.86	210.38	25.37	-29.2	-32.0	20.1	6.03e-01	0	44	102	524288	19	4937
2026-01-25 02:22:14.87	210.23	24.83	-29.4	-32.4	19.8	6.03e-01	0	44	102	524288	19	5080
2026-01-25 02:22:17.88	210.10	24.29	-29.5	-32.7	19.5	6.02e-01	0	44	102	524288	19	5218
2026-01-25 02:22:20.88	209.96	23.77	-29.8	-33.1	19.0	6.03e-01	0	44	102	524288	20	5252
2026-01-25 02:22:23.90	209.83	23.26	-29.5	-32.8	19.5	6.02e-01	0	44	102	524288	19	5246
2026-01-25 02:22:26.91	209.71	22.76	-29.4	-32.4	19.8	6.01e-01	0	44	102	524288	19	5088
2026-01-25 02:22:29.91	209.59	22.27	-29.5	-32.7	19.5	6.02e-01	0	44	102	524288	19	5222
2026-01-25 02:22:32.92	209.47	21.79	-30.0	-33.6	18.7	6.00e-01	0	44	102	524288	20	5460
2026-01-25 02:22:35.93	209.36	21.32	-29.5	-32.8	19.5	6.00e-01	0	44	102	524288	19	5254
2026-01-25 02:22:38.94	209.26	20.86	-29.7	-32.8	19.1	6.03e-01	0	44	102	524288	20	5159
2026-01-25 02:22:41.95	209.15	20.40	-29.5	-32.4	19.3	6.05e-01	0	44	102	524288	20	5026
2026-01-25 02:22:44.97	209.05	19.96	-29.6	-32.5	19.3	6.04e-01	0	44	102	524288	20	5038
2026-01-25 02:22:47.98	208.95	19.52	-29.4	-32.5	19.6	6.00e-01	0	44	102	524288	19	5134
2026-01-25 02:22:50.99	208.86	19.10	-29.3	-32.2	19.7	6.02e-01	0	44	102	524288	19	5048
2026-01-25 02:22:53.99	208.77	18.68	-29.2	-32.1	19.8	6.00e-01	0	44	102	524288	19	5020
2026-01-25 02:22:57.00	208.68	18.27	-29.3	-32.3	19.7	6.03e-01	0	44	102	524288	19	5070
2026-01-25 02:23:00.02	208.59	17.86	-29.2	-32.2	19.7	6.02e-01	0	44	102	524288	19	5033
2026-01-25 02:23:03.02	208.51	17.46	-29.2	-32.0	19.8	6.02e-01	0	44	102	524288	19	4997
2026-01-25 02:23:06.04	208.43	17.07	-29.3	-32.2	19.6	6.04e-01	0	44	102	524288	19	5065
2026-01-25 02:23:09.04	208.35	16.69	-29.2	-32.0	19.8	6.03e-01	0	44	102	524288	19	4996
2026-01-25 02:23:12.05	208.27	16.31	-29.1	-31.9	19.8	5.98e-01	0	44	102	524288	19	4946
2026-01-25 02:23:15.05	208.20	15.94	-29.2	-32.1	19.6	6.03e-01	0	44	102	524288	19	5036
2026-01-25 02:23:18.06	208.13	15.58	-29.2	-32.0	19.7	6.00e-01	0	44	102	524288	19	5008
2026-01-25 02:23:21.07	208.06	15.22	-29.2	-32.0	19.7	6.03e-01	0	44	102	524288	19	4999
2026-01-25 02:23:24.08	207.99	14.87	-29.1	-32.0	19.7	6.01e-01	0	44	102	524288	19	4989
2026-01-25 02:23:27.08	207.93	14.52	-29.3	-32.5	19.4	6.03e-01	0	44	102	524288	19	5164
2026-01-25 02:23:30.09	207.86	14.18	-29.4	-32.8	19.1	6.03e-01	0	44	102	524288	19	5287
2026-01-25 02:23:33.10	207.80	13.84	-29.3	-32.3	19.4	6.03e-01	0	44	102	524288	19	5124
2026-01-25 02:23:36.11	207.74	13.51	-29.3	-32.5	19.2	6.00e-01	0	44	102	524288	19	5202
2026-01-25 02:23:39.12	207.68	13.18	-29.2	-32.2	19.4	6.04e-01	0	44	102	524288	19	5064
2026-01-25 02:23:42.14	207.62	12.86	-29.3	-32.6	19.2	6.03e-01	0	44	102	524288	19	5216
2026-01-25 02:23:45.16	207.57	12.54	-29.5	-33.0	18.9	6.02e-01	0	44	102	524288	19	5400
2026-01-25 02:23:48.18	207.51	12.22	-29.3	-32.5	19.1	6.01e-01	0	44	102	524288	19	5210
2026-01-25 02:23:51.20	207.46	11.91	-29.4	-32.6	19.0	6.02e-01	0	44	102	524288	19	5252
2026-01-25 02:23:54.21	207.41	11.61	-29.5	-33.0	18.8	6.03e-01	0	44	102	524288	19	5382
2026-01-25 02:23:57.22	207.36	11.31	-29.4	-32.8	18.9	6.02e-01	0	44	102	524288	19	5302
2026-01-25 02:24:00.23	207.31	11.01	-29.5	-33.1	18.7	6.02e-01	0	44	102	524288	19	5432
2026-01-25 02:24:03.24	207.26	10.72	-29.8	-33.5	18.0	6.03e-01	0	44	102	524288	20	5489
2026-01-25 02:24:06.26	207.21	10.43	-29.6	-33.0	18.3	6.02e-01	0	44	102	524288	20	5288
2026-01-25 02:24:09.26	207.17	10.15	-29.5	-32.6	18.5	6.03e-01	0	44	102	524288	20	5147
2026-01-25 02:24:12.27	207.12	9.86	-29.6	-33.3	18.5	6.02e-01	0	44	102	524288	19	5509
2026-01-25 02:24:15.28	207.08	9.59	-29.8	-33.4	18.0	6.03e-01	0	44	102	524288	20	5471
2026-01-25 02:24:18.30	207.04	9.31	-29.8	-33.5	17.9	6.03e-01	0	44	102	524288	20	5533
2026-01-25 02:24:21.31	207.00	9.04	-30.0	-33.7	17.4	6.05e-01	0	44	102	524288	21	5503
2026-01-25 02:24:24.33	206.96	8.77	-30.4	-34.7	16.7	6.04e-01	0	44	102	524288	21	5950
2026-01-25 02:24:27.34	206.92	8.51	-29.7	-33.4	17.9	6.02e-01	0	44	102	524288	20	5482
2026-01-25 02:24:30.35	206.88	8.24	-29.7	-33.3	18.0	6.02e-01	0	44	102	524288	20	5448
2026-01-25 02:24:33.36	206.84	7.99	-29.7	-33.4	17.9	6.02e-01	0	44	102	524288	20	5485
2026-01-25 02:24:36.39	206.81	7.73	-29.8	-33.6	17.6	6.03e-01	0	44	102	524288	20	5602
2026-01-25 02:24:39.40	206.77	7.48	-29.8	-33.5	17.7	6.04e-01	0	44	102	524288	20	5571
2026-01-25 02:24:42.41	206.74	7.23	-29.8	-33.7	17.5	6.03e-01	0	44	102	524288	20	5658
2026-01-25 02:24:45.42	206.70	6.98	-33.3	-52.6	3.8	7.43e-01	0	44	104	524288	27	33513

#Closed at: 2026-01-25 02:24:47
#Recorded file [0 MB]: D:/data/31010_260125_051603.dat