passes_logs/2026/01/25/R2M6_AANII_01/R2M6_AANII_01__20260125_030841_SUOMI_NPP_rec.log

#Pass ID: 20260125_030841_SUOMI NPP
#Satellite: SUOMI NPP
#Configuration: NPP
#almurnet v.1.7.20240730
#Start time: 2026-01-25 03:08:41

#Version: 2.2.20231116
#Station: R2M6_AANII_01
#Location: 30.233357 lon 59.946436 lat
#TLE: 1 37849U 11061A   26024.54906732  .00000185  00000+0  10878-3 0  9990
#TLE: 2 37849  98.7821 326.5159 0002200  47.3746 312.7615 14.19529340738061

#Time	Az	El	Level	Level2	SNR	BER	BlckErr	Temp	State	Recorded	gain1	gain2
2026-01-25 03:08:41.28	8.10	7.01	-32.6	-42.2	3.8	1.49e+00	0	41	0	0	25	10876
2026-01-25 03:08:43.29	7.86	7.11	-32.2	-39.2	5.3	5.89e-01	0	41	0	0	24	8056
2026-01-25 03:08:45.30	7.62	7.22	-32.2	-39.1	5.3	5.40e-01	0	41	0	3145728	24	7985
2026-01-25 03:08:47.32	7.37	7.32	-32.2	-39.2	5.4	5.09e-01	0	41	0	7340032	24	7991
2026-01-25 03:08:49.32	7.12	7.43	-32.3	-39.7	5.1	6.50e-01	0	42	0	10485760	24	8397
2026-01-25 03:08:51.33	6.88	7.53	-32.0	-37.6	6.4	3.01e-01	0	42	0	14680064	24	6887
2026-01-25 03:08:53.34	6.63	7.63	-31.6	-36.1	7.9	1.01e-01	0	42	0	18874368	23	6015
2026-01-25 03:08:55.33	6.38	7.73	-31.2	-35.0	9.2	2.85e-02	0	42	0	22020096	22	5548
2026-01-25 03:08:57.35	6.12	7.84	-31.0	-34.0	9.9	1.22e-02	0	42	102	25165824	22	5126
2026-01-25 03:08:59.35	5.87	7.94	-30.9	-34.5	10.0	1.02e-02	0	42	102	25165824	21	5412
2026-01-25 03:09:01.36	5.61	8.04	-31.2	-34.7	9.5	1.85e-02	0	42	102	25165824	22	5434
2026-01-25 03:09:03.38	5.35	8.15	-30.9	-33.9	10.1	7.51e-03	0	42	102	25165824	22	5070
2026-01-25 03:09:05.38	5.09	8.25	-30.9	-34.2	10.2	7.74e-03	0	42	102	25165824	21	5302
2026-01-25 03:09:07.37	4.83	8.35	-31.1	-34.6	9.6	1.07e-02	0	42	102	25165824	22	5372
2026-01-25 03:09:09.37	4.56	8.45	-31.1	-34.6	9.5	1.44e-02	0	42	102	25165824	22	5377
2026-01-25 03:09:11.36	4.30	8.55	-31.0	-34.5	10.0	7.12e-03	0	42	102	25165824	21	5406
2026-01-25 03:09:13.37	4.03	8.65	-30.8	-34.1	10.3	8.01e-03	0	42	102	25165824	21	5217
2026-01-25 03:09:15.38	3.76	8.76	-30.8	-34.1	10.4	5.23e-03	0	42	102	25165824	21	5238
2026-01-25 03:09:17.39	3.49	8.86	-30.9	-34.2	10.3	8.88e-03	0	42	102	25165824	21	5272
2026-01-25 03:09:19.39	3.21	8.96	-30.9	-34.2	10.3	5.68e-03	0	42	102	25165824	21	5287
2026-01-25 03:09:21.39	2.94	9.06	-31.0	-34.0	10.1	5.47e-03	0	42	102	25165824	22	5103
2026-01-25 03:09:23.40	2.66	9.16	-30.7	-33.6	10.7	5.76e-03	0	42	102	25165824	21	5038
2026-01-25 03:09:25.40	2.38	9.26	-30.6	-33.3	10.9	2.65e-03	0	42	102	25165824	21	4917
2026-01-25 03:09:27.41	2.10	9.36	-30.8	-34.0	10.5	3.39e-03	0	43	102	25165824	21	5202
2026-01-25 03:09:29.42	1.81	9.46	-31.1	-34.5	9.8	8.61e-03	0	42	102	25165824	22	5318
2026-01-25 03:09:31.42	1.53	9.56	-31.2	-34.7	9.6	1.68e-02	0	43	102	25165824	22	5403
2026-01-25 03:09:33.43	1.24	9.66	-31.3	-35.1	9.3	1.68e-02	0	43	102	25165824	22	5596
2026-01-25 03:09:35.43	0.95	9.76	-31.3	-35.0	9.4	1.58e-02	0	43	102	25165824	22	5534
2026-01-25 03:09:37.45	0.66	9.86	-31.3	-35.1	9.4	1.70e-02	0	43	102	25165824	22	5558
2026-01-25 03:09:39.46	0.36	9.95	-31.3	-35.2	9.3	1.74e-02	0	43	102	25165824	22	5614
2026-01-25 03:09:41.47	0.06	10.05	-31.1	-34.2	9.9	1.44e-02	0	43	102	25165824	22	5187
2026-01-25 03:09:43.47	359.77	10.15	-30.8	-33.7	10.7	3.54e-03	0	43	102	25165824	21	5061
2026-01-25 03:09:45.48	359.47	10.25	-30.7	-33.6	10.8	2.55e-03	0	43	102	25165824	21	5012
2026-01-25 03:09:47.48	359.16	10.34	-30.7	-33.5	10.9	1.84e-03	0	43	102	25165824	21	4980
2026-01-25 03:09:49.49	358.86	10.44	-30.5	-33.0	11.2	1.44e-03	0	43	102	25165824	21	4791
2026-01-25 03:09:51.50	358.55	10.54	-30.4	-32.5	11.6	1.04e-03	0	43	102	25165824	21	4608
2026-01-25 03:09:53.50	358.25	10.63	-30.4	-33.0	11.6	7.12e-04	0	43	102	25165824	20	4863
2026-01-25 03:09:55.51	357.93	10.73	-30.2	-32.6	11.4	4.29e-04	0	43	102	25165824	20	4713
2026-01-25 03:09:57.51	357.62	10.82	-30.4	-33.0	11.2	6.09e-04	0	43	102	25165824	20	4877
2026-01-25 03:09:59.51	357.31	10.91	-30.2	-32.5	12.0	3.55e-04	0	43	102	25165824	20	4675
2026-01-25 03:10:01.52	356.99	11.01	-30.1	-32.2	12.2	3.87e-04	0	43	102	25165824	20	4596
2026-01-25 03:10:03.53	356.67	11.10	-30.0	-32.2	12.6	1.31e-04	0	43	102	25165824	19	4678
2026-01-25 03:10:05.54	356.35	11.19	-30.2	-32.5	12.0	3.74e-04	0	43	102	25165824	20	4701
2026-01-25 03:10:07.56	356.03	11.29	-30.3	-32.9	11.7	4.85e-04	0	43	102	25165824	20	4817
2026-01-25 03:10:09.60	355.70	11.38	-30.4	-33.1	11.6	2.30e-03	0	43	102	25165824	20	4895
2026-01-25 03:10:11.62	355.37	11.47	-30.3	-32.6	11.9	5.05e-04	0	43	102	25165824	20	4727
2026-01-25 03:10:13.62	355.04	11.56	-30.5	-33.3	11.5	6.29e-04	0	43	102	25165824	20	4995
2026-01-25 03:10:15.64	354.70	11.65	-30.3	-32.7	11.9	1.77e-03	0	43	102	25165824	20	4769
2026-01-25 03:10:17.65	354.37	11.74	-30.3	-32.7	11.9	5.38e-04	0	43	102	25165824	20	4757
2026-01-25 03:10:19.66	354.03	11.83	-30.0	-32.0	12.4	1.17e-03	0	43	102	25165824	20	4506
2026-01-25 03:10:21.67	353.70	11.92	-30.0	-32.0	12.4	8.70e-04	0	43	102	25165824	20	4506
2026-01-25 03:10:23.68	353.36	12.01	-30.2	-32.5	12.1	2.33e-04	0	43	102	25165824	20	4675
2026-01-25 03:10:25.68	353.02	12.09	-30.3	-32.9	11.7	8.30e-04	0	43	102	25165824	20	4839
2026-01-25 03:10:27.68	352.67	12.18	-30.1	-32.1	12.3	2.33e-04	0	43	102	25165824	20	4557
2026-01-25 03:10:29.69	352.33	12.26	-29.9	-31.5	12.8	9.99e-05	0	43	102	25165824	20	4340
2026-01-25 03:10:31.70	351.98	12.35	-29.8	-31.4	12.8	7.62e-05	0	43	102	25165824	20	4309
2026-01-25 03:10:33.72	351.63	12.43	-29.8	-31.8	12.9	3.50e-05	0	43	102	25165824	19	4520
2026-01-25 03:10:35.73	351.27	12.52	-29.5	-30.9	13.5	5.30e-06	0	43	102	25165824	19	4237
2026-01-25 03:10:37.74	350.92	12.60	-29.4	-30.6	13.8	1.50e-06	0	43	102	25165824	19	4137
2026-01-25 03:10:39.76	350.56	12.68	-29.4	-31.1	13.8	7.64e-04	0	43	102	25165824	18	4391
2026-01-25 03:10:41.77	350.20	12.76	-29.7	-31.5	13.2	2.28e-05	0	43	102	25165824	19	4425
2026-01-25 03:10:43.79	349.84	12.84	-30.0	-31.7	12.7	8.31e-05	0	43	102	25165824	20	4395
2026-01-25 03:10:45.81	349.48	12.92	-29.9	-31.5	12.8	6.71e-05	0	43	102	25165824	20	4320
2026-01-25 03:10:47.84	349.11	13.00	-30.1	-32.1	12.3	1.14e-04	0	43	102	25165824	20	4517
2026-01-25 03:10:49.85	348.74	13.07	-30.1	-32.2	12.3	1.40e-04	0	43	102	25165824	20	4566
2026-01-25 03:10:51.85	348.38	13.15	-30.2	-32.4	12.0	1.75e-04	0	43	102	25165824	20	4628
2026-01-25 03:10:53.85	348.01	13.23	-30.2	-32.3	12.0	1.88e-04	0	43	102	25165824	20	4605
2026-01-25 03:10:55.86	347.64	13.30	-30.2	-32.3	12.3	2.11e-04	0	43	102	25165824	20	4597
2026-01-25 03:10:57.87	347.26	13.37	-30.3	-32.7	12.0	2.29e-04	0	43	102	25165824	20	4742
2026-01-25 03:10:59.88	346.89	13.44	-30.2	-32.5	12.1	2.62e-04	0	43	102	25165824	20	4667
2026-01-25 03:11:01.89	346.51	13.52	-29.8	-31.4	12.9	3.81e-05	0	43	102	25165824	20	4292
2026-01-25 03:11:03.90	346.13	13.59	-29.7	-31.3	13.3	1.30e-03	0	43	102	25165824	19	4359
2026-01-25 03:11:05.92	345.75	13.66	-29.8	-31.6	13.2	1.83e-05	0	44	102	25165824	19	4436
2026-01-25 03:11:07.92	345.36	13.72	-29.9	-32.0	12.9	3.43e-05	0	43	102	25165824	19	4589
2026-01-25 03:11:09.93	344.98	13.79	-29.8	-31.7	13.1	5.11e-05	0	44	102	25165824	19	4457
2026-01-25 03:11:11.94	344.59	13.86	-29.5	-31.0	13.6	9.90e-06	0	43	102	25165824	19	4245
2026-01-25 03:11:13.94	344.21	13.92	-29.7	-31.4	13.4	1.44e-05	0	43	102	25165824	19	4368
2026-01-25 03:11:15.96	343.81	13.98	-29.9	-32.0	12.9	3.81e-05	0	44	102	25165824	19	4584
2026-01-25 03:11:17.98	343.42	14.05	-30.1	-32.2	12.4	1.79e-03	0	44	102	25165824	20	4557
2026-01-25 03:11:19.99	343.03	14.11	-30.0	-31.8	12.6	1.07e-04	0	44	102	25165824	20	4414
2026-01-25 03:11:22.00	342.63	14.17	-29.8	-31.8	13.0	2.18e-03	0	44	102	25165824	19	4515
2026-01-25 03:11:24.01	342.23	14.23	-29.6	-31.2	13.5	2.34e-03	0	44	102	25165824	19	4311
2026-01-25 03:11:26.03	341.83	14.29	-29.6	-31.0	13.6	4.50e-06	0	43	102	25165824	19	4238
2026-01-25 03:11:28.04	341.43	14.34	-29.6	-31.1	13.5	2.02e-03	0	44	102	25165824	19	4253
2026-01-25 03:11:30.06	341.03	14.40	-29.0	-30.1	14.5	1.50e-06	0	44	102	25165824	18	4056
2026-01-25 03:11:32.08	340.63	14.45	-29.2	-30.5	14.3	7.00e-07	0	43	102	25165824	18	4184
2026-01-25 03:11:34.08	340.22	14.50	-29.5	-30.7	13.8	2.16e-03	0	43	102	25165824	19	4156
2026-01-25 03:11:36.09	339.82	14.55	-29.5	-30.8	13.8	2.21e-03	0	43	102	25165824	19	4165
2026-01-25 03:11:38.10	339.41	14.60	-29.1	-29.8	14.4	0.00e+00	0	44	102	25165824	19	3891
2026-01-25 03:11:40.12	339.00	14.65	-29.1	-30.3	14.4	7.00e-07	0	44	102	25165824	18	4120
2026-01-25 03:11:42.12	338.59	14.70	-29.5	-31.2	13.8	2.21e-03	0	44	102	25165824	18	4407
2026-01-25 03:11:44.13	338.18	14.74	-29.9	-31.8	13.1	2.97e-05	0	44	102	25165824	19	4493
2026-01-25 03:11:46.14	337.77	14.79	-30.0	-32.1	12.9	2.06e-03	0	44	102	25165824	19	4605
2026-01-25 03:11:48.15	337.35	14.83	-29.9	-31.4	13.0	4.65e-05	0	44	102	25165824	20	4284
2026-01-25 03:11:50.17	336.94	14.87	-29.8	-31.3	13.1	3.89e-05	0	44	102	25165824	20	4252
2026-01-25 03:11:52.18	336.52	14.91	-30.0	-32.1	12.9	3.66e-05	0	44	102	25165824	19	4612
2026-01-25 03:11:54.18	336.11	14.95	-30.1	-32.1	12.5	1.35e-04	0	44	102	25165824	20	4518
2026-01-25 03:11:56.20	335.69	14.99	-30.2	-32.2	12.5	9.76e-05	0	44	102	25165824	20	4532
2026-01-25 03:11:58.21	335.27	15.02	-29.8	-31.1	13.2	4.73e-05	0	44	102	25165824	20	4187
2026-01-25 03:12:00.23	334.84	15.06	-29.8	-31.6	13.2	2.21e-05	0	44	102	25165824	19	4430
2026-01-25 03:12:02.24	334.42	15.09	-29.6	-31.2	13.5	8.30e-06	0	44	102	25165824	19	4313
2026-01-25 03:12:04.25	334.00	15.12	-29.4	-30.5	13.9	4.50e-06	0	44	102	25165824	19	4112
2026-01-25 03:12:06.26	333.58	15.15	-29.4	-31.1	13.8	2.20e-06	0	44	102	25165824	18	4379
2026-01-25 03:12:08.27	333.15	15.18	-29.3	-30.7	14.1	7.00e-07	0	44	102	25165824	18	4265
2026-01-25 03:12:10.28	332.73	15.21	-29.5	-31.2	13.7	4.50e-06	0	44	102	25165824	18	4420
2026-01-25 03:12:12.29	332.30	15.23	-29.7	-31.5	13.3	1.60e-05	0	44	102	25165824	19	4397
2026-01-25 03:12:14.30	331.88	15.25	-29.8	-31.6	13.2	1.83e-05	0	44	102	25165824	19	4458
2026-01-25 03:12:16.30	331.45	15.28	-29.7	-31.3	13.4	2.36e-05	0	44	102	25165824	19	4338
2026-01-25 03:12:18.30	331.03	15.30	-29.8	-31.5	13.2	1.44e-05	0	44	102	25165824	19	4423
2026-01-25 03:12:20.31	330.60	15.31	-29.7	-31.3	13.3	2.30e-03	0	44	102	25165824	19	4356
2026-01-25 03:12:22.31	330.17	15.33	-29.9	-31.6	12.8	6.17e-05	0	44	102	25165824	20	4372
2026-01-25 03:12:24.32	329.74	15.35	-30.2	-32.5	12.2	2.64e-03	0	44	102	25165824	20	4674
2026-01-25 03:12:26.32	329.31	15.36	-30.3	-32.6	12.1	2.64e-04	0	44	102	25165824	20	4712
2026-01-25 03:12:28.33	328.89	15.37	-30.1	-32.2	12.3	1.87e-04	0	44	102	25165824	20	4578
2026-01-25 03:12:30.33	328.46	15.38	-30.1	-32.1	12.4	2.29e-03	0	44	102	25165824	20	4524
2026-01-25 03:12:32.34	328.03	15.39	-29.9	-31.8	13.0	7.40e-05	0	44	102	25165824	19	4519
2026-01-25 03:12:34.36	327.59	15.40	-30.1	-32.1	12.5	1.04e-04	0	44	102	25165824	20	4524
2026-01-25 03:12:36.38	327.16	15.40	-30.2	-32.2	12.3	1.98e-04	0	44	102	25165824	20	4566
2026-01-25 03:12:38.39	326.73	15.41	-29.9	-31.9	12.9	2.29e-03	0	44	102	25165824	19	4546
2026-01-25 03:12:40.40	326.30	15.41	-29.9	-32.1	12.9	3.35e-05	0	44	102	25165824	19	4592
2026-01-25 03:12:42.42	325.86	15.41	-30.0	-32.1	12.9	2.42e-03	0	44	102	25165824	19	4605
2026-01-25 03:12:44.42	325.44	15.41	-30.2	-32.3	12.3	2.56e-03	0	44	102	25165824	20	4606
2026-01-25 03:12:46.43	325.00	15.41	-29.9	-31.4	12.9	1.34e-04	0	44	102	25165824	20	4292
2026-01-25 03:12:48.43	324.58	15.40	-29.7	-31.4	13.3	1.90e-03	0	44	102	25165824	19	4390
2026-01-25 03:12:50.46	324.14	15.40	-29.6	-31.2	13.4	2.09e-03	0	44	102	25165824	19	4314
2026-01-25 03:12:52.47	323.71	15.39	-29.5	-31.0	13.6	1.67e-05	0	44	102	25165824	19	4233
2026-01-25 03:12:54.48	323.28	15.38	-29.5	-31.0	13.6	2.37e-03	0	44	102	25165824	19	4248
2026-01-25 03:12:56.50	322.85	15.37	-29.6	-31.2	13.4	2.48e-03	0	44	102	25165824	19	4318
2026-01-25 03:12:58.51	322.42	15.36	-29.7	-31.5	13.2	2.51e-05	0	44	102	25165824	19	4418
2026-01-25 03:13:00.51	321.99	15.34	-29.8	-31.8	13.1	2.36e-05	0	44	102	25165824	19	4515
2026-01-25 03:13:02.52	321.56	15.33	-30.1	-32.0	12.5	1.95e-03	0	44	102	25165824	20	4492
2026-01-25 03:13:04.52	321.13	15.31	-30.2	-32.4	12.2	2.04e-04	0	44	102	25165824	20	4636
2026-01-25 03:13:06.53	320.71	15.29	-30.3	-32.8	11.9	2.57e-03	0	44	102	25165824	20	4783
2026-01-25 03:13:08.53	320.28	15.27	-30.0	-32.0	12.4	1.29e-04	0	44	102	25165824	20	4514
2026-01-25 03:13:10.54	319.85	15.25	-29.8	-31.3	12.9	5.18e-05	0	44	102	25165824	20	4264
2026-01-25 03:13:12.55	319.43	15.23	-29.7	-31.4	13.3	2.27e-03	0	44	102	25165824	19	4371
2026-01-25 03:13:14.57	319.00	15.20	-29.7	-31.5	13.2	2.36e-05	0	44	102	25165824	19	4401
2026-01-25 03:13:16.58	318.57	15.17	-29.8	-31.7	13.0	3.43e-05	0	44	102	25165824	19	4489
2026-01-25 03:13:18.59	318.15	15.15	-30.0	-31.7	12.6	8.92e-05	0	44	102	25165824	20	4411
2026-01-25 03:13:20.59	317.73	15.12	-30.2	-32.2	12.4	1.35e-04	0	44	102	25165824	20	4575
2026-01-25 03:13:22.60	317.31	15.09	-30.2	-32.2	12.3	1.49e-04	0	44	102	25165824	20	4580
2026-01-25 03:13:24.61	316.88	15.05	-29.7	-30.9	13.2	2.36e-05	0	44	102	25165824	20	4145
2026-01-25 03:13:26.63	316.46	15.02	-29.4	-30.6	13.8	6.10e-06	0	44	102	25165824	19	4144
2026-01-25 03:13:28.63	316.04	14.98	-29.4	-31.1	13.8	7.00e-07	0	44	102	25165824	18	4366
2026-01-25 03:13:30.64	315.63	14.95	-29.6	-31.2	13.4	5.30e-06	0	44	102	25165824	19	4307
2026-01-25 03:13:32.65	315.21	14.91	-29.7	-31.4	13.3	1.06e-05	0	44	102	25165824	19	4363
2026-01-25 03:13:34.65	314.79	14.87	-29.6	-31.2	13.4	1.14e-05	0	44	102	25165824	19	4317
2026-01-25 03:13:36.65	314.38	14.83	-29.9	-31.8	13.0	2.05e-05	0	44	102	25165824	19	4525
2026-01-25 03:13:38.66	313.97	14.78	-29.8	-31.6	12.4	3.20e-05	0	44	102	25165824	19	4444
2026-01-25 03:13:40.67	313.55	14.74	-29.8	-31.8	12.8	2.13e-05	0	44	102	25165824	19	4492
2026-01-25 03:13:42.69	313.14	14.69	-29.9	-31.6	12.7	2.67e-05	0	44	102	25165824	20	4363
2026-01-25 03:13:44.69	312.73	14.64	-30.3	-32.6	12.0	1.99e-04	0	44	102	25165824	20	4712
2026-01-25 03:13:46.69	312.32	14.60	-29.9	-31.5	12.7	1.57e-04	0	44	102	25165824	20	4345
2026-01-25 03:13:48.70	311.92	14.55	-29.8	-31.8	13.0	3.73e-05	0	44	102	25165824	19	4520
2026-01-25 03:13:50.71	311.51	14.50	-29.5	-30.8	13.7	1.14e-05	0	44	102	25165824	19	4183
2026-01-25 03:13:52.71	311.11	14.44	-29.4	-31.1	13.8	4.50e-06	0	44	102	25165824	18	4360
2026-01-25 03:13:54.71	310.71	14.39	-29.7	-31.5	13.2	7.40e-05	0	44	102	25165824	19	4391
2026-01-25 03:13:56.72	310.30	14.33	-29.1	-30.3	14.2	1.50e-06	0	44	102	25165824	18	4144
2026-01-25 03:13:58.73	309.90	14.28	-28.9	-30.3	14.4	1.06e-03	0	44	102	25165824	17	4238
2026-01-25 03:14:00.75	309.50	14.22	-29.3	-31.0	13.8	1.50e-06	0	44	102	25165824	18	4337
2026-01-25 03:14:02.75	309.11	14.16	-29.5	-30.9	13.5	1.59e-03	0	44	102	25165824	19	4235
2026-01-25 03:14:04.75	308.71	14.10	-29.6	-31.2	13.4	1.47e-03	0	44	102	25165824	19	4314
2026-01-25 03:14:06.77	308.32	14.04	-29.6	-31.3	13.3	9.90e-06	0	44	102	25165824	19	4348
2026-01-25 03:14:08.78	307.93	13.98	-29.7	-31.5	13.1	1.37e-03	0	44	102	25165824	19	4411
2026-01-25 03:14:10.78	307.54	13.91	-29.7	-31.5	13.0	3.81e-05	0	44	102	25165824	19	4442
2026-01-25 03:14:12.80	307.15	13.85	-29.8	-31.8	12.8	4.11e-05	0	44	102	25165824	19	4516
2026-01-25 03:14:14.80	306.76	13.78	-29.8	-31.8	12.9	1.81e-03	0	44	102	25165824	19	4520
2026-01-25 03:14:16.80	306.38	13.72	-30.0	-31.8	12.5	1.75e-03	0	44	102	25165824	20	4457
2026-01-25 03:14:18.81	305.99	13.65	-29.7	-31.4	13.1	3.05e-05	0	44	102	25165824	19	4391
2026-01-25 03:14:20.83	305.61	13.58	-29.7	-31.5	13.1	2.16e-03	0	44	102	25165824	19	4424
2026-01-25 03:14:22.84	305.23	13.51	-29.7	-31.6	12.9	2.40e-03	0	44	102	25165824	19	4467
2026-01-25 03:14:24.84	304.85	13.44	-29.8	-31.7	12.9	4.27e-05	0	44	102	25165824	19	4499
2026-01-25 03:14:26.85	304.48	13.36	-29.6	-31.4	13.1	1.98e-03	0	44	102	25165824	19	4391
2026-01-25 03:14:28.85	304.10	13.29	-29.6	-31.3	13.2	3.35e-05	0	44	102	25165824	19	4366
2026-01-25 03:14:30.86	303.73	13.22	-29.6	-31.2	13.2	2.05e-05	0	44	102	25165824	19	4341
2026-01-25 03:14:32.88	303.36	13.14	-29.9	-32.1	12.6	1.09e-03	0	44	102	25165824	19	4631
2026-01-25 03:14:34.90	302.99	13.06	-29.7	-31.5	13.0	2.36e-05	0	44	102	25165824	19	4430
2026-01-25 03:14:36.91	302.62	12.99	-29.8	-31.8	12.7	5.64e-05	0	44	102	25165824	19	4531
2026-01-25 03:14:38.92	302.26	12.91	-29.8	-31.7	12.8	5.18e-05	0	44	102	25165824	19	4491
2026-01-25 03:14:40.94	301.89	12.83	-29.8	-32.0	12.6	6.48e-05	0	44	102	25165824	19	4605
2026-01-25 03:14:42.93	301.53	12.75	-30.1	-32.2	12.1	2.49e-04	0	44	102	25165824	20	4592
2026-01-25 03:14:44.94	301.17	12.67	-30.2	-32.5	11.8	4.27e-04	0	44	102	25165824	20	4711
2026-01-25 03:14:46.94	300.82	12.59	-30.0	-32.1	12.1	3.40e-04	0	44	102	25165824	20	4557
2026-01-25 03:14:48.96	300.46	12.50	-30.2	-32.4	11.9	3.73e-04	0	44	102	25165824	20	4672
2026-01-25 03:14:50.97	300.11	12.42	-30.1	-32.2	12.1	1.85e-04	0	44	102	25165824	20	4610
2026-01-25 03:14:52.97	299.76	12.34	-30.2	-32.7	11.6	4.61e-04	0	44	102	25165824	20	4779
2026-01-25 03:14:54.98	299.41	12.25	-30.2	-32.5	11.8	5.03e-04	0	44	102	25165824	20	4698
2026-01-25 03:14:57.00	299.06	12.17	-30.3	-33.0	11.5	6.19e-04	0	44	102	25165824	20	4880
2026-01-25 03:14:59.01	298.72	12.08	-30.1	-32.5	11.8	6.06e-04	0	44	102	25165824	20	4702
2026-01-25 03:15:01.01	298.37	11.99	-29.9	-31.9	12.3	3.06e-04	0	44	102	25165824	20	4494
2026-01-25 03:15:03.02	298.03	11.91	-30.2	-32.8	11.6	4.97e-04	0	44	102	25165824	20	4825
2026-01-25 03:15:05.03	297.69	11.82	-30.5	-32.8	11.3	1.10e-03	0	44	102	25165824	21	4690
2026-01-25 03:15:07.05	297.36	11.73	-30.1	-32.2	12.1	3.52e-04	0	44	102	25165824	20	4565
2026-01-25 03:15:09.05	297.02	11.64	-29.9	-31.9	12.6	8.16e-05	0	44	102	25165824	19	4544
2026-01-25 03:15:11.06	296.69	11.55	-29.5	-30.8	13.5	1.06e-05	0	44	102	25165824	19	4199
2026-01-25 03:15:13.07	296.36	11.46	-29.5	-31.0	13.3	1.90e-05	0	44	102	25165824	19	4260
2026-01-25 03:15:15.08	296.03	11.37	-29.9	-32.0	12.6	1.04e-04	0	44	102	25165824	19	4592
2026-01-25 03:15:17.08	295.71	11.28	-30.3	-32.7	11.7	3.90e-04	0	44	102	25165824	20	4768
2026-01-25 03:15:19.09	295.38	11.18	-30.6	-33.2	11.1	1.70e-03	0	44	102	25165824	21	4846
2026-01-25 03:15:21.10	295.06	11.09	-30.5	-33.0	11.1	1.69e-03	0	44	102	25165824	21	4795
2026-01-25 03:15:23.12	294.74	11.00	-30.5	-33.0	11.0	1.89e-03	0	44	102	25165824	21	4798
2026-01-25 03:15:25.13	294.42	10.90	-30.6	-33.3	10.9	2.14e-03	0	44	102	25165824	21	4929
2026-01-25 03:15:27.14	294.10	10.81	-30.4	-32.6	11.3	1.31e-03	0	44	102	25165824	21	4634
2026-01-25 03:15:29.14	293.79	10.71	-30.7	-33.6	10.5	4.73e-03	0	44	102	25165824	21	5047
2026-01-25 03:15:31.14	293.48	10.62	-31.2	-34.9	9.2	1.20e-02	0	44	102	25165824	22	5532
2026-01-25 03:15:33.15	293.17	10.52	-31.5	-35.7	8.1	6.34e-02	0	44	102	25165824	23	5813
2026-01-25 03:15:35.16	292.86	10.43	-31.7	-36.6	7.5	1.15e-01	0	44	102	25165824	23	6337
2026-01-25 03:15:37.17	292.56	10.33	-31.4	-35.4	8.5	4.65e-02	0	44	102	25165824	23	5669
2026-01-25 03:15:39.19	292.25	10.23	-31.3	-34.8	8.9	3.95e-02	0	44	102	25165824	23	5398
2026-01-25 03:15:41.20	291.95	10.14	-31.4	-35.8	8.5	3.27e-02	0	44	102	25165824	22	6000
2026-01-25 03:15:43.21	291.65	10.04	-31.1	-34.6	9.4	1.83e-02	0	44	102	25165824	22	5397
2026-01-25 03:15:45.21	291.35	9.94	-31.0	-34.4	9.6	1.33e-02	0	44	102	25165824	22	5302
2026-01-25 03:15:47.22	291.06	9.84	-31.0	-34.4	9.5	1.33e-02	0	44	102	25165824	22	5328
2026-01-25 03:15:49.23	290.76	9.74	-30.8	-33.7	10.0	9.67e-03	0	44	102	25165824	22	5001
2026-01-25 03:15:51.24	290.47	9.64	-30.8	-34.0	10.1	6.34e-03	0	44	102	25165824	21	5225
2026-01-25 03:15:53.25	290.18	9.54	-30.8	-34.1	10.0	1.05e-02	0	44	102	25165824	21	5276
2026-01-25 03:15:55.28	289.89	9.44	-30.9	-34.6	9.6	1.04e-02	0	44	102	25165824	21	5507
2026-01-25 03:15:57.29	289.61	9.34	-30.7	-33.9	10.1	7.63e-03	0	44	102	25165824	21	5209
2026-01-25 03:15:59.29	289.32	9.24	-30.3	-32.7	11.0	2.13e-03	0	44	102	25165824	21	4713
2026-01-25 03:16:01.31	289.04	9.14	-30.2	-32.8	11.3	1.86e-03	0	44	102	25165824	20	4831
2026-01-25 03:16:03.31	288.76	9.04	-30.2	-32.7	11.3	1.46e-03	0	44	102	25165824	20	4836
2026-01-25 03:16:05.32	288.49	8.94	-30.2	-33.0	11.0	1.86e-03	0	44	102	25165824	20	4974
2026-01-25 03:16:07.33	288.21	8.84	-30.2	-32.8	11.1	1.73e-03	0	44	102	25165824	20	4862
2026-01-25 03:16:09.32	287.94	8.74	-30.1	-32.5	11.4	8.62e-04	0	44	102	25165824	20	4752
2026-01-25 03:16:11.33	287.67	8.64	-30.2	-32.8	11.1	2.84e-03	0	44	102	25165824	20	4877
2026-01-25 03:16:13.34	287.40	8.53	-30.2	-33.0	10.9	1.98e-03	0	44	102	25165824	20	4964
2026-01-25 03:16:15.35	287.13	8.43	-30.3	-33.2	10.8	2.63e-03	0	44	102	25165824	20	5037
2026-01-25 03:16:17.35	286.86	8.33	-30.4	-33.5	10.6	3.64e-03	0	44	102	25165824	20	5151
2026-01-25 03:16:19.37	286.60	8.23	-30.6	-33.9	9.8	8.81e-03	0	44	102	25165824	21	5241
2026-01-25 03:16:21.37	286.34	8.12	-30.4	-33.0	10.5	5.72e-03	0	44	102	25165824	21	4864
2026-01-25 03:16:23.38	286.08	8.02	-30.2	-32.5	10.9	2.56e-03	0	44	102	25165824	21	4664
2026-01-25 03:16:25.38	285.82	7.92	-30.2	-32.9	11.0	1.87e-03	0	44	102	25165824	20	4913
2026-01-25 03:16:27.39	285.56	7.82	-30.1	-32.7	11.0	1.81e-03	0	44	102	25165824	20	4868
2026-01-25 03:16:29.40	285.31	7.71	-29.9	-32.0	11.5	8.24e-04	0	44	102	25165824	20	4612
2026-01-25 03:16:31.41	285.05	7.61	-29.8	-32.2	11.1	8.12e-04	0	44	102	25165824	19	4770
2026-01-25 03:16:33.41	284.80	7.51	-29.7	-32.0	11.6	3.40e-04	0	44	102	25165824	19	4672
2026-01-25 03:16:35.43	284.55	7.40	-29.5	-31.2	12.5	1.79e-04	0	44	102	25165824	19	4417
2026-01-25 03:16:37.44	284.31	7.30	-29.6	-31.7	12.1	2.15e-04	0	44	102	25165824	19	4577
2026-01-25 03:16:39.46	284.06	7.19	-29.7	-32.0	11.9	2.92e-03	0	44	102	25165824	19	4672
2026-01-25 03:16:41.46	283.82	7.09	-30.0	-32.4	11.2	7.39e-04	0	44	102	25165824	20	4754
2026-01-25 03:16:43.47	283.57	6.99	-33.2	-45.6	3.8	1.49e+00	0	44	104	25165824	26	14989

#Closed at: 2026-01-25 03:16:45
#Recorded file [25 MB]: D:/data/31010_260125_060843.dat