passes_logs/2026/01/25/R2M6_AANII_01/R2M6_AANII_01__20260125_082227_NOAA_20_JPSS-1_rec.log

#Pass ID: 20260125_082227_NOAA 20 (JPSS-1)
#Satellite: NOAA 20 (JPSS-1)
#Configuration: NOAA 20
#almurnet v.1.7.20240730
#Start time: 2026-01-25 08:22:26

#Version: 2.2.20231116
#Station: R2M6_AANII_01
#Location: 30.233357 lon 59.946436 lat
#TLE: 1 43013U 17073A   26024.42258823  .00000183  00000+0  10747-3 0  9990
#TLE: 2 43013  98.7646 325.2629 0001105  25.8644 334.2587 14.19539754424075

#Time	Az	El	Level	Level2	SNR	BER	BlckErr	Temp	State	Recorded	gain1	gain2
2026-01-25 08:22:26.66	99.86	6.97	-31.3	-45.2	3.8	1.49e+00	0	41	0	0	23	17747
2026-01-25 08:22:29.68	99.58	7.16	-31.3	-45.0	3.8	1.49e+00	0	41	104	0	23	17606
2026-01-25 08:22:32.69	99.29	7.35	-31.0	-44.6	3.8	1.49e+00	0	41	104	0	23	17080
2026-01-25 08:22:35.69	99.01	7.55	-30.8	-44.1	3.8	1.49e+00	0	41	104	0	22	16760
2026-01-25 08:22:38.71	98.71	7.74	-30.6	-42.0	4.0	1.49e+00	0	41	104	0	22	13235
2026-01-25 08:22:41.71	98.42	7.93	-30.7	-42.9	3.8	1.49e+00	0	41	104	0	22	14685
2026-01-25 08:22:44.73	98.12	8.13	-30.8	-43.8	3.8	1.49e+00	0	41	104	0	22	16167
2026-01-25 08:22:47.75	97.81	8.33	-30.8	-44.6	3.8	1.49e+00	0	42	104	0	22	17448
2026-01-25 08:22:50.76	97.51	8.52	-30.8	-44.6	3.8	1.49e+00	0	41	104	0	22	17659
2026-01-25 08:22:53.76	97.20	8.72	-30.7	-44.5	3.8	1.49e+00	0	42	104	0	22	17518
2026-01-25 08:22:56.77	96.88	8.92	-30.7	-44.5	3.8	1.49e+00	0	42	104	0	22	17543
2026-01-25 08:22:59.79	96.56	9.12	-30.7	-44.4	3.8	1.49e+00	0	42	104	0	22	17499
2026-01-25 08:23:02.78	96.23	9.32	-30.6	-44.1	3.8	1.49e+00	0	42	104	0	22	17044
2026-01-25 08:23:05.80	95.90	9.52	-30.6	-44.0	3.8	1.49e+00	0	42	104	0	22	16763
2026-01-25 08:23:08.81	95.57	9.72	-30.8	-44.0	3.8	1.49e+00	0	42	104	0	22	16582
2026-01-25 08:23:11.82	95.23	9.92	-31.1	-42.8	4.0	1.49e+00	0	42	104	0	22	13811
2026-01-25 08:23:14.84	94.88	10.13	-31.0	-38.0	6.8	2.69e-01	0	42	0	0	22	8024
2026-01-25 08:23:17.86	94.53	10.33	-31.1	-37.1	8.4	4.27e-02	0	42	102	1048576	22	7112
2026-01-25 08:23:20.86	94.18	10.53	-31.6	-38.4	7.2	1.69e-01	0	42	102	1048576	23	7844
2026-01-25 08:23:23.87	93.82	10.74	-31.6	-37.9	7.8	8.14e-02	0	42	102	1048576	23	7458
2026-01-25 08:23:26.88	93.46	10.94	-31.2	-36.0	9.4	1.92e-02	0	43	102	1048576	23	6281
2026-01-25 08:23:29.89	93.09	11.15	-30.9	-34.6	10.6	3.45e-03	0	42	102	1048576	23	5557
2026-01-25 08:23:32.91	92.71	11.36	-30.7	-34.7	10.9	3.03e-03	0	43	102	1048576	22	5687
2026-01-25 08:23:35.92	92.33	11.56	-30.6	-34.3	11.3	1.17e-03	0	43	102	1048576	22	5483
2026-01-25 08:23:38.93	91.94	11.77	-30.6	-34.3	11.3	1.08e-03	0	43	102	1048576	22	5481
2026-01-25 08:23:41.94	91.55	11.98	-30.3	-33.2	12.1	2.85e-04	0	43	102	1048576	22	5036
2026-01-25 08:23:44.94	91.16	12.18	-30.4	-33.3	12.2	2.44e-04	0	43	102	1048576	22	5062
2026-01-25 08:23:47.95	90.75	12.39	-30.3	-33.2	12.3	1.98e-04	0	43	102	1048576	22	5002
2026-01-25 08:23:50.97	90.34	12.60	-30.3	-33.2	12.3	2.21e-04	0	43	102	1048576	22	5015
2026-01-25 08:23:53.97	89.93	12.81	-30.3	-33.2	12.3	1.60e-04	0	43	102	1048576	22	4998
2026-01-25 08:23:56.98	89.51	13.02	-30.5	-33.5	12.1	3.50e-04	0	43	102	1048576	22	5124
2026-01-25 08:24:00.00	89.08	13.23	-30.4	-33.4	12.2	2.08e-04	0	43	102	1048576	22	5077
2026-01-25 08:24:03.00	88.65	13.44	-30.5	-33.7	12.1	3.19e-04	0	43	102	1048576	22	5185
2026-01-25 08:24:06.02	88.21	13.65	-30.5	-33.4	12.3	1.98e-04	0	43	102	1048576	22	5073
2026-01-25 08:24:09.03	87.76	13.86	-30.5	-33.7	12.2	2.82e-04	0	43	102	1048576	22	5164
2026-01-25 08:24:12.05	87.31	14.07	-30.6	-33.9	12.0	2.92e-04	0	43	102	1048576	22	5252
2026-01-25 08:24:15.06	86.85	14.28	-30.8	-34.4	11.7	5.52e-04	0	43	102	1048576	22	5447
2026-01-25 08:24:18.06	86.39	14.49	-30.7	-34.3	11.8	4.40e-04	0	43	102	1048576	22	5389
2026-01-25 08:24:21.08	85.91	14.70	-30.8	-34.4	11.7	5.23e-04	0	43	102	1048576	22	5461
2026-01-25 08:24:24.10	85.43	14.91	-30.8	-34.5	11.7	7.57e-04	0	43	102	1048576	22	5505
2026-01-25 08:24:27.10	84.95	15.12	-31.1	-35.2	11.2	8.38e-04	0	43	102	1048576	22	5783
2026-01-25 08:24:30.11	84.46	15.33	-31.1	-35.4	11.1	2.21e-03	0	43	102	1048576	22	5895
2026-01-25 08:24:33.13	83.96	15.54	-31.1	-35.4	11.1	1.39e-03	0	43	102	1048576	22	5894
2026-01-25 08:24:36.13	83.45	15.75	-31.3	-36.0	10.7	3.02e-03	0	43	102	1048576	22	6196
2026-01-25 08:24:39.15	82.94	15.96	-31.1	-35.4	11.1	1.86e-03	0	43	102	1048576	22	5909
2026-01-25 08:24:42.16	82.42	16.16	-31.1	-35.4	11.1	1.39e-03	0	43	102	1048576	22	5889
2026-01-25 08:24:45.17	81.89	16.37	-30.9	-34.7	11.7	6.60e-04	0	43	102	1048576	22	5541
2026-01-25 08:24:48.17	81.35	16.58	-31.0	-35.1	11.5	7.85e-04	0	43	102	1048576	22	5721
2026-01-25 08:24:51.18	80.81	16.78	-31.0	-35.0	11.5	9.89e-04	0	43	102	1048576	22	5696
2026-01-25 08:24:54.20	80.26	16.99	-31.0	-34.8	11.6	7.05e-04	0	43	102	1048576	22	5606
2026-01-25 08:24:57.22	79.70	17.19	-30.7	-34.1	12.1	2.49e-04	0	43	102	1048576	22	5309
2026-01-25 08:25:00.24	79.13	17.39	-30.7	-34.0	12.2	1.83e-04	0	43	102	1048576	22	5255
2026-01-25 08:25:03.25	78.56	17.59	-30.7	-33.9	12.3	1.46e-04	0	43	102	1048576	22	5216
2026-01-25 08:25:06.26	77.97	17.79	-30.0	-32.5	13.6	1.37e-05	0	43	102	1048576	21	4771
2026-01-25 08:25:09.28	77.38	17.99	-30.0	-32.5	13.6	5.30e-06	0	43	102	1048576	21	4794
2026-01-25 08:25:12.30	76.78	18.19	-29.7	-32.1	14.1	3.80e-06	0	43	102	1048576	20	4757
2026-01-25 08:25:15.32	76.18	18.38	-29.7	-32.1	14.2	7.00e-07	0	43	102	1048576	20	4765
2026-01-25 08:25:18.32	75.57	18.57	-29.6	-31.8	14.4	0.00e+00	0	43	102	1048576	20	4641
2026-01-25 08:25:21.34	74.95	18.76	-29.8	-32.2	14.2	7.00e-07	0	43	102	1048576	20	4791
2026-01-25 08:25:24.35	74.32	18.95	-29.4	-31.3	14.7	1.50e-06	0	43	102	1048576	20	4494
2026-01-25 08:25:27.37	73.68	19.14	-29.4	-31.2	14.8	7.00e-07	0	43	102	1048576	20	4461
2026-01-25 08:25:30.39	73.03	19.32	-29.4	-31.3	14.8	0.00e+00	0	43	102	1048576	20	4470
2026-01-25 08:25:33.40	72.38	19.51	-29.4	-31.9	14.8	2.20e-06	0	43	102	1048576	19	4771
2026-01-25 08:25:36.42	71.72	19.69	-29.5	-32.1	14.6	7.00e-07	0	43	102	1048576	19	4837
2026-01-25 08:25:39.44	71.05	19.86	-29.7	-32.5	14.4	7.00e-07	0	43	102	1048576	19	4968
2026-01-25 08:25:42.45	70.38	20.04	-29.8	-32.8	14.2	1.50e-06	0	43	102	1048576	19	5108
2026-01-25 08:25:45.47	69.69	20.21	-29.6	-31.9	14.4	0.00e+00	0	43	102	1048576	20	4669
2026-01-25 08:25:48.49	69.00	20.37	-29.6	-31.9	14.4	7.00e-07	0	43	102	1048576	20	4662
2026-01-25 08:25:51.50	68.30	20.54	-29.7	-32.1	14.3	7.00e-07	0	43	102	1048576	20	4729
2026-01-25 08:25:54.51	67.60	20.70	-29.1	-31.1	15.2	0.00e+00	0	43	102	1048576	19	4532
2026-01-25 08:25:57.50	66.89	20.85	-28.9	-30.6	15.6	0.00e+00	0	44	102	1048576	19	4346
2026-01-25 08:26:00.50	66.17	21.00	-29.0	-30.7	15.5	0.00e+00	0	43	102	1048576	19	4392
2026-01-25 08:26:03.52	65.44	21.15	-29.0	-30.7	15.5	0.00e+00	0	43	102	1048576	19	4375
2026-01-25 08:26:06.54	64.71	21.30	-28.8	-30.3	15.8	0.00e+00	0	43	102	1048576	19	4263
2026-01-25 08:26:09.55	63.97	21.44	-28.8	-30.8	15.8	0.00e+00	0	43	102	1048576	18	4512
2026-01-25 08:26:12.57	63.22	21.58	-28.9	-30.9	15.7	0.00e+00	0	43	102	1048576	18	4541
2026-01-25 08:26:15.57	62.47	21.71	-28.8	-30.9	15.7	0.00e+00	0	43	102	1048576	18	4540
2026-01-25 08:26:18.59	61.71	21.83	-29.0	-31.2	15.5	0.00e+00	0	43	102	1048576	18	4659
2026-01-25 08:26:21.60	60.94	21.96	-28.9	-31.0	15.7	0.00e+00	0	43	102	1048576	18	4577
2026-01-25 08:26:24.62	60.17	22.07	-28.9	-31.1	15.6	0.00e+00	0	43	102	1048576	18	4597
2026-01-25 08:26:27.64	59.39	22.19	-29.4	-32.1	15.0	0.00e+00	0	43	102	1048576	18	4958
2026-01-25 08:26:30.65	58.60	22.29	-29.7	-32.5	14.5	0.00e+00	0	43	102	1048576	19	4979
2026-01-25 08:26:33.66	57.82	22.39	-29.8	-32.7	14.3	0.00e+00	0	43	102	1048576	19	5052
2026-01-25 08:26:36.67	57.02	22.49	-29.9	-33.1	14.1	1.50e-06	0	43	102	1048576	19	5183
2026-01-25 08:26:39.69	56.22	22.58	-30.1	-33.1	13.7	3.00e-06	0	43	102	1048576	20	5095
2026-01-25 08:26:42.70	55.42	22.66	-30.0	-32.9	13.8	4.50e-06	0	43	102	1048576	20	5025
2026-01-25 08:26:45.71	54.61	22.74	-30.2	-33.2	13.6	8.30e-06	0	43	102	1048576	20	5135
2026-01-25 08:26:48.72	53.80	22.82	-30.5	-34.1	13.1	3.05e-05	0	43	102	1048576	20	5477
2026-01-25 08:26:51.73	52.99	22.88	-30.7	-34.2	12.7	7.32e-05	0	43	102	1048576	21	5407
2026-01-25 08:26:54.76	52.16	22.94	-30.7	-34.3	12.6	9.99e-05	0	43	102	1048576	21	5448
2026-01-25 08:26:57.77	51.34	23.00	-30.9	-34.8	12.3	2.49e-04	0	43	102	1048576	21	5647
2026-01-25 08:27:00.76	50.53	23.05	-30.7	-34.2	12.7	8.46e-05	0	43	102	1048576	21	5410
2026-01-25 08:27:03.78	49.70	23.09	-30.7	-34.2	12.7	9.76e-05	0	43	102	1048576	21	5391
2026-01-25 08:27:06.80	48.87	23.13	-30.2	-32.9	13.6	1.29e-05	0	43	102	1048576	21	4893
2026-01-25 08:27:09.82	48.04	23.15	-30.3	-32.9	13.6	6.10e-06	0	44	102	1048576	21	4895
2026-01-25 08:27:12.83	47.20	23.18	-30.3	-33.1	13.5	7.60e-06	0	43	102	1048576	21	4978
2026-01-25 08:27:15.85	46.37	23.19	-30.4	-33.5	13.2	3.43e-05	0	43	102	1048576	21	5111
2026-01-25 08:27:18.87	45.54	23.20	-30.5	-33.6	13.1	2.44e-05	0	44	102	1048576	21	5155
2026-01-25 08:27:21.88	44.70	23.21	-30.3	-33.1	13.4	1.83e-05	0	44	102	1048576	21	4976
2026-01-25 08:27:24.89	43.87	23.20	-29.8	-31.8	14.3	2.20e-06	0	43	102	1048576	21	4527
2026-01-25 08:27:27.91	43.04	23.19	-29.7	-31.9	14.5	1.50e-06	0	43	102	1048576	20	4649
2026-01-25 08:27:30.91	42.21	23.18	-29.6	-31.7	14.7	0.00e+00	0	43	102	1048576	20	4577
2026-01-25 08:27:33.93	41.37	23.16	-29.3	-31.5	15.2	0.00e+00	0	44	102	1048576	19	4616
2026-01-25 08:27:36.93	40.55	23.13	-28.9	-30.3	15.8	0.00e+00	0	44	102	1048576	19	4275
2026-01-25 08:27:39.95	39.72	23.09	-28.8	-30.2	15.9	0.00e+00	0	43	102	1048576	19	4239
2026-01-25 08:27:42.96	38.89	23.05	-28.6	-30.2	16.2	0.00e+00	0	44	102	1048576	18	4343
2026-01-25 08:27:45.97	38.07	23.00	-28.6	-30.3	16.2	0.00e+00	0	43	102	1048576	18	4358
2026-01-25 08:27:48.98	37.25	22.95	-28.6	-30.2	16.3	0.00e+00	0	44	102	1048576	18	4324
2026-01-25 08:27:51.99	36.43	22.89	-28.4	-29.7	16.5	0.00e+00	0	43	102	1048576	18	4198
2026-01-25 08:27:55.00	35.62	22.82	-28.6	-30.1	16.3	0.00e+00	0	43	102	1048576	18	4319
2026-01-25 08:27:58.02	34.81	22.75	-28.7	-30.5	16.1	0.00e+00	0	43	102	1048576	18	4414
2026-01-25 08:28:01.03	34.00	22.67	-28.7	-30.4	16.1	0.00e+00	0	43	102	1048576	18	4394
2026-01-25 08:28:04.04	33.20	22.58	-29.0	-31.1	15.7	0.00e+00	0	44	102	1048576	18	4625
2026-01-25 08:28:07.05	32.40	22.49	-29.2	-31.7	15.3	0.00e+00	0	43	102	1048576	18	4795
2026-01-25 08:28:10.06	31.61	22.40	-29.3	-32.0	15.1	0.00e+00	0	43	102	1048576	18	4909
2026-01-25 08:28:13.06	30.83	22.30	-29.6	-32.1	14.7	0.00e+00	0	44	102	1048576	19	4839
2026-01-25 08:28:16.08	30.04	22.19	-29.5	-31.9	14.9	0.00e+00	0	44	102	1048576	19	4767
2026-01-25 08:28:19.10	29.26	22.08	-29.7	-32.4	14.6	0.00e+00	0	43	102	1048576	19	4932
2026-01-25 08:28:22.11	28.49	21.96	-30.0	-33.2	14.1	3.00e-06	0	44	102	1048576	19	5205
2026-01-25 08:28:25.12	27.73	21.84	-29.9	-32.5	14.1	2.20e-06	0	43	102	1048576	20	4861
2026-01-25 08:28:28.12	26.97	21.72	-29.8	-32.3	14.2	0.00e+00	0	43	102	1048576	20	4810
2026-01-25 08:28:31.13	26.22	21.58	-30.1	-33.1	13.7	6.10e-06	0	43	102	1048576	20	5097
2026-01-25 08:28:34.16	25.47	21.45	-30.3	-33.6	13.4	9.10e-06	0	43	102	1048576	20	5258
2026-01-25 08:28:37.17	24.73	21.31	-30.4	-33.8	13.2	2.44e-05	0	43	102	1048576	20	5367
2026-01-25 08:28:40.18	24.00	21.16	-30.0	-32.9	13.8	5.30e-06	0	43	102	1048576	20	5004
2026-01-25 08:28:43.19	23.28	21.02	-30.4	-33.8	13.2	2.59e-05	0	43	102	1048576	20	5359
2026-01-25 08:28:46.20	22.56	20.86	-30.4	-33.4	13.1	4.34e-05	0	44	102	1048576	21	5091
2026-01-25 08:28:49.22	21.85	20.71	-30.0	-32.4	13.8	4.50e-06	0	44	102	1048576	21	4742
2026-01-25 08:28:52.25	21.14	20.55	-30.1	-32.5	13.8	6.80e-06	0	43	102	1048576	21	4755
2026-01-25 08:28:55.26	20.44	20.38	-30.0	-32.4	13.8	5.30e-06	0	43	102	1048576	21	4716
2026-01-25 08:28:58.27	19.76	20.22	-30.0	-32.3	13.8	2.20e-06	0	43	102	1048576	21	4707
2026-01-25 08:29:01.28	19.08	20.05	-29.9	-32.1	14.0	5.30e-06	0	43	102	1048576	21	4624
2026-01-25 08:29:04.28	18.41	19.88	-30.0	-32.4	13.7	5.30e-06	0	43	102	1048576	21	4750
2026-01-25 08:29:07.30	17.74	19.70	-29.8	-32.0	14.0	3.00e-06	0	43	102	1048576	21	4588
2026-01-25 08:29:10.30	17.08	19.52	-30.0	-32.5	13.7	6.10e-06	0	43	102	1048576	21	4778
2026-01-25 08:29:13.31	16.43	19.34	-30.0	-32.4	13.7	9.10e-06	0	43	102	1048576	21	4731
2026-01-25 08:29:16.33	15.79	19.16	-29.9	-32.0	14.0	4.50e-06	0	44	102	1048576	21	4592
2026-01-25 08:29:19.34	15.16	18.97	-29.7	-32.2	14.2	7.00e-07	0	43	102	1048576	20	4764
2026-01-25 08:29:22.36	14.53	18.79	-29.8	-32.4	14.0	3.00e-06	0	44	102	1048576	20	4858
2026-01-25 08:29:25.38	13.91	18.60	-29.9	-32.7	13.8	5.30e-06	0	43	102	1048576	20	4954
2026-01-25 08:29:28.38	13.30	18.40	-29.9	-32.6	13.9	3.80e-06	0	43	102	1048576	20	4933
2026-01-25 08:29:31.38	12.70	18.21	-30.0	-32.9	13.7	1.14e-05	0	43	102	1048576	20	5016
2026-01-25 08:29:34.40	12.10	18.02	-29.9	-32.5	13.9	3.00e-06	0	44	102	1048576	20	4899
2026-01-25 08:29:37.41	11.52	17.82	-30.0	-33.0	13.6	6.10e-06	0	43	102	1048576	20	5056
2026-01-25 08:29:40.43	10.94	17.62	-30.0	-33.0	13.6	5.30e-06	0	44	102	1048576	20	5064
2026-01-25 08:29:43.44	10.36	17.42	-30.0	-32.9	13.6	6.10e-06	0	44	102	1048576	20	5045
2026-01-25 08:29:46.44	9.80	17.22	-30.1	-33.2	13.4	2.28e-05	0	43	102	1048576	20	5143
2026-01-25 08:29:49.46	9.24	17.02	-29.6	-31.8	14.3	2.20e-06	0	44	102	1048576	20	4639
2026-01-25 08:29:52.47	8.70	16.81	-29.4	-31.3	14.6	1.50e-06	0	43	102	1048576	20	4485
2026-01-25 08:29:55.49	8.15	16.61	-29.5	-31.7	14.3	7.00e-07	0	44	102	1048576	20	4636
2026-01-25 08:29:58.50	7.62	16.40	-29.4	-31.5	14.5	1.50e-06	0	43	102	1048576	20	4546
2026-01-25 08:30:01.52	7.09	16.20	-29.4	-31.3	14.6	0.00e+00	0	43	102	1048576	20	4500
2026-01-25 08:30:04.52	6.58	15.99	-29.3	-31.6	14.8	0.00e+00	0	44	102	1048576	19	4678
2026-01-25 08:30:07.52	6.07	15.78	-29.3	-31.7	14.7	0.00e+00	0	43	102	1048576	19	4704
2026-01-25 08:30:10.53	5.56	15.58	-29.2	-31.4	14.9	7.00e-07	0	44	102	1048576	19	4622
2026-01-25 08:30:13.55	5.06	15.37	-29.3	-31.5	14.7	0.00e+00	0	44	102	1048576	19	4671
2026-01-25 08:30:16.56	4.57	15.16	-29.3	-31.6	14.7	0.00e+00	0	44	102	1048576	19	4693
2026-01-25 08:30:19.55	4.09	14.95	-29.4	-31.7	14.6	7.00e-07	0	44	102	1048576	19	4743
2026-01-25 08:30:22.56	3.62	14.74	-29.4	-31.8	14.6	0.00e+00	0	44	102	1048576	19	4746
2026-01-25 08:30:25.57	3.15	14.53	-29.4	-31.9	14.5	0.00e+00	0	44	102	1048576	19	4784
2026-01-25 08:30:28.59	2.68	14.32	-29.5	-32.2	14.3	0.00e+00	0	43	102	1048576	19	4910
2026-01-25 08:30:31.60	2.22	14.11	-29.7	-32.7	14.0	4.50e-06	0	44	102	1048576	19	5086
2026-01-25 08:30:34.61	1.77	13.91	-29.7	-32.7	14.0	0.00e+00	0	43	102	1048576	19	5068
2026-01-25 08:30:37.62	1.33	13.70	-29.9	-33.3	13.5	9.90e-06	0	44	102	1048576	19	5322
2026-01-25 08:30:40.63	0.89	13.49	-29.9	-33.1	13.6	1.14e-05	0	43	102	1048576	19	5253
2026-01-25 08:30:43.65	0.46	13.28	-29.7	-32.7	13.9	3.00e-06	0	44	102	1048576	19	5071
2026-01-25 08:30:46.66	0.04	13.07	-29.7	-32.8	13.9	3.80e-06	0	44	102	1048576	19	5115
2026-01-25 08:30:49.67	359.62	12.86	-29.9	-33.2	13.5	7.60e-06	0	44	102	1048576	19	5294
2026-01-25 08:30:52.67	359.21	12.65	-30.0	-33.1	13.2	1.98e-05	0	43	102	1048576	20	5160
2026-01-25 08:30:55.69	358.80	12.44	-30.0	-33.2	13.1	3.28e-05	0	43	102	1048576	20	5178
2026-01-25 08:30:58.69	358.40	12.24	-30.1	-33.4	13.0	3.73e-05	0	44	102	1048576	20	5257
2026-01-25 08:31:01.71	358.01	12.03	-30.0	-33.1	13.1	3.05e-05	0	43	102	1048576	20	5159
2026-01-25 08:31:04.73	357.62	11.82	-30.1	-33.3	13.0	5.41e-05	0	43	102	1048576	20	5242
2026-01-25 08:31:07.74	357.23	11.61	-30.1	-33.4	12.9	3.58e-05	0	44	102	1048576	20	5251
2026-01-25 08:31:10.75	356.85	11.41	-30.1	-33.4	12.9	4.04e-05	0	44	102	1048576	20	5271
2026-01-25 08:31:13.76	356.48	11.20	-30.3	-33.9	12.5	8.08e-05	0	44	102	1048576	20	5477
2026-01-25 08:31:16.77	356.11	11.00	-30.3	-34.2	12.4	1.58e-04	0	44	102	1048576	20	5591
2026-01-25 08:31:19.78	355.75	10.79	-30.4	-34.3	12.2	2.34e-04	0	44	102	1048576	20	5637
2026-01-25 08:31:22.79	355.39	10.59	-30.3	-34.1	12.3	1.74e-04	0	43	102	1048576	20	5571
2026-01-25 08:31:25.80	355.04	10.39	-30.3	-34.0	12.4	1.40e-04	0	44	102	1048576	20	5510
2026-01-25 08:31:28.80	354.70	10.18	-30.4	-34.3	12.3	1.98e-04	0	44	102	1048576	20	5631
2026-01-25 08:31:31.81	354.35	9.98	-30.5	-34.1	12.0	2.85e-04	0	43	102	1048576	21	5481
2026-01-25 08:31:34.82	354.02	9.78	-30.8	-35.0	11.4	7.40e-04	0	43	102	1048576	21	5856
2026-01-25 08:31:37.83	353.69	9.58	-30.9	-35.5	10.8	1.67e-03	0	44	102	1048576	21	6117
2026-01-25 08:31:40.85	353.36	9.38	-31.0	-35.4	10.6	2.82e-03	0	43	102	1048576	22	5933
2026-01-25 08:31:43.86	353.03	9.18	-31.0	-35.3	10.6	4.26e-03	0	44	102	1048576	22	5894
2026-01-25 08:31:46.87	352.71	8.98	-31.0	-35.2	10.7	3.47e-03	0	43	102	1048576	22	5886
2026-01-25 08:31:49.88	352.40	8.78	-31.0	-35.2	10.6	2.72e-03	0	43	102	1048576	22	5885
2026-01-25 08:31:52.89	352.09	8.59	-30.9	-35.0	10.8	2.61e-03	0	44	102	1048576	22	5785
2026-01-25 08:31:55.91	351.78	8.39	-30.9	-34.9	10.9	2.18e-03	0	44	102	1048576	22	5743
2026-01-25 08:31:58.92	351.48	8.19	-30.8	-34.7	11.0	1.88e-03	0	44	102	1048576	22	5663
2026-01-25 08:32:01.92	351.19	8.00	-30.8	-34.9	10.8	3.72e-03	0	44	102	1048576	22	5738
2026-01-25 08:32:04.94	350.89	7.81	-30.8	-34.8	10.9	1.89e-03	0	44	102	1048576	22	5684
2026-01-25 08:32:07.95	350.60	7.61	-30.9	-35.0	10.7	2.47e-03	0	44	102	1048576	22	5788
2026-01-25 08:32:10.96	350.32	7.42	-30.9	-35.3	10.4	4.13e-03	0	44	102	1048576	22	5977
2026-01-25 08:32:13.97	350.04	7.23	-30.9	-35.1	10.5	4.07e-03	0	44	102	1048576	22	5857
2026-01-25 08:32:16.98	349.76	7.04	-33.0	-45.1	3.8	1.28e+00	0	44	104	1048576	26	14516

#Closed at: 2026-01-25 08:32:19
#Recorded file [1 MB]: D:/data/31010_260125_112314.dat