passes_logs/2026/01/25/R2M6_AANII_01/R2M6_AANII_01__20260125_232848_SUOMI_NPP_rec.log

#Pass ID: 20260125_232848_SUOMI NPP
#Satellite: SUOMI NPP
#Configuration: NPP
#almurnet v.1.7.20240730
#Start time: 2026-01-25 23:28:48

#Version: 2.2.20231116
#Station: R2M6_AANII_01
#Location: 30.233357 lon 59.946436 lat
#TLE: 1 37849U 11061A   26025.53586395  .00000179  00000+0  10601-3 0  9996
#TLE: 2 37849  98.7821 327.4943 0002169  45.6246 314.5108 14.19529815738202

#Time	Az	El	Level	Level2	SNR	BER	BlckErr	Temp	State	Recorded	gain1	gain2
2026-01-25 23:28:48.03	24.01	6.98	-31.3	-36.6	4.9	1.31e+00	0	41	0	0	22	6605
2026-01-25 23:28:51.04	24.18	7.19	-31.5	-36.5	7.0	1.68e-01	0	42	102	1048576	23	6447
2026-01-25 23:28:54.04	24.35	7.41	-31.5	-36.6	6.9	1.98e-01	0	42	102	1048576	23	6500
2026-01-25 23:28:57.05	24.53	7.63	-31.4	-35.9	7.5	1.65e-01	0	42	102	1048576	23	6089
2026-01-25 23:29:00.06	24.71	7.85	-31.3	-36.0	7.8	9.03e-02	0	42	102	1048576	22	6208
2026-01-25 23:29:03.08	24.89	8.08	-30.8	-34.7	9.2	2.97e-02	0	42	102	1048576	21	5638
2026-01-25 23:29:06.09	25.07	8.30	-30.8	-34.5	9.3	1.51e-02	0	42	102	1048576	21	5534
2026-01-25 23:29:09.11	25.26	8.53	-30.3	-33.3	10.7	2.97e-03	0	42	102	1048576	20	5079
2026-01-25 23:29:12.11	25.45	8.76	-30.3	-33.2	10.6	3.60e-03	0	42	102	1048576	20	5047
2026-01-25 23:29:15.11	25.64	8.99	-30.1	-32.6	11.2	1.05e-03	0	42	102	1048576	20	4800
2026-01-25 23:29:18.12	25.83	9.22	-30.3	-33.3	10.8	2.71e-03	0	43	102	1048576	20	5046
2026-01-25 23:29:21.14	26.03	9.46	-30.6	-33.5	10.2	3.40e-03	0	42	102	1048576	21	5073
2026-01-25 23:29:24.14	26.23	9.70	-30.5	-33.3	10.5	3.78e-03	0	42	102	1048576	21	4947
2026-01-25 23:29:27.16	26.43	9.94	-30.5	-33.4	10.5	4.76e-03	0	42	102	1048576	21	4994
2026-01-25 23:29:30.16	26.64	10.18	-30.2	-32.3	11.2	2.23e-03	0	43	102	1048576	21	4592
2026-01-25 23:29:33.17	26.85	10.42	-30.1	-32.5	11.5	5.45e-04	0	42	102	1048576	20	4754
2026-01-25 23:29:36.18	27.06	10.67	-30.1	-32.5	11.5	6.17e-04	0	43	102	1048576	20	4735
2026-01-25 23:29:39.20	27.28	10.91	-30.2	-32.8	11.3	1.08e-03	0	43	102	1048576	20	4846
2026-01-25 23:29:42.22	27.50	11.16	-30.0	-32.2	11.7	7.87e-04	0	43	102	1048576	20	4626
2026-01-25 23:29:45.23	27.72	11.42	-30.1	-32.3	11.8	4.04e-04	0	43	102	1048576	20	4636
2026-01-25 23:29:48.24	27.95	11.67	-29.9	-31.7	12.2	2.86e-04	0	43	102	1048576	20	4439
2026-01-25 23:29:51.25	28.18	11.93	-29.9	-32.1	12.3	1.64e-04	0	43	102	1048576	19	4652
2026-01-25 23:29:54.27	28.42	12.19	-29.8	-31.9	12.4	1.52e-04	0	43	102	1048576	19	4601
2026-01-25 23:29:57.28	28.65	12.45	-29.7	-31.7	12.6	1.17e-04	0	43	102	1048576	19	4514
2026-01-25 23:30:00.30	28.90	12.71	-29.5	-31.1	13.0	3.05e-04	0	43	102	1048576	19	4305
2026-01-25 23:30:03.32	29.14	12.98	-29.5	-31.1	13.1	4.84e-04	0	43	102	1048576	19	4306
2026-01-25 23:30:06.33	29.40	13.25	-29.5	-31.1	13.1	2.97e-05	0	43	102	1048576	19	4326
2026-01-25 23:30:09.33	29.65	13.52	-29.5	-31.1	13.1	3.05e-05	0	43	102	1048576	19	4321
2026-01-25 23:30:12.35	29.91	13.79	-29.5	-31.0	13.2	3.05e-05	0	43	102	1048576	19	4272
2026-01-25 23:30:15.37	30.18	14.07	-29.5	-31.1	13.1	4.11e-05	0	43	102	1048576	19	4308
2026-01-25 23:30:18.38	30.45	14.35	-29.5	-31.1	13.1	3.12e-04	0	43	102	1048576	19	4300
2026-01-25 23:30:21.38	30.72	14.63	-29.5	-31.1	13.2	4.27e-05	0	43	102	1048576	19	4311
2026-01-25 23:30:24.38	31.00	14.91	-29.5	-31.1	13.2	3.73e-05	0	43	102	1048576	19	4296
2026-01-25 23:30:27.39	31.28	15.20	-29.4	-30.8	13.4	1.52e-05	0	43	102	1048576	19	4213
2026-01-25 23:30:30.41	31.57	15.49	-29.6	-31.2	13.1	1.67e-05	0	43	102	1048576	19	4346
2026-01-25 23:30:33.44	31.87	15.78	-29.5	-31.3	13.4	1.29e-05	0	43	102	1048576	18	4468
2026-01-25 23:30:36.44	32.17	16.08	-29.5	-31.0	13.0	3.05e-05	0	43	102	1048576	19	4267
2026-01-25 23:30:39.45	32.47	16.38	-29.7	-31.6	12.8	4.11e-05	0	43	102	1048576	19	4446
2026-01-25 23:30:42.45	32.78	16.68	-30.0	-31.8	12.4	4.52e-04	0	43	102	1048576	20	4437
2026-01-25 23:30:45.45	33.10	16.98	-29.9	-31.7	12.5	5.18e-05	0	43	102	1048576	20	4392
2026-01-25 23:30:48.47	33.43	17.29	-29.8	-31.4	12.7	1.22e-04	0	43	102	1048576	20	4304
2026-01-25 23:30:51.48	33.76	17.60	-30.1	-32.2	11.9	1.09e-04	0	43	102	1048576	20	4570
2026-01-25 23:30:54.49	34.09	17.91	-30.0	-31.9	12.4	1.66e-04	0	43	102	1048576	20	4466
2026-01-25 23:30:57.49	34.44	18.23	-30.2	-32.5	12.0	1.63e-03	0	44	102	1048576	20	4690
2026-01-25 23:31:00.51	34.79	18.55	-29.9	-32.0	12.7	1.49e-03	0	43	102	1048576	19	4564
2026-01-25 23:31:03.53	35.15	18.87	-29.7	-31.5	13.1	1.52e-03	0	43	102	1048576	19	4416
2026-01-25 23:31:06.56	35.52	19.20	-29.8	-31.7	13.0	5.20e-04	0	43	102	1048576	19	4484
2026-01-25 23:31:09.57	35.89	19.53	-29.8	-31.6	13.1	3.06e-04	0	43	102	1048576	19	4431
2026-01-25 23:31:12.58	36.27	19.86	-29.7	-31.5	13.1	3.20e-05	0	44	102	1048576	19	4401
2026-01-25 23:31:15.58	36.66	20.20	-29.9	-31.9	12.9	3.50e-04	0	43	102	1048576	19	4547
2026-01-25 23:31:18.60	37.06	20.54	-30.0	-31.7	12.7	6.71e-04	0	44	102	1048576	20	4378
2026-01-25 23:31:21.60	37.46	20.88	-30.0	-31.8	12.5	5.66e-04	0	44	102	1048576	20	4422
2026-01-25 23:31:24.61	37.88	21.23	-29.9	-31.3	12.8	2.37e-04	0	44	102	1048576	20	4276
2026-01-25 23:31:27.63	38.31	21.58	-29.6	-30.6	13.4	4.73e-05	0	44	102	1048576	20	4029
2026-01-25 23:31:30.64	38.74	21.93	-29.4	-30.2	13.6	3.43e-05	0	44	102	1048576	20	3924
2026-01-25 23:31:33.64	39.18	22.28	-29.2	-30.0	14.1	3.80e-06	0	44	102	1048576	19	3962
2026-01-25 23:31:36.65	39.64	22.64	-29.3	-30.2	14.0	2.20e-06	0	44	102	1048576	19	4018
2026-01-25 23:31:39.65	40.10	23.00	-29.5	-30.8	13.7	1.36e-04	0	44	102	1048576	19	4197
2026-01-25 23:31:42.67	40.57	23.37	-29.8	-31.7	13.1	6.71e-05	0	44	102	1048576	19	4483
2026-01-25 23:31:45.68	41.06	23.74	-29.8	-31.7	13.1	5.79e-05	0	44	102	1048576	19	4450
2026-01-25 23:31:48.68	41.55	24.11	-29.4	-30.6	13.8	7.60e-06	0	44	102	1048576	19	4122
2026-01-25 23:31:51.70	42.06	24.48	-29.3	-30.3	14.1	3.00e-06	0	44	102	1048576	19	4018
2026-01-25 23:31:54.72	42.59	24.86	-29.4	-30.6	13.8	3.80e-06	0	44	102	1048576	19	4120
2026-01-25 23:31:57.72	43.12	25.24	-29.8	-31.5	13.3	1.83e-05	0	44	102	1048576	19	4398
2026-01-25 23:32:00.72	43.66	25.63	-29.8	-31.6	13.2	2.13e-05	0	44	102	1048576	19	4442
2026-01-25 23:32:03.73	44.22	26.01	-30.0	-32.0	13.0	2.28e-05	0	44	102	1048576	19	4553
2026-01-25 23:32:06.74	44.79	26.40	-30.3	-32.5	12.2	1.70e-04	0	44	102	1048576	20	4647
2026-01-25 23:32:09.76	45.38	26.80	-30.4	-32.4	12.0	4.65e-04	0	44	102	1048576	21	4503
2026-01-25 23:32:12.77	45.98	27.19	-30.4	-32.3	12.1	6.42e-04	0	44	102	1048576	21	4468
2026-01-25 23:32:15.78	46.59	27.59	-29.8	-31.0	13.3	2.67e-05	0	44	102	1048576	20	4133
2026-01-25 23:32:18.79	47.22	27.99	-29.7	-30.7	13.5	1.29e-05	0	44	102	1048576	20	4045
2026-01-25 23:32:21.80	47.87	28.39	-30.4	-32.7	12.2	6.56e-05	0	44	102	1048576	20	4697
2026-01-25 23:32:24.81	48.53	28.80	-30.1	-32.0	12.7	1.05e-04	0	44	102	1048576	20	4456
2026-01-25 23:32:27.83	49.21	29.20	-30.0	-31.5	13.0	3.43e-05	0	44	102	1048576	20	4305
2026-01-25 23:32:30.84	49.91	29.61	-30.1	-32.0	12.7	8.85e-05	0	44	102	1048576	20	4448
2026-01-25 23:32:33.86	50.62	30.02	-30.3	-32.5	12.4	1.31e-04	0	44	102	1048576	20	4629
2026-01-25 23:32:36.87	51.35	30.43	-30.2	-32.1	12.8	1.27e-04	0	44	102	1048576	20	4476
2026-01-25 23:32:39.88	52.10	30.84	-29.9	-31.2	13.3	1.90e-05	0	44	102	1048576	20	4196
2026-01-25 23:32:42.89	52.87	31.25	-30.1	-31.9	12.8	5.95e-05	0	44	102	1048576	20	4399
2026-01-25 23:32:45.90	53.66	31.66	-30.9	-33.9	11.1	8.06e-04	0	44	102	1048576	21	5044
2026-01-25 23:32:48.91	54.47	32.07	-32.1	-36.6	7.9	7.16e-02	0	44	102	1048576	24	6039
2026-01-25 23:32:51.91	55.29	32.48	-31.4	-34.0	10.0	1.09e-02	0	44	102	1048576	24	4818
2026-01-25 23:32:54.92	56.14	32.89	-31.6	-34.9	9.7	8.17e-03	0	44	102	1048576	23	5305
2026-01-25 23:32:57.94	57.02	33.30	-31.9	-36.0	8.8	3.40e-02	0	44	102	1048576	23	5787
2026-01-25 23:33:00.96	57.91	33.71	-31.9	-35.5	8.8	3.78e-02	0	44	102	1048576	24	5485
2026-01-25 23:33:03.97	58.82	34.11	-31.5	-34.7	9.8	1.23e-02	0	44	102	1048576	23	5201
2026-01-25 23:33:06.97	59.76	34.51	-31.7	-35.2	9.5	1.75e-02	0	44	102	1048576	23	5427
2026-01-25 23:33:09.97	60.72	34.91	-32.0	-36.0	8.4	4.28e-02	0	44	102	1048576	24	5703
2026-01-25 23:33:13.00	61.70	35.30	-31.9	-35.4	9.0	2.13e-02	0	44	102	1048576	24	5428
2026-01-25 23:33:16.00	62.71	35.69	-31.7	-34.8	9.5	9.61e-03	0	44	102	1048576	24	5126
2026-01-25 23:33:19.02	63.74	36.08	-31.7	-34.9	9.3	1.41e-02	0	44	102	1048576	24	5201
2026-01-25 23:33:22.02	64.79	36.45	-31.2	-33.7	10.7	3.24e-03	0	44	102	1048576	23	4758
2026-01-25 23:33:25.04	65.87	36.83	-31.2	-34.1	10.8	2.30e-03	0	44	102	1048576	22	5019
2026-01-25 23:33:28.05	66.98	37.19	-31.5	-34.5	10.2	8.41e-03	0	44	102	1048576	23	5072
2026-01-25 23:33:31.06	68.10	37.55	-31.2	-33.5	10.8	3.82e-03	0	44	102	1048576	23	4704
2026-01-25 23:33:34.09	69.26	37.90	-31.5	-34.5	10.2	8.97e-03	0	44	102	1048576	23	5077
2026-01-25 23:33:37.11	70.44	38.23	-31.7	-35.0	9.7	1.47e-02	0	44	102	1048576	23	5298
2026-01-25 23:33:40.12	71.64	38.56	-31.3	-33.8	10.6	4.79e-03	0	44	102	1048576	23	4815
2026-01-25 23:33:43.13	72.87	38.88	-31.6	-34.9	9.8	6.56e-03	0	44	102	1048576	23	5245
2026-01-25 23:33:46.13	74.11	39.18	-31.4	-33.6	10.4	6.85e-03	0	44	102	1048576	24	4646
2026-01-25 23:33:49.16	75.39	39.48	-30.4	-31.6	12.6	1.71e-04	0	44	102	1048576	22	4127
2026-01-25 23:33:52.16	76.68	39.75	-30.4	-32.1	12.6	1.20e-04	0	44	102	1048576	21	4368
2026-01-25 23:33:55.17	77.99	40.02	-31.6	-34.9	9.9	8.39e-03	0	44	102	1048576	23	5258
2026-01-25 23:33:58.19	79.33	40.27	-31.3	-33.7	10.8	1.94e-03	0	44	102	1048576	23	4742
2026-01-25 23:34:01.19	80.68	40.50	-30.7	-32.3	12.2	2.94e-04	0	44	102	1048576	22	4349
2026-01-25 23:34:04.20	82.06	40.72	-32.3	-37.0	7.9	4.38e-02	0	44	102	1048576	24	6189
2026-01-25 23:34:07.21	83.45	40.92	-31.8	-35.1	9.3	2.72e-02	0	44	102	1048576	24	5263
2026-01-25 23:34:10.22	84.86	41.10	-31.7	-34.5	10.0	9.43e-03	0	44	102	1048576	24	4985
2026-01-25 23:34:13.24	86.28	41.27	-32.3	-36.8	8.0	3.75e-02	0	44	102	1048576	24	6088
2026-01-25 23:34:16.25	87.72	41.41	-32.4	-37.0	7.5	1.73e-01	0	44	102	1048576	25	6096
2026-01-25 23:34:19.26	89.17	41.54	-32.6	-37.8	6.9	1.59e-01	0	44	102	1048576	25	6567
2026-01-25 23:34:22.26	90.63	41.64	-32.5	-37.6	7.2	8.94e-02	0	44	102	1048576	25	6434
2026-01-25 23:34:25.28	92.10	41.73	-32.9	-39.3	5.5	5.84e-01	0	44	102	1048576	26	7540
2026-01-25 23:34:28.29	93.57	41.80	-32.3	-36.3	8.0	6.90e-02	0	44	102	1048576	25	5746
2026-01-25 23:34:31.30	95.05	41.84	-32.2	-36.1	8.3	4.38e-02	0	44	102	1048576	25	5661
2026-01-25 23:34:34.31	96.54	41.86	-31.8	-34.9	9.5	1.22e-02	0	44	102	1048576	24	5180
2026-01-25 23:34:37.33	98.03	41.87	-32.3	-37.3	7.6	1.13e-01	0	44	102	1048576	24	6367
2026-01-25 23:34:40.35	99.52	41.85	-32.0	-35.8	9.0	2.58e-02	0	44	102	1048576	24	5554
2026-01-25 23:34:43.35	100.99	41.81	-31.1	-33.1	11.3	5.59e-03	0	44	102	1048576	23	4521
2026-01-25 23:34:46.36	102.47	41.75	-31.7	-35.4	9.7	3.35e-03	0	44	102	1048576	23	5457
2026-01-25 23:34:49.37	103.94	41.66	-31.4	-33.6	10.4	8.94e-03	0	44	102	1048576	24	4632
2026-01-25 23:34:52.38	105.40	41.56	-31.6	-34.8	9.8	6.68e-03	0	44	102	1048576	23	5206
2026-01-25 23:34:55.39	106.85	41.44	-31.1	-33.5	11.5	6.77e-04	0	44	102	1048576	22	4745
2026-01-25 23:34:58.41	108.30	41.30	-31.4	-34.2	10.6	1.03e-02	0	44	102	1048576	23	4923
2026-01-25 23:35:01.43	109.73	41.14	-31.6	-34.8	10.1	4.21e-03	0	44	102	1048576	23	5175
2026-01-25 23:35:04.44	111.15	40.96	-31.8	-34.9	9.7	1.53e-02	0	44	102	1048576	24	5136
2026-01-25 23:35:07.45	112.54	40.76	-31.2	-33.4	11.1	3.77e-03	0	44	102	1048576	23	4625
2026-01-25 23:35:10.46	113.92	40.55	-30.3	-31.6	12.9	4.11e-05	0	44	102	1048576	21	4224
2026-01-25 23:35:13.47	115.28	40.31	-30.5	-32.2	12.6	8.54e-05	0	44	102	1048576	21	4397
2026-01-25 23:35:16.49	116.63	40.07	-30.6	-32.0	12.4	2.18e-04	0	44	102	1048576	22	4235
2026-01-25 23:35:19.50	117.95	39.80	-30.1	-31.2	13.3	1.98e-05	0	44	102	1048576	21	4084
2026-01-25 23:35:22.51	119.25	39.53	-28.0	-27.9	16.4	0.00e+00	0	44	102	1048576	17	3565
2026-01-25 23:35:25.51	120.52	39.24	-27.8	-28.0	16.7	7.00e-07	0	44	102	1048576	16	3659
2026-01-25 23:35:28.52	121.78	38.93	-28.4	-28.9	15.8	0.00e+00	0	44	102	1048576	17	3809
2026-01-25 23:35:31.53	123.01	38.62	-29.0	-29.9	15.0	0.00e+00	0	44	102	1048576	18	3981
2026-01-25 23:35:34.55	124.22	38.29	-27.4	-26.9	17.2	0.00e+00	0	44	102	1048576	16	3422
2026-01-25 23:35:37.56	125.41	37.95	-27.4	-27.6	17.0	0.00e+00	0	44	102	1048576	15	3667
2026-01-25 23:35:40.58	126.57	37.61	-27.9	-28.8	16.3	0.00e+00	0	44	102	1048576	15	3967
2026-01-25 23:35:43.60	127.71	37.25	-28.5	-28.6	15.7	0.00e+00	0	44	102	1048576	18	3645
2026-01-25 23:35:46.62	128.82	36.88	-27.8	-27.9	16.7	0.00e+00	0	44	102	1048576	16	3648
2026-01-25 23:35:49.64	129.91	36.51	-28.4	-29.3	15.9	0.00e+00	0	44	102	1048576	16	4020
2026-01-25 23:35:52.65	130.97	36.13	-28.8	-30.0	15.2	0.00e+00	0	44	102	1048576	17	4096
2026-01-25 23:35:55.65	132.01	35.75	-28.9	-29.6	15.1	7.00e-07	0	44	102	1048576	18	3904
2026-01-25 23:35:58.66	133.02	35.36	-28.6	-29.3	15.6	0.00e+00	0	44	102	1048576	17	3916
2026-01-25 23:36:01.68	134.02	34.96	-28.7	-29.1	15.4	0.00e+00	0	44	102	1048576	18	3774
2026-01-25 23:36:04.70	134.98	34.56	-29.7	-31.2	13.9	2.67e-05	0	44	102	1048576	19	4276
2026-01-25 23:36:07.71	135.93	34.16	-29.9	-30.8	13.4	4.57e-05	0	44	102	1048576	21	3993
2026-01-25 23:36:10.73	136.85	33.76	-30.3	-32.2	12.8	1.75e-05	0	44	102	1048576	20	4514
2026-01-25 23:36:13.75	137.75	33.35	-31.8	-35.5	9.3	1.85e-02	0	44	102	1048576	23	5541
2026-01-25 23:36:16.77	138.63	32.94	-31.6	-34.9	9.8	7.19e-03	0	44	102	1048576	23	5274
2026-01-25 23:36:19.78	139.49	32.52	-32.6	-38.4	6.5	1.79e-01	0	44	102	1048576	25	7031
2026-01-25 23:36:22.80	140.32	32.11	-31.8	-35.1	9.3	2.23e-02	0	44	102	1048576	24	5259
2026-01-25 23:36:25.82	141.14	31.70	-32.2	-37.0	7.9	6.81e-02	0	44	102	1048576	24	6215
2026-01-25 23:36:28.84	141.94	31.28	-32.8	-39.9	5.4	5.40e-01	0	44	102	1048576	25	8136
2026-01-25 23:36:31.84	142.71	30.87	-32.6	-38.3	6.5	3.73e-01	0	44	102	1048576	25	6913
2026-01-25 23:36:34.85	143.46	30.46	-32.7	-39.1	6.0	1.54e-01	0	44	102	1048576	25	7453
2026-01-25 23:36:37.88	144.20	30.04	-32.5	-37.6	6.9	2.66e-01	0	44	102	1048576	25	6522
2026-01-25 23:36:40.90	144.92	29.63	-31.3	-33.9	10.5	4.57e-03	0	44	102	1048576	23	4865
2026-01-25 23:36:43.91	145.62	29.22	-32.3	-37.2	7.6	9.64e-02	0	44	102	1048576	24	6329
2026-01-25 23:36:46.92	146.30	28.81	-31.7	-35.0	9.2	5.32e-02	0	44	102	1048576	24	5249
2026-01-25 23:36:49.92	146.97	28.40	-29.9	-31.2	13.3	2.05e-05	0	44	102	1048576	20	4196
2026-01-25 23:36:52.94	147.62	28.00	-31.2	-34.2	10.6	2.29e-03	0	44	102	1048576	22	5078
2026-01-25 23:36:55.96	148.26	27.59	-30.8	-33.0	11.4	2.19e-03	0	44	102	1048576	22	4622
2026-01-25 23:36:58.97	148.87	27.19	-30.0	-31.5	13.0	9.07e-05	0	44	102	1048576	20	4297
2026-01-25 23:37:01.98	149.48	26.80	-31.0	-33.9	11.1	6.37e-04	0	44	102	1048576	21	5050
2026-01-25 23:37:04.99	150.07	26.40	-30.8	-33.0	11.3	1.77e-03	0	44	102	1048576	22	4637
2026-01-25 23:37:07.99	150.64	26.01	-29.6	-30.5	13.7	1.06e-05	0	44	102	1048576	20	3993
2026-01-25 23:37:11.01	151.20	25.62	-29.5	-30.7	14.0	7.00e-07	0	44	102	1048576	19	4126
2026-01-25 23:37:14.02	151.75	25.23	-29.4	-30.3	14.2	2.20e-06	0	44	102	1048576	19	4020
2026-01-25 23:37:17.02	152.28	24.85	-29.6	-31.1	13.6	4.50e-06	0	44	102	1048576	19	4248
2026-01-25 23:37:20.02	152.81	24.47	-29.5	-30.8	13.8	4.50e-06	0	44	102	1048576	19	4165
2026-01-25 23:37:23.03	153.32	24.09	-29.7	-31.2	13.6	3.00e-06	0	44	102	1048576	19	4291
2026-01-25 23:37:26.05	153.82	23.71	-29.5	-30.8	13.8	5.30e-06	0	44	102	1048576	19	4179
2026-01-25 23:37:29.05	154.30	23.34	-30.0	-31.8	12.7	1.15e-04	0	44	102	1048576	20	4415
2026-01-25 23:37:32.06	154.78	22.98	-30.5	-32.5	11.9	4.92e-04	0	44	102	1048576	21	4544
2026-01-25 23:37:35.07	155.24	22.61	-30.3	-31.9	12.3	1.95e-04	0	44	102	1048576	21	4346
2026-01-25 23:37:38.08	155.70	22.25	-30.1	-31.9	12.7	5.87e-05	0	44	102	1048576	20	4435
2026-01-25 23:37:41.10	156.15	21.89	-30.2	-32.3	12.4	1.32e-04	0	44	102	1048576	20	4575
2026-01-25 23:37:44.12	156.58	21.53	-30.9	-33.8	11.0	1.31e-03	0	44	102	1048576	21	5057
2026-01-25 23:37:47.13	157.01	21.18	-30.4	-32.5	11.8	1.13e-03	0	44	102	1048576	21	4582
2026-01-25 23:37:50.12	157.42	20.84	-29.3	-30.4	13.9	1.37e-05	0	44	102	1048576	19	4070
2026-01-25 23:37:53.14	157.83	20.49	-29.0	-30.0	14.5	0.00e+00	0	44	102	1048576	18	4048
2026-01-25 23:37:56.15	158.23	20.15	-29.1	-30.4	14.3	0.00e+00	0	44	102	1048576	18	4164
2026-01-25 23:37:59.17	158.62	19.81	-29.6	-31.1	13.5	6.80e-06	0	44	102	1048576	19	4276
2026-01-25 23:38:02.17	159.00	19.47	-29.9	-31.9	12.9	3.73e-05	0	44	102	1048576	19	4545
2026-01-25 23:38:05.19	159.38	19.14	-29.6	-30.7	13.3	2.82e-05	0	44	102	1048576	20	4085
2026-01-25 23:38:08.20	159.74	18.81	-27.9	-29.2	13.8	3.80e-06	0	44	102	1048576	18	4173
2026-01-25 23:38:11.21	160.10	18.49	-29.2	-30.6	12.9	7.00e-07	0	44	102	1048576	18	4224
2026-01-25 23:38:14.22	160.45	18.17	-29.7	-31.4	13.2	2.37e-03	0	44	102	1048576	19	4367
2026-01-25 23:38:17.24	160.80	17.85	-29.9	-32.0	12.8	2.39e-03	0	44	102	1048576	19	4597
2026-01-25 23:38:20.27	161.14	17.53	-29.9	-31.7	12.6	7.01e-05	0	44	102	1048576	20	4401
2026-01-25 23:38:23.28	161.47	17.22	-30.0	-31.8	12.6	9.68e-05	0	44	102	1048576	20	4410
2026-01-25 23:38:26.29	161.79	16.91	-30.3	-32.7	11.9	5.23e-04	0	44	102	1048576	20	4731
2026-01-25 23:38:29.30	162.11	16.60	-30.4	-33.3	11.4	9.78e-04	0	44	102	1048576	20	5013
2026-01-25 23:38:32.30	162.42	16.30	-30.6	-33.9	10.5	7.60e-03	0	44	102	1048576	21	5220
2026-01-25 23:38:35.32	162.73	16.00	-30.8	-34.9	9.6	1.24e-02	0	44	102	1048576	21	5760
2026-01-25 23:38:38.32	163.03	15.70	-30.8	-34.8	9.7	1.27e-02	0	44	102	1048576	21	5720
2026-01-25 23:38:41.34	163.32	15.40	-30.6	-33.9	10.4	7.73e-03	0	44	102	1048576	21	5233
2026-01-25 23:38:44.35	163.61	15.11	-30.2	-32.7	11.7	3.26e-03	0	44	102	1048576	20	4783
2026-01-25 23:38:47.35	163.90	14.82	-29.8	-31.9	12.8	2.40e-03	0	44	102	1048576	19	4565
2026-01-25 23:38:50.37	164.17	14.54	-29.5	-31.0	13.4	2.49e-03	0	44	102	1048576	19	4258
2026-01-25 23:38:53.38	164.45	14.25	-29.4	-30.7	13.5	2.40e-03	0	44	102	1048576	19	4195
2026-01-25 23:38:56.40	164.72	13.97	-29.4	-31.3	13.4	2.24e-03	0	44	102	1048576	18	4469
2026-01-25 23:38:59.40	164.98	13.69	-29.6	-31.3	12.8	2.41e-03	0	44	102	1048576	19	4378
2026-01-25 23:39:02.40	165.24	13.42	-29.7	-31.7	12.7	2.50e-03	0	44	102	1048576	19	4542
2026-01-25 23:39:05.42	165.49	13.15	-29.9	-32.2	12.4	9.15e-05	0	44	102	1048576	19	4688
2026-01-25 23:39:08.44	165.74	12.88	-29.9	-32.0	12.2	4.42e-04	0	44	102	1048576	20	4543
2026-01-25 23:39:11.45	165.99	12.61	-29.9	-32.4	12.2	5.00e-04	0	44	102	1048576	19	4813
2026-01-25 23:39:14.47	166.23	12.34	-29.9	-32.5	12.1	2.58e-03	0	44	102	1048576	19	4853
2026-01-25 23:39:17.48	166.47	12.08	-29.9	-31.9	12.1	3.15e-03	0	44	102	1048576	20	4525
2026-01-25 23:39:20.49	166.70	11.82	-30.1	-32.4	11.8	5.32e-04	0	44	102	1048576	20	4705
2026-01-25 23:39:23.50	166.93	11.56	-30.3	-32.9	11.5	9.75e-04	0	44	102	1048576	20	4883
2026-01-25 23:39:26.51	167.16	11.30	-30.5	-33.5	11.0	1.92e-03	0	44	102	1048576	20	5083
2026-01-25 23:39:29.53	167.38	11.05	-30.5	-33.3	10.8	2.55e-03	0	44	102	1048576	21	4919
2026-01-25 23:39:32.54	167.60	10.80	-30.6	-33.6	10.6	4.89e-03	0	44	102	1048576	21	5045
2026-01-25 23:39:35.54	167.81	10.55	-30.9	-34.6	9.8	8.16e-03	0	44	102	1048576	21	5481
2026-01-25 23:39:38.56	168.02	10.30	-30.2	-34.0	9.7	1.39e-02	0	44	102	1048576	21	5561
2026-01-25 23:39:41.58	168.23	10.06	-31.1	-34.8	9.2	2.35e-02	0	44	102	1048576	22	5499
2026-01-25 23:39:44.59	168.44	9.81	-30.9	-34.7	9.6	1.25e-02	0	44	102	1048576	21	5572
2026-01-25 23:39:47.59	168.64	9.57	-30.9	-34.5	9.8	1.73e-02	0	44	102	1048576	21	5475
2026-01-25 23:39:50.59	168.84	9.34	-30.4	-33.5	10.8	3.72e-03	0	44	102	1048576	20	5164
2026-01-25 23:39:53.57	169.03	9.10	-30.2	-33.1	11.1	2.10e-03	0	44	102	1048576	20	5002
2026-01-25 23:39:56.59	169.22	8.87	-30.3	-33.6	10.6	6.79e-03	0	44	102	1048576	20	5253
2026-01-25 23:39:59.60	169.41	8.63	-30.1	-32.7	11.2	3.55e-03	0	44	102	1048576	20	4893
2026-01-25 23:40:02.60	169.60	8.40	-30.1	-32.9	11.1	3.89e-03	0	44	102	1048576	20	4969
2026-01-25 23:40:05.61	169.78	8.17	-30.1	-32.7	11.2	1.88e-03	0	44	102	1048576	20	4867
2026-01-25 23:40:08.61	169.96	7.95	-30.2	-33.1	10.9	1.83e-03	0	44	102	1048576	20	5042
2026-01-25 23:40:11.63	170.14	7.72	-30.2	-33.0	11.0	2.08e-03	0	44	102	1048576	20	4961
2026-01-25 23:40:14.63	170.32	7.50	-30.2	-33.1	11.0	4.13e-03	0	44	102	1048576	20	5003
2026-01-25 23:40:17.64	170.49	7.28	-30.2	-33.2	10.8	4.50e-03	0	44	102	1048576	20	5046
2026-01-25 23:40:20.64	170.66	7.06	-32.4	-44.9	3.8	3.07e-01	0	44	104	1048576	24	15121

#Closed at: 2026-01-25 23:40:22
#Recorded file [1 MB]: D:/data/31010_260126_022849.dat