passes_logs/2026/01/25/R2M6_AANII_01/R2M6_AANII_01__20260125_132840_AQUA_rec.log

#Pass ID: 20260125_132840_AQUA
#Satellite: AQUA
#Configuration: AQUA
#almurnet v.1.7.20240730
#Start time: 2026-01-25 13:28:39

#Version: 2.2.20231116
#Station: R2M6_AANII_01
#Location: 30.233357 lon 59.946436 lat
#TLE: 1 27424U 02022A   26025.22169280  .00001965  00000+0  40301-3 0  9991
#TLE: 2 27424  98.4099 351.8218 0001902  66.1120 348.8694 14.61858181262382

#Time	Az	El	Level	Level2	SNR	BER	BlckErr	Temp	State	Recorded	gain1	gain2
2026-01-25 13:28:39.66	209.44	6.97	-30.5	-35.3	5.2	7.08e-01	0	41	0	0	22	6318
2026-01-25 13:28:42.66	209.75	7.17	-31.8	-38.8	12.4	6.13e-01	0	41	102	524288	24	8096
2026-01-25 13:28:45.67	210.06	7.38	-31.6	-37.7	13.4	6.09e-01	0	41	102	524288	24	7289
2026-01-25 13:28:48.68	210.38	7.59	-30.9	-35.1	15.5	6.06e-01	0	41	102	524288	24	5807
2026-01-25 13:28:51.69	210.71	7.80	-30.2	-33.8	17.1	6.05e-01	0	41	102	524288	22	5416
2026-01-25 13:28:54.70	211.04	8.01	-30.2	-33.5	17.3	6.09e-01	0	41	102	524288	22	5307
2026-01-25 13:28:57.72	211.37	8.22	-29.9	-33.2	17.9	6.07e-01	0	41	102	524288	21	5258
2026-01-25 13:29:00.73	211.71	8.44	-29.9	-33.1	17.9	6.05e-01	0	42	102	524288	21	5249
2026-01-25 13:29:03.74	212.06	8.65	-29.9	-33.2	17.9	6.06e-01	0	42	102	524288	21	5261
2026-01-25 13:29:06.75	212.41	8.87	-30.0	-33.6	17.6	6.06e-01	0	42	102	524288	21	5441
2026-01-25 13:29:09.77	212.76	9.09	-29.8	-32.9	18.1	6.06e-01	0	42	102	524288	21	5146
2026-01-25 13:29:12.77	213.12	9.30	-29.7	-32.5	18.4	6.06e-01	0	42	102	524288	21	5002
2026-01-25 13:29:15.78	213.49	9.52	-29.7	-32.6	18.4	6.05e-01	0	42	102	524288	21	5028
2026-01-25 13:29:18.79	213.86	9.75	-29.8	-32.8	18.3	6.06e-01	0	42	102	524288	21	5088
2026-01-25 13:29:21.80	214.24	9.97	-29.8	-32.8	18.3	6.04e-01	0	42	102	524288	21	5100
2026-01-25 13:29:24.81	214.62	10.19	-29.6	-32.4	18.6	6.06e-01	0	42	102	524288	21	4926
2026-01-25 13:29:27.82	215.01	10.42	-29.7	-32.6	18.5	6.07e-01	0	42	102	524288	21	5003
2026-01-25 13:29:30.84	215.41	10.64	-29.5	-32.0	18.9	6.04e-01	0	42	102	524288	21	4807
2026-01-25 13:29:33.85	215.82	10.87	-29.7	-32.5	18.6	6.04e-01	0	42	102	524288	21	4989
2026-01-25 13:29:36.86	216.23	11.10	-29.5	-31.9	18.9	6.05e-01	0	43	102	524288	21	4775
2026-01-25 13:29:39.88	216.64	11.33	-29.4	-32.2	19.1	6.03e-01	0	42	102	524288	20	4955
2026-01-25 13:29:42.89	217.07	11.56	-29.6	-32.8	18.7	6.06e-01	0	42	102	524288	20	5213
2026-01-25 13:29:45.91	217.50	11.79	-29.4	-32.3	19.1	6.05e-01	0	42	102	524288	20	5005
2026-01-25 13:29:48.92	217.94	12.02	-29.6	-32.6	18.9	6.06e-01	0	43	102	524288	20	5113
2026-01-25 13:29:51.93	218.38	12.25	-29.5	-32.3	19.1	6.07e-01	0	43	102	524288	20	5017
2026-01-25 13:29:54.95	218.84	12.49	-29.4	-32.2	19.2	6.06e-01	0	43	102	524288	20	4972
2026-01-25 13:29:57.97	219.30	12.72	-29.4	-32.0	19.3	6.06e-01	0	43	102	524288	20	4900
2026-01-25 13:30:00.99	219.77	12.96	-29.5	-32.4	19.1	6.06e-01	0	43	102	524288	20	5014
2026-01-25 13:30:03.99	220.24	13.20	-29.5	-32.4	19.1	6.05e-01	0	43	102	524288	20	5028
2026-01-25 13:30:07.00	220.73	13.44	-29.3	-32.0	19.4	6.06e-01	0	43	102	524288	20	4870
2026-01-25 13:30:10.01	221.22	13.67	-29.3	-31.8	19.5	6.07e-01	0	43	102	524288	20	4831
2026-01-25 13:30:13.02	221.72	13.91	-29.3	-31.8	19.5	6.05e-01	0	43	102	524288	20	4806
2026-01-25 13:30:16.04	222.23	14.16	-29.4	-32.2	19.3	6.04e-01	0	43	102	524288	20	4945
2026-01-25 13:30:19.05	222.75	14.40	-29.4	-32.1	19.3	6.06e-01	0	43	102	524288	20	4927
2026-01-25 13:30:22.06	223.27	14.64	-29.5	-32.4	19.2	6.04e-01	0	43	102	524288	20	5004
2026-01-25 13:30:25.08	223.81	14.88	-29.3	-31.8	19.6	6.06e-01	0	43	102	524288	20	4796
2026-01-25 13:30:28.08	224.35	15.12	-29.2	-31.5	19.7	6.05e-01	0	43	102	524288	20	4713
2026-01-25 13:30:31.09	224.91	15.36	-29.1	-31.2	19.9	6.05e-01	0	43	102	524288	20	4610
2026-01-25 13:30:34.09	225.47	15.61	-29.1	-31.4	19.8	6.07e-01	0	43	102	524288	20	4672
2026-01-25 13:30:37.11	226.04	15.85	-29.2	-31.6	19.7	6.06e-01	0	43	102	524288	20	4739
2026-01-25 13:30:40.13	226.63	16.09	-29.4	-32.0	19.5	6.04e-01	0	43	102	524288	20	4858
2026-01-25 13:30:43.14	227.22	16.34	-29.2	-31.4	19.8	6.06e-01	0	43	102	524288	20	4682
2026-01-25 13:30:46.14	227.82	16.58	-29.1	-31.3	19.9	6.05e-01	0	43	102	524288	20	4624
2026-01-25 13:30:49.15	228.43	16.82	-29.1	-31.2	20.0	6.05e-01	0	43	102	524288	20	4587
2026-01-25 13:30:52.16	229.05	17.06	-29.2	-31.6	19.8	6.07e-01	0	43	102	524288	20	4721
2026-01-25 13:30:55.18	229.69	17.31	-29.1	-31.4	19.9	6.06e-01	0	43	102	524288	20	4664
2026-01-25 13:30:58.17	230.33	17.54	-29.1	-31.3	20.0	6.05e-01	0	43	102	524288	20	4621
2026-01-25 13:31:01.19	230.98	17.79	-29.1	-31.2	20.1	6.07e-01	0	43	102	524288	20	4593
2026-01-25 13:31:04.18	231.64	18.02	-29.1	-31.1	20.2	6.03e-01	0	43	102	524288	20	4564
2026-01-25 13:31:07.20	232.32	18.26	-29.1	-31.3	20.1	6.06e-01	0	43	102	524288	20	4607
2026-01-25 13:31:10.22	233.01	18.50	-29.2	-31.5	20.0	6.03e-01	0	43	102	524288	20	4673
2026-01-25 13:31:13.23	233.71	18.74	-29.1	-31.3	20.1	6.06e-01	0	43	102	524288	20	4616
2026-01-25 13:31:16.24	234.42	18.97	-29.1	-31.2	20.2	6.05e-01	0	43	102	524288	20	4570
2026-01-25 13:31:19.25	235.14	19.20	-29.3	-31.7	19.9	6.07e-01	0	43	102	524288	20	4736
2026-01-25 13:31:22.26	235.87	19.43	-29.1	-31.3	20.2	6.06e-01	0	43	102	524288	20	4597
2026-01-25 13:31:25.27	236.62	19.66	-29.1	-31.2	20.2	6.05e-01	0	43	102	524288	20	4570
2026-01-25 13:31:28.29	237.37	19.89	-29.2	-31.5	20.0	6.05e-01	0	43	102	524288	20	4675
2026-01-25 13:31:31.31	238.14	20.11	-29.2	-31.4	20.1	6.07e-01	0	43	102	524288	20	4644
2026-01-25 13:31:34.32	238.92	20.33	-29.1	-31.2	20.2	6.06e-01	0	43	102	524288	20	4566
2026-01-25 13:31:37.33	239.71	20.55	-29.2	-31.5	20.1	6.04e-01	0	43	102	524288	20	4649
2026-01-25 13:31:40.35	240.51	20.76	-29.3	-31.7	20.0	6.08e-01	0	43	102	524288	20	4721
2026-01-25 13:31:43.37	241.33	20.97	-29.4	-32.0	19.8	6.06e-01	0	43	102	524288	20	4832
2026-01-25 13:31:46.39	242.15	21.18	-29.5	-32.2	19.7	6.05e-01	0	43	102	524288	20	4890
2026-01-25 13:31:49.39	242.98	21.38	-29.5	-32.1	19.7	6.08e-01	0	43	102	524288	20	4879
2026-01-25 13:31:52.41	243.83	21.58	-29.7	-32.6	19.5	6.06e-01	0	43	102	524288	20	5033
2026-01-25 13:31:55.41	244.69	21.78	-29.2	-31.4	20.2	6.06e-01	0	43	102	524288	20	4620
2026-01-25 13:31:58.44	245.56	21.97	-29.4	-31.8	19.9	6.06e-01	0	44	102	524288	20	4761
2026-01-25 13:32:01.45	246.44	22.15	-29.4	-31.9	19.9	6.07e-01	0	43	102	524288	20	4791
2026-01-25 13:32:04.46	247.33	22.33	-29.5	-32.0	19.8	6.07e-01	0	43	102	524288	20	4829
2026-01-25 13:32:07.47	248.23	22.50	-29.5	-32.1	19.8	6.06e-01	0	43	102	524288	20	4867
2026-01-25 13:32:10.49	249.14	22.67	-29.4	-31.9	19.9	6.07e-01	0	43	102	524288	20	4804
2026-01-25 13:32:13.50	250.06	22.83	-29.6	-32.3	19.7	6.04e-01	0	43	102	524288	20	4931
2026-01-25 13:32:16.53	251.00	22.99	-30.0	-33.3	19.1	6.06e-01	0	43	102	524288	20	5288
2026-01-25 13:32:19.55	251.94	23.14	-29.9	-33.1	19.2	6.06e-01	0	44	102	524288	20	5229
2026-01-25 13:32:22.56	252.89	23.28	-29.9	-33.1	19.2	6.05e-01	0	43	102	524288	20	5209
2026-01-25 13:32:25.57	253.84	23.42	-30.2	-33.5	18.6	6.06e-01	0	43	102	524288	21	5260
2026-01-25 13:32:28.59	254.81	23.54	-29.6	-31.9	19.6	6.06e-01	0	43	102	524288	21	4685
2026-01-25 13:32:31.60	255.78	23.66	-29.5	-31.6	19.8	6.05e-01	0	43	102	524288	21	4573
2026-01-25 13:32:34.60	256.76	23.78	-29.5	-31.6	19.8	6.08e-01	0	43	102	524288	21	4589
2026-01-25 13:32:37.61	257.75	23.88	-29.8	-32.2	19.5	6.06e-01	0	43	102	524288	21	4783
2026-01-25 13:32:40.63	258.74	23.98	-29.9	-32.5	19.3	6.07e-01	0	43	102	524288	21	4890
2026-01-25 13:32:43.64	259.74	24.07	-29.7	-32.2	19.4	6.06e-01	0	43	102	524288	21	4768
2026-01-25 13:32:46.66	260.75	24.15	-29.8	-32.3	19.3	6.05e-01	0	43	102	524288	21	4810
2026-01-25 13:32:49.68	261.76	24.22	-29.6	-31.7	19.7	6.05e-01	0	43	102	524288	21	4620
2026-01-25 13:32:52.67	262.77	24.28	-29.6	-31.7	19.7	6.06e-01	0	43	102	524288	21	4624
2026-01-25 13:32:55.68	263.78	24.33	-29.6	-31.8	19.8	6.05e-01	0	43	102	524288	21	4641
2026-01-25 13:32:58.68	264.80	24.38	-29.6	-31.7	19.9	6.06e-01	0	43	102	524288	21	4605
2026-01-25 13:33:01.69	265.83	24.41	-29.7	-32.0	19.7	6.05e-01	0	43	102	524288	21	4692
2026-01-25 13:33:04.71	266.85	24.44	-29.5	-31.6	19.9	6.06e-01	0	43	102	524288	21	4556
2026-01-25 13:33:07.73	267.88	24.46	-29.6	-31.9	19.7	6.06e-01	0	43	102	524288	21	4677
2026-01-25 13:33:10.75	268.91	24.47	-29.9	-32.5	19.3	6.05e-01	0	43	102	524288	21	4853
2026-01-25 13:33:13.76	269.94	24.46	-29.9	-32.5	19.3	6.05e-01	0	43	102	524288	21	4858
2026-01-25 13:33:16.78	270.97	24.45	-29.8	-32.3	19.2	6.05e-01	0	43	102	524288	21	4812
2026-01-25 13:33:19.78	271.99	24.43	-29.6	-31.8	19.5	6.06e-01	0	43	102	524288	21	4648
2026-01-25 13:33:22.81	273.02	24.40	-29.5	-31.7	19.9	6.06e-01	0	43	102	524288	21	4590
2026-01-25 13:33:25.82	274.05	24.37	-29.8	-32.4	19.5	6.06e-01	0	43	102	524288	21	4829
2026-01-25 13:33:28.84	275.07	24.32	-29.7	-32.0	19.7	6.04e-01	0	43	102	524288	21	4701
2026-01-25 13:33:31.84	276.08	24.26	-30.0	-32.8	19.2	6.06e-01	0	43	102	524288	21	4964
2026-01-25 13:33:34.85	277.09	24.20	-29.5	-31.6	19.9	6.07e-01	0	43	102	524288	21	4569
2026-01-25 13:33:37.87	278.10	24.13	-29.5	-31.6	19.8	6.07e-01	0	43	102	524288	21	4581
2026-01-25 13:33:40.88	279.10	24.04	-29.6	-31.9	19.7	6.06e-01	0	43	102	524288	21	4663
2026-01-25 13:33:43.88	280.09	23.95	-29.6	-31.8	19.8	6.05e-01	0	43	102	524288	21	4636
2026-01-25 13:33:46.90	281.09	23.86	-29.6	-31.8	19.8	6.06e-01	0	43	102	524288	21	4639
2026-01-25 13:33:49.90	282.07	23.75	-29.6	-31.7	19.8	6.04e-01	0	43	102	524288	21	4616
2026-01-25 13:33:52.91	283.04	23.64	-29.8	-32.3	19.5	6.05e-01	0	43	102	524288	21	4799
2026-01-25 13:33:55.92	284.01	23.51	-29.6	-31.8	19.8	6.07e-01	0	43	102	524288	21	4653
2026-01-25 13:33:58.94	284.97	23.38	-29.5	-31.6	19.9	6.08e-01	0	43	102	524288	21	4569
2026-01-25 13:34:01.95	285.92	23.25	-29.7	-32.1	19.6	6.06e-01	0	44	102	524288	21	4726
2026-01-25 13:34:04.96	286.87	23.10	-29.6	-31.8	19.8	6.07e-01	0	44	102	524288	21	4626
2026-01-25 13:34:07.97	287.80	22.95	-29.7	-32.0	19.6	6.04e-01	0	44	102	524288	21	4695
2026-01-25 13:34:10.99	288.73	22.80	-29.5	-31.6	19.8	6.05e-01	0	43	102	524288	21	4587
2026-01-25 13:34:14.01	289.64	22.63	-29.5	-31.5	19.9	6.05e-01	0	43	102	524288	21	4533
2026-01-25 13:34:17.02	290.55	22.47	-29.7	-32.0	19.6	6.04e-01	0	44	102	524288	21	4707
2026-01-25 13:34:20.03	291.44	22.29	-29.5	-31.6	19.9	6.03e-01	0	44	102	524288	21	4580
2026-01-25 13:34:23.04	292.32	22.11	-29.8	-32.3	19.4	6.05e-01	0	43	102	524288	21	4801
2026-01-25 13:34:26.06	293.20	21.93	-29.9	-32.7	19.2	6.06e-01	0	43	102	524288	21	4955
2026-01-25 13:34:29.08	294.06	21.74	-30.1	-33.2	18.9	6.06e-01	0	43	102	524288	21	5146
2026-01-25 13:34:32.09	294.92	21.54	-30.1	-33.1	18.9	6.03e-01	0	44	102	524288	21	5086
2026-01-25 13:34:35.09	295.75	21.35	-30.1	-33.3	18.8	6.06e-01	0	44	102	524288	21	5169
2026-01-25 13:34:38.09	296.58	21.15	-29.4	-31.4	19.9	6.03e-01	0	43	102	524288	21	4530
2026-01-25 13:34:41.10	297.40	20.94	-29.5	-31.5	19.9	6.07e-01	0	44	102	524288	21	4548
2026-01-25 13:34:44.11	298.20	20.73	-29.5	-31.5	19.9	6.08e-01	0	44	102	524288	21	4562
2026-01-25 13:34:47.12	299.00	20.52	-29.5	-31.5	19.8	6.06e-01	0	44	102	524288	21	4564
2026-01-25 13:34:50.14	299.78	20.30	-29.3	-31.7	20.1	6.06e-01	0	44	102	524288	20	4712
2026-01-25 13:34:53.16	300.55	20.08	-29.6	-32.3	19.7	6.08e-01	0	44	102	524288	20	4928
2026-01-25 13:34:56.17	301.31	19.86	-29.6	-32.2	19.7	6.05e-01	0	43	102	524288	20	4903
2026-01-25 13:34:59.18	302.06	19.63	-29.9	-33.1	19.1	6.05e-01	0	44	102	524288	20	5208
2026-01-25 13:35:02.20	302.80	19.40	-29.8	-32.8	19.3	6.04e-01	0	44	102	524288	20	5094
2026-01-25 13:35:05.21	303.53	19.18	-29.8	-32.5	19.2	6.05e-01	0	44	102	524288	21	4880
2026-01-25 13:35:08.24	304.25	18.94	-29.5	-31.6	19.8	6.03e-01	0	44	102	524288	21	4583
2026-01-25 13:35:11.24	304.95	18.71	-29.4	-31.3	19.9	6.08e-01	0	44	102	524288	21	4492
2026-01-25 13:35:14.24	305.64	18.48	-29.5	-32.1	19.7	6.08e-01	0	44	102	524288	20	4858
2026-01-25 13:35:17.25	306.32	18.24	-29.3	-31.6	20.0	6.06e-01	0	44	102	524288	20	4692
2026-01-25 13:35:20.26	306.99	18.01	-29.3	-31.6	20.0	6.04e-01	0	44	102	524288	20	4704
2026-01-25 13:35:23.26	307.65	17.77	-29.3	-31.6	20.0	6.06e-01	0	44	102	524288	20	4699
2026-01-25 13:35:26.28	308.30	17.53	-29.3	-31.7	19.9	6.05e-01	0	44	102	524288	20	4741
2026-01-25 13:35:29.29	308.94	17.29	-29.3	-31.7	19.9	6.06e-01	0	44	102	524288	20	4726
2026-01-25 13:35:32.30	309.57	17.05	-29.4	-32.0	19.8	6.07e-01	0	44	102	524288	20	4830
2026-01-25 13:35:35.31	310.18	16.81	-29.5	-32.2	19.6	6.05e-01	0	44	102	524288	20	4901
2026-01-25 13:35:38.32	310.79	16.57	-29.5	-32.2	19.5	6.07e-01	0	44	102	524288	20	4913
2026-01-25 13:35:41.33	311.39	16.33	-29.3	-31.6	19.8	6.05e-01	0	44	102	524288	20	4704
2026-01-25 13:35:44.34	311.97	16.09	-29.2	-31.5	19.7	6.04e-01	0	44	102	524288	20	4678
2026-01-25 13:35:47.35	312.55	15.85	-29.3	-31.6	19.6	6.06e-01	0	44	102	524288	20	4714
2026-01-25 13:35:50.36	313.12	15.61	-29.3	-31.7	19.5	6.07e-01	0	44	102	524288	20	4736
2026-01-25 13:35:53.38	313.68	15.37	-29.3	-31.7	19.5	6.05e-01	0	44	102	524288	20	4745
2026-01-25 13:35:56.41	314.23	15.12	-29.5	-32.1	19.3	6.07e-01	0	44	102	524288	20	4879
2026-01-25 13:35:59.42	314.77	14.88	-29.6	-32.4	19.1	6.07e-01	0	44	102	524288	20	4994
2026-01-25 13:36:02.43	315.30	14.65	-29.4	-31.9	19.4	6.04e-01	0	44	102	524288	20	4799
2026-01-25 13:36:05.44	315.83	14.41	-29.5	-32.1	19.2	6.05e-01	0	44	102	524288	20	4901
2026-01-25 13:36:08.46	316.34	14.17	-29.4	-31.9	19.5	6.04e-01	0	44	102	524288	20	4803
2026-01-25 13:36:11.47	316.85	13.93	-29.4	-32.0	19.5	6.06e-01	0	44	102	524288	20	4839
2026-01-25 13:36:14.48	317.34	13.69	-29.5	-32.2	19.3	6.04e-01	0	44	102	524288	20	4923
2026-01-25 13:36:17.49	317.83	13.46	-29.5	-32.1	19.4	6.06e-01	0	44	102	524288	20	4892
2026-01-25 13:36:20.50	318.31	13.22	-29.6	-32.4	19.3	6.08e-01	0	43	102	524288	20	4979
2026-01-25 13:36:23.52	318.79	12.98	-29.6	-32.5	19.1	6.06e-01	0	44	102	524288	20	5038
2026-01-25 13:36:26.54	319.25	12.75	-29.7	-32.7	19.0	6.04e-01	0	44	102	524288	20	5089
2026-01-25 13:36:29.55	319.71	12.52	-29.5	-32.4	19.2	6.04e-01	0	43	102	524288	20	4986
2026-01-25 13:36:32.56	320.16	12.28	-29.6	-32.4	19.0	6.04e-01	0	44	102	524288	20	5010
2026-01-25 13:36:35.57	320.60	12.05	-29.6	-32.7	18.8	6.05e-01	0	44	102	524288	20	5094
2026-01-25 13:36:38.59	321.04	11.82	-29.8	-33.0	18.6	6.04e-01	0	43	102	524288	20	5206
2026-01-25 13:36:41.61	321.47	11.59	-29.9	-33.4	18.2	6.06e-01	0	44	102	524288	20	5394
2026-01-25 13:36:44.62	321.89	11.37	-29.8	-33.2	18.4	6.01e-01	0	44	102	524288	20	5311
2026-01-25 13:36:47.64	322.31	11.14	-29.8	-33.0	18.4	6.02e-01	0	44	102	524288	20	5240
2026-01-25 13:36:50.64	322.71	10.91	-29.8	-33.0	18.3	6.01e-01	0	44	102	524288	20	5244
2026-01-25 13:36:53.66	323.12	10.69	-29.8	-33.1	18.2	5.98e-01	0	44	102	524288	20	5271
2026-01-25 13:36:56.68	323.51	10.46	-29.8	-33.1	18.2	6.01e-01	0	44	102	524288	20	5250
2026-01-25 13:36:59.70	323.90	10.24	-29.7	-32.9	18.3	6.03e-01	0	44	102	524288	20	5192
2026-01-25 13:37:02.72	324.29	10.02	-29.7	-33.0	18.3	6.02e-01	0	44	102	524288	20	5223
2026-01-25 13:37:05.74	324.66	9.80	-29.8	-33.2	18.2	6.00e-01	0	44	102	524288	20	5302
2026-01-25 13:37:08.75	325.03	9.58	-29.8	-33.3	18.0	6.03e-01	0	44	102	524288	20	5343
2026-01-25 13:37:11.75	325.40	9.36	-30.0	-33.9	18.0	6.01e-01	0	44	102	524288	20	5584
2026-01-25 13:37:14.77	325.76	9.15	-30.1	-33.5	17.8	6.02e-01	0	44	102	524288	21	5335
2026-01-25 13:37:17.78	326.11	8.93	-30.1	-33.5	17.6	6.00e-01	0	44	102	524288	21	5319
2026-01-25 13:37:20.79	326.46	8.72	-30.1	-33.5	17.7	6.00e-01	0	44	102	524288	21	5327
2026-01-25 13:37:23.79	326.80	8.51	-30.3	-34.1	17.1	6.01e-01	0	44	102	524288	21	5585
2026-01-25 13:37:26.81	327.14	8.29	-30.2	-33.9	17.4	6.00e-01	0	44	102	524288	21	5492
2026-01-25 13:37:29.82	327.48	8.08	-30.3	-34.0	17.2	6.00e-01	0	44	102	524288	21	5563
2026-01-25 13:37:32.84	327.81	7.87	-30.2	-33.9	17.1	6.00e-01	0	44	102	524288	21	5512
2026-01-25 13:37:35.86	328.13	7.66	-30.2	-33.9	17.2	6.01e-01	0	44	102	524288	21	5516
2026-01-25 13:37:38.87	328.45	7.46	-30.3	-34.1	17.0	6.00e-01	0	44	102	524288	21	5607
2026-01-25 13:37:41.89	328.76	7.25	-30.3	-34.3	16.8	5.97e-01	0	44	102	524288	21	5711
2026-01-25 13:37:44.89	329.07	7.05	-33.3	-49.3	4.0	7.41e-01	0	43	104	524288	27	22582

#Closed at: 2026-01-25 13:37:47
#Recorded file [0 MB]: D:/data/31010_260125_162841.dat