passes_logs/2026/01/25/R2M6_AANII_01/R2M6_AANII_01__20260125_091112_NOAA_21_JPSS-2_rec.log

#Pass ID: 20260125_091112_NOAA 21 (JPSS-2)
#Satellite: NOAA 21 (JPSS-2)
#Configuration: NOAA 21
#almurnet v.1.7.20240730
#Start time: 2026-01-25 09:11:13

#Version: 2.2.20231116
#Station: R2M6_AANII_01
#Location: 30.233357 lon 59.946436 lat
#TLE: 1 54234U 22150A   26024.45772595  .00000201  00000+0  11607-3 0  9996
#TLE: 2 54234  98.7508 325.2435 0000728 220.7365 139.3757 14.19538765166156

#Time	Az	El	Level	Level2	SNR	BER	BlckErr	Temp	State	Recorded	gain1	gain2
2026-01-25 09:11:13.39	125.19	7.03	-31.0	-36.0	4.4	1.42e+00	0	41	0	0	23	6439
2026-01-25 09:11:16.40	125.02	7.25	-30.8	-34.7	8.0	7.31e-02	0	41	102	1048576	23	5622
2026-01-25 09:11:19.42	124.85	7.47	-30.9	-35.3	7.9	5.93e-02	0	41	102	1048576	22	6017
2026-01-25 09:11:22.43	124.68	7.70	-30.2	-33.6	9.5	1.66e-02	0	41	102	1048576	21	5312
2026-01-25 09:11:25.44	124.51	7.92	-29.3	-31.8	11.5	1.47e-03	0	41	102	1048576	19	4828
2026-01-25 09:11:28.45	124.33	8.15	-28.6	-30.4	12.8	7.24e-05	0	42	102	1048576	18	4462
2026-01-25 09:11:31.46	124.15	8.38	-28.6	-30.4	12.8	3.12e-05	0	42	102	1048576	18	4451
2026-01-25 09:11:34.46	123.96	8.61	-28.2	-30.1	13.3	2.44e-05	0	42	102	1048576	17	4460
2026-01-25 09:11:37.48	123.77	8.84	-28.3	-30.1	13.3	1.52e-05	0	42	102	1048576	17	4450
2026-01-25 09:11:40.50	123.58	9.08	-28.2	-30.1	13.4	9.90e-06	0	42	102	1048576	17	4444
2026-01-25 09:11:43.51	123.39	9.31	-28.1	-29.8	13.5	1.29e-05	0	42	102	1048576	17	4354
2026-01-25 09:11:46.52	123.19	9.55	-28.2	-30.1	13.4	1.29e-05	0	42	102	1048576	17	4445
2026-01-25 09:11:49.54	122.99	9.79	-28.2	-29.9	13.5	1.14e-05	0	42	102	1048576	17	4396
2026-01-25 09:11:52.56	122.79	10.03	-28.1	-29.7	13.6	1.06e-05	0	42	102	1048576	17	4345
2026-01-25 09:11:55.56	122.58	10.28	-27.9	-29.2	14.0	3.80e-06	0	42	102	1048576	17	4190
2026-01-25 09:11:58.58	122.37	10.52	-27.8	-29.0	14.1	3.00e-06	0	42	102	1048576	17	4146
2026-01-25 09:12:01.59	122.15	10.77	-27.7	-29.2	14.3	0.00e+00	0	42	102	1048576	16	4292
2026-01-25 09:12:04.60	121.93	11.02	-27.7	-29.3	14.3	1.50e-06	0	42	102	1048576	16	4308
2026-01-25 09:12:07.62	121.71	11.28	-27.6	-29.0	14.4	7.00e-07	0	42	102	1048576	16	4225
2026-01-25 09:12:10.64	121.48	11.53	-27.6	-29.0	14.5	2.20e-06	0	42	102	1048576	16	4233
2026-01-25 09:12:13.66	121.25	11.79	-27.7	-29.2	14.4	7.00e-07	0	42	102	1048576	16	4292
2026-01-25 09:12:16.67	121.02	12.05	-27.7	-29.2	14.4	0.00e+00	0	43	102	1048576	16	4296
2026-01-25 09:12:19.68	120.78	12.31	-27.7	-29.3	14.3	0.00e+00	0	42	102	1048576	16	4326
2026-01-25 09:12:22.69	120.53	12.57	-27.5	-28.9	14.6	0.00e+00	0	42	102	1048576	16	4189
2026-01-25 09:12:25.71	120.28	12.84	-27.4	-28.5	14.8	7.00e-07	0	43	102	1048576	16	4102
2026-01-25 09:12:28.72	120.03	13.11	-27.3	-28.4	14.9	7.00e-07	0	43	102	1048576	16	4070
2026-01-25 09:12:31.73	119.77	13.38	-27.3	-28.3	15.0	0.00e+00	0	43	102	1048576	16	4050
2026-01-25 09:12:34.74	119.51	13.65	-27.2	-28.6	14.9	0.00e+00	0	43	102	1048576	15	4229
2026-01-25 09:12:37.74	119.24	13.93	-27.3	-28.9	14.8	0.00e+00	0	43	102	1048576	15	4308
2026-01-25 09:12:40.76	118.97	14.21	-27.5	-29.2	14.6	7.00e-07	0	43	102	1048576	15	4398
2026-01-25 09:12:43.76	118.69	14.49	-27.4	-29.0	14.8	0.00e+00	0	43	102	1048576	15	4345
2026-01-25 09:12:46.78	118.41	14.77	-27.3	-28.8	14.9	7.00e-07	0	43	102	1048576	15	4271
2026-01-25 09:12:49.79	118.12	15.06	-27.3	-28.8	15.0	0.00e+00	0	43	102	1048576	15	4262
2026-01-25 09:12:52.80	117.82	15.35	-27.2	-28.5	15.2	0.00e+00	0	43	102	1048576	15	4186
2026-01-25 09:12:55.80	117.52	15.64	-27.3	-28.8	15.0	7.00e-07	0	43	102	1048576	15	4274
2026-01-25 09:12:58.81	117.21	15.93	-27.4	-29.1	14.8	0.00e+00	0	43	102	1048576	15	4369
2026-01-25 09:13:01.83	116.90	16.23	-27.4	-29.0	14.9	0.00e+00	0	43	102	1048576	15	4324
2026-01-25 09:13:04.84	116.58	16.53	-27.3	-28.9	14.9	7.00e-07	0	43	102	1048576	15	4305
2026-01-25 09:13:07.85	116.25	16.83	-27.4	-29.1	14.8	0.00e+00	0	43	102	1048576	15	4374
2026-01-25 09:13:10.87	115.92	17.14	-27.4	-29.1	14.9	1.50e-06	0	43	102	1048576	15	4355
2026-01-25 09:13:13.88	115.58	17.44	-27.4	-29.0	15.0	0.00e+00	0	43	102	1048576	15	4324
2026-01-25 09:13:16.90	115.23	17.76	-27.5	-29.1	14.9	0.00e+00	0	43	102	1048576	15	4363
2026-01-25 09:13:19.92	114.87	18.07	-27.7	-29.6	14.7	7.00e-07	0	43	102	1048576	15	4505
2026-01-25 09:13:22.93	114.51	18.39	-27.6	-29.5	14.7	0.00e+00	0	43	102	1048576	15	4478
2026-01-25 09:13:25.93	114.14	18.70	-27.8	-30.0	14.4	7.00e-07	0	43	102	1048576	15	4646
2026-01-25 09:13:28.95	113.76	19.03	-27.3	-28.7	15.2	0.00e+00	0	43	102	1048576	15	4256
2026-01-25 09:13:31.97	113.37	19.35	-27.2	-28.4	15.3	0.00e+00	0	43	102	1048576	15	4177
2026-01-25 09:13:34.97	112.98	19.68	-27.1	-28.4	15.4	0.00e+00	0	43	102	1048576	15	4162
2026-01-25 09:13:37.99	112.57	20.01	-27.3	-28.7	15.2	0.00e+00	0	43	102	1048576	15	4234
2026-01-25 09:13:40.99	112.16	20.34	-27.1	-28.3	15.5	0.00e+00	0	43	102	1048576	15	4133
2026-01-25 09:13:44.00	111.74	20.68	-27.0	-28.1	15.6	0.00e+00	0	43	102	1048576	15	4072
2026-01-25 09:13:47.02	111.31	21.02	-26.8	-27.6	15.9	0.00e+00	0	43	102	1048576	15	3948
2026-01-25 09:13:50.04	110.87	21.36	-26.7	-28.0	16.0	0.00e+00	0	43	102	1048576	14	4145
2026-01-25 09:13:53.05	110.41	21.71	-26.7	-28.0	16.0	0.00e+00	0	43	102	1048576	14	4157
2026-01-25 09:13:56.07	109.95	22.06	-26.7	-27.9	16.0	0.00e+00	0	43	102	1048576	14	4132
2026-01-25 09:13:59.07	109.48	22.41	-26.5	-27.5	16.3	0.00e+00	0	43	102	1048576	14	4013
2026-01-25 09:14:02.09	108.99	22.76	-26.3	-26.9	16.6	0.00e+00	0	43	102	1048576	14	3871
2026-01-25 09:14:05.10	108.50	23.12	-26.3	-27.4	16.6	0.00e+00	0	43	102	1048576	13	4101
2026-01-25 09:14:08.13	107.99	23.48	-26.5	-27.8	16.4	0.00e+00	0	43	102	1048576	13	4214
2026-01-25 09:14:11.14	107.47	23.84	-26.4	-27.7	16.4	0.00e+00	0	43	102	1048576	13	4186
2026-01-25 09:14:14.14	106.94	24.20	-26.4	-27.7	16.5	0.00e+00	0	43	102	1048576	13	4170
2026-01-25 09:14:17.15	106.40	24.56	-26.4	-27.8	16.5	0.00e+00	0	43	102	1048576	13	4196
2026-01-25 09:14:20.18	105.84	24.93	-26.5	-27.9	16.4	7.00e-07	0	43	102	1048576	13	4231
2026-01-25 09:14:23.19	105.27	25.30	-26.6	-28.0	16.4	0.00e+00	0	43	102	1048576	13	4262
2026-01-25 09:14:26.21	104.69	25.68	-26.7	-28.3	16.2	0.00e+00	0	43	102	1048576	13	4328
2026-01-25 09:14:29.22	104.09	26.05	-26.6	-28.1	16.4	5.30e-06	0	43	102	1048576	13	4281
2026-01-25 09:14:32.24	103.48	26.43	-26.8	-28.6	16.1	0.00e+00	0	43	102	1048576	13	4410
2026-01-25 09:14:35.25	102.85	26.80	-27.0	-29.0	15.9	0.00e+00	0	43	102	1048576	13	4535
2026-01-25 09:14:38.26	102.21	27.18	-26.9	-28.8	16.0	0.00e+00	0	43	102	1048576	13	4477
2026-01-25 09:14:41.27	101.55	27.56	-26.9	-28.9	16.0	0.00e+00	0	43	102	1048576	13	4492
2026-01-25 09:14:44.28	100.88	27.94	-27.3	-29.3	15.5	0.00e+00	0	43	102	1048576	14	4504
2026-01-25 09:14:47.28	100.19	28.32	-27.7	-29.5	15.1	0.00e+00	0	43	102	1048576	15	4448
2026-01-25 09:14:50.28	99.49	28.70	-27.2	-28.5	15.7	0.00e+00	0	43	102	1048576	15	4162
2026-01-25 09:14:53.30	98.77	29.08	-27.0	-28.1	16.0	0.00e+00	0	43	102	1048576	15	4049
2026-01-25 09:14:56.32	98.02	29.47	-27.1	-28.1	15.9	0.00e+00	0	43	102	1048576	15	4069
2026-01-25 09:14:59.33	97.27	29.85	-27.4	-28.8	15.6	0.00e+00	0	43	102	1048576	15	4249
2026-01-25 09:15:02.34	96.49	30.23	-27.5	-29.2	15.3	0.00e+00	0	43	102	1048576	15	4373
2026-01-25 09:15:05.35	95.69	30.61	-27.7	-29.6	15.2	0.00e+00	0	43	102	1048576	15	4463
2026-01-25 09:15:08.36	94.88	30.98	-27.7	-29.6	15.2	0.00e+00	0	43	102	1048576	15	4479
2026-01-25 09:15:11.38	94.05	31.36	-27.7	-29.5	15.2	0.00e+00	0	43	102	1048576	15	4453
2026-01-25 09:15:14.39	93.19	31.73	-27.2	-28.4	15.8	0.00e+00	0	43	102	1048576	15	4132
2026-01-25 09:15:17.40	92.32	32.10	-27.3	-28.6	15.8	0.00e+00	0	43	102	1048576	15	4189
2026-01-25 09:15:20.39	91.43	32.47	-27.3	-28.6	15.8	0.00e+00	0	43	102	1048576	15	4175
2026-01-25 09:15:23.40	90.52	32.83	-27.5	-29.0	15.6	0.00e+00	0	43	102	1048576	15	4295
2026-01-25 09:15:26.41	89.59	33.19	-27.6	-29.3	15.4	0.00e+00	0	43	102	1048576	15	4369
2026-01-25 09:15:29.42	88.63	33.55	-27.7	-28.9	15.5	0.00e+00	0	43	102	1048576	16	4155
2026-01-25 09:15:32.43	87.66	33.90	-27.9	-29.3	15.3	0.00e+00	0	43	102	1048576	16	4258
2026-01-25 09:15:35.44	86.66	34.24	-27.8	-29.1	15.4	0.00e+00	0	43	102	1048576	16	4202
2026-01-25 09:15:38.45	85.64	34.58	-28.1	-29.8	15.1	0.00e+00	0	43	102	1048576	16	4403
2026-01-25 09:15:41.47	84.60	34.91	-28.0	-29.6	15.2	0.00e+00	0	43	102	1048576	16	4336
2026-01-25 09:15:44.49	83.54	35.24	-28.2	-30.1	14.9	0.00e+00	0	43	102	1048576	16	4469
2026-01-25 09:15:47.51	82.45	35.56	-28.3	-30.3	14.8	0.00e+00	0	43	102	1048576	16	4539
2026-01-25 09:15:50.51	81.35	35.86	-28.1	-29.8	15.1	0.00e+00	0	43	102	1048576	16	4398
2026-01-25 09:15:53.52	80.23	36.16	-28.4	-30.6	14.6	0.00e+00	0	43	102	1048576	16	4643
2026-01-25 09:15:56.54	79.08	36.45	-28.4	-30.1	14.6	7.00e-07	0	43	102	1048576	17	4359
2026-01-25 09:15:59.55	77.92	36.72	-28.8	-31.1	14.0	1.50e-06	0	43	102	1048576	17	4688
2026-01-25 09:16:02.57	76.73	36.99	-28.9	-31.3	14.0	5.30e-06	0	43	102	1048576	17	4734
2026-01-25 09:16:05.58	75.53	37.24	-29.4	-31.5	13.3	2.82e-05	0	43	102	1048576	19	4581
2026-01-25 09:16:08.59	74.31	37.48	-28.8	-29.9	14.1	1.50e-06	0	44	102	1048576	19	4112
2026-01-25 09:16:11.60	73.08	37.71	-28.6	-30.0	14.4	0.00e+00	0	44	102	1048576	18	4230
2026-01-25 09:16:14.62	71.82	37.92	-28.9	-30.6	14.1	2.20e-06	0	44	102	1048576	18	4412
2026-01-25 09:16:17.63	70.55	38.12	-28.9	-30.7	14.1	7.00e-07	0	43	102	1048576	18	4426
2026-01-25 09:16:20.64	69.26	38.30	-28.8	-30.3	14.3	1.50e-06	0	43	102	1048576	18	4326
2026-01-25 09:16:23.66	67.96	38.47	-28.7	-30.3	14.3	3.00e-06	0	44	102	1048576	18	4303
2026-01-25 09:16:26.69	66.64	38.62	-28.9	-30.7	14.2	3.00e-06	0	43	102	1048576	18	4423
2026-01-25 09:16:29.70	65.32	38.75	-28.5	-29.8	14.7	7.00e-07	0	44	102	1048576	18	4157
2026-01-25 09:16:32.72	63.98	38.87	-29.3	-31.6	13.6	6.10e-06	0	44	102	1048576	18	4701
2026-01-25 09:16:35.73	62.64	38.97	-29.6	-31.8	13.1	2.97e-05	0	43	102	1048576	19	4671
2026-01-25 09:16:38.74	61.29	39.05	-29.2	-30.8	13.8	3.00e-06	0	43	102	1048576	19	4355
2026-01-25 09:16:41.76	59.93	39.11	-29.6	-31.8	13.2	2.28e-05	0	43	102	1048576	19	4649
2026-01-25 09:16:44.77	58.57	39.16	-29.5	-31.6	13.2	1.90e-05	0	43	102	1048576	19	4603
2026-01-25 09:16:47.78	57.21	39.18	-29.8	-32.4	12.8	4.11e-05	0	43	102	1048576	19	4858
2026-01-25 09:16:50.80	55.84	39.19	-29.3	-31.1	13.6	1.06e-05	0	43	102	1048576	19	4453
2026-01-25 09:16:53.82	54.47	39.18	-29.0	-30.4	14.0	1.50e-06	0	43	102	1048576	19	4225
2026-01-25 09:16:56.83	53.11	39.15	-29.3	-31.2	13.5	6.80e-06	0	44	102	1048576	19	4476
2026-01-25 09:16:59.84	51.75	39.10	-29.2	-30.9	13.7	9.10e-06	0	43	102	1048576	19	4387
2026-01-25 09:17:02.84	50.40	39.04	-29.5	-31.6	13.3	1.29e-05	0	44	102	1048576	19	4585
2026-01-25 09:17:05.86	49.05	38.95	-28.7	-30.3	14.3	1.50e-06	0	43	102	1048576	18	4304
2026-01-25 09:17:08.88	47.71	38.85	-28.8	-30.5	14.2	2.20e-06	0	43	102	1048576	18	4363
2026-01-25 09:17:11.90	46.37	38.73	-29.1	-31.1	13.8	4.50e-06	0	43	102	1048576	18	4558
2026-01-25 09:17:14.91	45.05	38.60	-29.1	-31.3	13.8	3.80e-06	0	43	102	1048576	18	4596
2026-01-25 09:17:17.93	43.74	38.45	-28.9	-30.7	14.2	6.10e-06	0	43	102	1048576	18	4414
2026-01-25 09:17:20.94	42.44	38.28	-28.9	-30.8	14.1	1.50e-06	0	43	102	1048576	18	4447
2026-01-25 09:17:23.95	41.16	38.09	-29.4	-31.8	13.4	2.13e-05	0	43	102	1048576	18	4786
2026-01-25 09:17:26.97	39.89	37.89	-29.1	-31.3	13.7	7.60e-06	0	44	102	1048576	18	4598
2026-01-25 09:17:29.99	38.64	37.68	-29.1	-31.2	13.8	3.00e-06	0	43	102	1048576	18	4570
2026-01-25 09:17:32.99	37.41	37.45	-29.8	-32.5	12.7	7.85e-05	0	44	102	1048576	19	4889
2026-01-25 09:17:35.99	36.20	37.21	-28.5	-29.7	14.7	0.00e+00	0	43	102	1048576	18	4136
2026-01-25 09:17:39.01	35.00	36.96	-29.2	-31.4	13.7	9.90e-06	0	43	102	1048576	18	4646
2026-01-25 09:17:42.03	33.81	36.69	-29.4	-31.8	13.4	9.90e-06	0	44	102	1048576	18	4782
2026-01-25 09:17:45.05	32.65	36.42	-28.8	-30.5	14.1	1.50e-06	0	43	102	1048576	18	4371
2026-01-25 09:17:48.06	31.52	36.13	-28.9	-30.8	14.0	2.20e-06	0	44	102	1048576	18	4451
2026-01-25 09:17:51.06	30.40	35.83	-28.3	-29.7	14.9	0.00e+00	0	43	102	1048576	17	4251
2026-01-25 09:17:54.07	29.30	35.53	-29.0	-31.4	13.9	8.30e-06	0	43	102	1048576	17	4768
2026-01-25 09:17:57.10	28.22	35.21	-28.5	-29.8	14.5	7.00e-07	0	44	102	1048576	18	4171
2026-01-25 09:18:00.12	27.16	34.88	-28.5	-29.8	14.6	1.50e-06	0	44	102	1048576	18	4171
2026-01-25 09:18:03.13	26.13	34.55	-29.5	-31.8	13.1	2.74e-05	0	43	102	1048576	19	4658
2026-01-25 09:18:06.15	25.11	34.21	-29.0	-30.4	13.9	3.00e-06	0	43	102	1048576	19	4238
2026-01-25 09:18:09.16	24.12	33.87	-30.0	-32.5	12.3	2.08e-04	0	43	102	1048576	20	4802
2026-01-25 09:18:12.18	23.15	33.52	-30.2	-33.1	11.9	4.97e-04	0	43	102	1048576	20	4995
2026-01-25 09:18:15.18	22.20	33.17	-28.7	-30.3	14.2	2.20e-06	0	44	102	1048576	18	4317
2026-01-25 09:18:18.19	21.28	32.81	-28.8	-30.5	14.1	1.50e-06	0	44	102	1048576	18	4390
2026-01-25 09:18:21.21	20.37	32.44	-28.6	-30.0	14.4	0.00e+00	0	43	102	1048576	18	4240
2026-01-25 09:18:24.23	19.48	32.07	-27.3	-28.0	16.0	0.00e+00	0	44	102	1048576	16	3916
2026-01-25 09:18:27.24	18.61	31.70	-27.3	-28.6	15.8	0.00e+00	0	44	102	1048576	15	4172
2026-01-25 09:18:30.26	17.76	31.33	-27.8	-29.8	15.1	0.00e+00	0	43	102	1048576	15	4520
2026-01-25 09:18:33.26	16.93	30.96	-27.6	-29.3	15.4	0.00e+00	0	43	102	1048576	15	4360
2026-01-25 09:18:36.28	16.12	30.58	-27.6	-29.2	15.5	0.00e+00	0	44	102	1048576	15	4343
2026-01-25 09:18:39.29	15.33	30.20	-27.4	-28.8	15.7	0.00e+00	0	43	102	1048576	15	4230
2026-01-25 09:18:42.31	14.56	29.82	-27.2	-28.3	15.9	0.00e+00	0	44	102	1048576	15	4101
2026-01-25 09:18:45.32	13.81	29.44	-27.6	-29.3	15.4	0.00e+00	0	44	102	1048576	15	4382
2026-01-25 09:18:48.34	13.07	29.06	-28.0	-30.1	14.9	7.00e-07	0	44	102	1048576	15	4605
2026-01-25 09:18:51.34	12.36	28.68	-27.3	-28.1	15.8	0.00e+00	0	44	102	1048576	16	3951
2026-01-25 09:18:54.35	11.66	28.30	-27.0	-27.9	16.1	0.00e+00	0	44	102	1048576	15	3992
2026-01-25 09:18:57.37	10.97	27.92	-27.3	-28.6	15.7	7.00e-07	0	44	102	1048576	15	4174
2026-01-25 09:19:00.38	10.30	27.54	-27.1	-28.2	15.9	0.00e+00	0	44	102	1048576	15	4080
2026-01-25 09:19:03.40	9.65	27.17	-27.2	-28.4	15.7	0.00e+00	0	44	102	1048576	15	4133
2026-01-25 09:19:06.42	9.01	26.79	-27.3	-28.7	15.6	0.00e+00	0	44	102	1048576	15	4213
2026-01-25 09:19:09.44	8.39	26.41	-27.7	-29.5	15.1	0.00e+00	0	44	102	1048576	15	4456
2026-01-25 09:19:12.44	7.78	26.04	-27.0	-28.0	15.9	0.00e+00	0	44	102	1048576	15	4042
2026-01-25 09:19:15.45	7.19	25.67	-26.9	-27.7	16.0	0.00e+00	0	44	102	1048576	15	3961
2026-01-25 09:19:18.46	6.61	25.30	-27.0	-28.0	15.9	0.00e+00	0	43	102	1048576	15	4022
2026-01-25 09:19:21.47	6.05	24.93	-27.4	-28.9	15.3	0.00e+00	0	44	102	1048576	15	4281
2026-01-25 09:19:24.48	5.50	24.56	-27.2	-28.4	15.6	0.00e+00	0	43	102	1048576	15	4148
2026-01-25 09:19:27.49	4.96	24.20	-27.1	-28.3	15.7	0.00e+00	0	43	102	1048576	15	4114
2026-01-25 09:19:30.50	4.43	23.84	-26.5	-27.4	16.4	0.00e+00	0	44	102	1048576	14	3988
2026-01-25 09:19:33.51	3.92	23.48	-26.7	-27.8	16.3	0.00e+00	0	44	102	1048576	14	4078
2026-01-25 09:19:36.52	3.42	23.13	-27.0	-28.6	15.8	0.00e+00	0	44	102	1048576	14	4306
2026-01-25 09:19:39.52	2.93	22.77	-27.0	-28.4	15.8	0.00e+00	0	43	102	1048576	14	4259
2026-01-25 09:19:42.54	2.45	22.42	-26.7	-27.9	16.1	0.00e+00	0	43	102	1048576	14	4122
2026-01-25 09:19:45.54	1.98	22.07	-26.8	-28.0	16.0	0.00e+00	0	43	102	1048576	14	4150
2026-01-25 09:19:48.54	1.52	21.73	-27.0	-28.4	15.8	0.00e+00	0	44	102	1048576	14	4263
2026-01-25 09:19:51.55	1.07	21.39	-27.1	-28.8	15.6	0.00e+00	0	44	102	1048576	14	4368
2026-01-25 09:19:54.56	0.64	21.05	-27.1	-28.7	15.6	0.00e+00	0	44	102	1048576	14	4333
2026-01-25 09:19:57.57	0.21	20.71	-26.8	-28.1	15.9	0.00e+00	0	43	102	1048576	14	4180
2026-01-25 09:20:00.56	359.79	20.38	-27.1	-28.6	15.6	0.00e+00	0	43	102	1048576	14	4319
2026-01-25 09:20:03.58	359.38	20.04	-26.9	-28.2	15.9	0.00e+00	0	44	102	1048576	14	4192
2026-01-25 09:20:06.59	358.98	19.71	-26.8	-28.0	16.0	0.00e+00	0	44	102	1048576	14	4140
2026-01-25 09:20:09.60	358.59	19.39	-26.8	-28.0	16.0	0.00e+00	0	44	102	1048576	14	4135
2026-01-25 09:20:12.61	358.21	19.06	-26.7	-27.8	16.1	0.00e+00	0	43	102	1048576	14	4093
2026-01-25 09:20:15.62	357.83	18.74	-26.8	-28.1	15.9	0.00e+00	0	43	102	1048576	14	4187
2026-01-25 09:20:18.63	357.46	18.43	-26.9	-28.4	15.8	0.00e+00	0	44	102	1048576	14	4245
2026-01-25 09:20:21.64	357.11	18.11	-27.1	-28.8	15.5	0.00e+00	0	44	102	1048576	14	4374
2026-01-25 09:20:24.65	356.75	17.80	-27.3	-29.2	15.3	0.00e+00	0	43	102	1048576	14	4491
2026-01-25 09:20:27.66	356.41	17.49	-27.3	-29.2	15.2	0.00e+00	0	44	102	1048576	14	4498
2026-01-25 09:20:30.67	356.07	17.18	-27.3	-29.2	15.2	7.00e-07	0	44	102	1048576	14	4473
2026-01-25 09:20:33.68	355.74	16.88	-26.9	-28.3	15.7	0.00e+00	0	43	102	1048576	14	4230
2026-01-25 09:20:36.69	355.42	16.58	-26.8	-28.1	15.8	7.00e-07	0	44	102	1048576	14	4189
2026-01-25 09:20:39.71	355.10	16.28	-26.8	-28.1	15.8	0.00e+00	0	44	102	1048576	14	4183
2026-01-25 09:20:42.72	354.79	15.98	-27.1	-28.7	15.5	0.00e+00	0	43	102	1048576	14	4354
2026-01-25 09:20:45.73	354.49	15.69	-27.3	-29.3	15.1	0.00e+00	0	44	102	1048576	14	4510
2026-01-25 09:20:48.74	354.19	15.40	-27.5	-29.6	14.9	0.00e+00	0	43	102	1048576	14	4600
2026-01-25 09:20:51.76	353.89	15.11	-27.4	-29.0	15.0	0.00e+00	0	44	102	1048576	15	4309
2026-01-25 09:20:54.77	353.61	14.83	-27.3	-28.8	15.0	7.00e-07	0	43	102	1048576	15	4279
2026-01-25 09:20:57.78	353.33	14.55	-27.3	-28.8	15.1	0.00e+00	0	44	102	1048576	15	4260
2026-01-25 09:21:00.79	353.05	14.27	-27.2	-28.4	15.2	0.00e+00	0	44	102	1048576	15	4168
2026-01-25 09:21:03.81	352.78	13.99	-27.3	-28.7	15.0	7.00e-07	0	44	102	1048576	15	4246
2026-01-25 09:21:06.82	352.52	13.71	-27.6	-29.4	14.7	7.00e-07	0	43	102	1048576	15	4436
2026-01-25 09:21:09.84	352.26	13.44	-27.5	-29.3	14.7	0.00e+00	0	44	102	1048576	15	4404
2026-01-25 09:21:12.85	352.00	13.17	-27.6	-29.6	14.5	0.00e+00	0	43	102	1048576	15	4491
2026-01-25 09:21:15.86	351.75	12.90	-27.6	-29.5	14.5	3.00e-06	0	43	102	1048576	15	4486
2026-01-25 09:21:18.86	351.51	12.64	-27.5	-29.2	14.7	0.00e+00	0	44	102	1048576	15	4379
2026-01-25 09:21:21.88	351.26	12.38	-27.5	-29.3	14.6	0.00e+00	0	44	102	1048576	15	4424
2026-01-25 09:21:24.90	351.03	12.12	-27.7	-29.7	14.4	0.00e+00	0	44	102	1048576	15	4531
2026-01-25 09:21:27.91	350.79	11.86	-27.8	-30.0	14.1	2.20e-06	0	44	102	1048576	15	4636
2026-01-25 09:21:30.93	350.57	11.60	-27.8	-30.0	14.2	7.00e-07	0	44	102	1048576	15	4629
2026-01-25 09:21:33.94	350.34	11.35	-28.0	-30.4	13.9	4.50e-06	0	44	102	1048576	15	4748
2026-01-25 09:21:36.95	350.12	11.09	-27.9	-30.2	14.0	2.20e-06	0	44	102	1048576	15	4703
2026-01-25 09:21:39.97	349.91	10.84	-28.3	-30.6	13.6	8.30e-06	0	44	102	1048576	16	4703
2026-01-25 09:21:42.98	349.69	10.60	-28.2	-30.5	13.7	6.10e-06	0	44	102	1048576	16	4657
2026-01-25 09:21:45.98	349.49	10.35	-28.3	-30.7	13.5	8.30e-06	0	44	102	1048576	16	4726
2026-01-25 09:21:48.99	349.28	10.11	-28.5	-30.7	13.2	1.44e-05	0	44	102	1048576	17	4619
2026-01-25 09:21:52.01	349.08	9.87	-28.8	-31.3	12.8	6.94e-05	0	44	102	1048576	17	4839
2026-01-25 09:21:55.03	348.88	9.63	-28.5	-30.7	13.1	3.35e-05	0	44	102	1048576	17	4631
2026-01-25 09:21:58.04	348.69	9.39	-28.5	-30.8	13.1	3.50e-05	0	44	102	1048576	17	4653
2026-01-25 09:22:01.05	348.50	9.15	-28.6	-31.0	12.9	3.81e-05	0	44	102	1048576	17	4725
2026-01-25 09:22:04.05	348.31	8.92	-28.7	-31.1	12.8	4.80e-05	0	44	102	1048576	17	4766
2026-01-25 09:22:07.07	348.12	8.69	-28.7	-31.2	12.7	8.69e-05	0	44	102	1048576	17	4802
2026-01-25 09:22:10.09	347.94	8.46	-28.9	-31.8	12.3	1.56e-04	0	44	102	1048576	17	4990
2026-01-25 09:22:13.08	347.77	8.23	-29.0	-31.3	12.3	1.72e-04	0	44	102	1048576	18	4732
2026-01-25 09:22:16.10	347.59	8.01	-29.0	-31.4	12.2	1.78e-04	0	44	102	1048576	18	4766
2026-01-25 09:22:19.10	347.42	7.78	-29.0	-31.5	12.2	2.33e-04	0	44	102	1048576	18	4794
2026-01-25 09:22:22.12	347.25	7.56	-29.1	-31.8	11.9	3.31e-04	0	44	102	1048576	18	4917
2026-01-25 09:22:25.14	347.08	7.34	-29.2	-31.9	11.9	4.23e-04	0	44	102	1048576	18	4943
2026-01-25 09:22:28.15	346.91	7.12	-29.5	-32.7	11.4	4.72e-04	0	44	102	1048576	18	5249

#Closed at: 2026-01-25 09:22:30
#Recorded file [1 MB]: D:/data/31010_260125_121115.dat