passes_logs/2026/01/25/R2M6_AANII_01/R2M6_AANII_01__20260125_000805_NOAA_20_JPSS-1_rec.log

#Pass ID: 20260125_000805_NOAA 20 (JPSS-1)
#Satellite: NOAA 20 (JPSS-1)
#Configuration: NOAA 20
#almurnet v.1.7.20240730
#Start time: 2026-01-25 00:08:06

#Version: 2.2.20231116
#Station: R2M6_AANII_01
#Location: 30.233357 lon 59.946436 lat
#TLE: 1 43013U 17073A   26024.42258823  .00000183  00000+0  10747-3 0  9990
#TLE: 2 43013  98.7646 325.2629 0001105  25.8644 334.2587 14.19539754424075

#Time	Az	El	Level	Level2	SNR	BER	BlckErr	Temp	State	Recorded	gain1	gain2
2026-01-25 00:08:06.92	19.29	7.09	-31.1	-36.8	5.2	1.26e+00	0	41	0	0	22	6969
2026-01-25 00:08:09.93	19.34	7.33	-31.2	-37.2	8.3	4.60e-02	0	41	102	1048576	22	7167
2026-01-25 00:08:12.95	19.38	7.56	-31.2	-37.0	8.5	4.35e-02	0	42	102	1048576	22	7010
2026-01-25 00:08:15.96	19.43	7.80	-30.6	-35.3	10.2	9.78e-03	0	42	102	1048576	21	6164
2026-01-25 00:08:18.98	19.48	8.04	-30.2	-34.4	11.3	1.30e-03	0	41	102	1048576	20	5829
2026-01-25 00:08:22.00	19.53	8.28	-30.0	-33.7	11.8	4.67e-04	0	42	102	1048576	20	5539
2026-01-25 00:08:25.01	19.58	8.52	-30.4	-35.2	10.7	2.15e-03	0	42	102	1048576	20	6241
2026-01-25 00:08:28.02	19.63	8.77	-30.0	-33.6	11.9	5.32e-04	0	42	102	1048576	20	5481
2026-01-25 00:08:31.04	19.68	9.01	-29.9	-33.7	12.2	4.58e-04	0	42	102	1048576	19	5624
2026-01-25 00:08:34.05	19.73	9.27	-29.7	-33.4	12.5	3.42e-04	0	42	102	1048576	19	5473
2026-01-25 00:08:37.06	19.79	9.52	-29.7	-33.2	12.7	3.23e-04	0	42	102	1048576	19	5390
2026-01-25 00:08:40.07	19.84	9.77	-29.8	-33.6	12.4	3.67e-04	0	42	102	1048576	19	5543
2026-01-25 00:08:43.07	19.89	10.03	-29.6	-32.9	13.0	4.11e-05	0	42	102	1048576	19	5249
2026-01-25 00:08:46.07	19.95	10.29	-29.5	-32.7	13.1	1.98e-04	0	42	102	1048576	19	5170
2026-01-25 00:08:49.09	20.00	10.55	-29.5	-32.6	12.8	1.86e-04	0	42	102	1048576	19	5139
2026-01-25 00:08:52.10	20.06	10.82	-29.7	-33.3	12.7	2.15e-04	0	42	102	1048576	19	5411
2026-01-25 00:08:55.11	20.12	11.09	-29.7	-33.1	12.9	1.91e-04	0	43	102	1048576	19	5326
2026-01-25 00:08:58.11	20.17	11.36	-29.8	-33.3	12.7	1.78e-04	0	43	102	1048576	19	5402
2026-01-25 00:09:01.11	20.23	11.64	-29.7	-33.2	12.9	6.19e-04	0	43	102	1048576	19	5358
2026-01-25 00:09:04.12	20.29	11.91	-29.5	-32.5	13.3	4.43e-04	0	43	102	1048576	19	5113
2026-01-25 00:09:07.13	20.35	12.20	-29.8	-33.3	12.8	5.32e-04	0	43	102	1048576	19	5392
2026-01-25 00:09:10.14	20.41	12.48	-29.2	-31.8	13.8	6.10e-06	0	43	102	1048576	19	4851
2026-01-25 00:09:13.16	20.48	12.77	-29.3	-32.4	13.8	2.05e-05	0	43	102	1048576	18	5145
2026-01-25 00:09:16.17	20.54	13.06	-29.3	-32.6	13.7	1.60e-05	0	43	102	1048576	18	5225
2026-01-25 00:09:19.18	20.60	13.36	-29.3	-32.5	13.7	4.71e-04	0	43	102	1048576	18	5210
2026-01-25 00:09:22.19	20.67	13.66	-29.5	-32.6	13.4	4.71e-04	0	43	102	1048576	19	5111
2026-01-25 00:09:25.20	20.74	13.96	-29.5	-32.4	13.5	6.63e-04	0	43	102	1048576	19	5042
2026-01-25 00:09:28.20	20.80	14.26	-29.5	-32.5	13.5	6.30e-04	0	43	102	1048576	19	5069
2026-01-25 00:09:31.20	20.87	14.57	-29.4	-32.7	13.6	8.48e-04	0	43	102	1048576	18	5273
2026-01-25 00:09:34.22	20.94	14.89	-29.4	-32.7	13.7	6.92e-04	0	43	102	1048576	18	5245
2026-01-25 00:09:37.23	21.01	15.21	-29.8	-33.3	13.0	9.27e-04	0	43	102	1048576	19	5363
2026-01-25 00:09:40.24	21.09	15.53	-29.6	-32.6	13.5	7.36e-04	0	43	102	1048576	19	5099
2026-01-25 00:09:43.25	21.16	15.85	-29.6	-32.8	13.4	9.24e-04	0	43	102	1048576	19	5168
2026-01-25 00:09:46.27	21.24	16.19	-29.6	-32.6	13.5	6.48e-04	0	43	102	1048576	19	5089
2026-01-25 00:09:49.28	21.31	16.52	-29.7	-32.8	12.7	6.64e-04	0	43	102	1048576	19	5170
2026-01-25 00:09:52.28	21.39	16.86	-29.7	-33.0	13.2	1.29e-05	0	43	102	1048576	19	5252
2026-01-25 00:09:55.29	21.47	17.21	-29.9	-33.4	13.1	1.98e-05	0	43	102	1048576	19	5388
2026-01-25 00:09:58.32	21.55	17.56	-29.9	-33.6	13.0	2.14e-03	0	43	102	1048576	19	5462
2026-01-25 00:10:01.31	21.63	17.91	-30.1	-33.7	12.5	6.32e-04	0	43	102	1048576	20	5419
2026-01-25 00:10:04.31	21.72	18.27	-30.2	-34.0	12.3	6.43e-04	0	43	102	1048576	20	5530
2026-01-25 00:10:07.32	21.80	18.64	-30.5	-34.2	11.8	4.20e-04	0	43	102	1048576	21	5504
2026-01-25 00:10:10.34	21.89	19.01	-30.4	-34.4	12.0	3.21e-04	0	43	102	1048576	20	5718
2026-01-25 00:10:13.36	21.98	19.39	-30.2	-33.9	12.4	1.62e-04	0	43	102	1048576	20	5493
2026-01-25 00:10:16.37	22.07	19.77	-30.2	-33.9	12.4	2.11e-03	0	43	102	1048576	20	5519
2026-01-25 00:10:19.38	22.16	20.16	-30.3	-34.1	12.3	1.95e-03	0	43	102	1048576	20	5567
2026-01-25 00:10:22.40	22.26	20.55	-30.3	-34.1	12.3	1.95e-03	0	43	102	1048576	20	5567
2026-01-25 00:10:25.41	22.36	20.95	-30.5	-34.1	11.9	2.22e-03	0	43	102	1048576	21	5481
2026-01-25 00:10:28.42	22.46	21.36	-30.3	-34.0	12.4	1.73e-03	0	43	102	1048576	20	5536
2026-01-25 00:10:31.43	22.56	21.77	-30.2	-33.7	12.6	1.88e-03	0	43	102	1048576	20	5399
2026-01-25 00:10:34.45	22.67	22.20	-30.3	-33.9	12.5	1.96e-03	0	43	102	1048576	20	5506
2026-01-25 00:10:37.46	22.77	22.62	-30.3	-34.2	12.3	2.04e-03	0	44	102	1048576	20	5597
2026-01-25 00:10:40.48	22.88	23.06	-30.5	-34.2	12.0	2.25e-03	0	43	102	1048576	21	5488
2026-01-25 00:10:43.49	23.00	23.50	-30.0	-33.2	13.0	2.21e-03	0	43	102	1048576	20	5192
2026-01-25 00:10:46.50	23.11	23.95	-30.1	-33.3	12.9	2.39e-03	0	44	102	1048576	20	5241
2026-01-25 00:10:49.51	23.23	24.41	-29.7	-32.9	13.7	2.49e-04	0	43	102	1048576	19	5160
2026-01-25 00:10:52.53	23.35	24.88	-29.7	-32.7	13.8	2.11e-04	0	43	102	1048576	19	5092
2026-01-25 00:10:55.54	23.48	25.35	-29.8	-33.1	13.5	1.92e-04	0	44	102	1048576	19	5236
2026-01-25 00:10:58.56	23.61	25.84	-30.0	-33.1	13.1	2.30e-04	0	43	102	1048576	20	5152
2026-01-25 00:11:01.57	23.74	26.33	-30.1	-33.5	12.8	2.34e-03	0	43	102	1048576	20	5323
2026-01-25 00:11:04.58	23.88	26.83	-30.4	-34.2	12.4	2.34e-03	0	44	102	1048576	20	5616
2026-01-25 00:11:07.60	24.02	27.34	-30.7	-34.6	11.7	3.24e-04	0	43	102	1048576	21	5680
2026-01-25 00:11:10.60	24.16	27.86	-30.7	-34.7	11.7	5.39e-04	0	43	102	1048576	21	5723
2026-01-25 00:11:13.61	24.31	28.39	-31.0	-35.0	11.2	1.56e-03	0	44	102	1048576	22	5705
2026-01-25 00:11:16.63	24.46	28.93	-31.1	-35.5	10.8	2.41e-03	0	43	102	1048576	22	5962
2026-01-25 00:11:19.63	24.62	29.48	-30.9	-34.9	11.3	1.40e-03	0	44	102	1048576	22	5661
2026-01-25 00:11:22.64	24.78	30.04	-30.6	-34.4	12.0	3.06e-04	0	44	102	1048576	21	5562
2026-01-25 00:11:25.66	24.95	30.61	-30.7	-34.7	11.8	4.23e-04	0	43	102	1048576	21	5679
2026-01-25 00:11:28.65	25.13	31.19	-30.1	-34.3	11.4	9.80e-04	0	43	102	1048576	21	5872
2026-01-25 00:11:31.67	25.31	31.78	-30.9	-35.2	11.4	9.22e-04	0	44	102	1048576	21	5919
2026-01-25 00:11:34.68	25.49	32.39	-30.9	-35.1	11.5	6.94e-04	0	44	102	1048576	21	5862
2026-01-25 00:11:37.70	25.69	33.01	-30.8	-34.9	11.7	6.32e-04	0	44	102	1048576	21	5777
2026-01-25 00:11:40.72	25.89	33.64	-30.5	-34.1	12.3	2.28e-04	0	44	102	1048576	21	5404
2026-01-25 00:11:43.73	26.10	34.29	-30.3	-33.5	12.7	8.92e-05	0	44	102	1048576	21	5174
2026-01-25 00:11:46.75	26.32	34.95	-30.0	-32.6	13.3	3.12e-05	0	43	102	1048576	21	4856
2026-01-25 00:11:49.75	26.54	35.62	-30.0	-32.6	13.3	1.29e-05	0	44	102	1048576	21	4850
2026-01-25 00:11:52.76	26.77	36.30	-30.1	-32.9	13.2	2.67e-05	0	43	102	1048576	21	4935
2026-01-25 00:11:55.77	27.02	37.00	-30.1	-32.8	13.3	1.37e-05	0	43	102	1048576	21	4887
2026-01-25 00:11:58.80	27.27	37.72	-30.3	-33.3	12.9	3.05e-05	0	44	102	1048576	21	5089
2026-01-25 00:12:01.80	27.53	38.45	-30.4	-33.5	12.8	5.95e-05	0	43	102	1048576	21	5166
2026-01-25 00:12:04.82	27.81	39.19	-30.5	-34.0	12.5	1.17e-04	0	44	102	1048576	21	5348
2026-01-25 00:12:07.84	28.10	39.96	-30.8	-34.6	12.0	1.90e-04	0	44	102	1048576	21	5620
2026-01-25 00:12:10.86	28.40	40.74	-31.1	-35.2	11.3	9.09e-04	0	44	102	1048576	22	5750
2026-01-25 00:12:13.88	28.72	41.53	-30.7	-33.9	12.3	5.61e-04	0	44	102	1048576	22	5191
2026-01-25 00:12:16.89	29.05	42.34	-30.5	-33.7	12.7	4.31e-04	0	43	102	1048576	21	5242
2026-01-25 00:12:19.89	29.40	43.17	-30.8	-34.8	12.0	2.87e-04	0	44	102	1048576	21	5696
2026-01-25 00:12:22.90	29.77	44.01	-30.9	-34.9	11.9	4.02e-04	0	44	102	1048576	21	5720
2026-01-25 00:12:25.91	30.15	44.87	-30.6	-34.2	12.4	4.29e-04	0	44	102	1048576	21	5440
2026-01-25 00:12:28.92	30.56	45.75	-30.9	-35.0	11.9	5.41e-04	0	44	102	1048576	21	5755
2026-01-25 00:12:31.94	30.99	46.65	-30.6	-34.2	12.5	5.79e-04	0	44	102	1048576	21	5407
2026-01-25 00:12:34.92	31.44	47.56	-30.9	-35.1	11.8	1.60e-03	0	44	102	1048576	21	5806
2026-01-25 00:12:37.92	31.92	48.49	-31.0	-34.7	11.8	8.72e-04	0	44	102	1048576	22	5538
2026-01-25 00:12:40.93	32.44	49.44	-30.1	-33.2	13.5	1.60e-05	0	44	102	1048576	20	5150
2026-01-25 00:12:43.93	32.98	50.41	-29.5	-32.0	14.7	0.00e+00	0	44	102	1048576	19	4795
2026-01-25 00:12:46.94	33.56	51.40	-28.6	-30.8	16.0	0.00e+00	0	44	102	1048576	17	4622
2026-01-25 00:12:49.95	34.18	52.40	-28.1	-30.1	16.7	1.10e-03	0	44	102	1048576	16	4522
2026-01-25 00:12:52.96	34.84	53.43	-27.5	-29.3	17.3	0.00e+00	0	43	102	1048576	15	4424
2026-01-25 00:12:55.97	35.55	54.47	-27.5	-29.2	17.3	0.00e+00	0	44	102	1048576	15	4374
2026-01-25 00:12:58.98	36.31	55.52	-27.6	-29.4	17.2	0.00e+00	0	43	102	1048576	15	4456
2026-01-25 00:13:02.00	37.13	56.60	-28.8	-31.3	15.8	0.00e+00	0	43	102	1048576	17	4807
2026-01-25 00:13:05.01	38.02	57.69	-28.7	-30.5	16.0	0.00e+00	0	44	102	1048576	18	4442
2026-01-25 00:13:08.02	38.99	58.79	-27.9	-29.5	17.1	0.00e+00	0	44	102	1048576	16	4360
2026-01-25 00:13:11.04	40.03	59.91	-27.6	-29.5	17.2	0.00e+00	0	43	102	1048576	15	4470
2026-01-25 00:13:14.05	41.18	61.04	-27.1	-28.8	17.9	0.00e+00	0	44	102	1048576	14	4390
2026-01-25 00:13:17.08	42.43	62.18	-26.7	-28.3	18.4	0.00e+00	0	44	102	1048576	13	4360
2026-01-25 00:13:20.08	43.79	63.32	-26.9	-29.0	18.2	0.00e+00	0	44	102	1048576	13	4539
2026-01-25 00:13:23.09	45.30	64.46	-27.8	-30.0	17.1	7.00e-07	0	43	102	1048576	15	4623
2026-01-25 00:13:26.09	46.96	65.61	-28.9	-31.5	15.8	0.00e+00	0	44	102	1048576	17	4830
2026-01-25 00:13:29.09	48.80	66.75	-30.0	-32.8	14.1	0.00e+00	0	44	102	1048576	20	4956
2026-01-25 00:13:32.10	50.85	67.88	-30.7	-34.1	12.9	3.58e-05	0	43	102	1048576	21	5335
2026-01-25 00:13:35.11	53.14	69.00	-30.6	-33.9	13.0	3.50e-05	0	44	102	1048576	21	5235
2026-01-25 00:13:38.12	55.71	70.10	-30.3	-33.6	13.6	9.10e-06	0	44	102	1048576	20	5248
2026-01-25 00:13:41.13	58.59	71.17	-30.5	-33.6	13.3	3.73e-05	0	44	102	1048576	21	5150
2026-01-25 00:13:44.12	61.81	72.20	-31.4	-35.6	11.7	6.42e-04	0	44	102	1048576	22	5864
2026-01-25 00:13:47.14	65.48	73.18	-30.8	-33.9	12.8	1.88e-04	0	44	102	1048576	22	5158
2026-01-25 00:13:50.15	69.59	74.09	-30.6	-33.7	13.3	1.75e-05	0	44	102	1048576	21	5179
2026-01-25 00:13:53.17	74.21	74.93	-30.3	-33.5	13.7	1.44e-05	0	44	102	1048576	20	5211
2026-01-25 00:13:56.18	79.35	75.66	-31.3	-35.4	11.9	2.17e-04	0	43	102	1048576	22	5749
2026-01-25 00:13:59.19	85.01	76.28	-31.0	-34.4	12.6	1.17e-04	0	44	102	1048576	22	5319
2026-01-25 00:14:02.21	91.18	76.75	-31.8	-36.5	10.7	2.88e-03	0	44	102	1048576	23	6199
2026-01-25 00:14:05.22	97.72	77.07	-31.5	-35.5	11.5	6.99e-04	0	44	102	1048576	23	5704
2026-01-25 00:14:08.23	104.50	77.22	-31.4	-35.6	11.1	1.88e-03	0	44	102	1048576	23	5825
2026-01-25 00:14:11.25	111.37	77.19	-31.6	-35.8	11.3	1.56e-03	0	44	102	1048576	23	5808
2026-01-25 00:14:14.27	118.12	76.99	-31.5	-35.2	11.7	8.44e-04	0	44	102	1048576	23	5527
2026-01-25 00:14:17.27	124.53	76.62	-31.6	-35.8	11.2	7.54e-04	0	44	102	1048576	23	5881
2026-01-25 00:14:20.27	130.52	76.10	-31.4	-36.3	10.4	2.90e-03	0	44	102	1048576	23	6332
2026-01-25 00:14:23.29	136.04	75.45	-32.4	-38.3	9.0	3.80e-02	0	44	102	1048576	24	7105
2026-01-25 00:14:26.30	141.02	74.68	-31.8	-38.0	8.6	3.81e-02	0	44	102	1048576	24	7366
2026-01-25 00:14:29.31	145.48	73.82	-30.7	-34.7	12.0	6.73e-04	0	44	102	1048576	22	5684
2026-01-25 00:14:32.32	149.45	72.88	-30.7	-33.4	13.3	8.16e-05	0	44	102	1048576	22	4937
2026-01-25 00:14:35.33	152.98	71.88	-29.8	-32.6	14.3	2.20e-06	0	44	102	1048576	20	4970
2026-01-25 00:14:38.35	156.12	70.83	-29.3	-32.0	14.9	7.00e-07	0	44	102	1048576	19	4918
2026-01-25 00:14:41.36	158.90	69.75	-30.2	-32.8	14.0	1.87e-04	0	44	102	1048576	21	4818
2026-01-25 00:14:44.37	161.38	68.64	-31.3	-35.4	12.0	2.56e-04	0	44	102	1048576	22	5754
2026-01-25 00:14:47.39	163.60	67.51	-32.0	-36.7	10.2	7.90e-03	0	44	102	1048576	24	6180
2026-01-25 00:14:50.39	165.58	66.37	-31.0	-34.3	12.6	3.12e-04	0	44	102	1048576	22	5286
2026-01-25 00:14:53.41	167.37	65.22	-30.3	-32.9	13.9	2.20e-06	0	44	102	1048576	21	4862
2026-01-25 00:14:56.42	168.98	64.07	-28.7	-30.4	16.4	0.00e+00	0	44	102	1048576	18	4380
2026-01-25 00:14:59.45	170.45	62.92	-27.9	-29.4	17.5	0.00e+00	0	44	102	1048576	16	4312
2026-01-25 00:15:02.45	171.77	61.78	-29.7	-32.3	14.9	0.00e+00	0	44	102	1048576	19	4875
2026-01-25 00:15:05.47	172.99	60.64	-29.1	-30.7	15.8	0.00e+00	0	44	102	1048576	19	4370
2026-01-25 00:15:08.49	174.10	59.51	-31.3	-35.4	11.8	7.00e-04	0	44	102	1048576	22	5743
2026-01-25 00:15:11.51	175.12	58.39	-30.8	-33.8	12.9	9.90e-06	0	44	102	1048576	22	5101
2026-01-25 00:15:14.53	176.06	57.29	-30.8	-34.0	12.7	4.22e-04	0	44	102	1048576	22	5158
2026-01-25 00:15:17.55	176.93	56.20	-28.6	-30.1	16.5	0.00e+00	0	44	102	1048576	18	4296
2026-01-25 00:15:20.57	177.73	55.12	-29.4	-31.6	15.2	7.48e-04	0	44	102	1048576	19	4655
2026-01-25 00:15:23.57	178.48	54.07	-28.6	-30.6	16.4	1.16e-03	0	44	102	1048576	17	4542
2026-01-25 00:15:26.58	179.17	53.03	-29.9	-32.9	14.5	6.78e-04	0	44	102	1048576	19	5083
2026-01-25 00:15:29.60	179.82	52.01	-31.2	-35.2	11.8	4.87e-04	0	44	102	1048576	22	5697
2026-01-25 00:15:32.61	180.42	51.00	-31.9	-36.9	10.1	6.08e-03	0	44	102	1048576	23	6435
2026-01-25 00:15:35.63	180.99	50.01	-32.8	-39.7	7.2	1.40e-01	0	44	102	1048576	25	7974
2026-01-25 00:15:38.64	181.52	49.05	-32.9	-39.9	6.8	2.13e-01	0	44	102	1048576	26	8012
2026-01-25 00:15:41.64	182.02	48.10	-32.0	-36.3	9.9	1.94e-02	0	44	102	1048576	25	5923
2026-01-25 00:15:44.65	182.49	47.17	-32.1	-37.2	9.6	1.23e-02	0	44	102	1048576	24	6483
2026-01-25 00:15:47.66	182.94	46.26	-31.8	-36.3	10.2	2.34e-02	0	44	102	1048576	24	6006
2026-01-25 00:15:50.68	183.36	45.36	-29.8	-31.8	14.3	4.50e-06	0	44	102	1048576	21	4524
2026-01-25 00:15:53.69	183.76	44.48	-29.8	-32.6	14.5	3.80e-06	0	44	102	1048576	19	5004
2026-01-25 00:15:56.70	184.14	43.63	-30.6	-33.8	13.0	6.40e-05	0	44	102	1048576	21	5245
2026-01-25 00:15:59.71	184.50	42.79	-30.0	-32.4	13.9	1.83e-05	0	44	102	1048576	21	4718
2026-01-25 00:16:02.72	184.84	41.96	-28.7	-30.3	16.1	0.00e+00	0	44	102	1048576	18	4355
2026-01-25 00:16:05.74	185.17	41.15	-29.2	-31.8	15.3	0.00e+00	0	44	102	1048576	18	4816
2026-01-25 00:16:08.75	185.48	40.36	-30.2	-33.3	13.6	7.60e-06	0	44	102	1048576	20	5157
2026-01-25 00:16:11.77	185.77	39.59	-30.2	-33.5	13.5	1.98e-05	0	44	102	1048576	20	5215
2026-01-25 00:16:14.77	186.06	38.83	-30.5	-33.6	13.1	1.12e-04	0	44	102	1048576	21	5159
2026-01-25 00:16:17.77	186.33	38.09	-30.6	-34.1	12.7	4.42e-05	0	44	102	1048576	21	5347
2026-01-25 00:16:20.79	186.59	37.36	-31.3	-35.7	11.2	1.06e-03	0	44	102	1048576	22	5969
2026-01-25 00:16:23.81	186.84	36.65	-31.2	-35.4	11.4	1.56e-03	0	44	102	1048576	22	5808
2026-01-25 00:16:26.82	187.08	35.95	-30.3	-33.3	13.2	2.97e-05	0	44	102	1048576	21	5052
2026-01-25 00:16:29.82	187.30	35.27	-30.3	-33.8	13.2	9.99e-05	0	44	102	1048576	20	5347
2026-01-25 00:16:32.83	187.52	34.60	-30.6	-34.1	12.6	1.80e-04	0	44	102	1048576	21	5374
2026-01-25 00:16:35.84	187.74	33.95	-31.5	-36.1	10.5	3.21e-03	0	44	102	1048576	23	6068
2026-01-25 00:16:38.86	187.94	33.30	-32.1	-37.7	8.8	3.33e-02	0	44	102	1048576	24	6873
2026-01-25 00:16:41.87	188.14	32.67	-31.7	-36.5	10.1	1.31e-02	0	44	102	1048576	23	6298
2026-01-25 00:16:44.87	188.33	32.06	-31.2	-35.5	11.3	1.96e-03	0	44	102	1048576	22	5869
2026-01-25 00:16:47.88	188.51	31.46	-31.4	-35.9	11.0	2.64e-03	0	44	102	1048576	22	6062
2026-01-25 00:16:50.89	188.69	30.86	-31.1	-35.1	11.5	2.47e-03	0	44	102	1048576	22	5721
2026-01-25 00:16:53.90	188.86	30.28	-31.2	-35.4	11.3	2.69e-03	0	44	102	1048576	22	5847
2026-01-25 00:16:56.91	189.03	29.71	-31.0	-35.2	11.7	2.48e-03	0	44	102	1048576	21	5877
2026-01-25 00:16:59.92	189.19	29.15	-30.6	-34.3	12.4	2.27e-03	0	44	102	1048576	21	5454
2026-01-25 00:17:02.94	189.34	28.61	-30.3	-33.9	13.0	3.58e-05	0	44	102	1048576	20	5402
2026-01-25 00:17:05.96	189.49	28.07	-30.1	-33.1	13.5	2.31e-03	0	44	102	1048576	20	5110
2026-01-25 00:17:08.97	189.64	27.54	-29.8	-32.9	14.1	2.05e-03	0	44	102	1048576	19	5136
2026-01-25 00:17:11.99	189.78	27.02	-29.7	-32.5	14.3	2.28e-03	0	44	102	1048576	19	4995
2026-01-25 00:17:15.00	189.92	26.51	-29.6	-32.4	14.3	2.25e-03	0	44	102	1048576	19	4970
2026-01-25 00:17:18.01	190.05	26.01	-29.6	-32.4	14.3	0.00e+00	0	44	102	1048576	19	4962
2026-01-25 00:17:21.01	190.18	25.52	-29.7	-32.6	14.2	7.00e-07	0	44	102	1048576	19	5025
2026-01-25 00:17:24.03	190.31	25.04	-29.7	-32.6	14.2	7.00e-07	0	44	102	1048576	19	5042
2026-01-25 00:17:27.04	190.43	24.57	-29.5	-32.0	14.5	0.00e+00	0	44	102	1048576	19	4832
2026-01-25 00:17:30.07	190.55	24.10	-29.2	-31.8	15.0	0.00e+00	0	44	102	1048576	18	4881
2026-01-25 00:17:33.09	190.66	23.64	-29.0	-31.5	15.1	0.00e+00	0	44	102	1048576	18	4764
2026-01-25 00:17:36.09	190.78	23.20	-28.9	-31.5	15.4	0.00e+00	0	44	102	1048576	17	4892
2026-01-25 00:17:39.10	190.89	22.76	-29.1	-31.7	15.0	0.00e+00	0	44	102	1048576	18	4839
2026-01-25 00:17:42.11	190.99	22.32	-28.9	-31.2	15.3	0.00e+00	0	44	102	1048576	18	4676
2026-01-25 00:17:45.13	191.10	21.89	-28.9	-31.7	15.0	0.00e+00	0	44	102	1048576	17	4960
2026-01-25 00:17:48.13	191.20	21.48	-29.3	-32.1	14.7	0.00e+00	0	44	102	1048576	18	4983
2026-01-25 00:17:51.13	191.30	21.06	-29.3	-32.3	14.6	1.50e-06	0	44	102	1048576	18	5048
2026-01-25 00:17:54.14	191.40	20.66	-29.4	-32.0	14.4	1.50e-06	0	44	102	1048576	19	4856
2026-01-25 00:17:57.15	191.49	20.26	-29.3	-31.8	14.5	1.43e-04	0	44	102	1048576	19	4780
2026-01-25 00:18:00.16	191.59	19.87	-29.5	-32.3	14.2	1.50e-06	0	44	102	1048576	19	4931
2026-01-25 00:18:03.16	191.68	19.48	-29.5	-32.3	14.2	3.00e-06	0	44	102	1048576	19	4966
2026-01-25 00:18:06.18	191.77	19.10	-29.7	-32.7	13.9	3.80e-06	0	44	102	1048576	19	5077
2026-01-25 00:18:09.18	191.85	18.72	-29.9	-33.2	13.6	4.50e-06	0	44	102	1048576	19	5270
2026-01-25 00:18:12.18	191.94	18.35	-30.2	-33.7	12.9	3.66e-05	0	44	102	1048576	20	5399
2026-01-25 00:18:15.21	192.02	17.99	-29.8	-32.6	13.6	4.73e-05	0	44	102	1048576	20	4945
2026-01-25 00:18:18.22	192.10	17.63	-29.8	-33.0	13.6	1.14e-04	0	44	102	1048576	19	5212
2026-01-25 00:18:21.23	192.18	17.27	-29.7	-32.7	13.8	5.64e-05	0	44	102	1048576	19	5112
2026-01-25 00:18:24.24	192.26	16.92	-29.6	-32.6	13.9	1.10e-04	0	44	102	1048576	19	5070
2026-01-25 00:18:27.25	192.34	16.58	-29.7	-32.8	13.7	2.03e-04	0	44	102	1048576	19	5147
2026-01-25 00:18:30.26	192.41	16.24	-29.9	-33.3	13.4	2.67e-05	0	44	102	1048576	19	5322
2026-01-25 00:18:33.27	192.49	15.90	-29.8	-33.0	13.6	3.81e-05	0	44	102	1048576	19	5211
2026-01-25 00:18:36.29	192.56	15.57	-29.7	-32.9	13.6	8.23e-05	0	44	102	1048576	19	5185
2026-01-25 00:18:39.30	192.63	15.25	-29.8	-33.0	13.5	6.63e-05	0	44	102	1048576	19	5232
2026-01-25 00:18:42.32	192.70	14.92	-29.7	-32.8	13.7	1.30e-04	0	44	102	1048576	19	5146
2026-01-25 00:18:45.33	192.77	14.60	-29.6	-32.7	13.7	1.50e-04	0	44	102	1048576	19	5126
2026-01-25 00:18:48.33	192.84	14.29	-29.6	-32.6	13.7	9.30e-05	0	44	102	1048576	19	5080
2026-01-25 00:18:51.36	192.90	13.98	-29.7	-32.9	13.5	5.03e-05	0	44	102	1048576	19	5216
2026-01-25 00:18:54.38	192.97	13.67	-29.8	-33.2	13.3	1.40e-04	0	44	102	1048576	19	5314
2026-01-25 00:18:57.40	193.03	13.37	-29.8	-33.2	13.3	1.14e-04	0	44	102	1048576	19	5303
2026-01-25 00:19:00.40	193.09	13.07	-29.9	-33.4	13.1	2.17e-04	0	44	102	1048576	19	5404
2026-01-25 00:19:03.41	193.16	12.78	-29.8	-33.1	13.3	7.55e-05	0	44	102	1048576	19	5276
2026-01-25 00:19:06.42	193.22	12.49	-29.8	-33.3	13.1	1.15e-04	0	44	102	1048576	19	5357
2026-01-25 00:19:09.44	193.28	12.20	-29.8	-33.3	13.1	1.11e-04	0	44	102	1048576	19	5380
2026-01-25 00:19:12.45	193.33	11.91	-29.9	-33.6	12.9	1.51e-04	0	44	102	1048576	19	5497
2026-01-25 00:19:15.46	193.39	11.63	-29.9	-33.2	12.8	5.95e-05	0	44	102	1048576	20	5230
2026-01-25 00:19:18.46	193.45	11.36	-29.9	-33.2	12.7	7.47e-05	0	44	102	1048576	20	5246
2026-01-25 00:19:21.47	193.50	11.08	-29.7	-32.9	12.7	8.23e-05	0	44	102	1048576	20	5251
2026-01-25 00:19:24.49	193.56	10.81	-30.0	-33.5	11.9	2.09e-04	0	44	102	1048576	20	5346
2026-01-25 00:19:27.51	193.61	10.54	-30.1	-33.6	12.3	2.55e-04	0	44	102	1048576	20	5407
2026-01-25 00:19:30.52	193.67	10.27	-30.1	-33.7	12.3	2.50e-04	0	44	102	1048576	20	5431
2026-01-25 00:19:33.52	193.72	10.01	-30.2	-34.0	12.1	2.40e-04	0	44	102	1048576	20	5562
2026-01-25 00:19:36.53	193.77	9.75	-30.4	-34.6	11.6	6.51e-04	0	44	102	1048576	20	5866
2026-01-25 00:19:39.54	193.82	9.49	-30.5	-34.9	11.4	1.10e-03	0	44	102	1048576	20	5972
2026-01-25 00:19:42.55	193.87	9.24	-30.3	-34.3	11.7	2.17e-03	0	44	102	1048576	20	5740
2026-01-25 00:19:45.57	193.92	8.98	-30.1	-33.7	12.2	2.14e-03	0	44	102	1048576	20	5478
2026-01-25 00:19:48.58	193.97	8.73	-29.6	-33.2	12.1	1.99e-03	0	44	102	1048576	20	5452
2026-01-25 00:19:51.59	194.02	8.49	-30.1	-33.9	12.0	1.95e-03	0	44	102	1048576	20	5568
2026-01-25 00:19:54.59	194.07	8.24	-30.0	-33.4	12.3	2.08e-04	0	44	102	1048576	20	5370
2026-01-25 00:19:57.61	194.11	8.00	-30.0	-33.6	12.1	3.56e-04	0	44	102	1048576	20	5456
2026-01-25 00:20:00.62	194.16	7.76	-30.1	-33.9	11.9	2.28e-03	0	44	102	1048576	20	5599
2026-01-25 00:20:03.63	194.20	7.52	-30.2	-34.3	11.6	2.77e-03	0	44	102	1048576	20	5780
2026-01-25 00:20:06.64	194.25	7.29	-30.1	-34.2	11.6	2.60e-03	0	44	102	1048576	20	5711
2026-01-25 00:20:09.65	194.29	7.05	-32.8	-47.1	3.8	4.36e-01	0	44	104	1048576	25	18644

#Closed at: 2026-01-25 00:20:11
#Recorded file [1 MB]: D:/data/31010_260125_030808.dat