passes_logs/2026/01/25/R2M6_AANII_01/R2M6_AANII_01__20260125_103904_FENGYUN_3D_rec.log

#Pass ID: 20260125_103904_FENGYUN 3D
#Satellite: FENGYUN 3D
#Configuration: FENGYUN 3D
#almurnet v.1.7.20240730
#Start time: 2026-01-25 10:39:05

#Version: 2.2.20231116
#Station: R2M6_AANII_01
#Location: 30.233357 lon 59.946436 lat
#TLE: 1 43010U 17072A   26024.51794477  .00000040  00000+0  40682-4 0  9990
#TLE: 2 43010  98.9961 356.4820 0002494  91.2631 268.8830 14.19699550424601

#Time	Az	El	Level	Level2	SNR	BER	BlckErr	Temp	State	Recorded	gain1	gain2
2026-01-25 10:39:05.83	106.54	7.08	-30.8	-34.4	5.1	7.95e-01	0	41	0	0	22	5477
2026-01-25 10:39:08.84	106.29	7.28	-30.3	-33.0	9.3	2.28e-02	0	41	102	1048576	22	4907
2026-01-25 10:39:11.84	106.03	7.48	-30.6	-34.2	8.8	2.67e-02	0	42	102	1048576	21	5479
2026-01-25 10:39:14.85	105.78	7.69	-29.3	-31.7	11.3	2.29e-03	0	42	102	1048576	19	4740
2026-01-25 10:39:17.86	105.51	7.89	-28.2	-29.9	13.1	5.83e-05	0	42	102	1048576	17	4388
2026-01-25 10:39:20.88	105.25	8.10	-27.7	-29.2	13.8	6.80e-06	0	42	102	1048576	16	4296
2026-01-25 10:39:23.88	104.98	8.30	-27.6	-29.0	13.9	6.80e-06	0	42	102	1048576	16	4222
2026-01-25 10:39:26.89	104.70	8.51	-27.6	-29.0	14.0	5.70e-06	0	42	102	1048576	16	4223
2026-01-25 10:39:29.91	104.42	8.72	-27.3	-28.4	14.3	1.10e-06	0	42	102	1048576	16	4067
2026-01-25 10:39:32.92	104.14	8.93	-27.1	-28.5	14.4	1.10e-06	0	42	102	1048576	15	4199
2026-01-25 10:39:35.94	103.85	9.14	-27.1	-28.4	14.4	0.00e+00	0	42	102	1048576	15	4177
2026-01-25 10:39:38.95	103.56	9.36	-27.2	-28.6	14.4	4.50e-06	0	42	102	1048576	15	4220
2026-01-25 10:39:41.97	103.27	9.57	-26.9	-28.0	14.7	0.00e+00	0	42	102	1048576	15	4066
2026-01-25 10:39:44.98	102.97	9.79	-27.0	-28.1	14.7	1.10e-06	0	42	102	1048576	15	4094
2026-01-25 10:39:48.00	102.66	10.00	-27.1	-28.5	14.5	0.00e+00	0	42	102	1048576	15	4194
2026-01-25 10:39:51.02	102.35	10.22	-27.0	-28.2	14.7	1.10e-06	0	42	102	1048576	15	4116
2026-01-25 10:39:54.04	102.04	10.44	-27.1	-28.3	14.6	2.20e-06	0	42	102	1048576	15	4164
2026-01-25 10:39:57.06	101.72	10.66	-27.0	-28.1	14.7	0.00e+00	0	43	102	1048576	15	4106
2026-01-25 10:40:00.07	101.39	10.88	-27.1	-28.4	14.6	0.00e+00	0	43	102	1048576	15	4170
2026-01-25 10:40:03.08	101.07	11.10	-26.9	-28.0	14.8	1.10e-06	0	43	102	1048576	15	4062
2026-01-25 10:40:06.09	100.73	11.32	-26.9	-27.9	14.9	0.00e+00	0	43	102	1048576	15	4043
2026-01-25 10:40:09.10	100.39	11.55	-26.9	-27.9	14.9	0.00e+00	0	43	102	1048576	15	4033
2026-01-25 10:40:12.11	100.05	11.77	-26.8	-28.2	15.0	0.00e+00	0	43	102	1048576	14	4240
2026-01-25 10:40:15.13	99.70	12.00	-26.7	-28.0	15.1	0.00e+00	0	43	102	1048576	14	4182
2026-01-25 10:40:18.14	99.34	12.23	-26.5	-27.6	15.3	0.00e+00	0	43	102	1048576	14	4072
2026-01-25 10:40:21.15	98.98	12.45	-26.4	-27.3	15.6	0.00e+00	0	43	102	1048576	14	3997
2026-01-25 10:40:24.15	98.62	12.68	-26.5	-27.5	15.5	0.00e+00	0	43	102	1048576	14	4031
2026-01-25 10:40:27.17	98.24	12.91	-26.3	-27.6	15.7	0.00e+00	0	43	102	1048576	13	4170
2026-01-25 10:40:30.17	97.87	13.14	-26.3	-27.6	15.7	0.00e+00	0	43	102	1048576	13	4179
2026-01-25 10:40:33.17	97.48	13.37	-26.3	-27.6	15.8	0.00e+00	0	43	102	1048576	13	4161
2026-01-25 10:40:36.18	97.09	13.60	-26.1	-27.1	16.0	0.00e+00	0	43	102	1048576	13	4039
2026-01-25 10:40:39.18	96.70	13.84	-26.1	-27.1	16.1	0.00e+00	0	43	102	1048576	13	4032
2026-01-25 10:40:42.19	96.29	14.07	-26.1	-27.0	16.2	0.00e+00	0	43	102	1048576	13	4018
2026-01-25 10:40:45.20	95.88	14.31	-26.1	-27.0	16.1	0.00e+00	0	43	102	1048576	13	4017
2026-01-25 10:40:48.20	95.47	14.54	-25.9	-26.7	16.3	0.00e+00	0	43	102	1048576	13	3949
2026-01-25 10:40:51.21	95.05	14.78	-26.0	-26.8	16.3	0.00e+00	0	43	102	1048576	13	3959
2026-01-25 10:40:54.22	94.62	15.01	-26.0	-26.8	16.4	0.00e+00	0	43	102	1048576	13	3959
2026-01-25 10:40:57.23	94.18	15.25	-25.9	-26.6	16.5	0.00e+00	0	43	102	1048576	13	3902
2026-01-25 10:41:00.23	93.74	15.49	-25.8	-26.9	16.6	0.00e+00	0	43	102	1048576	12	4097
2026-01-25 10:41:03.24	93.28	15.73	-25.6	-26.6	16.8	0.00e+00	0	43	102	1048576	12	4006
2026-01-25 10:41:06.26	92.82	15.97	-25.7	-26.6	16.8	0.00e+00	0	43	102	1048576	12	4016
2026-01-25 10:41:09.26	92.36	16.21	-25.7	-26.6	16.7	0.00e+00	0	43	102	1048576	12	4032
2026-01-25 10:41:12.28	91.88	16.45	-25.6	-26.5	16.8	0.00e+00	0	43	102	1048576	12	3995
2026-01-25 10:41:15.30	91.40	16.69	-25.5	-26.4	16.9	0.00e+00	0	43	102	1048576	12	3964
2026-01-25 10:41:18.31	90.91	16.93	-25.4	-26.1	17.1	0.00e+00	0	43	102	1048576	12	3903
2026-01-25 10:41:21.32	90.41	17.17	-25.6	-26.5	16.9	0.00e+00	0	43	102	1048576	12	3991
2026-01-25 10:41:24.33	89.91	17.41	-25.5	-26.3	17.0	0.00e+00	0	43	102	1048576	12	3935
2026-01-25 10:41:27.33	89.39	17.66	-25.4	-26.1	17.1	0.00e+00	0	43	102	1048576	12	3887
2026-01-25 10:41:30.35	88.87	17.90	-25.3	-26.3	17.3	0.00e+00	0	43	102	1048576	11	4044
2026-01-25 10:41:33.37	88.34	18.14	-25.2	-26.2	17.4	0.00e+00	0	43	102	1048576	11	4021
2026-01-25 10:41:36.38	87.80	18.38	-25.4	-26.5	17.3	0.00e+00	0	43	102	1048576	11	4084
2026-01-25 10:41:39.38	87.25	18.62	-25.1	-25.8	17.6	0.00e+00	0	43	102	1048576	11	3921
2026-01-25 10:41:42.39	86.69	18.86	-25.2	-26.2	17.4	0.00e+00	0	43	102	1048576	11	4024
2026-01-25 10:41:45.40	86.13	19.10	-25.1	-26.0	17.5	0.00e+00	0	43	102	1048576	11	3961
2026-01-25 10:41:48.41	85.55	19.34	-25.0	-25.7	17.7	0.00e+00	0	43	102	1048576	11	3894
2026-01-25 10:41:51.43	84.97	19.58	-25.2	-26.0	17.5	0.00e+00	0	43	102	1048576	11	3982
2026-01-25 10:41:54.45	84.37	19.82	-25.1	-26.0	17.6	0.00e+00	0	43	102	1048576	11	3967
2026-01-25 10:41:57.46	83.77	20.05	-25.1	-25.9	17.6	0.00e+00	0	44	102	1048576	11	3937
2026-01-25 10:42:00.48	83.15	20.29	-24.6	-25.4	18.1	1.10e-06	0	43	102	1048576	10	3936
2026-01-25 10:42:03.49	82.53	20.52	-24.5	-25.1	18.3	0.00e+00	0	43	102	1048576	10	3851
2026-01-25 10:42:06.50	81.90	20.75	-24.5	-25.0	18.4	0.00e+00	0	43	102	1048576	10	3843
2026-01-25 10:42:09.51	81.26	20.98	-24.7	-25.5	18.1	1.10e-06	0	44	102	1048576	10	3956
2026-01-25 10:42:12.51	80.61	21.21	-24.5	-25.2	18.2	0.00e+00	0	44	102	1048576	10	3881
2026-01-25 10:42:15.52	79.95	21.44	-24.6	-25.4	18.2	0.00e+00	0	43	102	1048576	10	3925
2026-01-25 10:42:18.54	79.28	21.66	-24.5	-25.2	18.3	0.00e+00	0	44	102	1048576	10	3881
2026-01-25 10:42:21.55	78.60	21.89	-24.4	-25.0	18.4	0.00e+00	0	44	102	1048576	10	3829
2026-01-25 10:42:24.57	77.91	22.11	-24.3	-24.7	18.5	0.00e+00	0	44	102	1048576	10	3760
2026-01-25 10:42:27.58	77.21	22.33	-24.3	-25.3	18.5	0.00e+00	0	44	102	1048576	9	4009
2026-01-25 10:42:30.59	76.50	22.54	-24.3	-25.1	18.5	0.00e+00	0	44	102	1048576	9	3979
2026-01-25 10:42:33.61	75.78	22.75	-24.2	-25.1	18.6	0.00e+00	0	44	102	1048576	9	3956
2026-01-25 10:42:36.62	75.05	22.96	-24.1	-24.9	18.7	0.00e+00	0	44	102	1048576	9	3909
2026-01-25 10:42:39.62	74.31	23.17	-24.2	-25.0	18.6	0.00e+00	0	44	102	1048576	9	3953
2026-01-25 10:42:42.63	73.56	23.37	-24.4	-25.3	18.5	1.10e-06	0	44	102	1048576	9	4010
2026-01-25 10:42:45.64	72.80	23.56	-24.0	-24.5	18.9	0.00e+00	0	44	102	1048576	9	3818
2026-01-25 10:42:48.65	72.04	23.76	-23.8	-24.7	19.1	0.00e+00	0	43	102	1048576	8	3969
2026-01-25 10:42:51.66	71.26	23.95	-24.1	-25.2	18.8	0.00e+00	0	44	102	1048576	8	4112
2026-01-25 10:42:54.68	70.47	24.13	-24.4	-25.8	18.5	0.00e+00	0	43	102	1048576	8	4255
2026-01-25 10:42:57.70	69.67	24.31	-24.4	-25.8	18.5	0.00e+00	0	44	102	1048576	8	4261
2026-01-25 10:43:00.71	68.87	24.49	-24.6	-25.6	18.6	0.00e+00	0	44	102	1048576	9	4072
2026-01-25 10:43:03.72	68.05	24.66	-24.4	-25.3	18.8	0.00e+00	0	44	102	1048576	9	3988
2026-01-25 10:43:06.74	67.23	24.83	-24.1	-24.7	19.1	0.00e+00	0	44	102	1048576	9	3854
2026-01-25 10:43:09.76	66.39	24.99	-24.4	-25.4	18.7	0.00e+00	0	44	102	1048576	9	4025
2026-01-25 10:43:12.78	65.55	25.14	-23.8	-24.1	19.4	0.00e+00	0	44	102	1048576	9	3722
2026-01-25 10:43:15.79	64.70	25.29	-24.0	-24.6	19.2	0.00e+00	0	44	102	1048576	9	3821
2026-01-25 10:43:18.80	63.85	25.43	-23.9	-24.4	19.3	0.00e+00	0	44	102	1048576	9	3777
2026-01-25 10:43:21.81	62.98	25.56	-24.0	-24.4	19.2	0.00e+00	0	43	102	1048576	9	3779
2026-01-25 10:43:24.83	62.11	25.69	-23.9	-24.3	19.3	0.00e+00	0	44	102	1048576	9	3750
2026-01-25 10:43:27.84	61.23	25.82	-23.9	-24.7	19.3	0.00e+00	0	44	102	1048576	8	3949
2026-01-25 10:43:30.86	60.35	25.93	-23.9	-24.8	19.3	0.00e+00	0	44	102	1048576	8	3986
2026-01-25 10:43:33.88	59.45	26.04	-23.9	-24.8	19.3	0.00e+00	0	44	102	1048576	8	3974
2026-01-25 10:43:36.90	58.55	26.14	-23.9	-24.8	19.3	0.00e+00	0	44	102	1048576	8	3988
2026-01-25 10:43:39.92	57.65	26.24	-23.8	-24.6	19.4	0.00e+00	0	44	102	1048576	8	3939
2026-01-25 10:43:42.94	56.74	26.32	-24.1	-25.2	19.1	0.00e+00	0	44	102	1048576	8	4094
2026-01-25 10:43:45.95	55.83	26.40	-24.0	-25.0	19.2	0.00e+00	0	44	102	1048576	8	4027
2026-01-25 10:43:48.97	54.91	26.47	-24.1	-25.1	19.2	0.00e+00	0	44	102	1048576	8	4059
2026-01-25 10:43:51.98	53.99	26.53	-23.9	-24.9	19.3	0.00e+00	0	44	102	1048576	8	3999
2026-01-25 10:43:54.97	53.07	26.59	-23.9	-24.8	19.4	0.00e+00	0	44	102	1048576	8	3975
2026-01-25 10:43:57.98	52.15	26.63	-23.4	-23.7	19.9	0.00e+00	0	44	102	1048576	8	3721
2026-01-25 10:44:00.99	51.22	26.67	-23.2	-23.8	20.1	0.00e+00	0	44	102	1048576	7	3844
2026-01-25 10:44:04.01	50.29	26.70	-23.5	-24.4	19.7	0.00e+00	0	44	102	1048576	7	4005
2026-01-25 10:44:07.01	49.36	26.72	-24.2	-25.3	19.1	0.00e+00	0	44	102	1048576	8	4099
2026-01-25 10:44:10.02	48.43	26.74	-24.0	-24.9	19.2	0.00e+00	0	44	102	1048576	8	4014
2026-01-25 10:44:13.02	47.50	26.74	-23.9	-24.7	19.4	0.00e+00	0	44	102	1048576	8	3970
2026-01-25 10:44:16.04	46.56	26.74	-23.6	-24.1	19.6	0.00e+00	0	44	102	1048576	8	3829
2026-01-25 10:44:19.05	45.63	26.72	-24.2	-25.3	19.0	0.00e+00	0	44	102	1048576	8	4111
2026-01-25 10:44:22.07	44.69	26.70	-23.7	-24.4	18.6	7.08e-03	0	44	102	1048576	8	3917
2026-01-25 10:44:25.08	43.76	26.68	-23.9	-24.8	19.1	0.00e+00	0	44	102	1048576	8	3998
2026-01-25 10:44:28.08	42.84	26.64	-23.5	-24.0	19.7	0.00e+00	0	44	102	1048576	8	3787
2026-01-25 10:44:31.10	41.91	26.59	-23.7	-24.3	19.5	0.00e+00	0	44	102	1048576	8	3870
2026-01-25 10:44:34.12	40.98	26.54	-23.7	-24.4	19.5	0.00e+00	0	44	102	1048576	8	3880
2026-01-25 10:44:37.13	40.06	26.48	-23.6	-24.2	19.6	0.00e+00	0	44	102	1048576	8	3832
2026-01-25 10:44:40.15	39.15	26.41	-23.9	-24.7	19.3	0.00e+00	0	44	102	1048576	8	3972
2026-01-25 10:44:43.17	38.23	26.33	-23.9	-24.8	19.3	1.10e-06	0	44	102	1048576	8	3976
2026-01-25 10:44:46.18	37.33	26.25	-24.0	-24.9	19.2	0.00e+00	0	44	102	1048576	8	4009
2026-01-25 10:44:49.20	36.42	26.15	-23.8	-24.6	19.4	0.00e+00	0	44	102	1048576	8	3931
2026-01-25 10:44:52.21	35.53	26.06	-24.3	-25.7	18.7	0.00e+00	0	44	102	1048576	8	4211
2026-01-25 10:44:55.23	34.63	25.95	-23.5	-23.8	19.7	0.00e+00	0	44	102	1048576	8	3760
2026-01-25 10:44:58.24	33.75	25.83	-23.5	-23.9	19.7	0.00e+00	0	44	102	1048576	8	3773
2026-01-25 10:45:01.26	32.87	25.71	-23.5	-23.9	19.7	0.00e+00	0	44	102	1048576	8	3781
2026-01-25 10:45:04.27	32.00	25.58	-23.6	-24.2	19.5	0.00e+00	0	44	102	1048576	8	3837
2026-01-25 10:45:07.28	31.14	25.45	-23.5	-24.0	19.6	0.00e+00	0	44	102	1048576	8	3803
2026-01-25 10:45:10.30	30.28	25.31	-23.4	-23.7	19.8	0.00e+00	0	44	102	1048576	8	3726
2026-01-25 10:45:13.31	29.43	25.16	-23.4	-23.7	19.7	0.00e+00	0	44	102	1048576	8	3739
2026-01-25 10:45:16.32	28.59	25.01	-23.3	-23.9	19.9	0.00e+00	0	44	102	1048576	7	3884
2026-01-25 10:45:19.33	27.76	24.85	-23.5	-24.3	19.7	0.00e+00	0	44	102	1048576	7	3984
2026-01-25 10:45:22.35	26.94	24.69	-23.5	-24.5	19.6	0.00e+00	0	44	102	1048576	7	4020
2026-01-25 10:45:25.37	26.12	24.52	-23.5	-24.4	19.6	0.00e+00	0	44	102	1048576	7	3990
2026-01-25 10:45:28.38	25.32	24.34	-23.6	-24.6	19.5	0.00e+00	0	44	102	1048576	7	4038
2026-01-25 10:45:31.40	24.52	24.16	-23.7	-24.9	19.4	0.00e+00	0	44	102	1048576	7	4108
2026-01-25 10:45:34.41	23.73	23.98	-23.8	-25.0	19.3	0.00e+00	0	44	102	1048576	7	4155
2026-01-25 10:45:37.42	22.96	23.79	-23.5	-24.5	19.6	0.00e+00	0	44	102	1048576	7	4011
2026-01-25 10:45:40.43	22.19	23.60	-23.7	-24.8	19.4	0.00e+00	0	44	102	1048576	7	4093
2026-01-25 10:45:43.46	21.43	23.40	-23.5	-24.4	19.6	0.00e+00	0	44	102	1048576	7	4009
2026-01-25 10:45:46.45	20.69	23.20	-23.6	-24.6	19.5	0.00e+00	0	44	102	1048576	7	4047
2026-01-25 10:45:49.46	19.95	23.00	-23.6	-24.6	19.5	0.00e+00	0	44	102	1048576	7	4045
2026-01-25 10:45:52.47	19.22	22.79	-23.7	-24.9	19.3	0.00e+00	0	44	102	1048576	7	4135
2026-01-25 10:45:55.48	18.50	22.58	-23.8	-25.0	19.2	0.00e+00	0	44	102	1048576	7	4158
2026-01-25 10:45:58.49	17.79	22.37	-23.7	-24.9	19.3	0.00e+00	0	44	102	1048576	7	4118
2026-01-25 10:46:01.51	17.09	22.15	-23.7	-24.9	19.3	0.00e+00	0	44	102	1048576	7	4118
2026-01-25 10:46:04.51	16.41	21.93	-24.3	-25.5	18.8	0.00e+00	0	44	102	1048576	8	4173
2026-01-25 10:46:07.53	15.72	21.71	-24.0	-25.0	19.0	0.00e+00	0	44	102	1048576	8	4027
2026-01-25 10:46:10.55	15.05	21.48	-24.2	-25.4	18.8	0.00e+00	0	44	102	1048576	8	4141
2026-01-25 10:46:13.58	14.39	21.26	-24.2	-25.4	18.8	0.00e+00	0	44	102	1048576	8	4130
2026-01-25 10:46:16.58	13.74	21.03	-24.5	-25.6	18.4	0.00e+00	0	44	102	1048576	9	4077
2026-01-25 10:46:19.60	13.10	20.80	-24.4	-25.3	18.6	0.00e+00	0	44	102	1048576	9	3988
2026-01-25 10:46:22.61	12.47	20.57	-24.5	-25.5	18.4	0.00e+00	0	44	102	1048576	9	4058
2026-01-25 10:46:25.62	11.85	20.34	-24.4	-25.3	18.5	0.00e+00	0	44	102	1048576	9	4002
2026-01-25 10:46:28.64	11.24	20.10	-24.5	-25.5	18.5	0.00e+00	0	44	102	1048576	9	4039
2026-01-25 10:46:31.66	10.63	19.86	-24.3	-25.1	18.7	0.00e+00	0	44	102	1048576	9	3940
2026-01-25 10:46:34.68	10.04	19.63	-24.4	-25.3	18.5	0.00e+00	0	44	102	1048576	9	4005
2026-01-25 10:46:37.69	9.46	19.39	-24.7	-26.0	18.2	0.00e+00	0	44	102	1048576	9	4161
2026-01-25 10:46:40.71	8.88	19.15	-24.8	-26.1	18.1	0.00e+00	0	44	102	1048576	9	4198
2026-01-25 10:46:43.72	8.32	18.91	-24.6	-25.8	18.3	0.00e+00	0	44	102	1048576	9	4113
2026-01-25 10:46:46.73	7.76	18.67	-24.4	-25.4	18.5	0.00e+00	0	44	102	1048576	9	4012
2026-01-25 10:46:49.75	7.21	18.43	-24.6	-25.8	18.3	0.00e+00	0	44	102	1048576	9	4116
2026-01-25 10:46:52.76	6.67	18.19	-24.9	-26.4	17.9	0.00e+00	0	44	102	1048576	9	4268
2026-01-25 10:46:55.77	6.15	17.95	-25.2	-26.5	17.6	0.00e+00	0	44	102	1048576	10	4198
2026-01-25 10:46:58.78	5.62	17.71	-25.0	-26.0	17.9	0.00e+00	0	44	102	1048576	10	4070
2026-01-25 10:47:01.79	5.11	17.47	-25.1	-26.4	17.7	0.00e+00	0	44	102	1048576	10	4149
2026-01-25 10:47:04.79	4.61	17.23	-25.3	-26.8	17.4	0.00e+00	0	44	102	1048576	10	4262
2026-01-25 10:47:07.81	4.11	16.99	-25.3	-26.8	17.4	0.00e+00	0	44	102	1048576	10	4265
2026-01-25 10:47:10.83	3.62	16.75	-25.2	-26.6	17.5	0.00e+00	0	44	102	1048576	10	4212
2026-01-25 10:47:13.84	3.14	16.51	-25.4	-27.0	17.3	0.00e+00	0	44	102	1048576	10	4329
2026-01-25 10:47:16.85	2.67	16.27	-25.4	-27.0	17.3	0.00e+00	0	44	102	1048576	10	4312
2026-01-25 10:47:19.86	2.20	16.03	-25.7	-27.0	17.0	0.00e+00	0	44	102	1048576	11	4212
2026-01-25 10:47:22.88	1.75	15.79	-25.6	-26.5	17.0	0.00e+00	0	44	102	1048576	12	3964
2026-01-25 10:47:25.89	1.30	15.55	-25.5	-26.1	17.1	0.00e+00	0	44	102	1048576	12	3883
2026-01-25 10:47:28.90	0.85	15.32	-25.6	-26.3	17.0	0.00e+00	0	44	102	1048576	12	3924
2026-01-25 10:47:31.93	0.41	15.08	-25.6	-26.4	17.0	0.00e+00	0	44	102	1048576	12	3954
2026-01-25 10:47:34.95	359.98	14.84	-25.7	-26.7	16.8	1.10e-06	0	44	102	1048576	12	4027
2026-01-25 10:47:37.96	359.56	14.60	-25.8	-26.9	16.7	0.00e+00	0	44	102	1048576	12	4072
2026-01-25 10:47:40.97	359.15	14.37	-26.1	-27.6	16.3	0.00e+00	0	44	102	1048576	12	4245
2026-01-25 10:47:43.98	358.74	14.14	-26.2	-27.7	16.2	0.00e+00	0	44	102	1048576	12	4292
2026-01-25 10:47:46.99	358.34	13.90	-26.0	-27.3	16.5	0.00e+00	0	44	102	1048576	12	4173
2026-01-25 10:47:50.00	357.94	13.67	-26.0	-27.2	16.4	0.00e+00	0	44	102	1048576	12	4153
2026-01-25 10:47:53.01	357.55	13.44	-26.2	-27.6	16.2	0.00e+00	0	44	102	1048576	12	4269
2026-01-25 10:47:56.03	357.17	13.21	-25.9	-27.0	16.5	0.00e+00	0	44	102	1048576	12	4110
2026-01-25 10:47:59.03	356.80	12.98	-26.0	-27.2	16.4	0.00e+00	0	44	102	1048576	12	4150
2026-01-25 10:48:02.04	356.43	12.75	-26.2	-27.8	16.1	0.00e+00	0	44	102	1048576	12	4303
2026-01-25 10:48:05.05	356.06	12.52	-26.4	-28.2	15.8	0.00e+00	0	44	102	1048576	12	4426
2026-01-25 10:48:08.05	355.70	12.29	-26.4	-28.3	15.8	0.00e+00	0	44	102	1048576	12	4451
2026-01-25 10:48:11.06	355.35	12.07	-27.0	-28.6	15.1	1.10e-06	0	44	102	1048576	14	4302
2026-01-25 10:48:14.09	355.00	11.84	-26.5	-27.3	15.8	0.00e+00	0	44	102	1048576	14	3971
2026-01-25 10:48:17.10	354.66	11.62	-26.5	-27.4	15.7	0.00e+00	0	44	102	1048576	14	3991
2026-01-25 10:48:20.11	354.32	11.39	-26.5	-27.5	15.7	0.00e+00	0	44	102	1048576	14	4012
2026-01-25 10:48:23.12	353.99	11.17	-26.5	-27.4	15.7	0.00e+00	0	44	102	1048576	14	3982
2026-01-25 10:48:26.14	353.66	10.95	-26.7	-27.9	15.4	0.00e+00	0	44	102	1048576	14	4116
2026-01-25 10:48:29.15	353.34	10.73	-26.9	-28.3	15.1	0.00e+00	0	44	102	1048576	14	4226
2026-01-25 10:48:32.17	353.02	10.51	-26.9	-28.3	15.1	0.00e+00	0	44	102	1048576	14	4222
2026-01-25 10:48:35.17	352.71	10.29	-26.9	-28.3	15.1	0.00e+00	0	44	102	1048576	14	4238
2026-01-25 10:48:38.19	352.40	10.08	-27.1	-28.7	14.8	0.00e+00	0	44	102	1048576	14	4342
2026-01-25 10:48:41.20	352.10	9.86	-27.0	-28.5	14.9	0.00e+00	0	44	102	1048576	14	4299
2026-01-25 10:48:44.21	351.80	9.65	-27.0	-28.5	14.9	0.00e+00	0	44	102	1048576	14	4292
2026-01-25 10:48:47.22	351.51	9.43	-27.0	-28.6	14.9	0.00e+00	0	44	102	1048576	14	4323
2026-01-25 10:48:50.23	351.22	9.22	-27.0	-28.7	14.8	2.20e-06	0	44	102	1048576	14	4337
2026-01-25 10:48:53.24	350.94	9.01	-27.0	-28.5	14.8	0.00e+00	0	44	102	1048576	14	4302
2026-01-25 10:48:56.24	350.66	8.80	-27.1	-28.8	14.7	3.40e-06	0	44	102	1048576	14	4377
2026-01-25 10:48:59.25	350.38	8.59	-27.3	-29.2	14.4	1.10e-06	0	44	102	1048576	14	4506
2026-01-25 10:49:02.26	350.11	8.38	-27.1	-28.8	14.6	0.00e+00	0	44	102	1048576	14	4369
2026-01-25 10:49:05.28	349.84	8.18	-27.1	-28.9	14.5	2.20e-06	0	44	102	1048576	14	4410
2026-01-25 10:49:08.29	349.58	7.97	-27.2	-29.0	14.5	0.00e+00	0	44	102	1048576	14	4432
2026-01-25 10:49:11.30	349.32	7.77	-27.3	-29.2	14.3	3.40e-06	0	44	102	1048576	14	4507
2026-01-25 10:49:14.31	349.06	7.56	-27.2	-29.1	14.4	2.20e-06	0	44	102	1048576	14	4457
2026-01-25 10:49:17.33	348.81	7.36	-27.3	-29.3	14.2	2.20e-06	0	44	102	1048576	14	4532
2026-01-25 10:49:20.34	348.56	7.16	-27.4	-29.0	14.0	8.00e-06	0	44	102	1048576	15	4343
2026-01-25 10:49:23.36	348.31	6.96	-33.9	-45.3	3.8	8.46e-01	0	44	104	1048576	27	13299

#Closed at: 2026-01-25 10:49:25
#Recorded file [1 MB]: D:/data/31010_260125_133907.dat