passes_logs/2026/01/25/R2M6_AANII_01/R2M6_AANII_01__20260125_100054_NOAA_20_JPSS-1_rec.log

#Pass ID: 20260125_100054_NOAA 20 (JPSS-1)
#Satellite: NOAA 20 (JPSS-1)
#Configuration: NOAA 20
#almurnet v.1.7.20240730
#Start time: 2026-01-25 10:00:55

#Version: 2.2.20231116
#Station: R2M6_AANII_01
#Location: 30.233357 lon 59.946436 lat
#TLE: 1 43013U 17073A   26024.42258823  .00000183  00000+0  10747-3 0  9990
#TLE: 2 43013  98.7646 325.2629 0001105  25.8644 334.2587 14.19539754424075

#Time	Az	El	Level	Level2	SNR	BER	BlckErr	Temp	State	Recorded	gain1	gain2
2026-01-25 10:00:55.54	150.60	7.08	-30.7	-37.3	5.0	1.29e+00	0	41	0	0	22	7694
2026-01-25 10:00:58.56	150.56	7.31	-31.3	-38.3	7.3	1.29e-01	0	41	102	1048576	22	8057
2026-01-25 10:01:01.58	150.52	7.55	-30.9	-36.3	8.9	3.63e-02	0	41	102	1048576	22	6710
2026-01-25 10:01:04.59	150.48	7.79	-30.7	-35.8	9.3	1.63e-02	0	41	102	1048576	22	6476
2026-01-25 10:01:07.60	150.44	8.03	-30.5	-35.1	9.9	1.16e-02	0	42	102	1048576	22	6086
2026-01-25 10:01:10.62	150.40	8.27	-30.1	-34.4	10.8	2.41e-03	0	42	102	1048576	21	5865
2026-01-25 10:01:13.63	150.36	8.52	-30.2	-34.5	10.8	3.33e-03	0	42	102	1048576	21	5880
2026-01-25 10:01:16.64	150.32	8.77	-30.3	-34.9	10.4	3.39e-03	0	42	102	1048576	21	6093
2026-01-25 10:01:19.66	150.28	9.02	-30.2	-34.1	11.2	1.57e-03	0	42	102	1048576	21	5617
2026-01-25 10:01:22.67	150.23	9.27	-30.2	-34.0	11.3	1.06e-03	0	42	102	1048576	21	5566
2026-01-25 10:01:25.67	150.19	9.53	-30.4	-34.4	11.1	1.58e-03	0	42	102	1048576	21	5699
2026-01-25 10:01:28.68	150.14	9.78	-29.8	-32.9	12.1	3.45e-04	0	42	102	1048576	21	5158
2026-01-25 10:01:31.69	150.09	10.04	-29.7	-33.3	12.2	2.65e-04	0	42	102	1048576	20	5427
2026-01-25 10:01:34.71	150.05	10.31	-29.6	-33.2	12.2	1.86e-04	0	42	102	1048576	20	5394
2026-01-25 10:01:37.72	150.00	10.58	-29.6	-33.0	12.4	1.79e-04	0	42	102	1048576	20	5312
2026-01-25 10:01:40.73	149.95	10.85	-29.7	-33.0	12.5	1.14e-04	0	42	102	1048576	20	5275
2026-01-25 10:01:43.73	149.90	11.12	-29.8	-33.1	12.6	1.10e-04	0	42	102	1048576	20	5254
2026-01-25 10:01:46.75	149.85	11.39	-29.7	-32.7	12.9	4.34e-05	0	42	102	1048576	20	5082
2026-01-25 10:01:49.76	149.79	11.67	-29.7	-32.7	12.9	5.95e-05	0	42	102	1048576	20	5070
2026-01-25 10:01:52.78	149.74	11.96	-29.7	-32.8	12.9	4.88e-05	0	43	102	1048576	20	5115
2026-01-25 10:01:55.79	149.68	12.24	-29.8	-32.9	12.8	6.56e-05	0	43	102	1048576	20	5140
2026-01-25 10:01:58.80	149.63	12.53	-29.8	-32.9	12.8	6.63e-05	0	43	102	1048576	20	5162
2026-01-25 10:02:01.81	149.57	12.82	-29.6	-32.4	13.2	2.13e-05	0	43	102	1048576	20	4951
2026-01-25 10:02:04.82	149.51	13.12	-29.8	-32.9	13.0	3.12e-05	0	43	102	1048576	20	5127
2026-01-25 10:02:07.84	149.45	13.42	-29.7	-32.6	13.1	4.11e-05	0	43	102	1048576	20	5034
2026-01-25 10:02:10.86	149.39	13.72	-29.8	-32.8	13.0	2.97e-05	0	43	102	1048576	20	5136
2026-01-25 10:02:13.87	149.32	14.03	-29.6	-32.5	13.2	5.64e-05	0	43	102	1048576	20	5037
2026-01-25 10:02:16.88	149.26	14.34	-29.4	-31.9	13.7	9.10e-06	0	43	102	1048576	20	4756
2026-01-25 10:02:19.90	149.19	14.65	-29.5	-31.9	13.7	2.20e-06	0	43	102	1048576	20	4764
2026-01-25 10:02:22.91	149.12	14.97	-29.6	-32.2	13.6	8.30e-06	0	43	102	1048576	20	4845
2026-01-25 10:02:25.93	149.05	15.29	-29.6	-32.1	13.6	9.90e-06	0	43	102	1048576	20	4824
2026-01-25 10:02:28.93	148.98	15.62	-29.6	-32.2	13.6	9.90e-06	0	43	102	1048576	20	4855
2026-01-25 10:02:31.95	148.91	15.95	-29.8	-32.7	13.2	1.44e-05	0	43	102	1048576	20	5052
2026-01-25 10:02:34.95	148.83	16.29	-29.4	-31.6	14.0	6.10e-06	0	43	102	1048576	20	4657
2026-01-25 10:02:37.98	148.75	16.63	-29.3	-31.8	14.3	0.00e+00	0	43	102	1048576	19	4822
2026-01-25 10:02:40.99	148.67	16.98	-29.2	-31.5	14.5	0.00e+00	0	43	102	1048576	19	4691
2026-01-25 10:02:44.01	148.59	17.33	-29.2	-31.5	14.7	0.00e+00	0	43	102	1048576	19	4668
2026-01-25 10:02:47.00	148.51	17.68	-29.3	-31.7	14.5	7.00e-07	0	43	102	1048576	19	4734
2026-01-25 10:02:50.01	148.42	18.04	-29.3	-31.7	14.5	0.00e+00	0	43	102	1048576	19	4764
2026-01-25 10:02:53.02	148.34	18.41	-28.9	-30.7	15.2	0.00e+00	0	43	102	1048576	19	4412
2026-01-25 10:02:56.04	148.24	18.78	-28.9	-30.8	15.1	0.00e+00	0	43	102	1048576	19	4455
2026-01-25 10:02:59.06	148.15	19.16	-28.8	-30.5	15.3	0.00e+00	0	43	102	1048576	19	4374
2026-01-25 10:03:02.07	148.06	19.54	-29.0	-30.8	15.1	0.00e+00	0	43	102	1048576	19	4466
2026-01-25 10:03:05.09	147.96	19.93	-28.8	-30.4	15.4	0.00e+00	0	43	102	1048576	19	4329
2026-01-25 10:03:08.10	147.86	20.32	-28.7	-30.6	15.6	0.00e+00	0	43	102	1048576	18	4490
2026-01-25 10:03:11.10	147.75	20.72	-28.7	-30.6	15.6	0.00e+00	0	43	102	1048576	18	4492
2026-01-25 10:03:14.12	147.65	21.13	-28.7	-30.5	15.7	0.00e+00	0	43	102	1048576	18	4448
2026-01-25 10:03:17.11	147.54	21.54	-28.6	-30.4	15.8	0.00e+00	0	43	102	1048576	18	4420
2026-01-25 10:03:20.13	147.42	21.96	-28.6	-30.4	15.9	0.00e+00	0	43	102	1048576	18	4415
2026-01-25 10:03:23.14	147.31	22.39	-28.5	-30.2	16.0	0.00e+00	0	43	102	1048576	18	4366
2026-01-25 10:03:26.15	147.19	22.82	-28.6	-30.2	16.0	0.00e+00	0	43	102	1048576	18	4363
2026-01-25 10:03:29.18	147.06	23.27	-28.7	-30.5	15.8	0.00e+00	0	43	102	1048576	18	4458
2026-01-25 10:03:32.20	146.94	23.72	-28.7	-30.6	15.9	0.00e+00	0	43	102	1048576	18	4464
2026-01-25 10:03:35.21	146.80	24.17	-28.8	-30.9	15.7	7.00e-07	0	43	102	1048576	18	4568
2026-01-25 10:03:38.23	146.67	24.64	-29.1	-31.6	15.3	0.00e+00	0	43	102	1048576	18	4777
2026-01-25 10:03:41.23	146.53	25.11	-29.4	-32.2	14.9	7.00e-07	0	43	102	1048576	18	4998
2026-01-25 10:03:44.25	146.38	25.59	-29.6	-32.2	14.7	0.00e+00	0	43	102	1048576	19	4875
2026-01-25 10:03:47.27	146.24	26.08	-29.8	-32.8	14.3	0.00e+00	0	43	102	1048576	19	5061
2026-01-25 10:03:50.28	146.08	26.58	-30.1	-33.1	13.8	3.80e-06	0	43	102	1048576	20	5075
2026-01-25 10:03:53.30	145.92	27.09	-30.3	-33.5	13.6	1.06e-05	0	43	102	1048576	20	5230
2026-01-25 10:03:56.30	145.76	27.61	-30.5	-33.7	13.1	2.28e-05	0	43	102	1048576	21	5175
2026-01-25 10:03:59.30	145.59	28.13	-30.7	-34.2	12.8	4.65e-05	0	43	102	1048576	21	5378
2026-01-25 10:04:02.32	145.41	28.67	-31.1	-34.8	12.1	1.85e-04	0	43	102	1048576	22	5521
2026-01-25 10:04:05.33	145.23	29.22	-31.3	-35.4	11.7	6.26e-04	0	43	102	1048576	22	5797
2026-01-25 10:04:08.34	145.04	29.78	-31.8	-36.4	10.6	2.92e-03	0	43	102	1048576	23	6123
2026-01-25 10:04:11.36	144.84	30.35	-31.6	-35.8	11.1	1.41e-03	0	44	102	1048576	23	5832
2026-01-25 10:04:14.37	144.63	30.93	-31.7	-36.1	10.9	2.01e-03	0	43	102	1048576	23	6005
2026-01-25 10:04:17.38	144.42	31.52	-31.8	-36.6	10.7	3.49e-03	0	43	102	1048576	23	6199
2026-01-25 10:04:20.39	144.20	32.12	-31.9	-36.3	10.5	4.05e-03	0	43	102	1048576	24	5967
2026-01-25 10:04:23.39	143.97	32.73	-32.1	-36.8	10.2	6.40e-03	0	43	102	1048576	24	6195
2026-01-25 10:04:26.41	143.73	33.36	-31.9	-36.3	10.6	3.50e-03	0	43	102	1048576	24	5948
2026-01-25 10:04:29.43	143.49	34.00	-32.1	-37.0	10.0	7.83e-03	0	43	102	1048576	24	6320
2026-01-25 10:04:32.44	143.23	34.65	-32.0	-36.6	10.3	6.78e-03	0	43	102	1048576	24	6090
2026-01-25 10:04:35.45	142.96	35.31	-31.8	-35.8	11.0	2.18e-03	0	43	102	1048576	24	5684
2026-01-25 10:04:38.47	142.68	35.99	-31.9	-35.9	10.9	2.86e-03	0	43	102	1048576	24	5747
2026-01-25 10:04:41.48	142.38	36.68	-31.4	-34.4	12.0	3.95e-04	0	43	102	1048576	24	5081
2026-01-25 10:04:44.49	142.07	37.39	-31.4	-34.6	11.9	3.71e-04	0	43	102	1048576	24	5160
2026-01-25 10:04:47.51	141.75	38.11	-31.4	-34.4	12.0	3.69e-04	0	43	102	1048576	24	5104
2026-01-25 10:04:50.52	141.42	38.85	-31.8	-35.7	11.2	1.23e-03	0	43	102	1048576	24	5621
2026-01-25 10:04:53.54	141.06	39.60	-32.0	-36.5	10.5	4.28e-03	0	43	102	1048576	24	6007
2026-01-25 10:04:56.56	140.69	40.37	-31.7	-35.4	11.3	1.87e-03	0	43	102	1048576	24	5496
2026-01-25 10:04:59.57	140.30	41.15	-31.8	-35.7	11.1	2.10e-03	0	43	102	1048576	24	5633
2026-01-25 10:05:02.58	139.90	41.94	-31.7	-35.2	11.5	7.18e-04	0	44	102	1048576	24	5420
2026-01-25 10:05:05.58	139.47	42.75	-31.5	-34.6	11.9	4.11e-04	0	43	102	1048576	24	5164
2026-01-25 10:05:08.59	139.02	43.57	-31.5	-34.7	11.9	6.43e-04	0	43	102	1048576	24	5215
2026-01-25 10:05:11.60	138.54	44.42	-31.0	-33.6	13.0	7.32e-05	0	43	102	1048576	23	4886
2026-01-25 10:05:14.61	138.04	45.28	-30.9	-33.5	13.1	3.96e-05	0	43	102	1048576	23	4848
2026-01-25 10:05:17.61	137.51	46.15	-30.5	-32.8	13.9	3.80e-06	0	44	102	1048576	22	4703
2026-01-25 10:05:20.63	136.94	47.04	-30.7	-33.4	13.5	7.60e-06	0	43	102	1048576	22	4916
2026-01-25 10:05:23.65	136.35	47.95	-30.6	-33.2	13.6	5.30e-06	0	43	102	1048576	22	4839
2026-01-25 10:05:26.66	135.71	48.87	-30.7	-33.4	13.5	7.60e-06	0	43	102	1048576	22	4911
2026-01-25 10:05:29.68	135.04	49.81	-30.9	-34.0	13.2	1.29e-05	0	43	102	1048576	22	5132
2026-01-25 10:05:32.69	134.32	50.77	-29.7	-31.8	15.1	0.00e+00	0	44	102	1048576	20	4606
2026-01-25 10:05:35.71	133.55	51.74	-29.5	-31.4	15.4	0.00e+00	0	44	102	1048576	20	4468
2026-01-25 10:05:38.72	132.73	52.72	-29.6	-31.6	15.3	0.00e+00	0	44	102	1048576	20	4533
2026-01-25 10:05:41.74	131.86	53.72	-30.0	-32.4	14.9	0.00e+00	0	44	102	1048576	20	4754
2026-01-25 10:05:44.75	130.92	54.72	-29.8	-31.9	15.2	0.00e+00	0	44	102	1048576	20	4605
2026-01-25 10:05:47.76	129.91	55.74	-30.2	-32.9	14.6	0.00e+00	0	43	102	1048576	20	4941
2026-01-25 10:05:50.78	128.82	56.77	-31.0	-34.2	13.1	2.59e-05	0	43	102	1048576	22	5189
2026-01-25 10:05:53.77	127.66	57.80	-31.8	-35.9	11.6	7.02e-04	0	43	102	1048576	23	5807
2026-01-25 10:05:56.79	126.39	58.85	-31.8	-35.9	11.7	1.05e-03	0	44	102	1048576	23	5770
2026-01-25 10:05:59.81	125.01	59.90	-30.9	-33.2	13.5	1.06e-05	0	43	102	1048576	23	4708
2026-01-25 10:06:02.83	123.52	60.95	-30.0	-32.0	14.8	7.00e-07	0	44	102	1048576	21	4524
2026-01-25 10:06:05.83	121.91	61.99	-30.0	-32.0	14.9	0.00e+00	0	44	102	1048576	21	4523
2026-01-25 10:06:08.84	120.15	63.03	-29.7	-31.7	15.4	0.00e+00	0	43	102	1048576	20	4513
2026-01-25 10:06:11.86	118.22	64.06	-30.0	-32.5	15.0	0.00e+00	0	44	102	1048576	20	4774
2026-01-25 10:06:14.87	116.12	65.08	-31.2	-34.6	13.0	1.75e-05	0	43	102	1048576	22	5342
2026-01-25 10:06:17.88	113.83	66.07	-31.6	-35.1	12.2	1.84e-04	0	43	102	1048576	23	5440
2026-01-25 10:06:20.89	111.31	67.04	-31.8	-35.4	11.7	6.17e-04	0	44	102	1048576	24	5440
2026-01-25 10:06:23.92	108.53	67.98	-31.8	-35.4	11.7	7.86e-04	0	43	102	1048576	24	5447
2026-01-25 10:06:26.93	105.51	68.88	-31.5	-34.5	12.4	2.41e-04	0	44	102	1048576	24	5064
2026-01-25 10:06:29.95	102.20	69.72	-31.4	-34.2	12.6	2.14e-04	0	43	102	1048576	24	4974
2026-01-25 10:06:32.96	98.61	70.50	-30.9	-33.2	13.6	3.00e-06	0	43	102	1048576	23	4713
2026-01-25 10:06:35.98	94.69	71.21	-30.9	-33.7	13.6	9.10e-06	0	43	102	1048576	22	4970
2026-01-25 10:06:38.99	90.49	71.83	-31.4	-35.2	12.7	2.44e-05	0	44	102	1048576	22	5540
2026-01-25 10:06:42.00	85.99	72.35	-30.7	-33.3	13.8	5.30e-06	0	44	102	1048576	22	4831
2026-01-25 10:06:44.99	81.27	72.77	-31.8	-35.8	11.7	3.95e-04	0	43	102	1048576	23	5736
2026-01-25 10:06:48.01	76.29	73.07	-32.0	-36.0	11.4	2.11e-04	0	44	102	1048576	24	5697
2026-01-25 10:06:51.03	71.15	73.24	-32.3	-36.8	10.9	2.07e-03	0	43	102	1048576	24	6049
2026-01-25 10:06:54.05	65.95	73.29	-31.9	-35.1	11.6	1.06e-03	0	43	102	1048576	25	5214
2026-01-25 10:06:57.06	60.78	73.20	-31.4	-34.1	12.7	7.17e-05	0	43	102	1048576	24	4920
2026-01-25 10:07:00.07	55.71	72.98	-31.1	-33.6	13.4	3.12e-05	0	44	102	1048576	23	4839
2026-01-25 10:07:03.08	50.81	72.64	-30.4	-32.5	14.4	1.50e-06	0	43	102	1048576	22	4553
2026-01-25 10:07:06.10	46.12	72.19	-30.4	-32.8	14.4	0.00e+00	0	43	102	1048576	21	4783
2026-01-25 10:07:09.12	41.71	71.63	-30.9	-34.1	13.6	6.80e-06	0	43	102	1048576	21	5253
2026-01-25 10:07:12.13	37.61	70.98	-31.5	-34.9	12.4	1.60e-04	0	43	102	1048576	23	5319
2026-01-25 10:07:15.14	33.82	70.25	-31.3	-34.2	12.9	9.07e-05	0	44	102	1048576	23	5070
2026-01-25 10:07:18.15	30.33	69.45	-31.8	-35.9	11.8	3.17e-04	0	43	102	1048576	23	5755
2026-01-25 10:07:21.17	27.11	68.59	-32.3	-37.0	10.6	3.11e-03	0	43	102	1048576	24	6179
2026-01-25 10:07:24.18	24.19	67.68	-32.4	-36.8	10.3	4.47e-03	0	43	102	1048576	25	5969
2026-01-25 10:07:27.19	21.52	66.74	-31.6	-34.8	12.1	3.00e-04	0	44	102	1048576	24	5201
2026-01-25 10:07:30.21	19.07	65.76	-31.6	-34.6	12.4	9.68e-05	0	44	102	1048576	24	5126
2026-01-25 10:07:33.22	16.84	64.76	-30.9	-33.1	13.6	9.90e-06	0	44	102	1048576	23	4671
2026-01-25 10:07:36.24	14.80	63.74	-30.3	-32.2	14.6	0.00e+00	0	44	102	1048576	22	4491
2026-01-25 10:07:39.26	12.93	62.70	-29.5	-31.1	15.8	0.00e+00	0	44	102	1048576	20	4350
2026-01-25 10:07:42.26	11.23	61.66	-29.0	-30.6	16.4	0.00e+00	0	43	102	1048576	19	4289
2026-01-25 10:07:45.27	9.66	60.62	-30.6	-33.5	14.0	0.00e+00	0	44	102	1048576	21	5026
2026-01-25 10:07:48.30	8.20	59.57	-31.8	-35.8	11.8	1.20e-04	0	43	102	1048576	23	5722
2026-01-25 10:07:51.31	6.87	58.53	-32.3	-37.1	10.4	2.04e-03	0	43	102	1048576	24	6267
2026-01-25 10:07:54.32	5.64	57.49	-32.2	-36.3	10.6	5.91e-03	0	43	102	1048576	25	5758
2026-01-25 10:07:57.33	4.50	56.46	-32.3	-36.7	10.3	4.68e-03	0	43	102	1048576	25	5939
2026-01-25 10:08:00.35	3.44	55.44	-31.3	-33.9	12.7	3.13e-04	0	44	102	1048576	24	4851
2026-01-25 10:08:03.36	2.46	54.43	-30.6	-33.0	13.9	5.30e-06	0	44	102	1048576	22	4752
2026-01-25 10:08:06.36	1.55	53.43	-31.1	-34.4	13.0	4.88e-05	0	44	102	1048576	22	5253
2026-01-25 10:08:09.38	0.69	52.44	-30.2	-32.3	14.6	0.00e+00	0	43	102	1048576	21	4629
2026-01-25 10:08:12.39	359.89	51.47	-30.4	-33.0	14.2	7.00e-07	0	43	102	1048576	21	4860
2026-01-25 10:08:15.41	359.14	50.50	-31.1	-34.3	13.0	2.28e-05	0	43	102	1048576	22	5216
2026-01-25 10:08:18.42	358.44	49.56	-31.2	-34.7	12.7	4.04e-05	0	43	102	1048576	22	5386
2026-01-25 10:08:21.44	357.78	48.63	-31.7	-35.6	11.8	5.02e-04	0	44	102	1048576	23	5664
2026-01-25 10:08:24.46	357.16	47.71	-31.6	-35.3	12.0	2.10e-04	0	44	102	1048576	23	5533
2026-01-25 10:08:27.48	356.57	46.81	-31.1	-33.8	13.0	3.58e-05	0	44	102	1048576	23	4949
2026-01-25 10:08:30.49	356.02	45.93	-31.2	-34.1	12.8	7.09e-05	0	43	102	1048576	23	5031
2026-01-25 10:08:33.50	355.50	45.06	-31.7	-35.7	11.7	7.41e-04	0	43	102	1048576	23	5692
2026-01-25 10:08:36.51	355.01	44.21	-31.5	-35.2	12.0	2.79e-04	0	43	102	1048576	23	5497
2026-01-25 10:08:39.53	354.54	43.37	-32.1	-36.4	10.7	2.33e-03	0	44	102	1048576	24	5945
2026-01-25 10:08:42.54	354.10	42.56	-32.0	-36.1	10.9	2.11e-03	0	44	102	1048576	24	5801
2026-01-25 10:08:45.55	353.68	41.75	-31.8	-35.7	11.2	1.75e-03	0	43	102	1048576	24	5606
2026-01-25 10:08:48.57	353.28	40.96	-31.8	-35.5	11.4	1.38e-03	0	44	102	1048576	24	5503
2026-01-25 10:08:51.57	352.90	40.20	-32.0	-36.2	11.0	2.23e-03	0	44	102	1048576	24	5820
2026-01-25 10:08:54.59	352.53	39.44	-32.0	-36.2	10.8	3.46e-03	0	43	102	1048576	24	5852
2026-01-25 10:08:57.60	352.19	38.70	-32.1	-36.5	10.6	2.03e-03	0	43	102	1048576	24	6001
2026-01-25 10:09:00.61	351.86	37.97	-31.5	-34.7	11.9	6.45e-04	0	44	102	1048576	24	5191
2026-01-25 10:09:03.63	351.54	37.25	-31.1	-33.9	12.8	5.79e-05	0	44	102	1048576	23	4988
2026-01-25 10:09:06.65	351.24	36.55	-31.1	-34.1	12.7	9.07e-05	0	44	102	1048576	23	5047
2026-01-25 10:09:09.66	350.95	35.87	-31.1	-33.9	12.8	6.48e-05	0	44	102	1048576	23	4985
2026-01-25 10:09:12.67	350.68	35.20	-31.3	-34.5	12.3	1.73e-04	0	43	102	1048576	23	5233
2026-01-25 10:09:15.68	350.41	34.54	-31.3	-34.5	12.3	2.59e-04	0	44	102	1048576	23	5232
2026-01-25 10:09:18.70	350.16	33.89	-31.1	-34.1	12.6	1.22e-04	0	44	102	1048576	23	5059
2026-01-25 10:09:21.72	349.91	33.26	-31.4	-34.8	12.1	2.03e-04	0	44	102	1048576	23	5339
2026-01-25 10:09:24.73	349.68	32.64	-31.6	-35.5	11.6	4.81e-04	0	44	102	1048576	23	5631
2026-01-25 10:09:27.75	349.45	32.03	-31.8	-36.1	11.2	1.36e-03	0	44	102	1048576	23	5916
2026-01-25 10:09:30.76	349.24	31.44	-32.0	-36.4	10.6	3.27e-03	0	44	102	1048576	24	5957
2026-01-25 10:09:33.78	349.03	30.85	-32.0	-36.5	10.5	4.40e-03	0	44	102	1048576	24	6033
2026-01-25 10:09:36.81	348.83	30.27	-31.9	-35.9	10.9	2.27e-03	0	44	102	1048576	24	5736
2026-01-25 10:09:39.82	348.63	29.71	-31.8	-35.7	11.0	1.45e-03	0	43	102	1048576	24	5640
2026-01-25 10:09:42.84	348.45	29.16	-31.8	-35.6	11.1	1.77e-03	0	44	102	1048576	24	5599
2026-01-25 10:09:45.85	348.27	28.61	-31.6	-35.2	11.4	9.97e-04	0	44	102	1048576	24	5435
2026-01-25 10:09:48.86	348.10	28.08	-31.3	-34.2	12.1	3.26e-04	0	44	102	1048576	24	5038
2026-01-25 10:09:51.87	347.93	27.56	-31.2	-34.5	12.3	1.46e-04	0	44	102	1048576	23	5220
2026-01-25 10:09:54.89	347.77	27.05	-31.3	-34.7	12.1	1.47e-04	0	43	102	1048576	23	5317
2026-01-25 10:09:57.91	347.61	26.54	-31.3	-34.7	12.1	2.53e-04	0	44	102	1048576	23	5307
2026-01-25 10:10:00.92	347.46	26.05	-31.3	-34.8	12.0	2.88e-04	0	44	102	1048576	23	5360
2026-01-25 10:10:03.93	347.31	25.56	-31.3	-34.6	12.1	3.41e-04	0	44	102	1048576	23	5303
2026-01-25 10:10:06.95	347.17	25.09	-31.2	-34.4	12.2	2.02e-04	0	44	102	1048576	23	5219
2026-01-25 10:10:09.96	347.04	24.62	-30.8	-33.4	12.9	5.95e-05	0	44	102	1048576	23	4820
2026-01-25 10:10:12.98	346.90	24.16	-30.7	-33.5	13.1	3.58e-05	0	44	102	1048576	22	4988
2026-01-25 10:10:16.00	346.77	23.70	-30.5	-33.0	13.5	9.90e-06	0	44	102	1048576	22	4784
2026-01-25 10:10:19.01	346.65	23.26	-30.6	-33.3	13.2	1.14e-05	0	43	102	1048576	22	4906
2026-01-25 10:10:22.01	346.53	22.82	-30.6	-33.3	13.1	2.13e-05	0	44	102	1048576	22	4923
2026-01-25 10:10:25.02	346.41	22.39	-30.7	-33.6	13.0	4.57e-05	0	44	102	1048576	22	5022
2026-01-25 10:10:28.04	346.30	21.97	-30.8	-33.7	12.9	5.41e-05	0	44	102	1048576	22	5072
2026-01-25 10:10:31.05	346.19	21.55	-30.8	-34.0	12.7	5.87e-05	0	44	102	1048576	22	5200
2026-01-25 10:10:34.06	346.08	21.14	-30.7	-33.6	12.9	4.42e-05	0	44	102	1048576	22	5013
2026-01-25 10:10:37.07	345.98	20.74	-30.9	-34.1	12.6	1.08e-04	0	43	102	1048576	22	5240
2026-01-25 10:10:40.08	345.88	20.34	-31.0	-34.6	12.2	1.90e-04	0	44	102	1048576	22	5417
2026-01-25 10:10:43.10	345.78	19.95	-31.1	-34.9	12.0	2.94e-04	0	44	102	1048576	22	5567
2026-01-25 10:10:46.12	345.68	19.56	-31.1	-35.0	11.9	3.26e-04	0	44	102	1048576	22	5601
2026-01-25 10:10:49.13	345.59	19.18	-31.3	-35.4	11.6	5.76e-04	0	44	102	1048576	22	5799
2026-01-25 10:10:52.15	345.50	18.81	-31.3	-35.4	11.5	8.70e-04	0	43	102	1048576	22	5812
2026-01-25 10:10:55.17	345.41	18.44	-31.2	-35.1	11.7	5.83e-04	0	44	102	1048576	22	5662
2026-01-25 10:10:58.19	345.33	18.07	-31.4	-35.7	11.2	1.04e-03	0	44	102	1048576	22	5956
2026-01-25 10:11:01.19	345.25	17.72	-31.1	-34.9	11.9	4.68e-04	0	44	102	1048576	22	5562
2026-01-25 10:11:04.21	345.16	17.36	-31.4	-35.8	11.1	1.49e-03	0	43	102	1048576	22	5982
2026-01-25 10:11:07.22	345.09	17.02	-31.4	-36.0	11.0	2.02e-03	0	44	102	1048576	22	6079
2026-01-25 10:11:10.22	345.01	16.67	-31.7	-36.4	10.3	5.13e-03	0	44	102	1048576	23	6176
2026-01-25 10:11:13.24	344.94	16.34	-31.4	-35.6	10.8	2.14e-03	0	43	102	1048576	23	5814
2026-01-25 10:11:16.27	344.86	16.00	-31.4	-35.5	10.9	2.41e-03	0	43	102	1048576	23	5782
2026-01-25 10:11:19.27	344.79	15.67	-31.5	-35.7	10.8	2.73e-03	0	44	102	1048576	23	5836
2026-01-25 10:11:22.29	344.72	15.35	-31.4	-35.5	10.9	2.19e-03	0	44	102	1048576	23	5776
2026-01-25 10:11:25.29	344.66	15.03	-31.5	-35.8	10.6	2.71e-03	0	44	102	1048576	23	5924
2026-01-25 10:11:28.31	344.59	14.71	-31.4	-35.5	10.9	2.15e-03	0	43	102	1048576	23	5757
2026-01-25 10:11:31.33	344.53	14.40	-31.4	-35.5	10.8	2.59e-03	0	44	102	1048576	23	5786
2026-01-25 10:11:34.34	344.46	14.09	-31.4	-35.5	10.8	2.44e-03	0	44	102	1048576	23	5763
2026-01-25 10:11:37.35	344.40	13.78	-31.4	-35.7	10.6	3.56e-03	0	44	102	1048576	23	5870
2026-01-25 10:11:40.36	344.34	13.48	-31.3	-35.3	10.9	2.10e-03	0	44	102	1048576	23	5702
2026-01-25 10:11:43.38	344.29	13.19	-31.3	-35.4	10.8	2.93e-03	0	44	102	1048576	23	5770
2026-01-25 10:11:46.38	344.23	12.89	-31.1	-34.8	11.2	1.34e-03	0	44	102	1048576	23	5497
2026-01-25 10:11:49.40	344.17	12.60	-31.2	-35.1	11.0	1.92e-03	0	44	102	1048576	23	5629
2026-01-25 10:11:52.42	344.12	12.32	-31.3	-35.2	10.9	2.59e-03	0	43	102	1048576	23	5677
2026-01-25 10:11:55.42	344.07	12.03	-31.3	-35.3	10.8	2.35e-03	0	44	102	1048576	23	5706
2026-01-25 10:11:58.43	344.02	11.75	-31.2	-35.0	11.0	1.78e-03	0	43	102	1048576	23	5579
2026-01-25 10:12:01.43	343.97	11.48	-31.2	-35.2	10.8	2.13e-03	0	44	102	1048576	23	5663
2026-01-25 10:12:04.44	343.92	11.20	-31.2	-35.3	10.8	2.71e-03	0	44	102	1048576	23	5718
2026-01-25 10:12:07.46	343.87	10.93	-31.3	-35.5	10.6	3.68e-03	0	44	102	1048576	23	5819
2026-01-25 10:12:10.47	343.82	10.66	-31.4	-35.9	10.2	4.84e-03	0	44	102	1048576	23	6040
2026-01-25 10:12:13.49	343.78	10.40	-31.5	-36.2	10.0	7.76e-03	0	44	102	1048576	23	6195
2026-01-25 10:12:16.50	343.73	10.14	-31.6	-36.5	9.8	1.20e-02	0	44	102	1048576	23	6319
2026-01-25 10:12:19.51	343.69	9.88	-31.6	-36.4	9.8	1.11e-02	0	44	102	1048576	23	6310
2026-01-25 10:12:22.53	343.65	9.62	-31.6	-36.4	9.8	9.50e-03	0	44	102	1048576	23	6307
2026-01-25 10:12:25.55	343.60	9.36	-31.5	-36.3	9.8	1.06e-02	0	44	102	1048576	23	6248
2026-01-25 10:12:28.56	343.56	9.11	-31.4	-36.1	9.9	9.41e-03	0	44	102	1048576	23	6169
2026-01-25 10:12:31.56	343.52	8.86	-31.4	-36.1	9.9	7.72e-03	0	44	102	1048576	23	6170
2026-01-25 10:12:34.57	343.48	8.62	-31.4	-35.9	10.0	7.98e-03	0	44	102	1048576	23	6092
2026-01-25 10:12:37.58	343.45	8.37	-31.4	-36.2	9.8	1.07e-02	0	44	102	1048576	23	6218
2026-01-25 10:12:40.60	343.41	8.13	-31.5	-36.3	9.6	1.23e-02	0	44	102	1048576	23	6309
2026-01-25 10:12:43.62	343.37	7.89	-31.4	-36.2	9.7	1.10e-02	0	44	102	1048576	23	6251
2026-01-25 10:12:46.63	343.34	7.65	-31.4	-36.3	9.6	1.60e-02	0	44	102	1048576	23	6321
2026-01-25 10:12:49.64	343.30	7.42	-31.4	-36.2	9.7	1.21e-02	0	44	102	1048576	23	6240
2026-01-25 10:12:52.64	343.27	7.18	-31.4	-36.4	9.5	1.53e-02	0	44	102	1048576	23	6359
2026-01-25 10:12:55.67	343.23	6.95	-33.6	-47.6	3.8	1.49e+00	0	44	104	1048576	27	18221

#Closed at: 2026-01-25 10:12:57
#Recorded file [1 MB]: D:/data/31010_260125_130057.dat