passes_logs/2026/01/25/R2M6_AANII_01/R2M6_AANII_01__20260125_121751_FENGYUN_3D_rec.log

#Pass ID: 20260125_121751_FENGYUN 3D
#Satellite: FENGYUN 3D
#Configuration: FENGYUN 3D
#almurnet v.1.7.20240730
#Start time: 2026-01-25 12:17:51

#Version: 2.2.20231116
#Station: R2M6_AANII_01
#Location: 30.233357 lon 59.946436 lat
#TLE: 1 43010U 17072A   26024.51794477  .00000040  00000+0  40682-4 0  9990
#TLE: 2 43010  98.9961 356.4820 0002494  91.2631 268.8830 14.19699550424601

#Time	Az	El	Level	Level2	SNR	BER	BlckErr	Temp	State	Recorded	gain1	gain2
2026-01-25 12:17:51.47	157.37	6.96	-29.0	-32.4	5.4	7.87e-01	0	42	0	0	18	5316
2026-01-25 12:17:54.49	157.37	7.20	-29.6	-33.4	9.2	2.33e-02	0	42	102	1048576	19	5591
2026-01-25 12:17:57.50	157.37	7.43	-29.0	-31.5	10.6	6.47e-03	0	42	102	1048576	19	4824
2026-01-25 12:18:00.51	157.37	7.67	-28.3	-30.1	12.0	5.35e-04	0	42	102	1048576	18	4419
2026-01-25 12:18:03.52	157.38	7.91	-28.2	-30.3	12.1	4.24e-04	0	42	102	1048576	17	4589
2026-01-25 12:18:06.53	157.38	8.16	-27.3	-28.6	13.5	1.83e-05	0	42	102	1048576	16	4197
2026-01-25 12:18:09.54	157.38	8.40	-26.7	-28.4	14.1	3.40e-06	0	42	102	1048576	14	4349
2026-01-25 12:18:12.56	157.38	8.65	-26.7	-28.4	14.1	5.70e-06	0	42	102	1048576	14	4339
2026-01-25 12:18:15.56	157.38	8.90	-26.7	-28.1	14.3	0.00e+00	0	42	102	1048576	14	4266
2026-01-25 12:18:18.58	157.38	9.15	-26.8	-28.4	14.2	3.40e-06	0	42	102	1048576	14	4307
2026-01-25 12:18:21.58	157.38	9.41	-26.8	-28.3	14.3	1.10e-06	0	43	102	1048576	14	4281
2026-01-25 12:18:24.60	157.38	9.67	-26.5	-27.6	14.7	0.00e+00	0	43	102	1048576	14	4103
2026-01-25 12:18:27.62	157.38	9.93	-26.3	-27.3	14.9	0.00e+00	0	43	102	1048576	14	4015
2026-01-25 12:18:30.63	157.38	10.19	-26.3	-27.2	14.9	0.00e+00	0	43	102	1048576	14	3997
2026-01-25 12:18:33.63	157.38	10.46	-26.3	-27.6	15.0	0.00e+00	0	43	102	1048576	13	4215
2026-01-25 12:18:36.64	157.38	10.73	-26.2	-27.4	15.1	0.00e+00	0	43	102	1048576	13	4162
2026-01-25 12:18:39.65	157.38	11.00	-26.1	-27.3	15.2	0.00e+00	0	43	102	1048576	13	4127
2026-01-25 12:18:42.66	157.38	11.28	-26.1	-27.3	15.2	0.00e+00	0	43	102	1048576	13	4113
2026-01-25 12:18:45.67	157.38	11.56	-26.1	-27.3	15.2	0.00e+00	0	43	102	1048576	13	4111
2026-01-25 12:18:48.69	157.38	11.84	-26.2	-27.6	15.1	0.00e+00	0	43	102	1048576	13	4193
2026-01-25 12:18:51.69	157.38	12.12	-26.1	-27.2	15.3	0.00e+00	0	43	102	1048576	13	4101
2026-01-25 12:18:54.69	157.38	12.41	-26.1	-27.2	15.3	0.00e+00	0	43	102	1048576	13	4109
2026-01-25 12:18:57.72	157.38	12.70	-26.0	-27.0	15.4	0.00e+00	0	43	102	1048576	13	4065
2026-01-25 12:19:00.73	157.38	13.00	-26.0	-27.1	15.4	0.00e+00	0	43	102	1048576	13	4076
2026-01-25 12:19:03.73	157.38	13.30	-26.1	-27.2	15.4	0.00e+00	0	43	102	1048576	13	4108
2026-01-25 12:19:06.75	157.37	13.60	-26.2	-27.5	15.2	0.00e+00	0	43	102	1048576	13	4191
2026-01-25 12:19:09.75	157.37	13.91	-25.9	-26.8	15.7	0.00e+00	0	43	102	1048576	13	3981
2026-01-25 12:19:12.76	157.37	14.22	-26.0	-27.0	15.6	2.20e-06	0	44	102	1048576	13	4035
2026-01-25 12:19:15.78	157.37	14.54	-25.8	-27.0	15.9	0.00e+00	0	43	102	1048576	12	4137
2026-01-25 12:19:18.80	157.36	14.86	-25.3	-25.9	16.4	2.20e-06	0	43	102	1048576	12	3863
2026-01-25 12:19:21.81	157.36	15.18	-25.3	-26.3	16.6	0.00e+00	0	44	102	1048576	11	4071
2026-01-25 12:19:24.81	157.36	15.51	-25.1	-26.0	16.8	5.70e-06	0	43	102	1048576	11	3994
2026-01-25 12:19:27.83	157.35	15.84	-25.0	-25.7	16.9	0.00e+00	0	43	102	1048576	11	3928
2026-01-25 12:19:30.84	157.35	16.18	-24.9	-25.5	17.0	0.00e+00	0	43	102	1048576	11	3877
2026-01-25 12:19:33.85	157.34	16.52	-24.8	-25.4	17.1	0.00e+00	0	43	102	1048576	11	3854
2026-01-25 12:19:36.87	157.34	16.86	-24.8	-25.7	17.2	2.20e-06	0	43	102	1048576	10	4030
2026-01-25 12:19:39.88	157.34	17.22	-24.9	-26.0	17.1	0.00e+00	0	43	102	1048576	10	4096
2026-01-25 12:19:42.89	157.33	17.57	-24.8	-25.8	17.2	0.00e+00	0	43	102	1048576	10	4039
2026-01-25 12:19:45.90	157.32	17.93	-24.8	-25.9	17.2	0.00e+00	0	43	102	1048576	10	4062
2026-01-25 12:19:48.91	157.32	18.30	-24.7	-25.6	17.3	0.00e+00	0	44	102	1048576	10	4007
2026-01-25 12:19:51.92	157.31	18.67	-24.7	-25.6	17.4	0.00e+00	0	44	102	1048576	10	3998
2026-01-25 12:19:54.93	157.31	19.05	-24.6	-25.4	17.4	0.00e+00	0	44	102	1048576	10	3958
2026-01-25 12:19:57.94	157.30	19.44	-24.4	-24.9	17.8	0.00e+00	0	44	102	1048576	10	3824
2026-01-25 12:20:00.94	157.29	19.82	-24.4	-24.9	17.8	0.00e+00	0	44	102	1048576	10	3823
2026-01-25 12:20:03.96	157.28	20.22	-24.5	-25.3	17.6	0.00e+00	0	44	102	1048576	10	3917
2026-01-25 12:20:06.98	157.27	20.63	-24.2	-25.1	17.9	0.00e+00	0	44	102	1048576	9	3981
2026-01-25 12:20:10.00	157.27	21.04	-24.2	-25.1	18.0	0.00e+00	0	44	102	1048576	9	3971
2026-01-25 12:20:13.01	157.26	21.45	-24.0	-24.7	18.2	0.00e+00	0	44	102	1048576	9	3895
2026-01-25 12:20:16.02	157.25	21.88	-23.9	-24.5	18.3	0.00e+00	0	44	102	1048576	9	3846
2026-01-25 12:20:19.03	157.24	22.31	-23.8	-24.3	18.4	0.00e+00	0	44	102	1048576	9	3792
2026-01-25 12:20:22.04	157.23	22.75	-24.0	-24.7	18.2	0.00e+00	0	44	102	1048576	9	3886
2026-01-25 12:20:25.05	157.21	23.19	-23.9	-24.5	18.4	0.00e+00	0	44	102	1048576	9	3826
2026-01-25 12:20:28.06	157.20	23.65	-24.1	-24.9	18.2	0.00e+00	0	44	102	1048576	9	3931
2026-01-25 12:20:31.07	157.19	24.11	-23.7	-24.5	18.7	0.00e+00	0	44	102	1048576	8	3930
2026-01-25 12:20:34.08	157.18	24.58	-23.4	-23.9	19.0	0.00e+00	0	44	102	1048576	8	3793
2026-01-25 12:20:37.09	157.16	25.05	-23.4	-23.9	19.0	0.00e+00	0	44	102	1048576	8	3795
2026-01-25 12:20:40.11	157.15	25.54	-23.4	-23.9	19.0	0.00e+00	0	44	102	1048576	8	3798
2026-01-25 12:20:43.12	157.13	26.04	-23.3	-23.7	19.1	0.00e+00	0	44	102	1048576	8	3746
2026-01-25 12:20:46.13	157.11	26.55	-23.2	-23.9	19.2	0.00e+00	0	44	102	1048576	7	3904
2026-01-25 12:20:49.13	157.10	27.06	-23.4	-24.3	19.1	0.00e+00	0	44	102	1048576	7	4001
2026-01-25 12:20:52.15	157.08	27.59	-23.4	-24.4	19.0	0.00e+00	0	44	102	1048576	7	4020
2026-01-25 12:20:55.16	157.06	28.12	-23.5	-24.5	18.9	0.00e+00	0	44	102	1048576	7	4057
2026-01-25 12:20:58.18	157.04	28.67	-23.5	-24.6	18.9	0.00e+00	0	44	102	1048576	7	4074
2026-01-25 12:21:01.19	157.02	29.23	-23.4	-24.4	19.0	0.00e+00	0	44	102	1048576	7	4040
2026-01-25 12:21:04.20	156.99	29.79	-23.4	-24.4	19.0	0.00e+00	0	44	102	1048576	7	4041
2026-01-25 12:21:07.20	156.97	30.37	-23.1	-23.7	19.4	0.00e+00	0	44	102	1048576	7	3867
2026-01-25 12:21:10.22	156.95	30.97	-23.1	-23.7	19.4	0.00e+00	0	44	102	1048576	7	3873
2026-01-25 12:21:13.23	156.92	31.57	-23.1	-23.8	19.4	0.00e+00	0	44	102	1048576	7	3880
2026-01-25 12:21:16.24	156.89	32.19	-23.3	-24.1	19.2	0.00e+00	0	44	102	1048576	7	3945
2026-01-25 12:21:19.25	156.86	32.82	-23.3	-24.1	19.2	0.00e+00	0	44	102	1048576	7	3960
2026-01-25 12:21:22.27	156.83	33.46	-23.3	-24.2	19.2	0.00e+00	0	44	102	1048576	7	3967
2026-01-25 12:21:25.28	156.80	34.12	-23.2	-23.9	19.4	0.00e+00	0	44	102	1048576	7	3910
2026-01-25 12:21:28.28	156.77	34.79	-22.9	-23.4	19.6	0.00e+00	0	44	102	1048576	7	3782
2026-01-25 12:21:31.30	156.73	35.48	-22.9	-23.8	19.7	0.00e+00	0	44	102	1048576	6	3992
2026-01-25 12:21:34.30	156.69	36.17	-22.8	-23.5	19.8	0.00e+00	0	44	102	1048576	6	3926
2026-01-25 12:21:37.30	156.66	36.89	-22.6	-23.2	20.0	0.00e+00	0	44	102	1048576	6	3852
2026-01-25 12:21:40.30	156.61	37.62	-22.7	-23.4	19.9	0.00e+00	0	44	102	1048576	6	3891
2026-01-25 12:21:43.31	156.57	38.37	-22.6	-23.2	20.0	0.00e+00	0	44	102	1048576	6	3849
2026-01-25 12:21:46.31	156.52	39.13	-22.8	-23.6	19.8	0.00e+00	0	44	102	1048576	6	3953
2026-01-25 12:21:49.33	156.47	39.91	-22.9	-23.9	19.7	0.00e+00	0	44	102	1048576	6	4005
2026-01-25 12:21:52.33	156.42	40.71	-23.3	-24.6	19.3	0.00e+00	0	44	102	1048576	6	4177
2026-01-25 12:21:55.34	156.36	41.53	-23.2	-24.3	19.5	0.00e+00	0	44	102	1048576	6	4116
2026-01-25 12:21:58.35	156.31	42.37	-23.2	-24.5	19.4	0.00e+00	0	44	102	1048576	6	4146
2026-01-25 12:22:01.35	156.24	43.22	-23.6	-24.7	19.0	0.00e+00	0	44	102	1048576	7	4105
2026-01-25 12:22:04.37	156.17	44.10	-23.4	-24.2	19.3	0.00e+00	0	44	102	1048576	7	3971
2026-01-25 12:22:07.38	156.10	45.00	-23.5	-24.6	19.1	0.00e+00	0	44	102	1048576	7	4069
2026-01-25 12:22:10.39	156.03	45.92	-23.6	-24.6	19.1	0.00e+00	0	44	102	1048576	7	4084
2026-01-25 12:22:13.40	155.95	46.85	-23.0	-23.5	19.7	0.00e+00	0	44	102	1048576	7	3795
2026-01-25 12:22:16.42	155.86	47.82	-23.1	-23.6	19.7	0.00e+00	0	44	102	1048576	7	3824
2026-01-25 12:22:19.43	155.76	48.80	-23.6	-24.8	19.1	0.00e+00	0	44	102	1048576	7	4109
2026-01-25 12:22:22.44	155.66	49.80	-23.8	-25.1	19.0	0.00e+00	0	44	102	1048576	7	4181
2026-01-25 12:22:25.45	155.56	50.83	-23.8	-25.1	19.0	0.00e+00	0	44	102	1048576	7	4176
2026-01-25 12:22:28.45	155.44	51.87	-23.9	-25.3	18.9	0.00e+00	0	44	102	1048576	7	4229
2026-01-25 12:22:31.47	155.31	52.95	-24.4	-25.9	18.3	0.00e+00	0	44	102	1048576	8	4279
2026-01-25 12:22:34.49	155.18	54.05	-24.5	-26.1	18.2	0.00e+00	0	44	102	1048576	8	4340
2026-01-25 12:22:37.50	155.03	55.17	-24.5	-25.7	18.1	0.00e+00	0	44	102	1048576	9	4127
2026-01-25 12:22:40.51	154.87	56.31	-24.1	-24.9	18.7	0.00e+00	0	44	102	1048576	9	3907
2026-01-25 12:22:43.52	154.69	57.48	-24.1	-24.8	18.7	1.10e-06	0	44	102	1048576	9	3893
2026-01-25 12:22:46.53	154.50	58.67	-23.9	-24.4	18.9	0.00e+00	0	44	102	1048576	9	3801
2026-01-25 12:22:49.53	154.29	59.88	-22.9	-23.3	19.9	0.00e+00	0	44	102	1048576	7	3761
2026-01-25 12:22:52.55	154.05	61.12	-23.3	-24.2	19.4	0.00e+00	0	44	102	1048576	7	3978
2026-01-25 12:22:55.56	153.79	62.39	-23.5	-24.5	19.3	0.00e+00	0	44	102	1048576	7	4048
2026-01-25 12:22:58.58	153.50	63.67	-22.7	-23.5	20.0	0.00e+00	0	44	102	1048576	6	3904
2026-01-25 12:23:01.58	153.18	64.98	-22.5	-22.9	20.3	0.00e+00	0	44	102	1048576	6	3779
2026-01-25 12:23:04.59	152.81	66.31	-22.5	-23.3	20.3	0.00e+00	0	44	102	1048576	5	3985
2026-01-25 12:23:07.61	152.39	67.66	-22.6	-23.5	20.2	0.00e+00	0	44	102	1048576	5	4033
2026-01-25 12:23:10.62	151.91	69.03	-22.2	-22.8	20.6	0.00e+00	0	44	102	1048576	5	3866
2026-01-25 12:23:13.63	151.36	70.42	-21.7	-22.2	21.1	0.00e+00	0	44	102	1048576	4	3825
2026-01-25 12:23:16.64	150.72	71.83	-22.1	-23.1	20.7	0.00e+00	0	44	102	1048576	4	4047
2026-01-25 12:23:19.64	149.96	73.24	-21.6	-22.0	21.2	0.00e+00	0	44	102	1048576	4	3788
2026-01-25 12:23:22.65	149.04	74.68	-21.8	-22.5	21.0	0.00e+00	0	44	102	1048576	4	3886
2026-01-25 12:23:25.67	147.92	76.13	-21.5	-21.9	21.2	0.00e+00	0	44	102	1048576	4	3767
2026-01-25 12:23:28.68	146.53	77.59	-21.2	-21.8	21.5	0.00e+00	0	44	102	1048576	3	3854
2026-01-25 12:23:31.69	144.76	79.05	-21.0	-21.3	21.8	0.00e+00	0	44	102	1048576	3	3739
2026-01-25 12:23:34.71	142.42	80.51	-20.9	-21.6	21.9	0.00e+00	0	44	102	1048576	2	3903
2026-01-25 12:23:37.72	139.22	81.96	-20.3	-20.9	22.7	0.00e+00	0	44	102	1048576	1	3839
2026-01-25 12:23:40.74	134.59	83.39	-20.2	-20.7	22.8	0.00e+00	0	44	102	1048576	1	3801
2026-01-25 12:23:43.76	127.46	84.75	-21.7	-22.7	21.5	0.00e+00	0	44	102	1048576	3	4043
2026-01-25 12:23:46.77	115.68	85.98	-21.9	-22.6	21.3	0.00e+00	0	44	102	1048576	4	3914
2026-01-25 12:23:49.78	95.36	86.91	-22.6	-23.5	20.7	0.00e+00	0	44	102	1048576	5	4003
2026-01-25 12:23:52.79	65.27	87.21	-23.5	-24.3	19.9	0.00e+00	0	44	102	1048576	7	3978
2026-01-25 12:23:55.81	37.05	86.71	-23.8	-25.1	19.5	0.00e+00	0	44	102	1048576	7	4175
2026-01-25 12:23:58.83	19.35	85.68	-24.0	-24.9	19.3	0.00e+00	0	44	102	1048576	8	3995
2026-01-25 12:24:01.84	9.12	84.40	-24.0	-25.0	19.2	0.00e+00	0	44	102	1048576	8	4038
2026-01-25 12:24:04.85	2.82	83.02	-23.5	-23.8	19.8	0.00e+00	0	44	102	1048576	8	3755
2026-01-25 12:24:07.87	358.63	81.59	-23.4	-23.6	19.9	0.00e+00	0	44	102	1048576	8	3711
2026-01-25 12:24:10.86	355.71	80.15	-21.9	-22.1	21.4	0.00e+00	0	44	102	1048576	5	3677
2026-01-25 12:24:13.87	353.54	78.69	-21.7	-22.1	21.6	0.00e+00	0	44	102	1048576	4	3795
2026-01-25 12:24:16.89	351.87	77.23	-21.2	-21.6	22.1	0.00e+00	0	44	102	1048576	3	3786
2026-01-25 12:24:19.90	350.56	75.77	-21.7	-22.7	21.5	0.00e+00	0	44	102	1048576	3	4044
2026-01-25 12:24:22.91	349.51	74.33	-22.1	-23.1	21.0	0.00e+00	0	44	102	1048576	4	4022
2026-01-25 12:24:25.93	348.63	72.89	-21.5	-21.8	21.6	0.00e+00	0	44	102	1048576	4	3730
2026-01-25 12:24:28.94	347.90	71.48	-22.0	-22.9	21.1	0.00e+00	0	44	102	1048576	4	3991
2026-01-25 12:24:31.95	347.28	70.08	-22.4	-23.7	20.7	0.00e+00	0	44	102	1048576	4	4162
2026-01-25 12:24:34.97	346.75	68.69	-22.2	-22.7	20.9	0.00e+00	0	44	102	1048576	5	3823
2026-01-25 12:24:37.99	346.29	67.33	-22.1	-22.6	21.0	0.00e+00	0	44	102	1048576	5	3801
2026-01-25 12:24:41.00	345.89	65.99	-22.1	-22.6	21.0	0.00e+00	0	44	102	1048576	5	3806
2026-01-25 12:24:44.00	345.53	64.67	-22.7	-23.7	20.5	0.00e+00	0	44	102	1048576	5	4057
2026-01-25 12:24:47.02	345.22	63.37	-22.8	-24.0	20.3	0.00e+00	0	44	102	1048576	5	4128
2026-01-25 12:24:50.04	344.93	62.09	-23.1	-24.2	20.0	0.00e+00	0	44	102	1048576	6	4068
2026-01-25 12:24:53.05	344.68	60.84	-23.1	-24.0	20.0	0.00e+00	0	44	102	1048576	6	4018
2026-01-25 12:24:56.06	344.45	59.61	-22.9	-23.7	20.2	0.00e+00	0	44	102	1048576	6	3932
2026-01-25 12:24:59.06	344.25	58.40	-23.4	-24.8	19.6	0.00e+00	0	44	102	1048576	6	4220
2026-01-25 12:25:02.06	344.06	57.23	-23.8	-25.2	19.2	0.00e+00	0	44	102	1048576	7	4189
2026-01-25 12:25:05.07	343.89	56.07	-24.2	-25.5	18.8	0.00e+00	0	44	102	1048576	8	4158
2026-01-25 12:25:08.08	343.73	54.94	-24.1	-25.1	19.0	0.00e+00	0	44	102	1048576	8	4065
2026-01-25 12:25:11.10	343.59	53.82	-23.9	-24.8	19.1	0.00e+00	0	44	102	1048576	8	3983
2026-01-25 12:25:14.12	343.45	52.73	-24.0	-25.0	19.0	0.00e+00	0	44	102	1048576	8	4033
2026-01-25 12:25:17.13	343.33	51.67	-23.3	-24.0	19.8	0.00e+00	0	44	102	1048576	7	3896
2026-01-25 12:25:20.15	343.22	50.62	-23.1	-23.7	19.9	0.00e+00	0	44	102	1048576	7	3829
2026-01-25 12:25:23.16	343.11	49.61	-23.4	-24.2	19.6	0.00e+00	0	44	102	1048576	7	3965
2026-01-25 12:25:26.18	343.01	48.61	-23.1	-23.5	20.0	0.00e+00	0	44	102	1048576	7	3803
2026-01-25 12:25:29.19	342.92	47.64	-22.9	-23.1	20.2	0.00e+00	0	44	102	1048576	7	3687
2026-01-25 12:25:32.20	342.84	46.68	-23.1	-23.7	19.9	0.00e+00	0	44	102	1048576	7	3836
2026-01-25 12:25:35.21	342.76	45.76	-23.4	-24.2	19.6	0.00e+00	0	44	102	1048576	7	3966
2026-01-25 12:25:38.23	342.68	44.84	-23.0	-23.4	20.0	0.00e+00	0	44	102	1048576	7	3775
2026-01-25 12:25:41.25	342.62	43.95	-22.8	-23.0	20.2	0.00e+00	0	44	102	1048576	7	3680
2026-01-25 12:25:44.26	342.55	43.08	-23.2	-23.8	19.8	0.00e+00	0	44	102	1048576	7	3861
2026-01-25 12:25:47.26	342.49	42.24	-23.2	-23.9	19.7	0.00e+00	0	44	102	1048576	7	3888
2026-01-25 12:25:50.26	342.43	41.41	-23.1	-23.7	19.8	0.00e+00	0	44	102	1048576	7	3830
2026-01-25 12:25:53.27	342.38	40.60	-22.9	-23.3	20.0	0.00e+00	0	44	102	1048576	7	3740
2026-01-25 12:25:56.29	342.33	39.80	-22.5	-23.0	20.4	0.00e+00	0	44	102	1048576	6	3781
2026-01-25 12:25:59.29	342.28	39.03	-22.1	-22.5	20.8	0.00e+00	0	44	102	1048576	5	3782
2026-01-25 12:26:02.30	342.23	38.27	-22.1	-22.6	20.8	0.00e+00	0	44	102	1048576	5	3802
2026-01-25 12:26:05.31	342.19	37.53	-22.6	-23.6	20.3	0.00e+00	0	44	102	1048576	5	4028
2026-01-25 12:26:08.33	342.15	36.80	-23.1	-24.1	19.8	0.00e+00	0	44	102	1048576	6	4041
2026-01-25 12:26:11.36	342.11	36.09	-22.9	-23.8	19.9	0.00e+00	0	44	102	1048576	6	3974
2026-01-25 12:26:14.37	342.08	35.39	-22.8	-23.4	20.1	0.00e+00	0	44	102	1048576	6	3883
2026-01-25 12:26:17.38	342.04	34.71	-22.7	-23.3	20.2	0.00e+00	0	44	102	1048576	6	3847
2026-01-25 12:26:20.39	342.01	34.05	-22.9	-23.8	19.9	0.00e+00	0	44	102	1048576	6	3966
2026-01-25 12:26:23.39	341.98	33.40	-23.4	-24.8	19.4	0.00e+00	0	44	102	1048576	6	4218
2026-01-25 12:26:26.42	341.95	32.76	-23.8	-25.1	19.0	0.00e+00	0	44	102	1048576	7	4198
2026-01-25 12:26:29.43	341.92	32.13	-23.4	-24.3	19.4	0.00e+00	0	44	102	1048576	7	3994
2026-01-25 12:26:32.45	341.90	31.52	-23.3	-24.0	19.6	0.00e+00	0	44	102	1048576	7	3911
2026-01-25 12:26:35.45	341.87	30.92	-22.8	-22.9	20.1	0.00e+00	0	44	102	1048576	7	3663
2026-01-25 12:26:38.45	341.85	30.34	-22.8	-23.5	20.1	0.00e+00	0	44	102	1048576	6	3893
2026-01-25 12:26:41.46	341.83	29.76	-22.9	-23.7	19.9	0.00e+00	0	44	102	1048576	6	3941
2026-01-25 12:26:44.47	341.81	29.20	-23.2	-24.3	19.6	0.00e+00	0	44	102	1048576	6	4105
2026-01-25 12:26:47.48	341.79	28.65	-23.2	-24.3	19.6	0.00e+00	0	44	102	1048576	6	4106
2026-01-25 12:26:50.49	341.77	28.11	-23.3	-24.5	19.6	0.00e+00	0	44	102	1048576	6	4144
2026-01-25 12:26:53.48	341.75	27.58	-22.8	-23.6	20.0	0.00e+00	0	44	102	1048576	6	3916
2026-01-25 12:26:56.49	341.74	27.06	-22.8	-23.6	20.0	0.00e+00	0	44	102	1048576	6	3915
2026-01-25 12:26:59.51	341.72	26.54	-23.0	-24.0	19.8	0.00e+00	0	44	102	1048576	6	4015
2026-01-25 12:27:02.52	341.71	26.04	-23.3	-24.4	19.5	0.00e+00	0	44	102	1048576	6	4131
2026-01-25 12:27:05.54	341.69	25.55	-23.4	-24.7	19.4	0.00e+00	0	44	102	1048576	6	4212
2026-01-25 12:27:08.56	341.68	25.06	-23.8	-25.1	18.9	0.00e+00	0	44	102	1048576	7	4187
2026-01-25 12:27:11.57	341.67	24.59	-23.7	-24.9	19.0	0.00e+00	0	44	102	1048576	7	4131
2026-01-25 12:27:14.59	341.66	24.12	-23.8	-25.1	18.9	0.00e+00	0	44	102	1048576	7	4176
2026-01-25 12:27:17.61	341.64	23.66	-23.6	-24.8	19.0	0.00e+00	0	44	102	1048576	7	4095
2026-01-25 12:27:20.63	341.63	23.21	-23.8	-25.2	18.8	0.00e+00	0	44	102	1048576	7	4204
2026-01-25 12:27:23.64	341.62	22.77	-24.3	-25.6	18.3	0.00e+00	0	44	102	1048576	8	4197
2026-01-25 12:27:26.66	341.62	22.33	-24.4	-25.9	18.1	0.00e+00	0	44	102	1048576	8	4286
2026-01-25 12:27:29.67	341.61	21.90	-24.6	-25.8	18.0	0.00e+00	0	44	102	1048576	9	4129
2026-01-25 12:27:32.68	341.60	21.48	-24.3	-25.2	18.2	0.00e+00	0	44	102	1048576	9	3993
2026-01-25 12:27:35.69	341.59	21.07	-24.6	-25.8	17.9	0.00e+00	0	44	102	1048576	9	4145
2026-01-25 12:27:38.70	341.58	20.66	-24.4	-25.3	18.2	0.00e+00	0	44	102	1048576	9	4005
2026-01-25 12:27:41.71	341.58	20.26	-24.6	-25.7	17.9	0.00e+00	0	44	102	1048576	9	4119
2026-01-25 12:27:44.72	341.57	19.87	-24.2	-24.9	18.4	0.00e+00	0	44	102	1048576	9	3917
2026-01-25 12:27:47.73	341.57	19.48	-24.2	-25.0	18.3	0.00e+00	0	44	102	1048576	9	3944
2026-01-25 12:27:50.74	341.56	19.10	-24.3	-25.2	18.2	0.00e+00	0	44	102	1048576	9	3989
2026-01-25 12:27:53.75	341.56	18.73	-24.5	-25.5	18.0	0.00e+00	0	44	102	1048576	9	4049
2026-01-25 12:27:56.77	341.55	18.35	-24.5	-25.5	18.0	0.00e+00	0	44	102	1048576	9	4071
2026-01-25 12:27:59.79	341.55	17.99	-24.6	-25.8	17.8	0.00e+00	0	44	102	1048576	9	4139
2026-01-25 12:28:02.80	341.55	17.63	-24.7	-25.9	17.7	0.00e+00	0	44	102	1048576	9	4168
2026-01-25 12:28:05.79	341.54	17.28	-24.8	-26.2	17.6	0.00e+00	0	44	102	1048576	9	4226
2026-01-25 12:28:08.80	341.54	16.93	-24.6	-26.1	17.3	1.10e-06	0	44	102	1048576	9	4309
2026-01-25 12:28:11.82	341.54	16.58	-24.7	-26.5	17.0	2.39e-03	0	44	102	1048576	9	4436
2026-01-25 12:28:14.83	341.54	16.24	-25.1	-26.5	17.1	0.00e+00	0	44	102	1048576	10	4196
2026-01-25 12:28:17.84	341.53	15.91	-25.1	-26.4	17.1	0.00e+00	0	44	102	1048576	10	4185
2026-01-25 12:28:20.85	341.53	15.58	-25.1	-26.3	17.2	0.00e+00	0	44	102	1048576	10	4162
2026-01-25 12:28:23.87	341.53	15.25	-25.2	-26.5	17.1	0.00e+00	0	44	102	1048576	10	4207
2026-01-25 12:28:26.89	341.53	14.93	-25.3	-26.9	16.9	0.00e+00	0	44	102	1048576	10	4296
2026-01-25 12:28:29.90	341.53	14.61	-25.6	-27.0	16.5	0.00e+00	0	44	102	1048576	11	4229
2026-01-25 12:28:32.92	341.53	14.30	-25.6	-27.0	16.4	1.10e-06	0	44	102	1048576	11	4233
2026-01-25 12:28:35.93	341.53	13.99	-25.7	-27.3	16.3	1.10e-06	0	44	102	1048576	11	4301
2026-01-25 12:28:38.94	341.53	13.68	-25.6	-26.4	16.4	3.40e-06	0	44	102	1048576	12	3967
2026-01-25 12:28:41.95	341.53	13.38	-25.5	-26.3	16.5	1.10e-06	0	44	102	1048576	12	3947
2026-01-25 12:28:44.97	341.53	13.08	-25.6	-26.4	16.4	0.00e+00	0	44	102	1048576	12	3976
2026-01-25 12:28:47.97	341.53	12.79	-25.7	-26.7	16.2	1.10e-06	0	44	102	1048576	12	4056
2026-01-25 12:28:50.97	341.53	12.50	-25.9	-27.1	16.0	0.00e+00	0	44	102	1048576	12	4150
2026-01-25 12:28:53.97	341.54	12.22	-26.0	-27.4	15.8	0.00e+00	0	44	102	1048576	12	4237
2026-01-25 12:28:56.99	341.54	11.93	-26.1	-27.7	15.6	0.00e+00	0	44	102	1048576	12	4305
2026-01-25 12:29:00.01	341.54	11.65	-26.0	-27.5	15.8	0.00e+00	0	44	102	1048576	12	4247
2026-01-25 12:29:03.02	341.54	11.37	-26.0	-27.3	15.8	0.00e+00	0	44	102	1048576	12	4204
2026-01-25 12:29:06.02	341.54	11.10	-26.1	-27.7	15.6	0.00e+00	0	44	102	1048576	12	4308
2026-01-25 12:29:09.03	341.55	10.83	-26.1	-27.6	15.6	0.00e+00	0	44	102	1048576	12	4294
2026-01-25 12:29:12.05	341.55	10.56	-26.2	-27.9	15.4	0.00e+00	0	44	102	1048576	12	4373
2026-01-25 12:29:15.06	341.55	10.29	-26.3	-28.0	15.4	0.00e+00	0	44	102	1048576	12	4393
2026-01-25 12:29:18.08	341.55	10.03	-26.3	-28.1	15.3	0.00e+00	0	44	102	1048576	12	4424
2026-01-25 12:29:21.09	341.56	9.77	-26.4	-28.2	15.2	0.00e+00	0	44	102	1048576	12	4464
2026-01-25 12:29:24.10	341.56	9.51	-26.4	-28.3	15.1	0.00e+00	0	44	102	1048576	12	4492
2026-01-25 12:29:27.12	341.56	9.26	-26.7	-28.4	14.8	0.00e+00	0	44	102	1048576	13	4404
2026-01-25 12:29:30.13	341.57	9.01	-26.7	-28.4	14.8	0.00e+00	0	44	102	1048576	13	4396
2026-01-25 12:29:33.15	341.57	8.76	-26.8	-28.7	14.6	0.00e+00	0	44	102	1048576	13	4476
2026-01-25 12:29:36.16	341.58	8.51	-27.1	-28.9	14.1	0.00e+00	0	44	102	1048576	14	4442
2026-01-25 12:29:39.18	341.58	8.26	-27.4	-29.5	13.8	5.70e-06	0	44	102	1048576	14	4621
2026-01-25 12:29:42.20	341.58	8.02	-27.6	-29.7	13.3	3.20e-05	0	44	102	1048576	15	4556
2026-01-25 12:29:45.20	341.59	7.78	-27.2	-28.6	13.9	3.40e-06	0	44	102	1048576	15	4250
2026-01-25 12:29:48.22	341.59	7.54	-27.2	-28.6	13.9	5.70e-06	0	44	102	1048576	15	4244
2026-01-25 12:29:51.23	341.60	7.31	-27.1	-28.6	13.9	9.10e-06	0	44	102	1048576	15	4233
2026-01-25 12:29:54.26	341.60	7.08	-28.3	-30.7	12.6	0.00e+00	0	44	102	1048576	16	4760

#Closed at: 2026-01-25 12:29:56
#Recorded file [1 MB]: D:/data/31010_260125_151753.dat