passes_logs/2026/01/25/R2M6_AANII_01/R2M6_AANII_01__20260125_115003_AQUA_rec.log

#Pass ID: 20260125_115003_AQUA
#Satellite: AQUA
#Configuration: AQUA
#almurnet v.1.7.20240730
#Start time: 2026-01-25 11:53:10

#Version: 2.2.20231116
#Station: R2M6_AANII_01
#Location: 30.233357 lon 59.946436 lat
#TLE: 1 27424U 02022A   26024.53919639  .00001970  00000+0  40397-3 0  9996
#TLE: 2 27424  98.4098 351.1277 0001915  66.8561 358.4840 14.61855303262281

#Time	Az	El	Level	Level2	SNR	BER	BlckErr	Temp	State	Recorded	gain1	gain2
2026-01-25 11:53:10.76	145.71	32.55	-33.9	-47.9	3.8	1.49e+00	0	44	0	0	28	18002
2026-01-25 11:53:12.75	145.52	33.02	-34.9	-53.8	3.8	7.45e-01	0	44	104	0	31	31760
2026-01-25 11:53:14.76	145.33	33.51	-34.9	-53.9	3.8	7.50e-01	0	44	104	0	31	31972
2026-01-25 11:53:16.77	145.14	34.01	-34.9	-53.8	3.8	7.42e-01	0	44	104	0	31	31882
2026-01-25 11:53:18.77	144.94	34.52	-34.8	-53.7	3.8	7.44e-01	0	44	104	0	31	31806
2026-01-25 11:53:20.78	144.73	35.03	-34.8	-53.6	3.8	7.44e-01	0	44	104	0	31	31515
2026-01-25 11:53:22.79	144.51	35.56	-34.7	-53.5	3.8	7.47e-01	0	44	104	0	31	31415
2026-01-25 11:53:24.80	144.29	36.09	-34.7	-53.5	3.8	7.41e-01	0	44	104	0	31	31334
2026-01-25 11:53:26.80	144.05	36.63	-34.8	-53.7	3.8	7.47e-01	0	44	104	0	31	31653
2026-01-25 11:53:28.81	143.81	37.18	-34.9	-53.8	3.8	7.45e-01	0	44	104	0	31	31929
2026-01-25 11:53:30.82	143.56	37.74	-35.0	-54.1	3.8	7.45e-01	0	44	104	0	31	32412
2026-01-25 11:53:32.81	143.31	38.31	-34.8	-53.7	3.8	7.42e-01	0	44	104	0	31	31798
2026-01-25 11:53:34.82	143.04	38.89	-34.6	-53.2	3.8	7.43e-01	0	44	104	0	31	30694
2026-01-25 11:53:36.82	142.76	39.47	-34.4	-53.4	3.8	7.46e-01	0	44	104	0	30	31820
2026-01-25 11:53:38.83	142.48	40.07	-34.4	-53.3	3.8	7.44e-01	0	44	104	0	30	31614
2026-01-25 11:53:40.84	142.18	40.68	-34.4	-53.4	3.8	7.50e-01	0	44	104	0	30	31832
2026-01-25 11:53:42.85	141.86	41.30	-34.4	-53.3	3.8	7.42e-01	0	44	104	0	30	31700
2026-01-25 11:53:44.86	141.54	41.93	-34.4	-52.7	3.8	7.42e-01	0	44	104	0	30	29558
2026-01-25 11:53:46.86	141.20	42.57	-34.4	-52.2	3.8	7.44e-01	0	44	104	0	30	27888
2026-01-25 11:53:48.87	140.85	43.22	-34.4	-52.3	3.8	7.47e-01	0	44	104	0	30	28122
2026-01-25 11:53:50.89	140.48	43.88	-34.4	-52.4	3.8	7.45e-01	0	44	104	0	30	28360
2026-01-25 11:53:52.89	140.10	44.55	-34.4	-50.6	3.8	7.43e-01	0	44	104	0	30	23368
2026-01-25 11:53:54.89	139.70	45.23	-34.4	-52.0	3.8	7.44e-01	0	44	104	0	30	27245
2026-01-25 11:53:56.90	139.28	45.92	-34.4	-51.4	3.9	7.45e-01	0	44	104	0	30	25688
2026-01-25 11:53:58.91	138.84	46.63	-34.2	-46.3	4.3	7.31e-01	0	44	104	0	30	14542
2026-01-25 11:54:00.91	138.38	47.34	-34.2	-46.1	6.2	6.82e-01	0	44	102	524288	30	14189
2026-01-25 11:54:02.91	137.90	48.06	-32.6	-37.5	14.5	6.07e-01	0	44	102	524288	27	6262
2026-01-25 11:54:04.91	137.40	48.79	-31.0	-33.7	18.4	6.04e-01	0	44	102	524288	24	4924
2026-01-25 11:54:06.91	136.87	49.53	-31.2	-34.3	18.0	6.07e-01	0	44	102	524288	24	5145
2026-01-25 11:54:08.91	136.32	50.28	-31.0	-33.8	18.4	6.06e-01	0	44	102	524288	24	4958
2026-01-25 11:54:10.92	135.73	51.05	-31.1	-34.2	18.0	6.05e-01	0	44	102	524288	24	5121
2026-01-25 11:54:12.93	135.11	51.83	-30.2	-32.6	19.6	6.05e-01	0	44	102	524288	22	4766
2026-01-25 11:54:14.94	134.46	52.61	-30.3	-32.9	19.4	6.08e-01	0	44	102	524288	22	4867
2026-01-25 11:54:16.95	133.77	53.41	-30.1	-32.4	19.7	6.06e-01	0	44	102	524288	22	4703
2026-01-25 11:54:18.96	133.04	54.21	-29.7	-32.0	20.2	6.07e-01	0	44	102	524288	21	4680
2026-01-25 11:54:20.97	132.27	55.02	-29.7	-31.9	20.3	6.07e-01	0	44	102	524288	21	4622
2026-01-25 11:54:22.98	131.45	55.84	-29.9	-32.3	20.1	6.09e-01	0	44	102	524288	21	4770
2026-01-25 11:54:24.99	130.58	56.67	-30.1	-32.7	19.9	6.07e-01	0	44	102	524288	21	4897
2026-01-25 11:54:26.99	129.66	57.49	-30.3	-33.3	19.6	6.07e-01	0	44	102	524288	21	5088
2026-01-25 11:54:29.00	128.68	58.33	-30.5	-33.8	19.3	6.05e-01	0	44	102	524288	21	5265
2026-01-25 11:54:31.01	127.63	59.17	-30.8	-34.1	18.8	6.04e-01	0	44	102	524288	22	5282
2026-01-25 11:54:33.01	126.52	60.01	-30.3	-32.7	19.7	6.07e-01	0	44	102	524288	22	4748
2026-01-25 11:54:35.03	125.32	60.86	-30.7	-33.9	19.0	6.06e-01	0	44	102	524288	22	5180
2026-01-25 11:54:37.04	124.04	61.70	-30.8	-34.1	18.9	6.06e-01	0	44	102	524288	22	5239
2026-01-25 11:54:39.04	122.68	62.54	-31.0	-34.5	18.6	6.07e-01	0	44	102	524288	22	5440
2026-01-25 11:54:41.05	121.22	63.38	-31.4	-35.2	17.9	6.06e-01	0	44	102	524288	23	5573
2026-01-25 11:54:43.06	119.64	64.21	-31.4	-35.2	17.9	6.07e-01	0	44	102	524288	23	5574
2026-01-25 11:54:45.06	117.96	65.02	-31.9	-36.1	16.9	6.09e-01	0	44	102	524288	24	5882
2026-01-25 11:54:47.07	116.14	65.83	-32.3	-37.0	16.0	6.09e-01	0	44	102	524288	25	6206
2026-01-25 11:54:49.08	114.18	66.63	-32.4	-37.2	15.9	6.08e-01	0	44	102	524288	25	6312
2026-01-25 11:54:51.09	112.06	67.40	-32.8	-38.2	14.8	6.07e-01	0	44	102	524288	26	6699
2026-01-25 11:54:53.10	109.79	68.15	-33.1	-38.9	14.0	6.09e-01	0	44	102	524288	27	6990
2026-01-25 11:54:55.10	107.36	68.87	-33.0	-38.3	14.5	6.07e-01	0	44	102	524288	27	6633
2026-01-25 11:54:57.11	104.73	69.56	-33.0	-38.0	14.2	6.07e-01	0	44	102	524288	28	6396
2026-01-25 11:54:59.12	101.91	70.22	-32.7	-37.3	15.2	6.05e-01	0	44	102	524288	27	6083
2026-01-25 11:55:01.12	98.90	70.82	-32.7	-37.0	15.4	6.06e-01	0	44	102	524288	27	5934
2026-01-25 11:55:03.13	95.68	71.38	-33.1	-38.3	14.5	6.07e-01	0	44	102	524288	27	6619
2026-01-25 11:55:05.14	92.25	71.88	-32.6	-36.6	15.8	6.06e-01	0	44	102	524288	27	5747
2026-01-25 11:55:07.15	88.64	72.32	-32.4	-36.4	16.3	6.06e-01	0	44	102	524288	26	5717
2026-01-25 11:55:09.17	84.82	72.69	-32.6	-37.3	15.6	6.06e-01	0	44	102	524288	26	6206
2026-01-25 11:55:11.17	80.88	72.99	-32.2	-36.5	16.7	6.05e-01	0	44	102	524288	25	5916
2026-01-25 11:55:13.18	76.80	73.20	-31.8	-35.1	17.6	6.06e-01	0	44	102	524288	25	5270
2026-01-25 11:55:15.19	72.63	73.34	-32.0	-35.8	17.1	6.05e-01	0	44	102	524288	25	5579
2026-01-25 11:55:17.20	68.41	73.38	-32.2	-36.3	16.9	6.07e-01	0	44	102	524288	25	5770
2026-01-25 11:55:19.20	64.21	73.35	-32.2	-36.3	16.8	6.06e-01	0	44	102	524288	25	5779
2026-01-25 11:55:21.21	60.03	73.22	-32.4	-37.0	16.4	6.03e-01	0	44	102	524288	25	6094
2026-01-25 11:55:23.23	55.92	73.01	-32.4	-36.9	16.5	6.04e-01	0	44	102	524288	25	6070
2026-01-25 11:55:25.23	51.97	72.73	-32.4	-36.4	16.4	6.05e-01	0	44	102	524288	26	5704
2026-01-25 11:55:27.24	48.16	72.37	-32.4	-36.6	16.3	6.04e-01	0	44	102	524288	26	5815
2026-01-25 11:55:29.25	44.52	71.93	-32.8	-37.9	15.4	6.09e-01	0	44	102	524288	26	6469
2026-01-25 11:55:31.25	41.09	71.44	-32.7	-37.4	15.7	6.04e-01	0	44	102	524288	26	6191
2026-01-25 11:55:33.25	37.86	70.89	-33.0	-38.1	14.9	6.08e-01	0	44	102	524288	27	6452
2026-01-25 11:55:35.25	34.84	70.30	-33.0	-38.1	14.8	6.08e-01	0	44	102	524288	27	6475
2026-01-25 11:55:37.26	31.99	69.65	-33.1	-38.5	14.5	6.07e-01	0	44	102	524288	27	6677
2026-01-25 11:55:39.27	29.34	68.97	-33.0	-37.6	14.6	6.08e-01	0	44	102	524288	28	6144
2026-01-25 11:55:41.28	26.88	68.25	-33.3	-39.4	13.8	6.07e-01	0	44	102	524288	27	7250
2026-01-25 11:55:43.28	24.60	67.50	-33.4	-39.7	13.6	6.09e-01	0	44	102	524288	27	7420
2026-01-25 11:55:45.29	22.47	66.73	-33.6	-40.4	13.0	6.09e-01	0	44	102	524288	27	7900
2026-01-25 11:55:47.29	20.50	65.95	-33.4	-39.5	13.7	6.10e-01	0	44	102	524288	27	7333
2026-01-25 11:55:49.30	18.67	65.14	-33.4	-39.9	13.4	6.07e-01	0	44	102	524288	27	7575
2026-01-25 11:55:51.31	16.96	64.32	-32.3	-36.3	16.3	6.06e-01	0	44	102	524288	26	5697
2026-01-25 11:55:53.32	15.37	63.50	-31.9	-35.1	17.2	6.07e-01	0	44	102	524288	26	5174
2026-01-25 11:55:55.33	13.90	62.66	-31.5	-34.4	18.0	6.07e-01	0	44	102	524288	25	5028
2026-01-25 11:55:57.35	12.51	61.82	-31.5	-34.2	18.1	6.08e-01	0	44	102	524288	25	4952
2026-01-25 11:55:59.35	11.23	60.98	-30.8	-33.5	19.1	6.06e-01	0	44	102	524288	23	4920
2026-01-25 11:56:01.37	10.02	60.14	-31.0	-34.1	18.8	6.07e-01	0	44	102	524288	23	5137
2026-01-25 11:56:03.37	8.91	59.30	-30.9	-33.7	19.0	6.06e-01	0	44	102	524288	23	4967
2026-01-25 11:56:05.37	7.86	58.47	-31.1	-34.5	18.5	6.07e-01	0	44	102	524288	23	5283
2026-01-25 11:56:07.38	6.87	57.63	-30.6	-33.0	19.4	6.06e-01	0	44	102	524288	23	4739
2026-01-25 11:56:09.38	5.94	56.81	-30.5	-32.7	19.6	6.07e-01	0	44	102	524288	23	4626
2026-01-25 11:56:11.40	5.07	55.98	-30.4	-32.9	19.8	6.08e-01	0	44	102	524288	22	4804
2026-01-25 11:56:13.41	4.24	55.16	-29.1	-30.8	21.5	6.10e-01	0	44	102	524288	20	4351
2026-01-25 11:56:15.43	3.46	54.35	-29.2	-31.1	21.3	6.07e-01	0	44	102	524288	20	4454
2026-01-25 11:56:17.44	2.73	53.55	-29.1	-30.8	21.5	6.05e-01	0	44	102	524288	20	4376
2026-01-25 11:56:19.44	2.04	52.76	-29.3	-31.1	21.3	6.06e-01	0	44	102	524288	20	4460
2026-01-25 11:56:21.44	1.39	51.98	-29.7	-32.2	20.6	6.10e-01	0	44	102	524288	20	4806
2026-01-25 11:56:23.45	0.76	51.20	-29.6	-32.0	20.8	6.05e-01	0	44	102	524288	20	4724
2026-01-25 11:56:25.46	0.17	50.44	-30.0	-32.9	20.3	6.07e-01	0	44	102	524288	20	5022
2026-01-25 11:56:27.47	359.61	49.68	-30.0	-33.0	20.2	6.07e-01	0	44	102	524288	20	5064
2026-01-25 11:56:29.48	359.08	48.94	-30.4	-33.4	19.7	6.06e-01	0	44	102	524288	21	5102
2026-01-25 11:56:31.49	358.57	48.20	-30.1	-32.6	20.2	6.08e-01	0	44	102	524288	21	4829
2026-01-25 11:56:33.49	358.09	47.48	-29.6	-31.5	20.8	6.06e-01	0	44	102	524288	21	4456
2026-01-25 11:56:35.50	357.63	46.77	-30.3	-33.2	19.8	6.04e-01	0	44	102	524288	21	5030
2026-01-25 11:56:37.50	357.19	46.07	-29.8	-32.0	20.4	6.07e-01	0	44	102	524288	21	4617
2026-01-25 11:56:39.51	356.77	45.38	-29.7	-31.6	20.7	6.06e-01	0	44	102	524288	21	4504
2026-01-25 11:56:41.52	356.37	44.70	-29.7	-31.8	20.6	6.07e-01	0	44	102	524288	21	4562
2026-01-25 11:56:43.54	355.98	44.03	-30.0	-32.6	20.1	6.08e-01	0	44	102	524288	21	4822
2026-01-25 11:56:45.54	355.61	43.37	-30.2	-32.9	19.9	6.06e-01	0	44	102	524288	21	4929
2026-01-25 11:56:47.55	355.26	42.72	-30.0	-32.6	20.1	6.06e-01	0	44	102	524288	21	4821
2026-01-25 11:56:49.55	354.92	42.08	-30.0	-32.4	20.2	6.06e-01	0	44	102	524288	21	4751
2026-01-25 11:56:51.55	354.60	41.46	-30.3	-33.2	19.7	6.05e-01	0	44	102	524288	21	5026
2026-01-25 11:56:53.56	354.28	40.84	-30.8	-34.2	18.8	6.05e-01	0	44	102	524288	22	5281
2026-01-25 11:56:55.56	353.99	40.24	-31.1	-34.3	18.4	6.08e-01	0	44	102	524288	23	5234
2026-01-25 11:56:57.58	353.69	39.63	-31.1	-34.3	18.4	6.07e-01	0	44	102	524288	23	5219
2026-01-25 11:56:59.59	353.42	39.05	-31.1	-34.4	18.3	6.07e-01	0	44	102	524288	23	5261
2026-01-25 11:57:01.60	353.15	38.47	-31.1	-34.3	18.4	6.07e-01	0	44	102	524288	23	5208
2026-01-25 11:57:03.61	352.89	37.90	-30.8	-33.6	18.7	6.06e-01	0	44	102	524288	23	4980
2026-01-25 11:57:05.62	352.64	37.34	-30.6	-33.0	19.2	6.04e-01	0	44	102	524288	23	4762
2026-01-25 11:57:07.63	352.40	36.79	-30.6	-32.9	19.2	6.07e-01	0	44	102	524288	23	4731
2026-01-25 11:57:09.63	352.17	36.25	-30.5	-32.9	19.2	6.06e-01	0	44	102	524288	23	4719
2026-01-25 11:57:11.62	351.95	35.72	-30.5	-32.9	19.2	6.05e-01	0	44	102	524288	23	4722
2026-01-25 11:57:13.62	351.73	35.20	-30.0	-31.9	20.1	6.08e-01	0	44	102	524288	22	4507
2026-01-25 11:57:15.63	351.52	34.69	-29.7	-31.7	20.5	6.05e-01	0	44	102	524288	21	4529
2026-01-25 11:57:17.64	351.32	34.18	-29.7	-31.9	20.4	6.08e-01	0	44	102	524288	21	4605
2026-01-25 11:57:19.65	351.12	33.68	-29.7	-31.8	20.4	6.06e-01	0	44	102	524288	21	4593
2026-01-25 11:57:21.66	350.93	33.19	-29.5	-31.3	20.7	6.06e-01	0	44	102	524288	21	4417
2026-01-25 11:57:23.68	350.75	32.71	-29.3	-31.3	20.9	6.07e-01	0	44	102	524288	20	4543
2026-01-25 11:57:25.69	350.57	32.23	-29.2	-31.1	21.0	6.05e-01	0	44	102	524288	20	4484
2026-01-25 11:57:27.70	350.40	31.77	-29.3	-31.4	20.8	6.05e-01	0	44	102	524288	20	4572
2026-01-25 11:57:29.70	350.23	31.31	-29.4	-31.5	20.8	6.07e-01	0	44	102	524288	20	4599
2026-01-25 11:57:31.71	350.07	30.86	-29.4	-31.5	20.9	6.04e-01	0	44	102	524288	20	4591
2026-01-25 11:57:33.72	349.91	30.41	-29.2	-31.1	21.1	6.07e-01	0	44	102	524288	20	4476
2026-01-25 11:57:35.72	349.76	29.98	-29.1	-30.9	21.1	6.06e-01	0	44	102	524288	20	4422
2026-01-25 11:57:37.73	349.61	29.55	-29.1	-30.9	21.1	6.05e-01	0	44	102	524288	20	4424
2026-01-25 11:57:39.74	349.47	29.12	-29.2	-31.2	21.0	6.07e-01	0	44	102	524288	20	4493
2026-01-25 11:57:41.75	349.32	28.71	-29.4	-31.7	20.7	6.08e-01	0	44	102	524288	20	4648
2026-01-25 11:57:43.76	349.19	28.29	-29.4	-31.5	20.7	6.07e-01	0	44	102	524288	20	4588
2026-01-25 11:57:45.76	349.06	27.89	-29.5	-31.7	20.6	6.07e-01	0	44	102	524288	20	4674
2026-01-25 11:57:47.76	348.93	27.49	-29.6	-32.0	20.4	6.05e-01	0	44	102	524288	20	4769
2026-01-25 11:57:49.77	348.80	27.10	-29.8	-32.5	20.1	6.06e-01	0	44	102	524288	20	4943
2026-01-25 11:57:51.78	348.68	26.71	-29.9	-32.8	19.9	6.05e-01	0	44	102	524288	20	5055
2026-01-25 11:57:53.80	348.56	26.33	-29.8	-32.6	20.0	6.07e-01	0	44	102	524288	20	4985
2026-01-25 11:57:55.81	348.44	25.96	-29.9	-32.8	19.8	6.06e-01	0	44	102	524288	20	5058
2026-01-25 11:57:57.82	348.33	25.59	-29.9	-32.9	19.7	6.05e-01	0	44	102	524288	20	5097
2026-01-25 11:57:59.83	348.22	25.22	-29.9	-32.8	19.8	6.06e-01	0	44	102	524288	20	5055
2026-01-25 11:58:01.83	348.11	24.86	-29.9	-32.8	19.8	6.07e-01	0	44	102	524288	20	5046
2026-01-25 11:58:03.84	348.01	24.51	-29.9	-32.8	19.7	6.07e-01	0	44	102	524288	20	5047
2026-01-25 11:58:05.85	347.91	24.16	-29.9	-32.9	19.7	6.08e-01	0	44	102	524288	20	5069
2026-01-25 11:58:07.86	347.81	23.82	-30.0	-33.1	19.5	6.07e-01	0	44	102	524288	20	5174
2026-01-25 11:58:09.87	347.71	23.48	-30.0	-33.1	19.6	6.01e-01	0	44	102	524288	20	5154
2026-01-25 11:58:11.88	347.61	23.14	-30.1	-33.3	19.4	6.04e-01	0	44	102	524288	20	5243
2026-01-25 11:58:13.89	347.52	22.81	-30.1	-33.3	19.4	6.03e-01	0	44	102	524288	20	5245
2026-01-25 11:58:15.90	347.43	22.49	-30.0	-32.8	19.5	6.04e-01	0	44	102	524288	21	4932
2026-01-25 11:58:17.91	347.34	22.16	-30.0	-32.6	19.6	6.03e-01	0	44	102	524288	21	4888
2026-01-25 11:58:19.91	347.26	21.85	-30.1	-33.0	19.3	6.04e-01	0	44	102	524288	21	5023
2026-01-25 11:58:21.92	347.17	21.54	-29.9	-32.4	19.7	6.03e-01	0	44	102	524288	21	4813
2026-01-25 11:58:23.93	347.09	21.23	-29.8	-32.3	19.7	6.04e-01	0	44	102	524288	21	4781
2026-01-25 11:58:25.94	347.01	20.92	-29.8	-32.3	19.8	6.02e-01	0	44	102	524288	21	4766
2026-01-25 11:58:27.95	346.93	20.62	-30.0	-32.6	19.6	6.04e-01	0	44	102	524288	21	4870
2026-01-25 11:58:29.95	346.85	20.33	-29.7	-32.0	19.9	6.05e-01	0	44	102	524288	21	4681
2026-01-25 11:58:31.96	346.78	20.03	-29.7	-32.1	19.9	6.02e-01	0	44	102	524288	21	4694
2026-01-25 11:58:33.96	346.71	19.74	-29.8	-32.2	19.8	6.03e-01	0	44	102	524288	21	4761
2026-01-25 11:58:35.97	346.63	19.46	-29.9	-32.4	19.7	6.03e-01	0	44	102	524288	21	4805
2026-01-25 11:58:37.97	346.56	19.18	-29.9	-32.5	19.6	6.03e-01	0	44	102	524288	21	4833
2026-01-25 11:58:39.98	346.49	18.90	-29.8	-32.3	19.7	6.02e-01	0	44	102	524288	21	4784
2026-01-25 11:58:41.99	346.43	18.62	-29.8	-32.3	19.6	6.04e-01	0	44	102	524288	21	4799
2026-01-25 11:58:43.99	346.36	18.35	-29.8	-32.4	19.5	6.05e-01	0	44	102	524288	21	4810
2026-01-25 11:58:46.00	346.30	18.08	-29.7	-32.1	19.7	6.03e-01	0	44	102	524288	21	4724
2026-01-25 11:58:48.01	346.23	17.82	-29.7	-32.1	19.7	6.04e-01	0	44	102	524288	21	4718
2026-01-25 11:58:50.02	346.17	17.55	-29.7	-32.0	19.7	6.04e-01	0	44	102	524288	21	4689
2026-01-25 11:58:52.02	346.11	17.30	-29.7	-32.1	19.6	6.02e-01	0	44	102	524288	21	4721
2026-01-25 11:58:54.03	346.05	17.04	-29.7	-32.1	19.6	6.04e-01	0	44	102	524288	21	4728
2026-01-25 11:58:56.04	345.99	16.78	-29.8	-32.2	19.4	6.01e-01	0	44	102	524288	21	4759
2026-01-25 11:58:58.05	345.94	16.53	-29.8	-32.2	19.3	6.04e-01	0	44	102	524288	21	4756
2026-01-25 11:59:00.06	345.88	16.29	-29.8	-32.3	19.2	6.03e-01	0	44	102	524288	21	4778
2026-01-25 11:59:02.08	345.82	16.04	-29.9	-32.4	19.0	6.04e-01	0	44	102	524288	21	4837
2026-01-25 11:59:04.08	345.77	15.80	-29.8	-32.4	18.9	6.02e-01	0	44	102	524288	21	4832
2026-01-25 11:59:06.08	345.72	15.56	-29.8	-32.3	18.9	6.04e-01	0	44	102	524288	21	4812
2026-01-25 11:59:08.10	345.67	15.32	-29.8	-32.4	18.9	6.01e-01	0	44	102	524288	21	4835
2026-01-25 11:59:10.11	345.62	15.08	-29.8	-32.2	19.0	6.03e-01	0	44	102	524288	21	4781
2026-01-25 11:59:12.11	345.57	14.85	-29.8	-32.4	19.0	6.03e-01	0	44	102	524288	21	4834
2026-01-25 11:59:14.12	345.52	14.62	-29.8	-32.4	19.0	6.02e-01	0	44	102	524288	21	4842
2026-01-25 11:59:16.12	345.47	14.40	-29.9	-32.6	19.0	6.05e-01	0	44	102	524288	21	4899
2026-01-25 11:59:18.13	345.42	14.17	-29.9	-32.7	18.9	6.04e-01	0	44	102	524288	21	4962
2026-01-25 11:59:20.14	345.38	13.95	-30.0	-32.8	18.9	6.04e-01	0	44	102	524288	21	5003
2026-01-25 11:59:22.14	345.33	13.73	-30.0	-32.8	18.9	6.01e-01	0	44	102	524288	21	5004
2026-01-25 11:59:24.14	345.29	13.51	-29.9	-32.6	19.0	6.05e-01	0	44	102	524288	21	4937
2026-01-25 11:59:26.16	345.24	13.29	-29.9	-32.6	19.0	6.03e-01	0	44	102	524288	21	4951
2026-01-25 11:59:28.16	345.20	13.08	-29.8	-32.4	19.1	6.02e-01	0	44	102	524288	21	4871
2026-01-25 11:59:30.17	345.16	12.86	-29.8	-32.6	19.0	6.04e-01	0	44	102	524288	21	4955
2026-01-25 11:59:32.18	345.12	12.65	-29.8	-32.4	19.2	6.05e-01	0	44	102	524288	21	4863
2026-01-25 11:59:34.19	345.08	12.44	-29.8	-32.3	19.3	6.04e-01	0	44	102	524288	21	4818
2026-01-25 11:59:36.20	345.04	12.24	-29.8	-32.3	19.3	6.02e-01	0	44	102	524288	21	4832
2026-01-25 11:59:38.21	345.00	12.03	-29.8	-32.4	19.2	6.03e-01	0	44	102	524288	21	4846
2026-01-25 11:59:40.22	344.96	11.83	-30.0	-32.9	18.9	6.05e-01	0	44	102	524288	21	5051
2026-01-25 11:59:42.23	344.92	11.63	-30.0	-33.0	18.9	6.05e-01	0	44	102	524288	21	5054
2026-01-25 11:59:44.23	344.88	11.43	-30.0	-33.2	18.5	6.01e-01	0	44	102	524288	21	5178
2026-01-25 11:59:46.24	344.85	11.23	-29.9	-33.1	18.3	6.04e-01	0	44	102	524288	21	5173
2026-01-25 11:59:48.25	344.81	11.04	-30.0	-33.3	18.1	6.04e-01	0	44	102	524288	21	5258
2026-01-25 11:59:50.26	344.78	10.84	-30.0	-33.0	18.6	6.03e-01	0	44	102	524288	21	5105
2026-01-25 11:59:52.27	344.74	10.65	-30.1	-33.2	18.4	6.05e-01	0	44	102	524288	21	5178
2026-01-25 11:59:54.29	344.71	10.46	-30.0	-33.1	18.4	6.05e-01	0	44	102	524288	21	5131
2026-01-25 11:59:56.30	344.68	10.27	-30.0	-32.9	18.5	6.02e-01	0	44	102	524288	21	5068
2026-01-25 11:59:58.31	344.64	10.08	-30.0	-33.2	18.1	6.01e-01	0	44	102	524288	21	5176
2026-01-25 12:00:00.31	344.61	9.90	-30.1	-33.3	17.9	6.05e-01	0	44	102	524288	21	5243
2026-01-25 12:00:02.31	344.58	9.72	-30.1	-33.5	17.7	6.05e-01	0	44	102	524288	21	5305
2026-01-25 12:00:04.31	344.55	9.53	-30.1	-33.5	17.6	6.05e-01	0	44	102	524288	21	5318
2026-01-25 12:00:06.31	344.52	9.35	-30.1	-33.6	17.5	6.03e-01	0	44	102	524288	21	5345
2026-01-25 12:00:08.32	344.49	9.17	-30.2	-33.6	17.4	6.03e-01	0	44	102	524288	21	5331
2026-01-25 12:00:10.33	344.46	8.99	-30.2	-33.7	17.3	6.02e-01	0	44	102	524288	21	5362
2026-01-25 12:00:12.34	344.43	8.82	-30.3	-33.9	17.1	6.03e-01	0	44	102	524288	21	5450
2026-01-25 12:00:14.35	344.40	8.64	-30.3	-33.8	17.0	6.07e-01	0	44	102	524288	21	5423
2026-01-25 12:00:16.35	344.37	8.47	-30.2	-33.6	17.1	6.01e-01	0	44	102	524288	21	5353
2026-01-25 12:00:18.36	344.35	8.30	-30.2	-33.8	17.0	6.03e-01	0	44	102	524288	21	5428
2026-01-25 12:00:20.37	344.32	8.12	-30.3	-34.1	16.9	6.01e-01	0	44	102	524288	21	5543
2026-01-25 12:00:22.36	344.29	7.95	-30.3	-33.9	17.0	6.04e-01	0	44	102	524288	21	5457
2026-01-25 12:00:24.37	344.27	7.79	-30.2	-33.7	17.4	6.00e-01	0	44	102	524288	21	5377
2026-01-25 12:00:26.38	344.24	7.62	-30.2	-33.7	17.4	6.05e-01	0	44	102	524288	21	5410
2026-01-25 12:00:28.40	344.21	7.45	-30.2	-33.9	17.4	6.02e-01	0	44	102	524288	21	5477
2026-01-25 12:00:30.40	344.19	7.29	-30.3	-33.9	17.4	6.04e-01	0	44	102	524288	21	5478
2026-01-25 12:00:32.41	344.16	7.12	-33.1	-43.2	9.9	6.39e-01	0	44	102	524288	26	11532
2026-01-25 12:00:34.41	344.14	6.96	-34.1	-53.2	3.8	7.42e-01	0	44	104	524288	29	32223

#Closed at: 2026-01-25 12:00:35
#Recorded file [0 MB]: D:/data/31010_260125_145400.dat