passes_logs/2025/01/12/X_MFTI_01/X_MFTI_01__20250112_233431_NOAA_20_rec.log

#Pass ID: 20250112_233431_NOAA 20
#Satellite: NOAA 20
#Configuration: NOAA 20
#Start time: 2025-01-12 23:34:26

#Version: 1.5.20200625
#Station: X_MFTI_01
#Location: 37.5186 lon 55.9291 lat
#TLE: 1 43013U 17073A   23362.44808611  .00000160  00000+0  96626-4 0  9996
#TLE: 2 43013  98.7331 297.9536 0000783  57.5916 302.5335 14.19555620316533

#Time	Az	El	Level	Level2	SNR	BER	Gain	Gain2
2025-01-12 23:34:26.79	58.59	68.65	-71.4	-95.3	3.8	14933204	99	56529
2025-01-12 23:34:27.00	58.78	68.72	-71.4	-95.3	3.8	14898727	99	56792
2025-01-12 23:34:27.20	58.97	68.78	-71.4	-95.3	3.8	14898727	99	56659
2025-01-12 23:34:27.41	59.17	68.85	-71.4	-95.5	3.8	14910522	99	57364
2025-01-12 23:34:27.61	59.36	68.92	-71.5	-95.5	3.7	14910522	99	57514
2025-01-12 23:34:27.81	59.54	68.98	-71.5	-95.5	3.9	14916435	99	57175
2025-01-12 23:34:28.03	59.75	69.06	-71.4	-95.3	3.9	14916435	99	56480
2025-01-12 23:34:28.23	59.95	69.12	-71.5	-95.5	3.9	14916435	99	57250
2025-01-12 23:34:28.43	60.14	69.19	-71.4	-95.3	3.9	14912170	99	56579
2025-01-12 23:34:28.63	60.34	69.25	-71.4	-95.5	3.8	14912170	99	57828
2025-01-12 23:34:28.83	60.53	69.32	-71.4	-95.4	3.8	14910209	99	57138
2025-01-12 23:34:29.03	60.73	69.38	-71.3	-95.3	3.8	14910209	99	57034
2025-01-12 23:34:29.25	60.95	69.45	-71.5	-95.5	3.8	14913330	99	57571
2025-01-12 23:34:29.45	61.15	69.52	-71.5	-95.5	3.9	14913330	99	57256
2025-01-12 23:34:29.66	61.36	69.58	-71.3	-95.3	3.9	14905815	99	56944
2025-01-12 23:34:29.87	61.57	69.65	-71.4	-95.2	3.9	14905815	99	55867
2025-01-12 23:34:30.08	61.79	69.72	-71.4	-95.3	3.8	14908004	99	56754
2025-01-12 23:34:30.28	61.99	69.78	-71.3	-95.2	3.8	14908004	99	56045
2025-01-12 23:34:30.50	62.22	69.85	-71.4	-95.4	3.8	14898208	99	57595
2025-01-12 23:34:30.71	62.44	69.92	-71.4	-95.4	3.9	14898208	99	56880
2025-01-12 23:34:30.92	62.66	69.98	-71.4	-95.4	3.8	14910736	99	57087
2025-01-12 23:34:31.13	62.88	70.05	-71.4	-95.4	3.9	14910736	99	57023
2025-01-12 23:34:31.33	63.10	70.11	-71.5	-95.5	3.9	14896278	99	57332
2025-01-12 23:34:31.53	63.31	70.17	-71.4	-95.4	3.8	14896278	99	56748
2025-01-12 23:34:31.75	63.55	70.24	-71.3	-95.3	3.8	14913024	99	56554
2025-01-12 23:34:31.95	63.77	70.30	-71.4	-95.4	3.8	14913024	99	57400
2025-01-12 23:34:32.15	63.99	70.36	-71.3	-95.3	3.8	14913024	99	57081
2025-01-12 23:34:32.36	64.22	70.43	-71.4	-95.3	3.8	14917091	99	56436
2025-01-12 23:34:32.56	64.44	70.49	-71.4	-95.4	3.9	14917091	99	57064
2025-01-12 23:34:32.76	64.66	70.55	-71.4	-95.4	3.9	14912559	99	56713
2025-01-12 23:34:32.98	64.91	70.61	-71.4	-95.3	3.8	14912559	99	56519
2025-01-12 23:34:33.18	65.14	70.67	-71.3	-95.2	3.8	14910720	99	56277
2025-01-12 23:34:33.38	65.37	70.73	-71.4	-95.4	3.7	14910720	99	56770
2025-01-12 23:34:33.60	65.62	70.80	-71.4	-95.5	3.8	14909446	99	57716
2025-01-12 23:34:33.81	65.86	70.86	-71.4	-95.4	3.8	14909446	99	57254
2025-01-12 23:34:34.03	66.12	70.93	-71.4	-95.3	3.9	14918945	99	56708
2025-01-12 23:34:34.23	66.35	70.99	-71.4	-95.4	3.9	14918945	99	56939
2025-01-12 23:34:34.43	66.59	71.04	-71.4	-95.4	3.9	14903656	99	56705
2025-01-12 23:34:34.63	66.83	71.10	-71.4	-95.3	3.9	14903656	99	56564
2025-01-12 23:34:34.83	67.07	71.16	-71.4	-95.5	3.8	14909484	99	57593
2025-01-12 23:34:35.04	67.32	71.22	-71.3	-95.2	3.8	14909484	99	56409
2025-01-12 23:34:35.24	67.56	71.28	-71.4	-95.4	3.8	14909484	99	57156
2025-01-12 23:34:35.44	67.81	71.34	-71.5	-95.5	3.8	14907958	99	57445
2025-01-12 23:34:35.64	68.05	71.39	-71.4	-95.4	3.8	14907958	99	57268
2025-01-12 23:34:35.86	68.33	71.45	-71.4	-95.4	3.9	14910011	99	57022
2025-01-12 23:34:36.06	68.58	71.51	-71.3	-95.3	3.9	14910011	99	56554
2025-01-12 23:34:36.26	68.83	71.57	-71.3	-95.2	3.8	14914054	99	56513
2025-01-12 23:34:36.46	69.08	71.62	-71.4	-95.3	3.8	14914054	99	56667
2025-01-12 23:34:36.66	69.33	71.68	-71.4	-95.4	3.8	14895606	99	56970
2025-01-12 23:34:36.86	69.59	71.73	-71.4	-95.2	3.8	14895606	99	56040
2025-01-12 23:34:37.06	69.84	71.79	-71.4	-95.4	3.8	14914733	99	57400
2025-01-12 23:34:37.28	70.13	71.85	-71.4	-95.3	3.8	14914733	99	56613
2025-01-12 23:34:37.48	70.39	71.90	-71.4	-95.5	3.8	14910858	99	57628
2025-01-12 23:34:37.68	70.65	71.96	-71.4	-95.5	3.8	14910858	99	57689
2025-01-12 23:34:37.90	70.94	72.01	-71.4	-95.3	3.8	14910110	99	56793
2025-01-12 23:34:38.10	71.21	72.07	-71.4	-95.2	3.9	14910110	99	55796
2025-01-12 23:34:38.31	71.49	72.12	-71.4	-95.4	3.8	14910263	99	57369
2025-01-12 23:34:38.53	71.79	72.18	-71.4	-95.3	3.9	14910263	99	56676
2025-01-12 23:34:38.73	72.06	72.23	-71.4	-95.4	3.9	14910263	99	57221
2025-01-12 23:34:38.93	72.33	72.28	-71.4	-95.5	3.8	14913696	99	57359
2025-01-12 23:34:39.15	72.63	72.34	-71.4	-95.3	3.9	14913696	99	56590
2025-01-12 23:34:39.35	72.91	72.39	-71.4	-95.2	3.8	14904151	99	55994
2025-01-12 23:34:39.55	73.18	72.44	-71.4	-95.4	3.8	14904151	99	57026
2025-01-12 23:34:39.75	73.46	72.49	-71.4	-95.3	3.9	14910064	99	56580
2025-01-12 23:34:39.95	73.75	72.54	-71.4	-95.3	3.8	14910064	99	56408
2025-01-12 23:34:40.16	74.04	72.59	-71.3	-95.1	3.9	14904235	99	55715
2025-01-12 23:34:40.36	74.33	72.64	-71.4	-95.3	3.8	14904235	99	56052
2025-01-12 23:34:40.56	74.61	72.69	-71.4	-95.4	3.8	14891555	99	57084
2025-01-12 23:34:40.78	74.93	72.74	-71.2	-95.0	3.8	14891555	99	56114
2025-01-12 23:34:40.98	75.22	72.79	-71.4	-95.1	3.8	14902374	99	55274
2025-01-12 23:34:41.19	75.53	72.84	-71.2	-94.9	3.8	14902374	99	54886
2025-01-12 23:34:41.39	75.82	72.89	-71.4	-95.5	3.8	14914123	99	57479
2025-01-12 23:34:41.60	76.13	72.94	-71.4	-95.4	3.8	14914123	99	57209
2025-01-12 23:34:41.82	76.46	72.99	-71.4	-95.5	3.8	14907958	99	57559
2025-01-12 23:34:42.02	76.75	73.03	-71.5	-95.5	3.8	14907958	99	57133
2025-01-12 23:34:42.22	77.05	73.08	-71.3	-95.3	3.8	14907958	99	57105
2025-01-12 23:34:42.42	77.36	73.12	-71.4	-95.4	3.8	14899795	99	56900
2025-01-12 23:34:42.62	77.66	73.17	-71.3	-95.3	3.8	14899795	99	56654
2025-01-12 23:34:42.83	77.98	73.21	-71.4	-95.3	3.8	14905509	99	56801
2025-01-12 23:34:43.03	78.29	73.26	-71.4	-95.4	3.8	14905509	99	57175
2025-01-12 23:34:43.23	78.60	73.30	-71.4	-95.4	3.9	14908622	99	57014
2025-01-12 23:34:43.43	78.91	73.34	-71.4	-95.1	3.9	14908622	99	55338
2025-01-12 23:34:43.63	79.22	73.38	-71.4	-95.3	3.8	14907218	99	56577
2025-01-12 23:34:43.83	79.53	73.43	-71.3	-95.1	3.8	14907218	99	55486
2025-01-12 23:34:44.04	79.86	73.47	-71.3	-95.3	3.8	14909431	99	56821
2025-01-12 23:34:44.25	80.20	73.51	-71.3	-95.3	3.8	14909431	99	56829
2025-01-12 23:34:44.45	80.52	73.55	-71.4	-95.5	3.8	14913795	99	57357
2025-01-12 23:34:44.65	80.84	73.59	-71.3	-95.2	3.8	14913795	99	56521
2025-01-12 23:34:44.86	81.17	73.63	-71.3	-95.2	3.8	14905952	99	56585
2025-01-12 23:34:45.06	81.50	73.67	-71.4	-95.5	3.9	14905952	99	57265
2025-01-12 23:34:45.27	81.84	73.71	-71.4	-95.5	3.9	14905952	99	57198
2025-01-12 23:34:45.49	82.20	73.75	-71.4	-95.4	3.8	14902473	99	56840
2025-01-12 23:34:45.70	82.54	73.79	-71.4	-95.4	3.8	14902473	99	57086
2025-01-12 23:34:45.90	82.87	73.83	-71.4	-95.4	3.9	14903015	99	56923
2025-01-12 23:34:46.12	83.24	73.87	-71.4	-95.4	3.8	14903015	99	57125
2025-01-12 23:34:46.32	83.57	73.90	-71.4	-95.3	3.8	14906143	99	56549
2025-01-12 23:34:46.54	83.94	73.94	-71.4	-95.4	3.9	14906143	99	57120
2025-01-12 23:34:46.74	84.28	73.98	-71.4	-95.4	3.9	14900146	99	57054
2025-01-12 23:34:46.94	84.62	74.01	-71.4	-95.4	3.9	14900146	99	56938
2025-01-12 23:34:47.14	84.96	74.04	-71.4	-95.3	3.8	14906814	99	56740
2025-01-12 23:34:47.34	85.30	74.08	-71.4	-95.3	3.8	14906814	99	56834
2025-01-12 23:34:47.55	85.66	74.11	-71.3	-95.3	3.8	14914062	99	57299
2025-01-12 23:34:47.76	86.02	74.14	-71.4	-95.4	3.8	14914062	99	57205
2025-01-12 23:34:47.96	86.36	74.18	-71.4	-95.4	3.8	14914077	99	57093
2025-01-12 23:34:48.16	86.71	74.21	-71.4	-95.4	3.9	14914077	99	56808
2025-01-12 23:34:48.38	87.10	74.24	-71.5	-95.4	4.0	14906387	99	56947
2025-01-12 23:34:48.58	87.45	74.27	-71.4	-95.4	3.9	14906387	99	56719
2025-01-12 23:34:48.78	87.80	74.30	-71.4	-95.1	3.8	14906387	99	55348
2025-01-12 23:34:48.99	88.17	74.33	-71.3	-95.3	3.8	14917953	99	57046
2025-01-12 23:34:49.19	88.52	74.36	-71.4	-95.4	3.8	14917953	99	57353
2025-01-12 23:34:49.39	88.88	74.38	-71.4	-95.4	3.9	14909599	99	56749
2025-01-12 23:34:49.59	89.23	74.41	-71.4	-95.4	3.8	14909599	99	57474
2025-01-12 23:34:49.79	89.59	74.44	-71.4	-95.2	3.8	14909797	99	55884
2025-01-12 23:34:49.99	89.95	74.46	-71.4	-95.5	3.8	14909797	99	57239
2025-01-12 23:34:50.21	90.35	74.49	-74.0	-97.9	3.8	14897155	99	56397
2025-01-12 23:34:50.41	90.71	74.51	-71.4	-95.1	3.8	14897155	99	55380
2025-01-12 23:34:50.62	91.09	74.54	-71.4	-95.4	3.8	14909851	99	57102
2025-01-12 23:34:50.82	91.46	74.56	-71.4	-95.4	3.9	14909851	99	56998
2025-01-12 23:34:51.04	91.86	74.59	-71.4	-95.3	3.9	14910156	99	56648
2025-01-12 23:34:51.24	92.22	74.61	-71.1	-94.9	3.9	14910156	99	55582
2025-01-12 23:34:51.46	92.63	74.63	-71.4	-95.2	3.8	14899528	99	56217
2025-01-12 23:34:51.67	93.02	74.65	-71.4	-95.3	3.7	14899528	99	56883
2025-01-12 23:34:51.87	93.39	74.67	-71.4	-95.1	3.8	14908256	99	55157
2025-01-12 23:34:52.08	93.78	74.69	-71.2	-94.6	3.9	14908256	99	53059
2025-01-12 23:34:52.29	94.17	74.71	-71.2	-95.1	3.8	14908256	99	56231
2025-01-12 23:34:52.49	94.54	74.73	-71.3	-94.8	3.9	14923667	99	53999
2025-01-12 23:34:52.70	94.93	74.75	-71.2	-95.2	3.7	14923667	99	56775
2025-01-12 23:34:52.91	95.32	74.77	-71.1	-94.6	3.8	14916465	99	53966
2025-01-12 23:34:53.11	95.70	74.79	-71.4	-95.3	3.8	14916465	99	56848
2025-01-12 23:34:53.32	96.10	74.80	-71.3	-95.0	4.1	14913200	99	54669
2025-01-12 23:34:53.53	96.49	74.82	-71.1	-94.6	3.8	14913200	99	54229
2025-01-12 23:34:53.73	96.87	74.83	-71.3	-95.2	3.8	14907669	99	56600
2025-01-12 23:34:53.94	97.27	74.85	-71.3	-95.3	3.8	14907669	99	56885
2025-01-12 23:34:54.14	97.65	74.86	-71.3	-95.3	3.8	14911689	99	57145
2025-01-12 23:34:54.35	98.05	74.87	-71.4	-95.4	3.8	14911689	99	56924
2025-01-12 23:34:54.55	98.43	74.88	-71.3	-95.1	4.0	14914077	99	55655
2025-01-12 23:34:54.76	98.83	74.89	-71.4	-95.3	3.9	14914077	99	56256
2025-01-12 23:34:54.97	99.23	74.91	-71.4	-95.4	3.8	14909423	99	56853
2025-01-12 23:34:55.17	99.61	74.92	-71.2	-95.2	3.8	14909423	99	56612
2025-01-12 23:34:55.38	100.01	74.92	-71.4	-95.3	3.8	14912620	99	56624
2025-01-12 23:34:55.59	100.42	74.93	-71.4	-95.3	3.8	14912620	99	56745
2025-01-12 23:34:55.79	100.80	74.94	-71.4	-95.3	3.8	14926918	99	56880
2025-01-12 23:34:56.00	101.20	74.95	-71.4	-95.4	3.8	14926918	99	56541
2025-01-12 23:34:56.21	101.61	74.96	-71.4	-95.5	3.8	14917617	99	57601
2025-01-12 23:34:56.42	102.01	74.96	-71.1	-94.7	3.8	14917617	99	53917
2025-01-12 23:34:56.62	102.40	74.97	-71.3	-95.3	3.8	14917617	99	56802
2025-01-12 23:34:56.83	102.80	74.97	-71.4	-95.3	3.8	14903114	99	56744
2025-01-12 23:34:57.04	103.21	74.97	-71.3	-95.3	3.8	14903114	99	56758
2025-01-12 23:34:57.24	103.59	74.98	-71.4	-95.4	3.8	14918052	99	56927
2025-01-12 23:34:57.45	104.00	74.98	-71.4	-95.4	3.8	14918052	99	57049
2025-01-12 23:34:57.66	104.40	74.98	-71.4	-95.4	3.8	14907035	99	56877
2025-01-12 23:34:57.87	104.81	74.98	-71.4	-95.4	3.8	14907035	99	56984
2025-01-12 23:34:58.07	105.20	74.98	-71.3	-95.3	3.8	14907798	99	56844
2025-01-12 23:34:58.28	105.60	74.98	-71.4	-95.4	3.8	14907798	99	56910
2025-01-12 23:34:58.49	106.01	74.98	-71.4	-95.4	3.8	14911506	99	57065
2025-01-12 23:34:58.69	106.39	74.98	-71.4	-95.4	3.8	14911506	99	57103
2025-01-12 23:34:58.90	106.80	74.98	-71.4	-95.3	3.9	14916549	99	56670
2025-01-12 23:34:59.11	107.20	74.97	-71.4	-95.4	3.9	14916549	99	56801
2025-01-12 23:34:59.32	107.61	74.97	-71.4	-95.4	3.8	14912315	99	56904
2025-01-12 23:34:59.52	107.99	74.96	-71.4	-95.4	3.9	14912315	99	56756
2025-01-12 23:34:59.73	108.40	74.96	-71.3	-95.2	3.8	14916328	99	56452
2025-01-12 23:34:59.94	108.80	74.95	-71.4	-95.2	3.8	14916328	99	55966
2025-01-12 23:35:00.14	109.19	74.95	-71.3	-95.1	3.8	14913101	99	55606
2025-01-12 23:35:00.35	109.59	74.94	-71.2	-94.7	3.7	14913101	99	53887
2025-01-12 23:35:00.56	109.99	74.93	-71.0	-94.4	3.8	14913101	99	52887
2025-01-12 23:35:00.77	110.40	74.92	-71.4	-95.2	3.9	14909912	99	56066
2025-01-12 23:35:00.97	110.78	74.91	-71.4	-95.2	3.7	14909912	99	55676
2025-01-12 23:35:01.18	111.18	74.90	-71.3	-95.2	3.8	14916419	99	56014
2025-01-12 23:35:01.39	111.58	74.89	-71.3	-94.9	3.8	14916419	99	54884
2025-01-12 23:35:01.60	111.98	74.88	-71.3	-95.1	3.8	14912437	99	55780
2025-01-12 23:35:01.80	112.36	74.87	-71.4	-95.4	3.8	14912437	99	57129
2025-01-12 23:35:02.01	112.76	74.85	-71.4	-95.4	3.8	14922721	99	57045
2025-01-12 23:35:02.22	113.16	74.84	-71.5	-95.5	3.8	14922721	99	57212
2025-01-12 23:35:02.43	113.56	74.83	-71.4	-95.4	3.8	14912918	99	56970
2025-01-12 23:35:02.63	113.94	74.81	-71.4	-95.4	3.8	14912918	99	57182
2025-01-12 23:35:02.84	114.33	74.80	-71.4	-95.4	3.8	14904594	99	57117
2025-01-12 23:35:03.05	114.73	74.78	-71.4	-95.5	3.8	14904594	99	57487
2025-01-12 23:35:03.25	115.10	74.76	-71.4	-95.4	3.7	14907943	99	57196
2025-01-12 23:35:03.46	115.50	74.74	-71.3	-95.0	4.0	14907943	99	55268
2025-01-12 23:35:03.66	115.87	74.73	-71.4	-95.5	3.8	14927742	99	57305
2025-01-12 23:35:03.87	116.26	74.71	-71.4	-95.5	3.8	14927742	99	57214
2025-01-12 23:35:04.08	116.65	74.69	-71.4	-95.4	3.8	14927742	99	57162
2025-01-12 23:35:04.29	117.04	74.67	-71.4	-95.2	3.8	14904884	99	55867
2025-01-12 23:35:04.49	117.41	74.65	-71.4	-95.4	3.8	14900581	99	57013
2025-01-12 23:35:04.70	117.80	74.63	-71.4	-95.2	3.8	14900581	99	56387
2025-01-12 23:35:04.91	118.18	74.60	-71.4	-95.3	3.8	14900581	99	56415
2025-01-12 23:35:05.11	118.55	74.58	-71.4	-95.3	3.9	14912605	99	56383
2025-01-12 23:35:05.32	118.93	74.56	-71.4	-95.4	3.9	14912605	99	57052
2025-01-12 23:35:05.53	119.31	74.53	-71.4	-95.2	3.9	14891548	99	55958
2025-01-12 23:35:05.74	119.70	74.51	-71.1	-95.0	3.9	14891548	99	56296
2025-01-12 23:35:05.94	120.06	74.48	-71.4	-95.4	3.8	14907791	99	57056
2025-01-12 23:35:06.15	120.44	74.46	-71.4	-95.4	3.8	14907791	99	57081
2025-01-12 23:35:06.36	120.81	74.43	-71.3	-95.3	3.8	14911140	99	56645
2025-01-12 23:35:06.56	121.17	74.40	-71.3	-95.2	3.8	14911140	99	56439
2025-01-12 23:35:06.77	121.55	74.37	-71.4	-95.3	3.8	14910125	99	56514
2025-01-12 23:35:06.98	121.92	74.35	-71.3	-95.1	3.8	14910125	99	55221
2025-01-12 23:35:07.18	122.27	74.32	-71.3	-95.2	3.7	14910026	99	56584
2025-01-12 23:35:07.39	122.64	74.29	-71.3	-95.2	3.8	14910026	99	56371
2025-01-12 23:35:07.60	123.01	74.26	-71.3	-95.2	3.8	14912506	99	56332
2025-01-12 23:35:07.80	123.36	74.23	-71.4	-95.4	3.8	14912506	99	56705
2025-01-12 23:35:08.01	123.73	74.19	-71.4	-95.2	4.0	14905838	99	55619
2025-01-12 23:35:08.22	124.09	74.16	-71.4	-95.3	3.8	14905838	99	56207
2025-01-12 23:35:08.43	124.45	74.13	-71.4	-95.3	3.9	14905838	99	56683
2025-01-12 23:35:08.63	124.80	74.10	-71.4	-95.2	3.9	14912956	99	55918
2025-01-12 23:35:08.84	125.16	74.06	-71.4	-95.3	3.9	14912956	99	56816
2025-01-12 23:35:09.05	125.51	74.03	-71.4	-95.4	3.8	14888031	99	57229
2025-01-12 23:35:09.25	125.85	73.99	-71.4	-95.3	3.8	14888031	99	56563
2025-01-12 23:35:09.46	126.21	73.96	-71.3	-94.9	3.8	14909103	99	54314
2025-01-12 23:35:09.67	126.56	73.92	-71.3	-95.2	3.8	14909103	99	56535
2025-01-12 23:35:09.87	126.89	73.88	-71.2	-95.2	3.8	14916290	99	57145
2025-01-12 23:35:10.08	127.24	73.85	-71.3	-95.2	3.8	14916290	99	56184
2025-01-12 23:35:10.29	127.59	73.81	-71.4	-95.3	3.8	14891502	99	56344
2025-01-12 23:35:10.50	127.94	73.77	-71.4	-95.2	3.9	14891502	99	55748
2025-01-12 23:35:10.70	128.27	73.73	-71.3	-95.0	3.8	14910804	99	55327
2025-01-12 23:35:10.91	128.61	73.69	-71.4	-95.2	3.8	14910804	99	56311
2025-01-12 23:35:11.12	128.95	73.65	-71.4	-95.2	3.9	14912597	99	55993
2025-01-12 23:35:11.32	129.27	73.61	-71.4	-95.4	3.8	14912597	99	57031
2025-01-12 23:35:11.53	129.61	73.57	-71.4	-95.4	3.8	14912239	99	57059
2025-01-12 23:35:11.74	129.95	73.53	-71.4	-95.4	3.8	14912239	99	56994
2025-01-12 23:35:11.94	130.27	73.49	-70.8	-93.4	3.9	14909637	99	48419
2025-01-12 23:35:12.15	130.60	73.45	-71.3	-94.5	3.9	14909637	99	52228
2025-01-12 23:35:12.36	130.93	73.40	-71.4	-95.1	4.0	14909637	99	55052
2025-01-12 23:35:12.56	131.24	73.36	-71.4	-94.9	3.6	14946640	99	54158
2025-01-12 23:35:12.77	131.57	73.32	-71.3	-95.1	3.7	14946640	99	55657
2025-01-12 23:35:12.97	131.88	73.27	-71.3	-94.8	3.8	14917938	99	54118
2025-01-12 23:35:13.18	132.20	73.23	-71.4	-95.3	3.8	14917938	99	56504
2025-01-12 23:35:13.38	132.51	73.18	-71.4	-94.9	3.8	14903839	99	54011
2025-01-12 23:35:13.59	132.83	73.14	-71.3	-95.3	3.8	14903839	99	56628
2025-01-12 23:35:13.79	133.13	73.09	-71.4	-95.4	3.8	14899375	99	57205
2025-01-12 23:35:13.99	133.43	73.05	-71.3	-95.3	3.7	14899375	99	56830
2025-01-12 23:35:14.20	133.75	73.00	-71.3	-94.8	3.8	14915267	99	54032
2025-01-12 23:35:14.41	134.06	72.95	-71.3	-95.2	3.6	14915267	99	55898
2025-01-12 23:35:14.61	134.35	72.91	-71.3	-95.0	3.7	14911605	99	55381
2025-01-12 23:35:14.82	134.66	72.86	-71.3	-94.9	4.0	14911605	99	54263
2025-01-12 23:35:15.02	134.96	72.81	-71.1	-94.5	3.9	14904235	99	53210
2025-01-12 23:35:15.22	135.25	72.76	-71.5	-95.1	3.8	14904235	99	54977
2025-01-12 23:35:15.43	135.55	72.71	-71.2	-94.7	3.9	14904235	99	53916
2025-01-12 23:35:15.63	135.84	72.66	-71.3	-94.9	4.0	14914154	99	54496
2025-01-12 23:35:15.84	136.14	72.61	-71.3	-95.1	3.7	14914154	99	55915
2025-01-12 23:35:16.04	136.42	72.56	-71.3	-94.9	3.7	14902030	99	54886
2025-01-12 23:35:16.25	136.72	72.51	-71.3	-94.8	4.0	14902030	99	54022
2025-01-12 23:35:16.45	137.00	72.46	-71.3	-94.9	4.0	14914253	99	54319
2025-01-12 23:35:16.66	137.29	72.41	-71.3	-95.1	3.8	14914253	99	55241
2025-01-12 23:35:16.86	137.57	72.36	-71.3	-94.8	3.9	14894058	99	53877
2025-01-12 23:35:17.06	137.84	72.31	-71.4	-95.3	3.8	14894058	99	56319
2025-01-12 23:35:17.27	138.13	72.25	-71.4	-95.3	3.8	14908981	99	56665
2025-01-12 23:35:17.47	138.40	72.20	-71.4	-95.3	3.8	14908981	99	56448
2025-01-12 23:35:17.67	138.67	72.15	-71.4	-95.3	3.8	14915786	99	56164
2025-01-12 23:35:17.87	138.94	72.09	-71.3	-95.0	3.8	14915786	99	54871
2025-01-12 23:35:18.07	139.21	72.04	-71.4	-95.4	3.8	14923469	99	56581
2025-01-12 23:35:18.28	139.49	71.99	-71.4	-95.4	3.7	14923469	99	57174
2025-01-12 23:35:18.48	139.75	71.93	-71.4	-95.3	3.8	14923469	99	56433
2025-01-12 23:35:18.69	140.02	71.88	-71.3	-95.3	3.9	14903518	99	57127
2025-01-12 23:35:18.89	140.28	71.82	-71.4	-95.2	3.7	14903518	99	55767
2025-01-12 23:35:19.10	140.56	71.76	-71.4	-95.2	3.7	14908325	99	55912
2025-01-12 23:35:19.31	140.83	71.71	-71.4	-95.3	3.9	14908325	99	56749
2025-01-12 23:35:19.51	141.08	71.65	-71.3	-94.9	3.7	14914405	99	54620
2025-01-12 23:35:19.71	141.33	71.60	-71.3	-94.9	3.7	14914405	99	54118
2025-01-12 23:35:19.92	141.60	71.54	-71.4	-95.4	3.7	14914474	99	56827
2025-01-12 23:35:20.12	141.85	71.48	-71.4	-95.2	3.7	14914474	99	55818
2025-01-12 23:35:20.32	142.10	71.42	-71.3	-94.9	3.8	14903968	99	54411
2025-01-12 23:35:20.53	142.36	71.37	-71.4	-95.0	3.9	14903968	99	54833
2025-01-12 23:35:20.73	142.60	71.31	-71.4	-95.1	3.9	14915382	99	55197
2025-01-12 23:35:20.93	142.85	71.25	-71.4	-95.2	3.9	14915382	99	55964
2025-01-12 23:35:21.14	143.10	71.19	-71.1	-94.2	3.8	14915382	99	51364
2025-01-12 23:35:21.34	143.34	71.13	-71.0	-93.9	3.8	14906478	99	50052
2025-01-12 23:35:21.55	143.59	71.07	-71.3	-94.6	3.8	14906715	99	52752
2025-01-12 23:35:21.76	143.84	71.01	-71.3	-94.7	3.8	14906715	99	53229
2025-01-12 23:35:21.97	144.09	70.95	-70.5	-92.4	3.9	14906715	99	44689
2025-01-12 23:35:22.18	144.33	70.89	-71.4	-94.1	3.8	14892944	99	49505
2025-01-12 23:35:22.38	144.57	70.83	-71.4	-95.4	3.9	14892944	99	56840
2025-01-12 23:35:22.59	144.81	70.76	-71.4	-95.4	3.8	14929443	99	56745
2025-01-12 23:35:22.80	145.05	70.70	-71.4	-95.4	3.8	14929443	99	57018
2025-01-12 23:35:23.00	145.28	70.64	-71.4	-95.3	3.8	14908264	99	56969
2025-01-12 23:35:23.21	145.51	70.58	-71.4	-95.4	3.8	14908264	99	57082
2025-01-12 23:35:23.42	145.75	70.51	-71.4	-95.4	3.8	14909614	99	56645
2025-01-12 23:35:23.63	145.98	70.45	-71.4	-95.2	3.7	14909614	99	56018
2025-01-12 23:35:23.83	146.21	70.39	-71.4	-95.4	3.8	14914123	99	57112
2025-01-12 23:35:24.04	146.44	70.32	-71.5	-95.5	3.8	14914123	99	57489
2025-01-12 23:35:24.25	146.67	70.26	-71.5	-95.5	3.8	14910049	99	57209
2025-01-12 23:35:24.45	146.88	70.20	-71.4	-95.5	3.8	14910049	99	57269

#Closed at: 2025-01-12 23:35:24