passes_logs/2025/01/12/X_MFTI_01/X_MFTI_01__20250112_111529_FENGYUN_3D_rec.log

#Pass ID: 20250112_111529_FENGYUN 3D
#Satellite: FENGYUN 3D
#Configuration: FENGYUN 3D
#Start time: 2025-01-12 11:15:23

#Version: 1.5.20200625
#Station: X_MFTI_01
#Location: 37.5186 lon 55.9291 lat
#TLE: 1 43010U 17072A   23362.50642187  .00000183  00000+0  10870-3 0  9994
#TLE: 2 43010  98.8887 311.3857 0002475  98.0400 262.1057 14.19259665317063

#Time	Az	El	Level	Level2	SNR	BER	Gain	Gain2
2025-01-12 11:15:23.70	143.58	67.83	-74.9	-95.9	3.7	8463294	99	40042
2025-01-12 11:15:24.12	143.42	68.01	-74.7	-95.6	3.8	8462882	99	40173
2025-01-12 11:15:24.54	143.26	68.20	-74.8	-95.8	3.8	8462322	99	40214
2025-01-12 11:15:24.96	143.10	68.38	-74.8	-95.5	3.8	8454025	99	39314
2025-01-12 11:15:25.37	142.94	68.56	-74.7	-95.7	3.8	8457035	99	40406
2025-01-12 11:15:25.79	142.77	68.75	-74.7	-95.6	3.8	8459690	99	39774
2025-01-12 11:15:26.21	142.60	68.93	-74.8	-95.8	3.7	8457241	99	40326
2025-01-12 11:15:26.63	142.42	69.11	-74.7	-95.6	3.8	8454952	99	39778
2025-01-12 11:15:27.04	142.24	69.29	-74.8	-95.7	3.8	8457241	99	39983
2025-01-12 11:15:27.46	142.06	69.48	-74.8	-95.7	3.8	8463832	99	39882
2025-01-12 11:15:27.87	141.88	69.66	-74.8	-95.4	3.7	8460582	99	38679
2025-01-12 11:15:28.28	141.70	69.84	-74.8	-95.4	3.8	8450408	99	38802
2025-01-12 11:15:28.70	141.50	70.03	-74.8	-95.7	3.8	8454803	99	39956
2025-01-12 11:15:29.11	141.31	70.21	-74.7	-95.6	3.8	8461257	99	39919
2025-01-12 11:15:29.53	141.11	70.39	-74.7	-95.5	3.8	8451370	99	39436
2025-01-12 11:15:29.95	140.90	70.58	-74.7	-95.4	3.8	8446105	99	39026
2025-01-12 11:15:30.36	140.70	70.76	-74.8	-95.7	3.8	8462345	99	39914
2025-01-12 11:15:30.78	140.48	70.95	-74.7	-95.5	3.8	8456462	99	39854
2025-01-12 11:15:31.20	140.26	71.13	-74.7	-95.3	3.8	8468456	99	38618
2025-01-12 11:15:31.61	140.05	71.31	-74.7	-95.6	3.8	8463123	99	39977
2025-01-12 11:15:32.03	139.82	71.50	-74.7	-95.6	3.8	8463615	99	39890
2025-01-12 11:15:32.45	139.59	71.69	-74.7	-95.6	3.7	8451610	99	39934
2025-01-12 11:15:32.87	139.35	71.87	-74.7	-95.6	3.8	8472358	99	40127
2025-01-12 11:15:33.28	139.11	72.05	-74.7	-95.7	3.8	8462219	99	40523
2025-01-12 11:15:33.70	138.86	72.24	-74.7	-95.7	3.8	8467002	99	40359
2025-01-12 11:15:34.11	138.61	72.42	-74.7	-95.6	3.8	8462734	99	39816
2025-01-12 11:15:34.53	138.35	72.61	-74.7	-95.6	3.8	8452068	99	39907
2025-01-12 11:15:34.95	138.09	72.79	-74.7	-95.7	3.8	8453498	99	40454
2025-01-12 11:15:35.36	137.82	72.98	-74.7	-95.7	3.8	8457653	99	40386
2025-01-12 11:15:35.78	137.55	73.16	-74.7	-95.5	3.8	8462791	99	39406
2025-01-12 11:15:36.20	137.26	73.35	-74.7	-95.4	3.8	8458419	99	39230
2025-01-12 11:15:36.62	136.97	73.53	-74.7	-95.8	3.8	8460617	99	40587
2025-01-12 11:15:37.03	136.68	73.72	-74.6	-95.6	3.8	8459541	99	40352
2025-01-12 11:15:37.45	136.37	73.90	-74.7	-95.7	3.8	8459518	99	39983
2025-01-12 11:15:37.87	136.06	74.09	-74.8	-95.8	3.8	8447227	99	40456
2025-01-12 11:15:38.29	135.74	74.27	-74.8	-95.8	3.8	8447570	99	40435
2025-01-12 11:15:38.70	135.42	74.45	-74.6	-95.5	3.7	8465858	99	39779
2025-01-12 11:15:39.12	135.08	74.64	-74.6	-95.5	3.8	8447685	99	39958
2025-01-12 11:15:39.54	134.74	74.82	-74.7	-95.7	3.8	8467334	99	40410
2025-01-12 11:15:39.96	134.38	75.01	-74.7	-95.7	3.7	8462779	99	40469
2025-01-12 11:15:40.38	134.02	75.19	-74.7	-95.5	3.8	8458236	99	39644
2025-01-12 11:15:40.79	133.66	75.37	-74.8	-95.6	3.8	8458900	99	39716
2025-01-12 11:15:41.21	133.27	75.55	-74.7	-95.7	3.8	8449150	99	40259
2025-01-12 11:15:41.63	132.88	75.73	-74.8	-95.7	3.7	8469062	99	40158
2025-01-12 11:15:42.05	132.48	75.92	-74.7	-95.5	3.8	8463008	99	39653
2025-01-12 11:15:42.46	132.08	76.09	-74.7	-95.7	3.8	8463088	99	40194
2025-01-12 11:15:42.88	131.65	76.28	-74.7	-95.6	3.8	8463283	99	39952
2025-01-12 11:15:43.30	131.21	76.46	-74.7	-95.5	3.7	8451965	99	39607
2025-01-12 11:15:43.72	130.76	76.64	-74.7	-95.4	3.8	8465263	99	39140
2025-01-12 11:15:44.13	130.31	76.81	-74.8	-95.7	3.8	8469326	99	40073
2025-01-12 11:15:44.55	129.84	76.99	-74.6	-95.6	3.8	8452926	99	40102
2025-01-12 11:15:44.97	129.35	77.17	-74.8	-95.7	3.8	8462928	99	39975
2025-01-12 11:15:45.38	128.86	77.34	-74.7	-95.6	3.8	8457263	99	40175
2025-01-12 11:15:45.80	128.34	77.52	-74.7	-95.5	3.8	8459632	99	39899
2025-01-12 11:15:46.22	127.81	77.70	-74.7	-95.6	3.8	8460971	99	40018
2025-01-12 11:15:46.64	127.26	77.87	-74.7	-95.4	3.8	8447238	99	39080
2025-01-12 11:15:47.05	126.71	78.04	-74.7	-95.6	3.8	8456737	99	40002
2025-01-12 11:15:47.47	126.13	78.21	-74.7	-95.6	3.8	8472198	99	39928
2025-01-12 11:15:47.89	125.53	78.39	-74.7	-95.7	3.8	8450592	99	40184
2025-01-12 11:15:48.31	124.92	78.56	-74.7	-95.6	3.8	8459690	99	39757
2025-01-12 11:15:48.72	124.30	78.72	-74.6	-95.6	3.8	8451599	99	40231
2025-01-12 11:15:49.14	123.64	78.89	-74.7	-95.7	3.8	8456005	99	40058
2025-01-12 11:15:49.56	122.96	79.06	-74.7	-95.5	3.6	8461360	99	39553
2025-01-12 11:15:49.98	122.27	79.23	-74.6	-95.4	3.9	8455821	99	39620
2025-01-12 11:15:50.39	121.56	79.39	-74.6	-95.6	3.8	8461154	99	40187
2025-01-12 11:15:50.81	120.82	79.55	-74.6	-95.5	3.7	8451862	99	40053
2025-01-12 11:15:51.23	120.05	79.71	-74.7	-95.7	3.8	8449424	99	40039
2025-01-12 11:15:51.64	119.28	79.87	-74.6	-95.6	3.8	8462047	99	40330
2025-01-12 11:15:52.06	118.47	80.02	-74.8	-95.7	3.8	8459953	99	40124
2025-01-12 11:15:52.48	117.62	80.18	-74.7	-95.7	3.8	8466304	99	40317
2025-01-12 11:15:52.90	116.75	80.33	-74.8	-95.4	3.8	8463523	99	38663
2025-01-12 11:15:53.31	115.88	80.48	-74.7	-95.6	3.8	8466075	99	39897
2025-01-12 11:15:53.73	114.95	80.63	-74.7	-95.6	3.8	8456668	99	39919
2025-01-12 11:15:54.15	113.99	80.78	-74.7	-95.6	3.7	8449882	99	39884
2025-01-12 11:15:54.57	113.00	80.92	-74.7	-95.7	3.8	8459987	99	40073
2025-01-12 11:15:54.98	112.01	81.06	-74.7	-95.6	3.8	8453567	99	39916
2025-01-12 11:15:55.40	110.95	81.20	-74.8	-95.7	3.8	8458053	99	39875
2025-01-12 11:15:55.81	109.89	81.33	-74.8	-95.6	3.8	8457504	99	39458
2025-01-12 11:15:56.23	108.77	81.47	-74.8	-95.6	3.8	8451324	99	39428
2025-01-12 11:15:56.64	107.64	81.59	-74.7	-95.6	3.8	8468204	99	39892
2025-01-12 11:15:57.06	106.45	81.72	-74.7	-95.6	3.8	8450855	99	40052
2025-01-12 11:15:57.48	105.22	81.84	-74.8	-95.7	3.8	8451850	99	39951
2025-01-12 11:15:57.90	103.95	81.96	-74.7	-95.7	3.8	8458786	99	40503
2025-01-12 11:15:58.31	102.68	82.08	-74.6	-95.6	3.8	8464153	99	40423
2025-01-12 11:15:58.73	101.34	82.19	-74.7	-95.7	3.8	8453578	99	40455
2025-01-12 11:15:59.15	99.96	82.29	-74.6	-95.3	3.8	8460182	99	39357
2025-01-12 11:15:59.56	98.57	82.39	-74.7	-95.8	3.8	8452182	99	40470
2025-01-12 11:15:59.98	97.12	82.49	-74.6	-95.6	3.8	8468307	99	40412
2025-01-12 11:16:00.40	95.62	82.58	-74.7	-95.7	3.8	8451152	99	40382
2025-01-12 11:16:00.81	94.13	82.67	-74.7	-95.4	3.8	8456600	99	39022
2025-01-12 11:16:01.23	92.56	82.75	-74.6	-95.6	3.8	8464794	99	40366
2025-01-12 11:16:01.65	90.96	82.83	-74.6	-95.7	3.8	8454105	99	40424
2025-01-12 11:16:02.07	89.32	82.90	-74.7	-95.5	3.8	8470081	99	39454
2025-01-12 11:16:02.49	87.66	82.97	-74.7	-95.5	3.8	8454654	99	39503
2025-01-12 11:16:02.90	86.00	83.03	-74.7	-95.6	3.8	8463535	99	40168
2025-01-12 11:16:03.32	84.27	83.08	-74.6	-95.6	3.7	8457103	99	40142
2025-01-12 11:16:03.74	82.52	83.13	-74.8	-95.5	3.8	8461589	99	39008
2025-01-12 11:16:04.15	80.79	83.17	-74.7	-95.6	3.8	8462299	99	40187
2025-01-12 11:16:04.57	79.00	83.20	-74.7	-95.7	3.8	8450225	99	40234
2025-01-12 11:16:04.99	77.19	83.23	-74.7	-95.7	3.7	8466567	99	40069
2025-01-12 11:16:05.41	75.37	83.25	-74.7	-95.7	3.8	8470939	99	40007
2025-01-12 11:16:05.82	73.58	83.26	-74.8	-95.8	3.8	8459003	99	40169
2025-01-12 11:16:06.24	71.74	83.27	-74.7	-95.6	3.8	8452651	99	40234
2025-01-12 11:16:06.66	69.90	83.27	-74.7	-95.5	3.8	8455718	99	39367
2025-01-12 11:16:07.07	68.10	83.26	-74.8	-95.6	3.8	8467117	99	39421
2025-01-12 11:16:07.49	66.27	83.25	-74.6	-95.6	3.8	8459117	99	40196
2025-01-12 11:16:07.91	64.45	83.23	-74.6	-95.5	3.8	8445098	99	40093
2025-01-12 11:16:08.33	62.64	83.20	-74.6	-95.5	3.8	8462791	99	39867
2025-01-12 11:16:08.74	60.88	83.17	-74.7	-95.6	3.8	8453281	99	39861
2025-01-12 11:16:09.16	59.11	83.13	-74.7	-95.7	3.8	8467037	99	40152
2025-01-12 11:16:09.57	57.39	83.09	-74.6	-95.5	3.8	8458889	99	40224
2025-01-12 11:16:09.99	55.67	83.03	-74.6	-95.5	3.8	8469875	99	39806
2025-01-12 11:16:10.41	53.96	82.98	-74.6	-95.5	3.8	8456874	99	40116
2025-01-12 11:16:10.82	52.33	82.91	-74.6	-95.6	3.8	8467380	99	40193
2025-01-12 11:16:11.24	50.69	82.84	-74.6	-95.5	3.8	8465618	99	40094
2025-01-12 11:16:11.66	49.08	82.77	-74.6	-95.6	3.8	8458866	99	40036
2025-01-12 11:16:12.08	47.51	82.68	-74.7	-95.6	3.8	8456188	99	40188
2025-01-12 11:16:12.49	46.01	82.60	-74.6	-95.5	3.8	8459884	99	40168
2025-01-12 11:16:12.91	44.51	82.51	-74.6	-95.4	3.8	8466579	99	39370
2025-01-12 11:16:13.33	43.05	82.41	-74.7	-95.5	3.8	8452606	99	39317
2025-01-12 11:16:13.75	41.63	82.31	-74.7	-95.7	3.8	8466567	99	40457
2025-01-12 11:16:14.16	40.27	82.21	-74.7	-95.6	3.7	8471752	99	40080
2025-01-12 11:16:14.58	38.93	82.09	-74.7	-95.5	3.8	8459987	99	39454
2025-01-12 11:16:14.99	37.65	81.98	-74.8	-95.7	3.8	8457069	99	40266
2025-01-12 11:16:15.41	36.37	81.86	-74.7	-95.7	3.8	8461818	99	40233
2025-01-12 11:16:15.83	35.14	81.74	-74.7	-95.6	3.6	8456256	99	40146
2025-01-12 11:16:16.24	33.97	81.62	-74.7	-95.5	3.8	8455387	99	39310
2025-01-12 11:16:16.66	32.81	81.49	-74.8	-95.8	3.8	8460960	99	40190
2025-01-12 11:16:17.08	31.68	81.36	-74.7	-95.7	3.7	8455581	99	40124
2025-01-12 11:16:17.49	30.61	81.23	-74.7	-95.4	3.8	8455398	99	39067
2025-01-12 11:16:17.91	29.56	81.09	-74.7	-95.4	3.8	8464130	99	39193
2025-01-12 11:16:18.33	28.53	80.95	-74.7	-95.6	3.8	8448863	99	40182
2025-01-12 11:16:18.75	27.54	80.80	-74.3	-94.5	4.0	8453968	99	36702
2025-01-12 11:16:19.16	26.60	80.66	-74.7	-95.4	3.8	8452079	99	39119
2025-01-12 11:16:19.58	25.67	80.51	-74.8	-95.5	3.8	8461315	99	39109
2025-01-12 11:16:20.00	24.76	80.36	-74.7	-95.7	3.8	8466213	99	40230
2025-01-12 11:16:20.41	23.91	80.21	-74.7	-95.7	3.8	8442226	99	40198
2025-01-12 11:16:20.83	23.06	80.05	-74.7	-95.4	3.8	8458774	99	39334
2025-01-12 11:16:21.25	22.24	79.90	-74.8	-95.7	3.8	8462757	99	40135
2025-01-12 11:16:21.66	21.47	79.74	-74.7	-95.6	3.8	8445980	99	40185
2025-01-12 11:16:22.08	20.70	79.58	-74.6	-95.6	3.8	8464130	99	40005
2025-01-12 11:16:22.49	19.97	79.42	-74.7	-95.4	3.8	8446849	99	38699
2025-01-12 11:16:22.91	19.25	79.26	-74.7	-95.7	3.8	8451702	99	40295
2025-01-12 11:16:23.33	18.55	79.09	-74.6	-95.6	3.8	8453945	99	40124
2025-01-12 11:16:23.75	17.87	78.92	-74.7	-95.5	3.8	8465858	99	39307
2025-01-12 11:16:24.16	17.22	78.76	-74.7	-95.4	3.8	8468204	99	39333
2025-01-12 11:16:24.58	16.58	78.59	-74.8	-95.7	3.8	8457115	99	40285
2025-01-12 11:16:25.00	15.96	78.42	-74.7	-95.7	3.8	8445522	99	40225
2025-01-12 11:16:25.42	15.36	78.25	-74.8	-95.6	3.8	8458271	99	39530
2025-01-12 11:16:25.83	14.79	78.08	-74.7	-95.7	3.8	8469245	99	40215
2025-01-12 11:16:26.25	14.23	77.90	-74.7	-95.7	3.8	8452651	99	40227
2025-01-12 11:16:26.67	13.68	77.73	-74.7	-95.7	3.7	8457744	99	40158
2025-01-12 11:16:27.08	13.15	77.56	-74.7	-95.7	3.8	8449115	99	40053
2025-01-12 11:16:27.50	12.63	77.38	-74.7	-95.6	3.8	8455524	99	40091
2025-01-12 11:16:27.92	12.13	77.20	-74.7	-95.6	3.8	8459861	99	40139
2025-01-12 11:16:28.33	11.65	77.03	-74.6	-95.6	3.7	8458671	99	40327
2025-01-12 11:16:28.75	11.17	76.85	-74.6	-95.6	3.8	8454139	99	40433
2025-01-12 11:16:29.17	10.71	76.67	-74.6	-95.6	3.8	8466636	99	40099
2025-01-12 11:16:29.59	10.26	76.49	-74.6	-95.6	3.8	8450317	99	40187
2025-01-12 11:16:30.00	9.83	76.32	-74.6	-95.4	3.8	8461521	99	39750
2025-01-12 11:16:30.42	9.40	76.13	-74.6	-95.5	3.8	8467082	99	39742
2025-01-12 11:16:30.84	8.99	75.95	-74.7	-95.7	3.8	8455387	99	40016
2025-01-12 11:16:31.26	8.58	75.77	-74.8	-95.7	3.8	8459186	99	40002
2025-01-12 11:16:31.67	8.20	75.59	-74.7	-95.4	3.8	8453361	99	38968
2025-01-12 11:16:32.09	7.82	75.41	-74.7	-95.7	3.8	8451107	99	40407
2025-01-12 11:16:32.51	7.44	75.23	-74.6	-95.6	3.8	8454105	99	40453
2025-01-12 11:16:32.93	7.08	75.04	-74.7	-95.6	3.8	8457229	99	40202
2025-01-12 11:16:33.34	6.73	74.86	-74.7	-95.4	3.8	8451438	99	38849
2025-01-12 11:16:33.76	6.38	74.68	-74.7	-95.7	3.8	8446300	99	40226
2025-01-12 11:16:34.17	6.05	74.50	-74.8	-95.8	3.8	8463798	99	40245
2025-01-12 11:16:34.59	5.72	74.32	-74.6	-95.4	3.8	8444606	99	39380
2025-01-12 11:16:35.01	5.40	74.13	-74.7	-95.5	3.8	8469005	99	39434
2025-01-12 11:16:35.43	5.09	73.95	-74.6	-95.6	3.8	8453189	99	40214
2025-01-12 11:16:35.85	4.78	73.76	-74.6	-95.6	3.8	8455844	99	40213
2025-01-12 11:16:36.26	4.49	73.58	-74.6	-95.4	3.8	8459220	99	39633
2025-01-12 11:16:36.68	4.20	73.39	-74.7	-95.6	3.8	8466831	99	40077
2025-01-12 11:16:37.10	3.91	73.21	-74.7	-95.6	3.8	8458580	99	40192
2025-01-12 11:16:37.52	3.63	73.02	-74.6	-95.4	3.7	8455284	99	39255
2025-01-12 11:16:37.93	3.36	72.84	-74.7	-95.5	3.8	8461051	99	39354
2025-01-12 11:16:38.35	3.10	72.66	-74.7	-95.7	3.8	8459095	99	40121
2025-01-12 11:16:38.77	2.84	72.47	-74.6	-95.6	3.7	8470355	99	40216
2025-01-12 11:16:39.18	2.59	72.29	-74.7	-95.6	3.7	8451896	99	39782
2025-01-12 11:16:39.60	2.34	72.10	-74.7	-95.6	3.7	8455696	99	40032
2025-01-12 11:16:40.02	2.10	71.92	-74.7	-95.7	3.8	8454082	99	40214
2025-01-12 11:16:40.43	1.86	71.74	-74.8	-95.7	3.7	8453773	99	40168
2025-01-12 11:16:40.85	1.63	71.55	-74.8	-95.6	3.8	8461441	99	39290
2025-01-12 11:16:41.27	1.40	71.36	-74.7	-95.5	3.8	8459529	99	39407
2025-01-12 11:16:41.69	1.18	71.18	-74.7	-95.7	3.8	8449916	99	40280
2025-01-12 11:16:42.10	0.96	71.00	-74.7	-95.7	3.8	8468055	99	40264
2025-01-12 11:16:42.52	0.75	70.81	-74.8	-95.6	3.8	8462482	99	39815
2025-01-12 11:16:42.94	0.54	70.63	-74.7	-95.7	3.8	8450008	99	40573
2025-01-12 11:16:43.36	0.33	70.44	-74.6	-95.7	3.8	8466945	99	40553
2025-01-12 11:16:43.77	0.13	70.26	-74.6	-95.7	3.8	8453567	99	40426

#Closed at: 2025-01-12 11:16:44