passes_logs/2025/01/12/X_MFTI_01/X_MFTI_01__20250112_012515_FENGYUN_3D_rec.log

#Pass ID: 20250112_012515_FENGYUN 3D
#Satellite: FENGYUN 3D
#Configuration: FENGYUN 3D
#Start time: 2025-01-12 01:25:09

#Version: 1.5.20200625
#Station: X_MFTI_01
#Location: 37.5186 lon 55.9291 lat
#TLE: 1 43010U 17072A   23362.50642187  .00000183  00000+0  10870-3 0  9994
#TLE: 2 43010  98.8887 311.3857 0002475  98.0400 262.1057 14.19259665317063

#Time	Az	El	Level	Level2	SNR	BER	Gain	Gain2
2025-01-12 01:25:09.81	315.26	69.15	-74.8	-95.8	3.8	8454540	99	40331
2025-01-12 01:25:10.03	314.99	69.19	-74.8	-95.8	3.8	8449081	99	40301
2025-01-12 01:25:10.24	314.72	69.23	-74.8	-95.8	3.8	8449081	99	40298
2025-01-12 01:25:10.44	314.47	69.27	-74.8	-95.8	3.8	8454654	99	40209
2025-01-12 01:25:10.64	314.21	69.30	-74.8	-95.7	3.8	8458019	99	40151
2025-01-12 01:25:10.86	313.93	69.34	-74.8	-95.8	3.8	8458019	99	40159
2025-01-12 01:25:11.07	313.67	69.38	-74.8	-95.7	3.8	8443130	99	39924
2025-01-12 01:25:11.27	313.41	69.41	-74.7	-95.6	3.8	8454311	99	39998
2025-01-12 01:25:11.49	313.13	69.45	-74.8	-95.8	3.8	8456325	99	40277
2025-01-12 01:25:11.69	312.87	69.48	-74.7	-95.6	3.8	8456325	99	39680
2025-01-12 01:25:11.91	312.58	69.52	-74.8	-95.7	3.8	8452159	99	40222
2025-01-12 01:25:12.12	312.31	69.56	-74.8	-95.7	3.8	8456073	99	40180
2025-01-12 01:25:12.34	312.02	69.59	-74.8	-95.7	3.7	8456073	99	40242
2025-01-12 01:25:12.55	311.74	69.63	-74.8	-95.8	3.8	8469062	99	40327
2025-01-12 01:25:12.77	311.45	69.66	-74.7	-95.7	3.8	8460514	99	40396
2025-01-12 01:25:12.98	311.18	69.69	-74.8	-95.7	3.8	8454494	99	40106
2025-01-12 01:25:13.20	310.88	69.73	-74.9	-95.8	3.8	8454494	99	40087
2025-01-12 01:25:13.40	310.62	69.76	-74.9	-95.8	3.8	8454769	99	39980
2025-01-12 01:25:13.61	310.34	69.79	-74.9	-95.8	3.8	8461921	99	40107
2025-01-12 01:25:13.83	310.04	69.82	-74.7	-95.7	3.8	8456142	99	40208
2025-01-12 01:25:14.04	309.76	69.85	-74.7	-95.5	3.8	8456142	99	39260
2025-01-12 01:25:14.26	309.46	69.88	-74.7	-95.5	3.8	8464370	99	39281
2025-01-12 01:25:14.47	309.18	69.91	-74.8	-95.5	3.8	8450935	99	39226
2025-01-12 01:25:14.68	308.89	69.94	-74.7	-95.7	3.8	8469944	99	40285
2025-01-12 01:25:14.89	308.61	69.97	-74.8	-95.8	3.8	8469944	99	40275
2025-01-12 01:25:15.11	308.31	70.00	-74.8	-95.8	3.9	8462139	99	40346
2025-01-12 01:25:15.32	308.02	70.03	-74.8	-95.7	3.8	8454872	99	40280
2025-01-12 01:25:15.54	307.72	70.06	-74.8	-95.5	3.7	8454872	99	39028
2025-01-12 01:25:15.74	307.44	70.08	-74.8	-95.5	3.8	8449241	99	39070
2025-01-12 01:25:15.94	307.16	70.11	-74.8	-95.5	3.8	8463226	99	39048
2025-01-12 01:25:16.15	306.87	70.14	-74.7	-95.7	3.8	8457710	99	40328
2025-01-12 01:25:16.37	306.57	70.16	-74.7	-95.7	3.8	8457710	99	40272
2025-01-12 01:25:16.58	306.27	70.19	-74.8	-95.7	3.8	8448131	99	40234
2025-01-12 01:25:16.80	305.97	70.21	-74.7	-95.7	3.7	8454597	99	40235
2025-01-12 01:25:17.00	305.69	70.24	-74.7	-95.7	3.7	8454597	99	40269
2025-01-12 01:25:17.22	305.38	70.26	-74.8	-95.6	3.9	8462699	99	39708
2025-01-12 01:25:17.43	305.08	70.28	-74.7	-95.6	3.8	8463924	99	39693
2025-01-12 01:25:17.63	304.80	70.31	-74.8	-95.7	3.9	8459735	99	39798
2025-01-12 01:25:17.83	304.52	70.33	-74.8	-95.8	3.8	8459735	99	40302
2025-01-12 01:25:18.05	304.20	70.35	-74.7	-95.8	3.8	8457046	99	40427
2025-01-12 01:25:18.27	303.89	70.37	-74.8	-95.8	3.8	8460170	99	40440
2025-01-12 01:25:18.48	303.59	70.39	-74.8	-95.7	3.8	8461532	99	40310
2025-01-12 01:25:18.68	303.30	70.41	-74.7	-95.5	3.8	8461532	99	39426
2025-01-12 01:25:18.90	302.99	70.43	-74.7	-95.5	3.8	8459117	99	39393
2025-01-12 01:25:19.10	302.70	70.45	-74.9	-95.7	3.8	8456302	99	39386
2025-01-12 01:25:19.30	302.41	70.47	-74.8	-95.8	3.8	8456302	99	40247
2025-01-12 01:25:19.51	302.11	70.49	-74.7	-95.7	3.8	8463306	99	40210
2025-01-12 01:25:19.73	301.79	70.50	-74.8	-95.8	3.8	8465206	99	40199
2025-01-12 01:25:19.93	301.50	70.52	-74.5	-95.4	3.8	8460823	99	39819
2025-01-12 01:25:20.14	301.20	70.54	-74.8	-95.7	3.8	8460823	99	40206
2025-01-12 01:25:20.36	300.88	70.55	-74.8	-95.6	3.8	8456142	99	39471
2025-01-12 01:25:20.57	300.58	70.57	-74.7	-95.5	3.8	8455421	99	39302
2025-01-12 01:25:20.79	300.25	70.59	-74.8	-95.7	3.8	8455421	99	40278
2025-01-12 01:25:21.01	299.93	70.60	-74.8	-95.6	3.8	8462711	99	39492
2025-01-12 01:25:21.22	299.63	70.61	-74.8	-95.7	3.8	8458259	99	40260
2025-01-12 01:25:21.44	299.30	70.63	-74.8	-95.8	3.8	8445316	99	40230
2025-01-12 01:25:21.65	299.00	70.64	-74.7	-95.7	3.8	8445316	99	40138
2025-01-12 01:25:21.87	298.67	70.65	-74.8	-95.7	3.8	8460296	99	39798
2025-01-12 01:25:22.08	298.36	70.67	-74.7	-95.6	3.8	8459403	99	39780
2025-01-12 01:25:22.30	298.04	70.68	-74.8	-95.6	3.8	8451770	99	39807
2025-01-12 01:25:22.51	297.73	70.69	-74.8	-95.8	3.8	8451770	99	40248
2025-01-12 01:25:22.73	297.41	70.70	-74.8	-95.7	3.8	8467643	99	40280
2025-01-12 01:25:22.94	297.09	70.71	-74.7	-95.7	3.8	8468696	99	40379
2025-01-12 01:25:23.16	296.77	70.72	-74.8	-95.8	3.8	8460102	99	40323
2025-01-12 01:25:23.37	296.46	70.73	-74.7	-95.6	3.8	8460102	99	39780
2025-01-12 01:25:23.59	296.13	70.74	-74.7	-95.5	3.8	8470046	99	39740
2025-01-12 01:25:23.81	295.81	70.74	-74.8	-95.6	3.8	8448314	99	39765
2025-01-12 01:25:24.02	295.49	70.75	-74.7	-95.7	3.8	8446426	99	40317
2025-01-12 01:25:24.24	295.17	70.76	-74.7	-95.7	3.8	8446426	99	40268
2025-01-12 01:25:24.45	294.85	70.76	-74.8	-95.7	3.8	8449825	99	40301
2025-01-12 01:25:24.67	294.53	70.77	-74.8	-95.8	3.8	8448692	99	40302
2025-01-12 01:25:24.88	294.21	70.77	-74.8	-95.7	3.8	8458545	99	39889
2025-01-12 01:25:25.08	293.92	70.78	-74.8	-95.6	3.8	8458545	99	39834
2025-01-12 01:25:25.30	293.59	70.78	-74.7	-95.6	3.8	8461956	99	39785
2025-01-12 01:25:25.50	293.29	70.78	-74.7	-95.6	3.8	8461395	99	40234
2025-01-12 01:25:25.72	292.96	70.79	-74.8	-95.8	3.8	8461395	99	40323
2025-01-12 01:25:25.92	292.66	70.79	-74.8	-95.8	3.8	8465240	99	40322
2025-01-12 01:25:26.13	292.35	70.79	-74.7	-95.6	3.8	8454723	99	39719
2025-01-12 01:25:26.35	292.02	70.79	-74.8	-95.8	3.8	8464782	99	40416
2025-01-12 01:25:26.56	291.71	70.79	-74.7	-95.5	3.8	8464782	99	39582
2025-01-12 01:25:26.77	291.40	70.79	-74.8	-95.6	3.8	8452697	99	39569
2025-01-12 01:25:26.98	291.08	70.79	-74.8	-95.7	3.8	8452548	99	40292
2025-01-12 01:25:27.18	290.78	70.79	-74.7	-95.6	3.8	8452548	99	39985
2025-01-12 01:25:27.38	290.49	70.79	-74.7	-95.7	3.8	8464862	99	40300
2025-01-12 01:25:27.58	290.19	70.79	-74.7	-95.7	3.8	8457653	99	40364
2025-01-12 01:25:27.80	289.86	70.78	-74.8	-95.8	3.8	8461853	99	40159
2025-01-12 01:25:28.01	289.55	70.78	-74.8	-95.4	3.8	8461853	99	38845
2025-01-12 01:25:28.21	289.25	70.78	-74.8	-95.5	3.8	8464633	99	38864
2025-01-12 01:25:28.42	288.93	70.77	-74.8	-95.5	3.8	8453670	99	38880
2025-01-12 01:25:28.62	288.64	70.77	-74.8	-95.8	3.8	8453670	99	40033
2025-01-12 01:25:28.83	288.32	70.76	-74.8	-95.7	3.8	8453510	99	40014
2025-01-12 01:25:29.05	288.00	70.75	-74.8	-95.8	3.8	8466464	99	40089
2025-01-12 01:25:29.26	287.69	70.75	-74.8	-95.6	3.8	8468238	99	39418
2025-01-12 01:25:29.46	287.39	70.74	-74.7	-95.7	3.8	8468238	99	40180
2025-01-12 01:25:29.68	287.06	70.73	-74.9	-95.5	3.9	8451679	99	38776
2025-01-12 01:25:29.89	286.75	70.72	-74.9	-95.5	3.8	8454471	99	38732
2025-01-12 01:25:30.11	286.42	70.72	-74.7	-95.7	3.8	8454471	99	40183
2025-01-12 01:25:30.31	286.13	70.71	-74.5	-95.3	3.8	8457515	99	39555
2025-01-12 01:25:30.51	285.83	70.70	-74.9	-95.8	3.8	8460662	99	40025
2025-01-12 01:25:30.72	285.52	70.69	-74.8	-95.7	3.8	8473045	99	40065
2025-01-12 01:25:30.94	285.20	70.68	-74.8	-95.7	3.8	8473045	99	40027
2025-01-12 01:25:31.16	284.87	70.66	-74.7	-95.5	3.8	8462482	99	39536
2025-01-12 01:25:31.36	284.58	70.65	-74.8	-95.6	3.8	8462528	99	39541
2025-01-12 01:25:31.56	284.29	70.64	-74.7	-95.5	3.8	8462528	99	39462
2025-01-12 01:25:31.76	283.99	70.63	-74.9	-95.8	3.8	8455741	99	40122
2025-01-12 01:25:31.97	283.69	70.61	-74.8	-95.7	3.8	8453189	99	40118
2025-01-12 01:25:32.19	283.36	70.60	-74.7	-95.7	3.8	8456462	99	40016
2025-01-12 01:25:32.40	283.06	70.59	-74.9	-95.8	3.8	8456462	99	40091
2025-01-12 01:25:32.62	282.74	70.57	-74.8	-95.7	3.8	8459941	99	39945
2025-01-12 01:25:32.82	282.45	70.55	-74.8	-95.7	3.8	8460857	99	39933
2025-01-12 01:25:33.03	282.14	70.54	-74.8	-95.8	3.8	8463970	99	40045
2025-01-12 01:25:33.25	281.82	70.52	-74.8	-95.7	3.8	8463970	99	40218
2025-01-12 01:25:33.47	281.50	70.50	-74.8	-95.8	3.8	8465148	99	40164
2025-01-12 01:25:33.68	281.20	70.49	-74.8	-95.7	3.8	8465858	99	40050
2025-01-12 01:25:33.89	280.90	70.47	-74.7	-95.6	3.8	8465858	99	39952
2025-01-12 01:25:34.11	280.58	70.45	-74.8	-95.7	3.8	8462276	99	40043
2025-01-12 01:25:34.32	280.28	70.43	-74.7	-95.6	3.8	8452812	99	39937
2025-01-12 01:25:34.54	279.96	70.41	-74.8	-95.7	3.8	8446861	99	39992
2025-01-12 01:25:34.74	279.68	70.39	-74.8	-95.7	3.8	8446861	99	40060
2025-01-12 01:25:34.96	279.36	70.37	-74.9	-95.8	3.8	8461463	99	40149
2025-01-12 01:25:35.17	279.06	70.35	-74.8	-95.7	3.8	8463535	99	40002
2025-01-12 01:25:35.39	278.75	70.32	-74.8	-95.7	3.8	8461269	99	39928
2025-01-12 01:25:35.60	278.46	70.30	-74.9	-95.8	3.7	8461269	99	40110
2025-01-12 01:25:35.82	278.14	70.28	-74.7	-95.4	3.8	8457641	99	38669
2025-01-12 01:25:36.03	277.85	70.25	-74.8	-95.5	3.8	8461223	99	38748
2025-01-12 01:25:36.25	277.54	70.23	-74.8	-95.5	3.8	8461486	99	38811
2025-01-12 01:25:36.46	277.24	70.20	-74.9	-95.8	3.8	8461486	99	39945
2025-01-12 01:25:36.68	276.94	70.18	-74.7	-95.7	3.8	8458648	99	40042
2025-01-12 01:25:36.90	276.63	70.15	-74.8	-95.7	3.8	8455249	99	40089
2025-01-12 01:25:37.11	276.34	70.13	-74.7	-95.7	3.8	8455249	99	40202
2025-01-12 01:25:37.33	276.03	70.10	-74.7	-95.4	3.8	8463718	99	38889

#Closed at: 2025-01-12 01:25:37