passes_logs/2026/01/15/R2M6_AANII_01/R2M6_AANII_01__20260115_134821_FENGYUN_3D_rec.log

#Pass ID: 20260115_134821_FENGYUN 3D
#Satellite: FENGYUN 3D
#Configuration: FENGYUN 3D
#almurnet v.1.7.20240730
#Start time: 2026-01-15 13:48:21

#Version: 2.2.20231116
#Station: R2M6_AANII_01
#Location: 30.233357 lon 59.946436 lat
#TLE: 1 43010U 17072A   26014.65117763 -.00000217  00000+0 -80772-4 0  9993
#TLE: 2 43010  98.9933 346.4618 0002330 108.4699 251.6730 14.19694700423204

#Time	Az	El	Level	Level2	SNR	BER	BlckErr	Temp	State	Recorded	gain1	gain2
2026-01-15 13:48:21.67	206.88	7.00	-27.9	-29.9	5.8	7.62e-01	0	43	0	0	16	4521
2026-01-15 13:48:24.65	207.14	7.20	-29.3	-32.3	10.8	1.67e-03	0	43	0	5242880	18	5083
2026-01-15 13:48:27.64	207.40	7.40	-28.3	-30.2	12.5	9.84e-05	0	43	0	22020096	17	4481
2026-01-15 13:48:30.63	207.67	7.60	-27.4	-28.5	13.9	1.10e-06	0	43	0	38797312	16	4115
2026-01-15 13:48:33.64	207.94	7.80	-27.5	-29.3	13.6	6.80e-06	0	43	0	55574528	15	4438
2026-01-15 13:48:36.63	208.21	8.00	-26.8	-27.7	14.5	0.00e+00	0	43	0	72351744	15	4002
2026-01-15 13:48:39.65	208.49	8.20	-26.7	-27.9	14.7	0.00e+00	0	43	0	89128960	14	4165
2026-01-15 13:48:42.66	208.77	8.41	-26.9	-28.4	14.5	0.00e+00	0	43	0	105906176	14	4278
2026-01-15 13:48:45.66	209.06	8.62	-26.9	-28.5	14.4	0.00e+00	0	43	0	123731968	14	4317
2026-01-15 13:48:48.65	209.34	8.82	-26.9	-28.4	14.5	0.00e+00	0	43	0	140509184	14	4291
2026-01-15 13:48:51.67	209.64	9.03	-26.7	-28.1	14.7	0.00e+00	0	43	0	157286400	14	4200
2026-01-15 13:48:54.68	209.94	9.24	-26.6	-27.7	14.9	0.00e+00	0	43	0	174063616	14	4110
2026-01-15 13:48:57.68	210.24	9.45	-26.6	-27.8	14.9	0.00e+00	0	43	0	190840832	14	4116
2026-01-15 13:49:00.69	210.54	9.66	-26.8	-28.3	14.6	0.00e+00	0	43	0	207618048	14	4251
2026-01-15 13:49:03.68	210.85	9.87	-26.4	-27.4	15.2	0.00e+00	0	43	0	224395264	14	4014
2026-01-15 13:49:06.68	211.17	10.09	-26.4	-27.3	15.2	0.00e+00	0	43	0	241172480	14	3996
2026-01-15 13:49:09.69	211.48	10.30	-26.2	-27.3	15.5	0.00e+00	0	43	0	258998272	13	4106
2026-01-15 13:49:12.70	211.81	10.52	-26.4	-27.8	15.2	0.00e+00	0	43	0	275775488	13	4221
2026-01-15 13:49:15.71	212.14	10.74	-26.2	-27.2	15.6	0.00e+00	0	43	0	292552704	13	4082
2026-01-15 13:49:18.71	212.47	10.95	-26.2	-27.3	15.5	1.10e-06	0	43	0	309329920	13	4102
2026-01-15 13:49:21.71	212.81	11.17	-26.0	-26.9	15.8	0.00e+00	0	43	0	326107136	13	3994
2026-01-15 13:49:24.72	213.15	11.39	-26.1	-27.1	15.7	0.00e+00	0	43	0	342884352	13	4035
2026-01-15 13:49:27.73	213.50	11.62	-26.0	-26.8	15.8	0.00e+00	0	43	0	359661568	13	3974
2026-01-15 13:49:30.73	213.85	11.84	-25.9	-26.7	15.9	0.00e+00	0	43	0	376438784	13	3947
2026-01-15 13:49:33.74	214.21	12.06	-26.0	-26.9	15.8	0.00e+00	0	44	0	394264576	13	3998
2026-01-15 13:49:36.72	214.57	12.28	-26.1	-27.1	15.8	0.00e+00	0	44	0	411041792	13	4033
2026-01-15 13:49:39.73	214.94	12.51	-25.9	-26.8	15.9	0.00e+00	0	44	0	427819008	13	3961
2026-01-15 13:49:42.74	215.31	12.74	-25.9	-26.6	16.0	0.00e+00	0	44	0	444596224	13	3925
2026-01-15 13:49:45.76	215.69	12.97	-25.9	-27.2	16.0	0.00e+00	0	44	0	461373440	12	4177
2026-01-15 13:49:48.77	216.08	13.19	-25.9	-27.3	16.0	0.00e+00	0	43	0	478150656	12	4188
2026-01-15 13:49:51.77	216.47	13.42	-25.8	-26.9	16.2	0.00e+00	0	44	0	494927872	12	4098
2026-01-15 13:49:54.76	216.86	13.65	-25.5	-26.3	16.5	0.00e+00	0	44	0	511705088	12	3951
2026-01-15 13:49:57.77	217.27	13.89	-25.3	-26.4	16.8	0.00e+00	0	44	0	528482304	11	4059
2026-01-15 13:50:00.78	217.68	14.12	-25.5	-26.7	16.7	0.00e+00	0	44	0	546308096	11	4152
2026-01-15 13:50:03.79	218.09	14.35	-25.6	-27.0	16.5	0.00e+00	0	44	0	563085312	11	4232
2026-01-15 13:50:06.79	218.52	14.59	-25.4	-26.5	16.9	0.00e+00	0	43	0	579862528	11	4084
2026-01-15 13:50:09.79	218.94	14.82	-25.3	-26.4	16.9	0.00e+00	0	44	0	596639744	11	4068
2026-01-15 13:50:12.80	219.38	15.06	-25.4	-26.5	16.9	0.00e+00	0	44	0	613416960	11	4093
2026-01-15 13:50:15.81	219.82	15.29	-25.2	-26.1	17.1	0.00e+00	0	43	0	630194176	11	4000
2026-01-15 13:50:18.81	220.27	15.53	-25.2	-26.1	17.1	0.00e+00	0	43	0	646971392	11	4001
2026-01-15 13:50:21.81	220.72	15.77	-25.2	-26.0	17.2	0.00e+00	0	44	0	663748608	11	3964
2026-01-15 13:50:24.82	221.19	16.01	-25.1	-25.9	17.2	0.00e+00	0	43	0	680525824	11	3949
2026-01-15 13:50:27.83	221.66	16.25	-24.9	-25.5	17.4	0.00e+00	0	44	0	698351616	11	3846
2026-01-15 13:50:30.84	222.14	16.49	-24.9	-25.4	17.5	0.00e+00	0	44	0	715128832	11	3817
2026-01-15 13:50:33.84	222.62	16.73	-24.8	-25.3	17.6	0.00e+00	0	44	0	731906048	11	3788
2026-01-15 13:50:36.84	223.11	16.97	-24.7	-25.5	17.8	0.00e+00	0	43	0	748683264	10	3947
2026-01-15 13:50:39.85	223.61	17.21	-24.8	-25.8	17.6	0.00e+00	0	44	0	765460480	10	4017
2026-01-15 13:50:42.85	224.12	17.45	-24.8	-25.8	17.6	0.00e+00	0	43	0	782237696	10	4021
2026-01-15 13:50:45.85	224.63	17.69	-24.8	-25.7	17.6	0.00e+00	0	43	0	799014912	10	3997
2026-01-15 13:50:48.85	225.16	17.93	-24.6	-25.4	17.6	2.20e-06	0	44	0	815792128	10	3933
2026-01-15 13:50:51.87	225.69	18.17	-24.6	-25.3	17.7	2.20e-06	0	43	0	833617920	10	3899
2026-01-15 13:50:54.89	226.23	18.41	-24.6	-25.4	17.5	1.05e-04	0	43	0	850395136	10	3951
2026-01-15 13:50:57.90	226.78	18.66	-24.5	-25.2	17.1	4.82e-04	0	44	0	867172352	10	3913
2026-01-15 13:51:00.91	227.34	18.90	-24.6	-25.3	17.9	0.00e+00	0	43	0	883949568	10	3907
2026-01-15 13:51:03.91	227.91	19.14	-24.7	-25.5	17.9	0.00e+00	0	44	0	900726784	10	3953
2026-01-15 13:51:06.92	228.48	19.38	-24.4	-24.9	18.2	0.00e+00	0	44	0	917504000	10	3812
2026-01-15 13:51:09.93	229.07	19.62	-24.1	-24.8	18.4	0.00e+00	0	44	0	935329792	9	3895
2026-01-15 13:51:12.93	229.66	19.86	-24.3	-25.1	18.3	0.00e+00	0	44	0	952107008	9	3946
2026-01-15 13:51:15.93	230.26	20.10	-24.1	-24.7	18.5	0.00e+00	0	44	0	968884224	9	3872
2026-01-15 13:51:18.94	230.87	20.33	-24.2	-24.9	18.4	0.00e+00	0	43	0	985661440	9	3916
2026-01-15 13:51:21.94	231.49	20.57	-24.4	-25.3	18.2	0.00e+00	0	43	0	1002438656	9	4020
2026-01-15 13:51:24.95	232.12	20.81	-24.4	-25.2	18.3	0.00e+00	0	44	0	1019215872	9	3991
2026-01-15 13:51:27.97	232.76	21.04	-24.6	-25.7	18.0	0.00e+00	0	44	0	1035993088	9	4109
2026-01-15 13:51:30.96	233.41	21.27	-24.4	-25.3	18.3	0.00e+00	0	44	0	1052770304	9	3996
2026-01-15 13:51:33.97	234.06	21.50	-24.6	-25.9	18.0	0.00e+00	0	43	0	1069547520	9	4150
2026-01-15 13:51:36.96	234.73	21.73	-23.9	-24.3	18.8	0.00e+00	0	44	0	1086324736	9	3775
2026-01-15 13:51:39.97	235.41	21.96	-23.6	-24.2	19.1	0.00e+00	0	44	0	1104150528	8	3860
2026-01-15 13:51:42.99	236.10	22.19	-23.8	-24.5	18.9	0.00e+00	0	43	0	1120927744	8	3922
2026-01-15 13:51:46.00	236.79	22.41	-23.8	-24.5	19.0	0.00e+00	0	44	0	1137704960	8	3917
2026-01-15 13:51:49.00	237.50	22.63	-24.0	-25.0	18.7	0.00e+00	0	44	0	1154482176	8	4048
2026-01-15 13:51:51.99	238.21	22.85	-24.1	-25.2	18.6	0.00e+00	0	44	0	1171259392	8	4099
2026-01-15 13:51:55.00	238.94	23.06	-23.7	-24.3	19.1	0.00e+00	0	44	0	1188036608	8	3877
2026-01-15 13:51:58.00	239.67	23.27	-23.7	-24.3	19.1	0.00e+00	0	44	0	1204813824	8	3864
2026-01-15 13:52:01.00	240.41	23.48	-23.8	-24.5	19.0	0.00e+00	0	43	0	1221591040	8	3918
2026-01-15 13:52:04.01	241.17	23.69	-23.7	-24.4	19.1	0.00e+00	0	44	0	1239416832	8	3891
2026-01-15 13:52:07.00	241.93	23.89	-23.2	-24.0	18.6	0.00e+00	0	44	0	1256194048	7	3917
2026-01-15 13:52:10.02	242.71	24.09	-22.7	-24.3	15.9	1.34e-02	0	43	0	1272971264	6	4289
2026-01-15 13:52:13.03	243.49	24.28	-18.2	-22.2	14.8	3.79e-02	0	43	0	1289748480	0	5703
2026-01-15 13:52:16.04	244.29	24.48	-16.9	-21.5	13.5	5.43e-02	0	43	0	1306525696	0	6117
2026-01-15 13:52:19.04	245.09	24.66	-16.1	-20.6	13.4	5.28e-02	0	44	0	1323302912	0	6095
2026-01-15 13:52:22.05	245.90	24.84	-18.4	-23.5	9.7	4.86e-01	0	44	0	1330642944	0	6477
2026-01-15 13:52:25.06	246.72	25.02	-15.4	-21.1	10.8	4.42e-01	0	44	0	1336934400	0	6944
2026-01-15 13:52:28.06	247.55	25.19	-24.9	-30.9	10.6	4.46e-01	0	43	0	1344274432	0	7181
2026-01-15 13:52:31.07	248.39	25.36	-19.3	-24.9	10.7	4.29e-01	0	44	0	1350565888	0	6838
2026-01-15 13:52:34.07	249.24	25.52	-30.8	-38.0	11.6	2.37e-01	0	43	0	1360003072	0	8207
2026-01-15 13:52:37.07	250.09	25.67	-19.7	-25.8	13.8	3.92e-02	0	44	0	1376780288	0	7291
2026-01-15 13:52:40.07	250.95	25.82	-21.4	-25.2	14.0	3.89e-02	0	44	0	1393557504	3	5625
2026-01-15 13:52:43.09	251.83	25.97	-22.8	-25.2	15.0	3.11e-02	0	43	0	1410334720	5	4730
2026-01-15 13:52:46.10	252.71	26.10	-23.9	-25.1	16.2	1.17e-03	0	43	0	1427111936	8	4117
2026-01-15 13:52:49.10	253.59	26.23	-23.3	-24.0	16.5	5.26e-04	0	43	0	1443889152	7	3932
2026-01-15 13:52:52.10	254.48	26.36	-22.9	-23.6	16.0	1.64e-02	0	44	0	1460666368	7	3895
2026-01-15 13:52:55.10	255.38	26.48	-23.2	-24.1	15.3	1.67e-02	0	44	0	1478492160	7	4025
2026-01-15 13:52:58.10	256.28	26.59	-23.2	-24.3	19.6	0.00e+00	0	44	0	1495269376	6	4098
2026-01-15 13:53:01.11	257.20	26.69	-22.8	-23.7	15.5	6.26e-03	0	44	0	1512046592	6	4005
2026-01-15 13:53:04.10	258.11	26.79	-20.3	-23.9	15.1	3.29e-02	0	44	0	1528823808	1	5415
2026-01-15 13:53:07.10	259.03	26.87	-18.1	-22.8	13.0	3.62e-02	0	44	0	1545601024	0	6176
2026-01-15 13:53:10.10	259.95	26.95	-17.3	-21.8	12.6	3.99e-02	0	44	0	1562378240	0	6058
2026-01-15 13:53:13.10	260.88	27.03	-18.6	-22.7	13.7	3.54e-02	0	43	0	1579155456	0	5725
2026-01-15 13:53:16.11	261.82	27.09	-21.9	-25.2	15.0	3.64e-02	0	43	0	1595932672	3	5275
2026-01-15 13:53:19.11	262.76	27.15	-23.9	-25.4	17.1	1.66e-04	0	44	0	1612709888	7	4292
2026-01-15 13:53:22.12	263.70	27.20	-24.3	-25.8	15.9	1.67e-03	0	44	0	1629487104	8	4277
2026-01-15 13:53:25.12	264.64	27.24	-23.1	-24.3	16.0	1.50e-02	0	43	0	1647312896	7	4168
2026-01-15 13:53:28.13	265.59	27.28	-23.1	-24.0	15.7	4.50e-03	0	44	0	1664090112	7	3983
2026-01-15 13:53:31.14	266.54	27.30	-22.9	-23.2	20.0	0.00e+00	0	43	0	1680867328	7	3724
2026-01-15 13:53:34.15	267.49	27.32	-23.3	-24.1	19.5	0.00e+00	0	44	0	1697644544	7	3926
2026-01-15 13:53:37.16	268.44	27.33	-23.2	-23.8	19.7	0.00e+00	0	44	0	1714421760	7	3858
2026-01-15 13:53:40.17	269.39	27.33	-23.0	-23.5	19.8	0.00e+00	0	44	0	1731198976	7	3785
2026-01-15 13:53:43.18	270.35	27.32	-23.6	-24.6	19.2	0.00e+00	0	43	0	1749024768	7	4067
2026-01-15 13:53:46.18	271.29	27.30	-23.0	-23.3	19.9	0.00e+00	0	43	0	1765801984	7	3753
2026-01-15 13:53:49.18	272.24	27.28	-22.8	-23.1	20.0	0.00e+00	0	43	0	1782579200	7	3702
2026-01-15 13:53:52.19	273.19	27.24	-23.0	-23.5	19.8	0.00e+00	0	44	0	1799356416	7	3786
2026-01-15 13:53:55.22	274.14	27.20	-22.8	-23.1	20.0	2.20e-06	0	43	0	1816133632	7	3696
2026-01-15 13:53:58.22	275.08	27.15	-23.0	-23.5	19.8	0.00e+00	0	43	0	1832910848	7	3780
2026-01-15 13:54:01.23	276.02	27.09	-22.9	-23.2	19.9	0.00e+00	0	43	0	1849688064	7	3729
2026-01-15 13:54:04.24	276.95	27.03	-23.1	-23.7	19.7	0.00e+00	0	44	0	1867513856	7	3834
2026-01-15 13:54:07.25	277.88	26.96	-23.1	-23.7	19.7	0.00e+00	0	43	0	1884291072	7	3832
2026-01-15 13:54:10.24	278.80	26.88	-23.0	-23.5	19.8	0.00e+00	0	44	0	1901068288	7	3790
2026-01-15 13:54:13.24	279.72	26.79	-22.9	-23.2	20.0	0.00e+00	0	44	0	1917845504	7	3721
2026-01-15 13:54:16.23	280.63	26.69	-23.0	-23.9	19.8	0.00e+00	0	44	0	1934622720	6	4001
2026-01-15 13:54:19.24	281.55	26.59	-23.2	-24.3	19.6	0.00e+00	0	43	0	1951399936	6	4093
2026-01-15 13:54:22.23	282.45	26.48	-23.1	-24.2	19.7	0.00e+00	0	43	0	1968177152	6	4064
2026-01-15 13:54:25.23	283.34	26.36	-23.3	-24.6	19.5	0.00e+00	0	43	0	1984954368	6	4172
2026-01-15 13:54:28.22	284.23	26.24	-23.0	-23.9	19.9	0.00e+00	0	43	0	2001731584	6	3981
2026-01-15 13:54:31.22	285.11	26.11	-23.2	-24.4	19.6	0.00e+00	0	44	0	2018508800	6	4118
2026-01-15 13:54:34.23	285.99	25.97	-23.5	-24.5	19.2	0.00e+00	0	44	0	2035286016	7	4043
2026-01-15 13:54:37.23	286.86	25.83	-23.8	-25.0	19.0	0.00e+00	0	44	0	2053111808	7	4154
2026-01-15 13:54:40.23	287.71	25.68	-23.6	-24.6	19.2	0.00e+00	0	44	0	2069889024	7	4063
2026-01-15 13:54:43.24	288.57	25.53	-23.8	-25.1	19.0	0.00e+00	0	44	0	2086666240	7	4169
2026-01-15 13:54:46.25	289.42	25.37	-23.2	-23.8	19.6	0.00e+00	0	44	0	2103443456	7	3870
2026-01-15 13:54:49.25	290.25	25.20	-23.5	-24.4	19.4	0.00e+00	0	44	0	2120220672	7	4000
2026-01-15 13:54:52.26	291.08	25.03	-23.5	-24.4	19.4	0.00e+00	0	44	0	2136997888	7	3993
2026-01-15 13:54:55.27	291.90	24.86	-23.5	-24.4	19.3	0.00e+00	0	44	0	2153775104	7	4001
2026-01-15 13:54:58.29	292.71	24.67	-23.7	-24.9	19.1	0.00e+00	0	44	0	2170552320	7	4127
2026-01-15 13:55:01.29	293.51	24.49	-23.6	-24.6	19.3	0.00e+00	0	44	0	2188378112	7	4043
2026-01-15 13:55:04.30	294.30	24.30	-23.7	-24.8	19.1	0.00e+00	0	44	0	2205155328	7	4106
2026-01-15 13:55:07.31	295.08	24.11	-23.6	-24.7	19.2	0.00e+00	0	43	0	2221932544	7	4073
2026-01-15 13:55:10.31	295.85	23.91	-23.5	-24.4	19.3	0.00e+00	0	44	0	2238709760	7	4003
2026-01-15 13:55:13.30	296.61	23.71	-23.8	-25.2	18.9	0.00e+00	0	44	0	2255486976	7	4198
2026-01-15 13:55:16.30	297.36	23.51	-23.9	-25.4	18.8	0.00e+00	0	44	0	2272264192	7	4254
2026-01-15 13:55:19.31	298.11	23.30	-23.8	-25.0	19.0	0.00e+00	0	44	0	2289041408	7	4158
2026-01-15 13:55:22.31	298.84	23.09	-23.8	-25.0	19.0	0.00e+00	0	44	0	2305818624	7	4145
2026-01-15 13:55:25.31	299.56	22.87	-24.1	-25.3	18.6	0.00e+00	0	44	0	2322595840	8	4118
2026-01-15 13:55:28.32	300.28	22.66	-24.2	-25.4	18.6	0.00e+00	0	44	0	2339373056	8	4144
2026-01-15 13:55:31.31	300.98	22.44	-24.2	-25.4	18.6	0.00e+00	0	43	0	2357198848	8	4134
2026-01-15 13:55:34.32	301.67	22.22	-24.1	-25.3	18.6	0.00e+00	0	44	0	2373976064	8	4117
2026-01-15 13:55:37.33	302.36	21.99	-24.3	-25.7	18.4	0.00e+00	0	43	0	2390753280	8	4207
2026-01-15 13:55:40.33	303.03	21.77	-24.3	-25.6	18.4	0.00e+00	0	44	0	2407530496	8	4200
2026-01-15 13:55:43.33	303.70	21.54	-24.3	-25.6	18.4	0.00e+00	0	43	0	2424307712	8	4191
2026-01-15 13:55:46.33	304.35	21.31	-24.1	-25.2	18.7	0.00e+00	0	43	0	2441084928	8	4083
2026-01-15 13:55:49.33	305.00	21.08	-24.4	-25.8	18.3	0.00e+00	0	44	0	2457862144	8	4240
2026-01-15 13:55:52.33	305.63	20.85	-24.4	-25.4	18.2	0.00e+00	0	44	0	2474639360	9	4035
2026-01-15 13:55:55.35	306.26	20.62	-24.7	-25.9	18.0	0.00e+00	0	43	0	2492465152	9	4156
2026-01-15 13:55:58.35	306.88	20.38	-24.8	-26.1	17.9	0.00e+00	0	43	0	2509242368	9	4214
2026-01-15 13:56:01.35	307.49	20.15	-24.9	-26.4	17.7	0.00e+00	0	44	0	2526019584	9	4282
2026-01-15 13:56:04.36	308.09	19.91	-25.0	-26.1	17.6	0.00e+00	0	44	0	2542796800	10	4107
2026-01-15 13:56:07.36	308.68	19.67	-25.0	-26.0	17.7	0.00e+00	0	43	0	2559574016	10	4071
2026-01-15 13:56:10.37	309.26	19.43	-24.7	-25.5	17.9	0.00e+00	0	44	0	2576351232	10	3948
2026-01-15 13:56:13.37	309.83	19.20	-24.8	-25.8	17.8	0.00e+00	0	44	0	2593128448	10	4006
2026-01-15 13:56:16.36	310.40	18.96	-25.3	-26.7	17.3	0.00e+00	0	44	0	2609905664	10	4259
2026-01-15 13:56:19.37	310.95	18.72	-25.1	-26.0	17.4	0.00e+00	0	44	0	2627731456	11	3949
2026-01-15 13:56:22.38	311.50	18.48	-25.1	-25.7	17.5	0.00e+00	0	44	0	2644508672	11	3892
2026-01-15 13:56:25.37	312.04	18.24	-25.2	-26.1	17.3	0.00e+00	0	44	0	2660237312	11	3994
2026-01-15 13:56:28.38	312.57	18.00	-25.4	-26.4	17.1	0.00e+00	0	44	0	2678063104	11	4055
2026-01-15 13:56:31.39	313.09	17.76	-25.3	-26.3	17.2	0.00e+00	0	44	0	2694840320	11	4032
2026-01-15 13:56:34.39	313.61	17.52	-25.5	-26.7	17.0	0.00e+00	0	43	0	2711617536	11	4136
2026-01-15 13:56:37.40	314.11	17.28	-25.5	-26.7	16.9	0.00e+00	0	44	0	2728394752	11	4147
2026-01-15 13:56:40.40	314.61	17.04	-25.5	-26.8	16.9	0.00e+00	0	44	0	2745171968	11	4174
2026-01-15 13:56:43.41	315.11	16.81	-25.5	-26.8	16.9	0.00e+00	0	43	0	2761949184	11	4157
2026-01-15 13:56:46.40	315.59	16.57	-25.6	-26.9	16.8	0.00e+00	0	44	0	2778726400	11	4203
2026-01-15 13:56:49.41	316.06	16.33	-25.4	-26.6	16.9	0.00e+00	0	44	0	2795503616	11	4102
2026-01-15 13:56:52.40	316.53	16.09	-25.5	-26.7	16.8	0.00e+00	0	44	0	2813329408	11	4150
2026-01-15 13:56:55.41	317.00	15.86	-25.7	-27.2	16.6	0.00e+00	0	44	0	2830106624	11	4260
2026-01-15 13:56:58.42	317.45	15.62	-25.8	-27.3	16.6	0.00e+00	0	44	0	2846883840	11	4297
2026-01-15 13:57:01.41	317.90	15.39	-25.9	-27.5	16.4	0.00e+00	0	44	0	2863661056	11	4364
2026-01-15 13:57:04.42	318.34	15.15	-25.7	-26.8	16.5	0.00e+00	0	44	0	2880438272	12	4049
2026-01-15 13:57:07.43	318.78	14.92	-25.8	-26.9	16.4	0.00e+00	0	44	0	2897215488	12	4088
2026-01-15 13:57:10.43	319.20	14.68	-26.1	-27.6	16.0	0.00e+00	0	44	0	2913992704	12	4281
2026-01-15 13:57:13.42	319.62	14.45	-26.1	-27.5	16.1	0.00e+00	0	44	0	2930769920	12	4234
2026-01-15 13:57:16.42	320.04	14.22	-26.2	-27.7	15.9	0.00e+00	0	44	0	2947547136	12	4310
2026-01-15 13:57:19.42	320.45	13.99	-26.1	-27.7	15.9	0.00e+00	0	43	0	2965372928	12	4284
2026-01-15 13:57:22.44	320.85	13.76	-26.2	-27.8	15.9	0.00e+00	0	44	0	2982150144	12	4315
2026-01-15 13:57:25.45	321.25	13.53	-26.1	-27.4	16.0	0.00e+00	0	44	0	2998927360	12	4225
2026-01-15 13:57:28.46	321.64	13.30	-26.2	-27.8	15.8	0.00e+00	0	44	0	3015704576	12	4319
2026-01-15 13:57:31.46	322.03	13.08	-26.3	-28.0	15.7	0.00e+00	0	44	0	3032481792	12	4383
2026-01-15 13:57:34.47	322.41	12.85	-26.4	-28.2	15.6	0.00e+00	0	44	0	3049259008	12	4449
2026-01-15 13:57:37.48	322.78	12.63	-26.4	-27.6	15.6	0.00e+00	0	44	0	3066036224	13	4173
2026-01-15 13:57:40.47	323.15	12.40	-26.3	-27.6	15.6	0.00e+00	0	44	0	3083862016	13	4161
2026-01-15 13:57:43.49	323.52	12.18	-26.4	-27.7	15.5	0.00e+00	0	43	0	3100639232	13	4196
2026-01-15 13:57:46.48	323.87	11.96	-26.2	-27.3	15.7	1.10e-06	0	44	0	3117416448	13	4089
2026-01-15 13:57:49.49	324.23	11.74	-26.2	-27.4	15.7	0.00e+00	0	44	0	3134193664	13	4104
2026-01-15 13:57:52.50	324.58	11.52	-26.2	-27.3	15.7	0.00e+00	0	44	0	3150970880	13	4094
2026-01-15 13:57:55.50	324.92	11.30	-26.5	-27.9	15.4	0.00e+00	0	43	0	3167748096	13	4245
2026-01-15 13:57:58.49	325.25	11.08	-26.5	-27.9	15.3	0.00e+00	0	43	0	3184525312	13	4259
2026-01-15 13:58:01.50	325.59	10.86	-26.6	-28.1	15.2	0.00e+00	0	44	0	3201302528	13	4304
2026-01-15 13:58:04.51	325.92	10.65	-26.7	-28.4	15.0	0.00e+00	0	44	0	3218079744	13	4389
2026-01-15 13:58:07.52	326.24	10.43	-26.8	-28.7	14.9	0.00e+00	0	44	0	3234856960	13	4467
2026-01-15 13:58:10.54	326.56	10.22	-26.7	-28.3	15.0	0.00e+00	0	44	0	3252682752	13	4367
2026-01-15 13:58:13.54	326.88	10.01	-27.1	-28.9	14.5	0.00e+00	0	44	0	3269459968	14	4406
2026-01-15 13:58:16.55	327.19	9.80	-27.3	-28.9	14.2	3.40e-06	0	43	0	3286237184	15	4299
2026-01-15 13:58:19.55	327.50	9.59	-27.1	-28.4	14.4	1.10e-06	0	44	0	3303014400	15	4181
2026-01-15 13:58:22.57	327.80	9.38	-27.1	-28.3	14.5	1.10e-06	0	44	0	3319791616	15	4155
2026-01-15 13:58:25.57	328.10	9.17	-27.4	-29.1	14.0	1.10e-06	0	44	0	3336568832	15	4356
2026-01-15 13:58:28.56	328.39	8.96	-27.3	-28.8	14.1	0.00e+00	0	44	0	3353346048	15	4276
2026-01-15 13:58:31.55	328.68	8.76	-27.3	-28.9	14.1	1.10e-06	0	44	0	3370123264	15	4300
2026-01-15 13:58:34.56	328.97	8.56	-27.3	-28.8	14.1	0.00e+00	0	44	0	3387949056	15	4287
2026-01-15 13:58:37.56	329.25	8.35	-27.5	-29.3	13.8	2.20e-06	0	44	0	3404726272	15	4421
2026-01-15 13:58:40.56	329.53	8.15	-27.7	-29.8	13.5	1.10e-06	0	43	0	3421503488	15	4581
2026-01-15 13:58:43.56	329.81	7.95	-27.9	-29.8	13.4	1.60e-05	0	44	0	3438280704	16	4455
2026-01-15 13:58:46.55	330.08	7.75	-28.0	-30.1	13.2	1.94e-05	0	43	0	3455057920	16	4538
2026-01-15 13:58:49.55	330.35	7.55	-27.9	-29.7	13.3	8.00e-06	0	44	0	3471835136	16	4437
2026-01-15 13:58:52.55	330.61	7.35	-27.8	-29.5	13.5	5.70e-06	0	44	0	3488612352	16	4369
2026-01-15 13:58:55.57	330.87	7.16	-27.9	-29.8	13.3	1.02e-05	0	44	0	3505389568	16	4469
2026-01-15 13:58:58.58	331.13	6.96	-33.8	-45.1	3.8	8.46e-01	0	44	104	3510632448	27	13263

#Closed at: 2026-01-15 13:58:59
#Recorded file [3510 MB]: D:/data/31010_260115_164823.dat