passes_logs/2026/01/15/R2M6_AANII_01/R2M6_AANII_01__20260115_115930_AQUA_rec.log

#Pass ID: 20260115_115930_AQUA
#Satellite: AQUA
#Configuration: AQUA
#almurnet v.1.7.20240730
#Start time: 2026-01-15 11:59:29

#Version: 2.2.20231116
#Station: R2M6_AANII_01
#Location: 30.233357 lon 59.946436 lat
#TLE: 1 27424U 02022A   26014.19338718  .00000717  00000+0  15340-3 0  9998
#TLE: 2 27424  98.4080 340.6072 0002047  79.4950 292.1093 14.61819636260772

#Time	Az	El	Level	Level2	SNR	BER	BlckErr	Temp	State	Recorded	gain1	gain2
2026-01-15 11:59:29.82	158.30	6.95	-30.5	-36.6	5.2	7.10e-01	0	40	0	0	22	7257
2026-01-15 11:59:32.84	158.30	7.20	-30.9	-36.4	14.7	6.07e-01	0	41	0	1572864	23	6822
2026-01-15 11:59:35.84	158.30	7.45	-30.9	-36.1	15.1	6.06e-01	0	41	0	7340032	23	6499
2026-01-15 11:59:38.85	158.29	7.70	-30.7	-35.0	16.1	6.09e-01	0	41	0	13107200	23	5841
2026-01-15 11:59:41.85	158.29	7.96	-30.8	-35.0	16.3	6.07e-01	0	41	0	18350080	23	5804
2026-01-15 11:59:44.86	158.29	8.22	-30.4	-34.0	17.3	6.06e-01	0	41	0	24117248	22	5451
2026-01-15 11:59:47.87	158.28	8.48	-30.4	-34.0	17.3	6.06e-01	0	41	0	29884416	22	5463
2026-01-15 11:59:50.88	158.28	8.75	-30.3	-33.7	17.6	6.05e-01	0	42	0	35651584	22	5336
2026-01-15 11:59:53.88	158.28	9.01	-30.4	-34.0	17.4	6.10e-01	0	41	0	41418752	22	5454
2026-01-15 11:59:56.86	158.27	9.28	-30.1	-33.1	18.0	6.05e-01	0	41	0	46661632	22	5129
2026-01-15 11:59:59.86	158.27	9.56	-29.9	-32.8	18.2	6.07e-01	0	42	0	52428800	22	5032
2026-01-15 12:00:02.87	158.26	9.83	-29.9	-33.3	18.2	6.07e-01	0	42	0	58195968	21	5302
2026-01-15 12:00:05.89	158.26	10.12	-30.0	-33.5	18.2	6.08e-01	0	42	0	63438848	21	5372
2026-01-15 12:00:08.89	158.25	10.40	-30.0	-33.4	18.3	6.04e-01	0	42	0	69206016	21	5273
2026-01-15 12:00:11.90	158.25	10.69	-30.0	-33.3	18.4	6.07e-01	0	42	0	74973184	21	5225
2026-01-15 12:00:14.90	158.24	10.98	-30.1	-33.3	18.4	6.08e-01	0	42	0	80740352	21	5244
2026-01-15 12:00:17.90	158.24	11.28	-30.0	-33.2	18.5	6.02e-01	0	42	0	85983232	21	5193
2026-01-15 12:00:20.91	158.23	11.58	-29.9	-33.0	18.7	6.08e-01	0	42	0	91750400	21	5112
2026-01-15 12:00:23.92	158.22	11.89	-29.9	-32.9	18.7	6.06e-01	0	42	0	97517568	21	5079
2026-01-15 12:00:26.93	158.22	12.20	-29.9	-32.8	18.7	6.07e-01	0	42	0	103284736	21	5073
2026-01-15 12:00:29.93	158.21	12.51	-29.8	-32.7	18.8	6.07e-01	0	42	0	108527616	21	5033
2026-01-15 12:00:32.94	158.20	12.83	-29.6	-32.2	19.2	6.06e-01	0	42	0	114294784	21	4837
2026-01-15 12:00:35.96	158.19	13.15	-29.5	-31.8	19.5	6.06e-01	0	42	0	120061952	21	4705
2026-01-15 12:00:38.96	158.18	13.48	-29.5	-31.9	19.4	6.04e-01	0	42	0	125829120	21	4728
2026-01-15 12:00:41.97	158.17	13.81	-29.5	-32.0	19.3	6.08e-01	0	42	0	131072000	21	4787
2026-01-15 12:00:44.97	158.16	14.15	-29.5	-31.9	19.4	6.07e-01	0	42	0	136839168	21	4742
2026-01-15 12:00:47.97	158.15	14.49	-29.6	-32.2	19.2	6.07e-01	0	42	0	142606336	21	4840
2026-01-15 12:00:50.98	158.14	14.84	-29.9	-32.9	18.9	6.05e-01	0	42	0	148373504	21	5061
2026-01-15 12:00:53.99	158.13	15.19	-29.5	-31.8	19.6	6.08e-01	0	43	0	153616384	21	4682
2026-01-15 12:00:57.00	158.12	15.56	-29.5	-31.7	19.7	6.08e-01	0	42	0	159383552	21	4643
2026-01-15 12:01:00.01	158.11	15.92	-29.5	-31.6	19.8	6.07e-01	0	43	0	165150720	21	4590
2026-01-15 12:01:03.02	158.10	16.29	-29.5	-31.8	19.7	6.06e-01	0	43	0	170917888	21	4643
2026-01-15 12:01:06.02	158.08	16.67	-29.6	-31.8	19.7	6.07e-01	0	43	0	176685056	21	4660
2026-01-15 12:01:09.03	158.07	17.06	-29.6	-31.9	19.6	6.05e-01	0	42	0	181927936	21	4698
2026-01-15 12:01:12.04	158.05	17.45	-29.7	-32.1	19.6	6.05e-01	0	43	0	187695104	21	4739
2026-01-15 12:01:15.05	158.04	17.85	-29.9	-32.6	19.1	6.05e-01	0	42	0	193462272	21	4941
2026-01-15 12:01:18.05	158.02	18.26	-29.8	-32.3	19.4	6.07e-01	0	43	0	198705152	21	4808
2026-01-15 12:01:21.05	158.01	18.67	-29.8	-32.5	19.4	6.06e-01	0	43	0	204472320	21	4873
2026-01-15 12:01:24.06	157.99	19.09	-29.8	-32.4	19.4	6.04e-01	0	43	0	210239488	21	4840
2026-01-15 12:01:27.06	157.97	19.52	-29.7	-32.1	19.6	6.08e-01	0	43	0	216006656	21	4732
2026-01-15 12:01:30.07	157.95	19.96	-29.8	-32.3	19.5	6.04e-01	0	43	0	221249536	21	4818
2026-01-15 12:01:33.07	157.93	20.40	-29.9	-32.6	19.4	6.07e-01	0	43	0	227016704	21	4909
2026-01-15 12:01:36.08	157.91	20.86	-30.1	-33.1	19.1	6.05e-01	0	43	0	232783872	21	5086
2026-01-15 12:01:39.09	157.89	21.32	-30.0	-33.0	19.2	6.07e-01	0	43	0	238551040	21	5035
2026-01-15 12:01:42.09	157.86	21.80	-30.2	-33.3	19.0	6.07e-01	0	43	0	243793920	21	5161
2026-01-15 12:01:45.09	157.84	22.28	-30.1	-33.2	19.1	6.07e-01	0	43	0	249561088	21	5105
2026-01-15 12:01:48.10	157.82	22.77	-29.9	-32.6	19.4	6.07e-01	0	43	0	255328256	21	4914
2026-01-15 12:01:51.11	157.79	23.28	-30.0	-32.7	19.4	6.06e-01	0	43	0	261095424	21	4947
2026-01-15 12:01:54.12	157.76	23.80	-29.8	-32.3	19.8	6.07e-01	0	43	0	266338304	21	4777
2026-01-15 12:01:57.11	157.73	24.32	-29.7	-32.1	19.9	6.07e-01	0	43	0	272105472	21	4708
2026-01-15 12:02:00.11	157.70	24.86	-29.9	-32.3	19.8	6.08e-01	0	43	0	277872640	21	4798
2026-01-15 12:02:03.11	157.67	25.41	-29.9	-32.5	19.7	6.06e-01	0	43	0	283639808	21	4846
2026-01-15 12:02:06.12	157.64	25.97	-29.8	-32.3	19.8	6.06e-01	0	43	0	288882688	21	4773
2026-01-15 12:02:09.14	157.60	26.55	-29.8	-32.2	19.9	6.07e-01	0	43	0	294649856	21	4740
2026-01-15 12:02:12.13	157.57	27.14	-29.6	-31.7	20.2	6.08e-01	0	43	0	300417024	21	4579
2026-01-15 12:02:15.15	157.53	27.74	-29.6	-31.6	20.3	6.05e-01	0	43	0	306184192	21	4560
2026-01-15 12:02:18.15	157.49	28.36	-29.4	-31.3	20.5	6.09e-01	0	43	0	311427072	21	4444
2026-01-15 12:02:21.15	157.44	28.99	-29.5	-31.3	20.5	6.06e-01	0	43	0	317194240	21	4453
2026-01-15 12:02:24.16	157.40	29.64	-29.6	-31.7	20.2	6.07e-01	0	43	0	322961408	21	4588
2026-01-15 12:02:27.16	157.35	30.31	-29.7	-31.9	20.2	6.05e-01	0	43	0	328728576	21	4626
2026-01-15 12:02:30.17	157.30	30.99	-29.7	-31.9	20.2	6.06e-01	0	43	0	333971456	21	4634
2026-01-15 12:02:33.16	157.25	31.69	-29.6	-31.7	20.4	6.05e-01	0	43	0	339738624	21	4576
2026-01-15 12:02:36.16	157.20	32.40	-29.9	-32.3	20.0	6.07e-01	0	43	0	345505792	21	4747
2026-01-15 12:02:39.15	157.14	33.14	-29.5	-31.4	20.6	6.07e-01	0	43	0	351272960	21	4460
2026-01-15 12:02:42.15	157.08	33.89	-29.9	-32.3	20.0	6.08e-01	0	43	0	356515840	21	4765
2026-01-15 12:02:45.16	157.01	34.67	-30.0	-32.6	19.9	6.07e-01	0	43	0	362283008	21	4836
2026-01-15 12:02:48.15	156.94	35.46	-30.4	-33.6	19.3	6.06e-01	0	43	0	368050176	21	5203
2026-01-15 12:02:51.16	156.87	36.28	-30.6	-34.1	19.0	6.05e-01	0	43	0	373293056	21	5385
2026-01-15 12:02:54.17	156.79	37.12	-30.9	-34.3	18.6	6.07e-01	0	43	0	379060224	22	5344
2026-01-15 12:02:57.16	156.71	37.98	-30.7	-33.9	18.8	6.05e-01	0	43	0	384827392	22	5213
2026-01-15 12:03:00.17	156.63	38.88	-31.1	-34.4	18.3	6.08e-01	0	43	0	390594560	23	5274
2026-01-15 12:03:03.18	156.53	39.79	-30.9	-33.9	18.6	6.05e-01	0	43	0	396361728	23	5078
2026-01-15 12:03:06.18	156.43	40.73	-30.6	-33.2	19.0	6.09e-01	0	43	0	401604608	23	4827
2026-01-15 12:03:09.19	156.33	41.70	-30.7	-33.3	18.9	6.06e-01	0	43	0	407371776	23	4892
2026-01-15 12:03:12.19	156.22	42.69	-30.4	-33.1	19.4	6.09e-01	0	43	0	413138944	22	4905
2026-01-15 12:03:15.19	156.09	43.71	-30.0	-32.2	19.9	6.05e-01	0	43	0	418381824	22	4597
2026-01-15 12:03:18.20	155.96	44.76	-30.1	-32.2	19.9	6.07e-01	0	43	0	424148992	22	4613
2026-01-15 12:03:21.20	155.83	45.84	-29.9	-31.9	20.1	6.06e-01	0	43	0	429916160	22	4516
2026-01-15 12:03:24.20	155.68	46.95	-30.6	-33.6	19.1	6.07e-01	0	43	0	435683328	22	5081
2026-01-15 12:03:27.21	155.51	48.09	-30.5	-33.2	19.3	6.06e-01	0	43	0	440926208	22	4949
2026-01-15 12:03:30.22	155.34	49.27	-30.1	-32.4	19.8	6.06e-01	0	43	0	446693376	22	4676
2026-01-15 12:03:33.21	155.15	50.47	-29.4	-31.5	20.9	6.06e-01	0	43	0	452460544	20	4610
2026-01-15 12:03:36.22	154.94	51.71	-29.5	-31.8	20.7	6.08e-01	0	43	0	458227712	20	4694
2026-01-15 12:03:39.22	154.71	52.98	-29.5	-32.0	20.6	6.05e-01	0	43	0	463470592	20	4759
2026-01-15 12:03:42.23	154.46	54.29	-29.6	-32.1	20.6	6.06e-01	0	43	0	469237760	20	4785
2026-01-15 12:03:45.24	154.18	55.64	-29.6	-31.7	20.6	6.06e-01	0	43	0	475004928	21	4543
2026-01-15 12:03:48.25	153.88	57.02	-29.9	-32.2	20.2	6.07e-01	0	43	0	480772096	21	4729
2026-01-15 12:03:51.27	153.54	58.44	-30.2	-33.2	19.7	6.06e-01	0	43	0	486014976	21	5043
2026-01-15 12:03:54.27	153.16	59.88	-30.4	-33.6	19.4	6.09e-01	0	43	0	491782144	21	5200
2026-01-15 12:03:57.28	152.73	61.36	-31.0	-34.7	18.5	6.07e-01	0	43	0	497549312	22	5508
2026-01-15 12:04:00.30	152.25	62.89	-31.5	-35.6	17.6	6.08e-01	0	43	0	503316480	23	5772
2026-01-15 12:04:03.30	151.70	64.43	-31.6	-35.4	17.4	6.05e-01	0	43	0	508559360	24	5587
2026-01-15 12:04:06.29	151.07	66.00	-31.9	-35.8	16.9	6.07e-01	0	43	0	514326528	25	5638
2026-01-15 12:04:09.30	150.33	67.61	-32.6	-37.6	15.2	6.07e-01	0	43	0	520093696	26	6413
2026-01-15 12:04:12.31	149.47	69.25	-32.7	-38.0	15.0	6.07e-01	0	43	0	525860864	26	6603
2026-01-15 12:04:15.31	148.45	70.91	-32.3	-36.6	16.0	6.07e-01	0	43	0	531103744	26	5860
2026-01-15 12:04:18.30	147.22	72.58	-32.1	-35.8	16.5	6.06e-01	0	43	0	536870912	26	5505
2026-01-15 12:04:21.31	145.69	74.28	-32.1	-35.8	16.6	6.06e-01	0	43	0	542638080	26	5518
2026-01-15 12:04:24.31	143.79	75.99	-32.0	-35.7	16.7	6.07e-01	0	43	0	548405248	26	5460
2026-01-15 12:04:27.31	141.32	77.70	-31.9	-35.6	17.0	6.07e-01	0	43	0	553648128	25	5523
2026-01-15 12:04:30.31	138.05	79.39	-31.2	-34.0	18.4	6.05e-01	0	43	0	559415296	24	4967
2026-01-15 12:04:33.33	133.47	81.07	-30.9	-33.7	18.9	6.07e-01	0	43	0	565182464	23	4982
2026-01-15 12:04:36.33	126.84	82.66	-30.9	-34.2	19.0	6.07e-01	0	43	0	570949632	22	5261
2026-01-15 12:04:39.34	116.67	84.12	-31.3	-34.8	18.3	6.05e-01	0	43	0	576192512	23	5392
2026-01-15 12:04:42.35	100.66	85.29	-31.0	-34.1	18.9	6.06e-01	0	43	0	581959680	23	5091
2026-01-15 12:04:45.36	77.36	85.89	-30.8	-33.3	19.3	6.07e-01	0	43	0	587726848	23	4833
2026-01-15 12:04:48.36	51.78	85.70	-30.8	-33.8	19.2	6.06e-01	0	43	0	593494016	22	5125
2026-01-15 12:04:51.36	31.92	84.79	-31.3	-34.6	18.4	6.07e-01	0	43	0	598736896	23	5318
2026-01-15 12:04:54.36	19.02	83.46	-31.3	-34.4	18.3	6.06e-01	0	43	0	604504064	24	5116
2026-01-15 12:04:57.36	10.76	81.93	-31.5	-34.7	18.1	6.07e-01	0	43	0	610271232	24	5250
2026-01-15 12:05:00.36	5.23	80.30	-31.1	-33.8	18.7	6.06e-01	0	43	0	616038400	24	4897
2026-01-15 12:05:03.36	1.34	78.62	-32.1	-36.3	16.7	6.05e-01	0	43	0	621281280	25	5807
2026-01-15 12:05:06.37	358.47	76.91	-32.5	-37.4	15.9	6.06e-01	0	43	0	627048448	25	6361
2026-01-15 12:05:09.37	356.30	75.21	-32.2	-35.9	16.6	6.06e-01	0	43	0	632815616	26	5522
2026-01-15 12:05:12.37	354.58	73.51	-32.4	-36.6	16.2	6.09e-01	0	43	0	638058496	26	5844
2026-01-15 12:05:15.37	353.21	71.82	-32.8	-37.9	15.2	6.07e-01	0	43	0	643825664	26	6490
2026-01-15 12:05:18.36	352.08	70.16	-33.0	-38.8	14.5	6.08e-01	0	43	0	649592832	26	7025
2026-01-15 12:05:21.35	351.14	68.53	-32.7	-37.8	15.2	6.08e-01	0	43	0	655360000	26	6448
2026-01-15 12:05:24.36	350.34	66.90	-32.1	-35.6	16.8	6.08e-01	0	43	0	660602880	26	5380
2026-01-15 12:05:27.36	349.66	65.32	-31.9	-35.2	17.0	6.08e-01	0	43	0	666370048	26	5225
2026-01-15 12:05:30.36	349.07	63.76	-32.1	-36.4	16.5	6.06e-01	0	43	0	672137216	25	5882
2026-01-15 12:05:33.36	348.55	62.23	-31.1	-33.9	18.5	6.06e-01	0	43	0	677904384	24	4949
2026-01-15 12:05:36.36	348.10	60.74	-30.9	-33.9	18.7	6.08e-01	0	43	0	683147264	23	5067
2026-01-15 12:05:39.37	347.69	59.27	-30.7	-33.8	19.1	6.07e-01	0	43	0	688914432	22	5148
2026-01-15 12:05:42.39	347.33	57.84	-30.5	-33.1	19.6	6.05e-01	0	43	0	694681600	22	4880
2026-01-15 12:05:45.38	347.01	56.45	-30.2	-32.4	20.0	6.07e-01	0	43	0	700448768	22	4636
2026-01-15 12:05:48.37	346.72	55.10	-29.4	-31.0	21.0	6.06e-01	0	43	0	705691648	21	4328
2026-01-15 12:05:51.37	346.46	53.78	-29.2	-31.1	21.3	6.06e-01	0	43	0	711458816	20	4455
2026-01-15 12:05:54.38	346.22	52.49	-29.2	-31.1	21.3	6.09e-01	0	43	0	717225984	20	4452
2026-01-15 12:05:57.37	346.00	51.24	-29.5	-31.8	20.9	6.07e-01	0	43	0	722468864	20	4668
2026-01-15 12:06:00.36	345.80	50.02	-29.8	-32.4	20.5	6.06e-01	0	43	0	728236032	20	4873
2026-01-15 12:06:03.35	345.62	48.84	-30.2	-32.9	19.9	6.06e-01	0	43	0	734003200	21	4942
2026-01-15 12:06:06.35	345.45	47.69	-30.0	-32.4	20.2	6.07e-01	0	43	0	739770368	21	4765
2026-01-15 12:06:09.36	345.29	46.56	-30.1	-32.6	20.1	6.06e-01	0	43	0	745013248	21	4820
2026-01-15 12:06:12.34	345.15	45.47	-30.4	-33.6	19.5	6.07e-01	0	43	0	750780416	21	5190
2026-01-15 12:06:15.34	345.01	44.41	-30.6	-33.6	19.2	6.07e-01	0	43	0	756547584	22	5085
2026-01-15 12:06:18.33	344.89	43.38	-30.4	-32.9	19.6	6.06e-01	0	43	0	761790464	22	4803
2026-01-15 12:06:21.34	344.77	42.37	-30.2	-32.5	19.8	6.07e-01	0	43	0	767557632	22	4686
2026-01-15 12:06:24.33	344.66	41.40	-30.8	-34.0	18.9	6.07e-01	0	43	0	773324800	22	5237
2026-01-15 12:06:27.33	344.56	40.45	-30.9	-34.2	18.8	6.06e-01	0	43	0	779091968	22	5289
2026-01-15 12:06:30.33	344.47	39.52	-30.9	-34.5	18.6	6.05e-01	0	43	0	784334848	22	5392
2026-01-15 12:06:33.33	344.38	38.63	-30.9	-34.3	18.7	6.08e-01	0	43	0	790102016	22	5314
2026-01-15 12:06:36.34	344.29	37.75	-30.6	-33.6	19.1	6.06e-01	0	44	0	795869184	22	5085
2026-01-15 12:06:39.36	344.21	36.89	-30.6	-33.4	19.2	6.07e-01	0	43	0	801636352	22	5011
2026-01-15 12:06:42.36	344.14	36.06	-30.3	-32.8	19.6	6.05e-01	0	43	0	806879232	22	4784
2026-01-15 12:06:45.36	344.07	35.26	-30.2	-32.6	19.7	6.05e-01	0	43	0	812646400	22	4726
2026-01-15 12:06:48.37	344.00	34.47	-30.0	-31.9	20.1	6.06e-01	0	43	0	818413568	22	4514
2026-01-15 12:06:51.37	343.94	33.71	-29.8	-31.9	20.4	6.08e-01	0	43	0	823656448	21	4612
2026-01-15 12:06:54.37	343.88	32.96	-29.4	-31.0	20.9	6.07e-01	0	43	0	829423616	21	4336
2026-01-15 12:06:57.38	343.83	32.23	-29.2	-31.0	21.2	6.03e-01	0	43	0	835190784	20	4449
2026-01-15 12:07:00.38	343.77	31.53	-29.2	-31.0	21.2	6.02e-01	0	43	0	840957952	20	4435
2026-01-15 12:07:03.38	343.72	30.84	-29.4	-31.5	20.8	6.03e-01	0	43	0	846725120	20	4587
2026-01-15 12:07:06.39	343.68	30.16	-29.6	-32.0	20.5	6.04e-01	0	43	0	851968000	20	4765
2026-01-15 12:07:09.41	343.63	29.50	-29.6	-32.0	20.6	6.03e-01	0	43	0	857735168	20	4754
2026-01-15 12:07:12.41	343.59	28.86	-29.5	-31.8	20.6	6.03e-01	0	43	0	863502336	20	4700
2026-01-15 12:07:15.41	343.55	28.24	-29.4	-31.5	20.8	6.04e-01	0	43	0	868745216	20	4601
2026-01-15 12:07:18.40	343.51	27.63	-29.4	-31.6	20.8	6.02e-01	0	43	0	874512384	20	4628
2026-01-15 12:07:21.41	343.47	27.04	-29.7	-32.2	20.4	6.02e-01	0	43	0	880279552	20	4825
2026-01-15 12:07:24.41	343.44	26.45	-29.9	-32.7	20.1	6.03e-01	0	43	0	886046720	20	5003
2026-01-15 12:07:27.40	343.41	25.89	-30.0	-33.1	19.8	6.00e-01	0	43	0	891289600	20	5144
2026-01-15 12:07:30.40	343.38	25.33	-30.2	-33.1	19.5	6.01e-01	0	43	0	897056768	21	5029
2026-01-15 12:07:33.41	343.35	24.79	-30.2	-33.1	19.5	6.02e-01	0	43	0	902823936	21	5050
2026-01-15 12:07:36.42	343.32	24.25	-30.4	-33.6	19.2	6.04e-01	0	43	0	908591104	21	5221
2026-01-15 12:07:39.42	343.29	23.73	-30.5	-33.8	19.0	6.03e-01	0	43	0	913833984	21	5298
2026-01-15 12:07:42.42	343.27	23.23	-30.4	-33.6	19.2	6.02e-01	0	43	0	919601152	21	5200
2026-01-15 12:07:45.41	343.24	22.73	-30.1	-33.0	19.5	6.01e-01	0	43	0	925368320	21	4995
2026-01-15 12:07:48.42	343.22	22.24	-30.1	-32.8	19.6	6.04e-01	0	43	0	930611200	21	4934
2026-01-15 12:07:51.42	343.20	21.76	-30.1	-32.9	19.6	6.04e-01	0	43	0	936378368	21	4954
2026-01-15 12:07:54.42	343.18	21.30	-30.0	-32.7	19.7	6.04e-01	0	43	0	942145536	21	4897
2026-01-15 12:07:57.43	343.16	20.83	-30.0	-32.6	19.7	6.04e-01	0	43	0	947912704	21	4856
2026-01-15 12:08:00.43	343.14	20.39	-30.0	-32.6	19.6	6.03e-01	0	43	0	953155584	21	4875
2026-01-15 12:08:03.43	343.12	19.94	-30.1	-32.9	19.5	6.04e-01	0	43	0	958922752	21	4955
2026-01-15 12:08:06.44	343.10	19.51	-30.0	-32.7	19.5	6.04e-01	0	43	0	964689920	21	4907
2026-01-15 12:08:09.43	343.08	19.09	-30.2	-33.2	19.2	6.03e-01	0	43	0	970457088	21	5083
2026-01-15 12:08:12.44	343.07	18.67	-30.3	-33.5	19.1	6.02e-01	0	43	0	975699968	21	5186
2026-01-15 12:08:15.45	343.05	18.26	-30.2	-33.3	19.2	6.02e-01	0	43	0	981467136	21	5135
2026-01-15 12:08:18.44	343.04	17.86	-30.0	-32.8	19.4	6.03e-01	0	43	0	987234304	21	4950
2026-01-15 12:08:21.45	343.03	17.46	-30.0	-32.7	19.5	6.01e-01	0	43	0	993001472	21	4907
2026-01-15 12:08:24.46	343.01	17.07	-30.1	-33.0	19.3	6.03e-01	0	43	0	998244352	21	5030
2026-01-15 12:08:27.46	343.00	16.69	-29.9	-32.6	19.5	6.03e-01	0	43	0	1004011520	21	4870
2026-01-15 12:08:30.47	342.99	16.32	-29.8	-32.4	19.6	6.05e-01	0	43	0	1009778688	21	4804
2026-01-15 12:08:33.46	342.98	15.95	-30.0	-32.6	19.5	6.05e-01	0	43	0	1015545856	21	4904
2026-01-15 12:08:36.47	342.97	15.59	-29.8	-32.3	19.6	6.02e-01	0	43	0	1020788736	21	4799
2026-01-15 12:08:39.48	342.96	15.23	-29.9	-32.5	19.5	6.03e-01	0	43	0	1026555904	21	4867
2026-01-15 12:08:42.49	342.95	14.88	-30.1	-33.2	19.1	6.02e-01	0	43	0	1032323072	21	5093
2026-01-15 12:08:45.49	342.94	14.53	-30.1	-33.1	19.1	6.03e-01	0	43	0	1038090240	21	5076
2026-01-15 12:08:48.50	342.94	14.19	-30.2	-33.3	19.0	6.03e-01	0	43	0	1043333120	21	5147
2026-01-15 12:08:51.51	342.93	13.86	-30.1	-33.1	19.1	6.02e-01	0	43	0	1049100288	21	5087
2026-01-15 12:08:54.51	342.92	13.53	-30.3	-33.7	18.7	6.05e-01	0	43	0	1054867456	21	5300
2026-01-15 12:08:57.51	342.92	13.20	-30.0	-33.0	19.1	6.03e-01	0	43	0	1060634624	21	5034
2026-01-15 12:09:00.51	342.91	12.88	-30.2	-33.4	18.8	6.04e-01	0	43	0	1065877504	21	5214
2026-01-15 12:09:03.52	342.90	12.57	-30.0	-32.8	19.1	6.03e-01	0	43	0	1071644672	21	4998
2026-01-15 12:09:06.53	342.90	12.26	-30.1	-33.2	18.8	6.04e-01	0	43	0	1077411840	21	5138
2026-01-15 12:09:09.52	342.89	11.95	-30.0	-32.8	19.1	6.05e-01	0	43	0	1083179008	21	4993
2026-01-15 12:09:12.53	342.89	11.65	-29.9	-32.7	19.1	6.03e-01	0	43	0	1088421888	21	4942
2026-01-15 12:09:15.55	342.88	11.35	-30.1	-33.1	18.8	6.03e-01	0	43	0	1094189056	21	5106
2026-01-15 12:09:18.56	342.88	11.05	-30.0	-32.8	19.0	6.02e-01	0	43	0	1099956224	21	4995
2026-01-15 12:09:21.57	342.88	10.76	-30.0	-32.9	18.9	6.04e-01	0	43	0	1105723392	21	5040
2026-01-15 12:09:24.58	342.87	10.47	-30.1	-33.2	18.7	6.03e-01	0	43	0	1110966272	21	5146
2026-01-15 12:09:27.57	342.87	10.19	-30.1	-33.3	18.6	6.05e-01	0	43	0	1116733440	21	5190
2026-01-15 12:09:30.57	342.87	9.91	-30.2	-33.4	18.6	6.03e-01	0	43	0	1122500608	21	5227
2026-01-15 12:09:33.58	342.87	9.64	-30.2	-33.5	18.5	6.05e-01	0	43	0	1128267776	21	5271
2026-01-15 12:09:36.59	342.87	9.36	-30.4	-34.1	18.1	6.03e-01	0	43	0	1133510656	21	5491
2026-01-15 12:09:39.58	342.86	9.10	-30.5	-34.4	17.9	6.04e-01	0	43	0	1139277824	21	5653
2026-01-15 12:09:42.58	342.86	8.83	-30.8	-34.7	17.3	6.04e-01	0	43	0	1145044992	22	5652
2026-01-15 12:09:45.59	342.86	8.57	-30.8	-34.9	17.2	6.05e-01	0	43	0	1150812160	22	5747
2026-01-15 12:09:48.58	342.86	8.31	-30.5	-34.0	17.8	6.03e-01	0	43	0	1156055040	22	5361
2026-01-15 12:09:51.59	342.86	8.05	-30.5	-33.8	17.9	6.02e-01	0	43	0	1161822208	22	5290
2026-01-15 12:09:54.60	342.86	7.80	-30.7	-34.4	17.4	6.02e-01	0	43	0	1167589376	22	5556
2026-01-15 12:09:57.60	342.86	7.54	-30.6	-34.2	17.5	6.05e-01	0	43	0	1173356544	22	5468
2026-01-15 12:10:00.60	342.86	7.30	-30.6	-34.4	17.4	6.04e-01	0	43	0	1178599424	22	5564
2026-01-15 12:10:03.61	342.86	7.05	-32.3	-38.5	13.7	6.03e-01	0	43	0	1184366592	25	7345

#Closed at: 2026-01-15 12:10:04
#Recorded file [1184 MB]: D:/data/31010_260115_145931.dat