passes_logs/2026/01/15/R2M6_AANII_01/R2M6_AANII_01__20260115_072010_FENGYUN_3E_rec.log

#Pass ID: 20260115_072010_FENGYUN 3E
#Satellite: FENGYUN 3E
#Configuration: FENGYUN 3E
#almurnet v.1.7.20240730
#Start time: 2026-01-15 07:20:09

#Version: 2.2.20231116
#Station: R2M6_AANII_01
#Location: 30.233357 lon 59.946436 lat
#TLE: 1 49008U 21062A   26014.30102361 -.00000015  00000+0  13743-4 0  9999
#TLE: 2 49008  98.7489  19.4380 0001989 137.7844 222.3486 14.19884630234745

#Time	Az	El	Level	Level2	SNR	BER	BlckErr	Temp	State	Recorded	gain1	gain2
2026-01-15 07:20:09.43	8.04	6.97	-32.4	-38.3	4.0	8.43e-01	0	41	0	0	26	7051
2026-01-15 07:20:11.43	7.80	7.07	-31.3	-34.8	6.3	2.64e-01	0	41	0	0	23	5403
2026-01-15 07:20:13.44	7.56	7.17	-31.1	-34.2	6.7	2.24e-01	0	41	0	14680064	23	5148
2026-01-15 07:20:15.44	7.32	7.28	-31.2	-34.3	6.7	1.97e-01	0	41	0	28311552	23	5161
2026-01-15 07:20:17.45	7.07	7.38	-31.1	-34.1	6.8	1.97e-01	0	41	0	42991616	23	5080
2026-01-15 07:20:19.45	6.83	7.48	-30.4	-32.4	8.2	6.82e-02	0	41	0	57671680	22	4535
2026-01-15 07:20:21.46	6.58	7.59	-29.3	-30.9	10.4	6.67e-03	0	41	0	72351744	19	4299
2026-01-15 07:20:23.47	6.32	7.69	-28.3	-29.3	12.0	6.51e-04	0	41	0	85983232	17	4045
2026-01-15 07:20:25.48	6.07	7.79	-27.7	-28.5	12.8	8.46e-05	0	41	0	101711872	16	3945
2026-01-15 07:20:27.49	5.82	7.90	-27.3	-28.0	13.2	2.86e-05	0	42	0	115343360	15	3918
2026-01-15 07:20:29.49	5.56	8.00	-27.2	-27.8	13.4	2.28e-05	0	41	0	130023424	15	3866
2026-01-15 07:20:31.50	5.30	8.10	-27.4	-28.3	13.1	3.66e-05	0	42	0	144703488	15	3995
2026-01-15 07:20:33.50	5.04	8.20	-27.6	-28.8	12.8	5.49e-05	0	42	0	159383552	15	4112
2026-01-15 07:20:35.52	4.78	8.31	-27.6	-28.9	12.8	7.43e-05	0	42	0	173015040	15	4146
2026-01-15 07:20:37.51	4.51	8.41	-27.6	-28.7	12.9	4.92e-05	0	42	0	187695104	15	4088
2026-01-15 07:20:39.52	4.25	8.51	-27.6	-28.7	12.9	3.77e-05	0	42	0	202375168	15	4099
2026-01-15 07:20:41.53	3.98	8.61	-27.4	-28.1	13.2	2.74e-05	0	42	0	217055232	15	3943
2026-01-15 07:20:43.54	3.71	8.71	-27.1	-27.6	13.6	1.14e-05	0	42	0	231735296	15	3809
2026-01-15 07:20:45.54	3.44	8.81	-27.1	-27.5	13.6	2.05e-05	0	42	0	246415360	15	3788
2026-01-15 07:20:47.56	3.16	8.92	-27.0	-27.9	13.7	9.10e-06	0	42	0	260046848	14	3977
2026-01-15 07:20:49.55	2.89	9.02	-27.0	-27.8	13.7	1.10e-06	0	42	0	274726912	14	3961
2026-01-15 07:20:51.56	2.61	9.12	-27.0	-27.8	13.8	8.00e-06	0	42	0	289406976	14	3950
2026-01-15 07:20:53.56	2.33	9.22	-27.0	-27.8	13.8	5.70e-06	0	42	0	304087040	14	3947
2026-01-15 07:20:55.57	2.05	9.32	-27.5	-28.9	13.2	3.08e-05	0	42	0	317718528	14	4239
2026-01-15 07:20:57.57	1.77	9.42	-27.3	-28.6	13.3	9.10e-06	0	42	0	332398592	14	4170
2026-01-15 07:20:59.58	1.48	9.52	-27.3	-28.5	13.4	1.94e-05	0	42	0	347078656	14	4148
2026-01-15 07:21:01.59	1.19	9.62	-27.6	-28.8	12.9	2.63e-05	0	42	0	361758720	15	4109
2026-01-15 07:21:03.59	0.90	9.71	-27.2	-27.7	13.5	1.25e-05	0	42	0	376438784	15	3847
2026-01-15 07:21:05.60	0.61	9.81	-27.3	-28.0	13.4	1.02e-05	0	42	0	391118848	15	3920
2026-01-15 07:21:07.60	0.32	9.91	-27.3	-28.0	13.4	2.40e-05	0	42	0	404750336	15	3900
2026-01-15 07:21:09.61	0.02	10.01	-27.2	-27.9	13.5	1.37e-05	0	42	0	419430400	15	3882
2026-01-15 07:21:11.61	359.73	10.11	-26.9	-27.5	14.0	3.40e-06	0	42	0	434110464	14	3892
2026-01-15 07:21:13.62	359.43	10.20	-26.8	-27.4	14.0	2.20e-06	0	42	0	448790528	14	3862
2026-01-15 07:21:15.62	359.13	10.30	-27.0	-27.8	13.8	5.70e-06	0	42	0	462422016	14	3958
2026-01-15 07:21:17.62	358.82	10.40	-26.9	-27.7	14.0	4.50e-06	0	42	0	477102080	14	3919
2026-01-15 07:21:19.63	358.52	10.49	-26.8	-27.3	14.1	2.20e-06	0	42	0	491782144	14	3820
2026-01-15 07:21:21.64	358.21	10.59	-26.8	-27.4	14.1	0.00e+00	0	42	0	506462208	14	3846
2026-01-15 07:21:23.64	357.90	10.68	-26.8	-27.3	14.1	2.20e-06	0	42	0	521142272	14	3841
2026-01-15 07:21:25.66	357.58	10.78	-26.9	-27.7	14.0	4.50e-06	0	43	0	535822336	14	3917
2026-01-15 07:21:27.67	357.27	10.87	-26.9	-27.6	14.0	1.10e-06	0	43	0	549453824	14	3910
2026-01-15 07:21:29.67	356.95	10.97	-26.9	-27.6	14.0	6.80e-06	0	42	0	564133888	14	3911
2026-01-15 07:21:31.68	356.64	11.06	-26.8	-27.3	14.1	1.10e-06	0	42	0	578813952	14	3832
2026-01-15 07:21:33.68	356.32	11.15	-26.8	-27.4	14.1	0.00e+00	0	43	0	593494016	14	3846
2026-01-15 07:21:35.68	355.99	11.25	-26.9	-27.6	14.0	1.10e-06	0	43	0	608174080	14	3887
2026-01-15 07:21:37.68	355.67	11.34	-27.0	-27.7	13.9	0.00e+00	0	43	0	621805568	14	3934
2026-01-15 07:21:39.68	355.35	11.43	-26.9	-27.7	14.0	2.20e-06	0	43	0	636485632	14	3918
2026-01-15 07:21:41.70	355.01	11.52	-26.9	-27.5	14.1	1.10e-06	0	43	0	651165696	14	3870
2026-01-15 07:21:43.70	354.68	11.61	-26.9	-27.5	14.1	2.20e-06	0	43	0	665845760	14	3863
2026-01-15 07:21:45.71	354.35	11.70	-26.9	-27.5	14.1	5.70e-06	0	43	0	680525824	14	3882
2026-01-15 07:21:47.72	354.02	11.79	-26.9	-27.7	14.0	0.00e+00	0	43	0	694157312	14	3918
2026-01-15 07:21:49.73	353.68	11.88	-26.8	-27.4	14.2	2.20e-06	0	43	0	709885952	14	3839
2026-01-15 07:21:51.74	353.34	11.96	-26.7	-27.2	14.2	1.10e-06	0	43	0	723517440	14	3808
2026-01-15 07:21:53.75	353.00	12.05	-26.8	-27.4	14.2	0.00e+00	0	43	0	738197504	14	3843
2026-01-15 07:21:55.75	352.66	12.14	-26.6	-26.9	14.4	1.10e-06	0	43	0	752877568	14	3735
2026-01-15 07:21:57.76	352.31	12.22	-26.6	-27.0	14.4	0.00e+00	0	43	0	767557632	14	3748
2026-01-15 07:21:59.76	351.96	12.31	-26.3	-26.8	14.8	0.00e+00	0	43	0	781189120	13	3798
2026-01-15 07:22:01.77	351.61	12.39	-26.3	-26.7	14.8	1.10e-06	0	43	0	795869184	13	3791
2026-01-15 07:22:03.78	351.26	12.47	-26.2	-26.5	15.0	0.00e+00	0	43	0	810549248	13	3720
2026-01-15 07:22:05.79	350.91	12.56	-26.2	-26.5	14.9	0.00e+00	0	43	0	825229312	13	3735
2026-01-15 07:22:07.79	350.55	12.64	-26.3	-26.7	14.8	0.00e+00	0	43	0	839909376	13	3784
2026-01-15 07:22:09.79	350.20	12.72	-26.3	-26.7	14.9	0.00e+00	0	43	0	854589440	13	3774
2026-01-15 07:22:11.80	349.84	12.80	-26.5	-27.2	14.6	2.20e-06	0	43	0	868220928	13	3902
2026-01-15 07:22:13.81	349.48	12.88	-26.4	-26.9	14.7	0.00e+00	0	43	0	882900992	13	3831
2026-01-15 07:22:15.81	349.11	12.95	-26.5	-27.2	14.6	3.40e-06	0	43	0	897581056	13	3901
2026-01-15 07:22:17.82	348.75	13.03	-26.2	-26.6	14.9	0.00e+00	0	43	0	912261120	13	3741
2026-01-15 07:22:19.83	348.38	13.11	-26.3	-26.6	14.9	0.00e+00	0	43	0	926941184	13	3760
2026-01-15 07:22:21.83	348.01	13.18	-26.5	-27.1	14.7	1.10e-06	0	43	0	941621248	13	3870
2026-01-15 07:22:23.83	347.64	13.26	-26.6	-27.4	14.5	0.00e+00	0	43	0	955252736	13	3938
2026-01-15 07:22:25.84	347.27	13.33	-26.4	-26.9	14.8	1.10e-06	0	43	0	969932800	13	3836
2026-01-15 07:22:27.85	346.89	13.40	-26.5	-27.2	14.6	0.00e+00	0	43	0	984612864	13	3889
2026-01-15 07:22:29.86	346.52	13.48	-26.3	-26.6	14.9	0.00e+00	0	43	0	999292928	13	3764
2026-01-15 07:22:31.88	346.13	13.55	-26.2	-26.5	15.1	0.00e+00	0	43	0	1012924416	13	3721
2026-01-15 07:22:33.88	345.76	13.62	-26.1	-26.3	15.2	0.00e+00	0	43	0	1028653056	13	3680
2026-01-15 07:22:35.88	345.37	13.68	-26.1	-26.3	15.1	0.00e+00	0	43	0	1042284544	13	3688
2026-01-15 07:22:37.87	344.99	13.75	-26.1	-26.2	15.2	0.00e+00	0	43	0	1056964608	13	3670
2026-01-15 07:22:39.88	344.61	13.82	-26.0	-26.2	15.2	0.00e+00	0	43	0	1071644672	13	3657
2026-01-15 07:22:41.89	344.22	13.88	-26.4	-27.0	14.7	0.00e+00	0	43	0	1086324736	13	3850
2026-01-15 07:22:43.90	343.83	13.95	-26.5	-27.2	14.7	1.10e-06	0	43	0	1099956224	13	3886
2026-01-15 07:22:45.91	343.44	14.01	-26.5	-27.2	14.6	0.00e+00	0	43	0	1114636288	13	3908
2026-01-15 07:22:47.92	343.04	14.07	-26.2	-26.6	15.0	0.00e+00	0	43	0	1129316352	13	3753
2026-01-15 07:22:49.92	342.65	14.13	-26.2	-26.5	15.0	0.00e+00	0	43	0	1143996416	13	3736
2026-01-15 07:22:51.92	342.26	14.19	-26.2	-26.5	15.0	0.00e+00	0	43	0	1157627904	13	3730
2026-01-15 07:22:53.93	341.86	14.25	-25.8	-26.1	15.6	0.00e+00	0	43	0	1172307968	12	3731
2026-01-15 07:22:55.93	341.46	14.30	-25.7	-26.0	15.6	0.00e+00	0	43	0	1186988032	12	3705
2026-01-15 07:22:57.95	341.06	14.36	-25.9	-26.5	15.4	0.00e+00	0	43	0	1201668096	12	3819
2026-01-15 07:22:59.95	340.66	14.41	-25.8	-26.1	15.5	0.00e+00	0	43	0	1216348160	12	3744
2026-01-15 07:23:01.95	340.26	14.47	-25.8	-26.1	15.6	0.00e+00	0	43	0	1231028224	12	3730
2026-01-15 07:23:03.96	339.85	14.52	-26.1	-26.7	15.2	0.00e+00	0	43	0	1244659712	12	3890
2026-01-15 07:23:05.97	339.44	14.57	-25.6	-25.7	15.8	0.00e+00	0	43	0	1259339776	12	3647
2026-01-15 07:23:07.97	339.04	14.62	-25.6	-25.6	15.9	0.00e+00	0	43	0	1274019840	12	3623
2026-01-15 07:23:09.99	338.62	14.66	-25.4	-25.7	16.1	0.00e+00	0	43	0	1288699904	11	3749
2026-01-15 07:23:12.00	338.21	14.71	-25.3	-25.6	16.2	0.00e+00	0	43	0	1303379968	11	3718
2026-01-15 07:23:14.01	337.80	14.76	-25.5	-25.9	16.0	0.00e+00	0	43	0	1318060032	11	3780
2026-01-15 07:23:16.01	337.39	14.80	-25.6	-26.1	16.0	0.00e+00	0	43	0	1331691520	11	3828
2026-01-15 07:23:18.01	336.98	14.84	-25.7	-26.4	15.8	0.00e+00	0	43	0	1346371584	11	3894
2026-01-15 07:23:20.01	336.56	14.88	-25.7	-26.4	15.8	0.00e+00	0	43	0	1361051648	11	3898
2026-01-15 07:23:22.02	336.14	14.92	-25.6	-26.1	16.0	0.00e+00	0	43	0	1375731712	11	3825
2026-01-15 07:23:24.03	335.73	14.96	-25.6	-26.1	15.9	0.00e+00	0	43	0	1390411776	11	3843
2026-01-15 07:23:26.03	335.31	14.99	-25.4	-25.8	16.1	0.00e+00	0	43	0	1405091840	11	3761
2026-01-15 07:23:28.04	334.89	15.03	-25.4	-25.8	16.0	0.00e+00	0	43	0	1418723328	11	3768
2026-01-15 07:23:30.05	334.47	15.06	-25.4	-25.9	16.0	0.00e+00	0	43	0	1433403392	11	3775
2026-01-15 07:23:32.05	334.05	15.09	-25.4	-25.7	16.1	0.00e+00	0	43	0	1448083456	11	3736
2026-01-15 07:23:34.05	333.63	15.12	-25.3	-25.5	16.2	0.00e+00	0	43	0	1462763520	11	3690
2026-01-15 07:23:36.06	333.20	15.15	-25.3	-25.6	16.2	0.00e+00	0	43	0	1476395008	11	3711
2026-01-15 07:23:38.07	332.78	15.18	-25.7	-26.3	15.8	0.00e+00	0	43	0	1491075072	11	3884
2026-01-15 07:23:40.08	332.35	15.20	-25.5	-25.9	16.0	0.00e+00	0	43	0	1505755136	11	3787
2026-01-15 07:23:42.09	331.93	15.23	-25.5	-26.0	16.0	0.00e+00	0	43	0	1520435200	11	3802
2026-01-15 07:23:44.09	331.50	15.25	-25.4	-25.7	16.1	0.00e+00	0	43	0	1535115264	11	3747
2026-01-15 07:23:46.10	331.07	15.27	-25.3	-25.6	16.1	0.00e+00	0	43	0	1549795328	11	3719
2026-01-15 07:23:48.11	330.64	15.29	-25.7	-26.3	15.8	0.00e+00	0	43	0	1563426816	11	3881
2026-01-15 07:23:50.12	330.22	15.31	-25.7	-26.4	15.7	0.00e+00	0	43	0	1578106880	11	3899
2026-01-15 07:23:52.12	329.79	15.32	-26.0	-27.1	15.3	0.00e+00	0	43	0	1592786944	11	4082
2026-01-15 07:23:54.12	329.36	15.34	-26.3	-27.1	15.0	0.00e+00	0	43	0	1607467008	12	3988
2026-01-15 07:23:56.12	328.93	15.35	-25.4	-25.7	16.1	0.00e+00	0	43	0	1621098496	11	3743
2026-01-15 07:23:58.13	328.50	15.36	-25.4	-25.7	16.1	0.00e+00	0	43	0	1635778560	11	3738
2026-01-15 07:24:00.13	328.07	15.37	-25.5	-26.0	16.0	0.00e+00	0	43	0	1650458624	11	3817
2026-01-15 07:24:02.14	327.64	15.38	-25.4	-25.8	16.1	0.00e+00	0	43	0	1665138688	11	3752
2026-01-15 07:24:04.15	327.21	15.39	-25.4	-25.7	16.1	0.00e+00	0	43	0	1679818752	11	3735
2026-01-15 07:24:06.15	326.78	15.39	-25.5	-25.9	16.0	0.00e+00	0	43	0	1694498816	11	3779
2026-01-15 07:24:08.15	326.35	15.39	-25.6	-26.3	15.8	0.00e+00	0	43	0	1708130304	11	3879
2026-01-15 07:24:10.15	325.92	15.39	-25.6	-26.1	15.9	0.00e+00	0	43	0	1722810368	11	3837
2026-01-15 07:24:12.16	325.49	15.39	-25.5	-26.1	15.9	0.00e+00	0	43	0	1737490432	11	3823
2026-01-15 07:24:14.17	325.06	15.39	-25.7	-26.3	15.8	0.00e+00	0	43	0	1752170496	11	3879
2026-01-15 07:24:16.16	324.63	15.39	-25.6	-26.3	15.8	0.00e+00	0	43	0	1765801984	11	3866
2026-01-15 07:24:18.17	324.20	15.38	-25.5	-26.1	15.9	0.00e+00	0	43	0	1780482048	11	3824
2026-01-15 07:24:20.17	323.77	15.38	-25.5	-25.9	16.0	0.00e+00	0	43	0	1795162112	11	3795
2026-01-15 07:24:22.18	323.34	15.37	-25.3	-25.5	16.2	0.00e+00	0	43	0	1809842176	11	3687
2026-01-15 07:24:24.18	322.91	15.36	-25.4	-25.7	16.0	0.00e+00	0	43	0	1824522240	11	3745
2026-01-15 07:24:26.18	322.48	15.35	-25.0	-24.9	16.5	0.00e+00	0	43	0	1839202304	11	3564
2026-01-15 07:24:28.19	322.05	15.33	-25.3	-25.5	16.2	0.00e+00	0	43	0	1852833792	11	3694
2026-01-15 07:24:30.19	321.63	15.32	-25.1	-25.1	16.4	0.00e+00	0	43	0	1867513856	11	3609
2026-01-15 07:24:32.18	321.20	15.30	-25.1	-25.1	16.4	0.00e+00	0	43	0	1882193920	11	3600
2026-01-15 07:24:34.18	320.77	15.28	-25.1	-25.1	16.4	0.00e+00	0	43	0	1896873984	11	3601
2026-01-15 07:24:36.19	320.34	15.26	-25.0	-24.9	16.5	0.00e+00	0	43	0	1910505472	11	3569
2026-01-15 07:24:38.20	319.92	15.24	-25.1	-25.1	16.4	0.00e+00	0	43	0	1925185536	11	3595
2026-01-15 07:24:40.21	319.49	15.22	-25.2	-25.2	16.3	0.00e+00	0	43	0	1939865600	11	3633
2026-01-15 07:24:42.22	319.06	15.20	-25.1	-25.2	16.4	0.00e+00	0	43	0	1954545664	11	3625
2026-01-15 07:24:44.23	318.64	15.17	-25.1	-25.2	16.4	0.00e+00	0	43	0	1969225728	11	3628
2026-01-15 07:24:46.25	318.21	15.14	-25.2	-25.4	16.2	0.00e+00	0	43	0	1983905792	11	3674
2026-01-15 07:24:48.25	317.79	15.11	-25.3	-25.6	16.1	0.00e+00	0	43	0	1997537280	11	3718
2026-01-15 07:24:50.25	317.37	15.08	-25.4	-25.7	16.1	0.00e+00	0	43	0	2012217344	11	3730
2026-01-15 07:24:52.26	316.94	15.05	-25.3	-25.5	16.2	0.00e+00	0	43	0	2026897408	11	3700
2026-01-15 07:24:54.27	316.52	15.02	-25.4	-25.8	16.1	0.00e+00	0	43	0	2041577472	11	3751
2026-01-15 07:24:56.28	316.10	14.98	-25.4	-25.8	16.0	0.00e+00	0	43	0	2055208960	11	3770
2026-01-15 07:24:58.28	315.68	14.95	-25.3	-25.5	16.1	0.00e+00	0	43	0	2070937600	11	3697
2026-01-15 07:25:00.28	315.27	14.91	-25.3	-25.5	16.2	0.00e+00	0	43	0	2084569088	11	3700
2026-01-15 07:25:02.27	314.85	14.87	-25.5	-26.0	16.0	0.00e+00	0	43	0	2099249152	11	3814
2026-01-15 07:25:04.28	314.44	14.83	-25.3	-25.6	16.1	0.00e+00	0	43	0	2113929216	11	3715
2026-01-15 07:25:06.28	314.03	14.79	-25.4	-25.7	16.0	0.00e+00	0	44	0	2128609280	11	3732
2026-01-15 07:25:08.29	313.61	14.74	-25.4	-25.8	16.0	0.00e+00	0	43	0	2142240768	11	3756
2026-01-15 07:25:10.29	313.20	14.70	-25.4	-25.7	16.0	0.00e+00	0	43	0	2156920832	11	3737
2026-01-15 07:25:12.29	312.79	14.65	-25.4	-25.8	16.0	0.00e+00	0	43	0	2171600896	11	3761
2026-01-15 07:25:14.29	312.38	14.60	-25.3	-25.5	16.1	0.00e+00	0	43	0	2186280960	11	3696
2026-01-15 07:25:16.29	311.98	14.55	-25.4	-25.8	16.0	0.00e+00	0	43	0	2200961024	11	3770
2026-01-15 07:25:18.30	311.57	14.50	-25.4	-25.8	16.0	0.00e+00	0	43	0	2214592512	11	3758
2026-01-15 07:25:20.31	311.16	14.45	-25.4	-25.8	15.9	0.00e+00	0	43	0	2229272576	11	3773
2026-01-15 07:25:22.32	310.76	14.40	-25.3	-25.6	16.1	0.00e+00	0	43	0	2243952640	11	3709
2026-01-15 07:25:24.33	310.35	14.34	-25.3	-25.7	16.0	0.00e+00	0	44	0	2258632704	11	3731
2026-01-15 07:25:26.34	309.95	14.29	-25.3	-25.6	16.0	0.00e+00	0	43	0	2273312768	11	3729
2026-01-15 07:25:28.35	309.55	14.23	-25.5	-26.0	15.8	0.00e+00	0	44	0	2286944256	11	3816
2026-01-15 07:25:30.35	309.16	14.17	-25.5	-26.0	15.8	0.00e+00	0	43	0	2301624320	11	3813
2026-01-15 07:25:32.35	308.76	14.11	-25.7	-26.4	15.6	0.00e+00	0	43	0	2316304384	11	3915
2026-01-15 07:25:34.36	308.37	14.05	-25.6	-26.2	15.7	0.00e+00	0	43	0	2330984448	11	3873
2026-01-15 07:25:36.37	307.97	13.99	-25.6	-26.2	15.7	0.00e+00	0	44	0	2345664512	11	3859
2026-01-15 07:25:38.37	307.58	13.93	-25.5	-26.0	15.8	0.00e+00	0	43	0	2359296000	11	3808
2026-01-15 07:25:40.37	307.19	13.86	-25.4	-25.8	15.9	0.00e+00	0	43	0	2373976064	11	3767
2026-01-15 07:25:42.37	306.81	13.80	-25.4	-25.8	15.9	0.00e+00	0	43	0	2388656128	11	3760
2026-01-15 07:25:44.38	306.42	13.73	-25.5	-26.1	15.8	0.00e+00	0	43	0	2403336192	11	3824
2026-01-15 07:25:46.40	306.03	13.66	-25.6	-26.1	15.7	0.00e+00	0	43	0	2418016256	11	3847
2026-01-15 07:25:48.41	305.65	13.59	-25.8	-26.6	15.5	0.00e+00	0	43	0	2432696320	11	3956
2026-01-15 07:25:50.41	305.27	13.52	-25.9	-26.8	15.3	0.00e+00	0	43	0	2446327808	11	4018
2026-01-15 07:25:52.42	304.89	13.45	-25.7	-26.4	15.5	0.00e+00	0	43	0	2461007872	11	3920
2026-01-15 07:25:54.42	304.51	13.38	-25.5	-26.0	15.7	0.00e+00	0	43	0	2475687936	11	3810
2026-01-15 07:25:56.43	304.14	13.31	-25.7	-26.4	15.6	0.00e+00	0	44	0	2490368000	11	3907
2026-01-15 07:25:58.44	303.76	13.23	-25.6	-26.1	15.7	0.00e+00	0	43	0	2505048064	11	3845
2026-01-15 07:26:00.44	303.39	13.16	-25.6	-26.3	15.6	0.00e+00	0	43	0	2518679552	11	3883
2026-01-15 07:26:02.45	303.02	13.08	-25.8	-26.8	15.3	0.00e+00	0	43	0	2533359616	11	4006
2026-01-15 07:26:04.45	302.66	13.01	-25.8	-26.7	15.4	0.00e+00	0	43	0	2548039680	11	3978
2026-01-15 07:26:06.45	302.29	12.93	-25.9	-26.8	15.3	0.00e+00	0	43	0	2562719744	11	4014
2026-01-15 07:26:08.46	301.93	12.85	-25.9	-26.8	15.3	0.00e+00	0	44	0	2577399808	11	4016
2026-01-15 07:26:10.46	301.57	12.77	-25.7	-26.5	15.4	0.00e+00	0	43	0	2591031296	11	3942
2026-01-15 07:26:12.47	301.21	12.69	-25.8	-26.7	15.3	0.00e+00	0	43	0	2605711360	11	3995
2026-01-15 07:26:14.48	300.85	12.61	-25.9	-26.8	15.3	0.00e+00	0	44	0	2620391424	11	4013
2026-01-15 07:26:16.47	300.49	12.53	-26.0	-27.2	15.1	0.00e+00	0	43	0	2635071488	11	4108
2026-01-15 07:26:18.48	300.14	12.45	-26.0	-26.7	15.0	1.10e-06	0	43	0	2649751552	12	3894
2026-01-15 07:26:20.49	299.79	12.36	-26.2	-27.1	14.7	0.00e+00	0	43	0	2663383040	12	3974
2026-01-15 07:26:22.49	299.44	12.28	-26.3	-27.3	14.6	2.20e-06	0	43	0	2678063104	12	4038
2026-01-15 07:26:24.50	299.09	12.19	-26.3	-27.3	14.6	0.00e+00	0	44	0	2692743168	12	4025
2026-01-15 07:26:26.50	298.75	12.11	-26.3	-27.4	14.6	0.00e+00	0	44	0	2707423232	12	4054
2026-01-15 07:26:28.51	298.40	12.02	-26.2	-27.2	14.7	0.00e+00	0	43	0	2722103296	12	4003
2026-01-15 07:26:30.52	298.06	11.93	-26.1	-26.8	14.9	1.10e-06	0	43	0	2735734784	12	3907
2026-01-15 07:26:32.53	297.72	11.85	-26.1	-26.8	14.8	0.00e+00	0	43	0	2750414848	12	3922
2026-01-15 07:26:34.54	297.38	11.76	-26.1	-26.8	14.9	0.00e+00	0	43	0	2765094912	12	3909
2026-01-15 07:26:36.55	297.04	11.67	-26.1	-26.8	14.8	1.10e-06	0	43	0	2779774976	12	3910
2026-01-15 07:26:38.55	296.71	11.58	-26.2	-27.0	14.7	0.00e+00	0	44	0	2794455040	12	3968
2026-01-15 07:26:40.56	296.38	11.49	-25.9	-26.5	15.0	0.00e+00	0	43	0	2809135104	12	3840
2026-01-15 07:26:42.57	296.05	11.40	-26.0	-26.6	14.9	0.00e+00	0	43	0	2822766592	12	3863
2026-01-15 07:26:44.57	295.72	11.30	-25.9	-26.4	15.1	0.00e+00	0	43	0	2837446656	12	3808
2026-01-15 07:26:46.58	295.40	11.21	-26.0	-26.5	15.0	0.00e+00	0	43	0	2852126720	12	3835
2026-01-15 07:26:48.59	295.07	11.12	-26.1	-26.8	14.8	0.00e+00	0	44	0	2866806784	12	3918
2026-01-15 07:26:50.60	294.75	11.03	-26.4	-27.5	14.4	1.10e-06	0	43	0	2881486848	12	4097
2026-01-15 07:26:52.61	294.43	10.93	-26.5	-27.8	14.3	2.20e-06	0	43	0	2895118336	12	4169
2026-01-15 07:26:54.62	294.11	10.84	-26.5	-27.3	14.2	1.10e-06	0	43	0	2909798400	13	3939
2026-01-15 07:26:56.62	293.80	10.74	-26.7	-27.8	13.9	0.00e+00	0	44	0	2924478464	13	4058
2026-01-15 07:26:58.63	293.49	10.65	-26.4	-27.0	14.3	1.10e-06	0	44	0	2939158528	13	3856
2026-01-15 07:27:00.63	293.18	10.55	-26.4	-27.0	14.3	1.10e-06	0	43	0	2953838592	13	3859
2026-01-15 07:27:02.64	292.87	10.46	-26.4	-27.1	14.3	2.20e-06	0	44	0	2968518656	13	3884
2026-01-15 07:27:04.64	292.56	10.36	-26.3	-26.8	14.4	2.20e-06	0	44	0	2982150144	13	3806
2026-01-15 07:27:06.65	292.26	10.26	-26.3	-26.8	14.5	0.00e+00	0	43	0	2996830208	13	3807
2026-01-15 07:27:08.65	291.95	10.17	-26.3	-26.9	14.3	0.00e+00	0	44	0	3011510272	13	3841
2026-01-15 07:27:10.66	291.65	10.07	-26.4	-26.9	14.3	1.10e-06	0	44	0	3026190336	13	3855
2026-01-15 07:27:12.67	291.35	9.97	-26.5	-27.2	14.2	2.20e-06	0	43	0	3040870400	13	3910
2026-01-15 07:27:14.68	291.06	9.87	-26.7	-27.7	13.9	3.40e-06	0	44	0	3054501888	13	4050
2026-01-15 07:27:16.68	290.76	9.77	-26.5	-27.3	14.1	3.40e-06	0	44	0	3069181952	13	3940
2026-01-15 07:27:18.68	290.47	9.68	-26.5	-27.4	14.0	0.00e+00	0	43	0	3083862016	13	3964
2026-01-15 07:27:20.69	290.18	9.58	-26.6	-27.5	13.9	3.40e-06	0	43	0	3098542080	13	3992
2026-01-15 07:27:22.70	289.89	9.48	-26.7	-27.8	13.7	3.40e-06	0	43	0	3113222144	13	4086
2026-01-15 07:27:24.71	289.60	9.38	-26.7	-27.7	13.8	1.10e-06	0	43	0	3126853632	13	4041
2026-01-15 07:27:26.71	289.32	9.28	-26.6	-27.5	13.8	2.20e-06	0	43	0	3141533696	13	4003
2026-01-15 07:27:28.72	289.04	9.18	-26.6	-27.5	13.8	1.37e-05	0	44	0	3156213760	13	4002
2026-01-15 07:27:30.73	288.76	9.07	-26.6	-27.5	13.8	4.50e-06	0	43	0	3170893824	13	3994
2026-01-15 07:27:32.73	288.48	8.97	-26.6	-27.4	13.7	6.80e-06	0	43	0	3185573888	13	3987
2026-01-15 07:27:34.74	288.20	8.87	-26.5	-27.4	13.7	3.40e-06	0	43	0	3200253952	13	3979
2026-01-15 07:27:36.73	287.93	8.77	-26.7	-27.7	13.6	6.80e-06	0	44	0	3213885440	13	4050
2026-01-15 07:27:38.74	287.66	8.67	-26.7	-27.7	13.6	1.14e-05	0	43	0	3228565504	13	4061
2026-01-15 07:27:40.74	287.39	8.57	-26.7	-27.8	13.5	1.37e-05	0	44	0	3243245568	13	4081
2026-01-15 07:27:42.74	287.12	8.47	-26.8	-28.1	13.3	1.94e-05	0	43	0	3257925632	13	4156
2026-01-15 07:27:44.75	286.85	8.36	-26.6	-27.5	13.7	1.10e-06	0	44	0	3271557120	13	4015
2026-01-15 07:27:46.77	286.58	8.26	-26.6	-27.7	13.6	2.05e-05	0	43	0	3286237184	13	4047
2026-01-15 07:27:48.78	286.32	8.16	-26.8	-27.9	13.4	1.94e-05	0	44	0	3300917248	13	4120
2026-01-15 07:27:50.78	286.06	8.06	-26.9	-28.3	13.1	3.31e-05	0	43	0	3315597312	13	4228
2026-01-15 07:27:52.77	285.80	7.95	-26.9	-28.3	13.2	2.17e-05	0	43	0	3330277376	13	4212
2026-01-15 07:27:54.78	285.54	7.85	-26.9	-28.2	13.1	3.89e-05	0	43	0	3343908864	13	4205
2026-01-15 07:27:56.77	285.29	7.75	-26.9	-28.3	13.0	4.23e-05	0	44	0	3358588928	13	4225
2026-01-15 07:27:58.77	285.04	7.65	-26.9	-28.2	13.1	3.77e-05	0	44	0	3373268992	13	4211
2026-01-15 07:28:00.78	284.78	7.54	-26.9	-28.2	13.1	3.66e-05	0	44	0	3387949056	13	4191
2026-01-15 07:28:02.79	284.53	7.44	-26.8	-28.1	13.2	1.94e-05	0	43	0	3402629120	13	4158
2026-01-15 07:28:04.80	284.28	7.34	-26.9	-28.3	13.1	3.77e-05	0	44	0	3417309184	13	4235
2026-01-15 07:28:06.80	284.04	7.23	-26.9	-28.4	13.1	3.08e-05	0	44	0	3430940672	13	4249
2026-01-15 07:28:08.80	283.79	7.13	-27.0	-28.5	13.0	3.89e-05	0	43	0	3445620736	13	4282
2026-01-15 07:28:10.80	283.55	7.03	-32.8	-41.8	3.8	8.46e-01	0	43	104	3457155072	25	10147
2026-01-15 07:28:12.81	283.31	6.92	-33.8	-43.5	3.8	8.46e-01	0	43	104	3457155072	27	11007

#Closed at: 2026-01-15 07:28:13
#Recorded file [3457 MB]: D:/data/31010_260115_102011.dat