passes_logs/2026/01/15/R2M6_AANII_01/R2M6_AANII_01__20260115_053928_FENGYUN_3E_rec.log

#Pass ID: 20260115_053928_FENGYUN 3E
#Satellite: FENGYUN 3E
#Configuration: FENGYUN 3E
#almurnet v.1.7.20240730
#Start time: 2026-01-15 05:39:30

#Version: 2.2.20231116
#Station: R2M6_AANII_01
#Location: 30.233357 lon 59.946436 lat
#TLE: 1 49008U 21062A   26014.30102361 -.00000015  00000+0  13743-4 0  9999
#TLE: 2 49008  98.7489  19.4380 0001989 137.7844 222.3486 14.19884630234745

#Time	Az	El	Level	Level2	SNR	BER	BlckErr	Temp	State	Recorded	gain1	gain2
2026-01-15 05:39:30.16	13.35	7.12	-31.7	-36.3	4.4	8.23e-01	0	41	0	0	23	6120
2026-01-15 05:39:33.17	13.19	7.35	-31.5	-35.9	6.1	2.92e-01	0	41	0	7340032	22	5969
2026-01-15 05:39:36.16	13.04	7.57	-31.7	-35.9	5.9	4.98e-01	0	41	0	28311552	23	5847
2026-01-15 05:39:39.18	12.88	7.79	-30.5	-33.1	8.4	6.61e-02	0	41	0	50331648	21	4828
2026-01-15 05:39:42.20	12.72	8.02	-29.1	-30.7	11.0	2.36e-03	0	42	0	71303168	18	4351
2026-01-15 05:39:45.21	12.55	8.25	-27.8	-28.7	12.8	5.72e-05	0	42	0	93323264	16	3993
2026-01-15 05:39:48.23	12.39	8.48	-27.4	-28.8	13.2	3.08e-05	0	42	0	115343360	14	4227
2026-01-15 05:39:51.24	12.22	8.71	-27.3	-28.5	13.4	1.83e-05	0	42	0	137363456	14	4141
2026-01-15 05:39:54.24	12.05	8.95	-27.6	-28.6	13.1	3.43e-05	0	42	0	158334976	15	4064
2026-01-15 05:39:57.24	11.87	9.18	-27.3	-28.4	13.5	6.80e-06	0	42	0	180355072	14	4110
2026-01-15 05:40:00.25	11.69	9.42	-27.4	-28.8	13.3	1.71e-05	0	42	0	201326592	14	4216
2026-01-15 05:40:03.25	11.51	9.66	-27.1	-28.0	13.8	6.80e-06	0	42	0	223346688	14	4008
2026-01-15 05:40:06.27	11.32	9.90	-27.0	-27.9	13.9	3.40e-06	0	42	0	245366784	14	3979
2026-01-15 05:40:09.27	11.14	10.15	-26.9	-27.7	14.0	6.80e-06	0	42	0	267386880	14	3916
2026-01-15 05:40:12.29	10.94	10.39	-27.1	-28.5	11.5	8.00e-06	0	43	0	288358400	13	4253
2026-01-15 05:40:15.30	10.75	10.64	-27.2	-28.3	13.7	4.50e-06	0	42	0	310378496	14	4086
2026-01-15 05:40:18.31	10.55	10.89	-27.0	-28.3	14.0	2.07e-03	0	43	0	332398592	13	4197
2026-01-15 05:40:21.33	10.35	11.15	-26.9	-28.0	14.2	0.00e+00	0	43	0	354418688	13	4094
2026-01-15 05:40:24.35	10.14	11.40	-26.8	-27.7	14.4	1.10e-06	0	43	0	375390208	13	4033
2026-01-15 05:40:27.35	9.93	11.66	-27.0	-28.2	14.1	1.84e-03	0	43	0	397410304	13	4164
2026-01-15 05:40:30.35	9.72	11.92	-27.0	-28.3	14.1	1.68e-03	0	43	0	419430400	13	4168
2026-01-15 05:40:33.36	9.50	12.18	-26.8	-27.8	14.3	1.82e-03	0	43	0	440401920	13	4062
2026-01-15 05:40:36.36	9.28	12.45	-26.6	-27.4	14.6	1.85e-03	0	43	0	462422016	13	3956
2026-01-15 05:40:39.37	9.05	12.71	-26.1	-26.8	15.2	0.00e+00	0	43	0	484442112	12	3888
2026-01-15 05:40:42.39	8.82	12.98	-26.3	-27.2	15.0	5.08e-04	0	43	0	506462208	12	3998
2026-01-15 05:40:45.40	8.58	13.26	-26.3	-27.3	15.0	1.82e-03	0	43	0	527433728	12	4027
2026-01-15 05:40:48.41	8.34	13.53	-26.1	-26.8	15.2	0.00e+00	0	43	0	549453824	12	3909
2026-01-15 05:40:51.42	8.10	13.81	-26.3	-27.3	15.0	0.00e+00	0	43	0	571473920	12	4024
2026-01-15 05:40:54.44	7.85	14.09	-25.9	-26.4	15.5	0.00e+00	0	43	0	593494016	12	3806
2026-01-15 05:40:57.45	7.59	14.37	-25.9	-26.9	15.6	0.00e+00	0	43	0	614465536	11	4028
2026-01-15 05:41:00.47	7.33	14.66	-26.0	-26.5	15.5	0.00e+00	0	43	0	636485632	12	3831
2026-01-15 05:41:03.48	7.07	14.95	-26.0	-27.0	15.6	0.00e+00	0	43	0	658505728	11	4054
2026-01-15 05:41:06.49	6.80	15.24	-25.9	-26.8	15.7	0.00e+00	0	43	0	680525824	11	3995
2026-01-15 05:41:09.50	6.52	15.53	-25.9	-26.9	15.7	0.00e+00	0	43	0	701497344	11	4009
2026-01-15 05:41:12.52	6.24	15.83	-25.7	-26.5	15.9	0.00e+00	0	43	0	723517440	11	3915
2026-01-15 05:41:15.53	5.95	16.13	-25.6	-26.1	16.1	0.00e+00	0	43	0	745537536	11	3824
2026-01-15 05:41:18.55	5.66	16.43	-25.4	-26.2	16.4	0.00e+00	0	43	0	767557632	10	3953
2026-01-15 05:41:21.55	5.36	16.74	-25.4	-25.7	16.4	0.00e+00	0	43	0	788529152	11	3728
2026-01-15 05:41:24.57	5.05	17.05	-25.4	-26.3	16.3	0.00e+00	0	43	0	810549248	10	3972
2026-01-15 05:41:27.57	4.74	17.36	-25.3	-26.0	16.5	0.00e+00	0	43	0	832569344	10	3905
2026-01-15 05:41:30.59	4.42	17.67	-25.3	-26.0	16.5	0.00e+00	0	43	0	853540864	10	3908
2026-01-15 05:41:33.58	4.09	17.99	-25.1	-25.6	16.8	0.00e+00	0	43	0	875560960	10	3798
2026-01-15 05:41:36.59	3.76	18.31	-25.1	-25.6	16.8	0.00e+00	0	43	0	897581056	10	3798
2026-01-15 05:41:39.58	3.42	18.63	-25.0	-25.8	16.9	0.00e+00	0	44	0	918552576	9	3965
2026-01-15 05:41:42.59	3.07	18.96	-25.0	-25.4	16.9	0.00e+00	0	43	0	940572672	10	3751
2026-01-15 05:41:45.61	2.71	19.29	-24.9	-25.7	17.0	0.00e+00	0	43	0	962592768	9	3944
2026-01-15 05:41:48.62	2.35	19.62	-24.0	-24.5	16.8	0.00e+00	0	43	0	984612864	9	3854
2026-01-15 05:41:51.63	1.97	19.96	-24.8	-25.4	17.2	0.00e+00	0	43	0	1005584384	9	3862
2026-01-15 05:41:54.64	1.59	20.30	-24.8	-25.5	17.1	0.00e+00	0	44	0	1027604480	9	3897
2026-01-15 05:41:57.65	1.20	20.65	-24.6	-25.0	17.4	0.00e+00	0	43	0	1049624576	9	3767
2026-01-15 05:42:00.66	0.80	20.99	-24.4	-24.7	17.6	2.51e-05	0	43	0	1070596096	9	3702
2026-01-15 05:42:03.67	0.39	21.34	-24.2	-24.7	17.8	9.15e-05	0	43	0	1092616192	8	3812
2026-01-15 05:42:06.67	359.97	21.69	-24.1	-24.5	17.9	0.00e+00	0	43	0	1114636288	8	3767
2026-01-15 05:42:09.68	359.55	22.05	-24.4	-25.0	17.7	9.61e-05	0	44	0	1136656384	8	3880
2026-01-15 05:42:12.70	359.10	22.41	-24.4	-25.1	17.7	8.92e-05	0	43	0	1157627904	8	3898
2026-01-15 05:42:15.70	358.66	22.78	-24.7	-25.2	17.4	1.03e-04	0	43	0	1179648000	9	3810
2026-01-15 05:42:18.71	358.20	23.14	-24.5	-24.9	17.5	1.07e-04	0	43	0	1201668096	9	3749
2026-01-15 05:42:21.71	357.73	23.51	-24.3	-24.8	17.8	1.70e-04	0	44	0	1222639616	8	3833
2026-01-15 05:42:24.72	357.24	23.88	-24.1	-24.5	18.0	0.00e+00	0	43	0	1244659712	8	3758
2026-01-15 05:42:27.73	356.75	24.26	-24.1	-24.9	18.0	1.27e-04	0	43	0	1266679808	7	3948
2026-01-15 05:42:30.73	356.24	24.64	-24.1	-24.5	18.0	4.57e-05	0	43	0	1288699904	8	3769
2026-01-15 05:42:33.74	355.72	25.02	-24.3	-24.8	17.9	6.80e-06	0	44	0	1309671424	8	3823
2026-01-15 05:42:36.74	355.19	25.40	-24.1	-24.5	18.0	0.00e+00	0	44	0	1331691520	8	3756
2026-01-15 05:42:39.75	354.64	25.79	-24.4	-25.2	17.7	0.00e+00	0	43	0	1353711616	8	3915
2026-01-15 05:42:42.76	354.08	26.18	-24.4	-25.1	17.7	0.00e+00	0	44	0	1375731712	8	3904
2026-01-15 05:42:45.77	353.51	26.57	-24.4	-24.5	17.8	0.00e+00	0	43	0	1396703232	9	3664
2026-01-15 05:42:48.77	352.92	26.97	-24.1	-24.5	18.0	0.00e+00	0	44	0	1418723328	8	3771
2026-01-15 05:42:51.77	352.32	27.36	-23.8	-23.8	18.4	0.00e+00	0	44	0	1439694848	8	3608
2026-01-15 05:42:54.79	351.70	27.77	-23.9	-24.6	18.2	0.00e+00	0	44	0	1461714944	7	3886
2026-01-15 05:42:57.80	351.06	28.17	-24.0	-24.3	18.1	0.00e+00	0	43	0	1483735040	8	3724
2026-01-15 05:43:00.81	350.41	28.57	-23.9	-24.5	18.3	4.23e-05	0	44	0	1505755136	7	3877
2026-01-15 05:43:03.83	349.73	28.98	-23.9	-24.6	18.2	8.46e-05	0	44	0	1526726656	7	3892
2026-01-15 05:43:06.83	349.05	29.38	-24.0	-24.7	18.2	2.57e-04	0	43	0	1548746752	7	3905
2026-01-15 05:43:09.85	348.34	29.79	-23.7	-24.1	18.5	0.00e+00	0	43	0	1570766848	7	3779
2026-01-15 05:43:12.86	347.62	30.20	-23.7	-24.2	18.5	0.00e+00	0	44	0	1591738368	7	3786
2026-01-15 05:43:15.87	346.88	30.61	-23.8	-24.4	18.4	0.00e+00	0	44	0	1613758464	7	3841
2026-01-15 05:43:18.87	346.12	31.02	-23.8	-24.2	18.4	3.19e-04	0	44	0	1635778560	7	3794
2026-01-15 05:43:21.88	345.34	31.43	-23.7	-24.2	18.5	0.00e+00	0	44	0	1657798656	7	3798
2026-01-15 05:43:24.90	344.53	31.84	-23.8	-24.3	18.4	0.00e+00	0	44	0	1678770176	7	3810
2026-01-15 05:43:27.91	343.71	32.25	-23.8	-24.2	18.5	0.00e+00	0	44	0	1700790272	7	3793
2026-01-15 05:43:30.92	342.87	32.66	-23.7	-24.2	18.5	0.00e+00	0	44	0	1722810368	7	3790
2026-01-15 05:43:33.93	342.00	33.06	-23.8	-24.4	18.4	0.00e+00	0	44	0	1744830464	7	3833
2026-01-15 05:43:36.94	341.12	33.46	-23.9	-24.6	18.3	0.00e+00	0	44	0	1765801984	7	3876
2026-01-15 05:43:39.96	340.20	33.87	-23.4	-23.5	18.9	0.00e+00	0	44	0	1787822080	7	3627
2026-01-15 05:43:42.98	339.27	34.26	-23.5	-24.3	18.7	9.46e-04	0	44	0	1809842176	6	3912
2026-01-15 05:43:45.98	338.32	34.66	-23.6	-23.9	18.7	1.14e-03	0	44	0	1831862272	7	3731
2026-01-15 05:43:48.98	337.34	35.04	-23.8	-24.3	18.4	0.00e+00	0	43	0	1852833792	7	3824
2026-01-15 05:43:51.99	336.34	35.43	-23.4	-23.5	18.9	0.00e+00	0	44	0	1874853888	7	3633
2026-01-15 05:43:55.00	335.31	35.80	-23.8	-24.3	18.5	0.00e+00	0	44	0	1896873984	7	3809
2026-01-15 05:43:58.01	334.26	36.18	-23.9	-24.6	18.3	7.85e-04	0	44	0	1917845504	7	3875
2026-01-15 05:44:01.02	333.19	36.54	-24.1	-24.4	18.2	3.78e-04	0	44	0	1939865600	8	3739
2026-01-15 05:44:04.03	332.09	36.90	-23.8	-24.2	18.5	8.24e-04	0	44	0	1961885696	7	3801
2026-01-15 05:44:07.03	330.97	37.24	-23.8	-24.3	18.5	0.00e+00	0	44	0	1983905792	7	3813
2026-01-15 05:44:10.04	329.82	37.58	-23.4	-23.6	18.8	0.00e+00	0	44	0	2004877312	7	3650
2026-01-15 05:44:13.05	328.65	37.91	-23.8	-24.2	18.5	1.77e-04	0	44	0	2026897408	7	3798
2026-01-15 05:44:16.06	327.45	38.23	-24.3	-24.9	17.9	8.52e-04	0	44	0	2047868928	8	3856
2026-01-15 05:44:19.07	326.23	38.54	-24.2	-24.7	18.0	0.00e+00	0	44	0	2069889024	8	3814
2026-01-15 05:44:22.08	324.99	38.83	-23.8	-24.2	18.5	0.00e+00	0	44	0	2091909120	7	3794
2026-01-15 05:44:25.08	323.73	39.11	-23.7	-24.2	18.5	0.00e+00	0	44	0	2113929216	7	3790
2026-01-15 05:44:28.08	322.45	39.38	-24.2	-24.6	18.1	0.00e+00	0	44	0	2134900736	8	3785
2026-01-15 05:44:31.08	321.15	39.63	-24.2	-24.7	18.0	1.49e-04	0	44	0	2156920832	8	3807
2026-01-15 05:44:34.08	319.83	39.87	-24.0	-24.2	18.3	0.00e+00	0	44	0	2178940928	8	3698
2026-01-15 05:44:37.08	318.49	40.09	-23.7	-24.0	18.6	0.00e+00	0	44	0	2199912448	7	3750
2026-01-15 05:44:40.09	317.12	40.29	-23.5	-23.7	18.7	0.00e+00	0	44	0	2221932544	7	3681
2026-01-15 05:44:43.10	315.74	40.48	-23.9	-24.4	18.4	0.00e+00	0	44	0	2243952640	7	3844
2026-01-15 05:44:46.10	314.35	40.64	-24.2	-24.8	18.0	3.77e-05	0	44	0	2264924160	8	3819
2026-01-15 05:44:49.11	312.94	40.79	-24.1	-24.4	18.1	1.52e-04	0	44	0	2286944256	8	3741
2026-01-15 05:44:52.11	311.52	40.92	-23.7	-24.1	18.6	1.94e-04	0	44	0	2308964352	7	3768
2026-01-15 05:44:55.11	310.10	41.03	-23.8	-24.3	18.4	2.23e-04	0	44	0	2329935872	7	3819
2026-01-15 05:44:58.12	308.66	41.13	-23.7	-24.1	18.5	2.51e-04	0	44	0	2351955968	7	3777
2026-01-15 05:45:01.13	307.21	41.20	-23.7	-24.1	18.5	1.52e-04	0	44	0	2373976064	7	3779
2026-01-15 05:45:04.15	305.75	41.25	-23.6	-23.8	18.7	4.57e-05	0	44	0	2395996160	7	3711
2026-01-15 05:45:07.17	304.28	41.27	-23.7	-24.0	18.5	0.00e+00	0	44	0	2418016256	7	3761
2026-01-15 05:45:10.17	302.83	41.28	-23.3	-23.4	18.9	0.00e+00	0	44	0	2438987776	7	3609
2026-01-15 05:45:13.18	301.37	41.27	-23.4	-24.1	18.8	0.00e+00	0	44	0	2461007872	6	3870
2026-01-15 05:45:16.20	299.91	41.23	-23.5	-23.7	18.7	0.00e+00	0	44	0	2483027968	7	3686
2026-01-15 05:45:19.21	298.45	41.18	-23.4	-23.5	18.8	0.00e+00	0	44	0	2503999488	7	3647
2026-01-15 05:45:22.22	297.01	41.10	-23.4	-23.9	18.9	0.00e+00	0	44	0	2526019584	6	3833
2026-01-15 05:45:25.22	295.57	41.00	-23.8	-24.3	18.5	0.00e+00	0	44	0	2548039680	7	3806
2026-01-15 05:45:28.22	294.14	40.89	-23.5	-23.7	18.7	0.00e+00	0	44	0	2570059776	7	3675
2026-01-15 05:45:31.23	292.72	40.75	-23.6	-23.9	18.6	0.00e+00	0	44	0	2591031296	7	3723
2026-01-15 05:45:34.25	291.31	40.60	-23.3	-23.7	13.6	0.00e+00	0	44	0	2613051392	6	3791
2026-01-15 05:45:37.26	289.92	40.42	-23.5	-24.1	18.7	0.00e+00	0	44	0	2634022912	6	3883
2026-01-15 05:45:40.26	288.55	40.23	-23.2	-23.5	19.0	0.00e+00	0	44	0	2656043008	6	3748
2026-01-15 05:45:43.26	287.19	40.02	-23.0	-23.2	19.2	2.71e-04	0	44	0	2678063104	6	3680
2026-01-15 05:45:46.27	285.85	39.80	-23.2	-23.5	19.1	0.00e+00	0	44	0	2700083200	6	3736
2026-01-15 05:45:49.27	284.53	39.55	-23.5	-24.3	18.7	2.40e-04	0	44	0	2721054720	6	3917
2026-01-15 05:45:52.28	283.23	39.30	-23.6	-24.0	18.6	4.51e-04	0	44	0	2743074816	7	3739
2026-01-15 05:45:55.30	281.94	39.02	-23.6	-24.0	18.6	0.00e+00	0	44	0	2765094912	7	3742
2026-01-15 05:45:58.30	280.69	38.74	-23.9	-24.5	18.2	8.83e-04	0	44	0	2786066432	7	3864
2026-01-15 05:46:01.32	279.44	38.44	-23.9	-24.6	18.1	3.78e-04	0	44	0	2808086528	7	3902
2026-01-15 05:46:04.33	278.23	38.13	-23.9	-24.0	18.3	9.83e-04	0	44	0	2830106624	8	3648
2026-01-15 05:46:07.34	277.04	37.80	-23.5	-23.7	18.7	0.00e+00	0	44	0	2852126720	7	3670
2026-01-15 05:46:10.36	275.87	37.47	-23.3	-23.3	18.8	0.00e+00	0	44	0	2873098240	7	3607
2026-01-15 05:46:13.37	274.73	37.13	-23.3	-23.9	18.7	0.00e+00	0	44	0	2895118336	6	3825
2026-01-15 05:46:16.38	273.61	36.77	-23.5	-24.2	18.6	1.20e-03	0	44	0	2917138432	6	3912
2026-01-15 05:46:19.39	272.51	36.41	-23.3	-23.8	18.8	0.00e+00	0	44	0	2939158528	6	3805
2026-01-15 05:46:22.40	271.44	36.04	-23.4	-24.0	18.7	0.00e+00	0	44	0	2960130048	6	3861
2026-01-15 05:46:25.42	270.39	35.67	-23.3	-23.8	18.8	0.00e+00	0	44	0	2982150144	6	3808
2026-01-15 05:46:28.44	269.37	35.29	-23.2	-23.6	18.9	0.00e+00	0	44	0	3004170240	6	3767
2026-01-15 05:46:31.44	268.37	34.90	-23.1	-23.4	19.0	0.00e+00	0	44	0	3026190336	6	3718
2026-01-15 05:46:34.44	267.40	34.51	-23.4	-24.0	18.6	0.00e+00	0	44	0	3047161856	6	3856
2026-01-15 05:46:37.45	266.45	34.11	-23.8	-24.3	18.3	0.00e+00	0	44	0	3069181952	7	3816
2026-01-15 05:46:40.46	265.52	33.71	-23.2	-23.6	18.8	0.00e+00	0	44	0	3091202048	6	3771
2026-01-15 05:46:43.48	264.61	33.31	-23.0	-23.2	19.1	0.00e+00	0	44	0	3113222144	6	3669
2026-01-15 05:46:46.49	263.73	32.90	-23.0	-23.1	19.1	0.00e+00	0	44	0	3134193664	6	3645
2026-01-15 05:46:49.49	262.87	32.50	-23.2	-23.6	18.8	0.00e+00	0	44	0	3156213760	6	3761
2026-01-15 05:46:52.49	262.04	32.09	-23.1	-23.8	19.0	0.00e+00	0	44	0	3178233856	5	3912
2026-01-15 05:46:55.50	261.22	31.68	-23.5	-24.2	18.5	0.00e+00	0	44	0	3199205376	6	3905
2026-01-15 05:46:58.51	260.42	31.27	-23.3	-23.7	18.7	0.00e+00	0	44	0	3221225472	6	3793
2026-01-15 05:47:01.52	259.64	30.86	-23.2	-23.5	18.8	0.00e+00	0	44	0	3243245568	6	3744
2026-01-15 05:47:04.53	258.88	30.45	-23.2	-23.7	18.8	0.00e+00	0	44	0	3264217088	6	3781
2026-01-15 05:47:07.54	258.14	30.04	-23.4	-24.1	18.5	1.10e-06	0	44	0	3286237184	6	3871
2026-01-15 05:47:10.56	257.42	29.62	-23.7	-24.1	18.3	0.00e+00	0	44	0	3308257280	7	3779
2026-01-15 05:47:13.57	256.72	29.21	-23.5	-23.7	18.5	0.00e+00	0	44	0	3330277376	7	3677
2026-01-15 05:47:16.58	256.03	28.81	-23.5	-23.8	18.4	0.00e+00	0	44	0	3351248896	7	3700
2026-01-15 05:47:19.58	255.37	28.40	-23.6	-23.9	18.3	0.00e+00	0	44	0	3373268992	7	3727
2026-01-15 05:47:22.58	254.72	28.00	-23.5	-23.8	18.4	0.00e+00	0	44	0	3395289088	7	3697
2026-01-15 05:47:25.59	254.09	27.59	-23.4	-24.1	18.5	0.00e+00	0	44	0	3416260608	6	3876
2026-01-15 05:47:28.60	253.47	27.19	-23.7	-24.1	18.2	0.00e+00	0	44	0	3438280704	7	3783
2026-01-15 05:47:31.60	252.87	26.79	-23.7	-24.1	18.2	3.66e-05	0	44	0	3460300800	7	3776
2026-01-15 05:47:34.61	252.28	26.40	-23.4	-24.1	18.4	1.05e-04	0	44	0	3481272320	6	3879
2026-01-15 05:47:37.62	251.71	26.00	-23.6	-23.9	18.3	2.51e-05	0	44	0	3503292416	7	3728
2026-01-15 05:47:40.64	251.15	25.61	-23.7	-24.2	18.1	1.10e-06	0	44	0	3525312512	7	3810
2026-01-15 05:47:43.66	250.60	25.22	-23.6	-24.0	18.2	0.00e+00	0	44	0	3547332608	7	3753
2026-01-15 05:47:46.68	250.07	24.83	-23.3	-23.3	18.6	0.00e+00	0	44	0	3569352704	7	3592
2026-01-15 05:47:49.68	249.55	24.45	-23.7	-24.2	18.1	0.00e+00	0	44	0	3590324224	7	3797
2026-01-15 05:47:52.70	249.04	24.07	-23.9	-24.6	17.9	0.00e+00	0	44	0	3612344320	7	3885
2026-01-15 05:47:55.70	248.55	23.70	-23.7	-24.2	18.1	0.00e+00	0	44	0	3634364416	7	3812
2026-01-15 05:47:58.71	248.07	23.32	-23.5	-24.2	18.3	0.00e+00	0	44	0	3655335936	6	3911
2026-01-15 05:48:01.72	247.60	22.95	-23.5	-24.2	18.3	0.00e+00	0	44	0	3677356032	6	3906
2026-01-15 05:48:04.73	247.14	22.58	-23.4	-24.0	18.4	0.00e+00	0	44	0	3699376128	6	3856
2026-01-15 05:48:07.74	246.69	22.22	-23.6	-23.9	18.1	0.00e+00	0	44	0	3721396224	7	3727
2026-01-15 05:48:10.75	246.25	21.86	-23.7	-24.2	16.4	0.00e+00	0	44	0	3742367744	7	3807
2026-01-15 05:48:13.76	245.82	21.50	-23.6	-23.9	18.1	0.00e+00	0	44	0	3764387840	7	3730
2026-01-15 05:48:16.77	245.41	21.15	-23.5	-23.8	18.2	0.00e+00	0	44	0	3786407936	7	3713
2026-01-15 05:48:19.78	245.00	20.80	-23.7	-24.2	18.0	0.00e+00	0	44	0	3808428032	7	3795
2026-01-15 05:48:22.80	244.60	20.45	-24.3	-24.8	17.4	0.00e+00	0	44	0	3829399552	8	3845
2026-01-15 05:48:25.81	244.21	20.11	-24.5	-25.4	17.1	8.34e-04	0	44	0	3851419648	8	3972
2026-01-15 05:48:28.81	243.83	19.77	-24.6	-25.0	17.1	7.04e-04	0	44	0	3873439744	9	3769
2026-01-15 05:48:31.82	243.45	19.43	-24.6	-25.0	17.0	3.68e-04	0	44	0	3894411264	9	3789
2026-01-15 05:48:34.83	243.09	19.09	-24.9	-25.6	16.7	3.65e-04	0	44	0	3916431360	9	3933
2026-01-15 05:48:37.84	242.73	18.76	-24.8	-25.6	16.6	0.00e+00	0	44	0	3938451456	9	3919
2026-01-15 05:48:40.85	242.38	18.44	-24.8	-25.4	16.7	2.12e-04	0	44	0	3959422976	9	3886
2026-01-15 05:48:43.87	242.04	18.11	-24.7	-25.3	16.8	2.86e-04	0	44	0	3981443072	9	3854
2026-01-15 05:48:46.88	241.71	17.79	-24.6	-25.1	16.9	0.00e+00	0	44	0	4003463168	9	3812
2026-01-15 05:48:49.88	241.38	17.47	-24.7	-25.3	16.8	0.00e+00	0	44	0	4025483264	9	3856
2026-01-15 05:48:52.88	241.06	17.16	-24.9	-25.7	16.5	0.00e+00	0	44	0	4046454784	9	3957
2026-01-15 05:48:55.89	240.75	16.85	-24.4	-25.2	11.8	0.00e+00	0	44	0	4068474880	9	3955
2026-01-15 05:48:58.90	240.44	16.54	-25.1	-25.7	16.2	0.00e+00	0	44	0	4090494976	10	3852
2026-01-15 05:49:01.91	240.14	16.23	-25.2	-26.0	16.1	2.28e-03	0	44	0	4111466496	10	3907
2026-01-15 05:49:04.92	239.85	15.93	-25.3	-26.0	16.1	0.00e+00	0	44	0	4133486592	10	3910
2026-01-15 05:49:07.92	239.56	15.63	-25.4	-26.3	15.9	0.00e+00	0	44	0	4155506688	10	3977
2026-01-15 05:49:10.94	239.28	15.33	-25.5	-26.4	15.8	0.00e+00	0	44	0	4177526784	10	4024
2026-01-15 05:49:13.93	239.00	15.04	-25.4	-26.3	15.8	0.00e+00	0	44	0	4198498304	10	4000
2026-01-15 05:49:16.95	238.73	14.75	-25.6	-26.7	15.7	3.32e-04	0	44	0	4220518400	10	4086
2026-01-15 05:49:19.94	238.47	14.46	-25.7	-26.4	15.5	9.37e-04	0	44	0	4242538496	11	3906
2026-01-15 05:49:22.96	238.20	14.18	-25.9	-26.8	15.3	1.51e-03	0	44	0	4263510016	11	4023
2026-01-15 05:49:25.97	237.95	13.89	-26.0	-27.2	15.0	0.00e+00	0	44	0	4285530112	11	4123
2026-01-15 05:49:28.98	237.70	13.61	-26.2	-27.1	14.7	1.88e-03	0	44	0	4307550208	12	3999
2026-01-15 05:49:31.99	237.45	13.34	-26.4	-27.5	14.5	2.10e-03	0	44	0	4329570304	12	4090
2026-01-15 05:49:35.01	237.21	13.06	-26.2	-27.0	14.7	1.10e-06	0	44	0	4351590400	12	3971
2026-01-15 05:49:38.01	236.98	12.79	-26.2	-27.1	14.7	0.00e+00	0	44	0	4372561920	12	3977
2026-01-15 05:49:41.01	236.74	12.52	-25.9	-26.5	15.0	0.00e+00	0	44	0	4394582016	12	3841
2026-01-15 05:49:44.01	236.52	12.25	-26.0	-27.2	15.0	0.00e+00	0	44	0	4415553536	11	4105
2026-01-15 05:49:47.02	236.29	11.99	-26.3	-27.2	14.5	0.00e+00	0	44	0	4437573632	12	4026
2026-01-15 05:49:50.03	236.07	11.73	-26.2	-27.0	14.6	0.00e+00	0	44	0	4459593728	12	3976
2026-01-15 05:49:53.03	235.86	11.47	-26.5	-27.7	14.2	1.10e-06	0	44	0	4480565248	12	4145
2026-01-15 05:49:56.03	235.65	11.21	-26.5	-27.3	14.2	3.40e-06	0	44	0	4502585344	13	3931
2026-01-15 05:49:59.03	235.44	10.96	-26.9	-28.2	13.6	5.70e-06	0	44	0	4524605440	13	4189
2026-01-15 05:50:02.04	235.24	10.70	-26.3	-27.3	14.4	1.10e-06	0	44	0	4545576960	12	4044
2026-01-15 05:50:05.05	235.04	10.45	-26.6	-27.5	14.0	5.70e-06	0	44	0	4567597056	13	4003
2026-01-15 05:50:08.06	234.84	10.20	-26.6	-27.6	14.0	2.20e-06	0	44	0	4589617152	13	4010
2026-01-15 05:50:11.07	234.65	9.96	-26.9	-28.1	13.6	1.37e-04	0	44	0	4611637248	13	4147
2026-01-15 05:50:14.08	234.46	9.71	-26.9	-28.2	13.5	1.15e-04	0	44	0	4632608768	13	4190
2026-01-15 05:50:17.10	234.27	9.47	-26.8	-27.9	13.7	1.18e-04	0	44	0	4654628864	13	4099
2026-01-15 05:50:20.10	234.09	9.23	-26.7	-27.8	13.7	1.12e-04	0	44	0	4676648960	13	4079
2026-01-15 05:50:23.12	233.91	8.99	-26.7	-27.8	13.7	1.44e-04	0	44	0	4698669056	13	4083
2026-01-15 05:50:26.13	233.73	8.75	-26.8	-28.0	13.6	1.86e-04	0	44	0	4719640576	13	4123
2026-01-15 05:50:29.14	233.55	8.52	-26.9	-28.2	13.4	1.93e-04	0	44	0	4741660672	13	4179
2026-01-15 05:50:32.15	233.38	8.29	-26.6	-27.6	13.8	1.90e-04	0	44	0	4763680768	13	4027
2026-01-15 05:50:35.16	233.21	8.06	-26.8	-28.0	13.5	2.07e-04	0	44	0	4784652288	13	4128
2026-01-15 05:50:38.18	233.05	7.83	-26.2	-27.4	12.8	8.00e-06	0	44	0	4806672384	13	4161
2026-01-15 05:50:41.18	232.88	7.60	-26.7	-27.8	13.5	1.94e-05	0	44	0	4828692480	13	4073
2026-01-15 05:50:44.19	232.72	7.38	-26.9	-28.2	13.3	1.14e-05	0	44	0	4850712576	13	4199
2026-01-15 05:50:47.19	232.57	7.15	-26.6	-27.6	13.6	1.61e-03	0	44	0	4871684096	13	4042

#Closed at: 2026-01-15 05:50:49
#Recorded file [4880 MB]: D:/data/31010_260115_083932.dat