passes_logs/2026/01/15/R2M6_AANII_01/R2M6_AANII_01__20260115_085848_NOAA_21_JPSS-2_rec.log

#Pass ID: 20260115_085848_NOAA 21 (JPSS-2)
#Satellite: NOAA 21 (JPSS-2)
#Configuration: NOAA 21
#almurnet v.1.7.20240730
#Start time: 2026-01-15 08:58:48

#Version: 2.2.20231116
#Station: R2M6_AANII_01
#Location: 30.233357 lon 59.946436 lat
#TLE: 1 54234U 22150A   26014.16688770  .00000052  00000+0  45394-4 0  9999
#TLE: 2 54234  98.7497 315.0767 0000655 297.6997  62.4113 14.19534648164696

#Time	Az	El	Level	Level2	SNR	BER	BlckErr	Temp	State	Recorded	gain1	gain2
2026-01-15 08:58:48.12	118.90	6.96	-32.1	-38.6	4.2	1.45e+00	0	40	0	0	25	7626
2026-01-15 08:58:51.13	118.71	7.17	-31.3	-35.8	7.7	8.24e-02	0	41	0	3145728	23	5990
2026-01-15 08:58:54.14	118.51	7.39	-31.2	-35.4	7.9	7.11e-02	0	41	0	12582912	23	5841
2026-01-15 08:58:57.15	118.30	7.60	-30.3	-33.0	10.1	8.27e-03	0	41	0	22020096	22	4868
2026-01-15 08:59:00.16	118.10	7.82	-29.5	-31.6	11.7	7.48e-04	0	41	0	30408704	20	4613
2026-01-15 08:59:03.17	117.89	8.04	-29.2	-31.2	12.4	1.27e-04	0	41	0	40894464	19	4566
2026-01-15 08:59:06.18	117.68	8.26	-29.2	-31.2	12.4	1.27e-04	0	41	0	49283072	19	4569
2026-01-15 08:59:09.19	117.46	8.49	-29.2	-31.3	12.4	1.57e-04	0	41	0	58720256	19	4596
2026-01-15 08:59:12.20	117.24	8.71	-28.8	-30.8	13.0	3.35e-05	0	41	0	68157440	18	4531
2026-01-15 08:59:15.20	117.02	8.94	-28.7	-30.7	13.1	2.44e-05	0	41	0	77594624	18	4493
2026-01-15 08:59:18.21	116.79	9.16	-28.7	-30.5	13.3	1.29e-05	0	41	0	87031808	18	4424
2026-01-15 08:59:21.21	116.56	9.39	-28.7	-30.5	13.3	1.60e-05	0	42	0	96468992	18	4435
2026-01-15 08:59:24.22	116.33	9.62	-28.6	-30.3	13.5	9.10e-06	0	42	0	105906176	18	4376
2026-01-15 08:59:27.22	116.09	9.86	-28.6	-30.2	13.5	4.50e-06	0	42	0	115343360	18	4334
2026-01-15 08:59:30.24	115.85	10.09	-28.5	-30.1	13.6	9.10e-06	0	42	0	124780544	18	4300
2026-01-15 08:59:33.24	115.60	10.33	-28.5	-30.0	13.7	4.50e-06	0	42	0	134217728	18	4269
2026-01-15 08:59:36.25	115.35	10.56	-28.5	-29.9	13.8	6.10e-06	0	42	0	143654912	18	4258
2026-01-15 08:59:39.25	115.10	10.80	-28.5	-29.9	13.8	3.80e-06	0	42	0	153092096	18	4253
2026-01-15 08:59:42.27	114.84	11.05	-28.3	-29.9	14.1	7.00e-07	0	42	0	162529280	17	4361
2026-01-15 08:59:45.28	114.58	11.29	-28.4	-30.2	13.9	6.80e-06	0	42	0	171966464	17	4445
2026-01-15 08:59:48.28	114.31	11.53	-28.3	-29.9	14.1	0.00e+00	0	42	0	181403648	17	4365
2026-01-15 08:59:51.29	114.04	11.78	-28.3	-30.0	14.1	0.00e+00	0	42	0	190840832	17	4365
2026-01-15 08:59:54.30	113.76	12.03	-28.0	-29.3	14.5	7.00e-07	0	42	0	200278016	17	4175
2026-01-15 08:59:57.31	113.48	12.28	-28.0	-29.4	14.5	7.00e-07	0	42	0	209715200	17	4211
2026-01-15 09:00:00.32	113.19	12.53	-28.0	-29.2	14.6	7.60e-06	0	42	0	219152384	17	4153
2026-01-15 09:00:03.32	112.90	12.79	-28.0	-29.2	14.6	5.30e-06	0	42	0	228589568	17	4150
2026-01-15 09:00:06.32	112.61	13.04	-28.0	-29.2	14.7	5.30e-06	0	42	0	238026752	17	4137
2026-01-15 09:00:09.33	112.30	13.30	-27.9	-28.9	14.8	5.30e-06	0	43	0	247463936	17	4077
2026-01-15 09:00:12.35	112.00	13.56	-27.8	-28.9	14.9	0.00e+00	0	42	0	256901120	17	4056
2026-01-15 09:00:15.36	111.68	13.82	-27.8	-29.4	14.9	3.00e-06	0	42	0	266338304	16	4297
2026-01-15 09:00:18.38	111.36	14.09	-27.9	-29.6	14.8	0.00e+00	0	43	0	275775488	16	4349
2026-01-15 09:00:21.40	111.04	14.36	-27.8	-29.3	15.0	0.00e+00	0	42	0	285212672	16	4272
2026-01-15 09:00:24.40	110.71	14.62	-27.7	-29.1	15.1	0.00e+00	0	43	0	294649856	16	4227
2026-01-15 09:00:27.41	110.37	14.89	-27.7	-29.1	15.1	0.00e+00	0	43	0	303038464	16	4204
2026-01-15 09:00:30.42	110.03	15.17	-27.7	-29.1	15.1	0.00e+00	0	43	0	312475648	16	4222
2026-01-15 09:00:33.43	109.68	15.44	-27.9	-29.5	14.9	0.00e+00	0	43	0	322961408	16	4332
2026-01-15 09:00:36.44	109.32	15.72	-27.9	-29.5	14.9	0.00e+00	0	43	0	331350016	16	4339
2026-01-15 09:00:39.45	108.96	15.99	-28.1	-30.0	14.6	0.00e+00	0	43	0	340787200	16	4459
2026-01-15 09:00:42.45	108.59	16.27	-28.2	-30.1	14.6	0.00e+00	0	43	0	350224384	16	4511
2026-01-15 09:00:45.45	108.21	16.55	-28.3	-30.3	14.5	0.00e+00	0	43	0	359661568	16	4557
2026-01-15 09:00:48.47	107.82	16.84	-28.0	-29.8	14.8	0.00e+00	0	43	0	369098752	16	4401
2026-01-15 09:00:51.48	107.43	17.13	-28.0	-29.7	14.9	0.00e+00	0	43	0	378535936	16	4386
2026-01-15 09:00:54.49	107.03	17.41	-28.2	-30.1	14.6	0.00e+00	0	43	0	387973120	16	4495
2026-01-15 09:00:57.50	106.62	17.70	-28.1	-29.9	14.8	0.00e+00	0	43	0	397410304	16	4437
2026-01-15 09:01:00.51	106.21	17.99	-28.1	-30.0	14.7	7.00e-07	0	43	0	406847488	16	4457
2026-01-15 09:01:03.52	105.78	18.29	-27.9	-29.5	15.0	0.00e+00	0	43	0	416284672	16	4319
2026-01-15 09:01:06.53	105.35	18.58	-27.8	-29.3	15.1	0.00e+00	0	43	0	425721856	16	4267
2026-01-15 09:01:09.53	104.91	18.88	-27.8	-29.2	15.2	0.00e+00	0	43	0	435159040	16	4236
2026-01-15 09:01:12.54	104.46	19.18	-27.8	-29.1	15.2	0.00e+00	0	43	0	444596224	16	4208
2026-01-15 09:01:15.55	104.00	19.48	-27.6	-28.9	15.4	0.00e+00	0	43	0	454033408	16	4149
2026-01-15 09:01:18.55	103.54	19.78	-27.6	-28.7	15.5	0.00e+00	0	43	0	463470592	16	4095
2026-01-15 09:01:21.58	103.06	20.09	-27.1	-28.1	16.0	0.00e+00	0	43	0	472907776	15	4043
2026-01-15 09:01:24.58	102.57	20.39	-27.0	-28.0	16.0	0.00e+00	0	43	0	482344960	15	4038
2026-01-15 09:01:27.58	102.07	20.70	-27.0	-27.9	16.1	0.00e+00	0	43	0	491782144	15	3991
2026-01-15 09:01:30.58	101.57	21.01	-27.0	-27.9	16.1	0.00e+00	0	43	0	501219328	15	3994
2026-01-15 09:01:33.59	101.05	21.32	-27.0	-28.0	16.1	0.00e+00	0	43	0	510656512	15	4015
2026-01-15 09:01:36.60	100.52	21.63	-26.9	-27.7	16.3	0.00e+00	0	43	0	520093696	15	3960
2026-01-15 09:01:39.60	99.99	21.94	-27.0	-27.9	16.1	0.00e+00	0	43	0	529530880	15	4007
2026-01-15 09:01:42.61	99.43	22.25	-26.9	-27.8	16.3	0.00e+00	0	43	0	538968064	15	3967
2026-01-15 09:01:45.63	98.87	22.57	-26.9	-27.6	16.4	0.00e+00	0	43	0	548405248	15	3922
2026-01-15 09:01:48.64	98.30	22.88	-26.8	-28.0	16.4	0.00e+00	0	43	0	557842432	14	4122
2026-01-15 09:01:51.65	97.71	23.20	-27.0	-28.4	16.2	0.00e+00	0	43	0	567279616	14	4236
2026-01-15 09:01:54.66	97.12	23.51	-27.0	-28.4	16.2	0.00e+00	0	43	0	576716800	14	4241
2026-01-15 09:01:57.66	96.51	23.83	-27.0	-28.4	16.3	0.00e+00	0	43	0	585105408	14	4221
2026-01-15 09:02:00.67	95.89	24.15	-27.0	-28.4	16.3	0.00e+00	0	43	0	594542592	14	4233
2026-01-15 09:02:03.68	95.25	24.46	-27.2	-28.8	16.0	0.00e+00	0	43	0	603979776	14	4348
2026-01-15 09:02:06.70	94.60	24.78	-27.1	-28.6	16.1	0.00e+00	0	43	0	613416960	14	4288
2026-01-15 09:02:09.71	93.94	25.10	-27.0	-28.5	16.2	0.00e+00	0	43	0	622854144	14	4261
2026-01-15 09:02:12.73	93.26	25.42	-27.3	-29.1	15.9	0.00e+00	0	43	0	632291328	14	4420
2026-01-15 09:02:15.73	92.58	25.73	-27.5	-29.5	15.7	0.00e+00	0	43	0	641728512	14	4540
2026-01-15 09:02:18.74	91.88	26.04	-27.7	-29.5	15.4	0.00e+00	0	43	0	651165696	15	4426
2026-01-15 09:02:21.74	91.16	26.36	-27.7	-29.5	15.4	0.00e+00	0	43	0	660602880	15	4415
2026-01-15 09:02:24.75	90.43	26.67	-27.8	-29.7	15.4	7.00e-07	0	43	0	670040064	15	4479
2026-01-15 09:02:27.76	89.69	26.98	-27.5	-29.0	15.7	0.00e+00	0	43	0	679477248	15	4295
2026-01-15 09:02:30.77	88.93	27.29	-27.5	-29.0	15.8	0.00e+00	0	43	0	688914432	15	4273
2026-01-15 09:02:33.77	88.16	27.59	-27.3	-28.6	16.0	0.00e+00	0	43	0	698351616	15	4168
2026-01-15 09:02:36.77	87.37	27.89	-27.6	-29.2	15.7	0.00e+00	0	43	0	707788800	15	4340
2026-01-15 09:02:39.78	86.57	28.20	-27.8	-29.7	15.4	0.00e+00	0	43	0	717225984	15	4465
2026-01-15 09:02:42.80	85.74	28.49	-27.7	-29.6	15.4	0.00e+00	0	43	0	726663168	15	4444
2026-01-15 09:02:45.80	84.91	28.79	-27.6	-29.2	15.7	0.00e+00	0	43	0	736100352	15	4323
2026-01-15 09:02:48.80	84.06	29.08	-27.4	-28.7	15.9	0.00e+00	0	43	0	745537536	15	4210
2026-01-15 09:02:51.82	83.19	29.36	-27.3	-28.4	16.1	0.00e+00	0	43	0	754974720	15	4122
2026-01-15 09:02:54.83	82.31	29.64	-27.5	-29.1	15.8	0.00e+00	0	43	0	764411904	15	4301
2026-01-15 09:02:57.84	81.42	29.92	-27.5	-29.0	15.8	0.00e+00	0	43	0	773849088	15	4273
2026-01-15 09:03:00.84	80.51	30.19	-27.6	-29.2	15.7	0.00e+00	0	43	0	783286272	15	4327
2026-01-15 09:03:03.84	79.58	30.45	-27.5	-29.1	15.7	0.00e+00	0	43	0	792723456	15	4304
2026-01-15 09:03:06.85	78.64	30.71	-27.6	-29.2	15.7	0.00e+00	0	43	0	802160640	15	4336
2026-01-15 09:03:09.85	77.69	30.96	-27.9	-29.9	15.3	0.00e+00	0	43	0	811597824	15	4537
2026-01-15 09:03:12.86	76.72	31.21	-27.9	-30.0	15.3	0.00e+00	0	43	0	821035008	15	4548
2026-01-15 09:03:15.87	75.73	31.45	-28.1	-29.9	15.2	0.00e+00	0	43	0	830472192	16	4418
2026-01-15 09:03:18.89	74.72	31.68	-27.9	-29.4	15.5	0.00e+00	0	43	0	839909376	16	4280
2026-01-15 09:03:21.90	73.71	31.90	-27.9	-29.3	15.5	4.50e-06	0	43	0	849346560	16	4247
2026-01-15 09:03:24.91	72.68	32.11	-28.2	-30.0	15.2	0.00e+00	0	43	0	857735168	16	4437
2026-01-15 09:03:27.91	71.64	32.31	-28.2	-29.9	15.2	9.90e-06	0	43	0	867172352	16	4414
2026-01-15 09:03:30.93	70.58	32.51	-28.6	-30.4	14.7	6.80e-06	0	43	0	877658112	17	4453
2026-01-15 09:03:33.95	69.51	32.69	-28.5	-30.3	14.7	2.20e-06	0	43	0	886046720	17	4407
2026-01-15 09:03:36.96	68.43	32.86	-28.3	-29.7	15.1	3.80e-06	0	43	0	895483904	17	4238
2026-01-15 09:03:39.96	67.35	33.03	-28.3	-29.7	15.0	0.00e+00	0	43	0	904921088	17	4256
2026-01-15 09:03:42.97	66.25	33.18	-28.5	-30.1	14.9	0.00e+00	0	43	0	914358272	17	4359
2026-01-15 09:03:45.98	65.13	33.32	-28.6	-30.6	14.6	7.00e-07	0	43	0	923795456	17	4499
2026-01-15 09:03:49.00	64.01	33.45	-28.5	-30.3	14.7	7.00e-07	0	43	0	933232640	17	4414
2026-01-15 09:03:52.02	62.88	33.56	-28.5	-30.3	14.7	7.00e-07	0	43	0	942669824	17	4422
2026-01-15 09:03:55.04	61.74	33.67	-28.5	-30.3	14.8	0.00e+00	0	43	0	952107008	17	4398
2026-01-15 09:03:58.06	60.59	33.76	-28.7	-30.7	14.5	0.00e+00	0	43	0	961544192	17	4532
2026-01-15 09:04:01.04	59.45	33.84	-28.5	-30.2	14.8	0.00e+00	0	43	0	970981376	17	4372
2026-01-15 09:04:04.04	58.30	33.90	-28.4	-29.9	15.0	0.00e+00	0	43	0	980418560	17	4291
2026-01-15 09:04:07.05	57.15	33.96	-28.5	-30.2	14.9	0.00e+00	0	43	0	989855744	17	4368
2026-01-15 09:04:10.07	55.98	34.00	-28.7	-30.6	14.6	0.00e+00	0	43	0	999292928	17	4512
2026-01-15 09:04:13.07	54.82	34.02	-28.5	-30.3	14.8	0.00e+00	0	43	0	1008730112	17	4408
2026-01-15 09:04:16.08	53.66	34.04	-28.6	-30.4	14.7	7.00e-07	0	43	0	1018167296	17	4442
2026-01-15 09:04:19.09	52.49	34.03	-29.0	-31.0	14.1	7.00e-07	0	43	0	1027604480	18	4494
2026-01-15 09:04:22.10	51.33	34.02	-28.7	-30.1	14.6	0.00e+00	0	43	0	1037041664	18	4240
2026-01-15 09:04:25.11	50.16	33.99	-28.7	-30.2	14.6	7.00e-07	0	43	0	1046478848	18	4266
2026-01-15 09:04:28.12	49.00	33.95	-28.8	-30.4	14.4	0.00e+00	0	43	0	1055916032	18	4337
2026-01-15 09:04:31.12	47.85	33.90	-28.5	-29.6	14.9	0.00e+00	0	43	0	1065353216	18	4107
2026-01-15 09:04:34.14	46.70	33.83	-28.1	-29.3	15.3	0.00e+00	0	43	0	1074790400	17	4115
2026-01-15 09:04:37.15	45.55	33.75	-28.5	-30.3	14.8	0.00e+00	0	43	0	1084227584	17	4414
2026-01-15 09:04:40.17	44.40	33.66	-28.7	-30.6	14.6	0.00e+00	0	43	0	1093664768	17	4496
2026-01-15 09:04:43.17	43.27	33.55	-28.4	-30.0	14.9	0.00e+00	0	43	0	1103101952	17	4332
2026-01-15 09:04:46.19	42.14	33.43	-28.7	-30.7	14.6	0.00e+00	0	43	0	1112539136	17	4516
2026-01-15 09:04:49.20	41.03	33.30	-28.6	-30.5	14.6	0.00e+00	0	43	0	1121976320	17	4475
2026-01-15 09:04:52.20	39.92	33.16	-28.3	-29.8	15.0	0.00e+00	0	43	0	1131413504	17	4283
2026-01-15 09:04:55.22	38.82	33.01	-28.5	-30.2	14.8	7.00e-07	0	43	0	1140850688	17	4379
2026-01-15 09:04:58.22	37.74	32.85	-28.4	-30.1	14.9	0.00e+00	0	43	0	1150287872	17	4343
2026-01-15 09:05:01.23	36.66	32.67	-27.9	-28.9	15.6	0.00e+00	0	43	0	1159725056	17	4022
2026-01-15 09:05:04.25	35.59	32.49	-28.1	-29.2	15.3	0.00e+00	0	43	0	1169162240	17	4116
2026-01-15 09:05:07.26	34.54	32.29	-28.1	-29.2	15.3	0.00e+00	0	43	0	1178599424	17	4112
2026-01-15 09:05:10.26	33.51	32.09	-27.9	-28.8	15.5	0.00e+00	0	43	0	1188036608	17	4008
2026-01-15 09:05:13.28	32.48	31.87	-28.2	-29.5	15.1	0.00e+00	0	43	0	1197473792	17	4189
2026-01-15 09:05:16.29	31.47	31.65	-28.2	-29.6	15.1	0.00e+00	0	43	0	1205862400	17	4203
2026-01-15 09:05:19.30	30.47	31.42	-28.2	-29.6	15.1	0.00e+00	0	43	0	1216348160	17	4199
2026-01-15 09:05:22.30	29.49	31.19	-29.3	-31.6	13.7	4.50e-06	0	43	0	1225785344	18	4693
2026-01-15 09:05:25.32	28.52	30.94	-28.5	-29.7	14.7	0.00e+00	0	43	0	1234173952	18	4152
2026-01-15 09:05:28.33	27.57	30.69	-28.2	-29.6	15.1	0.00e+00	0	43	0	1243611136	17	4213
2026-01-15 09:05:31.34	26.63	30.43	-28.1	-29.3	15.2	0.00e+00	0	43	0	1253048320	17	4146
2026-01-15 09:05:34.35	25.71	30.16	-27.6	-28.7	15.9	0.00e+00	0	43	0	1262485504	16	4075
2026-01-15 09:05:37.35	24.81	29.89	-28.5	-30.3	14.6	0.00e+00	0	43	0	1271922688	17	4433
2026-01-15 09:05:40.37	23.91	29.62	-28.9	-30.8	14.1	2.20e-06	0	43	0	1281359872	18	4450
2026-01-15 09:05:43.37	23.04	29.34	-28.0	-29.2	15.3	0.00e+00	0	43	0	1290797056	17	4105
2026-01-15 09:05:46.39	22.17	29.05	-28.6	-30.4	14.6	7.00e-07	0	43	0	1300234240	17	4433
2026-01-15 09:05:49.39	21.33	28.76	-28.2	-29.5	15.1	0.00e+00	0	43	0	1309671424	17	4190
2026-01-15 09:05:52.40	20.50	28.47	-28.1	-29.2	15.2	0.00e+00	0	43	0	1319108608	17	4122
2026-01-15 09:05:55.41	19.69	28.17	-27.9	-28.9	15.4	0.00e+00	0	43	0	1328545792	17	4027
2026-01-15 09:05:58.43	18.88	27.87	-27.7	-28.9	15.6	0.00e+00	0	43	0	1337982976	16	4153
2026-01-15 09:06:01.43	18.10	27.57	-27.4	-28.2	16.0	0.00e+00	0	43	0	1347420160	16	3965
2026-01-15 09:06:04.44	17.33	27.27	-27.6	-28.8	15.7	0.00e+00	0	43	0	1356857344	16	4107
2026-01-15 09:06:07.45	16.58	26.96	-27.5	-28.6	15.8	0.00e+00	0	43	0	1366294528	16	4047
2026-01-15 09:06:10.46	15.84	26.65	-26.9	-27.7	16.4	0.00e+00	0	43	0	1375731712	15	3932
2026-01-15 09:06:13.47	15.11	26.34	-27.2	-28.3	16.0	0.00e+00	0	43	0	1385168896	15	4093
2026-01-15 09:06:16.48	14.40	26.03	-27.4	-28.8	15.7	0.00e+00	0	43	0	1394606080	15	4242
2026-01-15 09:06:19.49	13.71	25.71	-27.5	-29.0	15.6	0.00e+00	0	43	0	1404043264	15	4280
2026-01-15 09:06:22.50	13.02	25.40	-27.2	-28.2	16.1	0.00e+00	0	43	0	1413480448	15	4078
2026-01-15 09:06:25.51	12.35	25.08	-27.1	-28.1	16.1	0.00e+00	0	43	0	1422917632	15	4040
2026-01-15 09:06:28.53	11.69	24.77	-26.9	-27.8	16.3	0.00e+00	0	43	0	1432354816	15	3966
2026-01-15 09:06:31.55	11.05	24.45	-26.9	-27.7	16.3	0.00e+00	0	43	0	1441792000	15	3949
2026-01-15 09:06:34.55	10.42	24.14	-27.1	-28.0	16.1	0.00e+00	0	43	0	1451229184	15	4027
2026-01-15 09:06:37.56	9.80	23.82	-26.9	-27.7	16.2	0.00e+00	0	43	0	1460666368	15	3942
2026-01-15 09:06:40.57	9.20	23.51	-27.1	-28.2	16.0	0.00e+00	0	43	0	1470103552	15	4075
2026-01-15 09:06:43.59	8.60	23.19	-27.3	-28.6	15.8	0.00e+00	0	43	0	1479540736	15	4186
2026-01-15 09:06:46.60	8.02	22.88	-27.9	-29.9	15.0	0.00e+00	0	43	0	1488977920	15	4549
2026-01-15 09:06:49.61	7.46	22.56	-27.6	-29.2	15.4	0.00e+00	0	43	0	1498415104	15	4357
2026-01-15 09:06:52.61	6.90	22.25	-27.5	-29.1	15.5	0.00e+00	0	43	0	1507852288	15	4318
2026-01-15 09:06:55.63	6.35	21.94	-27.7	-29.4	15.3	7.00e-07	0	43	0	1517289472	15	4411
2026-01-15 09:06:58.63	5.82	21.63	-27.8	-29.8	15.0	7.00e-07	0	43	0	1526726656	15	4512
2026-01-15 09:07:01.63	5.30	21.32	-28.0	-29.7	15.0	0.00e+00	0	43	0	1535115264	16	4360
2026-01-15 09:07:04.64	4.78	21.01	-27.4	-28.3	15.8	0.00e+00	0	43	0	1544552448	16	3982
2026-01-15 09:07:07.66	4.28	20.70	-27.8	-29.1	15.3	0.00e+00	0	43	0	1553989632	16	4219
2026-01-15 09:07:10.67	3.79	20.40	-27.8	-29.3	15.1	0.00e+00	0	43	0	1563426816	16	4269
2026-01-15 09:07:13.67	3.30	20.09	-27.7	-29.0	15.4	7.00e-07	0	43	0	1572864000	16	4173
2026-01-15 09:07:16.68	2.83	19.79	-27.4	-28.4	15.7	0.00e+00	0	43	0	1582301184	16	4018
2026-01-15 09:07:19.69	2.37	19.49	-27.3	-28.2	15.8	0.00e+00	0	43	0	1591738368	16	3965
2026-01-15 09:07:22.70	1.91	19.19	-27.3	-28.1	15.8	0.00e+00	0	43	0	1601175552	16	3940
2026-01-15 09:07:25.72	1.46	18.89	-27.4	-28.3	15.7	0.00e+00	0	43	0	1610612736	16	4006
2026-01-15 09:07:28.73	1.03	18.60	-27.5	-28.6	15.5	0.00e+00	0	43	0	1620049920	16	4086
2026-01-15 09:07:31.73	0.60	18.30	-27.6	-28.8	15.4	7.00e-07	0	43	0	1629487104	16	4126
2026-01-15 09:07:34.75	0.18	18.01	-27.5	-28.5	15.6	0.00e+00	0	43	0	1638924288	16	4042
2026-01-15 09:07:37.75	359.77	17.72	-27.6	-28.8	15.4	0.00e+00	0	43	0	1648361472	16	4139
2026-01-15 09:07:40.76	359.36	17.43	-27.8	-29.3	15.1	0.00e+00	0	43	0	1657798656	16	4267
2026-01-15 09:07:43.77	358.97	17.15	-28.1	-30.0	14.6	0.00e+00	0	43	0	1667235840	16	4481
2026-01-15 09:07:46.79	358.58	16.86	-28.1	-29.9	14.7	0.00e+00	0	43	0	1676673024	16	4438
2026-01-15 09:07:49.79	358.20	16.58	-28.1	-29.9	14.7	0.00e+00	0	43	0	1686110208	16	4441
2026-01-15 09:07:52.80	357.82	16.30	-27.8	-29.2	15.1	0.00e+00	0	43	0	1695547392	16	4245
2026-01-15 09:07:55.80	357.46	16.02	-28.0	-29.6	14.8	0.00e+00	0	43	0	1704984576	16	4365
2026-01-15 09:07:58.82	357.10	15.74	-28.1	-30.0	14.6	0.00e+00	0	43	0	1714421760	16	4479
2026-01-15 09:08:01.83	356.74	15.47	-28.2	-30.2	14.5	0.00e+00	0	43	0	1723858944	16	4530
2026-01-15 09:08:04.85	356.40	15.20	-28.3	-30.5	14.3	7.00e-07	0	43	0	1733296128	16	4612
2026-01-15 09:08:07.86	356.06	14.93	-28.2	-30.2	14.4	0.00e+00	0	43	0	1742733312	16	4537
2026-01-15 09:08:10.87	355.72	14.66	-28.1	-30.0	14.6	0.00e+00	0	43	0	1752170496	16	4465
2026-01-15 09:08:13.88	355.40	14.39	-28.0	-29.8	14.7	7.00e-07	0	43	0	1761607680	16	4415
2026-01-15 09:08:16.90	355.07	14.12	-28.1	-29.9	14.5	0.00e+00	0	43	0	1771044864	16	4453
2026-01-15 09:08:19.92	354.76	13.86	-28.2	-30.1	14.4	0.00e+00	0	43	0	1780482048	16	4513
2026-01-15 09:08:22.94	354.45	13.60	-28.2	-30.1	14.4	1.50e-06	0	43	0	1789919232	16	4517
2026-01-15 09:08:25.95	354.14	13.34	-28.5	-30.5	13.9	3.00e-06	0	43	0	1799356416	17	4526
2026-01-15 09:08:28.95	353.84	13.08	-28.3	-30.1	14.1	1.50e-06	0	43	0	1808793600	17	4403
2026-01-15 09:08:31.97	353.55	12.83	-28.2	-29.7	14.3	2.20e-06	0	43	0	1818230784	17	4280
2026-01-15 09:08:34.98	353.26	12.57	-28.2	-29.8	14.2	2.20e-06	0	43	0	1827667968	17	4308
2026-01-15 09:08:37.99	352.98	12.32	-28.0	-29.2	14.6	0.00e+00	0	43	0	1837105152	17	4148
2026-01-15 09:08:40.99	352.70	12.07	-28.0	-29.2	14.6	0.00e+00	0	43	0	1846542336	17	4144
2026-01-15 09:08:43.99	352.43	11.83	-28.1	-29.6	14.3	7.00e-07	0	43	0	1854930944	17	4259
2026-01-15 09:08:47.01	352.16	11.58	-28.3	-29.9	14.1	4.50e-06	0	43	0	1865416704	17	4364
2026-01-15 09:08:50.03	351.89	11.34	-28.5	-30.5	13.7	2.20e-06	0	43	0	1873805312	17	4527
2026-01-15 09:08:53.02	351.63	11.09	-28.5	-30.4	13.8	4.50e-06	0	43	0	1883242496	17	4515
2026-01-15 09:08:56.03	351.38	10.85	-28.6	-30.8	13.5	6.80e-06	0	43	0	1892679680	17	4627
2026-01-15 09:08:59.04	351.13	10.62	-28.7	-31.0	13.4	1.37e-05	0	43	0	1902116864	17	4695
2026-01-15 09:09:02.05	350.88	10.38	-28.6	-30.7	13.5	9.10e-06	0	43	0	1911554048	17	4594
2026-01-15 09:09:05.06	350.64	10.14	-28.7	-31.0	13.3	1.44e-05	0	43	0	1920991232	17	4696
2026-01-15 09:09:08.07	350.40	9.91	-28.6	-30.7	13.5	9.90e-06	0	43	0	1930428416	17	4604
2026-01-15 09:09:11.08	350.17	9.68	-28.7	-30.9	13.3	1.37e-05	0	43	0	1939865600	17	4670
2026-01-15 09:09:14.09	349.94	9.45	-28.7	-30.9	13.3	8.30e-06	0	43	0	1949302784	17	4676
2026-01-15 09:09:17.10	349.71	9.22	-29.0	-31.3	12.8	6.10e-05	0	43	0	1958739968	18	4691
2026-01-15 09:09:20.11	349.49	8.99	-28.8	-30.7	13.1	2.67e-05	0	43	0	1968177152	18	4501
2026-01-15 09:09:23.11	349.27	8.77	-28.7	-30.6	13.2	3.12e-05	0	43	0	1977614336	18	4473
2026-01-15 09:09:26.11	349.05	8.55	-28.9	-31.1	12.9	4.42e-05	0	43	0	1987051520	18	4611
2026-01-15 09:09:29.13	348.84	8.32	-28.9	-31.0	12.9	4.11e-05	0	43	0	1996488704	18	4592
2026-01-15 09:09:32.13	348.63	8.10	-29.0	-31.4	12.6	9.23e-05	0	43	0	2005925888	18	4712
2026-01-15 09:09:35.13	348.42	7.88	-29.3	-32.1	12.1	2.51e-04	0	43	0	2015363072	18	4963
2026-01-15 09:09:38.15	348.22	7.67	-29.3	-32.2	12.1	3.22e-04	0	43	0	2024800256	18	5005
2026-01-15 09:09:41.17	348.02	7.45	-29.1	-31.5	12.5	1.01e-04	0	43	0	2034237440	18	4773
2026-01-15 09:09:44.17	347.82	7.24	-29.3	-32.1	12.1	2.62e-04	0	43	0	2043674624	18	4980
2026-01-15 09:09:47.18	347.63	7.02	-33.4	-44.9	3.8	1.49e+00	0	43	104	2051014656	26	13648

#Closed at: 2026-01-15 09:09:49
#Recorded file [2051 MB]: D:/data/31010_260115_115850.dat