passes_logs/2026/01/15/R2M6_AANII_01/R2M6_AANII_01__20260115_004528_NOAA_21_JPSS-2_rec.log

#Pass ID: 20260115_004528_NOAA 21 (JPSS-2)
#Satellite: NOAA 21 (JPSS-2)
#Configuration: NOAA 21
#almurnet v.1.7.20240730
#Start time: 2026-01-15 00:45:28

#Version: 2.2.20231116
#Station: R2M6_AANII_01
#Location: 30.233357 lon 59.946436 lat
#TLE: 1 54234U 22150A   26014.16688770  .00000052  00000+0  45394-4 0  9999
#TLE: 2 54234  98.7497 315.0767 0000655 297.6997  62.4113 14.19534648164696

#Time	Az	El	Level	Level2	SNR	BER	BlckErr	Temp	State	Recorded	gain1	gain2
2026-01-15 00:45:28.23	16.08	6.94	-31.3	-36.7	4.6	1.41e+00	0	43	0	0	22	6675
2026-01-15 00:45:31.23	16.02	7.17	-31.7	-36.9	7.2	1.19e-01	0	42	0	2097152	23	6506
2026-01-15 00:45:34.24	15.97	7.41	-31.4	-35.6	8.2	5.92e-02	0	42	0	12582912	23	5832
2026-01-15 00:45:37.24	15.91	7.64	-30.9	-34.9	9.5	1.28e-02	0	42	0	22020096	21	5717
2026-01-15 00:45:40.25	15.85	7.87	-30.7	-34.2	10.0	7.79e-03	0	43	0	30408704	21	5412
2026-01-15 00:45:43.27	15.79	8.11	-30.8	-34.7	9.7	1.03e-02	0	42	0	39845888	21	5634
2026-01-15 00:45:46.29	15.73	8.36	-31.1	-35.0	9.2	1.77e-02	0	43	0	49283072	22	5608
2026-01-15 00:45:49.29	15.66	8.60	-30.7	-34.2	10.1	7.15e-03	0	43	0	58720256	21	5384
2026-01-15 00:45:52.30	15.60	8.84	-30.9	-34.8	9.7	1.25e-02	0	43	0	68157440	21	5645
2026-01-15 00:45:55.30	15.53	9.09	-30.8	-34.3	10.1	6.76e-03	0	43	0	77594624	21	5433
2026-01-15 00:45:58.30	15.47	9.34	-29.8	-32.2	11.8	5.64e-04	0	43	0	87031808	20	4744
2026-01-15 00:46:01.31	15.40	9.59	-29.6	-32.2	12.3	1.59e-04	0	43	0	96468992	19	4839
2026-01-15 00:46:04.32	15.33	9.85	-29.5	-31.9	12.4	1.30e-04	0	43	0	105906176	19	4747
2026-01-15 00:46:07.33	15.26	10.10	-29.6	-32.0	12.4	1.80e-04	0	43	0	115343360	19	4784
2026-01-15 00:46:10.33	15.19	10.36	-29.4	-32.1	12.7	9.91e-05	0	43	0	124780544	18	4921
2026-01-15 00:46:13.35	15.11	10.63	-28.0	-30.3	12.4	1.06e-05	0	43	0	134217728	17	4696
2026-01-15 00:46:16.34	15.04	10.89	-28.6	-30.6	13.7	5.30e-06	0	43	0	143654912	17	4535
2026-01-15 00:46:19.34	14.96	11.16	-28.7	-31.0	13.7	3.90e-03	0	43	0	153092096	17	4651
2026-01-15 00:46:22.35	14.88	11.43	-28.6	-30.6	13.9	3.00e-06	0	43	0	162529280	17	4556
2026-01-15 00:46:25.35	14.80	11.70	-28.5	-30.4	14.1	0.00e+00	0	43	0	171966464	17	4484
2026-01-15 00:46:28.36	14.72	11.98	-28.5	-30.8	14.2	1.50e-06	0	43	0	181403648	16	4716
2026-01-15 00:46:31.37	14.63	12.26	-28.7	-30.7	13.9	3.00e-06	0	43	0	190840832	17	4577
2026-01-15 00:46:34.39	14.55	12.55	-28.5	-30.5	14.1	4.25e-03	0	43	0	200278016	17	4491
2026-01-15 00:46:37.39	14.46	12.83	-28.6	-30.5	14.1	1.50e-06	0	43	0	209715200	17	4513
2026-01-15 00:46:40.40	14.37	13.12	-28.6	-30.5	14.1	4.27e-03	0	43	0	219152384	17	4511
2026-01-15 00:46:43.42	14.28	13.42	-28.2	-30.5	14.3	4.06e-03	0	43	0	228589568	16	4679
2026-01-15 00:46:46.43	14.18	13.72	-28.5	-30.3	14.2	3.92e-03	0	43	0	238026752	17	4442
2026-01-15 00:46:49.43	14.08	14.02	-28.5	-30.4	14.2	4.41e-03	0	43	0	247463936	17	4469
2026-01-15 00:46:52.45	13.99	14.32	-28.5	-30.4	14.3	4.23e-03	0	43	0	256901120	17	4458
2026-01-15 00:46:55.45	13.88	14.63	-28.2	-30.0	14.8	3.88e-03	0	43	0	266338304	16	4472
2026-01-15 00:46:58.46	13.78	14.94	-28.1	-30.0	14.8	6.64e-04	0	43	0	275775488	16	4451
2026-01-15 00:47:01.48	13.68	15.26	-27.9	-29.9	15.0	4.28e-03	0	43	0	284164096	15	4553
2026-01-15 00:47:04.48	13.57	15.58	-27.9	-29.9	15.0	6.88e-04	0	43	0	293601280	15	4538
2026-01-15 00:47:07.49	13.46	15.90	-27.8	-29.7	15.1	7.23e-04	0	43	0	303038464	15	4488
2026-01-15 00:47:10.50	13.34	16.23	-27.9	-29.9	15.0	7.30e-04	0	43	0	312475648	15	4546
2026-01-15 00:47:13.50	13.23	16.56	-27.8	-29.8	15.1	8.29e-04	0	43	0	321912832	15	4516
2026-01-15 00:47:16.50	13.11	16.90	-27.8	-29.8	15.1	0.00e+00	0	43	0	331350016	15	4503
2026-01-15 00:47:19.50	12.99	17.24	-27.9	-29.9	15.0	6.44e-04	0	43	0	340787200	15	4561
2026-01-15 00:47:22.51	12.86	17.59	-28.1	-30.0	14.9	6.10e-04	0	43	0	350224384	16	4439
2026-01-15 00:47:25.51	12.73	17.94	-27.9	-30.1	15.0	6.00e-04	0	43	0	359661568	15	4598
2026-01-15 00:47:28.52	12.60	18.30	-28.3	-30.3	14.7	6.02e-04	0	43	0	369098752	16	4548
2026-01-15 00:47:31.53	12.46	18.66	-28.1	-29.9	15.0	0.00e+00	0	43	0	378535936	16	4430
2026-01-15 00:47:34.54	12.32	19.02	-27.9	-29.9	15.1	6.98e-04	0	43	0	387973120	15	4551
2026-01-15 00:47:37.55	12.18	19.40	-27.9	-30.0	15.0	0.00e+00	0	43	0	397410304	15	4568
2026-01-15 00:47:40.56	12.04	19.77	-27.8	-29.7	15.3	4.32e-04	0	43	0	406847488	15	4471
2026-01-15 00:47:43.56	11.89	20.16	-28.1	-29.8	15.1	0.00e+00	0	43	0	416284672	16	4400
2026-01-15 00:47:46.58	11.73	20.55	-27.5	-29.1	15.7	0.00e+00	0	44	0	425721856	15	4300
2026-01-15 00:47:49.59	11.57	20.94	-27.3	-29.1	15.9	0.00e+00	0	43	0	435159040	14	4433
2026-01-15 00:47:52.60	11.41	21.34	-27.2	-29.0	16.0	0.00e+00	0	44	0	444596224	14	4384
2026-01-15 00:47:55.61	11.24	21.75	-27.1	-28.7	16.2	0.00e+00	0	43	0	454033408	14	4310
2026-01-15 00:47:58.62	11.07	22.16	-26.8	-28.5	16.5	0.00e+00	0	43	0	463470592	13	4368
2026-01-15 00:48:01.64	10.89	22.58	-26.7	-28.3	16.6	0.00e+00	0	43	0	472907776	13	4315
2026-01-15 00:48:04.64	10.71	23.01	-26.6	-27.9	16.8	0.00e+00	0	43	0	482344960	13	4215
2026-01-15 00:48:07.64	10.52	23.44	-26.5	-27.8	16.9	7.00e-07	0	43	0	491782144	13	4187
2026-01-15 00:48:10.65	10.32	23.88	-26.6	-27.9	16.9	0.00e+00	0	44	0	501219328	13	4201
2026-01-15 00:48:13.66	10.12	24.33	-26.6	-28.0	16.8	0.00e+00	0	44	0	510656512	13	4226
2026-01-15 00:48:16.68	9.92	24.79	-26.6	-28.0	16.8	0.00e+00	0	44	0	520093696	13	4231
2026-01-15 00:48:19.69	9.70	25.25	-26.8	-28.5	16.6	0.00e+00	0	43	0	529530880	13	4362
2026-01-15 00:48:22.70	9.49	25.72	-26.9	-28.7	16.5	0.00e+00	0	43	0	538968064	13	4416
2026-01-15 00:48:25.71	9.26	26.20	-27.2	-28.9	16.2	0.00e+00	0	44	0	548405248	14	4356
2026-01-15 00:48:28.72	9.03	26.68	-27.4	-29.2	16.0	0.00e+00	0	44	0	556793856	14	4443
2026-01-15 00:48:31.74	8.78	27.18	-27.8	-29.6	15.5	0.00e+00	0	43	0	567279616	15	4429
2026-01-15 00:48:34.74	8.53	27.68	-27.6	-29.3	15.6	0.00e+00	0	43	0	576716800	15	4403
2026-01-15 00:48:37.75	8.28	28.19	-27.9	-29.8	15.3	1.61e-04	0	44	0	585105408	15	4507
2026-01-15 00:48:40.75	8.01	28.71	-27.9	-30.0	15.3	0.00e+00	0	44	0	594542592	15	4552
2026-01-15 00:48:43.76	7.74	29.24	-27.9	-29.9	15.4	0.00e+00	0	44	0	603979776	15	4532
2026-01-15 00:48:46.77	7.45	29.78	-27.7	-29.4	15.7	0.00e+00	0	44	0	613416960	15	4375
2026-01-15 00:48:49.78	7.15	30.33	-27.5	-29.0	15.9	0.00e+00	0	44	0	622854144	15	4268
2026-01-15 00:48:52.79	6.85	30.89	-27.7	-29.3	15.7	1.70e-04	0	44	0	632291328	15	4358
2026-01-15 00:48:55.80	6.53	31.46	-27.6	-29.1	15.9	0.00e+00	0	44	0	641728512	15	4298
2026-01-15 00:48:58.81	6.20	32.04	-27.7	-29.4	15.8	1.90e-04	0	44	0	651165696	15	4370
2026-01-15 00:49:01.82	5.86	32.63	-27.7	-29.5	15.7	4.39e-04	0	44	0	660602880	15	4405
2026-01-15 00:49:04.83	5.50	33.23	-27.8	-29.6	15.6	3.68e-04	0	44	0	670040064	15	4432
2026-01-15 00:49:07.83	5.14	33.84	-28.2	-30.1	15.3	3.07e-04	0	44	0	679477248	16	4445
2026-01-15 00:49:10.84	4.75	34.46	-28.4	-30.4	15.1	2.10e-04	0	44	0	688914432	16	4554
2026-01-15 00:49:13.85	4.35	35.09	-28.6	-30.3	14.9	1.68e-04	0	44	0	698351616	17	4409
2026-01-15 00:49:16.86	3.94	35.74	-29.1	-31.1	14.1	7.00e-07	0	44	0	707788800	18	4545
2026-01-15 00:49:19.87	3.51	36.39	-29.7	-32.0	13.3	1.14e-05	0	44	0	717225984	19	4684
2026-01-15 00:49:22.88	3.06	37.06	-29.8	-32.2	13.2	1.75e-05	0	44	0	726663168	19	4755
2026-01-15 00:49:25.90	2.58	37.74	-29.6	-31.9	13.4	1.52e-05	0	44	0	736100352	19	4663
2026-01-15 00:49:28.91	2.09	38.43	-29.4	-31.4	13.7	3.80e-06	0	44	0	745537536	19	4511
2026-01-15 00:49:31.91	1.58	39.13	-29.1	-30.5	14.3	1.50e-06	0	44	0	754974720	19	4232
2026-01-15 00:49:34.92	1.04	39.84	-28.8	-30.3	14.6	7.00e-07	0	44	0	764411904	18	4301
2026-01-15 00:49:37.93	0.48	40.57	-29.3	-31.5	13.9	2.20e-06	0	44	0	773849088	18	4653
2026-01-15 00:49:40.95	359.89	41.31	-29.1	-31.1	14.2	2.20e-06	0	44	0	783286272	18	4522
2026-01-15 00:49:43.96	359.28	42.06	-28.9	-31.1	14.5	9.90e-06	0	44	0	792723456	17	4638
2026-01-15 00:49:46.97	358.63	42.82	-28.7	-30.9	13.5	2.55e-03	0	44	0	802160640	19	4602
2026-01-15 00:49:49.98	357.95	43.59	-29.8	-32.3	13.1	2.59e-05	0	44	0	811597824	19	4799
2026-01-15 00:49:52.99	357.24	44.37	-30.1	-32.5	12.7	3.92e-03	0	44	0	821035008	20	4749
2026-01-15 00:49:55.99	356.50	45.16	-29.9	-32.1	13.0	6.10e-05	0	44	0	830472192	20	4608
2026-01-15 00:49:59.01	355.71	45.97	-29.7	-31.9	13.4	2.28e-05	0	44	0	839909376	19	4671
2026-01-15 00:50:02.02	354.88	46.78	-29.5	-31.6	13.6	3.18e-03	0	44	0	849346560	19	4550
2026-01-15 00:50:05.02	354.00	47.60	-29.3	-31.6	13.9	4.50e-06	0	44	0	857735168	18	4670
2026-01-15 00:50:08.03	353.08	48.43	-29.2	-31.4	14.0	3.45e-03	0	44	0	867172352	18	4593
2026-01-15 00:50:11.04	352.11	49.27	-29.3	-31.6	13.9	3.53e-03	0	44	0	877658112	18	4660
2026-01-15 00:50:14.04	351.08	50.11	-29.9	-32.5	13.1	3.51e-03	0	44	0	886046720	19	4857
2026-01-15 00:50:17.05	349.99	50.96	-29.9	-32.4	13.2	4.04e-03	0	44	0	895483904	19	4809
2026-01-15 00:50:20.04	348.84	51.80	-29.6	-31.7	13.5	3.31e-03	0	44	0	904921088	19	4592
2026-01-15 00:50:23.05	347.62	52.66	-28.8	-30.5	14.6	1.08e-03	0	44	0	914358272	18	4331
2026-01-15 00:50:26.05	346.33	53.51	-29.2	-31.3	14.1	7.00e-07	0	44	0	923795456	18	4594
2026-01-15 00:50:29.06	344.95	54.37	-28.5	-30.3	15.0	3.54e-03	0	44	0	933232640	17	4392
2026-01-15 00:50:32.07	343.49	55.22	-28.4	-29.8	15.2	0.00e+00	0	44	0	942669824	17	4268
2026-01-15 00:50:35.08	341.94	56.06	-28.6	-30.4	14.9	0.00e+00	0	44	0	952107008	17	4435
2026-01-15 00:50:38.09	340.29	56.90	-28.2	-29.9	15.5	0.00e+00	0	44	0	961544192	16	4397
2026-01-15 00:50:41.10	338.54	57.72	-28.3	-29.8	15.2	0.00e+00	0	44	0	970981376	17	4247
2026-01-15 00:50:44.12	336.67	58.53	-27.3	-28.5	16.2	0.00e+00	0	44	0	980418560	15	4128
2026-01-15 00:50:47.13	334.69	59.32	-27.3	-28.5	16.2	0.00e+00	0	44	0	989855744	15	4135
2026-01-15 00:50:50.13	332.60	60.08	-26.8	-28.5	16.8	0.00e+00	0	44	0	999292928	13	4344
2026-01-15 00:50:53.14	330.37	60.82	-26.8	-28.5	16.8	0.00e+00	0	44	0	1008730112	13	4348
2026-01-15 00:50:56.15	328.01	61.53	-26.7	-28.3	16.9	0.00e+00	0	44	0	1018167296	13	4293
2026-01-15 00:50:59.16	325.51	62.19	-27.0	-28.3	16.6	0.00e+00	0	44	0	1027604480	14	4204
2026-01-15 00:51:02.18	322.87	62.82	-27.0	-28.4	16.6	0.00e+00	0	44	0	1037041664	14	4202
2026-01-15 00:51:05.20	320.10	63.40	-26.6	-27.4	17.1	0.00e+00	0	44	0	1046478848	14	3955
2026-01-15 00:51:08.21	317.19	63.92	-26.6	-27.9	17.0	0.00e+00	0	44	0	1055916032	13	4201
2026-01-15 00:51:11.22	314.17	64.38	-26.7	-28.2	17.0	0.00e+00	0	44	0	1065353216	13	4265
2026-01-15 00:51:14.23	311.02	64.78	-26.2	-27.0	17.6	0.00e+00	0	44	0	1074790400	13	3965
2026-01-15 00:51:17.24	307.78	65.11	-26.5	-27.7	17.1	0.00e+00	0	44	0	1084227584	13	4153
2026-01-15 00:51:20.25	304.44	65.37	-26.7	-28.2	16.9	0.00e+00	0	44	0	1093664768	13	4285
2026-01-15 00:51:23.27	301.03	65.55	-26.3	-27.8	17.3	0.00e+00	0	44	0	1103101952	12	4286
2026-01-15 00:51:26.28	297.59	65.65	-26.9	-28.1	16.7	0.00e+00	0	44	0	1112539136	14	4128
2026-01-15 00:51:29.28	294.14	65.67	-26.8	-28.3	16.8	0.00e+00	0	44	0	1121976320	13	4311
2026-01-15 00:51:32.29	290.68	65.61	-26.6	-28.0	17.0	0.00e+00	0	44	0	1131413504	13	4225
2026-01-15 00:51:35.31	287.24	65.47	-26.5	-27.7	17.1	7.00e-07	0	44	0	1140850688	13	4145
2026-01-15 00:51:38.33	283.86	65.25	-26.4	-27.5	17.2	0.00e+00	0	44	0	1150287872	13	4099
2026-01-15 00:51:41.34	280.56	64.95	-27.9	-29.9	15.4	3.61e-03	0	44	0	1159725056	15	4544
2026-01-15 00:51:44.35	277.36	64.59	-26.6	-28.1	16.9	0.00e+00	0	44	0	1169162240	13	4241
2026-01-15 00:51:47.36	274.27	64.16	-27.2	-28.9	16.2	3.91e-03	0	44	0	1178599424	14	4341
2026-01-15 00:51:50.37	271.31	63.66	-27.2	-28.8	16.3	3.35e-03	0	44	0	1186988032	14	4315
2026-01-15 00:51:53.38	268.47	63.11	-27.2	-28.8	16.2	3.85e-03	0	44	0	1196425216	14	4315
2026-01-15 00:51:56.39	265.76	62.51	-26.5	-27.8	17.0	3.60e-03	0	44	0	1205862400	13	4174
2026-01-15 00:51:59.40	263.20	61.86	-26.5	-27.8	16.9	3.29e-03	0	44	0	1215299584	13	4170
2026-01-15 00:52:02.40	260.77	61.18	-26.7	-28.3	16.7	3.84e-03	0	44	0	1224736768	13	4311
2026-01-15 00:52:05.42	258.47	60.45	-27.1	-28.5	16.5	0.00e+00	0	44	0	1234173952	14	4235
2026-01-15 00:52:08.43	256.30	59.70	-27.6	-29.1	15.8	3.11e-03	0	44	0	1243611136	15	4308
2026-01-15 00:52:11.44	254.26	58.92	-26.9	-28.7	16.5	0.00e+00	0	44	0	1253048320	13	4412
2026-01-15 00:52:14.46	252.33	58.12	-28.7	-30.6	14.4	1.50e-06	0	44	0	1262485504	17	4515
2026-01-15 00:52:17.47	250.52	57.30	-28.0	-29.5	15.3	1.23e-04	0	44	0	1271922688	16	4301
2026-01-15 00:52:20.48	248.81	56.47	-27.1	-28.7	16.2	0.00e+00	0	44	0	1281359872	14	4295
2026-01-15 00:52:23.49	247.21	55.62	-27.3	-28.5	15.9	5.30e-06	0	44	0	1290797056	15	4148
2026-01-15 00:52:26.49	245.71	54.78	-26.6	-28.1	16.7	0.00e+00	0	44	0	1300234240	13	4244
2026-01-15 00:52:29.50	244.29	53.92	-28.4	-30.6	14.7	0.00e+00	0	44	0	1309671424	16	4626
2026-01-15 00:52:32.52	242.94	53.06	-28.6	-30.6	14.0	7.00e-07	0	44	0	1319108608	17	4504
2026-01-15 00:52:35.51	241.69	52.21	-28.8	-30.8	14.2	2.20e-06	0	44	0	1328545792	17	4575
2026-01-15 00:52:38.52	240.50	51.35	-29.5	-32.1	13.3	2.13e-05	0	44	0	1337982976	18	4865
2026-01-15 00:52:41.54	239.37	50.49	-30.6	-33.6	11.2	1.31e-03	0	44	0	1347420160	21	5080
2026-01-15 00:52:44.55	238.31	49.64	-29.0	-30.5	13.9	6.10e-06	0	44	0	1356857344	19	4258
2026-01-15 00:52:47.56	237.31	48.80	-30.3	-33.2	11.8	1.27e-04	0	44	0	1366294528	20	5033
2026-01-15 00:52:50.57	236.36	47.96	-31.1	-34.3	10.6	3.94e-03	0	44	0	1375731712	22	5240
2026-01-15 00:52:53.57	235.46	47.13	-31.0	-34.3	10.5	3.97e-03	0	44	0	1385168896	22	5214
2026-01-15 00:52:56.57	234.61	46.32	-29.7	-31.7	12.7	1.26e-04	0	44	0	1394606080	20	4533
2026-01-15 00:52:59.58	233.80	45.50	-30.1	-32.7	11.9	4.59e-04	0	44	0	1404043264	20	4849
2026-01-15 00:53:02.60	233.03	44.70	-30.0	-32.5	12.2	2.10e-04	0	44	0	1413480448	20	4804
2026-01-15 00:53:05.61	232.30	43.91	-29.1	-31.2	13.7	7.60e-06	0	44	0	1422917632	18	4572
2026-01-15 00:53:08.62	231.60	43.13	-29.2	-31.5	13.5	1.60e-05	0	44	0	1432354816	18	4687
2026-01-15 00:53:11.62	230.94	42.36	-29.1	-31.2	13.7	6.80e-06	0	44	0	1441792000	18	4579
2026-01-15 00:53:14.63	230.31	41.61	-30.2	-33.0	11.8	4.36e-04	0	44	0	1451229184	20	4989
2026-01-15 00:53:17.64	229.71	40.86	-29.2	-30.9	13.5	1.75e-05	0	44	0	1460666368	19	4391
2026-01-15 00:53:20.64	229.13	40.13	-28.8	-30.5	14.1	7.00e-07	0	44	0	1470103552	18	4370
2026-01-15 00:53:23.64	228.58	39.41	-28.7	-30.7	14.3	7.00e-07	0	44	0	1479540736	17	4534
2026-01-15 00:53:26.66	228.06	38.70	-29.1	-31.3	13.7	6.10e-06	0	44	0	1487929344	18	4614
2026-01-15 00:53:29.66	227.55	38.00	-29.3	-31.8	13.3	2.13e-05	0	44	0	1497366528	18	4778
2026-01-15 00:53:32.68	227.07	37.31	-29.3	-31.7	13.4	1.37e-05	0	44	0	1506803712	18	4749
2026-01-15 00:53:35.68	226.61	36.64	-28.9	-30.7	13.9	2.20e-06	0	44	0	1516240896	18	4442
2026-01-15 00:53:38.69	226.17	35.98	-28.6	-30.6	14.2	0.00e+00	0	44	0	1525678080	17	4526
2026-01-15 00:53:41.70	225.74	35.32	-28.7	-30.8	14.2	1.50e-06	0	44	0	1535115264	17	4569
2026-01-15 00:53:44.71	225.33	34.68	-28.6	-30.5	14.3	1.50e-06	0	44	0	1544552448	17	4503
2026-01-15 00:53:47.72	224.94	34.05	-29.2	-31.4	13.5	8.30e-06	0	44	0	1553989632	18	4679
2026-01-15 00:53:50.73	224.56	33.44	-28.4	-30.1	14.5	1.50e-06	0	44	0	1563426816	17	4377
2026-01-15 00:53:53.74	224.20	32.83	-27.7	-29.1	15.4	0.00e+00	0	44	0	1572864000	16	4186
2026-01-15 00:53:56.76	223.85	32.23	-27.2	-29.0	15.8	0.00e+00	0	44	0	1582301184	14	4395
2026-01-15 00:53:59.77	223.51	31.64	-27.8	-29.7	15.1	0.00e+00	0	44	0	1591738368	15	4481
2026-01-15 00:54:02.79	223.18	31.06	-27.8	-29.7	15.1	0.00e+00	0	44	0	1601175552	15	4489
2026-01-15 00:54:05.80	222.87	30.50	-27.7	-29.6	15.2	0.00e+00	0	44	0	1610612736	15	4466
2026-01-15 00:54:08.82	222.57	29.94	-27.6	-29.2	15.4	0.00e+00	0	44	0	1620049920	15	4350
2026-01-15 00:54:11.83	222.28	29.40	-27.5	-29.1	15.4	0.00e+00	0	44	0	1629487104	15	4325
2026-01-15 00:54:14.84	221.99	28.86	-27.4	-29.4	15.5	0.00e+00	0	43	0	1638924288	14	4525
2026-01-15 00:54:17.86	221.72	28.33	-27.3	-29.2	15.6	0.00e+00	0	44	0	1648361472	14	4457
2026-01-15 00:54:20.87	221.46	27.81	-27.2	-28.9	15.8	0.00e+00	0	44	0	1657798656	14	4368
2026-01-15 00:54:23.87	221.20	27.30	-26.8	-28.0	16.3	0.00e+00	0	44	0	1667235840	14	4143
2026-01-15 00:54:26.89	220.96	26.80	-27.1	-28.8	15.8	0.00e+00	0	44	0	1676673024	14	4363
2026-01-15 00:54:29.90	220.72	26.31	-27.2	-28.9	15.7	0.00e+00	0	44	0	1686110208	14	4383
2026-01-15 00:54:32.91	220.48	25.83	-27.1	-28.8	15.8	0.00e+00	0	44	0	1695547392	14	4356
2026-01-15 00:54:35.91	220.26	25.35	-27.0	-28.4	16.0	0.00e+00	0	44	0	1704984576	14	4263
2026-01-15 00:54:38.91	220.04	24.88	-26.8	-28.6	16.2	0.00e+00	0	44	0	1714421760	13	4412
2026-01-15 00:54:41.93	219.83	24.42	-26.7	-28.2	16.3	0.00e+00	0	44	0	1723858944	13	4309
2026-01-15 00:54:44.94	219.63	23.97	-27.1	-28.6	15.8	0.00e+00	0	44	0	1733296128	14	4314
2026-01-15 00:54:47.95	219.43	23.52	-27.2	-29.0	15.6	2.20e-06	0	44	0	1742733312	14	4412
2026-01-15 00:54:50.95	219.24	23.09	-27.1	-28.7	15.8	5.30e-06	0	44	0	1752170496	14	4339
2026-01-15 00:54:53.96	219.05	22.66	-27.1	-28.7	15.7	4.50e-06	0	44	0	1761607680	14	4332
2026-01-15 00:54:56.96	218.87	22.23	-27.2	-29.0	13.9	6.80e-06	0	44	0	1771044864	14	4416
2026-01-15 00:54:59.98	218.69	21.81	-27.3	-29.1	15.5	5.30e-06	0	44	0	1779433472	14	4451
2026-01-15 00:55:02.98	218.52	21.40	-27.3	-29.2	15.4	7.00e-07	0	44	0	1788870656	14	4490
2026-01-15 00:55:05.99	218.35	21.00	-27.1	-28.7	15.7	2.17e-03	0	44	0	1799356416	14	4340
2026-01-15 00:55:09.00	218.19	20.60	-27.0	-28.6	15.8	3.13e-04	0	44	0	1807745024	14	4301
2026-01-15 00:55:12.01	218.03	20.21	-27.0	-28.5	15.8	0.00e+00	0	44	0	1817182208	14	4294
2026-01-15 00:55:15.02	217.88	19.82	-27.1	-28.8	15.6	1.59e-04	0	44	0	1826619392	14	4375
2026-01-15 00:55:18.03	217.72	19.44	-27.2	-29.0	15.5	0.00e+00	0	44	0	1836056576	14	4438
2026-01-15 00:55:21.03	217.58	19.06	-27.4	-29.5	15.2	2.92e-04	0	44	0	1845493760	14	4568
2026-01-15 00:55:24.04	217.44	18.69	-27.5	-29.2	15.0	4.81e-04	0	44	0	1854930944	15	4388
2026-01-15 00:55:27.05	217.30	18.33	-27.5	-29.1	15.1	5.30e-04	0	44	0	1864368128	15	4354
2026-01-15 00:55:30.06	217.16	17.97	-27.4	-29.0	15.1	7.35e-04	0	44	0	1873805312	15	4324
2026-01-15 00:55:33.07	217.03	17.61	-27.6	-29.4	14.9	0.00e+00	0	44	0	1883242496	15	4424
2026-01-15 00:55:36.07	216.90	17.26	-27.6	-29.4	14.9	8.73e-04	0	44	0	1892679680	15	4431
2026-01-15 00:55:39.09	216.77	16.92	-27.7	-29.6	14.7	0.00e+00	0	44	0	1902116864	15	4507
2026-01-15 00:55:42.10	216.65	16.58	-27.8	-29.8	14.6	6.60e-04	0	44	0	1911554048	15	4549
2026-01-15 00:55:45.11	216.53	16.24	-27.9	-30.1	14.4	5.36e-04	0	44	0	1920991232	15	4639
2026-01-15 00:55:48.12	216.41	15.91	-27.9	-30.2	14.4	7.00e-07	0	44	0	1930428416	15	4668
2026-01-15 00:55:51.12	216.30	15.58	-28.0	-30.3	14.3	4.20e-04	0	44	0	1939865600	15	4718
2026-01-15 00:55:54.11	216.19	15.26	-28.4	-30.9	13.8	6.10e-06	0	44	0	1949302784	16	4765
2026-01-15 00:55:57.12	216.08	14.94	-28.5	-30.6	13.6	7.74e-04	0	44	0	1958739968	17	4571
2026-01-15 00:56:00.12	215.97	14.63	-28.4	-30.8	13.8	1.08e-04	0	44	0	1968177152	16	4739
2026-01-15 00:56:03.13	215.87	14.32	-28.1	-30.0	14.2	2.20e-06	0	44	0	1977614336	16	4501
2026-01-15 00:56:06.14	215.77	14.01	-28.0	-30.3	14.2	2.20e-06	0	44	0	1987051520	15	4722
2026-01-15 00:56:09.14	215.67	13.71	-27.9	-30.2	14.2	1.50e-06	0	44	0	1996488704	15	4681
2026-01-15 00:56:12.14	215.57	13.41	-28.2	-30.3	14.0	2.20e-06	0	44	0	2005925888	16	4608
2026-01-15 00:56:15.15	215.47	13.11	-27.9	-30.2	14.2	1.50e-06	0	44	0	2015363072	15	4682
2026-01-15 00:56:18.15	215.38	12.82	-27.9	-30.1	14.2	7.00e-07	0	44	0	2024800256	15	4655
2026-01-15 00:56:21.16	215.29	12.53	-27.9	-30.2	14.2	0.00e+00	0	44	0	2033188864	15	4675
2026-01-15 00:56:24.17	215.20	12.24	-28.4	-30.8	13.6	8.30e-06	0	44	0	2042626048	16	4751
2026-01-15 00:56:27.18	215.11	11.96	-27.9	-30.2	14.1	2.20e-06	0	44	0	2052063232	15	4683
2026-01-15 00:56:30.19	215.02	11.68	-28.0	-30.0	14.1	3.00e-06	0	44	0	2061500416	16	4493
2026-01-15 00:56:33.19	214.94	11.41	-28.1	-30.1	14.0	1.50e-06	0	44	0	2070937600	16	4546
2026-01-15 00:56:36.20	214.86	11.13	-28.1	-30.2	13.9	3.80e-06	0	44	0	2080374784	16	4577
2026-01-15 00:56:39.22	214.78	10.86	-28.2	-30.3	13.8	4.50e-06	0	44	0	2089811968	16	4601
2026-01-15 00:56:42.23	214.70	10.59	-28.2	-30.4	13.7	3.00e-06	0	44	0	2099249152	16	4649
2026-01-15 00:56:45.24	214.62	10.33	-28.2	-30.5	13.7	9.10e-06	0	43	0	2108686336	16	4663
2026-01-15 00:56:48.25	214.54	10.07	-27.5	-29.9	13.4	8.30e-06	0	44	0	2118123520	16	4783
2026-01-15 00:56:51.27	214.47	9.81	-28.3	-30.6	13.3	7.60e-06	0	44	0	2127560704	16	4707
2026-01-15 00:56:54.28	214.40	9.55	-28.5	-31.0	13.3	1.55e-03	0	44	0	2136997888	16	4847
2026-01-15 00:56:57.28	214.33	9.29	-28.5	-31.1	13.2	2.44e-05	0	44	0	2146435072	16	4855
2026-01-15 00:57:00.29	214.26	9.04	-28.6	-31.0	13.0	2.15e-03	0	44	0	2155872256	17	4717
2026-01-15 00:57:03.29	214.19	8.79	-28.8	-31.5	12.6	2.55e-03	0	44	0	2165309440	17	4881
2026-01-15 00:57:06.31	214.12	8.55	-28.8	-31.4	12.7	7.47e-05	0	44	0	2174746624	17	4859
2026-01-15 00:57:09.31	214.05	8.30	-28.7	-31.3	12.7	2.44e-03	0	44	0	2184183808	17	4834
2026-01-15 00:57:12.32	213.99	8.06	-28.8	-31.5	12.5	1.03e-04	0	44	0	2193620992	17	4895
2026-01-15 00:57:15.32	213.92	7.82	-28.8	-31.4	12.5	2.37e-03	0	44	0	2203058176	17	4889
2026-01-15 00:57:18.31	213.86	7.59	-28.9	-31.8	12.3	2.19e-03	0	44	0	2212495360	17	4994
2026-01-15 00:57:21.32	213.80	7.35	-29.2	-32.1	11.8	1.68e-03	0	44	0	2221932544	18	5003
2026-01-15 00:57:24.33	213.74	7.12	-30.6	-34.7	9.3	1.16e-03	0	44	0	2231369728	21	5750

#Closed at: 2026-01-15 00:57:27
#Recorded file [2231 MB]: D:/data/31010_260115_034530.dat