passes_logs/2026/01/15/R2M6_AANII_01/R2M6_AANII_01__20260115_092800_SUOMI_NPP_rec.log

#Pass ID: 20260115_092800_SUOMI NPP
#Satellite: SUOMI NPP
#Configuration: NPP
#almurnet v.1.7.20240730
#Start time: 2026-01-15 09:27:59

#Version: 2.2.20231116
#Station: R2M6_AANII_01
#Location: 30.233357 lon 59.946436 lat
#TLE: 1 37849U 11061A   26014.11719687  .00000048  00000+0  43625-4 0  9998
#TLE: 2 37849  98.7809 316.1734 0002474  65.2440 294.8994 14.19525043736585

#Time	Az	El	Level	Level2	SNR	BER	BlckErr	Temp	State	Recorded	gain1	gain2
2026-01-15 09:27:59.49	131.58	6.95	-31.2	-34.3	5.3	1.24e+00	0	40	0	0	23	5130
2026-01-15 09:28:02.50	131.44	7.18	-31.9	-37.0	7.5	1.08e-01	0	41	0	1048576	23	6471
2026-01-15 09:28:05.50	131.31	7.40	-32.0	-36.8	7.2	1.71e-01	0	41	0	7340032	24	6309
2026-01-15 09:28:08.50	131.17	7.63	-31.8	-36.0	7.9	1.02e-01	0	41	0	12582912	24	5831
2026-01-15 09:28:11.52	131.02	7.86	-31.1	-33.8	10.0	9.84e-03	0	41	0	17825792	23	4899
2026-01-15 09:28:14.51	130.88	8.09	-30.8	-33.2	10.9	1.95e-03	0	41	0	24117248	22	4751
2026-01-15 09:28:17.52	130.73	8.33	-31.2	-34.5	9.9	1.08e-02	0	41	0	29360128	22	5276
2026-01-15 09:28:20.53	130.58	8.56	-30.9	-33.4	10.8	3.22e-03	0	41	0	35651584	22	4800
2026-01-15 09:28:23.54	130.43	8.80	-30.8	-33.0	11.1	1.68e-03	0	41	0	40894464	22	4659
2026-01-15 09:28:26.54	130.28	9.04	-30.4	-31.9	12.0	3.58e-04	0	41	0	46137344	22	4279
2026-01-15 09:28:29.54	130.12	9.28	-30.6	-32.6	11.6	6.55e-04	0	42	0	52428800	22	4505
2026-01-15 09:28:32.55	129.96	9.53	-30.6	-32.6	11.6	6.34e-04	0	42	0	57671680	22	4506
2026-01-15 09:28:35.56	129.80	9.77	-30.6	-32.5	11.6	7.20e-04	0	42	0	62914560	22	4476
2026-01-15 09:28:38.56	129.63	10.02	-30.5	-32.1	11.9	2.64e-04	0	42	0	69206016	22	4335
2026-01-15 09:28:41.57	129.46	10.27	-30.5	-32.2	11.9	2.89e-04	0	42	0	74448896	22	4359
2026-01-15 09:28:44.57	129.29	10.53	-30.9	-33.2	11.2	1.20e-03	0	42	0	80740352	22	4704
2026-01-15 09:28:47.59	129.11	10.78	-30.9	-33.1	11.4	2.02e-03	0	42	0	85983232	22	4640
2026-01-15 09:28:50.60	128.93	11.04	-30.6	-32.2	12.0	3.22e-04	0	42	0	91226112	22	4333
2026-01-15 09:28:53.61	128.75	11.30	-30.4	-31.7	12.4	1.81e-04	0	42	0	97517568	22	4172
2026-01-15 09:28:56.62	128.57	11.57	-30.5	-32.0	12.2	3.29e-04	0	42	0	102760448	22	4257
2026-01-15 09:28:59.63	128.38	11.83	-30.6	-32.2	12.1	2.78e-04	0	42	0	108003328	22	4337
2026-01-15 09:29:02.62	128.19	12.10	-30.5	-31.9	12.3	2.69e-04	0	42	0	114294784	22	4239
2026-01-15 09:29:05.62	127.99	12.37	-30.4	-32.1	12.5	7.47e-05	0	42	0	119537664	21	4393
2026-01-15 09:29:08.63	127.79	12.64	-30.6	-32.7	12.0	2.63e-04	0	42	0	125829120	21	4612
2026-01-15 09:29:11.65	127.59	12.92	-30.8	-33.2	11.7	4.60e-04	0	42	0	131072000	21	4779
2026-01-15 09:29:14.65	127.38	13.20	-30.5	-32.4	12.3	2.78e-04	0	42	0	136314880	21	4473
2026-01-15 09:29:17.65	127.17	13.48	-30.0	-30.9	13.4	1.75e-05	0	43	0	142606336	21	3994
2026-01-15 09:29:20.66	126.95	13.77	-30.5	-32.3	12.5	8.69e-05	0	42	0	147849216	21	4433
2026-01-15 09:29:23.67	126.73	14.05	-30.7	-32.9	12.1	1.87e-04	0	42	0	153092096	21	4634
2026-01-15 09:29:26.68	126.51	14.34	-30.2	-31.3	13.2	2.51e-05	0	43	0	159383552	21	4125
2026-01-15 09:29:29.70	126.27	14.64	-30.0	-30.9	13.4	9.90e-06	0	42	0	164626432	21	3999
2026-01-15 09:29:32.70	126.04	14.94	-30.3	-31.8	12.9	3.81e-05	0	42	0	170917888	21	4283
2026-01-15 09:29:35.71	125.80	15.24	-30.5	-32.2	12.7	5.87e-05	0	42	0	176160768	21	4399
2026-01-15 09:29:38.73	125.56	15.54	-30.2	-31.4	13.1	7.17e-05	0	43	0	181403648	21	4130
2026-01-15 09:29:41.72	125.31	15.85	-30.3	-31.6	13.1	3.35e-05	0	42	0	187695104	21	4183
2026-01-15 09:29:44.73	125.05	16.16	-30.6	-32.5	12.5	1.01e-04	0	43	0	192937984	21	4482
2026-01-15 09:29:47.73	124.79	16.47	-30.5	-32.2	12.6	1.22e-04	0	43	0	198180864	21	4395
2026-01-15 09:29:50.74	124.53	16.79	-30.6	-32.5	12.6	6.33e-05	0	43	0	204472320	21	4488
2026-01-15 09:29:53.74	124.25	17.11	-30.9	-33.4	11.9	2.20e-04	0	43	0	209715200	21	4810
2026-01-15 09:29:56.76	123.97	17.43	-30.9	-32.9	11.9	4.02e-04	0	42	0	216006656	22	4560
2026-01-15 09:29:59.77	123.69	17.76	-30.9	-33.0	11.9	3.60e-04	0	43	0	221249536	22	4596
2026-01-15 09:30:02.78	123.40	18.09	-30.9	-32.9	12.0	6.82e-04	0	43	0	226492416	22	4529
2026-01-15 09:30:05.78	123.10	18.43	-31.0	-33.0	12.0	2.60e-04	0	43	0	232783872	22	4557
2026-01-15 09:30:08.80	122.80	18.77	-30.5	-31.8	12.8	5.72e-05	0	43	0	238026752	22	4145
2026-01-15 09:30:11.81	122.49	19.11	-30.8	-32.4	12.5	1.01e-04	0	43	0	244318208	22	4335
2026-01-15 09:30:14.82	122.17	19.45	-30.8	-32.6	12.3	1.46e-04	0	43	0	249561088	22	4401
2026-01-15 09:30:17.81	121.84	19.80	-30.6	-31.9	12.8	4.19e-05	0	43	0	254803968	22	4176
2026-01-15 09:30:20.83	121.51	20.16	-31.2	-33.6	11.6	4.12e-04	0	43	0	261095424	22	4755
2026-01-15 09:30:23.85	121.16	20.52	-31.0	-33.1	12.0	7.77e-04	0	43	0	266338304	22	4556
2026-01-15 09:30:26.85	120.81	20.88	-30.2	-31.2	13.7	6.80e-06	0	43	0	271581184	21	4030
2026-01-15 09:30:29.86	120.46	21.25	-30.6	-32.2	13.0	2.13e-05	0	43	0	277872640	21	4352
2026-01-15 09:30:32.87	120.09	21.62	-30.6	-32.3	13.0	3.96e-05	0	43	0	283115520	21	4390
2026-01-15 09:30:35.88	119.71	21.99	-30.8	-32.8	12.6	7.32e-05	0	43	0	289406976	21	4554
2026-01-15 09:30:38.89	119.32	22.37	-31.1	-33.3	12.0	3.62e-04	0	43	0	294649856	22	4645
2026-01-15 09:30:41.90	118.93	22.76	-31.2	-33.5	11.9	5.99e-04	0	43	0	299892736	22	4700
2026-01-15 09:30:44.92	118.52	23.15	-31.2	-33.5	11.8	2.90e-04	0	43	0	306184192	22	4691
2026-01-15 09:30:47.92	118.11	23.54	-31.6	-34.3	10.9	1.01e-03	0	43	0	311427072	23	4917
2026-01-15 09:30:50.92	117.68	23.93	-31.0	-32.3	12.4	1.30e-04	0	43	0	317718528	23	4180
2026-01-15 09:30:53.94	117.24	24.33	-31.0	-32.9	12.3	9.99e-05	0	43	0	322961408	22	4476
2026-01-15 09:30:56.96	116.79	24.74	-30.7	-32.1	12.9	6.56e-05	0	43	0	328204288	22	4216
2026-01-15 09:30:59.96	116.33	25.15	-30.7	-32.0	12.9	2.97e-05	0	43	0	334495744	22	4197
2026-01-15 09:31:02.97	115.85	25.56	-30.8	-32.1	12.9	6.25e-05	0	43	0	339738624	22	4224
2026-01-15 09:31:05.97	115.37	25.98	-30.7	-31.9	13.1	2.05e-05	0	43	0	344981504	22	4130
2026-01-15 09:31:08.97	114.87	26.40	-30.7	-31.8	13.1	2.51e-05	0	43	0	351272960	22	4127
2026-01-15 09:31:11.99	114.35	26.83	-30.7	-31.9	13.1	4.19e-05	0	43	0	356515840	22	4142
2026-01-15 09:31:14.98	113.83	27.25	-30.6	-31.8	13.1	4.42e-05	0	43	0	362807296	22	4166
2026-01-15 09:31:18.00	113.28	27.69	-31.0	-33.2	12.2	2.12e-04	0	43	0	368050176	22	4603
2026-01-15 09:31:21.01	112.72	28.13	-31.0	-33.1	12.1	2.17e-04	0	43	0	373293056	22	4599
2026-01-15 09:31:24.01	112.15	28.57	-31.2	-33.6	11.8	3.52e-04	0	43	0	379584512	22	4782
2026-01-15 09:31:27.00	111.57	29.01	-31.1	-33.2	12.2	1.81e-04	0	43	0	384827392	22	4604
2026-01-15 09:31:30.01	110.96	29.46	-31.6	-34.1	11.3	8.84e-04	0	43	0	390070272	23	4825
2026-01-15 09:31:33.03	110.33	29.91	-31.7	-34.5	11.0	6.59e-04	0	43	0	396361728	23	4987
2026-01-15 09:31:36.04	109.69	30.37	-31.6	-33.9	11.0	1.32e-03	0	43	0	401604608	24	4680
2026-01-15 09:31:39.05	109.03	30.83	-31.4	-33.2	11.5	2.01e-03	0	43	0	407896064	24	4429
2026-01-15 09:31:42.06	108.35	31.29	-31.9	-35.0	10.3	3.81e-03	0	43	0	413138944	24	5133
2026-01-15 09:31:45.07	107.65	31.76	-31.9	-34.7	10.4	3.30e-03	0	43	0	418381824	24	4970
2026-01-15 09:31:48.07	106.93	32.22	-32.0	-35.3	10.0	9.02e-03	0	43	0	424673280	24	5234
2026-01-15 09:31:51.09	106.18	32.69	-32.2	-35.8	9.6	8.48e-03	0	43	0	429916160	24	5461
2026-01-15 09:31:54.11	105.42	33.16	-32.2	-35.5	9.8	6.50e-03	0	43	0	436207616	24	5309
2026-01-15 09:31:57.11	104.63	33.63	-32.4	-36.0	9.2	2.80e-02	0	43	0	441450496	25	5426
2026-01-15 09:32:00.12	103.82	34.11	-32.1	-34.8	10.1	1.51e-02	0	43	0	446693376	25	4902
2026-01-15 09:32:03.14	102.99	34.58	-31.7	-34.3	11.3	1.02e-03	0	43	0	452984832	23	4858
2026-01-15 09:32:06.15	102.13	35.05	-30.4	-31.3	13.7	2.51e-05	0	43	0	458227712	22	3962
2026-01-15 09:32:09.15	101.25	35.53	-31.0	-32.8	12.6	8.46e-05	0	43	0	463470592	22	4459
2026-01-15 09:32:12.16	100.34	36.00	-32.1	-35.5	10.1	4.87e-03	0	43	0	469762048	24	5281
2026-01-15 09:32:15.17	99.40	36.47	-31.5	-33.5	11.3	1.33e-03	0	43	0	475004928	24	4521
2026-01-15 09:32:18.17	98.44	36.93	-31.8	-34.2	10.9	2.63e-03	0	43	0	481296384	24	4786
2026-01-15 09:32:21.19	97.44	37.40	-31.2	-33.1	12.0	2.56e-04	0	43	0	486539264	23	4457
2026-01-15 09:32:24.19	96.42	37.86	-31.9	-35.3	10.4	3.11e-03	0	43	0	491782144	23	5320
2026-01-15 09:32:27.21	95.37	38.32	-32.0	-35.3	10.0	1.08e-02	0	43	0	498073600	24	5265
2026-01-15 09:32:30.20	94.30	38.77	-31.8	-34.6	10.6	3.70e-03	0	43	0	503316480	24	4960
2026-01-15 09:32:33.21	93.19	39.21	-31.5	-34.1	11.4	5.45e-04	0	43	0	508559360	23	4818
2026-01-15 09:32:36.22	92.04	39.65	-31.3	-33.5	11.7	1.09e-03	0	43	0	514850816	23	4619
2026-01-15 09:32:39.23	90.87	40.08	-31.0	-32.3	12.6	1.09e-04	0	43	0	520093696	23	4202
2026-01-15 09:32:42.24	89.67	40.50	-31.3	-33.2	12.0	2.26e-04	0	43	0	526385152	23	4508
2026-01-15 09:32:45.24	88.44	40.91	-31.4	-33.6	11.8	9.05e-04	0	43	0	531628032	23	4625
2026-01-15 09:32:48.25	87.17	41.31	-30.6	-31.8	13.3	2.05e-05	0	43	0	536870912	22	4122
2026-01-15 09:32:51.25	85.88	41.70	-31.0	-32.8	12.6	1.90e-04	0	43	0	543162368	22	4459
2026-01-15 09:32:54.26	84.55	42.08	-29.9	-30.6	14.4	4.50e-06	0	43	0	548405248	21	3887
2026-01-15 09:32:57.28	83.18	42.44	-30.4	-32.0	13.5	1.60e-05	0	43	0	553648128	21	4298
2026-01-15 09:33:00.28	81.80	42.78	-30.6	-32.3	13.2	9.10e-06	0	43	0	559939584	21	4409
2026-01-15 09:33:03.29	80.38	43.11	-30.3	-31.6	13.7	3.00e-06	0	43	0	565182464	21	4188
2026-01-15 09:33:06.29	78.93	43.43	-30.5	-32.4	13.1	1.90e-05	0	43	0	571473920	21	4443
2026-01-15 09:33:09.30	77.46	43.72	-30.9	-33.3	12.6	5.79e-05	0	43	0	576716800	21	4740
2026-01-15 09:33:12.31	75.95	43.99	-30.4	-31.3	13.5	1.29e-05	0	43	0	581959680	22	3997
2026-01-15 09:33:15.33	74.42	44.25	-30.5	-31.4	13.6	1.06e-05	0	43	0	588251136	22	4006
2026-01-15 09:33:18.34	72.87	44.48	-31.3	-33.8	12.0	1.90e-04	0	43	0	593494016	22	4804
2026-01-15 09:33:21.34	71.30	44.69	-31.4	-33.6	11.6	7.13e-04	0	43	0	599785472	23	4647
2026-01-15 09:33:24.34	69.72	44.88	-30.8	-31.9	12.8	1.31e-04	0	43	0	605028352	23	4109
2026-01-15 09:33:27.36	68.10	45.04	-30.5	-31.4	13.6	1.14e-05	0	43	0	610271232	22	4029
2026-01-15 09:33:30.36	66.48	45.18	-31.3	-33.9	11.9	2.04e-04	0	43	0	616562688	22	4887
2026-01-15 09:33:33.37	64.84	45.29	-32.0	-35.5	9.9	3.87e-03	0	43	0	621805568	24	5380
2026-01-15 09:33:36.37	63.20	45.37	-31.4	-33.2	11.6	1.16e-03	0	43	0	627048448	24	4448
2026-01-15 09:33:39.38	61.54	45.43	-31.0	-32.5	12.4	1.04e-04	0	43	0	633339904	23	4320
2026-01-15 09:33:42.40	59.88	45.47	-31.5	-34.3	11.1	2.41e-03	0	43	0	638582784	23	4946
2026-01-15 09:33:45.41	58.22	45.47	-30.1	-31.6	14.0	2.20e-06	0	43	0	644874240	20	4291
2026-01-15 09:33:48.42	56.55	45.45	-31.1	-33.5	12.1	1.24e-04	0	43	0	650117120	22	4747
2026-01-15 09:33:51.42	54.90	45.40	-30.9	-33.0	12.3	1.99e-04	0	43	0	655360000	22	4582
2026-01-15 09:33:54.43	53.25	45.33	-30.7	-32.3	12.8	9.99e-05	0	43	0	661651456	22	4337
2026-01-15 09:33:57.43	51.61	45.23	-31.1	-33.7	11.9	1.72e-04	0	43	0	666894336	22	4807
2026-01-15 09:34:00.45	49.98	45.11	-31.1	-33.3	12.2	3.02e-04	0	43	0	672137216	22	4675
2026-01-15 09:34:03.47	48.36	44.96	-30.3	-31.6	13.7	5.30e-06	0	43	0	678428672	21	4199
2026-01-15 09:34:06.47	46.76	44.78	-30.9	-33.0	12.3	4.16e-04	0	43	0	683671552	22	4585
2026-01-15 09:34:09.48	45.18	44.58	-30.8	-32.6	12.6	3.73e-05	0	43	0	689963008	22	4453
2026-01-15 09:34:12.49	43.62	44.36	-30.8	-32.6	12.6	3.31e-04	0	43	0	695205888	22	4433
2026-01-15 09:34:15.50	42.08	44.12	-31.2	-33.9	12.0	5.97e-04	0	43	0	700448768	22	4909
2026-01-15 09:34:18.51	40.57	43.86	-31.1	-33.4	12.1	1.80e-04	0	43	0	706740224	22	4708
2026-01-15 09:34:21.52	39.09	43.57	-29.8	-30.4	14.4	7.00e-07	0	43	0	711983104	21	3838
2026-01-15 09:34:24.53	37.63	43.27	-30.5	-32.6	13.4	6.10e-06	0	43	0	717225984	20	4603
2026-01-15 09:34:27.54	36.20	42.95	-30.3	-31.1	13.6	2.51e-05	0	43	0	723517440	22	3957
2026-01-15 09:34:30.55	34.79	42.61	-30.6	-32.4	13.2	9.10e-06	0	43	0	728760320	21	4435
2026-01-15 09:34:33.56	33.42	42.26	-30.3	-31.4	13.9	3.80e-06	0	43	0	735051776	21	4082
2026-01-15 09:34:36.57	32.08	41.89	-29.3	-29.4	15.3	0.00e+00	0	43	0	740294656	20	3625
2026-01-15 09:34:39.58	30.77	41.51	-28.6	-28.6	16.5	0.00e+00	0	43	0	745537536	18	3602
2026-01-15 09:34:42.59	29.49	41.11	-29.4	-30.0	15.4	0.00e+00	0	43	0	751828992	19	3857
2026-01-15 09:34:45.60	28.25	40.71	-28.3	-28.5	16.8	0.00e+00	0	43	0	757071872	17	3674
2026-01-15 09:34:48.62	27.03	40.29	-29.3	-29.8	15.4	0.00e+00	0	43	0	763363328	19	3824
2026-01-15 09:34:51.63	25.84	39.86	-30.5	-32.1	13.3	6.80e-06	0	43	0	768606208	21	4307
2026-01-15 09:34:54.65	24.69	39.43	-29.8	-30.6	14.6	7.00e-07	0	43	0	773849088	20	3956
2026-01-15 09:34:57.67	23.56	38.99	-29.9	-30.8	14.5	0.00e+00	0	43	0	780140544	20	4007
2026-01-15 09:35:00.66	22.48	38.54	-30.6	-32.1	13.4	1.98e-05	0	43	0	785383424	21	4299
2026-01-15 09:35:03.67	21.42	38.09	-30.8	-32.7	13.1	1.37e-05	0	43	0	790626304	21	4498
2026-01-15 09:35:06.68	20.39	37.63	-31.5	-33.8	11.6	7.83e-04	0	43	0	796917760	23	4679
2026-01-15 09:35:09.68	19.39	37.17	-31.2	-32.7	12.4	1.94e-04	0	43	0	802160640	23	4295
2026-01-15 09:35:12.69	18.41	36.71	-31.0	-32.4	12.4	8.92e-05	0	43	0	808452096	23	4213
2026-01-15 09:35:15.70	17.47	36.24	-31.4	-33.6	11.7	1.75e-03	0	43	0	813694976	23	4622
2026-01-15 09:35:18.70	16.55	35.77	-31.9	-35.2	10.4	1.30e-03	0	43	0	818937856	23	5262
2026-01-15 09:35:21.71	15.66	35.30	-32.2	-35.6	9.9	8.62e-03	0	43	0	825229312	24	5328
2026-01-15 09:35:24.70	14.79	34.83	-32.4	-35.8	9.2	2.77e-02	0	43	0	830472192	25	5364
2026-01-15 09:35:27.71	13.95	34.36	-32.3	-35.5	9.5	1.47e-02	0	43	0	835715072	25	5186
2026-01-15 09:35:30.73	13.13	33.89	-33.1	-38.3	6.9	1.75e-01	0	43	0	842006528	26	6576
2026-01-15 09:35:33.74	12.34	33.42	-32.9	-37.2	7.8	8.27e-02	0	43	0	847249408	26	5947
2026-01-15 09:35:36.75	11.56	32.95	-32.6	-36.0	8.8	2.97e-02	0	43	0	853540864	26	5367
2026-01-15 09:35:39.76	10.81	32.48	-32.4	-35.2	9.3	4.10e-02	0	43	0	858783744	26	5005
2026-01-15 09:35:42.78	10.08	32.02	-31.2	-32.9	12.1	3.78e-04	0	43	0	864026624	23	4365
2026-01-15 09:35:45.79	9.38	31.55	-32.2	-35.9	9.5	6.26e-03	0	43	0	870318080	24	5483
2026-01-15 09:35:48.79	8.69	31.09	-31.9	-34.8	10.1	1.12e-02	0	43	0	875560960	24	5034
2026-01-15 09:35:51.78	8.03	30.64	-31.5	-33.5	11.2	9.20e-04	0	43	0	880803840	24	4538
2026-01-15 09:35:54.79	7.38	30.18	-30.8	-32.3	12.8	1.62e-04	0	43	0	887095296	22	4275
2026-01-15 09:35:57.80	6.75	29.73	-30.9	-32.6	12.6	1.37e-05	0	43	0	892338176	22	4374
2026-01-15 09:36:00.81	6.14	29.28	-31.4	-34.3	11.3	8.01e-04	0	43	0	898629632	22	4987
2026-01-15 09:36:03.81	5.54	28.84	-31.2	-33.0	11.9	9.18e-04	0	43	0	903872512	23	4425
2026-01-15 09:36:06.82	4.96	28.39	-30.6	-31.8	13.0	4.27e-05	0	43	0	909115392	22	4123
2026-01-15 09:36:09.83	4.40	27.96	-31.0	-32.8	12.4	8.77e-05	0	43	0	915406848	22	4449
2026-01-15 09:36:12.83	3.85	27.52	-32.4	-36.6	8.9	1.43e-02	0	43	0	920649728	24	5813
2026-01-15 09:36:15.82	3.32	27.10	-31.6	-33.9	10.9	4.43e-03	0	43	0	925892608	24	4672
2026-01-15 09:36:18.84	2.80	26.67	-31.3	-33.2	11.7	5.42e-04	0	43	0	932184064	23	4504
2026-01-15 09:36:21.84	2.30	26.25	-30.9	-32.1	12.4	2.27e-04	0	43	0	937426944	23	4155
2026-01-15 09:36:24.85	1.81	25.83	-31.2	-33.0	11.7	8.19e-04	0	43	0	943718400	23	4464
2026-01-15 09:36:27.86	1.33	25.42	-31.1	-32.8	11.9	6.07e-04	0	43	0	948961280	23	4392
2026-01-15 09:36:30.87	0.87	25.01	-31.1	-32.9	11.8	3.90e-04	0	44	0	954204160	23	4433
2026-01-15 09:36:33.88	0.41	24.60	-31.7	-34.9	10.4	3.51e-03	0	43	0	960495616	23	5162
2026-01-15 09:36:36.90	359.97	24.20	-31.4	-33.6	11.3	9.54e-04	0	43	0	965738496	23	4658
2026-01-15 09:36:39.89	359.54	23.80	-30.9	-32.2	12.4	2.39e-04	0	43	0	972029952	23	4167
2026-01-15 09:36:42.90	359.12	23.41	-30.9	-32.3	12.3	1.59e-04	0	43	0	977272832	23	4215
2026-01-15 09:36:45.91	358.71	23.02	-31.1	-32.7	11.9	3.87e-04	0	43	0	982515712	23	4360
2026-01-15 09:36:48.92	358.31	22.64	-31.0	-32.6	12.0	2.44e-04	0	43	0	988807168	23	4307
2026-01-15 09:36:51.93	357.93	22.26	-31.0	-32.4	12.1	2.88e-04	0	43	0	994050048	23	4266
2026-01-15 09:36:54.94	357.55	21.88	-30.6	-32.0	12.8	1.14e-04	0	43	0	999292928	22	4210
2026-01-15 09:36:57.95	357.18	21.51	-30.1	-31.0	13.6	8.30e-06	0	43	0	1005584384	21	4016
2026-01-15 09:37:00.95	356.82	21.15	-30.8	-33.0	12.4	1.14e-04	0	43	0	1010827264	21	4640
2026-01-15 09:37:03.95	356.47	20.78	-31.6	-34.6	10.5	4.32e-03	0	43	0	1017118720	23	5083
2026-01-15 09:37:06.95	356.12	20.43	-31.5	-34.3	10.7	4.11e-03	0	43	0	1022361600	23	4951
2026-01-15 09:37:09.95	355.79	20.07	-31.4	-34.0	10.9	2.46e-03	0	43	0	1027604480	23	4853
2026-01-15 09:37:12.95	355.46	19.72	-31.2	-33.1	11.6	9.84e-04	0	44	0	1033895936	23	4485
2026-01-15 09:37:15.95	355.14	19.38	-31.1	-32.8	11.7	5.02e-04	0	43	0	1039138816	23	4404
2026-01-15 09:37:18.95	354.83	19.03	-31.0	-32.5	11.9	4.26e-04	0	43	0	1044381696	23	4304
2026-01-15 09:37:21.97	354.52	18.69	-30.7	-32.2	12.5	9.84e-05	0	43	0	1050673152	22	4277
2026-01-15 09:37:24.98	354.22	18.36	-30.6	-32.0	12.6	8.62e-05	0	43	0	1055916032	22	4218
2026-01-15 09:37:28.00	353.93	18.02	-30.6	-31.9	12.7	8.31e-05	0	43	0	1062207488	22	4186
2026-01-15 09:37:31.00	353.65	17.70	-30.7	-32.2	12.4	1.27e-04	0	43	0	1067450368	22	4307
2026-01-15 09:37:34.01	353.37	17.37	-30.8	-32.5	12.2	1.81e-04	0	43	0	1072693248	22	4392
2026-01-15 09:37:37.02	353.10	17.05	-31.1	-33.6	11.4	7.73e-04	0	43	0	1078984704	22	4782
2026-01-15 09:37:40.02	352.83	16.73	-31.2	-33.9	11.2	1.17e-03	0	43	0	1084227584	22	4911
2026-01-15 09:37:43.03	352.57	16.42	-30.7	-32.2	12.3	2.33e-04	0	43	0	1089470464	22	4301
2026-01-15 09:37:46.04	352.31	16.11	-30.4	-31.4	12.9	6.48e-05	0	43	0	1095761920	22	4036
2026-01-15 09:37:49.04	352.06	15.80	-30.1	-31.2	13.3	1.75e-05	0	43	0	1101004800	21	4085
2026-01-15 09:37:52.06	351.82	15.50	-30.2	-31.4	13.2	2.89e-05	0	43	0	1107296256	21	4121
2026-01-15 09:37:55.06	351.58	15.20	-30.3	-31.8	12.9	5.11e-05	0	44	0	1112539136	21	4262
2026-01-15 09:37:58.07	351.34	14.90	-30.6	-32.6	12.3	1.53e-04	0	43	0	1117782016	21	4535
2026-01-15 09:38:01.08	351.11	14.60	-30.9	-33.5	11.7	5.68e-04	0	43	0	1124073472	21	4859
2026-01-15 09:38:04.09	350.89	14.31	-31.2	-33.8	11.2	1.34e-03	0	43	0	1129316352	22	4860
2026-01-15 09:38:07.10	350.67	14.02	-31.2	-33.9	11.0	2.05e-03	0	43	0	1134559232	22	4920
2026-01-15 09:38:10.10	350.45	13.74	-31.2	-34.1	10.9	1.79e-03	0	43	0	1140850688	22	4985
2026-01-15 09:38:13.11	350.24	13.45	-31.0	-33.5	11.2	1.66e-03	0	43	0	1146093568	22	4777
2026-01-15 09:38:16.12	350.03	13.17	-31.2	-34.0	10.8	2.50e-03	0	44	0	1152385024	22	4978
2026-01-15 09:38:19.12	349.83	12.90	-31.3	-34.4	10.6	3.44e-03	0	43	0	1157627904	22	5123
2026-01-15 09:38:22.12	349.63	12.62	-31.3	-34.4	10.4	5.05e-03	0	43	0	1162870784	22	5164
2026-01-15 09:38:25.13	349.43	12.35	-31.5	-35.0	10.0	6.42e-03	0	44	0	1169162240	22	5407
2026-01-15 09:38:28.15	349.24	12.08	-31.6	-34.8	9.8	9.02e-03	0	43	0	1174405120	23	5252
2026-01-15 09:38:31.16	349.05	11.82	-31.3	-33.9	10.4	5.03e-03	0	43	0	1179648000	23	4854
2026-01-15 09:38:34.16	348.87	11.55	-31.2	-33.6	10.5	3.52e-03	0	43	0	1185939456	23	4739
2026-01-15 09:38:37.17	348.69	11.29	-31.0	-33.0	11.1	2.54e-03	0	43	0	1191182336	23	4542
2026-01-15 09:38:40.17	348.51	11.03	-30.7	-32.7	11.6	8.42e-04	0	43	0	1197473792	22	4516
2026-01-15 09:38:43.17	348.34	10.78	-30.8	-32.9	11.4	8.05e-04	0	44	0	1202716672	22	4597
2026-01-15 09:38:46.18	348.17	10.52	-30.8	-32.9	11.5	7.77e-04	0	43	0	1207959552	22	4574
2026-01-15 09:38:49.19	348.00	10.27	-30.8	-33.1	11.3	1.05e-03	0	43	0	1214251008	22	4657
2026-01-15 09:38:52.19	347.83	10.02	-31.0	-33.7	10.8	2.29e-03	0	43	0	1219493888	22	4903
2026-01-15 09:38:55.20	347.67	9.78	-31.2	-34.4	10.3	5.27e-03	0	43	0	1224736768	22	5165
2026-01-15 09:38:58.21	347.51	9.53	-31.4	-34.4	10.0	8.99e-03	0	43	0	1231028224	23	5099
2026-01-15 09:39:01.21	347.36	9.29	-31.5	-34.8	9.5	1.44e-02	0	43	0	1236271104	23	5292
2026-01-15 09:39:04.22	347.20	9.05	-31.5	-34.9	9.4	1.53e-02	0	43	0	1242562560	23	5339
2026-01-15 09:39:07.23	347.05	8.81	-31.5	-35.0	9.3	1.85e-02	0	43	0	1247805440	23	5362
2026-01-15 09:39:10.23	346.90	8.57	-31.5	-34.9	9.4	1.27e-02	0	43	0	1253048320	23	5325
2026-01-15 09:39:13.24	346.76	8.34	-31.5	-34.8	9.4	1.48e-02	0	43	0	1259339776	23	5299
2026-01-15 09:39:16.24	346.62	8.11	-31.4	-34.5	9.7	1.10e-02	0	43	0	1264582656	23	5150
2026-01-15 09:39:19.25	346.47	7.88	-31.4	-34.6	9.5	1.40e-02	0	43	0	1269825536	23	5233
2026-01-15 09:39:22.26	346.34	7.65	-31.5	-34.9	9.3	1.77e-02	0	43	0	1276116992	23	5355
2026-01-15 09:39:25.27	346.20	7.42	-31.5	-35.2	9.0	2.25e-02	0	43	0	1281359872	23	5493
2026-01-15 09:39:28.29	346.07	7.19	-31.7	-36.0	8.3	4.44e-02	0	43	0	1287651328	23	5936

#Closed at: 2026-01-15 09:39:31
#Recorded file [1289 MB]: D:/data/31010_260115_122801.dat