passes_logs/2026/01/15/R2M6_AANII_01/R2M6_AANII_01__20260115_021410_FENGYUN_3D_rec.log

#Pass ID: 20260115_021410_FENGYUN 3D
#Satellite: FENGYUN 3D
#Configuration: FENGYUN 3D
#almurnet v.1.7.20240730
#Start time: 2026-01-15 02:14:11

#Version: 2.2.20231116
#Station: R2M6_AANII_01
#Location: 30.233357 lon 59.946436 lat
#TLE: 1 43010U 17072A   26014.22831475  .00000226  00000+0  12883-3 0  9994
#TLE: 2 43010  98.9934 346.0326 0002309 109.2304 250.9121 14.19696287423146

#Time	Az	El	Level	Level2	SNR	BER	BlckErr	Temp	State	Recorded	gain1	gain2
2026-01-15 02:14:11.65	19.66	7.09	-28.8	-31.6	5.6	7.82e-01	0	41	0	0	17	4990
2026-01-15 02:14:14.65	19.70	7.32	-28.8	-31.6	11.4	6.18e-04	0	41	0	5242880	17	4967
2026-01-15 02:14:17.66	19.75	7.56	-29.2	-32.1	10.8	1.68e-03	0	41	0	22020096	18	5025
2026-01-15 02:14:20.66	19.79	7.79	-28.3	-30.7	12.2	1.93e-03	0	41	0	38797312	16	4789
2026-01-15 02:14:23.67	19.84	8.03	-27.1	-29.1	13.7	6.80e-06	0	42	0	55574528	14	4517
2026-01-15 02:14:26.67	19.88	8.27	-26.8	-28.9	14.1	0.00e+00	0	42	0	73400320	13	4556
2026-01-15 02:14:29.68	19.93	8.52	-26.7	-28.7	14.3	1.45e-03	0	42	0	90177536	13	4499
2026-01-15 02:14:32.70	19.98	8.76	-26.5	-28.0	14.7	1.26e-03	0	42	0	106954752	13	4315
2026-01-15 02:14:35.72	20.03	9.01	-26.6	-28.4	14.5	0.00e+00	0	42	0	123731968	13	4415
2026-01-15 02:14:38.74	20.08	9.26	-26.3	-28.1	14.9	1.28e-03	0	42	0	140509184	12	4448
2026-01-15 02:14:41.76	20.12	9.52	-26.4	-28.4	14.7	1.22e-03	0	42	0	158334976	12	4532
2026-01-15 02:14:44.76	20.17	9.77	-26.5	-28.2	14.6	1.31e-03	0	42	0	175112192	13	4353
2026-01-15 02:14:47.77	20.23	10.03	-26.4	-27.9	14.8	1.28e-03	0	42	0	191889408	13	4271
2026-01-15 02:14:50.78	20.28	10.29	-26.4	-28.3	14.9	1.18e-03	0	42	0	208666624	12	4484
2026-01-15 02:14:53.78	20.33	10.55	-26.1	-27.7	15.2	1.25e-03	0	42	0	225443840	12	4320
2026-01-15 02:14:56.79	20.38	10.82	-25.9	-27.3	15.5	0.00e+00	0	42	0	242221056	12	4219
2026-01-15 02:14:59.80	20.43	11.09	-25.9	-27.3	15.5	0.00e+00	0	42	0	258998272	12	4215
2026-01-15 02:15:02.81	20.49	11.36	-26.0	-27.4	15.5	1.17e-03	0	43	0	275775488	12	4233
2026-01-15 02:15:05.83	20.54	11.64	-26.0	-27.5	15.4	0.00e+00	0	42	0	293601280	12	4277
2026-01-15 02:15:08.84	20.60	11.92	-26.1	-27.7	15.4	0.00e+00	0	43	0	310378496	12	4312
2026-01-15 02:15:11.86	20.66	12.20	-26.2	-27.9	15.2	0.00e+00	0	42	0	327155712	12	4386
2026-01-15 02:15:14.86	20.71	12.49	-26.1	-27.7	15.4	0.00e+00	0	43	0	343932928	12	4307
2026-01-15 02:15:17.86	20.77	12.78	-26.0	-27.5	15.5	0.00e+00	0	43	0	360710144	12	4263
2026-01-15 02:15:20.86	20.83	13.07	-26.0	-27.3	15.6	0.00e+00	0	43	0	377487360	12	4226
2026-01-15 02:15:23.88	20.89	13.36	-25.9	-27.2	15.7	0.00e+00	0	43	0	394264576	12	4193
2026-01-15 02:15:26.90	20.95	13.66	-25.9	-27.7	15.8	0.00e+00	0	43	0	411041792	11	4435
2026-01-15 02:15:29.90	21.01	13.97	-26.0	-27.5	15.6	0.00e+00	0	43	0	428867584	12	4253
2026-01-15 02:15:32.91	21.08	14.27	-25.9	-27.6	15.8	0.00e+00	0	43	0	445644800	11	4405
2026-01-15 02:15:35.93	21.14	14.59	-25.9	-27.6	15.9	0.00e+00	0	43	0	462422016	11	4398
2026-01-15 02:15:38.92	21.21	14.90	-25.4	-26.6	16.5	0.00e+00	0	43	0	479199232	11	4117
2026-01-15 02:15:41.93	21.27	15.22	-25.2	-26.7	16.7	0.00e+00	0	43	0	495976448	10	4277
2026-01-15 02:15:44.93	21.34	15.54	-25.3	-26.9	16.6	0.00e+00	0	43	0	512753664	10	4308
2026-01-15 02:15:47.93	21.41	15.87	-24.9	-25.9	17.1	0.00e+00	0	43	0	529530880	10	4060
2026-01-15 02:15:50.93	21.48	16.20	-24.8	-26.2	17.2	0.00e+00	0	43	0	546308096	9	4252
2026-01-15 02:15:53.93	21.55	16.53	-24.7	-26.0	17.4	0.00e+00	0	43	0	564133888	9	4186
2026-01-15 02:15:56.94	21.62	16.87	-24.8	-26.4	17.2	0.00e+00	0	43	0	580911104	9	4292
2026-01-15 02:15:59.95	21.69	17.22	-25.0	-26.3	17.0	0.00e+00	0	43	0	597688320	10	4148
2026-01-15 02:16:02.95	21.77	17.57	-24.9	-26.1	17.1	0.00e+00	0	43	0	614465536	10	4108
2026-01-15 02:16:05.96	21.85	17.93	-24.6	-25.9	17.4	0.00e+00	0	43	0	631242752	9	4181
2026-01-15 02:16:08.96	21.92	18.29	-24.9	-26.4	17.2	0.00e+00	0	43	0	648019968	9	4293
2026-01-15 02:16:11.97	22.00	18.65	-24.8	-26.2	17.3	0.00e+00	0	43	0	664797184	9	4254
2026-01-15 02:16:14.98	22.09	19.03	-24.8	-26.2	17.3	0.00e+00	0	43	0	681574400	9	4245
2026-01-15 02:16:18.00	22.17	19.40	-24.3	-25.3	17.8	0.00e+00	0	43	0	699400192	9	4013
2026-01-15 02:16:21.02	22.26	19.79	-24.4	-25.3	17.8	0.00e+00	0	43	0	716177408	9	4025
2026-01-15 02:16:24.03	22.34	20.18	-24.0	-25.1	18.2	0.00e+00	0	43	0	732954624	8	4072
2026-01-15 02:16:27.05	22.43	20.58	-23.9	-24.9	18.3	0.00e+00	0	43	0	749731840	8	4018
2026-01-15 02:16:30.06	22.52	20.98	-23.9	-24.8	18.4	0.00e+00	0	43	0	766509056	8	4001
2026-01-15 02:16:33.06	22.61	21.39	-23.9	-24.9	18.3	0.00e+00	0	43	0	784334848	8	4025
2026-01-15 02:16:36.08	22.71	21.80	-23.9	-24.9	18.3	0.00e+00	0	43	0	801112064	8	4017
2026-01-15 02:16:39.09	22.81	22.23	-23.8	-25.0	18.5	0.00e+00	0	43	0	817889280	7	4171
2026-01-15 02:16:42.09	22.91	22.65	-23.6	-24.8	18.6	0.00e+00	0	43	0	834666496	7	4112
2026-01-15 02:16:45.09	23.01	23.09	-23.7	-24.9	18.6	0.00e+00	0	43	0	851443712	7	4137
2026-01-15 02:16:48.10	23.11	23.53	-23.8	-25.2	18.5	0.00e+00	0	43	0	868220928	7	4210
2026-01-15 02:16:51.11	23.22	23.99	-23.6	-24.7	18.7	0.00e+00	0	43	0	884998144	7	4093
2026-01-15 02:16:54.11	23.33	24.44	-23.6	-24.8	18.7	0.00e+00	0	43	0	902823936	7	4105
2026-01-15 02:16:57.12	23.44	24.91	-23.3	-24.1	19.0	0.00e+00	0	43	0	919601152	7	3946
2026-01-15 02:17:00.12	23.56	25.39	-23.3	-24.2	19.0	0.00e+00	0	43	0	936378368	7	3962
2026-01-15 02:17:03.12	23.68	25.87	-23.4	-24.2	19.0	0.00e+00	0	43	0	953155584	7	3964
2026-01-15 02:17:06.13	23.80	26.36	-23.4	-24.3	19.0	0.00e+00	0	43	0	969932800	7	3989
2026-01-15 02:17:09.13	23.93	26.87	-23.5	-24.4	18.9	0.00e+00	0	43	0	986710016	7	4029
2026-01-15 02:17:12.14	24.06	27.38	-23.5	-24.4	18.9	0.00e+00	0	43	0	1003487232	7	4024
2026-01-15 02:17:15.14	24.19	27.90	-23.2	-24.4	19.2	0.00e+00	0	43	0	1020264448	6	4122
2026-01-15 02:17:18.13	24.33	28.43	-23.2	-24.3	19.3	0.00e+00	0	43	0	1037041664	6	4112
2026-01-15 02:17:21.13	24.47	28.97	-23.2	-24.4	19.2	0.00e+00	0	43	0	1053818880	6	4116
2026-01-15 02:17:24.15	24.62	29.52	-23.3	-24.7	19.1	0.00e+00	0	43	0	1070596096	6	4197
2026-01-15 02:17:27.16	24.77	30.09	-23.5	-24.9	19.0	0.00e+00	0	43	0	1088421888	6	4259
2026-01-15 02:17:30.16	24.93	30.66	-23.6	-24.6	18.9	0.00e+00	0	43	0	1105199104	7	4064
2026-01-15 02:17:33.16	25.09	31.24	-23.2	-23.9	19.3	0.00e+00	0	44	0	1121976320	7	3899
2026-01-15 02:17:36.18	25.25	31.84	-23.1	-24.1	19.5	0.00e+00	0	43	0	1138753536	6	4043
2026-01-15 02:17:39.19	25.43	32.45	-22.9	-23.8	19.6	0.00e+00	0	43	0	1155530752	6	3978
2026-01-15 02:17:42.20	25.61	33.08	-23.3	-24.5	19.3	0.00e+00	0	43	0	1172307968	6	4149
2026-01-15 02:17:45.20	25.79	33.71	-23.3	-24.1	19.2	0.00e+00	0	43	0	1189085184	7	3944
2026-01-15 02:17:48.22	25.99	34.36	-22.9	-23.3	19.7	0.00e+00	0	44	0	1206910976	7	3749
2026-01-15 02:17:51.23	26.19	35.02	-22.5	-22.8	20.2	0.00e+00	0	43	0	1223688192	6	3742
2026-01-15 02:17:54.23	26.39	35.70	-22.8	-23.6	19.8	0.00e+00	0	44	0	1240465408	6	3929
2026-01-15 02:17:57.23	26.61	36.38	-23.3	-24.7	19.0	0.00e+00	0	44	0	1257242624	6	4190
2026-01-15 02:18:00.24	26.84	37.09	-23.0	-24.0	19.6	0.00e+00	0	44	0	1274019840	6	4022
2026-01-15 02:18:03.26	27.07	37.81	-23.0	-23.9	19.7	0.00e+00	0	44	0	1290797056	6	3991
2026-01-15 02:18:06.26	27.32	38.55	-23.3	-24.6	19.3	0.00e+00	0	44	0	1308622848	6	4162
2026-01-15 02:18:09.27	27.57	39.30	-22.6	-23.2	20.0	0.00e+00	0	43	0	1325400064	6	3824
2026-01-15 02:18:12.28	27.84	40.06	-22.6	-23.0	20.1	1.27e-04	0	44	0	1342177280	6	3792
2026-01-15 02:18:15.29	28.12	40.85	-22.8	-23.6	19.9	2.01e-04	0	43	0	1358954496	6	3920
2026-01-15 02:18:18.30	28.41	41.65	-23.0	-23.8	19.7	0.00e+00	0	43	0	1375731712	6	3985
2026-01-15 02:18:21.30	28.72	42.46	-23.0	-23.9	19.7	2.84e-04	0	43	0	1392508928	6	3991
2026-01-15 02:18:24.31	29.05	43.30	-23.0	-24.0	19.7	3.16e-04	0	43	0	1409286144	6	4019
2026-01-15 02:18:27.31	29.39	44.15	-23.4	-24.7	19.3	2.94e-04	0	43	0	1426063360	6	4199
2026-01-15 02:18:30.31	29.74	45.02	-23.4	-24.2	19.3	3.11e-04	0	43	0	1443889152	7	3973
2026-01-15 02:18:33.33	30.12	45.91	-23.3	-24.0	19.4	2.04e-04	0	43	0	1460666368	7	3922
2026-01-15 02:18:36.34	30.52	46.82	-23.2	-23.8	19.6	2.92e-04	0	43	0	1477443584	7	3871
2026-01-15 02:18:39.36	30.95	47.75	-23.6	-24.6	19.1	0.00e+00	0	44	0	1494220800	7	4069
2026-01-15 02:18:42.37	31.40	48.69	-22.9	-23.7	19.9	7.12e-04	0	43	0	1510998016	6	3939
2026-01-15 02:18:45.37	31.88	49.66	-23.4	-24.9	19.3	6.76e-04	0	44	0	1527775232	6	4234
2026-01-15 02:18:48.39	32.39	50.64	-23.8	-25.2	18.9	0.00e+00	0	44	0	1544552448	7	4201
2026-01-15 02:18:51.40	32.93	51.65	-23.9	-25.3	18.8	0.00e+00	0	44	0	1561329664	7	4232
2026-01-15 02:18:54.41	33.51	52.67	-23.9	-25.3	18.9	0.00e+00	0	43	0	1579155456	7	4240
2026-01-15 02:18:57.41	34.13	53.70	-24.8	-26.1	18.0	0.00e+00	0	44	0	1595932672	9	4205
2026-01-15 02:19:00.41	34.79	54.76	-24.4	-25.8	18.4	0.00e+00	0	43	0	1612709888	8	4237
2026-01-15 02:19:03.43	35.51	55.84	-24.7	-26.0	18.1	0.00e+00	0	43	0	1629487104	9	4172
2026-01-15 02:19:06.43	36.28	56.93	-24.6	-25.2	18.2	0.00e+00	0	44	0	1646264320	10	3880
2026-01-15 02:19:09.44	37.12	58.04	-24.3	-25.6	18.5	0.00e+00	0	44	0	1663041536	8	4201
2026-01-15 02:19:12.44	38.03	59.16	-23.5	-24.5	19.3	0.00e+00	0	44	0	1679818752	7	4027
2026-01-15 02:19:15.45	39.02	60.30	-22.9	-23.6	20.0	0.00e+00	0	44	0	1697644544	6	3927
2026-01-15 02:19:18.47	40.10	61.45	-23.2	-24.4	19.7	0.00e+00	0	44	0	1714421760	6	4110
2026-01-15 02:19:21.47	41.29	62.61	-22.5	-22.9	20.4	0.00e+00	0	44	0	1731198976	6	3767
2026-01-15 02:19:24.49	42.60	63.79	-22.6	-23.6	20.3	0.00e+00	0	44	0	1747976192	5	4043
2026-01-15 02:19:27.50	44.05	64.96	-22.6	-23.0	20.4	0.00e+00	0	43	0	1764753408	6	3790
2026-01-15 02:19:30.51	45.65	66.14	-22.8	-24.0	20.1	0.00e+00	0	44	0	1782579200	5	4138
2026-01-15 02:19:33.51	47.43	67.32	-22.8	-24.0	20.2	0.00e+00	0	44	0	1799356416	5	4133
2026-01-15 02:19:36.52	49.43	68.49	-22.3	-23.0	20.6	0.00e+00	0	44	0	1816133632	5	3901
2026-01-15 02:19:39.53	51.68	69.65	-22.2	-22.6	20.0	0.00e+00	0	44	0	1832910848	5	3791
2026-01-15 02:19:42.53	54.20	70.79	-22.3	-22.9	20.7	1.14e-05	0	44	0	1849688064	5	3861
2026-01-15 02:19:45.53	57.07	71.90	-22.0	-22.8	21.0	0.00e+00	0	44	0	1866465280	4	3940
2026-01-15 02:19:48.54	60.33	72.98	-21.5	-22.3	21.6	0.00e+00	0	44	0	1883242496	3	3951
2026-01-15 02:19:51.54	64.03	74.01	-21.8	-22.4	21.2	7.28e-04	0	44	0	1900019712	4	3875
2026-01-15 02:19:54.55	68.26	74.97	-21.5	-22.4	21.5	1.71e-05	0	44	0	1916796928	3	3973
2026-01-15 02:19:57.55	73.05	75.85	-21.5	-22.4	21.6	0.00e+00	0	44	0	1933574144	3	3961
2026-01-15 02:20:00.57	78.49	76.63	-21.3	-21.8	21.8	5.27e-04	0	44	0	1951399936	3	3837
2026-01-15 02:20:03.58	84.55	77.28	-20.7	-21.1	22.4	2.14e-04	0	44	0	1968177152	2	3786
2026-01-15 02:20:06.58	91.18	77.79	-21.2	-22.1	21.9	5.70e-04	0	44	0	1984954368	2	4020
2026-01-15 02:20:09.59	98.30	78.12	-21.7	-22.8	21.4	2.72e-04	0	44	0	2001731584	3	4068
2026-01-15 02:20:12.60	105.73	78.26	-21.5	-22.3	21.7	7.24e-04	0	44	0	2018508800	3	3934
2026-01-15 02:20:15.60	113.20	78.21	-21.1	-21.5	22.1	1.86e-04	0	44	0	2035286016	3	3754
2026-01-15 02:20:18.61	120.50	77.97	-21.4	-22.0	21.8	0.00e+00	0	44	0	2053111808	3	3885
2026-01-15 02:20:21.62	127.40	77.55	-21.2	-21.7	21.7	9.10e-06	0	44	0	2069889024	3	3828
2026-01-15 02:20:24.63	133.76	76.97	-21.3	-22.0	21.6	2.01e-04	0	44	0	2086666240	3	3886
2026-01-15 02:20:27.63	139.48	76.25	-21.2	-21.7	21.8	4.57e-05	0	44	0	2103443456	3	3811
2026-01-15 02:20:30.64	144.59	75.41	-21.2	-21.8	21.7	0.00e+00	0	44	0	2120220672	3	3842
2026-01-15 02:20:33.64	149.09	74.49	-21.6	-22.7	21.3	2.48e-04	0	44	0	2136997888	3	4053
2026-01-15 02:20:36.65	153.05	73.49	-21.8	-22.4	21.1	6.21e-04	0	44	0	2153775104	4	3888
2026-01-15 02:20:39.65	156.52	72.44	-22.1	-23.1	20.8	0.00e+00	0	44	0	2170552320	4	4042
2026-01-15 02:20:42.66	159.58	71.33	-22.2	-23.3	20.7	1.03e-04	0	44	0	2188378112	4	4086
2026-01-15 02:20:45.68	162.28	70.20	-21.9	-22.8	21.0	2.93e-04	0	44	0	2205155328	4	3960
2026-01-15 02:20:48.68	164.66	69.05	-22.4	-23.8	20.5	0.00e+00	0	44	0	2221932544	4	4205
2026-01-15 02:20:51.69	166.78	67.88	-22.4	-23.3	20.4	0.00e+00	0	44	0	2238709760	5	3983
2026-01-15 02:20:54.70	168.66	66.70	-22.3	-22.9	20.7	0.00e+00	0	44	0	2255486976	5	3883
2026-01-15 02:20:57.71	170.35	65.51	-22.6	-23.7	20.3	0.00e+00	0	44	0	2272264192	5	4066
2026-01-15 02:21:00.72	171.87	64.33	-22.6	-23.6	20.3	0.00e+00	0	44	0	2289041408	5	4039
2026-01-15 02:21:03.73	173.25	63.15	-22.6	-23.6	20.3	0.00e+00	0	44	0	2305818624	5	4053
2026-01-15 02:21:06.74	174.49	61.98	-22.9	-24.4	19.9	0.00e+00	0	44	0	2323644416	5	4239
2026-01-15 02:21:09.74	175.62	60.83	-23.2	-24.3	19.7	0.00e+00	0	44	0	2340421632	6	4096
2026-01-15 02:21:12.74	176.65	59.68	-23.4	-24.7	19.5	0.00e+00	0	44	0	2357198848	6	4212
2026-01-15 02:21:15.75	177.60	58.55	-24.0	-25.6	18.8	0.00e+00	0	44	0	2373976064	7	4317
2026-01-15 02:21:18.77	178.47	57.42	-23.6	-24.8	19.2	0.00e+00	0	44	0	2390753280	7	4115
2026-01-15 02:21:21.78	179.28	56.32	-23.9	-25.3	18.9	0.00e+00	0	44	0	2407530496	7	4239
2026-01-15 02:21:24.80	180.02	55.23	-24.1	-25.2	18.8	0.00e+00	0	44	0	2424307712	8	4090
2026-01-15 02:21:27.80	180.71	54.16	-24.1	-25.3	18.7	0.00e+00	0	44	0	2441084928	8	4137
2026-01-15 02:21:30.82	181.36	53.10	-24.2	-25.4	18.6	0.00e+00	0	44	0	2458910720	8	4141
2026-01-15 02:21:33.82	181.95	52.07	-23.9	-24.9	18.8	0.00e+00	0	44	0	2475687936	8	4035
2026-01-15 02:21:36.85	182.52	51.05	-23.4	-24.3	19.4	0.00e+00	0	44	0	2492465152	7	3982
2026-01-15 02:21:39.85	183.04	50.06	-23.6	-24.7	19.1	0.00e+00	0	43	0	2509242368	7	4106
2026-01-15 02:21:42.85	183.53	49.08	-23.5	-24.5	19.3	0.00e+00	0	44	0	2526019584	7	4034
2026-01-15 02:21:45.85	183.99	48.13	-23.0	-23.9	19.8	0.00e+00	0	44	0	2542796800	6	4005
2026-01-15 02:21:48.86	184.42	47.19	-22.9	-23.7	19.9	0.00e+00	0	44	0	2560622592	6	3958
2026-01-15 02:21:51.87	184.83	46.27	-23.0	-23.9	19.7	0.00e+00	0	44	0	2577399808	6	4009
2026-01-15 02:21:54.87	185.22	45.37	-22.9	-23.8	19.8	0.00e+00	0	44	0	2594177024	6	3970
2026-01-15 02:21:57.87	185.59	44.49	-23.0	-24.0	19.7	0.00e+00	0	44	0	2610954240	6	4035
2026-01-15 02:22:00.89	185.94	43.62	-22.8	-23.7	19.8	0.00e+00	0	44	0	2627731456	6	3954
2026-01-15 02:22:03.90	186.27	42.78	-22.7	-23.8	20.0	0.00e+00	0	44	0	2644508672	5	4098
2026-01-15 02:22:06.91	186.58	41.95	-22.8	-24.2	19.8	0.00e+00	0	44	0	2662334464	5	4194
2026-01-15 02:22:09.92	186.88	41.13	-22.8	-24.1	19.8	0.00e+00	0	44	0	2679111680	5	4173
2026-01-15 02:22:12.93	187.17	40.34	-22.9	-24.3	19.7	0.00e+00	0	44	0	2695888896	5	4223
2026-01-15 02:22:15.93	187.44	39.56	-22.7	-23.8	19.9	0.00e+00	0	44	0	2712666112	5	4096
2026-01-15 02:22:18.94	187.70	38.80	-22.6	-23.6	20.0	0.00e+00	0	44	0	2729443328	5	4054
2026-01-15 02:22:21.93	187.95	38.06	-22.5	-23.5	20.0	0.00e+00	0	44	0	2746220544	5	4041
2026-01-15 02:22:24.95	188.19	37.33	-22.6	-23.7	19.9	0.00e+00	0	44	0	2762997760	5	4083
2026-01-15 02:22:27.95	188.42	36.62	-22.5	-23.5	20.0	0.00e+00	0	44	0	2779774976	5	4026
2026-01-15 02:22:30.96	188.64	35.92	-22.7	-23.8	19.9	0.00e+00	0	44	0	2797600768	5	4101
2026-01-15 02:22:33.96	188.85	35.23	-23.0	-24.1	19.5	0.00e+00	0	44	0	2814377984	6	4081
2026-01-15 02:22:36.98	189.05	34.56	-23.1	-24.2	19.4	0.00e+00	0	44	0	2831155200	6	4097
2026-01-15 02:22:39.99	189.25	33.90	-23.0	-24.1	19.5	0.00e+00	0	44	0	2847932416	6	4065
2026-01-15 02:22:43.00	189.44	33.26	-22.8	-23.7	19.7	0.00e+00	0	44	0	2864709632	6	3956
2026-01-15 02:22:46.00	189.62	32.63	-22.8	-23.5	19.7	0.00e+00	0	44	0	2881486848	6	3921
2026-01-15 02:22:49.00	189.79	32.01	-23.0	-23.9	19.5	0.00e+00	0	44	0	2898264064	6	4016
2026-01-15 02:22:52.01	189.96	31.41	-23.1	-24.2	19.4	0.00e+00	0	44	0	2915041280	6	4081
2026-01-15 02:22:55.01	190.12	30.81	-23.2	-24.4	19.3	0.00e+00	0	44	0	2932867072	6	4134
2026-01-15 02:22:58.01	190.28	30.23	-23.2	-24.5	19.2	0.00e+00	0	44	0	2949644288	6	4161
2026-01-15 02:23:01.01	190.43	29.66	-23.2	-24.4	19.3	0.00e+00	0	44	0	2966421504	6	4136
2026-01-15 02:23:04.02	190.58	29.10	-23.1	-24.3	19.3	0.00e+00	0	44	0	2983198720	6	4105
2026-01-15 02:23:07.02	190.72	28.56	-23.2	-24.4	19.2	0.00e+00	0	44	0	2999975936	6	4142
2026-01-15 02:23:10.03	190.86	28.02	-23.4	-24.8	19.0	0.00e+00	0	44	0	3016753152	6	4237
2026-01-15 02:23:13.04	191.00	27.49	-23.6	-24.7	18.8	0.00e+00	0	44	0	3033530368	7	4104
2026-01-15 02:23:16.06	191.13	26.97	-23.4	-24.3	19.0	0.00e+00	0	44	0	3050307584	7	4014
2026-01-15 02:23:19.06	191.25	26.46	-23.3	-24.1	19.2	0.00e+00	0	44	0	3068133376	7	3945
2026-01-15 02:23:22.06	191.38	25.96	-23.1	-24.1	19.4	0.00e+00	0	44	0	3084910592	6	4071
2026-01-15 02:23:25.06	191.50	25.47	-23.2	-24.3	19.2	0.00e+00	0	44	0	3101687808	6	4125
2026-01-15 02:23:28.08	191.61	24.99	-23.5	-24.6	18.9	0.00e+00	0	44	0	3118465024	7	4068
2026-01-15 02:23:31.09	191.72	24.52	-23.6	-24.7	18.8	0.00e+00	0	44	0	3135242240	7	4108
2026-01-15 02:23:34.10	191.84	24.05	-23.6	-24.7	13.5	0.00e+00	0	44	0	3152019456	7	4116
2026-01-15 02:23:37.12	191.94	23.59	-23.6	-24.9	18.7	0.00e+00	0	44	0	3168796672	7	4153
2026-01-15 02:23:40.12	192.05	23.14	-23.6	-24.8	18.7	0.00e+00	0	44	0	3185573888	7	4120
2026-01-15 02:23:43.13	192.15	22.70	-23.8	-25.2	18.5	1.06e-03	0	44	0	3203399680	7	4221
2026-01-15 02:23:46.13	192.25	22.27	-23.5	-24.5	18.8	0.00e+00	0	44	0	3220176896	7	4057
2026-01-15 02:23:49.15	192.34	21.84	-23.6	-24.7	18.7	0.00e+00	0	44	0	3236954112	7	4094
2026-01-15 02:23:52.15	192.44	21.42	-23.7	-24.9	18.6	9.25e-04	0	44	0	3253731328	7	4156
2026-01-15 02:23:55.17	192.53	21.01	-23.8	-25.2	18.5	8.39e-04	0	44	0	3270508544	7	4236
2026-01-15 02:23:58.17	192.62	20.60	-23.9	-25.3	18.4	7.72e-04	0	44	0	3287285760	7	4263
2026-01-15 02:24:01.18	192.71	20.20	-24.1	-25.3	18.2	7.90e-04	0	44	0	3304062976	8	4147
2026-01-15 02:24:04.18	192.79	19.81	-24.2	-25.5	18.0	6.92e-04	0	44	0	3320840192	8	4194
2026-01-15 02:24:07.19	192.88	19.42	-24.4	-26.0	17.8	5.22e-04	0	44	0	3338665984	8	4334
2026-01-15 02:24:10.20	192.96	19.04	-24.4	-26.1	17.7	0.00e+00	0	44	0	3355443200	8	4349
2026-01-15 02:24:13.21	193.04	18.66	-24.6	-25.8	17.6	3.60e-04	0	44	0	3372220416	9	4169
2026-01-15 02:24:16.22	193.12	18.29	-24.8	-26.4	17.3	3.19e-04	0	44	0	3388997632	9	4310
2026-01-15 02:24:19.22	193.20	17.93	-24.9	-26.5	17.2	0.00e+00	0	44	0	3405774848	9	4345
2026-01-15 02:24:22.23	193.27	17.57	-25.4	-27.2	16.6	0.00e+00	0	44	0	3422552064	10	4419
2026-01-15 02:24:25.24	193.35	17.22	-25.4	-27.2	16.6	3.44e-04	0	44	0	3439329280	10	4408
2026-01-15 02:24:28.25	193.42	16.87	-25.7	-27.3	16.3	4.36e-04	0	44	0	3456106496	11	4318
2026-01-15 02:24:31.25	193.49	16.52	-25.5	-26.8	16.5	0.00e+00	0	44	0	3473932288	11	4193
2026-01-15 02:24:34.27	193.56	16.18	-25.4	-26.7	16.6	0.00e+00	0	44	0	3490709504	11	4165
2026-01-15 02:24:37.29	193.63	15.85	-25.3	-26.5	16.7	0.00e+00	0	44	0	3507486720	11	4104
2026-01-15 02:24:40.29	193.70	15.52	-25.3	-26.5	16.7	0.00e+00	0	44	0	3524263936	11	4102
2026-01-15 02:24:43.31	193.76	15.19	-25.4	-26.7	16.5	0.00e+00	0	44	0	3541041152	11	4171
2026-01-15 02:24:46.31	193.83	14.87	-25.5	-26.8	16.5	0.00e+00	0	44	0	3558866944	11	4179
2026-01-15 02:24:49.33	193.89	14.55	-25.4	-27.2	16.5	0.00e+00	0	44	0	3575644160	10	4407
2026-01-15 02:24:52.34	193.95	14.24	-25.4	-26.6	16.5	0.00e+00	0	44	0	3592421376	11	4143
2026-01-15 02:24:55.35	194.01	13.93	-25.5	-27.2	16.4	0.00e+00	0	44	0	3609198592	10	4425
2026-01-15 02:24:58.35	194.07	13.62	-25.7	-27.3	16.1	0.00e+00	0	44	0	3625975808	11	4328
2026-01-15 02:25:01.36	194.13	13.32	-25.5	-26.9	16.4	0.00e+00	0	44	0	3642753024	11	4205
2026-01-15 02:25:04.37	194.19	13.02	-25.6	-27.0	16.3	0.00e+00	0	44	0	3659530240	11	4236
2026-01-15 02:25:07.38	194.25	12.73	-25.6	-27.1	16.2	0.00e+00	0	44	0	3677356032	11	4283
2026-01-15 02:25:10.39	194.30	12.44	-25.7	-27.2	16.1	0.00e+00	0	44	0	3694133248	11	4300
2026-01-15 02:25:13.40	194.36	12.15	-25.8	-27.5	16.0	0.00e+00	0	44	0	3710910464	11	4373
2026-01-15 02:25:16.40	194.41	11.86	-25.8	-27.5	15.9	0.00e+00	0	44	0	3727687680	11	4390
2026-01-15 02:25:19.41	194.47	11.58	-25.9	-27.7	15.8	0.00e+00	0	44	0	3744464896	11	4446
2026-01-15 02:25:22.42	194.52	11.30	-25.9	-27.8	15.8	1.18e-03	0	44	0	3761242112	11	4450
2026-01-15 02:25:25.42	194.57	11.03	-26.1	-27.7	15.4	0.00e+00	0	44	0	3778019328	12	4340
2026-01-15 02:25:28.43	194.62	10.76	-26.1	-27.6	15.4	0.00e+00	0	44	0	3794796544	12	4312
2026-01-15 02:25:31.44	194.67	10.49	-26.1	-27.8	15.3	0.00e+00	0	44	0	3812622336	12	4367
2026-01-15 02:25:34.45	194.72	10.22	-26.3	-28.2	15.1	1.06e-03	0	44	0	3829399552	12	4476
2026-01-15 02:25:37.46	194.77	9.96	-26.7	-28.6	14.6	1.10e-06	0	44	0	3846176768	13	4473
2026-01-15 02:25:40.47	194.82	9.70	-26.7	-28.5	14.6	1.03e-03	0	44	0	3862953984	13	4456
2026-01-15 02:25:43.47	194.87	9.44	-26.7	-28.6	14.5	9.31e-04	0	44	0	3879731200	13	4484
2026-01-15 02:25:46.49	194.91	9.19	-26.6	-28.3	14.6	1.02e-03	0	44	0	3896508416	13	4406
2026-01-15 02:25:49.50	194.96	8.94	-26.5	-28.2	14.7	1.25e-05	0	44	0	3913285632	13	4354
2026-01-15 02:25:52.52	195.00	8.68	-26.7	-28.6	14.5	9.29e-04	0	44	0	3931111424	13	4467
2026-01-15 02:25:55.54	195.05	8.44	-26.8	-28.4	14.3	1.04e-03	0	44	0	3947888640	14	4304
2026-01-15 02:25:58.55	195.09	8.19	-27.1	-28.9	13.9	2.20e-06	0	44	0	3964665856	14	4470
2026-01-15 02:26:01.55	195.14	7.95	-27.2	-29.3	13.7	2.20e-06	0	44	0	3981443072	14	4589
2026-01-15 02:26:04.55	195.18	7.71	-27.4	-29.8	13.4	1.08e-03	0	44	0	3998220288	14	4719
2026-01-15 02:26:07.56	195.22	7.47	-27.7	-30.0	13.0	2.40e-05	0	44	0	4014997504	15	4673
2026-01-15 02:26:10.58	195.27	7.24	-27.7	-30.0	13.0	3.54e-05	0	44	0	4032823296	15	4669
2026-01-15 02:26:13.59	195.31	7.00	-33.3	-44.6	3.8	8.46e-01	0	44	104	4042260480	26	13261

#Closed at: 2026-01-15 02:26:16
#Recorded file [4042 MB]: D:/data/31010_260115_051413.dat