passes_logs/2026/01/15/R2M6_AANII_01/R2M6_AANII_01__20260115_025553_SUOMI_NPP_rec.log

#Pass ID: 20260115_025553_SUOMI NPP
#Satellite: SUOMI NPP
#Configuration: NPP
#almurnet v.1.7.20240730
#Start time: 2026-01-15 02:55:53

#Version: 2.2.20231116
#Station: R2M6_AANII_01
#Location: 30.233357 lon 59.946436 lat
#TLE: 1 37849U 11061A   26014.11719687  .00000048  00000+0  43625-4 0  9998
#TLE: 2 37849  98.7809 316.1734 0002474  65.2440 294.8994 14.19525043736585

#Time	Az	El	Level	Level2	SNR	BER	BlckErr	Temp	State	Recorded	gain1	gain2
2026-01-15 02:55:53.88	8.58	7.04	-32.9	-41.9	3.9	1.48e+00	0	41	0	0	26	10081
2026-01-15 02:55:56.88	8.24	7.21	-32.8	-40.6	4.8	7.48e-01	0	41	0	1048576	25	8878
2026-01-15 02:55:59.88	7.89	7.37	-32.8	-40.3	4.9	7.24e-01	0	41	0	7340032	25	8633
2026-01-15 02:56:02.89	7.54	7.54	-32.5	-38.3	6.1	4.21e-01	0	41	0	12582912	25	7062
2026-01-15 02:56:05.90	7.19	7.70	-31.8	-36.2	8.5	5.95e-02	0	41	0	17825792	23	5916
2026-01-15 02:56:08.91	6.83	7.87	-31.5	-34.8	9.6	1.57e-02	0	42	0	24117248	23	5258
2026-01-15 02:56:11.92	6.47	8.04	-31.5	-34.8	9.6	1.35e-02	0	42	0	29360128	23	5276
2026-01-15 02:56:14.93	6.10	8.20	-31.5	-34.7	9.7	1.28e-02	0	42	0	35651584	23	5213
2026-01-15 02:56:17.95	5.73	8.37	-31.5	-34.8	9.6	1.16e-02	0	42	0	40894464	23	5293
2026-01-15 02:56:20.97	5.35	8.54	-31.5	-34.9	9.5	1.01e-02	0	42	0	46137344	23	5328
2026-01-15 02:56:23.97	4.97	8.70	-31.4	-34.5	9.9	1.10e-02	0	42	0	52428800	23	5139
2026-01-15 02:56:26.96	4.59	8.87	-31.4	-34.7	10.2	6.97e-03	0	42	0	57671680	22	5283
2026-01-15 02:56:29.97	4.20	9.03	-31.3	-34.4	10.4	4.01e-03	0	42	0	62914560	22	5187
2026-01-15 02:56:32.99	3.81	9.20	-31.2	-34.3	10.5	4.77e-03	0	42	0	69206016	22	5128
2026-01-15 02:56:36.01	3.41	9.36	-31.4	-34.8	10.1	4.81e-03	0	42	0	74448896	22	5322
2026-01-15 02:56:39.02	3.01	9.53	-31.4	-34.7	10.2	6.47e-03	0	43	0	80740352	22	5286
2026-01-15 02:56:42.03	2.60	9.69	-31.4	-34.8	10.2	5.04e-03	0	42	0	85983232	22	5344
2026-01-15 02:56:45.05	2.19	9.86	-31.3	-34.3	10.5	5.66e-03	0	42	0	91226112	22	5120
2026-01-15 02:56:48.05	1.77	10.02	-31.2	-34.2	10.7	3.31e-03	0	43	0	97517568	22	5059
2026-01-15 02:56:51.06	1.35	10.18	-31.3	-34.5	10.5	3.23e-03	0	42	0	102760448	22	5192
2026-01-15 02:56:54.06	0.92	10.35	-31.4	-34.7	10.3	4.33e-03	0	43	0	109051904	22	5281
2026-01-15 02:56:57.07	0.49	10.51	-31.3	-34.3	10.6	3.40e-03	0	43	0	114294784	22	5098
2026-01-15 02:57:00.09	0.05	10.67	-31.3	-34.6	10.4	3.28e-03	0	42	0	119537664	22	5233
2026-01-15 02:57:03.09	359.61	10.83	-31.4	-34.8	10.2	5.68e-03	0	43	0	125829120	22	5314
2026-01-15 02:57:06.10	359.17	10.99	-31.4	-34.7	10.3	5.25e-03	0	43	0	131072000	22	5279
2026-01-15 02:57:09.11	358.72	11.15	-31.5	-35.0	10.1	6.12e-03	0	43	0	136314880	22	5385
2026-01-15 02:57:12.12	358.26	11.31	-31.7	-35.3	9.6	1.50e-02	0	43	0	142606336	23	5430
2026-01-15 02:57:15.13	357.80	11.47	-31.7	-35.3	9.6	1.51e-02	0	43	0	147849216	23	5452
2026-01-15 02:57:18.14	357.33	11.63	-31.4	-34.7	10.4	6.88e-03	0	43	0	154140672	22	5266
2026-01-15 02:57:21.15	356.86	11.79	-31.4	-34.8	10.4	4.44e-03	0	43	0	159383552	22	5298
2026-01-15 02:57:24.16	356.38	11.94	-31.4	-34.6	10.5	4.87e-03	0	43	0	164626432	22	5226
2026-01-15 02:57:27.16	355.90	12.10	-30.5	-33.6	10.7	2.32e-03	0	43	0	170917888	22	5119
2026-01-15 02:57:30.18	355.41	12.25	-31.3	-34.2	10.6	5.58e-03	0	43	0	176160768	22	5053
2026-01-15 02:57:33.18	354.92	12.40	-31.2	-34.0	10.9	3.99e-03	0	43	0	182452224	22	4979
2026-01-15 02:57:36.19	354.43	12.56	-30.6	-32.8	12.0	2.27e-03	0	43	0	187695104	21	4630
2026-01-15 02:57:39.19	353.93	12.71	-30.5	-32.5	12.4	1.98e-03	0	43	0	192937984	21	4517
2026-01-15 02:57:42.20	353.42	12.86	-30.6	-32.8	12.1	2.19e-03	0	43	0	199229440	21	4624
2026-01-15 02:57:45.21	352.90	13.00	-30.4	-32.8	12.5	1.91e-03	0	43	0	204472320	20	4707
2026-01-15 02:57:48.21	352.39	13.15	-30.7	-32.9	12.1	1.66e-03	0	43	0	209715200	21	4648
2026-01-15 02:57:51.22	351.86	13.29	-30.6	-32.6	12.3	1.13e-03	0	43	0	216006656	21	4550
2026-01-15 02:57:54.23	351.33	13.44	-30.6	-32.6	12.3	1.21e-03	0	43	0	221249536	21	4549
2026-01-15 02:57:57.25	350.80	13.58	-30.8	-33.4	11.8	2.12e-03	0	43	0	227540992	21	4825
2026-01-15 02:58:00.25	350.26	13.72	-30.9	-33.7	11.5	2.97e-03	0	43	0	232783872	21	4944
2026-01-15 02:58:03.26	349.72	13.86	-30.9	-33.4	11.8	8.54e-04	0	43	0	238026752	21	4851
2026-01-15 02:58:06.27	349.17	13.99	-30.4	-32.6	12.6	2.30e-04	0	43	0	244318208	20	4639
2026-01-15 02:58:09.29	348.61	14.13	-30.2	-31.9	13.2	1.92e-04	0	43	0	249561088	20	4398
2026-01-15 02:58:12.30	348.05	14.26	-29.8	-31.3	13.9	1.59e-04	0	43	0	254803968	19	4287
2026-01-15 02:58:15.31	347.48	14.39	-30.0	-31.8	13.6	9.00e-04	0	43	0	261095424	19	4446
2026-01-15 02:58:18.33	346.91	14.52	-30.4	-32.4	12.9	7.00e-04	0	43	0	266338304	20	4570
2026-01-15 02:58:21.35	346.33	14.65	-30.2	-32.1	13.0	1.62e-04	0	43	0	272629760	20	4452
2026-01-15 02:58:24.35	345.76	14.77	-30.3	-32.2	13.0	1.95e-04	0	43	0	277872640	20	4486
2026-01-15 02:58:27.37	345.17	14.89	-30.2	-31.9	13.2	1.91e-04	0	43	0	283115520	20	4405
2026-01-15 02:58:30.39	344.58	15.01	-30.3	-32.3	13.0	1.99e-04	0	43	0	289406976	20	4509
2026-01-15 02:58:33.40	343.98	15.13	-30.5	-32.4	12.6	9.00e-05	0	44	0	294649856	21	4451
2026-01-15 02:58:36.40	343.39	15.25	-30.5	-32.3	12.7	7.32e-05	0	43	0	300941312	21	4417
2026-01-15 02:58:39.39	342.79	15.36	-30.0	-31.3	13.7	5.30e-06	0	43	0	306184192	20	4197
2026-01-15 02:58:42.40	342.18	15.46	-30.4	-32.6	12.8	8.31e-05	0	43	0	311427072	20	4617
2026-01-15 02:58:45.41	341.56	15.57	-29.2	-31.0	13.0	1.54e-04	0	43	0	317718528	20	4379
2026-01-15 02:58:48.42	340.95	15.67	-30.0	-31.4	12.4	1.46e-04	0	43	0	322961408	20	4230
2026-01-15 02:58:51.43	340.32	15.77	-30.1	-31.6	13.4	8.30e-06	0	43	0	328204288	20	4288
2026-01-15 02:58:54.44	339.70	15.87	-30.0	-31.4	13.6	9.10e-06	0	44	0	334495744	20	4237
2026-01-15 02:58:57.46	339.07	15.97	-29.6	-30.7	14.4	7.00e-07	0	43	0	339738624	19	4099
2026-01-15 02:59:00.47	338.43	16.06	-29.8	-31.3	14.1	2.46e-03	0	44	0	346030080	19	4277
2026-01-15 02:59:03.48	337.80	16.14	-29.7	-31.0	14.3	2.37e-03	0	43	0	351272960	19	4172
2026-01-15 02:59:06.50	337.15	16.23	-29.7	-31.0	14.4	2.11e-03	0	44	0	356515840	19	4167
2026-01-15 02:59:09.51	336.51	16.31	-30.2	-31.8	13.4	8.30e-06	0	43	0	362807296	20	4342
2026-01-15 02:59:12.52	335.86	16.39	-30.0	-31.2	13.7	8.30e-06	0	43	0	368050176	20	4164
2026-01-15 02:59:15.54	335.20	16.46	-30.1	-31.5	13.1	4.50e-05	0	43	0	374341632	20	4248
2026-01-15 02:59:18.54	334.55	16.53	-30.4	-32.4	13.0	2.55e-03	0	43	0	379584512	20	4529
2026-01-15 02:59:21.56	333.89	16.60	-30.3	-32.2	13.1	2.43e-03	0	43	0	384827392	20	4477
2026-01-15 02:59:24.56	333.23	16.66	-30.3	-32.0	13.2	2.23e-03	0	43	0	391118848	20	4418
2026-01-15 02:59:27.57	332.57	16.72	-30.1	-31.5	13.6	2.50e-03	0	43	0	396361728	20	4250
2026-01-15 02:59:30.59	331.90	16.78	-30.1	-31.6	13.5	2.48e-03	0	43	0	402653184	20	4275
2026-01-15 02:59:33.60	331.23	16.83	-30.0	-31.2	13.7	3.94e-04	0	43	0	407896064	20	4162
2026-01-15 02:59:36.60	330.56	16.87	-29.7	-31.1	14.2	2.41e-03	0	44	0	413138944	19	4208
2026-01-15 02:59:39.61	329.89	16.92	-30.0	-31.5	13.5	2.45e-03	0	43	0	419430400	20	4261
2026-01-15 02:59:42.62	329.21	16.96	-30.2	-31.9	13.2	2.24e-03	0	43	0	424673280	20	4396
2026-01-15 02:59:45.63	328.54	16.99	-30.4	-32.4	12.9	2.62e-03	0	44	0	429916160	20	4566
2026-01-15 02:59:48.64	327.86	17.02	-30.8	-33.3	12.0	2.93e-03	0	44	0	436207616	21	4774
2026-01-15 02:59:51.64	327.18	17.05	-30.8	-33.2	12.0	5.21e-04	0	44	0	441450496	21	4743
2026-01-15 02:59:54.65	326.50	17.08	-30.7	-32.8	12.3	5.54e-04	0	43	0	447741952	21	4617
2026-01-15 02:59:57.66	325.82	17.10	-30.3	-32.4	12.9	3.49e-04	0	43	0	452984832	20	4551
2026-01-15 03:00:00.67	325.14	17.11	-30.3	-32.3	13.0	4.27e-05	0	44	0	458227712	20	4535
2026-01-15 03:00:03.67	324.45	17.12	-30.2	-32.0	13.0	2.47e-03	0	44	0	464519168	20	4434
2026-01-15 03:00:06.68	323.77	17.13	-29.9	-31.1	13.8	1.48e-03	0	43	0	469762048	20	4128
2026-01-15 03:00:09.68	323.09	17.13	-30.0	-31.4	13.6	4.14e-04	0	44	0	475004928	20	4241
2026-01-15 03:00:12.70	322.40	17.13	-30.6	-32.7	12.4	2.44e-04	0	44	0	481296384	21	4550
2026-01-15 03:00:15.71	321.72	17.12	-30.6	-32.5	12.5	1.57e-04	0	44	0	486539264	21	4479
2026-01-15 03:00:18.72	321.03	17.11	-30.2	-32.0	13.2	3.28e-05	0	43	0	492830720	20	4427
2026-01-15 03:00:21.72	320.35	17.10	-29.9	-31.6	13.9	3.80e-06	0	44	0	498073600	19	4369
2026-01-15 03:00:24.73	319.67	17.08	-30.2	-31.9	13.2	2.13e-05	0	44	0	503316480	20	4383
2026-01-15 03:00:27.74	318.99	17.06	-30.8	-33.3	11.7	2.97e-04	0	43	0	509607936	21	4770
2026-01-15 03:00:30.75	318.31	17.03	-31.0	-33.2	11.7	7.15e-04	0	44	0	514850816	22	4662
2026-01-15 03:00:33.75	317.63	17.00	-30.6	-32.6	12.4	2.23e-04	0	43	0	520093696	21	4541
2026-01-15 03:00:36.76	316.96	16.97	-30.1	-31.9	13.2	2.97e-05	0	44	0	526385152	20	4397
2026-01-15 03:00:39.77	316.28	16.93	-30.2	-32.0	13.2	3.66e-05	0	44	0	531628032	20	4427
2026-01-15 03:00:42.78	315.60	16.89	-30.2	-32.1	13.1	2.36e-05	0	44	0	537919488	20	4438
2026-01-15 03:00:45.79	314.93	16.84	-30.3	-32.2	13.0	4.40e-04	0	44	0	543162368	20	4486
2026-01-15 03:00:48.80	314.26	16.79	-30.5	-32.7	12.7	2.62e-04	0	43	0	548405248	20	4635
2026-01-15 03:00:51.81	313.59	16.74	-29.7	-31.1	14.1	1.65e-04	0	44	0	554696704	19	4236
2026-01-15 03:00:54.82	312.93	16.68	-29.4	-30.7	14.7	5.68e-04	0	44	0	559939584	18	4198
2026-01-15 03:00:57.83	312.27	16.62	-29.5	-30.6	14.5	0.00e+00	0	44	0	566231040	19	4063
2026-01-15 03:01:00.84	311.61	16.55	-29.7	-31.0	14.2	1.50e-06	0	44	0	571473920	19	4173
2026-01-15 03:01:03.85	310.95	16.48	-29.9	-31.1	13.7	6.02e-05	0	43	0	576716800	20	4144
2026-01-15 03:01:06.85	310.30	16.41	-30.3	-32.2	13.1	2.27e-04	0	44	0	583008256	20	4474
2026-01-15 03:01:09.86	309.65	16.33	-30.2	-31.8	13.2	1.94e-04	0	44	0	588251136	20	4374
2026-01-15 03:01:12.87	309.00	16.25	-30.1	-31.6	13.5	1.44e-05	0	44	0	593494016	20	4277
2026-01-15 03:01:15.88	308.36	16.17	-29.9	-31.2	13.7	2.20e-06	0	44	0	599785472	20	4156
2026-01-15 03:01:18.89	307.72	16.08	-29.9	-31.2	13.6	2.20e-06	0	44	0	605028352	20	4183
2026-01-15 03:01:21.89	307.08	15.99	-29.9	-31.5	13.9	1.71e-04	0	44	0	611319808	19	4349
2026-01-15 03:01:24.89	306.45	15.90	-29.9	-31.2	13.7	1.36e-04	0	44	0	616562688	20	4163
2026-01-15 03:01:27.91	305.82	15.80	-30.0	-31.6	13.3	1.14e-05	0	44	0	621805568	20	4286
2026-01-15 03:01:30.91	305.20	15.71	-30.2	-32.0	13.0	3.20e-05	0	44	0	628097024	20	4420
2026-01-15 03:01:33.92	304.58	15.60	-30.4	-32.6	12.6	6.56e-05	0	44	0	633339904	20	4647
2026-01-15 03:01:36.93	303.96	15.50	-30.6	-32.8	12.2	2.22e-04	0	44	0	638582784	21	4604
2026-01-15 03:01:39.94	303.35	15.39	-30.5	-32.5	12.4	1.33e-04	0	44	0	644874240	21	4493
2026-01-15 03:01:42.94	302.75	15.28	-30.5	-32.4	12.4	1.43e-04	0	44	0	650117120	21	4464
2026-01-15 03:01:45.95	302.15	15.17	-30.5	-32.8	12.5	1.16e-04	0	44	0	656408576	20	4698
2026-01-15 03:01:48.97	301.55	15.05	-30.7	-33.0	12.0	3.58e-04	0	44	0	661651456	21	4682
2026-01-15 03:01:51.98	300.95	14.93	-29.9	-31.2	13.5	2.82e-05	0	44	0	666894336	20	4183
2026-01-15 03:01:54.99	300.36	14.81	-30.0	-31.5	13.4	1.50e-06	0	44	0	673185792	20	4271
2026-01-15 03:01:57.99	299.78	14.69	-29.9	-31.1	13.6	1.37e-05	0	44	0	678428672	20	4154
2026-01-15 03:02:01.00	299.21	14.56	-29.8	-30.9	13.7	8.30e-06	0	44	0	683671552	20	4103
2026-01-15 03:02:04.00	298.63	14.43	-30.3	-32.2	12.8	3.20e-05	0	43	0	689963008	20	4526
2026-01-15 03:02:07.02	298.06	14.30	-30.7	-33.0	11.9	3.13e-04	0	44	0	695205888	21	4686
2026-01-15 03:02:10.03	297.50	14.17	-30.5	-32.6	12.2	2.16e-04	0	44	0	701497344	21	4568
2026-01-15 03:02:13.04	296.94	14.04	-30.8	-33.2	11.8	4.19e-04	0	43	0	706740224	21	4765
2026-01-15 03:02:16.06	296.39	13.90	-30.5	-32.5	12.3	1.88e-04	0	44	0	711983104	21	4525
2026-01-15 03:02:19.06	295.84	13.76	-30.5	-33.0	12.0	2.07e-04	0	44	0	718274560	20	4785
2026-01-15 03:02:22.07	295.30	13.62	-30.3	-32.4	12.4	5.79e-05	0	44	0	723517440	20	4573
2026-01-15 03:02:25.08	294.76	13.48	-30.5	-32.6	12.1	1.72e-04	0	44	0	728760320	21	4553
2026-01-15 03:02:28.10	294.23	13.34	-30.5	-32.9	12.2	1.81e-04	0	44	0	735051776	20	4782
2026-01-15 03:02:31.11	293.70	13.19	-30.2	-32.3	12.6	1.93e-04	0	44	0	740294656	20	4542
2026-01-15 03:02:34.11	293.18	13.05	-29.9	-31.3	13.2	9.58e-04	0	44	0	746586112	20	4220
2026-01-15 03:02:37.11	292.66	12.90	-30.3	-32.4	12.5	1.26e-03	0	44	0	751828992	20	4585
2026-01-15 03:02:40.11	292.15	12.75	-30.4	-32.3	12.1	2.43e-04	0	44	0	757071872	21	4498
2026-01-15 03:02:43.12	291.65	12.60	-30.5	-32.7	11.9	3.89e-04	0	44	0	763363328	21	4594
2026-01-15 03:02:46.13	291.15	12.45	-30.3	-32.5	12.4	1.57e-04	0	44	0	768606208	20	4628
2026-01-15 03:02:49.14	290.65	12.30	-30.7	-33.3	11.4	5.36e-04	0	44	0	774897664	21	4859
2026-01-15 03:02:52.16	290.16	12.14	-31.6	-35.2	9.3	1.54e-02	0	44	0	780140544	23	5490
2026-01-15 03:02:55.17	289.67	11.99	-32.0	-36.9	8.0	6.92e-02	0	44	0	785383424	23	6361
2026-01-15 03:02:58.18	289.19	11.83	-31.9	-36.4	8.4	3.88e-02	0	44	0	791674880	23	6069
2026-01-15 03:03:01.19	288.72	11.67	-31.5	-34.8	9.5	2.21e-02	0	44	0	796917760	23	5302
2026-01-15 03:03:04.20	288.25	11.51	-31.2	-34.5	10.2	7.41e-03	0	44	0	802160640	22	5228
2026-01-15 03:03:07.21	287.78	11.36	-30.8	-33.6	11.1	1.96e-03	0	44	0	808452096	21	4978
2026-01-15 03:03:10.21	287.32	11.20	-30.8	-33.6	11.2	2.21e-03	0	44	0	813694976	21	4955
2026-01-15 03:03:13.22	286.87	11.04	-31.0	-34.2	10.7	3.43e-03	0	44	0	819986432	21	5220
2026-01-15 03:03:16.22	286.42	10.88	-31.0	-33.7	10.6	6.18e-03	0	44	0	825229312	22	4932
2026-01-15 03:03:19.24	285.97	10.71	-30.7	-33.4	11.2	3.96e-03	0	44	0	830472192	21	4898
2026-01-15 03:03:22.25	285.53	10.55	-30.0	-32.6	10.9	4.21e-03	0	44	0	836763648	21	4876
2026-01-15 03:03:25.25	285.10	10.39	-30.6	-32.8	11.1	6.65e-04	0	44	0	842006528	21	4687
2026-01-15 03:03:28.26	284.67	10.23	-30.8	-33.8	10.8	1.77e-03	0	44	0	847249408	21	5051
2026-01-15 03:03:31.28	284.24	10.06	-30.7	-33.6	11.1	2.00e-03	0	43	0	853540864	21	4976
2026-01-15 03:03:34.28	283.83	9.90	-30.8	-33.8	10.9	5.24e-03	0	44	0	858783744	21	5056
2026-01-15 03:03:37.29	283.41	9.73	-30.8	-33.7	11.0	5.40e-03	0	44	0	865075200	21	5006
2026-01-15 03:03:40.31	283.00	9.57	-30.7	-33.4	11.1	5.36e-03	0	44	0	870318080	21	4925
2026-01-15 03:03:43.32	282.59	9.40	-30.6	-33.2	11.2	2.05e-03	0	43	0	875560960	21	4836
2026-01-15 03:03:46.33	282.19	9.24	-30.2	-32.5	12.1	3.58e-04	0	44	0	881852416	20	4663
2026-01-15 03:03:49.33	281.79	9.07	-29.9	-31.9	12.8	2.02e-03	0	44	0	887095296	19	4557
2026-01-15 03:03:52.32	281.40	8.91	-29.8	-31.8	12.9	1.31e-03	0	44	0	892338176	19	4522
2026-01-15 03:03:55.41	281.01	8.74	-30.0	-31.9	12.5	1.66e-03	0	44	0	898629632	20	4455
2026-01-15 03:03:58.26	280.64	8.58	-30.0	-31.9	12.4	1.83e-04	0	44	0	903872512	20	4475
2026-01-15 03:04:01.41	280.25	8.41	-29.9	-32.0	12.7	1.17e-04	0	44	0	910163968	19	4573
2026-01-15 03:04:04.28	279.89	8.25	-29.9	-32.0	12.7	6.02e-05	0	44	0	915406848	19	4569
2026-01-15 03:04:07.43	279.50	8.07	-29.9	-31.7	12.5	2.14e-03	0	44	0	920649728	20	4405
2026-01-15 03:04:10.29	279.15	7.92	-30.1	-32.1	12.1	1.80e-03	0	43	0	925892608	20	4551
2026-01-15 03:04:13.44	278.78	7.74	-30.4	-33.0	11.0	1.26e-03	0	44	0	932184064	20	4888
2026-01-15 03:04:16.32	278.43	7.58	-30.3	-32.9	11.6	8.89e-04	0	43	0	937426944	20	4854
2026-01-15 03:04:19.48	278.06	7.41	-30.4	-33.2	11.4	4.12e-03	0	44	0	943718400	20	4956
2026-01-15 03:04:22.33	277.73	7.25	-30.6	-33.4	10.7	1.62e-03	0	44	0	948961280	21	4986
2026-01-15 03:04:25.48	277.37	7.08	-32.8	-43.7	4.1	2.69e-03	0	43	0	955252736	25	12592

#Closed at: 2026-01-15 03:04:28
#Recorded file [955 MB]: D:/data/31010_260115_055555.dat