passes_logs/2026/01/15/R2M6_AANII_01/R2M6_AANII_01__20260115_035904_FENGYUN_3E_rec.log

#Pass ID: 20260115_035904_FENGYUN 3E
#Satellite: FENGYUN 3E
#Configuration: FENGYUN 3E
#almurnet v.1.7.20240730
#Start time: 2026-01-15 04:05:32

#Version: 2.2.20231116
#Station: R2M6_AANII_01
#Location: 30.233357 lon 59.946436 lat
#TLE: 1 49008U 21062A   26014.30102361 -.00000015  00000+0  13743-4 0  9999
#TLE: 2 49008  98.7489  19.4380 0001989 137.7844 222.3486 14.19884630234745

#Time	Az	El	Level	Level2	SNR	BER	BlckErr	Temp	State	Recorded	gain1	gain2
2026-01-15 04:05:32.70	123.60	51.99	-34.0	-45.1	3.8	8.47e-01	0	43	0	0	28	12877
2026-01-15 04:05:34.70	124.86	51.72	-34.5	-44.4	3.8	8.46e-01	0	44	104	0	28	11248
2026-01-15 04:05:36.71	126.10	51.44	-34.5	-44.4	3.8	8.48e-01	0	44	104	0	28	11261
2026-01-15 04:05:38.71	127.31	51.14	-34.5	-44.4	3.8	8.46e-01	0	44	104	0	28	11288
2026-01-15 04:05:40.72	128.51	50.83	-34.5	-44.3	3.8	8.46e-01	0	44	104	0	28	11209
2026-01-15 04:05:42.72	129.67	50.52	-34.4	-44.3	3.8	8.45e-01	0	44	104	0	28	11163
2026-01-15 04:05:44.72	130.81	50.19	-34.4	-44.3	3.8	8.45e-01	0	44	104	0	28	11183
2026-01-15 04:05:46.72	131.93	49.86	-34.4	-44.2	3.8	8.45e-01	0	44	104	0	28	11142
2026-01-15 04:05:48.73	133.02	49.51	-34.4	-44.3	3.8	8.46e-01	0	44	104	0	28	11189
2026-01-15 04:05:50.74	134.10	49.16	-34.4	-44.3	3.8	8.47e-01	0	44	104	0	28	11162
2026-01-15 04:05:52.75	135.14	48.80	-34.4	-44.2	3.8	8.47e-01	0	44	104	0	28	11164
2026-01-15 04:05:54.76	136.17	48.43	-34.4	-44.2	3.8	8.46e-01	0	44	104	0	28	11151
2026-01-15 04:05:56.76	137.16	48.06	-34.4	-44.3	3.8	8.46e-01	0	44	104	0	28	11185
2026-01-15 04:05:58.77	138.14	47.68	-34.4	-44.2	3.8	8.46e-01	0	44	104	0	28	11101
2026-01-15 04:06:00.77	139.08	47.30	-34.3	-44.0	3.8	8.46e-01	0	44	104	0	28	11040
2026-01-15 04:06:02.77	140.01	46.91	-34.2	-43.8	3.8	8.46e-01	0	44	104	0	28	10895
2026-01-15 04:06:04.77	140.91	46.52	-34.1	-43.2	3.8	8.46e-01	0	44	104	0	28	10342
2026-01-15 04:06:06.78	141.80	46.12	-33.9	-42.6	3.8	8.47e-01	0	44	104	0	28	9806
2026-01-15 04:06:08.78	142.66	45.72	-33.9	-43.1	3.8	8.44e-01	0	43	104	0	27	10328
2026-01-15 04:06:10.78	143.49	45.32	-34.0	-43.7	3.8	8.47e-01	0	44	104	0	27	11049
2026-01-15 04:06:12.78	144.31	44.91	-33.8	-42.3	3.8	8.45e-01	0	44	104	0	27	9573
2026-01-15 04:06:14.79	145.11	44.51	-33.5	-40.5	3.9	8.38e-01	0	44	104	0	26	8073
2026-01-15 04:06:16.80	145.89	44.10	-32.6	-36.3	5.7	7.00e-01	0	44	0	0	26	5535
2026-01-15 04:06:18.81	146.65	43.69	-31.8	-34.8	7.2	1.27e-01	0	43	0	13631488	24	5075
2026-01-15 04:06:20.82	147.39	43.27	-32.8	-38.0	5.1	7.51e-01	0	44	0	25165824	25	6500
2026-01-15 04:06:22.82	148.11	42.86	-26.8	-27.3	14.8	1.10e-06	0	43	0	37748736	14	3793
2026-01-15 04:06:24.82	148.81	42.45	-23.5	-23.3	18.5	0.00e+00	0	44	0	52428800	8	3504
2026-01-15 04:06:26.83	149.50	42.04	-26.4	-27.4	15.1	2.73e-04	0	44	0	67108864	12	4031
2026-01-15 04:06:28.83	150.17	41.63	-27.0	-27.3	14.4	2.20e-06	0	43	0	80740352	15	3710
2026-01-15 04:06:30.84	150.82	41.22	-26.8	-27.2	14.8	7.09e-05	0	43	0	95420416	14	3795
2026-01-15 04:06:32.84	151.46	40.81	-25.2	-25.3	16.7	4.34e-05	0	44	0	110100480	11	3646
2026-01-15 04:06:34.85	152.08	40.40	-24.1	-23.9	17.9	0.00e+00	0	43	0	124780544	9	3524
2026-01-15 04:06:36.86	152.68	39.99	-23.6	-23.5	18.4	2.54e-04	0	43	0	139460608	8	3534
2026-01-15 04:06:38.86	153.27	39.58	-23.6	-23.4	18.4	8.35e-05	0	43	0	154140672	8	3521
2026-01-15 04:06:40.87	153.85	39.18	-23.7	-23.7	18.2	0.00e+00	0	43	0	167772160	8	3595
2026-01-15 04:06:42.88	154.41	38.77	-23.5	-23.3	18.4	0.00e+00	0	43	0	182452224	8	3499
2026-01-15 04:06:44.87	154.96	38.37	-23.5	-23.2	18.4	0.00e+00	0	44	0	197132288	8	3484
2026-01-15 04:06:46.89	155.50	37.97	-23.6	-23.4	18.3	0.00e+00	0	44	0	211812352	8	3534
2026-01-15 04:06:48.88	156.02	37.57	-23.7	-24.1	18.2	4.46e-05	0	43	0	225443840	7	3776
2026-01-15 04:06:50.89	156.53	37.18	-23.8	-24.3	18.0	0.00e+00	0	43	0	240123904	7	3828
2026-01-15 04:06:52.89	157.03	36.78	-23.6	-24.0	18.3	0.00e+00	0	43	0	254803968	7	3744
2026-01-15 04:06:54.90	157.51	36.39	-23.6	-24.0	18.3	0.00e+00	0	43	0	269484032	7	3746
2026-01-15 04:06:56.90	157.99	36.00	-23.5	-23.6	18.4	0.00e+00	0	44	0	284164096	7	3672
2026-01-15 04:06:58.91	158.45	35.62	-23.1	-22.9	18.8	0.00e+00	0	43	0	298844160	7	3515
2026-01-15 04:07:00.91	158.91	35.23	-23.0	-23.1	18.9	0.00e+00	0	43	0	312475648	6	3663
2026-01-15 04:07:02.92	159.35	34.85	-22.8	-22.9	18.9	0.00e+00	0	43	0	327155712	6	3617
2026-01-15 04:07:04.93	159.79	34.47	-22.9	-23.1	18.9	0.00e+00	0	43	0	341835776	6	3652
2026-01-15 04:07:06.94	160.21	34.10	-23.1	-23.4	18.7	0.00e+00	0	43	0	356515840	6	3738
2026-01-15 04:07:08.94	160.63	33.73	-23.5	-24.2	18.4	0.00e+00	0	43	0	370147328	6	3903
2026-01-15 04:07:10.95	161.03	33.36	-23.6	-24.0	18.2	0.00e+00	0	44	0	384827392	7	3756
2026-01-15 04:07:12.97	161.43	32.99	-23.5	-23.8	18.3	0.00e+00	0	43	0	399507456	7	3711
2026-01-15 04:07:14.98	161.82	32.62	-23.4	-23.5	18.5	0.00e+00	0	43	0	414187520	7	3646
2026-01-15 04:07:16.98	162.20	32.26	-23.1	-23.4	18.7	0.00e+00	0	43	0	428867584	6	3728
2026-01-15 04:07:18.99	162.57	31.90	-23.0	-23.1	18.9	0.00e+00	0	43	0	443547648	6	3657
2026-01-15 04:07:21.00	162.94	31.55	-23.0	-23.2	18.8	0.00e+00	0	44	0	457179136	6	3669
2026-01-15 04:07:23.01	163.29	31.20	-23.2	-23.5	18.2	0.00e+00	0	43	0	472907776	6	3758
2026-01-15 04:07:25.00	163.64	30.85	-23.3	-23.8	18.4	0.00e+00	0	44	0	486539264	6	3823
2026-01-15 04:07:27.00	163.98	30.50	-23.2	-23.6	18.6	0.00e+00	0	43	0	501219328	6	3779
2026-01-15 04:07:29.00	164.31	30.16	-23.3	-23.8	18.5	0.00e+00	0	44	0	514850816	6	3815
2026-01-15 04:07:30.99	164.64	29.83	-23.4	-24.1	18.3	0.00e+00	0	44	0	529530880	6	3878
2026-01-15 04:07:32.98	164.96	29.49	-23.4	-23.5	17.7	0.00e+00	0	43	0	544210944	7	3657
2026-01-15 04:07:34.97	165.27	29.16	-23.5	-24.2	18.3	0.00e+00	0	44	0	558891008	6	3916
2026-01-15 04:07:36.97	165.57	28.83	-23.5	-24.2	18.2	0.00e+00	0	44	0	573571072	6	3908
2026-01-15 04:07:38.96	165.87	28.51	-23.5	-24.3	18.2	0.00e+00	0	44	0	587202560	6	3932
2026-01-15 04:07:40.96	166.17	28.18	-24.0	-24.8	17.7	0.00e+00	0	44	0	601882624	7	3942
2026-01-15 04:07:42.95	166.46	27.86	-23.9	-24.6	17.8	0.00e+00	0	44	0	616562688	7	3894
2026-01-15 04:07:44.95	166.74	27.55	-23.9	-24.0	17.8	0.00e+00	0	44	0	630194176	8	3668
2026-01-15 04:07:46.95	167.02	27.23	-23.9	-24.6	17.8	0.00e+00	0	44	0	644874240	7	3905
2026-01-15 04:07:48.94	167.29	26.92	-23.8	-24.3	17.9	0.00e+00	0	44	0	659554304	7	3827
2026-01-15 04:07:50.94	167.56	26.61	-23.7	-24.2	18.0	1.32e-04	0	44	0	674234368	7	3811
2026-01-15 04:07:52.94	167.83	26.31	-23.4	-23.6	18.3	0.00e+00	0	44	0	687865856	7	3674
2026-01-15 04:07:54.95	168.09	26.00	-23.6	-24.0	18.0	0.00e+00	0	44	0	702545920	7	3752
2026-01-15 04:07:56.95	168.34	25.70	-23.5	-23.7	18.2	0.00e+00	0	44	0	717225984	7	3694
2026-01-15 04:07:58.96	168.59	25.40	-23.7	-24.2	18.0	7.09e-05	0	44	0	731906048	7	3803
2026-01-15 04:08:00.96	168.84	25.11	-23.8	-24.4	17.8	0.00e+00	0	44	0	746586112	7	3860
2026-01-15 04:08:02.97	169.08	24.81	-23.8	-24.4	17.8	1.10e-04	0	44	0	761266176	7	3852
2026-01-15 04:08:04.97	169.32	24.53	-23.9	-24.6	17.7	1.61e-04	0	44	0	774897664	7	3899
2026-01-15 04:08:06.98	169.55	24.24	-23.5	-23.8	18.1	0.00e+00	0	44	0	789577728	7	3717
2026-01-15 04:08:08.99	169.78	23.95	-23.5	-23.7	18.1	1.99e-04	0	44	0	804257792	7	3700
2026-01-15 04:08:11.00	170.00	23.67	-23.6	-23.9	18.0	2.07e-04	0	44	0	818937856	7	3739
2026-01-15 04:08:13.01	170.22	23.39	-23.6	-24.0	18.0	0.00e+00	0	44	0	833617920	7	3751
2026-01-15 04:08:15.02	170.44	23.11	-23.6	-23.8	18.1	0.00e+00	0	44	0	848297984	7	3720
2026-01-15 04:08:17.04	170.66	22.84	-23.6	-23.9	18.1	7.53e-04	0	44	0	861929472	7	3738
2026-01-15 04:08:19.05	170.87	22.56	-23.7	-24.2	17.9	0.00e+00	0	44	0	876609536	7	3812
2026-01-15 04:08:21.06	171.07	22.29	-23.8	-24.3	17.8	3.31e-05	0	44	0	891289600	7	3824
2026-01-15 04:08:23.08	171.28	22.02	-23.9	-24.7	17.6	0.00e+00	0	44	0	905969664	7	3919
2026-01-15 04:08:25.09	171.48	21.76	-23.9	-24.5	17.7	0.00e+00	0	44	0	920649728	7	3883
2026-01-15 04:08:27.08	171.67	21.50	-24.0	-24.7	17.6	8.32e-04	0	44	0	934281216	7	3932
2026-01-15 04:08:29.09	171.87	21.24	-24.2	-24.7	17.4	8.66e-04	0	44	0	948961280	8	3819
2026-01-15 04:08:31.10	172.06	20.98	-24.3	-24.9	17.2	1.20e-04	0	44	0	963641344	8	3864
2026-01-15 04:08:33.10	172.25	20.73	-24.2	-24.8	17.3	8.00e-06	0	44	0	978321408	8	3835
2026-01-15 04:08:35.10	172.43	20.47	-24.3	-24.9	17.2	6.69e-04	0	44	0	993001472	8	3852
2026-01-15 04:08:37.11	172.61	20.22	-24.3	-25.0	17.2	2.17e-05	0	44	0	1007681536	8	3888
2026-01-15 04:08:39.11	172.79	19.98	-24.4	-25.1	17.1	2.76e-04	0	44	0	1021313024	8	3902
2026-01-15 04:08:41.12	172.97	19.73	-24.3	-24.9	17.2	1.89e-04	0	44	0	1035993088	8	3865
2026-01-15 04:08:43.13	173.14	19.49	-24.3	-24.9	17.2	0.00e+00	0	44	0	1050673152	8	3872
2026-01-15 04:08:45.13	173.31	19.24	-24.3	-25.0	17.2	3.16e-04	0	44	0	1065353216	8	3874
2026-01-15 04:08:47.13	173.48	19.01	-24.3	-24.9	17.2	3.18e-04	0	44	0	1078984704	8	3852
2026-01-15 04:08:49.13	173.64	18.77	-24.3	-24.9	17.2	0.00e+00	0	44	0	1093664768	8	3867
2026-01-15 04:08:51.14	173.81	18.53	-24.5	-25.4	16.9	0.00e+00	0	44	0	1108344832	8	3975
2026-01-15 04:08:53.14	173.97	18.30	-24.6	-25.0	16.9	0.00e+00	0	44	0	1123024896	9	3786
2026-01-15 04:08:55.15	174.12	18.07	-24.7	-25.2	16.7	0.00e+00	0	44	0	1137704960	9	3833
2026-01-15 04:08:57.14	174.28	17.84	-24.8	-25.5	16.6	5.73e-04	0	44	0	1151336448	9	3899
2026-01-15 04:08:59.16	174.43	17.61	-24.8	-25.6	16.5	0.00e+00	0	44	0	1166016512	9	3926
2026-01-15 04:09:01.17	174.59	17.38	-24.8	-25.5	16.6	0.00e+00	0	44	0	1180696576	9	3895
2026-01-15 04:09:03.18	174.74	17.16	-24.9	-25.7	16.5	0.00e+00	0	44	0	1195376640	9	3953
2026-01-15 04:09:05.18	174.88	16.94	-25.0	-25.4	16.3	0.00e+00	0	45	0	1210056704	10	3788
2026-01-15 04:09:07.18	175.03	16.72	-25.0	-25.9	16.3	0.00e+00	0	44	0	1224736768	9	4007
2026-01-15 04:09:09.18	175.17	16.50	-25.0	-26.0	16.2	0.00e+00	0	44	0	1238368256	9	4035
2026-01-15 04:09:11.19	175.31	16.28	-25.1	-25.7	16.2	0.00e+00	0	44	0	1253048320	10	3849
2026-01-15 04:09:13.19	175.45	16.07	-25.0	-25.5	16.3	0.00e+00	0	44	0	1267728384	10	3803
2026-01-15 04:09:15.20	175.59	15.86	-25.0	-25.5	16.3	0.00e+00	0	44	0	1282408448	10	3796
2026-01-15 04:09:17.21	175.73	15.65	-25.1	-25.8	16.1	8.00e-06	0	44	0	1297088512	10	3864
2026-01-15 04:09:19.21	175.86	15.44	-25.2	-26.0	16.0	0.00e+00	0	44	0	1310720000	10	3918
2026-01-15 04:09:21.21	175.99	15.23	-25.1	-25.7	16.1	0.00e+00	0	44	0	1325400064	10	3845
2026-01-15 04:09:23.21	176.12	15.02	-25.3	-26.0	15.9	1.02e-05	0	44	0	1340080128	10	3931
2026-01-15 04:09:25.21	176.25	14.82	-25.3	-26.0	15.9	0.00e+00	0	44	0	1354760192	10	3935
2026-01-15 04:09:27.21	176.38	14.62	-25.4	-26.4	15.7	0.00e+00	0	44	0	1369440256	10	4011
2026-01-15 04:09:29.21	176.50	14.42	-25.4	-26.4	15.7	1.37e-05	0	44	0	1383071744	10	4031
2026-01-15 04:09:31.22	176.63	14.21	-25.4	-25.9	15.7	0.00e+00	0	44	0	1397751808	11	3813
2026-01-15 04:09:33.24	176.75	14.01	-25.5	-26.6	15.6	0.00e+00	0	44	0	1412431872	10	4068
2026-01-15 04:09:35.23	176.87	13.82	-25.4	-26.4	15.3	1.14e-05	0	44	0	1427111936	10	4036
2026-01-15 04:09:37.24	176.99	13.62	-25.5	-26.6	15.5	0.00e+00	0	44	0	1440743424	10	4071
2026-01-15 04:09:39.26	177.11	13.43	-25.4	-26.4	15.6	0.00e+00	0	44	0	1455423488	10	4029
2026-01-15 04:09:41.27	177.23	13.23	-25.5	-26.5	15.5	3.88e-04	0	44	0	1470103552	10	4061
2026-01-15 04:09:43.28	177.34	13.04	-25.8	-26.7	15.2	3.54e-04	0	44	0	1484783616	11	3994
2026-01-15 04:09:45.29	177.46	12.85	-25.9	-27.0	15.0	0.00e+00	0	44	0	1499463680	11	4063
2026-01-15 04:09:47.29	177.57	12.67	-25.9	-26.9	15.0	0.00e+00	0	44	0	1514143744	11	4038
2026-01-15 04:09:49.30	177.68	12.48	-26.0	-27.1	14.9	3.07e-04	0	44	0	1527775232	11	4095
2026-01-15 04:09:51.31	177.79	12.29	-26.4	-27.5	14.4	1.10e-06	0	44	0	1542455296	12	4088
2026-01-15 04:09:53.31	177.90	12.11	-26.0	-27.1	14.9	3.19e-04	0	44	0	1557135360	11	4099
2026-01-15 04:09:55.30	178.00	11.93	-26.1	-26.8	14.7	2.92e-04	0	44	0	1571815424	12	3917
2026-01-15 04:09:57.30	178.11	11.74	-26.1	-26.9	14.7	0.00e+00	0	44	0	1585446912	12	3935
2026-01-15 04:09:59.31	178.21	11.56	-26.0	-26.9	14.3	3.52e-04	0	44	0	1601175552	12	3998
2026-01-15 04:10:01.32	178.32	11.38	-26.1	-27.0	14.6	3.64e-04	0	44	0	1614807040	12	3954
2026-01-15 04:10:03.34	178.42	11.20	-26.2	-27.2	14.5	0.00e+00	0	44	0	1629487104	12	4018
2026-01-15 04:10:05.34	178.52	11.03	-26.2	-27.0	14.5	4.43e-04	0	44	0	1644167168	12	3974
2026-01-15 04:10:07.36	178.62	10.85	-26.2	-27.0	14.5	9.04e-05	0	44	0	1658847232	12	3977
2026-01-15 04:10:09.36	178.72	10.68	-26.0	-26.6	14.7	0.00e+00	0	44	0	1673527296	12	3877
2026-01-15 04:10:11.37	178.82	10.50	-26.1	-26.9	14.6	4.16e-04	0	44	0	1687158784	12	3933
2026-01-15 04:10:13.38	178.92	10.33	-26.1	-27.0	14.5	4.05e-04	0	44	0	1701838848	12	3962
2026-01-15 04:10:15.38	179.01	10.16	-26.1	-27.0	14.5	0.00e+00	0	44	0	1716518912	12	3970
2026-01-15 04:10:17.39	179.11	9.99	-26.2	-27.2	14.4	1.48e-05	0	44	0	1731198976	12	4012
2026-01-15 04:10:19.40	179.20	9.82	-26.3	-27.3	14.3	2.63e-05	0	44	0	1745879040	12	4044
2026-01-15 04:10:21.40	179.29	9.65	-26.4	-27.7	14.1	0.00e+00	0	44	0	1759510528	12	4148
2026-01-15 04:10:23.41	179.39	9.49	-26.4	-27.6	14.1	0.00e+00	0	44	0	1774190592	12	4140
2026-01-15 04:10:25.41	179.48	9.32	-26.5	-27.7	14.0	9.04e-05	0	44	0	1788870656	12	4149
2026-01-15 04:10:27.41	179.57	9.16	-26.5	-27.8	14.0	1.10e-06	0	44	0	1803550720	12	4175
2026-01-15 04:10:29.41	179.65	8.99	-26.7	-27.7	13.7	1.86e-04	0	44	0	1818230784	13	4058
2026-01-15 04:10:31.41	179.74	8.83	-26.7	-27.8	13.6	9.10e-06	0	44	0	1832910848	13	4089
2026-01-15 04:10:33.41	179.83	8.67	-26.9	-28.1	13.4	2.05e-05	0	44	0	1846542336	13	4167
2026-01-15 04:10:35.42	179.91	8.51	-26.8	-28.0	13.5	1.51e-04	0	44	0	1861222400	13	4143
2026-01-15 04:10:37.43	180.00	8.35	-27.0	-28.5	13.2	2.87e-04	0	44	0	1875902464	13	4278
2026-01-15 04:10:39.43	180.08	8.19	-27.2	-28.4	13.0	2.28e-05	0	44	0	1890582528	14	4129
2026-01-15 04:10:41.42	180.17	8.04	-27.5	-29.1	12.5	1.20e-04	0	44	0	1904214016	14	4337
2026-01-15 04:10:43.43	180.25	7.88	-27.1	-28.3	13.0	4.92e-05	0	44	0	1918894080	14	4106
2026-01-15 04:10:45.44	180.33	7.72	-27.1	-28.3	13.0	2.97e-05	0	44	0	1933574144	14	4103
2026-01-15 04:10:47.44	180.41	7.57	-27.2	-28.4	12.9	6.61e-04	0	44	0	1948254208	14	4135
2026-01-15 04:10:49.45	180.49	7.41	-27.0	-28.0	13.1	3.89e-05	0	44	0	1961885696	14	4032
2026-01-15 04:10:51.47	180.57	7.26	-27.0	-28.0	13.1	3.89e-05	0	44	0	1977614336	14	4041
2026-01-15 04:10:53.48	180.65	7.11	-32.9	-42.5	3.8	2.21e-01	0	44	104	1990197248	25	10920

#Closed at: 2026-01-15 04:10:55
#Recorded file [1990 MB]: D:/data/31010_260115_070616.dat