passes_logs/2026/01/15/R2M6_AANII_01/R2M6_AANII_01__20260115_110809_SUOMI_NPP_rec.log

#Pass ID: 20260115_110809_SUOMI NPP
#Satellite: SUOMI NPP
#Configuration: NPP
#almurnet v.1.7.20240730
#Start time: 2026-01-15 11:08:11

#Version: 2.2.20231116
#Station: R2M6_AANII_01
#Location: 30.233357 lon 59.946436 lat
#TLE: 1 37849U 11061A   26014.11719687  .00000048  00000+0  43625-4 0  9998
#TLE: 2 37849  98.7809 316.1734 0002474  65.2440 294.8994 14.19525043736585

#Time	Az	El	Level	Level2	SNR	BER	BlckErr	Temp	State	Recorded	gain1	gain2
2026-01-15 11:08:11.18	183.63	7.09	-31.2	-34.8	5.3	1.23e+00	0	41	0	0	22	5438
2026-01-15 11:08:14.17	183.77	7.32	-31.5	-35.0	8.5	7.10e-02	0	41	0	1048576	24	5387
2026-01-15 11:08:17.18	183.92	7.55	-31.2	-34.1	9.7	1.42e-02	0	41	0	7340032	23	5021
2026-01-15 11:08:20.18	184.06	7.77	-31.1	-33.9	9.8	1.24e-02	0	41	0	12582912	23	4968
2026-01-15 11:08:23.17	184.21	8.00	-31.3	-34.3	9.5	1.19e-02	0	41	0	17825792	23	5124
2026-01-15 11:08:26.17	184.36	8.24	-31.3	-34.3	9.6	1.31e-02	0	41	0	24117248	23	5098
2026-01-15 11:08:29.18	184.51	8.47	-30.9	-33.5	10.6	2.13e-03	0	42	0	29360128	22	4854
2026-01-15 11:08:32.19	184.67	8.71	-30.9	-33.4	10.7	2.02e-03	0	42	0	35651584	22	4813
2026-01-15 11:08:35.19	184.82	8.95	-30.6	-32.6	11.3	1.06e-03	0	42	0	40894464	22	4520
2026-01-15 11:08:38.20	184.98	9.19	-30.5	-32.3	11.6	8.37e-04	0	42	0	46137344	22	4394
2026-01-15 11:08:41.22	185.14	9.43	-30.6	-32.4	11.5	6.08e-04	0	42	0	52428800	22	4427
2026-01-15 11:08:44.23	185.31	9.68	-30.6	-32.3	11.6	6.87e-04	0	42	0	57671680	22	4394
2026-01-15 11:08:47.24	185.48	9.93	-30.4	-31.9	11.9	3.49e-04	0	42	0	62914560	22	4260
2026-01-15 11:08:50.23	185.65	10.18	-30.3	-31.5	12.2	2.69e-04	0	42	0	69206016	22	4147
2026-01-15 11:08:53.24	185.82	10.43	-30.2	-31.8	12.4	1.89e-04	0	42	0	74448896	21	4311
2026-01-15 11:08:56.25	185.99	10.69	-30.1	-31.3	12.6	1.04e-04	0	42	0	80740352	21	4166
2026-01-15 11:08:59.24	186.17	10.94	-29.9	-31.3	13.0	2.05e-05	0	42	0	85983232	20	4227
2026-01-15 11:09:02.24	186.35	11.20	-29.9	-31.3	13.0	2.74e-05	0	42	0	91226112	20	4247
2026-01-15 11:09:05.25	186.54	11.46	-29.8	-31.2	13.1	2.82e-05	0	42	0	97517568	20	4201
2026-01-15 11:09:08.25	186.72	11.73	-29.9	-31.4	13.0	2.21e-05	0	42	0	102760448	20	4272
2026-01-15 11:09:11.26	186.92	12.00	-30.0	-31.5	13.0	3.73e-05	0	42	0	108003328	20	4304
2026-01-15 11:09:14.25	187.11	12.26	-30.0	-31.7	12.8	3.89e-05	0	42	0	114294784	20	4372
2026-01-15 11:09:17.25	187.31	12.54	-29.9	-31.3	13.1	3.05e-05	0	42	0	119537664	20	4232
2026-01-15 11:09:20.27	187.51	12.81	-30.1	-31.7	12.9	3.96e-05	0	43	0	124780544	20	4368
2026-01-15 11:09:23.26	187.71	13.09	-30.1	-31.8	12.9	7.85e-05	0	42	0	131072000	20	4377
2026-01-15 11:09:26.27	187.92	13.37	-30.2	-32.1	12.7	7.70e-05	0	43	0	136314880	20	4463
2026-01-15 11:09:29.27	188.13	13.66	-30.3	-32.4	12.6	7.01e-05	0	43	0	142606336	20	4590
2026-01-15 11:09:32.28	188.35	13.95	-30.3	-31.8	12.7	1.65e-04	0	43	0	147849216	21	4285
2026-01-15 11:09:35.28	188.57	14.24	-29.8	-30.5	13.5	1.60e-05	0	43	0	153092096	21	3899
2026-01-15 11:09:38.27	188.79	14.53	-29.7	-30.8	13.7	7.60e-06	0	43	0	159383552	20	4065
2026-01-15 11:09:41.27	189.02	14.82	-29.6	-30.4	14.0	7.60e-06	0	43	0	164626432	20	3950
2026-01-15 11:09:44.28	189.25	15.13	-29.6	-30.3	14.0	4.50e-06	0	43	0	169869312	20	3924
2026-01-15 11:09:47.28	189.49	15.43	-29.6	-30.3	14.0	9.90e-06	0	43	0	176160768	20	3910
2026-01-15 11:09:50.29	189.73	15.74	-29.4	-30.0	14.2	4.50e-06	0	43	0	181403648	20	3825
2026-01-15 11:09:53.30	189.98	16.05	-29.3	-30.1	14.5	0.00e+00	0	43	0	187695104	19	3940
2026-01-15 11:09:56.31	190.23	16.36	-29.3	-30.0	14.6	2.20e-06	0	43	0	192937984	19	3924
2026-01-15 11:09:59.31	190.49	16.68	-29.4	-30.3	14.5	6.80e-06	0	43	0	198180864	19	3985
2026-01-15 11:10:02.32	190.75	17.00	-29.3	-30.0	14.6	9.10e-06	0	43	0	204472320	19	3922
2026-01-15 11:10:05.32	191.02	17.32	-29.3	-29.9	14.7	8.30e-06	0	43	0	209715200	19	3891
2026-01-15 11:10:08.34	191.29	17.65	-29.2	-29.8	14.8	5.30e-06	0	43	0	214958080	19	3861
2026-01-15 11:10:11.34	191.57	17.99	-29.0	-29.3	15.2	0.00e+00	0	43	0	221249536	19	3715
2026-01-15 11:10:14.33	191.85	18.32	-29.1	-29.5	15.1	0.00e+00	0	43	0	226492416	19	3778
2026-01-15 11:10:17.32	192.14	18.66	-29.2	-29.9	14.9	4.50e-06	0	43	0	231735296	19	3864
2026-01-15 11:10:20.32	192.44	19.00	-29.4	-30.4	14.5	2.20e-06	0	43	0	238026752	19	4003
2026-01-15 11:10:23.33	192.75	19.35	-29.4	-30.1	14.7	5.30e-06	0	43	0	243269632	19	3943
2026-01-15 11:10:26.33	193.06	19.70	-29.4	-30.1	14.7	7.00e-07	0	43	0	249561088	19	3933
2026-01-15 11:10:29.34	193.37	20.06	-29.3	-29.9	14.8	1.50e-06	0	43	0	254803968	19	3879
2026-01-15 11:10:32.34	193.70	20.42	-29.2	-29.6	15.1	1.50e-06	0	43	0	260046848	19	3787
2026-01-15 11:10:35.34	194.03	20.79	-29.2	-29.7	15.1	0.00e+00	0	43	0	266338304	19	3809
2026-01-15 11:10:38.35	194.37	21.16	-29.1	-29.5	15.2	0.00e+00	0	43	0	271581184	19	3752
2026-01-15 11:10:41.35	194.72	21.53	-29.1	-29.5	15.2	0.00e+00	0	43	0	277872640	19	3753
2026-01-15 11:10:44.35	195.08	21.91	-29.1	-29.4	15.2	0.00e+00	0	43	0	283115520	19	3745
2026-01-15 11:10:47.36	195.44	22.30	-29.2	-29.8	15.0	0.00e+00	0	43	0	288358400	19	3832
2026-01-15 11:10:50.36	195.82	22.68	-29.0	-29.2	15.4	0.00e+00	0	43	0	294649856	19	3690
2026-01-15 11:10:53.36	196.20	23.08	-29.0	-29.3	15.3	0.00e+00	0	43	0	299892736	19	3719
2026-01-15 11:10:56.36	196.59	23.47	-29.2	-29.6	15.2	0.00e+00	0	43	0	305135616	19	3787
2026-01-15 11:10:59.36	196.99	23.87	-29.3	-29.9	14.9	0.00e+00	0	43	0	311427072	19	3861
2026-01-15 11:11:02.37	197.41	24.28	-29.6	-30.7	14.5	0.00e+00	0	43	0	316669952	19	4096
2026-01-15 11:11:05.37	197.83	24.69	-29.5	-30.5	14.6	0.00e+00	0	43	0	321912832	19	4025
2026-01-15 11:11:08.36	198.26	25.11	-29.6	-30.7	14.5	0.00e+00	0	43	0	328204288	19	4102
2026-01-15 11:11:11.36	198.71	25.53	-29.6	-30.8	14.5	1.50e-06	0	43	0	333447168	19	4110
2026-01-15 11:11:14.38	199.17	25.96	-29.7	-30.9	14.4	7.00e-07	0	43	0	339738624	19	4145
2026-01-15 11:11:17.38	199.63	26.39	-29.9	-31.4	14.1	7.00e-07	0	43	0	344981504	19	4293
2026-01-15 11:11:20.38	200.12	26.83	-29.9	-31.6	14.0	7.00e-07	0	43	0	350224384	19	4341
2026-01-15 11:11:23.37	200.61	27.27	-29.6	-30.7	14.6	0.00e+00	0	43	0	356515840	19	4090
2026-01-15 11:11:26.38	201.12	27.72	-30.0	-31.4	13.9	1.50e-06	0	43	0	361758720	20	4185
2026-01-15 11:11:29.38	201.64	28.17	-30.3	-31.9	13.4	9.90e-06	0	43	0	367001600	20	4362
2026-01-15 11:11:32.39	202.18	28.62	-30.7	-32.5	12.8	1.05e-04	0	43	0	373293056	21	4458
2026-01-15 11:11:35.39	202.73	29.09	-30.9	-33.1	12.3	2.16e-04	0	43	0	378535936	21	4677
2026-01-15 11:11:38.40	203.30	29.55	-30.7	-32.2	12.7	1.12e-04	0	43	0	384827392	22	4268
2026-01-15 11:11:41.41	203.89	30.02	-31.0	-33.0	12.1	3.41e-04	0	43	0	390070272	22	4535
2026-01-15 11:11:44.41	204.49	30.50	-30.9	-32.7	12.3	2.71e-04	0	43	0	395313152	22	4431
2026-01-15 11:11:47.42	205.11	30.98	-30.8	-32.4	12.6	1.18e-04	0	43	0	401604608	22	4335
2026-01-15 11:11:50.43	205.75	31.47	-31.2	-33.6	11.8	6.45e-04	0	43	0	406847488	22	4735
2026-01-15 11:11:53.43	206.40	31.95	-31.2	-33.5	11.8	7.76e-04	0	43	0	412090368	22	4694
2026-01-15 11:11:56.43	207.08	32.44	-30.8	-32.5	12.6	1.26e-04	0	43	0	418381824	22	4339
2026-01-15 11:11:59.44	207.78	32.94	-30.8	-32.4	12.8	7.78e-05	0	43	0	423624704	22	4301
2026-01-15 11:12:02.45	208.50	33.44	-31.1	-33.3	12.0	2.30e-04	0	43	0	429916160	22	4611
2026-01-15 11:12:05.45	209.24	33.94	-31.2	-33.5	11.9	3.30e-04	0	43	0	435159040	22	4683
2026-01-15 11:12:08.46	210.00	34.45	-30.0	-30.6	14.1	2.20e-06	0	43	0	440401920	21	3871
2026-01-15 11:12:11.47	210.79	34.96	-30.2	-31.3	13.7	7.00e-07	0	43	0	446693376	21	4058
2026-01-15 11:12:14.47	211.60	35.47	-30.6	-32.4	13.0	2.59e-05	0	43	0	451936256	21	4390
2026-01-15 11:12:17.48	212.44	35.98	-30.6	-32.2	13.1	2.74e-05	0	43	0	457179136	21	4341
2026-01-15 11:12:20.49	213.30	36.50	-30.6	-32.3	13.1	3.89e-05	0	43	0	463470592	21	4378
2026-01-15 11:12:23.50	214.20	37.01	-30.3	-31.5	13.6	4.50e-06	0	43	0	468713472	21	4129
2026-01-15 11:12:26.49	215.11	37.52	-29.7	-30.4	14.7	7.00e-07	0	43	0	475004928	20	3891
2026-01-15 11:12:29.49	216.06	38.04	-29.3	-29.4	15.2	0.00e+00	0	43	0	480247808	20	3642
2026-01-15 11:12:32.51	217.04	38.55	-29.5	-30.3	15.0	0.00e+00	0	43	0	485490688	19	3958
2026-01-15 11:12:35.50	218.04	39.06	-29.7	-30.8	14.8	7.00e-07	0	43	0	491782144	19	4081
2026-01-15 11:12:38.50	219.08	39.57	-29.8	-31.1	14.6	0.00e+00	0	43	0	497025024	19	4177
2026-01-15 11:12:41.51	220.15	40.08	-30.2	-31.6	13.8	2.20e-06	0	43	0	502267904	20	4225
2026-01-15 11:12:44.51	221.26	40.58	-30.7	-32.5	13.0	3.05e-05	0	43	0	508559360	21	4419
2026-01-15 11:12:47.52	222.40	41.07	-30.1	-31.0	14.0	3.00e-06	0	43	0	513802240	21	3957
2026-01-15 11:12:50.52	223.57	41.56	-30.7	-32.5	13.0	6.80e-06	0	43	0	519045120	21	4429
2026-01-15 11:12:53.51	224.77	42.04	-30.1	-30.9	14.1	3.00e-06	0	43	0	525336576	21	3925
2026-01-15 11:12:56.51	226.02	42.52	-30.5	-32.0	13.3	8.30e-06	0	43	0	530579456	21	4257
2026-01-15 11:12:59.51	227.30	42.98	-30.8	-32.7	13.0	5.34e-05	0	43	0	536870912	21	4493
2026-01-15 11:13:02.50	228.61	43.43	-30.2	-31.2	13.9	2.67e-05	0	43	0	542113792	21	4013
2026-01-15 11:13:05.50	229.96	43.88	-30.8	-32.6	13.1	2.89e-05	0	43	0	547356672	21	4438
2026-01-15 11:13:08.50	231.35	44.31	-31.1	-32.9	12.5	2.30e-04	0	43	0	553648128	22	4460
2026-01-15 11:13:11.51	232.78	44.72	-30.0	-30.6	14.1	1.06e-05	0	43	0	558891008	21	3847
2026-01-15 11:13:14.51	234.25	45.12	-30.8	-32.7	12.9	2.21e-05	0	43	0	564133888	21	4488
2026-01-15 11:13:17.52	235.75	45.51	-30.7	-32.4	13.2	5.30e-06	0	44	0	570425344	21	4379
2026-01-15 11:13:20.52	237.29	45.87	-31.8	-34.0	11.0	3.81e-03	0	43	0	575668224	24	4670
2026-01-15 11:13:23.54	238.87	46.22	-32.1	-35.3	10.1	5.63e-03	0	43	0	581959680	24	5158
2026-01-15 11:13:26.54	240.47	46.55	-31.9	-34.6	10.6	3.43e-03	0	43	0	587202560	24	4866
2026-01-15 11:13:29.54	242.10	46.85	-32.9	-37.8	7.9	2.02e-02	0	43	0	592445440	25	6316
2026-01-15 11:13:32.54	243.77	47.13	-32.0	-34.3	10.5	1.16e-02	0	43	0	598736896	25	4682
2026-01-15 11:13:35.54	245.46	47.38	-32.5	-35.9	9.2	1.51e-02	0	43	0	603979776	25	5360
2026-01-15 11:13:38.54	247.18	47.61	-31.5	-33.5	11.8	1.59e-04	0	44	0	609222656	23	4573
2026-01-15 11:13:41.53	248.92	47.81	-32.2	-35.3	10.1	7.65e-03	0	43	0	615514112	24	5176
2026-01-15 11:13:44.54	250.69	47.98	-31.7	-33.8	11.2	1.03e-03	0	43	0	620756992	24	4581
2026-01-15 11:13:47.55	252.48	48.13	-31.4	-33.2	12.0	3.39e-04	0	43	0	625999872	23	4466
2026-01-15 11:13:50.55	254.27	48.24	-32.3	-35.7	9.8	6.51e-03	0	43	0	632291328	24	5335
2026-01-15 11:13:53.55	256.08	48.33	-32.2	-35.5	10.1	1.11e-03	0	43	0	637534208	24	5250
2026-01-15 11:13:56.54	257.89	48.39	-31.5	-33.2	11.7	1.16e-03	0	43	0	643825664	24	4374
2026-01-15 11:13:59.55	259.72	48.41	-31.4	-32.9	11.9	8.08e-04	0	44	0	649068544	24	4268
2026-01-15 11:14:02.56	261.55	48.41	-31.5	-33.7	11.8	4.73e-04	0	43	0	654311424	23	4616
2026-01-15 11:14:05.57	263.37	48.37	-30.2	-31.0	14.1	1.75e-05	0	44	0	660602880	21	3964
2026-01-15 11:14:08.57	265.18	48.30	-31.0	-32.6	12.8	6.02e-05	0	43	0	665845760	22	4338
2026-01-15 11:14:11.56	266.98	48.21	-31.7	-34.1	11.5	6.48e-04	0	43	0	671088640	23	4789
2026-01-15 11:14:14.56	268.77	48.08	-29.8	-30.6	14.7	7.00e-07	0	43	0	677380096	20	3919
2026-01-15 11:14:17.55	270.54	47.93	-31.2	-33.1	12.6	1.20e-04	0	44	0	682622976	22	4509
2026-01-15 11:14:20.56	272.30	47.75	-31.7	-34.1	11.4	6.40e-04	0	43	0	687865856	23	4783
2026-01-15 11:14:23.57	274.04	47.53	-31.4	-33.4	11.9	3.29e-04	0	43	0	694157312	23	4523
2026-01-15 11:14:26.59	275.76	47.30	-31.4	-33.2	12.1	9.46e-04	0	43	0	699400192	23	4452
2026-01-15 11:14:29.60	277.45	47.03	-30.6	-31.6	13.5	1.90e-05	0	43	0	705691648	22	4033
2026-01-15 11:14:32.59	279.10	46.75	-30.6	-32.2	13.4	7.60e-06	0	43	0	710934528	21	4294
2026-01-15 11:14:35.59	280.72	46.44	-30.8	-31.5	13.2	1.16e-04	0	43	0	716177408	23	3906
2026-01-15 11:14:38.60	282.31	46.11	-30.6	-32.1	13.5	8.30e-06	0	43	0	722468864	21	4259
2026-01-15 11:14:41.61	283.87	45.76	-31.1	-33.0	12.5	9.00e-05	0	43	0	727711744	22	4454
2026-01-15 11:14:44.61	285.39	45.39	-32.3	-35.9	9.8	9.45e-03	0	43	0	732954624	24	5424
2026-01-15 11:14:47.61	286.87	45.00	-30.7	-31.8	13.4	1.60e-05	0	43	0	739246080	22	4093
2026-01-15 11:14:50.61	288.32	44.59	-30.9	-31.9	13.0	1.62e-04	0	43	0	744488960	23	4033
2026-01-15 11:14:53.61	289.73	44.17	-29.5	-30.3	15.3	0.00e+00	0	43	0	750780416	19	3914
2026-01-15 11:14:56.60	291.10	43.74	-29.4	-29.5	15.3	0.00e+00	0	43	0	756023296	20	3643
2026-01-15 11:14:59.61	292.44	43.30	-28.8	-29.5	16.4	0.00e+00	0	43	0	761266176	17	3901
2026-01-15 11:15:02.61	293.74	42.84	-28.1	-27.8	17.3	0.00e+00	0	43	0	767557632	17	3496
2026-01-15 11:15:05.61	295.01	42.38	-29.7	-30.6	15.1	0.00e+00	0	43	0	772800512	19	4017
2026-01-15 11:15:08.61	296.24	41.90	-28.3	-27.9	16.9	0.00e+00	0	43	0	778043392	18	3434
2026-01-15 11:15:11.61	297.43	41.42	-30.0	-31.0	14.6	0.00e+00	0	43	0	784334848	20	4037
2026-01-15 11:15:14.62	298.59	40.93	-29.7	-30.2	14.9	7.00e-07	0	43	0	789577728	20	3820
2026-01-15 11:15:17.61	299.71	40.43	-31.1	-33.0	12.6	1.39e-04	0	43	0	794820608	22	4452
2026-01-15 11:15:20.61	300.80	39.94	-31.3	-33.4	12.4	6.94e-05	0	43	0	801112064	22	4589
2026-01-15 11:15:23.60	301.85	39.43	-31.8	-34.6	11.1	1.62e-03	0	43	0	806354944	23	4963
2026-01-15 11:15:26.60	302.88	38.93	-31.7	-33.6	11.4	1.78e-03	0	44	0	812646400	24	4511
2026-01-15 11:15:29.61	303.87	38.42	-31.8	-34.4	11.3	5.70e-04	0	43	0	817889280	23	4880
2026-01-15 11:15:32.63	304.84	37.90	-32.3	-35.3	9.8	2.28e-02	0	43	0	823132160	25	5070
2026-01-15 11:15:35.63	305.78	37.39	-31.9	-34.2	11.1	1.49e-03	0	43	0	829423616	24	4711
2026-01-15 11:15:38.64	306.69	36.88	-33.1	-37.8	7.5	1.76e-01	0	43	0	834666496	26	6192
2026-01-15 11:15:41.65	307.57	36.37	-30.5	-31.3	13.6	1.37e-05	0	44	0	839909376	22	3938
2026-01-15 11:15:44.66	308.42	35.86	-31.6	-34.1	11.5	3.55e-04	0	43	0	846200832	23	4760
2026-01-15 11:15:47.66	309.24	35.35	-31.9	-34.0	10.8	2.06e-02	0	44	0	851443712	25	4562
2026-01-15 11:15:50.66	310.05	34.84	-31.1	-33.0	12.6	2.82e-05	0	43	0	857735168	22	4456
2026-01-15 11:15:53.65	310.82	34.34	-31.9	-35.0	10.7	1.98e-03	0	43	0	862978048	23	5110
2026-01-15 11:15:56.66	311.57	33.84	-31.0	-32.1	12.8	1.01e-04	0	44	0	868220928	23	4088
2026-01-15 11:15:59.66	312.31	33.34	-30.9	-32.3	13.0	3.12e-05	0	44	0	874512384	22	4247
2026-01-15 11:16:02.66	313.01	32.85	-32.3	-35.8	9.8	5.34e-03	0	44	0	879755264	24	5378
2026-01-15 11:16:05.66	313.70	32.36	-30.8	-31.7	13.0	5.56e-05	0	43	0	884998144	23	3979
2026-01-15 11:16:08.65	314.37	31.87	-30.2	-31.0	14.1	3.00e-06	0	43	0	891289600	21	3951
2026-01-15 11:16:11.65	315.02	31.39	-31.7	-34.2	11.2	9.99e-04	0	43	0	896532480	23	4835
2026-01-15 11:16:14.65	315.65	30.91	-31.1	-32.4	12.4	3.22e-04	0	44	0	901775360	23	4222
2026-01-15 11:16:17.65	316.26	30.43	-30.0	-30.5	14.3	3.80e-06	0	44	0	908066816	21	3828
2026-01-15 11:16:20.67	316.86	29.96	-29.5	-29.8	15.1	0.00e+00	0	43	0	913309696	20	3724
2026-01-15 11:16:23.67	317.44	29.49	-29.8	-30.6	14.6	0.00e+00	0	43	0	919601152	20	3929
2026-01-15 11:16:26.67	318.00	29.03	-30.6	-32.1	13.3	9.10e-06	0	43	0	924844032	21	4287
2026-01-15 11:16:29.68	318.55	28.57	-31.3	-33.7	12.0	2.06e-04	0	43	0	930086912	22	4732
2026-01-15 11:16:32.69	319.08	28.12	-31.0	-32.2	12.7	9.84e-05	0	44	0	936378368	23	4134
2026-01-15 11:16:35.70	319.60	27.67	-30.8	-32.3	12.9	8.85e-05	0	44	0	941621248	22	4241
2026-01-15 11:16:38.71	320.11	27.23	-30.9	-32.6	12.7	5.95e-05	0	43	0	946864128	22	4341
2026-01-15 11:16:41.72	320.60	26.79	-30.7	-31.8	13.1	7.17e-05	0	44	0	953155584	22	4104
2026-01-15 11:16:44.72	321.08	26.36	-29.6	-30.0	14.9	0.00e+00	0	44	0	958398464	20	3775
2026-01-15 11:16:47.74	321.54	25.93	-29.7	-30.3	14.7	0.00e+00	0	43	0	964689920	20	3850
2026-01-15 11:16:50.74	322.00	25.50	-30.2	-31.7	13.9	4.50e-06	0	44	0	969932800	20	4271
2026-01-15 11:16:53.74	322.44	25.09	-30.8	-32.8	12.8	7.93e-05	0	43	0	975175680	21	4513
2026-01-15 11:16:56.75	322.87	24.67	-31.0	-32.6	12.6	5.03e-05	0	44	0	981467136	22	4373
2026-01-15 11:16:59.75	323.29	24.26	-30.8	-32.3	12.8	2.36e-05	0	43	0	986710016	22	4281
2026-01-15 11:17:02.75	323.70	23.86	-31.3	-33.6	11.9	2.48e-04	0	43	0	991952896	22	4711
2026-01-15 11:17:05.76	324.10	23.46	-31.8	-34.8	10.7	2.42e-03	0	44	0	998244352	23	5072
2026-01-15 11:17:08.77	324.49	23.07	-31.7	-34.6	10.7	2.79e-03	0	43	0	1003487232	23	5008
2026-01-15 11:17:11.77	324.87	22.68	-31.6	-34.0	11.2	1.15e-03	0	43	0	1009778688	23	4789
2026-01-15 11:17:14.78	325.24	22.29	-31.8	-34.8	10.6	3.42e-03	0	43	0	1015021568	23	5097
2026-01-15 11:17:17.79	325.61	21.91	-32.0	-35.0	10.1	5.39e-03	0	44	0	1020264448	24	5092
2026-01-15 11:17:20.80	325.96	21.54	-31.2	-33.1	11.8	1.08e-03	0	43	0	1026555904	23	4453
2026-01-15 11:17:23.81	326.31	21.17	-29.9	-30.4	14.2	1.50e-06	0	43	0	1031798784	21	3815
2026-01-15 11:17:26.82	326.65	20.80	-29.3	-29.4	15.1	0.00e+00	0	44	0	1037041664	20	3632
2026-01-15 11:17:29.82	326.98	20.44	-29.4	-30.1	15.0	0.00e+00	0	43	0	1043333120	19	3899
2026-01-15 11:17:32.83	327.30	20.08	-30.2	-31.7	13.6	2.20e-06	0	43	0	1048576000	20	4269
2026-01-15 11:17:35.84	327.62	19.72	-31.0	-32.9	12.2	1.77e-04	0	43	0	1054867456	22	4476
2026-01-15 11:17:38.86	327.93	19.37	-31.4	-34.2	11.3	6.48e-04	0	43	0	1060110336	22	4960
2026-01-15 11:17:41.85	328.23	19.03	-31.4	-33.7	11.2	1.45e-03	0	44	0	1065353216	23	4669
2026-01-15 11:17:44.86	328.53	18.69	-31.0	-32.3	12.2	3.53e-04	0	44	0	1071644672	23	4213
2026-01-15 11:17:47.87	328.82	18.35	-30.7	-32.1	12.7	7.55e-05	0	43	0	1076887552	22	4212
2026-01-15 11:17:50.88	329.11	18.02	-30.7	-32.2	12.7	8.46e-05	0	43	0	1083179008	22	4256
2026-01-15 11:17:53.88	329.38	17.69	-30.9	-32.6	12.4	1.10e-04	0	43	0	1088421888	22	4388
2026-01-15 11:17:56.88	329.66	17.36	-31.1	-33.2	11.9	3.79e-04	0	43	0	1093664768	22	4610
2026-01-15 11:17:59.88	329.92	17.04	-31.3	-34.0	11.3	9.22e-04	0	43	0	1099956224	22	4901
2026-01-15 11:18:02.87	330.18	16.72	-31.7	-34.9	10.3	3.31e-03	0	43	0	1105199104	23	5158
2026-01-15 11:18:05.88	330.44	16.41	-31.6	-34.5	10.5	4.57e-03	0	44	0	1110441984	23	4997
2026-01-15 11:18:08.87	330.69	16.10	-31.6	-34.4	10.6	3.29e-03	0	44	0	1116733440	23	4986
2026-01-15 11:18:11.90	330.94	15.79	-31.3	-33.4	11.3	1.10e-03	0	43	0	1121976320	23	4607
2026-01-15 11:18:14.90	331.18	15.49	-31.0	-32.4	12.1	3.29e-04	0	43	0	1128267776	23	4241
2026-01-15 11:18:17.89	331.42	15.19	-30.7	-32.2	12.5	9.68e-05	0	43	0	1133510656	22	4269
2026-01-15 11:18:20.90	331.65	14.89	-30.6	-31.9	12.6	1.15e-04	0	43	0	1138753536	22	4188
2026-01-15 11:18:23.91	331.88	14.59	-30.3	-31.1	13.2	4.80e-05	0	43	0	1145044992	22	3940
2026-01-15 11:18:26.92	332.11	14.30	-30.4	-31.3	13.1	2.82e-05	0	44	0	1150287872	22	4002
2026-01-15 11:18:29.93	332.33	14.01	-30.5	-31.7	12.7	4.04e-05	0	43	0	1155530752	22	4137
2026-01-15 11:18:32.93	332.54	13.73	-30.8	-32.6	12.1	1.81e-04	0	43	0	1161822208	22	4405
2026-01-15 11:18:35.94	332.76	13.45	-30.7	-32.3	12.3	2.44e-04	0	43	0	1167065088	22	4320
2026-01-15 11:18:38.95	332.96	13.17	-30.7	-32.3	12.2	1.85e-04	0	43	0	1173356544	22	4324
2026-01-15 11:18:41.96	333.17	12.89	-30.6	-32.1	12.4	1.39e-04	0	43	0	1178599424	22	4253
2026-01-15 11:18:44.97	333.37	12.62	-30.5	-31.8	12.6	1.09e-04	0	43	0	1183842304	22	4168
2026-01-15 11:18:47.98	333.57	12.34	-30.5	-31.8	12.6	2.43e-04	0	44	0	1190133760	22	4159
2026-01-15 11:18:50.97	333.76	12.08	-30.8	-32.5	12.1	1.83e-04	0	43	0	1195376640	22	4397
2026-01-15 11:18:53.97	333.96	11.81	-30.8	-32.6	12.0	2.07e-04	0	43	0	1200619520	22	4419
2026-01-15 11:18:56.97	334.14	11.55	-30.9	-33.1	11.6	4.60e-04	0	43	0	1206910976	22	4593
2026-01-15 11:18:59.97	334.33	11.29	-31.2	-33.7	11.1	1.26e-03	0	43	0	1212153856	22	4845
2026-01-15 11:19:02.98	334.51	11.03	-31.2	-33.7	11.1	1.96e-03	0	43	0	1218445312	22	4850
2026-01-15 11:19:05.98	334.69	10.78	-31.2	-34.0	10.9	1.59e-03	0	44	0	1223688192	22	4973
2026-01-15 11:19:08.98	334.87	10.53	-31.3	-34.3	10.6	2.60e-03	0	44	0	1228931072	22	5085
2026-01-15 11:19:11.98	335.04	10.28	-31.2	-34.0	10.9	2.33e-03	0	43	0	1235222528	22	4970
2026-01-15 11:19:14.99	335.21	10.03	-31.3	-34.4	10.5	3.06e-03	0	43	0	1240465408	22	5125
2026-01-15 11:19:18.00	335.38	9.78	-31.2	-33.8	10.9	2.02e-03	0	43	0	1245708288	22	4910
2026-01-15 11:19:21.02	335.55	9.54	-31.0	-33.4	11.2	1.48e-03	0	43	0	1251999744	22	4759
2026-01-15 11:19:24.03	335.71	9.29	-31.1	-33.7	11.0	1.67e-03	0	44	0	1257242624	22	4856
2026-01-15 11:19:27.03	335.87	9.05	-31.0	-33.5	11.1	1.43e-03	0	43	0	1263534080	22	4798
2026-01-15 11:19:30.04	336.03	8.82	-31.0	-33.5	11.0	1.79e-03	0	43	0	1268776960	22	4779
2026-01-15 11:19:33.05	336.19	8.58	-31.0	-33.4	11.1	1.90e-03	0	44	0	1274019840	22	4767
2026-01-15 11:19:36.05	336.34	8.35	-31.2	-34.0	10.7	2.50e-03	0	44	0	1280311296	22	4973
2026-01-15 11:19:39.06	336.49	8.12	-31.0	-33.6	11.0	1.84e-03	0	43	0	1285554176	22	4819
2026-01-15 11:19:42.07	336.64	7.89	-31.1	-33.9	10.7	2.37e-03	0	43	0	1290797056	22	4950
2026-01-15 11:19:45.07	336.79	7.66	-31.0	-33.6	10.8	2.51e-03	0	43	0	1297088512	22	4839
2026-01-15 11:19:48.07	336.94	7.44	-31.0	-33.6	10.8	2.66e-03	0	43	0	1302331392	22	4858
2026-01-15 11:19:51.08	337.08	7.21	-31.1	-33.8	10.6	3.25e-03	0	44	0	1308622848	22	4941
2026-01-15 11:19:54.09	337.22	6.99	-33.8	-46.3	3.8	1.49e+00	0	44	104	1310720000	27	15170

#Closed at: 2026-01-15 11:19:54
#Recorded file [1310 MB]: D:/data/31010_260115_140813.dat