passes_logs/2026/01/15/R2M6_AANII_01/R2M6_AANII_01__20260115_035440_FENGYUN_3D_rec.log

#Pass ID: 20260115_035440_FENGYUN 3D
#Satellite: FENGYUN 3D
#Configuration: FENGYUN 3D
#almurnet v.1.7.20240730
#Start time: 2026-01-15 03:54:42

#Version: 2.2.20231116
#Station: R2M6_AANII_01
#Location: 30.233357 lon 59.946436 lat
#TLE: 1 43010U 17072A   26014.22831475  .00000226  00000+0  12883-3 0  9994
#TLE: 2 43010  98.9934 346.0326 0002309 109.2304 250.9121 14.19696287423146

#Time	Az	El	Level	Level2	SNR	BER	BlckErr	Temp	State	Recorded	gain1	gain2
2026-01-15 03:54:42.30	12.27	7.14	-31.2	-35.7	4.9	8.04e-01	0	41	0	0	22	6075
2026-01-15 03:54:45.29	12.05	7.35	-31.3	-35.8	7.4	1.25e-01	0	41	0	5242880	22	6080
2026-01-15 03:54:48.29	11.83	7.56	-30.8	-34.3	8.5	6.53e-02	0	41	0	22020096	22	5383
2026-01-15 03:54:51.31	11.61	7.77	-29.3	-31.6	11.4	1.50e-03	0	41	0	38797312	19	4686
2026-01-15 03:54:54.32	11.38	7.99	-29.0	-31.7	12.1	4.20e-04	0	42	0	55574528	17	4926
2026-01-15 03:54:57.31	11.15	8.20	-29.1	-31.4	11.9	5.18e-04	0	42	0	73400320	18	4733
2026-01-15 03:55:00.32	10.92	8.42	-28.7	-31.1	12.5	6.13e-04	0	42	0	90177536	17	4739
2026-01-15 03:55:03.33	10.68	8.63	-28.6	-30.7	12.7	5.09e-04	0	42	0	106954752	17	4596
2026-01-15 03:55:06.33	10.44	8.85	-27.5	-29.3	14.0	5.70e-06	0	42	0	123731968	15	4415
2026-01-15 03:55:09.35	10.19	9.07	-27.4	-29.5	14.2	2.32e-04	0	42	0	140509184	14	4589
2026-01-15 03:55:12.36	9.94	9.29	-27.3	-29.2	14.4	1.72e-04	0	42	0	157286400	14	4490
2026-01-15 03:55:15.36	9.69	9.52	-27.2	-29.1	14.5	1.57e-04	0	42	0	174063616	14	4468
2026-01-15 03:55:18.37	9.43	9.74	-27.3	-29.3	14.4	1.30e-04	0	42	0	190840832	14	4527
2026-01-15 03:55:21.38	9.17	9.97	-27.2	-29.1	14.5	1.19e-04	0	42	0	208666624	14	4469
2026-01-15 03:55:24.39	8.91	10.20	-27.1	-28.8	14.7	1.61e-04	0	42	0	225443840	14	4376
2026-01-15 03:55:27.40	8.64	10.42	-27.0	-28.6	14.8	1.65e-04	0	42	0	242221056	14	4324
2026-01-15 03:55:30.41	8.36	10.65	-27.1	-28.7	14.8	1.36e-04	0	42	0	258998272	14	4347
2026-01-15 03:55:33.42	8.08	10.89	-26.9	-28.4	15.0	1.61e-04	0	43	0	275775488	14	4256
2026-01-15 03:55:36.43	7.80	11.12	-26.9	-28.4	15.0	1.50e-04	0	43	0	292552704	14	4253
2026-01-15 03:55:39.44	7.51	11.36	-27.0	-28.6	14.9	2.17e-05	0	43	0	309329920	14	4318
2026-01-15 03:55:42.44	7.22	11.59	-27.0	-28.6	14.9	0.00e+00	0	43	0	326107136	14	4309
2026-01-15 03:55:45.46	6.92	11.83	-27.0	-28.5	15.0	3.66e-05	0	43	0	343932928	14	4282
2026-01-15 03:55:48.46	6.61	12.07	-26.8	-28.5	15.3	3.77e-05	0	43	0	360710144	13	4403
2026-01-15 03:55:51.48	6.30	12.31	-26.7	-28.4	15.3	7.20e-05	0	43	0	377487360	13	4363
2026-01-15 03:55:54.49	5.99	12.55	-26.7	-28.4	15.4	8.12e-05	0	43	0	394264576	13	4362
2026-01-15 03:55:57.51	5.67	12.80	-26.8	-28.6	15.3	2.74e-05	0	43	0	411041792	13	4425
2026-01-15 03:56:00.52	5.34	13.05	-26.4	-27.8	15.7	0.00e+00	0	43	0	428867584	13	4203
2026-01-15 03:56:03.53	5.01	13.29	-26.3	-28.1	15.8	0.00e+00	0	43	0	445644800	12	4397
2026-01-15 03:56:06.54	4.68	13.54	-26.3	-28.1	15.9	0.00e+00	0	43	0	462422016	12	4384
2026-01-15 03:56:09.55	4.33	13.79	-26.5	-28.0	15.7	0.00e+00	0	43	0	479199232	13	4255
2026-01-15 03:56:12.57	3.99	14.05	-26.4	-27.7	15.8	0.00e+00	0	43	0	495976448	13	4177
2026-01-15 03:56:15.58	3.63	14.30	-26.7	-28.4	15.5	0.00e+00	0	43	0	512753664	13	4355
2026-01-15 03:56:18.59	3.27	14.56	-26.7	-28.3	15.5	0.00e+00	0	43	0	529530880	13	4346
2026-01-15 03:56:21.60	2.90	14.81	-26.4	-27.7	15.9	0.00e+00	0	43	0	547356672	13	4170
2026-01-15 03:56:24.62	2.53	15.07	-26.0	-27.4	16.3	0.00e+00	0	43	0	564133888	12	4209
2026-01-15 03:56:27.62	2.15	15.33	-25.4	-26.6	16.2	0.00e+00	0	43	0	580911104	12	4139
2026-01-15 03:56:30.64	1.76	15.59	-26.1	-27.5	16.1	1.43e-03	0	43	0	597688320	12	4242
2026-01-15 03:56:33.65	1.36	15.85	-26.0	-27.7	16.5	0.00e+00	0	43	0	614465536	11	4410
2026-01-15 03:56:36.64	0.96	16.12	-25.8	-27.3	16.7	0.00e+00	0	43	0	631242752	11	4295
2026-01-15 03:56:39.65	0.55	16.38	-25.6	-26.9	17.0	1.33e-03	0	43	0	649068544	11	4176
2026-01-15 03:56:42.66	0.14	16.65	-25.7	-27.2	16.8	1.57e-03	0	43	0	665845760	11	4258
2026-01-15 03:56:45.66	359.71	16.92	-25.8	-27.4	16.7	0.00e+00	0	43	0	682622976	11	4305
2026-01-15 03:56:48.67	359.28	17.19	-25.6	-26.9	17.0	1.33e-03	0	43	0	699400192	11	4193
2026-01-15 03:56:51.69	358.84	17.46	-25.6	-26.9	17.0	1.50e-03	0	43	0	716177408	11	4168
2026-01-15 03:56:54.70	358.39	17.73	-25.4	-26.6	17.2	1.35e-03	0	43	0	732954624	11	4095
2026-01-15 03:56:57.70	357.94	18.00	-25.3	-26.8	17.4	0.00e+00	0	43	0	749731840	10	4277
2026-01-15 03:57:00.71	357.47	18.28	-25.2	-26.6	17.5	1.39e-03	0	43	0	766509056	10	4229
2026-01-15 03:57:03.72	357.00	18.55	-25.3	-26.7	17.4	1.38e-03	0	43	0	784334848	10	4247
2026-01-15 03:57:06.74	356.51	18.83	-25.4	-26.9	17.3	1.18e-03	0	43	0	801112064	10	4307
2026-01-15 03:57:09.75	356.02	19.11	-25.1	-26.4	17.6	0.00e+00	0	43	0	817889280	10	4168
2026-01-15 03:57:12.78	355.52	19.39	-25.1	-26.3	17.7	1.11e-03	0	43	0	834666496	10	4125
2026-01-15 03:57:15.78	355.01	19.66	-24.7	-26.1	18.1	0.00e+00	0	43	0	851443712	9	4190
2026-01-15 03:57:18.79	354.49	19.94	-24.8	-26.3	18.0	0.00e+00	0	43	0	868220928	9	4245
2026-01-15 03:57:21.79	353.96	20.22	-25.0	-26.2	17.8	0.00e+00	0	43	0	884998144	10	4117
2026-01-15 03:57:24.80	353.42	20.50	-25.0	-26.0	17.9	0.00e+00	0	43	0	902823936	10	4063
2026-01-15 03:57:27.80	352.87	20.78	-24.7	-25.9	18.2	0.00e+00	0	43	0	919601152	9	4140
2026-01-15 03:57:30.81	352.31	21.06	-24.7	-26.0	18.1	5.70e-06	0	43	0	936378368	9	4180
2026-01-15 03:57:33.82	351.74	21.35	-25.0	-26.6	17.8	2.15e-04	0	43	0	953155584	9	4327
2026-01-15 03:57:36.83	351.16	21.63	-24.9	-26.3	18.0	1.33e-04	0	43	0	969932800	9	4261
2026-01-15 03:57:39.84	350.57	21.91	-24.9	-26.4	17.9	2.74e-05	0	43	0	986710016	9	4273
2026-01-15 03:57:42.85	349.96	22.19	-24.5	-25.6	18.3	0.00e+00	0	43	0	1003487232	9	4086
2026-01-15 03:57:45.86	349.35	22.47	-24.6	-25.8	18.2	0.00e+00	0	43	0	1021313024	9	4128
2026-01-15 03:57:48.87	348.72	22.75	-24.8	-26.2	18.1	0.00e+00	0	43	0	1038090240	9	4220
2026-01-15 03:57:51.88	348.08	23.03	-24.4	-25.4	18.5	0.00e+00	0	43	0	1054867456	9	4019
2026-01-15 03:57:54.90	347.43	23.31	-24.3	-25.1	18.6	0.00e+00	0	43	0	1071644672	9	3950
2026-01-15 03:57:57.90	346.77	23.59	-24.0	-24.5	18.9	0.00e+00	0	43	0	1088421888	9	3812
2026-01-15 03:58:00.89	346.11	23.86	-24.0	-25.0	19.0	0.00e+00	0	44	0	1105199104	8	4031
2026-01-15 03:58:03.90	345.42	24.14	-24.2	-25.3	18.8	0.00e+00	0	44	0	1121976320	8	4109
2026-01-15 03:58:06.90	344.73	24.41	-24.2	-25.4	18.8	0.00e+00	0	43	0	1138753536	8	4132
2026-01-15 03:58:09.90	344.02	24.68	-24.0	-24.9	19.0	0.00e+00	0	43	0	1155530752	8	4008
2026-01-15 03:58:12.91	343.30	24.95	-23.8	-24.7	19.1	0.00e+00	0	43	0	1173356544	8	3957
2026-01-15 03:58:15.91	342.56	25.21	-23.8	-24.7	14.5	0.00e+00	0	43	0	1190133760	8	3954
2026-01-15 03:58:18.92	341.82	25.48	-23.6	-24.7	19.4	0.00e+00	0	43	0	1206910976	7	4061
2026-01-15 03:58:21.94	341.06	25.74	-23.7	-24.9	19.2	5.12e-04	0	44	0	1223688192	7	4124
2026-01-15 03:58:24.95	340.28	26.00	-23.8	-25.2	19.1	0.00e+00	0	43	0	1240465408	7	4193
2026-01-15 03:58:27.97	339.49	26.26	-23.8	-25.1	19.1	0.00e+00	0	44	0	1258291200	7	4178
2026-01-15 03:58:30.98	338.70	26.51	-23.8	-25.0	19.2	1.10e-03	0	43	0	1275068416	7	4153
2026-01-15 03:58:33.99	337.88	26.75	-23.8	-25.0	19.2	8.98e-04	0	44	0	1291845632	7	4154
2026-01-15 03:58:37.00	337.06	27.00	-23.8	-25.0	19.2	8.30e-04	0	44	0	1308622848	7	4144
2026-01-15 03:58:40.01	336.22	27.24	-23.5	-24.3	19.6	6.36e-04	0	43	0	1325400064	7	3984
2026-01-15 03:58:43.03	335.37	27.47	-23.3	-24.6	19.7	3.81e-04	0	43	0	1342177280	6	4150
2026-01-15 03:58:46.04	334.51	27.70	-23.3	-24.5	19.7	6.65e-04	0	43	0	1358954496	6	4138
2026-01-15 03:58:49.05	333.64	27.92	-23.4	-24.7	19.6	1.60e-04	0	43	0	1376780288	6	4191
2026-01-15 03:58:52.06	332.75	28.14	-24.0	-25.4	19.0	7.14e-04	0	43	0	1393557504	7	4253
2026-01-15 03:58:55.07	331.85	28.35	-23.6	-24.6	19.4	8.31e-04	0	43	0	1410334720	7	4052
2026-01-15 03:58:58.07	330.94	28.56	-23.3	-24.1	19.7	0.00e+00	0	44	0	1427111936	7	3927
2026-01-15 03:59:01.09	330.02	28.76	-23.4	-24.7	19.6	0.00e+00	0	43	0	1443889152	6	4175
2026-01-15 03:59:04.11	329.08	28.95	-23.5	-24.9	19.6	0.00e+00	0	44	0	1460666368	6	4227
2026-01-15 03:59:07.10	328.14	29.13	-23.4	-24.8	19.6	0.00e+00	0	44	0	1478492160	6	4213
2026-01-15 03:59:10.12	327.18	29.31	-23.6	-24.6	19.5	0.00e+00	0	44	0	1495269376	7	4047
2026-01-15 03:59:13.12	326.22	29.48	-23.9	-25.4	19.0	0.00e+00	0	43	0	1512046592	7	4238
2026-01-15 03:59:16.13	325.25	29.64	-24.1	-25.1	18.9	0.00e+00	0	44	0	1528823808	8	4067
2026-01-15 03:59:19.14	324.26	29.79	-23.4	-24.3	19.6	0.00e+00	0	43	0	1545601024	7	3969
2026-01-15 03:59:22.14	323.27	29.93	-23.7	-24.8	19.3	0.00e+00	0	43	0	1562378240	7	4103
2026-01-15 03:59:25.16	322.26	30.06	-23.3	-23.9	19.8	0.00e+00	0	44	0	1579155456	7	3890
2026-01-15 03:59:28.17	321.25	30.19	-23.3	-24.0	19.8	0.00e+00	0	44	0	1595932672	7	3900
2026-01-15 03:59:31.18	320.23	30.30	-22.9	-23.7	20.1	0.00e+00	0	43	0	1613758464	6	3938
2026-01-15 03:59:34.19	319.21	30.41	-22.9	-23.8	20.1	0.00e+00	0	44	0	1630535680	6	3967
2026-01-15 03:59:37.20	318.17	30.50	-22.9	-23.7	20.1	0.00e+00	0	43	0	1647312896	6	3946
2026-01-15 03:59:40.22	317.13	30.59	-23.2	-24.3	19.8	0.00e+00	0	43	0	1664090112	6	4099
2026-01-15 03:59:43.24	316.08	30.66	-23.0	-23.9	20.0	0.00e+00	0	44	0	1680867328	6	3978
2026-01-15 03:59:46.25	315.03	30.73	-22.9	-23.7	20.1	0.00e+00	0	44	0	1698693120	6	3950
2026-01-15 03:59:49.25	313.99	30.78	-22.9	-24.3	20.1	0.00e+00	0	43	0	1715470336	5	4194
2026-01-15 03:59:52.26	312.93	30.82	-22.8	-24.1	20.2	0.00e+00	0	44	0	1732247552	5	4149
2026-01-15 03:59:55.28	311.87	30.85	-23.0	-24.0	20.0	0.00e+00	0	43	0	1749024768	6	4011
2026-01-15 03:59:58.29	310.81	30.87	-23.1	-24.1	19.9	0.00e+00	0	43	0	1765801984	6	4038
2026-01-15 04:00:01.30	309.75	30.88	-23.0	-23.8	20.1	0.00e+00	0	44	0	1782579200	6	3975
2026-01-15 04:00:04.31	308.69	30.88	-23.0	-23.9	20.0	0.00e+00	0	43	0	1799356416	6	3998
2026-01-15 04:00:07.32	307.63	30.87	-23.2	-24.4	19.8	1.27e-04	0	44	0	1816133632	6	4103
2026-01-15 04:00:10.33	306.57	30.84	-23.0	-23.8	20.1	1.27e-04	0	44	0	1833959424	6	3966
2026-01-15 04:00:13.34	305.51	30.81	-23.0	-23.9	20.0	6.98e-05	0	43	0	1850736640	6	3995
2026-01-15 04:00:16.35	304.45	30.76	-22.9	-23.7	20.1	0.00e+00	0	43	0	1867513856	6	3943
2026-01-15 04:00:19.35	303.41	30.70	-23.1	-24.0	19.9	1.03e-04	0	43	0	1884291072	6	4020
2026-01-15 04:00:22.37	302.35	30.64	-22.9	-23.7	20.1	0.00e+00	0	44	0	1901068288	6	3934
2026-01-15 04:00:25.38	301.31	30.56	-22.9	-23.7	20.1	0.00e+00	0	44	0	1917845504	6	3947
2026-01-15 04:00:28.38	300.28	30.47	-22.9	-23.7	20.1	1.94e-05	0	44	0	1934622720	6	3951
2026-01-15 04:00:31.39	299.25	30.37	-22.9	-23.7	20.1	7.43e-05	0	44	0	1952448512	6	3941
2026-01-15 04:00:34.40	298.22	30.26	-23.1	-24.1	19.9	1.21e-04	0	44	0	1969225728	6	4050
2026-01-15 04:00:37.41	297.20	30.15	-23.0	-23.9	20.0	0.00e+00	0	44	0	1986002944	6	3994
2026-01-15 04:00:40.43	296.19	30.02	-22.3	-23.0	19.8	0.00e+00	0	44	0	2002780160	6	3880
2026-01-15 04:00:43.44	295.19	29.88	-22.7	-23.3	19.5	8.12e-05	0	44	0	2019557376	6	3863
2026-01-15 04:00:46.45	294.19	29.73	-22.9	-23.8	20.0	0.00e+00	0	44	0	2037383168	6	3954
2026-01-15 04:00:49.46	293.21	29.58	-23.2	-24.4	19.7	0.00e+00	0	43	0	2054160384	6	4111
2026-01-15 04:00:52.47	292.24	29.41	-23.3	-24.5	19.7	0.00e+00	0	43	0	2070937600	6	4140
2026-01-15 04:00:55.47	291.27	29.24	-23.3	-24.6	19.6	0.00e+00	0	43	0	2087714816	6	4158
2026-01-15 04:00:58.48	290.32	29.06	-23.1	-24.1	19.8	0.00e+00	0	44	0	2104492032	6	4045
2026-01-15 04:01:01.49	289.38	28.88	-23.2	-24.3	19.7	0.00e+00	0	44	0	2121269248	6	4093
2026-01-15 04:01:04.51	288.44	28.68	-23.2	-24.3	19.7	0.00e+00	0	44	0	2138046464	6	4094
2026-01-15 04:01:07.52	287.52	28.48	-23.1	-24.0	19.9	0.00e+00	0	44	0	2154823680	6	4024
2026-01-15 04:01:10.54	286.61	28.27	-23.6	-24.7	19.3	0.00e+00	0	44	0	2172649472	7	4073
2026-01-15 04:01:13.55	285.71	28.06	-23.1	-23.6	19.8	5.83e-05	0	44	0	2189426688	7	3815
2026-01-15 04:01:16.56	284.83	27.84	-23.0	-24.0	19.9	2.48e-04	0	44	0	2206203904	6	4013
2026-01-15 04:01:19.58	283.95	27.61	-23.2	-24.3	19.7	0.00e+00	0	44	0	2222981120	6	4087
2026-01-15 04:01:22.58	283.10	27.38	-23.0	-23.9	19.9	0.00e+00	0	44	0	2239758336	6	3999
2026-01-15 04:01:25.60	282.25	27.14	-23.1	-24.1	19.8	0.00e+00	0	44	0	2256535552	6	4038
2026-01-15 04:01:28.61	281.41	26.90	-23.2	-24.4	19.4	0.00e+00	0	44	0	2274361344	6	4105
2026-01-15 04:01:31.62	280.59	26.65	-23.3	-24.6	19.5	0.00e+00	0	44	0	2291138560	6	4156
2026-01-15 04:01:34.63	279.78	26.41	-23.3	-24.5	19.5	7.89e-05	0	44	0	2307915776	6	4136
2026-01-15 04:01:37.64	278.99	26.15	-23.3	-24.5	19.5	1.46e-03	0	44	0	2324692992	6	4154
2026-01-15 04:01:40.65	278.20	25.89	-23.3	-24.5	19.5	5.03e-05	0	44	0	2341470208	6	4149
2026-01-15 04:01:43.67	277.43	25.63	-23.1	-24.2	19.7	0.00e+00	0	44	0	2358247424	6	4060
2026-01-15 04:01:46.67	276.67	25.37	-23.4	-24.7	19.4	1.24e-03	0	44	0	2375024640	6	4199
2026-01-15 04:01:49.69	275.93	25.10	-23.9	-25.2	18.9	8.26e-04	0	44	0	2392850432	7	4212
2026-01-15 04:01:52.68	275.20	24.84	-23.6	-24.6	19.2	3.55e-04	0	44	0	2409627648	7	4057
2026-01-15 04:01:55.69	274.48	24.56	-23.8	-25.1	18.9	7.23e-04	0	44	0	2426404864	7	4169
2026-01-15 04:01:58.71	273.77	24.29	-23.9	-24.8	18.9	7.13e-04	0	44	0	2443182080	8	3993
2026-01-15 04:02:01.71	273.07	24.02	-23.2	-23.9	19.5	2.46e-04	0	44	0	2459959296	7	3888
2026-01-15 04:02:04.72	272.39	23.74	-23.5	-24.4	19.3	0.00e+00	0	44	0	2476736512	7	4003
2026-01-15 04:02:07.73	271.72	23.46	-23.5	-24.5	19.2	9.53e-04	0	44	0	2493513728	7	4021
2026-01-15 04:02:10.73	271.06	23.18	-23.6	-24.6	19.1	5.07e-04	0	44	0	2510290944	7	4063
2026-01-15 04:02:13.74	270.41	22.90	-23.6	-24.7	19.1	0.00e+00	0	44	0	2528116736	7	4081
2026-01-15 04:02:16.75	269.78	22.62	-23.8	-25.1	18.9	0.00e+00	0	44	0	2544893952	7	4179
2026-01-15 04:02:19.77	269.15	22.34	-23.8	-25.0	18.9	0.00e+00	0	44	0	2561671168	7	4147
2026-01-15 04:02:22.78	268.54	22.06	-24.0	-25.4	18.7	0.00e+00	0	44	0	2578448384	7	4265
2026-01-15 04:02:25.79	267.94	21.78	-23.9	-25.3	18.7	2.20e-06	0	43	0	2595225600	7	4240
2026-01-15 04:02:28.80	267.35	21.49	-24.0	-25.5	18.6	3.40e-06	0	44	0	2613051392	7	4281
2026-01-15 04:02:31.81	266.77	21.21	-24.1	-25.2	18.5	7.24e-04	0	44	0	2629828608	8	4101
2026-01-15 04:02:34.81	266.20	20.93	-23.8	-25.1	18.8	6.80e-06	0	44	0	2646605824	7	4190
2026-01-15 04:02:37.83	265.64	20.65	-24.0	-25.4	18.6	2.20e-06	0	43	0	2663383040	7	4266
2026-01-15 04:02:40.83	265.09	20.36	-24.1	-25.2	18.5	4.04e-04	0	44	0	2680160256	8	4098
2026-01-15 04:02:43.84	264.55	20.08	-24.1	-25.2	18.5	2.77e-04	0	44	0	2696937472	8	4099
2026-01-15 04:02:46.86	264.02	19.80	-24.2	-25.4	18.4	0.00e+00	0	44	0	2713714688	8	4141
2026-01-15 04:02:49.88	263.50	19.52	-24.3	-25.6	18.3	0.00e+00	0	44	0	2730491904	8	4193
2026-01-15 04:02:52.89	262.99	19.24	-24.4	-25.9	18.1	0.00e+00	0	44	0	2748317696	8	4261
2026-01-15 04:02:55.90	262.49	18.96	-24.6	-25.8	17.9	2.33e-04	0	44	0	2765094912	9	4120
2026-01-15 04:02:58.91	262.00	18.68	-24.3	-25.6	18.2	2.48e-04	0	44	0	2781872128	8	4206
2026-01-15 04:03:01.92	261.52	18.41	-24.5	-25.6	18.0	1.73e-04	0	44	0	2798649344	9	4089
2026-01-15 04:03:04.94	261.04	18.13	-24.7	-26.0	17.8	1.07e-04	0	44	0	2815426560	9	4179
2026-01-15 04:03:07.96	260.58	17.85	-24.8	-26.2	17.6	0.00e+00	0	44	0	2833252352	9	4246
2026-01-15 04:03:10.97	260.12	17.58	-24.8	-26.2	17.7	0.00e+00	0	44	0	2850029568	9	4227
2026-01-15 04:03:13.99	259.67	17.31	-24.9	-26.4	17.5	0.00e+00	0	44	0	2866806784	9	4285
2026-01-15 04:03:16.99	259.23	17.04	-25.1	-26.4	17.3	7.04e-04	0	44	0	2883584000	10	4164
2026-01-15 04:03:20.00	258.80	16.77	-25.1	-26.3	17.3	1.23e-03	0	44	0	2900361216	10	4160
2026-01-15 04:03:23.02	258.37	16.50	-25.3	-26.8	17.0	6.84e-04	0	44	0	2917138432	10	4271
2026-01-15 04:03:26.03	257.96	16.23	-25.3	-26.9	17.0	1.27e-03	0	44	0	2933915648	10	4294
2026-01-15 04:03:29.04	257.55	15.96	-25.4	-27.0	16.9	1.06e-03	0	44	0	2950692864	10	4327
2026-01-15 04:03:32.05	257.15	15.70	-25.3	-26.7	17.0	1.16e-03	0	44	0	2968518656	10	4258
2026-01-15 04:03:35.06	256.75	15.43	-25.3	-26.8	17.0	1.44e-03	0	44	0	2985295872	10	4268
2026-01-15 04:03:38.07	256.36	15.17	-25.4	-27.0	16.8	1.50e-03	0	44	0	3002073088	10	4335
2026-01-15 04:03:41.07	255.99	14.91	-25.4	-27.1	16.8	1.86e-03	0	44	0	3018850304	10	4373
2026-01-15 04:03:44.09	255.61	14.65	-25.5	-26.7	16.7	0.00e+00	0	44	0	3035627520	11	4131
2026-01-15 04:03:47.10	255.24	14.40	-25.7	-27.1	16.5	2.24e-03	0	44	0	3053453312	11	4238
2026-01-15 04:03:50.12	254.88	14.14	-25.9	-27.5	16.2	2.25e-03	0	44	0	3070230528	11	4370
2026-01-15 04:03:53.12	254.53	13.89	-25.9	-27.6	16.2	0.00e+00	0	44	0	3087007744	11	4391
2026-01-15 04:03:56.13	254.18	13.64	-26.0	-27.3	16.0	0.00e+00	0	44	0	3103784960	12	4207
2026-01-15 04:03:59.13	253.84	13.39	-26.3	-28.0	15.6	2.14e-03	0	43	0	3120562176	12	4386
2026-01-15 04:04:02.14	253.50	13.14	-26.1	-27.7	15.7	0.00e+00	0	44	0	3137339392	12	4302
2026-01-15 04:04:05.17	253.17	12.89	-26.3	-28.0	15.6	0.00e+00	0	44	0	3154116608	12	4375
2026-01-15 04:04:08.18	252.84	12.64	-25.9	-27.6	16.1	0.00e+00	0	44	0	3171942400	11	4385
2026-01-15 04:04:11.19	252.52	12.40	-26.0	-27.3	15.9	0.00e+00	0	44	0	3188719616	12	4196
2026-01-15 04:04:14.21	252.20	12.15	-26.0	-27.4	15.9	0.00e+00	0	44	0	3205496832	12	4218
2026-01-15 04:04:17.23	251.89	11.91	-26.2	-27.8	15.6	0.00e+00	0	44	0	3222274048	12	4327
2026-01-15 04:04:20.25	251.59	11.67	-26.4	-28.2	15.4	0.00e+00	0	44	0	3239051264	12	4452
2026-01-15 04:04:23.27	251.29	11.43	-26.2	-27.9	15.5	0.00e+00	0	44	0	3256877056	12	4356
2026-01-15 04:04:26.27	251.00	11.19	-26.3	-28.1	15.4	0.00e+00	0	44	0	3273654272	12	4417
2026-01-15 04:04:29.28	250.71	10.96	-26.4	-28.3	15.3	0.00e+00	0	44	0	3290431488	12	4483
2026-01-15 04:04:32.29	250.42	10.72	-26.5	-28.0	15.1	0.00e+00	0	44	0	3307208704	13	4288
2026-01-15 04:04:35.30	250.14	10.49	-26.7	-28.5	14.8	0.00e+00	0	44	0	3323985920	13	4428
2026-01-15 04:04:38.30	249.87	10.26	-26.7	-28.4	14.8	0.00e+00	0	44	0	3340763136	13	4407
2026-01-15 04:04:41.30	249.60	10.03	-27.1	-28.8	14.3	1.10e-06	0	44	0	3357540352	14	4398
2026-01-15 04:04:44.30	249.33	9.81	-26.8	-28.6	14.4	0.00e+00	0	44	0	3374317568	13	4450
2026-01-15 04:04:47.31	249.07	9.58	-26.5	-28.5	15.0	0.00e+00	0	44	0	3392143360	12	4537
2026-01-15 04:04:50.33	248.81	9.35	-26.6	-28.4	14.8	2.20e-06	0	44	0	3408920576	13	4386
2026-01-15 04:04:53.34	248.55	9.13	-26.8	-28.6	14.6	9.37e-04	0	44	0	3425697792	13	4465
2026-01-15 04:04:56.35	248.30	8.91	-26.8	-28.7	14.5	8.86e-04	0	44	0	3442475008	13	4498
2026-01-15 04:04:59.37	248.06	8.69	-27.2	-29.0	14.0	8.00e-06	0	44	0	3459252224	14	4465
2026-01-15 04:05:02.37	247.82	8.47	-27.0	-28.8	14.2	9.65e-04	0	44	0	3476029440	14	4395
2026-01-15 04:05:05.37	247.58	8.25	-27.0	-28.8	14.2	8.70e-04	0	44	0	3492806656	14	4397
2026-01-15 04:05:08.39	247.34	8.04	-27.2	-29.1	14.0	4.73e-04	0	44	0	3509583872	14	4486
2026-01-15 04:05:11.39	247.11	7.82	-27.1	-28.9	14.1	2.48e-04	0	44	0	3527409664	14	4427
2026-01-15 04:05:14.40	246.88	7.61	-27.3	-29.5	13.7	1.30e-04	0	44	0	3544186880	14	4612
2026-01-15 04:05:17.42	246.66	7.40	-27.2	-29.1	13.8	9.10e-06	0	44	0	3560964096	14	4512
2026-01-15 04:05:20.42	246.44	7.19	-27.3	-29.5	13.6	1.25e-05	0	44	0	3577741312	14	4610
2026-01-15 04:05:23.42	246.22	6.98	-33.3	-44.7	3.8	8.46e-01	0	44	104	3589275648	26	13310

#Closed at: 2026-01-15 04:05:25
#Recorded file [3589 MB]: D:/data/31010_260115_065444.dat