passes_logs/2026/01/15/R2M6_AANII_01/R2M6_AANII_01__20260115_233641_NOAA_20_JPSS-1_rec.log

#Pass ID: 20260115_233641_NOAA 20 (JPSS-1)
#Satellite: NOAA 20 (JPSS-1)
#Configuration: NOAA 20
#almurnet v.1.7.20240730
#Start time: 2026-01-15 23:36:40

#Version: 2.2.20231116
#Station: R2M6_AANII_01
#Location: 30.233357 lon 59.946436 lat
#TLE: 1 43013U 17073A   26015.47098083  .00000029  00000+0  34851-4 0  9997
#TLE: 2 43013  98.7636 316.4053 0001479  38.6686 321.4595 14.19536048422808

#Time	Az	El	Level	Level2	SNR	BER	BlckErr	Temp	State	Recorded	gain1	gain2
2026-01-15 23:36:40.72	22.46	6.97	-31.4	-37.9	5.0	1.27e+00	0	41	0	0	22	7609
2026-01-15 23:36:43.71	22.59	7.19	-31.8	-39.1	6.6	1.95e-01	0	41	0	1048576	23	8360
2026-01-15 23:36:46.71	22.73	7.42	-31.9	-39.8	6.2	3.50e-01	0	41	0	7340032	23	8936
2026-01-15 23:36:49.72	22.87	7.64	-31.4	-37.1	8.3	8.00e-02	0	41	0	12582912	23	6921
2026-01-15 23:36:52.72	23.01	7.87	-31.4	-37.8	8.2	4.98e-02	0	41	0	17825792	22	7466
2026-01-15 23:36:55.72	23.15	8.10	-31.1	-36.4	9.2	3.03e-02	0	41	0	24117248	22	6619
2026-01-15 23:36:58.73	23.29	8.33	-30.8	-35.7	10.1	9.28e-03	0	42	0	29360128	21	6351
2026-01-15 23:37:01.73	23.44	8.57	-30.8	-35.8	10.1	6.94e-03	0	42	0	35651584	21	6366
2026-01-15 23:37:04.73	23.59	8.80	-30.4	-34.4	11.3	1.19e-03	0	42	0	40894464	21	5665
2026-01-15 23:37:07.74	23.74	9.04	-30.4	-34.4	11.2	1.43e-03	0	42	0	46137344	21	5693
2026-01-15 23:37:10.75	23.89	9.28	-30.8	-35.5	10.4	2.76e-03	0	42	0	52428800	21	6225
2026-01-15 23:37:13.75	24.05	9.52	-30.7	-35.3	10.6	2.86e-03	0	42	0	57671680	21	6096
2026-01-15 23:37:16.76	24.21	9.77	-30.8	-35.5	10.3	5.65e-03	0	42	0	62914560	21	6218
2026-01-15 23:37:19.76	24.37	10.01	-31.1	-36.1	9.6	8.74e-03	0	42	0	69206016	22	6399
2026-01-15 23:37:22.76	24.53	10.26	-30.9	-36.0	10.1	7.80e-03	0	42	0	74448896	21	6461
2026-01-15 23:37:25.77	24.69	10.52	-31.2	-36.2	9.7	1.46e-02	0	42	0	79691776	22	6448
2026-01-15 23:37:28.78	24.86	10.77	-31.1	-36.1	9.7	1.29e-02	0	42	0	85983232	22	6378
2026-01-15 23:37:31.79	25.03	11.03	-31.1	-35.8	10.0	1.47e-02	0	42	0	91226112	22	6232
2026-01-15 23:37:34.80	25.21	11.29	-30.5	-34.5	11.3	2.13e-03	0	42	0	97517568	21	5676
2026-01-15 23:37:37.80	25.38	11.55	-30.3	-34.3	11.8	6.22e-04	0	42	0	102760448	20	5722
2026-01-15 23:37:40.79	25.56	11.81	-29.8	-33.4	12.9	5.79e-05	0	43	0	108003328	19	5422
2026-01-15 23:37:43.80	25.74	12.08	-29.9	-33.5	12.9	7.16e-04	0	43	0	114294784	19	5455
2026-01-15 23:37:46.81	25.93	12.35	-30.1	-33.5	12.5	8.95e-04	0	43	0	119537664	20	5374
2026-01-15 23:37:49.81	26.12	12.62	-29.9	-33.5	12.9	6.03e-04	0	43	0	124780544	19	5475
2026-01-15 23:37:52.81	26.31	12.89	-30.0	-33.3	12.7	6.35e-04	0	43	0	131072000	20	5279
2026-01-15 23:37:55.81	26.50	13.17	-30.0	-33.3	12.7	7.97e-04	0	43	0	136314880	20	5282
2026-01-15 23:37:58.80	26.70	13.45	-30.0	-33.2	12.8	5.03e-05	0	43	0	142606336	20	5231
2026-01-15 23:38:01.79	26.90	13.73	-29.8	-33.3	13.1	1.61e-03	0	43	0	147849216	19	5368
2026-01-15 23:38:04.79	27.11	14.02	-29.5	-32.7	13.8	1.29e-03	0	43	0	153092096	18	5261
2026-01-15 23:38:07.79	27.32	14.31	-29.6	-32.6	13.6	1.21e-03	0	43	0	159383552	19	5082
2026-01-15 23:38:10.79	27.53	14.60	-29.6	-32.7	13.6	9.63e-04	0	43	0	164626432	19	5118
2026-01-15 23:38:13.79	27.75	14.90	-29.8	-33.3	13.2	9.40e-04	0	43	0	169869312	19	5371
2026-01-15 23:38:16.78	27.97	15.20	-29.9	-33.5	13.0	4.45e-04	0	43	0	176160768	19	5459
2026-01-15 23:38:19.78	28.19	15.50	-29.8	-33.1	13.4	4.75e-04	0	43	0	181403648	19	5259
2026-01-15 23:38:22.79	28.43	15.81	-29.6	-32.7	13.6	5.18e-04	0	43	0	186646528	19	5113
2026-01-15 23:38:25.79	28.66	16.12	-29.5	-32.7	14.0	9.41e-04	0	43	0	192937984	18	5218
2026-01-15 23:38:28.78	28.90	16.43	-29.4	-32.5	14.1	1.36e-03	0	43	0	198180864	18	5150
2026-01-15 23:38:31.79	29.14	16.74	-29.5	-32.3	13.9	1.96e-03	0	43	0	204472320	19	4974
2026-01-15 23:38:34.80	29.39	17.07	-29.5	-32.4	13.9	7.45e-04	0	43	0	209715200	19	5004
2026-01-15 23:38:37.80	29.65	17.39	-29.6	-32.5	13.9	3.00e-06	0	43	0	214958080	19	5034
2026-01-15 23:38:40.81	29.91	17.72	-29.7	-32.7	13.8	6.10e-06	0	43	0	221249536	19	5105
2026-01-15 23:38:43.82	30.17	18.05	-29.5	-32.7	14.0	3.00e-06	0	43	0	226492416	18	5224
2026-01-15 23:38:46.83	30.44	18.39	-29.7	-32.7	13.7	2.74e-04	0	43	0	232783872	19	5116
2026-01-15 23:38:49.82	30.72	18.73	-29.5	-32.4	14.0	4.51e-04	0	43	0	238026752	19	4983
2026-01-15 23:38:52.82	31.00	19.07	-29.7	-32.7	13.8	6.80e-06	0	43	0	243269632	19	5085
2026-01-15 23:38:55.82	31.29	19.42	-29.7	-32.7	13.8	1.50e-06	0	43	0	249561088	19	5102
2026-01-15 23:38:58.82	31.58	19.77	-29.9	-33.4	13.4	1.29e-05	0	43	0	254803968	19	5355
2026-01-15 23:39:01.83	31.88	20.13	-29.7	-32.6	13.9	4.50e-06	0	43	0	260046848	19	5066
2026-01-15 23:39:04.84	32.19	20.49	-29.9	-33.2	13.5	3.80e-06	0	43	0	266338304	19	5280
2026-01-15 23:39:07.84	32.51	20.86	-29.6	-32.5	14.0	2.24e-04	0	43	0	271581184	19	5005
2026-01-15 23:39:10.84	32.83	21.23	-29.8	-33.1	13.7	5.30e-06	0	43	0	276824064	19	5221
2026-01-15 23:39:13.84	33.16	21.61	-29.7	-32.6	13.9	2.20e-06	0	43	0	283115520	19	5057
2026-01-15 23:39:16.84	33.50	21.99	-29.8	-32.9	13.8	2.20e-06	0	43	0	288358400	19	5160
2026-01-15 23:39:19.84	33.84	22.37	-29.6	-32.5	14.1	1.50e-06	0	43	0	294649856	19	5006
2026-01-15 23:39:22.84	34.20	22.76	-29.8	-32.9	13.8	3.00e-06	0	43	0	299892736	19	5166
2026-01-15 23:39:25.84	34.56	23.15	-29.5	-32.4	14.1	3.00e-06	0	43	0	305135616	19	4978
2026-01-15 23:39:28.83	34.93	23.55	-29.6	-32.4	13.5	5.29e-04	0	43	0	311427072	19	4992
2026-01-15 23:39:31.83	35.31	23.96	-29.6	-32.5	14.1	7.00e-07	0	43	0	316669952	19	5014
2026-01-15 23:39:34.82	35.70	24.37	-29.8	-32.9	13.8	3.00e-06	0	43	0	321912832	19	5160
2026-01-15 23:39:37.81	36.10	24.78	-29.9	-33.1	13.7	6.10e-06	0	43	0	328204288	19	5236
2026-01-15 23:39:40.81	36.51	25.20	-29.8	-32.8	13.9	6.10e-06	0	43	0	333447168	19	5120
2026-01-15 23:39:43.81	36.93	25.62	-29.7	-32.6	14.1	3.80e-06	0	43	0	338690048	19	5027
2026-01-15 23:39:46.82	37.36	26.06	-29.8	-32.9	13.9	1.50e-06	0	43	0	344981504	19	5146
2026-01-15 23:39:49.81	37.81	26.49	-30.0	-33.4	13.6	4.50e-06	0	44	0	350224384	19	5332
2026-01-15 23:39:52.81	38.26	26.93	-30.1	-33.2	13.3	2.28e-05	0	43	0	355467264	20	5167
2026-01-15 23:39:55.82	38.73	27.38	-30.3	-33.9	12.9	4.19e-05	0	43	0	361758720	20	5417
2026-01-15 23:39:58.82	39.22	27.83	-30.4	-34.0	12.7	7.70e-05	0	43	0	367001600	20	5478
2026-01-15 23:40:01.83	39.71	28.29	-30.6	-34.1	12.4	4.15e-04	0	43	0	373293056	21	5385
2026-01-15 23:40:04.84	40.22	28.75	-30.8	-34.8	11.9	1.24e-03	0	43	0	378535936	21	5714
2026-01-15 23:40:07.84	40.75	29.22	-31.1	-35.1	11.4	1.10e-03	0	43	0	383778816	22	5736
2026-01-15 23:40:10.84	41.29	29.69	-31.2	-35.6	11.1	1.53e-03	0	44	0	390070272	22	5946
2026-01-15 23:40:13.85	41.85	30.17	-31.3	-35.6	11.1	1.77e-03	0	44	0	395313152	22	5960
2026-01-15 23:40:16.86	42.42	30.66	-31.3	-35.6	11.1	1.77e-03	0	43	0	400556032	22	5931
2026-01-15 23:40:19.87	43.01	31.15	-31.2	-35.4	11.3	1.23e-03	0	43	0	406847488	22	5845
2026-01-15 23:40:22.86	43.61	31.64	-31.1	-35.2	11.4	9.22e-04	0	43	0	412090368	22	5736
2026-01-15 23:40:25.87	44.24	32.14	-31.0	-34.6	11.9	6.03e-04	0	43	0	418381824	22	5496
2026-01-15 23:40:28.88	44.89	32.65	-30.7	-33.9	12.4	1.20e-04	0	43	0	423624704	22	5193
2026-01-15 23:40:31.89	45.55	33.16	-30.3	-33.4	13.0	7.85e-05	0	44	0	428867584	21	5092
2026-01-15 23:40:34.88	46.24	33.67	-30.1	-32.7	13.6	5.30e-06	0	44	0	435159040	21	4851
2026-01-15 23:40:37.88	46.94	34.19	-30.0	-32.3	13.8	9.90e-06	0	44	0	440401920	21	4700
2026-01-15 23:40:40.88	47.67	34.71	-29.8	-32.3	14.1	2.21e-05	0	44	0	445644800	20	4820
2026-01-15 23:40:43.88	48.42	35.23	-29.9	-32.5	14.0	3.00e-06	0	44	0	451936256	20	4878
2026-01-15 23:40:46.88	49.20	35.76	-30.3	-33.7	13.2	8.30e-06	0	44	0	457179136	20	5318
2026-01-15 23:40:49.89	50.01	36.29	-30.8	-34.7	12.3	1.03e-04	0	44	0	463470592	21	5601
2026-01-15 23:40:52.89	50.83	36.82	-29.6	-31.7	14.5	1.50e-06	0	44	0	468713472	20	4613
2026-01-15 23:40:55.89	51.69	37.36	-29.3	-31.6	15.0	7.00e-07	0	43	0	473956352	19	4663
2026-01-15 23:40:58.88	52.57	37.89	-29.8	-32.8	14.2	0.00e+00	0	44	0	480247808	19	5093
2026-01-15 23:41:01.89	53.48	38.43	-29.4	-31.8	15.0	0.00e+00	0	44	0	485490688	19	4722
2026-01-15 23:41:04.89	54.43	38.97	-29.4	-31.7	14.9	0.00e+00	0	44	0	490733568	19	4703
2026-01-15 23:41:07.89	55.40	39.50	-29.6	-32.2	14.6	1.67e-05	0	43	0	497025024	19	4870
2026-01-15 23:41:10.89	56.41	40.04	-29.7	-32.5	14.5	7.00e-07	0	44	0	502267904	19	4971
2026-01-15 23:41:13.90	57.45	40.58	-30.0	-32.8	13.9	2.20e-06	0	44	0	507510784	20	4967
2026-01-15 23:41:16.91	58.53	41.11	-30.3	-33.5	13.5	6.80e-06	0	44	0	513802240	20	5246
2026-01-15 23:41:19.92	59.64	41.64	-30.6	-34.0	12.8	4.65e-05	0	44	0	519045120	21	5311
2026-01-15 23:41:22.91	60.78	42.16	-30.6	-34.1	12.8	4.88e-05	0	44	0	525336576	21	5351
2026-01-15 23:41:25.92	61.97	42.68	-30.9	-34.8	12.3	1.80e-04	0	44	0	530579456	21	5630
2026-01-15 23:41:28.93	63.19	43.19	-30.6	-34.0	12.9	1.30e-04	0	44	0	535822336	21	5310
2026-01-15 23:41:31.93	64.45	43.70	-30.6	-33.9	12.9	3.81e-05	0	43	0	542113792	21	5283
2026-01-15 23:41:34.93	65.75	44.19	-30.8	-34.7	12.5	1.25e-04	0	44	0	547356672	21	5597
2026-01-15 23:41:37.94	67.10	44.68	-30.8	-34.6	12.5	1.24e-04	0	44	0	552599552	21	5557
2026-01-15 23:41:40.93	68.47	45.15	-30.3	-33.0	13.6	6.80e-06	0	44	0	558891008	21	4930
2026-01-15 23:41:43.94	69.90	45.61	-30.6	-33.9	12.9	6.17e-05	0	43	0	564133888	21	5286
2026-01-15 23:41:46.95	71.37	46.06	-30.6	-33.8	13.0	2.67e-05	0	44	0	570425344	21	5241
2026-01-15 23:41:49.95	72.87	46.48	-30.7	-34.1	12.8	3.58e-05	0	44	0	575668224	21	5334
2026-01-15 23:41:52.96	74.42	46.90	-31.0	-34.7	12.1	2.17e-04	0	44	0	580911104	22	5484
2026-01-15 23:41:55.97	76.01	47.29	-31.0	-34.7	12.1	3.15e-04	0	44	0	587202560	22	5460
2026-01-15 23:41:58.97	77.63	47.66	-31.2	-35.3	11.7	3.53e-04	0	44	0	592445440	22	5716
2026-01-15 23:42:01.97	79.29	48.02	-31.3	-35.5	11.5	5.23e-04	0	44	0	597688320	22	5843
2026-01-15 23:42:04.97	80.99	48.34	-31.1	-34.5	11.9	5.51e-04	0	44	0	603979776	23	5297
2026-01-15 23:42:07.96	82.72	48.64	-30.8	-34.0	12.6	9.00e-05	0	44	0	609222656	22	5210
2026-01-15 23:42:10.97	84.49	48.92	-31.0	-34.6	12.3	1.95e-04	0	44	0	614465536	22	5419
2026-01-15 23:42:13.96	86.28	49.17	-30.5	-33.0	13.3	2.21e-05	0	44	0	620756992	22	4835
2026-01-15 23:42:16.97	88.11	49.39	-30.7	-34.2	12.8	4.04e-05	0	44	0	625999872	21	5382
2026-01-15 23:42:19.97	89.95	49.58	-30.1	-32.6	13.8	7.60e-06	0	44	0	632291328	21	4794
2026-01-15 23:42:22.97	91.82	49.74	-30.2	-32.9	13.7	7.00e-07	0	44	0	637534208	21	4873
2026-01-15 23:42:25.97	93.71	49.87	-29.6	-31.8	14.7	1.50e-06	0	43	0	642777088	20	4616
2026-01-15 23:42:28.97	95.61	49.96	-29.7	-32.0	14.6	0.00e+00	0	44	0	649068544	20	4700
2026-01-15 23:42:31.97	97.52	50.02	-29.6	-32.2	14.9	7.00e-07	0	43	0	654311424	19	4841
2026-01-15 23:42:34.98	99.44	50.05	-30.2	-33.4	13.7	1.06e-05	0	44	0	659554304	20	5191
2026-01-15 23:42:37.98	101.36	50.05	-30.1	-33.1	13.8	0.00e+00	0	44	0	665845760	20	5065
2026-01-15 23:42:40.98	103.28	50.01	-30.0	-32.8	14.1	4.50e-06	0	44	0	671088640	20	4945
2026-01-15 23:42:43.99	105.19	49.94	-30.6	-33.8	13.1	3.28e-05	0	44	0	677380096	21	5227
2026-01-15 23:42:46.98	107.08	49.83	-30.3	-33.1	13.5	2.20e-06	0	44	0	682622976	21	4959
2026-01-15 23:42:49.99	108.97	49.70	-30.0	-32.3	13.9	7.60e-06	0	44	0	687865856	21	4687
2026-01-15 23:42:52.99	110.84	49.53	-30.7	-34.2	12.8	2.67e-05	0	44	0	694157312	21	5394
2026-01-15 23:42:55.98	112.67	49.33	-30.6	-33.8	13.1	3.43e-05	0	44	0	699400192	21	5244
2026-01-15 23:42:59.00	114.50	49.10	-32.0	-36.7	10.0	8.93e-03	0	44	0	704643072	24	6194
2026-01-15 23:43:02.00	116.29	48.85	-31.8	-36.1	10.4	1.69e-03	0	44	0	710934528	24	5916
2026-01-15 23:43:05.00	118.05	48.56	-32.3	-37.3	9.1	4.66e-02	0	44	0	716177408	25	6409
2026-01-15 23:43:07.99	119.77	48.25	-32.3	-38.1	9.0	1.44e-02	0	44	0	721420288	24	6991
2026-01-15 23:43:10.99	121.46	47.92	-31.5	-35.1	11.2	2.24e-03	0	44	0	727711744	24	5431
2026-01-15 23:43:14.00	123.12	47.56	-32.0	-36.6	10.0	1.09e-02	0	44	0	732954624	24	6167
2026-01-15 23:43:17.01	124.74	47.18	-30.9	-34.1	12.6	6.71e-05	0	44	0	739246080	22	5241
2026-01-15 23:43:20.02	126.32	46.78	-30.8	-33.9	12.7	1.04e-04	0	44	0	744488960	22	5156
2026-01-15 23:43:23.01	127.86	46.36	-31.0	-34.6	12.3	1.94e-04	0	44	0	749731840	22	5421
2026-01-15 23:43:26.01	129.35	45.93	-30.2	-32.8	13.8	8.30e-06	0	44	0	756023296	21	4847
2026-01-15 23:43:29.01	130.80	45.48	-30.8	-34.6	12.6	6.02e-05	0	44	0	761266176	21	5542
2026-01-15 23:43:32.01	132.22	45.01	-30.8	-34.1	12.5	9.15e-05	0	43	0	766509056	22	5250
2026-01-15 23:43:35.02	133.60	44.53	-30.4	-32.9	13.3	2.82e-05	0	44	0	772800512	22	4793
2026-01-15 23:43:38.02	134.93	44.04	-30.4	-33.4	13.3	1.98e-05	0	44	0	778043392	21	5067
2026-01-15 23:43:41.03	136.22	43.54	-30.1	-33.1	13.9	3.80e-06	0	44	0	784334848	20	5080
2026-01-15 23:43:44.02	137.47	43.04	-30.8	-34.5	12.6	7.17e-05	0	44	0	789577728	21	5488
2026-01-15 23:43:47.04	138.69	42.52	-30.3	-32.9	13.6	8.30e-06	0	44	0	794820608	21	4910
2026-01-15 23:43:50.04	139.87	42.00	-31.0	-34.6	11.6	1.84e-04	0	44	0	801112064	22	5460
2026-01-15 23:43:53.04	141.01	41.47	-30.6	-34.0	12.9	8.54e-05	0	44	0	806354944	21	5304
2026-01-15 23:43:56.04	142.11	40.94	-31.3	-35.5	11.6	3.45e-04	0	44	0	811597824	22	5834
2026-01-15 23:43:59.05	143.18	40.40	-31.0	-34.6	12.2	3.40e-04	0	44	0	817889280	22	5425
2026-01-15 23:44:02.06	144.21	39.86	-31.8	-36.8	10.2	4.03e-03	0	44	0	823132160	23	6385
2026-01-15 23:44:05.06	145.21	39.32	-32.4	-38.5	8.4	4.86e-02	0	44	0	829423616	24	7297
2026-01-15 23:44:08.07	146.18	38.78	-31.6	-36.0	10.8	3.79e-03	0	44	0	834666496	23	5989
2026-01-15 23:44:11.08	147.12	38.24	-32.4	-38.6	8.4	3.79e-02	0	44	0	839909376	24	7332
2026-01-15 23:44:14.07	148.02	37.70	-30.9	-34.2	12.4	6.77e-04	0	44	0	846200832	22	5287
2026-01-15 23:44:17.07	148.90	37.16	-31.5	-35.8	11.0	9.80e-04	0	44	0	851443712	23	5897
2026-01-15 23:44:20.07	149.75	36.63	-32.4	-37.9	8.4	7.10e-02	0	44	0	856686592	25	6841
2026-01-15 23:44:23.09	150.58	36.09	-31.8	-36.6	10.2	7.40e-03	0	44	0	862978048	23	6300
2026-01-15 23:44:26.10	151.38	35.55	-32.7	-39.5	7.3	7.45e-02	0	44	0	868220928	25	7868
2026-01-15 23:44:29.10	152.15	35.02	-32.1	-37.5	9.2	3.58e-02	0	44	0	874512384	24	6665
2026-01-15 23:44:32.09	152.89	34.50	-31.8	-36.7	10.1	1.01e-02	0	44	0	879755264	23	6342
2026-01-15 23:44:35.10	153.62	33.98	-32.8	-40.1	6.8	7.20e-02	0	44	0	884998144	25	8314
2026-01-15 23:44:38.10	154.32	33.46	-31.5	-35.1	11.0	7.65e-03	0	44	0	891289600	24	5451
2026-01-15 23:44:41.10	155.00	32.94	-31.0	-34.7	12.0	5.91e-04	0	44	0	896532480	22	5488
2026-01-15 23:44:44.10	155.66	32.43	-32.2	-37.6	9.1	1.90e-02	0	44	0	901775360	24	6754
2026-01-15 23:44:47.10	156.30	31.93	-32.2	-37.9	8.8	4.94e-02	0	44	0	908066816	24	6904
2026-01-15 23:44:50.09	156.92	31.43	-30.9	-34.2	12.2	1.83e-03	0	44	0	913309696	22	5314
2026-01-15 23:44:53.09	157.52	30.94	-30.7	-34.4	12.4	1.54e-03	0	44	0	918552576	21	5504
2026-01-15 23:44:56.09	158.10	30.45	-31.7	-36.5	10.3	4.33e-03	0	44	0	924844032	23	6251
2026-01-15 23:44:59.11	158.67	29.96	-31.7	-36.6	10.1	8.69e-03	0	44	0	930086912	23	6327
2026-01-15 23:45:02.11	159.22	29.48	-31.3	-35.7	11.1	4.69e-03	0	44	0	936378368	22	5955
2026-01-15 23:45:05.12	159.76	29.00	-31.0	-34.8	11.8	2.56e-03	0	44	0	941621248	22	5545
2026-01-15 23:45:08.13	160.28	28.53	-31.5	-36.3	10.7	4.86e-03	0	44	0	946864128	22	6250
2026-01-15 23:45:11.13	160.79	28.07	-31.2	-35.3	11.4	1.46e-03	0	44	0	953155584	22	5777
2026-01-15 23:45:14.14	161.28	27.61	-30.6	-34.0	12.6	3.61e-04	0	44	0	958398464	21	5332
2026-01-15 23:45:17.15	161.76	27.15	-30.3	-33.7	13.2	1.99e-04	0	44	0	963641344	20	5352
2026-01-15 23:45:20.16	162.23	26.71	-30.8	-34.8	12.1	2.59e-04	0	44	0	969932800	21	5679
2026-01-15 23:45:23.17	162.68	26.26	-30.9	-35.1	11.8	3.88e-04	0	44	0	975175680	21	5866
2026-01-15 23:45:26.17	163.12	25.83	-31.2	-35.7	11.0	4.39e-03	0	44	0	981467136	22	6043
2026-01-15 23:45:29.16	163.55	25.40	-30.7	-34.6	12.1	5.90e-04	0	44	0	986710016	21	5655
2026-01-15 23:45:32.18	163.97	24.97	-30.1	-33.3	13.4	2.19e-04	0	44	0	991952896	20	5171
2026-01-15 23:45:35.18	164.38	24.55	-30.2	-33.5	13.2	3.81e-05	0	44	0	998244352	20	5272
2026-01-15 23:45:38.19	164.78	24.13	-30.3	-33.7	13.0	3.05e-05	0	44	0	1003487232	20	5367
2026-01-15 23:45:41.18	165.16	23.72	-30.3	-33.8	12.9	3.96e-05	0	44	0	1008730112	20	5419
2026-01-15 23:45:44.19	165.54	23.32	-30.3	-33.8	13.0	3.35e-05	0	44	0	1015021568	20	5416
2026-01-15 23:45:47.20	165.91	22.91	-30.1	-33.4	13.2	3.04e-04	0	44	0	1020264448	20	5242
2026-01-15 23:45:50.21	166.27	22.52	-30.0	-33.2	13.3	3.38e-04	0	44	0	1026555904	20	5161
2026-01-15 23:45:53.22	166.62	22.13	-30.0	-32.9	13.5	1.90e-05	0	43	0	1031798784	20	5063
2026-01-15 23:45:56.21	166.96	21.74	-30.1	-33.4	12.5	1.67e-05	0	44	0	1037041664	20	5227
2026-01-15 23:45:59.21	167.30	21.36	-30.4	-34.2	12.7	7.24e-05	0	44	0	1043333120	20	5553
2026-01-15 23:46:02.22	167.62	20.99	-30.5	-34.0	12.4	1.40e-04	0	44	0	1048576000	21	5382
2026-01-15 23:46:05.22	167.94	20.62	-30.6	-34.1	12.3	1.54e-04	0	44	0	1053818880	21	5420
2026-01-15 23:46:08.23	168.26	20.25	-30.3	-33.8	12.8	2.06e-03	0	44	0	1060110336	20	5420
2026-01-15 23:46:11.22	168.56	19.89	-29.9	-33.2	13.7	1.22e-05	0	44	0	1065353216	19	5256
2026-01-15 23:46:14.22	168.86	19.53	-29.8	-33.0	13.8	6.10e-06	0	43	0	1071644672	19	5180
2026-01-15 23:46:17.22	169.15	19.18	-29.9	-33.2	13.7	6.80e-06	0	44	0	1076887552	19	5273
2026-01-15 23:46:20.22	169.43	18.83	-30.1	-33.5	13.1	2.05e-05	0	44	0	1082130432	20	5269
2026-01-15 23:46:23.23	169.71	18.48	-30.2	-33.7	12.9	2.08e-03	0	43	0	1088421888	20	5381
2026-01-15 23:46:26.23	169.98	18.14	-30.3	-33.9	12.8	2.39e-03	0	44	0	1093664768	20	5447
2026-01-15 23:46:29.23	170.25	17.81	-30.0	-33.2	13.2	2.24e-03	0	44	0	1098907648	20	5158
2026-01-15 23:46:32.23	170.51	17.47	-29.9	-33.3	13.5	2.03e-03	0	44	0	1105199104	19	5311
2026-01-15 23:46:35.24	170.77	17.14	-29.5	-32.3	14.2	3.80e-06	0	44	0	1110441984	19	4941
2026-01-15 23:46:38.25	171.02	16.82	-29.3	-32.2	14.5	7.00e-07	0	44	0	1115684864	18	5039
2026-01-15 23:46:41.25	171.27	16.50	-29.8	-33.2	13.5	1.88e-03	0	44	0	1121976320	19	5292
2026-01-15 23:46:44.25	171.51	16.18	-29.7	-32.9	13.6	1.89e-03	0	44	0	1127219200	19	5201
2026-01-15 23:46:47.27	171.74	15.87	-29.8	-33.0	13.6	1.80e-03	0	44	0	1133510656	19	5234
2026-01-15 23:46:50.27	171.98	15.56	-30.1	-33.5	12.9	1.77e-03	0	44	0	1138753536	20	5324
2026-01-15 23:46:53.28	172.20	15.25	-30.2	-34.0	12.5	1.98e-03	0	44	0	1143996416	20	5567
2026-01-15 23:46:56.29	172.43	14.94	-30.2	-34.1	12.4	1.40e-04	0	44	0	1150287872	20	5600
2026-01-15 23:46:59.30	172.64	14.64	-30.3	-34.1	12.4	1.66e-04	0	43	0	1155530752	20	5604
2026-01-15 23:47:02.30	172.86	14.35	-30.1	-33.6	12.7	1.86e-03	0	44	0	1160773632	20	5384
2026-01-15 23:47:05.30	173.07	14.05	-30.1	-33.5	12.8	1.58e-03	0	44	0	1167065088	20	5340
2026-01-15 23:47:08.32	173.28	13.76	-29.9	-32.9	13.2	1.23e-03	0	44	0	1172307968	20	5086
2026-01-15 23:47:11.32	173.48	13.48	-30.1	-33.4	12.9	9.80e-04	0	44	0	1178599424	20	5296
2026-01-15 23:47:14.33	173.68	13.19	-30.3	-34.0	12.5	1.50e-04	0	44	0	1183842304	20	5527
2026-01-15 23:47:17.32	173.87	12.91	-30.4	-34.3	12.2	1.97e-04	0	44	0	1189085184	20	5650
2026-01-15 23:47:20.32	174.06	12.63	-30.1	-33.6	12.7	6.25e-05	0	44	0	1195376640	20	5365
2026-01-15 23:47:23.33	174.25	12.36	-30.4	-34.4	12.1	1.91e-04	0	44	0	1200619520	20	5716
2026-01-15 23:47:26.33	174.44	12.09	-30.6	-34.4	11.8	1.76e-03	0	44	0	1205862400	21	5595
2026-01-15 23:47:29.34	174.62	11.82	-30.5	-34.3	11.8	3.78e-04	0	44	0	1212153856	21	5545
2026-01-15 23:47:32.35	174.80	11.55	-30.5	-34.6	11.9	3.00e-04	0	44	0	1217396736	20	5806
2026-01-15 23:47:35.36	174.98	11.28	-30.6	-34.7	11.5	7.51e-04	0	43	0	1223688192	21	5717
2026-01-15 23:47:38.35	175.15	11.02	-30.6	-34.5	11.6	7.32e-04	0	44	0	1228931072	21	5653
2026-01-15 23:47:41.36	175.32	10.76	-30.7	-35.0	11.3	9.12e-04	0	44	0	1234173952	21	5867
2026-01-15 23:47:44.37	175.49	10.51	-30.6	-34.7	11.4	8.76e-04	0	44	0	1240465408	21	5742
2026-01-15 23:47:47.37	175.65	10.25	-30.7	-34.8	11.3	1.52e-03	0	44	0	1245708288	21	5815
2026-01-15 23:47:50.38	175.81	10.00	-30.5	-34.2	11.7	6.66e-04	0	44	0	1250951168	21	5560
2026-01-15 23:47:53.37	175.97	9.75	-30.3	-34.3	12.0	4.36e-04	0	44	0	1257242624	20	5666
2026-01-15 23:47:56.37	176.13	9.51	-30.4	-34.0	11.8	9.47e-04	0	44	0	1262485504	21	5476
2026-01-15 23:47:59.37	176.28	9.26	-30.3	-34.2	11.9	2.84e-04	0	44	0	1267728384	20	5677
2026-01-15 23:48:02.38	176.43	9.02	-30.4	-34.5	11.7	4.71e-04	0	44	0	1274019840	20	5813
2026-01-15 23:48:05.37	176.58	8.78	-30.7	-35.2	10.9	2.52e-03	0	43	0	1279262720	21	5991
2026-01-15 23:48:08.38	176.73	8.54	-30.8	-35.3	10.8	2.91e-03	0	44	0	1285554176	21	6064
2026-01-15 23:48:11.38	176.88	8.30	-30.7	-35.3	10.8	3.52e-03	0	43	0	1290797056	21	6070
2026-01-15 23:48:14.38	177.02	8.07	-30.8	-35.1	10.5	5.82e-03	0	44	0	1296039936	22	5874
2026-01-15 23:48:17.38	177.16	7.84	-30.5	-34.5	11.2	2.09e-03	0	44	0	1302331392	21	5747
2026-01-15 23:48:20.39	177.30	7.61	-30.6	-35.0	10.9	2.13e-03	0	44	0	1307574272	21	5945
2026-01-15 23:48:23.39	177.43	7.38	-30.6	-34.9	10.9	2.99e-03	0	44	0	1312817152	21	5904
2026-01-15 23:48:26.38	177.57	7.16	-30.9	-36.0	10.0	8.55e-03	0	44	0	1319108608	21	6482
2026-01-15 23:48:29.38	177.70	6.93	-33.3	-47.6	3.8	1.49e+00	0	44	104	1321205760	26	18796

#Closed at: 2026-01-15 23:48:30
#Recorded file [1321 MB]: D:/data/31010_260116_023642.dat