passes_logs/2026/01/15/R2M6_AANII_01/R2M6_AANII_01__20260115_094821_NOAA_20_JPSS-1_rec.log

#Pass ID: 20260115_094821_NOAA 20 (JPSS-1)
#Satellite: NOAA 20 (JPSS-1)
#Configuration: NOAA 20
#almurnet v.1.7.20240730
#Start time: 2026-01-15 09:48:21

#Version: 2.2.20231116
#Station: R2M6_AANII_01
#Location: 30.233357 lon 59.946436 lat
#TLE: 1 43013U 17073A   26014.13176244  .00000049  00000+0  44136-4 0  9994
#TLE: 2 43013  98.7634 315.0803 0001538  40.6488 319.4803 14.19535812422619

#Time	Az	El	Level	Level2	SNR	BER	BlckErr	Temp	State	Recorded	gain1	gain2
2026-01-15 09:48:21.81	144.23	7.03	-31.1	-36.8	5.1	1.29e+00	0	41	0	0	23	6946
2026-01-15 09:48:24.82	144.16	7.26	-31.2	-37.1	8.0	6.55e-02	0	41	0	1048576	23	7077
2026-01-15 09:48:27.83	144.09	7.49	-31.3	-37.2	7.9	7.05e-02	0	41	0	7340032	23	7115
2026-01-15 09:48:30.84	144.01	7.73	-31.1	-35.9	9.1	2.18e-02	0	41	0	12582912	23	6285
2026-01-15 09:48:33.84	143.94	7.97	-30.9	-35.1	9.8	1.43e-02	0	41	0	17825792	23	5864
2026-01-15 09:48:36.85	143.86	8.21	-30.9	-35.7	9.7	6.92e-03	0	41	0	24117248	22	6243
2026-01-15 09:48:39.86	143.79	8.45	-30.5	-34.4	10.7	3.43e-03	0	41	0	29360128	22	5627
2026-01-15 09:48:42.87	143.71	8.70	-29.9	-33.2	11.9	4.90e-04	0	41	0	35651584	21	5257
2026-01-15 09:48:45.88	143.63	8.95	-29.8	-32.8	12.3	2.16e-04	0	41	0	40894464	21	5072
2026-01-15 09:48:48.89	143.54	9.20	-29.7	-33.0	12.5	1.70e-04	0	41	0	46137344	20	5255
2026-01-15 09:48:51.91	143.46	9.45	-29.8	-33.1	12.4	1.42e-04	0	41	0	52428800	20	5311
2026-01-15 09:48:54.93	143.37	9.70	-29.7	-33.0	12.6	1.07e-04	0	41	0	57671680	20	5233
2026-01-15 09:48:57.93	143.29	9.96	-29.6	-32.4	13.1	4.19e-05	0	42	0	63963136	20	4982
2026-01-15 09:49:00.94	143.20	10.22	-29.7	-32.6	13.0	4.88e-05	0	42	0	69206016	20	5030
2026-01-15 09:49:03.96	143.11	10.49	-29.8	-33.0	12.7	8.08e-05	0	42	0	74448896	20	5189
2026-01-15 09:49:06.96	143.02	10.75	-29.9	-33.1	12.7	8.85e-05	0	42	0	80740352	20	5198
2026-01-15 09:49:09.98	142.92	11.02	-29.8	-32.8	13.0	2.89e-05	0	42	0	85983232	20	5092
2026-01-15 09:49:12.99	142.83	11.29	-29.8	-32.8	13.0	5.11e-05	0	42	0	91226112	20	5104
2026-01-15 09:49:16.01	142.73	11.57	-29.8	-32.9	12.9	5.34e-05	0	42	0	97517568	20	5163
2026-01-15 09:49:19.01	142.63	11.84	-29.7	-32.7	13.1	1.98e-05	0	42	0	102760448	20	5039
2026-01-15 09:49:22.03	142.53	12.13	-29.7	-32.5	13.3	1.52e-05	0	42	0	109051904	20	4968
2026-01-15 09:49:25.04	142.42	12.41	-29.9	-33.1	12.9	3.89e-05	0	42	0	114294784	20	5208
2026-01-15 09:49:28.05	142.31	12.70	-29.6	-32.4	13.4	1.29e-05	0	42	0	119537664	20	4949
2026-01-15 09:49:31.06	142.21	12.99	-29.6	-32.6	13.2	1.44e-05	0	42	0	125829120	20	5052
2026-01-15 09:49:34.07	142.09	13.28	-29.7	-32.5	13.3	2.28e-05	0	42	0	131072000	20	4978
2026-01-15 09:49:37.07	141.98	13.58	-29.6	-32.4	13.4	1.67e-05	0	42	0	137363456	20	4942
2026-01-15 09:49:40.08	141.87	13.88	-29.5	-32.0	13.7	6.80e-06	0	42	0	142606336	20	4768
2026-01-15 09:49:43.09	141.75	14.18	-29.6	-32.2	13.6	3.80e-06	0	42	0	147849216	20	4840
2026-01-15 09:49:46.09	141.63	14.49	-30.0	-33.1	13.0	4.42e-05	0	42	0	154140672	20	5188
2026-01-15 09:49:49.09	141.50	14.80	-30.0	-33.4	12.8	4.11e-05	0	42	0	159383552	20	5325
2026-01-15 09:49:52.11	141.38	15.12	-29.8	-32.8	13.3	3.96e-05	0	42	0	164626432	20	5086
2026-01-15 09:49:55.12	141.25	15.44	-29.5	-31.8	14.0	2.20e-06	0	42	0	170917888	20	4682
2026-01-15 09:49:58.13	141.11	15.76	-29.5	-31.8	14.0	0.00e+00	0	42	0	176160768	20	4694
2026-01-15 09:50:01.14	140.98	16.09	-29.6	-32.0	13.9	3.00e-06	0	43	0	182452224	20	4772
2026-01-15 09:50:04.14	140.84	16.42	-29.6	-32.0	14.0	4.50e-06	0	42	0	187695104	20	4773
2026-01-15 09:50:07.15	140.70	16.76	-29.8	-32.5	13.7	3.80e-06	0	42	0	192937984	20	4943
2026-01-15 09:50:10.17	140.55	17.10	-29.5	-31.8	14.2	7.00e-07	0	42	0	199229440	20	4670
2026-01-15 09:50:13.17	140.40	17.45	-29.6	-32.0	14.2	2.20e-06	0	43	0	204472320	20	4721
2026-01-15 09:50:16.17	140.25	17.79	-29.7	-32.1	14.2	2.20e-06	0	43	0	209715200	20	4769
2026-01-15 09:50:19.19	140.09	18.15	-29.6	-32.0	14.2	0.00e+00	0	43	0	216006656	20	4728
2026-01-15 09:50:22.19	139.93	18.51	-29.4	-31.3	14.7	7.00e-07	0	42	0	221249536	20	4521
2026-01-15 09:50:25.20	139.77	18.88	-29.4	-31.5	14.7	0.00e+00	0	42	0	227540992	20	4564
2026-01-15 09:50:28.21	139.60	19.25	-29.6	-31.8	14.4	0.00e+00	0	43	0	232783872	20	4664
2026-01-15 09:50:31.22	139.43	19.62	-29.5	-31.6	14.6	7.00e-07	0	43	0	238026752	20	4577
2026-01-15 09:50:34.23	139.25	20.01	-29.4	-31.4	14.7	0.00e+00	0	43	0	244318208	20	4539
2026-01-15 09:50:37.25	139.07	20.39	-29.4	-31.5	14.7	7.00e-07	0	43	0	249561088	20	4544
2026-01-15 09:50:40.25	138.88	20.79	-29.4	-31.4	14.8	0.00e+00	0	43	0	254803968	20	4523
2026-01-15 09:50:43.25	138.69	21.18	-29.5	-31.6	14.7	0.00e+00	0	43	0	261095424	20	4571
2026-01-15 09:50:46.27	138.49	21.59	-29.6	-31.7	14.7	1.50e-06	0	43	0	266338304	20	4598
2026-01-15 09:50:49.28	138.29	22.00	-29.5	-31.4	14.9	0.00e+00	0	43	0	272629760	20	4499
2026-01-15 09:50:52.28	138.08	22.42	-29.3	-31.1	15.1	0.00e+00	0	43	0	277872640	20	4397
2026-01-15 09:50:55.29	137.86	22.84	-29.4	-31.4	14.9	0.00e+00	0	43	0	283115520	20	4493
2026-01-15 09:50:58.30	137.64	23.27	-29.5	-31.6	14.9	7.00e-07	0	43	0	289406976	20	4540
2026-01-15 09:51:01.31	137.42	23.71	-29.6	-31.8	14.8	0.00e+00	0	43	0	294649856	20	4599
2026-01-15 09:51:04.32	137.18	24.15	-29.7	-32.0	14.6	0.00e+00	0	43	0	300941312	20	4683
2026-01-15 09:51:07.33	136.94	24.60	-29.8	-32.3	14.4	2.20e-06	0	43	0	306184192	20	4806
2026-01-15 09:51:10.34	136.69	25.06	-29.9	-32.5	14.4	0.00e+00	0	43	0	311427072	20	4856
2026-01-15 09:51:13.35	136.44	25.53	-30.1	-33.0	14.1	1.50e-06	0	43	0	317718528	20	5014
2026-01-15 09:51:16.35	136.17	26.00	-30.3	-33.5	13.8	3.80e-06	0	43	0	322961408	20	5200
2026-01-15 09:51:19.37	135.90	26.48	-30.6	-33.7	13.3	1.67e-05	0	43	0	329252864	21	5187
2026-01-15 09:51:22.38	135.62	26.97	-30.9	-34.6	12.7	6.63e-05	0	43	0	334495744	21	5552
2026-01-15 09:51:25.39	135.33	27.47	-31.1	-34.9	12.3	1.53e-04	0	43	0	339738624	22	5543
2026-01-15 09:51:28.39	135.03	27.98	-31.3	-35.4	12.0	3.57e-04	0	43	0	346030080	22	5737
2026-01-15 09:51:31.38	134.72	28.49	-31.3	-35.4	12.0	3.20e-04	0	43	0	351272960	22	5733
2026-01-15 09:51:34.39	134.40	29.01	-31.4	-35.6	11.9	4.84e-04	0	43	0	356515840	22	5848
2026-01-15 09:51:37.41	134.07	29.54	-31.6	-35.8	11.3	1.01e-03	0	43	0	362807296	23	5847
2026-01-15 09:51:40.41	133.73	30.08	-31.7	-36.1	11.1	1.27e-03	0	43	0	368050176	23	5964
2026-01-15 09:51:43.41	133.37	30.63	-31.9	-36.6	10.8	1.81e-03	0	43	0	374341632	23	6198
2026-01-15 09:51:46.42	133.01	31.19	-31.5	-35.4	11.6	7.64e-04	0	43	0	379584512	23	5662
2026-01-15 09:51:49.42	132.63	31.76	-31.5	-35.5	11.6	7.01e-04	0	43	0	384827392	23	5672
2026-01-15 09:51:52.43	132.23	32.34	-31.3	-34.8	12.2	1.63e-04	0	43	0	391118848	23	5353
2026-01-15 09:51:55.43	131.83	32.92	-31.3	-34.5	12.4	2.03e-04	0	43	0	396361728	23	5233
2026-01-15 09:51:58.44	131.40	33.52	-31.5	-35.3	11.8	5.31e-04	0	43	0	401604608	23	5580
2026-01-15 09:52:01.45	130.96	34.13	-31.5	-35.0	12.0	4.47e-04	0	43	0	407896064	23	5439
2026-01-15 09:52:04.46	130.50	34.75	-31.5	-35.2	12.0	3.47e-04	0	43	0	413138944	23	5484
2026-01-15 09:52:07.47	130.03	35.37	-31.7	-35.6	11.7	5.12e-04	0	43	0	419430400	23	5695
2026-01-15 09:52:10.47	129.53	36.01	-31.8	-36.2	11.3	1.11e-03	0	43	0	424673280	23	5939
2026-01-15 09:52:13.49	129.02	36.66	-31.5	-35.3	11.9	5.11e-04	0	43	0	429916160	23	5525
2026-01-15 09:52:16.49	128.48	37.32	-31.5	-35.3	11.9	3.47e-04	0	43	0	436207616	23	5522
2026-01-15 09:52:19.50	127.92	37.99	-31.5	-35.0	12.1	4.18e-04	0	43	0	441450496	23	5419
2026-01-15 09:52:22.50	127.34	38.66	-31.4	-34.9	12.2	2.05e-04	0	43	0	446693376	23	5373
2026-01-15 09:52:25.51	126.73	39.35	-31.4	-34.9	12.2	2.39e-04	0	43	0	452984832	23	5373
2026-01-15 09:52:28.53	126.10	40.05	-31.6	-35.4	11.9	4.37e-04	0	43	0	458227712	23	5561
2026-01-15 09:52:31.54	125.43	40.76	-31.6	-35.5	11.8	4.13e-04	0	43	0	464519168	23	5617
2026-01-15 09:52:34.54	124.74	41.48	-31.8	-36.1	11.4	8.48e-04	0	43	0	469762048	23	5892
2026-01-15 09:52:37.55	124.01	42.21	-31.7	-35.7	11.7	4.61e-04	0	43	0	475004928	23	5709
2026-01-15 09:52:40.56	123.25	42.95	-31.7	-35.8	11.7	5.62e-04	0	43	0	481296384	23	5731
2026-01-15 09:52:43.56	122.46	43.69	-31.7	-35.5	11.8	6.96e-04	0	43	0	486539264	23	5609
2026-01-15 09:52:46.56	121.63	44.44	-30.8	-33.2	13.5	1.06e-05	0	43	0	491782144	23	4707
2026-01-15 09:52:49.57	120.75	45.20	-30.9	-33.7	13.4	1.67e-05	0	43	0	498073600	22	5019
2026-01-15 09:52:52.58	119.83	45.97	-30.9	-33.8	13.4	1.90e-05	0	43	0	503316480	22	5030
2026-01-15 09:52:55.59	118.87	46.74	-31.3	-34.8	12.7	7.78e-05	0	43	0	509607936	22	5426
2026-01-15 09:52:58.60	117.85	47.52	-31.3	-35.0	12.6	7.85e-05	0	43	0	514850816	22	5501
2026-01-15 09:53:01.60	116.79	48.30	-31.0	-34.0	13.4	1.44e-05	0	43	0	520093696	22	5090
2026-01-15 09:53:04.61	115.66	49.08	-30.7	-33.1	13.9	5.30e-06	0	43	0	526385152	22	4767
2026-01-15 09:53:07.62	114.48	49.87	-31.1	-34.3	13.1	2.59e-05	0	43	0	531628032	22	5201
2026-01-15 09:53:10.63	113.24	50.66	-30.9	-34.0	13.3	1.98e-05	0	43	0	536870912	22	5095
2026-01-15 09:53:13.64	111.92	51.44	-30.6	-33.0	14.0	1.50e-06	0	43	0	543162368	22	4734
2026-01-15 09:53:16.65	110.54	52.22	-29.3	-30.8	15.9	0.00e+00	0	43	0	548405248	20	4246
2026-01-15 09:53:19.66	109.08	52.99	-29.5	-31.6	15.8	0.00e+00	0	43	0	554696704	19	4587
2026-01-15 09:53:22.67	107.54	53.76	-29.5	-31.6	15.9	0.00e+00	0	43	0	559939584	19	4590
2026-01-15 09:53:25.66	105.93	54.51	-29.5	-31.8	15.8	0.00e+00	0	43	0	565182464	19	4645
2026-01-15 09:53:28.67	104.22	55.25	-29.6	-31.9	15.7	0.00e+00	0	43	0	571473920	19	4699
2026-01-15 09:53:31.67	102.43	55.97	-30.4	-33.5	14.3	1.50e-06	0	43	0	576716800	20	5131
2026-01-15 09:53:34.68	100.54	56.68	-31.0	-34.0	13.4	2.59e-05	0	43	0	581959680	22	5080
2026-01-15 09:53:37.69	98.55	57.36	-31.5	-35.1	12.3	1.18e-04	0	43	0	588251136	23	5424
2026-01-15 09:53:40.69	96.46	58.01	-31.4	-34.6	12.7	4.88e-05	0	43	0	593494016	23	5205
2026-01-15 09:53:43.70	94.27	58.64	-31.5	-34.9	12.5	1.74e-04	0	43	0	599785472	23	5339
2026-01-15 09:53:46.70	91.98	59.22	-31.3	-34.3	12.9	9.76e-05	0	43	0	605028352	23	5107
2026-01-15 09:53:49.72	89.57	59.77	-31.3	-34.5	12.8	1.01e-04	0	43	0	610271232	23	5165
2026-01-15 09:53:52.73	87.07	60.28	-30.3	-32.2	14.6	0.00e+00	0	43	0	616562688	22	4470
2026-01-15 09:53:55.74	84.47	60.74	-29.5	-31.1	15.8	0.00e+00	0	43	0	621805568	20	4352
2026-01-15 09:53:58.74	81.80	61.15	-29.4	-31.3	16.1	0.00e+00	0	43	0	627048448	19	4505
2026-01-15 09:54:01.75	79.03	61.50	-28.9	-30.1	16.8	0.00e+00	0	43	0	633339904	19	4152
2026-01-15 09:54:04.76	76.18	61.80	-29.0	-30.3	16.7	3.00e-06	0	43	0	638582784	19	4218
2026-01-15 09:54:07.77	73.28	62.03	-28.7	-30.3	16.9	3.00e-06	0	43	0	644874240	18	4305
2026-01-15 09:54:10.78	70.32	62.20	-28.0	-29.1	17.9	0.00e+00	0	43	0	650117120	17	4077
2026-01-15 09:54:13.78	67.35	62.31	-27.7	-29.0	18.2	7.00e-07	0	43	0	655360000	16	4155
2026-01-15 09:54:16.79	64.34	62.35	-27.4	-28.3	18.6	0.00e+00	0	43	0	661651456	16	3991
2026-01-15 09:54:19.80	61.34	62.32	-27.5	-29.0	18.4	0.00e+00	0	43	0	666894336	15	4271
2026-01-15 09:54:22.80	58.36	62.22	-28.0	-29.5	17.9	0.00e+00	0	43	0	672137216	16	4310
2026-01-15 09:54:25.81	55.40	62.06	-28.2	-30.1	17.6	0.00e+00	0	43	0	678428672	16	4467
2026-01-15 09:54:28.83	52.48	61.83	-28.4	-30.5	17.4	0.00e+00	0	43	0	683671552	16	4602
2026-01-15 09:54:31.83	49.64	61.55	-28.5	-30.3	17.2	0.00e+00	0	43	0	689963008	17	4421
2026-01-15 09:54:34.85	46.85	61.20	-28.9	-30.6	16.6	1.50e-06	0	43	0	695205888	18	4391
2026-01-15 09:54:37.86	44.15	60.80	-28.6	-30.1	17.0	0.00e+00	0	43	0	700448768	18	4247
2026-01-15 09:54:40.86	41.56	60.35	-29.4	-31.8	16.1	0.00e+00	0	43	0	706740224	18	4765
2026-01-15 09:54:43.87	39.04	59.85	-29.7	-32.1	15.6	0.00e+00	0	43	0	711983104	19	4749
2026-01-15 09:54:46.87	36.64	59.31	-30.9	-34.2	13.5	7.60e-06	0	43	0	718274560	21	5297
2026-01-15 09:54:49.88	34.33	58.73	-31.1	-34.2	13.1	2.36e-05	0	43	0	723517440	22	5180
2026-01-15 09:54:52.89	32.13	58.11	-31.1	-34.4	13.1	3.73e-05	0	43	0	728760320	22	5229
2026-01-15 09:54:55.90	30.02	57.46	-31.4	-34.6	12.6	8.92e-05	0	43	0	735051776	23	5229
2026-01-15 09:54:58.91	28.02	56.79	-31.1	-33.7	13.2	2.28e-05	0	43	0	740294656	23	4888
2026-01-15 09:55:01.92	26.12	56.09	-31.2	-34.0	13.0	4.27e-05	0	43	0	745537536	23	5008
2026-01-15 09:55:04.93	24.31	55.37	-30.4	-32.4	14.4	6.80e-06	0	43	0	751828992	22	4559
2026-01-15 09:55:07.94	22.59	54.63	-30.0	-31.9	14.9	0.00e+00	0	43	0	757071872	21	4499
2026-01-15 09:55:10.95	20.96	53.88	-29.9	-31.6	15.1	0.00e+00	0	43	0	763363328	21	4403
2026-01-15 09:55:13.96	19.41	53.12	-30.1	-32.8	14.7	7.00e-07	0	43	0	768606208	20	4887
2026-01-15 09:55:16.98	17.94	52.34	-30.5	-33.3	14.1	1.50e-06	0	43	0	773849088	21	4954
2026-01-15 09:55:19.98	16.56	51.57	-30.8	-34.1	13.5	9.90e-06	0	43	0	780140544	21	5268
2026-01-15 09:55:22.99	15.24	50.79	-31.4	-35.3	12.4	9.15e-05	0	43	0	785383424	22	5634
2026-01-15 09:55:26.00	13.99	50.01	-32.0	-36.4	11.3	1.07e-03	0	43	0	790626304	23	6011
2026-01-15 09:55:29.01	12.80	49.22	-31.7	-35.2	11.8	8.15e-04	0	43	0	796917760	24	5386
2026-01-15 09:55:32.02	11.67	48.44	-31.7	-35.0	11.9	1.35e-03	0	43	0	802160640	24	5286
2026-01-15 09:55:35.01	10.60	47.67	-31.3	-34.6	12.5	6.86e-05	0	43	0	808452096	23	5225
2026-01-15 09:55:38.02	9.58	46.89	-31.3	-34.4	12.6	1.23e-04	0	43	0	813694976	23	5169
2026-01-15 09:55:41.03	8.61	46.12	-30.8	-33.6	13.5	9.90e-06	0	43	0	818937856	22	4966
2026-01-15 09:55:44.03	7.69	45.36	-31.1	-34.5	12.9	4.88e-05	0	43	0	825229312	22	5284
2026-01-15 09:55:47.04	6.81	44.60	-31.0	-34.2	13.1	2.44e-05	0	43	0	830472192	22	5183
2026-01-15 09:55:50.05	5.97	43.85	-31.3	-35.0	12.5	5.41e-05	0	43	0	835715072	22	5512
2026-01-15 09:55:53.06	5.17	43.10	-31.7	-35.5	11.8	4.29e-04	0	43	0	842006528	23	5634
2026-01-15 09:55:56.08	4.41	42.36	-31.9	-36.2	11.2	1.21e-03	0	43	0	847249408	23	5948
2026-01-15 09:55:59.08	3.68	41.64	-31.9	-36.4	11.1	9.87e-04	0	43	0	853540864	23	6039
2026-01-15 09:56:02.10	2.98	40.92	-32.3	-37.3	10.2	4.00e-03	0	43	0	858783744	24	6354
2026-01-15 09:56:05.11	2.32	40.21	-32.8	-38.8	8.6	2.75e-02	0	43	0	864026624	25	7122
2026-01-15 09:56:08.12	1.68	39.52	-32.8	-38.6	8.7	4.15e-02	0	43	0	870318080	25	7007
2026-01-15 09:56:11.12	1.07	38.83	-32.4	-37.2	9.8	1.29e-02	0	43	0	875560960	25	6219
2026-01-15 09:56:14.13	0.49	38.15	-32.5	-37.6	9.4	1.70e-02	0	43	0	881852416	25	6484
2026-01-15 09:56:17.14	359.93	37.48	-32.2	-36.2	10.5	4.58e-03	0	43	0	887095296	25	5752
2026-01-15 09:56:20.15	359.39	36.83	-31.9	-35.5	11.0	1.92e-03	0	43	0	892338176	25	5427
2026-01-15 09:56:23.16	358.87	36.18	-31.4	-34.6	11.9	6.05e-04	0	43	0	898629632	24	5193
2026-01-15 09:56:26.17	358.38	35.54	-31.4	-34.3	12.3	1.89e-04	0	43	0	903872512	24	5017
2026-01-15 09:56:29.18	357.90	34.92	-31.4	-35.0	12.0	2.53e-04	0	43	0	909115392	23	5486
2026-01-15 09:56:32.18	357.44	34.30	-31.1	-34.0	12.8	5.87e-05	0	43	0	915406848	23	5013
2026-01-15 09:56:35.19	357.00	33.69	-31.1	-34.0	12.7	4.57e-05	0	43	0	920649728	23	5044
2026-01-15 09:56:38.20	356.58	33.10	-31.6	-35.5	11.7	3.78e-04	0	43	0	926941184	23	5616
2026-01-15 09:56:41.21	356.17	32.51	-31.8	-36.3	11.1	1.33e-03	0	43	0	932184064	23	6002
2026-01-15 09:56:44.21	355.78	31.93	-31.9	-36.6	10.9	2.44e-03	0	43	0	937426944	23	6142
2026-01-15 09:56:47.22	355.39	31.37	-32.1	-36.5	10.5	2.96e-03	0	43	0	943718400	24	6028
2026-01-15 09:56:50.23	355.03	30.81	-32.1	-36.8	10.3	4.34e-03	0	43	0	948961280	24	6159
2026-01-15 09:56:53.24	354.67	30.26	-32.2	-37.1	10.0	6.59e-03	0	43	0	954204160	24	6322
2026-01-15 09:56:56.25	354.33	29.72	-32.3	-37.5	9.8	7.70e-03	0	43	0	960495616	24	6508
2026-01-15 09:56:59.24	354.00	29.19	-32.3	-37.4	9.8	9.87e-03	0	43	0	965738496	24	6489
2026-01-15 09:57:02.24	353.68	28.67	-32.3	-37.3	9.9	1.10e-02	0	43	0	972029952	24	6394
2026-01-15 09:57:05.25	353.37	28.16	-32.1	-36.5	10.5	3.61e-03	0	43	0	977272832	24	6020
2026-01-15 09:57:08.27	353.07	27.65	-31.9	-35.9	11.0	2.35e-03	0	43	0	982515712	24	5704
2026-01-15 09:57:11.28	352.78	27.15	-31.9	-35.9	11.0	1.91e-03	0	44	0	988807168	24	5725
2026-01-15 09:57:14.29	352.50	26.66	-32.0	-36.5	10.5	3.80e-03	0	43	0	994050048	24	6008
2026-01-15 09:57:17.30	352.23	26.18	-31.8	-35.8	11.0	1.94e-03	0	43	0	999292928	24	5705
2026-01-15 09:57:20.31	351.97	25.71	-31.7	-35.4	11.2	1.50e-03	0	43	0	1005584384	24	5527
2026-01-15 09:57:23.33	351.71	25.24	-31.7	-35.3	11.4	8.64e-04	0	43	0	1010827264	24	5462
2026-01-15 09:57:26.34	351.46	24.79	-31.6	-35.1	11.5	8.22e-04	0	43	0	1017118720	24	5384
2026-01-15 09:57:29.34	351.23	24.34	-31.7	-35.4	11.2	1.39e-03	0	43	0	1022361600	24	5505
2026-01-15 09:57:32.36	350.99	23.89	-31.4	-34.6	11.8	4.74e-04	0	43	0	1027604480	24	5202
2026-01-15 09:57:35.37	350.76	23.45	-31.2	-34.5	12.2	2.06e-04	0	43	0	1033895936	23	5238
2026-01-15 09:57:38.37	350.55	23.03	-31.1	-34.1	12.4	1.50e-04	0	43	0	1039138816	23	5084
2026-01-15 09:57:41.38	350.33	22.60	-30.9	-33.7	12.7	6.33e-05	0	43	0	1045430272	23	4927
2026-01-15 09:57:44.40	350.12	22.18	-30.9	-33.5	12.8	4.27e-05	0	43	0	1050673152	23	4878
2026-01-15 09:57:47.41	349.92	21.77	-31.1	-34.1	12.4	1.14e-04	0	43	0	1055916032	23	5096
2026-01-15 09:57:50.42	349.72	21.37	-31.1	-34.1	12.4	1.03e-04	0	43	0	1062207488	23	5077
2026-01-15 09:57:53.43	349.53	20.97	-30.9	-33.5	12.8	7.09e-05	0	43	0	1067450368	23	4875
2026-01-15 09:57:56.44	349.35	20.58	-31.0	-34.0	12.4	1.68e-04	0	43	0	1072693248	23	5044
2026-01-15 09:57:59.45	349.17	20.19	-30.6	-33.3	13.2	2.59e-05	0	43	0	1078984704	22	4914
2026-01-15 09:58:02.45	348.99	19.81	-30.7	-33.5	13.1	2.67e-05	0	43	0	1084227584	22	4972
2026-01-15 09:58:05.46	348.82	19.44	-30.8	-33.8	12.8	5.64e-05	0	43	0	1090519040	22	5116
2026-01-15 09:58:08.47	348.65	19.07	-31.0	-34.5	12.3	1.17e-04	0	43	0	1095761920	22	5379
2026-01-15 09:58:11.47	348.49	18.70	-31.1	-34.7	12.2	1.80e-04	0	43	0	1101004800	22	5483
2026-01-15 09:58:14.49	348.33	18.34	-31.0	-34.5	12.3	1.59e-04	0	43	0	1107296256	22	5399
2026-01-15 09:58:17.49	348.17	17.99	-31.1	-34.8	12.1	3.41e-04	0	43	0	1112539136	22	5495
2026-01-15 09:58:20.50	348.02	17.64	-30.7	-33.7	12.8	4.19e-05	0	43	0	1117782016	22	5077
2026-01-15 09:58:23.51	347.88	17.29	-30.8	-33.8	12.8	6.10e-05	0	43	0	1124073472	22	5112
2026-01-15 09:58:26.53	347.73	16.95	-30.8	-33.9	12.7	7.78e-05	0	43	0	1129316352	22	5134
2026-01-15 09:58:29.54	347.59	16.61	-30.8	-33.8	12.7	8.08e-05	0	43	0	1135607808	22	5129
2026-01-15 09:58:32.55	347.45	16.28	-30.8	-33.9	12.6	9.38e-05	0	43	0	1140850688	22	5166
2026-01-15 09:58:35.56	347.32	15.95	-30.8	-33.9	12.6	1.07e-04	0	43	0	1146093568	22	5156
2026-01-15 09:58:38.57	347.19	15.63	-30.8	-34.0	12.6	9.30e-05	0	43	0	1152385024	22	5185
2026-01-15 09:58:41.59	347.06	15.31	-31.0	-34.6	12.1	3.17e-04	0	43	0	1157627904	22	5436
2026-01-15 09:58:44.60	346.94	14.99	-31.0	-34.5	12.1	2.63e-04	0	43	0	1163919360	22	5404
2026-01-15 09:58:47.61	346.82	14.68	-31.1	-35.0	11.8	6.48e-04	0	43	0	1169162240	22	5625
2026-01-15 09:58:50.60	346.70	14.38	-31.1	-35.0	11.7	5.21e-04	0	43	0	1174405120	22	5642
2026-01-15 09:58:53.61	346.58	14.07	-31.1	-35.0	11.7	6.52e-04	0	43	0	1180696576	22	5627
2026-01-15 09:58:56.62	346.47	13.77	-31.2	-35.2	11.5	7.22e-04	0	43	0	1185939456	22	5739
2026-01-15 09:58:59.63	346.36	13.47	-31.1	-35.1	11.6	8.29e-04	0	43	0	1192230912	22	5702
2026-01-15 09:59:02.64	346.25	13.18	-31.2	-35.3	11.4	7.99e-04	0	43	0	1197473792	22	5781
2026-01-15 09:59:05.64	346.14	12.89	-31.2	-35.4	11.3	1.15e-03	0	43	0	1202716672	22	5847
2026-01-15 09:59:08.65	346.04	12.60	-31.2	-35.5	11.2	1.37e-03	0	43	0	1209008128	22	5892
2026-01-15 09:59:11.66	345.93	12.32	-31.2	-35.3	11.3	1.34e-03	0	43	0	1214251008	22	5802
2026-01-15 09:59:14.67	345.83	12.04	-31.2	-35.5	11.2	1.21e-03	0	43	0	1219493888	22	5873
2026-01-15 09:59:17.69	345.74	11.76	-31.2	-35.4	11.2	1.32e-03	0	43	0	1225785344	22	5845
2026-01-15 09:59:20.69	345.64	11.49	-31.2	-35.5	11.1	1.49e-03	0	43	0	1231028224	22	5883
2026-01-15 09:59:23.70	345.55	11.22	-31.1	-35.2	11.3	1.13e-03	0	43	0	1237319680	22	5746
2026-01-15 09:59:26.71	345.45	10.95	-31.2	-35.5	11.1	1.76e-03	0	43	0	1242562560	22	5903
2026-01-15 09:59:29.71	345.37	10.69	-31.4	-36.4	10.3	4.87e-03	0	43	0	1247805440	22	6375
2026-01-15 09:59:32.72	345.28	10.42	-31.5	-36.1	10.1	5.17e-03	0	43	0	1254096896	23	6129
2026-01-15 09:59:35.74	345.19	10.16	-31.6	-36.4	9.9	8.40e-03	0	43	0	1259339776	23	6253
2026-01-15 09:59:38.75	345.11	9.90	-31.6	-36.6	9.7	1.33e-02	0	43	0	1264582656	23	6385
2026-01-15 09:59:41.76	345.02	9.65	-31.3	-35.5	10.6	3.74e-03	0	43	0	1270874112	23	5815
2026-01-15 09:59:44.77	344.94	9.40	-31.4	-35.9	10.2	5.85e-03	0	43	0	1276116992	23	6026
2026-01-15 09:59:47.78	344.86	9.15	-31.3	-35.4	10.5	3.98e-03	0	43	0	1282408448	23	5809
2026-01-15 09:59:50.78	344.78	8.90	-31.4	-35.8	10.2	4.94e-03	0	43	0	1287651328	23	6017
2026-01-15 09:59:53.79	344.71	8.65	-31.4	-35.7	10.3	4.95e-03	0	43	0	1292894208	23	5953
2026-01-15 09:59:56.80	344.63	8.41	-31.4	-36.1	10.0	6.49e-03	0	43	0	1299185664	23	6131
2026-01-15 09:59:59.80	344.56	8.17	-31.3	-35.6	10.2	5.97e-03	0	43	0	1304428544	23	5935
2026-01-15 10:00:02.80	344.49	7.93	-31.3	-35.6	10.2	7.04e-03	0	43	0	1309671424	23	5938
2026-01-15 10:00:05.82	344.42	7.70	-31.4	-36.2	9.8	8.22e-03	0	43	0	1315962880	23	6208
2026-01-15 10:00:08.82	344.35	7.46	-31.5	-36.5	9.4	1.25e-02	0	43	0	1321205760	23	6428
2026-01-15 10:00:11.82	344.28	7.23	-31.6	-36.8	9.2	2.04e-02	0	43	0	1327497216	23	6584
2026-01-15 10:00:14.83	344.21	7.00	-33.6	-47.3	3.8	1.49e+00	0	43	104	1329594368	27	17447

#Closed at: 2026-01-15 10:00:17
#Recorded file [1329 MB]: D:/data/31010_260115_124823.dat