passes_logs/2026/01/15/R2M6_AANII_01/R2M6_AANII_01__20260115_081012_NOAA_20_JPSS-1_rec.log

#Pass ID: 20260115_081012_NOAA 20 (JPSS-1)
#Satellite: NOAA 20 (JPSS-1)
#Configuration: NOAA 20
#almurnet v.1.7.20240730
#Start time: 2026-01-15 08:10:12

#Version: 2.2.20231116
#Station: R2M6_AANII_01
#Location: 30.233357 lon 59.946436 lat
#TLE: 1 43013U 17073A   26014.13176244  .00000049  00000+0  44136-4 0  9994
#TLE: 2 43013  98.7634 315.0803 0001538  40.6488 319.4803 14.19535812422619

#Time	Az	El	Level	Level2	SNR	BER	BlckErr	Temp	State	Recorded	gain1	gain2
2026-01-15 08:10:12.81	93.40	7.02	-31.5	-45.0	3.8	1.49e+00	0	41	0	0	24	17032
2026-01-15 08:10:15.82	93.10	7.21	-31.3	-44.6	3.8	1.49e+00	0	41	104	0	24	16587
2026-01-15 08:10:18.83	92.79	7.39	-31.6	-45.0	3.8	1.49e+00	0	41	104	0	24	16841
2026-01-15 08:10:21.83	92.47	7.57	-32.0	-43.8	3.8	1.49e+00	0	41	104	0	24	13964
2026-01-15 08:10:24.85	92.16	7.76	-32.3	-41.5	5.1	1.43e+00	0	41	104	0	24	10370
2026-01-15 08:10:27.85	91.83	7.94	-32.2	-40.3	6.0	3.66e-01	0	42	0	4194304	24	9112
2026-01-15 08:10:30.85	91.51	8.13	-32.3	-40.3	6.0	3.71e-01	0	41	0	9437184	24	9037
2026-01-15 08:10:33.86	91.18	8.31	-31.7	-37.4	8.1	6.79e-02	0	41	0	15728640	24	6915
2026-01-15 08:10:36.87	90.84	8.50	-31.5	-36.2	9.1	2.24e-02	0	42	0	20971520	24	6223
2026-01-15 08:10:39.88	90.50	8.69	-31.3	-35.7	9.6	1.48e-02	0	42	0	26214400	24	5934
2026-01-15 08:10:42.89	90.16	8.87	-31.4	-35.8	9.6	1.29e-02	0	42	0	32505856	24	5989
2026-01-15 08:10:45.89	89.81	9.06	-31.5	-36.0	9.5	1.21e-02	0	42	0	37748736	24	6041
2026-01-15 08:10:48.91	89.46	9.25	-31.0	-34.8	10.8	3.81e-03	0	42	0	42991616	23	5567
2026-01-15 08:10:51.92	89.10	9.44	-31.1	-35.0	10.8	3.00e-03	0	42	0	49283072	23	5633
2026-01-15 08:10:54.94	88.74	9.62	-31.0	-34.6	11.0	2.74e-03	0	42	0	54525952	23	5471
2026-01-15 08:10:57.94	88.37	9.81	-31.2	-35.1	10.7	2.36e-03	0	42	0	60817408	23	5683
2026-01-15 08:11:00.95	88.00	10.00	-31.1	-34.8	10.9	1.97e-03	0	42	0	66060288	23	5557
2026-01-15 08:11:03.96	87.62	10.19	-31.0	-34.7	11.1	1.38e-03	0	42	0	71303168	23	5470
2026-01-15 08:11:06.96	87.24	10.38	-31.0	-34.6	11.2	1.21e-03	0	42	0	77594624	23	5443
2026-01-15 08:11:09.97	86.86	10.57	-30.9	-34.3	11.5	9.60e-04	0	42	0	82837504	23	5312
2026-01-15 08:11:12.98	86.46	10.76	-31.0	-34.6	11.3	1.28e-03	0	42	0	89128960	23	5430
2026-01-15 08:11:15.98	86.07	10.95	-31.1	-34.8	11.1	1.75e-03	0	42	0	94371840	23	5528
2026-01-15 08:11:18.98	85.67	11.14	-31.1	-34.9	11.1	1.42e-03	0	42	0	99614720	23	5536
2026-01-15 08:11:22.00	85.26	11.33	-31.1	-34.7	11.3	1.21e-03	0	42	0	105906176	23	5465
2026-01-15 08:11:25.01	84.84	11.52	-31.0	-34.4	11.5	1.07e-03	0	42	0	111149056	23	5321
2026-01-15 08:11:28.01	84.43	11.71	-31.0	-34.5	11.4	9.83e-04	0	42	0	116391936	23	5364
2026-01-15 08:11:31.01	84.00	11.90	-31.1	-34.8	11.3	1.19e-03	0	42	0	122683392	23	5473
2026-01-15 08:11:34.01	83.58	12.09	-31.1	-34.6	11.5	9.09e-04	0	43	0	127926272	23	5384
2026-01-15 08:11:37.03	83.14	12.28	-31.1	-34.6	11.4	1.35e-03	0	43	0	134217728	23	5395
2026-01-15 08:11:40.04	82.70	12.47	-31.1	-34.6	11.5	8.69e-04	0	43	0	139460608	23	5399
2026-01-15 08:11:43.04	82.25	12.66	-31.2	-34.9	11.3	9.03e-04	0	43	0	144703488	23	5502
2026-01-15 08:11:46.05	81.80	12.85	-31.3	-35.4	11.0	1.36e-03	0	43	0	150994944	23	5750
2026-01-15 08:11:49.06	81.34	13.04	-31.5	-35.9	10.6	3.44e-03	0	43	0	156237824	23	5993
2026-01-15 08:11:52.06	80.88	13.22	-31.5	-36.0	10.5	3.53e-03	0	43	0	161480704	23	6035
2026-01-15 08:11:55.07	80.41	13.41	-31.4	-35.4	11.0	2.42e-03	0	43	0	167772160	23	5758
2026-01-15 08:11:58.08	79.93	13.60	-31.3	-35.2	11.2	1.52e-03	0	43	0	173015040	23	5617
2026-01-15 08:12:01.08	79.45	13.79	-31.3	-35.3	11.2	1.49e-03	0	43	0	179306496	23	5665
2026-01-15 08:12:04.09	78.96	13.97	-31.3	-35.1	11.2	1.20e-03	0	43	0	184549376	23	5597
2026-01-15 08:12:07.10	78.46	14.16	-31.3	-35.2	11.2	1.44e-03	0	43	0	189792256	23	5625
2026-01-15 08:12:10.11	77.96	14.35	-31.2	-34.9	11.5	1.06e-03	0	43	0	196083712	23	5465
2026-01-15 08:12:13.12	77.45	14.53	-31.1	-34.3	11.9	4.23e-04	0	43	0	201326592	23	5245
2026-01-15 08:12:16.12	76.94	14.71	-30.9	-33.8	12.3	2.37e-04	0	43	0	206569472	23	5039
2026-01-15 08:12:19.13	76.42	14.89	-30.9	-34.0	12.2	3.07e-04	0	43	0	212860928	23	5098
2026-01-15 08:12:22.14	75.89	15.08	-31.0	-34.1	12.0	3.03e-04	0	43	0	218103808	23	5163
2026-01-15 08:12:25.14	75.36	15.26	-30.7	-33.8	12.6	1.05e-04	0	43	0	224395264	22	5142
2026-01-15 08:12:28.14	74.82	15.43	-30.9	-34.2	12.4	1.01e-04	0	43	0	229638144	22	5304
2026-01-15 08:12:31.14	74.28	15.61	-30.4	-32.8	13.4	2.44e-05	0	43	0	234881024	22	4741
2026-01-15 08:12:34.16	73.72	15.79	-30.5	-33.0	13.2	3.28e-05	0	43	0	241172480	22	4845
2026-01-15 08:12:37.16	73.16	15.96	-30.5	-33.1	13.1	3.73e-05	0	43	0	246415360	22	4874
2026-01-15 08:12:40.15	72.60	16.13	-30.3	-32.9	13.6	6.10e-06	0	43	0	251658240	21	4906
2026-01-15 08:12:43.16	72.03	16.31	-30.0	-32.3	14.0	3.00e-06	0	43	0	257949696	21	4694
2026-01-15 08:12:46.18	71.44	16.48	-30.0	-32.2	14.1	1.50e-06	0	43	0	263192576	21	4659
2026-01-15 08:12:49.19	70.86	16.64	-30.0	-32.1	14.1	7.00e-07	0	43	0	269484032	21	4629
2026-01-15 08:12:52.20	70.26	16.81	-30.0	-32.3	14.1	7.00e-07	0	43	0	274726912	21	4667
2026-01-15 08:12:55.20	69.67	16.97	-30.2	-32.8	13.7	6.10e-06	0	43	0	279969792	21	4862
2026-01-15 08:12:58.21	69.06	17.14	-30.4	-33.2	13.5	1.60e-05	0	43	0	286261248	21	4994
2026-01-15 08:13:01.21	68.45	17.30	-30.5	-33.7	13.1	9.90e-06	0	43	0	291504128	21	5202
2026-01-15 08:13:04.22	67.83	17.45	-30.8	-34.4	12.7	4.11e-05	0	43	0	296747008	21	5482
2026-01-15 08:13:07.23	67.20	17.61	-30.5	-33.1	13.3	4.42e-05	0	43	0	303038464	22	4866
2026-01-15 08:13:10.24	66.57	17.76	-30.2	-32.8	13.8	6.10e-06	0	43	0	308281344	21	4838
2026-01-15 08:13:13.24	65.94	17.91	-30.3	-33.1	13.6	1.22e-05	0	43	0	314572800	21	4960
2026-01-15 08:13:16.24	65.29	18.05	-30.0	-32.1	14.2	2.20e-06	0	43	0	319815680	21	4598
2026-01-15 08:13:19.26	64.64	18.20	-29.9	-32.0	14.3	0.00e+00	0	43	0	325058560	21	4558
2026-01-15 08:13:22.27	63.98	18.34	-29.7	-31.8	14.7	7.00e-07	0	43	0	331350016	20	4611
2026-01-15 08:13:25.29	63.32	18.48	-29.5	-31.4	14.9	0.00e+00	0	43	0	336592896	20	4479
2026-01-15 08:13:28.30	62.65	18.61	-29.6	-31.6	14.9	0.00e+00	0	43	0	341835776	20	4534
2026-01-15 08:13:31.30	61.98	18.74	-29.5	-31.5	14.9	0.00e+00	0	43	0	348127232	20	4518
2026-01-15 08:13:34.31	61.29	18.87	-29.6	-31.7	14.8	0.00e+00	0	43	0	353370112	20	4567
2026-01-15 08:13:37.32	60.61	18.99	-29.3	-30.9	15.3	0.00e+00	0	43	0	359661568	20	4318
2026-01-15 08:13:40.33	59.92	19.11	-29.5	-31.8	15.1	0.00e+00	0	43	0	364904448	19	4725
2026-01-15 08:13:43.34	59.22	19.23	-29.6	-32.2	14.9	0.00e+00	0	43	0	370147328	19	4859
2026-01-15 08:13:46.36	58.51	19.34	-29.6	-32.1	14.9	0.00e+00	0	43	0	376438784	19	4818
2026-01-15 08:13:49.36	57.81	19.45	-29.6	-32.2	14.9	0.00e+00	0	43	0	381681664	19	4842
2026-01-15 08:13:52.39	57.09	19.55	-29.8	-32.6	14.7	0.00e+00	0	43	0	387973120	19	4973
2026-01-15 08:13:55.39	56.38	19.65	-29.7	-32.5	14.8	0.00e+00	0	43	0	393216000	19	4922
2026-01-15 08:13:58.39	55.66	19.75	-30.0	-33.0	14.4	0.00e+00	0	43	0	398458880	19	5122
2026-01-15 08:14:01.40	54.93	19.84	-30.5	-34.0	13.5	2.20e-06	0	43	0	404750336	20	5381
2026-01-15 08:14:04.40	54.20	19.93	-30.2	-32.6	14.0	3.00e-06	0	43	0	409993216	21	4773
2026-01-15 08:14:07.41	53.47	20.01	-30.3	-33.0	13.7	3.80e-06	0	43	0	415236096	21	4915
2026-01-15 08:14:10.42	52.73	20.08	-30.2	-32.8	13.9	1.50e-06	0	43	0	421527552	21	4840
2026-01-15 08:14:13.42	51.99	20.16	-30.5	-33.3	13.6	9.90e-06	0	43	0	426770432	21	5025
2026-01-15 08:14:16.43	51.24	20.22	-30.4	-33.1	13.7	2.20e-06	0	43	0	433061888	21	4949
2026-01-15 08:14:19.43	50.50	20.29	-30.8	-34.2	13.0	3.58e-05	0	43	0	438304768	21	5356
2026-01-15 08:14:22.44	49.75	20.34	-30.8	-34.3	12.9	3.43e-05	0	43	0	443547648	21	5398
2026-01-15 08:14:25.46	48.99	20.40	-30.8	-34.4	12.9	6.79e-05	0	43	0	449839104	21	5434
2026-01-15 08:14:28.47	48.23	20.44	-30.7	-34.1	13.1	2.74e-05	0	43	0	455081984	21	5304
2026-01-15 08:14:31.48	47.47	20.49	-31.0	-34.3	12.6	1.28e-04	0	43	0	460324864	22	5294
2026-01-15 08:14:34.50	46.71	20.52	-31.1	-34.7	12.3	1.94e-04	0	43	0	466616320	22	5454
2026-01-15 08:14:37.52	45.94	20.55	-31.1	-34.5	12.4	1.57e-04	0	43	0	471859200	22	5377
2026-01-15 08:14:40.53	45.18	20.58	-30.8	-33.9	12.9	6.33e-05	0	43	0	478150656	22	5108
2026-01-15 08:14:43.53	44.42	20.60	-30.7	-33.6	13.1	2.97e-05	0	43	0	483393536	22	5002
2026-01-15 08:14:46.54	43.65	20.62	-30.6	-33.1	13.4	1.06e-05	0	43	0	488636416	22	4839
2026-01-15 08:14:49.55	42.89	20.63	-30.7	-33.4	13.2	2.97e-05	0	43	0	494927872	22	4954
2026-01-15 08:14:52.56	42.12	20.63	-30.5	-32.9	13.6	1.44e-05	0	43	0	500170752	22	4763
2026-01-15 08:14:55.57	41.35	20.63	-30.4	-32.7	13.7	6.10e-06	0	43	0	506462208	22	4686
2026-01-15 08:14:58.56	40.59	20.63	-30.3	-32.5	13.8	4.50e-06	0	43	0	511705088	22	4608
2026-01-15 08:15:01.56	39.83	20.61	-30.3	-32.8	13.9	3.00e-06	0	43	0	516947968	21	4851
2026-01-15 08:15:04.58	39.06	20.60	-30.1	-32.3	14.2	3.80e-06	0	43	0	523239424	21	4665
2026-01-15 08:15:07.59	38.29	20.57	-29.8	-32.1	14.7	0.00e+00	0	43	0	528482304	20	4703
2026-01-15 08:15:10.59	37.53	20.55	-29.9	-32.5	14.4	1.50e-06	0	43	0	533725184	20	4840
2026-01-15 08:15:13.60	36.77	20.51	-29.5	-31.3	15.1	0.00e+00	0	43	0	540016640	20	4450
2026-01-15 08:15:16.61	36.01	20.48	-29.4	-31.1	15.3	0.00e+00	0	43	0	545259520	20	4383
2026-01-15 08:15:19.62	35.26	20.43	-29.4	-31.2	15.2	0.00e+00	0	43	0	551550976	20	4411
2026-01-15 08:15:22.62	34.50	20.38	-29.2	-31.2	15.6	0.00e+00	0	43	0	556793856	19	4501
2026-01-15 08:15:25.63	33.75	20.33	-29.3	-31.4	15.4	0.00e+00	0	43	0	562036736	19	4568
2026-01-15 08:15:28.64	33.00	20.27	-29.1	-31.0	15.7	0.00e+00	0	43	0	568328192	19	4442
2026-01-15 08:15:31.65	32.25	20.21	-29.2	-31.2	15.6	0.00e+00	0	43	0	573571072	19	4510
2026-01-15 08:15:34.66	31.51	20.14	-29.3	-31.3	15.5	0.00e+00	0	43	0	578813952	19	4547
2026-01-15 08:15:37.66	30.77	20.07	-29.2	-31.1	15.6	0.00e+00	0	43	0	585105408	19	4496
2026-01-15 08:15:40.66	30.04	19.99	-29.4	-31.7	15.2	0.00e+00	0	43	0	590348288	19	4675
2026-01-15 08:15:43.67	29.31	19.90	-29.7	-32.3	14.8	0.00e+00	0	43	0	596639744	19	4883
2026-01-15 08:15:46.67	28.58	19.82	-29.8	-32.7	14.7	0.00e+00	0	43	0	601882624	19	4999
2026-01-15 08:15:49.68	27.86	19.73	-29.9	-32.4	14.4	7.00e-07	0	43	0	607125504	20	4797
2026-01-15 08:15:52.69	27.14	19.63	-30.0	-32.6	14.3	1.50e-06	0	43	0	613416960	20	4859
2026-01-15 08:15:55.70	26.42	19.53	-30.3	-33.5	13.7	3.00e-06	0	43	0	618659840	20	5190
2026-01-15 08:15:58.70	25.71	19.42	-30.2	-33.3	13.9	4.50e-06	0	43	0	623902720	20	5112
2026-01-15 08:16:01.71	25.01	19.31	-30.2	-33.2	13.9	2.20e-06	0	43	0	630194176	20	5083
2026-01-15 08:16:04.71	24.31	19.20	-30.3	-33.5	13.7	7.60e-06	0	43	0	635437056	20	5179
2026-01-15 08:16:07.74	23.61	19.08	-30.5	-33.9	13.4	9.90e-06	0	43	0	641728512	20	5364
2026-01-15 08:16:10.74	22.93	18.96	-30.5	-33.9	13.4	1.06e-05	0	43	0	646971392	20	5364
2026-01-15 08:16:13.74	22.25	18.84	-30.6	-33.7	13.3	1.75e-05	0	43	0	652214272	21	5177
2026-01-15 08:16:16.75	21.57	18.71	-30.7	-34.1	13.0	4.42e-05	0	43	0	658505728	21	5313
2026-01-15 08:16:19.77	20.89	18.58	-30.7	-34.2	12.9	7.55e-05	0	43	0	663748608	21	5359
2026-01-15 08:16:22.78	20.23	18.45	-30.6	-33.7	13.2	2.21e-05	0	43	0	670040064	21	5179
2026-01-15 08:16:25.79	19.57	18.31	-30.7	-34.0	13.1	2.05e-05	0	43	0	675282944	21	5280
2026-01-15 08:16:28.80	18.91	18.17	-30.5	-33.6	13.3	2.21e-05	0	43	0	680525824	21	5140
2026-01-15 08:16:31.80	18.27	18.02	-30.5	-33.6	13.3	2.36e-05	0	43	0	686817280	21	5135
2026-01-15 08:16:34.82	17.63	17.88	-30.8	-34.4	12.7	4.88e-05	0	43	0	692060160	21	5468
2026-01-15 08:16:37.82	16.99	17.73	-30.5	-33.7	13.1	3.89e-05	0	43	0	697303040	21	5172
2026-01-15 08:16:40.83	16.37	17.57	-30.4	-33.3	13.4	2.13e-05	0	43	0	703594496	21	5033
2026-01-15 08:16:43.84	15.74	17.42	-30.4	-33.3	13.4	1.37e-05	0	43	0	708837376	21	5035
2026-01-15 08:16:46.85	15.13	17.26	-30.4	-33.4	13.3	1.52e-05	0	43	0	715128832	21	5063
2026-01-15 08:16:49.87	14.52	17.10	-30.7	-34.0	12.9	4.65e-05	0	43	0	720371712	21	5318
2026-01-15 08:16:52.86	13.92	16.94	-30.5	-33.6	13.2	2.28e-05	0	43	0	725614592	21	5131
2026-01-15 08:16:55.86	13.33	16.78	-30.5	-33.5	13.3	1.75e-05	0	43	0	731906048	21	5094
2026-01-15 08:16:58.85	12.74	16.61	-30.4	-33.2	13.4	1.90e-05	0	43	0	737148928	21	4984
2026-01-15 08:17:01.85	12.16	16.45	-30.4	-33.3	13.3	1.75e-05	0	43	0	742391808	21	5029
2026-01-15 08:17:04.85	11.59	16.28	-30.4	-33.3	13.3	1.83e-05	0	43	0	748683264	21	5033
2026-01-15 08:17:07.86	11.02	16.10	-30.6	-33.8	13.0	2.21e-05	0	43	0	753926144	21	5208
2026-01-15 08:17:10.87	10.45	15.93	-30.8	-34.4	12.7	8.46e-05	0	43	0	760217600	21	5446
2026-01-15 08:17:13.89	9.90	15.76	-30.8	-34.5	12.5	9.15e-05	0	43	0	765460480	21	5523
2026-01-15 08:17:16.90	9.35	15.58	-30.7	-34.3	12.7	1.21e-04	0	43	0	770703360	21	5408
2026-01-15 08:17:19.92	8.80	15.40	-30.9	-34.8	12.3	1.13e-04	0	43	0	776994816	21	5633
2026-01-15 08:17:22.93	8.27	15.22	-30.9	-34.4	12.2	2.49e-04	0	43	0	782237696	22	5353
2026-01-15 08:17:25.94	7.74	15.04	-30.9	-34.3	12.3	1.91e-04	0	44	0	787480576	22	5331
2026-01-15 08:17:28.94	7.21	14.86	-30.6	-33.4	12.9	4.88e-05	0	43	0	793772032	22	4976
2026-01-15 08:17:31.95	6.70	14.68	-30.5	-33.0	13.2	2.44e-05	0	43	0	799014912	22	4818
2026-01-15 08:17:34.96	6.19	14.50	-30.6	-33.5	12.8	4.57e-05	0	43	0	805306368	22	4997
2026-01-15 08:17:37.97	5.68	14.31	-30.5	-33.1	13.1	2.13e-05	0	43	0	810549248	22	4865
2026-01-15 08:17:40.97	5.19	14.13	-30.6	-33.5	12.8	4.80e-05	0	43	0	815792128	22	5024
2026-01-15 08:17:43.99	4.69	13.94	-30.4	-32.9	13.2	2.44e-05	0	43	0	822083584	22	4781
2026-01-15 08:17:47.00	4.21	13.76	-30.3	-32.6	13.3	1.75e-05	0	43	0	827326464	22	4707
2026-01-15 08:17:50.01	3.73	13.57	-30.3	-33.0	13.4	9.90e-06	0	43	0	833617920	21	4950
2026-01-15 08:17:53.02	3.26	13.38	-30.2	-32.9	13.4	3.80e-06	0	43	0	838860800	21	4909
2026-01-15 08:17:56.03	2.79	13.20	-30.4	-33.5	13.1	2.44e-05	0	43	0	844103680	21	5117
2026-01-15 08:17:59.04	2.33	13.01	-30.5	-33.9	12.8	4.80e-05	0	43	0	850395136	21	5285
2026-01-15 08:18:02.06	1.87	12.82	-30.3	-33.2	13.2	3.05e-05	0	43	0	855638016	21	5012
2026-01-15 08:18:05.07	1.43	12.63	-30.1	-32.7	13.5	9.10e-06	0	43	0	860880896	21	4845
2026-01-15 08:18:08.09	0.98	12.44	-29.8	-31.9	14.0	3.00e-06	0	43	0	867172352	21	4557
2026-01-15 08:18:11.08	0.55	12.25	-30.0	-32.4	13.7	3.80e-06	0	43	0	872415232	21	4740
2026-01-15 08:18:14.09	0.12	12.06	-30.1	-32.6	13.5	5.30e-06	0	43	0	878706688	21	4822
2026-01-15 08:18:17.09	359.69	11.87	-30.1	-32.5	13.6	3.80e-06	0	43	0	883949568	21	4799
2026-01-15 08:18:20.11	359.27	11.68	-30.2	-33.0	13.2	1.29e-05	0	43	0	889192448	21	4979
2026-01-15 08:18:23.11	358.86	11.50	-30.2	-33.0	13.2	2.67e-05	0	43	0	895483904	21	4966
2026-01-15 08:18:26.12	358.45	11.31	-30.2	-33.1	13.2	2.21e-05	0	43	0	900726784	21	4993
2026-01-15 08:18:29.12	358.04	11.12	-30.2	-32.9	13.3	9.90e-06	0	43	0	905969664	21	4922
2026-01-15 08:18:32.14	357.64	10.93	-30.2	-32.8	13.3	1.29e-05	0	43	0	912261120	21	4896
2026-01-15 08:18:35.15	357.25	10.74	-30.2	-32.9	13.3	9.90e-06	0	43	0	917504000	21	4919
2026-01-15 08:18:38.18	356.86	10.55	-30.3	-33.3	12.9	3.20e-05	0	43	0	923795456	21	5096
2026-01-15 08:18:41.19	356.48	10.36	-30.3	-33.3	12.9	9.07e-05	0	43	0	929038336	21	5090
2026-01-15 08:18:44.20	356.10	10.17	-30.5	-33.8	12.6	5.87e-05	0	43	0	934281216	21	5266
2026-01-15 08:18:47.20	355.73	9.98	-30.7	-34.4	12.2	1.88e-04	0	43	0	940572672	21	5506
2026-01-15 08:18:50.21	355.36	9.79	-30.7	-34.5	12.1	2.65e-04	0	43	0	945815552	21	5561
2026-01-15 08:18:53.22	355.00	9.60	-30.9	-35.2	11.6	7.07e-04	0	43	0	952107008	21	5885
2026-01-15 08:18:56.23	354.64	9.42	-30.7	-34.4	12.1	2.79e-04	0	43	0	957349888	21	5536
2026-01-15 08:18:59.22	354.29	9.23	-30.9	-35.1	11.6	6.93e-04	0	43	0	962592768	21	5868
2026-01-15 08:19:02.25	353.94	9.04	-30.9	-35.1	11.5	6.48e-04	0	43	0	968884224	21	5880
2026-01-15 08:19:05.25	353.59	8.86	-31.2	-35.6	10.9	1.50e-03	0	43	0	974127104	22	5957
2026-01-15 08:19:08.27	353.25	8.67	-30.9	-34.7	11.5	8.19e-04	0	43	0	979369984	22	5565
2026-01-15 08:19:11.29	352.92	8.48	-30.8	-34.4	11.6	6.87e-04	0	43	0	985661440	22	5457
2026-01-15 08:19:14.30	352.58	8.30	-31.0	-35.0	11.2	1.23e-03	0	43	0	990904320	22	5711
2026-01-15 08:19:17.30	352.26	8.11	-31.0	-35.1	11.1	1.58e-03	0	43	0	997195776	22	5773
2026-01-15 08:19:20.31	351.94	7.93	-30.9	-34.7	11.4	9.06e-04	0	43	0	1002438656	22	5570
2026-01-15 08:19:23.33	351.62	7.74	-31.1	-35.4	10.9	1.56e-03	0	43	0	1007681536	22	5930
2026-01-15 08:19:26.34	351.30	7.56	-31.2	-35.6	10.7	2.85e-03	0	43	0	1013972992	22	6020
2026-01-15 08:19:29.36	350.99	7.38	-31.4	-36.0	10.0	5.06e-03	0	43	0	1019215872	23	6129
2026-01-15 08:19:32.36	350.69	7.20	-31.4	-35.9	10.0	7.92e-03	0	43	0	1024458752	23	6078
2026-01-15 08:19:35.36	350.39	7.01	-33.5	-47.8	3.8	1.49e+00	0	43	104	1028653056	26	18646

#Closed at: 2026-01-15 08:19:38
#Recorded file [1028 MB]: D:/data/31010_260115_111025.dat