passes_logs/2026/01/15/R2M6_AANII_01/R2M6_AANII_01__20260115_013556_NOAA_20_JPSS-1_rec.log

#Pass ID: 20260115_013556_NOAA 20 (JPSS-1)
#Satellite: NOAA 20 (JPSS-1)
#Configuration: NOAA 20
#almurnet v.1.7.20240730
#Start time: 2026-01-15 01:35:56

#Version: 2.2.20231116
#Station: R2M6_AANII_01
#Location: 30.233357 lon 59.946436 lat
#TLE: 1 43013U 17073A   26014.13176244  .00000049  00000+0  44136-4 0  9994
#TLE: 2 43013  98.7634 315.0803 0001538  40.6488 319.4803 14.19535812422619

#Time	Az	El	Level	Level2	SNR	BER	BlckErr	Temp	State	Recorded	gain1	gain2
2026-01-15 01:35:56.14	12.68	6.98	-32.5	-40.8	4.5	1.37e+00	0	41	0	0	24	9427
2026-01-15 01:35:59.14	12.49	7.20	-32.5	-40.5	6.1	2.93e-01	0	41	0	1048576	24	9060
2026-01-15 01:36:02.15	12.31	7.41	-32.5	-40.0	6.1	3.37e-01	0	41	0	7340032	25	8589
2026-01-15 01:36:05.15	12.12	7.63	-32.4	-39.9	6.7	2.18e-01	0	41	0	12582912	24	8464
2026-01-15 01:36:08.16	11.93	7.85	-32.4	-39.1	6.9	2.43e-01	0	41	0	17825792	25	7814
2026-01-15 01:36:11.16	11.73	8.07	-31.8	-37.3	9.2	3.15e-02	0	41	0	24117248	23	6759
2026-01-15 01:36:14.16	11.54	8.29	-31.2	-35.6	10.9	5.77e-03	0	41	0	29360128	22	5974
2026-01-15 01:36:17.17	11.33	8.52	-31.2	-35.7	10.9	5.27e-03	0	42	0	35651584	22	6016
2026-01-15 01:36:20.18	11.13	8.74	-31.2	-35.6	10.9	2.12e-03	0	42	0	40894464	22	5986
2026-01-15 01:36:23.19	10.92	8.97	-31.2	-35.6	11.0	2.39e-03	0	42	0	46137344	22	5945
2026-01-15 01:36:26.21	10.71	9.20	-31.0	-34.9	11.5	7.80e-04	0	42	0	52428800	22	5621
2026-01-15 01:36:29.22	10.49	9.43	-31.2	-35.4	11.2	4.35e-03	0	42	0	57671680	22	5859
2026-01-15 01:36:32.23	10.27	9.66	-31.1	-35.1	11.4	3.95e-03	0	42	0	62914560	22	5728
2026-01-15 01:36:35.24	10.05	9.90	-31.1	-35.0	11.5	3.26e-03	0	42	0	69206016	22	5666
2026-01-15 01:36:38.25	9.82	10.13	-31.1	-35.1	11.5	9.55e-04	0	42	0	74448896	22	5702
2026-01-15 01:36:41.26	9.59	10.37	-31.0	-34.9	11.6	6.23e-04	0	42	0	80740352	22	5614
2026-01-15 01:36:44.27	9.36	10.61	-31.0	-34.9	11.6	6.96e-04	0	42	0	85983232	22	5610
2026-01-15 01:36:47.28	9.12	10.85	-31.1	-35.1	11.5	9.07e-04	0	42	0	91226112	22	5704
2026-01-15 01:36:50.29	8.88	11.10	-31.1	-35.2	11.4	1.01e-03	0	42	0	97517568	22	5734
2026-01-15 01:36:53.30	8.63	11.34	-31.0	-34.8	11.8	5.10e-04	0	42	0	102760448	22	5559
2026-01-15 01:36:56.31	8.38	11.59	-30.8	-34.6	12.3	2.29e-04	0	42	0	109051904	21	5579
2026-01-15 01:36:59.32	8.12	11.84	-30.8	-34.5	12.3	1.77e-04	0	42	0	114294784	21	5546
2026-01-15 01:37:02.32	7.86	12.09	-30.8	-34.6	12.3	1.46e-04	0	42	0	119537664	21	5579
2026-01-15 01:37:05.33	7.60	12.35	-30.8	-34.5	11.6	1.50e-04	0	42	0	125829120	21	5545
2026-01-15 01:37:08.34	7.33	12.60	-30.8	-34.7	12.2	2.75e-04	0	43	0	131072000	21	5641
2026-01-15 01:37:11.35	7.06	12.86	-30.7	-34.5	12.3	2.10e-04	0	43	0	136314880	21	5608
2026-01-15 01:37:14.36	6.78	13.12	-30.4	-34.8	12.2	2.38e-03	0	43	0	142606336	20	5964
2026-01-15 01:37:17.36	6.49	13.38	-30.5	-34.7	12.4	2.63e-03	0	43	0	147849216	20	5883
2026-01-15 01:37:20.36	6.20	13.64	-30.7	-34.2	12.6	6.86e-05	0	43	0	154140672	21	5422
2026-01-15 01:37:23.37	5.91	13.91	-30.8	-34.5	12.5	9.53e-05	0	43	0	159383552	21	5550
2026-01-15 01:37:26.38	5.60	14.18	-30.6	-34.1	12.7	7.70e-05	0	43	0	164626432	21	5369
2026-01-15 01:37:29.40	5.30	14.45	-30.7	-34.2	12.7	7.78e-05	0	43	0	170917888	21	5415
2026-01-15 01:37:32.42	4.98	14.72	-30.6	-34.0	12.8	2.78e-03	0	43	0	176160768	21	5332
2026-01-15 01:37:35.43	4.66	15.00	-30.8	-34.5	12.6	2.52e-03	0	43	0	181403648	21	5503
2026-01-15 01:37:38.44	4.34	15.27	-30.9	-34.7	12.5	2.79e-03	0	43	0	187695104	21	5568
2026-01-15 01:37:41.44	4.01	15.55	-30.9	-34.8	12.4	2.77e-03	0	43	0	192937984	21	5628
2026-01-15 01:37:44.45	3.67	15.83	-30.6	-34.0	13.0	2.49e-03	0	43	0	199229440	21	5298
2026-01-15 01:37:47.45	3.33	16.11	-30.6	-33.8	13.1	2.77e-03	0	43	0	204472320	21	5209
2026-01-15 01:37:50.47	2.97	16.40	-30.7	-34.3	12.8	2.67e-03	0	43	0	209715200	21	5399
2026-01-15 01:37:53.48	2.62	16.69	-30.7	-34.1	13.0	2.47e-03	0	43	0	216006656	21	5316
2026-01-15 01:37:56.49	2.25	16.98	-30.7	-34.0	13.0	2.71e-03	0	43	0	221249536	21	5286
2026-01-15 01:37:59.52	1.88	17.27	-30.6	-33.9	13.1	2.55e-03	0	43	0	227540992	21	5246
2026-01-15 01:38:02.53	1.49	17.57	-30.5	-33.6	13.3	2.34e-03	0	43	0	232783872	21	5116
2026-01-15 01:38:05.53	1.11	17.86	-30.5	-33.6	13.4	1.29e-05	0	43	0	238026752	21	5116
2026-01-15 01:38:08.54	0.71	18.16	-30.7	-33.9	13.1	2.59e-05	0	43	0	244318208	21	5253
2026-01-15 01:38:11.55	0.31	18.46	-30.6	-33.8	13.2	2.05e-05	0	43	0	249561088	21	5214
2026-01-15 01:38:14.56	359.90	18.77	-30.7	-34.0	13.1	3.89e-05	0	43	0	254803968	21	5276
2026-01-15 01:38:17.57	359.47	19.07	-30.8	-34.5	12.9	2.70e-03	0	43	0	261095424	21	5454
2026-01-15 01:38:20.58	359.05	19.38	-30.7	-34.1	13.0	2.43e-03	0	43	0	266338304	21	5321
2026-01-15 01:38:23.59	358.61	19.69	-30.9	-34.6	12.8	2.46e-04	0	43	0	272629760	21	5508
2026-01-15 01:38:26.59	358.16	20.00	-31.0	-34.5	12.5	1.17e-04	0	43	0	277872640	22	5347
2026-01-15 01:38:29.60	357.70	20.31	-31.1	-34.6	12.5	1.20e-04	0	43	0	283115520	22	5404
2026-01-15 01:38:32.61	357.24	20.63	-30.9	-34.6	12.8	6.94e-05	0	43	0	289406976	21	5520
2026-01-15 01:38:35.61	356.76	20.94	-30.9	-34.7	12.8	6.94e-05	0	43	0	294649856	21	5543
2026-01-15 01:38:38.63	356.27	21.27	-31.0	-34.3	12.7	9.00e-05	0	43	0	300941312	22	5268
2026-01-15 01:38:41.63	355.78	21.59	-31.0	-34.7	12.8	3.61e-04	0	43	0	306184192	21	5534
2026-01-15 01:38:44.63	355.27	21.91	-30.8	-34.4	13.0	3.43e-05	0	43	0	311427072	21	5408
2026-01-15 01:38:47.64	354.75	22.23	-30.8	-34.1	13.2	3.20e-05	0	43	0	317718528	21	5294
2026-01-15 01:38:50.64	354.22	22.56	-30.8	-34.3	13.1	1.67e-05	0	43	0	322961408	21	5364
2026-01-15 01:38:53.64	353.68	22.88	-30.5	-33.4	13.7	9.10e-06	0	43	0	328204288	21	5036
2026-01-15 01:38:56.64	353.13	23.21	-30.6	-33.6	13.5	6.10e-06	0	43	0	334495744	21	5106
2026-01-15 01:38:59.65	352.57	23.54	-30.7	-33.9	13.4	1.92e-04	0	43	0	339738624	21	5195
2026-01-15 01:39:02.67	351.99	23.87	-30.6	-33.7	13.5	9.99e-05	0	43	0	346030080	21	5134
2026-01-15 01:39:05.67	351.40	24.21	-30.7	-34.0	13.3	1.52e-05	0	43	0	351272960	21	5256
2026-01-15 01:39:08.69	350.79	24.54	-31.0	-34.6	13.0	3.66e-05	0	43	0	356515840	21	5474
2026-01-15 01:39:11.70	350.18	24.87	-31.3	-35.0	12.4	8.77e-05	0	43	0	362807296	22	5534
2026-01-15 01:39:14.72	349.55	25.21	-31.4	-35.3	12.2	2.55e-04	0	43	0	368050176	22	5638
2026-01-15 01:39:17.73	348.90	25.54	-31.5	-35.6	12.0	4.88e-04	0	43	0	373293056	22	5782
2026-01-15 01:39:20.74	348.25	25.88	-31.7	-35.9	11.4	9.35e-04	0	43	0	379584512	23	5827
2026-01-15 01:39:23.76	347.57	26.21	-31.5	-35.2	11.9	4.65e-04	0	43	0	384827392	23	5493
2026-01-15 01:39:26.77	346.89	26.55	-31.5	-35.1	12.0	2.87e-04	0	43	0	391118848	23	5481
2026-01-15 01:39:29.78	346.19	26.88	-31.6	-35.4	11.8	4.88e-04	0	43	0	396361728	23	5607
2026-01-15 01:39:32.77	345.48	27.21	-31.5	-35.3	11.8	4.15e-04	0	43	0	401604608	23	5540
2026-01-15 01:39:35.77	344.75	27.54	-31.6	-35.5	11.7	8.02e-04	0	43	0	407896064	23	5655
2026-01-15 01:39:38.78	344.00	27.88	-31.5	-35.1	12.0	2.97e-04	0	43	0	413138944	23	5443
2026-01-15 01:39:41.79	343.24	28.20	-31.7	-35.7	11.6	5.28e-04	0	43	0	418381824	23	5712
2026-01-15 01:39:44.79	342.46	28.53	-31.4	-35.0	12.1	3.26e-04	0	43	0	424673280	23	5401
2026-01-15 01:39:47.80	341.67	28.86	-31.5	-35.2	11.9	3.66e-04	0	43	0	429916160	23	5509
2026-01-15 01:39:50.80	340.86	29.18	-31.5	-35.0	12.1	2.79e-04	0	43	0	436207616	23	5424
2026-01-15 01:39:53.81	340.03	29.50	-31.7	-35.9	11.5	8.65e-04	0	43	0	441450496	23	5793
2026-01-15 01:39:56.80	339.20	29.81	-31.9	-36.4	11.2	1.34e-03	0	43	0	446693376	23	6029
2026-01-15 01:39:59.80	338.34	30.12	-32.3	-37.3	10.1	3.35e-03	0	44	0	452984832	24	6381
2026-01-15 01:40:02.81	337.46	30.43	-32.6	-37.7	9.3	1.63e-02	0	43	0	458227712	25	6528
2026-01-15 01:40:05.82	336.57	30.74	-32.6	-37.9	9.3	1.57e-02	0	43	0	463470592	25	6622
2026-01-15 01:40:08.83	335.66	31.04	-32.7	-38.3	8.9	2.89e-02	0	43	0	469762048	25	6863
2026-01-15 01:40:11.83	334.73	31.33	-32.8	-38.7	8.7	3.43e-02	0	43	0	475004928	25	7088
2026-01-15 01:40:14.85	333.78	31.62	-32.8	-38.5	8.7	3.50e-02	0	43	0	481296384	25	6980
2026-01-15 01:40:17.86	332.82	31.90	-32.9	-38.9	8.5	3.84e-02	0	43	0	486539264	25	7219
2026-01-15 01:40:20.87	331.84	32.18	-33.0	-39.1	7.9	7.26e-02	0	44	0	491782144	26	7271
2026-01-15 01:40:23.87	330.85	32.44	-33.0	-39.2	7.8	7.22e-02	0	43	0	498073600	26	7280
2026-01-15 01:40:26.88	329.83	32.71	-32.7	-38.1	9.0	3.87e-02	0	43	0	503316480	25	6710
2026-01-15 01:40:29.88	328.81	32.96	-32.6	-37.9	9.3	1.45e-02	0	43	0	508559360	25	6583
2026-01-15 01:40:32.88	327.77	33.20	-32.5	-37.3	9.7	1.64e-02	0	43	0	514850816	25	6278
2026-01-15 01:40:35.89	326.71	33.44	-32.3	-37.2	9.6	7.70e-03	0	43	0	520093696	24	6339
2026-01-15 01:40:38.90	325.63	33.66	-32.2	-36.7	10.4	5.07e-03	0	43	0	526385152	24	6103
2026-01-15 01:40:41.91	324.54	33.88	-31.9	-36.2	11.2	1.42e-03	0	43	0	531628032	23	5940
2026-01-15 01:40:44.92	323.44	34.08	-31.5	-35.3	12.0	1.28e-03	0	43	0	536870912	23	5523
2026-01-15 01:40:47.94	322.31	34.28	-31.4	-35.3	12.3	2.65e-03	0	43	0	543162368	22	5650
2026-01-15 01:40:50.94	321.19	34.46	-31.4	-35.4	12.2	1.94e-04	0	43	0	548405248	22	5705
2026-01-15 01:40:53.95	320.04	34.63	-31.3	-35.0	12.5	2.01e-04	0	43	0	554696704	22	5510
2026-01-15 01:40:56.96	318.89	34.79	-31.1	-34.3	13.0	3.43e-05	0	43	0	559939584	22	5234
2026-01-15 01:40:59.97	317.72	34.93	-31.2	-34.6	12.8	4.42e-05	0	43	0	565182464	22	5342
2026-01-15 01:41:02.98	316.54	35.06	-30.9	-34.4	13.2	1.94e-03	0	43	0	571473920	21	5391
2026-01-15 01:41:05.98	315.36	35.18	-30.4	-33.5	14.1	7.00e-07	0	43	0	576716800	20	5151
2026-01-15 01:41:08.97	314.17	35.29	-30.4	-33.6	14.0	3.52e-04	0	43	0	581959680	20	5193
2026-01-15 01:41:11.98	312.97	35.38	-30.0	-32.5	14.8	1.99e-03	0	43	0	588251136	20	4785
2026-01-15 01:41:14.99	311.76	35.46	-29.9	-32.9	14.8	0.00e+00	0	43	0	593494016	19	5087
2026-01-15 01:41:18.00	310.55	35.52	-30.1	-32.7	14.6	0.00e+00	0	44	0	599785472	20	4878
2026-01-15 01:41:21.01	309.33	35.57	-30.4	-33.5	14.1	2.15e-03	0	43	0	605028352	20	5154
2026-01-15 01:41:24.01	308.11	35.60	-30.8	-34.1	13.4	2.42e-03	0	43	0	610271232	21	5281
2026-01-15 01:41:27.01	306.89	35.62	-30.8	-34.1	13.4	2.35e-03	0	43	0	616562688	21	5273
2026-01-15 01:41:30.01	305.67	35.63	-30.7	-33.8	13.6	2.12e-03	0	43	0	621805568	21	5150
2026-01-15 01:41:33.01	304.45	35.61	-30.9	-34.4	13.2	2.37e-03	0	43	0	627048448	21	5389
2026-01-15 01:41:36.02	303.23	35.59	-30.9	-34.2	13.3	2.05e-05	0	43	0	633339904	21	5312
2026-01-15 01:41:39.03	302.01	35.55	-30.8	-34.0	13.5	1.06e-05	0	43	0	638582784	21	5227
2026-01-15 01:41:42.03	300.80	35.49	-31.1	-34.3	12.9	2.39e-03	0	44	0	643825664	22	5245
2026-01-15 01:41:45.04	299.59	35.42	-31.1	-34.3	12.9	1.15e-03	0	44	0	650117120	22	5240
2026-01-15 01:41:48.06	298.38	35.34	-31.3	-35.1	12.3	6.92e-04	0	43	0	655360000	22	5579
2026-01-15 01:41:51.06	297.18	35.24	-31.8	-36.1	11.2	2.65e-03	0	43	0	661651456	23	5881
2026-01-15 01:41:54.08	295.99	35.13	-31.7	-35.7	11.6	7.09e-04	0	44	0	666894336	23	5732
2026-01-15 01:41:57.09	294.80	35.00	-31.6	-35.3	11.8	3.62e-04	0	44	0	672137216	23	5548
2026-01-15 01:42:00.09	293.63	34.87	-31.8	-36.0	11.4	7.03e-04	0	43	0	678428672	23	5853
2026-01-15 01:42:03.11	292.46	34.71	-32.2	-37.0	10.3	5.54e-03	0	44	0	683671552	24	6239
2026-01-15 01:42:06.11	291.32	34.55	-31.5	-35.2	11.9	6.37e-04	0	43	0	689963008	23	5517
2026-01-15 01:42:09.11	290.18	34.37	-31.6	-35.4	11.7	9.88e-04	0	43	0	695205888	23	5609
2026-01-15 01:42:12.12	289.05	34.19	-31.8	-35.9	11.4	8.60e-04	0	44	0	700448768	23	5824
2026-01-15 01:42:15.12	287.94	33.99	-31.6	-35.4	11.8	9.49e-04	0	43	0	706740224	23	5595
2026-01-15 01:42:18.13	286.84	33.78	-31.2	-34.8	12.5	2.00e-04	0	43	0	711983104	22	5457
2026-01-15 01:42:21.13	285.76	33.56	-31.1	-34.5	12.7	2.82e-04	0	43	0	717225984	22	5320
2026-01-15 01:42:24.14	284.69	33.33	-31.1	-34.5	12.7	9.91e-05	0	43	0	723517440	22	5324
2026-01-15 01:42:27.15	283.63	33.09	-31.3	-35.2	11.9	1.90e-04	0	43	0	728760320	22	5634
2026-01-15 01:42:30.14	282.60	32.84	-31.4	-35.5	12.0	2.78e-04	0	43	0	734003200	22	5760
2026-01-15 01:42:33.14	281.58	32.59	-31.7	-36.0	11.2	7.92e-04	0	43	0	740294656	23	5863
2026-01-15 01:42:36.15	280.57	32.32	-31.7	-36.0	11.2	1.11e-03	0	43	0	745537536	23	5872
2026-01-15 01:42:39.17	279.58	32.05	-31.7	-35.9	11.2	2.01e-03	0	43	0	751828992	23	5841
2026-01-15 01:42:42.18	278.60	31.77	-31.7	-35.9	11.3	1.19e-03	0	43	0	757071872	23	5840
2026-01-15 01:42:45.19	277.64	31.48	-31.9	-36.6	10.7	3.13e-03	0	43	0	762314752	23	6195
2026-01-15 01:42:48.19	276.71	31.19	-32.0	-36.6	10.5	6.85e-03	0	43	0	768606208	24	6060
2026-01-15 01:42:51.18	275.79	30.90	-31.6	-35.7	11.3	3.57e-03	0	43	0	773849088	23	5776
2026-01-15 01:42:54.19	274.88	30.59	-31.6	-35.8	11.4	3.62e-03	0	43	0	779091968	23	5787
2026-01-15 01:42:57.19	274.00	30.29	-31.6	-35.7	11.4	1.16e-03	0	43	0	785383424	23	5778
2026-01-15 01:43:00.19	273.13	29.98	-31.5	-35.3	11.6	6.64e-04	0	43	0	790626304	23	5599
2026-01-15 01:43:03.19	272.27	29.66	-31.5	-35.5	11.4	8.89e-04	0	43	0	796917760	23	5666
2026-01-15 01:43:06.21	271.43	29.34	-31.8	-36.4	10.8	4.40e-03	0	43	0	802160640	23	6103
2026-01-15 01:43:09.21	270.61	29.02	-31.6	-35.6	11.3	3.76e-03	0	43	0	807403520	23	5739
2026-01-15 01:43:12.22	269.81	28.69	-31.3	-35.4	11.9	2.38e-03	0	43	0	813694976	22	5719
2026-01-15 01:43:15.23	269.02	28.37	-31.2	-34.9	12.2	2.43e-03	0	43	0	818937856	22	5524
2026-01-15 01:43:18.24	268.24	28.04	-30.9	-34.5	12.8	2.39e-03	0	43	0	825229312	21	5462
2026-01-15 01:43:21.25	267.48	27.71	-30.8	-34.2	13.0	2.82e-05	0	43	0	830472192	21	5339
2026-01-15 01:43:24.27	266.74	27.37	-30.9	-34.7	12.6	9.53e-05	0	43	0	835715072	21	5576
2026-01-15 01:43:27.27	266.02	27.04	-30.7	-33.9	13.2	7.24e-04	0	43	0	842006528	21	5240
2026-01-15 01:43:30.29	265.30	26.70	-30.0	-32.7	14.2	2.61e-03	0	43	0	847249408	20	4904
2026-01-15 01:43:33.29	264.61	26.37	-29.9	-32.8	14.6	3.19e-03	0	43	0	852492288	19	5025
2026-01-15 01:43:36.29	263.93	26.03	-29.6	-32.0	15.0	2.30e-03	0	44	0	858783744	19	4774
2026-01-15 01:43:39.29	263.26	25.70	-29.3	-31.8	15.5	0.00e+00	0	43	0	864026624	18	4801
2026-01-15 01:43:42.28	262.61	25.37	-29.2	-31.6	15.5	0.00e+00	0	43	0	869269504	18	4759
2026-01-15 01:43:45.30	261.97	25.03	-29.3	-32.0	15.4	0.00e+00	0	43	0	875560960	18	4869
2026-01-15 01:43:48.30	261.35	24.69	-29.2	-31.6	15.5	1.85e-03	0	43	0	880803840	18	4771
2026-01-15 01:43:51.31	260.74	24.36	-29.2	-31.7	15.5	1.97e-03	0	43	0	887095296	18	4800
2026-01-15 01:43:54.32	260.14	24.03	-29.3	-32.0	15.3	0.00e+00	0	43	0	892338176	18	4879
2026-01-15 01:43:57.32	259.55	23.69	-29.6	-32.2	14.8	0.00e+00	0	43	0	897581056	19	4854
2026-01-15 01:44:00.32	258.98	23.36	-29.4	-32.2	15.1	0.00e+00	0	43	0	903872512	18	4979
2026-01-15 01:44:03.34	258.41	23.03	-29.8	-32.6	14.6	0.00e+00	0	44	0	909115392	19	4986
2026-01-15 01:44:06.35	257.86	22.70	-30.1	-33.0	13.9	4.50e-06	0	43	0	915406848	20	5032
2026-01-15 01:44:09.35	257.33	22.37	-29.7	-32.6	14.5	0.00e+00	0	44	0	920649728	19	4976
2026-01-15 01:44:12.35	256.80	22.05	-29.5	-32.0	14.9	0.00e+00	0	44	0	925892608	19	4781
2026-01-15 01:44:15.36	256.28	21.72	-29.6	-32.1	14.8	0.00e+00	0	43	0	932184064	19	4833
2026-01-15 01:44:18.37	255.78	21.40	-29.7	-32.5	14.6	0.00e+00	0	43	0	937426944	19	4962
2026-01-15 01:44:21.37	255.28	21.08	-29.8	-32.7	14.4	3.00e-06	0	43	0	942669824	19	5033
2026-01-15 01:44:24.39	254.80	20.76	-29.7	-32.4	14.6	0.00e+00	0	43	0	948961280	19	4922
2026-01-15 01:44:27.40	254.32	20.44	-30.0	-33.2	14.0	3.00e-06	0	43	0	954204160	19	5222
2026-01-15 01:44:30.41	253.86	20.12	-30.0	-32.7	14.0	3.00e-06	0	43	0	960495616	20	4949
2026-01-15 01:44:33.42	253.40	19.81	-30.1	-33.0	13.8	1.17e-03	0	44	0	965738496	20	5055
2026-01-15 01:44:36.44	252.95	19.50	-30.1	-33.2	13.6	2.12e-03	0	43	0	970981376	20	5127
2026-01-15 01:44:39.45	252.52	19.19	-30.3	-33.7	13.3	2.60e-03	0	43	0	977272832	20	5316
2026-01-15 01:44:42.46	252.09	18.88	-30.3	-33.8	13.2	1.90e-05	0	44	0	982515712	20	5350
2026-01-15 01:44:45.47	251.67	18.57	-30.4	-33.8	13.2	2.51e-05	0	44	0	987758592	20	5365
2026-01-15 01:44:48.47	251.26	18.27	-30.6	-33.9	12.7	5.34e-05	0	43	0	994050048	21	5292
2026-01-15 01:44:51.48	250.86	17.97	-30.5	-34.1	12.9	4.04e-04	0	44	0	999292928	20	5500
2026-01-15 01:44:54.49	250.46	17.67	-30.8	-34.5	12.3	1.14e-03	0	44	0	1005584384	21	5554
2026-01-15 01:44:57.50	250.08	17.38	-30.7	-34.5	12.3	1.18e-03	0	44	0	1010827264	21	5544
2026-01-15 01:45:00.51	249.70	17.08	-30.7	-34.2	12.5	1.68e-03	0	44	0	1016070144	21	5442
2026-01-15 01:45:03.52	249.32	16.79	-30.6	-34.0	12.6	1.87e-03	0	44	0	1022361600	21	5342
2026-01-15 01:45:06.52	248.96	16.50	-30.7	-34.5	12.2	1.79e-03	0	44	0	1027604480	21	5538
2026-01-15 01:45:09.53	248.60	16.21	-30.8	-34.6	12.2	1.22e-03	0	44	0	1032847360	21	5599
2026-01-15 01:45:12.54	248.25	15.93	-30.8	-34.7	12.1	1.09e-03	0	44	0	1039138816	21	5635
2026-01-15 01:45:15.55	247.91	15.64	-30.6	-34.3	12.4	9.22e-04	0	43	0	1044381696	21	5455
2026-01-15 01:45:18.54	247.57	15.36	-30.6	-34.1	12.5	8.29e-04	0	43	0	1050673152	21	5391
2026-01-15 01:45:21.55	247.24	15.08	-30.5	-33.9	12.6	7.75e-04	0	44	0	1055916032	21	5331
2026-01-15 01:45:24.56	246.92	14.81	-30.7	-34.4	12.2	3.90e-04	0	44	0	1061158912	21	5527
2026-01-15 01:45:27.56	246.60	14.53	-30.7	-34.6	12.0	4.50e-04	0	43	0	1067450368	21	5613
2026-01-15 01:45:30.58	246.29	14.26	-30.6	-34.3	12.3	8.15e-04	0	44	0	1072693248	21	5485
2026-01-15 01:45:33.59	245.98	13.99	-30.5	-34.0	12.4	5.14e-04	0	44	0	1077936128	21	5365
2026-01-15 01:45:36.59	245.68	13.72	-30.6	-34.1	12.3	3.07e-04	0	44	0	1084227584	21	5400
2026-01-15 01:45:39.60	245.38	13.46	-30.6	-34.3	12.1	3.33e-04	0	44	0	1089470464	21	5503
2026-01-15 01:45:42.60	245.09	13.20	-30.8	-34.7	11.9	5.45e-04	0	44	0	1095761920	21	5672
2026-01-15 01:45:45.61	244.81	12.93	-30.6	-34.4	12.1	3.66e-04	0	44	0	1101004800	21	5523
2026-01-15 01:45:48.62	244.53	12.67	-30.6	-34.2	12.1	3.10e-04	0	43	0	1106247680	21	5481
2026-01-15 01:45:51.62	244.25	12.42	-30.6	-34.2	12.1	2.10e-04	0	44	0	1112539136	21	5465
2026-01-15 01:45:54.64	243.98	12.16	-30.7	-34.7	11.8	4.18e-04	0	44	0	1117782016	21	5705
2026-01-15 01:45:57.64	243.72	11.91	-30.7	-34.6	11.8	5.03e-04	0	44	0	1124073472	21	5651
2026-01-15 01:46:00.66	243.46	11.66	-30.8	-35.0	11.5	1.14e-03	0	43	0	1129316352	21	5811
2026-01-15 01:46:03.67	243.20	11.41	-30.9	-35.4	11.2	1.33e-03	0	44	0	1134559232	21	6002
2026-01-15 01:46:06.68	242.95	11.16	-30.9	-35.4	11.2	1.37e-03	0	44	0	1140850688	21	6008
2026-01-15 01:46:09.70	242.70	10.91	-31.2	-35.8	10.5	6.07e-03	0	44	0	1146093568	22	6128
2026-01-15 01:46:12.71	242.46	10.67	-31.0	-35.6	11.0	1.85e-03	0	44	0	1152385024	21	6109
2026-01-15 01:46:15.72	242.22	10.43	-31.1	-35.6	10.6	3.80e-03	0	44	0	1157627904	22	6054
2026-01-15 01:46:18.73	241.98	10.19	-31.2	-35.9	10.3	8.72e-03	0	44	0	1162870784	22	6211
2026-01-15 01:46:21.74	241.75	9.95	-31.1	-35.6	10.6	6.65e-03	0	43	0	1169162240	22	6021
2026-01-15 01:46:24.75	241.52	9.71	-31.1	-35.5	10.6	5.04e-03	0	44	0	1174405120	22	5995
2026-01-15 01:46:27.76	241.30	9.48	-31.0	-35.4	10.6	3.36e-03	0	44	0	1179648000	22	5934
2026-01-15 01:46:30.76	241.08	9.25	-31.1	-35.6	10.4	4.74e-03	0	44	0	1185939456	22	6078
2026-01-15 01:46:33.78	240.86	9.02	-31.2	-36.2	10.0	8.08e-03	0	43	0	1191182336	22	6352
2026-01-15 01:46:36.79	240.65	8.79	-31.4	-36.9	9.4	2.26e-02	0	44	0	1197473792	22	6743
2026-01-15 01:46:39.78	240.44	8.56	-31.2	-36.2	9.9	1.30e-02	0	44	0	1202716672	22	6373
2026-01-15 01:46:42.79	240.24	8.33	-31.3	-36.6	9.6	1.52e-02	0	44	0	1207959552	22	6592
2026-01-15 01:46:45.80	240.03	8.11	-31.4	-36.9	9.3	2.09e-02	0	44	0	1214251008	22	6785
2026-01-15 01:46:48.80	239.83	7.89	-31.2	-36.1	9.9	1.22e-02	0	44	0	1219493888	22	6364
2026-01-15 01:46:51.81	239.64	7.67	-31.2	-36.3	9.7	1.40e-02	0	43	0	1224736768	22	6488
2026-01-15 01:46:54.82	239.44	7.45	-31.3	-36.7	9.4	1.72e-02	0	44	0	1231028224	22	6687
2026-01-15 01:46:57.83	239.25	7.23	-31.5	-37.5	8.7	2.44e-02	0	44	0	1236271104	22	7172
2026-01-15 01:47:00.84	239.07	7.01	-33.1	-46.9	3.8	8.03e-01	0	44	104	1241513984	26	17710

#Closed at: 2026-01-15 01:47:03
#Recorded file [1241 MB]: D:/data/31010_260115_043558.dat