passes_logs/2026/01/15/R2M6_AANII_01/R2M6_AANII_01__20260115_133831_AQUA_rec.log

#Pass ID: 20260115_133831_AQUA
#Satellite: AQUA
#Configuration: AQUA
#almurnet v.1.7.20240730
#Start time: 2026-01-15 13:38:31

#Version: 2.2.20231116
#Station: R2M6_AANII_01
#Location: 30.233357 lon 59.946436 lat
#TLE: 1 27424U 02022A   26014.61231444  .00000653  00000+0  14070-3 0  9991
#TLE: 2 27424  98.4080 341.0332 0002042  78.9336 335.9961 14.61820174260839

#Time	Az	El	Level	Level2	SNR	BER	BlckErr	Temp	State	Recorded	gain1	gain2
2026-01-15 13:38:31.14	216.62	6.97	-30.8	-35.8	5.2	7.09e-01	0	41	0	0	23	6381
2026-01-15 13:38:34.14	216.97	7.16	-31.2	-36.4	15.1	6.08e-01	0	41	0	0	23	6508
2026-01-15 13:38:37.14	217.32	7.35	-31.1	-35.9	15.6	6.07e-01	0	41	0	5242880	23	6261
2026-01-15 13:38:40.15	217.67	7.55	-30.8	-34.9	16.2	6.07e-01	0	41	0	11010048	23	5761
2026-01-15 13:38:43.15	218.04	7.74	-30.8	-34.9	16.3	6.07e-01	0	41	0	16777216	23	5758
2026-01-15 13:38:46.15	218.40	7.94	-30.7	-34.4	16.7	6.07e-01	0	41	0	22544384	23	5535
2026-01-15 13:38:49.15	218.77	8.14	-30.8	-34.6	16.5	6.06e-01	0	41	0	27787264	23	5613
2026-01-15 13:38:52.15	219.15	8.33	-30.9	-34.9	16.4	6.08e-01	0	41	0	33554432	23	5723
2026-01-15 13:38:55.13	219.53	8.53	-31.0	-35.3	16.2	6.06e-01	0	41	0	39321600	23	5898
2026-01-15 13:38:58.14	219.92	8.73	-30.4	-33.5	17.4	6.07e-01	0	41	0	45088768	23	5144
2026-01-15 13:39:01.14	220.32	8.93	-30.3	-33.5	17.7	6.09e-01	0	42	0	50331648	22	5249
2026-01-15 13:39:04.13	220.71	9.13	-30.4	-34.0	17.4	6.06e-01	0	42	0	56098816	22	5431
2026-01-15 13:39:07.13	221.12	9.33	-30.4	-34.0	17.5	6.08e-01	0	41	0	61865984	22	5409
2026-01-15 13:39:10.12	221.53	9.53	-30.2	-33.2	18.1	6.05e-01	0	42	0	67108864	22	5104
2026-01-15 13:39:13.13	221.95	9.74	-30.2	-33.3	18.0	6.06e-01	0	42	0	72876032	22	5132
2026-01-15 13:39:16.13	222.37	9.94	-30.2	-33.3	18.1	6.07e-01	0	42	0	78643200	22	5130
2026-01-15 13:39:19.12	222.80	10.14	-30.2	-33.1	18.2	6.06e-01	0	42	0	83886080	22	5040
2026-01-15 13:39:22.14	223.24	10.35	-30.2	-33.2	18.2	6.08e-01	0	42	0	89653248	22	5092
2026-01-15 13:39:25.14	223.68	10.55	-30.3	-33.3	18.0	6.06e-01	0	42	0	95420416	22	5133
2026-01-15 13:39:28.15	224.13	10.76	-30.2	-33.1	18.3	6.09e-01	0	42	0	101187584	22	5026
2026-01-15 13:39:31.15	224.59	10.96	-30.1	-33.0	18.3	6.06e-01	0	42	0	106954752	22	4981
2026-01-15 13:39:34.15	225.05	11.17	-30.3	-33.4	18.1	6.05e-01	0	42	0	112197632	22	5140
2026-01-15 13:39:37.15	225.52	11.38	-30.1	-33.0	18.3	6.07e-01	0	42	0	117964800	22	4991
2026-01-15 13:39:40.15	225.99	11.58	-30.1	-32.8	18.5	6.08e-01	0	42	0	123731968	22	4930
2026-01-15 13:39:43.16	226.48	11.79	-29.8	-32.4	19.1	6.07e-01	0	42	0	128974848	21	4898
2026-01-15 13:39:46.15	226.97	12.00	-29.9	-32.8	18.9	6.07e-01	0	42	0	134742016	21	5035
2026-01-15 13:39:49.15	227.46	12.20	-30.0	-33.1	18.7	6.06e-01	0	42	0	140509184	21	5148
2026-01-15 13:39:52.16	227.97	12.41	-29.7	-32.3	19.1	6.06e-01	0	42	0	146276352	21	4857
2026-01-15 13:39:55.17	228.48	12.62	-29.6	-31.9	19.5	6.08e-01	0	43	0	151519232	21	4699
2026-01-15 13:39:58.18	229.01	12.83	-29.8	-32.5	19.2	6.08e-01	0	42	0	157286400	21	4902
2026-01-15 13:40:01.18	229.53	13.03	-29.8	-32.4	19.2	6.04e-01	0	42	0	163053568	21	4868
2026-01-15 13:40:04.18	230.07	13.24	-29.8	-32.5	19.2	6.07e-01	0	42	0	168820736	21	4898
2026-01-15 13:40:07.19	230.61	13.45	-29.9	-32.8	19.0	6.07e-01	0	43	0	174063616	21	5001
2026-01-15 13:40:10.19	231.16	13.65	-29.8	-32.4	19.2	6.06e-01	0	42	0	179830784	21	4851
2026-01-15 13:40:13.20	231.73	13.86	-29.8	-32.5	19.2	6.07e-01	0	43	0	185597952	21	4894
2026-01-15 13:40:16.21	232.29	14.07	-29.9	-32.7	19.1	6.09e-01	0	42	0	191365120	21	4966
2026-01-15 13:40:19.23	232.87	14.27	-29.7	-32.2	19.4	6.07e-01	0	43	0	196608000	21	4783
2026-01-15 13:40:22.23	233.46	14.48	-29.7	-32.2	19.4	6.05e-01	0	43	0	202375168	21	4802
2026-01-15 13:40:25.23	234.05	14.68	-29.8	-32.3	19.4	6.05e-01	0	43	0	208142336	21	4823
2026-01-15 13:40:28.24	234.65	14.88	-29.6	-31.8	19.7	6.08e-01	0	43	0	213909504	21	4638
2026-01-15 13:40:31.24	235.26	15.08	-29.6	-31.8	19.7	6.07e-01	0	43	0	219152384	21	4662
2026-01-15 13:40:34.25	235.88	15.29	-29.6	-31.8	19.8	6.07e-01	0	42	0	224919552	21	4636
2026-01-15 13:40:37.25	236.51	15.49	-29.6	-32.0	19.6	6.08e-01	0	43	0	230686720	21	4701
2026-01-15 13:40:40.27	237.15	15.68	-29.6	-31.8	19.7	6.07e-01	0	43	0	236453888	21	4650
2026-01-15 13:40:43.28	237.79	15.88	-29.6	-31.8	19.8	6.06e-01	0	43	0	241696768	21	4630
2026-01-15 13:40:46.27	238.45	16.08	-29.6	-31.8	19.8	6.06e-01	0	43	0	247463936	21	4652
2026-01-15 13:40:49.28	239.11	16.27	-29.8	-32.4	19.4	6.07e-01	0	43	0	253231104	21	4845
2026-01-15 13:40:52.29	239.78	16.46	-29.7	-32.0	19.7	6.06e-01	0	43	0	258998272	21	4699
2026-01-15 13:40:55.29	240.46	16.65	-29.7	-32.1	19.6	6.05e-01	0	43	0	264241152	21	4735
2026-01-15 13:40:58.31	241.15	16.84	-29.4	-31.4	20.1	6.08e-01	0	43	0	270008320	21	4510
2026-01-15 13:41:01.31	241.85	17.02	-29.5	-31.5	20.0	6.08e-01	0	43	0	275775488	21	4551
2026-01-15 13:41:04.31	242.56	17.21	-29.6	-31.8	19.9	6.07e-01	0	43	0	281542656	21	4620
2026-01-15 13:41:07.31	243.27	17.39	-29.5	-31.6	20.0	6.06e-01	0	43	0	286785536	21	4573
2026-01-15 13:41:10.32	244.00	17.56	-29.6	-31.8	19.9	6.06e-01	0	43	0	292552704	21	4636
2026-01-15 13:41:13.33	244.73	17.74	-29.5	-31.6	20.0	6.07e-01	0	43	0	298319872	21	4567
2026-01-15 13:41:16.32	245.47	17.91	-29.7	-32.1	19.7	6.06e-01	0	43	0	304087040	21	4725
2026-01-15 13:41:19.33	246.22	18.08	-29.6	-31.8	19.9	6.06e-01	0	43	0	309329920	21	4632
2026-01-15 13:41:22.33	246.98	18.24	-29.7	-32.0	19.8	6.06e-01	0	43	0	315097088	21	4688
2026-01-15 13:41:25.33	247.75	18.40	-29.6	-31.8	19.9	6.07e-01	0	43	0	320864256	21	4636
2026-01-15 13:41:28.34	248.53	18.56	-29.6	-31.7	19.9	6.07e-01	0	43	0	326631424	21	4608
2026-01-15 13:41:31.33	249.31	18.71	-29.7	-32.0	19.8	6.07e-01	0	43	0	331874304	21	4684
2026-01-15 13:41:34.33	250.10	18.86	-29.6	-31.6	20.0	6.07e-01	0	43	0	337641472	21	4573
2026-01-15 13:41:37.34	250.90	19.01	-29.7	-32.0	19.8	6.07e-01	0	43	0	343408640	21	4695
2026-01-15 13:41:40.33	251.70	19.15	-29.7	-32.0	19.8	6.08e-01	0	43	0	348651520	21	4699
2026-01-15 13:41:43.34	252.52	19.28	-29.8	-32.4	19.6	6.06e-01	0	43	0	354418688	21	4818
2026-01-15 13:41:46.36	253.35	19.42	-29.8	-32.2	19.7	6.09e-01	0	43	0	360185856	21	4772
2026-01-15 13:41:49.36	254.18	19.54	-29.7	-31.9	19.9	6.07e-01	0	43	0	365953024	21	4665
2026-01-15 13:41:52.36	255.01	19.67	-29.8	-32.3	19.6	6.07e-01	0	43	0	371720192	21	4790
2026-01-15 13:41:55.36	255.85	19.78	-29.8	-32.1	19.7	6.08e-01	0	43	0	376963072	21	4728
2026-01-15 13:41:58.38	256.71	19.89	-29.8	-32.2	19.7	6.07e-01	0	43	0	382730240	21	4754
2026-01-15 13:42:01.39	257.57	20.00	-29.8	-32.1	19.8	6.07e-01	0	43	0	388497408	21	4728
2026-01-15 13:42:04.39	258.43	20.10	-29.8	-32.3	19.6	6.07e-01	0	43	0	394264576	21	4789
2026-01-15 13:42:07.39	259.30	20.19	-29.7	-31.9	19.9	6.08e-01	0	43	0	399507456	21	4646
2026-01-15 13:42:10.40	260.17	20.28	-29.7	-32.1	19.8	6.07e-01	0	43	0	405274624	21	4706
2026-01-15 13:42:13.41	261.05	20.36	-30.0	-32.7	19.4	6.06e-01	0	43	0	411041792	21	4919
2026-01-15 13:42:16.41	261.93	20.44	-29.9	-32.4	19.6	6.05e-01	0	43	0	416808960	21	4832
2026-01-15 13:42:19.41	262.82	20.51	-29.9	-32.6	19.5	6.05e-01	0	43	0	422051840	21	4873
2026-01-15 13:42:22.41	263.71	20.57	-29.8	-32.3	19.7	6.08e-01	0	43	0	427819008	21	4795
2026-01-15 13:42:25.42	264.60	20.63	-30.1	-33.0	19.3	6.06e-01	0	43	0	433586176	21	5040
2026-01-15 13:42:28.42	265.50	20.68	-30.1	-33.0	19.3	6.06e-01	0	43	0	438829056	21	5034
2026-01-15 13:42:31.43	266.40	20.72	-30.0	-32.6	19.5	6.07e-01	0	43	0	444596224	21	4881
2026-01-15 13:42:34.43	267.30	20.76	-29.9	-32.5	19.6	6.08e-01	0	43	0	450363392	21	4847
2026-01-15 13:42:37.43	268.20	20.79	-29.9	-32.4	19.7	6.07e-01	0	43	0	456130560	21	4813
2026-01-15 13:42:40.42	269.11	20.81	-30.0	-32.8	19.4	6.08e-01	0	43	0	461373440	21	4964
2026-01-15 13:42:43.42	270.01	20.82	-29.7	-32.0	19.9	6.07e-01	0	43	0	467140608	21	4685
2026-01-15 13:42:46.42	270.92	20.83	-29.9	-32.6	19.5	6.05e-01	0	43	0	472907776	21	4880
2026-01-15 13:42:49.43	271.83	20.84	-30.1	-33.1	19.2	6.07e-01	0	43	0	478674944	21	5060
2026-01-15 13:42:52.44	272.74	20.83	-29.9	-32.4	19.7	6.08e-01	0	43	0	483917824	21	4798
2026-01-15 13:42:55.44	273.64	20.82	-29.9	-32.5	19.6	6.06e-01	0	43	0	489684992	21	4848
2026-01-15 13:42:58.45	274.55	20.80	-29.9	-32.6	19.5	6.07e-01	0	43	0	495452160	21	4875
2026-01-15 13:43:01.46	275.46	20.77	-30.1	-33.1	19.2	6.08e-01	0	43	0	501219328	21	5059
2026-01-15 13:43:04.45	276.36	20.74	-30.3	-33.6	18.9	6.08e-01	0	43	0	506462208	21	5232
2026-01-15 13:43:07.46	277.26	20.70	-30.3	-33.6	18.9	6.07e-01	0	43	0	512229376	21	5228
2026-01-15 13:43:10.47	278.16	20.66	-30.0	-32.7	19.5	6.06e-01	0	43	0	517996544	21	4903
2026-01-15 13:43:13.48	279.05	20.61	-29.8	-32.3	19.7	6.06e-01	0	43	0	523763712	21	4789
2026-01-15 13:43:16.49	279.95	20.55	-29.8	-32.3	19.7	6.05e-01	0	43	0	529006592	21	4776
2026-01-15 13:43:19.50	280.84	20.48	-30.0	-32.6	19.5	6.07e-01	0	43	0	534773760	21	4890
2026-01-15 13:43:22.50	281.72	20.41	-29.9	-32.4	19.6	6.06e-01	0	43	0	540540928	21	4831
2026-01-15 13:43:25.52	282.60	20.33	-29.9	-32.4	19.6	6.06e-01	0	43	0	546308096	21	4807
2026-01-15 13:43:28.52	283.48	20.25	-30.0	-32.8	19.4	6.05e-01	0	43	0	551550976	21	4970
2026-01-15 13:43:31.54	284.35	20.16	-29.8	-32.1	19.8	6.07e-01	0	43	0	557318144	21	4727
2026-01-15 13:43:34.53	285.21	20.06	-29.8	-32.3	19.7	6.06e-01	0	43	0	563085312	21	4780
2026-01-15 13:43:37.53	286.06	19.96	-30.0	-32.8	19.3	6.10e-01	0	43	0	568852480	21	4974
2026-01-15 13:43:40.55	286.92	19.85	-29.9	-32.6	19.5	6.06e-01	0	43	0	574095360	21	4883
2026-01-15 13:43:43.55	287.76	19.74	-30.0	-32.7	19.4	6.10e-01	0	43	0	579862528	21	4937
2026-01-15 13:43:46.55	288.60	19.62	-30.0	-32.7	19.4	6.07e-01	0	43	0	585629696	21	4921
2026-01-15 13:43:49.55	289.43	19.50	-30.1	-33.0	19.2	6.07e-01	0	43	0	591396864	21	5026
2026-01-15 13:43:52.56	290.26	19.37	-29.8	-32.3	19.6	6.09e-01	0	43	0	596639744	21	4791
2026-01-15 13:43:55.57	291.08	19.24	-30.0	-32.6	19.5	6.05e-01	0	43	0	602406912	21	4898
2026-01-15 13:43:58.57	291.89	19.10	-30.0	-32.8	19.3	6.08e-01	0	43	0	608174080	21	4955
2026-01-15 13:44:01.57	292.69	18.96	-29.9	-32.5	19.5	6.05e-01	0	43	0	613941248	21	4840
2026-01-15 13:44:04.58	293.48	18.81	-30.0	-32.7	19.4	6.06e-01	0	43	0	619184128	21	4930
2026-01-15 13:44:07.59	294.27	18.66	-29.8	-32.1	19.7	6.07e-01	0	43	0	624951296	21	4729
2026-01-15 13:44:10.60	295.05	18.51	-29.8	-32.3	19.6	6.07e-01	0	43	0	630718464	21	4800
2026-01-15 13:44:13.60	295.82	18.35	-29.9	-32.5	19.5	6.06e-01	0	43	0	636485632	21	4866
2026-01-15 13:44:16.60	296.58	18.19	-29.8	-32.3	19.6	6.05e-01	0	43	0	641728512	21	4793
2026-01-15 13:44:19.60	297.33	18.02	-29.8	-32.4	19.6	6.07e-01	0	43	0	647495680	21	4811
2026-01-15 13:44:22.61	298.08	17.85	-29.9	-32.5	19.5	6.06e-01	0	43	0	653262848	21	4845
2026-01-15 13:44:25.60	298.81	17.68	-29.9	-32.5	19.5	6.06e-01	0	43	0	659030016	21	4847
2026-01-15 13:44:28.61	299.54	17.51	-30.1	-33.1	19.1	6.07e-01	0	43	0	664272896	21	5083
2026-01-15 13:44:31.62	300.25	17.33	-30.0	-32.8	19.3	6.06e-01	0	43	0	670040064	21	4970
2026-01-15 13:44:34.62	300.96	17.15	-29.9	-32.6	19.4	6.06e-01	0	43	0	675807232	21	4886
2026-01-15 13:44:37.62	301.66	16.97	-29.8	-32.2	19.6	6.06e-01	0	43	0	681050112	21	4774
2026-01-15 13:44:40.63	302.35	16.79	-29.8	-32.2	19.6	6.07e-01	0	43	0	686817280	21	4763
2026-01-15 13:44:43.65	303.04	16.60	-29.9	-32.4	19.5	6.08e-01	0	43	0	692584448	21	4845
2026-01-15 13:44:46.67	303.72	16.41	-30.0	-32.8	19.2	6.05e-01	0	43	0	698351616	21	4989
2026-01-15 13:44:49.68	304.38	16.22	-29.6	-31.8	19.9	6.07e-01	0	43	0	704118784	21	4638
2026-01-15 13:44:52.68	305.04	16.03	-29.7	-32.2	19.6	6.06e-01	0	43	0	709361664	21	4758
2026-01-15 13:44:55.69	305.69	15.83	-29.7	-32.2	19.6	6.06e-01	0	43	0	715128832	21	4752
2026-01-15 13:44:58.69	306.33	15.64	-29.7	-32.2	19.7	6.09e-01	0	43	0	720896000	21	4751
2026-01-15 13:45:01.71	306.96	15.44	-30.0	-32.7	19.3	6.05e-01	0	43	0	726663168	21	4956
2026-01-15 13:45:04.71	307.58	15.24	-29.8	-32.4	19.5	6.09e-01	0	43	0	731906048	21	4821
2026-01-15 13:45:07.72	308.19	15.04	-29.8	-32.2	19.5	6.05e-01	0	43	0	737673216	21	4784
2026-01-15 13:45:10.73	308.80	14.84	-29.9	-32.4	19.4	6.04e-01	0	43	0	743440384	21	4851
2026-01-15 13:45:13.72	309.39	14.64	-29.7	-32.0	19.7	6.05e-01	0	43	0	749207552	21	4717
2026-01-15 13:45:16.71	309.97	14.44	-29.8	-32.4	19.4	6.07e-01	0	43	0	754450432	21	4839
2026-01-15 13:45:19.71	310.55	14.24	-29.8	-32.3	19.5	6.06e-01	0	43	0	760217600	21	4817
2026-01-15 13:45:22.72	311.12	14.03	-29.9	-32.5	19.3	6.06e-01	0	43	0	765984768	21	4890
2026-01-15 13:45:25.73	311.69	13.83	-29.9	-32.7	19.2	6.07e-01	0	43	0	771227648	21	4942
2026-01-15 13:45:28.73	312.24	13.62	-30.1	-33.1	19.0	6.07e-01	0	43	0	776994816	21	5081
2026-01-15 13:45:31.74	312.79	13.42	-30.0	-32.9	19.1	6.03e-01	0	43	0	782761984	21	5026
2026-01-15 13:45:34.75	313.33	13.21	-30.0	-32.8	19.2	6.01e-01	0	43	0	788529152	21	4972
2026-01-15 13:45:37.76	313.86	13.01	-30.0	-32.8	19.1	6.04e-01	0	43	0	794296320	21	4998
2026-01-15 13:45:40.76	314.38	12.80	-30.0	-32.8	19.1	6.04e-01	0	43	0	799539200	21	4988
2026-01-15 13:45:43.76	314.90	12.60	-30.1	-33.1	19.0	6.04e-01	0	43	0	805306368	21	5085
2026-01-15 13:45:46.76	315.41	12.39	-30.1	-33.2	18.9	6.05e-01	0	43	0	811073536	21	5118
2026-01-15 13:45:49.77	315.91	12.19	-30.0	-33.0	19.0	6.03e-01	0	43	0	816840704	21	5059
2026-01-15 13:45:52.79	316.40	11.98	-30.2	-33.3	18.7	6.04e-01	0	43	0	822083584	21	5191
2026-01-15 13:45:55.80	316.89	11.77	-30.1	-33.2	18.9	6.02e-01	0	43	0	827850752	21	5126
2026-01-15 13:45:58.80	317.37	11.57	-30.2	-33.5	18.6	6.04e-01	0	43	0	833617920	21	5259
2026-01-15 13:46:01.81	317.84	11.36	-30.2	-33.4	18.6	6.02e-01	0	43	0	839385088	21	5214
2026-01-15 13:46:04.82	318.31	11.16	-30.2	-33.4	18.6	6.04e-01	0	43	0	844627968	21	5207
2026-01-15 13:46:07.82	318.77	10.95	-30.3	-33.6	18.5	6.05e-01	0	43	0	850395136	21	5315
2026-01-15 13:46:10.83	319.22	10.75	-30.2	-33.4	18.6	6.01e-01	0	43	0	856162304	21	5219
2026-01-15 13:46:13.84	319.67	10.55	-30.3	-33.7	18.4	6.04e-01	0	43	0	861929472	21	5346
2026-01-15 13:46:16.85	320.11	10.34	-30.2	-33.5	18.5	6.01e-01	0	43	0	867172352	21	5273
2026-01-15 13:46:19.84	320.54	10.14	-30.3	-33.9	18.2	6.03e-01	0	43	0	872939520	21	5412
2026-01-15 13:46:22.84	320.96	9.94	-30.4	-34.1	18.1	6.05e-01	0	43	0	878706688	21	5502
2026-01-15 13:46:25.85	321.38	9.74	-30.4	-34.0	18.2	6.02e-01	0	43	0	884473856	21	5462
2026-01-15 13:46:28.85	321.80	9.54	-30.5	-34.4	17.9	6.02e-01	0	43	0	889716736	21	5645
2026-01-15 13:46:31.85	322.21	9.34	-30.4	-34.2	17.9	6.04e-01	0	43	0	895483904	21	5567
2026-01-15 13:46:34.85	322.61	9.14	-30.6	-34.3	17.4	6.05e-01	0	43	0	901251072	22	5542
2026-01-15 13:46:37.85	323.00	8.94	-28.8	-33.9	16.1	6.05e-01	0	43	0	907018240	19	6493
2026-01-15 13:46:40.85	323.39	8.74	-28.7	-34.1	15.9	6.06e-01	0	43	0	912261120	19	6674
2026-01-15 13:46:43.87	323.78	8.55	-30.5	-34.1	17.6	6.03e-01	0	43	0	918028288	22	5404
2026-01-15 13:46:46.87	324.16	8.35	-30.6	-34.2	17.5	6.07e-01	0	43	0	923795456	22	5474
2026-01-15 13:46:49.88	324.54	8.15	-30.7	-34.5	17.3	6.05e-01	0	43	0	929038336	22	5608
2026-01-15 13:46:52.88	324.91	7.96	-30.7	-34.7	17.1	6.03e-01	0	43	0	934805504	22	5689
2026-01-15 13:46:55.89	325.27	7.76	-30.8	-34.8	17.0	6.05e-01	0	43	0	940572672	22	5746
2026-01-15 13:46:58.90	325.63	7.57	-30.7	-34.6	17.3	6.03e-01	0	43	0	946339840	22	5641
2026-01-15 13:47:01.90	325.99	7.38	-30.5	-34.1	17.5	6.01e-01	0	43	0	952107008	22	5427
2026-01-15 13:47:04.90	326.34	7.18	-30.7	-34.7	17.0	6.03e-01	0	43	0	957349888	22	5687
2026-01-15 13:47:07.90	326.68	6.99	-34.0	-53.4	3.8	7.47e-01	0	43	104	960495616	28	33859

#Closed at: 2026-01-15 13:47:08
#Recorded file [960 MB]: D:/data/31010_260115_163834.dat