passes_logs/2026/01/15/R2M6_AANII_01/R2M6_AANII_01__20260115_102332_AQUA_rec.log

#Pass ID: 20260115_102332_AQUA
#Satellite: AQUA
#Configuration: AQUA
#almurnet v.1.7.20240730
#Start time: 2026-01-15 10:23:34

#Version: 2.2.20231116
#Station: R2M6_AANII_01
#Location: 30.233357 lon 59.946436 lat
#TLE: 1 27424U 02022A   26014.19338718  .00000717  00000+0  15340-3 0  9998
#TLE: 2 27424  98.4080 340.6072 0002047  79.4950 292.1093 14.61819636260772

#Time	Az	El	Level	Level2	SNR	BER	BlckErr	Temp	State	Recorded	gain1	gain2
2026-01-15 10:23:34.05	104.58	7.13	-32.1	-39.1	5.0	7.08e-01	0	41	0	0	26	8021
2026-01-15 10:23:37.06	104.26	7.34	-31.6	-36.7	14.3	6.06e-01	0	41	0	1572864	25	6462
2026-01-15 10:23:40.07	103.94	7.54	-31.8	-37.2	14.0	6.06e-01	0	41	0	7340032	25	6734
2026-01-15 10:23:43.07	103.61	7.75	-31.5	-36.0	14.9	6.05e-01	0	41	0	13107200	25	6035
2026-01-15 10:23:46.08	103.28	7.96	-30.8	-34.5	16.8	6.06e-01	0	41	0	18350080	23	5522
2026-01-15 10:23:49.08	102.94	8.17	-30.5	-33.7	17.4	6.07e-01	0	41	0	24117248	23	5171
2026-01-15 10:23:52.10	102.60	8.38	-30.5	-33.7	17.4	6.05e-01	0	41	0	29884416	23	5181
2026-01-15 10:23:55.10	102.25	8.59	-30.5	-33.6	17.5	6.07e-01	0	41	0	35651584	23	5163
2026-01-15 10:23:58.11	101.90	8.80	-30.5	-33.8	17.4	6.07e-01	0	41	0	41418752	23	5219
2026-01-15 10:24:01.12	101.53	9.02	-30.4	-33.5	17.5	6.06e-01	0	41	0	46661632	23	5111
2026-01-15 10:24:04.13	101.17	9.23	-30.3	-33.7	17.7	6.06e-01	0	42	0	52428800	22	5296
2026-01-15 10:24:07.14	100.80	9.45	-30.3	-33.6	17.8	6.05e-01	0	42	0	58195968	22	5253
2026-01-15 10:24:10.15	100.42	9.66	-30.3	-33.4	18.0	6.05e-01	0	42	0	63438848	22	5176
2026-01-15 10:24:13.16	100.03	9.88	-30.4	-33.9	17.6	6.06e-01	0	42	0	69206016	22	5364
2026-01-15 10:24:16.17	99.64	10.10	-30.3	-33.4	17.9	6.06e-01	0	42	0	74973184	22	5176
2026-01-15 10:24:19.18	99.24	10.32	-30.2	-33.2	18.1	6.07e-01	0	42	0	80740352	22	5090
2026-01-15 10:24:22.19	98.84	10.54	-30.2	-33.1	18.2	6.06e-01	0	42	0	86507520	22	5052
2026-01-15 10:24:25.19	98.43	10.76	-30.3	-33.4	18.0	6.08e-01	0	42	0	91750400	22	5164
2026-01-15 10:24:28.20	98.01	10.98	-30.6	-34.4	17.3	6.06e-01	0	42	0	97517568	22	5587
2026-01-15 10:24:31.21	97.59	11.20	-30.1	-33.0	18.4	6.05e-01	0	42	0	103284736	22	5004
2026-01-15 10:24:34.22	97.16	11.43	-30.1	-32.9	18.5	6.06e-01	0	42	0	109051904	22	4959
2026-01-15 10:24:37.23	96.72	11.65	-30.0	-32.6	18.7	6.07e-01	0	42	0	114294784	22	4843
2026-01-15 10:24:40.24	96.27	11.88	-29.9	-32.7	18.9	6.06e-01	0	42	0	120061952	21	4988
2026-01-15 10:24:43.26	95.81	12.10	-30.0	-33.0	18.8	6.05e-01	0	42	0	125829120	21	5094
2026-01-15 10:24:46.27	95.35	12.33	-30.1	-33.2	18.6	6.06e-01	0	42	0	131596288	21	5190
2026-01-15 10:24:49.28	94.88	12.56	-30.0	-33.1	18.8	6.07e-01	0	42	0	136839168	21	5119
2026-01-15 10:24:52.30	94.40	12.79	-29.9	-32.8	19.0	6.08e-01	0	42	0	142606336	21	5023
2026-01-15 10:24:55.30	93.92	13.01	-29.9	-32.8	19.0	6.06e-01	0	42	0	148373504	21	5005
2026-01-15 10:24:58.31	93.43	13.24	-30.0	-33.0	18.9	6.07e-01	0	42	0	154140672	21	5071
2026-01-15 10:25:01.32	92.92	13.47	-30.1	-33.3	18.8	6.05e-01	0	42	0	159907840	21	5171
2026-01-15 10:25:04.32	92.41	13.70	-30.0	-33.1	19.0	6.07e-01	0	42	0	165150720	21	5092
2026-01-15 10:25:07.33	91.89	13.93	-30.2	-33.4	18.8	6.06e-01	0	42	0	170917888	21	5226
2026-01-15 10:25:10.35	91.36	14.16	-29.9	-32.6	19.3	6.07e-01	0	42	0	176685056	21	4920
2026-01-15 10:25:13.35	90.83	14.39	-29.8	-32.4	19.4	6.08e-01	0	42	0	181927936	21	4846
2026-01-15 10:25:16.36	90.28	14.62	-30.1	-33.2	19.0	6.07e-01	0	42	0	187695104	21	5120
2026-01-15 10:25:19.36	89.73	14.85	-29.9	-32.5	19.4	6.07e-01	0	42	0	193462272	21	4898
2026-01-15 10:25:22.37	89.17	15.07	-29.9	-32.7	19.4	6.08e-01	0	43	0	199229440	21	4929
2026-01-15 10:25:25.38	88.59	15.30	-30.1	-33.2	19.1	6.08e-01	0	42	0	204996608	21	5112
2026-01-15 10:25:28.40	88.01	15.53	-30.1	-33.1	19.1	6.06e-01	0	43	0	210239488	21	5104
2026-01-15 10:25:31.40	87.42	15.76	-30.1	-33.1	19.1	6.08e-01	0	43	0	216006656	21	5096
2026-01-15 10:25:34.41	86.81	15.99	-30.0	-32.7	19.4	6.07e-01	0	42	0	221773824	21	4928
2026-01-15 10:25:37.41	86.20	16.21	-29.9	-32.5	19.5	6.04e-01	0	43	0	227540992	21	4879
2026-01-15 10:25:40.42	85.58	16.44	-30.1	-33.0	19.2	6.06e-01	0	43	0	232783872	21	5051
2026-01-15 10:25:43.43	84.95	16.66	-30.0	-32.8	19.4	6.05e-01	0	43	0	238551040	21	4963
2026-01-15 10:25:46.42	84.31	16.88	-29.9	-32.6	19.5	6.08e-01	0	43	0	244318208	21	4895
2026-01-15 10:25:49.42	83.66	17.10	-30.0	-32.8	19.4	6.07e-01	0	43	0	250085376	21	4974
2026-01-15 10:25:52.43	82.99	17.32	-30.0	-32.9	19.4	6.07e-01	0	43	0	255328256	21	4994
2026-01-15 10:25:55.44	82.32	17.54	-30.1	-33.0	19.3	6.07e-01	0	43	0	261095424	21	5022
2026-01-15 10:25:58.44	81.64	17.76	-30.3	-33.7	18.9	6.07e-01	0	43	0	266862592	21	5288
2026-01-15 10:26:01.45	80.94	17.97	-30.3	-33.6	19.0	6.06e-01	0	43	0	272105472	21	5257
2026-01-15 10:26:04.46	80.24	18.19	-30.3	-32.9	19.1	6.06e-01	0	43	0	277872640	22	4883
2026-01-15 10:26:07.47	79.52	18.40	-30.4	-33.3	18.9	6.07e-01	0	43	0	283639808	22	5035
2026-01-15 10:26:10.48	78.80	18.61	-30.5	-33.6	18.8	6.07e-01	0	43	0	289406976	22	5118
2026-01-15 10:26:13.49	78.06	18.81	-30.4	-33.2	19.0	6.07e-01	0	43	0	295174144	22	4991
2026-01-15 10:26:16.51	77.31	19.01	-30.7	-34.0	18.5	6.06e-01	0	43	0	300417024	22	5297
2026-01-15 10:26:19.52	76.55	19.21	-30.5	-33.4	18.9	6.04e-01	0	43	0	306184192	22	5048
2026-01-15 10:26:22.54	75.78	19.41	-30.5	-33.4	18.9	6.06e-01	0	43	0	311951360	22	5055
2026-01-15 10:26:25.56	75.00	19.60	-30.4	-33.3	19.0	6.05e-01	0	43	0	317718528	22	5025
2026-01-15 10:26:28.57	74.21	19.79	-30.3	-32.8	19.3	6.07e-01	0	43	0	323485696	22	4844
2026-01-15 10:26:31.57	73.41	19.97	-30.5	-42.8	3.8	7.43e-01	0	43	104	328204288	22	14821
2026-01-15 10:26:34.59	72.60	20.15	-31.2	-44.2	3.8	7.46e-01	0	43	104	328204288	23	16071
2026-01-15 10:26:37.59	71.79	20.33	-31.9	-45.7	3.8	7.45e-01	0	43	104	328204288	24	17626
2026-01-15 10:26:40.59	70.96	20.50	-32.0	-46.1	3.8	7.44e-01	0	43	104	328204288	24	18149
2026-01-15 10:26:43.60	70.12	20.67	-32.2	-46.3	3.8	7.46e-01	0	43	104	328204288	25	18158
2026-01-15 10:26:46.62	69.27	20.83	-33.2	-48.8	3.9	7.41e-01	0	43	104	328204288	27	21555
2026-01-15 10:26:49.63	68.41	20.98	-33.6	-50.3	3.8	7.44e-01	0	43	104	328204288	28	24651
2026-01-15 10:26:52.63	67.55	21.13	-33.5	-49.7	3.8	7.45e-01	0	43	104	328204288	28	23137
2026-01-15 10:26:55.64	66.67	21.28	-33.6	-49.8	3.8	7.45e-01	0	43	104	328204288	28	23249
2026-01-15 10:26:58.66	65.79	21.42	-33.2	-48.1	3.8	7.46e-01	0	43	104	328204288	28	20109
2026-01-15 10:27:01.66	64.90	21.55	-32.5	-46.0	3.8	7.48e-01	0	43	104	328204288	27	17038
2026-01-15 10:27:04.68	64.00	21.67	-33.1	-47.8	3.8	7.46e-01	0	43	104	328204288	27	19685
2026-01-15 10:27:07.70	63.09	21.79	-33.0	-47.6	3.8	7.46e-01	0	43	104	328204288	27	19274
2026-01-15 10:27:10.72	62.17	21.91	-32.3	-45.8	3.8	7.47e-01	0	43	104	328204288	26	16912
2026-01-15 10:27:13.73	61.25	22.01	-32.1	-45.1	3.8	7.46e-01	0	43	104	328204288	26	16090
2026-01-15 10:27:16.74	60.32	22.11	-31.3	-43.7	3.8	7.48e-01	0	43	104	328204288	24	15140
2026-01-15 10:27:19.75	59.39	22.20	-30.7	-42.6	3.8	7.44e-01	0	43	104	328204288	23	14216
2026-01-15 10:27:22.77	58.45	22.28	-30.8	-42.9	3.8	7.44e-01	0	43	104	328204288	23	14561
2026-01-15 10:27:25.79	57.50	22.36	-31.5	-44.8	3.8	7.44e-01	0	43	104	328204288	23	16697
2026-01-15 10:27:28.79	56.55	22.43	-32.1	-45.9	3.8	7.45e-01	0	43	104	328204288	24	17750
2026-01-15 10:27:31.80	55.60	22.49	-32.0	-45.3	3.8	7.46e-01	0	43	104	328204288	25	16673
2026-01-15 10:27:34.81	54.65	22.54	-32.6	-46.7	3.8	7.43e-01	0	43	104	328204288	26	18295
2026-01-15 10:27:37.81	53.69	22.58	-33.6	-49.8	3.8	7.43e-01	0	43	104	328204288	27	23471
2026-01-15 10:27:40.84	52.72	22.62	-33.7	-50.1	3.8	7.43e-01	0	43	104	328204288	28	23769
2026-01-15 10:27:43.85	51.76	22.64	-33.7	-50.0	3.8	7.44e-01	0	43	104	328204288	28	23747
2026-01-15 10:27:46.85	50.80	22.66	-33.6	-49.9	3.8	7.45e-01	0	43	104	328204288	28	23448
2026-01-15 10:27:49.85	49.84	22.67	-33.6	-49.7	3.8	7.41e-01	0	43	104	328204288	28	23066
2026-01-15 10:27:52.86	48.87	22.67	-33.5	-49.4	3.8	7.40e-01	0	43	104	328204288	28	22406
2026-01-15 10:27:55.86	47.91	22.67	-33.1	-47.5	3.8	7.47e-01	0	43	104	328204288	28	19042
2026-01-15 10:27:58.86	46.95	22.65	-32.4	-45.6	3.8	7.43e-01	0	43	104	328204288	27	16465
2026-01-15 10:28:01.86	45.99	22.63	-31.6	-44.2	3.8	7.46e-01	0	43	104	328204288	25	15298
2026-01-15 10:28:04.88	45.02	22.60	-31.3	-43.8	3.8	7.45e-01	0	43	104	328204288	24	15179
2026-01-15 10:28:07.89	44.06	22.56	-30.8	-43.0	3.8	7.45e-01	0	43	104	328204288	23	14657
2026-01-15 10:28:10.90	43.11	22.51	-30.7	-42.6	3.8	7.43e-01	0	43	104	328204288	23	14237
2026-01-15 10:28:13.91	42.15	22.46	-31.0	-43.4	3.8	7.44e-01	0	43	104	328204288	23	15081
2026-01-15 10:28:16.93	41.20	22.39	-31.9	-45.4	3.8	7.44e-01	0	43	104	328204288	24	17177
2026-01-15 10:28:19.94	40.26	22.32	-31.9	-45.7	3.8	7.45e-01	0	43	104	328204288	24	17561
2026-01-15 10:28:22.95	39.32	22.24	-32.2	-46.0	3.8	7.48e-01	0	43	104	328204288	25	17696
2026-01-15 10:28:25.97	38.38	22.15	-33.1	-48.6	3.8	7.42e-01	0	43	104	328204288	26	21460
2026-01-15 10:28:28.98	37.45	22.06	-33.6	-50.3	3.8	7.45e-01	0	43	104	328204288	27	24519
2026-01-15 10:28:31.99	36.53	21.96	-33.6	-50.1	3.8	7.46e-01	0	43	104	328204288	28	23940
2026-01-15 10:28:35.00	35.61	21.85	-33.6	-50.2	3.8	7.44e-01	0	43	104	328204288	28	24308
2026-01-15 10:28:38.01	34.70	21.73	-33.7	-50.4	3.8	7.43e-01	0	43	104	328204288	28	24748
2026-01-15 10:28:41.02	33.80	21.61	-33.6	-50.3	3.8	7.45e-01	0	43	104	328204288	28	24373
2026-01-15 10:28:44.02	32.91	21.48	-33.2	-48.3	3.8	7.43e-01	0	43	104	328204288	28	20526
2026-01-15 10:28:47.04	32.02	21.35	-32.6	-46.3	3.8	7.43e-01	0	43	104	328204288	27	17413
2026-01-15 10:28:50.05	31.15	21.21	-31.8	-44.9	3.8	7.41e-01	0	43	104	328204288	25	16170
2026-01-15 10:28:53.06	30.28	21.06	-31.3	-43.9	3.8	7.44e-01	0	43	104	328204288	24	15276
2026-01-15 10:28:56.08	29.42	20.91	-30.6	-42.6	3.8	7.43e-01	0	43	104	328204288	23	14313
2026-01-15 10:28:59.08	28.57	20.75	-30.5	-42.1	3.8	7.46e-01	0	43	104	328204288	23	13711
2026-01-15 10:29:02.10	27.72	20.59	-30.4	-42.0	3.8	7.44e-01	0	43	104	328204288	23	13632
2026-01-15 10:29:05.12	26.89	20.42	-31.1	-43.9	3.8	7.44e-01	0	43	104	328204288	23	15687
2026-01-15 10:29:08.14	26.07	20.24	-31.8	-45.3	3.8	7.45e-01	0	43	104	328204288	24	17059
2026-01-15 10:29:11.16	25.25	20.07	-32.1	-45.7	3.8	7.46e-01	0	43	104	328204288	25	17305
2026-01-15 10:29:14.17	24.45	19.88	-32.9	-48.0	3.8	7.45e-01	0	43	104	328204288	26	20420
2026-01-15 10:29:17.18	23.66	19.70	-33.4	-49.5	3.8	7.47e-01	0	43	104	328204288	27	22934
2026-01-15 10:29:20.20	22.88	19.51	-33.5	-49.6	3.8	7.42e-01	0	43	104	328204288	28	23025
2026-01-15 10:29:23.20	22.11	19.31	-33.5	-49.9	3.8	7.45e-01	0	43	104	328204288	28	23683
2026-01-15 10:29:26.23	21.34	19.12	-33.5	-49.7	3.8	7.45e-01	0	43	104	328204288	28	23201
2026-01-15 10:29:29.24	20.60	18.92	-33.2	-48.6	3.8	7.47e-01	0	43	104	328204288	28	21140
2026-01-15 10:29:32.25	19.86	18.71	-32.9	-47.3	3.8	7.47e-01	0	43	104	328204288	27	19089
2026-01-15 10:29:35.26	19.13	18.51	-32.2	-45.5	3.8	7.45e-01	0	43	104	328204288	26	16812
2026-01-15 10:29:38.27	18.41	18.30	-31.5	-44.1	3.8	7.45e-01	0	43	104	328204288	25	15256
2026-01-15 10:29:41.29	17.70	18.09	-30.7	-42.8	3.8	7.43e-01	0	43	104	328204288	23	14481
2026-01-15 10:29:44.31	17.00	17.87	-30.7	-42.7	3.8	7.45e-01	0	43	104	328204288	23	14411
2026-01-15 10:29:47.32	16.32	17.66	-30.2	-42.2	3.8	7.48e-01	0	43	104	328204288	22	14249
2026-01-15 10:29:50.32	15.64	17.44	-30.4	-42.6	3.8	7.48e-01	0	43	104	328204288	22	14678
2026-01-15 10:29:53.33	14.98	17.22	-30.4	-42.4	3.8	7.44e-01	0	43	104	328204288	22	14415
2026-01-15 10:29:56.35	14.32	17.00	-31.2	-44.2	3.8	7.47e-01	0	43	104	328204288	23	16081
2026-01-15 10:29:59.35	13.68	16.78	-31.8	-45.5	3.8	7.46e-01	0	43	104	328204288	24	17415
2026-01-15 10:30:02.37	13.04	16.56	-32.5	-47.3	3.8	7.46e-01	0	43	104	328204288	25	19789
2026-01-15 10:30:05.38	12.42	16.34	-33.0	-48.9	3.8	7.49e-01	0	43	104	328204288	26	22264
2026-01-15 10:30:08.40	11.80	16.11	-33.4	-49.9	3.8	7.48e-01	0	43	104	328204288	27	24031
2026-01-15 10:30:11.42	11.20	15.88	-33.5	-50.6	3.8	7.41e-01	0	43	104	328204288	27	25601
2026-01-15 10:30:14.43	10.60	15.66	-33.5	-50.3	3.8	7.45e-01	0	43	104	328204288	27	24983
2026-01-15 10:30:17.42	10.02	15.43	-33.3	-49.5	3.8	7.47e-01	0	43	104	328204288	27	23306
2026-01-15 10:30:20.44	9.44	15.20	-32.8	-47.4	3.8	7.45e-01	0	43	104	328204288	27	19342
2026-01-15 10:30:23.45	8.88	14.97	-32.1	-45.6	3.8	7.45e-01	0	43	104	328204288	26	16951
2026-01-15 10:30:26.47	8.32	14.75	-31.6	-44.3	3.8	7.44e-01	0	43	104	328204288	25	15623
2026-01-15 10:30:29.49	7.77	14.52	-30.9	-42.9	3.8	7.46e-01	0	43	104	328204288	24	14392
2026-01-15 10:30:32.49	7.24	14.29	-30.3	-42.3	3.8	7.43e-01	0	43	104	328204288	22	14442
2026-01-15 10:30:35.50	6.71	14.06	-30.2	-42.1	3.8	7.46e-01	0	43	104	328204288	22	14171
2026-01-15 10:30:38.51	6.19	13.83	-30.3	-42.5	3.8	7.45e-01	0	43	104	328204288	22	14708
2026-01-15 10:30:41.53	5.67	13.60	-30.7	-43.3	3.8	7.43e-01	0	43	104	328204288	22	15393
2026-01-15 10:30:44.53	5.17	13.38	-31.4	-45.1	3.8	7.46e-01	0	43	104	328204288	23	17395
2026-01-15 10:30:47.55	4.68	13.15	-32.2	-46.6	3.8	7.43e-01	0	43	104	328204288	25	18758
2026-01-15 10:30:50.56	4.19	12.92	-32.8	-48.1	3.8	7.48e-01	0	43	104	328204288	26	21094
2026-01-15 10:30:53.57	3.71	12.69	-33.2	-49.4	3.8	7.45e-01	0	43	104	328204288	27	23203
2026-01-15 10:30:56.58	3.24	12.47	-33.3	-50.0	3.8	7.46e-01	0	43	104	328204288	27	24528
2026-01-15 10:30:59.60	2.78	12.24	-33.4	-50.7	3.8	7.45e-01	0	43	104	328204288	27	26295
2026-01-15 10:31:02.62	2.32	12.01	-33.4	-50.8	3.8	7.46e-01	0	43	104	328204288	27	26698
2026-01-15 10:31:05.63	1.88	11.79	-33.3	-50.1	3.8	7.46e-01	0	43	104	328204288	27	25015
2026-01-15 10:31:08.63	1.44	11.57	-32.9	-48.4	3.8	7.44e-01	0	43	104	328204288	27	21295
2026-01-15 10:31:11.65	1.00	11.34	-32.2	-46.3	3.8	7.45e-01	0	43	104	328204288	26	18220
2026-01-15 10:31:14.66	0.58	11.12	-31.6	-44.7	3.8	7.43e-01	0	43	104	328204288	25	16209
2026-01-15 10:31:17.68	0.16	10.90	-31.3	-44.1	3.8	7.43e-01	0	43	104	328204288	24	15831
2026-01-15 10:31:20.70	359.75	10.68	-30.7	-43.2	3.8	7.44e-01	0	43	104	328204288	23	15149
2026-01-15 10:31:23.70	359.34	10.46	-30.4	-42.4	3.8	7.45e-01	0	43	104	328204288	23	14269
2026-01-15 10:31:26.72	358.95	10.24	-30.6	-42.7	3.8	7.44e-01	0	43	104	328204288	23	14488
2026-01-15 10:31:29.72	358.56	10.02	-31.2	-44.5	3.8	7.45e-01	0	43	104	328204288	23	16626
2026-01-15 10:31:32.74	358.17	9.80	-31.7	-45.5	3.8	7.44e-01	0	43	104	328204288	24	17717
2026-01-15 10:31:35.75	357.79	9.59	-32.1	-47.0	3.8	7.45e-01	0	43	104	328204288	24	19919
2026-01-15 10:31:38.77	357.42	9.37	-32.7	-48.4	3.8	7.46e-01	0	43	104	328204288	26	21896
2026-01-15 10:31:41.78	357.05	9.16	-33.1	-50.0	3.8	7.43e-01	0	43	104	328204288	26	25370
2026-01-15 10:31:44.79	356.69	8.94	-33.1	-50.1	3.8	7.42e-01	0	43	104	328204288	26	25597
2026-01-15 10:31:47.80	356.34	8.73	-33.2	-50.5	3.8	7.45e-01	0	43	104	328204288	27	26298
2026-01-15 10:31:50.80	355.99	8.52	-33.2	-50.7	3.8	7.46e-01	0	43	104	328204288	27	26940
2026-01-15 10:31:53.81	355.65	8.31	-33.2	-50.3	3.8	7.44e-01	0	43	104	328204288	27	26039
2026-01-15 10:31:56.82	355.31	8.10	-33.0	-49.6	3.8	7.47e-01	0	43	104	328204288	27	24281
2026-01-15 10:31:59.83	354.98	7.89	-32.5	-47.1	3.8	7.45e-01	0	43	104	328204288	27	19342
2026-01-15 10:32:02.83	354.65	7.69	-31.9	-45.5	3.8	7.45e-01	0	43	104	328204288	26	17121
2026-01-15 10:32:05.83	354.33	7.48	-31.6	-45.0	3.8	7.42e-01	0	43	104	328204288	25	16705
2026-01-15 10:32:08.85	354.01	7.28	-31.4	-44.4	3.8	7.45e-01	0	43	104	328204288	25	16023
2026-01-15 10:32:11.86	353.70	7.07	-33.6	-52.7	3.8	7.42e-01	0	43	104	328204288	28	32333

#Closed at: 2026-01-15 10:32:14
#Recorded file [328 MB]: D:/data/31010_260115_132335.dat