passes_logs/2026/01/15/R2M6_AANII_01/R2M6_AANII_01__20260115_075025_SUOMI_NPP_rec.log

#Pass ID: 20260115_075025_SUOMI NPP
#Satellite: SUOMI NPP
#Configuration: NPP
#almurnet v.1.7.20240730
#Start time: 2026-01-15 07:50:26

#Version: 2.2.20231116
#Station: R2M6_AANII_01
#Location: 30.233357 lon 59.946436 lat
#TLE: 1 37849U 11061A   26014.11719687  .00000048  00000+0  43625-4 0  9998
#TLE: 2 37849  98.7809 316.1734 0002474  65.2440 294.8994 14.19525043736585

#Time	Az	El	Level	Level2	SNR	BER	BlckErr	Temp	State	Recorded	gain1	gain2
2026-01-15 07:50:26.84	80.53	7.05	-32.6	-39.8	4.1	1.44e+00	0	41	0	0	26	8286
2026-01-15 07:50:28.85	80.30	7.16	-32.3	-37.7	6.0	3.91e-01	0	41	0	0	26	6666
2026-01-15 07:50:30.85	80.06	7.26	-32.4	-38.1	5.7	4.02e-01	0	41	0	3145728	26	6960
2026-01-15 07:50:32.86	79.83	7.37	-32.5	-39.0	5.2	4.69e-01	0	41	0	7340032	26	7560
2026-01-15 07:50:34.87	79.59	7.48	-32.3	-37.6	6.1	3.68e-01	0	41	0	10485760	26	6614
2026-01-15 07:50:36.87	79.34	7.59	-32.0	-36.3	7.4	1.29e-01	0	41	0	14680064	25	5872
2026-01-15 07:50:38.88	79.10	7.70	-31.4	-34.2	9.5	2.21e-02	0	41	0	17825792	24	4957
2026-01-15 07:50:40.88	78.86	7.81	-31.6	-34.8	9.0	1.54e-02	0	42	0	22020096	24	5230
2026-01-15 07:50:42.88	78.61	7.91	-31.6	-34.8	9.0	2.14e-02	0	42	0	26214400	24	5218
2026-01-15 07:50:44.89	78.36	8.02	-31.7	-35.1	8.9	3.29e-02	0	42	0	29360128	24	5339
2026-01-15 07:50:46.89	78.11	8.13	-31.5	-34.6	9.2	1.94e-02	0	42	0	33554432	24	5119
2026-01-15 07:50:48.90	77.86	8.24	-31.7	-35.5	8.5	2.33e-02	0	42	0	36700160	24	5550
2026-01-15 07:50:50.90	77.60	8.35	-31.4	-34.4	9.3	1.97e-02	0	42	0	40894464	24	5063
2026-01-15 07:50:52.91	77.35	8.46	-31.3	-33.9	9.8	1.10e-02	0	42	0	45088768	24	4831
2026-01-15 07:50:54.91	77.09	8.56	-31.2	-33.9	10.2	5.78e-03	0	42	0	48234496	23	4906
2026-01-15 07:50:56.91	76.83	8.67	-31.1	-33.7	10.2	5.22e-03	0	42	0	52428800	23	4864
2026-01-15 07:50:58.92	76.57	8.78	-31.3	-34.3	9.9	9.51e-03	0	42	0	55574528	23	5095
2026-01-15 07:51:00.92	76.30	8.89	-31.3	-34.3	9.9	8.50e-03	0	42	0	59768832	23	5099
2026-01-15 07:51:02.91	76.04	8.99	-31.1	-33.5	10.5	6.32e-03	0	42	0	62914560	23	4784
2026-01-15 07:51:04.92	75.77	9.10	-31.2	-33.8	10.3	3.33e-03	0	42	0	67108864	23	4886
2026-01-15 07:51:06.93	75.50	9.21	-31.3	-34.2	10.0	8.74e-03	0	42	0	71303168	23	5034
2026-01-15 07:51:08.93	75.23	9.31	-31.3	-34.3	10.1	4.97e-03	0	42	0	74448896	23	5056
2026-01-15 07:51:10.93	74.95	9.42	-31.1	-33.7	10.5	4.15e-03	0	42	0	78643200	23	4826
2026-01-15 07:51:12.93	74.68	9.53	-31.3	-34.3	10.0	5.53e-03	0	42	0	81788928	23	5079
2026-01-15 07:51:14.94	74.40	9.63	-31.4	-34.7	9.7	9.34e-03	0	42	0	85983232	23	5235
2026-01-15 07:51:16.95	74.12	9.74	-31.5	-35.0	9.5	8.66e-03	0	42	0	90177536	23	5363
2026-01-15 07:51:18.96	73.84	9.85	-31.4	-34.7	9.7	9.92e-03	0	42	0	93323264	23	5246
2026-01-15 07:51:20.96	73.55	9.95	-31.6	-35.3	9.3	1.76e-02	0	42	0	97517568	23	5494
2026-01-15 07:51:22.97	73.26	10.06	-31.4	-34.7	9.7	1.16e-02	0	42	0	100663296	23	5251
2026-01-15 07:51:24.97	72.98	10.16	-31.4	-34.6	9.8	1.01e-02	0	42	0	104857600	23	5208
2026-01-15 07:51:26.98	72.68	10.27	-31.4	-34.5	9.9	9.04e-03	0	43	0	108003328	23	5157
2026-01-15 07:51:28.98	72.39	10.37	-31.4	-34.4	10.0	7.75e-03	0	42	0	112197632	23	5113
2026-01-15 07:51:30.99	72.10	10.48	-31.0	-33.3	10.9	2.48e-03	0	42	0	116391936	23	4649
2026-01-15 07:51:32.99	71.80	10.58	-31.1	-33.4	10.8	3.15e-03	0	42	0	119537664	23	4693
2026-01-15 07:51:35.00	71.50	10.69	-31.1	-33.3	10.8	2.79e-03	0	42	0	123731968	23	4678
2026-01-15 07:51:37.00	71.20	10.79	-31.1	-33.5	10.7	2.59e-03	0	43	0	126877696	23	4731
2026-01-15 07:51:39.01	70.89	10.89	-30.9	-32.8	11.2	1.59e-03	0	43	0	131072000	23	4470
2026-01-15 07:51:41.01	70.59	11.00	-30.9	-32.8	11.2	1.96e-03	0	43	0	135266304	23	4480
2026-01-15 07:51:43.02	70.28	11.10	-31.2	-33.7	10.6	2.36e-03	0	43	0	138412032	23	4823
2026-01-15 07:51:45.03	69.97	11.20	-30.5	-32.0	12.1	3.62e-04	0	43	0	142606336	22	4302
2026-01-15 07:51:47.02	69.66	11.30	-30.5	-32.2	12.0	2.85e-04	0	43	0	145752064	22	4361
2026-01-15 07:51:49.03	69.34	11.40	-30.8	-33.0	11.5	9.99e-04	0	43	0	149946368	22	4625
2026-01-15 07:51:51.04	69.03	11.50	-30.8	-32.9	11.6	6.87e-04	0	43	0	153092096	22	4600
2026-01-15 07:51:53.03	68.71	11.60	-30.9	-33.3	11.3	1.35e-03	0	42	0	157286400	22	4730
2026-01-15 07:51:55.04	68.39	11.70	-30.9	-33.5	11.1	1.34e-03	0	43	0	161480704	22	4818
2026-01-15 07:51:57.04	68.06	11.80	-30.6	-32.5	11.9	5.75e-04	0	43	0	164626432	22	4460
2026-01-15 07:51:59.04	67.74	11.90	-30.2	-31.7	12.8	9.53e-05	0	43	0	168820736	21	4269
2026-01-15 07:52:01.06	67.41	12.00	-30.3	-32.1	12.5	1.24e-04	0	43	0	171966464	21	4401
2026-01-15 07:52:03.06	67.08	12.10	-30.3	-32.0	12.6	8.62e-05	0	43	0	176160768	21	4370
2026-01-15 07:52:05.06	66.75	12.20	-30.2	-31.8	12.7	9.91e-05	0	43	0	180355072	21	4302
2026-01-15 07:52:07.06	66.41	12.29	-30.2	-31.7	12.8	6.02e-05	0	43	0	183500800	21	4281
2026-01-15 07:52:09.07	66.08	12.39	-30.4	-32.4	12.4	1.23e-04	0	43	0	187695104	21	4499
2026-01-15 07:52:11.08	65.74	12.49	-30.5	-32.6	12.2	1.94e-04	0	43	0	190840832	21	4582
2026-01-15 07:52:13.08	65.40	12.58	-30.6	-32.8	12.0	2.60e-04	0	43	0	195035136	21	4646
2026-01-15 07:52:15.09	65.05	12.68	-30.6	-32.8	12.0	4.03e-04	0	43	0	198180864	21	4661
2026-01-15 07:52:17.09	64.71	12.77	-30.2	-31.5	12.9	5.95e-05	0	43	0	202375168	21	4218
2026-01-15 07:52:19.09	64.36	12.86	-30.0	-31.1	13.2	2.13e-05	0	43	0	206569472	21	4089
2026-01-15 07:52:21.09	64.01	12.95	-29.9	-30.8	13.4	1.83e-05	0	43	0	209715200	21	4000
2026-01-15 07:52:23.11	63.66	13.05	-29.8	-30.7	13.6	1.37e-05	0	43	0	213909504	21	3952
2026-01-15 07:52:25.12	63.30	13.14	-29.9	-31.2	13.5	1.29e-05	0	43	0	217055232	20	4195
2026-01-15 07:52:27.12	62.94	13.23	-30.2	-32.0	13.1	1.67e-05	0	43	0	221249536	20	4432
2026-01-15 07:52:29.12	62.59	13.32	-30.3	-32.4	12.8	4.88e-05	0	43	0	225443840	20	4571
2026-01-15 07:52:31.14	62.22	13.41	-30.2	-32.1	13.0	3.81e-05	0	43	0	228589568	20	4484
2026-01-15 07:52:33.14	61.86	13.49	-30.5	-32.8	12.5	1.06e-04	0	43	0	232783872	20	4739
2026-01-15 07:52:35.15	61.49	13.58	-30.4	-32.6	12.6	1.14e-04	0	43	0	235929600	20	4663
2026-01-15 07:52:37.15	61.13	13.67	-30.7	-32.9	12.2	1.24e-04	0	43	0	240123904	21	4659
2026-01-15 07:52:39.15	60.76	13.75	-30.7	-32.9	12.1	2.01e-04	0	43	0	244318208	21	4649
2026-01-15 07:52:41.15	60.39	13.84	-30.8	-33.4	11.8	4.10e-04	0	43	0	247463936	21	4825
2026-01-15 07:52:43.15	60.01	13.92	-31.0	-33.5	11.4	8.27e-04	0	43	0	251658240	22	4801
2026-01-15 07:52:45.16	59.63	14.00	-30.8	-32.8	11.9	8.31e-04	0	43	0	254803968	22	4545
2026-01-15 07:52:47.16	59.26	14.08	-30.3	-31.4	12.9	6.94e-05	0	43	0	258998272	22	4053
2026-01-15 07:52:49.17	58.88	14.16	-30.1	-31.4	13.3	1.83e-05	0	43	0	262144000	21	4138
2026-01-15 07:52:51.17	58.49	14.24	-30.2	-31.5	13.1	2.28e-05	0	43	0	266338304	21	4185
2026-01-15 07:52:53.17	58.11	14.32	-30.2	-31.6	13.1	3.20e-05	0	43	0	270532608	21	4214
2026-01-15 07:52:55.17	57.73	14.40	-30.4	-32.0	12.9	4.65e-05	0	43	0	273678336	21	4323
2026-01-15 07:52:57.18	57.34	14.48	-30.4	-32.1	12.8	5.95e-05	0	43	0	277872640	21	4371
2026-01-15 07:52:59.18	56.95	14.55	-30.1	-31.2	13.4	1.75e-05	0	43	0	281018368	21	4085
2026-01-15 07:53:01.19	56.55	14.63	-30.1	-31.2	13.4	6.80e-06	0	43	0	285212672	21	4095
2026-01-15 07:53:03.19	56.16	14.70	-30.3	-31.7	13.0	3.89e-05	0	43	0	288358400	21	4230
2026-01-15 07:53:05.20	55.76	14.77	-30.4	-32.1	12.8	5.18e-05	0	43	0	292552704	21	4365
2026-01-15 07:53:07.20	55.36	14.84	-30.4	-32.2	12.7	5.49e-05	0	43	0	296747008	21	4398
2026-01-15 07:53:09.21	54.96	14.91	-30.2	-31.6	13.2	5.11e-05	0	43	0	299892736	21	4199
2026-01-15 07:53:11.21	54.56	14.98	-29.7	-30.5	14.2	1.50e-06	0	43	0	304087040	20	3969
2026-01-15 07:53:13.22	54.16	15.05	-29.5	-30.1	14.5	1.50e-06	0	43	0	307232768	20	3843
2026-01-15 07:53:15.23	53.75	15.11	-29.5	-30.1	14.5	0.00e+00	0	43	0	311427072	20	3847
2026-01-15 07:53:17.24	53.34	15.18	-29.8	-30.8	14.0	3.80e-06	0	43	0	315621376	20	4056
2026-01-15 07:53:19.25	52.93	15.24	-29.9	-31.0	13.9	7.00e-07	0	43	0	318767104	20	4111
2026-01-15 07:53:21.26	52.52	15.30	-30.3	-32.1	13.2	3.12e-05	0	43	0	322961408	20	4447
2026-01-15 07:53:23.26	52.11	15.36	-29.9	-31.2	13.8	1.14e-05	0	43	0	326107136	20	4154
2026-01-15 07:53:25.25	51.69	15.42	-30.0	-31.3	13.7	9.10e-06	0	43	0	330301440	20	4190
2026-01-15 07:53:27.25	51.28	15.48	-30.0	-31.5	13.6	9.10e-06	0	43	0	334495744	20	4255
2026-01-15 07:53:29.26	50.86	15.54	-30.4	-32.4	13.0	3.43e-05	0	43	0	337641472	20	4543
2026-01-15 07:53:31.26	50.44	15.59	-30.4	-31.9	12.9	5.34e-05	0	43	0	341835776	21	4291
2026-01-15 07:53:33.26	50.02	15.65	-30.2	-31.4	13.3	2.28e-05	0	43	0	344981504	21	4143
2026-01-15 07:53:35.27	49.60	15.70	-30.3	-31.6	13.1	2.44e-05	0	43	0	349175808	21	4212
2026-01-15 07:53:37.27	49.18	15.75	-30.5	-32.2	12.7	8.31e-05	0	43	0	352321536	21	4375
2026-01-15 07:53:39.27	48.75	15.80	-30.3	-31.6	13.1	4.04e-05	0	43	0	356515840	21	4214
2026-01-15 07:53:41.28	48.32	15.85	-30.4	-32.0	12.9	4.42e-05	0	43	0	360710144	21	4338
2026-01-15 07:53:43.28	47.90	15.89	-30.2	-31.5	13.2	2.97e-05	0	43	0	363855872	21	4186
2026-01-15 07:53:45.29	47.47	15.94	-30.2	-31.5	13.3	1.90e-05	0	43	0	368050176	21	4153
2026-01-15 07:53:47.29	47.04	15.98	-30.3	-31.6	13.1	1.90e-05	0	43	0	371195904	21	4210
2026-01-15 07:53:49.30	46.60	16.02	-30.2	-31.4	13.3	2.89e-05	0	43	0	375390208	21	4147
2026-01-15 07:53:51.30	46.17	16.06	-29.9	-30.5	13.9	4.50e-06	0	43	0	379584512	21	3887
2026-01-15 07:53:53.31	45.74	16.10	-30.0	-31.4	13.6	6.10e-06	0	43	0	382730240	20	4217
2026-01-15 07:53:55.32	45.30	16.14	-30.4	-32.4	12.9	2.82e-05	0	43	0	386924544	20	4561
2026-01-15 07:53:57.33	44.86	16.17	-30.4	-32.7	12.8	3.66e-05	0	43	0	390070272	20	4658
2026-01-15 07:53:59.33	44.43	16.21	-30.3	-32.3	13.0	3.05e-05	0	43	0	394264576	20	4546
2026-01-15 07:54:01.34	43.99	16.24	-30.5	-32.4	12.6	7.24e-05	0	43	0	397410304	21	4492
2026-01-15 07:54:03.35	43.55	16.27	-30.7	-33.0	12.3	1.75e-04	0	43	0	401604608	21	4671
2026-01-15 07:54:05.36	43.11	16.30	-30.7	-33.1	12.1	1.81e-04	0	43	0	405798912	21	4710
2026-01-15 07:54:07.37	42.66	16.32	-30.9	-33.4	11.9	3.36e-04	0	43	0	408944640	21	4849
2026-01-15 07:54:09.38	42.22	16.35	-30.9	-33.2	11.7	6.50e-04	0	43	0	413138944	22	4647
2026-01-15 07:54:11.39	41.78	16.37	-30.4	-31.7	12.8	6.33e-05	0	43	0	416284672	22	4168
2026-01-15 07:54:13.39	41.34	16.39	-30.4	-31.5	12.8	6.10e-05	0	43	0	420478976	22	4115
2026-01-15 07:54:15.40	40.89	16.41	-30.5	-31.7	12.8	7.24e-05	0	43	0	424673280	22	4179
2026-01-15 07:54:17.41	40.45	16.43	-30.3	-31.8	13.0	4.11e-05	0	43	0	427819008	21	4263
2026-01-15 07:54:19.42	40.00	16.45	-30.3	-31.9	12.9	5.26e-05	0	43	0	432013312	21	4294
2026-01-15 07:54:21.43	39.56	16.46	-30.4	-31.9	12.9	5.11e-05	0	43	0	435159040	21	4308
2026-01-15 07:54:23.44	39.11	16.48	-30.3	-31.8	12.9	3.66e-05	0	43	0	439353344	21	4275
2026-01-15 07:54:25.45	38.66	16.49	-30.3	-31.6	13.1	2.51e-05	0	43	0	443547648	21	4216
2026-01-15 07:54:27.46	38.21	16.50	-30.6	-32.5	12.6	7.17e-05	0	43	0	446693376	21	4495
2026-01-15 07:54:29.46	37.77	16.51	-30.6	-32.7	12.4	1.47e-04	0	43	0	450887680	21	4567
2026-01-15 07:54:31.46	37.32	16.51	-30.7	-33.0	12.3	2.43e-04	0	43	0	454033408	21	4670
2026-01-15 07:54:33.47	36.88	16.52	-30.3	-31.7	13.0	5.56e-05	0	43	0	458227712	21	4240
2026-01-15 07:54:35.48	36.43	16.52	-30.2	-31.4	13.2	1.67e-05	0	43	0	462422016	21	4151
2026-01-15 07:54:37.49	35.98	16.52	-30.2	-31.5	13.2	1.22e-05	0	43	0	465567744	21	4164
2026-01-15 07:54:39.50	35.53	16.52	-30.3	-31.8	12.9	2.74e-05	0	43	0	469762048	21	4279
2026-01-15 07:54:41.50	35.09	16.52	-30.8	-33.2	12.1	2.68e-04	0	43	0	472907776	21	4723
2026-01-15 07:54:43.51	34.64	16.51	-30.7	-32.4	12.3	1.57e-04	0	43	0	477102080	22	4386
2026-01-15 07:54:45.51	34.19	16.50	-31.1	-33.4	11.6	5.13e-04	0	43	0	481296384	22	4732
2026-01-15 07:54:47.52	33.75	16.50	-31.1	-33.7	11.4	9.22e-04	0	43	0	484442112	22	4830
2026-01-15 07:54:49.52	33.30	16.49	-31.0	-33.3	11.6	4.70e-04	0	43	0	488636416	22	4685
2026-01-15 07:54:51.52	32.86	16.47	-30.8	-32.6	12.1	3.52e-04	0	43	0	491782144	22	4455
2026-01-15 07:54:53.53	32.41	16.46	-30.5	-32.0	12.5	1.36e-04	0	43	0	495976448	22	4244
2026-01-15 07:54:55.54	31.97	16.45	-30.5	-31.8	12.7	7.17e-05	0	43	0	499122176	22	4196
2026-01-15 07:54:57.55	31.52	16.43	-30.3	-31.3	13.0	4.88e-05	0	43	0	503316480	22	4043
2026-01-15 07:54:59.55	31.08	16.41	-30.2	-31.6	13.2	2.97e-05	0	43	0	507510784	21	4191
2026-01-15 07:55:01.56	30.63	16.39	-30.3	-31.6	13.1	2.89e-05	0	43	0	510656512	21	4204
2026-01-15 07:55:03.57	30.19	16.37	-30.4	-32.1	12.8	4.27e-05	0	43	0	514850816	21	4356
2026-01-15 07:55:05.58	29.75	16.34	-30.5	-32.3	12.7	5.79e-05	0	43	0	517996544	21	4409
2026-01-15 07:55:07.59	29.30	16.32	-30.0	-30.9	13.6	3.20e-05	0	43	0	522190848	21	3998
2026-01-15 07:55:09.58	28.87	16.29	-29.7	-30.7	14.1	1.50e-06	0	43	0	526385152	20	4021
2026-01-15 07:55:11.59	28.43	16.26	-29.8	-30.7	14.0	3.00e-06	0	43	0	529530880	20	4014
2026-01-15 07:55:13.59	27.99	16.23	-29.8	-30.8	14.0	4.50e-06	0	43	0	533725184	20	4050
2026-01-15 07:55:15.60	27.55	16.20	-29.9	-31.0	13.9	3.00e-06	0	44	0	536870912	20	4106
2026-01-15 07:55:17.60	27.12	16.16	-29.8	-30.8	14.0	3.80e-06	0	43	0	541065216	20	4033
2026-01-15 07:55:19.61	26.68	16.13	-30.1	-31.5	13.5	5.30e-06	0	43	0	544210944	20	4253
2026-01-15 07:55:21.61	26.25	16.09	-30.1	-31.6	13.5	8.30e-06	0	43	0	548405248	20	4280
2026-01-15 07:55:23.63	25.81	16.05	-30.2	-31.9	13.3	3.28e-05	0	43	0	552599552	20	4375
2026-01-15 07:55:25.63	25.38	16.01	-30.2	-31.3	13.4	9.10e-06	0	43	0	555745280	21	4101
2026-01-15 07:55:27.63	24.95	15.97	-30.4	-31.9	13.0	1.49e-04	0	43	0	559939584	21	4294
2026-01-15 07:55:29.64	24.52	15.93	-30.6	-32.6	12.5	1.25e-04	0	43	0	563085312	21	4530
2026-01-15 07:55:31.64	24.09	15.88	-30.0	-30.9	13.6	1.37e-05	0	43	0	567279616	21	3991
2026-01-15 07:55:33.65	23.66	15.84	-29.9	-30.7	13.7	5.30e-06	0	43	0	571473920	21	3930
2026-01-15 07:55:35.66	23.24	15.79	-29.9	-30.7	13.7	4.50e-06	0	43	0	574619648	21	3917
2026-01-15 07:55:37.67	22.81	15.74	-29.7	-30.4	14.2	3.80e-06	0	44	0	578813952	20	3940
2026-01-15 07:55:39.67	22.39	15.69	-29.8	-30.9	13.9	5.30e-06	0	43	0	581959680	20	4088
2026-01-15 07:55:41.68	21.97	15.63	-30.1	-31.6	13.5	6.10e-06	0	43	0	586153984	20	4274
2026-01-15 07:55:43.69	21.55	15.58	-30.2	-32.0	13.1	2.28e-05	0	44	0	589299712	20	4428
2026-01-15 07:55:45.69	21.13	15.52	-30.3	-32.2	13.0	3.35e-05	0	43	0	593494016	20	4485
2026-01-15 07:55:47.70	20.71	15.47	-30.3	-31.7	13.0	2.82e-05	0	43	0	597688320	21	4228
2026-01-15 07:55:49.71	20.30	15.41	-30.7	-32.9	12.2	2.16e-04	0	43	0	600834048	21	4630
2026-01-15 07:55:51.72	19.88	15.35	-30.7	-32.9	12.2	2.60e-04	0	43	0	605028352	21	4626
2026-01-15 07:55:53.73	19.47	15.29	-30.7	-33.0	12.1	2.17e-04	0	43	0	608174080	21	4662
2026-01-15 07:55:55.73	19.06	15.23	-30.5	-32.2	12.6	1.07e-04	0	43	0	612368384	21	4403
2026-01-15 07:55:57.74	18.65	15.16	-30.6	-32.6	12.4	1.12e-04	0	43	0	616562688	21	4530
2026-01-15 07:55:59.74	18.25	15.10	-30.5	-32.4	12.5	1.40e-04	0	43	0	619708416	21	4455
2026-01-15 07:56:01.74	17.84	15.03	-30.5	-32.3	12.5	1.02e-04	0	43	0	623902720	21	4428
2026-01-15 07:56:03.74	17.44	14.97	-30.6	-32.6	12.4	1.60e-04	0	43	0	627048448	21	4526
2026-01-15 07:56:05.75	17.04	14.90	-30.5	-32.4	12.5	3.28e-04	0	43	0	631242752	21	4468
2026-01-15 07:56:07.76	16.64	14.83	-30.0	-30.9	13.5	2.51e-05	0	43	0	635437056	21	3990
2026-01-15 07:56:09.77	16.24	14.76	-29.8	-30.9	13.8	2.20e-06	0	43	0	638582784	20	4092
2026-01-15 07:56:11.77	15.85	14.68	-29.7	-30.7	13.9	3.80e-06	0	44	0	642777088	20	4037
2026-01-15 07:56:13.78	15.45	14.61	-29.9	-31.1	13.7	2.20e-06	0	43	0	645922816	20	4142
2026-01-15 07:56:15.77	15.06	14.54	-30.0	-31.5	13.4	1.52e-05	0	43	0	650117120	20	4272
2026-01-15 07:56:17.77	14.68	14.46	-30.2	-32.0	13.1	2.74e-05	0	43	0	653262848	20	4427
2026-01-15 07:56:19.78	14.29	14.38	-30.5	-32.5	12.4	1.20e-04	0	43	0	657457152	21	4498
2026-01-15 07:56:21.79	13.90	14.31	-30.9	-33.5	11.6	6.02e-04	0	44	0	661651456	21	4874
2026-01-15 07:56:23.80	13.52	14.23	-31.1	-33.7	11.2	1.20e-03	0	43	0	664797184	22	4863
2026-01-15 07:56:25.81	13.14	14.15	-30.9	-32.9	11.7	7.47e-04	0	44	0	668991488	22	4568
2026-01-15 07:56:27.81	12.76	14.07	-30.7	-32.4	12.1	2.37e-04	0	43	0	672137216	22	4383
2026-01-15 07:56:29.82	12.38	13.99	-30.9	-33.1	11.6	3.68e-04	0	43	0	676331520	22	4612
2026-01-15 07:56:31.82	12.01	13.90	-30.9	-33.0	11.7	3.87e-04	0	43	0	680525824	22	4582
2026-01-15 07:56:33.83	11.63	13.82	-31.0	-33.3	11.5	7.70e-04	0	43	0	683671552	22	4705
2026-01-15 07:56:35.84	11.26	13.73	-30.8	-32.6	11.9	4.71e-04	0	43	0	687865856	22	4465
2026-01-15 07:56:37.85	10.89	13.65	-30.7	-32.3	12.1	2.21e-04	0	43	0	691011584	22	4362
2026-01-15 07:56:39.86	10.53	13.56	-30.8	-32.8	11.8	3.49e-04	0	43	0	695205888	22	4531
2026-01-15 07:56:41.87	10.16	13.48	-30.7	-32.3	12.1	2.69e-04	0	43	0	699400192	22	4364
2026-01-15 07:56:43.87	9.80	13.39	-30.5	-31.9	12.4	1.50e-04	0	43	0	702545920	22	4213
2026-01-15 07:56:45.88	9.44	13.30	-30.3	-31.3	12.8	1.11e-04	0	44	0	706740224	22	4033
2026-01-15 07:56:47.88	9.09	13.21	-30.4	-32.0	12.6	6.48e-05	0	43	0	709885952	21	4350
2026-01-15 07:56:49.89	8.73	13.12	-30.7	-32.9	12.1	1.80e-04	0	43	0	714080256	21	4641
2026-01-15 07:56:51.90	8.38	13.03	-31.1	-33.7	11.2	1.07e-03	0	43	0	718274560	22	4846
2026-01-15 07:56:53.91	8.02	12.94	-30.9	-33.0	11.6	6.40e-04	0	43	0	721420288	22	4586
2026-01-15 07:56:55.92	7.68	12.84	-30.5	-32.1	12.2	3.42e-04	0	43	0	725614592	22	4296
2026-01-15 07:56:57.92	7.33	12.75	-30.5	-32.0	12.3	1.77e-04	0	43	0	728760320	22	4253
2026-01-15 07:56:59.92	6.99	12.66	-30.4	-31.6	12.5	1.46e-04	0	43	0	732954624	22	4156
2026-01-15 07:57:01.93	6.64	12.56	-30.4	-31.7	12.4	1.01e-04	0	43	0	736100352	22	4182
2026-01-15 07:57:03.93	6.31	12.47	-30.8	-32.9	11.6	4.25e-04	0	43	0	740294656	22	4564
2026-01-15 07:57:05.94	5.97	12.37	-31.5	-35.2	9.9	4.69e-03	0	43	0	744488960	22	5514
2026-01-15 07:57:07.94	5.63	12.28	-31.9	-36.3	8.7	2.81e-02	0	43	0	747634688	23	5962
2026-01-15 07:57:09.95	5.30	12.18	-31.9	-35.7	8.7	4.42e-02	0	43	0	751828992	24	5586
2026-01-15 07:57:11.95	4.97	12.08	-31.8	-35.4	8.9	2.66e-02	0	43	0	754974720	24	5457
2026-01-15 07:57:13.95	4.64	11.98	-31.5	-34.2	9.9	1.01e-02	0	43	0	759169024	24	4914
2026-01-15 07:57:15.94	4.32	11.89	-31.5	-34.2	9.9	8.93e-03	0	43	0	762314752	24	4895
2026-01-15 07:57:17.94	4.00	11.79	-31.3	-34.0	10.4	4.11e-03	0	43	0	766509056	23	4927
2026-01-15 07:57:19.94	3.68	11.69	-31.1	-33.4	10.8	3.13e-03	0	43	0	770703360	23	4691
2026-01-15 07:57:21.95	3.36	11.59	-31.0	-33.0	11.1	1.92e-03	0	43	0	773849088	23	4531
2026-01-15 07:57:23.95	3.04	11.49	-30.8	-32.8	11.6	6.48e-04	0	43	0	778043392	22	4527
2026-01-15 07:57:25.96	2.72	11.39	-31.0	-33.6	11.1	1.32e-03	0	43	0	781189120	22	4818
2026-01-15 07:57:27.96	2.41	11.29	-31.2	-34.1	10.7	2.75e-03	0	43	0	785383424	22	5026
2026-01-15 07:57:29.97	2.10	11.18	-31.1	-33.9	10.8	2.98e-03	0	43	0	789577728	22	4949
2026-01-15 07:57:31.97	1.79	11.08	-31.2	-34.0	10.8	2.14e-03	0	43	0	792723456	22	4991
2026-01-15 07:57:33.98	1.49	10.98	-31.1	-33.7	11.0	3.31e-03	0	44	0	796917760	22	4861
2026-01-15 07:57:35.98	1.18	10.88	-30.7	-32.6	11.7	6.26e-04	0	43	0	800063488	22	4467
2026-01-15 07:57:37.98	0.88	10.78	-30.7	-32.5	11.8	4.89e-04	0	43	0	804257792	22	4452
2026-01-15 07:57:39.99	0.58	10.67	-30.6	-32.4	11.8	3.63e-04	0	44	0	807403520	22	4423
2026-01-15 07:57:42.00	0.28	10.57	-30.8	-32.8	11.5	6.21e-04	0	43	0	811597824	22	4566
2026-01-15 07:57:44.00	359.99	10.46	-31.0	-33.6	11.0	1.31e-03	0	43	0	815792128	22	4839
2026-01-15 07:57:46.01	359.70	10.36	-31.1	-33.9	10.8	1.89e-03	0	43	0	818937856	22	4949
2026-01-15 07:57:48.01	359.41	10.25	-31.1	-33.7	10.9	2.49e-03	0	43	0	823132160	22	4894
2026-01-15 07:57:50.01	359.12	10.15	-31.1	-33.9	10.8	2.38e-03	0	43	0	826277888	22	4968
2026-01-15 07:57:52.02	358.83	10.04	-30.9	-33.0	11.3	1.25e-03	0	43	0	830472192	22	4635
2026-01-15 07:57:54.03	358.54	9.94	-30.8	-33.0	11.4	8.38e-04	0	44	0	834666496	22	4627
2026-01-15 07:57:56.03	358.26	9.83	-30.8	-32.9	11.5	7.93e-04	0	44	0	837812224	22	4595
2026-01-15 07:57:58.04	357.98	9.73	-30.4	-31.7	12.3	2.53e-04	0	43	0	842006528	22	4178
2026-01-15 07:58:00.04	357.70	9.62	-30.2	-31.6	12.7	9.15e-05	0	43	0	845152256	21	4242
2026-01-15 07:58:02.05	357.43	9.52	-29.9	-30.9	13.1	3.73e-05	0	43	0	849346560	21	4016
2026-01-15 07:58:04.05	357.15	9.41	-30.0	-31.0	13.1	2.89e-05	0	44	0	853540864	21	4040
2026-01-15 07:58:06.05	356.88	9.30	-30.1	-31.2	12.9	4.95e-05	0	43	0	856686592	21	4132
2026-01-15 07:58:08.06	356.61	9.20	-30.3	-32.0	12.4	1.03e-04	0	43	0	860880896	21	4377
2026-01-15 07:58:10.06	356.34	9.09	-30.4	-32.2	12.2	1.94e-04	0	44	0	864026624	21	4441
2026-01-15 07:58:12.06	356.08	8.98	-30.4	-32.3	12.1	3.01e-04	0	44	0	868220928	21	4458
2026-01-15 07:58:14.06	355.81	8.88	-30.2	-31.8	12.5	1.21e-04	0	44	0	871366656	21	4318
2026-01-15 07:58:16.07	355.55	8.77	-30.2	-31.5	12.6	8.69e-05	0	43	0	875560960	21	4228
2026-01-15 07:58:18.08	355.29	8.66	-30.2	-31.6	12.6	1.07e-04	0	43	0	879755264	21	4243
2026-01-15 07:58:20.08	355.03	8.55	-30.3	-31.9	12.4	1.17e-04	0	43	0	882900992	21	4349
2026-01-15 07:58:22.09	354.78	8.44	-30.4	-32.4	12.0	1.85e-04	0	43	0	887095296	21	4528
2026-01-15 07:58:24.09	354.52	8.34	-30.5	-32.6	11.9	6.06e-04	0	43	0	890241024	21	4570
2026-01-15 07:58:26.10	354.27	8.23	-30.5	-32.8	11.7	4.36e-04	0	44	0	894435328	21	4647
2026-01-15 07:58:28.11	354.02	8.12	-30.6	-32.9	11.6	5.85e-04	0	43	0	898629632	21	4712
2026-01-15 07:58:30.13	353.77	8.01	-30.7	-33.2	11.4	9.45e-04	0	43	0	901775360	21	4817
2026-01-15 07:58:32.14	353.52	7.90	-30.7	-33.2	11.4	9.12e-04	0	43	0	905969664	21	4796
2026-01-15 07:58:34.15	353.28	7.80	-30.7	-33.3	11.2	1.48e-03	0	43	0	909115392	21	4868
2026-01-15 07:58:36.16	353.03	7.69	-30.9	-34.1	10.7	3.22e-03	0	43	0	913309696	21	5172
2026-01-15 07:58:38.16	352.79	7.58	-30.7	-33.3	11.3	1.75e-03	0	43	0	917504000	21	4847
2026-01-15 07:58:40.16	352.55	7.47	-30.6	-32.9	11.5	7.72e-04	0	43	0	920649728	21	4714
2026-01-15 07:58:42.16	352.32	7.36	-30.5	-32.6	11.8	5.61e-04	0	43	0	924844032	21	4602
2026-01-15 07:58:44.17	352.08	7.26	-30.2	-31.9	12.2	1.98e-04	0	43	0	927989760	21	4365
2026-01-15 07:58:46.17	351.85	7.15	-30.3	-32.1	12.1	2.27e-04	0	43	0	932184064	21	4415
2026-01-15 07:58:48.17	351.62	7.04	-33.5	-46.2	3.8	1.49e+00	0	43	104	934281216	26	15539

#Closed at: 2026-01-15 07:58:49
#Recorded file [934 MB]: D:/data/31010_260115_105028.dat