passes_logs/2026/01/15/R2M6_AANII_01/R2M6_AANII_01__20260115_224637_NOAA_21_JPSS-2_rec.log

#Pass ID: 20260115_224637_NOAA 21 (JPSS-2)
#Satellite: NOAA 21 (JPSS-2)
#Configuration: NOAA 21
#almurnet v.1.7.20240730
#Start time: 2026-01-15 22:46:39

#Version: 2.2.20231116
#Station: R2M6_AANII_01
#Location: 30.233357 lon 59.946436 lat
#TLE: 1 54234U 22150A   26015.43562254  .00000028  00000+0  34201-4 0  9996
#TLE: 2 54234  98.7498 316.3301 0000635 288.4972  71.6135 14.19534768164873

#Time	Az	El	Level	Level2	SNR	BER	BlckErr	Temp	State	Recorded	gain1	gain2
2026-01-15 22:46:39.07	29.52	7.07	-30.4	-35.3	4.7	1.36e+00	0	41	0	0	20	6321
2026-01-15 22:46:42.08	29.79	7.27	-31.0	-35.4	8.0	5.64e-02	0	41	0	3145728	22	5972
2026-01-15 22:46:45.07	30.07	7.46	-30.4	-34.6	9.4	1.60e-02	0	41	0	11534336	20	5785
2026-01-15 22:46:48.07	30.36	7.65	-30.0	-33.3	10.3	4.91e-03	0	41	0	20971520	20	5225
2026-01-15 22:46:51.06	30.64	7.84	-29.6	-32.5	11.3	1.69e-03	0	42	0	30408704	19	5038
2026-01-15 22:46:54.06	30.93	8.04	-29.0	-30.9	12.4	1.37e-04	0	42	0	39845888	19	4490
2026-01-15 22:46:57.07	31.23	8.23	-29.2	-32.1	12.0	2.61e-04	0	42	0	49283072	18	4973
2026-01-15 22:47:00.07	31.52	8.43	-29.0	-31.8	12.5	7.93e-05	0	42	0	58720256	17	4994
2026-01-15 22:47:03.07	31.83	8.62	-28.7	-30.7	12.9	7.09e-05	0	42	0	68157440	18	4535
2026-01-15 22:47:06.07	32.13	8.82	-29.0	-31.5	12.4	8.92e-05	0	42	0	77594624	18	4763
2026-01-15 22:47:09.08	32.44	9.02	-29.1	-31.5	12.4	1.04e-04	0	42	0	87031808	18	4786
2026-01-15 22:47:12.09	32.76	9.22	-28.9	-31.5	12.7	5.64e-05	0	42	0	96468992	17	4882
2026-01-15 22:47:15.10	33.08	9.42	-29.2	-31.9	12.2	1.86e-04	0	42	0	105906176	18	4921
2026-01-15 22:47:18.11	33.40	9.62	-28.7	-31.0	13.1	3.50e-05	0	42	0	115343360	17	4727
2026-01-15 22:47:21.12	33.73	9.83	-28.9	-31.6	12.8	5.26e-05	0	42	0	124780544	17	4904
2026-01-15 22:47:24.12	34.06	10.03	-28.3	-30.0	13.7	3.00e-06	0	42	0	134217728	17	4418
2026-01-15 22:47:27.12	34.39	10.23	-28.3	-30.1	13.7	5.30e-06	0	42	0	143654912	17	4433
2026-01-15 22:47:30.12	34.73	10.44	-28.5	-30.7	13.4	2.05e-05	0	42	0	153092096	17	4606
2026-01-15 22:47:33.12	35.08	10.64	-28.4	-30.3	13.6	6.80e-06	0	42	0	162529280	17	4480
2026-01-15 22:47:36.11	35.42	10.85	-28.2	-30.3	13.9	7.00e-07	0	42	0	171966464	16	4587
2026-01-15 22:47:39.11	35.78	11.06	-27.9	-29.7	14.2	3.00e-06	0	42	0	181403648	16	4431
2026-01-15 22:47:42.10	36.13	11.26	-27.9	-29.5	14.4	0.00e+00	0	43	0	189792256	16	4373
2026-01-15 22:47:45.11	36.50	11.47	-28.0	-29.9	14.2	2.20e-06	0	42	0	199229440	16	4482
2026-01-15 22:47:48.12	36.87	11.68	-28.3	-30.6	13.7	1.06e-05	0	43	0	208666624	16	4706
2026-01-15 22:47:51.12	37.24	11.89	-28.0	-29.8	14.4	2.20e-06	0	43	0	218103808	16	4439
2026-01-15 22:47:54.12	37.62	12.11	-28.0	-29.8	14.4	7.00e-07	0	43	0	227540992	16	4427
2026-01-15 22:47:57.13	38.01	12.32	-28.1	-30.2	14.1	1.50e-06	0	43	0	236978176	16	4545
2026-01-15 22:48:00.13	38.40	12.53	-28.0	-29.8	14.4	0.00e+00	0	43	0	246415360	16	4441
2026-01-15 22:48:03.15	38.79	12.75	-27.9	-29.7	14.4	2.20e-06	0	43	0	255852544	16	4405
2026-01-15 22:48:06.14	39.19	12.96	-27.7	-29.2	14.7	0.00e+00	0	43	0	265289728	16	4263
2026-01-15 22:48:09.14	39.60	13.17	-27.5	-29.2	14.9	0.00e+00	0	43	0	274726912	15	4375
2026-01-15 22:48:12.13	40.01	13.39	-27.5	-29.1	14.9	0.00e+00	0	43	0	284164096	15	4363
2026-01-15 22:48:15.14	40.43	13.60	-27.5	-29.2	14.9	0.00e+00	0	43	0	293601280	15	4369
2026-01-15 22:48:18.15	40.85	13.82	-27.5	-29.2	14.9	1.50e-06	0	43	0	303038464	15	4389
2026-01-15 22:48:21.15	41.28	14.04	-27.6	-29.3	14.9	0.00e+00	0	43	0	312475648	15	4403
2026-01-15 22:48:24.16	41.72	14.26	-27.5	-29.1	15.0	7.00e-07	0	43	0	321912832	15	4339
2026-01-15 22:48:27.15	42.16	14.47	-27.5	-29.3	14.9	0.00e+00	0	43	0	331350016	15	4391
2026-01-15 22:48:30.15	42.61	14.69	-27.6	-29.4	14.9	0.00e+00	0	43	0	340787200	15	4418
2026-01-15 22:48:33.15	43.06	14.91	-27.8	-29.8	14.6	0.00e+00	0	43	0	350224384	15	4561
2026-01-15 22:48:36.16	43.53	15.13	-27.7	-29.6	14.8	0.00e+00	0	43	0	359661568	15	4500
2026-01-15 22:48:39.15	43.99	15.35	-27.5	-29.1	15.1	0.00e+00	0	43	0	368050176	15	4329
2026-01-15 22:48:42.15	44.47	15.57	-27.4	-29.4	15.2	0.00e+00	0	43	0	377487360	14	4541
2026-01-15 22:48:45.15	44.95	15.78	-27.5	-29.1	15.0	0.00e+00	0	43	0	386924544	15	4351
2026-01-15 22:48:48.16	45.44	16.01	-27.8	-29.8	14.7	0.00e+00	0	43	0	396361728	15	4542
2026-01-15 22:48:51.17	45.94	16.23	-27.8	-29.9	14.6	7.00e-07	0	43	0	405798912	15	4584
2026-01-15 22:48:54.17	46.44	16.44	-27.5	-29.2	15.1	0.00e+00	0	43	0	415236096	15	4350
2026-01-15 22:48:57.17	46.95	16.66	-27.5	-29.3	15.1	0.00e+00	0	43	0	424673280	15	4382
2026-01-15 22:49:00.18	47.47	16.88	-27.5	-29.1	15.1	0.00e+00	0	43	0	434110464	15	4352
2026-01-15 22:49:03.19	47.99	17.10	-27.6	-29.3	15.1	0.00e+00	0	43	0	443547648	15	4389
2026-01-15 22:49:06.20	48.53	17.32	-27.2	-28.4	15.6	1.01e-04	0	43	0	452984832	15	4148
2026-01-15 22:49:09.21	49.07	17.54	-27.2	-28.4	15.5	0.00e+00	0	43	0	462422016	15	4154
2026-01-15 22:49:12.22	49.62	17.76	-27.2	-28.5	15.5	1.29e-04	0	43	0	471859200	15	4173
2026-01-15 22:49:15.24	50.17	17.98	-27.2	-28.3	15.6	4.80e-05	0	43	0	481296384	15	4123
2026-01-15 22:49:18.25	50.74	18.19	-27.0	-28.5	15.8	6.81e-04	0	43	0	490733568	14	4278
2026-01-15 22:49:21.26	51.31	18.41	-27.3	-29.2	15.5	1.20e-03	0	43	0	500170752	14	4469
2026-01-15 22:49:24.27	51.89	18.63	-27.4	-29.3	15.3	1.18e-03	0	43	0	509607936	14	4511
2026-01-15 22:49:27.28	52.48	18.84	-27.4	-29.4	15.4	2.17e-03	0	43	0	519045120	14	4522
2026-01-15 22:49:30.28	53.07	19.05	-27.3	-29.1	15.5	0.00e+00	0	43	0	528482304	14	4432
2026-01-15 22:49:33.28	53.68	19.26	-27.5	-29.5	15.3	1.63e-04	0	43	0	537919488	14	4568
2026-01-15 22:49:36.28	54.29	19.47	-27.5	-29.2	15.2	7.00e-07	0	43	0	547356672	15	4372
2026-01-15 22:49:39.30	54.91	19.68	-27.8	-29.8	14.8	0.00e+00	0	43	0	556793856	15	4539
2026-01-15 22:49:42.31	55.54	19.89	-27.5	-29.2	15.1	0.00e+00	0	43	0	566231040	15	4379
2026-01-15 22:49:45.31	56.18	20.10	-27.5	-29.0	15.3	0.00e+00	0	43	0	575668224	15	4317
2026-01-15 22:49:48.31	56.82	20.30	-27.5	-29.1	15.2	7.24e-05	0	43	0	585105408	15	4340
2026-01-15 22:49:51.30	57.47	20.50	-27.5	-29.2	15.2	0.00e+00	0	43	0	593494016	15	4353
2026-01-15 22:49:54.30	58.13	20.70	-27.5	-29.2	15.2	0.00e+00	0	43	0	602931200	15	4371
2026-01-15 22:49:57.29	58.80	20.90	-27.4	-28.8	15.4	0.00e+00	0	43	0	612368384	15	4253
2026-01-15 22:50:00.30	59.48	21.09	-27.1	-28.3	15.7	0.00e+00	0	43	0	621805568	15	4112
2026-01-15 22:50:03.30	60.16	21.29	-27.0	-28.5	15.9	0.00e+00	0	43	0	631242752	14	4266
2026-01-15 22:50:06.31	60.86	21.48	-27.2	-28.9	15.7	0.00e+00	0	43	0	640679936	14	4375
2026-01-15 22:50:09.32	61.57	21.66	-27.3	-29.2	15.5	0.00e+00	0	43	0	650117120	14	4463
2026-01-15 22:50:12.31	62.28	21.85	-27.1	-28.6	15.9	0.00e+00	0	43	0	659554304	14	4298
2026-01-15 22:50:15.32	63.00	22.03	-27.1	-28.7	15.8	0.00e+00	0	43	0	668991488	14	4326
2026-01-15 22:50:18.33	63.73	22.21	-27.3	-29.2	15.5	0.00e+00	0	43	0	678428672	14	4472
2026-01-15 22:50:21.32	64.46	22.38	-27.0	-28.5	15.9	0.00e+00	0	44	0	687865856	14	4274
2026-01-15 22:50:24.31	65.20	22.55	-26.9	-28.3	16.1	0.00e+00	0	43	0	697303040	14	4205
2026-01-15 22:50:27.32	65.96	22.72	-26.8	-28.6	16.1	0.00e+00	0	43	0	706740224	13	4414
2026-01-15 22:50:30.31	66.71	22.88	-26.9	-28.7	16.1	0.00e+00	0	43	0	716177408	13	4438
2026-01-15 22:50:33.33	67.49	23.04	-27.1	-28.6	15.9	0.00e+00	0	43	0	725614592	14	4299
2026-01-15 22:50:36.34	68.26	23.19	-27.3	-29.2	15.6	0.00e+00	0	43	0	735051776	14	4461
2026-01-15 22:50:39.34	69.05	23.34	-27.2	-28.9	15.8	0.00e+00	0	43	0	744488960	14	4366
2026-01-15 22:50:42.35	69.84	23.49	-27.6	-29.3	15.3	0.00e+00	0	43	0	753926144	15	4372
2026-01-15 22:50:45.36	70.64	23.63	-27.4	-28.9	15.4	0.00e+00	0	44	0	763363328	15	4274
2026-01-15 22:50:48.37	71.45	23.76	-27.3	-28.7	15.6	0.00e+00	0	43	0	772800512	15	4203
2026-01-15 22:50:51.37	72.26	23.89	-27.1	-28.1	15.9	0.00e+00	0	43	0	782237696	15	4048
2026-01-15 22:50:54.38	73.08	24.02	-27.2	-28.5	15.7	0.00e+00	0	44	0	791674880	15	4150
2026-01-15 22:50:57.40	73.91	24.14	-27.2	-28.3	15.8	0.00e+00	0	43	0	800063488	15	4111
2026-01-15 22:51:00.38	74.73	24.25	-27.2	-28.9	15.8	0.00e+00	0	43	0	809500672	14	4374
2026-01-15 22:51:03.39	75.57	24.36	-26.7	-27.7	16.4	0.00e+00	0	43	0	818937856	14	4066
2026-01-15 22:51:06.41	76.42	24.46	-26.9	-28.1	16.1	0.00e+00	0	44	0	828375040	14	4167
2026-01-15 22:51:09.41	77.26	24.56	-26.9	-28.7	15.5	0.00e+00	0	43	0	837812224	13	4446
2026-01-15 22:51:12.40	78.11	24.64	-27.2	-29.0	15.7	0.00e+00	0	43	0	847249408	14	4397
2026-01-15 22:51:15.40	78.97	24.73	-27.3	-29.0	15.8	2.37e-04	0	43	0	856686592	14	4411
2026-01-15 22:51:18.41	79.83	24.81	-26.8	-28.0	16.3	0.00e+00	0	44	0	866123776	14	4135
2026-01-15 22:51:21.41	80.69	24.88	-26.9	-28.2	16.2	0.00e+00	0	43	0	875560960	14	4195
2026-01-15 22:51:24.43	81.57	24.94	-26.7	-27.8	16.4	0.00e+00	0	43	0	884998144	14	4081
2026-01-15 22:51:27.44	82.44	25.00	-26.7	-27.7	16.4	0.00e+00	0	43	0	894435328	14	4059
2026-01-15 22:51:30.44	83.32	25.05	-26.9	-28.2	16.2	3.81e-05	0	43	0	903872512	14	4177
2026-01-15 22:51:33.43	84.19	25.09	-26.8	-28.0	16.3	0.00e+00	0	44	0	913309696	14	4136
2026-01-15 22:51:36.44	85.07	25.13	-26.8	-28.1	16.2	0.00e+00	0	43	0	922746880	14	4154
2026-01-15 22:51:39.44	85.95	25.16	-26.5	-27.4	16.6	1.29e-04	0	44	0	932184064	14	3987
2026-01-15 22:51:42.45	86.84	25.18	-26.5	-27.4	16.6	1.33e-04	0	43	0	941621248	14	3994
2026-01-15 22:51:45.45	87.72	25.20	-26.5	-27.4	16.6	1.60e-05	0	43	0	951058432	14	3992
2026-01-15 22:51:48.46	88.61	25.20	-26.6	-27.5	16.6	0.00e+00	0	43	0	960495616	14	3999
2026-01-15 22:51:51.46	89.50	25.21	-26.5	-27.3	16.6	0.00e+00	0	44	0	969932800	14	3967
2026-01-15 22:51:54.47	90.38	25.20	-26.4	-27.2	16.7	0.00e+00	0	43	0	979369984	14	3920
2026-01-15 22:51:57.47	91.27	25.19	-26.5	-27.3	16.7	1.58e-04	0	43	0	988807168	14	3962
2026-01-15 22:52:00.47	92.15	25.17	-26.5	-27.2	16.7	1.01e-04	0	44	0	997195776	14	3943
2026-01-15 22:52:03.46	93.03	25.14	-26.5	-27.3	16.6	0.00e+00	0	43	0	1006632960	14	3967
2026-01-15 22:52:06.46	93.91	25.11	-26.5	-27.4	16.6	1.52e-05	0	44	0	1016070144	14	3985
2026-01-15 22:52:09.46	94.79	25.06	-26.5	-27.4	16.6	0.00e+00	0	43	0	1025507328	14	3991
2026-01-15 22:52:12.46	95.67	25.02	-26.5	-27.3	16.7	0.00e+00	0	43	0	1034944512	14	3952
2026-01-15 22:52:15.45	96.54	24.96	-26.4	-27.2	16.7	0.00e+00	0	43	0	1044381696	14	3935
2026-01-15 22:52:18.47	97.41	24.90	-26.6	-27.5	16.6	0.00e+00	0	44	0	1053818880	14	3997
2026-01-15 22:52:21.47	98.28	24.83	-26.5	-27.5	16.6	0.00e+00	0	44	0	1063256064	14	3999
2026-01-15 22:52:24.47	99.14	24.76	-26.5	-27.4	16.6	0.00e+00	0	44	0	1072693248	14	3982
2026-01-15 22:52:27.47	100.00	24.68	-26.6	-27.5	16.6	0.00e+00	0	43	0	1082130432	14	4006
2026-01-15 22:52:30.48	100.86	24.59	-26.8	-28.0	16.3	0.00e+00	0	43	0	1091567616	14	4142
2026-01-15 22:52:33.46	101.71	24.50	-26.9	-28.1	16.2	0.00e+00	0	44	0	1101004800	14	4173
2026-01-15 22:52:36.47	102.55	24.40	-26.9	-28.3	16.1	0.00e+00	0	44	0	1110441984	14	4225
2026-01-15 22:52:39.48	103.40	24.29	-27.0	-28.4	16.0	0.00e+00	0	44	0	1119879168	14	4251
2026-01-15 22:52:42.48	104.23	24.18	-27.0	-28.4	16.0	0.00e+00	0	44	0	1129316352	14	4243
2026-01-15 22:52:45.49	105.06	24.06	-26.8	-28.1	16.2	0.00e+00	0	43	0	1138753536	14	4174
2026-01-15 22:52:48.50	105.89	23.94	-26.6	-28.2	16.4	0.00e+00	0	44	0	1148190720	13	4299
2026-01-15 22:52:51.50	106.70	23.81	-26.9	-28.8	16.1	0.00e+00	0	44	0	1157627904	13	4459
2026-01-15 22:52:54.50	107.51	23.67	-26.8	-28.6	16.2	0.00e+00	0	44	0	1166016512	13	4411
2026-01-15 22:52:57.50	108.31	23.54	-26.9	-28.4	16.0	0.00e+00	0	44	0	1175453696	14	4241
2026-01-15 22:53:00.51	109.11	23.39	-26.8	-28.1	16.1	0.00e+00	0	43	0	1184890880	14	4173
2026-01-15 22:53:03.51	109.90	23.24	-27.0	-28.6	15.9	0.00e+00	0	43	0	1194328064	14	4306
2026-01-15 22:53:06.52	110.68	23.09	-26.8	-28.1	16.1	0.00e+00	0	43	0	1203765248	14	4169
2026-01-15 22:53:09.53	111.46	22.93	-26.8	-28.0	16.2	0.00e+00	0	43	0	1213202432	14	4147
2026-01-15 22:53:12.54	112.23	22.77	-26.7	-27.7	16.4	0.00e+00	0	43	0	1222639616	14	4062
2026-01-15 22:53:15.55	112.99	22.60	-26.8	-28.0	16.2	0.00e+00	0	43	0	1232076800	14	4152
2026-01-15 22:53:18.56	113.74	22.43	-26.9	-28.1	16.1	0.00e+00	0	44	0	1241513984	14	4178
2026-01-15 22:53:21.56	114.48	22.26	-27.0	-28.6	15.8	0.00e+00	0	43	0	1250951168	14	4303
2026-01-15 22:53:24.55	115.21	22.08	-27.2	-29.0	15.6	0.00e+00	0	44	0	1260388352	14	4428
2026-01-15 22:53:27.55	115.94	21.90	-27.2	-28.9	15.6	0.00e+00	0	43	0	1269825536	14	4385
2026-01-15 22:53:30.54	116.65	21.72	-27.2	-29.0	15.6	0.00e+00	0	44	0	1279262720	14	4410
2026-01-15 22:53:33.56	117.36	21.53	-27.0	-28.5	15.8	0.00e+00	0	43	0	1288699904	14	4279
2026-01-15 22:53:36.57	118.07	21.34	-27.1	-28.6	15.8	0.00e+00	0	44	0	1298137088	14	4313
2026-01-15 22:53:39.57	118.76	21.15	-27.1	-28.8	15.7	0.00e+00	0	43	0	1307574272	14	4361
2026-01-15 22:53:42.58	119.45	20.95	-26.8	-28.1	16.1	0.00e+00	0	43	0	1317011456	14	4173
2026-01-15 22:53:45.59	120.12	20.75	-26.8	-28.0	16.2	0.00e+00	0	43	0	1326448640	14	4136
2026-01-15 22:53:48.58	120.79	20.55	-26.8	-28.0	16.2	0.00e+00	0	44	0	1335885824	14	4131
2026-01-15 22:53:51.58	121.45	20.35	-26.9	-28.4	15.9	0.00e+00	0	44	0	1345323008	14	4239
2026-01-15 22:53:54.58	122.10	20.14	-26.9	-28.3	16.0	0.00e+00	0	44	0	1354760192	14	4216
2026-01-15 22:53:57.58	122.74	19.94	-26.9	-28.3	15.9	0.00e+00	0	44	0	1364197376	14	4243
2026-01-15 22:54:00.57	123.37	19.73	-26.9	-28.3	15.9	0.00e+00	0	44	0	1372585984	14	4238
2026-01-15 22:54:03.56	123.99	19.52	-26.8	-28.0	16.0	0.00e+00	0	43	0	1382023168	14	4147
2026-01-15 22:54:06.55	124.61	19.31	-26.9	-28.2	15.9	7.00e-07	0	44	0	1391460352	14	4193
2026-01-15 22:54:09.57	125.22	19.10	-27.0	-28.5	15.8	0.00e+00	0	44	0	1400897536	14	4294
2026-01-15 22:54:12.56	125.82	18.88	-27.3	-29.2	15.4	0.00e+00	0	44	0	1410334720	14	4481
2026-01-15 22:54:15.56	126.41	18.67	-27.3	-29.2	15.4	0.00e+00	0	43	0	1419771904	14	4468
2026-01-15 22:54:18.57	126.99	18.45	-27.3	-29.2	15.3	0.00e+00	0	44	0	1429209088	14	4480
2026-01-15 22:54:21.58	127.57	18.23	-26.9	-28.5	15.4	9.91e-05	0	44	0	1438646272	14	4307
2026-01-15 22:54:24.58	128.14	18.02	-27.0	-28.6	15.2	7.84e-04	0	44	0	1448083456	14	4339
2026-01-15 22:54:27.58	128.70	17.80	-27.3	-29.1	15.4	0.00e+00	0	44	0	1457520640	14	4446
2026-01-15 22:54:30.58	129.25	17.58	-27.4	-29.4	15.2	0.00e+00	0	44	0	1466957824	14	4546
2026-01-15 22:54:33.59	129.80	17.36	-27.4	-29.5	15.1	0.00e+00	0	44	0	1476395008	14	4574
2026-01-15 22:54:36.59	130.33	17.14	-27.7	-29.6	14.8	0.00e+00	0	43	0	1485832192	15	4490
2026-01-15 22:54:39.60	130.86	16.92	-27.6	-29.5	14.8	0.00e+00	0	44	0	1495269376	15	4464
2026-01-15 22:54:42.61	131.39	16.69	-27.8	-30.0	14.5	0.00e+00	0	43	0	1504706560	15	4621
2026-01-15 22:54:45.63	131.90	16.47	-27.8	-29.3	14.8	0.00e+00	0	44	0	1514143744	16	4274
2026-01-15 22:54:48.63	132.41	16.25	-27.7	-29.7	14.7	7.00e-07	0	44	0	1523580928	15	4520
2026-01-15 22:54:51.63	132.91	16.03	-27.6	-29.4	14.8	0.00e+00	0	44	0	1533018112	15	4434
2026-01-15 22:54:54.63	133.40	15.81	-27.5	-29.3	14.9	0.00e+00	0	44	0	1542455296	15	4390
2026-01-15 22:54:57.65	133.89	15.59	-27.8	-29.9	14.4	7.00e-07	0	43	0	1550843904	15	4609
2026-01-15 22:55:00.65	134.37	15.36	-27.9	-29.8	14.3	4.50e-06	0	44	0	1560281088	16	4461
2026-01-15 22:55:03.65	134.84	15.14	-28.1	-30.2	14.1	2.20e-06	0	44	0	1569718272	16	4588
2026-01-15 22:55:06.65	135.31	14.92	-28.2	-30.3	14.0	9.90e-06	0	44	0	1579155456	16	4600
2026-01-15 22:55:09.66	135.77	14.70	-27.9	-29.5	14.5	4.50e-06	0	43	0	1588592640	16	4349
2026-01-15 22:55:12.66	136.22	14.48	-28.0	-29.8	14.3	1.50e-06	0	44	0	1598029824	16	4448
2026-01-15 22:55:15.66	136.67	14.26	-27.9	-29.6	14.4	7.00e-07	0	44	0	1607467008	16	4386
2026-01-15 22:55:18.65	137.10	14.04	-27.9	-29.6	14.4	2.20e-06	0	43	0	1616904192	16	4387
2026-01-15 22:55:21.65	137.54	13.82	-28.3	-30.6	13.7	6.10e-06	0	43	0	1626341376	16	4708
2026-01-15 22:55:24.65	137.96	13.60	-28.3	-30.6	13.7	4.50e-06	0	44	0	1635778560	16	4703
2026-01-15 22:55:27.66	138.38	13.39	-28.2	-30.5	13.8	6.10e-06	0	44	0	1645215744	16	4667
2026-01-15 22:55:30.65	138.80	13.17	-28.1	-30.3	13.9	1.50e-06	0	44	0	1654652928	16	4601
2026-01-15 22:55:33.67	139.21	12.95	-28.2	-30.5	13.7	1.50e-06	0	44	0	1664090112	16	4674
2026-01-15 22:55:36.66	139.61	12.74	-28.3	-30.7	13.7	6.10e-06	0	44	0	1673527296	16	4730
2026-01-15 22:55:39.67	140.01	12.52	-28.4	-30.8	13.5	1.60e-03	0	44	0	1682964480	16	4781
2026-01-15 22:55:42.68	140.40	12.30	-28.3	-30.8	13.5	1.06e-05	0	44	0	1692401664	16	4767
2026-01-15 22:55:45.69	140.79	12.09	-28.3	-30.8	13.5	5.32e-04	0	43	0	1701838848	16	4767
2026-01-15 22:55:48.70	141.17	11.88	-28.3	-30.3	13.4	1.06e-03	0	44	0	1711276032	17	4508
2026-01-15 22:55:51.71	141.55	11.66	-28.6	-30.9	13.0	1.41e-03	0	44	0	1720713216	17	4693
2026-01-15 22:55:54.71	141.92	11.45	-28.4	-31.1	13.1	1.67e-03	0	44	0	1730150400	16	4884
2026-01-15 22:55:57.71	142.29	11.24	-28.6	-31.1	12.7	2.94e-03	0	44	0	1738539008	17	4781
2026-01-15 22:56:00.72	142.65	11.03	-28.7	-31.3	12.5	3.02e-03	0	44	0	1747976192	17	4872
2026-01-15 22:56:03.72	143.00	10.82	-28.6	-31.1	12.7	6.86e-05	0	44	0	1757413376	17	4775
2026-01-15 22:56:06.74	143.36	10.61	-28.9	-31.7	12.3	1.22e-03	0	44	0	1766850560	17	5011
2026-01-15 22:56:09.74	143.70	10.40	-28.5	-30.7	12.9	1.89e-03	0	44	0	1776287744	17	4663
2026-01-15 22:56:12.74	144.04	10.19	-28.5	-30.9	12.8	4.73e-05	0	44	0	1785724928	17	4748
2026-01-15 22:56:15.75	144.38	9.99	-28.6	-31.1	12.7	3.71e-03	0	44	0	1795162112	17	4800
2026-01-15 22:56:18.75	144.71	9.78	-28.4	-31.2	12.9	5.11e-05	0	44	0	1804599296	16	4940
2026-01-15 22:56:21.75	145.04	9.58	-28.6	-31.0	12.7	4.73e-05	0	44	0	1814036480	17	4749
2026-01-15 22:56:24.75	145.36	9.37	-29.0	-31.9	12.1	1.82e-04	0	44	0	1823473664	17	5071
2026-01-15 22:56:27.75	145.68	9.17	-28.7	-31.3	12.5	1.23e-04	0	44	0	1832910848	17	4883
2026-01-15 22:56:30.74	146.00	8.97	-28.7	-31.6	12.3	1.40e-04	0	43	0	1842348032	17	4988
2026-01-15 22:56:33.75	146.31	8.77	-29.0	-31.9	11.8	4.13e-04	0	44	0	1851785216	18	4992
2026-01-15 22:56:36.76	146.62	8.57	-28.9	-32.0	12.0	2.52e-04	0	44	0	1861222400	17	5135
2026-01-15 22:56:39.77	146.92	8.37	-28.8	-31.8	12.1	2.95e-04	0	44	0	1870659584	17	5088
2026-01-15 22:56:42.76	147.22	8.17	-28.7	-31.7	12.1	2.65e-04	0	44	0	1880096768	17	5066
2026-01-15 22:56:45.76	147.51	7.97	-28.5	-31.2	12.4	1.37e-04	0	44	0	1889533952	17	4888
2026-01-15 22:56:48.76	147.80	7.78	-28.7	-31.8	11.9	5.94e-04	0	44	0	1898971136	17	5098
2026-01-15 22:56:51.77	148.09	7.58	-28.9	-31.8	11.7	5.68e-04	0	44	0	1908408320	18	4971
2026-01-15 22:56:54.78	148.37	7.39	-28.9	-32.5	11.4	6.19e-04	0	43	0	1917845504	17	5403
2026-01-15 22:56:57.78	148.65	7.19	-28.6	-31.8	11.7	5.77e-04	0	44	0	1927282688	17	5207
2026-01-15 22:57:00.79	148.93	7.00	-33.4	-45.6	3.8	1.49e+00	0	44	104	1931476992	26	14769

#Closed at: 2026-01-15 22:57:01
#Recorded file [1931 MB]: D:/data/31010_260116_014640.dat