passes_logs/2026/01/15/R2M6_AANII_01/R2M6_AANII_01__20260115_022343_AQUA_rec.log

#Pass ID: 20260115_022343_AQUA
#Satellite: AQUA
#Configuration: AQUA
#almurnet v.1.7.20240730
#Start time: 2026-01-15 02:26:22

#Version: 2.2.20231116
#Station: R2M6_AANII_01
#Location: 30.233357 lon 59.946436 lat
#TLE: 1 27424U 02022A   26014.19338718  .00000717  00000+0  15340-3 0  9998
#TLE: 2 27424  98.4080 340.6072 0002047  79.4950 292.1093 14.61819636260772

#Time	Az	El	Level	Level2	SNR	BER	BlckErr	Temp	State	Recorded	gain1	gain2
2026-01-15 02:26:22.96	7.28	25.94	-33.7	-45.0	3.8	8.45e-01	0	43	0	0	27	13267
2026-01-15 02:26:24.96	7.08	26.31	-34.6	-53.9	3.8	7.45e-01	0	43	104	0	30	32947
2026-01-15 02:26:26.97	6.89	26.68	-34.7	-54.0	3.8	7.47e-01	0	43	104	0	30	33392
2026-01-15 02:26:28.97	6.68	27.05	-34.8	-54.1	3.8	7.48e-01	0	43	104	0	30	33429
2026-01-15 02:26:30.97	6.47	27.43	-34.8	-54.2	3.8	7.43e-01	0	43	104	0	30	33538
2026-01-15 02:26:32.99	6.26	27.82	-34.8	-54.2	3.8	7.47e-01	0	43	104	0	30	33571
2026-01-15 02:26:35.00	6.04	28.21	-34.8	-54.1	3.8	7.46e-01	0	43	104	0	30	33400
2026-01-15 02:26:37.00	5.81	28.61	-34.8	-54.1	3.8	7.44e-01	0	43	104	0	30	33312
2026-01-15 02:26:39.00	5.58	29.01	-34.8	-54.2	3.8	7.46e-01	0	43	104	0	30	33559
2026-01-15 02:26:41.01	5.34	29.42	-34.9	-54.3	3.8	7.43e-01	0	43	104	0	30	33616
2026-01-15 02:26:43.01	5.10	29.83	-34.8	-54.3	3.8	7.47e-01	0	44	104	0	30	33757
2026-01-15 02:26:45.02	4.84	30.26	-34.8	-54.1	3.8	7.45e-01	0	43	104	0	30	33375
2026-01-15 02:26:47.03	4.58	30.68	-34.8	-54.1	3.8	7.48e-01	0	44	104	0	30	33273
2026-01-15 02:26:49.03	4.32	31.11	-34.8	-53.8	3.8	7.43e-01	0	43	104	0	30	32376
2026-01-15 02:26:51.02	4.04	31.55	-34.7	-52.3	3.8	7.43e-01	0	43	104	0	30	27375
2026-01-15 02:26:53.02	3.76	31.99	-34.6	-52.2	3.8	7.47e-01	0	43	104	0	30	27079
2026-01-15 02:26:55.02	3.47	32.44	-34.6	-52.2	3.8	7.41e-01	0	43	104	0	30	27120
2026-01-15 02:26:57.03	3.17	32.90	-34.6	-52.1	3.8	7.44e-01	0	43	104	0	30	26805
2026-01-15 02:26:59.03	2.87	33.37	-34.6	-51.7	3.8	7.42e-01	0	43	104	0	30	25925
2026-01-15 02:27:01.02	2.55	33.83	-34.6	-50.9	4.1	7.34e-01	0	43	104	0	29	23620
2026-01-15 02:27:03.03	2.22	34.31	-34.5	-50.0	4.4	7.29e-01	0	43	104	0	29	21462
2026-01-15 02:27:05.02	1.89	34.79	-34.5	-49.0	4.8	7.16e-01	0	43	104	0	29	19104
2026-01-15 02:27:07.02	1.54	35.28	-34.2	-45.1	7.5	6.55e-01	0	43	104	0	29	12556
2026-01-15 02:27:09.03	1.18	35.78	-34.0	-43.6	9.3	6.28e-01	0	43	104	0	28	10880
2026-01-15 02:27:11.03	0.81	36.29	-34.4	-47.0	6.1	6.79e-01	0	43	104	0	29	15307
2026-01-15 02:27:13.04	0.42	36.80	-34.2	-45.1	7.3	6.54e-01	0	43	104	0	29	12568
2026-01-15 02:27:15.04	0.03	37.32	-32.8	-37.8	14.7	6.03e-01	0	43	0	2621440	27	6357
2026-01-15 02:27:17.05	359.62	37.85	-33.2	-39.2	13.7	6.05e-01	0	43	0	6815744	27	7207
2026-01-15 02:27:19.06	359.19	38.39	-32.9	-38.5	14.6	6.01e-01	0	43	0	10485760	26	6870
2026-01-15 02:27:21.06	358.75	38.93	-32.9	-38.5	14.7	6.00e-01	0	43	0	14155776	26	6833
2026-01-15 02:27:23.07	358.30	39.48	-32.7	-37.8	15.2	6.02e-01	0	43	0	17825792	26	6428
2026-01-15 02:27:25.09	357.82	40.04	-32.6	-37.5	15.5	6.02e-01	0	43	0	21495808	26	6284
2026-01-15 02:27:27.09	357.34	40.60	-32.9	-38.4	14.7	6.00e-01	0	43	0	25165824	26	6761
2026-01-15 02:27:29.10	356.83	41.17	-32.1	-36.2	16.6	6.01e-01	0	43	0	29360128	25	5784
2026-01-15 02:27:31.10	356.30	41.75	-31.4	-34.6	18.1	6.04e-01	0	43	0	33030144	24	5190
2026-01-15 02:27:33.09	355.76	42.33	-31.0	-34.6	18.7	6.01e-01	0	43	0	36700160	22	5435
2026-01-15 02:27:35.09	355.20	42.92	-30.9	-34.4	18.9	6.03e-01	0	43	0	40370176	22	5334
2026-01-15 02:27:37.09	354.61	43.51	-31.6	-35.2	17.7	6.02e-01	0	43	0	44040192	24	5446
2026-01-15 02:27:39.10	354.00	44.12	-30.9	-34.1	19.0	6.04e-01	0	43	0	47710208	22	5236
2026-01-15 02:27:41.11	353.36	44.73	-31.1	-34.4	18.5	6.03e-01	0	43	0	51904512	23	5234
2026-01-15 02:27:43.12	352.70	45.35	-31.4	-35.1	18.2	6.02e-01	0	43	0	55574528	23	5491
2026-01-15 02:27:45.12	352.02	45.97	-31.3	-34.7	18.3	6.02e-01	0	43	0	59244544	23	5363
2026-01-15 02:27:47.12	351.30	46.59	-31.4	-35.1	18.1	6.01e-01	0	43	0	62914560	23	5518
2026-01-15 02:27:49.13	350.55	47.23	-32.0	-36.4	16.9	6.01e-01	0	43	0	66584576	24	5986
2026-01-15 02:27:51.13	349.78	47.86	-31.1	-34.1	18.7	6.04e-01	0	43	0	70778880	23	5108
2026-01-15 02:27:53.14	348.97	48.50	-31.3	-34.7	18.3	6.01e-01	0	43	0	74448896	23	5353
2026-01-15 02:27:55.14	348.12	49.14	-31.0	-34.0	18.8	6.01e-01	0	43	0	78118912	23	5068
2026-01-15 02:27:57.15	347.24	49.79	-31.2	-34.5	18.5	6.03e-01	0	43	0	81788928	23	5274
2026-01-15 02:27:59.15	346.32	50.44	-31.4	-35.0	18.2	6.01e-01	0	43	0	85458944	23	5471
2026-01-15 02:28:01.16	345.35	51.09	-31.5	-35.3	18.0	6.01e-01	0	43	0	89128960	23	5586
2026-01-15 02:28:03.15	344.35	51.74	-31.9	-35.9	17.3	6.03e-01	0	43	0	92798976	24	5722
2026-01-15 02:28:05.15	343.30	52.39	-31.8	-35.8	17.4	6.03e-01	0	43	0	96993280	24	5668
2026-01-15 02:28:07.16	342.20	53.04	-32.2	-36.4	16.7	5.99e-01	0	43	0	100663296	25	5826
2026-01-15 02:28:09.16	341.05	53.68	-31.1	-33.6	18.7	6.02e-01	0	43	0	104333312	24	4845
2026-01-15 02:28:11.17	339.84	54.33	-31.2	-34.5	18.4	6.01e-01	0	43	0	108003328	23	5287
2026-01-15 02:28:13.17	338.58	54.96	-30.5	-33.2	19.6	6.01e-01	0	43	0	111673344	22	4890
2026-01-15 02:28:15.18	337.26	55.60	-30.7	-33.7	19.4	6.01e-01	0	43	0	115867648	22	5070
2026-01-15 02:28:17.19	335.88	56.22	-30.6	-33.3	19.6	6.02e-01	0	43	0	119537664	22	4938
2026-01-15 02:28:19.18	334.44	56.83	-31.0	-34.4	18.8	6.00e-01	0	43	0	123207680	22	5354
2026-01-15 02:28:21.19	332.93	57.43	-30.8	-34.0	19.1	5.99e-01	0	43	0	126877696	22	5196
2026-01-15 02:28:23.19	331.35	58.02	-30.9	-33.7	19.0	6.02e-01	0	43	0	130547712	23	4957
2026-01-15 02:28:25.19	329.71	58.60	-31.3	-34.8	18.3	5.99e-01	0	43	0	134217728	23	5404
2026-01-15 02:28:27.18	328.00	59.15	-31.0	-34.6	18.2	6.01e-01	0	43	0	137887744	22	5436
2026-01-15 02:28:29.18	326.21	59.68	-31.3	-34.8	17.2	6.04e-01	0	43	0	142082048	23	5386
2026-01-15 02:28:31.17	324.35	60.20	-31.7	-35.5	17.5	6.01e-01	0	43	0	145752064	24	5588
2026-01-15 02:28:33.18	322.40	60.69	-31.3	-34.9	17.8	6.03e-01	0	43	0	149422080	23	5417
2026-01-15 02:28:35.17	320.40	61.15	-31.5	-35.5	17.5	6.02e-01	0	43	0	153092096	23	5657
2026-01-15 02:28:37.17	318.31	61.58	-30.9	-33.8	18.9	6.01e-01	0	43	0	156762112	23	5012
2026-01-15 02:28:39.16	316.16	61.99	-31.3	-34.9	17.8	6.03e-01	0	43	0	160432128	23	5456
2026-01-15 02:28:41.16	313.92	62.36	-31.3	-34.8	17.7	6.01e-01	0	43	0	164102144	23	5410
2026-01-15 02:28:43.16	311.63	62.69	-31.4	-35.0	18.2	6.02e-01	0	43	0	167772160	23	5457
2026-01-15 02:28:45.15	309.28	62.98	-31.8	-35.7	17.3	5.98e-01	0	43	0	171966464	24	5674
2026-01-15 02:28:47.14	306.87	63.24	-31.7	-35.4	17.6	6.04e-01	0	43	0	175636480	24	5523
2026-01-15 02:28:49.15	304.40	63.45	-31.8	-35.9	17.2	6.02e-01	0	43	0	179306496	24	5747
2026-01-15 02:28:51.15	301.89	63.62	-32.2	-36.4	16.5	6.01e-01	0	43	0	182976512	25	5862
2026-01-15 02:28:53.14	299.37	63.75	-31.9	-36.3	16.9	6.02e-01	0	43	0	186646528	24	5911
2026-01-15 02:28:55.15	296.80	63.82	-32.2	-36.4	16.5	6.02e-01	0	44	0	190316544	25	5884
2026-01-15 02:28:57.15	294.23	63.86	-32.3	-36.9	16.1	6.02e-01	0	43	0	194510848	25	6131
2026-01-15 02:28:59.16	291.64	63.84	-32.3	-36.9	16.2	6.02e-01	0	44	0	198180864	25	6128
2026-01-15 02:29:01.17	289.06	63.78	-31.8	-36.0	17.0	6.02e-01	0	43	0	201850880	24	5832
2026-01-15 02:29:03.17	286.51	63.67	-31.7	-35.6	17.3	6.04e-01	0	43	0	205520896	24	5644
2026-01-15 02:29:05.19	283.97	63.51	-31.6	-35.2	17.5	6.01e-01	0	43	0	209190912	24	5468
2026-01-15 02:29:07.20	281.48	63.31	-31.3	-34.4	18.2	6.03e-01	0	44	0	212860928	24	5143
2026-01-15 02:29:09.21	279.03	63.07	-31.7	-35.5	17.5	6.03e-01	0	43	0	217055232	24	5585
2026-01-15 02:29:11.21	276.65	62.79	-31.8	-35.8	17.2	6.04e-01	0	44	0	220725248	24	5737
2026-01-15 02:29:13.21	274.33	62.46	-31.7	-35.7	17.2	6.01e-01	0	43	0	224395264	24	5668
2026-01-15 02:29:15.21	272.08	62.10	-31.3	-34.9	18.0	6.01e-01	0	44	0	228065280	23	5446
2026-01-15 02:29:17.21	269.89	61.71	-31.4	-35.2	17.9	6.02e-01	0	44	0	231735296	23	5580
2026-01-15 02:29:19.22	267.77	61.28	-30.8	-33.4	19.0	6.01e-01	0	44	0	235929600	23	4879
2026-01-15 02:29:21.23	265.72	60.82	-31.3	-34.8	18.1	6.01e-01	0	44	0	239599616	23	5408
2026-01-15 02:29:23.24	263.74	60.34	-30.8	-34.1	18.9	6.01e-01	0	44	0	243269632	22	5234
2026-01-15 02:29:25.25	261.84	59.83	-31.2	-34.6	18.2	6.01e-01	0	44	0	246939648	23	5338
2026-01-15 02:29:27.25	260.03	59.29	-30.9	-34.3	18.8	6.03e-01	0	44	0	250609664	22	5335
2026-01-15 02:29:29.25	258.29	58.74	-31.0	-34.0	18.6	6.01e-01	0	44	0	254279680	23	5099
2026-01-15 02:29:31.26	256.61	58.17	-30.9	-34.3	18.7	6.00e-01	0	44	0	257949696	22	5344
2026-01-15 02:29:33.26	255.02	57.59	-30.8	-33.9	18.9	6.02e-01	0	43	0	262144000	22	5189
2026-01-15 02:29:35.28	253.47	56.98	-30.8	-34.0	18.9	6.00e-01	0	43	0	265814016	22	5215
2026-01-15 02:29:37.29	252.01	56.37	-30.4	-32.9	19.6	6.00e-01	0	44	0	269484032	22	4822
2026-01-15 02:29:39.30	250.61	55.74	-30.3	-33.2	19.7	6.02e-01	0	44	0	273154048	21	5035
2026-01-15 02:29:41.30	249.27	55.11	-30.1	-32.3	19.8	6.01e-01	0	43	0	276824064	22	4647
2026-01-15 02:29:43.31	247.99	54.47	-29.6	-32.4	20.8	6.02e-01	0	44	0	281018368	19	5004
2026-01-15 02:29:45.32	246.77	53.83	-29.5	-31.7	20.8	6.01e-01	0	44	0	284688384	20	4651
2026-01-15 02:29:47.33	245.60	53.18	-29.4	-32.1	21.0	6.03e-01	0	44	0	288358400	19	4877
2026-01-15 02:29:49.32	244.49	52.53	-29.8	-32.5	20.4	6.02e-01	0	44	0	292028416	20	4903
2026-01-15 02:29:51.32	243.43	51.88	-29.5	-31.9	20.7	6.01e-01	0	43	0	295698432	20	4719
2026-01-15 02:29:53.32	242.41	51.23	-29.6	-31.9	20.7	6.00e-01	0	44	0	299892736	20	4730
2026-01-15 02:29:55.33	241.43	50.58	-29.4	-31.5	20.8	6.03e-01	0	44	0	303562752	20	4608
2026-01-15 02:29:57.33	240.50	49.93	-29.4	-32.1	20.9	6.01e-01	0	44	0	307232768	19	4879
2026-01-15 02:29:59.34	239.60	49.27	-30.0	-33.1	19.9	6.00e-01	0	44	0	310902784	20	5122
2026-01-15 02:30:01.33	238.75	48.63	-29.3	-31.2	21.0	6.01e-01	0	44	0	314572800	20	4518
2026-01-15 02:30:03.34	237.93	47.99	-29.4	-32.2	20.8	6.00e-01	0	44	0	318242816	19	4923
2026-01-15 02:30:05.35	237.14	47.35	-29.4	-32.2	20.8	6.03e-01	0	44	0	321912832	19	4919
2026-01-15 02:30:07.36	236.38	46.71	-29.4	-31.5	20.8	6.03e-01	0	44	0	326107136	20	4586
2026-01-15 02:30:09.36	235.66	46.08	-29.2	-31.6	21.1	5.99e-01	0	44	0	329777152	19	4721
2026-01-15 02:30:11.37	234.96	45.45	-29.8	-32.7	20.1	6.00e-01	0	44	0	333447168	20	4987
2026-01-15 02:30:13.38	234.29	44.83	-29.8	-32.6	20.1	6.01e-01	0	44	0	337117184	20	4972
2026-01-15 02:30:15.38	233.65	44.22	-29.3	-31.9	20.9	6.03e-01	0	44	0	340787200	19	4850
2026-01-15 02:30:17.38	233.03	43.61	-29.5	-31.8	20.6	6.01e-01	0	44	0	344981504	20	4721
2026-01-15 02:30:19.39	232.43	43.01	-29.8	-32.5	20.2	6.01e-01	0	44	0	348651520	20	4945
2026-01-15 02:30:21.40	231.86	42.41	-29.8	-32.6	20.1	6.03e-01	0	44	0	352321536	20	4976
2026-01-15 02:30:23.41	231.31	41.83	-30.3	-33.5	20.1	6.01e-01	0	44	0	355991552	20	5183
2026-01-15 02:30:25.42	230.78	41.24	-30.2	-33.2	19.4	6.01e-01	0	44	0	359661568	21	5071
2026-01-15 02:30:27.43	230.26	40.67	-30.5	-34.0	19.0	6.00e-01	0	44	0	363331584	21	5389
2026-01-15 02:30:29.43	229.77	40.10	-30.4	-33.1	19.3	6.02e-01	0	44	0	367525888	22	4917
2026-01-15 02:30:31.43	229.30	39.54	-30.3	-33.5	19.3	6.00e-01	0	44	0	371195904	21	5184
2026-01-15 02:30:33.44	228.84	38.99	-30.5	-33.9	19.0	6.01e-01	0	44	0	374865920	21	5326
2026-01-15 02:30:35.44	228.39	38.45	-30.5	-33.9	19.0	6.01e-01	0	44	0	378535936	21	5344
2026-01-15 02:30:37.45	227.96	37.91	-30.8	-34.3	18.5	6.02e-01	0	44	0	382205952	22	5385
2026-01-15 02:30:39.45	227.55	37.38	-30.8	-34.4	18.4	6.03e-01	0	44	0	385875968	22	5414
2026-01-15 02:30:41.46	227.15	36.85	-30.6	-33.8	18.8	6.01e-01	0	44	0	390070272	22	5200
2026-01-15 02:30:43.48	226.76	36.33	-30.7	-34.0	18.6	6.01e-01	0	44	0	393740288	22	5264
2026-01-15 02:30:45.48	226.38	35.82	-30.4	-33.1	19.2	6.02e-01	0	44	0	397410304	22	4934
2026-01-15 02:30:47.48	226.02	35.32	-30.2	-33.2	19.4	6.03e-01	0	44	0	401080320	21	5097
2026-01-15 02:30:49.48	225.67	34.83	-29.9	-33.0	19.9	5.99e-01	0	44	0	404750336	20	5107
2026-01-15 02:30:51.48	225.33	34.34	-30.0	-33.1	19.8	6.02e-01	0	44	0	408420352	20	5150
2026-01-15 02:30:53.48	225.00	33.86	-29.7	-32.4	20.2	6.03e-01	0	44	0	412614656	20	4905
2026-01-15 02:30:55.49	224.68	33.39	-29.8	-32.6	20.0	6.02e-01	0	44	0	416284672	20	4994
2026-01-15 02:30:57.49	224.37	32.92	-29.7	-32.4	20.2	6.02e-01	0	44	0	419954688	20	4908
2026-01-15 02:30:59.49	224.06	32.46	-29.5	-32.0	20.4	5.98e-01	0	44	0	423624704	20	4793
2026-01-15 02:31:01.51	223.77	32.00	-29.5	-32.3	20.6	6.02e-01	0	44	0	427294720	19	4981
2026-01-15 02:31:03.51	223.48	31.55	-29.2	-31.7	20.9	6.03e-01	0	44	0	430964736	19	4773
2026-01-15 02:31:05.51	223.21	31.11	-29.2	-31.6	21.0	6.01e-01	0	44	0	435159040	19	4760
2026-01-15 02:31:07.52	222.94	30.68	-29.2	-31.6	21.0	6.03e-01	0	44	0	438829056	19	4765
2026-01-15 02:31:09.53	222.67	30.25	-29.3	-31.8	20.7	6.01e-01	0	43	0	442499072	19	4821
2026-01-15 02:31:11.53	222.42	29.83	-29.1	-31.4	20.9	6.01e-01	0	44	0	446169088	19	4681
2026-01-15 02:31:13.54	222.17	29.41	-29.2	-31.6	20.9	6.03e-01	0	44	0	449839104	19	4775
2026-01-15 02:31:15.54	221.93	29.00	-29.3	-32.0	20.6	6.02e-01	0	44	0	453509120	19	4894
2026-01-15 02:31:17.54	221.70	28.59	-29.4	-32.2	20.6	5.99e-01	0	43	0	457703424	19	4963
2026-01-15 02:31:19.55	221.47	28.19	-29.5	-32.3	20.5	6.01e-01	0	44	0	461373440	19	5002
2026-01-15 02:31:21.56	221.25	27.80	-29.5	-32.4	20.5	6.03e-01	0	44	0	465043456	19	5035
2026-01-15 02:31:23.56	221.03	27.41	-29.4	-32.1	20.6	6.00e-01	0	44	0	468713472	19	4931
2026-01-15 02:31:25.56	220.82	27.03	-29.4	-32.2	20.6	6.03e-01	0	43	0	472383488	19	4982
2026-01-15 02:31:27.57	220.61	26.65	-29.4	-32.3	20.5	6.01e-01	0	44	0	476577792	19	5008
2026-01-15 02:31:29.58	220.41	26.28	-29.7	-32.5	19.9	6.00e-01	0	44	0	480247808	20	4986
2026-01-15 02:31:31.59	220.21	25.91	-29.6	-32.2	20.1	5.99e-01	0	43	0	483917824	20	4870
2026-01-15 02:31:33.60	220.02	25.54	-29.6	-32.3	20.1	6.02e-01	0	43	0	487587840	20	4894
2026-01-15 02:31:35.61	219.84	25.19	-29.7	-32.5	20.0	6.02e-01	0	44	0	491257856	20	4964
2026-01-15 02:31:37.62	219.65	24.83	-29.7	-32.7	19.8	6.03e-01	0	44	0	495452160	20	5031
2026-01-15 02:31:39.62	219.48	24.49	-29.9	-32.9	19.7	5.99e-01	0	44	0	499122176	20	5118
2026-01-15 02:31:41.62	219.30	24.14	-30.2	-33.2	19.2	6.03e-01	0	43	0	502792192	21	5096
2026-01-15 02:31:43.63	219.13	23.80	-30.1	-33.2	19.2	6.01e-01	0	44	0	506462208	21	5104
2026-01-15 02:31:45.64	218.97	23.47	-30.2	-33.3	19.1	6.00e-01	0	44	0	510132224	21	5154
2026-01-15 02:31:47.64	218.80	23.14	-30.1	-33.1	19.2	6.02e-01	0	44	0	513802240	21	5095
2026-01-15 02:31:49.65	218.65	22.81	-30.4	-34.1	18.6	6.02e-01	0	44	0	517472256	21	5451
2026-01-15 02:31:51.66	218.49	22.49	-30.0	-33.0	19.2	6.01e-01	0	44	0	521666560	21	5041
2026-01-15 02:31:53.66	218.34	22.17	-29.7	-32.5	19.8	5.98e-01	0	44	0	525336576	20	4995
2026-01-15 02:31:55.66	218.19	21.86	-29.8	-32.7	19.7	6.00e-01	0	44	0	529006592	20	5055
2026-01-15 02:31:57.66	218.05	21.55	-29.8	-32.9	19.5	6.02e-01	0	44	0	532676608	20	5131
2026-01-15 02:31:59.68	217.90	21.25	-29.8	-32.9	19.5	6.02e-01	0	44	0	536346624	20	5139
2026-01-15 02:32:01.67	217.77	20.95	-29.9	-33.2	19.4	6.03e-01	0	44	0	540540928	20	5245
2026-01-15 02:32:03.68	217.63	20.65	-30.1	-33.9	19.1	6.03e-01	0	44	0	544210944	19	5574
2026-01-15 02:32:05.69	217.50	20.35	-30.0	-33.4	19.2	6.02e-01	0	44	0	547880960	20	5313
2026-01-15 02:32:07.69	217.37	20.06	-30.0	-33.5	19.2	6.02e-01	0	44	0	551550976	20	5350
2026-01-15 02:32:09.70	217.24	19.78	-30.1	-33.6	19.0	6.02e-01	0	44	0	555220992	20	5383
2026-01-15 02:32:11.70	217.11	19.49	-29.8	-32.8	19.5	6.01e-01	0	44	0	558891008	20	5105
2026-01-15 02:32:13.71	216.99	19.21	-29.8	-32.7	19.5	6.01e-01	0	44	0	562561024	20	5067
2026-01-15 02:32:15.71	216.87	18.93	-29.7	-32.7	19.6	6.04e-01	0	44	0	566755328	20	5063
2026-01-15 02:32:17.71	216.75	18.66	-29.8	-33.0	19.5	6.02e-01	0	44	0	570425344	20	5164
2026-01-15 02:32:19.73	216.64	18.39	-29.8	-32.7	19.6	6.01e-01	0	44	0	574095360	20	5077
2026-01-15 02:32:21.73	216.52	18.12	-29.8	-32.9	19.4	5.99e-01	0	44	0	577765376	20	5144
2026-01-15 02:32:23.74	216.41	17.86	-29.7	-32.7	19.6	6.03e-01	0	44	0	581435392	20	5079
2026-01-15 02:32:25.75	216.30	17.59	-29.7	-32.7	19.6	6.00e-01	0	44	0	585629696	20	5048
2026-01-15 02:32:27.76	216.20	17.34	-29.8	-32.7	19.5	5.99e-01	0	43	0	589299712	20	5079
2026-01-15 02:32:29.76	216.09	17.08	-29.6	-32.5	19.7	6.02e-01	0	43	0	592969728	20	4982
2026-01-15 02:32:31.76	215.99	16.83	-29.8	-32.8	19.5	6.03e-01	0	44	0	596639744	20	5084
2026-01-15 02:32:33.76	215.89	16.58	-29.7	-32.6	19.6	6.02e-01	0	43	0	600309760	20	5028
2026-01-15 02:32:35.76	215.79	16.33	-29.7	-32.7	19.5	6.00e-01	0	44	0	603979776	20	5072
2026-01-15 02:32:37.77	215.69	16.09	-29.7	-32.7	19.5	6.02e-01	0	44	0	608174080	20	5069
2026-01-15 02:32:39.78	215.60	15.84	-29.8	-32.9	19.4	6.03e-01	0	44	0	611844096	20	5127
2026-01-15 02:32:41.79	215.50	15.60	-29.8	-32.8	19.4	6.00e-01	0	44	0	615514112	20	5111
2026-01-15 02:32:43.79	215.41	15.37	-29.8	-32.9	19.3	6.03e-01	0	44	0	619184128	20	5158
2026-01-15 02:32:45.80	215.32	15.13	-29.8	-32.9	19.3	6.01e-01	0	43	0	622854144	20	5147
2026-01-15 02:32:47.80	215.23	14.90	-29.8	-33.0	19.3	6.03e-01	0	44	0	626524160	20	5175
2026-01-15 02:32:49.80	215.14	14.67	-29.8	-32.9	19.3	6.00e-01	0	44	0	630718464	20	5169
2026-01-15 02:32:51.82	215.06	14.44	-29.9	-33.2	19.1	6.01e-01	0	44	0	634388480	20	5258
2026-01-15 02:32:53.81	214.97	14.22	-29.7	-32.8	19.3	6.03e-01	0	44	0	638058496	20	5140
2026-01-15 02:32:55.81	214.89	14.00	-29.8	-32.9	19.3	6.03e-01	0	44	0	641728512	20	5147
2026-01-15 02:32:57.82	214.81	13.77	-29.8	-32.9	19.2	6.02e-01	0	44	0	645398528	20	5182
2026-01-15 02:32:59.82	214.73	13.56	-29.9	-33.2	19.0	6.00e-01	0	44	0	649068544	20	5295
2026-01-15 02:33:01.83	214.65	13.34	-29.8	-32.9	19.2	6.02e-01	0	44	0	653262848	20	5173
2026-01-15 02:33:03.84	214.57	13.12	-29.7	-32.8	19.2	6.00e-01	0	44	0	656932864	20	5151
2026-01-15 02:33:05.84	214.50	12.91	-29.7	-32.9	19.2	6.01e-01	0	44	0	660602880	20	5156
2026-01-15 02:33:07.84	214.42	12.70	-29.9	-33.3	19.0	6.00e-01	0	44	0	664272896	20	5308
2026-01-15 02:33:09.85	214.35	12.49	-29.8	-33.0	19.1	6.02e-01	0	44	0	667942912	20	5218
2026-01-15 02:33:11.86	214.28	12.29	-29.8	-33.2	19.0	6.02e-01	0	44	0	671612928	20	5276
2026-01-15 02:33:13.87	214.21	12.08	-29.9	-33.2	18.9	6.03e-01	0	44	0	675807232	20	5318
2026-01-15 02:33:15.87	214.14	11.88	-30.0	-33.6	18.7	5.99e-01	0	44	0	679477248	20	5446
2026-01-15 02:33:17.88	214.07	11.68	-30.2	-33.8	18.2	6.01e-01	0	44	0	683147264	21	5422
2026-01-15 02:33:19.89	214.00	11.48	-30.2	-33.8	18.1	6.02e-01	0	44	0	686817280	21	5436
2026-01-15 02:33:21.90	213.93	11.28	-30.3	-34.0	18.0	6.01e-01	0	44	0	690487296	21	5499
2026-01-15 02:33:23.91	213.86	11.08	-30.3	-34.0	18.0	6.01e-01	0	44	0	694157312	21	5518
2026-01-15 02:33:25.91	213.80	10.89	-30.4	-34.4	17.7	6.02e-01	0	44	0	698351616	21	5697
2026-01-15 02:33:27.92	213.74	10.69	-30.0	-33.1	18.5	6.02e-01	0	44	0	702021632	21	5160
2026-01-15 02:33:29.91	213.67	10.51	-29.9	-33.4	18.6	6.03e-01	0	44	0	705691648	20	5397
2026-01-15 02:33:31.92	213.61	10.32	-30.2	-33.7	18.1	6.00e-01	0	44	0	709361664	21	5398
2026-01-15 02:33:33.93	213.55	10.13	-30.2	-33.9	18.0	6.04e-01	0	44	0	713031680	21	5468
2026-01-15 02:33:35.93	213.49	9.94	-30.3	-33.9	17.9	6.01e-01	0	44	0	717225984	21	5500
2026-01-15 02:33:37.94	213.43	9.76	-30.4	-34.5	17.5	6.02e-01	0	44	0	720896000	21	5722
2026-01-15 02:33:39.95	213.37	9.57	-30.2	-33.8	17.9	6.02e-01	0	44	0	724566016	21	5457
2026-01-15 02:33:41.97	213.31	9.39	-30.0	-33.3	18.2	6.01e-01	0	44	0	728236032	21	5260
2026-01-15 02:33:43.97	213.26	9.21	-29.9	-33.4	18.5	6.03e-01	0	44	0	731906048	20	5416
2026-01-15 02:33:45.97	213.20	9.03	-30.0	-33.7	18.2	6.01e-01	0	44	0	736100352	20	5541
2026-01-15 02:33:47.98	213.15	8.85	-30.1	-33.9	18.1	6.02e-01	0	44	0	739770368	20	5616
2026-01-15 02:33:49.99	213.09	8.68	-30.1	-33.6	18.0	6.00e-01	0	44	0	743440384	21	5369
2026-01-15 02:33:51.99	213.04	8.50	-30.2	-33.8	17.9	6.00e-01	0	44	0	747110400	21	5445
2026-01-15 02:33:53.91	212.99	8.34	-30.3	-34.3	17.4	6.02e-01	0	44	0	750780416	21	5689
2026-01-15 02:33:55.92	212.94	8.16	-30.2	-33.9	17.7	6.01e-01	0	44	0	754450432	21	5513
2026-01-15 02:33:57.91	212.89	7.99	-30.2	-34.3	17.0	6.04e-01	0	44	0	758120448	20	5813
2026-01-15 02:33:59.92	212.84	7.82	-30.2	-33.9	17.6	6.01e-01	0	44	0	762314752	21	5554
2026-01-15 02:34:01.93	212.79	7.66	-30.1	-33.8	17.6	6.02e-01	0	44	0	765984768	21	5514
2026-01-15 02:34:03.93	212.74	7.49	-30.2	-34.1	17.5	6.01e-01	0	44	0	769654784	21	5627
2026-01-15 02:34:05.94	212.69	7.32	-30.3	-34.4	17.3	6.02e-01	0	44	0	773324800	21	5733
2026-01-15 02:34:07.93	212.64	7.16	-30.3	-34.3	17.4	6.02e-01	0	44	0	776994816	21	5700
2026-01-15 02:34:09.94	212.59	6.99	-33.8	-53.2	3.8	7.44e-01	0	44	104	778043392	28	33602
2026-01-15 02:34:11.95	212.55	6.83	-34.3	-53.7	3.8	7.45e-01	0	44	104	778043392	29	33422

#Closed at: 2026-01-15 02:34:12
#Recorded file [778 MB]: D:/data/31010_260115_052713.dat