passes_logs/2026/01/15/R2M6_AANII_01/R2M6_AANII_01__20260115_112917_NOAA_20_JPSS-1_rec.log

#Pass ID: 20260115_112917_NOAA 20 (JPSS-1)
#Satellite: NOAA 20 (JPSS-1)
#Configuration: NOAA 20
#almurnet v.1.7.20240730
#Start time: 2026-01-15 11:29:18

#Version: 2.2.20231116
#Station: R2M6_AANII_01
#Location: 30.233357 lon 59.946436 lat
#TLE: 1 43013U 17073A   26014.13176244  .00000049  00000+0  44136-4 0  9994
#TLE: 2 43013  98.7634 315.0803 0001538  40.6488 319.4803 14.19535812422619

#Time	Az	El	Level	Level2	SNR	BER	BlckErr	Temp	State	Recorded	gain1	gain2
2026-01-15 11:29:18.27	197.60	7.03	-31.0	-36.1	5.1	1.22e+00	0	41	0	0	23	6476
2026-01-15 11:29:21.27	197.82	7.24	-31.7	-38.8	6.9	1.67e-01	0	41	0	1048576	23	8101
2026-01-15 11:29:24.27	198.03	7.46	-30.1	-36.0	7.6	8.09e-02	0	41	0	7340032	21	7098
2026-01-15 11:29:27.27	198.25	7.67	-27.3	-34.1	6.1	2.88e-01	0	41	0	12582912	16	7922
2026-01-15 11:29:30.27	198.47	7.89	-25.6	-33.8	5.1	6.32e-01	0	41	0	17825792	12	9308
2026-01-15 11:29:33.27	198.70	8.10	-25.3	-34.0	4.9	7.38e-01	0	41	0	24117248	11	9825
2026-01-15 11:29:36.28	198.93	8.32	-26.6	-34.5	5.8	4.44e-01	0	42	0	29360128	13	8951
2026-01-15 11:29:39.29	199.16	8.54	-28.3	-35.4	6.8	2.01e-01	0	41	0	35651584	16	8144
2026-01-15 11:29:42.29	199.39	8.76	-29.5	-35.3	8.1	6.11e-02	0	42	0	40894464	19	7036
2026-01-15 11:29:45.28	199.63	8.99	-29.5	-35.0	8.6	4.42e-02	0	42	0	46137344	19	6758
2026-01-15 11:29:48.29	199.87	9.21	-30.0	-34.4	10.5	6.15e-03	0	42	0	52428800	20	5980
2026-01-15 11:29:51.30	200.12	9.44	-30.1	-34.5	10.8	3.86e-03	0	42	0	57671680	20	5966
2026-01-15 11:29:54.30	200.37	9.67	-30.3	-34.7	11.0	1.45e-03	0	42	0	62914560	20	5985
2026-01-15 11:29:57.31	200.62	9.90	-30.1	-34.1	11.8	6.76e-04	0	42	0	69206016	20	5655
2026-01-15 11:30:00.31	200.88	10.13	-30.1	-33.9	11.9	4.68e-04	0	42	0	74448896	20	5566
2026-01-15 11:30:03.31	201.14	10.36	-30.0	-33.6	12.2	2.46e-04	0	42	0	79691776	20	5453
2026-01-15 11:30:06.31	201.40	10.59	-30.1	-33.7	12.4	1.35e-04	0	42	0	85983232	20	5433
2026-01-15 11:30:09.33	201.67	10.83	-30.1	-33.5	12.6	8.01e-05	0	42	0	91226112	20	5352
2026-01-15 11:30:12.34	201.95	11.07	-30.2	-33.7	12.5	1.27e-04	0	43	0	97517568	20	5407
2026-01-15 11:30:15.34	202.22	11.31	-30.2	-33.9	12.4	1.97e-04	0	42	0	102760448	20	5482
2026-01-15 11:30:18.35	202.50	11.55	-30.2	-33.7	12.6	9.53e-05	0	43	0	108003328	20	5395
2026-01-15 11:30:21.34	202.79	11.80	-30.2	-33.7	12.6	7.32e-05	0	42	0	114294784	20	5406
2026-01-15 11:30:24.34	203.08	12.04	-30.1	-33.4	12.9	5.56e-05	0	42	0	119537664	20	5266
2026-01-15 11:30:27.35	203.38	12.29	-30.0	-33.2	13.0	3.73e-05	0	42	0	124780544	20	5203
2026-01-15 11:30:30.35	203.68	12.54	-30.1	-33.6	12.7	9.68e-05	0	43	0	131072000	20	5357
2026-01-15 11:30:33.34	203.98	12.79	-29.9	-32.9	13.3	1.90e-05	0	43	0	136314880	20	5090
2026-01-15 11:30:36.35	204.29	13.04	-29.7	-32.5	13.5	2.59e-05	0	43	0	142606336	20	4914
2026-01-15 11:30:39.36	204.61	13.30	-29.7	-32.3	13.7	5.30e-06	0	43	0	147849216	20	4843
2026-01-15 11:30:42.36	204.93	13.55	-29.8	-32.4	13.7	5.30e-06	0	43	0	153092096	20	4897
2026-01-15 11:30:45.36	205.25	13.81	-29.9	-32.7	13.5	6.80e-06	0	43	0	159383552	20	4976
2026-01-15 11:30:48.35	205.58	14.07	-29.8	-32.4	13.7	5.30e-06	0	43	0	164626432	20	4892
2026-01-15 11:30:51.34	205.92	14.33	-29.8	-32.5	13.7	4.50e-06	0	43	0	169869312	20	4895
2026-01-15 11:30:54.34	206.26	14.59	-29.9	-32.7	13.6	9.90e-06	0	43	0	176160768	20	4968
2026-01-15 11:30:57.34	206.61	14.86	-29.9	-32.8	13.6	9.10e-06	0	43	0	181403648	20	5023
2026-01-15 11:31:00.35	206.97	15.13	-29.9	-32.8	13.6	6.10e-06	0	43	0	186646528	20	5004
2026-01-15 11:31:03.35	207.33	15.40	-29.9	-32.7	13.7	3.80e-06	0	43	0	192937984	20	4965
2026-01-15 11:31:06.36	207.70	15.67	-30.0	-32.9	13.6	6.80e-06	0	43	0	198180864	20	5037
2026-01-15 11:31:09.38	208.07	15.95	-29.9	-32.6	13.8	9.90e-06	0	43	0	204472320	20	4949
2026-01-15 11:31:12.39	208.46	16.22	-30.0	-33.0	13.5	1.22e-05	0	43	0	209715200	20	5087
2026-01-15 11:31:15.40	208.84	16.50	-30.1	-33.3	13.3	1.44e-05	0	43	0	214958080	20	5202
2026-01-15 11:31:18.40	209.24	16.78	-30.3	-33.7	13.1	2.21e-05	0	43	0	221249536	20	5343
2026-01-15 11:31:21.40	209.64	17.06	-30.4	-34.0	12.9	3.58e-05	0	43	0	226492416	20	5480
2026-01-15 11:31:24.40	210.05	17.35	-30.4	-33.7	12.8	5.18e-05	0	43	0	232783872	21	5247
2026-01-15 11:31:27.40	210.47	17.63	-30.6	-34.1	12.5	9.53e-05	0	43	0	238026752	21	5399
2026-01-15 11:31:30.40	210.89	17.92	-30.6	-34.1	12.6	1.11e-04	0	43	0	243269632	21	5384
2026-01-15 11:31:33.39	211.32	18.21	-30.6	-34.1	12.5	1.33e-04	0	43	0	249561088	21	5400
2026-01-15 11:31:36.39	211.76	18.50	-30.6	-34.0	12.7	1.16e-04	0	43	0	254803968	21	5337
2026-01-15 11:31:39.40	212.21	18.79	-30.6	-34.0	12.7	1.02e-04	0	43	0	260046848	21	5338
2026-01-15 11:31:42.39	212.67	19.08	-30.5	-33.9	12.7	7.85e-05	0	43	0	266338304	21	5321
2026-01-15 11:31:45.40	213.13	19.38	-30.5	-34.0	12.7	6.25e-05	0	43	0	271581184	21	5325
2026-01-15 11:31:48.40	213.61	19.68	-30.5	-33.7	12.9	4.80e-05	0	43	0	276824064	21	5221
2026-01-15 11:31:51.41	214.09	19.98	-30.5	-33.8	12.8	5.72e-05	0	43	0	283115520	21	5272
2026-01-15 11:31:54.42	214.59	20.28	-30.5	-33.9	12.8	5.41e-05	0	43	0	288358400	21	5278
2026-01-15 11:31:57.42	215.09	20.58	-30.3	-33.3	13.2	3.66e-05	0	43	0	294649856	21	5086
2026-01-15 11:32:00.40	215.60	20.89	-30.1	-32.7	13.6	7.60e-06	0	43	0	299892736	21	4848
2026-01-15 11:32:03.40	216.12	21.19	-29.9	-32.2	14.0	4.50e-06	0	43	0	305135616	21	4659
2026-01-15 11:32:06.41	216.66	21.50	-29.9	-32.0	14.1	3.80e-06	0	43	0	311427072	21	4612
2026-01-15 11:32:09.43	217.20	21.81	-29.7	-32.2	14.3	0.00e+00	0	43	0	316669952	20	4755
2026-01-15 11:32:12.43	217.76	22.12	-29.6	-31.9	14.5	0.00e+00	0	43	0	321912832	20	4657
2026-01-15 11:32:15.43	218.32	22.43	-29.4	-31.3	14.8	0.00e+00	0	43	0	328204288	20	4482
2026-01-15 11:32:18.43	218.90	22.74	-29.3	-31.0	15.0	7.00e-07	0	43	0	333447168	20	4392
2026-01-15 11:32:21.44	219.48	23.05	-29.2	-31.3	15.3	0.00e+00	0	43	0	339738624	19	4561
2026-01-15 11:32:24.44	220.08	23.36	-29.2	-31.3	15.3	0.00e+00	0	43	0	344981504	19	4578
2026-01-15 11:32:27.45	220.69	23.68	-29.2	-31.2	15.3	0.00e+00	0	43	0	350224384	19	4551
2026-01-15 11:32:30.44	221.31	23.99	-29.1	-31.0	15.5	0.00e+00	0	43	0	356515840	19	4477
2026-01-15 11:32:33.44	221.95	24.30	-29.1	-31.1	15.4	0.00e+00	0	43	0	361758720	19	4501
2026-01-15 11:32:36.45	222.60	24.62	-29.1	-30.9	15.6	0.00e+00	0	43	0	367001600	19	4438
2026-01-15 11:32:39.46	223.26	24.93	-29.0	-30.8	15.6	0.00e+00	0	43	0	373293056	19	4403
2026-01-15 11:32:42.47	223.93	25.25	-29.1	-31.0	15.5	0.00e+00	0	43	0	378535936	19	4464
2026-01-15 11:32:45.47	224.62	25.56	-29.5	-31.9	14.9	0.00e+00	0	43	0	384827392	19	4780
2026-01-15 11:32:48.48	225.32	25.88	-29.5	-32.0	14.9	0.00e+00	0	43	0	390070272	19	4804
2026-01-15 11:32:51.48	226.03	26.19	-29.7	-32.4	14.7	0.00e+00	0	43	0	395313152	19	4921
2026-01-15 11:32:54.49	226.76	26.50	-29.8	-32.8	14.4	1.50e-06	0	43	0	401604608	19	5063
2026-01-15 11:32:57.50	227.50	26.81	-30.1	-33.2	13.8	4.50e-06	0	43	0	406847488	20	5103
2026-01-15 11:33:00.50	228.26	27.12	-30.1	-33.1	13.9	2.20e-06	0	43	0	412090368	20	5070
2026-01-15 11:33:03.51	229.03	27.42	-30.5	-34.1	13.3	1.44e-05	0	43	0	418381824	20	5449
2026-01-15 11:33:06.51	229.81	27.73	-30.9	-34.8	12.5	1.62e-04	0	43	0	423624704	21	5631
2026-01-15 11:33:09.52	230.61	28.03	-30.8	-34.4	12.7	5.03e-05	0	43	0	429916160	21	5459
2026-01-15 11:33:12.51	231.42	28.32	-31.0	-34.5	12.3	1.69e-04	0	43	0	435159040	22	5404
2026-01-15 11:33:15.53	232.26	28.62	-31.0	-34.5	12.3	1.79e-04	0	43	0	440401920	22	5387
2026-01-15 11:33:18.53	233.10	28.91	-31.4	-35.7	11.6	7.26e-04	0	43	0	446693376	22	5891
2026-01-15 11:33:21.53	233.96	29.20	-31.9	-36.7	10.4	3.31e-03	0	44	0	451936256	23	6298
2026-01-15 11:33:24.54	234.83	29.49	-32.2	-37.5	9.5	1.23e-02	0	43	0	457179136	24	6597
2026-01-15 11:33:27.55	235.72	29.77	-32.2	-37.4	9.5	1.43e-02	0	43	0	463470592	24	6558
2026-01-15 11:33:30.56	236.63	30.04	-32.5	-38.5	8.8	2.69e-02	0	44	0	468713472	24	7164
2026-01-15 11:33:33.56	237.55	30.31	-32.7	-39.1	7.9	7.66e-02	0	43	0	473956352	25	7496
2026-01-15 11:33:36.56	238.48	30.58	-32.8	-39.5	7.6	8.26e-02	0	43	0	480247808	25	7749
2026-01-15 11:33:39.56	239.43	30.83	-32.3	-37.0	9.5	1.80e-02	0	43	0	485490688	25	6242
2026-01-15 11:33:42.56	240.39	31.08	-31.9	-35.6	10.6	3.60e-03	0	43	0	491782144	25	5531
2026-01-15 11:33:45.57	241.37	31.33	-32.0	-36.1	10.2	7.04e-03	0	43	0	497025024	25	5765
2026-01-15 11:33:48.56	242.36	31.57	-31.2	-34.6	12.1	5.48e-04	0	43	0	502267904	23	5280
2026-01-15 11:33:51.57	243.37	31.80	-31.1	-34.2	12.4	2.28e-04	0	43	0	508559360	23	5126
2026-01-15 11:33:54.56	244.38	32.02	-31.2	-34.5	12.1	2.55e-04	0	43	0	513802240	23	5245
2026-01-15 11:33:57.56	245.42	32.23	-31.2	-34.5	12.1	3.04e-04	0	43	0	519045120	23	5260
2026-01-15 11:34:00.54	246.46	32.44	-31.0	-33.7	12.7	6.33e-05	0	43	0	525336576	23	4952
2026-01-15 11:34:03.54	247.51	32.63	-30.9	-33.7	12.7	7.17e-05	0	44	0	530579456	23	4931
2026-01-15 11:34:06.55	248.59	32.82	-31.0	-33.8	12.6	6.40e-05	0	43	0	536870912	23	4990
2026-01-15 11:34:09.56	249.67	33.00	-31.0	-33.9	12.5	8.23e-05	0	43	0	542113792	23	5007
2026-01-15 11:34:12.56	250.77	33.16	-31.3	-34.7	12.0	2.94e-04	0	43	0	547356672	23	5342
2026-01-15 11:34:15.57	251.88	33.32	-31.7	-36.0	11.1	1.91e-03	0	44	0	553648128	23	5926
2026-01-15 11:34:18.58	252.99	33.46	-32.0	-36.9	10.5	3.94e-03	0	44	0	558891008	23	6332
2026-01-15 11:34:21.58	254.12	33.59	-32.1	-36.7	10.2	7.42e-03	0	43	0	564133888	24	6153
2026-01-15 11:34:24.59	255.25	33.72	-31.7	-35.6	11.1	1.62e-03	0	43	0	570425344	24	5599
2026-01-15 11:34:27.59	256.39	33.83	-32.0	-36.4	10.5	3.89e-03	0	43	0	575668224	24	5981
2026-01-15 11:34:30.60	257.55	33.92	-31.7	-35.5	11.1	1.81e-03	0	43	0	581959680	24	5568
2026-01-15 11:34:33.60	258.70	34.01	-31.5	-34.9	11.6	7.08e-04	0	43	0	587202560	24	5301
2026-01-15 11:34:36.61	259.86	34.08	-31.7	-35.4	11.2	1.14e-03	0	43	0	592445440	24	5530
2026-01-15 11:34:39.62	261.03	34.14	-31.4	-34.7	11.7	6.38e-04	0	43	0	598736896	24	5212
2026-01-15 11:34:42.62	262.20	34.19	-31.8	-35.7	11.1	1.53e-03	0	43	0	603979776	24	5653
2026-01-15 11:34:45.63	263.37	34.22	-31.3	-34.3	12.0	4.29e-04	0	43	0	609222656	24	5066
2026-01-15 11:34:48.62	264.54	34.24	-31.3	-34.8	12.0	2.20e-04	0	43	0	615514112	23	5370
2026-01-15 11:34:51.63	265.71	34.25	-31.8	-36.1	11.1	1.15e-03	0	43	0	620756992	23	5960
2026-01-15 11:34:54.63	266.89	34.24	-31.5	-35.4	11.6	8.31e-04	0	43	0	625999872	23	5601
2026-01-15 11:34:57.62	268.05	34.22	-31.3	-34.6	12.2	4.63e-04	0	44	0	632291328	23	5272
2026-01-15 11:35:00.61	269.22	34.19	-31.3	-34.6	12.1	2.88e-04	0	44	0	637534208	23	5281
2026-01-15 11:35:03.61	270.39	34.15	-30.8	-33.3	13.0	3.96e-05	0	44	0	643825664	23	4783
2026-01-15 11:35:06.60	271.55	34.09	-30.7	-33.4	13.2	2.51e-05	0	43	0	649068544	22	4940
2026-01-15 11:35:09.61	272.71	34.02	-31.3	-35.3	12.1	1.82e-04	0	43	0	654311424	22	5667
2026-01-15 11:35:12.61	273.86	33.93	-31.8	-36.4	10.9	3.09e-03	0	44	0	660602880	23	6072
2026-01-15 11:35:15.61	275.01	33.84	-31.5	-35.3	11.6	6.77e-04	0	43	0	665845760	23	5598
2026-01-15 11:35:18.61	276.15	33.73	-31.7	-35.8	11.2	1.38e-03	0	43	0	671088640	23	5811
2026-01-15 11:35:21.61	277.28	33.61	-31.4	-35.1	11.8	1.02e-03	0	43	0	677380096	23	5477
2026-01-15 11:35:24.61	278.40	33.48	-31.8	-36.2	11.0	1.27e-03	0	44	0	682622976	23	5988
2026-01-15 11:35:27.62	279.52	33.34	-32.0	-36.9	10.5	2.99e-03	0	43	0	687865856	23	6312
2026-01-15 11:35:30.61	280.62	33.18	-32.0	-36.4	10.6	3.45e-03	0	43	0	694157312	24	5955
2026-01-15 11:35:33.61	281.71	33.02	-32.1	-36.9	10.1	6.52e-03	0	44	0	699400192	24	6213
2026-01-15 11:35:36.61	282.79	32.85	-31.5	-34.8	11.7	5.62e-04	0	43	0	705691648	24	5263
2026-01-15 11:35:39.61	283.86	32.66	-31.8	-35.6	11.0	1.93e-03	0	43	0	710934528	24	5623
2026-01-15 11:35:42.61	284.92	32.47	-31.7	-35.4	11.2	1.66e-03	0	43	0	716177408	24	5522
2026-01-15 11:35:45.62	285.97	32.26	-31.7	-35.6	11.0	1.68e-03	0	43	0	722468864	24	5602
2026-01-15 11:35:48.62	287.00	32.05	-31.8	-35.8	10.9	2.10e-03	0	43	0	727711744	24	5701
2026-01-15 11:35:51.63	288.02	31.83	-31.7	-35.3	11.4	1.70e-03	0	44	0	732954624	24	5456
2026-01-15 11:35:54.63	289.03	31.60	-31.3	-34.3	12.0	3.20e-04	0	44	0	739246080	24	5068
2026-01-15 11:35:57.63	290.02	31.37	-31.4	-34.5	11.8	3.92e-04	0	43	0	744488960	24	5133
2026-01-15 11:36:00.63	290.99	31.13	-32.0	-36.5	10.5	3.51e-03	0	43	0	749731840	24	6036
2026-01-15 11:36:03.64	291.96	30.88	-31.7	-35.5	11.1	1.53e-03	0	44	0	756023296	24	5567
2026-01-15 11:36:06.64	292.90	30.62	-31.8	-35.8	10.9	2.23e-03	0	43	0	761266176	24	5705
2026-01-15 11:36:09.65	293.84	30.36	-31.6	-35.2	11.4	1.05e-03	0	43	0	767557632	24	5429
2026-01-15 11:36:12.66	294.76	30.09	-31.7	-35.6	11.2	1.21e-03	0	43	0	772800512	24	5594
2026-01-15 11:36:15.67	295.66	29.82	-32.1	-36.7	10.3	5.24e-03	0	43	0	778043392	24	6131
2026-01-15 11:36:18.67	296.55	29.54	-32.1	-36.6	10.4	3.81e-03	0	43	0	784334848	24	6094
2026-01-15 11:36:21.67	297.42	29.26	-31.7	-35.3	11.3	1.90e-03	0	43	0	789577728	24	5475
2026-01-15 11:36:24.67	298.28	28.97	-31.1	-34.0	12.7	1.14e-04	0	43	0	794820608	23	5043
2026-01-15 11:36:27.67	299.12	28.68	-31.5	-35.3	11.7	4.44e-04	0	43	0	801112064	23	5564
2026-01-15 11:36:30.68	299.95	28.39	-31.4	-35.1	11.8	7.45e-04	0	43	0	806354944	23	5477
2026-01-15 11:36:33.68	300.76	28.09	-31.7	-35.8	11.4	7.23e-04	0	43	0	812646400	23	5799
2026-01-15 11:36:36.68	301.56	27.80	-31.2	-34.5	12.2	4.97e-04	0	44	0	817889280	23	5245
2026-01-15 11:36:39.69	302.34	27.49	-30.7	-33.5	13.2	2.21e-05	0	44	0	823132160	22	4971
2026-01-15 11:36:42.70	303.11	27.19	-31.2	-34.9	12.3	1.77e-04	0	43	0	829423616	22	5494
2026-01-15 11:36:45.69	303.86	26.89	-30.4	-32.7	13.8	7.00e-07	0	44	0	834666496	22	4666
2026-01-15 11:36:48.71	304.61	26.58	-31.3	-35.1	12.2	1.11e-04	0	43	0	839909376	22	5600
2026-01-15 11:36:51.70	305.33	26.27	-31.8	-35.9	10.8	3.57e-03	0	44	0	846200832	24	5748
2026-01-15 11:36:54.71	306.04	25.96	-31.1	-34.0	12.5	1.73e-04	0	44	0	851443712	23	5055
2026-01-15 11:36:57.71	306.74	25.65	-31.4	-35.0	11.8	2.24e-04	0	44	0	857735168	23	5459
2026-01-15 11:37:00.72	307.43	25.34	-30.5	-33.1	13.5	2.74e-05	0	43	0	862978048	22	4802
2026-01-15 11:37:03.74	308.11	25.03	-30.5	-32.9	13.6	6.80e-06	0	43	0	868220928	22	4749
2026-01-15 11:37:06.75	308.77	24.71	-31.1	-34.6	12.5	1.25e-04	0	44	0	874512384	22	5405
2026-01-15 11:37:09.76	309.42	24.40	-30.2	-32.7	14.0	2.20e-06	0	43	0	879755264	21	4802
2026-01-15 11:37:12.76	310.05	24.09	-30.5	-33.3	13.6	4.50e-06	0	44	0	884998144	21	5010
2026-01-15 11:37:15.75	310.67	23.78	-30.6	-33.9	13.2	3.35e-05	0	44	0	891289600	21	5215
2026-01-15 11:37:18.76	311.28	23.47	-30.3	-32.8	13.9	9.10e-06	0	43	0	896532480	21	4830
2026-01-15 11:37:21.77	311.88	23.16	-30.8	-34.5	12.8	5.72e-05	0	43	0	902823936	21	5462
2026-01-15 11:37:24.77	312.47	22.85	-30.9	-34.2	12.6	1.15e-04	0	44	0	908066816	22	5249
2026-01-15 11:37:27.79	313.05	22.54	-30.7	-33.6	13.0	4.11e-05	0	43	0	913309696	22	5036
2026-01-15 11:37:30.79	313.61	22.23	-30.7	-33.5	13.1	7.17e-05	0	44	0	919601152	22	4973
2026-01-15 11:37:33.79	314.16	21.92	-30.2	-32.6	14.0	4.50e-06	0	43	0	924844032	21	4751
2026-01-15 11:37:36.80	314.71	21.61	-29.7	-31.8	14.8	7.00e-07	0	43	0	931135488	20	4620
2026-01-15 11:37:39.82	315.24	21.31	-29.6	-31.7	14.8	0.00e+00	0	43	0	936378368	20	4579
2026-01-15 11:37:42.83	315.77	21.00	-29.6	-31.7	14.8	7.00e-07	0	44	0	941621248	20	4570
2026-01-15 11:37:45.83	316.28	20.70	-29.3	-31.0	15.2	0.00e+00	0	44	0	947912704	20	4367
2026-01-15 11:37:48.83	316.78	20.40	-29.3	-31.0	15.2	0.00e+00	0	44	0	953155584	20	4357
2026-01-15 11:37:51.83	317.28	20.10	-29.4	-31.6	15.2	0.00e+00	0	43	0	958398464	19	4637
2026-01-15 11:37:54.84	317.76	19.80	-29.5	-31.9	15.1	0.00e+00	0	43	0	964689920	19	4730
2026-01-15 11:37:57.86	318.24	19.51	-29.4	-31.6	15.2	0.00e+00	0	43	0	969932800	19	4659
2026-01-15 11:38:00.86	318.71	19.21	-29.4	-31.6	15.2	0.00e+00	0	44	0	975175680	19	4647
2026-01-15 11:38:03.87	319.16	18.92	-29.4	-31.8	15.1	0.00e+00	0	44	0	981467136	19	4705
2026-01-15 11:38:06.89	319.62	18.63	-29.7	-32.4	14.7	7.00e-07	0	44	0	986710016	19	4916
2026-01-15 11:38:09.90	320.06	18.34	-29.8	-32.3	14.3	1.50e-06	0	44	0	993001472	20	4797
2026-01-15 11:38:12.91	320.49	18.05	-29.9	-32.4	14.3	0.00e+00	0	44	0	998244352	20	4825
2026-01-15 11:38:15.91	320.92	17.76	-29.8	-32.2	14.4	1.50e-06	0	43	0	1003487232	20	4764
2026-01-15 11:38:18.91	321.33	17.48	-30.0	-32.6	14.1	7.00e-07	0	43	0	1009778688	20	4893
2026-01-15 11:38:21.91	321.74	17.20	-30.0	-32.8	14.0	1.50e-06	0	43	0	1015021568	20	4949
2026-01-15 11:38:24.91	322.15	16.92	-30.1	-32.9	14.0	3.80e-06	0	44	0	1021313024	20	4991
2026-01-15 11:38:27.91	322.54	16.64	-30.2	-33.2	13.7	9.10e-06	0	44	0	1026555904	20	5124
2026-01-15 11:38:30.92	322.93	16.37	-30.4	-33.8	13.3	1.60e-05	0	44	0	1031798784	20	5337
2026-01-15 11:38:33.92	323.31	16.09	-30.7	-34.2	12.7	7.17e-05	0	43	0	1038090240	21	5384
2026-01-15 11:38:36.92	323.69	15.82	-30.7	-34.3	12.6	7.55e-05	0	44	0	1043333120	21	5416
2026-01-15 11:38:39.92	324.06	15.55	-30.8	-34.5	12.4	1.05e-04	0	43	0	1048576000	21	5528
2026-01-15 11:38:42.93	324.42	15.28	-30.9	-34.7	12.3	1.69e-04	0	44	0	1054867456	21	5597
2026-01-15 11:38:45.94	324.78	15.02	-30.9	-34.7	12.3	1.37e-04	0	44	0	1060110336	21	5615
2026-01-15 11:38:48.94	325.13	14.75	-30.6	-34.0	12.8	6.86e-05	0	44	0	1065353216	21	5298
2026-01-15 11:38:51.94	325.47	14.49	-30.5	-33.6	12.9	3.58e-05	0	43	0	1071644672	21	5175
2026-01-15 11:38:54.94	325.81	14.23	-30.4	-33.5	13.1	2.67e-05	0	43	0	1076887552	21	5108
2026-01-15 11:38:57.95	326.14	13.97	-30.6	-34.0	12.7	7.09e-05	0	43	0	1083179008	21	5337
2026-01-15 11:39:00.95	326.47	13.71	-30.7	-34.3	12.5	1.75e-04	0	44	0	1088421888	21	5435
2026-01-15 11:39:03.96	326.79	13.46	-30.7	-34.2	12.6	1.02e-04	0	43	0	1093664768	21	5417
2026-01-15 11:39:06.96	327.11	13.21	-30.5	-33.6	12.9	3.96e-05	0	44	0	1099956224	21	5171
2026-01-15 11:39:09.97	327.42	12.95	-30.3	-33.2	13.2	1.44e-05	0	43	0	1105199104	21	5036
2026-01-15 11:39:12.98	327.73	12.70	-30.4	-33.5	12.9	4.80e-05	0	43	0	1110441984	21	5143
2026-01-15 11:39:15.98	328.03	12.46	-30.8	-34.6	12.2	1.68e-04	0	43	0	1116733440	21	5569
2026-01-15 11:39:18.99	328.33	12.21	-30.8	-34.6	12.2	2.75e-04	0	43	0	1121976320	21	5590
2026-01-15 11:39:22.00	328.62	11.97	-30.7	-34.4	12.2	2.02e-04	0	43	0	1128267776	21	5523
2026-01-15 11:39:25.01	328.91	11.72	-30.7	-34.3	12.3	1.89e-04	0	43	0	1133510656	21	5460
2026-01-15 11:39:28.00	329.19	11.49	-30.4	-33.6	12.8	6.40e-05	0	43	0	1138753536	21	5179
2026-01-15 11:39:31.02	329.47	11.25	-30.3	-33.3	13.0	4.04e-05	0	43	0	1145044992	21	5070
2026-01-15 11:39:34.03	329.75	11.01	-30.4	-33.5	12.8	3.66e-05	0	43	0	1150287872	21	5170
2026-01-15 11:39:37.03	330.02	10.77	-30.5	-33.8	12.6	7.93e-05	0	43	0	1155530752	21	5258
2026-01-15 11:39:40.04	330.28	10.54	-30.6	-34.2	12.3	1.62e-04	0	44	0	1161822208	21	5460
2026-01-15 11:39:43.04	330.55	10.31	-30.7	-34.4	12.2	2.74e-04	0	44	0	1167065088	21	5514
2026-01-15 11:39:46.04	330.80	10.08	-30.6	-34.1	12.4	1.46e-04	0	44	0	1173356544	21	5391
2026-01-15 11:39:49.03	331.06	9.85	-30.5	-34.0	12.4	1.25e-04	0	44	0	1178599424	21	5356
2026-01-15 11:39:52.03	331.31	9.63	-30.6	-34.1	12.3	1.37e-04	0	43	0	1183842304	21	5425
2026-01-15 11:39:55.03	331.56	9.40	-30.7	-34.4	12.1	1.87e-04	0	43	0	1190133760	21	5526
2026-01-15 11:39:58.03	331.80	9.18	-30.7	-34.6	11.9	2.94e-04	0	44	0	1195376640	21	5618
2026-01-15 11:40:01.03	332.04	8.96	-30.6	-34.3	12.2	2.20e-04	0	44	0	1200619520	21	5491
2026-01-15 11:40:04.05	332.28	8.73	-30.7	-34.6	11.9	3.61e-04	0	43	0	1206910976	21	5640
2026-01-15 11:40:07.05	332.51	8.52	-30.7	-34.6	11.9	4.69e-04	0	43	0	1212153856	21	5637
2026-01-15 11:40:10.06	332.74	8.30	-30.9	-35.1	11.4	8.54e-04	0	43	0	1218445312	21	5879
2026-01-15 11:40:13.06	332.97	8.08	-30.7	-34.7	11.7	5.51e-04	0	44	0	1223688192	21	5680
2026-01-15 11:40:16.05	333.19	7.87	-30.7	-34.7	11.7	6.02e-04	0	44	0	1228931072	21	5680
2026-01-15 11:40:19.07	333.41	7.66	-30.7	-34.7	11.6	4.70e-04	0	43	0	1235222528	21	5719
2026-01-15 11:40:22.08	333.63	7.44	-30.8	-34.9	11.5	7.52e-04	0	44	0	1240465408	21	5810
2026-01-15 11:40:25.08	333.85	7.23	-30.8	-34.9	11.4	8.97e-04	0	43	0	1245708288	21	5815
2026-01-15 11:40:28.08	334.06	7.03	-33.5	-47.8	3.8	1.49e+00	0	43	104	1250951168	26	18724

#Closed at: 2026-01-15 11:40:28
#Recorded file [1250 MB]: D:/data/31010_260115_142920.dat