passes_logs/2026/01/15/R2M6_AANII_01/R2M6_AANII_01__20260115_102821_FENGYUN_3D_rec.log

#Pass ID: 20260115_102821_FENGYUN 3D
#Satellite: FENGYUN 3D
#Configuration: FENGYUN 3D
#almurnet v.1.7.20240730
#Start time: 2026-01-15 10:32:21

#Version: 2.2.20231116
#Station: R2M6_AANII_01
#Location: 30.233357 lon 59.946436 lat
#TLE: 1 43010U 17072A   26014.22831475  .00000226  00000+0  12883-3 0  9994
#TLE: 2 43010  98.9934 346.0326 0002309 109.2304 250.9121 14.19696287423146

#Time	Az	El	Level	Level2	SNR	BER	BlckErr	Temp	State	Recorded	gain1	gain2
2026-01-15 10:32:21.07	61.85	22.98	-34.3	-53.6	3.8	7.45e-01	0	43	0	0	29	33235
2026-01-15 10:32:23.06	61.32	23.06	-34.3	-45.1	3.8	8.46e-01	0	43	104	0	29	12543
2026-01-15 10:32:25.08	60.79	23.15	-34.3	-45.1	3.8	8.46e-01	0	43	104	0	29	12523
2026-01-15 10:32:27.06	60.26	23.22	-34.3	-45.2	3.8	8.47e-01	0	43	104	0	29	12625
2026-01-15 10:32:29.05	59.72	23.30	-34.3	-45.1	3.8	8.47e-01	0	43	104	0	29	12560
2026-01-15 10:32:31.03	59.19	23.37	-34.3	-45.1	3.8	8.47e-01	0	43	104	0	29	12543
2026-01-15 10:32:33.02	58.65	23.44	-34.3	-45.1	3.8	8.46e-01	0	43	104	0	29	12551
2026-01-15 10:32:35.03	58.10	23.51	-34.3	-45.1	3.8	8.46e-01	0	43	104	0	29	12534
2026-01-15 10:32:37.03	57.55	23.58	-34.4	-45.4	3.8	8.45e-01	0	43	104	0	29	12758
2026-01-15 10:32:39.02	57.01	23.64	-34.5	-45.6	3.8	8.46e-01	0	43	104	0	29	12857
2026-01-15 10:32:41.04	56.45	23.70	-34.4	-45.5	3.8	8.47e-01	0	43	104	0	29	12855
2026-01-15 10:32:43.03	55.90	23.76	-34.4	-45.4	3.8	8.48e-01	0	43	104	0	29	12755
2026-01-15 10:32:45.03	55.34	23.82	-34.4	-45.4	3.8	8.47e-01	0	43	104	0	29	12732
2026-01-15 10:32:47.03	54.79	23.87	-34.3	-45.2	3.8	8.45e-01	0	43	104	0	29	12553
2026-01-15 10:32:49.02	54.23	23.92	-34.2	-44.7	3.8	8.46e-01	0	43	104	0	29	12056
2026-01-15 10:32:51.02	53.67	23.96	-34.1	-44.6	3.8	8.45e-01	0	44	104	0	29	12045
2026-01-15 10:32:53.03	53.10	24.01	-34.1	-44.7	3.8	8.46e-01	0	43	104	0	29	12269
2026-01-15 10:32:55.04	52.54	24.05	-34.1	-44.7	3.8	8.46e-01	0	43	104	0	29	12196
2026-01-15 10:32:57.06	51.97	24.09	-34.1	-44.5	3.8	8.46e-01	0	43	104	0	29	11996
2026-01-15 10:32:59.05	51.40	24.12	-33.9	-43.4	3.8	8.45e-01	0	43	104	0	29	10701
2026-01-15 10:33:01.06	50.83	24.15	-33.9	-43.1	3.8	8.44e-01	0	43	104	0	29	10337
2026-01-15 10:33:03.07	50.26	24.18	-33.9	-43.3	3.8	8.45e-01	0	44	104	0	29	10537
2026-01-15 10:33:05.07	49.69	24.21	-33.9	-43.0	3.8	8.46e-01	0	43	104	0	29	10276
2026-01-15 10:33:07.09	49.11	24.23	-33.9	-43.3	3.8	8.45e-01	0	43	104	0	29	10586
2026-01-15 10:33:09.09	48.54	24.25	-34.0	-44.2	3.8	8.46e-01	0	43	104	0	29	11603
2026-01-15 10:33:11.10	47.96	24.27	-33.8	-42.2	3.8	8.46e-01	0	43	104	0	29	9427
2026-01-15 10:33:13.11	47.39	24.28	-31.5	-34.4	8.8	7.37e-01	0	44	104	0	24	5048
2026-01-15 10:33:15.12	46.81	24.29	-26.7	-27.8	15.9	0.00e+00	0	43	0	7340032	14	4091
2026-01-15 10:33:17.12	46.24	24.30	-26.7	-27.9	15.9	0.00e+00	0	44	0	17825792	14	4093
2026-01-15 10:33:19.12	45.67	24.30	-26.0	-26.7	16.8	0.00e+00	0	43	0	29360128	13	3912
2026-01-15 10:33:21.13	45.09	24.30	-25.5	-26.2	17.3	0.00e+00	0	43	0	40894464	12	3891
2026-01-15 10:33:23.13	44.51	24.30	-25.0	-25.6	17.9	0.00e+00	0	43	0	52428800	11	3859
2026-01-15 10:33:25.14	43.94	24.30	-24.1	-24.7	18.9	0.00e+00	0	44	0	62914560	9	3866
2026-01-15 10:33:27.15	43.36	24.29	-23.7	-24.3	19.3	0.00e+00	0	43	0	74448896	8	3874
2026-01-15 10:33:29.15	42.79	24.28	-23.9	-24.7	19.2	0.00e+00	0	43	0	85983232	8	3950
2026-01-15 10:33:31.16	42.21	24.26	-23.9	-24.7	19.1	0.00e+00	0	43	0	97517568	8	3969
2026-01-15 10:33:33.16	41.64	24.24	-23.6	-24.2	19.4	0.00e+00	0	43	0	108003328	8	3847
2026-01-15 10:33:35.17	41.07	24.22	-23.7	-24.3	19.3	0.00e+00	0	43	0	119537664	8	3877
2026-01-15 10:33:37.17	40.50	24.20	-23.6	-24.0	19.5	0.00e+00	0	43	0	131072000	8	3811
2026-01-15 10:33:39.18	39.93	24.17	-23.3	-23.6	19.7	0.00e+00	0	43	0	142606336	8	3704
2026-01-15 10:33:41.19	39.35	24.14	-23.4	-23.8	19.6	0.00e+00	0	44	0	153092096	8	3754
2026-01-15 10:33:43.20	38.78	24.11	-23.5	-23.9	19.6	0.00e+00	0	43	0	164626432	8	3785
2026-01-15 10:33:45.21	38.22	24.07	-23.2	-23.7	19.9	0.00e+00	0	43	0	176160768	7	3842
2026-01-15 10:33:47.22	37.65	24.03	-23.3	-24.1	19.7	0.00e+00	0	43	0	187695104	7	3928
2026-01-15 10:33:49.23	37.08	23.99	-23.4	-24.2	19.6	0.00e+00	0	43	0	199229440	7	3951
2026-01-15 10:33:51.24	36.52	23.94	-23.5	-24.4	19.5	0.00e+00	0	43	0	209715200	7	3998
2026-01-15 10:33:53.24	35.96	23.90	-23.5	-24.3	19.6	0.00e+00	0	43	0	221249536	7	3985
2026-01-15 10:33:55.24	35.40	23.85	-23.6	-24.7	19.3	0.00e+00	0	43	0	232783872	7	4075
2026-01-15 10:33:57.25	34.84	23.79	-23.7	-24.9	19.3	0.00e+00	0	43	0	244318208	7	4127
2026-01-15 10:33:59.23	34.29	23.74	-23.7	-24.8	19.3	0.00e+00	0	43	0	254803968	7	4110
2026-01-15 10:34:01.23	33.74	23.68	-23.7	-25.0	19.2	0.00e+00	0	44	0	266338304	7	4139
2026-01-15 10:34:03.24	33.19	23.61	-23.8	-25.0	19.2	0.00e+00	0	43	0	277872640	7	4139
2026-01-15 10:34:05.24	32.64	23.55	-23.4	-24.2	19.6	0.00e+00	0	43	0	288358400	7	3961
2026-01-15 10:34:07.24	32.10	23.48	-23.4	-24.2	19.6	0.00e+00	0	43	0	299892736	7	3947
2026-01-15 10:34:09.26	31.55	23.41	-23.6	-24.6	19.4	0.00e+00	0	43	0	311427072	7	4042
2026-01-15 10:34:11.26	31.01	23.34	-23.7	-24.8	19.3	0.00e+00	0	43	0	322961408	7	4098
2026-01-15 10:34:13.27	30.47	23.26	-23.7	-24.8	19.3	0.00e+00	0	43	0	334495744	7	4108
2026-01-15 10:34:15.28	29.93	23.19	-23.7	-24.9	19.3	0.00e+00	0	44	0	344981504	7	4113
2026-01-15 10:34:17.28	29.40	23.11	-23.5	-24.5	19.5	0.00e+00	0	43	0	356515840	7	4014
2026-01-15 10:34:19.29	28.87	23.02	-23.4	-24.3	19.6	0.00e+00	0	43	0	368050176	7	3965
2026-01-15 10:34:21.30	28.34	22.94	-23.6	-24.6	19.4	0.00e+00	0	43	0	379584512	7	4036
2026-01-15 10:34:23.31	27.81	22.85	-23.6	-24.7	19.3	0.00e+00	0	43	0	391118848	7	4085
2026-01-15 10:34:25.31	27.29	22.76	-23.8	-25.1	19.1	0.00e+00	0	44	0	401604608	7	4188
2026-01-15 10:34:27.31	26.77	22.67	-23.8	-25.2	19.1	0.00e+00	0	44	0	413138944	7	4189
2026-01-15 10:34:29.32	26.26	22.58	-23.7	-24.4	19.3	0.00e+00	0	43	0	424673280	8	3888
2026-01-15 10:34:31.33	25.74	22.48	-23.8	-24.5	19.2	0.00e+00	0	43	0	436207616	8	3916
2026-01-15 10:34:33.33	25.23	22.38	-23.7	-24.3	19.3	0.00e+00	0	44	0	446693376	8	3859
2026-01-15 10:34:35.34	24.73	22.28	-23.8	-24.5	19.2	0.00e+00	0	44	0	458227712	8	3912
2026-01-15 10:34:37.35	24.22	22.18	-23.8	-24.6	19.1	0.00e+00	0	44	0	469762048	8	3939
2026-01-15 10:34:39.36	23.72	22.08	-23.7	-24.4	19.3	0.00e+00	0	44	0	481296384	8	3881
2026-01-15 10:34:41.36	23.23	21.97	-23.6	-24.2	19.3	0.00e+00	0	44	0	491782144	8	3856
2026-01-15 10:34:43.36	22.74	21.86	-23.7	-24.3	19.3	0.00e+00	0	43	0	503316480	8	3869
2026-01-15 10:34:45.37	22.25	21.75	-23.6	-24.1	19.4	0.00e+00	0	44	0	514850816	8	3828
2026-01-15 10:34:47.38	21.76	21.64	-23.6	-24.2	19.3	0.00e+00	0	43	0	526385152	8	3849
2026-01-15 10:34:49.37	21.28	21.53	-23.8	-24.5	19.2	0.00e+00	0	44	0	536870912	8	3921
2026-01-15 10:34:51.38	20.80	21.42	-23.7	-24.3	19.2	0.00e+00	0	44	0	548405248	8	3877
2026-01-15 10:34:53.39	20.32	21.30	-23.8	-24.6	19.1	0.00e+00	0	44	0	559939584	8	3934
2026-01-15 10:34:55.39	19.85	21.18	-24.1	-25.3	18.7	0.00e+00	0	44	0	571473920	8	4109
2026-01-15 10:34:57.40	19.39	21.06	-24.2	-25.4	18.7	0.00e+00	0	44	0	583008256	8	4132
2026-01-15 10:34:59.39	18.93	20.94	-24.3	-25.7	18.5	0.00e+00	0	43	0	593494016	8	4205
2026-01-15 10:35:01.39	18.47	20.82	-24.5	-25.5	18.3	0.00e+00	0	44	0	605028352	9	4060
2026-01-15 10:35:03.41	18.01	20.70	-24.4	-25.3	18.5	0.00e+00	0	44	0	616562688	9	3999
2026-01-15 10:35:05.40	17.56	20.57	-24.6	-25.7	18.3	0.00e+00	0	43	0	627048448	9	4096
2026-01-15 10:35:07.42	17.11	20.45	-24.4	-25.3	18.4	0.00e+00	0	43	0	638582784	9	4013
2026-01-15 10:35:09.43	16.66	20.32	-24.5	-25.6	18.3	0.00e+00	0	43	0	650117120	9	4074
2026-01-15 10:35:11.44	16.22	20.19	-24.4	-25.3	18.4	0.00e+00	0	44	0	661651456	9	3998
2026-01-15 10:35:13.45	15.78	20.06	-24.5	-25.6	18.3	0.00e+00	0	44	0	673185792	9	4068
2026-01-15 10:35:15.46	15.34	19.93	-24.6	-25.7	18.2	0.00e+00	0	43	0	683671552	9	4092
2026-01-15 10:35:17.47	14.91	19.80	-24.6	-25.7	18.2	0.00e+00	0	43	0	695205888	9	4098
2026-01-15 10:35:19.46	14.49	19.67	-24.8	-26.2	17.9	0.00e+00	0	43	0	706740224	9	4237
2026-01-15 10:35:21.47	14.06	19.54	-25.2	-26.7	17.5	0.00e+00	0	44	0	718274560	10	4232
2026-01-15 10:35:23.48	13.64	19.40	-25.0	-26.0	17.8	0.00e+00	0	43	0	728760320	10	4063
2026-01-15 10:35:25.50	13.23	19.26	-24.9	-26.0	17.8	0.00e+00	0	43	0	740294656	10	4062
2026-01-15 10:35:27.52	12.81	19.13	-24.8	-25.8	17.9	0.00e+00	0	44	0	751828992	10	4007
2026-01-15 10:35:29.53	12.40	18.99	-24.6	-25.3	18.1	0.00e+00	0	43	0	763363328	10	3900
2026-01-15 10:35:31.53	12.00	18.85	-24.7	-25.5	18.0	0.00e+00	0	44	0	773849088	10	3952
2026-01-15 10:35:33.54	11.60	18.72	-24.8	-25.8	17.9	0.00e+00	0	43	0	785383424	10	4012
2026-01-15 10:35:35.54	11.20	18.58	-24.8	-25.8	17.8	0.00e+00	0	44	0	796917760	10	4018
2026-01-15 10:35:37.54	10.81	18.44	-24.7	-25.5	17.9	0.00e+00	0	43	0	808452096	10	3953
2026-01-15 10:35:39.54	10.42	18.30	-24.7	-25.4	18.0	0.00e+00	0	43	0	819986432	10	3917
2026-01-15 10:35:41.56	10.03	18.16	-24.8	-25.6	17.9	0.00e+00	0	43	0	830472192	10	3967
2026-01-15 10:35:43.57	9.65	18.02	-24.9	-25.8	17.8	0.00e+00	0	43	0	842006528	10	4027
2026-01-15 10:35:45.57	9.27	17.87	-25.6	-27.0	16.9	0.00e+00	0	43	0	853540864	11	4201
2026-01-15 10:35:47.58	8.90	17.73	-25.1	-25.9	17.5	0.00e+00	0	44	0	865075200	11	3931
2026-01-15 10:35:49.59	8.52	17.59	-25.1	-25.8	17.5	0.00e+00	0	43	0	875560960	11	3907
2026-01-15 10:35:51.60	8.16	17.45	-25.1	-25.9	17.5	0.00e+00	0	43	0	887095296	11	3920
2026-01-15 10:35:53.60	7.79	17.30	-25.4	-26.4	17.2	0.00e+00	0	43	0	898629632	11	4054
2026-01-15 10:35:55.60	7.43	17.16	-25.0	-25.7	17.6	0.00e+00	0	43	0	910163968	11	3895
2026-01-15 10:35:57.62	7.07	17.01	-25.1	-25.8	17.5	0.00e+00	0	43	0	920649728	11	3919
2026-01-15 10:35:59.63	6.72	16.87	-25.2	-26.0	17.4	0.00e+00	0	43	0	932184064	11	3953
2026-01-15 10:36:01.63	6.37	16.73	-25.2	-26.0	17.4	0.00e+00	0	43	0	943718400	11	3951
2026-01-15 10:36:03.63	6.02	16.58	-25.2	-26.0	17.4	0.00e+00	0	43	0	955252736	11	3955
2026-01-15 10:36:05.63	5.68	16.44	-25.2	-26.0	17.4	0.00e+00	0	44	0	965738496	11	3958
2026-01-15 10:36:07.63	5.34	16.29	-25.2	-26.0	17.4	0.00e+00	0	43	0	977272832	11	3947
2026-01-15 10:36:09.64	5.00	16.15	-25.1	-25.8	17.5	0.00e+00	0	43	0	988807168	11	3906
2026-01-15 10:36:11.64	4.67	16.00	-25.2	-26.1	17.3	0.00e+00	0	43	0	1000341504	11	3971
2026-01-15 10:36:13.65	4.34	15.86	-25.4	-26.5	17.1	0.00e+00	0	44	0	1011875840	11	4082
2026-01-15 10:36:15.66	4.01	15.71	-25.4	-26.5	17.1	0.00e+00	0	43	0	1022361600	11	4087
2026-01-15 10:36:17.66	3.69	15.56	-25.5	-26.7	17.0	0.00e+00	0	43	0	1033895936	11	4138
2026-01-15 10:36:19.66	3.37	15.42	-25.7	-27.1	16.8	0.00e+00	0	44	0	1045430272	11	4240
2026-01-15 10:36:21.67	3.05	15.27	-25.5	-26.6	17.0	0.00e+00	0	43	0	1055916032	11	4111
2026-01-15 10:36:23.67	2.74	15.13	-25.5	-26.6	17.0	0.00e+00	0	44	0	1067450368	11	4114
2026-01-15 10:36:25.68	2.42	14.98	-25.6	-26.9	16.9	0.00e+00	0	43	0	1078984704	11	4182
2026-01-15 10:36:27.69	2.12	14.84	-25.7	-27.1	16.8	0.00e+00	0	43	0	1090519040	11	4233
2026-01-15 10:36:29.71	1.81	14.69	-25.8	-27.4	16.5	0.00e+00	0	43	0	1102053376	11	4329
2026-01-15 10:36:31.72	1.51	14.54	-25.7	-27.1	16.7	0.00e+00	0	43	0	1112539136	11	4231
2026-01-15 10:36:33.74	1.21	14.40	-25.8	-27.3	16.6	0.00e+00	0	44	0	1124073472	11	4287
2026-01-15 10:36:35.74	0.91	14.25	-25.8	-27.3	16.6	0.00e+00	0	43	0	1135607808	11	4307
2026-01-15 10:36:37.75	0.62	14.10	-25.7	-27.2	16.6	0.00e+00	0	43	0	1147142144	11	4281
2026-01-15 10:36:39.75	0.33	13.96	-25.8	-27.3	16.6	0.00e+00	0	43	0	1158676480	11	4307
2026-01-15 10:36:41.76	0.04	13.81	-26.1	-27.4	16.1	0.00e+00	0	43	0	1169162240	12	4221
2026-01-15 10:36:43.77	359.75	13.67	-25.8	-26.8	16.5	0.00e+00	0	43	0	1180696576	12	4061
2026-01-15 10:36:45.77	359.47	13.52	-25.9	-27.0	16.4	0.00e+00	0	43	0	1192230912	12	4116
2026-01-15 10:36:47.78	359.19	13.38	-25.9	-27.0	16.4	0.00e+00	0	43	0	1202716672	12	4113
2026-01-15 10:36:49.79	358.92	13.24	-25.9	-27.2	16.2	0.00e+00	0	44	0	1214251008	12	4148
2026-01-15 10:36:51.80	358.64	13.09	-25.9	-27.1	16.3	0.00e+00	0	43	0	1225785344	12	4120
2026-01-15 10:36:53.80	358.37	12.95	-26.0	-27.3	16.2	0.00e+00	0	44	0	1237319680	12	4198
2026-01-15 10:36:55.81	358.11	12.80	-26.1	-27.5	16.1	1.10e-06	0	44	0	1248854016	12	4232
2026-01-15 10:36:57.81	357.84	12.66	-25.9	-27.2	16.2	0.00e+00	0	43	0	1259339776	12	4159
2026-01-15 10:36:59.81	357.58	12.52	-25.9	-27.1	16.2	0.00e+00	0	43	0	1270874112	12	4137
2026-01-15 10:37:01.82	357.32	12.37	-26.1	-27.5	16.1	0.00e+00	0	43	0	1282408448	12	4229
2026-01-15 10:37:03.83	357.06	12.23	-26.2	-27.8	15.9	0.00e+00	0	43	0	1293942784	12	4319
2026-01-15 10:37:05.84	356.81	12.09	-26.4	-28.1	15.7	0.00e+00	0	43	0	1304428544	12	4419
2026-01-15 10:37:07.85	356.55	11.94	-26.4	-28.3	15.6	0.00e+00	0	43	0	1315962880	12	4458
2026-01-15 10:37:09.85	356.31	11.80	-26.8	-28.6	15.1	0.00e+00	0	44	0	1327497216	13	4433
2026-01-15 10:37:11.86	356.06	11.66	-26.4	-27.8	15.5	0.00e+00	0	43	0	1339031552	13	4207
2026-01-15 10:37:13.86	355.81	11.52	-26.4	-27.7	15.6	0.00e+00	0	43	0	1349517312	13	4195
2026-01-15 10:37:15.88	355.57	11.38	-26.5	-27.9	15.5	0.00e+00	0	44	0	1361051648	13	4229
2026-01-15 10:37:17.89	355.33	11.24	-26.5	-27.9	15.5	0.00e+00	0	43	0	1372585984	13	4233
2026-01-15 10:37:19.88	355.09	11.10	-26.4	-27.7	15.5	0.00e+00	0	43	0	1384120320	13	4192
2026-01-15 10:37:21.89	354.86	10.96	-26.4	-27.8	15.5	0.00e+00	0	43	0	1394606080	13	4203
2026-01-15 10:37:23.90	354.62	10.82	-26.5	-28.0	15.3	0.00e+00	0	43	0	1406140416	13	4279
2026-01-15 10:37:25.90	354.39	10.68	-26.6	-28.1	15.3	0.00e+00	0	43	0	1417674752	13	4292
2026-01-15 10:37:27.90	354.17	10.54	-26.9	-28.9	14.8	0.00e+00	0	44	0	1429209088	13	4535
2026-01-15 10:37:29.90	353.94	10.40	-26.7	-28.4	15.1	0.00e+00	0	43	0	1440743424	13	4375
2026-01-15 10:37:31.90	353.72	10.26	-26.7	-28.3	15.1	0.00e+00	0	43	0	1451229184	13	4363
2026-01-15 10:37:33.91	353.50	10.12	-26.7	-28.5	15.0	0.00e+00	0	43	0	1462763520	13	4399
2026-01-15 10:37:35.91	353.28	9.99	-26.7	-28.4	15.1	0.00e+00	0	43	0	1474297856	13	4395
2026-01-15 10:37:37.92	353.06	9.85	-26.8	-28.6	14.9	0.00e+00	0	43	0	1484783616	13	4441
2026-01-15 10:37:39.93	352.84	9.71	-26.7	-28.4	15.1	0.00e+00	0	44	0	1496317952	13	4373
2026-01-15 10:37:41.94	352.63	9.57	-26.9	-28.9	14.7	0.00e+00	0	43	0	1507852288	13	4524
2026-01-15 10:37:43.94	352.42	9.44	-27.0	-28.7	14.6	1.10e-06	0	44	0	1519386624	14	4367
2026-01-15 10:37:45.95	352.21	9.30	-27.2	-29.0	14.4	0.00e+00	0	44	0	1530920960	14	4454
2026-01-15 10:37:47.96	352.00	9.16	-27.2	-29.0	14.4	0.00e+00	0	43	0	1541406720	14	4433
2026-01-15 10:37:49.96	351.80	9.03	-26.9	-28.4	14.7	1.10e-06	0	43	0	1552941056	14	4286
2026-01-15 10:37:51.97	351.59	8.89	-27.1	-28.9	14.5	0.00e+00	0	43	0	1564475392	14	4409
2026-01-15 10:37:53.97	351.39	8.76	-27.2	-29.0	14.4	0.00e+00	0	43	0	1576009728	14	4450
2026-01-15 10:37:55.98	351.19	8.63	-27.2	-29.0	14.4	0.00e+00	0	43	0	1586495488	14	4446
2026-01-15 10:37:57.99	350.99	8.49	-27.1	-29.0	14.3	0.00e+00	0	43	0	1598029824	14	4434
2026-01-15 10:38:00.00	350.80	8.36	-27.2	-29.1	14.3	0.00e+00	0	44	0	1609564160	14	4465
2026-01-15 10:38:02.00	350.61	8.23	-27.3	-29.3	14.2	0.00e+00	0	43	0	1621098496	14	4534
2026-01-15 10:38:04.01	350.41	8.09	-27.2	-29.1	14.2	0.00e+00	0	44	0	1632632832	14	4471
2026-01-15 10:38:06.01	350.22	7.96	-27.3	-29.4	14.1	0.00e+00	0	44	0	1643118592	14	4552
2026-01-15 10:38:08.02	350.03	7.83	-27.1	-29.0	14.3	0.00e+00	0	44	0	1654652928	14	4440
2026-01-15 10:38:10.02	349.85	7.70	-27.1	-28.8	14.4	1.10e-06	0	43	0	1666187264	14	4384
2026-01-15 10:38:12.03	349.66	7.57	-27.1	-28.9	14.3	0.00e+00	0	43	0	1676673024	14	4408
2026-01-15 10:38:14.04	349.48	7.44	-27.3	-29.3	14.1	0.00e+00	0	43	0	1688207360	14	4528
2026-01-15 10:38:16.04	349.30	7.31	-27.5	-29.3	13.7	1.10e-06	0	43	0	1699741696	15	4437
2026-01-15 10:38:18.04	349.12	7.18	-27.1	-28.5	14.2	1.10e-06	0	43	0	1711276032	15	4208
2026-01-15 10:38:20.05	348.94	7.05	-33.1	-42.0	3.9	8.42e-01	0	44	104	1719664640	26	9998
2026-01-15 10:38:22.06	348.76	6.92	-33.9	-45.4	3.8	8.46e-01	0	44	104	1719664640	27	13464

#Closed at: 2026-01-15 10:38:22
#Recorded file [1719 MB]: D:/data/31010_260115_133313.dat