passes_logs/2026/01/15/R2M6_AANII_01/R2M6_AANII_01__20260115_122103_NOAA_21_JPSS-2_rec.log

#Pass ID: 20260115_122103_NOAA 21 (JPSS-2)
#Satellite: NOAA 21 (JPSS-2)
#Configuration: NOAA 21
#almurnet v.1.7.20240730
#Start time: 2026-01-15 12:23:06

#Version: 2.2.20231116
#Station: R2M6_AANII_01
#Location: 30.233357 lon 59.946436 lat
#TLE: 1 54234U 22150A   26014.16688770  .00000052  00000+0  45394-4 0  9999
#TLE: 2 54234  98.7497 315.0767 0000655 297.6997  62.4113 14.19534648164696

#Time	Az	El	Level	Level2	SNR	BER	BlckErr	Temp	State	Recorded	gain1	gain2
2026-01-15 12:23:06.72	246.79	13.43	-33.8	-43.5	3.8	8.46e-01	0	44	0	0	27	10964
2026-01-15 12:23:08.73	247.15	13.52	-34.5	-45.8	3.8	1.49e+00	0	44	104	0	30	13191
2026-01-15 12:23:10.73	247.51	13.62	-34.5	-45.9	3.8	1.49e+00	0	44	104	0	30	13344
2026-01-15 12:23:12.74	247.87	13.71	-34.5	-45.9	3.8	1.49e+00	0	44	104	0	30	13342
2026-01-15 12:23:14.74	248.23	13.80	-34.5	-45.8	3.8	1.49e+00	0	44	104	0	30	13293
2026-01-15 12:23:16.74	248.60	13.89	-34.5	-45.8	3.8	1.49e+00	0	44	104	0	30	13275
2026-01-15 12:23:18.74	248.97	13.98	-34.5	-45.8	3.8	1.49e+00	0	44	104	0	30	13282
2026-01-15 12:23:20.74	249.34	14.07	-34.5	-45.7	3.8	1.49e+00	0	44	104	0	30	13196
2026-01-15 12:23:22.73	249.71	14.16	-34.4	-45.7	3.8	1.49e+00	0	44	104	0	30	13213
2026-01-15 12:23:24.73	250.09	14.25	-34.5	-45.8	3.8	1.49e+00	0	44	104	0	30	13202
2026-01-15 12:23:26.73	250.46	14.33	-34.4	-45.7	3.8	1.49e+00	0	44	104	0	30	13194
2026-01-15 12:23:28.74	250.84	14.42	-34.4	-45.6	3.8	1.49e+00	0	44	104	0	30	13084
2026-01-15 12:23:30.75	251.23	14.51	-34.4	-45.5	3.8	1.49e+00	0	44	104	0	30	13022
2026-01-15 12:23:32.75	251.61	14.59	-34.3	-45.4	3.8	1.49e+00	0	44	104	0	30	12948
2026-01-15 12:23:34.74	251.99	14.67	-34.2	-45.7	3.8	1.49e+00	0	44	104	0	29	13581
2026-01-15 12:23:36.75	252.38	14.76	-34.1	-45.6	3.8	1.49e+00	0	44	104	0	29	13493
2026-01-15 12:23:38.75	252.77	14.84	-33.9	-44.9	3.8	1.49e+00	0	44	104	0	29	12796
2026-01-15 12:23:40.76	253.17	14.92	-33.6	-44.4	3.8	1.49e+00	0	44	104	0	28	12572
2026-01-15 12:23:42.76	253.56	15.00	-33.6	-44.4	3.8	1.49e+00	0	44	104	0	28	12565
2026-01-15 12:23:44.77	253.96	15.08	-33.6	-44.5	3.8	1.49e+00	0	44	104	0	28	12685
2026-01-15 12:23:46.77	254.36	15.16	-33.6	-44.6	3.8	1.49e+00	0	44	104	0	28	12730
2026-01-15 12:23:48.77	254.76	15.23	-33.6	-44.5	3.8	1.49e+00	0	44	104	0	28	12643
2026-01-15 12:23:50.77	255.16	15.31	-33.6	-44.7	3.8	1.49e+00	0	44	104	0	28	12882
2026-01-15 12:23:52.78	255.56	15.38	-33.6	-44.7	3.8	1.49e+00	0	44	104	0	28	12970
2026-01-15 12:23:54.79	255.97	15.46	-32.8	-39.6	4.2	1.46e+00	0	44	104	0	26	7902
2026-01-15 12:23:56.79	256.38	15.53	-30.7	-33.6	10.3	6.95e-03	0	44	0	2097152	22	5028
2026-01-15 12:23:58.78	256.79	15.60	-29.3	-31.3	12.9	7.62e-05	0	44	0	8388608	19	4535
2026-01-15 12:24:00.79	257.20	15.67	-29.4	-31.7	12.6	6.40e-05	0	44	0	14680064	19	4683
2026-01-15 12:24:02.80	257.62	15.74	-29.5	-31.8	12.6	1.72e-04	0	44	0	20971520	19	4706
2026-01-15 12:24:04.81	258.03	15.81	-29.4	-31.5	12.8	8.23e-05	0	44	0	27262976	19	4620
2026-01-15 12:24:06.81	258.45	15.87	-29.0	-30.6	13.3	2.44e-05	0	44	0	33554432	19	4335
2026-01-15 12:24:08.81	258.87	15.94	-29.0	-30.6	13.4	1.22e-05	0	44	0	39845888	19	4343
2026-01-15 12:24:10.81	259.29	16.00	-28.8	-30.5	13.7	1.22e-05	0	44	0	46137344	18	4415
2026-01-15 12:24:12.81	259.71	16.06	-28.1	-29.5	14.6	1.29e-05	0	44	0	52428800	17	4216
2026-01-15 12:24:14.81	260.13	16.12	-27.8	-29.2	15.0	0.00e+00	0	44	0	58720256	16	4253
2026-01-15 12:24:16.82	260.56	16.18	-27.9	-29.4	14.9	0.00e+00	0	44	0	65011712	16	4307
2026-01-15 12:24:18.83	260.99	16.24	-27.8	-29.3	15.0	0.00e+00	0	44	0	71303168	16	4273
2026-01-15 12:24:20.84	261.42	16.30	-27.8	-29.2	15.1	0.00e+00	0	44	0	77594624	16	4254
2026-01-15 12:24:22.83	261.85	16.35	-27.6	-28.8	15.3	0.00e+00	0	44	0	83886080	16	4128
2026-01-15 12:24:24.83	262.28	16.41	-27.6	-28.8	15.3	0.00e+00	0	44	0	90177536	16	4139
2026-01-15 12:24:26.84	262.72	16.46	-27.6	-28.8	15.3	0.00e+00	0	44	0	96468992	16	4129
2026-01-15 12:24:28.84	263.15	16.51	-27.6	-28.9	15.3	0.00e+00	0	44	0	102760448	16	4153
2026-01-15 12:24:30.85	263.59	16.56	-27.7	-29.0	15.2	0.00e+00	0	44	0	109051904	16	4190
2026-01-15 12:24:32.86	264.03	16.61	-27.6	-28.9	15.3	0.00e+00	0	44	0	114294784	16	4151
2026-01-15 12:24:34.86	264.47	16.66	-27.6	-28.9	15.3	0.00e+00	0	44	0	120586240	16	4149
2026-01-15 12:24:36.87	264.91	16.70	-27.8	-29.2	15.1	0.00e+00	0	44	0	126877696	16	4241
2026-01-15 12:24:38.88	265.35	16.75	-27.8	-29.4	15.0	0.00e+00	0	44	0	134217728	16	4284
2026-01-15 12:24:40.88	265.80	16.79	-27.7	-29.0	15.2	0.00e+00	0	44	0	139460608	16	4186
2026-01-15 12:24:42.87	266.24	16.83	-27.7	-29.0	15.3	0.00e+00	0	44	0	145752064	16	4172
2026-01-15 12:24:44.88	266.68	16.87	-27.7	-29.0	15.2	0.00e+00	0	44	0	152043520	16	4197
2026-01-15 12:24:46.89	267.13	16.90	-27.7	-29.1	15.1	0.00e+00	0	44	0	158334976	16	4211
2026-01-15 12:24:48.89	267.58	16.94	-27.7	-29.1	15.2	0.00e+00	0	44	0	164626432	16	4206
2026-01-15 12:24:50.90	268.03	16.97	-27.6	-28.9	15.3	0.00e+00	0	44	0	170917888	16	4151
2026-01-15 12:24:52.90	268.48	17.01	-27.6	-28.9	15.3	0.00e+00	0	44	0	177209344	16	4143
2026-01-15 12:24:54.91	268.93	17.04	-27.8	-29.3	15.1	0.00e+00	0	44	0	183500800	16	4271
2026-01-15 12:24:56.92	269.38	17.07	-27.9	-29.6	14.9	0.00e+00	0	44	0	189792256	16	4344
2026-01-15 12:24:58.92	269.83	17.09	-28.0	-29.7	14.8	7.00e-07	0	44	0	196083712	16	4394
2026-01-15 12:25:00.93	270.29	17.12	-27.9	-29.4	15.0	7.00e-07	0	44	0	202375168	16	4298
2026-01-15 12:25:02.93	270.74	17.14	-27.8	-29.2	15.1	0.00e+00	0	44	0	208666624	16	4254
2026-01-15 12:25:04.94	271.20	17.17	-27.9	-29.4	15.0	0.00e+00	0	44	0	214958080	16	4288
2026-01-15 12:25:06.95	271.65	17.19	-27.8	-29.3	15.1	0.00e+00	0	44	0	221249536	16	4277
2026-01-15 12:25:08.95	272.11	17.21	-27.7	-29.0	15.2	0.00e+00	0	44	0	227540992	16	4183
2026-01-15 12:25:10.96	272.56	17.22	-27.7	-28.9	15.3	0.00e+00	0	44	0	233832448	16	4158
2026-01-15 12:25:12.96	273.02	17.24	-27.8	-29.2	15.1	0.00e+00	0	44	0	240123904	16	4230
2026-01-15 12:25:14.96	273.48	17.25	-27.7	-28.9	15.3	9.10e-06	0	44	0	246415360	16	4156
2026-01-15 12:25:16.96	273.93	17.27	-27.7	-29.1	15.2	0.00e+00	0	44	0	252706816	16	4207
2026-01-15 12:25:18.97	274.39	17.28	-27.8	-29.3	15.0	0.00e+00	0	44	0	258998272	16	4279
2026-01-15 12:25:20.98	274.85	17.28	-27.8	-29.3	15.1	7.00e-07	0	44	0	265289728	16	4255
2026-01-15 12:25:22.98	275.31	17.29	-27.8	-29.4	15.0	0.00e+00	0	44	0	271581184	16	4286
2026-01-15 12:25:24.99	275.77	17.30	-27.8	-29.4	15.1	0.00e+00	0	44	0	277872640	16	4285
2026-01-15 12:25:26.98	276.22	17.30	-27.8	-29.3	15.1	0.00e+00	0	44	0	284164096	16	4258
2026-01-15 12:25:28.98	276.68	17.30	-27.6	-28.8	15.3	0.00e+00	0	44	0	290455552	16	4137
2026-01-15 12:25:30.99	277.14	17.30	-27.6	-28.8	15.4	0.00e+00	0	44	0	296747008	16	4127
2026-01-15 12:25:32.99	277.60	17.30	-27.7	-29.0	15.2	0.00e+00	0	44	0	303038464	16	4176
2026-01-15 12:25:35.00	278.06	17.30	-27.7	-28.9	15.3	0.00e+00	0	44	0	309329920	16	4168
2026-01-15 12:25:37.00	278.51	17.29	-27.7	-29.1	15.2	0.00e+00	0	44	0	315621376	16	4200
2026-01-15 12:25:39.00	278.97	17.28	-27.8	-29.2	15.1	3.00e-06	0	44	0	321912832	16	4251
2026-01-15 12:25:41.00	279.43	17.27	-27.7	-29.1	15.2	0.00e+00	0	44	0	328204288	16	4215
2026-01-15 12:25:43.00	279.88	17.26	-27.8	-29.2	15.1	0.00e+00	0	44	0	334495744	16	4249
2026-01-15 12:25:45.00	280.34	17.25	-27.8	-29.2	15.1	0.00e+00	0	44	0	339738624	16	4230
2026-01-15 12:25:47.00	280.80	17.24	-27.8	-29.3	15.1	0.00e+00	0	44	0	346030080	16	4256
2026-01-15 12:25:49.00	281.25	17.22	-27.9	-29.4	15.0	0.00e+00	0	44	0	352321536	16	4305
2026-01-15 12:25:51.00	281.71	17.20	-27.7	-29.1	15.2	0.00e+00	0	44	0	358612992	16	4201
2026-01-15 12:25:53.01	282.16	17.18	-27.8	-29.2	15.1	0.00e+00	0	44	0	364904448	16	4247
2026-01-15 12:25:55.01	282.62	17.16	-27.8	-29.4	15.0	0.00e+00	0	44	0	371195904	16	4288
2026-01-15 12:25:57.01	283.07	17.14	-27.8	-29.2	15.1	0.00e+00	0	44	0	377487360	16	4247
2026-01-15 12:25:59.00	283.52	17.12	-27.7	-29.1	15.1	0.00e+00	0	44	0	383778816	16	4221
2026-01-15 12:26:01.01	283.97	17.09	-27.9	-29.4	15.1	0.00e+00	0	44	0	390070272	16	4290
2026-01-15 12:26:03.01	284.42	17.06	-28.0	-29.6	14.9	0.00e+00	0	44	0	396361728	16	4348
2026-01-15 12:26:05.01	284.87	17.03	-27.9	-29.6	14.9	0.00e+00	0	44	0	402653184	16	4346
2026-01-15 12:26:07.01	285.32	17.00	-27.8	-29.2	15.1	0.00e+00	0	44	0	408944640	16	4226
2026-01-15 12:26:09.03	285.77	16.97	-28.2	-30.1	14.6	7.00e-07	0	44	0	415236096	16	4484
2026-01-15 12:26:11.04	286.22	16.94	-28.0	-29.7	14.8	0.00e+00	0	44	0	421527552	16	4390
2026-01-15 12:26:13.03	286.67	16.90	-28.1	-29.9	14.7	2.20e-06	0	44	0	427819008	16	4452
2026-01-15 12:26:15.03	287.11	16.86	-27.9	-29.6	14.9	0.00e+00	0	44	0	434110464	16	4346
2026-01-15 12:26:17.04	287.56	16.82	-27.8	-29.3	15.0	0.00e+00	0	44	0	440401920	16	4269
2026-01-15 12:26:19.03	288.00	16.78	-27.8	-29.2	15.1	0.00e+00	0	44	0	446693376	16	4230
2026-01-15 12:26:21.03	288.44	16.74	-27.6	-28.9	15.3	0.00e+00	0	44	0	452984832	16	4146
2026-01-15 12:26:23.04	288.88	16.70	-27.7	-29.1	15.1	0.00e+00	0	44	0	459276288	16	4208
2026-01-15 12:26:25.05	289.32	16.65	-27.7	-29.0	15.2	0.00e+00	0	44	0	465567744	16	4198
2026-01-15 12:26:27.05	289.76	16.61	-27.9	-29.4	15.0	0.00e+00	0	44	0	471859200	16	4310
2026-01-15 12:26:29.07	290.20	16.56	-27.9	-29.6	14.9	0.00e+00	0	44	0	478150656	16	4342
2026-01-15 12:26:31.08	290.64	16.51	-27.9	-29.4	15.0	0.00e+00	0	44	0	484442112	16	4286
2026-01-15 12:26:33.09	291.07	16.46	-27.7	-29.1	15.1	7.00e-07	0	44	0	490733568	16	4218
2026-01-15 12:26:35.09	291.50	16.40	-27.8	-29.3	15.0	0.00e+00	0	44	0	497025024	16	4265
2026-01-15 12:26:37.09	291.93	16.35	-27.8	-29.3	15.0	0.00e+00	0	44	0	503316480	16	4274
2026-01-15 12:26:39.11	292.37	16.29	-27.9	-29.6	14.8	0.00e+00	0	44	0	509607936	16	4353
2026-01-15 12:26:41.11	292.79	16.24	-27.8	-29.3	15.0	7.00e-07	0	44	0	515899392	16	4278
2026-01-15 12:26:43.10	293.22	16.18	-27.8	-29.4	15.0	7.00e-07	0	44	0	522190848	16	4286
2026-01-15 12:26:45.11	293.64	16.12	-27.8	-29.3	15.0	0.00e+00	0	44	0	528482304	16	4258
2026-01-15 12:26:47.12	294.07	16.06	-27.7	-29.1	15.2	7.00e-07	0	44	0	534773760	16	4208
2026-01-15 12:26:49.12	294.49	16.00	-27.7	-28.9	15.2	0.00e+00	0	44	0	541065216	16	4173
2026-01-15 12:26:51.13	294.91	15.93	-27.7	-29.0	15.2	0.00e+00	0	44	0	547356672	16	4194
2026-01-15 12:26:53.13	295.32	15.87	-27.6	-28.9	15.2	1.50e-06	0	44	0	553648128	16	4162
2026-01-15 12:26:55.13	295.74	15.80	-27.6	-28.8	15.3	0.00e+00	0	44	0	559939584	16	4119
2026-01-15 12:26:57.12	296.15	15.74	-27.5	-28.6	15.4	0.00e+00	0	44	0	565182464	16	4086
2026-01-15 12:26:59.10	296.56	15.67	-27.5	-28.6	15.4	0.00e+00	0	44	0	571473920	16	4092
2026-01-15 12:27:01.10	296.97	15.60	-27.6	-28.8	15.3	0.00e+00	0	44	0	577765376	16	4123
2026-01-15 12:27:03.10	297.38	15.53	-27.6	-28.8	15.3	0.00e+00	0	44	0	584056832	16	4143
2026-01-15 12:27:05.11	297.78	15.46	-27.7	-29.1	15.2	0.00e+00	0	44	0	590348288	16	4202
2026-01-15 12:27:07.12	298.19	15.38	-27.9	-29.4	14.9	0.00e+00	0	44	0	596639744	16	4293
2026-01-15 12:27:09.12	298.59	15.31	-27.8	-29.3	15.0	0.00e+00	0	44	0	602931200	16	4265
2026-01-15 12:27:11.13	298.99	15.23	-27.9	-29.4	14.9	0.00e+00	0	44	0	609222656	16	4293
2026-01-15 12:27:13.13	299.39	15.16	-27.8	-29.2	15.0	0.00e+00	0	44	0	615514112	16	4234
2026-01-15 12:27:15.14	299.79	15.08	-27.9	-29.4	14.9	0.00e+00	0	44	0	621805568	16	4312
2026-01-15 12:27:17.15	300.18	15.00	-27.9	-29.4	14.9	0.00e+00	0	44	0	628097024	16	4288
2026-01-15 12:27:19.16	300.58	14.92	-27.8	-29.2	15.1	0.00e+00	0	44	0	634388480	16	4231
2026-01-15 12:27:21.16	300.97	14.84	-27.8	-29.3	15.0	0.00e+00	0	44	0	640679936	16	4264
2026-01-15 12:27:23.15	301.35	14.76	-27.7	-29.2	15.1	0.00e+00	0	44	0	646971392	16	4235
2026-01-15 12:27:25.16	301.74	14.68	-27.7	-29.0	15.2	0.00e+00	0	44	0	653262848	16	4182
2026-01-15 12:27:27.15	302.12	14.60	-27.7	-29.1	15.1	0.00e+00	0	44	0	659554304	16	4224
2026-01-15 12:27:29.15	302.51	14.51	-27.8	-29.3	15.0	0.00e+00	0	44	0	665845760	16	4257
2026-01-15 12:27:31.15	302.88	14.43	-27.9	-29.4	14.9	0.00e+00	0	44	0	672137216	16	4312
2026-01-15 12:27:33.15	303.26	14.34	-28.0	-29.6	14.8	0.00e+00	0	44	0	678428672	16	4361
2026-01-15 12:27:35.16	303.64	14.25	-28.0	-29.7	14.8	0.00e+00	0	44	0	684720128	16	4370
2026-01-15 12:27:37.16	304.01	14.17	-27.9	-29.6	14.8	0.00e+00	0	44	0	691011584	16	4364
2026-01-15 12:27:39.16	304.38	14.08	-27.8	-29.3	15.0	0.00e+00	0	44	0	697303040	16	4262
2026-01-15 12:27:41.16	304.75	13.99	-27.8	-29.2	15.0	7.00e-07	0	44	0	703594496	16	4255
2026-01-15 12:27:43.16	305.12	13.90	-27.8	-29.3	14.9	0.00e+00	0	44	0	709885952	16	4272
2026-01-15 12:27:45.17	305.48	13.81	-28.0	-29.7	14.7	0.00e+00	0	44	0	716177408	16	4393
2026-01-15 12:27:47.18	305.85	13.72	-28.2	-30.1	14.5	7.00e-07	0	44	0	722468864	16	4509
2026-01-15 12:27:49.17	306.21	13.63	-28.3	-30.5	14.3	2.20e-06	0	44	0	728760320	16	4614
2026-01-15 12:27:51.18	306.57	13.54	-28.3	-30.4	14.3	0.00e+00	0	44	0	735051776	16	4608
2026-01-15 12:27:53.19	306.92	13.44	-28.2	-30.2	14.4	0.00e+00	0	44	0	741343232	16	4523
2026-01-15 12:27:55.19	307.28	13.35	-28.1	-29.9	14.6	7.00e-07	0	44	0	747634688	16	4436
2026-01-15 12:27:57.18	307.63	13.25	-28.0	-29.8	14.6	7.00e-07	0	44	0	752877568	16	4420
2026-01-15 12:27:59.18	307.98	13.16	-28.1	-30.0	14.6	7.00e-07	0	44	0	759169024	16	4467
2026-01-15 12:28:01.18	308.32	13.06	-28.2	-30.2	14.4	1.50e-06	0	44	0	765460480	16	4550
2026-01-15 12:28:03.18	308.67	12.97	-28.2	-30.3	14.3	3.00e-06	0	44	0	771751936	16	4563
2026-01-15 12:28:05.19	309.01	12.87	-28.3	-30.4	14.2	2.20e-06	0	44	0	778043392	16	4609
2026-01-15 12:28:07.20	309.35	12.77	-28.4	-30.7	14.1	7.00e-07	0	44	0	784334848	16	4702
2026-01-15 12:28:09.21	309.69	12.68	-28.4	-30.7	14.1	1.50e-06	0	44	0	790626304	16	4686
2026-01-15 12:28:11.21	310.03	12.58	-28.4	-30.6	14.1	2.20e-06	0	44	0	796917760	16	4655
2026-01-15 12:28:13.21	310.36	12.48	-28.4	-30.7	14.0	6.10e-06	0	44	0	803209216	16	4706
2026-01-15 12:28:15.21	310.70	12.38	-28.4	-30.6	14.1	0.00e+00	0	44	0	809500672	16	4659
2026-01-15 12:28:17.21	311.03	12.28	-28.4	-30.6	14.1	2.20e-06	0	44	0	815792128	16	4662
2026-01-15 12:28:19.22	311.35	12.18	-28.7	-30.9	13.6	2.20e-06	0	44	0	822083584	17	4642
2026-01-15 12:28:21.22	311.68	12.08	-28.7	-30.9	13.6	9.90e-06	0	44	0	828375040	17	4648
2026-01-15 12:28:23.22	312.00	11.98	-28.5	-30.4	13.9	3.80e-06	0	44	0	834666496	17	4494
2026-01-15 12:28:25.22	312.32	11.88	-28.6	-30.6	13.8	3.00e-06	0	44	0	840957952	17	4563
2026-01-15 12:28:27.23	312.64	11.78	-28.6	-30.7	13.7	8.30e-06	0	44	0	847249408	17	4579
2026-01-15 12:28:29.23	312.96	11.68	-28.6	-30.7	13.7	8.30e-06	0	44	0	853540864	17	4584
2026-01-15 12:28:31.24	313.28	11.57	-28.6	-30.7	13.7	3.00e-06	0	44	0	859832320	17	4585
2026-01-15 12:28:33.24	313.59	11.47	-28.7	-30.8	13.6	7.60e-06	0	44	0	866123776	17	4623
2026-01-15 12:28:35.24	313.90	11.37	-28.8	-31.2	13.4	9.10e-06	0	44	0	872415232	17	4729
2026-01-15 12:28:37.24	314.21	11.26	-28.8	-31.1	13.5	8.30e-06	0	44	0	878706688	17	4696
2026-01-15 12:28:39.24	314.51	11.16	-28.7	-30.8	13.6	1.14e-05	0	44	0	884998144	17	4622
2026-01-15 12:28:41.24	314.82	11.06	-28.7	-30.9	13.6	6.10e-06	0	44	0	891289600	17	4634
2026-01-15 12:28:43.25	315.12	10.95	-28.7	-30.9	13.6	1.22e-05	0	44	0	897581056	17	4633
2026-01-15 12:28:45.26	315.42	10.85	-28.7	-31.0	13.5	7.60e-06	0	44	0	903872512	17	4661
2026-01-15 12:28:47.26	315.72	10.74	-28.7	-30.9	13.6	1.14e-05	0	44	0	910163968	17	4644
2026-01-15 12:28:49.27	316.02	10.64	-28.6	-30.7	13.7	5.30e-06	0	44	0	916455424	17	4568
2026-01-15 12:28:51.27	316.31	10.53	-28.7	-31.0	13.5	8.30e-06	0	44	0	922746880	17	4676
2026-01-15 12:28:53.27	316.60	10.43	-28.7	-30.9	13.5	1.06e-05	0	44	0	929038336	17	4659
2026-01-15 12:28:55.28	316.89	10.32	-28.7	-31.1	13.4	1.29e-05	0	44	0	935329792	17	4697
2026-01-15 12:28:57.29	317.18	10.22	-28.7	-31.1	13.4	1.52e-05	0	44	0	941621248	17	4698
2026-01-15 12:28:59.29	317.47	10.11	-28.8	-31.1	13.4	1.67e-05	0	44	0	947912704	17	4726
2026-01-15 12:29:01.29	317.75	10.01	-28.9	-31.5	13.2	2.97e-05	0	44	0	954204160	17	4845
2026-01-15 12:29:03.29	318.03	9.90	-28.9	-31.0	13.1	2.89e-05	0	44	0	959447040	18	4584
2026-01-15 12:29:05.29	318.31	9.79	-28.9	-30.9	13.2	3.66e-05	0	44	0	965738496	18	4555
2026-01-15 12:29:07.29	318.59	9.69	-28.8	-30.8	13.2	2.13e-05	0	44	0	972029952	18	4516
2026-01-15 12:29:09.30	318.87	9.58	-28.8	-30.8	13.3	2.21e-05	0	44	0	978321408	18	4497
2026-01-15 12:29:11.31	319.14	9.48	-28.9	-31.0	13.1	3.28e-05	0	44	0	984612864	18	4571
2026-01-15 12:29:13.31	319.41	9.37	-28.9	-31.1	13.1	2.74e-05	0	44	0	990904320	18	4592
2026-01-15 12:29:15.31	319.68	9.26	-28.9	-31.0	13.1	2.74e-05	0	44	0	997195776	18	4576
2026-01-15 12:29:17.30	319.95	9.16	-28.8	-30.9	13.2	2.97e-05	0	44	0	1003487232	18	4536
2026-01-15 12:29:19.31	320.22	9.05	-28.9	-30.9	13.2	2.82e-05	0	44	0	1009778688	18	4540
2026-01-15 12:29:21.32	320.48	8.94	-28.9	-31.0	13.1	2.97e-05	0	44	0	1016070144	18	4564
2026-01-15 12:29:23.33	320.75	8.83	-28.8	-30.8	13.2	2.89e-05	0	44	0	1022361600	18	4511
2026-01-15 12:29:25.33	321.01	8.73	-28.8	-30.7	13.2	2.36e-05	0	44	0	1028653056	18	4498
2026-01-15 12:29:27.34	321.27	8.62	-28.9	-30.9	13.1	3.05e-05	0	44	0	1034944512	18	4541
2026-01-15 12:29:29.34	321.52	8.51	-29.0	-31.3	12.9	4.57e-05	0	44	0	1041235968	18	4671
2026-01-15 12:29:31.35	321.78	8.41	-29.0	-31.2	12.9	4.34e-05	0	44	0	1047527424	18	4642
2026-01-15 12:29:33.36	322.03	8.30	-29.1	-31.4	12.8	5.41e-05	0	44	0	1053818880	18	4708
2026-01-15 12:29:35.36	322.29	8.19	-29.2	-31.8	12.5	1.07e-04	0	44	0	1060110336	18	4839
2026-01-15 12:29:37.37	322.54	8.08	-29.3	-32.0	12.4	1.22e-04	0	44	0	1066401792	18	4913
2026-01-15 12:29:39.37	322.79	7.98	-29.4	-32.3	12.2	2.11e-04	0	44	0	1072693248	18	5017
2026-01-15 12:29:41.37	323.03	7.87	-29.4	-32.2	12.2	2.22e-04	0	44	0	1078984704	18	5003
2026-01-15 12:29:43.37	323.28	7.76	-29.4	-32.2	12.2	2.60e-04	0	44	0	1085276160	18	4983
2026-01-15 12:29:45.38	323.52	7.66	-29.5	-32.1	12.0	3.46e-04	0	44	0	1091567616	19	4841
2026-01-15 12:29:47.38	323.76	7.55	-29.5	-32.0	12.0	3.95e-04	0	44	0	1097859072	19	4828
2026-01-15 12:29:49.39	324.00	7.44	-29.5	-32.2	11.8	4.50e-04	0	44	0	1104150528	19	4881
2026-01-15 12:29:51.40	324.24	7.33	-29.6	-32.3	11.8	5.34e-04	0	44	0	1110441984	19	4913
2026-01-15 12:29:53.41	324.48	7.23	-29.8	-32.7	11.5	8.17e-04	0	44	0	1116733440	19	5077
2026-01-15 12:29:55.41	324.71	7.12	-29.9	-33.1	11.2	1.15e-03	0	44	0	1123024896	19	5216
2026-01-15 12:29:57.41	324.94	7.01	-33.7	-45.6	3.8	1.49e+00	0	44	104	1126170624	27	14305

#Closed at: 2026-01-15 12:29:59
#Recorded file [1126 MB]: D:/data/31010_260115_152355.dat