passes_logs/2026/01/15/R2M6_AANII_01/R2M6_AANII_01__20260115_135157_FENGYUN_3E_rec.log

#Pass ID: 20260115_135157_FENGYUN 3E
#Satellite: FENGYUN 3E
#Configuration: FENGYUN 3E
#almurnet v.1.7.20240730
#Start time: 2026-01-15 13:59:05

#Version: 2.2.20231116
#Station: R2M6_AANII_01
#Location: 30.233357 lon 59.946436 lat
#TLE: 1 49008U 21062A   26014.58289545 -.00000120  00000+0 -35876-4 0  9998
#TLE: 2 49008  98.7488  19.7165 0002000 137.1107 223.0226 14.19884293234788

#Time	Az	El	Level	Level2	SNR	BER	BlckErr	Temp	State	Recorded	gain1	gain2
2026-01-15 13:59:05.92	17.81	42.46	-33.9	-45.4	3.8	8.46e-01	0	43	0	0	27	13495
2026-01-15 13:59:07.92	17.09	42.08	-34.3	-43.6	3.8	8.47e-01	0	44	104	0	29	10428
2026-01-15 13:59:09.92	16.40	41.69	-34.3	-43.6	3.8	8.46e-01	0	43	104	0	29	10416
2026-01-15 13:59:11.92	15.71	41.29	-34.3	-43.6	3.8	8.46e-01	0	44	104	0	29	10421
2026-01-15 13:59:13.93	15.05	40.90	-34.3	-43.6	3.8	8.45e-01	0	44	104	0	29	10472
2026-01-15 13:59:15.93	14.40	40.51	-34.3	-43.6	3.8	8.46e-01	0	44	104	0	29	10419
2026-01-15 13:59:17.93	13.76	40.12	-34.3	-43.5	3.8	8.46e-01	0	43	104	0	29	10383
2026-01-15 13:59:19.93	13.15	39.73	-34.3	-43.5	3.8	8.47e-01	0	44	104	0	29	10355
2026-01-15 13:59:21.94	12.54	39.34	-34.4	-43.6	3.8	8.46e-01	0	44	104	0	29	10455
2026-01-15 13:59:23.94	11.95	38.95	-34.4	-43.6	3.8	8.46e-01	0	44	104	0	29	10471
2026-01-15 13:59:25.95	11.37	38.56	-34.3	-43.6	3.8	8.47e-01	0	44	104	0	29	10498
2026-01-15 13:59:27.95	10.81	38.17	-34.4	-43.6	3.8	8.46e-01	0	44	104	0	29	10444
2026-01-15 13:59:29.95	10.27	37.79	-34.3	-43.5	3.8	8.48e-01	0	44	104	0	29	10335
2026-01-15 13:59:31.95	9.73	37.40	-34.3	-43.4	3.8	8.46e-01	0	44	104	0	29	10271
2026-01-15 13:59:33.94	9.21	37.02	-34.2	-43.1	3.8	8.44e-01	0	44	104	0	29	10134
2026-01-15 13:59:35.95	8.70	36.64	-34.1	-43.1	3.8	8.46e-01	0	43	104	0	29	10151
2026-01-15 13:59:37.95	8.20	36.26	-34.0	-42.5	3.8	8.45e-01	0	43	104	0	29	9566
2026-01-15 13:59:39.95	7.72	35.89	-33.9	-41.6	3.8	8.46e-01	0	44	104	0	29	8716
2026-01-15 13:59:41.94	7.24	35.51	-34.0	-42.2	3.8	8.46e-01	0	44	104	0	29	9211
2026-01-15 13:59:43.95	6.78	35.14	-34.0	-42.3	3.8	8.45e-01	0	43	104	0	29	9389
2026-01-15 13:59:45.96	6.32	34.77	-33.9	-41.9	3.8	8.45e-01	0	43	104	0	29	8968
2026-01-15 13:59:47.96	5.88	34.40	-33.6	-39.7	4.1	8.41e-01	0	43	104	0	28	7326
2026-01-15 13:59:49.97	5.44	34.03	-33.4	-39.1	4.3	8.33e-01	0	43	104	0	28	6868
2026-01-15 13:59:51.97	5.02	33.67	-33.3	-38.7	4.6	8.24e-01	0	43	0	0	27	6721
2026-01-15 13:59:53.97	4.60	33.31	-32.3	-35.8	6.4	3.40e-01	0	43	0	4194304	25	5345
2026-01-15 13:59:55.97	4.20	32.95	-31.3	-33.4	8.6	5.11e-02	0	43	0	18874368	23	4629
2026-01-15 13:59:57.98	3.80	32.60	-30.7	-32.4	9.6	2.07e-02	0	43	0	32505856	22	4380
2026-01-15 13:59:59.98	3.41	32.24	-27.0	-27.2	14.6	1.10e-06	0	43	0	47185920	15	3678
2026-01-15 14:00:01.99	3.03	31.89	-27.8	-28.9	13.7	4.50e-06	0	44	0	61865984	15	4111
2026-01-15 14:00:04.00	2.66	31.54	-26.0	-26.0	15.8	0.00e+00	0	43	0	76546048	13	3608
2026-01-15 14:00:06.01	2.30	31.20	-25.1	-25.1	16.9	0.00e+00	0	44	0	91226112	11	3588
2026-01-15 14:00:08.00	1.94	30.86	-24.2	-24.2	17.9	0.00e+00	0	44	0	104857600	9	3586
2026-01-15 14:00:10.01	1.59	30.52	-24.6	-25.1	17.4	0.00e+00	0	43	0	119537664	9	3797
2026-01-15 14:00:12.01	1.25	30.18	-24.5	-24.3	17.6	0.00e+00	0	43	0	134217728	10	3513
2026-01-15 14:00:14.01	0.92	29.85	-23.7	-23.6	18.4	0.00e+00	0	44	0	148897792	8	3559
2026-01-15 14:00:16.01	0.60	29.52	-23.5	-23.2	18.6	0.00e+00	0	44	0	162529280	8	3466
2026-01-15 14:00:18.01	0.28	29.19	-23.9	-24.0	18.2	0.00e+00	0	43	0	177209344	8	3655
2026-01-15 14:00:20.02	359.96	28.86	-24.2	-24.6	17.9	0.00e+00	0	44	0	191889408	8	3795
2026-01-15 14:00:22.03	359.66	28.54	-23.9	-24.0	18.2	0.00e+00	0	44	0	206569472	8	3653
2026-01-15 14:00:24.03	359.36	28.22	-23.8	-23.9	18.2	0.00e+00	0	44	0	221249536	8	3626
2026-01-15 14:00:26.02	359.06	27.90	-24.1	-24.5	17.9	0.00e+00	0	44	0	234881024	8	3755
2026-01-15 14:00:28.02	358.77	27.59	-24.0	-24.2	18.1	0.00e+00	0	44	0	249561088	8	3685
2026-01-15 14:00:30.03	358.49	27.28	-24.1	-24.4	18.0	0.00e+00	0	44	0	264241152	8	3730
2026-01-15 14:00:32.02	358.22	26.97	-24.2	-24.1	17.8	0.00e+00	0	44	0	278921216	9	3571
2026-01-15 14:00:34.03	357.94	26.66	-23.9	-23.5	18.2	0.00e+00	0	44	0	293601280	9	3453
2026-01-15 14:00:36.03	357.68	26.36	-23.8	-23.9	18.2	0.00e+00	0	44	0	307232768	8	3620
2026-01-15 14:00:38.03	357.42	26.06	-24.2	-24.7	17.8	0.00e+00	0	44	0	321912832	8	3802
2026-01-15 14:00:40.04	357.16	25.76	-23.9	-24.1	18.1	0.00e+00	0	44	0	336592896	8	3670
2026-01-15 14:00:42.03	356.91	25.47	-24.0	-24.2	18.0	0.00e+00	0	44	0	351272960	8	3700
2026-01-15 14:00:44.04	356.66	25.18	-24.0	-24.3	18.0	0.00e+00	0	44	0	364904448	8	3708
2026-01-15 14:00:46.05	356.42	24.89	-23.9	-24.0	18.1	0.00e+00	0	44	0	379584512	8	3655
2026-01-15 14:00:48.05	356.18	24.60	-24.0	-24.3	18.0	0.00e+00	0	44	0	394264576	8	3710
2026-01-15 14:00:50.05	355.95	24.31	-23.7	-23.5	18.4	0.00e+00	0	44	0	408944640	8	3545
2026-01-15 14:00:52.07	355.72	24.03	-23.9	-24.1	18.1	0.00e+00	0	44	0	423624704	8	3668
2026-01-15 14:00:54.06	355.49	23.75	-23.6	-23.3	18.5	0.00e+00	0	44	0	437256192	8	3499
2026-01-15 14:00:56.06	355.27	23.48	-23.4	-23.0	18.6	0.00e+00	0	44	0	451936256	8	3444
2026-01-15 14:00:58.07	355.06	23.20	-23.8	-23.7	18.2	0.00e+00	0	44	0	466616320	8	3593
2026-01-15 14:01:00.08	354.84	22.93	-23.9	-24.1	18.0	0.00e+00	0	44	0	481296384	8	3681
2026-01-15 14:01:02.08	354.63	22.66	-24.1	-24.5	17.9	0.00e+00	0	44	0	495976448	8	3755
2026-01-15 14:01:04.08	354.43	22.39	-24.0	-24.2	17.9	0.00e+00	0	44	0	510656512	8	3702
2026-01-15 14:01:06.07	354.23	22.13	-24.2	-24.7	17.8	0.00e+00	0	44	0	524288000	8	3802
2026-01-15 14:01:08.09	354.03	21.86	-24.2	-24.6	17.8	0.00e+00	0	44	0	538968064	8	3782
2026-01-15 14:01:10.10	353.83	21.60	-24.3	-24.9	17.6	0.00e+00	0	44	0	553648128	8	3860
2026-01-15 14:01:12.11	353.64	21.34	-24.3	-24.8	17.7	0.00e+00	0	44	0	568328192	8	3826
2026-01-15 14:01:14.11	353.45	21.09	-24.5	-25.3	17.4	0.00e+00	0	44	0	581959680	8	3943
2026-01-15 14:01:16.11	353.27	20.83	-24.4	-25.1	17.5	0.00e+00	0	44	0	596639744	8	3896
2026-01-15 14:01:18.12	353.09	20.58	-24.3	-24.9	17.6	0.00e+00	0	44	0	611319808	8	3857
2026-01-15 14:01:20.12	352.91	20.33	-24.4	-25.0	17.5	0.00e+00	0	44	0	625999872	8	3883
2026-01-15 14:01:22.11	352.73	20.09	-24.5	-25.4	17.3	0.00e+00	0	44	0	639631360	8	3968
2026-01-15 14:01:24.11	352.56	19.84	-25.1	-25.5	16.7	0.00e+00	0	44	0	654311424	10	3800
2026-01-15 14:01:26.12	352.39	19.60	-24.6	-24.6	17.2	0.00e+00	0	44	0	668991488	10	3589
2026-01-15 14:01:28.13	352.22	19.36	-24.5	-24.4	17.3	0.00e+00	0	44	0	683671552	10	3541
2026-01-15 14:01:30.14	352.06	19.12	-24.8	-24.9	17.0	0.00e+00	0	44	0	698351616	10	3658
2026-01-15 14:01:32.14	351.90	18.88	-24.8	-24.9	17.0	0.00e+00	0	44	0	713031680	10	3646
2026-01-15 14:01:34.15	351.74	18.65	-24.9	-25.1	16.9	0.00e+00	0	44	0	726663168	10	3697
2026-01-15 14:01:36.15	351.58	18.42	-25.1	-25.6	16.6	0.00e+00	0	44	0	741343232	10	3810
2026-01-15 14:01:38.15	351.43	18.19	-25.1	-25.7	16.6	0.00e+00	0	44	0	756023296	10	3831
2026-01-15 14:01:40.16	351.27	17.96	-25.2	-25.9	16.4	0.00e+00	0	44	0	770703360	10	3891
2026-01-15 14:01:42.16	351.13	17.73	-25.2	-25.8	16.5	0.00e+00	0	44	0	784334848	10	3860
2026-01-15 14:01:44.17	350.98	17.50	-25.4	-26.4	16.2	0.00e+00	0	44	0	799014912	10	3996
2026-01-15 14:01:46.18	350.83	17.28	-25.2	-25.9	16.4	0.00e+00	0	44	0	813694976	10	3890
2026-01-15 14:01:48.19	350.69	17.06	-25.3	-26.0	16.4	0.00e+00	0	44	0	828375040	10	3905
2026-01-15 14:01:50.19	350.55	16.84	-25.2	-25.8	16.5	0.00e+00	0	44	0	843055104	10	3858
2026-01-15 14:01:52.19	350.41	16.62	-25.2	-25.9	16.4	0.00e+00	0	44	0	857735168	10	3873
2026-01-15 14:01:54.20	350.28	16.41	-25.2	-25.7	16.5	0.00e+00	0	44	0	871366656	10	3847
2026-01-15 14:01:56.21	350.14	16.19	-25.2	-25.9	16.4	0.00e+00	0	44	0	886046720	10	3876
2026-01-15 14:01:58.22	350.01	15.98	-25.4	-26.2	16.2	0.00e+00	0	44	0	900726784	10	3957
2026-01-15 14:02:00.23	349.88	15.77	-25.5	-26.6	16.0	0.00e+00	0	44	0	915406848	10	4052
2026-01-15 14:02:02.24	349.75	15.56	-25.4	-25.8	16.1	0.00e+00	0	44	0	930086912	11	3770
2026-01-15 14:02:04.24	349.62	15.35	-25.5	-26.0	16.0	0.00e+00	0	44	0	944766976	11	3808
2026-01-15 14:02:06.25	349.50	15.14	-25.8	-26.6	15.7	0.00e+00	0	44	0	958398464	11	3961
2026-01-15 14:02:08.24	349.38	14.94	-25.7	-26.5	15.7	0.00e+00	0	44	0	973078528	11	3935
2026-01-15 14:02:10.26	349.25	14.74	-26.3	-27.3	14.9	0.00e+00	0	44	0	987758592	12	4031
2026-01-15 14:02:12.26	349.14	14.53	-26.3	-27.1	15.0	0.00e+00	0	44	0	1002438656	12	3988
2026-01-15 14:02:14.27	349.02	14.33	-25.8	-26.1	15.6	0.00e+00	0	44	0	1016070144	12	3732
2026-01-15 14:02:16.28	348.90	14.14	-25.9	-26.3	15.4	0.00e+00	0	44	0	1031798784	12	3785
2026-01-15 14:02:18.29	348.79	13.94	-25.9	-26.4	15.4	0.00e+00	0	44	0	1045430272	12	3810
2026-01-15 14:02:20.29	348.67	13.74	-25.7	-26.0	15.6	0.00e+00	0	44	0	1060110336	12	3712
2026-01-15 14:02:22.29	348.56	13.55	-25.8	-26.1	15.6	0.00e+00	0	44	0	1074790400	12	3723
2026-01-15 14:02:24.29	348.45	13.36	-26.2	-27.1	15.0	0.00e+00	0	44	0	1089470464	12	3972
2026-01-15 14:02:26.29	348.35	13.17	-26.0	-26.7	15.2	0.00e+00	0	44	0	1103101952	12	3868
2026-01-15 14:02:28.29	348.24	12.98	-26.4	-27.4	14.8	0.00e+00	0	44	0	1117782016	12	4044
2026-01-15 14:02:30.30	348.13	12.79	-26.1	-26.7	15.1	0.00e+00	0	44	0	1132462080	12	3884
2026-01-15 14:02:32.31	348.03	12.60	-26.1	-26.9	15.0	0.00e+00	0	44	0	1147142144	12	3922
2026-01-15 14:02:34.31	347.93	12.42	-26.3	-27.2	14.8	0.00e+00	0	44	0	1160773632	12	4008
2026-01-15 14:02:36.31	347.83	12.23	-26.5	-27.7	14.6	0.00e+00	0	44	0	1175453696	12	4133
2026-01-15 14:02:38.32	347.73	12.05	-26.5	-27.7	14.5	0.00e+00	0	44	0	1190133760	12	4144
2026-01-15 14:02:40.31	347.63	11.87	-26.7	-27.7	14.2	0.00e+00	0	44	0	1204813824	13	4030
2026-01-15 14:02:42.32	347.53	11.69	-26.7	-27.7	14.2	6.80e-06	0	44	0	1219493888	13	4026
2026-01-15 14:02:44.32	347.44	11.51	-27.1	-28.0	13.8	1.02e-05	0	44	0	1233125376	14	3995
2026-01-15 14:02:46.33	347.34	11.33	-26.5	-26.8	14.4	0.00e+00	0	44	0	1247805440	14	3707
2026-01-15 14:02:48.34	347.25	11.15	-26.6	-27.0	14.3	0.00e+00	0	44	0	1262485504	14	3749
2026-01-15 14:02:50.34	347.16	10.98	-26.5	-26.8	14.4	3.40e-06	0	44	0	1277165568	14	3711
2026-01-15 14:02:52.34	347.07	10.80	-26.7	-27.1	14.2	1.10e-06	0	44	0	1291845632	14	3789
2026-01-15 14:02:54.35	346.98	10.63	-26.6	-27.0	14.2	1.10e-06	0	44	0	1305477120	14	3760
2026-01-15 14:02:56.36	346.89	10.46	-26.9	-27.5	13.8	5.70e-06	0	44	0	1320157184	14	3889
2026-01-15 14:02:58.37	346.80	10.29	-26.9	-27.6	13.9	2.20e-06	0	44	0	1334837248	14	3908
2026-01-15 14:03:00.37	346.72	10.12	-26.9	-27.7	13.8	4.50e-06	0	44	0	1349517312	14	3933
2026-01-15 14:03:02.37	346.63	9.95	-27.0	-27.9	13.7	1.02e-05	0	44	0	1364197376	14	3986
2026-01-15 14:03:04.38	346.55	9.78	-26.9	-27.6	13.9	9.10e-06	0	44	0	1378877440	14	3900
2026-01-15 14:03:06.38	346.46	9.61	-26.8	-27.4	14.0	6.80e-06	0	44	0	1392508928	14	3847
2026-01-15 14:03:08.39	346.38	9.45	-27.0	-27.9	13.7	6.80e-06	0	44	0	1407188992	14	3971
2026-01-15 14:03:10.39	346.30	9.28	-27.0	-27.9	13.7	6.80e-06	0	44	0	1421869056	14	3978
2026-01-15 14:03:12.40	346.22	9.12	-26.9	-27.6	13.8	4.50e-06	0	44	0	1436549120	14	3921
2026-01-15 14:03:14.41	346.14	8.96	-27.0	-27.8	13.7	4.50e-06	0	44	0	1451229184	14	3957
2026-01-15 14:03:16.42	346.06	8.79	-27.0	-27.9	13.6	8.00e-06	0	44	0	1464860672	14	3977
2026-01-15 14:03:18.43	345.99	8.63	-26.9	-27.6	13.8	6.80e-06	0	44	0	1479540736	14	3896
2026-01-15 14:03:20.43	345.91	8.47	-26.8	-27.5	13.9	2.20e-06	0	44	0	1494220800	14	3872
2026-01-15 14:03:22.44	345.84	8.31	-27.1	-28.0	13.5	9.10e-06	0	44	0	1508900864	14	4002
2026-01-15 14:03:24.45	345.76	8.16	-27.0	-27.9	13.6	1.60e-05	0	44	0	1523580928	14	3983
2026-01-15 14:03:26.45	345.69	8.00	-27.4	-28.8	13.0	4.80e-05	0	44	0	1537212416	14	4234
2026-01-15 14:03:28.45	345.62	7.84	-27.3	-28.5	13.2	1.48e-05	0	44	0	1551892480	14	4135
2026-01-15 14:03:30.46	345.54	7.69	-27.2	-28.2	13.3	1.48e-05	0	44	0	1566572544	14	4068
2026-01-15 14:03:32.47	345.47	7.53	-27.2	-28.3	13.3	2.51e-05	0	44	0	1581252608	14	4083
2026-01-15 14:03:34.47	345.40	7.38	-27.1	-27.6	13.4	1.02e-05	0	44	0	1595932672	15	3806
2026-01-15 14:03:36.47	345.33	7.23	-27.6	-28.8	12.6	9.84e-05	0	44	0	1609564160	15	4121
2026-01-15 14:03:38.48	345.26	7.08	-30.4	-33.2	8.7	2.98e-03	0	44	0	1624244224	20	5020

#Closed at: 2026-01-15 14:03:40
#Recorded file [1625 MB]: D:/data/31010_260115_165949.dat