passes_logs/2026/01/15/R2M6_AANII_01/R2M6_AANII_01__20260115_231607_SUOMI_NPP_rec.log

#Pass ID: 20260115_231607_SUOMI NPP
#Satellite: SUOMI NPP
#Configuration: NPP
#almurnet v.1.7.20240730
#Start time: 2026-01-15 23:16:08

#Version: 2.2.20231116
#Station: R2M6_AANII_01
#Location: 30.233357 lon 59.946436 lat
#TLE: 1 37849U 11061A   26015.52691075  .00000052  00000+0  45753-4 0  9993
#TLE: 2 37849  98.7811 317.5709 0002448  62.7632 297.3794 14.19525354736784

#Time	Az	El	Level	Level2	SNR	BER	BlckErr	Temp	State	Recorded	gain1	gain2
2026-01-15 23:16:08.84	25.79	7.12	-31.8	-36.8	5.0	1.27e+00	0	41	0	0	23	6401
2026-01-15 23:16:11.85	26.00	7.33	-32.3	-38.5	6.0	3.30e-01	0	41	0	1048576	24	7397
2026-01-15 23:16:14.86	26.21	7.54	-31.7	-36.1	8.2	6.06e-02	0	41	0	7340032	23	5964
2026-01-15 23:16:17.86	26.42	7.76	-31.4	-34.8	9.2	2.37e-02	0	41	0	12582912	23	5321
2026-01-15 23:16:20.87	26.64	7.97	-31.4	-34.8	9.4	1.36e-02	0	41	0	17825792	23	5295
2026-01-15 23:16:23.87	26.86	8.19	-31.4	-34.8	9.3	1.65e-02	0	42	0	24117248	23	5292
2026-01-15 23:16:26.87	27.08	8.41	-31.5	-35.1	9.2	2.51e-02	0	42	0	29360128	23	5438
2026-01-15 23:16:29.87	27.31	8.63	-31.0	-33.6	10.8	3.04e-03	0	41	0	35651584	22	4858
2026-01-15 23:16:32.87	27.54	8.85	-31.1	-34.1	10.4	2.51e-03	0	42	0	40894464	22	5065
2026-01-15 23:16:35.88	27.77	9.07	-30.7	-32.6	11.5	9.03e-04	0	42	0	46137344	22	4471
2026-01-15 23:16:38.89	28.01	9.30	-30.5	-32.4	12.0	4.26e-04	0	42	0	52428800	21	4511
2026-01-15 23:16:41.90	28.25	9.52	-30.5	-32.6	11.9	8.76e-04	0	42	0	57671680	21	4579
2026-01-15 23:16:44.91	28.49	9.75	-30.3	-32.0	12.3	3.09e-04	0	42	0	62914560	21	4382
2026-01-15 23:16:47.91	28.74	9.98	-30.3	-32.5	12.4	2.29e-04	0	42	0	69206016	20	4615
2026-01-15 23:16:50.92	28.99	10.21	-30.4	-32.8	12.2	1.57e-04	0	42	0	74448896	20	4720
2026-01-15 23:16:53.92	29.24	10.44	-30.5	-32.4	12.0	4.21e-04	0	42	0	80740352	21	4510
2026-01-15 23:16:56.93	29.50	10.68	-30.0	-31.6	13.0	3.43e-05	0	42	0	85983232	20	4330
2026-01-15 23:16:59.93	29.76	10.91	-30.0	-31.5	13.1	6.48e-05	0	42	0	91226112	20	4292
2026-01-15 23:17:02.93	30.03	11.15	-30.0	-31.5	13.2	2.44e-05	0	42	0	97517568	20	4269
2026-01-15 23:17:05.93	30.29	11.39	-29.2	-30.6	13.2	4.04e-05	0	42	0	102760448	20	4237
2026-01-15 23:17:08.94	30.57	11.63	-30.2	-31.9	12.9	3.81e-05	0	43	0	108003328	20	4426
2026-01-15 23:17:11.95	30.85	11.88	-30.2	-32.0	12.8	6.48e-05	0	42	0	114294784	20	4444
2026-01-15 23:17:14.96	31.13	12.12	-30.4	-32.7	12.4	9.46e-05	0	42	0	119537664	20	4676
2026-01-15 23:17:17.96	31.42	12.37	-30.2	-32.2	12.7	6.02e-05	0	43	0	125829120	20	4488
2026-01-15 23:17:20.96	31.71	12.62	-30.0	-31.6	13.2	6.43e-04	0	43	0	131072000	20	4289
2026-01-15 23:17:23.97	32.01	12.87	-30.0	-31.4	13.3	5.07e-04	0	43	0	136314880	20	4241
2026-01-15 23:17:26.97	32.31	13.13	-29.9	-31.7	13.5	8.30e-06	0	43	0	142606336	19	4414
2026-01-15 23:17:29.97	32.62	13.38	-29.8	-31.0	13.6	1.22e-05	0	43	0	147849216	20	4117
2026-01-15 23:17:32.97	32.93	13.64	-29.9	-31.6	13.6	6.80e-06	0	43	0	153092096	19	4390
2026-01-15 23:17:35.96	33.24	13.90	-29.9	-31.6	13.7	6.10e-06	0	43	0	159383552	19	4375
2026-01-15 23:17:38.96	33.56	14.16	-30.2	-31.9	13.1	3.07e-04	0	43	0	164626432	20	4377
2026-01-15 23:17:41.96	33.89	14.42	-30.2	-32.1	13.0	4.07e-04	0	43	0	169869312	20	4440
2026-01-15 23:17:44.97	34.23	14.69	-30.6	-32.7	12.2	6.11e-04	0	43	0	176160768	21	4558
2026-01-15 23:17:47.97	34.56	14.95	-30.7	-32.8	12.2	5.80e-04	0	43	0	181403648	21	4585
2026-01-15 23:17:50.98	34.91	15.22	-30.6	-32.5	12.4	1.02e-04	0	43	0	187695104	21	4485
2026-01-15 23:17:53.98	35.26	15.49	-30.5	-32.1	12.6	3.45e-04	0	43	0	192937984	21	4365
2026-01-15 23:17:56.98	35.62	15.77	-30.3	-31.7	13.0	1.85e-04	0	43	0	198180864	21	4228
2026-01-15 23:17:59.99	35.98	16.04	-30.4	-32.0	12.9	1.51e-04	0	43	0	204472320	21	4306
2026-01-15 23:18:02.99	36.35	16.32	-30.5	-32.2	12.7	2.02e-04	0	43	0	209715200	21	4370
2026-01-15 23:18:05.99	36.73	16.60	-30.6	-32.4	12.7	2.58e-04	0	43	0	214958080	21	4430
2026-01-15 23:18:08.99	37.11	16.88	-30.3	-31.6	13.1	1.75e-04	0	43	0	221249536	21	4187
2026-01-15 23:18:12.00	37.50	17.16	-30.3	-31.6	13.1	3.12e-05	0	43	0	226492416	21	4199
2026-01-15 23:18:15.01	37.90	17.45	-30.3	-31.6	13.2	1.04e-04	0	43	0	232783872	21	4181
2026-01-15 23:18:18.02	38.31	17.74	-30.4	-32.0	12.9	7.32e-05	0	43	0	238026752	21	4316
2026-01-15 23:18:21.04	38.72	18.03	-30.7	-32.7	12.5	1.07e-04	0	43	0	243269632	21	4537
2026-01-15 23:18:24.03	39.14	18.32	-30.6	-32.5	12.6	1.34e-04	0	43	0	249561088	21	4474
2026-01-15 23:18:27.03	39.57	18.62	-30.8	-32.9	12.4	1.32e-04	0	43	0	254803968	21	4587
2026-01-15 23:18:30.03	40.01	18.91	-30.5	-32.0	13.0	5.87e-05	0	43	0	260046848	21	4309
2026-01-15 23:18:33.03	40.45	19.21	-30.7	-32.6	12.6	1.03e-04	0	43	0	266338304	21	4505
2026-01-15 23:18:36.03	40.91	19.51	-30.5	-32.1	12.9	7.70e-05	0	43	0	271581184	21	4334
2026-01-15 23:18:39.04	41.37	19.81	-30.7	-32.8	12.5	7.01e-05	0	43	0	277872640	21	4546
2026-01-15 23:18:42.03	41.84	20.11	-30.6	-32.3	12.8	1.08e-04	0	43	0	283115520	21	4378
2026-01-15 23:18:45.03	42.32	20.42	-30.4	-32.4	13.0	2.97e-05	0	43	0	288358400	20	4519
2026-01-15 23:18:48.02	42.81	20.73	-29.9	-30.9	14.0	6.10e-06	0	43	0	294649856	20	4065
2026-01-15 23:18:51.03	43.31	21.04	-29.6	-30.1	14.6	0.00e+00	0	43	0	299892736	20	3825
2026-01-15 23:18:54.03	43.81	21.35	-29.4	-30.1	15.0	0.00e+00	0	43	0	305135616	19	3910
2026-01-15 23:18:57.02	44.33	21.66	-29.2	-29.6	15.3	0.00e+00	0	43	0	311427072	19	3769
2026-01-15 23:19:00.03	44.86	21.97	-29.2	-29.6	15.3	0.00e+00	0	43	0	316669952	19	3767
2026-01-15 23:19:03.04	45.40	22.29	-28.7	-29.2	15.2	0.00e+00	0	43	0	321912832	19	3808
2026-01-15 23:19:06.04	45.95	22.60	-29.4	-30.0	15.1	0.00e+00	0	43	0	328204288	19	3885
2026-01-15 23:19:09.05	46.52	22.92	-29.4	-30.1	15.0	7.00e-07	0	43	0	333447168	19	3914
2026-01-15 23:19:12.05	47.09	23.24	-29.5	-30.4	14.9	0.00e+00	0	43	0	339738624	19	3993
2026-01-15 23:19:15.05	47.67	23.56	-29.5	-30.3	14.9	0.00e+00	0	43	0	344981504	19	3962
2026-01-15 23:19:18.06	48.27	23.88	-28.7	-28.9	16.1	0.00e+00	0	43	0	350224384	18	3680
2026-01-15 23:19:21.07	48.88	24.20	-28.7	-28.8	16.1	0.00e+00	0	43	0	356515840	18	3663
2026-01-15 23:19:24.07	49.50	24.53	-28.9	-29.3	15.8	1.52e-05	0	44	0	361758720	18	3786
2026-01-15 23:19:27.08	50.14	24.85	-29.1	-29.9	15.5	0.00e+00	0	43	0	367001600	18	3931
2026-01-15 23:19:30.08	50.78	25.17	-29.2	-30.2	15.2	0.00e+00	0	43	0	373293056	18	4024
2026-01-15 23:19:33.08	51.44	25.50	-29.2	-30.1	15.4	0.00e+00	0	43	0	378535936	18	3991
2026-01-15 23:19:36.08	52.12	25.82	-29.1	-29.8	15.6	3.20e-05	0	43	0	384827392	18	3907
2026-01-15 23:19:39.10	52.81	26.14	-29.3	-30.4	15.2	0.00e+00	0	43	0	390070272	18	4062
2026-01-15 23:19:42.10	53.51	26.47	-29.3	-30.4	15.2	4.60e-04	0	43	0	395313152	18	4067
2026-01-15 23:19:45.10	54.22	26.79	-29.5	-30.4	15.0	9.68e-05	0	43	0	401604608	19	3978
2026-01-15 23:19:48.10	54.95	27.11	-29.9	-30.9	14.3	2.20e-06	0	43	0	406847488	20	4036
2026-01-15 23:19:51.10	55.69	27.43	-30.2	-31.7	13.9	6.80e-06	0	43	0	412090368	20	4255
2026-01-15 23:19:54.10	56.45	27.75	-30.6	-32.1	13.2	1.06e-05	0	43	0	418381824	21	4305
2026-01-15 23:19:57.10	57.22	28.06	-30.5	-32.0	13.3	2.21e-05	0	43	0	423624704	21	4280
2026-01-15 23:20:00.11	58.01	28.38	-30.9	-33.0	12.7	4.65e-05	0	43	0	429916160	21	4586
2026-01-15 23:20:03.12	58.82	28.69	-31.3	-33.7	11.8	4.85e-04	0	43	0	435159040	22	4729
2026-01-15 23:20:06.11	59.63	29.00	-31.8	-34.9	10.7	2.20e-03	0	44	0	440401920	23	5105
2026-01-15 23:20:09.12	60.47	29.31	-31.8	-34.7	10.9	1.98e-03	0	43	0	446693376	23	5026
2026-01-15 23:20:12.11	61.32	29.61	-31.9	-35.2	10.5	4.62e-03	0	43	0	451936256	23	5221
2026-01-15 23:20:15.12	62.18	29.91	-31.8	-34.6	10.9	3.47e-03	0	43	0	457179136	23	4981
2026-01-15 23:20:18.12	63.06	30.21	-32.6	-36.4	8.8	1.95e-02	0	44	0	463470592	25	5631
2026-01-15 23:20:21.13	63.97	30.50	-32.4	-35.8	9.2	2.76e-02	0	43	0	468713472	25	5321
2026-01-15 23:20:24.13	64.88	30.79	-32.4	-36.2	9.3	1.63e-02	0	44	0	473956352	24	5624
2026-01-15 23:20:27.12	65.80	31.07	-32.2	-35.3	9.7	1.62e-02	0	43	0	480247808	25	5105
2026-01-15 23:20:30.13	66.75	31.35	-32.1	-35.2	10.0	1.03e-02	0	44	0	485490688	24	5169
2026-01-15 23:20:33.14	67.72	31.62	-31.4	-33.1	11.7	5.35e-04	0	44	0	491782144	24	4342
2026-01-15 23:20:36.16	68.70	31.88	-31.8	-34.8	10.7	1.94e-03	0	43	0	497025024	23	5063
2026-01-15 23:20:39.17	69.70	32.14	-32.0	-34.9	10.3	8.17e-03	0	44	0	502267904	24	5023
2026-01-15 23:20:42.17	70.71	32.39	-31.4	-33.0	11.7	9.37e-04	0	44	0	508559360	24	4303
2026-01-15 23:20:45.17	71.73	32.63	-30.9	-32.6	12.6	8.77e-05	0	44	0	513802240	22	4342
2026-01-15 23:20:48.18	72.77	32.86	-32.3	-35.9	9.6	6.76e-03	0	43	0	519045120	24	5459
2026-01-15 23:20:51.19	73.83	33.09	-32.0	-34.8	10.4	4.76e-03	0	43	0	525336576	24	4994
2026-01-15 23:20:54.20	74.90	33.31	-31.8	-34.2	10.9	2.04e-03	0	43	0	530579456	24	4741
2026-01-15 23:20:57.19	75.98	33.51	-32.5	-36.2	9.0	1.66e-02	0	44	0	536870912	25	5510
2026-01-15 23:21:00.20	77.07	33.71	-32.9	-37.6	7.5	1.07e-01	0	44	0	542113792	26	6159
2026-01-15 23:21:03.20	78.18	33.90	-32.9	-37.2	7.6	9.84e-02	0	43	0	547356672	26	5953
2026-01-15 23:21:06.21	79.30	34.07	-32.9	-37.9	7.5	1.45e-01	0	44	0	553648128	25	6439
2026-01-15 23:21:09.21	80.44	34.24	-32.4	-36.5	9.1	1.83e-02	0	44	0	558891008	24	5744
2026-01-15 23:21:12.21	81.58	34.39	-33.0	-37.9	7.3	1.15e-01	0	44	0	564133888	26	6346
2026-01-15 23:21:15.22	82.73	34.53	-32.8	-37.6	8.0	8.82e-02	0	43	0	570425344	25	6209
2026-01-15 23:21:18.22	83.90	34.66	-32.2	-35.0	9.9	1.32e-02	0	44	0	575668224	25	4960
2026-01-15 23:21:21.22	85.07	34.77	-32.6	-36.4	8.8	3.14e-02	0	44	0	581959680	25	5603
2026-01-15 23:21:24.21	86.24	34.88	-32.7	-36.9	8.4	3.85e-02	0	43	0	587202560	25	5863
2026-01-15 23:21:27.21	87.43	34.97	-32.9	-37.5	7.6	1.08e-01	0	44	0	592445440	26	6094
2026-01-15 23:21:30.21	88.62	35.04	-32.6	-36.1	8.7	3.53e-02	0	44	0	598736896	26	5373
2026-01-15 23:21:33.21	89.82	35.11	-32.9	-37.0	8.0	6.59e-02	0	44	0	603979776	26	5836
2026-01-15 23:21:36.20	91.01	35.16	-33.2	-38.5	7.0	1.97e-01	0	44	0	609222656	26	6678
2026-01-15 23:21:39.22	92.23	35.19	-33.6	-40.7	5.1	5.64e-01	0	44	0	615514112	27	8177
2026-01-15 23:21:42.22	93.43	35.21	-32.9	-36.8	7.7	1.11e-01	0	44	0	620756992	27	5638
2026-01-15 23:21:45.23	94.64	35.22	-31.7	-33.8	11.1	2.01e-03	0	44	0	625999872	24	4577
2026-01-15 23:21:48.24	95.86	35.22	-31.7	-33.7	11.3	1.34e-03	0	44	0	632291328	24	4560
2026-01-15 23:21:51.23	97.06	35.20	-32.7	-37.0	8.5	1.99e-02	0	43	0	637534208	25	5884
2026-01-15 23:21:54.25	98.27	35.16	-32.6	-35.9	8.8	8.99e-02	0	44	0	643825664	26	5285
2026-01-15 23:21:57.26	99.48	35.11	-32.1	-34.7	10.1	5.58e-03	0	44	0	649068544	25	4856
2026-01-15 23:22:00.26	100.68	35.05	-31.7	-33.9	11.1	2.15e-03	0	44	0	654311424	24	4608
2026-01-15 23:22:03.25	101.87	34.98	-33.0	-38.0	7.3	8.27e-02	0	44	0	660602880	26	6351
2026-01-15 23:22:06.26	103.06	34.89	-32.7	-36.6	8.3	7.22e-02	0	44	0	665845760	26	5601
2026-01-15 23:22:09.26	104.24	34.79	-33.2	-38.8	6.6	1.74e-01	0	44	0	671088640	26	6884
2026-01-15 23:22:12.26	105.41	34.67	-32.6	-35.9	8.8	6.67e-02	0	43	0	677380096	26	5297
2026-01-15 23:22:15.26	106.58	34.55	-33.2	-38.9	6.4	2.08e-01	0	44	0	682622976	26	6945
2026-01-15 23:22:18.26	107.73	34.41	-32.9	-37.2	7.8	7.32e-02	0	44	0	688914432	26	5955
2026-01-15 23:22:21.27	108.88	34.25	-33.5	-40.4	5.5	3.58e-01	0	44	0	694157312	26	8013
2026-01-15 23:22:24.27	110.01	34.09	-32.8	-36.9	8.0	6.38e-02	0	44	0	699400192	26	5749
2026-01-15 23:22:27.28	111.14	33.92	-32.7	-36.7	8.2	6.27e-02	0	44	0	705691648	26	5658
2026-01-15 23:22:30.28	112.25	33.73	-31.9	-34.1	10.5	3.02e-03	0	44	0	710934528	25	4642
2026-01-15 23:22:33.27	113.35	33.54	-32.0	-34.8	10.3	6.81e-03	0	44	0	716177408	24	4969
2026-01-15 23:22:36.28	114.44	33.33	-31.3	-33.2	11.9	4.21e-04	0	44	0	722468864	23	4478
2026-01-15 23:22:39.28	115.51	33.11	-31.6	-34.0	11.3	1.81e-03	0	43	0	727711744	23	4752
2026-01-15 23:22:42.28	116.57	32.89	-31.1	-32.6	12.2	1.61e-04	0	44	0	732954624	23	4291
2026-01-15 23:22:45.28	117.61	32.66	-31.9	-34.5	10.5	4.58e-03	0	44	0	739246080	24	4889
2026-01-15 23:22:48.27	118.63	32.41	-30.2	-31.1	13.9	4.50e-06	0	44	0	744488960	21	4009
2026-01-15 23:22:51.28	119.65	32.16	-30.9	-32.5	12.7	1.07e-04	0	44	0	750780416	22	4335
2026-01-15 23:22:54.28	120.65	31.91	-30.8	-32.3	12.7	4.88e-05	0	44	0	756023296	22	4265
2026-01-15 23:22:57.28	121.63	31.64	-31.2	-33.6	11.9	7.97e-04	0	44	0	761266176	22	4707
2026-01-15 23:23:00.28	122.59	31.37	-29.5	-30.0	14.8	0.00e+00	0	44	0	767557632	20	3779
2026-01-15 23:23:03.28	123.54	31.10	-30.8	-32.7	12.8	2.13e-05	0	44	0	772800512	21	4501
2026-01-15 23:23:06.27	124.48	30.81	-30.3	-31.3	13.7	1.14e-05	0	43	0	778043392	21	4069
2026-01-15 23:23:09.27	125.39	30.53	-30.7	-32.4	13.0	2.28e-05	0	44	0	784334848	21	4398
2026-01-15 23:23:12.27	126.30	30.23	-30.2	-31.2	13.8	1.75e-05	0	44	0	789577728	21	4035
2026-01-15 23:23:15.27	127.18	29.94	-29.6	-30.5	14.9	0.00e+00	0	44	0	794820608	19	4012
2026-01-15 23:23:18.28	128.06	29.64	-30.4	-31.7	13.4	6.25e-05	0	44	0	801112064	21	4182
2026-01-15 23:23:21.28	128.91	29.33	-29.6	-30.1	14.7	0.00e+00	0	44	0	806354944	20	3818
2026-01-15 23:23:24.29	129.75	29.02	-31.2	-33.4	11.9	2.10e-04	0	44	0	812646400	22	4659
2026-01-15 23:23:27.29	130.58	28.71	-29.6	-30.1	14.7	7.00e-07	0	44	0	817889280	20	3812
2026-01-15 23:23:30.29	131.38	28.40	-31.1	-33.1	12.1	1.40e-04	0	44	0	823132160	22	4563
2026-01-15 23:23:33.30	132.18	28.08	-30.7	-32.1	12.8	1.01e-04	0	44	0	829423616	22	4220
2026-01-15 23:23:36.31	132.96	27.76	-31.1	-33.3	12.0	2.35e-04	0	44	0	834666496	22	4618
2026-01-15 23:23:39.31	133.72	27.44	-31.3	-33.9	11.5	8.32e-04	0	44	0	839909376	22	4870
2026-01-15 23:23:42.30	134.46	27.12	-31.0	-33.1	12.1	2.46e-04	0	44	0	846200832	22	4567
2026-01-15 23:23:45.30	135.20	26.80	-32.2	-36.4	8.7	2.08e-02	0	44	0	851443712	24	5858
2026-01-15 23:23:48.30	135.91	26.47	-30.4	-31.5	13.1	2.00e-04	0	44	0	857735168	22	4058
2026-01-15 23:23:51.31	136.62	26.15	-30.4	-32.3	13.2	1.06e-05	0	44	0	862978048	20	4482
2026-01-15 23:23:54.32	137.31	25.82	-30.2	-31.4	13.4	4.04e-05	0	44	0	868220928	21	4116
2026-01-15 23:23:57.33	137.99	25.50	-28.8	-28.8	15.7	0.00e+00	0	44	0	874512384	19	3586
2026-01-15 23:24:00.32	138.65	25.17	-29.1	-30.1	15.2	0.00e+00	0	44	0	879755264	18	4009
2026-01-15 23:24:03.32	139.30	24.85	-29.6	-30.6	14.6	0.00e+00	0	44	0	884998144	19	4077
2026-01-15 23:24:06.32	139.94	24.52	-29.9	-31.4	14.1	7.00e-07	0	44	0	891289600	19	4293
2026-01-15 23:24:09.32	140.56	24.20	-30.1	-31.5	13.6	3.00e-06	0	44	0	896532480	20	4247
2026-01-15 23:24:12.32	141.17	23.87	-29.7	-30.9	14.4	7.00e-07	0	44	0	901775360	19	4134
2026-01-15 23:24:15.33	141.77	23.55	-29.2	-29.6	15.2	0.00e+00	0	44	0	908066816	19	3780
2026-01-15 23:24:18.34	142.36	23.23	-29.4	-30.8	14.7	0.00e+00	0	43	0	913309696	18	4208
2026-01-15 23:24:21.34	142.94	22.91	-29.7	-31.0	14.2	7.00e-07	0	43	0	919601152	19	4187
2026-01-15 23:24:24.34	143.50	22.59	-29.5	-30.5	14.5	7.00e-07	0	44	0	924844032	19	4037
2026-01-15 23:24:27.34	144.05	22.27	-29.1	-30.1	15.1	2.51e-05	0	44	0	930086912	18	4020
2026-01-15 23:24:30.35	144.60	21.95	-29.2	-30.4	14.8	0.00e+00	0	44	0	936378368	18	4133
2026-01-15 23:24:33.34	145.13	21.63	-29.5	-30.5	14.4	2.21e-05	0	44	0	941621248	19	4051
2026-01-15 23:24:36.34	145.65	21.32	-29.3	-30.4	14.8	0.00e+00	0	43	0	946864128	18	4117
2026-01-15 23:24:39.35	146.16	21.01	-29.3	-29.9	14.8	0.00e+00	0	44	0	953155584	19	3880
2026-01-15 23:24:42.35	146.66	20.70	-29.7	-31.1	14.1	4.19e-05	0	44	0	958398464	19	4227
2026-01-15 23:24:45.34	147.15	20.39	-29.9	-31.7	13.7	7.00e-07	0	44	0	964689920	19	4401
2026-01-15 23:24:48.34	147.63	20.08	-29.5	-30.6	14.3	1.50e-06	0	44	0	969932800	19	4079
2026-01-15 23:24:51.35	148.11	19.77	-29.5	-30.5	14.3	4.50e-06	0	44	0	975175680	19	4068
2026-01-15 23:24:54.36	148.57	19.47	-29.7	-31.2	13.9	8.30e-06	0	44	0	981467136	19	4283
2026-01-15 23:24:57.37	149.03	19.16	-29.8	-31.4	13.8	1.16e-04	0	43	0	986710016	19	4324
2026-01-15 23:25:00.37	149.47	18.86	-30.1	-31.9	13.1	4.57e-05	0	44	0	991952896	20	4391
2026-01-15 23:25:03.36	149.91	18.57	-30.4	-32.2	12.5	1.79e-04	0	44	0	998244352	21	4400
2026-01-15 23:25:06.36	150.34	18.27	-30.3	-32.3	12.8	9.30e-05	0	44	0	1003487232	20	4531
2026-01-15 23:25:09.36	150.76	17.98	-30.2	-32.2	12.8	8.92e-05	0	44	0	1009778688	20	4499
2026-01-15 23:25:12.37	151.18	17.68	-30.7	-33.0	11.8	4.08e-04	0	44	0	1015021568	21	4701
2026-01-15 23:25:15.37	151.58	17.40	-30.8	-33.2	11.6	8.49e-04	0	44	0	1020264448	21	4783
2026-01-15 23:25:18.37	151.98	17.11	-30.4	-32.3	12.3	3.04e-04	0	44	0	1026555904	21	4452
2026-01-15 23:25:21.37	152.37	16.82	-29.8	-31.0	13.4	9.10e-06	0	44	0	1031798784	20	4145
2026-01-15 23:25:24.38	152.76	16.54	-29.7	-31.2	13.6	1.14e-05	0	44	0	1037041664	19	4294
2026-01-15 23:25:27.38	153.13	16.26	-30.0	-31.6	13.0	3.66e-05	0	44	0	1043333120	20	4341
2026-01-15 23:25:30.39	153.50	15.98	-30.2	-32.3	12.0	1.73e-04	0	44	0	1048576000	20	4570
2026-01-15 23:25:33.39	153.87	15.70	-30.2	-32.6	11.6	2.94e-04	0	44	0	1054867456	20	4700
2026-01-15 23:25:36.39	154.23	15.42	-30.0	-31.7	12.8	5.72e-05	0	44	0	1060110336	20	4398
2026-01-15 23:25:39.38	154.58	15.15	-30.2	-32.3	11.4	2.61e-03	0	44	0	1065353216	20	4573
2026-01-15 23:25:42.37	154.92	14.88	-30.1	-31.9	12.6	6.02e-05	0	44	0	1071644672	20	4426
2026-01-15 23:25:45.37	155.26	14.61	-30.2	-32.0	12.7	8.54e-05	0	44	0	1076887552	20	4472
2026-01-15 23:25:48.36	155.59	14.35	-30.2	-32.0	12.7	1.07e-04	0	44	0	1082130432	20	4463
2026-01-15 23:25:51.36	155.92	14.08	-30.0	-31.6	13.0	3.66e-05	0	44	0	1088421888	20	4324
2026-01-15 23:25:54.36	156.24	13.82	-29.8	-31.6	13.3	3.35e-05	0	44	0	1093664768	19	4429
2026-01-15 23:25:57.35	156.55	13.56	-30.0	-32.0	13.0	2.31e-03	0	44	0	1098907648	19	4582
2026-01-15 23:26:00.34	156.87	13.30	-30.2	-32.3	12.4	2.27e-03	0	44	0	1105199104	20	4604
2026-01-15 23:26:03.35	157.17	13.04	-30.6	-33.3	11.2	7.79e-04	0	44	0	1110441984	21	4907
2026-01-15 23:26:06.35	157.47	12.79	-31.1	-34.3	10.2	3.40e-03	0	44	0	1115684864	22	5200
2026-01-15 23:26:09.35	157.77	12.53	-31.1	-34.4	10.1	5.90e-03	0	44	0	1121976320	22	5255
2026-01-15 23:26:12.35	158.06	12.28	-31.2	-34.6	9.9	9.99e-03	0	44	0	1127219200	22	5329
2026-01-15 23:26:15.36	158.35	12.03	-31.0	-33.8	10.5	7.03e-03	0	44	0	1133510656	22	4982
2026-01-15 23:26:18.37	158.63	11.79	-30.6	-33.0	11.5	3.13e-03	0	44	0	1138753536	21	4759
2026-01-15 23:26:21.37	158.91	11.54	-30.5	-32.8	11.6	3.54e-03	0	44	0	1143996416	21	4693
2026-01-15 23:26:24.37	159.18	11.30	-30.3	-32.7	12.0	3.61e-04	0	44	0	1150287872	20	4743
2026-01-15 23:26:27.36	159.45	11.06	-30.2	-32.5	12.1	3.01e-04	0	44	0	1155530752	20	4695
2026-01-15 23:26:30.37	159.71	10.82	-30.4	-33.3	11.5	3.34e-03	0	43	0	1160773632	20	5006
2026-01-15 23:26:33.36	159.97	10.58	-30.6	-33.3	11.1	3.71e-03	0	44	0	1167065088	21	4934
2026-01-15 23:26:36.38	160.23	10.34	-30.3	-32.7	11.9	2.74e-03	0	44	0	1172307968	20	4781
2026-01-15 23:26:39.38	160.48	10.11	-30.6	-33.2	11.1	3.71e-03	0	44	0	1177550848	21	4866
2026-01-15 23:26:42.40	160.73	9.87	-30.4	-33.1	11.6	3.57e-03	0	44	0	1183842304	20	4925
2026-01-15 23:26:45.40	160.98	9.64	-30.5	-33.5	11.2	3.70e-03	0	44	0	1189085184	20	5110
2026-01-15 23:26:48.40	161.22	9.41	-30.6	-33.4	10.9	1.79e-03	0	44	0	1195376640	21	4978
2026-01-15 23:26:51.39	161.46	9.19	-30.6	-33.6	10.7	4.40e-03	0	44	0	1200619520	21	5072
2026-01-15 23:26:54.40	161.69	8.96	-30.7	-33.7	10.7	5.16e-03	0	44	0	1205862400	21	5098
2026-01-15 23:26:57.39	161.92	8.74	-30.9	-34.3	10.2	9.29e-03	0	44	0	1212153856	21	5348
2026-01-15 23:27:00.39	162.15	8.51	-31.0	-34.3	9.8	1.07e-02	0	44	0	1217396736	22	5240
2026-01-15 23:27:03.39	162.37	8.29	-31.0	-34.2	9.9	8.77e-03	0	44	0	1222639616	22	5213
2026-01-15 23:27:06.39	162.59	8.07	-30.9	-34.0	10.0	1.35e-02	0	44	0	1228931072	22	5134
2026-01-15 23:27:09.39	162.81	7.85	-30.7	-33.7	10.6	3.49e-03	0	44	0	1234173952	21	5094
2026-01-15 23:27:12.40	163.03	7.64	-30.8	-34.2	10.1	9.91e-03	0	44	0	1240465408	21	5319
2026-01-15 23:27:15.42	163.24	7.42	-30.8	-34.4	9.9	1.41e-02	0	44	0	1245708288	21	5414
2026-01-15 23:27:18.42	163.45	7.21	-31.1	-34.9	9.1	1.77e-02	0	44	0	1250951168	22	5601
2026-01-15 23:27:21.42	163.66	7.00	-32.3	-44.9	3.8	1.49e+00	0	44	104	1255145472	25	15400

#Closed at: 2026-01-15 23:27:22
#Recorded file [1255 MB]: D:/data/31010_260116_021610.dat