passes_logs/2026/01/15/R2M6_AANII_01/R2M6_AANII_01__20260115_022607_NOAA_21_JPSS-2_rec.log

#Pass ID: 20260115_022607_NOAA 21 (JPSS-2)
#Satellite: NOAA 21 (JPSS-2)
#Configuration: NOAA 21
#almurnet v.1.7.20240730
#Start time: 2026-01-15 02:34:19

#Version: 2.2.20231116
#Station: R2M6_AANII_01
#Location: 30.233357 lon 59.946436 lat
#TLE: 1 54234U 22150A   26014.16688770  .00000052  00000+0  45394-4 0  9999
#TLE: 2 54234  98.7497 315.0767 0000655 297.6997  62.4113 14.19534648164696

#Time	Az	El	Level	Level2	SNR	BER	BlckErr	Temp	State	Recorded	gain1	gain2
2026-01-15 02:34:19.41	274.06	12.18	-34.5	-54.0	3.8	7.47e-01	0	44	0	0	29	34077
2026-01-15 02:34:20.41	273.92	12.12	-34.5	-46.4	3.8	1.49e+00	0	44	104	0	29	14088
2026-01-15 02:34:21.41	273.78	12.05	-34.5	-46.4	3.8	1.49e+00	0	44	104	0	29	14077
2026-01-15 02:34:22.41	273.64	11.99	-34.5	-46.3	3.8	1.49e+00	0	44	104	0	29	14061
2026-01-15 02:34:23.40	273.51	11.92	-34.5	-46.3	3.8	1.49e+00	0	44	104	0	29	13988
2026-01-15 02:34:24.40	273.37	11.86	-34.5	-46.8	3.8	1.49e+00	0	44	104	0	28	14829
2026-01-15 02:34:25.40	273.23	11.79	-34.5	-46.8	3.8	1.49e+00	0	44	104	0	28	14843
2026-01-15 02:34:26.40	273.09	11.73	-34.4	-46.7	3.8	1.49e+00	0	44	104	0	28	14798
2026-01-15 02:34:27.40	272.96	11.66	-34.5	-46.7	3.8	1.49e+00	0	44	104	0	28	14820
2026-01-15 02:34:28.40	272.82	11.60	-34.4	-46.7	3.8	1.49e+00	0	44	104	0	28	14772
2026-01-15 02:34:29.40	272.69	11.53	-34.4	-46.7	3.8	1.49e+00	0	44	104	0	28	14806
2026-01-15 02:34:30.39	272.55	11.47	-34.4	-46.7	3.8	1.49e+00	0	44	104	0	28	14808
2026-01-15 02:34:31.38	272.42	11.40	-34.4	-46.7	3.8	1.49e+00	0	44	104	0	28	14785
2026-01-15 02:34:32.38	272.29	11.34	-34.5	-46.3	3.8	1.49e+00	0	44	104	0	29	14074
2026-01-15 02:34:33.38	272.16	11.27	-34.6	-46.5	3.8	1.49e+00	0	44	104	0	29	14149
2026-01-15 02:34:34.38	272.03	11.21	-34.5	-46.4	3.8	1.49e+00	0	44	104	0	29	14122
2026-01-15 02:34:35.38	271.89	11.14	-34.4	-46.2	3.8	1.49e+00	0	44	104	0	29	13958
2026-01-15 02:34:36.38	271.76	11.08	-34.4	-46.7	3.8	1.49e+00	0	44	104	0	28	14763
2026-01-15 02:34:37.39	271.63	11.01	-34.4	-46.6	3.8	1.49e+00	0	44	104	0	28	14652
2026-01-15 02:34:38.39	271.50	10.95	-34.4	-46.6	3.8	1.49e+00	0	44	104	0	28	14658
2026-01-15 02:34:39.39	271.37	10.88	-34.3	-46.5	3.8	1.49e+00	0	44	104	0	28	14642
2026-01-15 02:34:40.39	271.25	10.82	-34.3	-46.4	3.8	1.49e+00	0	44	104	0	28	14545
2026-01-15 02:34:41.38	271.12	10.75	-34.3	-46.4	3.8	1.49e+00	0	44	104	0	28	14533
2026-01-15 02:34:42.38	270.99	10.69	-34.3	-46.4	3.8	1.49e+00	0	44	104	0	28	14518
2026-01-15 02:34:43.39	270.86	10.62	-34.2	-46.3	3.8	1.49e+00	0	44	104	0	28	14435
2026-01-15 02:34:44.38	270.74	10.56	-34.2	-46.2	3.8	1.49e+00	0	44	104	0	28	14389
2026-01-15 02:34:45.38	270.61	10.50	-34.1	-46.1	3.8	1.49e+00	0	44	104	0	28	14266
2026-01-15 02:34:46.38	270.49	10.43	-34.0	-45.8	3.8	1.49e+00	0	44	104	0	28	14020
2026-01-15 02:34:47.38	270.36	10.37	-33.9	-46.2	3.8	1.49e+00	0	44	104	0	27	14799
2026-01-15 02:34:48.38	270.24	10.30	-33.7	-45.6	3.8	1.49e+00	0	44	104	0	27	14120
2026-01-15 02:34:49.38	270.12	10.24	-33.5	-45.2	3.8	1.49e+00	0	44	104	0	27	13854
2026-01-15 02:34:50.37	270.00	10.17	-33.2	-45.1	3.8	1.49e+00	0	44	104	0	26	14174
2026-01-15 02:34:51.37	269.87	10.11	-33.2	-45.1	3.8	1.49e+00	0	44	104	0	26	14113
2026-01-15 02:34:52.38	269.75	10.04	-33.2	-45.0	3.8	1.49e+00	0	44	104	0	26	14019
2026-01-15 02:34:53.37	269.63	9.98	-33.2	-44.9	3.8	1.49e+00	0	44	104	0	26	13871
2026-01-15 02:34:54.37	269.51	9.92	-33.2	-44.7	3.8	1.49e+00	0	44	104	0	26	13631
2026-01-15 02:34:55.36	269.39	9.85	-33.1	-44.5	3.8	1.49e+00	0	44	104	0	26	13359
2026-01-15 02:34:56.36	269.27	9.79	-33.1	-44.3	3.8	1.49e+00	0	44	104	0	26	13017
2026-01-15 02:34:57.35	269.15	9.73	-33.1	-44.0	3.8	1.49e+00	0	44	104	0	26	12620
2026-01-15 02:34:58.35	269.04	9.66	-33.0	-43.6	3.8	1.49e+00	0	44	104	0	26	12112
2026-01-15 02:34:59.34	268.92	9.60	-33.0	-43.2	3.8	1.49e+00	0	44	104	0	26	11631
2026-01-15 02:35:00.33	268.80	9.53	-32.9	-43.2	3.9	1.49e+00	0	44	104	0	25	11781
2026-01-15 02:35:01.33	268.69	9.47	-32.8	-42.2	4.1	1.47e+00	0	44	104	0	25	10611
2026-01-15 02:35:02.34	268.57	9.41	-32.8	-42.2	3.9	1.48e+00	0	44	104	0	25	10620
2026-01-15 02:35:03.33	268.45	9.34	-32.7	-41.8	3.9	1.44e+00	0	44	104	0	25	10280
2026-01-15 02:35:04.33	268.34	9.28	-32.7	-40.8	4.4	1.48e+00	0	44	104	0	25	9246
2026-01-15 02:35:05.33	268.22	9.22	-32.6	-41.2	4.0	1.47e+00	0	44	104	0	25	9721
2026-01-15 02:35:06.32	268.11	9.15	-32.6	-40.6	4.5	1.38e+00	0	44	104	0	25	9004
2026-01-15 02:35:07.31	268.00	9.09	-32.6	-41.2	4.0	1.47e+00	0	44	104	0	25	9697
2026-01-15 02:35:08.31	267.89	9.03	-32.6	-40.3	4.6	9.77e-01	0	44	104	0	25	8782
2026-01-15 02:35:09.30	267.77	8.96	-32.5	-40.4	4.0	1.47e+00	0	44	104	0	25	8965
2026-01-15 02:35:10.30	267.66	8.90	-32.3	-39.3	5.3	6.55e-01	0	44	104	0	24	8025
2026-01-15 02:35:11.29	267.55	8.84	-32.0	-37.9	6.0	4.13e-01	0	44	0	2097152	24	7113
2026-01-15 02:35:12.30	267.44	8.77	-31.7	-36.9	6.9	2.11e-01	0	44	0	5242880	23	6598
2026-01-15 02:35:13.30	267.33	8.71	-31.2	-35.3	8.0	8.60e-02	0	44	0	8388608	23	5777
2026-01-15 02:35:14.30	267.22	8.65	-30.8	-34.3	9.1	2.60e-02	0	44	0	11534336	22	5433
2026-01-15 02:35:15.29	267.11	8.58	-30.8	-35.0	9.0	2.42e-02	0	44	0	14680064	21	5814
2026-01-15 02:35:16.29	267.00	8.52	-30.9	-35.3	8.6	3.57e-02	0	44	0	17825792	21	5987
2026-01-15 02:35:17.29	266.89	8.46	-30.7	-34.8	9.1	2.68e-02	0	44	0	20971520	21	5720
2026-01-15 02:35:18.29	266.78	8.39	-30.5	-33.9	9.6	1.49e-02	0	44	0	24117248	21	5378
2026-01-15 02:35:19.29	266.67	8.33	-30.3	-33.9	10.0	9.13e-03	0	44	0	27262976	20	5465
2026-01-15 02:35:20.29	266.57	8.27	-30.1	-33.5	10.3	7.02e-03	0	44	0	30408704	20	5296
2026-01-15 02:35:21.29	266.46	8.21	-30.1	-33.4	10.4	4.60e-03	0	44	0	33554432	20	5266
2026-01-15 02:35:22.29	266.35	8.14	-30.1	-33.2	10.5	3.85e-03	0	44	0	36700160	20	5194
2026-01-15 02:35:23.28	266.25	8.08	-30.1	-33.5	10.3	6.01e-03	0	44	0	39845888	20	5291
2026-01-15 02:35:24.28	266.14	8.02	-30.2	-33.7	10.2	4.92e-03	0	44	0	42991616	20	5373
2026-01-15 02:35:25.28	266.04	7.96	-30.4	-34.4	9.7	1.51e-02	0	44	0	46137344	20	5666
2026-01-15 02:35:26.27	265.93	7.89	-30.0	-33.1	10.6	7.19e-03	0	44	0	49283072	20	5128
2026-01-15 02:35:27.28	265.83	7.83	-28.5	-31.5	10.6	2.10e-03	0	44	0	52428800	19	5106
2026-01-15 02:35:28.29	265.72	7.77	-29.6	-32.4	11.1	9.89e-04	0	44	0	55574528	19	4995
2026-01-15 02:35:29.30	265.62	7.71	-29.8	-32.9	10.4	4.61e-03	0	44	0	58720256	19	5160
2026-01-15 02:35:30.30	265.52	7.64	-29.5	-32.3	11.1	7.73e-04	0	44	0	61865984	19	4948
2026-01-15 02:35:31.31	265.41	7.58	-29.6	-32.5	11.3	3.02e-03	0	44	0	65011712	19	5032
2026-01-15 02:35:32.31	265.31	7.52	-29.5	-32.7	11.5	6.62e-03	0	44	0	68157440	18	5203
2026-01-15 02:35:33.32	265.21	7.46	-29.4	-32.5	11.7	6.92e-04	0	44	0	71303168	18	5134
2026-01-15 02:35:34.32	265.11	7.39	-29.5	-32.2	11.5	1.63e-03	0	44	0	74448896	19	4918
2026-01-15 02:35:35.31	265.01	7.33	-29.6	-32.5	11.3	2.65e-03	0	44	0	77594624	19	5025
2026-01-15 02:35:36.32	264.91	7.27	-29.6	-32.5	11.3	4.89e-03	0	44	0	80740352	19	5043
2026-01-15 02:35:37.32	264.81	7.21	-29.7	-32.8	11.0	4.29e-03	0	44	0	83886080	19	5157
2026-01-15 02:35:38.33	264.71	7.15	-29.5	-32.3	11.4	1.20e-03	0	44	0	87031808	19	4949
2026-01-15 02:35:39.33	264.61	7.08	-31.8	-37.7	6.8	9.20e-04	0	44	0	90177536	23	7134
2026-01-15 02:35:40.33	264.51	7.02	-33.4	-45.6	3.8	1.49e+00	0	44	104	90177536	26	14722

#Closed at: 2026-01-15 02:35:41
#Recorded file [90 MB]: D:/data/31010_260115_053510.dat