passes_logs/2026/01/15/R2M6_AANII_01/R2M6_AANII_01__20260115_003424_FENGYUN_3D_rec.log

#Pass ID: 20260115_003424_FENGYUN 3D
#Satellite: FENGYUN 3D
#Configuration: FENGYUN 3D
#almurnet v.1.7.20240730
#Start time: 2026-01-15 00:34:24

#Version: 2.2.20231116
#Station: R2M6_AANII_01
#Location: 30.233357 lon 59.946436 lat
#TLE: 1 43010U 17072A   26014.22831475  .00000226  00000+0  12883-3 0  9994
#TLE: 2 43010  98.9934 346.0326 0002309 109.2304 250.9121 14.19696287423146

#Time	Az	El	Level	Level2	SNR	BER	BlckErr	Temp	State	Recorded	gain1	gain2
2026-01-15 00:34:24.97	33.50	7.03	-29.3	-32.1	5.6	7.60e-01	0	41	0	0	18	5001
2026-01-15 00:34:27.97	33.83	7.21	-30.8	-34.9	8.3	3.66e-02	0	41	0	5242880	21	5762
2026-01-15 00:34:30.99	34.16	7.38	-29.9	-32.8	10.1	5.24e-03	0	41	0	22020096	20	5018
2026-01-15 00:34:34.01	34.49	7.55	-29.0	-31.4	11.8	3.83e-04	0	41	0	38797312	18	4742
2026-01-15 00:34:37.02	34.83	7.73	-28.3	-30.2	12.9	2.48e-04	0	41	0	56623104	17	4470
2026-01-15 00:34:40.03	35.17	7.90	-27.9	-29.3	13.4	1.91e-04	0	42	0	73400320	17	4204
2026-01-15 00:34:43.05	35.52	8.08	-26.9	-28.0	14.7	0.00e+00	0	42	0	90177536	15	4058
2026-01-15 00:34:46.05	35.87	8.25	-27.0	-28.1	14.6	0.00e+00	0	42	0	106954752	15	4097
2026-01-15 00:34:49.06	36.22	8.43	-27.2	-28.5	14.4	9.61e-05	0	42	0	123731968	15	4197
2026-01-15 00:34:52.05	36.58	8.60	-27.1	-28.3	14.6	0.00e+00	0	42	0	140509184	15	4133
2026-01-15 00:34:55.06	36.94	8.78	-26.9	-28.0	14.7	0.00e+00	0	42	0	157286400	15	4053
2026-01-15 00:34:58.06	37.31	8.95	-26.9	-27.9	14.8	0.00e+00	0	42	0	174063616	15	4038
2026-01-15 00:35:01.07	37.68	9.13	-27.1	-28.4	14.5	0.00e+00	0	42	0	191889408	15	4167
2026-01-15 00:35:04.08	38.05	9.30	-26.9	-27.8	14.9	0.00e+00	0	42	0	208666624	15	4017
2026-01-15 00:35:07.10	38.44	9.48	-26.9	-28.4	14.8	0.00e+00	0	42	0	225443840	14	4276
2026-01-15 00:35:10.11	38.82	9.66	-26.7	-27.9	15.1	0.00e+00	0	42	0	242221056	14	4126
2026-01-15 00:35:13.12	39.21	9.83	-26.9	-28.4	14.9	0.00e+00	0	42	0	258998272	14	4265
2026-01-15 00:35:16.14	39.60	10.01	-26.6	-27.8	15.2	0.00e+00	0	42	0	275775488	14	4098
2026-01-15 00:35:19.14	40.00	10.19	-26.4	-27.2	15.6	0.00e+00	0	42	0	293601280	14	3955
2026-01-15 00:35:22.15	40.40	10.37	-26.2	-27.2	15.8	0.00e+00	0	42	0	310378496	13	4054
2026-01-15 00:35:25.16	40.81	10.54	-26.2	-27.3	15.8	0.00e+00	0	43	0	327155712	13	4070
2026-01-15 00:35:28.18	41.22	10.72	-26.4	-27.7	15.6	0.00e+00	0	43	0	343932928	13	4186
2026-01-15 00:35:31.19	41.64	10.90	-26.5	-27.9	15.5	0.00e+00	0	43	0	360710144	13	4241
2026-01-15 00:35:34.20	42.06	11.08	-26.4	-27.8	15.6	0.00e+00	0	43	0	377487360	13	4204
2026-01-15 00:35:37.20	42.49	11.25	-26.3	-27.6	15.6	0.00e+00	0	43	0	394264576	13	4167
2026-01-15 00:35:40.21	42.92	11.43	-26.4	-27.7	15.6	0.00e+00	0	43	0	411041792	13	4194
2026-01-15 00:35:43.21	43.35	11.61	-26.4	-27.7	15.6	0.00e+00	0	43	0	428867584	13	4191
2026-01-15 00:35:46.21	43.79	11.78	-26.4	-27.8	15.6	0.00e+00	0	43	0	445644800	13	4203
2026-01-15 00:35:49.22	44.24	11.96	-26.6	-28.3	15.3	0.00e+00	0	43	0	462422016	13	4338
2026-01-15 00:35:52.23	44.69	12.13	-26.2	-27.3	15.9	0.00e+00	0	43	0	479199232	13	4090
2026-01-15 00:35:55.23	45.15	12.31	-26.0	-26.9	16.3	0.00e+00	0	43	0	495976448	13	3967
2026-01-15 00:35:58.24	45.61	12.49	-26.0	-26.8	16.3	0.00e+00	0	43	0	512753664	13	3959
2026-01-15 00:36:01.25	46.08	12.66	-26.1	-27.0	16.2	0.00e+00	0	43	0	529530880	13	3996
2026-01-15 00:36:04.26	46.55	12.83	-26.0	-26.9	16.3	0.00e+00	0	43	0	546308096	13	3960
2026-01-15 00:36:07.28	47.04	13.01	-26.2	-27.2	16.1	0.00e+00	0	43	0	564133888	13	4053
2026-01-15 00:36:10.29	47.52	13.18	-26.0	-26.9	16.3	0.00e+00	0	43	0	580911104	13	3972
2026-01-15 00:36:13.29	48.01	13.36	-25.9	-27.1	16.5	2.17e-04	0	43	0	597688320	12	4126
2026-01-15 00:36:16.30	48.50	13.53	-25.9	-27.2	16.4	0.00e+00	0	43	0	614465536	12	4153
2026-01-15 00:36:19.31	49.01	13.70	-25.8	-26.8	16.6	0.00e+00	0	43	0	631242752	12	4045
2026-01-15 00:36:22.32	49.51	13.87	-25.8	-26.8	16.6	4.74e-04	0	43	0	649068544	12	4063
2026-01-15 00:36:25.33	50.03	14.04	-25.7	-26.7	16.7	3.22e-04	0	43	0	665845760	12	4022
2026-01-15 00:36:28.34	50.55	14.21	-25.7	-27.1	16.8	0.00e+00	0	43	0	682622976	11	4244
2026-01-15 00:36:31.35	51.07	14.38	-25.7	-27.1	16.8	3.92e-04	0	43	0	699400192	11	4233
2026-01-15 00:36:34.35	51.60	14.54	-25.7	-27.1	16.8	4.39e-04	0	43	0	716177408	11	4245
2026-01-15 00:36:37.36	52.13	14.71	-25.6	-26.9	17.0	5.25e-04	0	43	0	732954624	11	4178
2026-01-15 00:36:40.38	52.68	14.87	-25.5	-26.7	17.0	0.00e+00	0	43	0	749731840	11	4141
2026-01-15 00:36:43.40	53.23	15.04	-25.9	-27.6	16.6	4.10e-04	0	43	0	766509056	11	4370
2026-01-15 00:36:46.40	53.78	15.20	-25.7	-27.2	16.8	3.60e-04	0	43	0	784334848	11	4274
2026-01-15 00:36:49.41	54.34	15.36	-25.6	-27.0	16.9	0.00e+00	0	43	0	801112064	11	4204
2026-01-15 00:36:52.42	54.90	15.52	-25.4	-26.4	17.2	0.00e+00	0	43	0	817889280	11	4070
2026-01-15 00:36:55.44	55.48	15.68	-25.4	-26.5	17.2	5.17e-04	0	43	0	834666496	11	4086
2026-01-15 00:36:58.46	56.06	15.83	-25.7	-27.0	16.9	0.00e+00	0	43	0	851443712	11	4215
2026-01-15 00:37:01.46	56.64	15.99	-25.6	-27.0	17.0	0.00e+00	0	43	0	868220928	11	4204
2026-01-15 00:37:04.47	57.23	16.14	-25.6	-26.9	17.0	0.00e+00	0	43	0	886046720	11	4170
2026-01-15 00:37:07.49	57.82	16.29	-25.5	-26.6	17.2	0.00e+00	0	43	0	902823936	11	4097
2026-01-15 00:37:10.50	58.42	16.44	-25.3	-26.8	17.3	0.00e+00	0	43	0	919601152	10	4261
2026-01-15 00:37:13.51	59.03	16.58	-25.3	-26.8	17.3	0.00e+00	0	43	0	936378368	10	4268
2026-01-15 00:37:16.51	59.64	16.73	-25.3	-26.8	17.3	0.00e+00	0	43	0	953155584	10	4266
2026-01-15 00:37:19.52	60.26	16.87	-25.2	-26.6	17.4	0.00e+00	0	43	0	969932800	10	4225
2026-01-15 00:37:22.53	60.88	17.01	-25.2	-26.6	17.4	0.00e+00	0	43	0	987758592	10	4218
2026-01-15 00:37:25.54	61.51	17.14	-25.3	-26.7	17.4	0.00e+00	0	43	0	1004535808	10	4245
2026-01-15 00:37:28.56	62.15	17.28	-25.3	-26.8	17.4	0.00e+00	0	43	0	1021313024	10	4262
2026-01-15 00:37:31.57	62.79	17.41	-25.4	-27.0	17.3	0.00e+00	0	43	0	1038090240	10	4321
2026-01-15 00:37:34.58	63.44	17.54	-25.2	-26.0	17.5	0.00e+00	0	43	0	1054867456	11	3966
2026-01-15 00:37:37.59	64.09	17.67	-24.9	-25.8	17.9	0.00e+00	0	43	0	1071644672	10	4013
2026-01-15 00:37:40.60	64.74	17.79	-24.9	-26.0	17.8	0.00e+00	0	43	0	1088421888	10	4062
2026-01-15 00:37:43.61	65.41	17.91	-25.0	-26.2	17.7	0.00e+00	0	43	0	1105199104	10	4112
2026-01-15 00:37:46.63	66.07	18.03	-25.3	-26.7	17.4	0.00e+00	0	43	0	1123024896	10	4247
2026-01-15 00:37:49.63	66.74	18.14	-25.3	-26.3	17.4	0.00e+00	0	43	0	1139802112	11	4021
2026-01-15 00:37:52.63	67.42	18.25	-25.0	-25.7	17.7	2.00e-04	0	43	0	1156579328	11	3877
2026-01-15 00:37:55.64	68.10	18.36	-25.0	-25.7	17.7	0.00e+00	0	43	0	1173356544	11	3887
2026-01-15 00:37:58.65	68.79	18.46	-24.8	-25.2	18.0	0.00e+00	0	43	0	1190133760	11	3763
2026-01-15 00:38:01.67	69.48	18.56	-24.8	-25.8	17.9	9.72e-05	0	43	0	1207959552	10	4008
2026-01-15 00:38:04.67	70.17	18.66	-24.9	-25.9	17.9	1.23e-04	0	43	0	1224736768	10	4036
2026-01-15 00:38:07.68	70.87	18.75	-24.9	-26.0	17.8	0.00e+00	0	44	0	1241513984	10	4056
2026-01-15 00:38:10.70	71.58	18.84	-24.9	-25.8	17.9	5.26e-05	0	43	0	1258291200	10	4020
2026-01-15 00:38:13.72	72.29	18.92	-24.7	-25.5	18.1	1.94e-05	0	43	0	1275068416	10	3932
2026-01-15 00:38:16.72	73.00	19.00	-24.7	-25.6	17.9	0.00e+00	0	43	0	1291845632	10	3975
2026-01-15 00:38:19.74	73.71	19.08	-24.6	-25.3	18.0	9.95e-05	0	43	0	1308622848	10	3922
2026-01-15 00:38:22.74	74.43	19.15	-24.8	-25.8	17.8	1.48e-05	0	43	0	1325400064	10	4023
2026-01-15 00:38:25.74	75.15	19.22	-24.4	-25.0	18.2	3.66e-05	0	43	0	1343225856	10	3839
2026-01-15 00:38:28.76	75.88	19.29	-24.6	-25.5	17.9	0.00e+00	0	43	0	1360003072	10	3950
2026-01-15 00:38:31.77	76.61	19.35	-24.8	-25.7	17.9	0.00e+00	0	43	0	1376780288	10	3998
2026-01-15 00:38:34.78	77.34	19.40	-24.6	-25.3	18.0	5.26e-05	0	43	0	1393557504	10	3907
2026-01-15 00:38:37.80	78.07	19.45	-24.4	-25.0	18.2	0.00e+00	0	43	0	1410334720	10	3826
2026-01-15 00:38:40.81	78.81	19.50	-24.4	-25.0	18.2	0.00e+00	0	43	0	1427111936	10	3835
2026-01-15 00:38:43.81	79.54	19.54	-24.6	-25.3	18.1	0.00e+00	0	43	0	1443889152	10	3899
2026-01-15 00:38:46.82	80.28	19.58	-24.3	-24.7	18.3	0.00e+00	0	44	0	1461714944	10	3765
2026-01-15 00:38:49.83	81.02	19.61	-24.6	-25.8	18.0	0.00e+00	0	43	0	1478492160	9	4132
2026-01-15 00:38:52.84	81.77	19.64	-24.8	-26.3	17.8	0.00e+00	0	44	0	1495269376	9	4280
2026-01-15 00:38:55.84	82.51	19.66	-24.5	-25.7	18.1	0.00e+00	0	43	0	1512046592	9	4116
2026-01-15 00:38:58.84	83.25	19.68	-24.5	-25.7	18.0	0.00e+00	0	43	0	1528823808	9	4125
2026-01-15 00:39:01.84	83.99	19.69	-24.6	-25.8	18.0	0.00e+00	0	43	0	1545601024	9	4145
2026-01-15 00:39:04.85	84.74	19.70	-24.5	-25.6	18.1	0.00e+00	0	44	0	1562378240	9	4105
2026-01-15 00:39:07.86	85.49	19.71	-24.6	-25.7	18.0	0.00e+00	0	43	0	1579155456	9	4124
2026-01-15 00:39:10.87	86.24	19.71	-24.5	-25.6	18.1	0.00e+00	0	43	0	1596981248	9	4090
2026-01-15 00:39:13.88	86.98	19.70	-24.5	-25.7	18.1	0.00e+00	0	43	0	1613758464	9	4111
2026-01-15 00:39:16.88	87.73	19.69	-24.7	-26.0	17.9	0.00e+00	0	44	0	1630535680	9	4190
2026-01-15 00:39:19.89	88.47	19.67	-24.4	-25.5	18.1	0.00e+00	0	44	0	1647312896	9	4061
2026-01-15 00:39:22.89	89.22	19.66	-24.3	-25.2	18.3	0.00e+00	0	43	0	1664090112	9	3997
2026-01-15 00:39:25.90	89.96	19.63	-24.2	-25.0	18.4	0.00e+00	0	43	0	1680867328	9	3948
2026-01-15 00:39:28.90	90.70	19.60	-24.5	-25.7	18.0	0.00e+00	0	43	0	1697644544	9	4115
2026-01-15 00:39:31.91	91.44	19.57	-24.5	-25.7	18.0	0.00e+00	0	43	0	1714421760	9	4127
2026-01-15 00:39:34.92	92.18	19.53	-24.7	-26.1	17.8	0.00e+00	0	43	0	1732247552	9	4236
2026-01-15 00:39:37.94	92.92	19.49	-24.9	-26.4	17.7	0.00e+00	0	44	0	1749024768	9	4313
2026-01-15 00:39:40.94	93.66	19.44	-24.7	-26.2	17.8	0.00e+00	0	43	0	1765801984	9	4237
2026-01-15 00:39:43.97	94.40	19.39	-24.6	-25.9	18.0	0.00e+00	0	43	0	1782579200	9	4159
2026-01-15 00:39:46.98	95.13	19.33	-24.7	-26.1	17.8	0.00e+00	0	43	0	1799356416	9	4214
2026-01-15 00:39:49.98	95.85	19.27	-24.7	-26.2	17.7	0.00e+00	0	43	0	1816133632	9	4248
2026-01-15 00:39:53.00	96.58	19.20	-24.6	-25.8	18.0	0.00e+00	0	44	0	1833959424	9	4141
2026-01-15 00:39:56.01	97.30	19.13	-24.6	-25.8	18.0	0.00e+00	0	43	0	1850736640	9	4138
2026-01-15 00:39:59.02	98.02	19.06	-24.7	-26.1	17.8	0.00e+00	0	44	0	1867513856	9	4214
2026-01-15 00:40:02.04	98.74	18.98	-24.7	-26.0	17.8	0.00e+00	0	44	0	1884291072	9	4203
2026-01-15 00:40:05.05	99.45	18.90	-24.6	-25.9	17.9	0.00e+00	0	44	0	1901068288	9	4177
2026-01-15 00:40:08.05	100.16	18.81	-24.7	-26.1	17.8	0.00e+00	0	44	0	1917845504	9	4213
2026-01-15 00:40:11.06	100.86	18.72	-24.7	-26.1	17.7	2.20e-06	0	44	0	1934622720	9	4229
2026-01-15 00:40:14.07	101.56	18.63	-24.9	-26.5	17.6	0.00e+00	0	43	0	1952448512	9	4327
2026-01-15 00:40:17.08	102.26	18.53	-24.8	-26.3	17.6	0.00e+00	0	44	0	1969225728	9	4284
2026-01-15 00:40:20.09	102.95	18.43	-24.9	-26.6	17.5	0.00e+00	0	44	0	1986002944	9	4348
2026-01-15 00:40:23.10	103.64	18.32	-25.1	-26.4	17.3	0.00e+00	0	44	0	2002780160	10	4191
2026-01-15 00:40:26.12	104.32	18.22	-25.1	-26.4	17.4	0.00e+00	0	44	0	2019557376	10	4177
2026-01-15 00:40:29.13	105.00	18.10	-25.2	-26.7	17.1	0.00e+00	0	44	0	2037383168	10	4273
2026-01-15 00:40:32.14	105.67	17.99	-25.1	-26.4	17.3	0.00e+00	0	44	0	2054160384	10	4202
2026-01-15 00:40:35.16	106.34	17.87	-25.0	-26.2	17.4	0.00e+00	0	43	0	2070937600	10	4136
2026-01-15 00:40:38.17	107.01	17.75	-25.0	-26.3	17.4	0.00e+00	0	43	0	2087714816	10	4164
2026-01-15 00:40:41.18	107.66	17.62	-25.2	-26.5	17.2	0.00e+00	0	43	0	2104492032	10	4222
2026-01-15 00:40:44.18	108.31	17.50	-25.2	-26.6	17.2	0.00e+00	0	43	0	2121269248	10	4241
2026-01-15 00:40:47.19	108.96	17.37	-25.1	-26.5	17.2	0.00e+00	0	43	0	2138046464	10	4215
2026-01-15 00:40:50.19	109.60	17.23	-25.1	-26.5	17.3	0.00e+00	0	44	0	2154823680	10	4206
2026-01-15 00:40:53.20	110.24	17.10	-25.1	-26.4	17.3	0.00e+00	0	43	0	2172649472	10	4180
2026-01-15 00:40:56.21	110.87	16.96	-25.1	-26.5	17.3	0.00e+00	0	44	0	2189426688	10	4204
2026-01-15 00:40:59.22	111.49	16.82	-25.1	-26.5	17.2	0.00e+00	0	43	0	2206203904	10	4226
2026-01-15 00:41:02.24	112.11	16.67	-25.5	-27.3	16.8	0.00e+00	0	44	0	2222981120	10	4421
2026-01-15 00:41:05.25	112.73	16.53	-25.6	-27.0	16.7	0.00e+00	0	43	0	2239758336	11	4244
2026-01-15 00:41:08.26	113.33	16.38	-25.5	-26.9	16.7	0.00e+00	0	43	0	2256535552	11	4203
2026-01-15 00:41:11.27	113.93	16.23	-25.4	-26.5	15.9	0.00e+00	0	43	0	2274361344	11	4110
2026-01-15 00:41:14.28	114.53	16.08	-25.4	-26.7	16.9	0.00e+00	0	44	0	2291138560	11	4145
2026-01-15 00:41:17.30	115.12	15.92	-25.5	-26.9	16.8	0.00e+00	0	44	0	2307915776	11	4197
2026-01-15 00:41:20.30	115.70	15.77	-25.5	-26.8	16.8	1.96e-04	0	44	0	2324692992	11	4174
2026-01-15 00:41:23.31	116.28	15.61	-25.7	-27.3	16.5	0.00e+00	0	43	0	2341470208	11	4310
2026-01-15 00:41:26.33	116.86	15.45	-25.9	-27.6	16.3	0.00e+00	0	43	0	2358247424	11	4408
2026-01-15 00:41:29.34	117.42	15.29	-26.2	-27.8	15.8	1.85e-04	0	44	0	2375024640	12	4356
2026-01-15 00:41:32.35	117.98	15.13	-26.2	-27.9	15.7	2.35e-04	0	44	0	2392850432	12	4382
2026-01-15 00:41:35.36	118.54	14.96	-26.1	-27.7	15.8	0.00e+00	0	44	0	2409627648	12	4327
2026-01-15 00:41:38.38	119.09	14.80	-25.9	-27.2	16.2	2.63e-04	0	44	0	2426404864	12	4185
2026-01-15 00:41:41.39	119.63	14.63	-25.8	-27.4	16.4	5.97e-04	0	44	0	2443182080	11	4351
2026-01-15 00:41:44.40	120.17	14.46	-25.7	-27.2	16.5	3.04e-04	0	44	0	2459959296	11	4299
2026-01-15 00:41:47.41	120.70	14.30	-25.7	-27.2	16.4	4.69e-05	0	44	0	2476736512	11	4288
2026-01-15 00:41:50.41	121.22	14.13	-25.8	-27.5	16.3	1.60e-04	0	44	0	2493513728	11	4378
2026-01-15 00:41:53.41	121.74	13.96	-25.9	-27.7	16.1	3.43e-05	0	44	0	2510290944	11	4433
2026-01-15 00:41:56.41	122.25	13.79	-26.2	-27.9	15.7	0.00e+00	0	44	0	2528116736	12	4365
2026-01-15 00:41:59.42	122.76	13.61	-26.0	-27.5	15.9	0.00e+00	0	44	0	2544893952	12	4261
2026-01-15 00:42:02.44	123.26	13.44	-26.0	-27.5	15.9	1.14e-05	0	44	0	2561671168	12	4266
2026-01-15 00:42:05.44	123.76	13.27	-26.2	-27.8	15.7	0.00e+00	0	43	0	2578448384	12	4338
2026-01-15 00:42:08.45	124.25	13.09	-26.2	-27.9	15.7	0.00e+00	0	43	0	2595225600	12	4363
2026-01-15 00:42:11.46	124.73	12.92	-26.2	-27.9	15.6	0.00e+00	0	43	0	2612002816	12	4382
2026-01-15 00:42:14.46	125.21	12.74	-26.1	-27.6	15.8	3.16e-04	0	44	0	2628780032	12	4294
2026-01-15 00:42:17.46	125.68	12.56	-26.3	-28.0	15.6	0.00e+00	0	44	0	2645557248	12	4408
2026-01-15 00:42:20.47	126.15	12.39	-26.3	-28.2	15.5	0.00e+00	0	44	0	2663383040	12	4450
2026-01-15 00:42:23.49	126.61	12.21	-26.5	-28.1	15.2	0.00e+00	0	44	0	2680160256	13	4335
2026-01-15 00:42:26.49	127.07	12.03	-26.9	-28.5	14.7	0.00e+00	0	44	0	2696937472	14	4301
2026-01-15 00:42:29.49	127.52	11.85	-26.2	-27.4	15.6	0.00e+00	0	43	0	2713714688	13	4132
2026-01-15 00:42:32.49	127.97	11.68	-26.4	-27.8	15.4	0.00e+00	0	44	0	2730491904	13	4236
2026-01-15 00:42:35.50	128.41	11.50	-26.6	-28.4	15.0	0.00e+00	0	44	0	2747269120	13	4404
2026-01-15 00:42:38.50	128.84	11.32	-26.8	-28.7	14.8	0.00e+00	0	44	0	2764046336	13	4480
2026-01-15 00:42:41.52	129.28	11.14	-26.7	-28.5	14.9	0.00e+00	0	44	0	2781872128	13	4440
2026-01-15 00:42:44.54	129.71	10.96	-26.8	-28.7	14.8	0.00e+00	0	44	0	2798649344	13	4483
2026-01-15 00:42:47.55	130.13	10.78	-26.7	-28.4	14.9	0.00e+00	0	43	0	2815426560	13	4414
2026-01-15 00:42:50.57	130.55	10.60	-26.7	-28.5	14.9	0.00e+00	0	43	0	2832203776	13	4420
2026-01-15 00:42:53.58	130.96	10.42	-26.9	-29.0	14.6	0.00e+00	0	44	0	2848980992	13	4583
2026-01-15 00:42:56.59	131.36	10.24	-27.0	-28.8	14.4	0.00e+00	0	44	0	2865758208	14	4427
2026-01-15 00:42:59.61	131.77	10.06	-27.1	-28.9	14.3	0.00e+00	0	43	0	2883584000	14	4451
2026-01-15 00:43:02.62	132.16	9.89	-27.1	-28.8	14.3	0.00e+00	0	44	0	2900361216	14	4427
2026-01-15 00:43:05.63	132.56	9.71	-27.2	-29.3	14.1	3.40e-06	0	44	0	2917138432	14	4539
2026-01-15 00:43:08.63	132.94	9.53	-27.1	-28.9	14.2	8.24e-04	0	44	0	2933915648	14	4456
2026-01-15 00:43:11.63	133.33	9.35	-27.4	-29.6	13.8	5.90e-04	0	44	0	2950692864	14	4667
2026-01-15 00:43:14.65	133.71	9.17	-27.4	-29.6	13.8	1.10e-06	0	44	0	2967470080	14	4657
2026-01-15 00:43:17.66	134.08	8.99	-27.2	-29.1	14.0	2.20e-06	0	44	0	2984247296	14	4512
2026-01-15 00:43:20.67	134.45	8.82	-27.2	-29.3	13.9	4.08e-04	0	44	0	3002073088	14	4564
2026-01-15 00:43:23.66	134.81	8.64	-27.2	-29.2	13.9	3.95e-04	0	44	0	3018850304	14	4546
2026-01-15 00:43:26.68	135.18	8.46	-27.3	-29.5	13.7	4.38e-04	0	44	0	3035627520	14	4647
2026-01-15 00:43:29.69	135.53	8.28	-27.4	-29.7	13.5	3.92e-04	0	44	0	3052404736	14	4713
2026-01-15 00:43:32.70	135.89	8.11	-27.7	-29.9	13.2	3.88e-04	0	44	0	3069181952	15	4642
2026-01-15 00:43:35.69	136.23	7.93	-27.6	-29.7	13.3	3.22e-04	0	44	0	3085959168	15	4579
2026-01-15 00:43:38.70	136.58	7.76	-27.4	-29.3	13.5	3.42e-04	0	44	0	3102736384	15	4471
2026-01-15 00:43:41.71	136.92	7.58	-27.3	-29.1	13.5	4.37e-04	0	44	0	3119513600	15	4439
2026-01-15 00:43:44.72	137.26	7.40	-27.3	-29.6	13.4	4.66e-04	0	44	0	3137339392	14	4714
2026-01-15 00:43:47.73	137.59	7.23	-27.5	-29.5	13.2	6.80e-06	0	44	0	3154116608	15	4565
2026-01-15 00:43:50.74	137.92	7.06	-32.8	-43.9	3.8	8.06e-01	0	44	104	3168796672	25	12860

#Closed at: 2026-01-15 00:43:53
#Recorded file [3168 MB]: D:/data/31010_260115_033426.dat