passes_logs/2026/01/15/R2M6_AANII_01/R2M6_AANII_01__20260115_011511_SUOMI_NPP_rec.log

#Pass ID: 20260115_011511_SUOMI NPP
#Satellite: SUOMI NPP
#Configuration: NPP
#almurnet v.1.7.20240730
#Start time: 2026-01-15 01:15:12

#Version: 2.2.20231116
#Station: R2M6_AANII_01
#Location: 30.233357 lon 59.946436 lat
#TLE: 1 37849U 11061A   26014.11719687  .00000048  00000+0  43625-4 0  9998
#TLE: 2 37849  98.7809 316.1734 0002474  65.2440 294.8994 14.19525043736585

#Time	Az	El	Level	Level2	SNR	BER	BlckErr	Temp	State	Recorded	gain1	gain2
2026-01-15 01:15:12.85	14.28	7.10	-32.0	-37.1	4.9	1.30e+00	0	41	0	0	23	6505
2026-01-15 01:15:15.85	14.16	7.32	-32.3	-38.0	6.6	1.87e-01	0	41	0	1048576	24	6987
2026-01-15 01:15:18.86	14.03	7.55	-32.1	-36.8	7.6	9.90e-02	0	41	0	7340032	24	6202
2026-01-15 01:15:21.88	13.90	7.78	-32.0	-36.3	8.0	6.46e-02	0	41	0	12582912	24	5912
2026-01-15 01:15:24.87	13.78	8.01	-31.1	-35.3	8.7	5.79e-02	0	41	0	17825792	23	5874
2026-01-15 01:15:27.88	13.65	8.25	-31.1	-34.0	9.9	5.62e-03	0	41	0	24117248	22	4988
2026-01-15 01:15:30.89	13.51	8.48	-30.9	-33.7	11.2	9.17e-04	0	41	0	29360128	21	4988
2026-01-15 01:15:33.91	13.38	8.72	-30.9	-33.8	11.2	1.16e-03	0	42	0	35651584	21	4997
2026-01-15 01:15:36.92	13.24	8.96	-31.0	-33.6	11.1	4.61e-03	0	42	0	40894464	22	4824
2026-01-15 01:15:39.92	13.10	9.20	-30.6	-32.8	11.9	3.02e-03	0	42	0	46137344	21	4640
2026-01-15 01:15:42.94	12.95	9.45	-30.5	-32.5	12.1	2.76e-03	0	42	0	52428800	21	4544
2026-01-15 01:15:45.95	12.81	9.69	-30.5	-32.9	12.2	2.14e-04	0	42	0	57671680	20	4770
2026-01-15 01:15:48.96	12.66	9.94	-30.3	-32.5	12.5	1.37e-04	0	42	0	63963136	20	4602
2026-01-15 01:15:51.97	12.51	10.19	-30.3	-32.5	12.6	9.46e-05	0	42	0	69206016	20	4609
2026-01-15 01:15:54.96	12.36	10.44	-30.4	-32.6	12.5	2.76e-03	0	42	0	74448896	20	4648
2026-01-15 01:15:57.96	12.20	10.70	-30.4	-32.6	12.5	2.81e-03	0	42	0	80740352	20	4658
2026-01-15 01:16:00.98	12.04	10.96	-30.3	-32.5	12.6	2.45e-03	0	42	0	85983232	20	4595
2026-01-15 01:16:03.99	11.88	11.22	-30.3	-32.4	12.7	2.78e-03	0	42	0	91226112	20	4586
2026-01-15 01:16:06.99	11.71	11.48	-30.6	-32.6	12.2	2.90e-03	0	42	0	97517568	21	4545
2026-01-15 01:16:10.01	11.54	11.74	-30.3	-32.4	12.7	1.75e-03	0	42	0	102760448	20	4571
2026-01-15 01:16:13.01	11.37	12.01	-30.3	-32.7	12.4	2.87e-03	0	43	0	109051904	20	4752
2026-01-15 01:16:16.02	11.19	12.28	-30.3	-32.8	12.2	2.88e-03	0	42	0	114294784	20	4821
2026-01-15 01:16:19.02	11.01	12.56	-30.5	-32.4	12.4	2.81e-03	0	42	0	119537664	21	4482
2026-01-15 01:16:22.03	10.83	12.83	-30.0	-31.5	13.3	2.66e-03	0	43	0	125829120	20	4282
2026-01-15 01:16:25.04	10.64	13.11	-30.0	-31.6	13.4	2.47e-03	0	43	0	131072000	20	4290
2026-01-15 01:16:28.05	10.45	13.39	-29.9	-31.1	13.6	1.44e-05	0	43	0	136314880	20	4156
2026-01-15 01:16:31.06	10.26	13.68	-29.9	-31.6	13.8	4.50e-06	0	43	0	142606336	19	4392
2026-01-15 01:16:34.06	10.06	13.97	-29.8	-31.5	13.8	7.00e-07	0	43	0	147849216	19	4377
2026-01-15 01:16:37.07	9.86	14.26	-30.0	-31.3	13.6	2.22e-03	0	43	0	154140672	20	4209
2026-01-15 01:16:40.09	9.65	14.55	-30.0	-31.3	13.6	2.46e-03	0	43	0	159383552	20	4197
2026-01-15 01:16:43.09	9.44	14.85	-29.9	-31.0	13.9	2.45e-03	0	43	0	164626432	20	4109
2026-01-15 01:16:46.10	9.22	15.15	-29.8	-30.9	13.9	4.50e-06	0	43	0	170917888	20	4079
2026-01-15 01:16:49.10	9.00	15.45	-29.9	-31.6	13.9	1.50e-06	0	43	0	176160768	19	4359
2026-01-15 01:16:52.11	8.78	15.76	-29.9	-31.1	13.8	7.60e-06	0	43	0	181403648	20	4123
2026-01-15 01:16:55.12	8.55	16.07	-29.9	-31.4	14.1	1.50e-06	0	43	0	187695104	19	4303
2026-01-15 01:16:58.12	8.31	16.39	-30.0	-31.3	13.7	7.00e-07	0	43	0	192937984	20	4182
2026-01-15 01:17:01.13	8.07	16.71	-30.1	-31.5	13.6	8.30e-06	0	43	0	199229440	20	4252
2026-01-15 01:17:04.14	7.82	17.03	-30.3	-32.2	13.2	1.14e-05	0	43	0	204472320	20	4464
2026-01-15 01:17:07.15	7.57	17.35	-30.1	-31.6	13.6	1.06e-05	0	43	0	209715200	20	4274
2026-01-15 01:17:10.16	7.31	17.68	-30.1	-32.0	13.6	4.50e-06	0	43	0	216006656	19	4497
2026-01-15 01:17:13.16	7.05	18.01	-30.3	-32.0	12.3	5.30e-06	0	43	0	221249536	20	4378
2026-01-15 01:17:16.16	6.78	18.35	-30.0	-31.4	13.8	8.30e-06	0	43	0	226492416	20	4193
2026-01-15 01:17:19.18	6.51	18.69	-30.1	-31.6	13.6	3.80e-06	0	43	0	232783872	20	4276
2026-01-15 01:17:22.19	6.22	19.04	-30.4	-32.2	13.3	8.30e-06	0	43	0	238026752	20	4445
2026-01-15 01:17:25.20	5.93	19.39	-30.4	-32.2	13.3	2.55e-03	0	43	0	244318208	20	4460
2026-01-15 01:17:28.22	5.64	19.74	-30.5	-32.2	13.0	2.31e-03	0	43	0	249561088	21	4372
2026-01-15 01:17:31.23	5.33	20.10	-30.2	-31.9	13.5	2.05e-05	0	43	0	254803968	20	4368
2026-01-15 01:17:34.24	5.02	20.46	-30.2	-31.7	13.6	1.67e-05	0	43	0	261095424	20	4298
2026-01-15 01:17:37.25	4.70	20.83	-30.5	-32.5	13.0	3.58e-05	0	43	0	266338304	20	4565
2026-01-15 01:17:40.25	4.38	21.20	-30.4	-32.4	13.1	2.61e-03	0	43	0	272629760	20	4532
2026-01-15 01:17:43.25	4.05	21.57	-30.5	-32.0	13.2	2.61e-03	0	43	0	277872640	21	4297
2026-01-15 01:17:46.25	3.70	21.95	-30.3	-32.0	13.6	2.29e-03	0	43	0	283115520	20	4374
2026-01-15 01:17:49.26	3.35	22.33	-30.5	-32.4	13.3	2.55e-03	0	43	0	289406976	20	4511
2026-01-15 01:17:52.27	2.99	22.72	-30.7	-32.6	12.9	2.63e-03	0	43	0	294649856	21	4463
2026-01-15 01:17:55.27	2.62	23.11	-30.7	-32.6	12.9	6.02e-05	0	43	0	299892736	21	4476
2026-01-15 01:17:58.26	2.24	23.51	-30.9	-33.1	12.5	2.86e-03	0	43	0	306184192	21	4632
2026-01-15 01:18:01.28	1.85	23.91	-30.8	-32.8	12.7	2.60e-03	0	43	0	311427072	21	4534
2026-01-15 01:18:04.28	1.45	24.32	-30.7	-32.6	12.9	2.35e-03	0	43	0	317718528	21	4472
2026-01-15 01:18:07.28	1.04	24.73	-31.1	-33.1	12.3	2.82e-03	0	43	0	322961408	22	4541
2026-01-15 01:18:10.29	0.62	25.15	-31.3	-33.7	11.7	3.25e-03	0	43	0	328204288	22	4773
2026-01-15 01:18:13.30	0.18	25.57	-31.5	-33.9	11.4	3.90e-03	0	43	0	334495744	23	4743
2026-01-15 01:18:16.31	359.74	26.00	-31.0	-33.0	12.3	2.52e-04	0	43	0	339738624	22	4529
2026-01-15 01:18:19.32	359.28	26.43	-30.4	-31.7	13.5	1.75e-05	0	43	0	344981504	21	4186
2026-01-15 01:18:22.32	358.81	26.87	-30.1	-31.4	14.0	2.19e-03	0	43	0	351272960	20	4191
2026-01-15 01:18:25.33	358.32	27.31	-30.2	-31.7	13.9	2.48e-03	0	43	0	356515840	20	4280
2026-01-15 01:18:28.34	357.82	27.75	-30.7	-32.6	13.0	2.44e-03	0	43	0	362807296	21	4476
2026-01-15 01:18:31.35	357.31	28.21	-30.6	-32.4	13.1	4.11e-05	0	43	0	368050176	21	4394
2026-01-15 01:18:34.36	356.78	28.66	-30.6	-32.3	13.1	4.65e-05	0	43	0	373293056	21	4371
2026-01-15 01:18:37.35	356.23	29.12	-31.0	-32.9	12.5	8.16e-05	0	43	0	379584512	22	4472
2026-01-15 01:18:40.36	355.67	29.59	-31.4	-34.0	11.7	4.20e-04	0	43	0	384827392	22	4852
2026-01-15 01:18:43.36	355.10	30.05	-31.2	-33.4	12.1	2.84e-04	0	43	0	390070272	22	4634
2026-01-15 01:18:46.37	354.50	30.53	-31.3	-33.6	12.1	2.37e-03	0	43	0	396361728	22	4695
2026-01-15 01:18:49.38	353.89	31.01	-31.5	-33.7	11.6	9.77e-04	0	43	0	401604608	23	4652
2026-01-15 01:18:52.39	353.26	31.49	-31.1	-33.1	12.4	3.17e-04	0	43	0	407896064	22	4521
2026-01-15 01:18:55.40	352.60	31.98	-31.4	-33.9	11.9	4.82e-04	0	43	0	413138944	22	4820
2026-01-15 01:18:58.40	351.93	32.47	-31.8	-34.1	11.0	4.03e-03	0	43	0	418381824	24	4704
2026-01-15 01:19:01.42	351.24	32.96	-31.7	-34.5	11.1	1.19e-03	0	43	0	424673280	23	4933
2026-01-15 01:19:04.43	350.52	33.46	-31.5	-33.8	11.6	1.25e-03	0	43	0	429916160	23	4682
2026-01-15 01:19:07.44	349.78	33.96	-31.6	-34.1	11.3	1.45e-03	0	43	0	435159040	23	4806
2026-01-15 01:19:10.45	349.02	34.46	-31.5	-33.7	11.5	1.48e-03	0	43	0	441450496	23	4645
2026-01-15 01:19:13.46	348.24	34.97	-31.6	-34.0	11.5	7.88e-04	0	43	0	446693376	23	4752
2026-01-15 01:19:16.47	347.43	35.47	-31.4	-33.5	11.8	3.55e-04	0	43	0	452984832	23	4572
2026-01-15 01:19:19.47	346.60	35.98	-31.4	-33.9	11.8	4.41e-04	0	43	0	458227712	22	4832
2026-01-15 01:19:22.48	345.73	36.49	-32.2	-35.8	9.7	3.55e-03	0	43	0	463470592	24	5424
2026-01-15 01:19:25.49	344.84	37.00	-31.7	-34.1	10.9	4.88e-03	0	43	0	469762048	24	4740
2026-01-15 01:19:28.51	343.92	37.51	-31.6	-34.2	11.2	1.09e-03	0	43	0	475004928	23	4841
2026-01-15 01:19:31.51	342.97	38.01	-31.5	-33.7	11.6	4.58e-04	0	43	0	481296384	23	4659
2026-01-15 01:19:34.51	342.00	38.52	-31.8	-34.6	11.0	1.59e-03	0	43	0	486539264	23	5012
2026-01-15 01:19:37.51	340.99	39.02	-31.7	-34.4	11.0	2.53e-03	0	43	0	491782144	23	4920
2026-01-15 01:19:40.52	339.95	39.52	-32.0	-34.8	10.5	2.21e-03	0	44	0	498073600	24	4992
2026-01-15 01:19:43.52	338.88	40.02	-32.0	-34.9	10.5	3.32e-03	0	43	0	503316480	24	5029
2026-01-15 01:19:46.54	337.77	40.51	-31.9	-34.7	10.5	7.49e-03	0	43	0	508559360	24	4967
2026-01-15 01:19:49.54	336.63	40.99	-31.4	-34.1	11.6	4.98e-04	0	43	0	514850816	22	4922
2026-01-15 01:19:52.55	335.45	41.47	-31.5	-33.8	11.6	6.94e-04	0	43	0	520093696	23	4700
2026-01-15 01:19:55.56	334.24	41.94	-31.4	-33.4	11.9	4.26e-04	0	43	0	526385152	23	4567
2026-01-15 01:19:58.57	332.99	42.41	-32.0	-34.7	10.6	3.73e-03	0	44	0	531628032	24	4960
2026-01-15 01:20:01.57	331.71	42.86	-32.0	-35.0	10.3	5.68e-03	0	43	0	536870912	24	5082
2026-01-15 01:20:04.58	330.39	43.30	-31.5	-33.9	11.4	1.87e-03	0	44	0	543162368	23	4753
2026-01-15 01:20:07.59	329.03	43.72	-30.8	-32.7	13.1	2.67e-05	0	44	0	548405248	21	4476
2026-01-15 01:20:10.59	327.64	44.14	-31.6	-33.9	11.6	5.30e-04	0	43	0	553648128	23	4710
2026-01-15 01:20:13.60	326.21	44.54	-31.9	-34.6	10.7	3.35e-03	0	43	0	559939584	24	4920
2026-01-15 01:20:16.62	324.74	44.92	-30.7	-32.4	13.1	6.40e-05	0	43	0	565182464	21	4416
2026-01-15 01:20:19.62	323.25	45.28	-30.3	-32.0	13.7	4.50e-06	0	43	0	571473920	20	4374
2026-01-15 01:20:22.62	321.71	45.63	-29.7	-30.5	14.7	0.00e+00	0	43	0	576716800	20	3912
2026-01-15 01:20:25.63	320.15	45.95	-30.4	-31.8	13.5	1.14e-05	0	43	0	581959680	21	4219
2026-01-15 01:20:28.63	318.55	46.25	-31.8	-35.0	10.7	2.10e-03	0	43	0	588251136	23	5190
2026-01-15 01:20:31.65	316.91	46.53	-32.6	-37.2	8.2	1.65e-02	0	44	0	593494016	25	6054
2026-01-15 01:20:34.66	315.26	46.79	-31.4	-33.2	11.4	2.04e-03	0	44	0	598736896	24	4436
2026-01-15 01:20:37.67	313.57	47.02	-31.6	-34.5	11.0	8.77e-04	0	44	0	605028352	23	5000
2026-01-15 01:20:40.67	311.87	47.22	-31.6	-33.7	11.3	1.50e-03	0	44	0	610271232	24	4584
2026-01-15 01:20:43.68	310.14	47.40	-31.6	-34.1	11.4	5.82e-04	0	44	0	616562688	23	4811
2026-01-15 01:20:46.68	308.39	47.55	-31.2	-33.6	12.1	3.49e-04	0	43	0	621805568	22	4704
2026-01-15 01:20:49.69	306.63	47.67	-31.1	-33.2	12.1	1.67e-04	0	43	0	627048448	22	4614
2026-01-15 01:20:52.69	304.86	47.76	-30.9	-32.1	12.7	3.91e-04	0	43	0	633339904	23	4139
2026-01-15 01:20:55.70	303.08	47.82	-30.4	-31.4	13.2	7.93e-05	0	43	0	638582784	22	4032
2026-01-15 01:20:58.70	301.29	47.85	-30.2	-31.9	13.7	0.00e+00	0	43	0	643825664	20	4365
2026-01-15 01:21:01.71	299.50	47.85	-31.1	-33.5	11.9	2.27e-04	0	43	0	650117120	22	4742
2026-01-15 01:21:04.72	297.71	47.82	-30.6	-32.2	12.6	2.36e-04	0	44	0	655360000	22	4312
2026-01-15 01:21:07.72	295.93	47.75	-30.2	-31.4	13.5	1.22e-04	0	44	0	661651456	21	4131
2026-01-15 01:21:10.73	294.16	47.66	-30.2	-31.8	13.7	1.30e-04	0	43	0	666894336	20	4352
2026-01-15 01:21:13.73	292.40	47.54	-29.3	-30.0	15.1	2.14e-04	0	44	0	672137216	19	3913
2026-01-15 01:21:16.74	290.65	47.39	-30.3	-32.2	13.4	4.04e-05	0	44	0	678428672	20	4474
2026-01-15 01:21:19.76	288.91	47.21	-30.8	-33.1	12.5	9.83e-04	0	43	0	683671552	21	4692
2026-01-15 01:21:22.77	287.20	47.01	-30.7	-32.9	12.6	2.75e-04	0	44	0	688914432	21	4605
2026-01-15 01:21:25.78	285.52	46.78	-31.1	-33.5	12.0	9.30e-05	0	43	0	695205888	22	4720
2026-01-15 01:21:28.79	283.86	46.52	-30.4	-31.2	13.4	4.50e-05	0	43	0	700448768	22	3974
2026-01-15 01:21:31.80	282.23	46.24	-31.1	-33.4	12.0	1.12e-03	0	44	0	706740224	22	4687
2026-01-15 01:21:34.80	280.63	45.93	-31.2	-33.6	11.8	2.81e-03	0	44	0	711983104	22	4758
2026-01-15 01:21:37.82	279.06	45.61	-31.5	-34.2	11.0	4.10e-03	0	43	0	717225984	23	4923
2026-01-15 01:21:40.83	277.52	45.26	-31.1	-33.4	11.8	2.78e-03	0	43	0	723517440	22	4687
2026-01-15 01:21:43.83	276.02	44.89	-31.0	-33.5	12.3	1.72e-03	0	44	0	728760320	21	4822
2026-01-15 01:21:46.83	274.56	44.51	-30.5	-32.1	13.1	1.22e-04	0	44	0	734003200	21	4352
2026-01-15 01:21:49.84	273.13	44.11	-30.2	-31.8	13.8	1.51e-03	0	44	0	740294656	20	4316
2026-01-15 01:21:52.85	271.74	43.70	-30.4	-31.9	13.2	2.41e-03	0	43	0	745537536	21	4285
2026-01-15 01:21:55.86	270.38	43.27	-30.5	-32.1	13.3	2.33e-03	0	43	0	751828992	21	4302
2026-01-15 01:21:58.87	269.06	42.82	-29.4	-30.2	15.1	1.96e-03	0	44	0	757071872	19	3928
2026-01-15 01:22:01.88	267.77	42.37	-29.3	-30.3	15.4	2.18e-03	0	44	0	762314752	18	4041
2026-01-15 01:22:04.89	266.52	41.90	-29.7	-30.4	14.6	0.00e+00	0	44	0	768606208	20	3908
2026-01-15 01:22:07.90	265.31	41.43	-29.5	-30.4	14.9	0.00e+00	0	43	0	773849088	19	4005
2026-01-15 01:22:10.90	264.13	40.95	-30.4	-32.3	13.5	2.41e-03	0	43	0	779091968	20	4470
2026-01-15 01:22:13.91	262.99	40.46	-30.0	-31.2	14.1	2.43e-03	0	43	0	785383424	20	4127
2026-01-15 01:22:16.92	261.88	39.97	-29.9	-30.8	14.3	2.07e-03	0	44	0	790626304	20	4024
2026-01-15 01:22:19.92	260.81	39.47	-30.3	-32.0	13.6	8.30e-06	0	44	0	796917760	20	4385
2026-01-15 01:22:22.93	259.77	38.97	-29.6	-30.7	14.7	3.80e-06	0	44	0	802160640	19	4063
2026-01-15 01:22:25.94	258.76	38.47	-31.1	-33.2	12.1	1.83e-04	0	43	0	807403520	22	4613
2026-01-15 01:22:28.93	257.78	37.96	-30.0	-30.6	14.0	1.67e-05	0	44	0	813694976	21	3864
2026-01-15 01:22:31.94	256.84	37.45	-30.3	-32.0	13.6	5.30e-06	0	44	0	818937856	20	4364
2026-01-15 01:22:34.95	255.92	36.94	-31.0	-33.1	12.2	2.32e-04	0	43	0	824180736	22	4538
2026-01-15 01:22:37.96	255.02	36.43	-30.9	-32.5	12.6	1.04e-04	0	44	0	830472192	22	4366
2026-01-15 01:22:40.97	254.16	35.92	-32.2	-35.9	9.4	1.14e-02	0	44	0	835715072	24	5513
2026-01-15 01:22:43.99	253.32	35.41	-32.3	-36.5	8.9	2.13e-02	0	44	0	842006528	24	5800
2026-01-15 01:22:46.99	252.51	34.90	-31.8	-34.3	10.7	9.30e-03	0	43	0	847249408	24	4804
2026-01-15 01:22:49.99	251.73	34.40	-31.2	-34.9	9.4	6.64e-03	0	44	0	852492288	24	5515
2026-01-15 01:22:52.99	250.97	33.90	-32.4	-36.8	8.3	2.49e-02	0	44	0	858783744	24	5926
2026-01-15 01:22:56.00	250.23	33.39	-32.2	-35.8	9.3	1.35e-02	0	44	0	864026624	24	5446
2026-01-15 01:22:59.01	249.51	32.89	-32.1	-35.4	9.8	7.42e-03	0	44	0	870318080	24	5268
2026-01-15 01:23:02.03	248.82	32.40	-31.4	-34.0	11.5	3.51e-03	0	44	0	875560960	22	4885
2026-01-15 01:23:05.04	248.14	31.91	-30.9	-33.1	12.5	6.79e-05	0	44	0	880803840	21	4653
2026-01-15 01:23:08.04	247.49	31.42	-31.7	-34.7	10.6	1.60e-03	0	44	0	887095296	23	5083
2026-01-15 01:23:11.05	246.86	30.93	-31.5	-33.9	11.1	2.70e-03	0	44	0	892338176	23	4788
2026-01-15 01:23:14.05	246.25	30.46	-31.4	-34.4	11.2	7.23e-04	0	44	0	897581056	22	5038
2026-01-15 01:23:17.06	245.65	29.98	-31.0	-32.9	12.3	3.38e-03	0	43	0	903872512	22	4464
2026-01-15 01:23:20.07	245.07	29.51	-31.2	-33.6	11.9	2.92e-03	0	44	0	909115392	22	4701
2026-01-15 01:23:23.06	244.51	29.04	-32.0	-35.1	10.0	9.21e-03	0	43	0	915406848	24	5138
2026-01-15 01:23:26.06	243.97	28.58	-31.6	-34.3	11.0	2.75e-03	0	44	0	920649728	23	4868
2026-01-15 01:23:29.07	243.44	28.13	-31.3	-33.8	11.6	3.78e-04	0	43	0	925892608	22	4792
2026-01-15 01:23:32.08	242.92	27.67	-30.5	-32.5	13.3	1.72e-03	0	44	0	932184064	20	4511
2026-01-15 01:23:35.09	242.42	27.22	-31.6	-34.2	11.0	1.93e-03	0	44	0	937426944	23	4866
2026-01-15 01:23:38.10	241.93	26.78	-32.0	-35.1	9.9	6.79e-03	0	43	0	942669824	24	5160
2026-01-15 01:23:41.11	241.46	26.34	-31.3	-32.8	11.6	2.86e-03	0	43	0	948961280	24	4289
2026-01-15 01:23:44.13	240.99	25.91	-31.2	-33.4	12.0	2.23e-04	0	44	0	954204160	22	4657
2026-01-15 01:23:47.13	240.55	25.48	-31.6	-34.3	10.9	2.56e-03	0	44	0	960495616	23	4906
2026-01-15 01:23:50.15	240.11	25.06	-31.3	-33.7	11.6	7.90e-04	0	44	0	965738496	22	4782
2026-01-15 01:23:53.17	239.68	24.64	-30.7	-32.7	12.7	7.70e-05	0	43	0	970981376	21	4505
2026-01-15 01:23:56.17	239.27	24.22	-31.5	-34.1	10.9	2.31e-03	0	44	0	977272832	23	4849
2026-01-15 01:23:59.18	238.87	23.81	-31.7	-34.7	10.5	6.21e-03	0	44	0	982515712	23	5065
2026-01-15 01:24:02.20	238.48	23.41	-30.7	-32.6	12.6	1.33e-03	0	44	0	987758592	21	4491
2026-01-15 01:24:05.20	238.10	23.01	-30.4	-32.3	13.2	1.79e-03	0	44	0	994050048	20	4468
2026-01-15 01:24:08.21	237.72	22.62	-30.2	-31.7	13.6	1.22e-05	0	43	0	999292928	20	4294
2026-01-15 01:24:11.22	237.36	22.23	-30.5	-32.1	13.0	2.28e-05	0	43	0	1005584384	21	4318
2026-01-15 01:24:14.23	237.01	21.84	-30.8	-33.1	12.3	1.39e-04	0	43	0	1010827264	21	4648
2026-01-15 01:24:17.23	236.67	21.46	-30.8	-32.9	12.4	1.14e-04	0	44	0	1016070144	21	4612
2026-01-15 01:24:20.24	236.33	21.09	-30.2	-31.8	13.4	2.05e-05	0	44	0	1022361600	20	4338
2026-01-15 01:24:23.26	236.00	20.71	-30.3	-31.9	13.3	4.20e-04	0	43	0	1027604480	20	4359
2026-01-15 01:24:26.25	235.68	20.35	-30.6	-32.4	12.6	5.56e-05	0	44	0	1032847360	21	4429
2026-01-15 01:24:29.25	235.37	19.99	-31.4	-34.2	11.1	1.27e-03	0	43	0	1039138816	22	4999
2026-01-15 01:24:32.27	235.06	19.63	-31.5	-34.2	10.7	2.86e-03	0	44	0	1044381696	23	4907
2026-01-15 01:24:35.28	234.77	19.27	-31.2	-33.7	11.4	8.22e-04	0	43	0	1050673152	22	4790
2026-01-15 01:24:38.29	234.48	18.92	-31.1	-33.3	11.7	5.50e-04	0	43	0	1055916032	22	4655
2026-01-15 01:24:41.30	234.19	18.58	-31.1	-33.3	11.2	4.74e-04	0	43	0	1061158912	22	4668
2026-01-15 01:24:44.30	233.92	18.24	-30.9	-33.4	11.8	4.32e-04	0	43	0	1067450368	21	4797
2026-01-15 01:24:47.31	233.64	17.90	-30.9	-33.4	11.9	5.43e-04	0	43	0	1072693248	21	4798
2026-01-15 01:24:50.32	233.38	17.57	-30.9	-32.8	12.0	4.33e-04	0	43	0	1078984704	22	4507
2026-01-15 01:24:53.33	233.12	17.24	-30.9	-33.0	11.8	6.93e-04	0	44	0	1084227584	22	4566
2026-01-15 01:24:56.34	232.87	16.91	-31.0	-33.2	11.6	7.48e-04	0	44	0	1089470464	22	4642
2026-01-15 01:24:59.36	232.62	16.59	-31.1	-33.4	11.4	9.03e-04	0	43	0	1095761920	22	4728
2026-01-15 01:25:02.37	232.37	16.27	-30.8	-33.1	12.0	3.29e-04	0	44	0	1101004800	21	4703
2026-01-15 01:25:05.38	232.14	15.95	-31.2	-33.8	11.1	1.63e-03	0	43	0	1106247680	22	4882
2026-01-15 01:25:08.38	231.91	15.64	-31.3	-34.3	10.8	2.52e-03	0	44	0	1112539136	22	5061
2026-01-15 01:25:11.40	231.68	15.33	-31.4	-34.2	10.4	4.11e-03	0	44	0	1117782016	23	4950
2026-01-15 01:25:14.41	231.46	15.03	-31.5	-34.5	10.2	5.15e-03	0	43	0	1124073472	23	5086
2026-01-15 01:25:17.41	231.24	14.73	-31.5	-34.4	10.2	7.98e-03	0	44	0	1129316352	23	5044
2026-01-15 01:25:20.41	231.03	14.43	-31.3	-34.4	10.6	4.36e-03	0	44	0	1134559232	22	5127
2026-01-15 01:25:23.42	230.82	14.13	-31.1	-33.7	11.1	1.66e-03	0	44	0	1140850688	22	4864
2026-01-15 01:25:26.43	230.61	13.84	-30.9	-33.7	11.4	1.51e-03	0	44	0	1146093568	21	4938
2026-01-15 01:25:29.44	230.41	13.55	-30.7	-32.6	11.8	7.93e-04	0	44	0	1151336448	22	4450
2026-01-15 01:25:32.45	230.21	13.27	-30.8	-33.2	11.7	7.97e-04	0	43	0	1157627904	21	4765
2026-01-15 01:25:35.46	230.02	12.99	-30.5	-32.5	12.2	3.16e-04	0	44	0	1162870784	21	4516
2026-01-15 01:25:38.47	229.83	12.71	-30.6	-32.7	12.0	2.97e-04	0	44	0	1169162240	21	4609
2026-01-15 01:25:41.48	229.65	12.43	-30.8	-33.4	11.6	9.23e-04	0	44	0	1174405120	21	4832
2026-01-15 01:25:44.49	229.47	12.15	-30.8	-33.4	11.5	1.34e-03	0	43	0	1179648000	21	4849
2026-01-15 01:25:47.50	229.29	11.88	-31.0	-33.5	11.0	1.71e-03	0	43	0	1185939456	22	4814
2026-01-15 01:25:50.51	229.11	11.61	-31.1	-33.9	10.8	2.42e-03	0	44	0	1191182336	22	4948
2026-01-15 01:25:53.52	228.94	11.35	-31.2	-34.1	10.6	2.97e-03	0	43	0	1197473792	22	5030
2026-01-15 01:25:56.53	228.77	11.09	-31.2	-34.1	10.5	4.27e-03	0	43	0	1202716672	22	5042
2026-01-15 01:25:59.53	228.61	10.83	-31.2	-34.3	10.5	3.27e-03	0	43	0	1207959552	22	5144
2026-01-15 01:26:02.53	228.45	10.57	-31.1	-33.8	10.6	3.53e-03	0	43	0	1214251008	22	4954
2026-01-15 01:26:05.54	228.29	10.31	-31.2	-34.2	10.4	4.05e-03	0	44	0	1219493888	22	5094
2026-01-15 01:26:08.55	228.13	10.06	-31.1	-34.0	10.5	3.93e-03	0	44	0	1224736768	22	5044
2026-01-15 01:26:11.56	227.98	9.81	-31.1	-33.9	10.5	4.72e-03	0	44	0	1231028224	22	4993
2026-01-15 01:26:14.56	227.83	9.56	-31.1	-34.2	10.3	3.95e-03	0	44	0	1236271104	22	5102
2026-01-15 01:26:17.56	227.68	9.31	-31.2	-34.3	10.1	7.37e-03	0	44	0	1242562560	22	5156
2026-01-15 01:26:20.58	227.53	9.07	-31.3	-34.8	9.8	7.69e-03	0	44	0	1247805440	22	5371
2026-01-15 01:26:23.58	227.39	8.83	-29.5	-32.7	10.1	1.02e-02	0	44	0	1253048320	21	5223
2026-01-15 01:26:26.59	227.25	8.59	-31.3	-34.8	9.5	9.35e-03	0	44	0	1259339776	22	5393
2026-01-15 01:26:29.60	227.11	8.35	-31.3	-35.0	9.5	1.62e-02	0	44	0	1264582656	22	5488
2026-01-15 01:26:32.60	226.98	8.11	-31.6	-35.6	8.6	4.91e-02	0	44	0	1269825536	23	5693
2026-01-15 01:26:35.61	226.84	7.88	-31.5	-35.5	8.6	2.90e-02	0	43	0	1276116992	23	5682
2026-01-15 01:26:38.62	226.71	7.65	-31.6	-35.8	8.3	5.99e-02	0	44	0	1281359872	23	5836
2026-01-15 01:26:41.63	226.58	7.42	-31.2	-34.8	9.5	1.72e-02	0	44	0	1287651328	22	5415
2026-01-15 01:26:44.64	226.46	7.19	-31.2	-34.9	9.4	1.50e-02	0	44	0	1292894208	22	5468

#Closed at: 2026-01-15 01:26:47
#Recorded file [1296 MB]: D:/data/31010_260115_041514.dat