passes_logs/2026/01/15/R2M6_AANII_01/R2M6_AANII_01__20260115_153226_FENGYUN_3E_rec.log

#Pass ID: 20260115_153226_FENGYUN 3E
#Satellite: FENGYUN 3E
#Configuration: FENGYUN 3E
#almurnet v.1.7.20240730
#Start time: 2026-01-15 15:32:27

#Version: 2.2.20231116
#Station: R2M6_AANII_01
#Location: 30.233357 lon 59.946436 lat
#TLE: 1 49008U 21062A   26014.58289545 -.00000120  00000+0 -35876-4 0  9998
#TLE: 2 49008  98.7488  19.7165 0002000 137.1107 223.0226 14.19884293234788

#Time	Az	El	Level	Level2	SNR	BER	BlckErr	Temp	State	Recorded	gain1	gain2
2026-01-15 15:32:27.07	190.04	7.05	-26.8	-28.6	5.7	7.51e-01	0	41	0	0	13	4399
2026-01-15 15:32:30.06	190.21	7.26	-28.2	-30.3	11.1	1.36e-03	0	41	0	6291456	16	4572
2026-01-15 15:32:33.08	190.39	7.49	-26.9	-28.2	12.8	2.97e-05	0	42	0	28311552	14	4191
2026-01-15 15:32:36.08	190.57	7.71	-27.2	-28.8	12.5	5.49e-05	0	42	0	50331648	14	4362
2026-01-15 15:32:39.09	190.75	7.93	-26.5	-27.9	13.3	1.02e-05	0	42	0	72351744	13	4206
2026-01-15 15:32:42.10	190.93	8.16	-26.4	-27.5	13.5	4.50e-06	0	42	0	93323264	13	4118
2026-01-15 15:32:45.11	191.12	8.39	-26.3	-27.5	13.5	1.37e-05	0	42	0	115343360	13	4113
2026-01-15 15:32:48.12	191.31	8.62	-26.2	-27.2	13.7	0.00e+00	0	42	0	137363456	13	4029
2026-01-15 15:32:51.12	191.50	8.85	-26.3	-27.5	13.5	1.02e-05	0	42	0	158334976	13	4132
2026-01-15 15:32:54.13	191.70	9.08	-26.1	-27.0	13.9	8.00e-06	0	42	0	180355072	13	3991
2026-01-15 15:32:57.14	191.90	9.32	-26.3	-27.5	13.6	9.10e-06	0	42	0	202375168	13	4110
2026-01-15 15:33:00.14	192.10	9.56	-26.7	-28.3	13.1	4.11e-05	0	42	0	224395264	13	4347
2026-01-15 15:33:03.16	192.31	9.80	-26.8	-28.5	13.1	4.11e-05	0	43	0	245366784	13	4394
2026-01-15 15:33:06.15	192.51	10.04	-26.8	-28.2	13.0	2.40e-05	0	42	0	267386880	14	4204
2026-01-15 15:33:09.15	192.73	10.28	-27.0	-28.6	12.7	5.14e-05	0	42	0	289406976	14	4332
2026-01-15 15:33:12.14	192.94	10.52	-26.5	-27.9	13.4	1.71e-05	0	43	0	310378496	13	4238
2026-01-15 15:33:15.16	193.16	10.77	-26.0	-26.9	14.0	2.20e-06	0	43	0	332398592	13	3968
2026-01-15 15:33:18.16	193.38	11.02	-25.7	-26.7	14.3	0.00e+00	0	42	0	354418688	12	4039
2026-01-15 15:33:21.18	193.61	11.28	-25.8	-26.9	14.2	0.00e+00	0	43	0	376438784	12	4086
2026-01-15 15:33:24.19	193.84	11.53	-25.4	-26.5	14.8	0.00e+00	0	43	0	397410304	11	4080
2026-01-15 15:33:27.18	194.07	11.79	-25.1	-26.3	15.2	0.00e+00	0	43	0	419430400	10	4140
2026-01-15 15:33:30.18	194.31	12.04	-25.3	-26.8	15.0	1.10e-06	0	43	0	440401920	10	4254
2026-01-15 15:33:33.19	194.55	12.31	-25.2	-26.4	15.2	0.00e+00	0	43	0	462422016	10	4158
2026-01-15 15:33:36.19	194.79	12.57	-25.1	-26.4	15.2	0.00e+00	0	43	0	484442112	10	4145
2026-01-15 15:33:39.19	195.04	12.84	-25.0	-26.1	15.4	0.00e+00	0	43	0	505413632	10	4086
2026-01-15 15:33:42.20	195.30	13.10	-24.9	-25.9	15.5	0.00e+00	0	43	0	527433728	10	4040
2026-01-15 15:33:45.19	195.56	13.37	-25.1	-26.3	15.3	0.00e+00	0	43	0	549453824	10	4149
2026-01-15 15:33:48.19	195.82	13.65	-25.1	-26.2	15.3	0.00e+00	0	43	0	570425344	10	4117
2026-01-15 15:33:51.19	196.09	13.92	-25.4	-27.0	14.9	0.00e+00	0	43	0	592445440	10	4330
2026-01-15 15:33:54.19	196.36	14.20	-25.2	-26.0	15.2	0.00e+00	0	43	0	614465536	11	3966
2026-01-15 15:33:57.19	196.64	14.48	-24.9	-25.9	15.5	0.00e+00	0	43	0	635437056	10	4047
2026-01-15 15:34:00.19	196.92	14.76	-24.9	-26.0	15.5	0.00e+00	0	43	0	657457152	10	4056
2026-01-15 15:34:03.19	197.21	15.05	-24.7	-26.0	15.7	0.00e+00	0	43	0	679477248	9	4162
2026-01-15 15:34:06.20	197.50	15.34	-24.5	-25.4	16.1	0.00e+00	0	43	0	700448768	9	4012
2026-01-15 15:34:09.21	197.80	15.63	-24.5	-25.6	16.0	0.00e+00	0	43	0	722468864	9	4046
2026-01-15 15:34:12.20	198.10	15.93	-24.4	-25.3	16.1	0.00e+00	0	43	0	744488960	9	3978
2026-01-15 15:34:15.19	198.41	16.22	-24.3	-24.9	16.4	0.00e+00	0	43	0	765460480	9	3871
2026-01-15 15:34:18.19	198.73	16.52	-24.2	-24.9	16.4	0.00e+00	0	44	0	787480576	9	3869
2026-01-15 15:34:21.20	199.05	16.83	-24.3	-25.0	16.4	0.00e+00	0	43	0	809500672	9	3905
2026-01-15 15:34:24.19	199.38	17.13	-24.2	-24.8	16.5	0.00e+00	0	43	0	830472192	9	3856
2026-01-15 15:34:27.19	199.71	17.44	-24.1	-24.6	16.6	0.00e+00	0	44	0	852492288	9	3815
2026-01-15 15:34:30.20	200.06	17.76	-24.2	-24.7	16.6	0.00e+00	0	44	0	874512384	9	3821
2026-01-15 15:34:33.20	200.40	18.07	-23.8	-24.4	16.9	0.00e+00	0	44	0	895483904	8	3867
2026-01-15 15:34:36.20	200.76	18.39	-23.7	-24.3	17.0	0.00e+00	0	43	0	917504000	8	3837
2026-01-15 15:34:39.21	201.12	18.71	-23.6	-24.0	17.2	0.00e+00	0	43	0	939524096	8	3772
2026-01-15 15:34:42.22	201.50	19.04	-23.5	-23.9	17.3	0.00e+00	0	44	0	961544192	8	3738
2026-01-15 15:34:45.22	201.87	19.36	-23.5	-24.3	17.3	0.00e+00	0	44	0	982515712	7	3938
2026-01-15 15:34:48.22	202.26	19.69	-23.6	-24.4	17.2	0.00e+00	0	44	0	1004535808	7	3985
2026-01-15 15:34:51.21	202.65	20.03	-23.7	-24.7	17.1	0.00e+00	0	44	0	1025507328	7	4045
2026-01-15 15:34:54.22	203.06	20.37	-23.6	-24.6	17.1	1.10e-06	0	44	0	1047527424	7	4020
2026-01-15 15:34:57.22	203.47	20.71	-23.4	-24.1	17.4	0.00e+00	0	43	0	1069547520	7	3916
2026-01-15 15:35:00.22	203.89	21.05	-23.2	-23.6	17.6	0.00e+00	0	44	0	1090519040	7	3792
2026-01-15 15:35:03.21	204.32	21.39	-23.1	-23.5	17.7	0.00e+00	0	44	0	1112539136	7	3767
2026-01-15 15:35:06.20	204.76	21.74	-23.0	-23.7	17.9	0.00e+00	0	44	0	1133510656	6	3906
2026-01-15 15:35:09.20	205.20	22.10	-23.1	-23.8	17.8	0.00e+00	0	43	0	1155530752	6	3935
2026-01-15 15:35:12.19	205.66	22.45	-23.5	-24.9	17.3	0.00e+00	0	44	0	1177550848	6	4210
2026-01-15 15:35:15.20	206.13	22.81	-23.7	-24.8	17.1	0.00e+00	0	44	0	1198522368	7	4067
2026-01-15 15:35:18.20	206.61	23.17	-23.6	-24.5	17.2	0.00e+00	0	44	0	1220542464	7	4001
2026-01-15 15:35:21.20	207.10	23.54	-23.6	-24.6	17.2	0.00e+00	0	44	0	1242562560	7	4021
2026-01-15 15:35:24.20	207.61	23.91	-23.2	-23.8	17.6	0.00e+00	0	44	0	1263534080	7	3839
2026-01-15 15:35:27.21	208.12	24.28	-23.2	-23.7	17.6	0.00e+00	0	44	0	1285554176	7	3832
2026-01-15 15:35:30.21	208.65	24.65	-23.1	-23.6	17.7	0.00e+00	0	44	0	1307574272	7	3793
2026-01-15 15:35:33.23	209.19	25.03	-23.4	-24.1	17.5	0.00e+00	0	44	0	1329594368	7	3911
2026-01-15 15:35:36.23	209.74	25.41	-24.0	-24.4	17.8	0.00e+00	0	44	0	1350565888	8	3736
2026-01-15 15:35:39.23	210.31	25.80	-23.3	-23.3	18.5	0.00e+00	0	44	0	1372585984	7	3610
2026-01-15 15:35:42.24	210.89	26.18	-23.1	-22.8	18.8	0.00e+00	0	44	0	1394606080	7	3494
2026-01-15 15:35:45.23	211.48	26.57	-23.3	-23.3	18.6	0.00e+00	0	44	0	1415577600	7	3606
2026-01-15 15:35:48.23	212.08	26.96	-23.5	-23.7	18.4	0.00e+00	0	44	0	1437597696	7	3694
2026-01-15 15:35:51.24	212.71	27.35	-23.5	-23.8	18.4	0.00e+00	0	44	0	1459617792	7	3707
2026-01-15 15:35:54.23	213.34	27.75	-23.5	-23.6	18.4	0.00e+00	0	44	0	1480589312	7	3672
2026-01-15 15:35:57.23	213.99	28.14	-23.2	-23.1	18.7	0.00e+00	0	44	0	1502609408	7	3567
2026-01-15 15:36:00.23	214.66	28.54	-23.6	-24.0	18.2	0.00e+00	0	44	0	1523580928	7	3769
2026-01-15 15:36:03.22	215.34	28.94	-23.4	-23.5	18.5	0.00e+00	0	44	0	1545601024	7	3640
2026-01-15 15:36:06.23	216.04	29.34	-23.3	-23.2	18.6	0.00e+00	0	44	0	1567621120	7	3584
2026-01-15 15:36:09.24	216.76	29.74	-23.4	-23.6	18.5	0.00e+00	0	44	0	1588592640	7	3662
2026-01-15 15:36:12.22	217.49	30.14	-23.6	-24.0	18.3	0.00e+00	0	44	0	1610612736	7	3752
2026-01-15 15:36:15.23	218.25	30.55	-23.6	-24.0	18.3	0.00e+00	0	44	0	1632632832	7	3763
2026-01-15 15:36:18.22	219.02	30.95	-23.6	-23.9	18.4	0.00e+00	0	44	0	1653604352	7	3732
2026-01-15 15:36:21.23	219.81	31.35	-23.5	-23.7	18.5	0.00e+00	0	44	0	1675624448	7	3684
2026-01-15 15:36:24.22	220.62	31.75	-23.6	-24.0	18.3	0.00e+00	0	44	0	1697644544	7	3756
2026-01-15 15:36:27.23	221.46	32.15	-23.5	-23.7	18.5	0.00e+00	0	44	0	1718616064	7	3689
2026-01-15 15:36:30.23	222.31	32.55	-23.5	-23.6	18.5	0.00e+00	0	44	0	1740636160	7	3675
2026-01-15 15:36:33.22	223.18	32.95	-23.4	-23.4	18.6	0.00e+00	0	44	0	1762656256	7	3621
2026-01-15 15:36:36.22	224.07	33.35	-23.2	-23.0	18.8	0.00e+00	0	44	0	1783627776	7	3544
2026-01-15 15:36:39.22	224.99	33.74	-23.0	-22.7	19.0	0.00e+00	0	44	0	1805647872	7	3466
2026-01-15 15:36:42.22	225.92	34.13	-23.3	-23.3	18.7	0.00e+00	0	44	0	1827667968	7	3602
2026-01-15 15:36:45.23	226.89	34.52	-23.5	-23.7	18.5	0.00e+00	0	44	0	1848639488	7	3681
2026-01-15 15:36:48.23	227.87	34.90	-23.4	-23.4	18.6	0.00e+00	0	44	0	1870659584	7	3630
2026-01-15 15:36:51.23	228.87	35.28	-23.3	-23.2	18.8	0.00e+00	0	44	0	1892679680	7	3584
2026-01-15 15:36:54.22	229.90	35.65	-23.2	-23.1	18.8	0.00e+00	0	44	0	1913651200	7	3549
2026-01-15 15:36:57.22	230.95	36.02	-23.4	-23.6	18.6	0.00e+00	0	44	0	1935671296	7	3671
2026-01-15 15:37:00.22	232.02	36.38	-23.3	-23.2	18.8	0.00e+00	0	44	0	1957691392	7	3580
2026-01-15 15:37:03.23	233.12	36.73	-22.9	-22.5	19.1	0.00e+00	0	44	0	1978662912	7	3439
2026-01-15 15:37:06.23	234.24	37.07	-23.2	-23.1	18.8	0.00e+00	0	44	0	2000683008	7	3561
2026-01-15 15:37:09.23	235.38	37.41	-23.5	-23.7	18.5	0.00e+00	0	44	0	2022703104	7	3685
2026-01-15 15:37:12.24	236.55	37.73	-23.2	-23.0	18.9	0.00e+00	0	44	0	2043674624	7	3543
2026-01-15 15:37:15.24	237.74	38.05	-23.2	-23.2	18.9	0.00e+00	0	44	0	2065694720	7	3565
2026-01-15 15:37:18.23	238.95	38.35	-23.1	-22.8	19.0	0.00e+00	0	44	0	2086666240	7	3490
2026-01-15 15:37:21.23	240.18	38.64	-23.3	-23.3	18.7	0.00e+00	0	44	0	2108686336	7	3592
2026-01-15 15:37:24.23	241.44	38.92	-23.1	-22.8	19.0	0.00e+00	0	44	0	2130706432	7	3495
2026-01-15 15:37:27.23	242.72	39.19	-23.3	-23.4	18.8	0.00e+00	0	44	0	2151677952	7	3617
2026-01-15 15:37:30.24	244.02	39.45	-23.4	-23.4	18.7	0.00e+00	0	44	0	2173698048	7	3625
2026-01-15 15:37:33.24	245.33	39.68	-23.5	-23.7	18.6	0.00e+00	0	44	0	2195718144	7	3690
2026-01-15 15:37:36.24	246.67	39.91	-23.6	-23.9	18.5	0.00e+00	0	44	0	2216689664	7	3715
2026-01-15 15:37:39.23	248.01	40.11	-23.8	-24.3	18.2	0.00e+00	0	44	0	2238709760	7	3823
2026-01-15 15:37:42.24	249.39	40.30	-23.9	-24.6	18.2	0.00e+00	0	44	0	2260729856	7	3879
2026-01-15 15:37:45.22	250.76	40.47	-22.9	-22.5	19.2	0.00e+00	0	44	0	2281701376	7	3439
2026-01-15 15:37:48.23	252.16	40.63	-23.1	-22.9	19.0	0.00e+00	0	44	0	2303721472	7	3507
2026-01-15 15:37:51.22	253.57	40.77	-22.8	-22.8	19.3	0.00e+00	0	44	0	2325741568	6	3591
2026-01-15 15:37:54.24	255.00	40.88	-23.0	-23.2	19.1	0.00e+00	0	44	0	2346713088	6	3677
2026-01-15 15:37:57.25	256.43	40.98	-23.1	-23.3	19.1	0.00e+00	0	44	0	2368733184	6	3700
2026-01-15 15:38:00.24	257.86	41.06	-23.5	-23.6	18.6	0.00e+00	0	44	0	2390753280	7	3668
2026-01-15 15:38:03.25	259.31	41.12	-23.7	-24.1	18.5	0.00e+00	0	44	0	2411724800	7	3770
2026-01-15 15:38:06.27	260.77	41.16	-23.5	-23.7	18.6	0.00e+00	0	44	0	2433744896	7	3699
2026-01-15 15:38:09.27	262.22	41.18	-23.3	-23.4	18.8	0.00e+00	0	44	0	2455764992	7	3611
2026-01-15 15:38:12.27	263.67	41.18	-23.2	-23.0	18.9	0.00e+00	0	44	0	2477785088	7	3528
2026-01-15 15:38:15.28	265.13	41.16	-23.3	-23.2	18.8	0.00e+00	0	44	0	2498756608	7	3587
2026-01-15 15:38:18.28	266.57	41.12	-23.2	-23.1	18.9	0.00e+00	0	44	0	2520776704	7	3544
2026-01-15 15:38:21.29	268.02	41.06	-23.4	-23.4	18.7	0.00e+00	0	44	0	2542796800	7	3624
2026-01-15 15:38:24.29	269.46	40.97	-23.5	-23.7	18.6	0.00e+00	0	44	0	2563768320	7	3680
2026-01-15 15:38:27.30	270.89	40.87	-23.5	-23.8	18.6	0.00e+00	0	44	0	2585788416	7	3704
2026-01-15 15:38:30.32	272.32	40.75	-23.2	-23.1	18.9	0.00e+00	0	44	0	2607808512	7	3545
2026-01-15 15:38:33.31	273.72	40.62	-23.3	-23.3	18.8	0.00e+00	0	44	0	2628780032	7	3599
2026-01-15 15:38:36.32	275.12	40.46	-23.0	-22.6	19.2	0.00e+00	0	44	0	2650800128	7	3442
2026-01-15 15:38:39.33	276.50	40.28	-23.2	-23.1	18.9	0.00e+00	0	44	0	2672820224	7	3552
2026-01-15 15:38:42.35	277.87	40.09	-23.0	-23.2	19.1	0.00e+00	0	44	0	2693791744	6	3665
2026-01-15 15:38:45.35	279.22	39.88	-23.3	-23.7	18.8	0.00e+00	0	44	0	2715811840	6	3784
2026-01-15 15:38:48.35	280.55	39.66	-23.6	-23.9	18.5	0.00e+00	0	44	0	2737831936	7	3732
2026-01-15 15:38:51.35	281.86	39.42	-23.1	-22.9	19.0	0.00e+00	0	44	0	2758803456	7	3506
2026-01-15 15:38:54.35	283.16	39.17	-23.4	-23.4	18.7	0.00e+00	0	44	0	2780823552	7	3628
2026-01-15 15:38:57.36	284.43	38.90	-23.4	-23.4	18.7	0.00e+00	0	44	0	2802843648	7	3627
2026-01-15 15:39:00.35	285.68	38.62	-23.3	-23.3	18.8	0.00e+00	0	44	0	2823815168	7	3594
2026-01-15 15:39:03.35	286.91	38.33	-23.4	-23.4	18.7	0.00e+00	0	44	0	2845835264	7	3622
2026-01-15 15:39:06.36	288.12	38.02	-23.7	-24.2	18.4	0.00e+00	0	44	0	2867855360	7	3799
2026-01-15 15:39:09.38	289.31	37.70	-23.4	-23.5	18.7	0.00e+00	0	44	0	2889875456	7	3636
2026-01-15 15:39:12.39	290.47	37.38	-22.9	-22.9	19.2	0.00e+00	0	44	0	2910846976	6	3604
2026-01-15 15:39:15.39	291.61	37.04	-23.3	-23.7	18.8	0.00e+00	0	44	0	2932867072	6	3781
2026-01-15 15:39:18.40	292.73	36.70	-23.2	-23.5	18.9	0.00e+00	0	44	0	2954887168	6	3755
2026-01-15 15:39:21.41	293.82	36.34	-23.3	-23.9	18.7	0.00e+00	0	44	0	2975858688	6	3831
2026-01-15 15:39:24.41	294.89	35.99	-23.5	-23.8	18.5	0.00e+00	0	44	0	2997878784	7	3695
2026-01-15 15:39:27.42	295.94	35.62	-23.3	-23.2	18.8	0.00e+00	0	44	0	3019898880	7	3582
2026-01-15 15:39:30.42	296.96	35.25	-23.4	-23.4	18.7	0.00e+00	0	44	0	3041918976	7	3620
2026-01-15 15:39:33.42	297.96	34.87	-23.4	-23.5	18.6	0.00e+00	0	44	0	3062890496	7	3652
2026-01-15 15:39:36.42	298.94	34.49	-23.2	-23.1	18.9	0.00e+00	0	44	0	3084910592	7	3553
2026-01-15 15:39:39.44	299.90	34.10	-23.1	-22.7	19.0	0.00e+00	0	44	0	3106930688	7	3474
2026-01-15 15:39:42.44	300.83	33.72	-23.2	-23.0	18.9	0.00e+00	0	44	0	3127902208	7	3532
2026-01-15 15:39:45.45	301.74	33.32	-23.6	-24.0	18.4	0.00e+00	0	44	0	3149922304	7	3749
2026-01-15 15:39:48.46	302.63	32.93	-23.9	-24.1	18.1	0.00e+00	0	44	0	3170893824	8	3678
2026-01-15 15:39:51.46	303.50	32.53	-23.9	-24.0	18.1	0.00e+00	0	44	0	3192913920	8	3659
2026-01-15 15:39:54.46	304.34	32.13	-23.7	-23.6	18.2	0.00e+00	0	44	0	3214934016	8	3554
2026-01-15 15:39:57.47	305.17	31.73	-23.4	-23.1	18.6	0.00e+00	0	44	0	3236954112	8	3454
2026-01-15 15:40:00.48	305.98	31.33	-23.4	-23.5	18.6	0.00e+00	0	44	0	3257925632	7	3645
2026-01-15 15:40:03.49	306.77	30.93	-23.6	-23.9	18.4	0.00e+00	0	44	0	3279945728	7	3738
2026-01-15 15:40:06.49	307.54	30.53	-23.9	-24.5	18.1	0.00e+00	0	44	0	3301965824	7	3866
2026-01-15 15:40:09.49	308.29	30.13	-23.9	-24.5	18.1	0.00e+00	0	44	0	3322937344	7	3877
2026-01-15 15:40:12.50	309.02	29.73	-23.7	-24.2	18.3	0.00e+00	0	44	0	3344957440	7	3785
2026-01-15 15:40:15.51	309.74	29.33	-23.8	-24.4	18.1	0.00e+00	0	44	0	3366977536	7	3838
2026-01-15 15:40:18.50	310.43	28.93	-23.6	-24.0	18.4	0.00e+00	0	44	0	3387949056	7	3755
2026-01-15 15:40:21.50	311.11	28.53	-23.8	-24.4	18.1	0.00e+00	0	44	0	3409969152	7	3839
2026-01-15 15:40:24.49	311.77	28.14	-23.6	-24.0	18.4	0.00e+00	0	44	0	3431989248	7	3753
2026-01-15 15:40:27.50	312.42	27.74	-23.5	-23.6	18.5	0.00e+00	0	44	0	3452960768	7	3673
2026-01-15 15:40:30.51	313.06	27.35	-23.8	-24.3	18.2	0.00e+00	0	44	0	3474980864	7	3810
2026-01-15 15:40:33.51	313.68	26.96	-23.4	-23.6	18.5	0.00e+00	0	44	0	3497000960	7	3661
2026-01-15 15:40:36.52	314.28	26.57	-23.7	-24.1	18.2	0.00e+00	0	44	0	3519021056	7	3774
2026-01-15 15:40:39.53	314.87	26.19	-23.6	-23.8	18.4	0.00e+00	0	44	0	3539992576	7	3716
2026-01-15 15:40:42.53	315.45	25.81	-23.6	-23.9	18.3	0.00e+00	0	44	0	3562012672	7	3731
2026-01-15 15:40:45.53	316.01	25.43	-24.0	-24.3	17.8	0.00e+00	0	44	0	3584032768	8	3725
2026-01-15 15:40:48.55	316.56	25.05	-23.9	-24.0	18.0	0.00e+00	0	44	0	3605004288	8	3651
2026-01-15 15:40:51.55	317.10	24.67	-23.9	-24.0	17.9	0.00e+00	0	44	0	3627024384	8	3666
2026-01-15 15:40:54.54	317.62	24.30	-23.8	-23.8	18.1	0.00e+00	0	44	0	3649044480	8	3619
2026-01-15 15:40:57.54	318.13	23.93	-23.9	-24.0	18.0	0.00e+00	0	44	0	3670016000	8	3650
2026-01-15 15:41:00.55	318.63	23.57	-24.0	-24.2	17.9	0.00e+00	0	44	0	3692036096	8	3706
2026-01-15 15:41:03.55	319.12	23.20	-24.3	-24.9	17.5	0.00e+00	0	44	0	3713007616	8	3855
2026-01-15 15:41:06.56	319.60	22.84	-24.3	-25.0	17.4	0.00e+00	0	44	0	3735027712	8	3881
2026-01-15 15:41:09.56	320.07	22.49	-24.4	-25.0	17.4	0.00e+00	0	44	0	3757047808	8	3892
2026-01-15 15:41:12.57	320.53	22.13	-24.2	-24.7	17.6	0.00e+00	0	44	0	3779067904	8	3814
2026-01-15 15:41:15.58	320.98	21.78	-24.2	-24.8	17.5	0.00e+00	0	44	0	3800039424	8	3822
2026-01-15 15:41:18.57	321.41	21.43	-24.5	-24.8	17.2	0.00e+00	0	44	0	3822059520	9	3739
2026-01-15 15:41:21.58	321.84	21.09	-24.5	-24.9	17.2	0.00e+00	0	44	0	3844079616	9	3758
2026-01-15 15:41:24.59	322.26	20.75	-24.5	-24.9	17.2	0.00e+00	0	44	0	3865051136	9	3757
2026-01-15 15:41:27.59	322.67	20.41	-24.6	-25.1	17.0	0.00e+00	0	44	0	3887071232	9	3806
2026-01-15 15:41:30.59	323.08	20.07	-24.8	-25.4	16.9	0.00e+00	0	44	0	3909091328	9	3880
2026-01-15 15:41:33.60	323.47	19.74	-24.4	-24.6	17.4	0.00e+00	0	44	0	3930062848	9	3679
2026-01-15 15:41:36.61	323.86	19.41	-24.3	-24.4	17.4	0.00e+00	0	44	0	3952082944	9	3642
2026-01-15 15:41:39.61	324.23	19.09	-24.4	-24.7	17.3	0.00e+00	0	44	0	3974103040	9	3697
2026-01-15 15:41:42.62	324.61	18.77	-24.5	-24.8	17.2	0.00e+00	0	44	0	3996123136	9	3742
2026-01-15 15:41:45.62	324.97	18.45	-24.6	-25.2	17.0	0.00e+00	0	44	0	4017094656	9	3817
2026-01-15 15:41:48.63	325.32	18.13	-24.9	-25.7	16.7	0.00e+00	0	44	0	4039114752	9	3953
2026-01-15 15:41:51.62	325.67	17.82	-25.0	-26.0	16.6	0.00e+00	0	44	0	4061134848	9	4008
2026-01-15 15:41:54.64	326.02	17.51	-25.0	-25.8	16.6	0.00e+00	0	44	0	4082106368	9	3974
2026-01-15 15:41:57.65	326.35	17.20	-25.1	-25.5	16.5	1.10e-06	0	44	0	4104126464	10	3802
2026-01-15 15:42:00.64	326.68	16.90	-25.0	-25.5	16.5	0.00e+00	0	44	0	4126146560	10	3789
2026-01-15 15:42:03.64	327.00	16.59	-25.1	-25.6	16.4	0.00e+00	0	44	0	4147118080	10	3813
2026-01-15 15:42:06.64	327.32	16.30	-25.1	-25.7	16.4	0.00e+00	0	44	0	4169138176	10	3827
2026-01-15 15:42:09.64	327.63	16.00	-25.2	-25.8	16.3	0.00e+00	0	44	0	4191158272	10	3863
2026-01-15 15:42:12.65	327.93	15.71	-25.3	-26.0	16.2	0.00e+00	0	44	0	4212129792	10	3905
2026-01-15 15:42:15.65	328.23	15.42	-25.4	-26.3	16.1	0.00e+00	0	44	0	4234149888	10	3975
2026-01-15 15:42:18.65	328.52	15.13	-25.4	-25.8	16.0	0.00e+00	0	44	0	4255121408	11	3752
2026-01-15 15:42:21.65	328.81	14.85	-25.5	-26.0	15.9	0.00e+00	0	44	0	4277141504	11	3802
2026-01-15 15:42:24.65	329.09	14.57	-25.8	-26.5	15.6	0.00e+00	0	44	0	4299161600	11	3937
2026-01-15 15:42:27.65	329.37	14.29	-25.7	-26.5	15.6	0.00e+00	0	44	0	4320133120	11	3926
2026-01-15 15:42:30.66	329.65	14.01	-26.0	-27.1	15.2	0.00e+00	0	44	0	4342153216	11	4093
2026-01-15 15:42:33.67	329.91	13.74	-26.0	-26.5	15.2	0.00e+00	0	44	0	4364173312	12	3834
2026-01-15 15:42:36.67	330.18	13.46	-26.0	-26.5	15.2	0.00e+00	0	44	0	4386193408	12	3839
2026-01-15 15:42:39.68	330.44	13.19	-25.8	-26.0	15.4	0.00e+00	0	44	0	4407164928	12	3721
2026-01-15 15:42:42.69	330.69	12.93	-26.0	-26.7	15.1	0.00e+00	0	44	0	4429185024	12	3885
2026-01-15 15:42:45.70	330.94	12.66	-26.6	-27.5	14.3	1.10e-06	0	44	0	4451205120	13	3971
2026-01-15 15:42:48.70	331.19	12.40	-26.5	-27.3	14.4	1.10e-06	0	44	0	4472176640	13	3922
2026-01-15 15:42:51.71	331.43	12.14	-26.6	-27.4	14.3	1.10e-06	0	44	0	4494196736	13	3966
2026-01-15 15:42:54.72	331.67	11.88	-26.5	-27.3	14.4	0.00e+00	0	44	0	4516216832	13	3936
2026-01-15 15:42:57.73	331.91	11.63	-26.5	-27.1	14.5	0.00e+00	0	44	0	4538236928	13	3893
2026-01-15 15:43:00.74	332.14	11.38	-26.3	-26.9	14.6	0.00e+00	0	44	0	4559208448	13	3822
2026-01-15 15:43:03.73	332.36	11.13	-26.5	-27.3	14.3	0.00e+00	0	44	0	4581228544	13	3927
2026-01-15 15:43:06.73	332.59	10.88	-27.0	-28.2	13.8	4.50e-06	0	44	0	4603248640	13	4174
2026-01-15 15:43:09.74	332.81	10.63	-26.9	-28.1	13.9	1.10e-06	0	44	0	4624220160	13	4129
2026-01-15 15:43:12.75	333.02	10.39	-27.1	-28.0	13.6	6.80e-06	0	44	0	4646240256	14	4007
2026-01-15 15:43:15.74	333.24	10.15	-26.7	-27.3	14.0	1.10e-06	0	44	0	4668260352	14	3828
2026-01-15 15:43:18.75	333.45	9.91	-26.5	-27.2	14.3	0.00e+00	0	44	0	4689231872	13	3908
2026-01-15 15:43:21.75	333.65	9.67	-27.2	-28.3	13.4	1.60e-05	0	44	0	4711251968	14	4088
2026-01-15 15:43:24.74	333.86	9.44	-26.9	-27.7	13.7	4.69e-05	0	44	0	4733272064	14	3942
2026-01-15 15:43:27.74	334.06	9.20	-27.7	-28.9	12.6	8.69e-05	0	44	0	4754243584	15	4162
2026-01-15 15:43:30.74	334.25	8.97	-27.6	-28.7	12.8	5.14e-05	0	44	0	4776263680	15	4095
2026-01-15 15:43:33.74	334.45	8.74	-27.3	-28.0	13.2	4.92e-05	0	44	0	4797235200	15	3919
2026-01-15 15:43:36.73	334.64	8.51	-27.5	-28.5	12.9	3.31e-05	0	44	0	4819255296	15	4040
2026-01-15 15:43:39.74	334.83	8.29	-27.5	-28.5	12.8	1.04e-04	0	44	0	4841275392	15	4056
2026-01-15 15:43:42.75	335.01	8.06	-27.4	-28.3	12.9	3.66e-05	0	44	0	4862246912	15	4000
2026-01-15 15:43:45.76	335.20	7.84	-28.3	-30.0	11.8	2.55e-04	0	44	0	4884267008	16	4359
2026-01-15 15:43:48.77	335.38	7.62	-27.4	-27.7	13.1	6.63e-05	0	44	0	4906287104	16	3749
2026-01-15 15:43:51.77	335.56	7.40	-27.4	-28.4	12.8	3.20e-05	0	44	0	4928307200	15	4036
2026-01-15 15:43:54.78	335.74	7.18	-27.3	-28.6	12.9	2.40e-05	0	44	0	4949278720	14	4190
2026-01-15 15:43:57.78	335.91	6.96	-33.5	-43.4	3.8	8.48e-01	0	44	104	4960813056	26	11274

#Closed at: 2026-01-15 15:43:58
#Recorded file [4960 MB]: D:/data/31010_260115_183228.dat