passes_logs/2026/01/15/R2M6_AANII_01/R2M6_AANII_01__20260115_103815_NOAA_21_JPSS-2_rec.log

#Pass ID: 20260115_103815_NOAA 21 (JPSS-2)
#Satellite: NOAA 21 (JPSS-2)
#Configuration: NOAA 21
#almurnet v.1.7.20240730
#Start time: 2026-01-15 10:38:29

#Version: 2.2.20231116
#Station: R2M6_AANII_01
#Location: 30.233357 lon 59.946436 lat
#TLE: 1 54234U 22150A   26014.16688770  .00000052  00000+0  45394-4 0  9999
#TLE: 2 54234  98.7497 315.0767 0000655 297.6997  62.4113 14.19534648164696

#Time	Az	El	Level	Level2	SNR	BER	BlckErr	Temp	State	Recorded	gain1	gain2
2026-01-15 10:38:29.22	170.41	8.09	-33.9	-44.9	3.8	8.46e-01	0	43	0	0	28	12784
2026-01-15 10:38:32.21	170.48	8.33	-34.4	-46.1	3.8	1.49e+00	0	43	104	0	29	13887
2026-01-15 10:38:35.21	170.55	8.58	-34.4	-46.1	3.8	1.49e+00	0	43	104	0	29	13920
2026-01-15 10:38:38.22	170.63	8.82	-34.4	-46.1	3.8	1.49e+00	0	43	104	0	29	13869
2026-01-15 10:38:41.23	170.71	9.07	-34.3	-46.0	3.8	1.49e+00	0	43	104	0	29	13829
2026-01-15 10:38:44.24	170.78	9.32	-34.3	-46.0	3.8	1.49e+00	0	43	104	0	29	13813
2026-01-15 10:38:47.26	170.86	9.58	-34.3	-46.0	3.8	1.49e+00	0	43	104	0	29	13798
2026-01-15 10:38:50.27	170.94	9.84	-34.3	-45.9	3.8	1.49e+00	0	43	104	0	29	13766
2026-01-15 10:38:53.28	171.02	10.10	-34.1	-45.6	3.8	1.49e+00	0	43	104	0	29	13507
2026-01-15 10:38:56.28	171.10	10.36	-33.9	-45.2	3.8	1.49e+00	0	43	104	0	29	13162
2026-01-15 10:38:59.29	171.19	10.62	-33.9	-45.1	3.8	1.49e+00	0	43	104	0	29	13109
2026-01-15 10:39:02.31	171.27	10.89	-33.6	-45.0	3.8	1.49e+00	0	43	104	0	28	13250
2026-01-15 10:39:05.33	171.36	11.16	-32.1	-38.1	4.8	1.45e+00	0	43	104	0	25	7138
2026-01-15 10:39:08.33	171.44	11.44	-31.3	-35.3	8.4	5.51e-02	0	43	0	6291456	23	5709
2026-01-15 10:39:11.34	171.53	11.71	-29.8	-32.3	11.4	1.48e-03	0	43	0	15728640	20	4840
2026-01-15 10:39:14.35	171.62	11.99	-28.7	-30.6	13.2	1.98e-05	0	43	0	25165824	18	4477
2026-01-15 10:39:17.36	171.72	12.28	-28.1	-29.7	14.0	3.00e-06	0	43	0	34603008	17	4304
2026-01-15 10:39:20.36	171.81	12.56	-28.4	-30.3	13.6	4.50e-06	0	43	0	44040192	17	4500
2026-01-15 10:39:23.36	171.90	12.85	-29.5	-32.5	12.0	2.30e-04	0	43	0	53477376	18	5118
2026-01-15 10:39:26.36	172.00	13.14	-29.2	-31.4	12.4	2.04e-04	0	43	0	62914560	19	4628
2026-01-15 10:39:29.35	172.10	13.44	-28.2	-30.0	13.9	3.80e-06	0	43	0	71303168	17	4397
2026-01-15 10:39:32.35	172.20	13.74	-28.1	-29.7	14.1	3.00e-06	0	43	0	80740352	17	4311
2026-01-15 10:39:35.35	172.30	14.04	-27.9	-29.2	14.3	7.00e-07	0	43	0	90177536	17	4177
2026-01-15 10:39:38.35	172.40	14.35	-28.0	-29.5	14.2	5.30e-06	0	43	0	99614720	17	4262
2026-01-15 10:39:41.36	172.51	14.66	-27.8	-29.5	14.5	7.00e-07	0	43	0	109051904	16	4361
2026-01-15 10:39:44.37	172.62	14.98	-27.8	-29.4	14.6	0.00e+00	0	43	0	118489088	16	4334
2026-01-15 10:39:47.39	172.73	15.30	-27.7	-29.3	14.7	1.50e-06	0	43	0	127926272	16	4316
2026-01-15 10:39:50.40	172.84	15.62	-27.4	-28.4	15.2	0.00e+00	0	43	0	137363456	16	4079
2026-01-15 10:39:53.42	172.96	15.95	-27.3	-28.4	15.2	7.00e-07	0	43	0	146800640	16	4059
2026-01-15 10:39:56.42	173.07	16.28	-27.2	-28.5	15.3	0.00e+00	0	43	0	156237824	15	4186
2026-01-15 10:39:59.43	173.19	16.62	-27.3	-28.7	15.2	0.00e+00	0	43	0	165675008	15	4237
2026-01-15 10:40:02.44	173.32	16.96	-27.1	-28.3	15.5	0.00e+00	0	43	0	175112192	15	4131
2026-01-15 10:40:05.45	173.44	17.31	-27.2	-28.4	15.4	0.00e+00	0	43	0	184549376	15	4165
2026-01-15 10:40:08.47	173.57	17.66	-27.3	-28.7	15.3	0.00e+00	0	43	0	193986560	15	4233
2026-01-15 10:40:11.47	173.70	18.01	-27.2	-28.5	15.4	0.00e+00	0	43	0	203423744	15	4168
2026-01-15 10:40:14.48	173.83	18.38	-27.2	-28.4	15.5	0.00e+00	0	43	0	212860928	15	4150
2026-01-15 10:40:17.48	173.97	18.74	-27.2	-28.5	15.4	0.00e+00	0	43	0	222298112	15	4174
2026-01-15 10:40:20.49	174.11	19.11	-27.2	-28.5	15.4	0.00e+00	0	43	0	231735296	15	4180
2026-01-15 10:40:23.50	174.25	19.49	-27.3	-28.7	15.3	0.00e+00	0	43	0	241172480	15	4236
2026-01-15 10:40:26.52	174.39	19.87	-27.5	-29.1	15.1	0.00e+00	0	43	0	250609664	15	4343
2026-01-15 10:40:29.53	174.54	20.26	-27.6	-29.5	14.9	0.00e+00	0	43	0	260046848	15	4440
2026-01-15 10:40:32.53	174.70	20.66	-27.7	-29.5	14.9	0.00e+00	0	43	0	269484032	15	4452
2026-01-15 10:40:35.53	174.85	21.06	-27.0	-28.1	15.7	0.00e+00	0	43	0	278921216	15	4068
2026-01-15 10:40:38.53	175.01	21.46	-26.9	-27.7	15.9	0.00e+00	0	43	0	288358400	15	3964
2026-01-15 10:40:41.53	175.18	21.88	-26.8	-27.6	16.0	0.00e+00	0	43	0	297795584	15	3946
2026-01-15 10:40:44.55	175.34	22.30	-26.6	-27.7	16.3	0.00e+00	0	43	0	307232768	14	4052
2026-01-15 10:40:47.54	175.52	22.72	-26.4	-27.3	16.5	0.00e+00	0	43	0	316669952	14	3951
2026-01-15 10:40:50.56	175.69	23.16	-26.6	-27.5	16.4	0.00e+00	0	43	0	325058560	14	4004
2026-01-15 10:40:53.55	175.87	23.60	-26.7	-27.8	16.2	0.00e+00	0	43	0	334495744	14	4082
2026-01-15 10:40:56.56	176.06	24.04	-26.5	-27.3	16.5	0.00e+00	0	43	0	343932928	14	3964
2026-01-15 10:40:59.57	176.25	24.50	-26.5	-27.3	16.5	0.00e+00	0	43	0	353370112	14	3973
2026-01-15 10:41:02.59	176.45	24.97	-26.3	-27.5	16.7	0.00e+00	0	43	0	362807296	13	4108
2026-01-15 10:41:05.59	176.65	25.44	-26.4	-27.6	16.6	0.00e+00	0	43	0	372244480	13	4156
2026-01-15 10:41:08.60	176.86	25.92	-26.6	-28.1	16.4	0.00e+00	0	43	0	381681664	13	4273
2026-01-15 10:41:11.61	177.08	26.40	-26.8	-28.6	16.1	0.00e+00	0	43	0	391118848	13	4410
2026-01-15 10:41:14.62	177.30	26.90	-27.1	-28.7	15.8	0.00e+00	0	43	0	400556032	14	4335
2026-01-15 10:41:17.63	177.53	27.41	-27.3	-29.2	15.6	0.00e+00	0	43	0	409993216	14	4450
2026-01-15 10:41:20.64	177.76	27.92	-27.4	-29.3	15.5	0.00e+00	0	43	0	419430400	14	4482
2026-01-15 10:41:23.64	178.00	28.44	-27.5	-29.1	15.4	0.00e+00	0	43	0	428867584	15	4318
2026-01-15 10:41:26.63	178.25	28.97	-27.6	-29.4	15.2	7.00e-07	0	43	0	438304768	15	4400
2026-01-15 10:41:29.64	178.51	29.52	-27.3	-28.5	15.7	7.00e-07	0	43	0	447741952	15	4164
2026-01-15 10:41:32.63	178.78	30.07	-27.1	-28.2	15.9	0.00e+00	0	43	0	457179136	15	4088
2026-01-15 10:41:35.64	179.05	30.63	-27.1	-28.1	16.0	0.00e+00	0	43	0	466616320	15	4061
2026-01-15 10:41:38.64	179.34	31.20	-27.2	-28.4	15.8	0.00e+00	0	43	0	476053504	15	4144
2026-01-15 10:41:41.65	179.63	31.79	-27.3	-28.5	15.7	1.50e-06	0	43	0	485490688	15	4167
2026-01-15 10:41:44.66	179.94	32.38	-27.2	-28.4	15.8	0.00e+00	0	43	0	494927872	15	4136
2026-01-15 10:41:47.67	180.26	32.99	-27.3	-28.5	15.7	0.00e+00	0	43	0	504365056	15	4160
2026-01-15 10:41:50.69	180.58	33.61	-27.7	-29.5	15.2	0.00e+00	0	43	0	513802240	15	4430
2026-01-15 10:41:53.68	180.92	34.24	-28.2	-30.0	14.8	4.50e-06	0	43	0	523239424	16	4470
2026-01-15 10:41:56.68	181.28	34.87	-28.3	-30.3	14.7	0.00e+00	0	43	0	532676608	16	4538
2026-01-15 10:41:59.70	181.65	35.53	-28.4	-30.6	14.5	0.00e+00	0	43	0	542113792	16	4627
2026-01-15 10:42:02.72	182.03	36.20	-28.6	-30.7	14.2	1.50e-06	0	43	0	551550976	17	4538
2026-01-15 10:42:05.73	182.43	36.88	-28.7	-30.8	14.1	3.80e-06	0	43	0	560988160	17	4591
2026-01-15 10:42:08.74	182.84	37.57	-28.8	-31.1	14.0	3.00e-06	0	43	0	570425344	17	4669
2026-01-15 10:42:11.74	183.27	38.27	-28.6	-30.6	14.2	1.50e-06	0	43	0	578813952	17	4532
2026-01-15 10:42:14.74	183.72	38.99	-28.8	-30.9	14.0	3.80e-06	0	43	0	588251136	17	4626
2026-01-15 10:42:17.74	184.19	39.71	-28.5	-30.4	14.4	2.20e-06	0	43	0	597688320	17	4451
2026-01-15 10:42:20.74	184.68	40.46	-28.7	-30.7	14.2	7.00e-07	0	43	0	607125504	17	4556
2026-01-15 10:42:23.75	185.20	41.21	-29.3	-31.6	13.3	2.13e-05	0	43	0	616562688	18	4704
2026-01-15 10:42:26.76	185.74	41.98	-29.7	-32.2	12.8	6.94e-05	0	43	0	625999872	19	4804
2026-01-15 10:42:29.76	186.30	42.77	-29.7	-32.1	12.8	5.49e-05	0	43	0	635437056	19	4767
2026-01-15 10:42:32.76	186.89	43.56	-29.7	-32.3	12.7	4.88e-05	0	43	0	644874240	19	4828
2026-01-15 10:42:35.76	187.51	44.37	-30.1	-32.7	12.1	2.12e-04	0	44	0	654311424	20	4857
2026-01-15 10:42:38.79	188.17	45.20	-30.1	-32.9	12.0	2.31e-04	0	43	0	663748608	20	4920
2026-01-15 10:42:41.80	188.86	46.04	-30.2	-32.9	11.9	4.57e-04	0	43	0	673185792	20	4928
2026-01-15 10:42:44.80	189.59	46.88	-29.8	-32.0	12.5	1.52e-04	0	43	0	682622976	20	4622
2026-01-15 10:42:47.82	190.35	47.75	-29.6	-31.4	12.9	7.55e-05	0	43	0	692060160	20	4449
2026-01-15 10:42:50.82	191.16	48.62	-29.3	-31.2	13.4	1.90e-05	0	43	0	701497344	19	4477
2026-01-15 10:42:53.83	192.02	49.51	-29.3	-31.2	13.4	9.90e-06	0	43	0	710934528	19	4493
2026-01-15 10:42:56.84	192.93	50.40	-29.9	-32.4	12.4	1.15e-04	0	43	0	720371712	20	4747
2026-01-15 10:42:59.85	193.89	51.31	-29.0	-30.5	13.8	3.00e-06	0	43	0	729808896	19	4274
2026-01-15 10:43:02.86	194.91	52.22	-28.7	-30.3	14.3	0.00e+00	0	43	0	739246080	18	4326
2026-01-15 10:43:05.87	196.00	53.15	-28.9	-30.8	14.0	2.20e-06	0	43	0	748683264	18	4460
2026-01-15 10:43:08.88	197.16	54.07	-28.5	-29.8	14.6	0.00e+00	0	44	0	758120448	18	4170
2026-01-15 10:43:11.88	198.39	55.00	-28.4	-29.6	14.7	0.00e+00	0	44	0	767557632	18	4133
2026-01-15 10:43:14.89	199.70	55.94	-28.2	-29.5	15.1	7.00e-07	0	44	0	776994816	17	4198
2026-01-15 10:43:17.90	201.11	56.88	-28.6	-30.5	14.5	0.00e+00	0	44	0	786432000	17	4484
2026-01-15 10:43:20.91	202.61	57.81	-28.3	-29.9	14.9	0.00e+00	0	44	0	795869184	17	4295
2026-01-15 10:43:23.92	204.23	58.74	-27.9	-28.8	15.5	0.00e+00	0	44	0	805306368	17	4005
2026-01-15 10:43:26.93	205.95	59.66	-27.6	-28.6	15.9	0.00e+00	0	44	0	814743552	16	4059
2026-01-15 10:43:29.94	207.81	60.57	-26.4	-27.0	17.2	0.00e+00	0	44	0	824180736	14	3859
2026-01-15 10:43:32.95	209.79	61.47	-27.0	-28.5	16.3	0.00e+00	0	44	0	832569344	14	4252
2026-01-15 10:43:35.95	211.92	62.34	-26.2	-27.1	17.3	0.00e+00	0	44	0	842006528	13	3991
2026-01-15 10:43:38.96	214.21	63.19	-26.1	-27.0	17.4	0.00e+00	0	44	0	851443712	13	3962
2026-01-15 10:43:41.98	216.67	64.01	-26.0	-26.7	17.4	0.00e+00	0	44	0	860880896	13	3897
2026-01-15 10:43:45.00	219.31	64.80	-25.5	-26.2	18.0	0.00e+00	0	44	0	870318080	12	3876
2026-01-15 10:43:48.01	222.13	65.53	-26.4	-28.1	17.0	0.00e+00	0	44	0	879755264	12	4371
2026-01-15 10:43:51.01	225.12	66.22	-26.1	-27.3	17.4	0.00e+00	0	44	0	889192448	12	4169
2026-01-15 10:43:54.01	228.30	66.85	-26.1	-27.4	17.5	0.00e+00	0	44	0	898629632	12	4174
2026-01-15 10:43:57.01	231.66	67.42	-25.7	-26.6	17.8	0.00e+00	0	44	0	908066816	12	3992
2026-01-15 10:44:00.01	235.20	67.92	-25.7	-26.5	17.9	0.00e+00	0	44	0	917504000	12	3957
2026-01-15 10:44:03.02	238.91	68.34	-25.5	-26.2	18.1	0.00e+00	0	44	0	926941184	12	3883
2026-01-15 10:44:06.03	242.76	68.67	-26.0	-27.3	17.6	0.00e+00	0	44	0	936378368	12	4153
2026-01-15 10:44:09.03	246.72	68.91	-26.5	-27.8	16.9	0.00e+00	0	44	0	945815552	13	4183
2026-01-15 10:44:12.03	250.75	69.06	-26.5	-27.9	17.0	0.00e+00	0	44	0	955252736	13	4206
2026-01-15 10:44:15.03	254.82	69.11	-26.2	-27.2	17.3	0.00e+00	0	44	0	964689920	13	4016
2026-01-15 10:44:18.04	258.91	69.07	-26.6	-28.0	16.8	0.00e+00	0	44	0	974127104	13	4249
2026-01-15 10:44:21.06	262.98	68.92	-26.7	-28.2	16.8	0.00e+00	0	44	0	983564288	13	4289
2026-01-15 10:44:24.06	266.93	68.68	-26.5	-27.8	17.0	0.00e+00	0	44	0	993001472	13	4168
2026-01-15 10:44:27.06	270.78	68.36	-25.9	-26.4	17.7	0.00e+00	0	44	0	1002438656	13	3828
2026-01-15 10:44:30.06	274.48	67.94	-26.5	-27.7	17.1	0.00e+00	0	44	0	1011875840	13	4154
2026-01-15 10:44:33.07	278.04	67.45	-25.6	-26.4	18.0	0.00e+00	0	44	0	1021313024	12	3922
2026-01-15 10:44:36.09	281.43	66.88	-26.6	-27.9	17.0	0.00e+00	0	44	0	1030750208	13	4213
2026-01-15 10:44:39.08	284.60	66.26	-26.7	-28.3	16.8	0.00e+00	0	44	0	1040187392	13	4313
2026-01-15 10:44:42.09	287.61	65.57	-26.9	-28.6	16.6	0.00e+00	0	44	0	1049624576	13	4403
2026-01-15 10:44:45.11	290.44	64.83	-27.1	-28.7	16.3	0.00e+00	0	44	0	1059061760	14	4298
2026-01-15 10:44:48.12	293.07	64.05	-26.6	-27.4	17.0	0.00e+00	0	44	0	1068498944	14	3963
2026-01-15 10:44:51.13	295.53	63.24	-26.8	-27.9	16.7	0.00e+00	0	44	0	1077936128	14	4101
2026-01-15 10:44:54.15	297.83	62.39	-25.0	-27.3	15.3	0.00e+00	0	44	0	1086324736	11	4665
2026-01-15 10:44:57.15	299.97	61.52	-26.8	-29.3	15.2	0.00e+00	0	44	0	1095761920	13	4772
2026-01-15 10:45:00.16	301.96	60.63	-26.4	-27.6	16.8	0.00e+00	0	44	0	1105199104	13	4166
2026-01-15 10:45:03.17	303.81	59.72	-27.9	-30.0	15.3	0.00e+00	0	44	0	1114636288	15	4566
2026-01-15 10:45:06.17	305.54	58.81	-27.9	-29.4	15.6	0.00e+00	0	44	0	1124073472	16	4258
2026-01-15 10:45:09.18	307.15	57.88	-28.7	-30.6	14.7	0.00e+00	0	44	0	1133510656	17	4504
2026-01-15 10:45:12.18	308.66	56.96	-28.6	-30.5	14.7	3.00e-06	0	44	0	1142947840	17	4459
2026-01-15 10:45:15.19	310.07	56.02	-27.8	-29.0	15.8	0.00e+00	0	44	0	1152385024	16	4168
2026-01-15 10:45:18.18	311.38	55.10	-29.3	-31.7	13.7	9.90e-06	0	44	0	1161822208	18	4718
2026-01-15 10:45:21.19	312.62	54.17	-29.7	-31.6	12.9	7.09e-05	0	44	0	1171259392	20	4476
2026-01-15 10:45:24.20	313.78	53.24	-28.1	-29.3	15.4	0.00e+00	0	44	0	1180696576	17	4118
2026-01-15 10:45:27.21	314.87	52.32	-29.1	-31.1	14.1	6.80e-06	0	44	0	1190133760	18	4529
2026-01-15 10:45:30.22	315.89	51.41	-30.4	-33.3	11.9	3.46e-04	0	44	0	1199570944	20	5055
2026-01-15 10:45:33.23	316.86	50.51	-29.1	-30.7	13.9	7.60e-06	0	44	0	1209008128	19	4303
2026-01-15 10:45:36.23	317.77	49.62	-28.7	-30.0	14.7	1.50e-06	0	44	0	1218445312	18	4213
2026-01-15 10:45:39.24	318.62	48.74	-30.3	-33.2	12.1	1.93e-04	0	44	0	1227882496	20	5020
2026-01-15 10:45:42.25	319.44	47.86	-29.9	-32.0	12.8	4.65e-05	0	44	0	1237319680	20	4605
2026-01-15 10:45:45.27	320.21	47.00	-29.9	-32.2	12.7	4.34e-05	0	44	0	1246756864	20	4652
2026-01-15 10:45:48.28	320.94	46.15	-30.0	-32.2	12.7	7.24e-05	0	44	0	1256194048	20	4668
2026-01-15 10:45:51.29	321.63	45.32	-30.8	-33.9	11.3	1.16e-03	0	44	0	1265631232	21	5130
2026-01-15 10:45:54.30	322.29	44.50	-31.3	-34.8	10.3	4.35e-03	0	44	0	1275068416	22	5395
2026-01-15 10:45:57.29	322.91	43.69	-30.3	-32.1	12.1	3.68e-04	0	44	0	1284505600	22	4419
2026-01-15 10:46:00.30	323.50	42.90	-30.4	-32.7	12.0	2.34e-04	0	44	0	1293942784	21	4733
2026-01-15 10:46:03.31	324.07	42.12	-29.9	-31.5	12.7	1.06e-04	0	44	0	1303379968	21	4358
2026-01-15 10:46:06.32	324.61	41.35	-29.1	-30.6	14.0	1.50e-06	0	44	0	1312817152	19	4281
2026-01-15 10:46:09.32	325.13	40.60	-29.2	-30.9	13.8	4.50e-06	0	44	0	1322254336	19	4360
2026-01-15 10:46:12.34	325.62	39.85	-29.8	-32.3	13.0	5.87e-05	0	44	0	1331691520	19	4807
2026-01-15 10:46:15.35	326.09	39.13	-29.9	-32.6	12.8	7.09e-05	0	44	0	1340080128	19	4910
2026-01-15 10:46:18.35	326.54	38.41	-30.5	-33.2	11.7	6.86e-04	0	44	0	1349517312	21	4887
2026-01-15 10:46:21.37	326.98	37.71	-29.3	-31.1	13.6	1.83e-05	0	44	0	1358954496	19	4444
2026-01-15 10:46:24.36	327.39	37.02	-28.3	-29.3	15.0	0.00e+00	0	44	0	1368391680	18	4032
2026-01-15 10:46:27.37	327.79	36.35	-28.0	-29.2	15.3	0.00e+00	0	44	0	1377828864	17	4100
2026-01-15 10:46:30.37	328.18	35.69	-28.1	-29.4	15.2	0.00e+00	0	44	0	1387266048	17	4150
2026-01-15 10:46:33.38	328.55	35.03	-28.2	-29.6	15.1	0.00e+00	0	44	0	1396703232	17	4222
2026-01-15 10:46:36.39	328.90	34.39	-28.1	-29.3	15.2	0.00e+00	0	44	0	1406140416	17	4133
2026-01-15 10:46:39.40	329.24	33.77	-29.0	-31.3	14.1	0.00e+00	0	44	0	1415577600	17	4730
2026-01-15 10:46:42.40	329.57	33.15	-29.0	-31.0	13.9	3.00e-06	0	44	0	1425014784	18	4525
2026-01-15 10:46:45.41	329.89	32.55	-28.4	-29.5	14.9	0.00e+00	0	44	0	1434451968	18	4086
2026-01-15 10:46:48.43	330.20	31.95	-27.6	-28.6	15.8	0.00e+00	0	44	0	1443889152	16	4066
2026-01-15 10:46:51.45	330.50	31.37	-27.7	-29.0	15.6	7.00e-07	0	44	0	1453326336	16	4169
2026-01-15 10:46:54.46	330.79	30.79	-27.4	-28.3	16.0	0.00e+00	0	44	0	1462763520	16	3975
2026-01-15 10:46:57.46	331.06	30.23	-27.4	-28.2	16.0	0.00e+00	0	44	0	1472200704	16	3968
2026-01-15 10:47:00.47	331.33	29.68	-27.4	-28.3	15.9	0.00e+00	0	44	0	1481637888	16	3982
2026-01-15 10:47:03.47	331.59	29.14	-27.7	-29.0	15.6	0.00e+00	0	44	0	1491075072	16	4169
2026-01-15 10:47:06.50	331.84	28.61	-27.9	-29.4	15.3	0.00e+00	0	44	0	1500512256	16	4277
2026-01-15 10:47:09.51	332.09	28.09	-28.2	-30.0	15.0	0.00e+00	0	44	0	1509949440	16	4436
2026-01-15 10:47:12.52	332.32	27.57	-28.2	-30.0	15.0	0.00e+00	0	44	0	1519386624	16	4448
2026-01-15 10:47:15.53	332.55	27.07	-27.8	-29.2	15.4	0.00e+00	0	44	0	1528823808	16	4220
2026-01-15 10:47:18.54	332.78	26.57	-27.7	-29.0	15.5	0.00e+00	0	44	0	1538260992	16	4183
2026-01-15 10:47:21.55	332.99	26.09	-27.6	-28.8	15.6	0.00e+00	0	44	0	1547698176	16	4130
2026-01-15 10:47:24.56	333.20	25.61	-27.5	-28.5	15.8	0.00e+00	0	44	0	1557135360	16	4041
2026-01-15 10:47:27.56	333.41	25.14	-27.4	-28.3	15.9	0.00e+00	0	44	0	1566572544	16	3973
2026-01-15 10:47:30.56	333.61	24.68	-26.9	-27.7	16.3	0.00e+00	0	44	0	1576009728	15	3946
2026-01-15 10:47:33.58	333.80	24.22	-27.2	-28.4	15.9	0.00e+00	0	44	0	1585446912	15	4131
2026-01-15 10:47:36.58	333.99	23.78	-27.1	-28.1	16.1	0.00e+00	0	44	0	1594884096	15	4043
2026-01-15 10:47:39.60	334.17	23.33	-27.3	-28.5	15.9	0.00e+00	0	44	0	1604321280	15	4150
2026-01-15 10:47:42.61	334.35	22.90	-27.3	-28.7	15.8	0.00e+00	0	44	0	1612709888	15	4202
2026-01-15 10:47:45.60	334.53	22.48	-27.4	-28.8	15.7	0.00e+00	0	44	0	1622147072	15	4239
2026-01-15 10:47:48.61	334.70	22.06	-27.3	-28.6	15.7	0.00e+00	0	44	0	1631584256	15	4185
2026-01-15 10:47:51.62	334.86	21.65	-27.5	-29.1	15.5	0.00e+00	0	44	0	1641021440	15	4310
2026-01-15 10:47:54.63	335.02	21.24	-27.6	-29.2	15.4	0.00e+00	0	44	0	1650458624	15	4348
2026-01-15 10:47:57.64	335.18	20.84	-27.5	-29.2	15.4	0.00e+00	0	44	0	1659895808	15	4340
2026-01-15 10:48:00.64	335.34	20.45	-27.5	-29.0	15.5	0.00e+00	0	44	0	1669332992	15	4297
2026-01-15 10:48:03.65	335.49	20.06	-27.3	-28.6	15.7	0.00e+00	0	44	0	1678770176	15	4188
2026-01-15 10:48:06.66	335.64	19.68	-27.5	-29.0	15.5	0.00e+00	0	44	0	1688207360	15	4288
2026-01-15 10:48:09.68	335.78	19.30	-27.5	-29.1	15.4	0.00e+00	0	44	0	1697644544	15	4330
2026-01-15 10:48:12.69	335.92	18.93	-27.6	-29.3	15.3	0.00e+00	0	44	0	1707081728	15	4373
2026-01-15 10:48:15.70	336.06	18.56	-27.6	-29.4	15.2	0.00e+00	0	44	0	1716518912	15	4407
2026-01-15 10:48:18.70	336.19	18.21	-27.7	-29.6	15.1	0.00e+00	0	44	0	1725956096	15	4472
2026-01-15 10:48:21.72	336.33	17.85	-27.7	-29.5	15.1	0.00e+00	0	44	0	1735393280	15	4445
2026-01-15 10:48:24.73	336.46	17.50	-27.8	-29.7	15.0	0.00e+00	0	44	0	1744830464	15	4496
2026-01-15 10:48:27.73	336.58	17.15	-27.8	-29.9	14.8	0.00e+00	0	44	0	1754267648	15	4563
2026-01-15 10:48:30.74	336.71	16.81	-28.3	-30.5	14.4	0.00e+00	0	44	0	1763704832	16	4604
2026-01-15 10:48:33.76	336.83	16.48	-28.4	-30.6	14.3	7.00e-07	0	44	0	1773142016	16	4659
2026-01-15 10:48:36.76	336.95	16.15	-28.6	-30.7	13.9	3.80e-06	0	44	0	1782579200	17	4560
2026-01-15 10:48:39.77	337.07	15.82	-28.1	-29.5	14.6	7.00e-07	0	44	0	1792016384	17	4213
2026-01-15 10:48:42.78	337.18	15.50	-28.2	-29.7	14.5	0.00e+00	0	44	0	1801453568	17	4270
2026-01-15 10:48:45.80	337.29	15.18	-28.1	-29.4	14.7	0.00e+00	0	44	0	1810890752	17	4188
2026-01-15 10:48:48.80	337.40	14.86	-28.2	-29.7	14.5	0.00e+00	0	44	0	1820327936	17	4264
2026-01-15 10:48:51.81	337.51	14.55	-28.3	-30.0	14.3	0.00e+00	0	44	0	1829765120	17	4377
2026-01-15 10:48:54.83	337.62	14.24	-28.3	-29.9	14.3	0.00e+00	0	44	0	1839202304	17	4346
2026-01-15 10:48:57.83	337.72	13.94	-28.2	-29.6	14.5	1.50e-06	0	44	0	1848639488	17	4247
2026-01-15 10:49:00.83	337.83	13.64	-28.3	-29.8	14.3	7.00e-07	0	44	0	1858076672	17	4318
2026-01-15 10:49:03.85	337.93	13.35	-28.2	-29.6	14.4	0.00e+00	0	44	0	1867513856	17	4264
2026-01-15 10:49:06.85	338.03	13.05	-28.1	-29.5	14.5	7.00e-07	0	44	0	1876951040	17	4221
2026-01-15 10:49:09.86	338.12	12.77	-28.1	-29.6	14.4	2.20e-06	0	44	0	1886388224	17	4246
2026-01-15 10:49:12.87	338.22	12.48	-28.2	-29.8	14.3	0.00e+00	0	44	0	1894776832	17	4307
2026-01-15 10:49:15.88	338.32	12.20	-28.4	-30.3	14.0	4.50e-06	0	44	0	1905262592	17	4444
2026-01-15 10:49:18.90	338.41	11.92	-28.3	-30.0	14.1	2.20e-06	0	44	0	1913651200	17	4366
2026-01-15 10:49:21.91	338.50	11.64	-28.4	-30.2	14.0	3.00e-06	0	44	0	1923088384	17	4445
2026-01-15 10:49:24.91	338.59	11.37	-28.4	-30.1	14.1	3.00e-06	0	44	0	1932525568	17	4410
2026-01-15 10:49:27.91	338.68	11.10	-28.4	-30.3	13.9	7.00e-07	0	44	0	1941962752	17	4455
2026-01-15 10:49:30.92	338.77	10.83	-28.3	-29.9	14.1	1.50e-06	0	44	0	1951399936	17	4352
2026-01-15 10:49:33.93	338.85	10.57	-28.5	-30.4	13.8	5.30e-06	0	44	0	1960837120	17	4503
2026-01-15 10:49:36.93	338.94	10.31	-28.6	-30.7	13.6	6.80e-06	0	44	0	1970274304	17	4589
2026-01-15 10:49:39.94	339.02	10.05	-28.6	-30.7	13.6	7.60e-06	0	44	0	1979711488	17	4602
2026-01-15 10:49:42.95	339.10	9.79	-28.8	-31.2	13.3	1.52e-05	0	44	0	1989148672	17	4746
2026-01-15 10:49:45.96	339.18	9.54	-28.8	-31.4	13.2	1.67e-05	0	44	0	1998585856	17	4812
2026-01-15 10:49:48.97	339.26	9.29	-29.0	-31.1	13.0	3.50e-05	0	44	0	2008023040	18	4626
2026-01-15 10:49:51.98	339.34	9.04	-29.1	-31.5	12.7	6.02e-05	0	44	0	2017460224	18	4756
2026-01-15 10:49:54.99	339.42	8.79	-29.0	-31.3	12.8	6.71e-05	0	44	0	2026897408	18	4693
2026-01-15 10:49:57.98	339.49	8.55	-29.1	-31.6	12.6	8.46e-05	0	44	0	2036334592	18	4778
2026-01-15 10:50:00.98	339.57	8.31	-29.3	-31.9	12.4	1.07e-04	0	44	0	2045771776	18	4893
2026-01-15 10:50:03.99	339.64	8.07	-29.3	-32.0	12.3	2.01e-04	0	44	0	2055208960	18	4922
2026-01-15 10:50:06.99	339.72	7.83	-29.4	-32.2	12.1	3.29e-04	0	44	0	2064646144	18	5008
2026-01-15 10:50:10.00	339.79	7.60	-29.5	-32.1	11.8	4.90e-04	0	44	0	2074083328	19	4854
2026-01-15 10:50:13.01	339.86	7.37	-29.3	-31.5	12.2	2.38e-04	0	44	0	2083520512	19	4668
2026-01-15 10:50:16.01	339.93	7.14	-29.4	-31.7	12.1	2.47e-04	0	44	0	2092957696	19	4719
2026-01-15 10:50:19.02	340.00	6.91	-34.0	-46.3	3.8	1.49e+00	0	44	104	2094006272	27	14858

#Closed at: 2026-01-15 10:50:19
#Recorded file [2094 MB]: D:/data/31010_260115_133906.dat