passes_logs/2026/01/15/R2M6_AANII_01/R2M6_AANII_01__20260115_120653_FENGYUN_3D_rec.log

#Pass ID: 20260115_120653_FENGYUN 3D
#Satellite: FENGYUN 3D
#Configuration: FENGYUN 3D
#almurnet v.1.7.20240730
#Start time: 2026-01-15 12:10:11

#Version: 2.2.20231116
#Station: R2M6_AANII_01
#Location: 30.233357 lon 59.946436 lat
#TLE: 1 43010U 17072A   26014.22831475  .00000226  00000+0  12883-3 0  9994
#TLE: 2 43010  98.9934 346.0326 0002309 109.2304 250.9121 14.19696287423146

#Time	Az	El	Level	Level2	SNR	BER	BlckErr	Temp	State	Recorded	gain1	gain2
2026-01-15 12:10:11.09	148.14	30.62	-33.9	-53.1	3.8	7.45e-01	0	43	0	0	28	32892
2026-01-15 12:10:14.07	147.99	31.20	-34.4	-45.2	3.8	8.47e-01	0	43	104	0	29	12586
2026-01-15 12:10:17.05	147.83	31.80	-34.4	-45.4	3.8	8.47e-01	0	43	104	0	29	12758
2026-01-15 12:10:20.04	147.67	32.41	-34.4	-45.3	3.8	8.46e-01	0	43	104	0	29	12629
2026-01-15 12:10:23.03	147.50	33.03	-34.3	-45.2	3.8	8.45e-01	0	43	104	0	29	12541
2026-01-15 12:10:26.01	147.32	33.66	-34.3	-45.1	3.8	8.47e-01	0	43	104	0	29	12504
2026-01-15 12:10:29.00	147.14	34.31	-34.3	-45.1	3.8	8.46e-01	0	43	104	0	29	12501
2026-01-15 12:10:31.98	146.94	34.97	-34.5	-45.6	3.8	8.46e-01	0	43	104	0	29	12872
2026-01-15 12:10:34.95	146.74	35.64	-34.5	-45.6	3.8	8.46e-01	0	44	104	0	29	12921
2026-01-15 12:10:37.94	146.53	36.33	-34.3	-45.2	3.8	8.47e-01	0	43	104	0	29	12628
2026-01-15 12:10:40.94	146.31	37.03	-33.9	-42.8	3.8	8.46e-01	0	43	104	0	29	9961
2026-01-15 12:10:43.92	146.08	37.75	-33.9	-42.7	3.9	8.46e-01	0	44	104	0	29	9844
2026-01-15 12:10:46.91	145.84	38.48	-33.7	-41.6	3.9	8.43e-01	0	44	104	0	28	8907
2026-01-15 12:10:49.89	145.59	39.23	-33.9	-43.2	3.8	8.45e-01	0	43	104	0	28	10460
2026-01-15 12:10:52.88	145.32	40.00	-34.1	-45.4	3.8	8.47e-01	0	44	104	0	28	13108
2026-01-15 12:10:55.86	145.05	40.77	-34.1	-45.0	3.8	8.46e-01	0	43	104	0	28	12649
2026-01-15 12:10:58.85	144.75	41.57	-33.0	-38.1	5.8	6.84e-01	0	44	0	0	27	6453
2026-01-15 12:11:01.85	144.44	42.39	-27.9	-28.9	14.7	1.71e-05	0	43	0	16777216	17	4039
2026-01-15 12:11:04.85	144.12	43.22	-24.5	-25.5	18.5	0.00e+00	0	43	0	33554432	9	4059
2026-01-15 12:11:07.82	143.77	44.07	-24.3	-25.2	18.6	0.00e+00	0	44	0	50331648	9	3993
2026-01-15 12:11:10.81	143.41	44.93	-24.1	-24.8	18.8	0.00e+00	0	44	0	67108864	9	3887
2026-01-15 12:11:13.81	143.03	45.82	-24.8	-26.3	18.0	0.00e+00	0	43	0	83886080	9	4264
2026-01-15 12:11:16.80	142.62	46.72	-23.3	-23.5	19.7	0.00e+00	0	43	0	100663296	8	3707
2026-01-15 12:11:19.80	142.19	47.65	-23.4	-24.2	19.6	0.00e+00	0	44	0	117440512	7	3962
2026-01-15 12:11:22.77	141.73	48.58	-23.4	-24.3	19.6	0.00e+00	0	44	0	134217728	7	3988
2026-01-15 12:11:25.75	141.25	49.54	-23.8	-25.1	19.1	0.00e+00	0	44	0	150994944	7	4181
2026-01-15 12:11:28.73	140.73	50.51	-24.0	-25.1	18.9	0.00e+00	0	44	0	167772160	8	4074
2026-01-15 12:11:31.71	140.17	51.50	-24.3	-25.7	18.6	0.00e+00	0	43	0	184549376	8	4228
2026-01-15 12:11:34.71	139.57	52.51	-24.7	-26.0	18.2	0.00e+00	0	43	0	201326592	9	4182
2026-01-15 12:11:37.69	138.94	53.54	-24.8	-26.1	18.2	0.00e+00	0	44	0	218103808	9	4214
2026-01-15 12:11:40.67	138.25	54.58	-25.1	-26.4	17.8	0.00e+00	0	44	0	234881024	10	4172
2026-01-15 12:11:43.68	137.51	55.65	-24.6	-25.4	18.2	0.00e+00	0	44	0	251658240	10	3917
2026-01-15 12:11:46.66	136.71	56.73	-24.7	-25.6	18.2	0.00e+00	0	43	0	268435456	10	3976
2026-01-15 12:11:49.64	135.85	57.82	-23.7	-24.5	19.3	0.00e+00	0	44	0	285212672	8	3921
2026-01-15 12:11:52.62	134.91	58.93	-23.5	-24.0	19.6	0.00e+00	0	44	0	301989888	8	3804
2026-01-15 12:11:55.63	133.88	60.05	-23.4	-23.7	19.7	0.00e+00	0	43	0	318767104	8	3736
2026-01-15 12:11:58.63	132.76	61.19	-24.2	-25.4	18.9	0.00e+00	0	43	0	335544320	8	4156
2026-01-15 12:12:01.63	131.53	62.34	-24.3	-25.1	18.7	0.00e+00	0	44	0	353370112	9	3973
2026-01-15 12:12:04.65	130.16	63.49	-23.7	-24.4	19.4	0.00e+00	0	43	0	370147328	8	3914
2026-01-15 12:12:07.65	128.67	64.65	-23.2	-23.9	19.9	0.00e+00	0	44	0	386924544	7	3889
2026-01-15 12:12:10.65	127.01	65.81	-22.8	-23.0	20.3	0.00e+00	0	44	0	403701760	7	3696
2026-01-15 12:12:13.66	125.16	66.96	-22.9	-23.8	20.1	0.00e+00	0	44	0	420478976	6	3995
2026-01-15 12:12:16.67	123.10	68.11	-22.4	-22.6	20.7	0.00e+00	0	44	0	437256192	6	3713
2026-01-15 12:12:19.67	120.79	69.24	-22.3	-23.1	20.7	0.00e+00	0	44	0	454033408	5	3915
2026-01-15 12:12:22.68	118.19	70.35	-22.2	-22.8	20.9	0.00e+00	0	44	0	470810624	5	3863
2026-01-15 12:12:25.69	115.27	71.43	-22.5	-23.3	20.6	0.00e+00	0	43	0	488636416	5	3987
2026-01-15 12:12:28.69	111.98	72.46	-22.5	-23.4	20.6	0.00e+00	0	44	0	505413632	5	4006
2026-01-15 12:12:31.69	108.26	73.44	-22.1	-22.5	21.0	0.00e+00	0	44	0	522190848	5	3790
2026-01-15 12:12:34.70	104.05	74.36	-21.7	-22.2	21.4	0.00e+00	0	44	0	538968064	4	3829
2026-01-15 12:12:37.70	99.34	75.19	-21.5	-21.8	21.6	0.00e+00	0	44	0	555745280	4	3739
2026-01-15 12:12:40.71	94.07	75.91	-21.3	-21.5	21.6	0.00e+00	0	44	0	572522496	4	3663
2026-01-15 12:12:43.72	88.26	76.52	-21.3	-21.9	21.9	0.00e+00	0	44	0	589299712	3	3842
2026-01-15 12:12:46.73	81.95	76.97	-21.2	-21.7	22.1	0.00e+00	0	44	0	606076928	3	3819
2026-01-15 12:12:49.73	75.29	77.27	-21.5	-22.2	21.9	0.00e+00	0	44	0	623902720	3	3939
2026-01-15 12:12:52.73	68.40	77.38	-21.3	-21.8	22.1	0.00e+00	0	44	0	640679936	3	3844
2026-01-15 12:12:55.74	61.46	77.32	-21.2	-21.8	22.2	0.00e+00	0	44	0	657457152	3	3820
2026-01-15 12:12:58.74	54.70	77.08	-21.3	-21.9	22.0	0.00e+00	0	44	0	674234368	3	3845
2026-01-15 12:13:01.73	48.31	76.68	-21.1	-21.5	22.3	0.00e+00	0	44	0	691011584	3	3754
2026-01-15 12:13:04.75	42.31	76.12	-21.1	-21.5	22.3	0.00e+00	0	44	0	707788800	3	3771
2026-01-15 12:13:07.75	36.88	75.44	-21.5	-22.2	22.0	0.00e+00	0	43	0	724566016	3	3928
2026-01-15 12:13:10.75	32.00	74.64	-21.3	-21.8	22.2	0.00e+00	0	43	0	741343232	3	3827
2026-01-15 12:13:13.76	27.63	73.75	-21.8	-22.4	21.6	0.00e+00	0	44	0	759169024	4	3846
2026-01-15 12:13:16.76	23.77	72.79	-22.3	-23.4	21.1	0.00e+00	0	44	0	775946240	4	4088
2026-01-15 12:13:19.77	20.33	71.77	-22.5	-23.8	20.8	0.00e+00	0	44	0	792723456	4	4193
2026-01-15 12:13:22.77	17.30	70.71	-22.3	-23.0	21.0	0.00e+00	0	44	0	809500672	5	3879
2026-01-15 12:13:25.77	14.62	69.61	-22.1	-22.5	21.2	0.00e+00	0	44	0	826277888	5	3771
2026-01-15 12:13:28.77	12.22	68.49	-22.6	-23.7	20.6	0.00e+00	0	44	0	843055104	5	4046
2026-01-15 12:13:31.79	10.08	67.35	-22.8	-24.0	20.5	0.00e+00	0	44	0	859832320	5	4124
2026-01-15 12:13:34.78	8.18	66.21	-22.5	-23.3	20.8	0.00e+00	0	44	0	876609536	5	3958
2026-01-15 12:13:37.79	6.46	65.05	-22.7	-23.8	20.6	0.00e+00	0	44	0	893386752	5	4066
2026-01-15 12:13:40.79	4.91	63.90	-22.8	-24.0	20.5	0.00e+00	0	44	0	911212544	5	4121
2026-01-15 12:13:43.81	3.50	62.74	-23.2	-24.2	20.1	0.00e+00	0	44	0	927989760	6	4059
2026-01-15 12:13:46.81	2.23	61.59	-22.8	-23.5	20.5	0.00e+00	0	44	0	944766976	6	3882
2026-01-15 12:13:49.82	1.08	60.45	-23.6	-24.7	19.7	0.00e+00	0	44	0	961544192	7	4068
2026-01-15 12:13:52.83	0.02	59.32	-23.9	-25.2	19.4	0.00e+00	0	44	0	978321408	7	4197
2026-01-15 12:13:55.84	359.04	58.21	-23.8	-25.2	19.4	0.00e+00	0	44	0	995098624	7	4187
2026-01-15 12:13:58.84	358.15	57.11	-23.9	-25.3	19.3	0.00e+00	0	43	0	1011875840	7	4219
2026-01-15 12:14:01.86	357.33	56.01	-24.7	-25.4	18.6	0.00e+00	0	43	0	1029701632	10	3908
2026-01-15 12:14:04.85	356.57	54.95	-24.5	-25.0	18.8	0.00e+00	0	44	0	1046478848	10	3809
2026-01-15 12:14:07.87	355.86	53.89	-24.2	-24.9	19.1	0.00e+00	0	44	0	1063256064	9	3885
2026-01-15 12:14:10.87	355.21	52.85	-24.0	-24.5	19.3	0.00e+00	0	43	0	1080033280	9	3798
2026-01-15 12:14:13.89	354.60	51.83	-24.0	-24.4	19.3	0.00e+00	0	44	0	1096810496	9	3777
2026-01-15 12:14:16.91	354.03	50.82	-23.8	-24.5	19.5	0.00e+00	0	43	0	1113587712	8	3909
2026-01-15 12:14:19.91	353.49	49.84	-23.7	-24.3	19.6	0.00e+00	0	44	0	1130364928	8	3854
2026-01-15 12:14:22.92	353.00	48.88	-23.5	-24.0	19.7	0.00e+00	0	43	0	1147142144	8	3789
2026-01-15 12:14:25.93	352.53	47.93	-23.4	-23.7	19.8	0.00e+00	0	44	0	1164967936	8	3739
2026-01-15 12:14:28.93	352.09	47.00	-23.6	-24.1	19.6	0.00e+00	0	44	0	1181745152	8	3829
2026-01-15 12:14:31.94	351.68	46.09	-23.2	-23.8	19.9	0.00e+00	0	43	0	1198522368	7	3865
2026-01-15 12:14:34.94	351.29	45.21	-23.2	-23.7	20.0	0.00e+00	0	44	0	1215299584	7	3837
2026-01-15 12:14:37.94	350.92	44.33	-23.3	-24.1	19.8	0.00e+00	0	44	0	1232076800	7	3932
2026-01-15 12:14:40.95	350.57	43.48	-23.4	-24.3	19.7	0.00e+00	0	44	0	1248854016	7	3978
2026-01-15 12:14:43.95	350.24	42.64	-23.3	-24.0	19.9	0.00e+00	0	44	0	1265631232	7	3908
2026-01-15 12:14:46.95	349.93	41.82	-23.1	-23.6	20.1	0.00e+00	0	44	0	1283457024	7	3806
2026-01-15 12:14:49.95	349.63	41.02	-22.9	-23.2	20.2	0.00e+00	0	44	0	1300234240	7	3714
2026-01-15 12:14:52.95	349.35	40.24	-22.7	-23.3	20.4	0.00e+00	0	44	0	1317011456	6	3854
2026-01-15 12:14:55.95	349.08	39.47	-23.1	-24.1	20.0	0.00e+00	0	43	0	1333788672	6	4042
2026-01-15 12:14:58.96	348.83	38.71	-23.1	-24.0	20.0	0.00e+00	0	44	0	1350565888	6	4025
2026-01-15 12:15:01.95	348.59	37.98	-23.1	-24.0	20.0	0.00e+00	0	44	0	1367343104	6	4026
2026-01-15 12:15:04.96	348.35	37.26	-22.7	-23.3	20.4	0.00e+00	0	44	0	1384120320	6	3856
2026-01-15 12:15:07.97	348.13	36.55	-22.7	-23.3	20.4	0.00e+00	0	44	0	1400897536	6	3839
2026-01-15 12:15:10.97	347.92	35.86	-22.9	-23.7	20.2	0.00e+00	0	44	0	1417674752	6	3950
2026-01-15 12:15:13.98	347.72	35.18	-23.1	-24.2	19.9	0.00e+00	0	44	0	1434451968	6	4069
2026-01-15 12:15:16.99	347.52	34.51	-23.3	-24.5	19.8	0.00e+00	0	44	0	1451229184	6	4138
2026-01-15 12:15:19.99	347.34	33.86	-23.3	-24.1	19.7	0.00e+00	0	43	0	1469054976	7	3921
2026-01-15 12:15:22.99	347.16	33.22	-23.1	-23.7	19.9	0.00e+00	0	43	0	1485832192	7	3834
2026-01-15 12:15:25.99	346.99	32.60	-23.2	-23.7	19.9	0.00e+00	0	43	0	1502609408	7	3844
2026-01-15 12:15:28.99	346.82	31.99	-23.3	-24.0	19.8	0.00e+00	0	43	0	1519386624	7	3901
2026-01-15 12:15:31.99	346.66	31.39	-23.2	-23.9	19.8	0.00e+00	0	43	0	1536163840	7	3894
2026-01-15 12:15:35.00	346.51	30.80	-23.3	-24.0	19.8	0.00e+00	0	44	0	1552941056	7	3905
2026-01-15 12:15:38.01	346.37	30.22	-23.1	-23.6	19.9	0.00e+00	0	43	0	1569718272	7	3807
2026-01-15 12:15:41.02	346.22	29.65	-23.1	-23.6	19.9	0.00e+00	0	44	0	1586495488	7	3818
2026-01-15 12:15:44.02	346.09	29.10	-23.2	-23.9	19.8	0.00e+00	0	44	0	1604321280	7	3882
2026-01-15 12:15:47.01	345.96	28.55	-23.5	-24.4	19.5	0.00e+00	0	43	0	1621098496	7	4013
2026-01-15 12:15:50.01	345.83	28.02	-23.4	-24.3	19.5	0.00e+00	0	43	0	1637875712	7	3986
2026-01-15 12:15:53.00	345.71	27.50	-23.5	-24.4	19.5	0.00e+00	0	43	0	1654652928	7	4000
2026-01-15 12:15:56.02	345.60	26.98	-23.5	-24.5	19.4	0.00e+00	0	43	0	1671430144	7	4021
2026-01-15 12:15:59.01	345.48	26.48	-23.6	-24.7	19.3	0.00e+00	0	44	0	1688207360	7	4069
2026-01-15 12:16:02.03	345.37	25.98	-23.5	-24.5	19.4	0.00e+00	0	44	0	1704984576	7	4020
2026-01-15 12:16:05.03	345.27	25.49	-23.9	-25.3	19.0	0.00e+00	0	44	0	1721761792	7	4227
2026-01-15 12:16:08.01	345.17	25.02	-23.5	-24.5	19.4	0.00e+00	0	44	0	1738539008	7	4029
2026-01-15 12:16:11.01	345.07	24.55	-23.7	-24.8	19.2	0.00e+00	0	44	0	1755316224	7	4093
2026-01-15 12:16:14.02	344.97	24.09	-23.7	-24.9	19.2	0.00e+00	0	44	0	1772093440	7	4122
2026-01-15 12:16:17.04	344.88	23.63	-23.7	-25.0	19.1	0.00e+00	0	43	0	1789919232	7	4142
2026-01-15 12:16:20.04	344.79	23.19	-23.8	-25.1	19.1	0.00e+00	0	44	0	1806696448	7	4163
2026-01-15 12:16:23.03	344.70	22.75	-23.9	-25.3	18.9	0.00e+00	0	44	0	1823473664	7	4236
2026-01-15 12:16:26.05	344.62	22.32	-23.9	-24.8	18.9	0.00e+00	0	44	0	1840250880	8	3986
2026-01-15 12:16:29.06	344.54	21.89	-24.2	-25.3	18.7	0.00e+00	0	44	0	1857028096	8	4116
2026-01-15 12:16:32.06	344.46	21.48	-24.2	-25.3	18.6	0.00e+00	0	44	0	1873805312	8	4118
2026-01-15 12:16:35.07	344.38	21.06	-24.3	-25.6	18.5	0.00e+00	0	44	0	1890582528	8	4199
2026-01-15 12:16:38.08	344.31	20.66	-24.4	-25.9	18.3	0.00e+00	0	44	0	1907359744	8	4261
2026-01-15 12:16:41.08	344.24	20.26	-24.8	-26.3	17.9	0.00e+00	0	44	0	1925185536	9	4252
2026-01-15 12:16:44.09	344.17	19.87	-24.8	-26.1	17.9	0.00e+00	0	44	0	1941962752	9	4214
2026-01-15 12:16:47.11	344.10	19.48	-25.1	-26.3	17.6	0.00e+00	0	44	0	1958739968	10	4143
2026-01-15 12:16:50.11	344.03	19.10	-24.9	-25.9	17.8	0.00e+00	0	44	0	1975517184	10	4036
2026-01-15 12:16:53.11	343.97	18.73	-24.9	-25.9	17.8	0.00e+00	0	44	0	1992294400	10	4044
2026-01-15 12:16:56.12	343.91	18.36	-25.0	-26.2	17.6	0.00e+00	0	44	0	2009071616	10	4125
2026-01-15 12:16:59.13	343.85	18.00	-25.0	-26.2	17.6	0.00e+00	0	44	0	2025848832	10	4114
2026-01-15 12:17:02.14	343.79	17.64	-25.1	-26.4	17.5	1.10e-06	0	44	0	2042626048	10	4177
2026-01-15 12:17:05.15	343.73	17.29	-25.2	-26.5	17.4	0.00e+00	0	44	0	2060451840	10	4199
2026-01-15 12:17:08.15	343.68	16.94	-25.3	-26.7	17.3	0.00e+00	0	44	0	2077229056	10	4238
2026-01-15 12:17:11.16	343.62	16.60	-25.5	-26.7	17.0	0.00e+00	0	44	0	2094006272	11	4141
2026-01-15 12:17:14.16	343.57	16.26	-25.7	-27.2	16.7	0.00e+00	0	44	0	2110783488	11	4268
2026-01-15 12:17:17.18	343.52	15.93	-25.9	-27.5	16.5	0.00e+00	0	44	0	2127560704	11	4341
2026-01-15 12:17:20.18	343.47	15.60	-25.8	-27.3	16.6	0.00e+00	0	44	0	2144337920	11	4295
2026-01-15 12:17:23.19	343.42	15.27	-26.0	-27.3	16.3	0.00e+00	0	44	0	2162163712	12	4174
2026-01-15 12:17:26.20	343.38	14.95	-26.0	-27.4	16.2	0.00e+00	0	44	0	2178940928	12	4220
2026-01-15 12:17:29.21	343.33	14.63	-26.1	-27.4	16.1	0.00e+00	0	44	0	2195718144	12	4222
2026-01-15 12:17:32.22	343.29	14.32	-25.9	-27.0	16.3	0.00e+00	0	44	0	2212495360	12	4122
2026-01-15 12:17:35.23	343.24	14.01	-26.1	-27.5	16.1	0.00e+00	0	44	0	2229272576	12	4242
2026-01-15 12:17:38.24	343.20	13.71	-26.0	-27.3	16.2	0.00e+00	0	44	0	2246049792	12	4192
2026-01-15 12:17:41.24	343.16	13.41	-26.0	-27.3	16.1	0.00e+00	0	44	0	2263875584	12	4193
2026-01-15 12:17:44.25	343.12	13.11	-25.9	-27.1	16.2	0.00e+00	0	43	0	2280652800	12	4137
2026-01-15 12:17:47.26	343.08	12.82	-25.9	-27.2	16.2	0.00e+00	0	44	0	2297430016	12	4163
2026-01-15 12:17:50.26	343.04	12.53	-26.1	-27.6	15.9	0.00e+00	0	44	0	2314207232	12	4268
2026-01-15 12:17:53.26	343.01	12.24	-26.1	-27.5	15.9	1.10e-06	0	44	0	2330984448	12	4244
2026-01-15 12:17:56.26	342.97	11.96	-26.1	-27.6	15.9	0.00e+00	0	44	0	2347761664	12	4285
2026-01-15 12:17:59.28	342.93	11.68	-26.2	-27.7	15.8	0.00e+00	0	44	0	2364538880	12	4300
2026-01-15 12:18:02.26	342.90	11.41	-26.2	-27.9	15.7	0.00e+00	0	44	0	2381316096	12	4349
2026-01-15 12:18:05.28	342.87	11.13	-26.2	-27.8	15.7	0.00e+00	0	44	0	2398093312	12	4330
2026-01-15 12:18:08.28	342.83	10.86	-26.3	-28.0	15.6	0.00e+00	0	44	0	2414870528	12	4396
2026-01-15 12:18:11.30	342.80	10.59	-26.3	-28.0	15.6	0.00e+00	0	44	0	2432696320	12	4392
2026-01-15 12:18:14.29	342.77	10.33	-26.4	-27.8	15.4	0.00e+00	0	44	0	2449473536	13	4211
2026-01-15 12:18:17.29	342.74	10.07	-26.5	-28.0	15.3	0.00e+00	0	44	0	2466250752	13	4282
2026-01-15 12:18:20.29	342.71	9.81	-26.8	-28.6	14.9	0.00e+00	0	44	0	2483027968	13	4442
2026-01-15 12:18:23.29	342.68	9.55	-27.0	-29.1	14.6	1.10e-06	0	44	0	2499805184	13	4578
2026-01-15 12:18:26.31	342.66	9.30	-26.9	-28.5	14.7	0.00e+00	0	43	0	2516582400	14	4297
2026-01-15 12:18:29.32	342.63	9.04	-26.8	-28.1	14.9	0.00e+00	0	44	0	2533359616	14	4194
2026-01-15 12:18:32.33	342.60	8.80	-26.8	-28.2	14.8	0.00e+00	0	44	0	2550136832	14	4219
2026-01-15 12:18:35.35	342.58	8.55	-26.9	-28.3	14.7	1.10e-06	0	44	0	2567962624	14	4263
2026-01-15 12:18:38.35	342.55	8.30	-26.9	-28.5	14.6	3.40e-06	0	44	0	2584739840	14	4303
2026-01-15 12:18:41.35	342.53	8.06	-27.0	-28.8	14.4	0.00e+00	0	44	0	2601517056	14	4386
2026-01-15 12:18:44.35	342.50	7.82	-27.0	-28.6	14.5	4.50e-06	0	43	0	2618294272	14	4340
2026-01-15 12:18:47.36	342.48	7.59	-27.3	-29.4	14.0	5.70e-06	0	44	0	2635071488	14	4558
2026-01-15 12:18:50.36	342.46	7.35	-27.3	-28.8	14.0	5.70e-06	0	44	0	2651848704	15	4295
2026-01-15 12:18:53.35	342.44	7.12	-32.0	-38.1	6.3	1.51e-03	0	44	0	2668625920	23	7311

#Closed at: 2026-01-15 12:18:55
#Recorded file [2668 MB]: D:/data/31010_260115_151058.dat