passes_logs/2026/01/26/Regia/Regia__20260126_122823_AQUA_rec.log

#Pass ID: 20260126_122823_AQUA
#Satellite: AQUA
#Configuration: AQUA
#Start time: 2026-01-26 12:28:28.706708

#LorettStation: 1.0.0 05.05.2024
#Station: Regia
#Location: 37.494653 lon 55.929028 lat
#TLE: 1 27424U 02022A   26025.63222646  .00001891  00000+0  38818-3 0  9990
#TLE: 2 27424  98.4099 352.2393 0001892  65.6900 348.5270 14.61859542262445

#Time	Az	El	Level	SNR
2026-01-26 12:28:31.371647	195.0	15.3	-69.3	0.0
2026-01-26 12:28:32.484456	195.2	15.4	-69.4	0.0
2026-01-26 12:28:33.596982	195.3	15.5	-69.2	0.0
2026-01-26 12:28:34.710048	195.4	15.6	-69.2	0.0
2026-01-26 12:28:35.822830	195.5	15.8	-69.2	0.0
2026-01-26 12:28:36.935529	195.7	15.9	-69.5	0.0
2026-01-26 12:28:38.048423	195.8	16.0	-69.2	0.0
2026-01-26 12:28:39.161684	195.9	16.1	-69.2	0.0
2026-01-26 12:28:40.274920	196.0	16.3	-69.5	0.0
2026-01-26 12:28:41.386774	196.2	16.4	-69.5	0.0
2026-01-26 12:28:42.500584	196.3	16.5	-69.1	0.0
2026-01-26 12:28:43.613511	196.4	16.6	-69.3	0.0
2026-01-26 12:28:44.725851	196.6	16.8	-69.4	0.0
2026-01-26 12:28:45.838344	196.7	16.9	-69.5	0.0
2026-01-26 12:28:46.951010	196.8	17.0	-69.6	0.0
2026-01-26 12:28:48.063521	197.0	17.2	-69.4	0.0
2026-01-26 12:28:49.177109	197.1	17.3	-69.2	0.0
2026-01-26 12:28:50.289541	197.2	17.4	-69.4	0.0
2026-01-26 12:28:51.402568	197.4	17.5	-69.5	0.0
2026-01-26 12:28:52.515289	197.5	17.7	-69.2	0.0
2026-01-26 12:28:53.627723	197.7	17.8	-69.5	0.0
2026-01-26 12:28:54.741540	197.8	17.9	-69.2	0.0
2026-01-26 12:28:55.854770	197.9	18.1	-69.2	0.0
2026-01-26 12:28:56.967400	198.1	18.2	-69.3	0.0
2026-01-26 12:28:58.079527	198.2	18.3	-69.0	0.0
2026-01-26 12:28:59.192708	198.4	18.5	-69.4	0.0
2026-01-26 12:29:00.306988	198.5	18.6	-69.2	0.0
2026-01-26 12:29:01.420778	198.7	18.7	-69.4	0.0
2026-01-26 12:29:02.533668	198.8	18.9	-69.1	0.0
2026-01-26 12:29:03.647338	199.0	19.0	-69.1	0.0
2026-01-26 12:29:04.762626	199.1	19.2	-69.0	0.0
2026-01-26 12:29:05.880456	199.3	19.3	-69.4	0.0
2026-01-26 12:29:06.993362	199.5	19.4	-69.2	0.0
2026-01-26 12:29:08.106087	199.6	19.6	-69.4	0.0
2026-01-26 12:29:09.218196	199.8	19.7	-69.1	0.0
2026-01-26 12:29:10.331096	199.9	19.9	-69.3	0.0
2026-01-26 12:29:11.443610	200.1	20.0	-69.4	0.0
2026-01-26 12:29:12.556476	200.3	20.1	-69.3	0.0
2026-01-26 12:29:13.668737	200.4	20.3	-69.7	0.0
2026-01-26 12:29:14.781451	200.6	20.4	-69.4	0.0
2026-01-26 12:29:15.896895	200.8	20.6	-69.4	0.0
2026-01-26 12:29:17.009710	201.0	20.7	-69.5	0.0
2026-01-26 12:29:18.121814	201.1	20.9	-69.5	0.0
2026-01-26 12:29:19.234838	201.3	21.0	-69.3	0.0
2026-01-26 12:29:20.347571	201.5	21.2	-69.2	0.0
2026-01-26 12:29:21.460550	201.7	21.3	-69.6	0.0
2026-01-26 12:29:22.573688	201.8	21.4	-69.6	0.0
2026-01-26 12:29:23.686548	202.0	21.6	-69.5	0.0
2026-01-26 12:29:24.800421	202.2	21.7	-69.3	0.0
2026-01-26 12:29:25.913256	202.4	21.9	-68.9	0.0
2026-01-26 12:29:27.025674	202.6	22.0	-69.4	0.0
2026-01-26 12:29:28.138475	202.8	22.2	-69.4	0.0
2026-01-26 12:29:29.251737	203.0	22.4	-69.6	0.0
2026-01-26 12:29:30.364457	203.2	22.5	-69.3	0.0
2026-01-26 12:29:31.477603	203.4	22.7	-69.6	0.0
2026-01-26 12:29:32.590550	203.6	22.8	-69.2	0.0
2026-01-26 12:29:33.703041	203.8	23.0	-69.4	0.0
2026-01-26 12:29:34.815411	204.0	23.1	-69.2	0.0
2026-01-26 12:29:35.928304	204.2	23.3	-69.1	0.0
2026-01-26 12:29:37.041195	204.4	23.4	-69.5	0.0
2026-01-26 12:29:38.154172	204.6	23.6	-69.4	0.0
2026-01-26 12:29:39.266953	204.8	23.8	-69.5	0.0
2026-01-26 12:29:40.380212	205.0	23.9	-69.2	0.0
2026-01-26 12:29:41.492679	205.2	24.1	-69.7	0.0
2026-01-26 12:29:42.605216	205.4	24.2	-69.5	0.0
2026-01-26 12:29:43.718369	205.6	24.4	-69.5	0.0
2026-01-26 12:29:44.830814	205.9	24.6	-69.4	0.0
2026-01-26 12:29:45.943942	206.1	24.7	-69.3	0.0
2026-01-26 12:29:47.057208	206.3	24.9	-69.4	0.0
2026-01-26 12:29:48.169270	206.5	25.0	-69.3	0.0
2026-01-26 12:29:49.281675	206.8	25.2	-69.3	0.0
2026-01-26 12:29:50.395073	207.0	25.4	-69.4	0.0
2026-01-26 12:29:51.508023	207.2	25.5	-69.6	0.0
2026-01-26 12:29:52.620946	207.5	25.7	-69.4	0.0
2026-01-26 12:29:53.734554	207.7	25.9	-69.2	0.0
2026-01-26 12:29:54.847647	208.0	26.0	-69.3	0.0
2026-01-26 12:29:55.960557	208.2	26.2	-69.1	0.0
2026-01-26 12:29:57.073299	208.5	26.4	-69.7	0.0
2026-01-26 12:29:58.185791	208.7	26.6	-69.4	0.0
2026-01-26 12:29:59.298784	209.0	26.7	-69.0	0.0
2026-01-26 12:30:00.411058	209.2	26.9	-68.9	0.0
2026-01-26 12:30:01.523329	209.5	27.1	-69.5	0.0
2026-01-26 12:30:02.636432	209.8	27.2	-69.2	0.0
2026-01-26 12:30:03.749399	210.0	27.4	-69.3	0.0
2026-01-26 12:30:04.864648	210.3	27.6	-69.4	0.0
2026-01-26 12:30:05.977506	210.6	27.8	-69.3	0.0
2026-01-26 12:30:07.090171	210.8	27.9	-69.5	0.0
2026-01-26 12:30:08.207909	211.1	28.1	-69.3	0.0
2026-01-26 12:30:09.321046	211.4	28.3	-69.1	0.0
2026-01-26 12:30:10.433875	211.7	28.5	-69.4	0.0
2026-01-26 12:30:11.546503	212.0	28.6	-69.6	0.0
2026-01-26 12:30:12.659543	212.3	28.8	-69.2	0.0
2026-01-26 12:30:13.778866	212.6	29.0	-69.1	0.0
2026-01-26 12:30:14.893645	212.9	29.2	-69.4	0.0
2026-01-26 12:30:16.006645	213.2	29.3	-69.4	0.0
2026-01-26 12:30:17.119630	213.5	29.5	-69.3	0.0
2026-01-26 12:30:18.232484	213.8	29.7	-69.4	0.0
2026-01-26 12:30:19.345623	214.1	29.9	-69.4	0.0
2026-01-26 12:30:20.458355	214.4	30.0	-69.2	0.0
2026-01-26 12:30:21.570581	214.7	30.2	-69.4	0.0
2026-01-26 12:30:22.683682	215.0	30.4	-69.7	0.0
2026-01-26 12:30:23.795591	215.4	30.6	-69.1	0.0
2026-01-26 12:30:24.908758	215.7	30.8	-69.4	0.0
2026-01-26 12:30:26.022080	216.0	30.9	-69.5	0.0
2026-01-26 12:30:27.135253	216.4	31.1	-69.6	0.0
2026-01-26 12:30:28.248126	216.7	31.3	-69.5	0.0
2026-01-26 12:30:29.360988	217.0	31.5	-69.3	0.0
2026-01-26 12:30:30.474174	217.4	31.7	-69.2	0.0
2026-01-26 12:30:31.587195	217.7	31.8	-69.7	0.0
2026-01-26 12:30:32.699942	218.1	32.0	-69.2	0.0
2026-01-26 12:30:33.812814	218.5	32.2	-69.5	0.0
2026-01-26 12:30:34.925699	218.8	32.4	-69.5	0.0
2026-01-26 12:30:36.037636	219.2	32.6	-69.5	0.0
2026-01-26 12:30:37.152380	219.6	32.8	-69.8	0.0
2026-01-26 12:30:38.265205	219.9	32.9	-68.8	0.0
2026-01-26 12:30:39.378675	220.3	33.1	-69.5	0.0
2026-01-26 12:30:40.491843	220.7	33.3	-69.3	0.0
2026-01-26 12:30:41.604739	221.1	33.5	-69.5	0.0
2026-01-26 12:30:42.718231	221.5	33.6	-69.5	0.0
2026-01-26 12:30:43.830498	221.9	33.8	-69.6	0.0
2026-01-26 12:30:44.942937	222.3	34.0	-69.5	0.0
2026-01-26 12:30:46.056555	222.7	34.2	-69.6	0.0
2026-01-26 12:30:47.169384	223.1	34.4	-69.1	0.0
2026-01-26 12:30:48.282697	223.5	34.5	-68.9	0.0
2026-01-26 12:30:49.395756	223.9	34.7	-69.4	0.0
2026-01-26 12:30:50.509047	224.4	34.9	-69.4	0.0
2026-01-26 12:30:51.622033	224.8	35.1	-69.6	0.0
2026-01-26 12:30:52.734366	225.2	35.2	-69.6	0.0
2026-01-26 12:30:53.847563	225.7	35.4	-69.2	0.0
2026-01-26 12:30:54.960423	226.1	35.6	-69.5	0.0
2026-01-26 12:30:56.073935	226.6	35.8	-69.6	0.0
2026-01-26 12:30:57.187146	227.0	35.9	-69.2	0.0
2026-01-26 12:30:58.300342	227.5	36.1	-69.5	0.0
2026-01-26 12:30:59.413010	227.9	36.3	-69.7	0.0
2026-01-26 12:31:00.526379	228.4	36.4	-69.6	0.0
2026-01-26 12:31:01.639719	228.9	36.6	-69.5	0.0
2026-01-26 12:31:02.754527	229.4	36.8	-69.6	0.0
2026-01-26 12:31:03.867039	229.8	36.9	-69.7	0.0
2026-01-26 12:31:04.978831	230.3	37.1	-69.3	0.0
2026-01-26 12:31:06.091708	230.8	37.3	-69.3	0.0
2026-01-26 12:31:07.204189	231.3	37.4	-69.6	0.0
2026-01-26 12:31:08.316694	231.8	37.6	-69.3	0.0
2026-01-26 12:31:09.430214	232.3	37.7	-69.4	0.0
2026-01-26 12:31:10.542855	232.8	37.9	-69.5	0.0
2026-01-26 12:31:11.656176	233.4	38.0	-68.5	0.0
2026-01-26 12:31:12.773852	233.9	38.2	-69.4	0.0
2026-01-26 12:31:13.886867	234.4	38.3	-68.5	0.0
2026-01-26 12:31:14.998727	234.9	38.5	-69.5	0.0
2026-01-26 12:31:16.111739	235.5	38.6	-69.3	0.0
2026-01-26 12:31:17.225443	236.0	38.8	-69.3	0.0
2026-01-26 12:31:18.337932	236.6	38.9	-69.6	0.0
2026-01-26 12:31:19.450957	237.1	39.0	-69.5	0.0
2026-01-26 12:31:20.564412	237.7	39.2	-69.7	0.0
2026-01-26 12:31:21.677969	238.2	39.3	-69.6	0.0
2026-01-26 12:31:22.793944	238.8	39.4	-69.5	0.0
2026-01-26 12:31:23.907168	239.4	39.6	-69.5	0.0
2026-01-26 12:31:25.020296	239.9	39.7	-68.8	0.0
2026-01-26 12:31:26.132555	240.5	39.8	-69.1	0.0
2026-01-26 12:31:27.245471	241.1	39.9	-69.4	0.0
2026-01-26 12:31:28.358850	241.7	40.1	-69.5	0.0
2026-01-26 12:31:29.472119	242.3	40.2	-68.8	0.0
2026-01-26 12:31:30.584320	242.9	40.3	-69.4	0.0
2026-01-26 12:31:31.696707	243.5	40.4	-69.5	0.0
2026-01-26 12:31:32.809885	244.1	40.5	-69.5	0.0
2026-01-26 12:31:33.922429	244.7	40.6	-69.2	0.0
2026-01-26 12:31:35.035506	245.3	40.7	-69.4	0.0
2026-01-26 12:31:36.148859	245.9	40.8	-69.2	0.0
2026-01-26 12:31:37.261084	246.5	40.9	-69.4	0.0
2026-01-26 12:31:38.374365	247.2	41.0	-69.5	0.0
2026-01-26 12:31:39.487867	247.8	41.1	-69.6	0.0
2026-01-26 12:31:40.600490	248.4	41.2	-69.5	0.0
2026-01-26 12:31:41.713510	249.0	41.2	-69.6	0.0
2026-01-26 12:31:42.826538	249.7	41.3	-69.4	0.0
2026-01-26 12:31:43.939608	250.3	41.4	-69.5	0.0
2026-01-26 12:31:45.052906	251.0	41.4	-69.2	0.0
2026-01-26 12:31:46.166074	251.6	41.5	-68.5	0.0
2026-01-26 12:31:47.278825	252.2	41.6	-69.5	0.0
2026-01-26 12:31:48.391830	252.9	41.6	-69.5	0.0
2026-01-26 12:31:49.504695	253.5	41.7	-69.5	0.0
2026-01-26 12:31:50.617620	254.2	41.7	-69.5	0.0
2026-01-26 12:31:51.729995	254.8	41.8	-69.6	0.0
2026-01-26 12:31:52.842995	255.5	41.8	-69.5	0.0
2026-01-26 12:31:53.955879	256.2	41.9	-69.4	0.0
2026-01-26 12:31:55.068451	256.8	41.9	-69.6	0.0
2026-01-26 12:31:56.181673	257.5	41.9	-69.6	0.0
2026-01-26 12:31:57.294478	258.1	41.9	-69.3	0.0
2026-01-26 12:31:58.407272	258.8	42.0	-69.5	0.0
2026-01-26 12:31:59.520258	259.5	42.0	-69.4	0.0
2026-01-26 12:32:00.633120	260.1	42.0	-69.6	0.0
2026-01-26 12:32:01.746136	260.8	42.0	-69.7	0.0
2026-01-26 12:32:02.859126	261.5	42.0	-69.5	0.0
2026-01-26 12:32:03.972132	262.1	42.0	-69.5	0.0
2026-01-26 12:32:05.085647	262.8	42.0	-69.8	0.0
2026-01-26 12:32:06.198277	263.4	42.0	-69.6	0.0
2026-01-26 12:32:07.311211	264.1	42.0	-69.6	0.0
2026-01-26 12:32:08.427901	264.8	41.9	-69.2	0.0
2026-01-26 12:32:09.541441	265.4	41.9	-69.5	0.0
2026-01-26 12:32:10.654016	266.1	41.9	-68.8	0.0
2026-01-26 12:32:11.767378	266.8	41.9	-69.7	0.0
2026-01-26 12:32:12.880118	267.4	41.8	-69.8	0.0
2026-01-26 12:32:13.992505	268.1	41.8	-69.7	0.0
2026-01-26 12:32:15.104686	268.7	41.8	-69.5	0.0
2026-01-26 12:32:16.217473	269.4	41.7	-69.6	0.0
2026-01-26 12:32:17.330955	270.0	41.7	-69.3	0.0
2026-01-26 12:32:18.443617	270.7	41.6	-69.2	0.0
2026-01-26 12:32:19.556161	271.3	41.6	-69.3	0.0
2026-01-26 12:32:20.669542	272.0	41.5	-69.3	0.0
2026-01-26 12:32:21.782671	272.6	41.4	-69.6	0.0
2026-01-26 12:32:22.895549	273.2	41.4	-69.6	0.0
2026-01-26 12:32:24.008902	273.9	41.3	-69.3	0.0
2026-01-26 12:32:25.121983	274.5	41.2	-69.7	0.0
2026-01-26 12:32:26.234745	275.1	41.1	-69.2	0.0
2026-01-26 12:32:27.347112	275.8	41.0	-69.4	0.0
2026-01-26 12:32:28.460493	276.4	41.0	-69.7	0.0
2026-01-26 12:32:29.573165	277.0	40.9	-69.7	0.0
2026-01-26 12:32:30.686590	277.6	40.8	-69.2	0.0
2026-01-26 12:32:31.798605	278.2	40.7	-69.3	0.0
2026-01-26 12:32:32.911509	278.8	40.6	-69.4	0.0
2026-01-26 12:32:34.024632	279.5	40.5	-69.6	0.0
2026-01-26 12:32:35.136961	280.1	40.4	-69.6	0.0
2026-01-26 12:32:36.249697	280.6	40.3	-69.5	0.0
2026-01-26 12:32:37.362577	281.2	40.1	-69.6	0.0
2026-01-26 12:32:38.475722	281.8	40.0	-69.6	0.0
2026-01-26 12:32:39.588489	282.4	39.9	-69.4	0.0
2026-01-26 12:32:40.701838	283.0	39.8	-69.4	0.0
2026-01-26 12:32:41.814280	283.6	39.7	-69.6	0.0
2026-01-26 12:32:42.928210	284.1	39.5	-69.5	0.0
2026-01-26 12:32:44.040787	284.7	39.4	-69.6	0.0
2026-01-26 12:32:45.154119	285.3	39.3	-69.6	0.0
2026-01-26 12:32:46.267470	285.8	39.1	-69.3	0.0
2026-01-26 12:32:47.380224	286.4	39.0	-69.4	0.0
2026-01-26 12:32:48.493176	286.9	38.9	-69.4	0.0
2026-01-26 12:32:49.606259	287.5	38.7	-69.7	0.0
2026-01-26 12:32:50.718613	288.0	38.6	-69.7	0.0
2026-01-26 12:32:51.830751	288.5	38.4	-69.5	0.0
2026-01-26 12:32:52.944299	289.1	38.3	-69.3	0.0
2026-01-26 12:32:54.056607	289.6	38.1	-69.6	0.0
2026-01-26 12:32:55.169754	290.1	38.0	-69.5	0.0
2026-01-26 12:32:56.282648	290.6	37.8	-69.7	0.0
2026-01-26 12:32:57.395399	291.1	37.7	-69.5	0.0
2026-01-26 12:32:58.508902	291.6	37.5	-68.9	0.0
2026-01-26 12:32:59.621259	292.1	37.4	-69.5	0.0
2026-01-26 12:33:00.733767	292.6	37.2	-69.0	0.0
2026-01-26 12:33:01.846257	293.1	37.1	-69.4	0.0
2026-01-26 12:33:02.959036	293.6	36.9	-69.4	0.0
2026-01-26 12:33:04.072171	294.1	36.7	-69.4	0.0
2026-01-26 12:33:05.185039	294.6	36.6	-69.6	0.0
2026-01-26 12:33:06.297489	295.0	36.4	-69.4	0.0
2026-01-26 12:33:07.410547	295.5	36.2	-69.4	0.0
2026-01-26 12:33:08.523574	296.0	36.1	-69.5	0.0
2026-01-26 12:33:09.636685	296.4	35.9	-69.4	0.0
2026-01-26 12:33:10.749327	296.9	35.7	-69.3	0.0
2026-01-26 12:33:11.861316	297.3	35.6	-69.6	0.0
2026-01-26 12:33:12.974194	297.7	35.4	-69.5	0.0
2026-01-26 12:33:14.086707	298.2	35.2	-69.6	0.0
2026-01-26 12:33:15.199570	298.6	35.0	-69.6	0.0
2026-01-26 12:33:16.312648	299.0	34.9	-69.5	0.0
2026-01-26 12:33:17.426123	299.5	34.7	-69.6	0.0
2026-01-26 12:33:18.539049	299.9	34.5	-69.0	0.0
2026-01-26 12:33:19.652172	300.3	34.3	-69.4	0.0
2026-01-26 12:33:20.765062	300.7	34.2	-69.2	0.0
2026-01-26 12:33:21.877646	301.1	34.0	-69.4	0.0
2026-01-26 12:33:22.990528	301.5	33.8	-69.5	0.0
2026-01-26 12:33:24.103537	301.9	33.6	-69.6	0.0
2026-01-26 12:33:25.216501	302.3	33.4	-69.3	0.0
2026-01-26 12:33:26.329158	302.7	33.3	-69.2	0.0
2026-01-26 12:33:27.443051	303.1	33.1	-69.2	0.0
2026-01-26 12:33:28.556345	303.4	32.9	-69.3	0.0
2026-01-26 12:33:29.669493	303.8	32.7	-69.3	0.0
2026-01-26 12:33:30.783100	304.2	32.6	-69.5	0.0
2026-01-26 12:33:31.895491	304.6	32.4	-69.5	0.0
2026-01-26 12:33:33.008503	304.9	32.2	-69.4	0.0
2026-01-26 12:33:34.121642	305.3	32.0	-69.3	0.0
2026-01-26 12:33:35.235033	305.6	31.8	-69.5	0.0
2026-01-26 12:33:36.347881	306.0	31.7	-69.6	0.0
2026-01-26 12:33:37.460707	306.3	31.5	-69.5	0.0
2026-01-26 12:33:38.573855	306.7	31.3	-69.5	0.0
2026-01-26 12:33:39.686661	307.0	31.1	-69.5	0.0
2026-01-26 12:33:40.801563	307.3	30.9	-69.6	0.0
2026-01-26 12:33:41.914229	307.7	30.8	-68.9	0.0
2026-01-26 12:33:43.027100	308.0	30.6	-69.7	0.0
2026-01-26 12:33:44.140377	308.3	30.4	-69.4	0.0
2026-01-26 12:33:45.253202	308.6	30.2	-69.3	0.0
2026-01-26 12:33:46.365982	309.0	30.1	-69.0	0.0
2026-01-26 12:33:47.479848	309.3	29.9	-69.5	0.0
2026-01-26 12:33:48.592250	309.6	29.7	-69.5	0.0
2026-01-26 12:33:49.705682	309.9	29.5	-68.7	0.0
2026-01-26 12:33:50.818628	310.2	29.3	-69.4	0.0
2026-01-26 12:33:51.933296	310.5	29.2	-69.3	0.0
2026-01-26 12:33:53.046589	310.8	29.0	-69.3	0.0
2026-01-26 12:33:54.159388	311.1	28.8	-69.4	0.0
2026-01-26 12:33:55.271500	311.4	28.6	-69.4	0.0
2026-01-26 12:33:56.384255	311.6	28.5	-69.5	0.0
2026-01-26 12:33:57.497135	311.9	28.3	-69.6	0.0
2026-01-26 12:33:58.610025	312.2	28.1	-69.6	0.0
2026-01-26 12:33:59.722901	312.5	27.9	-69.2	0.0
2026-01-26 12:34:00.835875	312.8	27.8	-69.1	0.0
2026-01-26 12:34:01.948324	313.0	27.6	-69.4	0.0
2026-01-26 12:34:03.061315	313.3	27.4	-69.2	0.0
2026-01-26 12:34:04.174490	313.6	27.3	-69.4	0.0
2026-01-26 12:34:05.287658	313.8	27.1	-69.5	0.0
2026-01-26 12:34:06.400534	314.1	26.9	-69.3	0.0
2026-01-26 12:34:07.512661	314.3	26.7	-69.2	0.0
2026-01-26 12:34:08.625550	314.6	26.6	-69.2	0.0
2026-01-26 12:34:09.738547	314.8	26.4	-69.5	0.0
2026-01-26 12:34:10.851114	315.1	26.2	-69.7	0.0
2026-01-26 12:34:11.963587	315.3	26.1	-69.1	0.0
2026-01-26 12:34:13.077425	315.6	25.9	-69.5	0.0
2026-01-26 12:34:14.190105	315.8	25.7	-69.6	0.0
2026-01-26 12:34:15.302854	316.1	25.6	-69.6	0.0
2026-01-26 12:34:16.416055	316.3	25.4	-69.5	0.0
2026-01-26 12:34:17.528866	316.5	25.3	-69.3	0.0
2026-01-26 12:34:18.642113	316.8	25.1	-69.2	0.0
2026-01-26 12:34:19.754984	317.0	24.9	-69.4	0.0
2026-01-26 12:34:20.867991	317.2	24.8	-69.5	0.0
2026-01-26 12:34:21.981365	317.4	24.6	-69.7	0.0
2026-01-26 12:34:23.094249	317.6	24.4	-69.3	0.0
2026-01-26 12:34:24.207414	317.9	24.3	-69.6	0.0
2026-01-26 12:34:25.320244	318.1	24.1	-69.4	0.0
2026-01-26 12:34:26.434453	318.3	24.0	-69.6	0.0
2026-01-26 12:34:27.547392	318.5	23.8	-69.5	0.0
2026-01-26 12:34:28.660254	318.7	23.6	-69.7	0.0
2026-01-26 12:34:29.772353	318.9	23.5	-69.4	0.0
2026-01-26 12:34:30.885491	319.1	23.3	-69.5	0.0
2026-01-26 12:34:31.997987	319.3	23.2	-69.6	0.0
2026-01-26 12:34:33.110627	319.5	23.0	-69.4	0.0
2026-01-26 12:34:34.224124	319.7	22.9	-69.3	0.0
2026-01-26 12:34:35.336453	319.9	22.7	-69.7	0.0
2026-01-26 12:34:36.449354	320.1	22.6	-69.5	0.0
2026-01-26 12:34:37.562286	320.3	22.4	-69.4	0.0
2026-01-26 12:34:38.674605	320.5	22.3	-69.5	0.0
2026-01-26 12:34:39.787648	320.7	22.1	-68.2	0.0
2026-01-26 12:34:40.900528	320.9	22.0	-69.7	0.0
2026-01-26 12:34:42.013758	321.1	21.8	-69.7	0.0
2026-01-26 12:34:43.126954	321.3	21.7	-69.3	0.0
2026-01-26 12:34:44.239328	321.4	21.5	-69.7	0.0
2026-01-26 12:34:45.352080	321.6	21.4	-69.3	0.0
2026-01-26 12:34:46.465217	321.8	21.2	-69.4	0.0
2026-01-26 12:34:47.579110	322.0	21.1	-69.6	0.0
2026-01-26 12:34:48.691769	322.1	20.9	-69.3	0.0
2026-01-26 12:34:49.805489	322.3	20.8	-69.6	0.0
2026-01-26 12:34:50.923247	322.5	20.6	-69.7	0.0
2026-01-26 12:34:52.036102	322.7	20.5	-69.5	0.0
2026-01-26 12:34:53.148805	322.8	20.4	-69.5	0.0
2026-01-26 12:34:54.261777	323.0	20.2	-69.4	0.0
2026-01-26 12:34:55.373747	323.2	20.1	-69.3	0.0
2026-01-26 12:34:56.486136	323.3	19.9	-69.4	0.0
2026-01-26 12:34:57.598793	323.5	19.8	-69.5	0.0
2026-01-26 12:34:58.711282	323.7	19.7	-69.4	0.0
2026-01-26 12:34:59.824286	323.8	19.5	-69.5	0.0
2026-01-26 12:35:00.939087	324.0	19.4	-69.3	0.0
2026-01-26 12:35:02.052291	324.1	19.2	-69.7	0.0
2026-01-26 12:35:03.165347	324.3	19.1	-69.5	0.0
2026-01-26 12:35:04.278358	324.4	19.0	-69.5	0.0
2026-01-26 12:35:05.391104	324.6	18.8	-69.5	0.0
2026-01-26 12:35:06.504090	324.7	18.7	-69.6	0.0
2026-01-26 12:35:07.616081	324.9	18.6	-69.5	0.0
2026-01-26 12:35:08.729707	325.0	18.4	-69.4	0.0
2026-01-26 12:35:09.843115	325.2	18.3	-69.4	0.0
2026-01-26 12:35:10.960397	325.3	18.2	-69.6	0.0
2026-01-26 12:35:12.074052	325.5	18.0	-69.4	0.0
2026-01-26 12:35:13.186488	325.6	17.9	-69.6	0.0
2026-01-26 12:35:14.298966	325.8	17.8	-69.6	0.0
2026-01-26 12:35:15.412256	325.9	17.6	-69.2	0.0
2026-01-26 12:35:16.525390	326.0	17.5	-69.4	0.0
2026-01-26 12:35:17.638502	326.2	17.4	-69.3	0.0
2026-01-26 12:35:18.751505	326.3	17.3	-69.6	0.0
2026-01-26 12:35:19.864628	326.4	17.1	-69.3	0.0
2026-01-26 12:35:20.978369	326.6	17.0	-69.6	0.0
2026-01-26 12:35:22.091299	326.7	16.9	-69.1	0.0
2026-01-26 12:35:23.205082	326.8	16.7	-69.6	0.0
2026-01-26 12:35:24.318145	327.0	16.6	-69.5	0.0
2026-01-26 12:35:25.430909	327.1	16.5	-69.7	0.0
2026-01-26 12:35:26.543515	327.2	16.4	-69.7	0.0
2026-01-26 12:35:27.656543	327.4	16.3	-69.5	0.0
2026-01-26 12:35:28.769045	327.5	16.1	-69.6	0.0
2026-01-26 12:35:29.881908	327.6	16.0	-69.3	0.0
2026-01-26 12:35:30.994554	327.7	15.9	-69.6	0.0
2026-01-26 12:35:32.107740	327.9	15.8	-69.4	0.0
2026-01-26 12:35:33.220551	328.0	15.6	-69.4	0.0
2026-01-26 12:35:34.333611	328.1	15.5	-69.4	0.0
2026-01-26 12:35:35.447323	328.2	15.4	-69.3	0.0
2026-01-26 12:35:36.560054	328.3	15.3	-69.4	0.0
2026-01-26 12:35:37.672654	328.5	15.2	-69.7	0.0
2026-01-26 12:35:38.784263	328.6	15.0	-69.7	0.0
#Closed at: 2026-01-26 12:28:23.707583