passes_logs/2026/01/30/XPeterburg/XPeterburg__20260130_023602_FENGYUN_3D_rec.log

#Pass ID: 20260130_023602_FENGYUN 3D
#Satellite: FENGYUN 3D
#Configuration: FENGYUN 3D
#Start time: 2026-01-30 02:35:57

#Version: 1.5.20200625
#Station: XPeterburg
#Location: 30.318091 lon 59.932769 lat
#TLE: 1 43010U 17072A   26028.95797775  .00000451  00000+0  23492-3 0  9991
#TLE: 2 43010  98.9958   0.9922 0002505  85.7480 274.3981 14.19703224425237

#Time	Az	El	Level	Level2	SNR	BER	Gain	Gain2
2026-01-30 02:35:57.56	11.48	67.72	-38.1	-40.6	3.3	8397617	94	3282
2026-01-30 02:35:57.97	11.39	67.90	-38.1	-42.2	3.5	8447914	93	3910
2026-01-30 02:35:58.37	11.31	68.08	-38.1	-41.0	3.3	8404701	93	3447
2026-01-30 02:35:58.77	11.23	68.26	-37.8	-41.5	3.6	8408042	93	3733
2026-01-30 02:35:59.17	11.14	68.44	-37.5	-39.0	3.4	8400272	93	2912
2026-01-30 02:35:59.57	11.06	68.63	-37.0	-39.1	3.8	8394607	92	3155
2026-01-30 02:35:59.98	10.97	68.81	-36.2	-36.4	4.8	8331275	91	2500
2026-01-30 02:36:00.38	10.88	68.99	-35.1	-35.2	5.8	6543731	88	2471
2026-01-30 02:36:00.78	10.79	69.17	-33.7	-33.4	7.1	3184902	86	2368
2026-01-30 02:36:01.18	10.69	69.36	-33.0	-32.6	8.4	816158	84	2360
2026-01-30 02:36:01.58	10.60	69.54	-32.1	-31.7	9.7	355155	82	2362
2026-01-30 02:36:01.99	10.50	69.73	-31.2	-30.8	11.0	126148	80	2362
2026-01-30 02:36:02.39	10.40	69.91	-30.0	-29.5	12.2	9029	78	2318
2026-01-30 02:36:02.79	10.30	70.09	-29.0	-28.5	13.4	1808	76	2304
2026-01-30 02:36:03.19	10.20	70.28	-28.0	-27.4	14.4	320	74	2300
2026-01-30 02:36:03.59	10.09	70.46	-27.3	-26.4	15.2	0	73	2224
2026-01-30 02:36:04.00	9.98	70.65	-27.0	-26.3	15.5	0	72	2276
2026-01-30 02:36:04.40	9.87	70.83	-26.9	-26.1	15.7	0	72	2249
2026-01-30 02:36:04.80	9.76	71.02	-26.7	-26.2	15.7	0	71	2334
2026-01-30 02:36:05.20	9.64	71.20	-26.6	-26.1	15.7	0	71	2308
2026-01-30 02:36:05.60	9.53	71.39	-26.6	-26.0	15.7	0	71	2301
2026-01-30 02:36:06.01	9.41	71.58	-26.6	-26.0	15.7	0	71	2294
2026-01-30 02:36:06.41	9.28	71.77	-26.7	-26.2	15.6	0	71	2323
2026-01-30 02:36:06.81	9.16	71.95	-26.8	-26.3	15.6	0	71	2331
2026-01-30 02:36:07.21	9.03	72.14	-26.9	-26.5	15.5	0	71	2365
2026-01-30 02:36:07.62	8.90	72.33	-26.8	-26.3	15.6	0	71	2337
2026-01-30 02:36:08.02	8.77	72.52	-26.8	-26.4	15.7	0	71	2344
2026-01-30 02:36:08.42	8.63	72.70	-26.8	-26.3	15.7	0	71	2341
2026-01-30 02:36:08.82	8.49	72.89	-26.7	-26.2	15.8	0	71	2320
2026-01-30 02:36:09.22	8.35	73.08	-26.6	-26.1	15.9	0	71	2316
2026-01-30 02:36:09.63	8.20	73.27	-26.5	-25.9	16.0	0	71	2294
2026-01-30 02:36:10.03	8.05	73.46	-26.7	-26.3	15.9	0	71	2339
2026-01-30 02:36:10.43	7.90	73.65	-26.7	-26.2	16.0	0	71	2332
2026-01-30 02:36:10.83	7.74	73.83	-26.8	-26.4	15.9	0	71	2350
2026-01-30 02:36:11.23	7.58	74.02	-26.7	-26.2	16.0	0	71	2323
2026-01-30 02:36:11.63	7.41	74.21	-26.7	-26.2	16.0	0	71	2322
2026-01-30 02:36:12.04	7.24	74.40	-26.6	-26.0	16.1	0	71	2306
2026-01-30 02:36:12.44	7.07	74.59	-26.5	-25.8	16.2	0	71	2273
2026-01-30 02:36:12.84	6.89	74.78	-26.4	-25.5	16.3	0	71	2236
2026-01-30 02:36:13.24	6.70	74.97	-26.3	-25.4	16.4	0	71	2225
2026-01-30 02:36:13.65	6.51	75.16	-26.4	-25.6	16.3	0	71	2242
2026-01-30 02:36:14.05	6.32	75.35	-26.6	-26.0	16.1	0	71	2299
2026-01-30 02:36:14.45	6.12	75.54	-26.7	-26.1	16.0	0	71	2319
2026-01-30 02:36:14.85	5.92	75.73	-26.6	-26.1	15.9	0	71	2316
2026-01-30 02:36:15.25	5.71	75.92	-26.4	-25.6	16.1	0	71	2248
2026-01-30 02:36:15.65	5.49	76.11	-26.3	-25.9	16.2	0	70	2351
2026-01-30 02:36:16.06	5.27	76.31	-26.2	-25.6	16.3	0	70	2311
2026-01-30 02:36:16.46	5.04	76.50	-26.1	-25.5	16.3	0	70	2288
2026-01-30 02:36:16.86	4.80	76.69	-26.0	-25.3	16.4	0	70	2264
2026-01-30 02:36:17.26	4.56	76.88	-26.0	-25.3	16.4	0	70	2263
2026-01-30 02:36:17.67	4.30	77.07	-26.1	-25.5	16.3	0	70	2293
2026-01-30 02:36:18.07	4.05	77.26	-26.0	-25.3	16.3	0	70	2260
2026-01-30 02:36:18.47	3.78	77.45	-25.9	-25.0	16.5	0	70	2223
2026-01-30 02:36:18.87	3.51	77.64	-25.8	-24.7	16.7	0	70	2188
2026-01-30 02:36:19.27	3.22	77.83	-25.7	-25.1	16.8	0	69	2293
2026-01-30 02:36:19.68	2.93	78.02	-25.7	-25.2	16.8	0	69	2314
2026-01-30 02:36:20.08	2.62	78.21	-25.8	-25.4	16.8	0	69	2342
2026-01-30 02:36:20.48	2.31	78.40	-25.8	-25.4	16.9	0	69	2351
2026-01-30 02:36:20.88	1.99	78.59	-25.9	-25.6	16.9	0	69	2378
2026-01-30 02:36:21.28	1.65	78.78	-26.0	-25.8	16.9	0	69	2409
2026-01-30 02:36:21.69	1.30	78.98	-26.0	-25.9	16.9	0	69	2423
2026-01-30 02:36:22.09	0.94	79.16	-25.9	-25.7	17.0	0	69	2401
2026-01-30 02:36:22.49	0.57	79.35	-25.8	-25.5	17.2	0	69	2369
2026-01-30 02:36:22.89	0.19	79.54	-25.7	-25.2	17.4	0	69	2328
2026-01-30 02:36:23.29	359.79	79.73	-25.5	-24.8	17.6	0	69	2268
2026-01-30 02:36:23.70	359.36	79.92	-25.4	-24.6	17.7	0	69	2241
2026-01-30 02:36:24.10	358.93	80.11	-25.5	-24.8	17.6	0	69	2274
2026-01-30 02:36:24.50	358.48	80.30	-25.6	-25.1	17.4	0	69	2317
2026-01-30 02:36:24.90	358.02	80.48	-25.6	-25.1	17.4	0	69	2315
2026-01-30 02:36:25.31	357.52	80.67	-25.7	-25.2	17.3	0	69	2333
2026-01-30 02:36:25.71	357.01	80.86	-25.6	-25.0	17.4	0	69	2292
2026-01-30 02:36:26.11	356.49	81.04	-25.3	-24.4	17.7	0	69	2219
2026-01-30 02:36:26.51	355.94	81.23	-25.0	-24.4	17.9	0	68	2280
2026-01-30 02:36:26.92	355.35	81.42	-24.8	-23.9	18.2	0	68	2210
2026-01-30 02:36:27.32	354.75	81.60	-24.5	-23.8	18.2	0	67	2272
2026-01-30 02:36:27.72	354.12	81.78	-24.5	-23.7	18.2	0	67	2255
2026-01-30 02:36:28.12	353.47	81.96	-24.5	-23.7	18.2	0	67	2255
2026-01-30 02:36:28.53	352.77	82.15	-24.4	-23.6	18.2	0	67	2237
2026-01-30 02:36:28.93	352.05	82.33	-24.3	-23.3	18.3	0	67	2208
2026-01-30 02:36:29.33	351.29	82.50	-24.2	-23.7	18.4	0	66	2323
2026-01-30 02:36:29.73	350.50	82.68	-24.1	-23.4	18.6	0	66	2273
2026-01-30 02:36:30.14	349.65	82.86	-23.9	-23.0	18.8	0	66	2216
2026-01-30 02:36:30.54	348.78	83.03	-23.7	-23.2	18.9	0	65	2308
2026-01-30 02:36:30.94	347.86	83.21	-23.6	-23.0	18.9	0	65	2280
2026-01-30 02:36:31.34	346.90	83.38	-23.6	-22.9	18.9	0	65	2276
2026-01-30 02:36:31.75	345.85	83.55	-23.8	-23.3	18.7	0	65	2336
2026-01-30 02:36:32.15	344.78	83.72	-23.9	-23.5	18.6	0	65	2363
2026-01-30 02:36:32.55	343.65	83.88	-24.0	-23.8	18.5	0	65	2397
2026-01-30 02:36:32.95	342.45	84.04	-24.0	-23.7	18.6	0	65	2385
2026-01-30 02:36:33.35	341.19	84.20	-23.9	-23.6	18.6	0	65	2372
2026-01-30 02:36:33.75	339.86	84.36	-23.9	-23.6	18.7	0	65	2368
2026-01-30 02:36:34.16	338.42	84.52	-24.0	-23.7	18.6	0	65	2383
2026-01-30 02:36:34.56	336.93	84.67	-24.0	-23.8	18.5	0	65	2405
2026-01-30 02:36:34.96	335.35	84.81	-24.1	-24.0	18.4	0	65	2428
2026-01-30 02:36:35.36	333.68	84.95	-24.1	-24.0	18.4	0	65	2427
2026-01-30 02:36:35.76	331.92	85.09	-24.2	-24.0	18.4	0	65	2429
2026-01-30 02:36:36.17	330.01	85.23	-24.1	-23.9	18.4	0	65	2417
2026-01-30 02:36:36.57	328.04	85.35	-24.1	-23.9	18.5	0	65	2403
2026-01-30 02:36:36.97	325.96	85.48	-24.0	-23.8	18.5	0	65	2396
2026-01-30 02:36:37.37	323.77	85.59	-24.0	-23.7	18.5	0	65	2386
2026-01-30 02:36:37.78	321.41	85.70	-24.0	-23.8	18.5	0	65	2388
2026-01-30 02:36:38.18	318.98	85.80	-24.0	-23.8	18.4	0	65	2397
2026-01-30 02:36:38.58	316.45	85.90	-23.9	-23.6	18.5	0	65	2374
2026-01-30 02:36:38.98	313.79	85.98	-23.8	-23.4	18.7	0	65	2350
2026-01-30 02:36:39.38	311.03	86.06	-23.8	-23.3	18.8	0	65	2334
2026-01-30 02:36:39.78	308.17	86.12	-23.8	-23.3	18.8	0	65	2330
2026-01-30 02:36:40.19	305.14	86.18	-23.9	-23.5	18.8	0	65	2357
2026-01-30 02:36:40.59	302.10	86.23	-23.9	-23.5	18.8	0	65	2359
2026-01-30 02:36:40.99	299.00	86.26	-24.0	-23.7	18.7	0	65	2390
2026-01-30 02:36:41.39	295.85	86.29	-24.1	-23.9	18.7	0	65	2417
2026-01-30 02:36:41.79	292.66	86.30	-24.2	-24.2	18.6	0	65	2463
2026-01-30 02:36:42.20	289.39	86.30	-24.5	-24.7	18.4	0	65	2518
2026-01-30 02:36:42.60	286.20	86.29	-24.7	-24.7	18.1	0	66	2457
2026-01-30 02:36:43.00	283.05	86.27	-24.9	-25.0	18.0	0	66	2506
2026-01-30 02:36:43.40	279.93	86.23	-25.0	-25.2	17.8	0	66	2539
2026-01-30 02:36:43.80	276.89	86.19	-24.9	-24.7	17.7	0	67	2385
2026-01-30 02:36:44.21	273.84	86.13	-24.9	-24.6	17.8	0	67	2370
2026-01-30 02:36:44.61	270.97	86.07	-25.0	-24.7	17.7	0	67	2385
2026-01-30 02:36:45.01	268.19	85.99	-25.0	-24.8	17.7	0	67	2411
2026-01-30 02:36:45.41	265.52	85.91	-25.2	-25.2	17.6	0	67	2461
2026-01-30 02:36:45.82	262.90	85.81	-25.3	-25.4	17.5	0	67	2489
2026-01-30 02:36:46.22	260.46	85.71	-25.4	-25.5	17.4	0	67	2501
2026-01-30 02:36:46.62	258.14	85.61	-25.4	-25.6	17.3	0	67	2523
2026-01-30 02:36:47.02	255.93	85.49	-25.5	-25.7	17.3	0	67	2525
2026-01-30 02:36:47.42	253.84	85.37	-25.8	-25.8	17.2	0	68	2476
2026-01-30 02:36:47.83	251.81	85.24	-25.9	-25.5	17.1	0	69	2368
2026-01-30 02:36:48.23	249.93	85.11	-26.1	-26.0	16.9	0	69	2442
2026-01-30 02:36:48.63	248.15	84.97	-26.2	-26.3	16.8	0	69	2473
2026-01-30 02:36:49.03	246.47	84.83	-26.2	-26.1	16.9	0	69	2449
2026-01-30 02:36:49.43	244.88	84.69	-26.1	-25.9	17.0	0	69	2420
2026-01-30 02:36:49.83	243.38	84.54	-26.1	-26.0	16.9	0	69	2429
2026-01-30 02:36:50.24	241.92	84.38	-26.1	-25.9	16.9	0	69	2418
2026-01-30 02:36:50.64	240.58	84.22	-26.2	-26.2	16.7	0	69	2455
2026-01-30 02:36:51.04	239.31	84.07	-26.3	-26.4	16.6	0	69	2495
2026-01-30 02:36:51.45	238.07	83.90	-26.7	-26.8	16.2	0	70	2484
2026-01-30 02:36:51.85	236.94	83.74	-27.0	-27.3	16.0	0	70	2554
2026-01-30 02:36:52.25	235.85	83.57	-27.2	-27.2	15.8	0	71	2474
2026-01-30 02:36:52.65	234.83	83.40	-27.2	-27.2	15.8	0	71	2467
2026-01-30 02:36:53.06	233.83	83.23	-27.4	-27.6	15.6	0	71	2523
2026-01-30 02:36:53.46	232.91	83.05	-27.3	-27.3	15.7	0	71	2488
2026-01-30 02:36:53.86	232.03	82.88	-27.4	-27.5	15.7	0	71	2514
2026-01-30 02:36:54.26	231.19	82.70	-27.2	-27.2	15.9	0	71	2461
2026-01-30 02:36:54.67	230.38	82.52	-27.4	-27.6	15.6	0	71	2522
2026-01-30 02:36:55.07	229.62	82.35	-27.7	-27.7	15.5	0	72	2474
2026-01-30 02:36:55.47	228.90	82.17	-28.0	-28.3	15.1	0	72	2556
2026-01-30 02:36:55.87	228.21	81.99	-27.9	-27.7	15.0	11	73	2391
2026-01-30 02:36:56.27	227.55	81.80	-27.9	-27.5	15.1	11	73	2373
2026-01-30 02:36:56.67	226.92	81.62	-27.7	-27.2	15.3	0	73	2331
2026-01-30 02:36:57.08	226.30	81.44	-27.6	-27.0	15.4	0	73	2300
2026-01-30 02:36:57.48	225.72	81.25	-27.5	-26.9	15.5	0	73	2275
2026-01-30 02:36:57.88	225.17	81.07	-27.6	-26.9	15.5	0	73	2292
2026-01-30 02:36:58.28	224.64	80.88	-27.8	-27.5	15.3	0	73	2366
2026-01-30 02:36:58.68	224.13	80.70	-28.1	-28.0	15.0	0	73	2445
2026-01-30 02:36:59.09	223.63	80.51	-28.2	-28.2	14.8	11	73	2473
2026-01-30 02:36:59.49	223.16	80.32	-28.3	-28.5	14.6	0	73	2520
2026-01-30 02:36:59.89	222.71	80.13	-28.4	-28.6	14.6	0	73	2536
2026-01-30 02:37:00.29	222.28	79.95	-28.3	-28.4	14.7	0	73	2500
2026-01-30 02:37:00.69	221.86	79.76	-28.3	-28.4	14.7	0	73	2501
2026-01-30 02:37:01.10	221.45	79.56	-28.3	-28.5	14.7	0	73	2516
2026-01-30 02:37:01.50	221.06	79.38	-28.4	-28.7	14.6	0	73	2542
2026-01-30 02:37:01.90	220.69	79.19	-28.3	-28.6	14.6	0	73	2530
2026-01-30 02:37:02.30	220.33	79.00	-28.2	-28.4	14.6	0	73	2499
2026-01-30 02:37:02.71	219.97	78.80	-28.2	-28.2	14.6	0	73	2474
2026-01-30 02:37:03.11	219.64	78.62	-28.1	-28.0	14.6	0	73	2444
2026-01-30 02:37:03.51	219.31	78.43	-28.0	-27.8	14.6	0	73	2411
2026-01-30 02:37:03.91	219.00	78.24	-27.9	-27.5	14.7	11	73	2365
2026-01-30 02:37:04.32	218.69	78.04	-27.7	-27.2	14.8	0	73	2320
2026-01-30 02:37:04.72	218.39	77.85	-27.6	-27.0	14.9	0	73	2291
2026-01-30 02:37:05.12	218.11	77.66	-27.6	-26.9	14.9	11	73	2279
2026-01-30 02:37:05.52	217.84	77.47	-27.6	-26.9	14.9	0	73	2275
2026-01-30 02:37:05.93	217.56	77.28	-27.6	-26.9	14.8	0	73	2283
2026-01-30 02:37:06.33	217.30	77.09	-27.7	-27.2	14.6	0	73	2319
2026-01-30 02:37:06.73	217.05	76.90	-27.7	-27.2	14.5	11	73	2317
2026-01-30 02:37:07.13	216.81	76.71	-27.7	-27.2	14.5	0	73	2316
2026-01-30 02:37:07.54	216.57	76.51	-27.8	-27.3	14.5	22	73	2328
2026-01-30 02:37:07.94	216.34	76.32	-27.8	-27.4	14.4	0	73	2347
2026-01-30 02:37:08.34	216.12	76.13	-27.9	-27.6	14.3	22	73	2381
2026-01-30 02:37:08.74	215.90	75.94	-28.0	-27.9	14.2	11	73	2414
2026-01-30 02:37:09.14	215.69	75.75	-28.2	-28.2	14.2	22	73	2455
2026-01-30 02:37:09.54	215.48	75.56	-28.2	-28.1	14.2	22	73	2452
2026-01-30 02:37:09.95	215.28	75.37	-28.1	-28.1	14.3	34	73	2449
2026-01-30 02:37:10.35	215.09	75.18	-28.1	-27.9	14.4	22	73	2422
2026-01-30 02:37:10.75	214.90	74.99	-28.1	-28.0	14.4	0	73	2442
2026-01-30 02:37:11.15	214.71	74.80	-28.2	-28.2	14.4	11	73	2466
2026-01-30 02:37:11.55	214.54	74.61	-28.2	-28.3	14.4	0	73	2482
2026-01-30 02:37:11.96	214.36	74.42	-28.2	-28.3	14.5	11	73	2489
2026-01-30 02:37:12.36	214.19	74.23	-28.1	-28.2	14.6	0	73	2469
2026-01-30 02:37:12.76	214.02	74.04	-28.1	-28.1	14.7	0	73	2466
2026-01-30 02:37:13.16	213.86	73.85	-28.2	-28.4	14.5	0	73	2502
2026-01-30 02:37:13.57	213.70	73.66	-28.4	-28.7	14.4	0	73	2551
2026-01-30 02:37:13.97	213.54	73.47	-28.6	-28.5	14.3	0	74	2457
2026-01-30 02:37:14.37	213.39	73.28	-28.8	-29.0	14.0	57	74	2520
2026-01-30 02:37:14.77	213.25	73.09	-28.9	-29.3	13.8	34	74	2570
2026-01-30 02:37:15.17	213.11	72.90	-28.9	-29.3	13.7	68	74	2579
2026-01-30 02:37:15.58	212.96	72.71	-28.9	-28.7	13.7	114	75	2412
2026-01-30 02:37:15.98	212.83	72.52	-28.7	-28.3	13.8	160	75	2355
2026-01-30 02:37:16.38	212.69	72.34	-28.3	-27.6	14.1	68	75	2251
2026-01-30 02:37:16.78	212.56	72.15	-28.1	-27.6	14.4	45	74	2316
2026-01-30 02:37:17.19	212.43	71.96	-27.8	-27.0	14.6	0	74	2235
2026-01-30 02:37:17.59	212.31	71.77	-27.8	-26.9	14.5	0	74	2221
2026-01-30 02:37:17.99	212.18	71.59	-27.8	-27.4	14.4	0	73	2349
2026-01-30 02:37:18.39	212.06	71.40	-28.1	-27.9	14.0	45	73	2425
2026-01-30 02:37:18.79	211.95	71.21	-28.2	-28.1	13.8	57	73	2457
2026-01-30 02:37:19.20	211.83	71.02	-28.2	-28.3	13.7	80	73	2478
2026-01-30 02:37:19.60	211.72	70.84	-28.2	-28.2	13.9	34	73	2462
2026-01-30 02:37:20.00	211.61	70.65	-28.0	-27.8	14.1	57	73	2404
2026-01-30 02:37:20.40	211.50	70.47	-36.9	-39.1	3.9	114	90	3171
2026-01-30 02:37:20.80	211.39	70.29	-38.5	-42.3	3.5	8432441	94	3844

#Closed at: 2026-01-30 02:37:21