passes_logs/2026/01/30/XPeterburg/XPeterburg__20260130_122841_FENGYUN_3D_rec.log

#Pass ID: 20260130_122841_FENGYUN 3D
#Satellite: FENGYUN 3D
#Configuration: FENGYUN 3D
#Start time: 2026-01-30 12:28:36

#Version: 1.5.20200625
#Station: XPeterburg
#Location: 30.318091 lon 59.932769 lat
#TLE: 1 43010U 17072A   26028.95797775  .00000451  00000+0  23492-3 0  9991
#TLE: 2 43010  98.9958   0.9922 0002505  85.7480 274.3981 14.19703224425237

#Time	Az	El	Level	Level2	SNR	BER	Gain	Gain2
2026-01-30 12:28:36.00	166.68	67.90	-37.0	-38.3	3.4	8380359	92	2870
2026-01-30 12:28:36.41	166.74	68.08	-38.0	-41.5	3.6	8424144	92	3677
2026-01-30 12:28:36.81	166.80	68.27	-37.5	-40.3	3.4	8395923	92	3377
2026-01-30 12:28:37.21	166.86	68.45	-37.4	-41.1	3.6	8395122	92	3754
2026-01-30 12:28:37.61	166.92	68.63	-37.1	-38.6	3.6	8388759	92	2945
2026-01-30 12:28:38.01	166.98	68.81	-36.5	-37.3	4.0	8349998	91	2699
2026-01-30 12:28:38.42	167.05	69.00	-35.4	-35.5	5.0	8217350	89	2474
2026-01-30 12:28:38.82	167.12	69.19	-34.5	-34.2	6.0	6119350	87	2387
2026-01-30 12:28:39.22	167.18	69.37	-33.2	-32.9	7.6	2572048	84	2386
2026-01-30 12:28:39.62	167.25	69.55	-32.2	-32.0	9.0	1146606	82	2381
2026-01-30 12:28:40.02	167.32	69.74	-31.3	-30.4	10.3	189147	81	2227
2026-01-30 12:28:40.43	167.39	69.93	-30.2	-29.7	11.5	61660	78	2329
2026-01-30 12:28:40.83	167.46	70.11	-29.3	-28.2	12.6	3696	77	2191
2026-01-30 12:28:41.23	167.54	70.30	-28.4	-27.4	13.5	961	75	2210
2026-01-30 12:28:41.63	167.61	70.48	-27.9	-27.0	14.1	148	74	2219
2026-01-30 12:28:42.03	167.69	70.67	-27.5	-26.6	14.5	11	73	2236
2026-01-30 12:28:42.44	167.77	70.86	-27.4	-26.6	14.5	11	73	2233
2026-01-30 12:28:42.84	167.85	71.05	-27.5	-26.7	14.5	11	73	2252
2026-01-30 12:28:43.24	167.93	71.24	-27.4	-26.5	14.6	0	73	2219
2026-01-30 12:28:43.64	168.01	71.42	-27.3	-26.3	14.8	0	73	2187
2026-01-30 12:28:44.04	168.10	71.61	-27.3	-26.3	14.8	11	73	2187
2026-01-30 12:28:44.44	168.18	71.80	-27.3	-26.3	14.8	22	73	2184
2026-01-30 12:28:44.85	168.27	71.99	-27.3	-26.8	14.8	11	72	2316
2026-01-30 12:28:45.25	168.36	72.18	-27.4	-27.0	14.7	11	72	2344
2026-01-30 12:28:45.65	168.46	72.37	-27.4	-27.0	14.8	0	72	2344
2026-01-30 12:28:46.05	168.55	72.56	-27.5	-27.2	14.8	11	72	2373
2026-01-30 12:28:46.45	168.65	72.75	-27.5	-27.2	14.8	0	72	2373
2026-01-30 12:28:46.86	168.75	72.94	-27.6	-27.3	14.8	11	72	2399
2026-01-30 12:28:47.26	168.85	73.13	-27.9	-28.0	14.5	0	72	2501
2026-01-30 12:28:47.66	168.95	73.32	-27.9	-28.1	14.5	11	72	2515
2026-01-30 12:28:48.06	169.06	73.51	-27.9	-28.0	14.6	11	72	2494
2026-01-30 12:28:48.47	169.17	73.71	-27.8	-27.8	14.7	11	72	2472
2026-01-30 12:28:48.87	169.28	73.90	-27.7	-27.5	14.8	0	72	2425
2026-01-30 12:28:49.27	169.40	74.09	-27.6	-27.4	14.9	0	72	2402
2026-01-30 12:28:49.67	169.51	74.28	-27.6	-27.4	14.9	0	72	2403
2026-01-30 12:28:50.07	169.63	74.48	-27.5	-27.2	15.0	0	72	2381
2026-01-30 12:28:50.47	169.76	74.67	-27.4	-27.0	15.0	0	72	2335
2026-01-30 12:28:50.88	169.89	74.87	-27.3	-26.8	15.1	0	72	2312
2026-01-30 12:28:51.28	170.02	75.06	-27.4	-27.0	15.0	0	72	2337
2026-01-30 12:28:51.68	170.15	75.25	-27.6	-27.3	14.7	0	72	2392
2026-01-30 12:28:52.08	170.29	75.44	-27.8	-27.8	14.5	11	72	2452
2026-01-30 12:28:52.48	170.43	75.64	-27.7	-27.7	14.5	0	72	2435
2026-01-30 12:28:52.89	170.57	75.83	-27.5	-27.2	14.6	11	72	2371
2026-01-30 12:28:53.29	170.72	76.03	-27.3	-26.7	14.8	0	72	2299
2026-01-30 12:28:53.69	170.88	76.22	-27.1	-26.3	15.1	0	72	2243
2026-01-30 12:28:54.09	171.03	76.42	-27.0	-26.1	15.2	0	72	2214
2026-01-30 12:28:54.49	171.19	76.61	-27.1	-26.2	15.2	0	72	2240
2026-01-30 12:28:54.90	171.37	76.81	-27.1	-26.3	15.1	0	72	2242
2026-01-30 12:28:55.30	171.54	77.00	-27.2	-26.6	15.0	11	72	2286
2026-01-30 12:28:55.70	171.72	77.20	-27.4	-26.9	14.8	0	72	2323
2026-01-30 12:28:56.10	171.90	77.39	-27.2	-26.6	15.0	11	72	2283
2026-01-30 12:28:56.50	172.09	77.59	-26.9	-25.9	15.4	0	72	2190
2026-01-30 12:28:56.91	172.29	77.79	-26.4	-25.3	15.9	0	71	2177
2026-01-30 12:28:57.31	172.49	77.98	-26.3	-25.2	16.0	0	71	2171
2026-01-30 12:28:57.71	172.70	78.18	-26.4	-25.4	16.0	0	71	2197
2026-01-30 12:28:58.11	172.91	78.37	-26.6	-25.9	15.9	0	71	2268
2026-01-30 12:28:58.51	173.14	78.57	-26.8	-26.3	15.7	0	71	2312
2026-01-30 12:28:58.92	173.37	78.77	-27.0	-26.6	15.6	0	71	2367
2026-01-30 12:28:59.32	173.61	78.96	-27.0	-26.7	15.6	0	71	2375
2026-01-30 12:28:59.72	173.86	79.16	-27.0	-26.7	15.6	0	71	2370
2026-01-30 12:29:00.12	174.12	79.35	-27.0	-26.6	15.7	0	71	2364
2026-01-30 12:29:00.53	174.39	79.55	-27.1	-26.9	15.6	0	71	2398
2026-01-30 12:29:00.93	174.67	79.75	-27.0	-26.7	15.6	0	71	2382
2026-01-30 12:29:01.33	174.96	79.94	-27.0	-26.8	15.5	0	71	2388
2026-01-30 12:29:01.73	175.26	80.14	-27.0	-26.7	15.6	0	71	2382
2026-01-30 12:29:02.13	175.57	80.33	-26.9	-26.5	15.6	0	71	2354
2026-01-30 12:29:02.53	175.89	80.53	-26.9	-26.5	15.7	0	71	2345
2026-01-30 12:29:02.94	176.24	80.73	-26.8	-26.3	15.8	0	71	2322
2026-01-30 12:29:03.34	176.60	80.92	-26.8	-26.4	15.8	0	71	2335
2026-01-30 12:29:03.74	176.97	81.11	-26.8	-26.3	15.9	0	71	2324
2026-01-30 12:29:04.14	177.35	81.31	-26.5	-25.7	16.2	0	71	2239
2026-01-30 12:29:04.55	177.77	81.51	-26.3	-25.8	16.5	0	70	2318
2026-01-30 12:29:04.95	178.19	81.70	-26.0	-25.1	16.8	0	70	2230
2026-01-30 12:29:05.35	178.63	81.89	-25.9	-25.0	16.9	0	70	2206
2026-01-30 12:29:05.75	179.10	82.09	-25.9	-24.9	16.9	0	70	2200
2026-01-30 12:29:06.15	179.59	82.28	-26.1	-25.4	16.7	0	70	2267
2026-01-30 12:29:06.55	180.10	82.47	-26.4	-25.9	16.4	0	70	2322
2026-01-30 12:29:06.96	180.66	82.67	-26.2	-25.6	16.5	0	70	2283
2026-01-30 12:29:07.36	181.23	82.86	-26.1	-25.4	16.6	0	70	2264
2026-01-30 12:29:07.76	181.84	83.05	-26.0	-25.2	16.7	0	70	2227
2026-01-30 12:29:08.16	182.47	83.24	-25.9	-24.8	16.8	0	70	2179
2026-01-30 12:29:08.56	183.15	83.43	-25.7	-25.1	17.0	0	69	2278
2026-01-30 12:29:08.97	183.88	83.62	-25.9	-25.4	16.8	0	69	2329
2026-01-30 12:29:09.37	184.64	83.81	-26.0	-25.6	16.6	0	69	2348
2026-01-30 12:29:09.77	185.45	84.00	-26.2	-26.1	16.3	0	69	2420
2026-01-30 12:29:10.17	186.30	84.18	-26.3	-26.2	16.3	0	69	2439
2026-01-30 12:29:10.57	187.22	84.36	-26.3	-26.2	16.1	0	69	2432
2026-01-30 12:29:10.98	188.22	84.55	-26.4	-26.4	16.1	0	69	2466
2026-01-30 12:29:11.38	189.26	84.73	-26.1	-25.8	16.3	0	69	2378
2026-01-30 12:29:11.78	190.38	84.91	-26.1	-25.7	16.4	0	69	2361
2026-01-30 12:29:12.18	191.59	85.09	-26.0	-25.6	16.6	0	69	2354
2026-01-30 12:29:12.58	192.88	85.26	-26.0	-25.5	16.5	0	69	2342
2026-01-30 12:29:12.98	194.26	85.43	-26.3	-26.2	16.3	0	69	2443
2026-01-30 12:29:13.39	195.80	85.61	-26.2	-26.0	16.2	0	69	2409
2026-01-30 12:29:13.79	197.42	85.77	-26.2	-26.0	16.2	0	69	2417
2026-01-30 12:29:14.19	199.17	85.94	-26.2	-26.0	16.3	0	69	2415
2026-01-30 12:29:14.59	201.06	86.10	-26.0	-25.6	16.5	0	69	2350
2026-01-30 12:29:14.99	203.12	86.25	-26.0	-25.5	16.5	0	69	2341
2026-01-30 12:29:15.40	205.40	86.40	-25.7	-25.0	16.8	0	69	2267
2026-01-30 12:29:15.80	207.82	86.54	-25.8	-25.1	16.7	0	69	2289
2026-01-30 12:29:16.20	210.44	86.68	-25.8	-25.2	16.7	0	69	2290
2026-01-30 12:29:16.60	213.28	86.81	-25.8	-25.3	16.8	0	69	2312
2026-01-30 12:29:17.00	216.35	86.93	-25.8	-25.3	16.9	0	69	2319
2026-01-30 12:29:17.41	219.75	87.04	-25.7	-25.0	17.0	0	69	2275
2026-01-30 12:29:17.81	223.32	87.14	-25.6	-24.8	17.1	0	69	2246
2026-01-30 12:29:18.21	227.12	87.23	-25.6	-24.8	17.2	0	69	2248
2026-01-30 12:29:18.61	231.16	87.31	-25.5	-24.6	17.3	0	69	2219
2026-01-30 12:29:19.01	235.40	87.37	-25.4	-24.4	17.4	0	69	2191
2026-01-30 12:29:19.42	239.94	87.41	-25.4	-24.3	17.4	0	69	2183
2026-01-30 12:29:19.82	244.50	87.44	-25.3	-24.8	17.5	0	68	2308
2026-01-30 12:29:20.22	249.13	87.46	-25.5	-25.0	17.5	0	68	2338
2026-01-30 12:29:20.62	253.78	87.45	-25.4	-24.9	17.5	0	68	2331
2026-01-30 12:29:21.02	258.39	87.43	-25.5	-25.2	17.4	0	68	2360
2026-01-30 12:29:21.43	263.02	87.40	-25.7	-25.5	17.3	0	68	2406
2026-01-30 12:29:21.83	267.37	87.34	-25.8	-25.7	17.3	0	68	2447
2026-01-30 12:29:22.23	271.53	87.28	-25.8	-25.8	17.3	0	68	2453
2026-01-30 12:29:22.63	275.48	87.20	-25.7	-25.5	17.3	0	68	2416
2026-01-30 12:29:23.03	279.19	87.10	-25.8	-25.7	17.2	0	68	2433
2026-01-30 12:29:23.44	282.73	87.00	-25.6	-25.3	17.4	0	68	2386
2026-01-30 12:29:23.84	285.94	86.88	-25.7	-25.6	17.3	0	68	2421
2026-01-30 12:29:24.24	288.92	86.76	-25.6	-25.4	17.3	0	68	2399
2026-01-30 12:29:24.64	291.67	86.63	-25.5	-25.2	17.4	0	68	2364
2026-01-30 12:29:25.04	294.21	86.49	-25.5	-25.2	17.5	0	68	2371
2026-01-30 12:29:25.45	296.60	86.34	-25.4	-25.0	17.5	0	68	2339
2026-01-30 12:29:25.85	298.76	86.19	-25.4	-25.0	17.5	0	68	2346
2026-01-30 12:29:26.25	300.74	86.03	-25.5	-25.2	17.4	0	68	2377
2026-01-30 12:29:26.65	302.58	85.87	-25.5	-25.1	17.4	0	68	2358
2026-01-30 12:29:27.05	304.27	85.71	-25.5	-25.2	17.4	0	68	2371
2026-01-30 12:29:27.46	305.88	85.54	-25.5	-25.1	17.4	0	68	2362
2026-01-30 12:29:27.86	307.33	85.37	-25.3	-24.7	17.6	0	68	2308
2026-01-30 12:29:28.26	308.68	85.19	-25.4	-25.0	17.6	0	68	2338
2026-01-30 12:29:28.66	309.93	85.02	-25.1	-24.4	17.9	0	68	2268
2026-01-30 12:29:29.06	311.10	84.84	-25.1	-24.4	17.9	0	68	2259
2026-01-30 12:29:29.47	312.21	84.65	-25.1	-24.4	18.0	0	68	2258
2026-01-30 12:29:29.87	313.23	84.47	-25.1	-24.4	18.0	0	68	2270
2026-01-30 12:29:30.27	314.18	84.29	-25.3	-24.7	17.8	0	68	2312
2026-01-30 12:29:30.67	315.07	84.11	-25.3	-24.9	17.7	0	68	2340
2026-01-30 12:29:31.07	315.90	83.92	-25.6	-25.4	17.5	0	68	2412
2026-01-30 12:29:31.47	316.69	83.73	-25.4	-25.1	17.6	0	68	2366
2026-01-30 12:29:31.88	317.45	83.54	-25.4	-24.9	17.7	0	68	2340
2026-01-30 12:29:32.28	318.15	83.35	-25.2	-24.6	17.8	0	68	2295
2026-01-30 12:29:32.68	318.81	83.16	-25.2	-24.5	18.0	0	68	2276
2026-01-30 12:29:33.08	319.43	82.97	-25.2	-24.6	17.9	0	68	2296
2026-01-30 12:29:33.48	320.02	82.78	-25.4	-24.9	17.8	0	68	2340
2026-01-30 12:29:33.89	320.59	82.59	-25.5	-25.3	17.6	0	68	2389
2026-01-30 12:29:34.29	321.12	82.40	-25.6	-25.4	17.5	0	68	2413
2026-01-30 12:29:34.69	321.63	82.20	-25.4	-25.0	17.7	0	68	2349
2026-01-30 12:29:35.09	322.11	82.01	-25.3	-24.7	17.8	0	68	2307
2026-01-30 12:29:35.49	322.56	81.82	-25.0	-24.1	18.1	0	68	2228
2026-01-30 12:29:35.90	323.01	81.62	-24.8	-23.8	18.3	0	68	2191
2026-01-30 12:29:36.30	323.42	81.43	-24.9	-24.0	18.2	0	68	2209
2026-01-30 12:29:36.70	323.82	81.23	-25.0	-24.2	18.1	0	68	2238
2026-01-30 12:29:37.10	324.20	81.04	-25.1	-24.5	17.9	0	68	2275
2026-01-30 12:29:37.50	324.56	80.85	-25.4	-25.0	17.6	0	68	2349
2026-01-30 12:29:37.91	324.92	80.65	-25.4	-25.1	17.5	0	68	2356
2026-01-30 12:29:38.31	325.25	80.45	-25.5	-25.2	17.5	0	68	2378
2026-01-30 12:29:38.71	325.57	80.26	-25.6	-25.2	17.3	0	68	2376
2026-01-30 12:29:39.11	325.88	80.06	-25.5	-25.1	17.4	0	68	2360
2026-01-30 12:29:39.51	326.18	79.87	-25.5	-25.1	17.5	0	68	2358
2026-01-30 12:29:39.92	326.47	79.67	-25.4	-24.9	17.4	0	68	2333
2026-01-30 12:29:40.32	326.74	79.47	-25.4	-24.9	17.3	0	68	2330
2026-01-30 12:29:40.72	327.00	79.28	-25.4	-25.0	17.2	0	68	2338
2026-01-30 12:29:41.12	327.26	79.08	-25.4	-25.0	17.0	0	68	2339
2026-01-30 12:29:41.52	327.50	78.89	-25.6	-25.3	16.9	0	68	2383
2026-01-30 12:29:41.93	327.74	78.69	-25.7	-25.5	16.7	0	68	2404
2026-01-30 12:29:42.33	327.97	78.49	-25.8	-25.7	16.6	0	68	2432
2026-01-30 12:29:42.73	328.19	78.30	-25.9	-25.8	16.5	0	68	2450
2026-01-30 12:29:43.13	328.40	78.10	-25.7	-25.5	16.6	0	68	2412
2026-01-30 12:29:43.53	328.61	77.91	-25.8	-25.7	16.6	0	68	2437
2026-01-30 12:29:43.94	328.81	77.71	-26.0	-25.5	16.5	0	69	2344
2026-01-30 12:29:44.34	329.00	77.51	-26.2	-26.0	16.3	0	69	2411
2026-01-30 12:29:44.74	329.19	77.32	-26.4	-26.4	16.2	0	69	2475
2026-01-30 12:29:45.14	329.37	77.13	-26.6	-26.5	16.1	0	70	2418
2026-01-30 12:29:45.54	329.55	76.93	-26.7	-26.6	16.0	0	70	2434
2026-01-30 12:29:45.95	329.72	76.73	-26.7	-26.7	16.1	0	70	2449
2026-01-30 12:29:46.35	329.89	76.54	-26.8	-26.8	16.1	0	70	2458
2026-01-30 12:29:46.75	330.05	76.35	-26.8	-26.8	16.1	0	70	2462
2026-01-30 12:29:47.15	330.20	76.15	-26.8	-26.8	16.1	0	70	2468
2026-01-30 12:29:47.55	330.35	75.96	-26.9	-27.0	15.9	0	70	2496
2026-01-30 12:29:47.96	330.50	75.76	-26.9	-27.1	16.0	0	70	2499
2026-01-30 12:29:48.36	330.65	75.57	-26.9	-27.1	15.8	0	70	2508
2026-01-30 12:29:48.76	330.79	75.38	-27.0	-27.2	15.8	0	70	2522
2026-01-30 12:29:49.16	330.92	75.18	-27.0	-26.8	15.6	0	71	2395
2026-01-30 12:29:49.56	331.05	74.99	-27.3	-27.3	15.4	0	71	2469
2026-01-30 12:29:49.97	331.18	74.79	-27.4	-27.5	15.2	0	71	2496
2026-01-30 12:29:50.37	331.31	74.60	-27.4	-27.5	15.1	0	71	2499
2026-01-30 12:29:50.77	331.43	74.41	-27.3	-27.3	15.1	11	71	2466
2026-01-30 12:29:51.17	331.55	74.22	-27.3	-27.2	15.1	0	71	2450
2026-01-30 12:29:51.57	331.67	74.03	-27.3	-27.3	15.0	0	71	2457
2026-01-30 12:29:51.98	331.78	73.83	-27.3	-27.3	14.9	0	71	2462
2026-01-30 12:29:52.38	331.89	73.64	-27.7	-27.6	14.6	0	72	2426
2026-01-30 12:29:52.78	332.00	73.45	-27.8	-27.8	14.4	0	72	2454
2026-01-30 12:29:53.18	332.10	73.26	-27.9	-28.1	14.3	34	72	2493
2026-01-30 12:29:53.58	332.21	73.07	-27.9	-28.0	14.2	22	72	2490
2026-01-30 12:29:53.99	332.31	72.88	-27.9	-28.0	14.2	22	72	2490
2026-01-30 12:29:54.39	332.41	72.69	-28.0	-27.7	14.0	22	73	2378
2026-01-30 12:29:54.79	332.50	72.50	-28.2	-28.0	13.9	45	73	2418
2026-01-30 12:29:55.19	332.60	72.31	-28.4	-28.5	13.6	80	73	2487
2026-01-30 12:29:55.59	332.69	72.12	-28.8	-28.7	13.3	171	74	2453
2026-01-30 12:29:55.99	332.78	71.93	-28.9	-29.0	13.1	411	74	2491
2026-01-30 12:29:56.40	332.87	71.74	-28.9	-28.6	13.0	698	75	2365
2026-01-30 12:29:56.80	332.95	71.55	-29.1	-28.9	12.8	698	75	2410
2026-01-30 12:29:57.20	333.04	71.37	-29.1	-29.0	12.8	869	75	2425
2026-01-30 12:29:57.60	333.12	71.18	-29.3	-29.3	12.7	663	75	2464
2026-01-30 12:29:58.00	333.20	70.99	-29.2	-29.2	12.8	972	75	2448
2026-01-30 12:29:58.40	333.28	70.80	-29.8	-29.8	12.4	1110	76	2470
2026-01-30 12:29:58.81	333.36	70.61	-30.0	-30.3	12.2	1819	76	2551
2026-01-30 12:29:59.21	333.43	70.43	-33.9	-35.4	8.5	2975	82	2947

#Closed at: 2026-01-30 12:29:59