passes_logs/2025/01/22/planumMobile0/planumMobile0__20250122_094010_NOAA_18_rec.log

#Pass ID: 20250122_094010_NOAA 18
#Satellite: NOAA 18
#Configuration: NOAA 18
#Start time: 2025-01-22 09:40:15.617581

#LorettStation: 1.0.0 05.05.2024
#Station: planumMobile0
#Location: 49.207755 lon 55.927282 lat
#TLE: 1 28654U 05018A   25022.24143052  .00000458  00000+0  26647-3 0  9995
#TLE: 2 28654  98.8556 103.2235 0014680 159.1096 201.0679 14.13493787 14203

#Time	Az	El	Level	SNR
2025-01-22 09:40:27.755977	1.9	10.9	-92.5	0.0
2025-01-22 09:40:30.031575	1.7	11.1	-93.1	0.0
2025-01-22 09:40:32.307406	1.4	11.2	-93.7	0.0
2025-01-22 09:40:34.582134	1.2	11.4	-93.3	0.0
2025-01-22 09:40:36.860418	1.0	11.6	-93.0	0.0
2025-01-22 09:40:39.131783	0.7	11.8	-92.6	0.0
2025-01-22 09:40:41.405664	0.5	11.9	-93.4	0.0
2025-01-22 09:40:43.680078	0.2	12.1	-93.1	0.0
2025-01-22 09:40:45.954923	360.0	12.3	-92.6	0.0
2025-01-22 09:40:48.230603	359.7	12.4	-92.6	0.0
2025-01-22 09:40:50.506372	359.5	12.6	-93.1	0.0
2025-01-22 09:40:52.777925	359.2	12.8	-92.9	0.0
2025-01-22 09:40:55.050958	359.0	13.0	-92.5	0.0
2025-01-22 09:40:57.325527	358.7	13.2	-92.7	0.0
2025-01-22 09:40:59.598925	358.5	13.3	-93.0	0.0
2025-01-22 09:41:01.874219	358.2	13.5	-93.0	0.0
2025-01-22 09:41:04.146144	357.9	13.7	-93.7	0.0
2025-01-22 09:41:06.419762	357.6	13.9	-92.8	0.0
2025-01-22 09:41:08.694032	357.4	14.1	-93.0	0.0
2025-01-22 09:41:10.964715	357.1	14.2	-93.4	0.0
2025-01-22 09:41:13.240114	356.8	14.4	-93.2	0.0
2025-01-22 09:41:15.516970	356.5	14.6	-93.6	0.0
2025-01-22 09:41:17.791317	356.2	14.8	-93.6	0.0
2025-01-22 09:41:20.064853	355.9	15.0	-93.3	0.0
2025-01-22 09:41:22.340396	355.6	15.2	-92.8	0.0
2025-01-22 09:41:24.612790	355.3	15.3	-92.7	0.0
2025-01-22 09:41:26.886327	355.0	15.5	-93.6	0.0
2025-01-22 09:41:29.159986	354.7	15.7	-93.0	0.0
2025-01-22 09:41:31.437240	354.4	15.9	-92.9	0.0
2025-01-22 09:41:33.711337	354.0	16.1	-92.8	0.0
2025-01-22 09:41:35.986720	353.7	16.3	-92.9	0.0
2025-01-22 09:41:38.262703	353.4	16.5	-92.7	0.0
2025-01-22 09:41:40.538061	353.1	16.7	-92.7	0.0
2025-01-22 09:41:42.811139	352.7	16.9	-93.0	0.0
2025-01-22 09:41:45.086990	352.4	17.0	-92.9	0.0
2025-01-22 09:41:47.362173	352.0	17.2	-92.7	0.0
2025-01-22 09:41:49.636987	351.7	17.4	-92.9	0.0
2025-01-22 09:41:51.912132	351.3	17.6	-92.9	0.0
2025-01-22 09:41:54.186886	351.0	17.8	-92.6	0.0
2025-01-22 09:41:56.459530	350.6	18.0	-93.0	0.0
2025-01-22 09:41:58.735279	350.2	18.2	-93.1	0.0
2025-01-22 09:42:01.012403	349.8	18.4	-92.6	0.0
2025-01-22 09:42:03.288805	349.5	18.6	-92.9	0.0
2025-01-22 09:42:05.560926	349.1	18.8	-93.0	0.0
2025-01-22 09:42:07.834740	348.7	19.0	-93.5	0.0
2025-01-22 09:42:10.107787	348.3	19.2	-93.0	0.0
2025-01-22 09:42:12.383373	347.9	19.4	-93.1	0.0
2025-01-22 09:42:14.661550	347.5	19.6	-93.6	0.0
2025-01-22 09:42:16.934411	347.1	19.7	-92.8	0.0
2025-01-22 09:42:19.207677	346.7	19.9	-93.0	0.0
2025-01-22 09:42:21.483012	346.2	20.1	-93.7	0.0
2025-01-22 09:42:23.755511	345.8	20.3	-93.6	0.0
2025-01-22 09:42:26.033052	345.4	20.5	-93.1	0.0
2025-01-22 09:42:28.309429	344.9	20.7	-93.7	0.0
2025-01-22 09:42:30.587542	344.5	20.9	-92.8	0.0
2025-01-22 09:42:32.862876	344.1	21.1	-92.8	0.0
2025-01-22 09:42:35.141607	343.6	21.3	-93.5	0.0
2025-01-22 09:42:37.417013	343.1	21.5	-92.9	0.0
2025-01-22 09:42:39.693345	342.7	21.7	-93.0	0.0
2025-01-22 09:42:41.969348	342.2	21.9	-93.0	0.0
2025-01-22 09:42:44.244819	341.7	22.0	-92.9	0.0
2025-01-22 09:42:46.519170	341.2	22.2	-93.2	0.0
2025-01-22 09:42:48.796075	340.7	22.4	-92.9	0.0
2025-01-22 09:42:51.072757	340.3	22.6	-93.0	0.0
2025-01-22 09:42:53.349256	339.7	22.8	-93.0	0.0
2025-01-22 09:42:55.624254	339.2	23.0	-93.2	0.0
2025-01-22 09:42:57.898894	338.7	23.2	-92.9	0.0
2025-01-22 09:43:00.173962	338.2	23.3	-93.1	0.0
2025-01-22 09:43:02.451155	337.7	23.5	-93.0	0.0
2025-01-22 09:43:04.727981	337.1	23.7	-92.8	0.0
2025-01-22 09:43:07.005214	336.6	23.9	-92.9	0.0
2025-01-22 09:43:09.279317	336.1	24.1	-92.8	0.0
2025-01-22 09:43:11.552122	335.5	24.2	-92.9	0.0
2025-01-22 09:43:13.827539	335.0	24.4	-93.1	0.0
2025-01-22 09:43:16.104230	334.4	24.6	-93.1	0.0
2025-01-22 09:43:18.379065	333.8	24.7	-92.8	0.0
2025-01-22 09:43:20.657445	333.2	24.9	-93.1	0.0
2025-01-22 09:43:22.933872	332.7	25.1	-92.8	0.0
2025-01-22 09:43:25.211286	332.1	25.2	-92.9	0.0
2025-01-22 09:43:27.487171	331.5	25.4	-93.0	0.0
2025-01-22 09:43:29.764362	330.9	25.6	-92.8	0.0
2025-01-22 09:43:32.040821	330.3	25.7	-93.0	0.0
2025-01-22 09:43:34.316894	329.7	25.9	-93.0	0.0
2025-01-22 09:43:36.589811	329.0	26.0	-93.0	0.0
2025-01-22 09:43:38.864997	328.4	26.2	-93.3	0.0
2025-01-22 09:43:41.142301	327.8	26.3	-93.2	0.0
2025-01-22 09:43:43.419853	327.2	26.4	-93.6	0.0
2025-01-22 09:43:45.695951	326.5	26.6	-93.1	0.0
2025-01-22 09:43:47.972743	325.9	26.7	-93.0	0.0
2025-01-22 09:43:50.248453	325.2	26.8	-93.5	0.0
2025-01-22 09:43:52.520687	324.6	27.0	-92.8	0.0
2025-01-22 09:43:54.793785	323.9	27.1	-85.3	0.0
2025-01-22 09:43:57.066556	323.2	27.2	-85.8	0.0
2025-01-22 09:43:59.340336	322.6	27.3	-85.7	0.0
2025-01-22 09:44:01.616210	321.9	27.4	-85.2	0.0
2025-01-22 09:44:03.891457	321.2	27.5	-85.8	0.0
2025-01-22 09:44:06.167362	320.5	27.7	-85.5	0.0
2025-01-22 09:44:08.443251	319.8	27.8	-85.8	0.0
2025-01-22 09:44:10.717871	319.1	27.8	-85.5	0.0
2025-01-22 09:44:12.994578	318.4	27.9	-85.5	0.0
2025-01-22 09:44:15.267842	317.7	28.0	-83.6	0.0
2025-01-22 09:44:17.542624	317.0	28.1	-84.8	0.0
2025-01-22 09:44:19.819545	316.3	28.2	-83.9	0.0
2025-01-22 09:44:22.095652	315.6	28.3	-84.7	0.0
2025-01-22 09:44:24.371541	314.9	28.3	-84.4	0.0
2025-01-22 09:44:26.646925	314.1	28.4	-85.2	0.0
2025-01-22 09:44:28.923677	313.4	28.4	-84.7	0.0
2025-01-22 09:44:31.199073	312.7	28.5	-84.8	0.0
2025-01-22 09:44:33.472483	312.0	28.5	-84.9	0.0
2025-01-22 09:44:35.747913	311.2	28.6	-85.0	0.0
2025-01-22 09:44:38.019341	310.5	28.6	-83.8	0.0
2025-01-22 09:44:40.292378	309.8	28.7	-85.3	0.0
2025-01-22 09:44:42.566356	309.0	28.7	-85.4	0.0
2025-01-22 09:44:44.843149	308.3	28.7	-84.6	0.0
2025-01-22 09:44:47.116677	307.5	28.7	-84.7	0.0
2025-01-22 09:44:49.391349	306.8	28.7	-84.1	0.0
2025-01-22 09:44:51.665742	306.1	28.7	-84.9	0.0
2025-01-22 09:44:53.939891	305.3	28.7	-84.9	0.0
2025-01-22 09:44:56.213975	304.6	28.7	-85.1	0.0
2025-01-22 09:44:58.486694	303.9	28.7	-84.3	0.0
2025-01-22 09:45:00.759703	303.1	28.7	-84.0	0.0
2025-01-22 09:45:03.033237	302.4	28.7	-84.8	0.0
2025-01-22 09:45:05.306464	301.6	28.7	-84.9	0.0
2025-01-22 09:45:07.583433	300.9	28.6	-83.3	0.0
2025-01-22 09:45:09.861014	300.2	28.6	-82.9	0.0
2025-01-22 09:45:12.133497	299.4	28.5	-84.6	0.0
2025-01-22 09:45:14.405314	298.7	28.5	-84.0	0.0
2025-01-22 09:45:16.679500	298.0	28.4	-82.5	0.0
2025-01-22 09:45:18.953265	297.3	28.4	-84.2	0.0
2025-01-22 09:45:21.225431	296.5	28.3	-83.7	0.0
2025-01-22 09:45:23.499204	295.8	28.3	-83.0	0.0
2025-01-22 09:45:25.774409	295.1	28.2	-83.3	0.0
2025-01-22 09:45:28.050004	294.4	28.1	-84.7	0.0
2025-01-22 09:45:30.325825	293.7	28.0	-83.5	0.0
2025-01-22 09:45:32.600795	293.0	27.9	-83.4	0.0
2025-01-22 09:45:34.872516	292.3	27.9	-83.6	0.0
2025-01-22 09:45:37.146018	291.6	27.8	-82.3	0.0
2025-01-22 09:45:39.420643	290.9	27.7	-83.6	0.0
2025-01-22 09:45:41.694155	290.2	27.6	-83.3	0.0
2025-01-22 09:45:43.969089	289.5	27.4	-82.2	0.0
2025-01-22 09:45:46.243404	288.8	27.3	-82.4	0.0
2025-01-22 09:45:48.515771	288.1	27.2	-82.0	0.0
2025-01-22 09:45:50.792298	287.5	27.1	-82.7	0.0
2025-01-22 09:45:53.066230	286.8	27.0	-82.0	0.0
2025-01-22 09:45:55.339713	286.1	26.8	-82.4	0.0
2025-01-22 09:45:57.616651	285.5	26.7	-81.5	0.0
2025-01-22 09:45:59.892904	284.8	26.6	-82.8	0.0
2025-01-22 09:46:02.164470	284.2	26.4	-81.2	0.0
2025-01-22 09:46:04.437823	283.6	26.3	-81.7	0.0
2025-01-22 09:46:06.709855	282.9	26.2	-82.1	0.0
2025-01-22 09:46:08.984019	282.3	26.0	-80.9	0.0
2025-01-22 09:46:11.259729	281.7	25.9	-81.6	0.0
2025-01-22 09:46:13.532982	281.1	25.7	-80.6	0.0
2025-01-22 09:46:15.807862	280.4	25.6	-80.8	0.0
2025-01-22 09:46:18.081681	279.8	25.4	-80.8	0.0
2025-01-22 09:46:20.352260	279.2	25.2	-80.5	0.0
2025-01-22 09:46:22.628666	278.7	25.1	-81.8	0.0
2025-01-22 09:46:24.905548	278.1	24.9	-81.6	0.0
2025-01-22 09:46:27.179057	277.5	24.7	-81.0	0.0
2025-01-22 09:46:29.453747	276.9	24.6	-82.3	0.0
2025-01-22 09:46:31.726666	276.4	24.4	-82.2	0.0
2025-01-22 09:46:34.002696	275.8	24.2	-80.4	0.0
2025-01-22 09:46:36.278874	275.2	24.0	-81.4	0.0
2025-01-22 09:46:38.554654	274.7	23.9	-80.4	0.0
2025-01-22 09:46:40.829164	274.1	23.7	-81.3	0.0
2025-01-22 09:46:43.103829	273.6	23.5	-81.4	0.0
2025-01-22 09:46:45.379738	273.1	23.3	-80.5	0.0
2025-01-22 09:46:47.654227	272.6	23.1	-80.7	0.0
2025-01-22 09:46:49.925204	272.0	23.0	-80.9	0.0
2025-01-22 09:46:52.199464	271.5	22.8	-80.9	0.0
2025-01-22 09:46:54.472892	271.0	22.6	-80.1	0.0
2025-01-22 09:46:56.750231	270.5	22.4	-81.0	0.0
2025-01-22 09:46:59.023055	270.0	22.2	-80.6	0.0
2025-01-22 09:47:01.295711	269.5	22.0	-81.9	0.0
2025-01-22 09:47:03.569940	269.1	21.8	-80.5	0.0
2025-01-22 09:47:05.845054	268.6	21.6	-80.2	0.0
2025-01-22 09:47:08.118930	268.1	21.5	-81.3	0.0
2025-01-22 09:47:10.395595	267.6	21.3	-82.0	0.0
2025-01-22 09:47:12.668815	267.2	21.1	-82.1	0.0
2025-01-22 09:47:14.941305	266.7	20.9	-82.6	0.0
2025-01-22 09:47:17.215356	266.3	20.7	-81.4	0.0
2025-01-22 09:47:19.489263	265.8	20.5	-81.3	0.0
2025-01-22 09:47:21.763177	265.4	20.3	-81.0	0.0
2025-01-22 09:47:24.035885	265.0	20.1	-81.5	0.0
2025-01-22 09:47:26.308547	264.6	19.9	-79.8	0.0
2025-01-22 09:47:28.582284	264.1	19.7	-81.3	0.0
2025-01-22 09:47:30.853907	263.7	19.5	-82.5	0.0
2025-01-22 09:47:33.131363	263.3	19.3	-80.5	0.0
2025-01-22 09:47:35.406281	262.9	19.1	-80.3	0.0
2025-01-22 09:47:37.681509	262.5	18.9	-79.9	0.0
2025-01-22 09:47:39.955650	262.1	18.7	-80.4	0.0
2025-01-22 09:47:42.231124	261.7	18.5	-80.6	0.0
2025-01-22 09:47:44.504988	261.3	18.3	-80.9	0.0
2025-01-22 09:47:46.777455	261.0	18.2	-80.2	0.0
2025-01-22 09:47:49.054250	260.6	18.0	-80.8	0.0
2025-01-22 09:47:51.328554	260.2	17.8	-80.3	0.0
2025-01-22 09:47:53.601685	259.9	17.6	-80.7	0.0
2025-01-22 09:47:55.875026	259.5	17.4	-80.9	0.0
2025-01-22 09:47:58.147517	259.1	17.2	-80.1	0.0
2025-01-22 09:48:00.422171	258.8	17.0	-80.3	0.0
2025-01-22 09:48:02.699024	258.4	16.8	-81.0	0.0
2025-01-22 09:48:04.976408	258.1	16.6	-80.4	0.0
2025-01-22 09:48:07.252647	257.8	16.4	-79.5	0.0
2025-01-22 09:48:09.530934	257.4	16.2	-79.9	0.0
2025-01-22 09:48:11.806888	257.1	16.0	-80.8	0.0
2025-01-22 09:48:14.080831	256.8	15.8	-79.3	0.0
2025-01-22 09:48:16.353305	256.5	15.7	-79.3	0.1
2025-01-22 09:48:18.625828	256.1	15.5	-79.7	0.0
2025-01-22 09:48:20.896835	255.8	15.3	-79.7	0.0
2025-01-22 09:48:23.173981	255.5	15.1	-80.4	0.0
2025-01-22 09:48:25.450333	255.2	14.9	-79.1	0.0
2025-01-22 09:48:27.722634	254.9	14.7	-79.1	0.0
2025-01-22 09:48:29.994475	254.6	14.5	-79.4	0.0
2025-01-22 09:48:32.270504	254.3	14.3	-78.8	0.0
2025-01-22 09:48:34.545280	254.0	14.2	-79.2	0.0
2025-01-22 09:48:36.819352	253.7	14.0	-79.0	0.0
2025-01-22 09:48:39.091449	253.5	13.8	-78.9	0.0
2025-01-22 09:48:41.365377	253.2	13.6	-78.9	0.0
2025-01-22 09:48:43.639748	252.9	13.4	-79.3	0.0
2025-01-22 09:48:45.913609	252.6	13.3	-78.8	0.1
2025-01-22 09:48:48.188582	252.4	13.1	-79.8	0.0
2025-01-22 09:48:50.463042	252.1	12.9	-79.2	0.0
2025-01-22 09:48:52.739304	251.8	12.7	-79.4	0.0
2025-01-22 09:48:55.014323	251.6	12.5	-79.2	0.0
2025-01-22 09:48:57.290366	251.3	12.4	-78.8	0.0
2025-01-22 09:48:59.562296	251.1	12.2	-79.2	0.0
2025-01-22 09:49:01.835885	250.8	12.0	-78.8	0.0
2025-01-22 09:49:04.111161	250.6	11.8	-79.1	0.0
2025-01-22 09:49:06.386812	250.3	11.7	-79.2	0.0
2025-01-22 09:49:08.661589	250.1	11.5	-79.0	0.0
2025-01-22 09:49:10.936126	249.8	11.3	-78.9	0.0
2025-01-22 09:49:13.209001	249.6	11.1	-78.8	0.0
2025-01-22 09:49:15.484974	249.4	11.0	-78.9	0.0
2025-01-22 09:49:17.762682	249.1	10.8	-79.0	0.0
2025-01-22 09:49:20.037335	248.9	10.6	-78.8	0.0
2025-01-22 09:49:22.311542	248.7	10.4	-79.0	0.0
2025-01-22 09:49:24.585407	248.5	10.3	-79.5	0.0
2025-01-22 09:49:26.859265	248.3	10.1	-78.8	0.0
#Closed at: 2025-01-22 09:40:10.619580