passes_logs/2025/01/22/planumMobile0/planumMobile0__20250122_075450_NOAA_19_rec.log

#Pass ID: 20250122_075450_NOAA 19
#Satellite: NOAA 19
#Configuration: NOAA 19
#Start time: 2025-01-22 07:54:55.151357

#LorettStation: 1.0.0 05.05.2024
#Station: planumMobile0
#Location: 49.207755 lon 55.927282 lat
#TLE: 1 33591U 09005A   24102.17259386  .00000224  00000+0  14472-3 0  9993
#TLE: 2 33591  99.0542 157.2452 0014818 119.9896 240.2748 14.12964935782168

#Time	Az	El	Level	SNR
2025-01-22 07:55:02.196927	9.6	10.6	-93.6	0.0
2025-01-22 07:55:04.209264	9.5	10.8	-93.1	0.0
2025-01-22 07:55:06.219581	9.4	10.9	-92.9	0.0
2025-01-22 07:55:08.228588	9.3	11.1	-93.6	0.0
2025-01-22 07:55:10.238771	9.2	11.3	-93.1	0.0
2025-01-22 07:55:12.248232	9.1	11.5	-92.8	0.0
2025-01-22 07:55:14.257464	9.0	11.6	-93.7	0.0
2025-01-22 07:55:16.267173	8.8	11.8	-92.9	0.0
2025-01-22 07:55:18.279546	8.7	12.0	-93.0	0.0
2025-01-22 07:55:20.289853	8.6	12.2	-93.6	0.0
2025-01-22 07:55:22.301915	8.5	12.3	-93.7	0.0
2025-01-22 07:55:24.311253	8.4	12.5	-92.9	0.0
2025-01-22 07:55:26.321058	8.3	12.7	-92.8	0.0
2025-01-22 07:55:28.329261	8.1	12.9	-92.9	0.0
2025-01-22 07:55:30.339718	8.0	13.1	-93.0	0.0
2025-01-22 07:55:32.351486	7.9	13.3	-93.2	0.0
2025-01-22 07:55:34.360884	7.8	13.4	-93.3	0.0
2025-01-22 07:55:36.370890	7.6	13.6	-92.5	0.0
2025-01-22 07:55:38.380249	7.5	13.8	-93.4	0.0
2025-01-22 07:55:40.388953	7.4	14.0	-93.4	0.0
2025-01-22 07:55:42.397756	7.3	14.2	-93.2	0.0
2025-01-22 07:55:44.407153	7.1	14.4	-93.5	0.0
2025-01-22 07:55:46.416184	7.0	14.6	-92.8	0.0
2025-01-22 07:55:48.426217	6.8	14.8	-93.4	0.0
2025-01-22 07:55:50.435764	6.7	15.0	-93.6	0.0
2025-01-22 07:55:52.446286	6.6	15.2	-92.6	0.0
2025-01-22 07:55:54.455579	6.4	15.4	-93.8	0.0
2025-01-22 07:55:56.464551	6.3	15.6	-93.4	0.0
2025-01-22 07:55:58.473730	6.1	15.8	-92.8	0.0
2025-01-22 07:56:00.484573	6.0	16.0	-93.5	0.0
2025-01-22 07:56:02.495162	5.8	16.2	-93.3	0.0
2025-01-22 07:56:04.504534	5.7	16.4	-92.8	0.0
2025-01-22 07:56:06.514551	5.5	16.6	-93.8	0.0
2025-01-22 07:56:08.524568	5.4	16.9	-93.4	0.0
2025-01-22 07:56:10.535587	5.2	17.1	-93.4	0.0
2025-01-22 07:56:12.545603	5.0	17.3	-93.6	0.0
2025-01-22 07:56:14.555882	4.9	17.5	-93.7	0.0
2025-01-22 07:56:16.566738	4.7	17.7	-93.2	0.0
2025-01-22 07:56:18.575583	4.5	17.9	-93.0	0.0
2025-01-22 07:56:20.585747	4.4	18.2	-93.7	0.0
2025-01-22 07:56:22.595502	4.2	18.4	-93.2	0.0
2025-01-22 07:56:24.604902	4.0	18.6	-93.0	0.0
2025-01-22 07:56:26.614696	3.8	18.8	-93.7	0.0
2025-01-22 07:56:28.624486	3.6	19.1	-93.2	0.0
2025-01-22 07:56:30.634784	3.4	19.3	-93.6	0.0
2025-01-22 07:56:32.643880	3.3	19.5	-93.5	0.0
2025-01-22 07:56:34.653389	3.1	19.8	-92.7	0.0
2025-01-22 07:56:36.663657	2.9	20.0	-93.1	0.0
2025-01-22 07:56:38.673498	2.7	20.2	-93.7	0.0
2025-01-22 07:56:40.683428	2.5	20.5	-92.8	0.0
2025-01-22 07:56:42.693325	2.3	20.7	-93.2	0.0
2025-01-22 07:56:44.702722	2.0	21.0	-93.5	0.0
2025-01-22 07:56:46.711628	1.8	21.2	-92.6	0.0
2025-01-22 07:56:48.720550	1.6	21.5	-93.1	0.0
2025-01-22 07:56:50.730000	1.4	21.7	-92.8	0.0
2025-01-22 07:56:52.740323	1.2	22.0	-93.5	0.0
2025-01-22 07:56:54.749997	0.9	22.2	-93.5	0.0
2025-01-22 07:56:56.760009	0.7	22.5	-93.5	0.0
2025-01-22 07:56:58.769228	0.5	22.7	-93.7	0.0
2025-01-22 07:57:00.778988	0.2	23.0	-93.1	0.0
2025-01-22 07:57:02.793734	360.0	23.2	-93.5	0.0
2025-01-22 07:57:04.803042	359.7	23.5	-93.0	0.0
2025-01-22 07:57:06.811303	359.5	23.8	-93.5	0.0
2025-01-22 07:57:08.820324	359.2	24.0	-93.4	0.0
2025-01-22 07:57:10.829733	359.0	24.3	-93.0	0.0
2025-01-22 07:57:12.838296	358.7	24.6	-93.6	0.0
2025-01-22 07:57:14.847151	358.4	24.9	-93.3	0.0
2025-01-22 07:57:16.856591	358.2	25.1	-93.6	0.0
2025-01-22 07:57:18.865505	357.9	25.4	-93.4	0.0
2025-01-22 07:57:20.874869	357.6	25.7	-93.0	0.0
2025-01-22 07:57:22.885006	357.3	26.0	-93.8	0.0
2025-01-22 07:57:24.894869	357.0	26.3	-93.0	0.0
2025-01-22 07:57:26.903942	356.7	26.5	-93.1	0.0
2025-01-22 07:57:28.913879	356.4	26.8	-93.6	0.0
2025-01-22 07:57:30.923225	356.1	27.1	-93.3	0.0
2025-01-22 07:57:32.933718	355.8	27.4	-93.3	0.0
2025-01-22 07:57:34.943108	355.5	27.7	-93.5	0.0
2025-01-22 07:57:36.953110	355.1	28.0	-92.9	0.0
2025-01-22 07:57:38.961982	354.8	28.3	-93.3	0.0
2025-01-22 07:57:40.970075	354.5	28.6	-93.6	0.0
2025-01-22 07:57:42.980782	354.1	28.9	-93.1	0.0
2025-01-22 07:57:44.990406	353.7	29.2	-93.3	0.0
2025-01-22 07:57:46.999442	353.4	29.5	-93.4	0.0
2025-01-22 07:57:49.008513	353.0	29.8	-92.8	0.0
2025-01-22 07:57:51.018878	352.6	30.1	-93.6	0.0
2025-01-22 07:57:53.028712	352.3	30.5	-93.3	0.0
2025-01-22 07:57:55.038765	351.9	30.8	-92.8	0.0
2025-01-22 07:57:57.049857	351.5	31.1	-93.7	0.0
2025-01-22 07:57:59.059501	351.0	31.4	-93.4	0.0
2025-01-22 07:58:01.069061	350.6	31.7	-92.9	0.0
2025-01-22 07:58:03.077731	350.2	32.1	-93.7	0.0
2025-01-22 07:58:05.086351	349.8	32.4	-93.6	0.0
2025-01-22 07:58:07.097281	349.3	32.7	-92.6	0.0
2025-01-22 07:58:09.106651	348.9	33.0	-93.5	0.0
2025-01-22 07:58:11.116514	348.4	33.4	-93.6	0.0
2025-01-22 07:58:13.127534	347.9	33.7	-92.9	0.0
2025-01-22 07:58:15.137204	347.5	34.0	-93.5	0.0
2025-01-22 07:58:17.147576	347.0	34.4	-93.6	0.0
2025-01-22 07:58:19.159340	346.5	34.7	-93.3	0.0
2025-01-22 07:58:21.169387	346.0	35.0	-93.7	0.0
2025-01-22 07:58:23.181256	345.4	35.4	-93.7	0.0
2025-01-22 07:58:25.190521	344.9	35.7	-93.2	0.0
2025-01-22 07:58:27.200350	344.4	36.0	-93.0	0.0
2025-01-22 07:58:29.210031	343.8	36.4	-93.8	0.0
2025-01-22 07:58:31.219867	343.2	36.7	-93.2	0.0
2025-01-22 07:58:33.228563	342.7	37.0	-93.4	0.0
2025-01-22 07:58:35.237758	342.1	37.4	-93.7	0.0
2025-01-22 07:58:37.248114	341.5	37.7	-93.1	0.0
2025-01-22 07:58:39.257644	340.9	38.1	-93.6	0.0
2025-01-22 07:58:41.267700	340.2	38.4	-93.9	0.0
2025-01-22 07:58:43.277623	339.6	38.7	-93.2	0.0
2025-01-22 07:58:45.287189	338.9	39.1	-93.3	0.0
2025-01-22 07:58:47.296892	338.3	39.4	-93.7	0.0
2025-01-22 07:58:49.306424	337.6	39.7	-93.0	0.0
2025-01-22 07:58:51.316472	336.9	40.1	-93.0	0.0
2025-01-22 07:58:53.326996	336.2	40.4	-93.9	0.0
2025-01-22 07:58:55.340705	335.4	40.7	-93.0	0.0
2025-01-22 07:58:57.351694	334.7	41.0	-93.4	0.0
2025-01-22 07:58:59.361150	333.9	41.4	-93.6	0.0
2025-01-22 07:59:01.370252	333.2	41.7	-93.0	0.0
2025-01-22 07:59:03.378501	332.4	42.0	-93.4	0.0
2025-01-22 07:59:05.387812	331.6	42.3	-93.6	0.0
2025-01-22 07:59:07.396858	330.8	42.6	-92.8	0.0
2025-01-22 07:59:09.405690	329.9	42.9	-93.5	0.0
2025-01-22 07:59:11.414924	329.1	43.2	-93.3	0.0
2025-01-22 07:59:13.425085	328.2	43.5	-92.9	0.0
2025-01-22 07:59:15.436498	327.3	43.8	-93.6	0.0
2025-01-22 07:59:17.444857	326.4	44.1	-93.2	0.0
2025-01-22 07:59:19.452925	325.5	44.4	-93.0	0.0
2025-01-22 07:59:21.463232	324.6	44.6	-93.8	0.0
2025-01-22 07:59:23.472987	323.7	44.9	-93.3	0.0
2025-01-22 07:59:25.482151	322.7	45.1	-92.7	0.0
2025-01-22 07:59:27.491112	321.7	45.4	-93.4	0.0
2025-01-22 07:59:29.500180	320.7	45.6	-93.2	0.0
2025-01-22 07:59:31.510633	319.7	45.9	-94.0	0.0
2025-01-22 07:59:33.520914	318.7	46.1	-93.2	0.0
2025-01-22 07:59:35.529978	317.7	46.3	-93.0	0.0
2025-01-22 07:59:37.540147	316.6	46.5	-93.8	0.0
2025-01-22 07:59:39.550046	315.6	46.7	-93.7	0.0
2025-01-22 07:59:41.559920	314.5	46.9	-93.4	0.0
2025-01-22 07:59:43.570241	313.4	47.1	-93.2	0.0
2025-01-22 07:59:45.580739	312.3	47.2	-93.8	0.0
2025-01-22 07:59:47.590495	311.2	47.4	-92.9	0.0
2025-01-22 07:59:49.599878	310.1	47.5	-93.1	0.0
2025-01-22 07:59:51.609622	308.9	47.7	-93.7	0.0
2025-01-22 07:59:53.619259	307.8	47.8	-93.4	0.0
2025-01-22 07:59:55.628985	306.6	47.9	-93.6	0.0
2025-01-22 07:59:57.639499	305.5	48.0	-93.7	0.0
2025-01-22 07:59:59.649327	304.3	48.1	-93.0	0.0
2025-01-22 08:00:01.659192	303.2	48.1	-93.9	0.0
2025-01-22 08:00:03.670833	302.0	48.2	-93.4	0.0
2025-01-22 08:00:05.679884	300.8	48.2	-92.8	0.0
2025-01-22 08:00:07.690002	299.6	48.3	-93.7	0.0
2025-01-22 08:00:09.701022	298.4	48.3	-93.7	0.0
2025-01-22 08:00:11.709957	297.3	48.3	-92.6	0.0
2025-01-22 08:00:13.722903	296.1	48.3	-93.6	0.0
2025-01-22 08:00:15.731821	294.9	48.2	-93.5	0.0
2025-01-22 08:00:17.742487	293.7	48.2	-92.7	0.0
2025-01-22 08:00:19.752766	292.5	48.2	-93.7	0.0
2025-01-22 08:00:21.762198	291.4	48.1	-93.7	0.0
2025-01-22 08:00:23.772317	290.2	48.0	-92.7	0.0
2025-01-22 08:00:25.781748	289.0	47.9	-93.7	0.0
2025-01-22 08:00:27.791235	287.9	47.8	-93.0	0.0
2025-01-22 08:00:29.801499	286.7	47.7	-93.3	0.0
2025-01-22 08:00:31.810647	285.6	47.6	-93.9	0.0
2025-01-22 08:00:33.820460	284.5	47.5	-93.1	0.0
2025-01-22 08:00:35.832071	283.4	47.3	-93.3	0.0
2025-01-22 08:00:37.841477	282.3	47.1	-93.9	0.0
2025-01-22 08:00:39.851885	281.2	47.0	-92.9	0.0
2025-01-22 08:00:41.859996	280.1	46.8	-93.1	0.0
2025-01-22 08:00:43.868908	279.0	46.6	-93.7	0.0
2025-01-22 08:00:45.877703	278.0	46.4	-93.3	0.0
2025-01-22 08:00:47.887827	276.9	46.2	-93.3	0.0
2025-01-22 08:00:49.898755	275.9	46.0	-94.2	0.0
2025-01-22 08:00:51.908069	274.9	45.7	-93.1	0.0
2025-01-22 08:00:53.919102	273.9	45.5	-93.4	0.0
2025-01-22 08:00:55.929654	272.9	45.3	-93.7	0.0
2025-01-22 08:00:57.939809	271.9	45.0	-93.1	0.0
2025-01-22 08:00:59.950198	271.0	44.7	-93.6	0.0
2025-01-22 08:01:01.960026	270.0	44.5	-93.6	0.0
2025-01-22 08:01:03.970374	269.1	44.2	-93.1	0.0
2025-01-22 08:01:05.980010	268.2	43.9	-93.6	0.0
2025-01-22 08:01:07.989636	267.3	43.6	-93.6	0.0
2025-01-22 08:01:09.999080	266.5	43.3	-93.2	0.0
2025-01-22 08:01:12.008152	265.6	43.1	-93.7	0.0
2025-01-22 08:01:14.018021	264.8	42.7	-93.6	0.0
2025-01-22 08:01:16.026975	263.9	42.4	-92.9	0.0
2025-01-22 08:01:18.037231	263.1	42.1	-93.5	0.0
2025-01-22 08:01:20.046622	262.3	41.8	-93.5	0.0
2025-01-22 08:01:22.055302	261.6	41.5	-93.0	0.0
2025-01-22 08:01:24.065299	260.8	41.2	-94.1	0.0
2025-01-22 08:01:26.075051	260.0	40.9	-93.3	0.0
2025-01-22 08:01:28.085559	259.3	40.5	-93.0	0.0
2025-01-22 08:01:30.095857	258.6	40.2	-94.0	0.0
2025-01-22 08:01:32.105834	257.9	39.9	-93.4	0.0
2025-01-22 08:01:34.116300	257.2	39.5	-93.1	0.0
2025-01-22 08:01:36.126139	256.5	39.2	-93.9	0.0
2025-01-22 08:01:38.136427	255.9	38.9	-93.3	0.0
2025-01-22 08:01:40.146297	255.2	38.5	-93.2	0.0
2025-01-22 08:01:42.156501	254.6	38.2	-93.2	0.0
2025-01-22 08:01:44.166296	254.0	37.9	-93.9	0.0
2025-01-22 08:01:46.176658	253.3	37.5	-93.3	0.0
2025-01-22 08:01:48.186907	252.7	37.2	-92.9	0.0
2025-01-22 08:01:50.195870	252.2	36.9	-94.1	0.0
2025-01-22 08:01:52.206296	251.6	36.5	-93.5	0.0
2025-01-22 08:01:54.216107	251.0	36.2	-93.1	0.0
2025-01-22 08:01:56.224564	250.5	35.8	-94.1	0.0
2025-01-22 08:01:58.234103	249.9	35.5	-93.2	0.0
2025-01-22 08:02:00.243034	249.4	35.2	-93.5	0.0
2025-01-22 08:02:02.252387	248.9	34.8	-92.7	0.0
2025-01-22 08:02:04.264384	248.4	34.5	-92.9	0.0
2025-01-22 08:02:06.273336	247.9	34.2	-93.3	0.0
2025-01-22 08:02:08.282405	247.4	33.8	-92.8	0.0
2025-01-22 08:02:10.293754	246.9	33.5	-92.9	0.0
2025-01-22 08:02:12.302482	246.5	33.2	-93.8	0.0
2025-01-22 08:02:14.311901	246.0	32.9	-92.8	0.0
2025-01-22 08:02:16.323174	245.6	32.5	-93.0	0.0
2025-01-22 08:02:18.332294	245.1	32.2	-93.4	0.0
2025-01-22 08:02:20.341910	244.7	31.9	-93.9	0.0
2025-01-22 08:02:22.351430	244.3	31.6	-94.0	0.0
2025-01-22 08:02:24.360079	243.9	31.2	-93.6	0.0
2025-01-22 08:02:26.368874	243.5	30.9	-93.3	0.0
2025-01-22 08:02:28.378355	243.1	30.6	-93.9	0.0
2025-01-22 08:02:30.388574	242.7	30.3	-93.6	0.0
2025-01-22 08:02:32.397936	242.3	30.0	-93.3	0.0
2025-01-22 08:02:34.407754	241.9	29.7	-93.9	0.0
2025-01-22 08:02:36.417584	241.5	29.4	-93.5	0.0
2025-01-22 08:02:38.428163	241.2	29.1	-93.3	0.0
2025-01-22 08:02:40.438763	240.8	28.7	-93.8	0.0
2025-01-22 08:02:42.450576	240.5	28.4	-93.6	0.0
2025-01-22 08:02:44.458966	240.1	28.1	-93.6	0.0
2025-01-22 08:02:46.467903	239.8	27.8	-93.9	0.0
2025-01-22 08:02:48.477524	239.5	27.6	-93.3	0.0
2025-01-22 08:02:50.488053	239.2	27.3	-93.3	0.0
2025-01-22 08:02:52.496720	238.8	27.0	-93.6	0.0
2025-01-22 08:02:54.505931	238.5	26.7	-92.7	0.0
2025-01-22 08:02:56.516062	238.2	26.4	-93.4	0.0
2025-01-22 08:02:58.524849	237.9	26.1	-94.0	0.0
2025-01-22 08:03:00.535341	237.6	25.8	-92.9	0.0
2025-01-22 08:03:02.543576	237.4	25.5	-93.5	0.0
2025-01-22 08:03:04.552853	237.1	25.3	-93.7	0.0
2025-01-22 08:03:06.561111	236.8	25.0	-92.8	0.0
2025-01-22 08:03:08.569558	236.5	24.7	-93.4	0.0
2025-01-22 08:03:10.577703	236.3	24.4	-93.9	0.0
2025-01-22 08:03:12.586771	236.0	24.2	-92.7	0.0
2025-01-22 08:03:14.594770	235.7	23.9	-93.4	0.0
2025-01-22 08:03:16.603597	235.5	23.6	-93.4	0.0
2025-01-22 08:03:18.613700	235.2	23.4	-93.0	0.0
2025-01-22 08:03:20.623402	235.0	23.1	-93.4	0.0
2025-01-22 08:03:22.632278	234.7	22.8	-93.3	0.0
2025-01-22 08:03:24.643455	234.5	22.6	-93.9	0.0
2025-01-22 08:03:26.653086	234.3	22.3	-93.6	0.0
2025-01-22 08:03:28.662005	234.0	22.1	-93.1	0.0
2025-01-22 08:03:30.672256	233.8	21.8	-93.7	0.0
2025-01-22 08:03:32.682006	233.6	21.6	-93.4	0.0
2025-01-22 08:03:34.692166	233.4	21.3	-93.4	0.0
2025-01-22 08:03:36.702230	233.2	21.1	-93.2	0.0
2025-01-22 08:03:38.712188	232.9	20.8	-93.8	0.0
2025-01-22 08:03:40.721953	232.7	20.6	-93.2	0.0
2025-01-22 08:03:42.731085	232.5	20.3	-93.4	0.0
2025-01-22 08:03:44.741075	232.3	20.1	-93.0	0.0
2025-01-22 08:03:46.750870	232.1	19.9	-93.4	0.0
2025-01-22 08:03:48.760480	231.9	19.6	-93.6	0.0
2025-01-22 08:03:50.769847	231.7	19.4	-93.7	0.0
2025-01-22 08:03:52.780008	231.5	19.2	-93.4	0.0
2025-01-22 08:03:54.788936	231.4	18.9	-93.7	0.0
2025-01-22 08:03:56.799314	231.2	18.7	-92.9	0.0
2025-01-22 08:03:58.809676	231.0	18.5	-93.2	0.0
2025-01-22 08:04:00.819572	230.8	18.3	-93.4	0.0
2025-01-22 08:04:02.829117	230.6	18.0	-93.8	0.0
2025-01-22 08:04:04.839645	230.5	17.8	-93.0	0.0
2025-01-22 08:04:06.849571	230.3	17.6	-93.3	0.0
2025-01-22 08:04:08.858786	230.1	17.4	-93.8	0.0
2025-01-22 08:04:10.867970	230.0	17.2	-92.9	0.0
2025-01-22 08:04:12.877170	229.8	17.0	-93.4	0.0
2025-01-22 08:04:14.886361	229.6	16.7	-93.3	0.0
2025-01-22 08:04:16.895140	229.5	16.5	-93.8	0.0
2025-01-22 08:04:18.903640	229.3	16.3	-93.6	0.0
2025-01-22 08:04:20.912959	229.2	16.1	-93.0	0.0
2025-01-22 08:04:22.921890	229.0	15.9	-93.8	0.0
2025-01-22 08:04:24.931335	228.9	15.7	-93.6	0.0
2025-01-22 08:04:26.941395	228.7	15.5	-93.2	0.0
2025-01-22 08:04:28.951849	228.6	15.3	-93.9	0.0
2025-01-22 08:04:30.962467	228.4	15.1	-93.4	0.0
2025-01-22 08:04:32.971537	228.3	14.9	-93.1	0.0
2025-01-22 08:04:34.980240	228.1	14.7	-93.8	0.0
2025-01-22 08:04:36.988753	228.0	14.5	-93.4	0.0
2025-01-22 08:04:38.997704	227.9	14.3	-93.3	0.0
2025-01-22 08:04:41.007722	227.7	14.1	-94.0	0.0
2025-01-22 08:04:43.017586	227.6	13.9	-93.3	0.0
2025-01-22 08:04:45.027304	227.5	13.7	-93.4	0.0
2025-01-22 08:04:47.037926	227.3	13.5	-94.0	0.0
2025-01-22 08:04:49.049034	227.2	13.4	-93.3	0.0
2025-01-22 08:04:51.060238	227.1	13.2	-93.3	0.0
2025-01-22 08:04:53.071197	227.0	13.0	-93.7	0.0
2025-01-22 08:04:55.080684	226.8	12.8	-93.2	0.0
2025-01-22 08:04:57.090715	226.7	12.6	-93.1	0.0
2025-01-22 08:04:59.100329	226.6	12.4	-93.8	0.0
2025-01-22 08:05:01.109434	226.5	12.2	-93.2	0.0
2025-01-22 08:05:03.119354	226.4	12.1	-93.3	0.0
2025-01-22 08:05:05.129601	226.2	11.9	-93.8	0.0
2025-01-22 08:05:07.138829	226.1	11.7	-93.0	0.0
2025-01-22 08:05:09.148976	226.0	11.5	-93.8	0.0
2025-01-22 08:05:11.158781	225.9	11.4	-93.2	0.0
2025-01-22 08:05:13.168360	225.8	11.2	-93.1	0.0
2025-01-22 08:05:15.177776	225.7	11.0	-93.7	0.0
2025-01-22 08:05:17.188699	225.6	10.8	-93.4	0.0
2025-01-22 08:05:19.199103	225.5	10.7	-93.6	0.0
2025-01-22 08:05:21.208807	225.4	10.5	-93.8	0.0
2025-01-22 08:05:23.219333	225.3	10.3	-93.7	0.0
2025-01-22 08:05:25.228879	225.2	10.2	-92.8	0.0
#Closed at: 2025-01-22 07:54:50.153606