passes_logs/2025/01/22/planumMobile0/planumMobile0__20250122_083733_METEOR-M2_4_rec.log

#Pass ID: 20250122_083733_METEOR-M2 4
#Satellite: METEOR-M2 4
#Configuration: METEOR-M2 4
#Start time: 2025-01-22 08:37:38.576303

#LorettStation: 1.0.0 05.05.2024
#Station: planumMobile0
#Location: 49.207755 lon 55.927282 lat
#TLE: 1 59051U 24039A   24102.15929521  .00000064  00000+0  48214-4 0  9993
#TLE: 2 59051  98.5917  65.7261 0006423 328.2053  31.8736 14.22209404  5962

#Time	Az	El	Level	SNR
2025-01-22 08:41:55.807116	35.1	17.2	-93.9	0.0
2025-01-22 08:41:56.811923	34.9	17.2	-94.0	0.0
2025-01-22 08:41:57.816477	34.7	17.1	-93.4	0.0
2025-01-22 08:41:58.821197	34.5	17.1	-94.0	0.0
2025-01-22 08:41:59.825883	34.2	17.1	-94.2	0.0
2025-01-22 08:42:00.831124	34.0	17.1	-93.8	0.0
2025-01-22 08:42:01.835869	33.8	17.0	-93.9	0.0
2025-01-22 08:42:02.840446	33.6	17.0	-94.1	0.0
2025-01-22 08:42:03.845993	33.4	17.0	-93.6	0.0
2025-01-22 08:42:04.851720	33.1	17.0	-94.1	0.0
2025-01-22 08:42:05.856692	32.9	16.9	-94.3	0.0
2025-01-22 08:42:06.861964	32.7	16.9	-93.7	0.0
2025-01-22 08:42:07.867149	32.5	16.9	-94.0	0.0
2025-01-22 08:42:08.872969	32.2	16.8	-94.1	0.0
2025-01-22 08:42:09.878070	32.0	16.8	-93.7	0.0
2025-01-22 08:42:10.883237	31.8	16.8	-93.8	0.0
2025-01-22 08:42:11.887739	31.6	16.8	-94.2	0.0
2025-01-22 08:42:12.891837	31.4	16.7	-93.7	0.0
2025-01-22 08:42:13.896191	31.1	16.7	-94.0	0.0
2025-01-22 08:42:14.900321	30.9	16.7	-94.4	0.0
2025-01-22 08:42:15.905291	30.7	16.6	-93.7	0.0
2025-01-22 08:42:16.910236	30.5	16.6	-93.9	0.0
2025-01-22 08:42:17.915139	30.3	16.6	-94.4	0.0
2025-01-22 08:42:18.920421	30.1	16.5	-93.9	0.0
2025-01-22 08:42:19.926101	29.8	16.5	-94.1	0.0
2025-01-22 08:42:20.930865	29.6	16.5	-94.5	0.0
2025-01-22 08:42:21.935963	29.4	16.4	-93.7	0.0
2025-01-22 08:42:22.940970	29.2	16.4	-93.8	0.0
2025-01-22 08:42:23.945402	29.0	16.4	-94.2	0.0
2025-01-22 08:42:24.950251	28.8	16.3	-94.0	0.0
2025-01-22 08:42:25.954772	28.6	16.3	-93.8	0.0
2025-01-22 08:42:26.959666	28.4	16.3	-94.3	0.0
2025-01-22 08:42:27.965353	28.1	16.2	-94.2	0.0
2025-01-22 08:42:28.969910	27.9	16.2	-93.8	0.0
2025-01-22 08:42:29.975467	27.7	16.2	-94.4	0.0
2025-01-22 08:42:30.981926	27.5	16.1	-94.2	0.0
2025-01-22 08:42:31.987113	27.3	16.1	-94.5	0.0
2025-01-22 08:42:32.991807	27.1	16.1	-94.6	0.0
2025-01-22 08:42:33.996645	26.9	16.0	-93.9	0.0
2025-01-22 08:42:35.001541	26.7	16.0	-93.8	0.0
2025-01-22 08:42:36.006146	26.5	15.9	-94.1	0.0
2025-01-22 08:42:37.010984	26.3	15.9	-94.1	0.0
2025-01-22 08:42:38.016526	26.1	15.9	-93.7	0.0
2025-01-22 08:42:39.021281	25.8	15.8	-94.3	0.0
2025-01-22 08:42:40.026022	25.6	15.8	-94.1	0.0
2025-01-22 08:42:41.030871	25.4	15.7	-93.8	0.0
2025-01-22 08:42:42.036305	25.2	15.7	-94.0	0.0
2025-01-22 08:42:43.040426	25.0	15.7	-93.9	0.0
2025-01-22 08:42:44.045417	24.8	15.6	-93.7	0.0
2025-01-22 08:42:45.050146	24.6	15.6	-94.3	0.0
2025-01-22 08:42:46.055171	24.4	15.5	-94.1	0.0
2025-01-22 08:42:47.060829	24.2	15.5	-94.6	0.0
2025-01-22 08:42:48.065704	24.0	15.5	-94.1	0.0
2025-01-22 08:42:49.069973	23.8	15.4	-93.9	0.0
2025-01-22 08:42:50.074738	23.6	15.4	-93.5	0.0
2025-01-22 08:42:51.080667	23.4	15.3	-94.6	0.0
2025-01-22 08:42:52.085253	23.2	15.3	-93.7	0.0
2025-01-22 08:42:53.089895	23.0	15.3	-94.4	0.0
2025-01-22 08:42:54.094708	22.8	15.2	-94.0	0.0
2025-01-22 08:42:55.100590	22.6	15.2	-93.6	0.0
2025-01-22 08:42:56.105197	22.4	15.1	-94.2	0.0
2025-01-22 08:42:57.110027	22.2	15.1	-94.1	0.0
2025-01-22 08:42:58.114829	22.0	15.0	-93.9	0.0
2025-01-22 08:42:59.119415	21.9	15.0	-93.7	0.0
2025-01-22 08:43:00.123610	21.7	14.9	-94.0	0.0
2025-01-22 08:43:01.128250	21.5	14.9	-94.1	0.0
2025-01-22 08:43:02.133086	21.3	14.9	-93.9	0.0
2025-01-22 08:43:03.137840	21.1	14.8	-94.2	0.0
2025-01-22 08:43:04.142426	20.9	14.8	-94.5	0.0
2025-01-22 08:43:05.146786	20.7	14.7	-93.7	0.0
2025-01-22 08:43:06.151545	20.5	14.7	-94.1	0.0
2025-01-22 08:43:07.156185	20.3	14.6	-94.2	0.0
2025-01-22 08:43:08.160975	20.1	14.6	-93.9	0.0
2025-01-22 08:43:09.165824	19.9	14.5	-94.1	0.0
2025-01-22 08:43:10.170608	19.8	14.5	-94.1	0.0
2025-01-22 08:43:11.175382	19.6	14.4	-93.9	0.0
2025-01-22 08:43:12.180873	19.4	14.4	-94.0	0.0
2025-01-22 08:43:13.185679	19.2	14.3	-94.5	0.0
2025-01-22 08:43:14.190634	19.0	14.3	-93.8	0.0
2025-01-22 08:43:15.195396	18.8	14.2	-94.0	0.0
2025-01-22 08:43:16.199932	18.6	14.2	-94.3	0.0
2025-01-22 08:43:17.204685	18.5	14.1	-94.1	0.0
2025-01-22 08:43:18.209556	18.3	14.1	-94.2	0.0
2025-01-22 08:43:19.214391	18.1	14.1	-94.3	0.0
2025-01-22 08:43:20.218527	17.9	14.0	-93.8	0.0
2025-01-22 08:43:21.223262	17.7	14.0	-93.7	0.0
2025-01-22 08:43:22.227764	17.6	13.9	-94.4	0.0
2025-01-22 08:43:23.232682	17.4	13.9	-93.9	0.0
2025-01-22 08:43:24.237396	17.2	13.8	-94.1	0.0
2025-01-22 08:43:25.242322	17.0	13.8	-94.6	0.0
2025-01-22 08:43:26.247130	16.8	13.7	-94.1	0.0
2025-01-22 08:43:27.251152	16.7	13.7	-93.8	0.0
2025-01-22 08:43:28.255772	16.5	13.6	-94.3	0.0
2025-01-22 08:43:29.260123	16.3	13.6	-93.8	0.0
2025-01-22 08:43:30.264977	16.1	13.5	-94.1	0.0
2025-01-22 08:43:31.269470	16.0	13.5	-94.4	0.0
2025-01-22 08:43:32.274121	15.8	13.4	-94.1	0.0
2025-01-22 08:43:33.279073	15.6	13.3	-93.9	0.0
2025-01-22 08:43:34.284020	15.4	13.3	-94.6	0.0
2025-01-22 08:43:35.289586	15.3	13.2	-94.0	0.0
2025-01-22 08:43:36.293876	15.1	13.2	-94.1	0.0
2025-01-22 08:43:37.298117	14.9	13.1	-94.5	0.0
2025-01-22 08:43:38.302240	14.7	13.1	-94.1	0.0
2025-01-22 08:43:39.306858	14.6	13.0	-94.0	0.0
2025-01-22 08:43:40.311671	14.4	13.0	-94.3	0.0
2025-01-22 08:43:41.316490	14.2	12.9	-94.2	0.0
2025-01-22 08:43:42.321321	14.1	12.9	-94.0	0.0
2025-01-22 08:43:43.325741	13.9	12.8	-94.3	0.0
2025-01-22 08:43:44.330337	13.7	12.8	-94.1	0.0
2025-01-22 08:43:45.335465	13.6	12.7	-93.7	0.0
2025-01-22 08:43:46.340533	13.4	12.7	-94.3	0.0
2025-01-22 08:43:47.345679	13.2	12.6	-94.4	0.0
2025-01-22 08:43:48.350776	13.1	12.6	-93.6	0.0
2025-01-22 08:43:49.355682	12.9	12.5	-94.4	0.0
2025-01-22 08:43:50.360679	12.7	12.5	-94.3	0.0
2025-01-22 08:43:51.365656	12.6	12.4	-93.9	0.0
2025-01-22 08:43:52.370482	12.4	12.3	-94.2	0.0
2025-01-22 08:43:53.374301	12.3	12.3	-94.2	0.0
2025-01-22 08:43:54.379222	12.1	12.2	-93.6	0.0
2025-01-22 08:43:55.384135	11.9	12.2	-94.1	0.0
2025-01-22 08:43:56.388529	11.8	12.1	-94.3	0.0
2025-01-22 08:43:57.392993	11.6	12.1	-93.7	0.0
2025-01-22 08:43:58.397589	11.5	12.0	-94.2	0.0
2025-01-22 08:43:59.402123	11.3	12.0	-94.4	0.0
2025-01-22 08:44:00.407033	11.2	11.9	-93.9	0.0
2025-01-22 08:44:01.412697	11.0	11.9	-94.4	0.0
2025-01-22 08:44:02.417696	10.8	11.8	-94.4	0.0
2025-01-22 08:44:03.422676	10.7	11.8	-93.9	0.0
2025-01-22 08:44:04.428809	10.5	11.7	-94.2	0.0
2025-01-22 08:44:05.433186	10.4	11.6	-94.1	0.0
2025-01-22 08:44:06.437153	10.2	11.6	-93.5	0.0
2025-01-22 08:44:07.441445	10.1	11.5	-94.1	0.0
2025-01-22 08:44:08.445729	9.9	11.5	-94.4	0.0
2025-01-22 08:44:09.450526	9.8	11.4	-93.7	0.0
2025-01-22 08:44:10.454946	9.6	11.4	-94.3	0.0
2025-01-22 08:44:11.459522	9.5	11.3	-94.5	0.0
2025-01-22 08:44:12.464801	9.3	11.3	-94.2	0.0
2025-01-22 08:44:13.469837	9.2	11.2	-93.9	0.0
2025-01-22 08:44:14.474333	9.0	11.1	-94.3	0.0
2025-01-22 08:44:15.478731	8.9	11.1	-94.0	0.0
2025-01-22 08:44:16.483315	8.7	11.0	-94.1	0.0
2025-01-22 08:44:17.488573	8.6	11.0	-94.0	0.0
2025-01-22 08:44:18.494842	8.4	10.9	-93.9	0.0
2025-01-22 08:44:19.499785	8.3	10.9	-94.0	0.0
2025-01-22 08:44:20.504386	8.1	10.8	-94.5	0.0
2025-01-22 08:44:21.508874	8.0	10.8	-94.1	0.0
2025-01-22 08:44:22.514093	7.8	10.7	-94.3	0.0
2025-01-22 08:44:23.518962	7.7	10.6	-94.5	0.0
2025-01-22 08:44:24.524504	7.6	10.6	-94.0	0.0
2025-01-22 08:44:25.529209	7.4	10.5	-93.7	0.0
2025-01-22 08:44:26.533992	7.3	10.5	-94.3	0.0
2025-01-22 08:44:27.538845	7.1	10.4	-93.9	0.0
2025-01-22 08:44:28.544393	7.0	10.4	-94.1	0.0
2025-01-22 08:44:29.548928	6.8	10.3	-94.4	0.0
2025-01-22 08:44:30.553550	6.7	10.2	-94.2	0.0
2025-01-22 08:44:31.558521	6.6	10.2	-94.2	0.0
2025-01-22 08:44:32.563406	6.4	10.1	-94.3	0.0
2025-01-22 08:44:33.568129	6.3	10.1	-93.9	0.0
#Closed at: 2025-01-22 08:37:33.577735