passes_logs/2026/01/29/T1/T1__20260129_114548_SUOMI_NPP_rec.log

#Pass ID: 20260129_114548_SUOMI NPP
#Satellite: SUOMI NPP
#Configuration: NPP
#almurnet v.1.7.20251203
#Start time: 2026-01-29 11:45:48

#Version: 2.0.20230620
#Station: T1
#Location: 37.570604 lon 55.790049 lat
#TLE: 1 37849U 11061A   26027.93236865  .00000148  00000+0  91411-4 0  9991
#TLE: 2 37849  98.7823 329.8704 0002085  41.3231 318.8102 14.19530777738546

#Time	Az	El	Level	Level2	SNR	BER	BlckErr	Temp	State	Recorded	gain1	gain2
2026-01-29 11:45:48.50	218.83	4.98	-49.8	-65.3	3.8	1.49e+00	0	41	0	0	70	22339
2026-01-29 11:45:51.48	219.13	5.14	-50.1	-65.4	3.8	1.49e+00	0	41	104	0	71	21354
2026-01-29 11:45:54.46	219.42	5.31	-50.0	-65.4	3.8	1.49e+00	0	41	104	0	71	21348
2026-01-29 11:45:57.44	219.72	5.47	-49.9	-65.3	3.8	1.49e+00	0	41	104	0	71	21083
2026-01-29 11:46:00.42	220.02	5.64	-50.0	-65.3	3.8	1.49e+00	0	41	104	0	71	21030
2026-01-29 11:46:03.40	220.33	5.80	-49.8	-65.1	3.8	1.49e+00	0	42	104	0	71	20642
2026-01-29 11:46:06.38	220.64	5.97	-49.4	-64.9	3.8	1.49e+00	0	41	104	0	70	21288
2026-01-29 11:46:09.36	220.95	6.14	-48.8	-64.6	3.8	1.49e+00	0	42	104	0	69	21780
2026-01-29 11:46:12.34	221.26	6.30	-48.8	-64.5	3.8	1.49e+00	0	42	104	0	69	21742
2026-01-29 11:46:15.32	221.58	6.47	-48.7	-64.5	3.8	1.49e+00	0	42	104	0	69	21714
2026-01-29 11:46:18.30	221.90	6.64	-48.8	-64.5	3.8	1.49e+00	0	42	104	0	69	21615
2026-01-29 11:46:21.28	222.23	6.81	-48.7	-64.5	3.8	1.49e+00	0	42	104	0	69	21666
2026-01-29 11:46:24.26	222.56	6.98	-48.7	-64.5	3.8	1.49e+00	0	42	104	0	69	21722
2026-01-29 11:46:27.24	222.89	7.15	-48.7	-64.4	3.8	1.49e+00	0	42	104	0	69	21270
2026-01-29 11:46:30.22	223.23	7.32	-48.7	-64.4	3.8	1.49e+00	0	42	104	0	69	21426
2026-01-29 11:46:33.20	223.57	7.48	-48.8	-64.5	3.8	1.49e+00	0	42	104	0	69	21715
2026-01-29 11:46:36.18	223.92	7.65	-48.7	-64.5	3.8	1.49e+00	0	43	104	0	69	21668
2026-01-29 11:46:39.16	224.26	7.82	-41.1	-63.4	3.9	1.50e+00	0	42	104	0	54	45015
2026-01-29 11:46:42.14	224.62	8.00	-41.0	-61.7	4.0	1.50e+00	0	43	104	0	52	41732
2026-01-29 11:46:45.12	224.97	8.17	-40.6	-62.3	3.9	1.50e+00	0	43	104	0	53	41981
2026-01-29 11:46:48.10	225.33	8.34	-40.8	-54.6	7.7	4.65e-01	0	43	0	0	53	17437
2026-01-29 11:46:51.08	225.70	8.51	-40.4	-48.7	13.3	2.04e-02	0	43	0	5242880	52	9328
2026-01-29 11:46:54.05	226.07	8.68	-44.5	-47.8	15.4	0.00e+00	0	43	0	11534336	59	5643
2026-01-29 11:46:57.03	226.44	8.85	-46.2	-51.2	11.7	2.53e-03	0	43	0	16777216	63	6643
2026-01-29 11:47:00.01	226.82	9.02	-47.7	-56.4	6.7	1.31e-01	0	43	0	22020096	65	10690
2026-01-29 11:47:03.00	227.20	9.19	-48.1	-58.8	5.0	2.54e-01	0	43	0	28311552	66	13399
2026-01-29 11:47:05.99	227.59	9.36	-46.1	-50.7	12.4	3.41e-03	0	43	0	33554432	64	5881
2026-01-29 11:47:08.97	227.98	9.54	-46.2	-50.7	12.4	9.31e-03	0	43	0	38797312	63	6244
2026-01-29 11:47:11.99	228.38	9.71	-46.2	-50.9	12.2	4.81e-03	0	43	0	45088768	63	6375
2026-01-29 11:47:14.98	228.78	9.88	-45.5	-49.5	13.6	2.54e-03	0	43	0	50331648	63	5430
2026-01-29 11:47:17.96	229.18	10.05	-44.8	-48.2	14.8	7.40e-03	0	43	0	55574528	61	5279
2026-01-29 11:47:20.95	229.59	10.22	-44.9	-48.3	14.9	3.89e-03	0	43	0	61865984	61	5295
2026-01-29 11:47:23.94	230.01	10.40	-44.4	-47.5	15.9	0.00e+00	0	43	0	67108864	60	5152
2026-01-29 11:47:26.95	230.43	10.57	-44.4	-47.5	15.9	0.00e+00	0	43	0	72351744	60	5102
2026-01-29 11:47:29.94	230.86	10.74	-44.1	-47.0	16.4	0.00e+00	0	43	0	78643200	60	4840
2026-01-29 11:47:32.92	231.28	10.91	-43.9	-46.8	16.6	0.00e+00	0	43	0	83886080	59	4984
2026-01-29 11:47:35.90	231.72	11.08	-43.8	-46.6	16.8	0.00e+00	0	43	0	89128960	59	4884
2026-01-29 11:47:38.88	232.15	11.25	-43.8	-46.6	16.7	0.00e+00	0	43	0	95420416	59	4926
2026-01-29 11:47:41.95	232.61	11.43	-43.5	-46.2	17.1	0.00e+00	0	43	0	100663296	59	4702
2026-01-29 11:47:44.80	233.04	11.59	-43.5	-46.2	17.1	0.00e+00	0	43	0	105906176	58	4963
2026-01-29 11:47:47.93	233.51	11.77	-43.4	-46.2	17.2	0.00e+00	0	43	0	112197632	58	4944
2026-01-29 11:47:50.77	233.95	11.93	-43.6	-46.4	17.0	0.00e+00	0	43	0	117440512	58	5095
2026-01-29 11:47:53.89	234.43	12.10	-43.7	-46.5	16.9	0.00e+00	0	43	0	123731968	58	5135
2026-01-29 11:47:56.78	234.89	12.27	-43.9	-46.7	16.7	0.00e+00	0	43	0	128974848	58	5266
2026-01-29 11:48:00.07	235.41	12.45	-43.7	-46.5	17.0	0.00e+00	0	43	0	135266304	58	5109
2026-01-29 11:48:02.78	235.84	12.60	-43.6	-46.4	17.1	0.00e+00	0	43	0	140509184	58	5045
2026-01-29 11:48:05.98	236.36	12.78	-43.7	-46.5	16.8	0.00e+00	0	43	0	145752064	58	5158
2026-01-29 11:48:08.97	236.85	12.94	-43.6	-46.3	17.1	0.00e+00	0	43	0	152043520	58	5024
2026-01-29 11:48:11.95	237.35	13.11	-43.3	-45.9	17.5	0.00e+00	0	43	0	157286400	58	4789
2026-01-29 11:48:14.98	237.86	13.27	-43.2	-45.7	17.6	0.00e+00	0	43	0	162529280	58	4690
2026-01-29 11:48:17.97	238.36	13.44	-43.2	-45.9	17.6	0.00e+00	0	43	0	168820736	58	4761
2026-01-29 11:48:20.95	238.88	13.60	-43.5	-46.1	17.3	0.00e+00	0	43	0	174063616	58	4919
2026-01-29 11:48:23.93	239.39	13.76	-43.4	-46.1	17.3	0.00e+00	0	43	0	179306496	58	4892
2026-01-29 11:48:26.92	239.91	13.92	-43.0	-45.7	17.7	0.00e+00	0	43	0	185597952	57	4948
2026-01-29 11:48:29.86	240.43	14.07	-42.7	-45.3	18.0	0.00e+00	0	43	0	190840832	57	4757
2026-01-29 11:48:33.16	241.02	14.25	-42.9	-45.5	17.8	0.00e+00	0	43	0	197132288	57	4860
2026-01-29 11:48:35.89	241.52	14.39	-43.0	-45.5	17.8	0.00e+00	0	43	0	202375168	57	4856
2026-01-29 11:48:39.16	242.11	14.56	-43.2	-45.8	17.6	0.00e+00	0	43	0	208666624	57	4996
2026-01-29 11:48:41.99	242.64	14.70	-43.2	-45.8	17.6	0.00e+00	0	43	0	213909504	57	5004
2026-01-29 11:48:45.11	243.22	14.86	-42.9	-45.4	18.0	0.00e+00	0	44	0	219152384	57	4792
2026-01-29 11:48:48.30	243.82	15.02	-43.1	-45.7	17.7	0.00e+00	0	43	0	225443840	57	4956
2026-01-29 11:48:51.33	244.39	15.17	-43.6	-46.3	17.1	0.00e+00	0	44	0	230686720	57	5306
2026-01-29 11:48:54.46	244.99	15.33	-43.5	-46.2	17.3	0.00e+00	0	44	0	236978176	57	5228
2026-01-29 11:48:57.30	245.54	15.46	-43.5	-46.3	17.1	0.00e+00	0	43	0	242221056	57	5283
2026-01-29 11:49:00.43	246.16	15.61	-43.9	-46.8	16.7	0.00e+00	0	43	0	248512512	58	5290
2026-01-29 11:49:03.31	246.72	15.75	-43.8	-46.6	16.9	0.00e+00	0	43	0	253755392	58	5180
2026-01-29 11:49:06.43	247.35	15.89	-43.8	-46.5	16.9	0.00e+00	0	43	0	258998272	58	5132
2026-01-29 11:49:09.27	247.92	16.02	-43.6	-46.5	16.9	0.00e+00	0	43	0	264241152	58	5159
2026-01-29 11:49:12.40	248.55	16.16	-43.6	-46.4	17.1	0.00e+00	0	43	0	270532608	58	5066
2026-01-29 11:49:15.23	249.13	16.28	-44.1	-46.9	16.5	0.00e+00	0	43	0	275775488	58	5388
2026-01-29 11:49:18.38	249.78	16.42	-43.9	-46.8	16.7	0.00e+00	0	44	0	282066944	58	5290
2026-01-29 11:49:21.22	250.37	16.54	-43.8	-46.5	17.0	0.00e+00	0	43	0	287309824	58	5140
2026-01-29 11:49:24.46	251.05	16.68	-44.3	-47.2	16.3	0.00e+00	0	44	0	293601280	59	5270
2026-01-29 11:49:27.30	251.65	16.79	-44.3	-47.2	16.3	0.00e+00	0	43	0	298844160	59	5258
2026-01-29 11:49:30.43	252.31	16.91	-43.9	-46.8	16.7	0.00e+00	0	43	0	304087040	59	5014
2026-01-29 11:49:33.27	252.92	17.02	-44.0	-46.8	16.7	0.00e+00	0	44	0	309329920	59	5019
2026-01-29 11:49:36.61	253.64	17.15	-43.6	-46.2	17.3	0.00e+00	0	44	0	315621376	59	4696
2026-01-29 11:49:39.31	254.23	17.25	-43.9	-46.7	16.8	0.00e+00	0	43	0	320864256	58	5260
2026-01-29 11:49:42.58	254.95	17.37	-43.8	-46.6	16.9	0.00e+00	0	44	0	327155712	58	5213
2026-01-29 11:49:45.58	255.61	17.47	-43.1	-45.7	17.8	0.00e+00	0	44	0	332398592	58	4661
2026-01-29 11:49:48.74	256.31	17.57	-43.0	-45.6	17.9	0.00e+00	0	44	0	338690048	57	4878
2026-01-29 11:49:51.57	256.95	17.67	-43.6	-46.2	17.3	0.00e+00	0	44	0	343932928	57	5261
2026-01-29 11:49:54.70	257.65	17.76	-43.5	-46.1	17.4	0.00e+00	0	44	0	350224384	58	4895
2026-01-29 11:49:57.55	258.30	17.85	-43.4	-46.0	17.6	0.00e+00	0	44	0	355467264	58	4839
2026-01-29 11:50:00.65	259.00	17.94	-42.8	-45.3	18.2	0.00e+00	0	44	0	360710144	57	4714
2026-01-29 11:50:03.49	259.65	18.02	-42.6	-45.0	18.4	0.00e+00	0	44	0	365953024	56	4861
2026-01-29 11:50:06.62	260.37	18.10	-43.2	-45.8	17.7	0.00e+00	0	43	0	372244480	56	5300
2026-01-29 11:50:09.47	261.03	18.17	-43.2	-45.8	17.7	0.00e+00	0	43	0	377487360	57	5000
2026-01-29 11:50:12.60	261.76	18.24	-43.1	-45.7	17.8	0.00e+00	0	43	0	383778816	57	4949
2026-01-29 11:50:15.44	262.42	18.31	-42.7	-45.2	18.2	0.00e+00	0	44	0	389021696	57	4700
2026-01-29 11:50:18.59	263.16	18.37	-42.7	-45.2	18.3	0.00e+00	0	43	0	394264576	57	4698
2026-01-29 11:50:21.58	263.86	18.43	-43.1	-45.6	17.9	0.00e+00	0	43	0	400556032	57	4913
2026-01-29 11:50:24.56	264.56	18.49	-42.7	-45.1	18.3	0.00e+00	0	43	0	405798912	57	4650
2026-01-29 11:50:27.55	265.27	18.54	-43.5	-46.1	17.4	0.00e+00	0	44	0	411041792	57	5170
2026-01-29 11:50:30.53	265.98	18.59	-43.8	-46.5	17.1	0.00e+00	0	44	0	417333248	59	4839
2026-01-29 11:50:33.52	266.69	18.63	-43.4	-46.0	17.5	0.00e+00	0	44	0	422576128	58	4839
2026-01-29 11:50:36.50	267.40	18.67	-44.1	-46.9	16.6	0.00e+00	0	43	0	427819008	58	5364
2026-01-29 11:50:39.49	268.12	18.70	-43.4	-46.1	17.4	0.00e+00	0	44	0	434110464	58	4877
2026-01-29 11:50:42.47	268.83	18.73	-44.0	-46.8	16.8	0.00e+00	0	44	0	439353344	58	5317
2026-01-29 11:50:45.46	269.55	18.76	-44.2	-47.1	16.5	0.00e+00	0	44	0	444596224	59	5206
2026-01-29 11:50:48.45	270.27	18.78	-43.8	-46.6	17.0	0.00e+00	0	44	0	450887680	59	4900
2026-01-29 11:50:51.43	270.98	18.79	-43.8	-46.5	17.0	0.00e+00	0	43	0	456130560	59	4849
2026-01-29 11:50:54.41	271.70	18.81	-43.6	-46.2	17.3	0.00e+00	0	44	0	461373440	59	4692
2026-01-29 11:50:57.40	272.42	18.81	-43.7	-46.3	17.2	0.00e+00	0	44	0	467664896	59	4751
2026-01-29 11:51:00.46	273.16	18.82	-43.5	-46.2	17.3	0.00e+00	0	43	0	472907776	59	4695
2026-01-29 11:51:03.44	273.88	18.82	-43.4	-46.0	17.5	0.00e+00	0	43	0	479199232	58	4841
2026-01-29 11:51:06.43	274.60	18.81	-43.8	-46.5	17.1	0.00e+00	0	43	0	484442112	58	5118
2026-01-29 11:51:09.41	275.32	18.80	-44.0	-46.8	16.8	0.00e+00	0	44	0	489684992	58	5284
2026-01-29 11:51:12.39	276.03	18.79	-44.4	-47.3	16.3	0.00e+00	0	43	0	495976448	59	5298
2026-01-29 11:51:15.30	276.73	18.77	-44.1	-46.9	16.7	0.00e+00	0	44	0	501219328	59	5078
2026-01-29 11:51:18.65	277.54	18.74	-43.3	-45.9	17.7	0.00e+00	0	44	0	507510784	58	4778
2026-01-29 11:51:21.41	278.20	18.72	-43.8	-46.5	17.1	0.00e+00	0	44	0	512753664	58	5119
2026-01-29 11:51:24.72	278.99	18.68	-44.0	-46.8	16.8	0.00e+00	0	44	0	519045120	58	5294
2026-01-29 11:51:27.57	279.67	18.65	-44.2	-47.1	16.5	0.00e+00	0	44	0	524288000	59	5172
2026-01-29 11:51:30.72	280.42	18.60	-44.4	-47.4	16.2	0.00e+00	0	43	0	529530880	59	5357
2026-01-29 11:51:34.12	281.23	18.55	-44.3	-47.3	16.3	0.00e+00	0	44	0	535822336	59	5296
2026-01-29 11:51:36.82	281.87	18.51	-44.0	-46.9	16.7	0.00e+00	0	44	0	541065216	59	5043
2026-01-29 11:51:40.09	282.64	18.45	-43.7	-46.5	17.1	0.00e+00	0	44	0	547356672	59	4823
2026-01-29 11:51:43.09	283.34	18.39	-43.1	-45.5	18.0	0.00e+00	0	44	0	553648128	58	4585
2026-01-29 11:51:46.20	284.07	18.33	-43.0	-45.5	18.1	0.00e+00	0	43	0	558891008	57	4837
2026-01-29 11:51:49.04	284.73	18.26	-43.6	-46.3	17.3	0.00e+00	0	44	0	564133888	57	5298
2026-01-29 11:51:52.17	285.46	18.19	-44.0	-46.8	16.8	0.00e+00	0	44	0	570425344	58	5294
2026-01-29 11:51:55.01	286.11	18.12	-44.0	-46.8	16.8	0.00e+00	0	44	0	575668224	58	5303
2026-01-29 11:51:58.14	286.83	18.04	-43.7	-46.3	17.3	0.00e+00	0	44	0	580911104	58	5039
2026-01-29 11:52:00.98	287.48	17.96	-43.3	-45.9	17.6	0.00e+00	0	44	0	586153984	58	4792
2026-01-29 11:52:04.10	288.19	17.87	-43.7	-46.4	17.2	0.00e+00	0	44	0	592445440	58	5045
2026-01-29 11:52:07.21	288.89	17.78	-43.8	-46.6	17.0	0.00e+00	0	44	0	598736896	58	5187
2026-01-29 11:52:10.06	289.53	17.70	-43.5	-46.2	17.4	0.00e+00	0	44	0	603979776	58	4930
2026-01-29 11:52:13.18	290.23	17.60	-43.4	-46.0	17.6	0.00e+00	0	44	0	609222656	58	4837
2026-01-29 11:52:16.02	290.86	17.50	-43.3	-45.8	17.7	0.00e+00	0	43	0	614465536	58	4752
2026-01-29 11:52:19.15	291.55	17.40	-43.0	-45.4	18.0	0.00e+00	0	44	0	620756992	58	4543
2026-01-29 11:52:22.10	292.19	17.29	-42.8	-45.3	18.2	0.00e+00	0	44	0	625999872	57	4706
2026-01-29 11:52:25.32	292.89	17.18	-42.9	-45.4	18.1	0.00e+00	0	44	0	632291328	57	4766
2026-01-29 11:52:28.28	293.53	17.07	-43.0	-45.5	18.0	0.00e+00	0	43	0	637534208	57	4831
2026-01-29 11:52:31.45	294.21	16.94	-43.1	-45.6	17.9	0.00e+00	0	44	0	643825664	57	4892
2026-01-29 11:52:34.29	294.81	16.83	-43.2	-45.7	17.8	0.00e+00	0	44	0	649068544	57	4968
2026-01-29 11:52:37.42	295.47	16.71	-43.0	-45.4	18.0	0.00e+00	0	44	0	655360000	57	4809
2026-01-29 11:52:40.28	296.07	16.59	-43.2	-45.8	17.7	0.00e+00	0	44	0	660602880	57	5030
2026-01-29 11:52:43.83	296.80	16.44	-43.2	-45.8	17.7	0.00e+00	0	44	0	666894336	57	4984
2026-01-29 11:52:46.53	297.36	16.33	-42.8	-45.3	18.1	0.00e+00	0	44	0	672137216	57	4734
2026-01-29 11:52:49.80	298.03	16.19	-43.1	-45.6	17.9	0.00e+00	0	44	0	678428672	57	4879
2026-01-29 11:52:52.53	298.58	16.06	-43.3	-45.9	17.6	0.00e+00	0	44	0	683671552	57	5054
2026-01-29 11:52:55.77	299.23	15.92	-43.0	-45.5	18.0	0.00e+00	0	43	0	688914432	57	4829
2026-01-29 11:52:58.77	299.82	15.78	-43.4	-46.1	17.4	0.00e+00	0	44	0	695205888	57	5161
2026-01-29 11:53:01.75	300.41	15.64	-44.4	-47.3	16.2	0.00e+00	0	44	0	700448768	59	5332
2026-01-29 11:53:04.73	300.99	15.50	-43.9	-46.7	16.8	0.00e+00	0	44	0	705691648	59	4967
2026-01-29 11:53:07.84	301.59	15.35	-43.5	-46.2	17.3	0.00e+00	0	44	0	711983104	58	4954
2026-01-29 11:53:10.69	302.13	15.22	-43.3	-45.9	17.6	0.00e+00	0	44	0	717225984	58	4793
2026-01-29 11:53:13.81	302.72	15.06	-43.5	-46.1	17.3	0.00e+00	0	44	0	723517440	58	4924
2026-01-29 11:53:16.65	303.26	14.92	-43.6	-46.3	17.1	0.00e+00	0	44	0	728760320	58	5035
2026-01-29 11:53:19.78	303.84	14.77	-44.5	-47.6	15.8	0.00e+00	0	44	0	734003200	59	5499
2026-01-29 11:53:22.62	304.36	14.62	-45.0	-48.3	15.3	0.00e+00	0	44	0	739246080	60	5620
2026-01-29 11:53:25.75	304.93	14.46	-44.6	-47.7	15.8	0.00e+00	0	44	0	745537536	60	5266
2026-01-29 11:53:28.59	305.44	14.32	-44.4	-47.3	16.2	0.00e+00	0	44	0	750780416	60	5036
2026-01-29 11:53:31.92	306.03	14.14	-44.3	-47.3	16.2	0.00e+00	0	44	0	757071872	60	5004
2026-01-29 11:53:34.66	306.52	14.00	-44.0	-46.8	16.6	0.00e+00	0	44	0	762314752	59	5040
2026-01-29 11:53:38.25	307.14	13.81	-44.1	-47.0	16.5	0.00e+00	0	44	0	768606208	59	5137
2026-01-29 11:53:41.09	307.64	13.66	-44.4	-47.3	16.1	0.00e+00	0	44	0	774897664	59	5336
2026-01-29 11:53:44.29	308.18	13.49	-44.5	-47.5	16.0	0.00e+00	0	44	0	780140544	59	5410
2026-01-29 11:53:47.13	308.66	13.33	-44.4	-47.5	16.0	0.00e+00	0	44	0	785383424	59	5427
2026-01-29 11:53:50.26	309.18	13.17	-44.5	-47.6	15.8	0.00e+00	0	44	0	791674880	59	5518
2026-01-29 11:53:53.10	309.65	13.01	-44.3	-47.3	16.1	0.00e+00	0	44	0	796917760	59	5315
2026-01-29 11:53:56.23	310.17	12.84	-44.2	-47.3	16.1	0.00e+00	0	44	0	803209216	59	5293
2026-01-29 11:53:59.07	310.63	12.68	-44.4	-47.4	16.0	0.00e+00	0	44	0	808452096	59	5396
2026-01-29 11:54:02.20	311.13	12.51	-44.2	-47.3	16.1	0.00e+00	0	44	0	813694976	59	5289
2026-01-29 11:54:05.04	311.58	12.35	-43.7	-46.6	16.8	0.00e+00	0	44	0	818937856	59	4919
2026-01-29 11:54:08.31	312.09	12.17	-43.6	-46.4	17.0	0.00e+00	0	44	0	825229312	58	5096
2026-01-29 11:54:11.22	312.54	12.01	-43.7	-46.5	16.8	0.00e+00	0	44	0	830472192	58	5156
2026-01-29 11:54:15.20	313.15	11.79	-43.7	-46.5	16.9	0.00e+00	0	44	0	837812224	58	5105
2026-01-29 11:54:18.04	313.58	11.63	-43.4	-46.1	17.2	0.00e+00	0	44	0	844103680	58	4910
2026-01-29 11:54:22.02	314.17	11.40	-43.7	-46.5	16.9	0.00e+00	0	44	0	851443712	58	5105
2026-01-29 11:54:24.87	314.59	11.24	-43.8	-46.6	16.8	0.00e+00	0	44	0	856686592	58	5170
2026-01-29 11:54:28.92	315.18	11.01	-43.4	-46.1	17.2	0.00e+00	0	44	0	864026624	58	4900
2026-01-29 11:54:31.77	315.59	10.85	-43.0	-45.6	17.7	0.00e+00	0	44	0	869269504	58	4632
2026-01-29 11:54:35.75	316.15	10.63	-43.5	-46.3	17.1	0.00e+00	0	44	0	876609536	57	5305
2026-01-29 11:54:38.53	316.54	10.47	-43.4	-46.2	17.1	0.00e+00	0	44	0	881852416	57	5255
2026-01-29 11:54:41.81	316.99	10.28	-43.6	-46.5	16.8	0.00e+00	0	44	0	888143872	58	5119
2026-01-29 11:54:44.81	317.40	10.11	-43.7	-46.6	16.8	0.00e+00	0	44	0	893386752	58	5167
2026-01-29 11:54:47.80	317.81	9.94	-44.1	-47.1	16.3	0.00e+00	0	44	0	899678208	58	5473
2026-01-29 11:54:50.78	318.21	9.77	-44.1	-47.1	16.2	0.00e+00	0	44	0	904921088	59	5191
2026-01-29 11:54:53.86	318.61	9.60	-43.7	-46.6	16.7	0.00e+00	0	44	0	911212544	59	4900
2026-01-29 11:54:56.78	318.99	9.43	-43.3	-46.2	17.1	0.00e+00	0	44	0	916455424	58	4960
2026-01-29 11:55:00.07	319.42	9.24	-43.2	-46.2	17.1	0.00e+00	0	44	0	922746880	58	4960
2026-01-29 11:55:02.78	319.76	9.09	-43.6	-47.0	16.3	0.00e+00	0	44	0	927989760	58	5414
2026-01-29 11:55:06.00	320.17	8.91	-48.7	-64.4	3.8	1.49e+00	0	44	104	932184064	68	22726
2026-01-29 11:55:08.84	320.52	8.75	-48.9	-64.5	3.8	1.49e+00	0	44	104	932184064	69	21585
2026-01-29 11:55:11.96	320.91	8.57	-49.3	-64.6	3.8	1.49e+00	0	44	104	932184064	69	21766
2026-01-29 11:55:14.80	321.26	8.41	-49.4	-64.6	3.8	1.49e+00	0	44	104	932184064	69	21862
2026-01-29 11:55:17.92	321.63	8.23	-49.3	-64.6	3.8	1.49e+00	0	44	104	932184064	69	21889
2026-01-29 11:55:20.76	321.97	8.07	-49.3	-64.7	3.8	1.49e+00	0	44	104	932184064	69	22081
2026-01-29 11:55:23.88	322.34	7.89	-49.3	-64.6	3.8	1.49e+00	0	44	104	932184064	69	21939
2026-01-29 11:55:26.72	322.67	7.73	-49.3	-64.6	3.8	1.49e+00	0	44	104	932184064	69	21933
2026-01-29 11:55:29.84	323.03	7.56	-49.3	-64.6	3.8	1.49e+00	0	44	104	932184064	69	21947
2026-01-29 11:55:32.68	323.35	7.40	-49.3	-64.7	3.8	1.49e+00	0	44	104	932184064	69	22060
2026-01-29 11:55:35.81	323.71	7.22	-49.3	-64.6	3.8	1.49e+00	0	44	104	932184064	69	21996
2026-01-29 11:55:38.65	324.02	7.06	-49.3	-64.6	3.8	1.49e+00	0	44	104	932184064	69	21944
2026-01-29 11:55:41.77	324.37	6.89	-49.3	-64.6	3.8	1.49e+00	0	44	104	932184064	69	21890
2026-01-29 11:55:44.60	324.68	6.73	-49.3	-64.7	3.8	1.49e+00	0	44	104	932184064	69	22009
2026-01-29 11:55:47.73	325.02	6.56	-49.3	-64.6	3.8	1.49e+00	0	44	104	932184064	69	21936
2026-01-29 11:55:50.56	325.32	6.40	-49.3	-64.6	3.8	1.49e+00	0	44	104	932184064	69	21957
2026-01-29 11:55:53.69	325.65	6.23	-49.3	-64.6	3.8	1.49e+00	0	44	104	932184064	69	21913
2026-01-29 11:55:56.53	325.95	6.07	-49.3	-64.6	3.8	1.49e+00	0	44	104	932184064	69	21865
2026-01-29 11:55:59.65	326.27	5.90	-49.3	-64.6	3.8	1.49e+00	0	44	104	932184064	69	21981
2026-01-29 11:56:02.49	326.56	5.74	-49.3	-64.6	3.8	1.49e+00	0	44	104	932184064	69	21999
2026-01-29 11:56:05.61	326.88	5.57	-49.3	-64.6	3.8	1.49e+00	0	44	104	932184064	69	21855
2026-01-29 11:56:08.45	327.16	5.41	-49.3	-64.6	3.8	1.49e+00	0	44	104	932184064	69	21808
2026-01-29 11:56:11.57	327.47	5.24	-49.3	-64.6	3.8	1.49e+00	0	44	104	932184064	69	21937
2026-01-29 11:56:14.41	327.75	5.09	-49.3	-64.6	3.8	1.49e+00	0	44	104	932184064	69	21917

#Closed at: 2026-01-29 11:56:17
#Recorded file [932 MB]: D:/Data/31040_260129_144548.dat