passes_logs/2026/01/29/T1/T1__20260129_142239_FENGYUN_3E_rec.log

#Pass ID: 20260129_142239_FENGYUN 3E
#Satellite: FENGYUN 3E
#Configuration: FENGYUN 3E
#almurnet v.1.7.20251203
#Start time: 2026-01-29 14:22:39

#Version: 2.0.20230620
#Station: T1
#Location: 37.570604 lon 55.790049 lat
#TLE: 1 49008U 21062A   26028.95833242 -.00000015  00000+0  13843-4 0  9995
#TLE: 2 49008  98.7500  33.9242 0002547 112.2873 247.8573 14.19887818236829

#Time	Az	El	Level	Level2	SNR	BER	BlckErr	Temp	State	Recorded	gain1	gain2
2026-01-29 14:22:39.46	165.48	5.01	-50.0	-61.1	3.8	8.46e-01	0	37	0	0	70	12836
2026-01-29 14:22:43.44	165.53	5.29	-50.4	-61.1	3.8	8.47e-01	0	37	104	0	70	12876
2026-01-29 14:22:47.41	165.57	5.58	-50.2	-61.1	3.8	8.46e-01	0	37	104	0	70	12813
2026-01-29 14:22:51.40	165.61	5.88	-50.3	-61.0	3.8	8.48e-01	0	37	104	0	70	12754
2026-01-29 14:22:55.39	165.66	6.17	-50.0	-60.9	3.8	8.47e-01	0	38	104	0	70	12591
2026-01-29 14:22:59.38	165.71	6.47	-49.7	-60.8	3.8	8.46e-01	0	38	104	0	69	13196
2026-01-29 14:23:03.36	165.75	6.78	-49.3	-60.3	3.8	8.47e-01	0	38	104	0	69	12451
2026-01-29 14:23:07.34	165.80	7.09	-48.4	-58.6	3.8	8.45e-01	0	38	104	0	66	12162
2026-01-29 14:23:11.33	165.85	7.40	-48.1	-56.7	4.2	8.41e-01	0	38	0	0	66	9724
2026-01-29 14:23:15.31	165.90	7.71	-46.7	-51.8	7.1	1.64e-01	0	38	0	9437184	64	6238
2026-01-29 14:23:19.29	165.95	8.03	-44.7	-47.8	11.2	1.56e-03	0	38	0	37748736	60	4979
2026-01-29 14:23:23.27	166.00	8.35	-43.9	-46.5	12.6	1.27e-04	0	38	0	67108864	58	4793
2026-01-29 14:23:27.26	166.05	8.68	-45.3	-48.8	10.2	3.43e-02	0	39	0	95420416	60	5588
2026-01-29 14:23:31.25	166.10	9.01	-47.9	-55.7	4.5	7.90e-01	0	39	0	118489088	65	9230
2026-01-29 14:23:35.23	166.16	9.35	-48.4	-59.1	3.8	8.47e-01	0	39	104	131072000	66	12846
2026-01-29 14:23:39.21	166.21	9.69	-39.6	-41.6	17.3	0.00e+00	0	39	0	152043520	50	4302
2026-01-29 14:23:43.19	166.27	10.03	-38.6	-40.5	18.1	0.00e+00	0	39	0	181403648	47	4498
2026-01-29 14:23:47.17	166.32	10.38	-37.8	-39.5	17.8	0.00e+00	0	39	0	209715200	46	4270
2026-01-29 14:23:51.15	166.38	10.74	-37.8	-39.3	19.2	0.00e+00	0	39	0	239075328	46	4185
2026-01-29 14:23:55.13	166.44	11.10	-37.6	-39.1	19.4	0.00e+00	0	39	0	267386880	46	4094
2026-01-29 14:23:59.12	166.50	11.47	-37.4	-38.9	19.6	0.00e+00	0	39	0	296747008	45	4208
2026-01-29 14:24:03.11	166.56	11.84	-37.4	-38.9	19.6	0.00e+00	0	39	0	325058560	45	4237
2026-01-29 14:24:07.08	166.62	12.21	-37.3	-38.7	19.8	0.00e+00	0	39	0	353370112	45	4128
2026-01-29 14:24:11.07	166.69	12.60	-37.4	-38.9	19.6	0.00e+00	0	39	0	382730240	45	4208
2026-01-29 14:24:15.06	166.75	12.99	-37.2	-38.6	19.9	0.00e+00	0	39	0	411041792	44	4334
2026-01-29 14:24:19.04	166.82	13.38	-37.0	-38.4	20.1	0.00e+00	0	39	0	440401920	44	4214
2026-01-29 14:24:23.02	166.89	13.78	-36.8	-38.2	20.3	0.00e+00	0	39	0	468713472	44	4099
2026-01-29 14:24:26.99	166.96	14.19	-36.7	-38.1	20.5	0.00e+00	0	39	0	497025024	44	4054
2026-01-29 14:24:30.98	167.03	14.61	-36.5	-37.8	20.5	0.00e+00	0	39	0	526385152	43	4185
2026-01-29 14:24:34.96	167.10	15.03	-36.7	-38.1	20.3	0.00e+00	0	39	0	554696704	43	4326
2026-01-29 14:24:38.95	167.18	15.46	-36.7	-38.1	20.3	0.00e+00	0	40	0	584056832	43	4294
2026-01-29 14:24:42.93	167.25	15.90	-37.0	-38.3	20.1	0.00e+00	0	39	0	612368384	43	4440
2026-01-29 14:24:46.91	167.33	16.35	-36.7	-38.1	20.3	0.00e+00	0	40	0	640679936	43	4306
2026-01-29 14:24:50.89	167.41	16.80	-36.4	-37.7	20.6	0.00e+00	0	39	0	670040064	43	4145
2026-01-29 14:24:54.88	167.50	17.26	-36.2	-37.6	20.7	0.00e+00	0	39	0	699400192	43	4061
2026-01-29 14:24:58.87	167.58	17.74	-36.3	-37.7	20.6	0.00e+00	0	40	0	727711744	42	4363
2026-01-29 14:25:02.85	167.67	18.22	-36.2	-37.6	20.7	0.00e+00	0	39	0	756023296	42	4331
2026-01-29 14:25:06.83	167.76	18.71	-36.0	-37.3	20.9	0.00e+00	0	40	0	785383424	42	4189
2026-01-29 14:25:10.81	167.85	19.21	-35.7	-37.0	21.2	0.00e+00	0	39	0	813694976	42	4039
2026-01-29 14:25:14.78	167.95	19.72	-35.6	-36.9	21.2	0.00e+00	0	39	0	843055104	41	4217
2026-01-29 14:25:18.77	168.05	20.24	-35.5	-36.8	21.3	0.00e+00	0	40	0	871366656	41	4151
2026-01-29 14:25:22.75	168.15	20.77	-35.5	-36.8	21.3	0.00e+00	0	39	0	899678208	41	4157
2026-01-29 14:25:26.71	168.25	21.31	-35.4	-36.7	21.3	0.00e+00	0	39	0	927989760	41	4145
2026-01-29 14:25:30.70	168.36	21.87	-35.4	-36.8	21.3	0.00e+00	0	39	0	957349888	41	4156
2026-01-29 14:25:34.68	168.47	22.44	-35.4	-36.8	21.3	0.00e+00	0	39	0	986710016	41	4150
2026-01-29 14:25:38.66	168.59	23.02	-35.5	-36.9	21.1	0.00e+00	0	40	0	1015021568	41	4231
2026-01-29 14:25:42.64	168.71	23.61	-35.1	-36.5	21.4	0.00e+00	0	40	0	1043333120	41	4036
2026-01-29 14:25:46.63	168.83	24.22	-34.9	-36.3	21.6	0.00e+00	0	40	0	1072693248	40	4164
2026-01-29 14:25:50.62	168.96	24.85	-34.8	-36.2	21.7	0.00e+00	0	40	0	1101004800	40	4119
2026-01-29 14:25:54.61	169.09	25.49	-34.7	-36.1	21.8	0.00e+00	0	39	0	1130364928	40	4059
2026-01-29 14:25:58.60	169.23	26.14	-34.7	-36.0	22.0	0.00e+00	0	40	0	1158676480	39	4288
2026-01-29 14:26:02.58	169.37	26.81	-34.6	-35.9	22.1	0.00e+00	0	40	0	1188036608	39	4240
2026-01-29 14:26:06.56	169.52	27.50	-34.7	-36.0	22.1	0.00e+00	0	40	0	1216348160	39	4259
2026-01-29 14:26:10.54	169.67	28.20	-34.8	-36.0	22.1	0.00e+00	0	39	0	1244659712	39	4291
2026-01-29 14:26:14.53	169.83	28.93	-34.6	-35.8	22.2	0.00e+00	0	40	0	1274019840	39	4175
2026-01-29 14:26:18.50	170.00	29.66	-34.9	-36.2	22.0	0.00e+00	0	40	0	1302331392	39	4352
2026-01-29 14:26:22.48	170.18	30.42	-34.5	-35.8	22.3	0.00e+00	0	39	0	1331691520	39	4167
2026-01-29 14:26:26.46	170.36	31.20	-34.4	-35.7	22.1	0.00e+00	0	40	0	1360003072	39	4142
2026-01-29 14:26:30.45	170.55	32.01	-34.6	-35.9	21.9	0.00e+00	0	40	0	1388314624	39	4238
2026-01-29 14:26:34.43	170.75	32.83	-34.6	-36.0	21.8	0.00e+00	0	40	0	1417674752	39	4271
2026-01-29 14:26:38.42	170.96	33.68	-34.5	-35.9	21.9	0.00e+00	0	40	0	1445986304	39	4221
2026-01-29 14:26:50.53	171.67	36.41	-34.3	-35.6	22.6	0.00e+00	0	40	0	1534066688	39	4053
2026-01-29 14:26:54.51	171.93	37.35	-34.6	-35.9	22.2	0.00e+00	0	40	0	1562378240	39	4228
2026-01-29 14:26:58.49	172.20	38.33	-34.8	-36.1	22.0	0.00e+00	0	39	0	1590689792	39	4329
2026-01-29 14:27:02.46	172.49	39.33	-34.6	-36.0	22.1	0.00e+00	0	40	0	1620049920	39	4260
2026-01-29 14:27:06.44	172.80	40.36	-34.7	-36.1	22.0	0.00e+00	0	40	0	1648361472	39	4296
2026-01-29 14:27:10.42	173.13	41.42	-34.7	-36.0	22.1	0.00e+00	0	39	0	1677721600	39	4277
2026-01-29 14:27:14.40	173.48	42.51	-34.7	-35.9	22.3	0.00e+00	0	40	0	1706033152	39	4238
2026-01-29 14:27:18.38	173.85	43.64	-35.0	-36.3	21.9	0.00e+00	0	40	0	1734344704	39	4418
2026-01-29 14:27:22.36	174.25	44.80	-35.4	-36.3	22.7	0.00e+00	0	40	0	1763704832	40	4152
2026-01-29 14:27:26.34	174.68	45.99	-35.6	-36.5	22.5	0.00e+00	0	40	0	1792016384	41	4022
2026-01-29 14:27:30.33	175.15	47.21	-36.0	-36.9	22.1	0.00e+00	0	40	0	1821376512	41	4211
2026-01-29 14:27:34.31	175.65	48.47	-36.5	-37.4	21.7	0.00e+00	0	40	0	1849688064	42	4221
2026-01-29 14:27:38.29	176.19	49.76	-36.5	-37.4	21.6	0.00e+00	0	40	0	1877999616	42	4236
2026-01-29 14:27:42.27	176.78	51.09	-36.3	-37.2	21.8	0.00e+00	0	40	0	1907359744	43	3895
2026-01-29 14:27:46.25	177.42	52.46	-36.8	-37.7	21.4	0.00e+00	0	40	0	1935671296	43	4119
2026-01-29 14:27:50.24	178.13	53.86	-36.5	-37.4	21.7	0.00e+00	0	40	0	1965031424	43	3970
2026-01-29 14:27:54.21	178.91	55.29	-37.0	-37.9	21.2	0.00e+00	0	40	0	1993342976	43	4239
2026-01-29 14:27:58.19	179.77	56.75	-36.2	-37.1	21.9	0.00e+00	0	40	0	2021654528	43	3837
2026-01-29 14:28:02.18	180.72	58.26	-37.0	-37.9	21.4	0.00e+00	0	40	0	2051014656	44	3961
2026-01-29 14:28:06.16	181.79	59.79	-36.4	-37.2	21.9	0.00e+00	0	40	0	2080374784	42	4144
2026-01-29 14:28:10.14	182.99	61.34	-36.4	-37.3	21.8	0.00e+00	0	40	0	2108686336	42	4160
2026-01-29 14:28:14.14	184.36	62.94	-35.8	-36.7	22.4	0.00e+00	0	39	0	2136997888	42	3869
2026-01-29 14:28:18.12	185.92	64.54	-35.2	-36.1	22.9	0.00e+00	0	40	0	2166358016	41	3827
2026-01-29 14:28:22.11	187.71	66.16	-34.9	-35.8	23.2	0.00e+00	0	40	0	2194669568	39	4148
2026-01-29 14:28:26.09	189.79	67.79	-35.0	-35.9	23.1	0.00e+00	0	40	0	2224029696	39	4214
2026-01-29 14:28:30.07	192.23	69.42	-35.2	-36.0	23.0	0.00e+00	0	40	0	2252341248	39	4262
2026-01-29 14:28:34.05	195.11	71.04	-35.2	-36.0	22.9	0.00e+00	0	40	0	2280652800	41	3816
2026-01-29 14:28:38.02	198.55	72.62	-35.1	-36.0	22.9	0.00e+00	0	40	0	2310012928	40	4007
2026-01-29 14:28:42.00	202.72	74.15	-34.6	-35.4	23.4	0.00e+00	0	40	0	2338324480	39	4002
2026-01-29 14:28:45.99	207.80	75.62	-33.8	-34.6	24.2	0.00e+00	0	40	0	2367684608	38	3837
2026-01-29 14:28:49.97	214.00	76.95	-33.8	-34.6	24.2	0.00e+00	0	40	0	2395996160	38	3841
2026-01-29 14:28:53.95	221.56	78.12	-34.1	-34.9	24.0	0.00e+00	0	40	0	2424307712	38	3978
2026-01-29 14:28:57.93	230.62	79.05	-33.6	-34.4	24.4	0.00e+00	0	40	0	2453667840	37	3981
2026-01-29 14:29:01.91	241.08	79.68	-33.6	-34.4	24.4	0.00e+00	0	40	0	2481979392	37	3966
2026-01-29 14:29:05.89	252.47	79.93	-34.0	-34.8	24.0	0.00e+00	0	40	0	2511339520	37	4171
2026-01-29 14:29:09.86	263.96	79.78	-33.8	-34.6	24.1	0.00e+00	0	40	0	2539651072	37	4092
2026-01-29 14:29:13.84	274.72	79.25	-33.6	-34.4	24.3	0.00e+00	0	39	0	2567962624	37	3978
2026-01-29 14:29:17.82	284.16	78.39	-33.7	-34.5	24.2	0.00e+00	0	40	0	2597322752	37	4028
2026-01-29 14:29:21.81	292.11	77.27	-33.6	-34.4	24.3	0.00e+00	0	39	0	2625634304	37	3992
2026-01-29 14:29:25.79	298.63	75.98	-34.0	-34.8	24.0	0.00e+00	0	40	0	2654994432	37	4172
2026-01-29 14:29:29.77	303.97	74.55	-34.7	-35.6	23.2	0.00e+00	0	40	0	2683305984	38	4301
2026-01-29 14:29:33.75	308.35	73.03	-34.7	-35.5	23.4	0.00e+00	0	40	0	2711617536	39	4039
2026-01-29 14:29:37.73	311.96	71.46	-35.4	-36.3	22.6	0.00e+00	0	40	0	2740977664	40	4153
2026-01-29 14:29:41.71	314.98	69.85	-35.9	-36.8	22.2	0.00e+00	0	40	0	2769289216	41	4165
2026-01-29 14:29:45.68	317.51	68.23	-35.1	-35.9	22.9	0.00e+00	0	40	0	2798649344	41	3766
2026-01-29 14:29:49.66	319.68	66.61	-35.1	-35.9	23.0	0.00e+00	0	40	0	2826960896	40	4001
2026-01-29 14:29:53.63	321.53	64.99	-35.1	-35.9	23.0	0.00e+00	0	40	0	2855272448	40	3994
2026-01-29 14:29:57.61	323.15	63.39	-35.5	-36.4	22.6	0.00e+00	0	40	0	2883584000	40	4199
2026-01-29 14:30:01.60	324.56	61.80	-36.3	-37.2	21.8	0.00e+00	0	40	0	2912944128	41	4345
2026-01-29 14:30:05.58	325.80	60.24	-36.3	-37.2	21.9	0.00e+00	0	40	0	2942304256	42	4109
2026-01-29 14:30:09.57	326.91	58.70	-36.2	-37.1	21.8	0.00e+00	0	40	0	2970615808	42	4081
2026-01-29 14:30:13.56	327.89	57.19	-36.9	-37.9	21.0	0.00e+00	0	40	0	2999975936	43	4205
2026-01-29 14:30:17.56	328.78	55.71	-36.5	-37.4	21.5	0.00e+00	0	40	0	3028287488	43	4004
2026-01-29 14:30:21.55	329.58	54.27	-36.7	-37.7	21.4	0.00e+00	0	40	0	3056599040	43	4101
2026-01-29 14:30:25.55	330.31	52.86	-36.6	-37.5	21.6	0.00e+00	0	40	0	3085959168	43	4019
2026-01-29 14:30:29.54	330.97	51.49	-36.3	-37.2	21.8	0.00e+00	0	40	0	3114270720	43	3871
2026-01-29 14:30:33.54	331.57	50.15	-36.7	-37.6	21.4	0.00e+00	0	40	0	3143630848	43	4091
2026-01-29 14:30:37.54	332.13	48.85	-36.3	-37.2	21.7	0.00e+00	0	40	0	3171942400	43	3897
2026-01-29 14:30:41.53	332.64	47.58	-35.7	-36.5	22.5	0.00e+00	0	40	0	3201302528	42	3807
2026-01-29 14:30:45.52	333.12	46.35	-35.5	-36.3	22.6	0.00e+00	0	40	0	3230662656	41	3949
2026-01-29 14:30:49.50	333.55	45.16	-34.9	-35.8	23.1	0.00e+00	0	40	0	3258974208	40	3916
2026-01-29 14:30:53.49	333.96	44.00	-34.7	-35.5	23.3	0.00e+00	0	40	0	3287285760	40	3801
2026-01-29 14:30:57.49	334.35	42.86	-35.0	-35.8	23.0	0.00e+00	0	40	0	3316645888	40	3956
2026-01-29 14:31:01.47	334.70	41.77	-35.0	-35.8	23.0	0.00e+00	0	40	0	3344957440	40	3955
2026-01-29 14:31:05.46	335.04	40.70	-35.6	-36.5	22.5	0.00e+00	0	40	0	3374317568	40	4276
2026-01-29 14:31:09.44	335.35	39.66	-35.7	-36.6	22.3	0.00e+00	0	40	0	3402629120	41	4081
2026-01-29 14:31:13.44	335.65	38.65	-34.9	-35.7	23.1	0.00e+00	0	40	0	3431989248	40	3907
2026-01-29 14:31:17.43	335.93	37.67	-34.7	-35.5	23.4	0.00e+00	0	40	0	3460300800	39	4040
2026-01-29 14:31:21.42	336.19	36.72	-35.0	-35.9	23.1	0.00e+00	0	40	0	3489660928	39	4203
2026-01-29 14:31:25.41	336.45	35.79	-35.0	-35.8	23.1	0.00e+00	0	40	0	3517972480	39	4185
2026-01-29 14:31:29.40	336.68	34.89	-34.8	-35.6	23.0	0.00e+00	0	40	0	3546284032	39	4095
2026-01-29 14:31:33.41	336.91	34.01	-34.7	-35.5	23.3	0.00e+00	0	40	0	3575644160	39	4040
2026-01-29 14:31:37.41	337.13	33.16	-34.8	-35.6	23.3	0.00e+00	0	40	0	3603955712	39	4094
2026-01-29 14:31:41.41	337.33	32.33	-34.9	-35.8	23.1	0.00e+00	0	40	0	3633315840	39	4156
2026-01-29 14:31:45.42	337.53	31.52	-34.9	-35.8	23.1	0.00e+00	0	40	0	3662675968	39	4172
2026-01-29 14:31:49.42	337.72	30.73	-35.0	-35.9	23.1	0.00e+00	0	40	0	3690987520	39	4194
2026-01-29 14:31:53.43	337.90	29.96	-35.1	-36.0	22.9	0.00e+00	0	40	0	3720347648	39	4260
2026-01-29 14:31:57.44	338.07	29.22	-35.3	-36.1	22.7	0.00e+00	0	40	0	3748659200	40	4090
2026-01-29 14:32:01.44	338.23	28.49	-35.3	-36.2	22.7	0.00e+00	0	40	0	3778019328	40	4113
2026-01-29 14:32:05.44	338.39	27.78	-35.2	-36.1	22.8	0.00e+00	0	40	0	3807379456	40	4076
2026-01-29 14:32:09.44	338.54	27.09	-35.4	-36.3	22.5	0.00e+00	0	40	0	3835691008	40	4151
2026-01-29 14:32:13.45	338.69	26.41	-35.3	-36.2	22.7	0.00e+00	0	40	0	3865051136	40	4109
2026-01-29 14:32:17.45	338.83	25.76	-35.2	-36.0	22.6	0.00e+00	0	40	0	3893362688	40	4045
2026-01-29 14:32:21.46	338.97	25.11	-35.2	-36.1	22.7	0.00e+00	0	40	0	3922722816	40	4061
2026-01-29 14:32:25.46	339.10	24.49	-35.3	-36.1	22.6	0.00e+00	0	40	0	3952082944	40	4078
2026-01-29 14:32:29.47	339.23	23.87	-35.3	-36.2	22.7	0.00e+00	0	40	0	3980394496	40	4108
2026-01-29 14:32:33.47	339.35	23.28	-35.3	-36.1	22.7	0.00e+00	0	40	0	4009754624	40	4087
2026-01-29 14:32:37.47	339.47	22.69	-35.3	-36.1	22.6	0.00e+00	0	40	0	4038066176	40	4097
2026-01-29 14:32:41.48	339.59	22.12	-35.4	-36.2	22.5	0.00e+00	0	40	0	4067426304	40	4141
2026-01-29 14:32:45.48	339.70	21.56	-35.4	-36.3	22.5	0.00e+00	0	40	0	4095737856	40	4178
2026-01-29 14:32:49.49	339.81	21.01	-35.7	-36.5	22.3	0.00e+00	0	40	0	4125097984	40	4284
2026-01-29 14:32:53.49	339.91	20.48	-35.8	-36.7	22.2	0.00e+00	0	40	0	4153409536	41	4104
2026-01-29 14:32:57.50	340.01	19.95	-36.0	-36.9	22.0	0.00e+00	0	40	0	4182769664	41	4209
2026-01-29 14:33:01.51	340.11	19.44	-36.0	-36.9	22.0	0.00e+00	0	40	0	4212129792	41	4227
2026-01-29 14:33:05.51	340.21	18.93	-36.1	-37.0	21.8	0.00e+00	0	40	0	4240441344	41	4271
2026-01-29 14:33:09.52	340.30	18.44	-36.2	-37.1	21.8	0.00e+00	0	40	0	4269801472	41	4315
2026-01-29 14:33:13.53	340.39	17.95	-36.1	-37.0	21.9	0.00e+00	0	40	0	4298113024	41	4253
2026-01-29 14:33:17.53	340.48	17.48	-36.3	-37.2	21.7	0.00e+00	0	40	0	4327473152	42	4133
2026-01-29 14:33:21.53	340.57	17.02	-36.4	-37.3	21.6	0.00e+00	0	40	0	4355784704	42	4162
2026-01-29 14:33:25.53	340.66	16.56	-36.5	-37.4	21.4	0.00e+00	0	40	0	4385144832	42	4241
2026-01-29 14:33:29.54	340.74	16.11	-36.6	-37.6	21.3	0.00e+00	0	40	0	4414504960	42	4313
2026-01-29 14:33:33.54	340.82	15.67	-36.7	-37.7	21.2	0.00e+00	0	40	0	4442816512	42	4361
2026-01-29 14:33:37.55	340.90	15.24	-37.0	-38.0	20.9	0.00e+00	0	40	0	4472176640	43	4283
2026-01-29 14:33:41.56	340.98	14.81	-37.1	-38.0	20.8	0.00e+00	0	40	0	4500488192	43	4291
2026-01-29 14:33:45.57	341.05	14.40	-37.4	-38.4	20.6	0.00e+00	0	40	0	4529848320	44	4215
2026-01-29 14:33:49.57	341.13	13.99	-37.6	-38.6	20.5	0.00e+00	0	40	0	4559208448	44	4315
2026-01-29 14:33:53.57	341.20	13.58	-37.6	-38.7	20.3	0.00e+00	0	40	0	4587520000	44	4367
2026-01-29 14:33:57.58	341.27	13.19	-37.8	-39.0	20.1	0.00e+00	0	40	0	4616880128	45	4247
2026-01-29 14:34:01.58	341.34	12.80	-37.8	-39.0	20.1	0.00e+00	0	40	0	4645191680	45	4245
2026-01-29 14:34:05.59	341.41	12.41	-37.8	-38.9	20.1	0.00e+00	0	40	0	4674551808	45	4221
2026-01-29 14:34:09.60	341.47	12.03	-38.0	-39.1	19.9	0.00e+00	0	40	0	4702863360	45	4335
2026-01-29 14:34:13.60	341.54	11.66	-38.0	-39.2	19.8	0.00e+00	0	40	0	4732223488	45	4369
2026-01-29 14:34:17.61	341.60	11.29	-38.0	-39.2	19.8	0.00e+00	0	40	0	4760535040	45	4360
2026-01-29 14:34:21.61	341.67	10.93	-38.1	-39.3	19.6	0.00e+00	0	40	0	4789895168	45	4429
2026-01-29 14:34:25.63	341.73	10.57	-38.2	-39.4	19.6	0.00e+00	0	40	0	4819255296	46	4221
2026-01-29 14:34:29.63	341.79	10.22	-38.3	-39.5	19.4	0.00e+00	0	40	0	4847566848	46	4279
2026-01-29 14:34:33.63	341.85	9.88	-38.2	-39.5	19.3	0.00e+00	0	40	0	4876926976	46	4283
2026-01-29 14:34:37.64	341.91	9.53	-38.2	-39.7	19.2	0.00e+00	0	40	0	4905238528	46	4349
2026-01-29 14:34:41.65	341.97	9.20	-38.3	-39.8	19.2	0.00e+00	0	40	0	4934598656	46	4393
2026-01-29 14:34:45.65	342.02	8.86	-48.7	-59.6	3.8	8.40e-01	0	40	104	4959764480	66	13664
2026-01-29 14:34:49.63	342.08	8.54	-48.6	-60.2	3.8	8.46e-01	0	40	104	4959764480	67	13872
2026-01-29 14:34:53.62	342.13	8.22	-48.9	-60.1	3.8	8.47e-01	0	40	104	4959764480	67	13595
2026-01-29 14:34:57.60	342.19	7.90	-49.3	-60.3	3.8	8.46e-01	0	40	104	4959764480	68	13251
2026-01-29 14:35:01.59	342.24	7.58	-49.5	-60.4	3.8	8.46e-01	0	40	104	4959764480	68	13401
2026-01-29 14:35:05.58	342.30	7.27	-49.6	-60.4	3.8	8.48e-01	0	40	104	4959764480	68	13304
2026-01-29 14:35:09.57	342.35	6.97	-49.6	-60.4	3.8	8.47e-01	0	40	104	4959764480	68	13385
2026-01-29 14:35:13.56	342.40	6.66	-49.6	-60.4	3.8	8.46e-01	0	40	104	4959764480	68	13274
2026-01-29 14:35:17.55	342.45	6.36	-49.5	-60.4	3.8	8.47e-01	0	40	104	4959764480	68	13300
2026-01-29 14:35:21.53	342.50	6.07	-49.5	-60.4	3.8	8.48e-01	0	40	104	4959764480	68	13281
2026-01-29 14:35:25.52	342.55	5.77	-49.5	-60.4	3.8	8.47e-01	0	40	104	4959764480	68	13269
2026-01-29 14:35:29.51	342.60	5.48	-49.5	-60.4	3.8	8.47e-01	0	40	104	4959764480	68	13265
2026-01-29 14:35:33.49	342.64	5.20	-49.5	-60.4	3.8	8.48e-01	0	40	104	4959764480	68	13272

#Closed at: 2026-01-29 14:35:37
#Recorded file [4959 MB]: D:/Data/31040_260129_172239.dat