passes_logs/2026/01/29/T1/T1__20260129_082453_SUOMI_NPP_rec.log

#Pass ID: 20260129_082453_SUOMI NPP
#Satellite: SUOMI NPP
#Configuration: NPP
#almurnet v.1.7.20251203
#Start time: 2026-01-29 08:24:54

#Version: 2.0.20230620
#Station: T1
#Location: 37.570604 lon 55.790049 lat
#TLE: 1 37849U 11061A   26027.93236865  .00000148  00000+0  91411-4 0  9991
#TLE: 2 37849  98.7823 329.8704 0002085  41.3231 318.8102 14.19530777738546

#Time	Az	El	Level	Level2	SNR	BER	BlckErr	Temp	State	Recorded	gain1	gain2
2026-01-29 08:24:54.93	109.68	5.07	-49.8	-65.3	3.8	1.49e+00	0	38	0	0	70	22376
2026-01-29 08:24:57.92	109.44	5.25	-50.1	-65.3	3.8	1.49e+00	0	38	104	0	71	21094
2026-01-29 08:25:00.91	109.19	5.43	-50.1	-65.3	3.8	1.49e+00	0	39	104	0	71	21103
2026-01-29 08:25:03.90	108.95	5.62	-50.1	-65.2	3.8	1.49e+00	0	39	104	0	71	20957
2026-01-29 08:25:06.89	108.69	5.80	-49.8	-65.2	3.8	1.49e+00	0	39	104	0	71	20859
2026-01-29 08:25:09.88	108.44	5.99	-49.8	-65.0	3.8	1.49e+00	0	39	104	0	71	20390
2026-01-29 08:25:12.87	108.18	6.18	-49.4	-64.5	3.8	1.49e+00	0	39	104	0	70	20443
2026-01-29 08:25:15.86	107.92	6.37	-49.4	-64.5	3.8	1.49e+00	0	39	104	0	70	20524
2026-01-29 08:25:18.85	107.66	6.55	-49.4	-64.5	3.8	1.49e+00	0	39	104	0	70	20483
2026-01-29 08:25:21.83	107.39	6.74	-49.3	-64.1	3.8	1.49e+00	0	39	104	0	70	19584
2026-01-29 08:25:24.82	107.12	6.93	-49.3	-63.7	3.8	1.49e+00	0	39	104	0	70	18614
2026-01-29 08:25:27.81	106.84	7.12	-49.3	-63.7	3.8	1.49e+00	0	40	104	0	70	18603
2026-01-29 08:25:30.79	106.57	7.32	-49.3	-63.7	3.8	1.49e+00	0	40	104	0	70	18655
2026-01-29 08:25:33.78	106.28	7.51	-49.3	-64.0	3.8	1.49e+00	0	40	104	0	70	19209
2026-01-29 08:25:36.77	106.00	7.70	-49.3	-63.8	3.8	1.49e+00	0	40	104	0	70	18772
2026-01-29 08:25:39.76	105.71	7.90	-49.4	-64.6	3.8	1.49e+00	0	40	104	0	70	20569
2026-01-29 08:25:42.75	105.41	8.09	-48.8	-58.4	5.3	8.67e-01	0	40	0	1048576	69	10693
2026-01-29 08:25:45.73	105.12	8.29	-46.8	-51.8	11.2	2.99e-03	0	40	0	6291456	65	6313
2026-01-29 08:25:48.72	104.81	8.48	-45.0	-48.4	14.9	0.00e+00	0	40	0	11534336	62	5045
2026-01-29 08:25:51.71	104.51	8.68	-46.2	-50.5	12.8	3.80e-06	0	40	0	17825792	63	6107
2026-01-29 08:25:54.69	104.20	8.88	-47.9	-54.7	8.3	2.35e-02	0	40	0	23068672	66	8356
2026-01-29 08:25:57.68	103.88	9.08	-48.9	-59.1	4.9	1.20e+00	0	40	0	28311552	68	12292
2026-01-29 08:26:00.69	103.56	9.28	-47.5	-53.5	9.3	1.40e+00	0	40	104	32505856	67	6823
2026-01-29 08:26:03.69	103.23	9.48	-46.8	-51.7	11.4	1.22e-03	0	40	0	34603008	65	6255
2026-01-29 08:26:06.69	102.90	9.68	-46.9	-51.9	11.3	1.39e-03	0	40	0	39845888	65	6360
2026-01-29 08:26:09.70	102.57	9.89	-45.8	-49.7	13.7	1.90e-05	0	40	0	45088768	63	5531
2026-01-29 08:26:12.70	102.23	10.09	-45.6	-49.2	14.1	0.00e+00	0	40	0	51380224	62	5575
2026-01-29 08:26:15.70	101.88	10.30	-46.1	-50.1	13.2	5.30e-06	0	40	0	56623104	62	6180
2026-01-29 08:26:18.71	101.53	10.50	-45.2	-48.6	14.8	1.50e-06	0	40	0	61865984	62	5210
2026-01-29 08:26:21.71	101.18	10.71	-45.1	-48.5	14.9	0.00e+00	0	40	0	68157440	61	5425
2026-01-29 08:26:24.72	100.82	10.91	-44.9	-48.2	15.2	7.00e-07	0	40	0	73400320	61	5264
2026-01-29 08:26:27.72	100.45	11.12	-44.2	-47.1	16.3	0.00e+00	0	40	0	79691776	60	4907
2026-01-29 08:26:30.72	100.08	11.33	-44.4	-47.5	15.9	0.00e+00	0	40	0	84934656	60	5119
2026-01-29 08:26:33.72	99.71	11.54	-44.0	-46.8	16.6	0.00e+00	0	40	0	90177536	60	4738
2026-01-29 08:26:36.72	99.33	11.74	-43.7	-46.4	16.9	0.00e+00	0	40	0	96468992	59	4814
2026-01-29 08:26:39.71	98.94	11.95	-44.1	-47.1	16.3	0.00e+00	0	40	0	101711872	59	5161
2026-01-29 08:26:42.72	98.55	12.16	-44.2	-47.2	16.2	0.00e+00	0	40	0	106954752	59	5223
2026-01-29 08:26:45.72	98.15	12.37	-44.1	-47.0	16.4	0.00e+00	0	40	0	113246208	59	5135
2026-01-29 08:26:48.72	97.75	12.58	-44.4	-47.4	16.0	0.00e+00	0	40	0	118489088	59	5372
2026-01-29 08:26:51.72	97.34	12.79	-44.4	-47.4	16.0	0.00e+00	0	40	0	123731968	60	5085
2026-01-29 08:26:54.72	96.92	13.01	-44.3	-47.2	16.2	0.00e+00	0	40	0	130023424	60	4972
2026-01-29 08:26:57.72	96.50	13.22	-44.3	-47.3	16.2	0.00e+00	0	40	0	135266304	60	5005
2026-01-29 08:27:00.73	96.07	13.43	-44.3	-47.3	16.2	0.00e+00	0	41	0	141557760	60	4999
2026-01-29 08:27:03.72	95.64	13.64	-44.1	-47.0	16.4	0.00e+00	0	40	0	146800640	60	4854
2026-01-29 08:27:06.73	95.20	13.85	-44.1	-46.9	16.6	0.00e+00	0	41	0	152043520	59	5061
2026-01-29 08:27:09.73	94.75	14.07	-43.8	-46.5	16.9	0.00e+00	0	40	0	158334976	59	4857
2026-01-29 08:27:12.73	94.30	14.28	-44.3	-47.2	16.3	0.00e+00	0	41	0	163577856	59	5251
2026-01-29 08:27:15.74	93.84	14.49	-44.6	-47.7	15.9	0.00e+00	0	40	0	168820736	60	5229
2026-01-29 08:27:18.74	93.37	14.70	-44.6	-47.6	15.9	0.00e+00	0	40	0	175112192	60	5198
2026-01-29 08:27:21.74	92.90	14.92	-44.3	-47.2	16.3	0.00e+00	0	41	0	180355072	60	4959
2026-01-29 08:27:24.75	92.41	15.13	-44.3	-47.3	16.2	0.00e+00	0	41	0	186646528	60	4990
2026-01-29 08:27:27.75	91.93	15.34	-44.4	-47.3	16.2	0.00e+00	0	40	0	191889408	60	5036
2026-01-29 08:27:30.76	91.43	15.55	-44.3	-47.2	16.4	0.00e+00	0	41	0	197132288	60	4962
2026-01-29 08:27:33.76	90.93	15.77	-44.1	-47.0	16.5	0.00e+00	0	41	0	203423744	60	4856
2026-01-29 08:27:36.76	90.42	15.98	-44.1	-47.0	16.5	0.00e+00	0	41	0	208666624	59	5129
2026-01-29 08:27:39.76	89.91	16.19	-44.4	-47.4	16.1	0.00e+00	0	40	0	213909504	59	5388
2026-01-29 08:27:42.76	89.38	16.40	-44.3	-47.2	16.4	0.00e+00	0	41	0	220200960	59	5252
2026-01-29 08:27:45.76	88.85	16.61	-44.6	-47.8	15.8	0.00e+00	0	41	0	225443840	60	5301
2026-01-29 08:27:48.76	88.31	16.82	-44.0	-46.8	16.7	0.00e+00	0	40	0	230686720	59	5012
2026-01-29 08:27:51.76	87.77	17.02	-44.2	-47.1	16.4	0.00e+00	0	40	0	236978176	59	5206
2026-01-29 08:27:54.77	87.21	17.23	-43.4	-46.1	17.4	0.00e+00	0	41	0	242221056	58	4901
2026-01-29 08:27:57.77	86.65	17.44	-43.7	-46.5	17.0	0.00e+00	0	40	0	248512512	58	5126
2026-01-29 08:28:00.77	86.08	17.64	-43.4	-46.1	17.4	0.00e+00	0	41	0	253755392	58	4897
2026-01-29 08:28:03.77	85.51	17.84	-43.1	-45.7	17.8	0.00e+00	0	40	0	258998272	58	4681
2026-01-29 08:28:06.78	84.92	18.05	-43.0	-45.6	17.8	0.00e+00	0	41	0	265289728	57	4909
2026-01-29 08:28:09.77	84.33	18.25	-42.7	-45.3	18.1	0.00e+00	0	40	0	270532608	57	4723
2026-01-29 08:28:12.78	83.73	18.45	-42.7	-45.2	18.2	0.00e+00	0	40	0	275775488	57	4695
2026-01-29 08:28:15.78	83.12	18.64	-42.4	-44.8	18.6	0.00e+00	0	40	0	282066944	56	4741
2026-01-29 08:28:18.78	82.51	18.84	-42.1	-44.5	18.9	0.00e+00	0	41	0	287309824	56	4563
2026-01-29 08:28:21.78	81.88	19.03	-42.0	-44.3	18.9	0.00e+00	0	41	0	292552704	55	4758
2026-01-29 08:28:24.79	81.25	19.22	-42.1	-44.4	18.8	0.00e+00	0	40	0	298844160	55	4803
2026-01-29 08:28:27.79	80.61	19.41	-42.8	-45.4	18.1	0.00e+00	0	41	0	304087040	56	5048
2026-01-29 08:28:30.80	79.96	19.60	-42.4	-44.8	18.6	0.00e+00	0	41	0	310378496	56	4755
2026-01-29 08:28:33.80	79.30	19.78	-42.3	-44.8	18.7	0.00e+00	0	41	0	315621376	56	4707
2026-01-29 08:28:36.80	78.64	19.97	-42.3	-44.6	18.9	0.00e+00	0	40	0	320864256	56	4638
2026-01-29 08:28:39.80	77.97	20.15	-41.8	-44.2	18.9	0.00e+00	0	41	0	327155712	55	4671
2026-01-29 08:28:42.80	77.29	20.32	-41.7	-44.1	19.0	0.00e+00	0	41	0	332398592	55	4649
2026-01-29 08:28:45.80	76.60	20.49	-41.3	-43.6	19.4	0.00e+00	0	40	0	337641472	54	4626
2026-01-29 08:28:48.80	75.91	20.66	-41.8	-44.1	19.0	0.00e+00	0	41	0	343932928	54	4918
2026-01-29 08:28:51.81	75.20	20.83	-41.4	-43.7	19.4	0.00e+00	0	40	0	349175808	54	4667
2026-01-29 08:28:54.81	74.49	20.99	-41.8	-44.1	19.0	0.00e+00	0	41	0	355467264	54	4910
2026-01-29 08:28:57.81	73.77	21.15	-42.0	-44.4	18.8	0.00e+00	0	40	0	360710144	54	5059
2026-01-29 08:29:00.81	73.05	21.31	-42.1	-44.5	18.7	0.00e+00	0	41	0	365953024	54	5122
2026-01-29 08:29:03.81	72.32	21.46	-41.7	-44.1	19.1	0.00e+00	0	41	0	372244480	55	4599
2026-01-29 08:29:06.82	71.57	21.61	-41.9	-44.3	18.9	0.00e+00	0	41	0	377487360	55	4744
2026-01-29 08:29:09.82	70.83	21.75	-41.4	-43.7	19.4	0.00e+00	0	40	0	382730240	54	4668
2026-01-29 08:29:12.82	70.08	21.89	-41.6	-43.9	19.3	0.00e+00	0	41	0	389021696	54	4786
2026-01-29 08:29:15.83	69.31	22.02	-41.4	-43.7	19.4	0.00e+00	0	41	0	394264576	54	4689
2026-01-29 08:29:18.83	68.55	22.15	-41.6	-43.8	19.3	0.00e+00	0	41	0	400556032	54	4759
2026-01-29 08:29:21.83	67.77	22.27	-42.5	-45.0	18.4	0.00e+00	0	41	0	405798912	55	5135
2026-01-29 08:29:24.84	66.99	22.39	-43.0	-45.7	17.8	0.00e+00	0	41	0	411041792	56	5223
2026-01-29 08:29:27.84	66.21	22.51	-43.7	-46.6	17.0	0.00e+00	0	41	0	417333248	58	5176
2026-01-29 08:29:30.85	65.42	22.62	-43.4	-46.2	17.3	0.00e+00	0	41	0	422576128	58	4947
2026-01-29 08:29:33.85	64.62	22.72	-43.0	-45.7	17.8	0.00e+00	0	41	0	427819008	58	4656
2026-01-29 08:29:36.85	63.82	22.82	-42.9	-45.5	17.9	0.00e+00	0	41	0	434110464	57	4858
2026-01-29 08:29:39.85	63.02	22.91	-42.8	-45.4	18.0	0.00e+00	0	41	0	439353344	57	4807
2026-01-29 08:29:42.85	62.21	23.00	-43.0	-45.8	17.7	0.00e+00	0	41	0	445644800	57	4991
2026-01-29 08:29:45.86	61.39	23.08	-43.3	-46.1	17.3	0.00e+00	0	40	0	450887680	57	5207
2026-01-29 08:29:48.86	60.57	23.15	-43.3	-46.1	17.2	0.00e+00	0	41	0	456130560	57	5185
2026-01-29 08:29:51.86	59.75	23.22	-43.6	-46.5	17.0	0.00e+00	0	41	0	462422016	58	5136
2026-01-29 08:29:54.86	58.92	23.28	-43.8	-46.7	16.7	0.00e+00	0	40	0	467664896	58	5274
2026-01-29 08:29:57.86	58.09	23.34	-43.8	-46.7	16.8	0.00e+00	0	41	0	472907776	58	5248
2026-01-29 08:30:00.87	57.26	23.39	-44.1	-47.2	16.4	0.00e+00	0	40	0	479199232	58	5541
2026-01-29 08:30:03.87	56.43	23.43	-44.4	-47.8	15.8	0.00e+00	0	41	0	484442112	59	5603
2026-01-29 08:30:06.87	55.59	23.46	-44.0	-47.1	16.4	0.00e+00	0	41	0	489684992	59	5204
2026-01-29 08:30:09.88	54.75	23.49	-43.2	-46.0	17.4	0.00e+00	0	41	0	495976448	58	4861
2026-01-29 08:30:12.87	53.92	23.52	-42.8	-45.4	17.9	0.00e+00	0	41	0	501219328	57	4811
2026-01-29 08:30:15.88	53.07	23.53	-43.2	-46.1	17.4	0.00e+00	0	41	0	507510784	57	5188
2026-01-29 08:30:18.89	52.23	23.54	-42.7	-45.3	18.0	0.00e+00	0	41	0	512753664	57	4740
2026-01-29 08:30:21.90	51.39	23.55	-43.1	-45.8	17.6	0.00e+00	0	41	0	517996544	57	5013
2026-01-29 08:30:24.90	50.55	23.54	-42.8	-45.4	17.9	0.00e+00	0	41	0	524288000	57	4806
2026-01-29 08:30:27.90	49.71	23.53	-42.7	-45.3	18.1	0.00e+00	0	40	0	529530880	57	4725
2026-01-29 08:30:30.91	48.86	23.52	-42.5	-45.1	18.3	0.00e+00	0	41	0	534773760	57	4616
2026-01-29 08:30:33.90	48.03	23.49	-43.0	-45.7	17.8	0.00e+00	0	41	0	541065216	56	5235
2026-01-29 08:30:36.90	47.19	23.46	-42.2	-44.6	18.7	0.00e+00	0	41	0	546308096	56	4613
2026-01-29 08:30:39.91	46.35	23.43	-41.6	-43.9	19.2	0.00e+00	0	41	0	552599552	55	4545
2026-01-29 08:30:42.91	45.52	23.39	-41.4	-43.6	19.6	0.00e+00	0	41	0	557842432	54	4631
2026-01-29 08:30:45.91	44.69	23.34	-40.9	-43.1	20.0	0.00e+00	0	41	0	563085312	53	4615
2026-01-29 08:30:48.91	43.86	23.28	-41.0	-43.2	19.9	0.00e+00	0	41	0	569376768	53	4678
2026-01-29 08:30:51.91	43.04	23.22	-41.3	-43.6	19.6	0.00e+00	0	40	0	574619648	53	4885
2026-01-29 08:30:54.92	42.22	23.15	-41.6	-43.9	19.3	0.00e+00	0	40	0	579862528	54	4780
2026-01-29 08:30:57.92	41.40	23.08	-41.8	-44.1	19.2	0.00e+00	0	41	0	586153984	54	4880
2026-01-29 08:31:00.93	40.58	23.00	-41.7	-44.0	19.3	0.00e+00	0	41	0	591396864	54	4834
2026-01-29 08:31:03.93	39.77	22.91	-42.6	-45.1	18.2	0.00e+00	0	41	0	596639744	55	5194
2026-01-29 08:31:06.93	38.97	22.82	-42.3	-44.8	18.5	0.00e+00	0	41	0	602931200	55	5001
2026-01-29 08:31:09.92	38.17	22.72	-42.1	-44.5	18.7	0.00e+00	0	40	0	608174080	55	4845
2026-01-29 08:31:12.93	37.38	22.62	-42.8	-45.3	18.2	0.00e+00	0	41	0	614465536	56	5027
2026-01-29 08:31:15.93	36.59	22.51	-43.2	-45.9	17.6	0.00e+00	0	41	0	619708416	57	5064
2026-01-29 08:31:18.93	35.81	22.39	-43.7	-46.6	17.0	0.00e+00	0	41	0	624951296	58	5164
2026-01-29 08:31:21.94	35.03	22.28	-43.7	-46.6	16.9	0.00e+00	0	41	0	631242752	58	5205
2026-01-29 08:31:24.94	34.26	22.15	-43.5	-46.4	17.1	0.00e+00	0	41	0	636485632	58	5083
2026-01-29 08:31:27.93	33.50	22.02	-43.6	-46.5	17.0	0.00e+00	0	41	0	641728512	58	5120
2026-01-29 08:31:30.94	32.74	21.89	-43.7	-46.8	16.7	0.00e+00	0	41	0	648019968	58	5285
2026-01-29 08:31:33.94	31.99	21.75	-43.2	-45.9	17.5	0.00e+00	0	41	0	653262848	58	4801
2026-01-29 08:31:36.94	31.24	21.61	-43.2	-46.0	17.5	0.00e+00	0	41	0	659554304	58	4837
2026-01-29 08:31:39.94	30.51	21.46	-43.2	-46.0	17.5	0.00e+00	0	41	0	664797184	57	5112
2026-01-29 08:31:42.94	29.78	21.31	-43.9	-47.0	16.5	0.00e+00	0	41	0	670040064	58	5415
2026-01-29 08:31:45.94	29.06	21.16	-43.9	-47.0	16.5	0.00e+00	0	41	0	676331520	59	5116
2026-01-29 08:31:48.94	28.34	21.00	-43.7	-46.6	16.9	0.00e+00	0	40	0	681574400	58	5195
2026-01-29 08:31:51.94	27.63	20.84	-44.0	-47.1	16.3	0.00e+00	0	41	0	686817280	58	5475
2026-01-29 08:31:54.93	26.94	20.67	-44.3	-48.0	15.6	0.00e+00	0	41	0	693108736	60	5408
2026-01-29 08:31:57.94	26.24	20.50	-43.4	-46.5	17.0	0.00e+00	0	41	0	698351616	58	5149
2026-01-29 08:32:00.95	25.55	20.33	-42.7	-45.5	17.9	0.00e+00	0	41	0	703594496	57	4866
2026-01-29 08:32:03.96	24.88	20.15	-42.5	-45.3	18.1	0.00e+00	0	41	0	709885952	56	4999
2026-01-29 08:32:06.96	24.21	19.97	-42.3	-45.0	18.5	0.00e+00	0	41	0	715128832	56	4821
2026-01-29 08:32:09.96	23.55	19.79	-41.7	-44.1	19.0	0.00e+00	0	41	0	721420288	55	4635
2026-01-29 08:32:12.96	22.89	19.61	-41.4	-43.8	19.4	0.00e+00	0	41	0	726663168	54	4723
2026-01-29 08:32:15.96	22.25	19.42	-41.4	-43.7	19.4	0.00e+00	0	41	0	731906048	54	4701
2026-01-29 08:32:18.96	21.61	19.24	-42.5	-45.2	18.1	0.00e+00	0	41	0	738197504	55	5255
2026-01-29 08:32:21.97	20.98	19.04	-43.1	-46.1	17.4	0.00e+00	0	40	0	743440384	57	5182
2026-01-29 08:32:24.97	20.36	18.85	-43.2	-46.2	17.3	0.00e+00	0	41	0	748683264	57	5238
2026-01-29 08:32:27.95	19.75	18.66	-42.8	-45.6	17.9	0.00e+00	0	41	0	754974720	57	4876
2026-01-29 08:32:30.94	19.15	18.46	-42.5	-45.2	18.3	0.00e+00	0	41	0	760217600	57	4652
2026-01-29 08:32:33.94	18.55	18.26	-41.7	-44.1	19.0	0.00e+00	0	40	0	765460480	55	4641
2026-01-29 08:32:36.98	17.96	18.06	-42.3	-45.0	18.3	0.00e+00	0	41	0	771751936	55	5104
2026-01-29 08:32:39.97	17.38	17.86	-42.5	-45.2	18.0	0.00e+00	0	40	0	776994816	55	5230
2026-01-29 08:32:42.96	16.81	17.66	-42.4	-45.0	18.2	0.00e+00	0	41	0	783286272	55	5133
2026-01-29 08:32:45.94	16.24	17.46	-43.1	-45.9	17.6	0.00e+00	0	40	0	788529152	56	5355
2026-01-29 08:32:49.00	15.68	17.25	-42.8	-45.5	18.0	0.00e+00	0	40	0	793772032	57	4827
2026-01-29 08:32:51.84	15.15	17.05	-42.5	-45.1	18.3	0.00e+00	0	41	0	799014912	56	4905
2026-01-29 08:32:54.97	14.59	16.84	-42.1	-44.7	18.7	0.00e+00	0	41	0	805306368	56	4657
2026-01-29 08:32:57.82	14.08	16.64	-41.9	-44.6	18.6	0.00e+00	0	40	0	810549248	55	4876
2026-01-29 08:33:01.04	13.51	16.42	-42.5	-45.2	18.0	0.00e+00	0	41	0	816840704	55	5265
2026-01-29 08:33:03.98	13.00	16.21	-42.1	-44.7	18.5	0.00e+00	0	41	0	822083584	55	4961
2026-01-29 08:33:07.10	12.47	15.99	-41.4	-43.8	19.3	0.00e+00	0	40	0	828375040	54	4752
2026-01-29 08:33:10.12	11.96	15.78	-41.5	-44.0	19.2	0.00e+00	0	41	0	833617920	54	4837
2026-01-29 08:33:13.11	11.47	15.57	-41.9	-44.4	18.8	0.00e+00	0	40	0	838860800	54	5085
2026-01-29 08:33:16.09	10.98	15.36	-42.0	-44.7	18.6	0.00e+00	0	41	0	845152256	54	5224
2026-01-29 08:33:19.06	10.50	15.15	-42.0	-44.7	18.6	0.00e+00	0	40	0	850395136	55	4931
2026-01-29 08:33:22.04	10.03	14.94	-41.4	-43.8	19.4	0.00e+00	0	41	0	855638016	54	4721
2026-01-29 08:33:25.03	9.56	14.73	-41.6	-44.0	19.2	0.00e+00	0	40	0	861929472	54	4849
2026-01-29 08:33:28.01	9.10	14.52	-42.5	-45.2	18.1	0.00e+00	0	41	0	867172352	55	5235
2026-01-29 08:33:31.07	8.63	14.31	-43.0	-45.8	17.7	0.00e+00	0	40	0	873463808	56	5304
2026-01-29 08:33:33.91	8.21	14.11	-42.7	-45.5	17.9	0.00e+00	0	40	0	878706688	56	5123
2026-01-29 08:33:37.04	7.74	13.89	-42.4	-45.3	18.1	0.00e+00	0	40	0	883949568	56	5010
2026-01-29 08:33:39.98	7.32	13.68	-42.2	-44.9	18.4	0.00e+00	0	40	0	889192448	56	4802
2026-01-29 08:33:43.11	6.87	13.46	-42.2	-44.9	18.5	0.00e+00	0	40	0	895483904	56	4772
2026-01-29 08:33:46.05	6.45	13.25	-42.9	-45.9	17.5	0.00e+00	0	40	0	900726784	56	5375
2026-01-29 08:33:49.03	6.04	13.04	-43.8	-47.0	16.5	0.00e+00	0	40	0	907018240	58	5439
2026-01-29 08:33:52.01	5.63	12.83	-43.2	-46.0	17.4	0.00e+00	0	40	0	912261120	58	4869
2026-01-29 08:33:55.00	5.22	12.63	-42.5	-45.3	18.1	0.00e+00	0	40	0	917504000	56	4990
2026-01-29 08:33:57.99	4.82	12.42	-42.4	-45.1	18.2	0.00e+00	0	40	0	923795456	56	4916
2026-01-29 08:34:00.97	4.43	12.21	-42.7	-45.3	18.0	0.00e+00	0	41	0	929038336	56	5033
2026-01-29 08:34:03.95	4.04	12.00	-42.6	-45.2	18.2	0.00e+00	0	41	0	934281216	56	4937
2026-01-29 08:34:06.94	3.66	11.79	-42.7	-45.4	17.9	0.00e+00	0	41	0	940572672	56	5066
2026-01-29 08:34:09.93	3.29	11.59	-43.0	-45.9	17.5	0.00e+00	0	41	0	945815552	56	5374
2026-01-29 08:34:12.96	2.91	11.38	-43.3	-46.2	17.2	0.00e+00	0	41	0	951058432	57	5271
2026-01-29 08:34:15.96	2.54	11.17	-43.3	-46.3	17.1	0.00e+00	0	41	0	957349888	57	5300
2026-01-29 08:34:18.94	2.18	10.97	-43.5	-46.9	16.5	0.00e+00	0	40	0	962592768	57	5666
2026-01-29 08:34:21.93	1.83	10.76	-44.0	-47.3	16.1	0.00e+00	0	41	0	967835648	58	5646
2026-01-29 08:34:24.91	1.48	10.56	-44.2	-47.4	16.0	0.00e+00	0	40	0	974127104	59	5401
2026-01-29 08:34:27.90	1.13	10.36	-43.7	-46.8	16.6	0.00e+00	0	40	0	979369984	59	4990
2026-01-29 08:34:31.13	0.77	10.14	-43.2	-46.2	17.2	0.00e+00	0	40	0	985661440	58	4960
2026-01-29 08:34:33.83	0.46	9.95	-43.0	-46.1	17.2	0.00e+00	0	41	0	990904320	57	5209
2026-01-29 08:34:37.12	0.10	9.73	-43.2	-46.5	16.9	0.00e+00	0	41	0	997195776	57	5406
2026-01-29 08:34:39.88	359.80	9.55	-43.5	-46.9	16.4	0.00e+00	0	40	0	1002438656	57	5713
2026-01-29 08:34:43.17	359.45	9.33	-43.9	-47.0	16.3	0.00e+00	0	40	0	1007681536	58	5435
2026-01-29 08:34:45.90	359.16	9.15	-43.7	-46.7	16.7	0.00e+00	0	41	0	1012924416	58	5225
2026-01-29 08:34:49.24	358.81	8.92	-48.5	-63.3	3.8	2.27e-02	0	41	104	1019215872	67	21052
2026-01-29 08:34:51.94	358.53	8.75	-49.8	-65.2	3.8	1.49e+00	0	41	104	1019215872	70	22026
2026-01-29 08:34:55.22	358.20	8.53	-50.1	-65.3	3.8	1.49e+00	0	41	104	1019215872	70	22438
2026-01-29 08:34:58.02	357.92	8.35	-49.9	-65.4	3.8	1.49e+00	0	41	104	1019215872	70	22538
2026-01-29 08:35:01.35	357.59	8.13	-50.1	-65.4	3.8	1.49e+00	0	40	104	1019215872	70	22569
2026-01-29 08:35:04.34	357.30	7.93	-50.0	-65.4	3.8	1.49e+00	0	40	104	1019215872	71	21418
2026-01-29 08:35:07.89	356.96	7.70	-50.0	-65.3	3.8	1.49e+00	0	41	104	1019215872	71	21247
2026-01-29 08:35:10.59	356.70	7.53	-49.9	-65.2	3.8	1.49e+00	0	40	104	1019215872	71	20945
2026-01-29 08:35:13.85	356.40	7.32	-49.7	-64.9	3.8	1.49e+00	0	41	104	1019215872	71	20159
2026-01-29 08:35:16.56	356.15	7.15	-49.4	-64.7	3.8	1.49e+00	0	41	104	1019215872	70	21001
2026-01-29 08:35:19.83	355.85	6.94	-49.4	-64.7	3.8	1.49e+00	0	40	104	1019215872	70	20878
2026-01-29 08:35:22.55	355.61	6.77	-49.4	-64.7	3.8	1.49e+00	0	40	104	1019215872	70	20845
2026-01-29 08:35:25.82	355.32	6.56	-49.4	-64.7	3.8	1.49e+00	0	40	104	1019215872	70	20923
2026-01-29 08:35:28.52	355.09	6.39	-49.4	-64.7	3.8	1.49e+00	0	40	104	1019215872	70	20841
2026-01-29 08:35:31.78	354.81	6.19	-49.4	-64.7	3.8	1.49e+00	0	41	104	1019215872	70	20833
2026-01-29 08:35:34.48	354.58	6.02	-49.4	-64.7	3.8	1.49e+00	0	40	104	1019215872	70	20846
2026-01-29 08:35:37.74	354.31	5.82	-49.4	-64.7	3.8	1.49e+00	0	40	104	1019215872	70	20818
2026-01-29 08:35:40.44	354.08	5.65	-49.4	-64.7	3.8	1.49e+00	0	40	104	1019215872	70	20819
2026-01-29 08:35:43.72	353.82	5.45	-49.4	-64.7	3.8	1.49e+00	0	41	104	1019215872	70	20910
2026-01-29 08:35:46.43	353.60	5.28	-49.4	-64.7	3.8	1.49e+00	0	40	104	1019215872	70	20862
2026-01-29 08:35:49.69	353.34	5.08	-49.4	-64.7	3.8	1.49e+00	0	40	104	1019215872	70	20807

#Closed at: 2026-01-29 08:35:52
#Recorded file [1019 MB]: D:/Data/31040_260129_112454.dat