passes_logs/2026/01/29/T1/T1__20260129_001301_SUOMI_NPP_rec.log

#Pass ID: 20260129_001301_SUOMI NPP
#Satellite: SUOMI NPP
#Configuration: NPP
#almurnet v.1.7.20251203
#Start time: 2026-01-29 00:13:03

#Version: 2.0.20230620
#Station: T1
#Location: 37.570604 lon 55.790049 lat
#TLE: 1 37849U 11061A   26027.86188320  .00000172  00000+0  10275-3 0  9990
#TLE: 2 37849  98.7823 329.8005 0002088  41.4184 318.7150 14.19530883738530

#Time	Az	El	Level	Level2	SNR	BER	BlckErr	Temp	State	Recorded	gain1	gain2
2026-01-29 00:13:03.97	13.53	5.16	-50.0	-65.3	3.8	1.49e+00	0	40	0	0	70	22299
2026-01-29 00:13:07.93	13.45	5.44	-50.1	-65.3	3.8	1.49e+00	0	41	104	0	72	19844
2026-01-29 00:13:11.91	13.37	5.72	-50.0	-65.2	3.8	1.49e+00	0	41	104	0	71	20943
2026-01-29 00:13:15.88	13.28	6.01	-49.6	-65.1	3.8	1.49e+00	0	40	104	0	71	20559
2026-01-29 00:13:19.85	13.20	6.31	-49.3	-65.0	3.8	1.49e+00	0	41	104	0	70	21567
2026-01-29 00:13:23.83	13.11	6.60	-48.9	-64.7	3.8	1.49e+00	0	41	104	0	68	23489
2026-01-29 00:13:27.80	13.02	6.90	-48.7	-63.9	3.8	1.49e+00	0	41	104	0	68	21332
2026-01-29 00:13:31.77	12.92	7.20	-48.7	-63.5	3.8	1.49e+00	0	41	104	0	68	20326
2026-01-29 00:13:35.74	12.83	7.51	-48.7	-62.8	3.8	1.49e+00	0	41	104	0	68	18842
2026-01-29 00:13:39.71	12.73	7.82	-48.5	-60.6	4.3	1.37e+00	0	42	0	0	68	14548
2026-01-29 00:13:43.69	12.63	8.13	-48.0	-56.6	6.8	2.81e-01	0	42	0	7340032	68	9182
2026-01-29 00:13:47.66	12.53	8.45	-47.1	-53.5	9.6	1.69e-02	0	42	0	14680064	66	7279
2026-01-29 00:13:51.64	12.42	8.77	-46.7	-52.3	10.9	2.25e-03	0	42	0	22020096	65	6658
2026-01-29 00:13:55.61	12.31	9.10	-47.2	-53.8	9.3	1.36e-02	0	42	0	29360128	65	7966
2026-01-29 00:14:00.00	12.19	9.46	-47.4	-54.7	8.4	2.83e-03	0	42	0	35651584	65	8817
2026-01-29 00:14:04.01	12.08	9.80	-43.2	-46.0	17.2	0.00e+00	0	42	0	42991616	58	4861
2026-01-29 00:14:08.02	11.96	10.14	-42.6	-45.3	17.9	0.00e+00	0	42	0	50331648	57	4737
2026-01-29 00:14:12.13	11.83	10.50	-42.5	-45.2	18.1	0.00e+00	0	42	0	57671680	56	4941
2026-01-29 00:14:16.24	11.71	10.86	-42.4	-45.0	18.3	0.00e+00	0	42	0	66060288	56	4831
2026-01-29 00:14:20.22	11.58	11.21	-42.2	-44.8	18.5	0.00e+00	0	42	0	73400320	56	4707
2026-01-29 00:14:24.21	11.45	11.57	-42.0	-44.5	18.7	0.00e+00	0	42	0	80740352	56	4564
2026-01-29 00:14:28.26	11.31	11.94	-41.8	-44.2	18.9	0.00e+00	0	42	0	88080384	55	4671
2026-01-29 00:14:32.22	11.17	12.31	-41.7	-44.1	19.0	0.00e+00	0	42	0	95420416	55	4601
2026-01-29 00:14:36.20	11.03	12.68	-41.5	-43.9	19.1	0.00e+00	0	42	0	102760448	55	4510
2026-01-29 00:14:40.32	10.88	13.08	-41.5	-43.8	19.3	0.00e+00	0	42	0	111149056	54	4720
2026-01-29 00:14:44.37	10.72	13.47	-41.6	-43.9	19.2	0.00e+00	0	42	0	118489088	54	4787
2026-01-29 00:14:48.36	10.57	13.86	-41.6	-43.9	19.2	0.00e+00	0	42	0	125829120	54	4801
2026-01-29 00:14:52.42	10.41	14.27	-41.7	-44.1	19.0	0.00e+00	0	42	0	133169152	54	4902
2026-01-29 00:14:56.46	10.24	14.68	-41.8	-44.2	18.9	0.00e+00	0	43	0	141557760	54	4957
2026-01-29 00:15:00.44	10.07	15.09	-41.7	-44.1	19.0	0.00e+00	0	42	0	148897792	54	4923
2026-01-29 00:15:04.44	9.89	15.52	-41.8	-44.2	19.0	0.00e+00	0	42	0	156237824	54	4951
2026-01-29 00:15:08.45	9.71	15.94	-41.6	-44.0	19.2	0.00e+00	0	42	0	163577856	54	4829
2026-01-29 00:15:12.45	9.52	16.38	-41.6	-44.0	19.1	0.00e+00	0	42	0	170917888	54	4859
2026-01-29 00:15:16.46	9.33	16.82	-41.5	-44.0	19.2	0.00e+00	0	43	0	178257920	54	4815
2026-01-29 00:15:20.47	9.13	17.28	-41.4	-43.8	19.3	0.00e+00	0	42	0	186646528	54	4732
2026-01-29 00:15:24.47	8.92	17.74	-41.5	-43.9	19.3	0.00e+00	0	42	0	193986560	54	4767
2026-01-29 00:15:28.56	8.70	18.21	-41.3	-43.7	19.4	0.00e+00	0	43	0	201326592	54	4671
2026-01-29 00:15:32.68	8.47	18.70	-41.4	-43.7	19.4	0.00e+00	0	43	0	208666624	54	4696
2026-01-29 00:15:36.79	8.24	19.20	-41.7	-44.1	19.2	0.00e+00	0	43	0	217055232	54	4897
2026-01-29 00:15:40.83	8.00	19.70	-41.8	-44.1	19.1	0.00e+00	0	43	0	224395264	54	4924
2026-01-29 00:15:44.86	7.75	20.21	-41.8	-44.1	19.1	0.00e+00	0	43	0	231735296	54	4916
2026-01-29 00:15:48.83	7.50	20.72	-41.7	-44.1	19.2	0.00e+00	0	43	0	239075328	54	4879
2026-01-29 00:15:53.11	7.22	21.28	-41.8	-44.2	19.1	0.00e+00	0	43	0	247463936	54	4945
2026-01-29 00:15:57.13	6.94	21.82	-41.9	-44.3	19.0	0.00e+00	0	43	0	254803968	54	5011
2026-01-29 00:16:01.12	6.66	22.37	-42.2	-44.7	18.6	0.00e+00	0	43	0	262144000	55	4981
2026-01-29 00:16:05.11	6.37	22.92	-41.7	-44.1	19.2	0.00e+00	0	43	0	269484032	55	4607
2026-01-29 00:16:09.19	6.06	23.50	-42.0	-44.4	18.9	0.00e+00	0	43	0	277872640	55	4771
2026-01-29 00:16:13.28	5.73	24.10	-41.9	-44.3	19.1	0.00e+00	0	43	0	285212672	55	4708
2026-01-29 00:16:17.26	5.40	24.69	-42.9	-45.4	18.1	0.00e+00	0	43	0	292552704	56	5072
2026-01-29 00:16:21.25	5.06	25.29	-42.6	-45.0	18.5	0.00e+00	0	43	0	299892736	56	4856
2026-01-29 00:16:25.50	4.68	25.95	-43.0	-45.5	18.1	0.00e+00	0	43	0	308281344	56	5103
2026-01-29 00:16:29.53	4.30	26.59	-43.2	-45.7	17.9	0.00e+00	0	43	0	315621376	57	4939
2026-01-29 00:16:33.55	3.91	27.24	-43.5	-46.1	17.5	0.00e+00	0	43	0	322961408	58	4901
2026-01-29 00:16:37.63	3.49	27.91	-43.4	-46.0	17.6	0.00e+00	0	43	0	331350016	58	4841
2026-01-29 00:16:41.67	3.06	28.59	-42.8	-45.2	18.3	0.00e+00	0	43	0	338690048	57	4672
2026-01-29 00:16:45.69	2.61	29.29	-42.9	-45.3	18.1	0.00e+00	0	43	0	346030080	57	4750
2026-01-29 00:16:49.67	2.15	29.99	-43.5	-46.1	17.5	0.00e+00	0	43	0	353370112	57	5209
2026-01-29 00:16:53.71	1.66	30.72	-44.2	-47.0	16.6	0.00e+00	0	43	0	360710144	59	5148
2026-01-29 00:16:57.69	1.15	31.45	-45.0	-48.3	15.4	0.00e+00	0	43	0	368050176	60	5649
2026-01-29 00:17:01.67	0.62	32.20	-45.6	-49.4	14.4	0.00e+00	0	43	0	376438784	62	5657
2026-01-29 00:17:05.62	0.06	32.96	-45.3	-48.9	14.9	0.00e+00	0	43	0	383778816	62	5359
2026-01-29 00:17:09.84	359.44	33.80	-46.1	-49.9	14.0	3.00e-06	0	43	0	391118848	62	6058
2026-01-29 00:17:13.93	358.80	34.62	-46.0	-49.8	14.0	5.30e-06	0	43	0	398458880	63	5651
2026-01-29 00:17:17.99	358.14	35.45	-46.3	-50.3	13.6	1.50e-06	0	43	0	406847488	63	5984
2026-01-29 00:17:21.98	357.45	36.29	-46.5	-51.2	12.5	1.14e-04	0	43	0	414187520	64	6222
2026-01-29 00:17:26.03	356.71	37.16	-44.8	-48.2	15.6	0.00e+00	0	43	0	421527552	60	5544
2026-01-29 00:17:30.10	355.93	38.05	-44.6	-47.7	16.2	0.00e+00	0	43	0	428867584	60	5252
2026-01-29 00:17:34.08	355.12	38.93	-44.3	-47.2	16.6	0.00e+00	0	43	0	437256192	60	4950
2026-01-29 00:17:38.13	354.25	39.85	-43.9	-46.6	17.2	0.00e+00	0	43	0	444596224	59	4906
2026-01-29 00:17:42.11	353.34	40.77	-44.3	-47.1	16.7	0.00e+00	0	43	0	451936256	59	5218
2026-01-29 00:17:46.34	352.32	41.77	-44.3	-47.3	16.5	0.00e+00	0	43	0	459276288	60	5033
2026-01-29 00:17:50.44	351.27	42.75	-44.1	-47.0	16.8	0.00e+00	0	43	0	467664896	59	5136
2026-01-29 00:17:54.44	350.17	43.72	-44.8	-47.8	16.0	0.00e+00	0	43	0	475004928	61	5028
2026-01-29 00:17:58.44	349.01	44.70	-44.1	-46.9	16.9	0.00e+00	0	43	0	482344960	59	5083
2026-01-29 00:18:02.51	347.75	45.71	-43.9	-46.9	16.9	0.00e+00	0	43	0	489684992	59	5080
2026-01-29 00:18:06.50	346.43	46.70	-44.0	-46.7	17.1	0.00e+00	0	43	0	497025024	59	4960
2026-01-29 00:18:10.48	345.03	47.71	-43.4	-45.9	17.8	0.00e+00	0	43	0	505413632	58	4791
2026-01-29 00:18:14.45	343.53	48.71	-43.2	-45.8	18.0	0.00e+00	0	43	0	512753664	58	4715
2026-01-29 00:18:18.43	341.93	49.71	-43.6	-46.2	17.5	0.00e+00	0	43	0	520093696	58	4976
2026-01-29 00:18:22.42	340.22	50.72	-42.9	-45.2	18.5	0.00e+00	0	43	0	527433728	57	4681
2026-01-29 00:18:26.40	338.39	51.71	-42.5	-44.9	18.7	0.00e+00	0	43	0	534773760	57	4498
2026-01-29 00:18:30.38	336.44	52.70	-41.1	-43.2	20.1	0.00e+00	0	43	0	542113792	53	4683
2026-01-29 00:18:34.41	334.32	53.67	-42.8	-45.2	18.5	0.00e+00	0	43	0	549453824	56	4949
2026-01-29 00:18:38.86	331.81	54.73	-43.6	-46.3	17.5	0.00e+00	0	43	0	557842432	58	5025
2026-01-29 00:18:42.87	329.39	55.64	-42.3	-44.6	19.0	0.00e+00	0	43	0	566231040	55	4875
2026-01-29 00:18:46.85	326.83	56.51	-42.9	-45.3	18.5	0.00e+00	0	43	0	573571072	57	4706
2026-01-29 00:18:50.97	324.00	57.36	-43.4	-45.9	17.9	0.00e+00	0	43	0	580911104	57	5061
2026-01-29 00:18:54.98	321.09	58.13	-42.6	-44.9	18.7	0.00e+00	0	43	0	588251136	57	4542
2026-01-29 00:18:58.98	318.01	58.83	-42.6	-44.9	18.8	0.00e+00	0	43	0	595591168	56	4779
2026-01-29 00:19:02.96	314.79	59.46	-42.6	-45.0	18.6	0.00e+00	0	43	0	602931200	57	4570
2026-01-29 00:19:06.94	311.42	60.01	-42.3	-44.6	19.0	0.00e+00	0	43	0	611319808	56	4610
2026-01-29 00:19:10.93	307.90	60.47	-44.4	-47.3	16.6	0.00e+00	0	43	0	618659840	60	5006
2026-01-29 00:19:14.92	304.27	60.83	-43.5	-46.2	17.5	0.00e+00	0	43	0	625999872	57	5272
2026-01-29 00:19:19.13	300.34	61.11	-43.0	-45.4	18.3	0.00e+00	0	43	0	633339904	56	5056
2026-01-29 00:19:23.24	296.43	61.25	-41.4	-43.5	19.8	0.00e+00	0	43	0	641728512	54	4597
2026-01-29 00:19:27.25	292.60	61.29	-40.2	-42.2	21.0	0.00e+00	0	43	0	649068544	52	4392
2026-01-29 00:19:31.26	288.77	61.21	-42.0	-44.3	19.2	0.00e+00	0	43	0	656408576	55	4709
2026-01-29 00:19:35.26	284.99	61.02	-40.7	-42.7	20.5	0.00e+00	0	43	0	663748608	53	4434
2026-01-29 00:19:39.26	281.28	60.72	-42.7	-45.2	18.5	0.00e+00	0	43	0	671088640	56	4939
2026-01-29 00:19:43.18	277.75	60.33	-42.1	-44.3	19.1	0.00e+00	0	43	0	678428672	54	5019
2026-01-29 00:19:47.17	274.27	59.84	-42.7	-45.1	18.6	0.00e+00	0	43	0	686817280	56	4889
2026-01-29 00:19:51.15	270.94	59.26	-44.1	-46.9	16.8	0.00e+00	0	43	0	694157312	60	4813
2026-01-29 00:19:55.76	267.28	58.50	-42.6	-45.0	18.6	0.00e+00	0	43	0	702545920	55	5105
2026-01-29 00:19:59.94	264.15	57.72	-41.7	-43.9	19.4	0.00e+00	0	43	0	709885952	54	4810
2026-01-29 00:20:03.94	261.32	56.92	-40.8	-42.8	20.5	0.00e+00	0	43	0	717225984	53	4465
2026-01-29 00:20:07.93	258.67	56.07	-42.8	-45.3	18.3	0.00e+00	0	43	0	725614592	56	4989
2026-01-29 00:20:11.91	256.18	55.18	-43.2	-45.7	18.0	0.00e+00	0	43	0	732954624	57	4952
2026-01-29 00:20:15.92	253.83	54.25	-42.8	-45.1	18.5	0.00e+00	0	43	0	740294656	56	4909
2026-01-29 00:20:20.11	251.54	53.24	-43.1	-45.5	18.1	0.00e+00	0	43	0	747634688	57	4834
2026-01-29 00:20:24.33	249.38	52.21	-42.3	-44.6	18.9	0.00e+00	0	43	0	756023296	55	4909
2026-01-29 00:20:28.31	247.49	51.22	-40.9	-42.9	20.3	0.00e+00	0	43	0	763363328	53	4540
2026-01-29 00:20:32.29	245.71	50.21	-44.4	-47.3	16.5	0.00e+00	0	43	0	770703360	59	5291
2026-01-29 00:20:36.27	244.05	49.21	-44.0	-46.8	17.0	0.00e+00	0	43	0	778043392	59	4992
2026-01-29 00:20:40.23	242.51	48.20	-46.4	-50.5	13.2	3.73e-05	0	43	0	785383424	64	5775
2026-01-29 00:20:44.28	241.03	47.18	-45.0	-48.3	15.5	0.00e+00	0	43	0	793772032	61	5331
2026-01-29 00:20:48.26	239.67	46.17	-45.0	-48.2	15.7	0.00e+00	0	43	0	801112064	61	5229
2026-01-29 00:20:52.26	238.38	45.17	-43.6	-46.2	17.5	0.00e+00	0	43	0	808452096	58	4938
2026-01-29 00:20:56.53	237.10	44.12	-45.0	-48.1	15.7	0.00e+00	0	43	0	816840704	61	5213
2026-01-29 00:21:00.51	235.98	43.14	-43.9	-46.5	17.3	0.00e+00	0	43	0	824180736	59	4827
2026-01-29 00:21:04.49	234.92	42.18	-44.0	-46.6	17.1	0.00e+00	0	43	0	831520768	59	4918
2026-01-29 00:21:08.47	233.93	41.24	-44.4	-47.2	16.5	0.00e+00	0	43	0	838860800	59	5263
2026-01-29 00:21:12.45	232.99	40.31	-45.1	-48.3	15.5	7.00e-07	0	43	0	846200832	61	5311
2026-01-29 00:21:16.43	232.10	39.39	-45.0	-48.0	15.8	0.00e+00	0	43	0	853540864	61	5135
2026-01-29 00:21:20.54	231.24	38.46	-44.7	-47.5	16.3	0.00e+00	0	43	0	860880896	60	5157
2026-01-29 00:21:24.52	230.45	37.58	-45.4	-48.6	15.1	0.00e+00	0	43	0	869269504	61	5528
2026-01-29 00:21:28.51	229.70	36.71	-44.2	-46.9	16.8	0.00e+00	0	43	0	876609536	59	5092
2026-01-29 00:21:32.49	228.99	35.86	-45.2	-48.6	15.3	0.00e+00	0	43	0	883949568	62	5173
2026-01-29 00:21:36.47	228.31	35.03	-45.3	-48.5	15.3	0.00e+00	0	43	0	891289600	61	5459
2026-01-29 00:21:40.45	227.67	34.22	-43.2	-45.7	17.9	0.00e+00	0	43	0	898629632	58	4664
2026-01-29 00:21:44.42	227.06	33.42	-44.5	-47.4	16.3	0.00e+00	0	43	0	905969664	60	5070
2026-01-29 00:21:48.40	226.48	32.64	-44.5	-47.5	16.3	0.00e+00	0	43	0	913309696	59	5410
2026-01-29 00:21:52.38	225.93	31.88	-45.4	-48.8	14.9	0.00e+00	0	43	0	920649728	62	5333
2026-01-29 00:21:56.37	225.40	31.13	-44.1	-46.9	16.8	0.00e+00	0	43	0	929038336	59	5094
2026-01-29 00:22:00.35	224.90	30.40	-43.6	-46.2	17.4	0.00e+00	0	43	0	936378368	59	4700
2026-01-29 00:22:04.33	224.42	29.68	-44.4	-47.4	16.3	0.00e+00	0	43	0	943718400	59	5357
2026-01-29 00:22:08.45	223.94	28.96	-44.9	-48.1	15.6	0.00e+00	0	43	0	951058432	61	5173
2026-01-29 00:22:12.43	223.51	28.27	-44.5	-47.5	16.3	0.00e+00	0	43	0	958398464	60	5133
2026-01-29 00:22:16.41	223.08	27.60	-44.0	-46.8	16.9	0.00e+00	0	43	0	965738496	59	4993
2026-01-29 00:22:20.39	222.68	26.95	-43.5	-46.1	17.5	0.00e+00	0	43	0	973078528	58	4877
2026-01-29 00:22:24.51	222.28	26.28	-44.6	-47.6	16.1	0.00e+00	0	43	0	981467136	60	5192
2026-01-29 00:22:28.76	221.89	25.61	-45.0	-48.3	15.5	0.00e+00	0	43	0	988807168	61	5291
2026-01-29 00:22:32.74	221.53	25.00	-44.7	-47.7	15.9	0.00e+00	0	43	0	997195776	60	5269
2026-01-29 00:22:36.75	221.19	24.39	-44.2	-47.1	16.5	0.00e+00	0	43	0	1004535808	60	4898
2026-01-29 00:22:41.01	220.84	23.76	-43.8	-46.5	17.1	0.00e+00	0	43	0	1011875840	59	4842
2026-01-29 00:22:44.99	220.52	23.19	-43.8	-46.5	17.0	0.00e+00	0	43	0	1019215872	59	4865
2026-01-29 00:22:48.99	220.22	22.62	-43.2	-45.7	17.8	0.00e+00	0	43	0	1027604480	58	4701
2026-01-29 00:22:52.98	219.92	22.07	-42.7	-45.1	18.3	0.00e+00	0	43	0	1034944512	57	4645
2026-01-29 00:22:57.26	219.62	21.48	-43.7	-46.4	17.1	0.00e+00	0	43	0	1042284544	57	5355
2026-01-29 00:23:01.25	219.35	20.95	-44.5	-47.6	16.0	0.00e+00	0	43	0	1050673152	59	5491
2026-01-29 00:23:05.23	219.09	20.43	-45.0	-48.3	15.3	0.00e+00	0	43	0	1058013184	60	5626
2026-01-29 00:23:09.22	218.84	19.92	-44.8	-48.0	15.6	0.00e+00	0	43	0	1065353216	60	5431
2026-01-29 00:23:13.20	218.59	19.42	-44.1	-47.0	16.5	0.00e+00	0	43	0	1072693248	60	4862
2026-01-29 00:23:17.20	218.35	18.93	-43.4	-46.0	17.5	0.00e+00	0	43	0	1080033280	58	4862
2026-01-29 00:23:21.50	218.11	18.41	-42.6	-45.0	18.4	0.00e+00	0	43	0	1088421888	57	4583
2026-01-29 00:23:25.74	217.87	17.91	-42.4	-44.7	18.7	0.00e+00	0	43	0	1095761920	56	4676
2026-01-29 00:23:29.83	217.65	17.43	-43.1	-45.6	17.8	0.00e+00	0	43	0	1104150528	56	5170
2026-01-29 00:23:34.11	217.43	16.94	-43.7	-46.4	17.0	0.00e+00	0	43	0	1111490560	58	5075
2026-01-29 00:23:38.13	217.23	16.49	-43.7	-46.5	16.9	0.00e+00	0	43	0	1118830592	58	5123
2026-01-29 00:23:42.22	217.03	16.04	-43.6	-46.3	17.1	0.00e+00	0	43	0	1127219200	58	5028
2026-01-29 00:23:46.22	216.85	15.61	-43.8	-46.5	17.0	0.00e+00	0	43	0	1134559232	58	5151
2026-01-29 00:23:50.18	216.66	15.18	-43.9	-46.7	16.6	0.00e+00	0	43	0	1141899264	58	5273
2026-01-29 00:23:54.16	216.49	14.77	-44.1	-47.0	16.1	0.00e+00	0	43	0	1149239296	59	5144
2026-01-29 00:23:58.17	216.32	14.35	-44.6	-47.7	15.7	0.00e+00	0	43	0	1156579328	59	5547
2026-01-29 00:24:02.15	216.15	13.95	-44.4	-47.4	15.9	0.00e+00	0	43	0	1163919360	60	5087
2026-01-29 00:24:06.15	215.99	13.55	-44.0	-46.9	16.4	0.00e+00	0	43	0	1172307968	59	5067
2026-01-29 00:24:10.13	215.83	13.16	-43.5	-46.2	17.1	0.00e+00	0	43	0	1179648000	58	4969
2026-01-29 00:24:14.19	215.67	12.77	-43.1	-45.6	17.6	0.00e+00	0	43	0	1186988032	58	4643
2026-01-29 00:24:18.61	215.51	12.35	-43.1	-45.7	17.5	0.00e+00	0	43	0	1195376640	57	4971
2026-01-29 00:24:22.59	215.37	11.97	-43.0	-45.6	17.6	0.00e+00	0	43	0	1202716672	57	4905
2026-01-29 00:24:26.73	215.22	11.59	-43.6	-46.3	16.9	0.00e+00	0	43	0	1210056704	57	5330
2026-01-29 00:24:31.16	215.07	11.19	-43.9	-46.7	16.5	0.00e+00	0	43	0	1218445312	58	5264
2026-01-29 00:24:35.33	214.93	10.82	-44.2	-47.2	16.0	0.00e+00	0	43	0	1226833920	59	5260
2026-01-29 00:24:39.31	214.80	10.46	-44.4	-47.5	15.8	0.00e+00	0	43	0	1234173952	59	5417
2026-01-29 00:24:43.29	214.68	10.12	-44.3	-47.4	15.8	0.00e+00	0	43	0	1241513984	59	5363
2026-01-29 00:24:47.28	214.55	9.78	-44.4	-47.4	15.8	0.00e+00	0	43	0	1248854016	59	5391
2026-01-29 00:24:51.26	214.43	9.44	-44.2	-47.2	15.9	0.00e+00	0	43	0	1256194048	59	5269
2026-01-29 00:24:55.24	214.32	9.11	-44.5	-47.6	15.5	0.00e+00	0	43	0	1263534080	59	5524
2026-01-29 00:24:59.22	214.20	8.78	-45.4	-62.8	3.8	1.49e+00	0	43	104	1266679808	63	25207
2026-01-29 00:25:03.21	214.09	8.45	-49.3	-64.6	3.8	1.49e+00	0	43	104	1266679808	69	21812
2026-01-29 00:25:07.43	213.98	8.11	-49.5	-64.7	3.8	1.49e+00	0	43	104	1266679808	69	22030
2026-01-29 00:25:11.53	213.87	7.79	-49.4	-64.7	3.8	1.49e+00	0	43	104	1266679808	69	22198
2026-01-29 00:25:15.51	213.77	7.47	-49.3	-64.7	3.8	1.49e+00	0	43	104	1266679808	69	22145
2026-01-29 00:25:19.49	213.67	7.17	-49.3	-64.7	3.8	1.49e+00	0	43	104	1266679808	69	22019
2026-01-29 00:25:23.50	213.57	6.86	-49.2	-64.5	3.8	1.49e+00	0	43	104	1266679808	69	21741
2026-01-29 00:25:27.49	213.47	6.56	-49.2	-64.6	3.8	1.49e+00	0	43	104	1266679808	69	21801
2026-01-29 00:25:31.46	213.38	6.26	-49.2	-64.5	3.8	1.49e+00	0	43	104	1266679808	69	21704
2026-01-29 00:25:35.43	213.28	5.96	-49.2	-64.6	3.8	1.49e+00	0	43	104	1266679808	69	21829
2026-01-29 00:25:39.42	213.19	5.67	-49.2	-64.6	3.8	1.49e+00	0	43	104	1266679808	69	21808
2026-01-29 00:25:43.40	213.11	5.38	-49.2	-64.5	3.8	1.49e+00	0	43	104	1266679808	69	21650
2026-01-29 00:25:47.38	213.02	5.10	-49.2	-64.5	3.8	1.49e+00	0	43	104	1266679808	69	21645

#Closed at: 2026-01-29 00:25:50
#Recorded file [1266 MB]: D:/Data/31040_260129_031303.dat