passes_logs/2026/01/29/T1/T1__20260129_221418_SUOMI_NPP_rec.log

#Pass ID: 20260129_221418_SUOMI NPP
#Satellite: SUOMI NPP
#Configuration: NPP
#almurnet v.1.7.20251203
#Start time: 2026-01-29 22:14:19

#Version: 2.0.20230620
#Station: T1
#Location: 37.570604 lon 55.790049 lat
#TLE: 1 37849U 11061A   26028.91916408  .00000155  00000+0  94467-4 0  9990
#TLE: 2 37849  98.7824 330.8488 0002045  39.4457 320.6868 14.19531289738686

#Time	Az	El	Level	Level2	SNR	BER	BlckErr	Temp	State	Recorded	gain1	gain2
2026-01-29 22:14:19.55	30.01	5.07	-50.4	-64.6	3.8	1.49e+00	0	41	0	0	71	19598
2026-01-29 22:14:22.55	30.28	5.24	-50.4	-64.6	3.8	1.49e+00	0	41	104	0	72	18500
2026-01-29 22:14:25.55	30.55	5.41	-50.4	-64.6	3.8	1.49e+00	0	41	104	0	72	18404
2026-01-29 22:14:28.55	30.82	5.59	-50.4	-64.5	3.8	1.49e+00	0	41	104	0	72	18283
2026-01-29 22:14:31.56	31.10	5.76	-50.2	-64.4	3.8	1.49e+00	0	41	104	0	72	17922
2026-01-29 22:14:34.57	31.38	5.94	-49.8	-64.1	3.8	1.49e+00	0	41	104	0	71	18480
2026-01-29 22:14:37.57	31.66	6.12	-49.7	-64.0	3.8	1.49e+00	0	42	104	0	71	18240
2026-01-29 22:14:40.58	31.95	6.30	-49.7	-64.0	3.8	1.49e+00	0	42	104	0	71	18129
2026-01-29 22:14:43.58	32.24	6.47	-49.7	-64.0	3.8	1.49e+00	0	42	104	0	71	18116
2026-01-29 22:14:46.58	32.53	6.65	-49.7	-63.9	3.8	1.49e+00	0	42	104	0	71	18089
2026-01-29 22:14:49.59	32.83	6.83	-49.7	-64.0	3.8	1.49e+00	0	42	104	0	71	18173
2026-01-29 22:14:52.59	33.12	7.01	-49.7	-64.0	3.8	1.49e+00	0	42	104	0	71	18229
2026-01-29 22:14:55.60	33.43	7.19	-49.7	-64.0	3.8	1.49e+00	0	42	104	0	71	18128
2026-01-29 22:14:58.60	33.74	7.38	-49.7	-63.9	3.8	1.49e+00	0	42	104	0	71	17994
2026-01-29 22:15:01.61	34.05	7.56	-49.7	-63.8	3.8	1.49e+00	0	42	104	0	71	17859
2026-01-29 22:15:04.61	34.36	7.74	-49.6	-63.4	3.8	1.49e+00	0	42	104	0	71	16981
2026-01-29 22:15:07.61	34.68	7.92	-49.6	-63.3	3.8	1.49e+00	0	43	104	0	71	16832
2026-01-29 22:15:10.61	35.00	8.11	-49.7	-63.8	3.8	1.49e+00	0	42	104	0	71	17767
2026-01-29 22:15:13.61	35.33	8.29	-49.6	-63.9	3.8	1.49e+00	0	42	104	0	71	17978
2026-01-29 22:15:16.61	35.66	8.48	-49.7	-64.0	3.8	1.49e+00	0	43	104	0	71	18118
2026-01-29 22:15:19.61	35.99	8.66	-49.6	-64.0	3.8	1.49e+00	0	43	104	0	71	18171
2026-01-29 22:15:22.62	36.33	8.85	-49.7	-63.8	3.8	1.49e+00	0	43	104	0	71	17725
2026-01-29 22:15:25.62	36.67	9.04	-49.2	-58.2	5.1	8.44e-01	0	43	0	1048576	70	9906
2026-01-29 22:15:28.62	37.02	9.22	-48.7	-55.6	6.8	1.49e+00	0	43	104	4194304	69	7779
2026-01-29 22:15:31.62	37.37	9.41	-45.3	-47.7	15.1	0.00e+00	0	43	0	6291456	62	4705
2026-01-29 22:15:34.63	37.72	9.60	-45.0	-47.2	15.5	0.00e+00	0	43	0	12582912	61	4690
2026-01-29 22:15:37.63	38.08	9.79	-44.7	-46.9	15.9	0.00e+00	0	43	0	17825792	60	4778
2026-01-29 22:15:40.63	38.45	9.98	-44.4	-46.5	16.3	0.00e+00	0	43	0	23068672	60	4582
2026-01-29 22:15:43.63	38.82	10.17	-44.5	-46.7	16.1	0.00e+00	0	43	0	29360128	60	4653
2026-01-29 22:15:46.63	39.19	10.36	-44.4	-46.3	16.5	0.00e+00	0	43	0	34603008	60	4471
2026-01-29 22:15:49.63	39.57	10.55	-43.9	-45.7	17.0	0.00e+00	0	43	0	39845888	59	4409
2026-01-29 22:15:52.63	39.95	10.74	-44.1	-45.9	16.8	0.00e+00	0	43	0	46137344	59	4518
2026-01-29 22:15:55.64	40.34	10.93	-44.2	-46.0	16.7	0.00e+00	0	43	0	51380224	59	4593
2026-01-29 22:15:58.64	40.73	11.12	-44.2	-46.1	16.7	0.00e+00	0	43	0	56623104	59	4614
2026-01-29 22:16:01.64	41.13	11.31	-44.3	-46.2	16.6	0.00e+00	0	43	0	62914560	59	4682
2026-01-29 22:16:04.65	41.53	11.51	-44.5	-46.5	16.3	0.00e+00	0	43	0	68157440	59	4823
2026-01-29 22:16:07.65	41.94	11.70	-44.2	-46.1	16.6	0.00e+00	0	43	0	74448896	59	4638
2026-01-29 22:16:10.65	42.35	11.89	-44.2	-46.1	16.7	0.00e+00	0	43	0	79691776	59	4611
2026-01-29 22:16:13.65	42.77	12.09	-44.3	-46.1	16.7	0.00e+00	0	43	0	84934656	59	4642
2026-01-29 22:16:16.65	43.19	12.28	-44.1	-45.8	17.0	0.00e+00	0	43	0	91226112	59	4490
2026-01-29 22:16:19.64	43.62	12.47	-43.8	-45.5	17.3	0.00e+00	0	43	0	96468992	59	4318
2026-01-29 22:16:22.64	44.05	12.66	-43.6	-45.2	17.6	0.00e+00	0	43	0	101711872	58	4400
2026-01-29 22:16:25.64	44.49	12.86	-43.4	-45.0	17.7	0.00e+00	0	43	0	108003328	58	4311
2026-01-29 22:16:28.63	44.94	13.05	-43.4	-44.9	17.9	0.00e+00	0	43	0	113246208	58	4283
2026-01-29 22:16:31.63	45.39	13.24	-43.4	-44.9	17.9	0.00e+00	0	43	0	118489088	58	4265
2026-01-29 22:16:34.64	45.85	13.44	-43.4	-45.0	17.8	0.00e+00	0	43	0	124780544	58	4309
2026-01-29 22:16:37.64	46.31	13.63	-43.6	-45.2	17.6	0.00e+00	0	43	0	130023424	58	4396
2026-01-29 22:16:40.65	46.78	13.83	-43.5	-45.0	17.8	0.00e+00	0	43	0	136314880	58	4327
2026-01-29 22:16:43.65	47.25	14.02	-43.6	-45.2	17.6	0.00e+00	0	43	0	141557760	58	4438
2026-01-29 22:16:46.65	47.73	14.21	-43.8	-45.5	17.3	0.00e+00	0	43	0	146800640	58	4568
2026-01-29 22:16:49.65	48.22	14.40	-44.0	-45.7	17.2	0.00e+00	0	43	0	153092096	58	4668
2026-01-29 22:16:52.65	48.71	14.59	-43.7	-45.3	17.5	0.00e+00	0	43	0	158334976	58	4453
2026-01-29 22:16:55.66	49.21	14.79	-43.4	-44.9	17.9	0.00e+00	0	43	0	163577856	58	4287
2026-01-29 22:16:58.66	49.72	14.98	-43.6	-45.2	17.8	0.00e+00	0	43	0	169869312	58	4420
2026-01-29 22:17:01.66	50.23	15.17	-43.6	-45.2	17.6	0.00e+00	0	43	0	175112192	58	4409
2026-01-29 22:17:04.66	50.75	15.36	-43.3	-44.8	18.1	0.00e+00	0	43	0	181403648	58	4197
2026-01-29 22:17:07.66	51.27	15.55	-43.0	-44.5	18.3	0.00e+00	0	43	0	186646528	57	4316
2026-01-29 22:17:10.66	51.80	15.73	-43.1	-44.5	18.3	0.00e+00	0	43	0	191889408	57	4325
2026-01-29 22:17:13.65	52.34	15.92	-42.9	-44.3	18.5	0.00e+00	0	43	0	198180864	57	4231
2026-01-29 22:17:16.66	52.89	16.11	-43.1	-44.6	18.2	0.00e+00	0	43	0	203423744	57	4344
2026-01-29 22:17:19.65	53.43	16.29	-43.1	-44.5	18.2	0.00e+00	0	43	0	208666624	57	4336
2026-01-29 22:17:22.65	53.99	16.48	-43.1	-44.6	18.2	0.00e+00	0	43	0	214958080	57	4360
2026-01-29 22:17:25.65	54.56	16.66	-42.9	-44.3	18.5	0.00e+00	0	43	0	220200960	57	4200
2026-01-29 22:17:28.66	55.13	16.84	-43.0	-44.4	18.5	0.00e+00	0	43	0	225443840	57	4259
2026-01-29 22:17:31.66	55.71	17.02	-43.4	-45.0	17.9	0.00e+00	0	43	0	231735296	57	4547
2026-01-29 22:17:34.66	56.29	17.20	-43.4	-44.9	17.9	0.00e+00	0	43	0	236978176	57	4507
2026-01-29 22:17:37.67	56.88	17.38	-43.2	-44.7	18.2	0.00e+00	0	43	0	243269632	57	4394
2026-01-29 22:17:40.67	57.48	17.56	-43.5	-45.1	17.8	0.00e+00	0	43	0	248512512	57	4626
2026-01-29 22:17:43.67	58.09	17.73	-43.8	-45.5	17.5	0.00e+00	0	43	0	253755392	58	4567
2026-01-29 22:17:46.67	58.70	17.90	-43.9	-45.6	17.4	0.00e+00	0	43	0	260046848	58	4600
2026-01-29 22:17:49.67	59.32	18.07	-44.4	-46.2	16.7	0.00e+00	0	43	0	265289728	59	4680
2026-01-29 22:17:52.67	59.94	18.24	-44.4	-46.3	16.7	0.00e+00	0	43	0	270532608	59	4706
2026-01-29 22:17:55.68	60.58	18.41	-44.5	-46.4	16.5	0.00e+00	0	43	0	276824064	59	4813
2026-01-29 22:17:58.68	61.21	18.57	-44.8	-46.8	16.2	0.00e+00	0	44	0	282066944	60	4740
2026-01-29 22:18:01.68	61.86	18.73	-44.7	-46.7	16.4	0.00e+00	0	43	0	287309824	60	4669
2026-01-29 22:18:04.69	62.51	18.89	-44.9	-47.0	16.1	0.00e+00	0	43	0	293601280	60	4815
2026-01-29 22:18:07.69	63.17	19.05	-44.6	-46.6	16.4	0.00e+00	0	43	0	298844160	60	4625
2026-01-29 22:18:10.69	63.84	19.20	-44.3	-46.2	16.9	0.00e+00	0	43	0	305135616	60	4404
2026-01-29 22:18:13.69	64.51	19.35	-44.6	-46.6	16.5	0.00e+00	0	44	0	310378496	60	4603
2026-01-29 22:18:16.69	65.19	19.50	-43.8	-45.3	17.6	0.00e+00	0	43	0	315621376	59	4232
2026-01-29 22:18:19.69	65.87	19.64	-43.7	-45.2	17.7	0.00e+00	0	43	0	321912832	58	4426
2026-01-29 22:18:22.69	66.57	19.78	-44.0	-45.7	17.2	0.00e+00	0	43	0	327155712	58	4695
2026-01-29 22:18:25.69	67.26	19.92	-43.6	-45.1	17.8	0.00e+00	0	44	0	332398592	58	4375
2026-01-29 22:18:28.69	67.97	20.05	-43.5	-45.1	17.8	0.00e+00	0	43	0	338690048	58	4350
2026-01-29 22:18:31.70	68.68	20.19	-43.7	-45.3	17.7	0.00e+00	0	43	0	343932928	58	4463
2026-01-29 22:18:34.70	69.39	20.31	-42.9	-44.2	18.6	0.00e+00	0	44	0	350224384	57	4185
2026-01-29 22:18:37.70	70.12	20.44	-42.9	-44.3	18.5	0.00e+00	0	44	0	355467264	57	4234
2026-01-29 22:18:40.71	70.84	20.56	-42.9	-44.2	18.6	0.00e+00	0	43	0	360710144	57	4186
2026-01-29 22:18:43.71	71.58	20.67	-43.2	-44.7	18.2	0.00e+00	0	43	0	367001600	57	4412
2026-01-29 22:18:46.71	72.31	20.78	-43.3	-44.8	18.0	0.00e+00	0	43	0	372244480	57	4481
2026-01-29 22:18:49.71	73.06	20.89	-42.8	-44.2	18.7	0.00e+00	0	43	0	377487360	57	4153
2026-01-29 22:18:52.71	73.81	20.99	-42.8	-44.2	18.7	0.00e+00	0	43	0	383778816	57	4162
2026-01-29 22:18:55.70	74.56	21.09	-42.7	-44.0	18.8	0.00e+00	0	44	0	389021696	57	4096
2026-01-29 22:18:58.69	75.31	21.18	-43.2	-44.6	18.3	0.00e+00	0	43	0	394264576	57	4361
2026-01-29 22:19:01.70	76.07	21.27	-42.7	-44.0	18.8	0.00e+00	0	44	0	400556032	57	4094
2026-01-29 22:19:04.70	76.84	21.35	-43.0	-44.4	18.3	0.00e+00	0	43	0	405798912	57	4280
2026-01-29 22:19:07.70	77.61	21.43	-43.6	-45.2	17.7	0.00e+00	0	43	0	412090368	58	4439
2026-01-29 22:19:10.69	78.38	21.51	-43.0	-44.5	18.4	0.00e+00	0	43	0	417333248	58	4062
2026-01-29 22:19:13.70	79.16	21.58	-43.7	-45.3	17.7	0.00e+00	0	43	0	422576128	58	4444
2026-01-29 22:19:16.69	79.94	21.64	-43.4	-44.9	18.1	0.00e+00	0	43	0	428867584	58	4264
2026-01-29 22:19:19.69	80.72	21.70	-43.3	-44.8	18.2	0.00e+00	0	43	0	434110464	58	4194
2026-01-29 22:19:22.69	81.51	21.75	-43.3	-44.8	18.1	0.00e+00	0	43	0	439353344	58	4212
2026-01-29 22:19:25.69	82.30	21.80	-42.9	-44.4	18.5	0.00e+00	0	43	0	445644800	57	4250
2026-01-29 22:19:28.69	83.09	21.84	-43.5	-45.1	17.8	0.00e+00	0	43	0	450887680	57	4623
2026-01-29 22:19:31.68	83.88	21.88	-43.1	-44.6	18.3	0.00e+00	0	44	0	456130560	57	4349
2026-01-29 22:19:34.68	84.68	21.91	-43.8	-45.5	17.4	0.00e+00	0	44	0	462422016	58	4592
2026-01-29 22:19:37.68	85.47	21.94	-44.3	-46.1	16.9	0.00e+00	0	44	0	467664896	59	4641
2026-01-29 22:19:40.68	86.27	21.96	-44.0	-45.8	17.2	0.00e+00	0	43	0	473956352	59	4445
2026-01-29 22:19:43.68	87.07	21.97	-43.3	-44.9	18.1	0.00e+00	0	44	0	479199232	58	4248
2026-01-29 22:19:46.68	87.87	21.98	-43.5	-45.2	17.7	0.00e+00	0	43	0	484442112	58	4405
2026-01-29 22:19:49.69	88.67	21.98	-43.8	-45.5	17.5	0.00e+00	0	43	0	490733568	58	4555
2026-01-29 22:19:52.69	89.47	21.98	-43.4	-44.9	18.0	0.00e+00	0	43	0	495976448	58	4287
2026-01-29 22:19:55.69	90.27	21.97	-43.2	-44.6	18.3	0.00e+00	0	43	0	501219328	58	4125
2026-01-29 22:19:58.69	91.07	21.96	-42.9	-44.3	18.6	0.00e+00	0	43	0	507510784	57	4197
2026-01-29 22:20:01.69	91.87	21.94	-42.8	-44.2	18.7	0.00e+00	0	43	0	512753664	57	4176
2026-01-29 22:20:04.70	92.67	21.92	-43.1	-44.6	18.3	0.00e+00	0	43	0	519045120	57	4366
2026-01-29 22:20:07.70	93.47	21.89	-43.0	-44.4	18.4	0.00e+00	0	43	0	524288000	57	4289
2026-01-29 22:20:10.70	94.26	21.85	-43.1	-44.6	18.4	0.00e+00	0	43	0	529530880	57	4342
2026-01-29 22:20:13.70	95.06	21.81	-43.3	-44.8	18.1	0.00e+00	0	43	0	535822336	57	4481
2026-01-29 22:20:16.70	95.85	21.76	-43.1	-44.5	18.4	0.00e+00	0	43	0	541065216	57	4305
2026-01-29 22:20:19.70	96.64	21.71	-43.5	-45.0	17.9	0.00e+00	0	44	0	546308096	57	4583
2026-01-29 22:20:22.70	97.42	21.65	-43.3	-44.8	18.2	0.00e+00	0	43	0	552599552	58	4194
2026-01-29 22:20:25.70	98.21	21.59	-42.8	-44.1	18.7	0.00e+00	0	43	0	557842432	57	4125
2026-01-29 22:20:28.71	98.99	21.52	-43.0	-44.5	18.4	0.00e+00	0	44	0	563085312	57	4306
2026-01-29 22:20:31.71	99.76	21.45	-42.7	-44.0	18.9	0.00e+00	0	43	0	569376768	57	4084
2026-01-29 22:20:34.71	100.54	21.37	-42.5	-43.8	19.1	0.00e+00	0	43	0	574619648	56	4209
2026-01-29 22:20:37.71	101.31	21.29	-42.8	-44.2	18.7	0.00e+00	0	43	0	580911104	56	4420
2026-01-29 22:20:40.71	102.07	21.20	-42.6	-43.9	19.0	0.00e+00	0	43	0	586153984	56	4269
2026-01-29 22:20:43.71	102.83	21.11	-42.7	-44.0	18.9	0.00e+00	0	43	0	591396864	56	4327
2026-01-29 22:20:46.71	103.59	21.01	-43.0	-44.5	18.5	0.00e+00	0	43	0	597688320	56	4562
2026-01-29 22:20:49.71	104.34	20.91	-42.7	-44.1	18.8	0.00e+00	0	43	0	602931200	56	4387
2026-01-29 22:20:52.71	105.08	20.81	-42.5	-43.8	19.0	0.00e+00	0	43	0	608174080	56	4220
2026-01-29 22:20:55.71	105.83	20.70	-42.2	-43.5	19.4	0.00e+00	0	43	0	614465536	56	4075
2026-01-29 22:20:58.70	106.56	20.58	-42.4	-43.7	19.1	0.00e+00	0	44	0	619708416	56	4192
2026-01-29 22:21:01.70	107.29	20.46	-42.6	-44.0	18.9	0.00e+00	0	44	0	624951296	56	4301
2026-01-29 22:21:04.70	108.01	20.34	-42.5	-43.8	19.0	0.00e+00	0	43	0	631242752	56	4227
2026-01-29 22:21:07.71	108.74	20.21	-42.7	-44.1	18.7	0.00e+00	0	43	0	636485632	56	4388
2026-01-29 22:21:10.71	109.45	20.08	-43.2	-44.6	18.3	0.00e+00	0	43	0	642777088	57	4378
2026-01-29 22:21:13.72	110.16	19.95	-42.5	-43.8	19.0	0.00e+00	0	43	0	648019968	56	4196
2026-01-29 22:21:16.73	110.86	19.81	-42.3	-43.6	19.2	0.00e+00	0	43	0	653262848	56	4139
2026-01-29 22:21:19.74	111.56	19.67	-43.2	-44.7	18.2	0.00e+00	0	44	0	659554304	56	4676
2026-01-29 22:21:22.75	112.25	19.52	-44.3	-46.2	16.8	0.00e+00	0	44	0	664797184	59	4698
2026-01-29 22:21:25.76	112.94	19.37	-44.2	-46.0	17.0	0.00e+00	0	43	0	670040064	59	4576
2026-01-29 22:21:28.76	113.61	19.22	-43.9	-45.6	17.4	0.00e+00	0	43	0	676331520	59	4343
2026-01-29 22:21:31.77	114.28	19.07	-43.8	-45.4	17.5	0.00e+00	0	43	0	681574400	59	4289
2026-01-29 22:21:34.78	114.95	18.91	-43.6	-45.2	17.7	0.00e+00	0	43	0	687865856	59	4180
2026-01-29 22:21:37.79	115.61	18.75	-43.5	-45.0	17.8	0.00e+00	0	44	0	693108736	59	4079
2026-01-29 22:21:40.79	116.26	18.59	-43.4	-44.9	18.0	0.00e+00	0	44	0	698351616	58	4246
2026-01-29 22:21:43.80	116.90	18.43	-44.1	-45.8	17.2	0.00e+00	0	44	0	704643072	58	4735
2026-01-29 22:21:46.81	117.54	18.26	-44.8	-46.9	16.1	0.00e+00	0	44	0	709885952	60	4772
2026-01-29 22:21:49.83	118.17	18.09	-44.3	-46.1	16.8	0.00e+00	0	44	0	715128832	60	4384
2026-01-29 22:21:52.83	118.80	17.92	-43.6	-45.2	17.7	0.00e+00	0	43	0	721420288	58	4401
2026-01-29 22:21:55.84	119.41	17.74	-44.3	-46.0	16.9	0.00e+00	0	43	0	726663168	59	4595
2026-01-29 22:21:58.86	120.03	17.57	-44.1	-45.8	17.2	0.00e+00	0	44	0	732954624	59	4461
2026-01-29 22:22:01.86	120.63	17.39	-43.7	-45.2	17.6	0.00e+00	0	44	0	738197504	59	4186
2026-01-29 22:22:04.87	121.22	17.21	-43.9	-45.6	17.3	0.00e+00	0	44	0	743440384	59	4372
2026-01-29 22:22:07.88	121.81	17.03	-43.6	-45.2	17.7	0.00e+00	0	44	0	749731840	59	4169
2026-01-29 22:22:10.89	122.40	16.85	-43.5	-45.1	17.8	0.00e+00	0	44	0	754974720	58	4359
2026-01-29 22:22:13.90	122.97	16.67	-44.2	-46.0	16.9	0.00e+00	0	44	0	761266176	59	4590
2026-01-29 22:22:16.91	123.54	16.48	-43.7	-45.3	17.5	0.00e+00	0	44	0	766509056	59	4235
2026-01-29 22:22:19.92	124.11	16.29	-42.9	-44.3	18.6	0.00e+00	0	44	0	771751936	57	4202
2026-01-29 22:22:22.93	124.66	16.11	-43.4	-44.9	18.0	0.00e+00	0	44	0	778043392	57	4532
2026-01-29 22:22:25.93	125.21	15.92	-43.8	-45.4	17.5	0.00e+00	0	44	0	783286272	58	4513
2026-01-29 22:22:28.94	125.75	15.73	-43.8	-45.5	17.4	0.00e+00	0	44	0	788529152	58	4569
2026-01-29 22:22:31.95	126.29	15.54	-44.2	-46.0	16.9	0.00e+00	0	44	0	794820608	59	4549
2026-01-29 22:22:34.96	126.82	15.35	-44.2	-46.0	16.9	0.00e+00	0	44	0	800063488	59	4562
2026-01-29 22:22:37.97	127.34	15.16	-43.4	-44.9	18.0	0.00e+00	0	44	0	806354944	58	4265
2026-01-29 22:22:40.98	127.85	14.96	-43.0	-44.4	18.4	0.00e+00	0	44	0	811597824	58	4033
2026-01-29 22:22:43.99	128.36	14.77	-43.5	-45.0	17.8	0.00e+00	0	44	0	816840704	57	4592
2026-01-29 22:22:47.00	128.87	14.58	-43.3	-44.8	18.0	0.00e+00	0	44	0	823132160	58	4235
2026-01-29 22:22:50.01	129.36	14.38	-42.6	-44.0	18.7	0.00e+00	0	44	0	828375040	57	4096
2026-01-29 22:22:53.02	129.86	14.19	-42.7	-44.1	18.7	0.00e+00	0	44	0	833617920	56	4353
2026-01-29 22:22:56.03	130.34	13.99	-43.5	-45.2	17.7	0.00e+00	0	44	0	839909376	57	4653
2026-01-29 22:22:59.04	130.82	13.80	-43.4	-45.1	17.7	0.00e+00	0	44	0	845152256	57	4600
2026-01-29 22:23:02.05	131.29	13.60	-44.0	-45.8	17.1	0.00e+00	0	44	0	851443712	58	4721
2026-01-29 22:23:05.06	131.76	13.41	-44.5	-46.5	16.4	0.00e+00	0	44	0	856686592	59	4845
2026-01-29 22:23:08.07	132.22	13.21	-44.3	-46.2	16.6	0.00e+00	0	44	0	861929472	59	4677
2026-01-29 22:23:11.08	132.67	13.02	-43.6	-45.2	17.6	0.00e+00	0	44	0	868220928	59	4156
2026-01-29 22:23:14.09	133.12	12.82	-43.5	-45.0	17.7	0.00e+00	0	44	0	873463808	58	4336
2026-01-29 22:23:17.10	133.56	12.62	-43.8	-45.5	17.3	0.00e+00	0	44	0	879755264	58	4563
2026-01-29 22:23:20.10	134.00	12.43	-44.2	-46.0	16.8	0.00e+00	0	44	0	884998144	59	4596
2026-01-29 22:23:23.11	134.43	12.23	-44.1	-45.9	16.9	0.00e+00	0	44	0	890241024	59	4504
2026-01-29 22:23:26.13	134.86	12.04	-44.3	-46.2	16.6	0.00e+00	0	44	0	896532480	59	4676
2026-01-29 22:23:29.13	135.28	11.84	-44.6	-46.6	16.2	0.00e+00	0	44	0	901775360	59	4908
2026-01-29 22:23:32.15	135.69	11.65	-44.3	-46.3	16.5	0.00e+00	0	44	0	907018240	60	4444
2026-01-29 22:23:35.16	136.10	11.45	-43.6	-45.3	17.4	0.00e+00	0	44	0	913309696	59	4204
2026-01-29 22:23:38.17	136.51	11.26	-43.4	-45.0	17.7	0.00e+00	0	44	0	918552576	58	4316
2026-01-29 22:23:41.18	136.91	11.06	-43.7	-45.4	17.3	0.00e+00	0	44	0	924844032	58	4529
2026-01-29 22:23:44.19	137.30	10.87	-44.1	-45.9	16.9	0.00e+00	0	43	0	930086912	58	4762
2026-01-29 22:23:47.20	137.69	10.67	-44.0	-45.7	17.0	0.00e+00	0	43	0	935329792	58	4691
2026-01-29 22:23:50.21	138.08	10.48	-44.0	-45.7	17.0	0.00e+00	0	43	0	941621248	58	4702
2026-01-29 22:23:53.21	138.46	10.29	-44.4	-46.3	16.4	0.00e+00	0	44	0	946864128	59	4756
2026-01-29 22:23:56.22	138.83	10.09	-44.7	-46.8	15.9	0.00e+00	0	44	0	952107008	60	4741
2026-01-29 22:23:59.23	139.20	9.90	-44.7	-46.8	15.9	0.00e+00	0	44	0	958398464	60	4751
2026-01-29 22:24:02.23	139.56	9.71	-44.2	-46.2	16.5	0.00e+00	0	44	0	963641344	60	4397
2026-01-29 22:24:05.25	139.93	9.52	-44.3	-46.2	16.5	0.00e+00	0	44	0	969932800	60	4430
2026-01-29 22:24:08.26	140.28	9.33	-44.4	-46.5	16.2	0.00e+00	0	43	0	975175680	60	4554
2026-01-29 22:24:11.26	140.63	9.14	-44.6	-46.7	15.9	0.00e+00	0	43	0	980418560	60	4687
2026-01-29 22:24:14.28	140.98	8.95	-49.8	-63.6	3.8	8.20e-01	0	44	104	985661440	70	18488
2026-01-29 22:24:17.29	141.32	8.76	-50.2	-64.5	3.8	1.49e+00	0	43	104	985661440	71	19202
2026-01-29 22:24:20.30	141.66	8.57	-50.4	-64.6	3.8	1.49e+00	0	44	104	985661440	71	19539
2026-01-29 22:24:23.31	142.00	8.38	-50.5	-64.7	3.8	1.49e+00	0	44	104	985661440	71	19717
2026-01-29 22:24:26.33	142.33	8.19	-50.6	-64.8	3.8	1.49e+00	0	44	104	985661440	71	19963
2026-01-29 22:24:29.34	142.66	8.01	-50.5	-64.8	3.8	1.49e+00	0	44	104	985661440	71	19886
2026-01-29 22:24:32.35	142.98	7.82	-50.3	-64.8	3.8	1.49e+00	0	44	104	985661440	71	19950
2026-01-29 22:24:35.36	143.30	7.64	-50.6	-64.8	3.8	1.49e+00	0	44	104	985661440	71	20062
2026-01-29 22:24:38.38	143.61	7.45	-50.6	-64.8	3.8	1.49e+00	0	44	104	985661440	72	18831
2026-01-29 22:24:41.39	143.92	7.27	-50.4	-64.8	3.8	1.49e+00	0	44	104	985661440	72	18846
2026-01-29 22:24:44.40	144.23	7.08	-50.5	-64.8	3.8	1.49e+00	0	44	104	985661440	72	18803
2026-01-29 22:24:47.41	144.53	6.90	-50.0	-64.7	3.8	1.49e+00	0	44	104	985661440	72	18684
2026-01-29 22:24:50.42	144.83	6.72	-50.1	-64.6	3.8	1.49e+00	0	44	104	985661440	71	19573
2026-01-29 22:24:53.43	145.13	6.53	-50.1	-64.4	3.8	1.49e+00	0	44	104	985661440	71	19049
2026-01-29 22:24:56.45	145.42	6.35	-49.8	-64.1	3.8	1.49e+00	0	44	104	985661440	71	18455
2026-01-29 22:24:59.46	145.71	6.17	-49.8	-64.1	3.8	1.49e+00	0	44	104	985661440	71	18430
2026-01-29 22:25:02.47	146.00	5.99	-49.8	-64.1	3.8	1.49e+00	0	44	104	985661440	71	18469
2026-01-29 22:25:05.48	146.28	5.81	-49.8	-64.1	3.8	1.49e+00	0	44	104	985661440	71	18387
2026-01-29 22:25:08.50	146.56	5.63	-49.8	-64.1	3.8	1.49e+00	0	44	104	985661440	71	18411
2026-01-29 22:25:11.51	146.83	5.46	-49.8	-64.1	3.8	1.49e+00	0	44	104	985661440	71	18446
2026-01-29 22:25:14.52	147.11	5.28	-49.8	-64.1	3.8	1.49e+00	0	44	104	985661440	71	18338
2026-01-29 22:25:17.53	147.38	5.10	-49.8	-64.1	3.8	1.49e+00	0	44	104	985661440	71	18356

#Closed at: 2026-01-29 22:25:20
#Recorded file [985 MB]: D:/Data/31040_260130_011419.dat