passes_logs/2026/01/29/T1/T1__20260129_110535_AQUA_rec.log

#Pass ID: 20260129_110535_AQUA
#Satellite: AQUA
#Configuration: AQUA
#almurnet v.1.7.20251203
#Start time: 2026-01-29 11:05:37

#Version: 2.0.20230620
#Station: T1
#Location: 37.570604 lon 55.790049 lat
#TLE: 1 27424U 02022A   26027.96263068  .00001625  00000+0  33481-3 0  9997
#TLE: 2 27424  98.4102 354.6095 0001839  63.4368   7.7786 14.61867353262782

#Time	Az	El	Level	Level2	SNR	BER	BlckErr	Temp	State	Recorded	gain1	gain2
2026-01-29 11:05:37.78	140.33	5.16	-51.0	-71.7	3.8	7.46e-01	0	41	0	0	73	39492
2026-01-29 11:05:40.76	140.21	5.38	-51.6	-71.8	3.8	7.48e-01	0	41	104	0	74	37440
2026-01-29 11:05:43.74	140.08	5.61	-51.3	-71.7	3.8	7.45e-01	0	41	104	0	74	37194
2026-01-29 11:05:46.72	139.96	5.83	-50.8	-71.6	3.8	7.46e-01	0	41	104	0	73	39106
2026-01-29 11:05:49.70	139.83	6.06	-51.2	-71.5	3.8	7.49e-01	0	41	104	0	73	38322
2026-01-29 11:05:52.68	139.70	6.29	-50.7	-71.0	3.8	7.40e-01	0	41	104	0	73	36205
2026-01-29 11:05:55.65	139.57	6.52	-50.7	-68.6	4.0	7.46e-01	0	41	104	0	73	27479
2026-01-29 11:05:58.64	139.43	6.75	-50.7	-70.8	3.8	7.47e-01	0	41	104	0	73	35618
2026-01-29 11:06:01.62	139.30	6.99	-50.7	-69.9	3.8	7.48e-01	0	42	104	0	73	32023
2026-01-29 11:06:04.60	139.15	7.22	-50.6	-66.9	4.3	7.31e-01	0	41	104	0	73	22735
2026-01-29 11:06:07.58	139.01	7.46	-50.2	-61.5	8.0	6.45e-01	0	42	0	2097152	72	12915
2026-01-29 11:06:10.56	138.87	7.71	-48.8	-54.9	14.9	6.10e-01	0	42	0	7864320	69	7200
2026-01-29 11:06:13.54	138.72	7.95	-46.6	-50.5	19.3	6.08e-01	0	42	0	13631488	65	5431
2026-01-29 11:06:16.52	138.57	8.20	-45.5	-48.7	21.1	6.08e-01	0	42	0	18874368	63	4971
2026-01-29 11:06:19.50	138.41	8.45	-46.0	-49.5	20.3	6.06e-01	0	42	0	24641536	62	5777
2026-01-29 11:06:22.48	138.26	8.70	-47.9	-52.8	17.0	6.07e-01	0	42	0	30408704	66	6715
2026-01-29 11:06:25.46	138.09	8.96	-50.1	-60.1	9.8	6.28e-01	0	42	0	35651584	70	12353
2026-01-29 11:06:28.44	137.93	9.22	-49.5	-56.7	13.9	6.11e-01	0	42	0	41418752	69	8827
2026-01-29 11:06:31.42	137.76	9.48	-48.7	-54.3	15.6	6.07e-01	0	42	0	44040192	68	7065
2026-01-29 11:06:34.40	137.59	9.74	-46.6	-50.4	19.4	6.09e-01	0	42	0	49807360	65	5358
2026-01-29 11:06:37.39	137.42	10.01	-44.9	-48.0	21.9	6.07e-01	0	42	0	55574528	61	5110
2026-01-29 11:06:40.37	137.24	10.28	-44.5	-47.3	22.5	6.10e-01	0	42	0	60817408	61	4735
2026-01-29 11:06:43.35	137.06	10.55	-44.2	-46.9	23.0	6.07e-01	0	42	0	66584576	59	5068
2026-01-29 11:06:46.34	136.87	10.83	-43.8	-46.4	23.5	6.04e-01	0	42	0	72351744	59	4782
2026-01-29 11:06:49.32	136.69	11.11	-43.6	-46.2	23.8	6.06e-01	0	42	0	77594624	59	4668
2026-01-29 11:06:52.59	136.47	11.42	-43.5	-46.1	23.9	6.05e-01	0	42	0	83886080	59	4602
2026-01-29 11:06:55.71	136.27	11.72	-43.4	-46.0	24.0	6.07e-01	0	43	0	89653248	58	4824
2026-01-29 11:06:58.55	136.07	11.99	-43.3	-45.8	24.1	6.08e-01	0	42	0	95420416	58	4744
2026-01-29 11:07:01.67	135.86	12.30	-43.3	-45.8	24.1	6.05e-01	0	42	0	101187584	58	4744
2026-01-29 11:07:04.83	135.63	12.61	-43.1	-45.6	24.3	6.08e-01	0	42	0	106954752	58	4621
2026-01-29 11:07:07.70	135.42	12.90	-43.1	-45.6	24.3	6.08e-01	0	42	0	112197632	58	4610
2026-01-29 11:07:11.07	135.17	13.25	-43.0	-45.4	24.5	6.07e-01	0	43	0	118489088	57	4775
2026-01-29 11:07:13.80	134.96	13.53	-43.1	-45.6	24.3	6.08e-01	0	43	0	123731968	57	4898
2026-01-29 11:07:17.07	134.71	13.87	-43.0	-45.4	24.5	6.08e-01	0	43	0	130023424	57	4812
2026-01-29 11:07:19.88	134.49	14.17	-43.0	-45.5	24.5	6.07e-01	0	43	0	135266304	57	4852
2026-01-29 11:07:23.00	134.23	14.51	-43.0	-45.4	24.5	6.08e-01	0	43	0	141033472	57	4807
2026-01-29 11:07:25.85	133.99	14.82	-43.0	-45.4	24.5	6.06e-01	0	43	0	146276352	57	4806
2026-01-29 11:07:28.97	133.72	15.16	-43.1	-45.5	24.5	6.08e-01	0	43	0	152043520	57	4853
2026-01-29 11:07:31.82	133.47	15.48	-42.8	-45.2	24.7	6.05e-01	0	42	0	157286400	57	4693
2026-01-29 11:07:34.94	133.19	15.83	-42.8	-45.2	24.8	6.06e-01	0	42	0	163577856	57	4677
2026-01-29 11:07:37.78	132.93	16.16	-42.7	-45.1	24.9	6.05e-01	0	43	0	168820736	57	4642
2026-01-29 11:07:41.07	132.62	16.54	-42.7	-45.1	24.9	6.06e-01	0	43	0	175112192	57	4599
2026-01-29 11:07:43.94	132.34	16.88	-42.6	-45.0	25.0	6.09e-01	0	43	0	180355072	57	4587
2026-01-29 11:07:47.07	132.03	17.26	-42.7	-45.2	24.9	6.06e-01	0	43	0	186122240	57	4652
2026-01-29 11:07:49.91	131.73	17.61	-42.9	-45.3	24.7	6.08e-01	0	43	0	191365120	57	4723
2026-01-29 11:07:53.03	131.41	17.99	-42.8	-45.1	24.9	6.07e-01	0	43	0	197132288	57	4641
2026-01-29 11:07:55.88	131.10	18.35	-43.0	-45.4	24.7	6.07e-01	0	43	0	202375168	57	4788
2026-01-29 11:07:59.00	130.75	18.74	-43.1	-45.5	24.6	6.07e-01	0	43	0	208666624	57	4851
2026-01-29 11:08:01.85	130.43	19.11	-42.9	-45.4	24.7	6.06e-01	0	43	0	213909504	57	4768
2026-01-29 11:08:04.97	130.06	19.52	-42.9	-45.3	24.7	6.07e-01	0	43	0	219676672	57	4729
2026-01-29 11:08:07.82	129.72	19.90	-42.9	-45.3	24.8	6.07e-01	0	43	0	224919552	57	4730
2026-01-29 11:08:10.96	129.33	20.32	-43.0	-45.4	24.7	6.06e-01	0	43	0	230686720	57	4772
2026-01-29 11:08:13.86	128.96	20.72	-43.1	-45.5	24.6	6.09e-01	0	43	0	236453888	57	4851
2026-01-29 11:08:17.06	128.54	21.16	-43.1	-45.5	24.7	6.06e-01	0	43	0	242221056	57	4821
2026-01-29 11:08:19.90	128.16	21.56	-43.2	-45.6	24.5	6.06e-01	0	43	0	247463936	57	4895
2026-01-29 11:08:23.02	127.72	22.00	-43.2	-45.7	24.4	6.09e-01	0	43	0	253755392	57	4951
2026-01-29 11:08:25.87	127.31	22.42	-43.2	-45.7	24.4	6.05e-01	0	43	0	258998272	57	4942
2026-01-29 11:08:29.06	126.84	22.89	-43.1	-45.6	24.5	6.08e-01	0	43	0	264765440	57	4903
2026-01-29 11:08:31.91	126.41	23.31	-43.0	-45.3	24.8	6.06e-01	0	43	0	270008320	57	4754
2026-01-29 11:08:35.03	125.92	23.78	-43.1	-45.5	24.7	6.06e-01	0	43	0	275775488	57	4828
2026-01-29 11:08:37.87	125.46	24.22	-43.3	-45.7	24.1	6.07e-01	0	43	0	281542656	57	4980
2026-01-29 11:08:41.02	124.93	24.71	-43.4	-45.9	24.3	6.07e-01	0	43	0	287309824	57	5059
2026-01-29 11:08:43.92	124.43	25.17	-43.3	-45.7	24.4	6.05e-01	0	43	0	292552704	57	4968
2026-01-29 11:08:47.05	123.88	25.67	-42.9	-45.2	24.9	6.07e-01	0	43	0	298844160	57	4700
2026-01-29 11:08:49.89	123.36	26.13	-43.1	-45.6	24.7	6.08e-01	0	43	0	304087040	57	4871
2026-01-29 11:08:53.02	122.76	26.65	-43.3	-45.7	24.5	6.09e-01	0	43	0	309854208	57	4954
2026-01-29 11:08:55.89	122.20	27.13	-43.1	-45.4	24.7	6.08e-01	0	43	0	315097088	57	4799
2026-01-29 11:08:59.02	121.56	27.66	-43.0	-45.3	24.8	6.06e-01	0	43	0	320864256	57	4750
2026-01-29 11:09:01.86	120.97	28.14	-42.8	-45.1	25.0	6.06e-01	0	43	0	326631424	57	4619
2026-01-29 11:09:04.98	120.29	28.69	-42.6	-45.0	25.2	6.05e-01	0	43	0	332398592	57	4562
2026-01-29 11:09:07.83	119.65	29.19	-42.6	-45.0	25.2	6.07e-01	0	43	0	337641472	56	4851
2026-01-29 11:09:10.96	118.93	29.74	-42.6	-45.0	25.2	6.06e-01	0	43	0	343408640	56	4820
2026-01-29 11:09:13.80	118.25	30.25	-42.3	-44.5	25.5	6.06e-01	0	43	0	348651520	56	4598
2026-01-29 11:09:16.93	117.47	30.82	-42.5	-44.8	25.3	6.06e-01	0	43	0	354418688	56	4755
2026-01-29 11:09:19.78	116.73	31.35	-42.7	-45.0	25.2	6.08e-01	0	43	0	360185856	56	4853
2026-01-29 11:09:23.08	115.85	31.96	-42.4	-44.7	25.5	6.06e-01	0	43	0	365953024	56	4684
2026-01-29 11:09:25.92	115.07	32.49	-42.7	-45.1	25.2	6.05e-01	0	43	0	371720192	56	4892
2026-01-29 11:09:29.05	114.17	33.08	-42.8	-45.1	25.1	6.07e-01	0	43	0	377487360	56	4898
2026-01-29 11:09:31.89	113.32	33.62	-42.8	-45.2	25.0	6.05e-01	0	43	0	382730240	56	4950
2026-01-29 11:09:35.02	112.36	34.21	-43.2	-45.6	24.7	6.08e-01	0	43	0	388497408	57	4912
2026-01-29 11:09:37.88	111.44	34.76	-43.3	-45.6	24.6	6.06e-01	0	43	0	393740288	57	4922
2026-01-29 11:09:41.09	110.38	35.38	-43.4	-45.9	24.4	6.07e-01	0	43	0	400031744	57	5067
2026-01-29 11:09:43.94	109.40	35.93	-43.8	-46.3	24.0	6.07e-01	0	43	0	405274624	58	5030
2026-01-29 11:09:47.02	108.30	36.52	-43.8	-46.3	24.0	6.08e-01	0	43	0	411041792	58	5014
2026-01-29 11:09:50.00	107.20	37.09	-44.2	-46.7	23.7	6.06e-01	0	43	0	416808960	59	4972
2026-01-29 11:09:52.99	106.05	37.67	-44.0	-46.6	23.8	6.06e-01	0	43	0	422051840	59	4892
2026-01-29 11:09:55.97	104.86	38.24	-44.5	-47.1	23.3	6.07e-01	0	43	0	427819008	59	5187
2026-01-29 11:09:58.96	103.63	38.80	-44.3	-47.0	23.4	6.07e-01	0	43	0	433586176	59	5149
2026-01-29 11:10:01.95	102.35	39.36	-44.3	-47.0	23.4	6.05e-01	0	43	0	438829056	59	5138
2026-01-29 11:10:04.93	101.03	39.92	-44.4	-47.0	23.5	6.05e-01	0	43	0	444596224	59	5105
2026-01-29 11:10:07.91	99.67	40.46	-44.5	-47.2	23.1	6.07e-01	0	43	0	450363392	60	4945
2026-01-29 11:10:10.99	98.21	41.01	-44.1	-46.7	23.8	6.04e-01	0	43	0	456130560	59	4948
2026-01-29 11:10:13.94	96.77	41.53	-44.0	-46.5	23.9	6.06e-01	0	43	0	461373440	59	4865
2026-01-29 11:10:16.93	95.25	42.03	-44.0	-46.6	23.8	6.01e-01	0	43	0	467140608	59	4883
2026-01-29 11:10:19.92	93.69	42.53	-43.6	-46.1	24.2	6.06e-01	0	43	0	472907776	59	4640
2026-01-29 11:10:22.90	92.08	43.00	-43.8	-46.4	24.0	6.07e-01	0	43	0	478150656	59	4773
2026-01-29 11:10:25.93	90.40	43.46	-43.8	-46.3	24.1	6.09e-01	0	43	0	483917824	59	4758
2026-01-29 11:10:28.87	88.73	43.89	-43.7	-46.3	24.1	6.06e-01	0	43	0	489684992	59	4736
2026-01-29 11:10:31.86	86.97	44.30	-43.5	-46.1	24.3	6.06e-01	0	43	0	494927872	59	4635
2026-01-29 11:10:34.84	85.18	44.68	-43.6	-46.2	24.2	6.07e-01	0	43	0	500695040	58	4937
2026-01-29 11:10:37.89	83.31	45.04	-43.8	-46.4	24.0	6.06e-01	0	43	0	506462208	58	5052
2026-01-29 11:10:40.74	81.51	45.35	-43.6	-46.1	24.3	6.05e-01	0	43	0	511705088	58	4890
2026-01-29 11:10:43.87	79.51	45.66	-43.7	-46.2	24.2	6.07e-01	0	43	0	517472256	58	4954
2026-01-29 11:10:46.71	77.65	45.90	-43.4	-45.8	24.6	6.06e-01	0	43	0	522715136	58	4753
2026-01-29 11:10:49.84	75.58	46.14	-43.9	-46.4	24.0	6.07e-01	0	43	0	529006592	58	5071
2026-01-29 11:10:52.68	73.67	46.32	-43.8	-46.3	24.1	6.06e-01	0	43	0	534249472	58	5020
2026-01-29 11:10:55.81	71.55	46.47	-43.7	-46.2	24.2	6.07e-01	0	43	0	540016640	58	4937
2026-01-29 11:10:58.83	69.48	46.58	-43.6	-46.1	24.3	6.06e-01	0	43	0	545783808	58	4877
2026-01-29 11:11:01.95	67.33	46.66	-43.5	-46.0	24.4	6.07e-01	0	43	0	551550976	58	4829
2026-01-29 11:11:04.79	65.37	46.68	-43.7	-46.1	24.3	6.07e-01	0	43	0	556793856	58	4912
2026-01-29 11:11:07.92	63.20	46.67	-43.5	-45.9	24.5	6.07e-01	0	43	0	562561024	58	4805
2026-01-29 11:11:10.80	61.22	46.62	-43.4	-45.8	24.6	6.06e-01	0	43	0	568328192	58	4712
2026-01-29 11:11:14.11	58.94	46.52	-43.5	-46.0	24.5	6.07e-01	0	43	0	574095360	58	4815
2026-01-29 11:11:16.83	57.09	46.40	-43.5	-45.9	24.5	6.08e-01	0	43	0	579338240	58	4774
2026-01-29 11:11:20.10	54.89	46.21	-43.7	-46.2	24.2	6.07e-01	0	43	0	585629696	58	4930
2026-01-29 11:11:22.80	53.09	46.02	-43.3	-45.7	24.7	6.06e-01	0	43	0	590872576	58	4690
2026-01-29 11:11:26.21	50.85	45.74	-43.2	-45.6	24.8	6.04e-01	0	43	0	597164032	58	4636
2026-01-29 11:11:29.30	48.86	45.45	-42.9	-45.3	25.1	6.04e-01	0	43	0	602931200	57	4724
2026-01-29 11:11:32.14	47.07	45.15	-43.4	-45.8	24.6	6.08e-01	0	43	0	608174080	57	4987
2026-01-29 11:11:35.30	45.11	44.78	-43.4	-45.9	24.4	6.06e-01	0	43	0	613941248	57	5075
2026-01-29 11:11:38.14	43.40	44.43	-43.2	-45.7	24.7	6.07e-01	0	43	0	619184128	57	4929
2026-01-29 11:11:41.47	41.44	43.98	-42.9	-45.2	25.2	6.07e-01	0	43	0	625475584	57	4667
2026-01-29 11:11:44.38	39.77	43.57	-42.9	-45.2	25.1	6.04e-01	0	43	0	631242752	57	4680
2026-01-29 11:11:47.89	37.82	43.04	-43.4	-45.9	24.5	6.05e-01	0	43	0	637534208	57	5077
2026-01-29 11:11:50.59	36.36	42.61	-43.5	-45.9	24.5	6.04e-01	0	43	0	642777088	57	5096
2026-01-29 11:11:53.87	34.65	42.08	-43.3	-45.8	24.6	6.06e-01	0	43	0	649068544	58	4738
2026-01-29 11:11:56.75	33.19	41.59	-44.1	-56.1	3.9	7.42e-01	0	43	104	651165696	58	15473
2026-01-29 11:12:00.05	31.58	41.02	-45.2	-57.8	3.7	7.48e-01	0	43	104	651165696	61	15835
2026-01-29 11:12:03.03	30.17	40.48	-47.2	-60.7	3.8	7.49e-01	0	43	104	651165696	65	17631
2026-01-29 11:12:06.02	28.80	39.94	-45.2	-57.4	3.4	7.61e-01	0	43	104	651165696	62	14218
2026-01-29 11:12:09.00	27.49	39.39	-45.3	-57.2	4.0	7.34e-01	0	43	104	651165696	61	14848
2026-01-29 11:12:11.98	26.22	38.84	-47.7	-61.1	3.9	7.55e-01	0	43	104	651165696	66	17287
2026-01-29 11:12:14.97	24.99	38.27	-45.9	-58.5	3.8	7.48e-01	0	43	104	651165696	63	15348
2026-01-29 11:12:17.95	23.81	37.71	-45.3	-57.6	3.8	7.45e-01	0	43	104	651165696	62	14581
2026-01-29 11:12:20.97	22.65	37.13	-50.9	-71.5	3.8	7.48e-01	0	43	104	651165696	72	40630
2026-01-29 11:12:23.96	21.55	36.56	-50.6	-69.4	3.8	7.48e-01	0	43	104	651165696	72	31996
2026-01-29 11:12:26.94	20.49	35.99	-49.6	-65.2	3.9	7.48e-01	0	43	104	651165696	71	20958
2026-01-29 11:12:29.93	19.46	35.41	-50.9	-71.5	3.7	7.44e-01	0	43	104	651165696	72	40696
2026-01-29 11:12:32.92	18.47	34.84	-44.8	-57.2	3.8	7.45e-01	0	43	104	651165696	61	14773
2026-01-29 11:12:35.94	17.51	34.26	-44.4	-56.4	3.8	7.45e-01	0	43	104	651165696	60	14347
2026-01-29 11:12:38.95	16.58	33.69	-46.0	-58.4	3.8	7.45e-01	0	43	104	651165696	62	16087
2026-01-29 11:12:41.94	15.70	33.13	-44.0	-55.6	3.8	7.43e-01	0	43	104	651165696	59	13744
2026-01-29 11:12:44.92	14.85	32.57	-44.1	-56.3	3.8	7.47e-01	0	43	104	651165696	59	15045
2026-01-29 11:12:47.90	14.02	32.02	-46.0	-58.8	3.8	7.47e-01	0	43	104	651165696	62	16742
2026-01-29 11:12:50.89	13.23	31.46	-44.6	-56.8	3.8	7.45e-01	0	43	104	651165696	61	14174
2026-01-29 11:12:54.06	12.41	30.88	-44.1	-56.2	3.8	7.46e-01	0	43	104	651165696	59	14806
2026-01-29 11:12:56.99	11.68	30.35	-45.4	-58.1	3.9	7.49e-01	0	43	104	651165696	61	16335
2026-01-29 11:13:00.11	10.94	29.80	-43.5	-55.1	3.8	7.43e-01	0	43	104	651165696	59	13023
2026-01-29 11:13:03.03	10.26	29.28	-44.0	-56.0	3.8	7.46e-01	0	43	104	651165696	58	15365
2026-01-29 11:13:06.02	9.60	28.76	-45.3	-57.8	3.8	7.43e-01	0	43	104	651165696	61	15943
2026-01-29 11:13:09.00	8.95	28.24	-46.4	-59.0	3.8	7.48e-01	0	43	104	651165696	64	15370
2026-01-29 11:13:11.98	8.33	27.73	-44.3	-56.4	3.8	7.45e-01	0	43	104	651165696	59	15052
2026-01-29 11:13:14.97	7.73	27.23	-45.1	-57.1	3.8	7.44e-01	0	43	104	651165696	60	15474
2026-01-29 11:13:17.95	7.14	26.73	-44.0	-56.0	3.8	7.45e-01	0	43	104	651165696	59	14515
2026-01-29 11:13:20.94	6.58	26.24	-44.3	-56.1	3.8	7.44e-01	0	43	104	651165696	59	14666
2026-01-29 11:13:23.92	6.03	25.76	-45.0	-57.0	3.8	7.44e-01	0	43	104	651165696	60	15397
2026-01-29 11:13:26.91	5.50	25.28	-44.2	-56.5	3.8	7.47e-01	0	43	104	651165696	59	15325
2026-01-29 11:13:29.99	4.98	24.80	-44.4	-56.2	3.8	7.44e-01	0	43	104	651165696	59	14876
2026-01-29 11:13:32.82	4.50	24.36	-44.3	-56.2	3.8	7.43e-01	0	43	104	651165696	60	14022
2026-01-29 11:13:35.95	4.00	23.88	-43.9	-55.7	3.8	7.46e-01	0	43	104	651165696	59	13915
2026-01-29 11:13:38.88	3.54	23.44	-44.4	-56.5	3.8	7.44e-01	0	43	104	651165696	59	15269
2026-01-29 11:13:42.15	3.05	22.95	-47.6	-60.7	3.8	7.47e-01	0	43	104	651165696	65	17597
2026-01-29 11:13:44.88	2.65	22.55	-46.0	-58.6	3.8	7.44e-01	0	43	104	651165696	63	15469
2026-01-29 11:13:48.17	2.18	22.08	-47.2	-61.1	3.8	7.45e-01	0	43	104	651165696	65	18444
2026-01-29 11:13:51.01	1.79	21.68	-49.9	-70.4	3.7	7.49e-01	0	43	104	651165696	70	40315
2026-01-29 11:13:54.31	1.34	21.21	-44.9	-57.3	3.8	7.42e-01	0	43	104	651165696	61	14880
2026-01-29 11:13:57.23	0.96	20.81	-44.5	-57.2	3.8	7.45e-01	0	43	104	651165696	60	15609
2026-01-29 11:14:00.22	0.58	20.41	-50.0	-69.1	3.8	7.48e-01	0	43	104	651165696	71	32624
2026-01-29 11:14:03.53	0.18	19.96	-49.5	-65.0	3.8	7.46e-01	0	43	104	651165696	71	20464
2026-01-29 11:14:06.25	359.85	19.60	-46.9	-60.3	3.8	7.45e-01	0	43	104	651165696	65	16756
2026-01-29 11:14:09.53	359.47	19.18	-47.7	-62.2	3.9	7.44e-01	0	43	104	651165696	67	18712
2026-01-29 11:14:12.25	359.17	18.83	-44.5	-56.8	3.8	7.47e-01	0	43	104	651165696	61	14060
2026-01-29 11:14:15.64	358.79	18.40	-48.7	-62.9	3.8	7.45e-01	0	43	104	651165696	67	20072
2026-01-29 11:14:18.40	358.50	18.06	-48.6	-64.5	3.9	7.45e-01	0	43	104	651165696	69	21510
2026-01-29 11:14:21.73	358.15	17.65	-43.9	-55.9	3.8	7.45e-01	0	43	104	651165696	59	14250
2026-01-29 11:14:24.43	357.88	17.32	-46.2	-58.9	3.8	7.44e-01	0	44	104	651165696	62	16909
2026-01-29 11:14:27.76	357.55	16.93	-43.6	-55.8	3.8	7.46e-01	0	43	104	651165696	58	14957
2026-01-29 11:14:30.54	357.29	16.60	-43.8	-55.8	3.8	7.45e-01	0	43	104	651165696	58	14926
2026-01-29 11:14:33.87	356.97	16.21	-48.9	-68.7	3.6	7.49e-01	0	43	104	651165696	68	37107
2026-01-29 11:14:36.59	356.73	15.90	-43.8	-55.9	3.8	7.45e-01	0	43	104	651165696	59	14264
2026-01-29 11:14:39.87	356.43	15.53	-43.8	-55.9	3.8	7.46e-01	0	43	104	651165696	59	14308
2026-01-29 11:14:42.59	356.20	15.23	-48.1	-62.8	3.8	7.45e-01	0	43	104	651165696	66	21249
2026-01-29 11:14:45.85	355.92	14.87	-43.7	-55.8	3.8	7.46e-01	0	43	104	651165696	59	14141
2026-01-29 11:14:48.57	355.70	14.58	-43.5	-55.9	3.8	7.43e-01	0	43	104	651165696	59	14266
2026-01-29 11:14:51.84	355.44	14.23	-49.3	-65.8	3.7	7.41e-01	0	43	104	651165696	69	25102
2026-01-29 11:14:54.56	355.22	13.94	-45.6	-58.6	3.8	7.44e-01	0	43	104	651165696	63	15476
2026-01-29 11:14:57.84	354.97	13.60	-43.6	-55.8	3.8	7.43e-01	0	43	104	651165696	59	14103
2026-01-29 11:15:00.60	354.76	13.32	-44.7	-57.6	3.9	7.43e-01	0	43	104	651165696	61	15505
2026-01-29 11:15:04.07	354.51	12.96	-43.6	-56.0	3.8	7.43e-01	0	43	104	651165696	59	14401
2026-01-29 11:15:06.79	354.31	12.69	-44.6	-57.6	3.8	7.46e-01	0	43	104	651165696	59	17458
2026-01-29 11:15:10.18	354.08	12.36	-46.8	-62.5	3.8	7.46e-01	0	43	104	651165696	65	21714
2026-01-29 11:15:12.93	353.89	12.09	-46.7	-62.4	3.8	7.45e-01	0	43	104	651165696	65	21316
2026-01-29 11:15:16.28	353.67	11.76	-46.3	-61.1	3.9	7.48e-01	0	44	104	651165696	64	19577
2026-01-29 11:15:19.26	353.47	11.48	-46.7	-62.6	3.9	7.43e-01	0	43	104	651165696	65	22005
2026-01-29 11:15:22.25	353.28	11.20	-42.7	-56.5	3.8	7.46e-01	0	43	104	651165696	57	17166
2026-01-29 11:15:25.22	353.10	10.92	-41.9	-56.1	3.8	7.46e-01	0	43	104	651165696	55	18463
2026-01-29 11:15:28.84	352.88	10.59	-44.6	-62.2	3.7	7.46e-01	0	43	104	651165696	59	29628
2026-01-29 11:15:31.56	352.72	10.34	-43.0	-56.4	3.8	7.42e-01	0	43	104	651165696	56	17895
2026-01-29 11:15:34.84	352.52	10.05	-43.7	-56.6	3.8	7.45e-01	0	43	104	651165696	58	16401
2026-01-29 11:15:37.57	352.37	9.80	-44.6	-57.9	3.8	7.46e-01	0	43	104	651165696	59	17899
2026-01-29 11:15:41.14	352.17	9.49	-42.8	-56.6	3.8	7.44e-01	0	43	104	651165696	57	17352
2026-01-29 11:15:43.85	352.02	9.26	-42.6	-57.0	3.8	7.46e-01	0	43	104	651165696	56	19289
2026-01-29 11:15:47.14	351.85	8.97	-47.2	-68.6	3.7	7.49e-01	0	44	104	651165696	66	41340
2026-01-29 11:15:50.11	351.69	8.72	-49.1	-71.5	3.8	7.47e-01	0	43	104	651165696	70	45890
2026-01-29 11:15:53.09	351.54	8.47	-50.5	-71.6	3.8	7.44e-01	0	44	104	651165696	71	43554
2026-01-29 11:15:56.07	351.39	8.22	-50.8	-71.5	3.8	7.50e-01	0	44	104	651165696	73	38566
2026-01-29 11:15:59.05	351.24	7.98	-50.1	-71.4	3.8	7.47e-01	0	44	104	651165696	72	40172
2026-01-29 11:16:02.03	351.10	7.73	-50.2	-71.0	3.8	7.47e-01	0	44	104	651165696	72	38586
2026-01-29 11:16:05.01	350.96	7.49	-50.6	-71.1	3.8	7.47e-01	0	43	104	651165696	72	38707
2026-01-29 11:16:07.98	350.82	7.26	-50.2	-71.1	3.8	7.46e-01	0	43	104	651165696	72	38902
2026-01-29 11:16:10.96	350.68	7.02	-50.2	-71.1	3.8	7.46e-01	0	43	104	651165696	72	38881
2026-01-29 11:16:13.94	350.55	6.79	-50.2	-71.1	3.8	7.46e-01	0	43	104	651165696	72	38853
2026-01-29 11:16:16.92	350.42	6.55	-50.2	-71.1	3.8	7.43e-01	0	43	104	651165696	72	38782
2026-01-29 11:16:19.90	350.29	6.32	-50.2	-71.1	3.8	7.48e-01	0	44	104	651165696	72	38817
2026-01-29 11:16:22.88	350.16	6.10	-50.2	-71.1	3.8	7.48e-01	0	43	104	651165696	72	38737
2026-01-29 11:16:25.86	350.04	5.87	-50.1	-71.1	3.8	7.50e-01	0	43	104	651165696	72	38756
2026-01-29 11:16:28.84	349.92	5.65	-50.2	-71.0	3.8	7.46e-01	0	44	104	651165696	72	38641
2026-01-29 11:16:31.82	349.80	5.43	-50.1	-71.0	3.8	7.46e-01	0	43	104	651165696	72	38653
2026-01-29 11:16:34.80	349.68	5.21	-50.1	-71.0	3.8	7.47e-01	0	44	104	651165696	72	38595
2026-01-29 11:16:37.78	349.57	4.99	-50.1	-71.0	3.8	7.45e-01	0	44	104	651165696	72	38554

#Closed at: 2026-01-29 11:16:38
#Recorded file [651 MB]: D:/Data/31040_260129_140537.dat