passes_logs/2026/01/29/T1/T1__20260129_015351_SUOMI_NPP_rec.log

#Pass ID: 20260129_015351_SUOMI NPP
#Satellite: SUOMI NPP
#Configuration: NPP
#almurnet v.1.7.20251203
#Start time: 2026-01-29 01:53:53

#Version: 2.0.20230620
#Station: T1
#Location: 37.570604 lon 55.790049 lat
#TLE: 1 37849U 11061A   26027.86188320  .00000172  00000+0  10275-3 0  9990
#TLE: 2 37849  98.7823 329.8005 0002088  41.4184 318.7150 14.19530883738530

#Time	Az	El	Level	Level2	SNR	BER	BlckErr	Temp	State	Recorded	gain1	gain2
2026-01-29 01:53:53.47	3.87	5.09	-50.0	-65.2	3.8	1.49e+00	0	41	0	0	70	22180
2026-01-29 01:53:56.44	3.58	5.25	-50.1	-65.2	3.8	1.49e+00	0	41	104	0	72	19785
2026-01-29 01:53:59.42	3.27	5.41	-50.0	-65.3	3.8	1.49e+00	0	41	104	0	71	21084
2026-01-29 01:54:02.40	2.97	5.57	-50.0	-65.2	3.8	1.49e+00	0	41	104	0	71	20993
2026-01-29 01:54:05.38	2.66	5.73	-49.7	-65.2	3.8	1.49e+00	0	41	104	0	70	22209
2026-01-29 01:54:08.36	2.35	5.89	-49.8	-65.2	3.8	1.49e+00	0	42	104	0	70	22062
2026-01-29 01:54:11.34	2.04	6.05	-49.6	-65.1	3.8	1.49e+00	0	42	104	0	70	21927
2026-01-29 01:54:14.32	1.72	6.22	-48.9	-64.9	3.8	1.49e+00	0	42	104	0	69	22772
2026-01-29 01:54:17.30	1.40	6.38	-46.8	-64.5	3.8	1.49e+00	0	42	104	0	64	28729
2026-01-29 01:54:20.28	1.07	6.54	-45.5	-64.6	3.8	1.49e+00	0	42	104	0	62	32589
2026-01-29 01:54:23.26	0.74	6.70	-45.5	-64.5	3.8	1.49e+00	0	42	104	0	62	32523
2026-01-29 01:54:26.24	0.41	6.87	-45.4	-64.6	3.8	1.49e+00	0	42	104	0	62	32652
2026-01-29 01:54:29.21	0.07	7.03	-45.4	-64.5	3.8	1.49e+00	0	42	104	0	62	32527
2026-01-29 01:54:32.19	359.73	7.19	-45.4	-64.5	3.8	1.49e+00	0	42	104	0	62	32365
2026-01-29 01:54:35.17	359.39	7.35	-45.4	-64.5	3.8	1.49e+00	0	42	104	0	62	32392
2026-01-29 01:54:38.15	359.04	7.52	-45.5	-64.5	3.8	1.49e+00	0	42	104	0	62	32482
2026-01-29 01:54:41.13	358.68	7.68	-45.4	-64.6	3.8	1.49e+00	0	42	104	0	62	32564
2026-01-29 01:54:44.11	358.33	7.84	-45.4	-64.5	3.8	1.49e+00	0	42	104	0	62	32214
2026-01-29 01:54:47.09	357.97	8.00	-45.4	-64.5	3.8	1.49e+00	0	43	104	0	62	32383
2026-01-29 01:54:50.07	357.60	8.17	-45.4	-64.5	3.8	1.49e+00	0	43	104	0	62	32233
2026-01-29 01:54:53.05	357.23	8.33	-45.4	-63.6	3.8	1.49e+00	0	42	104	0	62	29267
2026-01-29 01:54:56.03	356.86	8.49	-45.4	-62.6	3.9	1.49e+00	0	43	104	0	62	25977
2026-01-29 01:54:59.01	356.48	8.65	-45.3	-60.5	4.3	1.45e+00	0	43	0	0	62	20377
2026-01-29 01:55:01.99	356.10	8.82	-45.0	-56.4	6.8	3.01e-01	0	43	0	5242880	62	12665
2026-01-29 01:55:04.97	355.71	8.98	-44.5	-52.8	10.3	9.97e-03	0	43	0	10485760	60	9496
2026-01-29 01:55:07.95	355.32	9.14	-45.3	-54.3	8.9	7.72e-03	0	43	0	16777216	61	10628
2026-01-29 01:55:10.94	354.92	9.30	-42.6	-48.3	14.8	7.74e-03	0	43	0	19922944	57	6656
2026-01-29 01:55:13.92	354.52	9.46	-42.8	-48.4	14.7	0.00e+00	0	43	0	26214400	57	6786
2026-01-29 01:55:16.91	354.11	9.62	-42.9	-48.3	14.8	7.00e-07	0	43	0	31457280	57	6720
2026-01-29 01:55:19.89	353.70	9.78	-42.8	-47.6	15.5	0.00e+00	0	43	0	36700160	57	6144
2026-01-29 01:55:22.88	353.29	9.94	-43.4	-48.1	15.1	0.00e+00	0	43	0	42991616	57	6520
2026-01-29 01:55:25.82	352.88	10.10	-43.6	-48.2	15.0	0.00e+00	0	43	0	48234496	57	6592
2026-01-29 01:55:28.94	352.43	10.27	-43.6	-48.2	15.0	0.00e+00	0	43	0	53477376	58	6234
2026-01-29 01:55:31.78	352.02	10.42	-43.1	-47.8	15.4	0.00e+00	0	43	0	59768832	58	5977
2026-01-29 01:55:34.91	351.57	10.59	-42.9	-48.2	15.0	0.00e+00	0	43	0	65011712	57	6591
2026-01-29 01:55:37.86	351.14	10.74	-42.8	-48.2	14.9	0.00e+00	0	43	0	70254592	57	6614
2026-01-29 01:55:40.99	350.67	10.91	-43.3	-48.4	14.9	0.00e+00	0	43	0	76546048	57	6729
2026-01-29 01:55:43.83	350.24	11.06	-43.8	-48.4	14.8	0.00e+00	0	43	0	81788928	58	6377
2026-01-29 01:55:46.95	349.77	11.22	-44.3	-49.1	14.1	2.20e-06	0	43	0	88080384	59	6560
2026-01-29 01:55:49.80	349.33	11.37	-44.0	-48.8	14.4	7.00e-07	0	43	0	93323264	59	6287
2026-01-29 01:55:52.93	348.85	11.53	-43.6	-47.9	15.4	0.00e+00	0	43	0	98566144	58	6008
2026-01-29 01:55:55.77	348.40	11.67	-43.6	-48.2	15.0	7.00e-07	0	43	0	103809024	58	6242
2026-01-29 01:55:59.14	347.87	11.85	-43.5	-47.8	15.5	0.00e+00	0	43	0	110100480	58	5982
2026-01-29 01:56:01.84	347.43	11.98	-43.3	-47.3	16.0	0.00e+00	0	43	0	115343360	58	5594
2026-01-29 01:56:05.12	346.90	12.15	-43.4	-47.0	16.2	0.00e+00	0	43	0	121634816	58	5459
2026-01-29 01:56:08.22	346.39	12.30	-43.6	-47.1	16.2	0.00e+00	0	43	0	127926272	58	5480
2026-01-29 01:56:11.23	345.89	12.45	-43.1	-46.4	16.8	0.00e+00	0	43	0	133169152	58	5072
2026-01-29 01:56:14.22	345.39	12.60	-42.8	-45.9	17.1	0.00e+00	0	43	0	138412032	57	5100
2026-01-29 01:56:17.20	344.89	12.74	-43.2	-46.5	16.7	0.00e+00	0	43	0	144703488	57	5460
2026-01-29 01:56:20.25	344.37	12.89	-43.3	-46.7	16.5	0.00e+00	0	43	0	149946368	57	5572
2026-01-29 01:56:23.13	343.87	13.03	-42.7	-45.8	17.5	0.00e+00	0	43	0	155189248	57	5001
2026-01-29 01:56:26.25	343.33	13.17	-42.5	-45.6	17.7	0.00e+00	0	43	0	161480704	56	5178
2026-01-29 01:56:29.10	342.83	13.31	-42.7	-45.9	17.3	0.00e+00	0	43	0	166723584	56	5363
2026-01-29 01:56:32.23	342.27	13.45	-42.6	-45.7	17.5	0.00e+00	0	43	0	173015040	56	5238
2026-01-29 01:56:35.16	341.75	13.58	-42.9	-46.4	16.8	0.00e+00	0	44	0	178257920	56	5715
2026-01-29 01:56:38.29	341.18	13.73	-43.4	-47.1	16.2	0.00e+00	0	43	0	183500800	57	5803
2026-01-29 01:56:41.20	340.65	13.85	-42.7	-45.6	17.6	0.00e+00	0	43	0	189792256	57	4901
2026-01-29 01:56:44.75	340.00	14.01	-42.2	-44.9	18.3	0.00e+00	0	43	0	196083712	56	4776
2026-01-29 01:56:47.53	339.48	14.13	-41.8	-44.8	18.3	0.00e+00	0	43	0	201326592	55	5013
2026-01-29 01:56:50.80	338.87	14.27	-41.8	-44.6	18.4	0.00e+00	0	43	0	207618048	55	4925
2026-01-29 01:56:53.51	338.35	14.38	-42.2	-45.0	18.1	0.00e+00	0	43	0	212860928	55	5117
2026-01-29 01:56:56.80	337.72	14.51	-43.1	-46.2	17.1	0.00e+00	0	43	0	219152384	57	5257
2026-01-29 01:56:59.53	337.20	14.62	-42.7	-45.5	17.7	0.00e+00	0	44	0	223346688	57	4832
2026-01-29 01:57:02.80	336.56	14.75	-42.6	-45.2	18.1	0.00e+00	0	43	0	229638144	56	4954
2026-01-29 01:57:05.50	336.03	14.86	-43.1	-46.1	17.1	0.00e+00	0	43	0	234881024	56	5507
2026-01-29 01:57:08.77	335.39	14.98	-43.0	-45.9	17.4	0.00e+00	0	43	0	241172480	57	5077
2026-01-29 01:57:11.49	334.85	15.08	-42.6	-45.3	17.9	0.00e+00	0	43	0	246415360	57	4730
2026-01-29 01:57:14.76	334.19	15.20	-42.7	-45.4	17.8	0.00e+00	0	43	0	252706816	56	5069
2026-01-29 01:57:17.79	333.58	15.30	-42.8	-45.6	17.7	0.00e+00	0	43	0	257949696	56	5161
2026-01-29 01:57:21.10	332.91	15.41	-42.4	-45.1	18.1	0.00e+00	0	43	0	264241152	56	4900
2026-01-29 01:57:23.99	332.32	15.51	-42.8	-45.5	17.7	0.00e+00	0	43	0	269484032	56	5159
2026-01-29 01:57:27.26	331.64	15.61	-42.5	-45.2	18.0	0.00e+00	0	43	0	275775488	56	4971
2026-01-29 01:57:29.97	331.08	15.70	-42.1	-44.7	18.6	0.00e+00	0	43	0	281018368	56	4655
2026-01-29 01:57:33.26	330.40	15.80	-41.8	-44.3	18.7	0.00e+00	0	44	0	287309824	55	4723
2026-01-29 01:57:36.21	329.78	15.88	-41.9	-44.3	18.7	0.00e+00	0	43	0	292552704	55	4753
2026-01-29 01:57:39.48	329.08	15.97	-42.1	-44.5	18.6	0.00e+00	0	43	0	298844160	55	4862
2026-01-29 01:57:42.40	328.46	16.05	-42.4	-45.1	18.0	0.00e+00	0	43	0	304087040	55	5165
2026-01-29 01:57:46.38	327.61	16.15	-42.3	-45.2	17.9	0.00e+00	0	43	0	311427072	55	5275
2026-01-29 01:57:49.21	327.00	16.22	-42.1	-45.0	18.0	0.00e+00	0	43	0	316669952	55	5101
2026-01-29 01:57:53.19	326.14	16.31	-42.4	-45.4	17.7	0.00e+00	0	43	0	324009984	55	5358
2026-01-29 01:57:56.00	325.53	16.37	-42.7	-45.7	17.5	0.00e+00	0	44	0	329252864	56	5267
2026-01-29 01:57:59.17	324.84	16.43	-43.1	-45.9	17.4	0.00e+00	0	43	0	335544320	56	5393
2026-01-29 01:58:02.02	324.22	16.48	-42.9	-45.5	17.8	0.00e+00	0	44	0	340787200	56	5150
2026-01-29 01:58:05.16	323.53	16.54	-43.0	-45.7	17.6	0.00e+00	0	43	0	347078656	56	5257
2026-01-29 01:58:08.00	322.90	16.59	-42.7	-45.5	17.8	0.00e+00	0	44	0	352321536	56	5126
2026-01-29 01:58:11.13	322.21	16.63	-42.3	-45.1	18.2	0.00e+00	0	43	0	358612992	56	4874
2026-01-29 01:58:13.98	321.57	16.67	-42.5	-45.2	18.1	0.00e+00	0	44	0	363855872	56	4965
2026-01-29 01:58:17.12	320.88	16.71	-43.0	-45.9	17.4	0.00e+00	0	44	0	369098752	56	5361
2026-01-29 01:58:19.97	320.24	16.74	-43.2	-46.3	17.1	0.00e+00	0	44	0	374341632	57	5287
2026-01-29 01:58:23.11	319.54	16.78	-43.3	-46.4	17.0	0.00e+00	0	43	0	380633088	57	5365
2026-01-29 01:58:25.96	318.90	16.80	-43.7	-46.8	16.5	0.00e+00	0	44	0	385875968	58	5326
2026-01-29 01:58:29.08	318.20	16.82	-43.7	-46.9	16.5	0.00e+00	0	43	0	392167424	58	5359
2026-01-29 01:58:31.93	317.56	16.84	-43.1	-46.3	17.0	0.00e+00	0	44	0	397410304	57	5280
2026-01-29 01:58:35.07	316.85	16.85	-42.6	-45.5	17.7	0.00e+00	0	44	0	402653184	57	4858
2026-01-29 01:58:37.92	316.21	16.86	-42.8	-45.6	17.7	0.00e+00	0	44	0	407896064	57	4902
2026-01-29 01:58:41.05	315.50	16.87	-42.7	-45.4	17.8	0.00e+00	0	44	0	414187520	57	4769
2026-01-29 01:58:43.90	314.86	16.87	-42.6	-45.2	18.0	0.00e+00	0	44	0	419430400	56	4975
2026-01-29 01:58:47.02	314.16	16.87	-43.0	-45.8	17.5	0.00e+00	0	44	0	425721856	56	5290
2026-01-29 01:58:49.87	313.52	16.86	-43.0	-45.9	17.4	0.00e+00	0	43	0	430964736	56	5355
2026-01-29 01:58:53.01	312.81	16.85	-43.0	-45.8	17.5	0.00e+00	0	43	0	436207616	56	5301
2026-01-29 01:58:55.88	312.16	16.84	-42.7	-45.4	17.9	0.00e+00	0	44	0	442499072	56	5056
2026-01-29 01:58:59.01	311.46	16.82	-42.9	-45.7	17.5	0.00e+00	0	43	0	447741952	56	5273
2026-01-29 01:59:01.86	310.82	16.80	-43.3	-46.3	17.0	0.00e+00	0	44	0	452984832	57	5306
2026-01-29 01:59:04.99	310.12	16.77	-43.5	-46.6	16.8	0.00e+00	0	44	0	459276288	57	5469
2026-01-29 01:59:07.84	309.48	16.74	-43.8	-46.9	16.5	0.00e+00	0	43	0	464519168	58	5368
2026-01-29 01:59:10.97	308.78	16.70	-43.7	-46.8	16.5	0.00e+00	0	43	0	469762048	58	5309
2026-01-29 01:59:13.81	308.15	16.67	-43.3	-46.3	17.1	0.00e+00	0	44	0	476053504	58	4989
2026-01-29 01:59:16.95	307.45	16.62	-43.3	-46.2	17.0	0.00e+00	0	44	0	481296384	58	4962
2026-01-29 01:59:19.80	306.82	16.58	-43.0	-45.7	17.5	0.00e+00	0	44	0	486539264	57	4977
2026-01-29 01:59:22.93	306.13	16.53	-43.0	-45.7	17.5	0.00e+00	0	44	0	492830720	57	4981
2026-01-29 01:59:25.79	305.50	16.48	-42.7	-45.4	17.9	0.00e+00	0	44	0	498073600	57	4768
2026-01-29 01:59:28.93	304.81	16.42	-42.3	-44.6	18.6	0.00e+00	0	44	0	504365056	56	4640
2026-01-29 01:59:31.78	304.19	16.36	-42.5	-44.9	18.4	0.00e+00	0	44	0	509607936	56	4778
2026-01-29 01:59:34.91	303.51	16.29	-42.7	-45.2	18.1	0.00e+00	0	44	0	514850816	56	4949
2026-01-29 01:59:37.77	302.89	16.23	-42.9	-45.5	17.9	0.00e+00	0	44	0	520093696	56	5109
2026-01-29 01:59:40.90	302.22	16.15	-43.3	-45.9	17.4	0.00e+00	0	44	0	526385152	57	5085
2026-01-29 01:59:43.75	301.61	16.08	-43.3	-45.9	17.4	0.00e+00	0	44	0	531628032	57	5076
2026-01-29 01:59:46.89	300.94	16.00	-43.2	-45.8	17.5	0.00e+00	0	43	0	537919488	57	5035
2026-01-29 01:59:49.74	300.33	15.92	-43.1	-45.7	17.6	0.00e+00	0	44	0	543162368	57	4965
2026-01-29 01:59:52.88	299.67	15.83	-42.9	-45.3	18.0	0.00e+00	0	44	0	548405248	57	4753
2026-01-29 01:59:55.74	299.07	15.75	-42.7	-45.1	18.2	0.00e+00	0	43	0	554696704	57	4616
2026-01-29 01:59:58.88	298.41	15.65	-42.6	-45.0	18.3	0.00e+00	0	44	0	559939584	57	4584
2026-01-29 02:00:01.73	297.82	15.56	-43.1	-45.6	17.7	0.00e+00	0	44	0	565182464	56	5200
2026-01-29 02:00:04.88	297.17	15.46	-43.2	-45.8	17.5	0.00e+00	0	44	0	571473920	57	4988
2026-01-29 02:00:07.74	296.59	15.36	-43.3	-46.0	17.3	0.00e+00	0	44	0	576716800	57	5107
2026-01-29 02:00:10.88	295.95	15.26	-43.8	-46.6	16.8	0.00e+00	0	44	0	583008256	58	5165
2026-01-29 02:00:13.74	295.37	15.15	-43.9	-46.7	16.7	0.00e+00	0	44	0	588251136	58	5240
2026-01-29 02:00:16.88	294.75	15.04	-43.8	-46.6	16.8	0.00e+00	0	44	0	593494016	58	5169
2026-01-29 02:00:19.73	294.18	14.93	-43.4	-46.0	17.4	0.00e+00	0	44	0	598736896	58	4828
2026-01-29 02:00:22.87	293.56	14.82	-43.5	-46.1	17.3	0.00e+00	0	44	0	605028352	58	4903
2026-01-29 02:00:25.74	293.00	14.70	-43.5	-46.1	17.2	0.00e+00	0	44	0	610271232	58	4922
2026-01-29 02:00:28.88	292.39	14.58	-43.0	-45.5	17.8	0.00e+00	0	44	0	616562688	57	4831
2026-01-29 02:00:31.74	291.84	14.46	-42.6	-45.0	18.3	0.00e+00	0	44	0	621805568	57	4566
2026-01-29 02:00:34.89	291.23	14.33	-42.9	-45.4	17.9	0.00e+00	0	44	0	628097024	57	4808
2026-01-29 02:00:37.75	290.69	14.21	-43.1	-45.7	17.6	0.00e+00	0	44	0	633339904	57	4955
2026-01-29 02:00:40.89	290.10	14.08	-43.8	-46.6	16.8	0.00e+00	0	44	0	638582784	58	5177
2026-01-29 02:00:43.75	289.57	13.96	-44.3	-47.3	16.0	0.00e+00	0	44	0	643825664	59	5325
2026-01-29 02:00:46.89	288.99	13.82	-44.1	-47.0	16.3	0.00e+00	0	44	0	650117120	59	5135
2026-01-29 02:00:49.75	288.47	13.69	-43.9	-46.8	16.6	0.00e+00	0	44	0	655360000	59	4992
2026-01-29 02:00:52.89	287.90	13.55	-44.1	-47.0	16.2	0.00e+00	0	44	0	661651456	59	5121
2026-01-29 02:00:55.75	287.39	13.42	-44.1	-46.9	16.4	0.00e+00	0	44	0	666894336	59	5098
2026-01-29 02:00:58.88	286.83	13.27	-43.8	-46.6	16.7	0.00e+00	0	44	0	672137216	59	4889
2026-01-29 02:01:01.74	286.33	13.14	-44.0	-46.9	16.4	0.00e+00	0	44	0	678428672	59	5077
2026-01-29 02:01:04.88	285.78	12.99	-43.8	-46.7	16.7	0.00e+00	0	44	0	683671552	59	4940
2026-01-29 02:01:07.74	285.28	12.85	-43.4	-46.0	17.3	0.00e+00	0	44	0	688914432	58	4845
2026-01-29 02:01:10.88	284.75	12.70	-43.1	-45.7	17.5	0.00e+00	0	44	0	695205888	58	4676
2026-01-29 02:01:13.74	284.26	12.56	-43.7	-46.5	16.8	0.00e+00	0	44	0	700448768	58	5119
2026-01-29 02:01:16.89	283.73	12.41	-44.0	-46.8	16.3	0.00e+00	0	43	0	706740224	59	5033
2026-01-29 02:01:19.75	283.26	12.26	-44.1	-47.0	16.2	0.00e+00	0	44	0	711983104	59	5131
2026-01-29 02:01:22.89	282.74	12.11	-44.1	-46.9	16.3	0.00e+00	0	44	0	717225984	59	5091
2026-01-29 02:01:25.76	282.28	11.96	-44.4	-47.4	15.9	0.00e+00	0	44	0	722468864	59	5373
2026-01-29 02:01:28.90	281.77	11.80	-45.7	-49.6	13.7	2.20e-06	0	44	0	728760320	62	5805
2026-01-29 02:01:31.76	281.32	11.66	-46.5	-51.1	12.2	1.49e-04	0	44	0	734003200	63	6512
2026-01-29 02:01:34.90	280.82	11.49	-46.2	-50.4	12.9	6.56e-05	0	44	0	740294656	63	6024
2026-01-29 02:01:37.77	280.37	11.35	-45.7	-49.5	13.8	4.50e-06	0	44	0	745537536	63	5461
2026-01-29 02:01:40.91	279.89	11.18	-45.3	-48.9	14.4	0.00e+00	0	44	0	751828992	62	5366
2026-01-29 02:01:43.77	279.45	11.03	-44.4	-47.6	15.6	0.00e+00	0	44	0	757071872	60	5194
2026-01-29 02:01:46.92	278.98	10.87	-44.2	-47.2	16.0	0.00e+00	0	44	0	762314752	60	4975
2026-01-29 02:01:49.77	278.55	10.72	-44.4	-47.5	15.7	0.00e+00	0	44	0	767557632	60	5159
2026-01-29 02:01:52.91	278.09	10.55	-44.4	-47.4	15.8	0.00e+00	0	44	0	773849088	60	5098
2026-01-29 02:01:55.78	277.67	10.40	-44.1	-47.1	16.1	0.00e+00	0	44	0	779091968	60	4882
2026-01-29 02:01:58.92	277.22	10.23	-43.8	-46.7	16.4	0.00e+00	0	44	0	785383424	59	4953
2026-01-29 02:02:01.77	276.81	10.08	-43.9	-46.9	16.3	0.00e+00	0	44	0	790626304	59	5048
2026-01-29 02:02:04.91	276.37	9.91	-43.8	-46.8	16.4	0.00e+00	0	44	0	795869184	59	4995
2026-01-29 02:02:07.78	275.97	9.75	-44.0	-47.0	16.1	0.00e+00	0	44	0	802160640	59	5128
2026-01-29 02:02:10.92	275.53	9.58	-44.4	-47.7	15.4	0.00e+00	0	44	0	807403520	59	5530
2026-01-29 02:02:13.78	275.14	9.43	-44.5	-47.8	15.3	0.00e+00	0	44	0	812646400	59	5645
2026-01-29 02:02:16.93	274.72	9.26	-44.1	-47.3	15.8	0.00e+00	0	44	0	818937856	59	5317
2026-01-29 02:02:19.79	274.33	9.10	-44.1	-47.1	15.9	0.00e+00	0	44	0	824180736	59	5207
2026-01-29 02:02:22.93	273.92	8.93	-49.1	-64.4	3.8	1.49e+00	0	44	104	828375040	68	22737
2026-01-29 02:02:25.77	273.55	8.78	-49.2	-64.4	3.8	1.49e+00	0	44	104	828375040	69	21419
2026-01-29 02:02:28.91	273.14	8.61	-49.0	-64.4	3.8	1.49e+00	0	44	104	828375040	69	21319
2026-01-29 02:02:31.75	272.78	8.45	-49.0	-64.3	3.8	1.49e+00	0	44	104	828375040	69	21245
2026-01-29 02:02:34.89	272.39	8.28	-49.0	-64.3	3.8	1.49e+00	0	44	104	828375040	69	21243
2026-01-29 02:02:37.74	272.03	8.12	-49.0	-64.4	3.8	1.49e+00	0	44	104	828375040	69	21277
2026-01-29 02:02:40.87	271.65	7.95	-49.0	-64.4	3.8	1.49e+00	0	44	104	828375040	69	21336
2026-01-29 02:02:43.71	271.30	7.80	-49.0	-64.4	3.8	1.49e+00	0	44	104	828375040	69	21265
2026-01-29 02:02:46.85	270.92	7.63	-49.0	-64.3	3.8	1.49e+00	0	44	104	828375040	69	21171
2026-01-29 02:02:49.69	270.58	7.47	-49.0	-64.3	3.8	1.49e+00	0	44	104	828375040	69	21255
2026-01-29 02:02:52.82	270.21	7.30	-49.0	-64.3	3.8	1.49e+00	0	44	104	828375040	69	21199
2026-01-29 02:02:55.67	269.88	7.14	-49.0	-64.4	3.8	1.49e+00	0	44	104	828375040	69	21393
2026-01-29 02:02:58.81	269.52	6.97	-49.0	-64.3	3.8	1.49e+00	0	44	104	828375040	69	21181
2026-01-29 02:03:01.66	269.20	6.82	-49.0	-64.3	3.8	1.49e+00	0	44	104	828375040	69	21189
2026-01-29 02:03:04.79	268.84	6.65	-49.0	-64.3	3.8	1.49e+00	0	44	104	828375040	69	21219
2026-01-29 02:03:07.64	268.53	6.49	-49.0	-64.3	3.8	1.49e+00	0	44	104	828375040	69	21151
2026-01-29 02:03:10.77	268.18	6.32	-49.0	-64.3	3.8	1.49e+00	0	44	104	828375040	69	21214
2026-01-29 02:03:13.62	267.87	6.16	-49.0	-64.3	3.8	1.49e+00	0	44	104	828375040	69	21192
2026-01-29 02:03:16.75	267.54	5.99	-49.0	-64.3	3.8	1.49e+00	0	44	104	828375040	69	21188
2026-01-29 02:03:19.59	267.24	5.84	-49.0	-64.3	3.8	1.49e+00	0	44	104	828375040	69	21125
2026-01-29 02:03:22.73	266.91	5.67	-49.0	-64.3	3.8	1.49e+00	0	44	104	828375040	69	21119
2026-01-29 02:03:25.57	266.61	5.51	-49.0	-64.3	3.8	1.49e+00	0	44	104	828375040	69	21189
2026-01-29 02:03:28.71	266.29	5.34	-49.0	-64.3	3.8	1.49e+00	0	44	104	828375040	69	21167
2026-01-29 02:03:31.56	266.00	5.19	-49.0	-64.3	3.8	1.49e+00	0	44	104	828375040	69	21240
2026-01-29 02:03:34.69	265.68	5.02	-49.0	-64.3	3.8	1.49e+00	0	44	104	828375040	69	21111

#Closed at: 2026-01-29 02:03:36
#Recorded file [828 MB]: D:/Data/31040_260129_045353.dat