passes_logs/2026/01/29/T1/T1__20260129_021437_NOAA_20_JPSS-1_rec.log

#Pass ID: 20260129_021437_NOAA 20 (JPSS-1)
#Satellite: NOAA 20 (JPSS-1)
#Configuration: NOAA 20
#almurnet v.1.7.20251203
#Start time: 2026-01-29 02:14:37

#Version: 2.0.20230620
#Station: T1
#Location: 37.570604 lon 55.790049 lat
#TLE: 1 43013U 17073A   26027.80586608  .00000156  00000+0  94940-4 0  9998
#TLE: 2 43013  98.7647 328.6108 0000947  21.3465 338.7750 14.19541216424550

#Time	Az	El	Level	Level2	SNR	BER	BlckErr	Temp	State	Recorded	gain1	gain2
2026-01-29 02:14:37.10	1.44	4.98	-49.7	-65.2	3.8	1.49e+00	0	41	0	0	70	22137
2026-01-29 02:14:39.08	1.21	5.07	-50.2	-65.4	3.8	1.49e+00	0	41	104	0	71	21261
2026-01-29 02:14:41.08	0.98	5.16	-50.1	-65.3	3.8	1.49e+00	0	41	104	0	71	21228
2026-01-29 02:14:43.07	0.75	5.25	-50.0	-65.3	3.8	1.49e+00	0	42	104	0	71	21119
2026-01-29 02:14:45.06	0.52	5.35	-50.0	-65.3	3.8	1.49e+00	0	41	104	0	71	21021
2026-01-29 02:14:47.05	0.28	5.44	-49.7	-65.2	3.8	1.49e+00	0	42	104	0	71	20921
2026-01-29 02:14:49.04	0.05	5.53	-49.8	-65.2	3.8	1.49e+00	0	42	104	0	71	20882
2026-01-29 02:14:51.03	359.81	5.62	-49.2	-65.2	3.8	1.49e+00	0	42	104	0	70	22079
2026-01-29 02:14:53.02	359.57	5.71	-49.3	-65.1	3.8	1.49e+00	0	42	104	0	69	23164
2026-01-29 02:14:55.01	359.33	5.80	-49.6	-65.0	3.8	1.49e+00	0	42	104	0	69	23024
2026-01-29 02:14:57.00	359.09	5.89	-49.2	-65.0	3.8	1.49e+00	0	42	104	0	69	22882
2026-01-29 02:14:58.99	358.84	5.98	-48.8	-64.9	3.7	1.49e+00	0	42	104	0	69	22705
2026-01-29 02:15:00.98	358.60	6.07	-48.1	-64.8	3.8	1.49e+00	0	42	104	0	68	23602
2026-01-29 02:15:02.97	358.35	6.16	-46.7	-64.4	3.8	1.49e+00	0	42	104	0	64	28589
2026-01-29 02:15:04.96	358.11	6.25	-46.7	-64.4	3.8	1.49e+00	0	42	104	0	64	28483
2026-01-29 02:15:06.96	357.85	6.34	-46.7	-64.3	3.8	1.49e+00	0	42	104	0	64	28288
2026-01-29 02:15:08.95	357.60	6.43	-46.7	-64.4	3.8	1.49e+00	0	42	104	0	64	28477
2026-01-29 02:15:10.94	357.35	6.52	-46.7	-64.4	3.8	1.49e+00	0	42	104	0	64	28447
2026-01-29 02:15:12.93	357.10	6.61	-46.7	-64.4	3.8	1.49e+00	0	42	104	0	64	28395
2026-01-29 02:15:14.92	356.84	6.70	-46.8	-64.4	3.8	1.49e+00	0	42	104	0	64	28471
2026-01-29 02:15:16.91	356.58	6.79	-46.7	-64.3	3.8	1.49e+00	0	43	104	0	64	28349
2026-01-29 02:15:18.91	356.32	6.88	-46.7	-64.3	3.8	1.49e+00	0	42	104	0	64	28189
2026-01-29 02:15:20.90	356.06	6.97	-46.7	-64.3	3.8	1.49e+00	0	43	104	0	64	28283
2026-01-29 02:15:22.89	355.80	7.05	-46.7	-64.3	3.8	1.49e+00	0	43	104	0	64	28215
2026-01-29 02:15:24.88	355.53	7.14	-46.7	-64.4	3.8	1.49e+00	0	43	104	0	64	28388
2026-01-29 02:15:26.87	355.27	7.23	-46.7	-64.4	3.8	1.49e+00	0	43	104	0	64	28469
2026-01-29 02:15:28.87	355.00	7.32	-46.7	-64.4	3.8	1.49e+00	0	43	104	0	64	28356
2026-01-29 02:15:30.86	354.73	7.40	-46.7	-64.3	3.8	1.49e+00	0	43	104	0	64	28340
2026-01-29 02:15:32.85	354.46	7.49	-46.7	-64.4	3.8	1.49e+00	0	43	104	0	64	28414
2026-01-29 02:15:34.84	354.19	7.58	-46.7	-64.4	3.8	1.49e+00	0	43	104	0	64	28461
2026-01-29 02:15:36.83	353.91	7.66	-46.7	-64.4	3.8	1.49e+00	0	43	104	0	64	28410
2026-01-29 02:15:38.83	353.64	7.75	-46.7	-64.4	3.8	1.49e+00	0	43	104	0	64	28352
2026-01-29 02:15:40.82	353.36	7.83	-46.7	-64.3	3.8	1.49e+00	0	43	104	0	64	28192
2026-01-29 02:15:42.81	353.08	7.92	-46.7	-64.3	3.8	1.49e+00	0	43	104	0	64	28073
2026-01-29 02:15:44.80	352.80	8.00	-46.7	-64.4	3.8	1.49e+00	0	43	104	0	64	28368
2026-01-29 02:15:46.80	352.52	8.09	-46.7	-64.3	3.8	1.49e+00	0	43	104	0	64	28339
2026-01-29 02:15:48.79	352.23	8.17	-46.7	-64.4	3.8	1.49e+00	0	43	104	0	64	28495
2026-01-29 02:15:50.79	351.94	8.26	-46.6	-64.3	3.8	1.49e+00	0	43	104	0	64	28251
2026-01-29 02:15:52.78	351.66	8.34	-46.6	-64.2	3.8	1.49e+00	0	43	104	0	64	27958
2026-01-29 02:15:54.77	351.37	8.42	-46.6	-64.1	3.8	1.49e+00	0	43	104	0	64	27685
2026-01-29 02:15:56.77	351.08	8.50	-46.5	-63.4	3.8	1.49e+00	0	43	104	0	64	25484
2026-01-29 02:15:58.76	350.78	8.58	-46.5	-62.6	3.8	1.49e+00	0	43	104	0	64	23069
2026-01-29 02:16:00.75	350.49	8.67	-46.5	-61.8	4.0	1.48e+00	0	43	104	0	64	21144
2026-01-29 02:16:02.75	350.19	8.75	-46.5	-61.0	4.1	1.43e+00	0	43	0	0	64	19356
2026-01-29 02:16:04.74	349.89	8.83	-46.5	-60.2	4.4	1.34e+00	0	43	0	0	64	17503
2026-01-29 02:16:06.73	349.59	8.91	-46.3	-57.9	5.6	5.38e-01	0	43	0	4194304	64	13415
2026-01-29 02:16:08.73	349.29	8.99	-45.9	-54.3	8.8	7.51e-02	0	44	0	7340032	63	9437
2026-01-29 02:16:10.72	348.99	9.06	-45.1	-51.5	11.8	5.58e-04	0	43	0	11534336	62	7219
2026-01-29 02:16:12.73	348.68	9.14	-44.5	-50.3	12.9	1.03e-01	0	44	0	14680064	61	6660
2026-01-29 02:16:14.73	348.38	9.22	-43.2	-47.0	16.1	5.81e-02	0	43	0	18874368	58	5440
2026-01-29 02:16:16.73	348.07	9.30	-42.9	-46.8	16.3	0.00e+00	0	44	0	23068672	57	5638
2026-01-29 02:16:18.74	347.75	9.38	-42.6	-46.6	16.6	0.00e+00	0	43	0	26214400	57	5483
2026-01-29 02:16:20.74	347.44	9.45	-42.4	-46.6	16.6	0.00e+00	0	43	0	30408704	56	5848
2026-01-29 02:16:22.74	347.13	9.53	-42.2	-46.7	16.5	0.00e+00	0	44	0	33554432	56	5864
2026-01-29 02:16:24.75	346.81	9.60	-42.3	-46.7	16.6	0.00e+00	0	43	0	37748736	56	5878
2026-01-29 02:16:26.75	346.49	9.68	-42.1	-46.2	16.9	0.00e+00	0	43	0	40894464	56	5574
2026-01-29 02:16:28.75	346.17	9.75	-42.1	-46.1	17.0	0.00e+00	0	43	0	45088768	56	5528
2026-01-29 02:16:30.75	345.85	9.83	-42.1	-46.2	17.0	0.00e+00	0	44	0	49283072	56	5534
2026-01-29 02:16:32.75	345.53	9.90	-42.2	-46.2	17.0	0.00e+00	0	43	0	52428800	56	5544
2026-01-29 02:16:34.75	345.21	9.97	-42.3	-45.9	17.4	0.00e+00	0	43	0	56623104	56	5357
2026-01-29 02:16:36.75	344.88	10.04	-42.2	-45.9	17.3	0.00e+00	0	44	0	59768832	56	5353
2026-01-29 02:16:38.76	344.55	10.11	-42.1	-46.1	17.1	0.00e+00	0	44	0	63963136	56	5486
2026-01-29 02:16:40.76	344.22	10.18	-42.1	-46.2	17.0	0.00e+00	0	44	0	68157440	56	5577
2026-01-29 02:16:42.76	343.89	10.25	-42.4	-46.3	17.0	0.00e+00	0	44	0	71303168	56	5619
2026-01-29 02:16:44.76	343.56	10.32	-42.6	-46.1	17.1	0.00e+00	0	43	0	75497472	56	5498
2026-01-29 02:16:46.76	343.23	10.39	-42.8	-46.1	17.1	0.00e+00	0	44	0	78643200	56	5509
2026-01-29 02:16:48.77	342.89	10.46	-43.0	-46.5	16.8	0.00e+00	0	43	0	82837504	56	5774
2026-01-29 02:16:50.76	342.55	10.52	-43.1	-46.5	16.7	0.00e+00	0	44	0	85983232	56	5740
2026-01-29 02:16:52.77	342.21	10.59	-43.3	-46.6	16.7	0.00e+00	0	44	0	90177536	57	5499
2026-01-29 02:16:54.77	341.88	10.65	-43.3	-46.4	16.8	0.00e+00	0	44	0	94371840	57	5402
2026-01-29 02:16:56.78	341.53	10.72	-43.4	-46.5	16.8	0.00e+00	0	44	0	97517568	57	5450
2026-01-29 02:16:58.78	341.19	10.78	-43.3	-46.4	16.9	0.00e+00	0	44	0	101711872	57	5366
2026-01-29 02:17:00.78	340.84	10.84	-43.2	-46.2	17.0	0.00e+00	0	44	0	104857600	57	5279
2026-01-29 02:17:02.78	340.50	10.90	-43.2	-46.3	17.0	0.00e+00	0	44	0	109051904	57	5292
2026-01-29 02:17:04.78	340.15	10.96	-43.1	-46.0	17.3	0.00e+00	0	44	0	112197632	57	5119
2026-01-29 02:17:06.78	339.80	11.02	-43.2	-46.1	17.2	0.00e+00	0	43	0	116391936	57	5216
2026-01-29 02:17:08.79	339.45	11.08	-43.2	-46.3	17.0	0.00e+00	0	44	0	120586240	57	5294
2026-01-29 02:17:10.79	339.10	11.14	-43.0	-46.2	17.1	0.00e+00	0	44	0	123731968	57	5232
2026-01-29 02:17:12.79	338.75	11.19	-43.1	-46.1	17.2	0.00e+00	0	44	0	127926272	57	5191
2026-01-29 02:17:14.79	338.39	11.25	-43.2	-46.0	17.3	0.00e+00	0	44	0	131072000	57	5158
2026-01-29 02:17:16.79	338.04	11.31	-43.3	-46.1	17.2	0.00e+00	0	44	0	135266304	57	5190
2026-01-29 02:17:18.80	337.68	11.36	-43.2	-46.2	17.1	0.00e+00	0	44	0	138412032	57	5264
2026-01-29 02:17:20.80	337.32	11.41	-43.1	-46.3	17.1	0.00e+00	0	44	0	142606336	57	5301
2026-01-29 02:17:22.80	336.96	11.46	-43.1	-46.2	17.1	0.00e+00	0	44	0	146800640	57	5224
2026-01-29 02:17:24.81	336.60	11.52	-43.4	-46.5	16.9	0.00e+00	0	44	0	149946368	57	5413
2026-01-29 02:17:26.80	336.23	11.57	-43.3	-46.3	17.0	0.00e+00	0	44	0	154140672	57	5338
2026-01-29 02:17:28.80	335.87	11.61	-43.3	-46.3	17.1	0.00e+00	0	44	0	157286400	57	5294
2026-01-29 02:17:30.81	335.50	11.66	-43.3	-46.2	17.2	0.00e+00	0	44	0	161480704	57	5237
2026-01-29 02:17:32.81	335.14	11.71	-43.3	-46.1	17.2	0.00e+00	0	44	0	165675008	57	5177
2026-01-29 02:17:34.81	334.77	11.76	-43.3	-46.1	17.2	0.00e+00	0	44	0	168820736	57	5206
2026-01-29 02:17:36.82	334.40	11.80	-43.3	-46.1	17.2	0.00e+00	0	44	0	173015040	57	5203
2026-01-29 02:17:38.81	334.03	11.84	-43.4	-46.2	17.1	0.00e+00	0	44	0	176160768	57	5245
2026-01-29 02:17:40.81	333.66	11.89	-43.5	-46.3	17.0	0.00e+00	0	44	0	180355072	57	5330
2026-01-29 02:17:42.82	333.29	11.93	-43.7	-46.5	17.0	0.00e+00	0	44	0	183500800	57	5442
2026-01-29 02:17:44.83	332.91	11.97	-43.5	-46.4	17.0	0.00e+00	0	44	0	187695104	58	5053
2026-01-29 02:17:46.83	332.54	12.01	-43.6	-46.6	16.8	0.00e+00	0	44	0	191889408	58	5161
2026-01-29 02:17:48.83	332.17	12.05	-43.8	-46.7	16.7	0.00e+00	0	44	0	195035136	58	5255
2026-01-29 02:17:50.84	331.79	12.08	-43.9	-46.8	16.5	0.00e+00	0	44	0	199229440	58	5318
2026-01-29 02:17:52.84	331.41	12.12	-44.2	-47.2	16.2	0.00e+00	0	44	0	202375168	59	5271
2026-01-29 02:17:54.84	331.03	12.15	-44.0	-47.0	16.4	0.00e+00	0	44	0	206569472	59	5125
2026-01-29 02:17:56.84	330.65	12.19	-43.8	-46.7	16.6	0.00e+00	0	44	0	210763776	59	4980
2026-01-29 02:17:58.84	330.27	12.22	-43.9	-46.9	16.6	0.00e+00	0	44	0	213909504	59	5050
2026-01-29 02:18:00.84	329.89	12.25	-43.7	-46.7	16.7	0.00e+00	0	44	0	218103808	59	4965
2026-01-29 02:18:02.84	329.51	12.28	-43.6	-46.5	16.9	0.00e+00	0	44	0	221249536	59	4838
2026-01-29 02:18:04.84	329.13	12.31	-43.7	-46.7	16.7	0.00e+00	0	44	0	225443840	59	4962
2026-01-29 02:18:06.84	328.75	12.34	-43.6	-46.5	16.8	0.00e+00	0	44	0	228589568	59	4856
2026-01-29 02:18:08.84	328.37	12.36	-43.7	-46.6	16.8	0.00e+00	0	44	0	232783872	59	4903
2026-01-29 02:18:10.84	327.98	12.39	-43.6	-46.4	17.0	0.00e+00	0	44	0	236978176	59	4785
2026-01-29 02:18:12.84	327.60	12.41	-43.5	-46.3	17.1	0.00e+00	0	44	0	240123904	58	4990
2026-01-29 02:18:14.85	327.21	12.43	-43.4	-46.3	17.1	0.00e+00	0	44	0	244318208	58	4984
2026-01-29 02:18:16.85	326.82	12.46	-43.3	-46.3	17.0	0.00e+00	0	44	0	247463936	58	5026
2026-01-29 02:18:18.85	326.44	12.48	-43.4	-46.4	17.0	0.00e+00	0	44	0	251658240	58	5056
2026-01-29 02:18:20.85	326.05	12.49	-43.3	-46.4	17.1	0.00e+00	0	44	0	255852544	58	5047
2026-01-29 02:18:22.86	325.66	12.51	-43.4	-46.5	16.9	0.00e+00	0	44	0	258998272	58	5101
2026-01-29 02:18:24.87	325.27	12.53	-43.1	-46.2	17.2	0.00e+00	0	44	0	263192576	58	4962
2026-01-29 02:18:26.87	324.88	12.54	-43.0	-46.2	17.2	0.00e+00	0	44	0	266338304	58	4929
2026-01-29 02:18:28.87	324.49	12.56	-43.1	-46.2	17.2	0.00e+00	0	44	0	270532608	58	4959
2026-01-29 02:18:30.88	324.10	12.57	-43.1	-46.2	17.2	0.00e+00	0	44	0	273678336	58	4959
2026-01-29 02:18:32.88	323.71	12.58	-43.3	-46.4	17.0	0.00e+00	0	44	0	277872640	58	5065
2026-01-29 02:18:34.89	323.32	12.59	-43.1	-45.9	17.5	0.00e+00	0	44	0	282066944	58	4809
2026-01-29 02:18:36.90	322.93	12.60	-43.2	-45.9	17.5	0.00e+00	0	44	0	285212672	58	4769
2026-01-29 02:18:38.90	322.54	12.61	-43.2	-45.8	17.6	0.00e+00	0	44	0	289406976	58	4754
2026-01-29 02:18:40.90	322.15	12.61	-43.0	-45.7	17.7	0.00e+00	0	44	0	292552704	58	4679
2026-01-29 02:18:42.90	321.76	12.62	-43.1	-45.8	17.5	0.00e+00	0	44	0	296747008	58	4732
2026-01-29 02:18:44.90	321.37	12.62	-43.1	-45.9	17.5	0.00e+00	0	44	0	299892736	58	4779
2026-01-29 02:18:46.91	320.97	12.62	-43.3	-46.0	17.4	0.00e+00	0	44	0	304087040	58	4869
2026-01-29 02:18:48.91	320.58	12.62	-43.3	-46.2	17.2	0.00e+00	0	44	0	308281344	58	4953
2026-01-29 02:18:50.90	320.19	12.62	-43.1	-46.0	17.5	0.00e+00	0	44	0	311427072	58	4828
2026-01-29 02:18:52.90	319.80	12.62	-42.9	-45.8	17.6	0.00e+00	0	44	0	315621376	57	5007
2026-01-29 02:18:54.90	319.41	12.62	-43.1	-45.9	17.5	0.00e+00	0	44	0	318767104	57	5069
2026-01-29 02:18:56.91	319.02	12.61	-43.2	-45.9	17.5	0.00e+00	0	44	0	322961408	57	5083
2026-01-29 02:18:58.91	318.63	12.61	-43.2	-45.9	17.5	0.00e+00	0	44	0	327155712	57	5046
2026-01-29 02:19:00.91	318.24	12.60	-43.3	-45.9	17.5	0.00e+00	0	44	0	330301440	57	5080
2026-01-29 02:19:02.91	317.85	12.59	-43.2	-45.8	17.5	0.00e+00	0	44	0	334495744	57	5032
2026-01-29 02:19:04.91	317.46	12.58	-43.2	-45.8	17.6	0.00e+00	0	44	0	337641472	57	4997
2026-01-29 02:19:06.91	317.07	12.57	-43.2	-45.8	17.6	0.00e+00	0	44	0	341835776	57	5011
2026-01-29 02:19:08.91	316.68	12.56	-43.1	-45.7	17.6	0.00e+00	0	44	0	344981504	57	4969
2026-01-29 02:19:10.91	316.29	12.54	-43.2	-46.0	17.4	0.00e+00	0	44	0	349175808	57	5135
2026-01-29 02:19:12.92	315.90	12.53	-43.5	-46.4	17.0	0.00e+00	0	44	0	353370112	57	5363
2026-01-29 02:19:14.92	315.51	12.51	-43.8	-46.8	16.6	0.00e+00	0	44	0	356515840	58	5299
2026-01-29 02:19:16.93	315.12	12.49	-44.0	-47.1	16.4	0.00e+00	0	44	0	360710144	58	5474
2026-01-29 02:19:18.94	314.73	12.48	-44.0	-47.0	16.5	0.00e+00	0	44	0	363855872	58	5409
2026-01-29 02:19:20.94	314.35	12.46	-44.0	-47.0	16.4	0.00e+00	0	44	0	368050176	58	5446
2026-01-29 02:19:22.94	313.96	12.43	-43.8	-46.9	16.6	0.00e+00	0	44	0	371195904	58	5348
2026-01-29 02:19:24.94	313.57	12.41	-43.9	-46.8	16.5	0.00e+00	0	44	0	375390208	58	5331
2026-01-29 02:19:26.95	313.19	12.39	-43.9	-46.9	16.5	0.00e+00	0	44	0	379584512	58	5350
2026-01-29 02:19:28.95	312.80	12.36	-43.9	-46.9	16.5	0.00e+00	0	44	0	382730240	58	5396
2026-01-29 02:19:30.96	312.42	12.34	-43.9	-46.9	16.5	0.00e+00	0	44	0	386924544	58	5400
2026-01-29 02:19:32.95	312.03	12.31	-44.0	-47.0	16.3	0.00e+00	0	44	0	390070272	58	5464
2026-01-29 02:19:34.96	311.65	12.28	-43.9	-46.9	16.5	0.00e+00	0	44	0	394264576	58	5395
2026-01-29 02:19:36.96	311.27	12.25	-44.0	-47.0	16.3	0.00e+00	0	44	0	398458880	58	5452
2026-01-29 02:19:38.96	310.89	12.22	-44.1	-47.1	16.3	0.00e+00	0	44	0	401604608	58	5503
2026-01-29 02:19:40.97	310.51	12.19	-44.2	-47.3	16.1	0.00e+00	0	44	0	405798912	59	5300
2026-01-29 02:19:42.96	310.13	12.15	-44.3	-47.4	16.0	0.00e+00	0	44	0	408944640	59	5394
2026-01-29 02:19:44.96	309.75	12.12	-44.1	-47.2	16.1	0.00e+00	0	44	0	413138944	59	5277
2026-01-29 02:19:46.96	309.37	12.08	-44.0	-47.0	16.4	0.00e+00	0	44	0	416284672	59	5133
2026-01-29 02:19:48.97	308.99	12.05	-43.9	-46.9	16.5	0.00e+00	0	44	0	420478976	59	5053
2026-01-29 02:19:50.97	308.62	12.01	-44.0	-46.9	16.5	0.00e+00	0	44	0	424673280	59	5070
2026-01-29 02:19:52.97	308.24	11.97	-44.1	-47.0	16.4	0.00e+00	0	44	0	427819008	59	5148
2026-01-29 02:19:54.97	307.87	11.93	-44.2	-47.1	16.3	0.00e+00	0	44	0	432013312	59	5202
2026-01-29 02:19:56.98	307.50	11.89	-44.4	-47.4	15.9	0.00e+00	0	44	0	435159040	59	5385
2026-01-29 02:19:58.98	307.12	11.84	-44.3	-47.3	16.0	0.00e+00	0	44	0	439353344	59	5339
2026-01-29 02:20:00.98	306.75	11.80	-44.4	-47.4	16.0	0.00e+00	0	44	0	442499072	59	5371
2026-01-29 02:20:02.98	306.39	11.75	-44.2	-47.2	16.1	0.00e+00	0	44	0	446693376	59	5272
2026-01-29 02:20:04.98	306.02	11.71	-44.2	-47.2	16.2	0.00e+00	0	44	0	450887680	59	5270
2026-01-29 02:20:06.99	305.65	11.66	-44.2	-47.1	16.2	0.00e+00	0	44	0	454033408	59	5211
2026-01-29 02:20:08.99	305.28	11.61	-44.2	-47.2	16.2	0.00e+00	0	44	0	458227712	59	5231
2026-01-29 02:20:10.99	304.92	11.56	-44.4	-47.4	15.9	0.00e+00	0	44	0	461373440	59	5379
2026-01-29 02:20:12.99	304.56	11.51	-44.4	-47.4	15.9	0.00e+00	0	44	0	465567744	59	5395
2026-01-29 02:20:15.00	304.19	11.46	-44.5	-47.7	15.7	0.00e+00	0	44	0	469762048	59	5539
2026-01-29 02:20:17.00	303.83	11.41	-44.6	-47.8	15.5	0.00e+00	0	44	0	472907776	59	5637
2026-01-29 02:20:19.00	303.47	11.36	-44.4	-47.6	15.8	0.00e+00	0	44	0	477102080	60	5179
2026-01-29 02:20:21.00	303.11	11.30	-44.3	-47.3	16.1	0.00e+00	0	44	0	480247808	60	5038
2026-01-29 02:20:23.00	302.76	11.25	-44.2	-47.2	16.1	0.00e+00	0	44	0	484442112	60	4982
2026-01-29 02:20:25.01	302.40	11.19	-44.3	-47.3	16.1	0.00e+00	0	44	0	488636416	60	5010
2026-01-29 02:20:27.01	302.05	11.14	-44.4	-47.4	15.9	0.00e+00	0	44	0	491782144	60	5077
2026-01-29 02:20:29.01	301.69	11.08	-44.5	-47.6	15.7	0.00e+00	0	44	0	495976448	60	5207
2026-01-29 02:20:31.02	301.34	11.02	-44.7	-48.0	15.4	0.00e+00	0	44	0	499122176	60	5420
2026-01-29 02:20:33.02	300.99	10.96	-44.5	-47.7	15.7	0.00e+00	0	44	0	503316480	60	5238
2026-01-29 02:20:35.02	300.64	10.90	-44.4	-47.5	15.8	0.00e+00	0	44	0	506462208	60	5141
2026-01-29 02:20:37.03	300.29	10.84	-44.1	-47.0	16.3	0.00e+00	0	44	0	510656512	60	4852
2026-01-29 02:20:39.03	299.95	10.78	-44.0	-46.9	16.4	0.00e+00	0	44	0	514850816	59	5043
2026-01-29 02:20:41.04	299.60	10.71	-43.9	-46.8	16.4	0.00e+00	0	44	0	517996544	59	5038
2026-01-29 02:20:43.04	299.26	10.65	-44.0	-46.9	16.3	0.00e+00	0	44	0	522190848	59	5070
2026-01-29 02:20:45.04	298.92	10.58	-44.0	-46.9	16.3	0.00e+00	0	44	0	525336576	59	5098
2026-01-29 02:20:47.04	298.58	10.52	-44.0	-46.9	16.3	0.00e+00	0	44	0	529530880	59	5098
2026-01-29 02:20:49.04	298.24	10.45	-44.1	-47.1	16.1	0.00e+00	0	44	0	533725184	59	5187
2026-01-29 02:20:51.05	297.90	10.38	-44.2	-47.2	16.0	0.00e+00	0	44	0	536870912	59	5233
2026-01-29 02:20:53.05	297.57	10.32	-44.1	-47.0	16.2	0.00e+00	0	44	0	541065216	59	5159
2026-01-29 02:20:55.05	297.24	10.25	-43.9	-46.7	16.5	0.00e+00	0	44	0	544210944	59	4979
2026-01-29 02:20:57.05	296.90	10.18	-43.7	-46.6	16.6	0.00e+00	0	44	0	548405248	59	4886
2026-01-29 02:20:59.05	296.57	10.11	-43.8	-46.7	16.5	0.00e+00	0	44	0	551550976	59	4946
2026-01-29 02:21:01.06	296.24	10.04	-44.1	-47.0	16.2	0.00e+00	0	44	0	555745280	59	5152
2026-01-29 02:21:03.06	295.92	9.97	-44.1	-47.1	16.1	0.00e+00	0	44	0	559939584	59	5170
2026-01-29 02:21:05.07	295.59	9.89	-44.0	-47.0	16.2	0.00e+00	0	44	0	563085312	59	5131
2026-01-29 02:21:07.07	295.27	9.82	-44.0	-46.9	16.3	0.00e+00	0	44	0	567279616	59	5078
2026-01-29 02:21:09.07	294.94	9.75	-43.8	-46.7	16.5	0.00e+00	0	44	0	570425344	59	4958
2026-01-29 02:21:11.07	294.62	9.67	-43.8	-46.6	16.6	0.00e+00	0	44	0	574619648	59	4915
2026-01-29 02:21:13.08	294.30	9.60	-44.0	-47.0	16.2	0.00e+00	0	44	0	577765376	59	5136
2026-01-29 02:21:15.08	293.99	9.52	-44.2	-47.1	16.0	0.00e+00	0	44	0	581959680	59	5214
2026-01-29 02:21:17.08	293.67	9.45	-44.4	-47.4	15.8	0.00e+00	0	44	0	586153984	59	5400
2026-01-29 02:21:19.08	293.36	9.37	-44.4	-47.5	15.7	0.00e+00	0	44	0	589299712	59	5458
2026-01-29 02:21:21.09	293.04	9.29	-44.5	-47.6	15.6	0.00e+00	0	44	0	593494016	59	5502
2026-01-29 02:21:23.09	292.73	9.22	-44.6	-47.9	15.3	0.00e+00	0	44	0	596639744	59	5669
2026-01-29 02:21:25.09	292.43	9.14	-44.5	-47.6	15.5	0.00e+00	0	44	0	600834048	59	5514
2026-01-29 02:21:27.09	292.12	9.06	-44.6	-47.8	15.4	0.00e+00	0	44	0	605028352	59	5645
2026-01-29 02:21:29.09	291.81	8.98	-49.2	-64.0	3.8	5.68e-03	0	44	104	608174080	69	20458
2026-01-29 02:21:31.08	291.51	8.90	-49.2	-64.5	3.8	1.49e+00	0	44	104	608174080	69	21589
2026-01-29 02:21:33.07	291.21	8.82	-49.2	-64.5	3.8	1.49e+00	0	44	104	608174080	69	21614
2026-01-29 02:21:35.06	290.91	8.74	-49.2	-64.5	3.8	1.49e+00	0	44	104	608174080	69	21688
2026-01-29 02:21:37.05	290.61	8.66	-49.2	-64.5	3.8	1.49e+00	0	44	104	608174080	69	21513
2026-01-29 02:21:39.04	290.32	8.58	-49.2	-64.5	3.8	1.49e+00	0	44	104	608174080	69	21585
2026-01-29 02:21:41.03	290.03	8.50	-49.2	-64.5	3.8	1.49e+00	0	44	104	608174080	69	21596
2026-01-29 02:21:43.02	289.73	8.41	-49.2	-64.4	3.8	1.49e+00	0	44	104	608174080	69	21320
2026-01-29 02:21:45.01	289.44	8.33	-49.2	-64.4	3.8	1.49e+00	0	44	104	608174080	69	21299
2026-01-29 02:21:47.01	289.15	8.25	-49.2	-64.4	3.8	1.49e+00	0	44	104	608174080	69	21426
2026-01-29 02:21:49.00	288.87	8.16	-49.2	-64.5	3.8	1.49e+00	0	44	104	608174080	69	21660
2026-01-29 02:21:50.98	288.58	8.08	-49.2	-64.2	3.8	1.49e+00	0	44	104	608174080	69	20993
2026-01-29 02:21:52.97	288.30	8.00	-49.1	-63.4	3.8	1.49e+00	0	44	104	608174080	69	19067
2026-01-29 02:21:54.96	288.02	7.91	-49.1	-62.7	3.8	1.49e+00	0	44	104	608174080	69	17619
2026-01-29 02:21:56.95	287.73	7.83	-49.1	-62.8	3.8	1.49e+00	0	44	104	608174080	69	17878
2026-01-29 02:21:58.95	287.45	7.74	-49.1	-63.7	3.8	1.49e+00	0	44	104	608174080	69	19693
2026-01-29 02:22:00.94	287.18	7.66	-49.2	-64.3	3.8	1.49e+00	0	44	104	608174080	69	21030
2026-01-29 02:22:02.93	286.90	7.57	-49.2	-64.4	3.8	1.49e+00	0	44	104	608174080	69	21321
2026-01-29 02:22:04.92	286.63	7.48	-49.2	-64.2	3.8	1.49e+00	0	44	104	608174080	69	20962
2026-01-29 02:22:06.91	286.36	7.40	-49.2	-64.3	3.8	1.49e+00	0	44	104	608174080	69	21033
2026-01-29 02:22:08.90	286.09	7.31	-49.2	-64.3	3.8	1.49e+00	0	44	104	608174080	69	21252
2026-01-29 02:22:10.90	285.81	7.22	-49.2	-64.4	3.8	1.49e+00	0	44	104	608174080	69	21432
2026-01-29 02:22:12.89	285.55	7.13	-49.2	-64.5	3.8	1.49e+00	0	44	104	608174080	69	21619
2026-01-29 02:22:14.89	285.28	7.05	-49.2	-64.5	3.8	1.49e+00	0	44	104	608174080	69	21531
2026-01-29 02:22:16.88	285.02	6.96	-49.2	-64.4	3.8	1.49e+00	0	44	104	608174080	69	21402
2026-01-29 02:22:18.87	284.75	6.87	-49.2	-64.4	3.8	1.49e+00	0	44	104	608174080	69	21400
2026-01-29 02:22:20.86	284.49	6.78	-49.2	-64.5	3.8	1.49e+00	0	44	104	608174080	69	21507
2026-01-29 02:22:22.86	284.23	6.69	-49.2	-64.4	3.8	1.49e+00	0	44	104	608174080	69	21341
2026-01-29 02:22:24.85	283.98	6.60	-49.2	-64.4	3.8	1.49e+00	0	44	104	608174080	69	21398
2026-01-29 02:22:26.84	283.72	6.51	-49.2	-64.4	3.8	1.49e+00	0	44	104	608174080	69	21331
2026-01-29 02:22:28.83	283.46	6.42	-49.2	-64.4	3.8	1.49e+00	0	44	104	608174080	69	21329
2026-01-29 02:22:30.83	283.21	6.33	-49.2	-64.4	3.8	1.49e+00	0	44	104	608174080	69	21394
2026-01-29 02:22:32.82	282.96	6.24	-49.2	-64.5	3.8	1.49e+00	0	44	104	608174080	69	21539
2026-01-29 02:22:34.81	282.71	6.15	-49.2	-64.5	3.8	1.49e+00	0	44	104	608174080	69	21639
2026-01-29 02:22:36.80	282.46	6.06	-49.2	-64.5	3.8	1.49e+00	0	44	104	608174080	69	21668
2026-01-29 02:22:38.79	282.22	5.97	-49.2	-64.5	3.8	1.49e+00	0	44	104	608174080	69	21636
2026-01-29 02:22:40.79	281.97	5.88	-49.2	-64.5	3.8	1.49e+00	0	44	104	608174080	69	21567
2026-01-29 02:22:42.78	281.73	5.79	-49.2	-64.5	3.8	1.49e+00	0	44	104	608174080	69	21546
2026-01-29 02:22:44.77	281.48	5.70	-49.2	-64.4	3.8	1.49e+00	0	44	104	608174080	69	21465
2026-01-29 02:22:46.77	281.24	5.61	-49.2	-64.4	3.8	1.49e+00	0	44	104	608174080	69	21466
2026-01-29 02:22:48.76	281.00	5.52	-49.2	-64.5	3.8	1.49e+00	0	44	104	608174080	69	21550
2026-01-29 02:22:50.75	280.77	5.42	-49.2	-64.5	3.8	1.49e+00	0	44	104	608174080	69	21562
2026-01-29 02:22:52.74	280.53	5.33	-49.2	-64.5	3.8	1.49e+00	0	44	104	608174080	69	21608
2026-01-29 02:22:54.73	280.30	5.24	-49.2	-64.5	3.8	1.49e+00	0	44	104	608174080	69	21671
2026-01-29 02:22:56.73	280.06	5.15	-49.2	-64.5	3.8	1.49e+00	0	44	104	608174080	69	21537
2026-01-29 02:22:58.72	279.83	5.06	-49.2	-64.5	3.8	1.49e+00	0	44	104	608174080	69	21677
2026-01-29 02:23:00.71	279.60	4.96	-49.2	-64.5	3.8	1.49e+00	0	44	104	608174080	69	21597

#Closed at: 2026-01-29 02:23:01
#Recorded file [608 MB]: D:/Data/31040_260129_051437.dat