passes_logs/2026/01/29/T1/T1__20260129_223435_NOAA_20_JPSS-1_rec.log

#Pass ID: 20260129_223435_NOAA 20 (JPSS-1)
#Satellite: NOAA 20 (JPSS-1)
#Configuration: NOAA 20
#almurnet v.1.7.20251203
#Start time: 2026-01-29 22:34:36

#Version: 2.0.20230620
#Station: T1
#Location: 37.570604 lon 55.790049 lat
#TLE: 1 43013U 17073A   26028.86313978  .00000144  00000+0  89200-4 0  9993
#TLE: 2 43013  98.7648 329.6571 0000891  20.0014 340.1197 14.19541559424709

#Time	Az	El	Level	Level2	SNR	BER	BlckErr	Temp	State	Recorded	gain1	gain2
2026-01-29 22:34:36.25	25.33	5.08	-50.4	-64.7	3.8	1.49e+00	0	41	0	0	71	19760
2026-01-29 22:34:39.23	25.53	5.27	-50.5	-64.7	3.8	1.49e+00	0	41	104	0	72	18711
2026-01-29 22:34:42.23	25.73	5.46	-50.4	-64.7	3.8	1.49e+00	0	41	104	0	72	18672
2026-01-29 22:34:45.22	25.93	5.66	-50.5	-64.6	3.8	1.49e+00	0	42	104	0	72	18514
2026-01-29 22:34:48.21	26.14	5.86	-50.2	-64.5	3.8	1.49e+00	0	42	104	0	72	18198
2026-01-29 22:34:51.20	26.35	6.05	-49.8	-64.2	3.8	1.49e+00	0	42	104	0	70	19696
2026-01-29 22:34:54.20	26.56	6.25	-49.5	-64.2	3.8	1.49e+00	0	42	104	0	70	19620
2026-01-29 22:34:57.19	26.77	6.45	-49.5	-64.1	3.8	1.49e+00	0	42	104	0	70	19598
2026-01-29 22:35:00.19	26.99	6.65	-49.5	-64.1	3.8	1.49e+00	0	42	104	0	70	19608
2026-01-29 22:35:03.18	27.20	6.86	-49.5	-64.1	3.8	1.49e+00	0	42	104	0	70	19601
2026-01-29 22:35:06.16	27.42	7.06	-49.5	-64.0	3.8	1.49e+00	0	42	104	0	70	19354
2026-01-29 22:35:09.16	27.65	7.26	-49.5	-63.9	3.8	1.49e+00	0	42	104	0	70	19076
2026-01-29 22:35:12.15	27.88	7.47	-49.5	-63.9	3.8	1.49e+00	0	42	104	0	70	19082
2026-01-29 22:35:15.13	28.10	7.68	-49.5	-64.1	3.8	1.49e+00	0	42	104	0	70	19451
2026-01-29 22:35:18.13	28.34	7.89	-49.5	-63.8	3.8	1.49e+00	0	42	104	0	70	18890
2026-01-29 22:35:21.11	28.57	8.10	-49.5	-63.6	3.8	1.49e+00	0	42	104	0	70	18394
2026-01-29 22:35:24.10	28.81	8.31	-49.5	-63.8	3.8	1.49e+00	0	43	104	0	70	18759
2026-01-29 22:35:27.10	29.06	8.52	-49.5	-63.9	3.8	1.49e+00	0	43	104	0	70	19154
2026-01-29 22:35:30.09	29.30	8.73	-49.5	-63.6	3.8	1.49e+00	0	43	104	0	70	18488
2026-01-29 22:35:33.09	29.55	8.95	-49.2	-59.7	4.5	1.47e+00	0	43	0	0	70	11691
2026-01-29 22:35:36.08	29.81	9.17	-49.7	-63.8	3.8	1.36e+00	0	43	104	4194304	70	18874
2026-01-29 22:35:39.08	30.07	9.39	-45.5	-48.1	14.8	8.51e-02	0	43	0	7340032	63	4635
2026-01-29 22:35:42.06	30.33	9.61	-45.0	-47.3	15.6	0.00e+00	0	43	0	13631488	61	4754
2026-01-29 22:35:45.05	30.59	9.83	-45.0	-47.3	15.7	0.00e+00	0	43	0	18874368	61	4712
2026-01-29 22:35:48.04	30.86	10.05	-44.5	-46.6	16.3	0.00e+00	0	43	0	24117248	61	4383
2026-01-29 22:35:51.03	31.13	10.28	-44.3	-46.3	16.7	0.00e+00	0	43	0	30408704	60	4480
2026-01-29 22:35:54.02	31.41	10.50	-44.0	-45.9	17.0	0.00e+00	0	43	0	35651584	59	4530
2026-01-29 22:35:57.01	31.69	10.73	-43.8	-45.6	17.4	0.00e+00	0	43	0	40894464	59	4348
2026-01-29 22:36:00.00	31.97	10.96	-43.8	-45.6	17.4	0.00e+00	0	43	0	47185920	58	4646
2026-01-29 22:36:03.00	32.26	11.19	-43.7	-45.5	17.4	0.00e+00	0	43	0	52428800	58	4572
2026-01-29 22:36:06.00	32.55	11.42	-43.6	-45.4	17.6	0.00e+00	0	43	0	57671680	58	4502
2026-01-29 22:36:08.99	32.85	11.66	-43.5	-45.3	17.7	0.00e+00	0	43	0	63963136	58	4449
2026-01-29 22:36:11.97	33.15	11.89	-43.4	-45.1	17.9	0.00e+00	0	43	0	69206016	58	4366
2026-01-29 22:36:14.97	33.46	12.13	-43.5	-45.1	17.9	0.00e+00	0	43	0	75497472	58	4371
2026-01-29 22:36:17.96	33.77	12.37	-43.8	-45.4	17.7	0.00e+00	0	43	0	80740352	58	4530
2026-01-29 22:36:20.95	34.09	12.61	-43.7	-45.4	17.7	0.00e+00	0	43	0	85983232	58	4514
2026-01-29 22:36:23.94	34.41	12.85	-43.7	-45.3	17.7	0.00e+00	0	43	0	92274688	58	4489
2026-01-29 22:36:26.94	34.74	13.09	-43.9	-45.6	17.5	0.00e+00	0	43	0	97517568	58	4600
2026-01-29 22:36:29.92	35.07	13.34	-44.1	-45.8	17.3	0.00e+00	0	43	0	102760448	58	4753
2026-01-29 22:36:32.92	35.41	13.58	-43.7	-45.4	17.6	0.00e+00	0	43	0	109051904	59	4268
2026-01-29 22:36:35.90	35.75	13.83	-43.6	-45.2	17.8	0.00e+00	0	43	0	114294784	59	4191
2026-01-29 22:36:38.90	36.10	14.08	-43.8	-45.5	17.6	0.00e+00	0	43	0	119537664	59	4325
2026-01-29 22:36:41.89	36.45	14.33	-43.9	-45.6	17.4	0.00e+00	0	43	0	125829120	59	4375
2026-01-29 22:36:44.89	36.81	14.59	-43.8	-45.4	17.7	0.00e+00	0	43	0	131072000	59	4252
2026-01-29 22:36:47.87	37.18	14.84	-43.7	-45.2	17.8	0.00e+00	0	43	0	136314880	59	4184
2026-01-29 22:36:50.86	37.55	15.10	-43.7	-45.3	17.8	0.00e+00	0	43	0	142606336	59	4213
2026-01-29 22:36:53.85	37.93	15.36	-43.9	-45.5	17.6	0.00e+00	0	43	0	147849216	59	4318
2026-01-29 22:36:56.84	38.31	15.62	-43.8	-45.4	17.7	0.00e+00	0	43	0	153092096	59	4271
2026-01-29 22:36:59.82	38.70	15.88	-43.6	-45.2	18.0	0.00e+00	0	43	0	159383552	59	4158
2026-01-29 22:37:02.81	39.10	16.14	-43.7	-45.2	17.9	0.00e+00	0	43	0	164626432	59	4186
2026-01-29 22:37:05.80	39.50	16.40	-43.4	-44.9	18.1	0.00e+00	0	43	0	169869312	58	4290
2026-01-29 22:37:08.79	39.91	16.67	-43.4	-44.8	18.3	0.00e+00	0	43	0	176160768	58	4228
2026-01-29 22:37:11.78	40.33	16.94	-43.6	-45.1	18.0	0.00e+00	0	43	0	181403648	58	4379
2026-01-29 22:37:14.78	40.76	17.21	-43.7	-45.2	17.9	0.00e+00	0	43	0	186646528	58	4437
2026-01-29 22:37:17.78	41.19	17.48	-43.5	-45.1	18.0	0.00e+00	0	43	0	192937984	58	4354
2026-01-29 22:37:20.77	41.64	17.75	-43.4	-44.9	18.3	0.00e+00	0	43	0	198180864	58	4257
2026-01-29 22:37:23.76	42.08	18.02	-43.5	-45.0	18.2	0.00e+00	0	43	0	204472320	58	4304
2026-01-29 22:37:26.76	42.54	18.30	-43.3	-44.8	18.3	0.00e+00	0	43	0	209715200	58	4213
2026-01-29 22:37:29.76	43.01	18.58	-43.1	-44.5	18.7	0.00e+00	0	44	0	214958080	58	4067
2026-01-29 22:37:32.76	43.48	18.85	-42.8	-44.1	19.0	0.00e+00	0	43	0	221249536	57	4134
2026-01-29 22:37:35.76	43.97	19.13	-42.7	-44.0	19.1	0.00e+00	0	44	0	226492416	57	4081
2026-01-29 22:37:38.76	44.46	19.41	-42.6	-44.0	19.1	0.00e+00	0	43	0	231735296	57	4065
2026-01-29 22:37:41.77	44.96	19.70	-42.6	-43.9	19.2	0.00e+00	0	43	0	238026752	57	4014
2026-01-29 22:37:44.77	45.47	19.98	-42.7	-44.0	19.1	0.00e+00	0	43	0	243269632	57	4076
2026-01-29 22:37:47.78	45.99	20.27	-42.6	-43.9	19.2	0.00e+00	0	43	0	248512512	57	4027
2026-01-29 22:37:50.78	46.52	20.55	-42.6	-43.9	19.2	0.00e+00	0	43	0	254803968	57	4046
2026-01-29 22:37:53.78	47.06	20.84	-42.6	-43.9	19.2	0.00e+00	0	43	0	260046848	57	4049
2026-01-29 22:37:56.79	47.61	21.12	-42.5	-43.8	19.3	0.00e+00	0	44	0	266338304	57	3977
2026-01-29 22:37:59.79	48.17	21.41	-42.4	-43.7	19.4	0.00e+00	0	43	0	271581184	56	4179
2026-01-29 22:38:02.79	48.73	21.70	-42.5	-43.8	19.4	0.00e+00	0	43	0	276824064	56	4225
2026-01-29 22:38:05.79	49.31	21.99	-42.4	-43.7	19.5	0.00e+00	0	43	0	283115520	56	4151
2026-01-29 22:38:08.80	49.90	22.28	-42.2	-43.4	19.7	0.00e+00	0	43	0	288358400	56	4022
2026-01-29 22:38:11.80	50.50	22.56	-42.1	-43.3	19.8	0.00e+00	0	43	0	293601280	56	3967
2026-01-29 22:38:14.80	51.11	22.85	-42.1	-43.2	19.9	0.00e+00	0	43	0	299892736	56	3958
2026-01-29 22:38:17.80	51.74	23.14	-41.9	-43.1	19.9	0.00e+00	0	43	0	305135616	55	4112
2026-01-29 22:38:20.80	52.37	23.43	-42.1	-43.3	19.7	0.00e+00	0	43	0	311427072	55	4220
2026-01-29 22:38:23.81	53.02	23.72	-42.2	-43.4	19.6	0.00e+00	0	43	0	316669952	55	4283
2026-01-29 22:38:26.81	53.68	24.01	-42.2	-43.4	19.5	0.00e+00	0	43	0	321912832	55	4285
2026-01-29 22:38:29.82	54.35	24.29	-42.0	-43.2	19.7	0.00e+00	0	43	0	328204288	55	4161
2026-01-29 22:38:32.82	55.03	24.58	-42.2	-43.5	19.5	0.00e+00	0	43	0	333447168	55	4310
2026-01-29 22:38:35.82	55.72	24.86	-42.5	-43.8	19.3	0.00e+00	0	43	0	338690048	55	4449
2026-01-29 22:38:38.82	56.43	25.15	-42.8	-44.1	19.0	0.00e+00	0	43	0	344981504	56	4361
2026-01-29 22:38:41.83	57.15	25.43	-43.2	-44.6	18.6	0.00e+00	0	43	0	350224384	56	4632
2026-01-29 22:38:44.83	57.88	25.71	-43.0	-44.4	18.7	0.00e+00	0	43	0	355467264	57	4260
2026-01-29 22:38:47.83	58.62	25.99	-43.2	-44.6	18.6	0.00e+00	0	43	0	361758720	57	4373
2026-01-29 22:38:50.84	59.38	26.27	-43.5	-45.0	18.2	0.00e+00	0	43	0	367001600	57	4554
2026-01-29 22:38:53.84	60.15	26.54	-43.5	-45.0	18.2	0.00e+00	0	43	0	373293056	57	4563
2026-01-29 22:38:56.84	60.93	26.81	-43.6	-45.2	18.0	0.00e+00	0	43	0	378535936	57	4681
2026-01-29 22:38:59.85	61.73	27.08	-44.4	-46.2	17.1	0.00e+00	0	43	0	383778816	59	4670
2026-01-29 22:39:02.84	62.54	27.34	-44.8	-46.7	16.7	0.00e+00	0	44	0	390070272	60	4655
2026-01-29 22:39:05.84	63.36	27.60	-44.6	-46.4	16.9	0.00e+00	0	43	0	395313152	60	4525
2026-01-29 22:39:08.84	64.20	27.86	-44.6	-46.3	16.9	0.00e+00	0	43	0	400556032	60	4493
2026-01-29 22:39:11.84	65.05	28.11	-44.5	-46.2	17.0	0.00e+00	0	43	0	406847488	60	4434
2026-01-29 22:39:14.84	65.91	28.36	-44.7	-46.6	16.7	0.00e+00	0	43	0	412090368	60	4608
2026-01-29 22:39:17.85	66.79	28.61	-44.6	-46.4	16.9	0.00e+00	0	43	0	418381824	60	4527
2026-01-29 22:39:20.85	67.67	28.85	-44.3	-46.0	17.4	0.00e+00	0	43	0	423624704	60	4294
2026-01-29 22:39:23.86	68.58	29.08	-44.3	-46.1	17.3	0.00e+00	0	43	0	428867584	60	4343
2026-01-29 22:39:26.86	69.49	29.31	-44.4	-46.2	17.2	0.00e+00	0	43	0	435159040	60	4404
2026-01-29 22:39:29.87	70.42	29.53	-44.6	-46.5	16.8	0.00e+00	0	43	0	440401920	60	4552
2026-01-29 22:39:32.87	71.36	29.74	-44.6	-46.4	16.9	0.00e+00	0	43	0	445644800	60	4524
2026-01-29 22:39:35.87	72.31	29.95	-45.3	-47.4	15.9	0.00e+00	0	43	0	451936256	61	4785
2026-01-29 22:39:38.87	73.28	30.15	-46.2	-48.7	14.6	7.00e-07	0	43	0	457179136	63	4959
2026-01-29 22:39:41.87	74.25	30.35	-46.4	-49.0	14.4	0.00e+00	0	43	0	462422016	63	5142
2026-01-29 22:39:44.88	75.24	30.53	-46.4	-49.1	14.0	0.00e+00	0	43	0	468713472	63	5215
2026-01-29 22:39:47.88	76.24	30.71	-46.4	-49.1	14.1	1.50e-06	0	43	0	473956352	63	5218
2026-01-29 22:39:50.89	77.25	30.88	-46.5	-49.5	13.8	4.50e-06	0	43	0	480247808	63	5403
2026-01-29 22:39:53.89	78.27	31.04	-46.0	-48.5	14.8	0.00e+00	0	44	0	485490688	63	4852
2026-01-29 22:39:56.89	79.30	31.19	-45.7	-48.1	15.3	0.00e+00	0	43	0	490733568	63	4605
2026-01-29 22:39:59.89	80.34	31.33	-45.9	-48.4	15.0	0.00e+00	0	43	0	497025024	63	4780
2026-01-29 22:40:02.90	81.39	31.47	-45.6	-47.9	15.3	0.00e+00	0	43	0	502267904	63	4535
2026-01-29 22:40:05.90	82.45	31.59	-45.1	-47.3	16.0	0.00e+00	0	43	0	507510784	62	4470
2026-01-29 22:40:08.91	83.51	31.70	-45.1	-47.3	16.0	0.00e+00	0	43	0	513802240	61	4744
2026-01-29 22:40:11.91	84.58	31.80	-45.1	-47.3	15.9	0.00e+00	0	43	0	519045120	61	4757
2026-01-29 22:40:14.92	85.66	31.90	-45.1	-47.4	16.0	0.00e+00	0	43	0	525336576	61	4767
2026-01-29 22:40:17.92	86.74	31.98	-45.9	-48.6	14.7	0.00e+00	0	43	0	530579456	62	5182
2026-01-29 22:40:20.92	87.83	32.05	-45.7	-48.4	14.9	7.00e-07	0	43	0	535822336	62	5075
2026-01-29 22:40:23.93	88.93	32.11	-45.0	-47.1	16.1	0.00e+00	0	43	0	542113792	61	4628
2026-01-29 22:40:26.93	90.02	32.15	-44.9	-47.0	16.2	0.00e+00	0	43	0	547356672	61	4563
2026-01-29 22:40:29.93	91.12	32.19	-44.9	-46.8	16.4	0.00e+00	0	43	0	552599552	61	4491
2026-01-29 22:40:32.93	92.22	32.21	-44.9	-46.9	16.3	0.00e+00	0	43	0	558891008	61	4538
2026-01-29 22:40:35.94	93.32	32.23	-45.2	-47.4	15.9	0.00e+00	0	43	0	564133888	61	4803
2026-01-29 22:40:38.94	94.43	32.23	-45.6	-48.1	15.2	0.00e+00	0	43	0	570425344	61	5176
2026-01-29 22:40:41.95	95.53	32.22	-45.1	-47.1	16.1	0.00e+00	0	43	0	575668224	62	4386
2026-01-29 22:40:44.96	96.64	32.20	-44.6	-46.4	16.9	0.00e+00	0	43	0	580911104	61	4259
2026-01-29 22:40:47.95	97.73	32.16	-45.3	-47.4	15.9	0.00e+00	0	43	0	587202560	61	4801
2026-01-29 22:40:50.96	98.83	32.12	-45.7	-48.1	15.2	0.00e+00	0	43	0	592445440	62	4913
2026-01-29 22:40:53.96	99.93	32.06	-45.8	-48.2	15.1	0.00e+00	0	43	0	597688320	62	4940
2026-01-29 22:40:56.96	101.01	32.00	-46.1	-48.7	14.6	0.00e+00	0	43	0	603979776	62	5233
2026-01-29 22:40:59.97	102.10	31.92	-46.4	-49.2	14.1	7.60e-06	0	43	0	609222656	63	5237
2026-01-29 22:41:02.97	103.18	31.83	-46.1	-48.7	14.6	2.20e-06	0	43	0	615514112	63	4944
2026-01-29 22:41:05.97	104.26	31.73	-46.3	-49.0	14.3	7.00e-07	0	43	0	620756992	63	5108
2026-01-29 22:41:08.97	105.32	31.62	-46.4	-49.1	14.2	7.00e-07	0	43	0	625999872	63	5194
2026-01-29 22:41:11.98	106.38	31.50	-46.1	-48.6	14.7	7.00e-07	0	43	0	632291328	63	4911
2026-01-29 22:41:14.99	107.44	31.37	-45.3	-47.5	15.8	0.00e+00	0	43	0	637534208	62	4572
2026-01-29 22:41:17.99	108.48	31.23	-44.7	-46.7	16.5	0.00e+00	0	43	0	642777088	61	4403
2026-01-29 22:41:21.00	109.52	31.08	-45.2	-47.4	15.9	0.00e+00	0	43	0	649068544	61	4765
2026-01-29 22:41:24.01	110.55	30.92	-45.3	-47.4	15.8	0.00e+00	0	43	0	654311424	61	4814
2026-01-29 22:41:27.00	111.56	30.75	-45.3	-47.5	15.7	0.00e+00	0	43	0	660602880	61	4849
2026-01-29 22:41:30.00	112.56	30.57	-44.9	-47.0	16.2	0.00e+00	0	43	0	665845760	61	4576
2026-01-29 22:41:33.01	113.56	30.39	-44.9	-46.9	16.4	0.00e+00	0	43	0	671088640	61	4497
2026-01-29 22:41:36.01	114.54	30.20	-45.2	-47.5	15.7	0.00e+00	0	43	0	677380096	61	4853
2026-01-29 22:41:39.01	115.51	30.00	-46.1	-48.8	14.4	7.00e-07	0	43	0	682622976	62	5315
2026-01-29 22:41:42.02	116.47	29.79	-45.4	-47.7	15.5	7.00e-07	0	43	0	687865856	62	4704
2026-01-29 22:41:45.02	117.41	29.57	-45.3	-47.5	15.7	7.00e-07	0	43	0	694157312	62	4567
2026-01-29 22:41:48.02	118.34	29.35	-45.7	-48.0	15.3	0.00e+00	0	43	0	699400192	62	4839
2026-01-29 22:41:51.03	119.27	29.12	-46.0	-48.5	14.7	7.00e-07	0	43	0	704643072	62	5147
2026-01-29 22:41:54.03	120.18	28.89	-46.2	-49.0	14.2	7.00e-07	0	43	0	710934528	63	5123
2026-01-29 22:41:57.03	121.07	28.65	-45.8	-48.4	14.8	0.00e+00	0	43	0	716177408	63	4777
2026-01-29 22:42:00.04	121.95	28.41	-45.1	-47.2	16.0	0.00e+00	0	43	0	722468864	62	4406
2026-01-29 22:42:03.04	122.82	28.16	-44.4	-46.2	17.0	0.00e+00	0	43	0	727711744	60	4422
2026-01-29 22:42:06.04	123.68	27.91	-44.7	-46.5	16.6	0.00e+00	0	43	0	732954624	60	4598
2026-01-29 22:42:09.05	124.52	27.65	-44.9	-46.9	16.3	0.00e+00	0	43	0	739246080	60	4807
2026-01-29 22:42:12.04	125.35	27.39	-45.6	-48.0	15.2	0.00e+00	0	43	0	744488960	61	5143
2026-01-29 22:42:15.05	126.17	27.12	-44.4	-46.2	16.9	0.00e+00	0	43	0	749731840	60	4428
2026-01-29 22:42:18.05	126.97	26.85	-44.2	-46.1	17.1	0.00e+00	0	43	0	756023296	59	4603
2026-01-29 22:42:21.05	127.76	26.58	-44.1	-45.9	17.2	0.00e+00	0	43	0	761266176	59	4496
2026-01-29 22:42:24.06	128.53	26.30	-43.7	-45.2	17.9	0.00e+00	0	43	0	767557632	59	4187
2026-01-29 22:42:27.06	129.30	26.03	-45.6	-48.1	15.0	0.00e+00	0	43	0	772800512	61	5208
2026-01-29 22:42:30.07	130.05	25.75	-45.0	-47.1	16.0	0.00e+00	0	43	0	778043392	62	4370
2026-01-29 22:42:33.07	130.79	25.46	-44.6	-46.5	16.7	0.00e+00	0	43	0	784334848	60	4573
2026-01-29 22:42:36.07	131.51	25.18	-44.3	-46.1	17.0	0.00e+00	0	43	0	789577728	60	4384
2026-01-29 22:42:39.08	132.22	24.89	-43.5	-45.1	18.0	0.00e+00	0	43	0	794820608	59	4114
2026-01-29 22:42:42.08	132.92	24.61	-44.5	-46.3	16.8	0.00e+00	0	43	0	801112064	59	4748
2026-01-29 22:42:45.08	133.61	24.32	-43.3	-44.9	18.2	0.00e+00	0	43	0	806354944	58	4248
2026-01-29 22:42:48.08	134.28	24.03	-43.4	-44.9	18.2	0.00e+00	0	43	0	811597824	58	4271
2026-01-29 22:42:51.09	134.95	23.74	-44.0	-45.7	17.4	0.00e+00	0	43	0	817889280	58	4675
2026-01-29 22:42:54.09	135.60	23.45	-43.0	-44.4	18.7	0.00e+00	0	43	0	823132160	57	4262
2026-01-29 22:42:57.09	136.23	23.16	-43.6	-45.2	17.8	0.00e+00	0	43	0	829423616	57	4696
2026-01-29 22:43:00.09	136.86	22.87	-43.6	-45.2	17.9	0.00e+00	0	43	0	834666496	58	4403
2026-01-29 22:43:03.10	137.48	22.58	-42.8	-44.2	18.9	0.00e+00	0	43	0	839909376	57	4157
2026-01-29 22:43:06.10	138.08	22.28	-43.0	-44.4	18.6	0.00e+00	0	42	0	846200832	57	4260
2026-01-29 22:43:09.10	138.68	21.99	-42.8	-44.1	18.8	0.00e+00	0	43	0	851443712	57	4145
2026-01-29 22:43:12.10	139.26	21.70	-42.3	-43.5	19.5	0.00e+00	0	43	0	856686592	56	4094
2026-01-29 22:43:15.10	139.83	21.41	-42.3	-43.6	19.4	0.00e+00	0	43	0	862978048	56	4116
2026-01-29 22:43:18.11	140.40	21.12	-42.3	-43.6	19.4	0.00e+00	0	42	0	868220928	56	4108
2026-01-29 22:43:21.11	140.95	20.83	-42.0	-43.3	19.7	0.00e+00	0	42	0	874512384	56	3980
2026-01-29 22:43:24.11	141.49	20.55	-42.1	-43.3	19.7	0.00e+00	0	42	0	879755264	56	3985
2026-01-29 22:43:27.11	142.02	20.26	-42.2	-43.4	19.5	0.00e+00	0	42	0	884998144	56	4046
2026-01-29 22:43:30.12	142.55	19.97	-42.0	-43.3	19.7	0.00e+00	0	43	0	891289600	56	3964
2026-01-29 22:43:33.12	143.06	19.69	-41.6	-42.8	20.0	0.00e+00	0	43	0	896532480	55	3992
2026-01-29 22:43:36.12	143.56	19.40	-42.1	-43.4	19.4	0.00e+00	0	42	0	901775360	55	4282
2026-01-29 22:43:39.13	144.06	19.12	-42.8	-44.3	18.6	0.00e+00	0	43	0	908066816	56	4480
2026-01-29 22:43:42.14	144.55	18.83	-42.8	-44.3	18.7	0.00e+00	0	43	0	913309696	56	4486
2026-01-29 22:43:45.14	145.02	18.55	-42.5	-43.9	19.1	0.00e+00	0	43	0	918552576	56	4279
2026-01-29 22:43:48.14	145.49	18.27	-42.8	-44.3	18.7	0.00e+00	0	43	0	924844032	56	4447
2026-01-29 22:43:51.14	145.95	17.99	-42.9	-44.3	18.7	0.00e+00	0	42	0	930086912	56	4480
2026-01-29 22:43:54.14	146.41	17.72	-42.8	-44.2	18.8	0.00e+00	0	43	0	936378368	56	4415
2026-01-29 22:43:57.14	146.85	17.44	-42.9	-44.4	18.6	0.00e+00	0	43	0	941621248	56	4511
2026-01-29 22:44:00.14	147.29	17.17	-43.2	-44.7	18.3	0.00e+00	0	42	0	946864128	56	4679
2026-01-29 22:44:03.15	147.72	16.89	-43.4	-45.0	18.0	0.00e+00	0	42	0	953155584	57	4568
2026-01-29 22:44:06.15	148.14	16.62	-43.6	-45.2	17.8	0.00e+00	0	43	0	958398464	57	4693
2026-01-29 22:44:09.15	148.55	16.35	-44.0	-45.9	17.1	0.00e+00	0	43	0	963641344	58	4782
2026-01-29 22:44:12.14	148.96	16.09	-44.3	-46.2	16.8	0.00e+00	0	43	0	969932800	59	4681
2026-01-29 22:44:15.14	149.36	15.82	-43.7	-45.4	17.6	0.00e+00	0	43	0	975175680	59	4257
2026-01-29 22:44:18.14	149.75	15.56	-43.6	-45.2	17.8	0.00e+00	0	43	0	980418560	59	4161
2026-01-29 22:44:21.14	150.14	15.29	-43.5	-45.2	17.7	0.00e+00	0	43	0	986710016	58	4423
2026-01-29 22:44:24.14	150.52	15.03	-44.2	-46.1	16.9	0.00e+00	0	42	0	991952896	58	4878
2026-01-29 22:44:27.14	150.89	14.77	-44.2	-46.0	17.0	0.00e+00	0	43	0	998244352	59	4576
2026-01-29 22:44:30.14	151.26	14.51	-43.8	-45.5	17.5	0.00e+00	0	43	0	1003487232	59	4305
2026-01-29 22:44:33.15	151.62	14.26	-43.5	-45.1	17.8	0.00e+00	0	42	0	1008730112	58	4380
2026-01-29 22:44:36.15	151.98	14.00	-43.8	-45.6	17.4	0.00e+00	0	42	0	1015021568	58	4606
2026-01-29 22:44:39.15	152.33	13.75	-44.2	-46.1	16.9	0.00e+00	0	42	0	1020264448	58	4891
2026-01-29 22:44:42.16	152.67	13.50	-44.1	-46.0	16.9	0.00e+00	0	43	0	1025507328	59	4562
2026-01-29 22:44:45.15	153.01	13.25	-43.8	-45.7	17.3	0.00e+00	0	42	0	1031798784	59	4393
2026-01-29 22:44:48.16	153.34	13.00	-43.4	-45.1	17.8	0.00e+00	0	43	0	1037041664	58	4377
2026-01-29 22:44:51.16	153.67	12.75	-43.2	-44.8	18.1	0.00e+00	0	42	0	1043333120	58	4209
2026-01-29 22:44:54.16	153.99	12.51	-43.3	-45.0	17.9	0.00e+00	0	42	0	1048576000	58	4296
2026-01-29 22:44:57.16	154.31	12.27	-43.7	-45.4	17.5	0.00e+00	0	42	0	1053818880	58	4520
2026-01-29 22:45:00.16	154.62	12.02	-43.8	-45.7	17.2	0.00e+00	0	42	0	1060110336	58	4695
2026-01-29 22:45:03.17	154.93	11.78	-43.7	-45.6	17.3	0.00e+00	0	43	0	1065353216	58	4625
2026-01-29 22:45:06.17	155.24	11.55	-43.7	-45.5	17.2	0.00e+00	0	42	0	1070596096	58	4566
2026-01-29 22:45:09.18	155.53	11.31	-43.6	-45.3	17.6	0.00e+00	0	42	0	1076887552	58	4448
2026-01-29 22:45:12.18	155.83	11.07	-43.7	-45.4	17.4	0.00e+00	0	43	0	1082130432	58	4534
2026-01-29 22:45:15.17	156.12	10.84	-43.7	-45.4	17.4	0.00e+00	0	42	0	1087373312	58	4519
2026-01-29 22:45:18.17	156.40	10.61	-43.8	-45.6	17.2	0.00e+00	0	42	0	1093664768	58	4609
2026-01-29 22:45:21.18	156.68	10.38	-43.9	-45.7	17.1	0.00e+00	0	42	0	1098907648	58	4675
2026-01-29 22:45:24.18	156.96	10.15	-44.1	-45.9	16.9	0.00e+00	0	42	0	1105199104	59	4503
2026-01-29 22:45:27.19	157.23	9.92	-44.0	-45.8	9.8	3.80e-06	0	42	0	1110441984	59	4466
2026-01-29 22:45:30.18	157.50	9.70	-44.0	-45.8	16.9	0.00e+00	0	42	0	1115684864	59	4484
2026-01-29 22:45:33.19	157.76	9.47	-44.0	-45.8	16.9	0.00e+00	0	42	0	1121976320	59	4473
2026-01-29 22:45:36.19	158.02	9.25	-44.5	-46.6	16.2	2.83e-02	0	42	0	1127219200	60	4630
2026-01-29 22:45:39.20	158.28	9.03	-44.4	-46.4	16.3	3.29e-02	0	42	0	1132462080	60	4523
2026-01-29 22:45:42.21	158.53	8.81	-49.7	-64.3	3.8	1.49e+00	0	42	104	1134559232	70	20037
2026-01-29 22:45:45.22	158.78	8.59	-49.8	-64.5	3.8	1.49e+00	0	42	104	1134559232	70	20530
2026-01-29 22:45:48.23	159.03	8.37	-50.4	-64.6	3.8	1.49e+00	0	43	104	1134559232	71	19524
2026-01-29 22:45:51.24	159.27	8.16	-50.5	-64.7	3.8	1.49e+00	0	43	104	1134559232	71	19642
2026-01-29 22:45:54.25	159.51	7.94	-50.3	-64.7	3.8	1.49e+00	0	42	104	1134559232	71	19775
2026-01-29 22:45:57.26	159.75	7.73	-50.6	-64.7	3.8	1.49e+00	0	42	104	1134559232	71	19723
2026-01-29 22:46:00.27	159.98	7.52	-50.6	-64.7	3.8	1.49e+00	0	42	104	1134559232	71	19838
2026-01-29 22:46:03.28	160.21	7.31	-50.3	-64.8	3.8	1.49e+00	0	42	104	1134559232	71	19895
2026-01-29 22:46:06.28	160.43	7.10	-50.5	-64.8	3.8	1.49e+00	0	42	104	1134559232	71	19854
2026-01-29 22:46:09.30	160.66	6.89	-50.3	-64.7	3.8	1.49e+00	0	43	104	1134559232	71	19815
2026-01-29 22:46:12.30	160.88	6.68	-50.1	-64.6	3.8	1.49e+00	0	42	104	1134559232	71	19514
2026-01-29 22:46:15.31	161.10	6.48	-50.1	-64.4	3.8	1.49e+00	0	42	104	1134559232	71	19043
2026-01-29 22:46:18.32	161.31	6.27	-49.8	-64.1	3.8	1.49e+00	0	42	104	1134559232	71	18320
2026-01-29 22:46:21.33	161.52	6.07	-49.8	-64.0	3.8	1.49e+00	0	42	104	1134559232	71	18287
2026-01-29 22:46:24.34	161.73	5.87	-49.7	-64.0	3.8	1.49e+00	0	42	104	1134559232	71	18248
2026-01-29 22:46:27.35	161.94	5.67	-49.7	-64.0	3.8	1.49e+00	0	42	104	1134559232	71	18205
2026-01-29 22:46:30.36	162.14	5.47	-49.7	-64.0	3.8	1.49e+00	0	42	104	1134559232	71	18282
2026-01-29 22:46:33.37	162.34	5.27	-49.7	-64.0	3.8	1.49e+00	0	42	104	1134559232	71	18254
2026-01-29 22:46:36.37	162.54	5.08	-49.7	-64.0	3.8	1.49e+00	0	42	104	1134559232	71	18144

#Closed at: 2026-01-29 22:46:39
#Recorded file [1134 MB]: D:/Data/31040_260130_013436.dat