passes_logs/2026/01/29/T1/T1__20260129_080442_KHAYYAM_rec.log

#Pass ID: 20260129_080442_KHAYYAM
#Satellite: KHAYYAM
#Configuration: KHAYYAM_480M
#almurnet v.1.7.20251203
#Start time: 2026-01-29 08:04:42

#Version: 2.0.20230620
#Station: T1
#Location: 37.570604 lon 55.790049 lat
#TLE: 1 53370U 22096A   26027.95146228  .00008464  00000+0  34400-3 0  9996
#TLE: 2 53370  97.3551 294.7289 0002128 106.8144 253.3328 15.24796926193211

#Time	Az	El	Level	Level2	SNR	BER	BlckErr	Temp	State	Recorded	gain1	gain2
2026-01-29 08:04:42.35	172.38	4.95	-52.5	-57.4	3.6	0.00e+00	0	45	0	0	77	23985
2026-01-29 08:04:45.34	172.45	5.20	-53.0	-57.7	3.7	0.00e+00	0	46	104	0	77	25017
2026-01-29 08:04:48.32	172.53	5.44	-53.0	-57.6	3.7	0.00e+00	0	46	104	0	77	24746
2026-01-29 08:04:51.31	172.61	5.69	-53.1	-57.8	3.7	0.00e+00	0	46	104	0	77	25309
2026-01-29 08:04:54.30	172.69	5.94	-53.4	-58.0	3.7	0.00e+00	0	46	104	0	77	25715
2026-01-29 08:04:57.29	172.77	6.20	-53.2	-57.8	3.7	0.00e+00	0	47	104	0	77	25210
2026-01-29 08:05:00.28	172.86	6.46	-53.0	-57.6	3.7	0.00e+00	0	47	104	0	77	24806
2026-01-29 08:05:03.27	172.94	6.72	-52.7	-57.5	3.7	0.00e+00	0	47	104	0	77	24283
2026-01-29 08:05:06.27	173.03	6.99	-51.3	-56.1	3.7	0.00e+00	0	47	104	0	74	24790
2026-01-29 08:05:09.26	173.12	7.26	-45.8	-51.0	3.7	0.00e+00	0	48	104	0	63	25975
2026-01-29 08:05:12.25	173.21	7.54	-46.4	-51.7	3.7	0.00e+00	0	48	104	0	63	27859
2026-01-29 08:05:15.24	173.31	7.82	-46.2	-51.4	3.7	0.00e+00	0	48	104	0	63	27087
2026-01-29 08:05:18.23	173.40	8.10	-46.4	-51.6	3.7	0.00e+00	0	48	104	0	63	27614
2026-01-29 08:05:21.22	173.50	8.39	-46.5	-51.7	3.7	0.00e+00	0	48	104	0	63	27843
2026-01-29 08:05:24.22	173.60	8.68	-46.3	-51.5	3.7	0.00e+00	0	48	104	0	64	25906
2026-01-29 08:05:27.21	173.70	8.98	-46.3	-51.5	3.7	0.00e+00	0	48	104	0	64	25871
2026-01-29 08:05:30.20	173.81	9.28	-46.6	-51.8	3.7	0.00e+00	0	48	104	0	64	26836
2026-01-29 08:05:33.21	173.91	9.59	-45.9	-51.1	3.7	0.00e+00	0	48	104	0	63	26148
2026-01-29 08:05:36.21	174.02	9.90	-46.0	-51.2	3.7	0.00e+00	0	49	104	0	63	26320
2026-01-29 08:05:39.22	174.14	10.22	-46.6	-51.8	3.7	0.00e+00	0	49	104	0	63	28342
2026-01-29 08:05:42.22	174.25	10.54	-47.5	-52.7	3.7	0.00e+00	0	49	104	0	65	27900
2026-01-29 08:05:45.22	174.37	10.87	-47.4	-52.7	3.7	0.00e+00	0	49	104	0	65	27996
2026-01-29 08:05:48.23	174.50	11.21	-48.6	-53.7	3.7	0.00e+00	0	49	104	0	67	27896
2026-01-29 08:05:51.23	174.62	11.55	-47.9	-53.0	3.7	0.00e+00	0	49	104	0	67	25963
2026-01-29 08:05:54.23	174.75	11.89	-47.7	-52.9	3.7	0.00e+00	0	49	104	0	67	25628
2026-01-29 08:05:57.23	174.88	12.25	-47.6	-52.8	3.7	0.00e+00	0	49	104	0	67	25195
2026-01-29 08:06:00.23	175.02	12.61	-47.4	-52.7	3.7	0.00e+00	0	50	104	0	66	26317
2026-01-29 08:06:03.23	175.16	12.98	-47.9	-53.1	3.7	0.00e+00	0	49	104	0	66	27799
2026-01-29 08:06:06.23	175.30	13.35	-50.1	-55.0	3.7	0.00e+00	0	50	104	0	70	27388
2026-01-29 08:06:09.23	175.45	13.74	-51.3	-56.1	3.7	0.00e+00	0	49	104	0	73	26087
2026-01-29 08:06:12.23	175.60	14.13	-51.6	-56.3	3.7	0.00e+00	0	49	104	0	73	26685
2026-01-29 08:06:15.23	175.76	14.53	-52.1	-56.8	3.7	0.00e+00	0	49	104	0	75	25120
2026-01-29 08:06:18.23	175.92	14.94	-51.3	-56.3	3.7	0.00e+00	0	50	104	0	73	26656
2026-01-29 08:06:21.23	176.09	15.35	-50.7	-55.7	3.7	0.00e+00	0	50	104	0	73	25075
2026-01-29 08:06:24.24	176.26	15.78	-51.1	-56.1	3.7	0.00e+00	0	50	104	0	73	25992
2026-01-29 08:06:27.24	176.44	16.22	-51.0	-56.1	3.7	0.00e+00	0	50	104	0	73	25999
2026-01-29 08:06:30.24	176.62	16.67	-51.1	-56.0	3.7	0.00e+00	0	50	104	0	73	25863
2026-01-29 08:06:33.24	176.81	17.12	-51.2	-56.1	3.7	0.00e+00	0	50	104	0	73	26112
2026-01-29 08:06:36.25	177.01	17.59	-51.8	-56.3	3.7	0.00e+00	0	50	104	0	74	25340
2026-01-29 08:06:39.25	177.21	18.07	-52.0	-56.7	3.7	0.00e+00	0	50	104	0	74	26289
2026-01-29 08:06:42.26	177.42	18.57	-51.7	-56.3	3.7	0.00e+00	0	50	104	0	74	25100
2026-01-29 08:06:45.26	177.64	19.07	-52.0	-56.3	3.7	0.00e+00	0	50	104	0	74	25174
2026-01-29 08:06:48.26	177.87	19.59	-52.3	-56.6	3.7	0.00e+00	0	50	104	0	75	24645
2026-01-29 08:06:51.27	178.11	20.13	-52.3	-56.7	3.6	0.00e+00	0	50	104	0	75	24832
2026-01-29 08:06:54.27	178.35	20.67	-51.2	-54.7	3.7	0.00e+00	0	50	104	0	74	20954
2026-01-29 08:06:57.27	178.61	21.23	-50.1	-52.9	3.8	0.00e+00	0	50	104	0	71	20301
2026-01-29 08:07:00.27	178.87	21.81	-51.9	-56.2	3.7	0.00e+00	0	50	104	0	75	23515
2026-01-29 08:07:03.27	179.15	22.41	-51.0	-54.6	3.7	0.00e+00	0	50	104	0	74	20872
2026-01-29 08:07:06.27	179.44	23.02	-49.9	-52.9	3.8	0.00e+00	0	50	104	0	71	20246
2026-01-29 08:07:09.28	179.74	23.65	-51.7	-56.3	3.7	0.00e+00	0	50	104	0	75	23962
2026-01-29 08:07:12.28	180.06	24.29	-51.9	-55.8	3.7	0.00e+00	0	50	104	0	75	22428
2026-01-29 08:07:15.29	180.39	24.96	-52.0	-55.9	3.7	0.00e+00	0	50	104	0	75	22751
2026-01-29 08:07:18.29	180.73	25.65	-52.5	-57.0	3.7	0.00e+00	0	50	104	0	75	25902
2026-01-29 08:07:21.29	181.10	26.36	-53.0	-57.4	3.7	0.00e+00	0	50	104	0	76	25525
2026-01-29 08:07:24.29	181.48	27.09	-53.2	-57.7	3.7	0.00e+00	0	50	104	0	77	25054
2026-01-29 08:07:27.29	181.88	27.84	-53.0	-57.6	3.7	0.00e+00	0	50	104	0	77	24720
2026-01-29 08:07:30.30	182.30	28.63	-53.0	-57.6	3.7	0.00e+00	0	50	104	0	77	24713
2026-01-29 08:07:33.30	182.74	29.43	-52.4	-57.1	3.7	0.00e+00	0	50	104	0	76	24743
2026-01-29 08:07:36.30	183.21	30.26	-52.8	-57.5	3.7	0.00e+00	0	50	104	0	76	25681
2026-01-29 08:07:39.31	183.70	31.12	-53.0	-57.5	3.7	0.00e+00	0	50	104	0	76	25930
2026-01-29 08:07:42.32	184.23	32.01	-52.9	-57.6	3.7	0.00e+00	0	50	104	0	76	26059
2026-01-29 08:07:45.32	184.79	32.93	-53.0	-57.5	3.7	0.00e+00	0	50	104	0	76	25871
2026-01-29 08:07:48.32	185.38	33.88	-53.1	-57.6	3.7	0.00e+00	0	50	104	0	76	26093
2026-01-29 08:07:51.33	186.00	34.86	-53.0	-57.5	3.7	0.00e+00	0	51	104	0	77	24390
2026-01-29 08:07:54.32	186.67	35.87	-53.0	-57.5	3.7	0.00e+00	0	50	104	0	77	24280
2026-01-29 08:07:57.32	187.39	36.91	-52.9	-57.4	3.7	0.00e+00	0	50	104	0	77	24194
2026-01-29 08:08:00.32	188.15	38.00	-52.9	-57.5	3.7	0.00e+00	0	50	104	0	77	24467
2026-01-29 08:08:03.32	188.97	39.11	-53.2	-57.6	3.7	0.00e+00	0	50	104	0	77	24660
2026-01-29 08:08:06.32	189.85	40.27	-53.3	-57.8	3.7	0.00e+00	0	50	104	0	77	25177
2026-01-29 08:08:09.32	190.80	41.46	-53.0	-57.5	3.7	0.00e+00	0	50	104	0	77	24452
2026-01-29 08:08:12.32	191.83	42.68	-53.2	-57.7	3.7	0.00e+00	0	50	104	0	77	24823
2026-01-29 08:08:15.33	192.94	43.95	-53.2	-57.7	3.7	0.00e+00	0	50	104	0	77	24982
2026-01-29 08:08:18.33	194.15	45.25	-53.4	-57.8	3.7	0.00e+00	0	50	104	0	77	25337
2026-01-29 08:08:21.33	195.46	46.58	-52.9	-57.6	3.7	0.00e+00	0	50	104	0	77	24719
2026-01-29 08:08:24.33	196.90	47.94	-53.4	-57.9	3.7	0.00e+00	0	50	104	0	77	25424
2026-01-29 08:08:27.33	198.47	49.34	-53.4	-57.9	3.7	0.00e+00	0	50	104	0	77	25647
2026-01-29 08:08:30.33	200.20	50.75	-52.4	-57.4	3.7	0.00e+00	0	50	104	0	76	25496
2026-01-29 08:08:33.33	202.10	52.19	-53.3	-57.8	3.7	0.00e+00	0	50	104	0	77	25344
2026-01-29 08:08:36.34	204.20	53.64	-53.4	-58.0	3.7	0.00e+00	0	50	104	0	77	25714
2026-01-29 08:08:39.34	206.53	55.10	-53.1	-57.8	3.7	0.00e+00	0	50	104	0	77	25305
2026-01-29 08:08:42.34	209.10	56.54	-53.3	-57.9	3.7	0.00e+00	0	50	104	0	77	25561
2026-01-29 08:08:45.35	211.98	57.97	-53.2	-57.7	3.7	0.00e+00	0	50	104	0	77	25079
2026-01-29 08:08:48.35	215.16	59.36	-52.8	-57.6	3.7	0.00e+00	0	50	104	0	77	24639
2026-01-29 08:08:51.36	218.71	60.70	-53.4	-57.8	3.7	0.00e+00	0	50	104	0	77	25175
2026-01-29 08:08:54.36	222.64	61.96	-53.5	-58.0	3.7	0.00e+00	0	50	104	0	77	25802
2026-01-29 08:08:57.36	226.97	63.12	-53.1	-57.8	3.7	0.00e+00	0	50	104	0	77	25319
2026-01-29 08:09:00.36	231.73	64.15	-53.1	-57.7	3.7	0.00e+00	0	50	104	0	77	24942
2026-01-29 08:09:03.36	236.90	65.02	-53.3	-57.8	3.7	0.00e+00	0	50	104	0	77	25325
2026-01-29 08:09:06.36	242.43	65.70	-53.3	-57.9	3.7	0.00e+00	0	50	104	0	77	25444
2026-01-29 08:09:09.36	248.27	66.17	-53.6	-58.0	3.7	0.00e+00	0	50	104	0	77	25860
2026-01-29 08:09:12.36	254.31	66.42	-53.3	-57.9	3.7	0.00e+00	0	50	104	0	77	25534
2026-01-29 08:09:15.36	260.42	66.43	-53.0	-57.7	3.7	0.00e+00	0	50	104	0	77	24965
2026-01-29 08:09:18.36	266.46	66.20	-53.1	-57.7	3.6	0.00e+00	0	50	104	0	77	25059
2026-01-29 08:09:21.36	272.31	65.74	-53.4	-57.8	3.7	0.00e+00	0	50	104	0	77	25287
2026-01-29 08:09:24.37	277.88	65.06	-53.1	-57.7	3.7	0.00e+00	0	50	104	0	77	24811
2026-01-29 08:09:27.37	283.06	64.20	-53.3	-57.7	3.7	0.00e+00	0	50	104	0	77	24956
2026-01-29 08:09:30.38	287.85	63.18	-53.1	-57.6	3.7	0.00e+00	0	51	104	0	77	24646
2026-01-29 08:09:33.38	292.21	62.03	-53.3	-57.7	3.7	0.00e+00	0	50	104	0	77	24906
2026-01-29 08:09:36.38	296.15	60.78	-53.3	-57.7	3.7	0.00e+00	0	50	104	0	77	24874
2026-01-29 08:09:39.39	299.72	59.45	-53.5	-57.8	3.7	0.00e+00	0	50	104	0	77	25354
2026-01-29 08:09:42.38	302.90	58.07	-53.0	-57.6	3.7	0.00e+00	0	50	104	0	77	24637
2026-01-29 08:09:45.38	305.78	56.65	-53.5	-57.9	3.7	0.00e+00	0	50	104	0	77	25424
2026-01-29 08:09:48.38	308.37	55.21	-53.1	-57.7	3.6	0.00e+00	0	50	104	0	77	24970
2026-01-29 08:09:51.38	310.71	53.77	-53.0	-57.6	3.6	0.00e+00	0	50	104	0	77	24595
2026-01-29 08:09:54.39	312.82	52.32	-52.6	-57.4	3.7	0.00e+00	0	50	104	0	77	24025
2026-01-29 08:09:57.39	314.73	50.88	-52.8	-57.4	3.7	0.00e+00	0	50	104	0	77	23983
2026-01-29 08:10:00.39	316.47	49.47	-53.1	-57.5	3.7	0.00e+00	0	50	104	0	77	24323
2026-01-29 08:10:03.39	318.04	48.08	-52.7	-57.3	3.7	0.00e+00	0	50	104	0	77	23875
2026-01-29 08:10:06.40	319.49	46.72	-53.0	-57.5	3.7	0.00e+00	0	50	104	0	77	24421
2026-01-29 08:10:09.40	320.81	45.39	-52.5	-57.3	3.7	0.00e+00	0	50	104	0	77	23708
2026-01-29 08:10:12.40	322.02	44.10	-52.8	-57.6	3.7	0.00e+00	0	50	104	0	76	26005
2026-01-29 08:10:15.41	323.14	42.83	-53.0	-57.6	3.7	0.00e+00	0	50	104	0	76	26121
2026-01-29 08:10:18.41	324.17	41.61	-52.9	-57.6	3.7	0.00e+00	0	50	104	0	76	26260
2026-01-29 08:10:21.41	325.13	40.42	-52.9	-57.4	3.7	0.00e+00	0	50	104	0	76	25666
2026-01-29 08:10:24.42	326.01	39.27	-51.7	-57.0	3.7	0.00e+00	0	50	104	0	75	25736
2026-01-29 08:10:27.42	326.84	38.15	-50.8	-56.5	3.7	0.00e+00	0	50	104	0	72	29036
2026-01-29 08:10:30.42	327.60	37.07	-53.1	-57.7	3.7	0.00e+00	0	50	104	0	76	26404
2026-01-29 08:10:33.42	328.32	36.03	-51.9	-57.0	3.7	0.00e+00	0	50	104	0	75	25732
2026-01-29 08:10:36.42	328.99	35.02	-51.4	-56.7	3.7	0.00e+00	0	50	104	0	74	26379
2026-01-29 08:10:39.43	329.63	34.04	-51.8	-56.9	3.7	0.00e+00	0	50	104	0	74	27012
2026-01-29 08:10:42.42	330.22	33.10	-52.7	-57.5	3.7	0.00e+00	0	50	104	0	76	25751
2026-01-29 08:10:45.42	330.77	32.18	-52.2	-57.2	3.7	0.00e+00	0	50	104	0	76	24841
2026-01-29 08:10:48.42	331.30	31.30	-51.6	-56.9	3.7	0.00e+00	0	50	104	0	75	25400
2026-01-29 08:10:51.42	331.80	30.44	-51.0	-56.2	3.7	0.00e+00	0	50	104	0	73	26320
2026-01-29 08:10:54.42	332.27	29.61	-52.4	-57.0	3.7	0.00e+00	0	50	104	0	75	25749
2026-01-29 08:10:57.42	332.71	28.81	-51.7	-56.8	3.7	0.00e+00	0	50	104	0	74	26650
2026-01-29 08:11:00.43	333.14	28.03	-50.6	-56.2	3.7	0.00e+00	0	50	104	0	73	26403
2026-01-29 08:11:03.43	333.54	27.28	-50.8	-56.4	3.7	0.00e+00	0	50	104	0	73	26927
2026-01-29 08:11:06.43	333.92	26.55	-51.3	-56.7	3.7	0.00e+00	0	50	104	0	74	26486
2026-01-29 08:11:09.44	334.28	25.84	-52.8	-57.6	3.7	0.00e+00	0	50	104	0	76	26212
2026-01-29 08:11:12.45	334.63	25.15	-52.6	-57.4	3.7	0.00e+00	0	50	104	0	76	25564
2026-01-29 08:11:15.45	334.96	24.48	-51.6	-56.6	3.7	0.00e+00	0	50	104	0	75	24776
2026-01-29 08:11:18.45	335.28	23.84	-50.5	-56.0	3.7	0.00e+00	0	50	104	0	73	25873
2026-01-29 08:11:21.46	335.59	23.21	-51.4	-56.6	3.7	0.00e+00	0	50	104	0	73	27560
2026-01-29 08:11:24.46	335.88	22.60	-52.1	-57.0	3.7	0.00e+00	0	50	104	0	75	25704
2026-01-29 08:11:27.46	336.16	22.00	-52.7	-57.3	3.7	0.00e+00	0	50	104	0	76	25205
2026-01-29 08:11:30.46	336.42	21.43	-52.0	-57.0	3.7	0.00e+00	0	50	104	0	76	24338
2026-01-29 08:11:33.46	336.68	20.87	-51.6	-56.9	3.7	0.00e+00	0	50	104	0	74	27153
2026-01-29 08:11:36.46	336.93	20.32	-51.6	-56.8	3.7	0.00e+00	0	50	104	0	74	26730
2026-01-29 08:11:39.46	337.16	19.79	-51.1	-56.5	3.7	0.00e+00	0	50	104	0	72	28941
2026-01-29 08:11:42.46	337.39	19.27	-51.2	-56.5	3.7	0.00e+00	0	50	104	0	73	27286
2026-01-29 08:11:45.46	337.61	18.77	-52.1	-57.1	3.7	0.00e+00	0	50	104	0	74	27581
2026-01-29 08:11:48.46	337.83	18.28	-52.1	-57.1	3.7	0.00e+00	0	50	104	0	74	27706
2026-01-29 08:11:51.47	338.03	17.79	-51.9	-56.9	3.6	0.00e+00	0	50	104	0	74	27013
2026-01-29 08:11:54.48	338.23	17.32	-51.9	-56.9	3.7	0.00e+00	0	50	104	0	74	27079
2026-01-29 08:11:57.47	338.43	16.87	-51.9	-56.9	3.7	0.00e+00	0	50	104	0	75	25498
2026-01-29 08:12:00.48	338.61	16.42	-52.7	-57.5	3.7	0.00e+00	0	50	104	0	76	25720
2026-01-29 08:12:03.47	338.79	15.99	-51.9	-57.0	3.7	0.00e+00	0	50	104	0	75	25894
2026-01-29 08:12:06.47	338.97	15.56	-51.0	-56.4	3.7	0.00e+00	0	50	104	0	74	25608
2026-01-29 08:12:09.48	339.14	15.14	-50.9	-56.3	3.7	0.00e+00	0	50	104	0	73	26883
2026-01-29 08:12:12.49	339.30	14.73	-50.7	-56.1	3.7	0.00e+00	0	50	104	0	73	26222
2026-01-29 08:12:15.49	339.46	14.33	-50.8	-56.2	3.7	0.00e+00	0	50	104	0	73	26292
2026-01-29 08:12:18.49	339.61	13.94	-50.5	-56.0	3.7	0.00e+00	0	50	104	0	72	27354
2026-01-29 08:12:21.50	339.76	13.56	-49.8	-55.7	3.7	0.00e+00	0	50	104	0	70	29510
2026-01-29 08:12:24.50	339.91	13.18	-51.7	-56.9	3.7	0.00e+00	0	50	104	0	74	27138
2026-01-29 08:12:27.50	340.05	12.81	-49.5	-55.5	3.7	0.00e+00	0	50	104	0	70	28815
2026-01-29 08:12:30.51	340.19	12.45	-51.1	-56.5	3.7	0.00e+00	0	50	104	0	72	28933
2026-01-29 08:12:33.50	340.32	12.10	-51.7	-56.9	3.7	0.00e+00	0	50	104	0	74	27101
2026-01-29 08:12:36.51	340.45	11.75	-48.7	-54.9	3.7	0.00e+00	0	50	104	0	69	28695
2026-01-29 08:12:39.51	340.58	11.41	-49.4	-55.5	3.7	0.00e+00	0	50	104	0	69	30711
2026-01-29 08:12:42.52	340.71	11.08	-50.7	-56.3	3.7	0.00e+00	0	50	104	0	72	28311
2026-01-29 08:12:45.51	340.83	10.75	-50.4	-56.1	3.7	0.00e+00	0	50	104	0	72	27625
2026-01-29 08:12:48.52	340.95	10.42	-50.5	-56.2	3.7	0.00e+00	0	50	104	0	72	27902
2026-01-29 08:12:51.52	341.06	10.11	-50.5	-56.2	3.7	0.00e+00	0	50	104	0	72	27874
2026-01-29 08:12:54.53	341.17	9.79	-50.5	-56.3	3.7	0.00e+00	0	50	104	0	72	28224
2026-01-29 08:12:57.54	341.29	9.49	-51.8	-57.0	3.7	0.00e+00	0	50	104	0	74	27302
2026-01-29 08:13:00.54	341.39	9.18	-48.3	-54.8	3.7	0.00e+00	0	50	104	0	68	30062
2026-01-29 08:13:03.53	341.50	8.89	-51.4	-56.6	3.7	0.00e+00	0	50	104	0	74	26267
2026-01-29 08:13:06.53	341.60	8.60	-50.4	-56.0	3.7	0.00e+00	0	50	104	0	72	27381
2026-01-29 08:13:09.52	341.70	8.31	-49.9	-55.6	3.7	0.00e+00	0	50	104	0	71	27819
2026-01-29 08:13:12.51	341.80	8.03	-50.8	-55.7	3.7	0.00e+00	0	50	104	0	73	25088
2026-01-29 08:13:15.50	341.90	7.75	-51.8	-56.6	3.7	0.00e+00	0	50	104	0	75	24525
2026-01-29 08:13:18.49	341.99	7.47	-52.0	-56.7	3.7	0.00e+00	0	50	104	0	75	24910
2026-01-29 08:13:21.48	342.08	7.20	-51.5	-55.1	3.7	0.00e+00	0	50	104	0	74	22092
2026-01-29 08:13:24.46	342.17	6.94	-51.4	-55.1	3.7	0.00e+00	0	50	104	0	74	21956
2026-01-29 08:13:27.45	342.26	6.67	-51.4	-55.1	3.7	0.00e+00	0	50	104	0	74	21876
2026-01-29 08:13:30.44	342.35	6.42	-51.4	-55.0	3.7	0.00e+00	0	50	104	0	74	21811
2026-01-29 08:13:33.43	342.43	6.16	-51.4	-55.1	3.7	0.00e+00	0	50	104	0	74	21931
2026-01-29 08:13:36.42	342.52	5.91	-51.5	-55.2	3.7	0.00e+00	0	50	104	0	74	22110
2026-01-29 08:13:39.41	342.60	5.66	-51.5	-55.2	3.7	0.00e+00	0	50	104	0	74	22123
2026-01-29 08:13:42.40	342.68	5.41	-51.4	-55.0	3.7	0.00e+00	0	50	104	0	74	21826
2026-01-29 08:13:45.39	342.76	5.17	-51.4	-55.1	3.7	0.00e+00	0	50	104	0	74	21931

#Closed at: 2026-01-29 08:13:48
#Recorded file [0 MB]: D:/Data/31040_260129_110442.dat