passes_logs/2026/01/29/T1/T1__20260129_043217_FENGYUN_3E_rec.log

#Pass ID: 20260129_043217_FENGYUN 3E
#Satellite: FENGYUN 3E
#Configuration: FENGYUN 3E
#almurnet v.1.7.20251203
#Start time: 2026-01-29 04:32:17

#Version: 2.0.20230620
#Station: T1
#Location: 37.570604 lon 55.790049 lat
#TLE: 1 49008U 21062A   26027.83084825  .00000170  00000+0  10081-3 0  9997
#TLE: 2 49008  98.7501  32.8098 0002509 114.2687 245.8752 14.19888158236667

#Time	Az	El	Level	Level2	SNR	BER	BlckErr	Temp	State	Recorded	gain1	gain2
2026-01-29 04:32:17.09	12.78	4.96	-50.1	-61.2	3.8	8.46e-01	0	37	0	0	70	12971
2026-01-29 04:32:21.05	12.68	5.23	-50.6	-61.3	3.8	8.46e-01	0	37	104	0	71	12432
2026-01-29 04:32:25.03	12.57	5.52	-50.6	-61.3	3.8	8.47e-01	0	37	104	0	71	12407
2026-01-29 04:32:29.00	12.46	5.80	-50.5	-61.1	3.8	8.47e-01	0	38	104	0	71	12206
2026-01-29 04:32:32.97	12.35	6.09	-50.0	-61.0	3.8	8.47e-01	0	38	104	0	70	12699
2026-01-29 04:32:36.95	12.24	6.38	-49.8	-60.8	3.8	8.47e-01	0	38	104	0	69	13208
2026-01-29 04:32:40.92	12.12	6.68	-49.1	-60.4	3.8	8.47e-01	0	38	104	0	67	14168
2026-01-29 04:32:44.89	12.00	6.97	-48.2	-58.3	3.9	8.45e-01	0	38	104	0	67	11033
2026-01-29 04:32:48.87	11.87	7.28	-48.2	-58.0	4.0	8.45e-01	0	38	104	0	67	10683
2026-01-29 04:32:52.84	11.75	7.58	-48.1	-57.6	4.0	8.45e-01	0	39	104	0	67	10195
2026-01-29 04:32:56.81	11.62	7.89	-47.6	-54.6	5.2	7.79e-01	0	39	0	0	66	7631
2026-01-29 04:33:00.79	11.49	8.20	-46.1	-50.0	9.3	2.34e-02	0	39	0	22020096	62	5675
2026-01-29 04:33:04.76	11.35	8.51	-44.1	-46.4	12.9	7.43e-05	0	39	0	51380224	58	4751
2026-01-29 04:33:08.73	11.21	8.83	-43.8	-46.1	13.3	2.97e-05	0	39	0	79691776	58	4563
2026-01-29 04:33:12.79	11.07	9.16	-48.1	-55.6	4.7	7.32e-01	0	39	0	108003328	65	9106
2026-01-29 04:33:16.96	10.91	9.51	-40.5	-42.0	17.3	0.00e+00	0	39	0	134217728	51	4248
2026-01-29 04:33:20.97	10.76	9.84	-40.2	-41.5	17.8	0.00e+00	0	39	0	163577856	50	4287
2026-01-29 04:33:24.97	10.61	10.18	-39.2	-40.4	18.9	0.00e+00	0	39	0	191889408	49	3973
2026-01-29 04:33:29.12	10.44	10.54	-38.9	-40.1	19.2	0.00e+00	0	39	0	222298112	48	4076
2026-01-29 04:33:33.24	10.28	10.90	-38.7	-39.9	19.5	0.00e+00	0	39	0	251658240	48	3972
2026-01-29 04:33:37.23	10.11	11.25	-38.1	-39.3	19.8	0.00e+00	0	39	0	281018368	47	3925
2026-01-29 04:33:41.22	9.94	11.60	-38.0	-39.1	19.9	0.00e+00	0	39	0	309329920	46	4088
2026-01-29 04:33:45.21	9.76	11.97	-38.1	-39.2	19.9	0.00e+00	0	40	0	338690048	46	4102
2026-01-29 04:33:49.13	9.58	12.33	-37.9	-38.9	20.1	0.00e+00	0	39	0	367001600	46	4003
2026-01-29 04:33:53.11	9.40	12.70	-37.7	-38.7	20.3	0.00e+00	0	39	0	395313152	46	3901
2026-01-29 04:33:57.11	9.21	13.08	-37.6	-38.7	20.5	0.00e+00	0	40	0	424673280	46	3871
2026-01-29 04:34:01.33	9.00	13.48	-37.6	-38.6	20.5	0.00e+00	0	39	0	455081984	45	4058
2026-01-29 04:34:05.32	8.80	13.87	-37.5	-38.5	20.6	0.00e+00	0	40	0	483393536	45	4031
2026-01-29 04:34:09.41	8.58	14.27	-37.5	-38.5	20.6	0.00e+00	0	40	0	512753664	45	4018
2026-01-29 04:34:13.39	8.37	14.67	-37.3	-38.3	20.8	0.00e+00	0	40	0	542113792	45	3917
2026-01-29 04:34:17.38	8.15	15.08	-37.1	-38.1	21.1	0.00e+00	0	40	0	570425344	44	4056
2026-01-29 04:34:21.45	7.92	15.50	-37.0	-37.9	21.2	0.00e+00	0	40	0	599785472	44	3998
2026-01-29 04:34:25.51	7.68	15.93	-36.8	-37.8	21.3	0.00e+00	0	40	0	629145600	44	3936
2026-01-29 04:34:29.49	7.44	16.36	-36.6	-37.6	21.5	0.00e+00	0	40	0	658505728	44	3826
2026-01-29 04:34:33.73	7.17	16.82	-36.6	-37.6	21.4	0.00e+00	0	40	0	688914432	43	4057
2026-01-29 04:34:37.71	6.91	17.26	-36.4	-37.3	21.6	0.00e+00	0	40	0	717225984	43	3928
2026-01-29 04:34:41.69	6.65	17.71	-36.2	-37.2	21.7	0.00e+00	0	40	0	746586112	43	3870
2026-01-29 04:34:45.67	6.37	18.17	-36.2	-37.2	21.7	0.00e+00	0	40	0	774897664	43	3873
2026-01-29 04:34:49.65	6.09	18.63	-36.3	-37.2	21.8	0.00e+00	0	40	0	803209216	43	3883
2026-01-29 04:34:53.65	5.80	19.11	-36.2	-37.1	21.8	0.00e+00	0	40	0	832569344	43	3847
2026-01-29 04:34:57.62	5.50	19.59	-36.1	-37.0	21.9	0.00e+00	0	40	0	860880896	42	4047
2026-01-29 04:35:01.75	5.17	20.10	-35.9	-36.8	22.1	0.00e+00	0	40	0	891289600	42	3930
2026-01-29 04:35:05.74	4.85	20.60	-35.9	-36.8	22.2	0.00e+00	0	40	0	919601152	42	3914
2026-01-29 04:35:09.72	4.52	21.11	-35.9	-36.8	22.2	0.00e+00	0	40	0	947912704	42	3940
2026-01-29 04:35:13.70	4.17	21.62	-36.0	-36.9	22.0	0.00e+00	0	40	0	977272832	42	4001
2026-01-29 04:35:17.68	3.81	22.15	-36.0	-36.9	22.1	0.00e+00	0	40	0	1005584384	42	3991
2026-01-29 04:35:21.78	3.43	22.70	-35.7	-36.6	22.3	0.00e+00	0	40	0	1034944512	42	3848
2026-01-29 04:35:25.89	3.03	23.27	-35.7	-36.6	22.4	0.00e+00	0	40	0	1065353216	42	3833
2026-01-29 04:35:29.89	2.63	23.83	-35.6	-36.4	22.5	0.00e+00	0	40	0	1093664768	41	4002
2026-01-29 04:35:33.87	2.21	24.40	-35.4	-36.3	22.7	0.00e+00	0	40	0	1123024896	41	3918
2026-01-29 04:35:37.85	1.78	24.98	-35.2	-36.0	22.9	0.00e+00	0	40	0	1151336448	41	3804
2026-01-29 04:35:42.10	1.30	25.61	-34.9	-35.8	23.1	0.00e+00	0	40	0	1181745152	40	3923
2026-01-29 04:35:46.36	0.80	26.26	-35.1	-35.9	23.0	0.00e+00	0	40	0	1213202432	40	3992
2026-01-29 04:35:50.37	0.31	26.88	-35.0	-35.8	23.1	0.00e+00	0	40	0	1241513984	40	3931
2026-01-29 04:35:54.38	359.80	27.51	-34.9	-35.8	23.1	0.00e+00	0	40	0	1270874112	40	3929
2026-01-29 04:35:58.47	359.25	28.17	-35.1	-36.0	22.9	0.00e+00	0	40	0	1300234240	40	4025
2026-01-29 04:36:02.73	358.66	28.86	-35.3	-36.1	22.9	0.00e+00	0	40	0	1330642944	40	4077
2026-01-29 04:36:06.81	358.07	29.55	-35.3	-36.2	22.7	0.00e+00	0	40	0	1361051648	40	4112
2026-01-29 04:36:10.79	357.47	30.22	-35.2	-36.0	23.0	0.00e+00	0	40	0	1389363200	40	4032
2026-01-29 04:36:14.77	356.84	30.92	-35.0	-35.8	23.1	0.00e+00	0	40	0	1417674752	40	3943
2026-01-29 04:36:18.86	356.16	31.64	-34.8	-35.7	23.2	0.00e+00	0	40	0	1447034880	40	3880
2026-01-29 04:36:22.83	355.47	32.35	-34.7	-35.6	23.3	0.00e+00	0	40	0	1476395008	40	3838
2026-01-29 04:36:26.81	354.75	33.08	-34.7	-35.6	23.4	0.00e+00	0	40	0	1504706560	39	4055
2026-01-29 04:36:30.79	354.00	33.82	-34.9	-35.7	23.3	0.00e+00	0	40	0	1534066688	39	4128
2026-01-29 04:36:34.77	353.20	34.58	-34.8	-35.7	23.4	0.00e+00	0	40	0	1562378240	39	4105
2026-01-29 04:36:38.81	352.36	35.35	-35.0	-35.9	23.1	0.00e+00	0	40	0	1591738368	39	4210
2026-01-29 04:36:42.89	351.47	36.15	-35.1	-35.9	23.1	0.00e+00	0	40	0	1621098496	40	3980
2026-01-29 04:36:46.87	350.55	36.94	-34.8	-35.6	23.3	0.00e+00	0	40	0	1649410048	40	3844
2026-01-29 04:36:50.84	349.59	37.74	-35.2	-36.1	23.0	0.00e+00	0	40	0	1678770176	39	4293
2026-01-29 04:36:54.82	348.58	38.54	-35.3	-36.1	22.9	0.00e+00	0	40	0	1707081728	40	4085
2026-01-29 04:36:58.80	347.52	39.36	-34.8	-35.6	23.3	0.00e+00	0	40	0	1735393280	40	3855
2026-01-29 04:37:02.78	346.40	40.19	-34.9	-35.7	23.3	0.00e+00	0	40	0	1764753408	39	4135
2026-01-29 04:37:06.83	345.20	41.03	-35.6	-36.5	22.5	0.00e+00	0	40	0	1794113536	40	4272
2026-01-29 04:37:10.81	343.95	41.87	-35.7	-36.6	22.5	0.00e+00	0	40	0	1822425088	41	4066
2026-01-29 04:37:14.79	342.64	42.71	-35.0	-35.9	23.1	0.00e+00	0	40	0	1851785216	40	3961
2026-01-29 04:37:18.77	341.26	43.55	-35.1	-36.0	23.0	0.00e+00	0	40	0	1880096768	40	4013
2026-01-29 04:37:22.75	339.81	44.39	-35.5	-36.4	22.6	0.00e+00	0	40	0	1908408320	40	4224
2026-01-29 04:37:26.80	338.24	45.23	-36.0	-36.8	22.3	0.00e+00	0	40	0	1937768448	42	3951
2026-01-29 04:37:30.79	336.62	46.06	-35.4	-36.2	22.8	0.00e+00	0	40	0	1967128576	41	3911
2026-01-29 04:37:34.91	334.85	46.91	-35.9	-36.8	22.4	0.00e+00	0	40	0	1996488704	41	4153
2026-01-29 04:37:38.89	333.04	47.71	-36.7	-37.6	21.5	0.00e+00	0	40	0	2025848832	43	4097
2026-01-29 04:37:42.95	331.10	48.52	-36.1	-37.0	22.2	0.00e+00	0	40	0	2054160384	42	4018
2026-01-29 04:37:46.99	329.07	49.29	-35.9	-36.8	22.3	0.00e+00	0	40	0	2083520512	42	3938
2026-01-29 04:37:50.97	326.97	50.03	-36.6	-37.6	21.6	0.00e+00	0	40	0	2112880640	42	4294
2026-01-29 04:37:55.33	324.55	50.79	-36.9	-37.8	21.5	0.00e+00	0	40	0	2143289344	44	3934
2026-01-29 04:37:59.44	322.15	51.48	-35.7	-36.5	22.5	0.00e+00	0	40	0	2173698048	41	4050
2026-01-29 04:38:03.45	319.71	52.10	-36.4	-37.3	21.9	0.00e+00	0	40	0	2203058176	42	4152
2026-01-29 04:38:07.42	317.19	52.67	-35.8	-36.7	22.4	0.00e+00	0	40	0	2231369728	42	3873
2026-01-29 04:38:11.41	314.56	53.19	-35.9	-36.8	22.3	0.00e+00	0	40	0	2259681280	42	3926
2026-01-29 04:38:15.39	311.85	53.65	-35.7	-36.6	22.5	0.00e+00	0	40	0	2287992832	42	3838
2026-01-29 04:38:19.58	308.91	54.06	-36.3	-37.2	21.9	0.00e+00	0	40	0	2318401536	42	4115
2026-01-29 04:38:23.57	306.03	54.39	-36.6	-37.5	21.6	0.00e+00	0	40	0	2347761664	43	4029
2026-01-29 04:38:27.55	303.10	54.64	-36.3	-37.2	21.9	0.00e+00	0	40	0	2376073216	42	4135
2026-01-29 04:38:31.62	300.07	54.82	-36.0	-36.8	22.2	0.00e+00	0	40	0	2405433344	42	3936
2026-01-29 04:38:35.55	297.10	54.91	-36.4	-37.3	21.8	0.00e+00	0	40	0	2434793472	42	4176
2026-01-29 04:38:39.53	294.09	54.93	-36.1	-37.0	22.1	0.00e+00	0	40	0	2463105024	42	4024
2026-01-29 04:38:43.59	291.02	54.87	-36.5	-37.4	21.7	0.00e+00	0	40	0	2492465152	42	4214
2026-01-29 04:38:47.63	287.99	54.73	-36.0	-36.8	22.3	0.00e+00	0	41	0	2521825280	42	3944
2026-01-29 04:38:51.73	284.95	54.50	-36.6	-37.5	21.7	0.00e+00	0	40	0	2551185408	43	4009
2026-01-29 04:38:55.84	281.96	54.20	-36.2	-37.0	22.0	0.00e+00	0	40	0	2580545536	43	3819
2026-01-29 04:39:00.09	278.94	53.81	-36.6	-37.5	21.7	0.00e+00	0	40	0	2612002816	43	4015
2026-01-29 04:39:04.12	276.16	53.36	-36.7	-37.6	21.5	0.00e+00	0	40	0	2640314368	43	4071
2026-01-29 04:39:08.09	273.50	52.87	-35.8	-36.6	22.4	0.00e+00	0	40	0	2669674496	42	3863
2026-01-29 04:39:12.07	270.94	52.32	-36.6	-37.6	21.6	0.00e+00	0	40	0	2697986048	42	4299
2026-01-29 04:39:16.16	268.40	51.70	-36.3	-37.2	21.9	0.00e+00	0	41	0	2727346176	43	3894
2026-01-29 04:39:20.15	266.03	51.04	-36.6	-37.5	21.6	0.00e+00	0	40	0	2756706304	43	4045
2026-01-29 04:39:24.33	263.66	50.32	-36.6	-37.5	21.6	0.00e+00	0	40	0	2786066432	43	4032
2026-01-29 04:39:28.41	261.46	49.58	-36.1	-37.0	22.1	0.00e+00	0	40	0	2815426560	42	4011
2026-01-29 04:39:32.39	259.41	48.82	-35.6	-36.4	22.5	0.00e+00	0	41	0	2844786688	41	3989
2026-01-29 04:39:36.37	257.47	48.04	-35.8	-36.7	22.3	0.00e+00	0	40	0	2873098240	41	4104
2026-01-29 04:39:40.32	255.63	47.25	-35.7	-36.6	22.4	0.00e+00	0	40	0	2901409792	41	4073
2026-01-29 04:39:44.30	253.87	46.44	-35.6	-36.4	22.5	0.00e+00	0	40	0	2930769920	41	3999
2026-01-29 04:39:48.28	252.21	45.61	-35.0	-35.8	23.0	0.00e+00	0	40	0	2959081472	40	3948
2026-01-29 04:39:52.35	250.59	44.76	-35.3	-36.1	22.8	0.00e+00	0	40	0	2988441600	40	4089
2026-01-29 04:39:56.33	249.09	43.91	-34.7	-35.5	23.4	0.00e+00	0	40	0	3016753152	39	4046
2026-01-29 04:40:00.41	247.64	43.05	-35.1	-35.9	23.0	0.00e+00	0	40	0	3047161856	39	4238
2026-01-29 04:40:04.38	246.30	42.21	-34.9	-35.7	23.2	0.00e+00	0	40	0	3075473408	40	3886
2026-01-29 04:40:08.38	245.01	41.36	-35.0	-35.8	23.1	0.00e+00	0	40	0	3103784960	40	3956
2026-01-29 04:40:12.36	243.80	40.53	-34.9	-35.8	23.1	0.00e+00	0	40	0	3133145088	40	3919
2026-01-29 04:40:16.34	242.65	39.70	-34.8	-35.6	23.3	0.00e+00	0	40	0	3161456640	39	4083
2026-01-29 04:40:20.32	241.56	38.87	-35.2	-36.1	22.8	0.00e+00	0	41	0	3190816768	40	4060
2026-01-29 04:40:24.40	240.49	38.04	-34.9	-35.7	23.1	0.00e+00	0	40	0	3220176896	40	3896
2026-01-29 04:40:28.50	239.48	37.20	-34.9	-35.7	23.1	0.00e+00	0	40	0	3249537024	40	3907
2026-01-29 04:40:32.69	238.49	36.37	-34.9	-35.7	23.1	0.00e+00	0	40	0	3279945728	40	3886
2026-01-29 04:40:36.70	237.60	35.58	-34.7	-35.6	23.0	0.00e+00	0	41	0	3309305856	39	4063
2026-01-29 04:40:40.71	236.74	34.80	-34.8	-35.6	23.3	0.00e+00	0	41	0	3337617408	39	4079
2026-01-29 04:40:44.72	235.93	34.03	-34.7	-35.5	23.3	0.00e+00	0	40	0	3366977536	39	4029
2026-01-29 04:40:48.71	235.15	33.28	-34.6	-35.4	23.4	0.00e+00	0	41	0	3395289088	39	3985
2026-01-29 04:40:52.69	234.42	32.54	-34.8	-35.6	23.3	0.00e+00	0	40	0	3423600640	39	4063
2026-01-29 04:40:56.76	233.70	31.80	-34.9	-35.7	23.2	0.00e+00	0	40	0	3454009344	39	4114
2026-01-29 04:41:00.74	233.03	31.09	-34.9	-35.8	23.1	0.00e+00	0	41	0	3482320896	39	4154
2026-01-29 04:41:04.73	232.38	30.39	-35.0	-35.8	23.0	0.00e+00	0	40	0	3510632448	39	4192
2026-01-29 04:41:08.71	231.77	29.71	-34.9	-35.8	23.1	0.00e+00	0	40	0	3539992576	39	4159
2026-01-29 04:41:12.69	231.18	29.03	-35.2	-36.1	22.8	0.00e+00	0	40	0	3568304128	39	4305
2026-01-29 04:41:16.67	230.61	28.37	-35.1	-35.9	22.9	0.00e+00	0	40	0	3597664256	39	4239
2026-01-29 04:41:20.65	230.07	27.72	-35.2	-36.0	22.9	0.00e+00	0	40	0	3625975808	39	4267
2026-01-29 04:41:24.68	229.54	27.08	-35.3	-36.1	22.7	0.00e+00	0	41	0	3655335936	40	4091
2026-01-29 04:41:28.87	229.01	26.42	-35.2	-36.0	22.8	0.00e+00	0	41	0	3685744640	40	4049
2026-01-29 04:41:32.85	228.53	25.81	-35.3	-36.1	22.7	0.00e+00	0	41	0	3714056192	40	4075
2026-01-29 04:41:36.99	228.06	25.19	-35.2	-36.0	22.8	0.00e+00	0	41	0	3743416320	40	4049
2026-01-29 04:41:40.96	227.61	24.60	-35.1	-35.9	22.9	0.00e+00	0	41	0	3772776448	40	3988
2026-01-29 04:41:45.32	227.15	23.97	-35.2	-36.0	22.7	0.00e+00	0	41	0	3804233728	40	4028
2026-01-29 04:41:49.67	226.70	23.35	-35.3	-36.2	22.6	0.00e+00	0	41	0	3835691008	40	4121
2026-01-29 04:41:53.67	226.30	22.80	-35.2	-36.0	22.8	0.00e+00	0	41	0	3864002560	40	4032
2026-01-29 04:41:57.65	225.92	22.26	-35.1	-36.0	22.8	0.00e+00	0	41	0	3893362688	40	4009
2026-01-29 04:42:01.75	225.55	21.71	-35.3	-36.2	22.6	0.00e+00	0	40	0	3922722816	40	4105
2026-01-29 04:42:05.75	225.19	21.18	-35.6	-36.5	22.3	0.00e+00	0	41	0	3952082944	40	4255
2026-01-29 04:42:09.73	224.85	20.67	-35.9	-36.8	22.0	0.00e+00	0	41	0	3980394496	41	4167
2026-01-29 04:42:13.79	224.51	20.15	-36.1	-37.0	21.8	0.00e+00	0	41	0	4009754624	41	4282
2026-01-29 04:42:17.80	224.19	19.65	-36.3	-37.2	21.7	0.00e+00	0	41	0	4039114752	42	4132
2026-01-29 04:42:21.78	223.88	19.17	-36.2	-37.1	21.8	0.00e+00	0	41	0	4067426304	42	4057
2026-01-29 04:42:25.78	223.58	18.69	-36.1	-37.0	21.8	0.00e+00	0	41	0	4095737856	42	4022
2026-01-29 04:42:29.79	223.29	18.22	-36.2	-37.1	21.6	0.00e+00	0	41	0	4125097984	42	4065
2026-01-29 04:42:33.79	223.01	17.75	-36.0	-36.9	21.9	0.00e+00	0	41	0	4154458112	42	3979
2026-01-29 04:42:37.79	222.74	17.30	-36.1	-37.0	21.8	0.00e+00	0	41	0	4182769664	42	4015
2026-01-29 04:42:41.77	222.47	16.85	-36.2	-37.0	21.7	0.00e+00	0	41	0	4211081216	42	4050
2026-01-29 04:42:45.76	222.22	16.41	-36.3	-37.2	21.6	0.00e+00	0	41	0	4240441344	42	4100
2026-01-29 04:42:50.09	221.95	15.94	-36.4	-37.3	21.4	0.00e+00	0	41	0	4271898624	42	4184
2026-01-29 04:42:54.12	221.71	15.51	-36.5	-37.5	21.3	0.00e+00	0	41	0	4300210176	42	4246
2026-01-29 04:42:58.11	221.47	15.10	-36.8	-37.7	21.1	0.00e+00	0	41	0	4329570304	43	4121
2026-01-29 04:43:02.11	221.24	14.68	-36.9	-37.8	21.0	0.00e+00	0	41	0	4358930432	43	4178
2026-01-29 04:43:06.09	221.03	14.28	-37.1	-38.0	20.7	0.00e+00	0	41	0	4387241984	43	4275
2026-01-29 04:43:10.07	220.81	13.88	-37.1	-38.1	20.7	0.00e+00	0	41	0	4415553536	43	4304
2026-01-29 04:43:14.11	220.60	13.48	-37.5	-38.4	20.5	0.00e+00	0	41	0	4444913664	44	4231
2026-01-29 04:43:18.13	220.40	13.10	-37.5	-38.5	20.4	0.00e+00	0	41	0	4474273792	44	4251
2026-01-29 04:43:22.11	220.20	12.72	-37.7	-38.6	20.3	0.00e+00	0	41	0	4502585344	44	4330
2026-01-29 04:43:26.20	220.00	12.33	-38.0	-38.9	20.0	0.00e+00	0	41	0	4531945472	45	4237
2026-01-29 04:43:30.19	219.82	11.96	-38.1	-39.1	19.8	0.00e+00	0	41	0	4561305600	45	4313
2026-01-29 04:43:34.17	219.64	11.60	-38.3	-39.3	19.6	0.00e+00	0	41	0	4589617152	46	4155
2026-01-29 04:43:38.15	219.46	11.24	-38.5	-39.5	19.4	0.00e+00	0	41	0	4618977280	46	4286
2026-01-29 04:43:42.24	219.28	10.88	-38.5	-39.5	19.3	0.00e+00	0	41	0	4648337408	46	4283
2026-01-29 04:43:46.22	219.11	10.53	-38.7	-39.8	19.1	0.00e+00	0	41	0	4676648960	46	4396
2026-01-29 04:43:50.20	218.95	10.18	-38.7	-39.8	19.1	0.00e+00	0	41	0	4706009088	47	4154
2026-01-29 04:43:54.18	218.79	9.84	-38.5	-39.6	19.2	0.00e+00	0	41	0	4734320640	47	4074
2026-01-29 04:43:58.19	218.63	9.51	-38.8	-39.8	19.0	0.00e+00	0	41	0	4763680768	47	4171
2026-01-29 04:44:02.17	218.48	9.17	-38.8	-39.9	18.9	0.00e+00	0	41	0	4791992320	47	4201
2026-01-29 04:44:06.43	218.32	8.82	-47.7	-58.7	3.8	8.47e-01	0	41	104	4810866688	64	13807
2026-01-29 04:44:10.57	218.17	8.49	-49.6	-60.4	3.8	8.47e-01	0	41	104	4810866688	68	13271
2026-01-29 04:44:14.54	218.03	8.17	-49.7	-60.4	3.8	8.49e-01	0	41	104	4810866688	69	12571
2026-01-29 04:44:18.54	217.89	7.86	-49.7	-60.4	3.8	8.48e-01	0	41	104	4810866688	69	12652
2026-01-29 04:44:22.53	217.76	7.54	-49.7	-60.5	3.8	8.46e-01	0	41	104	4810866688	69	12713
2026-01-29 04:44:26.51	217.63	7.24	-49.8	-60.5	3.8	8.47e-01	0	41	104	4810866688	69	12706
2026-01-29 04:44:30.56	217.50	6.93	-49.5	-60.4	3.8	8.47e-01	0	41	104	4810866688	69	12609
2026-01-29 04:44:34.55	217.37	6.63	-49.5	-60.3	3.8	8.48e-01	0	41	104	4810866688	69	12514
2026-01-29 04:44:38.54	217.25	6.33	-49.5	-60.3	3.8	8.47e-01	0	41	104	4810866688	69	12441
2026-01-29 04:44:42.53	217.12	6.03	-49.5	-60.4	3.8	8.47e-01	0	41	104	4810866688	69	12581
2026-01-29 04:44:46.52	217.01	5.74	-49.5	-60.3	3.8	8.47e-01	0	41	104	4810866688	69	12496
2026-01-29 04:44:50.49	216.89	5.46	-49.5	-60.3	3.8	8.46e-01	0	41	104	4810866688	69	12448
2026-01-29 04:44:54.48	216.78	5.17	-49.5	-60.4	3.8	8.47e-01	0	41	104	4810866688	69	12540

#Closed at: 2026-01-29 04:44:58
#Recorded file [4810 MB]: D:/Data/31040_260129_073217.dat