passes_logs/2026/01/29/T1/T1__20260129_100333_SUOMI_NPP_rec.log

#Pass ID: 20260129_100333_SUOMI NPP
#Satellite: SUOMI NPP
#Configuration: NPP
#almurnet v.1.7.20251203
#Start time: 2026-01-29 10:03:35

#Version: 2.0.20230620
#Station: T1
#Location: 37.570604 lon 55.790049 lat
#TLE: 1 37849U 11061A   26027.93236865  .00000148  00000+0  91411-4 0  9991
#TLE: 2 37849  98.7823 329.8704 0002085  41.3231 318.8102 14.19530777738546

#Time	Az	El	Level	Level2	SNR	BER	BlckErr	Temp	State	Recorded	gain1	gain2
2026-01-29 10:03:35.75	161.90	5.16	-50.0	-65.4	3.8	1.49e+00	0	39	0	0	71	21365
2026-01-29 10:03:38.73	161.91	5.37	-50.2	-65.4	3.8	1.49e+00	0	39	104	0	71	21362
2026-01-29 10:03:41.71	161.92	5.59	-50.0	-65.3	3.8	1.49e+00	0	39	104	0	71	21202
2026-01-29 10:03:44.69	161.94	5.81	-49.8	-65.2	3.8	1.49e+00	0	39	104	0	71	20927
2026-01-29 10:03:47.67	161.95	6.03	-49.8	-65.1	3.8	1.49e+00	0	39	104	0	71	20661
2026-01-29 10:03:50.65	161.97	6.26	-49.6	-65.1	3.8	1.49e+00	0	40	104	0	70	21797
2026-01-29 10:03:53.63	161.98	6.48	-49.4	-65.0	3.8	1.49e+00	0	40	104	0	70	21562
2026-01-29 10:03:56.61	162.00	6.71	-49.5	-64.7	3.8	1.49e+00	0	40	104	0	70	20972
2026-01-29 10:03:59.59	162.01	6.94	-49.2	-64.0	3.8	1.49e+00	0	40	104	0	70	19292
2026-01-29 10:04:02.56	162.02	7.17	-49.2	-63.9	3.8	1.49e+00	0	40	104	0	70	19004
2026-01-29 10:04:05.55	162.04	7.40	-49.1	-63.1	3.8	1.49e+00	0	40	104	0	70	17367
2026-01-29 10:04:08.53	162.05	7.64	-48.9	-60.7	4.3	1.44e+00	0	40	0	0	69	13960
2026-01-29 10:04:11.51	162.07	7.88	-48.6	-58.0	5.7	5.28e-01	0	40	0	5242880	69	10246
2026-01-29 10:04:14.48	162.08	8.12	-48.2	-56.0	7.3	1.42e-01	0	41	0	10485760	68	8597
2026-01-29 10:04:17.46	162.10	8.36	-48.1	-55.5	7.8	8.06e-02	0	40	0	16777216	68	8130
2026-01-29 10:04:20.45	162.11	8.61	-48.3	-56.4	7.0	1.49e-01	0	40	0	22020096	68	9039
2026-01-29 10:04:23.42	162.13	8.85	-48.8	-59.2	5.0	6.64e-01	0	40	0	27262976	68	12392
2026-01-29 10:04:26.40	162.14	9.10	-49.0	-60.2	4.4	1.48e+00	0	40	104	29360128	69	13165
2026-01-29 10:04:29.39	162.16	9.36	-48.3	-55.6	7.5	6.49e-01	0	41	0	30408704	68	8218
2026-01-29 10:04:32.38	162.17	9.61	-47.3	-53.0	10.3	1.98e-01	0	41	0	32505856	66	6832
2026-01-29 10:04:35.36	162.19	9.87	-46.8	-51.7	11.6	4.36e-04	0	41	0	37748736	65	6207
2026-01-29 10:04:38.44	162.21	10.14	-46.1	-50.3	12.9	3.50e-05	0	41	0	44040192	64	5650
2026-01-29 10:04:41.32	162.22	10.40	-45.7	-49.6	13.9	2.20e-06	0	41	0	49283072	63	5503
2026-01-29 10:04:44.44	162.24	10.67	-45.6	-49.4	14.0	4.50e-06	0	41	0	55574528	63	5389
2026-01-29 10:04:47.29	162.25	10.93	-45.2	-48.7	14.7	7.00e-07	0	41	0	60817408	62	5268
2026-01-29 10:04:50.51	162.27	11.23	-44.8	-48.2	15.3	0.00e+00	0	41	0	67108864	61	5245
2026-01-29 10:04:53.43	162.29	11.50	-44.6	-47.9	15.6	0.00e+00	0	41	0	72351744	61	5042
2026-01-29 10:04:56.62	162.31	11.79	-44.8	-48.1	15.4	0.00e+00	0	41	0	77594624	61	5201
2026-01-29 10:04:59.46	162.32	12.06	-44.7	-47.9	15.6	0.00e+00	0	41	0	83886080	61	5083
2026-01-29 10:05:02.59	162.34	12.36	-44.6	-47.9	15.7	0.00e+00	0	41	0	89128960	60	5348
2026-01-29 10:05:05.43	162.36	12.64	-44.5	-47.6	15.9	0.00e+00	0	41	0	94371840	60	5216
2026-01-29 10:05:08.55	162.38	12.94	-44.4	-47.5	16.0	0.00e+00	0	41	0	100663296	60	5158
2026-01-29 10:05:11.40	162.39	13.23	-44.3	-47.4	16.1	0.00e+00	0	41	0	105906176	60	5083
2026-01-29 10:05:14.52	162.41	13.54	-44.1	-47.1	16.4	0.00e+00	0	41	0	111149056	60	4899
2026-01-29 10:05:17.36	162.43	13.83	-44.0	-46.9	16.6	0.00e+00	0	41	0	117440512	60	4814
2026-01-29 10:05:20.49	162.45	14.15	-43.9	-46.8	16.7	0.00e+00	0	41	0	122683392	59	5010
2026-01-29 10:05:23.33	162.47	14.45	-43.7	-46.5	16.9	0.00e+00	0	41	0	127926272	59	4866
2026-01-29 10:05:26.46	162.49	14.78	-43.5	-46.2	17.2	0.00e+00	0	41	0	134217728	58	4982
2026-01-29 10:05:29.30	162.50	15.08	-43.4	-46.1	17.4	0.00e+00	0	41	0	139460608	58	4885
2026-01-29 10:05:32.43	162.52	15.42	-43.3	-45.9	17.5	0.00e+00	0	41	0	144703488	58	4803
2026-01-29 10:05:35.27	162.54	15.73	-43.2	-45.9	17.6	0.00e+00	0	41	0	150994944	58	4763
2026-01-29 10:05:38.59	162.56	16.10	-43.2	-45.9	17.6	0.00e+00	0	41	0	156237824	58	4760
2026-01-29 10:05:41.33	162.58	16.41	-43.3	-46.0	17.5	0.00e+00	0	41	0	161480704	58	4849
2026-01-29 10:05:44.60	162.60	16.79	-43.4	-46.1	17.4	0.00e+00	0	41	0	167772160	58	4912
2026-01-29 10:05:47.44	162.62	17.12	-43.3	-46.0	17.5	0.00e+00	0	41	0	173015040	58	4855
2026-01-29 10:05:50.60	162.65	17.49	-43.2	-45.7	17.8	0.00e+00	0	41	0	179306496	58	4694
2026-01-29 10:05:53.45	162.67	17.83	-42.9	-45.4	18.1	0.00e+00	0	41	0	184549376	57	4779
2026-01-29 10:05:56.57	162.69	18.21	-42.5	-44.8	18.6	0.00e+00	0	42	0	190840832	57	4479
2026-01-29 10:05:59.41	162.71	18.56	-42.4	-44.8	18.6	0.00e+00	0	41	0	196083712	56	4706
2026-01-29 10:06:02.54	162.73	18.95	-42.3	-44.6	18.8	0.00e+00	0	41	0	201326592	56	4645
2026-01-29 10:06:05.40	162.75	19.32	-42.7	-45.1	18.3	0.00e+00	0	41	0	206569472	56	4917
2026-01-29 10:06:08.53	162.78	19.72	-42.9	-45.4	18.1	0.00e+00	0	41	0	212860928	56	5051
2026-01-29 10:06:11.38	162.80	20.10	-43.0	-45.5	18.0	0.00e+00	0	41	0	218103808	56	5103
2026-01-29 10:06:14.51	162.82	20.51	-42.5	-44.9	18.6	0.00e+00	0	41	0	224395264	56	4772
2026-01-29 10:06:17.35	162.85	20.90	-42.3	-44.6	18.8	0.00e+00	0	42	0	229638144	56	4615
2026-01-29 10:06:20.48	162.87	21.33	-42.3	-44.5	18.9	0.00e+00	0	41	0	234881024	56	4587
2026-01-29 10:06:23.32	162.90	21.73	-42.5	-44.9	18.5	0.00e+00	0	41	0	241172480	56	4779
2026-01-29 10:06:26.45	162.92	22.17	-43.2	-45.8	17.7	0.00e+00	0	42	0	246415360	56	5311
2026-01-29 10:06:29.30	162.95	22.58	-43.4	-46.1	17.5	0.00e+00	0	41	0	251658240	57	5170
2026-01-29 10:06:32.47	162.97	23.05	-43.1	-45.6	17.9	0.00e+00	0	41	0	257949696	57	4905
2026-01-29 10:06:35.31	163.00	23.48	-42.9	-45.4	18.1	0.00e+00	0	41	0	263192576	57	4773
2026-01-29 10:06:38.44	163.03	23.95	-43.2	-45.8	17.8	0.00e+00	0	41	0	269484032	57	4989
2026-01-29 10:06:41.28	163.05	24.39	-43.6	-46.3	17.3	0.00e+00	0	41	0	274726912	57	5313
2026-01-29 10:06:44.41	163.08	24.89	-43.7	-46.4	17.3	0.00e+00	0	42	0	279969792	58	5048
2026-01-29 10:06:47.25	163.11	25.35	-43.6	-46.2	17.4	0.00e+00	0	41	0	285212672	58	4957
2026-01-29 10:06:50.57	163.14	25.89	-43.3	-45.9	17.7	0.00e+00	0	42	0	291504128	58	4779
2026-01-29 10:06:53.41	163.17	26.36	-43.5	-46.2	17.5	0.00e+00	0	42	0	296747008	58	4933
2026-01-29 10:06:56.54	163.20	26.90	-44.1	-47.0	16.7	0.00e+00	0	42	0	303038464	59	5117
2026-01-29 10:06:59.38	163.23	27.39	-44.1	-46.9	16.8	0.00e+00	0	41	0	308281344	59	5074
2026-01-29 10:07:02.50	163.27	27.94	-43.6	-46.1	17.5	0.00e+00	0	42	0	314572800	59	4648
2026-01-29 10:07:05.38	163.30	28.46	-43.6	-46.2	17.5	0.00e+00	0	42	0	319815680	58	4941
2026-01-29 10:07:08.57	163.33	29.05	-44.1	-46.8	16.8	0.00e+00	0	42	0	325058560	59	5030
2026-01-29 10:07:11.41	163.37	29.58	-44.2	-47.1	16.6	0.00e+00	0	42	0	331350016	59	5174
2026-01-29 10:07:14.54	163.40	30.18	-43.7	-46.4	17.2	0.00e+00	0	42	0	336592896	59	4805
2026-01-29 10:07:17.38	163.44	30.73	-44.0	-46.7	16.9	0.00e+00	0	42	0	341835776	59	4970
2026-01-29 10:07:20.51	163.48	31.36	-44.3	-47.1	16.6	0.00e+00	0	42	0	348127232	59	5178
2026-01-29 10:07:23.35	163.52	31.93	-44.3	-47.2	16.5	0.00e+00	0	42	0	353370112	60	4972
2026-01-29 10:07:26.48	163.56	32.58	-44.3	-47.2	16.6	0.00e+00	0	41	0	358612992	60	4946
2026-01-29 10:07:29.36	163.60	33.19	-44.7	-47.7	16.1	0.00e+00	0	41	0	364904448	60	5255
2026-01-29 10:07:32.48	163.64	33.87	-44.9	-48.1	15.8	0.00e+00	0	41	0	370147328	60	5474
2026-01-29 10:07:35.33	163.68	34.50	-43.8	-46.5	17.2	0.00e+00	0	42	0	375390208	59	4823
2026-01-29 10:07:38.47	163.73	35.21	-43.5	-46.1	17.6	0.00e+00	0	42	0	381681664	58	4891
2026-01-29 10:07:41.31	163.77	35.86	-42.8	-45.2	18.4	0.00e+00	0	42	0	386924544	57	4676
2026-01-29 10:07:44.44	163.82	36.60	-42.4	-44.8	18.7	0.00e+00	0	42	0	393216000	56	4750
2026-01-29 10:07:47.29	163.87	37.29	-42.4	-44.8	18.7	0.00e+00	0	42	0	398458880	56	4753
2026-01-29 10:07:50.41	163.92	38.06	-42.6	-45.0	18.6	0.00e+00	0	42	0	403701760	56	4850
2026-01-29 10:07:53.33	163.98	38.79	-42.0	-44.2	19.3	0.00e+00	0	42	0	408944640	56	4426
2026-01-29 10:07:56.46	164.03	39.60	-41.8	-44.0	19.3	0.00e+00	0	42	0	415236096	54	4849
2026-01-29 10:07:59.31	164.09	40.35	-41.9	-44.1	19.2	0.00e+00	0	41	0	420478976	54	4925
2026-01-29 10:08:02.43	164.15	41.19	-41.9	-44.1	19.1	0.00e+00	0	42	0	426770432	54	4922
2026-01-29 10:08:05.28	164.21	41.98	-42.4	-44.8	18.6	0.00e+00	0	42	0	432013312	55	5013
2026-01-29 10:08:08.50	164.28	42.89	-42.4	-44.8	18.6	0.00e+00	0	42	0	438304768	55	5006
2026-01-29 10:08:11.34	164.35	43.71	-42.8	-45.2	18.4	0.00e+00	0	42	0	443547648	56	4970
2026-01-29 10:08:14.61	164.43	44.67	-43.1	-45.5	18.2	0.00e+00	0	42	0	449839104	57	4816
2026-01-29 10:08:17.45	164.50	45.53	-44.4	-47.3	16.6	0.00e+00	0	42	0	455081984	59	5282
2026-01-29 10:08:20.77	164.59	46.56	-44.4	-47.3	16.6	0.00e+00	0	42	0	461373440	60	4984
2026-01-29 10:08:23.76	164.67	47.51	-44.5	-47.3	16.5	0.00e+00	0	42	0	466616320	60	5026
2026-01-29 10:08:26.81	164.77	48.49	-45.2	-48.4	15.4	0.00e+00	0	41	0	471859200	61	5395
2026-01-29 10:08:29.93	164.86	49.53	-44.9	-47.9	15.8	0.00e+00	0	42	0	478150656	61	5093
2026-01-29 10:08:32.78	164.96	50.49	-44.1	-46.9	16.9	0.00e+00	0	42	0	483393536	60	4789
2026-01-29 10:08:35.91	165.07	51.58	-43.1	-45.6	18.2	0.00e+00	0	42	0	489684992	58	4609
2026-01-29 10:08:38.75	165.18	52.58	-42.4	-44.7	18.9	0.00e+00	0	42	0	494927872	56	4678
2026-01-29 10:08:42.07	165.32	53.79	-41.9	-44.1	19.4	0.00e+00	0	42	0	501219328	55	4618
2026-01-29 10:08:44.77	165.43	54.79	-43.2	-45.8	17.9	0.00e+00	0	42	0	505413632	57	5031
2026-01-29 10:08:48.04	165.59	56.02	-41.9	-44.2	19.3	0.00e+00	0	42	0	511705088	55	4657
2026-01-29 10:08:50.76	165.73	57.07	-41.2	-43.3	20.0	0.00e+00	0	42	0	516947968	53	4757
2026-01-29 10:08:54.16	165.91	58.41	-42.5	-44.9	18.6	0.00e+00	0	42	0	523239424	55	5056
2026-01-29 10:08:57.20	166.10	59.63	-42.5	-44.8	18.8	0.00e+00	0	42	0	529530880	57	4493
2026-01-29 10:09:00.39	166.31	60.94	-41.3	-43.4	19.9	0.00e+00	0	42	0	534773760	54	4539
2026-01-29 10:09:03.24	166.52	62.13	-39.9	-41.8	21.3	0.00e+00	0	42	0	540016640	51	4487
2026-01-29 10:09:06.37	166.77	63.47	-40.2	-42.1	21.1	0.00e+00	0	42	0	546308096	51	4636
2026-01-29 10:09:09.21	167.02	64.70	-40.8	-42.9	20.4	0.00e+00	0	42	0	551550976	52	4792
2026-01-29 10:09:12.34	167.33	66.08	-41.4	-43.6	19.8	0.00e+00	0	42	0	557842432	53	4888
2026-01-29 10:09:15.33	167.67	67.42	-42.7	-45.1	18.5	0.00e+00	0	42	0	563085312	56	4912
2026-01-29 10:09:18.46	168.07	68.85	-45.6	-49.2	14.7	0.00e+00	0	42	0	569376768	61	5860
2026-01-29 10:09:21.30	168.49	70.16	-45.6	-48.9	15.1	0.00e+00	0	42	0	574619648	63	5042
2026-01-29 10:09:24.42	169.02	71.62	-45.8	-49.2	14.7	0.00e+00	0	42	0	579862528	62	5578
2026-01-29 10:09:27.27	169.59	72.97	-43.5	-46.0	17.8	0.00e+00	0	42	0	585105408	58	4816
2026-01-29 10:09:30.49	170.36	74.51	-42.6	-44.8	18.8	0.00e+00	0	42	0	591396864	56	4742
2026-01-29 10:09:33.43	171.21	75.93	-45.2	-48.5	15.5	0.00e+00	0	42	0	596639744	61	5408
2026-01-29 10:09:36.41	172.27	77.38	-43.2	-45.7	18.1	0.00e+00	0	42	0	602931200	58	4663
2026-01-29 10:09:39.40	173.63	78.85	-45.2	-48.3	15.7	0.00e+00	0	42	0	608174080	60	5633
2026-01-29 10:09:42.39	175.40	80.32	-44.6	-47.4	16.4	0.00e+00	0	42	0	613416960	60	5096
2026-01-29 10:09:45.38	177.81	81.79	-46.7	-50.8	13.3	5.30e-06	0	42	0	619708416	63	6285
2026-01-29 10:09:48.47	181.42	83.29	-45.6	-49.1	14.5	1.50e-06	0	42	0	624951296	63	5210
2026-01-29 10:09:51.31	186.53	84.65	-44.3	-47.2	16.7	0.00e+00	0	42	0	630194176	59	5235
2026-01-29 10:09:54.44	196.16	86.06	-44.1	-46.8	17.0	0.00e+00	0	42	0	636485632	59	5005
2026-01-29 10:09:57.28	212.80	87.16	-47.1	-51.9	11.8	7.00e-07	0	42	0	641728512	65	6415
2026-01-29 10:10:00.41	247.34	87.81	-45.8	-49.6	14.3	4.50e-06	0	42	0	648019968	63	5478
2026-01-29 10:10:03.25	282.66	87.47	-44.2	-46.9	17.0	0.00e+00	0	42	0	653262848	59	5071
2026-01-29 10:10:06.60	306.45	86.29	-44.4	-47.2	16.6	0.00e+00	0	42	0	659554304	60	4965
2026-01-29 10:10:09.32	316.14	85.09	-44.2	-47.0	16.9	0.00e+00	0	42	0	664797184	60	4827
2026-01-29 10:10:12.60	322.83	83.55	-43.6	-46.1	17.6	0.00e+00	0	42	0	670040064	59	4650
2026-01-29 10:10:15.47	326.48	82.15	-44.1	-46.8	16.9	0.00e+00	0	42	0	676331520	59	5016
2026-01-29 10:10:18.60	329.21	80.62	-42.7	-45.0	18.6	0.00e+00	0	42	0	681574400	57	4550
2026-01-29 10:10:21.83	331.21	79.03	-44.7	-47.7	16.2	0.00e+00	0	42	0	687865856	59	5550
2026-01-29 10:10:24.68	332.55	77.64	-44.2	-47.0	16.9	0.00e+00	0	42	0	693108736	59	5107
2026-01-29 10:10:27.80	333.70	76.12	-42.4	-44.7	19.0	0.00e+00	0	42	0	699400192	56	4673
2026-01-29 10:10:30.65	334.55	74.74	-44.9	-47.8	16.1	0.00e+00	0	42	0	704643072	60	5327
2026-01-29 10:10:33.86	335.34	73.20	-44.5	-47.5	16.5	0.00e+00	0	42	0	710934528	60	5120
2026-01-29 10:10:36.72	335.92	71.85	-45.7	-49.0	14.9	0.00e+00	0	42	0	716177408	63	5129
2026-01-29 10:10:40.00	336.49	70.31	-46.8	-50.9	13.0	7.52e-04	0	42	0	722468864	65	5703
2026-01-29 10:10:42.71	336.90	69.06	-44.1	-46.8	17.0	0.00e+00	0	42	0	726663168	60	4711
2026-01-29 10:10:45.98	337.32	67.58	-45.1	-48.1	15.8	0.00e+00	0	42	0	732954624	62	4884
2026-01-29 10:10:48.70	337.63	66.36	-45.0	-48.2	15.6	7.00e-07	0	42	0	738197504	62	4952
2026-01-29 10:10:51.98	337.97	64.91	-43.3	-45.9	17.9	0.00e+00	0	42	0	744488960	58	4772
2026-01-29 10:10:54.70	338.22	63.73	-44.0	-46.8	17.1	0.00e+00	0	42	0	749731840	58	5284
2026-01-29 10:10:58.39	338.52	62.16	-41.9	-44.1	19.4	0.00e+00	0	42	0	756023296	55	4646
2026-01-29 10:11:01.11	338.71	61.03	-44.6	-47.5	16.3	0.00e+00	0	42	0	761266176	60	5131
2026-01-29 10:11:04.52	338.94	59.63	-43.8	-46.4	17.3	0.00e+00	0	42	0	767557632	59	4805
2026-01-29 10:11:07.25	339.11	58.54	-43.5	-46.2	17.7	0.00e+00	0	42	0	772800512	58	4956
2026-01-29 10:11:10.73	339.30	57.17	-43.5	-46.0	17.7	0.00e+00	0	42	0	779091968	59	4582
2026-01-29 10:11:13.49	339.44	56.11	-42.6	-45.0	18.7	0.00e+00	0	42	0	784334848	55	5133
2026-01-29 10:11:16.77	339.60	54.87	-42.1	-44.3	19.3	0.00e+00	0	42	0	790626304	56	4488
2026-01-29 10:11:19.50	339.72	53.87	-43.9	-46.5	17.2	0.00e+00	0	42	0	795869184	58	5158
2026-01-29 10:11:22.77	339.85	52.68	-43.3	-45.8	18.0	0.00e+00	0	42	0	802160640	57	5008
2026-01-29 10:11:25.62	339.96	51.68	-45.3	-48.8	15.3	0.00e+00	0	42	0	807403520	61	5598
2026-01-29 10:11:28.94	340.08	50.53	-44.6	-47.6	16.3	0.00e+00	0	42	0	813694976	61	4890
2026-01-29 10:11:31.81	340.18	49.56	-43.7	-46.3	17.4	0.00e+00	0	42	0	818937856	59	4732
2026-01-29 10:11:34.94	340.28	48.53	-46.1	-49.9	14.0	7.00e-07	0	42	0	825229312	62	6054
2026-01-29 10:11:37.78	340.36	47.62	-43.9	-46.6	17.1	0.00e+00	0	42	0	830472192	59	4916
2026-01-29 10:11:40.91	340.45	46.63	-43.2	-45.7	18.1	0.00e+00	0	42	0	835715072	57	4934
2026-01-29 10:11:43.75	340.53	45.75	-44.5	-47.4	16.5	0.00e+00	0	42	0	840957952	59	5353
2026-01-29 10:11:47.18	340.62	44.72	-44.0	-47.0	16.8	0.00e+00	0	42	0	848297984	59	5113
2026-01-29 10:11:49.96	340.69	43.90	-41.6	-43.9	19.5	0.00e+00	0	42	0	853540864	55	4535
2026-01-29 10:11:53.26	340.76	42.95	-41.5	-43.6	19.8	0.00e+00	0	42	0	858783744	53	4893
2026-01-29 10:11:55.99	340.82	42.18	-44.3	-47.1	16.6	0.00e+00	0	42	0	864026624	59	5209
2026-01-29 10:11:59.27	340.90	41.28	-44.1	-47.0	16.8	0.00e+00	0	42	0	870318080	60	4870
2026-01-29 10:12:01.97	340.95	40.56	-43.8	-46.6	17.2	0.00e+00	0	42	0	875560960	58	5205
2026-01-29 10:12:05.26	341.02	39.69	-43.8	-46.6	17.3	0.00e+00	0	42	0	881852416	58	5161
2026-01-29 10:12:07.96	341.07	39.00	-45.8	-49.4	14.4	0.00e+00	0	42	0	887095296	62	5683
2026-01-29 10:12:11.24	341.13	38.17	-47.7	-53.6	10.2	1.23e-02	0	42	0	893386752	66	7296
2026-01-29 10:12:13.97	341.18	37.50	-46.1	-50.3	13.3	1.42e-04	0	42	0	898629632	64	5598
2026-01-29 10:12:17.25	341.23	36.71	-46.1	-50.8	13.0	3.35e-05	0	42	0	903872512	63	6285
2026-01-29 10:12:19.97	341.28	36.07	-44.9	-48.4	15.5	0.00e+00	0	42	0	909115392	61	5369
2026-01-29 10:12:23.19	341.33	35.33	-45.1	-48.5	15.4	0.00e+00	0	42	0	915406848	61	5432
2026-01-29 10:12:26.27	341.38	34.64	-47.1	-52.0	11.9	8.39e-05	0	42	0	921698304	64	6844
2026-01-29 10:12:29.54	341.42	33.92	-47.6	-53.2	10.4	4.56e-03	0	42	0	926941184	66	7003
2026-01-29 10:12:32.27	341.46	33.33	-47.3	-52.5	11.1	4.99e-04	0	42	0	932184064	65	6811
2026-01-29 10:12:35.68	341.51	32.61	-46.0	-50.4	13.5	3.89e-05	0	42	0	938475520	63	6013
2026-01-29 10:12:38.41	341.55	32.05	-44.7	-48.2	15.7	0.00e+00	0	42	0	943718400	61	5243
2026-01-29 10:12:41.74	341.59	31.38	-44.2	-47.1	16.7	0.00e+00	0	42	0	950009856	60	4912
2026-01-29 10:12:44.47	341.63	30.84	-45.0	-48.2	15.8	0.00e+00	0	42	0	955252736	60	5545
2026-01-29 10:12:47.75	341.67	30.20	-46.2	-50.4	13.5	6.80e-06	0	42	0	961544192	63	6014
2026-01-29 10:12:50.63	341.71	29.65	-46.3	-50.6	13.1	2.44e-05	0	42	0	966787072	64	5825
2026-01-29 10:12:54.18	341.75	28.99	-45.4	-49.1	14.8	7.00e-07	0	42	0	973078528	62	5511
2026-01-29 10:12:56.94	341.78	28.49	-44.4	-47.8	16.0	0.00e+00	0	42	0	978321408	60	5324
2026-01-29 10:13:00.23	341.82	27.90	-43.9	-46.9	16.9	0.00e+00	0	42	0	984612864	59	5068
2026-01-29 10:13:02.93	341.85	27.43	-43.4	-46.0	17.7	0.00e+00	0	42	0	989855744	58	4854
2026-01-29 10:13:06.22	341.89	26.87	-42.9	-45.3	18.3	0.00e+00	0	42	0	996147200	57	4732
2026-01-29 10:13:08.95	341.91	26.41	-42.6	-45.0	18.5	0.00e+00	0	42	0	1001390080	57	4575
2026-01-29 10:13:12.23	341.95	25.86	-42.2	-44.6	19.0	0.00e+00	0	42	0	1007681536	56	4642
2026-01-29 10:13:14.98	341.98	25.42	-42.4	-44.8	18.8	0.00e+00	0	42	0	1012924416	56	4721
2026-01-29 10:13:18.24	342.01	24.90	-42.8	-45.3	18.3	0.00e+00	0	42	0	1018167296	56	4999
2026-01-29 10:13:20.96	342.04	24.47	-43.0	-45.5	18.1	0.00e+00	0	42	0	1023410176	56	5140
2026-01-29 10:13:24.23	342.07	23.97	-42.6	-45.1	18.6	0.00e+00	0	42	0	1029701632	56	4877
2026-01-29 10:13:26.94	342.10	23.56	-41.8	-44.1	19.2	0.00e+00	0	42	0	1034944512	55	4632
2026-01-29 10:13:30.27	342.13	23.06	-41.3	-43.5	19.9	0.00e+00	0	42	0	1041235968	54	4546
2026-01-29 10:13:32.97	342.15	22.67	-41.4	-43.6	19.7	0.00e+00	0	42	0	1046478848	54	4619
2026-01-29 10:13:36.26	342.18	22.20	-41.5	-43.7	19.6	0.00e+00	0	42	0	1052770304	54	4691
2026-01-29 10:13:38.98	342.21	21.81	-41.9	-44.2	19.2	0.00e+00	0	42	0	1056964608	54	4944
2026-01-29 10:13:42.20	342.24	21.37	-42.0	-44.4	19.0	0.00e+00	0	42	0	1063256064	54	5088
2026-01-29 10:13:45.23	342.26	20.95	-42.2	-44.7	18.7	0.00e+00	0	42	0	1069547520	55	4937
2026-01-29 10:13:48.36	342.29	20.53	-42.4	-44.8	18.6	0.00e+00	0	42	0	1074790400	55	5038
2026-01-29 10:13:51.20	342.31	20.16	-42.7	-45.2	18.4	0.00e+00	0	42	0	1080033280	56	4935
2026-01-29 10:13:54.33	342.34	19.75	-42.7	-45.1	18.5	0.00e+00	0	42	0	1086324736	56	4896
2026-01-29 10:13:57.17	342.36	19.39	-42.6	-45.1	18.5	0.00e+00	0	42	0	1091567616	56	4873
2026-01-29 10:14:00.38	342.39	18.98	-42.5	-45.0	18.6	0.00e+00	0	42	0	1097859072	56	4833
2026-01-29 10:14:03.22	342.41	18.63	-42.3	-44.7	18.9	0.00e+00	0	42	0	1103101952	56	4674
2026-01-29 10:14:06.49	342.44	18.23	-42.2	-44.5	18.9	0.00e+00	0	42	0	1109393408	56	4597
2026-01-29 10:14:09.46	342.46	17.87	-42.4	-44.8	18.7	0.00e+00	0	42	0	1114636288	56	4734
2026-01-29 10:14:12.87	342.49	17.47	-42.1	-44.5	18.9	0.00e+00	0	42	0	1120927744	56	4594
2026-01-29 10:14:15.58	342.51	17.15	-42.5	-45.0	18.6	0.00e+00	0	42	0	1126170624	56	4869
2026-01-29 10:14:19.04	342.54	16.75	-42.6	-45.2	18.3	0.00e+00	0	42	0	1132462080	56	4982
2026-01-29 10:14:21.74	342.56	16.45	-42.8	-45.4	18.1	0.00e+00	0	42	0	1137704960	56	5084
2026-01-29 10:14:25.11	342.58	16.07	-42.6	-45.1	18.4	0.00e+00	0	42	0	1143996416	56	4907
2026-01-29 10:14:27.94	342.60	15.76	-42.9	-45.5	18.1	0.00e+00	0	42	0	1149239296	56	5116
2026-01-29 10:14:31.24	342.63	15.40	-43.0	-45.7	17.9	0.00e+00	0	42	0	1155530752	56	5251
2026-01-29 10:14:33.94	342.65	15.11	-43.0	-45.9	17.7	0.00e+00	0	42	0	1160773632	56	5357
2026-01-29 10:14:37.24	342.67	14.76	-42.9	-45.8	17.7	0.00e+00	0	42	0	1167065088	56	5316
2026-01-29 10:14:39.96	342.69	14.47	-43.1	-46.1	17.5	0.00e+00	0	42	0	1172307968	57	5160
2026-01-29 10:14:43.24	342.71	14.14	-43.2	-46.2	17.4	0.00e+00	0	42	0	1177550848	57	5239
2026-01-29 10:14:46.18	342.73	13.84	-43.3	-46.3	17.2	0.00e+00	0	42	0	1183842304	57	5333
2026-01-29 10:14:49.56	342.76	13.50	-43.1	-46.1	17.4	0.00e+00	0	42	0	1190133760	57	5196
2026-01-29 10:14:52.27	342.78	13.23	-43.2	-46.3	17.3	0.00e+00	0	42	0	1195376640	57	5302
2026-01-29 10:14:55.55	342.80	12.91	-43.0	-46.1	17.4	0.00e+00	0	42	0	1200619520	57	5171
2026-01-29 10:14:58.33	342.82	12.64	-42.9	-45.9	17.5	0.00e+00	0	42	0	1205862400	57	5098
2026-01-29 10:15:01.67	342.84	12.32	-42.8	-45.8	17.7	0.00e+00	0	42	0	1212153856	57	4998
2026-01-29 10:15:04.49	342.86	12.05	-43.0	-46.0	17.5	0.00e+00	0	42	0	1217396736	57	5137
2026-01-29 10:15:07.83	342.88	11.74	-42.8	-45.8	17.6	0.00e+00	0	42	0	1223688192	57	5040
2026-01-29 10:15:10.53	342.90	11.49	-42.7	-45.8	17.6	0.00e+00	0	42	0	1228931072	57	5010
2026-01-29 10:15:13.80	342.92	11.19	-42.7	-45.8	17.6	0.00e+00	0	42	0	1235222528	57	5009
2026-01-29 10:15:16.52	342.94	10.95	-42.7	-45.9	17.5	0.00e+00	0	42	0	1240465408	57	5070
2026-01-29 10:15:19.85	342.96	10.65	-42.7	-46.0	17.4	0.00e+00	0	42	0	1246756864	57	5120
2026-01-29 10:15:22.67	342.98	10.40	-42.7	-46.1	17.3	0.00e+00	0	42	0	1251999744	57	5164
2026-01-29 10:15:26.12	343.00	10.10	-42.6	-46.1	17.4	0.00e+00	0	42	0	1258291200	57	5162
2026-01-29 10:15:28.86	343.02	9.86	-42.6	-46.1	17.3	0.00e+00	0	42	0	1263534080	57	5184
2026-01-29 10:15:32.18	343.04	9.58	-42.6	-46.2	17.2	0.00e+00	0	42	0	1269825536	57	5237
2026-01-29 10:15:34.88	343.05	9.35	-42.2	-46.1	17.3	0.00e+00	0	42	0	1275068416	56	5475
2026-01-29 10:15:38.11	343.07	9.08	-42.1	-46.1	17.2	0.00e+00	0	42	0	1281359872	56	5511
