passes_logs/2026/01/29/T1/T1__20260129_010940_FENGYUN_3D_rec.log

#Pass ID: 20260129_010940_FENGYUN 3D
#Satellite: FENGYUN 3D
#Configuration: FENGYUN 3D
#almurnet v.1.7.20251203
#Start time: 2026-01-29 01:09:42

#Version: 2.0.20230620
#Station: T1
#Location: 37.570604 lon 55.790049 lat
#TLE: 1 43010U 17072A   26027.90082829  .00000305  00000+0  16579-3 0  9998
#TLE: 2 43010  98.9960 359.9183 0002511  88.1058 272.0405 14.19701796425082

#Time	Az	El	Level	Level2	SNR	BER	BlckErr	Temp	State	Recorded	gain1	gain2
2026-01-29 01:09:42.97	21.51	5.15	-49.9	-62.1	3.8	8.48e-01	0	41	0	0	70	15545
2026-01-29 01:09:45.94	21.63	5.36	-50.2	-62.2	3.8	8.47e-01	0	41	104	0	71	14760
2026-01-29 01:09:48.92	21.75	5.57	-50.0	-62.1	3.8	8.46e-01	0	41	104	0	71	14680
2026-01-29 01:09:51.90	21.87	5.78	-50.0	-62.1	3.8	8.47e-01	0	41	104	0	71	14663
2026-01-29 01:09:54.88	21.99	5.99	-49.8	-61.9	3.8	8.46e-01	0	41	104	0	71	14303
2026-01-29 01:09:57.86	22.12	6.20	-49.2	-61.6	3.8	8.47e-01	0	41	104	0	69	15452
2026-01-29 01:10:00.84	22.24	6.42	-48.3	-61.0	3.8	8.46e-01	0	42	104	0	68	15328
2026-01-29 01:10:03.82	22.37	6.63	-48.3	-60.8	3.8	8.47e-01	0	42	104	0	68	15019
2026-01-29 01:10:06.80	22.50	6.85	-48.3	-60.7	3.8	8.47e-01	0	42	104	0	68	14813
2026-01-29 01:10:09.78	22.63	7.07	-48.2	-60.4	3.8	8.47e-01	0	42	104	0	68	14213
2026-01-29 01:10:12.76	22.76	7.29	-48.1	-59.4	3.8	8.46e-01	0	42	104	0	68	12746
2026-01-29 01:10:15.74	22.90	7.52	-47.8	-58.2	3.9	8.44e-01	0	42	104	0	67	11778
2026-01-29 01:10:18.72	23.03	7.74	-47.8	-57.5	4.2	8.37e-01	0	42	0	0	67	10843
2026-01-29 01:10:21.70	23.17	7.97	-47.8	-57.6	4.2	8.38e-01	0	42	0	0	67	10990
2026-01-29 01:10:24.68	23.31	8.20	-47.8	-57.7	4.2	8.39e-01	0	42	0	0	67	11138
2026-01-29 01:10:27.66	23.45	8.43	-47.6	-56.8	4.4	8.29e-01	0	42	0	0	67	10027
2026-01-29 01:10:30.64	23.60	8.66	-47.2	-54.5	5.7	6.99e-01	0	42	0	0	66	8098
2026-01-29 01:10:33.62	23.74	8.90	-46.0	-51.1	8.7	4.74e-02	0	42	0	16777216	64	6194
2026-01-29 01:10:36.61	23.89	9.14	-47.3	-54.7	5.7	2.18e-02	0	42	0	33554432	65	8858
2026-01-29 01:10:39.59	24.04	9.38	-41.7	-44.1	15.7	2.67e-03	0	43	0	42991616	55	4626
2026-01-29 01:10:42.58	24.20	9.62	-39.4	-41.4	18.5	0.00e+00	0	43	0	59768832	50	4534
2026-01-29 01:10:45.75	24.36	9.88	-38.9	-40.8	19.1	0.00e+00	0	43	0	77594624	49	4485
2026-01-29 01:10:48.72	24.52	10.13	-38.6	-40.5	19.5	0.00e+00	0	43	0	94371840	49	4308
2026-01-29 01:10:52.24	24.71	10.42	-38.6	-40.5	19.5	0.00e+00	0	43	0	114294784	49	4318
2026-01-29 01:10:54.94	24.86	10.65	-38.6	-40.4	19.6	0.00e+00	0	43	0	130023424	48	4541
2026-01-29 01:10:58.21	25.04	10.93	-38.5	-40.4	19.6	0.00e+00	0	43	0	147849216	48	4514
2026-01-29 01:11:01.03	25.20	11.17	-38.3	-40.2	19.8	0.00e+00	0	43	0	163577856	48	4423
2026-01-29 01:11:04.15	25.38	11.44	-38.3	-40.2	19.9	0.00e+00	0	43	0	181403648	48	4401
2026-01-29 01:11:07.33	25.57	11.72	-38.4	-40.3	19.8	0.00e+00	0	43	0	199229440	48	4458
2026-01-29 01:11:10.17	25.74	11.97	-38.3	-40.1	20.0	0.00e+00	0	43	0	216006656	48	4382
2026-01-29 01:11:13.30	25.93	12.25	-38.2	-40.0	20.1	0.00e+00	0	43	0	232783872	48	4319
2026-01-29 01:11:16.20	26.10	12.51	-38.0	-39.9	20.2	0.00e+00	0	43	0	249561088	48	4253
2026-01-29 01:11:19.66	26.32	12.83	-38.1	-39.9	20.2	0.00e+00	0	43	0	268435456	48	4255
2026-01-29 01:11:22.68	26.52	13.11	-38.0	-39.8	20.1	0.00e+00	0	43	0	286261248	47	4489
2026-01-29 01:11:25.97	26.73	13.42	-38.0	-39.9	20.1	0.00e+00	0	43	0	304087040	47	4509
2026-01-29 01:11:28.68	26.91	13.68	-37.9	-39.7	20.2	0.00e+00	0	43	0	319815680	47	4440
2026-01-29 01:11:32.03	27.14	14.00	-37.7	-39.5	20.4	0.00e+00	0	43	0	338690048	47	4321
2026-01-29 01:11:34.76	27.32	14.26	-37.5	-39.3	20.6	0.00e+00	0	43	0	353370112	47	4237
2026-01-29 01:11:38.05	27.55	14.58	-37.3	-39.1	20.9	0.00e+00	0	43	0	372244480	46	4353
2026-01-29 01:11:40.78	27.75	14.85	-37.2	-39.0	20.9	0.00e+00	0	43	0	387973120	46	4335
2026-01-29 01:11:44.05	27.99	15.18	-37.3	-39.2	20.8	0.00e+00	0	43	0	405798912	46	4398
2026-01-29 01:11:46.79	28.19	15.46	-37.3	-39.1	20.9	0.00e+00	0	43	0	421527552	46	4378
2026-01-29 01:11:50.16	28.44	15.80	-37.2	-39.0	21.0	0.00e+00	0	43	0	440401920	46	4314
2026-01-29 01:11:52.87	28.65	16.08	-36.9	-38.7	21.2	0.00e+00	0	43	0	456130560	45	4415
2026-01-29 01:11:56.14	28.91	16.42	-36.8	-38.5	21.4	0.00e+00	0	43	0	473956352	45	4337
2026-01-29 01:11:58.85	29.13	16.71	-36.8	-38.5	21.4	0.00e+00	0	43	0	488636416	45	4339
2026-01-29 01:12:02.12	29.40	17.06	-36.9	-38.6	21.3	0.00e+00	0	43	0	507510784	45	4377
2026-01-29 01:12:05.09	29.64	17.38	-36.8	-38.5	21.5	0.00e+00	0	43	0	524288000	45	4300
2026-01-29 01:12:08.71	29.95	17.78	-36.6	-38.3	21.6	0.00e+00	0	43	0	544210944	45	4235
2026-01-29 01:12:12.11	30.25	18.16	-36.4	-38.1	21.8	0.00e+00	0	43	0	564133888	44	4387
2026-01-29 01:12:15.10	30.52	18.50	-36.6	-38.3	21.8	0.00e+00	0	43	0	580911104	44	4455
2026-01-29 01:12:18.09	30.79	18.84	-36.6	-38.4	21.6	0.00e+00	0	43	0	597688320	44	4507
2026-01-29 01:12:21.19	31.08	19.20	-36.6	-38.4	21.7	0.00e+00	0	43	0	614465536	44	4498
2026-01-29 01:12:24.13	31.37	19.54	-36.3	-38.0	22.0	0.00e+00	0	43	0	631242752	44	4306
2026-01-29 01:12:27.25	31.67	19.91	-36.2	-37.9	22.1	0.00e+00	0	43	0	649068544	44	4266
2026-01-29 01:12:30.28	31.97	20.28	-36.2	-37.9	21.8	0.00e+00	0	43	0	665845760	44	4253
2026-01-29 01:12:33.55	32.31	20.67	-36.2	-37.9	22.0	0.00e+00	0	43	0	684720128	44	4287
2026-01-29 01:12:36.25	32.59	21.01	-36.1	-37.8	22.2	0.00e+00	0	43	0	699400192	44	4233
2026-01-29 01:12:39.53	32.94	21.42	-36.1	-37.8	22.2	0.00e+00	0	43	0	718274560	44	4200
2026-01-29 01:12:42.25	33.24	21.76	-36.0	-37.7	22.3	0.00e+00	0	43	0	732954624	44	4178
2026-01-29 01:12:45.53	33.61	22.18	-36.1	-37.7	22.2	0.00e+00	0	43	0	751828992	44	4187
2026-01-29 01:12:48.23	33.92	22.53	-35.8	-37.5	22.3	0.00e+00	0	43	0	767557632	43	4315
2026-01-29 01:12:51.51	34.31	22.96	-35.6	-37.2	22.6	0.00e+00	0	43	0	785383424	43	4185
2026-01-29 01:12:54.22	34.64	23.32	-35.5	-37.1	22.7	0.00e+00	0	43	0	800063488	42	4382
2026-01-29 01:12:57.51	35.05	23.76	-35.5	-37.1	22.7	0.00e+00	0	43	0	818937856	42	4378
2026-01-29 01:13:00.21	35.39	24.13	-35.3	-36.9	22.8	0.00e+00	0	43	0	834666496	42	4284
2026-01-29 01:13:03.62	35.83	24.60	-35.1	-36.8	23.0	0.00e+00	0	43	0	853540864	42	4209
2026-01-29 01:13:06.32	36.20	24.98	-35.2	-36.8	23.0	0.00e+00	0	43	0	869269504	42	4227
2026-01-29 01:13:09.80	36.67	25.48	-35.2	-36.9	22.9	0.00e+00	0	43	0	888143872	42	4251
2026-01-29 01:13:12.50	37.06	25.86	-35.2	-36.8	23.0	0.00e+00	0	43	0	903872512	42	4232
2026-01-29 01:13:15.78	37.53	26.34	-34.9	-36.6	23.2	0.00e+00	0	43	0	921698304	41	4345
2026-01-29 01:13:18.51	37.94	26.74	-35.0	-36.6	23.2	0.00e+00	0	44	0	937426944	41	4368
2026-01-29 01:13:21.80	38.44	27.23	-34.9	-36.5	23.2	0.00e+00	0	43	0	955252736	41	4317
2026-01-29 01:13:24.72	38.90	27.68	-34.9	-36.5	23.2	0.00e+00	0	44	0	972029952	41	4336
2026-01-29 01:13:27.70	39.39	28.13	-35.0	-36.6	23.2	0.00e+00	0	43	0	988807168	41	4385
2026-01-29 01:13:30.69	39.88	28.59	-35.0	-36.7	23.1	0.00e+00	0	43	0	1005584384	41	4408
2026-01-29 01:13:33.67	40.39	29.06	-34.9	-36.5	23.3	0.00e+00	0	43	0	1022361600	41	4325
2026-01-29 01:13:36.66	40.92	29.53	-34.7	-36.4	23.4	0.00e+00	0	43	0	1039138816	41	4246
2026-01-29 01:13:39.96	41.52	30.06	-34.8	-36.4	23.3	0.00e+00	0	43	0	1058013184	41	4291
2026-01-29 01:13:42.66	42.03	30.50	-34.9	-36.6	23.2	0.00e+00	0	43	0	1072693248	41	4343
2026-01-29 01:13:45.95	42.66	31.04	-34.9	-36.5	23.3	0.00e+00	0	43	0	1091567616	41	4326
2026-01-29 01:13:48.76	43.22	31.51	-34.9	-36.5	23.2	0.00e+00	0	43	0	1107296256	41	4325
2026-01-29 01:13:52.04	43.89	32.05	-34.6	-36.3	22.9	0.00e+00	0	43	0	1126170624	41	4217
2026-01-29 01:13:54.75	44.46	32.51	-34.6	-36.4	22.8	0.00e+00	0	43	0	1140850688	41	4245
2026-01-29 01:13:58.03	45.18	33.07	-34.8	-36.6	22.7	0.00e+00	0	44	0	1159725056	41	4359
2026-01-29 01:14:00.76	45.79	33.54	-34.7	-36.4	22.8	0.00e+00	0	44	0	1174405120	41	4268
2026-01-29 01:14:04.05	46.55	34.11	-34.5	-36.3	22.9	0.00e+00	0	44	0	1193279488	41	4198
2026-01-29 01:14:06.83	47.22	34.60	-34.7	-36.5	22.7	0.00e+00	0	44	0	1209008128	40	4569
2026-01-29 01:14:10.25	48.07	35.21	-34.8	-36.6	22.6	0.00e+00	0	44	0	1227882496	40	4599
2026-01-29 01:14:12.95	48.76	35.69	-34.5	-36.2	23.0	0.00e+00	0	44	0	1243611136	40	4422
2026-01-29 01:14:16.24	49.63	36.27	-34.3	-36.1	23.1	0.00e+00	0	44	0	1262485504	40	4347
2026-01-29 01:14:19.08	50.40	36.78	-34.5	-36.3	22.9	0.00e+00	0	44	0	1278214144	40	4449
2026-01-29 01:14:22.49	51.36	37.40	-34.5	-36.2	23.0	0.00e+00	0	44	0	1297088512	40	4409
2026-01-29 01:14:25.22	52.16	37.89	-34.2	-35.8	23.3	0.00e+00	0	43	0	1312817152	40	4240
2026-01-29 01:14:28.51	53.15	38.49	-34.6	-36.4	22.8	0.00e+00	0	44	0	1330642944	40	4500
2026-01-29 01:14:31.22	54.00	38.99	-34.2	-35.9	23.3	0.00e+00	0	43	0	1346371584	40	4254
2026-01-29 01:14:34.55	55.07	39.59	-34.2	-35.8	23.3	0.00e+00	0	44	0	1365245952	40	4236
2026-01-29 01:14:37.27	55.98	40.09	-34.8	-36.6	22.7	0.00e+00	0	44	0	1379926016	40	4601
2026-01-29 01:14:40.65	57.15	40.70	-34.6	-36.3	22.9	0.00e+00	0	44	0	1398800384	40	4482
2026-01-29 01:14:43.47	58.15	41.21	-34.6	-36.3	23.0	0.00e+00	0	43	0	1415577600	40	4459
2026-01-29 01:14:46.76	59.37	41.80	-34.5	-36.2	22.9	0.00e+00	0	44	0	1433403392	40	4441
2026-01-29 01:14:49.47	60.40	42.28	-34.4	-36.1	23.1	0.00e+00	0	44	0	1449132032	40	4372
2026-01-29 01:14:52.76	61.70	42.86	-34.5	-36.2	23.0	0.00e+00	0	44	0	1466957824	40	4434
2026-01-29 01:14:55.70	62.90	43.37	-34.6	-36.3	22.9	0.00e+00	0	44	0	1483735040	40	4485
2026-01-29 01:14:58.97	64.28	43.93	-34.6	-36.3	23.0	0.00e+00	0	44	0	1502609408	40	4455
2026-01-29 01:15:01.70	65.47	44.39	-34.8	-36.6	22.8	0.00e+00	0	43	0	1517289472	40	4599
2026-01-29 01:15:05.00	66.95	44.94	-35.0	-36.8	22.6	0.00e+00	0	44	0	1536163840	40	4710
2026-01-29 01:15:07.72	68.21	45.37	-35.0	-36.7	22.6	0.00e+00	0	43	0	1551892480	40	4678
2026-01-29 01:15:10.99	69.77	45.89	-34.9	-36.6	22.7	0.00e+00	0	44	0	1569718272	40	4630
2026-01-29 01:15:13.85	71.17	46.32	-35.0	-36.7	22.7	0.00e+00	0	44	0	1586495488	40	4694
2026-01-29 01:15:17.35	72.95	46.83	-34.5	-36.2	23.1	0.00e+00	0	44	0	1605369856	40	4404
2026-01-29 01:15:20.41	74.54	47.26	-34.9	-36.7	22.8	0.00e+00	0	44	0	1623195648	40	4655
2026-01-29 01:15:23.70	76.31	47.70	-34.9	-36.6	22.8	0.00e+00	0	44	0	1641021440	40	4610
2026-01-29 01:15:26.42	77.80	48.04	-34.9	-36.6	22.8	0.00e+00	0	44	0	1656750080	40	4623
2026-01-29 01:15:29.72	79.66	48.43	-34.8	-36.5	22.9	0.00e+00	0	44	0	1675624448	40	4551
2026-01-29 01:15:32.56	81.30	48.74	-34.9	-36.6	22.8	0.00e+00	0	44	0	1691353088	40	4626
2026-01-29 01:15:35.68	83.13	49.06	-34.9	-36.6	22.8	0.00e+00	0	44	0	1709178880	40	4615
2026-01-29 01:15:38.53	84.84	49.33	-34.9	-36.7	22.7	0.00e+00	0	44	0	1724907520	40	4668
2026-01-29 01:15:41.66	86.74	49.59	-35.0	-36.7	22.7	0.00e+00	0	43	0	1742733312	40	4675
2026-01-29 01:15:44.50	88.50	49.79	-34.7	-36.4	22.9	0.00e+00	0	43	0	1758461952	40	4541
2026-01-29 01:15:47.71	90.51	50.00	-34.6	-36.3	23.1	0.00e+00	0	43	0	1776287744	40	4477
2026-01-29 01:15:50.83	92.49	50.16	-34.8	-36.4	22.9	0.00e+00	0	43	0	1794113536	40	4545
2026-01-29 01:15:53.68	94.32	50.27	-35.1	-36.8	22.6	0.00e+00	0	43	0	1809842176	41	4479
2026-01-29 01:15:56.80	96.33	50.37	-34.8	-36.4	22.9	0.00e+00	0	44	0	1827667968	41	4288
2026-01-29 01:15:59.69	98.20	50.42	-35.2	-36.9	22.5	0.00e+00	0	44	0	1844445184	41	4528
2026-01-29 01:16:03.24	100.51	50.44	-35.0	-36.7	22.7	0.00e+00	0	44	0	1864368128	41	4439
2026-01-29 01:16:05.94	102.26	50.42	-35.0	-36.7	22.7	0.00e+00	0	44	0	1879048192	41	4436
2026-01-29 01:16:09.21	104.38	50.37	-34.9	-36.6	22.8	0.00e+00	0	43	0	1896873984	41	4374
2026-01-29 01:16:11.92	106.13	50.29	-34.9	-36.6	22.8	0.00e+00	0	44	0	1912602624	41	4348
2026-01-29 01:16:15.20	108.24	50.16	-34.8	-36.5	22.8	0.00e+00	0	43	0	1931476992	41	4318
2026-01-29 01:16:17.92	109.97	50.02	-35.0	-36.7	22.7	0.00e+00	0	44	0	1946157056	41	4409
2026-01-29 01:16:21.30	112.09	49.81	-35.0	-36.7	22.7	0.00e+00	0	44	0	1965031424	41	4405
2026-01-29 01:16:24.01	113.77	49.62	-34.5	-36.3	23.1	0.00e+00	0	44	0	1980760064	41	4196
2026-01-29 01:16:27.29	115.78	49.35	-35.2	-36.9	22.5	0.00e+00	0	44	0	1999634432	41	4525
2026-01-29 01:16:30.00	117.41	49.10	-35.1	-36.9	22.6	0.00e+00	0	44	0	2014314496	41	4503
2026-01-29 01:16:33.27	119.34	48.77	-35.0	-36.7	22.7	0.00e+00	0	44	0	2033188864	41	4416
2026-01-29 01:16:36.00	120.92	48.47	-34.8	-36.5	22.8	0.00e+00	0	44	0	2047868928	41	4331
2026-01-29 01:16:39.27	122.76	48.09	-35.2	-37.0	22.5	0.00e+00	0	44	0	2066743296	41	4559
2026-01-29 01:16:42.00	124.27	47.75	-34.9	-36.6	22.8	0.00e+00	0	44	0	2081423360	41	4375
2026-01-29 01:16:45.29	126.05	47.31	-34.6	-36.3	23.0	0.00e+00	0	44	0	2100297728	41	4227
2026-01-29 01:16:48.00	127.47	46.94	-34.8	-36.5	22.8	0.00e+00	0	44	0	2116026368	40	4552
2026-01-29 01:16:51.28	129.15	46.46	-35.0	-36.7	22.6	0.00e+00	0	44	0	2133852160	40	4695
2026-01-29 01:16:54.23	130.62	46.01	-34.6	-36.3	23.0	0.00e+00	0	44	0	2150629376	40	4482
2026-01-29 01:16:57.51	132.20	45.50	-34.8	-36.5	22.8	0.00e+00	0	44	0	2169503744	40	4566
2026-01-29 01:17:00.25	133.48	45.06	-34.9	-36.7	22.7	0.00e+00	0	44	0	2184183808	40	4652
2026-01-29 01:17:03.52	134.97	44.52	-35.2	-37.0	22.3	0.00e+00	0	44	0	2203058176	41	4572
2026-01-29 01:17:06.23	136.16	44.07	-35.1	-36.9	22.4	0.00e+00	0	44	0	2218786816	41	4501
2026-01-29 01:17:09.53	137.57	43.50	-34.6	-36.3	22.8	0.00e+00	0	44	0	2236612608	41	4223
2026-01-29 01:17:12.26	138.69	43.03	-34.8	-36.5	22.7	0.00e+00	0	43	0	2252341248	41	4328
2026-01-29 01:17:15.53	140.00	42.45	-35.1	-36.8	22.5	0.00e+00	0	44	0	2270167040	41	4477
2026-01-29 01:17:18.26	141.06	41.96	-34.7	-36.4	22.8	0.00e+00	0	44	0	2285895680	41	4249
2026-01-29 01:17:21.53	142.28	41.38	-34.7	-36.4	22.7	0.00e+00	0	44	0	2304770048	41	4291
2026-01-29 01:17:24.24	143.27	40.89	-34.5	-36.2	22.9	0.00e+00	0	44	0	2319450112	41	4189
2026-01-29 01:17:27.53	144.42	40.29	-34.6	-36.3	22.9	0.00e+00	0	44	0	2338324480	40	4463
2026-01-29 01:17:30.26	145.34	39.79	-34.3	-36.0	23.1	0.00e+00	0	44	0	2353004544	40	4312
2026-01-29 01:17:33.54	146.42	39.19	-34.4	-36.1	23.0	0.00e+00	0	44	0	2371878912	40	4384
2026-01-29 01:17:36.24	147.28	38.70	-34.4	-36.1	23.0	0.00e+00	0	44	0	2386558976	40	4390
2026-01-29 01:17:39.53	148.29	38.09	-34.3	-36.0	23.1	0.00e+00	0	43	0	2405433344	40	4331
2026-01-29 01:17:42.34	149.12	37.58	-34.1	-35.8	23.2	0.00e+00	0	44	0	2421161984	40	4225
2026-01-29 01:17:45.76	150.10	36.96	-34.4	-36.2	23.0	0.00e+00	0	43	0	2440036352	40	4395
2026-01-29 01:17:48.48	150.86	36.47	-34.4	-36.1	23.1	0.00e+00	0	44	0	2455764992	40	4361
2026-01-29 01:17:51.76	151.74	35.88	-34.2	-35.9	23.2	0.00e+00	0	44	0	2474639360	40	4263
2026-01-29 01:17:54.51	152.45	35.38	-34.5	-36.3	22.9	0.00e+00	0	44	0	2489319424	40	4447
2026-01-29 01:17:57.78	153.27	34.80	-34.5	-36.2	22.9	0.00e+00	0	44	0	2508193792	40	4416
2026-01-29 01:18:00.58	153.96	34.31	-34.3	-36.0	23.0	0.00e+00	0	44	0	2523922432	40	4333
2026-01-29 01:18:03.70	154.69	33.76	-34.3	-36.0	23.1	0.00e+00	0	44	0	2541748224	40	4321
2026-01-29 01:18:06.54	155.34	33.26	-34.4	-36.1	23.0	0.00e+00	0	44	0	2557476864	40	4350
2026-01-29 01:18:09.67	156.04	32.72	-34.4	-36.2	22.8	0.00e+00	0	44	0	2575302656	40	4403
2026-01-29 01:18:12.62	156.67	32.22	-34.7	-36.4	22.7	0.00e+00	0	44	0	2592079872	40	4520
2026-01-29 01:18:15.61	157.29	31.71	-34.8	-36.6	22.5	0.00e+00	0	44	0	2608857088	40	4625
2026-01-29 01:18:18.95	157.97	31.15	-35.0	-36.8	22.3	0.00e+00	0	44	0	2627731456	40	4751
2026-01-29 01:18:21.71	158.51	30.70	-34.9	-36.7	22.4	0.00e+00	0	44	0	2642411520	40	4679
2026-01-29 01:18:24.98	159.13	30.16	-35.1	-36.9	22.3	0.00e+00	0	44	0	2661285888	40	4770
2026-01-29 01:18:27.71	159.63	29.72	-35.0	-36.7	22.4	0.00e+00	0	44	0	2675965952	40	4700
2026-01-29 01:18:31.16	160.25	29.17	-35.1	-36.9	22.2	0.00e+00	0	44	0	2695888896	40	4804
2026-01-29 01:18:33.89	160.72	28.73	-35.0	-36.8	22.4	0.00e+00	0	44	0	2711617536	41	4456
2026-01-29 01:18:37.24	161.29	28.21	-34.8	-36.6	22.5	0.00e+00	0	44	0	2730491904	41	4359
2026-01-29 01:18:39.94	161.73	27.79	-34.9	-36.6	22.5	0.00e+00	0	44	0	2745171968	41	4373
2026-01-29 01:18:43.22	162.25	27.29	-34.8	-36.5	22.6	0.00e+00	0	44	0	2764046336	41	4337
2026-01-29 01:18:45.95	162.68	26.88	-34.7	-36.5	22.6	0.00e+00	0	44	0	2778726400	41	4305
2026-01-29 01:18:49.49	163.21	26.35	-34.7	-36.5	22.6	0.00e+00	0	44	0	2798649344	41	4293
2026-01-29 01:18:52.65	163.67	25.89	-34.9	-36.7	22.4	0.00e+00	0	44	0	2816475136	41	4399
2026-01-29 01:18:55.63	164.09	25.46	-35.1	-36.9	22.2	0.00e+00	0	43	0	2833252352	41	4511
2026-01-29 01:18:58.61	164.51	25.03	-35.2	-37.0	22.2	0.00e+00	0	44	0	2850029568	41	4548
2026-01-29 01:19:01.61	164.91	24.61	-34.9	-36.7	22.4	0.00e+00	0	44	0	2867855360	41	4396
2026-01-29 01:19:04.83	165.33	24.16	-34.9	-36.6	22.5	0.00e+00	0	44	0	2885681152	41	4378
2026-01-29 01:19:07.71	165.70	23.76	-35.1	-36.9	22.2	0.00e+00	0	44	0	2901409792	41	4513
2026-01-29 01:19:11.01	166.11	23.31	-35.6	-37.4	21.8	0.00e+00	0	44	0	2920284160	41	4775
2026-01-29 01:19:13.71	166.44	22.95	-35.7	-37.6	21.6	0.00e+00	0	44	0	2934964224	42	4607
2026-01-29 01:19:16.99	166.83	22.51	-35.7	-37.5	21.7	0.00e+00	0	44	0	2953838592	42	4584
2026-01-29 01:19:19.74	167.15	22.15	-35.9	-37.7	21.6	0.00e+00	0	44	0	2969567232	42	4675
2026-01-29 01:19:23.18	167.54	21.71	-35.6	-37.4	21.8	0.00e+00	0	44	0	2988441600	42	4512
2026-01-29 01:19:25.95	167.84	21.36	-35.7	-37.5	21.7	0.00e+00	0	44	0	3004170240	42	4558
2026-01-29 01:19:29.22	168.19	20.95	-35.9	-37.7	21.6	0.00e+00	0	44	0	3023044608	42	4660
2026-01-29 01:19:31.92	168.48	20.61	-35.9	-37.7	21.6	0.00e+00	0	44	0	3037724672	42	4672
2026-01-29 01:19:35.19	168.81	20.21	-35.9	-37.7	21.5	0.00e+00	0	44	0	3056599040	42	4669
2026-01-29 01:19:38.03	169.09	19.87	-35.9	-37.7	21.5	0.00e+00	0	44	0	3072327680	42	4701
2026-01-29 01:19:41.15	169.40	19.49	-36.1	-38.0	21.3	0.00e+00	0	44	0	3090153472	42	4823
2026-01-29 01:19:44.00	169.67	19.16	-36.3	-38.1	21.1	0.00e+00	0	44	0	3105882112	43	4645
2026-01-29 01:19:47.06	169.96	18.80	-36.4	-38.2	21.1	0.00e+00	0	44	0	3122659328	43	4697
2026-01-29 01:19:50.23	170.25	18.43	-36.5	-38.3	21.0	0.00e+00	0	44	0	3140485120	43	4745
2026-01-29 01:19:53.31	170.53	18.08	-36.4	-38.2	21.1	0.00e+00	0	44	0	3158310912	43	4705
2026-01-29 01:19:56.37	170.79	17.74	-36.5	-38.3	21.0	0.00e+00	0	44	0	3175088128	43	4730
2026-01-29 01:19:59.66	171.08	17.37	-36.5	-38.3	21.0	0.00e+00	0	44	0	3193962496	43	4748
2026-01-29 01:20:02.49	171.31	17.06	-36.9	-38.7	20.8	0.00e+00	0	44	0	3209691136	44	4682
2026-01-29 01:20:05.63	171.57	16.72	-37.1	-39.0	20.5	0.00e+00	0	44	0	3227516928	44	4855
2026-01-29 01:20:08.86	171.83	16.38	-37.3	-39.3	20.2	0.00e+00	0	44	0	3245342720	45	4718
2026-01-29 01:20:11.71	172.05	16.08	-37.5	-39.4	20.1	0.00e+00	0	44	0	3262119936	45	4796
2026-01-29 01:20:14.83	172.30	15.75	-37.6	-39.5	20.0	0.00e+00	0	44	0	3278897152	45	4870
2026-01-29 01:20:17.68	172.51	15.46	-37.7	-39.7	19.8	0.00e+00	0	44	0	3295674368	46	4687
2026-01-29 01:20:20.89	172.75	15.13	-37.7	-39.6	19.9	0.00e+00	0	44	0	3313500160	46	4645
2026-01-29 01:20:23.73	172.96	14.84	-37.7	-39.7	19.8	0.00e+00	0	44	0	3329228800	46	4689
2026-01-29 01:20:26.94	173.18	14.52	-37.9	-39.9	19.7	0.00e+00	0	44	0	3347054592	46	4786
2026-01-29 01:20:29.78	173.38	14.24	-37.9	-40.0	19.6	0.00e+00	0	44	0	3362783232	46	4821
2026-01-29 01:20:32.91	173.60	13.94	-38.0	-40.0	19.5	0.00e+00	0	44	0	3380609024	46	4858
2026-01-29 01:20:35.74	173.79	13.66	-38.0	-40.0	19.5	0.00e+00	0	44	0	3396337664	46	4853
2026-01-29 01:20:38.90	174.00	13.36	-38.0	-40.0	19.6	0.00e+00	0	44	0	3414163456	46	4819
2026-01-29 01:20:41.82	174.19	13.08	-37.9	-39.9	19.6	0.00e+00	0	44	0	3430940672	47	4509
2026-01-29 01:20:45.07	174.39	12.78	-38.0	-40.0	19.6	0.00e+00	0	44	0	3449815040	47	4549
2026-01-29 01:20:47.98	174.58	12.51	-37.9	-39.9	19.6	0.00e+00	0	44	0	3465543680	47	4511
2026-01-29 01:20:51.11	174.77	12.22	-38.1	-40.0	19.5	0.00e+00	0	44	0	3483369472	47	4592
2026-01-29 01:20:54.03	174.94	11.96	-38.2	-40.2	19.3	0.00e+00	0	44	0	3500146688	47	4688
2026-01-29 01:20:57.02	175.12	11.69	-38.2	-40.3	19.2	0.00e+00	0	44	0	3516923904	47	4747
2026-01-29 01:21:00.00	175.30	11.43	-38.1	-40.3	19.2	0.00e+00	0	44	0	3533701120	47	4721
2026-01-29 01:21:02.99	175.47	11.16	-38.2	-40.5	19.0	0.00e+00	0	44	0	3550478336	47	4829
2026-01-29 01:21:05.97	175.64	10.91	-38.3	-40.6	18.9	0.00e+00	0	44	0	3567255552	47	4911
2026-01-29 01:21:08.96	175.80	10.65	-38.5	-40.8	18.7	0.00e+00	0	44	0	3584032768	47	5004
2026-01-29 01:21:11.94	175.96	10.39	-38.5	-40.8	18.8	0.00e+00	0	44	0	3600809984	47	4990
2026-01-29 01:21:14.93	176.12	10.14	-38.8	-41.0	18.7	0.00e+00	0	44	0	3617587200	48	4838
2026-01-29 01:21:17.98	176.29	9.89	-38.9	-41.1	18.7	0.00e+00	0	44	0	3634364416	48	4877
2026-01-29 01:21:20.96	176.44	9.64	-38.9	-41.0	18.7	0.00e+00	0	44	0	3651141632	48	4843
2026-01-29 01:21:23.94	176.59	9.39	-38.9	-41.1	18.7	0.00e+00	0	44	0	3667918848	48	4875
2026-01-29 01:21:26.93	176.74	9.15	-39.2	-41.3	18.4	0.00e+00	0	44	0	3684696064	48	5006
2026-01-29 01:21:29.97	176.89	8.90	-48.8	-61.1	3.8	8.46e-01	0	44	104	3696230400	68	15449
2026-01-29 01:21:32.95	177.04	8.67	-49.2	-61.8	3.8	8.47e-01	0	44	104	3696230400	69	15814
2026-01-29 01:21:35.93	177.18	8.43	-49.8	-61.9	3.8	8.49e-01	0	44	104	3696230400	70	15201
2026-01-29 01:21:38.91	177.32	8.20	-49.8	-62.0	3.8	8.47e-01	0	44	104	3696230400	70	15229
2026-01-29 01:21:41.89	177.46	7.96	-49.8	-62.0	3.8	8.47e-01	0	44	104	3696230400	70	15269
2026-01-29 01:21:44.87	177.60	7.73	-49.8	-61.9	3.8	8.46e-01	0	44	104	3696230400	70	15151
2026-01-29 01:21:47.85	177.73	7.51	-49.6	-61.7	3.8	8.48e-01	0	44	104	3696230400	70	14715
2026-01-29 01:21:50.83	177.87	7.28	-49.3	-61.4	3.8	8.48e-01	0	44	104	3696230400	70	14351
2026-01-29 01:21:53.81	178.00	7.06	-49.3	-61.4	3.8	8.45e-01	0	44	104	3696230400	70	14355
2026-01-29 01:21:56.79	178.13	6.83	-49.2	-61.4	3.8	8.48e-01	0	44	104	3696230400	70	14344
2026-01-29 01:21:59.77	178.25	6.61	-49.1	-61.4	3.8	8.46e-01	0	44	104	3696230400	69	15078
2026-01-29 01:22:02.75	178.38	6.39	-49.2	-61.3	3.8	8.47e-01	0	44	104	3696230400	69	14983
2026-01-29 01:22:05.73	178.50	6.18	-49.0	-61.2	3.8	8.48e-01	0	44	104	3696230400	69	14815
2026-01-29 01:22:08.71	178.62	5.96	-49.0	-61.2	3.8	8.47e-01	0	44	104	3696230400	69	14744
2026-01-29 01:22:11.69	178.74	5.75	-49.0	-61.2	3.8	8.46e-01	0	44	104	3696230400	69	14833
2026-01-29 01:22:14.67	178.86	5.54	-49.0	-61.2	3.8	8.47e-01	0	44	104	3696230400	69	14709
2026-01-29 01:22:17.65	178.98	5.32	-49.0	-61.2	3.8	8.46e-01	0	44	104	3696230400	69	14767
2026-01-29 01:22:20.63	179.10	5.12	-49.0	-61.2	3.8	8.47e-01	0	44	104	3696230400	69	14800

#Closed at: 2026-01-29 01:22:23
#Recorded file [3696 MB]: D:/Data/31040_260129_040942.dat