passes_logs/2026/01/29/T1/T1__20260129_120740_NOAA_20_JPSS-1_rec.log

#Pass ID: 20260129_120740_NOAA 20 (JPSS-1)
#Satellite: NOAA 20 (JPSS-1)
#Configuration: NOAA 20
#almurnet v.1.7.20251203
#Start time: 2026-01-29 12:07:42

#Version: 2.0.20230620
#Station: T1
#Location: 37.570604 lon 55.790049 lat
#TLE: 1 43013U 17073A   26027.94683596  .00000137  00000+0  85741-4 0  9995
#TLE: 2 43013  98.7648 328.7503 0000940  21.3928 338.7287 14.19541154424576

#Time	Az	El	Level	Level2	SNR	BER	BlckErr	Temp	State	Recorded	gain1	gain2
2026-01-29 12:07:42.86	236.84	5.10	-50.1	-65.3	3.8	1.49e+00	0	41	0	0	70	22368
2026-01-29 12:07:45.83	237.20	5.23	-49.8	-65.3	3.8	1.49e+00	0	41	104	0	71	21102
2026-01-29 12:07:48.81	237.56	5.36	-49.8	-65.2	3.8	1.49e+00	0	42	104	0	71	20933
2026-01-29 12:07:51.79	237.93	5.49	-49.7	-65.2	3.8	1.49e+00	0	42	104	0	71	20857
2026-01-29 12:07:54.77	238.30	5.62	-49.4	-65.1	3.8	1.49e+00	0	42	104	0	70	21812
2026-01-29 12:07:57.75	238.67	5.75	-49.4	-64.8	3.8	1.49e+00	0	42	104	0	70	21222
2026-01-29 12:08:00.73	239.04	5.88	-49.3	-64.6	3.8	1.49e+00	0	42	104	0	70	20753
2026-01-29 12:08:03.71	239.42	6.01	-49.2	-64.6	3.8	1.49e+00	0	42	104	0	70	20706
2026-01-29 12:08:06.69	239.81	6.14	-49.2	-64.6	3.8	1.49e+00	0	42	104	0	70	20600
2026-01-29 12:08:09.67	240.19	6.27	-49.2	-64.6	3.8	1.49e+00	0	42	104	0	70	20686
2026-01-29 12:08:12.65	240.58	6.40	-49.1	-64.6	3.8	1.49e+00	0	42	104	0	70	20743
2026-01-29 12:08:15.63	240.97	6.53	-49.2	-64.6	3.8	1.49e+00	0	42	104	0	70	20605
2026-01-29 12:08:18.61	241.37	6.65	-49.1	-64.6	3.8	1.49e+00	0	43	104	0	70	20540
2026-01-29 12:08:21.59	241.77	6.78	-49.2	-64.5	3.8	1.49e+00	0	42	104	0	70	20497
2026-01-29 12:08:24.57	242.17	6.91	-49.1	-64.4	3.8	1.49e+00	0	43	104	0	70	20282
2026-01-29 12:08:27.55	242.58	7.03	-49.1	-64.4	3.8	1.49e+00	0	43	104	0	70	20244
2026-01-29 12:08:30.53	242.99	7.16	-49.2	-64.4	3.8	1.49e+00	0	43	104	0	70	20286
2026-01-29 12:08:33.51	243.40	7.28	-49.2	-64.5	3.8	1.49e+00	0	43	104	0	70	20484
2026-01-29 12:08:36.49	243.82	7.41	-49.1	-64.5	3.8	1.49e+00	0	43	104	0	70	20447
2026-01-29 12:08:39.48	244.24	7.53	-49.2	-64.5	3.8	1.49e+00	0	43	104	0	70	20535
2026-01-29 12:08:42.46	244.66	7.65	-49.2	-64.5	3.8	1.49e+00	0	43	104	0	70	20515
2026-01-29 12:08:45.43	245.09	7.77	-49.1	-64.5	3.8	1.49e+00	0	43	104	0	70	20474
2026-01-29 12:08:48.41	245.52	7.89	-49.1	-64.5	3.8	1.49e+00	0	43	104	0	70	20354
2026-01-29 12:08:51.39	245.95	8.01	-49.1	-64.2	3.8	1.49e+00	0	43	104	0	70	19685
2026-01-29 12:08:54.37	246.39	8.13	-49.1	-64.3	3.8	1.49e+00	0	43	104	0	70	19946
2026-01-29 12:08:57.35	246.83	8.25	-49.2	-64.5	3.8	1.49e+00	0	43	104	0	70	20358
2026-01-29 12:09:00.33	247.27	8.37	-49.1	-64.3	3.8	1.49e+00	0	43	104	0	70	19845
2026-01-29 12:09:03.31	247.72	8.49	-49.0	-62.4	3.8	1.48e+00	0	43	104	0	70	16030
2026-01-29 12:09:06.29	248.17	8.60	-48.9	-61.8	3.8	1.49e+00	0	43	104	0	69	15915
2026-01-29 12:09:09.27	248.62	8.72	-46.2	-50.8	12.4	1.58e-03	0	43	0	4194304	64	5968
2026-01-29 12:09:12.25	249.08	8.83	-44.9	-48.4	14.9	0.00e+00	0	43	0	10485760	61	5368
2026-01-29 12:09:15.23	249.54	8.94	-46.6	-51.4	11.9	1.55e-04	0	43	0	15728640	63	6776
2026-01-29 12:09:18.21	250.01	9.05	-47.7	-54.7	8.4	3.53e-02	0	44	0	20971520	66	8320
2026-01-29 12:09:21.27	250.49	9.17	-46.2	-50.7	12.7	1.37e-05	0	43	0	27262976	63	6209
2026-01-29 12:09:24.19	250.95	9.27	-45.6	-49.6	13.8	5.30e-06	0	43	0	32505856	63	5528
2026-01-29 12:09:27.47	251.47	9.39	-44.7	-48.4	15.0	0.00e+00	0	43	0	38797312	61	5349
2026-01-29 12:09:30.17	251.90	9.49	-44.9	-48.7	14.6	7.00e-07	0	44	0	44040192	61	5586
2026-01-29 12:09:33.46	252.43	9.60	-44.4	-47.6	15.8	0.00e+00	0	43	0	50331648	60	5205
2026-01-29 12:09:36.17	252.88	9.70	-44.3	-47.4	16.0	0.00e+00	0	43	0	54525952	60	5057
2026-01-29 12:09:39.45	253.41	9.81	-44.3	-47.3	16.0	0.00e+00	0	44	0	60817408	60	5031
2026-01-29 12:09:42.16	253.86	9.90	-44.3	-47.4	16.0	0.00e+00	0	44	0	66060288	60	5079
2026-01-29 12:09:45.44	254.40	10.01	-44.4	-47.6	15.8	0.00e+00	0	43	0	72351744	60	5203
2026-01-29 12:09:48.15	254.86	10.10	-44.3	-47.6	15.8	0.00e+00	0	44	0	77594624	60	5188
2026-01-29 12:09:51.43	255.41	10.20	-44.2	-47.5	15.9	0.00e+00	0	43	0	83886080	60	5118
2026-01-29 12:09:54.14	255.87	10.29	-44.0	-47.1	16.3	0.00e+00	0	44	0	89128960	59	5168
2026-01-29 12:09:57.42	256.43	10.39	-44.1	-47.1	16.2	0.00e+00	0	44	0	94371840	59	5184
2026-01-29 12:10:00.15	256.89	10.48	-44.2	-47.3	16.0	0.00e+00	0	43	0	99614720	59	5307
2026-01-29 12:10:03.44	257.46	10.58	-44.3	-47.4	15.9	0.00e+00	0	43	0	105906176	59	5389
2026-01-29 12:10:06.15	257.93	10.66	-44.4	-47.6	15.8	0.00e+00	0	44	0	111149056	59	5503
2026-01-29 12:10:09.44	258.50	10.75	-44.2	-47.4	15.9	0.00e+00	0	44	0	117440512	59	5387
2026-01-29 12:10:12.16	258.98	10.83	-44.1	-47.4	16.0	0.00e+00	0	44	0	122683392	59	5341
2026-01-29 12:10:15.44	259.56	10.92	-44.3	-47.5	15.9	0.00e+00	0	44	0	128974848	59	5422
2026-01-29 12:10:18.17	260.04	10.99	-44.3	-47.5	15.9	0.00e+00	0	44	0	134217728	59	5416
2026-01-29 12:10:21.48	260.63	11.08	-44.3	-47.4	16.0	0.00e+00	0	44	0	139460608	59	5399
2026-01-29 12:10:24.19	261.12	11.15	-44.5	-47.8	15.7	0.00e+00	0	44	0	144703488	59	5600
2026-01-29 12:10:27.48	261.71	11.23	-44.5	-47.7	15.7	0.00e+00	0	44	0	150994944	59	5575
2026-01-29 12:10:30.20	262.20	11.30	-44.5	-47.6	15.8	0.00e+00	0	44	0	156237824	59	5520
2026-01-29 12:10:33.49	262.80	11.38	-44.2	-47.3	16.1	0.00e+00	0	43	0	162529280	59	5286
2026-01-29 12:10:36.20	263.30	11.44	-44.1	-47.2	16.2	0.00e+00	0	44	0	167772160	59	5221
2026-01-29 12:10:39.50	263.90	11.51	-44.0	-47.0	16.4	0.00e+00	0	44	0	174063616	59	5144
2026-01-29 12:10:42.21	264.40	11.57	-44.1	-47.1	16.3	0.00e+00	0	44	0	179306496	59	5194
2026-01-29 12:10:45.50	265.01	11.64	-44.3	-47.3	16.1	0.00e+00	0	44	0	184549376	59	5294
2026-01-29 12:10:48.22	265.52	11.69	-46.1	-50.4	13.0	9.15e-05	0	44	0	189792256	64	5684
2026-01-29 12:10:51.50	266.13	11.75	-45.7	-49.6	13.8	2.20e-06	0	44	0	196083712	62	5796
2026-01-29 12:10:54.21	266.63	11.80	-44.0	-47.0	16.4	0.00e+00	0	44	0	201326592	60	4856
2026-01-29 12:10:57.50	267.25	11.86	-43.8	-46.7	16.7	0.00e+00	0	44	0	207618048	59	4953
2026-01-29 12:11:00.22	267.76	11.91	-44.1	-47.1	16.3	0.00e+00	0	44	0	212860928	59	5172
2026-01-29 12:11:03.51	268.39	11.96	-44.3	-47.4	16.0	0.00e+00	0	44	0	219152384	59	5348
2026-01-29 12:11:06.22	268.90	12.00	-44.2	-47.3	16.1	0.00e+00	0	44	0	223346688	59	5304
2026-01-29 12:11:09.51	269.53	12.05	-44.2	-47.2	16.2	0.00e+00	0	44	0	229638144	59	5250
2026-01-29 12:11:12.22	270.04	12.09	-44.4	-47.5	15.9	0.00e+00	0	44	0	234881024	59	5439
2026-01-29 12:11:15.50	270.67	12.13	-44.7	-47.9	15.5	0.00e+00	0	44	0	241172480	59	5701
2026-01-29 12:11:18.21	271.19	12.16	-44.8	-48.2	15.3	0.00e+00	0	44	0	246415360	60	5571
2026-01-29 12:11:21.51	271.82	12.20	-44.7	-47.9	15.5	0.00e+00	0	44	0	252706816	60	5396
2026-01-29 12:11:24.22	272.34	12.22	-44.7	-48.0	15.5	0.00e+00	0	44	0	257949696	60	5420
2026-01-29 12:11:27.51	272.98	12.26	-44.6	-47.9	15.6	0.00e+00	0	44	0	264241152	60	5347
2026-01-29 12:11:30.23	273.50	12.28	-44.6	-47.8	15.7	0.00e+00	0	44	0	268435456	60	5306
2026-01-29 12:11:33.51	274.14	12.30	-44.6	-47.8	15.7	0.00e+00	0	44	0	274726912	60	5289
2026-01-29 12:11:36.23	274.66	12.32	-44.6	-47.7	15.8	0.00e+00	0	44	0	279969792	60	5249
2026-01-29 12:11:39.52	275.30	12.34	-44.5	-47.7	15.8	0.00e+00	0	44	0	286261248	60	5246
2026-01-29 12:11:42.24	275.83	12.35	-44.5	-47.7	15.8	0.00e+00	0	44	0	291504128	60	5249
2026-01-29 12:11:45.53	276.47	12.37	-44.2	-47.3	16.2	0.00e+00	0	44	0	297795584	60	4987
2026-01-29 12:11:48.24	277.00	12.38	-44.2	-47.3	16.3	0.00e+00	0	44	0	303038464	60	4990
2026-01-29 12:11:51.53	277.64	12.38	-44.2	-47.3	16.1	0.00e+00	0	43	0	308281344	59	5314
2026-01-29 12:11:54.24	278.16	12.39	-44.3	-47.4	16.1	0.00e+00	0	44	0	313524224	59	5365
2026-01-29 12:11:57.52	278.80	12.39	-44.1	-47.1	16.4	0.00e+00	0	44	0	319815680	59	5180
2026-01-29 12:12:00.25	279.33	12.39	-44.2	-47.2	16.2	0.00e+00	0	44	0	325058560	59	5228
2026-01-29 12:12:03.55	279.97	12.38	-44.0	-47.0	16.4	0.00e+00	0	44	0	331350016	59	5124
2026-01-29 12:12:06.28	280.50	12.38	-44.0	-46.8	16.6	0.00e+00	0	44	0	336592896	59	5028
2026-01-29 12:12:09.57	281.14	12.37	-43.7	-46.4	17.0	0.00e+00	0	44	0	342884352	59	4791
2026-01-29 12:12:12.29	281.67	12.35	-43.4	-46.0	17.4	0.00e+00	0	44	0	348127232	58	4861
2026-01-29 12:12:15.58	282.31	12.34	-43.5	-46.1	17.3	0.00e+00	0	44	0	353370112	58	4915
2026-01-29 12:12:18.30	282.84	12.32	-43.5	-46.2	17.2	0.00e+00	0	44	0	358612992	58	4932
2026-01-29 12:12:21.58	283.47	12.30	-43.3	-45.9	17.5	0.00e+00	0	44	0	364904448	58	4797
2026-01-29 12:12:24.29	283.99	12.28	-43.2	-45.8	17.6	0.00e+00	0	44	0	370147328	58	4724
2026-01-29 12:12:27.58	284.63	12.25	-43.2	-45.9	17.5	0.00e+00	0	44	0	376438784	58	4762
2026-01-29 12:12:30.29	285.15	12.23	-43.2	-45.8	17.5	0.00e+00	0	44	0	381681664	58	4744
2026-01-29 12:12:33.61	285.79	12.19	-43.2	-45.8	17.6	0.00e+00	0	44	0	387973120	58	4732
2026-01-29 12:12:36.36	286.31	12.16	-43.3	-45.9	17.5	0.00e+00	0	44	0	393216000	58	4783
2026-01-29 12:12:39.64	286.94	12.12	-43.2	-45.8	17.6	0.00e+00	0	44	0	399507456	58	4734
2026-01-29 12:12:42.36	287.46	12.09	-43.4	-46.1	17.3	0.00e+00	0	44	0	403701760	58	4895
2026-01-29 12:12:45.66	288.09	12.05	-43.5	-46.1	17.2	0.00e+00	0	44	0	409993216	58	4918
2026-01-29 12:12:48.37	288.60	12.01	-43.5	-46.2	17.2	0.00e+00	0	44	0	415236096	58	4935
2026-01-29 12:12:51.66	289.22	11.96	-43.6	-46.3	17.0	0.00e+00	0	44	0	421527552	58	5027
2026-01-29 12:12:54.37	289.74	11.91	-43.6	-46.4	17.0	0.00e+00	0	44	0	426770432	58	5048
2026-01-29 12:12:57.69	290.36	11.86	-43.6	-46.3	17.1	0.00e+00	0	44	0	433061888	58	5013
2026-01-29 12:13:00.40	290.87	11.81	-43.8	-46.6	16.7	0.00e+00	0	44	0	438304768	58	5206
2026-01-29 12:13:03.69	291.48	11.75	-44.1	-47.0	16.3	0.00e+00	0	44	0	444596224	58	5457
2026-01-29 12:13:06.42	291.99	11.70	-44.1	-47.0	16.3	0.00e+00	0	44	0	448790528	59	5149
2026-01-29 12:13:09.70	292.59	11.63	-43.9	-46.8	16.6	0.00e+00	0	44	0	455081984	59	4988
2026-01-29 12:13:12.45	293.10	11.57	-43.8	-46.6	16.8	0.00e+00	0	44	0	460324864	59	4876
2026-01-29 12:13:15.73	293.70	11.50	-43.7	-46.5	16.8	0.00e+00	0	44	0	466616320	59	4855
2026-01-29 12:13:18.46	294.20	11.44	-43.7	-46.5	16.9	0.00e+00	0	44	0	471859200	59	4827
2026-01-29 12:13:21.74	294.80	11.37	-43.6	-46.3	17.0	0.00e+00	0	44	0	478150656	59	4728
2026-01-29 12:13:24.48	295.30	11.30	-43.7	-46.5	16.8	0.00e+00	0	44	0	483393536	59	4843
2026-01-29 12:13:27.76	295.89	11.23	-43.7	-46.5	16.8	0.00e+00	0	44	0	489684992	59	4848
2026-01-29 12:13:30.47	296.37	11.16	-43.8	-46.6	16.7	0.00e+00	0	44	0	493879296	59	4890
2026-01-29 12:13:33.75	296.96	11.07	-43.6	-46.4	16.9	0.00e+00	0	44	0	500170752	59	4778
2026-01-29 12:13:36.49	297.44	11.00	-43.6	-46.3	17.0	0.00e+00	0	44	0	505413632	59	4755
2026-01-29 12:13:39.79	298.03	10.91	-43.8	-46.6	16.7	0.00e+00	0	44	0	511705088	59	4893
2026-01-29 12:13:42.52	298.51	10.84	-43.9	-46.8	16.5	0.00e+00	0	44	0	516947968	59	5004
2026-01-29 12:13:45.82	299.08	10.75	-44.0	-46.9	16.3	0.00e+00	0	44	0	523239424	59	5082
2026-01-29 12:13:48.56	299.56	10.67	-44.1	-47.1	16.1	0.00e+00	0	44	0	528482304	59	5201
2026-01-29 12:13:51.84	300.12	10.57	-43.9	-46.8	16.4	0.00e+00	0	44	0	534773760	59	5034
2026-01-29 12:13:54.55	300.59	10.49	-43.8	-46.7	16.6	0.00e+00	0	44	0	538968064	59	4956
2026-01-29 12:13:57.83	301.15	10.39	-43.9	-46.8	16.4	0.00e+00	0	44	0	545259520	59	5020
2026-01-29 12:14:00.55	301.61	10.31	-44.1	-47.1	16.1	0.00e+00	0	44	0	550502400	59	5211
2026-01-29 12:14:03.83	302.16	10.20	-44.3	-47.3	15.9	0.00e+00	0	44	0	556793856	59	5335
2026-01-29 12:14:06.54	302.61	10.12	-44.3	-47.4	15.8	0.00e+00	0	44	0	562036736	59	5359
2026-01-29 12:14:09.84	303.16	10.01	-44.3	-47.5	15.8	0.00e+00	0	44	0	568328192	59	5416
2026-01-29 12:14:12.55	303.61	9.92	-44.4	-47.6	15.7	0.00e+00	0	44	0	573571072	59	5480
2026-01-29 12:14:15.83	304.15	9.81	-44.7	-48.1	15.2	0.00e+00	0	44	0	579862528	60	5476
2026-01-29 12:14:18.55	304.59	9.72	-44.9	-48.4	14.9	0.00e+00	0	44	0	584056832	60	5703
2026-01-29 12:14:21.82	305.12	9.60	-45.3	-49.0	14.3	7.00e-07	0	44	0	590348288	61	5768
2026-01-29 12:14:24.53	305.56	9.51	-45.5	-49.3	14.0	2.20e-06	0	44	0	595591168	61	5949
2026-01-29 12:14:27.84	306.08	9.39	-45.3	-49.2	14.1	1.50e-06	0	44	0	601882624	61	5869
2026-01-29 12:14:30.56	306.52	9.30	-45.0	-48.8	14.4	7.00e-07	0	44	0	607125504	61	5656
2026-01-29 12:14:33.84	307.03	9.18	-45.3	-49.2	14.0	2.20e-06	0	44	0	613416960	61	5900
2026-01-29 12:14:36.56	307.46	9.08	-45.6	-49.5	13.7	1.50e-06	0	44	0	618659840	61	6091
2026-01-29 12:14:39.85	307.97	8.96	-49.3	-64.6	3.8	1.49e+00	0	44	104	622854144	69	21893
2026-01-29 12:14:42.56	308.38	8.85	-49.4	-64.7	3.8	1.49e+00	0	44	104	622854144	69	22159
2026-01-29 12:14:45.84	308.88	8.73	-49.5	-64.8	3.8	1.49e+00	0	44	104	622854144	69	22279
2026-01-29 12:14:48.55	309.29	8.63	-49.5	-64.7	3.8	1.49e+00	0	44	104	622854144	69	22180
2026-01-29 12:14:51.84	309.79	8.50	-49.5	-64.7	3.8	1.49e+00	0	44	104	622854144	69	22255
2026-01-29 12:14:54.56	310.20	8.40	-49.5	-64.7	3.8	1.49e+00	0	44	104	622854144	69	22262
2026-01-29 12:14:57.84	310.68	8.27	-49.5	-64.7	3.8	1.49e+00	0	44	104	622854144	69	22223
2026-01-29 12:15:00.56	311.08	8.16	-49.5	-64.7	3.8	1.49e+00	0	44	104	622854144	69	22236
2026-01-29 12:15:03.84	311.56	8.03	-49.5	-64.7	3.8	1.49e+00	0	44	104	622854144	69	22216
2026-01-29 12:15:06.56	311.95	7.92	-49.5	-64.7	3.8	1.49e+00	0	44	104	622854144	69	22238
2026-01-29 12:15:09.84	312.42	7.79	-49.5	-64.7	3.8	1.49e+00	0	44	104	622854144	69	22135
2026-01-29 12:15:12.55	312.81	7.68	-49.5	-64.7	3.8	1.49e+00	0	44	104	622854144	69	22198
2026-01-29 12:15:15.85	313.28	7.55	-49.5	-64.7	3.8	1.49e+00	0	44	104	622854144	69	22179
2026-01-29 12:15:18.58	313.66	7.44	-49.5	-64.7	3.8	1.49e+00	0	44	104	622854144	69	22114
2026-01-29 12:15:21.87	314.11	7.30	-49.5	-64.7	3.8	1.49e+00	0	44	104	622854144	69	22109
2026-01-29 12:15:24.59	314.49	7.19	-49.5	-64.7	3.8	1.49e+00	0	44	104	622854144	69	22177
2026-01-29 12:15:27.87	314.94	7.05	-49.5	-64.7	3.8	1.49e+00	0	44	104	622854144	69	22187
2026-01-29 12:15:30.57	315.30	6.94	-49.5	-64.7	3.8	1.49e+00	0	44	104	622854144	69	22135
2026-01-29 12:15:33.85	315.74	6.80	-49.5	-64.7	3.8	1.49e+00	0	44	104	622854144	69	22242
2026-01-29 12:15:36.57	316.11	6.69	-49.5	-64.7	3.8	1.49e+00	0	44	104	622854144	69	22144
2026-01-29 12:15:39.85	316.54	6.55	-49.5	-64.7	3.8	1.49e+00	0	44	104	622854144	69	22245
2026-01-29 12:15:42.57	316.90	6.44	-49.5	-64.7	3.8	1.49e+00	0	44	104	622854144	69	22249
2026-01-29 12:15:45.85	317.32	6.30	-49.5	-64.7	3.8	1.49e+00	0	44	104	622854144	69	22221
2026-01-29 12:15:48.60	317.68	6.18	-49.5	-64.7	3.8	1.49e+00	0	44	104	622854144	69	22177
2026-01-29 12:15:51.89	318.10	6.04	-49.5	-64.7	3.8	1.49e+00	0	44	104	622854144	69	22114
2026-01-29 12:15:54.60	318.44	5.92	-49.5	-64.7	3.8	1.49e+00	0	44	104	622854144	69	22246
2026-01-29 12:15:57.89	318.85	5.78	-49.5	-64.7	3.8	1.49e+00	0	44	104	622854144	69	22142
2026-01-29 12:16:00.59	319.19	5.66	-49.5	-64.7	3.8	1.49e+00	0	44	104	622854144	69	22115
2026-01-29 12:16:03.87	319.59	5.52	-49.5	-64.7	3.8	1.49e+00	0	44	104	622854144	69	22167
2026-01-29 12:16:06.59	319.93	5.40	-49.5	-64.8	3.8	1.49e+00	0	44	104	622854144	69	22307
2026-01-29 12:16:09.87	320.32	5.26	-49.5	-64.7	3.8	1.49e+00	0	44	104	622854144	69	22198
2026-01-29 12:16:12.59	320.65	5.14	-49.5	-64.7	3.8	1.49e+00	0	44	104	622854144	69	22088
2026-01-29 12:16:15.87	321.04	5.00	-49.5	-64.7	3.8	1.49e+00	0	44	104	622854144	69	22206

#Closed at: 2026-01-29 12:16:16
#Recorded file [622 MB]: D:/Data/31040_260129_150742.dat