passes_logs/2026/01/29/T1/T1__20260129_030940_AQUA_rec.log

#Pass ID: 20260129_030940_AQUA
#Satellite: AQUA
#Configuration: AQUA
#almurnet v.1.7.20251203
#Start time: 2026-01-29 03:09:41

#Version: 2.0.20230620
#Station: T1
#Location: 37.570604 lon 55.790049 lat
#TLE: 1 27424U 02022A   26027.88561574  .00001798  00000+0  36942-3 0  9997
#TLE: 2 27424  98.4102 354.5311 0001840  63.5604 322.5877 14.61868111262779

#Time	Az	El	Level	Level2	SNR	BER	BlckErr	Temp	State	Recorded	gain1	gain2
2026-01-29 03:09:41.89	0.80	5.11	-51.5	-71.8	3.8	7.45e-01	0	41	0	0	73	39594
2026-01-29 03:09:43.88	0.59	5.23	-51.6	-71.8	3.8	7.45e-01	0	41	104	0	74	37391
2026-01-29 03:09:45.86	0.38	5.34	-51.3	-71.8	3.8	7.44e-01	0	41	104	0	74	37452
2026-01-29 03:09:47.85	0.16	5.46	-51.4	-71.7	3.8	7.47e-01	0	41	104	0	74	37317
2026-01-29 03:09:49.84	359.95	5.58	-51.3	-71.7	3.8	7.47e-01	0	42	104	0	73	39526
2026-01-29 03:09:51.82	359.73	5.70	-50.2	-71.7	3.8	7.49e-01	0	42	104	0	72	41503
2026-01-29 03:09:53.81	359.51	5.81	-51.3	-71.8	3.8	7.43e-01	0	42	104	0	73	39776
2026-01-29 03:09:55.80	359.28	5.93	-51.2	-71.7	3.8	7.50e-01	0	42	104	0	73	39194
2026-01-29 03:09:57.78	359.06	6.05	-49.9	-71.7	3.8	7.48e-01	0	42	104	0	71	44164
2026-01-29 03:09:59.77	358.83	6.17	-49.3	-71.2	3.7	7.46e-01	0	42	104	0	70	44010
2026-01-29 03:10:01.76	358.60	6.29	-49.5	-71.5	3.7	7.47e-01	0	42	104	0	71	43181
2026-01-29 03:10:03.74	358.37	6.41	-49.3	-71.0	3.9	7.46e-01	0	42	104	0	70	42937
2026-01-29 03:10:05.73	358.13	6.53	-44.4	-69.6	3.4	7.62e-01	0	42	104	0	60	65535
2026-01-29 03:10:07.71	357.90	6.64	-44.2	-69.6	3.4	7.60e-01	0	42	104	0	60	65534
2026-01-29 03:10:09.70	357.66	6.76	-44.3	-69.6	3.5	7.59e-01	0	42	104	0	60	65535
2026-01-29 03:10:11.69	357.42	6.88	-44.2	-69.6	3.4	7.59e-01	0	42	104	0	60	65535
2026-01-29 03:10:13.67	357.18	7.00	-44.3	-69.6	3.4	7.59e-01	0	42	104	0	60	65535
2026-01-29 03:10:15.66	356.93	7.12	-44.3	-69.6	3.4	7.63e-01	0	42	104	0	60	65535
2026-01-29 03:10:17.65	356.68	7.24	-44.3	-69.6	3.4	7.63e-01	0	42	104	0	60	65535
2026-01-29 03:10:19.64	356.43	7.36	-44.3	-69.6	3.4	7.62e-01	0	42	104	0	60	65535
2026-01-29 03:10:21.62	356.18	7.49	-44.3	-69.6	3.5	7.58e-01	0	43	104	0	60	65535
2026-01-29 03:10:23.61	355.93	7.61	-44.2	-69.6	3.5	7.60e-01	0	43	104	0	60	65535
2026-01-29 03:10:25.60	355.67	7.73	-44.3	-69.6	3.5	7.60e-01	0	43	104	0	60	65535
2026-01-29 03:10:27.58	355.41	7.85	-44.3	-69.6	3.5	7.60e-01	0	43	104	0	60	65535
2026-01-29 03:10:29.57	355.15	7.97	-44.3	-69.6	3.4	7.60e-01	0	43	104	0	60	65535
2026-01-29 03:10:31.56	354.89	8.09	-44.3	-69.6	3.5	7.60e-01	0	43	104	0	60	65535
2026-01-29 03:10:33.54	354.62	8.21	-44.2	-69.6	3.6	7.55e-01	0	43	104	0	60	65535
2026-01-29 03:10:35.53	354.35	8.33	-44.3	-69.6	3.7	7.50e-01	0	43	104	0	60	65533
2026-01-29 03:10:37.52	354.08	8.45	-44.2	-69.3	3.8	7.45e-01	0	43	104	0	60	63129
2026-01-29 03:10:39.50	353.81	8.57	-44.2	-68.6	3.8	7.48e-01	0	43	104	0	60	58212
2026-01-29 03:10:41.49	353.53	8.70	-44.2	-67.9	3.8	7.46e-01	0	43	104	0	60	53773
2026-01-29 03:10:43.48	353.25	8.82	-44.0	-66.1	3.8	7.45e-01	0	43	104	0	60	43908
2026-01-29 03:10:45.47	352.97	8.94	-44.1	-63.5	3.8	7.45e-01	0	43	104	0	59	34157
2026-01-29 03:10:47.45	352.69	9.06	-43.5	-60.3	3.8	7.43e-01	0	43	104	0	59	23781
2026-01-29 03:10:49.44	352.40	9.18	-44.7	-62.1	3.9	7.43e-01	0	43	104	0	61	25963
2026-01-29 03:10:51.43	352.11	9.31	-44.7	-62.0	4.0	7.44e-01	0	43	104	0	61	25822
2026-01-29 03:10:53.42	351.82	9.43	-41.7	-56.2	3.8	7.43e-01	0	43	104	0	55	18638
2026-01-29 03:10:55.41	351.52	9.55	-42.3	-56.1	3.8	7.46e-01	0	43	104	0	55	18342
2026-01-29 03:10:57.40	351.22	9.67	-43.2	-56.4	3.8	7.45e-01	0	43	104	0	56	18026
2026-01-29 03:10:59.39	350.92	9.79	-44.0	-65.1	3.8	7.46e-01	0	43	104	0	59	41403
2026-01-29 03:11:01.38	350.62	9.91	-43.6	-57.1	3.8	7.43e-01	0	43	104	0	58	17465
2026-01-29 03:11:03.32	350.32	10.03	-43.2	-57.2	3.8	7.47e-01	0	43	104	0	58	17610
2026-01-29 03:11:05.40	350.00	10.16	-42.5	-57.1	3.8	7.44e-01	0	43	104	0	57	18323
2026-01-29 03:11:07.39	349.68	10.28	-42.7	-58.4	3.8	7.48e-01	0	43	104	0	56	22669
2026-01-29 03:11:09.47	349.35	10.41	-43.5	-59.5	3.9	7.43e-01	0	43	104	0	59	21522
2026-01-29 03:11:11.46	349.04	10.53	-41.7	-55.9	3.8	7.46e-01	0	43	104	0	55	17978
2026-01-29 03:11:13.69	348.68	10.66	-42.1	-55.6	3.8	7.45e-01	0	43	104	0	55	17438
2026-01-29 03:11:15.88	348.32	10.80	-43.0	-57.3	3.8	7.47e-01	0	43	104	0	56	19937
2026-01-29 03:11:18.08	347.96	10.93	-46.2	-70.6	3.8	7.49e-01	0	43	104	0	62	65531
2026-01-29 03:11:20.26	347.59	11.06	-44.3	-60.7	3.8	7.44e-01	0	43	104	0	60	23578
2026-01-29 03:11:22.25	347.26	11.18	-44.5	-61.2	3.8	7.44e-01	0	44	104	0	59	26274
2026-01-29 03:11:24.24	346.92	11.30	-45.0	-63.3	3.8	7.45e-01	0	43	104	0	61	29759
2026-01-29 03:11:26.24	346.58	11.42	-48.2	-63.1	4.4	7.24e-01	0	43	104	1048576	67	20645
2026-01-29 03:11:28.25	346.23	11.54	-42.3	-46.1	23.6	6.03e-01	0	44	0	3670016	56	5489
2026-01-29 03:11:30.24	345.89	11.66	-42.8	-46.3	23.7	6.05e-01	0	43	0	7340032	56	5653
2026-01-29 03:11:32.25	345.53	11.78	-43.0	-46.2	23.7	6.02e-01	0	43	0	11010048	56	5530
2026-01-29 03:11:34.24	345.18	11.90	-42.8	-45.9	24.0	6.03e-01	0	43	0	14680064	56	5375
2026-01-29 03:11:36.18	344.83	12.02	-42.8	-45.8	24.1	6.04e-01	0	43	0	18350080	56	5330
2026-01-29 03:11:38.17	344.48	12.13	-42.8	-45.8	24.1	6.03e-01	0	43	0	22544384	56	5318
2026-01-29 03:11:40.16	344.11	12.25	-42.8	-45.8	24.1	6.01e-01	0	44	0	26214400	56	5331
2026-01-29 03:11:42.15	343.75	12.37	-43.0	-46.0	24.0	6.01e-01	0	43	0	29884416	56	5427
2026-01-29 03:11:44.10	343.39	12.48	-43.0	-45.9	24.0	6.04e-01	0	43	0	33554432	56	5390
2026-01-29 03:11:46.20	343.00	12.60	-43.0	-46.0	23.9	6.04e-01	0	43	0	37224448	57	5158
2026-01-29 03:11:48.19	342.62	12.72	-42.6	-45.6	24.3	6.05e-01	0	43	0	40894464	57	4919
2026-01-29 03:11:50.19	342.24	12.83	-42.7	-45.8	24.1	6.02e-01	0	43	0	44564480	57	4996
2026-01-29 03:11:52.18	341.86	12.95	-42.8	-45.8	24.2	6.03e-01	0	43	0	48758784	57	5013
2026-01-29 03:11:54.17	341.47	13.06	-42.5	-45.7	24.3	6.03e-01	0	43	0	52428800	57	4943
2026-01-29 03:11:56.16	341.09	13.17	-42.3	-45.7	24.3	6.02e-01	0	43	0	56098816	56	5231
2026-01-29 03:11:58.18	340.69	13.29	-42.7	-45.8	24.2	6.05e-01	0	44	0	59768832	56	5287
2026-01-29 03:12:00.25	340.28	13.40	-42.8	-45.5	24.4	6.02e-01	0	43	0	63963136	56	5153
2026-01-29 03:12:02.24	339.88	13.51	-43.0	-45.7	24.3	6.03e-01	0	43	0	67633152	56	5219
2026-01-29 03:12:04.23	339.48	13.62	-42.7	-45.6	24.3	6.03e-01	0	43	0	71303168	56	5195
2026-01-29 03:12:06.23	339.08	13.73	-42.5	-45.7	24.3	5.99e-01	0	43	0	74973184	56	5243
2026-01-29 03:12:08.22	338.67	13.84	-42.6	-45.6	24.3	6.02e-01	0	43	0	78643200	56	5201
2026-01-29 03:12:10.29	338.24	13.95	-42.9	-45.7	24.2	5.99e-01	0	44	0	82313216	56	5278
2026-01-29 03:12:12.30	337.82	14.06	-42.9	-45.7	24.2	6.02e-01	0	43	0	86507520	56	5266
2026-01-29 03:12:14.29	337.41	14.17	-42.9	-45.6	24.3	6.00e-01	0	44	0	90177536	56	5204
2026-01-29 03:12:16.28	336.98	14.27	-43.0	-45.6	24.4	6.03e-01	0	44	0	93847552	56	5168
2026-01-29 03:12:18.27	336.56	14.38	-43.0	-45.5	24.5	6.04e-01	0	44	0	97517568	56	5129
2026-01-29 03:12:20.32	336.12	14.48	-43.0	-45.6	24.4	6.06e-01	0	44	0	101187584	56	5166
2026-01-29 03:12:22.30	335.69	14.58	-43.0	-45.6	24.3	6.04e-01	0	44	0	104857600	56	5194
2026-01-29 03:12:24.29	335.26	14.68	-42.9	-45.6	24.3	6.01e-01	0	44	0	109051904	56	5166
2026-01-29 03:12:26.28	334.82	14.78	-43.0	-45.6	24.4	6.05e-01	0	44	0	112721920	56	5166
2026-01-29 03:12:28.27	334.38	14.88	-43.1	-45.7	24.3	6.05e-01	0	44	0	116391936	56	5245
2026-01-29 03:12:30.26	333.94	14.98	-43.0	-45.6	24.4	6.03e-01	0	44	0	120061952	56	5167
2026-01-29 03:12:32.25	333.49	15.07	-43.0	-45.6	24.3	6.04e-01	0	43	0	123731968	56	5215
2026-01-29 03:12:34.24	333.05	15.17	-42.9	-45.5	24.4	6.02e-01	0	43	0	127401984	56	5138
2026-01-29 03:12:36.23	332.59	15.26	-42.9	-45.5	24.4	6.01e-01	0	43	0	131072000	56	5148
2026-01-29 03:12:38.22	332.14	15.35	-43.2	-45.8	24.2	6.03e-01	0	43	0	134742016	56	5310
2026-01-29 03:12:40.24	331.67	15.45	-42.9	-45.5	24.4	6.05e-01	0	44	0	138936320	57	4839
2026-01-29 03:12:42.23	331.21	15.54	-42.9	-45.5	24.4	6.02e-01	0	44	0	142606336	57	4864
2026-01-29 03:12:44.24	330.74	15.62	-43.0	-45.6	24.4	6.03e-01	0	44	0	146276352	57	4898
2026-01-29 03:12:46.24	330.27	15.71	-43.0	-45.6	24.3	6.03e-01	0	44	0	149946368	57	4917
2026-01-29 03:12:48.23	329.80	15.80	-43.2	-45.7	24.2	6.05e-01	0	43	0	153616384	57	4940
2026-01-29 03:12:50.22	329.33	15.88	-43.0	-45.4	24.6	6.06e-01	0	44	0	157286400	57	4780
2026-01-29 03:12:52.21	328.85	15.96	-43.1	-45.6	24.3	6.02e-01	0	44	0	160956416	57	4915
2026-01-29 03:12:54.45	328.32	16.05	-42.8	-45.5	24.4	6.05e-01	0	43	0	165150720	57	4853
2026-01-29 03:12:56.44	327.83	16.13	-42.6	-45.5	24.4	6.04e-01	0	44	0	168820736	57	4865
2026-01-29 03:12:58.43	327.35	16.21	-42.6	-45.8	24.2	6.05e-01	0	44	0	173015040	57	4984
2026-01-29 03:13:00.44	326.86	16.28	-42.7	-45.8	24.2	6.07e-01	0	43	0	176685056	57	5004
2026-01-29 03:13:02.43	326.37	16.35	-42.7	-45.8	24.3	6.02e-01	0	43	0	180355072	57	5007
2026-01-29 03:13:04.42	325.87	16.43	-42.6	-45.7	24.3	6.02e-01	0	44	0	184025088	57	4974
2026-01-29 03:13:06.42	325.38	16.50	-42.8	-45.8	24.2	6.01e-01	0	43	0	187695104	57	5028
2026-01-29 03:13:08.41	324.88	16.56	-43.0	-45.7	24.3	6.02e-01	0	44	0	191365120	57	4968
2026-01-29 03:13:10.47	324.36	16.63	-43.3	-45.8	24.3	6.01e-01	0	44	0	195559424	57	5006
2026-01-29 03:13:12.47	323.86	16.69	-43.3	-45.8	24.3	6.04e-01	0	43	0	199229440	57	4985
2026-01-29 03:13:14.47	323.35	16.76	-43.1	-45.6	24.4	6.03e-01	0	43	0	202899456	57	4912
2026-01-29 03:13:16.46	322.84	16.82	-43.1	-45.8	24.3	6.03e-01	0	43	0	206569472	57	5006
2026-01-29 03:13:18.46	322.33	16.87	-42.9	-45.7	24.3	6.01e-01	0	43	0	210239488	57	4982
2026-01-29 03:13:20.46	321.82	16.93	-43.0	-45.8	24.3	6.03e-01	0	44	0	213909504	57	5040
2026-01-29 03:13:22.44	321.31	16.98	-43.1	-45.9	24.2	6.02e-01	0	44	0	218103808	57	5057
2026-01-29 03:13:24.45	320.79	17.04	-43.0	-45.6	24.5	6.04e-01	0	44	0	221773824	57	4905
2026-01-29 03:13:26.69	320.21	17.09	-43.0	-45.6	24.3	6.04e-01	0	44	0	225968128	57	4905
2026-01-29 03:13:28.68	319.69	17.14	-43.3	-45.9	24.1	6.05e-01	0	44	0	229638144	57	5100
2026-01-29 03:13:30.67	319.17	17.18	-43.1	-45.7	24.4	6.04e-01	0	44	0	233308160	57	4934
2026-01-29 03:13:32.66	318.65	17.22	-43.3	-45.9	24.3	6.02e-01	0	43	0	236978176	57	5057
2026-01-29 03:13:34.65	318.12	17.26	-43.2	-46.0	24.0	6.03e-01	0	44	0	240648192	57	5111
2026-01-29 03:13:36.64	317.60	17.30	-43.1	-46.0	24.1	6.03e-01	0	44	0	244318208	57	5107
2026-01-29 03:13:38.63	317.07	17.34	-43.1	-46.0	24.1	6.03e-01	0	44	0	247988224	57	5125
2026-01-29 03:13:40.62	316.54	17.37	-43.2	-45.9	24.1	6.06e-01	0	44	0	252182528	57	5088
2026-01-29 03:13:42.61	316.02	17.40	-43.4	-46.0	24.1	6.03e-01	0	44	0	255852544	57	5119
2026-01-29 03:13:44.61	315.48	17.43	-43.4	-46.0	24.0	6.01e-01	0	44	0	259522560	57	5145
2026-01-29 03:13:46.58	314.96	17.46	-43.4	-46.0	24.1	6.02e-01	0	43	0	263192576	57	5126
2026-01-29 03:13:48.57	314.43	17.48	-43.5	-46.1	24.0	6.03e-01	0	44	0	266862592	57	5168
2026-01-29 03:13:50.56	313.89	17.50	-43.4	-46.0	24.0	6.02e-01	0	44	0	270532608	57	5149
2026-01-29 03:13:52.55	313.36	17.52	-43.4	-46.1	24.0	6.02e-01	0	43	0	274202624	57	5173
2026-01-29 03:13:54.54	312.82	17.54	-43.5	-46.1	23.9	6.03e-01	0	44	0	277872640	57	5218
2026-01-29 03:13:56.53	312.29	17.55	-43.6	-46.2	23.9	6.04e-01	0	43	0	281542656	58	4934
2026-01-29 03:13:58.52	311.75	17.56	-43.5	-46.1	23.9	6.02e-01	0	44	0	285736960	58	4916
2026-01-29 03:14:00.51	311.22	17.57	-43.4	-46.0	24.0	6.04e-01	0	44	0	289406976	58	4852
2026-01-29 03:14:02.50	310.68	17.58	-43.2	-45.8	24.2	6.05e-01	0	43	0	293076992	58	4747
2026-01-29 03:14:04.49	310.14	17.59	-43.2	-45.8	24.2	6.02e-01	0	43	0	296747008	58	4742
2026-01-29 03:14:06.48	309.61	17.59	-43.3	-46.0	24.1	6.01e-01	0	44	0	300417024	58	4819
2026-01-29 03:14:08.47	309.07	17.59	-43.6	-46.3	23.9	6.03e-01	0	43	0	304087040	58	5011
2026-01-29 03:14:10.46	308.53	17.58	-44.0	-46.6	23.5	6.02e-01	0	44	0	307757056	58	5210
2026-01-29 03:14:12.48	307.99	17.58	-44.0	-46.6	23.4	6.04e-01	0	44	0	311427072	58	5196
2026-01-29 03:14:14.40	307.47	17.57	-43.7	-46.3	23.7	6.02e-01	0	44	0	315097088	58	4992
2026-01-29 03:14:16.39	306.94	17.56	-43.8	-46.3	23.7	6.05e-01	0	44	0	318767104	58	5031
2026-01-29 03:14:18.38	306.40	17.55	-43.6	-46.1	23.8	6.02e-01	0	44	0	322961408	59	4609
2026-01-29 03:14:20.37	305.86	17.53	-43.1	-45.5	24.5	6.03e-01	0	44	0	326631424	58	4577
2026-01-29 03:14:22.36	305.33	17.52	-43.5	-46.0	24.0	6.03e-01	0	44	0	330301440	58	4859
2026-01-29 03:14:24.35	304.80	17.50	-43.8	-46.4	23.7	6.04e-01	0	44	0	333971456	58	5078
2026-01-29 03:14:26.34	304.26	17.47	-43.9	-46.5	23.6	6.06e-01	0	44	0	337641472	58	5150
2026-01-29 03:14:28.33	303.73	17.45	-43.7	-46.2	23.8	6.02e-01	0	44	0	341311488	58	4980
2026-01-29 03:14:30.32	303.20	17.42	-43.8	-46.4	23.7	6.05e-01	0	44	0	344981504	58	5055
2026-01-29 03:14:32.31	302.67	17.39	-43.9	-46.5	23.5	6.03e-01	0	44	0	348651520	58	5158
2026-01-29 03:14:34.30	302.14	17.36	-43.8	-46.4	23.7	6.04e-01	0	44	0	352845824	58	5064
2026-01-29 03:14:36.29	301.61	17.33	-44.3	-47.1	23.1	6.02e-01	0	44	0	356515840	59	5167
2026-01-29 03:14:38.28	301.09	17.29	-44.5	-47.3	22.8	6.01e-01	0	44	0	360185856	59	5283
2026-01-29 03:14:40.33	300.54	17.25	-43.8	-46.3	23.7	6.04e-01	0	44	0	363855872	59	4745
2026-01-29 03:14:42.34	300.02	17.21	-43.9	-46.6	23.5	6.01e-01	0	44	0	367525888	59	4872
2026-01-29 03:14:44.33	299.49	17.17	-44.6	-47.5	22.7	6.02e-01	0	44	0	371195904	59	5417
2026-01-29 03:14:46.32	298.97	17.12	-44.4	-47.2	22.8	6.00e-01	0	44	0	374865920	59	5271
2026-01-29 03:14:48.46	298.41	17.07	-44.2	-47.0	23.0	6.04e-01	0	44	0	379060224	60	4850
2026-01-29 03:14:50.45	297.90	17.02	-43.8	-46.5	23.5	6.00e-01	0	44	0	382730240	59	4849
2026-01-29 03:14:52.79	297.29	16.96	-43.4	-46.0	23.8	6.03e-01	0	44	0	387448832	58	4842
2026-01-29 03:14:54.98	296.73	16.90	-44.1	-46.8	23.3	6.04e-01	0	44	0	391118848	59	4992
2026-01-29 03:14:56.99	296.21	16.84	-44.5	-47.4	22.6	6.01e-01	0	44	0	395313152	60	5046
2026-01-29 03:14:58.98	295.70	16.78	-44.9	-47.9	22.2	6.03e-01	0	44	0	398983168	60	5356
2026-01-29 03:15:00.97	295.20	16.72	-45.5	-48.8	21.5	6.02e-01	0	44	0	402653184	61	5600
2026-01-29 03:15:02.96	294.69	16.66	-44.4	-47.1	23.0	6.02e-01	0	44	0	406323200	59	5178
2026-01-29 03:15:04.95	294.19	16.59	-43.8	-46.3	23.7	6.02e-01	0	43	0	409993216	59	4744
2026-01-29 03:15:07.02	293.67	16.52	-43.9	-46.5	23.4	6.03e-01	0	44	0	413663232	59	4843
2026-01-29 03:15:09.01	293.17	16.45	-44.2	-46.9	23.0	6.04e-01	0	44	0	417857536	59	5083
2026-01-29 03:15:11.11	292.65	16.38	-44.4	-47.1	22.9	6.03e-01	0	44	0	421527552	59	5200
2026-01-29 03:15:13.10	292.16	16.31	-43.9	-46.5	23.6	6.01e-01	0	44	0	425197568	59	4847
2026-01-29 03:15:15.09	291.67	16.23	-43.7	-46.3	23.7	6.01e-01	0	44	0	428867584	59	4716
2026-01-29 03:15:17.03	291.20	16.16	-44.2	-47.0	23.0	6.04e-01	0	44	0	432537600	59	5132
2026-01-29 03:15:19.03	290.71	16.08	-44.2	-46.9	23.2	6.04e-01	0	44	0	436207616	59	5081
2026-01-29 03:15:21.02	290.23	16.00	-44.3	-47.1	23.0	6.05e-01	0	44	0	440401920	59	5179
2026-01-29 03:15:23.00	289.75	15.92	-44.2	-47.0	23.1	6.04e-01	0	44	0	444071936	59	5129
2026-01-29 03:15:24.99	289.27	15.84	-43.6	-46.3	23.6	6.03e-01	0	44	0	447741952	59	4745
2026-01-29 03:15:26.98	288.80	15.75	-43.8	-46.5	23.6	6.00e-01	0	44	0	451411968	59	4853
2026-01-29 03:15:28.97	288.33	15.67	-43.8	-46.4	23.6	6.04e-01	0	44	0	455081984	59	4789
2026-01-29 03:15:30.96	287.86	15.58	-43.5	-46.0	24.0	6.01e-01	0	44	0	458752000	58	4850
2026-01-29 03:15:32.95	287.40	15.49	-43.6	-46.1	23.8	6.01e-01	0	44	0	462422016	58	4895
2026-01-29 03:15:34.94	286.94	15.40	-43.6	-46.2	23.7	6.03e-01	0	44	0	466092032	58	4963
2026-01-29 03:15:36.93	286.48	15.31	-43.5	-46.0	24.0	6.03e-01	0	44	0	469762048	58	4815
2026-01-29 03:15:38.93	286.02	15.21	-44.1	-46.8	23.2	6.03e-01	0	44	0	473956352	59	4998
2026-01-29 03:15:40.97	285.56	15.12	-43.8	-46.4	23.5	6.00e-01	0	44	0	477626368	58	5085
2026-01-29 03:15:42.96	285.11	15.02	-43.7	-46.3	23.6	6.00e-01	0	44	0	481296384	58	5000
2026-01-29 03:15:44.94	284.66	14.93	-44.1	-46.8	23.1	6.07e-01	0	44	0	484966400	58	5304
2026-01-29 03:15:46.93	284.22	14.83	-44.2	-47.0	23.0	6.02e-01	0	44	0	488636416	59	5105
2026-01-29 03:15:48.93	283.78	14.73	-44.2	-46.8	23.1	6.03e-01	0	44	0	492306432	59	5003
2026-01-29 03:15:50.91	283.34	14.63	-44.5	-47.2	22.7	6.01e-01	0	44	0	495976448	59	5262
2026-01-29 03:15:52.97	282.89	14.52	-43.7	-46.3	23.6	6.00e-01	0	44	0	500170752	58	5003
2026-01-29 03:15:54.96	282.46	14.42	-43.5	-46.0	23.8	6.05e-01	0	44	0	503840768	58	4846
2026-01-29 03:15:56.95	282.04	14.32	-44.3	-47.2	22.7	6.04e-01	0	44	0	507510784	59	5223
2026-01-29 03:15:58.94	281.61	14.21	-44.0	-46.6	23.4	6.04e-01	0	44	0	511180800	59	4887
2026-01-29 03:16:00.93	281.19	14.11	-44.4	-47.1	22.7	6.03e-01	0	44	0	514850816	60	4925
2026-01-29 03:16:02.95	280.77	14.00	-43.3	-45.8	24.1	6.03e-01	0	44	0	519045120	58	4725
2026-01-29 03:16:04.97	280.35	13.89	-44.1	-46.7	23.1	6.02e-01	0	44	0	522715136	59	4980
2026-01-29 03:16:06.96	279.94	13.78	-43.8	-46.4	23.5	6.00e-01	0	44	0	526385152	59	4787
2026-01-29 03:16:08.95	279.53	13.67	-44.1	-46.8	23.1	6.05e-01	0	44	0	530055168	59	5015
2026-01-29 03:16:10.94	279.12	13.56	-43.7	-46.3	23.5	6.03e-01	0	44	0	533725184	59	4756
2026-01-29 03:16:12.93	278.72	13.45	-43.8	-46.5	23.4	6.04e-01	0	43	0	537395200	59	4837
2026-01-29 03:16:14.93	278.32	13.34	-43.7	-46.3	23.6	6.01e-01	0	44	0	541065216	59	4713
2026-01-29 03:16:16.91	277.93	13.23	-43.6	-46.3	23.6	6.03e-01	0	44	0	544735232	59	4721
2026-01-29 03:16:18.94	277.53	13.11	-43.5	-46.1	23.7	6.03e-01	0	44	0	548929536	59	4640
2026-01-29 03:16:20.96	277.14	13.00	-43.6	-46.4	23.4	6.02e-01	0	44	0	552599552	58	5066
2026-01-29 03:16:22.95	276.75	12.88	-43.6	-46.2	23.6	6.02e-01	0	44	0	556269568	58	4929
2026-01-29 03:16:24.94	276.37	12.77	-43.7	-46.3	23.5	6.03e-01	0	44	0	559939584	58	5006
2026-01-29 03:16:26.92	275.99	12.66	-43.9	-46.6	23.3	6.03e-01	0	44	0	563609600	58	5180
2026-01-29 03:16:28.91	275.62	12.54	-43.7	-46.3	23.5	6.03e-01	0	44	0	567279616	58	5032
2026-01-29 03:16:30.97	275.23	12.42	-43.7	-46.4	23.4	6.00e-01	0	44	0	571473920	58	5052
2026-01-29 03:16:33.00	274.86	12.30	-43.7	-46.4	23.5	6.05e-01	0	44	0	575143936	58	5044
2026-01-29 03:16:34.99	274.49	12.18	-43.9	-46.6	23.2	6.02e-01	0	44	0	578813952	58	5197
2026-01-29 03:16:36.98	274.13	12.06	-43.9	-46.6	23.2	6.05e-01	0	44	0	582483968	58	5198
2026-01-29 03:16:38.97	273.77	11.95	-43.9	-46.6	23.2	6.04e-01	0	44	0	586153984	58	5194
2026-01-29 03:16:40.96	273.41	11.83	-43.8	-46.4	23.4	6.03e-01	0	44	0	589824000	58	5099
2026-01-29 03:16:42.95	273.06	11.71	-44.0	-46.7	23.1	6.03e-01	0	44	0	594018304	58	5274
2026-01-29 03:16:45.02	272.69	11.58	-43.8	-46.6	23.2	6.02e-01	0	44	0	597688320	58	5161
2026-01-29 03:16:47.01	272.35	11.47	-43.9	-46.6	23.1	6.01e-01	0	44	0	601358336	58	5198
2026-01-29 03:16:49.11	271.98	11.34	-43.8	-46.5	23.2	6.04e-01	0	44	0	605552640	58	5139
2026-01-29 03:16:51.16	271.63	11.21	-43.8	-46.5	23.2	6.03e-01	0	44	0	609222656	58	5151
2026-01-29 03:16:53.21	271.29	11.09	-43.7	-46.5	23.2	6.02e-01	0	44	0	612892672	58	5151
2026-01-29 03:16:55.20	270.95	10.97	-43.9	-46.7	23.1	6.01e-01	0	44	0	616562688	58	5224
2026-01-29 03:16:57.19	270.62	10.85	-43.9	-46.6	23.2	6.04e-01	0	44	0	620232704	58	5195
2026-01-29 03:16:59.18	270.29	10.73	-43.9	-46.6	23.2	6.02e-01	0	44	0	624427008	58	5195
2026-01-29 03:17:01.17	269.97	10.61	-44.1	-46.9	22.9	6.02e-01	0	44	0	628097024	58	5354
2026-01-29 03:17:03.27	269.63	10.48	-44.0	-46.7	23.1	6.03e-01	0	44	0	631767040	58	5243
2026-01-29 03:17:05.26	269.31	10.36	-43.9	-46.6	23.2	6.04e-01	0	44	0	635437056	58	5164
2026-01-29 03:17:07.25	268.99	10.23	-44.1	-46.9	22.9	6.05e-01	0	44	0	639631360	58	5372
2026-01-29 03:17:09.38	268.65	10.10	-44.2	-47.1	22.7	6.06e-01	0	44	0	643301376	59	5171
2026-01-29 03:17:11.39	268.34	9.98	-44.0	-46.9	22.9	6.05e-01	0	44	0	646971392	59	5046
2026-01-29 03:17:13.38	268.03	9.86	-43.9	-46.7	23.0	6.02e-01	0	44	0	650641408	59	4979
2026-01-29 03:17:15.50	267.71	9.73	-43.9	-46.8	22.9	5.99e-01	0	44	0	654835712	59	5012
2026-01-29 03:17:17.49	267.40	9.61	-44.2	-47.1	22.6	6.04e-01	0	44	0	658505728	59	5205
2026-01-29 03:17:19.48	267.11	9.48	-44.3	-47.1	22.6	6.04e-01	0	44	0	662175744	59	5187
2026-01-29 03:17:21.47	266.81	9.36	-44.3	-47.1	22.6	6.03e-01	0	44	0	665845760	59	5186
2026-01-29 03:17:23.46	266.51	9.24	-44.4	-47.2	22.5	6.03e-01	0	44	0	669515776	59	5275
2026-01-29 03:17:25.51	266.21	9.11	-44.4	-47.3	22.4	6.04e-01	0	44	0	673710080	59	5302
2026-01-29 03:17:27.56	265.92	8.99	-46.5	-50.3	19.9	6.03e-01	0	44	0	677380096	63	5967
2026-01-29 03:17:29.55	265.63	8.87	-49.4	-70.1	3.8	7.46e-01	0	44	104	678428672	71	36727
2026-01-29 03:17:31.54	265.35	8.74	-50.2	-70.8	3.8	7.47e-01	0	44	104	678428672	71	39872
2026-01-29 03:17:33.52	265.07	8.62	-50.7	-70.8	3.8	7.43e-01	0	43	104	678428672	72	37511
2026-01-29 03:17:35.51	264.79	8.50	-49.9	-70.4	3.8	7.47e-01	0	44	104	678428672	71	38221
2026-01-29 03:17:37.50	264.52	8.38	-49.7	-70.8	3.8	7.44e-01	0	44	104	678428672	71	39704
2026-01-29 03:17:39.48	264.24	8.26	-49.7	-70.8	3.8	7.46e-01	0	44	104	678428672	71	39862
2026-01-29 03:17:41.47	263.97	8.13	-49.6	-70.8	3.8	7.44e-01	0	44	104	678428672	71	39745
2026-01-29 03:17:43.46	263.71	8.01	-49.6	-70.6	3.8	7.48e-01	0	44	104	678428672	71	38751
2026-01-29 03:17:45.44	263.44	7.89	-49.6	-70.3	3.8	7.47e-01	0	44	104	678428672	71	37732
2026-01-29 03:17:47.43	263.18	7.77	-49.6	-70.3	3.8	7.44e-01	0	44	104	678428672	71	37747
2026-01-29 03:17:49.42	262.92	7.65	-49.6	-70.1	3.8	7.44e-01	0	44	104	678428672	71	36533
2026-01-29 03:17:51.41	262.66	7.53	-49.6	-70.2	3.8	7.48e-01	0	44	104	678428672	71	37348
2026-01-29 03:17:53.39	262.41	7.41	-49.6	-70.5	3.8	7.50e-01	0	44	104	678428672	71	38536
2026-01-29 03:17:55.38	262.15	7.29	-49.6	-70.6	3.8	7.45e-01	0	44	104	678428672	71	38866
2026-01-29 03:17:57.36	261.90	7.16	-49.6	-70.5	3.8	7.45e-01	0	44	104	678428672	71	38386
2026-01-29 03:17:59.35	261.65	7.04	-49.6	-70.7	3.8	7.47e-01	0	44	104	678428672	71	39277
2026-01-29 03:18:01.34	261.41	6.92	-49.6	-70.4	3.8	7.47e-01	0	44	104	678428672	71	38038
2026-01-29 03:18:03.32	261.16	6.80	-49.6	-70.1	3.8	7.43e-01	0	44	104	678428672	71	36634
2026-01-29 03:18:05.31	260.92	6.68	-49.6	-70.4	3.8	7.47e-01	0	44	104	678428672	71	38099
