passes_logs/2026/01/29/T1/T1__20260129_093353_NOAA_21_JPSS-2_rec.log

#Pass ID: 20260129_093353_NOAA 21 (JPSS-2)
#Satellite: NOAA 21 (JPSS-2)
#Configuration: NOAA 21
#almurnet v.1.7.20251203
#Start time: 2026-01-29 09:33:53

#Version: 2.0.20230620
#Station: T1
#Location: 37.570604 lon 55.790049 lat
#TLE: 1 54234U 22150A   26027.91149249  .00000141  00000+0  87546-4 0  9993
#TLE: 2 54234  98.7510 328.6558 0000880 202.8718 157.2419 14.19540177166642

#Time	Az	El	Level	Level2	SNR	BER	BlckErr	Temp	State	Recorded	gain1	gain2
2026-01-29 09:33:53.86	148.89	5.02	-49.8	-63.1	3.8	1.49e+00	0	37	0	0	71	16466
2026-01-29 09:33:56.84	148.83	5.23	-50.2	-63.2	3.8	1.49e+00	0	37	104	0	71	16553
2026-01-29 09:33:59.82	148.78	5.45	-49.9	-63.1	3.8	1.49e+00	0	38	104	0	71	16463
2026-01-29 09:34:02.80	148.72	5.66	-50.0	-63.1	3.8	1.49e+00	0	38	104	0	71	16339
2026-01-29 09:34:05.78	148.66	5.88	-49.8	-63.0	3.8	1.49e+00	0	37	104	0	71	16158
2026-01-29 09:34:08.76	148.60	6.10	-49.6	-62.7	3.8	1.49e+00	0	38	104	0	70	16645
2026-01-29 09:34:11.74	148.54	6.32	-48.9	-62.3	3.8	1.49e+00	0	38	104	0	69	16750
2026-01-29 09:34:14.72	148.48	6.55	-49.2	-61.9	3.8	1.49e+00	0	38	104	0	69	15998
2026-01-29 09:34:17.70	148.42	6.77	-49.2	-62.3	3.8	1.49e+00	0	38	104	0	69	16705
2026-01-29 09:34:20.68	148.36	7.00	-49.2	-62.2	3.8	1.49e+00	0	38	104	0	69	16676
2026-01-29 09:34:23.66	148.30	7.23	-49.1	-61.2	3.8	1.49e+00	0	38	104	0	69	14856
2026-01-29 09:34:26.64	148.23	7.46	-48.6	-57.0	4.9	1.14e+00	0	38	104	0	69	9109
2026-01-29 09:34:29.62	148.17	7.70	-47.1	-52.3	8.5	6.59e-02	0	38	0	0	66	6311
2026-01-29 09:34:32.60	148.10	7.94	-45.7	-49.4	11.6	1.42e-03	0	38	0	0	63	5375
2026-01-29 09:34:35.58	148.03	8.17	-44.8	-48.0	13.1	3.50e-05	0	38	0	0	61	5112
2026-01-29 09:34:38.56	147.96	8.41	-44.8	-47.9	13.1	1.83e-05	0	38	0	0	61	5046
2026-01-29 09:34:41.54	147.89	8.66	-45.8	-49.6	11.4	6.93e-04	0	38	0	0	62	5807
2026-01-29 09:34:44.52	147.82	8.90	-47.4	-53.0	7.8	5.36e-02	0	39	0	0	65	7251
2026-01-29 09:34:47.51	147.75	9.15	-48.2	-55.8	5.5	2.05e-01	0	39	0	0	67	8955
2026-01-29 09:34:50.49	147.67	9.40	-46.9	-51.8	9.4	3.00e-04	0	38	0	0	64	6684
2026-01-29 09:34:53.47	147.59	9.65	-43.6	-46.2	14.9	9.91e-05	0	38	0	0	59	4664
2026-01-29 09:34:56.46	147.52	9.91	-43.7	-46.2	14.9	2.67e-05	0	39	0	0	58	4981
2026-01-29 09:34:59.44	147.44	10.17	-42.2	-44.4	16.7	0.00e+00	0	39	0	0	56	4528
2026-01-29 09:35:02.43	147.36	10.43	-41.0	-43.0	17.9	0.00e+00	0	39	0	0	54	4335
2026-01-29 09:35:05.41	147.27	10.69	-40.7	-42.6	18.3	0.00e+00	0	39	0	0	53	4349
2026-01-29 09:35:08.40	147.19	10.96	-40.6	-42.5	18.3	0.00e+00	0	39	0	0	53	4336
2026-01-29 09:35:11.39	147.10	11.23	-40.5	-42.4	18.5	0.00e+00	0	39	0	0	52	4499
2026-01-29 09:35:14.37	147.02	11.50	-40.4	-42.3	18.5	0.00e+00	0	39	0	0	52	4485
2026-01-29 09:35:17.32	146.93	11.77	-40.4	-42.3	18.6	0.00e+00	0	39	0	0	52	4464
2026-01-29 09:35:20.45	146.83	12.07	-40.3	-42.1	18.7	0.00e+00	0	39	0	0	52	4391
2026-01-29 09:35:23.29	146.74	12.33	-40.1	-42.0	18.9	0.00e+00	0	39	0	0	52	4323
2026-01-29 09:35:26.42	146.64	12.63	-40.1	-42.0	18.9	0.00e+00	0	39	0	0	52	4308
2026-01-29 09:35:29.26	146.55	12.91	-40.1	-42.0	18.9	0.00e+00	0	39	0	0	52	4311
2026-01-29 09:35:32.74	146.44	13.25	-40.0	-41.9	19.1	0.00e+00	0	39	0	0	51	4497
2026-01-29 09:35:35.49	146.34	13.52	-39.9	-41.7	19.3	0.00e+00	0	39	0	0	51	4408
2026-01-29 09:35:38.76	146.23	13.85	-39.9	-41.6	19.3	0.00e+00	0	39	0	0	51	4388
2026-01-29 09:35:41.47	146.13	14.12	-40.0	-41.8	19.1	0.00e+00	0	39	0	0	51	4469
2026-01-29 09:35:44.74	146.01	14.45	-40.0	-41.7	19.2	0.00e+00	0	39	0	0	51	4439
2026-01-29 09:35:47.70	145.90	14.76	-39.8	-41.6	19.4	0.00e+00	0	39	0	0	51	4344
2026-01-29 09:35:50.97	145.78	15.11	-39.7	-41.5	19.5	0.00e+00	0	39	0	0	51	4308
2026-01-29 09:35:53.71	145.67	15.40	-39.9	-41.6	19.3	0.00e+00	0	39	0	0	51	4382
2026-01-29 09:35:57.17	145.54	15.77	-39.9	-41.7	19.3	0.00e+00	0	39	0	0	51	4405
2026-01-29 09:35:59.98	145.42	16.08	-39.8	-41.6	19.4	0.00e+00	0	39	0	0	51	4349
2026-01-29 09:36:03.24	145.29	16.44	-39.9	-41.7	19.3	0.00e+00	0	39	0	0	51	4398
2026-01-29 09:36:05.96	145.17	16.75	-39.9	-41.6	19.3	0.00e+00	0	39	0	0	51	4388
2026-01-29 09:36:09.27	145.02	17.12	-40.0	-41.7	19.2	0.00e+00	0	39	0	0	51	4430
2026-01-29 09:36:12.21	144.89	17.46	-40.0	-41.8	19.2	0.00e+00	0	39	0	0	51	4444
2026-01-29 09:36:15.76	144.73	17.88	-40.1	-41.9	19.1	0.00e+00	0	39	0	0	51	4499
2026-01-29 09:36:18.46	144.60	18.20	-40.1	-41.9	19.1	0.00e+00	0	39	0	0	51	4519
2026-01-29 09:36:21.73	144.44	18.60	-40.1	-42.0	19.1	0.00e+00	0	39	0	0	51	4555
2026-01-29 09:36:24.44	144.31	18.93	-40.2	-42.0	19.1	0.00e+00	0	39	0	0	51	4574
2026-01-29 09:36:27.71	144.14	19.33	-40.1	-41.9	19.1	0.00e+00	0	39	0	0	51	4534
2026-01-29 09:36:30.43	144.00	19.68	-40.0	-41.9	19.2	0.00e+00	0	39	0	0	51	4494
2026-01-29 09:36:33.70	143.82	20.09	-39.9	-41.6	19.4	0.00e+00	0	39	0	0	51	4387
2026-01-29 09:36:36.69	143.66	20.48	-39.8	-41.6	19.5	0.00e+00	0	39	0	0	51	4353
2026-01-29 09:36:39.70	143.49	20.88	-39.6	-41.3	19.7	0.00e+00	0	39	0	0	51	4230
2026-01-29 09:36:42.75	143.31	21.29	-39.4	-41.1	19.9	0.00e+00	0	39	0	0	50	4377
2026-01-29 09:36:45.75	143.13	21.69	-39.1	-40.8	20.2	0.00e+00	0	39	0	0	50	4214
2026-01-29 09:36:48.82	142.94	22.12	-38.9	-40.6	20.3	0.00e+00	0	39	0	0	49	4371
2026-01-29 09:36:51.94	142.74	22.55	-38.9	-40.5	20.4	0.00e+00	0	39	0	0	49	4328
2026-01-29 09:36:54.79	142.56	22.96	-38.8	-40.4	20.5	0.00e+00	0	39	0	0	49	4283
2026-01-29 09:36:57.91	142.35	23.41	-38.6	-40.3	20.6	0.00e+00	0	39	0	0	49	4213
2026-01-29 09:37:00.75	142.15	23.83	-38.6	-40.3	20.6	0.00e+00	0	39	0	0	49	4195
2026-01-29 09:37:04.14	141.91	24.33	-38.6	-40.2	20.7	0.00e+00	0	39	0	0	49	4188
2026-01-29 09:37:07.30	141.68	24.82	-38.9	-40.6	20.3	0.00e+00	0	39	0	0	49	4355
2026-01-29 09:37:10.14	141.46	25.25	-39.1	-40.8	20.2	0.00e+00	0	39	0	0	49	4458
2026-01-29 09:37:13.41	141.20	25.77	-39.3	-41.0	20.0	0.00e+00	0	39	0	0	49	4576
2026-01-29 09:37:16.32	140.97	26.23	-39.5	-41.2	19.8	0.00e+00	0	39	0	0	49	4675
2026-01-29 09:37:19.75	140.68	26.79	-39.8	-41.5	19.6	0.00e+00	0	39	0	0	50	4567
2026-01-29 09:37:22.45	140.45	27.24	-40.1	-41.9	19.2	0.00e+00	0	39	0	0	50	4771
2026-01-29 09:37:25.74	140.16	27.79	-40.4	-42.1	19.0	0.00e+00	0	39	0	0	51	4648
2026-01-29 09:37:28.50	139.90	28.27	-40.3	-42.1	19.1	0.00e+00	0	39	0	0	51	4608
2026-01-29 09:37:31.77	139.59	28.84	-40.4	-42.2	18.9	0.00e+00	0	39	0	0	51	4688
2026-01-29 09:37:34.79	139.30	29.37	-40.0	-41.8	19.3	0.00e+00	0	39	0	0	51	4451
2026-01-29 09:37:38.07	138.96	29.97	-39.8	-41.6	19.5	0.00e+00	0	39	0	0	51	4344
2026-01-29 09:37:40.89	138.66	30.48	-39.9	-41.6	19.4	0.00e+00	0	39	0	0	51	4370
2026-01-29 09:37:44.02	138.32	31.07	-39.5	-41.2	19.9	0.00e+00	0	39	0	0	51	4168
2026-01-29 09:37:46.86	138.00	31.61	-39.6	-41.3	19.8	0.00e+00	0	39	0	0	51	4241
2026-01-29 09:37:49.99	137.63	32.22	-39.8	-41.5	19.7	0.00e+00	0	39	0	0	51	4308
2026-01-29 09:37:52.83	137.28	32.78	-39.8	-41.5	19.7	0.00e+00	0	39	0	0	51	4321
2026-01-29 09:37:55.95	136.89	33.40	-39.9	-41.6	19.6	0.00e+00	0	39	0	0	51	4364
2026-01-29 09:37:58.79	136.51	33.98	-40.3	-42.1	19.2	0.00e+00	0	39	0	0	51	4602
2026-01-29 09:38:01.92	136.08	34.63	-40.6	-42.4	18.9	0.00e+00	0	39	0	0	51	4782
2026-01-29 09:38:04.77	135.68	35.24	-40.9	-42.8	18.5	0.00e+00	0	39	0	0	52	4716
2026-01-29 09:38:07.91	135.21	35.91	-41.6	-43.6	17.8	0.00e+00	0	39	0	0	53	4872
2026-01-29 09:38:10.89	134.75	36.56	-41.8	-43.8	17.6	0.00e+00	0	39	0	0	54	4727
2026-01-29 09:38:13.88	134.27	37.23	-41.9	-43.9	17.5	0.00e+00	0	39	0	0	54	4792
2026-01-29 09:38:16.86	133.77	37.90	-42.3	-44.4	17.0	0.00e+00	0	39	0	0	55	4810
2026-01-29 09:38:19.88	133.25	38.59	-42.1	-44.1	17.3	0.00e+00	0	39	0	0	55	4643
2026-01-29 09:38:22.95	132.68	39.31	-42.0	-44.1	17.2	0.00e+00	0	40	0	0	55	4621
2026-01-29 09:38:25.80	132.14	39.99	-42.7	-44.9	16.5	0.00e+00	0	39	0	0	55	5049
2026-01-29 09:38:28.92	131.52	40.74	-42.6	-44.7	16.8	0.00e+00	0	39	0	0	56	4704
2026-01-29 09:38:31.83	130.91	41.45	-41.6	-43.6	17.8	0.00e+00	0	39	0	0	55	4344
2026-01-29 09:38:34.95	130.23	42.23	-41.6	-43.5	17.8	0.00e+00	0	39	0	0	54	4595
2026-01-29 09:38:37.80	129.58	42.94	-42.1	-44.2	17.1	0.00e+00	0	39	0	0	55	4652
2026-01-29 09:38:40.92	128.83	43.74	-43.3	-45.7	15.7	0.00e+00	0	39	0	0	57	4981
2026-01-29 09:38:43.79	128.10	44.48	-42.9	-45.1	16.5	0.00e+00	0	39	0	0	57	4606
2026-01-29 09:38:47.02	127.25	45.33	-42.2	-44.2	17.2	0.00e+00	0	39	0	0	56	4426
2026-01-29 09:38:49.87	126.45	46.08	-42.2	-44.3	17.0	0.00e+00	0	39	0	0	55	4738
2026-01-29 09:38:53.00	125.53	46.92	-42.4	-44.6	16.7	0.00e+00	0	39	0	0	55	4875
2026-01-29 09:38:55.84	124.65	47.69	-41.7	-43.6	17.7	0.00e+00	0	39	0	0	55	4390
2026-01-29 09:38:58.97	123.63	48.54	-41.4	-43.4	18.0	0.00e+00	0	39	0	0	54	4510
2026-01-29 09:39:01.81	122.65	49.32	-41.6	-43.6	17.7	0.00e+00	0	39	0	0	54	4649
2026-01-29 09:39:04.98	121.50	50.20	-41.6	-43.6	17.8	0.00e+00	0	40	0	0	54	4615
2026-01-29 09:39:07.84	120.41	50.99	-41.0	-42.9	18.4	0.00e+00	0	40	0	0	54	4251
2026-01-29 09:39:11.11	119.08	51.90	-41.3	-43.2	18.2	0.00e+00	0	39	0	0	53	4673
2026-01-29 09:39:13.90	117.88	52.67	-40.7	-42.5	18.8	0.00e+00	0	40	0	0	53	4315
2026-01-29 09:39:17.27	116.34	53.60	-40.4	-42.3	19.0	0.00e+00	0	40	0	0	52	4447
2026-01-29 09:39:20.20	114.92	54.41	-40.1	-41.8	19.5	0.00e+00	0	39	0	0	51	4470
2026-01-29 09:39:23.39	113.29	55.28	-40.0	-41.8	19.3	0.00e+00	0	40	0	0	51	4458
2026-01-29 09:39:26.32	111.69	56.07	-40.0	-41.8	19.6	0.00e+00	0	39	0	0	51	4449
2026-01-29 09:39:29.60	109.79	56.94	-40.4	-42.2	19.1	0.00e+00	0	39	0	0	51	4693
2026-01-29 09:39:32.31	108.13	57.65	-39.8	-41.5	19.9	0.00e+00	0	40	0	0	51	4314
2026-01-29 09:39:35.58	106.01	58.48	-39.1	-40.8	20.2	0.00e+00	0	39	0	0	50	4215
2026-01-29 09:39:38.34	104.12	59.16	-39.4	-41.1	20.1	0.00e+00	0	40	0	0	50	4359
2026-01-29 09:39:41.84	101.57	59.98	-39.1	-40.8	20.2	0.00e+00	0	39	0	0	50	4214
2026-01-29 09:39:44.69	99.38	60.63	-39.0	-40.7	20.4	0.00e+00	0	39	0	0	50	4161
2026-01-29 09:39:47.81	96.85	61.29	-39.0	-40.7	20.4	0.00e+00	0	40	0	0	49	4394
2026-01-29 09:39:50.72	94.37	61.87	-39.5	-41.2	20.0	0.00e+00	0	39	0	0	49	4679
2026-01-29 09:39:53.90	91.52	62.45	-38.8	-40.4	20.7	0.00e+00	0	39	0	0	49	4276
2026-01-29 09:39:56.84	88.78	62.94	-38.4	-40.0	21.0	0.00e+00	0	39	0	0	48	4306
2026-01-29 09:40:00.16	85.55	63.42	-38.3	-39.9	21.0	0.00e+00	0	40	0	0	48	4291
2026-01-29 09:40:03.30	82.38	63.81	-38.7	-40.3	20.8	0.00e+00	0	40	0	0	48	4491
2026-01-29 09:40:06.14	79.43	64.10	-38.3	-39.9	21.2	0.00e+00	0	40	0	0	48	4263
2026-01-29 09:40:09.27	76.10	64.34	-38.3	-39.9	20.9	0.00e+00	0	39	0	0	48	4251
2026-01-29 09:40:12.11	73.03	64.50	-38.7	-40.3	20.6	0.00e+00	0	39	0	0	48	4480
2026-01-29 09:40:15.24	69.60	64.59	-38.9	-40.5	20.4	0.00e+00	0	39	0	0	48	4572
2026-01-29 09:40:18.08	66.48	64.61	-38.8	-40.5	20.6	0.00e+00	0	40	0	0	48	4559
2026-01-29 09:40:21.30	62.95	64.54	-38.4	-40.0	21.0	0.00e+00	0	39	0	0	48	4303
2026-01-29 09:40:24.14	59.86	64.41	-39.3	-40.9	20.1	0.00e+00	0	39	0	0	49	4544
2026-01-29 09:40:27.49	56.28	64.18	-39.2	-40.9	20.4	0.00e+00	0	39	0	0	49	4522
2026-01-29 09:40:30.19	53.45	63.92	-38.8	-40.5	20.7	0.00e+00	0	40	0	0	49	4297
2026-01-29 09:40:33.48	50.10	63.54	-38.7	-40.3	20.8	0.00e+00	0	40	0	0	48	4443
2026-01-29 09:40:36.18	47.44	63.17	-38.8	-40.5	20.5	0.00e+00	0	39	0	0	49	4297
2026-01-29 09:40:39.46	44.33	62.65	-39.2	-40.8	20.4	0.00e+00	0	40	0	0	49	4475
2026-01-29 09:40:42.17	41.86	62.18	-39.4	-41.1	20.0	0.00e+00	0	40	0	0	49	4632
2026-01-29 09:40:45.55	38.91	61.53	-38.8	-40.4	20.8	0.00e+00	0	40	0	0	49	4256
2026-01-29 09:40:48.36	36.59	60.95	-39.2	-40.8	20.5	0.00e+00	0	40	0	0	49	4477
2026-01-29 09:40:51.56	34.07	60.25	-38.7	-40.3	20.8	0.00e+00	0	39	0	0	48	4484
2026-01-29 09:40:54.69	31.74	59.53	-39.1	-40.8	20.5	0.00e+00	0	40	0	0	49	4452
2026-01-29 09:40:57.53	29.74	58.84	-38.8	-40.4	20.6	0.00e+00	0	39	0	0	48	4530
2026-01-29 09:41:00.66	27.66	58.06	-39.9	-41.6	19.4	0.00e+00	0	39	0	0	50	4623
2026-01-29 09:41:03.50	25.87	57.33	-39.3	-41.0	20.0	0.00e+00	0	40	0	0	50	4305
2026-01-29 09:41:06.61	24.02	56.52	-40.2	-42.0	19.4	0.00e+00	0	40	0	0	51	4563
2026-01-29 09:41:10.29	21.97	55.53	-39.7	-41.4	19.8	0.00e+00	0	39	0	0	50	4501
2026-01-29 09:41:12.99	20.56	54.80	-39.8	-41.5	19.7	0.00e+00	0	40	0	0	50	4558
2026-01-29 09:41:16.26	18.94	53.91	-41.4	-43.3	17.8	0.00e+00	0	40	0	0	54	4477
2026-01-29 09:41:19.12	17.61	53.12	-39.7	-41.3	19.7	0.00e+00	0	39	0	0	51	4234
2026-01-29 09:41:22.46	16.14	52.19	-41.4	-43.3	18.1	0.00e+00	0	40	0	0	53	4746
2026-01-29 09:41:25.33	14.95	51.40	-41.7	-43.6	17.7	0.00e+00	0	40	0	0	54	4649
2026-01-29 09:41:28.46	13.72	50.54	-40.4	-42.2	18.8	0.00e+00	0	40	0	0	52	4413
2026-01-29 09:41:31.30	12.67	49.75	-42.0	-44.0	17.3	0.00e+00	0	40	0	0	54	4853
2026-01-29 09:41:34.43	11.57	48.90	-41.9	-43.9	17.0	0.00e+00	0	40	0	0	55	4515
2026-01-29 09:41:37.27	10.63	48.12	-42.1	-44.2	16.8	0.00e+00	0	40	0	0	55	4688
2026-01-29 09:41:40.39	9.64	47.28	-41.4	-43.3	18.0	0.00e+00	0	40	0	0	54	4485
2026-01-29 09:41:43.32	8.76	46.50	-43.1	-45.4	16.3	0.00e+00	0	40	0	0	56	5045
2026-01-29 09:41:46.81	7.77	45.57	-42.0	-43.9	17.6	0.00e+00	0	40	0	0	56	4281
2026-01-29 09:41:49.52	7.04	44.86	-42.3	-44.4	17.1	0.00e+00	0	40	0	0	55	4799
2026-01-29 09:41:52.80	6.21	44.01	-41.2	-43.2	18.3	0.00e+00	0	40	0	0	54	4399
2026-01-29 09:41:55.59	5.53	43.30	-42.2	-44.3	17.2	0.00e+00	0	40	0	0	55	4757
2026-01-29 09:41:58.72	4.80	42.51	-42.7	-44.8	16.7	0.00e+00	0	40	0	0	57	4489
2026-01-29 09:42:01.56	4.17	41.81	-41.3	-43.2	18.2	0.00e+00	0	40	0	0	54	4416
2026-01-29 09:42:04.69	3.51	41.04	-41.6	-43.6	17.8	0.00e+00	0	40	0	0	54	4621
2026-01-29 09:42:07.61	2.92	40.33	-41.8	-43.9	17.3	0.00e+00	0	40	0	0	54	4777
2026-01-29 09:42:10.94	2.28	39.54	-42.0	-44.1	17.4	0.00e+00	0	40	0	0	54	4873
2026-01-29 09:42:13.86	1.74	38.86	-42.1	-44.2	17.3	0.00e+00	0	40	0	0	55	4655
2026-01-29 09:42:17.39	1.12	38.05	-41.5	-43.5	17.9	0.00e+00	0	40	0	0	54	4565
2026-01-29 09:42:20.41	0.61	37.37	-41.8	-43.9	17.6	0.00e+00	0	40	0	0	54	4795
2026-01-29 09:42:23.40	0.13	36.71	-42.0	-44.2	17.3	0.00e+00	0	40	0	0	54	4938
2026-01-29 09:42:26.38	359.67	36.06	-41.4	-43.4	17.8	0.00e+00	0	40	0	0	54	4542
2026-01-29 09:42:29.37	359.23	35.41	-41.2	-43.1	18.0	0.00e+00	0	40	0	0	54	4379
2026-01-29 09:42:32.32	358.81	34.79	-41.4	-43.4	17.9	0.00e+00	0	40	0	0	54	4505
2026-01-29 09:42:35.84	358.33	34.06	-41.3	-43.2	18.1	0.00e+00	0	40	0	0	54	4437
2026-01-29 09:42:38.54	357.97	33.52	-40.8	-42.8	18.4	0.00e+00	0	40	0	0	53	4445
2026-01-29 09:42:41.83	357.56	32.86	-40.7	-42.6	18.5	0.00e+00	0	40	0	0	53	4356
2026-01-29 09:42:44.55	357.23	32.32	-40.4	-42.2	18.8	0.00e+00	0	40	0	0	52	4395
2026-01-29 09:42:47.86	356.84	31.68	-40.0	-41.8	19.1	0.00e+00	0	40	0	0	51	4463
2026-01-29 09:42:50.67	356.53	31.15	-39.5	-41.2	19.7	0.00e+00	0	40	0	0	51	4188
2026-01-29 09:42:54.56	356.10	30.43	-39.3	-40.9	20.2	0.00e+00	0	40	0	0	50	4284
2026-01-29 09:42:57.41	355.81	29.91	-39.7	-41.4	19.9	0.00e+00	0	40	0	0	50	4538
2026-01-29 09:43:01.13	355.43	29.24	-40.2	-42.0	19.4	0.00e+00	0	40	0	0	51	4577
2026-01-29 09:43:04.08	355.15	28.73	-40.4	-42.1	19.2	0.00e+00	0	40	0	0	51	4644
2026-01-29 09:43:08.03	354.78	28.05	-40.2	-42.0	19.1	0.00e+00	0	40	0	0	51	4598
2026-01-29 09:43:10.88	354.53	27.56	-40.3	-42.1	18.8	0.00e+00	0	40	0	0	51	4622
2026-01-29 09:43:14.86	354.18	26.91	-39.7	-41.4	19.4	0.00e+00	0	40	0	0	51	4270
2026-01-29 09:43:17.70	353.95	26.44	-39.5	-41.2	19.5	0.00e+00	0	40	0	0	51	4176
2026-01-29 09:43:21.83	353.62	25.79	-39.4	-41.1	20.0	0.00e+00	0	40	0	0	50	4385
2026-01-29 09:43:24.66	353.40	25.34	-39.3	-41.0	20.2	0.00e+00	0	40	0	0	50	4319
2026-01-29 09:43:27.93	353.16	24.84	-39.3	-41.0	20.3	0.00e+00	0	40	0	0	50	4308
2026-01-29 09:43:30.66	352.96	24.43	-39.4	-41.1	20.2	0.00e+00	0	40	0	0	50	4360
2026-01-29 09:43:34.02	352.72	23.93	-39.5	-41.3	19.9	0.00e+00	0	40	0	0	50	4482
2026-01-29 09:43:36.72	352.54	23.53	-39.6	-41.4	19.8	0.00e+00	0	40	0	0	50	4510
2026-01-29 09:43:40.02	352.32	23.06	-39.8	-41.5	19.6	0.00e+00	0	40	0	0	50	4565
2026-01-29 09:43:42.74	352.14	22.67	-39.8	-41.5	19.6	0.00e+00	0	40	0	0	50	4589
2026-01-29 09:43:46.01	351.94	22.22	-39.7	-41.4	19.7	0.00e+00	0	40	0	0	50	4541
2026-01-29 09:43:48.71	351.77	21.84	-39.7	-41.4	19.8	0.00e+00	0	40	0	0	50	4524
2026-01-29 09:43:52.05	351.58	21.39	-39.7	-41.4	19.8	0.00e+00	0	40	0	0	50	4527
2026-01-29 09:43:54.78	351.42	21.03	-39.7	-41.4	19.7	0.00e+00	0	40	0	0	50	4543
2026-01-29 09:43:58.16	351.23	20.59	-39.6	-41.4	19.8	0.00e+00	0	40	0	0	50	4503
2026-01-29 09:44:00.86	351.08	20.24	-39.7	-41.4	19.8	0.00e+00	0	40	0	0	50	4523
2026-01-29 09:44:04.26	350.90	19.80	-39.6	-41.4	19.8	0.00e+00	0	40	0	0	50	4498
2026-01-29 09:44:06.96	350.76	19.46	-39.6	-41.3	19.8	0.00e+00	0	40	0	0	50	4491
2026-01-29 09:44:10.26	350.60	19.06	-39.8	-41.6	19.5	0.00e+00	0	40	0	0	50	4636
2026-01-29 09:44:12.96	350.46	18.73	-39.9	-41.7	19.4	0.00e+00	0	40	0	0	50	4684
2026-01-29 09:44:16.46	350.30	18.31	-39.9	-41.8	19.4	0.00e+00	0	40	0	0	50	4712
2026-01-29 09:44:19.20	350.17	17.98	-39.9	-41.8	19.3	0.00e+00	0	40	0	0	50	4730
2026-01-29 09:44:22.48	350.02	17.60	-40.0	-41.9	19.2	0.00e+00	0	40	0	0	50	4800
2026-01-29 09:44:25.18	349.90	17.29	-40.1	-42.0	19.2	0.00e+00	0	40	0	0	50	4822
2026-01-29 09:44:28.45	349.76	16.92	-40.3	-42.2	19.0	0.00e+00	0	40	0	0	51	4652
2026-01-29 09:44:31.18	349.65	16.61	-40.2	-42.1	19.1	0.00e+00	0	40	0	0	51	4607
2026-01-29 09:44:34.45	349.51	16.25	-40.3	-42.2	19.0	0.00e+00	0	40	0	0	51	4689
2026-01-29 09:44:37.34	349.40	15.93	-40.3	-42.3	18.9	0.00e+00	0	40	0	0	51	4708
2026-01-29 09:44:41.54	349.23	15.48	-40.4	-42.4	18.9	0.00e+00	0	40	0	0	51	4777
2026-01-29 09:44:44.38	349.13	15.18	-40.5	-42.5	18.8	0.00e+00	0	40	0	0	51	4819
2026-01-29 09:44:48.60	348.97	14.74	-40.6	-42.6	18.5	0.00e+00	0	40	0	0	52	4637
2026-01-29 09:44:51.72	348.86	14.42	-40.6	-42.7	18.4	0.00e+00	0	40	0	0	52	4683
2026-01-29 09:44:55.69	348.72	14.02	-40.7	-42.9	18.3	0.00e+00	0	40	0	0	52	4779
2026-01-29 09:44:58.53	348.62	13.73	-40.8	-43.0	18.2	0.00e+00	0	40	0	0	52	4850
2026-01-29 09:45:02.40	348.50	13.35	-40.8	-43.0	18.2	0.00e+00	0	40	0	0	52	4824
2026-01-29 09:45:05.31	348.40	13.07	-41.0	-43.1	18.1	0.00e+00	0	40	0	0	52	4889
2026-01-29 09:45:08.86	348.29	12.73	-41.0	-43.1	18.1	0.00e+00	0	40	0	0	52	4886
2026-01-29 09:45:11.56	348.21	12.47	-40.8	-43.0	18.1	0.00e+00	0	40	0	0	52	4857
2026-01-29 09:45:14.83	348.11	12.16	-40.6	-42.9	18.2	0.00e+00	0	40	0	0	52	4786
2026-01-29 09:45:17.53	348.03	11.91	-40.6	-43.0	18.1	0.00e+00	0	40	0	0	52	4821
2026-01-29 09:45:20.85	347.93	11.61	-40.5	-42.9	18.2	0.00e+00	0	40	0	0	52	4768
2026-01-29 09:45:23.57	347.86	11.36	-40.5	-42.9	18.1	0.00e+00	0	40	0	0	52	4772
2026-01-29 09:45:26.83	347.77	11.07	-40.5	-43.0	17.9	0.00e+00	0	40	0	0	52	4868
2026-01-29 09:45:29.57	347.69	10.83	-40.5	-43.0	18.0	0.00e+00	0	40	0	0	52	4827
2026-01-29 09:45:32.83	347.61	10.54	-40.4	-42.9	18.0	0.00e+00	0	40	0	0	52	4811
2026-01-29 09:45:35.56	347.53	10.30	-40.6	-43.2	17.8	0.00e+00	0	40	0	0	52	4982
2026-01-29 09:45:38.83	347.45	10.02	-40.5	-43.0	17.9	0.00e+00	0	40	0	0	52	4869
2026-01-29 09:45:41.54	347.38	9.79	-40.6	-43.2	17.7	0.00e+00	0	40	0	0	52	4965
2026-01-29 09:45:44.84	347.30	9.51	-40.6	-43.3	17.7	0.00e+00	0	40	0	0	52	4984
2026-01-29 09:45:47.56	347.24	9.28	-40.7	-43.4	17.6	0.00e+00	0	40	0	0	52	5058
2026-01-29 09:45:50.84	347.16	9.01	-43.8	-48.9	12.6	1.22e-05	0	40	0	0	58	6768
2026-01-29 09:45:53.55	347.10	8.79	-49.1	-62.8	3.8	1.49e+00	0	40	104	0	68	18827
2026-01-29 09:45:56.83	347.02	8.52	-49.1	-62.8	3.8	1.49e+00	0	40	104	0	69	17732
2026-01-29 09:45:59.55	346.96	8.30	-48.5	-62.5	3.8	1.49e+00	0	40	104	0	68	18159
2026-01-29 09:46:02.83	346.89	8.04	-48.7	-62.4	3.8	1.49e+00	0	40	104	0	68	17965
2026-01-29 09:46:05.54	346.83	7.83	-49.3	-62.4	3.8	1.49e+00	0	40	104	0	69	16981
2026-01-29 09:46:08.80	346.77	7.57	-48.8	-62.5	3.8	1.49e+00	0	41	104	0	69	17196
2026-01-29 09:46:11.51	346.71	7.36	-49.2	-62.5	3.8	1.49e+00	0	40	104	0	69	17126
2026-01-29 09:46:14.81	346.64	7.11	-48.8	-62.5	3.8	1.49e+00	0	40	104	0	69	17269
2026-01-29 09:46:17.52	346.59	6.90	-48.9	-62.5	3.8	1.49e+00	0	40	104	0	69	17178
2026-01-29 09:46:20.78	346.53	6.66	-49.4	-62.5	3.8	1.49e+00	0	40	104	0	69	17184
2026-01-29 09:46:23.48	346.48	6.45	-49.4	-62.5	3.8	1.49e+00	0	40	104	0	69	17164
2026-01-29 09:46:26.74	346.42	6.21	-49.3	-62.5	3.8	1.49e+00	0	40	104	0	69	17088
