passes_logs/2026/01/29/T1/T1__20260129_102410_NOAA_20_JPSS-1_rec.log

#Pass ID: 20260129_102410_NOAA 20 (JPSS-1)
#Satellite: NOAA 20 (JPSS-1)
#Configuration: NOAA 20
#almurnet v.1.7.20251203
#Start time: 2026-01-29 10:24:11

#Version: 2.0.20230620
#Station: T1
#Location: 37.570604 lon 55.790049 lat
#TLE: 1 43013U 17073A   26027.94683596  .00000137  00000+0  85741-4 0  9995
#TLE: 2 43013  98.7648 328.7503 0000940  21.3928 338.7287 14.19541154424576

#Time	Az	El	Level	Level2	SNR	BER	BlckErr	Temp	State	Recorded	gain1	gain2
2026-01-29 10:24:11.85	175.14	5.08	-50.1	-65.4	3.8	1.49e+00	0	40	0	0	71	21322
2026-01-29 10:24:15.81	175.25	5.37	-50.1	-65.3	3.8	1.49e+00	0	40	104	0	71	21234
2026-01-29 10:24:19.79	175.36	5.65	-50.1	-65.3	3.8	1.49e+00	0	40	104	0	71	21149
2026-01-29 10:24:23.76	175.47	5.94	-49.9	-65.3	3.8	1.49e+00	0	40	104	0	71	21096
2026-01-29 10:24:27.73	175.59	6.23	-49.8	-65.2	3.8	1.49e+00	0	40	104	0	71	20877
2026-01-29 10:24:31.71	175.71	6.53	-49.5	-65.0	3.8	1.49e+00	0	41	104	0	71	20515
2026-01-29 10:24:35.68	175.83	6.83	-46.4	-63.5	3.8	1.49e+00	0	41	104	0	64	25668
2026-01-29 10:24:39.66	175.96	7.13	-46.3	-63.1	3.8	1.49e+00	0	41	104	0	64	24453
2026-01-29 10:24:43.63	176.08	7.44	-46.0	-56.6	6.6	3.60e-01	0	41	0	3145728	64	11673
2026-01-29 10:24:47.60	176.21	7.75	-45.1	-51.9	11.5	1.82e-03	0	41	0	11534336	62	7545
2026-01-29 10:24:51.57	176.34	8.06	-44.3	-49.6	13.7	8.30e-06	0	41	0	18874368	60	6565
2026-01-29 10:24:55.55	176.48	8.38	-44.7	-50.7	12.7	5.87e-05	0	41	0	26214400	60	7394
2026-01-29 10:24:59.52	176.61	8.70	-45.6	-54.4	8.8	2.29e-02	0	41	0	33554432	61	10748
2026-01-29 10:25:03.50	176.75	9.02	-46.3	-60.6	4.4	1.09e+00	0	41	0	40894464	63	19416
2026-01-29 10:25:07.47	176.90	9.35	-46.5	-62.8	3.8	1.49e+00	0	42	104	45088768	64	23744
2026-01-29 10:25:11.45	177.04	9.69	-45.6	-50.1	13.4	9.10e-06	0	42	0	51380224	62	6135
2026-01-29 10:25:15.43	177.19	10.02	-45.0	-49.2	14.3	2.20e-06	0	42	0	58720256	61	5886
2026-01-29 10:25:19.41	177.34	10.37	-44.2	-48.1	15.4	7.00e-07	0	42	0	66060288	60	5516
2026-01-29 10:25:23.39	177.50	10.72	-43.2	-46.5	17.0	0.00e+00	0	42	0	73400320	58	5122
2026-01-29 10:25:27.38	177.66	11.07	-42.9	-45.8	17.6	0.00e+00	0	42	0	80740352	57	5031
2026-01-29 10:25:31.36	177.82	11.43	-43.1	-45.8	17.7	0.00e+00	0	42	0	88080384	57	5015
2026-01-29 10:25:35.34	177.99	11.79	-43.1	-45.7	17.8	0.00e+00	0	42	0	95420416	57	4966
2026-01-29 10:25:39.32	178.16	12.16	-43.1	-45.7	17.8	0.00e+00	0	42	0	103809024	57	4954
2026-01-29 10:25:43.54	178.34	12.55	-43.2	-45.9	17.7	0.00e+00	0	42	0	111149056	57	5043
2026-01-29 10:25:47.69	178.53	12.95	-43.1	-45.8	17.8	0.00e+00	0	42	0	118489088	57	4987
2026-01-29 10:25:51.68	178.71	13.34	-43.0	-45.7	17.8	0.00e+00	0	42	0	126877696	57	4951
2026-01-29 10:25:55.74	178.90	13.73	-43.0	-45.7	17.8	0.00e+00	0	42	0	134217728	57	4963
2026-01-29 10:25:59.74	179.10	14.13	-43.0	-45.8	17.8	0.00e+00	0	42	0	141557760	57	4985
2026-01-29 10:26:03.71	179.29	14.54	-43.0	-45.7	17.8	0.00e+00	0	42	0	148897792	57	4950
2026-01-29 10:26:07.90	179.51	14.97	-43.1	-45.9	17.7	0.00e+00	0	42	0	157286400	57	5069
2026-01-29 10:26:11.89	179.72	15.39	-43.2	-45.9	17.7	0.00e+00	0	42	0	164626432	57	5092
2026-01-29 10:26:16.15	179.95	15.84	-43.2	-45.9	17.7	0.00e+00	0	42	0	171966464	57	5078
2026-01-29 10:26:20.15	180.17	16.28	-43.3	-45.9	16.5	0.00e+00	0	42	0	180355072	57	5084
2026-01-29 10:26:24.15	180.39	16.72	-43.2	-45.9	17.7	0.00e+00	0	42	0	187695104	57	5068
2026-01-29 10:26:28.39	180.64	17.20	-43.2	-45.8	17.7	0.00e+00	0	42	0	195035136	57	5027
2026-01-29 10:26:33.02	180.92	17.73	-43.4	-46.0	17.6	0.00e+00	0	42	0	204472320	57	5131
2026-01-29 10:26:37.51	181.20	18.25	-43.3	-46.0	17.6	0.00e+00	0	42	0	212860928	57	5103
2026-01-29 10:26:42.24	181.51	18.82	-43.4	-46.0	17.6	0.00e+00	0	42	0	221249536	57	5147
2026-01-29 10:26:46.78	181.81	19.37	-43.4	-46.1	17.6	0.00e+00	0	42	0	229638144	57	5181
2026-01-29 10:26:50.81	182.09	19.87	-43.3	-45.9	17.7	0.00e+00	0	42	0	236978176	57	5079
2026-01-29 10:26:54.82	182.38	20.38	-43.3	-46.0	17.6	0.00e+00	0	42	0	245366784	57	5148
2026-01-29 10:26:58.85	182.67	20.90	-43.5	-46.2	17.4	0.00e+00	0	42	0	252706816	57	5271
2026-01-29 10:27:02.86	182.98	21.43	-43.4	-46.0	17.7	0.00e+00	0	42	0	260046848	57	5148
2026-01-29 10:27:07.15	183.32	22.01	-43.3	-45.9	17.8	0.00e+00	0	43	0	268435456	57	5075
2026-01-29 10:27:11.30	183.65	22.58	-43.2	-45.7	18.0	0.00e+00	0	42	0	275775488	57	4972
2026-01-29 10:27:15.30	183.99	23.14	-42.9	-45.4	18.3	0.00e+00	0	43	0	283115520	57	4779
2026-01-29 10:27:19.60	184.37	23.76	-42.7	-45.1	18.6	0.00e+00	0	42	0	291504128	57	4605
2026-01-29 10:27:23.58	184.73	24.34	-42.5	-44.9	18.8	0.00e+00	0	42	0	298844160	56	4763
2026-01-29 10:27:27.56	185.11	24.94	-42.5	-44.8	18.9	0.00e+00	0	42	0	306184192	56	4747
2026-01-29 10:27:31.54	185.49	25.55	-42.4	-44.7	19.0	0.00e+00	0	42	0	313524224	56	4685
2026-01-29 10:27:35.66	185.91	26.19	-42.1	-44.4	19.3	0.00e+00	0	42	0	321912832	56	4496
2026-01-29 10:27:39.72	186.34	26.83	-41.8	-44.1	19.4	0.00e+00	0	43	0	329252864	55	4612
2026-01-29 10:27:43.71	186.78	27.48	-42.2	-44.5	19.0	0.00e+00	0	42	0	336592896	55	4851
2026-01-29 10:27:47.73	187.24	28.15	-42.5	-44.9	18.7	0.00e+00	0	42	0	343932928	55	5042
2026-01-29 10:27:51.77	187.72	28.84	-43.1	-45.6	18.1	0.00e+00	0	42	0	351272960	56	5180
2026-01-29 10:27:55.73	188.21	29.52	-43.5	-46.1	17.7	0.00e+00	0	42	0	358612992	57	5187
2026-01-29 10:27:59.71	188.72	30.23	-43.7	-46.3	17.5	0.00e+00	0	42	0	367001600	57	5294
2026-01-29 10:28:03.69	189.26	30.95	-44.1	-46.8	17.0	0.00e+00	0	43	0	374341632	58	5313
2026-01-29 10:28:07.66	189.82	31.68	-44.7	-47.7	16.1	0.00e+00	0	42	0	381681664	60	5272
2026-01-29 10:28:12.02	190.46	32.51	-45.1	-48.4	15.5	0.00e+00	0	43	0	390070272	60	5665
2026-01-29 10:28:16.21	191.11	33.32	-45.1	-48.2	15.6	0.00e+00	0	42	0	397410304	61	5278
2026-01-29 10:28:20.24	191.77	34.11	-45.1	-48.3	15.6	0.00e+00	0	42	0	404750336	61	5318
2026-01-29 10:28:24.25	192.45	34.92	-45.2	-48.5	15.4	0.00e+00	0	42	0	412090368	61	5411
2026-01-29 10:28:28.46	193.21	35.79	-45.1	-48.3	15.6	0.00e+00	0	42	0	420478976	61	5295
2026-01-29 10:28:32.83	194.04	36.71	-45.1	-48.3	15.6	7.00e-07	0	43	0	428867584	61	5312
2026-01-29 10:28:37.28	194.93	37.66	-45.1	-48.2	15.7	0.00e+00	0	43	0	437256192	61	5275
2026-01-29 10:28:41.29	195.78	38.54	-44.9	-48.0	15.9	0.00e+00	0	42	0	444596224	61	5135
2026-01-29 10:28:45.28	196.67	39.43	-44.9	-47.9	16.0	0.00e+00	0	43	0	451936256	61	5081
2026-01-29 10:28:49.44	197.65	40.37	-44.6	-47.6	16.3	0.00e+00	0	43	0	459276288	61	4911
2026-01-29 10:28:53.40	198.64	41.29	-43.9	-46.6	17.2	0.00e+00	0	43	0	467664896	59	4913
2026-01-29 10:28:57.37	199.69	42.22	-43.6	-46.2	17.6	0.00e+00	0	42	0	475004928	59	4677
2026-01-29 10:29:01.35	200.80	43.16	-44.2	-47.0	16.9	0.00e+00	0	43	0	482344960	59	5159
2026-01-29 10:29:05.33	201.98	44.11	-43.9	-46.6	17.3	0.00e+00	0	43	0	489684992	59	4883
2026-01-29 10:29:09.31	203.23	45.08	-45.2	-48.4	15.6	0.00e+00	0	42	0	497025024	60	5658
2026-01-29 10:29:13.40	204.60	46.08	-44.6	-47.7	16.2	0.00e+00	0	43	0	504365056	61	4958
2026-01-29 10:29:17.43	206.03	47.07	-44.7	-47.8	16.2	0.00e+00	0	43	0	512753664	60	5307
2026-01-29 10:29:21.51	207.58	48.08	-45.5	-48.8	15.1	0.00e+00	0	43	0	520093696	62	5328
2026-01-29 10:29:25.93	209.37	49.16	-44.7	-47.7	16.4	0.00e+00	0	42	0	528482304	60	5219
2026-01-29 10:29:30.11	211.18	50.19	-45.3	-48.6	15.4	0.00e+00	0	43	0	535822336	62	5179
2026-01-29 10:29:34.10	213.03	51.16	-43.6	-46.2	17.7	0.00e+00	0	43	0	543162368	58	4955
2026-01-29 10:29:38.03	214.96	52.11	-43.2	-45.7	18.2	0.00e+00	0	43	0	550502400	58	4670
2026-01-29 10:29:42.01	217.05	53.04	-42.9	-45.3	18.6	0.00e+00	0	43	0	558891008	57	4709
2026-01-29 10:29:45.99	219.28	53.96	-42.1	-44.3	19.4	0.00e+00	0	42	0	566231040	56	4492
2026-01-29 10:29:49.96	221.64	54.84	-42.8	-45.3	18.6	0.00e+00	0	43	0	573571072	56	4984
2026-01-29 10:29:53.94	224.15	55.69	-42.9	-45.2	18.6	0.00e+00	0	43	0	580911104	56	4981
2026-01-29 10:29:58.00	226.87	56.51	-43.5	-46.0	17.9	0.00e+00	0	43	0	588251136	57	5129
2026-01-29 10:30:02.12	229.80	57.28	-43.6	-46.1	17.7	0.00e+00	0	43	0	595591168	58	4906
2026-01-29 10:30:06.09	232.77	57.97	-43.8	-46.4	17.5	0.00e+00	0	43	0	603979776	58	5081
2026-01-29 10:30:10.12	235.94	58.60	-43.7	-46.3	17.6	0.00e+00	0	43	0	611319808	58	5036
2026-01-29 10:30:14.09	239.19	59.14	-43.6	-46.1	17.8	0.00e+00	0	43	0	618659840	58	4920
2026-01-29 10:30:18.07	242.59	59.61	-43.0	-45.4	18.4	0.00e+00	0	43	0	625999872	58	4541
2026-01-29 10:30:22.11	246.15	59.98	-44.0	-46.7	17.3	0.00e+00	0	43	0	633339904	58	5241
2026-01-29 10:30:26.06	249.71	60.25	-43.9	-46.5	17.5	0.00e+00	0	43	0	640679936	58	5107
2026-01-29 10:30:30.04	253.37	60.43	-43.4	-46.0	17.9	0.00e+00	0	43	0	648019968	58	4835
2026-01-29 10:30:34.02	257.05	60.50	-43.7	-46.3	17.7	0.00e+00	0	43	0	656408576	58	4991
2026-01-29 10:30:38.00	260.75	60.46	-42.7	-45.1	18.8	0.00e+00	0	43	0	663748608	57	4618
2026-01-29 10:30:41.98	264.42	60.32	-42.4	-44.7	18.9	0.00e+00	0	43	0	671088640	56	4680
2026-01-29 10:30:45.96	268.03	60.08	-43.4	-46.0	17.9	0.00e+00	0	43	0	678428672	57	5105
2026-01-29 10:30:49.92	271.55	59.75	-44.6	-47.4	16.6	0.00e+00	0	43	0	685768704	59	5392
2026-01-29 10:30:53.90	274.98	59.32	-44.4	-47.2	16.8	0.00e+00	0	42	0	693108736	59	5257
2026-01-29 10:30:57.87	278.28	58.80	-46.3	-50.1	13.9	2.20e-06	0	43	0	700448768	63	5833
2026-01-29 10:31:01.87	281.47	58.21	-46.0	-49.5	14.5	7.00e-07	0	43	0	707788800	63	5429
2026-01-29 10:31:05.95	284.57	57.53	-44.9	-47.9	16.1	0.00e+00	0	43	0	716177408	61	5090
2026-01-29 10:31:09.93	287.44	56.80	-44.6	-47.4	16.5	0.00e+00	0	42	0	723517440	60	5099
2026-01-29 10:31:13.91	290.16	56.02	-42.9	-45.3	18.6	0.00e+00	0	43	0	730857472	57	4720
2026-01-29 10:31:17.97	292.78	55.17	-41.5	-43.6	20.1	0.00e+00	0	43	0	738197504	54	4612
2026-01-29 10:31:22.06	295.26	54.28	-40.5	-42.5	21.1	0.00e+00	0	43	0	745537536	53	4316
2026-01-29 10:31:26.03	297.53	53.38	-42.0	-44.2	19.4	0.00e+00	0	43	0	752877568	55	4705
2026-01-29 10:31:30.02	299.66	52.45	-40.8	-42.8	20.8	0.00e+00	0	43	0	761266176	53	4482
2026-01-29 10:31:34.00	301.66	51.50	-41.7	-43.8	19.8	0.00e+00	0	43	0	768606208	54	4754
2026-01-29 10:31:37.98	303.54	50.54	-43.6	-46.2	17.8	0.00e+00	0	43	0	775946240	58	4929
2026-01-29 10:31:41.96	305.30	49.57	-44.3	-47.2	16.8	0.00e+00	0	43	0	783286272	59	5238
2026-01-29 10:31:46.02	306.99	48.58	-44.2	-47.1	16.9	0.00e+00	0	43	0	790626304	60	4917
2026-01-29 10:31:49.99	308.54	47.60	-46.1	-49.8	14.2	2.20e-06	0	43	0	797966336	62	5955
2026-01-29 10:31:53.97	309.99	46.63	-45.4	-48.8	15.2	0.00e+00	0	43	0	805306368	62	5291
2026-01-29 10:31:57.98	311.38	45.65	-45.9	-49.5	14.6	1.50e-06	0	43	0	813694976	62	5734
2026-01-29 10:32:02.04	312.69	44.66	-44.8	-47.8	16.2	0.00e+00	0	43	0	821035008	61	5010
2026-01-29 10:32:06.20	313.96	43.67	-46.4	-50.4	13.7	3.80e-06	0	43	0	828375040	63	6011
2026-01-29 10:32:10.19	315.10	42.72	-43.9	-46.6	17.3	0.00e+00	0	43	0	835715072	59	4926
2026-01-29 10:32:14.17	316.18	41.79	-44.0	-46.8	17.2	0.00e+00	0	43	0	844103680	60	4733
2026-01-29 10:32:18.42	317.27	40.81	-44.6	-47.6	16.4	0.00e+00	0	43	0	851443712	59	5505
2026-01-29 10:32:22.72	318.30	39.83	-45.0	-48.2	15.8	0.00e+00	0	43	0	859832320	60	5567
2026-01-29 10:32:26.73	319.21	38.94	-43.5	-46.0	17.9	0.00e+00	0	43	0	867172352	58	4854
2026-01-29 10:32:30.73	320.07	38.06	-45.5	-48.9	15.1	7.00e-07	0	43	0	874512384	63	5084
2026-01-29 10:32:34.72	320.89	37.20	-42.9	-45.4	18.5	0.00e+00	0	43	0	881852416	57	4781
2026-01-29 10:32:38.71	321.67	36.36	-43.0	-45.7	18.2	0.00e+00	0	43	0	889192448	57	4952
2026-01-29 10:32:42.69	322.40	35.53	-43.7	-46.7	17.2	0.00e+00	0	43	0	897581056	58	5270
2026-01-29 10:32:46.66	323.10	34.73	-43.0	-45.4	18.5	0.00e+00	0	43	0	904921088	57	4781
2026-01-29 10:32:50.64	323.77	33.93	-44.5	-47.4	16.6	0.00e+00	0	43	0	912261120	59	5352
2026-01-29 10:32:54.77	324.43	33.13	-45.1	-48.5	15.5	0.00e+00	0	43	0	919601152	61	5450
2026-01-29 10:32:58.78	325.04	32.36	-44.2	-47.2	16.8	0.00e+00	0	43	0	926941184	60	4968
2026-01-29 10:33:02.76	325.62	31.62	-44.9	-48.0	16.0	0.00e+00	0	43	0	934281216	60	5458
2026-01-29 10:33:06.75	326.18	30.89	-45.2	-48.6	15.4	0.00e+00	0	43	0	942669824	61	5496
2026-01-29 10:33:10.97	326.74	30.14	-45.1	-48.7	15.3	0.00e+00	0	43	0	950009856	61	5569
2026-01-29 10:33:14.95	327.25	29.44	-44.9	-48.3	15.7	0.00e+00	0	43	0	957349888	61	5298
2026-01-29 10:33:19.17	327.77	28.72	-44.4	-47.7	16.3	0.00e+00	0	43	0	965738496	60	5247
2026-01-29 10:33:23.23	328.25	28.03	-44.4	-47.5	16.5	0.00e+00	0	43	0	973078528	60	5116
2026-01-29 10:33:27.23	328.70	27.38	-44.5	-47.6	16.4	0.00e+00	0	43	0	980418560	60	5194
2026-01-29 10:33:31.22	329.13	26.74	-44.6	-47.9	16.1	0.00e+00	0	43	0	987758592	60	5380
2026-01-29 10:33:35.25	329.55	26.10	-43.9	-47.0	16.9	0.00e+00	0	43	0	996147200	59	5133
2026-01-29 10:33:39.26	329.95	25.49	-43.3	-46.2	17.7	0.00e+00	0	43	0	1003487232	58	4942
2026-01-29 10:33:43.26	330.34	24.88	-43.7	-46.6	17.3	0.00e+00	0	43	0	1010827264	58	5171
2026-01-29 10:33:47.27	330.71	24.29	-44.2	-47.1	16.8	0.00e+00	0	43	0	1018167296	59	5175
2026-01-29 10:33:51.31	331.08	23.71	-44.1	-47.0	16.9	0.00e+00	0	43	0	1025507328	59	5159
2026-01-29 10:33:55.22	331.42	23.15	-43.6	-46.3	17.6	0.00e+00	0	43	0	1032847360	59	4716
2026-01-29 10:33:59.20	331.75	22.60	-43.1	-45.7	18.1	0.00e+00	0	43	0	1040187392	58	4694
2026-01-29 10:34:03.28	332.09	22.04	-42.8	-45.5	18.3	0.00e+00	0	43	0	1048576000	57	4862
2026-01-29 10:34:07.19	332.39	21.52	-43.0	-45.8	18.0	0.00e+00	0	43	0	1055916032	57	4988
2026-01-29 10:34:11.17	332.70	21.00	-43.4	-46.0	17.8	0.00e+00	0	43	0	1063256064	57	5139
2026-01-29 10:34:15.15	332.99	20.49	-43.1	-45.7	18.1	0.00e+00	0	43	0	1070596096	57	4971
2026-01-29 10:34:19.20	333.28	19.98	-42.9	-45.5	18.3	0.00e+00	0	43	0	1077936128	57	4819
2026-01-29 10:34:23.16	333.56	19.49	-42.5	-45.0	18.7	0.00e+00	0	43	0	1085276160	57	4577
2026-01-29 10:34:27.17	333.83	19.00	-42.4	-44.9	18.8	0.00e+00	0	43	0	1092616192	56	4775
2026-01-29 10:34:31.66	334.12	18.47	-42.6	-45.1	18.6	0.00e+00	0	43	0	1101004800	56	4893
2026-01-29 10:34:35.64	334.37	18.00	-42.8	-45.3	18.4	0.00e+00	0	43	0	1109393408	56	5040
2026-01-29 10:34:39.62	334.62	17.55	-43.0	-45.6	18.1	0.00e+00	0	43	0	1116733440	56	5179
2026-01-29 10:34:43.76	334.87	17.08	-43.0	-45.6	18.0	0.00e+00	0	43	0	1124073472	56	5183
2026-01-29 10:34:47.96	335.11	16.61	-43.0	-45.5	18.2	0.00e+00	0	43	0	1132462080	56	5151
2026-01-29 10:34:51.94	335.34	16.18	-42.9	-45.4	18.3	0.00e+00	0	43	0	1139802112	56	5056
2026-01-29 10:34:56.13	335.57	15.73	-42.8	-45.3	18.5	0.00e+00	0	43	0	1147142144	56	4988
2026-01-29 10:35:00.11	335.78	15.31	-42.8	-45.4	18.3	0.00e+00	0	43	0	1154482176	56	5051
2026-01-29 10:35:04.16	335.99	14.90	-43.0	-45.6	18.1	0.00e+00	0	43	0	1162870784	56	5175
2026-01-29 10:35:08.24	336.20	14.48	-43.2	-45.8	17.9	0.00e+00	0	43	0	1170210816	56	5284
2026-01-29 10:35:12.20	336.40	14.08	-43.3	-45.9	17.7	0.00e+00	0	43	0	1177550848	57	5069
2026-01-29 10:35:16.18	336.59	13.69	-43.4	-46.2	17.5	0.00e+00	0	43	0	1184890880	57	5268
2026-01-29 10:35:20.18	336.78	13.30	-43.4	-46.3	17.4	0.00e+00	0	43	0	1192230912	57	5308
2026-01-29 10:35:24.16	336.96	12.92	-43.6	-46.5	17.2	0.00e+00	0	43	0	1199570944	57	5437
2026-01-29 10:35:28.14	337.14	12.55	-43.6	-46.6	17.1	0.00e+00	0	43	0	1206910976	57	5501
2026-01-29 10:35:32.12	337.32	12.18	-43.5	-46.6	17.1	0.00e+00	0	43	0	1215299584	57	5501
2026-01-29 10:35:36.10	337.49	11.82	-43.2	-46.4	17.2	0.00e+00	0	43	0	1222639616	57	5380
2026-01-29 10:35:40.17	337.66	11.45	-43.2	-46.4	17.2	0.00e+00	0	43	0	1229979648	57	5356
2026-01-29 10:35:44.68	337.85	11.05	-43.4	-46.3	17.3	0.00e+00	0	43	0	1238368256	57	5329
2026-01-29 10:35:48.69	338.01	10.70	-43.5	-46.4	17.1	0.00e+00	0	43	0	1245708288	57	5401
2026-01-29 10:35:52.68	338.17	10.36	-43.4	-46.5	17.0	0.00e+00	0	43	0	1253048320	57	5463
2026-01-29 10:35:56.84	338.33	10.00	-43.4	-46.5	17.1	0.00e+00	0	43	0	1261436928	57	5424
2026-01-29 10:36:00.89	338.48	9.66	-43.6	-46.6	17.0	0.00e+00	0	43	0	1268776960	57	5485
2026-01-29 10:36:04.88	338.63	9.33	-43.8	-46.8	16.7	0.00e+00	0	43	0	1276116992	58	5333
2026-01-29 10:36:08.92	338.78	9.00	-47.6	-56.8	7.4	7.00e-07	0	43	0	1283457024	65	11211
2026-01-29 10:36:13.17	338.93	8.66	-48.5	-64.6	3.8	1.49e+00	0	43	104	1284505600	68	23195
2026-01-29 10:36:17.24	339.07	8.33	-49.0	-64.6	3.8	1.49e+00	0	43	104	1284505600	69	21785
2026-01-29 10:36:21.50	339.21	8.00	-49.5	-64.7	3.8	1.49e+00	0	43	104	1284505600	69	22112
2026-01-29 10:36:25.60	339.35	7.68	-49.5	-64.8	3.8	1.49e+00	0	43	104	1284505600	69	22353
2026-01-29 10:36:29.57	339.48	7.37	-49.5	-64.8	3.8	1.49e+00	0	43	104	1284505600	69	22388
2026-01-29 10:36:33.56	339.61	7.07	-49.4	-64.8	3.8	1.49e+00	0	43	104	1284505600	69	22323
2026-01-29 10:36:37.55	339.74	6.77	-49.4	-64.8	3.8	1.49e+00	0	43	104	1284505600	69	22282
2026-01-29 10:36:41.52	339.86	6.48	-49.5	-64.7	3.8	1.49e+00	0	43	104	1284505600	69	22239
2026-01-29 10:36:45.51	339.99	6.19	-49.4	-64.8	3.8	1.49e+00	0	43	104	1284505600	69	22268
2026-01-29 10:36:49.49	340.11	5.90	-49.4	-64.7	3.8	1.49e+00	0	43	104	1284505600	69	22234
2026-01-29 10:36:53.49	340.22	5.61	-49.4	-64.7	3.8	1.49e+00	0	43	104	1284505600	69	22255
2026-01-29 10:36:57.49	340.34	5.33	-49.4	-64.8	3.8	1.49e+00	0	43	104	1284505600	69	22280
2026-01-29 10:37:01.47	340.46	5.05	-49.4	-64.7	3.8	1.49e+00	0	43	104	1284505600	69	22086

#Closed at: 2026-01-29 10:37:03
#Recorded file [1284 MB]: D:/Data/31040_260129_132411.dat