passes_logs/2026/01/29/T1/T1__20260129_063224_KHAYYAM_rec.log

#Pass ID: 20260129_063224_KHAYYAM
#Satellite: KHAYYAM
#Configuration: KHAYYAM_480M
#almurnet v.1.7.20251203
#Start time: 2026-01-29 06:32:25

#Version: 2.0.20230620
#Station: T1
#Location: 37.570604 lon 55.790049 lat
#TLE: 1 53370U 22096A   26027.95146228  .00008464  00000+0  34400-3 0  9996
#TLE: 2 53370  97.3551 294.7289 0002128 106.8144 253.3328 15.24796926193211

#Time	Az	El	Level	Level2	SNR	BER	BlckErr	Temp	State	Recorded	gain1	gain2
2026-01-29 06:32:25.94	111.13	5.12	-52.5	-57.2	3.5	0.00e+00	0	46	0	0	76	25094
2026-01-29 06:32:27.92	110.88	5.25	-53.5	-57.9	3.7	0.00e+00	0	46	104	0	77	25509
2026-01-29 06:32:29.91	110.62	5.38	-53.2	-57.8	3.7	0.00e+00	0	46	104	0	77	25297
2026-01-29 06:32:31.90	110.35	5.51	-53.0	-57.6	3.7	0.00e+00	0	46	104	0	77	24589
2026-01-29 06:32:33.88	110.09	5.65	-53.3	-57.9	3.7	0.00e+00	0	47	104	0	77	25549
2026-01-29 06:32:35.87	109.82	5.78	-53.2	-57.8	3.7	0.00e+00	0	47	104	0	77	25099
2026-01-29 06:32:37.86	109.55	5.91	-53.2	-57.8	3.7	0.00e+00	0	47	104	0	77	25327
2026-01-29 06:32:39.84	109.27	6.05	-53.2	-57.8	3.7	0.00e+00	0	47	104	0	77	25157
2026-01-29 06:32:41.83	108.99	6.18	-53.0	-57.6	3.7	0.00e+00	0	47	104	0	77	24757
2026-01-29 06:32:43.82	108.71	6.32	-52.7	-57.2	3.7	0.00e+00	0	47	104	0	77	23601
2026-01-29 06:32:45.80	108.43	6.45	-52.7	-57.2	3.7	0.00e+00	0	47	104	0	77	23590
2026-01-29 06:32:47.79	108.14	6.58	-52.7	-57.2	3.7	0.00e+00	0	48	104	0	77	23555
2026-01-29 06:32:49.78	107.85	6.72	-52.7	-57.2	3.7	0.00e+00	0	48	104	0	77	23540
2026-01-29 06:32:51.76	107.55	6.86	-52.7	-57.2	3.7	0.00e+00	0	48	104	0	77	23579
2026-01-29 06:32:53.75	107.25	6.99	-52.7	-57.2	3.7	0.00e+00	0	48	104	0	77	23508
2026-01-29 06:32:55.74	106.95	7.13	-52.7	-57.2	3.7	0.00e+00	0	48	104	0	77	23479
2026-01-29 06:32:57.72	106.64	7.27	-52.7	-57.2	3.7	0.00e+00	0	48	104	0	77	23530
2026-01-29 06:32:59.71	106.33	7.40	-52.6	-57.2	3.7	0.00e+00	0	48	104	0	77	23473
2026-01-29 06:33:01.69	106.02	7.54	-52.6	-57.2	3.7	0.00e+00	0	49	104	0	77	23538
2026-01-29 06:33:03.68	105.70	7.68	-52.6	-57.2	3.7	0.00e+00	0	48	104	0	77	23527
2026-01-29 06:33:05.67	105.38	7.82	-52.7	-57.2	3.7	0.00e+00	0	49	104	0	77	23519
2026-01-29 06:33:07.65	105.06	7.96	-52.7	-57.2	3.7	0.00e+00	0	49	104	0	77	23479
2026-01-29 06:33:09.64	104.73	8.10	-52.6	-57.2	3.7	0.00e+00	0	49	104	0	77	23449
2026-01-29 06:33:11.63	104.39	8.24	-52.6	-57.2	3.7	0.00e+00	0	49	104	0	77	23440
2026-01-29 06:33:13.61	104.06	8.38	-52.6	-57.2	3.7	0.00e+00	0	49	104	0	77	23445
2026-01-29 06:33:15.60	103.71	8.52	-52.6	-57.2	3.7	0.00e+00	0	49	104	0	77	23475
2026-01-29 06:33:17.59	103.37	8.66	-52.6	-57.1	3.7	0.00e+00	0	49	104	0	77	23394
2026-01-29 06:33:19.58	103.02	8.80	-52.6	-57.2	3.7	0.00e+00	0	49	104	0	77	23443
2026-01-29 06:33:21.56	102.66	8.94	-52.6	-57.2	3.7	0.00e+00	0	49	104	0	77	23479
2026-01-29 06:33:23.55	102.30	9.08	-52.7	-57.2	3.7	0.00e+00	0	49	104	0	77	23540
2026-01-29 06:33:25.54	101.94	9.22	-52.6	-57.1	3.7	0.00e+00	0	49	104	0	77	23399
2026-01-29 06:33:27.53	101.57	9.36	-52.6	-57.1	3.7	0.00e+00	0	49	104	0	77	23317
2026-01-29 06:33:29.52	101.20	9.50	-52.6	-57.1	3.7	0.00e+00	0	49	104	0	77	23363
2026-01-29 06:33:31.51	100.82	9.64	-52.5	-57.1	3.7	0.00e+00	0	50	104	0	77	23316
2026-01-29 06:33:33.50	100.44	9.78	-52.7	-57.2	3.7	0.00e+00	0	50	104	0	77	23439
2026-01-29 06:33:35.49	100.05	9.93	-52.8	-57.2	3.7	0.00e+00	0	50	104	0	77	23590
2026-01-29 06:33:37.48	99.66	10.07	-52.7	-57.2	3.7	0.00e+00	0	50	104	0	77	23585
2026-01-29 06:33:39.47	99.27	10.21	-52.7	-57.2	3.7	0.00e+00	0	50	104	0	77	23478
2026-01-29 06:33:41.46	98.87	10.35	-52.6	-57.2	3.7	0.00e+00	0	50	104	0	77	23576
2026-01-29 06:33:43.45	98.46	10.49	-52.8	-57.3	3.7	0.00e+00	0	50	104	0	77	23804
2026-01-29 06:33:45.44	98.05	10.63	-52.8	-57.3	3.7	0.00e+00	0	50	104	0	77	23697
2026-01-29 06:33:47.42	97.64	10.78	-52.8	-57.3	3.7	0.00e+00	0	50	104	0	77	23708
2026-01-29 06:33:49.41	97.22	10.92	-52.5	-57.0	3.7	0.00e+00	0	50	104	0	76	24345
2026-01-29 06:33:51.41	96.79	11.06	-52.5	-57.0	3.7	0.00e+00	0	50	104	0	76	24469
2026-01-29 06:33:53.46	96.34	11.20	-52.8	-57.2	3.7	0.00e+00	0	50	104	0	76	25020
2026-01-29 06:33:55.48	95.90	11.35	-52.7	-57.2	3.7	0.00e+00	0	50	104	0	76	24944
2026-01-29 06:33:57.47	95.46	11.49	-52.7	-57.2	3.7	0.00e+00	0	50	104	0	76	24866
2026-01-29 06:33:59.46	95.02	11.63	-52.7	-57.2	3.7	0.00e+00	0	50	104	0	76	24872
2026-01-29 06:34:01.46	94.56	11.77	-52.9	-57.3	3.7	0.00e+00	0	50	104	0	76	25243
2026-01-29 06:34:03.45	94.10	11.91	-52.8	-57.3	3.7	0.00e+00	0	50	104	0	76	25166
2026-01-29 06:34:05.44	93.64	12.04	-52.7	-57.2	3.7	0.00e+00	0	50	104	0	76	24973
2026-01-29 06:34:07.43	93.17	12.18	-52.7	-57.2	3.7	0.00e+00	0	50	104	0	76	24833
2026-01-29 06:34:09.42	92.70	12.32	-52.6	-57.2	3.7	0.00e+00	0	51	104	0	76	25001
2026-01-29 06:34:11.40	92.23	12.46	-52.7	-57.3	3.7	0.00e+00	0	50	104	0	76	25161
2026-01-29 06:34:13.39	91.74	12.59	-52.6	-57.2	3.7	0.00e+00	0	51	104	0	76	24938
2026-01-29 06:34:15.38	91.25	12.73	-52.7	-57.3	3.7	0.00e+00	0	50	104	0	76	25197
2026-01-29 06:34:17.37	90.76	12.86	-52.6	-57.3	3.7	0.00e+00	0	50	104	0	76	25112
2026-01-29 06:34:19.36	90.26	13.00	-52.5	-57.2	3.7	0.00e+00	0	50	104	0	76	24923
2026-01-29 06:34:21.35	89.75	13.13	-52.2	-57.1	3.7	0.00e+00	0	50	104	0	76	24593
2026-01-29 06:34:23.34	89.24	13.26	-52.2	-57.0	3.7	0.00e+00	0	51	104	0	76	24427
2026-01-29 06:34:25.33	88.72	13.39	-52.2	-57.1	3.7	0.00e+00	0	51	104	0	76	24555
2026-01-29 06:34:27.32	88.20	13.52	-52.4	-57.2	3.7	0.00e+00	0	50	104	0	76	24825
2026-01-29 06:34:29.31	87.67	13.65	-52.4	-57.1	3.7	0.00e+00	0	50	104	0	76	24689
2026-01-29 06:34:31.30	87.14	13.78	-52.2	-57.0	3.7	0.00e+00	0	50	104	0	76	24523
2026-01-29 06:34:33.49	86.55	13.92	-51.6	-56.4	3.7	0.00e+00	0	50	104	0	75	24159
2026-01-29 06:34:35.48	86.00	14.05	-51.8	-56.7	3.7	0.00e+00	0	51	104	0	75	25020
2026-01-29 06:34:37.74	85.37	14.19	-51.8	-56.6	3.7	0.00e+00	0	51	104	0	75	24728
2026-01-29 06:34:39.73	84.82	14.31	-51.8	-56.4	3.7	0.00e+00	0	51	104	0	75	24119
2026-01-29 06:34:41.72	84.25	14.43	-51.8	-56.4	3.7	0.00e+00	0	51	104	0	75	23991
2026-01-29 06:34:43.71	83.69	14.55	-51.5	-56.5	3.7	0.00e+00	0	51	104	0	74	25962
2026-01-29 06:34:45.75	83.10	14.67	-51.9	-56.7	3.7	0.00e+00	0	51	104	0	74	26449
2026-01-29 06:34:47.75	82.52	14.78	-52.1	-56.8	3.7	0.00e+00	0	51	104	0	74	26783
2026-01-29 06:34:49.74	81.93	14.90	-52.2	-56.9	3.7	0.00e+00	0	51	104	0	75	25581
2026-01-29 06:34:51.73	81.34	15.01	-52.1	-56.9	3.7	0.00e+00	0	51	104	0	75	25677
2026-01-29 06:34:53.77	80.73	15.12	-52.1	-56.9	3.7	0.00e+00	0	51	104	0	75	25610
2026-01-29 06:34:55.76	80.13	15.23	-52.6	-57.2	3.7	0.00e+00	0	51	104	0	75	26384
2026-01-29 06:34:57.75	79.53	15.34	-52.7	-57.4	3.7	0.00e+00	0	51	104	0	76	25506
2026-01-29 06:34:59.74	78.92	15.44	-52.7	-57.3	3.7	0.00e+00	0	51	104	0	76	25115
2026-01-29 06:35:01.73	78.30	15.54	-52.7	-57.3	3.7	0.00e+00	0	51	104	0	76	25109
2026-01-29 06:35:03.71	77.68	15.64	-52.9	-57.5	3.7	0.00e+00	0	51	104	0	76	25725
2026-01-29 06:35:05.70	77.06	15.73	-52.9	-57.5	3.7	0.00e+00	0	51	104	0	76	25781
2026-01-29 06:35:07.71	76.42	15.83	-52.5	-57.2	3.7	0.00e+00	0	51	104	0	76	24942
2026-01-29 06:35:09.70	75.79	15.92	-52.5	-57.2	3.7	0.00e+00	0	51	104	0	76	25089
2026-01-29 06:35:12.00	75.05	16.02	-53.0	-57.6	3.7	0.00e+00	0	51	104	0	76	26077
2026-01-29 06:35:13.99	74.41	16.11	-53.0	-57.6	3.7	0.00e+00	0	51	104	0	76	26048
2026-01-29 06:35:16.00	73.75	16.19	-52.8	-57.4	3.7	0.00e+00	0	51	104	0	76	25592
2026-01-29 06:35:17.99	73.10	16.27	-52.8	-57.4	3.7	0.00e+00	0	51	104	0	76	25461
2026-01-29 06:35:20.06	72.42	16.35	-53.0	-57.5	3.7	0.00e+00	0	51	104	0	76	25928
2026-01-29 06:35:22.04	71.76	16.42	-53.0	-57.5	3.7	0.00e+00	0	51	104	0	76	25918
2026-01-29 06:35:24.15	71.06	16.50	-52.7	-57.3	3.7	0.00e+00	0	51	104	0	76	25298
2026-01-29 06:35:26.21	70.36	16.57	-52.4	-57.1	3.7	0.00e+00	0	51	104	0	76	24565
2026-01-29 06:35:28.24	69.68	16.63	-52.9	-57.4	3.7	0.00e+00	0	51	104	0	76	25535
2026-01-29 06:35:30.27	68.99	16.69	-53.0	-57.4	3.7	0.00e+00	0	51	104	0	76	25606
2026-01-29 06:35:32.26	68.31	16.75	-53.0	-57.3	3.7	0.00e+00	0	51	104	0	76	25315
2026-01-29 06:35:34.26	67.63	16.80	-53.0	-57.5	3.7	0.00e+00	0	51	104	0	76	25751
2026-01-29 06:35:36.28	66.93	16.85	-52.6	-57.3	3.7	0.00e+00	0	51	104	0	76	25137
2026-01-29 06:35:38.29	66.24	16.90	-52.5	-57.3	3.7	0.00e+00	0	51	104	0	76	25127
2026-01-29 06:35:40.29	65.55	16.94	-53.0	-57.5	3.7	0.00e+00	0	51	104	0	76	25902
2026-01-29 06:35:42.28	64.86	16.98	-53.0	-57.5	3.7	0.00e+00	0	51	104	0	76	25859
2026-01-29 06:35:44.27	64.17	17.02	-52.8	-57.4	3.7	0.00e+00	0	51	104	0	76	25593
2026-01-29 06:35:46.50	63.39	17.05	-52.9	-57.5	3.7	0.00e+00	0	51	104	0	76	25772
2026-01-29 06:35:48.49	62.69	17.08	-53.0	-57.4	3.7	0.00e+00	0	51	104	0	76	25603
2026-01-29 06:35:50.49	61.99	17.11	-53.0	-57.5	3.7	0.00e+00	0	51	104	0	76	25759
2026-01-29 06:35:52.49	61.29	17.13	-52.9	-57.5	3.7	0.00e+00	0	51	104	0	76	25703
2026-01-29 06:35:54.48	60.59	17.14	-52.8	-57.3	3.7	0.00e+00	0	51	104	0	76	25278
2026-01-29 06:35:56.47	59.89	17.16	-52.6	-57.3	3.7	0.00e+00	0	51	104	0	76	25346
2026-01-29 06:35:58.64	59.13	17.17	-52.7	-57.4	3.7	0.00e+00	0	51	104	0	76	25392
2026-01-29 06:36:00.62	58.43	17.17	-53.0	-57.5	3.7	0.00e+00	0	51	104	0	76	25711
2026-01-29 06:36:02.72	57.69	17.17	-53.0	-57.5	3.7	0.00e+00	0	51	104	0	76	25686
2026-01-29 06:36:04.78	56.96	17.17	-52.9	-57.5	3.7	0.00e+00	0	51	104	0	76	25879
2026-01-29 06:36:06.77	56.26	17.16	-53.0	-57.5	3.7	0.00e+00	0	51	104	0	76	25950
2026-01-29 06:36:08.75	55.56	17.15	-52.9	-57.5	3.7	0.00e+00	0	51	104	0	76	25808
2026-01-29 06:36:10.78	54.85	17.13	-52.8	-57.4	3.7	0.00e+00	0	51	104	0	76	25661
2026-01-29 06:36:12.77	54.15	17.12	-52.8	-57.5	3.7	0.00e+00	0	51	104	0	76	25805
2026-01-29 06:36:14.75	53.46	17.09	-52.8	-57.4	3.7	0.00e+00	0	51	104	0	76	25609
2026-01-29 06:36:16.75	52.76	17.07	-52.7	-57.3	3.7	0.00e+00	0	51	104	0	76	25282
2026-01-29 06:36:18.74	52.06	17.04	-52.6	-57.3	3.7	0.00e+00	0	51	104	0	76	25248
2026-01-29 06:36:20.74	51.37	17.00	-52.7	-57.3	3.7	0.00e+00	0	51	104	0	76	25243
2026-01-29 06:36:22.79	50.66	16.97	-52.8	-57.3	3.7	0.00e+00	0	51	104	0	76	25381
2026-01-29 06:36:24.78	49.97	16.93	-52.8	-57.4	3.7	0.00e+00	0	51	104	0	76	25442
2026-01-29 06:36:26.77	49.28	16.88	-52.6	-57.2	3.7	0.00e+00	0	51	104	0	76	25019
2026-01-29 06:36:28.76	48.60	16.83	-52.7	-57.3	3.7	0.00e+00	0	51	104	0	76	25131
2026-01-29 06:36:30.77	47.91	16.78	-52.9	-57.4	3.7	0.00e+00	0	51	104	0	76	25403
2026-01-29 06:36:32.76	47.23	16.73	-52.7	-57.1	3.7	0.00e+00	0	51	104	0	76	24628
2026-01-29 06:36:34.75	46.56	16.67	-52.5	-57.1	3.7	0.00e+00	0	51	104	0	76	24614
2026-01-29 06:36:36.75	45.88	16.61	-52.6	-57.3	3.7	0.00e+00	0	51	104	0	76	25209
2026-01-29 06:36:38.76	45.21	16.54	-52.5	-56.8	3.7	0.00e+00	0	51	104	0	76	23903
2026-01-29 06:36:40.76	44.54	16.47	-52.1	-56.0	3.7	0.00e+00	0	51	104	0	76	21707
2026-01-29 06:36:42.78	43.87	16.40	-52.5	-56.5	3.7	0.00e+00	0	51	104	0	76	23122
2026-01-29 06:36:44.80	43.20	16.33	-52.5	-56.6	3.7	0.00e+00	0	51	104	0	76	23377
2026-01-29 06:36:46.79	42.55	16.25	-52.4	-56.6	3.7	0.00e+00	0	51	104	0	76	23383
2026-01-29 06:36:48.76	41.90	16.17	-52.5	-57.0	3.7	0.00e+00	0	51	104	0	76	24522
2026-01-29 06:36:50.75	41.26	16.09	-52.7	-57.2	3.7	0.00e+00	0	51	104	0	76	24906
2026-01-29 06:36:52.93	40.56	15.99	-52.7	-57.2	3.7	0.00e+00	0	51	104	0	76	24821
2026-01-29 06:36:54.92	39.92	15.90	-52.7	-57.2	3.7	0.00e+00	0	51	104	0	76	24854
2026-01-29 06:36:56.90	39.29	15.81	-52.0	-55.5	3.7	0.00e+00	0	51	104	0	76	20578
2026-01-29 06:36:58.89	38.67	15.72	-52.1	-55.8	3.7	0.00e+00	0	51	104	0	74	23885
2026-01-29 06:37:00.88	38.04	15.62	-51.0	-54.1	3.8	0.00e+00	0	51	104	0	74	19520
2026-01-29 06:37:02.87	37.43	15.52	-50.3	-53.1	3.9	0.00e+00	0	51	104	0	72	19552
2026-01-29 06:37:05.00	36.77	15.42	-51.2	-54.4	3.8	0.00e+00	0	51	104	0	73	21385
2026-01-29 06:37:07.00	36.16	15.31	-50.9	-53.9	3.8	0.00e+00	0	51	104	0	72	21498
2026-01-29 06:37:08.99	35.56	15.21	-52.4	-56.4	3.7	0.00e+00	0	51	104	0	75	23982
2026-01-29 06:37:10.99	34.96	15.10	-51.4	-55.3	3.7	0.00e+00	0	51	104	0	74	22521
2026-01-29 06:37:12.98	34.37	14.99	-51.0	-55.0	3.7	0.00e+00	0	51	104	0	73	22993
2026-01-29 06:37:14.97	33.79	14.88	-52.0	-56.0	3.7	0.00e+00	0	51	104	0	74	24348
2026-01-29 06:37:17.06	33.18	14.76	-52.4	-56.7	3.7	0.00e+00	0	51	104	0	75	24983
2026-01-29 06:37:19.14	32.58	14.64	-52.0	-56.0	3.7	0.00e+00	0	51	104	0	75	23013
2026-01-29 06:37:21.14	32.01	14.52	-51.7	-56.2	3.7	0.00e+00	0	51	104	0	75	23632
2026-01-29 06:37:23.14	31.44	14.40	-51.2	-56.4	3.7	0.00e+00	0	51	104	0	74	25610
2026-01-29 06:37:25.13	30.88	14.28	-51.7	-56.7	3.7	0.00e+00	0	51	104	0	74	26392
2026-01-29 06:37:27.13	30.33	14.16	-52.3	-56.3	3.7	0.00e+00	0	51	104	0	75	23728
2026-01-29 06:37:29.17	29.77	14.03	-52.5	-56.7	3.7	0.00e+00	0	51	104	0	75	25044
2026-01-29 06:37:31.16	29.22	13.91	-52.1	-56.9	3.7	0.00e+00	0	51	104	0	75	25394
2026-01-29 06:37:33.15	28.69	13.78	-51.9	-56.8	3.7	0.00e+00	0	51	104	0	75	25174
2026-01-29 06:37:35.14	28.16	13.65	-51.2	-56.1	3.7	0.00e+00	0	51	104	0	74	24656
2026-01-29 06:37:37.13	27.63	13.52	-51.0	-56.1	3.7	0.00e+00	0	51	104	0	74	24581
2026-01-29 06:37:39.12	27.12	13.39	-51.3	-56.5	3.7	0.00e+00	0	51	104	0	74	25683
2026-01-29 06:37:41.10	26.60	13.26	-51.2	-56.1	3.7	0.00e+00	0	51	104	0	74	24586
2026-01-29 06:37:43.09	26.10	13.13	-51.6	-56.1	3.7	0.00e+00	0	51	104	0	74	24741
2026-01-29 06:37:45.18	25.57	12.99	-51.7	-56.3	3.7	0.00e+00	0	51	104	0	74	25224
2026-01-29 06:37:47.17	25.07	12.86	-50.9	-56.1	3.7	0.00e+00	0	51	104	0	73	26103
2026-01-29 06:37:49.22	24.57	12.72	-50.2	-55.7	3.7	0.00e+00	0	51	104	0	72	26356
2026-01-29 06:37:51.28	24.07	12.58	-51.2	-56.2	3.7	0.00e+00	0	51	104	0	73	26561
2026-01-29 06:37:53.27	23.59	12.45	-51.9	-56.8	3.7	0.00e+00	0	51	104	0	74	26679
2026-01-29 06:37:55.26	23.11	12.31	-51.9	-56.8	3.7	0.00e+00	0	51	104	0	75	25261
2026-01-29 06:37:57.33	22.62	12.17	-51.9	-56.6	3.7	0.00e+00	0	51	104	0	75	24637
2026-01-29 06:37:59.55	22.11	12.01	-52.3	-56.9	3.7	0.00e+00	0	51	104	0	75	25655
2026-01-29 06:38:01.56	21.65	11.87	-51.5	-56.5	3.7	0.00e+00	0	51	104	0	75	24436
2026-01-29 06:38:03.56	21.19	11.73	-51.2	-56.4	3.7	0.00e+00	0	51	104	0	74	25387
2026-01-29 06:38:05.55	20.75	11.60	-49.3	-54.6	3.7	0.00e+00	0	51	104	0	70	26197
2026-01-29 06:38:07.55	20.30	11.46	-49.1	-54.4	3.7	0.00e+00	0	51	104	0	70	25405
2026-01-29 06:38:09.58	19.86	11.31	-48.8	-54.1	3.7	0.00e+00	0	51	104	0	69	25996
2026-01-29 06:38:11.57	19.43	11.17	-49.2	-54.8	3.7	0.00e+00	0	52	104	0	69	28364
2026-01-29 06:38:13.58	19.00	11.03	-49.6	-54.8	3.7	0.00e+00	0	51	104	0	71	25197
2026-01-29 06:38:15.59	18.57	10.89	-49.7	-54.9	3.7	0.00e+00	0	51	104	0	70	27125
2026-01-29 06:38:17.58	18.16	10.75	-50.8	-55.5	3.7	0.00e+00	0	51	104	0	72	25944
2026-01-29 06:38:19.57	17.75	10.61	-51.0	-55.7	3.7	0.00e+00	0	51	104	0	72	26478
2026-01-29 06:38:21.57	17.34	10.47	-52.0	-56.5	3.7	0.00e+00	0	51	104	0	74	25952
2026-01-29 06:38:23.59	16.93	10.32	-51.7	-56.6	3.7	0.00e+00	0	51	104	0	74	26097
2026-01-29 06:38:25.79	16.49	10.17	-51.2	-56.4	3.7	0.00e+00	0	51	104	0	74	25437
2026-01-29 06:38:28.03	16.06	10.01	-50.5	-55.9	3.7	0.00e+00	0	51	104	0	73	25614
2026-01-29 06:38:30.02	15.67	9.87	-49.4	-55.1	3.7	0.00e+00	0	51	104	0	70	27669
2026-01-29 06:38:32.02	15.29	9.73	-49.3	-55.1	3.7	0.00e+00	0	51	104	0	70	27808
2026-01-29 06:38:34.03	14.91	9.59	-49.1	-55.1	3.7	0.00e+00	0	51	104	0	70	27570
2026-01-29 06:38:36.02	14.54	9.45	-49.2	-55.1	3.7	0.00e+00	0	51	104	0	70	27634
2026-01-29 06:38:38.01	14.17	9.30	-49.7	-55.5	3.7	0.00e+00	0	51	104	0	70	29087
2026-01-29 06:38:40.11	13.79	9.16	-49.8	-55.5	3.7	0.00e+00	0	51	104	0	70	29081
2026-01-29 06:38:42.26	13.40	9.00	-50.4	-56.1	3.7	0.00e+00	0	51	104	0	71	29456
2026-01-29 06:38:44.48	13.01	8.85	-52.8	-57.4	3.7	0.00e+00	0	51	104	0	76	25530
2026-01-29 06:38:46.53	12.65	8.70	-51.7	-56.7	3.7	0.00e+00	0	51	104	0	75	24987
2026-01-29 06:38:48.58	12.30	8.56	-51.7	-56.4	3.7	0.00e+00	0	52	104	0	73	27035
2026-01-29 06:38:50.56	11.96	8.42	-52.6	-57.4	3.7	0.00e+00	0	51	104	0	76	25665
2026-01-29 06:38:52.56	11.62	8.28	-53.2	-57.8	3.7	0.00e+00	0	51	104	0	77	25296
2026-01-29 06:38:54.55	11.29	8.14	-53.4	-57.9	3.7	0.00e+00	0	51	104	0	77	25400
2026-01-29 06:38:56.54	10.96	8.00	-53.0	-57.6	3.7	0.00e+00	0	51	104	0	77	24691
2026-01-29 06:38:58.52	10.64	7.87	-53.4	-58.0	3.7	0.00e+00	0	51	104	0	78	24373
2026-01-29 06:39:00.51	10.32	7.73	-53.5	-58.0	3.7	0.00e+00	0	51	104	0	77	25708
2026-01-29 06:39:02.50	10.01	7.59	-53.0	-57.8	3.7	0.00e+00	0	51	104	0	77	25207
2026-01-29 06:39:04.50	9.69	7.45	-53.0	-57.8	3.7	0.00e+00	0	51	104	0	77	25228
2026-01-29 06:39:06.55	9.37	7.31	-53.2	-57.9	3.7	0.00e+00	0	51	104	0	77	25407
2026-01-29 06:39:08.55	9.07	7.18	-53.3	-57.7	3.7	0.00e+00	0	51	104	0	77	25057
2026-01-29 06:39:10.54	8.77	7.04	-53.0	-57.6	3.7	0.00e+00	0	51	104	0	77	24541
2026-01-29 06:39:12.53	8.47	6.90	-52.7	-57.5	3.7	0.00e+00	0	51	104	0	76	25811
2026-01-29 06:39:14.51	8.18	6.77	-52.7	-57.6	3.7	0.00e+00	0	51	104	0	76	26214
2026-01-29 06:39:16.50	7.89	6.63	-53.0	-57.6	3.7	0.00e+00	0	51	104	0	76	26252
2026-01-29 06:39:18.49	7.60	6.50	-52.6	-56.6	3.7	0.00e+00	0	51	104	0	77	21984
2026-01-29 06:39:20.49	7.32	6.36	-52.6	-56.7	3.7	0.00e+00	0	51	104	0	76	23625
2026-01-29 06:39:22.48	7.04	6.23	-51.6	-55.2	3.7	0.00e+00	0	51	104	0	75	20873
2026-01-29 06:39:24.46	6.77	6.10	-51.6	-55.1	3.7	0.00e+00	0	51	104	0	75	20834
2026-01-29 06:39:26.45	6.49	5.96	-51.5	-55.1	3.7	0.00e+00	0	51	104	0	75	20705
2026-01-29 06:39:28.45	6.22	5.83	-51.5	-55.1	3.7	0.00e+00	0	51	104	0	75	20682
2026-01-29 06:39:30.44	5.96	5.70	-51.5	-55.0	3.7	0.00e+00	0	51	104	0	74	21794
2026-01-29 06:39:32.43	5.69	5.57	-51.5	-55.0	3.7	0.00e+00	0	51	104	0	74	21814
2026-01-29 06:39:34.43	5.43	5.43	-51.4	-55.0	3.7	0.00e+00	0	51	104	0	74	21735
2026-01-29 06:39:36.42	5.17	5.30	-51.5	-55.1	3.7	0.00e+00	0	51	104	0	74	21877
2026-01-29 06:39:38.41	4.92	5.17	-51.4	-55.0	3.7	0.00e+00	0	52	104	0	74	21804
2026-01-29 06:39:40.41	4.67	5.04	-51.4	-55.0	3.7	0.00e+00	0	51	104	0	74	21742

#Closed at: 2026-01-29 06:39:42
#Recorded file [0 MB]: D:/Data/31040_260129_093225.dat