passes_logs/2026/01/29/T1/T1__20260129_205836_KHAYYAM_rec.log

#Pass ID: 20260129_205836_KHAYYAM
#Satellite: KHAYYAM
#Configuration: KHAYYAM_480M
#almurnet v.1.7.20251203
#Start time: 2026-01-29 20:58:37

#Version: 2.0.20230620
#Station: T1
#Location: 37.570604 lon 55.790049 lat
#TLE: 1 53370U 22096A   26029.00144910  .00009380  00000+0  38064-3 0  9998
#TLE: 2 53370  97.3553 295.7600 0002185 106.4357 253.7122 15.24818060193373

#Time	Az	El	Level	Level2	SNR	BER	BlckErr	Temp	State	Recorded	gain1	gain2
2026-01-29 20:58:37.43	18.93	5.10	-52.7	-57.3	3.6	0.00e+00	0	45	0	0	76	25321
2026-01-29 20:58:39.42	19.01	5.26	-52.9	-57.5	3.6	0.00e+00	0	45	104	0	76	25779
2026-01-29 20:58:41.41	19.09	5.42	-52.5	-57.2	3.7	0.00e+00	0	46	104	0	76	24914
2026-01-29 20:58:43.40	19.16	5.58	-52.7	-57.4	3.7	0.00e+00	0	46	104	0	76	25448
2026-01-29 20:58:45.39	19.24	5.75	-52.7	-57.4	3.7	0.00e+00	0	46	104	0	76	25400
2026-01-29 20:58:47.39	19.32	5.91	-52.4	-56.6	3.7	0.00e+00	0	46	104	0	76	23260
2026-01-29 20:58:49.38	19.41	6.08	-51.9	-56.2	3.7	0.00e+00	0	47	104	0	75	23683
2026-01-29 20:58:51.37	19.49	6.25	-50.3	-54.3	3.7	0.00e+00	0	47	104	0	72	22458
2026-01-29 20:58:53.37	19.57	6.42	-51.5	-56.2	3.7	0.00e+00	0	47	104	0	74	25026
2026-01-29 20:58:55.36	19.66	6.59	-48.7	-54.3	3.7	0.00e+00	0	47	104	0	69	26642
2026-01-29 20:58:57.35	19.74	6.76	-48.6	-54.3	3.7	0.00e+00	0	47	104	0	69	26748
2026-01-29 20:58:59.35	19.83	6.93	-48.6	-54.3	3.7	0.00e+00	0	47	104	0	69	26836
2026-01-29 20:59:01.34	19.92	7.11	-48.6	-54.3	3.7	0.00e+00	0	47	104	0	69	26781
2026-01-29 20:59:03.33	20.01	7.29	-48.7	-54.3	3.7	0.00e+00	0	47	104	0	69	26852
2026-01-29 20:59:05.33	20.10	7.46	-48.6	-54.4	3.7	0.00e+00	0	48	104	0	69	26923
2026-01-29 20:59:07.32	20.19	7.64	-48.7	-54.3	3.7	0.00e+00	0	48	104	0	69	26856
2026-01-29 20:59:09.31	20.29	7.83	-48.7	-54.4	3.7	0.00e+00	0	48	104	0	69	26936
2026-01-29 20:59:11.31	20.38	8.01	-48.7	-54.4	3.7	0.00e+00	0	48	104	0	69	26979
2026-01-29 20:59:13.30	20.48	8.20	-48.6	-54.3	3.7	0.00e+00	0	48	104	0	69	26740
2026-01-29 20:59:15.29	20.58	8.38	-48.7	-54.3	3.7	0.00e+00	0	48	104	0	69	26719
2026-01-29 20:59:17.29	20.67	8.57	-48.7	-54.4	3.7	0.00e+00	0	48	104	0	69	26980
2026-01-29 20:59:19.29	20.78	8.77	-48.6	-54.3	3.7	0.00e+00	0	48	104	0	69	26711
2026-01-29 20:59:21.28	20.88	8.96	-48.6	-54.3	3.7	0.00e+00	0	48	104	0	69	26856
2026-01-29 20:59:23.28	20.98	9.15	-48.7	-54.3	3.7	0.00e+00	0	49	104	0	69	26832
2026-01-29 20:59:25.28	21.09	9.35	-48.5	-54.3	3.7	0.00e+00	0	49	104	0	69	26604
2026-01-29 20:59:27.27	21.19	9.55	-48.3	-54.2	3.7	0.00e+00	0	49	104	0	68	27892
2026-01-29 20:59:29.27	21.30	9.75	-48.6	-54.1	3.7	0.00e+00	0	49	104	0	68	27777
2026-01-29 20:59:31.28	21.42	9.96	-48.9	-54.4	3.7	0.00e+00	0	49	104	0	68	28630
2026-01-29 20:59:33.28	21.53	10.17	-48.5	-54.2	3.7	0.00e+00	0	49	104	0	68	28010
2026-01-29 20:59:35.28	21.64	10.37	-48.9	-54.4	3.7	0.00e+00	0	49	104	0	68	28527
2026-01-29 20:59:37.28	21.76	10.59	-49.2	-54.8	3.7	0.00e+00	0	49	104	0	69	28257
2026-01-29 20:59:39.29	21.88	10.80	-49.8	-55.1	3.7	0.00e+00	0	49	104	0	70	27585
2026-01-29 20:59:41.29	22.00	11.02	-51.0	-55.8	3.7	0.00e+00	0	49	104	0	72	26804
2026-01-29 20:59:43.29	22.12	11.23	-51.7	-56.3	3.7	0.00e+00	0	49	104	0	74	25172
2026-01-29 20:59:45.29	22.25	11.46	-51.8	-56.5	3.7	0.00e+00	0	49	104	0	74	25951
2026-01-29 20:59:47.29	22.37	11.68	-51.9	-56.6	3.7	0.00e+00	0	49	104	0	74	26276
2026-01-29 20:59:49.30	22.50	11.91	-51.8	-56.3	3.7	0.00e+00	0	49	104	0	74	25374
2026-01-29 20:59:51.31	22.64	12.14	-51.7	-56.4	3.7	0.00e+00	0	49	104	0	74	25653
2026-01-29 20:59:53.31	22.77	12.37	-51.8	-56.6	3.7	0.00e+00	0	49	104	0	74	26005
2026-01-29 20:59:55.31	22.91	12.60	-51.7	-56.4	3.7	0.00e+00	0	49	104	0	74	25527
2026-01-29 20:59:57.31	23.04	12.84	-51.5	-56.4	3.7	0.00e+00	0	50	104	0	74	25646
2026-01-29 20:59:59.31	23.19	13.08	-51.4	-56.4	3.7	0.00e+00	0	50	104	0	74	25600
2026-01-29 21:00:01.32	23.33	13.33	-51.1	-56.1	3.7	0.00e+00	0	49	104	0	74	24582
2026-01-29 21:00:03.32	23.48	13.57	-51.2	-56.1	3.7	0.00e+00	0	50	104	0	73	26181
2026-01-29 21:00:05.32	23.63	13.82	-50.9	-56.0	3.7	0.00e+00	0	50	104	0	72	27412
2026-01-29 21:00:07.33	23.78	14.08	-51.0	-55.8	3.7	0.00e+00	0	50	104	0	72	26670
2026-01-29 21:00:09.33	23.94	14.34	-51.2	-56.1	3.7	0.00e+00	0	50	104	0	72	27817
2026-01-29 21:00:11.33	24.10	14.60	-51.5	-56.5	3.7	0.00e+00	0	50	104	0	73	27457
2026-01-29 21:00:13.33	24.26	14.86	-51.5	-56.4	3.7	0.00e+00	0	50	104	0	73	26985
2026-01-29 21:00:15.33	24.42	15.13	-52.0	-56.6	3.7	0.00e+00	0	50	104	0	74	26197
2026-01-29 21:00:17.33	24.59	15.40	-51.9	-56.5	3.7	0.00e+00	0	50	104	0	74	25927
2026-01-29 21:00:19.33	24.76	15.67	-51.7	-56.4	3.7	0.00e+00	0	50	104	0	74	25442
2026-01-29 21:00:21.34	24.94	15.96	-50.9	-55.8	3.7	0.00e+00	0	50	104	0	73	25277
2026-01-29 21:00:23.34	25.12	16.24	-50.0	-55.3	3.7	0.00e+00	0	50	104	0	72	25182
2026-01-29 21:00:25.35	25.30	16.53	-49.7	-54.9	3.7	0.00e+00	0	50	104	0	71	25489
2026-01-29 21:00:27.35	25.49	16.82	-50.1	-55.4	3.7	0.00e+00	0	50	104	0	71	27132
2026-01-29 21:00:29.35	25.68	17.12	-49.9	-55.2	3.7	0.00e+00	0	50	104	0	71	26485
2026-01-29 21:00:31.35	25.88	17.42	-50.0	-55.2	3.7	0.00e+00	0	50	104	0	71	26532
2026-01-29 21:00:33.35	26.08	17.72	-49.7	-55.0	3.7	0.00e+00	0	50	104	0	71	25681
2026-01-29 21:00:35.35	26.29	18.03	-50.1	-55.4	3.7	0.00e+00	0	50	104	0	71	26951
2026-01-29 21:00:37.36	26.50	18.35	-50.1	-55.5	3.7	0.00e+00	0	50	104	0	71	27378
2026-01-29 21:00:39.36	26.71	18.67	-50.3	-55.7	3.7	0.00e+00	0	50	104	0	71	28069
2026-01-29 21:00:41.37	26.93	18.99	-50.9	-56.0	3.7	0.00e+00	0	50	104	0	72	27398
2026-01-29 21:00:43.37	27.16	19.32	-51.7	-55.7	3.7	0.00e+00	0	50	104	0	74	23438
2026-01-29 21:00:45.37	27.39	19.66	-51.7	-55.5	3.7	0.00e+00	0	50	104	0	74	23037
2026-01-29 21:00:47.37	27.63	20.00	-51.8	-55.6	3.7	0.00e+00	0	50	104	0	74	23245
2026-01-29 21:00:49.37	27.87	20.34	-51.5	-55.0	3.7	0.00e+00	0	50	104	0	74	21804
2026-01-29 21:00:51.37	28.12	20.70	-51.4	-54.8	3.7	0.00e+00	0	51	104	0	74	21334
2026-01-29 21:00:53.38	28.38	21.06	-50.9	-54.2	3.7	0.00e+00	0	50	104	0	73	20977
2026-01-29 21:00:55.38	28.64	21.42	-51.2	-54.6	3.7	0.00e+00	0	50	104	0	73	22045
2026-01-29 21:00:57.38	28.91	21.79	-50.9	-54.2	3.7	0.00e+00	0	50	104	0	73	20881
2026-01-29 21:00:59.38	29.19	22.17	-51.5	-55.1	3.7	0.00e+00	0	50	104	0	73	23319
2026-01-29 21:01:01.38	29.47	22.55	-52.2	-56.4	3.7	0.00e+00	0	50	104	0	74	25498
2026-01-29 21:01:03.38	29.76	22.94	-52.4	-56.8	3.7	0.00e+00	0	50	104	0	75	25277
2026-01-29 21:01:05.38	30.06	23.34	-52.2	-56.6	3.7	0.00e+00	0	50	104	0	75	24527
2026-01-29 21:01:07.38	30.37	23.74	-51.9	-56.5	3.7	0.00e+00	0	50	104	0	75	24281
2026-01-29 21:01:09.38	30.69	24.15	-51.8	-56.5	3.7	0.00e+00	0	50	104	0	75	24497
2026-01-29 21:01:11.39	31.02	24.57	-52.1	-56.8	3.7	0.00e+00	0	50	104	0	75	25329
2026-01-29 21:01:13.39	31.35	25.00	-51.8	-56.4	3.7	0.00e+00	0	51	104	0	75	23972
2026-01-29 21:01:15.39	31.70	25.43	-51.8	-56.4	3.7	0.00e+00	0	51	104	0	75	24170
2026-01-29 21:01:17.39	32.06	25.87	-51.8	-56.6	3.7	0.00e+00	0	51	104	0	75	24590
2026-01-29 21:01:19.40	32.43	26.32	-52.0	-56.4	3.7	0.00e+00	0	50	104	0	75	24114
2026-01-29 21:01:21.40	32.81	26.78	-51.8	-55.8	3.7	0.00e+00	0	51	104	0	75	22457
2026-01-29 21:01:23.40	33.20	27.25	-52.4	-56.5	3.7	0.00e+00	0	50	104	0	75	24482
2026-01-29 21:01:25.40	33.61	27.72	-52.5	-56.6	3.7	0.00e+00	0	50	104	0	75	24670
2026-01-29 21:01:27.40	34.02	28.20	-52.4	-56.9	3.7	0.00e+00	0	50	104	0	75	25480
2026-01-29 21:01:29.41	34.46	28.70	-51.7	-56.0	3.7	0.00e+00	0	51	104	0	75	22973
2026-01-29 21:01:31.41	34.91	29.20	-51.7	-55.8	3.7	0.00e+00	0	51	104	0	75	22416
2026-01-29 21:01:33.42	35.37	29.71	-51.9	-56.0	3.7	0.00e+00	0	51	104	0	75	23044
2026-01-29 21:01:35.42	35.85	30.23	-52.1	-56.2	3.7	0.00e+00	0	50	104	0	75	23647
2026-01-29 21:01:37.42	36.34	30.76	-51.9	-55.7	3.7	0.00e+00	0	51	104	0	75	22199
2026-01-29 21:01:39.42	36.86	31.30	-52.1	-56.3	3.7	0.00e+00	0	51	104	0	75	23878
2026-01-29 21:01:41.42	37.39	31.85	-52.4	-56.7	3.7	0.00e+00	0	51	104	0	75	24927
2026-01-29 21:01:43.43	37.94	32.41	-52.7	-57.0	3.7	0.00e+00	0	51	104	0	75	25959
2026-01-29 21:01:45.44	38.52	32.98	-52.7	-57.1	3.7	0.00e+00	0	51	104	0	76	24683
2026-01-29 21:01:47.43	39.11	33.55	-52.7	-57.1	3.7	0.00e+00	0	51	104	0	76	24549
2026-01-29 21:01:49.43	39.73	34.14	-52.3	-56.6	3.7	0.00e+00	0	51	104	0	76	23377
2026-01-29 21:01:51.43	40.37	34.73	-52.5	-56.8	3.7	0.00e+00	0	51	104	0	76	23720
2026-01-29 21:01:53.43	41.03	35.34	-52.3	-56.8	3.7	0.00e+00	0	51	104	0	76	23743
2026-01-29 21:01:55.43	41.73	35.96	-52.2	-56.9	3.7	0.00e+00	0	51	104	0	76	24102
2026-01-29 21:01:57.43	42.45	36.58	-52.5	-57.1	3.7	0.00e+00	0	51	104	0	76	24694
2026-01-29 21:01:59.44	43.20	37.22	-52.6	-57.1	3.7	0.00e+00	0	50	104	0	76	24773
2026-01-29 21:02:01.44	43.99	37.86	-52.8	-57.3	3.7	0.00e+00	0	51	104	0	76	25378
2026-01-29 21:02:03.44	44.80	38.52	-52.8	-57.4	3.7	0.00e+00	0	51	104	0	76	25402
2026-01-29 21:02:05.43	45.65	39.17	-52.5	-57.2	3.7	0.00e+00	0	51	104	0	76	24885
2026-01-29 21:02:07.44	46.54	39.85	-52.5	-57.1	3.7	0.00e+00	0	51	104	0	76	24780
2026-01-29 21:02:09.44	47.47	40.52	-52.3	-56.9	3.7	0.00e+00	0	51	104	0	76	24031
2026-01-29 21:02:11.44	48.44	41.20	-52.8	-57.3	3.7	0.00e+00	0	51	104	0	76	25242
2026-01-29 21:02:13.45	49.46	41.89	-52.2	-56.9	3.7	0.00e+00	0	51	104	0	76	24047
2026-01-29 21:02:15.45	50.52	42.59	-51.9	-56.8	3.7	0.00e+00	0	51	104	0	75	25144
2026-01-29 21:02:17.46	51.63	43.29	-52.9	-57.5	3.7	0.00e+00	0	51	104	0	76	25715
2026-01-29 21:02:19.46	52.79	43.99	-52.8	-57.4	3.7	0.00e+00	0	51	104	0	76	25390
2026-01-29 21:02:21.46	54.00	44.69	-52.6	-57.3	3.7	0.00e+00	0	51	104	0	76	25337
2026-01-29 21:02:23.46	55.27	45.39	-52.9	-57.5	3.7	0.00e+00	0	51	104	0	76	25704
2026-01-29 21:02:25.47	56.60	46.09	-53.0	-57.5	3.7	0.00e+00	0	51	104	0	76	25799
2026-01-29 21:02:27.47	57.99	46.79	-53.0	-57.5	3.7	0.00e+00	0	51	104	0	76	25770
2026-01-29 21:02:29.47	59.45	47.48	-52.8	-57.4	3.7	0.00e+00	0	51	104	0	76	25493
2026-01-29 21:02:31.47	60.97	48.16	-52.8	-57.4	3.7	0.00e+00	0	51	104	0	76	25497
2026-01-29 21:02:33.48	62.57	48.83	-53.0	-57.5	3.7	0.00e+00	0	51	104	0	76	25959
2026-01-29 21:02:35.48	64.24	49.49	-52.7	-57.5	3.7	0.00e+00	0	51	104	0	76	25704
2026-01-29 21:02:37.49	65.99	50.14	-53.0	-57.5	3.6	0.00e+00	0	51	104	0	76	25877
2026-01-29 21:02:39.49	67.80	50.77	-52.8	-57.4	3.7	0.00e+00	0	51	104	0	76	25612
2026-01-29 21:02:41.49	69.70	51.37	-52.8	-57.4	3.7	0.00e+00	0	51	104	0	76	25496
2026-01-29 21:02:43.49	71.67	51.95	-53.0	-57.5	3.7	0.00e+00	0	51	104	0	76	25902
2026-01-29 21:02:45.49	73.72	52.50	-53.0	-57.5	3.7	0.00e+00	0	51	104	0	76	25784
2026-01-29 21:02:47.49	75.85	53.02	-52.8	-57.5	3.7	0.00e+00	0	51	104	0	76	25746
2026-01-29 21:02:49.50	78.06	53.51	-52.6	-57.3	3.7	0.00e+00	0	51	104	0	76	25349
2026-01-29 21:02:51.50	80.34	53.96	-52.8	-57.4	3.7	0.00e+00	0	51	104	0	76	25573
2026-01-29 21:02:53.51	82.70	54.37	-52.2	-57.0	3.7	0.00e+00	0	51	104	0	76	24437
2026-01-29 21:02:55.50	85.10	54.73	-52.2	-57.1	3.7	0.00e+00	0	51	104	0	76	24768
2026-01-29 21:02:57.50	87.57	55.04	-52.2	-57.1	3.7	0.00e+00	0	51	104	0	76	24677
2026-01-29 21:02:59.51	90.11	55.30	-52.1	-57.0	3.7	0.00e+00	0	51	104	0	75	25881
2026-01-29 21:03:01.51	92.67	55.51	-52.2	-57.1	3.7	0.00e+00	0	51	104	0	76	24758
2026-01-29 21:03:03.51	95.27	55.66	-52.4	-57.1	3.7	0.00e+00	0	51	104	0	75	26129
2026-01-29 21:03:05.51	97.90	55.76	-52.4	-57.2	3.7	0.00e+00	0	51	104	0	76	24908
2026-01-29 21:03:07.51	100.54	55.80	-52.9	-57.5	3.7	0.00e+00	0	51	104	0	76	25725
2026-01-29 21:03:09.52	103.19	55.78	-52.7	-57.4	3.7	0.00e+00	0	51	104	0	76	25409
2026-01-29 21:03:11.52	105.82	55.70	-52.2	-56.9	3.7	0.00e+00	0	51	104	0	76	24156
2026-01-29 21:03:13.52	108.43	55.57	-52.3	-57.1	3.7	0.00e+00	0	51	104	0	76	24681
2026-01-29 21:03:15.53	111.03	55.38	-52.1	-57.0	3.7	0.00e+00	0	51	104	0	75	25714
2026-01-29 21:03:17.53	113.57	55.13	-52.7	-57.2	3.7	0.00e+00	0	51	104	0	76	25012
2026-01-29 21:03:19.53	116.06	54.84	-52.9	-57.3	3.7	0.00e+00	0	51	104	0	76	25379
2026-01-29 21:03:21.53	118.50	54.49	-52.7	-57.3	3.7	0.00e+00	0	51	104	0	76	25149
2026-01-29 21:03:23.53	120.87	54.10	-52.8	-57.4	3.7	0.00e+00	0	51	104	0	76	25580
2026-01-29 21:03:25.53	123.18	53.66	-52.5	-57.2	3.7	0.00e+00	0	51	104	0	76	24894
2026-01-29 21:03:27.53	125.41	53.19	-51.7	-56.8	3.7	0.00e+00	0	51	104	0	75	25224
2026-01-29 21:03:29.53	127.57	52.68	-52.6	-57.3	3.7	0.00e+00	0	51	104	0	76	25098
2026-01-29 21:03:31.53	129.65	52.14	-52.8	-57.4	3.7	0.00e+00	0	51	104	0	76	25467
2026-01-29 21:03:33.54	131.66	51.56	-52.4	-57.1	3.7	0.00e+00	0	51	104	0	76	24643
2026-01-29 21:03:35.54	133.58	50.96	-52.9	-57.4	3.7	0.00e+00	0	51	104	0	76	25543
2026-01-29 21:03:37.55	135.44	50.34	-52.5	-57.0	3.7	0.00e+00	0	51	104	0	76	24425
2026-01-29 21:03:39.55	137.21	49.70	-52.8	-57.2	3.6	0.00e+00	0	51	104	0	76	25012
2026-01-29 21:03:41.56	138.91	49.04	-52.7	-57.1	3.7	0.00e+00	0	51	104	0	76	24784
2026-01-29 21:03:43.56	140.53	48.36	-52.8	-57.4	3.7	0.00e+00	0	51	104	0	76	25440
2026-01-29 21:03:45.56	142.08	47.68	-52.8	-57.3	3.7	0.00e+00	0	51	104	0	76	25322
2026-01-29 21:03:47.56	143.56	46.99	-52.8	-57.3	3.7	0.00e+00	0	51	104	0	76	25158
2026-01-29 21:03:49.57	144.98	46.29	-52.7	-57.3	3.7	0.00e+00	0	51	104	0	76	25374
2026-01-29 21:03:51.57	146.33	45.59	-52.7	-57.3	3.7	0.00e+00	0	51	104	0	76	25300
2026-01-29 21:03:53.58	147.63	44.88	-52.9	-57.4	3.7	0.00e+00	0	51	104	0	76	25565
2026-01-29 21:03:55.58	148.87	44.18	-52.8	-57.4	3.7	0.00e+00	0	51	104	0	76	25425
2026-01-29 21:03:57.58	150.04	43.47	-52.8	-57.3	3.7	0.00e+00	0	51	104	0	76	25351
2026-01-29 21:03:59.58	151.17	42.77	-52.5	-57.0	3.7	0.00e+00	0	51	104	0	76	24473
2026-01-29 21:04:01.58	152.25	42.08	-52.7	-57.3	3.7	0.00e+00	0	51	104	0	76	25228
2026-01-29 21:04:03.58	153.28	41.38	-52.6	-57.1	3.7	0.00e+00	0	51	104	0	76	24736
2026-01-29 21:04:05.58	154.26	40.69	-52.9	-57.3	3.7	0.00e+00	0	51	104	0	76	25318
2026-01-29 21:04:07.59	155.21	40.01	-52.8	-57.3	3.7	0.00e+00	0	51	104	0	76	25303
2026-01-29 21:04:09.59	156.11	39.34	-52.4	-57.0	3.7	0.00e+00	0	51	104	0	76	24426
2026-01-29 21:04:11.60	156.98	38.67	-52.3	-57.0	3.7	0.00e+00	0	51	104	0	76	24470
2026-01-29 21:04:13.60	157.81	38.01	-52.4	-57.1	3.7	0.00e+00	0	51	104	0	76	24728
2026-01-29 21:04:15.60	158.61	37.36	-52.5	-57.0	3.7	0.00e+00	0	51	104	0	76	24520
2026-01-29 21:04:17.61	159.38	36.71	-52.3	-56.9	3.7	0.00e+00	0	51	104	0	76	24118
2026-01-29 21:04:19.61	160.11	36.08	-52.0	-56.9	3.7	0.00e+00	0	51	104	0	75	25442
2026-01-29 21:04:21.61	160.81	35.46	-52.8	-57.3	3.7	0.00e+00	0	51	104	0	76	25212
2026-01-29 21:04:23.61	161.49	34.85	-52.3	-57.0	3.7	0.00e+00	0	51	104	0	76	24374
2026-01-29 21:04:25.62	162.14	34.24	-51.4	-56.5	3.7	0.00e+00	0	51	104	0	74	25843
2026-01-29 21:04:27.62	162.77	33.65	-52.1	-56.9	3.7	0.00e+00	0	51	104	0	74	27029
2026-01-29 21:04:29.62	163.37	33.06	-52.5	-57.1	3.7	0.00e+00	0	51	104	0	75	26251
2026-01-29 21:04:31.62	163.95	32.49	-52.6	-57.2	3.7	0.00e+00	0	51	104	0	75	26569
2026-01-29 21:04:33.62	164.51	31.93	-52.4	-57.1	3.7	0.00e+00	0	51	104	0	75	26261
2026-01-29 21:04:35.63	165.05	31.37	-52.1	-56.9	3.7	0.00e+00	0	51	104	0	75	25581
2026-01-29 21:04:37.63	165.57	30.83	-52.3	-57.0	3.7	0.00e+00	0	51	104	0	75	25728
2026-01-29 21:04:39.64	166.07	30.29	-52.1	-56.8	3.7	0.00e+00	0	51	104	0	75	25118
2026-01-29 21:04:41.64	166.55	29.76	-52.1	-56.8	3.7	0.00e+00	0	51	104	0	75	25307
2026-01-29 21:04:43.64	167.02	29.25	-52.2	-56.9	3.7	0.00e+00	0	51	104	0	75	25480
2026-01-29 21:04:45.64	167.47	28.74	-52.1	-56.9	3.7	0.00e+00	0	51	104	0	75	25544
2026-01-29 21:04:47.64	167.91	28.24	-52.5	-57.1	3.7	0.00e+00	0	51	104	0	75	26099
2026-01-29 21:04:49.65	168.34	27.75	-52.6	-57.1	3.7	0.00e+00	0	51	104	0	75	26073
2026-01-29 21:04:51.65	168.75	27.27	-52.7	-57.1	3.7	0.00e+00	0	51	104	0	75	26248
2026-01-29 21:04:53.65	169.14	26.80	-52.4	-57.0	3.7	0.00e+00	0	51	104	0	76	24412
2026-01-29 21:04:55.66	169.53	26.34	-52.2	-56.9	3.7	0.00e+00	0	51	104	0	76	24080
2026-01-29 21:04:57.66	169.90	25.88	-52.1	-56.8	3.7	0.00e+00	0	51	104	0	76	23832
2026-01-29 21:04:59.66	170.26	25.44	-52.0	-56.8	3.7	0.00e+00	0	51	104	0	75	25192
2026-01-29 21:05:01.67	170.61	25.00	-52.0	-56.8	3.7	0.00e+00	0	51	104	0	75	25096
2026-01-29 21:05:03.67	170.95	24.57	-52.0	-56.7	3.7	0.00e+00	0	51	104	0	75	25080
2026-01-29 21:05:05.68	171.28	24.14	-52.1	-56.8	3.7	0.00e+00	0	51	104	0	75	25350
2026-01-29 21:05:07.68	171.60	23.73	-51.9	-56.7	3.7	0.00e+00	0	51	104	0	75	24894
2026-01-29 21:05:09.68	171.92	23.32	-51.8	-56.6	3.7	0.00e+00	0	51	104	0	75	24621
2026-01-29 21:05:11.68	172.22	22.92	-51.8	-56.5	3.7	0.00e+00	0	51	104	0	74	25848
2026-01-29 21:05:13.68	172.51	22.53	-51.4	-56.1	3.7	0.00e+00	0	51	104	0	74	24758
2026-01-29 21:05:15.68	172.80	22.14	-51.4	-56.2	3.7	0.00e+00	0	51	104	0	74	24897
2026-01-29 21:05:17.69	173.08	21.76	-51.5	-56.2	3.7	0.00e+00	0	51	104	0	74	24972
2026-01-29 21:05:19.69	173.35	21.38	-51.9	-56.6	3.7	0.00e+00	0	51	104	0	74	26222
2026-01-29 21:05:21.70	173.61	21.01	-52.0	-56.7	3.7	0.00e+00	0	51	104	0	74	26323
2026-01-29 21:05:23.70	173.87	20.65	-51.9	-56.5	3.7	0.00e+00	0	51	104	0	74	25919
2026-01-29 21:05:25.70	174.12	20.30	-52.0	-56.6	3.7	0.00e+00	0	51	104	0	74	26183
2026-01-29 21:05:27.70	174.37	19.95	-51.9	-56.5	3.7	0.00e+00	0	51	104	0	74	25767
2026-01-29 21:05:29.70	174.60	19.60	-51.8	-56.3	3.7	0.00e+00	0	51	104	0	74	25164
2026-01-29 21:05:31.70	174.84	19.27	-51.7	-56.5	3.7	0.00e+00	0	51	104	0	74	25769
2026-01-29 21:05:33.70	175.06	18.93	-51.5	-56.4	3.7	0.00e+00	0	51	104	0	74	25497
2026-01-29 21:05:35.70	175.28	18.61	-51.7	-56.5	3.7	0.00e+00	0	51	104	0	74	25837
2026-01-29 21:05:37.70	175.50	18.28	-51.6	-56.4	3.7	0.00e+00	0	51	104	0	74	25523
2026-01-29 21:05:39.70	175.71	17.97	-51.2	-56.1	3.7	0.00e+00	0	51	104	0	74	24671
2026-01-29 21:05:41.71	175.92	17.65	-51.1	-56.0	3.7	0.00e+00	0	51	104	0	73	25906
2026-01-29 21:05:43.71	176.12	17.34	-51.0	-56.1	3.7	0.00e+00	0	51	104	0	73	26048
2026-01-29 21:05:45.71	176.32	17.04	-50.6	-55.8	3.7	0.00e+00	0	51	104	0	73	25295
2026-01-29 21:05:47.71	176.51	16.74	-50.6	-55.7	3.7	0.00e+00	0	51	104	0	72	26394
2026-01-29 21:05:49.71	176.70	16.45	-50.8	-55.7	3.7	0.00e+00	0	51	104	0	72	26429
2026-01-29 21:05:51.71	176.88	16.16	-50.4	-55.4	3.7	0.00e+00	0	51	104	0	72	25596
2026-01-29 21:05:53.72	177.06	15.87	-50.5	-55.5	3.7	0.00e+00	0	51	104	0	72	25974
2026-01-29 21:05:55.73	177.24	15.59	-50.4	-55.6	3.7	0.00e+00	0	51	104	0	71	27679
2026-01-29 21:05:57.73	177.41	15.31	-50.1	-55.1	3.7	0.00e+00	0	51	104	0	72	24718
2026-01-29 21:05:59.73	177.58	15.04	-50.3	-55.3	3.7	0.00e+00	0	51	104	0	71	26882
2026-01-29 21:06:01.74	177.75	14.77	-50.6	-55.6	3.7	0.00e+00	0	51	104	0	71	27662
2026-01-29 21:06:03.74	177.91	14.50	-50.8	-55.8	3.7	0.00e+00	0	51	104	0	72	26659
2026-01-29 21:06:05.75	178.07	14.24	-50.4	-55.5	3.7	0.00e+00	0	51	104	0	72	25728
2026-01-29 21:06:07.75	178.22	13.98	-50.3	-55.4	3.7	0.00e+00	0	51	104	0	72	25511
2026-01-29 21:06:09.76	178.38	13.72	-50.5	-55.6	3.7	0.00e+00	0	51	104	0	72	26054
2026-01-29 21:06:11.76	178.53	13.47	-50.8	-55.8	3.7	0.00e+00	0	51	104	0	72	26697
2026-01-29 21:06:13.76	178.67	13.22	-51.7	-56.4	3.7	0.00e+00	0	51	104	0	74	25398
2026-01-29 21:06:15.76	178.82	12.97	-51.5	-56.3	3.7	0.00e+00	0	51	104	0	74	25123
2026-01-29 21:06:17.76	178.96	12.73	-51.7	-56.5	3.7	0.00e+00	0	51	104	0	74	25743
2026-01-29 21:06:19.77	179.10	12.49	-51.3	-56.2	3.7	0.00e+00	0	51	104	0	73	26283
2026-01-29 21:06:21.77	179.23	12.25	-49.0	-54.0	3.7	0.00e+00	0	51	104	0	70	24285
2026-01-29 21:06:23.77	179.37	12.02	-48.5	-53.6	3.7	0.00e+00	0	51	104	0	69	24574
2026-01-29 21:06:25.78	179.50	11.79	-48.7	-53.9	3.7	0.00e+00	0	51	104	0	68	26969
2026-01-29 21:06:27.78	179.63	11.56	-48.6	-53.7	3.7	0.00e+00	0	51	104	0	69	24925
2026-01-29 21:06:29.78	179.75	11.34	-48.3	-53.4	3.7	0.00e+00	0	51	104	0	68	25580
2026-01-29 21:06:31.78	179.88	11.11	-48.4	-53.5	3.7	0.00e+00	0	51	104	0	68	25938
2026-01-29 21:06:33.78	180.00	10.89	-48.6	-53.8	3.7	0.00e+00	0	51	104	0	68	26757
2026-01-29 21:06:35.78	180.12	10.68	-48.7	-53.7	3.7	0.00e+00	0	51	104	0	68	26504
2026-01-29 21:06:37.78	180.24	10.46	-48.2	-53.5	3.7	0.00e+00	0	51	104	0	68	25749
2026-01-29 21:06:39.79	180.35	10.25	-48.2	-53.4	3.7	0.00e+00	0	51	104	0	68	25637
2026-01-29 21:06:41.79	180.47	10.04	-48.3	-53.5	3.7	0.00e+00	0	51	104	0	68	25779
2026-01-29 21:06:43.80	180.58	9.83	-48.5	-53.7	3.7	0.00e+00	0	51	104	0	68	26361
2026-01-29 21:06:45.80	180.69	9.62	-48.1	-53.3	3.7	0.00e+00	0	51	104	0	68	25182
2026-01-29 21:06:47.80	180.80	9.42	-48.2	-53.4	3.7	0.00e+00	0	51	104	0	68	25402
2026-01-29 21:06:49.80	180.91	9.22	-48.0	-53.1	3.7	0.00e+00	0	51	104	0	68	24783
2026-01-29 21:06:51.80	181.01	9.02	-48.3	-53.3	3.7	0.00e+00	0	51	104	0	68	25224
2026-01-29 21:06:53.79	181.11	8.82	-50.4	-55.2	3.7	0.00e+00	0	51	104	0	72	25053
2026-01-29 21:06:55.78	181.21	8.63	-50.8	-55.8	3.7	0.00e+00	0	51	104	0	72	26619
2026-01-29 21:06:57.77	181.31	8.44	-50.8	-55.9	3.7	0.00e+00	0	51	104	0	73	25506
2026-01-29 21:06:59.76	181.41	8.25	-52.4	-57.0	3.7	0.00e+00	0	51	104	0	75	25762
2026-01-29 21:07:01.76	181.51	8.06	-52.1	-56.8	3.7	0.00e+00	0	51	104	0	75	25379
2026-01-29 21:07:03.75	181.60	7.87	-52.0	-56.7	3.7	0.00e+00	0	51	104	0	75	24965
2026-01-29 21:07:05.75	181.70	7.68	-51.0	-56.1	3.7	0.00e+00	0	51	104	0	74	24547
2026-01-29 21:07:07.74	181.79	7.50	-51.9	-56.6	3.7	0.00e+00	0	51	104	0	74	25998
2026-01-29 21:07:09.74	181.88	7.32	-52.0	-56.6	3.7	0.00e+00	0	51	104	0	74	26239
2026-01-29 21:07:11.73	181.97	7.14	-52.1	-56.8	3.7	0.00e+00	0	51	104	0	74	26878
2026-01-29 21:07:13.73	182.06	6.96	-51.3	-56.8	3.7	0.00e+00	0	51	104	0	73	28433
2026-01-29 21:07:15.72	182.15	6.79	-52.0	-56.7	3.7	0.00e+00	0	51	104	0	74	26558
2026-01-29 21:07:17.71	182.23	6.61	-51.6	-56.6	3.7	0.00e+00	0	51	104	0	74	26272
2026-01-29 21:07:19.71	182.32	6.44	-51.9	-56.7	3.7	0.00e+00	0	51	104	0	74	26578
2026-01-29 21:07:21.70	182.40	6.27	-51.8	-56.4	3.7	0.00e+00	0	51	104	0	75	23994
2026-01-29 21:07:23.69	182.48	6.10	-51.9	-56.2	3.7	0.00e+00	0	51	104	0	74	24872
2026-01-29 21:07:25.68	182.57	5.93	-51.6	-55.7	3.7	0.00e+00	0	51	104	0	74	23523
2026-01-29 21:07:27.67	182.65	5.76	-51.6	-55.7	3.7	0.00e+00	0	51	104	0	74	23612
2026-01-29 21:07:29.67	182.73	5.59	-51.2	-55.1	3.7	0.00e+00	0	51	104	0	74	21878
2026-01-29 21:07:31.66	182.80	5.43	-51.3	-55.2	3.7	0.00e+00	0	51	104	0	74	22153
2026-01-29 21:07:33.66	182.88	5.26	-51.3	-55.2	3.7	0.00e+00	0	51	104	0	74	22208
2026-01-29 21:07:35.65	182.96	5.10	-51.3	-55.2	3.7	0.00e+00	0	51	104	0	74	22135
2026-01-29 21:07:37.65	183.03	4.94	-51.3	-55.2	3.7	0.00e+00	0	51	104	0	74	22168

#Closed at: 2026-01-29 21:07:38
#Recorded file [0 MB]: D:/Data/31040_260129_235837.dat