passes_logs/2026/01/29/T1/T1__20260129_092404_FENGYUN_3D_rec.log

#Pass ID: 20260129_092404_FENGYUN 3D
#Satellite: FENGYUN 3D
#Configuration: FENGYUN 3D
#almurnet v.1.7.20251203
#Start time: 2026-01-29 09:24:04

#Version: 2.0.20230620
#Station: T1
#Location: 37.570604 lon 55.790049 lat
#TLE: 1 43010U 17072A   26027.97130493  .00000326  00000+0  17586-3 0  9998
#TLE: 2 43010  98.9960 359.9900 0002514  87.8428 272.3036 14.19701925425097

#Time	Az	El	Level	Level2	SNR	BER	BlckErr	Temp	State	Recorded	gain1	gain2
2026-01-29 09:24:04.76	75.07	5.03	-49.7	-62.1	3.8	8.48e-01	0	36	0	0	70	15527
2026-01-29 09:24:06.74	74.83	5.12	-50.1	-62.2	3.8	8.47e-01	0	37	104	0	71	14817
2026-01-29 09:24:08.73	74.59	5.20	-50.1	-62.2	3.8	8.45e-01	0	37	104	0	71	14834
2026-01-29 09:24:10.71	74.35	5.29	-50.2	-62.3	3.8	8.47e-01	0	37	104	0	71	14911
2026-01-29 09:24:12.70	74.10	5.38	-50.0	-62.2	3.8	8.47e-01	0	37	104	0	71	14866
2026-01-29 09:24:14.69	73.86	5.46	-50.1	-62.2	3.8	8.47e-01	0	37	104	0	71	14758
2026-01-29 09:24:16.68	73.61	5.55	-50.0	-62.2	3.8	8.47e-01	0	37	104	0	71	14713
2026-01-29 09:24:18.66	73.36	5.63	-49.9	-62.1	3.8	8.46e-01	0	37	104	0	71	14668
2026-01-29 09:24:20.65	73.11	5.72	-49.7	-62.0	3.8	8.48e-01	0	37	104	0	71	14503
2026-01-29 09:24:22.64	72.86	5.80	-49.5	-61.8	3.8	8.47e-01	0	37	104	0	71	14152
2026-01-29 09:24:24.62	72.61	5.89	-49.2	-61.6	3.8	8.46e-01	0	37	104	0	70	14544
2026-01-29 09:24:26.61	72.35	5.97	-49.2	-61.5	3.8	8.48e-01	0	37	104	0	70	14514
2026-01-29 09:24:28.60	72.09	6.06	-49.3	-61.5	3.8	8.47e-01	0	37	104	0	70	14419
2026-01-29 09:24:30.58	71.84	6.14	-49.2	-61.5	3.8	8.47e-01	0	37	104	0	70	14473
2026-01-29 09:24:32.57	71.58	6.22	-49.2	-61.5	3.8	8.45e-01	0	38	104	0	70	14403
2026-01-29 09:24:34.56	71.31	6.31	-49.2	-61.4	3.8	8.47e-01	0	38	104	0	70	14344
2026-01-29 09:24:36.54	71.05	6.39	-49.2	-61.4	3.8	8.47e-01	0	38	104	0	70	14345
2026-01-29 09:24:38.53	70.79	6.47	-49.2	-61.5	3.8	8.46e-01	0	38	104	0	70	14390
2026-01-29 09:24:40.52	70.52	6.56	-49.2	-61.5	3.8	8.47e-01	0	38	104	0	70	14399
2026-01-29 09:24:42.51	70.26	6.64	-49.2	-61.5	3.8	8.48e-01	0	38	104	0	70	14404
2026-01-29 09:24:44.49	69.99	6.72	-49.2	-61.4	3.8	8.47e-01	0	38	104	0	70	14357
2026-01-29 09:24:46.48	69.72	6.80	-49.2	-61.5	3.8	8.48e-01	0	38	104	0	70	14387
2026-01-29 09:24:48.47	69.45	6.88	-49.2	-61.4	3.8	8.47e-01	0	38	104	0	70	14359
2026-01-29 09:24:50.45	69.17	6.96	-49.2	-61.4	3.8	8.48e-01	0	38	104	0	70	14324
2026-01-29 09:24:52.44	68.90	7.04	-49.2	-61.4	3.8	8.47e-01	0	38	104	0	70	14257
2026-01-29 09:24:54.43	68.62	7.12	-49.2	-61.3	3.8	8.48e-01	0	38	104	0	70	14199
2026-01-29 09:24:56.41	68.34	7.20	-49.2	-61.3	3.8	8.48e-01	0	38	104	0	70	14063
2026-01-29 09:24:58.40	68.06	7.28	-49.2	-61.2	3.8	8.47e-01	0	38	104	0	70	13948
2026-01-29 09:25:00.38	67.79	7.36	-49.2	-61.1	3.8	8.46e-01	0	38	104	0	70	13885
2026-01-29 09:25:02.37	67.50	7.44	-49.2	-61.2	3.8	8.47e-01	0	38	104	0	70	13935
2026-01-29 09:25:04.36	67.22	7.52	-49.2	-61.3	3.8	8.48e-01	0	38	104	0	70	14073
2026-01-29 09:25:06.34	66.93	7.60	-49.2	-61.3	3.8	8.46e-01	0	38	104	0	70	14174
2026-01-29 09:25:08.33	66.65	7.67	-49.2	-61.3	3.8	8.48e-01	0	38	104	0	70	14111
2026-01-29 09:25:10.32	66.36	7.75	-49.1	-61.1	3.8	8.47e-01	0	39	104	0	70	13869
2026-01-29 09:25:12.30	66.07	7.83	-49.1	-61.0	3.8	8.47e-01	0	38	104	0	70	13718
2026-01-29 09:25:14.29	65.78	7.90	-49.2	-61.2	3.8	8.47e-01	0	39	104	0	70	13998
2026-01-29 09:25:16.28	65.48	7.98	-49.2	-61.2	3.8	8.48e-01	0	38	104	0	70	14004
2026-01-29 09:25:18.26	65.19	8.05	-49.1	-60.9	3.8	8.47e-01	0	39	104	0	70	13497
2026-01-29 09:25:20.25	64.89	8.13	-49.1	-60.1	3.8	8.46e-01	0	39	104	0	70	12291
2026-01-29 09:25:22.24	64.59	8.20	-49.0	-59.7	3.8	8.46e-01	0	38	104	0	70	11729
2026-01-29 09:25:24.22	64.30	8.27	-49.1	-60.4	3.8	8.46e-01	0	38	104	0	70	12692
2026-01-29 09:25:26.21	63.99	8.35	-49.2	-61.0	3.8	8.47e-01	0	38	104	0	70	13721
2026-01-29 09:25:28.19	63.69	8.42	-49.1	-60.7	3.8	8.47e-01	0	39	104	0	70	13219
2026-01-29 09:25:30.18	63.39	8.49	-48.9	-58.7	4.0	8.45e-01	0	38	104	0	69	11145
2026-01-29 09:25:32.17	63.08	8.56	-48.9	-58.8	3.9	8.43e-01	0	39	104	0	69	11188
2026-01-29 09:25:34.15	62.78	8.63	-48.9	-59.0	3.8	8.46e-01	0	39	104	0	69	11539
2026-01-29 09:25:36.14	62.47	8.70	-45.2	-48.7	11.4	1.63e-02	0	39	0	6291456	62	5234
2026-01-29 09:25:38.13	62.16	8.77	-41.3	-43.6	16.3	0.00e+00	0	39	0	17825792	54	4640
2026-01-29 09:25:40.11	61.85	8.84	-40.0	-42.1	17.8	0.00e+00	0	39	0	28311552	51	4610
2026-01-29 09:25:42.10	61.53	8.91	-40.8	-43.0	16.9	0.00e+00	0	39	0	39845888	52	4862
2026-01-29 09:25:44.08	61.22	8.98	-44.4	-47.5	12.6	4.34e-05	0	39	0	51380224	59	5461
2026-01-29 09:25:46.07	60.90	9.04	-46.1	-50.2	9.9	7.34e-03	0	39	0	62914560	63	5895
2026-01-29 09:25:48.06	60.59	9.11	-49.1	-60.3	3.8	4.59e-01	0	39	104	71303168	68	14105
2026-01-29 09:25:50.05	60.27	9.17	-46.5	-51.1	9.1	1.93e-03	0	39	0	77594624	63	6538
2026-01-29 09:25:52.04	59.95	9.24	-41.8	-44.2	15.8	0.00e+00	0	39	0	89128960	54	4979
2026-01-29 09:25:54.03	59.62	9.30	-41.5	-43.9	16.2	0.00e+00	0	39	0	100663296	54	4761
2026-01-29 09:25:56.01	59.30	9.37	-40.7	-42.9	17.0	0.00e+00	0	39	0	111149056	53	4514
2026-01-29 09:25:58.00	58.98	9.43	-40.0	-42.2	17.8	0.00e+00	0	39	0	122683392	51	4655
2026-01-29 09:25:59.99	58.65	9.49	-39.9	-42.0	18.0	0.00e+00	0	39	0	134217728	51	4547
2026-01-29 09:26:01.99	58.32	9.55	-39.8	-41.9	18.0	0.00e+00	0	39	0	144703488	51	4534
2026-01-29 09:26:03.98	57.99	9.61	-39.7	-41.7	18.2	0.00e+00	0	39	0	156237824	51	4420
2026-01-29 09:26:05.96	57.66	9.67	-39.4	-41.4	18.5	0.00e+00	0	39	0	167772160	50	4541
2026-01-29 09:26:07.96	57.33	9.73	-39.4	-41.4	18.5	0.00e+00	0	39	0	178257920	50	4514
2026-01-29 09:26:09.95	57.00	9.79	-39.2	-41.2	18.7	0.00e+00	0	39	0	189792256	50	4436
2026-01-29 09:26:11.93	56.66	9.85	-39.2	-41.2	18.7	0.00e+00	0	39	0	201326592	50	4424
2026-01-29 09:26:13.92	56.33	9.91	-39.2	-41.2	18.7	0.00e+00	0	39	0	211812352	50	4437
2026-01-29 09:26:15.91	55.99	9.96	-39.1	-41.1	18.8	0.00e+00	0	39	0	223346688	50	4375
2026-01-29 09:26:17.90	55.65	10.02	-39.1	-41.1	18.9	0.00e+00	0	39	0	234881024	50	4346
2026-01-29 09:26:19.89	55.31	10.07	-39.1	-41.1	18.8	0.00e+00	0	39	0	245366784	50	4366
2026-01-29 09:26:21.94	54.96	10.13	-39.0	-41.0	18.9	0.00e+00	0	39	0	256901120	50	4338
2026-01-29 09:26:23.96	54.61	10.18	-39.0	-40.9	19.0	0.00e+00	0	39	0	268435456	49	4542
2026-01-29 09:26:25.94	54.27	10.23	-39.0	-41.0	18.9	0.00e+00	0	39	0	279969792	49	4563
2026-01-29 09:26:27.93	53.93	10.28	-39.1	-41.1	18.8	0.00e+00	0	39	0	290455552	49	4621
2026-01-29 09:26:29.92	53.58	10.33	-39.1	-41.1	18.8	0.00e+00	0	39	0	301989888	49	4628
2026-01-29 09:26:31.91	53.23	10.38	-39.0	-41.0	19.0	0.00e+00	0	39	0	313524224	49	4565
2026-01-29 09:26:33.92	52.88	10.43	-38.8	-40.8	19.1	0.00e+00	0	39	0	325058560	49	4472
2026-01-29 09:26:35.97	52.52	10.48	-38.8	-40.8	19.1	0.00e+00	0	39	0	336592896	49	4460
2026-01-29 09:26:37.96	52.17	10.53	-38.9	-40.8	19.1	0.00e+00	0	39	0	347078656	49	4486
2026-01-29 09:26:40.10	51.79	10.57	-38.8	-40.8	19.1	0.00e+00	0	39	0	359661568	49	4471
2026-01-29 09:26:42.09	51.44	10.62	-38.8	-40.7	19.2	0.00e+00	0	39	0	370147328	49	4426
2026-01-29 09:26:44.09	51.08	10.66	-38.8	-40.8	19.1	0.00e+00	0	39	0	381681664	49	4452
2026-01-29 09:26:46.13	50.72	10.70	-39.1	-41.1	18.9	0.00e+00	0	39	0	393216000	49	4609
2026-01-29 09:26:48.12	50.36	10.75	-39.1	-41.0	19.2	0.00e+00	0	39	0	404750336	49	4551
2026-01-29 09:26:50.14	50.00	10.79	-39.1	-41.0	19.2	0.00e+00	0	39	0	416284672	49	4556
2026-01-29 09:26:52.13	49.64	10.83	-39.1	-41.0	19.3	0.00e+00	0	39	0	426770432	49	4548
2026-01-29 09:26:54.12	49.28	10.86	-38.9	-40.8	19.5	0.00e+00	0	39	0	438304768	49	4447
2026-01-29 09:26:56.11	48.92	10.90	-38.8	-40.7	19.5	0.00e+00	0	39	0	448790528	49	4393
2026-01-29 09:26:58.11	48.56	10.94	-38.7	-40.5	19.6	0.00e+00	0	39	0	460324864	49	4340
2026-01-29 09:27:00.13	48.19	10.97	-38.7	-40.5	19.6	0.00e+00	0	39	0	471859200	49	4340
2026-01-29 09:27:02.13	47.83	11.01	-38.6	-40.4	19.7	0.00e+00	0	39	0	483393536	49	4281
2026-01-29 09:27:04.11	47.47	11.04	-38.7	-40.5	19.7	0.00e+00	0	39	0	494927872	49	4318
2026-01-29 09:27:06.10	47.10	11.07	-38.6	-40.5	19.7	0.00e+00	0	39	0	505413632	49	4314
2026-01-29 09:27:08.03	46.75	11.10	-38.6	-40.4	19.7	0.00e+00	0	39	0	516947968	49	4288
2026-01-29 09:27:10.02	46.38	11.13	-38.5	-40.3	19.9	0.00e+00	0	39	0	527433728	49	4224
2026-01-29 09:27:12.01	46.02	11.16	-38.4	-40.3	20.0	0.00e+00	0	39	0	538968064	48	4445
2026-01-29 09:27:14.00	45.65	11.19	-38.5	-40.3	19.9	0.00e+00	0	39	0	549453824	48	4479
2026-01-29 09:27:15.99	45.28	11.21	-38.4	-40.2	20.0	0.00e+00	0	39	0	560988160	48	4415
2026-01-29 09:27:17.98	44.91	11.24	-38.6	-40.4	19.8	0.00e+00	0	39	0	572522496	48	4529
2026-01-29 09:27:19.97	44.55	11.26	-38.6	-40.5	19.7	0.00e+00	0	39	0	584056832	48	4559
2026-01-29 09:27:21.95	44.18	11.29	-38.6	-40.5	19.8	0.00e+00	0	39	0	594542592	48	4552
2026-01-29 09:27:23.94	43.81	11.31	-38.7	-40.5	19.7	0.00e+00	0	39	0	606076928	48	4570
2026-01-29 09:27:25.93	43.44	11.33	-38.7	-40.5	19.7	0.00e+00	0	39	0	617611264	48	4585
2026-01-29 09:27:27.92	43.07	11.35	-38.7	-40.5	19.7	0.00e+00	0	39	0	628097024	48	4593
2026-01-29 09:27:29.94	42.69	11.37	-38.8	-40.6	19.6	0.00e+00	0	39	0	639631360	48	4631
2026-01-29 09:27:31.94	42.31	11.39	-38.8	-40.7	19.5	0.00e+00	0	39	0	651165696	48	4690
2026-01-29 09:27:33.93	41.94	11.40	-38.9	-40.8	19.4	0.00e+00	0	39	0	662700032	48	4738
2026-01-29 09:27:35.92	41.57	11.42	-38.9	-40.8	19.4	0.00e+00	0	39	0	673185792	48	4742
2026-01-29 09:27:37.91	41.19	11.43	-38.8	-40.6	19.6	0.00e+00	0	39	0	684720128	48	4632
2026-01-29 09:27:39.90	40.82	11.44	-38.8	-40.6	19.6	0.00e+00	0	39	0	695205888	48	4637
2026-01-29 09:27:41.90	40.44	11.46	-38.8	-40.6	19.6	0.00e+00	0	39	0	706740224	48	4639
2026-01-29 09:27:43.90	40.07	11.47	-38.6	-40.4	19.8	0.00e+00	0	39	0	718274560	48	4519
2026-01-29 09:27:45.96	39.68	11.48	-38.7	-40.6	19.7	0.00e+00	0	39	0	729808896	48	4619
2026-01-29 09:27:47.96	39.30	11.48	-38.4	-40.2	20.0	0.00e+00	0	39	0	741343232	48	4439
2026-01-29 09:27:49.95	38.93	11.49	-38.4	-40.2	20.0	0.00e+00	0	39	0	751828992	48	4416
2026-01-29 09:27:51.94	38.55	11.50	-38.3	-40.1	20.1	0.00e+00	0	39	0	763363328	48	4358
2026-01-29 09:27:53.93	38.18	11.50	-38.4	-40.2	20.0	0.00e+00	0	39	0	774897664	48	4418
2026-01-29 09:27:55.91	37.80	11.50	-38.5	-40.4	19.8	0.00e+00	0	39	0	786432000	48	4506
2026-01-29 09:27:57.90	37.43	11.50	-38.6	-40.5	19.7	0.00e+00	0	39	0	796917760	48	4564
2026-01-29 09:28:00.08	37.02	11.51	-38.6	-40.5	19.8	0.00e+00	0	39	0	809500672	48	4568
2026-01-29 09:28:02.07	36.64	11.50	-38.7	-40.6	19.7	0.00e+00	0	39	0	821035008	48	4599
2026-01-29 09:28:04.08	36.26	11.50	-38.7	-40.6	19.7	0.00e+00	0	39	0	831520768	48	4623
2026-01-29 09:28:06.09	35.88	11.50	-38.6	-40.5	19.8	0.00e+00	0	39	0	843055104	48	4568
2026-01-29 09:28:08.08	35.51	11.50	-38.6	-40.5	19.8	0.00e+00	0	39	0	854589440	48	4568
2026-01-29 09:28:10.09	35.13	11.49	-38.4	-40.3	20.0	0.00e+00	0	39	0	865075200	48	4455
2026-01-29 09:28:12.08	34.76	11.48	-38.3	-40.1	20.1	0.00e+00	0	39	0	876609536	48	4389
2026-01-29 09:28:14.09	34.38	11.48	-38.1	-40.0	20.3	0.00e+00	0	39	0	888143872	48	4297
2026-01-29 09:28:16.10	34.00	11.47	-38.2	-40.0	20.2	0.00e+00	0	39	0	899678208	48	4309
2026-01-29 09:28:18.10	33.62	11.46	-38.2	-40.0	20.2	0.00e+00	0	39	0	910163968	48	4328
2026-01-29 09:28:20.22	33.22	11.44	-38.2	-40.1	20.1	0.00e+00	0	39	0	922746880	48	4354
2026-01-29 09:28:22.21	32.85	11.43	-38.3	-40.1	20.1	0.00e+00	0	39	0	933232640	48	4389
2026-01-29 09:28:24.20	32.48	11.42	-38.2	-40.1	20.1	0.00e+00	0	39	0	944766976	48	4369
2026-01-29 09:28:26.19	32.10	11.40	-38.2	-40.1	20.1	0.00e+00	0	39	0	956301312	48	4351
2026-01-29 09:28:28.19	31.73	11.39	-38.5	-40.3	19.9	0.00e+00	0	39	0	967835648	48	4467
2026-01-29 09:28:30.13	31.37	11.37	-38.6	-40.5	19.8	0.00e+00	0	39	0	978321408	48	4552
2026-01-29 09:28:32.23	30.98	11.35	-38.7	-40.6	19.7	0.00e+00	0	39	0	989855744	48	4622
2026-01-29 09:28:34.22	30.60	11.33	-38.7	-40.6	19.6	0.00e+00	0	39	0	1001390080	48	4622
2026-01-29 09:28:36.32	30.21	11.31	-38.6	-40.4	19.8	0.00e+00	0	39	0	1012924416	48	4521
2026-01-29 09:28:38.36	29.83	11.29	-38.4	-40.3	20.0	0.00e+00	0	39	0	1024458752	48	4457
2026-01-29 09:28:40.36	29.46	11.26	-38.3	-40.2	20.0	0.00e+00	0	39	0	1035993088	48	4411
2026-01-29 09:28:42.36	29.09	11.24	-38.3	-40.2	20.0	0.00e+00	0	39	0	1047527424	48	4414
2026-01-29 09:28:44.35	28.72	11.21	-38.5	-40.4	19.8	0.00e+00	0	39	0	1058013184	48	4526
2026-01-29 09:28:46.35	28.35	11.19	-38.4	-40.2	20.1	0.00e+00	0	39	0	1069547520	48	4414
2026-01-29 09:28:48.48	27.96	11.16	-38.4	-40.3	19.9	0.00e+00	0	39	0	1081081856	48	4471
2026-01-29 09:28:50.48	27.59	11.13	-38.6	-40.5	19.8	0.00e+00	0	39	0	1092616192	48	4546
2026-01-29 09:28:52.72	27.18	11.10	-38.7	-40.6	19.7	0.00e+00	0	39	0	1105199104	48	4607
2026-01-29 09:28:54.71	26.82	11.06	-38.6	-40.5	19.7	0.00e+00	0	39	0	1116733440	48	4570
2026-01-29 09:28:56.70	26.46	11.03	-38.6	-40.4	19.8	0.00e+00	0	39	0	1127219200	48	4525
2026-01-29 09:28:58.69	26.09	11.00	-38.7	-40.6	19.7	0.00e+00	0	39	0	1138753536	48	4603
2026-01-29 09:29:00.68	25.73	10.97	-38.9	-40.8	19.4	0.00e+00	0	39	0	1150287872	48	4730
2026-01-29 09:29:02.67	25.37	10.93	-38.6	-40.5	19.7	0.00e+00	0	39	0	1161822208	48	4592
2026-01-29 09:29:04.66	25.01	10.89	-38.6	-40.5	19.7	0.00e+00	0	39	0	1172307968	48	4572
2026-01-29 09:29:06.62	24.66	10.86	-38.6	-40.5	19.8	0.00e+00	0	39	0	1183842304	48	4555
2026-01-29 09:29:08.72	24.28	10.82	-38.6	-40.4	19.8	0.00e+00	0	39	0	1195376640	48	4532
2026-01-29 09:29:10.79	23.91	10.78	-38.5	-40.4	19.9	0.00e+00	0	39	0	1206910976	48	4502
2026-01-29 09:29:12.81	23.55	10.73	-38.5	-40.3	19.9	0.00e+00	0	39	0	1218445312	48	4492
2026-01-29 09:29:14.82	23.19	10.69	-38.6	-40.5	19.8	0.00e+00	0	39	0	1229979648	48	4557
2026-01-29 09:29:16.98	22.80	10.65	-38.7	-40.6	19.7	0.00e+00	0	39	0	1241513984	48	4613
2026-01-29 09:29:18.97	22.45	10.60	-38.6	-40.5	19.7	0.00e+00	0	39	0	1253048320	48	4569
2026-01-29 09:29:20.96	22.10	10.56	-38.6	-40.6	19.7	0.00e+00	0	39	0	1264582656	48	4614
2026-01-29 09:29:22.95	21.75	10.51	-38.7	-40.7	19.5	0.00e+00	0	39	0	1275068416	48	4703
2026-01-29 09:29:24.94	21.40	10.47	-38.8	-40.8	19.5	0.00e+00	0	39	0	1286602752	48	4719
2026-01-29 09:29:26.95	21.05	10.42	-38.7	-40.7	19.6	0.00e+00	0	39	0	1298137088	48	4665
2026-01-29 09:29:29.06	20.68	10.37	-38.7	-40.7	19.6	0.00e+00	0	39	0	1309671424	48	4653
2026-01-29 09:29:31.21	20.30	10.31	-38.7	-40.7	19.5	0.00e+00	0	39	0	1321205760	48	4687
2026-01-29 09:29:33.21	19.96	10.26	-38.7	-40.8	19.5	0.00e+00	0	39	0	1332740096	48	4720
2026-01-29 09:29:35.46	19.57	10.20	-38.8	-40.7	19.5	0.00e+00	0	39	0	1345323008	48	4692
2026-01-29 09:29:37.46	19.23	10.15	-38.7	-40.6	19.6	0.00e+00	0	39	0	1356857344	48	4644
2026-01-29 09:29:39.47	18.88	10.10	-38.8	-40.7	19.6	0.00e+00	0	39	0	1368391680	48	4666
2026-01-29 09:29:41.46	18.54	10.05	-38.8	-40.8	19.4	0.00e+00	0	39	0	1378877440	48	4718
2026-01-29 09:29:43.46	18.20	9.99	-39.0	-40.9	19.3	0.00e+00	0	39	0	1390411776	48	4782
2026-01-29 09:29:45.51	17.86	9.93	-39.2	-41.1	19.2	0.00e+00	0	39	0	1401946112	48	4883
2026-01-29 09:29:47.50	17.52	9.88	-39.3	-41.3	19.0	0.00e+00	0	39	0	1413480448	49	4708
2026-01-29 09:29:49.68	17.15	9.81	-39.4	-41.4	18.9	0.00e+00	0	39	0	1426063360	49	4780
2026-01-29 09:29:51.63	16.83	9.76	-39.4	-41.4	18.8	0.00e+00	0	39	0	1436549120	49	4811
2026-01-29 09:29:53.63	16.49	9.70	-39.4	-41.4	18.8	0.00e+00	0	39	0	1448083456	49	4808
2026-01-29 09:29:55.62	16.16	9.64	-39.3	-41.4	18.9	0.00e+00	0	39	0	1459617792	49	4763
2026-01-29 09:29:57.61	15.84	9.58	-39.1	-41.2	19.1	0.00e+00	0	39	0	1470103552	49	4654
2026-01-29 09:29:59.60	15.51	9.52	-39.0	-41.0	19.2	0.00e+00	0	39	0	1481637888	49	4592
2026-01-29 09:30:01.59	15.18	9.45	-39.0	-41.0	19.2	0.00e+00	0	39	0	1493172224	49	4595
2026-01-29 09:30:03.59	14.86	9.39	-39.0	-41.0	19.3	0.00e+00	0	39	0	1503657984	49	4556
2026-01-29 09:30:05.84	14.49	9.32	-39.0	-40.9	19.3	0.00e+00	0	39	0	1516240896	49	4544
2026-01-29 09:30:07.84	14.17	9.26	-39.1	-41.1	19.1	0.00e+00	0	39	0	1527775232	49	4624
2026-01-29 09:30:09.97	13.83	9.19	-39.4	-41.4	18.9	0.00e+00	0	39	0	1540358144	49	4762
2026-01-29 09:30:11.98	13.51	9.12	-39.5	-41.5	18.8	0.00e+00	0	39	0	1550843904	49	4831
2026-01-29 09:30:13.98	13.19	9.05	-39.4	-41.4	18.8	0.00e+00	0	39	0	1562378240	49	4806
2026-01-29 09:30:15.97	12.87	8.99	-47.8	-54.8	5.8	1.81e-02	0	39	0	1573912576	66	8452
2026-01-29 09:30:17.97	12.56	8.92	-49.8	-61.9	3.8	8.48e-01	0	39	104	1573912576	70	15155
2026-01-29 09:30:20.00	12.24	8.85	-49.4	-62.1	3.8	8.47e-01	0	39	104	1573912576	70	15505
2026-01-29 09:30:22.05	11.92	8.78	-49.8	-62.2	3.8	8.47e-01	0	39	104	1573912576	70	15605
2026-01-29 09:30:24.12	11.60	8.71	-49.9	-62.3	3.8	8.47e-01	0	39	104	1573912576	70	15761
2026-01-29 09:30:26.39	11.24	8.63	-50.1	-62.3	3.8	8.46e-01	0	39	104	1573912576	70	15817
2026-01-29 09:30:28.45	10.93	8.55	-50.1	-62.3	3.8	8.47e-01	0	39	104	1573912576	71	15000
2026-01-29 09:30:30.49	10.62	8.48	-50.2	-62.3	3.8	8.47e-01	0	39	104	1573912576	71	15040
2026-01-29 09:30:32.55	10.30	8.41	-49.9	-62.3	3.8	8.45e-01	0	39	104	1573912576	71	14961
2026-01-29 09:30:34.54	10.00	8.33	-50.1	-62.3	3.8	8.46e-01	0	39	104	1573912576	71	15044
2026-01-29 09:30:36.53	9.70	8.26	-49.9	-62.3	3.8	8.48e-01	0	39	104	1573912576	71	15027
2026-01-29 09:30:38.51	9.40	8.19	-49.4	-62.1	3.8	8.47e-01	0	39	104	1573912576	69	16420
2026-01-29 09:30:40.52	9.11	8.11	-50.1	-62.3	3.8	8.47e-01	0	39	104	1573912576	70	15896
2026-01-29 09:30:42.50	8.81	8.04	-50.1	-62.3	3.8	8.47e-01	0	39	104	1573912576	71	14978
2026-01-29 09:30:44.49	8.52	7.96	-49.7	-62.3	3.8	8.47e-01	0	39	104	1573912576	71	14920
2026-01-29 09:30:46.49	8.22	7.89	-49.9	-62.2	3.8	8.48e-01	0	39	104	1573912576	71	14853
2026-01-29 09:30:48.48	7.93	7.81	-49.8	-62.2	3.8	8.48e-01	0	39	104	1573912576	71	14726
2026-01-29 09:30:50.47	7.65	7.74	-49.8	-62.0	3.8	8.47e-01	0	39	104	1573912576	71	14536
2026-01-29 09:30:52.53	7.35	7.66	-49.7	-61.7	3.8	8.47e-01	0	39	104	1573912576	71	13990
2026-01-29 09:30:54.52	7.06	7.58	-49.4	-61.6	3.8	8.46e-01	0	39	104	1573912576	70	14586
2026-01-29 09:30:56.52	6.78	7.50	-49.4	-61.6	3.8	8.46e-01	0	39	104	1573912576	70	14541
2026-01-29 09:30:58.51	6.49	7.42	-49.4	-61.5	3.8	8.47e-01	0	39	104	1573912576	70	14532
2026-01-29 09:31:00.51	6.21	7.34	-49.4	-61.5	3.8	8.46e-01	0	39	104	1573912576	70	14520
2026-01-29 09:31:02.50	5.93	7.26	-49.3	-61.5	3.8	8.46e-01	0	39	104	1573912576	70	14511
2026-01-29 09:31:04.48	5.66	7.19	-49.3	-61.5	3.8	8.46e-01	0	39	104	1573912576	70	14476
2026-01-29 09:31:06.47	5.38	7.11	-49.3	-61.6	3.8	8.48e-01	0	39	104	1573912576	70	14541
2026-01-29 09:31:08.45	5.11	7.03	-49.3	-61.6	3.8	8.46e-01	0	39	104	1573912576	70	14570
2026-01-29 09:31:10.44	4.83	6.95	-49.3	-61.5	3.8	8.47e-01	0	39	104	1573912576	70	14478
2026-01-29 09:31:12.44	4.56	6.86	-49.3	-61.5	3.8	8.47e-01	0	39	104	1573912576	70	14482
2026-01-29 09:31:14.43	4.29	6.78	-49.3	-61.5	3.8	8.46e-01	0	39	104	1573912576	70	14496
2026-01-29 09:31:16.42	4.02	6.70	-49.3	-61.5	3.8	8.46e-01	0	39	104	1573912576	70	14466
2026-01-29 09:31:18.40	3.75	6.62	-49.3	-61.5	3.8	8.47e-01	0	39	104	1573912576	70	14448
2026-01-29 09:31:20.39	3.49	6.54	-49.3	-61.5	3.8	8.47e-01	0	39	104	1573912576	70	14489
2026-01-29 09:31:22.38	3.22	6.46	-49.3	-61.5	3.8	8.47e-01	0	39	104	1573912576	70	14464
2026-01-29 09:31:24.37	2.96	6.37	-49.3	-61.5	3.8	8.48e-01	0	39	104	1573912576	70	14455
2026-01-29 09:31:26.36	2.70	6.29	-49.3	-61.5	3.8	8.47e-01	0	39	104	1573912576	70	14528
2026-01-29 09:31:28.36	2.44	6.21	-49.3	-61.5	3.8	8.48e-01	0	39	104	1573912576	70	14472
