passes_logs/2026/01/29/T1/T1__20260129_025004_FENGYUN_3D_rec.log

#Pass ID: 20260129_025004_FENGYUN 3D
#Satellite: FENGYUN 3D
#Configuration: FENGYUN 3D
#almurnet v.1.7.20251203
#Start time: 2026-01-29 02:50:05

#Version: 2.0.20230620
#Station: T1
#Location: 37.570604 lon 55.790049 lat
#TLE: 1 43010U 17072A   26027.90082829  .00000305  00000+0  16579-3 0  9998
#TLE: 2 43010  98.9960 359.9183 0002511  88.1058 272.0405 14.19701796425082

#Time	Az	El	Level	Level2	SNR	BER	BlckErr	Temp	State	Recorded	gain1	gain2
2026-01-29 02:50:05.66	10.52	5.08	-50.0	-62.1	3.8	8.48e-01	0	41	0	0	70	15478
2026-01-29 02:50:08.64	10.37	5.28	-50.2	-62.2	3.8	8.47e-01	0	41	104	0	71	14792
2026-01-29 02:50:11.62	10.22	5.49	-49.9	-62.2	3.8	8.46e-01	0	42	104	0	71	14728
2026-01-29 02:50:14.60	10.06	5.69	-50.0	-62.1	3.8	8.47e-01	0	42	104	0	71	14632
2026-01-29 02:50:17.58	9.91	5.90	-49.8	-62.0	3.8	8.47e-01	0	42	104	0	71	14510
2026-01-29 02:50:20.56	9.75	6.10	-49.7	-62.0	3.8	8.46e-01	0	42	104	0	71	14378
2026-01-29 02:50:23.54	9.59	6.31	-49.4	-61.9	3.8	8.47e-01	0	42	104	0	69	16036
2026-01-29 02:50:26.52	9.42	6.52	-48.8	-61.7	3.8	8.47e-01	0	42	104	0	69	15743
2026-01-29 02:50:29.50	9.26	6.73	-48.0	-61.2	3.8	8.47e-01	0	42	104	0	66	17564
2026-01-29 02:50:32.48	9.09	6.95	-48.0	-60.8	3.8	8.46e-01	0	42	104	0	66	16751
2026-01-29 02:50:35.46	8.91	7.16	-47.9	-59.5	3.8	8.47e-01	0	43	104	0	66	14501
2026-01-29 02:50:38.44	8.74	7.38	-47.7	-58.3	4.1	8.43e-01	0	43	0	0	66	12567
2026-01-29 02:50:41.42	8.56	7.60	-47.7	-57.9	4.1	8.40e-01	0	43	0	0	66	12046
2026-01-29 02:50:44.40	8.38	7.81	-47.7	-58.0	4.1	8.40e-01	0	43	0	0	66	12179
2026-01-29 02:50:47.38	8.20	8.04	-47.6	-57.4	4.3	8.36e-01	0	43	0	0	66	11319
2026-01-29 02:50:50.35	8.01	8.26	-46.7	-53.1	7.0	2.72e-01	0	43	0	5242880	65	7347
2026-01-29 02:50:53.33	7.82	8.48	-44.9	-49.0	11.2	4.40e-03	0	43	0	22020096	61	5746
2026-01-29 02:50:56.31	7.63	8.71	-43.7	-46.9	13.3	2.74e-05	0	43	0	38797312	59	5092
2026-01-29 02:50:59.29	7.43	8.93	-43.8	-47.0	13.2	2.74e-05	0	43	0	55574528	58	5450
2026-01-29 02:51:02.29	7.23	9.17	-44.4	-47.9	12.4	8.00e-06	0	43	0	72351744	59	5722
2026-01-29 02:51:05.23	7.03	9.39	-39.9	-41.9	18.2	0.00e+00	0	43	0	88080384	51	4543
2026-01-29 02:51:08.35	6.82	9.64	-39.7	-41.8	18.4	0.00e+00	0	43	0	105906176	51	4483
2026-01-29 02:51:11.19	6.62	9.86	-39.2	-41.2	18.9	0.00e+00	0	43	0	121634816	50	4433
2026-01-29 02:51:14.37	6.39	10.11	-39.3	-41.4	18.8	0.00e+00	0	43	0	139460608	50	4514
2026-01-29 02:51:17.21	6.19	10.34	-39.0	-41.1	19.0	0.00e+00	0	43	0	155189248	50	4382
2026-01-29 02:51:20.79	5.92	10.63	-39.1	-41.2	18.9	0.00e+00	0	43	0	176160768	49	4702
2026-01-29 02:51:23.49	5.72	10.85	-39.2	-41.4	18.8	0.00e+00	0	43	0	190840832	49	4768
2026-01-29 02:51:26.77	5.46	11.12	-39.2	-41.3	18.9	0.00e+00	0	43	0	209715200	49	4718
2026-01-29 02:51:29.51	5.25	11.34	-38.9	-40.9	19.3	0.00e+00	0	43	0	224395264	49	4509
2026-01-29 02:51:32.84	4.99	11.62	-38.7	-40.7	19.4	0.00e+00	0	43	0	243269632	49	4432
2026-01-29 02:51:35.83	4.74	11.87	-38.6	-40.6	19.6	0.00e+00	0	44	0	260046848	49	4349
2026-01-29 02:51:39.11	4.47	12.15	-38.4	-40.3	19.9	0.00e+00	0	43	0	278921216	48	4482
2026-01-29 02:51:41.83	4.24	12.39	-38.6	-40.5	19.7	0.00e+00	0	44	0	293601280	48	4566
2026-01-29 02:51:45.10	3.96	12.67	-38.6	-40.4	19.8	0.00e+00	0	44	0	312475648	48	4544
2026-01-29 02:51:47.94	3.72	12.91	-38.5	-40.4	19.9	0.00e+00	0	43	0	328204288	48	4494
2026-01-29 02:51:51.08	3.44	13.19	-38.3	-40.2	20.0	0.00e+00	0	44	0	346030080	48	4410
2026-01-29 02:51:53.92	3.18	13.44	-38.4	-40.2	20.0	0.00e+00	0	44	0	361758720	48	4410
2026-01-29 02:51:57.05	2.89	13.72	-38.4	-40.2	20.0	0.00e+00	0	44	0	379584512	48	4436
2026-01-29 02:51:59.89	2.62	13.98	-38.3	-40.1	20.1	0.00e+00	0	44	0	395313152	48	4385
2026-01-29 02:52:03.01	2.32	14.26	-38.3	-40.2	20.1	0.00e+00	0	44	0	413138944	48	4403
2026-01-29 02:52:06.34	2.00	14.56	-38.5	-40.3	19.9	0.00e+00	0	44	0	432013312	48	4489
2026-01-29 02:52:09.19	1.71	14.83	-38.3	-40.2	20.1	0.00e+00	0	44	0	447741952	48	4397
2026-01-29 02:52:12.31	1.40	15.12	-38.1	-40.0	20.3	0.00e+00	0	44	0	465567744	48	4316
2026-01-29 02:52:15.16	1.10	15.39	-38.0	-39.9	20.2	0.00e+00	0	44	0	481296384	47	4496
2026-01-29 02:52:18.39	0.76	15.69	-37.8	-39.7	20.4	0.00e+00	0	44	0	500170752	47	4397
2026-01-29 02:52:21.24	0.45	15.97	-37.7	-39.6	20.5	0.00e+00	0	44	0	515899392	47	4367
2026-01-29 02:52:24.36	0.11	16.27	-37.5	-39.4	20.6	0.00e+00	0	44	0	532676608	47	4279
2026-01-29 02:52:27.21	359.79	16.54	-37.4	-39.3	20.8	0.00e+00	0	44	0	549453824	46	4460
2026-01-29 02:52:30.34	359.43	16.85	-37.5	-39.3	20.7	0.00e+00	0	44	0	567279616	46	4485
2026-01-29 02:52:33.18	359.10	17.13	-37.6	-39.4	20.7	0.00e+00	0	44	0	583008256	46	4517
2026-01-29 02:52:36.31	358.72	17.44	-37.4	-39.2	20.9	0.00e+00	0	44	0	600834048	46	4405
2026-01-29 02:52:39.15	358.38	17.73	-37.4	-39.2	20.9	0.00e+00	0	44	0	616562688	46	4412
2026-01-29 02:52:42.66	357.94	18.08	-37.2	-39.0	21.1	0.00e+00	0	44	0	636485632	46	4318
2026-01-29 02:52:45.47	357.58	18.37	-37.1	-38.9	21.2	0.00e+00	0	44	0	652214272	46	4276
2026-01-29 02:52:48.59	357.18	18.69	-37.0	-38.8	21.2	0.00e+00	0	44	0	670040064	45	4474
2026-01-29 02:52:51.43	356.80	18.99	-37.0	-38.8	21.3	0.00e+00	0	44	0	685768704	45	4464
2026-01-29 02:52:54.62	356.37	19.32	-36.9	-38.7	21.4	0.00e+00	0	44	0	703594496	45	4408
2026-01-29 02:52:57.47	355.97	19.62	-36.5	-38.3	21.8	0.00e+00	0	44	0	719323136	45	4207
2026-01-29 02:53:00.60	355.53	19.96	-36.4	-38.1	21.9	0.00e+00	0	44	0	737148928	44	4382
2026-01-29 02:53:03.60	355.10	20.28	-36.5	-38.2	21.8	0.00e+00	0	44	0	753926144	44	4420
2026-01-29 02:53:06.98	354.60	20.64	-36.8	-38.5	21.6	0.00e+00	0	44	0	772800512	44	4561
2026-01-29 02:53:09.87	354.16	20.96	-36.8	-38.5	21.6	0.00e+00	0	44	0	789577728	44	4595
2026-01-29 02:53:13.14	353.66	21.32	-36.6	-38.3	21.8	0.00e+00	0	44	0	807403520	44	4463
2026-01-29 02:53:15.86	353.23	21.62	-36.4	-38.1	22.0	0.00e+00	0	44	0	823132160	44	4354
2026-01-29 02:53:19.13	352.70	21.98	-36.1	-37.8	22.2	0.00e+00	0	44	0	840957952	44	4211
2026-01-29 02:53:22.10	352.21	22.31	-36.1	-37.8	22.3	0.00e+00	0	44	0	857735168	44	4217
2026-01-29 02:53:25.08	351.70	22.65	-35.7	-37.4	22.5	0.00e+00	0	44	0	874512384	43	4278
2026-01-29 02:53:28.07	351.19	22.99	-35.8	-37.5	22.4	0.00e+00	0	44	0	891289600	43	4314
2026-01-29 02:53:31.05	350.66	23.33	-35.9	-37.6	22.3	0.00e+00	0	44	0	908066816	43	4378
2026-01-29 02:53:34.03	350.12	23.67	-35.9	-37.6	22.3	0.00e+00	0	44	0	924844032	43	4385
2026-01-29 02:53:37.02	349.57	24.01	-35.8	-37.6	22.3	0.00e+00	0	44	0	941621248	43	4355
2026-01-29 02:53:40.00	349.01	24.36	-35.9	-37.6	22.3	0.00e+00	0	44	0	958398464	43	4366
2026-01-29 02:53:42.99	348.43	24.70	-35.6	-37.3	22.6	0.00e+00	0	44	0	975175680	43	4230
2026-01-29 02:53:45.98	347.84	25.05	-35.4	-37.1	22.8	0.00e+00	0	44	0	991952896	42	4377
2026-01-29 02:53:48.97	347.24	25.40	-35.5	-37.2	22.7	0.00e+00	0	44	0	1008730112	42	4394
2026-01-29 02:53:51.95	346.62	25.75	-35.4	-37.1	22.8	0.00e+00	0	44	0	1025507328	42	4362
2026-01-29 02:53:54.95	345.99	26.11	-35.5	-37.1	22.7	0.00e+00	0	44	0	1042284544	42	4386
2026-01-29 02:53:57.94	345.34	26.46	-35.3	-36.9	22.9	0.00e+00	0	44	0	1060110336	42	4271
2026-01-29 02:54:00.93	344.68	26.81	-35.1	-36.7	23.1	0.00e+00	0	44	0	1076887552	42	4183
2026-01-29 02:54:03.91	344.01	27.16	-35.1	-36.8	23.1	0.00e+00	0	44	0	1092616192	42	4196
2026-01-29 02:54:06.96	343.31	27.52	-35.3	-36.9	23.0	0.00e+00	0	44	0	1110441984	42	4277
2026-01-29 02:54:09.98	342.59	27.88	-35.2	-36.9	23.0	0.00e+00	0	44	0	1127219200	42	4255
2026-01-29 02:54:12.97	341.87	28.23	-35.1	-36.8	23.0	0.00e+00	0	44	0	1143996416	42	4217
2026-01-29 02:54:15.95	341.13	28.58	-35.0	-36.6	23.2	0.00e+00	0	44	0	1160773632	41	4380
2026-01-29 02:54:18.93	340.38	28.93	-35.0	-36.6	23.2	0.00e+00	0	44	0	1177550848	41	4368
2026-01-29 02:54:21.92	339.61	29.28	-34.8	-36.4	23.4	0.00e+00	0	44	0	1194328064	41	4291
2026-01-29 02:54:24.90	338.82	29.63	-35.0	-36.6	23.2	0.00e+00	0	44	0	1211105280	41	4379
2026-01-29 02:54:27.89	338.01	29.97	-35.0	-36.6	23.2	0.00e+00	0	44	0	1227882496	41	4382
2026-01-29 02:54:30.87	337.19	30.32	-34.9	-36.6	23.2	0.00e+00	0	44	0	1244659712	41	4362
2026-01-29 02:54:33.86	336.35	30.66	-34.9	-36.6	23.2	0.00e+00	0	44	0	1261436928	41	4364
2026-01-29 02:54:36.93	335.46	31.00	-34.7	-36.3	23.4	0.00e+00	0	44	0	1279262720	41	4228
2026-01-29 02:54:39.81	334.62	31.33	-34.7	-36.3	23.5	0.00e+00	0	44	0	1294991360	41	4237
2026-01-29 02:54:42.94	333.68	31.67	-34.7	-36.4	23.4	0.00e+00	0	44	0	1312817152	41	4243
2026-01-29 02:54:45.78	332.81	31.98	-34.6	-36.3	23.5	0.00e+00	0	44	0	1328545792	41	4225
2026-01-29 02:54:48.91	331.83	32.32	-34.6	-36.2	23.5	0.00e+00	0	44	0	1346371584	41	4174
2026-01-29 02:54:51.75	330.92	32.62	-34.7	-36.4	23.4	0.00e+00	0	44	0	1362100224	41	4251
2026-01-29 02:54:55.29	329.77	32.98	-34.5	-36.1	23.6	0.00e+00	0	44	0	1382023168	40	4371
2026-01-29 02:54:57.99	328.87	33.25	-34.5	-36.1	23.7	0.00e+00	0	44	0	1397751808	40	4356
2026-01-29 02:55:01.28	327.76	33.58	-34.6	-36.2	23.6	0.00e+00	0	44	0	1415577600	40	4420
2026-01-29 02:55:03.98	326.83	33.84	-34.6	-36.3	23.5	0.00e+00	0	44	0	1431306240	40	4449
2026-01-29 02:55:07.27	325.68	34.15	-34.5	-36.2	23.5	0.00e+00	0	44	0	1450180608	40	4414
2026-01-29 02:55:10.17	324.64	34.41	-34.4	-36.0	23.7	0.00e+00	0	44	0	1465909248	40	4338
2026-01-29 02:55:13.58	323.40	34.71	-34.2	-35.9	23.8	0.00e+00	0	44	0	1484783616	40	4255
2026-01-29 02:55:16.31	322.40	34.94	-34.4	-36.1	23.7	0.00e+00	0	44	0	1500512256	40	4347
2026-01-29 02:55:19.59	321.17	35.20	-34.3	-35.9	23.8	0.00e+00	0	44	0	1519386624	40	4276
2026-01-29 02:55:22.49	320.06	35.42	-34.4	-36.1	23.7	0.00e+00	0	44	0	1535115264	40	4357
2026-01-29 02:55:25.48	318.91	35.64	-34.6	-36.2	23.5	0.00e+00	0	44	0	1551892480	40	4418
2026-01-29 02:55:28.47	317.74	35.84	-34.4	-36.1	23.7	0.00e+00	0	44	0	1568669696	40	4347
2026-01-29 02:55:31.45	316.56	36.04	-34.2	-35.8	23.8	0.00e+00	0	44	0	1585446912	40	4234
2026-01-29 02:55:34.55	315.32	36.22	-34.5	-36.1	23.6	0.00e+00	0	44	0	1603272704	40	4370
2026-01-29 02:55:37.40	314.17	36.38	-34.3	-35.9	23.8	0.00e+00	0	44	0	1619001344	40	4290
2026-01-29 02:55:40.52	312.89	36.54	-34.3	-35.9	23.8	0.00e+00	0	44	0	1636827136	40	4283
2026-01-29 02:55:43.37	311.72	36.67	-34.4	-36.0	23.7	0.00e+00	0	44	0	1652555776	40	4317
2026-01-29 02:55:46.60	310.38	36.81	-34.4	-36.0	23.7	0.00e+00	0	44	0	1670381568	40	4310
2026-01-29 02:55:49.45	309.18	36.91	-34.1	-35.7	23.9	0.00e+00	0	44	0	1687158784	40	4175
2026-01-29 02:55:52.57	307.87	37.01	-34.5	-36.1	23.7	0.00e+00	0	44	0	1704984576	39	4621
2026-01-29 02:55:55.41	306.66	37.08	-34.7	-36.3	23.4	0.00e+00	0	44	0	1720713216	40	4476
2026-01-29 02:55:58.54	305.33	37.14	-34.4	-36.0	23.7	0.00e+00	0	44	0	1738539008	40	4333
2026-01-29 02:56:01.45	304.09	37.19	-34.6	-36.2	23.5	0.00e+00	0	44	0	1754267648	40	4428
2026-01-29 02:56:04.70	302.70	37.22	-34.2	-35.8	23.8	0.00e+00	0	44	0	1773142016	40	4239
2026-01-29 02:56:07.49	301.50	37.23	-34.3	-36.0	23.7	0.00e+00	0	44	0	1788870656	40	4299
2026-01-29 02:56:10.62	300.16	37.23	-34.4	-36.1	23.7	0.00e+00	0	44	0	1805647872	40	4342
2026-01-29 02:56:13.47	298.94	37.21	-34.4	-36.0	23.7	0.00e+00	0	44	0	1821376512	40	4317
2026-01-29 02:56:16.59	297.61	37.17	-34.4	-36.0	23.7	0.00e+00	0	44	0	1839202304	40	4306
2026-01-29 02:56:20.00	296.15	37.11	-34.2	-35.8	23.8	0.00e+00	0	44	0	1859125248	40	4224
2026-01-29 02:56:22.84	294.95	37.04	-34.3	-35.9	23.7	0.00e+00	0	44	0	1874853888	40	4257
2026-01-29 02:56:26.42	293.43	36.93	-34.2	-35.8	23.8	0.00e+00	0	44	0	1894776832	40	4237
2026-01-29 02:56:29.19	292.27	36.84	-34.4	-36.1	23.7	0.00e+00	0	44	0	1910505472	40	4347
2026-01-29 02:56:32.53	290.88	36.70	-34.5	-36.2	23.6	0.00e+00	0	44	0	1929379840	40	4395
2026-01-29 02:56:35.25	289.75	36.58	-34.3	-36.0	23.7	0.00e+00	0	44	0	1944059904	40	4298
2026-01-29 02:56:38.68	288.34	36.41	-34.2	-35.8	23.9	0.00e+00	0	44	0	1963982848	40	4204
2026-01-29 02:56:41.72	287.11	36.24	-34.0	-35.6	24.1	0.00e+00	0	44	0	1980760064	39	4363
2026-01-29 02:56:45.02	285.79	36.04	-34.3	-35.9	23.8	0.00e+00	0	44	0	1999634432	39	4535
2026-01-29 02:56:47.75	284.70	35.87	-34.4	-36.1	23.7	0.00e+00	0	44	0	2014314496	39	4602
2026-01-29 02:56:51.04	283.41	35.64	-34.3	-35.9	23.8	0.00e+00	0	44	0	2033188864	39	4524
2026-01-29 02:56:53.76	282.36	35.44	-34.2	-35.9	23.9	0.00e+00	0	44	0	2048917504	39	4495
2026-01-29 02:56:57.25	281.03	35.18	-33.9	-35.5	24.1	0.00e+00	0	44	0	2067791872	39	4325
2026-01-29 02:56:59.95	280.02	34.96	-34.1	-35.7	24.0	0.00e+00	0	44	0	2083520512	39	4428
2026-01-29 02:57:03.22	278.81	34.68	-34.2	-35.8	24.0	0.00e+00	0	44	0	2102394880	39	4452
2026-01-29 02:57:05.92	277.82	34.45	-34.2	-35.9	23.9	0.00e+00	0	44	0	2117074944	39	4498
2026-01-29 02:57:09.21	276.64	34.15	-34.2	-35.8	23.9	0.00e+00	0	44	0	2135949312	39	4485
2026-01-29 02:57:12.21	275.59	33.87	-33.8	-35.4	24.3	0.00e+00	0	44	0	2152726528	39	4259
2026-01-29 02:57:15.75	274.37	33.53	-34.1	-35.8	24.0	0.00e+00	0	44	0	2172649472	39	4447
2026-01-29 02:57:18.72	273.36	33.24	-34.1	-35.7	24.0	0.00e+00	0	44	0	2189426688	39	4397
2026-01-29 02:57:21.70	272.37	32.93	-34.2	-35.8	24.0	0.00e+00	0	44	0	2206203904	39	4455
2026-01-29 02:57:24.74	271.38	32.62	-34.2	-35.8	23.9	0.00e+00	0	44	0	2222981120	39	4484
2026-01-29 02:57:27.64	270.45	32.31	-34.3	-35.9	23.8	0.00e+00	0	44	0	2238709760	39	4523
2026-01-29 02:57:30.98	269.40	31.95	-34.4	-36.1	23.7	0.00e+00	0	44	0	2257584128	39	4600
2026-01-29 02:57:33.70	268.57	31.65	-34.5	-36.1	23.6	0.00e+00	0	44	0	2273312768	39	4639
2026-01-29 02:57:36.97	267.58	31.29	-34.4	-36.0	23.8	0.00e+00	0	44	0	2292187136	39	4567
2026-01-29 02:57:39.68	266.78	30.99	-34.6	-36.3	23.5	0.00e+00	0	44	0	2306867200	39	4711
2026-01-29 02:57:43.06	265.81	30.60	-34.5	-36.1	23.6	0.00e+00	0	44	0	2325741568	39	4624
2026-01-29 02:57:46.05	264.96	30.26	-34.5	-36.1	23.5	0.00e+00	0	44	0	2342518784	40	4380
2026-01-29 02:57:49.03	264.14	29.92	-34.2	-35.8	23.9	0.00e+00	0	44	0	2359296000	40	4211
2026-01-29 02:57:52.02	263.33	29.57	-34.5	-36.1	23.6	0.00e+00	0	44	0	2376073216	40	4362
2026-01-29 02:57:55.00	262.54	29.22	-34.5	-36.1	23.6	0.00e+00	0	44	0	2392850432	40	4372
2026-01-29 02:57:57.99	261.77	28.87	-34.5	-36.1	23.6	0.00e+00	0	44	0	2409627648	40	4378
2026-01-29 02:58:00.97	261.02	28.52	-34.4	-36.0	23.7	0.00e+00	0	44	0	2426404864	40	4296
2026-01-29 02:58:03.95	260.28	28.17	-34.6	-36.2	23.5	0.00e+00	0	44	0	2443182080	40	4400
2026-01-29 02:58:06.99	259.54	27.81	-34.5	-36.2	23.5	0.00e+00	0	44	0	2461007872	40	4406
2026-01-29 02:58:09.95	258.84	27.46	-34.5	-36.2	23.5	0.00e+00	0	44	0	2476736512	40	4394
2026-01-29 02:58:12.93	258.15	27.10	-34.7	-36.4	23.3	0.00e+00	0	44	0	2493513728	40	4501
2026-01-29 02:58:15.92	257.47	26.75	-34.8	-36.4	23.2	0.00e+00	0	44	0	2511339520	40	4538
2026-01-29 02:58:18.90	256.81	26.39	-34.8	-36.4	23.3	0.00e+00	0	44	0	2527068160	40	4531
2026-01-29 02:58:21.96	256.15	26.03	-35.0	-36.7	23.1	0.00e+00	0	44	0	2544893952	40	4652
2026-01-29 02:58:24.81	255.55	25.70	-35.2	-36.9	22.9	0.00e+00	0	44	0	2560622592	41	4495
2026-01-29 02:58:27.94	254.90	25.33	-35.1	-36.8	23.0	0.00e+00	0	44	0	2578448384	41	4455
2026-01-29 02:58:30.78	254.32	24.99	-35.2	-36.9	22.8	0.00e+00	0	44	0	2594177024	41	4507
2026-01-29 02:58:34.02	253.68	24.61	-35.5	-37.2	22.6	0.00e+00	0	44	0	2613051392	41	4672
2026-01-29 02:58:36.86	253.13	24.28	-35.4	-37.1	22.7	0.00e+00	0	44	0	2628780032	41	4600
2026-01-29 02:58:39.99	252.54	23.92	-35.2	-36.9	22.8	0.00e+00	0	44	0	2646605824	41	4502
2026-01-29 02:58:42.83	252.01	23.59	-35.2	-36.9	22.9	0.00e+00	0	44	0	2662334464	41	4507
2026-01-29 02:58:45.95	251.45	23.23	-35.4	-37.0	22.7	0.00e+00	0	44	0	2680160256	41	4585
2026-01-29 02:58:48.88	250.93	22.90	-35.5	-37.2	22.6	0.00e+00	0	44	0	2695888896	41	4662
2026-01-29 02:58:52.00	250.39	22.54	-35.5	-37.1	22.6	0.00e+00	0	44	0	2713714688	41	4648
2026-01-29 02:58:54.84	249.91	22.22	-35.3	-37.0	22.7	0.00e+00	0	44	0	2729443328	41	4551
2026-01-29 02:58:57.97	249.39	21.87	-35.4	-37.1	22.6	0.00e+00	0	44	0	2747269120	41	4622
2026-01-29 02:59:00.82	248.93	21.55	-35.4	-37.0	22.7	0.00e+00	0	44	0	2762997760	41	4593
2026-01-29 02:59:03.94	248.44	21.21	-35.4	-37.1	22.6	0.00e+00	0	44	0	2780823552	41	4616
2026-01-29 02:59:06.78	247.99	20.90	-35.4	-37.0	22.7	0.00e+00	0	44	0	2796552192	41	4596
2026-01-29 02:59:09.90	247.52	20.55	-35.6	-37.2	22.4	0.00e+00	0	44	0	2814377984	41	4703
2026-01-29 02:59:12.74	247.10	20.25	-35.7	-37.4	22.3	0.00e+00	0	44	0	2830106624	42	4533
2026-01-29 02:59:15.90	246.64	19.91	-35.9	-37.5	22.2	0.00e+00	0	44	0	2847932416	42	4593
2026-01-29 02:59:18.83	246.22	19.59	-35.9	-37.6	22.1	0.00e+00	0	44	0	2864709632	42	4609
2026-01-29 02:59:22.04	245.77	19.25	-35.9	-37.5	22.2	0.00e+00	0	44	0	2882535424	42	4592
2026-01-29 02:59:24.88	245.39	18.95	-35.9	-37.6	22.2	0.00e+00	0	44	0	2898264064	42	4603
2026-01-29 02:59:28.01	244.97	18.63	-36.0	-37.7	22.0	0.00e+00	0	44	0	2916089856	42	4690
2026-01-29 02:59:30.85	244.60	18.33	-36.2	-37.9	21.9	0.00e+00	0	44	0	2931818496	42	4763
2026-01-29 02:59:33.98	244.19	18.01	-36.2	-37.9	21.8	0.00e+00	0	44	0	2949644288	43	4536
2026-01-29 02:59:36.90	243.83	17.71	-36.5	-38.2	21.6	0.00e+00	0	44	0	2966421504	43	4662
2026-01-29 02:59:40.18	243.42	17.38	-36.9	-38.6	21.4	0.00e+00	0	44	0	2985295872	44	4605
2026-01-29 02:59:43.31	243.05	17.07	-36.8	-38.5	21.4	0.00e+00	0	44	0	3002073088	44	4573
2026-01-29 02:59:46.16	242.71	16.79	-37.0	-38.7	21.2	0.00e+00	0	44	0	3017801728	44	4685
2026-01-29 02:59:49.41	242.34	16.47	-37.1	-38.8	21.2	0.00e+00	0	44	0	3036676096	44	4728
2026-01-29 02:59:52.17	242.02	16.20	-37.0	-38.7	21.2	0.00e+00	0	44	0	3052404736	44	4704
2026-01-29 02:59:55.44	241.66	15.88	-37.0	-38.8	21.2	0.00e+00	0	44	0	3070230528	45	4442
2026-01-29 02:59:58.16	241.36	15.62	-37.1	-38.8	21.1	0.00e+00	0	44	0	3085959168	45	4491
2026-01-29 03:00:02.04	240.95	15.25	-37.2	-39.0	20.9	0.00e+00	0	44	0	3107979264	45	4567
2026-01-29 03:00:04.92	240.65	14.98	-37.4	-39.1	20.8	0.00e+00	0	44	0	3123707904	45	4635
2026-01-29 03:00:08.19	240.32	14.67	-37.4	-39.1	20.8	0.00e+00	0	44	0	3142582272	45	4636
2026-01-29 03:00:10.89	240.05	14.42	-37.4	-39.1	20.8	0.00e+00	0	44	0	3157262336	45	4647
2026-01-29 03:00:14.16	239.72	14.12	-37.6	-39.4	20.5	0.00e+00	0	44	0	3176136704	45	4766
2026-01-29 03:00:16.88	239.46	13.88	-37.7	-39.5	20.4	0.00e+00	0	44	0	3190816768	46	4569
2026-01-29 03:00:20.12	239.15	13.58	-37.8	-39.6	20.3	0.00e+00	0	44	0	3209691136	46	4605
2026-01-29 03:00:22.97	238.89	13.33	-37.8	-39.6	20.3	0.00e+00	0	44	0	3225419776	46	4631
2026-01-29 03:00:26.20	238.59	13.04	-38.1	-39.9	20.0	0.00e+00	0	44	0	3243245568	46	4770
2026-01-29 03:00:29.33	238.31	12.77	-38.2	-40.0	19.8	0.00e+00	0	44	0	3261071360	47	4585
2026-01-29 03:00:32.17	238.07	12.52	-38.1	-39.9	19.9	0.00e+00	0	44	0	3276800000	47	4543
2026-01-29 03:00:35.38	237.79	12.24	-38.2	-40.0	19.8	0.00e+00	0	44	0	3295674368	47	4574
2026-01-29 03:00:38.22	237.55	12.00	-38.1	-39.9	19.9	0.00e+00	0	44	0	3311403008	47	4521
2026-01-29 03:00:41.35	237.29	11.73	-38.3	-40.1	19.8	0.00e+00	0	44	0	3329228800	47	4620
2026-01-29 03:00:44.19	237.05	11.49	-38.1	-39.9	19.9	0.00e+00	0	44	0	3344957440	47	4538
2026-01-29 03:00:47.32	236.80	11.23	-38.1	-40.0	19.8	0.00e+00	0	44	0	3362783232	47	4559
2026-01-29 03:00:50.19	236.58	10.99	-38.2	-40.1	19.8	0.00e+00	0	44	0	3378511872	47	4608
2026-01-29 03:00:53.73	236.30	10.70	-38.4	-40.2	19.6	0.00e+00	0	44	0	3398434816	47	4688
2026-01-29 03:00:56.48	236.09	10.48	-38.7	-40.6	19.4	0.00e+00	0	44	0	3414163456	48	4633
2026-01-29 03:00:59.75	235.85	10.22	-38.7	-40.5	19.4	0.00e+00	0	44	0	3431989248	48	4595
2026-01-29 03:01:02.47	235.65	10.00	-38.8	-40.7	19.3	0.00e+00	0	44	0	3447717888	48	4667
2026-01-29 03:01:06.05	235.39	9.71	-38.8	-40.7	19.3	0.00e+00	0	44	0	3467640832	48	4677
2026-01-29 03:01:08.76	235.20	9.50	-38.9	-40.8	19.1	0.00e+00	0	44	0	3483369472	48	4753
2026-01-29 03:01:12.03	234.97	9.24	-38.9	-40.7	19.2	0.00e+00	0	44	0	3501195264	48	4705
2026-01-29 03:01:14.76	234.78	9.03	-38.9	-40.8	19.1	0.00e+00	0	44	0	3516923904	48	4728
2026-01-29 03:01:18.04	234.56	8.78	-49.3	-61.3	3.8	8.46e-01	0	44	104	3522166784	69	15000
2026-01-29 03:01:20.75	234.38	8.57	-49.3	-61.4	3.8	8.48e-01	0	44	104	3522166784	69	15141
2026-01-29 03:01:24.03	234.16	8.32	-49.3	-61.4	3.8	8.47e-01	0	44	104	3522166784	69	15212
2026-01-29 03:01:26.72	233.99	8.12	-49.2	-61.4	3.8	8.47e-01	0	44	104	3522166784	69	15210
2026-01-29 03:01:29.99	233.78	7.88	-49.1	-61.4	3.8	8.47e-01	0	44	104	3522166784	69	15173
2026-01-29 03:01:32.68	233.62	7.68	-49.3	-61.4	3.8	8.47e-01	0	44	104	3522166784	69	15157
2026-01-29 03:01:35.95	233.42	7.44	-49.1	-61.3	3.8	8.46e-01	0	44	104	3522166784	69	15032
2026-01-29 03:01:38.66	233.25	7.24	-49.1	-61.3	3.8	8.46e-01	0	44	104	3522166784	69	15044
2026-01-29 03:01:41.92	233.06	7.00	-49.1	-61.3	3.8	8.46e-01	0	44	104	3522166784	69	14980
2026-01-29 03:01:44.63	232.90	6.81	-49.1	-61.4	3.8	8.47e-01	0	44	104	3522166784	69	15054
2026-01-29 03:01:47.89	232.71	6.57	-49.1	-61.3	3.8	8.47e-01	0	44	104	3522166784	69	15014
2026-01-29 03:01:50.59	232.56	6.38	-49.1	-61.3	3.8	8.47e-01	0	44	104	3522166784	69	14959
2026-01-29 03:01:53.87	232.37	6.15	-49.1	-61.3	3.8	8.48e-01	0	44	104	3522166784	69	15047
2026-01-29 03:01:56.58	232.22	5.96	-49.1	-61.3	3.8	8.47e-01	0	44	104	3522166784	69	15000
2026-01-29 03:01:59.84	232.05	5.73	-49.1	-61.3	3.8	8.48e-01	0	44	104	3522166784	69	14944
2026-01-29 03:02:02.58	231.90	5.54	-49.1	-61.3	3.8	8.46e-01	0	44	104	3522166784	69	14940
2026-01-29 03:02:05.85	231.73	5.32	-49.1	-61.3	3.8	8.46e-01	0	44	104	3522166784	69	14975
2026-01-29 03:02:08.54	231.59	5.14	-49.1	-61.3	3.8	8.47e-01	0	44	104	3522166784	69	15021

#Closed at: 2026-01-29 03:02:11
#Recorded file [3522 MB]: D:/Data/31040_260129_055005.dat