passes_logs/2026/01/29/T1/T1__20260129_235412_SUOMI_NPP_rec.log

#Pass ID: 20260129_235412_SUOMI NPP
#Satellite: SUOMI NPP
#Configuration: NPP
#almurnet v.1.7.20251203
#Start time: 2026-01-29 23:54:13

#Version: 2.0.20230620
#Station: T1
#Location: 37.570604 lon 55.790049 lat
#TLE: 1 37849U 11061A   26028.91916408  .00000155  00000+0  94467-4 0  9990
#TLE: 2 37849  98.7824 330.8488 0002045  39.4457 320.6868 14.19531289738686

#Time	Az	El	Level	Level2	SNR	BER	BlckErr	Temp	State	Recorded	gain1	gain2
2026-01-29 23:54:13.29	15.53	5.08	-49.7	-64.1	3.8	1.49e+00	0	36	0	0	70	19428
2026-01-29 23:54:16.29	15.52	5.29	-49.8	-64.1	3.8	1.49e+00	0	36	104	0	71	18461
2026-01-29 23:54:19.30	15.51	5.51	-49.8	-64.1	3.8	1.49e+00	0	36	104	0	71	18461
2026-01-29 23:54:22.32	15.50	5.73	-49.9	-64.0	3.8	1.49e+00	0	36	104	0	71	18244
2026-01-29 23:54:25.33	15.48	5.95	-49.5	-63.8	3.8	1.49e+00	0	36	104	0	71	17849
2026-01-29 23:54:28.34	15.47	6.17	-48.5	-63.8	3.8	1.49e+00	0	37	104	0	69	19871
2026-01-29 23:54:31.36	15.46	6.40	-47.8	-63.5	3.8	1.49e+00	0	37	104	0	67	21525
2026-01-29 23:54:34.37	15.45	6.63	-47.7	-63.1	3.8	1.49e+00	0	37	104	0	67	20769
2026-01-29 23:54:37.38	15.44	6.85	-47.6	-62.8	3.8	1.49e+00	0	37	104	0	67	19924
2026-01-29 23:54:40.40	15.43	7.09	-47.6	-62.1	3.8	1.49e+00	0	37	104	0	67	18464
2026-01-29 23:54:43.41	15.41	7.32	-47.6	-61.6	3.8	1.49e+00	0	37	104	0	67	17290
2026-01-29 23:54:46.42	15.40	7.55	-47.5	-60.6	4.0	1.48e+00	0	37	104	0	67	15504
2026-01-29 23:54:49.44	15.38	7.79	-47.5	-60.0	4.1	1.43e+00	0	37	0	0	67	14462
2026-01-29 23:54:52.45	15.37	8.03	-47.4	-58.9	4.5	1.04e+00	0	37	0	2097152	66	13481
2026-01-29 23:54:55.46	15.36	8.27	-47.3	-57.5	5.1	6.97e-01	0	37	0	8388608	66	11514
2026-01-29 23:54:58.48	15.34	8.52	-47.1	-56.0	6.2	3.45e-01	0	37	0	13631488	66	9685
2026-01-29 23:55:01.49	15.32	8.76	-47.0	-55.2	6.8	1.89e-01	0	38	0	19922944	65	9377
2026-01-29 23:55:04.50	15.31	9.01	-47.0	-55.3	6.8	1.72e-01	0	38	0	25165824	65	9425
2026-01-29 23:55:07.51	15.29	9.27	-47.0	-57.1	4.3	1.49e+00	0	38	104	28311552	65	11664
2026-01-29 23:55:10.52	15.27	9.52	-47.3	-59.4	4.0	1.47e+00	0	38	104	30408704	65	15072
2026-01-29 23:55:13.53	15.26	9.78	-47.2	-58.4	4.7	8.86e-01	0	38	0	34603008	65	13495
2026-01-29 23:55:16.77	15.24	10.06	-46.0	-51.2	10.7	7.80e-01	0	38	0	38797312	63	6588
2026-01-29 23:55:19.80	15.22	10.32	-45.1	-48.9	13.3	1.83e-03	0	38	0	44040192	62	5384
2026-01-29 23:55:22.99	15.20	10.60	-44.4	-47.5	14.8	0.00e+00	0	38	0	50331648	60	5120
2026-01-29 23:55:26.04	15.18	10.87	-44.5	-47.7	14.7	0.00e+00	0	38	0	55574528	60	5223
2026-01-29 23:55:29.15	15.15	11.15	-44.7	-47.9	14.4	7.00e-07	0	38	0	61865984	60	5384
2026-01-29 23:55:32.02	15.13	11.41	-44.1	-47.0	15.3	0.00e+00	0	38	0	67108864	60	4841
2026-01-29 23:55:35.17	15.11	11.70	-44.1	-46.7	15.6	0.00e+00	0	38	0	73400320	59	4941
2026-01-29 23:55:38.03	15.09	11.97	-43.8	-46.4	15.9	0.00e+00	0	38	0	78643200	59	4766
2026-01-29 23:55:41.18	15.07	12.27	-43.6	-46.0	16.2	0.00e+00	0	38	0	83886080	59	4577
2026-01-29 23:55:44.05	15.04	12.54	-43.6	-45.9	16.4	0.00e+00	0	38	0	90177536	59	4503
2026-01-29 23:55:47.20	15.02	12.85	-43.6	-45.9	16.4	0.00e+00	0	38	0	95420416	59	4534
2026-01-29 23:55:50.07	14.99	13.13	-43.6	-45.8	16.5	0.00e+00	0	38	0	100663296	59	4453
2026-01-29 23:55:53.22	14.96	13.44	-43.6	-45.9	16.5	0.00e+00	0	38	0	106954752	58	4762
2026-01-29 23:55:56.14	14.94	13.73	-43.6	-45.8	16.5	0.00e+00	0	38	0	112197632	58	4735
2026-01-29 23:55:59.30	14.91	14.05	-43.3	-45.4	16.9	0.00e+00	0	38	0	118489088	58	4499
2026-01-29 23:56:02.25	14.88	14.35	-43.3	-45.4	16.9	0.00e+00	0	38	0	123731968	58	4531
2026-01-29 23:56:05.72	14.85	14.71	-43.1	-45.1	17.2	0.00e+00	0	38	0	130023424	58	4367
2026-01-29 23:56:08.44	14.82	15.00	-43.0	-44.9	17.4	0.00e+00	0	38	0	135266304	57	4543
2026-01-29 23:56:11.73	14.78	15.35	-42.9	-44.8	17.5	0.00e+00	0	39	0	141557760	57	4491
2026-01-29 23:56:14.51	14.75	15.65	-42.9	-44.9	17.5	0.00e+00	0	38	0	146800640	57	4496
2026-01-29 23:56:17.81	14.72	16.02	-42.8	-44.6	17.7	0.00e+00	0	38	0	153092096	57	4371
2026-01-29 23:56:20.53	14.69	16.32	-42.7	-44.4	17.8	0.00e+00	0	39	0	158334976	57	4285
2026-01-29 23:56:23.82	14.65	16.69	-42.8	-44.6	17.7	0.00e+00	0	38	0	164626432	57	4351
2026-01-29 23:56:26.56	14.61	17.00	-42.8	-44.5	17.8	0.00e+00	0	38	0	169869312	57	4296
2026-01-29 23:56:29.86	14.57	17.39	-42.8	-44.5	17.8	0.00e+00	0	39	0	176160768	57	4325
2026-01-29 23:56:32.58	14.54	17.71	-42.8	-44.4	17.9	0.00e+00	0	39	0	180355072	57	4286
2026-01-29 23:56:35.87	14.49	18.10	-42.6	-44.1	18.2	0.00e+00	0	38	0	186646528	56	4380
2026-01-29 23:56:38.59	14.46	18.43	-42.6	-44.1	18.2	0.00e+00	0	39	0	191889408	56	4353
2026-01-29 23:56:41.98	14.41	18.85	-42.4	-43.8	18.5	0.00e+00	0	39	0	198180864	56	4216
2026-01-29 23:56:44.77	14.37	19.20	-42.5	-43.9	18.4	0.00e+00	0	38	0	203423744	56	4287
2026-01-29 23:56:48.19	14.31	19.63	-42.4	-43.9	18.4	0.00e+00	0	39	0	209715200	56	4254
2026-01-29 23:56:50.91	14.27	19.98	-42.4	-43.8	18.6	0.00e+00	0	39	0	214958080	56	4202
2026-01-29 23:56:54.40	14.22	20.44	-42.4	-43.7	18.6	0.00e+00	0	39	0	221249536	56	4188
2026-01-29 23:56:57.16	14.17	20.81	-42.4	-43.8	18.5	0.00e+00	0	39	0	226492416	56	4233
2026-01-29 23:57:00.67	14.11	21.29	-41.8	-43.1	19.0	0.00e+00	0	39	0	233832448	55	4142
2026-01-29 23:57:03.45	14.06	21.67	-41.9	-43.3	18.8	0.00e+00	0	39	0	239075328	55	4207
2026-01-29 23:57:06.75	14.00	22.13	-41.7	-43.1	19.0	0.00e+00	0	39	0	245366784	55	4128
2026-01-29 23:57:09.47	13.95	22.52	-41.9	-43.3	18.8	0.00e+00	0	39	0	249561088	55	4238
2026-01-29 23:57:12.77	13.88	23.00	-42.0	-43.4	18.8	0.00e+00	0	39	0	255852544	55	4264
2026-01-29 23:57:15.49	13.82	23.40	-42.0	-43.4	18.8	0.00e+00	0	39	0	261095424	55	4259
2026-01-29 23:57:18.78	13.75	23.89	-41.7	-42.9	19.2	0.00e+00	0	39	0	267386880	55	4049
2026-01-29 23:57:21.66	13.69	24.33	-41.8	-43.2	19.0	0.00e+00	0	39	0	272629760	55	4147
2026-01-29 23:57:25.43	13.61	24.92	-41.8	-43.1	19.0	0.00e+00	0	38	0	279969792	55	4133
2026-01-29 23:57:28.30	13.54	25.38	-41.7	-43.0	19.1	0.00e+00	0	39	0	285212672	55	4089
2026-01-29 23:57:31.45	13.46	25.89	-41.9	-43.2	19.0	0.00e+00	0	39	0	291504128	55	4184
2026-01-29 23:57:34.39	13.39	26.37	-42.0	-43.4	18.8	0.00e+00	0	39	0	296747008	55	4263
2026-01-29 23:57:37.54	13.30	26.90	-42.9	-44.6	17.9	0.00e+00	0	39	0	303038464	56	4626
2026-01-29 23:57:40.41	13.22	27.39	-43.1	-44.9	17.6	0.00e+00	0	39	0	308281344	57	4505
2026-01-29 23:57:43.56	13.13	27.94	-43.2	-44.9	17.5	0.00e+00	0	39	0	313524224	57	4526
2026-01-29 23:57:46.43	13.05	28.45	-43.0	-44.6	17.9	0.00e+00	0	39	0	318767104	57	4388
2026-01-29 23:57:49.62	12.95	29.03	-43.4	-45.1	17.4	0.00e+00	0	39	0	325058560	57	4645
2026-01-29 23:57:52.48	12.86	29.56	-44.1	-46.0	16.6	0.00e+00	0	39	0	330301440	58	4843
2026-01-29 23:57:55.63	12.76	30.15	-44.0	-46.0	16.6	0.00e+00	0	39	0	336592896	59	4576
2026-01-29 23:57:58.56	12.66	30.72	-43.8	-45.8	16.7	0.00e+00	0	39	0	341835776	59	4462
2026-01-29 23:58:01.86	12.54	31.37	-44.7	-47.1	15.5	0.00e+00	0	39	0	348127232	60	4883
2026-01-29 23:58:04.58	12.44	31.91	-45.7	-48.8	13.8	4.50e-06	0	39	0	353370112	62	5338
2026-01-29 23:58:07.88	12.31	32.59	-46.3	-50.1	12.7	3.73e-05	0	39	0	359661568	63	5802
2026-01-29 23:58:10.60	12.20	33.15	-46.1	-49.7	13.0	1.83e-05	0	39	0	364904448	63	5529
2026-01-29 23:58:14.07	12.05	33.89	-45.7	-48.7	13.9	1.52e-05	0	39	0	371195904	63	4936
2026-01-29 23:58:16.86	11.93	34.50	-44.3	-46.3	16.3	0.00e+00	0	39	0	376438784	60	4465
2026-01-29 23:58:20.16	11.77	35.24	-42.8	-44.2	18.2	0.00e+00	0	39	0	382730240	57	4190
2026-01-29 23:58:22.88	11.64	35.85	-42.4	-43.8	18.7	0.00e+00	0	39	0	387973120	56	4197
2026-01-29 23:58:26.18	11.47	36.62	-42.2	-43.6	18.9	0.00e+00	0	39	0	394264576	56	4112
2026-01-29 23:58:28.90	11.33	37.27	-41.2	-42.4	19.8	0.00e+00	0	39	0	398458880	54	4025
2026-01-29 23:58:32.20	11.15	38.07	-40.7	-41.9	20.2	0.00e+00	0	39	0	404750336	53	4018
2026-01-29 23:58:34.92	10.99	38.74	-41.5	-42.7	19.5	0.00e+00	0	39	0	409993216	53	4427
2026-01-29 23:58:38.22	10.78	39.58	-41.6	-42.8	19.4	0.00e+00	0	39	0	416284672	54	4228
2026-01-29 23:58:41.01	10.60	40.30	-41.3	-42.4	19.7	0.00e+00	0	39	0	421527552	54	4041
2026-01-29 23:58:44.29	10.38	41.17	-41.6	-42.8	19.4	0.00e+00	0	39	0	427819008	53	4463
2026-01-29 23:58:47.02	10.18	41.90	-42.2	-43.6	18.7	0.00e+00	0	39	0	433061888	55	4367
2026-01-29 23:58:50.44	9.92	42.85	-42.6	-44.0	18.4	0.00e+00	0	39	0	439353344	56	4338
2026-01-29 23:58:53.16	9.71	43.62	-42.8	-44.4	18.2	0.00e+00	0	39	0	444596224	56	4513
2026-01-29 23:58:56.46	9.43	44.57	-43.9	-45.7	16.9	0.00e+00	0	39	0	450887680	58	4671
2026-01-29 23:58:59.44	9.16	45.45	-43.6	-45.2	17.4	0.00e+00	0	39	0	456130560	58	4428
2026-01-29 23:59:02.88	8.83	46.49	-44.7	-46.8	15.9	0.00e+00	0	39	0	462422016	59	4991
2026-01-29 23:59:05.61	8.55	47.34	-44.9	-47.1	15.5	0.00e+00	0	39	0	467664896	61	4617
2026-01-29 23:59:09.13	8.17	48.45	-43.9	-45.8	16.7	0.00e+00	0	39	0	473956352	59	4442
2026-01-29 23:59:12.14	7.82	49.42	-43.9	-45.7	16.9	0.00e+00	0	39	0	480247808	58	4675
2026-01-29 23:59:15.20	7.43	50.43	-42.7	-44.2	18.3	0.00e+00	0	39	0	485490688	57	4149
2026-01-29 23:59:18.17	7.04	51.43	-42.7	-44.3	18.2	0.00e+00	0	39	0	490733568	57	4214
2026-01-29 23:59:21.45	6.57	52.56	-42.6	-44.0	18.4	0.00e+00	0	39	0	497025024	56	4326
2026-01-29 23:59:24.44	6.10	53.61	-43.9	-45.8	16.8	0.00e+00	0	39	0	503316480	58	4739
2026-01-29 23:59:27.89	5.52	54.84	-41.0	-42.1	20.0	0.00e+00	0	39	0	509607936	54	3883
2026-01-29 23:59:30.61	5.03	55.84	-41.7	-43.1	19.1	0.00e+00	0	39	0	514850816	55	4101
2026-01-29 23:59:33.91	4.38	57.06	-42.5	-43.9	18.4	0.00e+00	0	39	0	521142272	55	4532
2026-01-29 23:59:36.84	3.75	58.17	-44.0	-45.9	16.6	0.00e+00	0	39	0	526385152	58	4797
2026-01-29 23:59:40.88	2.78	59.73	-43.6	-45.3	17.1	0.00e+00	0	39	0	533725184	59	4206
2026-01-29 23:59:43.63	2.06	60.81	-42.6	-44.1	18.3	0.00e+00	0	39	0	538968064	56	4359
2026-01-29 23:59:47.22	1.01	62.23	-40.9	-42.0	20.1	0.00e+00	0	39	0	545259520	53	4083
2026-01-29 23:59:50.35	359.99	63.50	-41.3	-42.5	19.6	0.00e+00	0	39	0	551550976	53	4340
2026-01-29 23:59:53.22	358.95	64.67	-42.2	-43.6	18.7	0.00e+00	0	39	0	556793856	55	4341
2026-01-29 23:59:56.37	357.67	65.96	-42.2	-43.6	18.6	0.00e+00	0	39	0	563085312	54	4637
2026-01-29 23:59:59.23	356.37	67.15	-41.7	-43.0	19.2	0.00e+00	0	39	0	568328192	55	4063
2026-01-30 00:00:02.54	354.67	68.52	-43.2	-44.8	17.5	0.00e+00	0	39	0	574619648	58	4212
2026-01-30 00:00:05.47	352.96	69.74	-43.4	-45.0	17.5	0.00e+00	0	39	0	579862528	58	4303
2026-01-30 00:00:08.77	350.74	71.11	-42.5	-44.0	18.3	0.00e+00	0	39	0	586153984	57	4066
2026-01-30 00:00:11.49	348.63	72.23	-40.2	-41.3	20.6	0.00e+00	0	39	0	591396864	52	3961
2026-01-30 00:00:14.78	345.69	73.56	-40.9	-42.0	20.0	0.00e+00	0	39	0	597688320	52	4339
2026-01-30 00:00:17.84	342.46	74.77	-44.0	-45.9	16.7	0.00e+00	0	39	0	602931200	58	4763
2026-01-30 00:00:21.13	338.35	76.01	-44.8	-47.1	15.4	0.00e+00	0	39	0	609222656	60	4914
2026-01-30 00:00:23.87	334.32	77.00	-44.4	-46.5	16.0	0.00e+00	0	39	0	614465536	59	4815
2026-01-30 00:00:27.15	328.62	78.09	-43.3	-44.9	17.4	0.00e+00	0	39	0	620756992	57	4514
2026-01-30 00:00:30.02	322.73	78.94	-43.7	-45.3	17.2	0.00e+00	0	39	0	625999872	57	4749
2026-01-30 00:00:33.17	315.21	79.72	-43.3	-44.9	17.6	0.00e+00	0	39	0	632291328	57	4497
2026-01-30 00:00:36.03	307.44	80.25	-44.8	-46.9	15.7	7.00e-07	0	39	0	637534208	61	4522
2026-01-30 00:00:39.32	297.60	80.63	-46.8	-50.7	11.8	2.62e-04	0	39	0	643825664	64	5858
2026-01-30 00:00:42.04	289.06	80.72	-45.9	-48.8	13.8	8.30e-06	0	39	0	649068544	62	5286
2026-01-30 00:00:45.34	278.76	80.55	-44.9	-47.3	15.3	0.00e+00	0	39	0	654311424	61	4722
2026-01-30 00:00:48.06	270.74	80.20	-46.1	-49.1	13.3	3.00e-06	0	39	0	659554304	62	5523
2026-01-30 00:00:51.37	261.93	79.55	-45.1	-47.4	15.1	1.83e-05	0	39	0	665845760	62	4543
2026-01-30 00:00:54.38	254.98	78.76	-45.0	-47.4	15.0	9.10e-06	0	39	0	672137216	62	4513
2026-01-30 00:00:57.39	249.02	77.85	-46.3	-49.7	12.7	3.29e-04	0	39	0	677380096	64	5232
2026-01-30 00:01:00.35	244.03	76.85	-47.4	-52.4	9.8	1.10e-02	0	39	0	682622976	66	6380
2026-01-30 00:01:03.37	239.72	75.75	-43.9	-45.8	16.7	0.00e+00	0	39	0	688914432	59	4448
2026-01-30 00:01:06.37	236.09	74.60	-42.2	-43.5	18.8	0.00e+00	0	40	0	694157312	56	4081
2026-01-30 00:01:09.38	232.98	73.40	-40.9	-42.0	19.9	0.00e+00	0	39	0	699400192	52	4298
2026-01-30 00:01:12.41	230.30	72.17	-41.6	-42.9	19.2	0.00e+00	0	39	0	705691648	54	4264
2026-01-30 00:01:15.38	228.02	70.95	-41.2	-42.4	19.6	0.00e+00	0	39	0	710934528	53	4246
2026-01-30 00:01:18.39	226.02	69.70	-42.5	-43.9	18.4	0.00e+00	0	39	0	717225984	57	4044
2026-01-30 00:01:21.40	224.26	68.44	-43.7	-45.5	16.9	0.00e+00	0	39	0	722468864	58	4571
2026-01-30 00:01:24.41	222.71	67.19	-41.4	-42.7	19.3	0.00e+00	0	39	0	727711744	54	4148
2026-01-30 00:01:27.35	221.37	65.97	-42.7	-44.2	18.0	0.00e+00	0	39	0	734003200	55	4671
2026-01-30 00:01:30.50	220.09	64.67	-42.8	-44.3	18.1	0.00e+00	0	39	0	739246080	57	4220
2026-01-30 00:01:33.36	219.05	63.50	-45.0	-47.5	15.0	0.00e+00	0	39	0	744488960	60	5132
2026-01-30 00:01:36.51	218.02	62.23	-45.5	-48.2	14.2	7.00e-07	0	39	0	750780416	61	5258
2026-01-30 00:01:39.38	217.17	61.08	-41.4	-43.0	18.8	0.00e+00	0	39	0	756023296	55	4068
2026-01-30 00:01:42.53	216.32	59.84	-40.8	-41.9	20.0	0.00e+00	0	39	0	762314752	52	4290
2026-01-30 00:01:45.39	215.62	58.73	-41.5	-42.8	19.2	0.00e+00	0	39	0	767557632	53	4490
2026-01-30 00:01:48.91	214.84	57.38	-41.1	-42.3	19.6	0.00e+00	0	40	0	773849088	53	4210
2026-01-30 00:01:51.63	214.28	56.36	-43.5	-45.2	17.1	0.00e+00	0	39	0	779091968	57	4683
2026-01-30 00:01:55.19	213.61	55.05	-43.6	-45.4	16.9	0.00e+00	0	39	0	785383424	58	4503
2026-01-30 00:01:58.29	213.08	53.93	-42.6	-44.1	18.1	0.00e+00	0	40	0	791674880	56	4351
2026-01-30 00:02:01.16	212.62	52.91	-42.3	-43.7	18.3	0.00e+00	0	39	0	796917760	55	4412
2026-01-30 00:02:04.44	212.13	51.77	-41.8	-43.1	18.9	0.00e+00	0	39	0	803209216	54	4353
2026-01-30 00:02:07.19	211.75	50.84	-42.9	-44.4	17.8	0.00e+00	0	39	0	808452096	56	4525
2026-01-30 00:02:10.49	211.33	49.73	-44.4	-46.5	15.9	0.00e+00	0	39	0	814743552	59	4828
2026-01-30 00:02:13.21	211.00	48.84	-44.2	-46.1	16.2	0.00e+00	0	40	0	819986432	59	4629
2026-01-30 00:02:16.50	210.63	47.79	-45.6	-48.5	13.7	6.10e-06	0	39	0	825229312	62	5102
2026-01-30 00:02:19.48	210.32	46.86	-45.0	-47.3	15.0	0.00e+00	0	40	0	831520768	60	5030
2026-01-30 00:02:22.49	210.02	45.93	-43.3	-44.9	17.3	0.00e+00	0	39	0	836763648	58	4285
2026-01-30 00:02:25.50	209.74	45.03	-43.6	-45.4	16.9	0.00e+00	0	40	0	842006528	57	4762
2026-01-30 00:02:28.59	209.46	44.12	-44.5	-46.6	15.7	0.00e+00	0	40	0	848297984	59	4917
2026-01-30 00:02:31.45	209.22	43.30	-44.4	-46.6	15.6	0.00e+00	0	40	0	853540864	59	4896
2026-01-30 00:02:34.60	208.98	42.41	-46.7	-50.8	11.5	2.36e-05	0	40	0	859832320	64	5934
2026-01-30 00:02:37.76	208.74	41.54	-43.8	-45.7	16.7	0.00e+00	0	40	0	865075200	59	4400
2026-01-30 00:02:40.79	208.53	40.73	-44.5	-46.6	15.8	0.00e+00	0	39	0	871366656	59	4913
2026-01-30 00:02:44.54	208.28	39.74	-44.5	-46.7	15.6	0.00e+00	0	40	0	878706688	60	4699
2026-01-30 00:02:47.44	208.09	39.00	-44.2	-46.3	16.2	0.00e+00	0	40	0	883949568	60	4464
2026-01-30 00:02:51.23	207.87	38.05	-42.3	-43.8	18.4	0.00e+00	0	40	0	890241024	56	4226
2026-01-30 00:02:54.18	207.70	37.33	-43.9	-45.8	16.4	0.00e+00	0	40	0	896532480	58	4758
2026-01-30 00:02:57.47	207.52	36.55	-44.1	-46.2	16.1	0.00e+00	0	39	0	902823936	60	4411
2026-01-30 00:03:00.20	207.38	35.91	-44.7	-47.0	15.3	0.00e+00	0	40	0	908066816	60	4869
2026-01-30 00:03:03.60	207.21	35.13	-44.9	-47.3	15.0	0.00e+00	0	40	0	914358272	61	4749
2026-01-30 00:03:06.93	207.06	34.39	-43.8	-45.6	16.7	0.00e+00	0	40	0	920649728	59	4371
2026-01-30 00:03:10.14	206.91	33.69	-43.6	-45.3	16.9	0.00e+00	0	40	0	925892608	58	4492
2026-01-30 00:03:13.30	206.78	33.01	-43.8	-45.6	16.7	0.00e+00	0	40	0	932184064	58	4603
2026-01-30 00:03:16.16	206.66	32.41	-43.8	-45.6	16.7	0.00e+00	0	40	0	937426944	58	4627
2026-01-30 00:03:19.50	206.53	31.73	-43.7	-45.5	16.6	0.00e+00	0	40	0	943718400	58	4576
2026-01-30 00:03:22.23	206.43	31.18	-43.9	-45.9	16.2	0.00e+00	0	40	0	948961280	58	4782
2026-01-30 00:03:25.79	206.30	30.48	-43.6	-45.4	16.8	0.00e+00	0	40	0	955252736	58	4517
2026-01-30 00:03:28.51	206.20	29.96	-43.7	-45.6	16.6	0.00e+00	0	40	0	960495616	58	4611
2026-01-30 00:03:31.80	206.09	29.34	-44.1	-46.1	16.1	0.00e+00	0	40	0	966787072	58	4876
2026-01-30 00:03:34.62	206.00	28.82	-43.2	-44.9	17.2	0.00e+00	0	40	0	972029952	58	4258
2026-01-30 00:03:37.89	205.90	28.22	-42.4	-43.9	18.2	0.00e+00	0	40	0	978321408	56	4244
2026-01-30 00:03:40.86	205.81	27.70	-42.4	-43.8	18.2	0.00e+00	0	40	0	983564288	56	4222
2026-01-30 00:03:43.86	205.73	27.17	-42.6	-44.1	18.0	0.00e+00	0	40	0	989855744	56	4347
2026-01-30 00:03:46.87	205.64	26.66	-42.2	-43.6	18.4	0.00e+00	0	40	0	995098624	56	4140
2026-01-30 00:03:49.90	205.56	26.15	-41.8	-43.2	18.7	0.00e+00	0	39	0	1000341504	55	4155
2026-01-30 00:03:52.90	205.49	25.66	-41.6	-43.0	18.8	0.00e+00	0	40	0	1006632960	55	4074
2026-01-30 00:03:55.91	205.41	25.17	-42.2	-43.7	18.1	0.00e+00	0	40	0	1011875840	55	4403
2026-01-30 00:03:59.30	205.33	24.63	-42.2	-43.7	18.2	0.00e+00	0	40	0	1018167296	55	4404
2026-01-30 00:04:02.23	205.26	24.17	-42.2	-43.8	18.2	0.00e+00	0	40	0	1023410176	55	4443
2026-01-30 00:04:06.11	205.17	23.58	-43.1	-44.9	17.2	0.00e+00	0	40	0	1030750208	56	4793
2026-01-30 00:04:09.15	205.11	23.13	-43.2	-45.1	17.0	0.00e+00	0	40	0	1037041664	57	4600
2026-01-30 00:04:12.21	205.04	22.68	-43.7	-45.6	16.5	0.00e+00	0	40	0	1042284544	58	4638
2026-01-30 00:04:15.50	204.98	22.20	-43.4	-45.2	17.0	0.00e+00	0	40	0	1048576000	58	4412
2026-01-30 00:04:18.22	204.92	21.82	-43.0	-44.6	17.4	0.00e+00	0	40	0	1053818880	57	4387
2026-01-30 00:04:21.78	204.86	21.32	-42.6	-44.2	17.8	0.00e+00	0	40	0	1060110336	57	4162
2026-01-30 00:04:24.49	204.81	20.95	-42.7	-44.2	17.8	0.00e+00	0	40	0	1065353216	56	4425
2026-01-30 00:04:27.79	204.75	20.50	-43.1	-44.7	17.3	0.00e+00	0	40	0	1071644672	56	4695
2026-01-30 00:04:30.58	204.70	20.13	-42.8	-44.3	17.7	0.00e+00	0	40	0	1076887552	57	4224
2026-01-30 00:04:33.73	204.65	19.72	-42.4	-43.9	18.1	0.00e+00	0	40	0	1083179008	56	4243
2026-01-30 00:04:36.60	204.60	19.35	-42.2	-43.6	18.3	0.00e+00	0	40	0	1088421888	56	4116
2026-01-30 00:04:39.81	204.55	18.94	-42.0	-43.4	18.3	0.00e+00	0	40	0	1094713344	55	4291
2026-01-30 00:04:42.75	204.51	18.58	-42.5	-44.0	17.8	0.00e+00	0	40	0	1099956224	55	4577
2026-01-30 00:04:46.02	204.46	18.17	-43.1	-44.7	17.3	0.00e+00	0	40	0	1106247680	56	4700
2026-01-30 00:04:48.96	204.41	17.82	-43.6	-45.4	16.6	0.00e+00	0	40	0	1111490560	58	4524
2026-01-30 00:04:52.11	204.37	17.44	-44.0	-46.0	16.0	0.00e+00	0	40	0	1117782016	58	4841
2026-01-30 00:04:55.09	204.33	17.09	-44.3	-46.5	15.6	0.00e+00	0	40	0	1123024896	59	4829
2026-01-30 00:04:58.41	204.29	16.71	-44.3	-46.4	15.6	0.00e+00	0	40	0	1129316352	59	4792
2026-01-30 00:05:01.13	204.25	16.40	-44.1	-46.2	15.8	0.00e+00	0	40	0	1134559232	59	4689
2026-01-30 00:05:04.90	204.20	15.97	-44.4	-46.6	15.4	0.00e+00	0	40	0	1141899264	59	4901
2026-01-30 00:05:07.67	204.17	15.67	-44.2	-46.4	15.6	0.00e+00	0	40	0	1146093568	59	4800
2026-01-30 00:05:11.41	204.13	15.26	-44.6	-47.1	14.9	0.00e+00	0	40	0	1153433600	59	5186
2026-01-30 00:05:14.15	204.10	14.96	-44.5	-47.0	15.0	0.00e+00	0	40	0	1158676480	60	4842
2026-01-30 00:05:17.89	204.05	14.57	-44.7	-47.4	14.6	0.00e+00	0	40	0	1166016512	60	5069
2026-01-30 00:05:20.75	204.02	14.27	-44.6	-47.1	14.9	0.00e+00	0	40	0	1171259392	60	4911
2026-01-30 00:05:24.57	203.98	13.87	-44.7	-47.4	14.6	0.00e+00	0	40	0	1178599424	60	5060
2026-01-30 00:05:27.48	203.95	13.58	-44.4	-47.0	15.0	0.00e+00	0	40	0	1183842304	60	4842
2026-01-30 00:05:31.09	203.92	13.22	-44.4	-46.9	15.0	0.00e+00	0	40	0	1190133760	60	4801
2026-01-30 00:05:34.10	203.89	12.92	-44.2	-46.7	15.2	0.00e+00	0	40	0	1196425216	60	4662
2026-01-30 00:05:37.21	203.86	12.61	-44.0	-46.4	15.5	0.00e+00	0	40	0	1201668096	59	4799
2026-01-30 00:05:40.07	203.83	12.34	-44.0	-46.3	15.6	0.00e+00	0	40	0	1206910976	59	4750
2026-01-30 00:05:43.22	203.81	12.04	-44.0	-46.4	15.5	0.00e+00	0	40	0	1213202432	59	4796
2026-01-30 00:05:46.08	203.78	11.77	-44.0	-46.5	15.3	0.00e+00	0	40	0	1218445312	59	4864
2026-01-30 00:05:49.32	203.75	11.47	-44.2	-46.8	15.1	0.00e+00	0	40	0	1224736768	59	5005
2026-01-30 00:05:52.18	203.73	11.20	-44.1	-46.6	15.2	0.00e+00	0	40	0	1229979648	59	4908
2026-01-30 00:05:55.67	203.70	10.89	-44.2	-46.7	15.1	0.00e+00	0	40	0	1236271104	59	4955
2026-01-30 00:05:58.39	203.68	10.64	-44.1	-46.7	15.1	0.00e+00	0	40	0	1241513984	59	4961
2026-01-30 00:06:01.81	203.65	10.34	-44.1	-46.6	15.2	0.00e+00	0	40	0	1247805440	59	4896
2026-01-30 00:06:04.53	203.63	10.10	-43.9	-46.4	15.4	0.00e+00	0	40	0	1253048320	59	4773
2026-01-30 00:06:07.83	203.61	9.81	-43.9	-46.3	15.4	0.00e+00	0	40	0	1259339776	59	4757
2026-01-30 00:06:10.55	203.59	9.57	-43.9	-46.3	15.5	0.00e+00	0	40	0	1264582656	59	4742
2026-01-30 00:06:13.86	203.57	9.29	-44.0	-46.6	15.2	0.00e+00	0	40	0	1270874112	59	4885
2026-01-30 00:06:16.72	203.55	9.05	-44.1	-46.7	15.1	0.00e+00	0	40	0	1276116992	59	4929
2026-01-30 00:06:19.88	203.53	8.79	-47.1	-62.5	3.8	1.49e+00	0	40	104	1278214144	66	20441
2026-01-30 00:06:22.75	203.51	8.55	-47.6	-62.3	3.8	1.49e+00	0	40	104	1278214144	66	19871
2026-01-30 00:06:25.91	203.49	8.29	-48.4	-62.8	3.8	1.49e+00	0	40	104	1278214144	67	20032
2026-01-30 00:06:28.77	203.47	8.06	-48.6	-62.9	3.8	1.49e+00	0	40	104	1278214144	67	20210
2026-01-30 00:06:31.93	203.45	7.80	-48.6	-63.2	3.8	1.49e+00	0	40	104	1278214144	68	19623
2026-01-30 00:06:34.80	203.44	7.58	-48.8	-63.2	3.8	1.49e+00	0	40	104	1278214144	68	19648
2026-01-30 00:06:37.95	203.42	7.33	-48.8	-63.2	3.8	1.49e+00	0	40	104	1278214144	68	19742
2026-01-30 00:06:40.82	203.40	7.10	-48.8	-63.2	3.8	1.49e+00	0	40	104	1278214144	68	19646
2026-01-30 00:06:43.98	203.39	6.86	-48.9	-63.2	3.8	1.49e+00	0	40	104	1278214144	68	19644
2026-01-30 00:06:46.85	203.37	6.64	-48.9	-63.1	3.8	1.49e+00	0	40	104	1278214144	68	19531
2026-01-30 00:06:50.01	203.35	6.40	-48.8	-63.1	3.8	1.49e+00	0	40	104	1278214144	68	19485
2026-01-30 00:06:52.87	203.34	6.18	-48.8	-63.1	3.8	1.49e+00	0	40	104	1278214144	68	19429
2026-01-30 00:06:56.03	203.32	5.95	-48.8	-63.1	3.8	1.49e+00	0	40	104	1278214144	68	19454
2026-01-30 00:06:58.90	203.31	5.73	-48.8	-63.1	3.8	1.49e+00	0	40	104	1278214144	68	19497
2026-01-30 00:07:02.06	203.29	5.50	-48.8	-63.1	3.8	1.49e+00	0	40	104	1278214144	68	19476
2026-01-30 00:07:04.93	203.28	5.29	-48.8	-63.1	3.8	1.49e+00	0	40	104	1278214144	68	19505
2026-01-30 00:07:08.08	203.27	5.07	-48.8	-63.1	3.8	1.49e+00	0	40	104	1278214144	68	19508

#Closed at: 2026-01-30 00:07:10
#Recorded file [1278 MB]: D:/Data/31040_260130_025413.dat