passes_logs/2026/01/29/T1/T1__20260129_084443_NOAA_20_JPSS-1_rec.log

#Pass ID: 20260129_084443_NOAA 20 (JPSS-1)
#Satellite: NOAA 20 (JPSS-1)
#Configuration: NOAA 20
#almurnet v.1.7.20251203
#Start time: 2026-01-29 08:44:45

#Version: 2.0.20230620
#Station: T1
#Location: 37.570604 lon 55.790049 lat
#TLE: 1 43013U 17073A   26027.94683596  .00000137  00000+0  85741-4 0  9995
#TLE: 2 43013  98.7648 328.7503 0000940  21.3928 338.7287 14.19541154424576

#Time	Az	El	Level	Level2	SNR	BER	BlckErr	Temp	State	Recorded	gain1	gain2
2026-01-29 08:44:45.15	122.79	5.14	-49.8	-65.3	3.8	1.49e+00	0	37	0	0	70	22346
2026-01-29 08:44:48.12	122.60	5.34	-49.9	-65.3	3.8	1.49e+00	0	37	104	0	71	21099
2026-01-29 08:44:51.10	122.42	5.54	-50.0	-65.2	3.8	1.49e+00	0	37	104	0	71	20928
2026-01-29 08:44:54.08	122.23	5.74	-49.9	-65.2	3.8	1.49e+00	0	38	104	0	71	20858
2026-01-29 08:44:57.06	122.04	5.94	-49.9	-65.1	3.8	1.49e+00	0	38	104	0	71	20638
2026-01-29 08:45:00.04	121.84	6.14	-49.8	-64.9	3.8	1.49e+00	0	38	104	0	71	20244
2026-01-29 08:45:03.02	121.65	6.35	-49.2	-64.3	3.8	1.49e+00	0	38	104	0	70	19925
2026-01-29 08:45:06.00	121.45	6.55	-49.2	-64.1	3.8	1.49e+00	0	38	104	0	70	19463
2026-01-29 08:45:08.98	121.24	6.76	-49.2	-64.1	3.8	1.49e+00	0	38	104	0	70	19514
2026-01-29 08:45:11.96	121.04	6.97	-49.2	-64.3	3.8	1.49e+00	0	38	104	0	70	19852
2026-01-29 08:45:14.94	120.83	7.18	-49.2	-64.3	3.8	1.49e+00	0	38	104	0	70	19963
2026-01-29 08:45:17.92	120.62	7.39	-49.2	-64.2	3.8	1.49e+00	0	38	104	0	70	19667
2026-01-29 08:45:20.90	120.40	7.60	-49.2	-64.2	3.8	1.49e+00	0	38	104	0	70	19799
2026-01-29 08:45:23.88	120.18	7.81	-49.0	-61.0	4.2	1.48e+00	0	38	0	0	70	13663
2026-01-29 08:45:26.86	119.96	8.03	-47.7	-54.5	8.5	6.21e-02	0	38	0	4194304	67	7673
2026-01-29 08:45:29.84	119.74	8.24	-46.1	-50.6	12.6	1.39e-04	0	38	0	10485760	64	5795
2026-01-29 08:45:32.82	119.51	8.46	-45.4	-49.1	14.2	2.20e-06	0	39	0	15728640	62	5501
2026-01-29 08:45:35.80	119.28	8.68	-45.6	-49.6	13.7	1.50e-06	0	38	0	20971520	62	5795
2026-01-29 08:45:38.78	119.04	8.90	-47.3	-53.1	10.0	2.49e-03	0	39	0	27262976	65	7343
2026-01-29 08:45:41.76	118.80	9.12	-45.9	-50.1	13.1	2.94e-01	0	39	0	32505856	63	5810
2026-01-29 08:45:44.74	118.56	9.34	-47.8	-54.3	5.2	1.48e+00	0	39	104	35651584	67	7541
2026-01-29 08:45:47.73	118.31	9.57	-46.7	-51.5	11.7	4.70e-04	0	39	0	39845888	64	6493
2026-01-29 08:45:50.74	118.06	9.80	-46.1	-50.3	13.1	3.43e-05	0	39	0	46137344	63	5925
2026-01-29 08:45:53.73	117.80	10.03	-45.1	-48.6	14.8	7.00e-07	0	39	0	51380224	62	5171
2026-01-29 08:45:56.72	117.54	10.26	-44.5	-47.7	15.7	0.00e+00	0	39	0	56623104	60	5235
2026-01-29 08:45:59.70	117.28	10.49	-44.6	-47.7	15.7	0.00e+00	0	39	0	62914560	60	5276
2026-01-29 08:46:02.75	117.00	10.73	-44.5	-47.6	15.8	0.00e+00	0	39	0	68157440	60	5212
2026-01-29 08:46:05.69	116.73	10.96	-44.3	-47.3	16.1	0.00e+00	0	39	0	73400320	60	4993
2026-01-29 08:46:09.07	116.42	11.22	-44.3	-47.4	16.1	0.00e+00	0	39	0	79691776	60	5046
2026-01-29 08:46:11.78	116.16	11.44	-44.5	-47.6	15.8	0.00e+00	0	39	0	84934656	60	5212
2026-01-29 08:46:15.02	115.85	11.70	-44.4	-47.4	16.1	0.00e+00	0	39	0	91226112	60	5064
2026-01-29 08:46:17.86	115.57	11.93	-44.3	-47.4	16.2	0.00e+00	0	39	0	96468992	60	5042
2026-01-29 08:46:20.99	115.26	12.18	-44.2	-47.1	16.4	0.00e+00	0	39	0	102760448	60	4911
2026-01-29 08:46:23.92	114.97	12.42	-44.3	-47.3	16.2	0.00e+00	0	39	0	108003328	60	5011
2026-01-29 08:46:27.11	114.64	12.69	-44.2	-47.2	16.3	0.00e+00	0	39	0	114294784	60	4962
2026-01-29 08:46:29.96	114.34	12.92	-44.2	-47.2	16.4	0.00e+00	0	39	0	119537664	60	4945
2026-01-29 08:46:33.08	114.01	13.19	-44.2	-47.2	16.3	0.00e+00	0	39	0	124780544	60	4956
2026-01-29 08:46:36.14	113.67	13.44	-44.2	-47.1	16.5	0.00e+00	0	39	0	131072000	60	4902
2026-01-29 08:46:38.99	113.36	13.68	-44.0	-46.9	16.7	0.00e+00	0	39	0	136314880	60	4775
2026-01-29 08:46:42.12	113.01	13.95	-44.2	-47.2	16.4	0.00e+00	0	39	0	142606336	59	5222
2026-01-29 08:46:44.96	112.68	14.20	-44.3	-47.3	16.2	0.00e+00	0	39	0	147849216	59	5295
2026-01-29 08:46:48.09	112.32	14.47	-44.0	-46.8	16.7	0.00e+00	0	40	0	153092096	59	5025
2026-01-29 08:46:51.31	111.94	14.75	-44.2	-47.1	16.4	0.00e+00	0	39	0	159383552	59	5195
2026-01-29 08:46:54.21	111.59	15.00	-44.0	-46.8	16.7	0.00e+00	0	39	0	164626432	59	5026
2026-01-29 08:46:57.72	111.16	15.31	-44.3	-47.2	16.4	0.00e+00	0	39	0	170917888	59	5261
2026-01-29 08:47:00.45	110.81	15.55	-44.2	-47.1	16.5	0.00e+00	0	39	0	176160768	59	5177
2026-01-29 08:47:03.71	110.40	15.84	-44.5	-47.5	16.1	0.00e+00	0	40	0	182452224	59	5427
2026-01-29 08:47:06.43	110.04	16.09	-44.4	-47.4	16.3	0.00e+00	0	40	0	187695104	59	5341
2026-01-29 08:47:09.71	109.61	16.39	-43.8	-46.5	17.1	0.00e+00	0	39	0	193986560	59	4826
2026-01-29 08:47:12.70	109.20	16.66	-43.9	-46.6	17.0	0.00e+00	0	40	0	199229440	59	4910
2026-01-29 08:47:15.97	108.75	16.96	-43.6	-46.2	17.4	0.00e+00	0	39	0	205520896	59	4689
2026-01-29 08:47:18.70	108.37	17.21	-43.4	-46.0	17.6	0.00e+00	0	39	0	210763776	58	4849
2026-01-29 08:47:21.97	107.90	17.51	-43.6	-46.3	17.3	0.00e+00	0	39	0	217055232	58	4997
2026-01-29 08:47:24.82	107.49	17.78	-43.4	-46.1	17.6	0.00e+00	0	39	0	222298112	58	4877
2026-01-29 08:47:28.34	106.97	18.11	-43.5	-46.2	17.5	0.00e+00	0	39	0	228589568	58	4938
2026-01-29 08:47:31.18	106.54	18.37	-43.5	-46.1	17.6	0.00e+00	0	39	0	233832448	58	4884
2026-01-29 08:47:34.32	106.05	18.67	-43.5	-46.1	17.5	0.00e+00	0	40	0	240123904	58	4921
2026-01-29 08:47:37.23	105.59	18.95	-43.6	-46.2	17.4	0.00e+00	0	39	0	245366784	58	4970
2026-01-29 08:47:40.42	105.08	19.25	-43.3	-45.8	17.8	0.00e+00	0	39	0	251658240	58	4749
2026-01-29 08:47:43.37	104.60	19.53	-43.3	-45.9	17.8	0.00e+00	0	39	0	256901120	58	4771
2026-01-29 08:47:46.58	104.06	19.84	-43.5	-46.1	17.6	0.00e+00	0	39	0	263192576	58	4899
2026-01-29 08:47:49.42	103.58	20.11	-43.7	-46.4	17.3	0.00e+00	0	40	0	268435456	58	5059
2026-01-29 08:47:52.55	103.04	20.42	-43.8	-46.5	17.2	0.00e+00	0	40	0	274726912	58	5119
2026-01-29 08:47:55.39	102.54	20.69	-43.9	-46.6	17.1	0.00e+00	0	39	0	279969792	58	5213
2026-01-29 08:47:58.52	101.97	21.00	-43.9	-46.7	17.1	0.00e+00	0	40	0	285212672	58	5225
2026-01-29 08:48:01.36	101.45	21.27	-44.0	-46.8	16.9	0.00e+00	0	39	0	290455552	58	5300
2026-01-29 08:48:04.49	100.87	21.58	-43.9	-46.6	17.1	0.00e+00	0	40	0	296747008	59	4916
2026-01-29 08:48:07.32	100.33	21.86	-43.8	-46.5	17.2	0.00e+00	0	39	0	301989888	59	4834
2026-01-29 08:48:10.45	99.72	22.16	-43.5	-46.1	17.6	0.00e+00	0	40	0	308281344	59	4615
2026-01-29 08:48:13.29	99.16	22.44	-43.3	-45.9	17.8	0.00e+00	0	39	0	313524224	58	4780
2026-01-29 08:48:16.42	98.53	22.75	-43.3	-45.9	17.8	0.00e+00	0	40	0	318767104	58	4797
2026-01-29 08:48:19.26	97.94	23.02	-43.2	-45.6	18.1	0.00e+00	0	39	0	324009984	58	4645
2026-01-29 08:48:22.50	97.26	23.34	-42.9	-45.4	18.3	0.00e+00	0	40	0	330301440	57	4766
2026-01-29 08:48:25.35	96.65	23.62	-42.9	-45.3	18.4	0.00e+00	0	39	0	335544320	57	4736
2026-01-29 08:48:28.70	95.93	23.95	-42.9	-45.3	18.3	0.00e+00	0	40	0	341835776	57	4759
2026-01-29 08:48:31.42	95.32	24.21	-42.9	-45.4	18.3	0.00e+00	0	39	0	347078656	57	4762
2026-01-29 08:48:34.76	94.57	24.53	-42.9	-45.3	18.3	0.00e+00	0	40	0	353370112	57	4758
2026-01-29 08:48:37.55	93.92	24.80	-42.7	-45.2	18.5	0.00e+00	0	39	0	358612992	57	4655
2026-01-29 08:48:40.68	93.19	25.10	-42.5	-44.9	18.8	0.00e+00	0	40	0	364904448	57	4519
2026-01-29 08:48:43.52	92.51	25.37	-42.8	-45.2	18.5	0.00e+00	0	40	0	370147328	56	4939
2026-01-29 08:48:46.65	91.75	25.67	-42.6	-44.9	18.8	0.00e+00	0	40	0	375390208	56	4795
2026-01-29 08:48:49.50	91.04	25.94	-42.7	-45.2	18.5	0.00e+00	0	40	0	380633088	56	4927
2026-01-29 08:48:52.68	90.24	26.23	-43.3	-45.8	17.9	0.00e+00	0	39	0	386924544	57	5033
2026-01-29 08:48:55.81	89.44	26.52	-43.5	-46.1	17.6	0.00e+00	0	40	0	393216000	57	5192
2026-01-29 08:48:58.67	88.69	26.78	-43.5	-46.1	17.7	0.00e+00	0	39	0	398458880	57	5172
2026-01-29 08:49:01.84	87.85	27.06	-43.8	-46.6	17.2	0.00e+00	0	40	0	403701760	58	5173
2026-01-29 08:49:04.75	87.06	27.32	-43.7	-46.5	17.3	0.00e+00	0	39	0	409993216	58	5104
2026-01-29 08:49:07.92	86.19	27.60	-43.9	-46.7	17.1	0.00e+00	0	40	0	415236096	58	5226
2026-01-29 08:49:10.77	85.39	27.84	-43.8	-46.6	17.2	0.00e+00	0	40	0	420478976	58	5188
2026-01-29 08:49:13.89	84.51	28.11	-44.1	-47.1	16.7	0.00e+00	0	39	0	426770432	58	5479
2026-01-29 08:49:16.74	83.68	28.34	-44.1	-46.9	16.8	0.00e+00	0	40	0	432013312	58	5401
2026-01-29 08:49:19.99	82.73	28.61	-44.1	-47.0	16.8	0.00e+00	0	40	0	438304768	59	5110
2026-01-29 08:49:22.74	81.91	28.83	-44.2	-47.1	16.7	0.00e+00	0	40	0	443547648	59	5172
2026-01-29 08:49:26.01	80.93	29.08	-44.0	-46.8	17.0	0.00e+00	0	40	0	449839104	59	5019
2026-01-29 08:49:28.74	80.09	29.28	-44.0	-46.8	17.0	0.00e+00	0	39	0	455081984	59	5003
2026-01-29 08:49:32.01	79.08	29.52	-44.2	-47.0	16.8	0.00e+00	0	40	0	460324864	59	5136
2026-01-29 08:49:34.83	78.19	29.72	-44.1	-46.9	16.9	0.00e+00	0	40	0	465567744	59	5071
2026-01-29 08:49:38.05	77.16	29.94	-44.3	-47.1	16.7	0.00e+00	0	39	0	471859200	59	5197
2026-01-29 08:49:41.71	75.98	30.18	-44.2	-47.1	16.7	0.00e+00	0	40	0	479199232	59	5166
2026-01-29 08:49:44.41	75.09	30.35	-44.5	-47.4	16.4	0.00e+00	0	40	0	484442112	59	5375
2026-01-29 08:49:47.68	74.01	30.54	-44.7	-47.7	16.2	0.00e+00	0	40	0	489684992	60	5234
2026-01-29 08:49:50.53	73.06	30.70	-44.8	-47.8	16.1	0.00e+00	0	40	0	494927872	60	5335
2026-01-29 08:49:53.65	72.00	30.87	-44.4	-47.3	16.6	0.00e+00	0	40	0	501219328	60	4998
2026-01-29 08:49:56.50	71.03	31.01	-44.3	-47.1	16.8	0.00e+00	0	40	0	506462208	60	4910
2026-01-29 08:49:59.62	69.95	31.16	-44.3	-47.2	16.6	0.00e+00	0	39	0	512753664	60	4938
2026-01-29 08:50:02.46	68.97	31.29	-44.1	-46.9	17.0	0.00e+00	0	40	0	517996544	60	4780
2026-01-29 08:50:05.72	67.82	31.42	-44.2	-46.9	16.9	0.00e+00	0	39	0	524288000	60	4801
2026-01-29 08:50:08.81	66.73	31.53	-44.2	-47.1	16.9	0.00e+00	0	40	0	529530880	60	4875
2026-01-29 08:50:12.16	65.54	31.64	-44.5	-47.5	16.5	0.00e+00	0	40	0	535822336	60	5107
2026-01-29 08:50:14.86	64.58	31.72	-44.6	-47.6	16.3	0.00e+00	0	39	0	541065216	60	5174
2026-01-29 08:50:18.18	63.39	31.81	-44.8	-47.8	16.1	0.00e+00	0	40	0	547356672	60	5306
2026-01-29 08:50:21.21	62.29	31.87	-45.1	-48.2	15.7	0.00e+00	0	39	0	552599552	60	5580
2026-01-29 08:50:24.50	61.10	31.93	-45.2	-48.4	15.5	0.00e+00	0	40	0	558891008	61	5382
2026-01-29 08:50:27.20	60.12	31.96	-45.2	-48.4	15.5	0.00e+00	0	40	0	564133888	61	5367
2026-01-29 08:50:30.50	58.92	32.00	-45.1	-48.3	15.6	0.00e+00	0	39	0	570425344	61	5296
2026-01-29 08:50:33.20	57.94	32.01	-44.9	-48.0	15.9	0.00e+00	0	40	0	575668224	61	5146
2026-01-29 08:50:36.61	56.69	32.02	-44.6	-47.5	16.5	0.00e+00	0	40	0	581959680	60	5107
2026-01-29 08:50:39.66	55.58	32.01	-44.5	-47.4	16.5	0.00e+00	0	40	0	587202560	60	5077
2026-01-29 08:50:42.81	54.43	31.99	-44.8	-47.9	16.0	0.00e+00	0	40	0	593494016	60	5388
2026-01-29 08:50:45.80	53.35	31.96	-44.9	-47.9	16.0	0.00e+00	0	40	0	598736896	60	5385
2026-01-29 08:50:48.79	52.26	31.92	-44.8	-47.8	16.1	0.00e+00	0	40	0	605028352	60	5328
2026-01-29 08:50:51.82	51.17	31.86	-44.8	-48.0	15.9	0.00e+00	0	40	0	610271232	60	5405
2026-01-29 08:50:54.82	50.08	31.80	-44.6	-47.6	16.3	0.00e+00	0	39	0	615514112	60	5183
2026-01-29 08:50:57.80	49.02	31.72	-44.5	-47.4	16.5	0.00e+00	0	40	0	621805568	60	5062
2026-01-29 08:51:00.79	47.95	31.63	-44.7	-47.7	16.3	0.00e+00	0	40	0	627048448	60	5227
2026-01-29 08:51:03.77	46.89	31.53	-44.8	-47.9	16.0	0.00e+00	0	40	0	632291328	60	5373
2026-01-29 08:51:06.84	45.81	31.42	-44.8	-47.9	16.0	0.00e+00	0	40	0	638582784	60	5347
2026-01-29 08:51:09.79	44.78	31.30	-44.9	-48.1	15.9	0.00e+00	0	40	0	643825664	60	5470
2026-01-29 08:51:12.98	43.67	31.16	-45.4	-48.8	15.2	0.00e+00	0	40	0	650117120	61	5595
2026-01-29 08:51:15.82	42.69	31.03	-45.0	-48.2	15.7	0.00e+00	0	40	0	655360000	61	5238
2026-01-29 08:51:18.95	41.63	30.87	-44.9	-47.9	16.0	0.00e+00	0	40	0	661651456	61	5089
2026-01-29 08:51:21.80	40.66	30.72	-45.1	-48.3	15.6	0.00e+00	0	40	0	666894336	61	5308
2026-01-29 08:51:24.92	39.62	30.54	-45.4	-48.7	15.2	0.00e+00	0	40	0	672137216	61	5587
2026-01-29 08:51:27.77	38.68	30.37	-45.1	-48.2	15.7	0.00e+00	0	40	0	677380096	61	5262
2026-01-29 08:51:30.89	37.66	30.18	-45.4	-48.8	15.1	0.00e+00	0	40	0	683671552	61	5641
2026-01-29 08:51:33.73	36.74	30.00	-45.3	-48.5	15.4	0.00e+00	0	39	0	688914432	61	5463
2026-01-29 08:51:36.97	35.71	29.78	-45.1	-48.3	15.5	0.00e+00	0	40	0	695205888	61	5339
2026-01-29 08:51:39.81	34.81	29.58	-45.1	-48.3	15.7	0.00e+00	0	40	0	700448768	61	5292
2026-01-29 08:51:42.94	33.84	29.36	-44.8	-47.8	16.1	0.00e+00	0	39	0	706740224	61	4997
2026-01-29 08:51:45.79	32.97	29.14	-44.8	-47.8	16.1	0.00e+00	0	40	0	711983104	61	5027
2026-01-29 08:51:48.92	32.02	28.91	-44.5	-47.5	16.4	0.00e+00	0	40	0	717225984	61	4855
2026-01-29 08:51:51.76	31.18	28.68	-44.5	-47.6	16.3	0.00e+00	0	40	0	722468864	60	5205
2026-01-29 08:51:54.89	30.26	28.43	-44.7	-47.8	16.1	0.00e+00	0	40	0	728760320	60	5316
2026-01-29 08:51:57.73	29.44	28.20	-44.5	-47.5	16.4	0.00e+00	0	40	0	734003200	60	5127
2026-01-29 08:52:00.86	28.55	27.94	-44.2	-47.1	16.7	0.00e+00	0	40	0	740294656	60	4907
2026-01-29 08:52:03.70	27.75	27.70	-44.1	-46.9	17.0	0.00e+00	0	40	0	745537536	60	4792
2026-01-29 08:52:06.91	26.87	27.42	-44.4	-47.3	16.6	0.00e+00	0	39	0	750780416	60	5005
2026-01-29 08:52:09.75	26.10	27.17	-44.1	-46.9	17.0	0.00e+00	0	40	0	756023296	60	4781
2026-01-29 08:52:13.15	25.20	26.86	-44.1	-46.8	17.0	0.00e+00	0	40	0	763363328	59	5026
2026-01-29 08:52:15.97	24.46	26.61	-43.7	-46.4	17.4	0.00e+00	0	40	0	768606208	59	4779
2026-01-29 08:52:19.25	23.62	26.31	-43.2	-45.7	18.1	0.00e+00	0	40	0	773849088	58	4682
2026-01-29 08:52:21.94	22.94	26.06	-42.9	-45.4	18.3	0.00e+00	0	40	0	779091968	57	4801
2026-01-29 08:52:25.25	22.12	25.75	-42.8	-45.4	18.4	0.00e+00	0	40	0	785383424	57	4763
2026-01-29 08:52:27.94	21.46	25.50	-42.4	-44.8	18.9	0.00e+00	0	40	0	790626304	56	4754
2026-01-29 08:52:31.23	20.68	25.19	-42.2	-44.6	19.2	0.00e+00	0	40	0	796917760	56	4605
2026-01-29 08:52:33.98	20.03	24.93	-42.1	-44.5	19.2	0.00e+00	0	40	0	802160640	56	4551
2026-01-29 08:52:37.25	19.28	24.61	-41.7	-44.0	19.5	0.00e+00	0	39	0	808452096	55	4558
2026-01-29 08:52:39.96	18.66	24.35	-41.5	-43.7	19.8	0.00e+00	0	39	0	812646400	54	4671
2026-01-29 08:52:43.52	17.87	24.01	-41.2	-43.4	20.1	0.00e+00	0	40	0	819986432	54	4525
2026-01-29 08:52:46.42	17.24	23.73	-41.1	-43.3	20.1	0.00e+00	0	39	0	825229312	54	4485
2026-01-29 08:52:49.72	16.54	23.41	-41.2	-43.4	20.1	0.00e+00	0	40	0	831520768	54	4501
2026-01-29 08:52:52.42	15.98	23.15	-41.3	-43.5	20.0	0.00e+00	0	40	0	836763648	54	4575
2026-01-29 08:52:55.69	15.30	22.83	-41.5	-43.8	19.7	0.00e+00	0	40	0	843055104	54	4710
2026-01-29 08:52:58.67	14.70	22.54	-41.8	-44.0	19.5	0.00e+00	0	40	0	848297984	54	4869
2026-01-29 08:53:02.01	14.04	22.21	-41.8	-44.1	19.5	0.00e+00	0	39	0	854589440	54	4872
2026-01-29 08:53:04.92	13.48	21.93	-41.9	-44.1	19.3	0.00e+00	0	40	0	859832320	54	4925
2026-01-29 08:53:08.20	12.86	21.61	-42.1	-44.4	19.2	0.00e+00	0	40	0	866123776	54	5047
2026-01-29 08:53:10.92	12.35	21.35	-42.2	-44.5	19.0	0.00e+00	0	40	0	871366656	54	5119
2026-01-29 08:53:14.19	11.76	21.03	-42.2	-44.6	18.9	0.00e+00	0	39	0	877658112	55	4887
2026-01-29 08:53:17.17	11.22	20.74	-42.2	-44.7	18.8	0.00e+00	0	39	0	882900992	55	4931
2026-01-29 08:53:20.47	10.65	20.42	-42.4	-44.8	18.7	0.00e+00	0	40	0	889192448	55	5019
2026-01-29 08:53:23.20	10.18	20.16	-42.3	-44.8	18.7	0.00e+00	0	40	0	894435328	55	5014
2026-01-29 08:53:26.47	9.62	19.85	-42.3	-44.8	18.7	0.00e+00	0	40	0	900726784	55	5032
2026-01-29 08:53:29.19	9.17	19.59	-42.5	-45.1	18.5	0.00e+00	0	40	0	905969664	55	5169
2026-01-29 08:53:32.60	8.62	19.26	-42.9	-45.5	18.2	0.00e+00	0	39	0	912261120	56	5138
2026-01-29 08:53:35.65	8.14	18.97	-43.1	-45.8	17.9	0.00e+00	0	40	0	917504000	56	5312
2026-01-29 08:53:38.84	7.64	18.67	-43.3	-46.1	17.6	0.00e+00	0	40	0	923795456	57	5203
2026-01-29 08:53:41.69	7.20	18.40	-43.5	-46.3	17.4	0.00e+00	0	40	0	929038336	57	5319
2026-01-29 08:53:44.81	6.73	18.11	-43.6	-46.4	17.3	0.00e+00	0	40	0	934281216	57	5356
2026-01-29 08:53:47.73	6.30	17.84	-43.5	-46.4	17.3	0.00e+00	0	40	0	940572672	57	5366
2026-01-29 08:53:50.96	5.84	17.54	-43.6	-46.5	17.3	0.00e+00	0	39	0	945815552	57	5419
2026-01-29 08:53:53.86	5.43	17.27	-43.5	-46.4	17.3	0.00e+00	0	39	0	952107008	57	5362
2026-01-29 08:53:57.24	4.96	16.96	-43.4	-46.4	17.3	0.00e+00	0	40	0	958398464	57	5355
2026-01-29 08:53:59.95	4.59	16.72	-43.6	-46.6	17.1	0.00e+00	0	40	0	963641344	57	5484
2026-01-29 08:54:03.22	4.15	16.42	-43.9	-46.8	16.9	0.00e+00	0	40	0	968884224	58	5309
2026-01-29 08:54:05.94	3.79	16.18	-43.9	-47.0	16.7	0.00e+00	0	40	0	974127104	58	5409
2026-01-29 08:54:09.18	3.37	15.89	-43.8	-46.8	16.8	0.00e+00	0	40	0	980418560	58	5324
2026-01-29 08:54:12.53	2.95	15.59	-43.8	-46.7	17.0	0.00e+00	0	39	0	986710016	58	5257
2026-01-29 08:54:15.23	2.62	15.35	-44.0	-46.9	16.8	0.00e+00	0	40	0	991952896	58	5347
2026-01-29 08:54:18.53	2.21	15.06	-43.8	-47.0	16.7	0.00e+00	0	39	0	998244352	58	5438
2026-01-29 08:54:21.24	1.89	14.82	-43.9	-47.0	16.7	0.00e+00	0	39	0	1003487232	58	5441
2026-01-29 08:54:24.51	1.50	14.54	-44.0	-47.0	16.7	0.00e+00	0	40	0	1008730112	58	5416
2026-01-29 08:54:27.22	1.19	14.31	-44.1	-47.0	16.7	0.00e+00	0	39	0	1013972992	58	5434
2026-01-29 08:54:30.49	0.82	14.03	-44.2	-47.2	16.5	0.00e+00	0	40	0	1020264448	59	5247
2026-01-29 08:54:33.21	0.52	13.79	-44.2	-47.3	16.3	0.00e+00	0	40	0	1025507328	59	5317
2026-01-29 08:54:36.56	0.15	13.51	-44.3	-47.3	16.4	0.00e+00	0	39	0	1031798784	59	5312
2026-01-29 08:54:39.26	359.86	13.29	-44.2	-47.2	16.5	0.00e+00	0	40	0	1037041664	59	5253
2026-01-29 08:54:42.74	359.49	13.00	-44.0	-47.2	16.5	0.00e+00	0	40	0	1043333120	59	5220
2026-01-29 08:54:45.53	359.20	12.76	-44.2	-47.3	16.3	0.00e+00	0	39	0	1048576000	59	5287
2026-01-29 08:54:48.82	358.87	12.49	-44.2	-47.3	16.3	0.00e+00	0	40	0	1054867456	59	5292
2026-01-29 08:54:51.54	358.60	12.27	-44.2	-47.3	16.3	0.00e+00	0	40	0	1060110336	59	5315
2026-01-29 08:54:54.81	358.27	12.01	-44.3	-47.5	16.1	0.00e+00	0	39	0	1066401792	59	5415
2026-01-29 08:54:57.68	358.00	11.78	-44.2	-47.7	15.9	0.00e+00	0	40	0	1071644672	59	5533
2026-01-29 08:55:00.81	357.70	11.53	-44.3	-47.9	15.6	0.00e+00	0	39	0	1076887552	59	5716
2026-01-29 08:55:03.65	357.43	11.30	-44.5	-48.2	15.4	0.00e+00	0	40	0	1082130432	59	5905
2026-01-29 08:55:06.77	357.15	11.05	-44.6	-48.4	15.3	0.00e+00	0	40	0	1088421888	60	5687
2026-01-29 08:55:09.62	356.89	10.83	-44.6	-48.2	15.4	0.00e+00	0	39	0	1093664768	60	5581
2026-01-29 08:55:12.88	356.60	10.58	-44.4	-48.4	15.2	0.00e+00	0	39	0	1099956224	60	5692
2026-01-29 08:55:15.71	356.35	10.36	-44.3	-48.5	15.2	0.00e+00	0	40	0	1105199104	60	5723
2026-01-29 08:55:18.84	356.08	10.12	-44.5	-48.7	14.9	0.00e+00	0	40	0	1111490560	60	5882
2026-01-29 08:55:21.69	355.84	9.90	-44.3	-48.8	14.8	2.20e-06	0	40	0	1116733440	60	5935
2026-01-29 08:55:24.89	355.57	9.66	-43.5	-48.7	14.8	0.00e+00	0	40	0	1121976320	59	6248
2026-01-29 08:55:27.74	355.34	9.45	-43.1	-48.7	14.8	7.00e-07	0	40	0	1128267776	58	6633
2026-01-29 08:55:31.07	355.07	9.20	-43.0	-48.8	14.7	7.00e-07	0	40	0	1133510656	57	7094
2026-01-29 08:55:33.76	354.86	9.00	-44.4	-53.0	10.8	0.00e+00	0	40	0	1138753536	59	10185
2026-01-29 08:55:37.04	354.60	8.76	-49.0	-65.2	3.8	1.49e+00	0	40	104	1139802112	69	23331
2026-01-29 08:55:39.74	354.40	8.56	-49.7	-65.3	3.8	1.49e+00	0	40	104	1139802112	70	22427
2026-01-29 08:55:43.02	354.15	8.32	-49.0	-65.3	3.8	1.49e+00	0	40	104	1139802112	70	22374
2026-01-29 08:55:45.73	353.95	8.12	-49.5	-65.3	3.8	1.49e+00	0	40	104	1139802112	69	23808
2026-01-29 08:55:49.01	353.71	7.89	-49.9	-65.2	3.8	1.49e+00	0	40	104	1139802112	70	22028
2026-01-29 08:55:51.70	353.51	7.70	-49.7	-65.0	3.8	1.49e+00	0	40	104	1139802112	70	21669
2026-01-29 08:55:54.98	353.28	7.47	-49.4	-64.7	3.8	
