passes_logs/2026/01/29/T1/T1__20260129_013138_AQUA_rec.log

#Pass ID: 20260129_013138_AQUA
#Satellite: AQUA
#Configuration: AQUA
#almurnet v.1.7.20251203
#Start time: 2026-01-29 01:31:40

#Version: 2.0.20230620
#Station: T1
#Location: 37.570604 lon 55.790049 lat
#TLE: 1 27424U 02022A   26027.88561574  .00001798  00000+0  36942-3 0  9997
#TLE: 2 27424  98.4102 354.5311 0001840  63.5604 322.5877 14.61868111262779

#Time	Az	El	Level	Level2	SNR	BER	BlckErr	Temp	State	Recorded	gain1	gain2
2026-01-29 01:31:40.48	14.67	5.12	-51.6	-71.8	3.8	7.49e-01	0	41	0	0	73	39653
2026-01-29 01:31:43.46	14.66	5.34	-51.7	-71.8	3.8	7.48e-01	0	41	104	0	74	37764
2026-01-29 01:31:46.44	14.64	5.57	-51.7	-71.8	3.8	7.46e-01	0	41	104	0	74	37480
2026-01-29 01:31:49.42	14.62	5.80	-51.8	-71.7	3.8	7.48e-01	0	41	104	0	74	37094
2026-01-29 01:31:52.40	14.61	6.03	-51.1	-71.5	3.8	7.44e-01	0	41	104	0	73	38296
2026-01-29 01:31:55.38	14.59	6.26	-49.4	-71.1	3.8	7.45e-01	0	41	104	0	70	43607
2026-01-29 01:31:58.36	14.57	6.50	-47.9	-71.1	3.8	7.44e-01	0	42	104	0	67	51688
2026-01-29 01:32:01.34	14.55	6.74	-48.2	-70.5	3.8	7.44e-01	0	42	104	0	67	48603
2026-01-29 01:32:04.32	14.53	6.98	-48.2	-68.7	3.8	7.42e-01	0	42	104	0	67	39249
2026-01-29 01:32:07.29	14.52	7.22	-48.2	-65.9	4.8	7.21e-01	0	42	104	0	67	28544
2026-01-29 01:32:10.27	14.49	7.47	-48.1	-63.9	6.0	6.88e-01	0	42	0	1048576	67	22610
2026-01-29 01:32:13.25	14.47	7.71	-48.1	-62.4	7.2	6.59e-01	0	42	0	6815744	67	18974
2026-01-29 01:32:16.23	14.45	7.96	-48.0	-60.9	8.7	6.38e-01	0	42	0	12058624	67	15960
2026-01-29 01:32:19.21	14.43	8.22	-47.7	-58.9	10.8	6.12e-01	0	42	0	17825792	67	12694
2026-01-29 01:32:22.19	14.41	8.48	-47.4	-57.0	12.8	6.07e-01	0	42	0	23592960	66	10797
2026-01-29 01:32:25.17	14.38	8.74	-47.2	-55.7	14.1	6.02e-01	0	42	0	28835840	66	9349
2026-01-29 01:32:28.15	14.36	9.00	-47.1	-55.3	14.5	6.03e-01	0	42	0	34603008	66	8907
2026-01-29 01:32:31.34	14.33	9.28	-47.8	-62.8	6.2	6.67e-01	0	42	0	39321600	66	21112
2026-01-29 01:32:34.22	14.31	9.54	-48.0	-67.0	4.3	7.31e-01	0	42	104	43515904	66	34238
2026-01-29 01:32:37.34	14.28	9.83	-47.9	-66.2	4.1	7.32e-01	0	43	104	43515904	66	31204
2026-01-29 01:32:40.19	14.26	10.09	-47.6	-59.0	10.0	6.17e-01	0	43	0	44564480	66	13713
2026-01-29 01:32:43.32	14.23	10.39	-45.0	-49.7	20.1	6.03e-01	0	43	0	49807360	61	6257
2026-01-29 01:32:46.27	14.20	10.67	-44.1	-47.9	21.9	6.01e-01	0	43	0	55574528	60	5355
2026-01-29 01:32:49.40	14.17	10.97	-44.0	-47.4	22.5	6.02e-01	0	42	0	61341696	59	5352
2026-01-29 01:32:52.32	14.14	11.25	-43.3	-46.4	23.4	6.06e-01	0	43	0	66584576	58	5076
2026-01-29 01:32:55.60	14.10	11.58	-43.1	-46.1	23.8	6.05e-01	0	43	0	72876032	58	4887
2026-01-29 01:32:58.33	14.07	11.85	-43.0	-46.1	23.8	6.02e-01	0	43	0	78118912	58	4897
2026-01-29 01:33:01.62	14.04	12.18	-42.9	-45.9	24.0	6.05e-01	0	43	0	84410368	57	5046
2026-01-29 01:33:04.33	14.00	12.46	-42.7	-45.8	24.0	6.03e-01	0	43	0	89128960	57	5023
2026-01-29 01:33:07.84	13.96	12.83	-42.7	-45.7	24.2	6.04e-01	0	43	0	95944704	57	4947
2026-01-29 01:33:10.83	13.93	13.15	-42.6	-45.5	24.3	6.02e-01	0	43	0	101187584	57	4861
2026-01-29 01:33:13.81	13.89	13.47	-42.8	-45.7	24.2	6.05e-01	0	43	0	106954752	57	4967
2026-01-29 01:33:16.80	13.85	13.79	-42.6	-45.6	24.4	6.03e-01	0	43	0	112721920	57	4872
2026-01-29 01:33:19.83	13.81	14.13	-42.7	-45.6	24.3	6.02e-01	0	43	0	118489088	57	4891
2026-01-29 01:33:22.83	13.76	14.47	-42.7	-45.6	24.4	6.03e-01	0	43	0	123731968	57	4886
2026-01-29 01:33:25.81	13.72	14.81	-42.8	-45.7	24.2	6.04e-01	0	43	0	129499136	57	4976
2026-01-29 01:33:28.79	13.68	15.16	-43.0	-45.8	24.2	6.03e-01	0	43	0	135266304	57	5010
2026-01-29 01:33:31.78	13.63	15.51	-42.7	-45.5	24.4	6.03e-01	0	43	0	140509184	57	4846
2026-01-29 01:33:34.78	13.58	15.87	-42.8	-45.6	24.4	6.03e-01	0	43	0	146276352	57	4908
2026-01-29 01:33:37.98	13.53	16.26	-42.7	-45.4	24.5	6.02e-01	0	43	0	152567808	57	4799
2026-01-29 01:33:40.82	13.48	16.61	-42.6	-45.3	24.7	6.02e-01	0	43	0	157810688	57	4742
2026-01-29 01:33:43.95	13.43	17.01	-42.6	-45.3	24.6	6.02e-01	0	43	0	163577856	57	4753
2026-01-29 01:33:46.79	13.38	17.37	-42.7	-45.4	24.5	6.06e-01	0	43	0	168820736	57	4807
2026-01-29 01:33:49.92	13.32	17.78	-42.7	-45.4	24.6	6.03e-01	0	43	0	174587904	57	4808
2026-01-29 01:33:52.77	13.26	18.16	-42.7	-45.4	24.6	6.05e-01	0	43	0	180355072	57	4804
2026-01-29 01:33:55.99	13.20	18.60	-42.8	-45.5	24.6	6.04e-01	0	43	0	186122240	57	4843
2026-01-29 01:33:58.86	13.14	18.99	-42.9	-45.6	24.5	6.02e-01	0	43	0	191365120	57	4879
2026-01-29 01:34:02.13	13.07	19.45	-42.9	-45.6	24.6	6.04e-01	0	43	0	197656576	57	4872
2026-01-29 01:34:05.00	13.01	19.87	-42.9	-45.4	24.7	6.04e-01	0	43	0	202899456	57	4787
2026-01-29 01:34:08.13	12.93	20.32	-43.0	-45.4	24.7	6.02e-01	0	43	0	209190912	57	4802
2026-01-29 01:34:11.23	12.86	20.79	-43.1	-45.5	24.5	6.00e-01	0	43	0	214958080	57	4864
2026-01-29 01:34:14.08	12.79	21.22	-43.1	-45.6	24.5	6.03e-01	0	43	0	220200960	57	4894
2026-01-29 01:34:17.42	12.70	21.74	-43.3	-45.8	24.4	6.04e-01	0	43	0	226492416	57	4999
2026-01-29 01:34:20.41	12.62	22.21	-43.4	-45.8	24.3	6.03e-01	0	43	0	231735296	57	5034
2026-01-29 01:34:23.39	12.54	22.69	-43.4	-45.8	24.4	6.03e-01	0	43	0	237502464	57	5031
2026-01-29 01:34:26.38	12.45	23.19	-43.2	-45.8	24.4	6.05e-01	0	43	0	243269632	57	5019
2026-01-29 01:34:29.36	12.37	23.69	-43.1	-45.7	24.5	6.02e-01	0	43	0	248512512	57	4946
2026-01-29 01:34:32.28	12.28	24.19	-43.1	-45.6	24.5	6.04e-01	0	43	0	254279680	57	4925
2026-01-29 01:34:35.68	12.17	24.79	-43.2	-45.7	24.5	6.04e-01	0	43	0	260571136	57	4979
2026-01-29 01:34:38.40	12.07	25.28	-43.2	-45.8	24.4	6.02e-01	0	43	0	265814016	57	4988
2026-01-29 01:34:41.67	11.96	25.88	-43.1	-45.6	24.6	6.02e-01	0	43	0	271581184	57	4902
2026-01-29 01:34:44.54	11.86	26.42	-42.9	-45.4	24.8	6.03e-01	0	43	0	277348352	57	4804
2026-01-29 01:34:47.84	11.73	27.06	-42.7	-45.1	25.0	6.04e-01	0	43	0	283639808	57	4641
2026-01-29 01:34:50.79	11.61	27.64	-42.6	-45.1	25.1	6.04e-01	0	43	0	288882688	57	4599
2026-01-29 01:34:53.77	11.49	28.25	-42.7	-45.3	24.9	6.02e-01	0	43	0	294649856	57	4719
2026-01-29 01:34:56.77	11.36	28.87	-42.8	-45.3	24.9	6.04e-01	0	43	0	299892736	57	4743
2026-01-29 01:34:59.79	11.22	29.51	-42.8	-45.2	25.0	6.02e-01	0	43	0	305659904	57	4665
2026-01-29 01:35:02.76	11.08	30.15	-42.7	-45.0	25.1	6.03e-01	0	43	0	311427072	57	4579
2026-01-29 01:35:05.95	10.93	30.86	-42.5	-44.9	25.3	6.02e-01	0	43	0	317194240	57	4500
2026-01-29 01:35:08.80	10.78	31.51	-42.4	-44.8	25.3	6.05e-01	0	43	0	322961408	56	4746
2026-01-29 01:35:11.92	10.61	32.24	-42.5	-45.0	25.2	6.03e-01	0	43	0	328728576	56	4831
2026-01-29 01:35:14.76	10.45	32.93	-42.7	-45.2	25.0	6.04e-01	0	43	0	333971456	56	4963
2026-01-29 01:35:17.97	10.25	33.72	-42.8	-45.3	24.9	6.05e-01	0	43	0	339738624	56	5020
2026-01-29 01:35:20.81	10.07	34.43	-43.2	-45.8	24.5	6.04e-01	0	43	0	344981504	57	4989
2026-01-29 01:35:23.94	9.87	35.25	-43.5	-46.1	24.3	6.06e-01	0	43	0	351272960	57	5166
2026-01-29 01:35:26.78	9.67	36.00	-44.0	-46.6	23.8	6.02e-01	0	43	0	356515840	58	5173
2026-01-29 01:35:29.90	9.44	36.85	-44.1	-46.8	23.7	6.04e-01	0	43	0	362283008	59	4995
2026-01-29 01:35:32.74	9.22	37.65	-44.5	-47.3	23.2	6.03e-01	0	43	0	367525888	59	5291
2026-01-29 01:35:35.98	8.95	38.58	-44.3	-47.1	23.2	6.03e-01	0	43	0	373817344	60	4902
2026-01-29 01:35:38.89	8.70	39.44	-44.0	-46.8	23.5	6.04e-01	0	43	0	379060224	60	4742
2026-01-29 01:35:42.16	8.40	40.43	-44.3	-47.1	23.2	6.05e-01	0	43	0	385351680	60	4897
2026-01-29 01:35:44.98	8.12	41.31	-44.0	-46.6	23.6	6.07e-01	0	43	0	390594560	60	4644
2026-01-29 01:35:48.22	7.78	42.35	-44.0	-46.6	23.8	6.02e-01	0	43	0	396361728	59	4874
2026-01-29 01:35:51.21	7.44	43.34	-43.6	-46.2	24.3	6.03e-01	0	43	0	402128896	59	4656
2026-01-29 01:35:54.19	7.09	44.35	-43.7	-46.4	24.1	6.05e-01	0	43	0	407896064	58	5044
2026-01-29 01:35:57.17	6.71	45.38	-43.5	-45.9	24.4	6.02e-01	0	43	0	413138944	58	4805
2026-01-29 01:36:00.16	6.30	46.45	-43.4	-45.9	24.5	6.05e-01	0	43	0	418906112	58	4778
2026-01-29 01:36:03.14	5.86	47.54	-43.5	-46.0	24.4	6.05e-01	0	43	0	424673280	58	4838
2026-01-29 01:36:06.13	5.39	48.66	-43.4	-45.8	24.4	6.04e-01	0	43	0	429916160	58	4748
2026-01-29 01:36:09.12	4.88	49.82	-43.2	-45.5	24.9	6.03e-01	0	43	0	435683328	58	4578
2026-01-29 01:36:12.50	4.25	51.15	-42.8	-45.2	25.2	6.03e-01	0	43	0	441974784	57	4663
2026-01-29 01:36:15.21	3.70	52.25	-42.4	-44.7	25.7	6.05e-01	0	43	0	447217664	56	4657
2026-01-29 01:36:18.55	2.96	53.63	-42.5	-44.8	25.6	6.05e-01	0	43	0	453509120	56	4707
2026-01-29 01:36:21.33	2.29	54.81	-42.5	-44.8	25.3	6.04e-01	0	43	0	458752000	56	4746
2026-01-29 01:36:24.74	1.39	56.29	-42.9	-45.3	25.0	6.04e-01	0	44	0	465043456	56	4995
2026-01-29 01:36:27.46	0.59	57.50	-43.4	-45.8	24.5	6.04e-01	0	43	0	470286336	57	5031
2026-01-29 01:36:30.73	359.53	58.97	-43.8	-46.4	24.1	6.03e-01	0	43	0	476053504	58	5053
2026-01-29 01:36:33.44	358.56	60.22	-44.1	-46.7	23.7	6.02e-01	0	43	0	481296384	60	4680
2026-01-29 01:36:36.76	357.22	61.77	-44.2	-46.8	23.6	6.04e-01	0	43	0	487587840	60	4723
2026-01-29 01:36:39.46	356.00	63.04	-44.4	-47.0	23.4	6.04e-01	0	43	0	492830720	60	4857
2026-01-29 01:36:42.73	354.34	64.61	-45.2	-48.0	22.5	6.07e-01	0	43	0	498597888	61	5148
2026-01-29 01:36:45.48	352.74	65.93	-45.7	-48.8	21.8	6.05e-01	0	43	0	503840768	62	5298
2026-01-29 01:36:48.77	350.56	67.52	-46.2	-49.4	21.1	6.03e-01	0	43	0	510132224	63	5400
2026-01-29 01:36:51.48	348.49	68.82	-46.7	-50.2	20.4	6.04e-01	0	43	0	515375104	64	5559
2026-01-29 01:36:54.75	345.60	70.38	-46.0	-49.1	21.3	6.04e-01	0	43	0	521142272	64	4917
2026-01-29 01:36:57.50	342.75	71.67	-46.4	-49.6	21.0	6.03e-01	0	43	0	526385152	63	5496
2026-01-29 01:37:00.77	338.78	73.15	-46.0	-49.1	21.2	6.06e-01	0	43	0	532676608	64	4912
2026-01-29 01:37:03.51	334.84	74.34	-46.0	-49.2	21.3	6.04e-01	0	43	0	537919488	64	4932
2026-01-29 01:37:06.78	329.27	75.67	-45.7	-48.6	21.8	6.02e-01	0	43	0	544210944	63	4920
2026-01-29 01:37:09.50	323.80	76.66	-45.4	-48.3	22.2	6.03e-01	0	44	0	548929536	62	5019
2026-01-29 01:37:12.78	316.08	77.68	-45.3	-48.3	22.2	6.00e-01	0	43	0	555220992	61	5299
2026-01-29 01:37:15.50	308.72	78.34	-45.5	-48.5	22.0	6.02e-01	0	43	0	560463872	62	5140
2026-01-29 01:37:18.77	298.91	78.85	-44.6	-47.4	23.0	6.02e-01	0	44	0	566231040	61	4766
2026-01-29 01:37:21.76	289.36	79.02	-44.1	-46.7	23.7	6.03e-01	0	43	0	571998208	59	4942
2026-01-29 01:37:24.74	279.81	78.89	-44.1	-46.7	23.8	6.01e-01	0	43	0	577765376	60	4658
2026-01-29 01:37:27.73	270.70	78.46	-44.9	-47.6	22.9	6.04e-01	0	44	0	583008256	60	5202
2026-01-29 01:37:30.72	262.45	77.78	-44.9	-47.7	22.7	6.05e-01	0	43	0	588775424	60	5249
2026-01-29 01:37:33.71	255.23	76.88	-44.8	-47.7	22.8	6.04e-01	0	44	0	594542592	60	5246
2026-01-29 01:37:36.69	249.06	75.82	-45.6	-48.6	22.0	6.04e-01	0	43	0	599785472	62	5175
2026-01-29 01:37:39.67	243.82	74.63	-46.5	-50.0	20.6	6.03e-01	0	44	0	605552640	63	5760
2026-01-29 01:37:42.66	239.39	73.34	-45.8	-48.8	21.7	6.04e-01	0	44	0	611319808	63	5006
2026-01-29 01:37:45.65	235.63	71.99	-45.9	-48.8	21.4	6.04e-01	0	43	0	616562688	63	5021
2026-01-29 01:37:48.63	232.45	70.60	-46.2	-49.5	20.8	6.04e-01	0	44	0	622329856	64	5120
2026-01-29 01:37:51.70	229.65	69.13	-48.0	-52.1	18.5	6.02e-01	0	43	0	628097024	66	6145
2026-01-29 01:37:54.62	227.35	67.73	-48.0	-52.4	18.2	6.04e-01	0	43	0	633339904	66	6405
2026-01-29 01:37:57.61	225.31	66.28	-46.8	-50.4	20.1	6.03e-01	0	43	0	639107072	64	5682
2026-01-29 01:38:00.59	223.53	64.84	-46.0	-49.2	21.2	6.05e-01	0	43	0	644874240	64	4944
2026-01-29 01:38:03.58	221.97	63.41	-46.1	-49.3	21.1	6.02e-01	0	43	0	650117120	63	5331
2026-01-29 01:38:06.56	220.58	61.99	-45.0	-47.8	22.7	6.05e-01	0	43	0	655884288	60	5300
2026-01-29 01:38:09.54	219.35	60.59	-44.7	-47.4	23.0	6.02e-01	0	43	0	661651456	61	4782
2026-01-29 01:38:12.53	218.24	59.21	-44.6	-47.2	23.3	6.04e-01	0	44	0	666894336	59	5269
2026-01-29 01:38:15.51	217.25	57.86	-43.6	-46.2	24.1	6.04e-01	0	43	0	672661504	59	4667
2026-01-29 01:38:18.50	216.35	56.52	-43.2	-45.6	24.7	6.05e-01	0	43	0	678428672	58	4626
2026-01-29 01:38:21.48	215.54	55.22	-42.5	-44.7	25.5	6.03e-01	0	43	0	683671552	57	4440
2026-01-29 01:38:24.56	214.78	53.90	-42.9	-45.3	25.0	6.04e-01	0	44	0	689963008	56	5006
2026-01-29 01:38:27.40	214.13	52.71	-42.2	-44.4	25.8	6.03e-01	0	43	0	695205888	56	4513
2026-01-29 01:38:30.53	213.48	51.42	-42.6	-44.9	25.4	6.02e-01	0	44	0	700973056	56	4772
2026-01-29 01:38:33.37	212.93	50.29	-42.8	-45.1	25.2	6.04e-01	0	44	0	706215936	56	4896
2026-01-29 01:38:36.50	212.38	49.07	-43.0	-45.4	24.9	6.03e-01	0	43	0	711983104	56	5059
2026-01-29 01:38:39.34	211.91	47.98	-43.3	-45.7	24.7	6.05e-01	0	44	0	717225984	57	4954
2026-01-29 01:38:42.47	211.44	46.82	-43.1	-45.5	24.8	6.05e-01	0	44	0	723517440	57	4842
2026-01-29 01:38:45.31	211.04	45.79	-43.1	-45.5	24.7	6.02e-01	0	43	0	728760320	57	4836
2026-01-29 01:38:48.44	210.62	44.69	-43.2	-45.6	24.7	6.04e-01	0	43	0	734527488	57	4903
2026-01-29 01:38:51.28	210.27	43.71	-43.1	-45.6	24.7	6.02e-01	0	43	0	739770368	57	4872
2026-01-29 01:38:54.52	209.90	42.63	-43.2	-45.8	24.5	6.05e-01	0	43	0	746061824	57	4986
2026-01-29 01:38:57.36	209.59	41.71	-44.2	-46.8	23.6	6.02e-01	0	43	0	751304704	58	5301
2026-01-29 01:39:00.57	209.27	40.69	-44.0	-46.6	23.6	6.04e-01	0	43	0	757071872	60	4599
2026-01-29 01:39:03.41	208.99	39.81	-44.5	-47.1	23.2	6.03e-01	0	43	0	762314752	59	5216
2026-01-29 01:39:06.54	208.71	38.87	-44.7	-47.4	22.8	6.02e-01	0	43	0	768606208	60	5095
2026-01-29 01:39:09.38	208.47	38.04	-44.1	-46.7	23.5	6.03e-01	0	43	0	773849088	60	4692
2026-01-29 01:39:12.50	208.22	37.15	-44.5	-47.2	23.1	6.05e-01	0	44	0	779616256	59	5251
2026-01-29 01:39:15.35	208.00	36.36	-44.0	-46.6	23.6	6.03e-01	0	43	0	784859136	59	4914
2026-01-29 01:39:18.48	207.78	35.51	-43.9	-46.5	23.8	6.04e-01	0	43	0	790626304	59	4821
2026-01-29 01:39:21.32	207.58	34.76	-43.6	-46.1	24.1	6.03e-01	0	43	0	796393472	59	4643
2026-01-29 01:39:24.44	207.38	33.96	-43.5	-46.0	24.2	6.06e-01	0	43	0	802160640	59	4584
2026-01-29 01:39:27.29	207.20	33.25	-42.7	-45.0	25.1	6.05e-01	0	43	0	807403520	57	4580
2026-01-29 01:39:30.51	207.01	32.46	-42.6	-44.9	25.1	6.03e-01	0	43	0	813170688	57	4527
2026-01-29 01:39:33.41	206.85	31.77	-42.6	-44.9	25.1	6.04e-01	0	44	0	818937856	57	4539
2026-01-29 01:39:36.60	206.68	31.03	-42.6	-44.9	25.2	6.01e-01	0	43	0	824705024	56	4799
2026-01-29 01:39:39.44	206.54	30.39	-42.5	-44.8	25.2	6.05e-01	0	43	0	829947904	56	4757
2026-01-29 01:39:42.57	206.38	29.70	-42.5	-44.8	25.2	6.02e-01	0	43	0	836239360	56	4733
2026-01-29 01:39:45.41	206.25	29.09	-42.3	-44.6	25.4	6.04e-01	0	43	0	841482240	56	4624
2026-01-29 01:39:48.54	206.11	28.43	-42.5	-44.8	25.3	6.05e-01	0	43	0	847249408	56	4713
2026-01-29 01:39:51.38	205.99	27.85	-42.5	-44.8	25.2	6.01e-01	0	44	0	852492288	56	4733
2026-01-29 01:39:54.50	205.86	27.22	-42.6	-44.9	25.1	6.04e-01	0	43	0	858259456	56	4807
2026-01-29 01:39:57.35	205.75	26.66	-43.0	-45.4	24.7	6.03e-01	0	43	0	863502336	56	5073
2026-01-29 01:40:00.49	205.63	26.06	-43.2	-45.6	24.5	6.05e-01	0	43	0	869793792	57	4901
2026-01-29 01:40:03.33	205.52	25.53	-43.2	-45.6	24.5	6.04e-01	0	43	0	875036672	57	4922
2026-01-29 01:40:06.53	205.41	24.94	-43.3	-45.8	24.3	6.04e-01	0	43	0	880803840	57	5007
2026-01-29 01:40:09.38	205.32	24.43	-43.4	-45.8	24.3	6.05e-01	0	44	0	886046720	57	5026
2026-01-29 01:40:12.50	205.22	23.89	-43.4	-46.0	24.2	6.02e-01	0	43	0	892338176	57	5106
2026-01-29 01:40:15.35	205.13	23.40	-43.4	-45.9	24.2	6.06e-01	0	43	0	897581056	57	5062
2026-01-29 01:40:18.47	205.03	22.87	-43.4	-45.9	24.2	6.02e-01	0	43	0	903348224	57	5085
2026-01-29 01:40:21.38	204.95	22.39	-43.5	-46.0	24.0	6.03e-01	0	43	0	908591104	57	5146
2026-01-29 01:40:24.51	204.86	21.89	-43.6	-46.1	24.0	6.05e-01	0	43	0	914882560	57	5199
2026-01-29 01:40:27.35	204.79	21.44	-43.6	-46.1	24.0	6.04e-01	0	43	0	920125440	58	4897
2026-01-29 01:40:30.48	204.70	20.96	-43.6	-46.1	24.0	6.03e-01	0	43	0	925892608	58	4905
2026-01-29 01:40:33.32	204.63	20.53	-43.6	-46.1	24.0	6.03e-01	0	44	0	931135488	58	4891
2026-01-29 01:40:36.44	204.56	20.06	-43.5	-46.1	24.0	6.04e-01	0	44	0	936902656	58	4891
2026-01-29 01:40:39.40	204.49	19.63	-43.4	-45.9	24.2	6.04e-01	0	43	0	942669824	58	4777
2026-01-29 01:40:42.58	204.42	19.17	-43.3	-45.8	24.2	6.04e-01	0	43	0	948436992	58	4722
2026-01-29 01:40:45.43	204.35	18.77	-43.2	-45.7	24.4	6.03e-01	0	43	0	953679872	58	4654
2026-01-29 01:40:48.55	204.29	18.34	-43.1	-45.5	24.5	6.04e-01	0	44	0	959971328	58	4597
2026-01-29 01:40:51.39	204.23	17.96	-43.1	-45.5	24.5	6.02e-01	0	44	0	965214208	58	4565
2026-01-29 01:40:54.52	204.17	17.54	-43.1	-45.5	24.4	6.05e-01	0	44	0	970981376	58	4577
2026-01-29 01:40:57.37	204.11	17.17	-43.1	-45.6	24.4	6.04e-01	0	43	0	976224256	58	4614
2026-01-29 01:41:00.61	204.05	16.75	-43.2	-45.7	24.2	6.03e-01	0	43	0	982515712	58	4695
2026-01-29 01:41:03.46	204.00	16.39	-43.2	-45.7	24.2	6.04e-01	0	43	0	987758592	58	4693
2026-01-29 01:41:06.53	203.94	16.01	-43.2	-45.7	24.2	6.03e-01	0	43	0	993525760	58	4682
2026-01-29 01:41:09.51	203.89	15.65	-43.2	-45.7	24.2	6.01e-01	0	43	0	998768640	58	4696
2026-01-29 01:41:12.50	203.84	15.29	-43.2	-45.8	24.1	6.03e-01	0	43	0	1004535808	58	4742
2026-01-29 01:41:15.48	203.80	14.94	-43.4	-46.0	23.9	6.06e-01	0	43	0	1010302976	58	4865
2026-01-29 01:41:18.47	203.75	14.59	-43.4	-46.0	23.9	6.04e-01	0	44	0	1015545856	58	4841
2026-01-29 01:41:21.45	203.70	14.25	-43.3	-46.0	23.9	6.04e-01	0	43	0	1021313024	58	4824
2026-01-29 01:41:24.53	203.66	13.90	-43.3	-45.9	24.0	6.06e-01	0	43	0	1027080192	58	4804
2026-01-29 01:41:27.37	203.62	13.59	-43.3	-46.0	23.9	6.04e-01	0	44	0	1032323072	58	4829
2026-01-29 01:41:30.49	203.58	13.25	-43.3	-46.1	23.8	6.04e-01	0	43	0	1038614528	58	4873
2026-01-29 01:41:33.34	203.54	12.94	-43.2	-45.9	23.9	6.03e-01	0	43	0	1043857408	58	4791
2026-01-29 01:41:36.64	203.49	12.59	-43.2	-45.9	23.9	6.04e-01	0	43	0	1050148864	58	4800
2026-01-29 01:41:39.48	203.46	12.29	-43.3	-46.0	23.8	6.03e-01	0	43	0	1055391744	58	4851
2026-01-29 01:41:42.61	203.42	11.97	-43.4	-46.2	23.7	6.04e-01	0	43	0	1061158912	58	4929
2026-01-29 01:41:45.64	203.38	11.66	-43.3	-46.1	23.8	6.03e-01	0	43	0	1066926080	58	4880
2026-01-29 01:41:49.00	203.34	11.32	-43.4	-46.1	23.7	6.00e-01	0	43	0	1073217536	58	4917
2026-01-29 01:41:52.16	203.31	11.01	-43.5	-46.3	23.5	6.03e-01	0	43	0	1078984704	58	4993
2026-01-29 01:41:55.82	203.27	10.66	-43.6	-46.5	23.2	6.03e-01	0	43	0	1085800448	58	5159
2026-01-29 01:41:58.74	203.24	10.38	-43.7	-46.6	23.2	6.04e-01	0	44	0	1091567616	58	5178
2026-01-29 01:42:02.15	203.20	10.05	-43.7	-46.6	23.2	6.05e-01	0	43	0	1097859072	58	5175
2026-01-29 01:42:04.85	203.17	9.80	-43.7	-46.6	23.2	6.06e-01	0	43	0	1102577664	58	5199
2026-01-29 01:42:08.14	203.14	9.50	-43.9	-46.8	22.9	6.02e-01	0	43	0	1108869120	58	5319
2026-01-29 01:42:11.36	203.11	9.21	-43.8	-46.7	23.0	6.01e-01	0	43	0	1115160576	58	5277
2026-01-29 01:42:14.40	203.08	8.93	-49.5	-68.2	3.9	7.40e-01	0	43	104	1119879168	69	33024
2026-01-29 01:42:17.52	203.05	8.66	-45.0	-69.4	3.8	7.44e-01	0	44	104	1119879168	62	56597
2026-01-29 01:42:20.36	203.03	8.41	-44.8	-69.1	3.6	7.49e-01	0	44	104	1119879168	59	65533
2026-01-29 01:42:23.49	203.00	8.13	-50.9	-70.9	3.8	7.43e-01	0	44	104	1119879168	72	38123
2026-01-29 01:42:26.34	202.98	7.89	-51.0	-70.7	3.8	7.48e-01	0	44	104	1119879168	72	37173
2026-01-29 01:42:29.59	202.95	7.61	-51.0	-71.1	3.8	7.47e-01	0	43	104	1119879168	72	38689
2026-01-29 01:42:32.49	202.93	7.37	-50.7	-71.0	3.8	7.48e-01	0	44	104	1119879168	72	38477
2026-01-29 01:42:35.68	202.90	7.11	-50.8	-71.0	3.8	7.47e-01	0	44	104	1119879168	72	38571
2026-01-29 01:42:38.51	202.88	6.88	-50.3	-71.0	3.8	7.45e-01	0	44	104	1119879168	72	38491
2026-01-29 01:42:41.64	202.86	6.62	-50.3	-70.9	3.8	7.45e-01	0	43	104	1119879168	72	38147
2026-01-29 01:42:44.47	202.83	6.39	-49.8	-70.9	3.8	7.45e-01	0	43	104	1119879168	71	40196
