passes_logs/2026/01/29/T1/T1__20260129_160511_FENGYUN_3E_rec.log

#Pass ID: 20260129_160511_FENGYUN 3E
#Satellite: FENGYUN 3E
#Configuration: FENGYUN 3E
#almurnet v.1.7.20251203
#Start time: 2026-01-29 16:05:13

#Version: 2.0.20230620
#Station: T1
#Location: 37.570604 lon 55.790049 lat
#TLE: 1 49008U 21062A   26028.95833242 -.00000015  00000+0  13843-4 0  9995
#TLE: 2 49008  98.7500  33.9242 0002547 112.2873 247.8573 14.19887818236829

#Time	Az	El	Level	Level2	SNR	BER	BlckErr	Temp	State	Recorded	gain1	gain2
2026-01-29 16:05:13.19	223.58	5.06	-50.2	-61.1	3.8	8.47e-01	0	41	0	0	70	12881
2026-01-29 16:05:16.16	223.89	5.22	-50.2	-61.1	3.8	8.47e-01	0	41	104	0	70	12876
2026-01-29 16:05:19.19	224.21	5.38	-50.1	-61.0	3.8	8.47e-01	0	41	104	0	70	12798
2026-01-29 16:05:22.26	224.54	5.54	-50.1	-61.0	3.8	8.47e-01	0	41	104	0	70	12676
2026-01-29 16:05:25.24	224.86	5.70	-50.0	-60.8	3.8	8.47e-01	0	41	104	0	70	12509
2026-01-29 16:05:28.22	225.18	5.86	-49.5	-60.5	3.8	8.48e-01	0	42	104	0	69	12801
2026-01-29 16:05:31.20	225.51	6.02	-49.5	-60.4	3.8	8.47e-01	0	42	104	0	69	12530
2026-01-29 16:05:34.18	225.84	6.17	-49.6	-60.4	3.8	8.46e-01	0	42	104	0	69	12596
2026-01-29 16:05:37.24	226.19	6.34	-49.5	-60.4	3.8	8.48e-01	0	42	104	0	69	12590
2026-01-29 16:05:40.14	226.52	6.49	-49.5	-60.3	3.8	8.47e-01	0	42	104	0	69	12509
2026-01-29 16:05:43.40	226.89	6.66	-49.5	-60.3	3.8	8.47e-01	0	42	104	0	69	12402
2026-01-29 16:05:46.10	227.21	6.81	-49.5	-60.2	3.8	8.46e-01	0	42	104	0	69	12241
2026-01-29 16:05:49.37	227.59	6.98	-49.5	-59.9	3.8	8.46e-01	0	42	104	0	69	11949
2026-01-29 16:05:52.06	227.91	7.13	-49.5	-60.3	3.8	8.46e-01	0	42	104	0	69	12519
2026-01-29 16:05:55.36	228.31	7.30	-49.4	-59.8	3.8	8.47e-01	0	42	104	0	69	11731
2026-01-29 16:05:58.30	228.67	7.46	-49.4	-59.7	3.8	8.47e-01	0	42	104	0	69	11620
2026-01-29 16:06:01.57	229.07	7.63	-49.5	-60.2	3.8	8.45e-01	0	42	104	0	69	12369
2026-01-29 16:06:04.27	229.40	7.78	-49.5	-60.3	3.8	8.48e-01	0	43	104	0	69	12429
2026-01-29 16:06:07.53	229.81	7.95	-49.5	-60.2	3.8	8.47e-01	0	42	104	0	69	12293
2026-01-29 16:06:10.23	230.15	8.10	-49.0	-57.1	4.1	8.42e-01	0	43	0	0	68	9081
2026-01-29 16:06:13.51	230.57	8.27	-49.2	-58.1	3.8	8.44e-01	0	43	104	0	68	10269
2026-01-29 16:06:16.22	230.92	8.41	-46.4	-49.6	9.4	3.31e-02	0	43	0	6291456	63	5151
2026-01-29 16:06:19.48	231.35	8.59	-40.3	-41.5	17.6	0.00e+00	0	43	0	29360128	51	4032
2026-01-29 16:06:22.18	231.71	8.73	-39.6	-40.7	18.4	0.00e+00	0	43	0	49283072	49	4115
2026-01-29 16:06:25.45	232.14	8.91	-42.5	-44.1	15.0	0.00e+00	0	43	0	72351744	54	4575
2026-01-29 16:06:28.15	232.51	9.05	-46.2	-49.3	9.8	5.52e-03	0	43	0	92274688	61	5591
2026-01-29 16:06:31.44	232.96	9.22	-46.8	-50.4	8.6	1.66e-01	0	43	0	116391936	64	5323
2026-01-29 16:06:34.34	233.36	9.38	-41.7	-43.1	16.0	0.00e+00	0	43	0	137363456	54	4076
2026-01-29 16:06:37.74	233.83	9.56	-41.6	-43.1	16.0	0.00e+00	0	43	0	161480704	53	4305
2026-01-29 16:06:40.70	234.25	9.71	-40.6	-41.9	17.3	0.00e+00	0	43	0	182452224	51	4205
2026-01-29 16:06:43.69	234.67	9.87	-39.8	-41.0	18.2	0.00e+00	0	43	0	204472320	50	4015
2026-01-29 16:06:46.68	235.10	10.02	-38.4	-39.5	19.4	0.00e+00	0	43	0	225443840	47	4019
2026-01-29 16:06:49.66	235.54	10.18	-38.6	-39.6	19.2	0.00e+00	0	43	0	247463936	47	4090
2026-01-29 16:06:52.93	236.02	10.35	-38.4	-39.4	19.5	0.00e+00	0	43	0	270532608	47	3970
2026-01-29 16:06:55.89	236.46	10.50	-38.5	-39.5	19.4	0.00e+00	0	43	0	292552704	47	4030
2026-01-29 16:06:59.56	237.01	10.69	-38.3	-39.3	19.6	0.00e+00	0	43	0	318767104	47	3942
2026-01-29 16:07:02.27	237.42	10.83	-38.4	-39.4	19.5	0.00e+00	0	43	0	338690048	47	4001
2026-01-29 16:07:05.63	237.94	11.01	-38.2	-39.2	19.7	0.00e+00	0	43	0	362807296	47	3887
2026-01-29 16:07:08.33	238.36	11.14	-38.2	-39.2	19.8	0.00e+00	0	43	0	381681664	46	4104
2026-01-29 16:07:11.75	238.89	11.32	-38.0	-39.0	19.9	0.00e+00	0	43	0	406847488	46	4035
2026-01-29 16:07:14.50	239.33	11.46	-38.0	-39.0	19.9	0.00e+00	0	43	0	426770432	46	4026
2026-01-29 16:07:17.77	239.85	11.62	-37.8	-38.8	20.1	0.00e+00	0	43	0	449839104	46	3941
2026-01-29 16:07:20.59	240.31	11.76	-38.0	-38.9	18.4	0.00e+00	0	43	0	470810624	46	3999
2026-01-29 16:07:24.00	240.86	11.93	-38.2	-39.2	19.7	0.00e+00	0	43	0	494927872	46	4124
2026-01-29 16:07:26.70	241.31	12.06	-38.0	-39.0	19.9	0.00e+00	0	43	0	514850816	46	4041
2026-01-29 16:07:29.99	241.86	12.22	-37.8	-38.8	20.1	0.00e+00	0	43	0	537919488	46	3946
2026-01-29 16:07:32.70	242.31	12.36	-37.9	-38.9	20.0	0.00e+00	0	43	0	557842432	46	3994
2026-01-29 16:07:35.99	242.87	12.51	-37.9	-38.9	20.0	0.00e+00	0	43	0	581959680	46	3984
2026-01-29 16:07:38.78	243.35	12.65	-37.8	-38.8	20.1	0.00e+00	0	43	0	601882624	46	3923
2026-01-29 16:07:42.13	243.93	12.81	-37.8	-38.7	20.2	0.00e+00	0	43	0	625999872	46	3908
2026-01-29 16:07:45.27	244.48	12.95	-37.8	-38.8	20.1	0.00e+00	0	43	0	649068544	46	3924
2026-01-29 16:07:48.12	244.98	13.08	-37.7	-38.7	20.3	0.00e+00	0	44	0	668991488	45	4103
2026-01-29 16:07:51.37	245.56	13.23	-37.4	-38.4	20.5	0.00e+00	0	43	0	693108736	45	3967
2026-01-29 16:07:54.21	246.07	13.36	-37.6	-38.6	20.3	0.00e+00	0	43	0	713031680	45	4074
2026-01-29 16:07:57.49	246.66	13.51	-37.3	-38.3	20.6	0.00e+00	0	43	0	737148928	45	3918
2026-01-29 16:08:00.21	247.16	13.63	-37.2	-38.1	20.8	0.00e+00	0	43	0	757071872	45	3868
2026-01-29 16:08:03.50	247.77	13.77	-37.4	-38.4	20.6	0.00e+00	0	43	0	780140544	45	3966
2026-01-29 16:08:06.23	248.27	13.89	-37.4	-38.3	20.6	0.00e+00	0	43	0	800063488	45	3956
2026-01-29 16:08:09.55	248.90	14.03	-37.1	-38.1	20.8	0.00e+00	0	43	0	824180736	45	3830
2026-01-29 16:08:12.27	249.41	14.14	-37.1	-38.0	20.9	0.00e+00	0	43	0	844103680	44	4039
2026-01-29 16:08:15.71	250.07	14.29	-37.1	-38.0	20.9	0.00e+00	0	43	0	868220928	44	4021
2026-01-29 16:08:18.49	250.60	14.40	-37.1	-38.0	20.9	0.00e+00	0	43	0	888143872	44	4035
2026-01-29 16:08:21.76	251.23	14.53	-37.0	-37.9	21.0	0.00e+00	0	43	0	912261120	44	3966
2026-01-29 16:08:24.46	251.76	14.63	-36.9	-37.8	21.1	0.00e+00	0	43	0	932184064	44	3947
2026-01-29 16:08:27.76	252.41	14.76	-37.2	-38.2	20.8	0.00e+00	0	43	0	955252736	44	4107
2026-01-29 16:08:30.58	252.97	14.87	-37.2	-38.1	20.8	0.00e+00	0	43	0	976224256	44	4087
2026-01-29 16:08:34.22	253.70	15.00	-37.1	-38.0	20.9	0.00e+00	0	44	0	1002438656	44	4051
2026-01-29 16:08:37.27	254.31	15.11	-37.1	-38.1	20.9	0.00e+00	0	44	0	1024458752	44	4058
2026-01-29 16:08:40.11	254.89	15.21	-37.1	-38.0	20.9	0.00e+00	0	43	0	1044381696	44	4030
2026-01-29 16:08:43.29	255.54	15.31	-37.0	-37.9	21.1	0.00e+00	0	43	0	1067450368	44	3969
2026-01-29 16:08:46.13	256.12	15.41	-36.8	-37.7	21.2	0.00e+00	0	44	0	1088421888	44	3894
2026-01-29 16:08:49.26	256.77	15.51	-36.9	-37.8	21.1	0.00e+00	0	43	0	1110441984	44	3950
2026-01-29 16:08:52.11	257.36	15.60	-36.9	-37.9	21.0	0.00e+00	0	43	0	1131413504	44	3972
2026-01-29 16:08:55.46	258.06	15.70	-36.8	-37.7	21.2	0.00e+00	0	43	0	1155530752	44	3898
2026-01-29 16:08:58.30	258.66	15.78	-36.8	-37.7	21.2	0.00e+00	0	43	0	1176502272	44	3906
2026-01-29 16:09:01.42	259.32	15.87	-36.9	-37.8	21.1	0.00e+00	0	43	0	1198522368	44	3933
2026-01-29 16:09:04.26	259.93	15.95	-36.8	-37.7	21.2	0.00e+00	0	43	0	1219493888	44	3895
2026-01-29 16:09:07.39	260.60	16.03	-36.6	-37.5	21.4	0.00e+00	0	43	0	1241513984	44	3820
2026-01-29 16:09:10.29	261.22	16.10	-36.7	-37.6	21.3	0.00e+00	0	43	0	1262485504	44	3860
2026-01-29 16:09:13.56	261.93	16.18	-36.7	-37.6	21.3	0.00e+00	0	43	0	1286602752	44	3839
2026-01-29 16:09:16.29	262.52	16.24	-36.9	-37.8	21.1	0.00e+00	0	43	0	1306525696	44	3953
2026-01-29 16:09:19.56	263.23	16.32	-36.6	-37.6	21.3	0.00e+00	0	44	0	1329594368	44	3830
2026-01-29 16:09:22.28	263.83	16.37	-36.5	-37.4	21.4	0.00e+00	0	43	0	1349517312	43	3968
2026-01-29 16:09:25.74	264.59	16.44	-36.8	-37.7	21.1	0.00e+00	0	44	0	1373634560	43	4136
2026-01-29 16:09:28.45	265.19	16.49	-37.0	-37.9	20.9	0.00e+00	0	44	0	1393557504	43	4222
2026-01-29 16:09:31.74	265.92	16.55	-36.8	-37.7	21.2	0.00e+00	0	44	0	1417674752	44	3909
2026-01-29 16:09:34.51	266.53	16.59	-36.3	-37.2	21.5	0.00e+00	0	43	0	1437597696	43	3910
2026-01-29 16:09:37.84	267.27	16.64	-36.5	-37.4	21.4	0.00e+00	0	43	0	1461714944	43	3970
2026-01-29 16:09:40.67	267.90	16.68	-36.4	-37.2	21.5	0.00e+00	0	44	0	1481637888	43	3910
2026-01-29 16:09:44.11	268.67	16.72	-36.5	-37.4	21.4	0.00e+00	0	43	0	1506803712	43	3968
2026-01-29 16:09:46.82	269.28	16.75	-36.7	-37.6	21.2	0.00e+00	0	44	0	1526726656	43	4052
2026-01-29 16:09:50.11	270.02	16.78	-36.7	-37.6	21.2	0.00e+00	0	44	0	1549795328	43	4080
2026-01-29 16:09:52.89	270.65	16.80	-36.5	-37.4	21.4	0.00e+00	0	44	0	1570766848	43	3999
2026-01-29 16:09:56.11	271.38	16.83	-36.4	-37.3	21.5	0.00e+00	0	44	0	1593835520	43	3943
2026-01-29 16:09:59.10	272.05	16.84	-36.5	-37.4	21.4	0.00e+00	0	44	0	1614807040	43	3974
2026-01-29 16:10:02.08	272.72	16.86	-36.5	-37.4	21.4	0.00e+00	0	43	0	1636827136	43	3967
2026-01-29 16:10:05.20	273.43	16.87	-36.5	-37.4	21.3	0.00e+00	0	44	0	1658847232	43	3990
2026-01-29 16:10:08.04	274.07	16.87	-36.5	-37.4	21.3	0.00e+00	0	43	0	1679818752	43	3983
2026-01-29 16:10:11.16	274.78	16.88	-36.5	-37.4	21.4	0.00e+00	0	43	0	1701838848	43	3977
2026-01-29 16:10:14.00	275.42	16.87	-36.4	-37.3	21.4	0.00e+00	0	44	0	1722810368	43	3939
2026-01-29 16:10:17.13	276.13	16.87	-36.5	-37.4	21.3	0.00e+00	0	43	0	1744830464	43	3994
2026-01-29 16:10:20.24	276.83	16.86	-36.4	-37.3	21.5	0.00e+00	0	44	0	1767899136	43	3916
2026-01-29 16:10:23.32	277.53	16.85	-36.3	-37.2	21.5	0.00e+00	0	44	0	1789919232	43	3889
2026-01-29 16:10:26.83	278.32	16.82	-36.5	-37.5	21.3	0.00e+00	0	43	0	1815085056	43	4008
2026-01-29 16:10:29.54	278.93	16.81	-36.7	-37.6	21.2	0.00e+00	0	44	0	1835008000	43	4095
2026-01-29 16:10:32.81	279.67	16.78	-36.7	-37.6	21.2	0.00e+00	0	44	0	1858076672	43	4075
2026-01-29 16:10:35.56	280.29	16.75	-36.7	-37.6	21.2	0.00e+00	0	44	0	1877999616	43	4088
2026-01-29 16:10:38.83	281.02	16.72	-36.6	-37.5	21.3	0.00e+00	0	44	0	1901068288	43	4031
2026-01-29 16:10:41.55	281.63	16.68	-36.6	-37.5	21.3	0.00e+00	0	44	0	1920991232	43	4014
2026-01-29 16:10:44.83	282.36	16.64	-36.6	-37.5	21.3	0.00e+00	0	44	0	1945108480	43	4021
2026-01-29 16:10:47.53	282.96	16.60	-36.7	-37.6	21.2	0.00e+00	0	44	0	1963982848	43	4081
2026-01-29 16:10:50.81	283.69	16.55	-36.6	-37.5	21.2	0.00e+00	0	44	0	1988100096	43	4047
2026-01-29 16:10:53.54	284.29	16.50	-36.6	-37.5	21.3	0.00e+00	0	44	0	2008023040	43	4011
2026-01-29 16:10:57.10	285.08	16.44	-36.6	-37.5	21.2	0.00e+00	0	44	0	2033188864	43	4041
2026-01-29 16:10:59.81	285.67	16.38	-36.8	-37.7	21.0	0.00e+00	0	44	0	2053111808	43	4126
2026-01-29 16:11:03.08	286.39	16.32	-36.8	-37.7	21.1	0.00e+00	0	43	0	2076180480	43	4134
2026-01-29 16:11:06.14	287.05	16.25	-36.8	-37.7	21.1	0.00e+00	0	44	0	2099249152	43	4108
2026-01-29 16:11:09.71	287.83	16.17	-36.8	-37.7	21.1	0.00e+00	0	44	0	2124414976	43	4112
2026-01-29 16:11:12.49	288.42	16.10	-37.0	-37.9	20.9	0.00e+00	0	44	0	2144337920	43	4226
2026-01-29 16:11:15.76	289.13	16.02	-36.8	-37.8	21.0	0.00e+00	0	44	0	2168455168	43	4152
2026-01-29 16:11:18.49	289.71	15.95	-36.9	-37.8	21.0	0.00e+00	0	44	0	2188378112	43	4170
2026-01-29 16:11:21.77	290.40	15.86	-37.0	-38.0	20.9	0.00e+00	0	43	0	2211446784	43	4243
2026-01-29 16:11:24.57	290.99	15.78	-37.1	-38.1	20.7	0.00e+00	0	43	0	2231369728	43	4293
2026-01-29 16:11:27.70	291.65	15.69	-36.9	-37.9	20.9	0.00e+00	0	44	0	2254438400	43	4200
2026-01-29 16:11:30.54	292.24	15.60	-37.1	-38.0	20.8	0.00e+00	0	44	0	2275409920	43	4288
2026-01-29 16:11:33.67	292.89	15.51	-37.5	-38.5	20.5	0.00e+00	0	43	0	2297430016	44	4261
2026-01-29 16:11:36.51	293.48	15.42	-37.4	-38.4	20.6	0.00e+00	0	44	0	2318401536	44	4200
2026-01-29 16:11:39.64	294.12	15.31	-37.4	-38.3	20.6	0.00e+00	0	43	0	2340421632	44	4190
2026-01-29 16:11:42.89	294.78	15.20	-37.5	-38.4	20.6	0.00e+00	0	44	0	2364538880	44	4236
2026-01-29 16:11:45.70	295.35	15.10	-37.3	-38.3	20.6	0.00e+00	0	44	0	2384461824	44	4165
2026-01-29 16:11:48.83	295.97	14.99	-37.4	-38.3	20.6	0.00e+00	0	44	0	2406481920	44	4191
2026-01-29 16:11:51.67	296.54	14.89	-37.5	-38.4	20.6	0.00e+00	0	43	0	2427453440	44	4224
2026-01-29 16:11:54.80	297.16	14.77	-37.5	-38.5	20.5	0.00e+00	0	44	0	2450522112	44	4253
2026-01-29 16:11:57.64	297.72	14.67	-37.6	-38.6	20.4	0.00e+00	0	44	0	2470445056	45	4073
2026-01-29 16:12:00.77	298.33	14.55	-37.8	-38.8	20.2	0.00e+00	0	44	0	2493513728	45	4159
2026-01-29 16:12:03.61	298.88	14.43	-38.0	-39.1	19.9	0.00e+00	0	44	0	2513436672	45	4295
2026-01-29 16:12:06.73	299.47	14.31	-38.1	-39.1	19.9	0.00e+00	0	44	0	2536505344	45	4326
2026-01-29 16:12:09.58	300.02	14.19	-38.0	-39.0	19.9	0.00e+00	0	44	0	2556428288	45	4274
2026-01-29 16:12:12.81	300.63	14.06	-38.0	-39.0	19.9	0.00e+00	0	44	0	2580545536	45	4262
2026-01-29 16:12:15.69	301.16	13.94	-38.1	-39.1	19.9	0.00e+00	0	44	0	2601517056	45	4292
2026-01-29 16:12:18.81	301.74	13.81	-38.0	-39.0	20.0	0.00e+00	0	44	0	2623537152	45	4258
2026-01-29 16:12:21.66	302.27	13.68	-38.1	-39.1	19.9	0.00e+00	0	44	0	2644508672	45	4296
2026-01-29 16:12:24.78	302.84	13.55	-38.1	-39.1	19.9	0.00e+00	0	44	0	2666528768	45	4297
2026-01-29 16:12:27.69	303.36	13.42	-38.0	-39.0	19.9	0.00e+00	0	44	0	2687500288	45	4262
2026-01-29 16:12:31.00	303.96	13.27	-38.2	-39.2	19.7	0.00e+00	0	44	0	2711617536	45	4387
2026-01-29 16:12:33.86	304.46	13.14	-38.3	-39.3	19.6	0.00e+00	0	44	0	2732589056	46	4176
2026-01-29 16:12:37.12	305.04	12.99	-38.5	-39.6	19.4	0.00e+00	0	44	0	2755657728	46	4301
2026-01-29 16:12:39.84	305.51	12.86	-38.6	-39.6	19.4	0.00e+00	0	44	0	2775580672	46	4316
2026-01-29 16:12:43.17	306.09	12.71	-38.4	-39.4	19.5	0.00e+00	0	44	0	2799697920	46	4240
2026-01-29 16:12:45.91	306.55	12.58	-38.4	-39.5	19.5	0.00e+00	0	44	0	2818572288	46	4244
2026-01-29 16:12:49.37	307.14	12.41	-38.5	-39.5	19.4	0.00e+00	0	44	0	2843738112	46	4289
2026-01-29 16:12:52.32	307.64	12.27	-38.6	-39.7	19.3	0.00e+00	0	44	0	2865758208	46	4349
2026-01-29 16:12:55.99	308.24	12.09	-38.7	-39.8	19.1	0.00e+00	0	44	0	2891972608	46	4412
2026-01-29 16:12:58.68	308.69	11.96	-38.7	-39.7	19.2	0.00e+00	0	44	0	2910846976	47	4136
2026-01-29 16:13:02.06	309.24	11.80	-38.7	-39.8	19.1	0.00e+00	0	44	0	2936012800	47	4160
2026-01-29 16:13:04.77	309.67	11.66	-38.8	-39.9	19.0	0.00e+00	0	44	0	2954887168	47	4225
2026-01-29 16:13:08.14	310.21	11.50	-38.9	-40.0	18.8	0.00e+00	0	44	0	2979004416	47	4288
2026-01-29 16:13:10.88	310.64	11.36	-38.8	-39.9	19.0	0.00e+00	0	44	0	2998927360	47	4229
2026-01-29 16:13:14.15	311.15	11.19	-38.7	-39.8	19.1	0.00e+00	0	44	0	3023044608	47	4175
2026-01-29 16:13:16.99	311.59	11.05	-38.6	-39.7	19.2	0.00e+00	0	44	0	3044016128	47	4122
2026-01-29 16:13:20.12	312.07	10.89	-38.6	-39.7	19.2	0.00e+00	0	44	0	3066036224	47	4119
2026-01-29 16:13:22.96	312.50	10.75	-38.8	-39.9	19.0	0.00e+00	0	44	0	3087007744	47	4201
2026-01-29 16:13:26.09	312.97	10.59	-39.0	-40.2	18.7	0.00e+00	0	44	0	3109027840	47	4345
2026-01-29 16:13:28.94	313.39	10.44	-39.1	-40.2	18.7	0.00e+00	0	44	0	3128950784	47	4364
2026-01-29 16:13:32.06	313.85	10.28	-39.2	-40.3	18.6	0.00e+00	0	44	0	3152019456	47	4430
2026-01-29 16:13:35.12	314.30	10.12	-39.3	-40.3	18.8	0.00e+00	0	44	0	3174039552	48	4192
2026-01-29 16:13:38.44	314.78	9.95	-39.0	-40.1	19.0	0.00e+00	0	44	0	3198156800	48	4068
2026-01-29 16:13:41.31	315.18	9.80	-38.9	-40.0	19.1	0.00e+00	0	44	0	3219128320	48	4026
2026-01-29 16:13:44.44	315.63	9.64	-39.0	-40.0	19.1	0.00e+00	0	44	0	3242196992	48	4046
2026-01-29 16:13:47.28	316.02	9.49	-39.5	-40.7	18.4	0.00e+00	0	44	0	3262119936	48	4344
2026-01-29 16:13:50.41	316.45	9.33	-39.4	-40.5	18.5	0.00e+00	0	44	0	3285188608	48	4287
2026-01-29 16:13:53.26	316.84	9.18	-39.8	-41.0	18.1	0.00e+00	0	44	0	3305111552	49	4267
2026-01-29 16:13:56.53	317.28	9.01	-41.0	-42.3	16.9	0.00e+00	0	44	0	3328180224	51	4399
2026-01-29 16:13:59.24	317.65	8.86	-49.2	-60.1	3.8	8.48e-01	0	44	104	3332374528	67	13589
2026-01-29 16:14:02.54	318.08	8.69	-49.5	-60.2	3.8	8.47e-01	0	44	104	3332374528	68	13062
2026-01-29 16:14:05.25	318.44	8.55	-49.5	-60.3	3.8	8.47e-01	0	44	104	3332374528	68	13245
2026-01-29 16:14:08.64	318.88	8.37	-49.5	-60.4	3.8	8.47e-01	0	44	104	3332374528	68	13268
2026-01-29 16:14:11.33	319.22	8.23	-49.5	-60.3	3.8	8.46e-01	0	44	104	3332374528	68	13248
2026-01-29 16:14:14.60	319.64	8.05	-49.5	-60.4	3.8	8.47e-01	0	44	104	3332374528	68	13280
2026-01-29 16:14:17.30	319.98	7.91	-49.5	-60.3	3.8	8.46e-01	0	44	104	3332374528	68	13243
2026-01-29 16:14:20.56	320.38	7.74	-49.5	-60.3	3.8	8.46e-01	0	44	104	3332374528	68	13220
2026-01-29 16:14:23.26	320.71	7.60	-49.5	-60.3	3.8	8.47e-01	0	44	104	3332374528	68	13235
2026-01-29 16:14:26.54	321.11	7.42	-49.5	-60.3	3.8	8.47e-01	0	44	104	3332374528	68	13247
2026-01-29 16:14:29.23	321.44	7.28	-49.5	-60.3	3.8	8.46e-01	0	44	104	3332374528	68	13179
2026-01-29 16:14:32.50	321.83	7.11	-49.5	-60.4	3.8	8.46e-01	0	44	104	3332374528	68	13285
2026-01-29 16:14:35.20	322.15	6.97	-49.5	-60.4	3.8	8.47e-01	0	44	104	3332374528	68	13264
2026-01-29 16:14:38.46	322.53	6.80	-49.5	-60.3	3.8	8.47e-01	0	44	104	3332374528	68	13249
2026-01-29 16:14:41.17	322.84	6.65	-49.5	-60.4	3.8	8.46e-01	0	44	104	3332374528	68	13267
2026-01-29 16:14:44.43	323.21	6.48	-49.5	-60.3	3.8	8.47e-01	0	44	104	3332374528	68	13215
2026-01-29 16:14:47.13	323.52	6.34	-49.5	-60.3	3.8	8.47e-01	0	44	104	3332374528	68	13174
2026-01-29 16:14:50.39	323.88	6.17	-49.5	-60.4	3.8	8.47e-01	0	44	104	3332374528	68	13271
2026-01-29 16:14:53.09	324.18	6.03	-49.5	-60.3	3.8	8.47e-01	0	44	104	3332374528	68	13257
2026-01-29 16:14:56.35	324.54	5.86	-49.5	-60.4	3.8	8.46e-01	0	44	104	3332374528	68	13269
2026-01-29 16:14:59.07	324.84	5.71	-49.5	-60.4	3.8	8.46e-01	0	44	104	3332374528	68	13301
2026-01-29 16:15:02.33	325.19	5.54	-49.5	-60.3	3.8	8.47e-01	0	44	104	3332374528	68	13233
2026-01-29 16:15:05.06	325.48	5.40	-49.5	-60.3	3.8	8.47e-01	0	44	104	3332374528	68	13226
2026-01-29 16:15:08.32	325.82	5.23	-49.5	-60.4	3.8	8.47e-01	0	44	104	3332374528	68	13293
2026-01-29 16:15:11.05	326.10	5.09	-49.5	-60.3	3.8	8.47e-01	0	44	104	3332374528	68	13218

#Closed at: 2026-01-29 16:15:14
#Recorded file [3332 MB]: D:/Data/31040_260129_190513.dat