passes_logs/2026/01/29/T1/T1__20260129_061309_FENGYUN_3E_rec.log

#Pass ID: 20260129_061309_FENGYUN 3E
#Satellite: FENGYUN 3E
#Configuration: FENGYUN 3E
#almurnet v.1.7.20251203
#Start time: 2026-01-29 06:13:10

#Version: 2.0.20230620
#Station: T1
#Location: 37.570604 lon 55.790049 lat
#TLE: 1 49008U 21062A   26027.97178348  .00000209  00000+0  11900-3 0  9990
#TLE: 2 49008  98.7501  32.9491 0002537 114.6782 245.4659 14.19888434236687

#Time	Az	El	Level	Level2	SNR	BER	BlckErr	Temp	State	Recorded	gain1	gain2
2026-01-29 06:13:10.98	2.96	5.09	-50.5	-61.3	3.8	8.47e-01	0	42	0	0	70	13171
2026-01-29 06:13:13.95	2.65	5.24	-50.5	-61.3	3.8	8.47e-01	0	42	104	0	71	12419
2026-01-29 06:13:16.93	2.34	5.39	-50.4	-61.3	3.8	8.48e-01	0	42	104	0	71	12397
2026-01-29 06:13:19.91	2.02	5.55	-50.3	-61.2	3.8	8.47e-01	0	42	104	0	71	12262
2026-01-29 06:13:22.89	1.69	5.70	-50.3	-61.3	3.8	8.46e-01	0	42	104	0	70	13124
2026-01-29 06:13:25.87	1.37	5.86	-50.1	-61.2	3.8	8.46e-01	0	42	104	0	69	13748
2026-01-29 06:13:28.84	1.04	6.01	-49.3	-61.1	3.8	8.47e-01	0	42	104	0	69	13679
2026-01-29 06:13:31.82	0.70	6.17	-48.8	-61.0	3.8	8.47e-01	0	42	104	0	68	14281
2026-01-29 06:13:34.80	0.37	6.32	-45.3	-60.7	3.8	8.48e-01	0	43	104	0	61	20564
2026-01-29 06:13:37.79	0.02	6.48	-45.4	-60.6	3.8	8.48e-01	0	43	104	0	61	20414
2026-01-29 06:13:40.77	359.68	6.63	-45.3	-60.6	3.8	8.48e-01	0	43	104	0	61	20332
2026-01-29 06:13:43.75	359.33	6.78	-45.5	-60.6	3.8	8.47e-01	0	43	104	0	61	20310
2026-01-29 06:13:46.72	358.98	6.94	-45.4	-60.6	3.8	8.46e-01	0	43	104	0	61	20370
2026-01-29 06:13:49.71	358.62	7.09	-45.5	-60.5	3.8	8.45e-01	0	43	104	0	61	20267
2026-01-29 06:13:52.69	358.26	7.25	-45.6	-60.6	3.8	8.46e-01	0	43	104	0	61	20353
2026-01-29 06:13:55.67	357.89	7.40	-45.4	-60.5	3.8	8.47e-01	0	43	104	0	61	20202
2026-01-29 06:13:58.65	357.53	7.55	-45.5	-60.6	3.8	8.47e-01	0	44	104	0	61	20309
2026-01-29 06:14:01.63	357.15	7.71	-45.5	-60.5	3.8	8.46e-01	0	44	104	0	61	20290
2026-01-29 06:14:04.61	356.78	7.86	-45.4	-60.5	3.8	8.47e-01	0	44	104	0	61	20123
2026-01-29 06:14:07.59	356.40	8.01	-45.5	-60.4	3.8	8.48e-01	0	44	104	0	61	19868
2026-01-29 06:14:10.57	356.01	8.17	-45.5	-60.6	3.8	8.49e-01	0	44	104	0	61	20396
2026-01-29 06:14:13.56	355.62	8.32	-45.4	-59.5	3.8	8.47e-01	0	44	104	0	61	18008
2026-01-29 06:14:16.54	355.23	8.47	-45.3	-57.5	4.1	8.42e-01	0	44	0	0	61	14227
2026-01-29 06:14:19.52	354.83	8.62	-45.1	-55.6	4.7	8.07e-01	0	44	0	0	61	11481
2026-01-29 06:14:22.50	354.43	8.77	-44.8	-53.1	6.4	3.17e-01	0	44	0	5242880	60	9085
2026-01-29 06:14:25.48	354.02	8.92	-43.6	-48.1	11.2	3.27e-03	0	44	0	27262976	58	5765
2026-01-29 06:14:28.46	353.61	9.07	-41.5	-44.2	15.1	0.00e+00	0	44	0	48234496	53	4917
2026-01-29 06:14:31.47	353.19	9.22	-40.1	-42.2	17.2	0.00e+00	0	44	0	67108864	49	4915
2026-01-29 06:14:34.46	352.77	9.37	-38.6	-40.3	19.0	0.00e+00	0	44	0	89128960	48	4160
2026-01-29 06:14:37.44	352.35	9.52	-38.7	-40.3	19.0	0.00e+00	0	44	0	110100480	48	4172
2026-01-29 06:14:40.43	351.92	9.67	-39.0	-40.5	18.9	0.00e+00	0	44	0	132120576	48	4260
2026-01-29 06:14:43.41	351.49	9.82	-39.2	-40.6	18.7	0.00e+00	0	44	0	153092096	48	4325
2026-01-29 06:14:46.40	351.05	9.96	-39.3	-40.6	18.7	0.00e+00	0	44	0	175112192	48	4334
2026-01-29 06:14:49.37	350.61	10.11	-39.2	-40.7	18.7	0.00e+00	0	44	0	196083712	48	4351
2026-01-29 06:14:52.48	350.14	10.26	-38.9	-40.5	18.9	0.00e+00	0	44	0	219152384	48	4262
2026-01-29 06:14:55.33	349.71	10.40	-38.4	-40.1	19.0	0.00e+00	0	44	0	239075328	47	4321
2026-01-29 06:14:58.46	349.23	10.55	-38.3	-39.9	19.2	0.00e+00	0	44	0	262144000	47	4226
2026-01-29 06:15:01.30	348.80	10.68	-38.4	-39.8	19.3	0.00e+00	0	44	0	282066944	47	4167
2026-01-29 06:15:04.60	348.28	10.84	-38.5	-39.9	19.2	0.00e+00	0	44	0	306184192	47	4230
2026-01-29 06:15:07.30	347.86	10.97	-38.6	-40.1	19.1	0.00e+00	0	44	0	326107136	47	4300
2026-01-29 06:15:10.59	347.33	11.12	-38.5	-40.0	19.2	0.00e+00	0	44	0	349175808	47	4248
2026-01-29 06:15:13.29	346.90	11.25	-38.5	-39.9	19.2	0.00e+00	0	44	0	369098752	47	4228
2026-01-29 06:15:16.57	346.37	11.40	-38.3	-39.7	19.4	0.00e+00	0	44	0	392167424	47	4142
2026-01-29 06:15:19.30	345.92	11.52	-38.3	-39.7	19.5	0.00e+00	0	44	0	412090368	47	4103
2026-01-29 06:15:22.62	345.37	11.67	-38.4	-39.6	19.5	0.00e+00	0	44	0	436207616	47	4079
2026-01-29 06:15:25.50	344.89	11.80	-38.4	-39.6	19.6	0.00e+00	0	44	0	457179136	47	4073
2026-01-29 06:15:28.86	344.33	11.95	-38.5	-39.7	19.5	0.00e+00	0	44	0	481296384	47	4120
2026-01-29 06:15:31.59	343.86	12.07	-38.5	-39.6	19.5	0.00e+00	0	44	0	501219328	47	4097
2026-01-29 06:15:35.14	343.25	12.22	-38.4	-39.6	19.6	0.00e+00	0	44	0	526385152	47	4068
2026-01-29 06:15:38.06	342.75	12.34	-38.4	-39.5	19.6	0.00e+00	0	44	0	547356672	47	4051
2026-01-29 06:15:42.04	342.05	12.51	-38.2	-39.3	19.8	0.00e+00	0	44	0	576716800	47	3958
2026-01-29 06:15:44.88	341.55	12.62	-38.0	-39.1	20.1	0.00e+00	0	44	0	597688320	46	4073
2026-01-29 06:15:48.63	340.88	12.78	-38.0	-39.2	20.0	0.00e+00	0	45	0	623902720	46	4120
2026-01-29 06:15:51.58	340.35	12.89	-38.2	-39.4	19.8	0.00e+00	0	44	0	645922816	46	4218
2026-01-29 06:15:54.56	339.81	13.01	-38.3	-39.4	19.8	0.00e+00	0	44	0	666894336	46	4203
2026-01-29 06:15:57.55	339.26	13.12	-38.3	-39.4	19.8	0.00e+00	0	44	0	688914432	46	4199
2026-01-29 06:16:00.55	338.71	13.24	-38.0	-39.1	20.0	0.00e+00	0	44	0	709885952	46	4081
2026-01-29 06:16:03.54	338.15	13.35	-38.0	-39.1	20.1	0.00e+00	0	44	0	731906048	46	4064
2026-01-29 06:16:06.52	337.60	13.46	-38.0	-39.1	20.1	0.00e+00	0	44	0	752877568	46	4056
2026-01-29 06:16:09.50	337.03	13.56	-38.1	-39.2	20.0	0.00e+00	0	44	0	774897664	46	4111
2026-01-29 06:16:12.49	336.47	13.67	-38.2	-39.3	19.9	0.00e+00	0	44	0	796917760	46	4146
2026-01-29 06:16:15.47	335.90	13.77	-38.0	-39.0	20.2	0.00e+00	0	44	0	817889280	46	4011
2026-01-29 06:16:18.45	335.32	13.87	-38.1	-39.1	20.1	0.00e+00	0	44	0	839909376	46	4067
2026-01-29 06:16:21.44	334.74	13.96	-38.1	-39.1	20.1	0.00e+00	0	44	0	860880896	46	4068
2026-01-29 06:16:24.42	334.16	14.06	-38.1	-39.1	20.1	0.00e+00	0	44	0	882900992	46	4098
2026-01-29 06:16:27.41	333.57	14.15	-38.0	-39.0	20.2	0.00e+00	0	44	0	903872512	46	4007
2026-01-29 06:16:30.39	332.98	14.24	-37.7	-38.7	20.5	0.00e+00	0	44	0	925892608	46	3897
2026-01-29 06:16:33.35	332.39	14.32	-37.6	-38.6	20.5	0.00e+00	0	44	0	946864128	45	4080
2026-01-29 06:16:36.68	331.73	14.41	-37.6	-38.6	20.5	0.00e+00	0	44	0	970981376	45	4079
2026-01-29 06:16:39.40	331.18	14.49	-37.7	-38.6	20.5	0.00e+00	0	44	0	990904320	45	4098
2026-01-29 06:16:42.62	330.53	14.57	-37.7	-38.7	20.4	0.00e+00	0	44	0	1013972992	45	4142
2026-01-29 06:16:45.73	329.90	14.65	-37.7	-38.7	20.5	0.00e+00	0	44	0	1035993088	45	4101
2026-01-29 06:16:48.71	329.29	14.72	-37.3	-38.3	20.8	0.00e+00	0	44	0	1058013184	45	3923
2026-01-29 06:16:51.70	328.67	14.79	-37.3	-38.2	20.9	0.00e+00	0	44	0	1078984704	45	3899
2026-01-29 06:16:54.68	328.06	14.85	-37.3	-38.3	20.8	0.00e+00	0	44	0	1101004800	45	3930
2026-01-29 06:16:57.66	327.44	14.91	-37.3	-38.3	20.8	0.00e+00	0	44	0	1121976320	45	3936
2026-01-29 06:17:00.83	326.78	14.97	-37.3	-38.3	20.8	0.00e+00	0	44	0	1145044992	45	3945
2026-01-29 06:17:03.74	326.17	15.03	-37.4	-38.4	20.7	0.00e+00	0	44	0	1166016512	45	3981
2026-01-29 06:17:07.03	325.48	15.08	-37.1	-38.1	21.0	0.00e+00	0	44	0	1190133760	45	3868
2026-01-29 06:17:09.92	324.87	15.13	-37.1	-38.1	21.0	0.00e+00	0	44	0	1211105280	44	4082
2026-01-29 06:17:14.13	323.98	15.19	-37.1	-38.0	21.1	0.00e+00	0	44	0	1241513984	44	4025
2026-01-29 06:17:17.04	323.37	15.23	-37.1	-38.0	21.0	0.00e+00	0	44	0	1262485504	44	4051
2026-01-29 06:17:20.73	322.58	15.28	-37.3	-38.3	20.8	0.00e+00	0	44	0	1288699904	44	4161
2026-01-29 06:17:23.44	322.00	15.31	-37.2	-38.2	20.9	0.00e+00	0	44	0	1308622848	44	4100
2026-01-29 06:17:26.82	321.28	15.34	-37.0	-38.0	21.1	0.00e+00	0	44	0	1332740096	44	4027
2026-01-29 06:17:29.53	320.70	15.36	-37.1	-38.1	21.1	0.00e+00	0	44	0	1352663040	44	4058
2026-01-29 06:17:32.83	319.99	15.39	-37.1	-38.0	21.1	0.00e+00	0	44	0	1376780288	44	4044
2026-01-29 06:17:35.56	319.41	15.40	-37.0	-37.9	21.2	0.00e+00	0	44	0	1395654656	44	4001
2026-01-29 06:17:38.85	318.70	15.42	-37.0	-38.0	21.1	0.00e+00	0	44	0	1419771904	44	4006
2026-01-29 06:17:41.79	318.07	15.43	-37.1	-38.0	21.1	0.00e+00	0	44	0	1440743424	44	4027
2026-01-29 06:17:45.64	317.24	15.44	-37.3	-38.3	20.9	0.00e+00	0	44	0	1469054976	44	4150
2026-01-29 06:17:48.35	316.65	15.44	-37.4	-38.4	20.7	0.00e+00	0	44	0	1487929344	44	4237
2026-01-29 06:17:51.62	315.95	15.44	-37.5	-38.5	20.7	0.00e+00	0	44	0	1512046592	44	4257
2026-01-29 06:17:54.62	315.30	15.43	-37.6	-38.5	20.6	0.00e+00	0	44	0	1533018112	44	4270
2026-01-29 06:17:57.61	314.66	15.42	-37.7	-38.7	20.5	0.00e+00	0	44	0	1555038208	44	4346
2026-01-29 06:18:00.59	314.02	15.41	-37.4	-38.3	20.8	0.00e+00	0	44	0	1577058304	44	4174
2026-01-29 06:18:03.58	313.37	15.40	-37.3	-38.2	20.9	0.00e+00	0	44	0	1598029824	44	4118
2026-01-29 06:18:06.56	312.73	15.38	-37.1	-38.0	21.1	0.00e+00	0	44	0	1620049920	44	4026
2026-01-29 06:18:09.54	312.09	15.35	-37.1	-38.1	21.1	0.00e+00	0	44	0	1641021440	44	4058
2026-01-29 06:18:12.53	311.45	15.33	-37.2	-38.1	21.0	0.00e+00	0	44	0	1663041536	44	4078
2026-01-29 06:18:15.51	310.82	15.30	-37.1	-38.1	21.1	0.00e+00	0	44	0	1684013056	44	4062
2026-01-29 06:18:18.50	310.18	15.26	-37.2	-38.1	21.0	0.00e+00	0	44	0	1706033152	44	4085
2026-01-29 06:18:21.48	309.54	15.23	-37.3	-38.3	20.8	0.00e+00	0	44	0	1728053248	44	4156
2026-01-29 06:18:24.47	308.91	15.19	-37.2	-38.1	21.0	0.00e+00	0	44	0	1749024768	44	4089
2026-01-29 06:18:27.45	308.28	15.14	-37.4	-38.3	20.8	0.00e+00	0	44	0	1771044864	44	4190
2026-01-29 06:18:30.43	307.65	15.10	-37.6	-38.5	20.6	0.00e+00	0	44	0	1792016384	44	4280
2026-01-29 06:18:33.36	307.03	15.05	-37.7	-38.6	20.5	0.00e+00	0	44	0	1812987904	44	4334
2026-01-29 06:18:36.48	306.38	14.99	-37.6	-38.5	20.6	0.00e+00	0	44	0	1836056576	44	4291
2026-01-29 06:18:39.32	305.79	14.93	-37.6	-38.5	20.6	0.00e+00	0	44	0	1855979520	45	4043
2026-01-29 06:18:42.45	305.14	14.87	-37.7	-38.7	20.4	0.00e+00	0	44	0	1879048192	45	4123
2026-01-29 06:18:45.29	304.55	14.81	-37.6	-38.6	20.5	0.00e+00	0	44	0	1900019712	45	4061
2026-01-29 06:18:48.57	303.87	14.74	-37.7	-38.6	20.5	0.00e+00	0	44	0	1923088384	45	4088
2026-01-29 06:18:51.41	303.29	14.67	-37.7	-38.7	20.4	0.00e+00	0	44	0	1944059904	45	4120
2026-01-29 06:18:54.70	302.62	14.59	-37.7	-38.6	20.5	0.00e+00	0	44	0	1967128576	45	4083
2026-01-29 06:18:57.43	302.06	14.52	-37.7	-38.6	20.4	0.00e+00	0	44	0	1987051520	45	4098
2026-01-29 06:19:00.70	301.40	14.43	-37.9	-38.8	20.3	0.00e+00	0	44	0	2011168768	45	4176
2026-01-29 06:19:03.67	300.80	14.35	-37.7	-38.6	20.4	0.00e+00	0	44	0	2032140288	45	4098
2026-01-29 06:19:06.96	300.15	14.26	-37.6	-38.6	20.5	0.00e+00	0	44	0	2056257536	45	4066
2026-01-29 06:19:09.68	299.61	14.18	-37.9	-38.8	20.3	0.00e+00	0	44	0	2075131904	45	4177
2026-01-29 06:19:12.96	298.96	14.08	-38.0	-39.0	20.1	0.00e+00	0	44	0	2099249152	45	4244
2026-01-29 06:19:15.84	298.39	13.99	-38.1	-39.1	20.0	0.00e+00	0	44	0	2120220672	46	4069
2026-01-29 06:19:19.25	297.73	13.88	-37.9	-38.9	20.2	0.00e+00	0	44	0	2144337920	46	3960
2026-01-29 06:19:21.96	297.21	13.79	-37.8	-38.8	20.3	0.00e+00	0	44	0	2164260864	46	3935
2026-01-29 06:19:25.23	296.58	13.68	-37.9	-38.8	20.3	0.00e+00	0	44	0	2188378112	46	3946
2026-01-29 06:19:27.96	296.06	13.58	-38.0	-39.0	20.1	0.00e+00	0	44	0	2207252480	46	4019
2026-01-29 06:19:31.23	295.44	13.47	-38.0	-39.0	20.0	0.00e+00	0	44	0	2231369728	46	4045
2026-01-29 06:19:34.19	294.88	13.36	-37.9	-38.9	20.1	0.00e+00	0	44	0	2252341248	46	3984
2026-01-29 06:19:37.18	294.32	13.25	-37.9	-38.9	20.2	0.00e+00	0	44	0	2274361344	46	3981
2026-01-29 06:19:40.17	293.77	13.14	-38.0	-39.0	20.1	0.00e+00	0	44	0	2295332864	46	4023
2026-01-29 06:19:43.12	293.23	13.02	-38.2	-39.2	19.9	0.00e+00	0	44	0	2317352960	46	4114
2026-01-29 06:19:46.35	292.64	12.90	-38.2	-39.2	19.7	0.00e+00	0	44	0	2340421632	46	4138
2026-01-29 06:19:49.29	292.10	12.78	-38.2	-39.2	19.8	0.00e+00	0	44	0	2361393152	46	4135
2026-01-29 06:19:52.48	291.53	12.65	-38.1	-39.1	20.0	0.00e+00	0	44	0	2384461824	46	4075
2026-01-29 06:19:55.33	291.03	12.53	-38.3	-39.3	19.8	0.00e+00	0	44	0	2405433344	46	4146
2026-01-29 06:19:58.45	290.48	12.40	-38.4	-39.4	19.6	0.00e+00	0	44	0	2427453440	46	4202
2026-01-29 06:20:01.29	289.98	12.28	-38.4	-39.4	19.6	0.00e+00	0	44	0	2448424960	46	4218
2026-01-29 06:20:04.60	289.41	12.14	-38.4	-39.4	19.6	0.00e+00	0	44	0	2471493632	46	4203
2026-01-29 06:20:07.71	288.87	12.01	-38.6	-39.6	19.4	0.00e+00	0	44	0	2494562304	46	4311
2026-01-29 06:20:10.55	288.39	11.88	-38.6	-39.6	19.5	0.00e+00	0	44	0	2514485248	46	4306
2026-01-29 06:20:13.68	287.86	11.75	-38.5	-39.5	19.5	0.00e+00	0	44	0	2537553920	46	4275
2026-01-29 06:20:16.52	287.39	11.62	-38.4	-39.4	19.6	0.00e+00	0	44	0	2558525440	46	4226
2026-01-29 06:20:19.65	286.87	11.48	-38.4	-39.4	19.6	0.00e+00	0	44	0	2580545536	46	4231
2026-01-29 06:20:22.84	286.35	11.33	-38.1	-39.1	19.9	0.00e+00	0	44	0	2603614208	46	4072
2026-01-29 06:20:25.83	285.86	11.19	-38.2	-39.2	19.8	0.00e+00	0	44	0	2625634304	46	4125
2026-01-29 06:20:28.81	285.38	11.05	-38.4	-39.4	19.6	0.00e+00	0	44	0	2646605824	46	4225
2026-01-29 06:20:31.80	284.91	10.91	-38.6	-39.7	19.3	0.00e+00	0	44	0	2668625920	46	4345
2026-01-29 06:20:34.95	284.41	10.76	-38.8	-39.8	19.2	0.00e+00	0	44	0	2690646016	46	4415
2026-01-29 06:20:37.82	283.96	10.63	-38.6	-39.7	19.3	0.00e+00	0	44	0	2711617536	47	4113
2026-01-29 06:20:40.94	283.48	10.48	-38.5	-39.5	19.5	0.00e+00	0	44	0	2734686208	47	4036
2026-01-29 06:20:43.79	283.04	10.34	-38.6	-39.7	19.3	0.00e+00	0	44	0	2754609152	47	4100
2026-01-29 06:20:46.91	282.57	10.19	-38.5	-39.5	19.5	0.00e+00	0	44	0	2777677824	47	4009
2026-01-29 06:20:49.76	282.14	10.05	-38.6	-39.6	19.3	0.00e+00	0	44	0	2797600768	47	4095
2026-01-29 06:20:52.88	281.68	9.90	-38.6	-39.7	19.3	0.00e+00	0	44	0	2820669440	47	4116
2026-01-29 06:20:55.72	281.26	9.76	-38.7	-39.8	19.2	0.00e+00	0	44	0	2841640960	47	4157
2026-01-29 06:20:58.98	280.79	9.59	-38.8	-39.8	19.1	0.00e+00	0	44	0	2864709632	47	4192
2026-01-29 06:21:01.77	280.39	9.46	-38.9	-40.0	19.0	0.00e+00	0	44	0	2884632576	47	4245
2026-01-29 06:21:05.26	279.89	9.28	-38.9	-40.0	18.9	0.00e+00	0	44	0	2909798400	47	4265
2026-01-29 06:21:07.98	279.51	9.14	-38.8	-39.9	19.0	0.00e+00	0	44	0	2929721344	47	4220
2026-01-29 06:21:11.26	279.05	8.98	-49.7	-60.2	3.8	6.95e-01	0	44	104	2950692864	68	13086
2026-01-29 06:21:13.96	278.68	8.84	-49.6	-60.4	3.8	8.46e-01	0	44	104	2950692864	68	13304
2026-01-29 06:21:17.22	278.23	8.68	-49.5	-60.5	3.8	8.46e-01	0	44	104	2950692864	68	13442
2026-01-29 06:21:19.92	277.87	8.54	-49.5	-60.4	3.8	8.46e-01	0	44	104	2950692864	68	13289
2026-01-29 06:21:23.20	277.43	8.37	-49.5	-60.4	3.8	8.48e-01	0	44	104	2950692864	68	13308
2026-01-29 06:21:25.89	277.07	8.23	-49.5	-60.4	3.8	8.46e-01	0	44	104	2950692864	68	13309
2026-01-29 06:21:29.16	276.65	8.07	-49.5	-60.4	3.8	8.48e-01	0	44	104	2950692864	68	13326
2026-01-29 06:21:31.85	276.30	7.93	-49.5	-60.4	3.8	8.48e-01	0	44	104	2950692864	68	13321
2026-01-29 06:21:35.11	275.88	7.76	-49.5	-60.4	3.8	8.47e-01	0	44	104	2950692864	68	13318
2026-01-29 06:21:37.82	275.54	7.62	-49.5	-60.4	3.8	8.47e-01	0	44	104	2950692864	68	13271
2026-01-29 06:21:41.09	275.13	7.45	-49.5	-60.4	3.8	8.48e-01	0	44	104	2950692864	68	13278
2026-01-29 06:21:43.79	274.79	7.31	-49.5	-60.4	3.8	8.47e-01	0	44	104	2950692864	68	13339
2026-01-29 06:21:47.05	274.39	7.14	-49.5	-60.4	3.8	8.47e-01	0	44	104	2950692864	68	13333
2026-01-29 06:21:49.77	274.06	7.00	-49.5	-60.4	3.8	8.47e-01	0	44	104	2950692864	68	13398
2026-01-29 06:21:53.04	273.67	6.83	-49.5	-60.4	3.8	8.48e-01	0	44	104	2950692864	68	13358
2026-01-29 06:21:55.75	273.35	6.69	-49.5	-60.4	3.8	8.47e-01	0	44	104	2950692864	68	13301
2026-01-29 06:21:59.01	272.97	6.52	-49.5	-60.4	3.8	8.47e-01	0	44	104	2950692864	68	13339
2026-01-29 06:22:01.75	272.65	6.38	-49.5	-60.4	3.8	8.47e-01	0	44	104	2950692864	68	13367
2026-01-29 06:22:05.01	272.27	6.21	-49.5	-60.4	3.8	8.47e-01	0	44	104	2950692864	68	13300
2026-01-29 06:22:07.71	271.97	6.07	-49.5	-60.3	3.8	8.47e-01	0	44	104	2950692864	68	13216
2026-01-29 06:22:10.98	271.60	5.90	-49.5	-60.4	3.8	8.46e-01	0	44	104	2950692864	68	13347
2026-01-29 06:22:13.67	271.30	5.76	-49.5	-60.4	3.8	8.47e-01	0	44	104	2950692864	68	13326
2026-01-29 06:22:16.93	270.94	5.59	-49.5	-60.4	3.8	8.47e-01	0	44	104	2950692864	68	13319
2026-01-29 06:22:19.68	270.64	5.45	-49.5	-60.4	3.8	8.48e-01	0	44	104	2950692864	68	13300
2026-01-29 06:22:22.94	270.29	5.28	-49.5	-60.4	3.8	8.47e-01	0	44	104	2950692864	68	13332
2026-01-29 06:22:25.64	270.00	5.14	-49.5	-60.4	3.8	8.46e-01	0	44	104	2950692864	68	13350
2026-01-29 06:22:28.90	269.66	4.97	-49.5	-60.4	3.8	8.47e-01	0	44	104	2950692864	68	13297

#Closed at: 2026-01-29 06:22:29
#Recorded file [2950 MB]: D:/Data/31040_260129_091310.dat