passes_logs/2026/01/29/T1/T1__20260129_003338_NOAA_20_JPSS-1_rec.log

#Pass ID: 20260129_003338_NOAA 20 (JPSS-1)
#Satellite: NOAA 20 (JPSS-1)
#Configuration: NOAA 20
#almurnet v.1.7.20251203
#Start time: 2026-01-29 00:33:39

#Version: 2.0.20230620
#Station: T1
#Location: 37.570604 lon 55.790049 lat
#TLE: 1 43013U 17073A   26027.80586608  .00000156  00000+0  94940-4 0  9998
#TLE: 2 43013  98.7647 328.6108 0000947  21.3465 338.7750 14.19541216424550

#Time	Az	El	Level	Level2	SNR	BER	BlckErr	Temp	State	Recorded	gain1	gain2
2026-01-29 00:33:39.87	11.01	5.11	-50.0	-65.3	3.8	1.49e+00	0	41	0	0	70	22349
2026-01-29 00:33:42.84	10.89	5.31	-50.2	-65.3	3.8	1.49e+00	0	41	104	0	72	19985
2026-01-29 00:33:45.82	10.76	5.52	-50.0	-65.3	3.8	1.49e+00	0	41	104	0	71	21227
2026-01-29 00:33:48.80	10.63	5.73	-50.1	-65.2	3.8	1.49e+00	0	41	104	0	71	21004
2026-01-29 00:33:51.78	10.50	5.94	-49.9	-65.2	3.8	1.49e+00	0	41	104	0	71	20838
2026-01-29 00:33:54.76	10.37	6.15	-49.5	-65.1	3.8	1.49e+00	0	41	104	0	71	20660
2026-01-29 00:33:57.74	10.23	6.36	-49.1	-65.0	3.8	1.49e+00	0	41	104	0	70	21747
2026-01-29 00:34:00.72	10.10	6.57	-49.1	-64.7	3.8	1.49e+00	0	42	104	0	68	23467
2026-01-29 00:34:03.70	9.96	6.79	-46.7	-64.1	3.8	1.49e+00	0	41	104	0	64	27685
2026-01-29 00:34:06.68	9.82	7.01	-46.7	-63.3	3.8	1.49e+00	0	42	104	0	64	25036
2026-01-29 00:34:09.66	9.67	7.23	-46.7	-62.6	3.8	1.49e+00	0	42	104	0	64	23275
2026-01-29 00:34:12.64	9.52	7.45	-46.7	-62.5	3.8	1.49e+00	0	42	104	0	64	22940
2026-01-29 00:34:15.63	9.37	7.67	-46.7	-62.5	3.9	1.49e+00	0	42	104	0	64	22865
2026-01-29 00:34:18.61	9.22	7.90	-46.6	-61.5	4.1	1.48e+00	0	42	104	0	64	20395
2026-01-29 00:34:21.58	9.07	8.12	-46.4	-58.1	5.5	6.20e-01	0	42	0	3145728	64	13795
2026-01-29 00:34:24.56	8.91	8.35	-46.0	-54.5	8.8	4.29e-02	0	42	0	8388608	63	9644
2026-01-29 00:34:27.55	8.75	8.58	-45.4	-52.3	11.1	2.05e-03	0	42	0	14680064	62	7906
2026-01-29 00:34:30.53	8.59	8.81	-45.4	-52.1	11.3	8.03e-04	0	42	0	19922944	62	7758
2026-01-29 00:34:33.50	8.43	9.04	-45.8	-53.1	10.3	8.78e-03	0	42	0	25165824	62	8681
2026-01-29 00:34:36.50	8.26	9.28	-46.5	-57.2	6.2	7.83e-01	0	42	0	31457280	63	13195
2026-01-29 00:34:39.49	8.09	9.52	-43.7	-47.0	16.3	0.00e+00	0	42	0	36700160	59	5127
2026-01-29 00:34:42.48	7.91	9.76	-43.3	-46.4	17.0	0.00e+00	0	42	0	42991616	58	5091
2026-01-29 00:34:45.46	7.74	10.00	-43.4	-46.5	17.1	0.00e+00	0	42	0	48234496	58	5104
2026-01-29 00:34:48.45	7.55	10.25	-43.3	-46.3	17.1	0.00e+00	0	42	0	53477376	58	5038
2026-01-29 00:34:51.55	7.36	10.50	-43.3	-46.3	17.2	0.00e+00	0	42	0	59768832	58	5017
2026-01-29 00:34:54.39	7.19	10.74	-43.4	-46.3	17.2	0.00e+00	0	42	0	65011712	58	5025
2026-01-29 00:34:57.52	6.99	11.00	-43.2	-46.1	17.3	0.00e+00	0	42	0	70254592	58	4923
2026-01-29 00:35:00.37	6.80	11.25	-43.4	-46.3	17.2	0.00e+00	0	42	0	75497472	58	4997
2026-01-29 00:35:03.62	6.59	11.52	-43.2	-46.1	17.4	0.00e+00	0	42	0	81788928	58	4898
2026-01-29 00:35:06.42	6.40	11.77	-43.2	-46.0	17.5	0.00e+00	0	42	0	87031808	58	4840
2026-01-29 00:35:09.55	6.18	12.04	-43.1	-45.9	17.7	0.00e+00	0	42	0	93323264	58	4774
2026-01-29 00:35:12.39	5.98	12.29	-43.0	-45.7	17.8	0.00e+00	0	43	0	98566144	57	4959
2026-01-29 00:35:15.52	5.76	12.57	-43.0	-45.7	17.8	0.00e+00	0	42	0	104857600	57	4978
2026-01-29 00:35:18.36	5.55	12.82	-42.9	-45.6	18.0	0.00e+00	0	43	0	110100480	57	4872
2026-01-29 00:35:21.57	5.32	13.11	-42.8	-45.5	18.1	0.00e+00	0	43	0	115343360	57	4824
2026-01-29 00:35:24.42	5.10	13.37	-42.8	-45.4	18.0	0.00e+00	0	43	0	120586240	57	4812
2026-01-29 00:35:27.55	4.86	13.66	-42.8	-45.4	18.2	0.00e+00	0	43	0	126877696	57	4780
2026-01-29 00:35:30.39	4.64	13.93	-42.8	-45.4	18.2	0.00e+00	0	43	0	132120576	57	4766
2026-01-29 00:35:33.52	4.39	14.22	-42.8	-45.4	18.2	0.00e+00	0	42	0	138412032	57	4798
2026-01-29 00:35:36.36	4.15	14.49	-42.8	-45.4	18.1	0.00e+00	0	42	0	143654912	57	4787
2026-01-29 00:35:39.49	3.89	14.79	-42.8	-45.3	18.2	0.00e+00	0	43	0	148897792	57	4746
2026-01-29 00:35:42.33	3.65	15.07	-42.8	-45.3	18.2	0.00e+00	0	43	0	155189248	57	4720
2026-01-29 00:35:45.46	3.38	15.37	-42.8	-45.4	18.2	0.00e+00	0	43	0	160432128	57	4771
2026-01-29 00:35:48.30	3.13	15.65	-42.8	-45.3	18.3	0.00e+00	0	43	0	165675008	57	4736
2026-01-29 00:35:51.43	2.84	15.96	-42.8	-45.3	18.2	0.00e+00	0	43	0	171966464	57	4758
2026-01-29 00:35:54.27	2.58	16.25	-42.7	-45.3	18.3	0.00e+00	0	43	0	177209344	57	4733
2026-01-29 00:35:57.71	2.26	16.60	-42.9	-45.5	18.1	0.00e+00	0	43	0	183500800	57	4860
2026-01-29 00:36:00.75	1.96	16.91	-42.8	-45.5	18.1	0.00e+00	0	43	0	188743680	57	4849
2026-01-29 00:36:03.67	1.67	17.22	-42.9	-45.6	18.0	0.00e+00	0	43	0	195035136	57	4924
2026-01-29 00:36:06.66	1.37	17.53	-43.1	-45.9	17.8	0.00e+00	0	43	0	200278016	57	5048
2026-01-29 00:36:09.75	1.06	17.86	-43.3	-46.0	17.7	0.00e+00	0	43	0	206569472	57	5121
2026-01-29 00:36:12.59	0.76	18.17	-43.3	-46.0	17.6	0.00e+00	0	43	0	211812352	57	5147
2026-01-29 00:36:15.72	0.42	18.50	-43.5	-46.2	17.5	0.00e+00	0	43	0	217055232	57	5225
2026-01-29 00:36:18.56	0.11	18.82	-43.5	-46.2	17.5	0.00e+00	0	43	0	222298112	58	4956
2026-01-29 00:36:21.69	359.75	19.16	-43.5	-46.1	17.6	0.00e+00	0	43	0	228589568	58	4903
2026-01-29 00:36:24.53	359.43	19.48	-43.5	-46.1	17.6	0.00e+00	0	43	0	233832448	58	4910
2026-01-29 00:36:27.66	359.06	19.83	-43.4	-46.1	17.7	0.00e+00	0	43	0	240123904	58	4905
2026-01-29 00:36:30.51	358.72	20.16	-43.4	-46.1	17.6	0.00e+00	0	43	0	245366784	58	4919
2026-01-29 00:36:33.74	358.32	20.53	-43.5	-46.2	17.6	0.00e+00	0	43	0	250609664	58	4941
2026-01-29 00:36:36.87	357.92	20.89	-43.6	-46.3	17.5	0.00e+00	0	43	0	256901120	58	5005
2026-01-29 00:36:39.71	357.55	21.23	-43.6	-46.3	17.5	0.00e+00	0	43	0	262144000	58	5013
2026-01-29 00:36:42.86	357.14	21.60	-43.5	-46.3	17.5	0.00e+00	0	43	0	268435456	58	4987
2026-01-29 00:36:45.70	356.75	21.94	-43.5	-46.2	17.6	0.00e+00	0	43	0	273678336	58	4956
2026-01-29 00:36:48.82	356.32	22.32	-43.3	-46.0	17.8	0.00e+00	0	43	0	278921216	58	4850
2026-01-29 00:36:51.78	355.90	22.68	-43.5	-46.2	17.6	0.00e+00	0	43	0	285212672	58	4947
2026-01-29 00:36:55.00	355.43	23.08	-43.6	-46.3	17.5	0.00e+00	0	43	0	290455552	58	5003
2026-01-29 00:36:57.85	355.00	23.44	-43.4	-46.1	17.7	0.00e+00	0	43	0	296747008	58	4924
2026-01-29 00:37:01.15	354.50	23.85	-43.4	-46.2	17.6	0.00e+00	0	43	0	301989888	58	4937
2026-01-29 00:37:04.29	354.00	24.25	-43.6	-46.5	17.3	0.00e+00	0	43	0	308281344	58	5106
2026-01-29 00:37:07.13	353.54	24.61	-43.7	-46.5	17.3	0.00e+00	0	43	0	313524224	58	5150
2026-01-29 00:37:10.37	353.01	25.03	-43.5	-46.3	17.6	0.00e+00	0	43	0	319815680	58	4987
2026-01-29 00:37:13.21	352.53	25.41	-43.4	-46.1	17.6	0.00e+00	0	43	0	325058560	58	4917
2026-01-29 00:37:16.34	351.98	25.82	-43.4	-46.1	17.7	0.00e+00	0	43	0	331350016	58	4887
2026-01-29 00:37:19.18	351.47	26.19	-43.4	-46.1	17.7	0.00e+00	0	43	0	336592896	58	4908
2026-01-29 00:37:22.31	350.90	26.61	-43.6	-46.3	17.5	0.00e+00	0	43	0	341835776	58	4995
2026-01-29 00:37:25.26	350.35	27.01	-43.5	-46.1	17.7	0.00e+00	0	43	0	348127232	58	4889
2026-01-29 00:37:28.39	349.74	27.43	-43.5	-46.1	17.7	0.00e+00	0	43	0	353370112	58	4919
2026-01-29 00:37:31.23	349.18	27.82	-43.7	-46.4	17.4	0.00e+00	0	43	0	358612992	58	5092
2026-01-29 00:37:34.58	348.50	28.28	-43.8	-46.6	17.3	0.00e+00	0	43	0	364904448	58	5181
2026-01-29 00:37:37.30	347.93	28.66	-44.3	-47.1	16.7	0.00e+00	0	43	0	370147328	59	5211
2026-01-29 00:37:40.56	347.23	29.11	-44.5	-47.6	16.3	0.00e+00	0	43	0	376438784	59	5466
2026-01-29 00:37:43.28	346.63	29.49	-44.7	-48.0	15.9	0.00e+00	0	43	0	381681664	60	5427
2026-01-29 00:37:46.55	345.89	29.95	-45.4	-49.1	14.9	0.00e+00	0	43	0	387973120	61	5824
2026-01-29 00:37:49.47	345.21	30.36	-46.0	-49.8	14.3	1.50e-06	0	43	0	393216000	62	5948
2026-01-29 00:37:52.74	344.43	30.83	-46.0	-50.0	14.0	7.60e-06	0	43	0	399507456	63	5746
2026-01-29 00:37:55.45	343.77	31.21	-45.9	-49.7	14.3	4.50e-06	0	43	0	404750336	63	5545
2026-01-29 00:37:58.72	342.94	31.67	-45.7	-49.4	14.5	0.00e+00	0	43	0	409993216	63	5374
2026-01-29 00:38:01.60	342.20	32.08	-45.6	-49.6	14.3	0.00e+00	0	43	0	416284672	63	5519
2026-01-29 00:38:05.23	341.23	32.60	-45.4	-49.4	14.5	7.00e-07	0	43	0	422576128	62	5703
2026-01-29 00:38:08.30	340.39	33.03	-46.1	-50.0	13.9	3.80e-06	0	43	0	428867584	62	6088
2026-01-29 00:38:11.15	339.58	33.44	-45.8	-49.4	14.5	0.00e+00	0	43	0	434110464	63	5394
2026-01-29 00:38:14.29	338.67	33.88	-45.4	-48.8	15.2	0.00e+00	0	43	0	439353344	62	5280
2026-01-29 00:38:17.14	337.83	34.28	-44.9	-48.1	15.8	0.00e+00	0	43	0	444596224	61	5188
2026-01-29 00:38:20.27	336.87	34.72	-44.8	-48.2	15.7	0.00e+00	0	43	0	450887680	61	5271
2026-01-29 00:38:23.10	335.99	35.11	-44.2	-47.2	16.7	0.00e+00	0	43	0	456130560	60	4967
2026-01-29 00:38:26.23	334.99	35.54	-44.2	-47.1	16.8	0.00e+00	0	43	0	462422016	60	4906
2026-01-29 00:38:29.15	334.02	35.94	-44.5	-47.4	16.5	0.00e+00	0	43	0	467664896	60	5094
2026-01-29 00:38:32.40	332.93	36.38	-44.6	-47.6	16.3	0.00e+00	0	43	0	473956352	60	5189
2026-01-29 00:38:35.23	331.95	36.75	-44.6	-47.8	16.1	0.00e+00	0	43	0	479199232	60	5290
2026-01-29 00:38:38.36	330.84	37.16	-44.8	-48.3	15.6	0.00e+00	0	43	0	484442112	60	5632
2026-01-29 00:38:41.33	329.76	37.54	-44.6	-47.8	16.2	0.00e+00	0	43	0	490733568	60	5291
2026-01-29 00:38:44.46	328.59	37.93	-45.1	-48.3	15.6	0.00e+00	0	43	0	495976448	60	5643
2026-01-29 00:38:47.30	327.51	38.28	-45.1	-48.5	15.4	0.00e+00	0	43	0	501219328	61	5404
2026-01-29 00:38:50.43	326.29	38.65	-44.5	-48.0	15.9	0.00e+00	0	43	0	507510784	61	5136
2026-01-29 00:38:53.27	325.16	38.98	-44.5	-48.0	15.8	0.00e+00	0	43	0	512753664	60	5463
2026-01-29 00:38:56.58	323.81	39.36	-44.4	-47.5	16.4	0.00e+00	0	43	0	519045120	60	5144
2026-01-29 00:38:59.42	322.63	39.66	-43.9	-46.6	17.2	0.00e+00	0	43	0	524288000	59	4912
2026-01-29 00:39:02.55	321.30	39.99	-43.4	-45.9	18.0	0.00e+00	0	43	0	530579456	58	4782
2026-01-29 00:39:05.39	320.08	40.27	-43.2	-45.6	18.2	0.00e+00	0	43	0	535822336	58	4636
2026-01-29 00:39:08.51	318.70	40.57	-43.3	-45.8	18.0	0.00e+00	0	43	0	541065216	58	4754
2026-01-29 00:39:11.38	317.42	40.82	-44.0	-46.9	17.0	0.00e+00	0	43	0	546308096	58	5345
2026-01-29 00:39:14.61	315.95	41.10	-44.2	-47.1	16.8	0.00e+00	0	43	0	552599552	59	5196
2026-01-29 00:39:17.45	314.64	41.32	-43.5	-46.2	17.6	0.00e+00	0	43	0	557842432	59	4672
2026-01-29 00:39:20.58	313.17	41.54	-43.2	-45.7	18.1	0.00e+00	0	43	0	564133888	58	4654
2026-01-29 00:39:23.42	311.82	41.73	-42.7	-45.1	18.7	0.00e+00	0	43	0	569376768	57	4611
2026-01-29 00:39:26.55	310.32	41.92	-42.7	-45.1	18.6	0.00e+00	0	43	0	574619648	57	4642
2026-01-29 00:39:29.39	308.94	42.07	-42.5	-44.8	18.9	0.00e+00	0	43	0	580911104	56	4737
2026-01-29 00:39:32.52	307.41	42.22	-42.6	-44.9	18.9	0.00e+00	0	43	0	586153984	56	4782
2026-01-29 00:39:35.36	306.00	42.33	-42.9	-45.3	18.5	0.00e+00	0	43	0	591396864	56	4989
2026-01-29 00:39:38.48	304.45	42.43	-42.8	-45.2	18.6	0.00e+00	0	43	0	597688320	56	4953
2026-01-29 00:39:41.32	303.03	42.50	-43.0	-45.4	18.4	0.00e+00	0	43	0	602931200	56	5093
2026-01-29 00:39:44.44	301.46	42.56	-43.2	-45.7	18.1	0.00e+00	0	43	0	608174080	57	4960
2026-01-29 00:39:47.29	300.03	42.59	-43.3	-45.9	18.0	0.00e+00	0	43	0	614465536	57	5050
2026-01-29 00:39:50.52	298.40	42.60	-43.9	-46.7	17.2	0.00e+00	0	43	0	619708416	58	5233
2026-01-29 00:39:53.37	296.97	42.58	-44.1	-46.9	17.0	0.00e+00	0	43	0	624951296	58	5384
2026-01-29 00:39:56.69	295.29	42.54	-44.5	-47.3	16.5	0.00e+00	0	43	0	631242752	59	5327
2026-01-29 00:39:59.44	293.91	42.49	-44.7	-47.7	16.3	0.00e+00	0	43	0	636485632	60	5225
2026-01-29 00:40:02.72	292.28	42.40	-45.4	-48.8	15.3	0.00e+00	0	43	0	642777088	61	5599
2026-01-29 00:40:05.82	290.74	42.29	-45.1	-48.3	15.7	0.00e+00	0	43	0	649068544	61	5293
2026-01-29 00:40:08.66	289.34	42.17	-45.3	-48.6	15.3	0.00e+00	0	43	0	654311424	61	5489
2026-01-29 00:40:11.79	287.81	42.01	-46.2	-50.0	13.9	2.20e-06	0	43	0	659554304	63	5723
2026-01-29 00:40:14.63	286.43	41.86	-46.3	-50.2	13.8	4.50e-06	0	43	0	664797184	63	5868
2026-01-29 00:40:17.91	284.86	41.65	-46.4	-50.3	13.5	6.80e-06	0	43	0	671088640	63	5983
2026-01-29 00:40:20.86	283.47	41.45	-45.8	-49.4	14.5	3.80e-06	0	43	0	677380096	63	5350
2026-01-29 00:40:24.26	281.88	41.19	-44.8	-47.8	16.0	0.00e+00	0	43	0	683671552	61	5038
2026-01-29 00:40:26.99	280.63	40.97	-44.6	-47.6	16.3	0.00e+00	0	43	0	688914432	61	4894
2026-01-29 00:40:30.26	279.15	40.68	-44.2	-47.0	17.0	0.00e+00	0	43	0	694157312	60	4818
2026-01-29 00:40:32.96	277.95	40.44	-42.7	-45.1	18.7	0.00e+00	0	43	0	699400192	57	4640
2026-01-29 00:40:36.28	276.50	40.11	-42.7	-45.0	18.8	0.00e+00	0	43	0	705691648	56	4861
2026-01-29 00:40:39.17	275.26	39.82	-42.8	-45.2	18.6	0.00e+00	0	43	0	710934528	56	4969
2026-01-29 00:40:42.57	273.83	39.45	-42.0	-44.2	19.5	0.00e+00	0	43	0	717225984	56	4423
2026-01-29 00:40:45.27	272.72	39.15	-41.8	-44.0	19.6	0.00e+00	0	43	0	722468864	54	4830
2026-01-29 00:40:48.54	271.40	38.78	-42.1	-44.3	19.3	0.00e+00	0	43	0	728760320	54	5034
2026-01-29 00:40:51.25	270.33	38.46	-41.7	-43.9	19.7	0.00e+00	0	43	0	734003200	54	4804
2026-01-29 00:40:54.55	269.06	38.06	-41.7	-43.9	19.7	0.00e+00	0	43	0	740294656	54	4791
2026-01-29 00:40:57.26	268.04	37.72	-42.4	-44.7	18.9	0.00e+00	0	43	0	745537536	55	4966
2026-01-29 00:41:00.56	266.82	37.30	-42.0	-44.2	19.4	0.00e+00	0	43	0	751828992	55	4684
2026-01-29 00:41:03.26	265.85	36.95	-41.9	-44.2	19.4	0.00e+00	0	43	0	756023296	55	4657
2026-01-29 00:41:06.55	264.69	36.51	-42.6	-45.0	18.7	0.00e+00	0	43	0	762314752	55	5115
2026-01-29 00:41:09.24	263.77	36.15	-42.7	-45.1	18.7	0.00e+00	0	43	0	767557632	56	4905
2026-01-29 00:41:12.99	262.52	35.64	-42.5	-44.8	18.9	0.00e+00	0	43	0	774897664	56	4749
2026-01-29 00:41:15.94	261.56	35.23	-43.3	-45.8	17.9	0.00e+00	0	43	0	780140544	57	5038
2026-01-29 00:41:19.91	260.31	34.68	-43.7	-46.3	17.5	0.00e+00	0	43	0	787480576	57	5299
2026-01-29 00:41:22.75	259.44	34.28	-44.1	-46.9	16.9	0.00e+00	0	43	0	792723456	58	5375
2026-01-29 00:41:26.73	258.26	33.72	-44.4	-47.3	16.5	0.00e+00	0	43	0	800063488	59	5296
2026-01-29 00:41:29.58	257.44	33.32	-44.7	-47.8	16.1	0.00e+00	0	43	0	805306368	60	5302
2026-01-29 00:41:33.55	256.33	32.75	-45.1	-48.3	15.6	0.00e+00	0	43	0	813694976	60	5637
2026-01-29 00:41:36.39	255.56	32.35	-45.7	-49.3	14.5	7.00e-07	0	43	0	818937856	62	5637
2026-01-29 00:41:40.07	254.58	31.82	-45.1	-48.2	15.7	0.00e+00	0	43	0	825229312	62	4944
2026-01-29 00:41:42.93	253.85	31.42	-45.6	-49.0	14.9	0.00e+00	0	43	0	830472192	62	5436
2026-01-29 00:41:46.06	253.07	30.97	-45.6	-49.1	14.7	7.00e-07	0	43	0	836763648	62	5510
2026-01-29 00:41:48.90	252.38	30.57	-45.1	-48.3	15.5	0.00e+00	0	43	0	842006528	62	5032
2026-01-29 00:41:52.03	251.64	30.12	-44.8	-47.9	16.0	0.00e+00	0	43	0	848297984	61	5055
2026-01-29 00:41:54.87	250.98	29.72	-44.9	-48.0	15.9	0.00e+00	0	43	0	853540864	61	5121
2026-01-29 00:41:58.00	250.28	29.28	-44.7	-47.7	16.1	0.00e+00	0	44	0	858783744	61	4970
2026-01-29 00:42:00.84	249.66	28.88	-44.0	-46.8	17.1	0.00e+00	0	43	0	864026624	60	4719
2026-01-29 00:42:03.97	248.99	28.45	-44.0	-46.7	17.1	0.00e+00	0	43	0	870318080	59	4976
2026-01-29 00:42:06.81	248.40	28.05	-44.0	-46.8	17.0	0.00e+00	0	43	0	875560960	59	4996
2026-01-29 00:42:09.93	247.77	27.62	-43.8	-46.5	17.3	0.00e+00	0	43	0	881852416	59	4856
2026-01-29 00:42:12.81	247.20	27.23	-43.7	-46.4	17.4	0.00e+00	0	43	0	887095296	59	4785
2026-01-29 00:42:16.10	246.57	26.78	-43.7	-46.3	17.4	0.00e+00	0	43	0	893386752	59	4745
2026-01-29 00:42:18.81	246.06	26.42	-43.8	-46.5	17.3	0.00e+00	0	43	0	897581056	59	4832
2026-01-29 00:42:22.09	245.47	25.98	-43.7	-46.4	17.4	0.00e+00	0	43	0	903872512	59	4763
2026-01-29 00:42:25.09	244.93	25.58	-43.8	-46.5	17.2	0.00e+00	0	43	0	910163968	59	4848
2026-01-29 00:42:28.37	244.37	25.15	-44.0	-46.8	17.0	0.00e+00	0	43	0	916455424	59	4998
2026-01-29 00:42:31.09	243.91	24.79	-43.9	-46.7	17.0	0.00e+00	0	43	0	920649728	59	4928
2026-01-29 00:42:34.43	243.36	24.36	-43.8	-46.4	17.3	0.00e+00	0	43	0	926941184	59	4781
2026-01-29 00:42:37.14	242.92	24.01	-43.6	-46.1	17.6	0.00e+00	0	43	0	932184064	58	4922
2026-01-29 00:42:40.42	242.41	23.59	-43.7	-46.4	17.4	0.00e+00	0	43	0	938475520	58	5047
2026-01-29 00:42:43.12	242.00	23.25	-44.1	-46.8	16.9	0.00e+00	0	43	0	943718400	58	5316
2026-01-29 00:42:46.65	241.47	22.81	-44.0	-46.8	16.9	0.00e+00	0	43	0	950009856	59	5004
2026-01-29 00:42:49.48	241.06	22.46	-44.1	-46.8	16.9	0.00e+00	0	43	0	955252736	59	5015
2026-01-29 00:42:52.77	240.60	22.06	-43.7	-46.3	17.3	0.00e+00	0	43	0	961544192	59	4749
2026-01-29 00:42:55.48	240.22	21.73	-43.8	-46.5	17.2	0.00e+00	0	43	0	966787072	59	4832
2026-01-29 00:42:58.79	239.77	21.34	-43.9	-46.6	17.0	0.00e+00	0	43	0	973078528	59	4915
2026-01-29 00:43:01.51	239.42	21.01	-44.1	-46.8	16.8	0.00e+00	0	43	0	978321408	59	5035
2026-01-29 00:43:04.79	238.99	20.63	-43.9	-46.6	17.0	0.00e+00	0	43	0	984612864	59	4914
2026-01-29 00:43:07.49	238.65	20.31	-43.9	-46.7	17.0	0.00e+00	0	43	0	989855744	59	4945
2026-01-29 00:43:10.79	238.25	19.93	-43.8	-46.5	17.1	0.00e+00	0	43	0	995098624	59	4854
2026-01-29 00:43:13.49	237.92	19.63	-43.7	-46.4	17.3	0.00e+00	0	43	0	1000341504	59	4772
2026-01-29 00:43:16.81	237.53	19.25	-43.6	-46.3	17.3	0.00e+00	0	43	0	1006632960	59	4753
2026-01-29 00:43:19.51	237.22	18.95	-43.8	-46.5	17.1	0.00e+00	0	43	0	1011875840	59	4839
2026-01-29 00:43:22.81	236.85	18.58	-44.0	-46.8	16.8	0.00e+00	0	43	0	1018167296	59	4996
2026-01-29 00:43:25.74	236.53	18.26	-44.0	-46.9	16.8	0.00e+00	0	43	0	1023410176	59	5042
2026-01-29 00:43:28.72	236.21	17.94	-43.9	-46.6	17.0	0.00e+00	0	43	0	1029701632	59	4907
2026-01-29 00:43:31.77	235.89	17.61	-43.7	-46.4	17.2	0.00e+00	0	43	0	1034944512	59	4790
2026-01-29 00:43:34.73	235.58	17.30	-43.6	-46.3	17.3	0.00e+00	0	43	0	1040187392	59	4707
2026-01-29 00:43:38.09	235.25	16.95	-43.7	-46.5	17.1	0.00e+00	0	43	0	1046478848	59	4825
2026-01-29 00:43:40.80	234.98	16.67	-43.6	-46.2	17.3	0.00e+00	0	43	0	1051721728	59	4700
2026-01-29 00:43:44.07	234.66	16.33	-43.4	-46.0	17.5	0.00e+00	0	43	0	1058013184	58	4855
2026-01-29 00:43:46.90	234.40	16.04	-43.5	-46.2	17.4	0.00e+00	0	43	0	1063256064	58	4937
2026-01-29 00:43:50.03	234.11	15.73	-43.7	-46.5	17.0	0.00e+00	0	43	0	1069547520	58	5122
2026-01-29 00:43:52.87	233.85	15.44	-44.0	-46.9	16.7	0.00e+00	0	43	0	1074790400	58	5357
2026-01-29 00:43:56.09	233.56	15.12	-44.2	-47.1	16.4	0.00e+00	0	43	0	1080033280	59	5206
2026-01-29 00:43:58.94	233.32	14.85	-44.0	-46.9	16.6	0.00e+00	0	43	0	1086324736	59	5046
2026-01-29 00:44:02.02	233.05	14.55	-43.9	-46.7	16.8	0.00e+00	0	43	0	1091567616	59	4950
2026-01-29 00:44:05.01	232.80	14.26	-43.9	-46.7	16.8	0.00e+00	0	43	0	1096810496	59	4954
2026-01-29 00:44:07.99	232.56	13.98	-44.0	-46.8	16.7	0.00e+00	0	43	0	1103101952	59	5013
2026-01-29 00:44:10.97	232.32	13.70	-44.3	-47.3	16.2	0.00e+00	0	43	0	1108344832	59	5303
2026-01-29 00:44:13.99	232.08	13.42	-44.5	-47.5	15.9	0.00e+00	0	43	0	1113587712	59	5455
2026-01-29 00:44:16.97	231.85	13.14	-44.5	-47.7	15.8	0.00e+00	0	43	0	1119879168	60	5244
2026-01-29 00:44:19.95	231.63	12.87	-44.7	-47.9	15.6	0.00e+00	0	43	0	1125122048	60	5350
2026-01-29 00:44:22.94	231.40	12.60	-44.6	-47.8	15.7	0.00e+00	0	43	0	1130364928	60	5284
2026-01-29 00:44:25.96	231.18	12.33	-44.6	-47.8	15.7	0.00e+00	0	43	0	1136656384	60	5289
2026-01-29 00:44:28.99	230.97	12.06	-44.6	-47.8	15.7	0.00e+00	0	43	0	1141899264	60	5300
2026-01-29 00:44:31.98	230.76	11.80	-44.8	-48.0	15.5	0.00e+00	0	43	0	1148190720	60	5414
2026-01-29 00:44:34.96	230.55	11.54	-45.0	-48.5	15.0	0.00e+00	0	43	0	1153433600	60	5725
2026-01-29 00:44:37.95	230.35	11.28	-45.1	-48.5	14.9	7.00e-07	0	43	0	1158676480	61	5438
2026-01-29 00:44:40.95	230.15	11.02	-45.1	-48.6	14.8	0.00e+00	0	43	0	1164967936	61	5494
2026-01-29 00:44:43.97	229.95	10.77	-45.1	-48.6	14.8	0.00e+00	0	43	0	1170210816	61	5504
2026-01-29 00:44:46.95	229.76	10.52	-45.1	-48.5	14.9	0.00e+00	0	43	0	1175453696	61	5432
2026-01-29 00:44:49.93	229.57	10.27	-44.9	-48.3	15.1	0.00e+00	0	43	0	1181745152	61	5304
2026-01-29 00:44:52.91	229.39	10.02	-44.9	-48.3	15.1	0.00e+00	0	43	0	1186988032	61	5324
2026-01-29 00:44:55.90	229.20	9.78	-45.0	-48.4	15.0	0.00e+00	0	43	0	1192230912	61	5353
2026-01-29 00:44:59.00	229.02	9.53	-45.2	-48.7	14.6	0.00e+00	0	43	0	1198522368	61	5581
2026-01-29 00:45:01.84	228.85	9.30	-45.3	-48.9	14.4	0.00e+00	0	43	0	1203765248	61	5681
2026-01-29 00:45:04.96	228.67	9.05	-45.5	-49.2	14.1	7.00e-07	0	43	0	1210056704	61	5904
2026-01-29 00:45:07.80	228.51	8.83	-49.2	-64.4	3.8	1.49e+00	0	43	104	1211105280	69	21442
2026-01-29 00:45:10.92	228.33	8.58	-49.4	-64.6	3.8	1.49e+00	0	43	104	1211105280	69	21932
2026-01-29 00:45:13.76	228.18	8.36	-49.3	-64.7	3.8	1.49e+00	0	43	104	1211105280	69	22124
2026-01-29 00:45:16.88	228.01	8.12	-49.2	-64.7	3.8	1.49e+00	0	43	104	1211105280	69	22019
2026-01-29 00:45:19.72	227.86	7.90	-49.3	-64.6	3.8	1.49e+00	0	43	104	1211105280	69	21979
2026-01-29 00:45:22.84	227.69	7.67	-49.2	-64.6	3.8	1.49e+00	0	43	104	1211105280	69	21906
2026-01-29 00:45:25.68	227.55	7.45	-49.3	-64.5	3.8	1.49e+00	0	43	104	1211105280	69	21700
2026-01-29 00:45:28.80	227.39	7.22	-49.1	-64.4	3.8	1.49e+00	0	43	104	1211105280	69	21410
2026-01-29 00:45:31.64	227.25	7.01	-49.1	-64.4	3.8	1.49e+00	0	43	104	1211105280	69	21403
2026-01-29 00:45:34.76	227.10	6.78	-49.1	-64.4	3.8	1.49e+00	0	43	104	1211105280	69	21462
2026-01-29 00:45:37.60	226.96	6.57	-49.1	-64.4	3.8	1.49e+00	0	43	104	1211105280	69	21386
2026-01-29 00:45:40.72	226.81	6.35	-49.1	-64.4	3.8	1.49e+00	0	43	104	1211105280	69	21485
2026-01-29 00:45:43.56	226.68	6.14	-49.1	-64.4	3.8	1.49e+00	0	43	104	1211105280	69	21484
2026-01-29 00:45:46.68	226.53	5.92	-49.1	-64.4	3.8	1.49e+00	0	44	104	1211105280	69	21499
2026-01-29 00:45:49.52	226.40	5.72	-49.1	-64.4	3.8	1.49e+00	0	43	104	1211105280	69	21496
2026-01-29 00:45:52.64	226.26	5.50	-49.1	-64.4	3.8	1.49e+00	0	43	104	1211105280	69	21456
2026-01-29 00:45:55.48	226.14	5.30	-49.1	-64.4	3.8	1.49e+00	0	43	104	1211105280	69	21383
2026-01-29 00:45:58.60	226.00	5.09	-49.1	-64.4	3.8	1.49e+00	0	43	104	1211105280	69	21415

#Closed at: 2026-01-29 00:46:01
#Recorded file [1211 MB]: D:/Data/31040_260129_033339.dat