passes_logs/2026/01/29/T1/T1__20260129_124038_FENGYUN_3D_rec.log

#Pass ID: 20260129_124038_FENGYUN 3D
#Satellite: FENGYUN 3D
#Configuration: FENGYUN 3D
#almurnet v.1.7.20251203
#Start time: 2026-01-29 12:40:38

#Version: 2.0.20230620
#Station: T1
#Location: 37.570604 lon 55.790049 lat
#TLE: 1 43010U 17072A   26027.97130493  .00000326  00000+0  17586-3 0  9998
#TLE: 2 43010  98.9960 359.9900 0002514  87.8428 272.3036 14.19701925425097

#Time	Az	El	Level	Level2	SNR	BER	BlckErr	Temp	State	Recorded	gain1	gain2
2026-01-29 12:40:38.50	181.54	4.98	-49.7	-62.1	3.8	8.47e-01	0	41	0	0	70	15530
2026-01-29 12:40:42.48	181.69	5.26	-49.9	-62.1	3.8	8.47e-01	0	42	104	0	71	14618
2026-01-29 12:40:46.48	181.86	5.54	-50.0	-62.2	3.8	8.47e-01	0	42	104	0	71	14754
2026-01-29 12:40:50.47	182.02	5.83	-49.9	-62.1	3.8	8.47e-01	0	42	104	0	71	14680
2026-01-29 12:40:54.47	182.19	6.12	-49.9	-62.0	3.8	8.46e-01	0	42	104	0	71	14512
2026-01-29 12:40:58.45	182.36	6.40	-49.9	-62.0	3.8	8.46e-01	0	42	104	0	71	14493
2026-01-29 12:41:02.43	182.53	6.70	-49.6	-61.9	3.8	8.47e-01	0	42	104	0	70	15136
2026-01-29 12:41:06.42	182.71	6.99	-48.6	-61.7	3.8	8.48e-01	0	42	104	0	69	15753
2026-01-29 12:41:10.40	182.89	7.29	-47.4	-55.4	5.2	8.19e-01	0	42	0	0	66	8990
2026-01-29 12:41:14.39	183.07	7.59	-43.4	-46.4	13.7	4.23e-05	0	43	0	19922944	58	5079
2026-01-29 12:41:18.37	183.26	7.90	-40.0	-42.2	17.6	0.00e+00	0	43	0	41943040	52	4422
2026-01-29 12:41:22.37	183.45	8.21	-39.8	-42.1	17.8	0.00e+00	0	43	0	63963136	51	4600
2026-01-29 12:41:26.36	183.65	8.52	-42.3	-45.1	14.8	0.00e+00	0	43	0	87031808	55	5185
2026-01-29 12:41:30.35	183.85	8.84	-45.8	-50.6	9.4	1.46e-02	0	43	0	109051904	62	6529
2026-01-29 12:41:34.35	184.05	9.16	-44.9	-48.9	11.2	3.57e-04	0	43	0	132120576	60	6043
2026-01-29 12:41:38.34	184.26	9.49	-47.7	-57.3	4.3	8.41e-01	0	43	0	147849216	66	11211
2026-01-29 12:41:42.33	184.47	9.81	-41.8	-44.4	15.6	0.00e+00	0	43	0	169869312	55	4806
2026-01-29 12:41:46.33	184.69	10.15	-39.2	-41.4	18.6	0.00e+00	0	43	0	191889408	50	4495
2026-01-29 12:41:50.31	184.91	10.48	-38.8	-40.8	19.1	0.00e+00	0	43	0	213909504	49	4476
2026-01-29 12:41:54.31	185.14	10.83	-38.8	-40.8	19.1	0.00e+00	0	43	0	236978176	49	4479
2026-01-29 12:41:58.30	185.37	11.17	-38.8	-40.8	19.1	0.00e+00	0	44	0	258998272	49	4460
2026-01-29 12:42:02.29	185.61	11.52	-38.6	-40.6	18.1	0.00e+00	0	43	0	282066944	49	4388
2026-01-29 12:42:06.28	185.85	11.88	-38.5	-40.5	19.4	0.00e+00	0	43	0	304087040	49	4327
2026-01-29 12:42:10.28	186.10	12.24	-38.4	-40.3	19.6	0.00e+00	0	44	0	326107136	48	4482
2026-01-29 12:42:14.27	186.35	12.60	-38.3	-40.2	19.7	0.00e+00	0	44	0	349175808	48	4436
2026-01-29 12:42:18.27	186.61	12.97	-38.4	-40.4	19.5	0.00e+00	0	44	0	371195904	48	4523
2026-01-29 12:42:22.26	186.88	13.35	-38.3	-40.2	19.7	0.00e+00	0	44	0	394264576	48	4424
2026-01-29 12:42:26.25	187.15	13.73	-38.2	-40.1	19.8	0.00e+00	0	43	0	416284672	48	4391
2026-01-29 12:42:30.24	187.43	14.11	-38.0	-39.9	20.0	0.00e+00	0	44	0	439353344	48	4279
2026-01-29 12:42:34.24	187.72	14.51	-37.7	-39.7	20.0	0.00e+00	0	44	0	461373440	47	4393
2026-01-29 12:42:38.24	188.02	14.90	-37.7	-39.6	20.0	0.00e+00	0	44	0	483393536	47	4380
2026-01-29 12:42:42.23	188.32	15.31	-37.5	-39.5	20.1	0.00e+00	0	44	0	506462208	47	4317
2026-01-29 12:42:46.22	188.63	15.72	-37.3	-39.3	20.4	0.00e+00	0	43	0	528482304	46	4449
2026-01-29 12:42:50.21	188.95	16.13	-37.2	-39.1	20.5	0.00e+00	0	44	0	551550976	46	4385
2026-01-29 12:42:54.22	189.27	16.56	-37.3	-39.1	20.5	0.00e+00	0	44	0	573571072	46	4387
2026-01-29 12:42:58.22	189.61	16.98	-37.0	-38.9	20.7	0.00e+00	0	44	0	596639744	46	4269
2026-01-29 12:43:02.22	189.96	17.42	-36.8	-38.6	21.0	0.00e+00	0	44	0	618659840	45	4388
2026-01-29 12:43:06.22	190.31	17.86	-36.6	-38.4	21.2	0.00e+00	0	44	0	641728512	45	4271
2026-01-29 12:43:10.23	190.68	18.32	-36.5	-38.3	21.3	0.00e+00	0	44	0	663748608	44	4487
2026-01-29 12:43:14.23	191.06	18.77	-36.7	-38.6	20.9	0.00e+00	0	44	0	686817280	44	4629
2026-01-29 12:43:18.24	191.45	19.24	-36.6	-38.5	21.1	0.00e+00	0	44	0	708837376	44	4558
2026-01-29 12:43:22.24	191.85	19.71	-36.6	-38.4	21.2	0.00e+00	0	44	0	730857472	44	4526
2026-01-29 12:43:26.24	192.26	20.19	-36.4	-38.3	21.3	0.00e+00	0	44	0	753926144	44	4454
2026-01-29 12:43:30.24	192.68	20.68	-36.1	-37.9	21.6	0.00e+00	0	44	0	775946240	44	4281
2026-01-29 12:43:34.25	193.12	21.18	-35.8	-37.6	21.8	0.00e+00	0	44	0	799014912	43	4370
2026-01-29 12:43:38.25	193.57	21.68	-35.9	-37.6	21.8	0.00e+00	0	44	0	822083584	43	4384
2026-01-29 12:43:42.25	194.04	22.19	-35.9	-37.7	21.7	0.00e+00	0	44	0	844103680	43	4402
2026-01-29 12:43:46.25	194.52	22.71	-35.7	-37.4	21.9	0.00e+00	0	44	0	866123776	43	4281
2026-01-29 12:43:50.25	195.02	23.24	-35.8	-37.5	21.9	0.00e+00	0	44	0	889192448	43	4330
2026-01-29 12:43:54.25	195.53	23.78	-35.4	-37.2	22.1	0.00e+00	0	44	0	911212544	42	4398
2026-01-29 12:43:58.26	196.07	24.33	-35.3	-37.0	22.3	0.00e+00	0	44	0	934281216	42	4339
2026-01-29 12:44:02.27	196.62	24.89	-35.5	-37.2	22.1	0.00e+00	0	44	0	956301312	42	4420
2026-01-29 12:44:06.27	197.19	25.46	-35.5	-37.2	22.1	0.00e+00	0	44	0	979369984	42	4435
2026-01-29 12:44:10.27	197.78	26.03	-35.4	-37.2	22.1	0.00e+00	0	44	0	1001390080	42	4399
2026-01-29 12:44:14.27	198.39	26.62	-35.1	-36.9	22.3	0.00e+00	0	44	0	1024458752	42	4254
2026-01-29 12:44:18.27	199.02	27.21	-35.2	-37.0	22.3	0.00e+00	0	44	0	1046478848	42	4297
2026-01-29 12:44:22.27	199.68	27.82	-35.0	-36.8	22.4	0.00e+00	0	44	0	1069547520	42	4204
2026-01-29 12:44:26.27	200.36	28.43	-34.9	-36.7	22.5	0.00e+00	0	44	0	1091567616	41	4400
2026-01-29 12:44:30.27	201.07	29.05	-35.2	-36.9	22.3	0.00e+00	0	44	0	1114636288	41	4531
2026-01-29 12:44:34.28	201.81	29.68	-35.1	-36.9	22.3	0.00e+00	0	44	0	1136656384	41	4502
2026-01-29 12:44:38.50	202.62	30.36	-34.9	-36.7	22.6	0.00e+00	0	44	0	1160773632	41	4395
2026-01-29 12:44:42.50	203.42	31.01	-34.9	-36.7	22.6	0.00e+00	0	44	0	1182793728	41	4392
2026-01-29 12:44:46.51	204.25	31.67	-35.0	-36.8	22.5	0.00e+00	0	44	0	1205862400	41	4450
2026-01-29 12:44:50.51	205.11	32.34	-34.9	-36.6	22.6	0.00e+00	0	44	0	1227882496	41	4368
2026-01-29 12:44:54.51	206.01	33.01	-34.8	-36.5	22.7	0.00e+00	0	44	0	1250951168	41	4308
2026-01-29 12:44:58.51	206.95	33.69	-35.1	-36.8	22.4	0.00e+00	0	44	0	1272971264	41	4490
2026-01-29 12:45:02.51	207.93	34.38	-34.6	-36.3	22.9	0.00e+00	0	44	0	1296039936	41	4212
2026-01-29 12:45:06.52	208.95	35.08	-34.6	-36.3	22.9	0.00e+00	0	44	0	1318060032	40	4452
2026-01-29 12:45:10.51	210.01	35.77	-34.7	-36.4	22.8	0.00e+00	0	44	0	1340080128	40	4534
2026-01-29 12:45:14.51	211.11	36.48	-34.6	-36.4	22.8	0.00e+00	0	44	0	1363148800	40	4501
2026-01-29 12:45:18.52	212.27	37.19	-34.2	-35.9	23.2	0.00e+00	0	44	0	1385168896	40	4265
2026-01-29 12:45:22.52	213.48	37.89	-34.3	-36.0	23.2	0.00e+00	0	44	0	1408237568	40	4309
2026-01-29 12:45:26.53	214.74	38.60	-34.4	-36.1	23.1	0.00e+00	0	44	0	1430257664	40	4349
2026-01-29 12:45:30.53	216.05	39.31	-34.6	-36.3	23.0	0.00e+00	0	44	0	1453326336	40	4462
2026-01-29 12:45:34.53	217.42	40.02	-34.7	-36.4	22.9	0.00e+00	0	44	0	1475346432	40	4511
2026-01-29 12:45:38.54	218.86	40.72	-34.8	-36.5	22.7	0.00e+00	0	44	0	1498415104	40	4589
2026-01-29 12:45:42.54	220.35	41.41	-34.5	-36.2	23.0	0.00e+00	0	44	0	1520435200	40	4403
2026-01-29 12:45:46.55	221.91	42.09	-34.9	-36.6	22.7	0.00e+00	0	44	0	1543503872	40	4612
2026-01-29 12:45:50.55	223.54	42.77	-34.8	-36.5	22.7	0.00e+00	0	44	0	1565523968	40	4570
2026-01-29 12:45:54.56	225.23	43.42	-34.6	-36.3	22.9	0.00e+00	0	44	0	1588592640	40	4463
2026-01-29 12:45:58.56	226.99	44.06	-34.8	-36.5	22.8	0.00e+00	0	44	0	1610612736	40	4561
2026-01-29 12:46:02.56	228.82	44.68	-34.9	-36.7	22.7	0.00e+00	0	44	0	1633681408	40	4666
2026-01-29 12:46:06.55	230.72	45.28	-34.8	-36.5	22.7	0.00e+00	0	44	0	1655701504	40	4598
2026-01-29 12:46:10.56	232.69	45.85	-35.1	-36.9	22.5	0.00e+00	0	44	0	1678770176	40	4770
2026-01-29 12:46:14.57	234.74	46.39	-35.0	-36.7	22.7	0.00e+00	0	44	0	1700790272	40	4682
2026-01-29 12:46:18.57	236.85	46.89	-34.7	-36.4	22.9	0.00e+00	0	44	0	1722810368	40	4544
2026-01-29 12:46:22.58	239.03	47.36	-35.1	-36.8	22.6	0.00e+00	0	44	0	1745879040	40	4732
2026-01-29 12:46:26.59	241.27	47.79	-34.9	-36.6	22.8	0.00e+00	0	44	0	1767899136	40	4620
2026-01-29 12:46:30.59	243.56	48.17	-34.8	-36.6	22.8	0.00e+00	0	44	0	1790967808	40	4599
2026-01-29 12:46:34.60	245.92	48.51	-35.0	-36.7	22.7	0.00e+00	0	44	0	1812987904	40	4676
2026-01-29 12:46:38.62	248.33	48.80	-34.9	-36.7	22.7	0.00e+00	0	44	0	1836056576	40	4655
2026-01-29 12:46:42.63	250.77	49.03	-34.9	-36.6	22.7	0.00e+00	0	44	0	1858076672	40	4621
2026-01-29 12:46:46.64	253.25	49.21	-34.8	-36.5	22.9	0.00e+00	0	44	0	1881145344	40	4563
2026-01-29 12:46:50.64	255.74	49.33	-34.9	-36.7	22.7	0.00e+00	0	44	0	1903165440	40	4652
2026-01-29 12:46:54.64	258.25	49.40	-35.0	-36.7	22.7	0.00e+00	0	44	0	1926234112	40	4658
2026-01-29 12:46:58.65	260.77	49.41	-35.3	-37.0	22.4	0.00e+00	0	44	0	1948254208	41	4570
2026-01-29 12:47:02.65	263.28	49.36	-35.0	-36.8	22.6	0.00e+00	0	44	0	1971322880	41	4452
2026-01-29 12:47:06.65	265.78	49.25	-35.3	-37.1	22.4	0.00e+00	0	44	0	1994391552	42	4345
2026-01-29 12:47:10.66	268.26	49.09	-35.0	-36.8	22.6	0.00e+00	0	44	0	2016411648	42	4205
2026-01-29 12:47:14.67	270.71	48.87	-35.0	-36.7	22.6	0.00e+00	0	44	0	2038431744	41	4418
2026-01-29 12:47:18.67	273.12	48.60	-35.3	-37.1	22.3	0.00e+00	0	44	0	2061500416	41	4627
2026-01-29 12:47:22.67	275.48	48.28	-34.6	-36.3	23.0	0.00e+00	0	44	0	2083520512	41	4222
2026-01-29 12:47:26.68	277.79	47.91	-34.8	-36.6	22.8	0.00e+00	0	44	0	2106589184	41	4345
2026-01-29 12:47:30.68	280.04	47.50	-35.2	-36.9	22.4	0.00e+00	0	44	0	2128609280	41	4541
2026-01-29 12:47:34.69	282.24	47.04	-34.8	-36.5	22.8	0.00e+00	0	44	0	2151677952	41	4328
2026-01-29 12:47:38.69	284.36	46.55	-34.5	-36.1	23.6	0.00e+00	0	44	0	2173698048	41	4107
2026-01-29 12:47:42.69	286.42	46.02	-35.2	-36.9	22.9	0.00e+00	0	44	0	2196766720	41	4503
2026-01-29 12:47:46.68	288.40	45.47	-35.2	-36.8	23.0	0.00e+00	0	44	0	2218786816	41	4491
2026-01-29 12:47:50.68	290.32	44.88	-35.0	-36.6	23.2	0.00e+00	0	44	0	2241855488	41	4376
2026-01-29 12:47:54.69	292.17	44.27	-34.9	-36.5	23.3	0.00e+00	0	44	0	2263875584	41	4325
2026-01-29 12:47:58.69	293.95	43.64	-35.1	-36.7	23.1	0.00e+00	0	44	0	2285895680	41	4434
2026-01-29 12:48:02.69	295.66	42.99	-34.9	-36.5	23.3	0.00e+00	0	44	0	2308964352	41	4339
2026-01-29 12:48:06.69	297.30	42.32	-34.6	-36.3	23.5	0.00e+00	0	44	0	2330984448	41	4203
2026-01-29 12:48:10.70	298.87	41.65	-34.9	-36.6	23.2	0.00e+00	0	44	0	2354053120	41	4352
2026-01-29 12:48:14.70	300.38	40.96	-34.5	-36.1	23.6	0.00e+00	0	44	0	2377121792	41	4143
2026-01-29 12:48:18.70	301.83	40.26	-34.5	-36.1	23.6	0.00e+00	0	44	0	2399141888	40	4386
2026-01-29 12:48:22.71	303.22	39.56	-34.4	-36.0	23.7	0.00e+00	0	44	0	2421161984	40	4334
2026-01-29 12:48:26.71	304.55	38.86	-34.3	-35.9	23.8	0.00e+00	0	44	0	2444230656	40	4267
2026-01-29 12:48:30.71	305.82	38.16	-34.4	-36.1	23.7	0.00e+00	0	44	0	2466250752	40	4352
2026-01-29 12:48:34.71	307.04	37.45	-34.4	-36.1	23.7	0.00e+00	0	44	0	2489319424	40	4351
2026-01-29 12:48:38.71	308.21	36.75	-34.7	-36.4	23.4	0.00e+00	0	44	0	2511339520	40	4500
2026-01-29 12:48:42.71	309.33	36.05	-34.4	-36.1	23.6	0.00e+00	0	44	0	2534408192	40	4352
2026-01-29 12:48:46.71	310.40	35.35	-34.7	-36.3	23.4	0.00e+00	0	44	0	2556428288	40	4493
2026-01-29 12:48:50.70	311.43	34.66	-34.6	-36.3	23.5	0.00e+00	0	44	0	2579496960	40	4445
2026-01-29 12:48:54.74	312.42	33.97	-34.6	-36.3	23.4	0.00e+00	0	44	0	2601517056	40	4462
2026-01-29 12:48:58.74	313.37	33.29	-34.5	-36.1	23.6	0.00e+00	0	44	0	2624585728	40	4384
2026-01-29 12:49:02.84	314.30	32.60	-34.8	-36.5	23.2	0.00e+00	0	44	0	2647654400	40	4555
2026-01-29 12:49:06.84	315.18	31.94	-35.0	-36.6	23.2	0.00e+00	0	44	0	2669674496	40	4628
2026-01-29 12:49:10.84	316.01	31.28	-34.8	-36.5	23.3	0.00e+00	0	44	0	2692743168	40	4563
2026-01-29 12:49:14.84	316.82	30.63	-34.8	-36.5	23.2	0.00e+00	0	44	0	2714763264	40	4584
2026-01-29 12:49:18.85	317.60	29.99	-34.6	-36.3	23.5	0.00e+00	0	44	0	2737831936	40	4450
2026-01-29 12:49:22.85	318.34	29.36	-35.0	-36.6	23.1	0.00e+00	0	44	0	2759852032	40	4647
2026-01-29 12:49:26.85	319.06	28.74	-35.3	-37.0	22.8	0.00e+00	0	44	0	2782920704	41	4569
2026-01-29 12:49:30.85	319.75	28.12	-35.0	-36.7	23.1	0.00e+00	0	44	0	2804940800	41	4392
2026-01-29 12:49:34.86	320.42	27.52	-34.7	-36.4	23.3	0.00e+00	0	44	0	2828009472	41	4256
2026-01-29 12:49:38.87	321.06	26.92	-34.8	-36.4	23.3	0.00e+00	0	44	0	2850029568	41	4287
2026-01-29 12:49:42.87	321.68	26.34	-35.0	-36.7	23.1	0.00e+00	0	44	0	2872049664	41	4415
2026-01-29 12:49:46.87	322.28	25.76	-35.2	-36.9	22.9	0.00e+00	0	44	0	2895118336	41	4517
2026-01-29 12:49:50.87	322.86	25.20	-35.2	-36.9	22.9	0.00e+00	0	44	0	2917138432	41	4507
2026-01-29 12:49:54.86	323.42	24.64	-35.1	-36.8	23.0	0.00e+00	0	44	0	2940207104	41	4445
2026-01-29 12:49:58.85	323.95	24.09	-35.3	-36.9	22.8	0.00e+00	0	44	0	2962227200	41	4530
2026-01-29 12:50:02.96	324.49	23.54	-35.6	-37.3	22.5	0.00e+00	0	44	0	2985295872	41	4753
2026-01-29 12:50:06.95	324.99	23.01	-35.8	-37.5	22.3	0.00e+00	0	44	0	3008364544	42	4592
2026-01-29 12:50:11.23	325.51	22.45	-35.7	-37.4	22.4	0.00e+00	0	44	0	3032481792	42	4511
2026-01-29 12:50:15.23	325.98	21.94	-35.7	-37.5	22.4	0.00e+00	0	44	0	3054501888	42	4562
2026-01-29 12:50:19.23	326.44	21.44	-36.0	-37.7	22.2	0.00e+00	0	44	0	3076521984	42	4669
2026-01-29 12:50:23.23	326.88	20.94	-36.0	-37.7	22.1	0.00e+00	0	44	0	3099590656	42	4685
2026-01-29 12:50:27.23	327.31	20.46	-36.0	-37.7	22.1	0.00e+00	0	44	0	3121610752	42	4657
2026-01-29 12:50:31.23	327.73	19.98	-36.2	-37.9	21.9	0.00e+00	0	44	0	3144679424	42	4783
2026-01-29 12:50:35.22	328.13	19.51	-36.3	-38.0	21.8	0.00e+00	0	44	0	3166699520	43	4598
2026-01-29 12:50:39.21	328.53	19.04	-36.7	-38.5	21.4	0.00e+00	0	44	0	3189768192	43	4817
2026-01-29 12:50:43.21	328.91	18.59	-36.9	-38.7	21.3	0.00e+00	0	44	0	3211788288	44	4679
2026-01-29 12:50:47.20	329.28	18.14	-36.9	-38.7	21.3	0.00e+00	0	44	0	3234856960	44	4675
2026-01-29 12:50:51.20	329.64	17.69	-36.9	-38.6	21.4	0.00e+00	0	44	0	3256877056	44	4646
2026-01-29 12:50:55.19	329.99	17.26	-36.9	-38.6	21.4	0.00e+00	0	44	0	3279945728	44	4643
2026-01-29 12:50:59.20	330.33	16.83	-37.1	-38.8	21.2	0.00e+00	0	44	0	3301965824	44	4736
2026-01-29 12:51:03.20	330.66	16.41	-37.4	-39.2	20.9	0.00e+00	0	44	0	3323985920	45	4655
2026-01-29 12:51:07.19	330.99	15.99	-37.6	-39.5	20.6	0.00e+00	0	44	0	3347054592	45	4817
2026-01-29 12:51:11.18	331.30	15.58	-37.7	-39.5	20.6	0.00e+00	0	44	0	3369074688	46	4557
2026-01-29 12:51:15.18	331.61	15.18	-37.7	-39.5	20.5	0.00e+00	0	44	0	3392143360	46	4555
2026-01-29 12:51:19.18	331.91	14.78	-37.8	-39.6	20.4	0.00e+00	0	44	0	3414163456	46	4618
2026-01-29 12:51:23.17	332.20	14.39	-38.0	-39.8	20.2	0.00e+00	0	44	0	3436183552	46	4730
2026-01-29 12:51:27.17	332.49	14.00	-38.0	-39.9	20.2	0.00e+00	0	44	0	3459252224	47	4497
2026-01-29 12:51:31.16	332.76	13.62	-38.2	-40.0	19.9	0.00e+00	0	44	0	3481272320	47	4597
2026-01-29 12:51:35.15	333.04	13.25	-38.3	-40.1	19.9	0.00e+00	0	44	0	3504340992	47	4630
2026-01-29 12:51:39.15	333.30	12.88	-38.3	-40.2	19.8	0.00e+00	0	44	0	3526361088	47	4677
2026-01-29 12:51:43.14	333.56	12.52	-38.6	-40.5	19.5	0.00e+00	0	44	0	3549429760	47	4838
2026-01-29 12:51:47.17	333.82	12.15	-38.4	-40.2	19.8	0.00e+00	0	44	0	3571449856	47	4680
2026-01-29 12:51:51.16	334.06	11.80	-38.5	-40.4	19.6	0.00e+00	0	44	0	3594518528	47	4773
2026-01-29 12:51:55.15	334.30	11.45	-38.8	-40.7	19.5	0.00e+00	0	44	0	3616538624	48	4670
2026-01-29 12:51:59.15	334.54	11.10	-38.9	-40.8	19.4	0.00e+00	0	44	0	3639607296	48	4728
2026-01-29 12:52:03.14	334.77	10.76	-39.1	-41.0	19.2	0.00e+00	0	44	0	3661627392	48	4857
2026-01-29 12:52:07.14	335.00	10.42	-39.0	-40.9	19.2	0.00e+00	0	44	0	3683647488	48	4812
2026-01-29 12:52:11.14	335.22	10.09	-39.0	-41.0	19.1	0.00e+00	0	44	0	3706716160	48	4835
2026-01-29 12:52:15.14	335.44	9.76	-38.9	-40.9	19.2	0.00e+00	0	44	0	3728736256	48	4791
2026-01-29 12:52:19.14	335.65	9.44	-38.8	-40.9	19.2	0.00e+00	0	44	0	3751804928	48	4776
2026-01-29 12:52:23.14	335.86	9.12	-38.9	-41.0	19.1	0.00e+00	0	44	0	3773825024	48	4818
2026-01-29 12:52:27.13	336.07	8.80	-48.5	-61.4	3.8	8.47e-01	0	44	104	3785359360	68	15966
2026-01-29 12:52:31.13	336.27	8.49	-48.8	-61.3	3.8	8.47e-01	0	45	104	3785359360	68	15762
2026-01-29 12:52:35.12	336.47	8.18	-49.0	-61.3	3.8	8.46e-01	0	44	104	3785359360	68	15783
2026-01-29 12:52:39.13	336.66	7.87	-49.2	-61.4	3.8	8.48e-01	0	45	104	3785359360	69	15146
2026-01-29 12:52:43.13	336.85	7.57	-49.3	-61.4	3.8	8.48e-01	0	44	104	3785359360	69	15110
2026-01-29 12:52:47.13	337.04	7.27	-49.2	-61.4	3.8	8.47e-01	0	44	104	3785359360	69	15159
2026-01-29 12:52:51.13	337.22	6.97	-49.2	-61.4	3.8	8.47e-01	0	44	104	3785359360	69	15081
2026-01-29 12:52:55.14	337.40	6.68	-49.2	-61.3	3.8	8.48e-01	0	44	104	3785359360	69	15048
2026-01-29 12:52:59.14	337.57	6.39	-49.2	-61.3	3.8	8.46e-01	0	44	104	3785359360	69	15032
2026-01-29 12:53:03.14	337.75	6.10	-49.2	-61.4	3.8	8.47e-01	0	44	104	3785359360	69	15114
2026-01-29 12:53:07.14	337.92	5.82	-49.2	-61.3	3.8	8.48e-01	0	44	104	3785359360	69	15044
2026-01-29 12:53:11.14	338.08	5.54	-49.2	-61.4	3.8	8.47e-01	0	44	104	3785359360	69	15135
2026-01-29 12:53:15.14	338.25	5.26	-49.2	-61.4	3.8	8.46e-01	0	44	104	3785359360	69	15108
2026-01-29 12:53:19.14	338.41	4.98	-49.2	-61.4	3.8	8.46e-01	0	44	104	3785359360	69	15075

#Closed at: 2026-01-29 12:53:19
#Recorded file [3785 MB]: D:/Data/31040_260129_154038.dat