passes_logs/2025/01/16/X_MFTI_01/X_MFTI_01__20250116_100815_NOAA_20_rec.log

#Pass ID: 20250116_100815_NOAA 20
#Satellite: NOAA 20
#Configuration: NOAA 20
#Start time: 2025-01-16 10:08:09

#Version: 1.5.20200625
#Station: X_MFTI_01
#Location: 37.5186 lon 55.9291 lat
#TLE: 1 43013U 17073A   23362.44808611  .00000160  00000+0  96626-4 0  9996
#TLE: 2 43013  98.7331 297.9536 0000783  57.5916 302.5335 14.19555620316533

#Time	Az	El	Level	Level2	SNR	BER	Gain	Gain2
2025-01-16 10:08:12.00	179.64	68.86	
2025-01-16 10:08:12.20	179.72	68.95	
2025-01-16 10:08:12.41	179.80	69.04	
2025-01-16 10:08:12.61	179.88	69.13	
2025-01-16 10:08:12.81	179.96	69.22	
2025-01-16 10:08:13.02	180.05	69.31	
2025-01-16 10:08:13.23	180.13	69.41	
2025-01-16 10:08:13.43	180.22	69.49	
2025-01-16 10:08:13.63	180.30	69.58	
2025-01-16 10:08:13.84	180.39	69.68	
2025-01-16 10:08:14.04	180.47	69.76	
2025-01-16 10:08:14.25	180.56	69.86	
2025-01-16 10:08:14.45	180.65	69.95	
2025-01-16 10:08:14.66	180.74	70.04	
2025-01-16 10:08:14.86	180.83	70.13	
2025-01-16 10:08:15.06	180.91	70.22	
2025-01-16 10:08:15.26	181.00	70.31	
2025-01-16 10:08:15.47	181.10	70.40	
2025-01-16 10:08:15.68	181.19	70.49	
2025-01-16 10:08:15.90	181.30	70.59	
2025-01-16 10:08:16.10	181.39	70.68	
2025-01-16 10:08:16.31	181.49	70.78	
2025-01-16 10:08:16.51	181.58	70.86	
2025-01-16 10:08:16.72	181.68	70.96	
2025-01-16 10:08:16.92	181.78	71.05	
2025-01-16 10:08:17.12	181.88	71.14	
2025-01-16 10:08:17.33	181.98	71.23	
2025-01-16 10:08:17.54	182.09	71.32	
2025-01-16 10:08:17.74	182.19	71.41	
2025-01-16 10:08:17.94	182.29	71.50	
2025-01-16 10:08:18.15	182.40	71.60	
2025-01-16 10:08:18.35	182.50	71.69	
2025-01-16 10:08:18.55	182.61	71.78	
2025-01-16 10:08:18.76	182.72	71.87	
2025-01-16 10:08:18.96	182.83	71.96	
2025-01-16 10:08:19.16	182.94	72.05	
2025-01-16 10:08:19.36	183.05	72.14	
2025-01-16 10:08:19.57	183.16	72.23	
2025-01-16 10:08:19.77	183.28	72.32	
2025-01-16 10:08:19.97	183.39	72.41	
2025-01-16 10:08:20.18	183.51	72.51	
2025-01-16 10:08:20.39	183.63	72.60	
2025-01-16 10:08:20.61	183.76	72.70	
2025-01-16 10:08:20.82	183.89	72.79	
2025-01-16 10:08:21.03	184.01	72.89	
2025-01-16 10:08:21.23	184.13	72.98	
2025-01-16 10:08:21.43	184.26	73.07	
2025-01-16 10:08:21.63	184.38	73.15	
2025-01-16 10:08:21.84	184.51	73.25	
2025-01-16 10:08:22.04	184.64	73.34	
2025-01-16 10:08:22.24	184.77	73.43	
2025-01-16 10:08:22.44	184.90	73.52	
2025-01-16 10:08:22.65	185.04	73.61	
2025-01-16 10:08:22.85	185.17	73.70	
2025-01-16 10:08:23.05	185.30	73.79	
2025-01-16 10:08:23.26	185.45	73.88	
2025-01-16 10:08:23.46	185.58	73.97	
2025-01-16 10:08:23.66	185.72	74.06	
2025-01-16 10:08:23.86	185.86	74.15	
2025-01-16 10:08:24.07	186.01	74.25	
2025-01-16 10:08:24.27	186.16	74.34	
2025-01-16 10:08:24.48	186.31	74.43	
2025-01-16 10:08:24.69	186.47	74.52	
2025-01-16 10:08:24.90	186.63	74.62	
2025-01-16 10:08:25.10	186.78	74.71	
2025-01-16 10:08:25.31	186.94	74.80	
2025-01-16 10:08:25.52	187.10	74.89	
2025-01-16 10:08:25.73	187.27	74.99	
2025-01-16 10:08:25.94	187.43	75.08	
2025-01-16 10:08:26.14	187.60	75.17	
2025-01-16 10:08:26.35	187.77	75.26	
2025-01-16 10:08:26.55	187.93	75.35	
2025-01-16 10:08:26.76	188.11	75.44	
2025-01-16 10:08:26.96	188.28	75.53	
2025-01-16 10:08:27.17	188.46	75.63	
2025-01-16 10:08:27.37	188.64	75.71	
2025-01-16 10:08:27.57	188.81	75.80	
2025-01-16 10:08:27.78	189.00	75.90	
2025-01-16 10:08:27.99	189.19	75.99	
2025-01-16 10:08:28.19	189.38	76.08	
2025-01-16 10:08:28.40	189.57	76.17	
2025-01-16 10:08:28.60	189.76	76.26	
2025-01-16 10:08:28.81	189.96	76.35	
2025-01-16 10:08:29.01	190.16	76.44	
2025-01-16 10:08:29.22	190.36	76.53	
2025-01-16 10:08:29.42	190.56	76.62	
2025-01-16 10:08:29.62	190.77	76.71	
2025-01-16 10:08:29.83	190.98	76.80	
2025-01-16 10:08:30.03	191.19	76.88	
2025-01-16 10:08:30.24	191.41	76.98	
2025-01-16 10:08:30.44	191.62	77.06	
2025-01-16 10:08:30.64	191.84	77.15	
2025-01-16 10:08:30.84	192.06	77.24	
2025-01-16 10:08:31.05	192.30	77.33	
2025-01-16 10:08:31.25	192.52	77.41	
2025-01-16 10:08:31.45	192.75	77.50	
2025-01-16 10:08:31.65	192.98	77.59	
2025-01-16 10:08:31.86	193.23	77.68	
2025-01-16 10:08:32.06	193.47	77.76	
2025-01-16 10:08:32.26	193.72	77.85	
2025-01-16 10:08:32.46	193.96	77.94	
2025-01-16 10:08:32.67	194.22	78.02	
2025-01-16 10:08:32.87	194.48	78.11	
2025-01-16 10:08:33.08	194.75	78.20	
2025-01-16 10:08:33.29	195.02	78.29	
2025-01-16 10:08:33.50	195.30	78.38	
2025-01-16 10:08:33.71	195.59	78.47	
2025-01-16 10:08:33.91	195.86	78.55	
2025-01-16 10:08:34.11	196.14	78.63	
2025-01-16 10:08:34.32	196.44	78.72	
2025-01-16 10:08:34.53	196.74	78.81	
2025-01-16 10:08:34.73	197.03	78.89	
2025-01-16 10:08:34.94	197.34	78.98	
2025-01-16 10:08:35.14	197.64	79.06	
2025-01-16 10:08:35.34	197.95	79.15	
2025-01-16 10:08:35.56	198.29	79.24	
2025-01-16 10:08:35.76	198.61	79.32	
2025-01-16 10:08:35.97	198.95	79.40	
2025-01-16 10:08:36.18	199.29	79.49	
2025-01-16 10:08:36.39	199.64	79.57	
2025-01-16 10:08:36.61	200.01	79.66	
2025-01-16 10:08:36.81	200.35	79.74	
2025-01-16 10:08:37.01	200.70	79.82	
2025-01-16 10:08:37.22	201.07	79.91	
2025-01-16 10:08:37.42	201.43	79.99	
2025-01-16 10:08:37.62	201.80	80.06	
2025-01-16 10:08:37.82	202.17	80.14	
2025-01-16 10:08:38.04	202.59	80.23	
2025-01-16 10:08:38.24	202.97	80.31	
2025-01-16 10:08:38.46	203.40	80.39	
2025-01-16 10:08:38.66	203.80	80.47	
2025-01-16 10:08:38.87	204.22	80.55	
2025-01-16 10:08:39.08	204.66	80.63	
2025-01-16 10:08:39.28	205.08	80.70	
2025-01-16 10:08:39.48	205.50	80.78	
2025-01-16 10:08:39.68	205.93	80.85	
2025-01-16 10:08:39.89	206.40	80.93	
2025-01-16 10:08:40.10	206.87	81.01	
2025-01-16 10:08:40.30	207.32	81.08	
2025-01-16 10:08:40.51	207.81	81.16	
2025-01-16 10:08:40.71	208.28	81.23	
2025-01-16 10:08:40.92	208.78	81.30	
2025-01-16 10:08:41.12	209.27	81.37	
2025-01-16 10:08:41.32	209.76	81.44	
2025-01-16 10:08:41.53	210.29	81.52	
2025-01-16 10:08:41.74	210.83	81.59	
2025-01-16 10:08:41.95	211.38	81.66	
2025-01-16 10:08:42.16	211.94	81.73	
2025-01-16 10:08:42.37	212.50	81.80	
2025-01-16 10:08:42.57	213.05	81.87	
2025-01-16 10:08:42.78	213.64	81.94	
2025-01-16 10:08:42.98	214.21	82.00	
2025-01-16 10:08:43.18	214.78	82.06	
2025-01-16 10:08:43.39	215.40	82.13	
2025-01-16 10:08:43.60	216.02	82.19	
2025-01-16 10:08:43.81	216.66	82.26	
2025-01-16 10:08:44.01	217.28	82.32	
2025-01-16 10:08:44.21	217.90	82.38	
2025-01-16 10:08:44.41	218.54	82.44	
2025-01-16 10:08:44.63	219.25	82.50	
2025-01-16 10:08:44.84	219.94	82.56	
2025-01-16 10:08:45.04	220.60	82.61	
2025-01-16 10:08:45.25	221.32	82.67	
2025-01-16 10:08:45.45	222.00	82.72	
2025-01-16 10:08:45.66	222.74	82.78	
2025-01-16 10:08:45.86	223.44	82.83	
2025-01-16 10:08:46.07	224.20	82.88	
2025-01-16 10:08:46.27	224.93	82.93	
2025-01-16 10:08:46.48	225.70	82.98	
2025-01-16 10:08:46.70	226.53	83.03	
2025-01-16 10:08:46.90	227.29	83.08	
2025-01-16 10:08:47.10	228.06	83.12	
2025-01-16 10:08:47.31	228.88	83.17	
2025-01-16 10:08:47.52	229.71	83.21	
2025-01-16 10:08:47.73	230.55	83.25	
2025-01-16 10:08:47.93	231.36	83.29	
2025-01-16 10:08:48.14	232.23	83.33	
2025-01-16 10:08:48.34	233.06	83.37	
2025-01-16 10:08:48.55	233.94	83.40	
2025-01-16 10:08:48.75	234.78	83.44	
2025-01-16 10:08:48.97	235.73	83.47	
2025-01-16 10:08:49.18	236.64	83.50	
2025-01-16 10:08:49.38	237.51	83.53	
2025-01-16 10:08:49.59	238.44	83.56	
2025-01-16 10:08:49.80	239.37	83.59	
2025-01-16 10:08:50.01	240.31	83.61	
2025-01-16 10:08:50.21	241.21	83.63	
2025-01-16 10:08:50.41	242.12	83.65	
2025-01-16 10:08:50.62	243.08	83.67	
2025-01-16 10:08:50.83	244.05	83.69	
2025-01-16 10:08:51.04	245.02	83.71	
2025-01-16 10:08:51.24	245.95	83.72	
2025-01-16 10:08:51.45	246.93	83.73	
2025-01-16 10:08:51.65	247.87	83.74	
2025-01-16 10:08:51.85	248.81	83.75	
2025-01-16 10:08:52.06	249.80	83.76	
2025-01-16 10:08:52.26	250.74	83.77	
2025-01-16 10:08:52.47	251.73	83.77	
2025-01-16 10:08:52.67	252.68	83.77	
2025-01-16 10:08:52.88	253.68	83.77	
2025-01-16 10:08:53.08	254.62	83.77	
2025-01-16 10:08:53.29	255.62	83.77	
2025-01-16 10:08:53.49	256.56	83.76	
2025-01-16 10:08:53.70	257.55	83.75	
2025-01-16 10:08:53.90	258.49	83.75	
2025-01-16 10:08:54.11	259.48	83.74	
2025-01-16 10:08:54.31	260.41	83.72	
2025-01-16 10:08:54.53	261.43	83.71	
2025-01-16 10:08:54.74	262.40	83.69	
2025-01-16 10:08:54.95	263.37	83.67	
2025-01-16 10:08:55.16	264.33	83.66	
2025-01-16 10:08:55.36	265.24	83.63	
2025-01-16 10:08:55.56	266.14	83.61	
2025-01-16 10:08:55.77	267.09	83.59	
2025-01-16 10:08:55.97	267.98	83.56	
2025-01-16 10:08:56.18	268.90	83.53	
2025-01-16 10:08:56.39	269.82	83.51	
2025-01-16 10:08:56.59	270.69	83.48	
2025-01-16 10:08:56.80	271.59	83.44	
2025-01-16 10:08:57.00	272.44	83.41	
2025-01-16 10:08:57.21	273.32	83.37	
2025-01-16 10:08:57.41	274.15	83.34	
2025-01-16 10:08:57.62	275.01	83.30	
2025-01-16 10:08:57.82	275.83	83.26	
2025-01-16 10:08:58.02	276.63	83.22	
2025-01-16 10:08:58.23	277.46	83.18	
2025-01-16 10:08:58.43	278.25	83.14	
2025-01-16 10:08:58.64	279.06	83.09	
2025-01-16 10:08:58.85	279.86	83.04	
2025-01-16 10:08:59.06	280.65	82.99	
2025-01-16 10:08:59.27	281.43	82.94	
2025-01-16 10:08:59.47	282.16	82.90	
2025-01-16 10:08:59.68	282.92	82.84	
2025-01-16 10:08:59.88	283.63	82.79	
2025-01-16 10:09:00.08	284.33	82.74	
2025-01-16 10:09:00.29	285.05	82.68	
2025-01-16 10:09:00.49	285.73	82.63	
2025-01-16 10:09:00.70	286.44	82.57	
2025-01-16 10:09:00.92	287.16	82.51	
2025-01-16 10:09:01.12	287.81	82.45	
2025-01-16 10:09:01.32	288.45	82.40	
2025-01-16 10:09:01.53	289.11	82.33	
2025-01-16 10:09:01.74	289.75	82.27	
2025-01-16 10:09:01.95	290.39	82.21	
2025-01-16 10:09:02.15	290.99	82.15	
2025-01-16 10:09:02.36	291.61	82.08	
2025-01-16 10:09:02.57	292.22	82.01	
2025-01-16 10:09:02.77	292.79	81.95	
2025-01-16 10:09:02.99	293.40	81.88	
2025-01-16 10:09:03.19	293.95	81.81	
2025-01-16 10:09:03.39	294.49	81.75	
2025-01-16 10:09:03.59	295.02	81.68	
2025-01-16 10:09:03.80	295.57	81.61	
2025-01-16 10:09:04.02	296.14	81.53	
2025-01-16 10:09:04.23	296.67	81.46	
2025-01-16 10:09:04.43	297.17	81.39	
2025-01-16 10:09:04.63	297.65	81.32	
2025-01-16 10:09:04.84	298.16	81.24	
2025-01-16 10:09:05.06	298.68	81.17	
2025-01-16 10:09:05.26	299.14	81.09	
2025-01-16 10:09:05.46	299.60	81.02	
2025-01-16 10:09:05.66	300.05	80.95	
2025-01-16 10:09:05.87	300.51	80.87	
2025-01-16 10:09:06.07	300.94	80.80	
2025-01-16 10:09:06.28	301.39	80.72	
2025-01-16 10:09:06.49	301.83	80.64	
2025-01-16 10:09:06.70	302.27	80.56	
2025-01-16 10:09:06.90	302.67	80.48	
2025-01-16 10:09:07.10	303.07	80.41	
2025-01-16 10:09:07.31	303.48	80.32	
2025-01-16 10:09:07.52	303.89	80.24	
2025-01-16 10:09:07.72	304.27	80.17	
2025-01-16 10:09:07.93	304.66	80.08	
2025-01-16 10:09:08.13	305.03	80.00	
2025-01-16 10:09:08.34	305.41	79.92	
2025-01-16 10:09:08.54	305.76	79.84	
2025-01-16 10:09:08.75	306.13	79.76	
2025-01-16 10:09:08.95	306.47	79.68	
2025-01-16 10:09:09.16	306.83	79.59	
2025-01-16 10:09:09.36	307.16	79.51	
2025-01-16 10:09:09.56	307.49	79.43	
2025-01-16 10:09:09.76	307.81	79.35	
2025-01-16 10:09:09.97	308.14	79.26	
2025-01-16 10:09:10.18	308.47	79.18	
2025-01-16 10:09:10.38	308.78	79.10	
2025-01-16 10:09:10.58	309.08	79.01	
2025-01-16 10:09:10.79	309.39	78.93	
2025-01-16 10:09:11.00	309.70	78.84	
2025-01-16 10:09:11.21	310.00	78.75	
2025-01-16 10:09:11.41	310.29	78.67	
2025-01-16 10:09:11.62	310.58	78.58	
2025-01-16 10:09:11.82	310.86	78.50	
2025-01-16 10:09:12.03	311.14	78.41	
2025-01-16 10:09:12.23	311.41	78.32	
2025-01-16 10:09:12.43	311.67	78.24	
2025-01-16 10:09:12.64	311.95	78.15	
2025-01-16 10:09:12.85	312.21	78.06	
2025-01-16 10:09:13.05	312.47	77.97	
2025-01-16 10:09:13.26	312.73	77.89	
2025-01-16 10:09:13.46	312.97	77.80	
2025-01-16 10:09:13.67	313.22	77.71	
2025-01-16 10:09:13.88	313.47	77.62	
2025-01-16 10:09:14.08	313.71	77.53	
2025-01-16 10:09:14.29	313.95	77.44	
2025-01-16 10:09:14.50	314.19	77.35	
2025-01-16 10:09:14.71	314.42	77.26	
2025-01-16 10:09:14.92	314.65	77.17	
2025-01-16 10:09:15.13	314.88	77.08	
2025-01-16 10:09:15.35	315.12	76.98	
2025-01-16 10:09:15.56	315.34	76.89	
2025-01-16 10:09:15.77	315.56	76.80	
2025-01-16 10:09:15.98	315.77	76.71	
2025-01-16 10:09:16.19	315.98	76.62	
2025-01-16 10:09:16.39	316.18	76.53	
2025-01-16 10:09:16.59	316.38	76.44	
2025-01-16 10:09:16.80	316.58	76.35	
2025-01-16 10:09:17.00	316.78	76.26	
2025-01-16 10:09:17.21	316.97	76.17	
2025-01-16 10:09:17.41	317.16	76.08	
2025-01-16 10:09:17.61	317.34	75.99	
2025-01-16 10:09:17.82	317.53	75.90	
2025-01-16 10:09:18.03	317.72	75.81	
2025-01-16 10:09:18.23	317.90	75.72	
2025-01-16 10:09:18.44	318.08	75.63	
2025-01-16 10:09:18.65	318.26	75.53	
2025-01-16 10:09:18.86	318.44	75.44	
2025-01-16 10:09:19.06	318.61	75.35	
2025-01-16 10:09:19.27	318.78	75.26	
2025-01-16 10:09:19.49	318.96	75.16	
2025-01-16 10:09:19.70	319.13	75.07	
2025-01-16 10:09:19.90	319.29	74.98	
2025-01-16 10:09:20.12	319.46	74.88	
2025-01-16 10:09:20.32	319.62	74.79	
2025-01-16 10:09:20.52	319.77	74.70	
2025-01-16 10:09:20.73	319.93	74.61	
2025-01-16 10:09:20.93	320.08	74.52	
2025-01-16 10:09:21.13	320.23	74.43	
2025-01-16 10:09:21.34	320.38	74.34	
2025-01-16 10:09:21.54	320.53	74.25	
2025-01-16 10:09:21.75	320.67	74.16	
2025-01-16 10:09:21.95	320.82	74.07	
2025-01-16 10:09:22.15	320.95	73.98	
2025-01-16 10:09:22.36	321.10	73.88	
2025-01-16 10:09:22.56	321.24	73.79	
2025-01-16 10:09:22.76	321.37	73.70	
2025-01-16 10:09:22.97	321.51	73.61	
2025-01-16 10:09:23.17	321.64	73.52	
2025-01-16 10:09:23.38	321.78	73.43	
2025-01-16 10:09:23.58	321.90	73.34	
2025-01-16 10:09:23.78	322.03	73.25	
2025-01-16 10:09:23.98	322.16	73.16	
2025-01-16 10:09:24.19	322.29	73.07	
2025-01-16 10:09:24.39	322.41	72.98	
2025-01-16 10:09:24.60	322.54	72.88	
2025-01-16 10:09:24.80	322.66	72.79	
2025-01-16 10:09:25.01	322.78	72.70	
2025-01-16 10:09:25.21	322.90	72.61	
2025-01-16 10:09:25.42	323.02	72.52	
2025-01-16 10:09:25.62	323.13	72.43	
2025-01-16 10:09:25.83	323.25	72.33	
2025-01-16 10:09:26.03	323.37	72.24	
2025-01-16 10:09:26.24	323.48	72.15	
2025-01-16 10:09:26.44	323.59	72.06	
2025-01-16 10:09:26.64	323.70	71.97	
2025-01-16 10:09:26.85	323.81	71.88	
2025-01-16 10:09:27.05	323.92	71.79	
2025-01-16 10:09:27.25	324.03	71.70	
2025-01-16 10:09:27.46	324.14	71.61	
2025-01-16 10:09:27.67	324.24	71.51	
2025-01-16 10:09:27.87	324.35	71.42	
2025-01-16 10:09:28.07	324.45	71.33	
2025-01-16 10:09:28.29	324.56	71.23	
2025-01-16 10:09:28.49	324.66	71.15	
2025-01-16 10:09:28.69	324.75	71.06	
2025-01-16 10:09:28.90	324.86	70.96	
2025-01-16 10:09:29.10	324.95	70.87	
2025-01-16 10:09:29.31	325.05	70.78	
2025-01-16 10:09:29.51	325.14	70.69	
2025-01-16 10:09:29.72	325.24	70.60	
2025-01-16 10:09:29.93	325.34	70.50	
2025-01-16 10:09:30.13	325.43	70.42	

#Closed at: 2025-01-16 10:09:30