passes_logs/2025/01/16/X_MFTI_01/X_MFTI_01__20250116_235852_NOAA_20_rec.log

#Pass ID: 20250116_235852_NOAA 20
#Satellite: NOAA 20
#Configuration: NOAA 20
#Start time: 2025-01-16 23:58:48

#Version: 1.5.20200625
#Station: X_MFTI_01
#Location: 37.5186 lon 55.9291 lat
#TLE: 1 43013U 17073A   23362.44808611  .00000160  00000+0  96626-4 0  9996
#TLE: 2 43013  98.7331 297.9536 0000783  57.5916 302.5335 14.19555620316533

#Time	Az	El	Level	Level2	SNR	BER	Gain	Gain2
2025-01-16 23:58:50.31	342.08	69.34	
2025-01-16 23:58:50.52	341.91	69.42	
2025-01-16 23:58:50.74	341.72	69.50	
2025-01-16 23:58:50.95	341.54	69.57	
2025-01-16 23:58:51.16	341.35	69.65	
2025-01-16 23:58:51.37	341.17	69.72	
2025-01-16 23:58:51.58	340.98	69.80	
2025-01-16 23:58:51.80	340.79	69.88	
2025-01-16 23:58:52.01	340.60	69.96	
2025-01-16 23:58:52.21	340.42	70.03	
2025-01-16 23:58:52.42	340.22	70.10	
2025-01-16 23:58:52.63	340.03	70.18	
2025-01-16 23:58:52.83	339.84	70.25	
2025-01-16 23:58:53.03	339.66	70.32	
2025-01-16 23:58:53.24	339.46	70.39	
2025-01-16 23:58:53.44	339.27	70.47	
2025-01-16 23:58:53.65	339.07	70.54	
2025-01-16 23:58:53.85	338.87	70.61	
2025-01-16 23:58:54.05	338.68	70.68	
2025-01-16 23:58:54.27	338.46	70.76	
2025-01-16 23:58:54.48	338.26	70.83	
2025-01-16 23:58:54.68	338.06	70.90	
2025-01-16 23:58:54.88	337.85	70.97	
2025-01-16 23:58:55.09	337.64	71.04	
2025-01-16 23:58:55.29	337.44	71.11	
2025-01-16 23:58:55.50	337.22	71.19	
2025-01-16 23:58:55.71	337.00	71.26	
2025-01-16 23:58:55.92	336.78	71.33	
2025-01-16 23:58:56.12	336.57	71.40	
2025-01-16 23:58:56.33	336.35	71.47	
2025-01-16 23:58:56.53	336.13	71.54	
2025-01-16 23:58:56.75	335.90	71.61	
2025-01-16 23:58:56.95	335.68	71.68	
2025-01-16 23:58:57.16	335.45	71.75	
2025-01-16 23:58:57.36	335.22	71.82	
2025-01-16 23:58:57.57	334.99	71.89	
2025-01-16 23:58:57.77	334.76	71.96	
2025-01-16 23:58:57.98	334.53	72.03	
2025-01-16 23:58:58.19	334.29	72.10	
2025-01-16 23:58:58.39	334.05	72.16	
2025-01-16 23:58:58.60	333.81	72.23	
2025-01-16 23:58:58.80	333.58	72.30	
2025-01-16 23:58:59.02	333.32	72.37	
2025-01-16 23:58:59.22	333.08	72.44	
2025-01-16 23:58:59.43	332.82	72.50	
2025-01-16 23:58:59.63	332.58	72.57	
2025-01-16 23:58:59.84	332.33	72.64	
2025-01-16 23:59:00.05	332.07	72.70	
2025-01-16 23:59:00.26	331.81	72.77	
2025-01-16 23:59:00.46	331.56	72.83	
2025-01-16 23:59:00.67	331.29	72.90	
2025-01-16 23:59:00.87	331.04	72.96	
2025-01-16 23:59:01.08	330.77	73.03	
2025-01-16 23:59:01.28	330.51	73.09	
2025-01-16 23:59:01.49	330.24	73.16	
2025-01-16 23:59:01.69	329.97	73.22	
2025-01-16 23:59:01.90	329.69	73.28	
2025-01-16 23:59:02.10	329.43	73.34	
2025-01-16 23:59:02.30	329.16	73.41	
2025-01-16 23:59:02.51	328.87	73.47	
2025-01-16 23:59:02.72	328.59	73.53	
2025-01-16 23:59:02.93	328.30	73.59	
2025-01-16 23:59:03.14	328.01	73.66	
2025-01-16 23:59:03.34	327.73	73.72	
2025-01-16 23:59:03.56	327.42	73.78	
2025-01-16 23:59:03.76	327.13	73.84	
2025-01-16 23:59:03.98	326.82	73.90	
2025-01-16 23:59:04.19	326.51	73.96	
2025-01-16 23:59:04.39	326.22	74.02	
2025-01-16 23:59:04.60	325.92	74.08	
2025-01-16 23:59:04.81	325.61	74.14	
2025-01-16 23:59:05.02	325.29	74.20	
2025-01-16 23:59:05.23	324.98	74.26	
2025-01-16 23:59:05.44	324.66	74.31	
2025-01-16 23:59:05.64	324.35	74.37	
2025-01-16 23:59:05.85	324.03	74.43	
2025-01-16 23:59:06.05	323.72	74.48	
2025-01-16 23:59:06.26	323.40	74.54	
2025-01-16 23:59:06.46	323.08	74.59	
2025-01-16 23:59:06.67	322.75	74.64	
2025-01-16 23:59:06.87	322.43	74.70	
2025-01-16 23:59:07.07	322.11	74.75	
2025-01-16 23:59:07.27	321.79	74.80	
2025-01-16 23:59:07.48	321.44	74.85	
2025-01-16 23:59:07.68	321.12	74.90	
2025-01-16 23:59:07.89	320.77	74.96	
2025-01-16 23:59:08.09	320.44	75.01	
2025-01-16 23:59:08.30	320.09	75.06	
2025-01-16 23:59:08.51	319.73	75.11	
2025-01-16 23:59:08.72	319.38	75.16	
2025-01-16 23:59:08.92	319.03	75.21	
2025-01-16 23:59:09.14	318.65	75.26	
2025-01-16 23:59:09.34	318.31	75.30	
2025-01-16 23:59:09.55	317.94	75.35	
2025-01-16 23:59:09.75	317.59	75.40	
2025-01-16 23:59:09.96	317.22	75.44	
2025-01-16 23:59:10.17	316.84	75.49	
2025-01-16 23:59:10.37	316.49	75.53	
2025-01-16 23:59:10.57	316.13	75.58	
2025-01-16 23:59:10.78	315.74	75.62	
2025-01-16 23:59:10.98	315.38	75.66	
2025-01-16 23:59:11.18	315.01	75.71	
2025-01-16 23:59:11.39	314.62	75.75	
2025-01-16 23:59:11.60	314.23	75.79	
2025-01-16 23:59:11.81	313.84	75.83	
2025-01-16 23:59:12.02	313.44	75.87	
2025-01-16 23:59:12.23	313.05	75.91	
2025-01-16 23:59:12.43	312.67	75.95	
2025-01-16 23:59:12.64	312.26	75.99	
2025-01-16 23:59:12.85	311.86	76.03	
2025-01-16 23:59:13.05	311.47	76.07	
2025-01-16 23:59:13.26	311.06	76.10	
2025-01-16 23:59:13.46	310.67	76.14	
2025-01-16 23:59:13.68	310.24	76.18	
2025-01-16 23:59:13.88	309.84	76.21	
2025-01-16 23:59:14.09	309.42	76.24	
2025-01-16 23:59:14.29	309.02	76.28	
2025-01-16 23:59:14.51	308.58	76.31	
2025-01-16 23:59:14.71	308.18	76.34	
2025-01-16 23:59:14.91	307.77	76.37	
2025-01-16 23:59:15.12	307.34	76.40	
2025-01-16 23:59:15.32	306.93	76.43	
2025-01-16 23:59:15.52	306.52	76.46	
2025-01-16 23:59:15.72	306.11	76.49	
2025-01-16 23:59:15.93	305.67	76.51	
2025-01-16 23:59:16.14	305.23	76.54	
2025-01-16 23:59:16.34	304.82	76.57	
2025-01-16 23:59:16.56	304.35	76.59	
2025-01-16 23:59:16.76	303.93	76.62	
2025-01-16 23:59:16.96	303.51	76.64	
2025-01-16 23:59:17.16	303.08	76.66	
2025-01-16 23:59:17.37	302.64	76.69	
2025-01-16 23:59:17.58	302.19	76.71	
2025-01-16 23:59:17.79	301.74	76.73	
2025-01-16 23:59:17.99	301.31	76.75	
2025-01-16 23:59:18.20	300.85	76.77	
2025-01-16 23:59:18.40	300.42	76.79	
2025-01-16 23:59:18.61	299.96	76.80	
2025-01-16 23:59:18.82	299.51	76.82	
2025-01-16 23:59:19.03	299.05	76.84	
2025-01-16 23:59:19.23	298.61	76.85	
2025-01-16 23:59:19.44	298.15	76.87	
2025-01-16 23:59:19.64	297.71	76.88	
2025-01-16 23:59:19.85	297.25	76.89	
2025-01-16 23:59:20.07	296.76	76.91	
2025-01-16 23:59:20.27	296.32	76.92	
2025-01-16 23:59:20.47	295.88	76.93	
2025-01-16 23:59:20.68	295.41	76.94	
2025-01-16 23:59:20.88	294.96	76.95	
2025-01-16 23:59:21.09	294.50	76.96	
2025-01-16 23:59:21.29	294.05	76.96	
2025-01-16 23:59:21.49	293.61	76.97	
2025-01-16 23:59:21.70	293.14	76.97	
2025-01-16 23:59:21.90	292.69	76.98	
2025-01-16 23:59:22.10	292.24	76.98	
2025-01-16 23:59:22.31	291.77	76.99	
2025-01-16 23:59:22.51	291.32	76.99	
2025-01-16 23:59:22.71	290.88	76.99	
2025-01-16 23:59:22.93	290.38	76.99	
2025-01-16 23:59:23.13	289.94	76.99	
2025-01-16 23:59:23.35	289.44	76.99	
2025-01-16 23:59:23.56	288.97	76.99	
2025-01-16 23:59:23.76	288.53	76.99	
2025-01-16 23:59:23.96	288.08	76.98	
2025-01-16 23:59:24.17	287.61	76.98	
2025-01-16 23:59:24.37	287.16	76.97	
2025-01-16 23:59:24.58	286.69	76.97	
2025-01-16 23:59:24.79	286.22	76.96	
2025-01-16 23:59:25.00	285.76	76.95	
2025-01-16 23:59:25.20	285.31	76.95	
2025-01-16 23:59:25.40	284.87	76.94	
2025-01-16 23:59:25.60	284.42	76.93	
2025-01-16 23:59:25.81	283.96	76.92	
2025-01-16 23:59:26.01	283.51	76.91	
2025-01-16 23:59:26.21	283.07	76.89	
2025-01-16 23:59:26.42	282.61	76.88	
2025-01-16 23:59:26.62	282.17	76.87	
2025-01-16 23:59:26.82	281.73	76.85	
2025-01-16 23:59:27.03	281.27	76.84	
2025-01-16 23:59:27.24	280.81	76.82	
2025-01-16 23:59:27.44	280.38	76.80	
2025-01-16 23:59:27.64	279.94	76.79	
2025-01-16 23:59:27.85	279.49	76.77	
2025-01-16 23:59:28.05	279.06	76.75	
2025-01-16 23:59:28.26	278.60	76.73	
2025-01-16 23:59:28.46	278.18	76.71	
2025-01-16 23:59:28.66	277.75	76.69	
2025-01-16 23:59:28.86	277.32	76.67	
2025-01-16 23:59:29.07	276.87	76.64	
2025-01-16 23:59:29.29	276.41	76.62	
2025-01-16 23:59:29.50	275.97	76.59	
2025-01-16 23:59:29.71	275.52	76.57	
2025-01-16 23:59:29.91	275.11	76.54	
2025-01-16 23:59:30.12	274.67	76.51	
2025-01-16 23:59:30.33	274.23	76.49	
2025-01-16 23:59:30.54	273.80	76.46	
2025-01-16 23:59:30.74	273.39	76.43	
2025-01-16 23:59:30.94	272.98	76.40	
2025-01-16 23:59:31.15	272.55	76.37	
2025-01-16 23:59:31.36	272.12	76.34	
2025-01-16 23:59:31.56	271.72	76.31	
2025-01-16 23:59:31.77	271.30	76.27	
2025-01-16 23:59:31.97	270.90	76.24	
2025-01-16 23:59:32.18	270.48	76.21	
2025-01-16 23:59:32.38	270.08	76.17	
2025-01-16 23:59:32.58	269.69	76.14	
2025-01-16 23:59:32.79	269.28	76.10	
2025-01-16 23:59:33.00	268.87	76.06	
2025-01-16 23:59:33.20	268.48	76.03	
2025-01-16 23:59:33.41	268.08	75.99	
2025-01-16 23:59:33.61	267.69	75.95	
2025-01-16 23:59:33.82	267.29	75.91	
2025-01-16 23:59:34.02	266.91	75.87	
2025-01-16 23:59:34.23	266.52	75.83	
2025-01-16 23:59:34.44	266.12	75.79	
2025-01-16 23:59:34.65	265.73	75.75	
2025-01-16 23:59:34.85	265.36	75.71	
2025-01-16 23:59:35.05	265.00	75.67	
2025-01-16 23:59:35.25	264.63	75.62	
2025-01-16 23:59:35.46	264.25	75.58	
2025-01-16 23:59:35.66	263.89	75.54	
2025-01-16 23:59:35.87	263.51	75.49	
2025-01-16 23:59:36.07	263.15	75.45	
2025-01-16 23:59:36.27	262.80	75.40	
2025-01-16 23:59:36.48	262.43	75.35	
2025-01-16 23:59:36.68	262.08	75.31	
2025-01-16 23:59:36.89	261.72	75.26	
2025-01-16 23:59:37.09	261.37	75.21	
2025-01-16 23:59:37.30	261.01	75.16	
2025-01-16 23:59:37.50	260.67	75.11	
2025-01-16 23:59:37.71	260.32	75.06	
2025-01-16 23:59:37.91	259.98	75.01	
2025-01-16 23:59:38.13	259.62	74.96	
2025-01-16 23:59:38.33	259.28	74.91	
2025-01-16 23:59:38.54	258.94	74.86	
2025-01-16 23:59:38.76	258.58	74.80	
2025-01-16 23:59:38.96	258.26	74.75	
2025-01-16 23:59:39.17	257.92	74.70	
2025-01-16 23:59:39.37	257.60	74.64	
2025-01-16 23:59:39.57	257.29	74.59	
2025-01-16 23:59:39.79	256.94	74.53	
2025-01-16 23:59:39.99	256.63	74.48	
2025-01-16 23:59:40.20	256.30	74.42	
2025-01-16 23:59:40.40	256.00	74.37	
2025-01-16 23:59:40.61	255.67	74.31	
2025-01-16 23:59:40.82	255.36	74.25	
2025-01-16 23:59:41.02	255.06	74.20	
2025-01-16 23:59:41.22	254.76	74.14	
2025-01-16 23:59:41.43	254.45	74.08	
2025-01-16 23:59:41.64	254.14	74.02	
2025-01-16 23:59:41.85	253.83	73.96	
2025-01-16 23:59:42.05	253.54	73.90	
2025-01-16 23:59:42.26	253.24	73.84	
2025-01-16 23:59:42.46	252.96	73.78	
2025-01-16 23:59:42.67	252.66	73.72	
2025-01-16 23:59:42.87	252.38	73.66	
2025-01-16 23:59:43.07	252.10	73.60	
2025-01-16 23:59:43.27	251.83	73.54	
2025-01-16 23:59:43.48	251.54	73.48	
2025-01-16 23:59:43.69	251.25	73.42	
2025-01-16 23:59:43.90	250.97	73.35	
2025-01-16 23:59:44.11	250.69	73.29	
2025-01-16 23:59:44.32	250.41	73.22	
2025-01-16 23:59:44.52	250.15	73.16	
2025-01-16 23:59:44.72	249.89	73.10	
2025-01-16 23:59:44.93	249.62	73.04	
2025-01-16 23:59:45.15	249.33	72.97	
2025-01-16 23:59:45.36	249.07	72.90	
2025-01-16 23:59:45.57	248.80	72.83	
2025-01-16 23:59:45.77	248.55	72.77	
2025-01-16 23:59:45.98	248.29	72.70	
2025-01-16 23:59:46.19	248.03	72.64	
2025-01-16 23:59:46.40	247.77	72.57	
2025-01-16 23:59:46.60	247.53	72.50	
2025-01-16 23:59:46.80	247.29	72.44	
2025-01-16 23:59:47.01	247.04	72.37	
2025-01-16 23:59:47.22	246.79	72.30	
2025-01-16 23:59:47.43	246.54	72.23	
2025-01-16 23:59:47.63	246.31	72.17	
2025-01-16 23:59:47.84	246.07	72.10	
2025-01-16 23:59:48.06	245.82	72.02	
2025-01-16 23:59:48.27	245.58	71.95	
2025-01-16 23:59:48.47	245.35	71.89	
2025-01-16 23:59:48.68	245.12	71.82	
2025-01-16 23:59:48.89	244.88	71.74	
2025-01-16 23:59:49.10	244.65	71.67	
2025-01-16 23:59:49.30	244.43	71.61	
2025-01-16 23:59:49.50	244.22	71.54	
2025-01-16 23:59:49.70	244.00	71.47	
2025-01-16 23:59:49.92	243.77	71.39	
2025-01-16 23:59:50.13	243.55	71.32	
2025-01-16 23:59:50.33	243.34	71.25	
2025-01-16 23:59:50.53	243.13	71.18	
2025-01-16 23:59:50.74	242.91	71.11	
2025-01-16 23:59:50.94	242.71	71.04	
2025-01-16 23:59:51.14	242.50	70.97	
2025-01-16 23:59:51.35	242.29	70.90	
2025-01-16 23:59:51.55	242.09	70.83	
2025-01-16 23:59:51.76	241.88	70.75	
2025-01-16 23:59:51.96	241.69	70.68	
2025-01-16 23:59:52.16	241.49	70.61	
2025-01-16 23:59:52.36	241.30	70.54	
2025-01-16 23:59:52.57	241.10	70.47	
2025-01-16 23:59:52.77	240.91	70.40	
2025-01-16 23:59:52.97	240.72	70.33	
2025-01-16 23:59:53.18	240.52	70.25	
2025-01-16 23:59:53.38	240.33	70.18	
2025-01-16 23:59:53.58	240.15	70.11	

#Closed at: 2025-01-16 23:59:53