passes_logs/2026/01/04/R3.0SM8_Murmansk_STILSPACE/R3.0SM8_Murmansk_STILSPACE__20260104_054557_FENGYUN_3E_rec.log

#Pass ID: 20260104_054557_FENGYUN 3E
#Satellite: FENGYUN 3E
#Configuration: FENGYUN 3E
#almurnet v.1.7.20240730
#Start time: 2026-01-04 05:51:38

#Version: 2.2.20231116
#Station: R3.0SM8_Murmansk_STILSPACE
#Location: 33.092731 lon 68.902999 lat
#TLE: 1 49008U 21062A   26003.51942929 -.00000034  00000+0  45519-5 0  9990
#TLE: 2 49008  98.7472   8.7829 0001426 160.7926 199.3304 14.19883272233213

#Time	Az	El	Level	Level2	SNR	BER	BlckErr	Temp	State	Recorded	gain1	gain2
2026-01-04 05:51:38.03	356.40	47.63	-52.6	-63.4	3.8	8.46e-01	0	57	0	0	67	12873
2026-01-04 05:51:40.00	355.63	48.10	-52.6	-62.8	3.8	8.47e-01	0	57	104	0	67	11819
2026-01-04 05:51:41.97	354.83	48.58	-52.7	-62.8	3.8	8.45e-01	0	57	104	0	67	11871
2026-01-04 05:51:43.95	354.01	49.05	-52.6	-62.8	3.8	8.46e-01	0	57	104	0	67	11924
2026-01-04 05:51:45.93	353.16	49.53	-52.6	-62.8	3.8	8.46e-01	0	58	104	0	67	11878
2026-01-04 05:51:47.91	352.28	50.00	-52.6	-62.8	3.8	8.45e-01	0	57	104	0	67	11836
2026-01-04 05:51:49.89	351.38	50.47	-52.6	-62.8	3.8	8.47e-01	0	57	104	0	67	11834
2026-01-04 05:51:51.86	350.45	50.94	-52.6	-62.7	3.8	8.47e-01	0	57	104	0	67	11789
2026-01-04 05:51:53.84	349.48	51.40	-52.6	-62.7	3.8	8.46e-01	0	57	104	0	67	11803
2026-01-04 05:51:55.82	348.49	51.86	-52.6	-62.8	3.8	8.46e-01	0	57	104	0	67	11845
2026-01-04 05:51:57.81	347.46	52.32	-52.5	-62.7	3.8	8.46e-01	0	58	104	0	67	11754
2026-01-04 05:51:59.79	346.40	52.77	-52.5	-62.7	3.8	8.45e-01	0	58	104	0	67	11734
2026-01-04 05:52:01.78	345.31	53.21	-52.6	-62.8	3.8	8.47e-01	0	57	104	0	67	11849
2026-01-04 05:52:03.74	344.19	53.64	-52.6	-62.8	3.8	8.47e-01	0	58	104	0	67	11831
2026-01-04 05:52:05.72	343.04	54.07	-52.6	-62.7	3.8	8.46e-01	0	57	104	0	67	11723
2026-01-04 05:52:07.70	341.84	54.49	-52.6	-62.7	3.8	8.46e-01	0	57	104	0	67	11791
2026-01-04 05:52:09.68	340.62	54.90	-52.6	-62.7	3.8	8.46e-01	0	58	104	0	67	11802
2026-01-04 05:52:11.65	339.36	55.30	-52.6	-62.6	3.8	8.47e-01	0	58	104	0	67	11627
2026-01-04 05:52:13.64	338.05	55.69	-52.5	-62.6	3.8	8.47e-01	0	58	104	0	67	11645
2026-01-04 05:52:15.62	336.72	56.06	-52.5	-62.4	3.8	8.46e-01	0	58	104	0	67	11304
2026-01-04 05:52:17.60	335.35	56.42	-52.5	-62.7	3.8	8.45e-01	0	58	104	0	67	11730
2026-01-04 05:52:19.57	333.95	56.77	-52.6	-62.7	3.8	8.46e-01	0	58	104	0	67	11748
2026-01-04 05:52:21.56	332.50	57.11	-52.6	-62.5	3.8	8.46e-01	0	58	104	0	67	11430
2026-01-04 05:52:23.54	331.02	57.42	-52.5	-62.0	3.8	8.45e-01	0	58	104	0	67	10839
2026-01-04 05:52:25.52	329.51	57.72	-52.3	-60.2	4.0	8.44e-01	0	58	104	0	67	8827
2026-01-04 05:52:27.50	327.96	58.01	-52.2	-60.2	4.0	8.43e-01	0	58	104	0	67	8781
2026-01-04 05:52:29.48	326.39	58.27	-52.0	-59.0	4.2	8.44e-01	0	58	104	0	67	7713
2026-01-04 05:52:31.46	324.78	58.51	-44.4	-45.2	16.6	0.00e+00	0	57	0	10485760	51	3923
2026-01-04 05:52:33.43	323.15	58.74	-43.0	-43.7	18.1	0.00e+00	0	57	0	25165824	48	3936
2026-01-04 05:52:35.41	321.49	58.94	-42.7	-43.3	18.5	0.00e+00	0	58	0	39845888	48	3755
2026-01-04 05:52:37.39	319.80	59.12	-42.5	-43.2	18.4	0.00e+00	0	58	0	53477376	47	3919
2026-01-04 05:52:39.37	318.09	59.28	-42.1	-42.7	18.9	0.00e+00	0	58	0	68157440	47	3730
2026-01-04 05:52:41.35	316.36	59.41	-41.6	-42.2	19.4	0.00e+00	0	58	0	82837504	45	3914
2026-01-04 05:52:43.34	314.61	59.52	-41.4	-41.9	19.6	0.00e+00	0	58	0	96468992	45	3817
2026-01-04 05:52:45.32	312.85	59.61	-41.3	-41.8	19.6	0.00e+00	0	58	0	111149056	45	3763
2026-01-04 05:52:47.31	311.07	59.67	-41.7	-42.2	19.3	0.00e+00	0	58	0	125829120	45	3939
2026-01-04 05:52:49.28	309.31	59.71	-41.5	-42.1	19.4	0.00e+00	0	58	0	139460608	45	3890
2026-01-04 05:52:51.27	307.52	59.72	-41.5	-42.1	19.4	0.00e+00	0	58	0	154140672	45	3872
2026-01-04 05:52:53.24	305.75	59.70	-41.8	-42.3	19.2	0.00e+00	0	58	0	167772160	45	3992
2026-01-04 05:52:55.22	303.98	59.66	-41.1	-41.6	19.9	0.00e+00	0	58	0	182452224	44	3897
2026-01-04 05:52:57.21	302.20	59.60	-41.4	-42.0	19.6	0.00e+00	0	58	0	197132288	44	4065
2026-01-04 05:52:59.18	300.45	59.51	-42.0	-42.5	19.0	0.00e+00	0	58	0	210763776	45	4093
2026-01-04 05:53:01.16	298.71	59.40	-41.4	-41.9	19.6	0.00e+00	0	57	0	225443840	45	3817
2026-01-04 05:53:03.14	296.98	59.26	-41.7	-42.3	19.3	0.00e+00	0	58	0	240123904	45	3981
2026-01-04 05:53:05.11	295.28	59.10	-42.6	-43.3	18.2	0.00e+00	0	58	0	253755392	46	4225
2026-01-04 05:53:07.08	293.60	58.92	-42.9	-43.6	18.0	0.00e+00	0	57	0	268435456	47	4138
2026-01-04 05:53:09.06	291.94	58.72	-42.4	-43.0	18.5	0.00e+00	0	58	0	282066944	47	3864
2026-01-04 05:53:11.03	290.31	58.50	-42.8	-43.4	18.1	0.00e+00	0	57	0	296747008	47	4044
2026-01-04 05:53:13.00	288.71	58.25	-42.4	-43.1	18.6	0.00e+00	0	58	0	310378496	47	3878
2026-01-04 05:53:14.99	287.13	57.98	-41.3	-41.9	19.6	0.00e+00	0	58	0	325058560	45	3792
2026-01-04 05:53:16.96	285.59	57.70	-41.5	-42.1	19.4	0.00e+00	0	57	0	339738624	45	3882
2026-01-04 05:53:18.95	284.08	57.40	-42.1	-42.7	18.8	0.00e+00	0	58	0	353370112	46	3953
2026-01-04 05:53:20.94	282.59	57.08	-42.1	-42.8	18.8	0.00e+00	0	58	0	368050176	46	3965
2026-01-04 05:53:22.91	281.16	56.74	-41.3	-41.8	19.7	0.00e+00	0	58	0	382730240	45	3780
2026-01-04 05:53:24.89	279.75	56.39	-41.5	-42.1	19.4	0.00e+00	0	58	0	396361728	45	3897
2026-01-04 05:53:26.86	278.39	56.03	-41.6	-42.2	19.3	0.00e+00	0	58	0	411041792	45	3926
2026-01-04 05:53:28.83	277.06	55.66	-41.4	-42.0	19.6	0.00e+00	0	57	0	425721856	45	3827
2026-01-04 05:53:30.80	275.77	55.27	-42.0	-42.6	18.9	0.00e+00	0	57	0	439353344	45	4138
2026-01-04 05:53:32.78	274.51	54.87	-41.8	-42.4	19.2	0.00e+00	0	58	0	454033408	46	3786
2026-01-04 05:53:34.76	273.28	54.46	-41.5	-42.1	19.4	0.00e+00	0	58	0	467664896	45	3882
2026-01-04 05:53:36.73	272.09	54.04	-41.9	-42.5	19.0	0.00e+00	0	58	0	482344960	45	4060
2026-01-04 05:53:38.71	270.94	53.61	-41.8	-42.4	19.1	0.00e+00	0	58	0	495976448	45	4033
2026-01-04 05:53:40.68	269.82	53.18	-41.5	-42.0	19.5	0.00e+00	0	58	0	510656512	45	3858
2026-01-04 05:53:42.66	268.73	52.73	-41.3	-41.8	19.6	0.00e+00	0	57	0	525336576	45	3780
2026-01-04 05:53:44.65	267.67	52.28	-41.9	-42.5	19.0	0.00e+00	0	58	0	538968064	45	4060
2026-01-04 05:53:46.62	266.65	51.82	-42.1	-42.7	18.8	0.00e+00	0	57	0	553648128	45	4149
2026-01-04 05:53:48.60	265.65	51.36	-41.6	-42.2	19.4	0.00e+00	0	57	0	568328192	45	3914
2026-01-04 05:53:50.59	264.68	50.90	-41.4	-41.9	19.6	0.00e+00	0	58	0	581959680	45	3809
2026-01-04 05:53:52.56	263.76	50.43	-41.3	-41.8	19.6	0.00e+00	0	58	0	596639744	45	3773
2026-01-04 05:53:54.53	262.86	49.96	-41.4	-42.0	19.4	0.00e+00	0	58	0	610271232	45	3851
2026-01-04 05:53:56.51	261.98	49.49	-41.1	-41.6	19.9	0.00e+00	0	58	0	624951296	45	3672
2026-01-04 05:53:58.47	261.14	49.01	-40.7	-41.2	20.3	0.00e+00	0	58	0	638582784	44	3714
2026-01-04 05:54:00.45	260.31	48.54	-40.8	-41.3	20.2	0.00e+00	0	58	0	653262848	44	3767
2026-01-04 05:54:02.42	259.52	48.06	-40.9	-41.4	20.1	0.00e+00	0	58	0	667942912	44	3792
2026-01-04 05:54:04.41	258.74	47.58	-40.7	-41.1	20.3	0.00e+00	0	57	0	681574400	44	3692
2026-01-04 05:54:06.39	257.99	47.10	-40.7	-41.2	20.3	0.00e+00	0	58	0	696254464	44	3716
2026-01-04 05:54:08.38	257.26	46.62	-40.8	-41.3	20.2	0.00e+00	0	58	0	710934528	44	3740
2026-01-04 05:54:10.36	256.55	46.14	-40.6	-41.1	20.1	0.00e+00	0	58	0	724566016	44	3671
2026-01-04 05:54:12.33	255.87	45.66	-40.4	-40.9	20.4	0.00e+00	0	58	0	739246080	43	3822
2026-01-04 05:54:14.30	255.21	45.19	-40.2	-40.7	20.6	0.00e+00	0	57	0	752877568	43	3710
2026-01-04 05:54:16.28	254.57	44.71	-40.2	-40.7	20.6	0.00e+00	0	57	0	767557632	43	3716
2026-01-04 05:54:18.26	253.94	44.24	-40.1	-40.6	20.7	0.00e+00	0	58	0	782237696	43	3677
2026-01-04 05:54:20.24	253.34	43.76	-40.0	-40.4	20.8	0.00e+00	0	57	0	795869184	42	3823
2026-01-04 05:54:22.22	252.75	43.29	-40.1	-40.5	20.8	0.00e+00	0	57	0	810549248	42	3860
2026-01-04 05:54:24.20	252.18	42.83	-40.0	-40.4	20.9	0.00e+00	0	57	0	825229312	42	3810
2026-01-04 05:54:26.18	251.62	42.36	-39.6	-40.0	21.3	0.00e+00	0	57	0	838860800	42	3634
2026-01-04 05:54:28.17	251.08	41.90	-39.4	-39.9	21.4	0.00e+00	0	57	0	853540864	41	3791
2026-01-04 05:54:30.14	250.56	41.44	-39.9	-40.4	20.9	0.00e+00	0	57	0	868220928	41	4028
2026-01-04 05:54:32.13	250.05	40.98	-40.2	-40.7	20.6	0.00e+00	0	58	0	881852416	42	3930
2026-01-04 05:54:34.11	249.55	40.53	-40.0	-40.5	20.9	0.00e+00	0	58	0	896532480	42	3826
2026-01-04 05:54:36.09	249.07	40.08	-40.1	-40.6	20.7	0.00e+00	0	57	0	911212544	42	3901
2026-01-04 05:54:38.08	248.60	39.63	-40.2	-40.6	20.7	0.00e+00	0	58	0	924844032	42	3911
2026-01-04 05:54:40.06	248.14	39.19	-40.7	-41.2	20.1	0.00e+00	0	58	0	939524096	43	3927
2026-01-04 05:54:42.05	247.70	38.75	-40.2	-40.7	20.4	0.00e+00	0	57	0	953155584	43	3728
2026-01-04 05:54:44.02	247.27	38.32	-40.4	-40.9	20.4	0.00e+00	0	57	0	967835648	43	3799
2026-01-04 05:54:46.00	246.85	37.89	-40.3	-40.8	20.6	0.00e+00	0	57	0	982515712	43	3746
2026-01-04 05:54:47.98	246.44	37.46	-39.8	-40.3	21.0	0.00e+00	0	57	0	996147200	42	3742
2026-01-04 05:54:49.96	246.04	37.03	-39.5	-40.0	21.3	0.00e+00	0	58	0	1010827264	42	3620
2026-01-04 05:54:51.93	245.66	36.62	-39.6	-40.0	21.2	0.00e+00	0	58	0	1025507328	42	3645
2026-01-04 05:54:53.91	245.28	36.20	-39.8	-40.2	21.1	0.00e+00	0	58	0	1039138816	42	3735
2026-01-04 05:54:55.89	244.91	35.79	-39.9	-40.4	20.9	0.00e+00	0	57	0	1053818880	42	3808
2026-01-04 05:54:57.88	244.55	35.38	-39.7	-40.1	21.2	0.00e+00	0	58	0	1068498944	42	3674
2026-01-04 05:54:59.86	244.20	34.97	-39.4	-39.8	21.4	0.00e+00	0	58	0	1082130432	41	3764
2026-01-04 05:55:01.84	243.86	34.57	-39.6	-40.0	21.1	0.00e+00	0	58	0	1096810496	41	3844
2026-01-04 05:55:03.82	243.53	34.18	-39.9	-40.4	20.9	0.00e+00	0	58	0	1110441984	41	4025
2026-01-04 05:55:05.80	243.20	33.78	-40.1	-40.6	20.7	0.00e+00	0	58	0	1125122048	41	4132
2026-01-04 05:55:07.77	242.89	33.40	-40.2	-40.7	20.6	0.00e+00	0	58	0	1138753536	42	3946
2026-01-04 05:55:09.76	242.58	33.01	-40.1	-40.5	20.7	0.00e+00	0	57	0	1153433600	42	3862
2026-01-04 05:55:11.73	242.28	32.63	-40.1	-40.5	20.8	0.00e+00	0	58	0	1168113664	42	3863
2026-01-04 05:55:13.71	241.98	32.25	-40.1	-40.6	20.7	0.00e+00	0	58	0	1181745152	42	3903
2026-01-04 05:55:15.69	241.70	31.88	-39.6	-40.1	21.2	0.00e+00	0	58	0	1196425216	42	3665
2026-01-04 05:55:17.66	241.42	31.51	-39.5	-40.0	21.3	0.00e+00	0	57	0	1211105280	42	3612
2026-01-04 05:55:19.65	241.14	31.15	-39.5	-40.0	21.2	0.00e+00	0	58	0	1224736768	41	3836
2026-01-04 05:55:21.62	240.87	30.79	-39.4	-39.9	21.4	0.00e+00	0	58	0	1239416832	41	3796
2026-01-04 05:55:23.61	240.61	30.43	-39.6	-40.0	21.2	0.00e+00	0	58	0	1254096896	41	3854
2026-01-04 05:55:25.58	240.35	30.07	-40.0	-40.5	20.8	0.00e+00	0	58	0	1267728384	41	4056
2026-01-04 05:55:27.57	240.10	29.72	-40.0	-40.5	20.8	0.00e+00	0	58	0	1282408448	41	4056
2026-01-04 05:55:29.54	239.86	29.38	-40.2	-40.7	20.6	0.00e+00	0	57	0	1296039936	42	3938
2026-01-04 05:55:31.52	239.62	29.03	-40.2	-40.7	20.6	0.00e+00	0	58	0	1310720000	42	3915
2026-01-04 05:55:33.51	239.38	28.69	-40.0	-40.5	20.8	0.00e+00	0	58	0	1325400064	42	3845
2026-01-04 05:55:35.49	239.15	28.35	-40.0	-40.5	20.8	0.00e+00	0	58	0	1339031552	42	3835
2026-01-04 05:55:37.46	238.93	28.02	-40.2	-40.7	20.6	0.00e+00	0	58	0	1353711616	42	3917
2026-01-04 05:55:39.44	238.71	27.69	-40.3	-40.7	20.5	0.00e+00	0	57	0	1368391680	42	3955
2026-01-04 05:55:41.42	238.49	27.37	-40.4	-40.9	20.3	0.00e+00	0	58	0	1382023168	42	4047
2026-01-04 05:55:43.40	238.28	27.05	-40.4	-40.9	20.4	0.00e+00	0	58	0	1396703232	42	4007
2026-01-04 05:55:45.38	238.07	26.73	-40.1	-40.6	20.6	0.00e+00	0	57	0	1411383296	42	3909
2026-01-04 05:55:47.36	237.87	26.41	-40.0	-40.5	20.6	0.00e+00	0	57	0	1425014784	42	3840
2026-01-04 05:55:49.33	237.67	26.10	-40.1	-40.6	20.7	0.00e+00	0	57	0	1439694848	42	3883
2026-01-04 05:55:51.31	237.48	25.79	-40.0	-40.4	20.8	0.00e+00	0	58	0	1453326336	42	3817
2026-01-04 05:55:53.28	237.29	25.48	-39.9	-40.4	20.9	0.00e+00	0	57	0	1468006400	42	3800
2026-01-04 05:55:55.26	237.10	25.18	-40.2	-40.7	20.6	0.00e+00	0	57	0	1481637888	42	3919
2026-01-04 05:55:57.24	236.91	24.88	-40.3	-40.8	20.5	0.00e+00	0	57	0	1496317952	42	3966
2026-01-04 05:55:59.22	236.73	24.58	-40.4	-40.9	20.3	0.00e+00	0	57	0	1510998016	42	4033
2026-01-04 05:56:01.21	236.56	24.29	-40.5	-41.0	20.2	0.00e+00	0	58	0	1524629504	42	4071
2026-01-04 05:56:03.20	236.38	24.00	-40.8	-41.3	20.0	0.00e+00	0	57	0	1539309568	43	3979
2026-01-04 05:56:05.18	236.21	23.71	-40.9	-41.4	19.8	0.00e+00	0	57	0	1553989632	43	4044
2026-01-04 05:56:07.16	236.05	23.42	-41.2	-41.7	19.6	0.00e+00	0	57	0	1567621120	44	3956
2026-01-04 05:56:09.14	235.88	23.14	-41.2	-41.7	19.7	0.00e+00	0	57	0	1582301184	44	3944
2026-01-04 05:56:11.11	235.72	22.86	-41.2	-41.7	19.7	0.00e+00	0	58	0	1595932672	44	3929
2026-01-04 05:56:13.08	235.57	22.59	-41.7	-42.3	19.1	0.00e+00	0	57	0	1610612736	45	3978
2026-01-04 05:56:15.06	235.41	22.31	-40.9	-41.4	19.9	0.00e+00	0	57	0	1625292800	44	3794
2026-01-04 05:56:17.03	235.26	22.04	-40.4	-40.9	20.3	0.00e+00	0	57	0	1638924288	43	3818
2026-01-04 05:56:19.01	235.11	21.77	-40.4	-40.9	20.3	0.00e+00	0	58	0	1653604352	43	3794
2026-01-04 05:56:21.00	234.96	21.51	-40.5	-41.0	20.2	0.00e+00	0	57	0	1668284416	43	3831
2026-01-04 05:56:22.98	234.82	21.24	-40.6	-41.1	20.1	0.00e+00	0	57	0	1681915904	43	3872
2026-01-04 05:56:24.95	234.68	20.98	-40.6	-41.2	20.0	0.00e+00	0	57	0	1696595968	43	3916
2026-01-04 05:56:26.94	234.54	20.72	-40.8	-41.3	19.9	0.00e+00	0	57	0	1711276032	43	3990
2026-01-04 05:56:28.92	234.40	20.47	-40.9	-41.5	19.7	0.00e+00	0	57	0	1724907520	43	4052
2026-01-04 05:56:30.89	234.27	20.21	-41.0	-41.5	19.6	0.00e+00	0	58	0	1739587584	43	4092
2026-01-04 05:56:32.87	234.14	19.96	-41.4	-41.9	19.4	0.00e+00	0	58	0	1753219072	44	4033
2026-01-04 05:56:34.86	234.01	19.71	-41.5	-42.1	19.2	0.00e+00	0	58	0	1767899136	44	4107
2026-01-04 05:56:36.84	233.88	19.47	-41.6	-42.2	19.1	0.00e+00	0	57	0	1782579200	45	3927
2026-01-04 05:56:38.82	233.75	19.22	-41.9	-42.5	18.7	0.00e+00	0	57	0	1796210688	45	4098
2026-01-04 05:56:40.80	233.63	18.98	-42.0	-42.6	18.6	0.00e+00	0	57	0	1810890752	45	4128
2026-01-04 05:56:42.78	233.51	18.74	-42.0	-42.7	18.6	0.00e+00	0	57	0	1825570816	45	4153
2026-01-04 05:56:44.76	233.39	18.50	-41.7	-42.3	18.9	0.00e+00	0	58	0	1839202304	45	3980
2026-01-04 05:56:46.74	233.27	18.27	-41.4	-41.9	19.3	0.00e+00	0	57	0	1853882368	45	3817
2026-01-04 05:56:48.72	233.16	18.03	-41.4	-41.9	19.2	0.00e+00	0	57	0	1867513856	45	3818
2026-01-04 05:56:50.70	233.04	17.80	-41.4	-42.0	19.2	0.00e+00	0	57	0	1882193920	45	3841
2026-01-04 05:56:52.69	232.93	17.57	-41.5	-42.1	19.1	0.00e+00	0	57	0	1896873984	45	3879
2026-01-04 05:56:54.67	232.82	17.34	-41.7	-42.3	18.8	0.00e+00	0	57	0	1910505472	45	3999
2026-01-04 05:56:56.65	232.71	17.12	-41.6	-42.2	18.8	0.00e+00	0	57	0	1925185536	45	3937
2026-01-04 05:56:58.63	232.61	16.89	-41.8	-42.4	18.7	0.00e+00	0	58	0	1939865600	45	4034
2026-01-04 05:57:00.60	232.50	16.67	-41.9	-42.5	18.6	0.00e+00	0	57	0	1953497088	45	4087
2026-01-04 05:57:02.58	232.40	16.45	-42.0	-42.6	18.5	0.00e+00	0	57	0	1968177152	45	4131
2026-01-04 05:57:04.55	232.30	16.24	-42.0	-42.7	18.4	0.00e+00	0	57	0	1981808640	45	4148
2026-01-04 05:57:06.52	232.20	16.02	-42.0	-42.6	18.4	0.00e+00	0	58	0	1996488704	45	4132
2026-01-04 05:57:08.50	232.10	15.81	-42.2	-42.8	18.2	0.00e+00	0	57	0	2011168768	46	4001
2026-01-04 05:57:10.47	232.00	15.60	-42.4	-43.1	18.0	0.00e+00	0	57	0	2024800256	46	4107
2026-01-04 05:57:12.44	231.91	15.39	-42.3	-43.0	18.1	0.00e+00	0	57	0	2039480320	46	4058
2026-01-04 05:57:14.42	231.81	15.18	-42.2	-42.9	18.1	0.00e+00	0	58	0	2053111808	46	4023
2026-01-04 05:57:16.40	231.72	14.97	-42.5	-43.2	17.6	0.00e+00	0	58	0	2067791872	46	4187
2026-01-04 05:57:18.39	231.63	14.76	-42.7	-43.4	17.6	0.00e+00	0	57	0	2082471936	46	4264
2026-01-04 05:57:20.36	231.54	14.56	-42.8	-43.5	17.4	0.00e+00	0	57	0	2096103424	47	4091
2026-01-04 05:57:22.33	231.45	14.36	-42.9	-43.7	17.3	0.00e+00	0	57	0	2110783488	47	4159
2026-01-04 05:57:24.32	231.36	14.16	-42.9	-43.7	17.3	0.00e+00	0	58	0	2124414976	47	4166
2026-01-04 05:57:26.30	231.27	13.96	-42.8	-43.6	17.3	0.00e+00	0	58	0	2139095040	47	4121
2026-01-04 05:57:28.28	231.19	13.76	-43.0	-43.8	17.1	0.00e+00	0	57	0	2153775104	47	4196
2026-01-04 05:57:30.24	231.11	13.57	-43.2	-44.0	17.0	0.00e+00	0	57	0	2167406592	48	4084
2026-01-04 05:57:32.22	231.02	13.37	-43.3	-44.1	16.9	0.00e+00	0	57	0	2182086656	48	4135
2026-01-04 05:57:34.20	230.94	13.18	-43.9	-44.8	16.2	0.00e+00	0	57	0	2196766720	49	4216
2026-01-04 05:57:36.17	230.86	12.99	-43.7	-44.6	16.4	0.00e+00	0	57	0	2210398208	49	4114
2026-01-04 05:57:38.15	230.78	12.80	-43.9	-44.8	16.2	0.00e+00	0	58	0	2225078272	49	4218
2026-01-04 05:57:40.13	230.70	12.61	-43.9	-44.8	16.1	0.00e+00	0	57	0	2239758336	49	4237
2026-01-04 05:57:42.11	230.63	12.42	-44.5	-45.5	15.4	0.00e+00	0	58	0	2253389824	50	4308
2026-01-04 05:57:44.09	230.55	12.24	-44.2	-45.2	15.7	0.00e+00	0	57	0	2268069888	50	4151
2026-01-04 05:57:46.07	230.47	12.05	-44.3	-45.3	15.6	0.00e+00	0	57	0	2281701376	50	4194
2026-01-04 05:57:48.05	230.40	11.87	-44.6	-45.7	15.1	0.00e+00	0	57	0	2296381440	50	4419
2026-01-04 05:57:50.02	230.33	11.69	-44.7	-45.8	15.0	0.00e+00	0	57	0	2310012928	51	4222
2026-01-04 05:57:52.01	230.26	11.50	-44.4	-45.5	15.4	0.00e+00	0	57	0	2324692992	51	4053
2026-01-04 05:57:53.99	230.18	11.32	-44.8	-45.9	14.9	0.00e+00	0	57	0	2339373056	51	4265
2026-01-04 05:57:55.97	230.11	11.15	-44.8	-45.9	14.8	0.00e+00	0	58	0	2353004544	51	4275
2026-01-04 05:57:57.94	230.05	10.97	-45.0	-46.1	14.6	0.00e+00	0	57	0	2367684608	51	4379
2026-01-04 05:57:59.92	229.98	10.79	-45.1	-46.3	14.4	1.10e-06	0	57	0	2381316096	51	4459
2026-01-04 05:58:01.89	229.91	10.62	-45.1	-46.3	14.3	1.10e-06	0	57	0	2395996160	52	4215
2026-01-04 05:58:03.87	229.84	10.45	-44.8	-46.0	14.5	2.20e-06	0	57	0	2410676224	52	4086
2026-01-04 05:58:05.85	229.78	10.27	-45.0	-46.2	14.3	0.00e+00	0	57	0	2424307712	52	4170
2026-01-04 05:58:07.84	229.71	10.10	-45.3	-46.6	13.8	6.80e-06	0	58	0	2438987776	52	4372
2026-01-04 05:58:09.82	229.65	9.93	-45.1	-46.3	14.1	4.50e-06	0	57	0	2453667840	52	4241
2026-01-04 05:58:11.78	229.58	9.77	-45.0	-46.3	14.1	0.00e+00	0	58	0	2467299328	52	4208
2026-01-04 05:58:13.77	229.52	9.60	-45.2	-46.4	13.9	5.70e-06	0	57	0	2481979392	52	4280
2026-01-04 05:58:15.75	229.46	9.43	-45.3	-46.6	13.7	3.40e-06	0	57	0	2496659456	52	4370
2026-01-04 05:58:17.72	229.40	9.27	-45.4	-46.8	13.6	6.80e-06	0	57	0	2510290944	52	4442
2026-01-04 05:58:19.70	229.34	9.10	-45.4	-46.8	13.6	9.10e-06	0	58	0	2524971008	52	4444
2026-01-04 05:58:21.67	229.28	8.94	-45.6	-47.0	13.2	2.63e-05	0	58	0	2538602496	53	4327
2026-01-04 05:58:23.65	229.22	8.78	-45.8	-47.3	12.9	5.14e-05	0	57	0	2553282560	53	4450
2026-01-04 05:58:25.63	229.16	8.61	-45.9	-47.4	12.8	8.58e-05	0	58	0	2567962624	53	4530
2026-01-04 05:58:27.60	229.11	8.46	-46.0	-47.6	12.6	1.01e-04	0	58	0	2581594112	53	4640
2026-01-04 05:58:29.58	229.05	8.30	-46.0	-47.6	12.5	1.26e-04	0	57	0	2596274176	53	4649
2026-01-04 05:58:31.57	228.99	8.14	-46.2	-47.9	12.2	2.17e-04	0	58	0	2609905664	53	4793
2026-01-04 05:58:33.55	228.94	7.98	-46.3	-48.1	12.0	2.87e-04	0	58	0	2624585728	54	4607
2026-01-04 05:58:35.53	228.88	7.82	-46.4	-48.2	11.8	4.15e-04	0	57	0	2639265792	54	4693
2026-01-04 05:58:37.51	228.83	7.67	-46.4	-48.3	11.7	5.76e-04	0	58	0	2652897280	54	4747
2026-01-04 05:58:39.48	228.78	7.51	-46.5	-48.4	11.6	6.36e-04	0	57	0	2667577344	54	4814
2026-01-04 05:58:41.46	228.72	7.36	-46.7	-48.7	11.2	1.42e-03	0	58	0	2682257408	55	4703
2026-01-04 05:58:43.42	228.67	7.21	-46.8	-49.0	11.0	2.13e-03	0	57	0	2695888896	55	4825
2026-01-04 05:58:45.41	228.62	7.06	-46.9	-49.1	10.9	2.40e-03	0	58	0	2710568960	55	4888
2026-01-04 05:58:47.40	228.57	6.90	-46.9	-49.2	10.7	2.85e-03	0	57	0	2724200448	55	4948
2026-01-04 05:58:49.38	228.52	6.75	-46.9	-49.2	10.7	3.51e-03	0	57	0	2738880512	55	4961
2026-01-04 05:58:51.36	228.47	6.60	-47.1	-49.5	10.4	4.26e-03	0	58	0	2753560576	55	5115
2026-01-04 05:58:53.34	228.42	6.45	-47.4	-49.7	10.2	7.13e-03	0	58	0	2767192064	56	4976
2026-01-04 05:58:55.32	228.37	6.31	-47.5	-49.9	10.0	8.69e-03	0	58	0	2781872128	56	5082
2026-01-04 05:58:57.31	228.32	6.16	-47.7	-50.3	9.6	1.46e-02	0	58	0	2796552192	57	4999
2026-01-04 05:58:59.29	228.28	6.01	-47.5	-50.0	9.8	1.19e-02	0	57	0	2810183680	57	4839
2026-01-04 05:59:01.28	228.23	5.87	-47.5	-50.0	9.8	1.09e-02	0	58	0	2824863744	57	4837
2026-01-04 05:59:03.26	228.18	5.72	-47.6	-50.3	9.5	1.65e-02	0	58	0	2839543808	57	4996
2026-01-04 05:59:05.23	228.14	5.58	-47.9	-50.6	9.1	2.33e-02	0	58	0	2853175296	57	5189
2026-01-04 05:59:07.21	228.09	5.44	-47.9	-50.7	9.0	2.44e-02	0	57	0	2867855360	57	5266
2026-01-04 05:59:09.18	228.05	5.29	-47.9	-50.9	8.8	3.13e-02	0	58	0	2882535424	57	5369
2026-01-04 05:59:11.16	228.00	5.15	-48.2	-51.3	8.4	4.89e-02	0	58	0	2896166912	58	5295
2026-01-04 05:59:13.15	227.96	5.01	-50.1	-56.8	4.4	5.68e-01	0	58	0	2908749824	62	7939
2026-01-04 05:59:15.13	227.91	4.87	-52.0	-62.1	3.8	8.46e-01	0	58	104	2908749824	65	12275
2026-01-04 05:59:17.12	227.87	4.73	-52.2	-62.3	3.8	8.45e-01	0	58	104	2908749824	65	12610
2026-01-04 05:59:19.09	227.83	4.59	-51.2	-61.4	3.8	8.46e-01	0	58	104	2908749824	65	11311
2026-01-04 05:59:21.07	227.79	4.46	-52.4	-62.6	3.8	8.46e-01	0	58	104	2908749824	66	12256
2026-01-04 05:59:23.04	227.75	4.32	-52.4	-62.6	3.8	8.45e-01	0	58	104	2908749824	66	12249
2026-01-04 05:59:25.03	227.70	4.18	-52.4	-62.6	3.8	8.47e-01	0	58	104	2908749824	66	12319
2026-01-04 05:59:27.01	227.66	4.05	-52.5	-62.7	3.8	8.45e-01	0	58	104	2908749824	66	12430
2026-01-04 05:59:28.98	227.62	3.91	-52.5	-62.7	3.8	8.47e-01	0	58	104	2908749824	66	12446
2026-01-04 05:59:30.95	227.58	3.78	-52.6	-62.7	3.8	8.46e-01	0	58	104	2908749824	66	12484
2026-01-04 05:59:32.93	227.55	3.64	-52.6	-62.7	3.8	8.45e-01	0	58	104	2908749824	66	12485
2026-01-04 05:59:34.91	227.51	3.51	-52.6	-62.8	3.8	8.46e-01	0	58	104	2908749824	66	12528
2026-01-04 05:59:36.87	227.47	3.38	-52.5	-62.8	3.8	8.46e-01	0	58	104	2908749824	66	12578
2026-01-04 05:59:38.85	227.43	3.25	-52.5	-62.8	3.8	8.46e-01	0	58	104	2908749824	66	12587
2026-01-04 05:59:40.82	227.39	3.12	-52.6	-62.8	3.8	8.47e-01	0	58	104	2908749824	66	12575
2026-01-04 05:59:42.79	227.36	2.99	-52.6	-62.8	3.8	8.47e-01	0	58	104	2908749824	66	12540

#Closed at: 2026-01-04 05:59:43
#Recorded file [2908 MB]: D:/Data/31026_260104_085913.dat