passes_logs/2026/01/04/R3.0SM8_Murmansk_STILSPACE/R3.0SM8_Murmansk_STILSPACE__20260104_025754_SUOMI_NPP_rec.log

#Pass ID: 20260104_025754_SUOMI NPP
#Satellite: SUOMI NPP
#Configuration: NPP
#almurnet v.1.7.20240730
#Start time: 2026-01-04 02:57:55

#Version: 2.2.20231116
#Station: R3.0SM8_Murmansk_STILSPACE
#Location: 33.092731 lon 68.902999 lat
#TLE: 1 37849U 11061A   26001.07732418  .00000182  00000+0  10735-3 0  9990
#TLE: 2 37849  98.7795 303.2470 0002580  87.2016 272.9455 14.19520779734739

#Time	Az	El	Level	Level2	SNR	BER	BlckErr	Temp	State	Recorded	gain1	gain2
2026-01-04 02:57:55.77	36.02	3.08	-52.3	-66.1	3.8	1.49e+00	0	46	0	0	67	17608
2026-01-04 02:57:59.72	35.83	3.33	-51.9	-65.7	3.8	1.49e+00	0	46	104	0	66	17711
2026-01-04 02:58:03.69	35.63	3.58	-51.4	-65.2	3.8	1.49e+00	0	47	104	0	65	17730
2026-01-04 02:58:07.66	35.43	3.83	-51.4	-65.1	3.8	1.49e+00	0	47	104	0	65	17627
2026-01-04 02:58:11.62	35.22	4.08	-51.4	-64.8	3.8	1.49e+00	0	47	104	0	65	16929
2026-01-04 02:58:15.57	35.02	4.34	-51.3	-63.5	3.8	1.49e+00	0	47	104	0	65	14561
2026-01-04 02:58:19.51	34.80	4.59	-51.1	-60.7	4.5	1.16e+00	0	48	0	1048576	65	10607
2026-01-04 02:58:23.47	34.59	4.85	-50.6	-57.9	6.2	3.23e-01	0	48	0	8388608	64	8145
2026-01-04 02:58:27.43	34.37	5.12	-50.5	-57.0	7.1	1.32e-01	0	48	0	15728640	63	7808
2026-01-04 02:58:31.37	34.14	5.38	-50.4	-56.7	7.4	1.08e-01	0	48	0	23068672	63	7514
2026-01-04 02:58:35.32	33.92	5.64	-49.8	-54.7	9.3	2.53e-02	0	49	0	30408704	62	6345
2026-01-04 02:58:39.28	33.68	5.91	-49.2	-53.2	10.9	2.54e-03	0	49	0	37748736	61	5602
2026-01-04 02:58:43.24	33.44	6.18	-48.8	-52.4	11.7	4.01e-04	0	49	0	45088768	60	5448
2026-01-04 02:58:47.20	33.20	6.46	-49.0	-52.7	11.5	5.73e-04	0	49	0	52428800	60	5608
2026-01-04 02:58:51.18	32.95	6.73	-48.8	-52.2	12.0	2.18e-04	0	49	0	60817408	60	5329
2026-01-04 02:58:55.14	32.70	7.01	-48.7	-52.0	12.3	2.83e-04	0	50	0	68157440	60	5194
2026-01-04 02:58:59.10	32.44	7.29	-48.7	-52.0	12.3	6.63e-05	0	50	0	75497472	60	5190
2026-01-04 02:59:03.07	32.17	7.58	-48.5	-51.4	12.9	5.11e-05	0	50	0	82837504	59	5144
2026-01-04 02:59:07.03	31.90	7.86	-48.4	-51.4	12.9	2.89e-05	0	50	0	90177536	59	5124
2026-01-04 02:59:10.99	31.63	8.15	-48.4	-51.3	13.1	1.75e-05	0	51	0	97517568	59	5075
2026-01-04 02:59:14.94	31.35	8.44	-48.5	-51.4	13.0	2.97e-05	0	51	0	104857600	59	5121
2026-01-04 02:59:18.91	31.06	8.73	-48.6	-51.6	12.8	3.50e-05	0	51	0	112197632	59	5237
2026-01-04 02:59:22.86	30.77	9.03	-48.7	-51.8	12.7	4.95e-05	0	51	0	119537664	59	5365
2026-01-04 02:59:26.81	30.47	9.33	-48.2	-51.0	13.4	6.80e-06	0	51	0	126877696	59	4913
2026-01-04 02:59:30.75	30.17	9.63	-48.1	-50.7	13.8	7.00e-07	0	52	0	134217728	58	4985
2026-01-04 02:59:34.72	29.85	9.93	-48.0	-50.6	14.0	3.00e-06	0	51	0	141557760	58	4949
2026-01-04 02:59:38.67	29.54	10.24	-48.0	-50.6	14.0	7.60e-06	0	52	0	148897792	58	4964
2026-01-04 02:59:42.64	29.21	10.55	-47.9	-50.4	14.1	2.20e-06	0	52	0	157286400	58	4834
2026-01-04 02:59:46.58	28.88	10.86	-47.5	-49.8	14.8	7.00e-07	0	52	0	164626432	58	4498
2026-01-04 02:59:50.52	28.54	11.18	-47.7	-50.0	14.6	7.00e-07	0	52	0	171966464	58	4619
2026-01-04 02:59:54.48	28.19	11.50	-47.9	-50.3	14.2	7.00e-07	0	52	0	179306496	58	4809
2026-01-04 02:59:58.45	27.83	11.82	-48.2	-50.8	13.8	5.30e-06	0	52	0	186646528	58	5072
2026-01-04 03:00:02.41	27.46	12.15	-48.1	-50.6	14.1	3.00e-06	0	52	0	193986560	58	4936
2026-01-04 03:00:06.39	27.09	12.48	-47.9	-50.2	14.4	0.00e+00	0	53	0	201326592	58	4742
2026-01-04 03:00:10.35	26.70	12.81	-47.9	-50.2	14.4	0.00e+00	0	53	0	208666624	58	4751
2026-01-04 03:00:14.31	26.31	13.15	-47.6	-49.8	14.8	0.00e+00	0	53	0	216006656	58	4536
2026-01-04 03:00:18.28	25.91	13.49	-47.9	-50.2	14.4	7.00e-07	0	53	0	223346688	58	4748
2026-01-04 03:00:22.23	25.50	13.83	-48.0	-50.4	14.3	0.00e+00	0	53	0	230686720	58	4831
2026-01-04 03:00:26.18	25.08	14.17	-47.6	-49.8	14.9	0.00e+00	0	53	0	238026752	58	4510
2026-01-04 03:00:30.14	24.65	14.52	-47.5	-49.6	15.2	0.00e+00	0	53	0	245366784	57	4657
2026-01-04 03:00:34.08	24.21	14.87	-47.5	-49.6	15.1	0.00e+00	0	53	0	253755392	57	4672
2026-01-04 03:00:38.04	23.76	15.23	-47.8	-50.0	14.7	0.00e+00	0	53	0	261095424	57	4897
2026-01-04 03:00:42.01	23.29	15.58	-47.8	-50.0	14.8	0.00e+00	0	53	0	268435456	57	4872
2026-01-04 03:00:45.96	22.82	15.95	-47.6	-49.7	15.0	0.00e+00	0	54	0	275775488	57	4752
2026-01-04 03:00:49.93	22.33	16.31	-47.6	-49.8	14.9	0.00e+00	0	54	0	283115520	57	4790
2026-01-04 03:00:53.88	21.83	16.68	-47.4	-49.4	15.3	0.00e+00	0	54	0	290455552	57	4587
2026-01-04 03:00:57.84	21.32	17.05	-47.6	-49.7	15.0	0.00e+00	0	54	0	297795584	57	4756
2026-01-04 03:01:01.80	20.79	17.43	-47.6	-49.7	15.1	0.00e+00	0	54	0	305135616	57	4710
2026-01-04 03:01:05.75	20.25	17.80	-47.4	-49.5	15.3	0.00e+00	0	54	0	312475648	57	4600
2026-01-04 03:01:09.71	19.70	18.19	-47.8	-50.0	14.8	0.00e+00	0	54	0	319815680	57	4923
2026-01-04 03:01:13.67	19.13	18.57	-48.0	-50.4	14.4	1.50e-06	0	54	0	327155712	57	5128
2026-01-04 03:01:17.64	18.54	18.96	-48.2	-50.6	14.2	2.20e-06	0	54	0	334495744	58	4962
2026-01-04 03:01:21.61	17.94	19.35	-48.1	-50.5	14.3	1.50e-06	0	54	0	341835776	58	4890
2026-01-04 03:01:25.57	17.33	19.74	-48.1	-50.5	14.3	1.50e-06	0	54	0	350224384	58	4894
2026-01-04 03:01:29.52	16.70	20.14	-47.8	-50.0	14.9	0.00e+00	0	54	0	357564416	58	4605
2026-01-04 03:01:33.47	16.05	20.53	-47.7	-49.8	15.0	0.00e+00	0	55	0	364904448	58	4532
2026-01-04 03:01:37.43	15.39	20.94	-47.6	-49.7	15.3	0.00e+00	0	55	0	372244480	58	4454
2026-01-04 03:01:41.40	14.70	21.34	-47.8	-50.0	14.8	7.00e-07	0	54	0	379584512	57	4905
2026-01-04 03:01:45.36	14.00	21.74	-47.9	-50.2	14.7	0.00e+00	0	54	0	386924544	58	4723
2026-01-04 03:01:49.31	13.28	22.15	-47.8	-50.0	14.8	7.00e-07	0	55	0	394264576	58	4649
2026-01-04 03:01:53.28	12.54	22.56	-48.4	-50.9	13.9	2.20e-06	0	55	0	401604608	58	5159
2026-01-04 03:01:57.23	11.78	22.97	-48.3	-50.9	13.9	3.00e-06	0	55	0	408944640	59	4818
2026-01-04 03:02:01.18	11.01	23.38	-48.0	-50.4	14.3	3.00e-06	0	55	0	416284672	59	4581
2026-01-04 03:02:05.15	10.20	23.79	-47.7	-50.2	14.0	1.50e-06	0	55	0	423624704	58	4749
2026-01-04 03:02:09.11	9.38	24.20	-49.0	-53.2	10.3	1.59e-03	0	55	0	430964736	59	6284
2026-01-04 03:02:13.08	8.53	24.61	-49.6	-55.7	7.6	8.57e-02	0	55	0	439353344	61	7480
2026-01-04 03:02:17.03	7.67	25.02	-48.8	-52.3	11.8	8.28e-04	0	55	0	446693376	60	5378
2026-01-04 03:02:20.99	6.78	25.43	-48.1	-50.5	14.2	1.50e-06	0	55	0	454033408	58	4914
2026-01-04 03:02:24.95	5.86	25.83	-48.4	-51.1	13.6	7.60e-06	0	55	0	461373440	58	5260
2026-01-04 03:02:28.91	4.92	26.24	-48.7	-52.1	11.9	1.46e-04	0	55	0	468713472	59	5534
2026-01-04 03:02:32.86	3.96	26.64	-49.8	-54.8	9.0	3.16e-02	0	55	0	476053504	61	6783
2026-01-04 03:02:36.82	2.97	27.04	-48.0	-50.4	14.5	1.50e-06	0	55	0	483393536	59	4584
2026-01-04 03:02:40.76	1.97	27.43	-47.6	-49.7	15.3	0.00e+00	0	55	0	490733568	57	4729
2026-01-04 03:02:44.71	0.93	27.82	-47.6	-49.7	15.2	0.00e+00	0	55	0	498073600	57	4720
2026-01-04 03:02:48.69	359.86	28.21	-48.6	-51.2	13.7	4.50e-06	0	56	0	505413632	59	5027
2026-01-04 03:02:52.64	358.77	28.59	-48.5	-51.2	13.8	7.00e-07	0	56	0	512753664	59	4993
2026-01-04 03:02:56.59	357.66	28.96	-49.0	-52.1	12.8	7.55e-05	0	56	0	520093696	60	5250
2026-01-04 03:03:00.55	356.52	29.33	-48.5	-51.3	13.7	6.10e-06	0	56	0	527433728	60	4780
2026-01-04 03:03:04.51	355.35	29.68	-49.3	-52.8	12.1	6.94e-05	0	56	0	534773760	60	5685
2026-01-04 03:03:08.48	354.15	30.03	-49.0	-52.2	12.8	9.61e-05	0	56	0	543162368	60	5294
2026-01-04 03:03:12.43	352.93	30.37	-50.1	-54.5	10.4	1.42e-02	0	56	0	550502400	62	6136
2026-01-04 03:03:16.39	351.69	30.69	-49.8	-53.9	10.9	1.20e-03	0	56	0	557842432	62	5757
2026-01-04 03:03:20.34	350.42	31.00	-49.2	-52.4	12.5	5.87e-05	0	56	0	565182464	61	5131
2026-01-04 03:03:24.30	349.12	31.30	-49.4	-53.0	11.8	4.24e-04	0	56	0	572522496	60	5851
2026-01-04 03:03:28.25	347.81	31.59	-49.2	-52.9	12.0	4.98e-04	0	56	0	579862528	60	5731
2026-01-04 03:03:32.20	346.47	31.86	-48.7	-51.8	12.9	5.26e-05	0	56	0	587202560	60	5081
2026-01-04 03:03:36.16	345.10	32.12	-48.6	-51.3	13.6	6.10e-06	0	56	0	594542592	59	5085
2026-01-04 03:03:40.11	343.72	32.36	-48.7	-51.5	13.4	9.10e-06	0	56	0	601882624	59	5208
2026-01-04 03:03:44.07	342.31	32.58	-48.5	-51.2	13.7	1.06e-05	0	56	0	609222656	59	5026
2026-01-04 03:03:48.02	340.89	32.78	-47.5	-49.7	15.2	0.00e+00	0	56	0	616562688	58	4446
2026-01-04 03:03:51.97	339.45	32.96	-48.9	-52.0	12.9	1.83e-05	0	56	0	623902720	59	5508
2026-01-04 03:03:55.93	337.99	33.13	-47.4	-49.4	15.5	0.00e+00	0	56	0	631242752	58	4313
2026-01-04 03:03:59.88	336.53	33.27	-47.7	-49.8	15.1	0.00e+00	0	56	0	639631360	57	4791
2026-01-04 03:04:03.85	335.04	33.40	-48.2	-50.5	14.4	0.00e+00	0	56	0	646971392	58	4915
2026-01-04 03:04:07.82	333.54	33.50	-48.5	-51.2	13.7	1.67e-05	0	56	0	654311424	60	4718
2026-01-04 03:04:11.77	332.04	33.58	-48.0	-50.3	14.7	7.00e-07	0	56	0	661651456	58	4793
2026-01-04 03:04:15.72	330.53	33.63	-47.9	-50.0	15.0	0.00e+00	0	56	0	668991488	58	4611
2026-01-04 03:04:19.69	329.02	33.67	-48.2	-50.6	14.5	0.00e+00	0	56	0	676331520	58	4937
2026-01-04 03:04:23.64	327.50	33.68	-49.8	-53.7	11.2	3.84e-04	0	56	0	683671552	61	5969
2026-01-04 03:04:27.60	325.99	33.67	-48.6	-51.4	13.7	8.30e-06	0	56	0	691011584	60	4831
2026-01-04 03:04:31.53	324.49	33.64	-48.4	-50.9	14.2	3.00e-06	0	56	0	698351616	59	4842
2026-01-04 03:04:35.49	322.98	33.58	-48.5	-51.2	13.8	1.50e-06	0	56	0	705691648	59	5008
2026-01-04 03:04:39.44	321.48	33.50	-48.5	-51.2	13.7	2.21e-05	0	56	0	713031680	60	4721
2026-01-04 03:04:43.40	319.98	33.40	-49.2	-52.5	12.5	3.12e-05	0	57	0	720371712	60	5524
2026-01-04 03:04:47.36	318.50	33.28	-48.7	-51.6	13.4	2.74e-05	0	56	0	727711744	60	4958
2026-01-04 03:04:51.31	317.03	33.13	-48.6	-51.3	13.7	3.80e-06	0	56	0	735051776	59	5075
2026-01-04 03:04:55.27	315.57	32.97	-48.0	-50.4	14.6	0.00e+00	0	56	0	743440384	58	4822
2026-01-04 03:04:59.23	314.12	32.79	-48.6	-51.3	13.7	3.00e-06	0	56	0	750780416	59	5081
2026-01-04 03:05:03.20	312.69	32.58	-48.6	-51.3	13.6	1.29e-05	0	56	0	758120448	59	5075
2026-01-04 03:05:07.16	311.28	32.36	-48.1	-50.5	14.5	0.00e+00	0	56	0	765460480	58	4880
2026-01-04 03:05:11.12	309.90	32.12	-47.6	-49.7	15.3	0.00e+00	0	56	0	772800512	58	4456
2026-01-04 03:05:15.07	308.53	31.87	-48.4	-51.0	14.0	0.00e+00	0	56	0	780140544	58	5165
2026-01-04 03:05:19.03	307.19	31.60	-48.1	-50.5	14.5	0.00e+00	0	56	0	787480576	58	4888
2026-01-04 03:05:22.99	305.87	31.31	-48.9	-51.9	13.0	1.90e-05	0	56	0	794820608	59	5448
2026-01-04 03:05:26.95	304.57	31.01	-49.2	-52.6	12.3	7.93e-05	0	57	0	802160640	60	5559
2026-01-04 03:05:30.89	303.30	30.70	-48.8	-51.7	13.3	7.60e-06	0	57	0	809500672	60	5007
2026-01-04 03:05:34.85	302.05	30.37	-48.4	-51.1	13.9	6.80e-06	0	57	0	816840704	59	4933
2026-01-04 03:05:38.81	300.83	30.03	-47.9	-50.2	14.8	0.00e+00	0	57	0	824180736	58	4707
2026-01-04 03:05:42.76	299.64	29.69	-46.5	-48.1	16.7	0.00e+00	0	57	0	831520768	56	4184
2026-01-04 03:05:46.71	298.47	29.33	-47.6	-49.8	15.1	0.00e+00	0	56	0	839909376	57	4805
2026-01-04 03:05:50.68	297.32	28.96	-48.2	-50.8	14.1	8.30e-06	0	57	0	847249408	59	4801
2026-01-04 03:05:54.65	296.20	28.59	-48.8	-51.7	13.2	3.80e-06	0	57	0	854589440	59	5321
2026-01-04 03:05:58.61	295.10	28.21	-49.6	-53.5	11.4	1.04e-03	0	57	0	861929472	61	5790
2026-01-04 03:06:02.57	294.04	27.83	-49.2	-52.6	12.5	1.23e-04	0	57	0	869269504	61	5219
2026-01-04 03:06:06.52	293.00	27.43	-48.8	-51.6	13.4	1.29e-05	0	57	0	876609536	59	5247
2026-01-04 03:06:10.49	291.98	27.04	-47.1	-48.8	16.1	0.00e+00	0	57	0	883949568	57	4282
2026-01-04 03:06:14.44	290.99	26.64	-47.1	-49.0	16.0	0.00e+00	0	57	0	891289600	56	4602
2026-01-04 03:06:18.41	290.03	26.23	-47.6	-49.7	15.2	0.00e+00	0	57	0	898629632	57	4734
2026-01-04 03:06:22.39	289.08	25.83	-47.4	-49.5	15.4	0.00e+00	0	57	0	905969664	57	4599
2026-01-04 03:06:26.35	288.16	25.42	-47.9	-50.2	14.8	0.00e+00	0	57	0	913309696	57	4997
2026-01-04 03:06:30.30	287.27	25.01	-47.3	-49.2	15.7	0.00e+00	0	57	0	920649728	57	4474
2026-01-04 03:06:34.27	286.40	24.60	-46.5	-48.2	16.6	0.00e+00	0	57	0	929038336	56	4209
2026-01-04 03:06:38.23	285.56	24.19	-47.4	-49.5	15.3	0.00e+00	0	57	0	936378368	56	4886
2026-01-04 03:06:42.19	284.73	23.78	-47.4	-49.4	15.3	7.00e-07	0	57	0	943718400	58	4301
2026-01-04 03:06:46.17	283.92	23.36	-47.0	-49.0	15.8	0.00e+00	0	57	0	951058432	56	4602
2026-01-04 03:06:50.13	283.14	22.95	-47.0	-48.9	16.0	0.00e+00	0	57	0	958398464	56	4556
2026-01-04 03:06:54.08	282.38	22.54	-47.3	-49.3	15.6	0.00e+00	0	57	0	965738496	56	4775
2026-01-04 03:06:58.03	281.64	22.14	-46.1	-47.7	17.1	0.00e+00	0	57	0	973078528	55	4196
2026-01-04 03:07:01.98	280.92	21.73	-46.6	-48.3	16.5	0.00e+00	0	57	0	980418560	55	4505
2026-01-04 03:07:05.94	280.22	21.32	-46.8	-48.6	16.2	0.00e+00	0	57	0	987758592	55	4676
2026-01-04 03:07:09.91	279.53	20.92	-46.8	-48.6	16.2	0.00e+00	0	57	0	995098624	55	4659
2026-01-04 03:07:13.88	278.86	20.52	-46.6	-48.2	16.6	0.00e+00	0	57	0	1002438656	55	4477
2026-01-04 03:07:17.84	278.21	20.12	-47.4	-49.4	15.5	0.00e+00	0	57	0	1009778688	56	4868
2026-01-04 03:07:21.80	277.58	19.72	-48.0	-50.3	14.7	0.00e+00	0	57	0	1018167296	58	4767
2026-01-04 03:07:25.76	276.96	19.33	-47.0	-48.9	16.0	0.00e+00	0	57	0	1025507328	57	4303
2026-01-04 03:07:29.71	276.36	18.94	-47.2	-49.0	15.8	0.00e+00	0	57	0	1032847360	56	4649
2026-01-04 03:07:33.67	275.78	18.55	-47.4	-49.3	15.5	0.00e+00	0	57	0	1040187392	56	4813
2026-01-04 03:07:37.65	275.21	18.16	-46.9	-48.7	16.2	0.00e+00	0	57	0	1047527424	56	4446
2026-01-04 03:07:41.60	274.65	17.78	-47.1	-49.0	15.9	0.00e+00	0	57	0	1054867456	56	4630
2026-01-04 03:07:45.55	274.11	17.40	-47.3	-49.3	15.6	0.00e+00	0	57	0	1062207488	56	4770
2026-01-04 03:07:49.51	273.58	17.03	-47.1	-49.0	15.9	0.00e+00	0	57	0	1069547520	57	4348
2026-01-04 03:07:53.47	273.07	16.65	-46.8	-48.5	16.3	0.00e+00	0	57	0	1076887552	56	4387
2026-01-04 03:07:57.44	272.57	16.28	-47.1	-49.0	15.8	0.00e+00	0	57	0	1084227584	56	4604
2026-01-04 03:08:01.39	272.08	15.92	-48.1	-50.5	14.3	7.00e-07	0	57	0	1091567616	58	4918
2026-01-04 03:08:05.35	271.60	15.56	-48.4	-51.0	13.8	4.50e-06	0	57	0	1098907648	59	4883
2026-01-04 03:08:09.31	271.14	15.20	-47.8	-49.8	15.0	7.00e-07	0	57	0	1106247680	58	4538
2026-01-04 03:08:13.28	270.68	14.84	-47.8	-50.0	14.9	0.00e+00	0	57	0	1114636288	57	4876
2026-01-04 03:08:17.23	270.24	14.49	-48.6	-51.3	13.6	4.50e-06	0	57	0	1121976320	59	5065
2026-01-04 03:08:21.20	269.80	14.14	-49.2	-52.5	12.4	2.09e-04	0	57	0	1129316352	60	5466
2026-01-04 03:08:25.18	269.38	13.79	-49.1	-52.2	12.6	2.24e-04	0	57	0	1136656384	60	5315
2026-01-04 03:08:29.12	268.97	13.45	-48.6	-51.4	13.4	1.06e-05	0	57	0	1143996416	60	4847
2026-01-04 03:08:33.06	268.57	13.11	-48.5	-51.1	13.6	1.37e-05	0	57	0	1151336448	60	4690
2026-01-04 03:08:37.02	268.17	12.78	-48.7	-51.5	13.3	1.22e-05	0	57	0	1158676480	59	5166
2026-01-04 03:08:40.97	267.79	12.44	-48.9	-51.7	13.0	1.83e-05	0	57	0	1166016512	59	5324
2026-01-04 03:08:44.93	267.42	12.11	-48.7	-51.5	13.2	2.13e-05	0	57	0	1173356544	59	5187
2026-01-04 03:08:48.89	267.05	11.79	-48.1	-50.4	14.3	3.00e-06	0	57	0	1180696576	59	4593
2026-01-04 03:08:52.86	266.69	11.46	-48.0	-50.3	14.5	0.00e+00	0	57	0	1188036608	58	4804
2026-01-04 03:08:56.81	266.34	11.14	-47.5	-49.6	15.1	0.00e+00	0	57	0	1195376640	58	4418
2026-01-04 03:09:00.76	266.00	10.83	-48.3	-50.8	13.9	7.00e-07	0	57	0	1202716672	58	5070
2026-01-04 03:09:04.72	265.66	10.51	-48.9	-51.9	12.8	7.40e-05	0	57	0	1211105280	59	5431
2026-01-04 03:09:08.68	265.33	10.20	-49.1	-52.5	12.2	2.39e-04	0	57	0	1218445312	60	5465
2026-01-04 03:09:12.63	265.01	9.90	-49.2	-52.6	12.0	4.99e-04	0	57	0	1225785344	60	5564
2026-01-04 03:09:16.59	264.70	9.59	-49.1	-52.4	12.2	1.84e-04	0	57	0	1233125376	60	5421
2026-01-04 03:09:20.55	264.39	9.29	-48.8	-51.9	12.6	1.30e-04	0	57	0	1240465408	60	5128
2026-01-04 03:09:24.51	264.09	8.99	-48.6	-51.5	13.0	5.56e-05	0	57	0	1247805440	60	4882
2026-01-04 03:09:28.46	263.80	8.69	-48.4	-51.1	13.4	1.06e-05	0	57	0	1255145472	59	4965
2026-01-04 03:09:32.41	263.51	8.40	-48.3	-51.0	13.5	7.60e-06	0	57	0	1262485504	59	4879
2026-01-04 03:09:36.38	263.22	8.11	-48.7	-51.8	12.7	8.16e-05	0	57	0	1269825536	59	5354
2026-01-04 03:09:40.35	262.95	7.82	-49.0	-52.3	12.1	2.25e-04	0	57	0	1277165568	60	5387
2026-01-04 03:09:44.31	262.68	7.53	-49.3	-53.0	11.4	5.58e-04	0	57	0	1284505600	60	5801
2026-01-04 03:09:48.26	262.41	7.25	-49.6	-53.8	10.5	3.08e-03	0	57	0	1291845632	61	6030
2026-01-04 03:09:52.22	262.15	6.97	-49.6	-53.8	10.5	3.99e-03	0	57	0	1299185664	61	6004
2026-01-04 03:09:56.17	261.90	6.69	-49.6	-53.6	10.6	3.67e-03	0	57	0	1307574272	61	5911
2026-01-04 03:10:00.13	261.65	6.42	-49.2	-52.9	11.3	1.37e-03	0	57	0	1314914304	61	5456
2026-01-04 03:10:04.08	261.40	6.14	-49.5	-53.5	10.7	1.93e-03	0	57	0	1322254336	61	5797
2026-01-04 03:10:08.05	261.16	5.87	-49.7	-54.2	10.0	8.69e-03	0	57	0	1329594368	61	6279
2026-01-04 03:10:12.01	260.93	5.60	-49.8	-54.6	9.4	1.40e-02	0	57	0	1336934400	61	6637
2026-01-04 03:10:15.98	260.69	5.33	-49.6	-54.0	10.1	5.76e-03	0	57	0	1344274432	61	6186
2026-01-04 03:10:19.93	260.47	5.07	-51.1	-57.8	7.0	1.41e-02	0	57	0	1351614464	63	8539
2026-01-04 03:10:23.90	260.24	4.81	-52.0	-65.8	3.8	1.49e+00	0	57	104	1351614464	65	19115
2026-01-04 03:10:27.87	260.03	4.55	-52.3	-66.1	3.8	1.49e+00	0	57	104	1351614464	66	18581
2026-01-04 03:10:31.83	259.81	4.29	-52.4	-66.2	3.8	1.49e+00	0	57	104	1351614464	66	18913
2026-01-04 03:10:35.78	259.60	4.03	-52.5	-66.4	3.8	1.49e+00	0	57	104	1351614464	66	19179
2026-01-04 03:10:39.75	259.39	3.78	-52.5	-66.4	3.8	1.49e+00	0	57	104	1351614464	66	19201
2026-01-04 03:10:43.71	259.19	3.53	-52.5	-66.4	3.8	1.49e+00	0	57	104	1351614464	67	18151
2026-01-04 03:10:47.68	258.99	3.28	-52.5	-66.4	3.8	1.49e+00	0	57	104	1351614464	67	18201
2026-01-04 03:10:51.63	258.80	3.03	-52.6	-66.4	3.8	1.49e+00	0	57	104	1351614464	67	18146

#Closed at: 2026-01-04 03:10:55
#Recorded file [1351 MB]: D:/Data/31026_260104_061020.dat