passes_logs/2026/01/04/R3.0SM8_Murmansk_STILSPACE/R3.0SM8_Murmansk_STILSPACE__20260104_113153_AQUA_rec.log

#Pass ID: 20260104_113153_AQUA
#Satellite: AQUA
#Configuration: AQUA
#almurnet v.1.7.20240730
#Start time: 2026-01-04 11:31:54

#Version: 2.2.20231116
#Station: R3.0SM8_Murmansk_STILSPACE
#Location: 33.092731 lon 68.902999 lat
#TLE: 1 27424U 02022A   25365.92641127  .00002078  00000+0  42628-3 0  9999
#TLE: 2 27424  98.4058 327.1196 0001962  94.7781 340.6230 14.61783896258835

#Time	Az	El	Level	Level2	SNR	BER	BlckErr	Temp	State	Recorded	gain1	gain2
2026-01-04 11:31:54.48	159.29	3.04	-54.3	-74.3	3.8	7.44e-01	0	50	0	0	71	36548
2026-01-04 11:31:57.44	159.33	3.25	-54.0	-73.9	3.8	7.45e-01	0	50	104	0	70	37021
2026-01-04 11:32:00.42	159.36	3.45	-53.0	-72.6	3.8	7.44e-01	0	51	104	0	69	33819
2026-01-04 11:32:03.39	159.40	3.66	-50.2	-69.8	3.8	7.45e-01	0	51	104	0	63	34488
2026-01-04 11:32:06.39	159.43	3.88	-50.2	-68.3	3.8	7.43e-01	0	51	104	0	63	29128
2026-01-04 11:32:09.36	159.47	4.09	-50.1	-64.8	4.2	7.16e-01	0	51	104	0	63	19537
2026-01-04 11:32:12.33	159.50	4.31	-50.0	-62.8	6.0	6.83e-01	91	51	0	1572864	63	15453
2026-01-04 11:32:15.30	159.54	4.52	-50.0	-62.0	6.7	6.69e-01	91	51	0	6815744	63	14110
2026-01-04 11:32:18.27	159.58	4.74	-50.0	-62.9	6.0	6.83e-01	91	52	0	12058624	63	15634
2026-01-04 11:32:21.25	159.62	4.97	-50.0	-63.1	5.8	6.90e-01	72	52	0	16252928	63	16092
2026-01-04 11:32:24.21	159.66	5.19	-49.9	-60.8	7.8	6.50e-01	90	52	0	2621440	63	12335
2026-01-04 11:32:27.19	159.69	5.41	-49.6	-57.5	11.5	6.14e-01	0	52	0	8388608	62	8884
2026-01-04 11:32:30.12	159.73	5.64	-49.4	-56.1	13.0	6.09e-01	0	52	0	13631488	62	7582
2026-01-04 11:32:33.11	159.77	5.87	-49.4	-55.4	14.1	6.08e-01	0	52	0	19398656	62	6981
2026-01-04 11:32:36.08	159.81	6.10	-49.9	-56.6	13.2	6.09e-01	0	52	0	25165824	62	8072
2026-01-04 11:32:39.05	159.85	6.34	-50.3	-56.7	13.4	6.10e-01	0	52	0	30408704	62	8123
2026-01-04 11:32:42.02	159.90	6.57	-49.5	-53.2	17.8	6.06e-01	0	53	0	36175872	62	5429
2026-01-04 11:32:44.99	159.94	6.81	-49.0	-51.7	19.9	6.06e-01	0	53	0	41418752	61	4865
2026-01-04 11:32:47.96	159.98	7.06	-49.7	-52.8	19.1	6.06e-01	0	53	0	47185920	61	5493
2026-01-04 11:32:50.93	160.02	7.30	-48.9	-51.5	20.5	6.06e-01	0	53	0	52953088	61	4707
2026-01-04 11:32:53.90	160.07	7.55	-49.2	-51.8	20.3	6.07e-01	0	53	0	58195968	61	4909
2026-01-04 11:32:56.87	160.11	7.80	-48.8	-51.1	21.1	6.06e-01	0	53	0	63963136	61	4537
2026-01-04 11:32:59.83	160.16	8.05	-48.9	-51.3	21.0	6.07e-01	0	53	0	69730304	61	4601
2026-01-04 11:33:02.81	160.20	8.30	-49.0	-51.5	20.8	6.07e-01	0	53	0	74973184	61	4720
2026-01-04 11:33:05.78	160.25	8.56	-48.9	-51.2	21.1	6.05e-01	0	53	0	80740352	61	4577
2026-01-04 11:33:08.75	160.30	8.82	-48.8	-51.1	21.2	6.06e-01	0	53	0	85983232	61	4534
2026-01-04 11:33:11.71	160.34	9.09	-48.8	-51.0	21.3	6.06e-01	0	53	0	91750400	61	4493
2026-01-04 11:33:14.69	160.39	9.36	-48.9	-51.3	21.1	6.09e-01	0	54	0	97517568	61	4615
2026-01-04 11:33:17.67	160.44	9.63	-49.0	-51.3	21.1	6.07e-01	0	54	0	102760448	61	4630
2026-01-04 11:33:20.63	160.49	9.90	-48.9	-51.2	21.3	6.08e-01	0	53	0	108527616	61	4557
2026-01-04 11:33:23.61	160.54	10.18	-48.9	-51.1	21.4	6.09e-01	0	54	0	114294784	61	4526
2026-01-04 11:33:26.58	160.59	10.46	-48.7	-50.9	21.6	6.05e-01	0	54	0	119537664	61	4417
2026-01-04 11:33:29.55	160.65	10.74	-48.2	-50.2	22.3	6.05e-01	0	54	0	125304832	60	4326
2026-01-04 11:33:32.51	160.70	11.03	-48.3	-50.3	22.2	6.06e-01	0	54	0	130547712	60	4381
2026-01-04 11:33:35.48	160.76	11.32	-48.2	-50.1	22.4	6.06e-01	0	54	0	136314880	60	4276
2026-01-04 11:33:38.45	160.81	11.62	-48.6	-50.6	22.3	6.07e-01	0	54	0	142082048	59	4769
2026-01-04 11:33:41.41	160.87	11.92	-48.6	-50.5	22.4	6.04e-01	0	54	0	147324928	59	4754
2026-01-04 11:33:44.38	160.92	12.22	-48.8	-50.9	22.0	6.07e-01	0	54	0	153092096	59	4956
2026-01-04 11:33:47.35	160.98	12.53	-48.7	-50.8	21.8	6.05e-01	0	54	0	158334976	60	4628
2026-01-04 11:33:50.32	161.04	12.84	-48.5	-50.6	22.1	6.08e-01	0	54	0	164102144	60	4497
2026-01-04 11:33:53.29	161.10	13.16	-48.5	-50.4	22.2	6.07e-01	0	54	0	169869312	60	4441
2026-01-04 11:33:56.26	161.16	13.48	-48.3	-50.3	22.4	6.06e-01	0	54	0	175112192	60	4344
2026-01-04 11:33:59.24	161.23	13.81	-48.5	-50.6	22.1	6.05e-01	0	54	0	180879360	60	4494
2026-01-04 11:34:02.21	161.29	14.14	-48.7	-50.7	22.0	6.05e-01	0	54	0	186646528	60	4581
2026-01-04 11:34:05.18	161.36	14.48	-48.3	-50.2	22.5	6.05e-01	0	55	0	191889408	60	4317
2026-01-04 11:34:08.17	161.43	14.82	-48.2	-50.1	22.6	6.06e-01	0	54	0	197656576	60	4261
2026-01-04 11:34:11.13	161.49	15.17	-48.4	-50.2	22.8	6.07e-01	0	55	0	203423744	59	4596
2026-01-04 11:34:14.10	161.56	15.52	-48.3	-50.2	22.9	6.07e-01	0	55	0	208666624	59	4549
2026-01-04 11:34:17.08	161.63	15.88	-48.3	-50.1	23.0	6.06e-01	0	55	0	214433792	59	4542
2026-01-04 11:34:20.06	161.71	16.25	-48.4	-50.2	22.9	6.05e-01	0	55	0	219676672	59	4583
2026-01-04 11:34:23.04	161.78	16.62	-48.7	-50.6	22.5	6.09e-01	0	55	0	225443840	59	4801
2026-01-04 11:34:26.02	161.86	17.00	-48.2	-49.9	23.2	6.07e-01	0	55	0	231211008	59	4434
2026-01-04 11:34:28.98	161.94	17.38	-48.1	-49.8	23.3	6.08e-01	0	55	0	236453888	59	4364
2026-01-04 11:34:31.95	162.02	17.77	-48.1	-49.8	23.3	6.06e-01	0	55	0	242221056	59	4364
2026-01-04 11:34:34.93	162.10	18.17	-48.2	-50.0	23.2	6.05e-01	0	55	0	247988224	59	4453
2026-01-04 11:34:37.89	162.18	18.57	-48.5	-50.3	22.9	6.08e-01	0	55	0	253231104	59	4625
2026-01-04 11:34:40.87	162.27	18.98	-48.4	-50.2	23.0	6.05e-01	0	55	0	258998272	59	4592
2026-01-04 11:34:43.85	162.36	19.40	-48.6	-50.5	22.8	6.06e-01	0	55	0	264765440	59	4717
2026-01-04 11:34:46.81	162.45	19.83	-48.3	-50.0	23.2	6.05e-01	0	55	0	270008320	59	4484
2026-01-04 11:34:49.80	162.54	20.27	-48.3	-50.1	23.1	6.06e-01	0	55	0	275775488	59	4528
2026-01-04 11:34:52.79	162.64	20.71	-48.5	-50.3	23.0	6.07e-01	0	55	0	281542656	59	4604
2026-01-04 11:34:55.76	162.73	21.16	-48.6	-50.5	22.8	6.08e-01	0	55	0	286785536	59	4738
2026-01-04 11:34:58.74	162.84	21.63	-48.7	-50.7	22.6	6.07e-01	0	55	0	292552704	59	4824
2026-01-04 11:35:01.72	162.94	22.10	-48.8	-50.7	22.5	6.07e-01	0	55	0	297795584	59	4865
2026-01-04 11:35:04.67	163.04	22.57	-48.5	-50.3	23.0	6.06e-01	0	55	0	303562752	59	4604
2026-01-04 11:35:07.64	163.15	23.06	-48.5	-50.3	23.0	6.05e-01	0	55	0	309329920	59	4647
2026-01-04 11:35:10.61	163.27	23.56	-48.4	-50.2	23.1	6.04e-01	0	56	0	314572800	59	4579
2026-01-04 11:35:13.57	163.38	24.07	-48.5	-50.4	23.0	6.06e-01	0	55	0	320339968	59	4654
2026-01-04 11:35:16.53	163.50	24.59	-48.4	-50.3	22.7	6.07e-01	0	55	0	325582848	60	4361
2026-01-04 11:35:19.50	163.63	25.13	-48.6	-50.4	23.0	6.07e-01	0	55	0	331350016	59	4675
2026-01-04 11:35:22.48	163.76	25.67	-48.6	-50.5	22.9	6.07e-01	0	56	0	337117184	59	4731
2026-01-04 11:35:25.46	163.89	26.23	-48.5	-50.3	23.0	6.07e-01	0	56	0	342360064	59	4629
2026-01-04 11:35:28.42	164.02	26.80	-48.3	-50.1	23.3	6.06e-01	0	56	0	348127232	59	4513
2026-01-04 11:35:31.37	164.17	27.38	-48.4	-50.1	23.2	6.10e-01	0	56	0	353370112	59	4535
2026-01-04 11:35:34.33	164.31	27.97	-48.0	-49.6	23.7	6.07e-01	0	56	0	359137280	59	4288
2026-01-04 11:35:37.30	164.46	28.58	-48.0	-49.6	23.7	6.04e-01	0	56	0	364904448	59	4282
2026-01-04 11:35:40.26	164.62	29.20	-47.9	-49.6	23.8	6.05e-01	0	56	0	370147328	59	4245
2026-01-04 11:35:43.24	164.78	29.84	-48.1	-49.8	23.6	6.06e-01	0	56	0	375914496	59	4355
2026-01-04 11:35:46.20	164.95	30.49	-48.2	-49.9	23.5	6.08e-01	0	56	0	381681664	59	4400
2026-01-04 11:35:49.16	165.13	31.16	-48.2	-49.9	23.5	6.05e-01	0	56	0	386924544	59	4423
2026-01-04 11:35:52.14	165.32	31.85	-48.1	-49.7	23.7	6.04e-01	0	56	0	392691712	59	4318
2026-01-04 11:35:55.12	165.51	32.56	-48.3	-50.0	23.4	6.06e-01	0	56	0	397934592	59	4455
2026-01-04 11:35:58.10	165.71	33.28	-48.5	-50.3	23.1	6.07e-01	0	56	0	403701760	59	4640
2026-01-04 11:36:01.07	165.92	34.02	-48.6	-50.5	23.0	6.04e-01	0	56	0	409468928	59	4715
2026-01-04 11:36:04.03	166.14	34.78	-49.0	-51.1	22.1	6.05e-01	0	56	0	414711808	60	4769
2026-01-04 11:36:06.99	166.36	35.56	-48.8	-50.7	22.5	6.05e-01	0	56	0	420478976	60	4575
2026-01-04 11:36:09.96	166.60	36.35	-49.1	-51.2	22.0	6.05e-01	0	56	0	425721856	60	4841
2026-01-04 11:36:12.93	166.86	37.17	-49.5	-51.7	21.4	6.07e-01	0	56	0	431489024	61	4868
2026-01-04 11:36:15.91	167.12	38.02	-49.9	-52.3	20.9	6.05e-01	0	56	0	437256192	61	5198
2026-01-04 11:36:18.87	167.40	38.88	-49.9	-52.3	20.9	6.06e-01	0	56	0	442499072	62	4886
2026-01-04 11:36:21.84	167.69	39.77	-50.1	-52.7	20.6	6.06e-01	0	56	0	448266240	62	5112
2026-01-04 11:36:24.80	168.00	40.67	-49.3	-51.5	21.7	6.06e-01	0	56	0	454033408	62	4459
2026-01-04 11:36:27.76	168.33	41.60	-48.9	-50.9	22.3	6.04e-01	0	56	0	459276288	61	4425
2026-01-04 11:36:30.73	168.68	42.56	-48.4	-50.3	22.9	6.05e-01	0	56	0	465043456	60	4350
2026-01-04 11:36:33.70	169.04	43.54	-48.6	-50.5	22.6	6.07e-01	0	56	0	470286336	60	4487
2026-01-04 11:36:36.67	169.44	44.55	-48.4	-50.1	23.5	6.07e-01	0	56	0	476053504	59	4502
2026-01-04 11:36:39.64	169.85	45.59	-48.4	-50.1	23.5	6.05e-01	0	56	0	481820672	59	4508
2026-01-04 11:36:42.60	170.30	46.65	-48.4	-50.1	23.4	6.07e-01	0	56	0	487063552	59	4533
2026-01-04 11:36:45.56	170.77	47.74	-48.4	-50.1	23.4	6.06e-01	0	56	0	492830720	59	4538
2026-01-04 11:36:48.53	171.28	48.85	-48.3	-50.0	23.5	6.06e-01	0	56	0	498073600	59	4465
2026-01-04 11:36:51.51	171.83	50.00	-48.1	-49.7	23.8	6.08e-01	0	56	0	503840768	59	4299
2026-01-04 11:36:54.47	172.42	51.17	-47.9	-49.5	24.0	6.05e-01	0	56	0	509607936	59	4200
2026-01-04 11:36:57.44	173.06	52.37	-47.8	-49.3	24.2	6.05e-01	0	56	0	514850816	58	4370
2026-01-04 11:37:00.41	173.76	53.60	-47.4	-48.8	24.6	6.05e-01	0	56	0	520617984	58	4130
2026-01-04 11:37:03.37	174.51	54.85	-48.0	-49.6	23.9	6.05e-01	0	56	0	525860864	58	4527
2026-01-04 11:37:06.34	175.34	56.13	-48.3	-50.0	23.5	6.08e-01	0	56	0	531628032	58	4745
2026-01-04 11:37:09.32	176.25	57.45	-48.5	-50.4	22.8	6.03e-01	0	56	0	537395200	60	4406
2026-01-04 11:37:12.28	177.24	58.77	-48.6	-50.5	22.8	6.03e-01	0	56	0	542638080	60	4451
2026-01-04 11:37:15.24	178.34	60.12	-49.1	-51.1	22.1	6.02e-01	0	56	0	548405248	60	4790
2026-01-04 11:37:18.21	179.57	61.50	-49.8	-52.1	21.1	6.00e-01	0	56	0	554172416	62	4811
2026-01-04 11:37:21.17	180.93	62.88	-50.2	-52.8	20.6	6.00e-01	0	56	0	559415296	62	5169
2026-01-04 11:37:24.12	182.46	64.28	-50.8	-53.9	19.3	6.03e-01	0	56	0	565182464	64	5260
2026-01-04 11:37:27.09	184.20	65.69	-51.5	-55.2	18.1	6.00e-01	0	56	0	570425344	65	5748
2026-01-04 11:37:30.04	186.16	67.10	-51.5	-55.1	18.2	6.00e-01	0	56	0	576192512	65	5695
2026-01-04 11:37:32.99	188.40	68.51	-51.6	-55.3	18.0	6.00e-01	0	56	0	581435392	65	5798
2026-01-04 11:37:35.95	190.99	69.90	-51.8	-55.7	17.5	6.01e-01	0	56	0	587202560	66	5726
2026-01-04 11:37:38.93	194.02	71.29	-51.3	-54.8	18.5	6.00e-01	0	56	0	592969728	66	5196
2026-01-04 11:37:41.90	197.54	72.63	-51.3	-54.7	18.5	6.02e-01	0	56	0	598212608	65	5427
2026-01-04 11:37:44.86	201.65	73.91	-50.7	-53.6	19.7	6.00e-01	0	56	0	603979776	64	5052
2026-01-04 11:37:47.82	206.47	75.11	-50.5	-53.3	20.1	6.00e-01	0	57	0	609222656	63	5198
2026-01-04 11:37:50.79	212.16	76.20	-50.6	-53.4	19.9	6.00e-01	0	57	0	614989824	63	5273
2026-01-04 11:37:53.76	218.78	77.15	-50.5	-53.3	19.8	6.02e-01	0	56	0	620756992	64	4915
2026-01-04 11:37:56.72	226.34	77.91	-49.9	-52.2	21.1	6.02e-01	0	56	0	625999872	63	4592
2026-01-04 11:37:59.69	234.81	78.44	-50.1	-52.6	20.8	6.04e-01	0	57	0	631767040	62	5053
2026-01-04 11:38:02.66	243.90	78.71	-50.3	-52.9	20.4	6.03e-01	0	57	0	637009920	63	4958
2026-01-04 11:38:05.62	253.17	78.70	-50.8	-53.8	19.4	6.01e-01	0	56	0	642777088	64	5196
2026-01-04 11:38:08.59	262.20	78.40	-50.4	-53.1	20.1	6.01e-01	0	56	0	648544256	64	4776
2026-01-04 11:38:11.54	270.52	77.84	-50.6	-53.5	19.8	6.01e-01	0	57	0	653787136	64	4995
2026-01-04 11:38:14.51	278.00	77.05	-50.5	-53.3	20.0	6.02e-01	0	56	0	659554304	63	5218
2026-01-04 11:38:17.48	284.50	76.08	-50.8	-53.8	19.4	5.99e-01	0	56	0	665321472	64	5198
2026-01-04 11:38:20.45	290.08	74.98	-51.0	-54.1	19.1	6.00e-01	0	56	0	670564352	64	5380
2026-01-04 11:38:23.42	294.83	73.76	-51.7	-55.5	17.7	6.01e-01	0	57	0	676331520	66	5637
2026-01-04 11:38:26.38	298.86	72.48	-51.0	-54.3	19.0	6.03e-01	0	57	0	681574400	65	5165
2026-01-04 11:38:29.33	302.29	71.14	-51.2	-54.5	18.8	6.01e-01	0	57	0	687341568	65	5298
2026-01-04 11:38:32.29	305.25	69.77	-51.3	-54.7	18.6	5.99e-01	0	57	0	693108736	65	5441
2026-01-04 11:38:35.25	307.80	68.37	-51.6	-55.4	17.8	6.01e-01	0	57	0	698351616	65	5892
2026-01-04 11:38:38.23	310.03	66.95	-50.9	-54.0	19.3	6.00e-01	0	57	0	704118784	65	5005
2026-01-04 11:38:41.22	311.99	65.53	-50.2	-52.8	20.5	6.00e-01	0	57	0	709361664	63	4903
2026-01-04 11:38:44.19	313.70	64.12	-49.8	-52.2	21.1	6.00e-01	0	56	0	715128832	63	4547
2026-01-04 11:38:47.17	315.22	62.71	-49.5	-51.8	21.6	6.03e-01	0	57	0	720896000	62	4601
2026-01-04 11:38:50.13	316.56	61.33	-49.3	-51.4	21.8	6.00e-01	0	56	0	726138880	61	4683
2026-01-04 11:38:53.09	317.77	59.97	-48.5	-50.4	22.8	6.02e-01	0	57	0	731906048	60	4405
2026-01-04 11:38:56.07	318.86	58.62	-48.5	-50.3	22.9	6.02e-01	0	57	0	737148928	60	4352
2026-01-04 11:38:59.04	319.84	57.29	-48.5	-50.3	23.2	6.03e-01	0	57	0	742916096	59	4610
2026-01-04 11:39:02.01	320.74	55.99	-48.5	-50.3	23.3	5.99e-01	0	57	0	748683264	59	4609
2026-01-04 11:39:04.98	321.55	54.71	-48.1	-49.7	23.8	6.01e-01	0	57	0	753926144	59	4307
2026-01-04 11:39:07.96	322.30	53.46	-47.9	-49.4	24.1	6.00e-01	0	57	0	759693312	59	4177
2026-01-04 11:39:10.93	322.99	52.24	-48.6	-50.4	23.1	6.02e-01	0	57	0	765460480	59	4697
2026-01-04 11:39:13.90	323.62	51.05	-48.7	-50.6	22.6	6.01e-01	0	57	0	770703360	60	4505
2026-01-04 11:39:16.88	324.21	49.88	-49.0	-51.0	22.2	6.03e-01	0	57	0	776470528	60	4717
2026-01-04 11:39:19.84	324.75	48.74	-49.1	-51.2	22.0	6.01e-01	0	57	0	782237696	60	4835
2026-01-04 11:39:22.80	325.25	47.64	-49.1	-51.1	22.1	6.04e-01	0	57	0	787480576	60	4783
2026-01-04 11:39:25.78	325.73	46.55	-49.5	-51.7	21.5	6.01e-01	0	57	0	793247744	61	4859
2026-01-04 11:39:28.75	326.17	45.49	-48.9	-50.8	22.3	6.03e-01	0	57	0	798490624	61	4376
2026-01-04 11:39:31.72	326.58	44.46	-48.9	-50.9	22.3	6.01e-01	0	57	0	804257792	61	4408
2026-01-04 11:39:34.69	326.97	43.46	-48.5	-50.4	22.7	6.02e-01	0	57	0	810024960	60	4408
2026-01-04 11:39:37.65	327.33	42.49	-48.9	-50.9	22.2	6.01e-01	0	57	0	815267840	60	4687
2026-01-04 11:39:40.63	327.68	41.53	-49.1	-51.2	21.9	6.02e-01	0	57	0	821035008	60	4860
2026-01-04 11:39:43.61	328.00	40.60	-48.9	-50.9	22.2	6.03e-01	0	57	0	826802176	60	4670
2026-01-04 11:39:46.57	328.31	39.70	-49.3	-51.5	21.6	6.00e-01	0	57	0	832045056	60	4988
2026-01-04 11:39:49.54	328.60	38.82	-49.1	-51.2	21.7	6.02e-01	0	57	0	837812224	60	4853
2026-01-04 11:39:52.51	328.88	37.96	-49.2	-51.5	21.6	6.02e-01	0	57	0	843055104	60	4996
2026-01-04 11:39:55.48	329.14	37.13	-49.1	-51.4	21.5	6.00e-01	0	57	0	848822272	61	4684
2026-01-04 11:39:58.45	329.39	36.31	-49.0	-51.2	21.7	6.00e-01	0	57	0	854589440	61	4591
2026-01-04 11:40:01.42	329.63	35.52	-46.5	-51.0	18.6	6.03e-01	0	57	0	859832320	56	5941
2026-01-04 11:40:04.38	329.86	34.75	-48.6	-50.6	22.4	5.99e-01	0	57	0	865599488	59	4807
2026-01-04 11:40:07.36	330.08	33.99	-48.3	-50.1	23.2	6.02e-01	0	57	0	870842368	59	4525
2026-01-04 11:40:10.33	330.29	33.26	-48.1	-49.8	23.5	6.05e-01	0	57	0	876609536	59	4379
2026-01-04 11:40:13.30	330.49	32.54	-47.8	-49.4	23.8	6.00e-01	0	57	0	882376704	59	4185
2026-01-04 11:40:16.26	330.68	31.84	-47.7	-49.3	24.0	6.01e-01	0	57	0	887619584	59	4106
2026-01-04 11:40:19.24	330.86	31.16	-47.4	-48.9	24.4	6.03e-01	0	57	0	893386752	58	4182
2026-01-04 11:40:22.21	331.04	30.49	-47.5	-49.0	24.3	6.00e-01	0	57	0	899153920	58	4212
2026-01-04 11:40:25.19	331.21	29.84	-47.7	-49.2	24.1	6.01e-01	0	57	0	904396800	58	4319
2026-01-04 11:40:28.17	331.37	29.20	-47.9	-49.6	23.8	5.99e-01	0	57	0	910163968	58	4499
2026-01-04 11:40:31.14	331.53	28.58	-48.1	-49.7	23.6	6.01e-01	0	57	0	915931136	58	4584
2026-01-04 11:40:34.10	331.68	27.98	-48.1	-49.8	23.5	6.03e-01	0	57	0	921174016	58	4616
2026-01-04 11:40:37.08	331.83	27.38	-48.3	-50.0	23.3	6.02e-01	0	57	0	926941184	58	4723
2026-01-04 11:40:40.06	331.97	26.80	-48.3	-50.0	23.3	6.01e-01	0	57	0	932184064	58	4731
2026-01-04 11:40:43.04	332.11	26.24	-48.5	-50.4	23.0	6.00e-01	0	57	0	937951232	59	4661
2026-01-04 11:40:46.01	332.24	25.68	-48.6	-50.4	22.9	6.01e-01	0	57	0	943718400	59	4679
2026-01-04 11:40:48.98	332.37	25.14	-48.8	-50.7	22.6	6.02e-01	0	57	0	948961280	59	4835
2026-01-04 11:40:51.95	332.49	24.61	-48.7	-50.7	22.3	6.03e-01	0	57	0	954728448	60	4569
2026-01-04 11:40:54.92	332.61	24.10	-48.6	-50.5	22.4	6.00e-01	0	57	0	959971328	60	4493
2026-01-04 11:40:57.90	332.73	23.59	-48.9	-51.0	21.9	6.02e-01	0	57	0	965738496	60	4741
2026-01-04 11:41:00.87	332.84	23.09	-48.5	-50.4	22.4	6.00e-01	0	57	0	971505664	60	4415
2026-01-04 11:41:03.84	332.95	22.60	-48.6	-50.6	22.3	6.02e-01	0	57	0	977272832	60	4507
2026-01-04 11:41:06.80	333.06	22.13	-48.3	-50.2	22.7	6.03e-01	0	57	0	982515712	60	4302
2026-01-04 11:41:09.78	333.16	21.66	-48.6	-50.5	22.3	6.02e-01	0	57	0	988282880	60	4475
2026-01-04 11:41:12.75	333.27	21.20	-48.5	-50.4	22.4	6.01e-01	0	57	0	993525760	60	4437
2026-01-04 11:41:15.71	333.36	20.75	-48.3	-50.2	22.5	6.01e-01	0	57	0	999292928	60	4332
2026-01-04 11:41:18.68	333.46	20.31	-48.4	-50.4	22.4	6.01e-01	0	57	0	1005060096	60	4407
2026-01-04 11:41:21.65	333.55	19.88	-48.3	-50.2	22.9	6.00e-01	0	57	0	1010302976	59	4555
2026-01-04 11:41:24.64	333.64	19.45	-48.2	-50.0	23.2	6.02e-01	0	57	0	1016070144	59	4445
2026-01-04 11:41:27.62	333.73	19.03	-48.3	-50.1	23.0	6.01e-01	0	57	0	1021313024	59	4520
2026-01-04 11:41:30.59	333.82	18.62	-48.2	-50.0	23.1	6.01e-01	0	57	0	1027080192	59	4452
2026-01-04 11:41:33.56	333.91	18.22	-48.3	-50.1	23.0	6.02e-01	0	57	0	1032847360	59	4536
2026-01-04 11:41:36.54	333.99	17.83	-48.3	-50.1	23.0	6.00e-01	0	57	0	1038090240	59	4504
2026-01-04 11:41:39.50	334.07	17.44	-48.4	-50.3	22.8	6.01e-01	0	57	0	1043857408	59	4625
2026-01-04 11:41:42.48	334.15	17.06	-48.5	-50.4	22.7	6.04e-01	0	57	0	1049624576	59	4694
2026-01-04 11:41:45.46	334.23	16.68	-48.7	-50.7	22.3	6.00e-01	0	57	0	1054867456	59	4870
2026-01-04 11:41:48.41	334.30	16.32	-48.9	-51.0	21.7	6.00e-01	0	57	0	1060634624	60	4744
2026-01-04 11:41:51.40	334.38	15.95	-48.7	-50.7	22.0	6.02e-01	0	57	0	1066401792	60	4589
2026-01-04 11:41:54.36	334.45	15.59	-48.5	-50.5	22.3	6.02e-01	0	57	0	1071644672	59	4724
2026-01-04 11:41:57.34	334.52	15.24	-48.8	-50.8	22.2	6.01e-01	0	57	0	1077411840	59	4894
2026-01-04 11:42:00.30	334.59	14.90	-48.6	-50.5	22.4	6.01e-01	0	57	0	1082654720	59	4725
2026-01-04 11:42:03.26	334.66	14.56	-48.6	-50.6	22.4	6.02e-01	0	57	0	1088421888	59	4792
2026-01-04 11:42:06.24	334.72	14.22	-48.6	-50.6	22.3	6.02e-01	0	57	0	1094189056	59	4795
2026-01-04 11:42:09.22	334.79	13.89	-48.5	-50.4	22.5	6.03e-01	0	57	0	1099431936	59	4691
2026-01-04 11:42:12.19	334.85	13.57	-48.6	-50.6	22.3	6.00e-01	0	57	0	1105199104	59	4774
2026-01-04 11:42:15.17	334.92	13.24	-48.3	-50.2	22.7	6.02e-01	0	57	0	1110441984	59	4547
2026-01-04 11:42:18.15	334.98	12.93	-48.3	-50.1	22.7	6.03e-01	0	57	0	1116209152	59	4539
2026-01-04 11:42:21.12	335.04	12.62	-48.3	-50.3	22.5	6.02e-01	0	57	0	1121976320	59	4604
2026-01-04 11:42:24.08	335.10	12.31	-48.3	-50.2	22.5	6.03e-01	0	57	0	1127219200	59	4598
2026-01-04 11:42:27.04	335.16	12.01	-48.4	-50.4	22.4	6.00e-01	0	57	0	1132986368	59	4660
2026-01-04 11:42:30.00	335.21	11.71	-48.5	-50.5	22.2	6.00e-01	0	57	0	1138753536	59	4734
2026-01-04 11:42:32.96	335.27	11.42	-48.6	-50.6	22.1	6.01e-01	0	57	0	1143996416	59	4813
2026-01-04 11:42:35.93	335.33	11.13	-48.4	-50.5	21.9	6.00e-01	0	57	0	1149763584	60	4443
2026-01-04 11:42:38.90	335.38	10.84	-48.5	-50.7	21.7	6.03e-01	0	57	0	1155006464	60	4557
2026-01-04 11:42:41.87	335.44	10.56	-48.4	-50.6	21.7	6.00e-01	0	57	0	1160773632	60	4508
2026-01-04 11:42:44.84	335.49	10.28	-48.7	-50.9	21.4	6.00e-01	0	57	0	1166540800	60	4672
2026-01-04 11:42:47.81	335.54	10.00	-48.6	-50.7	21.6	6.02e-01	0	57	0	1171783680	60	4597
2026-01-04 11:42:50.78	335.59	9.73	-48.5	-50.7	21.5	6.00e-01	0	57	0	1177550848	60	4580
2026-01-04 11:42:53.75	335.64	9.46	-48.6	-50.9	21.4	6.02e-01	0	57	0	1183318016	60	4656
2026-01-04 11:42:56.71	335.69	9.19	-48.8	-51.2	21.0	6.01e-01	0	57	0	1188560896	60	4853
2026-01-04 11:42:59.68	335.74	8.93	-49.0	-51.5	20.7	6.03e-01	0	57	0	1194328064	60	5035
2026-01-04 11:43:02.65	335.79	8.67	-49.0	-51.4	20.7	6.02e-01	0	57	0	1199570944	60	4965
2026-01-04 11:43:05.62	335.84	8.41	-49.2	-51.7	20.4	6.00e-01	0	57	0	1205338112	60	5153
2026-01-04 11:43:08.58	335.89	8.16	-48.9	-51.3	20.8	6.03e-01	0	57	0	1211105280	60	4893
2026-01-04 11:43:11.56	335.94	7.90	-48.7	-51.0	21.0	6.02e-01	0	57	0	1216348160	60	4758
2026-01-04 11:43:14.53	335.98	7.66	-48.8	-51.2	20.9	6.02e-01	0	57	0	1222115328	60	4858
2026-01-04 11:43:17.50	336.03	7.41	-48.9	-51.4	20.6	6.00e-01	0	57	0	1227358208	60	4968
2026-01-04 11:43:20.46	336.07	7.17	-48.9	-51.4	20.6	6.02e-01	0	57	0	1233125376	60	4982
2026-01-04 11:43:23.42	336.12	6.93	-48.9	-51.5	20.5	6.01e-01	0	57	0	1238892544	60	4993
2026-01-04 11:43:26.40	336.16	6.69	-49.0	-51.6	20.3	6.01e-01	0	57	0	1244135424	60	5096
2026-01-04 11:43:29.35	336.20	6.45	-49.0	-51.7	20.3	5.99e-01	0	57	0	1249902592	60	5111
2026-01-04 11:43:32.32	336.25	6.22	-49.1	-51.7	20.1	6.02e-01	0	57	0	1255145472	60	5159
2026-01-04 11:43:35.28	336.29	5.99	-49.3	-52.1	19.8	6.00e-01	0	57	0	1260912640	60	5387
2026-01-04 11:43:38.26	336.33	5.76	-49.4	-52.4	19.4	6.00e-01	0	57	0	1266679808	61	5276
2026-01-04 11:43:41.23	336.37	5.53	-49.5	-52.6	19.2	6.01e-01	0	57	0	1271922688	61	5343
2026-01-04 11:43:44.21	336.41	5.31	-49.6	-52.8	18.9	6.04e-01	0	57	0	1277689856	61	5504
2026-01-04 11:43:47.18	336.45	5.08	-50.0	-53.5	18.1	6.02e-01	0	57	0	1283457024	62	5636
2026-01-04 11:43:50.16	336.49	4.86	-53.6	-73.5	3.8	7.45e-01	0	57	104	1285029888	69	37605
2026-01-04 11:43:53.13	336.53	4.64	-52.3	-72.0	3.8	7.44e-01	0	57	104	1285029888	67	35365
2026-01-04 11:43:56.10	336.57	4.43	-54.3	-74.2	3.8	7.45e-01	0	57	104	1285029888	70	38256
2026-01-04 11:43:59.07	336.61	4.21	-54.4	-74.3	3.8	7.45e-01	0	57	104	1285029888	70	38996
2026-01-04 11:44:02.02	336.65	4.00	-54.4	-74.3	3.8	7.45e-01	0	57	104	1285029888	71	36895
2026-01-04 11:44:04.99	336.69	3.79	-54.5	-74.4	3.8	7.45e-01	0	57	104	1285029888	71	37101
2026-01-04 11:44:07.96	336.72	3.58	-54.5	-74.4	3.8	7.44e-01	0	57	104	1285029888	71	37142
2026-01-04 11:44:10.93	336.76	3.37	-54.5	-74.4	3.8	7.45e-01	0	57	104	1285029888	71	37312
2026-01-04 11:44:13.90	336.80	3.17	-54.5	-74.4	3.8	7.45e-01	0	57	104	1285029888	71	37322
2026-01-04 11:44:16.88	336.83	2.96	-54.5	-74.4	3.8	7.47e-01	0	57	104	1285029888	71	37107

#Closed at: 2026-01-04 11:44:17
#Recorded file [1285 MB]: D:/Data/31026_260104_144348.dat