passes_logs/2026/01/04/R3.0SM8_Murmansk_STILSPACE/R3.0SM8_Murmansk_STILSPACE__20260104_090516_NOAA_21_JPSS-2_rec.log

#Pass ID: 20260104_090516_NOAA 21 (JPSS-2)
#Satellite: NOAA 21 (JPSS-2)
#Configuration: NOAA-21
#almurnet v.1.7.20240730
#Start time: 2026-01-04 09:09:48

#Version: 2.2.20231116
#Station: R3.0SM8_Murmansk_STILSPACE
#Location: 33.092731 lon 68.902999 lat
#TLE: 1 54234U 22150A   26003.45311712  .00000198  00000+0  11468-3 0  9993
#TLE: 2 54234  98.7487 304.4932 0001159 347.5017  12.6130 14.19531745163172

#Time	Az	El	Level	Level2	SNR	BER	BlckErr	Temp	State	Recorded	gain1	gain2
2026-01-04 09:09:48.82	132.63	34.12	-52.6	-63.5	3.8	8.45e-01	0	56	0	0	67	13016
2026-01-04 09:09:51.78	132.34	34.76	-52.7	-64.3	3.8	1.49e+00	0	57	104	0	68	13552
2026-01-04 09:09:54.75	132.05	35.41	-52.8	-64.4	3.8	1.49e+00	0	57	104	0	68	13588
2026-01-04 09:09:57.72	131.74	36.07	-52.9	-64.4	3.8	1.49e+00	0	57	104	0	68	13597
2026-01-04 09:10:00.68	131.42	36.75	-52.8	-64.3	3.8	1.49e+00	0	57	104	0	68	13560
2026-01-04 09:10:03.67	131.09	37.44	-52.8	-64.3	3.8	1.49e+00	0	57	104	0	68	13485
2026-01-04 09:10:06.64	130.74	38.15	-52.8	-64.3	3.8	1.49e+00	0	57	104	0	68	13472
2026-01-04 09:10:09.60	130.37	38.86	-52.8	-64.3	3.8	1.49e+00	0	57	104	0	68	13460
2026-01-04 09:10:12.59	129.99	39.60	-52.7	-64.3	3.8	1.49e+00	0	57	104	0	68	13501
2026-01-04 09:10:15.55	129.59	40.34	-52.7	-64.3	3.8	1.49e+00	0	57	104	0	68	13452
2026-01-04 09:10:18.52	129.17	41.10	-52.8	-64.2	3.8	1.49e+00	0	57	104	0	68	13307
2026-01-04 09:10:21.50	128.73	41.88	-52.8	-64.2	3.8	1.49e+00	0	57	104	0	68	13385
2026-01-04 09:10:24.45	128.27	42.66	-52.8	-64.2	3.8	1.49e+00	0	57	104	0	68	13333
2026-01-04 09:10:27.41	127.78	43.46	-52.7	-64.2	3.8	1.49e+00	0	57	104	0	68	13288
2026-01-04 09:10:30.38	127.27	44.28	-52.8	-64.2	3.8	1.49e+00	0	57	104	0	68	13363
2026-01-04 09:10:33.34	126.73	45.11	-52.8	-64.3	3.8	1.49e+00	0	57	104	0	68	13432
2026-01-04 09:10:36.31	126.16	45.95	-52.6	-63.9	3.8	1.49e+00	0	57	104	0	68	12850
2026-01-04 09:10:39.28	125.56	46.81	-52.7	-63.1	3.8	1.49e+00	0	57	104	0	68	11789
2026-01-04 09:10:42.26	124.92	47.69	-51.8	-57.7	5.6	5.01e-01	0	57	0	0	66	7071
2026-01-04 09:10:45.23	124.25	48.58	-51.5	-56.7	6.3	2.78e-01	0	57	0	9437184	65	6712
2026-01-04 09:10:48.21	123.53	49.48	-50.6	-54.6	8.3	6.64e-02	0	57	0	17825792	64	5571
2026-01-04 09:10:51.19	122.76	50.40	-50.2	-53.5	9.5	1.37e-02	0	57	0	27262976	63	5171
2026-01-04 09:10:54.14	121.96	51.33	-50.8	-54.8	8.1	6.21e-02	0	57	0	36700160	63	6050
2026-01-04 09:10:57.11	121.10	52.27	-48.9	-51.1	12.0	6.14e-04	0	57	0	46137344	60	4674
2026-01-04 09:11:00.08	120.18	53.22	-47.4	-49.1	14.1	5.30e-06	0	57	0	55574528	58	4170
2026-01-04 09:11:03.04	119.20	54.18	-46.2	-47.5	15.5	0.00e+00	0	57	0	65011712	55	4118
2026-01-04 09:11:06.00	118.16	55.14	-46.2	-47.5	15.6	0.00e+00	0	57	0	74448896	55	4100
2026-01-04 09:11:08.96	117.03	56.12	-45.6	-46.7	16.3	0.00e+00	0	57	0	82837504	54	4004
2026-01-04 09:11:11.94	115.82	57.10	-44.8	-45.7	17.3	0.00e+00	0	57	0	92274688	52	3990
2026-01-04 09:11:14.92	114.52	58.09	-44.9	-45.9	17.1	0.00e+00	0	57	0	101711872	52	4069
2026-01-04 09:11:17.87	113.13	59.07	-44.6	-45.5	17.5	0.00e+00	0	57	0	111149056	51	4136
2026-01-04 09:11:20.83	111.62	60.06	-43.9	-44.8	18.2	0.00e+00	0	57	0	120586240	51	3790
2026-01-04 09:11:23.81	109.99	61.05	-44.2	-45.1	18.0	0.00e+00	0	57	0	130023424	51	3921
2026-01-04 09:11:26.78	108.23	62.02	-44.1	-45.0	18.1	0.00e+00	0	57	0	139460608	51	3878
2026-01-04 09:11:29.74	106.32	62.98	-43.8	-44.6	18.5	0.00e+00	0	57	0	147849216	50	3920
2026-01-04 09:11:32.71	104.25	63.93	-43.5	-44.3	18.7	0.00e+00	0	57	0	157286400	49	4007
2026-01-04 09:11:35.70	101.99	64.86	-44.1	-44.9	18.1	0.00e+00	0	57	0	166723584	50	4095
2026-01-04 09:11:38.68	99.55	65.77	-44.3	-45.1	17.9	0.00e+00	0	57	0	176160768	50	4191
2026-01-04 09:11:41.66	96.90	66.64	-44.8	-45.7	17.4	0.00e+00	0	57	0	185597952	51	4217
2026-01-04 09:11:44.64	94.03	67.46	-43.4	-44.2	18.8	0.00e+00	0	57	0	195035136	50	3739
2026-01-04 09:11:47.61	90.94	68.24	-43.6	-44.4	18.6	0.00e+00	0	57	0	204472320	49	4066
2026-01-04 09:11:50.56	87.63	68.96	-43.4	-44.1	18.9	0.00e+00	0	57	0	212860928	49	3940
2026-01-04 09:11:53.53	84.05	69.61	-43.1	-43.8	19.2	0.00e+00	0	57	0	222298112	49	3796
2026-01-04 09:11:56.50	80.24	70.19	-43.1	-43.8	19.2	0.00e+00	0	57	0	231735296	49	3810
2026-01-04 09:11:59.47	76.20	70.68	-44.4	-45.4	17.8	0.00e+00	0	57	0	241172480	50	4299
2026-01-04 09:12:02.43	71.97	71.08	-44.8	-45.8	17.3	0.00e+00	0	57	0	250609664	51	4250
2026-01-04 09:12:05.40	67.55	71.38	-44.5	-45.3	17.8	0.00e+00	0	57	0	260046848	51	4049
2026-01-04 09:12:08.38	63.00	71.57	-44.0	-44.8	18.2	0.00e+00	0	57	0	269484032	51	3806
2026-01-04 09:12:11.35	58.38	71.65	-45.0	-46.0	17.1	0.00e+00	0	57	0	277872640	52	4122
2026-01-04 09:12:14.32	53.76	71.62	-44.9	-45.9	17.1	0.00e+00	0	57	0	287309824	52	4078
2026-01-04 09:12:17.29	49.18	71.48	-45.0	-45.9	17.0	0.00e+00	0	57	0	296747008	52	4085
2026-01-04 09:12:20.27	44.69	71.22	-45.2	-46.3	16.8	0.00e+00	0	57	0	306184192	53	4008
2026-01-04 09:12:23.27	40.33	70.86	-44.6	-45.5	17.5	0.00e+00	0	57	0	315621376	52	3905
2026-01-04 09:12:26.25	36.19	70.40	-43.2	-43.9	19.1	0.00e+00	0	57	0	325058560	49	3828
2026-01-04 09:12:29.21	32.30	69.85	-43.4	-44.1	18.9	0.00e+00	0	57	0	334495744	48	4188
2026-01-04 09:12:32.18	28.63	69.23	-43.2	-43.9	19.1	0.00e+00	0	57	0	342884352	48	4063
2026-01-04 09:12:35.16	25.19	68.53	-43.9	-44.7	18.3	0.00e+00	0	57	0	352321536	49	4210
2026-01-04 09:12:38.13	22.01	67.78	-43.2	-43.9	19.0	0.00e+00	0	57	0	361758720	49	3849
2026-01-04 09:12:41.09	19.07	66.98	-45.1	-46.1	16.9	0.00e+00	0	57	0	371195904	52	4175
2026-01-04 09:12:44.05	16.35	66.13	-43.9	-44.7	18.3	0.00e+00	0	57	0	380633088	51	3775
2026-01-04 09:12:47.02	13.84	65.24	-45.1	-46.1	16.9	0.00e+00	0	57	0	390070272	51	4415
2026-01-04 09:12:49.99	11.52	64.33	-44.3	-45.1	17.9	0.00e+00	0	57	0	398458880	51	3958
2026-01-04 09:12:52.96	9.38	63.39	-43.4	-44.1	18.8	0.00e+00	0	57	0	407896064	49	3958
2026-01-04 09:12:55.93	7.41	62.44	-44.2	-45.1	17.9	0.00e+00	0	57	0	417333248	51	3924
2026-01-04 09:12:58.90	5.59	61.47	-43.9	-44.7	18.3	0.00e+00	0	57	0	426770432	49	4194
2026-01-04 09:13:01.87	3.91	60.49	-45.0	-46.0	17.1	0.00e+00	0	57	0	436207616	51	4357
2026-01-04 09:13:04.84	2.35	59.50	-43.7	-44.4	18.6	0.00e+00	0	57	0	445644800	50	3849
2026-01-04 09:13:07.82	0.90	58.51	-44.8	-45.7	17.2	0.00e+00	0	57	0	455081984	51	4209
2026-01-04 09:13:10.78	359.57	57.53	-44.5	-45.4	17.3	0.00e+00	0	57	0	463470592	52	3831
2026-01-04 09:13:13.75	358.33	56.55	-43.8	-44.6	18.4	0.00e+00	0	57	0	472907776	50	3943
2026-01-04 09:13:16.72	357.17	55.57	-44.4	-45.3	17.7	0.00e+00	0	57	0	482344960	50	4261
2026-01-04 09:13:19.69	356.09	54.60	-46.2	-47.5	15.4	0.00e+00	0	57	0	491782144	54	4351
2026-01-04 09:13:22.66	355.08	53.64	-45.0	-46.0	17.0	0.00e+00	0	57	0	501219328	52	4106
2026-01-04 09:13:25.64	354.14	52.68	-45.8	-47.0	16.0	0.00e+00	0	57	0	510656512	53	4355
2026-01-04 09:13:28.61	353.25	51.74	-45.6	-46.6	16.4	0.00e+00	0	57	0	520093696	53	4186
2026-01-04 09:13:31.57	352.43	50.81	-45.1	-46.0	16.9	0.00e+00	0	57	0	528482304	53	3910
2026-01-04 09:13:34.55	351.65	49.89	-46.3	-47.6	15.4	0.00e+00	0	57	0	537919488	54	4417
2026-01-04 09:13:37.52	350.91	48.99	-47.7	-49.5	13.6	1.14e-05	0	57	0	547356672	57	4630
2026-01-04 09:13:40.51	350.22	48.09	-47.6	-49.3	13.8	3.00e-06	0	57	0	556793856	57	4524
2026-01-04 09:13:43.47	349.57	47.21	-47.1	-48.6	14.5	7.00e-07	0	57	0	566231040	57	4172
2026-01-04 09:13:46.44	348.96	46.35	-46.0	-47.2	15.7	0.00e+00	0	57	0	575668224	54	4240
2026-01-04 09:13:49.41	348.37	45.50	-46.9	-48.3	14.7	0.00e+00	0	57	0	585105408	55	4534
2026-01-04 09:13:52.37	347.83	44.67	-48.0	-49.9	13.1	3.12e-05	0	57	0	593494016	57	4818
2026-01-04 09:13:55.34	347.30	43.85	-47.8	-49.5	13.4	1.22e-05	0	57	0	602931200	57	4632
2026-01-04 09:13:58.30	346.81	43.04	-47.4	-48.9	14.1	1.50e-06	0	57	0	612368384	57	4333
2026-01-04 09:14:01.28	346.34	42.25	-46.4	-47.7	15.4	0.00e+00	0	57	0	621805568	56	3983
2026-01-04 09:14:04.27	345.88	41.47	-45.9	-47.1	15.9	0.00e+00	0	57	0	631242752	54	4157
2026-01-04 09:14:07.25	345.46	40.70	-46.6	-48.0	14.9	0.00e+00	0	57	0	640679936	55	4363
2026-01-04 09:14:10.23	345.05	39.95	-47.4	-49.1	13.9	3.80e-06	0	57	0	650117120	56	4677
2026-01-04 09:14:13.20	344.66	39.22	-46.8	-48.2	14.7	7.00e-07	0	57	0	658505728	56	4232
2026-01-04 09:14:16.17	344.29	38.50	-46.6	-47.9	15.1	0.00e+00	0	57	0	667942912	56	4080
2026-01-04 09:14:19.16	343.93	37.78	-46.6	-48.0	15.1	0.00e+00	0	57	0	677380096	56	4107
2026-01-04 09:14:22.11	343.59	37.10	-46.2	-47.5	15.5	0.00e+00	0	57	0	686817280	55	4113
2026-01-04 09:14:25.09	343.27	36.41	-46.1	-47.3	15.6	0.00e+00	0	57	0	696254464	55	4046
2026-01-04 09:14:28.07	342.96	35.74	-46.5	-47.8	15.1	0.00e+00	0	57	0	705691648	55	4290
2026-01-04 09:14:31.05	342.66	35.09	-45.9	-47.1	15.8	0.00e+00	0	57	0	715128832	54	4169
2026-01-04 09:14:34.03	342.37	34.44	-45.7	-46.9	16.0	0.00e+00	0	57	0	724566016	54	4071
2026-01-04 09:14:37.00	342.10	33.81	-46.1	-47.3	15.6	0.00e+00	0	57	0	732954624	54	4280
2026-01-04 09:14:39.96	341.83	33.20	-45.2	-46.3	16.5	0.00e+00	0	57	0	742391808	53	4024
2026-01-04 09:14:42.94	341.58	32.59	-45.4	-46.5	16.3	0.00e+00	0	57	0	751828992	53	4141
2026-01-04 09:14:45.90	341.34	32.00	-45.4	-46.5	16.4	0.00e+00	0	57	0	761266176	53	4121
2026-01-04 09:14:48.87	341.10	31.41	-45.5	-46.6	16.2	0.00e+00	0	57	0	770703360	53	4172
2026-01-04 09:14:51.83	340.88	30.84	-44.9	-45.9	16.9	0.00e+00	0	57	0	780140544	52	4064
2026-01-04 09:14:54.80	340.66	30.28	-44.7	-45.7	17.1	0.00e+00	0	57	0	788529152	52	3967
2026-01-04 09:14:57.78	340.45	29.73	-44.3	-45.1	17.7	0.00e+00	0	57	0	797966336	51	3956
2026-01-04 09:15:00.74	340.24	29.19	-44.3	-45.2	17.6	0.00e+00	0	57	0	807403520	51	3993
2026-01-04 09:15:03.71	340.05	28.65	-44.8	-45.7	17.2	0.00e+00	0	57	0	816840704	51	4213
2026-01-04 09:15:06.67	339.86	28.13	-44.4	-45.2	17.6	0.00e+00	0	57	0	826277888	51	4004
2026-01-04 09:15:09.64	339.68	27.62	-44.3	-45.2	17.6	0.00e+00	0	57	0	835715072	51	3979
2026-01-04 09:15:12.60	339.50	27.12	-44.2	-45.1	17.7	0.00e+00	0	57	0	844103680	51	3917
2026-01-04 09:15:15.57	339.33	26.62	-44.2	-45.1	17.7	0.00e+00	0	57	0	853540864	51	3954
2026-01-04 09:15:18.55	339.16	26.13	-44.1	-44.9	17.8	0.00e+00	0	57	0	862978048	51	3868
2026-01-04 09:15:21.52	339.00	25.66	-44.4	-45.4	17.5	0.00e+00	0	57	0	872415232	51	4053
2026-01-04 09:15:24.48	338.85	25.19	-44.9	-45.9	17.0	0.00e+00	0	57	0	881852416	51	4293
2026-01-04 09:15:27.44	338.70	24.73	-44.6	-45.6	17.2	0.00e+00	0	57	0	891289600	51	4162
2026-01-04 09:15:30.40	338.55	24.27	-44.8	-45.8	17.0	0.00e+00	0	57	0	900726784	51	4256
2026-01-04 09:15:33.37	338.41	23.83	-44.8	-45.7	17.0	0.00e+00	0	57	0	909115392	51	4237
2026-01-04 09:15:36.34	338.28	23.39	-44.8	-45.8	17.0	0.00e+00	0	57	0	918552576	51	4266
2026-01-04 09:15:39.32	338.14	22.95	-44.6	-45.6	17.2	0.00e+00	0	57	0	927989760	51	4161
2026-01-04 09:15:42.30	338.01	22.53	-44.3	-45.2	17.5	0.00e+00	0	57	0	937426944	51	4001
2026-01-04 09:15:45.27	337.89	22.11	-44.6	-45.5	17.1	0.00e+00	0	57	0	946864128	51	4141
2026-01-04 09:15:48.24	337.77	21.70	-45.0	-46.1	16.4	0.00e+00	0	57	0	956301312	51	4440
2026-01-04 09:15:51.21	337.65	21.29	-45.6	-46.8	15.4	0.00e+00	0	57	0	965738496	52	4538
2026-01-04 09:15:54.19	337.53	20.89	-46.2	-47.7	14.4	7.00e-07	0	57	0	974127104	54	4488
2026-01-04 09:15:57.15	337.42	20.50	-45.7	-47.1	15.0	0.00e+00	0	57	0	983564288	54	4147
2026-01-04 09:16:00.13	337.31	20.11	-45.8	-47.2	14.9	0.00e+00	0	57	0	993001472	54	4217
2026-01-04 09:16:03.10	337.21	19.73	-45.4	-46.6	15.5	0.00e+00	0	57	0	1002438656	54	3953
2026-01-04 09:16:06.06	337.11	19.35	-44.6	-45.7	16.4	0.00e+00	0	57	0	1011875840	52	3980
2026-01-04 09:16:09.03	337.01	18.98	-44.2	-45.2	17.1	0.00e+00	0	57	0	1021313024	51	3967
2026-01-04 09:16:12.00	336.91	18.62	-44.3	-45.2	17.2	0.00e+00	0	57	0	1029701632	51	3994
2026-01-04 09:16:14.95	336.81	18.26	-45.0	-46.1	16.4	0.00e+00	0	57	0	1039138816	52	4164
2026-01-04 09:16:17.91	336.72	17.91	-44.8	-45.8	16.7	0.00e+00	0	57	0	1048576000	52	4033
2026-01-04 09:16:20.88	336.63	17.56	-44.8	-45.9	16.7	0.00e+00	0	57	0	1058013184	52	4056
2026-01-04 09:16:23.85	336.55	17.21	-44.6	-45.6	16.9	0.00e+00	0	57	0	1067450368	52	3931
2026-01-04 09:16:26.81	336.46	16.88	-44.8	-45.9	16.6	0.00e+00	0	57	0	1076887552	52	4076
2026-01-04 09:16:29.76	336.38	16.54	-44.8	-45.9	16.7	0.00e+00	0	57	0	1086324736	52	4056
2026-01-04 09:16:32.73	336.30	16.21	-44.9	-46.0	16.5	0.00e+00	0	57	0	1094713344	52	4127
2026-01-04 09:16:35.71	336.22	15.88	-45.2	-46.3	16.2	0.00e+00	0	57	0	1104150528	52	4282
2026-01-04 09:16:38.68	336.14	15.56	-45.1	-46.2	16.3	0.00e+00	0	57	0	1113587712	52	4210
2026-01-04 09:16:41.66	336.07	15.24	-45.2	-46.3	16.2	0.00e+00	0	57	0	1123024896	52	4277
2026-01-04 09:16:44.63	335.99	14.93	-45.3	-46.4	16.1	0.00e+00	0	57	0	1132462080	52	4318
2026-01-04 09:16:47.60	335.92	14.62	-45.6	-46.8	15.7	0.00e+00	0	57	0	1141899264	52	4524
2026-01-04 09:16:50.57	335.85	14.31	-45.6	-46.9	15.6	0.00e+00	0	57	0	1151336448	53	4292
2026-01-04 09:16:53.54	335.78	14.01	-45.6	-46.9	15.5	0.00e+00	0	57	0	1159725056	53	4329
2026-01-04 09:16:56.51	335.72	13.71	-45.4	-46.6	15.8	0.00e+00	0	57	0	1169162240	53	4176
2026-01-04 09:16:59.48	335.65	13.41	-45.5	-46.7	15.8	0.00e+00	0	57	0	1178599424	53	4195
2026-01-04 09:17:02.44	335.59	13.12	-45.4	-46.6	15.8	0.00e+00	0	57	0	1188036608	53	4173
2026-01-04 09:17:05.42	335.53	12.83	-45.3	-46.6	15.8	0.00e+00	0	57	0	1197473792	53	4148
2026-01-04 09:17:08.41	335.46	12.55	-45.5	-46.8	15.6	0.00e+00	0	57	0	1206910976	53	4244
2026-01-04 09:17:11.36	335.41	12.27	-45.5	-46.8	15.6	0.00e+00	0	57	0	1216348160	53	4261
2026-01-04 09:17:14.33	335.35	11.99	-45.7	-47.0	15.4	0.00e+00	0	57	0	1224736768	53	4342
2026-01-04 09:17:17.29	335.29	11.71	-45.4	-46.6	15.8	0.00e+00	0	57	0	1234173952	53	4167
2026-01-04 09:17:20.26	335.24	11.44	-45.4	-46.6	15.8	0.00e+00	0	57	0	1243611136	53	4157
2026-01-04 09:17:23.23	335.18	11.17	-45.4	-46.7	15.7	0.00e+00	0	57	0	1253048320	53	4196
2026-01-04 09:17:26.20	335.13	10.90	-45.4	-46.6	15.7	0.00e+00	0	57	0	1262485504	53	4167
2026-01-04 09:17:29.17	335.08	10.64	-45.4	-46.7	15.6	0.00e+00	0	57	0	1271922688	53	4197
2026-01-04 09:17:32.14	335.03	10.38	-45.5	-46.7	15.6	0.00e+00	0	57	0	1280311296	53	4212
2026-01-04 09:17:35.12	334.98	10.12	-45.6	-46.9	15.4	7.00e-07	0	57	0	1289748480	53	4292
2026-01-04 09:17:38.11	334.93	9.86	-45.5	-46.8	15.5	0.00e+00	0	57	0	1299185664	53	4253
2026-01-04 09:17:41.09	334.88	9.61	-45.5	-46.8	15.5	0.00e+00	0	57	0	1308622848	53	4249
2026-01-04 09:17:44.06	334.84	9.36	-45.6	-46.9	15.3	0.00e+00	0	57	0	1318060032	53	4300
2026-01-04 09:17:47.04	334.79	9.11	-45.6	-46.9	15.3	0.00e+00	0	57	0	1327497216	53	4329
2026-01-04 09:17:50.01	334.75	8.86	-45.8	-47.1	15.1	0.00e+00	0	57	0	1336934400	53	4423
2026-01-04 09:17:52.97	334.70	8.62	-46.0	-47.4	14.8	0.00e+00	0	57	0	1345323008	53	4564
2026-01-04 09:17:55.94	334.66	8.38	-46.2	-47.6	14.6	0.00e+00	0	57	0	1354760192	54	4435
2026-01-04 09:17:58.92	334.62	8.14	-46.4	-47.9	14.3	0.00e+00	0	57	0	1364197376	54	4576
2026-01-04 09:18:01.88	334.58	7.91	-46.4	-48.0	14.2	1.50e-06	0	57	0	1373634560	54	4608
2026-01-04 09:18:04.85	334.54	7.67	-46.3	-47.8	14.3	7.00e-07	0	57	0	1383071744	54	4520
2026-01-04 09:18:07.81	334.50	7.44	-46.5	-48.2	14.0	3.00e-06	0	57	0	1392508928	55	4442
2026-01-04 09:18:10.79	334.46	7.21	-46.7	-48.4	13.7	8.30e-06	0	57	0	1401946112	55	4556
2026-01-04 09:18:13.77	334.42	6.98	-46.8	-48.5	13.6	9.10e-06	0	57	0	1410334720	55	4620
2026-01-04 09:18:16.73	334.39	6.75	-47.1	-48.9	13.2	1.67e-05	0	57	0	1419771904	56	4598
2026-01-04 09:18:19.70	334.35	6.53	-47.2	-49.1	13.0	4.27e-05	0	57	0	1429209088	56	4688
2026-01-04 09:18:22.67	334.32	6.31	-47.4	-49.4	12.7	6.02e-05	0	57	0	1438646272	56	4864
2026-01-04 09:18:25.63	334.28	6.09	-47.2	-49.1	12.9	5.41e-05	0	57	0	1448083456	56	4696
2026-01-04 09:18:28.60	334.25	5.87	-47.1	-48.9	13.1	3.12e-05	0	57	0	1457520640	56	4588
2026-01-04 09:18:31.56	334.22	5.65	-47.2	-49.2	12.9	4.65e-05	0	57	0	1466957824	56	4713
2026-01-04 09:18:34.53	334.18	5.44	-47.3	-49.3	12.7	8.62e-05	0	57	0	1475346432	56	4802
2026-01-04 09:18:37.50	334.15	5.23	-47.1	-49.0	13.0	3.73e-05	0	57	0	1484783616	56	4611
2026-01-04 09:18:40.45	334.12	5.01	-51.5	-62.5	3.8	1.44e+00	0	57	104	1493172224	65	13095
2026-01-04 09:18:43.43	334.09	4.80	-52.2	-63.6	3.8	1.49e+00	0	57	104	1493172224	66	13994
2026-01-04 09:18:46.38	334.06	4.60	-52.1	-63.7	3.8	1.49e+00	0	57	104	1493172224	66	14102
2026-01-04 09:18:49.35	334.03	4.39	-52.5	-64.1	3.8	1.49e+00	0	57	104	1493172224	66	14719
2026-01-04 09:18:52.33	334.00	4.18	-52.7	-64.1	3.8	1.49e+00	0	58	104	1493172224	67	13971
2026-01-04 09:18:55.29	333.98	3.98	-52.7	-64.2	3.8	1.49e+00	0	57	104	1493172224	67	14090
2026-01-04 09:18:58.26	333.95	3.78	-52.6	-64.2	3.8	1.49e+00	0	58	104	1493172224	67	14137
2026-01-04 09:19:01.23	333.92	3.58	-52.8	-64.2	3.8	1.49e+00	0	58	104	1493172224	67	14202
2026-01-04 09:19:04.21	333.90	3.38	-52.7	-64.3	3.8	1.49e+00	0	57	104	1493172224	67	14219
2026-01-04 09:19:07.18	333.87	3.18	-52.8	-64.2	3.8	1.49e+00	0	57	104	1493172224	67	14177
2026-01-04 09:19:10.14	333.84	2.99	-52.8	-64.3	3.8	1.49e+00	0	57	104	1493172224	67	14223

#Closed at: 2026-01-04 09:19:12
#Recorded file [1493 MB]: D:/Data/31026_260104_121840.dat