passes_logs/2026/01/04/R3.0SM8_Murmansk_STILSPACE/R3.0SM8_Murmansk_STILSPACE__20260104_132120_NOAA_20_JPSS-1_rec.log

#Pass ID: 20260104_132120_NOAA 20 (JPSS-1)
#Satellite: NOAA 20 (JPSS-1)
#Configuration: NOAA 20
#almurnet v.1.7.20240730
#Start time: 2026-01-04 13:22:02

#Version: 2.2.20231116
#Station: R3.0SM8_Murmansk_STILSPACE
#Location: 33.092731 lon 68.902999 lat
#TLE: 1 43013U 17073A   26003.91140107  .00000139  00000+0  86966-4 0  9994
#TLE: 2 43013  98.7625 304.9685 0001869  55.4713 304.6639 14.19532967421166

#Time	Az	El	Level	Level2	SNR	BER	BlckErr	Temp	State	Recorded	gain1	gain2
2026-01-04 13:22:02.46	261.16	4.63	-54.4	-74.3	3.8	7.45e-01	0	54	0	0	71	36718
2026-01-04 13:22:04.43	261.41	4.71	-52.4	-66.4	3.8	1.49e+00	0	55	104	0	68	17235
2026-01-04 13:22:06.40	261.67	4.78	-52.2	-66.3	3.8	1.49e+00	0	55	104	0	67	18032
2026-01-04 13:22:08.36	261.92	4.85	-52.3	-66.3	3.8	1.49e+00	0	55	104	0	67	18090
2026-01-04 13:22:10.32	262.17	4.93	-52.3	-66.3	3.8	1.49e+00	0	55	104	0	67	18059
2026-01-04 13:22:12.31	262.43	5.00	-52.3	-66.3	3.8	1.49e+00	0	55	104	0	67	18017
2026-01-04 13:22:14.28	262.68	5.07	-52.2	-66.3	3.8	1.49e+00	0	55	104	0	67	18044
2026-01-04 13:22:16.25	262.94	5.14	-52.4	-66.3	3.8	1.49e+00	0	56	104	0	67	17930
2026-01-04 13:22:18.22	263.20	5.22	-52.2	-66.3	3.8	1.49e+00	0	55	104	0	67	17891
2026-01-04 13:22:20.19	263.46	5.29	-52.2	-66.2	3.8	1.49e+00	0	55	104	0	67	17860
2026-01-04 13:22:22.17	263.72	5.36	-52.2	-66.2	3.8	1.49e+00	0	55	104	0	67	17741
2026-01-04 13:22:24.16	263.99	5.43	-52.1	-66.2	3.8	1.49e+00	0	55	104	0	67	17690
2026-01-04 13:22:26.15	264.26	5.50	-51.9	-66.0	3.8	1.49e+00	0	55	104	0	67	17415
2026-01-04 13:22:28.20	264.53	5.57	-51.8	-65.9	3.8	1.49e+00	0	55	104	0	66	18111
2026-01-04 13:22:30.18	264.80	5.64	-50.8	-64.7	3.8	1.49e+00	0	55	104	0	64	17758
2026-01-04 13:22:32.16	265.07	5.71	-50.4	-64.2	3.8	1.49e+00	0	55	104	0	63	17776
2026-01-04 13:22:34.13	265.34	5.78	-50.4	-64.2	3.8	1.49e+00	0	56	104	0	63	17687
2026-01-04 13:22:36.10	265.61	5.85	-50.4	-64.1	3.8	1.49e+00	0	56	104	0	63	17644
2026-01-04 13:22:38.07	265.88	5.92	-50.4	-63.8	3.8	1.49e+00	0	55	104	0	63	17047
2026-01-04 13:22:40.04	266.15	5.99	-50.4	-63.5	3.8	1.49e+00	0	56	104	0	63	16417
2026-01-04 13:22:42.02	266.43	6.06	-50.4	-63.5	3.8	1.49e+00	0	55	104	0	63	16434
2026-01-04 13:22:43.99	266.70	6.12	-50.4	-63.6	3.8	1.49e+00	0	55	104	0	63	16663
2026-01-04 13:22:45.95	266.98	6.19	-50.3	-62.8	3.8	1.49e+00	0	56	104	0	63	15138
2026-01-04 13:22:47.92	267.25	6.26	-50.2	-61.1	3.9	1.47e+00	0	56	104	0	63	12427
2026-01-04 13:22:49.88	267.53	6.32	-50.2	-60.1	4.4	1.29e+00	72	56	0	1048576	63	11078
2026-01-04 13:22:51.85	267.81	6.39	-50.1	-60.0	4.5	1.13e+00	40	56	0	4194304	63	10996
2026-01-04 13:22:53.83	268.09	6.45	-50.0	-59.0	4.9	8.76e-01	0	56	0	7340032	63	9718
2026-01-04 13:22:55.80	268.38	6.52	-49.6	-56.5	6.6	2.74e-01	0	56	0	11534336	62	7789
2026-01-04 13:22:57.78	268.66	6.58	-49.6	-57.1	6.1	2.17e-01	0	56	0	15728640	62	8277
2026-01-04 13:22:59.75	268.95	6.65	-49.4	-56.3	6.6	2.40e-01	0	56	0	18874368	61	8024
2026-01-04 13:23:01.74	269.23	6.71	-49.1	-55.3	7.5	1.27e-01	0	56	0	23068672	61	7182
2026-01-04 13:23:03.72	269.52	6.78	-48.9	-54.7	8.0	7.03e-02	0	56	0	26214400	60	7094
2026-01-04 13:23:05.69	269.81	6.84	-49.0	-55.4	7.2	1.08e-01	0	56	0	30408704	60	7672
2026-01-04 13:23:07.67	270.10	6.90	-48.9	-55.8	6.7	1.78e-01	0	56	0	33554432	60	8052
2026-01-04 13:23:09.65	270.39	6.96	-48.9	-56.2	6.3	2.39e-01	0	56	0	37748736	60	8385
2026-01-04 13:23:11.63	270.69	7.03	-49.0	-56.5	6.0	3.09e-01	0	56	0	40894464	60	8662
2026-01-04 13:23:13.61	270.98	7.09	-49.0	-56.9	5.7	4.10e-01	0	56	0	45088768	60	9134
2026-01-04 13:23:15.59	271.28	7.15	-49.0	-57.2	5.4	4.53e-01	0	56	0	48234496	60	9423
2026-01-04 13:23:17.57	271.58	7.21	-49.0	-57.5	5.2	5.62e-01	0	56	0	52428800	60	9760
2026-01-04 13:23:19.57	271.88	7.27	-49.0	-57.7	5.1	5.98e-01	0	56	0	56623104	60	9946
2026-01-04 13:23:21.54	272.17	7.33	-49.0	-57.4	5.3	5.99e-01	0	56	0	59768832	60	9637
2026-01-04 13:23:23.51	272.47	7.39	-48.9	-56.8	5.7	4.55e-01	0	56	0	63963136	60	8969
2026-01-04 13:23:25.47	272.77	7.44	-48.8	-56.0	6.2	3.06e-01	0	56	0	67108864	60	8246
2026-01-04 13:23:27.44	273.07	7.50	-48.7	-55.5	6.6	2.22e-01	0	56	0	71303168	60	7748
2026-01-04 13:23:29.40	273.37	7.56	-48.7	-55.4	6.8	1.75e-01	0	56	0	74448896	60	7670
2026-01-04 13:23:31.38	273.68	7.61	-48.9	-55.6	6.7	2.07e-01	0	56	0	78643200	60	7869
2026-01-04 13:23:33.35	273.98	7.67	-48.7	-54.9	7.4	1.16e-01	0	56	0	81788928	60	7237
2026-01-04 13:23:35.33	274.29	7.72	-48.7	-54.6	7.7	8.69e-02	0	56	0	85983232	60	7028
2026-01-04 13:23:37.30	274.60	7.78	-48.8	-54.9	7.6	9.55e-02	0	56	0	89128960	60	7220
2026-01-04 13:23:39.27	274.90	7.83	-48.8	-54.7	7.8	8.03e-02	0	56	0	93323264	60	7099
2026-01-04 13:23:41.25	275.22	7.89	-48.7	-54.5	8.0	6.80e-02	0	56	0	96468992	60	6903
2026-01-04 13:23:43.23	275.53	7.94	-48.7	-54.4	8.2	5.23e-02	0	56	0	100663296	60	6835
2026-01-04 13:23:45.21	275.84	7.99	-48.6	-54.1	8.5	4.46e-02	0	56	0	103809024	60	6601
2026-01-04 13:23:47.20	276.16	8.04	-48.6	-53.7	8.9	3.08e-02	0	56	0	108003328	60	6326
2026-01-04 13:23:49.17	276.47	8.09	-48.6	-53.6	9.2	2.50e-02	0	56	0	111149056	60	6216
2026-01-04 13:23:51.14	276.78	8.14	-48.7	-53.6	9.3	1.67e-02	0	56	0	115343360	60	6251
2026-01-04 13:23:53.12	277.10	8.19	-48.7	-53.4	9.6	1.49e-02	0	56	0	119537664	60	6085
2026-01-04 13:23:55.11	277.42	8.24	-48.5	-52.8	10.3	6.07e-03	0	56	0	122683392	59	6006
2026-01-04 13:23:57.08	277.74	8.29	-48.5	-52.8	10.3	5.21e-03	0	56	0	126877696	59	6034
2026-01-04 13:23:59.06	278.06	8.34	-48.6	-52.8	10.4	4.86e-03	0	56	0	130023424	59	6034
2026-01-04 13:24:01.05	278.38	8.39	-48.6	-52.8	10.4	4.24e-03	0	56	0	134217728	59	6045
2026-01-04 13:24:03.03	278.70	8.43	-48.7	-52.8	10.5	3.96e-03	0	56	0	137363456	59	6013
2026-01-04 13:24:05.01	279.02	8.48	-48.7	-52.8	10.6	3.86e-03	0	56	0	141557760	59	6039
2026-01-04 13:24:06.98	279.35	8.53	-48.6	-52.5	11.0	2.04e-03	0	56	0	144703488	59	5802
2026-01-04 13:24:08.97	279.67	8.57	-48.7	-52.7	10.9	1.73e-03	0	56	0	148897792	59	5944
2026-01-04 13:24:10.95	280.00	8.61	-48.7	-52.6	11.0	1.69e-03	0	56	0	152043520	59	5857
2026-01-04 13:24:12.93	280.33	8.66	-48.7	-52.5	11.1	1.60e-03	0	56	0	156237824	59	5838
2026-01-04 13:24:14.91	280.65	8.70	-48.9	-52.8	10.9	1.90e-03	0	56	0	159383552	59	5996
2026-01-04 13:24:16.89	280.98	8.74	-48.9	-52.8	10.9	1.83e-03	0	56	0	163577856	59	6052
2026-01-04 13:24:18.88	281.31	8.78	-48.9	-52.6	11.2	1.51e-03	0	56	0	167772160	59	5922
2026-01-04 13:24:20.86	281.64	8.82	-49.0	-52.8	11.2	1.30e-03	0	56	0	170917888	59	6009
2026-01-04 13:24:22.84	281.97	8.86	-48.9	-52.4	11.7	6.35e-04	0	56	0	175112192	59	5736
2026-01-04 13:24:24.82	282.31	8.90	-48.8	-52.0	12.2	3.03e-04	0	56	0	178257920	59	5508
2026-01-04 13:24:26.81	282.64	8.94	-48.8	-52.1	12.3	2.08e-04	0	56	0	182452224	59	5538
2026-01-04 13:24:28.77	282.97	8.97	-49.0	-52.3	12.1	2.94e-04	0	56	0	185597952	59	5678
2026-01-04 13:24:30.76	283.31	9.01	-49.0	-52.3	12.0	3.75e-04	0	56	0	189792256	59	5717
2026-01-04 13:24:32.74	283.64	9.04	-48.9	-52.4	11.9	3.29e-04	0	56	0	192937984	59	5746
2026-01-04 13:24:34.72	283.98	9.08	-49.0	-52.5	11.7	5.12e-04	0	56	0	197132288	59	5811
2026-01-04 13:24:36.70	284.32	9.11	-49.1	-52.9	11.1	1.67e-03	0	56	0	200278016	60	5768
2026-01-04 13:24:38.67	284.65	9.15	-49.1	-53.2	10.7	3.31e-03	0	56	0	204472320	60	5980
2026-01-04 13:24:40.66	284.99	9.18	-49.2	-53.5	10.2	6.07e-03	0	56	0	208666624	60	6182
2026-01-04 13:24:42.63	285.33	9.21	-49.2	-53.8	9.9	7.95e-03	0	56	0	211812352	60	6348
2026-01-04 13:24:44.61	285.67	9.24	-49.3	-54.3	9.2	1.85e-02	0	56	0	216006656	60	6793
2026-01-04 13:24:46.59	286.01	9.27	-49.4	-54.8	8.6	3.37e-02	0	56	0	219152384	60	7123
2026-01-04 13:24:48.56	286.35	9.30	-49.5	-55.3	7.9	7.54e-02	0	56	0	223346688	60	7598
2026-01-04 13:24:50.55	286.69	9.33	-49.5	-55.3	7.9	6.78e-02	0	56	0	226492416	60	7597
2026-01-04 13:24:52.54	287.04	9.35	-49.5	-55.7	7.5	9.25e-02	0	56	0	230686720	60	7922
2026-01-04 13:24:54.51	287.38	9.38	-49.6	-56.0	7.1	1.37e-01	0	56	0	233832448	61	7784
2026-01-04 13:24:56.49	287.72	9.40	-49.6	-56.2	7.0	1.56e-01	0	56	0	238026752	61	7906
2026-01-04 13:24:58.46	288.06	9.43	-49.6	-56.2	7.0	1.69e-01	0	56	0	241172480	61	7972
2026-01-04 13:25:00.44	288.41	9.45	-49.6	-56.5	6.7	1.83e-01	0	56	0	245366784	61	8268
2026-01-04 13:25:02.43	288.75	9.48	-49.7	-56.4	6.9	1.84e-01	0	56	0	248512512	61	8091
2026-01-04 13:25:04.41	289.10	9.50	-49.7	-56.1	7.1	1.43e-01	0	56	0	252706816	61	7842
2026-01-04 13:25:06.40	289.45	9.52	-49.7	-56.1	7.2	1.34e-01	0	56	0	255852544	61	7830
2026-01-04 13:25:08.38	289.79	9.54	-49.6	-55.9	7.5	1.03e-01	0	56	0	260046848	61	7632
2026-01-04 13:25:10.36	290.14	9.56	-49.8	-55.7	7.8	8.14e-02	0	56	0	264241152	61	7493
2026-01-04 13:25:12.34	290.49	9.58	-49.9	-55.9	7.7	8.96e-02	0	56	0	267386880	61	7651
2026-01-04 13:25:14.32	290.83	9.59	-49.8	-55.9	7.8	8.67e-02	0	56	0	271581184	61	7639
2026-01-04 13:25:16.30	291.18	9.61	-50.0	-56.0	7.7	8.52e-02	0	56	0	274726912	61	7787
2026-01-04 13:25:18.28	291.53	9.63	-50.0	-56.0	7.8	7.97e-02	0	56	0	278921216	62	7306
2026-01-04 13:25:20.26	291.88	9.64	-49.9	-55.5	8.3	6.56e-02	0	57	0	282066944	62	6900
2026-01-04 13:25:22.24	292.23	9.65	-49.6	-54.6	9.1	2.68e-02	0	56	0	286261248	62	6273
2026-01-04 13:25:24.21	292.58	9.67	-49.5	-54.5	9.2	1.95e-02	0	57	0	289406976	62	6178
2026-01-04 13:25:26.18	292.92	9.68	-49.6	-54.5	9.3	1.78e-02	0	57	0	293601280	62	6140
2026-01-04 13:25:28.15	293.27	9.69	-49.5	-54.3	9.6	1.34e-02	0	56	0	296747008	62	5994
2026-01-04 13:25:30.12	293.62	9.70	-49.5	-54.2	9.7	1.24e-02	0	56	0	300941312	62	5954
2026-01-04 13:25:32.10	293.97	9.71	-49.4	-53.9	10.0	7.65e-03	0	57	0	304087040	61	6085
2026-01-04 13:25:34.08	294.32	9.72	-49.4	-53.9	10.1	6.56e-03	0	57	0	308281344	61	6096
2026-01-04 13:25:36.06	294.67	9.72	-49.3	-53.7	10.2	6.58e-03	0	57	0	312475648	61	5957
2026-01-04 13:25:38.04	295.02	9.73	-49.1	-53.3	10.5	3.91e-03	0	56	0	315621376	61	5701
2026-01-04 13:25:40.02	295.37	9.74	-49.3	-53.8	10.0	7.00e-03	0	56	0	319815680	61	6010
2026-01-04 13:25:42.00	295.73	9.74	-49.3	-53.9	9.8	8.48e-03	0	57	0	322961408	61	6107
2026-01-04 13:25:43.97	296.08	9.74	-49.2	-54.1	9.5	1.29e-02	0	57	0	327155712	61	6251
2026-01-04 13:25:45.95	296.43	9.75	-49.3	-54.3	9.3	1.72e-02	0	57	0	330301440	61	6378
2026-01-04 13:25:47.93	296.78	9.75	-49.4	-54.6	8.8	2.77e-02	0	57	0	334495744	61	6617
2026-01-04 13:25:49.91	297.13	9.75	-49.4	-54.9	8.5	4.06e-02	0	57	0	337641472	61	6841
2026-01-04 13:25:51.89	297.48	9.75	-49.4	-55.0	8.4	5.37e-02	0	57	0	341835776	61	6899
2026-01-04 13:25:53.87	297.83	9.75	-49.3	-54.9	8.4	4.89e-02	0	57	0	344981504	61	6806
2026-01-04 13:25:55.85	298.18	9.75	-49.3	-54.6	8.7	3.52e-02	0	56	0	349175808	61	6593
2026-01-04 13:25:57.84	298.54	9.74	-49.4	-54.7	8.7	3.20e-02	0	57	0	352321536	61	6663
2026-01-04 13:25:59.82	298.89	9.74	-49.6	-55.1	8.4	4.13e-02	0	57	0	356515840	61	6970
2026-01-04 13:26:01.80	299.24	9.73	-49.3	-54.2	9.3	2.44e-02	0	57	0	360710144	61	6325
2026-01-04 13:26:03.79	299.59	9.73	-48.9	-53.4	10.1	8.08e-03	0	56	0	363855872	61	5743
2026-01-04 13:26:05.77	299.94	9.72	-48.9	-53.2	10.3	4.76e-03	0	57	0	368050176	60	5971
2026-01-04 13:26:07.75	300.29	9.71	-48.9	-53.1	10.6	3.36e-03	0	57	0	371195904	60	5922
2026-01-04 13:26:09.73	300.64	9.70	-48.6	-52.3	11.5	9.83e-04	0	57	0	375390208	60	5351
2026-01-04 13:26:11.71	300.99	9.69	-48.3	-51.5	12.4	1.97e-04	0	57	0	378535936	59	5178
2026-01-04 13:26:13.70	301.34	9.68	-48.2	-51.2	12.8	7.78e-05	0	57	0	382730240	59	5018
2026-01-04 13:26:15.68	301.69	9.67	-48.1	-51.1	13.0	3.58e-05	0	57	0	385875968	59	4928
2026-01-04 13:26:17.65	302.04	9.66	-48.3	-51.3	12.9	4.73e-05	0	57	0	390070272	59	5051
2026-01-04 13:26:19.64	302.39	9.65	-48.2	-51.0	13.3	2.36e-05	0	57	0	393216000	59	4879
2026-01-04 13:26:21.62	302.74	9.63	-48.1	-50.8	13.5	1.29e-05	0	57	0	397410304	59	4779
2026-01-04 13:26:23.59	303.09	9.62	-47.9	-50.4	14.0	2.20e-06	0	57	0	401604608	59	4598
2026-01-04 13:26:25.56	303.43	9.60	-48.0	-50.6	13.9	7.00e-07	0	57	0	404750336	59	4669
2026-01-04 13:26:27.53	303.78	9.59	-48.1	-50.7	13.9	4.50e-06	0	56	0	408944640	59	4708
2026-01-04 13:26:29.49	304.12	9.57	-48.1	-50.6	14.0	3.80e-06	0	57	0	412090368	59	4670
2026-01-04 13:26:31.47	304.47	9.55	-48.3	-50.9	13.7	5.30e-06	0	57	0	416284672	59	4816
2026-01-04 13:26:33.44	304.81	9.53	-48.4	-51.1	13.5	9.10e-06	0	57	0	419430400	59	4980
2026-01-04 13:26:35.42	305.16	9.51	-48.6	-51.5	13.1	3.89e-05	0	57	0	423624704	59	5177
2026-01-04 13:26:37.40	305.50	9.49	-48.8	-51.7	12.9	3.96e-05	0	57	0	426770432	59	5339
2026-01-04 13:26:39.38	305.85	9.47	-48.5	-51.3	13.3	3.35e-05	0	56	0	430964736	59	5095
2026-01-04 13:26:41.36	306.19	9.44	-48.3	-50.9	13.7	9.90e-06	0	57	0	434110464	59	4847
2026-01-04 13:26:43.34	306.54	9.42	-48.4	-51.1	13.6	4.50e-06	0	57	0	438304768	59	4933
2026-01-04 13:26:45.30	306.88	9.39	-48.3	-50.9	13.7	1.22e-05	0	57	0	441450496	59	4842
2026-01-04 13:26:47.28	307.22	9.37	-48.1	-50.5	14.1	1.50e-06	0	57	0	445644800	59	4649
2026-01-04 13:26:49.27	307.56	9.34	-48.1	-50.7	14.0	7.00e-07	0	57	0	448790528	59	4707
2026-01-04 13:26:51.25	307.90	9.31	-48.2	-50.8	13.8	6.10e-06	0	57	0	452984832	59	4794
2026-01-04 13:26:53.22	308.24	9.29	-48.2	-50.7	13.9	3.80e-06	0	57	0	457179136	59	4742
2026-01-04 13:26:55.19	308.58	9.26	-48.4	-51.1	13.5	1.37e-05	0	57	0	460324864	59	4950
2026-01-04 13:26:57.17	308.92	9.23	-48.4	-51.1	13.5	9.10e-06	0	57	0	464519168	59	4978
2026-01-04 13:26:59.15	309.26	9.20	-48.5	-51.2	13.4	1.75e-05	0	57	0	467664896	59	5041
2026-01-04 13:27:01.12	309.60	9.17	-48.6	-51.5	13.1	2.89e-05	0	57	0	471859200	59	5215
2026-01-04 13:27:03.11	309.93	9.13	-48.3	-51.0	13.6	6.80e-06	0	57	0	475004928	59	4910
2026-01-04 13:27:05.08	310.27	9.10	-48.2	-50.7	13.9	3.80e-06	0	57	0	479199232	59	4755
2026-01-04 13:27:07.06	310.60	9.07	-48.4	-51.0	13.7	3.80e-06	0	57	0	482344960	59	4874
2026-01-04 13:27:09.04	310.94	9.03	-48.5	-51.1	13.5	1.06e-05	0	57	0	486539264	59	4981
2026-01-04 13:27:11.02	311.27	9.00	-48.6	-51.3	13.3	1.44e-05	0	57	0	489684992	59	5089
2026-01-04 13:27:13.00	311.61	8.96	-48.5	-51.4	13.2	2.13e-05	0	57	0	493879296	59	5114
2026-01-04 13:27:14.99	311.94	8.92	-48.6	-51.5	13.1	3.96e-05	0	57	0	497025024	59	5186
2026-01-04 13:27:16.97	312.27	8.88	-48.6	-51.4	13.2	2.44e-05	0	57	0	501219328	59	5138
2026-01-04 13:27:18.95	312.60	8.85	-48.5	-51.3	13.3	1.98e-05	0	57	0	505413632	59	5091
2026-01-04 13:27:20.93	312.93	8.81	-48.3	-51.1	13.5	9.10e-06	0	57	0	508559360	59	4973
2026-01-04 13:27:22.91	313.26	8.77	-48.0	-50.5	14.1	3.80e-06	0	57	0	512753664	59	4608
2026-01-04 13:27:24.88	313.59	8.73	-47.9	-50.3	14.3	1.50e-06	0	57	0	515899392	58	4808
2026-01-04 13:27:26.86	313.92	8.68	-47.9	-50.3	14.3	1.50e-06	0	57	0	520093696	58	4796
2026-01-04 13:27:28.83	314.24	8.64	-47.9	-50.4	14.2	0.00e+00	0	57	0	523239424	58	4843
2026-01-04 13:27:30.81	314.57	8.60	-48.1	-50.7	13.9	3.80e-06	0	57	0	527433728	58	5014
2026-01-04 13:27:32.79	314.89	8.55	-48.0	-50.5	14.1	2.20e-06	0	57	0	530579456	58	4884
2026-01-04 13:27:34.78	315.22	8.51	-48.3	-50.9	13.7	3.00e-06	0	57	0	534773760	58	5141
2026-01-04 13:27:36.77	315.54	8.46	-48.1	-50.8	13.9	2.20e-06	0	57	0	537919488	58	5052
2026-01-04 13:27:38.75	315.86	8.42	-48.2	-50.8	13.7	7.60e-06	0	57	0	542113792	58	5094
2026-01-04 13:27:40.72	316.18	8.37	-48.4	-51.0	13.6	5.30e-06	0	57	0	545259520	58	5207
2026-01-04 13:27:42.70	316.50	8.33	-48.4	-51.1	13.4	2.05e-05	0	57	0	549453824	58	5266
2026-01-04 13:27:44.67	316.82	8.28	-48.5	-51.3	13.3	2.82e-05	0	57	0	553648128	59	5052
2026-01-04 13:27:46.66	317.14	8.23	-48.4	-51.2	13.3	1.29e-05	0	57	0	556793856	59	5002
2026-01-04 13:27:48.63	317.45	8.18	-48.5	-51.3	13.2	2.51e-05	0	57	0	560988160	59	5100
2026-01-04 13:27:50.61	317.77	8.13	-48.1	-50.7	13.9	3.00e-06	0	57	0	564133888	59	4719
2026-01-04 13:27:52.58	318.08	8.08	-47.9	-50.4	14.1	3.00e-06	0	57	0	568328192	59	4581
2026-01-04 13:27:54.57	318.40	8.03	-48.0	-50.5	14.0	2.20e-06	0	57	0	571473920	59	4643
2026-01-04 13:27:56.55	318.71	7.98	-48.2	-50.9	13.6	2.20e-06	0	57	0	575668224	59	4841
2026-01-04 13:27:58.53	319.02	7.92	-48.3	-51.0	13.6	1.90e-05	0	57	0	578813952	59	4873
2026-01-04 13:28:00.50	319.33	7.87	-48.5	-51.4	13.2	1.60e-05	0	57	0	583008256	59	5118
2026-01-04 13:28:02.47	319.64	7.82	-48.7	-51.7	12.9	4.50e-05	0	57	0	586153984	59	5289
2026-01-04 13:28:04.46	319.95	7.76	-48.6	-51.6	12.9	5.49e-05	0	56	0	590348288	59	5247
2026-01-04 13:28:06.43	320.25	7.71	-48.6	-51.5	13.0	4.04e-05	0	57	0	593494016	59	5167
2026-01-04 13:28:08.40	320.56	7.65	-48.4	-51.2	13.3	1.22e-05	0	57	0	597688320	59	5028
2026-01-04 13:28:10.38	320.86	7.60	-48.3	-51.1	13.4	1.75e-05	0	57	0	601882624	59	4964
2026-01-04 13:28:12.37	321.16	7.54	-48.4	-51.3	13.2	1.44e-05	0	57	0	605028352	59	5054
2026-01-04 13:28:14.35	321.47	7.49	-48.6	-51.4	13.1	2.44e-05	0	57	0	609222656	59	5134
2026-01-04 13:28:16.32	321.77	7.43	-48.7	-51.6	12.8	5.11e-05	0	57	0	612368384	59	5266
2026-01-04 13:28:18.30	322.07	7.37	-48.7	-51.7	12.8	7.40e-05	0	57	0	616562688	59	5321
2026-01-04 13:28:20.29	322.37	7.31	-48.8	-52.0	12.5	9.68e-05	0	57	0	619708416	59	5496
2026-01-04 13:28:22.27	322.67	7.25	-48.9	-52.3	12.1	1.91e-04	0	57	0	623902720	59	5720
2026-01-04 13:28:24.25	322.96	7.19	-49.3	-52.9	11.4	5.22e-04	0	57	0	627048448	60	5773
2026-01-04 13:28:26.24	323.26	7.13	-49.5	-53.6	10.8	2.03e-03	0	57	0	631242752	60	6203
2026-01-04 13:28:28.21	323.55	7.07	-49.6	-53.7	10.6	3.30e-03	0	56	0	634388480	61	5978
2026-01-04 13:28:30.19	323.84	7.01	-49.5	-53.6	10.7	3.69e-03	0	57	0	638582784	61	5894
2026-01-04 13:28:32.17	324.14	6.95	-49.3	-53.3	11.0	1.99e-03	0	57	0	641728512	61	5711
2026-01-04 13:28:34.15	324.43	6.89	-49.3	-53.2	11.1	1.77e-03	0	57	0	645922816	61	5647
2026-01-04 13:28:36.13	324.72	6.83	-49.4	-53.6	10.7	2.94e-03	0	57	0	650117120	61	5897
2026-01-04 13:28:38.10	325.00	6.76	-49.3	-53.1	11.2	1.48e-03	0	57	0	653262848	61	5570
2026-01-04 13:28:40.09	325.29	6.70	-49.1	-52.7	11.6	7.11e-04	0	57	0	657457152	61	5298
2026-01-04 13:28:42.06	325.58	6.64	-49.2	-52.8	11.5	7.31e-04	0	57	0	660602880	61	5392
2026-01-04 13:28:44.05	325.86	6.57	-49.1	-52.9	11.5	7.64e-04	0	57	0	664797184	61	5405
2026-01-04 13:28:46.02	326.14	6.51	-49.3	-53.2	11.1	1.56e-03	0	57	0	667942912	61	5599
2026-01-04 13:28:48.00	326.43	6.44	-49.6	-53.8	10.4	3.85e-03	0	57	0	672137216	61	6042
2026-01-04 13:28:49.97	326.71	6.38	-49.9	-54.6	9.6	9.79e-03	0	57	0	675282944	61	6636
2026-01-04 13:28:51.96	326.99	6.31	-50.0	-55.1	9.1	2.05e-02	0	57	0	679477248	61	6981
2026-01-04 13:28:53.95	327.27	6.24	-50.0	-54.9	9.3	2.07e-02	0	57	0	682622976	61	6847
2026-01-04 13:28:55.93	327.54	6.18	-50.1	-55.2	8.9	2.38e-02	0	57	0	686817280	62	6713
2026-01-04 13:28:57.91	327.82	6.11	-49.9	-54.7	9.5	1.64e-02	0	57	0	691011584	62	6293
2026-01-04 13:28:59.89	328.09	6.04	-49.9	-54.7	9.5	1.56e-02	0	57	0	694157312	62	6275
2026-01-04 13:29:01.88	328.37	5.97	-49.8	-54.4	9.7	1.14e-02	0	57	0	698351616	62	6103
2026-01-04 13:29:03.86	328.64	5.91	-49.8	-54.5	9.6	1.21e-02	0	57	0	701497344	62	6196
2026-01-04 13:29:05.83	328.91	5.84	-49.8	-54.5	9.6	1.53e-02	0	57	0	705691648	62	6180
2026-01-04 13:29:07.82	329.18	5.77	-49.6	-54.0	10.2	8.31e-03	0	57	0	708837376	62	5822
2026-01-04 13:29:09.81	329.45	5.70	-49.5	-54.0	10.2	5.61e-03	0	57	0	713031680	62	5792
2026-01-04 13:29:11.79	329.72	5.63	-49.6	-54.2	9.9	7.22e-03	0	57	0	716177408	62	5950
2026-01-04 13:29:13.77	329.99	5.56	-49.6	-54.1	10.0	6.84e-03	0	57	0	720371712	62	5869
2026-01-04 13:29:15.75	330.25	5.49	-49.7	-54.3	9.8	1.25e-02	0	57	0	723517440	62	5994
2026-01-04 13:29:17.74	330.52	5.42	-49.4	-53.5	10.6	3.67e-03	0	57	0	727711744	61	5789
2026-01-04 13:29:19.73	330.78	5.35	-49.2	-53.2	10.9	2.65e-03	0	57	0	731906048	61	5627
2026-01-04 13:29:21.72	331.04	5.28	-49.2	-53.2	10.8	2.22e-03	0	57	0	735051776	61	5646
2026-01-04 13:29:23.69	331.30	5.21	-49.4	-53.7	10.3	5.55e-03	0	57	0	739246080	61	5981
2026-01-04 13:29:25.68	331.56	5.13	-49.6	-54.2	9.8	8.58e-03	0	57	0	742391808	61	6300
2026-01-04 13:29:27.64	331.82	5.06	-49.6	-54.5	9.4	1.47e-02	0	57	0	746586112	61	6555
2026-01-04 13:29:29.60	332.07	4.99	-51.4	-64.9	3.8	1.00e+00	0	57	104	748683264	64	18199
2026-01-04 13:29:31.59	332.33	4.92	-51.8	-65.6	3.8	1.49e+00	0	57	104	748683264	65	18697
2026-01-04 13:29:33.57	332.58	4.85	-51.9	-65.8	3.8	1.49e+00	0	57	104	748683264	65	19158
2026-01-04 13:29:35.56	332.84	4.77	-52.0	-66.0	3.8	1.49e+00	0	57	104	748683264	65	19408
2026-01-04 13:29:37.54	333.09	4.70	-52.2	-66.1	3.8	1.49e+00	0	57	104	748683264	66	18585
2026-01-04 13:29:39.52	333.34	4.63	-52.1	-66.2	3.8	1.49e+00	0	57	104	748683264	66	18737
2026-01-04 13:29:41.51	333.59	4.55	-52.3	-66.2	3.8	1.49e+00	0	57	104	748683264	66	18868
2026-01-04 13:29:43.48	333.84	4.48	-52.3	-66.3	3.8	1.49e+00	0	57	104	748683264	66	18988
2026-01-04 13:29:45.46	334.08	4.41	-52.3	-66.3	3.8	1.49e+00	0	57	104	748683264	66	19069
2026-01-04 13:29:47.45	334.33	4.33	-52.5	-66.3	3.8	1.49e+00	0	57	104	748683264	66	19161
2026-01-04 13:29:49.42	334.57	4.26	-52.4	-66.3	3.8	1.49e+00	0	57	104	748683264	66	19141
2026-01-04 13:29:51.41	334.82	4.18	-52.2	-66.4	3.8	1.49e+00	0	57	104	748683264	66	19204
2026-01-04 13:29:53.40	335.06	4.11	-52.4	-66.4	3.8	1.49e+00	0	57	104	748683264	66	19221
2026-01-04 13:29:55.38	335.30	4.03	-52.5	-66.4	3.8	1.49e+00	0	57	104	748683264	66	19232
2026-01-04 13:29:57.36	335.54	3.96	-52.5	-66.4	3.8	1.49e+00	0	57	104	748683264	66	19233
2026-01-04 13:29:59.35	335.78	3.88	-52.4	-66.3	3.8	1.49e+00	0	57	104	748683264	66	19157
2026-01-04 13:30:01.33	336.02	3.80	-52.3	-66.4	3.8	1.49e+00	0	57	104	748683264	66	19221
2026-01-04 13:30:03.30	336.25	3.73	-52.5	-66.4	3.8	1.49e+00	0	57	104	748683264	66	19176
2026-01-04 13:30:05.29	336.49	3.65	-52.5	-66.3	3.8	1.49e+00	0	57	104	748683264	66	19133
2026-01-04 13:30:07.28	336.72	3.58	-52.4	-66.4	3.8	1.49e+00	0	57	104	748683264	66	19186
2026-01-04 13:30:09.26	336.96	3.50	-52.4	-66.3	3.8	1.49e+00	0	57	104	748683264	66	19123
2026-01-04 13:30:11.24	337.19	3.42	-52.5	-66.3	3.8	1.49e+00	0	57	104	748683264	66	19146
2026-01-04 13:30:13.22	337.42	3.35	-52.4	-66.3	3.8	1.49e+00	0	57	104	748683264	66	19149
2026-01-04 13:30:15.20	337.65	3.27	-52.5	-66.3	3.8	1.49e+00	0	57	104	748683264	66	19083
2026-01-04 13:30:17.18	337.88	3.19	-52.3	-66.3	3.8	1.49e+00	0	57	104	748683264	66	19090
2026-01-04 13:30:19.16	338.10	3.11	-52.3	-66.3	3.8	1.49e+00	0	57	104	748683264	66	19146
2026-01-04 13:30:21.14	338.33	3.04	-52.4	-66.3	3.8	1.49e+00	0	57	104	748683264	66	19142
2026-01-04 13:30:23.12	338.55	2.96	-52.3	-66.3	3.8	1.49e+00	0	57	104	748683264	66	19125

#Closed at: 2026-01-04 13:30:23
#Recorded file [748 MB]: D:/Data/31026_260104_162929.dat