passes_logs/2026/01/04/R3.0SM8_Murmansk_STILSPACE/R3.0SM8_Murmansk_STILSPACE__20260104_013832_NOAA_20_JPSS-1_rec.log

#Pass ID: 20260104_013832_NOAA 20 (JPSS-1)
#Satellite: NOAA 20 (JPSS-1)
#Configuration: NOAA 20
#almurnet v.1.7.20240730
#Start time: 2026-01-04 01:38:32

#Version: 2.2.20231116
#Station: R3.0SM8_Murmansk_STILSPACE
#Location: 33.092731 lon 68.902999 lat
#TLE: 1 43013U 17073A   26003.41800368  .00000169  00000+0  10117-3 0  9998
#TLE: 2 43013  98.7624 304.4804 0001884  56.1176 304.0179 14.19532918421092

#Time	Az	El	Level	Level2	SNR	BER	BlckErr	Temp	State	Recorded	gain1	gain2
2026-01-04 01:38:32.12	28.46	2.98	-52.3	-66.2	3.8	1.49e+00	0	47	0	0	67	17754
2026-01-04 01:38:36.10	28.37	3.24	-52.1	-65.9	3.8	1.49e+00	0	48	104	0	67	17255
2026-01-04 01:38:40.06	28.29	3.51	-51.5	-65.1	3.8	1.49e+00	0	48	104	0	66	16690
2026-01-04 01:38:44.03	28.20	3.77	-51.4	-63.9	3.8	1.49e+00	0	48	104	0	65	15325
2026-01-04 01:38:47.99	28.10	4.04	-51.2	-62.5	4.0	1.48e+00	0	48	104	0	65	12960
2026-01-04 01:38:51.96	28.01	4.31	-51.1	-60.6	4.6	1.14e+00	0	49	0	2097152	65	10532
2026-01-04 01:38:55.91	27.91	4.58	-50.8	-58.5	5.8	4.36e-01	0	49	0	9437184	64	8706
2026-01-04 01:38:59.87	27.81	4.86	-50.2	-55.8	8.3	6.27e-02	0	49	0	16777216	63	6738
2026-01-04 01:39:03.82	27.71	5.13	-50.2	-55.7	8.3	2.73e-02	0	49	0	24117248	62	7114
2026-01-04 01:39:07.77	27.61	5.41	-49.4	-53.4	10.8	4.36e-03	0	49	0	31457280	61	5745
2026-01-04 01:39:11.73	27.50	5.70	-49.1	-52.9	11.4	1.01e-03	0	50	0	38797312	61	5404
2026-01-04 01:39:15.67	27.40	5.98	-48.4	-51.2	13.2	2.97e-05	0	50	0	46137344	59	5000
2026-01-04 01:39:19.63	27.29	6.27	-47.7	-50.1	14.2	2.20e-06	0	50	0	53477376	58	4695
2026-01-04 01:39:23.58	27.17	6.56	-47.7	-50.0	14.4	0.00e+00	0	50	0	61865984	58	4611
2026-01-04 01:39:27.54	27.06	6.86	-47.6	-49.8	14.6	0.00e+00	0	51	0	69206016	58	4539
2026-01-04 01:39:31.48	26.94	7.16	-47.4	-49.5	14.9	0.00e+00	0	51	0	76546048	57	4618
2026-01-04 01:39:35.43	26.82	7.46	-47.5	-49.8	14.7	0.00e+00	0	51	0	83886080	57	4768
2026-01-04 01:39:39.38	26.69	7.76	-47.6	-49.9	14.7	0.00e+00	0	51	0	91226112	57	4825
2026-01-04 01:39:43.34	26.57	8.07	-47.7	-49.9	14.6	1.50e-06	0	51	0	98566144	57	4838
2026-01-04 01:39:47.30	26.44	8.39	-47.6	-49.7	14.9	7.00e-07	0	52	0	105906176	57	4740
2026-01-04 01:39:51.26	26.30	8.70	-47.3	-49.2	15.3	0.00e+00	0	51	0	113246208	57	4493
2026-01-04 01:39:55.21	26.17	9.02	-47.6	-49.7	15.0	0.00e+00	0	52	0	120586240	57	4723
2026-01-04 01:39:59.16	26.03	9.35	-47.1	-49.0	15.6	0.00e+00	0	52	0	127926272	57	4364
2026-01-04 01:40:03.11	25.89	9.68	-47.2	-49.1	15.6	0.00e+00	0	52	0	135266304	57	4420
2026-01-04 01:40:07.08	25.74	10.01	-47.4	-49.4	15.3	0.00e+00	0	52	0	142606336	57	4587
2026-01-04 01:40:11.03	25.59	10.35	-47.4	-49.4	15.3	0.00e+00	0	52	0	149946368	57	4574
2026-01-04 01:40:14.99	25.43	10.69	-47.3	-49.3	15.5	0.00e+00	0	52	0	157286400	57	4499
2026-01-04 01:40:18.94	25.27	11.03	-47.4	-49.4	15.4	0.00e+00	0	52	0	165675008	57	4549
2026-01-04 01:40:22.91	25.11	11.39	-47.6	-49.7	15.1	0.00e+00	0	53	0	173015040	57	4724
2026-01-04 01:40:26.86	24.94	11.74	-47.5	-49.6	15.2	0.00e+00	0	53	0	180355072	57	4685
2026-01-04 01:40:30.83	24.77	12.10	-47.2	-49.2	15.6	0.00e+00	0	53	0	187695104	57	4458
2026-01-04 01:40:34.79	24.59	12.47	-47.2	-49.2	15.7	0.00e+00	0	53	0	195035136	57	4445
2026-01-04 01:40:38.75	24.41	12.84	-46.9	-48.6	16.2	0.00e+00	0	53	0	202375168	56	4430
2026-01-04 01:40:42.70	24.23	13.22	-47.2	-49.0	15.9	0.00e+00	0	53	0	209715200	56	4636
2026-01-04 01:40:46.67	24.03	13.60	-46.9	-48.7	16.2	0.00e+00	0	53	0	217055232	56	4447
2026-01-04 01:40:50.64	23.83	13.99	-46.9	-48.7	16.2	0.00e+00	0	53	0	224395264	56	4442
2026-01-04 01:40:54.59	23.63	14.38	-46.7	-48.4	16.5	0.00e+00	0	53	0	231735296	56	4299
2026-01-04 01:40:58.54	23.42	14.78	-46.7	-48.4	16.5	0.00e+00	0	53	0	239075328	56	4302
2026-01-04 01:41:02.50	23.21	15.19	-46.9	-48.6	16.3	0.00e+00	0	53	0	246415360	56	4438
2026-01-04 01:41:06.45	22.99	15.60	-46.8	-48.5	16.4	0.00e+00	0	53	0	253755392	56	4364
2026-01-04 01:41:10.41	22.76	16.02	-46.9	-48.6	16.4	0.00e+00	0	54	0	262144000	56	4407
2026-01-04 01:41:14.37	22.52	16.45	-46.7	-48.3	16.6	0.00e+00	0	54	0	269484032	56	4257
2026-01-04 01:41:18.33	22.28	16.88	-46.7	-48.3	16.7	0.00e+00	0	54	0	276824064	56	4256
2026-01-04 01:41:22.30	22.03	17.32	-47.0	-48.7	16.3	0.00e+00	0	54	0	284164096	56	4458
2026-01-04 01:41:26.27	21.77	17.77	-47.1	-48.9	16.1	0.00e+00	0	54	0	291504128	56	4574
2026-01-04 01:41:30.20	21.51	18.22	-47.2	-49.0	16.0	0.00e+00	0	54	0	298844160	56	4600
2026-01-04 01:41:34.16	21.23	18.69	-46.9	-48.6	16.4	0.00e+00	0	54	0	306184192	56	4427
2026-01-04 01:41:38.13	20.95	19.16	-46.6	-48.1	16.9	0.00e+00	0	54	0	313524224	56	4190
2026-01-04 01:41:42.10	20.65	19.64	-46.6	-48.3	16.8	0.00e+00	0	54	0	320864256	56	4245
2026-01-04 01:41:46.05	20.35	20.13	-46.6	-48.2	16.9	0.00e+00	0	54	0	328204288	56	4197
2026-01-04 01:41:50.00	20.04	20.62	-46.7	-48.2	16.8	0.00e+00	0	54	0	335544320	56	4242
2026-01-04 01:41:53.97	19.71	21.13	-46.4	-47.9	17.1	0.00e+00	0	54	0	342884352	55	4304
2026-01-04 01:41:57.94	19.37	21.65	-46.3	-47.8	17.2	0.00e+00	0	54	0	351272960	55	4263
2026-01-04 01:42:01.91	19.02	22.17	-46.4	-47.9	17.0	0.00e+00	0	54	0	358612992	55	4332
2026-01-04 01:42:05.85	18.67	22.71	-46.7	-48.3	16.7	0.00e+00	0	54	0	365953024	55	4517
2026-01-04 01:42:09.82	18.29	23.25	-47.0	-48.7	16.3	0.00e+00	0	55	0	373293056	55	4708
2026-01-04 01:42:13.79	17.90	23.81	-47.4	-49.2	15.9	0.00e+00	0	55	0	380633088	56	4738
2026-01-04 01:42:17.75	17.50	24.38	-47.7	-49.7	15.4	0.00e+00	0	55	0	387973120	57	4733
2026-01-04 01:42:21.71	17.08	24.95	-48.0	-50.1	15.0	0.00e+00	0	55	0	395313152	57	4927
2026-01-04 01:42:25.67	16.65	25.54	-48.2	-50.5	14.6	7.00e-07	0	55	0	402653184	58	4880
2026-01-04 01:42:29.62	16.20	26.14	-48.7	-51.3	13.6	5.30e-06	0	55	0	409993216	59	5090
2026-01-04 01:42:33.57	15.73	26.75	-48.4	-50.9	13.9	7.00e-07	0	55	0	417333248	59	4854
2026-01-04 01:42:37.54	15.24	27.37	-49.4	-53.4	10.8	8.56e-04	0	55	0	424673280	60	6081
2026-01-04 01:42:41.50	14.73	28.01	-49.8	-55.5	8.0	4.47e-02	0	55	0	432013312	61	7370
2026-01-04 01:42:45.46	14.20	28.65	-50.2	-56.5	7.3	1.40e-01	0	55	0	439353344	62	7722
2026-01-04 01:42:49.42	13.65	29.31	-49.7	-53.9	10.5	8.67e-03	0	55	0	447741952	62	5728
2026-01-04 01:42:53.39	13.07	29.98	-49.5	-52.9	12.0	1.13e-03	0	55	0	455081984	62	5138
2026-01-04 01:42:57.35	12.47	30.67	-49.3	-52.4	12.6	8.54e-05	0	55	0	462422016	61	5147
2026-01-04 01:43:01.31	11.84	31.36	-49.5	-52.7	12.4	2.23e-04	0	55	0	469762048	61	5319
2026-01-04 01:43:05.27	11.18	32.07	-48.8	-51.4	13.7	7.60e-06	0	55	0	477102080	60	4849
2026-01-04 01:43:09.23	10.49	32.80	-48.7	-51.2	14.0	3.00e-06	0	56	0	484442112	60	4748
2026-01-04 01:43:13.18	9.77	33.53	-48.8	-51.5	13.7	6.10e-06	0	56	0	491782144	60	4871
2026-01-04 01:43:17.14	9.02	34.28	-49.3	-52.2	13.0	4.19e-05	0	55	0	499122176	60	5300
2026-01-04 01:43:21.10	8.23	35.03	-49.6	-52.9	12.3	1.15e-04	0	56	0	506462208	61	5415
2026-01-04 01:43:25.05	7.40	35.80	-49.5	-52.6	12.6	5.11e-05	0	56	0	513802240	61	5242
2026-01-04 01:43:29.00	6.53	36.59	-49.9	-53.5	11.7	3.84e-04	0	56	0	521142272	61	5812
2026-01-04 01:43:32.96	5.62	37.38	-49.8	-53.4	11.8	4.71e-04	0	56	0	528482304	61	5734
2026-01-04 01:43:36.91	4.66	38.18	-49.7	-52.9	12.3	2.46e-04	0	56	0	535822336	61	5446
2026-01-04 01:43:40.86	3.66	38.99	-49.9	-53.4	11.7	4.03e-04	0	56	0	544210944	61	5760
2026-01-04 01:43:44.81	2.60	39.81	-49.6	-52.8	12.4	2.21e-04	0	56	0	551550976	62	5099
2026-01-04 01:43:48.77	1.48	40.64	-49.9	-53.3	11.8	4.55e-04	0	56	0	558891008	62	5392
2026-01-04 01:43:52.72	0.30	41.48	-49.2	-52.1	13.1	8.77e-05	0	56	0	566231040	61	4947
2026-01-04 01:43:56.69	359.06	42.32	-48.8	-51.4	13.9	2.20e-06	0	56	0	573571072	60	4820
2026-01-04 01:44:00.64	357.75	43.16	-48.7	-51.2	14.0	3.80e-06	0	56	0	580911104	60	4741
2026-01-04 01:44:04.60	356.37	44.01	-48.9	-51.5	13.7	7.00e-07	0	56	0	588251136	60	4919
2026-01-04 01:44:08.56	354.92	44.85	-48.9	-51.7	13.6	6.10e-06	0	56	0	595591168	60	4984
2026-01-04 01:44:12.51	353.38	45.69	-48.9	-51.4	13.8	5.30e-06	0	56	0	602931200	60	4849
2026-01-04 01:44:16.46	351.77	46.52	-48.7	-51.1	14.2	1.50e-06	0	56	0	610271232	60	4659
2026-01-04 01:44:20.41	350.06	47.34	-49.2	-52.0	13.3	2.05e-05	0	56	0	617611264	60	5182
2026-01-04 01:44:24.38	348.26	48.15	-49.3	-52.2	13.0	3.66e-05	0	56	0	624951296	60	5296
2026-01-04 01:44:28.33	346.36	48.94	-49.1	-51.9	13.4	1.06e-05	0	56	0	632291328	60	5133
2026-01-04 01:44:32.28	344.37	49.71	-48.8	-51.4	14.0	3.80e-06	0	56	0	640679936	60	4824
2026-01-04 01:44:36.24	342.27	50.46	-48.0	-50.0	15.3	0.00e+00	0	56	0	648019968	59	4358
2026-01-04 01:44:40.20	340.07	51.17	-46.9	-48.6	16.8	0.00e+00	0	56	0	655360000	56	4409
2026-01-04 01:44:44.16	337.76	51.84	-46.9	-48.4	16.9	0.00e+00	0	56	0	662700032	56	4329
2026-01-04 01:44:48.11	335.35	52.47	-46.9	-48.4	16.9	0.00e+00	0	56	0	670040064	56	4322
2026-01-04 01:44:52.06	332.85	53.06	-47.7	-49.5	15.8	0.00e+00	0	56	0	677380096	57	4621
2026-01-04 01:44:56.01	330.24	53.59	-47.7	-49.7	15.7	0.00e+00	0	56	0	684720128	57	4715
2026-01-04 01:44:59.97	327.53	54.07	-47.4	-49.1	16.3	0.00e+00	0	56	0	692060160	57	4410
2026-01-04 01:45:03.93	324.74	54.48	-48.0	-50.0	15.4	0.00e+00	0	56	0	699400192	57	4892
2026-01-04 01:45:07.87	321.88	54.82	-47.7	-49.5	15.9	0.00e+00	0	56	0	706740224	58	4370
2026-01-04 01:45:11.83	318.95	55.10	-46.9	-48.5	16.9	0.00e+00	0	56	0	714080256	57	4132
2026-01-04 01:45:15.79	315.97	55.30	-45.3	-46.5	18.7	0.00e+00	0	56	0	721420288	53	4121
2026-01-04 01:45:19.74	312.96	55.42	-45.4	-46.6	18.6	0.00e+00	0	56	0	728760320	53	4161
2026-01-04 01:45:23.70	309.93	55.46	-45.4	-46.6	18.6	0.00e+00	0	56	0	736100352	53	4177
2026-01-04 01:45:27.65	306.90	55.43	-46.1	-47.4	17.8	0.00e+00	0	56	0	744488960	53	4592
2026-01-04 01:45:31.60	303.89	55.31	-46.5	-48.0	17.2	0.00e+00	0	56	0	751828992	54	4650
2026-01-04 01:45:35.57	300.90	55.12	-46.0	-47.3	17.9	0.00e+00	0	56	0	759169024	55	4034
2026-01-04 01:45:39.54	297.96	54.85	-45.8	-47.1	18.2	0.00e+00	0	56	0	766509056	54	4146
2026-01-04 01:45:43.50	295.08	54.51	-45.6	-46.9	18.3	0.00e+00	0	56	0	773849088	54	4060
2026-01-04 01:45:47.45	292.29	54.10	-46.4	-47.8	17.4	0.00e+00	0	57	0	781189120	54	4513
2026-01-04 01:45:51.40	289.58	53.63	-45.8	-47.1	18.1	0.00e+00	0	56	0	788529152	54	4186
2026-01-04 01:45:55.35	286.96	53.11	-46.2	-47.6	17.6	0.00e+00	0	56	0	795869184	54	4415
2026-01-04 01:45:59.33	284.42	52.52	-47.1	-48.7	16.6	0.00e+00	0	56	0	803209216	56	4471
2026-01-04 01:46:03.28	282.00	51.89	-47.2	-48.9	16.5	0.00e+00	0	56	0	810549248	56	4557
2026-01-04 01:46:07.25	279.68	51.22	-47.5	-49.3	16.1	0.00e+00	0	56	0	817889280	57	4514
2026-01-04 01:46:11.22	277.46	50.50	-47.6	-49.4	15.9	0.00e+00	0	56	0	825229312	57	4587
2026-01-04 01:46:15.20	275.34	49.76	-47.9	-49.9	15.4	0.00e+00	0	56	0	833617920	59	4317
2026-01-04 01:46:19.14	273.34	48.99	-48.9	-51.4	13.9	2.20e-06	0	57	0	840957952	59	5150
2026-01-04 01:46:23.09	271.44	48.20	-49.8	-53.1	12.2	1.36e-04	0	56	0	848297984	61	5539
2026-01-04 01:46:27.05	269.63	47.39	-50.8	-55.6	9.6	9.15e-03	0	56	0	855638016	63	6607
2026-01-04 01:46:30.99	267.92	46.57	-50.6	-55.1	10.1	5.91e-03	0	56	0	862978048	63	6251
2026-01-04 01:46:34.94	266.29	45.74	-50.4	-54.3	11.0	1.96e-03	0	57	0	870318080	63	5701
2026-01-04 01:46:38.92	264.74	44.90	-49.7	-52.9	12.4	2.58e-04	0	57	0	877658112	62	5123
2026-01-04 01:46:42.87	263.28	44.05	-48.9	-51.4	13.8	3.00e-06	0	57	0	884998144	60	4864
2026-01-04 01:46:46.83	261.89	43.20	-49.0	-51.7	13.7	2.21e-05	0	56	0	892338176	60	4992
2026-01-04 01:46:50.78	260.58	42.36	-49.1	-51.8	13.5	4.50e-06	0	57	0	899678208	60	5100
2026-01-04 01:46:54.75	259.33	41.51	-49.8	-53.1	12.1	4.16e-04	0	57	0	907018240	61	5579
2026-01-04 01:46:58.71	258.14	40.68	-50.1	-53.7	11.5	8.04e-04	0	57	0	914358272	62	5643
2026-01-04 01:47:02.66	257.02	39.85	-50.1	-54.0	11.2	1.53e-03	0	57	0	921698304	62	5811
2026-01-04 01:47:06.63	255.95	39.02	-50.0	-53.6	11.6	5.83e-04	0	56	0	930086912	62	5570
2026-01-04 01:47:10.59	254.94	38.20	-49.9	-53.3	11.9	2.98e-04	0	57	0	937426944	62	5371
2026-01-04 01:47:14.55	253.97	37.39	-49.1	-51.9	13.4	2.97e-05	0	57	0	944766976	61	4841
2026-01-04 01:47:18.51	253.05	36.60	-49.7	-52.9	12.4	7.24e-05	0	57	0	952107008	61	5432
2026-01-04 01:47:22.47	252.18	35.81	-48.8	-51.3	14.0	6.80e-06	0	57	0	959447040	60	4790
2026-01-04 01:47:26.43	251.35	35.04	-48.9	-51.5	13.8	2.20e-06	0	57	0	966787072	60	4888
2026-01-04 01:47:30.37	250.56	34.28	-49.5	-52.5	12.7	6.17e-05	0	57	0	974127104	61	5175
2026-01-04 01:47:34.33	249.80	33.53	-49.4	-52.5	12.8	7.85e-05	0	57	0	981467136	61	5160
2026-01-04 01:47:38.28	249.08	32.80	-49.5	-52.6	12.7	9.00e-05	0	57	0	988807168	61	5228
2026-01-04 01:47:42.24	248.39	32.07	-49.1	-51.8	13.4	1.22e-05	0	57	0	996147200	61	4805
2026-01-04 01:47:46.20	247.73	31.36	-49.5	-52.5	12.7	7.47e-05	0	57	0	1003487232	61	5214
2026-01-04 01:47:50.16	247.09	30.66	-49.7	-52.8	12.4	1.29e-04	0	57	0	1010827264	61	5401
2026-01-04 01:47:54.10	246.49	29.98	-49.2	-52.2	13.0	4.11e-05	0	57	0	1018167296	61	5006
2026-01-04 01:47:58.07	245.91	29.30	-48.9	-51.6	13.7	1.22e-05	0	57	0	1026555904	60	4931
2026-01-04 01:48:02.04	245.35	28.64	-48.7	-51.2	14.0	2.20e-06	0	57	0	1033895936	60	4734
2026-01-04 01:48:05.99	244.82	27.99	-48.3	-50.5	14.8	0.00e+00	0	57	0	1041235968	59	4611
2026-01-04 01:48:09.96	244.31	27.35	-48.4	-50.7	14.5	0.00e+00	0	57	0	1048576000	59	4754
2026-01-04 01:48:13.93	243.82	26.73	-48.4	-50.7	14.5	7.00e-07	0	57	0	1055916032	59	4730
2026-01-04 01:48:17.89	243.34	26.12	-48.4	-50.7	14.6	0.00e+00	0	57	0	1063256064	59	4710
2026-01-04 01:48:21.85	242.89	25.51	-48.2	-50.4	14.8	0.00e+00	0	57	0	1070596096	59	4580
2026-01-04 01:48:25.81	242.45	24.92	-48.1	-50.3	15.0	7.00e-07	0	57	0	1077936128	59	4498
2026-01-04 01:48:29.75	242.04	24.35	-47.7	-49.6	15.6	0.00e+00	0	57	0	1085276160	58	4439
2026-01-04 01:48:33.69	241.63	23.78	-47.4	-49.3	16.0	0.00e+00	0	57	0	1092616192	58	4264
2026-01-04 01:48:37.65	241.24	23.23	-47.6	-49.5	15.7	0.00e+00	0	57	0	1099956224	58	4369
2026-01-04 01:48:41.60	240.87	22.68	-47.9	-49.9	15.2	7.00e-07	0	57	0	1107296256	58	4581
2026-01-04 01:48:45.55	240.50	22.15	-48.1	-50.2	15.0	0.00e+00	0	57	0	1114636288	58	4750
2026-01-04 01:48:49.50	240.15	21.62	-48.2	-50.5	14.7	7.00e-07	0	57	0	1121976320	58	4907
2026-01-04 01:48:53.46	239.81	21.10	-47.9	-49.9	15.3	0.00e+00	0	57	0	1130364928	58	4577
2026-01-04 01:48:57.41	239.49	20.60	-48.1	-50.2	14.9	7.00e-07	0	57	0	1137704960	58	4755
2026-01-04 01:49:01.36	239.17	20.10	-48.1	-50.4	14.8	0.00e+00	0	57	0	1145044992	58	4816
2026-01-04 01:49:05.32	238.87	19.61	-47.7	-49.7	15.5	0.00e+00	0	57	0	1152385024	58	4466
2026-01-04 01:49:09.27	238.57	19.13	-47.5	-49.3	15.8	0.00e+00	0	57	0	1159725056	58	4270
2026-01-04 01:49:13.22	238.29	18.65	-47.7	-49.6	15.5	0.00e+00	0	57	0	1167065088	57	4685
2026-01-04 01:49:17.18	238.01	18.19	-47.9	-49.9	15.2	0.00e+00	0	57	0	1174405120	57	4850
2026-01-04 01:49:21.14	237.74	17.73	-47.9	-50.1	15.0	0.00e+00	0	57	0	1181745152	58	4665
2026-01-04 01:49:25.10	237.48	17.28	-48.0	-50.2	14.9	0.00e+00	0	57	0	1189085184	58	4719
2026-01-04 01:49:29.05	237.23	16.84	-48.3	-50.6	14.4	2.20e-06	0	57	0	1196425216	58	4955
2026-01-04 01:49:33.01	236.98	16.41	-48.8	-51.6	13.4	9.90e-06	0	57	0	1203765248	59	5235
2026-01-04 01:49:36.98	236.74	15.98	-49.1	-52.0	13.0	2.51e-05	0	57	0	1211105280	59	5478
2026-01-04 01:49:40.93	236.51	15.56	-48.4	-50.8	14.1	3.00e-06	0	57	0	1218445312	59	4803
2026-01-04 01:49:44.90	236.29	15.14	-48.1	-50.4	14.6	7.00e-07	0	57	0	1226833920	59	4558
2026-01-04 01:49:48.85	236.07	14.74	-48.3	-50.7	14.1	4.50e-06	0	57	0	1234173952	59	4758
2026-01-04 01:49:52.79	235.86	14.34	-48.3	-50.7	14.1	7.00e-07	0	57	0	1241513984	59	4757
2026-01-04 01:49:56.76	235.65	13.94	-48.4	-50.9	13.9	3.00e-06	0	57	0	1248854016	59	4852
2026-01-04 01:50:00.71	235.45	13.55	-48.8	-51.6	13.2	2.13e-05	0	57	0	1256194048	59	5241
2026-01-04 01:50:04.68	235.26	13.17	-48.8	-51.7	13.1	2.82e-05	0	57	0	1263534080	59	5286
2026-01-04 01:50:08.63	235.07	12.79	-48.4	-51.0	13.7	9.10e-06	0	57	0	1270874112	59	4894
2026-01-04 01:50:12.60	234.89	12.42	-48.6	-51.4	13.2	2.21e-05	0	57	0	1278214144	59	5140
2026-01-04 01:50:16.55	234.71	12.05	-48.8	-51.8	12.8	5.87e-05	0	57	0	1285554176	59	5366
2026-01-04 01:50:20.51	234.53	11.69	-49.0	-52.3	12.2	2.40e-04	0	57	0	1292894208	60	5397
2026-01-04 01:50:24.48	234.36	11.33	-49.1	-52.5	11.9	3.01e-04	0	57	0	1300234240	60	5516
2026-01-04 01:50:28.44	234.20	10.98	-49.0	-52.3	12.1	3.24e-04	0	57	0	1307574272	60	5385
2026-01-04 01:50:32.39	234.04	10.63	-48.8	-52.0	12.3	1.59e-04	0	57	0	1314914304	60	5214
2026-01-04 01:50:36.35	233.88	10.29	-48.7	-52.0	12.3	1.70e-04	0	57	0	1323302912	60	5178
2026-01-04 01:50:40.31	233.73	9.95	-48.9	-52.4	11.8	3.75e-04	0	57	0	1330642944	60	5439
2026-01-04 01:50:44.26	233.58	9.62	-49.0	-52.6	11.6	7.89e-04	0	57	0	1337982976	60	5540
2026-01-04 01:50:48.21	233.43	9.29	-49.2	-53.1	11.0	2.11e-03	0	57	0	1345323008	60	5891
2026-01-04 01:50:52.19	233.29	8.96	-49.4	-53.7	10.3	4.36e-03	0	57	0	1352663040	60	6293
2026-01-04 01:50:56.15	233.15	8.64	-49.6	-54.2	9.7	1.04e-02	0	57	0	1360003072	61	6300
2026-01-04 01:51:00.11	233.01	8.32	-49.7	-54.6	9.3	1.88e-02	0	57	0	1367343104	61	6573
2026-01-04 01:51:04.07	232.88	8.01	-49.7	-54.8	9.0	2.50e-02	0	57	0	1374683136	61	6740
2026-01-04 01:51:08.04	232.75	7.70	-49.9	-55.4	8.3	4.32e-02	0	57	0	1382023168	61	7267
2026-01-04 01:51:12.00	232.62	7.39	-49.9	-55.5	8.2	6.00e-02	0	57	0	1389363200	61	7317
2026-01-04 01:51:15.96	232.50	7.09	-49.9	-55.7	8.0	6.65e-02	0	57	0	1396703232	61	7477
2026-01-04 01:51:19.92	232.38	6.79	-50.0	-56.3	7.3	1.03e-01	0	57	0	1404043264	61	8017
2026-01-04 01:51:23.87	232.26	6.49	-50.0	-56.2	7.4	1.26e-01	0	57	0	1412431872	62	7466
2026-01-04 01:51:27.83	232.14	6.20	-50.1	-56.5	7.1	1.46e-01	0	57	0	1419771904	62	7730
2026-01-04 01:51:31.76	232.03	5.91	-50.1	-56.9	6.6	2.30e-01	0	57	0	1427111936	62	8128
2026-01-04 01:51:35.72	231.92	5.62	-50.1	-57.0	6.5	2.05e-01	0	57	0	1434451968	62	8184
2026-01-04 01:51:39.69	231.81	5.34	-50.1	-57.4	6.1	2.68e-01	0	57	0	1441792000	62	8620
2026-01-04 01:51:43.65	231.71	5.06	-50.3	-58.1	5.6	4.04e-01	0	57	0	1449132032	62	9363
2026-01-04 01:51:47.59	231.60	4.78	-52.2	-65.9	3.8	1.49e+00	0	57	104	1450180608	66	18283
2026-01-04 01:51:51.54	231.50	4.51	-52.4	-66.2	3.8	1.49e+00	0	57	104	1450180608	66	18840
2026-01-04 01:51:55.50	231.40	4.23	-52.5	-66.3	3.8	1.49e+00	0	57	104	1450180608	66	19017
2026-01-04 01:51:59.45	231.31	3.96	-52.5	-66.3	3.8	1.49e+00	0	57	104	1450180608	66	19150
2026-01-04 01:52:03.42	231.21	3.70	-52.6	-66.4	3.8	1.49e+00	0	57	104	1450180608	67	18199
2026-01-04 01:52:07.39	231.12	3.43	-52.5	-66.4	3.8	1.49e+00	0	57	104	1450180608	67	18266
2026-01-04 01:52:11.35	231.03	3.17	-52.6	-66.4	3.8	1.49e+00	0	57	104	1450180608	67	18272
2026-01-04 01:52:15.30	230.94	2.91	-52.6	-66.4	3.8	1.49e+00	0	57	104	1450180608	67	18186

#Closed at: 2026-01-04 01:52:16
#Recorded file [1450 MB]: D:/Data/31026_260104_045144.dat