passes_logs/2026/01/04/R3.0SM8_Murmansk_STILSPACE/R3.0SM8_Murmansk_STILSPACE__20260104_095453_AQUA_rec.log

#Pass ID: 20260104_095453_AQUA
#Satellite: AQUA
#Configuration: AQUA
#almurnet v.1.7.20240730
#Start time: 2026-01-04 09:54:54

#Version: 2.2.20231116
#Station: R3.0SM8_Murmansk_STILSPACE
#Location: 33.092731 lon 68.902999 lat
#TLE: 1 27424U 02022A   25365.92641127  .00002078  00000+0  42628-3 0  9999
#TLE: 2 27424  98.4058 327.1196 0001962  94.7781 340.6230 14.61783896258835

#Time	Az	El	Level	Level2	SNR	BER	BlckErr	Temp	State	Recorded	gain1	gain2
2026-01-04 09:54:54.09	118.82	3.02	-54.3	-74.3	3.8	7.45e-01	0	47	0	0	71	36545
2026-01-04 09:54:57.07	118.70	3.22	-54.1	-74.0	3.8	7.45e-01	0	47	104	0	70	37507
2026-01-04 09:55:00.05	118.57	3.42	-53.7	-73.3	3.8	7.46e-01	0	47	104	0	70	34711
2026-01-04 09:55:03.01	118.45	3.62	-53.4	-70.8	3.9	7.41e-01	0	48	104	0	70	25947
2026-01-04 09:55:06.00	118.32	3.83	-53.4	-70.8	4.0	7.45e-01	0	48	104	0	70	25860
2026-01-04 09:55:08.97	118.18	4.03	-53.3	-69.5	3.9	7.28e-01	0	48	104	0	70	22405
2026-01-04 09:55:11.95	118.05	4.24	-53.3	-67.9	4.9	7.13e-01	0	48	104	0	70	18579
2026-01-04 09:55:14.91	117.91	4.45	-53.2	-65.9	6.2	6.81e-01	92	48	0	1572864	70	14842
2026-01-04 09:55:17.87	117.77	4.66	-53.1	-64.0	8.0	6.47e-01	87	48	0	6815744	69	12621
2026-01-04 09:55:20.84	117.63	4.87	-52.9	-62.3	9.7	6.27e-01	0	49	0	12582912	69	10340
2026-01-04 09:55:23.80	117.49	5.08	-52.6	-60.3	11.8	6.11e-01	0	49	0	17825792	68	8724
2026-01-04 09:55:26.76	117.35	5.30	-52.6	-60.3	11.8	6.14e-01	0	49	0	23592960	68	8731
2026-01-04 09:55:29.72	117.20	5.51	-52.3	-58.9	13.3	6.10e-01	0	49	0	28835840	68	7394
2026-01-04 09:55:32.67	117.05	5.73	-52.0	-58.1	14.1	6.07e-01	0	49	0	34603008	67	7148
2026-01-04 09:55:35.65	116.89	5.95	-51.8	-57.5	14.8	6.06e-01	0	50	0	40370176	67	6649
2026-01-04 09:55:38.61	116.74	6.17	-50.9	-55.0	17.2	6.06e-01	0	50	0	45613056	65	5611
2026-01-04 09:55:41.58	116.58	6.40	-50.1	-53.3	19.0	6.06e-01	0	50	0	51380224	63	5177
2026-01-04 09:55:44.55	116.41	6.62	-49.3	-51.9	20.3	6.06e-01	0	50	0	57147392	62	4692
2026-01-04 09:55:47.50	116.25	6.85	-49.0	-51.4	20.8	6.06e-01	0	50	0	62390272	61	4682
2026-01-04 09:55:50.47	116.08	7.08	-48.7	-51.0	21.3	6.05e-01	0	50	0	68157440	61	4477
2026-01-04 09:55:53.44	115.91	7.32	-48.9	-51.2	21.1	6.09e-01	0	50	0	73400320	61	4592
2026-01-04 09:55:56.41	115.74	7.55	-49.0	-51.4	21.0	6.07e-01	0	50	0	79167488	61	4688
2026-01-04 09:55:59.37	115.56	7.79	-48.9	-51.3	21.1	6.07e-01	0	50	0	84934656	61	4599
2026-01-04 09:56:02.33	115.38	8.03	-49.1	-51.4	21.0	6.07e-01	0	51	0	90177536	61	4699
2026-01-04 09:56:05.30	115.20	8.27	-48.7	-50.9	21.5	6.08e-01	0	51	0	95944704	61	4438
2026-01-04 09:56:08.26	115.01	8.51	-48.8	-51.0	21.4	6.06e-01	0	51	0	101187584	61	4493
2026-01-04 09:56:11.22	114.82	8.76	-48.8	-51.1	21.5	6.05e-01	0	51	0	106954752	61	4498
2026-01-04 09:56:14.19	114.62	9.01	-48.9	-51.2	21.4	6.04e-01	0	51	0	112721920	61	4563
2026-01-04 09:56:17.16	114.42	9.26	-48.7	-50.9	21.7	6.08e-01	0	51	0	117964800	61	4410
2026-01-04 09:56:20.11	114.22	9.51	-48.7	-50.8	21.7	6.07e-01	0	52	0	123731968	60	4639
2026-01-04 09:56:23.08	114.01	9.77	-48.5	-50.6	22.0	6.07e-01	0	52	0	128974848	60	4497
2026-01-04 09:56:26.05	113.80	10.02	-48.3	-50.3	22.2	6.05e-01	0	52	0	134742016	60	4379
2026-01-04 09:56:29.01	113.59	10.29	-48.3	-50.3	22.3	6.04e-01	0	52	0	140509184	60	4352
2026-01-04 09:56:31.98	113.37	10.55	-48.5	-50.5	22.1	6.08e-01	0	52	0	145752064	60	4492
2026-01-04 09:56:34.96	113.14	10.82	-48.5	-50.6	22.1	6.04e-01	0	52	0	151519232	60	4515
2026-01-04 09:56:37.92	112.91	11.09	-48.6	-50.6	22.0	6.05e-01	0	52	0	156762112	60	4529
2026-01-04 09:56:40.89	112.68	11.36	-48.7	-50.8	21.8	6.07e-01	0	52	0	162529280	60	4644
2026-01-04 09:56:43.85	112.44	11.63	-48.3	-50.2	22.5	6.06e-01	0	52	0	168296448	60	4312
2026-01-04 09:56:46.81	112.20	11.91	-48.5	-50.5	22.2	6.08e-01	0	52	0	173539328	60	4454
2026-01-04 09:56:49.78	111.95	12.19	-48.4	-50.4	22.3	6.07e-01	0	52	0	179306496	60	4410
2026-01-04 09:56:52.76	111.69	12.48	-48.5	-50.5	22.6	6.06e-01	0	52	0	185073664	59	4707
2026-01-04 09:56:55.72	111.43	12.77	-48.4	-50.3	22.7	6.05e-01	0	52	0	190316544	59	4622
2026-01-04 09:56:58.69	111.17	13.06	-48.5	-50.4	22.7	6.06e-01	0	53	0	196083712	59	4681
2026-01-04 09:57:01.65	110.90	13.35	-48.6	-50.5	22.6	6.06e-01	0	53	0	201326592	59	4758
2026-01-04 09:57:04.62	110.62	13.65	-48.8	-50.8	22.3	6.06e-01	0	53	0	207093760	59	4891
2026-01-04 09:57:07.58	110.34	13.95	-48.4	-50.3	22.4	6.07e-01	0	53	0	212336640	60	4385
2026-01-04 09:57:10.55	110.05	14.26	-48.5	-50.4	22.7	6.07e-01	0	53	0	218103808	59	4695
2026-01-04 09:57:13.52	109.75	14.56	-48.7	-50.7	22.4	6.06e-01	0	53	0	223870976	59	4857
2026-01-04 09:57:16.49	109.44	14.88	-48.8	-50.9	22.0	6.06e-01	0	53	0	229113856	60	4681
2026-01-04 09:57:19.45	109.13	15.19	-48.7	-50.8	22.0	6.07e-01	0	53	0	234881024	60	4608
2026-01-04 09:57:22.43	108.81	15.51	-48.6	-50.6	22.3	6.08e-01	0	53	0	240648192	60	4506
2026-01-04 09:57:25.40	108.49	15.84	-48.9	-51.0	21.9	6.05e-01	0	53	0	245891072	60	4715
2026-01-04 09:57:28.37	108.15	16.16	-48.2	-50.1	22.7	6.04e-01	0	53	0	251658240	60	4255
2026-01-04 09:57:31.32	107.81	16.49	-48.7	-50.7	22.5	6.07e-01	0	53	0	256901120	59	4826
2026-01-04 09:57:34.29	107.46	16.83	-48.5	-50.4	22.4	6.07e-01	0	54	0	262668288	60	4440
2026-01-04 09:57:37.27	107.10	17.17	-48.4	-50.3	22.6	6.07e-01	0	53	0	268435456	60	4347
2026-01-04 09:57:40.24	106.74	17.51	-48.5	-50.3	22.9	6.07e-01	0	54	0	273678336	59	4634
2026-01-04 09:57:43.21	106.36	17.86	-48.2	-50.0	23.2	6.05e-01	0	54	0	279445504	59	4457
2026-01-04 09:57:46.18	105.97	18.21	-48.4	-50.2	22.9	6.06e-01	0	54	0	284688384	59	4597
2026-01-04 09:57:49.15	105.57	18.56	-48.2	-49.9	23.3	6.06e-01	0	54	0	290455552	59	4428
2026-01-04 09:57:52.13	105.17	18.93	-48.8	-60.4	3.8	7.48e-01	0	54	104	292552704	59	14782
2026-01-04 09:57:55.09	104.75	19.29	-49.3	-61.2	3.8	7.45e-01	0	54	104	292552704	60	15274
2026-01-04 09:57:58.07	104.32	19.66	-50.5	-62.8	3.9	7.39e-01	0	54	104	292552704	63	15507
2026-01-04 09:58:01.04	103.88	20.03	-51.0	-63.8	3.8	7.47e-01	0	54	104	292552704	64	16493
2026-01-04 09:58:04.01	103.43	20.41	-52.0	-65.7	3.8	7.44e-01	0	54	104	292552704	66	18289
2026-01-04 09:58:06.98	102.97	20.79	-53.0	-68.2	3.8	7.45e-01	0	54	104	292552704	68	21565
2026-01-04 09:58:09.94	102.49	21.17	-53.5	-70.1	3.8	7.44e-01	0	54	104	292552704	69	25518
2026-01-04 09:58:12.90	102.01	21.56	-53.6	-70.4	3.8	7.43e-01	0	54	104	292552704	69	26287
2026-01-04 09:58:15.88	101.50	21.96	-53.4	-69.8	3.8	7.44e-01	0	54	104	292552704	69	24680
2026-01-04 09:58:18.85	100.99	22.36	-53.8	-71.6	3.8	7.45e-01	0	54	104	292552704	69	30165
2026-01-04 09:58:21.82	100.45	22.76	-54.0	-72.5	3.8	7.44e-01	0	54	104	292552704	70	31631
2026-01-04 09:58:24.80	99.91	23.17	-53.9	-72.0	3.8	7.48e-01	0	55	104	292552704	70	29906
2026-01-04 09:58:27.77	99.35	23.58	-54.0	-72.7	3.8	7.46e-01	0	55	104	292552704	70	32417
2026-01-04 09:58:30.72	98.77	24.00	-54.0	-72.3	3.8	7.42e-01	0	55	104	292552704	70	30853
2026-01-04 09:58:33.68	98.18	24.42	-53.0	-68.0	3.8	7.43e-01	0	55	104	292552704	69	20066
2026-01-04 09:58:36.65	97.57	24.84	-52.3	-66.3	3.8	7.46e-01	0	55	104	292552704	68	17335
2026-01-04 09:58:39.62	96.95	25.27	-52.3	-66.2	3.8	7.44e-01	0	55	104	292552704	68	17229
2026-01-04 09:58:42.59	96.30	25.70	-51.3	-64.3	3.8	7.46e-01	0	55	104	292552704	66	15465
2026-01-04 09:58:45.57	95.63	26.14	-50.2	-62.3	3.8	7.48e-01	0	55	104	292552704	63	14678
2026-01-04 09:58:48.52	94.95	26.58	-51.5	-64.7	3.8	7.47e-01	0	55	104	292552704	65	17128
2026-01-04 09:58:51.49	94.25	27.02	-52.0	-65.7	3.8	7.46e-01	0	55	104	292552704	66	18128
2026-01-04 09:58:54.47	93.52	27.47	-52.7	-67.4	3.8	7.42e-01	0	55	104	292552704	67	20883
2026-01-04 09:58:57.44	92.77	27.91	-53.4	-69.5	3.8	7.47e-01	0	55	104	292552704	68	25112
2026-01-04 09:59:00.41	92.00	28.36	-53.7	-70.9	3.8	7.45e-01	0	55	104	292552704	69	27790
2026-01-04 09:59:03.38	91.21	28.82	-53.7	-70.8	3.8	7.44e-01	0	55	104	292552704	69	27512
2026-01-04 09:59:06.36	90.39	29.27	-53.7	-70.7	3.8	7.45e-01	0	55	104	292552704	69	27240
2026-01-04 09:59:09.32	89.56	29.73	-54.0	-72.2	3.8	7.41e-01	0	55	104	292552704	70	30590
2026-01-04 09:59:12.29	88.69	30.18	-53.6	-70.2	3.8	7.40e-01	0	55	104	292552704	70	24309
2026-01-04 09:59:15.26	87.80	30.64	-53.5	-69.8	3.8	7.45e-01	0	55	104	292552704	70	23246
2026-01-04 09:59:18.24	86.88	31.10	-53.8	-70.9	3.8	7.43e-01	0	55	104	292552704	70	26264
2026-01-04 09:59:21.22	85.93	31.56	-53.1	-68.4	3.8	7.43e-01	0	56	104	292552704	69	20939
2026-01-04 09:59:24.19	84.96	32.01	-51.2	-64.0	3.8	7.39e-01	0	55	104	292552704	66	14975
2026-01-04 09:59:27.15	83.96	32.46	-51.2	-64.1	3.8	7.43e-01	0	55	104	292552704	65	16123
2026-01-04 09:59:30.11	82.93	32.91	-50.6	-63.0	3.8	7.45e-01	0	56	104	292552704	64	14984
2026-01-04 09:59:33.07	81.87	33.36	-49.9	-61.8	3.8	7.44e-01	0	56	104	292552704	63	13876
2026-01-04 09:59:36.04	80.78	33.80	-51.4	-64.6	3.8	7.40e-01	0	55	104	292552704	65	16891
2026-01-04 09:59:39.01	79.66	34.23	-52.6	-66.9	3.8	7.46e-01	0	55	104	292552704	67	19667
2026-01-04 09:59:41.99	78.50	34.67	-52.9	-67.7	3.8	7.45e-01	0	56	104	292552704	67	21603
2026-01-04 09:59:44.97	77.32	35.09	-53.4	-69.4	3.8	7.49e-01	0	55	104	292552704	69	23389
2026-01-04 09:59:47.92	76.11	35.50	-53.8	-71.0	3.8	7.43e-01	0	56	104	292552704	69	28130
2026-01-04 09:59:50.89	74.86	35.91	-54.0	-72.1	3.8	7.46e-01	0	56	104	292552704	70	30180
2026-01-04 09:59:53.86	73.58	36.31	-54.0	-71.9	3.8	7.44e-01	0	56	104	292552704	70	29362
2026-01-04 09:59:56.83	72.27	36.69	-54.0	-72.1	3.8	7.47e-01	0	56	104	292552704	70	30163
2026-01-04 09:59:59.80	70.92	37.06	-53.8	-70.9	3.8	7.44e-01	0	56	104	292552704	70	26366
2026-01-04 10:00:02.77	69.55	37.42	-53.4	-69.2	3.8	7.47e-01	0	55	104	292552704	70	21695
2026-01-04 10:00:05.74	68.14	37.76	-53.2	-68.6	3.8	7.48e-01	0	56	104	292552704	70	20246
2026-01-04 10:00:08.72	66.70	38.09	-53.4	-69.1	3.8	7.48e-01	0	56	104	292552704	70	21329
2026-01-04 10:00:11.70	65.24	38.40	-52.2	-66.0	3.8	7.45e-01	0	56	104	292552704	68	16764
2026-01-04 10:00:14.67	63.74	38.69	-51.0	-63.8	3.8	7.43e-01	0	56	104	292552704	65	15420
2026-01-04 10:00:17.63	62.23	38.96	-51.2	-64.0	3.8	7.44e-01	0	56	104	292552704	65	15904
2026-01-04 10:00:20.61	60.68	39.21	-50.5	-62.8	3.8	7.44e-01	0	56	104	292552704	64	14566
2026-01-04 10:00:23.59	59.11	39.44	-51.6	-64.8	3.8	7.44e-01	0	56	104	292552704	65	17467
2026-01-04 10:00:26.56	57.52	39.65	-52.9	-67.7	3.8	7.45e-01	0	56	104	292552704	67	21521
2026-01-04 10:00:29.52	55.92	39.83	-53.3	-68.7	3.8	7.46e-01	0	56	104	292552704	68	22994
2026-01-04 10:00:32.48	54.30	39.99	-53.4	-69.2	3.9	7.46e-01	0	56	104	292552704	69	22987
2026-01-04 10:00:35.45	52.66	40.12	-53.8	-71.0	3.8	7.49e-01	0	56	104	292552704	69	28079
2026-01-04 10:00:38.40	51.02	40.22	-54.1	-72.0	3.8	7.49e-01	0	56	104	292552704	70	29786
2026-01-04 10:00:41.38	49.35	40.30	-54.1	-72.6	3.8	7.44e-01	0	56	104	292552704	70	31942
2026-01-04 10:00:44.35	47.68	40.36	-54.0	-71.8	3.8	7.44e-01	0	56	104	292552704	70	29339
2026-01-04 10:00:47.32	46.01	40.38	-53.7	-70.4	3.8	7.48e-01	0	56	104	292552704	70	24862
2026-01-04 10:00:50.29	44.34	40.38	-53.0	-68.0	3.8	7.47e-01	0	56	104	292552704	69	19890
2026-01-04 10:00:53.26	42.66	40.35	-51.7	-65.0	3.8	7.45e-01	0	56	104	292552704	67	15837
2026-01-04 10:00:56.24	40.99	40.29	-51.6	-64.5	3.8	7.45e-01	0	56	104	292552704	66	15942
2026-01-04 10:00:59.21	39.33	40.21	-52.0	-65.4	3.8	7.47e-01	0	56	104	292552704	66	17501
2026-01-04 10:01:02.17	37.69	40.10	-51.0	-63.5	3.8	7.43e-01	0	56	104	292552704	65	14893
2026-01-04 10:01:05.15	36.04	39.96	-51.4	-64.3	3.8	7.44e-01	0	56	104	292552704	65	16487
2026-01-04 10:01:08.12	34.42	39.80	-51.6	-64.8	3.8	7.46e-01	0	56	104	292552704	66	16340
2026-01-04 10:01:11.10	32.81	39.62	-50.8	-63.3	3.8	7.47e-01	0	56	104	292552704	65	14644
2026-01-04 10:01:14.09	31.22	39.41	-52.0	-65.5	3.8	7.42e-01	0	56	104	292552704	66	17802
2026-01-04 10:01:17.04	29.67	39.18	-53.1	-68.4	3.8	7.47e-01	0	56	104	292552704	68	22117
2026-01-04 10:01:20.02	28.12	38.92	-53.3	-68.9	3.8	7.43e-01	0	56	104	292552704	68	23374
2026-01-04 10:01:22.97	26.62	38.65	-53.4	-69.0	3.8	7.43e-01	0	56	104	292552704	68	23835
2026-01-04 10:01:25.92	25.15	38.36	-53.9	-71.3	3.8	7.43e-01	0	56	104	292552704	69	29097
2026-01-04 10:01:28.89	23.69	38.05	-53.7	-70.6	3.8	7.48e-01	0	56	104	292552704	70	25273
2026-01-04 10:01:31.85	22.26	37.72	-53.5	-69.7	3.8	7.44e-01	0	56	104	292552704	70	23013
2026-01-04 10:01:34.82	20.86	37.38	-53.2	-68.7	3.8	7.44e-01	0	56	104	292552704	70	20527
2026-01-04 10:01:37.79	19.50	37.02	-52.3	-66.1	3.8	7.42e-01	0	56	104	292552704	68	16981
2026-01-04 10:01:40.77	18.16	36.64	-51.1	-63.9	3.8	7.43e-01	0	56	104	292552704	65	15717
2026-01-04 10:01:43.75	16.85	36.26	-50.3	-62.4	3.8	7.45e-01	0	56	104	292552704	63	14716
2026-01-04 10:01:46.72	15.57	35.86	-50.7	-63.1	3.8	7.46e-01	0	56	104	292552704	63	16077
2026-01-04 10:01:49.69	14.33	35.45	-51.4	-64.2	3.8	7.44e-01	0	56	104	292552704	65	16232
2026-01-04 10:01:52.67	13.12	35.04	-51.3	-63.9	3.8	7.46e-01	0	57	104	292552704	65	15707
2026-01-04 10:01:55.63	11.95	34.61	-52.0	-65.7	3.8	7.44e-01	0	57	104	292552704	66	18126
2026-01-04 10:01:58.61	10.80	34.18	-51.9	-65.3	3.8	7.44e-01	0	57	104	292552704	67	16378
2026-01-04 10:02:01.58	9.68	33.75	-51.1	-64.0	3.8	7.42e-01	0	57	104	292552704	65	15824
2026-01-04 10:02:04.56	8.59	33.30	-52.2	-65.9	3.8	7.49e-01	0	57	104	292552704	66	18693
2026-01-04 10:02:07.54	7.54	32.86	-53.1	-68.2	3.8	7.47e-01	0	56	104	292552704	68	21697
2026-01-04 10:02:10.50	6.52	32.41	-53.1	-68.1	3.8	7.49e-01	0	57	104	292552704	68	21454
2026-01-04 10:02:13.48	5.52	31.95	-53.0	-67.9	3.8	7.44e-01	0	57	104	292552704	68	20924
2026-01-04 10:02:16.47	4.54	31.50	-52.8	-67.4	3.8	7.43e-01	0	57	104	292552704	68	19730
2026-01-04 10:02:19.44	3.61	31.04	-51.1	-64.0	3.8	7.46e-01	0	57	104	292552704	65	15895
2026-01-04 10:02:22.40	2.70	30.59	-51.0	-63.6	3.8	7.44e-01	0	57	104	292552704	65	15207
2026-01-04 10:02:25.39	1.81	30.13	-50.5	-62.6	3.8	7.44e-01	0	57	104	292552704	64	14312
2026-01-04 10:02:28.36	0.95	29.68	-49.8	-61.7	3.8	7.45e-01	0	56	104	292552704	63	13578
2026-01-04 10:02:31.33	0.11	29.22	-48.9	-60.7	3.8	7.45e-01	0	57	104	292552704	61	13713
2026-01-04 10:02:34.30	359.30	28.77	-49.2	-60.8	3.8	7.42e-01	0	56	104	292552704	61	13802
2026-01-04 10:02:37.27	358.52	28.32	-50.7	-63.2	3.8	7.44e-01	0	57	104	292552704	63	16301
2026-01-04 10:02:40.24	357.75	27.87	-51.3	-64.3	3.8	7.46e-01	0	57	104	292552704	64	17389
2026-01-04 10:02:43.22	357.01	27.42	-51.4	-64.4	3.8	7.43e-01	0	57	104	292552704	65	16600
2026-01-04 10:02:46.18	356.29	26.98	-52.4	-66.7	3.8	7.44e-01	0	57	104	292552704	67	19311
2026-01-04 10:02:49.15	355.59	26.54	-51.9	-65.4	3.8	7.44e-01	0	57	104	292552704	67	16673
2026-01-04 10:02:52.12	354.91	26.10	-51.3	-64.3	3.8	7.47e-01	0	57	104	292552704	65	16329
2026-01-04 10:02:55.09	354.25	25.67	-52.4	-66.6	3.8	7.46e-01	0	57	104	292552704	66	20270
2026-01-04 10:02:58.05	353.62	25.24	-52.8	-67.5	3.8	7.45e-01	0	57	104	292552704	68	19949
2026-01-04 10:03:01.02	352.99	24.81	-52.2	-66.1	3.8	7.45e-01	0	57	104	292552704	68	16936
2026-01-04 10:03:04.00	352.38	24.39	-51.9	-65.5	3.8	7.44e-01	0	57	104	292552704	67	16755
2026-01-04 10:03:06.98	351.79	23.97	-50.5	-63.0	3.8	7.41e-01	0	57	104	292552704	64	14966
2026-01-04 10:03:09.94	351.22	23.55	-49.5	-61.3	3.8	7.42e-01	0	57	104	292552704	62	13885
2026-01-04 10:03:12.89	350.67	23.15	-49.3	-60.8	3.8	7.45e-01	0	57	104	292552704	62	13002
2026-01-04 10:03:15.85	350.13	22.74	-49.5	-61.3	3.8	7.44e-01	0	57	104	292552704	62	13754
2026-01-04 10:03:18.83	349.60	22.34	-49.3	-61.2	3.8	7.44e-01	0	57	104	292552704	62	13571
2026-01-04 10:03:21.79	349.09	21.94	-49.4	-61.3	3.8	7.41e-01	0	57	104	292552704	62	13768
2026-01-04 10:03:24.77	348.59	21.55	-49.8	-61.7	3.8	7.46e-01	0	57	104	292552704	62	14529
2026-01-04 10:03:27.73	348.11	21.16	-50.9	-63.6	3.8	7.45e-01	0	57	104	292552704	64	16094
2026-01-04 10:03:30.70	347.64	20.78	-51.5	-64.9	3.8	7.42e-01	0	57	104	292552704	65	17573
2026-01-04 10:03:33.67	347.18	20.40	-52.1	-66.0	3.8	7.47e-01	0	57	104	292552704	66	18872
2026-01-04 10:03:36.63	346.73	20.02	-53.1	-69.5	3.8	7.45e-01	0	57	104	292552704	68	25151
2026-01-04 10:03:39.60	346.30	19.65	-52.8	-68.6	3.8	7.45e-01	0	57	104	292552704	69	21398
2026-01-04 10:03:42.56	345.87	19.29	-51.7	-65.4	3.8	7.46e-01	0	57	104	292552704	66	17626
2026-01-04 10:03:45.53	345.46	18.92	-51.8	-65.7	3.8	7.45e-01	0	57	104	292552704	66	18220
2026-01-04 10:03:48.50	345.05	18.57	-51.5	-65.0	3.8	7.46e-01	0	57	104	292552704	66	16872
2026-01-04 10:03:51.48	344.66	18.21	-51.1	-55.3	17.0	6.01e-01	0	57	0	1048576	65	5825
2026-01-04 10:03:54.44	344.28	17.86	-51.1	-55.6	16.4	6.01e-01	0	57	0	6815744	65	6034
2026-01-04 10:03:57.41	343.90	17.52	-51.1	-56.0	15.7	6.06e-01	0	57	0	12582912	65	6339
2026-01-04 10:04:00.38	343.54	17.17	-50.0	-53.4	18.3	6.03e-01	0	57	0	17825792	63	5255
2026-01-04 10:04:03.36	343.18	16.84	-49.1	-52.0	19.8	6.01e-01	0	57	0	23592960	61	4995
2026-01-04 10:04:06.34	342.83	16.50	-48.8	-51.5	20.1	6.01e-01	0	57	0	29360128	61	4722
2026-01-04 10:04:09.30	342.49	16.17	-48.7	-51.3	20.2	6.01e-01	0	57	0	34603008	60	4907
2026-01-04 10:04:12.27	342.16	15.85	-48.3	-50.8	20.6	6.03e-01	0	57	0	40370176	59	4912
2026-01-04 10:04:15.23	341.84	15.53	-49.1	-52.9	17.7	6.02e-01	0	57	0	45613056	60	5861
2026-01-04 10:04:18.19	341.52	15.21	-49.7	-55.1	15.2	6.03e-01	0	57	0	51380224	61	7165
2026-01-04 10:04:21.15	341.22	14.90	-50.1	-57.5	12.1	6.04e-01	0	57	0	57147392	62	8941
2026-01-04 10:04:24.11	340.92	14.59	-50.1	-59.5	9.8	6.23e-01	0	57	0	62390272	62	11259
2026-01-04 10:04:27.09	340.62	14.28	-50.2	-62.5	6.6	6.74e-01	93	57	0	68157440	62	15831
2026-01-04 10:04:30.06	340.33	13.97	-50.2	-63.4	5.7	6.89e-01	84	57	0	72351744	62	17675
2026-01-04 10:04:33.03	340.05	13.67	-50.0	-66.5	4.2	7.44e-01	0	57	104	72876032	62	25196
2026-01-04 10:04:35.99	339.77	13.38	-49.9	-67.9	3.8	7.45e-01	0	57	104	72876032	62	29638
2026-01-04 10:04:38.94	339.51	13.09	-49.8	-68.4	3.8	7.45e-01	0	57	104	72876032	62	31174
2026-01-04 10:04:41.90	339.24	12.80	-49.9	-69.5	3.8	7.42e-01	0	57	104	72876032	62	35323
2026-01-04 10:04:44.87	338.99	12.51	-49.8	-62.9	5.8	6.87e-01	75	57	0	72876032	62	16662
2026-01-04 10:04:47.84	338.73	12.23	-49.9	-58.6	10.5	6.19e-01	0	57	0	5242880	62	10070
2026-01-04 10:04:50.79	338.49	11.95	-49.8	-55.3	14.8	6.03e-01	0	57	0	11010048	62	6898
2026-01-04 10:04:53.77	338.25	11.67	-50.1	-54.7	16.4	6.05e-01	0	57	0	16252928	62	6427
2026-01-04 10:04:56.73	338.01	11.39	-50.4	-54.3	17.5	6.02e-01	0	57	0	22020096	62	6149
2026-01-04 10:04:59.70	337.78	11.12	-50.2	-53.5	18.8	6.03e-01	0	57	0	27262976	62	5600
2026-01-04 10:05:02.68	337.55	10.85	-50.1	-53.3	19.0	6.02e-01	0	57	0	33030144	62	5483
2026-01-04 10:05:05.66	337.33	10.58	-49.1	-51.5	20.7	6.02e-01	0	57	0	38797312	61	4748
2026-01-04 10:05:08.64	337.11	10.32	-48.5	-50.7	21.4	6.03e-01	0	57	0	44040192	60	4588
2026-01-04 10:05:11.61	336.90	10.06	-48.6	-50.9	21.3	6.02e-01	0	57	0	49807360	60	4683
2026-01-04 10:05:14.58	336.69	9.80	-48.8	-51.1	21.0	6.05e-01	0	57	0	55574528	60	4813
2026-01-04 10:05:17.55	336.48	9.55	-48.8	-51.1	21.1	6.03e-01	0	57	0	60817408	60	4786
2026-01-04 10:05:20.52	336.28	9.29	-48.8	-51.2	21.0	6.05e-01	0	57	0	66584576	60	4841
2026-01-04 10:05:23.49	336.08	9.04	-48.8	-51.2	21.0	6.02e-01	0	57	0	72351744	60	4837
2026-01-04 10:05:26.46	335.89	8.79	-48.9	-51.4	20.8	6.05e-01	0	57	0	77594624	60	4947
2026-01-04 10:05:29.42	335.70	8.55	-49.1	-51.7	20.5	6.02e-01	0	57	0	83361792	60	5127
2026-01-04 10:05:32.39	335.52	8.31	-48.9	-51.3	20.8	6.03e-01	0	57	0	88604672	60	4906
2026-01-04 10:05:35.35	335.33	8.07	-48.9	-51.4	20.8	6.02e-01	0	57	0	94371840	60	4953
2026-01-04 10:05:38.32	335.15	7.83	-48.9	-51.4	20.8	6.04e-01	0	57	0	99614720	60	4929
2026-01-04 10:05:41.29	334.98	7.59	-49.0	-51.5	20.7	6.03e-01	0	57	0	105381888	60	4991
2026-01-04 10:05:44.27	334.81	7.36	-49.0	-51.5	20.7	6.01e-01	0	57	0	111149056	60	4996
2026-01-04 10:05:47.23	334.64	7.13	-49.3	-52.1	20.1	6.04e-01	0	57	0	116391936	60	5341
2026-01-04 10:05:50.20	334.47	6.90	-49.5	-52.2	19.9	6.01e-01	0	57	0	122159104	61	5159
2026-01-04 10:05:53.17	334.31	6.67	-49.4	-52.1	20.0	6.02e-01	0	57	0	127926272	61	5074
2026-01-04 10:05:56.15	334.15	6.44	-49.3	-52.0	20.1	6.04e-01	0	57	0	133169152	61	5034
2026-01-04 10:05:59.13	333.99	6.22	-49.2	-51.9	20.1	6.02e-01	0	57	0	138936320	61	4966
2026-01-04 10:06:02.09	333.84	5.99	-49.4	-52.3	19.7	6.03e-01	0	57	0	144703488	61	5173
2026-01-04 10:06:05.06	333.68	5.77	-49.4	-52.3	19.7	6.03e-01	0	57	0	149946368	61	5208
2026-01-04 10:06:08.03	333.54	5.56	-49.4	-52.4	19.6	6.05e-01	0	57	0	155713536	61	5231
2026-01-04 10:06:11.00	333.39	5.34	-49.4	-52.3	19.6	6.03e-01	0	57	0	160956416	61	5201
2026-01-04 10:06:13.97	333.25	5.12	-49.6	-52.6	19.4	6.04e-01	0	57	0	166723584	61	5362
2026-01-04 10:06:16.94	333.10	4.91	-53.6	-72.9	3.9	7.45e-01	0	57	104	169345024	69	35010
2026-01-04 10:06:19.91	332.97	4.70	-53.9	-73.8	3.8	7.45e-01	0	57	104	169345024	70	36525
2026-01-04 10:06:22.87	332.83	4.49	-54.1	-74.1	3.8	7.48e-01	0	57	104	169345024	70	37841
2026-01-04 10:06:25.83	332.70	4.28	-54.2	-74.2	3.8	7.48e-01	0	57	104	169345024	70	38357
2026-01-04 10:06:28.81	332.56	4.08	-54.4	-74.3	3.8	7.46e-01	0	57	104	169345024	70	38876
2026-01-04 10:06:31.76	332.43	3.87	-54.4	-74.3	3.8	7.46e-01	0	57	104	169345024	71	36905
2026-01-04 10:06:34.72	332.31	3.67	-54.4	-74.4	3.8	7.44e-01	0	57	104	169345024	71	37132
2026-01-04 10:06:37.70	332.18	3.47	-54.5	-74.4	3.8	7.42e-01	0	57	104	169345024	71	37243
2026-01-04 10:06:40.66	332.06	3.27	-54.5	-74.4	3.8	7.44e-01	0	57	104	169345024	71	37312
2026-01-04 10:06:43.65	331.93	3.07	-54.5	-74.4	3.8	7.42e-01	0	57	104	169345024	71	37214
2026-01-04 10:06:46.63	331.81	2.87	-54.4	-74.4	3.8	7.46e-01	0	57	104	169345024	71	37155

#Closed at: 2026-01-04 10:06:47
#Recorded file [169 MB]: D:/Data/31026_260104_130615.dat