passes_logs/2026/01/04/R3.0SM8_Murmansk_STILSPACE/R3.0SM8_Murmansk_STILSPACE__20260104_081540_NOAA_20_JPSS-1_rec.log

#Pass ID: 20260104_081540_NOAA 20 (JPSS-1)
#Satellite: NOAA 20 (JPSS-1)
#Configuration: NOAA 20
#almurnet v.1.7.20240730
#Start time: 2026-01-04 08:15:39

#Version: 2.2.20231116
#Station: R3.0SM8_Murmansk_STILSPACE
#Location: 33.092731 lon 68.902999 lat
#TLE: 1 43013U 17073A   26003.41800368  .00000169  00000+0  10117-3 0  9998
#TLE: 2 43013  98.7624 304.4804 0001884  56.1176 304.0179 14.19532918421092

#Time	Az	El	Level	Level2	SNR	BER	BlckErr	Temp	State	Recorded	gain1	gain2
2026-01-04 08:15:39.96	121.73	3.00	-52.3	-66.2	3.8	1.49e+00	0	47	0	0	67	17870
2026-01-04 08:15:43.92	121.61	3.26	-52.3	-66.1	3.8	1.49e+00	0	47	104	0	67	17485
2026-01-04 08:15:47.88	121.49	3.52	-51.8	-65.6	3.8	1.49e+00	0	48	104	0	66	17515
2026-01-04 08:15:51.83	121.37	3.78	-51.6	-64.9	3.8	1.49e+00	0	48	104	0	66	16155
2026-01-04 08:15:55.79	121.24	4.05	-51.6	-64.2	3.8	1.49e+00	0	48	104	0	66	14928
2026-01-04 08:15:59.76	121.11	4.31	-51.5	-62.8	4.0	1.48e+00	0	48	104	0	66	12737
2026-01-04 08:16:03.73	120.97	4.58	-51.2	-60.9	4.5	1.04e+00	0	49	0	2097152	65	10899
2026-01-04 08:16:07.69	120.84	4.86	-50.9	-58.4	6.0	4.03e-01	0	49	0	9437184	64	8620
2026-01-04 08:16:11.65	120.70	5.13	-50.8	-57.6	6.6	1.81e-01	0	49	0	16777216	64	7882
2026-01-04 08:16:15.60	120.56	5.41	-50.4	-55.8	8.4	4.98e-02	0	49	0	24117248	63	6764
2026-01-04 08:16:19.57	120.41	5.69	-50.0	-54.8	9.5	1.41e-02	0	50	0	31457280	63	6008
2026-01-04 08:16:23.55	120.27	5.98	-49.9	-54.6	9.7	1.73e-02	0	50	0	38797312	63	5894
2026-01-04 08:16:27.51	120.11	6.27	-49.1	-52.5	12.0	4.55e-04	0	50	0	46137344	61	5172
2026-01-04 08:16:31.45	119.96	6.56	-48.4	-51.1	13.4	1.60e-05	0	50	0	53477376	59	4956
2026-01-04 08:16:35.41	119.80	6.85	-48.5	-51.2	13.3	2.05e-05	0	50	0	60817408	59	5037
2026-01-04 08:16:39.36	119.64	7.14	-48.3	-51.0	13.6	7.60e-06	0	51	0	68157440	59	4901
2026-01-04 08:16:43.32	119.48	7.44	-48.2	-50.7	13.9	6.80e-06	0	51	0	75497472	59	4726
2026-01-04 08:16:47.29	119.31	7.75	-48.1	-50.6	14.0	2.20e-06	0	51	0	82837504	59	4680
2026-01-04 08:16:51.24	119.14	8.05	-48.1	-50.5	14.1	2.20e-06	0	51	0	90177536	59	4647
2026-01-04 08:16:55.21	118.96	8.36	-48.3	-50.8	13.9	7.00e-07	0	51	0	98566144	59	4772
2026-01-04 08:16:59.18	118.78	8.68	-48.2	-50.7	14.0	2.20e-06	0	52	0	105906176	59	4725
2026-01-04 08:17:03.13	118.60	8.99	-48.1	-50.5	14.2	3.80e-06	0	51	0	113246208	59	4638
2026-01-04 08:17:07.08	118.41	9.31	-48.1	-50.5	14.2	1.50e-06	0	52	0	120586240	58	4911
2026-01-04 08:17:11.04	118.22	9.64	-48.2	-50.7	14.1	2.20e-06	0	52	0	127926272	58	4992
2026-01-04 08:17:15.01	118.02	9.97	-48.1	-50.5	14.3	0.00e+00	0	52	0	135266304	58	4911
2026-01-04 08:17:18.97	117.82	10.30	-47.9	-50.1	14.8	0.00e+00	0	52	0	142606336	58	4659
2026-01-04 08:17:22.92	117.61	10.64	-48.0	-50.4	14.5	0.00e+00	0	52	0	149946368	58	4833
2026-01-04 08:17:26.87	117.40	10.98	-47.8	-50.0	14.9	0.00e+00	0	52	0	157286400	58	4602
2026-01-04 08:17:30.83	117.18	11.32	-47.9	-50.2	14.7	7.00e-07	0	53	0	164626432	58	4722
2026-01-04 08:17:34.80	116.96	11.67	-47.6	-49.8	15.1	0.00e+00	0	53	0	171966464	58	4499
2026-01-04 08:17:38.77	116.73	12.03	-47.5	-49.4	15.5	0.00e+00	0	53	0	179306496	58	4319
2026-01-04 08:17:42.74	116.49	12.39	-47.4	-49.4	15.5	0.00e+00	0	53	0	187695104	57	4575
2026-01-04 08:17:46.69	116.25	12.75	-47.3	-49.2	15.7	0.00e+00	0	53	0	195035136	57	4479
2026-01-04 08:17:50.67	116.00	13.12	-47.4	-49.3	15.7	0.00e+00	0	53	0	202375168	57	4503
2026-01-04 08:17:54.64	115.75	13.50	-47.5	-49.5	15.5	0.00e+00	0	53	0	209715200	57	4624
2026-01-04 08:17:58.60	115.48	13.88	-47.3	-49.2	15.8	0.00e+00	0	53	0	217055232	57	4469
2026-01-04 08:18:02.54	115.22	14.26	-47.6	-49.6	15.3	0.00e+00	0	53	0	224395264	57	4691
2026-01-04 08:18:06.48	114.94	14.65	-47.6	-49.6	15.4	0.00e+00	0	53	0	231735296	57	4688
2026-01-04 08:18:10.45	114.66	15.05	-47.3	-49.3	15.7	0.00e+00	0	54	0	239075328	57	4502
2026-01-04 08:18:14.40	114.37	15.45	-47.2	-49.1	15.9	0.00e+00	0	54	0	246415360	57	4398
2026-01-04 08:18:18.35	114.07	15.85	-47.3	-49.1	15.9	0.00e+00	0	54	0	253755392	57	4423
2026-01-04 08:18:22.31	113.76	16.27	-47.3	-49.2	15.9	0.00e+00	0	54	0	261095424	57	4449
2026-01-04 08:18:26.26	113.44	16.68	-47.3	-49.1	16.0	0.00e+00	0	54	0	268435456	57	4399
2026-01-04 08:18:30.20	113.12	17.11	-47.6	-49.6	15.5	0.00e+00	0	54	0	275775488	57	4682
2026-01-04 08:18:34.15	112.78	17.54	-47.3	-49.2	15.9	0.00e+00	0	54	0	283115520	57	4456
2026-01-04 08:18:38.13	112.43	17.98	-47.5	-49.4	15.7	0.00e+00	0	54	0	291504128	57	4578
2026-01-04 08:18:42.11	112.08	18.43	-47.3	-49.2	15.9	0.00e+00	0	54	0	298844160	57	4462
2026-01-04 08:18:46.05	111.71	18.88	-47.5	-49.4	15.7	0.00e+00	0	54	0	306184192	57	4555
2026-01-04 08:18:50.02	111.33	19.34	-47.9	-50.0	15.1	0.00e+00	0	54	0	313524224	57	4890
2026-01-04 08:18:54.00	110.93	19.81	-48.2	-50.4	14.7	7.00e-07	0	55	0	320864256	58	4815
2026-01-04 08:18:57.98	110.53	20.29	-48.4	-50.7	14.4	7.00e-07	0	55	0	328204288	58	5031
2026-01-04 08:19:01.94	110.11	20.77	-48.3	-50.6	14.5	0.00e+00	0	55	0	335544320	59	4664
2026-01-04 08:19:05.89	109.68	21.26	-47.9	-49.9	15.2	0.00e+00	0	55	0	342884352	58	4573
2026-01-04 08:19:09.85	109.23	21.76	-48.1	-50.3	14.8	0.00e+00	0	55	0	350224384	58	4792
2026-01-04 08:19:13.80	108.77	22.26	-47.9	-50.1	15.0	0.00e+00	0	55	0	357564416	58	4689
2026-01-04 08:19:17.75	108.30	22.78	-48.0	-50.2	14.9	0.00e+00	0	55	0	364904448	58	4753
2026-01-04 08:19:21.70	107.81	23.30	-48.3	-50.5	14.6	7.00e-07	0	55	0	372244480	58	4909
2026-01-04 08:19:25.66	107.30	23.83	-48.2	-50.4	14.8	0.00e+00	0	55	0	380633088	58	4859
2026-01-04 08:19:29.62	106.77	24.36	-48.2	-50.4	14.8	0.00e+00	0	55	0	387973120	58	4826
2026-01-04 08:19:33.58	106.22	24.91	-48.0	-50.1	15.1	0.00e+00	0	55	0	395313152	58	4694
2026-01-04 08:19:37.55	105.65	25.47	-48.0	-50.1	15.1	0.00e+00	0	55	0	402653184	58	4691
2026-01-04 08:19:41.52	105.06	26.03	-47.9	-49.9	15.3	0.00e+00	0	55	0	409993216	58	4574
2026-01-04 08:19:45.49	104.45	26.61	-48.1	-50.2	15.0	0.00e+00	0	55	0	417333248	58	4733
2026-01-04 08:19:49.43	103.82	27.19	-47.8	-49.8	15.4	0.00e+00	0	55	0	424673280	58	4534
2026-01-04 08:19:53.39	103.16	27.78	-48.1	-50.2	15.1	0.00e+00	0	55	0	432013312	58	4720
2026-01-04 08:19:57.34	102.48	28.37	-48.0	-50.1	15.1	0.00e+00	0	55	0	439353344	58	4678
2026-01-04 08:20:01.29	101.78	28.98	-47.9	-49.9	15.3	0.00e+00	0	56	0	446693376	58	4598
2026-01-04 08:20:05.26	101.04	29.59	-48.4	-50.7	14.4	0.00e+00	0	55	0	454033408	58	5037
2026-01-04 08:20:09.21	100.27	30.21	-48.9	-51.5	13.7	5.30e-06	0	56	0	461373440	59	5193
2026-01-04 08:20:13.17	99.48	30.84	-49.5	-52.6	12.6	8.08e-05	0	56	0	469762048	60	5555
2026-01-04 08:20:17.14	98.65	31.48	-49.2	-52.0	13.2	1.37e-05	0	56	0	477102080	60	5216
2026-01-04 08:20:21.08	97.79	32.12	-49.2	-52.2	13.0	4.04e-05	0	56	0	484442112	60	5312
2026-01-04 08:20:25.03	96.89	32.77	-49.5	-52.6	12.7	6.56e-05	0	56	0	491782144	60	5544
2026-01-04 08:20:28.98	95.96	33.42	-49.4	-52.7	12.5	2.04e-04	0	56	0	499122176	61	5299
2026-01-04 08:20:32.95	94.99	34.09	-49.7	-52.9	12.3	2.72e-04	0	56	0	506462208	61	5415
2026-01-04 08:20:36.90	93.97	34.75	-49.4	-52.3	12.9	2.21e-05	0	56	0	513802240	61	5094
2026-01-04 08:20:40.85	92.92	35.42	-49.2	-52.1	13.1	2.82e-05	0	56	0	521142272	61	4965
2026-01-04 08:20:44.81	91.82	36.09	-48.9	-51.5	13.7	1.14e-05	0	56	0	528482304	60	4899
2026-01-04 08:20:48.77	90.67	36.76	-48.9	-51.6	13.7	8.30e-06	0	56	0	535822336	60	4937
2026-01-04 08:20:52.72	89.48	37.43	-48.4	-50.8	14.5	1.50e-06	0	56	0	543162368	60	4516
2026-01-04 08:20:56.68	88.23	38.10	-48.6	-51.0	14.2	7.00e-07	0	56	0	550502400	59	4909
2026-01-04 08:21:00.65	86.93	38.77	-48.9	-51.5	13.7	6.10e-06	0	56	0	557842432	59	5216
2026-01-04 08:21:04.61	85.57	39.43	-48.8	-51.4	13.9	4.50e-06	0	56	0	565182464	59	5107
2026-01-04 08:21:08.57	84.16	40.09	-49.0	-51.6	13.7	1.50e-06	0	56	0	573571072	59	5247
2026-01-04 08:21:12.53	82.69	40.74	-49.2	-52.0	13.2	1.83e-05	0	56	0	580911104	60	5213
2026-01-04 08:21:16.49	81.16	41.37	-49.4	-52.4	12.9	5.18e-05	0	56	0	588251136	60	5436
2026-01-04 08:21:20.45	79.57	42.00	-48.6	-51.0	14.3	3.80e-06	0	56	0	595591168	60	4601
2026-01-04 08:21:24.41	77.92	42.60	-48.2	-50.3	15.0	0.00e+00	0	56	0	602931200	59	4509
2026-01-04 08:21:28.35	76.21	43.19	-48.4	-50.7	14.6	7.00e-07	0	56	0	610271232	59	4726
2026-01-04 08:21:32.30	74.44	43.76	-47.6	-49.5	15.9	0.00e+00	0	56	0	617611264	58	4341
2026-01-04 08:21:36.27	72.59	44.30	-47.3	-49.0	16.4	0.00e+00	0	56	0	624951296	57	4368
2026-01-04 08:21:40.23	70.69	44.82	-47.4	-49.2	16.1	0.00e+00	0	56	0	632291328	56	4734
2026-01-04 08:21:44.20	68.71	45.31	-48.4	-50.7	14.7	0.00e+00	0	57	0	639631360	58	4990
2026-01-04 08:21:48.16	66.69	45.76	-48.7	-51.0	14.3	2.20e-06	0	56	0	646971392	59	4919
2026-01-04 08:21:52.12	64.61	46.18	-49.1	-51.9	13.5	3.80e-06	0	56	0	655360000	60	5103
2026-01-04 08:21:56.09	62.47	46.56	-49.4	-52.4	12.9	5.49e-05	0	57	0	662700032	61	5117
2026-01-04 08:22:00.04	60.29	46.89	-49.6	-52.8	12.5	1.40e-04	0	56	0	670040064	61	5377
2026-01-04 08:22:03.99	58.06	47.18	-49.5	-52.5	12.9	6.71e-05	0	57	0	677380096	61	5175
2026-01-04 08:22:07.96	55.79	47.43	-49.1	-51.8	13.6	7.60e-06	0	56	0	684720128	61	4764
2026-01-04 08:22:11.90	53.50	47.63	-49.2	-52.0	13.4	2.44e-05	0	57	0	692060160	61	4873
2026-01-04 08:22:15.86	51.17	47.77	-49.1	-51.7	13.6	5.30e-06	0	57	0	699400192	61	4746
2026-01-04 08:22:19.82	48.83	47.87	-49.0	-51.6	13.6	7.60e-06	0	57	0	706740224	61	4698
2026-01-04 08:22:23.79	46.47	47.91	-48.9	-51.5	13.9	3.00e-06	0	57	0	714080256	60	4871
2026-01-04 08:22:27.75	44.11	47.90	-48.8	-51.5	13.8	3.00e-06	0	57	0	721420288	60	4893
2026-01-04 08:22:31.70	41.77	47.84	-49.1	-51.8	13.5	8.30e-06	0	57	0	728760320	60	5095
2026-01-04 08:22:35.66	39.43	47.72	-49.3	-52.3	13.0	5.03e-05	0	57	0	736100352	60	5396
2026-01-04 08:22:39.62	37.12	47.56	-49.2	-52.0	13.4	3.20e-05	0	57	0	743440384	60	5176
2026-01-04 08:22:43.58	34.83	47.34	-49.6	-52.8	12.6	2.13e-05	0	57	0	751828992	61	5348
2026-01-04 08:22:47.55	32.57	47.08	-49.1	-51.8	13.6	8.30e-06	0	57	0	759169024	61	4776
2026-01-04 08:22:51.49	30.37	46.77	-49.2	-52.1	13.3	1.83e-05	0	57	0	766509056	61	4931
2026-01-04 08:22:55.44	28.21	46.42	-49.0	-51.7	13.6	1.37e-05	0	57	0	773849088	61	4757
2026-01-04 08:22:59.42	26.09	46.02	-48.8	-51.3	14.0	1.50e-06	0	57	0	781189120	60	4801
2026-01-04 08:23:03.38	24.03	45.59	-48.7	-51.1	14.2	1.50e-06	0	57	0	788529152	60	4697
2026-01-04 08:23:07.36	22.02	45.13	-48.7	-51.3	14.0	3.80e-06	0	57	0	795869184	60	4777
2026-01-04 08:23:11.31	20.08	44.63	-48.1	-50.1	15.2	0.00e+00	0	57	0	803209216	59	4428
2026-01-04 08:23:15.27	18.21	44.10	-48.1	-50.1	15.2	0.00e+00	0	57	0	810549248	59	4441
2026-01-04 08:23:19.22	16.40	43.55	-47.5	-49.2	16.1	0.00e+00	0	57	0	817889280	58	4238
2026-01-04 08:23:23.18	14.65	42.98	-46.8	-48.4	17.0	0.00e+00	0	57	0	825229312	56	4294
2026-01-04 08:23:27.16	12.95	42.38	-46.5	-47.9	17.3	0.00e+00	0	57	0	832569344	56	4092
2026-01-04 08:23:31.10	11.33	41.77	-47.2	-48.9	16.4	0.00e+00	0	57	0	839909376	56	4591
2026-01-04 08:23:35.06	9.77	41.14	-47.1	-48.8	16.6	0.00e+00	0	57	0	848297984	56	4504
2026-01-04 08:23:39.03	8.26	40.50	-47.4	-49.1	16.2	0.00e+00	0	57	0	855638016	56	4674
2026-01-04 08:23:43.00	6.81	39.85	-47.3	-49.1	16.3	0.00e+00	0	57	0	862978048	56	4667
2026-01-04 08:23:46.97	5.42	39.19	-47.5	-49.3	16.1	0.00e+00	0	57	0	870318080	56	4764
2026-01-04 08:23:50.94	4.09	38.52	-47.9	-49.9	15.4	0.00e+00	0	57	0	877658112	57	4866
2026-01-04 08:23:54.89	2.82	37.86	-48.3	-50.5	14.8	0.00e+00	0	57	0	884998144	58	4898
2026-01-04 08:23:58.86	1.59	37.19	-48.4	-50.7	14.6	7.00e-07	0	57	0	892338176	59	4712
2026-01-04 08:24:02.83	0.41	36.52	-49.2	-52.0	13.3	6.10e-06	0	57	0	899678208	60	5196
2026-01-04 08:24:06.78	359.29	35.85	-49.3	-52.2	13.1	3.12e-05	0	57	0	907018240	60	5288
2026-01-04 08:24:10.74	358.20	35.18	-49.5	-52.6	12.6	8.62e-05	0	57	0	914358272	60	5555
2026-01-04 08:24:14.70	357.17	34.52	-49.6	-52.8	12.5	1.39e-04	0	57	0	921698304	61	5350
2026-01-04 08:24:18.65	356.17	33.86	-50.0	-53.5	11.6	4.98e-04	0	57	0	929038336	61	5836
2026-01-04 08:24:22.61	355.22	33.20	-49.8	-53.2	12.0	3.62e-04	0	57	0	937426944	62	5287
2026-01-04 08:24:26.56	354.30	32.55	-49.5	-52.6	12.6	9.99e-05	0	57	0	944766976	62	4967
2026-01-04 08:24:30.52	353.42	31.90	-49.1	-51.8	13.4	9.90e-06	0	57	0	952107008	61	4804
2026-01-04 08:24:34.50	352.57	31.26	-49.2	-52.0	13.3	1.37e-05	0	57	0	959447040	61	4877
2026-01-04 08:24:38.45	351.76	30.63	-49.2	-52.1	13.1	3.96e-05	0	57	0	966787072	61	4932
2026-01-04 08:24:42.42	350.98	30.00	-49.2	-52.2	13.0	5.03e-05	0	57	0	974127104	61	5002
2026-01-04 08:24:46.36	350.23	29.39	-48.7	-51.2	14.0	3.80e-06	0	57	0	981467136	60	4740
2026-01-04 08:24:50.34	349.50	28.78	-48.9	-51.5	13.7	0.00e+00	0	57	0	988807168	60	4884
2026-01-04 08:24:54.29	348.81	28.18	-48.7	-51.3	13.9	5.30e-06	0	57	0	996147200	60	4786
2026-01-04 08:24:58.24	348.14	27.59	-48.3	-50.5	14.7	0.00e+00	0	57	0	1003487232	59	4630
2026-01-04 08:25:02.20	347.50	27.00	-48.5	-50.9	14.3	7.00e-07	0	57	0	1010827264	59	4838
2026-01-04 08:25:06.16	346.87	26.43	-48.6	-51.1	14.1	3.00e-06	0	57	0	1018167296	59	4944
2026-01-04 08:25:10.13	346.27	25.86	-48.7	-51.2	13.9	0.00e+00	0	57	0	1026555904	59	5030
2026-01-04 08:25:14.09	345.70	25.30	-48.9	-51.6	13.5	6.10e-06	0	57	0	1033895936	59	5259
2026-01-04 08:25:18.05	345.14	24.75	-48.1	-50.3	14.9	7.00e-07	0	57	0	1041235968	59	4506
2026-01-04 08:25:22.01	344.60	24.21	-47.7	-49.8	15.3	0.00e+00	0	57	0	1048576000	58	4539
2026-01-04 08:25:25.97	344.08	23.67	-47.8	-49.9	15.2	0.00e+00	0	57	0	1055916032	58	4558
2026-01-04 08:25:29.92	343.58	23.15	-48.1	-50.3	14.8	0.00e+00	0	57	0	1063256064	58	4778
2026-01-04 08:25:33.88	343.10	22.63	-48.2	-50.5	14.6	0.00e+00	0	57	0	1070596096	58	4897
2026-01-04 08:25:37.85	342.63	22.12	-48.5	-50.9	14.2	7.00e-07	0	57	0	1077936128	58	5129
2026-01-04 08:25:41.82	342.17	21.62	-48.1	-50.4	14.7	0.00e+00	0	57	0	1085276160	58	4818
2026-01-04 08:25:45.78	341.73	21.12	-48.4	-50.8	14.2	7.00e-07	0	57	0	1092616192	58	5090
2026-01-04 08:25:49.74	341.31	20.64	-48.0	-50.2	14.7	0.00e+00	0	57	0	1099956224	59	4466
2026-01-04 08:25:53.71	340.90	20.16	-48.9	-52.0	12.8	1.98e-05	0	57	0	1107296256	59	5466
2026-01-04 08:25:57.67	340.50	19.69	-49.4	-53.1	11.2	1.56e-03	0	57	0	1115684864	60	5893
2026-01-04 08:26:01.62	340.12	19.23	-48.9	-52.3	12.0	3.29e-04	0	57	0	1123024896	60	5358
2026-01-04 08:26:05.57	339.74	18.77	-49.0	-52.5	11.8	7.31e-04	0	57	0	1130364928	60	5519
2026-01-04 08:26:09.54	339.38	18.32	-48.5	-51.2	13.4	3.50e-05	0	57	0	1137704960	59	4988
2026-01-04 08:26:13.50	339.03	17.88	-47.9	-50.2	14.6	1.50e-06	0	57	0	1145044992	59	4459
2026-01-04 08:26:17.46	338.69	17.44	-48.3	-50.8	14.0	5.30e-06	0	57	0	1152385024	58	5051
2026-01-04 08:26:21.42	338.36	17.02	-48.2	-50.5	14.4	7.00e-07	0	57	0	1159725056	58	4921
2026-01-04 08:26:25.38	338.04	16.59	-48.2	-50.6	14.3	3.80e-06	0	57	0	1167065088	58	4968
2026-01-04 08:26:29.32	337.73	16.18	-48.3	-50.8	14.1	7.00e-07	0	57	0	1174405120	58	5053
2026-01-04 08:26:33.27	337.43	15.77	-48.1	-50.4	14.5	0.00e+00	0	57	0	1181745152	58	4835
2026-01-04 08:26:37.23	337.13	15.37	-48.5	-51.1	13.8	0.00e+00	0	57	0	1189085184	58	5219
2026-01-04 08:26:41.19	336.84	14.97	-48.7	-51.4	13.4	8.30e-06	0	57	0	1196425216	59	5147
2026-01-04 08:26:45.16	336.57	14.57	-48.5	-51.1	13.7	4.50e-06	0	57	0	1203765248	59	4974
2026-01-04 08:26:49.11	336.30	14.19	-48.6	-51.2	13.6	7.60e-06	0	57	0	1212153856	59	5041
2026-01-04 08:26:53.07	336.03	13.81	-48.6	-51.3	13.6	1.06e-05	0	57	0	1219493888	59	5048
2026-01-04 08:26:57.04	335.78	13.43	-48.8	-51.7	13.1	2.82e-05	0	57	0	1226833920	59	5296
2026-01-04 08:27:01.03	335.52	13.05	-48.8	-51.7	13.1	2.82e-05	0	57	0	1234173952	59	5289
2026-01-04 08:27:04.99	335.28	12.69	-48.6	-51.3	13.5	8.30e-06	0	57	0	1241513984	59	5046
2026-01-04 08:27:08.95	335.04	12.33	-48.8	-51.6	13.2	1.90e-05	0	57	0	1248854016	59	5237
2026-01-04 08:27:12.92	334.81	11.97	-48.8	-51.6	13.2	2.44e-05	0	57	0	1256194048	59	5246
2026-01-04 08:27:16.88	334.59	11.62	-48.7	-51.4	13.3	1.37e-05	0	57	0	1263534080	59	5134
2026-01-04 08:27:20.85	334.37	11.27	-48.8	-51.8	13.0	2.89e-05	0	57	0	1270874112	59	5360
2026-01-04 08:27:24.81	334.15	10.93	-48.8	-51.8	13.0	3.05e-05	0	57	0	1278214144	59	5357
2026-01-04 08:27:28.77	333.95	10.59	-48.7	-51.6	13.0	4.19e-05	0	57	0	1285554176	59	5271
2026-01-04 08:27:32.72	333.74	10.25	-48.7	-52.0	12.7	5.11e-05	0	57	0	1293942784	59	5509
2026-01-04 08:27:36.66	333.55	9.93	-48.5	-51.7	12.9	5.03e-05	0	57	0	1301282816	59	5328
2026-01-04 08:27:40.61	333.35	9.60	-48.7	-52.0	12.7	6.40e-05	0	57	0	1308622848	59	5477
2026-01-04 08:27:44.56	333.16	9.28	-49.0	-52.2	12.4	1.04e-04	0	57	0	1315962880	59	5634
2026-01-04 08:27:48.52	332.98	8.96	-48.8	-52.0	12.7	8.85e-05	0	57	0	1323302912	60	5166
2026-01-04 08:27:52.48	332.80	8.64	-48.9	-52.1	12.4	1.14e-04	0	57	0	1330642944	60	5264
2026-01-04 08:27:56.45	332.62	8.33	-49.0	-52.4	12.1	3.18e-04	0	57	0	1337982976	60	5444
2026-01-04 08:28:00.42	332.45	8.02	-49.2	-52.8	11.7	4.00e-04	0	57	0	1345323008	60	5682
2026-01-04 08:28:04.37	332.28	7.72	-49.3	-52.9	11.6	8.76e-04	0	57	0	1352663040	60	5753
2026-01-04 08:28:08.33	332.12	7.42	-49.6	-53.5	10.9	1.45e-03	0	57	0	1360003072	61	5819
2026-01-04 08:28:12.28	331.96	7.12	-49.1	-52.7	11.7	5.33e-04	0	57	0	1367343104	61	5302
2026-01-04 08:28:16.25	331.80	6.83	-49.4	-53.1	11.3	1.41e-03	0	57	0	1374683136	61	5577
2026-01-04 08:28:20.22	331.65	6.53	-49.4	-53.3	11.1	1.41e-03	0	57	0	1382023168	61	5675
2026-01-04 08:28:24.18	331.49	6.25	-49.7	-53.9	10.4	4.72e-03	0	57	0	1390411776	61	6068
2026-01-04 08:28:28.15	331.35	5.96	-49.5	-53.8	10.5	3.31e-03	0	57	0	1397751808	61	5997
2026-01-04 08:28:32.10	331.20	5.68	-49.6	-53.9	10.3	5.64e-03	0	57	0	1405091840	61	6107
2026-01-04 08:28:36.07	331.06	5.40	-49.7	-54.3	9.8	8.04e-03	0	57	0	1412431872	61	6369
2026-01-04 08:28:40.03	330.92	5.12	-49.7	-54.3	9.8	9.57e-03	0	57	0	1419771904	61	6399
2026-01-04 08:28:44.01	330.79	4.85	-52.0	-65.8	3.8	1.49e+00	0	57	104	1421869056	65	19093
2026-01-04 08:28:47.97	330.66	4.57	-52.3	-66.1	3.8	1.49e+00	0	57	104	1421869056	66	18704
2026-01-04 08:28:51.93	330.53	4.30	-52.2	-66.3	3.8	1.49e+00	0	57	104	1421869056	66	19022
2026-01-04 08:28:55.88	330.40	4.04	-52.5	-66.4	3.8	1.49e+00	0	57	104	1421869056	67	18170
2026-01-04 08:28:59.84	330.28	3.77	-52.6	-66.4	3.8	1.49e+00	0	57	104	1421869056	67	18261
2026-01-04 08:29:03.80	330.15	3.51	-52.6	-66.5	3.8	1.49e+00	0	57	104	1421869056	67	18336
2026-01-04 08:29:07.77	330.03	3.25	-52.7	-66.5	3.8	1.49e+00	0	58	104	1421869056	67	18308
2026-01-04 08:29:11.74	329.92	2.99	-52.6	-66.5	3.8	1.49e+00	0	57	104	1421869056	67	18339

#Closed at: 2026-01-04 08:29:13
#Recorded file [1421 MB]: D:/Data/31026_260104_112841.dat