passes_logs/2026/01/04/R3.0SM8_Murmansk_STILSPACE/R3.0SM8_Murmansk_STILSPACE__20260104_045757_NOAA_20_JPSS-1_rec.log

#Pass ID: 20260104_045757_NOAA 20 (JPSS-1)
#Satellite: NOAA 20 (JPSS-1)
#Configuration: NOAA 20
#almurnet v.1.7.20240730
#Start time: 2026-01-04 04:57:59

#Version: 2.2.20231116
#Station: R3.0SM8_Murmansk_STILSPACE
#Location: 33.092731 lon 68.902999 lat
#TLE: 1 43013U 17073A   26003.41800368  .00000169  00000+0  10117-3 0  9998
#TLE: 2 43013  98.7624 304.4804 0001884  56.1176 304.0179 14.19532918421092

#Time	Az	El	Level	Level2	SNR	BER	BlckErr	Temp	State	Recorded	gain1	gain2
2026-01-04 04:57:59.40	57.96	3.13	-52.3	-66.2	3.8	1.49e+00	0	46	0	0	67	17685
2026-01-04 04:58:02.37	57.76	3.31	-51.8	-65.7	3.8	1.49e+00	0	47	104	0	66	17687
2026-01-04 04:58:05.33	57.55	3.48	-51.3	-65.3	3.8	1.49e+00	0	47	104	0	65	17920
2026-01-04 04:58:08.29	57.34	3.65	-51.4	-65.3	3.8	1.49e+00	0	47	104	0	65	17919
2026-01-04 04:58:11.27	57.12	3.83	-51.5	-65.2	3.8	1.49e+00	0	47	104	0	65	17724
2026-01-04 04:58:14.24	56.91	4.00	-51.4	-65.2	3.8	1.49e+00	0	48	104	0	65	17828
2026-01-04 04:58:17.21	56.69	4.18	-51.4	-65.2	3.8	1.49e+00	0	48	104	0	65	17878
2026-01-04 04:58:20.17	56.47	4.36	-51.4	-65.0	3.8	1.49e+00	0	48	104	0	65	17330
2026-01-04 04:58:23.14	56.24	4.54	-51.3	-63.6	3.8	1.49e+00	0	48	104	0	65	14716
2026-01-04 04:58:26.10	56.01	4.72	-51.1	-61.0	4.4	1.30e+00	54	49	0	0	65	10946
2026-01-04 04:58:29.06	55.78	4.89	-50.8	-58.6	5.7	5.18e-01	0	48	0	5242880	64	8851
2026-01-04 04:58:32.03	55.55	5.08	-50.7	-57.9	6.2	2.66e-01	0	49	0	10485760	64	8167
2026-01-04 04:58:34.99	55.31	5.26	-50.7	-57.4	6.7	2.11e-01	0	49	0	16777216	64	7707
2026-01-04 04:58:37.95	55.07	5.44	-50.8	-58.3	6.0	2.83e-01	0	49	0	22020096	64	8526
2026-01-04 04:58:40.92	54.83	5.62	-50.4	-56.1	8.0	7.35e-02	0	49	0	27262976	63	7021
2026-01-04 04:58:43.88	54.59	5.80	-49.9	-54.6	9.5	1.63e-02	0	49	0	33554432	62	6247
2026-01-04 04:58:46.86	54.34	5.99	-49.3	-53.3	10.9	2.66e-03	0	50	0	38797312	61	5675
2026-01-04 04:58:49.84	54.08	6.17	-49.1	-52.6	11.6	7.95e-04	0	50	0	44040192	61	5261
2026-01-04 04:58:52.81	53.83	6.36	-49.0	-52.6	11.6	7.04e-04	0	50	0	50331648	61	5274
2026-01-04 04:58:55.78	53.57	6.55	-49.1	-52.7	11.6	7.45e-04	0	50	0	55574528	61	5285
2026-01-04 04:58:58.75	53.30	6.74	-49.2	-52.7	11.6	5.36e-04	0	50	0	60817408	61	5327
2026-01-04 04:59:01.72	53.04	6.92	-49.2	-52.8	11.6	6.93e-04	0	50	0	67108864	61	5385
2026-01-04 04:59:04.68	52.77	7.11	-49.3	-53.1	11.3	9.65e-04	0	50	0	72351744	61	5555
2026-01-04 04:59:07.65	52.49	7.30	-49.2	-52.7	11.7	5.60e-04	0	51	0	77594624	61	5311
2026-01-04 04:59:10.62	52.21	7.49	-49.3	-53.0	11.4	9.86e-04	0	51	0	83886080	61	5523
2026-01-04 04:59:13.59	51.93	7.68	-49.1	-52.6	11.8	5.23e-04	0	51	0	89128960	61	5247
2026-01-04 04:59:16.55	51.65	7.88	-49.0	-52.3	12.2	2.50e-04	0	51	0	94371840	61	5083
2026-01-04 04:59:19.51	51.36	8.07	-49.0	-52.2	12.3	2.01e-04	0	51	0	99614720	61	5009
2026-01-04 04:59:22.48	51.07	8.26	-49.0	-52.4	12.2	1.62e-04	0	51	0	105906176	61	5107
2026-01-04 04:59:25.44	50.77	8.46	-49.2	-52.5	12.0	2.65e-04	0	51	0	111149056	61	5213
2026-01-04 04:59:28.40	50.47	8.65	-49.0	-52.3	12.3	2.34e-04	0	51	0	116391936	61	5050
2026-01-04 04:59:31.35	50.17	8.85	-49.2	-52.5	12.0	3.50e-04	0	51	0	122683392	61	5196
2026-01-04 04:59:34.32	49.86	9.04	-48.8	-51.8	12.9	5.34e-05	0	52	0	127926272	60	5048
2026-01-04 04:59:37.28	49.54	9.24	-48.8	-51.7	12.9	4.19e-05	0	52	0	133169152	60	5031
2026-01-04 04:59:40.25	49.22	9.44	-48.9	-52.0	12.7	8.39e-05	0	52	0	138412032	60	5184
2026-01-04 04:59:43.22	48.90	9.64	-49.1	-52.2	12.5	1.41e-04	0	52	0	144703488	60	5324
2026-01-04 04:59:46.20	48.57	9.84	-49.2	-52.6	12.1	2.74e-04	0	52	0	149946368	60	5533
2026-01-04 04:59:49.17	48.24	10.04	-49.3	-52.6	12.0	2.81e-04	0	52	0	155189248	60	5579
2026-01-04 04:59:52.14	47.90	10.24	-49.1	-52.4	12.4	1.82e-04	0	52	0	161480704	60	5405
2026-01-04 04:59:55.10	47.56	10.44	-48.9	-52.0	12.7	5.72e-05	0	52	0	166723584	60	5178
2026-01-04 04:59:58.08	47.21	10.64	-49.0	-52.1	12.6	6.86e-05	0	52	0	171966464	60	5277
2026-01-04 05:00:01.04	46.86	10.84	-48.9	-51.8	12.9	5.18e-05	0	52	0	178257920	60	5082
2026-01-04 05:00:03.99	46.51	11.05	-48.8	-51.6	13.2	2.51e-05	0	52	0	183500800	60	4952
2026-01-04 05:00:06.96	46.15	11.25	-48.6	-51.3	13.5	1.37e-05	0	53	0	188743680	60	4791
2026-01-04 05:00:09.93	45.78	11.45	-48.5	-51.2	13.6	1.06e-05	0	53	0	195035136	60	4725
2026-01-04 05:00:12.89	45.41	11.66	-48.7	-51.5	13.3	1.83e-05	0	53	0	200278016	60	4909
2026-01-04 05:00:15.87	45.03	11.86	-48.8	-51.8	13.0	2.82e-05	0	53	0	205520896	60	5061
2026-01-04 05:00:18.82	44.65	12.07	-48.8	-51.7	13.1	3.05e-05	0	53	0	210763776	60	4984
2026-01-04 05:00:21.77	44.26	12.27	-48.9	-51.8	13.0	6.40e-05	0	53	0	217055232	60	5100
2026-01-04 05:00:24.72	43.87	12.48	-48.8	-51.7	13.2	3.66e-05	0	53	0	222298112	60	4999
2026-01-04 05:00:27.68	43.47	12.69	-48.8	-51.6	13.3	2.28e-05	0	53	0	227540992	60	4930
2026-01-04 05:00:30.64	43.07	12.89	-48.7	-51.4	13.5	1.90e-05	0	53	0	233832448	60	4823
2026-01-04 05:00:33.60	42.66	13.10	-48.4	-50.9	14.0	1.50e-06	0	53	0	239075328	59	4831
2026-01-04 05:00:36.56	42.24	13.31	-48.0	-50.2	14.7	7.00e-07	0	53	0	244318208	59	4460
2026-01-04 05:00:39.52	41.82	13.52	-48.1	-50.4	14.5	7.00e-07	0	53	0	249561088	59	4570
2026-01-04 05:00:42.48	41.39	13.72	-48.0	-50.3	14.7	0.00e+00	0	53	0	255852544	59	4500
2026-01-04 05:00:45.46	40.96	13.93	-48.2	-50.6	14.4	0.00e+00	0	53	0	261095424	59	4671
2026-01-04 05:00:48.42	40.52	14.14	-48.3	-50.6	14.3	0.00e+00	0	54	0	266338304	59	4693
2026-01-04 05:00:51.40	40.07	14.35	-48.2	-50.6	14.3	1.50e-06	0	53	0	272629760	59	4665
2026-01-04 05:00:54.37	39.61	14.56	-48.3	-50.8	14.2	2.20e-06	0	54	0	277872640	59	4764
2026-01-04 05:00:57.34	39.15	14.77	-48.4	-51.0	14.0	3.00e-06	0	54	0	283115520	59	4880
2026-01-04 05:01:00.30	38.68	14.98	-48.6	-51.2	13.8	6.10e-06	0	54	0	289406976	59	5009
2026-01-04 05:01:03.28	38.21	15.19	-48.8	-51.4	13.5	9.90e-06	0	54	0	294649856	59	5157
2026-01-04 05:01:06.23	37.73	15.39	-48.9	-51.7	13.3	1.83e-05	0	54	0	299892736	59	5290
2026-01-04 05:01:09.21	37.24	15.60	-48.6	-51.2	13.8	3.80e-06	0	54	0	306184192	59	5006
2026-01-04 05:01:12.18	36.74	15.81	-48.6	-51.2	13.8	4.50e-06	0	54	0	311427072	59	5016
2026-01-04 05:01:15.14	36.24	16.01	-48.6	-51.1	13.9	1.50e-06	0	54	0	316669952	59	4948
2026-01-04 05:01:18.10	35.73	16.22	-48.5	-51.1	13.9	3.80e-06	0	54	0	322961408	59	4964
2026-01-04 05:01:21.08	35.22	16.43	-48.6	-51.2	13.8	7.60e-06	0	54	0	328204288	59	4997
2026-01-04 05:01:24.04	34.69	16.63	-48.6	-51.2	13.8	5.30e-06	0	54	0	333447168	59	5009
2026-01-04 05:01:27.01	34.16	16.84	-48.6	-51.1	13.9	2.20e-06	0	54	0	338690048	59	4951
2026-01-04 05:01:29.97	33.63	17.04	-48.6	-51.2	13.8	5.30e-06	0	54	0	344981504	59	5023
2026-01-04 05:01:32.94	33.08	17.24	-48.5	-51.0	14.0	3.80e-06	0	55	0	350224384	59	4887
2026-01-04 05:01:35.90	32.53	17.44	-48.7	-51.4	13.6	3.00e-06	0	54	0	355467264	59	5119
2026-01-04 05:01:38.87	31.97	17.64	-48.2	-50.4	14.6	0.00e+00	0	54	0	361758720	59	4595
2026-01-04 05:01:41.84	31.40	17.84	-48.0	-50.2	14.9	0.00e+00	0	54	0	367001600	59	4450
2026-01-04 05:01:44.80	30.82	18.04	-47.9	-50.0	15.1	0.00e+00	0	54	0	372244480	58	4610
2026-01-04 05:01:47.76	30.24	18.23	-47.4	-49.3	15.8	0.00e+00	0	55	0	378535936	57	4500
2026-01-04 05:01:50.73	29.65	18.43	-47.1	-48.8	16.2	0.00e+00	0	55	0	383778816	57	4265
2026-01-04 05:01:53.70	29.05	18.62	-47.0	-48.8	16.2	0.00e+00	0	55	0	389021696	57	4273
2026-01-04 05:01:56.67	28.45	18.81	-46.9	-48.6	16.5	0.00e+00	0	55	0	394264576	56	4401
2026-01-04 05:01:59.63	27.83	19.00	-46.9	-48.6	16.5	0.00e+00	0	54	0	400556032	56	4406
2026-01-04 05:02:02.59	27.21	19.19	-46.8	-48.4	16.6	0.00e+00	0	55	0	405798912	56	4336
2026-01-04 05:02:05.55	26.59	19.37	-46.8	-48.4	16.7	0.00e+00	0	55	0	411041792	56	4309
2026-01-04 05:02:08.52	25.95	19.56	-46.7	-48.2	16.9	0.00e+00	0	55	0	417333248	56	4228
2026-01-04 05:02:11.48	25.31	19.74	-46.8	-48.4	16.7	0.00e+00	0	55	0	422576128	56	4312
2026-01-04 05:02:14.45	24.65	19.91	-46.7	-48.3	16.7	0.00e+00	0	55	0	427819008	56	4290
2026-01-04 05:02:17.42	23.99	20.09	-46.7	-48.3	16.8	0.00e+00	0	55	0	434110464	56	4272
2026-01-04 05:02:20.39	23.32	20.26	-46.6	-48.1	16.9	0.00e+00	0	55	0	439353344	56	4193
2026-01-04 05:02:23.35	22.65	20.43	-46.9	-48.6	16.4	0.00e+00	0	55	0	444596224	56	4441
2026-01-04 05:02:26.31	21.97	20.59	-46.9	-48.7	16.4	0.00e+00	0	55	0	449839104	56	4447
2026-01-04 05:02:29.26	21.28	20.76	-47.0	-48.8	16.3	0.00e+00	0	55	0	456130560	56	4505
2026-01-04 05:02:32.22	20.59	20.91	-46.9	-48.6	16.5	0.00e+00	0	55	0	461373440	56	4437
2026-01-04 05:02:35.19	19.88	21.07	-46.9	-48.6	16.5	0.00e+00	0	55	0	466616320	56	4433
2026-01-04 05:02:38.17	19.17	21.22	-46.7	-48.3	16.8	0.00e+00	0	55	0	472907776	56	4286
2026-01-04 05:02:41.13	18.45	21.37	-46.3	-47.8	17.2	0.00e+00	0	55	0	478150656	55	4258
2026-01-04 05:02:44.09	17.73	21.51	-46.7	-48.3	16.7	0.00e+00	0	55	0	483393536	55	4506
2026-01-04 05:02:47.05	17.00	21.65	-46.1	-47.5	17.5	0.00e+00	0	55	0	489684992	55	4130
2026-01-04 05:02:50.03	16.26	21.79	-45.8	-47.1	17.8	0.00e+00	0	55	0	494927872	54	4191
2026-01-04 05:02:52.99	15.51	21.92	-46.1	-47.5	17.5	0.00e+00	0	55	0	500170752	54	4378
2026-01-04 05:02:55.95	14.76	22.05	-46.1	-47.5	17.5	0.00e+00	0	55	0	505413632	54	4365
2026-01-04 05:02:58.92	14.01	22.17	-46.4	-47.9	17.1	0.00e+00	0	55	0	511705088	54	4570
2026-01-04 05:03:01.88	13.24	22.29	-46.5	-48.1	16.9	0.00e+00	0	55	0	516947968	54	4683
2026-01-04 05:03:04.84	12.48	22.40	-46.7	-48.3	16.7	0.00e+00	0	55	0	522190848	55	4511
2026-01-04 05:03:07.82	11.70	22.50	-46.4	-47.9	17.0	0.00e+00	0	56	0	528482304	55	4340
2026-01-04 05:03:10.79	10.92	22.61	-46.6	-48.3	16.6	0.00e+00	0	55	0	533725184	55	4501
2026-01-04 05:03:13.75	10.14	22.70	-47.2	-49.1	15.7	0.00e+00	0	55	0	538968064	56	4700
2026-01-04 05:03:16.73	9.34	22.79	-46.9	-48.8	15.9	0.00e+00	0	55	0	545259520	56	4499
2026-01-04 05:03:19.70	8.55	22.88	-47.4	-49.7	14.6	7.00e-07	0	55	0	550502400	56	5014
2026-01-04 05:03:22.66	7.75	22.96	-48.7	-52.1	11.8	1.75e-04	0	56	0	555745280	59	5589
2026-01-04 05:03:25.62	6.95	23.03	-49.7	-56.2	7.3	5.45e-02	0	55	0	560988160	61	7919
2026-01-04 05:03:28.59	6.14	23.10	-49.8	-56.7	6.7	2.03e-01	0	55	0	567279616	61	8422
2026-01-04 05:03:31.54	5.34	23.16	-50.3	-56.6	7.2	1.23e-01	0	56	0	572522496	62	7853
2026-01-04 05:03:34.51	4.53	23.22	-50.0	-55.6	8.3	5.05e-02	0	55	0	577765376	62	6966
2026-01-04 05:03:37.47	3.71	23.27	-49.9	-55.4	8.2	6.51e-02	0	56	0	584056832	62	6870
2026-01-04 05:03:40.44	2.90	23.31	-48.8	-52.1	12.4	5.42e-04	0	55	0	589299712	60	5222
2026-01-04 05:03:43.41	2.07	23.35	-48.5	-51.2	13.8	9.90e-06	0	56	0	594542592	60	4724
2026-01-04 05:03:46.36	1.26	23.38	-48.2	-50.6	14.5	7.00e-07	0	56	0	600834048	59	4666
2026-01-04 05:03:49.35	0.43	23.40	-48.3	-50.6	14.4	7.00e-07	0	56	0	606076928	59	4701
2026-01-04 05:03:52.30	359.61	23.42	-47.9	-50.0	15.1	0.00e+00	0	56	0	611319808	59	4373
2026-01-04 05:03:55.27	358.78	23.43	-47.6	-49.6	15.5	0.00e+00	0	56	0	617611264	58	4419
2026-01-04 05:03:58.24	357.96	23.44	-47.9	-49.9	15.1	0.00e+00	0	56	0	622854144	58	4587
2026-01-04 05:04:01.21	357.13	23.44	-47.4	-49.3	15.8	0.00e+00	0	56	0	628097024	58	4252
2026-01-04 05:04:04.17	356.31	23.43	-47.4	-49.3	15.8	0.00e+00	0	56	0	633339904	58	4249
2026-01-04 05:04:07.14	355.48	23.42	-47.4	-49.2	15.9	0.00e+00	0	56	0	639631360	57	4475
2026-01-04 05:04:10.11	354.66	23.40	-47.1	-48.9	16.2	0.00e+00	0	56	0	644874240	57	4302
2026-01-04 05:04:13.08	353.84	23.37	-46.8	-48.4	16.7	0.00e+00	0	56	0	650117120	56	4311
2026-01-04 05:04:16.06	353.01	23.34	-46.6	-48.2	16.9	0.00e+00	0	56	0	656408576	56	4222
2026-01-04 05:04:19.02	352.19	23.30	-46.0	-47.5	17.5	0.00e+00	0	56	0	661651456	55	4116
2026-01-04 05:04:21.98	351.38	23.25	-46.3	-47.8	17.1	0.00e+00	0	56	0	666894336	55	4274
2026-01-04 05:04:24.95	350.56	23.20	-46.5	-48.1	16.8	0.00e+00	0	56	0	673185792	55	4429
2026-01-04 05:04:27.92	349.75	23.14	-46.4	-47.9	17.0	0.00e+00	0	56	0	678428672	55	4320
2026-01-04 05:04:30.87	348.95	23.08	-46.2	-47.7	17.2	0.00e+00	0	56	0	683671552	55	4220
2026-01-04 05:04:33.86	348.14	23.01	-46.0	-47.4	17.6	0.00e+00	0	56	0	689963008	55	4052
2026-01-04 05:04:36.83	347.34	22.93	-45.8	-47.2	17.8	0.00e+00	0	56	0	695205888	54	4201
2026-01-04 05:04:39.78	346.54	22.85	-46.1	-47.5	17.4	0.00e+00	0	56	0	700448768	54	4374
2026-01-04 05:04:42.76	345.75	22.76	-46.2	-47.7	17.2	0.00e+00	0	56	0	705691648	54	4468
2026-01-04 05:04:45.74	344.96	22.67	-46.0	-47.5	17.5	0.00e+00	0	56	0	711983104	54	4352
2026-01-04 05:04:48.71	344.17	22.57	-46.3	-47.8	17.1	0.00e+00	0	56	0	717225984	54	4521
2026-01-04 05:04:51.69	343.39	22.47	-46.4	-48.0	16.9	0.00e+00	0	56	0	722468864	54	4640
2026-01-04 05:04:54.66	342.62	22.36	-46.8	-48.5	16.4	0.00e+00	0	56	0	728760320	55	4625
2026-01-04 05:04:57.62	341.85	22.25	-46.9	-48.6	16.4	0.00e+00	0	56	0	734003200	55	4668
2026-01-04 05:05:00.59	341.09	22.13	-46.9	-48.5	16.4	0.00e+00	0	56	0	739246080	55	4650
2026-01-04 05:05:03.57	340.33	22.00	-47.5	-49.4	15.6	0.00e+00	0	56	0	745537536	56	4847
2026-01-04 05:05:06.55	339.58	21.87	-47.6	-49.6	15.4	0.00e+00	0	56	0	750780416	57	4695
2026-01-04 05:05:09.53	338.83	21.74	-47.5	-49.5	15.4	0.00e+00	0	56	0	756023296	57	4639
2026-01-04 05:05:12.50	338.10	21.60	-48.0	-50.4	14.4	7.00e-07	0	56	0	762314752	57	5105
2026-01-04 05:05:15.46	337.37	21.46	-48.7	-51.6	12.9	2.97e-05	0	56	0	767557632	59	5278
2026-01-04 05:05:18.44	336.64	21.32	-49.3	-52.9	11.4	7.30e-04	0	56	0	772800512	60	5787
2026-01-04 05:05:21.42	335.92	21.17	-49.0	-52.5	11.9	5.48e-04	0	56	0	779091968	60	5477
2026-01-04 05:05:24.39	335.22	21.01	-49.4	-53.1	11.3	1.25e-03	0	56	0	784334848	60	5895
2026-01-04 05:05:27.35	334.52	20.86	-49.3	-53.1	11.2	1.76e-03	0	56	0	789577728	60	5858
2026-01-04 05:05:30.30	333.82	20.70	-48.5	-51.3	13.4	4.19e-05	0	56	0	794820608	60	4784
2026-01-04 05:05:33.25	333.14	20.54	-48.2	-50.4	14.7	0.00e+00	0	56	0	801112064	59	4561
2026-01-04 05:05:36.23	332.46	20.37	-48.3	-50.6	14.4	0.00e+00	0	56	0	806354944	59	4698
2026-01-04 05:05:39.19	331.79	20.20	-47.8	-49.8	15.3	0.00e+00	0	56	0	811597824	58	4526
2026-01-04 05:05:42.16	331.12	20.02	-47.6	-49.6	15.5	0.00e+00	0	56	0	817889280	58	4396
2026-01-04 05:05:45.13	330.47	19.85	-47.4	-49.4	15.7	0.00e+00	0	56	0	823132160	57	4547
2026-01-04 05:05:48.08	329.82	19.67	-47.6	-49.5	15.6	0.00e+00	0	57	0	828375040	57	4637
2026-01-04 05:05:51.06	329.18	19.49	-47.4	-49.3	15.8	0.00e+00	0	56	0	834666496	57	4525
2026-01-04 05:05:54.03	328.54	19.31	-47.4	-49.3	15.8	0.00e+00	0	57	0	839909376	57	4525
2026-01-04 05:05:57.00	327.91	19.12	-47.5	-49.5	15.7	0.00e+00	0	56	0	845152256	57	4601
2026-01-04 05:05:59.96	327.30	18.93	-47.6	-49.5	15.6	0.00e+00	0	57	0	850395136	57	4611
2026-01-04 05:06:02.92	326.69	18.74	-47.6	-49.6	15.5	0.00e+00	0	56	0	856686592	57	4678
2026-01-04 05:06:05.89	326.08	18.55	-47.4	-49.4	15.7	0.00e+00	0	56	0	861929472	57	4562
2026-01-04 05:06:08.86	325.49	18.36	-47.6	-49.6	15.4	0.00e+00	0	57	0	867172352	57	4704
2026-01-04 05:06:11.84	324.90	18.16	-47.9	-50.0	15.1	0.00e+00	0	57	0	873463808	57	4874
2026-01-04 05:06:14.80	324.32	17.97	-47.7	-49.7	15.4	0.00e+00	0	57	0	878706688	57	4721
2026-01-04 05:06:17.76	323.75	17.77	-47.7	-49.7	15.3	0.00e+00	0	57	0	883949568	57	4742
2026-01-04 05:06:20.74	323.18	17.57	-47.6	-49.6	15.4	0.00e+00	0	56	0	890241024	57	4697
2026-01-04 05:06:23.70	322.62	17.37	-47.7	-49.8	15.2	0.00e+00	0	56	0	895483904	57	4797
2026-01-04 05:06:26.65	322.08	17.17	-47.5	-49.4	15.6	0.00e+00	0	57	0	900726784	57	4574
2026-01-04 05:06:29.59	321.54	16.97	-47.5	-49.4	15.6	0.00e+00	0	56	0	905969664	57	4593
2026-01-04 05:06:32.55	321.01	16.76	-47.6	-49.6	15.4	0.00e+00	0	57	0	912261120	57	4690
2026-01-04 05:06:35.51	320.48	16.56	-47.1	-48.9	16.2	0.00e+00	0	57	0	917504000	57	4293
2026-01-04 05:06:38.49	319.96	16.35	-47.0	-48.7	16.3	0.00e+00	0	56	0	922746880	57	4240
2026-01-04 05:06:41.45	319.44	16.15	-47.2	-49.0	16.0	0.00e+00	0	57	0	929038336	57	4371
2026-01-04 05:06:44.43	318.93	15.94	-47.4	-49.3	15.7	0.00e+00	0	57	0	934281216	57	4528
2026-01-04 05:06:47.40	318.44	15.73	-47.2	-49.0	15.9	0.00e+00	0	57	0	939524096	57	4383
2026-01-04 05:06:50.37	317.94	15.53	-47.3	-49.1	15.9	0.00e+00	0	57	0	945815552	57	4411
2026-01-04 05:06:53.35	317.45	15.32	-46.9	-48.6	16.4	0.00e+00	0	57	0	951058432	57	4180
2026-01-04 05:06:56.31	316.98	15.11	-47.1	-48.9	16.1	0.00e+00	0	57	0	956301312	57	4323
2026-01-04 05:06:59.28	316.50	14.90	-47.4	-49.3	15.7	0.00e+00	0	57	0	962592768	57	4504
2026-01-04 05:07:02.26	316.04	14.69	-47.0	-48.7	16.3	0.00e+00	0	57	0	967835648	57	4210
2026-01-04 05:07:05.22	315.58	14.48	-47.0	-48.7	16.3	0.00e+00	0	57	0	973078528	56	4468
2026-01-04 05:07:08.19	315.13	14.27	-47.2	-49.0	15.9	0.00e+00	0	57	0	978321408	56	4647
2026-01-04 05:07:11.17	314.68	14.07	-46.8	-48.5	16.4	0.00e+00	0	57	0	984612864	56	4385
2026-01-04 05:07:14.14	314.24	13.86	-47.0	-48.8	16.2	0.00e+00	0	57	0	989855744	56	4505
2026-01-04 05:07:17.11	313.81	13.65	-47.1	-49.0	15.9	0.00e+00	0	57	0	995098624	56	4617
2026-01-04 05:07:20.09	313.38	13.44	-47.2	-49.0	15.9	0.00e+00	0	57	0	1001390080	56	4644
2026-01-04 05:07:23.06	312.96	13.23	-47.3	-49.3	15.6	0.00e+00	0	57	0	1006632960	56	4771
2026-01-04 05:07:26.03	312.54	13.02	-47.6	-49.6	15.3	0.00e+00	0	57	0	1011875840	57	4699
2026-01-04 05:07:28.98	312.14	12.82	-47.3	-49.3	15.6	0.00e+00	0	57	0	1018167296	57	4516
2026-01-04 05:07:31.95	311.73	12.61	-47.2	-49.1	15.8	0.00e+00	0	57	0	1023410176	57	4433
2026-01-04 05:07:34.92	311.34	12.40	-47.4	-49.4	15.5	0.00e+00	0	57	0	1028653056	57	4571
2026-01-04 05:07:37.89	310.94	12.19	-47.6	-49.6	15.2	0.00e+00	0	57	0	1034944512	57	4695
2026-01-04 05:07:40.85	310.56	11.99	-47.8	-50.0	14.9	0.00e+00	0	57	0	1040187392	57	4873
2026-01-04 05:07:43.80	310.18	11.79	-47.9	-50.2	14.7	0.00e+00	0	57	0	1045430272	57	4985
2026-01-04 05:07:46.76	309.81	11.58	-47.7	-49.9	15.0	0.00e+00	0	57	0	1050673152	57	4836
2026-01-04 05:07:49.73	309.44	11.38	-47.8	-50.0	14.9	7.00e-07	0	57	0	1056964608	57	4892
2026-01-04 05:07:52.69	309.07	11.17	-48.0	-50.2	14.6	0.00e+00	0	57	0	1062207488	57	5040
2026-01-04 05:07:55.66	308.71	10.97	-47.8	-50.1	14.8	0.00e+00	0	57	0	1067450368	57	4927
2026-01-04 05:07:58.63	308.36	10.77	-48.0	-50.3	14.4	7.00e-07	0	57	0	1073741824	57	5089
2026-01-04 05:08:01.60	308.01	10.56	-48.1	-50.6	14.2	7.00e-07	0	57	0	1078984704	58	4935
2026-01-04 05:08:04.57	307.66	10.36	-48.3	-50.8	14.0	1.50e-06	0	57	0	1084227584	58	5072
2026-01-04 05:08:07.54	307.32	10.16	-48.6	-51.2	13.5	1.14e-05	0	57	0	1090519040	59	5023
2026-01-04 05:08:10.50	306.99	9.96	-48.6	-51.3	13.4	1.44e-05	0	57	0	1095761920	59	5079
2026-01-04 05:08:13.47	306.66	9.76	-48.3	-50.9	13.9	2.20e-06	0	57	0	1101004800	59	4817
2026-01-04 05:08:16.44	306.33	9.56	-48.2	-50.6	14.1	0.00e+00	0	57	0	1106247680	59	4683
2026-01-04 05:08:19.39	306.01	9.36	-48.3	-50.9	13.8	3.00e-06	0	57	0	1112539136	59	4817
2026-01-04 05:08:22.37	305.70	9.16	-48.5	-51.3	13.3	1.06e-05	0	57	0	1117782016	59	5052
2026-01-04 05:08:25.34	305.38	8.97	-48.7	-51.6	13.0	2.36e-05	0	57	0	1123024896	59	5226
2026-01-04 05:08:28.30	305.08	8.77	-48.7	-51.7	12.8	3.66e-05	0	57	0	1129316352	59	5308
2026-01-04 05:08:31.26	304.77	8.58	-48.8	-51.9	12.6	6.94e-05	0	57	0	1134559232	59	5407
2026-01-04 05:08:34.22	304.47	8.38	-49.0	-52.3	12.1	2.06e-04	0	57	0	1139802112	59	5666
2026-01-04 05:08:37.19	304.18	8.19	-49.2	-52.8	11.5	6.62e-04	0	57	0	1146093568	60	5711
2026-01-04 05:08:40.17	303.89	7.99	-49.3	-53.3	10.9	2.01e-03	0	57	0	1151336448	60	6058
2026-01-04 05:08:43.14	303.60	7.80	-49.3	-53.4	10.7	3.68e-03	0	57	0	1156579328	60	6103
2026-01-04 05:08:46.11	303.31	7.61	-49.3	-53.6	10.4	4.25e-03	0	57	0	1162870784	60	6221
2026-01-04 05:08:49.07	303.03	7.42	-49.2	-53.2	10.7	3.14e-03	0	57	0	1168113664	60	5963
2026-01-04 05:08:52.04	302.76	7.23	-49.0	-53.2	10.6	3.02e-03	0	57	0	1173356544	60	5924
2026-01-04 05:08:55.00	302.49	7.04	-49.0	-53.4	10.2	6.00e-03	0	57	0	1179648000	60	6111
2026-01-04 05:08:57.98	302.22	6.85	-49.2	-53.9	9.6	1.04e-02	0	57	0	1184890880	60	6449
2026-01-04 05:09:00.94	301.95	6.66	-49.3	-54.5	8.9	2.73e-02	0	57	0	1190133760	60	6885
2026-01-04 05:09:03.91	301.69	6.48	-49.3	-54.8	8.4	4.93e-02	0	57	0	1195376640	60	7177
2026-01-04 05:09:06.87	301.43	6.29	-49.4	-55.5	7.6	8.18e-02	0	57	0	1201668096	60	7720
2026-01-04 05:09:09.84	301.18	6.10	-49.3	-55.5	7.4	1.19e-01	0	57	0	1206910976	60	7734
2026-01-04 05:09:12.81	300.93	5.92	-49.4	-56.3	6.6	2.05e-01	0	57	0	1212153856	60	8518
2026-01-04 05:09:15.77	300.68	5.74	-49.4	-56.7	6.1	3.05e-01	0	57	0	1218445312	60	8933
2026-01-04 05:09:18.74	300.43	5.55	-49.3	-56.9	5.9	4.06e-01	0	57	0	1223688192	60	9146
2026-01-04 05:09:21.71	300.19	5.37	-49.3	-57.7	5.2	5.03e-01	0	57	0	1228931072	60	10054
2026-01-04 05:09:24.67	299.95	5.19	-49.3	-58.3	4.8	7.86e-01	0	57	0	1235222528	60	10701
2026-01-04 05:09:27.64	299.72	5.01	-51.0	-64.7	3.8	1.49e+00	0	57	104	1238368256	63	18839
2026-01-04 05:09:30.59	299.49	4.83	-52.1	-65.9	3.8	1.49e+00	0	57	104	1238368256	65	19176
2026-01-04 05:09:33.56	299.26	4.65	-52.2	-66.0	3.8	1.49e+00	0	57	104	1238368256	66	18469
2026-01-04 05:09:36.52	299.03	4.47	-52.4	-66.2	3.8	1.49e+00	0	57	104	1238368256	66	18828
2026-01-04 05:09:39.50	298.81	4.29	-52.4	-66.3	3.8	1.49e+00	0	57	104	1238368256	66	19034
2026-01-04 05:09:42.47	298.59	4.11	-52.5	-66.3	3.8	1.49e+00	0	57	104	1238368256	66	19139
2026-01-04 05:09:45.43	298.37	3.94	-52.6	-66.4	3.8	1.49e+00	0	57	104	1238368256	67	18152
2026-01-04 05:09:48.38	298.15	3.76	-52.6	-66.4	3.8	1.49e+00	0	57	104	1238368256	67	18227
2026-01-04 05:09:51.34	297.94	3.59	-52.5	-66.4	3.8	1.49e+00	0	57	104	1238368256	67	18238
2026-01-04 05:09:54.32	297.73	3.42	-52.6	-66.4	3.8	1.49e+00	0	57	104	1238368256	67	18255
2026-01-04 05:09:57.27	297.53	3.24	-52.5	-66.4	3.8	1.49e+00	0	57	104	1238368256	67	18199
2026-01-04 05:10:00.24	297.32	3.07	-52.5	-66.4	3.8	1.49e+00	0	57	104	1238368256	67	18229

#Closed at: 2026-01-04 05:10:01
#Recorded file [1238 MB]: D:/Data/31026_260104_080926.dat