passes_logs/2026/01/04/R3.0SM8_Murmansk_STILSPACE/R3.0SM8_Murmansk_STILSPACE__20260104_145131_AQUA_rec.log

#Pass ID: 20260104_145131_AQUA
#Satellite: AQUA
#Configuration: AQUA
#almurnet v.1.7.20240730
#Start time: 2026-01-04 14:51:32

#Version: 2.2.20231116
#Station: R3.0SM8_Murmansk_STILSPACE
#Location: 33.092731 lon 68.902999 lat
#TLE: 1 27424U 02022A   26003.93831471  .00001925  00000+0  39553-3 0  9996
#TLE: 2 27424  98.4067 330.1809 0002002  92.1714 343.8415 14.61796291259276

#Time	Az	El	Level	Level2	SNR	BER	BlckErr	Temp	State	Recorded	gain1	gain2
2026-01-04 14:51:32.24	256.08	3.05	-54.3	-74.3	3.8	7.45e-01	0	45	0	0	70	38858
2026-01-04 14:51:34.22	256.34	3.12	-54.3	-74.3	3.8	7.50e-01	0	46	104	0	70	38811
2026-01-04 14:51:36.20	256.60	3.20	-54.3	-74.3	3.8	7.47e-01	0	46	104	0	70	38856
2026-01-04 14:51:38.19	256.87	3.28	-54.3	-74.3	3.8	7.46e-01	0	46	104	0	70	38702
2026-01-04 14:51:40.16	257.13	3.36	-54.3	-74.3	3.8	7.46e-01	0	46	104	0	70	38748
2026-01-04 14:51:42.14	257.40	3.43	-54.2	-74.2	3.8	7.46e-01	0	46	104	0	70	38398
2026-01-04 14:51:44.12	257.66	3.51	-54.2	-74.2	3.8	7.45e-01	0	46	104	0	70	38342
2026-01-04 14:51:46.09	257.93	3.58	-54.2	-74.2	3.8	7.46e-01	0	46	104	0	70	38301
2026-01-04 14:51:48.07	258.20	3.66	-54.1	-74.1	3.8	7.43e-01	0	47	104	0	70	38035
2026-01-04 14:51:50.05	258.48	3.74	-54.1	-74.0	3.8	7.43e-01	0	47	104	0	70	37640
2026-01-04 14:51:52.04	258.75	3.81	-54.0	-73.9	3.8	7.45e-01	0	47	104	0	70	37268
2026-01-04 14:51:54.02	259.03	3.89	-53.8	-73.7	3.8	7.45e-01	0	47	104	0	70	36269
2026-01-04 14:51:56.00	259.30	3.96	-53.5	-73.3	3.8	7.47e-01	0	47	104	0	70	34584
2026-01-04 14:51:57.98	259.58	4.04	-53.0	-72.8	3.8	7.45e-01	0	47	104	0	69	34552
2026-01-04 14:51:59.95	259.86	4.11	-53.0	-72.6	3.8	7.48e-01	0	47	104	0	69	34003
2026-01-04 14:52:01.94	260.14	4.19	-53.0	-72.4	3.8	7.47e-01	0	48	104	0	69	33000
2026-01-04 14:52:03.92	260.42	4.26	-53.0	-72.2	3.8	7.44e-01	0	48	104	0	69	32332
2026-01-04 14:52:05.89	260.71	4.33	-53.0	-72.2	3.8	7.47e-01	0	48	104	0	69	32421
2026-01-04 14:52:07.87	260.99	4.41	-53.0	-72.0	3.8	7.45e-01	0	48	104	0	69	31749
2026-01-04 14:52:09.85	261.28	4.48	-53.0	-71.9	3.8	7.45e-01	0	48	104	0	69	31410
2026-01-04 14:52:11.83	261.57	4.55	-53.0	-72.2	3.8	7.48e-01	0	48	104	0	69	32222
2026-01-04 14:52:13.81	261.86	4.62	-53.0	-72.6	3.8	7.48e-01	0	48	104	0	69	33844
2026-01-04 14:52:15.80	262.15	4.70	-53.0	-72.9	3.8	7.45e-01	0	49	104	0	69	34982
2026-01-04 14:52:17.77	262.44	4.77	-53.0	-71.5	3.8	7.44e-01	0	49	104	0	69	29970
2026-01-04 14:52:19.75	262.74	4.84	-52.8	-65.3	6.3	6.76e-01	91	49	0	0	69	14700
2026-01-04 14:52:21.73	263.03	4.91	-52.2	-60.1	11.5	6.14e-01	0	49	0	3670016	68	8527
2026-01-04 14:52:23.69	263.33	4.98	-51.1	-56.1	15.6	6.08e-01	0	49	0	7340032	65	6380
2026-01-04 14:52:25.68	263.63	5.05	-50.3	-54.2	17.5	6.06e-01	0	49	0	11010048	64	5444
2026-01-04 14:52:27.65	263.93	5.12	-50.4	-54.3	17.4	6.07e-01	0	49	0	14680064	64	5515
2026-01-04 14:52:29.62	264.23	5.19	-50.0	-53.5	18.3	6.06e-01	0	49	0	18350080	63	5299
2026-01-04 14:52:31.60	264.53	5.25	-49.8	-53.1	18.8	6.04e-01	0	49	0	22544384	63	5050
2026-01-04 14:52:33.59	264.84	5.32	-49.8	-53.2	18.7	6.07e-01	0	49	0	26214400	63	5122
2026-01-04 14:52:35.57	265.14	5.39	-49.8	-53.1	18.8	6.05e-01	0	50	0	29884416	63	5060
2026-01-04 14:52:37.55	265.45	5.46	-49.8	-53.1	18.8	6.07e-01	0	50	0	33554432	63	5068
2026-01-04 14:52:39.53	265.76	5.52	-49.8	-53.1	18.8	6.09e-01	0	50	0	37224448	63	5089
2026-01-04 14:52:41.51	266.07	5.59	-49.9	-53.3	18.5	6.08e-01	0	50	0	40894464	63	5213
2026-01-04 14:52:43.50	266.38	5.66	-49.9	-53.3	18.5	6.05e-01	0	50	0	44564480	63	5206
2026-01-04 14:52:45.47	266.70	5.72	-49.9	-53.5	18.2	6.07e-01	0	50	0	48234496	63	5298
2026-01-04 14:52:47.45	267.01	5.79	-50.2	-54.2	17.4	6.05e-01	0	50	0	51904512	63	5762
2026-01-04 14:52:49.43	267.33	5.85	-50.3	-54.6	16.8	6.03e-01	0	50	0	55574528	63	6028
2026-01-04 14:52:51.40	267.65	5.91	-50.4	-55.1	16.1	6.07e-01	0	50	0	59244544	63	6352
2026-01-04 14:52:53.40	267.97	5.98	-50.4	-55.4	15.6	6.08e-01	0	51	0	63438848	63	6614
2026-01-04 14:52:55.37	268.29	6.04	-50.4	-55.9	15.0	6.09e-01	0	51	0	67108864	63	6987
2026-01-04 14:52:57.36	268.61	6.10	-50.6	-56.7	14.0	6.06e-01	0	51	0	70778880	63	7636
2026-01-04 14:52:59.34	268.94	6.17	-50.6	-57.2	13.3	6.09e-01	0	51	0	74448896	63	8174
2026-01-04 14:53:01.32	269.26	6.23	-50.5	-57.5	12.8	6.10e-01	0	51	0	78118912	63	8426
2026-01-04 14:53:03.31	269.59	6.29	-50.5	-58.2	11.9	6.15e-01	0	51	0	81788928	63	9099
2026-01-04 14:53:05.28	269.92	6.35	-50.5	-58.9	10.9	6.17e-01	0	51	0	85458944	63	9894
2026-01-04 14:53:07.27	270.25	6.41	-50.3	-58.1	11.6	6.16e-01	0	51	0	89128960	63	9063
2026-01-04 14:53:09.24	270.58	6.46	-50.2	-57.9	11.7	6.13e-01	0	51	0	92798976	63	8854
2026-01-04 14:53:11.22	270.91	6.52	-50.2	-58.6	10.8	6.20e-01	0	51	0	96468992	63	9598
2026-01-04 14:53:13.21	271.25	6.58	-50.2	-59.1	10.2	6.22e-01	0	51	0	100139008	63	10138
2026-01-04 14:53:15.19	271.58	6.64	-50.2	-59.7	9.5	6.30e-01	0	51	0	103809024	63	10898
2026-01-04 14:53:17.16	271.92	6.69	-50.3	-60.3	8.8	6.36e-01	1	52	0	107479040	63	11634
2026-01-04 14:53:19.13	272.25	6.75	-50.2	-60.2	8.9	6.34e-01	0	51	0	111149056	63	11505
2026-01-04 14:53:21.11	272.59	6.80	-50.3	-60.1	9.1	6.31e-01	0	52	0	115343360	63	11403
2026-01-04 14:53:23.09	272.93	6.86	-50.4	-60.2	9.1	6.33e-01	0	52	0	119013376	63	11548
2026-01-04 14:53:25.06	273.28	6.91	-50.2	-59.0	10.4	6.22e-01	0	52	0	122683392	63	9982
2026-01-04 14:53:27.04	273.62	6.96	-50.0	-57.8	11.4	6.16e-01	0	52	0	126353408	63	8760
2026-01-04 14:53:29.01	273.96	7.02	-49.9	-57.1	12.5	6.09e-01	0	52	0	130023424	63	8014
2026-01-04 14:53:30.97	274.30	7.07	-49.9	-56.8	12.7	6.10e-01	0	52	0	133693440	63	7793
2026-01-04 14:53:32.96	274.65	7.12	-50.0	-57.2	12.3	6.12e-01	0	52	0	137363456	63	8114
2026-01-04 14:53:34.94	275.00	7.17	-49.9	-56.5	13.2	6.12e-01	0	52	0	141033472	63	7503
2026-01-04 14:53:36.91	275.35	7.22	-49.8	-56.1	13.6	6.07e-01	0	52	0	144703488	63	7152
2026-01-04 14:53:38.89	275.70	7.27	-49.8	-56.0	13.6	6.09e-01	0	52	0	148373504	63	7120
2026-01-04 14:53:40.86	276.05	7.31	-49.9	-56.1	13.8	6.08e-01	0	52	0	152043520	63	7134
2026-01-04 14:53:42.83	276.40	7.36	-49.7	-55.5	14.3	6.07e-01	0	52	0	155713536	62	7051
2026-01-04 14:53:44.81	276.76	7.41	-49.8	-55.4	14.6	6.06e-01	0	52	0	159383552	62	7022
2026-01-04 14:53:46.80	277.11	7.45	-49.7	-55.1	14.9	6.07e-01	0	53	0	163577856	62	6770
2026-01-04 14:53:48.77	277.47	7.50	-49.8	-55.1	15.0	6.08e-01	0	53	0	166723584	62	6793
2026-01-04 14:53:50.76	277.83	7.54	-49.9	-55.2	15.0	6.06e-01	0	53	0	170917888	62	6879
2026-01-04 14:53:52.74	278.19	7.58	-49.6	-54.5	15.8	6.07e-01	0	52	0	174587904	62	6317
2026-01-04 14:53:54.72	278.55	7.62	-49.5	-54.1	16.3	6.06e-01	0	53	0	178257920	62	6023
2026-01-04 14:53:56.69	278.91	7.67	-49.5	-53.9	16.5	6.06e-01	0	53	0	181927936	62	5901
2026-01-04 14:53:58.69	279.27	7.71	-49.6	-54.0	16.6	6.06e-01	0	53	0	185597952	62	5944
2026-01-04 14:54:00.66	279.64	7.75	-49.6	-53.8	16.9	6.07e-01	0	53	0	189267968	62	5842
2026-01-04 14:54:02.63	280.00	7.78	-49.6	-53.7	17.2	6.07e-01	0	53	0	192937984	62	5752
2026-01-04 14:54:04.61	280.36	7.82	-49.6	-53.6	17.3	6.05e-01	0	53	0	196608000	62	5698
2026-01-04 14:54:06.60	280.73	7.86	-49.6	-53.6	17.3	6.06e-01	0	53	0	200278016	62	5676
2026-01-04 14:54:08.59	281.10	7.90	-49.7	-53.8	17.1	6.09e-01	0	53	0	203948032	62	5838
2026-01-04 14:54:10.56	281.47	7.93	-49.7	-53.5	17.6	6.08e-01	0	53	0	207618048	62	5646
2026-01-04 14:54:12.52	281.83	7.96	-49.8	-53.5	17.7	6.06e-01	0	53	0	211288064	62	5656
2026-01-04 14:54:14.51	282.21	8.00	-49.5	-52.8	18.7	6.01e-01	0	53	0	215482368	62	5204
2026-01-04 14:54:16.49	282.58	8.03	-49.5	-52.6	19.2	6.01e-01	0	53	0	219152384	62	5048
2026-01-04 14:54:18.47	282.95	8.06	-49.5	-52.5	19.4	6.02e-01	0	53	0	222822400	62	5022
2026-01-04 14:54:20.46	283.32	8.09	-49.6	-52.6	19.3	6.02e-01	0	53	0	226492416	62	5079
2026-01-04 14:54:22.43	283.69	8.12	-49.4	-52.4	19.5	6.04e-01	0	53	0	230162432	62	4965
2026-01-04 14:54:24.40	284.07	8.15	-49.7	-52.8	19.0	6.06e-01	0	53	0	233832448	62	5213
2026-01-04 14:54:26.38	284.44	8.18	-49.9	-53.4	18.3	6.02e-01	0	53	0	237502464	62	5564
2026-01-04 14:54:28.36	284.82	8.20	-50.1	-53.9	17.7	6.00e-01	0	53	0	241172480	62	5909
2026-01-04 14:54:30.34	285.19	8.23	-50.2	-54.2	17.2	6.00e-01	0	53	0	244842496	62	6122
2026-01-04 14:54:32.32	285.57	8.26	-50.3	-54.9	16.5	6.02e-01	0	53	0	248512512	62	6583
2026-01-04 14:54:34.30	285.95	8.28	-50.4	-55.3	15.8	6.02e-01	0	53	0	252182528	63	6564
2026-01-04 14:54:36.28	286.33	8.30	-50.4	-55.5	15.5	6.01e-01	0	54	0	255852544	63	6710
2026-01-04 14:54:38.26	286.71	8.32	-50.5	-55.8	15.2	6.03e-01	0	54	0	260046848	63	6954
2026-01-04 14:54:40.23	287.08	8.34	-50.6	-56.0	15.0	6.04e-01	0	54	0	263192576	63	7066
2026-01-04 14:54:42.22	287.46	8.36	-50.5	-55.9	15.1	6.02e-01	0	54	0	267386880	63	7010
2026-01-04 14:54:44.20	287.85	8.38	-50.5	-56.0	14.9	6.02e-01	0	54	0	271056896	63	7078
2026-01-04 14:54:46.18	288.23	8.40	-50.5	-55.9	15.0	5.99e-01	0	54	0	274726912	63	6973
2026-01-04 14:54:48.16	288.61	8.42	-50.5	-56.0	14.9	6.02e-01	0	54	0	278396928	63	7076
2026-01-04 14:54:50.15	288.99	8.43	-50.7	-56.3	14.6	6.02e-01	0	54	0	282066944	63	7330
2026-01-04 14:54:52.12	289.37	8.45	-50.6	-56.1	14.9	6.02e-01	0	54	0	285736960	63	7137
2026-01-04 14:54:54.10	289.75	8.46	-50.7	-56.0	15.1	6.03e-01	0	54	0	289406976	63	7076
2026-01-04 14:54:56.07	290.14	8.47	-50.9	-56.3	15.0	6.03e-01	0	54	0	293076992	63	7297
2026-01-04 14:54:58.05	290.52	8.49	-50.8	-56.0	15.3	6.04e-01	0	54	0	296747008	63	7087
2026-01-04 14:55:00.03	290.90	8.50	-50.9	-56.2	15.1	6.04e-01	0	54	0	300417024	64	6861
2026-01-04 14:55:02.01	291.29	8.51	-50.9	-56.3	15.1	6.02e-01	0	54	0	304087040	64	6919
2026-01-04 14:55:04.00	291.67	8.51	-50.8	-56.0	15.3	6.04e-01	0	54	0	308281344	64	6715
2026-01-04 14:55:05.99	292.06	8.52	-50.6	-55.5	15.8	6.01e-01	0	54	0	311951360	64	6306
2026-01-04 14:55:07.98	292.45	8.53	-50.4	-55.0	16.2	6.01e-01	0	54	0	315621376	64	5974
2026-01-04 14:55:09.96	292.83	8.53	-50.3	-55.0	16.2	6.00e-01	0	54	0	319291392	64	5932
2026-01-04 14:55:11.94	293.21	8.54	-50.2	-54.5	16.7	6.00e-01	0	54	0	322961408	64	5653
2026-01-04 14:55:13.93	293.60	8.54	-50.2	-54.3	17.1	6.03e-01	0	54	0	326631424	63	5852
2026-01-04 14:55:15.91	293.99	8.54	-50.1	-54.1	17.3	6.01e-01	0	54	0	330301440	63	5692
2026-01-04 14:55:17.90	294.37	8.54	-50.1	-54.1	17.3	6.03e-01	0	54	0	333971456	63	5704
2026-01-04 14:55:19.88	294.76	8.54	-49.9	-53.9	17.3	6.02e-01	0	54	0	337641472	63	5587
2026-01-04 14:55:21.87	295.15	8.54	-50.1	-54.3	17.0	6.02e-01	0	54	0	341311488	63	5802
2026-01-04 14:55:23.85	295.53	8.54	-50.1	-54.5	16.6	5.99e-01	0	54	0	345505792	63	5972
2026-01-04 14:55:25.83	295.92	8.54	-50.3	-55.0	16.0	6.05e-01	0	54	0	349175808	63	6332
2026-01-04 14:55:27.80	296.30	8.53	-50.4	-55.6	15.3	6.01e-01	0	54	0	352845824	63	6746
2026-01-04 14:55:29.77	296.68	8.53	-50.4	-56.0	14.6	6.03e-01	0	54	0	356515840	63	7095
2026-01-04 14:55:31.74	297.06	8.52	-50.5	-56.6	13.9	6.00e-01	0	54	0	360185856	63	7572
2026-01-04 14:55:33.72	297.45	8.51	-50.5	-57.0	13.4	6.04e-01	0	55	0	363855872	63	7977
2026-01-04 14:55:35.70	297.83	8.51	-50.7	-57.9	12.5	6.05e-01	0	55	0	367525888	63	8830
2026-01-04 14:55:37.69	298.22	8.50	-50.7	-57.9	12.4	6.07e-01	0	54	0	371195904	63	8850
2026-01-04 14:55:39.67	298.60	8.49	-50.7	-57.9	12.4	6.04e-01	0	55	0	374865920	63	8843
2026-01-04 14:55:41.65	298.98	8.47	-50.9	-58.2	12.3	6.06e-01	0	55	0	378535936	63	9105
2026-01-04 14:55:43.64	299.37	8.46	-50.5	-56.8	13.6	6.03e-01	0	55	0	382205952	64	7368
2026-01-04 14:55:45.62	299.75	8.45	-50.2	-55.6	15.0	6.02e-01	0	55	0	385875968	63	6783
2026-01-04 14:55:47.60	300.13	8.43	-50.1	-55.2	15.5	6.02e-01	0	55	0	390070272	63	6469
2026-01-04 14:55:49.58	300.51	8.42	-50.1	-54.7	16.1	6.02e-01	0	55	0	393740288	63	6111
2026-01-04 14:55:51.55	300.89	8.40	-50.3	-54.9	16.2	6.00e-01	0	55	0	397410304	63	6246
2026-01-04 14:55:53.53	301.27	8.38	-50.0	-54.2	17.1	6.02e-01	0	55	0	401080320	63	5741
2026-01-04 14:55:55.51	301.65	8.36	-49.7	-53.3	18.1	6.04e-01	0	55	0	404750336	63	5201
2026-01-04 14:55:57.48	302.03	8.34	-49.6	-53.0	18.5	6.03e-01	0	55	0	408420352	62	5310
2026-01-04 14:55:59.46	302.41	8.32	-49.5	-52.8	18.9	6.03e-01	0	55	0	412090368	62	5167
2026-01-04 14:56:01.43	302.79	8.30	-49.5	-52.5	19.3	6.01e-01	0	55	0	415760384	62	5002
2026-01-04 14:56:03.40	303.16	8.28	-49.5	-52.5	19.4	6.02e-01	0	55	0	419430400	62	5028
2026-01-04 14:56:05.38	303.54	8.26	-49.6	-52.6	19.3	6.01e-01	0	55	0	423100416	62	5091
2026-01-04 14:56:07.35	303.91	8.23	-49.5	-52.4	19.6	6.02e-01	0	55	0	426770432	62	4938
2026-01-04 14:56:09.32	304.29	8.21	-49.6	-52.5	19.5	6.02e-01	0	55	0	430440448	62	5022
2026-01-04 14:56:11.30	304.66	8.18	-49.5	-52.3	19.8	6.01e-01	0	55	0	434110464	62	4916
2026-01-04 14:56:13.28	305.04	8.15	-49.4	-52.2	19.9	6.01e-01	0	55	0	437780480	62	4821
2026-01-04 14:56:15.25	305.41	8.12	-49.3	-52.0	20.1	6.03e-01	0	55	0	441450496	62	4720
2026-01-04 14:56:17.22	305.78	8.09	-49.4	-52.2	20.0	6.02e-01	0	55	0	445120512	62	4830
2026-01-04 14:56:19.20	306.15	8.06	-49.4	-52.1	20.1	6.04e-01	0	56	0	449314816	62	4799
2026-01-04 14:56:21.17	306.52	8.03	-49.3	-52.0	20.2	6.04e-01	0	55	0	452984832	62	4717
2026-01-04 14:56:23.15	306.89	8.00	-49.3	-52.0	20.2	6.04e-01	0	55	0	456654848	62	4735
2026-01-04 14:56:25.12	307.26	7.97	-49.6	-52.4	19.8	6.02e-01	0	55	0	460324864	62	4974
2026-01-04 14:56:27.10	307.63	7.93	-49.3	-51.9	20.3	6.04e-01	0	55	0	463994880	62	4700
2026-01-04 14:56:29.07	307.99	7.90	-49.3	-52.0	20.2	6.06e-01	0	55	0	467664896	62	4752
2026-01-04 14:56:31.04	308.36	7.86	-49.5	-52.2	20.1	6.02e-01	0	55	0	471334912	62	4841
2026-01-04 14:56:33.03	308.73	7.83	-49.5	-52.2	20.1	6.01e-01	0	56	0	475004928	62	4844
2026-01-04 14:56:35.01	309.09	7.79	-49.2	-51.9	20.4	6.01e-01	0	55	0	478674944	62	4656
2026-01-04 14:56:36.98	309.45	7.75	-49.4	-52.1	20.2	6.00e-01	0	55	0	482344960	62	4776
2026-01-04 14:56:38.96	309.81	7.71	-49.5	-52.2	20.0	6.00e-01	0	56	0	486014976	62	4869
2026-01-04 14:56:40.94	310.18	7.67	-49.5	-52.3	20.0	6.01e-01	0	55	0	489684992	62	4880
2026-01-04 14:56:42.92	310.54	7.63	-49.3	-52.0	20.3	6.01e-01	0	55	0	493355008	62	4722
2026-01-04 14:56:44.90	310.90	7.59	-49.5	-52.2	20.0	6.03e-01	0	56	0	497025024	62	4861
2026-01-04 14:56:46.88	311.25	7.55	-49.4	-52.1	20.1	6.02e-01	0	55	0	500695040	62	4799
2026-01-04 14:56:48.86	311.61	7.50	-49.5	-52.3	20.0	6.01e-01	0	56	0	504889344	62	4884
2026-01-04 14:56:50.85	311.97	7.46	-49.4	-52.0	20.2	6.04e-01	0	55	0	508559360	62	4752
2026-01-04 14:56:52.83	312.32	7.41	-49.4	-52.2	20.1	6.04e-01	0	56	0	512229376	62	4822
2026-01-04 14:56:54.80	312.68	7.37	-49.5	-52.3	19.9	6.02e-01	0	56	0	515899392	62	4905
2026-01-04 14:56:56.77	313.03	7.32	-49.5	-52.3	19.9	6.04e-01	0	56	0	519569408	62	4896
2026-01-04 14:56:58.75	313.38	7.27	-49.4	-52.1	20.2	6.01e-01	0	56	0	523239424	62	4777
2026-01-04 14:57:00.73	313.73	7.22	-49.4	-52.1	20.1	6.02e-01	0	55	0	526909440	62	4811
2026-01-04 14:57:02.70	314.07	7.18	-49.5	-52.2	20.0	6.02e-01	0	56	0	530579456	62	4859
2026-01-04 14:57:04.68	314.42	7.13	-49.6	-52.4	19.8	6.03e-01	0	55	0	534249472	62	4953
2026-01-04 14:57:06.66	314.77	7.08	-49.5	-52.3	19.9	6.02e-01	0	56	0	537919488	62	4921
2026-01-04 14:57:08.64	315.11	7.02	-49.6	-52.4	19.8	6.03e-01	0	56	0	541589504	62	4977
2026-01-04 14:57:10.62	315.46	6.97	-49.6	-52.5	19.6	5.99e-01	0	56	0	545259520	62	5019
2026-01-04 14:57:12.59	315.80	6.92	-49.6	-52.5	19.6	6.03e-01	0	55	0	548929536	62	5021
2026-01-04 14:57:14.57	316.14	6.87	-49.7	-52.6	19.5	6.02e-01	0	56	0	552599552	62	5093
2026-01-04 14:57:16.54	316.48	6.81	-49.7	-52.7	19.5	6.03e-01	0	56	0	556269568	62	5130
2026-01-04 14:57:18.52	316.81	6.76	-49.8	-52.9	19.3	6.03e-01	0	56	0	560463872	62	5253
2026-01-04 14:57:20.51	317.15	6.70	-49.6	-52.6	19.5	6.02e-01	0	56	0	564133888	62	5063
2026-01-04 14:57:22.48	317.49	6.65	-49.4	-52.3	19.8	6.02e-01	0	56	0	567803904	62	4896
2026-01-04 14:57:24.45	317.82	6.59	-49.3	-52.5	19.4	6.05e-01	0	56	0	571473920	62	4991
2026-01-04 14:57:26.43	318.15	6.53	-49.5	-52.6	19.3	6.02e-01	0	56	0	575143936	62	5095
2026-01-04 14:57:28.40	318.48	6.48	-48.5	-52.6	18.3	6.00e-01	0	56	0	578813952	60	5672
2026-01-04 14:57:30.37	318.81	6.42	-45.5	-53.0	14.7	6.04e-01	0	56	0	582483968	54	8432
2026-01-04 14:57:32.36	319.14	6.36	-44.5	-53.2	13.2	6.04e-01	0	56	0	586153984	52	9703
2026-01-04 14:57:34.33	319.47	6.30	-47.3	-53.4	15.9	6.04e-01	0	56	0	589824000	56	7898
2026-01-04 14:57:36.31	319.79	6.24	-49.7	-53.1	18.8	6.02e-01	0	56	0	593494016	61	5686
2026-01-04 14:57:38.30	320.12	6.18	-49.9	-53.2	18.9	6.03e-01	0	56	0	597164032	62	5432
2026-01-04 14:57:40.28	320.44	6.12	-49.9	-53.1	19.1	6.03e-01	0	56	0	600834048	62	5363
2026-01-04 14:57:42.26	320.76	6.06	-49.8	-53.0	19.1	6.00e-01	0	56	0	605028352	62	5281
2026-01-04 14:57:44.24	321.09	5.99	-49.8	-52.9	19.2	6.03e-01	0	56	0	608698368	62	5227
2026-01-04 14:57:46.22	321.40	5.93	-49.9	-53.1	19.0	6.04e-01	0	56	0	612368384	62	5349
2026-01-04 14:57:48.19	321.72	5.87	-49.6	-52.6	19.4	6.04e-01	0	56	0	616038400	62	5096
2026-01-04 14:57:50.16	322.03	5.80	-49.7	-52.8	19.3	6.02e-01	0	56	0	619708416	62	5185
2026-01-04 14:57:52.14	322.35	5.74	-50.0	-53.3	18.8	6.01e-01	0	56	0	623378432	62	5471
2026-01-04 14:57:54.12	322.66	5.68	-50.0	-53.3	18.7	5.99e-01	0	56	0	627048448	62	5497
2026-01-04 14:57:56.09	322.97	5.61	-50.0	-53.3	18.8	6.01e-01	0	56	0	630718464	62	5485
2026-01-04 14:57:58.07	323.28	5.54	-50.2	-53.6	18.5	6.05e-01	0	56	0	634388480	62	5703
2026-01-04 14:58:00.05	323.59	5.48	-49.9	-53.2	18.9	6.03e-01	0	56	0	638058496	62	5412
2026-01-04 14:58:02.03	323.90	5.41	-50.0	-53.4	18.6	5.99e-01	0	56	0	641728512	62	5570
2026-01-04 14:58:04.00	324.20	5.34	-50.2	-53.8	18.2	6.02e-01	0	56	0	645398528	62	5827
2026-01-04 14:58:05.98	324.50	5.28	-50.1	-53.5	18.5	6.02e-01	0	56	0	649068544	62	5621
2026-01-04 14:58:07.96	324.81	5.21	-50.0	-53.4	18.5	6.00e-01	0	56	0	652738560	62	5590
2026-01-04 14:58:09.94	325.11	5.14	-50.1	-53.5	18.5	6.03e-01	0	56	0	656408576	62	5645
2026-01-04 14:58:11.92	325.41	5.07	-49.7	-52.8	19.1	6.01e-01	0	56	0	660602880	62	5202
2026-01-04 14:58:13.90	325.71	5.00	-53.2	-72.4	3.8	7.42e-01	0	56	104	662700032	68	34997
2026-01-04 14:58:15.89	326.00	4.93	-49.4	-69.1	3.8	7.44e-01	0	56	104	662700032	62	33958
2026-01-04 14:58:17.87	326.30	4.86	-52.8	-72.6	3.8	7.44e-01	0	56	104	662700032	67	38204
2026-01-04 14:58:19.84	326.59	4.79	-53.9	-73.9	3.8	7.47e-01	0	56	104	662700032	70	37062
2026-01-04 14:58:21.81	326.88	4.72	-54.1	-74.1	3.8	7.46e-01	0	56	104	662700032	70	37862
2026-01-04 14:58:23.80	327.17	4.65	-54.2	-74.2	3.8	7.47e-01	0	56	104	662700032	70	38284
2026-01-04 14:58:25.78	327.46	4.58	-54.3	-74.2	3.8	7.46e-01	0	56	104	662700032	70	38484
2026-01-04 14:58:27.76	327.75	4.51	-54.3	-74.3	3.8	7.47e-01	0	56	104	662700032	70	38762
2026-01-04 14:58:29.73	328.03	4.44	-54.4	-74.3	3.8	7.46e-01	0	56	104	662700032	70	38932
2026-01-04 14:58:31.72	328.32	4.36	-54.4	-74.3	3.8	7.46e-01	0	56	104	662700032	70	38917
2026-01-04 14:58:33.69	328.60	4.29	-54.4	-74.3	3.8	7.48e-01	0	56	104	662700032	71	36939
2026-01-04 14:58:35.67	328.88	4.22	-54.4	-74.4	3.8	7.42e-01	0	56	104	662700032	71	37020
2026-01-04 14:58:37.65	329.16	4.14	-54.4	-74.4	3.8	7.45e-01	0	56	104	662700032	71	37067
2026-01-04 14:58:39.63	329.44	4.07	-54.4	-74.4	3.8	7.44e-01	0	56	104	662700032	71	37132
2026-01-04 14:58:41.61	329.72	4.00	-54.4	-74.4	3.8	7.45e-01	0	57	104	662700032	71	37068
2026-01-04 14:58:43.58	329.99	3.92	-54.4	-74.4	3.8	7.45e-01	0	56	104	662700032	71	36995
2026-01-04 14:58:45.55	330.27	3.85	-54.4	-74.3	3.8	7.45e-01	0	56	104	662700032	71	36907
2026-01-04 14:58:47.53	330.54	3.77	-54.4	-74.4	3.8	7.48e-01	0	56	104	662700032	71	36951
2026-01-04 14:58:49.51	330.81	3.70	-54.4	-74.4	3.8	7.40e-01	0	57	104	662700032	71	36989
2026-01-04 14:58:51.48	331.08	3.62	-54.4	-74.3	3.8	7.46e-01	0	56	104	662700032	71	36930
2026-01-04 14:58:53.44	331.35	3.55	-54.4	-74.3	3.8	7.46e-01	0	56	104	662700032	71	36937
2026-01-04 14:58:55.40	331.61	3.47	-54.4	-74.3	3.8	7.49e-01	0	57	104	662700032	71	36901
2026-01-04 14:58:57.38	331.88	3.40	-54.4	-74.4	3.8	7.43e-01	0	57	104	662700032	71	36952
2026-01-04 14:58:59.34	332.14	3.32	-54.4	-74.4	3.8	7.46e-01	0	56	104	662700032	71	36975
2026-01-04 14:59:01.32	332.40	3.24	-54.4	-74.4	3.8	7.43e-01	0	56	104	662700032	71	36962
2026-01-04 14:59:03.31	332.66	3.17	-54.4	-74.4	3.8	7.45e-01	0	56	104	662700032	71	36964
2026-01-04 14:59:05.28	332.92	3.09	-54.4	-74.4	3.8	7.45e-01	0	57	104	662700032	71	36958
2026-01-04 14:59:07.27	333.18	3.01	-54.4	-74.3	3.8	7.43e-01	0	57	104	662700032	71	36888
2026-01-04 14:59:09.24	333.44	2.94	-54.4	-74.3	3.8	7.44e-01	0	57	104	662700032	71	36897

#Closed at: 2026-01-04 14:59:09
#Recorded file [662 MB]: D:/Data/31026_260104_175813.dat