passes_logs/2026/01/04/R3.0SM8_Murmansk_STILSPACE/R3.0SM8_Murmansk_STILSPACE__20260104_224851_NOAA_21_JPSS-2_rec.log

#Pass ID: 20260104_224851_NOAA 21 (JPSS-2)
#Satellite: NOAA 21 (JPSS-2)
#Configuration: NOAA-21
#almurnet v.1.7.20240730
#Start time: 2026-01-04 22:48:51

#Version: 2.2.20231116
#Station: R3.0SM8_Murmansk_STILSPACE
#Location: 33.092731 lon 68.902999 lat
#TLE: 1 54234U 22150A   26004.22845673  .00000174  00000+0  10347-3 0  9996
#TLE: 2 54234  98.7489 305.2591 0001115 345.0884  15.0259 14.19531906163281

#Time	Az	El	Level	Level2	SNR	BER	BlckErr	Temp	State	Recorded	gain1	gain2
2026-01-04 22:48:51.06	20.39	2.99	-52.6	-64.0	3.8	1.49e+00	0	45	0	0	67	13831
2026-01-04 22:48:55.02	20.63	3.23	-52.3	-63.8	3.8	1.49e+00	0	45	104	0	67	13416
2026-01-04 22:48:58.98	20.87	3.47	-51.5	-62.9	3.8	1.49e+00	0	46	104	0	66	12823
2026-01-04 22:49:02.94	21.11	3.71	-51.3	-62.4	3.8	1.49e+00	0	46	104	0	65	12956
2026-01-04 22:49:06.90	21.36	3.95	-51.3	-62.4	3.8	1.49e+00	0	46	104	0	65	12881
2026-01-04 22:49:10.85	21.62	4.20	-51.3	-62.7	3.8	1.49e+00	0	46	104	0	65	13322
2026-01-04 22:49:14.80	21.87	4.44	-51.3	-62.8	3.8	1.49e+00	0	47	104	0	65	13468
2026-01-04 22:49:18.76	22.13	4.69	-51.2	-61.1	3.8	1.49e+00	0	47	104	0	65	11141
2026-01-04 22:49:22.72	22.40	4.94	-50.5	-56.9	5.2	8.30e-01	0	47	104	0	64	7236
2026-01-04 22:49:26.67	22.67	5.19	-50.1	-54.9	6.9	1.94e-01	0	48	0	11534336	63	6089
2026-01-04 22:49:30.62	22.94	5.45	-48.2	-50.8	11.0	1.96e-03	0	48	0	24117248	59	4794
2026-01-04 22:49:34.58	23.22	5.70	-47.2	-49.2	12.7	6.40e-05	0	48	0	36700160	57	4472
2026-01-04 22:49:38.55	23.50	5.96	-46.7	-48.5	13.5	1.60e-05	0	48	0	49283072	56	4351
2026-01-04 22:49:42.49	23.79	6.22	-46.7	-48.3	13.7	6.10e-06	0	49	0	60817408	56	4287
2026-01-04 22:49:46.45	24.08	6.48	-46.5	-48.1	14.0	4.50e-06	0	49	0	73400320	56	4159
2026-01-04 22:49:50.42	24.38	6.75	-46.1	-47.6	14.4	0.00e+00	0	49	0	85983232	55	4184
2026-01-04 22:49:54.38	24.68	7.01	-46.1	-47.6	14.5	3.80e-06	0	49	0	98566144	55	4176
2026-01-04 22:49:58.33	24.99	7.28	-46.2	-47.7	14.4	1.50e-06	0	49	0	111149056	55	4216
2026-01-04 22:50:02.28	25.30	7.55	-46.1	-47.5	14.7	0.00e+00	0	49	0	122683392	55	4129
2026-01-04 22:50:06.24	25.62	7.82	-46.4	-47.9	14.3	7.00e-07	0	50	0	135266304	55	4318
2026-01-04 22:50:10.19	25.94	8.09	-46.9	-48.6	13.6	6.10e-06	0	50	0	147849216	55	4693
2026-01-04 22:50:14.13	26.27	8.37	-46.8	-48.5	13.7	6.80e-06	0	50	0	160432128	55	4643
2026-01-04 22:50:18.09	26.61	8.65	-46.3	-47.8	14.4	7.00e-07	0	50	0	171966464	55	4290
2026-01-04 22:50:22.06	26.95	8.93	-46.5	-48.0	14.3	7.00e-07	0	50	0	184549376	55	4382
2026-01-04 22:50:26.01	27.30	9.22	-46.1	-47.5	14.8	0.00e+00	0	51	0	197132288	55	4123
2026-01-04 22:50:29.95	27.65	9.50	-46.0	-47.5	14.9	0.00e+00	0	51	0	209715200	54	4341
2026-01-04 22:50:33.90	28.01	9.79	-45.9	-47.2	15.1	0.00e+00	0	51	0	222298112	54	4230
2026-01-04 22:50:37.87	28.38	10.08	-45.8	-47.1	15.3	0.00e+00	0	51	0	233832448	54	4163
2026-01-04 22:50:41.83	28.76	10.37	-45.4	-46.6	15.8	0.00e+00	0	51	0	246415360	53	4175
2026-01-04 22:50:45.79	29.14	10.67	-45.5	-46.8	15.6	0.00e+00	0	51	0	258998272	53	4251
2026-01-04 22:50:49.75	29.53	10.97	-45.0	-46.1	16.2	0.00e+00	0	51	0	271581184	53	3955
2026-01-04 22:50:53.71	29.93	11.27	-45.2	-46.4	16.0	0.00e+00	0	52	0	284164096	53	4073
2026-01-04 22:50:57.67	30.34	11.57	-45.2	-46.4	16.0	0.00e+00	0	52	0	295698432	53	4089
2026-01-04 22:51:01.64	30.75	11.88	-44.9	-46.0	16.4	0.00e+00	0	52	0	308281344	53	3901
2026-01-04 22:51:05.60	31.17	12.19	-45.2	-46.3	16.2	0.00e+00	0	52	0	320864256	53	4026
2026-01-04 22:51:09.56	31.60	12.50	-45.1	-46.2	16.3	0.00e+00	0	52	0	333447168	53	3983
2026-01-04 22:51:13.51	32.04	12.81	-44.9	-46.0	16.5	0.00e+00	0	52	0	346030080	52	4113
2026-01-04 22:51:17.47	32.49	13.13	-45.2	-46.3	16.2	0.00e+00	0	52	0	357564416	52	4276
2026-01-04 22:51:21.42	32.95	13.45	-45.2	-46.3	16.2	0.00e+00	0	52	0	370147328	52	4277
2026-01-04 22:51:25.38	33.42	13.77	-44.9	-45.9	16.6	0.00e+00	0	52	0	382730240	52	4086
2026-01-04 22:51:29.33	33.89	14.09	-45.1	-46.2	16.3	0.00e+00	0	53	0	395313152	52	4223
2026-01-04 22:51:33.29	34.38	14.42	-45.5	-46.6	15.9	0.00e+00	0	53	0	407896064	52	4427
2026-01-04 22:51:37.27	34.88	14.75	-45.4	-46.6	15.9	0.00e+00	0	53	0	419430400	53	4175
2026-01-04 22:51:41.22	35.39	15.08	-45.7	-46.9	15.7	0.00e+00	0	53	0	432013312	53	4334
2026-01-04 22:51:45.19	35.91	15.41	-45.4	-46.6	15.9	0.00e+00	0	53	0	444596224	53	4181
2026-01-04 22:51:49.13	36.44	15.75	-45.5	-46.7	16.0	0.00e+00	0	53	0	457179136	53	4203
2026-01-04 22:51:53.10	36.98	16.09	-45.8	-47.0	15.6	0.00e+00	0	53	0	469762048	53	4361
2026-01-04 22:51:57.06	37.54	16.43	-45.5	-46.7	15.9	0.00e+00	0	53	0	481296384	53	4212
2026-01-04 22:52:01.02	38.10	16.77	-45.6	-46.8	15.9	0.00e+00	0	53	0	493879296	53	4248
2026-01-04 22:52:04.99	38.68	17.12	-45.2	-46.3	16.3	0.00e+00	0	53	0	506462208	53	4041
2026-01-04 22:52:08.94	39.27	17.47	-45.6	-46.8	15.9	0.00e+00	0	53	0	519045120	53	4256
2026-01-04 22:52:12.88	39.88	17.82	-45.0	-46.0	16.6	0.00e+00	0	54	0	531628032	53	3913
2026-01-04 22:52:16.85	40.50	18.17	-45.1	-46.1	16.5	0.00e+00	0	54	0	543162368	52	4179
2026-01-04 22:52:20.82	41.13	18.52	-44.8	-45.9	16.7	0.00e+00	0	54	0	555745280	52	4065
2026-01-04 22:52:24.76	41.78	18.88	-45.2	-46.3	16.4	0.00e+00	0	54	0	568328192	52	4252
2026-01-04 22:52:28.70	42.44	19.23	-44.7	-45.8	16.9	0.00e+00	0	54	0	580911104	52	4014
2026-01-04 22:52:32.66	43.12	19.59	-44.9	-45.9	16.7	0.00e+00	0	54	0	593494016	52	4090
2026-01-04 22:52:36.61	43.81	19.95	-44.6	-45.6	17.1	0.00e+00	0	54	0	605028352	52	3944
2026-01-04 22:52:40.58	44.52	20.31	-44.3	-45.1	17.6	0.00e+00	0	54	0	617611264	51	3953
2026-01-04 22:52:44.54	45.25	20.67	-44.0	-44.9	17.9	0.00e+00	0	54	0	630194176	50	4065
2026-01-04 22:52:48.49	45.99	21.03	-44.2	-45.2	17.6	0.00e+00	0	54	0	642777088	50	4200
2026-01-04 22:52:52.44	46.75	21.40	-44.2	-45.0	17.8	0.00e+00	0	54	0	654311424	50	4144
2026-01-04 22:52:56.40	47.53	21.76	-44.3	-45.2	17.6	0.00e+00	0	54	0	666894336	50	4212
2026-01-04 22:53:00.36	48.32	22.12	-44.3	-45.2	17.6	0.00e+00	0	54	0	679477248	50	4224
2026-01-04 22:53:04.32	49.14	22.48	-43.9	-44.8	18.0	0.00e+00	0	54	0	692060160	50	4018
2026-01-04 22:53:08.27	49.97	22.84	-43.8	-44.7	18.1	0.00e+00	0	54	0	704643072	50	3968
2026-01-04 22:53:12.22	50.82	23.20	-44.2	-45.1	17.7	0.00e+00	0	54	0	716177408	50	4148
2026-01-04 22:53:16.17	51.69	23.56	-44.4	-45.3	17.5	0.00e+00	0	54	0	728760320	50	4267
2026-01-04 22:53:20.14	52.58	23.92	-44.3	-45.1	17.7	0.00e+00	0	54	0	741343232	50	4185
2026-01-04 22:53:24.10	53.49	24.27	-44.0	-44.9	17.9	0.00e+00	0	54	0	753926144	50	4072
2026-01-04 22:53:28.05	54.42	24.62	-44.7	-45.6	17.2	0.00e+00	0	55	0	766509056	51	4182
2026-01-04 22:53:31.99	55.37	24.97	-45.1	-46.2	16.6	0.00e+00	0	55	0	778043392	52	4215
2026-01-04 22:53:35.96	56.34	25.32	-44.6	-45.6	17.1	0.00e+00	0	55	0	790626304	52	3926
2026-01-04 22:53:39.90	57.33	25.65	-44.9	-45.9	16.9	0.00e+00	0	55	0	803209216	52	4052
2026-01-04 22:53:43.87	58.35	25.99	-44.6	-45.5	17.4	0.00e+00	0	55	0	815792128	51	4130
2026-01-04 22:53:47.83	59.38	26.32	-45.0	-46.0	16.7	0.00e+00	0	55	0	828375040	52	4143
2026-01-04 22:53:51.78	60.44	26.65	-44.6	-45.5	17.3	0.00e+00	0	55	0	839909376	51	4139
2026-01-04 22:53:55.73	61.51	26.96	-44.3	-45.2	17.6	0.00e+00	0	55	0	852492288	51	3990
2026-01-04 22:53:59.69	62.61	27.27	-44.5	-45.4	17.3	0.00e+00	0	55	0	865075200	51	4081
2026-01-04 22:54:03.63	63.72	27.57	-44.1	-45.0	17.9	0.00e+00	0	55	0	877658112	51	3873
2026-01-04 22:54:07.58	64.86	27.87	-44.3	-45.2	17.7	0.00e+00	0	55	0	889192448	51	3972
2026-01-04 22:54:11.53	66.02	28.15	-44.7	-45.7	17.2	0.00e+00	0	55	0	901775360	51	4200
2026-01-04 22:54:15.49	67.20	28.43	-44.4	-45.3	17.7	0.00e+00	0	55	0	914358272	51	4006
2026-01-04 22:54:19.44	68.40	28.69	-44.7	-45.6	17.3	0.00e+00	0	55	0	926941184	51	4176
2026-01-04 22:54:23.40	69.62	28.95	-44.8	-45.8	17.1	0.00e+00	0	55	0	938475520	51	4264
2026-01-04 22:54:27.35	70.85	29.19	-44.3	-45.2	17.7	0.00e+00	0	55	0	951058432	51	3975
2026-01-04 22:54:31.30	72.10	29.42	-44.8	-45.7	17.2	0.00e+00	0	55	0	963641344	51	4239
2026-01-04 22:54:35.24	73.37	29.63	-44.4	-45.3	17.5	0.00e+00	0	55	0	976224256	51	4047
2026-01-04 22:54:39.23	74.67	29.84	-44.9	-45.8	17.1	0.00e+00	0	55	0	988807168	51	4283
2026-01-04 22:54:43.18	75.98	30.03	-45.0	-46.0	16.9	0.00e+00	0	55	0	1000341504	52	4137
2026-01-04 22:54:47.12	77.29	30.20	-45.0	-46.1	16.8	0.00e+00	0	55	0	1012924416	52	4171
2026-01-04 22:54:51.09	78.63	30.36	-45.0	-46.0	16.9	0.00e+00	0	55	0	1025507328	52	4103
2026-01-04 22:54:55.06	79.98	30.50	-45.2	-46.3	16.6	0.00e+00	0	55	0	1038090240	52	4248
2026-01-04 22:54:59.01	81.33	30.62	-44.8	-45.8	17.1	0.00e+00	0	55	0	1050673152	52	4008
2026-01-04 22:55:02.98	82.70	30.73	-44.8	-45.8	16.9	0.00e+00	0	55	0	1063256064	52	4044
2026-01-04 22:55:06.92	84.07	30.82	-44.8	-45.8	17.1	0.00e+00	0	56	0	1074790400	52	4017
2026-01-04 22:55:10.88	85.45	30.90	-44.9	-45.9	16.9	0.00e+00	0	56	0	1087373312	52	4086
2026-01-04 22:55:14.84	86.84	30.95	-45.1	-46.2	16.6	0.00e+00	0	56	0	1099956224	52	4224
2026-01-04 22:55:18.79	88.23	30.99	-45.1	-46.2	16.6	0.00e+00	0	56	0	1112539136	52	4220
2026-01-04 22:55:22.75	89.63	31.01	-45.1	-46.2	16.7	0.00e+00	0	56	0	1124073472	52	4194
2026-01-04 22:55:26.69	91.01	31.01	-45.4	-46.5	16.4	0.00e+00	0	56	0	1136656384	52	4354
2026-01-04 22:55:30.63	92.40	30.99	-45.8	-46.9	15.9	0.00e+00	0	56	0	1149239296	53	4338
2026-01-04 22:55:34.57	93.79	30.96	-45.9	-47.2	15.7	0.00e+00	0	56	0	1161822208	53	4454
2026-01-04 22:55:38.52	95.18	30.91	-44.9	-45.8	16.9	0.00e+00	0	56	0	1173356544	52	4049
2026-01-04 22:55:42.48	96.56	30.83	-45.2	-46.3	16.5	0.00e+00	0	56	0	1185939456	52	4275
2026-01-04 22:55:46.42	97.93	30.75	-45.0	-46.0	16.8	0.00e+00	0	56	0	1198522368	52	4142
2026-01-04 22:55:50.37	99.30	30.64	-45.3	-46.3	16.5	0.00e+00	0	56	0	1211105280	52	4287
2026-01-04 22:55:54.33	100.66	30.52	-44.7	-45.7	17.1	0.00e+00	0	56	0	1223688192	52	3982
2026-01-04 22:55:58.28	102.00	30.38	-44.4	-45.3	17.6	0.00e+00	0	56	0	1235222528	51	4016
2026-01-04 22:56:02.24	103.34	30.22	-45.0	-45.9	17.0	0.00e+00	0	56	0	1247805440	51	4333
2026-01-04 22:56:06.19	104.66	30.05	-45.0	-46.0	16.9	0.00e+00	0	56	0	1260388352	52	4114
2026-01-04 22:56:10.15	105.97	29.86	-44.7	-45.6	17.2	0.00e+00	0	56	0	1272971264	52	3949
2026-01-04 22:56:14.11	107.27	29.66	-44.4	-45.3	17.5	0.00e+00	0	56	0	1284505600	52	3811
2026-01-04 22:56:18.06	108.54	29.44	-44.9	-45.9	17.1	0.00e+00	0	56	0	1297088512	51	4292
2026-01-04 22:56:22.01	109.80	29.22	-45.0	-46.0	16.9	0.00e+00	0	56	0	1309671424	51	4353
2026-01-04 22:56:25.97	111.04	28.98	-45.2	-46.2	16.7	0.00e+00	0	56	0	1322254336	52	4211
2026-01-04 22:56:29.90	112.26	28.72	-45.0	-46.0	16.8	0.00e+00	0	56	0	1333788672	52	4127
2026-01-04 22:56:33.87	113.47	28.46	-44.7	-45.7	17.1	0.00e+00	0	56	0	1346371584	52	3983
2026-01-04 22:56:37.84	114.66	28.18	-44.3	-45.2	17.7	0.00e+00	0	56	0	1358954496	51	3992
2026-01-04 22:56:41.79	115.82	27.90	-44.6	-45.5	17.4	0.00e+00	0	56	0	1371537408	51	4111
2026-01-04 22:56:45.76	116.97	27.60	-44.6	-45.5	17.4	0.00e+00	0	56	0	1384120320	51	4109
2026-01-04 22:56:49.72	118.10	27.30	-44.4	-45.3	17.6	0.00e+00	0	56	0	1396703232	51	4005
2026-01-04 22:56:53.67	119.20	26.99	-44.6	-45.5	17.4	0.00e+00	0	56	0	1408237568	51	4136
2026-01-04 22:56:57.62	120.28	26.67	-44.5	-45.4	17.4	0.00e+00	0	56	0	1420820480	52	3844
2026-01-04 22:57:01.56	121.33	26.35	-43.8	-44.6	18.3	0.00e+00	0	56	0	1433403392	50	3942
2026-01-04 22:57:05.52	122.37	26.02	-44.2	-45.0	17.8	0.00e+00	0	56	0	1445986304	50	4130
2026-01-04 22:57:09.47	123.39	25.68	-43.9	-44.7	18.1	0.00e+00	0	56	0	1458569216	50	3987
2026-01-04 22:57:13.42	124.39	25.34	-44.2	-45.1	17.8	0.00e+00	0	56	0	1470103552	50	4166
2026-01-04 22:57:17.39	125.37	24.99	-44.0	-44.9	18.0	0.00e+00	0	56	0	1482686464	50	4061
2026-01-04 22:57:21.35	126.32	24.64	-44.3	-45.2	17.7	0.00e+00	0	56	0	1495269376	50	4214
2026-01-04 22:57:25.31	127.26	24.29	-44.2	-45.1	17.8	0.00e+00	0	56	0	1507852288	50	4161
2026-01-04 22:57:29.24	128.17	23.94	-44.3	-45.2	17.6	0.00e+00	0	56	0	1519386624	50	4227
2026-01-04 22:57:33.18	129.06	23.58	-44.4	-45.3	17.5	0.00e+00	0	56	0	1531969536	50	4275
2026-01-04 22:57:37.14	129.94	23.22	-44.2	-45.1	17.8	0.00e+00	0	56	0	1544552448	51	3937
2026-01-04 22:57:41.10	130.79	22.86	-44.5	-45.4	17.5	0.00e+00	0	56	0	1557135360	51	4063
2026-01-04 22:57:45.05	131.63	22.49	-44.3	-45.2	17.6	0.00e+00	0	56	0	1568669696	51	3998
2026-01-04 22:57:49.00	132.45	22.13	-44.2	-45.0	17.8	0.00e+00	0	56	0	1581252608	51	3898
2026-01-04 22:57:52.95	133.24	21.77	-44.2	-45.0	17.8	0.00e+00	0	56	0	1593835520	51	3903
2026-01-04 22:57:56.91	134.03	21.40	-44.2	-45.1	17.7	0.00e+00	0	56	0	1606418432	51	3939
2026-01-04 22:58:00.86	134.79	21.04	-44.7	-45.6	17.2	0.00e+00	0	56	0	1619001344	51	4190
2026-01-04 22:58:04.81	135.53	20.68	-44.8	-45.8	17.1	0.00e+00	0	56	0	1630535680	51	4263
2026-01-04 22:58:08.77	136.26	20.31	-44.5	-45.4	17.4	0.00e+00	0	56	0	1643118592	51	4085
2026-01-04 22:58:12.74	136.98	19.95	-44.4	-45.3	17.5	0.00e+00	0	56	0	1655701504	51	4038
2026-01-04 22:58:16.69	137.68	19.59	-44.3	-45.2	17.6	0.00e+00	0	56	0	1668284416	51	3981
2026-01-04 22:58:20.66	138.36	19.22	-44.5	-45.4	17.4	0.00e+00	0	56	0	1680867328	51	4086
2026-01-04 22:58:24.62	139.03	18.87	-44.3	-45.3	17.5	0.00e+00	0	56	0	1692401664	51	4007
2026-01-04 22:58:28.57	139.67	18.51	-44.3	-45.1	17.6	0.00e+00	0	56	0	1704984576	51	3957
2026-01-04 22:58:32.51	140.31	18.15	-44.4	-45.3	17.4	0.00e+00	0	56	0	1717567488	51	4031
2026-01-04 22:58:36.48	140.93	17.80	-44.2	-45.1	17.7	0.00e+00	0	56	0	1730150400	51	3924
2026-01-04 22:58:40.45	141.54	17.45	-44.5	-45.5	17.3	0.00e+00	0	56	0	1742733312	51	4116
2026-01-04 22:58:44.39	142.13	17.10	-44.9	-45.9	16.9	0.00e+00	0	56	0	1754267648	51	4303
2026-01-04 22:58:48.34	142.71	16.75	-45.2	-46.3	16.4	0.00e+00	0	56	0	1766850560	52	4276
2026-01-04 22:58:52.28	143.28	16.41	-44.9	-46.0	16.7	0.00e+00	0	56	0	1779433472	52	4100
2026-01-04 22:58:56.24	143.84	16.06	-45.1	-46.2	16.5	0.00e+00	0	56	0	1792016384	52	4226
2026-01-04 22:59:00.21	144.38	15.72	-45.1	-46.2	16.5	0.00e+00	0	56	0	1803550720	52	4228
2026-01-04 22:59:04.17	144.92	15.38	-45.0	-46.1	16.6	0.00e+00	0	56	0	1816133632	52	4162
2026-01-04 22:59:08.12	145.44	15.04	-45.2	-46.3	16.3	0.00e+00	0	56	0	1828716544	52	4275
2026-01-04 22:59:12.09	145.95	14.71	-45.4	-46.6	16.1	0.00e+00	0	56	0	1841299456	52	4411
2026-01-04 22:59:16.05	146.45	14.38	-45.4	-46.6	16.1	0.00e+00	0	56	0	1853882368	52	4407
2026-01-04 22:59:20.02	146.94	14.05	-45.1	-46.2	16.4	0.00e+00	0	56	0	1866465280	53	3980
2026-01-04 22:59:23.97	147.41	13.72	-45.6	-46.8	15.8	0.00e+00	0	56	0	1877999616	53	4255
2026-01-04 22:59:27.93	147.88	13.40	-45.7	-46.9	15.7	0.00e+00	0	56	0	1890582528	53	4337
2026-01-04 22:59:31.87	148.34	13.08	-45.8	-47.1	15.5	0.00e+00	0	56	0	1903165440	54	4181
2026-01-04 22:59:35.82	148.79	12.76	-45.3	-46.5	16.1	0.00e+00	0	56	0	1915748352	53	4108
2026-01-04 22:59:39.77	149.23	12.45	-45.3	-46.5	16.1	0.00e+00	0	56	0	1927282688	53	4114
2026-01-04 22:59:43.72	149.66	12.13	-45.6	-46.8	15.8	0.00e+00	0	56	0	1939865600	53	4255
2026-01-04 22:59:47.68	150.08	11.82	-46.0	-47.3	15.2	0.00e+00	0	56	0	1952448512	53	4533
2026-01-04 22:59:51.65	150.50	11.51	-45.8	-47.1	15.5	0.00e+00	0	56	0	1965031424	54	4155
2026-01-04 22:59:55.62	150.90	11.21	-45.8	-47.1	15.4	0.00e+00	0	56	0	1977614336	54	4178
2026-01-04 22:59:59.58	151.30	10.90	-46.0	-47.3	15.2	0.00e+00	0	56	0	1989148672	54	4287
2026-01-04 23:00:03.54	151.69	10.60	-46.0	-47.4	15.2	0.00e+00	0	56	0	2001731584	54	4294
2026-01-04 23:00:07.51	152.07	10.31	-46.1	-47.4	15.1	0.00e+00	0	56	0	2014314496	54	4326
2026-01-04 23:00:11.47	152.45	10.01	-45.5	-46.7	15.7	0.00e+00	0	56	0	2026897408	54	3989
2026-01-04 23:00:15.43	152.82	9.72	-45.7	-47.0	15.4	0.00e+00	0	56	0	2039480320	54	4104
2026-01-04 23:00:19.38	153.18	9.43	-45.8	-47.1	15.3	0.00e+00	0	56	0	2051014656	54	4184
2026-01-04 23:00:23.32	153.53	9.14	-46.1	-47.5	14.9	0.00e+00	0	56	0	2063597568	54	4354
2026-01-04 23:00:27.27	153.88	8.86	-46.1	-47.6	14.8	0.00e+00	0	56	0	2076180480	54	4407
2026-01-04 23:00:31.22	154.22	8.57	-46.2	-47.7	14.7	0.00e+00	0	56	0	2088763392	54	4460
2026-01-04 23:00:35.16	154.55	8.29	-46.3	-47.8	14.5	0.00e+00	0	56	0	2101346304	54	4522
2026-01-04 23:00:39.13	154.88	8.01	-46.3	-47.8	14.5	1.50e-06	0	56	0	2112880640	54	4509
2026-01-04 23:00:43.08	155.21	7.74	-46.2	-47.6	14.6	0.00e+00	0	56	0	2125463552	54	4422
2026-01-04 23:00:47.03	155.52	7.46	-46.2	-47.7	14.5	0.00e+00	0	56	0	2138046464	54	4457
2026-01-04 23:00:50.98	155.83	7.19	-46.3	-47.8	14.4	0.00e+00	0	56	0	2150629376	54	4504
2026-01-04 23:00:54.95	156.14	6.92	-46.7	-48.4	13.8	6.10e-06	0	57	0	2162163712	55	4576
2026-01-04 23:00:58.91	156.44	6.65	-46.9	-48.7	13.4	1.06e-05	0	56	0	2174746624	55	4726
2026-01-04 23:01:02.87	156.74	6.39	-46.9	-48.7	13.5	1.67e-05	0	56	0	2187329536	56	4469
2026-01-04 23:01:06.83	157.03	6.13	-47.1	-49.0	13.0	4.19e-05	0	56	0	2199912448	56	4646
2026-01-04 23:01:10.79	157.32	5.86	-47.2	-49.3	12.7	8.85e-05	0	57	0	2212495360	56	4774
2026-01-04 23:01:14.74	157.60	5.60	-47.8	-50.3	11.2	1.18e-03	0	56	0	2224029696	57	5064
2026-01-04 23:01:18.69	157.87	5.35	-48.8	-52.9	8.0	5.41e-02	0	57	0	2236612608	59	6091
2026-01-04 23:01:22.65	158.15	5.09	-49.3	-56.1	5.0	6.43e-01	0	56	0	2249195520	60	8276
2026-01-04 23:01:26.61	158.41	4.84	-52.3	-63.8	3.8	1.49e+00	0	57	104	2250244096	66	14246
2026-01-04 23:01:30.57	158.68	4.59	-52.4	-64.0	3.8	1.49e+00	0	56	104	2250244096	66	14594
2026-01-04 23:01:34.51	158.94	4.34	-52.7	-64.1	3.8	1.49e+00	0	57	104	2250244096	67	13969
2026-01-04 23:01:38.47	159.19	4.09	-52.7	-64.2	3.8	1.49e+00	0	56	104	2250244096	67	14101
2026-01-04 23:01:42.42	159.44	3.85	-52.7	-64.2	3.8	1.49e+00	0	57	104	2250244096	67	14185
2026-01-04 23:01:46.39	159.69	3.60	-52.8	-64.3	3.8	1.49e+00	0	57	104	2250244096	67	14231
2026-01-04 23:01:50.35	159.93	3.36	-52.9	-64.3	3.8	1.49e+00	0	57	104	2250244096	67	14299
2026-01-04 23:01:54.31	160.17	3.12	-52.8	-64.2	3.8	1.49e+00	0	57	104	2250244096	67	14191

#Closed at: 2026-01-04 23:01:56
#Recorded file [2250 MB]: D:/Data/31026_260105_020122.dat