passes_logs/2026/01/04/R3.0SM8_Murmansk_STILSPACE/R3.0SM8_Murmansk_STILSPACE__20260104_072557_NOAA_21_JPSS-2_rec.log

#Pass ID: 20260104_072557_NOAA 21 (JPSS-2)
#Satellite: NOAA 21 (JPSS-2)
#Configuration: NOAA-21
#almurnet v.1.7.20240730
#Start time: 2026-01-04 07:30:26

#Version: 2.2.20231116
#Station: R3.0SM8_Murmansk_STILSPACE
#Location: 33.092731 lon 68.902999 lat
#TLE: 1 54234U 22150A   26003.45311712  .00000198  00000+0  11468-3 0  9993
#TLE: 2 54234  98.7487 304.4932 0001159 347.5017  12.6130 14.19531745163172

#Time	Az	El	Level	Level2	SNR	BER	BlckErr	Temp	State	Recorded	gain1	gain2
2026-01-04 07:30:26.51	73.68	26.19	-52.6	-63.5	3.8	8.47e-01	0	56	0	0	67	12975
2026-01-04 07:30:29.45	72.99	26.51	-52.9	-64.4	3.8	1.49e+00	0	57	104	0	68	13581
2026-01-04 07:30:32.43	72.28	26.83	-52.8	-64.3	3.8	1.49e+00	0	57	104	0	68	13519
2026-01-04 07:30:35.40	71.56	27.14	-52.9	-64.4	3.8	1.49e+00	0	57	104	0	68	13570
2026-01-04 07:30:38.38	70.81	27.46	-52.8	-64.3	3.8	1.49e+00	0	57	104	0	68	13500
2026-01-04 07:30:41.35	70.06	27.77	-52.7	-64.2	3.8	1.49e+00	0	57	104	0	68	13375
2026-01-04 07:30:44.31	69.29	28.08	-52.6	-63.7	3.8	1.49e+00	0	57	104	0	68	12577
2026-01-04 07:30:47.28	68.51	28.39	-46.0	-52.8	3.8	1.49e+00	0	57	104	0	53	8561
2026-01-04 07:30:50.25	67.71	28.69	-50.9	-59.7	3.8	1.49e+00	0	57	104	0	63	10585
2026-01-04 07:30:53.23	66.89	28.99	-52.5	-63.5	3.8	1.49e+00	0	57	104	0	66	13853
2026-01-04 07:30:56.20	66.06	29.29	-52.3	-63.1	3.8	1.49e+00	0	57	104	0	66	13250
2026-01-04 07:30:59.17	65.22	29.59	-52.5	-63.8	3.8	1.49e+00	0	57	104	0	67	13476
2026-01-04 07:31:02.13	64.36	29.88	-52.4	-63.4	3.8	1.49e+00	0	57	104	0	67	12943
2026-01-04 07:31:05.11	63.48	30.16	-52.4	-63.1	3.8	1.49e+00	0	57	104	0	67	12452
2026-01-04 07:31:08.07	62.59	30.44	-52.4	-62.6	3.8	1.49e+00	0	57	104	0	67	11718
2026-01-04 07:31:11.03	61.69	30.72	-52.6	-63.4	3.8	1.49e+00	0	57	104	0	67	12952
2026-01-04 07:31:14.01	60.76	30.99	-52.6	-63.2	3.8	1.49e+00	0	57	104	0	67	12526
2026-01-04 07:31:16.99	59.82	31.25	-52.4	-61.9	3.8	1.49e+00	0	57	104	0	67	10886
2026-01-04 07:31:19.96	58.86	31.51	-49.7	-52.6	10.3	7.94e-03	0	57	0	5242880	62	4952
2026-01-04 07:31:22.94	57.89	31.76	-49.8	-52.9	10.0	7.33e-03	0	57	0	14680064	62	5109
2026-01-04 07:31:25.90	56.91	32.00	-50.1	-53.5	9.4	1.37e-02	0	57	0	24117248	62	5496
2026-01-04 07:31:28.85	55.92	32.24	-48.7	-50.9	12.1	3.80e-04	0	57	0	33554432	60	4560
2026-01-04 07:31:31.81	54.91	32.46	-47.2	-48.7	14.3	3.80e-06	0	57	0	42991616	57	4219
2026-01-04 07:31:34.79	53.88	32.68	-45.9	-47.1	15.7	0.00e+00	0	57	0	52428800	55	3954
2026-01-04 07:31:37.77	52.83	32.89	-45.3	-46.4	16.5	0.00e+00	0	57	0	60817408	53	4065
2026-01-04 07:31:40.73	51.78	33.09	-45.4	-46.5	16.4	0.00e+00	0	57	0	70254592	53	4137
2026-01-04 07:31:43.70	50.71	33.28	-45.1	-46.1	16.8	0.00e+00	0	57	0	79691776	53	3935
2026-01-04 07:31:46.68	49.63	33.46	-45.4	-46.4	16.5	0.00e+00	0	57	0	89128960	53	4084
2026-01-04 07:31:49.65	48.54	33.63	-45.5	-46.6	16.3	0.00e+00	0	57	0	98566144	53	4166
2026-01-04 07:31:52.62	47.44	33.78	-45.1	-46.1	16.7	0.00e+00	0	57	0	108003328	53	3954
2026-01-04 07:31:55.60	46.32	33.93	-45.5	-46.6	16.3	0.00e+00	0	57	0	117440512	53	4163
2026-01-04 07:31:58.57	45.20	34.06	-45.0	-46.0	16.9	0.00e+00	0	57	0	125829120	53	3899
2026-01-04 07:32:01.54	44.07	34.19	-45.3	-46.3	16.6	0.00e+00	0	57	0	135266304	53	4041
2026-01-04 07:32:04.51	42.93	34.30	-45.5	-46.6	16.3	0.00e+00	0	57	0	144703488	53	4190
2026-01-04 07:32:07.47	41.79	34.39	-45.8	-47.0	15.9	0.00e+00	0	57	0	154140672	53	4363
2026-01-04 07:32:10.43	40.64	34.48	-45.9	-47.1	15.9	0.00e+00	0	57	0	163577856	53	4394
2026-01-04 07:32:13.40	39.48	34.55	-46.0	-47.2	15.7	0.00e+00	0	57	0	173015040	53	4460
2026-01-04 07:32:16.39	38.31	34.61	-45.2	-46.2	16.6	0.00e+00	0	57	0	182452224	53	4002
2026-01-04 07:32:19.36	37.15	34.65	-45.2	-46.2	16.7	0.00e+00	0	57	0	190840832	53	4001
2026-01-04 07:32:22.32	35.98	34.68	-45.4	-46.5	16.5	0.00e+00	0	57	0	200278016	53	4105
2026-01-04 07:32:25.28	34.82	34.70	-45.5	-46.6	16.3	0.00e+00	0	57	0	209715200	53	4185
2026-01-04 07:32:28.25	33.65	34.70	-45.2	-46.3	16.6	0.00e+00	0	57	0	219152384	53	4006
2026-01-04 07:32:31.22	32.48	34.69	-45.6	-46.8	16.1	0.00e+00	0	57	0	228589568	53	4253
2026-01-04 07:32:34.19	31.31	34.67	-45.8	-47.0	15.8	0.00e+00	0	57	0	238026752	53	4376
2026-01-04 07:32:37.16	30.14	34.63	-45.6	-46.8	16.1	0.00e+00	0	57	0	246415360	53	4272
2026-01-04 07:32:40.13	28.97	34.58	-45.6	-46.8	16.1	0.00e+00	0	57	0	255852544	53	4244
2026-01-04 07:32:43.09	27.82	34.52	-46.2	-47.5	15.4	0.00e+00	0	57	0	265289728	54	4358
2026-01-04 07:32:46.05	26.67	34.44	-45.6	-46.8	16.0	0.00e+00	0	57	0	274726912	54	4022
2026-01-04 07:32:49.02	25.52	34.35	-46.8	-48.5	13.7	3.80e-06	0	57	0	284164096	55	4617
2026-01-04 07:32:51.98	24.38	34.25	-48.1	-50.9	10.8	1.90e-03	0	57	0	293601280	58	5114
2026-01-04 07:32:54.96	23.24	34.13	-48.5	-51.3	10.4	5.76e-03	0	57	0	303038464	59	5090
2026-01-04 07:32:57.93	22.12	34.01	-47.8	-50.0	12.1	3.76e-04	0	57	0	311427072	58	4601
2026-01-04 07:33:00.90	21.00	33.87	-46.9	-48.6	13.8	3.00e-06	0	57	0	320864256	57	4162
2026-01-04 07:33:03.87	19.89	33.72	-47.0	-48.6	14.1	7.00e-07	0	57	0	330301440	56	4416
2026-01-04 07:33:06.84	18.80	33.56	-46.5	-47.8	15.0	0.00e+00	0	57	0	339738624	56	4045
2026-01-04 07:33:09.82	17.71	33.38	-46.0	-47.3	15.6	0.00e+00	0	57	0	349175808	55	4014
2026-01-04 07:33:12.78	16.64	33.20	-45.8	-47.0	15.9	0.00e+00	0	57	0	358612992	54	4107
2026-01-04 07:33:15.75	15.58	33.01	-45.5	-46.7	16.2	0.00e+00	0	57	0	367001600	54	3961
2026-01-04 07:33:18.73	14.53	32.80	-45.2	-46.3	16.5	0.00e+00	0	57	0	376438784	53	4034
2026-01-04 07:33:21.70	13.50	32.59	-44.7	-45.7	17.1	0.00e+00	0	57	0	385875968	52	3963
2026-01-04 07:33:24.67	12.48	32.37	-44.9	-45.9	16.9	0.00e+00	0	57	0	395313152	52	4071
2026-01-04 07:33:27.63	11.47	32.14	-44.6	-45.5	17.3	0.00e+00	0	57	0	404750336	52	3905
2026-01-04 07:33:30.60	10.48	31.90	-45.0	-46.0	16.8	0.00e+00	0	57	0	414187520	52	4139
2026-01-04 07:33:33.56	9.51	31.66	-45.3	-46.4	16.5	0.00e+00	0	57	0	423624704	52	4298
2026-01-04 07:33:36.53	8.55	31.40	-44.6	-45.6	17.3	0.00e+00	0	57	0	432013312	52	3914
2026-01-04 07:33:39.48	7.61	31.14	-45.0	-46.0	16.8	0.00e+00	0	57	0	441450496	52	4136
2026-01-04 07:33:42.45	6.68	30.88	-45.1	-46.2	16.6	0.00e+00	0	57	0	450887680	52	4212
2026-01-04 07:33:45.43	5.76	30.61	-44.1	-45.0	17.9	0.00e+00	0	57	0	460324864	51	3891
2026-01-04 07:33:48.39	4.86	30.33	-44.7	-45.6	17.3	0.00e+00	0	57	0	469762048	51	4187
2026-01-04 07:33:51.37	3.98	30.05	-45.1	-46.2	16.6	0.00e+00	0	57	0	479199232	52	4212
2026-01-04 07:33:54.34	3.11	29.76	-44.7	-45.7	17.1	0.00e+00	0	57	0	487587840	52	3985
2026-01-04 07:33:57.31	2.26	29.47	-45.3	-46.4	16.5	0.00e+00	0	57	0	497025024	52	4296
2026-01-04 07:34:00.28	1.42	29.17	-45.5	-46.7	16.2	0.00e+00	0	57	0	506462208	52	4443
2026-01-04 07:34:03.25	0.60	28.87	-45.3	-46.4	16.4	0.00e+00	0	57	0	515899392	53	4082
2026-01-04 07:34:06.22	359.79	28.57	-44.5	-45.5	17.2	0.00e+00	0	57	0	525336576	52	3906
2026-01-04 07:34:09.19	359.00	28.27	-44.7	-45.6	17.2	0.00e+00	0	57	0	534773760	52	3953
2026-01-04 07:34:12.15	358.23	27.96	-44.3	-45.2	17.7	0.00e+00	0	57	0	543162368	51	3983
2026-01-04 07:34:15.12	357.47	27.65	-44.3	-45.2	17.7	0.00e+00	0	57	0	552599552	51	3969
2026-01-04 07:34:18.09	356.72	27.34	-44.6	-45.5	17.4	0.00e+00	0	57	0	562036736	51	4128
2026-01-04 07:34:21.06	355.99	27.02	-44.6	-45.6	17.3	0.00e+00	0	57	0	571473920	51	4149
2026-01-04 07:34:24.03	355.27	26.71	-44.7	-45.6	17.2	0.00e+00	0	57	0	580911104	51	4192
2026-01-04 07:34:27.00	354.57	26.39	-44.8	-45.8	17.0	0.00e+00	0	57	0	590348288	51	4280
2026-01-04 07:34:29.95	353.88	26.08	-44.5	-45.4	17.4	0.00e+00	0	57	0	599785472	51	4084
2026-01-04 07:34:32.92	353.21	25.76	-44.3	-45.2	17.6	0.00e+00	0	57	0	608174080	51	3975
2026-01-04 07:34:35.90	352.55	25.44	-44.4	-45.4	17.5	0.00e+00	0	57	0	617611264	51	4052
2026-01-04 07:34:38.86	351.90	25.12	-44.4	-45.3	17.5	0.00e+00	0	57	0	627048448	51	4015
2026-01-04 07:34:41.84	351.26	24.80	-44.7	-45.7	17.1	0.00e+00	0	57	0	636485632	51	4228
2026-01-04 07:34:44.81	350.64	24.48	-44.0	-44.9	17.9	0.00e+00	0	57	0	645922816	51	3843
2026-01-04 07:34:47.79	350.03	24.16	-43.8	-44.6	18.1	0.00e+00	0	57	0	655360000	50	3936
2026-01-04 07:34:50.75	349.44	23.84	-43.2	-44.0	18.7	0.00e+00	0	57	0	664797184	49	3873
2026-01-04 07:34:53.71	348.85	23.53	-43.5	-44.3	18.3	0.00e+00	0	57	0	673185792	49	4046
2026-01-04 07:34:56.68	348.28	23.21	-44.1	-45.0	17.7	0.00e+00	0	57	0	682622976	50	4107
2026-01-04 07:34:59.65	347.72	22.89	-44.4	-45.3	17.4	0.00e+00	0	57	0	692060160	50	4250
2026-01-04 07:35:02.63	347.17	22.58	-44.5	-45.4	17.3	0.00e+00	0	57	0	701497344	50	4318
2026-01-04 07:35:05.59	346.63	22.26	-44.4	-45.3	17.4	0.00e+00	0	57	0	710934528	50	4272
2026-01-04 07:35:08.55	346.11	21.95	-44.8	-45.7	17.0	0.00e+00	0	57	0	720371712	51	4237
2026-01-04 07:35:11.51	345.59	21.64	-44.1	-45.0	17.7	0.00e+00	0	57	0	728760320	51	3880
2026-01-04 07:35:14.49	345.08	21.33	-43.8	-44.6	18.0	0.00e+00	0	57	0	738197504	50	3941
2026-01-04 07:35:17.47	344.59	21.02	-44.1	-45.0	17.6	0.00e+00	0	57	0	747634688	50	4127
2026-01-04 07:35:20.44	344.10	20.71	-44.5	-45.5	17.1	0.00e+00	0	57	0	757071872	50	4364
2026-01-04 07:35:23.40	343.63	20.41	-44.9	-45.9	16.7	0.00e+00	0	57	0	766509056	51	4312
2026-01-04 07:35:26.38	343.16	20.10	-44.0	-45.0	17.5	0.00e+00	0	57	0	775946240	51	3877
2026-01-04 07:35:29.34	342.70	19.80	-44.8	-45.9	16.3	0.00e+00	0	57	0	785383424	51	4304
2026-01-04 07:35:32.30	342.25	19.50	-44.7	-45.9	15.9	0.00e+00	0	57	0	793772032	51	4335
2026-01-04 07:35:35.26	341.82	19.20	-47.4	-49.6	11.9	2.13e-04	0	57	0	803209216	56	4968
2026-01-04 07:35:38.23	341.39	18.90	-48.2	-51.0	10.3	6.33e-03	0	57	0	812646400	58	5195
2026-01-04 07:35:41.20	340.96	18.61	-48.0	-50.7	10.8	2.09e-03	0	57	0	822083584	58	4985
2026-01-04 07:35:44.16	340.55	18.32	-46.7	-48.4	13.5	2.21e-05	0	57	0	831520768	56	4319
2026-01-04 07:35:47.12	340.15	18.02	-44.7	-45.9	16.1	0.00e+00	0	57	0	840957952	52	4061
2026-01-04 07:35:50.09	339.75	17.74	-44.3	-45.3	16.8	0.00e+00	0	57	0	849346560	51	4041
2026-01-04 07:35:53.07	339.36	17.45	-45.3	-46.4	15.9	0.00e+00	0	57	0	858783744	52	4331
2026-01-04 07:35:56.04	338.97	17.16	-45.3	-46.5	15.8	0.00e+00	0	57	0	868220928	52	4378
2026-01-04 07:35:59.01	338.60	16.88	-45.6	-46.8	15.6	0.00e+00	0	57	0	877658112	53	4277
2026-01-04 07:36:01.97	338.23	16.60	-44.8	-45.8	16.6	0.00e+00	0	57	0	887095296	52	4039
2026-01-04 07:36:04.94	337.87	16.32	-45.0	-46.1	16.3	0.00e+00	0	57	0	896532480	52	4176
2026-01-04 07:36:07.90	337.52	16.04	-44.8	-45.8	16.6	0.00e+00	0	57	0	905969664	52	4045
2026-01-04 07:36:10.86	337.17	15.76	-45.1	-46.3	16.2	0.00e+00	0	57	0	914358272	52	4258
2026-01-04 07:36:13.84	336.83	15.49	-45.3	-46.4	16.0	0.00e+00	0	57	0	923795456	52	4337
2026-01-04 07:36:16.80	336.49	15.22	-45.6	-46.8	15.7	0.00e+00	0	57	0	933232640	53	4281
2026-01-04 07:36:19.77	336.17	14.95	-45.8	-47.1	15.4	0.00e+00	0	57	0	942669824	53	4399
2026-01-04 07:36:22.74	335.84	14.68	-45.2	-46.3	16.1	0.00e+00	0	57	0	952107008	53	4051
2026-01-04 07:36:25.71	335.53	14.42	-45.2	-46.4	16.1	0.00e+00	0	57	0	961544192	53	4058
2026-01-04 07:36:28.66	335.22	14.15	-44.9	-45.9	16.6	0.00e+00	0	57	0	969932800	52	4077
2026-01-04 07:36:31.61	334.91	13.89	-45.0	-46.1	16.3	0.00e+00	0	57	0	979369984	52	4188
2026-01-04 07:36:34.58	334.61	13.63	-45.4	-46.6	15.9	0.00e+00	0	57	0	988807168	52	4396
2026-01-04 07:36:37.54	334.32	13.38	-45.3	-46.4	16.1	0.00e+00	0	57	0	998244352	52	4326
2026-01-04 07:36:40.51	334.03	13.12	-45.4	-46.6	15.8	0.00e+00	0	57	0	1007681536	52	4438
2026-01-04 07:36:43.48	333.75	12.87	-45.4	-46.6	15.9	0.00e+00	0	57	0	1017118720	52	4396
2026-01-04 07:36:46.46	333.47	12.61	-45.6	-46.8	15.6	0.00e+00	0	57	0	1025507328	53	4274
2026-01-04 07:36:49.42	333.19	12.36	-45.5	-46.7	15.8	0.00e+00	0	57	0	1034944512	53	4202
2026-01-04 07:36:52.40	332.92	12.12	-45.5	-46.7	15.7	0.00e+00	0	57	0	1044381696	53	4234
2026-01-04 07:36:55.36	332.66	11.87	-45.1	-46.2	16.2	0.00e+00	0	57	0	1053818880	53	3992
2026-01-04 07:36:58.32	332.40	11.63	-45.1	-46.2	16.2	0.00e+00	0	57	0	1063256064	53	3996
2026-01-04 07:37:01.28	332.14	11.38	-45.3	-46.5	15.9	0.00e+00	0	57	0	1072693248	53	4110
2026-01-04 07:37:04.26	331.89	11.14	-45.4	-46.6	15.8	0.00e+00	0	57	0	1082130432	53	4182
2026-01-04 07:37:07.23	331.65	10.90	-45.6	-46.9	15.5	0.00e+00	0	57	0	1090519040	53	4312
2026-01-04 07:37:10.20	331.40	10.67	-46.0	-47.3	15.1	0.00e+00	0	57	0	1099956224	53	4528
2026-01-04 07:37:13.17	331.16	10.43	-46.1	-47.4	15.0	0.00e+00	0	57	0	1109393408	53	4591
2026-01-04 07:37:16.13	330.93	10.20	-46.2	-47.6	14.8	0.00e+00	0	57	0	1118830592	54	4404
2026-01-04 07:37:19.11	330.70	9.96	-46.1	-47.4	14.9	0.00e+00	0	57	0	1128267776	54	4340
2026-01-04 07:37:22.09	330.47	9.73	-46.1	-47.5	14.8	0.00e+00	0	57	0	1137704960	54	4372
2026-01-04 07:37:25.07	330.24	9.50	-46.1	-47.4	14.9	0.00e+00	0	57	0	1146093568	54	4337
2026-01-04 07:37:28.03	330.03	9.28	-45.9	-47.3	15.0	0.00e+00	0	57	0	1155530752	54	4262
2026-01-04 07:37:30.98	329.81	9.05	-46.2	-47.7	14.7	7.00e-07	0	57	0	1164967936	54	4442
2026-01-04 07:37:33.94	329.60	8.83	-46.4	-47.9	14.4	7.00e-07	0	57	0	1174405120	54	4570
2026-01-04 07:37:36.90	329.39	8.61	-46.5	-48.1	14.2	3.80e-06	0	57	0	1183842304	55	4423
2026-01-04 07:37:39.86	329.18	8.39	-46.8	-48.4	13.9	2.20e-06	0	57	0	1193279488	55	4575
2026-01-04 07:37:42.83	328.98	8.17	-46.3	-47.8	14.4	7.00e-07	0	57	0	1201668096	55	4283
2026-01-04 07:37:45.80	328.78	7.95	-46.2	-47.7	14.5	7.00e-07	0	57	0	1211105280	55	4209
2026-01-04 07:37:48.76	328.58	7.74	-46.1	-47.6	14.6	0.00e+00	0	57	0	1220542464	55	4173
2026-01-04 07:37:51.73	328.39	7.52	-46.3	-47.8	14.4	1.50e-06	0	57	0	1229979648	55	4260
2026-01-04 07:37:54.69	328.20	7.31	-46.4	-48.0	14.2	7.00e-07	0	57	0	1239416832	55	4347
2026-01-04 07:37:57.65	328.01	7.10	-46.8	-48.4	13.7	6.10e-06	0	57	0	1248854016	55	4587
2026-01-04 07:38:00.62	327.83	6.89	-46.8	-48.5	13.6	1.60e-05	0	57	0	1257242624	55	4648
2026-01-04 07:38:03.60	327.65	6.68	-46.9	-48.7	13.4	1.06e-05	0	57	0	1266679808	55	4740
2026-01-04 07:38:06.57	327.47	6.47	-47.2	-49.0	13.2	1.60e-05	0	57	0	1276116992	56	4636
2026-01-04 07:38:09.55	327.29	6.26	-47.3	-49.2	13.0	4.34e-05	0	57	0	1285554176	56	4734
2026-01-04 07:38:12.51	327.12	6.06	-47.2	-49.0	13.1	1.83e-05	0	57	0	1294991360	56	4648
2026-01-04 07:38:15.47	326.95	5.86	-47.4	-49.3	12.8	5.56e-05	0	57	0	1304428544	56	4807
2026-01-04 07:38:18.44	326.78	5.65	-47.1	-49.1	13.0	3.58e-05	0	57	0	1312817152	56	4667
2026-01-04 07:38:21.42	326.61	5.45	-47.2	-49.1	13.0	3.43e-05	0	57	0	1322254336	56	4679
2026-01-04 07:38:24.39	326.45	5.25	-47.2	-49.2	12.9	4.42e-05	0	57	0	1331691520	56	4727
2026-01-04 07:38:27.35	326.28	5.06	-47.4	-49.4	12.7	6.86e-05	0	57	0	1341128704	56	4830
2026-01-04 07:38:30.32	326.13	4.86	-48.7	-60.2	3.8	1.49e+00	0	57	104	1343225856	59	14066
2026-01-04 07:38:33.28	325.97	4.66	-51.4	-62.9	3.8	1.49e+00	0	57	104	1343225856	64	14491
2026-01-04 07:38:36.25	325.81	4.47	-52.5	-64.0	3.8	1.49e+00	0	57	104	1343225856	66	14548
2026-01-04 07:38:39.22	325.66	4.28	-52.6	-64.1	3.8	1.49e+00	0	57	104	1343225856	67	13969
2026-01-04 07:38:42.19	325.51	4.08	-52.6	-64.2	3.8	1.49e+00	0	57	104	1343225856	67	14052
2026-01-04 07:38:45.16	325.36	3.89	-52.8	-64.2	3.8	1.49e+00	0	57	104	1343225856	67	14111
2026-01-04 07:38:48.12	325.22	3.70	-52.7	-64.2	3.8	1.49e+00	0	57	104	1343225856	67	14116
2026-01-04 07:38:51.09	325.07	3.51	-52.8	-64.2	3.8	1.49e+00	0	57	104	1343225856	67	14164
2026-01-04 07:38:54.06	324.93	3.33	-52.8	-64.3	3.8	1.49e+00	0	57	104	1343225856	67	14224
2026-01-04 07:38:57.02	324.79	3.14	-52.8	-64.2	3.8	1.49e+00	0	57	104	1343225856	67	14179

#Closed at: 2026-01-04 07:38:59
#Recorded file [1343 MB]: D:/Data/31026_260104_103828.dat