passes_logs/2026/01/04/R3.0SM8_Murmansk_STILSPACE/R3.0SM8_Murmansk_STILSPACE__20260104_021841_FENGYUN_3D_rec.log

#Pass ID: 20260104_021841_FENGYUN 3D
#Satellite: FENGYUN 3D
#Configuration: FENGYUN 3D
#almurnet v.1.7.20240730
#Start time: 2026-01-04 02:18:43

#Version: 2.2.20231116
#Station: R3.0SM8_Murmansk_STILSPACE
#Location: 33.092731 lon 68.902999 lat
#TLE: 1 43010U 17072A   26003.51579816  .00000092  00000+0  65324-4 0  9992
#TLE: 2 43010  98.9912 335.1548 0001916 128.4619 231.6729 14.19692074421623

#Time	Az	El	Level	Level2	SNR	BER	BlckErr	Temp	State	Recorded	gain1	gain2
2026-01-04 02:18:43.05	23.86	3.10	-52.2	-63.1	3.8	8.45e-01	0	46	0	0	66	13123
2026-01-04 02:18:47.00	23.92	3.36	-51.7	-62.3	3.8	8.45e-01	0	46	104	0	66	12005
2026-01-04 02:18:50.96	23.99	3.62	-47.7	-50.2	10.5	3.21e-03	0	46	0	15728640	58	4712
2026-01-04 02:18:54.91	24.06	3.89	-47.4	-49.7	11.0	1.39e-03	0	47	0	37748736	57	4749
2026-01-04 02:18:58.85	24.13	4.16	-47.0	-49.2	11.6	6.75e-04	0	47	0	59768832	56	4708
2026-01-04 02:19:02.81	24.21	4.43	-47.0	-49.1	11.6	5.00e-04	0	47	0	81788928	56	4670
2026-01-04 02:19:06.79	24.28	4.71	-47.8	-50.4	10.3	3.66e-03	0	48	0	103809024	57	5113
2026-01-04 02:19:10.75	24.35	4.99	-48.8	-52.2	8.3	3.66e-02	0	48	0	126877696	59	5653
2026-01-04 02:19:14.70	24.43	5.27	-48.4	-51.4	9.3	2.54e-02	0	48	0	148897792	59	5104
2026-01-04 02:19:18.64	24.50	5.55	-47.0	-49.1	11.9	3.81e-04	0	49	0	170917888	57	4400
2026-01-04 02:19:22.59	24.58	5.83	-46.3	-48.1	12.9	2.97e-05	0	49	0	192937984	55	4403
2026-01-04 02:19:26.55	24.66	6.12	-45.8	-47.3	13.7	5.70e-06	0	49	0	214958080	54	4269
2026-01-04 02:19:30.50	24.74	6.42	-44.7	-45.9	15.3	0.00e+00	0	49	0	238026752	52	4058
2026-01-04 02:19:34.46	24.82	6.71	-44.7	-45.9	15.3	0.00e+00	0	49	0	260046848	52	4079
2026-01-04 02:19:38.42	24.90	7.01	-44.5	-45.6	15.6	0.00e+00	0	50	0	282066944	52	3942
2026-01-04 02:19:42.38	24.99	7.32	-44.6	-45.7	15.6	0.00e+00	0	50	0	304087040	51	4228
2026-01-04 02:19:46.34	25.07	7.63	-44.4	-45.4	16.0	0.00e+00	0	50	0	327155712	51	4087
2026-01-04 02:19:50.31	25.16	7.94	-44.6	-45.8	15.6	0.00e+00	0	50	0	349175808	51	4254
2026-01-04 02:19:54.27	25.24	8.25	-43.9	-44.9	16.6	0.00e+00	0	50	0	371195904	51	3847
2026-01-04 02:19:58.23	25.33	8.57	-44.2	-45.2	16.3	0.00e+00	0	51	0	393216000	50	4210
2026-01-04 02:20:02.19	25.43	8.89	-43.6	-44.6	17.0	0.00e+00	0	51	0	416284672	50	3921
2026-01-04 02:20:06.15	25.52	9.22	-43.7	-44.6	16.9	0.00e+00	0	51	0	438304768	50	3957
2026-01-04 02:20:10.11	25.61	9.55	-43.7	-44.7	16.9	0.00e+00	0	51	0	460324864	50	3966
2026-01-04 02:20:14.08	25.71	9.89	-43.9	-44.9	16.7	0.00e+00	0	51	0	483393536	50	4057
2026-01-04 02:20:18.03	25.81	10.23	-43.8	-44.8	16.8	0.00e+00	0	51	0	505413632	50	4025
2026-01-04 02:20:22.00	25.91	10.57	-43.7	-44.6	17.0	0.00e+00	0	52	0	527433728	50	3938
2026-01-04 02:20:25.95	26.01	10.92	-43.8	-44.7	16.9	0.00e+00	0	52	0	549453824	50	3989
2026-01-04 02:20:29.90	26.11	11.28	-43.8	-44.8	16.9	0.00e+00	0	52	0	572522496	50	4010
2026-01-04 02:20:33.87	26.22	11.64	-43.6	-44.5	17.2	0.00e+00	0	52	0	594542592	50	3903
2026-01-04 02:20:37.84	26.33	12.00	-43.5	-44.4	17.3	0.00e+00	0	52	0	616562688	50	3845
2026-01-04 02:20:41.79	26.44	12.37	-43.4	-44.3	17.4	0.00e+00	0	52	0	638582784	50	3809
2026-01-04 02:20:45.75	26.55	12.75	-43.6	-44.5	17.2	0.00e+00	0	52	0	660602880	49	4117
2026-01-04 02:20:49.71	26.67	13.13	-43.4	-44.3	17.4	0.00e+00	0	52	0	683671552	49	4041
2026-01-04 02:20:53.66	26.78	13.52	-43.6	-44.5	17.3	0.00e+00	0	53	0	705691648	49	4119
2026-01-04 02:20:57.61	26.90	13.91	-43.6	-44.5	17.2	0.00e+00	0	53	0	727711744	49	4144
2026-01-04 02:21:01.55	27.03	14.31	-42.8	-43.6	18.2	0.00e+00	0	53	0	749731840	48	3935
2026-01-04 02:21:05.49	27.15	14.72	-42.6	-43.3	18.5	0.00e+00	0	53	0	771751936	48	3817
2026-01-04 02:21:09.45	27.28	15.13	-42.5	-43.3	18.5	0.00e+00	0	53	0	793772032	48	3805
2026-01-04 02:21:13.37	27.41	15.55	-42.2	-42.9	18.7	0.00e+00	0	53	0	816840704	47	3857
2026-01-04 02:21:17.33	27.55	15.98	-42.5	-43.2	18.4	0.00e+00	0	53	0	838860800	47	3998
2026-01-04 02:21:21.30	27.69	16.42	-41.8	-42.5	19.2	0.00e+00	0	53	0	860880896	46	3903
2026-01-04 02:21:25.24	27.83	16.86	-41.8	-42.5	19.2	0.00e+00	0	53	0	882900992	46	3882
2026-01-04 02:21:29.19	27.98	17.31	-41.7	-42.4	19.3	0.00e+00	0	54	0	904921088	46	3864
2026-01-04 02:21:33.15	28.13	17.77	-42.0	-42.7	19.0	0.00e+00	0	54	0	927989760	46	3980
2026-01-04 02:21:37.10	28.28	18.24	-42.0	-42.7	19.1	0.00e+00	0	54	0	950009856	46	3969
2026-01-04 02:21:41.06	28.44	18.72	-41.9	-42.6	19.2	0.00e+00	0	54	0	972029952	46	3924
2026-01-04 02:21:45.03	28.60	19.21	-41.5	-42.1	19.6	0.00e+00	0	54	0	994050048	46	3731
2026-01-04 02:21:48.98	28.77	19.70	-41.5	-42.2	19.6	0.00e+00	0	54	0	1017118720	45	3959
2026-01-04 02:21:52.96	28.95	20.21	-41.7	-42.4	19.4	0.00e+00	0	54	0	1039138816	45	4060
2026-01-04 02:21:56.90	29.12	20.73	-41.6	-42.3	19.5	0.00e+00	0	54	0	1061158912	45	4030
2026-01-04 02:22:00.85	29.31	21.25	-41.2	-41.8	20.0	0.00e+00	0	54	0	1083179008	45	3809
2026-01-04 02:22:04.81	29.50	21.79	-41.2	-41.8	19.9	0.00e+00	0	54	0	1106247680	45	3807
2026-01-04 02:22:08.76	29.69	22.34	-41.2	-41.9	19.9	0.00e+00	0	54	0	1128267776	45	3848
2026-01-04 02:22:12.72	29.90	22.91	-40.9	-41.5	20.3	0.00e+00	0	54	0	1150287872	44	3889
2026-01-04 02:22:16.66	30.11	23.48	-40.3	-40.8	20.8	0.00e+00	0	55	0	1172307968	43	3823
2026-01-04 02:22:20.63	30.32	24.07	-40.2	-40.8	20.8	0.00e+00	0	55	0	1194328064	43	3805
2026-01-04 02:22:24.59	30.55	24.67	-40.3	-40.8	20.8	0.00e+00	0	55	0	1217396736	43	3823
2026-01-04 02:22:28.55	30.78	25.28	-40.3	-40.9	20.8	0.00e+00	0	55	0	1239416832	43	3836
2026-01-04 02:22:32.49	31.02	25.91	-40.2	-40.8	20.9	0.00e+00	0	55	0	1261436928	43	3788
2026-01-04 02:22:36.45	31.27	26.55	-40.1	-40.6	21.0	0.00e+00	0	55	0	1283457024	43	3732
2026-01-04 02:22:40.41	31.53	27.21	-39.9	-40.4	21.2	0.00e+00	0	55	0	1306525696	43	3641
2026-01-04 02:22:44.38	31.81	27.89	-40.1	-40.6	21.1	0.00e+00	0	55	0	1328545792	42	3942
2026-01-04 02:22:48.33	32.09	28.57	-40.0	-40.6	21.1	0.00e+00	0	55	0	1350565888	42	3916
2026-01-04 02:22:52.29	32.38	29.28	-40.2	-40.8	20.9	0.00e+00	0	55	0	1372585984	42	4021
2026-01-04 02:22:56.24	32.69	30.00	-40.2	-40.8	21.0	0.00e+00	0	55	0	1394606080	42	4009
2026-01-04 02:23:00.21	33.01	30.75	-40.6	-41.2	20.5	0.00e+00	0	55	0	1417674752	43	3991
2026-01-04 02:23:04.16	33.34	31.51	-39.7	-40.2	21.5	0.00e+00	0	55	0	1439694848	42	3776
2026-01-04 02:23:08.12	33.69	32.29	-40.0	-40.6	21.1	0.00e+00	0	55	0	1461714944	42	3947
2026-01-04 02:23:12.08	34.05	33.09	-39.6	-40.2	21.5	0.00e+00	0	55	0	1483735040	42	3746
2026-01-04 02:23:16.05	34.44	33.91	-39.8	-40.4	21.3	0.00e+00	0	56	0	1506803712	42	3843
2026-01-04 02:23:20.01	34.84	34.76	-40.4	-41.0	20.8	0.00e+00	0	56	0	1528823808	42	4120
2026-01-04 02:23:23.97	35.27	35.62	-40.5	-41.1	20.7	0.00e+00	0	55	0	1550843904	42	4169
2026-01-04 02:23:27.93	35.71	36.51	-40.1	-40.7	21.1	0.00e+00	0	55	0	1572864000	43	3739
2026-01-04 02:23:31.87	36.18	37.41	-39.6	-40.2	21.6	0.00e+00	0	55	0	1595932672	42	3743
2026-01-04 02:23:35.85	36.68	38.35	-39.2	-39.7	22.0	0.00e+00	0	56	0	1617952768	41	3743
2026-01-04 02:23:39.82	37.21	39.31	-39.1	-39.7	22.0	0.00e+00	0	56	0	1639972864	41	3743
2026-01-04 02:23:43.77	37.76	40.29	-39.8	-40.3	21.5	0.00e+00	0	56	0	1661992960	41	4030
2026-01-04 02:23:47.73	38.35	41.29	-40.2	-40.7	21.1	0.00e+00	0	56	0	1685061632	42	3994
2026-01-04 02:23:51.69	38.98	42.33	-40.1	-40.6	21.2	0.00e+00	0	56	0	1707081728	42	3942
2026-01-04 02:23:55.65	39.65	43.38	-40.6	-41.2	20.6	0.00e+00	0	56	0	1729101824	43	3978
2026-01-04 02:23:59.60	40.37	44.46	-40.2	-40.8	21.1	0.00e+00	0	56	0	1751121920	43	3786
2026-01-04 02:24:03.55	41.13	45.57	-40.4	-41.0	20.9	0.00e+00	0	56	0	1773142016	43	3884
2026-01-04 02:24:07.52	41.95	46.71	-39.9	-40.4	21.4	0.00e+00	0	56	0	1796210688	42	3843
2026-01-04 02:24:11.47	42.83	47.86	-40.2	-40.8	21.0	0.00e+00	0	56	0	1818230784	42	4020
2026-01-04 02:24:15.41	43.77	49.04	-40.0	-40.6	21.3	0.00e+00	0	56	0	1840250880	42	3914
2026-01-04 02:24:19.37	44.79	50.25	-40.3	-40.9	21.0	0.00e+00	0	56	0	1862270976	42	4063
2026-01-04 02:24:23.33	45.90	51.48	-40.3	-40.8	21.0	0.00e+00	0	56	0	1885339648	42	4048
2026-01-04 02:24:27.30	47.10	52.73	-41.2	-41.8	20.2	0.00e+00	0	56	0	1907359744	44	4023
2026-01-04 02:24:31.25	48.41	54.00	-40.9	-41.5	20.5	0.00e+00	0	56	0	1929379840	44	3870
2026-01-04 02:24:35.19	49.83	55.28	-41.4	-42.0	20.0	0.00e+00	0	56	0	1951399936	44	4126
2026-01-04 02:24:39.16	51.39	56.58	-41.5	-42.1	19.9	0.00e+00	0	56	0	1974468608	45	3952
2026-01-04 02:24:43.13	53.11	57.89	-42.5	-43.3	18.8	0.00e+00	0	56	0	1996488704	46	4245
2026-01-04 02:24:47.08	55.00	59.20	-42.0	-42.7	19.4	0.00e+00	0	56	0	2018508800	47	3747
2026-01-04 02:24:51.04	57.09	60.50	-41.3	-41.9	20.1	0.00e+00	0	56	0	2040528896	45	3841
2026-01-04 02:24:55.01	59.40	61.80	-40.7	-41.3	20.7	0.00e+00	0	56	0	2063597568	44	3802
2026-01-04 02:24:58.96	61.96	63.08	-40.8	-41.4	20.6	0.00e+00	0	56	0	2085617664	44	3849
2026-01-04 02:25:02.92	64.81	64.33	-40.4	-41.0	20.9	0.00e+00	0	56	0	2107637760	43	3905
2026-01-04 02:25:06.88	67.98	65.54	-39.3	-39.8	22.0	0.00e+00	0	56	0	2129657856	41	3804
2026-01-04 02:25:10.85	71.51	66.69	-39.7	-40.2	21.6	0.00e+00	0	56	0	2151677952	41	4001
2026-01-04 02:25:14.81	75.42	67.77	-38.8	-39.3	22.5	0.00e+00	0	56	0	2174746624	40	3788
2026-01-04 02:25:18.76	79.74	68.75	-38.8	-39.2	22.5	0.00e+00	0	56	0	2196766720	40	3772
2026-01-04 02:25:22.72	84.49	69.62	-39.1	-39.6	22.2	0.00e+00	0	56	0	2218786816	40	3934
2026-01-04 02:25:26.68	89.67	70.36	-38.9	-39.4	22.4	0.00e+00	0	56	0	2240806912	40	3841
2026-01-04 02:25:30.64	95.23	70.94	-39.4	-39.9	21.9	0.00e+00	0	56	0	2263875584	41	3863
2026-01-04 02:25:34.60	101.10	71.35	-38.8	-39.3	22.5	0.00e+00	0	56	0	2285895680	40	3796
2026-01-04 02:25:38.58	107.21	71.56	-39.3	-39.8	22.0	0.00e+00	0	57	0	2307915776	40	4019
2026-01-04 02:25:42.54	113.38	71.58	-39.9	-40.4	21.4	0.00e+00	0	57	0	2329935872	41	4074
2026-01-04 02:25:46.49	119.47	71.40	-39.7	-40.3	21.6	0.00e+00	0	57	0	2353004544	42	3788
2026-01-04 02:25:50.45	125.39	71.02	-39.5	-40.1	21.7	0.00e+00	0	57	0	2375024640	41	3929
2026-01-04 02:25:54.41	131.01	70.47	-40.1	-40.7	21.2	0.00e+00	0	57	0	2397044736	42	3979
2026-01-04 02:25:58.37	136.26	69.76	-39.4	-40.0	21.9	0.00e+00	0	57	0	2420113408	42	3657
2026-01-04 02:26:02.34	141.10	68.91	-39.2	-39.7	22.1	0.00e+00	0	57	0	2442133504	41	3770
2026-01-04 02:26:06.30	145.51	67.94	-39.6	-40.1	21.7	0.00e+00	0	57	0	2464153600	41	3941
2026-01-04 02:26:10.26	149.49	66.87	-39.2	-39.8	22.1	0.00e+00	0	57	0	2486173696	41	3784
2026-01-04 02:26:14.22	153.09	65.73	-39.1	-39.7	22.2	0.00e+00	0	57	0	2509242368	41	3742
2026-01-04 02:26:18.18	156.32	64.53	-39.8	-40.4	21.5	0.00e+00	0	57	0	2531262464	41	4071
2026-01-04 02:26:22.14	159.22	63.29	-39.9	-40.4	21.4	0.00e+00	0	57	0	2553282560	41	4097
2026-01-04 02:26:26.09	161.83	62.01	-39.5	-40.0	21.8	0.00e+00	0	57	0	2575302656	42	3661
2026-01-04 02:26:30.05	164.18	60.72	-39.6	-40.2	21.7	0.00e+00	0	57	0	2597322752	42	3744
2026-01-04 02:26:34.00	166.30	59.41	-40.4	-40.9	21.0	0.00e+00	0	57	0	2619342848	42	4087
2026-01-04 02:26:37.97	168.23	58.09	-41.1	-41.7	20.2	0.00e+00	0	57	0	2642411520	43	4232
2026-01-04 02:26:41.92	169.97	56.78	-41.0	-41.6	20.4	0.00e+00	0	57	0	2664431616	44	3956
2026-01-04 02:26:45.88	171.56	55.48	-41.1	-41.8	20.3	0.00e+00	0	57	0	2686451712	44	4009
2026-01-04 02:26:49.84	173.01	54.19	-41.4	-42.1	20.0	0.00e+00	0	57	0	2709520384	44	4161
2026-01-04 02:26:53.81	174.34	52.91	-40.9	-41.5	20.5	0.00e+00	0	57	0	2731540480	44	3905
2026-01-04 02:26:57.78	175.57	51.65	-41.3	-41.9	20.2	0.00e+00	0	57	0	2753560576	44	4058
2026-01-04 02:27:01.74	176.69	50.41	-41.0	-41.7	20.4	0.00e+00	0	57	0	2775580672	45	3746
2026-01-04 02:27:05.69	177.72	49.20	-41.1	-41.7	20.3	0.00e+00	0	57	0	2798649344	44	3985
2026-01-04 02:27:09.65	178.68	48.01	-40.9	-41.5	20.5	0.00e+00	0	57	0	2820669440	44	3889
2026-01-04 02:27:13.60	179.57	46.84	-40.6	-41.2	20.8	0.00e+00	0	57	0	2842689536	44	3748
2026-01-04 02:27:17.55	180.40	45.70	-40.4	-41.0	20.9	0.00e+00	0	57	0	2864709632	43	3896
2026-01-04 02:27:21.51	181.17	44.59	-39.7	-40.3	21.6	0.00e+00	0	57	0	2887778304	42	3786
2026-01-04 02:27:25.47	181.89	43.50	-39.9	-40.4	21.4	0.00e+00	0	57	0	2909798400	42	3852
2026-01-04 02:27:29.42	182.57	42.43	-40.0	-40.6	21.3	0.00e+00	0	57	0	2931818496	42	3933
2026-01-04 02:27:33.35	183.20	41.40	-39.8	-40.3	21.5	0.00e+00	0	57	0	2953838592	42	3824
2026-01-04 02:27:37.31	183.80	40.39	-39.2	-39.7	22.1	0.00e+00	0	57	0	2975858688	41	3768
2026-01-04 02:27:41.26	184.36	39.40	-39.2	-39.7	22.1	0.00e+00	0	57	0	2998927360	41	3766
2026-01-04 02:27:45.21	184.89	38.44	-39.5	-40.0	21.8	0.00e+00	0	57	0	3020947456	41	3895
2026-01-04 02:27:49.18	185.39	37.50	-39.9	-40.4	21.4	0.00e+00	0	57	0	3042967552	41	4094
2026-01-04 02:27:53.13	185.86	36.58	-39.6	-40.2	21.6	0.00e+00	0	57	0	3064987648	41	3968
2026-01-04 02:27:57.09	186.31	35.69	-39.6	-40.1	21.7	0.00e+00	0	57	0	3087007744	41	3926
2026-01-04 02:28:01.06	186.74	34.82	-39.9	-40.5	21.3	0.00e+00	0	57	0	3110076416	41	4125
2026-01-04 02:28:05.03	187.15	33.96	-40.0	-40.6	21.2	0.00e+00	0	57	0	3132096512	42	3932
2026-01-04 02:28:08.97	187.53	33.14	-40.2	-40.8	21.0	0.00e+00	0	57	0	3154116608	42	4036
2026-01-04 02:28:12.93	187.90	32.33	-39.9	-40.5	21.4	0.00e+00	0	57	0	3176136704	43	3655
2026-01-04 02:28:16.87	188.25	31.55	-40.0	-40.6	21.2	0.00e+00	0	57	0	3198156800	43	3710
2026-01-04 02:28:20.83	188.59	30.78	-39.8	-40.3	21.5	0.00e+00	0	57	0	3221225472	42	3802
2026-01-04 02:28:24.78	188.91	30.04	-39.8	-40.3	21.5	0.00e+00	0	57	0	3243245568	42	3813
2026-01-04 02:28:28.73	189.21	29.31	-39.8	-40.4	21.4	0.00e+00	0	57	0	3265265664	42	3845
2026-01-04 02:28:32.70	189.51	28.59	-39.7	-40.3	21.5	0.00e+00	0	57	0	3287285760	42	3793
2026-01-04 02:28:36.65	189.79	27.90	-39.9	-40.4	21.4	0.00e+00	0	57	0	3309305856	42	3858
2026-01-04 02:28:40.61	190.06	27.22	-40.2	-40.8	21.0	0.00e+00	0	57	0	3332374528	42	4040
2026-01-04 02:28:44.58	190.32	26.56	-40.2	-40.8	21.0	0.00e+00	0	57	0	3354394624	42	4014
2026-01-04 02:28:48.54	190.58	25.91	-40.6	-41.2	20.6	0.00e+00	0	57	0	3376414720	42	4222
2026-01-04 02:28:52.50	190.82	25.27	-40.5	-41.1	20.7	0.00e+00	0	57	0	3398434816	43	3926
2026-01-04 02:28:56.46	191.05	24.66	-40.6	-41.2	20.6	0.00e+00	0	57	0	3421503488	43	3990
2026-01-04 02:29:00.42	191.27	24.05	-40.4	-41.0	20.7	0.00e+00	0	57	0	3443523584	43	3903
2026-01-04 02:29:04.36	191.49	23.46	-40.5	-41.1	20.7	0.00e+00	0	57	0	3465543680	43	3918
2026-01-04 02:29:08.30	191.70	22.89	-40.8	-41.4	20.4	0.00e+00	0	57	0	3487563776	43	4077
2026-01-04 02:29:12.25	191.90	22.32	-41.0	-41.6	20.1	0.00e+00	0	57	0	3509583872	43	4187
2026-01-04 02:29:16.21	192.10	21.77	-41.0	-41.7	20.2	0.00e+00	0	57	0	3532652544	44	3971
2026-01-04 02:29:20.16	192.29	21.23	-41.0	-41.6	20.3	0.00e+00	0	57	0	3554672640	45	3716
2026-01-04 02:29:24.12	192.47	20.69	-41.0	-41.6	20.3	0.00e+00	0	57	0	3576692736	44	3932
2026-01-04 02:29:28.08	192.65	20.17	-41.0	-41.6	20.2	0.00e+00	0	57	0	3598712832	44	3944
2026-01-04 02:29:32.02	192.82	19.66	-41.3	-41.9	19.9	0.00e+00	0	57	0	3621781504	44	4086
2026-01-04 02:29:35.98	192.99	19.16	-41.5	-42.2	19.7	0.00e+00	0	57	0	3643801600	45	3979
2026-01-04 02:29:39.95	193.15	18.67	-41.8	-42.5	19.4	0.00e+00	0	57	0	3665821696	45	4106
2026-01-04 02:29:43.90	193.31	18.19	-41.9	-42.6	19.2	0.00e+00	0	57	0	3687841792	45	4169
2026-01-04 02:29:47.85	193.46	17.72	-41.7	-42.4	19.5	0.00e+00	0	57	0	3710910464	45	4062
2026-01-04 02:29:51.82	193.61	17.26	-41.8	-42.5	19.3	0.00e+00	0	57	0	3732930560	45	4117
2026-01-04 02:29:55.77	193.76	16.80	-42.3	-43.0	18.8	0.00e+00	0	57	0	3754950656	46	4121
2026-01-04 02:29:59.72	193.90	16.36	-42.5	-43.3	18.5	0.00e+00	0	57	0	3776970752	46	4259
2026-01-04 02:30:03.69	194.04	15.92	-42.9	-43.7	18.2	0.00e+00	0	57	0	3798990848	47	4201
2026-01-04 02:30:07.66	194.17	15.48	-43.4	-44.3	17.7	0.00e+00	0	57	0	3822059520	48	4256
2026-01-04 02:30:11.61	194.30	15.06	-42.6	-43.4	18.6	0.00e+00	0	57	0	3844079616	48	3847
2026-01-04 02:30:15.55	194.43	14.65	-43.0	-43.8	18.2	0.00e+00	0	57	0	3866099712	48	4047
2026-01-04 02:30:19.51	194.56	14.24	-42.8	-43.6	18.3	0.00e+00	0	58	0	3888119808	48	3942
2026-01-04 02:30:23.48	194.68	13.83	-43.0	-43.8	18.2	0.00e+00	0	58	0	3911188480	48	4031
2026-01-04 02:30:27.44	194.80	13.44	-43.0	-43.8	18.1	0.00e+00	0	57	0	3933208576	48	4021
2026-01-04 02:30:31.40	194.91	13.04	-43.0	-43.8	18.1	0.00e+00	0	57	0	3955228672	48	4037
2026-01-04 02:30:35.35	195.03	12.66	-43.2	-44.1	17.8	0.00e+00	0	57	0	3977248768	48	4155
2026-01-04 02:30:39.31	195.14	12.28	-43.3	-44.2	17.7	0.00e+00	0	57	0	4000317440	48	4211
2026-01-04 02:30:43.29	195.25	11.91	-43.5	-44.4	17.4	0.00e+00	0	57	0	4022337536	49	4087
2026-01-04 02:30:47.25	195.35	11.54	-43.6	-44.5	17.4	0.00e+00	0	57	0	4044357632	49	4107
2026-01-04 02:30:51.20	195.46	11.18	-43.4	-44.3	17.5	0.00e+00	0	57	0	4066377728	49	4020
2026-01-04 02:30:55.15	195.56	10.83	-43.5	-44.4	17.4	0.00e+00	0	57	0	4088397824	49	4059
2026-01-04 02:30:59.11	195.66	10.47	-43.5	-44.4	17.4	0.00e+00	0	57	0	4111466496	49	4075
2026-01-04 02:31:03.06	195.75	10.13	-43.8	-44.7	17.0	0.00e+00	0	58	0	4133486592	49	4241
2026-01-04 02:31:07.01	195.85	9.79	-43.8	-44.7	17.0	0.00e+00	0	57	0	4155506688	49	4238
2026-01-04 02:31:10.97	195.94	9.45	-43.8	-44.7	17.1	0.00e+00	0	58	0	4177526784	50	3979
2026-01-04 02:31:14.93	196.04	9.12	-43.8	-44.7	17.1	0.00e+00	0	57	0	4200595456	50	3972
2026-01-04 02:31:18.88	196.13	8.79	-43.8	-44.7	17.0	0.00e+00	0	57	0	4222615552	50	3983
2026-01-04 02:31:22.84	196.22	8.46	-43.9	-44.9	16.8	0.00e+00	0	58	0	4244635648	50	4077
2026-01-04 02:31:26.79	196.30	8.15	-44.1	-45.1	16.6	0.00e+00	0	58	0	4266655744	50	4168
2026-01-04 02:31:30.74	196.39	7.83	-44.0	-45.0	16.7	0.00e+00	0	58	0	4288675840	50	4115
2026-01-04 02:31:34.70	196.47	7.52	-44.4	-45.4	16.2	0.00e+00	0	57	0	4311744512	50	4323
2026-01-04 02:31:38.68	196.55	7.21	-44.5	-45.6	16.0	0.00e+00	0	58	0	4333764608	51	4167
2026-01-04 02:31:42.63	196.63	6.90	-44.5	-45.6	16.0	0.00e+00	0	58	0	4355784704	51	4151
2026-01-04 02:31:46.60	196.71	6.60	-44.5	-45.6	15.9	0.00e+00	0	58	0	4378853376	51	4180
2026-01-04 02:31:50.55	196.79	6.30	-44.6	-45.7	15.8	0.00e+00	0	58	0	4400873472	51	4210
2026-01-04 02:31:54.52	196.87	6.01	-44.9	-46.0	15.4	0.00e+00	0	58	0	4422893568	51	4388
2026-01-04 02:31:58.48	196.95	5.72	-44.9	-46.1	15.3	0.00e+00	0	58	0	4444913664	51	4416
2026-01-04 02:32:02.43	197.02	5.43	-45.0	-46.2	15.1	0.00e+00	0	58	0	4466933760	51	4484
2026-01-04 02:32:06.40	197.09	5.14	-44.9	-46.1	15.2	0.00e+00	0	58	0	4490002432	51	4420
2026-01-04 02:32:10.37	197.17	4.86	-52.1	-62.8	3.8	8.46e-01	0	58	104	4499439616	66	12759
2026-01-04 02:32:14.32	197.24	4.58	-52.5	-63.2	3.8	8.45e-01	0	58	104	4499439616	66	13270
2026-01-04 02:32:18.28	197.31	4.31	-52.5	-63.3	3.8	8.46e-01	0	58	104	4499439616	67	12692
2026-01-04 02:32:22.24	197.38	4.03	-52.7	-63.4	3.8	8.47e-01	0	58	104	4499439616	67	12822
2026-01-04 02:32:26.18	197.44	3.76	-52.7	-63.4	3.8	8.46e-01	0	58	104	4499439616	67	12912
2026-01-04 02:32:30.12	197.51	3.50	-52.7	-63.4	3.8	8.45e-01	0	58	104	4499439616	67	12918
2026-01-04 02:32:34.08	197.58	3.23	-52.7	-63.5	3.8	8.47e-01	0	58	104	4499439616	67	12981
2026-01-04 02:32:38.05	197.64	2.97	-52.6	-63.4	3.8	8.48e-01	0	58	104	4499439616	67	12872

#Closed at: 2026-01-04 02:32:39
#Recorded file [4499 MB]: D:/Data/31026_260104_053208.dat