passes_logs/2026/01/04/R3.0SM8_Murmansk_STILSPACE/R3.0SM8_Murmansk_STILSPACE__20260104_122305_FENGYUN_3E_rec.log

#Pass ID: 20260104_122305_FENGYUN 3E
#Satellite: FENGYUN 3E
#Configuration: FENGYUN 3E
#almurnet v.1.7.20240730
#Start time: 2026-01-04 12:30:09

#Version: 2.2.20231116
#Station: R3.0SM8_Murmansk_STILSPACE
#Location: 33.092731 lon 68.902999 lat
#TLE: 1 49008U 21062A   26003.51942929 -.00000034  00000+0  45519-5 0  9990
#TLE: 2 49008  98.7472   8.7829 0001426 160.7926 199.3304 14.19883272233213

#Time	Az	El	Level	Level2	SNR	BER	BlckErr	Temp	State	Recorded	gain1	gain2
2026-01-04 12:30:09.64	31.89	44.02	-52.6	-63.5	3.8	8.46e-01	0	56	0	0	67	13047
2026-01-04 12:30:11.62	30.87	43.90	-52.8	-63.0	3.8	8.47e-01	0	57	104	0	68	11528
2026-01-04 12:30:13.59	29.87	43.77	-52.6	-63.0	3.8	8.45e-01	0	58	104	0	68	11507
2026-01-04 12:30:15.57	28.87	43.63	-52.8	-63.1	3.8	8.45e-01	0	58	104	0	68	11596
2026-01-04 12:30:17.54	27.89	43.48	-52.7	-63.0	3.8	8.46e-01	0	57	104	0	68	11484
2026-01-04 12:30:19.53	26.90	43.32	-52.7	-63.0	3.8	8.47e-01	0	57	104	0	68	11506
2026-01-04 12:30:21.51	25.93	43.15	-52.7	-63.0	3.8	8.47e-01	0	57	104	0	68	11479
2026-01-04 12:30:23.48	24.98	42.97	-52.7	-62.8	3.8	8.47e-01	0	57	104	0	68	11246
2026-01-04 12:30:25.46	24.03	42.79	-52.6	-62.5	3.8	8.45e-01	0	57	104	0	68	10863
2026-01-04 12:30:27.44	23.09	42.59	-52.7	-62.9	3.8	8.47e-01	0	57	104	0	68	11320
2026-01-04 12:30:29.43	22.16	42.39	-52.7	-62.9	3.8	8.46e-01	0	57	104	0	68	11345
2026-01-04 12:30:31.40	21.25	42.19	-52.7	-62.8	3.8	8.47e-01	0	57	104	0	68	11286
2026-01-04 12:30:33.37	20.35	41.97	-52.7	-62.9	3.8	8.45e-01	0	57	104	0	68	11290
2026-01-04 12:30:35.35	19.46	41.75	-52.6	-62.8	3.8	8.46e-01	0	58	104	0	68	11177
2026-01-04 12:30:37.33	18.58	41.53	-52.7	-62.9	3.8	8.46e-01	0	57	104	0	68	11371
2026-01-04 12:30:39.31	17.72	41.29	-52.7	-62.9	3.8	8.46e-01	0	57	104	0	68	11352
2026-01-04 12:30:41.30	16.86	41.05	-52.7	-62.9	3.8	8.46e-01	0	57	104	0	68	11308
2026-01-04 12:30:43.29	16.01	40.81	-52.6	-62.6	3.8	8.46e-01	0	57	104	0	68	10968
2026-01-04 12:30:45.27	15.19	40.56	-52.6	-62.6	3.8	8.46e-01	0	58	104	0	67	11558
2026-01-04 12:30:47.25	14.37	40.30	-52.6	-62.8	3.8	8.45e-01	0	57	104	0	67	11821
2026-01-04 12:30:49.23	13.57	40.04	-52.5	-62.7	3.8	8.45e-01	0	58	104	0	67	11738
2026-01-04 12:30:51.21	12.78	39.78	-52.5	-62.7	3.8	8.47e-01	0	58	104	0	67	11708
2026-01-04 12:30:53.19	12.01	39.51	-52.6	-62.8	3.8	8.47e-01	0	58	104	0	67	11837
2026-01-04 12:30:55.18	11.24	39.24	-52.4	-61.7	3.8	8.46e-01	0	58	104	0	67	10447
2026-01-04 12:30:57.16	10.49	38.97	-52.5	-62.8	3.8	8.46e-01	0	57	104	0	67	11894
2026-01-04 12:30:59.14	9.75	38.69	-52.3	-60.9	3.9	8.45e-01	0	58	104	0	67	9523
2026-01-04 12:31:01.12	9.03	38.41	-52.1	-59.3	3.9	8.46e-01	0	58	104	0	67	7963
2026-01-04 12:31:03.09	8.32	38.12	-45.6	-46.6	15.1	0.00e+00	0	57	0	10485760	54	3901
2026-01-04 12:31:05.06	7.62	37.84	-43.6	-44.3	17.6	0.00e+00	0	58	0	25165824	50	3749
2026-01-04 12:31:07.05	6.93	37.55	-43.4	-44.1	17.7	0.00e+00	0	58	0	39845888	49	3905
2026-01-04 12:31:09.01	6.27	37.26	-42.9	-43.6	18.3	0.00e+00	0	58	0	53477376	48	3870
2026-01-04 12:31:11.00	5.60	36.96	-43.1	-43.7	18.1	0.00e+00	0	58	0	68157440	48	3958
2026-01-04 12:31:12.98	4.95	36.67	-43.2	-43.9	17.9	0.00e+00	0	57	0	81788928	49	3813
2026-01-04 12:31:14.97	4.31	36.37	-42.1	-42.7	18.9	0.00e+00	0	58	0	96468992	47	3703
2026-01-04 12:31:16.94	3.68	36.08	-41.4	-42.0	19.6	0.00e+00	0	58	0	110100480	45	3828
2026-01-04 12:31:18.91	3.07	35.78	-41.0	-41.5	20.0	0.00e+00	0	58	0	124780544	44	3839
2026-01-04 12:31:20.88	2.47	35.48	-40.8	-41.3	20.3	0.00e+00	0	57	0	139460608	44	3744
2026-01-04 12:31:22.85	1.88	35.18	-40.9	-41.4	20.1	0.00e+00	0	58	0	153092096	44	3807
2026-01-04 12:31:24.84	1.29	34.88	-40.2	-40.7	20.7	0.00e+00	0	57	0	167772160	43	3701
2026-01-04 12:31:26.81	0.72	34.58	-39.8	-40.3	21.1	0.00e+00	0	58	0	182452224	42	3757
2026-01-04 12:31:28.77	0.17	34.28	-39.7	-40.1	21.1	0.00e+00	0	58	0	196083712	42	3684
2026-01-04 12:31:30.75	359.61	33.98	-39.9	-40.4	21.0	0.00e+00	0	58	0	210763776	42	3782
2026-01-04 12:31:32.72	359.08	33.68	-39.7	-40.2	21.2	0.00e+00	0	58	0	224395264	42	3696
2026-01-04 12:31:34.70	358.55	33.38	-39.7	-40.2	21.1	0.00e+00	0	58	0	239075328	42	3714
2026-01-04 12:31:36.69	358.02	33.08	-39.8	-40.3	21.1	0.00e+00	0	58	0	252706816	42	3759
2026-01-04 12:31:38.67	357.51	32.77	-40.0	-40.5	20.8	0.00e+00	0	58	0	267386880	42	3858
2026-01-04 12:31:40.66	357.01	32.47	-40.1	-40.6	20.8	0.00e+00	0	57	0	282066944	42	3883
2026-01-04 12:31:42.63	356.52	32.17	-39.8	-40.3	21.1	0.00e+00	0	58	0	295698432	42	3744
2026-01-04 12:31:44.61	356.03	31.87	-39.8	-40.2	21.1	0.00e+00	0	57	0	310378496	42	3733
2026-01-04 12:31:46.58	355.56	31.58	-40.1	-40.6	20.8	0.00e+00	0	58	0	325058560	42	3874
2026-01-04 12:31:48.55	355.10	31.28	-39.7	-40.1	21.2	0.00e+00	0	58	0	338690048	42	3687
2026-01-04 12:31:50.55	354.64	30.98	-39.9	-40.3	21.0	0.00e+00	0	58	0	353370112	42	3774
2026-01-04 12:31:52.53	354.19	30.68	-40.1	-40.6	20.8	0.00e+00	0	58	0	368050176	42	3884
2026-01-04 12:31:54.51	353.75	30.39	-40.4	-40.9	20.5	0.00e+00	0	58	0	381681664	42	4007
2026-01-04 12:31:56.48	353.32	30.10	-40.4	-40.9	20.4	0.00e+00	0	58	0	396361728	42	4014
2026-01-04 12:31:58.44	352.90	29.81	-40.1	-40.6	20.7	0.00e+00	0	58	0	409993216	42	3891
2026-01-04 12:32:00.42	352.48	29.52	-40.2	-40.7	20.6	0.00e+00	0	58	0	424673280	42	3936
2026-01-04 12:32:02.40	352.07	29.23	-40.6	-41.1	20.2	0.00e+00	0	58	0	439353344	42	4130
2026-01-04 12:32:04.36	351.67	28.94	-40.6	-41.1	20.2	0.00e+00	0	58	0	452984832	43	3890
2026-01-04 12:32:06.34	351.28	28.65	-40.4	-40.9	20.4	0.00e+00	0	58	0	467664896	43	3786
2026-01-04 12:32:08.32	350.89	28.37	-40.5	-41.0	20.2	0.00e+00	0	58	0	481296384	43	3863
2026-01-04 12:32:10.30	350.51	28.08	-40.6	-41.2	20.0	0.00e+00	0	58	0	495976448	43	3922
2026-01-04 12:32:12.28	350.14	27.80	-40.6	-41.1	20.0	0.00e+00	0	58	0	509607936	43	3896
2026-01-04 12:32:14.26	349.77	27.52	-41.4	-42.0	19.4	0.00e+00	0	57	0	524288000	44	4057
2026-01-04 12:32:16.25	349.41	27.24	-41.1	-41.6	19.8	0.00e+00	0	58	0	538968064	44	3882
2026-01-04 12:32:18.22	349.06	26.96	-41.1	-41.7	19.7	0.00e+00	0	58	0	552599552	44	3926
2026-01-04 12:32:20.21	348.71	26.68	-41.1	-41.6	19.8	0.00e+00	0	58	0	567279616	44	3898
2026-01-04 12:32:22.19	348.36	26.41	-40.7	-41.2	20.2	0.00e+00	0	57	0	581959680	44	3718
2026-01-04 12:32:24.18	348.03	26.13	-40.3	-40.8	20.4	0.00e+00	0	58	0	595591168	43	3755
2026-01-04 12:32:26.16	347.70	25.86	-40.5	-41.0	20.2	0.00e+00	0	58	0	610271232	43	3844
2026-01-04 12:32:28.14	347.37	25.59	-41.0	-41.6	19.6	0.00e+00	0	58	0	624951296	43	4130
2026-01-04 12:32:30.11	347.05	25.32	-41.3	-41.9	19.4	0.00e+00	0	58	0	638582784	44	4015
2026-01-04 12:32:32.09	346.74	25.06	-40.7	-41.2	20.1	0.00e+00	0	58	0	653262848	44	3736
2026-01-04 12:32:34.07	346.43	24.79	-40.5	-41.1	20.3	0.00e+00	0	58	0	667942912	44	3654
2026-01-04 12:32:36.06	346.13	24.53	-40.4	-40.9	20.3	0.00e+00	0	58	0	681574400	43	3793
2026-01-04 12:32:38.05	345.83	24.26	-40.3	-40.8	20.4	0.00e+00	0	58	0	696254464	43	3758
2026-01-04 12:32:40.03	345.54	24.01	-40.2	-40.7	20.5	0.00e+00	0	57	0	710934528	43	3700
2026-01-04 12:32:42.00	345.25	23.75	-40.1	-40.6	20.6	0.00e+00	0	58	0	724566016	43	3684
2026-01-04 12:32:43.98	344.97	23.49	-40.0	-40.5	20.7	0.00e+00	0	58	0	739246080	42	3839
2026-01-04 12:32:45.96	344.69	23.24	-40.0	-40.5	20.7	0.00e+00	0	58	0	752877568	42	3847
2026-01-04 12:32:47.93	344.42	22.99	-40.1	-40.6	20.6	0.00e+00	0	58	0	767557632	42	3888
2026-01-04 12:32:49.92	344.15	22.74	-40.6	-41.1	20.1	0.00e+00	0	58	0	782237696	42	4119
2026-01-04 12:32:51.90	343.88	22.49	-40.7	-41.2	20.0	0.00e+00	0	58	0	795869184	43	3925
2026-01-04 12:32:53.87	343.62	22.24	-40.9	-41.5	19.7	0.00e+00	0	58	0	810549248	43	4052
2026-01-04 12:32:55.85	343.37	21.99	-41.4	-42.0	19.3	0.00e+00	0	58	0	825229312	44	4066
2026-01-04 12:32:57.83	343.11	21.75	-40.9	-41.4	19.9	0.00e+00	0	58	0	838860800	44	3816
2026-01-04 12:32:59.80	342.87	21.51	-41.2	-41.8	19.5	0.00e+00	0	58	0	853540864	44	3964
2026-01-04 12:33:01.78	342.62	21.27	-41.0	-41.6	19.6	0.00e+00	0	58	0	867172352	44	3890
2026-01-04 12:33:03.76	342.38	21.03	-41.6	-42.2	19.0	0.00e+00	0	58	0	881852416	44	4170
2026-01-04 12:33:05.74	342.15	20.79	-41.5	-42.1	18.9	0.00e+00	0	58	0	896532480	44	4099
2026-01-04 12:33:07.71	341.91	20.56	-41.1	-41.6	19.2	0.00e+00	0	58	0	910163968	44	3903
2026-01-04 12:33:09.68	341.69	20.33	-41.4	-42.0	18.7	0.00e+00	0	58	0	924844032	44	4094
2026-01-04 12:33:11.64	341.46	20.10	-41.9	-42.6	18.0	0.00e+00	0	58	0	938475520	45	4100
2026-01-04 12:33:13.63	341.24	19.87	-42.8	-43.6	16.8	0.00e+00	0	58	0	953155584	47	4123
2026-01-04 12:33:15.61	341.02	19.64	-43.9	-44.8	15.8	0.00e+00	0	58	0	967835648	49	4237
2026-01-04 12:33:17.59	340.81	19.41	-44.8	-45.9	14.7	1.10e-06	0	58	0	981467136	51	4261
2026-01-04 12:33:19.57	340.59	19.19	-45.2	-46.5	14.1	3.40e-06	0	58	0	996147200	52	4304
2026-01-04 12:33:21.54	340.38	18.96	-45.5	-46.8	13.9	3.40e-06	0	58	0	1009778688	53	4204
2026-01-04 12:33:23.52	340.18	18.74	-46.6	-48.2	12.5	6.86e-05	0	58	0	1024458752	55	4435
2026-01-04 12:33:25.50	339.98	18.52	-43.8	-44.8	16.1	0.00e+00	0	58	0	1039138816	50	3963
2026-01-04 12:33:27.49	339.78	18.30	-44.1	-45.0	15.8	0.00e+00	0	58	0	1052770304	50	4084
2026-01-04 12:33:29.47	339.58	18.08	-44.9	-46.0	14.8	0.00e+00	0	57	0	1067450368	51	4335
2026-01-04 12:33:31.44	339.39	17.87	-47.2	-49.1	11.6	1.59e-04	0	58	0	1081081856	55	4883
2026-01-04 12:33:33.41	339.19	17.66	-50.5	-55.7	5.5	3.70e-01	0	58	0	1095761920	62	6962
2026-01-04 12:33:35.40	339.01	17.44	-51.1	-57.5	4.5	8.20e-01	0	58	0	1095761920	63	8109
2026-01-04 12:33:37.38	338.82	17.23	-51.3	-58.1	4.3	8.31e-01	0	58	0	1095761920	64	8220
2026-01-04 12:33:39.35	338.64	17.02	-51.2	-57.5	4.6	8.21e-01	0	58	0	1095761920	64	7706
2026-01-04 12:33:41.33	338.46	16.81	-50.9	-56.6	5.1	7.94e-01	0	58	0	1096810496	64	6950
2026-01-04 12:33:43.31	338.28	16.61	-50.2	-54.2	6.9	1.57e-01	0	58	0	1108344832	63	5572
2026-01-04 12:33:45.30	338.10	16.40	-49.2	-52.1	8.8	3.06e-02	0	58	0	1121976320	61	4918
2026-01-04 12:33:47.29	337.93	16.19	-48.3	-50.4	10.7	3.08e-03	0	58	0	1136656384	59	4534
2026-01-04 12:33:49.27	337.76	15.99	-47.5	-49.4	11.7	5.49e-04	0	58	0	1150287872	57	4501
2026-01-04 12:33:51.25	337.59	15.79	-46.4	-47.9	13.2	3.66e-05	0	58	0	1164967936	55	4276
2026-01-04 12:33:53.24	337.42	15.59	-46.1	-47.4	13.7	9.10e-06	0	58	0	1179648000	54	4260
2026-01-04 12:33:55.22	337.26	15.39	-45.7	-47.0	14.2	2.20e-06	0	58	0	1193279488	54	4054
2026-01-04 12:33:57.20	337.10	15.19	-45.6	-46.8	14.4	1.10e-06	0	58	0	1207959552	54	3992
2026-01-04 12:33:59.18	336.94	15.00	-44.4	-45.3	15.9	0.00e+00	0	58	0	1222639616	51	4000
2026-01-04 12:34:01.17	336.78	14.80	-43.4	-44.2	17.1	0.00e+00	0	58	0	1236271104	49	3948
2026-01-04 12:34:03.15	336.63	14.61	-42.8	-43.5	17.7	0.00e+00	0	58	0	1250951168	48	3853
2026-01-04 12:34:05.13	336.48	14.42	-42.6	-43.3	18.0	0.00e+00	0	58	0	1265631232	48	3751
2026-01-04 12:34:07.10	336.33	14.23	-42.6	-43.3	18.0	0.00e+00	0	58	0	1279262720	48	3769
2026-01-04 12:34:09.09	336.18	14.04	-42.8	-43.5	17.8	0.00e+00	0	58	0	1293942784	48	3867
2026-01-04 12:34:11.07	336.03	13.85	-42.9	-43.6	17.8	0.00e+00	0	58	0	1308622848	48	3878
2026-01-04 12:34:13.06	335.89	13.66	-42.9	-43.6	17.7	0.00e+00	0	57	0	1322254336	48	3887
2026-01-04 12:34:15.05	335.74	13.48	-42.9	-43.6	17.7	0.00e+00	0	58	0	1336934400	48	3910
2026-01-04 12:34:17.03	335.60	13.29	-43.0	-43.7	17.6	0.00e+00	0	58	0	1351614464	48	3918
2026-01-04 12:34:19.02	335.46	13.11	-43.3	-44.1	17.2	0.00e+00	0	58	0	1365245952	48	4102
2026-01-04 12:34:21.00	335.32	12.93	-43.4	-44.2	17.1	0.00e+00	0	58	0	1379926016	48	4174
2026-01-04 12:34:22.98	335.19	12.75	-43.6	-44.4	16.9	0.00e+00	0	58	0	1393557504	48	4258
2026-01-04 12:34:24.96	335.06	12.57	-43.6	-44.4	16.8	0.00e+00	0	58	0	1408237568	48	4279
2026-01-04 12:34:26.94	334.92	12.39	-43.7	-44.5	16.8	0.00e+00	0	58	0	1422917632	49	4081
2026-01-04 12:34:28.92	334.79	12.21	-44.0	-44.9	16.4	0.00e+00	0	58	0	1436549120	50	4026
2026-01-04 12:34:30.89	334.66	12.04	-43.5	-44.3	17.0	0.00e+00	0	58	0	1451229184	50	3751
2026-01-04 12:34:32.86	334.54	11.86	-43.5	-44.3	17.0	0.00e+00	0	58	0	1465909248	49	3978
2026-01-04 12:34:34.85	334.41	11.69	-43.7	-44.5	16.7	0.00e+00	0	58	0	1479540736	49	4075
2026-01-04 12:34:36.82	334.29	11.52	-44.2	-45.0	16.2	0.00e+00	0	58	0	1494220800	49	4337
2026-01-04 12:34:38.80	334.17	11.35	-44.2	-45.0	16.2	0.00e+00	0	58	0	1508900864	50	4097
2026-01-04 12:34:40.78	334.05	11.18	-44.2	-45.1	16.2	0.00e+00	0	57	0	1522532352	50	4115
2026-01-04 12:34:42.75	333.93	11.01	-44.5	-45.4	15.8	0.00e+00	0	58	0	1537212416	51	4037
2026-01-04 12:34:44.74	333.81	10.84	-45.0	-46.0	15.2	0.00e+00	0	58	0	1550843904	51	4338
2026-01-04 12:34:46.72	333.69	10.67	-44.7	-45.8	15.4	0.00e+00	0	58	0	1565523968	52	3963
2026-01-04 12:34:48.70	333.58	10.50	-44.6	-45.6	15.5	0.00e+00	0	58	0	1580204032	52	3892
2026-01-04 12:34:50.67	333.46	10.34	-44.7	-45.7	15.4	0.00e+00	0	58	0	1593835520	52	3949
2026-01-04 12:34:52.65	333.35	10.17	-45.0	-46.0	15.1	0.00e+00	0	58	0	1608515584	52	4088
2026-01-04 12:34:54.63	333.24	10.01	-44.6	-45.6	15.5	0.00e+00	0	58	0	1622147072	52	3903
2026-01-04 12:34:56.62	333.13	9.85	-44.2	-45.2	16.0	0.00e+00	0	58	0	1636827136	51	3918
2026-01-04 12:34:58.60	333.02	9.69	-44.2	-45.1	16.1	0.00e+00	0	58	0	1651507200	51	3873
2026-01-04 12:35:00.59	332.91	9.52	-44.3	-45.2	16.0	0.00e+00	0	58	0	1665138688	51	3928
2026-01-04 12:35:02.56	332.81	9.36	-44.2	-45.1	16.0	0.00e+00	0	58	0	1679818752	51	3898
2026-01-04 12:35:04.53	332.70	9.21	-44.3	-45.3	15.9	0.00e+00	0	58	0	1694498816	51	3961
2026-01-04 12:35:06.52	332.60	9.05	-44.5	-45.5	15.7	0.00e+00	0	58	0	1708130304	51	4060
2026-01-04 12:35:08.51	332.50	8.89	-44.6	-45.5	15.6	0.00e+00	0	58	0	1722810368	51	4093
2026-01-04 12:35:10.49	332.40	8.73	-44.4	-45.4	15.7	0.00e+00	0	58	0	1737490432	51	4032
2026-01-04 12:35:12.48	332.30	8.58	-44.4	-45.3	15.8	0.00e+00	0	58	0	1751121920	51	3987
2026-01-04 12:35:14.46	332.20	8.42	-44.4	-45.4	15.6	0.00e+00	0	58	0	1765801984	51	4005
2026-01-04 12:35:16.44	332.10	8.27	-44.3	-45.3	15.9	0.00e+00	0	58	0	1780482048	51	3968
2026-01-04 12:35:18.43	332.00	8.12	-44.2	-45.1	16.0	0.00e+00	0	58	0	1794113536	51	3907
2026-01-04 12:35:20.41	331.91	7.97	-44.3	-45.2	15.9	0.00e+00	0	58	0	1808793600	51	3942
2026-01-04 12:35:22.40	331.81	7.81	-44.3	-45.2	15.9	0.00e+00	0	58	0	1823473664	51	3952
2026-01-04 12:35:24.38	331.72	7.66	-44.3	-45.2	15.9	0.00e+00	0	58	0	1837105152	51	3937
2026-01-04 12:35:26.35	331.63	7.51	-44.3	-45.3	15.8	0.00e+00	0	58	0	1851785216	51	3989
2026-01-04 12:35:28.33	331.54	7.37	-44.4	-45.4	15.7	0.00e+00	0	58	0	1865416704	51	4029
2026-01-04 12:35:30.29	331.45	7.22	-44.3	-45.3	15.8	0.00e+00	0	58	0	1880096768	51	3960
2026-01-04 12:35:32.27	331.36	7.07	-44.3	-45.3	15.8	0.00e+00	0	58	0	1894776832	51	3970
2026-01-04 12:35:34.26	331.27	6.93	-44.8	-45.9	15.2	0.00e+00	0	58	0	1908408320	51	4246
2026-01-04 12:35:36.24	331.18	6.78	-44.7	-45.7	15.3	0.00e+00	0	58	0	1923088384	51	4181
2026-01-04 12:35:38.22	331.09	6.63	-44.8	-45.8	15.2	0.00e+00	0	58	0	1937768448	51	4234
2026-01-04 12:35:40.20	331.01	6.49	-45.1	-46.2	14.7	0.00e+00	0	58	0	1951399936	51	4432
2026-01-04 12:35:42.18	330.92	6.35	-45.1	-46.3	14.6	0.00e+00	0	58	0	1966080000	52	4200
2026-01-04 12:35:44.15	330.84	6.21	-45.2	-46.4	14.5	1.10e-06	0	58	0	1979711488	52	4249
2026-01-04 12:35:46.14	330.76	6.06	-45.6	-46.9	13.9	1.10e-06	0	58	0	1994391552	52	4497
2026-01-04 12:35:48.12	330.68	5.92	-45.4	-46.6	14.2	1.10e-06	0	58	0	2009071616	52	4388
2026-01-04 12:35:50.11	330.60	5.78	-45.6	-46.9	13.9	3.40e-06	0	58	0	2022703104	53	4258
2026-01-04 12:35:52.10	330.51	5.64	-45.5	-46.7	14.1	1.10e-06	0	58	0	2037383168	53	4173
2026-01-04 12:35:54.09	330.43	5.50	-45.8	-47.1	13.7	6.80e-06	0	58	0	2052063232	53	4390
2026-01-04 12:35:56.07	330.36	5.36	-45.3	-46.5	14.3	1.10e-06	0	58	0	2065694720	53	4071
2026-01-04 12:35:58.05	330.28	5.22	-44.9	-46.1	14.7	0.00e+00	0	58	0	2080374784	52	4120
2026-01-04 12:36:00.03	330.20	5.09	-45.5	-46.7	14.0	0.00e+00	0	57	0	2095054848	52	4429
2026-01-04 12:36:02.01	330.13	4.95	-51.5	-61.6	3.8	8.46e-01	0	58	104	2102394880	64	12375
2026-01-04 12:36:03.98	330.05	4.82	-48.1	-58.2	3.8	8.45e-01	0	58	104	2102394880	58	11802
2026-01-04 12:36:05.97	329.98	4.68	-52.4	-62.6	3.8	8.46e-01	0	58	104	2102394880	66	12276
2026-01-04 12:36:07.96	329.90	4.54	-52.4	-62.7	3.8	8.46e-01	0	58	104	2102394880	66	12451
2026-01-04 12:36:09.94	329.83	4.41	-52.5	-62.8	3.8	8.46e-01	0	58	104	2102394880	66	12544
2026-01-04 12:36:11.92	329.76	4.28	-52.5	-62.8	3.8	8.46e-01	0	58	104	2102394880	66	12663
2026-01-04 12:36:13.90	329.68	4.14	-52.6	-62.9	3.8	8.46e-01	0	58	104	2102394880	67	11973
2026-01-04 12:36:15.88	329.61	4.01	-52.6	-62.9	3.8	8.45e-01	0	58	104	2102394880	67	12010
2026-01-04 12:36:17.85	329.54	3.88	-52.7	-62.9	3.8	8.47e-01	0	58	104	2102394880	67	12054
2026-01-04 12:36:19.82	329.48	3.75	-52.7	-62.9	3.8	8.46e-01	0	58	104	2102394880	67	12089
2026-01-04 12:36:21.79	329.41	3.62	-52.7	-63.0	3.8	8.47e-01	0	58	104	2102394880	67	12119
2026-01-04 12:36:23.78	329.34	3.49	-52.6	-62.9	3.8	8.47e-01	0	58	104	2102394880	67	12090
2026-01-04 12:36:25.77	329.27	3.36	-52.8	-63.0	3.8	8.45e-01	0	58	104	2102394880	67	12161
2026-01-04 12:36:27.74	329.20	3.23	-52.8	-62.9	3.8	8.45e-01	0	58	104	2102394880	67	12048
2026-01-04 12:36:29.71	329.14	3.11	-52.6	-62.9	3.8	8.46e-01	0	58	104	2102394880	67	12072
2026-01-04 12:36:31.69	329.07	2.98	-52.7	-62.9	3.8	8.46e-01	0	58	104	2102394880	67	12091

#Closed at: 2026-01-04 12:36:33
#Recorded file [2102 MB]: D:/Data/31026_260104_153601.dat