passes_logs/2026/01/04/R3.0SM8_Murmansk_STILSPACE/R3.0SM8_Murmansk_STILSPACE__20260104_061622_SUOMI_NPP_rec.log

#Pass ID: 20260104_061622_SUOMI NPP
#Satellite: SUOMI NPP
#Configuration: NPP
#almurnet v.1.7.20240730
#Start time: 2026-01-04 06:16:22

#Version: 2.2.20231116
#Station: R3.0SM8_Murmansk_STILSPACE
#Location: 33.092731 lon 68.902999 lat
#TLE: 1 37849U 11061A   26001.07732418  .00000182  00000+0  10735-3 0  9990
#TLE: 2 37849  98.7795 303.2470 0002580  87.2016 272.9455 14.19520779734739

#Time	Az	El	Level	Level2	SNR	BER	BlckErr	Temp	State	Recorded	gain1	gain2
2026-01-04 06:16:22.04	78.44	2.98	-52.4	-66.1	3.8	1.49e+00	0	45	0	0	66	18688
2026-01-04 06:16:25.01	78.25	3.15	-52.1	-65.9	3.8	1.49e+00	0	46	104	0	67	17180
2026-01-04 06:16:27.97	78.05	3.33	-51.8	-65.6	3.8	1.49e+00	0	46	104	0	66	17648
2026-01-04 06:16:30.93	77.86	3.51	-51.5	-65.3	3.8	1.49e+00	0	46	104	0	66	16895
2026-01-04 06:16:33.91	77.66	3.69	-51.5	-65.2	3.8	1.49e+00	0	46	104	0	65	17836
2026-01-04 06:16:36.88	77.46	3.87	-51.4	-65.2	3.8	1.49e+00	0	47	104	0	65	17846
2026-01-04 06:16:39.85	77.26	4.05	-51.4	-65.3	3.8	1.49e+00	0	47	104	0	65	17893
2026-01-04 06:16:42.84	77.05	4.23	-51.5	-65.2	3.8	1.49e+00	0	47	104	0	65	17703
2026-01-04 06:16:45.80	76.84	4.41	-51.5	-64.6	3.8	1.49e+00	0	47	104	0	65	16631
2026-01-04 06:16:48.77	76.63	4.59	-51.3	-63.0	3.8	1.49e+00	0	47	104	0	65	13806
2026-01-04 06:16:51.75	76.42	4.78	-51.1	-60.9	4.4	1.28e+00	0	48	0	0	65	10878
2026-01-04 06:16:54.71	76.20	4.96	-50.9	-59.1	5.4	6.57e-01	0	48	0	5242880	64	9302
2026-01-04 06:16:57.69	75.98	5.15	-50.8	-58.6	5.8	3.74e-01	0	48	0	11534336	64	8768
2026-01-04 06:17:00.66	75.76	5.33	-50.7	-57.8	6.4	2.63e-01	0	48	0	16777216	64	8010
2026-01-04 06:17:03.64	75.54	5.52	-50.8	-58.4	5.9	2.91e-01	0	48	0	22020096	64	8566
2026-01-04 06:17:06.62	75.31	5.71	-50.4	-56.4	7.7	1.05e-01	0	49	0	28311552	63	7287
2026-01-04 06:17:09.58	75.08	5.90	-49.8	-54.5	9.6	1.46e-02	0	49	0	33554432	62	6148
2026-01-04 06:17:12.54	74.84	6.09	-49.2	-53.2	11.0	3.00e-03	0	49	0	38797312	61	5631
2026-01-04 06:17:15.50	74.60	6.28	-48.8	-52.4	11.8	4.20e-04	0	49	0	45088768	60	5454
2026-01-04 06:17:18.44	74.37	6.47	-49.0	-52.7	11.5	8.08e-04	0	49	0	50331648	60	5614
2026-01-04 06:17:21.42	74.12	6.66	-49.0	-52.5	11.7	3.61e-04	0	49	0	55574528	60	5516
2026-01-04 06:17:24.38	73.87	6.86	-49.1	-52.9	11.4	6.78e-04	0	50	0	60817408	60	5744
2026-01-04 06:17:27.36	73.62	7.05	-48.9	-52.5	11.8	5.33e-04	0	50	0	67108864	60	5508
2026-01-04 06:17:30.32	73.37	7.25	-48.5	-51.7	12.6	1.07e-04	0	50	0	72351744	60	4988
2026-01-04 06:17:33.29	73.11	7.44	-48.5	-51.6	12.8	4.11e-05	0	50	0	77594624	59	5223
2026-01-04 06:17:36.26	72.85	7.64	-48.7	-51.8	12.6	7.78e-05	0	50	0	83886080	59	5362
2026-01-04 06:17:39.24	72.58	7.84	-48.7	-51.9	12.5	2.02e-04	0	50	0	89128960	59	5432
2026-01-04 06:17:42.20	72.31	8.04	-48.9	-52.1	12.2	2.69e-04	0	51	0	94371840	59	5573
2026-01-04 06:17:45.18	72.04	8.24	-48.9	-52.2	12.3	2.37e-04	0	51	0	100663296	59	5594
2026-01-04 06:17:48.15	71.76	8.44	-49.1	-52.8	11.7	6.05e-04	0	51	0	105906176	60	5661
2026-01-04 06:17:51.10	71.48	8.64	-48.9	-52.4	12.0	2.38e-04	0	51	0	111149056	60	5441
2026-01-04 06:17:54.07	71.20	8.85	-48.7	-52.0	12.5	1.38e-04	0	51	0	116391936	60	5172
2026-01-04 06:17:57.04	70.91	9.05	-48.8	-52.1	12.4	2.08e-04	0	51	0	122683392	60	5226
2026-01-04 06:18:00.00	70.61	9.26	-49.0	-52.5	12.0	2.69e-04	0	51	0	127926272	60	5492
2026-01-04 06:18:02.93	70.32	9.46	-49.0	-52.5	12.0	6.03e-04	0	51	0	133169152	60	5501
2026-01-04 06:18:05.90	70.02	9.67	-48.7	-51.8	12.7	1.07e-04	0	51	0	139460608	60	5072
2026-01-04 06:18:08.87	69.71	9.88	-48.8	-52.0	12.6	8.62e-05	0	51	0	144703488	60	5169
2026-01-04 06:18:11.84	69.40	10.08	-48.7	-51.8	12.7	1.08e-04	0	52	0	149946368	60	5098
2026-01-04 06:18:14.83	69.08	10.30	-48.3	-51.2	13.4	7.60e-06	0	52	0	156237824	59	4984
2026-01-04 06:18:17.78	68.76	10.51	-48.3	-51.1	13.5	1.06e-05	0	52	0	161480704	59	4933
2026-01-04 06:18:20.75	68.44	10.72	-48.3	-51.0	13.5	5.30e-06	0	52	0	166723584	59	4925
2026-01-04 06:18:23.72	68.11	10.93	-48.4	-51.2	13.4	5.30e-06	0	52	0	173015040	59	5016
2026-01-04 06:18:26.69	67.77	11.14	-48.5	-51.4	13.2	2.67e-05	0	52	0	178257920	59	5115
2026-01-04 06:18:29.65	67.43	11.36	-48.6	-51.5	13.1	2.44e-05	0	52	0	183500800	59	5206
2026-01-04 06:18:32.61	67.09	11.57	-48.8	-51.8	12.9	3.43e-05	0	52	0	188743680	59	5357
2026-01-04 06:18:35.59	66.73	11.79	-48.8	-51.7	12.9	8.54e-05	0	53	0	195035136	59	5322
2026-01-04 06:18:38.56	66.38	12.01	-48.8	-52.0	12.6	1.40e-04	0	53	0	200278016	60	5205
2026-01-04 06:18:41.53	66.02	12.22	-48.5	-51.2	13.4	1.37e-05	0	53	0	205520896	59	5041
2026-01-04 06:18:44.50	65.65	12.44	-48.3	-51.0	13.7	3.80e-06	0	53	0	211812352	59	4872
2026-01-04 06:18:47.47	65.28	12.66	-48.0	-50.5	14.2	7.00e-07	0	53	0	217055232	59	4628
2026-01-04 06:18:50.44	64.90	12.88	-47.8	-50.1	14.6	7.00e-07	0	53	0	222298112	58	4683
2026-01-04 06:18:53.41	64.51	13.10	-47.7	-49.9	14.7	0.00e+00	0	53	0	228589568	58	4598
2026-01-04 06:18:56.38	64.12	13.32	-47.7	-50.0	14.7	7.00e-07	0	53	0	233832448	58	4626
2026-01-04 06:18:59.34	63.73	13.55	-47.7	-50.0	14.7	0.00e+00	0	53	0	239075328	58	4641
2026-01-04 06:19:02.31	63.33	13.77	-47.9	-50.3	14.5	0.00e+00	0	53	0	245366784	58	4772
2026-01-04 06:19:05.29	62.92	13.99	-47.7	-50.0	14.7	0.00e+00	0	53	0	250609664	58	4619
2026-01-04 06:19:08.26	62.50	14.22	-47.7	-50.0	14.7	0.00e+00	0	53	0	255852544	58	4628
2026-01-04 06:19:11.24	62.08	14.44	-47.5	-49.7	15.0	0.00e+00	0	53	0	261095424	58	4456
2026-01-04 06:19:14.21	61.65	14.67	-47.5	-49.6	15.1	0.00e+00	0	53	0	267386880	57	4681
2026-01-04 06:19:17.17	61.22	14.89	-47.4	-49.6	15.1	0.00e+00	0	54	0	272629760	57	4684
2026-01-04 06:19:20.14	60.78	15.12	-47.4	-49.6	15.2	0.00e+00	0	54	0	277872640	57	4652
2026-01-04 06:19:23.10	60.33	15.34	-47.5	-49.7	15.0	0.00e+00	0	54	0	284164096	57	4756
2026-01-04 06:19:26.06	59.88	15.57	-48.0	-50.6	14.2	7.00e-07	0	54	0	289406976	57	5241
2026-01-04 06:19:29.03	59.41	15.80	-48.1	-50.6	14.1	1.50e-06	0	54	0	294649856	58	4979
2026-01-04 06:19:32.00	58.95	16.02	-48.1	-50.7	14.1	4.50e-06	0	54	0	300941312	58	5010
2026-01-04 06:19:34.97	58.47	16.25	-48.2	-50.7	14.0	3.00e-06	0	54	0	306184192	58	5036
2026-01-04 06:19:37.93	57.99	16.48	-48.1	-50.6	14.2	2.20e-06	0	54	0	311427072	58	4970
2026-01-04 06:19:40.89	57.50	16.70	-48.5	-51.3	13.5	5.30e-06	0	54	0	317718528	58	5347
2026-01-04 06:19:43.86	57.00	16.93	-48.5	-51.2	13.7	5.30e-06	0	54	0	322961408	58	5314
2026-01-04 06:19:46.81	56.49	17.16	-48.3	-50.9	14.0	3.80e-06	0	54	0	328204288	58	5130
2026-01-04 06:19:49.79	55.98	17.38	-47.6	-49.9	14.9	0.00e+00	0	54	0	333447168	58	4564
2026-01-04 06:19:52.75	55.46	17.61	-47.7	-50.0	14.8	7.00e-07	0	54	0	339738624	58	4620
2026-01-04 06:19:55.73	54.92	17.83	-48.0	-50.4	14.4	7.00e-07	0	54	0	344981504	58	4864
2026-01-04 06:19:58.71	54.38	18.06	-47.9	-50.3	14.5	7.00e-07	0	54	0	350224384	58	4804
2026-01-04 06:20:01.68	53.84	18.28	-47.8	-50.2	14.7	0.00e+00	0	54	0	356515840	58	4713
2026-01-04 06:20:04.66	53.28	18.51	-47.8	-50.0	14.8	7.00e-07	0	54	0	361758720	58	4644
2026-01-04 06:20:07.63	52.72	18.73	-47.8	-50.0	14.9	7.00e-07	0	54	0	367001600	58	4628
2026-01-04 06:20:10.60	52.15	18.95	-47.9	-50.4	14.5	0.00e+00	0	54	0	373293056	58	4828
2026-01-04 06:20:13.56	51.57	19.17	-47.7	-50.0	14.9	0.00e+00	0	55	0	378535936	58	4608
2026-01-04 06:20:16.54	50.98	19.40	-47.5	-49.6	15.3	0.00e+00	0	55	0	383778816	58	4413
2026-01-04 06:20:19.52	50.38	19.61	-47.4	-49.5	15.3	7.00e-07	0	55	0	390070272	57	4638
2026-01-04 06:20:22.48	49.77	19.83	-47.5	-49.6	15.2	0.00e+00	0	55	0	395313152	57	4694
2026-01-04 06:20:25.45	49.16	20.05	-47.2	-49.2	15.6	0.00e+00	0	55	0	400556032	57	4470
2026-01-04 06:20:28.41	48.54	20.26	-46.7	-48.6	16.3	0.00e+00	0	55	0	405798912	56	4407
2026-01-04 06:20:31.37	47.91	20.47	-46.7	-48.4	16.4	0.00e+00	0	55	0	412090368	56	4319
2026-01-04 06:20:34.34	47.27	20.68	-46.3	-47.9	16.8	0.00e+00	0	55	0	417333248	55	4335
2026-01-04 06:20:37.30	46.62	20.89	-46.6	-48.4	16.3	0.00e+00	0	55	0	422576128	55	4556
2026-01-04 06:20:40.28	45.96	21.10	-46.4	-48.1	16.6	0.00e+00	0	55	0	428867584	55	4404
2026-01-04 06:20:43.24	45.29	21.30	-46.8	-48.6	16.1	0.00e+00	0	55	0	434110464	55	4692
2026-01-04 06:20:46.20	44.62	21.50	-46.6	-48.4	16.3	0.00e+00	0	55	0	439353344	55	4581
2026-01-04 06:20:49.16	43.94	21.70	-46.9	-48.8	15.9	0.00e+00	0	55	0	445644800	55	4807
2026-01-04 06:20:52.12	43.24	21.89	-46.2	-47.8	16.9	0.00e+00	0	55	0	450887680	55	4253
2026-01-04 06:20:55.08	42.54	22.08	-46.3	-47.9	16.9	0.00e+00	0	55	0	456130560	55	4297
2026-01-04 06:20:58.05	41.83	22.27	-46.2	-47.7	17.0	0.00e+00	0	55	0	462422016	55	4237
2026-01-04 06:21:01.01	41.11	22.45	-46.4	-48.0	16.8	0.00e+00	0	55	0	467664896	55	4376
2026-01-04 06:21:03.98	40.39	22.64	-46.5	-48.2	16.6	0.00e+00	0	55	0	472907776	55	4453
2026-01-04 06:21:06.95	39.65	22.81	-46.6	-48.3	16.5	0.00e+00	0	55	0	478150656	55	4507
2026-01-04 06:21:09.91	38.90	22.99	-46.5	-48.2	16.6	0.00e+00	0	55	0	484442112	55	4460
2026-01-04 06:21:12.88	38.15	23.16	-46.3	-48.0	16.8	0.00e+00	0	55	0	489684992	55	4365
2026-01-04 06:21:15.85	37.39	23.32	-46.3	-47.9	16.9	0.00e+00	0	55	0	494927872	55	4310
2026-01-04 06:21:18.82	36.62	23.48	-46.1	-47.7	17.1	0.00e+00	0	55	0	501219328	54	4460
2026-01-04 06:21:21.80	35.84	23.64	-45.9	-47.4	17.4	0.00e+00	0	55	0	506462208	54	4306
2026-01-04 06:21:24.78	35.05	23.79	-46.0	-47.5	17.3	0.00e+00	0	55	0	511705088	54	4359
2026-01-04 06:21:27.74	34.26	23.94	-45.9	-47.3	17.5	0.00e+00	0	55	0	517996544	54	4285
2026-01-04 06:21:30.70	33.46	24.08	-45.9	-47.4	17.4	0.00e+00	0	56	0	523239424	54	4323
2026-01-04 06:21:33.67	32.65	24.21	-46.3	-47.8	17.0	0.00e+00	0	56	0	528482304	54	4534
2026-01-04 06:21:36.63	31.84	24.34	-45.5	-46.9	17.8	0.00e+00	0	56	0	533725184	54	4071
2026-01-04 06:21:39.60	31.02	24.47	-46.2	-47.7	17.1	0.00e+00	0	56	0	540016640	54	4458
2026-01-04 06:21:42.57	30.19	24.59	-46.6	-48.3	16.5	0.00e+00	0	56	0	545259520	55	4520
2026-01-04 06:21:45.54	29.36	24.70	-47.7	-49.8	15.2	0.00e+00	0	56	0	550502400	57	4770
2026-01-04 06:21:48.51	28.52	24.81	-47.8	-50.0	14.9	0.00e+00	0	56	0	556793856	57	4905
2026-01-04 06:21:51.48	27.67	24.91	-47.3	-49.3	15.7	0.00e+00	0	56	0	562036736	57	4531
2026-01-04 06:21:54.45	26.82	25.00	-47.4	-49.5	15.4	0.00e+00	0	56	0	567279616	57	4644
2026-01-04 06:21:57.43	25.96	25.09	-47.4	-49.5	15.5	0.00e+00	0	56	0	573571072	57	4606
2026-01-04 06:22:00.40	25.10	25.17	-47.5	-49.6	15.3	0.00e+00	0	56	0	578813952	57	4683
2026-01-04 06:22:03.38	24.23	25.24	-47.9	-50.3	14.7	0.00e+00	0	56	0	584056832	57	5059
2026-01-04 06:22:06.33	23.37	25.30	-48.1	-50.4	14.5	1.50e-06	0	56	0	590348288	58	4865
2026-01-04 06:22:09.30	22.50	25.36	-48.1	-50.5	14.5	0.00e+00	0	56	0	595591168	58	4879
2026-01-04 06:22:12.27	21.62	25.41	-47.8	-50.0	14.9	0.00e+00	0	56	0	600834048	58	4641
2026-01-04 06:22:15.24	20.75	25.46	-47.9	-50.2	14.8	1.50e-06	0	56	0	607125504	58	4715
2026-01-04 06:22:18.22	19.87	25.50	-48.1	-50.5	14.4	0.00e+00	0	56	0	612368384	58	4893
2026-01-04 06:22:21.19	18.98	25.53	-48.4	-51.0	14.0	7.00e-07	0	56	0	617611264	58	5202
2026-01-04 06:22:24.16	18.10	25.55	-47.7	-49.8	15.1	0.00e+00	0	56	0	622854144	58	4524
2026-01-04 06:22:27.13	17.22	25.56	-47.6	-49.6	15.3	0.00e+00	0	56	0	629145600	58	4430
2026-01-04 06:22:30.09	16.34	25.57	-48.1	-50.5	14.4	0.00e+00	0	56	0	634388480	58	4921
2026-01-04 06:22:33.07	15.45	25.57	-48.7	-51.7	13.2	2.05e-05	0	56	0	639631360	59	5284
2026-01-04 06:22:36.05	14.56	25.56	-48.5	-51.5	13.1	2.97e-05	0	56	0	645922816	59	5174
2026-01-04 06:22:39.01	13.68	25.55	-47.3	-49.6	14.7	0.00e+00	0	56	0	651165696	57	4671
2026-01-04 06:22:41.98	12.80	25.53	-47.3	-49.6	14.4	7.00e-07	0	56	0	656408576	57	4673
2026-01-04 06:22:44.94	11.92	25.50	-47.7	-50.4	13.5	6.10e-06	0	56	0	662700032	57	5128
2026-01-04 06:22:47.92	11.04	25.46	-48.9	-53.2	10.3	2.20e-03	0	56	0	667942912	59	6307
2026-01-04 06:22:50.88	10.16	25.41	-49.3	-54.9	8.3	7.81e-02	0	56	0	673185792	60	7219
2026-01-04 06:22:53.85	9.29	25.36	-48.9	-53.0	10.7	7.41e-03	0	56	0	679477248	60	5824
2026-01-04 06:22:56.82	8.42	25.30	-48.7	-51.7	12.8	1.07e-04	0	56	0	684720128	60	4985
2026-01-04 06:22:59.79	7.55	25.24	-47.5	-49.5	15.1	0.00e+00	0	56	0	689963008	58	4383
2026-01-04 06:23:02.75	6.69	25.16	-46.6	-48.4	16.4	0.00e+00	0	56	0	695205888	56	4305
2026-01-04 06:23:05.72	5.83	25.08	-46.0	-47.5	17.1	0.00e+00	0	56	0	701497344	55	4126
2026-01-04 06:23:08.68	4.97	25.00	-47.0	-49.2	15.1	0.00e+00	0	57	0	706740224	55	5015
2026-01-04 06:23:11.65	4.12	24.90	-49.5	-55.0	8.4	2.44e-02	0	56	0	711983104	60	7315
2026-01-04 06:23:14.62	3.28	24.80	-48.5	-51.5	12.6	3.00e-04	0	56	0	718274560	59	5198
2026-01-04 06:23:17.59	2.44	24.70	-48.2	-50.6	14.4	7.00e-07	0	56	0	723517440	59	4653
2026-01-04 06:23:20.55	1.61	24.59	-47.4	-49.3	15.6	0.00e+00	0	56	0	728760320	57	4514
2026-01-04 06:23:23.52	0.78	24.47	-47.6	-49.7	15.2	0.00e+00	0	56	0	735051776	57	4737
2026-01-04 06:23:26.49	359.96	24.34	-48.2	-50.7	14.2	7.00e-07	0	57	0	740294656	58	5024
2026-01-04 06:23:29.44	359.15	24.21	-48.4	-50.9	14.0	3.00e-06	0	57	0	745537536	59	4862
2026-01-04 06:23:32.41	358.34	24.08	-48.6	-51.3	13.7	6.10e-06	0	56	0	751828992	59	5057
2026-01-04 06:23:35.39	357.54	23.94	-48.3	-50.8	14.2	1.50e-06	0	57	0	757071872	59	4770
2026-01-04 06:23:38.36	356.75	23.79	-47.8	-50.0	14.9	0.00e+00	0	57	0	762314752	58	4632
2026-01-04 06:23:41.32	355.97	23.64	-47.9	-50.2	14.7	7.00e-07	0	56	0	767557632	58	4741
2026-01-04 06:23:44.29	355.19	23.48	-48.0	-50.4	14.4	0.00e+00	0	57	0	773849088	58	4870
2026-01-04 06:23:47.25	354.42	23.32	-47.6	-49.7	15.1	0.00e+00	0	57	0	779091968	58	4489
2026-01-04 06:23:50.22	353.66	23.16	-47.4	-49.5	15.3	0.00e+00	0	57	0	784334848	58	4380
2026-01-04 06:23:53.19	352.91	22.99	-47.9	-50.3	14.6	0.00e+00	0	57	0	790626304	58	4783
2026-01-04 06:23:56.16	352.16	22.82	-48.3	-50.9	13.9	1.50e-06	0	57	0	795869184	58	5149
2026-01-04 06:23:59.13	351.42	22.64	-48.2	-50.8	14.0	1.50e-06	0	57	0	801112064	58	5062
2026-01-04 06:24:02.10	350.70	22.46	-47.9	-50.4	14.5	0.00e+00	0	57	0	807403520	58	4820
2026-01-04 06:24:05.07	349.98	22.27	-48.3	-51.1	13.8	3.80e-06	0	57	0	812646400	58	5219
2026-01-04 06:24:08.05	349.26	22.08	-48.2	-50.8	14.1	6.10e-06	0	57	0	817889280	58	5045
2026-01-04 06:24:11.03	348.56	21.89	-48.0	-50.3	14.5	0.00e+00	0	57	0	824180736	58	4798
2026-01-04 06:24:13.99	347.87	21.70	-48.0	-50.5	14.3	0.00e+00	0	56	0	829423616	58	4886
2026-01-04 06:24:16.97	347.18	21.50	-48.1	-50.6	14.1	7.00e-07	0	57	0	834666496	58	4964
2026-01-04 06:24:19.95	346.50	21.30	-47.3	-49.4	15.3	0.00e+00	0	57	0	840957952	57	4572
2026-01-04 06:24:22.91	345.84	21.09	-46.4	-48.1	16.6	0.00e+00	0	57	0	846200832	56	4159
2026-01-04 06:24:25.90	345.18	20.89	-46.6	-48.3	16.2	0.00e+00	0	57	0	851443712	55	4539
2026-01-04 06:24:28.88	344.53	20.68	-46.8	-48.7	15.8	0.00e+00	0	57	0	856686592	55	4709
2026-01-04 06:24:31.83	343.89	20.47	-47.2	-49.2	15.4	0.00e+00	0	57	0	862978048	56	4738
2026-01-04 06:24:34.80	343.26	20.26	-47.0	-49.0	15.6	0.00e+00	0	57	0	868220928	56	4637
2026-01-04 06:24:37.77	342.64	20.04	-47.3	-49.5	15.1	0.00e+00	0	57	0	873463808	56	4908
2026-01-04 06:24:40.73	342.03	19.83	-48.0	-50.6	13.9	6.10e-06	0	57	0	879755264	57	5247
2026-01-04 06:24:43.71	341.42	19.61	-48.3	-51.3	13.0	3.66e-05	0	57	0	884998144	58	5365
2026-01-04 06:24:46.69	340.82	19.39	-48.6	-52.0	12.0	3.41e-04	0	57	0	890241024	59	5525
2026-01-04 06:24:49.66	340.23	19.17	-48.7	-52.1	12.0	3.44e-04	0	57	0	896532480	59	5584
2026-01-04 06:24:52.63	339.65	18.95	-48.1	-50.8	13.4	2.74e-05	0	57	0	901775360	59	4793
2026-01-04 06:24:55.59	339.09	18.73	-47.5	-49.9	14.3	2.20e-06	0	57	0	907018240	58	4583
2026-01-04 06:24:58.57	338.52	18.51	-46.7	-48.8	15.4	0.00e+00	0	57	0	913309696	56	4515
2026-01-04 06:25:01.55	337.97	18.28	-46.6	-48.5	15.8	0.00e+00	0	57	0	918552576	55	4641
2026-01-04 06:25:04.52	337.42	18.06	-47.1	-49.1	15.5	0.00e+00	0	57	0	923795456	56	4671
2026-01-04 06:25:07.49	336.88	17.83	-47.1	-49.0	15.7	0.00e+00	0	57	0	930086912	56	4636
2026-01-04 06:25:10.48	336.35	17.61	-47.9	-50.2	14.5	0.00e+00	0	57	0	935329792	57	5028
2026-01-04 06:25:13.44	335.83	17.38	-47.9	-50.1	14.7	0.00e+00	0	57	0	940572672	57	4961
2026-01-04 06:25:16.42	335.32	17.15	-46.7	-48.4	16.4	0.00e+00	0	57	0	945815552	56	4312
2026-01-04 06:25:19.38	334.81	16.93	-46.7	-48.5	16.3	0.00e+00	0	57	0	952107008	56	4362
2026-01-04 06:25:22.36	334.31	16.70	-46.7	-48.6	16.2	0.00e+00	0	57	0	957349888	56	4401
2026-01-04 06:25:25.33	333.82	16.47	-47.1	-49.0	15.8	0.00e+00	0	57	0	962592768	56	4626
2026-01-04 06:25:28.28	333.34	16.25	-46.5	-48.1	16.6	0.00e+00	0	57	0	968884224	56	4187
2026-01-04 06:25:31.24	332.87	16.02	-46.2	-47.8	16.9	0.00e+00	0	57	0	974127104	55	4249
2026-01-04 06:25:34.22	332.40	15.80	-46.7	-48.6	16.1	0.00e+00	0	57	0	979369984	55	4661
2026-01-04 06:25:37.19	331.94	15.57	-47.5	-49.6	15.2	0.00e+00	0	57	0	985661440	56	4983
2026-01-04 06:25:40.17	331.48	15.34	-47.5	-49.6	15.2	0.00e+00	0	57	0	990904320	57	4654
2026-01-04 06:25:43.15	331.03	15.12	-46.8	-48.6	16.2	0.00e+00	0	57	0	996147200	56	4400
2026-01-04 06:25:46.11	330.60	14.89	-46.5	-48.2	16.6	0.00e+00	0	57	0	1002438656	56	4223
2026-01-04 06:25:49.08	330.16	14.67	-46.4	-48.0	16.6	0.00e+00	0	57	0	1007681536	55	4370
2026-01-04 06:25:52.05	329.74	14.44	-46.6	-48.3	16.4	0.00e+00	0	57	0	1012924416	55	4534
2026-01-04 06:25:55.02	329.32	14.22	-47.7	-49.9	14.9	0.00e+00	0	57	0	1018167296	57	4847
2026-01-04 06:25:57.98	328.90	13.99	-47.7	-49.9	14.9	0.00e+00	0	57	0	1024458752	57	4835
2026-01-04 06:26:00.95	328.50	13.77	-47.4	-49.4	15.3	0.00e+00	0	57	0	1029701632	57	4586
2026-01-04 06:26:03.91	328.10	13.55	-47.3	-49.3	15.5	0.00e+00	0	57	0	1034944512	57	4506
2026-01-04 06:26:06.87	327.70	13.33	-47.1	-49.0	15.7	0.00e+00	0	57	0	1041235968	56	4642
2026-01-04 06:26:09.83	327.31	13.11	-47.4	-49.4	15.3	0.00e+00	0	57	0	1046478848	56	4859
2026-01-04 06:26:12.79	326.93	12.89	-46.8	-48.6	16.2	0.00e+00	0	57	0	1051721728	56	4420
2026-01-04 06:26:15.76	326.55	12.67	-47.1	-49.1	15.7	0.00e+00	0	57	0	1058013184	56	4658
2026-01-04 06:26:18.74	326.18	12.45	-47.2	-49.2	15.5	0.00e+00	0	57	0	1063256064	56	4737
2026-01-04 06:26:21.72	325.81	12.23	-47.4	-49.4	15.3	0.00e+00	0	57	0	1068498944	56	4870
2026-01-04 06:26:24.68	325.45	12.01	-47.5	-49.6	15.1	7.00e-07	0	57	0	1074790400	56	4968
2026-01-04 06:26:27.65	325.10	11.79	-47.6	-49.8	14.9	0.00e+00	0	57	0	1080033280	57	4775
2026-01-04 06:26:30.61	324.75	11.58	-47.9	-50.4	14.3	0.00e+00	0	57	0	1085276160	57	5125
2026-01-04 06:26:33.57	324.41	11.36	-48.2	-50.7	14.0	4.50e-06	0	57	0	1090519040	58	4995
2026-01-04 06:26:36.55	324.07	11.15	-47.8	-50.1	14.5	0.00e+00	0	57	0	1096810496	58	4704
2026-01-04 06:26:39.51	323.73	10.94	-47.6	-49.8	14.8	0.00e+00	0	57	0	1102053376	58	4516
2026-01-04 06:26:42.48	323.40	10.72	-47.7	-49.9	14.7	0.00e+00	0	57	0	1107296256	58	4597
2026-01-04 06:26:45.46	323.08	10.51	-48.0	-50.4	14.2	7.00e-07	0	57	0	1113587712	58	4870
2026-01-04 06:26:48.42	322.76	10.30	-48.3	-51.0	13.7	6.10e-06	0	57	0	1118830592	58	5164
2026-01-04 06:26:51.40	322.44	10.09	-48.4	-51.2	13.4	6.10e-06	0	57	0	1124073472	58	5309
2026-01-04 06:26:54.36	322.13	9.88	-48.0	-50.5	14.1	0.00e+00	0	57	0	1130364928	58	4896
2026-01-04 06:26:57.33	321.83	9.68	-47.9	-50.3	14.3	2.20e-06	0	57	0	1135607808	58	4790
2026-01-04 06:27:00.30	321.53	9.47	-47.8	-50.1	14.5	0.00e+00	0	57	0	1140850688	58	4685
2026-01-04 06:27:03.27	321.23	9.26	-47.9	-50.4	14.2	1.50e-06	0	57	0	1147142144	58	4820
2026-01-04 06:27:06.23	320.94	9.06	-48.3	-51.0	13.6	6.10e-06	0	57	0	1152385024	58	5172
2026-01-04 06:27:09.21	320.65	8.85	-48.6	-51.5	13.0	2.59e-05	0	57	0	1157627904	59	5216
2026-01-04 06:27:12.17	320.37	8.65	-48.8	-52.1	12.4	1.52e-04	0	57	0	1162870784	59	5541
2026-01-04 06:27:15.15	320.08	8.45	-48.9	-52.1	12.4	1.57e-04	0	57	0	1169162240	59	5539
2026-01-04 06:27:18.11	319.81	8.25	-48.9	-52.2	12.3	1.43e-04	0	57	0	1174405120	59	5596
2026-01-04 06:27:21.07	319.54	8.05	-48.8	-52.0	12.5	1.18e-04	0	57	0	1179648000	59	5484
2026-01-04 06:27:24.03	319.27	7.85	-48.9	-52.0	12.4	1.26e-04	0	57	0	1185939456	59	5508
2026-01-04 06:27:27.00	319.01	7.65	-48.9	-52.0	12.5	1.21e-04	0	57	0	1191182336	59	5498
2026-01-04 06:27:29.97	318.74	7.45	-49.0	-52.3	12.1	3.11e-04	0	57	0	1196425216	59	5700
2026-01-04 06:27:32.94	318.49	7.26	-49.3	-53.0	11.4	8.68e-04	0	57	0	1202716672	60	5831
2026-01-04 06:27:35.90	318.23	7.06	-49.5	-53.5	10.8	1.86e-03	0	57	0	1207959552	60	6189
2026-01-04 06:27:38.87	317.98	6.87	-49.5	-53.6	10.8	2.15e-03	0	57	0	1213202432	60	6204
2026-01-04 06:27:41.82	317.74	6.68	-49.0	-52.6	11.7	8.18e-04	0	57	0	1218445312	60	5560
2026-01-04 06:27:44.80	317.49	6.48	-48.8	-52.1	12.2	2.72e-04	0	57	0	1224736768	60	5257
2026-01-04 06:27:47.78	317.25	6.29	-48.5	-51.4	12.9	7.09e-05	0	57	0	1229979648	59	5146
2026-01-04 06:27:50.75	317.02	6.10	-48.2	-51.0	13.4	6.80e-06	0	57	0	1235222528	59	4874
2026-01-04 06:27:53.72	316.78	5.91	-48.1	-50.8	13.5	7.60e-06	0	57	0	1241513984	59	4795
2026-01-04 06:27:56.69	316.55	5.72	-48.4	-51.4	12.9	3.96e-05	0	57	0	1246756864	59	5130
2026-01-04 06:27:59.66	316.32	5.53	-48.6	-51.9	12.3	1.70e-04	0	57	0	1251999744	59	5410
2026-01-04 06:28:02.62	316.10	5.35	-48.9	-52.5	11.8	3.91e-04	0	57	0	1258291200	59	5800
2026-01-04 06:28:05.58	315.88	5.16	-49.1	-53.0	11.2	1.50e-03	0	57	0	1263534080	60	5852
2026-01-04 06:28:08.56	315.66	4.97	-51.6	-65.4	3.8	1.37e+00	0	57	104	1268776960	64	19219
2026-01-04 06:28:11.51	315.45	4.79	-48.3	-62.0	3.8	1.49e+00	0	57	104	1268776960	59	17385
2026-01-04 06:28:14.48	315.23	4.61	-52.1	-66.0	3.8	1.49e+00	0	57	104	1268776960	66	18402
2026-01-04 06:28:17.44	315.02	4.42	-52.2	-66.2	3.8	1.49e+00	0	57	104	1268776960	66	18818
2026-01-04 06:28:20.41	314.82	4.24	-52.5	-66.3	3.8	1.49e+00	0	57	104	1268776960	66	18999
2026-01-04 06:28:23.36	314.61	4.06	-52.6	-66.4	3.8	1.49e+00	0	57	104	1268776960	66	19182
2026-01-04 06:28:26.33	314.41	3.88	-52.5	-66.4	3.8	1.49e+00	0	58	104	1268776960	66	19274
2026-01-04 06:28:29.28	314.21	3.70	-52.4	-66.4	3.8	1.49e+00	0	57	104	1268776960	67	18242
2026-01-04 06:28:32.24	314.02	3.53	-52.4	-66.4	3.8	1.49e+00	0	57	104	1268776960	67	18250
2026-01-04 06:28:35.20	313.82	3.35	-52.6	-66.4	3.8	1.49e+00	0	57	104	1268776960	67	18272
2026-01-04 06:28:38.16	313.63	3.17	-52.6	-66.4	3.8	1.49e+00	0	57	104	1268776960	67	18218
2026-01-04 06:28:41.11	313.44	3.00	-52.6	-66.4	3.8	1.49e+00	0	57	104	1268776960	67	18194

#Closed at: 2026-01-04 06:28:42
#Recorded file [1268 MB]: D:/Data/31026_260104_092808.dat