passes_logs/2026/01/04/R3.0SM8_Murmansk_STILSPACE/R3.0SM8_Murmansk_STILSPACE__20260104_001355_AQUA_rec.log

#Pass ID: 20260104_001355_AQUA
#Satellite: AQUA
#Configuration: AQUA
#almurnet v.1.7.20240730
#Start time: 2026-01-04 00:13:56

#Version: 2.2.20231116
#Station: R3.0SM8_Murmansk_STILSPACE
#Location: 33.092731 lon 68.902999 lat
#TLE: 1 27424U 02022A   25365.92641127  .00002078  00000+0  42628-3 0  9999
#TLE: 2 27424  98.4058 327.1196 0001962  94.7781 340.6230 14.61783896258835

#Time	Az	El	Level	Level2	SNR	BER	BlckErr	Temp	State	Recorded	gain1	gain2
2026-01-04 00:13:56.88	22.40	3.07	-54.3	-74.2	3.8	7.46e-01	0	53	0	0	70	38639
2026-01-04 00:13:59.84	22.64	3.24	-53.8	-73.6	3.8	7.43e-01	0	53	104	0	70	35944
2026-01-04 00:14:02.81	22.89	3.42	-53.4	-73.0	3.8	7.47e-01	0	53	104	0	70	33406
2026-01-04 00:14:05.77	23.13	3.60	-53.4	-72.6	3.8	7.47e-01	0	53	104	0	70	31959
2026-01-04 00:14:08.72	23.38	3.78	-53.4	-73.0	3.8	7.45e-01	0	53	104	0	70	33630
2026-01-04 00:14:11.68	23.63	3.96	-53.4	-73.2	3.8	7.44e-01	0	53	104	0	70	34197
2026-01-04 00:14:14.65	23.89	4.14	-53.4	-72.7	3.8	7.45e-01	0	53	104	0	70	32241
2026-01-04 00:14:17.62	24.15	4.32	-53.4	-72.5	3.8	7.49e-01	0	53	104	0	70	31503
2026-01-04 00:14:20.58	24.41	4.50	-53.4	-72.9	3.8	7.47e-01	0	53	104	0	70	33101
2026-01-04 00:14:23.56	24.68	4.69	-53.2	-66.1	6.0	6.84e-01	92	53	0	0	69	15948
2026-01-04 00:14:26.53	24.95	4.87	-52.4	-59.9	12.2	6.06e-01	0	53	0	5767168	68	8292
2026-01-04 00:14:29.48	25.23	5.06	-51.4	-56.3	15.8	6.02e-01	0	53	0	11534336	66	6173
2026-01-04 00:14:32.44	25.50	5.24	-51.3	-56.1	16.0	6.03e-01	0	54	0	16777216	66	6023
2026-01-04 00:14:35.40	25.78	5.43	-51.1	-55.4	16.7	6.01e-01	0	53	0	22544384	65	5913
2026-01-04 00:14:38.37	26.07	5.62	-50.8	-54.8	17.4	6.01e-01	0	54	0	27787264	65	5491
2026-01-04 00:14:41.35	26.36	5.81	-50.3	-53.6	18.7	6.03e-01	0	54	0	33554432	63	5372
2026-01-04 00:14:44.32	26.65	6.00	-49.8	-52.8	19.4	6.02e-01	0	54	0	39321600	63	4921
2026-01-04 00:14:47.28	26.95	6.19	-49.9	-52.9	19.4	6.03e-01	0	54	0	44564480	63	4938
2026-01-04 00:14:50.25	27.25	6.38	-49.7	-52.6	19.7	6.01e-01	0	54	0	50331648	62	5045
2026-01-04 00:14:53.20	27.55	6.57	-49.5	-52.2	20.0	6.04e-01	0	54	0	55574528	62	4869
2026-01-04 00:14:56.16	27.86	6.77	-49.7	-52.5	19.8	6.01e-01	0	54	0	61341696	62	5022
2026-01-04 00:14:59.13	28.17	6.96	-49.8	-52.7	19.7	6.03e-01	0	54	0	67108864	62	5130
2026-01-04 00:15:02.08	28.49	7.16	-49.6	-52.4	20.0	6.02e-01	0	54	0	72351744	62	4959
2026-01-04 00:15:05.05	28.81	7.35	-49.9	-52.9	19.6	6.02e-01	0	54	0	78118912	62	5240
2026-01-04 00:15:08.00	29.14	7.55	-49.5	-52.1	20.4	6.01e-01	0	54	0	83361792	62	4773
2026-01-04 00:15:10.96	29.47	7.75	-49.6	-52.2	20.2	6.04e-01	0	54	0	89128960	62	4866
2026-01-04 00:15:13.93	29.81	7.95	-49.5	-52.2	20.3	6.04e-01	0	54	0	94896128	62	4833
2026-01-04 00:15:16.90	30.15	8.15	-49.4	-51.9	20.6	6.00e-01	0	54	0	100139008	62	4681
2026-01-04 00:15:19.87	30.49	8.35	-49.4	-52.0	20.5	6.03e-01	0	55	0	105906176	62	4731
2026-01-04 00:15:22.84	30.85	8.56	-49.7	-52.4	20.2	6.00e-01	0	55	0	111149056	62	4937
2026-01-04 00:15:25.80	31.20	8.76	-49.8	-52.5	20.1	6.05e-01	0	55	0	116916224	62	5008
2026-01-04 00:15:28.76	31.56	8.97	-49.6	-52.3	20.3	6.02e-01	0	55	0	122159104	62	4884
2026-01-04 00:15:31.72	31.93	9.17	-49.6	-52.3	20.3	6.01e-01	0	55	0	127926272	62	4885
2026-01-04 00:15:34.69	32.30	9.38	-49.3	-51.7	20.9	6.01e-01	0	55	0	133693440	62	4576
2026-01-04 00:15:37.66	32.68	9.59	-49.3	-51.7	20.9	6.03e-01	0	55	0	138936320	62	4585
2026-01-04 00:15:40.63	33.06	9.80	-49.3	-51.7	21.0	6.00e-01	0	55	0	144703488	62	4563
2026-01-04 00:15:43.60	33.45	10.01	-49.2	-51.6	21.1	6.01e-01	0	55	0	150470656	61	4764
2026-01-04 00:15:46.56	33.85	10.22	-49.2	-51.6	21.1	6.02e-01	0	55	0	155713536	61	4775
2026-01-04 00:15:49.51	34.25	10.43	-49.3	-51.7	21.0	6.02e-01	0	55	0	161480704	61	4825
2026-01-04 00:15:52.49	34.66	10.64	-49.3	-51.6	21.1	6.03e-01	0	55	0	166723584	61	4800
2026-01-04 00:15:55.45	35.07	10.85	-49.3	-51.7	21.0	6.01e-01	0	55	0	172490752	61	4826
2026-01-04 00:15:58.42	35.49	11.07	-49.1	-51.4	21.3	6.00e-01	0	55	0	178257920	61	4684
2026-01-04 00:16:01.39	35.92	11.28	-49.2	-51.5	21.2	6.00e-01	0	55	0	183500800	61	4745
2026-01-04 00:16:04.36	36.35	11.50	-48.9	-51.1	21.6	6.02e-01	0	55	0	189267968	61	4520
2026-01-04 00:16:07.33	36.79	11.72	-48.9	-51.0	21.7	6.01e-01	0	55	0	195035136	61	4465
2026-01-04 00:16:10.30	37.24	11.93	-49.2	-51.4	21.3	6.03e-01	0	55	0	200278016	61	4705
2026-01-04 00:16:13.27	37.69	12.15	-49.0	-51.2	21.6	6.02e-01	0	55	0	206045184	61	4569
2026-01-04 00:16:16.24	38.15	12.37	-49.1	-51.4	21.4	6.02e-01	0	55	0	211288064	61	4669
2026-01-04 00:16:19.21	38.62	12.59	-49.2	-51.5	21.3	6.01e-01	0	55	0	217055232	61	4725
2026-01-04 00:16:22.17	39.09	12.81	-48.8	-50.8	22.0	6.01e-01	0	55	0	222298112	61	4385
2026-01-04 00:16:25.14	39.58	13.03	-49.0	-51.2	21.6	6.01e-01	0	55	0	228065280	61	4584
2026-01-04 00:16:28.09	40.06	13.25	-48.6	-50.5	22.3	6.00e-01	0	55	0	233832448	60	4488
2026-01-04 00:16:31.04	40.56	13.47	-48.6	-50.6	22.2	6.01e-01	0	55	0	239075328	60	4542
2026-01-04 00:16:34.01	41.06	13.69	-48.8	-50.9	22.0	6.02e-01	0	56	0	244842496	60	4671
2026-01-04 00:16:36.98	41.58	13.91	-48.9	-51.0	21.8	6.02e-01	0	55	0	250609664	60	4732
2026-01-04 00:16:39.94	42.10	14.13	-49.0	-51.1	21.7	6.02e-01	0	55	0	255852544	60	4814
2026-01-04 00:16:42.91	42.63	14.35	-49.1	-51.3	21.6	6.03e-01	0	56	0	261619712	60	4897
2026-01-04 00:16:45.86	43.16	14.58	-49.3	-51.6	21.3	6.00e-01	0	56	0	266862592	60	5085
2026-01-04 00:16:48.84	43.71	14.80	-49.1	-51.3	21.6	5.99e-01	0	56	0	272629760	61	4633
2026-01-04 00:16:51.80	44.26	15.02	-48.9	-51.0	21.9	6.02e-01	0	56	0	278396928	61	4481
2026-01-04 00:16:54.77	44.83	15.24	-48.8	-50.9	22.0	6.03e-01	0	56	0	283639808	61	4405
2026-01-04 00:16:57.75	45.40	15.47	-48.7	-50.7	22.2	6.02e-01	0	55	0	289406976	60	4562
2026-01-04 00:17:00.70	45.98	15.69	-48.7	-50.7	22.2	6.00e-01	0	56	0	294649856	60	4561
2026-01-04 00:17:03.66	46.57	15.91	-48.4	-50.2	22.7	6.02e-01	0	56	0	300417024	60	4331
2026-01-04 00:17:06.63	47.17	16.13	-48.5	-50.4	22.5	6.04e-01	0	56	0	306184192	60	4401
2026-01-04 00:17:09.59	47.77	16.35	-48.6	-50.5	22.4	6.03e-01	0	56	0	311427072	60	4473
2026-01-04 00:17:12.56	48.39	16.57	-48.4	-50.3	22.6	6.03e-01	0	56	0	317194240	60	4345
2026-01-04 00:17:15.53	49.02	16.78	-48.4	-50.3	22.6	5.99e-01	0	56	0	322437120	60	4365
2026-01-04 00:17:18.51	49.66	17.00	-48.5	-50.5	22.4	6.00e-01	0	56	0	328204288	60	4456
2026-01-04 00:17:21.49	50.31	17.22	-48.7	-50.7	22.2	5.99e-01	0	56	0	333971456	60	4557
2026-01-04 00:17:24.45	50.96	17.43	-48.4	-50.3	22.6	5.99e-01	0	56	0	339214336	60	4372
2026-01-04 00:17:27.42	51.63	17.65	-48.5	-50.4	22.6	6.01e-01	0	56	0	344981504	60	4412
2026-01-04 00:17:30.37	52.30	17.86	-48.6	-50.6	22.4	6.01e-01	0	56	0	350224384	60	4497
2026-01-04 00:17:33.34	52.99	18.07	-48.8	-50.8	22.2	6.02e-01	0	56	0	355991552	60	4610
2026-01-04 00:17:36.31	53.68	18.28	-48.9	-51.0	22.0	6.02e-01	0	56	0	361758720	60	4738
2026-01-04 00:17:39.28	54.39	18.48	-48.7	-50.7	22.2	6.00e-01	0	56	0	367001600	60	4587
2026-01-04 00:17:42.25	55.10	18.69	-48.7	-50.6	22.4	6.02e-01	0	56	0	372768768	60	4533
2026-01-04 00:17:45.22	55.83	18.89	-48.6	-50.5	22.5	6.01e-01	0	56	0	378535936	60	4470
2026-01-04 00:17:48.18	56.56	19.09	-48.5	-50.4	22.5	6.03e-01	0	56	0	383778816	60	4429
2026-01-04 00:17:51.14	57.30	19.28	-48.8	-50.9	22.2	6.01e-01	0	56	0	389545984	60	4654
2026-01-04 00:17:54.12	58.06	19.48	-48.8	-50.8	22.2	6.04e-01	0	56	0	394788864	60	4610
2026-01-04 00:17:57.07	58.82	19.67	-48.9	-50.9	22.1	6.04e-01	0	56	0	400556032	60	4686
2026-01-04 00:18:00.05	59.60	19.85	-48.6	-50.5	22.5	6.03e-01	0	56	0	406323200	60	4463
2026-01-04 00:18:03.03	60.39	20.04	-48.6	-50.6	22.4	6.02e-01	0	56	0	411566080	60	4508
2026-01-04 00:18:06.00	61.18	20.22	-48.7	-50.6	22.4	6.04e-01	0	56	0	417333248	60	4527
2026-01-04 00:18:08.98	61.99	20.39	-48.7	-50.6	22.4	6.02e-01	0	56	0	423100416	60	4518
2026-01-04 00:18:11.94	62.80	20.57	-48.8	-50.8	22.2	6.01e-01	0	56	0	428343296	60	4651
2026-01-04 00:18:14.90	63.62	20.73	-48.8	-50.8	22.2	6.03e-01	0	56	0	434110464	60	4615
2026-01-04 00:18:17.87	64.45	20.90	-48.9	-50.9	22.1	6.00e-01	0	56	0	439353344	60	4673
2026-01-04 00:18:20.84	65.29	21.05	-48.8	-50.8	22.3	6.02e-01	0	56	0	445120512	60	4623
2026-01-04 00:18:23.82	66.15	21.21	-49.1	-51.3	21.8	6.02e-01	0	56	0	450887680	60	4875
2026-01-04 00:18:26.80	67.01	21.36	-49.3	-51.5	21.6	6.02e-01	0	56	0	456130560	60	4986
2026-01-04 00:18:29.74	67.87	21.50	-49.4	-51.6	21.5	6.01e-01	0	56	0	461897728	61	4807
2026-01-04 00:18:32.70	68.74	21.64	-49.2	-51.3	21.8	6.02e-01	0	56	0	467140608	61	4618
2026-01-04 00:18:35.68	69.62	21.77	-49.2	-51.4	21.8	6.00e-01	0	56	0	472907776	61	4652
2026-01-04 00:18:38.65	70.52	21.89	-49.2	-51.3	21.8	6.01e-01	0	56	0	478674944	61	4613
2026-01-04 00:18:41.63	71.42	22.01	-49.3	-51.4	21.7	6.02e-01	0	56	0	483917824	61	4687
2026-01-04 00:18:44.59	72.32	22.13	-49.5	-51.8	21.3	6.05e-01	0	56	0	489684992	61	4890
2026-01-04 00:18:47.55	73.23	22.23	-49.5	-51.8	21.3	6.03e-01	0	56	0	494927872	61	4909
2026-01-04 00:18:50.52	74.15	22.33	-49.1	-51.2	21.9	6.01e-01	0	56	0	500695040	61	4566
2026-01-04 00:18:53.49	75.07	22.43	-49.1	-51.3	21.9	6.01e-01	0	56	0	506462208	61	4606
2026-01-04 00:18:56.45	76.00	22.51	-49.5	-51.8	21.3	6.03e-01	0	56	0	511705088	61	4892
2026-01-04 00:18:59.41	76.93	22.59	-48.9	-50.9	22.2	6.02e-01	0	56	0	517472256	61	4419
2026-01-04 00:19:02.38	77.87	22.66	-49.2	-51.4	21.7	6.02e-01	0	56	0	523239424	61	4687
2026-01-04 00:19:05.35	78.81	22.73	-48.9	-50.9	22.2	6.02e-01	0	56	0	528482304	61	4404
2026-01-04 00:19:08.32	79.76	22.79	-48.9	-51.0	22.1	6.04e-01	0	56	0	534249472	61	4447
2026-01-04 00:19:11.28	80.71	22.83	-48.8	-50.8	22.3	6.01e-01	0	56	0	539492352	61	4375
2026-01-04 00:19:14.24	81.66	22.88	-49.2	-51.3	21.8	6.04e-01	0	56	0	545259520	61	4629
2026-01-04 00:19:17.21	82.62	22.91	-49.1	-51.2	21.9	5.99e-01	0	56	0	551026688	61	4558
2026-01-04 00:19:20.18	83.57	22.94	-49.2	-51.4	21.7	6.02e-01	0	56	0	556269568	61	4659
2026-01-04 00:19:23.14	84.53	22.95	-48.6	-50.5	22.5	6.01e-01	0	56	0	562036736	60	4481
2026-01-04 00:19:26.11	85.49	22.97	-48.7	-50.7	22.4	6.02e-01	0	56	0	567279616	60	4573
2026-01-04 00:19:29.07	86.45	22.97	-48.7	-50.7	22.4	6.00e-01	0	56	0	573046784	60	4547
2026-01-04 00:19:32.02	87.41	22.96	-48.7	-50.7	22.4	6.00e-01	0	56	0	578289664	60	4565
2026-01-04 00:19:34.99	88.37	22.95	-48.7	-50.7	22.4	6.04e-01	0	56	0	584056832	60	4559
2026-01-04 00:19:37.95	89.32	22.93	-48.7	-50.6	22.4	6.03e-01	0	56	0	589824000	60	4542
2026-01-04 00:19:40.92	90.28	22.90	-48.8	-50.8	22.3	6.01e-01	0	56	0	595066880	60	4600
2026-01-04 00:19:43.86	91.23	22.86	-48.7	-50.6	22.4	6.02e-01	0	56	0	600834048	60	4544
2026-01-04 00:19:46.84	92.19	22.82	-48.7	-50.7	22.4	6.00e-01	0	56	0	606601216	60	4550
2026-01-04 00:19:49.81	93.14	22.77	-48.6	-50.5	22.5	6.02e-01	0	56	0	611844096	60	4491
2026-01-04 00:19:52.78	94.09	22.71	-48.5	-50.4	22.6	6.03e-01	0	56	0	617611264	60	4433
2026-01-04 00:19:55.74	95.03	22.64	-48.6	-50.5	22.5	6.01e-01	0	56	0	622854144	60	4481
2026-01-04 00:19:58.71	95.97	22.56	-48.5	-50.4	22.7	6.00e-01	0	56	0	628621312	60	4411
2026-01-04 00:20:01.69	96.90	22.48	-48.6	-50.5	22.6	6.02e-01	0	56	0	634388480	60	4443
2026-01-04 00:20:04.66	97.83	22.39	-48.6	-50.6	22.5	6.02e-01	0	56	0	639631360	60	4505
2026-01-04 00:20:07.62	98.75	22.30	-48.6	-50.6	22.5	5.99e-01	0	56	0	645398528	60	4495
2026-01-04 00:20:10.59	99.67	22.19	-48.7	-50.7	22.4	6.03e-01	0	56	0	650641408	60	4563
2026-01-04 00:20:13.56	100.58	22.08	-48.6	-50.6	22.5	6.00e-01	0	56	0	656408576	60	4506
2026-01-04 00:20:16.53	101.49	21.97	-48.3	-50.1	23.0	6.01e-01	0	57	0	662175744	60	4257
2026-01-04 00:20:19.51	102.39	21.85	-48.4	-50.3	22.7	6.01e-01	0	56	0	667418624	60	4362
2026-01-04 00:20:22.48	103.28	21.72	-48.3	-50.1	23.0	5.99e-01	0	56	0	673185792	60	4262
2026-01-04 00:20:25.45	104.16	21.58	-48.5	-50.3	22.7	6.00e-01	0	56	0	678952960	60	4378
2026-01-04 00:20:28.42	105.03	21.44	-48.4	-50.3	22.7	6.03e-01	0	56	0	684195840	60	4349
2026-01-04 00:20:31.38	105.90	21.30	-48.7	-50.7	22.4	6.03e-01	0	56	0	689963008	60	4546
2026-01-04 00:20:34.34	106.75	21.15	-48.5	-50.3	22.7	6.00e-01	0	57	0	695205888	60	4376
2026-01-04 00:20:37.30	107.60	20.99	-48.2	-50.0	22.9	6.04e-01	0	56	0	700973056	60	4219
2026-01-04 00:20:40.26	108.44	20.83	-48.2	-50.0	23.0	6.03e-01	0	56	0	706740224	60	4221
2026-01-04 00:20:43.23	109.27	20.67	-48.5	-50.4	22.6	6.03e-01	0	56	0	711983104	60	4400
2026-01-04 00:20:46.20	110.09	20.50	-48.3	-50.1	22.8	5.99e-01	0	56	0	717750272	60	4289
2026-01-04 00:20:49.16	110.90	20.32	-48.5	-50.3	23.0	6.00e-01	0	56	0	722993152	59	4647
2026-01-04 00:20:52.12	111.70	20.15	-48.5	-50.3	23.0	6.00e-01	0	56	0	728760320	59	4650
2026-01-04 00:20:55.10	112.50	19.96	-48.6	-50.5	22.9	6.03e-01	0	56	0	734527488	59	4718
2026-01-04 00:20:58.06	113.28	19.78	-48.9	-50.8	22.5	6.01e-01	0	57	0	739770368	59	4913
2026-01-04 00:21:01.02	114.05	19.59	-48.5	-50.3	23.1	6.02e-01	0	56	0	745537536	59	4599
2026-01-04 00:21:03.98	114.81	19.40	-48.6	-50.5	22.8	6.01e-01	0	56	0	750780416	59	4707
2026-01-04 00:21:06.94	115.56	19.20	-48.7	-50.6	22.7	6.02e-01	0	56	0	756547584	59	4779
2026-01-04 00:21:09.91	116.31	19.00	-48.6	-50.5	21.9	6.05e-01	0	56	0	762314752	60	4488
2026-01-04 00:21:12.88	117.04	18.80	-48.4	-50.3	22.7	5.99e-01	0	57	0	767557632	60	4367
2026-01-04 00:21:15.86	117.77	18.60	-48.2	-50.1	22.9	6.01e-01	0	56	0	773324800	60	4244
2026-01-04 00:21:18.83	118.48	18.39	-48.5	-50.3	23.0	6.04e-01	0	56	0	779091968	59	4608
2026-01-04 00:21:21.78	119.18	18.18	-48.4	-50.2	23.1	6.01e-01	0	56	0	784334848	59	4564
2026-01-04 00:21:24.74	119.87	17.97	-48.4	-50.2	23.1	6.00e-01	0	56	0	790102016	59	4590
2026-01-04 00:21:27.72	120.56	17.76	-48.4	-50.2	23.2	6.00e-01	0	57	0	795344896	59	4554
2026-01-04 00:21:30.67	121.23	17.55	-48.6	-50.4	22.9	6.03e-01	0	56	0	801112064	59	4678
2026-01-04 00:21:33.63	121.89	17.33	-48.5	-50.3	23.0	6.02e-01	0	56	0	806354944	59	4643
2026-01-04 00:21:36.60	122.55	17.12	-48.5	-50.3	23.0	6.02e-01	0	56	0	812122112	59	4640
2026-01-04 00:21:39.56	123.19	16.90	-48.4	-50.2	23.0	6.03e-01	0	56	0	817889280	59	4547
2026-01-04 00:21:42.54	123.83	16.68	-48.4	-50.1	23.1	6.04e-01	0	57	0	823132160	59	4532
2026-01-04 00:21:45.50	124.46	16.46	-48.6	-50.4	22.8	6.04e-01	0	56	0	828899328	59	4704
2026-01-04 00:21:48.47	125.07	16.24	-48.8	-50.7	22.6	6.00e-01	0	56	0	834142208	59	4826
2026-01-04 00:21:51.44	125.68	16.02	-48.6	-50.4	22.8	6.05e-01	0	57	0	839909376	59	4684
2026-01-04 00:21:54.41	126.28	15.80	-48.8	-50.7	22.6	6.01e-01	0	56	0	845676544	59	4843
2026-01-04 00:21:57.38	126.87	15.57	-48.9	-50.9	22.0	6.01e-01	0	56	0	850919424	60	4702
2026-01-04 00:22:00.35	127.45	15.35	-48.3	-50.2	22.7	6.02e-01	0	57	0	856686592	60	4300
2026-01-04 00:22:03.31	128.02	15.13	-48.3	-50.1	22.7	6.03e-01	0	56	0	862453760	60	4289
2026-01-04 00:22:06.28	128.58	14.90	-48.5	-50.3	22.9	6.01e-01	0	57	0	867696640	59	4619
2026-01-04 00:22:09.24	129.13	14.68	-48.4	-50.2	23.0	6.01e-01	0	57	0	873463808	59	4559
2026-01-04 00:22:12.20	129.68	14.46	-48.4	-50.2	22.9	6.03e-01	0	57	0	878706688	59	4590
2026-01-04 00:22:15.17	130.21	14.23	-48.4	-50.3	22.9	6.02e-01	0	57	0	884473856	59	4608
2026-01-04 00:22:18.15	130.74	14.01	-48.6	-50.4	22.8	6.03e-01	0	56	0	890241024	59	4696
2026-01-04 00:22:21.12	131.26	13.78	-48.7	-50.6	22.6	6.03e-01	0	57	0	895483904	59	4788
2026-01-04 00:22:24.08	131.78	13.56	-48.8	-50.8	22.3	6.00e-01	0	56	0	901251072	59	4899
2026-01-04 00:22:27.05	132.28	13.34	-48.6	-50.4	22.7	6.02e-01	0	57	0	906493952	59	4691
2026-01-04 00:22:30.00	132.77	13.12	-48.8	-50.8	22.3	6.01e-01	0	57	0	912261120	59	4890
2026-01-04 00:22:32.98	133.26	12.90	-48.6	-50.6	22.6	6.02e-01	0	57	0	918028288	59	4765
2026-01-04 00:22:35.94	133.74	12.67	-48.6	-50.4	22.7	6.03e-01	0	57	0	923271168	59	4695
2026-01-04 00:22:38.91	134.22	12.45	-48.7	-50.7	22.3	6.02e-01	0	57	0	929038336	59	4849
2026-01-04 00:22:41.88	134.68	12.23	-48.6	-50.6	21.9	6.04e-01	0	57	0	934805504	60	4520
2026-01-04 00:22:44.85	135.14	12.01	-48.7	-50.7	21.7	6.00e-01	0	57	0	940048384	60	4595
2026-01-04 00:22:47.82	135.60	11.79	-48.8	-50.9	21.6	6.02e-01	0	57	0	945815552	60	4703
2026-01-04 00:22:50.79	136.04	11.57	-48.6	-50.6	21.9	6.02e-01	0	57	0	951058432	60	4515
2026-01-04 00:22:53.75	136.48	11.36	-48.4	-50.3	22.4	6.01e-01	0	56	0	956825600	60	4375
2026-01-04 00:22:56.72	136.91	11.14	-48.4	-50.4	22.3	6.03e-01	0	57	0	962592768	60	4394
2026-01-04 00:22:59.70	137.34	10.92	-48.6	-50.7	21.9	6.01e-01	0	56	0	967835648	60	4572
2026-01-04 00:23:02.67	137.75	10.71	-48.5	-50.5	22.1	6.03e-01	0	57	0	973602816	60	4466
2026-01-04 00:23:05.65	138.17	10.49	-48.6	-50.7	21.5	6.03e-01	0	57	0	978845696	60	4577
2026-01-04 00:23:08.62	138.57	10.28	-48.6	-50.7	21.7	6.02e-01	0	57	0	984612864	60	4548
2026-01-04 00:23:11.58	138.97	10.07	-48.6	-50.6	21.8	5.99e-01	0	57	0	990380032	60	4544
2026-01-04 00:23:14.55	139.37	9.85	-48.8	-51.0	21.3	6.03e-01	0	57	0	995622912	60	4722
2026-01-04 00:23:17.52	139.76	9.64	-48.9	-51.1	20.6	6.00e-01	0	57	0	1001390080	60	4811
2026-01-04 00:23:20.51	140.14	9.43	-48.7	-50.9	21.5	6.02e-01	0	57	0	1007157248	60	4652
2026-01-04 00:23:23.49	140.52	9.22	-48.7	-50.9	21.2	6.01e-01	0	57	0	1012400128	60	4684
2026-01-04 00:23:26.46	140.89	9.01	-48.8	-51.1	21.0	6.01e-01	0	57	0	1018167296	60	4762
2026-01-04 00:23:29.41	141.25	8.81	-48.8	-51.0	21.0	6.00e-01	0	57	0	1023410176	60	4722
2026-01-04 00:23:32.37	141.61	8.60	-48.8	-51.1	20.7	6.01e-01	0	57	0	1029177344	60	4777
2026-01-04 00:23:35.33	141.96	8.40	-49.0	-51.4	19.9	6.00e-01	0	57	0	1034944512	60	4969
2026-01-04 00:23:38.28	142.31	8.19	-48.9	-51.4	19.9	6.03e-01	0	57	0	1040187392	60	4963
2026-01-04 00:23:41.25	142.66	7.99	-49.2	-51.8	19.6	6.02e-01	0	57	0	1045954560	60	5206
2026-01-04 00:23:44.21	143.00	7.79	-49.1	-51.6	20.1	6.03e-01	0	57	0	1051197440	60	5049
2026-01-04 00:23:47.17	143.33	7.59	-49.2	-51.8	20.1	6.03e-01	0	57	0	1056964608	60	5188
2026-01-04 00:23:50.14	143.66	7.39	-49.0	-51.4	20.4	6.00e-01	0	57	0	1062731776	60	4962
2026-01-04 00:23:53.12	143.99	7.19	-49.2	-51.7	20.1	6.01e-01	0	57	0	1067974656	60	5127
2026-01-04 00:23:56.09	144.31	6.99	-49.2	-51.8	19.9	6.02e-01	0	57	0	1073741824	60	5168
2026-01-04 00:23:59.06	144.62	6.79	-49.3	-52.0	19.5	6.04e-01	0	57	0	1078984704	60	5316
2026-01-04 00:24:02.03	144.93	6.60	-49.2	-51.9	19.8	6.00e-01	0	57	0	1084751872	60	5242
2026-01-04 00:24:05.01	145.24	6.40	-49.3	-51.9	19.7	6.00e-01	0	57	0	1090519040	60	5272
2026-01-04 00:24:07.98	145.55	6.21	-49.3	-52.0	19.6	6.00e-01	0	57	0	1095761920	61	5007
2026-01-04 00:24:10.96	145.85	6.01	-49.2	-52.0	19.5	6.02e-01	0	57	0	1101529088	61	4990
2026-01-04 00:24:13.93	146.14	5.82	-49.2	-51.9	19.4	6.01e-01	0	57	0	1107296256	61	4969
2026-01-04 00:24:16.92	146.43	5.63	-49.5	-52.4	19.0	6.01e-01	0	57	0	1112539136	61	5237
2026-01-04 00:24:19.89	146.72	5.44	-49.4	-52.4	19.0	6.01e-01	0	57	0	1118306304	61	5225
2026-01-04 00:24:22.85	147.00	5.25	-49.5	-52.5	19.0	6.00e-01	0	57	0	1124073472	61	5314
2026-01-04 00:24:25.83	147.28	5.06	-50.3	-53.9	17.7	6.01e-01	0	57	0	1129316352	62	5912
2026-01-04 00:24:28.79	147.56	4.87	-54.0	-73.9	3.8	7.44e-01	0	57	104	1130364928	70	37233
2026-01-04 00:24:31.75	147.83	4.69	-54.2	-74.2	3.8	7.48e-01	0	57	104	1130364928	70	38288
2026-01-04 00:24:34.73	148.10	4.50	-54.4	-74.3	3.8	7.48e-01	0	57	104	1130364928	70	38867
2026-01-04 00:24:37.70	148.36	4.32	-54.4	-74.2	3.8	7.42e-01	0	57	104	1130364928	71	36450
2026-01-04 00:24:40.67	148.63	4.13	-54.5	-74.4	3.8	7.44e-01	0	57	104	1130364928	71	37139
2026-01-04 00:24:43.64	148.88	3.95	-54.5	-74.5	3.8	7.43e-01	0	57	104	1130364928	71	37446
2026-01-04 00:24:46.61	149.14	3.77	-54.6	-74.5	3.8	7.47e-01	0	57	104	1130364928	71	37626
2026-01-04 00:24:49.58	149.39	3.59	-54.6	-74.5	3.8	7.44e-01	0	57	104	1130364928	71	37761
2026-01-04 00:24:52.55	149.64	3.41	-54.6	-74.5	3.8	7.45e-01	0	57	104	1130364928	71	37629
2026-01-04 00:24:55.54	149.88	3.23	-54.6	-74.5	3.8	7.47e-01	0	57	104	1130364928	71	37602
2026-01-04 00:24:58.51	150.13	3.05	-54.6	-74.5	3.8	7.47e-01	0	57	104	1130364928	71	37564
2026-01-04 00:25:01.48	150.37	2.87	-54.6	-74.5	3.8	7.47e-01	0	57	104	1130364928	71	37644

#Closed at: 2026-01-04 00:25:01
#Recorded file [1130 MB]: D:/Data/31026_260104_032426.dat