passes_logs/2026/01/04/R3.0SM8_Murmansk_STILSPACE/R3.0SM8_Murmansk_STILSPACE__20260104_231828_SUOMI_NPP_rec.log

#Pass ID: 20260104_231828_SUOMI NPP
#Satellite: SUOMI NPP
#Configuration: NPP
#almurnet v.1.7.20240730
#Start time: 2026-01-04 23:23:45

#Version: 2.2.20231116
#Station: R3.0SM8_Murmansk_STILSPACE
#Location: 33.092731 lon 68.902999 lat
#TLE: 1 37849U 11061A   26003.96724563  .00000164  00000+0  98899-4 0  9990
#TLE: 2 37849  98.7800 306.1116 0002573  82.3190 277.8279 14.19522066735141

#Time	Az	El	Level	Level2	SNR	BER	BlckErr	Temp	State	Recorded	gain1	gain2
2026-01-04 23:23:45.73	61.02	33.12	-54.4	-74.4	3.8	7.45e-01	0	56	0	0	71	37214
2026-01-04 23:23:47.71	61.64	33.35	-52.7	-66.6	3.8	1.49e+00	0	56	104	0	68	17514
2026-01-04 23:23:49.68	62.27	33.58	-52.7	-66.6	3.8	1.49e+00	0	56	104	0	68	17515
2026-01-04 23:23:51.66	62.91	33.81	-52.7	-66.6	3.8	1.49e+00	0	56	104	0	68	17528
2026-01-04 23:23:53.64	63.55	34.04	-52.7	-66.6	3.8	1.49e+00	0	56	104	0	68	17521
2026-01-04 23:23:55.62	64.21	34.27	-52.7	-66.5	3.8	1.49e+00	0	56	104	0	68	17452
2026-01-04 23:23:57.60	64.87	34.50	-52.7	-66.5	3.8	1.49e+00	0	56	104	0	68	17466
2026-01-04 23:23:59.58	65.55	34.72	-52.7	-66.5	3.8	1.49e+00	0	56	104	0	68	17385
2026-01-04 23:24:01.54	66.22	34.93	-52.6	-66.5	3.8	1.49e+00	0	56	104	0	68	17343
2026-01-04 23:24:03.53	66.92	35.15	-52.5	-66.4	3.8	1.49e+00	0	57	104	0	68	17273
2026-01-04 23:24:05.51	67.62	35.36	-52.6	-66.5	3.8	1.49e+00	0	56	104	0	68	17299
2026-01-04 23:24:07.49	68.33	35.57	-52.7	-66.4	3.8	1.49e+00	0	57	104	0	68	17260
2026-01-04 23:24:09.47	69.05	35.78	-52.6	-66.5	3.8	1.49e+00	0	56	104	0	68	17359
2026-01-04 23:24:11.44	69.77	35.98	-52.6	-66.5	3.8	1.49e+00	0	56	104	0	68	17334
2026-01-04 23:24:13.42	70.51	36.18	-52.7	-66.4	3.8	1.49e+00	0	56	104	0	68	17278
2026-01-04 23:24:15.40	71.26	36.37	-52.6	-66.5	3.8	1.49e+00	0	57	104	0	68	17354
2026-01-04 23:24:17.38	72.01	36.56	-52.7	-66.5	3.8	1.49e+00	0	56	104	0	68	17306
2026-01-04 23:24:19.37	72.78	36.75	-52.6	-66.4	3.8	1.49e+00	0	56	104	0	68	17260
2026-01-04 23:24:21.34	73.55	36.93	-52.6	-66.4	3.8	1.49e+00	0	56	104	0	68	17194
2026-01-04 23:24:23.32	74.33	37.11	-52.6	-66.5	3.8	1.49e+00	0	56	104	0	68	17319
2026-01-04 23:24:25.30	75.11	37.28	-52.6	-66.5	3.8	1.49e+00	0	56	104	0	68	17283
2026-01-04 23:24:27.28	75.91	37.45	-52.6	-66.4	3.8	1.49e+00	0	56	104	0	68	17241
2026-01-04 23:24:29.25	76.71	37.61	-52.7	-66.5	3.8	1.49e+00	0	57	104	0	68	17322
2026-01-04 23:24:31.23	77.52	37.76	-52.6	-66.4	3.8	1.49e+00	0	56	104	0	68	17234
2026-01-04 23:24:33.20	78.34	37.91	-52.6	-66.1	3.8	1.49e+00	0	56	104	0	68	16555
2026-01-04 23:24:35.17	79.16	38.05	-52.4	-64.0	3.9	1.48e+00	0	56	104	0	67	13846
2026-01-04 23:24:37.15	80.00	38.19	-52.0	-60.9	4.9	1.39e+00	0	56	0	0	67	9629
2026-01-04 23:24:39.12	80.83	38.32	-49.3	-52.2	13.1	2.77e-04	0	56	0	4194304	61	4999
2026-01-04 23:24:41.10	81.68	38.45	-48.8	-51.3	14.0	3.80e-06	0	56	0	7340032	60	4785
2026-01-04 23:24:43.08	82.54	38.57	-49.2	-52.0	13.2	9.90e-06	0	56	0	11534336	60	5200
2026-01-04 23:24:45.06	83.40	38.68	-49.2	-52.2	13.1	1.83e-05	0	57	0	14680064	60	5321
2026-01-04 23:24:47.04	84.26	38.78	-49.8	-53.2	12.1	1.52e-04	0	56	0	18874368	61	5630
2026-01-04 23:24:49.02	85.13	38.88	-49.8	-53.5	11.8	5.53e-04	0	56	0	22020096	61	5796
2026-01-04 23:24:50.99	86.00	38.97	-49.5	-52.5	12.7	9.91e-05	0	57	0	26214400	61	5217
2026-01-04 23:24:52.97	86.89	39.06	-49.6	-52.7	12.5	2.93e-04	0	56	0	29360128	61	5280
2026-01-04 23:24:54.94	87.77	39.13	-49.6	-52.8	12.4	2.63e-04	0	56	0	33554432	61	5358
2026-01-04 23:24:56.91	88.65	39.20	-50.1	-53.7	11.5	1.98e-04	0	56	0	36700160	61	5945
2026-01-04 23:24:58.89	89.54	39.27	-50.7	-55.1	10.1	6.22e-03	0	57	0	40894464	63	6208
2026-01-04 23:25:00.87	90.44	39.32	-50.8	-55.2	9.9	9.11e-03	0	56	0	44040192	63	6308
2026-01-04 23:25:02.85	91.34	39.37	-50.3	-54.1	10.9	2.82e-03	0	57	0	48234496	63	5584
2026-01-04 23:25:04.83	92.24	39.41	-49.4	-52.3	13.0	3.20e-05	0	56	0	52428800	61	5077
2026-01-04 23:25:06.81	93.14	39.44	-49.7	-53.0	12.3	6.17e-05	0	57	0	55574528	61	5491
2026-01-04 23:25:08.80	94.05	39.46	-50.9	-55.6	9.4	1.41e-02	0	57	0	59768832	63	6597
2026-01-04 23:25:10.78	94.96	39.48	-50.0	-53.7	11.4	1.91e-03	0	56	0	62914560	63	5319
2026-01-04 23:25:12.77	95.87	39.49	-49.4	-52.4	12.8	3.66e-05	0	57	0	67108864	61	5153
2026-01-04 23:25:14.75	96.78	39.49	-48.9	-51.4	13.8	2.67e-05	0	57	0	70254592	60	4834
2026-01-04 23:25:16.73	97.68	39.48	-48.8	-51.2	14.1	7.00e-07	0	57	0	74448896	59	5021
2026-01-04 23:25:18.71	98.59	39.46	-49.0	-51.7	13.6	5.30e-06	0	57	0	77594624	60	4995
2026-01-04 23:25:20.68	99.49	39.44	-48.1	-50.1	15.2	0.00e+00	0	56	0	81788928	59	4414
2026-01-04 23:25:22.66	100.39	39.41	-48.6	-51.0	14.4	0.00e+00	0	57	0	84934656	59	4879
2026-01-04 23:25:24.63	101.29	39.37	-49.4	-52.4	12.8	7.09e-05	0	57	0	89128960	60	5446
2026-01-04 23:25:26.61	102.19	39.32	-48.4	-50.6	14.7	7.00e-07	0	57	0	93323264	59	4689
2026-01-04 23:25:28.59	103.09	39.27	-48.6	-50.9	14.3	0.00e+00	0	57	0	96468992	59	4869
2026-01-04 23:25:30.56	103.98	39.20	-48.6	-51.0	14.3	2.20e-06	0	57	0	100663296	59	4896
2026-01-04 23:25:32.55	104.87	39.13	-48.9	-51.4	13.9	9.10e-06	0	56	0	103809024	59	5134
2026-01-04 23:25:34.54	105.76	39.06	-48.7	-51.0	14.2	1.50e-06	0	56	0	108003328	59	4910
2026-01-04 23:25:36.53	106.65	38.97	-47.8	-49.7	15.6	0.00e+00	0	56	0	111149056	58	4471
2026-01-04 23:25:38.51	107.52	38.88	-47.3	-49.0	16.3	0.00e+00	0	57	0	115343360	57	4387
2026-01-04 23:25:40.48	108.39	38.78	-47.6	-49.4	15.8	0.00e+00	0	57	0	118489088	57	4586
2026-01-04 23:25:42.45	109.25	38.68	-47.9	-50.0	15.3	0.00e+00	0	56	0	122683392	57	4879
2026-01-04 23:25:44.44	110.12	38.56	-47.3	-49.0	16.3	0.00e+00	0	56	0	125829120	57	4359
2026-01-04 23:25:46.42	110.98	38.44	-47.7	-49.6	15.7	0.00e+00	0	57	0	130023424	57	4663
2026-01-04 23:25:48.40	111.82	38.32	-47.3	-49.0	16.2	0.00e+00	0	57	0	133169152	57	4372
2026-01-04 23:25:50.38	112.67	38.19	-46.7	-48.3	16.9	0.00e+00	0	56	0	137363456	56	4249
2026-01-04 23:25:52.37	113.51	38.05	-47.2	-48.9	16.4	0.00e+00	0	57	0	141557760	56	4567
2026-01-04 23:25:54.36	114.34	37.90	-48.4	-50.7	14.6	1.50e-06	0	57	0	144703488	58	5000
2026-01-04 23:25:56.34	115.16	37.75	-47.5	-49.4	15.8	0.00e+00	0	56	0	148897792	58	4306
2026-01-04 23:25:58.31	115.97	37.60	-47.1	-48.8	16.5	0.00e+00	0	56	0	152043520	57	4255
2026-01-04 23:26:00.29	116.77	37.43	-46.4	-47.9	17.3	0.00e+00	0	56	0	156237824	56	4065
2026-01-04 23:26:02.26	117.57	37.27	-45.7	-47.0	18.1	0.00e+00	0	57	0	159383552	53	4369
2026-01-04 23:26:04.24	118.36	37.10	-47.4	-49.3	16.1	0.00e+00	0	57	0	163577856	56	4766
2026-01-04 23:26:06.22	119.14	36.92	-47.4	-49.2	16.1	0.00e+00	0	57	0	166723584	57	4470
2026-01-04 23:26:08.20	119.91	36.74	-47.2	-48.8	16.4	0.00e+00	0	57	0	170917888	57	4284
2026-01-04 23:26:10.17	120.67	36.55	-46.4	-47.9	17.3	0.00e+00	0	57	0	174063616	56	4062
2026-01-04 23:26:12.15	121.43	36.36	-44.9	-46.0	19.0	0.00e+00	0	56	0	178257920	53	3900
2026-01-04 23:26:14.13	122.17	36.17	-45.6	-46.9	18.2	0.00e+00	0	56	0	181403648	53	4296
2026-01-04 23:26:16.11	122.91	35.97	-47.0	-48.6	16.5	0.00e+00	0	56	0	185597952	55	4697
2026-01-04 23:26:18.08	123.64	35.76	-47.2	-48.9	16.3	0.00e+00	0	56	0	189792256	57	4333
2026-01-04 23:26:20.05	124.35	35.56	-47.3	-49.0	16.2	0.00e+00	0	56	0	192937984	57	4384
2026-01-04 23:26:22.02	125.06	35.35	-48.2	-50.3	15.0	0.00e+00	0	56	0	197132288	58	4805
2026-01-04 23:26:24.00	125.76	35.14	-46.9	-48.5	16.7	0.00e+00	0	56	0	200278016	57	4110
2026-01-04 23:26:25.99	126.46	34.92	-47.4	-49.1	16.1	0.00e+00	0	57	0	204472320	56	4686
2026-01-04 23:26:27.97	127.14	34.70	-49.0	-51.8	13.5	6.10e-06	0	56	0	207618048	60	5048
2026-01-04 23:26:29.94	127.82	34.48	-49.0	-51.6	13.6	3.80e-06	0	56	0	211812352	60	4945
2026-01-04 23:26:31.92	128.48	34.25	-49.9	-53.2	12.0	9.99e-05	0	57	0	214958080	61	5634
2026-01-04 23:26:33.91	129.14	34.02	-50.7	-55.3	9.9	4.95e-03	0	56	0	219152384	63	6362
2026-01-04 23:26:35.88	129.79	33.79	-49.8	-53.2	12.1	1.52e-03	0	57	0	222298112	62	5307
2026-01-04 23:26:37.87	130.43	33.56	-49.2	-52.0	13.3	1.22e-05	0	57	0	226492416	61	4892
2026-01-04 23:26:39.85	131.06	33.32	-49.7	-53.0	12.2	5.41e-05	0	57	0	229638144	61	5491
2026-01-04 23:26:41.82	131.68	33.09	-50.0	-53.6	11.6	1.31e-03	0	57	0	233832448	62	5586
2026-01-04 23:26:43.81	132.29	32.85	-50.2	-54.0	11.1	9.48e-04	0	57	0	238026752	62	5853
2026-01-04 23:26:45.78	132.89	32.61	-51.4	-58.3	6.9	1.08e-01	0	56	0	241172480	64	8515
2026-01-04 23:26:47.76	133.49	32.37	-51.5	-58.2	6.9	3.54e-01	0	57	0	245366784	65	7956
2026-01-04 23:26:49.76	134.08	32.12	-50.4	-54.3	10.9	3.75e-03	0	57	0	248512512	63	5704
2026-01-04 23:26:51.72	134.65	31.88	-51.0	-56.0	9.1	1.67e-02	0	57	0	252706816	63	6890
2026-01-04 23:26:53.70	135.22	31.64	-51.6	-58.3	6.7	1.52e-01	0	57	0	255852544	65	8004
2026-01-04 23:26:55.69	135.79	31.39	-51.0	-56.3	8.6	5.01e-02	0	57	0	260046848	65	6418
2026-01-04 23:26:57.67	136.34	31.14	-51.2	-56.9	8.1	6.07e-02	0	56	0	263192576	65	6857
2026-01-04 23:26:59.65	136.88	30.90	-51.6	-58.8	6.4	2.16e-01	0	56	0	267386880	65	8497
2026-01-04 23:27:01.64	137.42	30.65	-51.1	-56.8	8.1	1.00e-01	0	56	0	270532608	65	6764
2026-01-04 23:27:03.61	137.95	30.40	-49.0	-51.7	13.5	3.40e-04	0	57	0	274726912	61	4734
2026-01-04 23:27:05.60	138.47	30.15	-48.5	-50.8	14.4	0.00e+00	0	57	0	278921216	59	4812
2026-01-04 23:27:07.58	138.98	29.90	-49.8	-53.2	11.8	6.48e-05	0	57	0	282066944	61	5645
2026-01-04 23:27:09.56	139.49	29.65	-50.2	-53.9	11.3	2.79e-03	0	56	0	286261248	63	5415
2026-01-04 23:27:11.54	139.99	29.40	-48.4	-50.6	14.6	7.00e-07	0	56	0	289406976	59	4683
2026-01-04 23:27:13.52	140.48	29.15	-48.1	-50.2	15.1	0.00e+00	0	57	0	293601280	58	4708
2026-01-04 23:27:15.49	140.96	28.90	-48.6	-51.0	14.2	0.00e+00	0	57	0	296747008	59	4921
2026-01-04 23:27:17.47	141.43	28.65	-48.1	-50.4	14.8	0.00e+00	0	57	0	300941312	59	4550
2026-01-04 23:27:19.45	141.90	28.40	-47.5	-49.3	15.9	0.00e+00	0	56	0	304087040	58	4254
2026-01-04 23:27:21.44	142.36	28.15	-47.0	-48.7	16.4	0.00e+00	0	56	0	308281344	57	4232
2026-01-04 23:27:23.42	142.82	27.90	-47.9	-49.9	15.3	0.00e+00	0	57	0	311427072	57	4837
2026-01-04 23:27:25.39	143.26	27.66	-48.4	-50.7	14.5	0.00e+00	0	56	0	315621376	58	5010
2026-01-04 23:27:27.37	143.70	27.41	-47.3	-49.0	16.1	0.00e+00	0	57	0	318767104	57	4368
2026-01-04 23:27:29.34	144.13	27.16	-46.3	-47.8	17.2	0.00e+00	0	57	0	322961408	55	4247
2026-01-04 23:27:31.31	144.56	26.92	-46.7	-48.2	16.8	0.00e+00	0	56	0	326107136	55	4479
2026-01-04 23:27:33.29	144.98	26.67	-47.9	-49.9	15.2	0.00e+00	0	57	0	330301440	57	4850
2026-01-04 23:27:35.26	145.39	26.43	-48.0	-50.1	15.1	0.00e+00	0	56	0	334495744	58	4698
2026-01-04 23:27:37.24	145.80	26.18	-46.1	-47.5	17.5	0.00e+00	0	56	0	337641472	55	4129
2026-01-04 23:27:39.21	146.20	25.94	-45.3	-46.5	18.4	0.00e+00	0	56	0	341835776	53	4110
2026-01-04 23:27:41.19	146.60	25.69	-45.8	-47.1	17.8	0.00e+00	0	56	0	344981504	53	4434
2026-01-04 23:27:43.17	146.99	25.45	-46.5	-48.0	17.0	0.00e+00	0	57	0	349175808	54	4651
2026-01-04 23:27:45.15	147.37	25.21	-46.5	-48.0	17.0	0.00e+00	0	56	0	352321536	55	4387
2026-01-04 23:27:47.13	147.75	24.97	-45.5	-46.7	18.2	0.00e+00	0	56	0	356515840	54	3988
2026-01-04 23:27:49.11	148.12	24.73	-45.1	-46.3	18.6	0.00e+00	0	56	0	359661568	53	4037
2026-01-04 23:27:51.09	148.49	24.49	-45.4	-46.6	18.3	0.00e+00	0	56	0	363855872	53	4183
2026-01-04 23:27:53.06	148.85	24.25	-45.9	-47.3	17.7	0.00e+00	0	56	0	367001600	53	4512
2026-01-04 23:27:55.04	149.21	24.02	-45.8	-47.2	17.8	0.00e+00	0	56	0	371195904	54	4209
2026-01-04 23:27:57.03	149.56	23.78	-46.2	-47.7	17.3	0.00e+00	0	56	0	374341632	54	4470
2026-01-04 23:27:59.02	149.91	23.54	-46.1	-47.5	17.5	0.00e+00	0	56	0	378535936	54	4351
2026-01-04 23:28:01.00	150.26	23.31	-46.3	-47.8	17.2	0.00e+00	0	56	0	382730240	54	4528
2026-01-04 23:28:02.98	150.59	23.08	-46.4	-47.9	17.0	0.00e+00	0	56	0	385875968	54	4589
2026-01-04 23:28:04.95	150.92	22.85	-46.6	-48.1	16.9	0.00e+00	0	56	0	390070272	55	4407
2026-01-04 23:28:06.92	151.25	22.62	-45.9	-47.3	17.7	0.00e+00	0	57	0	393216000	54	4245
2026-01-04 23:28:08.90	151.57	22.39	-46.0	-47.4	17.6	0.00e+00	0	56	0	397410304	54	4304
2026-01-04 23:28:10.88	151.89	22.16	-46.3	-47.8	17.1	0.00e+00	0	56	0	400556032	54	4525
2026-01-04 23:28:12.85	152.20	21.93	-46.8	-48.4	16.6	0.00e+00	0	56	0	404750336	55	4548
2026-01-04 23:28:14.83	152.51	21.71	-46.5	-48.0	16.9	0.00e+00	0	56	0	407896064	55	4390
2026-01-04 23:28:16.81	152.82	21.48	-46.4	-47.9	17.1	0.00e+00	0	56	0	412090368	55	4311
2026-01-04 23:28:18.79	153.12	21.26	-46.5	-48.1	16.9	0.00e+00	0	56	0	415236096	55	4408
2026-01-04 23:28:20.77	153.41	21.04	-47.4	-49.2	15.9	0.00e+00	0	56	0	419430400	56	4720
2026-01-04 23:28:22.75	153.71	20.81	-47.7	-49.7	15.4	0.00e+00	0	56	0	422576128	57	4709
2026-01-04 23:28:24.71	153.99	20.60	-48.1	-50.3	14.8	0.00e+00	0	56	0	426770432	58	4778
2026-01-04 23:28:26.68	154.28	20.38	-48.3	-50.6	14.4	7.00e-07	0	57	0	430964736	58	4963
2026-01-04 23:28:28.65	154.56	20.16	-48.3	-50.5	14.6	0.00e+00	0	57	0	434110464	58	4905
2026-01-04 23:28:30.63	154.83	19.95	-47.9	-49.9	15.2	0.00e+00	0	57	0	438304768	58	4569
2026-01-04 23:28:32.61	155.11	19.73	-47.9	-49.9	15.2	0.00e+00	0	56	0	441450496	58	4566
2026-01-04 23:28:34.58	155.37	19.52	-47.9	-49.9	15.2	0.00e+00	0	57	0	445644800	58	4577
2026-01-04 23:28:36.55	155.64	19.31	-47.6	-49.6	15.5	0.00e+00	0	57	0	448790528	58	4406
2026-01-04 23:28:38.53	155.90	19.10	-47.7	-49.7	15.3	0.00e+00	0	56	0	452984832	58	4477
2026-01-04 23:28:40.51	156.16	18.89	-47.8	-49.8	15.3	0.00e+00	0	56	0	456130560	58	4504
2026-01-04 23:28:42.49	156.42	18.68	-47.5	-49.4	15.7	0.00e+00	0	56	0	460324864	58	4314
2026-01-04 23:28:44.47	156.67	18.47	-47.1	-48.9	16.2	0.00e+00	0	56	0	463470592	57	4300
2026-01-04 23:28:46.44	156.92	18.26	-47.1	-48.8	16.2	0.00e+00	0	56	0	467664896	57	4249
2026-01-04 23:28:48.41	157.16	18.06	-47.1	-48.8	16.2	0.00e+00	0	56	0	470810624	57	4274
2026-01-04 23:28:50.37	157.40	17.86	-47.5	-49.4	15.7	0.00e+00	0	57	0	475004928	57	4561
2026-01-04 23:28:52.36	157.64	17.65	-47.4	-49.4	15.7	0.00e+00	0	57	0	478150656	57	4546
2026-01-04 23:28:54.35	157.88	17.45	-47.7	-49.7	15.2	0.00e+00	0	56	0	482344960	57	4753
2026-01-04 23:28:56.33	158.11	17.25	-47.7	-49.7	15.3	0.00e+00	0	56	0	485490688	57	4752
2026-01-04 23:28:58.30	158.34	17.05	-48.0	-50.1	14.9	0.00e+00	0	56	0	489684992	57	4954
2026-01-04 23:29:00.27	158.57	16.86	-48.0	-50.2	14.8	0.00e+00	0	56	0	493879296	58	4742
2026-01-04 23:29:02.24	158.79	16.66	-48.0	-50.1	14.9	7.00e-07	0	56	0	497025024	58	4685
2026-01-04 23:29:04.23	159.01	16.46	-47.8	-49.7	15.3	0.00e+00	0	56	0	501219328	58	4493
2026-01-04 23:29:06.21	159.23	16.27	-48.2	-50.5	14.5	0.00e+00	0	56	0	504365056	58	4889
2026-01-04 23:29:08.19	159.45	16.08	-48.5	-50.9	14.1	7.00e-07	0	56	0	508559360	58	5103
2026-01-04 23:29:10.17	159.66	15.88	-48.7	-51.3	13.6	3.00e-06	0	56	0	511705088	59	5083
2026-01-04 23:29:12.15	159.88	15.69	-48.9	-51.8	13.2	1.06e-05	0	56	0	515899392	59	5374
2026-01-04 23:29:14.14	160.09	15.50	-48.7	-51.4	13.6	6.80e-06	0	56	0	519045120	59	5114
2026-01-04 23:29:16.11	160.29	15.31	-48.7	-51.3	13.7	8.30e-06	0	56	0	523239424	59	5044
2026-01-04 23:29:18.08	160.49	15.13	-48.6	-51.2	13.8	5.30e-06	0	56	0	526385152	59	4993
2026-01-04 23:29:20.04	160.69	14.94	-48.3	-50.6	14.4	1.50e-06	0	57	0	530579456	59	4671
2026-01-04 23:29:22.02	160.89	14.76	-47.9	-50.0	15.0	0.00e+00	0	56	0	533725184	58	4616
2026-01-04 23:29:23.99	161.09	14.57	-47.9	-50.1	14.9	0.00e+00	0	56	0	537919488	58	4658
2026-01-04 23:29:25.98	161.28	14.39	-48.1	-50.4	14.6	7.00e-07	0	57	0	541065216	58	4818
2026-01-04 23:29:27.95	161.47	14.21	-48.4	-50.8	14.1	7.00e-07	0	56	0	545259520	58	5065
2026-01-04 23:29:29.92	161.66	14.03	-48.5	-51.0	13.9	2.20e-06	0	57	0	549453824	58	5206
2026-01-04 23:29:31.91	161.85	13.85	-48.2	-50.6	14.4	1.50e-06	0	57	0	552599552	59	4657
2026-01-04 23:29:33.89	162.04	13.67	-48.2	-50.5	14.4	3.00e-06	0	57	0	556793856	59	4608
2026-01-04 23:29:35.87	162.22	13.49	-48.3	-50.6	14.3	7.00e-07	0	56	0	559939584	59	4668
2026-01-04 23:29:37.85	162.40	13.31	-47.9	-50.0	14.8	7.00e-07	0	56	0	564133888	58	4645
2026-01-04 23:29:39.84	162.58	13.14	-47.8	-49.9	15.0	0.00e+00	0	56	0	567279616	58	4559
2026-01-04 23:29:41.83	162.76	12.96	-47.8	-49.9	15.0	0.00e+00	0	57	0	571473920	58	4553
2026-01-04 23:29:43.81	162.93	12.79	-47.4	-49.3	15.6	0.00e+00	0	57	0	574619648	57	4524
2026-01-04 23:29:45.79	163.11	12.61	-47.4	-49.3	15.5	7.00e-07	0	57	0	578813952	57	4534
2026-01-04 23:29:47.77	163.28	12.44	-47.0	-48.9	15.9	0.00e+00	0	57	0	581959680	57	4318
2026-01-04 23:29:49.75	163.45	12.27	-47.3	-49.3	15.5	0.00e+00	0	56	0	586153984	57	4509
2026-01-04 23:29:51.73	163.61	12.10	-47.5	-49.5	15.4	0.00e+00	0	57	0	590348288	57	4624
2026-01-04 23:29:53.71	163.78	11.93	-47.7	-49.8	15.1	0.00e+00	0	57	0	593494016	57	4764
2026-01-04 23:29:55.69	163.94	11.76	-47.6	-49.7	15.1	0.00e+00	0	57	0	597688320	57	4737
2026-01-04 23:29:57.67	164.11	11.60	-47.9	-50.1	14.6	0.00e+00	0	56	0	600834048	57	4972
2026-01-04 23:29:59.65	164.27	11.43	-48.2	-50.5	14.3	1.50e-06	0	56	0	605028352	58	4924
2026-01-04 23:30:01.63	164.43	11.27	-48.5	-51.0	13.7	6.80e-06	0	57	0	608174080	58	5200
2026-01-04 23:30:03.61	164.58	11.10	-48.6	-51.3	13.5	9.90e-06	0	56	0	612368384	59	5056
2026-01-04 23:30:05.57	164.74	10.94	-48.9	-51.8	12.9	5.64e-05	0	56	0	615514112	59	5385
2026-01-04 23:30:07.55	164.89	10.78	-49.0	-52.0	12.8	4.42e-05	0	56	0	619708416	59	5470
2026-01-04 23:30:09.53	165.04	10.62	-48.9	-52.0	12.8	5.87e-05	0	56	0	622854144	60	5168
2026-01-04 23:30:11.50	165.19	10.46	-48.9	-51.9	12.8	7.01e-05	0	57	0	627048448	60	5147
2026-01-04 23:30:13.48	165.34	10.30	-49.0	-52.0	12.7	6.63e-05	0	56	0	631242752	60	5198
2026-01-04 23:30:15.47	165.49	10.14	-49.0	-52.1	12.6	8.01e-05	0	56	0	634388480	60	5251
2026-01-04 23:30:17.46	165.64	9.98	-49.1	-52.2	12.4	8.77e-05	0	57	0	638582784	60	5322
2026-01-04 23:30:19.43	165.78	9.82	-48.9	-52.0	12.7	1.12e-04	0	56	0	641728512	60	5178
2026-01-04 23:30:21.42	165.92	9.67	-49.1	-52.3	12.3	1.33e-04	0	56	0	645922816	60	5343
2026-01-04 23:30:23.40	166.07	9.51	-48.7	-51.6	13.0	3.35e-05	0	56	0	649068544	60	4977
2026-01-04 23:30:25.38	166.21	9.36	-48.6	-51.5	13.1	5.26e-05	0	57	0	653262848	60	4904
2026-01-04 23:30:27.35	166.34	9.20	-48.5	-51.1	13.5	1.14e-05	0	56	0	656408576	59	4973
2026-01-04 23:30:29.33	166.48	9.05	-48.4	-51.0	13.6	3.80e-06	0	56	0	660602880	59	4919
2026-01-04 23:30:31.29	166.62	8.90	-48.5	-51.1	13.5	9.10e-06	0	57	0	663748608	59	4965
2026-01-04 23:30:33.28	166.75	8.75	-48.6	-51.3	13.3	1.60e-05	0	57	0	667942912	59	5059
2026-01-04 23:30:35.26	166.89	8.60	-48.8	-51.7	12.8	4.19e-05	0	56	0	671088640	59	5338
2026-01-04 23:30:37.24	167.02	8.45	-48.7	-51.7	12.9	4.57e-05	0	56	0	675282944	59	5300
2026-01-04 23:30:39.22	167.15	8.30	-48.8	-51.7	12.8	6.48e-05	0	57	0	678428672	59	5335
2026-01-04 23:30:41.20	167.28	8.15	-48.8	-51.8	12.7	1.20e-04	0	57	0	682622976	59	5389
2026-01-04 23:30:43.17	167.41	8.00	-48.8	-51.9	12.6	8.01e-05	0	56	0	686817280	59	5407
2026-01-04 23:30:45.16	167.53	7.86	-48.9	-52.0	12.4	9.15e-05	0	56	0	689963008	59	5489
2026-01-04 23:30:47.13	167.66	7.71	-48.9	-52.2	12.2	2.82e-04	0	56	0	694157312	60	5302
2026-01-04 23:30:49.10	167.78	7.57	-48.6	-51.5	12.8	7.55e-05	0	56	0	697303040	60	4925
2026-01-04 23:30:51.08	167.91	7.42	-48.7	-51.8	12.6	1.14e-04	0	56	0	701497344	60	5049
2026-01-04 23:30:53.06	168.03	7.28	-48.7	-51.9	12.3	1.79e-04	0	56	0	704643072	60	5155
2026-01-04 23:30:55.04	168.15	7.13	-48.5	-51.4	12.8	8.85e-05	0	57	0	708837376	60	4858
2026-01-04 23:30:57.01	168.27	6.99	-48.4	-51.3	13.0	3.43e-05	0	57	0	711983104	59	5062
2026-01-04 23:30:58.99	168.39	6.85	-48.4	-51.3	12.9	3.28e-05	0	57	0	716177408	59	5080
2026-01-04 23:31:00.97	168.51	6.71	-48.6	-51.7	12.4	1.85e-04	0	56	0	719323136	59	5323
2026-01-04 23:31:02.94	168.62	6.57	-48.7	-52.1	11.9	4.87e-04	0	56	0	723517440	59	5541
2026-01-04 23:31:04.90	168.74	6.43	-48.8	-52.4	11.4	7.47e-04	0	56	0	726663168	59	5773
2026-01-04 23:31:06.88	168.85	6.29	-48.7	-52.3	11.4	7.67e-04	0	57	0	730857472	59	5688
2026-01-04 23:31:08.87	168.97	6.15	-48.6	-52.4	11.3	1.39e-03	0	57	0	734003200	59	5732
2026-01-04 23:31:10.85	169.08	6.01	-48.7	-52.7	10.7	2.30e-03	0	56	0	738197504	59	5936
2026-01-04 23:31:12.82	169.19	5.88	-48.7	-52.6	10.7	3.51e-03	0	56	0	742391808	59	5907
2026-01-04 23:31:14.80	169.30	5.74	-48.8	-53.1	10.2	4.18e-03	0	57	0	745537536	59	6234
2026-01-04 23:31:16.77	169.41	5.61	-49.0	-53.3	10.0	8.96e-03	0	57	0	749731840	59	6385
2026-01-04 23:31:18.76	169.52	5.47	-49.3	-54.4	9.0	2.48e-02	0	57	0	752877568	60	6829
2026-01-04 23:31:20.75	169.63	5.33	-49.4	-55.2	7.9	7.86e-02	0	56	0	757071872	60	7463
2026-01-04 23:31:22.73	169.74	5.20	-49.2	-55.2	7.6	9.26e-02	0	57	0	760217600	60	7542
2026-01-04 23:31:24.71	169.85	5.07	-49.0	-54.7	8.0	7.06e-02	0	57	0	764411904	60	7112
2026-01-04 23:31:26.69	169.95	4.93	-51.6	-65.5	3.8	1.49e+00	0	57	104	765460480	65	18320
2026-01-04 23:31:28.66	170.06	4.80	-52.1	-66.0	3.8	1.49e+00	0	57	104	765460480	66	18306
2026-01-04 23:31:30.63	170.16	4.67	-52.3	-66.1	3.8	1.49e+00	0	57	104	765460480	66	18725
2026-01-04 23:31:32.61	170.26	4.54	-52.3	-66.2	3.8	1.49e+00	0	56	104	765460480	66	18894
2026-01-04 23:31:34.60	170.36	4.41	-52.5	-66.3	3.8	1.49e+00	0	57	104	765460480	66	19050
2026-01-04 23:31:36.57	170.46	4.28	-52.5	-66.4	3.8	1.49e+00	0	57	104	765460480	66	19215
2026-01-04 23:31:38.56	170.57	4.15	-52.5	-66.4	3.8	1.49e+00	0	57	104	765460480	67	18189
2026-01-04 23:31:40.53	170.66	4.02	-52.6	-66.4	3.8	1.49e+00	0	57	104	765460480	67	18251
2026-01-04 23:31:42.52	170.76	3.89	-52.6	-66.4	3.8	1.49e+00	0	57	104	765460480	67	18275
2026-01-04 23:31:44.51	170.86	3.76	-52.5	-66.4	3.8	1.49e+00	0	56	104	765460480	67	18298
2026-01-04 23:31:46.49	170.96	3.64	-52.7	-66.5	3.8	1.49e+00	0	57	104	765460480	67	18324
2026-01-04 23:31:48.47	171.06	3.51	-52.6	-66.5	3.8	1.49e+00	0	57	104	765460480	67	18314
2026-01-04 23:31:50.45	171.15	3.38	-52.6	-66.5	3.8	1.49e+00	0	57	104	765460480	67	18312
2026-01-04 23:31:52.44	171.25	3.26	-52.6	-66.5	3.8	1.49e+00	0	57	104	765460480	67	18334
2026-01-04 23:31:54.41	171.34	3.13	-52.6	-66.4	3.8	1.49e+00	0	57	104	765460480	67	18284
2026-01-04 23:31:56.39	171.43	3.01	-52.6	-66.4	3.8	1.49e+00	0	57	104	765460480	67	18266

#Closed at: 2026-01-04 23:31:56
#Recorded file [765 MB]: D:/Data/31026_260105_023125.dat