passes_logs/2026/01/04/R3.0SM8_Murmansk_STILSPACE/R3.0SM8_Murmansk_STILSPACE__20260104_011745_SUOMI_NPP_rec.log

#Pass ID: 20260104_011745_SUOMI NPP
#Satellite: SUOMI NPP
#Configuration: NPP
#almurnet v.1.7.20240730
#Start time: 2026-01-04 01:17:47

#Version: 2.2.20231116
#Station: R3.0SM8_Murmansk_STILSPACE
#Location: 33.092731 lon 68.902999 lat
#TLE: 1 37849U 11061A   26001.07732418  .00000182  00000+0  10735-3 0  9990
#TLE: 2 37849  98.7795 303.2470 0002580  87.2016 272.9455 14.19520779734739

#Time	Az	El	Level	Level2	SNR	BER	BlckErr	Temp	State	Recorded	gain1	gain2
2026-01-04 01:17:47.03	26.60	3.11	-52.3	-66.1	3.8	1.49e+00	0	46	0	0	67	17543
2026-01-04 01:17:51.00	26.56	3.37	-51.8	-65.6	3.8	1.49e+00	0	46	104	0	66	17638
2026-01-04 01:17:54.95	26.51	3.64	-51.5	-64.6	3.8	1.49e+00	0	47	104	0	65	16621
2026-01-04 01:17:58.91	26.47	3.90	-51.3	-63.7	3.8	1.49e+00	0	47	104	0	65	14937
2026-01-04 01:18:02.87	26.42	4.18	-51.3	-62.4	4.0	1.47e+00	0	47	104	0	65	12945
2026-01-04 01:18:06.83	26.37	4.45	-51.1	-60.5	4.6	1.00e+00	0	48	0	2097152	65	10397
2026-01-04 01:18:10.79	26.32	4.73	-50.6	-58.0	6.1	3.63e-01	0	48	0	9437184	64	8196
2026-01-04 01:18:14.74	26.27	5.00	-50.1	-55.6	8.4	6.10e-02	0	48	0	16777216	63	6637
2026-01-04 01:18:18.71	26.21	5.29	-49.9	-55.0	9.0	3.31e-02	0	49	0	24117248	63	6188
2026-01-04 01:18:22.68	26.16	5.57	-49.0	-53.0	11.2	2.13e-03	0	49	0	32505856	61	5474
2026-01-04 01:18:26.63	26.10	5.86	-49.4	-53.5	10.6	1.61e-03	0	49	0	39845888	61	5839
2026-01-04 01:18:30.58	26.05	6.15	-48.8	-52.3	11.9	4.76e-04	0	49	0	47185920	60	5400
2026-01-04 01:18:34.53	25.99	6.45	-48.9	-52.4	11.9	3.90e-04	0	50	0	54525952	60	5423
2026-01-04 01:18:38.49	25.93	6.74	-48.9	-52.4	11.8	3.41e-04	0	50	0	61865984	60	5462
2026-01-04 01:18:42.45	25.87	7.05	-48.9	-52.4	11.9	3.07e-04	0	50	0	69206016	60	5460
2026-01-04 01:18:46.43	25.80	7.35	-49.0	-52.5	11.9	3.29e-04	0	50	0	76546048	60	5487
2026-01-04 01:18:50.38	25.74	7.66	-48.5	-51.4	13.0	3.58e-05	0	50	0	83886080	59	5142
2026-01-04 01:18:54.33	25.67	7.97	-48.0	-50.7	13.7	5.30e-06	0	50	0	91226112	59	4730
2026-01-04 01:18:58.28	25.60	8.29	-48.0	-50.5	13.9	1.50e-06	0	50	0	98566144	58	4916
2026-01-04 01:19:02.24	25.53	8.61	-48.0	-50.6	13.9	3.80e-06	0	51	0	105906176	58	4947
2026-01-04 01:19:06.20	25.46	8.93	-48.1	-50.7	13.8	4.50e-06	0	51	0	113246208	58	5009
2026-01-04 01:19:10.16	25.39	9.26	-48.0	-50.5	14.0	3.80e-06	0	51	0	120586240	58	4920
2026-01-04 01:19:14.12	25.31	9.60	-48.2	-50.9	13.9	5.30e-06	0	51	0	127926272	58	5137
2026-01-04 01:19:18.07	25.23	9.93	-48.6	-51.5	13.6	5.87e-05	0	51	0	136314880	59	5163
2026-01-04 01:19:22.02	25.15	10.27	-47.9	-50.3	14.3	7.00e-07	0	52	0	143654912	58	4767
2026-01-04 01:19:25.98	25.07	10.62	-48.0	-50.5	14.1	0.00e+00	0	52	0	150994944	58	4904
2026-01-04 01:19:29.93	24.98	10.97	-47.8	-50.1	14.6	0.00e+00	0	52	0	158334976	58	4656
2026-01-04 01:19:33.89	24.89	11.33	-47.8	-50.2	14.4	7.00e-07	0	52	0	165675008	58	4723
2026-01-04 01:19:37.85	24.80	11.69	-47.7	-50.0	14.7	7.00e-07	0	52	0	173015040	58	4612
2026-01-04 01:19:41.80	24.71	12.06	-47.7	-50.0	14.7	0.00e+00	0	52	0	180355072	58	4611
2026-01-04 01:19:45.76	24.61	12.43	-47.3	-49.5	15.2	0.00e+00	0	52	0	187695104	57	4600
2026-01-04 01:19:49.73	24.51	12.81	-47.5	-49.7	15.0	0.00e+00	0	52	0	195035136	57	4750
2026-01-04 01:19:53.68	24.41	13.19	-47.7	-49.9	14.7	0.00e+00	0	52	0	202375168	57	4863
2026-01-04 01:19:57.63	24.31	13.58	-47.9	-50.2	14.5	7.00e-07	0	53	0	209715200	57	5027
2026-01-04 01:20:01.59	24.20	13.98	-47.4	-49.6	15.2	0.00e+00	0	53	0	217055232	57	4653
2026-01-04 01:20:05.54	24.09	14.38	-46.9	-48.8	16.0	0.00e+00	0	53	0	224395264	56	4506
2026-01-04 01:20:09.48	23.97	14.79	-46.7	-48.4	16.3	0.00e+00	0	53	0	232783872	56	4327
2026-01-04 01:20:13.43	23.85	15.20	-46.6	-48.4	16.4	0.00e+00	0	53	0	240123904	56	4298
2026-01-04 01:20:17.41	23.73	15.63	-46.2	-47.8	16.8	0.00e+00	0	53	0	247463936	55	4258
2026-01-04 01:20:21.35	23.60	16.06	-46.1	-47.7	16.9	0.00e+00	0	53	0	254803968	55	4233
2026-01-04 01:20:25.31	23.47	16.50	-46.0	-47.5	17.1	0.00e+00	0	53	0	262144000	54	4363
2026-01-04 01:20:29.25	23.34	16.94	-46.1	-47.7	17.0	0.00e+00	0	53	0	269484032	54	4442
2026-01-04 01:20:33.20	23.20	17.39	-46.8	-48.6	16.2	0.00e+00	0	53	0	276824064	55	4654
2026-01-04 01:20:37.15	23.05	17.86	-46.8	-48.6	16.1	0.00e+00	0	53	0	284164096	55	4698
2026-01-04 01:20:41.11	22.90	18.33	-46.6	-48.3	16.5	0.00e+00	0	54	0	291504128	56	4277
2026-01-04 01:20:45.06	22.75	18.81	-46.2	-47.8	16.9	0.00e+00	0	54	0	298844160	55	4257
2026-01-04 01:20:49.02	22.58	19.30	-46.0	-47.6	17.1	0.00e+00	0	54	0	306184192	55	4190
2026-01-04 01:20:52.97	22.42	19.80	-46.4	-48.0	16.8	0.00e+00	0	54	0	313524224	55	4365
2026-01-04 01:20:56.93	22.25	20.30	-46.1	-47.6	17.1	0.00e+00	0	54	0	320864256	55	4148
2026-01-04 01:21:00.87	22.07	20.82	-46.0	-47.5	17.3	0.00e+00	0	54	0	328204288	54	4346
2026-01-04 01:21:04.81	21.88	21.35	-45.8	-47.2	17.5	0.00e+00	0	54	0	335544320	54	4216
2026-01-04 01:21:08.76	21.69	21.89	-45.9	-47.4	17.4	0.00e+00	0	54	0	342884352	54	4319
2026-01-04 01:21:12.72	21.49	22.44	-46.2	-47.8	17.0	0.00e+00	0	54	0	351272960	54	4505
2026-01-04 01:21:16.67	21.28	23.00	-46.2	-47.7	17.0	0.00e+00	0	54	0	358612992	54	4484
2026-01-04 01:21:20.63	21.06	23.58	-46.5	-48.1	16.7	0.00e+00	0	54	0	365953024	54	4687
2026-01-04 01:21:24.60	20.84	24.17	-46.5	-48.2	16.6	0.00e+00	0	55	0	373293056	55	4466
2026-01-04 01:21:28.55	20.60	24.77	-46.6	-48.3	16.6	0.00e+00	0	55	0	380633088	55	4517
2026-01-04 01:21:32.48	20.36	25.38	-47.2	-49.1	15.9	0.00e+00	0	54	0	387973120	56	4657
2026-01-04 01:21:36.44	20.10	26.01	-47.2	-49.0	16.0	0.00e+00	0	55	0	395313152	57	4370
2026-01-04 01:21:40.40	19.84	26.66	-47.1	-48.9	16.1	0.00e+00	0	55	0	402653184	56	4588
2026-01-04 01:21:44.36	19.56	27.32	-47.9	-50.1	14.8	0.00e+00	0	55	0	409993216	57	4956
2026-01-04 01:21:48.32	19.27	27.99	-48.2	-50.6	14.3	7.00e-07	0	55	0	417333248	58	4969
2026-01-04 01:21:52.25	18.97	28.68	-47.8	-50.1	14.8	7.00e-07	0	55	0	424673280	58	4669
2026-01-04 01:21:56.19	18.65	29.38	-48.1	-50.8	13.8	1.50e-06	0	55	0	432013312	58	5052
2026-01-04 01:22:00.14	18.32	30.10	-49.0	-52.7	11.5	4.38e-04	0	55	0	439353344	59	5941
2026-01-04 01:22:04.11	17.97	30.84	-49.6	-54.4	9.6	1.06e-02	0	55	0	446693376	61	6447
2026-01-04 01:22:08.06	17.60	31.60	-49.3	-53.2	11.0	3.90e-03	0	55	0	455081984	61	5631
2026-01-04 01:22:12.01	17.22	32.38	-49.7	-53.5	11.1	9.09e-04	0	55	0	462422016	61	5842
2026-01-04 01:22:15.97	16.82	33.17	-49.1	-52.2	12.7	1.35e-04	0	55	0	469762048	61	4999
2026-01-04 01:22:19.93	16.39	33.99	-49.6	-53.2	11.8	4.16e-04	0	55	0	477102080	61	5618
2026-01-04 01:22:23.88	15.94	34.83	-48.9	-51.8	13.0	2.64e-04	0	55	0	484442112	61	4790
2026-01-04 01:22:27.83	15.47	35.68	-48.7	-51.4	13.7	8.30e-06	0	55	0	491782144	59	5135
2026-01-04 01:22:31.80	14.97	36.56	-48.9	-51.9	13.1	1.81e-04	0	55	0	499122176	60	5131
2026-01-04 01:22:35.74	14.44	37.46	-49.1	-52.3	12.8	1.34e-04	0	55	0	506462208	60	5374
2026-01-04 01:22:39.70	13.88	38.38	-48.6	-51.3	13.8	1.14e-05	0	55	0	513802240	60	4799
2026-01-04 01:22:43.65	13.29	39.32	-49.4	-52.8	12.3	1.86e-04	0	55	0	521142272	60	5697
2026-01-04 01:22:47.61	12.66	40.29	-49.5	-53.1	11.9	1.96e-04	0	56	0	528482304	61	5584
2026-01-04 01:22:51.57	11.98	41.28	-49.3	-52.5	12.6	1.27e-04	0	56	0	535822336	61	5202
2026-01-04 01:22:55.52	11.27	42.29	-48.0	-50.2	14.8	7.00e-07	0	55	0	543162368	59	4479
2026-01-04 01:22:59.50	10.50	43.33	-48.4	-50.9	14.3	7.00e-07	0	55	0	551550976	59	4828
2026-01-04 01:23:03.45	9.69	44.39	-48.1	-50.4	14.7	0.00e+00	0	56	0	558891008	59	4569
2026-01-04 01:23:07.41	8.82	45.47	-48.2	-50.7	14.4	0.00e+00	0	56	0	566231040	58	5006
2026-01-04 01:23:11.38	7.88	46.57	-48.1	-50.5	14.6	0.00e+00	0	56	0	573571072	58	4893
2026-01-04 01:23:15.33	6.87	47.69	-48.2	-50.8	14.4	0.00e+00	0	56	0	580911104	58	5045
2026-01-04 01:23:19.29	5.79	48.83	-48.2	-50.4	14.8	0.00e+00	0	56	0	588251136	59	4577
2026-01-04 01:23:23.25	4.62	49.99	-46.7	-48.4	16.6	0.00e+00	0	56	0	595591168	56	4315
2026-01-04 01:23:27.21	3.36	51.17	-46.3	-47.9	17.1	0.00e+00	0	56	0	602931200	54	4569
2026-01-04 01:23:31.18	1.99	52.36	-46.6	-48.3	16.7	0.00e+00	0	56	0	610271232	55	4507
2026-01-04 01:23:35.14	0.50	53.56	-47.8	-50.0	15.2	0.00e+00	0	56	0	617611264	57	4909
2026-01-04 01:23:39.08	358.89	54.76	-47.3	-49.2	15.9	0.00e+00	0	56	0	624951296	57	4492
2026-01-04 01:23:43.04	357.13	55.97	-47.7	-49.9	15.2	7.00e-07	0	56	0	632291328	58	4560
2026-01-04 01:23:47.00	355.21	57.18	-49.3	-52.5	12.7	2.97e-05	0	56	0	639631360	60	5484
2026-01-04 01:23:50.95	353.12	58.38	-48.0	-50.3	14.8	2.20e-06	0	56	0	648019968	59	4500
2026-01-04 01:23:54.92	350.81	59.57	-48.1	-50.4	14.7	0.00e+00	0	56	0	655360000	58	4869
2026-01-04 01:23:58.88	348.30	60.73	-47.8	-49.9	15.3	0.00e+00	0	56	0	662700032	58	4559
2026-01-04 01:24:02.84	345.54	61.86	-46.1	-47.6	17.4	0.00e+00	0	56	0	670040064	55	4153
2026-01-04 01:24:06.80	342.53	62.94	-46.6	-48.3	16.8	0.00e+00	0	56	0	677380096	55	4516
2026-01-04 01:24:10.75	339.24	63.96	-47.2	-49.1	16.1	0.00e+00	0	56	0	684720128	56	4670
2026-01-04 01:24:14.72	335.64	64.92	-46.6	-48.3	16.8	0.00e+00	0	56	0	692060160	55	4508
2026-01-04 01:24:18.68	331.74	65.79	-47.4	-49.3	16.0	0.00e+00	0	56	0	699400192	56	4794
2026-01-04 01:24:22.64	327.54	66.55	-46.9	-48.6	16.5	0.00e+00	0	56	0	706740224	56	4405
2026-01-04 01:24:26.60	323.05	67.20	-48.8	-51.5	13.8	2.20e-06	0	56	0	714080256	60	4871
2026-01-04 01:24:30.54	318.33	67.72	-49.6	-52.9	12.2	1.44e-03	0	56	0	721420288	62	5112
2026-01-04 01:24:34.49	313.38	68.09	-48.5	-50.8	14.4	7.00e-07	0	56	0	728760320	59	4804
2026-01-04 01:24:38.45	308.28	68.31	-49.1	-52.0	13.1	1.12e-04	0	56	0	736100352	61	4901
2026-01-04 01:24:42.41	303.10	68.36	-48.1	-50.2	15.0	7.00e-07	0	57	0	744488960	58	4721
2026-01-04 01:24:46.36	297.95	68.26	-47.9	-50.0	15.2	0.00e+00	0	56	0	751828992	58	4620
2026-01-04 01:24:50.31	292.89	67.99	-48.4	-50.8	14.4	0.00e+00	0	56	0	759169024	59	4812
2026-01-04 01:24:54.28	287.98	67.56	-50.0	-53.9	11.3	2.83e-03	0	56	0	766509056	62	5749
2026-01-04 01:24:58.26	283.29	67.00	-49.5	-52.8	12.2	2.02e-04	0	56	0	773849088	61	5399
2026-01-04 01:25:02.21	278.91	66.31	-46.9	-48.5	16.7	0.00e+00	0	56	0	781189120	56	4383
2026-01-04 01:25:06.18	274.80	65.50	-45.6	-46.9	18.0	0.00e+00	0	56	0	788529152	54	4084
2026-01-04 01:25:10.15	270.99	64.60	-46.1	-47.7	17.4	0.00e+00	0	56	0	795869184	54	4463
2026-01-04 01:25:14.11	267.50	63.62	-46.4	-48.0	17.0	0.00e+00	0	56	0	803209216	54	4647
2026-01-04 01:25:18.07	264.30	62.57	-47.8	-50.0	15.2	0.00e+00	0	56	0	810549248	57	4896
2026-01-04 01:25:22.04	261.36	61.46	-48.1	-50.5	14.7	0.00e+00	0	57	0	817889280	58	4912
2026-01-04 01:25:26.00	258.69	60.32	-48.4	-50.9	14.3	0.00e+00	0	57	0	825229312	58	5146
2026-01-04 01:25:29.95	256.26	59.15	-47.7	-49.7	15.5	0.00e+00	0	57	0	833617920	58	4477
2026-01-04 01:25:33.92	254.02	57.96	-47.0	-48.7	16.4	0.00e+00	0	56	0	840957952	57	4234
2026-01-04 01:25:37.87	251.99	56.75	-45.8	-47.2	17.7	0.00e+00	0	57	0	848297984	53	4478
2026-01-04 01:25:41.81	250.13	55.55	-46.6	-48.2	16.9	0.00e+00	0	57	0	855638016	56	4202
2026-01-04 01:25:45.76	248.42	54.34	-46.9	-48.6	16.5	0.00e+00	0	56	0	862978048	57	4175
2026-01-04 01:25:49.71	246.86	53.13	-46.9	-48.6	16.5	0.00e+00	0	57	0	870318080	56	4395
2026-01-04 01:25:53.68	245.41	51.93	-48.0	-50.3	14.9	0.00e+00	0	57	0	877658112	57	5071
2026-01-04 01:25:57.63	244.08	50.74	-47.7	-49.7	15.5	0.00e+00	0	57	0	884998144	58	4455
2026-01-04 01:26:01.59	242.84	49.57	-46.6	-48.2	16.9	0.00e+00	0	57	0	892338176	56	4232
2026-01-04 01:26:05.56	241.70	48.41	-48.1	-50.4	14.8	0.00e+00	0	57	0	899678208	59	4558
2026-01-04 01:26:09.53	240.64	47.27	-49.7	-53.3	11.9	2.44e-04	0	57	0	907018240	61	5677
2026-01-04 01:26:13.47	239.66	46.16	-48.3	-50.5	14.7	1.50e-06	0	57	0	914358272	59	4647
2026-01-04 01:26:17.42	238.75	45.06	-48.5	-51.0	14.1	2.20e-06	0	56	0	921698304	60	4629
2026-01-04 01:26:21.37	237.89	43.99	-49.0	-51.8	13.3	2.28e-05	0	57	0	929038336	60	5088
2026-01-04 01:26:25.33	237.10	42.94	-50.6	-55.5	9.5	6.22e-03	0	57	0	937426944	63	6503
2026-01-04 01:26:29.27	236.35	41.91	-50.2	-54.4	10.6	1.50e-02	0	57	0	944766976	63	5738
2026-01-04 01:26:33.22	235.65	40.91	-48.6	-51.2	13.9	1.50e-06	0	57	0	952107008	60	4717
2026-01-04 01:26:37.19	234.99	39.92	-48.8	-51.6	13.6	9.90e-06	0	57	0	959447040	60	4980
2026-01-04 01:26:41.16	234.37	38.96	-49.5	-53.4	11.3	1.09e-03	0	57	0	966787072	61	5764
2026-01-04 01:26:45.12	233.79	38.02	-50.0	-54.6	10.0	1.71e-03	0	57	0	974127104	61	6613
2026-01-04 01:26:49.08	233.23	37.10	-49.4	-52.8	12.0	6.52e-04	0	57	0	981467136	62	5096
2026-01-04 01:26:53.04	232.71	36.20	-48.5	-50.9	14.3	0.00e+00	0	57	0	988807168	59	4857
2026-01-04 01:26:56.99	232.22	35.33	-49.2	-52.2	13.0	1.60e-05	0	57	0	996147200	60	5284
2026-01-04 01:27:00.93	231.76	34.48	-50.2	-54.3	10.7	5.45e-03	0	57	0	1003487232	62	6056
2026-01-04 01:27:04.90	231.31	33.65	-50.1	-53.9	11.2	2.08e-03	0	57	0	1010827264	62	5784
2026-01-04 01:27:08.85	230.90	32.84	-50.4	-54.7	10.2	8.11e-03	0	57	0	1018167296	63	5946
2026-01-04 01:27:12.82	230.50	32.05	-50.3	-54.5	10.6	2.79e-03	0	57	0	1025507328	63	5831
2026-01-04 01:27:16.77	230.12	31.27	-49.3	-52.3	12.8	1.36e-04	0	57	0	1033895936	61	5086
2026-01-04 01:27:20.74	229.75	30.52	-49.1	-52.0	13.1	1.83e-05	0	57	0	1041235968	60	5202
2026-01-04 01:27:24.70	229.41	29.78	-50.3	-54.6	10.4	4.38e-03	0	57	0	1048576000	62	6259
2026-01-04 01:27:28.67	229.08	29.06	-49.9	-53.5	11.6	7.41e-04	0	57	0	1055916032	62	5508
2026-01-04 01:27:32.60	228.77	28.36	-50.3	-54.5	10.6	3.15e-03	0	57	0	1063256064	62	6139
2026-01-04 01:27:36.56	228.47	27.68	-49.6	-52.9	12.2	3.75e-04	0	57	0	1070596096	62	5144
2026-01-04 01:27:40.51	228.18	27.01	-48.9	-51.7	13.5	1.98e-05	0	57	0	1077936128	60	4989
2026-01-04 01:27:44.48	227.90	26.35	-48.8	-51.7	13.4	1.37e-05	0	57	0	1085276160	60	4998
2026-01-04 01:27:48.44	227.64	25.71	-49.4	-52.5	12.6	5.95e-05	0	57	0	1092616192	60	5483
2026-01-04 01:27:52.40	227.39	25.08	-49.4	-52.6	12.5	1.22e-04	0	57	0	1099956224	61	5253
2026-01-04 01:27:56.37	227.14	24.47	-48.5	-51.0	14.1	2.20e-06	0	57	0	1107296256	60	4603
2026-01-04 01:28:00.33	226.91	23.87	-48.4	-50.7	14.4	7.00e-07	0	57	0	1114636288	59	4756
2026-01-04 01:28:04.31	226.69	23.28	-48.8	-51.4	13.7	4.50e-06	0	57	0	1123024896	59	5142
2026-01-04 01:28:08.27	226.47	22.71	-49.0	-51.8	13.3	2.51e-05	0	57	0	1130364928	60	5094
2026-01-04 01:28:12.22	226.26	22.15	-48.4	-50.8	14.4	7.00e-07	0	57	0	1137704960	59	4795
2026-01-04 01:28:16.17	226.07	21.60	-48.3	-50.5	14.6	0.00e+00	0	57	0	1145044992	59	4641
2026-01-04 01:28:20.13	225.87	21.06	-49.0	-51.8	13.3	1.44e-05	0	57	0	1152385024	59	5352
2026-01-04 01:28:24.09	225.69	20.54	-49.1	-52.1	12.8	5.56e-05	0	57	0	1159725056	60	5273
2026-01-04 01:28:28.04	225.51	20.02	-48.9	-51.8	13.2	2.36e-05	0	57	0	1167065088	60	5079
2026-01-04 01:28:31.98	225.34	19.52	-48.4	-50.8	14.2	3.00e-06	0	57	0	1174405120	59	4773
2026-01-04 01:28:35.95	225.17	19.02	-48.3	-50.6	14.4	7.00e-07	0	57	0	1181745152	59	4677
2026-01-04 01:28:39.89	225.01	18.53	-48.5	-50.9	14.1	2.20e-06	0	57	0	1189085184	59	4829
2026-01-04 01:28:43.85	224.86	18.06	-48.4	-50.8	14.1	3.80e-06	0	57	0	1196425216	59	4780
2026-01-04 01:28:47.80	224.71	17.59	-48.4	-50.8	14.1	7.00e-07	0	57	0	1203765248	59	4774
2026-01-04 01:28:51.76	224.56	17.13	-48.0	-50.2	14.7	0.00e+00	0	57	0	1211105280	58	4746
2026-01-04 01:28:55.73	224.42	16.67	-48.3	-50.7	14.2	2.20e-06	0	57	0	1218445312	58	4999
2026-01-04 01:28:59.68	224.29	16.23	-48.6	-51.2	13.6	7.60e-06	0	57	0	1226833920	58	5300
2026-01-04 01:29:03.65	224.15	15.79	-48.6	-51.2	13.5	1.14e-05	0	57	0	1234173952	59	5037
2026-01-04 01:29:07.59	224.03	15.37	-48.8	-51.7	13.0	2.28e-05	0	57	0	1241513984	59	5319
2026-01-04 01:29:11.55	223.90	14.95	-49.1	-52.2	12.5	8.08e-05	0	57	0	1248854016	60	5302
2026-01-04 01:29:15.51	223.78	14.53	-49.3	-52.8	11.8	5.13e-04	0	57	0	1256194048	60	5687
2026-01-04 01:29:19.46	223.67	14.12	-49.4	-52.9	11.8	4.24e-04	0	57	0	1263534080	60	5735
2026-01-04 01:29:23.43	223.55	13.72	-49.7	-53.5	11.0	1.67e-03	0	57	0	1270874112	61	5839
2026-01-04 01:29:27.39	223.44	13.33	-49.8	-54.1	10.4	4.38e-03	0	57	0	1278214144	61	6225
2026-01-04 01:29:31.33	223.34	12.94	-49.9	-54.1	10.4	5.10e-03	0	57	0	1285554176	62	5870
2026-01-04 01:29:35.29	223.24	12.56	-49.6	-53.5	11.0	1.71e-03	0	57	0	1292894208	62	5483
2026-01-04 01:29:39.24	223.14	12.18	-49.7	-53.6	10.9	1.81e-03	0	57	0	1300234240	62	5580
2026-01-04 01:29:43.20	223.04	11.81	-49.7	-53.6	10.8	2.30e-03	0	57	0	1307574272	62	5546
2026-01-04 01:29:47.16	222.94	11.44	-49.7	-53.6	10.8	2.13e-03	0	57	0	1314914304	62	5577
2026-01-04 01:29:51.11	222.85	11.08	-49.4	-53.2	11.1	2.09e-03	0	57	0	1322254336	62	5285
2026-01-04 01:29:55.07	222.76	10.73	-49.5	-53.6	10.6	2.12e-03	0	57	0	1330642944	61	5902
2026-01-04 01:29:59.04	222.68	10.38	-49.1	-52.7	11.5	6.51e-04	0	57	0	1337982976	61	5316
2026-01-04 01:30:03.00	222.59	10.03	-49.4	-53.3	10.9	1.79e-03	0	57	0	1345323008	61	5683
2026-01-04 01:30:06.95	222.51	9.69	-49.3	-53.1	11.1	1.82e-03	0	57	0	1352663040	61	5531
2026-01-04 01:30:10.92	222.43	9.36	-49.5	-53.6	10.5	2.98e-03	0	57	0	1360003072	61	5860
2026-01-04 01:30:14.88	222.35	9.02	-49.5	-53.7	10.5	4.57e-03	0	57	0	1367343104	61	5939
2026-01-04 01:30:18.83	222.27	8.70	-49.8	-54.6	9.4	1.28e-02	0	57	0	1374683136	61	6645
2026-01-04 01:30:22.80	222.20	8.37	-49.9	-54.8	9.2	1.94e-02	0	57	0	1382023168	61	6761
2026-01-04 01:30:26.77	222.13	8.05	-50.0	-55.1	8.8	2.53e-02	0	57	0	1389363200	61	7020
2026-01-04 01:30:30.73	222.06	7.74	-50.1	-55.6	8.4	5.30e-02	0	57	0	1396703232	62	6960
2026-01-04 01:30:34.70	221.99	7.42	-50.0	-55.3	8.6	3.72e-02	0	57	0	1404043264	62	6735
2026-01-04 01:30:38.65	221.92	7.12	-50.1	-55.7	8.2	5.72e-02	0	57	0	1412431872	62	7045
2026-01-04 01:30:42.61	221.86	6.81	-50.1	-55.8	8.0	5.90e-02	0	57	0	1419771904	62	7181
2026-01-04 01:30:46.56	221.79	6.51	-50.3	-56.6	7.2	1.40e-01	0	57	0	1427111936	62	7899
2026-01-04 01:30:50.51	221.73	6.22	-50.3	-56.9	7.0	1.56e-01	0	57	0	1434451968	62	8106
2026-01-04 01:30:54.46	221.67	5.92	-50.5	-57.9	6.1	3.12e-01	0	57	0	1441792000	62	9108
2026-01-04 01:30:58.41	221.61	5.63	-50.4	-57.1	6.7	1.86e-01	0	57	0	1449132032	62	8353
2026-01-04 01:31:02.37	221.56	5.35	-50.3	-57.2	6.6	1.93e-01	0	57	0	1456472064	62	8370
2026-01-04 01:31:06.34	221.50	5.06	-50.3	-57.2	6.5	2.29e-01	0	57	0	1463812096	62	8443
2026-01-04 01:31:10.30	221.44	4.78	-52.1	-65.9	3.8	1.49e+00	0	57	104	1464860672	66	18260
2026-01-04 01:31:14.25	221.39	4.50	-52.2	-66.1	3.8	1.49e+00	0	57	104	1464860672	66	18673
2026-01-04 01:31:18.21	221.34	4.23	-52.4	-66.2	3.8	1.49e+00	0	57	104	1464860672	66	18856
2026-01-04 01:31:22.18	221.29	3.95	-52.5	-66.3	3.8	1.49e+00	0	57	104	1464860672	66	19032
2026-01-04 01:31:26.14	221.24	3.68	-52.4	-66.4	3.8	1.49e+00	0	57	104	1464860672	66	19201
2026-01-04 01:31:30.09	221.19	3.41	-52.6	-66.4	3.8	1.49e+00	0	57	104	1464860672	67	18176
2026-01-04 01:31:34.04	221.14	3.15	-52.6	-66.4	3.8	1.49e+00	0	57	104	1464860672	67	18195

#Closed at: 2026-01-04 01:31:37
#Recorded file [1464 MB]: D:/Data/31026_260104_043106.dat