passes_logs/2026/01/04/R3.0SM8_Murmansk_STILSPACE/R3.0SM8_Murmansk_STILSPACE__20260104_121609_FENGYUN_3D_rec.log

#Pass ID: 20260104_121609_FENGYUN 3D
#Satellite: FENGYUN 3D
#Configuration: FENGYUN 3D
#almurnet v.1.7.20240730
#Start time: 2026-01-04 12:16:08

#Version: 2.2.20231116
#Station: R3.0SM8_Murmansk_STILSPACE
#Location: 33.092731 lon 68.902999 lat
#TLE: 1 43010U 17072A   26003.51579816  .00000092  00000+0  65324-4 0  9992
#TLE: 2 43010  98.9912 335.1548 0001916 128.4619 231.6729 14.19692074421623

#Time	Az	El	Level	Level2	SNR	BER	BlckErr	Temp	State	Recorded	gain1	gain2
2026-01-04 12:16:08.92	169.53	2.99	-52.5	-63.3	3.8	8.46e-01	0	46	0	0	67	12737
2026-01-04 12:16:12.88	169.63	3.25	-52.2	-63.1	3.8	8.46e-01	0	46	104	0	67	12457
2026-01-04 12:16:16.83	169.73	3.51	-51.8	-62.6	3.8	8.45e-01	0	46	104	0	66	12458
2026-01-04 12:16:20.79	169.83	3.78	-51.3	-61.8	3.8	8.47e-01	0	47	104	0	65	12057
2026-01-04 12:16:24.76	169.93	4.05	-51.3	-61.5	3.8	8.47e-01	0	47	104	0	65	11591
2026-01-04 12:16:28.70	170.04	4.32	-51.2	-60.5	3.8	8.46e-01	0	47	104	0	65	10365
2026-01-04 12:16:32.66	170.15	4.59	-50.4	-55.9	5.5	7.55e-01	0	48	0	0	63	6829
2026-01-04 12:16:36.62	170.26	4.87	-48.3	-51.0	10.1	1.43e-02	0	48	0	20971520	59	4891
2026-01-04 12:16:40.56	170.37	5.14	-47.2	-49.3	11.9	4.02e-04	0	48	0	42991616	57	4500
2026-01-04 12:16:44.53	170.48	5.43	-46.6	-48.4	12.9	1.21e-04	0	48	0	66060288	56	4293
2026-01-04 12:16:48.49	170.60	5.71	-44.9	-46.2	14.9	1.10e-06	0	49	0	88080384	53	3990
2026-01-04 12:16:52.46	170.71	6.00	-44.5	-45.7	15.5	0.00e+00	0	49	0	110100480	51	4208
2026-01-04 12:16:56.40	170.83	6.29	-44.5	-45.6	15.7	0.00e+00	0	49	0	132120576	51	4191
2026-01-04 12:17:00.36	170.95	6.58	-44.4	-45.5	15.9	0.00e+00	0	49	0	154140672	51	4132
2026-01-04 12:17:04.32	171.08	6.88	-44.2	-45.2	16.2	0.00e+00	0	49	0	177209344	51	4001
2026-01-04 12:17:08.28	171.20	7.18	-44.1	-45.1	16.4	0.00e+00	0	50	0	199229440	51	3947
2026-01-04 12:17:12.25	171.33	7.49	-44.0	-45.1	16.5	0.00e+00	0	50	0	221249536	51	3920
2026-01-04 12:17:16.20	171.46	7.80	-44.1	-45.1	16.4	0.00e+00	0	50	0	243269632	51	3940
2026-01-04 12:17:20.17	171.59	8.11	-44.0	-45.0	16.6	0.00e+00	0	50	0	266338304	51	3908
2026-01-04 12:17:24.13	171.73	8.42	-44.3	-45.4	16.3	0.00e+00	0	50	0	288358400	51	4053
2026-01-04 12:17:28.09	171.87	8.74	-44.0	-45.1	16.6	0.00e+00	0	50	0	310378496	51	3918
2026-01-04 12:17:32.05	172.01	9.07	-43.8	-44.8	16.9	0.00e+00	0	51	0	333447168	50	4024
2026-01-04 12:17:36.02	172.15	9.40	-43.9	-44.9	16.8	0.00e+00	0	51	0	355467264	50	4076
2026-01-04 12:17:39.99	172.30	9.73	-43.9	-44.9	16.9	0.00e+00	0	51	0	377487360	50	4064
2026-01-04 12:17:43.95	172.45	10.06	-43.8	-44.8	17.0	0.00e+00	0	51	0	399507456	50	4028
2026-01-04 12:17:47.90	172.60	10.40	-44.1	-45.1	16.7	0.00e+00	0	51	0	422576128	50	4188
2026-01-04 12:17:51.86	172.76	10.75	-43.9	-44.9	16.9	0.00e+00	0	51	0	444596224	50	4078
2026-01-04 12:17:55.81	172.91	11.10	-44.3	-45.3	16.5	0.00e+00	0	52	0	466616320	50	4286
2026-01-04 12:17:59.76	173.08	11.45	-43.6	-44.5	17.3	0.00e+00	0	52	0	488636416	50	3899
2026-01-04 12:18:03.75	173.25	11.82	-43.6	-44.6	17.2	0.00e+00	0	52	0	511705088	50	3935
2026-01-04 12:18:07.71	173.42	12.18	-43.5	-44.5	17.4	0.00e+00	0	52	0	533725184	50	3874
2026-01-04 12:18:11.67	173.59	12.55	-44.1	-45.1	16.8	0.00e+00	0	52	0	555745280	50	4149
2026-01-04 12:18:15.64	173.77	12.93	-43.8	-44.8	17.1	0.00e+00	0	52	0	577765376	50	4040
2026-01-04 12:18:19.61	173.95	13.31	-43.8	-44.7	17.2	0.00e+00	0	52	0	600834048	50	3993
2026-01-04 12:18:23.56	174.14	13.70	-43.3	-44.2	17.7	0.00e+00	0	52	0	622854144	49	3980
2026-01-04 12:18:27.52	174.33	14.09	-43.3	-44.1	17.8	0.00e+00	0	53	0	644874240	49	3952
2026-01-04 12:18:31.49	174.53	14.49	-42.9	-43.7	18.2	0.00e+00	0	53	0	666894336	48	3979
2026-01-04 12:18:35.44	174.73	14.90	-42.7	-43.5	18.4	0.00e+00	0	53	0	689963008	48	3911
2026-01-04 12:18:39.41	174.94	15.31	-42.2	-43.0	18.8	0.00e+00	0	53	0	711983104	47	3888
2026-01-04 12:18:43.37	175.15	15.73	-42.1	-42.9	18.9	0.00e+00	0	53	0	734003200	47	3828
2026-01-04 12:18:47.33	175.37	16.16	-42.1	-42.9	18.9	0.00e+00	0	53	0	756023296	47	3830
2026-01-04 12:18:51.29	175.59	16.59	-42.1	-42.8	18.9	0.00e+00	0	53	0	779091968	47	3817
2026-01-04 12:18:55.25	175.82	17.03	-42.1	-42.8	18.9	0.00e+00	0	53	0	801112064	47	3824
2026-01-04 12:18:59.21	176.06	17.48	-42.3	-43.1	18.7	0.00e+00	0	53	0	823132160	47	3937
2026-01-04 12:19:03.17	176.30	17.94	-41.6	-42.4	19.4	0.00e+00	0	53	0	845152256	46	3829
2026-01-04 12:19:07.13	176.55	18.40	-41.5	-42.2	19.6	0.00e+00	0	54	0	868220928	46	3769
2026-01-04 12:19:11.09	176.81	18.88	-41.4	-42.1	19.6	0.00e+00	0	54	0	890241024	45	3948
2026-01-04 12:19:15.03	177.07	19.36	-41.6	-42.4	19.4	0.00e+00	0	54	0	912261120	45	4060
2026-01-04 12:19:19.00	177.34	19.85	-41.7	-42.4	19.4	0.00e+00	0	54	0	934281216	45	4098
2026-01-04 12:19:22.94	177.62	20.35	-41.3	-42.0	19.7	0.00e+00	0	54	0	956301312	45	3911
2026-01-04 12:19:26.90	177.92	20.86	-41.3	-42.0	19.8	0.00e+00	0	54	0	979369984	45	3880
2026-01-04 12:19:30.84	178.21	21.37	-41.3	-42.1	19.8	0.00e+00	0	54	0	1001390080	45	3918
2026-01-04 12:19:34.81	178.52	21.91	-41.1	-41.8	20.0	0.00e+00	0	54	0	1023410176	45	3782
2026-01-04 12:19:38.79	178.85	22.45	-41.1	-41.8	20.0	0.00e+00	0	54	0	1045430272	45	3800
2026-01-04 12:19:42.74	179.17	23.00	-40.8	-41.4	20.4	0.00e+00	0	54	0	1068498944	44	3856
2026-01-04 12:19:46.69	179.52	23.56	-40.7	-41.3	20.5	0.00e+00	0	54	0	1090519040	44	3810
2026-01-04 12:19:50.66	179.87	24.14	-40.7	-41.3	20.5	0.00e+00	0	54	0	1112539136	44	3810
2026-01-04 12:19:54.60	180.24	24.72	-40.6	-41.2	20.6	0.00e+00	0	54	0	1134559232	44	3780
2026-01-04 12:19:58.56	180.62	25.32	-40.7	-41.3	20.5	0.00e+00	0	54	0	1156579328	44	3811
2026-01-04 12:20:02.52	181.01	25.93	-40.3	-40.9	20.7	0.00e+00	0	55	0	1179648000	43	3868
2026-01-04 12:20:06.49	181.42	26.55	-40.0	-40.6	21.1	0.00e+00	0	55	0	1201668096	43	3720
2026-01-04 12:20:10.46	181.85	27.19	-40.1	-40.7	21.0	0.00e+00	0	54	0	1223688192	43	3763
2026-01-04 12:20:14.42	182.29	27.84	-40.2	-40.8	20.9	0.00e+00	0	55	0	1245708288	43	3796
2026-01-04 12:20:18.37	182.75	28.50	-40.2	-40.9	20.8	0.00e+00	0	55	0	1268776960	43	3835
2026-01-04 12:20:22.35	183.23	29.18	-40.7	-41.4	20.3	0.00e+00	0	55	0	1290797056	43	4078
2026-01-04 12:20:26.30	183.72	29.87	-40.3	-41.0	20.7	0.00e+00	0	55	0	1312817152	43	3881
2026-01-04 12:20:30.26	184.24	30.58	-40.9	-41.5	20.3	0.00e+00	0	55	0	1334837248	43	4135
2026-01-04 12:20:34.22	184.79	31.30	-40.3	-40.9	21.1	0.00e+00	0	55	0	1357905920	43	3829
2026-01-04 12:20:38.19	185.36	32.04	-40.1	-40.7	21.2	0.00e+00	0	55	0	1379926016	43	3749
2026-01-04 12:20:42.16	185.95	32.79	-40.1	-40.7	21.3	0.00e+00	0	55	0	1401946112	43	3744
2026-01-04 12:20:46.13	186.57	33.56	-40.6	-41.2	20.7	0.00e+00	0	55	0	1425014784	43	3987
2026-01-04 12:20:50.09	187.22	34.35	-40.5	-41.0	20.9	0.00e+00	0	55	0	1447034880	43	3909
2026-01-04 12:20:54.07	187.91	35.15	-40.7	-41.3	20.8	0.00e+00	0	55	0	1469054976	44	3812
2026-01-04 12:20:58.04	188.62	35.97	-39.6	-40.2	21.8	0.00e+00	0	55	0	1492123648	42	3744
2026-01-04 12:21:01.99	189.37	36.80	-39.7	-40.2	21.7	0.00e+00	0	55	0	1514143744	42	3777
2026-01-04 12:21:05.94	190.16	37.65	-39.6	-40.2	21.7	0.00e+00	0	55	0	1536163840	42	3750
2026-01-04 12:21:09.91	190.99	38.52	-40.0	-40.5	21.4	0.00e+00	0	55	0	1558183936	42	3909
2026-01-04 12:21:13.87	191.87	39.40	-40.1	-40.7	21.3	0.00e+00	0	55	0	1580204032	42	3966
2026-01-04 12:21:17.82	192.79	40.29	-39.8	-40.3	21.6	0.00e+00	0	55	0	1603272704	42	3823
2026-01-04 12:21:21.79	193.77	41.20	-40.2	-40.8	21.2	0.00e+00	0	56	0	1625292800	42	4027
2026-01-04 12:21:25.75	194.80	42.13	-40.4	-41.0	21.0	0.00e+00	0	56	0	1647312896	42	4128
2026-01-04 12:21:29.70	195.89	43.06	-40.1	-40.6	21.4	0.00e+00	0	56	0	1669332992	42	3937
2026-01-04 12:21:33.64	197.05	44.00	-40.3	-40.8	21.1	0.00e+00	0	56	0	1692401664	42	4049
2026-01-04 12:21:37.60	198.27	44.96	-40.0	-40.5	21.5	0.00e+00	0	56	0	1714421760	42	3896
2026-01-04 12:21:41.55	199.57	45.93	-40.0	-40.5	21.5	0.00e+00	0	56	0	1736441856	42	3895
2026-01-04 12:21:45.52	200.96	46.90	-40.1	-40.7	21.3	0.00e+00	0	56	0	1758461952	42	3975
2026-01-04 12:21:49.47	202.43	47.87	-40.3	-40.8	21.2	0.00e+00	0	56	0	1780482048	42	4036
2026-01-04 12:21:53.43	203.99	48.85	-40.8	-41.4	20.7	0.00e+00	0	56	0	1803550720	43	4057
2026-01-04 12:21:57.39	205.66	49.83	-40.8	-41.4	20.6	0.00e+00	0	56	0	1825570816	43	4090
2026-01-04 12:22:01.33	207.42	50.79	-40.7	-41.3	20.7	0.00e+00	0	56	0	1847590912	43	4034
2026-01-04 12:22:05.30	209.32	51.75	-40.8	-41.4	20.7	0.00e+00	0	56	0	1869611008	43	4071
2026-01-04 12:22:09.27	211.34	52.70	-40.7	-41.2	20.9	0.00e+00	0	56	0	1892679680	44	3770
2026-01-04 12:22:13.23	213.49	53.62	-40.8	-41.4	20.7	0.00e+00	0	56	0	1914699776	44	3845
2026-01-04 12:22:17.16	215.75	54.51	-41.1	-41.7	20.4	0.00e+00	0	56	0	1936719872	44	3994
2026-01-04 12:22:21.11	218.17	55.37	-40.8	-41.4	20.8	0.00e+00	0	56	0	1958739968	44	3825
2026-01-04 12:22:25.07	220.75	56.20	-41.2	-41.8	20.4	0.00e+00	0	56	0	1980760064	44	4014
2026-01-04 12:22:29.01	223.46	56.97	-41.2	-41.9	20.3	0.00e+00	0	56	0	2002780160	44	4066
2026-01-04 12:22:32.95	226.32	57.69	-41.1	-41.8	20.4	0.00e+00	0	56	0	2025848832	45	3781
2026-01-04 12:22:36.90	229.34	58.35	-41.3	-41.9	20.3	0.00e+00	0	56	0	2047868928	44	4076
2026-01-04 12:22:40.86	232.51	58.94	-40.3	-40.8	21.2	0.00e+00	0	56	0	2069889024	43	3817
2026-01-04 12:22:44.83	235.83	59.46	-41.0	-41.6	20.5	0.00e+00	0	56	0	2092957696	43	4154
2026-01-04 12:22:48.80	239.26	59.89	-40.0	-40.5	21.5	0.00e+00	0	56	0	2114977792	43	3693
2026-01-04 12:22:52.76	242.79	60.22	-40.2	-40.7	21.3	0.00e+00	0	56	0	2136997888	43	3774
2026-01-04 12:22:56.71	246.39	60.46	-41.6	-42.2	19.9	0.00e+00	0	56	0	2159017984	44	4241
2026-01-04 12:23:00.67	250.05	60.60	-41.5	-42.2	20.0	0.00e+00	0	56	0	2181038080	45	3979
2026-01-04 12:23:04.63	253.74	60.64	-41.0	-41.7	20.5	0.00e+00	0	56	0	2204106752	44	3959
2026-01-04 12:23:08.58	257.41	60.57	-39.7	-40.2	21.8	0.00e+00	0	56	0	2226126848	42	3777
2026-01-04 12:23:12.55	261.07	60.40	-40.0	-40.6	21.4	0.00e+00	0	56	0	2248146944	42	3938
2026-01-04 12:23:16.50	264.64	60.13	-39.8	-40.3	21.6	0.00e+00	0	56	0	2270167040	42	3819
2026-01-04 12:23:20.47	268.15	59.76	-40.2	-40.8	21.3	0.00e+00	0	56	0	2292187136	42	4005
2026-01-04 12:23:24.43	271.54	59.30	-40.2	-40.7	21.3	0.00e+00	0	56	0	2315255808	43	3767
2026-01-04 12:23:28.36	274.78	58.77	-40.3	-40.9	21.1	0.00e+00	0	57	0	2337275904	43	3843
2026-01-04 12:23:32.31	277.89	58.16	-40.9	-41.5	20.6	0.00e+00	0	56	0	2359296000	43	4101
2026-01-04 12:23:36.27	280.87	57.48	-41.7	-42.3	19.9	0.00e+00	0	56	0	2381316096	45	4038
2026-01-04 12:23:40.24	283.70	56.73	-41.7	-42.4	19.8	0.00e+00	0	56	0	2404384768	45	4071
2026-01-04 12:23:44.20	286.38	55.94	-40.9	-41.6	20.6	0.00e+00	0	56	0	2426404864	44	3923
2026-01-04 12:23:48.15	288.89	55.11	-41.5	-42.1	20.1	0.00e+00	0	56	0	2448424960	44	4189
2026-01-04 12:23:52.10	291.26	54.24	-41.6	-42.3	19.9	0.00e+00	0	56	0	2470445056	45	4011
2026-01-04 12:23:56.05	293.49	53.33	-41.7	-42.3	19.9	0.00e+00	0	56	0	2492465152	45	4041
2026-01-04 12:24:00.01	295.59	52.41	-41.2	-41.9	20.3	0.00e+00	0	56	0	2515533824	45	3839
2026-01-04 12:24:03.97	297.56	51.46	-40.6	-41.1	21.0	0.00e+00	0	56	0	2537553920	44	3732
2026-01-04 12:24:07.93	299.42	50.50	-40.7	-41.2	20.9	0.00e+00	0	56	0	2559574016	44	3776
2026-01-04 12:24:11.90	301.16	49.53	-40.1	-40.7	21.4	0.00e+00	0	57	0	2581594112	43	3745
2026-01-04 12:24:15.86	302.79	48.56	-40.5	-41.1	20.9	0.00e+00	0	56	0	2604662784	43	3937
2026-01-04 12:24:19.82	304.32	47.58	-41.4	-42.0	20.2	0.00e+00	0	56	0	2626682880	44	4121
2026-01-04 12:24:23.79	305.76	46.61	-41.9	-42.6	19.6	0.00e+00	0	56	0	2648702976	45	4153
2026-01-04 12:24:27.73	307.11	45.64	-41.1	-41.7	20.4	0.00e+00	0	57	0	2671771648	45	3761
2026-01-04 12:24:31.69	308.39	44.68	-41.0	-41.6	20.5	0.00e+00	0	56	0	2693791744	45	3731
2026-01-04 12:24:35.65	309.59	43.73	-40.4	-41.0	21.1	0.00e+00	0	57	0	2715811840	44	3668
2026-01-04 12:24:39.60	310.72	42.79	-40.4	-41.0	21.0	0.00e+00	0	57	0	2737831936	43	3875
2026-01-04 12:24:43.56	311.79	41.86	-40.0	-40.5	21.4	0.00e+00	0	56	0	2759852032	43	3674
2026-01-04 12:24:47.52	312.81	40.95	-40.1	-40.7	21.3	0.00e+00	0	57	0	2781872128	43	3769
2026-01-04 12:24:51.46	313.76	40.05	-39.8	-40.3	21.6	0.00e+00	0	57	0	2804940800	42	3820
2026-01-04 12:24:55.42	314.67	39.16	-40.1	-40.7	21.3	0.00e+00	0	56	0	2826960896	42	3964
2026-01-04 12:24:59.37	315.53	38.29	-39.4	-39.9	21.9	0.00e+00	0	56	0	2848980992	42	3647
2026-01-04 12:25:03.33	316.35	37.44	-39.4	-40.0	21.9	0.00e+00	0	56	0	2871001088	41	3875
2026-01-04 12:25:07.31	317.13	36.59	-39.4	-40.0	21.9	0.00e+00	0	57	0	2894069760	41	3881
2026-01-04 12:25:11.26	317.86	35.77	-39.8	-40.4	21.5	0.00e+00	0	57	0	2916089856	41	4056
2026-01-04 12:25:15.21	318.57	34.96	-40.1	-40.7	21.2	0.00e+00	0	57	0	2938109952	42	3976
2026-01-04 12:25:19.16	319.24	34.17	-40.4	-41.0	20.9	0.00e+00	0	56	0	2960130048	42	4136
2026-01-04 12:25:23.11	319.88	33.39	-39.9	-40.4	21.5	0.00e+00	0	57	0	2982150144	42	3850
2026-01-04 12:25:27.07	320.49	32.63	-39.6	-40.1	21.8	0.00e+00	0	57	0	3005218816	42	3722
2026-01-04 12:25:31.02	321.07	31.89	-39.7	-40.3	21.6	0.00e+00	0	57	0	3027238912	42	3786
2026-01-04 12:25:34.98	321.63	31.16	-39.9	-40.5	21.4	0.00e+00	0	57	0	3049259008	42	3870
2026-01-04 12:25:38.94	322.17	30.44	-40.2	-40.8	21.1	0.00e+00	0	57	0	3071279104	42	4031
2026-01-04 12:25:42.91	322.68	29.74	-40.2	-40.8	21.1	0.00e+00	0	57	0	3094347776	42	4008
2026-01-04 12:25:46.86	323.17	29.06	-39.9	-40.4	21.5	0.00e+00	0	57	0	3116367872	42	3857
2026-01-04 12:25:50.83	323.65	28.38	-39.9	-40.4	21.5	0.00e+00	0	57	0	3138387968	42	3848
2026-01-04 12:25:54.79	324.10	27.73	-39.9	-40.4	21.4	0.00e+00	0	57	0	3160408064	42	3857
2026-01-04 12:25:58.74	324.54	27.09	-40.1	-40.7	21.2	0.00e+00	0	57	0	3183476736	42	3972
2026-01-04 12:26:02.69	324.96	26.46	-40.3	-40.9	20.9	0.00e+00	0	57	0	3205496832	42	4091
2026-01-04 12:26:06.65	325.37	25.84	-40.2	-40.8	21.0	0.00e+00	0	57	0	3227516928	43	3794
2026-01-04 12:26:10.60	325.76	25.24	-40.5	-41.0	20.8	0.00e+00	0	57	0	3249537024	43	3911
2026-01-04 12:26:14.55	326.13	24.65	-40.5	-41.1	20.8	0.00e+00	0	57	0	3271557120	43	3917
2026-01-04 12:26:18.51	326.50	24.07	-40.8	-41.4	20.4	0.00e+00	0	57	0	3294625792	43	4089
2026-01-04 12:26:22.47	326.85	23.50	-41.1	-41.8	20.2	0.00e+00	0	57	0	3316645888	44	4020
2026-01-04 12:26:26.42	327.19	22.94	-41.2	-41.8	20.2	0.00e+00	0	57	0	3338665984	44	4041
2026-01-04 12:26:30.35	327.51	22.40	-41.0	-41.7	20.3	0.00e+00	0	57	0	3360686080	44	3967
2026-01-04 12:26:34.32	327.83	21.86	-41.2	-41.9	20.1	0.00e+00	0	57	0	3383754752	44	4056
2026-01-04 12:26:38.27	328.14	21.34	-41.3	-41.9	20.0	0.00e+00	0	57	0	3405774848	44	4097
2026-01-04 12:26:42.24	328.44	20.82	-41.4	-42.0	19.9	0.00e+00	0	57	0	3427794944	44	4134
2026-01-04 12:26:46.20	328.73	20.31	-41.5	-42.2	19.8	0.00e+00	0	57	0	3449815040	44	4202
2026-01-04 12:26:50.15	329.01	19.82	-42.0	-42.7	19.2	0.00e+00	0	57	0	3471835136	45	4220
2026-01-04 12:26:54.09	329.28	19.33	-42.0	-42.7	19.2	0.00e+00	0	57	0	3494903808	45	4233
2026-01-04 12:26:58.04	329.54	18.86	-42.6	-43.4	18.6	0.00e+00	0	57	0	3516923904	47	4072
2026-01-04 12:27:02.00	329.80	18.39	-42.2	-42.9	19.0	0.00e+00	0	57	0	3538944000	47	3841
2026-01-04 12:27:05.97	330.05	17.92	-42.3	-43.1	18.9	0.00e+00	0	57	0	3560964096	47	3924
2026-01-04 12:27:09.93	330.29	17.47	-42.7	-43.5	18.4	0.00e+00	0	57	0	3584032768	47	4138
2026-01-04 12:27:13.89	330.53	17.03	-42.7	-43.5	18.4	0.00e+00	0	57	0	3606052864	47	4139
2026-01-04 12:27:17.84	330.76	16.59	-42.6	-43.3	18.6	0.00e+00	0	57	0	3628072960	47	4047
2026-01-04 12:27:21.79	330.98	16.16	-42.7	-43.5	18.4	0.00e+00	0	57	0	3650093056	47	4140
2026-01-04 12:27:25.74	331.20	15.74	-42.6	-43.4	18.7	0.00e+00	0	57	0	3672113152	48	3842
2026-01-04 12:27:29.67	331.41	15.32	-42.8	-43.6	18.4	0.00e+00	0	57	0	3694133248	48	3949
2026-01-04 12:27:33.62	331.62	14.91	-43.0	-43.8	18.2	0.00e+00	0	57	0	3717201920	48	4036
2026-01-04 12:27:37.58	331.82	14.51	-43.1	-44.0	18.1	0.00e+00	0	57	0	3739222016	48	4111
2026-01-04 12:27:41.53	332.02	14.11	-43.7	-44.6	17.4	0.00e+00	0	57	0	3761242112	49	4159
2026-01-04 12:27:45.49	332.21	13.72	-43.4	-44.3	17.7	0.00e+00	0	57	0	3783262208	49	4027
2026-01-04 12:27:49.46	332.40	13.34	-43.7	-44.6	17.4	0.00e+00	0	57	0	3806330880	49	4173
2026-01-04 12:27:53.41	332.58	12.96	-43.3	-44.1	17.8	0.00e+00	0	57	0	3828350976	49	3948
2026-01-04 12:27:57.38	332.76	12.58	-43.5	-44.4	17.5	0.00e+00	0	57	0	3850371072	49	4090
2026-01-04 12:28:01.33	332.94	12.22	-43.8	-44.7	17.2	0.00e+00	0	57	0	3872391168	49	4236
2026-01-04 12:28:05.30	333.11	11.85	-43.8	-44.8	17.1	0.00e+00	0	57	0	3895459840	49	4251
2026-01-04 12:28:09.25	333.28	11.50	-43.7	-44.6	17.3	0.00e+00	0	57	0	3917479936	50	3928
2026-01-04 12:28:13.20	333.44	11.14	-43.8	-44.7	17.1	0.00e+00	0	57	0	3939500032	50	3991
2026-01-04 12:28:17.17	333.60	10.80	-44.1	-45.1	16.7	0.00e+00	0	57	0	3961520128	50	4164
2026-01-04 12:28:21.12	333.76	10.45	-43.9	-44.8	16.9	0.00e+00	0	57	0	3983540224	50	4051
2026-01-04 12:28:25.08	333.91	10.11	-44.0	-45.0	16.8	0.00e+00	0	57	0	4006608896	50	4123
2026-01-04 12:28:29.03	334.06	9.78	-44.1	-45.1	16.6	0.00e+00	0	57	0	4028628992	50	4189
2026-01-04 12:28:33.00	334.21	9.45	-44.3	-45.4	16.3	0.00e+00	0	57	0	4050649088	50	4318
2026-01-04 12:28:36.94	334.36	9.13	-44.2	-45.2	16.5	0.00e+00	0	57	0	4072669184	51	3998
2026-01-04 12:28:40.89	334.50	8.80	-44.2	-45.3	16.4	0.00e+00	0	57	0	4095737856	51	4025
2026-01-04 12:28:44.83	334.64	8.49	-44.3	-45.3	16.3	0.00e+00	0	57	0	4117757952	51	4030
2026-01-04 12:28:48.78	334.78	8.18	-44.2	-45.2	16.4	0.00e+00	0	57	0	4139778048	51	4000
2026-01-04 12:28:52.74	334.91	7.87	-44.8	-45.9	15.7	0.00e+00	0	57	0	4161798144	51	4309
2026-01-04 12:28:56.68	335.04	7.56	-44.5	-45.6	16.0	0.00e+00	0	57	0	4183818240	51	4161
2026-01-04 12:29:00.63	335.17	7.26	-44.5	-45.6	15.9	0.00e+00	0	57	0	4205838336	51	4186
2026-01-04 12:29:04.59	335.30	6.96	-44.7	-45.9	15.6	0.00e+00	0	57	0	4228907008	51	4333
2026-01-04 12:29:08.55	335.43	6.66	-45.1	-46.4	15.0	0.00e+00	0	57	0	4250927104	52	4300
2026-01-04 12:29:12.51	335.55	6.37	-45.0	-46.2	15.1	1.10e-06	0	57	0	4272947200	52	4217
2026-01-04 12:29:16.47	335.67	6.08	-45.0	-46.3	15.0	0.00e+00	0	57	0	4294967296	52	4271
2026-01-04 12:29:20.42	335.79	5.79	-45.2	-46.5	14.7	0.00e+00	0	57	0	4316987392	52	4375
2026-01-04 12:29:24.37	335.91	5.51	-45.1	-46.3	14.9	0.00e+00	0	57	0	4340056064	52	4278
2026-01-04 12:29:28.32	336.02	5.23	-45.3	-46.7	14.5	2.20e-06	0	57	0	4362076160	52	4472
2026-01-04 12:29:32.27	336.14	4.95	-51.6	-62.1	3.8	8.46e-01	0	57	104	4377804800	65	12469
2026-01-04 12:29:36.22	336.25	4.68	-52.2	-63.1	3.8	8.46e-01	0	57	104	4377804800	66	13162
2026-01-04 12:29:40.18	336.36	4.41	-52.5	-63.3	3.8	8.46e-01	0	57	104	4377804800	66	13495
2026-01-04 12:29:44.15	336.47	4.14	-52.5	-63.4	3.8	8.46e-01	0	57	104	4377804800	67	12897
2026-01-04 12:29:48.12	336.57	3.87	-52.7	-63.5	3.8	8.47e-01	0	57	104	4377804800	67	12992
2026-01-04 12:29:52.08	336.68	3.61	-52.5	-63.5	3.8	8.45e-01	0	57	104	4377804800	67	13058
2026-01-04 12:29:56.05	336.78	3.34	-52.7	-63.5	3.8	8.47e-01	0	57	104	4377804800	67	13084
2026-01-04 12:30:00.02	336.89	3.08	-52.7	-63.5	3.8	8.47e-01	0	57	104	4377804800	67	13078

#Closed at: 2026-01-04 12:30:02
#Recorded file [4377 MB]: D:/Data/31026_260104_152931.dat