passes_logs/2026/01/04/R3.0SM8_Murmansk_STILSPACE/R3.0SM8_Murmansk_STILSPACE__20260104_103557_FENGYUN_3D_rec.log

#Pass ID: 20260104_103557_FENGYUN 3D
#Satellite: FENGYUN 3D
#Configuration: FENGYUN 3D
#almurnet v.1.7.20240730
#Start time: 2026-01-04 10:35:57

#Version: 2.2.20231116
#Station: R3.0SM8_Murmansk_STILSPACE
#Location: 33.092731 lon 68.902999 lat
#TLE: 1 43010U 17072A   26003.51579816  .00000092  00000+0  65324-4 0  9992
#TLE: 2 43010  98.9912 335.1548 0001916 128.4619 231.6729 14.19692074421623

#Time	Az	El	Level	Level2	SNR	BER	BlckErr	Temp	State	Recorded	gain1	gain2
2026-01-04 10:35:57.31	129.05	3.02	-52.3	-63.2	3.8	8.46e-01	0	45	0	0	66	13286
2026-01-04 10:36:01.26	128.96	3.28	-52.2	-62.9	3.8	8.47e-01	0	46	104	0	67	12175
2026-01-04 10:36:05.23	128.87	3.55	-51.4	-61.4	3.8	8.45e-01	0	46	104	0	66	10779
2026-01-04 10:36:09.19	128.78	3.81	-51.2	-60.3	3.9	8.45e-01	0	46	104	0	65	10148
2026-01-04 10:36:13.14	128.69	4.08	-50.9	-58.7	4.2	8.38e-01	0	47	0	0	64	8940
2026-01-04 10:36:17.11	128.60	4.35	-50.7	-56.9	4.9	7.88e-01	0	47	0	0	64	7229
2026-01-04 10:36:21.05	128.50	4.63	-50.1	-54.8	6.4	2.75e-01	0	47	0	9437184	63	6020
2026-01-04 10:36:25.02	128.40	4.90	-48.9	-52.1	9.0	3.73e-02	0	48	0	31457280	61	4950
2026-01-04 10:36:28.96	128.30	5.18	-48.7	-51.6	9.6	1.26e-02	0	48	0	53477376	59	5223
2026-01-04 10:36:32.90	128.20	5.46	-47.6	-49.9	11.4	1.56e-03	0	48	0	75497472	58	4586
2026-01-04 10:36:36.86	128.09	5.75	-47.6	-49.9	11.4	2.13e-03	0	48	0	98566144	58	4554
2026-01-04 10:36:40.82	127.99	6.04	-46.1	-47.8	13.5	2.51e-05	0	48	0	120586240	55	4243
2026-01-04 10:36:44.78	127.88	6.33	-45.3	-46.7	14.6	2.20e-06	0	49	0	142606336	53	4204
2026-01-04 10:36:48.73	127.76	6.63	-45.3	-46.7	14.6	0.00e+00	0	49	0	164626432	53	4215
2026-01-04 10:36:52.69	127.65	6.92	-44.4	-45.6	15.7	0.00e+00	0	49	0	187695104	52	3956
2026-01-04 10:36:56.66	127.53	7.23	-44.6	-45.9	15.5	0.00e+00	0	49	0	209715200	52	4056
2026-01-04 10:37:00.61	127.41	7.53	-44.4	-45.6	15.9	0.00e+00	0	50	0	231735296	51	4164
2026-01-04 10:37:04.58	127.29	7.84	-44.3	-45.4	16.1	0.00e+00	0	50	0	253755392	51	4086
2026-01-04 10:37:08.54	127.16	8.15	-44.3	-45.4	16.1	0.00e+00	0	50	0	276824064	51	4080
2026-01-04 10:37:12.49	127.03	8.47	-44.2	-45.3	16.3	0.00e+00	0	50	0	298844160	51	4026
2026-01-04 10:37:16.45	126.90	8.79	-44.5	-45.6	16.0	0.00e+00	0	50	0	320864256	51	4181
2026-01-04 10:37:20.43	126.76	9.12	-44.4	-45.5	16.1	0.00e+00	0	51	0	342884352	51	4140
2026-01-04 10:37:24.38	126.62	9.44	-44.1	-45.1	16.5	0.00e+00	0	51	0	365953024	51	3934
2026-01-04 10:37:28.34	126.48	9.78	-44.4	-45.5	16.2	0.00e+00	0	51	0	387973120	51	4111
2026-01-04 10:37:32.29	126.34	10.11	-44.2	-45.3	16.4	0.00e+00	0	51	0	409993216	51	4030
2026-01-04 10:37:36.25	126.19	10.45	-44.2	-45.3	16.4	0.00e+00	0	51	0	432013312	51	4027
2026-01-04 10:37:40.22	126.03	10.80	-43.8	-44.8	16.9	0.00e+00	0	51	0	455081984	50	4018
2026-01-04 10:37:44.17	125.87	11.15	-43.9	-45.0	16.8	0.00e+00	0	51	0	477102080	50	4111
2026-01-04 10:37:48.14	125.71	11.51	-43.6	-44.6	17.1	0.00e+00	0	51	0	499122176	50	3919
2026-01-04 10:37:52.09	125.55	11.87	-43.7	-44.7	17.0	0.00e+00	0	52	0	521142272	50	3990
2026-01-04 10:37:56.05	125.38	12.23	-43.3	-44.3	17.5	0.00e+00	0	52	0	543162368	49	4011
2026-01-04 10:38:00.02	125.20	12.60	-43.2	-44.1	17.6	0.00e+00	0	52	0	566231040	49	3929
2026-01-04 10:38:03.98	125.02	12.98	-43.4	-44.3	17.5	0.00e+00	0	52	0	588251136	49	4016
2026-01-04 10:38:07.92	124.84	13.36	-43.5	-44.4	17.3	0.00e+00	0	52	0	610271232	49	4084
2026-01-04 10:38:11.88	124.65	13.75	-43.2	-44.1	17.7	0.00e+00	0	52	0	632291328	49	3938
2026-01-04 10:38:15.84	124.45	14.14	-43.2	-44.1	17.7	0.00e+00	0	52	0	655360000	49	3939
2026-01-04 10:38:19.79	124.25	14.54	-43.2	-44.1	17.7	0.00e+00	0	53	0	677380096	49	3935
2026-01-04 10:38:23.77	124.04	14.95	-42.8	-43.7	18.1	0.00e+00	0	53	0	699400192	48	3993
2026-01-04 10:38:27.72	123.83	15.36	-42.7	-43.6	18.2	0.00e+00	0	53	0	721420288	48	3933
2026-01-04 10:38:31.68	123.61	15.78	-42.6	-43.4	18.4	0.00e+00	0	53	0	744488960	48	3855
2026-01-04 10:38:35.64	123.38	16.20	-42.4	-43.2	18.6	0.00e+00	0	53	0	766509056	48	3751
2026-01-04 10:38:39.59	123.15	16.63	-42.4	-43.2	18.5	0.00e+00	0	53	0	788529152	47	3988
2026-01-04 10:38:43.54	122.91	17.07	-41.6	-42.4	19.3	0.00e+00	0	53	0	810549248	46	3835
2026-01-04 10:38:47.49	122.66	17.52	-42.0	-42.8	18.9	0.00e+00	0	53	0	832569344	46	4023
2026-01-04 10:38:51.44	122.41	17.97	-42.2	-43.0	18.7	0.00e+00	0	53	0	855638016	46	4111
2026-01-04 10:38:55.40	122.14	18.44	-42.1	-42.9	18.8	0.00e+00	0	54	0	877658112	46	4066
2026-01-04 10:38:59.34	121.87	18.91	-42.3	-43.2	18.5	0.00e+00	0	53	0	899678208	46	4208
2026-01-04 10:39:03.29	121.59	19.38	-41.6	-42.3	19.3	0.00e+00	0	53	0	921698304	46	3810
2026-01-04 10:39:07.24	121.30	19.87	-41.5	-42.2	19.4	0.00e+00	0	54	0	943718400	46	3771
2026-01-04 10:39:11.20	121.00	20.37	-41.3	-42.1	19.6	0.00e+00	0	54	0	966787072	45	3925
2026-01-04 10:39:15.17	120.69	20.88	-41.4	-42.2	19.5	0.00e+00	0	54	0	988807168	45	3961
2026-01-04 10:39:19.13	120.36	21.39	-41.2	-41.9	19.8	0.00e+00	0	54	0	1010827264	45	3835
2026-01-04 10:39:23.08	120.03	21.91	-41.1	-41.8	19.9	0.00e+00	0	54	0	1032847360	45	3799
2026-01-04 10:39:27.04	119.68	22.45	-40.8	-41.4	20.2	0.00e+00	0	54	0	1055916032	44	3862
2026-01-04 10:39:30.99	119.33	22.99	-41.0	-41.7	19.9	0.00e+00	0	54	0	1077936128	44	3989
2026-01-04 10:39:34.95	118.96	23.55	-41.0	-41.8	19.9	0.00e+00	0	54	0	1099956224	44	4007
2026-01-04 10:39:38.91	118.57	24.12	-41.1	-41.8	19.9	0.00e+00	0	54	0	1121976320	44	4022
2026-01-04 10:39:42.85	118.17	24.69	-41.1	-41.8	19.9	0.00e+00	0	54	0	1143996416	44	4025
2026-01-04 10:39:46.81	117.76	25.28	-40.7	-41.4	20.3	0.00e+00	0	54	0	1167065088	44	3828
2026-01-04 10:39:50.77	117.32	25.88	-40.6	-41.3	20.4	0.00e+00	0	54	0	1189085184	44	3781
2026-01-04 10:39:54.73	116.87	26.49	-40.2	-40.8	20.9	0.00e+00	0	55	0	1211105280	43	3800
2026-01-04 10:39:58.68	116.41	27.12	-40.3	-40.8	20.9	0.00e+00	0	55	0	1233125376	43	3823
2026-01-04 10:40:02.64	115.92	27.75	-40.2	-40.7	21.0	0.00e+00	0	55	0	1256194048	43	3775
2026-01-04 10:40:06.60	115.41	28.40	-40.2	-40.8	20.9	0.00e+00	0	55	0	1278214144	43	3795
2026-01-04 10:40:10.54	114.88	29.06	-40.7	-41.3	20.5	0.00e+00	0	55	0	1300234240	43	4011
2026-01-04 10:40:14.51	114.33	29.74	-40.3	-40.9	20.9	0.00e+00	0	55	0	1322254336	43	3848
2026-01-04 10:40:18.46	113.76	30.42	-40.4	-41.0	20.8	0.00e+00	0	55	0	1345323008	43	3899
2026-01-04 10:40:22.44	113.15	31.13	-40.0	-40.5	21.2	0.00e+00	0	55	0	1367343104	43	3689
2026-01-04 10:40:26.40	112.52	31.84	-39.8	-40.4	21.4	0.00e+00	0	55	0	1389363200	42	3845
2026-01-04 10:40:30.33	111.87	32.56	-40.0	-40.6	21.2	0.00e+00	0	55	0	1411383296	42	3929
2026-01-04 10:40:34.29	111.18	33.30	-39.7	-40.3	21.5	0.00e+00	0	55	0	1433403392	42	3789
2026-01-04 10:40:38.26	110.45	34.06	-39.6	-40.2	21.6	0.00e+00	0	55	0	1456472064	42	3744
2026-01-04 10:40:42.20	109.70	34.82	-39.7	-40.3	21.5	0.00e+00	0	55	0	1478492160	42	3791
2026-01-04 10:40:46.16	108.90	35.60	-39.8	-40.4	21.4	0.00e+00	0	55	0	1500512256	42	3834
2026-01-04 10:40:50.12	108.07	36.40	-39.8	-40.4	21.4	0.00e+00	0	55	0	1522532352	42	3827
2026-01-04 10:40:54.08	107.19	37.20	-40.3	-40.9	20.9	0.00e+00	0	55	0	1545601024	42	4057
2026-01-04 10:40:58.02	106.27	38.02	-40.0	-40.5	21.3	0.00e+00	0	55	0	1567621120	42	3898
2026-01-04 10:41:01.97	105.30	38.84	-39.8	-40.4	21.4	0.00e+00	0	55	0	1589641216	42	3834
2026-01-04 10:41:05.92	104.28	39.68	-39.5	-40.0	21.8	0.00e+00	0	55	0	1611661312	42	3681
2026-01-04 10:41:09.88	103.21	40.53	-40.2	-40.8	21.1	0.00e+00	0	56	0	1633681408	42	4023
2026-01-04 10:41:13.83	102.07	41.38	-40.1	-40.6	21.2	0.00e+00	0	55	0	1656750080	42	3942
2026-01-04 10:41:17.78	100.88	42.24	-40.3	-40.8	21.0	0.00e+00	0	56	0	1678770176	42	4050
2026-01-04 10:41:21.75	99.61	43.11	-40.2	-40.8	21.0	0.00e+00	0	56	0	1700790272	42	4027
2026-01-04 10:41:25.73	98.27	43.98	-39.7	-40.3	21.5	0.00e+00	0	56	0	1722810368	42	3791
2026-01-04 10:41:29.68	96.86	44.85	-39.7	-40.2	21.6	0.00e+00	0	56	0	1745879040	42	3772
2026-01-04 10:41:33.62	95.38	45.72	-39.8	-40.3	21.5	0.00e+00	0	56	0	1767899136	42	3807
2026-01-04 10:41:37.57	93.80	46.58	-40.4	-41.0	20.9	0.00e+00	0	56	0	1789919232	42	4100
2026-01-04 10:41:41.53	92.14	47.44	-40.4	-41.0	20.9	0.00e+00	0	56	0	1811939328	43	3880
2026-01-04 10:41:45.49	90.38	48.29	-40.9	-41.5	20.4	0.00e+00	0	56	0	1833959424	43	4123
2026-01-04 10:41:49.46	88.51	49.12	-40.8	-41.3	20.6	0.00e+00	0	56	0	1857028096	44	3822
2026-01-04 10:41:53.42	86.55	49.94	-41.2	-41.9	20.1	0.00e+00	0	56	0	1879048192	44	4058
2026-01-04 10:41:57.38	84.48	50.72	-40.8	-41.4	20.6	0.00e+00	0	56	0	1901068288	44	3856
2026-01-04 10:42:01.34	82.31	51.48	-40.7	-41.3	20.7	0.00e+00	0	56	0	1923088384	44	3792
2026-01-04 10:42:05.30	80.02	52.21	-41.0	-41.6	20.4	0.00e+00	0	56	0	1946157056	44	3954
2026-01-04 10:42:09.26	77.61	52.90	-41.0	-41.8	18.9	0.00e+00	0	56	0	1968177152	43	4256
2026-01-04 10:42:13.22	75.10	53.54	-41.2	-41.9	19.0	2.20e-04	0	56	0	1990197248	44	4085
2026-01-04 10:42:17.19	72.47	54.13	-41.2	-41.8	20.2	0.00e+00	0	56	0	2012217344	45	3824
2026-01-04 10:42:21.16	69.73	54.66	-40.7	-41.2	20.8	0.00e+00	0	56	0	2035286016	44	3779
2026-01-04 10:42:25.09	66.93	55.13	-40.5	-41.0	20.9	0.00e+00	0	56	0	2057306112	43	3913
2026-01-04 10:42:29.03	64.03	55.53	-40.7	-41.3	20.6	0.00e+00	0	56	0	2079326208	43	4038
2026-01-04 10:42:32.97	61.05	55.86	-40.8	-41.4	20.5	0.00e+00	0	56	0	2101346304	43	4076
2026-01-04 10:42:36.93	58.00	56.11	-40.8	-41.4	20.6	0.00e+00	0	56	0	2123366400	43	4062
2026-01-04 10:42:40.88	54.91	56.29	-41.3	-41.9	20.1	0.00e+00	0	56	0	2146435072	44	4087
2026-01-04 10:42:44.84	51.78	56.38	-41.0	-41.6	20.5	0.00e+00	0	56	0	2168455168	44	3934
2026-01-04 10:42:48.81	48.63	56.38	-41.4	-42.1	20.0	0.00e+00	0	56	0	2190475264	44	4157
2026-01-04 10:42:52.77	45.49	56.31	-41.1	-41.7	20.4	0.00e+00	0	56	0	2212495360	44	3984
2026-01-04 10:42:56.72	42.39	56.15	-40.7	-41.3	20.8	0.00e+00	0	56	0	2235564032	44	3782
2026-01-04 10:43:00.69	39.32	55.91	-41.0	-41.6	20.4	0.00e+00	0	56	0	2257584128	44	3931
2026-01-04 10:43:04.64	36.33	55.60	-40.4	-41.0	21.0	0.00e+00	0	56	0	2279604224	44	3669
2026-01-04 10:43:08.59	33.41	55.21	-40.1	-40.7	21.2	0.00e+00	0	56	0	2301624320	43	3746
2026-01-04 10:43:12.54	30.57	54.75	-40.3	-40.8	21.1	0.00e+00	0	56	0	2323644416	43	3818
2026-01-04 10:43:16.48	27.84	54.23	-40.2	-40.8	21.1	0.00e+00	0	56	0	2345664512	43	3784
2026-01-04 10:43:20.44	25.20	53.65	-40.4	-41.0	20.9	0.00e+00	0	56	0	2368733184	43	3894
2026-01-04 10:43:24.41	22.66	53.02	-40.5	-41.1	20.8	0.00e+00	0	56	0	2390753280	43	3918
2026-01-04 10:43:28.37	20.24	52.34	-40.7	-41.3	20.6	0.00e+00	0	56	0	2412773376	43	4032
2026-01-04 10:43:32.33	17.94	51.62	-41.5	-42.2	19.9	0.00e+00	0	57	0	2435842048	44	4199
2026-01-04 10:43:36.29	15.74	50.87	-41.4	-42.1	20.0	0.00e+00	0	57	0	2457862144	45	3930
2026-01-04 10:43:40.25	13.66	50.09	-40.9	-41.5	20.5	0.00e+00	0	56	0	2479882240	44	3903
2026-01-04 10:43:44.21	11.68	49.28	-41.2	-41.8	20.2	0.00e+00	0	56	0	2501902336	44	4048
2026-01-04 10:43:48.17	9.80	48.45	-41.4	-42.1	20.0	0.00e+00	0	56	0	2524971008	45	3919
2026-01-04 10:43:52.13	8.03	47.61	-40.9	-41.5	20.6	0.00e+00	0	56	0	2546991104	44	3876
2026-01-04 10:43:56.10	6.34	46.75	-40.2	-40.8	21.1	0.00e+00	0	56	0	2569011200	43	3808
2026-01-04 10:44:00.05	4.76	45.89	-39.8	-40.4	21.5	0.00e+00	0	56	0	2591031296	42	3836
2026-01-04 10:44:04.02	3.25	45.02	-39.3	-39.8	21.9	0.00e+00	0	57	0	2614099968	41	3824
2026-01-04 10:44:07.97	1.83	44.15	-40.0	-40.6	21.2	0.00e+00	0	57	0	2636120064	41	4180
2026-01-04 10:44:11.91	0.49	43.29	-39.5	-40.0	21.8	0.00e+00	0	56	0	2658140160	41	3899
2026-01-04 10:44:15.87	359.21	42.42	-39.4	-39.9	21.8	0.00e+00	0	56	0	2680160256	41	3854
2026-01-04 10:44:19.84	358.00	41.56	-39.5	-40.1	21.7	0.00e+00	0	56	0	2702180352	41	3925
2026-01-04 10:44:23.80	356.86	40.70	-39.8	-40.4	21.4	0.00e+00	0	57	0	2725249024	41	4053
2026-01-04 10:44:27.75	355.77	39.86	-40.0	-40.5	21.3	0.00e+00	0	56	0	2747269120	41	4138
2026-01-04 10:44:31.71	354.74	39.02	-39.2	-39.7	22.0	0.00e+00	0	56	0	2769289216	41	3769
2026-01-04 10:44:35.66	353.77	38.20	-39.5	-40.1	21.7	0.00e+00	0	57	0	2791309312	41	3914
2026-01-04 10:44:39.62	352.84	37.38	-39.8	-40.3	21.5	0.00e+00	0	57	0	2814377984	41	4043
2026-01-04 10:44:43.57	351.96	36.58	-39.7	-40.2	21.6	0.00e+00	0	57	0	2836398080	41	3974
2026-01-04 10:44:47.54	351.11	35.78	-40.0	-40.6	21.2	0.00e+00	0	57	0	2858418176	42	3946
2026-01-04 10:44:51.51	350.31	35.00	-39.4	-39.9	21.8	0.00e+00	0	56	0	2880438272	41	3858
2026-01-04 10:44:55.46	349.55	34.23	-39.1	-39.6	22.1	0.00e+00	0	57	0	2903506944	41	3695
2026-01-04 10:44:59.43	348.82	33.47	-39.3	-39.8	21.9	0.00e+00	0	56	0	2925527040	41	3812
2026-01-04 10:45:03.39	348.13	32.73	-39.6	-40.2	21.5	0.00e+00	0	57	0	2947547136	41	3985
2026-01-04 10:45:07.35	347.47	32.00	-39.8	-40.3	21.4	0.00e+00	0	56	0	2969567232	41	4035
2026-01-04 10:45:11.30	346.84	31.29	-39.5	-40.1	21.7	0.00e+00	0	57	0	2991587328	41	3919
2026-01-04 10:45:15.26	346.23	30.59	-39.9	-40.4	21.3	0.00e+00	0	57	0	3014656000	41	4079
2026-01-04 10:45:19.22	345.65	29.90	-40.0	-40.5	21.2	0.00e+00	0	57	0	3036676096	41	4139
2026-01-04 10:45:23.17	345.10	29.23	-40.4	-41.0	20.8	0.00e+00	0	57	0	3058696192	42	4110
2026-01-04 10:45:27.12	344.57	28.57	-40.1	-40.6	21.1	0.00e+00	0	57	0	3080716288	42	3942
2026-01-04 10:45:31.08	344.06	27.92	-39.9	-40.5	21.2	0.00e+00	0	57	0	3103784960	42	3889
2026-01-04 10:45:35.03	343.57	27.28	-39.9	-40.4	21.2	0.00e+00	0	57	0	3125805056	42	3861
2026-01-04 10:45:38.98	343.10	26.66	-40.3	-40.9	20.9	0.00e+00	0	57	0	3147825152	42	4059
2026-01-04 10:45:42.94	342.65	26.04	-40.4	-41.0	20.7	0.00e+00	0	57	0	3169845248	42	4135
2026-01-04 10:45:46.89	342.22	25.45	-40.5	-41.1	20.6	0.00e+00	0	57	0	3191865344	43	3927
2026-01-04 10:45:50.84	341.80	24.86	-39.9	-40.5	21.1	0.00e+00	0	57	0	3213885440	43	3680
2026-01-04 10:45:54.80	341.40	24.28	-39.9	-40.5	21.1	0.00e+00	0	57	0	3236954112	43	3672
2026-01-04 10:45:58.76	341.01	23.71	-40.2	-40.8	20.9	0.00e+00	0	57	0	3258974208	43	3782
2026-01-04 10:46:02.72	340.64	23.15	-40.4	-41.0	20.7	0.00e+00	0	57	0	3280994304	43	3893
2026-01-04 10:46:06.68	340.28	22.61	-40.5	-41.2	20.5	0.00e+00	0	57	0	3304062976	43	3959
2026-01-04 10:46:10.62	339.94	22.08	-40.5	-41.1	20.5	0.00e+00	0	57	0	3326083072	43	3935
2026-01-04 10:46:14.59	339.60	21.55	-40.1	-40.7	20.8	0.00e+00	0	57	0	3348103168	43	3743
2026-01-04 10:46:18.54	339.28	21.03	-41.3	-42.0	19.3	0.00e+00	0	57	0	3370123264	44	4126
2026-01-04 10:46:22.51	338.97	20.52	-43.4	-44.4	16.9	0.00e+00	0	57	0	3393191936	48	4312
2026-01-04 10:46:26.46	338.67	20.03	-43.4	-44.3	16.9	0.00e+00	0	57	0	3414163456	49	4045
2026-01-04 10:46:30.42	338.37	19.54	-43.4	-44.3	17.0	0.00e+00	0	57	0	3437232128	49	4035
2026-01-04 10:46:34.38	338.09	19.06	-43.1	-44.0	17.4	0.00e+00	0	57	0	3459252224	49	3894
2026-01-04 10:46:38.31	337.82	18.59	-41.2	-41.9	19.5	0.00e+00	0	57	0	3481272320	45	3827
2026-01-04 10:46:42.25	337.56	18.13	-41.7	-42.4	19.2	0.00e+00	0	57	0	3503292416	45	4081
2026-01-04 10:46:46.20	337.30	17.67	-42.0	-42.8	18.9	0.00e+00	0	57	0	3525312512	45	4252
2026-01-04 10:46:50.15	337.06	17.23	-41.8	-42.5	19.2	0.00e+00	0	57	0	3548381184	45	4112
2026-01-04 10:46:54.11	336.82	16.79	-41.8	-42.5	19.2	0.00e+00	0	57	0	3570401280	45	4114
2026-01-04 10:46:58.08	336.58	16.35	-42.0	-42.7	18.9	0.00e+00	0	57	0	3592421376	45	4242
2026-01-04 10:47:02.04	336.36	15.93	-42.0	-42.8	18.9	0.00e+00	0	57	0	3614441472	45	4246
2026-01-04 10:47:06.00	336.14	15.51	-42.2	-43.0	18.7	0.00e+00	0	57	0	3637510144	46	4106
2026-01-04 10:47:09.97	335.93	15.09	-42.3	-43.0	18.6	0.00e+00	0	57	0	3659530240	46	4141
2026-01-04 10:47:13.94	335.72	14.69	-42.5	-43.2	18.4	0.00e+00	0	57	0	3681550336	47	4003
2026-01-04 10:47:17.89	335.52	14.29	-42.5	-43.2	18.4	0.00e+00	0	57	0	3703570432	47	4003
2026-01-04 10:47:21.85	335.32	13.89	-42.7	-43.5	18.1	0.00e+00	0	57	0	3726639104	47	4111
2026-01-04 10:47:25.81	335.13	13.51	-43.0	-43.9	17.7	0.00e+00	0	57	0	3748659200	47	4313
2026-01-04 10:47:29.75	334.95	13.13	-43.1	-44.0	17.8	0.00e+00	0	57	0	3770679296	48	4112
2026-01-04 10:47:33.72	334.77	12.75	-43.2	-44.1	17.7	0.00e+00	0	57	0	3792699392	48	4146
2026-01-04 10:47:37.70	334.60	12.38	-43.2	-44.1	17.6	0.00e+00	0	57	0	3815768064	48	4173
2026-01-04 10:47:41.67	334.43	12.01	-43.4	-44.3	17.5	0.00e+00	0	57	0	3837788160	48	4259
2026-01-04 10:47:45.62	334.26	11.65	-43.7	-44.6	17.1	0.00e+00	0	57	0	3859808256	49	4181
2026-01-04 10:47:49.57	334.10	11.29	-43.8	-44.8	16.9	0.00e+00	0	57	0	3881828352	49	4259
2026-01-04 10:47:53.53	333.95	10.94	-43.7	-44.6	17.0	0.00e+00	0	57	0	3904897024	49	4189
2026-01-04 10:47:57.50	333.79	10.60	-43.9	-44.9	16.8	0.00e+00	0	57	0	3926917120	49	4303
2026-01-04 10:48:01.46	333.65	10.25	-43.7	-44.7	17.0	0.00e+00	0	57	0	3948937216	49	4205
2026-01-04 10:48:05.44	333.50	9.92	-43.8	-44.8	16.8	0.00e+00	0	57	0	3972005888	49	4251
2026-01-04 10:48:09.39	333.36	9.58	-44.1	-45.1	16.5	0.00e+00	0	57	0	3994025984	49	4424
2026-01-04 10:48:13.35	333.22	9.26	-44.5	-45.6	16.0	0.00e+00	0	57	0	4016046080	50	4398
2026-01-04 10:48:17.32	333.09	8.93	-44.2	-45.2	16.4	0.00e+00	0	57	0	4038066176	50	4232
2026-01-04 10:48:21.27	332.96	8.61	-44.1	-45.1	16.4	0.00e+00	0	57	0	4061134848	50	4189
2026-01-04 10:48:25.23	332.83	8.29	-44.0	-45.0	16.6	0.00e+00	0	57	0	4083154944	50	4111
2026-01-04 10:48:29.20	332.70	7.98	-44.3	-45.3	16.2	0.00e+00	0	57	0	4105175040	50	4289
2026-01-04 10:48:33.16	332.58	7.67	-44.5	-45.6	15.9	0.00e+00	0	57	0	4127195136	50	4393
2026-01-04 10:48:37.13	332.46	7.36	-45.0	-46.2	15.3	0.00e+00	0	57	0	4150263808	51	4475
2026-01-04 10:48:41.09	332.35	7.06	-44.4	-45.5	15.9	0.00e+00	0	57	0	4172283904	51	4142
2026-01-04 10:48:45.04	332.24	6.76	-44.5	-45.7	15.7	0.00e+00	0	57	0	4194304000	51	4205
2026-01-04 10:48:49.01	332.12	6.47	-44.5	-45.6	15.8	0.00e+00	0	57	0	4216324096	51	4187
2026-01-04 10:48:52.99	332.02	6.18	-44.7	-45.9	15.5	0.00e+00	0	57	0	4239392768	51	4316
2026-01-04 10:48:56.95	331.91	5.89	-45.2	-46.6	14.7	1.10e-06	0	57	0	4261412864	52	4397
2026-01-04 10:49:00.89	331.81	5.60	-45.1	-46.4	14.8	0.00e+00	0	57	0	4283432960	52	4315
2026-01-04 10:49:04.85	331.71	5.32	-45.1	-46.4	14.8	0.00e+00	0	57	0	4305453056	52	4295
2026-01-04 10:49:08.80	331.61	5.04	-45.1	-46.4	14.8	0.00e+00	0	57	0	4327473152	52	4322
2026-01-04 10:49:12.75	331.51	4.76	-52.1	-62.8	3.8	8.45e-01	0	57	104	4330618880	66	12801
2026-01-04 10:49:16.71	331.42	4.49	-52.2	-63.1	3.8	8.46e-01	0	57	104	4330618880	66	13219
2026-01-04 10:49:20.66	331.33	4.22	-52.4	-63.3	3.8	8.47e-01	0	57	104	4330618880	66	13431
2026-01-04 10:49:24.62	331.24	3.95	-52.6	-63.3	3.8	8.47e-01	0	57	104	4330618880	67	12802
2026-01-04 10:49:28.57	331.15	3.68	-52.7	-63.4	3.8	8.46e-01	0	57	104	4330618880	67	12908
2026-01-04 10:49:32.51	331.06	3.42	-52.7	-63.4	3.8	8.46e-01	0	57	104	4330618880	67	12907
2026-01-04 10:49:36.47	330.98	3.16	-52.5	-63.4	3.8	8.46e-01	0	57	104	4330618880	67	12926
2026-01-04 10:49:40.44	330.89	2.90	-52.6	-63.4	3.8	8.45e-01	0	57	104	4330618880	67	12854

#Closed at: 2026-01-04 10:49:41
#Recorded file [4330 MB]: D:/Data/31026_260104_134909.dat