passes_logs/2026/01/04/R3.0SM8_Murmansk_STILSPACE/R3.0SM8_Murmansk_STILSPACE__20260104_035901_FENGYUN_3D_rec.log

#Pass ID: 20260104_035901_FENGYUN 3D
#Satellite: FENGYUN 3D
#Configuration: FENGYUN 3D
#almurnet v.1.7.20240730
#Start time: 2026-01-04 03:59:03

#Version: 2.2.20231116
#Station: R3.0SM8_Murmansk_STILSPACE
#Location: 33.092731 lon 68.902999 lat
#TLE: 1 43010U 17072A   26003.51579816  .00000092  00000+0  65324-4 0  9992
#TLE: 2 43010  98.9912 335.1548 0001916 128.4619 231.6729 14.19692074421623

#Time	Az	El	Level	Level2	SNR	BER	BlckErr	Temp	State	Recorded	gain1	gain2
2026-01-04 03:59:03.39	30.48	3.14	-52.4	-63.1	3.8	8.46e-01	0	46	0	0	67	12519
2026-01-04 03:59:07.35	30.37	3.40	-51.9	-62.6	3.8	8.45e-01	0	46	104	0	66	12408
2026-01-04 03:59:11.30	30.25	3.66	-51.5	-61.7	3.8	8.47e-01	0	47	104	0	66	11184
2026-01-04 03:59:15.27	30.14	3.92	-51.3	-61.0	3.8	8.46e-01	0	47	104	0	65	10950
2026-01-04 03:59:19.23	30.02	4.19	-51.2	-59.7	4.0	8.44e-01	0	47	104	0	65	9473
2026-01-04 03:59:23.20	29.90	4.46	-50.7	-56.7	5.0	7.77e-01	0	48	0	0	64	7058
2026-01-04 03:59:27.14	29.77	4.73	-49.7	-53.7	7.5	1.55e-01	0	48	0	15728640	62	5594
2026-01-04 03:59:31.08	29.65	5.00	-48.1	-50.5	10.8	4.12e-03	0	48	0	37748736	59	4608
2026-01-04 03:59:35.05	29.52	5.28	-47.7	-49.9	11.5	1.56e-03	0	48	0	59768832	58	4560
2026-01-04 03:59:39.01	29.38	5.56	-46.5	-48.2	13.1	4.46e-05	0	48	0	81788928	56	4238
2026-01-04 03:59:42.95	29.25	5.84	-46.0	-47.5	13.8	1.48e-05	0	49	0	103809024	55	4130
2026-01-04 03:59:46.91	29.11	6.12	-44.9	-46.1	15.2	0.00e+00	0	49	0	126877696	53	3953
2026-01-04 03:59:50.87	28.97	6.41	-44.8	-46.1	15.3	0.00e+00	0	49	0	148897792	52	4146
2026-01-04 03:59:54.82	28.83	6.70	-44.9	-46.1	15.3	0.00e+00	0	50	0	170917888	52	4149
2026-01-04 03:59:58.78	28.68	7.00	-44.6	-45.7	15.7	0.00e+00	0	50	0	192937984	52	3996
2026-01-04 04:00:02.74	28.53	7.29	-44.5	-45.6	15.9	0.00e+00	0	50	0	216006656	51	4186
2026-01-04 04:00:06.70	28.37	7.59	-44.6	-45.8	15.8	0.00e+00	0	50	0	238026752	51	4248
2026-01-04 04:00:10.67	28.22	7.90	-44.5	-45.5	16.1	0.00e+00	0	50	0	260046848	51	4140
2026-01-04 04:00:14.63	28.05	8.21	-44.4	-45.5	16.2	0.00e+00	0	50	0	282066944	51	4120
2026-01-04 04:00:18.58	27.89	8.52	-44.6	-45.7	16.0	0.00e+00	0	51	0	304087040	51	4207
2026-01-04 04:00:22.55	27.72	8.83	-44.6	-45.7	16.0	0.00e+00	0	51	0	327155712	51	4222
2026-01-04 04:00:26.52	27.55	9.15	-45.0	-46.2	15.6	0.00e+00	0	51	0	349175808	51	4454
2026-01-04 04:00:30.48	27.37	9.47	-44.7	-45.8	15.8	0.00e+00	0	51	0	371195904	52	4044
2026-01-04 04:00:34.45	27.19	9.80	-44.4	-45.5	16.2	0.00e+00	0	51	0	394264576	52	3888
2026-01-04 04:00:38.41	27.00	10.13	-44.6	-45.7	16.0	0.00e+00	0	52	0	416284672	52	3965
2026-01-04 04:00:42.37	26.81	10.47	-44.7	-45.8	16.1	0.00e+00	0	52	0	438304768	51	4244
2026-01-04 04:00:46.33	26.61	10.81	-44.6	-45.6	16.2	0.00e+00	0	52	0	460324864	51	4173
2026-01-04 04:00:50.30	26.41	11.15	-44.4	-45.4	16.4	0.00e+00	0	52	0	483393536	51	4076
2026-01-04 04:00:54.25	26.21	11.50	-44.5	-45.6	16.3	0.00e+00	0	52	0	505413632	51	4153
2026-01-04 04:00:58.22	25.99	11.85	-43.8	-44.7	17.2	0.00e+00	0	52	0	527433728	50	3992
2026-01-04 04:01:02.17	25.78	12.21	-43.6	-44.5	17.3	0.00e+00	0	52	0	549453824	50	3898
2026-01-04 04:01:06.12	25.55	12.57	-43.5	-44.4	17.5	0.00e+00	0	52	0	571473920	49	4065
2026-01-04 04:01:10.08	25.33	12.93	-43.5	-44.4	17.5	0.00e+00	0	52	0	594542592	49	4068
2026-01-04 04:01:14.04	25.09	13.30	-43.2	-44.1	17.8	0.00e+00	0	53	0	616562688	49	3930
2026-01-04 04:01:18.00	24.85	13.68	-43.1	-44.0	17.9	0.00e+00	0	53	0	638582784	49	3878
2026-01-04 04:01:21.96	24.60	14.06	-43.3	-44.2	17.8	0.00e+00	0	53	0	661651456	49	3965
2026-01-04 04:01:25.92	24.35	14.45	-43.7	-44.5	17.4	0.00e+00	0	53	0	683671552	49	4142
2026-01-04 04:01:29.87	24.09	14.84	-43.6	-44.4	17.5	0.00e+00	0	53	0	705691648	49	4088
2026-01-04 04:01:33.83	23.82	15.24	-43.1	-43.9	18.1	0.00e+00	0	53	0	727711744	49	3844
2026-01-04 04:01:37.79	23.54	15.65	-42.6	-43.3	18.6	0.00e+00	0	53	0	750780416	48	3818
2026-01-04 04:01:41.76	23.25	16.06	-42.7	-43.5	18.5	0.00e+00	0	53	0	772800512	48	3880
2026-01-04 04:01:45.73	22.96	16.48	-42.6	-43.4	18.6	0.00e+00	0	54	0	794820608	48	3834
2026-01-04 04:01:49.68	22.66	16.90	-42.4	-43.2	18.8	0.00e+00	0	54	0	816840704	48	3747
2026-01-04 04:01:53.63	22.35	17.33	-42.1	-42.8	19.1	0.00e+00	0	54	0	838860800	47	3799
2026-01-04 04:01:57.60	22.02	17.77	-41.8	-42.5	19.3	0.00e+00	0	54	0	861929472	46	3893
2026-01-04 04:02:01.56	21.69	18.22	-41.7	-42.4	19.4	0.00e+00	0	54	0	883949568	46	3842
2026-01-04 04:02:05.54	21.35	18.67	-41.7	-42.4	19.4	0.00e+00	0	54	0	905969664	46	3860
2026-01-04 04:02:09.50	21.00	19.13	-42.3	-43.0	18.8	0.00e+00	0	54	0	929038336	46	4142
2026-01-04 04:02:13.46	20.63	19.60	-42.4	-43.1	18.8	0.00e+00	0	54	0	951058432	46	4178
2026-01-04 04:02:17.41	20.26	20.07	-42.1	-42.8	19.1	0.00e+00	0	54	0	973078528	46	4033
2026-01-04 04:02:21.38	19.87	20.55	-41.3	-42.0	19.8	0.00e+00	0	54	0	995098624	45	3891
2026-01-04 04:02:25.34	19.47	21.04	-41.3	-42.0	19.9	0.00e+00	0	54	0	1018167296	45	3879
2026-01-04 04:02:29.30	19.05	21.54	-41.4	-42.0	19.8	0.00e+00	0	54	0	1040187392	45	3903
2026-01-04 04:02:33.26	18.63	22.04	-41.5	-42.2	19.7	0.00e+00	0	54	0	1062207488	45	3979
2026-01-04 04:02:37.21	18.18	22.56	-40.7	-41.3	20.5	0.00e+00	0	55	0	1084227584	44	3815
2026-01-04 04:02:41.17	17.72	23.08	-40.7	-41.3	20.5	0.00e+00	0	54	0	1106247680	44	3808
2026-01-04 04:02:45.13	17.25	23.61	-41.0	-41.7	20.2	0.00e+00	0	55	0	1129316352	44	3972
2026-01-04 04:02:49.08	16.76	24.15	-40.7	-41.3	20.5	0.00e+00	0	55	0	1151336448	44	3822
2026-01-04 04:02:53.04	16.25	24.70	-40.7	-41.3	20.6	0.00e+00	0	55	0	1173356544	44	3804
2026-01-04 04:02:57.01	15.72	25.26	-40.7	-41.3	20.5	0.00e+00	0	55	0	1195376640	44	3806
2026-01-04 04:03:00.97	15.17	25.83	-40.5	-41.1	20.6	0.00e+00	0	55	0	1218445312	44	3735
2026-01-04 04:03:04.93	14.60	26.40	-40.4	-41.0	20.2	0.00e+00	0	55	0	1240465408	43	3913
2026-01-04 04:03:08.90	14.01	26.99	-42.3	-43.1	17.9	0.00e+00	0	55	0	1262485504	46	4178
2026-01-04 04:03:12.85	13.40	27.58	-44.8	-46.1	14.7	0.00e+00	0	55	0	1284505600	51	4441
2026-01-04 04:03:16.82	12.76	28.19	-45.6	-47.1	13.9	6.80e-06	0	55	0	1307574272	52	4661
2026-01-04 04:03:20.78	12.10	28.80	-41.6	-42.3	19.1	0.00e+00	0	55	0	1329594368	46	3814
2026-01-04 04:03:24.73	11.41	29.43	-40.4	-41.0	20.6	0.00e+00	0	55	0	1351614464	43	3886
2026-01-04 04:03:28.69	10.69	30.06	-40.8	-41.4	20.3	0.00e+00	0	56	0	1373634560	43	4092
2026-01-04 04:03:32.65	9.95	30.70	-40.3	-40.9	20.9	0.00e+00	0	55	0	1396703232	43	3851
2026-01-04 04:03:36.61	9.17	31.35	-40.0	-40.6	21.2	0.00e+00	0	56	0	1418723328	43	3702
2026-01-04 04:03:40.57	8.36	32.00	-40.3	-40.9	20.9	0.00e+00	0	56	0	1440743424	43	3856
2026-01-04 04:03:44.53	7.51	32.67	-40.5	-41.1	20.8	0.00e+00	0	55	0	1462763520	43	3918
2026-01-04 04:03:48.49	6.63	33.34	-40.2	-40.8	21.1	0.00e+00	0	56	0	1485832192	43	3791
2026-01-04 04:03:52.45	5.72	34.02	-39.8	-40.4	21.4	0.00e+00	0	56	0	1507852288	42	3837
2026-01-04 04:03:56.41	4.76	34.71	-40.2	-40.8	21.0	0.00e+00	0	56	0	1529872384	42	4031
2026-01-04 04:04:00.36	3.76	35.40	-40.7	-41.4	20.5	0.00e+00	0	56	0	1551892480	43	4052
2026-01-04 04:04:04.31	2.72	36.09	-40.5	-41.1	20.8	0.00e+00	0	56	0	1573912576	43	3915
2026-01-04 04:04:08.28	1.63	36.79	-39.8	-40.3	21.5	0.00e+00	0	56	0	1596981248	42	3812
2026-01-04 04:04:12.23	0.49	37.49	-39.9	-40.5	21.3	0.00e+00	0	56	0	1619001344	42	3889
2026-01-04 04:04:16.20	359.30	38.20	-40.3	-40.8	21.0	0.00e+00	0	56	0	1641021440	42	4047
2026-01-04 04:04:20.16	358.05	38.90	-39.9	-40.4	21.4	0.00e+00	0	56	0	1663041536	42	3852
2026-01-04 04:04:24.13	356.75	39.61	-40.0	-40.5	21.3	0.00e+00	0	56	0	1686110208	42	3904
2026-01-04 04:04:28.09	355.40	40.31	-40.0	-40.6	21.2	0.00e+00	0	56	0	1708130304	42	3914
2026-01-04 04:04:32.04	353.98	41.00	-39.7	-40.2	21.6	0.00e+00	0	56	0	1730150400	42	3765
2026-01-04 04:04:36.01	352.50	41.68	-40.0	-40.6	21.3	0.00e+00	0	56	0	1752170496	42	3926
2026-01-04 04:04:39.96	350.96	42.36	-39.7	-40.2	21.6	0.00e+00	0	56	0	1775239168	42	3754
2026-01-04 04:04:43.91	349.36	43.02	-40.0	-40.6	21.3	0.00e+00	0	56	0	1797259264	42	3914
2026-01-04 04:04:47.86	347.69	43.67	-40.0	-40.5	21.3	0.00e+00	0	56	0	1819279360	42	3906
2026-01-04 04:04:51.81	345.95	44.29	-40.0	-40.5	21.3	0.00e+00	0	56	0	1841299456	42	3902
2026-01-04 04:04:55.78	344.13	44.90	-40.6	-41.3	20.6	0.00e+00	0	56	0	1863319552	43	4012
2026-01-04 04:04:59.74	342.24	45.49	-40.3	-40.9	21.0	0.00e+00	0	56	0	1886388224	43	3858
2026-01-04 04:05:03.68	340.30	46.04	-40.4	-41.0	20.9	0.00e+00	0	56	0	1908408320	43	3879
2026-01-04 04:05:07.66	338.27	46.57	-41.0	-41.7	20.3	0.00e+00	0	56	0	1930428416	43	4199
2026-01-04 04:05:11.62	336.18	47.06	-41.7	-42.4	19.7	0.00e+00	0	56	0	1952448512	45	4076
2026-01-04 04:05:15.57	334.03	47.52	-41.2	-41.8	20.3	0.00e+00	0	56	0	1975517184	45	3805
2026-01-04 04:05:19.51	331.82	47.93	-40.7	-41.3	20.7	0.00e+00	0	56	0	1997537280	44	3811
2026-01-04 04:05:23.48	329.54	48.29	-41.1	-41.7	20.4	0.00e+00	0	56	0	2019557376	44	3973
2026-01-04 04:05:27.45	327.21	48.62	-41.1	-41.7	20.3	0.00e+00	0	56	0	2041577472	44	3982
2026-01-04 04:05:31.39	324.85	48.89	-40.8	-41.4	20.6	0.00e+00	0	56	0	2064646144	44	3855
2026-01-04 04:05:35.35	322.45	49.10	-40.5	-41.1	20.9	0.00e+00	0	56	0	2086666240	44	3733
2026-01-04 04:05:39.31	320.01	49.27	-40.9	-41.5	20.5	0.00e+00	0	57	0	2108686336	43	4114
2026-01-04 04:05:43.27	317.55	49.38	-40.7	-41.4	20.7	0.00e+00	0	57	0	2130706432	44	3825
2026-01-04 04:05:47.22	315.08	49.43	-40.5	-41.1	20.9	0.00e+00	0	56	0	2152726528	44	3703
2026-01-04 04:05:51.19	312.59	49.42	-40.0	-40.5	21.3	0.00e+00	0	57	0	2175795200	43	3693
2026-01-04 04:05:55.15	310.12	49.36	-40.6	-41.2	20.7	0.00e+00	0	57	0	2197815296	43	3978
2026-01-04 04:05:59.12	307.66	49.24	-40.6	-41.2	20.7	0.00e+00	0	56	0	2219835392	43	3996
2026-01-04 04:06:03.09	305.22	49.06	-40.7	-41.2	20.8	0.00e+00	0	57	0	2241855488	44	3773
2026-01-04 04:06:07.04	302.82	48.83	-40.2	-40.8	21.1	0.00e+00	0	57	0	2264924160	43	3807
2026-01-04 04:06:10.98	300.47	48.55	-40.1	-40.7	21.2	0.00e+00	0	57	0	2286944256	43	3740
2026-01-04 04:06:14.96	298.14	48.22	-40.2	-40.8	21.1	0.00e+00	0	57	0	2308964352	43	3801
2026-01-04 04:06:18.91	295.89	47.84	-39.9	-40.5	21.4	0.00e+00	0	57	0	2330984448	42	3874
2026-01-04 04:06:22.87	293.68	47.42	-40.0	-40.6	21.3	0.00e+00	0	57	0	2354053120	42	3935
2026-01-04 04:06:26.83	291.54	46.95	-40.0	-40.5	21.3	0.00e+00	0	57	0	2376073216	42	3911
2026-01-04 04:06:30.79	289.46	46.45	-39.9	-40.4	21.5	0.00e+00	0	57	0	2398093312	42	3851
2026-01-04 04:06:34.74	287.45	45.92	-39.8	-40.4	21.5	0.00e+00	0	57	0	2421161984	42	3843
2026-01-04 04:06:38.69	285.51	45.36	-40.0	-40.5	21.4	0.00e+00	0	57	0	2443182080	42	3890
2026-01-04 04:06:42.65	283.64	44.77	-40.4	-41.0	20.9	0.00e+00	0	57	0	2465202176	42	4126
2026-01-04 04:06:46.60	281.84	44.15	-40.8	-41.4	20.5	0.00e+00	0	57	0	2487222272	43	4093
2026-01-04 04:06:50.56	280.11	43.52	-40.6	-41.2	20.8	0.00e+00	0	57	0	2509242368	44	3770
2026-01-04 04:06:54.51	278.45	42.87	-39.6	-40.2	21.7	0.00e+00	0	57	0	2531262464	42	3741
2026-01-04 04:06:58.46	276.86	42.20	-39.8	-40.3	21.5	0.00e+00	0	57	0	2554331136	42	3808
2026-01-04 04:07:02.43	275.32	41.52	-40.2	-40.8	21.1	0.00e+00	0	57	0	2576351232	42	4038
2026-01-04 04:07:06.39	273.86	40.83	-39.8	-40.3	21.6	0.00e+00	0	57	0	2598371328	42	3791
2026-01-04 04:07:10.35	272.45	40.14	-40.1	-40.6	21.2	0.00e+00	0	57	0	2620391424	42	3953
2026-01-04 04:07:14.31	271.10	39.43	-39.8	-40.4	21.5	0.00e+00	0	57	0	2643460096	42	3831
2026-01-04 04:07:18.28	269.81	38.73	-39.5	-40.0	21.8	0.00e+00	0	57	0	2665480192	42	3681
2026-01-04 04:07:22.23	268.58	38.02	-39.6	-40.2	21.7	0.00e+00	0	57	0	2687500288	42	3748
2026-01-04 04:07:26.19	267.40	37.32	-39.8	-40.4	21.5	0.00e+00	0	57	0	2709520384	42	3830
2026-01-04 04:07:30.12	266.28	36.62	-39.2	-39.7	22.1	0.00e+00	0	57	0	2731540480	41	3750
2026-01-04 04:07:34.09	265.19	35.92	-39.7	-40.2	21.6	0.00e+00	0	57	0	2754609152	41	3987
2026-01-04 04:07:38.04	264.16	35.22	-39.8	-40.4	21.4	0.00e+00	0	57	0	2776629248	41	4061
2026-01-04 04:07:42.00	263.17	34.53	-39.7	-40.3	21.5	0.00e+00	0	57	0	2798649344	41	4012
2026-01-04 04:07:45.95	262.22	33.84	-39.8	-40.3	21.5	0.00e+00	0	57	0	2820669440	41	4026
2026-01-04 04:07:49.92	261.30	33.16	-39.8	-40.4	21.4	0.00e+00	0	57	0	2843738112	41	4076
2026-01-04 04:07:53.89	260.43	32.49	-39.8	-40.3	21.5	0.00e+00	0	57	0	2865758208	41	4032
2026-01-04 04:07:57.86	259.58	31.82	-40.0	-40.6	21.2	0.00e+00	0	57	0	2887778304	41	4163
2026-01-04 04:08:01.83	258.78	31.16	-39.8	-40.4	21.4	0.00e+00	0	57	0	2909798400	41	4059
2026-01-04 04:08:05.79	258.01	30.51	-40.2	-40.8	21.1	0.00e+00	0	57	0	2932867072	42	4007
2026-01-04 04:08:09.75	257.26	29.87	-40.0	-40.5	21.3	0.00e+00	0	57	0	2954887168	42	3900
2026-01-04 04:08:13.69	256.55	29.24	-40.2	-40.8	21.0	0.00e+00	0	57	0	2976907264	42	4017
2026-01-04 04:08:17.63	255.87	28.62	-39.9	-40.4	21.4	0.00e+00	0	57	0	2998927360	42	3861
2026-01-04 04:08:21.58	255.22	28.01	-40.1	-40.7	21.1	0.00e+00	0	57	0	3020947456	42	3982
2026-01-04 04:08:25.55	254.58	27.40	-40.2	-40.8	21.0	0.00e+00	0	57	0	3044016128	42	4016
2026-01-04 04:08:29.49	253.97	26.81	-40.2	-40.8	21.0	0.00e+00	0	57	0	3066036224	42	4025
2026-01-04 04:08:33.43	253.39	26.23	-40.0	-40.5	21.2	0.00e+00	0	57	0	3088056320	42	3902
2026-01-04 04:08:37.40	252.82	25.65	-40.2	-40.8	21.0	0.00e+00	0	57	0	3110076416	42	4015
2026-01-04 04:08:41.33	252.28	25.09	-40.3	-40.9	20.9	0.00e+00	0	57	0	3132096512	42	4054
2026-01-04 04:08:45.29	251.75	24.53	-40.3	-40.9	20.9	0.00e+00	0	57	0	3155165184	42	4068
2026-01-04 04:08:49.24	251.24	23.98	-40.2	-40.8	21.0	0.00e+00	0	57	0	3177185280	42	4014
2026-01-04 04:08:53.21	250.75	23.44	-40.2	-40.8	20.9	0.00e+00	0	57	0	3199205376	42	4039
2026-01-04 04:08:57.16	250.28	22.91	-40.4	-40.9	20.8	0.00e+00	0	57	0	3221225472	42	4096
2026-01-04 04:09:01.12	249.82	22.39	-40.8	-41.4	20.4	0.00e+00	0	57	0	3244294144	43	4074
2026-01-04 04:09:05.07	249.38	21.88	-40.9	-41.5	20.2	0.00e+00	0	57	0	3266314240	43	4141
2026-01-04 04:09:09.04	248.95	21.37	-40.6	-41.2	20.5	0.00e+00	0	57	0	3288334336	43	3992
2026-01-04 04:09:13.01	248.54	20.87	-40.6	-41.2	20.6	0.00e+00	0	57	0	3310354432	43	3964
2026-01-04 04:09:16.97	248.14	20.38	-40.9	-41.6	20.2	0.00e+00	0	57	0	3333423104	43	4160
2026-01-04 04:09:20.92	247.75	19.90	-40.8	-41.4	20.3	0.00e+00	0	57	0	3355443200	43	4089
2026-01-04 04:09:24.88	247.38	19.43	-41.0	-41.6	20.1	0.00e+00	0	57	0	3377463296	43	4169
2026-01-04 04:09:28.82	247.02	18.96	-41.6	-42.3	19.6	0.00e+00	0	57	0	3399483392	44	4262
2026-01-04 04:09:32.77	246.67	18.51	-41.9	-42.6	19.2	0.00e+00	0	57	0	3421503488	45	4177
2026-01-04 04:09:36.73	246.32	18.06	-42.0	-42.7	19.1	0.00e+00	0	57	0	3444572160	46	3999
2026-01-04 04:09:40.69	245.99	17.61	-41.5	-42.2	19.6	0.00e+00	0	57	0	3466592256	46	3760
2026-01-04 04:09:44.64	245.67	17.18	-41.6	-42.2	19.6	0.00e+00	0	57	0	3488612352	46	3762
2026-01-04 04:09:48.59	245.36	16.75	-42.0	-42.7	19.2	0.00e+00	0	57	0	3510632448	46	3975
2026-01-04 04:09:52.55	245.06	16.32	-42.0	-42.7	19.2	0.00e+00	0	57	0	3533701120	46	3968
2026-01-04 04:09:56.50	244.77	15.91	-42.2	-42.9	18.9	0.00e+00	0	57	0	3555721216	46	4072
2026-01-04 04:10:00.46	244.48	15.49	-42.2	-42.9	18.9	0.00e+00	0	57	0	3577741312	46	4081
2026-01-04 04:10:04.42	244.20	15.09	-42.4	-43.2	18.6	0.00e+00	0	57	0	3599761408	46	4213
2026-01-04 04:10:08.39	243.93	14.69	-42.6	-43.4	18.4	0.00e+00	0	57	0	3621781504	46	4293
2026-01-04 04:10:12.34	243.67	14.30	-42.8	-43.7	18.1	0.00e+00	0	57	0	3644850176	47	4204
2026-01-04 04:10:16.31	243.41	13.91	-43.2	-44.1	17.9	0.00e+00	0	57	0	3666870272	48	4162
2026-01-04 04:10:20.29	243.16	13.52	-43.0	-43.9	18.0	0.00e+00	0	58	0	3688890368	48	4069
2026-01-04 04:10:24.25	242.92	13.15	-43.4	-44.2	17.7	0.00e+00	0	57	0	3711959040	48	4223
2026-01-04 04:10:28.21	242.69	12.77	-43.1	-43.9	18.0	0.00e+00	0	57	0	3733979136	48	4073
2026-01-04 04:10:32.16	242.46	12.41	-43.0	-43.7	18.1	0.00e+00	0	57	0	3755999232	48	4004
2026-01-04 04:10:36.12	242.23	12.05	-43.1	-43.9	17.9	0.00e+00	0	57	0	3778019328	48	4093
2026-01-04 04:10:40.07	242.02	11.69	-43.3	-44.2	17.6	0.00e+00	0	57	0	3800039424	48	4200
2026-01-04 04:10:44.03	241.80	11.34	-43.9	-44.8	17.0	0.00e+00	0	57	0	3823108096	49	4265
2026-01-04 04:10:47.99	241.60	10.99	-43.9	-44.9	16.9	0.00e+00	0	58	0	3845128192	50	4079
2026-01-04 04:10:51.93	241.40	10.65	-43.9	-44.8	16.9	0.00e+00	0	58	0	3867148288	50	4049
2026-01-04 04:10:55.88	241.20	10.31	-44.1	-45.1	16.7	0.00e+00	0	58	0	3889168384	50	4152
2026-01-04 04:10:59.83	241.01	9.98	-44.2	-45.2	16.5	0.00e+00	0	58	0	3911188480	50	4230
2026-01-04 04:11:03.78	240.82	9.65	-44.2	-45.2	16.5	0.00e+00	0	58	0	3934257152	50	4200
2026-01-04 04:11:07.73	240.64	9.32	-44.3	-45.4	16.3	0.00e+00	0	57	0	3956277248	50	4299
2026-01-04 04:11:11.69	240.46	9.00	-44.1	-45.2	16.5	0.00e+00	0	57	0	3978297344	50	4195
2026-01-04 04:11:15.66	240.28	8.68	-44.3	-45.3	16.2	0.00e+00	0	58	0	4000317440	50	4284
2026-01-04 04:11:19.61	240.11	8.37	-44.5	-45.6	15.9	0.00e+00	0	58	0	4023386112	50	4424
2026-01-04 04:11:23.57	239.95	8.06	-45.1	-46.3	15.2	0.00e+00	0	57	0	4045406208	51	4519
2026-01-04 04:11:27.54	239.78	7.75	-44.9	-46.1	15.2	0.00e+00	0	58	0	4067426304	52	4175
2026-01-04 04:11:31.49	239.62	7.45	-45.0	-46.2	15.1	0.00e+00	0	58	0	4089446400	52	4217
2026-01-04 04:11:35.45	239.47	7.14	-44.9	-46.2	15.1	0.00e+00	0	58	0	4112515072	52	4205
2026-01-04 04:11:39.40	239.31	6.85	-45.1	-46.4	14.9	0.00e+00	0	58	0	4134535168	52	4298
2026-01-04 04:11:43.36	239.17	6.55	-44.9	-46.2	15.0	0.00e+00	0	58	0	4156555264	52	4218
2026-01-04 04:11:47.32	239.02	6.26	-44.9	-46.2	14.9	0.00e+00	0	58	0	4178575360	52	4230
2026-01-04 04:11:51.29	238.88	5.97	-45.1	-46.4	14.6	0.00e+00	0	58	0	4201644032	52	4315
2026-01-04 04:11:55.25	238.74	5.69	-45.2	-46.6	14.4	0.00e+00	0	58	0	4223664128	52	4400
2026-01-04 04:11:59.21	238.60	5.41	-45.5	-47.0	14.0	5.70e-06	0	58	0	4245684224	52	4600
2026-01-04 04:12:03.18	238.47	5.13	-45.5	-47.0	13.8	1.48e-05	0	58	0	4267704320	52	4651
2026-01-04 04:12:07.14	238.33	4.85	-52.1	-62.8	3.8	8.45e-01	0	58	104	4273995776	66	12802
2026-01-04 04:12:11.09	238.21	4.58	-52.4	-63.1	3.8	8.46e-01	0	58	104	4273995776	66	13199
2026-01-04 04:12:15.07	238.08	4.30	-52.4	-63.2	3.8	8.46e-01	0	58	104	4273995776	66	13332
2026-01-04 04:12:19.04	237.96	4.03	-52.6	-63.3	3.8	8.46e-01	0	58	104	4273995776	67	12691
2026-01-04 04:12:23.00	237.83	3.77	-52.6	-63.3	3.8	8.46e-01	0	58	104	4273995776	67	12797
2026-01-04 04:12:26.96	237.72	3.50	-52.6	-63.4	3.8	8.46e-01	0	58	104	4273995776	67	12886
2026-01-04 04:12:30.89	237.60	3.24	-52.7	-63.4	3.8	8.46e-01	0	58	104	4273995776	67	12850
2026-01-04 04:12:34.85	237.49	2.99	-52.6	-63.3	3.8	8.46e-01	0	58	104	4273995776	67	12780

#Closed at: 2026-01-04 04:12:36
#Recorded file [4273 MB]: D:/Data/31026_260104_071204.dat