passes_logs/2026/01/04/R3.0SM8_Murmansk_STILSPACE/R3.0SM8_Murmansk_STILSPACE__20260104_071809_FENGYUN_3D_rec.log

#Pass ID: 20260104_071809_FENGYUN 3D
#Satellite: FENGYUN 3D
#Configuration: FENGYUN 3D
#almurnet v.1.7.20240730
#Start time: 2026-01-04 07:18:10

#Version: 2.2.20231116
#Station: R3.0SM8_Murmansk_STILSPACE
#Location: 33.092731 lon 68.902999 lat
#TLE: 1 43010U 17072A   26003.51579816  .00000092  00000+0  65324-4 0  9992
#TLE: 2 43010  98.9912 335.1548 0001916 128.4619 231.6729 14.19692074421623

#Time	Az	El	Level	Level2	SNR	BER	BlckErr	Temp	State	Recorded	gain1	gain2
2026-01-04 07:18:10.94	62.99	3.07	-52.5	-63.2	3.8	8.46e-01	0	46	0	0	67	12635
2026-01-04 07:18:13.91	62.79	3.25	-52.0	-62.9	3.8	8.46e-01	0	46	104	0	65	13650
2026-01-04 07:18:16.87	62.59	3.42	-51.6	-62.3	3.8	8.47e-01	0	46	104	0	66	12087
2026-01-04 07:18:19.83	62.38	3.60	-51.5	-62.2	3.8	8.46e-01	0	46	104	0	66	11903
2026-01-04 07:18:22.79	62.17	3.77	-51.5	-62.2	3.8	8.46e-01	0	47	104	0	66	11885
2026-01-04 07:18:25.75	61.96	3.95	-51.5	-62.2	3.8	8.46e-01	0	47	104	0	65	12569
2026-01-04 07:18:28.73	61.75	4.13	-51.6	-62.3	3.8	8.45e-01	0	47	104	0	65	12687
2026-01-04 07:18:31.70	61.53	4.30	-51.6	-62.2	3.8	8.45e-01	0	47	104	0	65	12642
2026-01-04 07:18:34.66	61.31	4.48	-51.4	-60.7	3.8	8.46e-01	0	47	104	0	65	10564
2026-01-04 07:18:37.62	61.09	4.66	-50.9	-57.7	4.6	8.23e-01	0	47	0	0	64	7939
2026-01-04 07:18:40.59	60.86	4.84	-50.1	-54.7	6.6	2.64e-01	0	48	0	6291456	63	5941
2026-01-04 07:18:43.56	60.63	5.03	-49.1	-52.5	8.7	4.46e-02	0	48	0	24117248	61	5171
2026-01-04 07:18:46.53	60.40	5.21	-49.2	-52.6	8.6	4.21e-02	0	48	0	39845888	60	5540
2026-01-04 07:18:49.50	60.17	5.39	-48.8	-51.7	9.5	1.71e-02	0	48	0	56623104	60	5023
2026-01-04 07:18:52.47	59.93	5.58	-49.0	-52.0	9.2	3.99e-02	0	49	0	73400320	60	5218
2026-01-04 07:18:55.43	59.69	5.76	-47.5	-49.5	11.9	6.90e-04	0	49	0	90177536	58	4377
2026-01-04 07:18:58.41	59.44	5.95	-46.6	-48.3	13.1	3.66e-05	0	49	0	106954752	56	4259
2026-01-04 07:19:01.38	59.20	6.13	-45.4	-46.7	14.7	0.00e+00	0	49	0	123731968	53	4215
2026-01-04 07:19:04.35	58.95	6.32	-45.0	-46.2	15.1	0.00e+00	0	49	0	140509184	53	3991
2026-01-04 07:19:07.31	58.69	6.51	-45.0	-46.3	15.1	0.00e+00	0	49	0	157286400	52	4263
2026-01-04 07:19:10.27	58.44	6.70	-45.0	-46.2	15.1	0.00e+00	0	49	0	174063616	52	4237
2026-01-04 07:19:13.23	58.18	6.88	-44.9	-46.1	15.3	0.00e+00	0	50	0	190840832	52	4176
2026-01-04 07:19:16.21	57.91	7.08	-45.1	-46.3	15.1	0.00e+00	0	50	0	207618048	52	4278
2026-01-04 07:19:19.17	57.64	7.27	-45.0	-46.2	15.2	0.00e+00	0	50	0	224395264	52	4234
2026-01-04 07:19:22.14	57.37	7.46	-45.1	-46.3	15.2	0.00e+00	0	50	0	240123904	52	4245
2026-01-04 07:19:25.12	57.09	7.65	-44.9	-46.1	15.4	0.00e+00	0	50	0	256901120	52	4168
2026-01-04 07:19:28.08	56.82	7.85	-44.8	-46.0	15.6	0.00e+00	0	50	0	273678336	52	4108
2026-01-04 07:19:31.03	56.53	8.04	-44.6	-45.7	15.8	0.00e+00	0	50	0	290455552	52	4004
2026-01-04 07:19:34.00	56.25	8.24	-44.4	-45.5	16.0	0.00e+00	0	50	0	307232768	52	3897
2026-01-04 07:19:36.98	55.95	8.43	-44.5	-45.6	16.0	0.00e+00	0	51	0	324009984	51	4182
2026-01-04 07:19:39.96	55.66	8.63	-44.4	-45.5	16.2	0.00e+00	0	51	0	340787200	51	4122
2026-01-04 07:19:42.93	55.36	8.83	-44.6	-45.6	16.1	0.00e+00	0	51	0	357564416	51	4191
2026-01-04 07:19:45.89	55.05	9.03	-44.7	-45.7	16.0	0.00e+00	0	51	0	374341632	51	4238
2026-01-04 07:19:48.87	54.75	9.23	-44.8	-45.9	15.9	0.00e+00	0	51	0	391118848	51	4296
2026-01-04 07:19:51.83	54.43	9.43	-44.5	-45.6	16.2	0.00e+00	0	51	0	407896064	51	4174
2026-01-04 07:19:54.81	54.12	9.63	-44.7	-45.8	16.0	0.00e+00	0	51	0	424673280	51	4260
2026-01-04 07:19:57.77	53.79	9.83	-44.7	-45.8	16.0	0.00e+00	0	51	0	441450496	51	4244
2026-01-04 07:20:00.73	53.47	10.03	-44.4	-45.5	16.4	0.00e+00	0	52	0	457179136	51	4102
2026-01-04 07:20:03.71	53.14	10.23	-44.6	-45.6	16.2	0.00e+00	0	52	0	475004928	51	4175
2026-01-04 07:20:06.68	52.80	10.44	-44.2	-45.2	16.7	0.00e+00	0	52	0	490733568	51	3965
2026-01-04 07:20:09.64	52.46	10.64	-44.0	-45.0	16.8	0.00e+00	0	52	0	507510784	51	3905
2026-01-04 07:20:12.61	52.12	10.85	-44.3	-45.3	16.6	0.00e+00	0	52	0	524288000	51	4013
2026-01-04 07:20:15.57	51.77	11.05	-44.3	-45.3	16.6	0.00e+00	0	52	0	541065216	51	4012
2026-01-04 07:20:18.53	51.41	11.26	-44.4	-45.4	16.5	0.00e+00	0	52	0	557842432	51	4064
2026-01-04 07:20:21.50	51.05	11.47	-44.3	-45.3	16.5	0.00e+00	0	52	0	574619648	51	4051
2026-01-04 07:20:24.47	50.69	11.68	-43.8	-44.7	17.2	0.00e+00	0	52	0	591396864	50	3981
2026-01-04 07:20:27.45	50.31	11.89	-43.7	-44.7	17.2	0.00e+00	0	52	0	608174080	50	3960
2026-01-04 07:20:30.40	49.94	12.09	-43.6	-44.6	17.4	0.00e+00	0	53	0	624951296	50	3916
2026-01-04 07:20:33.38	49.56	12.30	-43.8	-44.7	17.2	0.00e+00	0	52	0	641728512	50	3997
2026-01-04 07:20:36.35	49.17	12.51	-43.8	-44.8	17.2	0.00e+00	0	53	0	658505728	50	4009
2026-01-04 07:20:39.32	48.77	12.72	-43.8	-44.7	17.3	0.00e+00	0	53	0	674234368	50	3967
2026-01-04 07:20:42.30	48.37	12.94	-43.6	-44.5	17.5	0.00e+00	0	53	0	692060160	50	3875
2026-01-04 07:20:45.27	47.97	13.15	-43.2	-44.0	17.9	0.00e+00	0	53	0	707788800	49	3908
2026-01-04 07:20:48.23	47.56	13.36	-43.3	-44.2	17.8	0.00e+00	0	53	0	724566016	49	3979
2026-01-04 07:20:51.20	47.14	13.57	-43.5	-44.3	17.6	0.00e+00	0	53	0	741343232	49	4047
2026-01-04 07:20:54.17	46.72	13.78	-43.2	-44.0	18.0	0.00e+00	0	53	0	758120448	49	3891
2026-01-04 07:20:57.14	46.29	14.00	-43.5	-44.3	17.7	0.00e+00	0	53	0	774897664	49	4039
2026-01-04 07:21:00.10	45.85	14.21	-43.0	-43.8	18.2	0.00e+00	0	53	0	791674880	49	3821
2026-01-04 07:21:03.07	45.41	14.42	-43.0	-43.8	18.2	0.00e+00	0	53	0	808452096	49	3795
2026-01-04 07:21:06.04	44.96	14.64	-42.9	-43.7	18.3	0.00e+00	0	53	0	825229312	49	3777
2026-01-04 07:21:09.03	44.50	14.85	-43.1	-43.9	18.1	0.00e+00	0	54	0	842006528	49	3850
2026-01-04 07:21:11.99	44.04	15.06	-42.9	-43.7	18.4	0.00e+00	0	53	0	858783744	48	3962
2026-01-04 07:21:14.95	43.57	15.28	-43.0	-43.8	18.2	0.00e+00	0	54	0	875560960	48	4037
2026-01-04 07:21:17.92	43.09	15.49	-43.2	-44.1	18.0	0.00e+00	0	54	0	892338176	48	4153
2026-01-04 07:21:20.90	42.61	15.70	-42.7	-43.4	18.6	0.00e+00	0	54	0	909115392	48	3853
2026-01-04 07:21:23.87	42.12	15.92	-42.8	-43.5	18.5	0.00e+00	0	54	0	924844032	48	3904
2026-01-04 07:21:26.83	41.62	16.13	-42.5	-43.3	18.8	0.00e+00	0	54	0	941621248	48	3798
2026-01-04 07:21:29.78	41.12	16.34	-42.5	-43.3	18.8	0.00e+00	0	54	0	958398464	48	3793
2026-01-04 07:21:32.73	40.61	16.55	-42.9	-43.6	18.4	0.00e+00	0	54	0	975175680	48	3947
2026-01-04 07:21:35.71	40.09	16.76	-42.7	-43.5	18.6	0.00e+00	0	54	0	991952896	48	3879
2026-01-04 07:21:38.69	39.56	16.97	-43.1	-43.8	18.2	0.00e+00	0	54	0	1008730112	48	4049
2026-01-04 07:21:41.65	39.03	17.18	-42.4	-43.1	19.0	0.00e+00	0	54	0	1025507328	48	3710
2026-01-04 07:21:44.61	38.49	17.39	-42.2	-43.0	18.9	0.00e+00	0	54	0	1042284544	47	3878
2026-01-04 07:21:47.57	37.95	17.60	-42.1	-42.8	19.1	0.00e+00	0	54	0	1059061760	47	3811
2026-01-04 07:21:50.53	37.39	17.80	-41.9	-42.6	19.3	0.00e+00	0	54	0	1074790400	46	3920
2026-01-04 07:21:53.50	36.83	18.01	-41.9	-42.6	19.3	0.00e+00	0	54	0	1092616192	46	3927
2026-01-04 07:21:56.47	36.25	18.21	-41.8	-42.5	19.4	0.00e+00	0	54	0	1108344832	46	3894
2026-01-04 07:21:59.43	35.67	18.42	-42.2	-42.9	19.1	0.00e+00	0	54	0	1125122048	46	4054
2026-01-04 07:22:02.39	35.09	18.62	-42.4	-43.1	18.8	0.00e+00	0	54	0	1141899264	46	4162
2026-01-04 07:22:05.37	34.49	18.82	-42.3	-43.0	18.9	0.00e+00	0	54	0	1158676480	46	4134
2026-01-04 07:22:08.35	33.88	19.02	-41.8	-42.5	19.4	0.00e+00	0	55	0	1175453696	46	3894
2026-01-04 07:22:11.32	33.27	19.21	-41.6	-42.3	19.6	0.00e+00	0	55	0	1192230912	46	3803
2026-01-04 07:22:14.28	32.65	19.41	-41.6	-42.3	19.6	0.00e+00	0	55	0	1209008128	46	3787
2026-01-04 07:22:17.25	32.03	19.60	-41.7	-42.3	19.6	0.00e+00	0	55	0	1225785344	46	3823
2026-01-04 07:22:20.21	31.39	19.79	-41.8	-42.5	19.4	0.00e+00	0	55	0	1242562560	46	3896
2026-01-04 07:22:23.19	30.74	19.98	-41.9	-42.6	19.4	0.00e+00	0	55	0	1259339776	46	3917
2026-01-04 07:22:26.15	30.09	20.17	-41.9	-42.6	19.3	0.00e+00	0	55	0	1276116992	46	3946
2026-01-04 07:22:29.11	29.44	20.35	-41.4	-42.1	19.9	0.00e+00	0	55	0	1292894208	46	3704
2026-01-04 07:22:32.08	28.77	20.53	-41.7	-42.3	19.6	0.00e+00	0	55	0	1308622848	46	3824
2026-01-04 07:22:35.04	28.09	20.71	-41.5	-42.1	19.8	0.00e+00	0	55	0	1325400064	46	3729
2026-01-04 07:22:38.02	27.41	20.88	-41.3	-42.0	20.0	0.00e+00	0	55	0	1342177280	45	3869
2026-01-04 07:22:40.98	26.72	21.05	-41.2	-41.8	20.1	0.00e+00	0	55	0	1358954496	45	3815
2026-01-04 07:22:43.95	26.02	21.22	-41.5	-42.1	19.8	0.00e+00	0	55	0	1375731712	45	3940
2026-01-04 07:22:46.92	25.31	21.38	-41.4	-42.0	19.9	0.00e+00	0	55	0	1392508928	45	3905
2026-01-04 07:22:49.90	24.60	21.55	-41.6	-42.2	19.7	0.00e+00	0	55	0	1409286144	45	3986
2026-01-04 07:22:52.87	23.87	21.70	-41.2	-41.8	20.1	0.00e+00	0	55	0	1426063360	45	3791
2026-01-04 07:22:55.84	23.14	21.86	-41.3	-41.9	20.0	0.00e+00	0	55	0	1442840576	45	3865
2026-01-04 07:22:58.82	22.41	22.01	-41.0	-41.6	20.3	0.00e+00	0	55	0	1459617792	45	3711
2026-01-04 07:23:01.80	21.66	22.15	-40.8	-41.5	20.5	0.00e+00	0	55	0	1476395008	44	3869
2026-01-04 07:23:04.76	20.91	22.29	-41.0	-41.7	20.2	0.00e+00	0	55	0	1493172224	44	3968
2026-01-04 07:23:07.72	20.16	22.43	-40.9	-41.6	20.3	0.00e+00	0	55	0	1509949440	44	3919
2026-01-04 07:23:10.69	19.39	22.56	-41.0	-41.6	20.3	0.00e+00	0	55	0	1525678080	44	3946
2026-01-04 07:23:13.66	18.62	22.68	-41.0	-41.6	20.3	0.00e+00	0	55	0	1542455296	44	3930
2026-01-04 07:23:16.62	17.85	22.80	-40.9	-41.6	20.4	0.00e+00	0	55	0	1559232512	44	3918
2026-01-04 07:23:19.59	17.07	22.92	-40.8	-41.4	20.5	0.00e+00	0	55	0	1576009728	44	3842
2026-01-04 07:23:22.56	16.28	23.03	-40.8	-41.4	20.5	0.00e+00	0	55	0	1592786944	44	3833
2026-01-04 07:23:25.52	15.49	23.13	-40.9	-41.6	20.3	0.00e+00	0	55	0	1609564160	44	3921
2026-01-04 07:23:28.48	14.69	23.23	-41.0	-41.6	20.3	0.00e+00	0	56	0	1626341376	44	3942
2026-01-04 07:23:31.45	13.89	23.33	-40.9	-41.5	20.4	0.00e+00	0	55	0	1643118592	44	3889
2026-01-04 07:23:34.42	13.08	23.42	-41.0	-41.7	20.2	0.00e+00	0	55	0	1659895808	44	3968
2026-01-04 07:23:37.39	12.26	23.50	-40.5	-41.1	20.7	0.00e+00	0	55	0	1676673024	44	3726
2026-01-04 07:23:40.36	11.45	23.57	-40.3	-40.9	20.8	0.00e+00	0	56	0	1693450240	43	3829
2026-01-04 07:23:43.32	10.63	23.64	-40.2	-40.8	20.6	0.00e+00	0	55	0	1710227456	43	3808
2026-01-04 07:23:46.29	9.80	23.71	-41.5	-42.2	19.0	0.00e+00	0	56	0	1727004672	44	4235
2026-01-04 07:23:49.25	8.98	23.77	-43.3	-44.3	16.8	0.00e+00	0	55	0	1742733312	48	4269
2026-01-04 07:23:52.23	8.14	23.82	-44.3	-45.5	15.5	0.00e+00	0	56	0	1759510528	50	4359
2026-01-04 07:23:55.20	7.31	23.86	-43.8	-44.9	16.1	0.00e+00	0	56	0	1776287744	50	4072
2026-01-04 07:23:58.16	6.48	23.90	-42.5	-43.4	17.9	0.00e+00	0	56	0	1793064960	48	3838
2026-01-04 07:24:01.14	5.64	23.93	-42.3	-43.1	18.2	0.00e+00	0	55	0	1809842176	47	3916
2026-01-04 07:24:04.10	4.80	23.96	-44.9	-46.2	14.7	0.00e+00	0	55	0	1826619392	51	4475
2026-01-04 07:24:07.08	3.96	23.97	-46.9	-49.0	11.9	1.25e-03	0	55	0	1843396608	57	4349
2026-01-04 07:24:10.05	3.12	23.99	-43.5	-44.4	17.4	0.00e+00	0	56	0	1860173824	50	3857
2026-01-04 07:24:13.02	2.28	23.99	-42.2	-43.0	18.9	0.00e+00	0	56	0	1876951040	47	3885
2026-01-04 07:24:15.99	1.43	23.99	-40.8	-41.4	20.5	0.00e+00	0	56	0	1893728256	44	3840
2026-01-04 07:24:18.96	0.59	23.98	-40.7	-41.3	20.6	0.00e+00	0	56	0	1910505472	44	3804
2026-01-04 07:24:21.93	359.75	23.97	-40.1	-40.6	21.1	0.00e+00	0	56	0	1927282688	43	3733
2026-01-04 07:24:24.89	358.91	23.94	-40.2	-40.8	21.0	0.00e+00	0	56	0	1944059904	43	3786
2026-01-04 07:24:27.86	358.08	23.91	-40.6	-41.2	20.6	0.00e+00	0	56	0	1960837120	43	3960
2026-01-04 07:24:30.82	357.24	23.88	-40.1	-40.7	21.1	0.00e+00	0	56	0	1976565760	43	3742
2026-01-04 07:24:33.79	356.41	23.84	-40.3	-40.9	20.8	0.00e+00	0	56	0	1993342976	43	3863
2026-01-04 07:24:36.75	355.58	23.79	-40.7	-41.3	20.4	0.00e+00	0	56	0	2010120192	43	4037
2026-01-04 07:24:39.71	354.75	23.74	-40.6	-41.2	20.5	0.00e+00	0	56	0	2026897408	43	3985
2026-01-04 07:24:42.68	353.93	23.67	-40.8	-41.4	20.4	0.00e+00	0	56	0	2043674624	43	4060
2026-01-04 07:24:45.65	353.10	23.61	-40.5	-41.1	20.6	0.00e+00	0	56	0	2060451840	43	3936
2026-01-04 07:24:48.62	352.28	23.53	-40.7	-41.3	20.4	0.00e+00	0	56	0	2077229056	43	4020
2026-01-04 07:24:51.58	351.47	23.46	-40.9	-41.6	20.2	0.00e+00	0	56	0	2094006272	43	4149
2026-01-04 07:24:54.54	350.66	23.37	-40.7	-41.3	20.6	0.00e+00	0	56	0	2110783488	44	3790
2026-01-04 07:24:57.50	349.86	23.28	-40.8	-41.4	20.5	0.00e+00	0	56	0	2127560704	44	3831
2026-01-04 07:25:00.47	349.06	23.18	-40.4	-41.0	20.8	0.00e+00	0	56	0	2143289344	44	3658
2026-01-04 07:25:03.44	348.26	23.08	-40.5	-41.1	20.6	0.00e+00	0	56	0	2160066560	43	3934
2026-01-04 07:25:06.41	347.47	22.97	-40.3	-40.9	20.8	0.00e+00	0	56	0	2176843776	43	3834
2026-01-04 07:25:09.39	346.68	22.86	-40.3	-40.9	20.8	0.00e+00	0	56	0	2193620992	43	3847
2026-01-04 07:25:12.37	345.90	22.74	-40.4	-40.9	20.8	0.00e+00	0	56	0	2210398208	43	3868
2026-01-04 07:25:15.33	345.13	22.62	-40.5	-41.1	20.6	0.00e+00	0	56	0	2227175424	43	3940
2026-01-04 07:25:18.30	344.36	22.49	-40.5	-41.1	20.5	0.00e+00	0	56	0	2243952640	43	3957
2026-01-04 07:25:21.26	343.60	22.35	-40.4	-41.0	20.7	0.00e+00	0	56	0	2260729856	43	3879
2026-01-04 07:25:24.22	342.85	22.22	-40.3	-40.9	20.8	0.00e+00	0	56	0	2277507072	43	3863
2026-01-04 07:25:27.20	342.10	22.07	-40.5	-41.1	20.6	0.00e+00	0	56	0	2294284288	43	3926
2026-01-04 07:25:30.15	341.37	21.93	-40.6	-41.2	20.4	0.00e+00	0	56	0	2311061504	43	3997
2026-01-04 07:25:33.12	340.64	21.78	-40.8	-41.4	20.2	0.00e+00	0	56	0	2327838720	43	4098
2026-01-04 07:25:36.10	339.91	21.62	-40.4	-41.0	20.6	0.00e+00	0	56	0	2344615936	43	3896
2026-01-04 07:25:39.07	339.19	21.46	-40.4	-41.0	20.5	0.00e+00	0	56	0	2360344576	43	3902
2026-01-04 07:25:42.05	338.48	21.30	-41.1	-41.8	19.6	0.00e+00	0	56	0	2378170368	43	4253
2026-01-04 07:25:45.01	337.78	21.13	-42.5	-43.3	18.1	0.00e+00	0	56	0	2393899008	46	4284
2026-01-04 07:25:47.98	337.08	20.96	-42.9	-43.8	17.4	0.00e+00	0	56	0	2410676224	47	4274
2026-01-04 07:25:50.95	336.39	20.79	-42.9	-43.9	17.4	0.00e+00	0	56	0	2427453440	47	4305
2026-01-04 07:25:53.92	335.71	20.61	-43.2	-44.1	17.4	0.00e+00	0	56	0	2444230656	48	4181
2026-01-04 07:25:56.88	335.04	20.43	-42.8	-43.6	17.9	0.00e+00	0	56	0	2461007872	48	3956
2026-01-04 07:25:59.85	334.38	20.25	-41.8	-42.5	18.9	0.00e+00	0	56	0	2477785088	46	3888
2026-01-04 07:26:02.82	333.72	20.07	-40.8	-41.4	20.0	0.00e+00	0	56	0	2494562304	44	3851
2026-01-04 07:26:05.78	333.08	19.88	-41.8	-42.5	19.3	0.00e+00	0	56	0	2511339520	45	4110
2026-01-04 07:26:08.75	332.44	19.69	-42.1	-42.8	19.1	0.00e+00	0	56	0	2528116736	46	4030
2026-01-04 07:26:11.72	331.80	19.50	-42.7	-43.4	18.5	0.00e+00	0	56	0	2544893952	47	4093
2026-01-04 07:26:14.69	331.18	19.30	-42.1	-42.8	19.1	0.00e+00	0	56	0	2560622592	47	3809
2026-01-04 07:26:17.67	330.56	19.11	-41.7	-42.4	19.5	0.00e+00	0	56	0	2578448384	46	3846
2026-01-04 07:26:20.64	329.95	18.91	-41.9	-42.6	19.3	0.00e+00	0	56	0	2594177024	46	3936
2026-01-04 07:26:23.62	329.35	18.71	-41.6	-42.2	19.6	0.00e+00	0	56	0	2610954240	46	3779
2026-01-04 07:26:26.58	328.76	18.51	-41.3	-41.9	19.9	0.00e+00	0	56	0	2627731456	45	3852
2026-01-04 07:26:29.55	328.18	18.31	-41.5	-42.2	19.7	0.00e+00	0	56	0	2644508672	45	3981
2026-01-04 07:26:32.50	327.61	18.10	-41.3	-42.0	19.9	0.00e+00	0	56	0	2661285888	45	3882
2026-01-04 07:26:35.47	327.04	17.90	-41.7	-42.4	19.5	0.00e+00	0	56	0	2678063104	45	4062
2026-01-04 07:26:38.44	326.48	17.69	-41.9	-42.6	19.3	0.00e+00	0	56	0	2694840320	45	4170
2026-01-04 07:26:41.40	325.93	17.48	-42.1	-42.8	19.1	0.00e+00	0	56	0	2711617536	46	4018
2026-01-04 07:26:44.37	325.38	17.28	-42.2	-42.9	19.0	0.00e+00	0	56	0	2728394752	46	4096
2026-01-04 07:26:47.34	324.84	17.07	-42.3	-43.0	18.9	0.00e+00	0	56	0	2745171968	46	4113
2026-01-04 07:26:50.30	324.31	16.86	-42.5	-43.2	18.6	0.00e+00	0	56	0	2761949184	46	4227
2026-01-04 07:26:53.25	323.80	16.65	-42.3	-43.0	18.9	0.00e+00	0	56	0	2778726400	46	4132
2026-01-04 07:26:56.21	323.28	16.44	-42.4	-43.2	18.7	0.00e+00	0	56	0	2794455040	47	3982
2026-01-04 07:26:59.17	322.78	16.23	-42.1	-42.8	19.0	0.00e+00	0	57	0	2811232256	47	3821
2026-01-04 07:27:02.14	322.27	16.01	-42.3	-43.1	18.8	0.00e+00	0	56	0	2828009472	47	3937
2026-01-04 07:27:05.11	321.78	15.80	-42.2	-42.9	18.9	0.00e+00	0	56	0	2844786688	47	3854
2026-01-04 07:27:08.06	321.30	15.59	-42.3	-43.1	18.8	0.00e+00	0	56	0	2861563904	47	3915
2026-01-04 07:27:11.03	320.82	15.38	-42.1	-42.8	19.0	0.00e+00	0	56	0	2878341120	47	3805
2026-01-04 07:27:13.99	320.35	15.16	-42.3	-43.0	18.9	0.00e+00	0	56	0	2895118336	47	3883
2026-01-04 07:27:16.95	319.88	14.95	-42.3	-43.0	18.8	0.00e+00	0	56	0	2911895552	47	3901
2026-01-04 07:27:19.92	319.42	14.74	-42.5	-43.2	18.6	0.00e+00	0	56	0	2927624192	47	3993
2026-01-04 07:27:22.87	318.97	14.52	-42.5	-43.3	18.5	0.00e+00	0	57	0	2944401408	47	4029
2026-01-04 07:27:25.83	318.53	14.31	-42.6	-43.3	18.5	0.00e+00	0	56	0	2961178624	47	4050
2026-01-04 07:27:28.79	318.09	14.10	-42.7	-43.5	18.3	0.00e+00	0	56	0	2977955840	47	4118
2026-01-04 07:27:31.75	317.66	13.89	-43.0	-43.8	18.0	0.00e+00	0	56	0	2994733056	47	4274
2026-01-04 07:27:34.73	317.23	13.67	-43.1	-43.9	18.0	0.00e+00	0	57	0	3011510272	48	4088
2026-01-04 07:27:37.71	316.81	13.46	-43.1	-43.9	18.0	0.00e+00	0	56	0	3028287488	48	4079
2026-01-04 07:27:40.67	316.40	13.25	-43.1	-43.9	18.0	0.00e+00	0	57	0	3045064704	48	4092
2026-01-04 07:27:43.64	315.99	13.04	-43.0	-43.9	18.1	0.00e+00	0	56	0	3061841920	48	4068
2026-01-04 07:27:46.60	315.59	12.83	-43.3	-44.1	17.8	0.00e+00	0	56	0	3078619136	48	4177
2026-01-04 07:27:49.57	315.19	12.61	-43.0	-43.8	18.1	0.00e+00	0	57	0	3095396352	48	4021
2026-01-04 07:27:52.54	314.80	12.40	-43.2	-44.0	17.9	0.00e+00	0	57	0	3112173568	48	4134
2026-01-04 07:27:55.52	314.41	12.19	-43.4	-44.3	17.6	0.00e+00	0	56	0	3127902208	48	4264
2026-01-04 07:27:58.49	314.03	11.98	-43.6	-44.4	17.5	0.00e+00	0	56	0	3145728000	49	4084
2026-01-04 07:28:01.47	313.66	11.77	-43.9	-44.8	17.1	0.00e+00	0	56	0	3161456640	49	4271
2026-01-04 07:28:04.44	313.29	11.57	-43.8	-44.7	17.2	0.00e+00	0	57	0	3178233856	49	4232
2026-01-04 07:28:07.42	312.92	11.36	-44.0	-44.9	17.0	0.00e+00	0	57	0	3195011072	49	4327
2026-01-04 07:28:10.40	312.57	11.15	-44.3	-45.2	16.7	0.00e+00	0	56	0	3211788288	50	4226
2026-01-04 07:28:13.37	312.21	10.94	-44.2	-45.2	16.7	0.00e+00	0	57	0	3228565504	50	4230
2026-01-04 07:28:16.34	311.86	10.74	-44.1	-45.1	16.8	0.00e+00	0	56	0	3245342720	50	4173
2026-01-04 07:28:19.30	311.52	10.53	-44.2	-45.2	16.7	0.00e+00	0	57	0	3262119936	50	4212
2026-01-04 07:28:22.27	311.18	10.33	-44.2	-45.2	16.7	0.00e+00	0	57	0	3278897152	50	4225
2026-01-04 07:28:25.23	310.85	10.12	-44.3	-45.3	16.5	0.00e+00	0	57	0	3295674368	50	4288
2026-01-04 07:28:28.19	310.52	9.92	-44.0	-44.9	16.9	0.00e+00	0	56	0	3312451584	50	4093
2026-01-04 07:28:31.13	310.20	9.72	-44.0	-44.9	16.9	0.00e+00	0	57	0	3328180224	50	4085
2026-01-04 07:28:34.11	309.88	9.52	-44.2	-45.3	16.5	0.00e+00	0	57	0	3346006016	50	4247
2026-01-04 07:28:37.08	309.57	9.32	-44.2	-45.2	16.5	0.00e+00	0	57	0	3361734656	50	4241
2026-01-04 07:28:40.06	309.26	9.12	-44.6	-45.6	16.2	0.00e+00	0	57	0	3378511872	50	4419
2026-01-04 07:28:43.03	308.95	8.92	-44.5	-45.5	16.3	0.00e+00	0	57	0	3395289088	51	4119
2026-01-04 07:28:46.00	308.65	8.72	-44.8	-45.9	15.9	0.00e+00	0	57	0	3412066304	51	4318
2026-01-04 07:28:48.97	308.35	8.52	-44.4	-45.4	16.3	0.00e+00	0	57	0	3428843520	51	4081
2026-01-04 07:28:51.92	308.06	8.33	-44.6	-45.7	16.0	0.00e+00	0	56	0	3445620736	51	4241
2026-01-04 07:28:54.90	307.77	8.13	-44.7	-45.8	15.9	0.00e+00	0	57	0	3462397952	51	4267
2026-01-04 07:28:57.86	307.49	7.94	-44.6	-45.8	15.9	0.00e+00	0	57	0	3479175168	51	4243
2026-01-04 07:29:00.83	307.20	7.74	-45.0	-46.2	15.4	0.00e+00	0	57	0	3495952384	51	4476
2026-01-04 07:29:03.80	306.93	7.55	-44.9	-46.1	15.4	0.00e+00	0	57	0	3512729600	51	4418
2026-01-04 07:29:06.78	306.65	7.36	-44.9	-46.1	15.3	0.00e+00	0	57	0	3529506816	52	4149
2026-01-04 07:29:09.73	306.38	7.16	-44.7	-46.0	15.3	0.00e+00	0	57	0	3545235456	52	4099
2026-01-04 07:29:12.71	306.12	6.97	-45.1	-46.4	14.8	0.00e+00	0	57	0	3563061248	52	4306
2026-01-04 07:29:15.69	305.85	6.78	-45.2	-46.6	14.5	2.20e-06	0	57	0	3578789888	52	4416
2026-01-04 07:29:18.66	305.59	6.59	-45.4	-46.8	14.3	1.10e-06	0	57	0	3595567104	52	4508
2026-01-04 07:29:21.64	305.34	6.40	-45.3	-46.7	14.4	0.00e+00	0	57	0	3612344320	52	4448
2026-01-04 07:29:24.61	305.08	6.22	-45.3	-46.7	14.3	0.00e+00	0	57	0	3629121536	52	4443
2026-01-04 07:29:27.57	304.84	6.03	-45.4	-46.8	14.0	3.40e-06	0	57	0	3645898752	52	4535
2026-01-04 07:29:30.53	304.59	5.84	-45.6	-47.2	13.6	1.02e-05	0	57	0	3662675968	53	4487
2026-01-04 07:29:33.50	304.35	5.66	-45.8	-47.4	13.3	2.17e-05	0	57	0	3679453184	53	4567
2026-01-04 07:29:36.46	304.11	5.47	-45.9	-47.6	13.0	5.14e-05	0	57	0	3696230400	53	4674
2026-01-04 07:29:39.43	303.87	5.29	-46.2	-48.0	12.6	1.17e-04	0	57	0	3713007616	54	4638
2026-01-04 07:29:42.42	303.64	5.11	-46.0	-47.7	12.8	8.46e-05	0	57	0	3729784832	54	4492
2026-01-04 07:29:45.39	303.41	4.92	-51.8	-62.5	3.8	8.47e-01	0	57	104	3739222016	65	13081
2026-01-04 07:29:48.36	303.18	4.74	-49.8	-60.6	3.8	8.45e-01	0	57	104	3739222016	62	12405
2026-01-04 07:29:51.34	302.96	4.56	-52.5	-63.2	3.8	8.45e-01	0	57	104	3739222016	66	13306
2026-01-04 07:29:54.29	302.74	4.38	-52.6	-63.3	3.8	8.45e-01	0	57	104	3739222016	66	13423
2026-01-04 07:29:57.25	302.52	4.20	-52.7	-63.4	3.8	8.45e-01	0	57	104	3739222016	67	12856
2026-01-04 07:30:00.21	302.30	4.03	-52.7	-63.5	3.8	8.46e-01	0	57	104	3739222016	67	12984
2026-01-04 07:30:03.17	302.09	3.85	-52.8	-63.5	3.8	8.45e-01	0	57	104	3739222016	67	12980
2026-01-04 07:30:06.15	301.88	3.67	-52.7	-63.5	3.8	8.46e-01	0	57	104	3739222016	67	13039
2026-01-04 07:30:09.11	301.67	3.50	-52.8	-63.5	3.8	8.45e-01	0	57	104	3739222016	67	13009
2026-01-04 07:30:12.09	301.47	3.32	-52.8	-63.5	3.8	8.46e-01	0	57	104	3739222016	67	13068
2026-01-04 07:30:15.06	301.26	3.15	-52.8	-63.5	3.8	8.45e-01	0	57	104	3739222016	67	13007
2026-01-04 07:30:18.03	301.06	2.97	-52.7	-63.5	3.8	8.47e-01	0	57	104	3739222016	67	12969

#Closed at: 2026-01-04 07:30:19
#Recorded file [3739 MB]: D:/Data/31026_260104_102944.dat