passes_logs/2026/01/04/R3.0SM8_Murmansk_STILSPACE/R3.0SM8_Murmansk_STILSPACE__20260104_213801_SUOMI_NPP_rec.log

#Pass ID: 20260104_213801_SUOMI NPP
#Satellite: SUOMI NPP
#Configuration: NPP
#almurnet v.1.7.20240730
#Start time: 2026-01-04 21:38:01

#Version: 2.2.20231116
#Station: R3.0SM8_Murmansk_STILSPACE
#Location: 33.092731 lon 68.902999 lat
#TLE: 1 37849U 11061A   26003.96724563  .00000164  00000+0  98899-4 0  9990
#TLE: 2 37849  98.7800 306.1116 0002573  82.3190 277.8279 14.19522066735141

#Time	Az	El	Level	Level2	SNR	BER	BlckErr	Temp	State	Recorded	gain1	gain2
2026-01-04 21:38:01.78	20.40	3.00	-52.6	-66.3	3.8	1.49e+00	0	45	0	0	67	18078
2026-01-04 21:38:04.73	20.68	3.15	-52.5	-66.3	3.8	1.49e+00	0	46	104	0	67	17925
2026-01-04 21:38:07.69	20.98	3.29	-52.3	-66.2	3.8	1.49e+00	0	46	104	0	66	18794
2026-01-04 21:38:10.68	21.27	3.43	-52.2	-66.1	3.8	1.49e+00	0	46	104	0	66	18668
2026-01-04 21:38:13.64	21.57	3.57	-52.0	-65.9	3.8	1.49e+00	0	46	104	0	66	18283
2026-01-04 21:38:16.61	21.87	3.72	-51.6	-65.4	3.8	1.49e+00	0	47	104	0	66	17134
2026-01-04 21:38:19.55	22.17	3.86	-51.5	-65.3	3.8	1.49e+00	0	46	104	0	65	17940
2026-01-04 21:38:22.52	22.48	4.00	-51.5	-65.3	3.8	1.49e+00	0	47	104	0	65	18029
2026-01-04 21:38:25.47	22.78	4.14	-51.4	-65.4	3.8	1.49e+00	0	47	104	0	65	18112
2026-01-04 21:38:28.43	23.09	4.29	-51.5	-65.3	3.8	1.49e+00	0	47	104	0	65	18056
2026-01-04 21:38:31.39	23.41	4.43	-51.3	-65.2	3.8	1.49e+00	0	47	104	0	65	17703
2026-01-04 21:38:34.35	23.73	4.57	-51.4	-65.1	3.8	1.49e+00	0	47	104	0	65	17646
2026-01-04 21:38:37.31	24.04	4.72	-51.2	-63.4	3.8	1.49e+00	0	48	104	0	65	14416
2026-01-04 21:38:40.29	24.37	4.86	-50.8	-58.4	5.9	4.49e-01	0	48	0	3145728	64	8612
2026-01-04 21:38:43.25	24.70	5.00	-49.8	-54.5	9.5	2.75e-02	0	48	0	8388608	62	6187
2026-01-04 21:38:46.22	25.02	5.15	-49.6	-53.9	10.3	6.26e-03	0	48	0	13631488	62	5766
2026-01-04 21:38:49.20	25.36	5.29	-49.3	-53.2	11.0	2.67e-03	0	48	0	18874368	61	5643
2026-01-04 21:38:52.18	25.70	5.44	-49.4	-53.5	10.8	2.15e-03	0	48	0	25165824	61	5794
2026-01-04 21:38:55.14	26.03	5.58	-49.2	-53.0	11.2	1.49e-03	0	48	0	30408704	61	5510
2026-01-04 21:38:58.11	26.38	5.72	-49.1	-52.7	11.6	5.42e-04	0	49	0	35651584	61	5309
2026-01-04 21:39:01.07	26.72	5.87	-49.3	-53.2	11.1	1.30e-03	0	49	0	41943040	61	5612
2026-01-04 21:39:04.05	27.07	6.01	-49.4	-53.4	10.9	3.02e-03	0	49	0	47185920	61	5779
2026-01-04 21:39:07.01	27.42	6.15	-49.6	-53.8	10.5	3.32e-03	0	49	0	52428800	61	6035
2026-01-04 21:39:09.99	27.78	6.30	-49.3	-53.1	11.2	1.55e-03	0	49	0	58720256	61	5539
2026-01-04 21:39:12.94	28.14	6.44	-49.0	-52.5	11.9	6.32e-04	0	49	0	63963136	61	5197
2026-01-04 21:39:15.91	28.50	6.58	-48.8	-52.0	12.5	1.22e-04	0	50	0	69206016	60	5169
2026-01-04 21:39:18.88	28.86	6.72	-49.0	-52.4	12.0	2.04e-04	0	50	0	75497472	60	5460
2026-01-04 21:39:21.85	29.23	6.87	-48.5	-51.4	13.1	5.34e-05	0	50	0	80740352	60	4845
2026-01-04 21:39:24.83	29.61	7.01	-48.6	-51.6	13.0	7.93e-05	0	50	0	85983232	59	5245
2026-01-04 21:39:27.78	29.98	7.15	-48.5	-51.3	13.2	2.97e-05	0	50	0	91226112	59	5071
2026-01-04 21:39:30.72	30.36	7.29	-48.6	-51.6	13.0	2.82e-05	0	50	0	97517568	59	5227
2026-01-04 21:39:33.70	30.74	7.43	-48.9	-52.1	12.5	7.70e-05	0	51	0	102760448	59	5564
2026-01-04 21:39:36.66	31.13	7.58	-48.3	-51.0	13.5	1.60e-05	0	51	0	108003328	59	4882
2026-01-04 21:39:39.64	31.52	7.72	-47.7	-50.1	14.5	0.00e+00	0	51	0	114294784	58	4661
2026-01-04 21:39:42.59	31.91	7.86	-47.6	-49.9	14.7	0.00e+00	0	51	0	119537664	58	4550
2026-01-04 21:39:45.54	32.30	8.00	-47.9	-50.2	14.3	1.50e-06	0	51	0	124780544	58	4725
2026-01-04 21:39:48.49	32.70	8.14	-47.7	-50.0	14.7	0.00e+00	0	51	0	130023424	58	4620
2026-01-04 21:39:51.45	33.11	8.28	-48.0	-50.4	14.3	0.00e+00	0	51	0	136314880	58	4816
2026-01-04 21:39:54.42	33.52	8.42	-47.9	-50.3	14.3	7.00e-07	0	51	0	141557760	58	4775
2026-01-04 21:39:57.38	33.93	8.55	-48.0	-50.3	14.4	7.00e-07	0	51	0	146800640	58	4775
2026-01-04 21:40:00.34	34.34	8.69	-47.7	-49.9	14.8	0.00e+00	0	51	0	153092096	58	4561
2026-01-04 21:40:03.31	34.76	8.83	-48.0	-50.3	14.3	7.00e-07	0	51	0	158334976	58	4800
2026-01-04 21:40:06.27	35.19	8.97	-48.1	-50.6	14.0	7.00e-07	0	52	0	163577856	58	4933
2026-01-04 21:40:09.23	35.61	9.10	-48.2	-50.7	14.0	3.80e-06	0	52	0	169869312	58	5022
2026-01-04 21:40:12.20	36.04	9.24	-48.3	-50.9	13.8	4.50e-06	0	52	0	175112192	58	5106
2026-01-04 21:40:15.16	36.48	9.37	-48.1	-50.6	14.1	2.20e-06	0	52	0	180355072	58	4981
2026-01-04 21:40:18.12	36.92	9.51	-48.3	-50.9	13.8	5.30e-06	0	52	0	185597952	58	5146
2026-01-04 21:40:21.09	37.36	9.64	-48.2	-50.6	14.1	7.00e-07	0	52	0	191889408	58	4961
2026-01-04 21:40:24.06	37.81	9.78	-48.4	-51.0	13.8	4.50e-06	0	52	0	197132288	58	5173
2026-01-04 21:40:27.03	38.26	9.91	-48.6	-51.3	13.4	1.52e-05	0	52	0	202375168	59	5078
2026-01-04 21:40:29.99	38.71	10.04	-49.0	-52.1	12.7	4.73e-05	0	52	0	208666624	59	5536
2026-01-04 21:40:32.97	39.17	10.17	-48.3	-50.8	13.9	5.30e-06	0	52	0	213909504	59	4807
2026-01-04 21:40:35.94	39.64	10.30	-47.9	-50.2	14.5	0.00e+00	0	52	0	219152384	59	4477
2026-01-04 21:40:38.92	40.11	10.43	-48.4	-51.0	13.8	0.00e+00	0	53	0	225443840	59	4885
2026-01-04 21:40:41.89	40.58	10.56	-48.4	-51.0	13.8	9.10e-06	0	53	0	230686720	59	4923
2026-01-04 21:40:44.86	41.05	10.68	-48.2	-50.7	14.1	1.50e-06	0	53	0	235929600	59	4735
2026-01-04 21:40:47.83	41.53	10.81	-48.4	-50.9	14.0	3.80e-06	0	53	0	242221056	59	4815
2026-01-04 21:40:50.80	42.02	10.93	-48.7	-51.4	13.4	1.37e-05	0	53	0	247463936	59	5110
2026-01-04 21:40:53.77	42.50	11.06	-48.9	-51.7	13.2	2.51e-05	0	53	0	252706816	59	5318
2026-01-04 21:40:56.75	43.00	11.18	-49.1	-52.2	12.6	7.01e-05	0	53	0	258998272	60	5335
2026-01-04 21:40:59.72	43.49	11.30	-48.8	-51.6	13.2	3.20e-05	0	53	0	264241152	60	4937
2026-01-04 21:41:02.69	43.99	11.42	-48.6	-51.3	13.5	1.37e-05	0	53	0	269484032	60	4783
2026-01-04 21:41:05.66	44.49	11.54	-48.7	-51.4	13.4	1.60e-05	0	53	0	274726912	60	4840
2026-01-04 21:41:08.62	45.00	11.66	-48.8	-51.7	13.1	1.52e-05	0	53	0	281018368	60	4984
2026-01-04 21:41:11.59	45.51	11.77	-49.0	-52.0	12.9	4.04e-05	0	53	0	286261248	60	5179
2026-01-04 21:41:14.57	46.03	11.89	-48.9	-51.7	13.1	5.11e-05	0	54	0	291504128	60	5016
2026-01-04 21:41:17.54	46.55	12.00	-48.7	-51.5	13.3	1.60e-05	0	53	0	297795584	60	4896
2026-01-04 21:41:20.51	47.07	12.11	-48.6	-51.3	13.6	8.30e-06	0	54	0	303038464	60	4792
2026-01-04 21:41:23.47	47.59	12.22	-48.6	-51.4	13.5	1.06e-05	0	53	0	308281344	60	4819
2026-01-04 21:41:26.45	48.13	12.32	-48.7	-51.6	13.2	1.75e-05	0	54	0	314572800	60	4957
2026-01-04 21:41:29.42	48.66	12.43	-48.6	-51.3	13.5	8.30e-06	0	54	0	319815680	60	4796
2026-01-04 21:41:32.40	49.20	12.53	-48.9	-51.9	12.9	2.51e-05	0	54	0	325058560	60	5132
2026-01-04 21:41:35.36	49.74	12.64	-49.2	-52.4	12.5	3.28e-05	0	54	0	331350016	60	5423
2026-01-04 21:41:38.33	50.28	12.74	-49.0	-52.0	12.9	5.03e-05	0	54	0	336592896	60	5186
2026-01-04 21:41:41.29	50.83	12.83	-49.0	-51.9	12.9	5.11e-05	0	54	0	341835776	60	5151
2026-01-04 21:41:44.26	51.38	12.93	-48.6	-51.4	13.5	1.06e-05	0	54	0	347078656	60	4833
2026-01-04 21:41:47.23	51.94	13.02	-48.0	-50.2	14.8	7.00e-07	0	54	0	353370112	58	4738
2026-01-04 21:41:50.20	52.50	13.12	-47.9	-50.0	14.9	0.00e+00	0	54	0	358612992	58	4618
2026-01-04 21:41:53.18	53.06	13.21	-47.6	-49.7	15.2	0.00e+00	0	54	0	363855872	58	4452
2026-01-04 21:41:56.15	53.63	13.30	-47.9	-50.1	14.9	7.00e-07	0	54	0	370147328	58	4652
2026-01-04 21:41:59.12	54.20	13.38	-48.0	-50.3	14.6	0.00e+00	0	54	0	375390208	58	4766
2026-01-04 21:42:02.09	54.77	13.46	-47.6	-49.5	15.4	0.00e+00	0	54	0	380633088	58	4387
2026-01-04 21:42:05.05	55.34	13.54	-47.7	-49.8	15.1	7.00e-07	0	54	0	386924544	58	4542
2026-01-04 21:42:08.02	55.92	13.62	-48.1	-50.5	14.4	7.00e-07	0	54	0	392167424	58	4879
2026-01-04 21:42:11.00	56.50	13.70	-48.1	-50.3	14.7	7.00e-07	0	54	0	397410304	58	4809
2026-01-04 21:42:13.95	57.08	13.77	-48.0	-50.2	14.8	0.00e+00	0	54	0	403701760	58	4708
2026-01-04 21:42:16.92	57.67	13.84	-48.6	-51.1	13.8	3.80e-06	0	55	0	408944640	58	5274
2026-01-04 21:42:19.89	58.26	13.91	-48.7	-51.2	13.8	3.80e-06	0	55	0	414187520	59	5031
2026-01-04 21:42:22.87	58.86	13.98	-48.6	-51.2	13.8	4.50e-06	0	55	0	419430400	59	4997
2026-01-04 21:42:25.83	59.45	14.04	-49.5	-53.0	11.9	2.10e-04	0	55	0	425721856	61	5505
2026-01-04 21:42:28.79	60.04	14.10	-49.4	-52.8	12.1	3.55e-04	0	55	0	430964736	61	5385
2026-01-04 21:42:31.75	60.64	14.16	-49.0	-51.9	13.0	8.39e-05	0	54	0	436207616	61	4861
2026-01-04 21:42:34.71	61.24	14.21	-49.5	-53.0	12.0	2.20e-04	0	55	0	442499072	60	5803
2026-01-04 21:42:37.68	61.85	14.27	-49.3	-52.5	12.5	1.90e-04	0	55	0	447741952	61	5214
2026-01-04 21:42:40.64	62.45	14.32	-48.5	-51.1	13.9	3.80e-06	0	55	0	452984832	59	4937
2026-01-04 21:42:43.60	63.06	14.36	-48.4	-50.7	14.3	7.00e-07	0	55	0	459276288	59	4737
2026-01-04 21:42:46.57	63.67	14.41	-47.8	-49.9	14.9	0.00e+00	0	55	0	464519168	58	4597
2026-01-04 21:42:49.53	64.27	14.45	-47.6	-49.5	15.5	0.00e+00	0	55	0	469762048	58	4374
2026-01-04 21:42:52.51	64.89	14.49	-47.9	-50.1	14.9	0.00e+00	0	55	0	475004928	58	4670
2026-01-04 21:42:55.47	65.50	14.52	-48.1	-50.3	14.5	0.00e+00	0	55	0	481296384	58	4806
2026-01-04 21:42:58.45	66.12	14.55	-48.0	-50.2	14.8	0.00e+00	0	55	0	486539264	58	4730
2026-01-04 21:43:01.42	66.74	14.58	-47.8	-50.0	15.1	0.00e+00	0	55	0	491782144	58	4603
2026-01-04 21:43:04.38	67.35	14.61	-48.3	-50.7	14.3	0.00e+00	0	55	0	498073600	58	4998
2026-01-04 21:43:07.35	67.97	14.63	-48.3	-50.5	14.4	1.50e-06	0	55	0	503316480	59	4648
2026-01-04 21:43:10.33	68.60	14.65	-48.0	-50.2	14.8	0.00e+00	0	55	0	508559360	59	4451
2026-01-04 21:43:13.30	69.22	14.67	-47.9	-50.0	15.0	0.00e+00	0	55	0	514850816	58	4650
2026-01-04 21:43:16.26	69.84	14.68	-48.3	-50.6	14.5	1.50e-06	0	55	0	520093696	58	4957
2026-01-04 21:43:19.22	70.46	14.69	-48.4	-50.8	14.1	1.50e-06	0	55	0	525336576	58	5079
2026-01-04 21:43:22.19	71.08	14.70	-47.9	-50.0	14.8	1.50e-06	0	55	0	531628032	58	4640
2026-01-04 21:43:25.15	71.70	14.70	-47.7	-49.7	15.4	0.00e+00	0	55	0	536870912	58	4462
2026-01-04 21:43:28.10	72.32	14.70	-48.1	-50.3	14.7	0.00e+00	0	55	0	542113792	58	4809
2026-01-04 21:43:31.07	72.94	14.70	-47.4	-49.3	15.8	0.00e+00	0	55	0	547356672	57	4511
2026-01-04 21:43:34.04	73.57	14.70	-47.2	-49.1	15.9	0.00e+00	0	55	0	553648128	57	4407
2026-01-04 21:43:37.01	74.19	14.69	-47.6	-49.6	15.3	0.00e+00	0	55	0	558891008	57	4695
2026-01-04 21:43:39.98	74.81	14.68	-47.3	-49.1	15.9	0.00e+00	0	56	0	564133888	57	4402
2026-01-04 21:43:42.95	75.43	14.66	-47.1	-48.8	16.2	0.00e+00	0	56	0	570425344	57	4268
2026-01-04 21:43:45.92	76.05	14.64	-47.5	-49.4	15.6	0.00e+00	0	56	0	575668224	57	4555
2026-01-04 21:43:48.87	76.67	14.62	-47.7	-49.8	15.3	7.00e-07	0	55	0	580911104	57	4761
2026-01-04 21:43:51.82	77.29	14.60	-47.7	-49.7	15.3	7.00e-07	0	56	0	587202560	57	4726
2026-01-04 21:43:54.79	77.91	14.57	-47.7	-49.8	15.2	0.00e+00	0	55	0	592445440	57	4767
2026-01-04 21:43:57.77	78.53	14.54	-47.6	-49.6	15.3	0.00e+00	0	56	0	597688320	57	4690
2026-01-04 21:44:00.74	79.14	14.51	-47.7	-49.7	15.2	0.00e+00	0	55	0	603979776	57	4721
2026-01-04 21:44:03.71	79.76	14.47	-47.6	-49.7	15.3	0.00e+00	0	55	0	609222656	57	4709
2026-01-04 21:44:06.68	80.37	14.44	-47.8	-49.9	15.1	0.00e+00	0	56	0	614465536	57	4843
2026-01-04 21:44:09.64	80.98	14.39	-47.5	-49.4	15.6	0.00e+00	0	56	0	619708416	57	4582
2026-01-04 21:44:12.62	81.59	14.35	-47.3	-49.1	15.8	0.00e+00	0	56	0	625999872	57	4433
2026-01-04 21:44:15.59	82.20	14.30	-47.4	-49.2	15.7	0.00e+00	0	56	0	631242752	57	4478
2026-01-04 21:44:18.55	82.80	14.25	-46.7	-48.4	16.6	0.00e+00	0	56	0	636485632	56	4303
2026-01-04 21:44:21.52	83.41	14.20	-47.0	-48.8	16.2	0.00e+00	0	56	0	642777088	56	4507
2026-01-04 21:44:24.49	84.01	14.14	-46.8	-48.5	16.4	0.00e+00	0	56	0	648019968	56	4351
2026-01-04 21:44:27.45	84.61	14.08	-47.0	-48.7	16.3	0.00e+00	0	56	0	653262848	56	4487
2026-01-04 21:44:30.42	85.21	14.02	-47.3	-49.2	15.7	0.00e+00	0	56	0	659554304	56	4744
2026-01-04 21:44:33.38	85.80	13.96	-47.3	-49.2	15.8	0.00e+00	0	56	0	664797184	56	4717
2026-01-04 21:44:36.35	86.39	13.89	-47.2	-49.1	15.8	0.00e+00	0	56	0	670040064	56	4677
2026-01-04 21:44:39.30	86.98	13.82	-47.2	-49.1	15.9	0.00e+00	0	56	0	675282944	56	4672
2026-01-04 21:44:42.28	87.57	13.75	-47.1	-48.9	16.1	0.00e+00	0	56	0	681574400	56	4560
2026-01-04 21:44:45.25	88.15	13.67	-46.7	-48.3	16.6	0.00e+00	0	56	0	686817280	56	4273
2026-01-04 21:44:48.22	88.73	13.60	-46.8	-48.4	16.6	0.00e+00	0	56	0	692060160	56	4297
2026-01-04 21:44:51.19	89.31	13.52	-46.9	-48.6	16.3	0.00e+00	0	56	0	698351616	56	4418
2026-01-04 21:44:54.15	89.89	13.43	-47.1	-48.9	16.2	0.00e+00	0	56	0	703594496	56	4547
2026-01-04 21:44:57.12	90.46	13.35	-47.0	-48.8	16.1	0.00e+00	0	56	0	708837376	56	4533
2026-01-04 21:45:00.09	91.03	13.26	-47.1	-48.9	16.1	0.00e+00	0	56	0	715128832	56	4553
2026-01-04 21:45:03.06	91.60	13.17	-46.9	-48.6	16.4	0.00e+00	0	56	0	720371712	56	4402
2026-01-04 21:45:06.02	92.16	13.08	-46.9	-48.7	16.3	0.00e+00	0	56	0	725614592	56	4442
2026-01-04 21:45:09.00	92.72	12.99	-46.9	-48.7	16.2	0.00e+00	0	56	0	731906048	56	4467
2026-01-04 21:45:11.97	93.27	12.90	-46.9	-48.6	16.4	0.00e+00	0	56	0	737148928	56	4414
2026-01-04 21:45:14.92	93.82	12.80	-47.2	-49.1	15.8	0.00e+00	0	56	0	742391808	56	4671
2026-01-04 21:45:17.89	94.37	12.70	-47.6	-49.5	15.4	0.00e+00	0	56	0	747634688	57	4640
2026-01-04 21:45:20.85	94.92	12.60	-48.0	-50.1	14.9	0.00e+00	0	56	0	753926144	57	4965
2026-01-04 21:45:23.82	95.46	12.50	-47.9	-50.0	14.9	7.00e-07	0	56	0	759169024	57	4906
2026-01-04 21:45:26.79	96.00	12.39	-47.9	-50.0	14.9	1.50e-06	0	56	0	764411904	57	4909
2026-01-04 21:45:29.75	96.53	12.28	-48.2	-50.5	14.4	7.00e-07	0	56	0	770703360	58	4923
2026-01-04 21:45:32.72	97.06	12.18	-48.4	-50.9	14.1	7.00e-07	0	56	0	775946240	59	4815
2026-01-04 21:45:35.70	97.59	12.06	-48.2	-50.6	14.4	7.00e-07	0	56	0	781189120	59	4655
2026-01-04 21:45:38.66	98.11	11.95	-48.5	-51.0	13.9	4.50e-06	0	56	0	787480576	59	4925
2026-01-04 21:45:41.64	98.63	11.84	-48.5	-51.1	13.8	9.10e-06	0	56	0	792723456	59	4948
2026-01-04 21:45:44.60	99.14	11.72	-48.4	-50.9	14.0	5.30e-06	0	56	0	797966336	59	4844
2026-01-04 21:45:47.58	99.66	11.61	-48.5	-51.1	13.9	4.50e-06	0	56	0	803209216	59	4929
2026-01-04 21:45:50.54	100.16	11.49	-48.8	-51.5	13.4	2.05e-05	0	56	0	809500672	59	5201
2026-01-04 21:45:53.52	100.67	11.37	-48.8	-51.5	13.4	1.83e-05	0	56	0	814743552	59	5177
2026-01-04 21:45:56.49	101.17	11.25	-48.9	-51.7	13.2	2.67e-05	0	56	0	821035008	59	5301
2026-01-04 21:45:59.47	101.66	11.13	-49.0	-51.9	13.0	4.42e-05	0	56	0	826277888	59	5444
2026-01-04 21:46:02.44	102.16	11.00	-48.4	-50.9	14.0	5.30e-06	0	56	0	831520768	59	4854
2026-01-04 21:46:05.41	102.64	10.88	-48.4	-50.9	14.0	2.20e-06	0	56	0	836763648	59	4851
2026-01-04 21:46:08.38	103.13	10.75	-48.5	-51.1	13.8	4.50e-06	0	56	0	843055104	59	4953
2026-01-04 21:46:11.32	103.60	10.63	-48.7	-51.3	13.6	1.37e-05	0	56	0	848297984	59	5081
2026-01-04 21:46:14.29	104.08	10.50	-48.2	-50.6	14.2	0.00e+00	0	56	0	853540864	59	4700
2026-01-04 21:46:17.27	104.55	10.37	-48.7	-51.4	13.5	8.30e-06	0	56	0	859832320	59	5134
2026-01-04 21:46:20.24	105.02	10.24	-48.9	-51.8	13.0	3.35e-05	0	56	0	865075200	59	5386
2026-01-04 21:46:23.22	105.48	10.11	-49.1	-52.2	12.6	8.69e-05	0	56	0	870318080	60	5340
2026-01-04 21:46:26.20	105.94	9.98	-48.8	-51.8	13.0	4.34e-05	0	56	0	876609536	60	5076
2026-01-04 21:46:29.16	106.40	9.84	-48.5	-51.1	13.8	3.00e-06	0	56	0	881852416	59	4928
2026-01-04 21:46:32.13	106.85	9.71	-48.3	-50.7	14.1	2.20e-06	0	56	0	887095296	59	4740
2026-01-04 21:46:35.10	107.30	9.58	-48.2	-50.5	14.2	0.00e+00	0	56	0	893386752	59	4650
2026-01-04 21:46:38.07	107.74	9.44	-48.0	-50.4	14.4	7.00e-07	0	56	0	898629632	59	4567
2026-01-04 21:46:41.03	108.18	9.31	-48.0	-50.4	14.5	0.00e+00	0	56	0	903872512	59	4549
2026-01-04 21:46:44.00	108.62	9.17	-48.2	-50.6	14.2	1.50e-06	0	56	0	909115392	59	4688
2026-01-04 21:46:46.98	109.05	9.03	-48.2	-50.7	14.2	0.00e+00	0	56	0	915406848	59	4711
2026-01-04 21:46:49.94	109.48	8.89	-48.0	-50.2	14.6	7.00e-07	0	56	0	920649728	59	4493
2026-01-04 21:46:52.92	109.90	8.75	-48.0	-50.3	14.4	0.00e+00	0	56	0	925892608	58	4814
2026-01-04 21:46:55.88	110.32	8.62	-48.2	-50.6	14.2	3.00e-06	0	56	0	932184064	58	4953
2026-01-04 21:46:58.85	110.74	8.48	-48.2	-50.6	14.1	2.20e-06	0	56	0	937426944	58	4979
2026-01-04 21:47:01.82	111.15	8.34	-47.9	-50.1	14.6	7.00e-07	0	57	0	942669824	58	4704
2026-01-04 21:47:04.78	111.56	8.20	-47.7	-49.9	14.8	0.00e+00	0	56	0	948961280	58	4598
2026-01-04 21:47:07.75	111.96	8.06	-47.8	-50.2	14.6	0.00e+00	0	56	0	954204160	58	4714
2026-01-04 21:47:10.72	112.36	7.91	-48.1	-50.5	14.2	7.00e-07	0	56	0	959447040	58	4902
2026-01-04 21:47:13.69	112.76	7.77	-48.3	-50.8	13.9	1.50e-06	0	57	0	965738496	58	5067
2026-01-04 21:47:16.67	113.15	7.63	-48.1	-50.5	14.2	1.50e-06	0	57	0	970981376	58	4905
2026-01-04 21:47:19.64	113.54	7.49	-48.3	-50.8	13.9	2.20e-06	0	56	0	976224256	58	5090
2026-01-04 21:47:22.61	113.93	7.34	-48.3	-50.9	13.8	8.30e-06	0	57	0	981467136	58	5129
2026-01-04 21:47:25.58	114.31	7.20	-48.6	-51.3	13.4	1.37e-05	0	56	0	987758592	59	5086
2026-01-04 21:47:28.55	114.69	7.06	-48.4	-51.1	13.6	6.80e-06	0	56	0	993001472	59	4949
2026-01-04 21:47:31.52	115.07	6.91	-48.6	-51.5	13.2	2.67e-05	0	56	0	998244352	59	5177
2026-01-04 21:47:34.49	115.44	6.77	-48.6	-51.3	13.3	6.10e-06	0	57	0	1004535808	59	5090
2026-01-04 21:47:37.47	115.81	6.63	-48.7	-51.5	13.0	4.04e-05	0	57	0	1009778688	59	5212
2026-01-04 21:47:40.44	116.18	6.48	-48.3	-50.9	13.7	9.10e-06	0	56	0	1015021568	59	4831
2026-01-04 21:47:43.41	116.54	6.34	-48.4	-51.0	13.5	8.30e-06	0	57	0	1021313024	59	4917
2026-01-04 21:47:46.38	116.90	6.19	-48.6	-51.3	13.3	1.44e-05	0	56	0	1026555904	59	5064
2026-01-04 21:47:49.34	117.25	6.05	-48.8	-51.7	12.8	4.50e-05	0	57	0	1031798784	59	5323
2026-01-04 21:47:52.31	117.60	5.90	-48.8	-51.8	12.7	6.25e-05	0	57	0	1038090240	59	5387
2026-01-04 21:47:55.28	117.95	5.76	-48.8	-51.8	12.7	1.39e-04	0	57	0	1043333120	59	5383
2026-01-04 21:47:58.24	118.29	5.61	-49.0	-52.2	12.3	9.99e-05	0	57	0	1048576000	59	5615
2026-01-04 21:48:01.21	118.63	5.47	-49.0	-52.3	12.2	1.30e-04	0	56	0	1053818880	60	5369
2026-01-04 21:48:04.19	118.97	5.32	-49.0	-52.4	12.0	3.56e-04	0	57	0	1060110336	60	5455
2026-01-04 21:48:07.16	119.31	5.18	-49.1	-52.6	11.8	5.31e-04	0	57	0	1065353216	60	5538
2026-01-04 21:48:10.13	119.64	5.03	-51.4	-62.1	4.4	9.79e-04	0	57	0	1070596096	64	13195
2026-01-04 21:48:13.09	119.97	4.89	-52.1	-66.0	3.8	1.49e+00	0	57	104	1070596096	66	18509
2026-01-04 21:48:16.06	120.29	4.75	-52.3	-66.3	3.8	1.49e+00	0	57	104	1070596096	66	18952
2026-01-04 21:48:19.01	120.62	4.60	-52.5	-66.4	3.8	1.49e+00	0	57	104	1070596096	66	19208
2026-01-04 21:48:21.97	120.93	4.46	-52.5	-66.4	3.8	1.49e+00	0	57	104	1070596096	67	18203
2026-01-04 21:48:24.93	121.25	4.31	-52.5	-66.5	3.8	1.49e+00	0	57	104	1070596096	67	18365
2026-01-04 21:48:27.89	121.56	4.17	-52.6	-66.5	3.8	1.49e+00	0	57	104	1070596096	67	18458
2026-01-04 21:48:30.86	121.87	4.02	-52.6	-66.5	3.8	1.49e+00	0	57	104	1070596096	67	18481
2026-01-04 21:48:33.82	122.18	3.88	-52.6	-66.6	3.8	1.49e+00	0	57	104	1070596096	67	18528
2026-01-04 21:48:36.80	122.49	3.74	-52.7	-66.6	3.8	1.49e+00	0	57	104	1070596096	67	18556
2026-01-04 21:48:39.76	122.79	3.59	-52.6	-66.5	3.8	1.49e+00	0	57	104	1070596096	67	18499
2026-01-04 21:48:42.73	123.09	3.45	-52.6	-66.6	3.8	1.49e+00	0	57	104	1070596096	67	18554
2026-01-04 21:48:45.70	123.38	3.30	-52.7	-66.6	3.8	1.49e+00	0	57	104	1070596096	67	18524
2026-01-04 21:48:48.66	123.68	3.16	-52.7	-66.5	3.8	1.49e+00	0	57	104	1070596096	67	18494
2026-01-04 21:48:51.63	123.97	3.02	-52.7	-66.6	3.8	1.49e+00	0	57	104	1070596096	67	18528
2026-01-04 21:48:54.60	124.26	2.87	-52.7	-66.5	3.8	1.49e+00	0	57	104	1070596096	67	18509

#Closed at: 2026-01-04 21:48:54
#Recorded file [1070 MB]: D:/Data/31026_260105_004810.dat