passes_logs/2026/01/04/R3.0SM8_Murmansk_STILSPACE/R3.0SM8_Murmansk_STILSPACE__20260104_032904_AQUA_rec.log

#Pass ID: 20260104_032904_AQUA
#Satellite: AQUA
#Configuration: AQUA
#almurnet v.1.7.20240730
#Start time: 2026-01-04 03:31:25

#Version: 2.2.20231116
#Station: R3.0SM8_Murmansk_STILSPACE
#Location: 33.092731 lon 68.902999 lat
#TLE: 1 27424U 02022A   25365.92641127  .00002078  00000+0  42628-3 0  9999
#TLE: 2 27424  98.4058 327.1196 0001962  94.7781 340.6230 14.61783896258835

#Time	Az	El	Level	Level2	SNR	BER	BlckErr	Temp	State	Recorded	gain1	gain2
2026-01-04 03:31:25.66	19.39	14.86	-52.4	-66.3	3.8	1.49e+00	0	56	0	0	67	18065
2026-01-04 03:31:28.84	19.10	15.21	-54.4	-74.3	3.8	7.45e-01	0	57	104	0	71	36888
2026-01-04 03:31:31.66	18.84	15.52	-54.4	-74.4	3.8	7.48e-01	0	57	104	0	71	37024
2026-01-04 03:31:34.77	18.55	15.87	-54.4	-74.3	3.8	7.44e-01	0	57	104	0	71	36915
2026-01-04 03:31:37.59	18.28	16.18	-54.4	-74.3	3.8	7.46e-01	0	57	104	0	71	36773
2026-01-04 03:31:40.69	17.97	16.54	-54.3	-74.3	3.8	7.48e-01	0	57	104	0	71	36664
2026-01-04 03:31:43.52	17.69	16.87	-54.3	-74.2	3.8	7.45e-01	0	57	104	0	71	36384
2026-01-04 03:31:46.64	17.36	17.24	-54.2	-74.1	3.8	7.44e-01	0	57	104	0	71	35982
2026-01-04 03:31:49.47	17.06	17.57	-53.8	-73.6	3.8	7.47e-01	0	57	104	0	69	37991
2026-01-04 03:31:52.58	16.72	17.95	-54.0	-73.9	3.8	7.46e-01	0	57	104	0	70	37300
2026-01-04 03:31:55.41	16.41	18.30	-54.1	-74.0	3.8	7.48e-01	0	57	104	0	70	37386
2026-01-04 03:31:58.53	16.05	18.68	-54.0	-73.9	3.8	7.46e-01	0	57	104	0	70	37325
2026-01-04 03:32:01.37	15.71	19.04	-54.0	-73.9	3.8	7.44e-01	0	57	104	0	70	37095
2026-01-04 03:32:04.48	15.33	19.44	-54.0	-73.7	3.8	7.47e-01	0	57	104	0	70	36238
2026-01-04 03:32:07.30	14.98	19.80	-54.0	-73.7	3.8	7.45e-01	0	57	104	0	70	36209
2026-01-04 03:32:10.41	14.58	20.21	-54.0	-73.8	3.8	7.44e-01	0	57	104	0	70	36688
2026-01-04 03:32:13.24	14.21	20.59	-54.0	-73.8	3.8	7.45e-01	0	57	104	0	70	36673
2026-01-04 03:32:16.34	13.79	21.00	-53.4	-69.9	3.8	7.44e-01	0	57	104	0	70	23509
2026-01-04 03:32:19.17	13.39	21.39	-51.2	-64.1	3.8	7.45e-01	0	57	104	0	65	16035
2026-01-04 03:32:22.28	12.95	21.82	-50.8	-63.6	3.8	7.40e-01	0	57	104	0	64	15989
2026-01-04 03:32:25.12	12.53	22.22	-51.9	-65.8	3.9	7.44e-01	0	57	104	0	66	18408
2026-01-04 03:32:28.23	12.06	22.66	-52.6	-67.8	3.8	7.43e-01	0	57	104	0	67	21835
2026-01-04 03:32:31.04	11.62	23.07	-52.7	-69.0	3.8	7.43e-01	0	57	104	0	67	25076
2026-01-04 03:32:34.14	11.12	23.52	-52.5	-69.4	3.8	7.44e-01	0	57	104	0	67	26177
2026-01-04 03:32:36.98	10.65	23.94	-51.8	-67.8	3.8	7.45e-01	0	57	104	0	67	21857
2026-01-04 03:32:40.09	10.11	24.41	-51.3	-67.1	3.8	7.45e-01	0	57	104	0	66	21459
2026-01-04 03:32:42.91	9.62	24.84	-51.8	-68.8	3.8	7.43e-01	0	57	104	0	65	27595
2026-01-04 03:32:46.01	9.05	25.31	-51.7	-67.3	3.8	7.44e-01	0	57	104	0	66	21924
2026-01-04 03:32:48.84	8.52	25.76	-51.3	-65.2	3.8	7.43e-01	0	57	104	0	66	17261
2026-01-04 03:32:51.96	7.92	26.25	-49.9	-62.1	3.8	7.48e-01	0	57	104	0	63	14219
2026-01-04 03:32:54.78	7.35	26.70	-48.9	-60.6	3.8	7.45e-01	0	57	104	0	61	13528
2026-01-04 03:32:57.90	6.71	27.21	-48.3	-59.8	3.8	7.46e-01	0	57	104	0	60	12976
2026-01-04 03:33:00.72	6.11	27.67	-48.7	-60.3	3.8	7.46e-01	0	57	104	0	60	13750
2026-01-04 03:33:03.83	5.43	28.18	-48.9	-60.6	3.8	7.48e-01	0	57	104	0	60	14226
2026-01-04 03:33:06.65	4.79	28.65	-49.0	-60.7	3.8	7.43e-01	0	57	104	0	60	14515
2026-01-04 03:33:09.75	4.06	29.18	-50.0	-62.1	3.8	7.43e-01	0	57	104	0	62	15119
2026-01-04 03:33:12.59	3.37	29.66	-51.2	-64.2	3.8	7.45e-01	0	57	104	0	64	17243
2026-01-04 03:33:15.70	2.59	30.20	-52.0	-65.8	3.8	7.45e-01	0	57	104	0	66	18426
2026-01-04 03:33:18.51	1.87	30.69	-52.5	-66.8	3.8	7.44e-01	0	57	104	0	67	19453
2026-01-04 03:33:21.60	1.04	31.23	-53.2	-69.0	3.8	7.44e-01	0	57	104	0	68	23648
2026-01-04 03:33:24.42	0.26	31.72	-52.9	-67.9	3.8	7.44e-01	0	57	104	0	68	20950
2026-01-04 03:33:27.53	359.37	32.28	-52.6	-67.0	3.8	7.45e-01	0	57	104	0	68	18794
2026-01-04 03:33:30.34	358.53	32.78	-51.4	-64.5	3.8	7.42e-01	0	57	104	0	66	15824
2026-01-04 03:33:33.43	357.59	33.33	-49.7	-61.5	3.8	7.46e-01	0	57	104	0	63	13385
2026-01-04 03:33:36.26	356.69	33.84	-49.5	-61.3	3.8	7.47e-01	0	57	104	0	62	13772
2026-01-04 03:33:39.37	355.67	34.40	-50.0	-62.1	3.8	7.44e-01	0	57	104	0	62	15168
2026-01-04 03:33:42.21	354.71	34.91	-49.4	-61.2	3.8	7.46e-01	0	57	104	0	62	13664
2026-01-04 03:33:45.32	353.62	35.47	-48.7	-60.3	3.8	7.47e-01	0	57	104	0	61	13036
2026-01-04 03:33:48.14	352.59	35.97	-48.9	-60.4	3.8	7.42e-01	0	57	104	0	61	13250
2026-01-04 03:33:51.25	351.43	36.53	-49.4	-61.2	3.8	7.44e-01	0	57	104	0	61	14381
2026-01-04 03:33:54.07	350.33	37.03	-50.6	-62.9	3.8	7.49e-01	0	57	104	0	63	15680
2026-01-04 03:33:57.19	349.08	37.58	-50.7	-63.1	3.8	7.47e-01	0	57	104	0	63	16049
2026-01-04 03:34:00.03	347.90	38.07	-51.6	-64.8	3.8	7.46e-01	0	57	104	0	65	17451
2026-01-04 03:34:03.14	346.57	38.60	-52.6	-67.0	3.8	7.45e-01	0	57	104	0	67	20059
2026-01-04 03:34:05.96	345.32	39.08	-51.6	-64.7	3.8	7.46e-01	0	57	104	0	66	16260
2026-01-04 03:34:09.08	343.90	39.59	-52.2	-66.1	3.8	7.48e-01	0	57	104	0	66	19024
2026-01-04 03:34:11.90	342.57	40.05	-53.2	-68.7	3.8	7.48e-01	0	57	104	0	68	22813
2026-01-04 03:34:15.01	341.07	40.54	-52.8	-67.4	3.8	7.42e-01	0	57	104	0	68	19826
2026-01-04 03:34:17.84	339.65	40.97	-52.8	-67.4	3.8	7.42e-01	0	57	104	0	68	19768
2026-01-04 03:34:20.94	338.06	41.42	-51.2	-64.0	3.8	7.46e-01	0	57	104	0	66	15046
2026-01-04 03:34:23.76	336.58	41.82	-50.2	-62.4	3.8	7.45e-01	0	57	104	0	64	14038
2026-01-04 03:34:26.87	334.89	42.23	-50.1	-52.7	20.4	6.01e-01	0	57	0	3670016	63	4859
2026-01-04 03:34:29.68	333.34	42.59	-49.7	-52.1	21.1	6.01e-01	0	57	0	8912896	63	4514
2026-01-04 03:34:32.81	331.56	42.96	-49.6	-52.0	21.2	6.03e-01	0	57	0	14680064	62	4717
2026-01-04 03:34:35.63	329.92	43.27	-49.6	-51.8	21.3	6.00e-01	0	57	0	20447232	62	4647
2026-01-04 03:34:38.75	328.08	43.59	-49.0	-51.1	22.0	5.99e-01	0	57	0	26214400	61	4504
2026-01-04 03:34:41.58	326.37	43.85	-48.8	-50.7	22.4	6.02e-01	0	57	0	31457280	61	4329
2026-01-04 03:34:44.69	324.47	44.11	-49.0	-51.1	22.1	6.02e-01	0	57	0	37224448	61	4499
2026-01-04 03:34:47.52	322.71	44.31	-49.3	-51.5	21.6	6.00e-01	0	57	0	42467328	61	4756
2026-01-04 03:34:50.62	320.75	44.50	-49.1	-51.2	22.0	6.03e-01	0	57	0	48234496	61	4571
2026-01-04 03:34:53.46	318.95	44.64	-49.0	-51.1	22.0	6.00e-01	0	57	0	53477376	61	4496
2026-01-04 03:34:56.55	316.96	44.76	-48.8	-50.7	22.4	6.03e-01	0	57	0	59244544	60	4574
2026-01-04 03:34:59.37	315.14	44.83	-48.6	-50.5	22.5	6.00e-01	0	57	0	65011712	60	4475
2026-01-04 03:35:02.48	313.12	44.88	-48.9	-50.9	22.2	6.01e-01	0	57	0	70778880	60	4672
2026-01-04 03:35:05.29	311.30	44.89	-49.0	-51.1	22.1	6.01e-01	0	57	0	76021760	60	4766
2026-01-04 03:35:08.40	309.28	44.86	-48.6	-50.5	22.6	6.00e-01	0	57	0	81788928	60	4475
2026-01-04 03:35:11.23	307.45	44.80	-48.5	-50.4	22.7	5.99e-01	0	57	0	87031808	60	4416
2026-01-04 03:35:14.34	305.44	44.70	-48.8	-50.7	22.4	6.00e-01	0	57	0	92798976	60	4577
2026-01-04 03:35:17.16	303.64	44.57	-49.0	-51.0	22.1	6.01e-01	0	57	0	98041856	60	4739
2026-01-04 03:35:20.26	301.68	44.40	-48.5	-50.4	22.7	6.01e-01	0	57	0	103809024	60	4403
2026-01-04 03:35:23.08	299.91	44.21	-48.6	-50.5	22.7	5.99e-01	0	57	0	109051904	60	4462
2026-01-04 03:35:26.20	297.99	43.97	-49.1	-51.2	22.0	5.99e-01	0	57	0	114819072	60	4835
2026-01-04 03:35:29.02	296.27	43.72	-49.2	-51.4	21.7	6.00e-01	0	57	0	120586240	60	4954
2026-01-04 03:35:32.13	294.41	43.42	-48.8	-50.7	22.4	5.99e-01	0	57	0	126353408	60	4593
2026-01-04 03:35:34.96	292.75	43.11	-49.5	-51.8	21.3	5.99e-01	0	57	0	131596288	61	4897
2026-01-04 03:35:38.07	290.97	42.76	-49.2	-51.4	21.7	6.00e-01	0	57	0	137363456	60	4967
2026-01-04 03:35:40.89	289.39	42.41	-48.3	-50.1	23.0	6.00e-01	0	57	0	142606336	60	4278
2026-01-04 03:35:43.99	287.69	42.00	-48.4	-50.1	22.5	6.01e-01	0	57	0	148373504	59	4515
2026-01-04 03:35:46.82	286.17	41.61	-48.7	-50.5	22.7	6.01e-01	0	57	0	153616384	59	4727
2026-01-04 03:35:49.93	284.56	41.16	-49.1	-51.2	21.0	6.00e-01	0	57	0	159383552	61	4581
2026-01-04 03:35:52.77	283.12	40.74	-48.4	-50.2	22.2	6.00e-01	0	57	0	165150720	60	4315
2026-01-04 03:35:55.87	281.59	40.26	-49.2	-51.3	21.7	6.01e-01	0	57	0	170917888	60	4875
2026-01-04 03:35:58.70	280.24	39.80	-49.4	-51.5	21.6	5.99e-01	0	57	0	176160768	62	4491
2026-01-04 03:36:01.80	278.80	39.30	-49.9	-52.3	20.8	6.01e-01	0	57	0	181927936	62	4902
2026-01-04 03:36:04.64	277.53	38.82	-49.9	-52.3	20.8	6.01e-01	0	57	0	187170816	63	4631
2026-01-04 03:36:07.75	276.17	38.29	-50.2	-52.9	20.0	6.00e-01	0	57	0	192937984	64	4661
2026-01-04 03:36:10.57	274.99	37.80	-49.4	-51.7	21.4	6.01e-01	0	57	0	198180864	62	4559
2026-01-04 03:36:13.68	273.72	37.26	-49.2	-51.3	21.7	5.99e-01	0	57	0	203948032	62	4370
2026-01-04 03:36:16.51	272.60	36.76	-49.2	-51.4	21.7	6.01e-01	0	57	0	209190912	61	4659
2026-01-04 03:36:19.62	271.41	36.20	-49.7	-52.0	21.0	6.02e-01	0	57	0	215482368	62	4758
2026-01-04 03:36:22.45	270.37	35.69	-49.3	-51.4	21.7	6.02e-01	0	57	0	220725248	61	4700
2026-01-04 03:36:25.58	269.25	35.13	-49.0	-51.0	22.1	6.03e-01	0	57	0	226492416	61	4460
2026-01-04 03:36:28.41	268.27	34.62	-48.9	-50.9	22.2	5.97e-01	0	57	0	231735296	61	4440
2026-01-04 03:36:31.51	267.24	34.06	-48.5	-50.3	22.8	6.02e-01	0	57	0	237502464	60	4362
2026-01-04 03:36:34.33	266.33	33.55	-48.7	-50.7	22.4	6.01e-01	0	57	0	242745344	60	4554
2026-01-04 03:36:37.44	265.36	32.99	-48.7	-50.7	22.4	6.03e-01	0	57	0	248512512	60	4559
2026-01-04 03:36:40.27	264.50	32.49	-48.5	-50.3	23.1	6.03e-01	0	57	0	253755392	59	4620
2026-01-04 03:36:43.39	263.60	31.93	-48.4	-50.2	22.8	6.02e-01	0	57	0	259522560	60	4307
2026-01-04 03:36:46.22	262.80	31.43	-48.9	-50.9	22.6	6.00e-01	0	57	0	265289728	59	4929
2026-01-04 03:36:49.33	261.95	30.88	-49.2	-51.3	21.7	6.00e-01	0	57	0	271056896	60	4905
2026-01-04 03:36:52.15	261.21	30.39	-48.7	-50.7	22.3	6.01e-01	0	57	0	276299776	61	4293
2026-01-04 03:36:55.25	260.42	29.85	-48.7	-50.6	22.4	6.01e-01	0	57	0	282066944	60	4524
2026-01-04 03:36:58.09	259.72	29.36	-48.4	-50.2	22.8	6.02e-01	0	57	0	287309824	60	4330
2026-01-04 03:37:01.20	258.98	28.83	-48.3	-50.2	22.8	6.01e-01	0	57	0	293076992	60	4293
2026-01-04 03:37:04.04	258.32	28.35	-48.5	-50.5	22.6	5.99e-01	0	57	0	298319872	60	4442
2026-01-04 03:37:07.15	257.63	27.83	-48.5	-50.3	23.0	5.99e-01	0	57	0	304087040	59	4609
2026-01-04 03:37:09.98	257.02	27.37	-48.7	-50.5	22.8	6.01e-01	0	57	0	309854208	59	4751
2026-01-04 03:37:13.08	256.37	26.86	-48.7	-50.6	22.4	6.01e-01	0	57	0	315621376	60	4540
2026-01-04 03:37:15.92	255.79	26.40	-49.1	-51.3	21.7	6.01e-01	0	57	0	320864256	60	4912
2026-01-04 03:37:19.03	255.18	25.91	-48.7	-50.6	22.4	6.00e-01	0	57	0	326631424	60	4524
2026-01-04 03:37:21.86	254.64	25.46	-48.8	-50.8	22.2	6.00e-01	0	57	0	331874304	60	4639
2026-01-04 03:37:24.97	254.06	24.98	-48.3	-50.1	22.8	6.01e-01	0	57	0	337641472	60	4284
2026-01-04 03:37:27.79	253.56	24.55	-48.5	-50.4	22.6	6.01e-01	0	57	0	342884352	60	4412
2026-01-04 03:37:30.89	253.02	24.08	-48.6	-50.4	22.9	5.99e-01	0	57	0	348651520	59	4664
2026-01-04 03:37:33.72	252.54	23.65	-48.7	-50.6	22.7	6.03e-01	0	57	0	354418688	59	4777
2026-01-04 03:37:36.82	252.04	23.20	-48.7	-50.6	22.6	6.00e-01	0	57	0	360185856	59	4790
2026-01-04 03:37:39.66	251.58	22.78	-48.5	-50.3	22.9	6.01e-01	0	57	0	365428736	59	4636
2026-01-04 03:37:42.76	251.11	22.34	-48.8	-50.7	22.5	5.99e-01	0	57	0	371195904	59	4868
2026-01-04 03:37:45.59	250.68	21.94	-48.9	-50.8	22.5	6.02e-01	0	57	0	376438784	59	4912
2026-01-04 03:37:48.70	250.23	21.50	-48.6	-50.5	22.4	6.01e-01	0	57	0	382205952	60	4460
2026-01-04 03:37:51.54	249.83	21.11	-48.6	-50.6	22.3	6.01e-01	0	57	0	387448832	60	4525
2026-01-04 03:37:54.65	249.40	20.69	-48.6	-50.5	22.3	6.02e-01	0	57	0	393216000	60	4486
2026-01-04 03:37:57.48	249.02	20.31	-48.3	-50.2	22.7	6.02e-01	0	57	0	398458880	60	4325
2026-01-04 03:38:00.58	248.62	19.90	-48.7	-50.7	22.2	6.01e-01	0	57	0	404750336	60	4573
2026-01-04 03:38:03.40	248.26	19.53	-48.5	-50.4	22.5	6.00e-01	0	57	0	409993216	60	4426
2026-01-04 03:38:06.52	247.87	19.13	-48.5	-50.4	22.4	6.01e-01	0	57	0	415760384	60	4429
2026-01-04 03:38:09.34	247.54	18.77	-48.3	-50.2	22.6	6.00e-01	0	57	0	421003264	60	4326
2026-01-04 03:38:12.46	247.17	18.38	-48.6	-50.6	22.3	6.00e-01	0	57	0	426770432	60	4540
2026-01-04 03:38:15.29	246.85	18.03	-48.5	-50.5	22.4	6.02e-01	0	57	0	432013312	60	4451
2026-01-04 03:38:18.40	246.50	17.66	-48.7	-50.6	22.2	5.99e-01	0	57	0	437780480	60	4537
2026-01-04 03:38:21.21	246.20	17.32	-48.8	-50.9	21.9	6.00e-01	0	57	0	443023360	60	4666
2026-01-04 03:38:24.32	245.87	16.95	-49.0	-51.2	21.7	6.00e-01	0	57	0	448790528	60	4822
2026-01-04 03:38:27.15	245.58	16.62	-48.5	-50.5	22.3	6.01e-01	0	56	0	454557696	60	4454
2026-01-04 03:38:30.25	245.27	16.26	-48.4	-50.3	22.5	6.00e-01	0	57	0	460324864	60	4354
2026-01-04 03:38:33.06	245.00	15.94	-48.4	-50.3	22.4	6.02e-01	0	57	0	465567744	60	4388
2026-01-04 03:38:36.18	244.70	15.59	-48.5	-50.5	22.2	6.00e-01	0	57	0	471334912	60	4477
2026-01-04 03:38:39.01	244.44	15.27	-48.8	-50.9	21.9	6.02e-01	0	56	0	476577792	60	4659
2026-01-04 03:38:42.11	244.15	14.93	-48.9	-51.1	21.7	6.02e-01	0	57	0	482344960	60	4776
2026-01-04 03:38:44.94	243.90	14.63	-48.6	-50.6	22.1	6.03e-01	0	56	0	487587840	60	4544
2026-01-04 03:38:48.05	243.63	14.30	-48.4	-50.4	22.3	6.00e-01	0	57	0	493355008	60	4417
2026-01-04 03:38:50.88	243.39	14.00	-48.3	-50.3	22.4	6.04e-01	0	57	0	498597888	60	4345
2026-01-04 03:38:54.00	243.14	13.67	-48.6	-50.6	22.1	6.01e-01	0	57	0	504889344	60	4509
2026-01-04 03:38:56.83	242.91	13.38	-48.5	-50.6	22.1	6.00e-01	0	56	0	510132224	60	4502
2026-01-04 03:38:59.94	242.66	13.07	-48.5	-50.6	22.1	6.00e-01	0	56	0	515899392	60	4501
2026-01-04 03:39:02.77	242.44	12.78	-48.6	-50.7	22.0	5.99e-01	0	56	0	521142272	60	4548
2026-01-04 03:39:05.87	242.21	12.47	-48.5	-50.5	22.1	6.00e-01	0	56	0	526909440	60	4467
2026-01-04 03:39:08.69	242.00	12.20	-48.6	-50.6	22.0	6.02e-01	0	56	0	532152320	60	4533
2026-01-04 03:39:11.78	241.78	11.90	-48.5	-50.6	22.0	6.02e-01	0	57	0	537919488	60	4525
2026-01-04 03:39:14.60	241.58	11.63	-48.6	-50.7	21.8	6.01e-01	0	56	0	543162368	60	4578
2026-01-04 03:39:17.71	241.36	11.33	-48.7	-50.9	21.7	5.99e-01	0	57	0	548929536	60	4676
2026-01-04 03:39:20.53	241.17	11.07	-48.9	-51.2	21.4	6.01e-01	0	57	0	554172416	60	4822
2026-01-04 03:39:23.63	240.97	10.78	-48.8	-51.1	21.4	6.01e-01	0	56	0	560463872	60	4771
2026-01-04 03:39:26.46	240.78	10.52	-49.0	-51.3	21.2	6.00e-01	0	57	0	565706752	60	4910
2026-01-04 03:39:29.55	240.59	10.24	-49.1	-51.6	20.9	6.02e-01	0	56	0	571473920	60	5049
2026-01-04 03:39:32.38	240.41	9.99	-49.0	-51.3	21.1	6.00e-01	0	56	0	576716800	60	4910
2026-01-04 03:39:35.48	240.22	9.71	-49.1	-51.6	20.8	6.01e-01	0	57	0	582483968	60	5070
2026-01-04 03:39:38.32	240.05	9.47	-49.0	-51.5	20.9	6.01e-01	0	57	0	587726848	60	4992
2026-01-04 03:39:41.43	239.87	9.20	-49.3	-51.9	20.4	6.00e-01	0	57	0	593494016	60	5273
2026-01-04 03:39:44.25	239.71	8.95	-49.3	-51.9	20.4	6.00e-01	0	56	0	598736896	60	5258
2026-01-04 03:39:47.35	239.53	8.69	-49.4	-52.0	20.2	6.01e-01	0	56	0	604504064	61	5036
2026-01-04 03:39:50.17	239.38	8.45	-49.6	-52.3	19.9	6.00e-01	0	56	0	610271232	61	5212
2026-01-04 03:39:53.28	239.21	8.19	-49.7	-52.6	19.6	6.00e-01	0	57	0	616038400	61	5346
2026-01-04 03:39:56.11	239.06	7.96	-49.8	-52.8	19.4	6.02e-01	0	57	0	621281280	62	5211
2026-01-04 03:39:59.22	238.90	7.71	-50.0	-53.2	18.9	6.03e-01	0	57	0	627048448	62	5458
2026-01-04 03:40:02.04	238.75	7.48	-49.7	-52.8	19.3	6.00e-01	0	57	0	632291328	62	5180
2026-01-04 03:40:05.14	238.60	7.23	-49.7	-52.7	19.3	6.00e-01	0	57	0	638058496	62	5149
2026-01-04 03:40:07.97	238.46	7.01	-49.5	-52.5	19.5	6.02e-01	0	57	0	643301376	62	4996
2026-01-04 03:40:11.08	238.31	6.76	-49.6	-52.7	19.2	6.02e-01	0	56	0	649068544	62	5119
2026-01-04 03:40:13.91	238.17	6.54	-49.7	-52.8	19.1	6.00e-01	0	56	0	654311424	62	5185
2026-01-04 03:40:17.01	238.03	6.30	-49.7	-53.0	18.9	5.98e-01	0	56	0	660602880	62	5280
2026-01-04 03:40:19.84	237.90	6.09	-49.8	-53.1	18.7	6.01e-01	0	57	0	665845760	62	5356
2026-01-04 03:40:22.95	237.76	5.85	-50.0	-53.6	18.1	6.00e-01	0	56	0	671612928	62	5705
2026-01-04 03:40:25.79	237.64	5.64	-50.0	-53.7	18.0	5.98e-01	0	56	0	676855808	62	5729
2026-01-04 03:40:28.88	237.50	5.41	-50.1	-53.8	17.9	5.99e-01	0	56	0	682622976	62	5819
2026-01-04 03:40:31.71	237.38	5.20	-50.1	-54.0	17.6	6.01e-01	0	56	0	687865856	62	5935
2026-01-04 03:40:34.81	237.25	4.97	-53.2	-72.2	3.8	7.48e-01	0	56	104	692584448	68	34126
2026-01-04 03:40:37.63	237.14	4.77	-53.8	-73.7	3.8	7.45e-01	0	56	104	692584448	69	38587
2026-01-04 03:40:40.75	237.01	4.55	-54.1	-74.0	3.8	7.45e-01	0	56	104	692584448	70	37719
2026-01-04 03:40:43.58	236.90	4.34	-54.2	-74.1	3.8	7.47e-01	0	57	104	692584448	70	38043
2026-01-04 03:40:46.70	236.78	4.12	-54.3	-74.2	3.8	7.46e-01	0	57	104	692584448	70	38491
2026-01-04 03:40:49.52	236.67	3.93	-54.4	-74.3	3.8	7.47e-01	0	56	104	692584448	70	38845
2026-01-04 03:40:52.63	236.55	3.71	-54.4	-74.3	3.8	7.44e-01	0	57	104	692584448	71	36856
2026-01-04 03:40:55.46	236.45	3.51	-54.4	-74.3	3.8	7.45e-01	0	57	104	692584448	71	36929
2026-01-04 03:40:58.56	236.33	3.30	-54.4	-74.4	3.8	7.46e-01	0	56	104	692584448	71	37137
2026-01-04 03:41:01.39	236.23	3.11	-54.4	-74.4	3.8	7.50e-01	0	57	104	692584448	71	37121

#Closed at: 2026-01-04 03:41:04
#Recorded file [692 MB]: D:/Data/31026_260104_064034.dat