passes_logs/2026/01/04/R3.0SM8_Murmansk_STILSPACE/R3.0SM8_Murmansk_STILSPACE__20260104_053855_FENGYUN_3D_rec.log

#Pass ID: 20260104_053855_FENGYUN 3D
#Satellite: FENGYUN 3D
#Configuration: FENGYUN 3D
#almurnet v.1.7.20240730
#Start time: 2026-01-04 05:38:55

#Version: 2.2.20231116
#Station: R3.0SM8_Murmansk_STILSPACE
#Location: 33.092731 lon 68.902999 lat
#TLE: 1 43010U 17072A   26003.51579816  .00000092  00000+0  65324-4 0  9992
#TLE: 2 43010  98.9912 335.1548 0001916 128.4619 231.6729 14.19692074421623

#Time	Az	El	Level	Level2	SNR	BER	BlckErr	Temp	State	Recorded	gain1	gain2
2026-01-04 05:38:55.35	42.69	3.00	-52.4	-63.1	3.8	8.45e-01	0	46	0	0	66	13111
2026-01-04 05:38:59.29	42.46	3.23	-52.0	-62.7	3.8	8.46e-01	0	46	104	0	67	11909
2026-01-04 05:39:03.23	42.23	3.48	-51.4	-62.1	3.8	8.46e-01	0	46	104	0	65	12443
2026-01-04 05:39:07.18	41.99	3.72	-51.4	-61.9	3.8	8.46e-01	0	47	104	0	65	12144
2026-01-04 05:39:11.14	41.75	3.96	-51.4	-62.0	3.8	8.46e-01	0	47	104	0	65	12307
2026-01-04 05:39:15.11	41.50	4.21	-51.3	-61.6	3.8	8.47e-01	0	47	104	0	65	11750
2026-01-04 05:39:19.06	41.25	4.46	-51.0	-58.9	4.1	8.43e-01	0	48	0	0	65	8600
2026-01-04 05:39:23.01	41.00	4.71	-50.0	-54.6	6.4	3.12e-01	0	48	0	5242880	63	5901
2026-01-04 05:39:26.96	40.74	4.96	-48.4	-51.2	9.9	1.68e-02	0	48	0	27262976	59	4985
2026-01-04 05:39:30.90	40.47	5.21	-47.9	-50.3	10.8	5.58e-03	0	48	0	50331648	59	4522
2026-01-04 05:39:34.86	40.20	5.47	-47.5	-49.7	11.4	1.26e-03	0	49	0	72351744	58	4462
2026-01-04 05:39:38.81	39.93	5.72	-47.1	-48.9	12.2	5.94e-04	0	49	0	94371840	57	4340
2026-01-04 05:39:42.75	39.65	5.98	-45.7	-47.2	13.9	4.50e-06	0	49	0	116391936	54	4205
2026-01-04 05:39:46.71	39.36	6.24	-45.8	-47.3	13.9	9.10e-06	0	49	0	138412032	54	4243
2026-01-04 05:39:50.65	39.07	6.51	-45.9	-47.4	13.8	6.80e-06	0	49	0	160432128	54	4325
2026-01-04 05:39:54.62	38.78	6.77	-45.0	-46.2	15.0	0.00e+00	0	50	0	183500800	53	4004
2026-01-04 05:39:58.57	38.47	7.04	-44.4	-45.5	15.8	0.00e+00	0	50	0	205520896	51	4143
2026-01-04 05:40:02.53	38.17	7.31	-44.7	-45.8	15.6	0.00e+00	0	50	0	227540992	51	4276
2026-01-04 05:40:06.50	37.85	7.58	-44.6	-45.8	15.7	0.00e+00	0	50	0	250609664	51	4244
2026-01-04 05:40:10.47	37.53	7.85	-45.0	-46.3	15.2	0.00e+00	0	51	0	272629760	51	4498
2026-01-04 05:40:14.43	37.20	8.13	-45.1	-46.4	15.0	0.00e+00	0	50	0	294649856	52	4307
2026-01-04 05:40:18.39	36.87	8.41	-44.9	-46.1	15.3	0.00e+00	0	51	0	316669952	52	4159
2026-01-04 05:40:22.33	36.53	8.68	-44.4	-45.5	15.9	0.00e+00	0	51	0	338690048	52	3896
2026-01-04 05:40:26.29	36.18	8.97	-44.6	-45.7	15.9	0.00e+00	0	51	0	361758720	51	4216
2026-01-04 05:40:30.23	35.83	9.25	-44.2	-45.3	16.3	0.00e+00	0	51	0	383778816	51	4007
2026-01-04 05:40:34.19	35.47	9.53	-44.0	-45.0	16.6	0.00e+00	0	51	0	405798912	51	3888
2026-01-04 05:40:38.15	35.10	9.82	-43.9	-44.8	16.8	0.00e+00	0	52	0	427819008	50	4041
2026-01-04 05:40:42.11	34.73	10.11	-43.9	-44.9	16.7	0.00e+00	0	52	0	450887680	50	4086
2026-01-04 05:40:46.07	34.34	10.40	-43.9	-44.8	16.8	0.00e+00	0	52	0	472907776	50	4038
2026-01-04 05:40:50.02	33.95	10.70	-43.6	-44.5	17.1	0.00e+00	0	52	0	494927872	50	3912
2026-01-04 05:40:53.99	33.55	11.00	-43.7	-44.6	17.1	0.00e+00	0	52	0	516947968	50	3925
2026-01-04 05:40:57.94	33.14	11.29	-43.8	-44.8	16.9	0.00e+00	0	52	0	538968064	50	4028
2026-01-04 05:41:01.90	32.72	11.59	-43.8	-44.8	16.9	0.00e+00	0	53	0	562036736	50	4006
2026-01-04 05:41:05.86	32.30	11.90	-43.9	-44.8	16.9	0.00e+00	0	52	0	584056832	50	4023
2026-01-04 05:41:09.82	31.86	12.20	-43.4	-44.3	17.4	0.00e+00	0	53	0	606076928	49	4025
2026-01-04 05:41:13.79	31.41	12.51	-43.4	-44.3	17.4	0.00e+00	0	53	0	628097024	49	4025
2026-01-04 05:41:17.73	30.96	12.82	-43.2	-44.1	17.7	0.00e+00	0	53	0	651165696	49	3915
2026-01-04 05:41:21.68	30.50	13.13	-43.2	-44.1	17.7	0.00e+00	0	53	0	673185792	49	3916
2026-01-04 05:41:25.63	30.02	13.44	-43.3	-44.2	17.6	0.00e+00	0	53	0	695205888	49	3989
2026-01-04 05:41:29.60	29.53	13.76	-43.4	-44.3	17.5	0.00e+00	0	53	0	717225984	49	4030
2026-01-04 05:41:33.55	29.04	14.08	-43.5	-44.4	17.4	0.00e+00	0	53	0	739246080	49	4064
2026-01-04 05:41:37.50	28.53	14.40	-42.8	-43.7	18.1	0.00e+00	0	54	0	762314752	48	3960
2026-01-04 05:41:41.46	28.01	14.72	-42.9	-43.7	18.1	0.00e+00	0	54	0	784334848	48	3991
2026-01-04 05:41:45.41	27.48	15.04	-42.5	-43.3	18.5	0.00e+00	0	54	0	806354944	48	3783
2026-01-04 05:41:49.38	26.94	15.37	-42.6	-43.4	18.4	0.00e+00	0	54	0	828375040	48	3844
2026-01-04 05:41:53.32	26.39	15.69	-42.1	-42.8	18.8	0.00e+00	0	54	0	851443712	47	3795
2026-01-04 05:41:57.30	25.82	16.02	-42.3	-43.1	18.6	0.00e+00	0	54	0	873463808	47	3920
2026-01-04 05:42:01.25	25.24	16.35	-42.4	-43.2	18.4	0.00e+00	0	54	0	895483904	47	3989
2026-01-04 05:42:05.22	24.64	16.68	-42.2	-42.9	18.7	0.00e+00	0	54	0	917504000	47	3848
2026-01-04 05:42:09.18	24.04	17.02	-42.2	-42.9	18.7	0.00e+00	0	54	0	940572672	47	3856
2026-01-04 05:42:13.14	23.41	17.35	-41.9	-42.6	19.1	0.00e+00	0	54	0	962592768	46	3956
2026-01-04 05:42:17.10	22.78	17.68	-41.8	-42.5	19.2	0.00e+00	0	54	0	984612864	46	3899
2026-01-04 05:42:21.07	22.13	18.02	-41.9	-42.6	19.1	0.00e+00	0	54	0	1006632960	46	3946
2026-01-04 05:42:25.03	21.46	18.36	-42.1	-42.8	18.9	0.00e+00	0	54	0	1029701632	46	4029
2026-01-04 05:42:28.98	20.79	18.69	-41.9	-42.6	19.1	0.00e+00	0	55	0	1051721728	46	3943
2026-01-04 05:42:32.94	20.09	19.03	-41.9	-42.6	19.1	0.00e+00	0	55	0	1073741824	46	3958
2026-01-04 05:42:36.88	19.38	19.36	-41.3	-41.9	19.8	0.00e+00	0	55	0	1095761920	45	3855
2026-01-04 05:42:40.84	18.66	19.70	-41.6	-42.3	19.4	0.00e+00	0	55	0	1117782016	45	4025
2026-01-04 05:42:44.78	17.92	20.04	-41.5	-42.2	19.5	0.00e+00	0	55	0	1140850688	45	3990
2026-01-04 05:42:48.76	17.15	20.37	-41.4	-42.1	19.6	0.00e+00	0	55	0	1162870784	45	3930
2026-01-04 05:42:52.71	16.38	20.71	-41.4	-42.1	19.6	0.00e+00	0	55	0	1184890880	45	3936
2026-01-04 05:42:56.68	15.58	21.04	-41.4	-42.1	19.6	0.00e+00	0	55	0	1206910976	45	3945
2026-01-04 05:43:00.64	14.77	21.37	-41.1	-41.8	19.9	0.00e+00	0	55	0	1229979648	45	3789
2026-01-04 05:43:04.57	13.95	21.70	-41.3	-41.9	19.8	0.00e+00	0	55	0	1251999744	45	3857
2026-01-04 05:43:08.54	13.10	22.03	-40.6	-41.2	20.5	0.00e+00	0	55	0	1274019840	44	3760
2026-01-04 05:43:12.48	12.23	22.35	-40.7	-41.3	20.4	0.00e+00	0	55	0	1296039936	44	3816
2026-01-04 05:43:16.43	11.35	22.67	-41.0	-41.6	20.0	0.00e+00	0	55	0	1318060032	44	3940
2026-01-04 05:43:20.37	10.45	22.99	-41.1	-41.8	19.6	0.00e+00	0	55	0	1341128704	44	4031
2026-01-04 05:43:24.32	9.53	23.30	-41.8	-42.6	18.2	0.00e+00	0	55	0	1363148800	45	4155
2026-01-04 05:43:28.25	8.60	23.61	-44.8	-46.1	14.6	1.10e-06	0	55	0	1385168896	51	4425
2026-01-04 05:43:32.21	7.64	23.91	-46.0	-47.7	13.2	1.30e-04	0	56	0	1407188992	54	4468
2026-01-04 05:43:36.17	6.66	24.21	-44.4	-45.4	16.2	0.00e+00	0	55	0	1429209088	51	4066
2026-01-04 05:43:40.14	5.66	24.51	-41.1	-41.8	19.7	0.00e+00	0	56	0	1451229184	45	3799
2026-01-04 05:43:44.08	4.65	24.79	-43.9	-45.0	16.1	0.00e+00	0	56	0	1474297856	49	4348
2026-01-04 05:43:48.04	3.62	25.07	-46.1	-48.0	12.6	3.04e-04	0	56	0	1496317952	54	4623
2026-01-04 05:43:52.00	2.57	25.34	-41.8	-42.5	19.2	0.00e+00	0	55	0	1518338048	46	3895
2026-01-04 05:43:55.95	1.50	25.61	-41.1	-41.7	20.0	0.00e+00	0	56	0	1540358144	45	3770
2026-01-04 05:43:59.90	0.41	25.86	-41.3	-41.9	19.8	0.00e+00	0	56	0	1563426816	45	3861
2026-01-04 05:44:03.86	359.31	26.11	-40.5	-41.1	20.6	0.00e+00	0	56	0	1585446912	44	3729
2026-01-04 05:44:07.83	358.18	26.35	-40.6	-41.2	20.4	0.00e+00	0	56	0	1607467008	43	4002
2026-01-04 05:44:11.76	357.05	26.57	-41.0	-41.6	20.1	0.00e+00	0	56	0	1629487104	43	4184
2026-01-04 05:44:15.71	355.90	26.79	-40.8	-41.4	20.4	0.00e+00	0	56	0	1651507200	44	3845
2026-01-04 05:44:19.68	354.72	26.99	-40.1	-40.6	21.0	0.00e+00	0	56	0	1674575872	43	3733
2026-01-04 05:44:23.63	353.54	27.18	-40.0	-40.6	21.0	0.00e+00	0	56	0	1696595968	43	3722
2026-01-04 05:44:27.60	352.33	27.36	-40.1	-40.6	21.0	0.00e+00	0	56	0	1718616064	43	3736
2026-01-04 05:44:31.54	351.13	27.53	-39.8	-40.4	21.3	0.00e+00	0	56	0	1740636160	42	3837
2026-01-04 05:44:35.50	349.90	27.68	-39.8	-40.4	21.2	0.00e+00	0	56	0	1763704832	42	3845
2026-01-04 05:44:39.47	348.66	27.82	-40.1	-40.7	21.0	0.00e+00	0	56	0	1785724928	42	3968
2026-01-04 05:44:43.43	347.41	27.94	-39.9	-40.5	21.2	0.00e+00	0	56	0	1807745024	42	3888
2026-01-04 05:44:47.39	346.16	28.05	-39.9	-40.4	21.2	0.00e+00	0	56	0	1829765120	42	3860
2026-01-04 05:44:51.34	344.89	28.15	-39.6	-40.1	21.5	0.00e+00	0	56	0	1851785216	42	3734
2026-01-04 05:44:55.29	343.62	28.23	-39.6	-40.2	21.4	0.00e+00	0	56	0	1874853888	42	3740
2026-01-04 05:44:59.26	342.34	28.29	-39.5	-40.0	21.6	0.00e+00	0	56	0	1896873984	41	3894
2026-01-04 05:45:03.22	341.06	28.34	-39.8	-40.3	21.3	0.00e+00	0	56	0	1918894080	41	4035
2026-01-04 05:45:07.16	339.78	28.37	-39.7	-40.2	21.4	0.00e+00	0	56	0	1940914176	41	3978
2026-01-04 05:45:11.13	338.49	28.39	-39.9	-40.4	21.2	0.00e+00	0	56	0	1963982848	41	4096
2026-01-04 05:45:15.08	337.20	28.39	-39.6	-40.2	21.5	0.00e+00	0	56	0	1986002944	41	3973
2026-01-04 05:45:19.05	335.91	28.37	-39.6	-40.1	21.5	0.00e+00	0	56	0	2008023040	42	3721
2026-01-04 05:45:22.99	334.63	28.34	-39.6	-40.1	21.6	0.00e+00	0	56	0	2030043136	42	3724
2026-01-04 05:45:26.96	333.35	28.29	-39.7	-40.3	21.4	0.00e+00	0	56	0	2053111808	42	3791
2026-01-04 05:45:30.91	332.07	28.23	-39.6	-40.1	21.6	0.00e+00	0	56	0	2075131904	42	3721
2026-01-04 05:45:34.85	330.81	28.15	-39.8	-40.4	21.3	0.00e+00	0	56	0	2097152000	42	3833
2026-01-04 05:45:38.80	329.54	28.05	-40.2	-40.8	20.9	0.00e+00	0	56	0	2119172096	42	4019
2026-01-04 05:45:42.75	328.29	27.94	-39.9	-40.4	21.3	0.00e+00	0	56	0	2141192192	42	3848
2026-01-04 05:45:46.72	327.04	27.82	-39.8	-40.4	21.3	0.00e+00	0	56	0	2164260864	42	3839
2026-01-04 05:45:50.70	325.79	27.68	-39.8	-40.4	21.3	0.00e+00	0	56	0	2186280960	42	3826
2026-01-04 05:45:54.64	324.57	27.53	-39.6	-40.1	21.5	0.00e+00	0	56	0	2208301056	42	3735
2026-01-04 05:45:58.59	323.36	27.36	-39.6	-40.2	21.5	0.00e+00	0	56	0	2230321152	42	3748
2026-01-04 05:46:02.56	322.16	27.18	-39.8	-40.3	21.4	0.00e+00	0	56	0	2253389824	42	3801
2026-01-04 05:46:06.52	320.97	26.99	-39.6	-40.2	21.5	0.00e+00	0	56	0	2275409920	42	3739
2026-01-04 05:46:10.49	319.79	26.78	-40.0	-40.5	21.2	0.00e+00	0	56	0	2297430016	42	3911
2026-01-04 05:46:14.44	318.64	26.57	-40.5	-41.1	20.7	0.00e+00	0	56	0	2319450112	42	4155
2026-01-04 05:46:18.40	317.50	26.34	-40.3	-40.9	20.8	0.00e+00	0	56	0	2341470208	43	3851
2026-01-04 05:46:22.34	316.38	26.10	-40.4	-41.0	20.7	0.00e+00	0	57	0	2364538880	43	3879
2026-01-04 05:46:26.30	315.27	25.86	-39.7	-40.2	21.5	0.00e+00	0	56	0	2386558976	42	3764
2026-01-04 05:46:30.24	314.19	25.60	-39.7	-40.3	21.4	0.00e+00	0	56	0	2408579072	42	3787
2026-01-04 05:46:34.19	313.12	25.34	-40.2	-40.7	20.9	0.00e+00	0	57	0	2430599168	42	3997
2026-01-04 05:46:38.15	312.06	25.06	-40.2	-40.7	21.0	0.00e+00	0	57	0	2453667840	42	3996
2026-01-04 05:46:42.11	311.03	24.78	-40.1	-40.7	21.0	0.00e+00	0	57	0	2475687936	42	3966
2026-01-04 05:46:46.05	310.02	24.50	-40.1	-40.7	21.0	0.00e+00	0	57	0	2497708032	42	3968
2026-01-04 05:46:50.00	309.02	24.21	-40.3	-40.9	20.8	0.00e+00	0	56	0	2519728128	42	4081
2026-01-04 05:46:53.97	308.04	23.90	-39.8	-40.4	21.3	0.00e+00	0	56	0	2541748224	42	3840
2026-01-04 05:46:57.93	307.08	23.60	-40.0	-40.6	21.1	0.00e+00	0	56	0	2564816896	42	3932
2026-01-04 05:47:01.89	306.14	23.29	-40.3	-40.9	20.8	0.00e+00	0	57	0	2586836992	42	4066
2026-01-04 05:47:05.85	305.21	22.97	-40.2	-40.8	20.9	0.00e+00	0	57	0	2608857088	42	4009
2026-01-04 05:47:09.80	304.31	22.66	-40.5	-41.1	20.6	0.00e+00	0	56	0	2630877184	42	4176
2026-01-04 05:47:13.76	303.43	22.33	-40.7	-41.3	20.4	0.00e+00	0	57	0	2653945856	43	4040
2026-01-04 05:47:17.72	302.56	22.01	-40.7	-41.3	20.3	0.00e+00	0	56	0	2675965952	43	4046
2026-01-04 05:47:21.68	301.71	21.68	-40.9	-41.5	20.2	0.00e+00	0	57	0	2697986048	43	4114
2026-01-04 05:47:25.65	300.88	21.35	-41.0	-41.6	20.1	0.00e+00	0	57	0	2720006144	43	4163
2026-01-04 05:47:29.60	300.07	21.02	-41.0	-41.6	20.2	0.00e+00	0	57	0	2742026240	44	3924
2026-01-04 05:47:33.55	299.27	20.69	-41.1	-41.8	20.0	0.00e+00	0	57	0	2765094912	44	4014
2026-01-04 05:47:37.52	298.49	20.35	-41.3	-41.9	19.9	0.00e+00	0	57	0	2787115008	44	4063
2026-01-04 05:47:41.47	297.73	20.01	-41.1	-41.8	20.0	0.00e+00	0	57	0	2809135104	44	4014
2026-01-04 05:47:45.45	296.98	19.68	-41.4	-42.0	19.8	0.00e+00	0	57	0	2831155200	44	4130
2026-01-04 05:47:49.41	296.26	19.34	-41.0	-41.6	20.1	0.00e+00	0	57	0	2854223872	44	3944
2026-01-04 05:47:53.38	295.54	19.00	-41.3	-42.0	19.8	0.00e+00	0	57	0	2876243968	44	4103
2026-01-04 05:47:57.34	294.85	18.66	-41.5	-42.2	19.6	0.00e+00	0	57	0	2898264064	44	4206
2026-01-04 05:48:01.29	294.17	18.33	-41.5	-42.2	19.5	0.00e+00	0	57	0	2920284160	44	4220
2026-01-04 05:48:05.25	293.50	17.99	-42.2	-42.9	18.8	0.00e+00	0	57	0	2943352832	46	4080
2026-01-04 05:48:09.18	292.86	17.66	-42.9	-43.7	17.9	0.00e+00	0	57	0	2965372928	47	4225
2026-01-04 05:48:13.15	292.22	17.32	-43.1	-44.0	17.7	0.00e+00	0	57	0	2987393024	48	4117
2026-01-04 05:48:17.11	291.60	16.99	-43.9	-45.0	16.4	0.00e+00	0	57	0	3009413120	49	4347
2026-01-04 05:48:21.06	290.99	16.65	-45.0	-46.3	14.7	0.00e+00	0	57	0	3032481792	51	4539
2026-01-04 05:48:25.02	290.40	16.32	-46.0	-47.7	12.9	6.63e-05	0	57	0	3054501888	53	4755
2026-01-04 05:48:28.98	289.81	15.99	-46.8	-49.0	11.4	1.16e-03	0	57	0	3076521984	55	4878
2026-01-04 05:48:32.94	289.25	15.66	-47.7	-50.6	9.7	1.27e-02	0	57	0	3098542080	57	5249
2026-01-04 05:48:36.87	288.69	15.34	-48.3	-51.7	8.4	5.12e-02	0	57	0	3120562176	58	5646
2026-01-04 05:48:40.85	288.15	15.01	-48.6	-52.5	7.5	1.15e-01	0	57	0	3143630848	58	6146
2026-01-04 05:48:44.82	287.61	14.69	-48.7	-53.1	6.8	2.00e-01	0	57	0	3165650944	59	6253
2026-01-04 05:48:48.75	287.10	14.37	-48.7	-53.1	6.8	2.26e-01	0	57	0	3187671040	59	6219
2026-01-04 05:48:52.70	286.59	14.05	-48.3	-52.2	7.7	1.06e-01	0	57	0	3209691136	58	5929
2026-01-04 05:48:56.65	286.09	13.73	-48.0	-51.3	8.7	5.54e-02	0	57	0	3231711232	58	5343
2026-01-04 05:49:00.61	285.61	13.41	-46.6	-48.7	11.7	1.05e-03	0	57	0	3254779904	56	4460
2026-01-04 05:49:04.56	285.13	13.10	-45.9	-47.5	13.2	2.40e-05	0	57	0	3276800000	54	4372
2026-01-04 05:49:08.51	284.67	12.79	-45.0	-46.3	14.7	0.00e+00	0	57	0	3298820096	53	4024
2026-01-04 05:49:12.47	284.21	12.48	-44.5	-45.7	15.4	0.00e+00	0	57	0	3320840192	52	3984
2026-01-04 05:49:16.43	283.76	12.17	-44.4	-45.5	15.8	0.00e+00	0	57	0	3343908864	51	4116
2026-01-04 05:49:20.39	283.33	11.86	-44.6	-45.8	15.6	0.00e+00	0	57	0	3365928960	51	4252
2026-01-04 05:49:24.35	282.90	11.56	-44.3	-45.4	16.1	0.00e+00	0	57	0	3387949056	51	4062
2026-01-04 05:49:28.30	282.48	11.26	-44.2	-45.2	16.3	0.00e+00	0	57	0	3409969152	51	3987
2026-01-04 05:49:32.26	282.07	10.96	-44.2	-45.3	16.3	0.00e+00	0	57	0	3433037824	51	4006
2026-01-04 05:49:36.21	281.67	10.66	-44.4	-45.5	15.9	0.00e+00	0	57	0	3455057920	51	4139
2026-01-04 05:49:40.17	281.27	10.37	-44.8	-45.9	15.5	0.00e+00	0	57	0	3477078016	51	4324
2026-01-04 05:49:44.13	280.89	10.07	-44.9	-46.1	15.2	0.00e+00	0	57	0	3499098112	52	4179
2026-01-04 05:49:48.09	280.51	9.78	-44.9	-46.2	15.0	0.00e+00	0	57	0	3521118208	52	4201
2026-01-04 05:49:52.05	280.14	9.50	-45.0	-46.3	14.7	1.10e-06	0	57	0	3544186880	52	4272
2026-01-04 05:49:56.01	279.78	9.21	-44.7	-46.0	14.9	0.00e+00	0	57	0	3566206976	52	4130
2026-01-04 05:49:59.98	279.42	8.92	-44.9	-46.2	14.5	1.10e-06	0	57	0	3588227072	52	4240
2026-01-04 05:50:03.93	279.08	8.64	-45.5	-47.0	13.6	1.71e-05	0	57	0	3610247168	52	4632
2026-01-04 05:50:07.90	278.73	8.36	-45.3	-46.9	13.6	1.83e-05	0	57	0	3633315840	53	4300
2026-01-04 05:50:11.86	278.40	8.08	-45.3	-47.0	13.2	4.69e-05	0	57	0	3655335936	53	4373
2026-01-04 05:50:15.81	278.07	7.81	-45.7	-47.6	12.3	2.66e-04	0	57	0	3677356032	53	4698
2026-01-04 05:50:19.75	277.75	7.54	-46.1	-48.3	11.4	1.13e-03	0	57	0	3699376128	54	4780
2026-01-04 05:50:23.72	277.43	7.27	-46.3	-48.7	10.8	3.80e-03	0	57	0	3722444800	54	5017
2026-01-04 05:50:27.67	277.13	7.00	-46.7	-49.5	9.8	1.09e-02	0	57	0	3744464896	55	5179
2026-01-04 05:50:31.63	276.82	6.73	-47.2	-50.4	8.7	4.12e-02	0	57	0	3766484992	56	5460
2026-01-04 05:50:35.58	276.53	6.46	-47.4	-51.1	7.9	9.02e-02	0	57	0	3788505088	56	5916
2026-01-04 05:50:39.55	276.23	6.20	-47.5	-51.5	7.3	1.27e-01	0	57	0	3810525184	56	6174
2026-01-04 05:50:43.49	275.95	5.94	-47.8	-52.3	6.5	2.32e-01	0	57	0	3833593856	57	6411
2026-01-04 05:50:47.46	275.66	5.68	-48.0	-53.2	5.8	4.00e-01	0	57	0	3855613952	57	7082
2026-01-04 05:50:51.41	275.39	5.42	-48.1	-53.7	5.4	7.02e-01	0	58	0	3871342592	58	7086
2026-01-04 05:50:55.37	275.12	5.17	-48.3	-54.5	4.9	7.78e-01	0	58	0	3874488320	58	7745
2026-01-04 05:50:59.32	274.85	4.91	-51.4	-62.2	3.8	8.46e-01	0	57	104	3874488320	64	13266
2026-01-04 05:51:03.27	274.59	4.66	-51.8	-62.5	3.8	8.46e-01	0	57	104	3874488320	66	12373
2026-01-04 05:51:07.24	274.33	4.41	-52.5	-63.2	3.8	8.46e-01	0	58	104	3874488320	66	13368
2026-01-04 05:51:11.19	274.08	4.16	-52.6	-63.3	3.8	8.45e-01	0	58	104	3874488320	66	13495
2026-01-04 05:51:15.16	273.83	3.91	-52.7	-63.4	3.8	8.47e-01	0	57	104	3874488320	67	12816
2026-01-04 05:51:19.13	273.59	3.67	-52.6	-63.4	3.8	8.46e-01	0	57	104	3874488320	67	12869
2026-01-04 05:51:23.09	273.35	3.42	-52.6	-63.4	3.8	8.46e-01	0	58	104	3874488320	67	12899
2026-01-04 05:51:27.04	273.11	3.18	-52.7	-63.4	3.8	8.46e-01	0	58	104	3874488320	67	12863

#Closed at: 2026-01-04 05:51:30
#Recorded file [3874 MB]: D:/Data/31026_260104_085056.dat