passes_logs/2026/01/04/R3.0SM8_Murmansk_STILSPACE/R3.0SM8_Murmansk_STILSPACE__20260104_111556_SUOMI_NPP_rec.log

#Pass ID: 20260104_111556_SUOMI NPP
#Satellite: SUOMI NPP
#Configuration: NPP
#almurnet v.1.7.20240730
#Start time: 2026-01-04 11:15:58

#Version: 2.2.20231116
#Station: R3.0SM8_Murmansk_STILSPACE
#Location: 33.092731 lon 68.902999 lat
#TLE: 1 37849U 11061A   26001.07732418  .00000182  00000+0  10735-3 0  9990
#TLE: 2 37849  98.7795 303.2470 0002580  87.2016 272.9455 14.19520779734739

#Time	Az	El	Level	Level2	SNR	BER	BlckErr	Temp	State	Recorded	gain1	gain2
2026-01-04 11:15:58.93	194.09	3.12	-52.4	-66.2	3.8	1.49e+00	0	46	0	0	67	17770
2026-01-04 11:16:02.87	194.30	3.37	-51.8	-65.7	3.8	1.49e+00	0	46	104	0	66	17779
2026-01-04 11:16:06.85	194.52	3.62	-51.5	-65.2	3.8	1.49e+00	0	46	104	0	65	17870
2026-01-04 11:16:10.82	194.74	3.87	-51.5	-65.2	3.8	1.49e+00	0	47	104	0	65	17846
2026-01-04 11:16:14.77	194.96	4.12	-51.5	-65.3	3.8	1.49e+00	0	47	104	0	65	18002
2026-01-04 11:16:18.75	195.19	4.37	-51.4	-64.5	3.8	1.49e+00	0	47	104	0	65	16376
2026-01-04 11:16:22.73	195.43	4.63	-51.2	-60.7	4.6	1.17e+00	0	48	0	1048576	65	10557
2026-01-04 11:16:26.70	195.66	4.89	-50.5	-56.8	7.2	1.86e-01	0	48	0	8388608	64	7189
2026-01-04 11:16:30.63	195.90	5.15	-50.2	-55.7	8.5	3.38e-02	0	48	0	15728640	63	6657
2026-01-04 11:16:34.59	196.15	5.41	-49.8	-54.6	9.6	1.59e-02	0	48	0	23068672	62	6215
2026-01-04 11:16:38.56	196.39	5.68	-49.5	-53.8	10.5	4.07e-03	0	49	0	30408704	62	5670
2026-01-04 11:16:42.52	196.65	5.95	-49.3	-53.2	11.0	1.77e-03	0	49	0	37748736	61	5605
2026-01-04 11:16:46.47	196.90	6.21	-49.2	-52.8	11.5	1.25e-03	0	49	0	45088768	61	5348
2026-01-04 11:16:50.42	197.16	6.49	-49.1	-52.8	11.5	5.96e-04	0	49	0	52428800	61	5381
2026-01-04 11:16:54.38	197.43	6.76	-49.3	-53.0	11.4	9.80e-04	0	49	0	59768832	61	5492
2026-01-04 11:16:58.34	197.70	7.04	-49.2	-52.9	11.5	8.89e-04	0	50	0	68157440	61	5409
2026-01-04 11:17:02.30	197.98	7.32	-49.4	-53.0	11.4	7.95e-04	0	50	0	75497472	61	5490
2026-01-04 11:17:06.26	198.26	7.60	-48.6	-51.7	12.7	9.23e-05	0	50	0	82837504	60	5025
2026-01-04 11:17:10.23	198.55	7.88	-48.4	-51.2	13.3	2.36e-05	0	50	0	90177536	59	5040
2026-01-04 11:17:14.19	198.84	8.17	-48.4	-51.1	13.4	1.14e-05	0	50	0	97517568	59	4952
2026-01-04 11:17:18.16	199.13	8.46	-48.3	-51.0	13.5	1.06e-05	0	50	0	104857600	59	4917
2026-01-04 11:17:22.13	199.44	8.75	-48.5	-51.2	13.4	1.52e-05	0	51	0	112197632	59	5010
2026-01-04 11:17:26.10	199.75	9.05	-48.6	-51.5	13.1	2.74e-05	0	51	0	119537664	59	5171
2026-01-04 11:17:30.06	200.06	9.35	-48.8	-51.7	12.9	6.48e-05	0	51	0	126877696	59	5323
2026-01-04 11:17:34.01	200.38	9.65	-48.3	-50.9	13.8	8.30e-06	0	51	0	134217728	59	4845
2026-01-04 11:17:37.98	200.71	9.95	-48.2	-50.7	14.0	2.20e-06	0	51	0	141557760	59	4740
2026-01-04 11:17:41.95	201.04	10.26	-48.0	-50.4	14.3	0.00e+00	0	51	0	149946368	59	4552
2026-01-04 11:17:45.91	201.38	10.57	-48.3	-50.9	13.8	1.50e-06	0	52	0	157286400	59	4832
2026-01-04 11:17:49.87	201.73	10.88	-47.8	-50.1	14.7	0.00e+00	0	52	0	164626432	58	4665
2026-01-04 11:17:53.82	202.09	11.20	-47.6	-49.7	15.1	0.00e+00	0	52	0	171966464	58	4453
2026-01-04 11:17:57.78	202.45	11.52	-48.0	-50.4	14.4	0.00e+00	0	52	0	179306496	58	4817
2026-01-04 11:18:01.74	202.82	11.84	-48.3	-50.7	14.1	7.00e-07	0	52	0	186646528	58	5007
2026-01-04 11:18:05.71	203.20	12.17	-48.1	-50.5	14.3	7.00e-07	0	52	0	193986560	58	4902
2026-01-04 11:18:09.66	203.58	12.50	-47.5	-49.5	15.3	0.00e+00	0	52	0	201326592	58	4383
2026-01-04 11:18:13.63	203.98	12.83	-47.6	-49.7	15.1	0.00e+00	0	52	0	208666624	57	4744
2026-01-04 11:18:17.57	204.38	13.16	-47.4	-49.4	15.4	0.00e+00	0	52	0	216006656	57	4578
2026-01-04 11:18:21.52	204.79	13.50	-47.6	-49.7	15.2	0.00e+00	0	53	0	223346688	57	4707
2026-01-04 11:18:25.48	205.21	13.84	-47.3	-49.3	15.6	0.00e+00	0	53	0	230686720	57	4495
2026-01-04 11:18:29.43	205.64	14.19	-47.1	-49.0	15.9	0.00e+00	0	53	0	238026752	57	4342
2026-01-04 11:18:33.36	206.07	14.54	-47.4	-49.4	15.5	0.00e+00	0	53	0	245366784	57	4563
2026-01-04 11:18:37.33	206.52	14.89	-47.6	-49.6	15.2	0.00e+00	0	53	0	253755392	57	4690
2026-01-04 11:18:41.27	206.98	15.25	-47.4	-49.4	15.5	0.00e+00	0	53	0	261095424	57	4546
2026-01-04 11:18:45.22	207.45	15.60	-47.1	-48.9	16.0	0.00e+00	0	53	0	268435456	57	4312
2026-01-04 11:18:49.18	207.93	15.97	-47.3	-49.2	15.7	0.00e+00	0	53	0	275775488	57	4456
2026-01-04 11:18:53.13	208.43	16.33	-47.6	-49.7	15.2	0.00e+00	0	53	0	283115520	57	4721
2026-01-04 11:18:57.08	208.93	16.70	-47.6	-49.7	15.3	0.00e+00	0	53	0	290455552	57	4710
2026-01-04 11:19:01.00	209.44	17.08	-47.8	-49.9	15.1	7.00e-07	0	54	0	297795584	57	4828
2026-01-04 11:19:04.97	209.97	17.45	-47.8	-50.0	15.0	0.00e+00	0	54	0	305135616	58	4617
2026-01-04 11:19:08.94	210.52	17.84	-48.0	-50.2	14.8	0.00e+00	0	54	0	312475648	58	4725
2026-01-04 11:19:12.91	211.08	18.22	-47.8	-49.9	15.1	0.00e+00	0	54	0	319815680	58	4562
2026-01-04 11:19:16.87	211.65	18.61	-47.9	-50.1	14.9	0.00e+00	0	54	0	327155712	58	4669
2026-01-04 11:19:20.81	212.23	19.00	-47.9	-50.0	15.0	0.00e+00	0	54	0	334495744	58	4638
2026-01-04 11:19:24.77	212.83	19.40	-48.1	-50.3	14.6	0.00e+00	0	54	0	341835776	58	4814
2026-01-04 11:19:28.73	213.44	19.79	-48.4	-50.8	14.3	7.00e-07	0	54	0	349175808	58	5068
2026-01-04 11:19:32.67	214.07	20.19	-48.0	-50.2	14.9	0.00e+00	0	54	0	356515840	58	4723
2026-01-04 11:19:36.63	214.72	20.60	-48.3	-50.6	14.5	0.00e+00	0	54	0	364904448	58	4929
2026-01-04 11:19:40.59	215.38	21.01	-47.9	-50.0	15.0	0.00e+00	0	54	0	372244480	58	4624
2026-01-04 11:19:44.55	216.06	21.42	-47.8	-49.9	15.1	0.00e+00	0	54	0	379584512	58	4596
2026-01-04 11:19:48.50	216.76	21.83	-48.2	-50.5	14.7	0.00e+00	0	54	0	386924544	58	4905
2026-01-04 11:19:52.45	217.47	22.24	-48.2	-50.4	14.7	0.00e+00	0	54	0	394264576	58	4838
2026-01-04 11:19:56.40	218.21	22.66	-47.9	-50.1	15.0	0.00e+00	0	54	0	401604608	58	4657
2026-01-04 11:20:00.36	218.96	23.08	-46.6	-48.2	16.8	0.00e+00	0	55	0	408944640	56	4205
2026-01-04 11:20:04.32	219.73	23.50	-46.5	-48.1	16.9	0.00e+00	0	54	0	416284672	55	4401
2026-01-04 11:20:08.28	220.53	23.92	-46.3	-47.7	17.2	0.00e+00	0	54	0	423624704	55	4237
2026-01-04 11:20:12.25	221.35	24.35	-46.4	-47.9	17.0	0.00e+00	0	54	0	430964736	55	4337
2026-01-04 11:20:16.21	222.19	24.77	-46.4	-48.0	17.0	0.00e+00	0	55	0	438304768	55	4356
2026-01-04 11:20:20.17	223.05	25.20	-46.6	-48.2	16.7	0.00e+00	0	55	0	445644800	55	4468
2026-01-04 11:20:24.12	223.93	25.62	-46.4	-48.0	17.0	0.00e+00	0	55	0	452984832	55	4362
2026-01-04 11:20:28.07	224.84	26.04	-47.2	-49.0	16.1	0.00e+00	0	55	0	461373440	56	4619
2026-01-04 11:20:32.01	225.76	26.46	-47.5	-49.4	15.7	0.00e+00	0	55	0	468713472	56	4844
2026-01-04 11:20:35.97	226.72	26.89	-46.7	-48.3	16.8	0.00e+00	0	55	0	476053504	56	4268
2026-01-04 11:20:39.93	227.70	27.31	-47.3	-49.1	16.1	0.00e+00	0	55	0	483393536	56	4655
2026-01-04 11:20:43.88	228.70	27.72	-46.9	-48.6	16.5	0.00e+00	0	55	0	490733568	56	4399
2026-01-04 11:20:47.84	229.73	28.14	-47.0	-48.7	16.4	0.00e+00	0	55	0	498073600	56	4442
2026-01-04 11:20:51.79	230.79	28.54	-47.6	-49.5	15.7	0.00e+00	0	55	0	505413632	57	4621
2026-01-04 11:20:55.75	231.87	28.95	-48.1	-50.4	14.8	7.00e-07	0	55	0	512753664	58	4830
2026-01-04 11:20:59.71	232.98	29.35	-48.5	-50.9	14.2	7.00e-07	0	55	0	520093696	58	5125
2026-01-04 11:21:03.67	234.12	29.74	-49.5	-52.8	12.4	8.39e-05	0	55	0	527433728	60	5677
2026-01-04 11:21:07.64	235.29	30.13	-49.6	-53.1	11.9	3.22e-04	0	55	0	534773760	61	5547
2026-01-04 11:21:11.59	236.48	30.51	-49.3	-52.4	12.7	6.17e-05	0	55	0	542113792	61	5135
2026-01-04 11:21:15.55	237.70	30.88	-49.6	-53.1	12.1	1.85e-04	0	55	0	549453824	61	5534
2026-01-04 11:21:19.51	238.95	31.24	-49.6	-52.8	12.3	2.06e-04	0	56	0	557842432	61	5367
2026-01-04 11:21:23.48	240.23	31.59	-49.8	-53.4	11.7	2.18e-04	0	56	0	565182464	61	5754
2026-01-04 11:21:27.42	241.52	31.93	-49.5	-52.7	12.4	2.84e-04	0	55	0	572522496	61	5326
2026-01-04 11:21:31.35	242.84	32.25	-49.4	-52.4	12.6	1.18e-04	0	55	0	579862528	61	5135
2026-01-04 11:21:35.30	244.19	32.56	-49.2	-52.1	13.0	2.05e-05	0	55	0	587202560	60	5247
2026-01-04 11:21:39.25	245.57	32.86	-50.0	-53.6	11.5	9.90e-04	0	55	0	594542592	62	5583
2026-01-04 11:21:43.23	246.98	33.14	-48.7	-51.3	13.9	0.00e+00	0	55	0	601882624	60	4775
2026-01-04 11:21:47.18	248.40	33.41	-49.8	-53.4	11.7	5.48e-04	0	56	0	609222656	61	5727
2026-01-04 11:21:51.13	249.84	33.65	-50.3	-54.4	10.8	2.32e-03	0	56	0	616562688	62	6099
2026-01-04 11:21:55.07	251.31	33.88	-50.3	-54.4	10.7	2.67e-03	0	56	0	623902720	62	6078
2026-01-04 11:21:59.03	252.79	34.09	-50.6	-55.3	9.8	1.20e-02	0	56	0	631242752	63	6376
2026-01-04 11:22:03.00	254.31	34.28	-51.0	-56.3	8.7	2.53e-02	0	56	0	638582784	63	7135
2026-01-04 11:22:06.95	255.83	34.45	-50.1	-53.9	11.2	8.31e-04	0	56	0	645922816	62	5775
2026-01-04 11:22:10.91	257.36	34.60	-49.9	-53.4	11.8	1.18e-03	0	56	0	653262848	62	5407
2026-01-04 11:22:14.87	258.91	34.72	-49.2	-52.1	13.0	4.11e-05	0	56	0	661651456	61	4958
2026-01-04 11:22:18.84	260.48	34.83	-49.8	-53.4	11.7	3.95e-04	0	56	0	668991488	61	5773
2026-01-04 11:22:22.78	262.04	34.91	-50.5	-54.9	10.2	4.90e-03	0	56	0	676331520	62	6447
2026-01-04 11:22:26.75	263.62	34.96	-50.0	-53.7	11.4	1.60e-03	0	56	0	683671552	63	5288
2026-01-04 11:22:30.70	265.20	34.99	-50.4	-54.5	10.6	2.95e-03	0	56	0	691011584	63	5811
2026-01-04 11:22:34.64	266.77	35.00	-51.3	-57.3	7.7	6.57e-02	0	56	0	698351616	64	7591
2026-01-04 11:22:38.61	268.36	34.99	-51.4	-58.1	6.7	2.07e-01	0	56	0	705691648	65	7823
2026-01-04 11:22:42.58	269.94	34.95	-50.7	-55.5	9.3	2.52e-02	0	56	0	713031680	64	6199
2026-01-04 11:22:46.54	271.51	34.88	-50.8	-55.4	9.6	8.77e-03	0	56	0	720371712	63	6492
2026-01-04 11:22:50.50	273.08	34.80	-51.1	-57.1	7.8	1.28e-01	0	56	0	727711744	64	7421
2026-01-04 11:22:54.45	274.63	34.69	-49.7	-53.1	12.0	4.80e-04	0	56	0	735051776	62	5267
2026-01-04 11:22:58.41	276.18	34.56	-49.8	-53.3	11.8	2.55e-04	0	56	0	742391808	61	5685
2026-01-04 11:23:02.37	277.71	34.40	-50.9	-56.2	8.7	4.85e-02	0	56	0	749731840	64	6699
2026-01-04 11:23:06.33	279.23	34.23	-51.1	-56.8	8.0	4.43e-02	0	56	0	758120448	64	7151
2026-01-04 11:23:10.28	280.72	34.03	-50.6	-55.7	9.2	1.48e-02	0	56	0	765460480	64	6310
2026-01-04 11:23:14.25	282.21	33.82	-50.1	-54.2	10.9	4.49e-03	0	56	0	772800512	63	5624
2026-01-04 11:23:18.20	283.66	33.58	-50.7	-55.5	9.5	2.09e-02	0	56	0	780140544	63	6559
2026-01-04 11:23:22.15	285.10	33.33	-50.1	-54.1	11.0	1.96e-03	0	56	0	787480576	63	5543
2026-01-04 11:23:26.10	286.51	33.06	-49.7	-53.2	11.9	7.29e-04	0	56	0	794820608	62	5339
2026-01-04 11:23:30.04	287.90	32.78	-49.5	-53.0	12.1	1.54e-04	0	56	0	802160640	61	5471
2026-01-04 11:23:34.00	289.27	32.48	-48.9	-51.7	13.4	2.05e-05	0	56	0	809500672	61	4722
2026-01-04 11:23:37.96	290.61	32.16	-48.7	-51.3	13.8	0.00e+00	0	56	0	816840704	59	5045
2026-01-04 11:23:41.91	291.93	31.84	-48.4	-50.8	14.3	7.00e-07	0	56	0	824180736	59	4796
2026-01-04 11:23:45.87	293.22	31.50	-48.0	-50.2	14.9	0.00e+00	0	56	0	831520768	59	4486
2026-01-04 11:23:49.82	294.48	31.15	-48.3	-50.5	14.6	0.00e+00	0	56	0	838860800	58	4909
2026-01-04 11:23:53.79	295.72	30.78	-47.9	-50.1	15.0	0.00e+00	0	56	0	846200832	58	4679
2026-01-04 11:23:57.74	296.92	30.41	-48.0	-50.2	14.9	0.00e+00	0	56	0	854589440	58	4721
2026-01-04 11:24:01.71	298.11	30.03	-47.7	-49.8	15.3	0.00e+00	0	56	0	861929472	58	4519
2026-01-04 11:24:05.65	299.26	29.65	-48.1	-50.2	14.9	0.00e+00	0	56	0	869269504	57	5034
2026-01-04 11:24:09.60	300.38	29.26	-47.4	-49.3	15.8	0.00e+00	0	56	0	876609536	58	4267
2026-01-04 11:24:13.58	301.49	28.85	-48.1	-50.3	14.8	7.00e-07	0	56	0	883949568	58	4777
2026-01-04 11:24:17.55	302.57	28.45	-46.7	-48.3	16.6	0.00e+00	0	56	0	891289600	55	4538
2026-01-04 11:24:21.50	303.61	28.04	-48.1	-50.3	14.8	3.00e-06	0	56	0	898629632	59	4502
2026-01-04 11:24:25.45	304.63	27.63	-47.3	-49.2	15.9	0.00e+00	0	56	0	905969664	56	4744
2026-01-04 11:24:29.41	305.62	27.21	-48.8	-51.4	13.6	8.30e-06	0	56	0	913309696	59	5158
2026-01-04 11:24:33.36	306.59	26.79	-48.7	-51.2	13.9	5.30e-06	0	56	0	920649728	59	5030
2026-01-04 11:24:37.33	307.54	26.37	-48.8	-51.6	13.5	1.83e-05	0	56	0	927989760	60	4953
2026-01-04 11:24:41.28	308.46	25.95	-49.2	-52.2	12.9	1.29e-05	0	56	0	935329792	60	5326
2026-01-04 11:24:45.25	309.36	25.53	-49.6	-53.2	11.8	1.05e-03	0	56	0	942669824	62	5286
2026-01-04 11:24:49.20	310.23	25.11	-49.2	-52.4	12.6	6.79e-05	0	56	0	951058432	61	5122
2026-01-04 11:24:53.16	311.08	24.69	-49.6	-53.1	11.9	3.50e-04	0	56	0	958398464	61	5539
2026-01-04 11:24:57.11	311.91	24.27	-49.5	-52.9	12.1	2.01e-04	0	56	0	965738496	61	5442
2026-01-04 11:25:01.06	312.72	23.85	-49.5	-52.8	12.1	6.32e-04	0	56	0	973078528	61	5381
2026-01-04 11:25:05.01	313.51	23.43	-48.4	-50.7	14.4	7.00e-07	0	56	0	980418560	59	4721
2026-01-04 11:25:08.97	314.27	23.01	-48.3	-50.6	14.4	7.00e-07	0	56	0	987758592	59	4695
2026-01-04 11:25:12.94	315.02	22.59	-45.7	-47.0	17.9	0.00e+00	0	56	0	995098624	54	4110
2026-01-04 11:25:16.90	315.75	22.18	-46.5	-48.1	16.8	0.00e+00	0	57	0	1002438656	54	4679
2026-01-04 11:25:20.87	316.46	21.76	-47.7	-49.7	15.3	0.00e+00	0	56	0	1009778688	57	4724
2026-01-04 11:25:24.81	317.15	21.36	-47.0	-48.7	16.3	0.00e+00	0	56	0	1017118720	57	4222
2026-01-04 11:25:28.78	317.83	20.95	-46.7	-48.4	16.6	0.00e+00	0	56	0	1024458752	56	4299
2026-01-04 11:25:32.74	318.49	20.54	-46.5	-48.1	16.8	0.00e+00	0	57	0	1031798784	56	4167
2026-01-04 11:25:36.69	319.12	20.14	-46.6	-48.2	16.8	0.00e+00	0	56	0	1039138816	56	4217
2026-01-04 11:25:40.64	319.75	19.75	-46.8	-48.4	16.5	0.00e+00	0	56	0	1047527424	56	4315
2026-01-04 11:25:44.59	320.36	19.35	-47.0	-48.7	16.3	0.00e+00	0	56	0	1054867456	56	4459
2026-01-04 11:25:48.54	320.95	18.96	-46.5	-48.0	17.0	0.00e+00	0	56	0	1062207488	56	4114
2026-01-04 11:25:52.51	321.53	18.57	-46.5	-48.1	16.7	0.00e+00	0	56	0	1069547520	55	4409
2026-01-04 11:25:56.47	322.10	18.19	-46.6	-48.3	16.5	0.00e+00	0	56	0	1076887552	55	4498
2026-01-04 11:26:00.42	322.65	17.81	-46.9	-48.7	16.3	0.00e+00	0	57	0	1084227584	56	4450
2026-01-04 11:26:04.37	323.18	17.43	-47.1	-49.0	16.0	0.00e+00	0	56	0	1091567616	56	4612
2026-01-04 11:26:08.32	323.71	17.05	-47.3	-49.1	15.7	0.00e+00	0	56	0	1098907648	56	4702
2026-01-04 11:26:12.28	324.22	16.68	-48.1	-50.4	14.5	0.00e+00	0	56	0	1106247680	58	4843
2026-01-04 11:26:16.23	324.72	16.32	-48.6	-51.1	13.8	5.30e-06	0	57	0	1113587712	59	4974
2026-01-04 11:26:20.20	325.22	15.95	-48.5	-50.9	13.9	2.20e-06	0	57	0	1120927744	59	4870
2026-01-04 11:26:24.15	325.69	15.59	-48.2	-50.5	14.4	4.50e-06	0	56	0	1128267776	59	4618
2026-01-04 11:26:28.11	326.16	15.23	-47.8	-49.9	15.0	0.00e+00	0	57	0	1135607808	58	4572
2026-01-04 11:26:32.07	326.62	14.88	-47.9	-50.1	14.8	0.00e+00	0	56	0	1142947840	58	4705
2026-01-04 11:26:36.02	327.07	14.53	-47.6	-49.6	15.2	0.00e+00	0	56	0	1150287872	58	4435
2026-01-04 11:26:39.99	327.50	14.18	-47.1	-48.9	15.9	0.00e+00	0	56	0	1158676480	57	4340
2026-01-04 11:26:43.96	327.93	13.84	-47.0	-48.8	16.0	0.00e+00	0	56	0	1166016512	57	4273
2026-01-04 11:26:47.90	328.35	13.50	-47.6	-49.6	15.2	0.00e+00	0	57	0	1173356544	57	4696
2026-01-04 11:26:51.85	328.76	13.17	-47.8	-50.0	14.8	7.00e-07	0	57	0	1180696576	57	4883
2026-01-04 11:26:55.81	329.16	12.83	-47.7	-49.9	15.0	7.00e-07	0	57	0	1188036608	57	4815
2026-01-04 11:26:59.78	329.55	12.50	-47.5	-49.6	15.2	0.00e+00	0	56	0	1195376640	57	4682
2026-01-04 11:27:03.75	329.94	12.18	-47.4	-49.5	15.3	0.00e+00	0	56	0	1202716672	57	4599
2026-01-04 11:27:07.68	330.31	11.86	-48.0	-50.3	14.4	7.00e-07	0	57	0	1210056704	57	5078
2026-01-04 11:27:11.65	330.68	11.54	-48.1	-50.5	14.3	0.00e+00	0	57	0	1217396736	58	4892
2026-01-04 11:27:15.59	331.04	11.22	-48.1	-50.6	14.1	3.00e-06	0	57	0	1224736768	58	4949
2026-01-04 11:27:19.55	331.39	10.91	-47.7	-50.0	14.7	7.00e-07	0	57	0	1232076800	58	4600
2026-01-04 11:27:23.53	331.74	10.59	-47.8	-50.0	14.5	7.00e-07	0	57	0	1239416832	58	4644
2026-01-04 11:27:27.48	332.08	10.29	-47.6	-49.7	14.9	0.00e+00	0	57	0	1247805440	58	4464
2026-01-04 11:27:31.43	332.41	9.98	-47.9	-50.3	14.3	7.00e-07	0	57	0	1255145472	58	4760
2026-01-04 11:27:35.39	332.74	9.68	-47.6	-49.8	14.8	0.00e+00	0	57	0	1262485504	58	4522
2026-01-04 11:27:39.34	333.06	9.38	-47.8	-50.2	14.3	1.50e-06	0	57	0	1269825536	58	4745
2026-01-04 11:27:43.28	333.37	9.09	-47.5	-49.7	14.8	0.00e+00	0	57	0	1277165568	58	4455
2026-01-04 11:27:47.25	333.68	8.80	-47.6	-49.9	14.6	7.00e-07	0	57	0	1284505600	57	4828
2026-01-04 11:27:51.22	333.98	8.51	-47.6	-49.8	14.6	0.00e+00	0	57	0	1291845632	57	4813
2026-01-04 11:27:55.17	334.28	8.22	-47.7	-50.0	14.4	7.00e-07	0	57	0	1299185664	57	4923
2026-01-04 11:27:59.12	334.57	7.93	-48.1	-50.7	13.7	3.00e-06	0	57	0	1306525696	58	4994
2026-01-04 11:28:03.08	334.86	7.65	-48.2	-50.8	13.6	4.50e-06	0	57	0	1313865728	58	5069
2026-01-04 11:28:07.02	335.14	7.37	-48.1	-50.7	13.6	6.10e-06	0	57	0	1321205760	58	5033
2026-01-04 11:28:10.97	335.41	7.10	-48.3	-51.2	13.1	2.51e-05	0	57	0	1328545792	58	5297
2026-01-04 11:28:14.93	335.69	6.82	-48.3	-51.0	13.2	9.90e-06	0	57	0	1335885824	58	5216
2026-01-04 11:28:18.88	335.95	6.55	-48.0	-50.6	13.7	4.50e-06	0	57	0	1343225856	58	4928
2026-01-04 11:28:22.83	336.21	6.28	-48.2	-51.0	13.2	1.44e-05	0	57	0	1351614464	58	5181
2026-01-04 11:28:26.79	336.47	6.01	-48.5	-51.5	12.6	5.03e-05	0	57	0	1358954496	58	5487
2026-01-04 11:28:30.73	336.73	5.75	-48.8	-52.1	11.9	1.71e-04	0	57	0	1366294528	59	5573
2026-01-04 11:28:34.68	336.97	5.49	-49.0	-52.8	11.2	9.10e-04	0	57	0	1373634560	60	5710
2026-01-04 11:28:38.64	337.22	5.23	-49.2	-53.4	10.6	3.60e-03	0	57	0	1380974592	60	6074
2026-01-04 11:28:42.60	337.46	4.97	-51.5	-65.1	3.8	6.58e-01	0	57	104	1387266048	64	18584
2026-01-04 11:28:46.54	337.70	4.71	-51.2	-64.9	3.8	1.49e+00	0	57	104	1387266048	64	18223
2026-01-04 11:28:50.50	337.93	4.46	-52.2	-66.0	3.8	1.49e+00	0	57	104	1387266048	66	18468
2026-01-04 11:28:54.46	338.16	4.21	-52.4	-66.3	3.8	1.49e+00	0	57	104	1387266048	66	18986
2026-01-04 11:28:58.41	338.39	3.96	-52.3	-66.4	3.8	1.49e+00	0	57	104	1387266048	66	19262
2026-01-04 11:29:02.36	338.61	3.71	-52.6	-66.4	3.8	1.49e+00	0	57	104	1387266048	67	18168
2026-01-04 11:29:06.31	338.83	3.46	-52.6	-66.4	3.8	1.49e+00	0	57	104	1387266048	67	18239
2026-01-04 11:29:10.28	339.05	3.22	-52.5	-66.4	3.8	1.49e+00	0	57	104	1387266048	67	18219
2026-01-04 11:29:14.24	339.26	2.97	-52.6	-66.4	3.8	1.49e+00	0	57	104	1387266048	67	18254

#Closed at: 2026-01-04 11:29:16
#Recorded file [1387 MB]: D:/Data/31026_260104_142842.dat