passes_logs/2026/01/04/R3.0SM8_Murmansk_STILSPACE/R3.0SM8_Murmansk_STILSPACE__20260104_031834_NOAA_20_JPSS-1_rec.log

#Pass ID: 20260104_031834_NOAA 20 (JPSS-1)
#Satellite: NOAA 20 (JPSS-1)
#Configuration: NOAA 20
#almurnet v.1.7.20240730
#Start time: 2026-01-04 03:18:34

#Version: 2.2.20231116
#Station: R3.0SM8_Murmansk_STILSPACE
#Location: 33.092731 lon 68.902999 lat
#TLE: 1 43013U 17073A   26003.41800368  .00000169  00000+0  10117-3 0  9998
#TLE: 2 43013  98.7624 304.4804 0001884  56.1176 304.0179 14.19532918421092

#Time	Az	El	Level	Level2	SNR	BER	BlckErr	Temp	State	Recorded	gain1	gain2
2026-01-04 03:18:34.20	39.40	3.00	-52.2	-66.1	3.8	1.49e+00	0	47	0	0	66	18623
2026-01-04 03:18:38.16	39.18	3.25	-52.1	-65.9	3.8	1.49e+00	0	47	104	0	67	17197
2026-01-04 03:18:42.12	38.95	3.49	-51.5	-65.3	3.8	1.49e+00	0	47	104	0	66	16922
2026-01-04 03:18:46.08	38.73	3.74	-51.4	-65.1	3.8	1.49e+00	0	48	104	0	65	17622
2026-01-04 03:18:50.04	38.50	3.98	-51.4	-65.1	3.8	1.49e+00	0	48	104	0	65	17676
2026-01-04 03:18:53.99	38.26	4.23	-51.4	-64.8	3.8	1.49e+00	0	48	104	0	65	16957
2026-01-04 03:18:57.96	38.02	4.48	-51.3	-62.9	3.8	1.49e+00	0	49	104	0	65	13710
2026-01-04 03:19:01.92	37.78	4.74	-50.9	-59.5	5.1	8.01e-01	0	49	0	3145728	64	9753
2026-01-04 03:19:05.87	37.53	4.99	-50.5	-57.2	6.9	1.86e-01	0	49	0	10485760	63	7927
2026-01-04 03:19:09.83	37.27	5.25	-50.4	-56.6	7.5	1.30e-01	0	49	0	17825792	63	7378
2026-01-04 03:19:13.79	37.02	5.51	-50.3	-56.0	8.0	6.00e-02	0	49	0	25165824	63	6959
2026-01-04 03:19:17.76	36.75	5.77	-49.8	-54.4	9.7	1.70e-02	0	49	0	32505856	62	6090
2026-01-04 03:19:21.71	36.48	6.03	-49.1	-52.9	11.2	1.34e-03	0	50	0	39845888	61	5444
2026-01-04 03:19:25.67	36.21	6.29	-48.8	-52.3	11.9	3.49e-04	0	50	0	47185920	60	5362
2026-01-04 03:19:29.61	35.93	6.56	-48.9	-52.3	11.9	3.51e-04	0	50	0	54525952	60	5390
2026-01-04 03:19:33.57	35.65	6.83	-49.1	-52.8	11.4	1.21e-03	0	50	0	61865984	60	5684
2026-01-04 03:19:37.52	35.36	7.10	-49.1	-52.7	11.6	5.64e-04	0	50	0	69206016	60	5612
2026-01-04 03:19:41.48	35.07	7.37	-48.9	-52.3	12.0	7.01e-04	0	51	0	76546048	60	5364
2026-01-04 03:19:45.44	34.76	7.65	-48.6	-51.7	12.6	7.47e-05	0	51	0	83886080	60	5006
2026-01-04 03:19:49.39	34.46	7.93	-48.6	-51.6	12.8	6.33e-05	0	51	0	91226112	60	4948
2026-01-04 03:19:53.35	34.15	8.21	-48.5	-51.5	12.9	4.65e-05	0	51	0	99614720	60	4888
2026-01-04 03:19:57.30	33.83	8.49	-48.6	-51.7	12.8	8.23e-05	0	51	0	106954752	60	4989
2026-01-04 03:20:01.26	33.50	8.77	-48.5	-51.3	13.2	2.67e-05	0	52	0	114294784	59	5094
2026-01-04 03:20:05.22	33.17	9.06	-48.4	-51.2	13.3	1.60e-05	0	51	0	121634816	59	4988
2026-01-04 03:20:09.19	32.83	9.35	-48.5	-51.2	13.3	1.29e-05	0	52	0	128974848	59	5021
2026-01-04 03:20:13.15	32.48	9.64	-48.8	-51.8	12.8	5.41e-05	0	52	0	136314880	59	5347
2026-01-04 03:20:17.11	32.12	9.93	-48.5	-51.4	13.2	2.59e-05	0	52	0	143654912	59	5125
2026-01-04 03:20:21.07	31.76	10.23	-48.8	-51.8	12.8	4.88e-05	0	52	0	150994944	59	5362
2026-01-04 03:20:25.02	31.39	10.53	-48.5	-51.2	13.4	1.37e-05	0	52	0	158334976	59	5019
2026-01-04 03:20:28.96	31.02	10.83	-48.8	-51.7	12.9	2.44e-05	0	53	0	165675008	59	5315
2026-01-04 03:20:32.90	30.63	11.13	-48.1	-50.6	14.0	4.50e-06	0	52	0	173015040	59	4677
2026-01-04 03:20:36.85	30.24	11.43	-48.2	-50.7	14.0	3.00e-06	0	53	0	180355072	59	4735
2026-01-04 03:20:40.80	29.84	11.74	-48.4	-51.0	13.7	3.00e-06	0	53	0	187695104	59	4889
2026-01-04 03:20:44.75	29.43	12.05	-48.7	-51.5	13.2	1.52e-05	0	53	0	195035136	59	5192
2026-01-04 03:20:48.70	29.01	12.36	-48.8	-51.6	13.1	2.05e-05	0	53	0	203423744	59	5246
2026-01-04 03:20:52.65	28.58	12.68	-48.3	-50.9	13.8	1.50e-06	0	53	0	210763776	59	4827
2026-01-04 03:20:56.61	28.14	13.00	-48.4	-51.0	13.7	3.80e-06	0	53	0	218103808	59	4926
2026-01-04 03:21:00.57	27.69	13.32	-48.2	-50.7	14.1	0.00e+00	0	53	0	225443840	59	4709
2026-01-04 03:21:04.52	27.23	13.64	-48.3	-50.9	13.8	4.50e-06	0	53	0	232783872	59	4838
2026-01-04 03:21:08.47	26.76	13.96	-48.7	-51.4	13.3	1.67e-05	0	54	0	240123904	59	5154
2026-01-04 03:21:12.45	26.28	14.29	-48.5	-51.2	13.5	6.80e-06	0	54	0	247463936	59	5024
2026-01-04 03:21:16.39	25.79	14.62	-48.1	-50.5	14.3	0.00e+00	0	54	0	254803968	59	4638
2026-01-04 03:21:20.34	25.29	14.95	-48.3	-50.9	13.9	2.20e-06	0	54	0	262144000	59	4819
2026-01-04 03:21:24.28	24.78	15.28	-48.5	-51.1	13.6	9.10e-06	0	54	0	269484032	59	4981
2026-01-04 03:21:28.24	24.25	15.62	-48.4	-50.9	13.8	1.50e-06	0	54	0	276824064	59	4852
2026-01-04 03:21:32.19	23.71	15.96	-48.1	-50.5	14.3	7.00e-07	0	54	0	284164096	59	4648
2026-01-04 03:21:36.14	23.16	16.30	-48.0	-50.2	14.6	7.00e-07	0	54	0	291504128	59	4466
2026-01-04 03:21:40.09	22.60	16.64	-47.8	-50.0	14.9	0.00e+00	0	54	0	298844160	58	4603
2026-01-04 03:21:44.05	22.02	16.99	-47.9	-50.1	14.7	0.00e+00	0	54	0	306184192	58	4702
2026-01-04 03:21:48.00	21.43	17.33	-48.0	-50.3	14.5	0.00e+00	0	54	0	314572800	58	4792
2026-01-04 03:21:51.97	20.82	17.68	-48.0	-50.3	14.6	0.00e+00	0	54	0	321912832	58	4777
2026-01-04 03:21:55.92	20.20	18.03	-47.5	-49.5	15.3	0.00e+00	0	54	0	329252864	58	4373
2026-01-04 03:21:59.88	19.57	18.38	-47.6	-49.7	15.2	0.00e+00	0	55	0	336592896	58	4442
2026-01-04 03:22:03.85	18.92	18.73	-47.6	-49.7	15.3	0.00e+00	0	55	0	343932928	58	4446
2026-01-04 03:22:07.80	18.25	19.08	-48.0	-50.2	14.8	0.00e+00	0	55	0	351272960	58	4711
2026-01-04 03:22:11.75	17.57	19.44	-48.1	-50.3	14.5	0.00e+00	0	55	0	358612992	58	4807
2026-01-04 03:22:15.69	16.88	19.79	-47.8	-50.0	15.0	0.00e+00	0	55	0	365953024	58	4599
2026-01-04 03:22:19.65	16.17	20.15	-48.0	-50.3	14.6	0.00e+00	0	55	0	373293056	58	4782
2026-01-04 03:22:23.62	15.43	20.50	-47.9	-50.2	14.8	7.00e-07	0	55	0	380633088	58	4709
2026-01-04 03:22:27.56	14.69	20.86	-48.0	-50.1	14.8	0.00e+00	0	55	0	387973120	58	4700
2026-01-04 03:22:31.50	13.93	21.21	-47.9	-50.1	14.9	0.00e+00	0	55	0	395313152	58	4653
2026-01-04 03:22:35.46	13.14	21.56	-47.5	-49.4	15.5	0.00e+00	0	55	0	402653184	57	4598
2026-01-04 03:22:39.42	12.34	21.92	-47.3	-49.3	15.6	0.00e+00	0	55	0	411041792	57	4527
2026-01-04 03:22:43.38	11.52	22.27	-47.4	-49.3	15.6	0.00e+00	0	55	0	418381824	57	4520
2026-01-04 03:22:47.33	10.68	22.62	-47.1	-49.0	15.8	0.00e+00	0	55	0	425721856	57	4350
2026-01-04 03:22:51.30	9.82	22.97	-46.6	-48.3	16.2	0.00e+00	0	55	0	433061888	56	4273
2026-01-04 03:22:55.26	8.94	23.31	-47.6	-50.2	13.8	7.00e-07	0	55	0	440401920	57	4988
2026-01-04 03:22:59.22	8.04	23.66	-48.7	-52.5	11.2	8.32e-04	0	55	0	447741952	59	5798
2026-01-04 03:23:03.19	7.11	24.00	-48.3	-51.3	12.6	2.08e-04	0	56	0	455081984	59	5070
2026-01-04 03:23:07.14	6.18	24.33	-47.6	-49.7	14.8	0.00e+00	0	56	0	462422016	58	4490
2026-01-04 03:23:11.10	5.22	24.66	-46.4	-48.1	16.4	0.00e+00	0	56	0	469762048	55	4436
2026-01-04 03:23:15.05	4.24	24.99	-49.2	-54.3	9.0	7.31e-03	0	56	0	477102080	60	6762
2026-01-04 03:23:18.99	3.24	25.31	-49.1	-52.8	11.2	1.25e-02	0	56	0	484442112	61	5392
2026-01-04 03:23:22.95	2.22	25.63	-48.0	-50.1	14.8	0.00e+00	0	56	0	491782144	59	4428
2026-01-04 03:23:26.90	1.18	25.93	-47.0	-48.8	16.2	0.00e+00	0	56	0	500170752	57	4254
2026-01-04 03:23:30.85	0.12	26.23	-47.0	-48.8	16.2	0.00e+00	0	56	0	506462208	57	4270
2026-01-04 03:23:34.80	359.04	26.53	-47.5	-49.4	15.6	0.00e+00	0	56	0	514850816	57	4585
2026-01-04 03:23:38.73	357.95	26.81	-47.1	-49.0	16.0	0.00e+00	0	56	0	522190848	57	4357
2026-01-04 03:23:42.70	356.82	27.09	-47.2	-49.1	15.9	0.00e+00	0	56	0	529530880	57	4404
2026-01-04 03:23:46.66	355.68	27.35	-47.5	-49.4	15.6	0.00e+00	0	56	0	536870912	57	4559
2026-01-04 03:23:50.61	354.52	27.61	-47.5	-49.5	15.5	0.00e+00	0	56	0	544210944	57	4613
2026-01-04 03:23:54.57	353.34	27.85	-48.0	-50.2	14.8	0.00e+00	0	56	0	551550976	57	5023
2026-01-04 03:23:58.52	352.15	28.09	-47.6	-49.7	15.3	0.00e+00	0	56	0	558891008	57	4728
2026-01-04 03:24:02.48	350.93	28.31	-47.8	-49.8	15.1	0.00e+00	0	56	0	566231040	57	4807
2026-01-04 03:24:06.44	349.70	28.52	-48.0	-50.1	14.9	0.00e+00	0	56	0	573571072	58	4688
2026-01-04 03:24:10.39	348.46	28.71	-48.3	-50.6	14.4	2.20e-06	0	56	0	580911104	58	4971
2026-01-04 03:24:14.35	347.19	28.89	-48.2	-50.5	14.5	7.00e-07	0	56	0	588251136	58	4908
2026-01-04 03:24:18.31	345.92	29.06	-48.2	-50.5	14.5	7.00e-07	0	56	0	595591168	58	4915
2026-01-04 03:24:22.27	344.63	29.21	-48.1	-50.3	14.7	0.00e+00	0	56	0	602931200	58	4813
2026-01-04 03:24:26.23	343.33	29.34	-48.0	-50.1	14.9	0.00e+00	0	56	0	611319808	58	4691
2026-01-04 03:24:30.19	342.02	29.46	-48.2	-50.4	14.6	0.00e+00	0	56	0	618659840	58	4848
2026-01-04 03:24:34.16	340.70	29.57	-48.3	-50.7	14.3	3.00e-06	0	56	0	625999872	58	4994
2026-01-04 03:24:38.12	339.37	29.65	-48.6	-51.2	13.8	2.20e-06	0	56	0	633339904	59	4993
2026-01-04 03:24:42.08	338.03	29.72	-48.5	-50.9	14.1	2.20e-06	0	56	0	640679936	59	4859
2026-01-04 03:24:46.05	336.69	29.77	-48.7	-51.2	13.9	4.50e-06	0	56	0	648019968	59	5022
2026-01-04 03:24:50.01	335.35	29.81	-48.8	-51.5	13.6	9.10e-06	0	56	0	655360000	59	5191
2026-01-04 03:24:53.97	334.00	29.82	-49.0	-51.8	13.2	1.67e-05	0	56	0	662700032	59	5376
2026-01-04 03:24:57.92	332.66	29.82	-48.6	-51.2	13.9	3.80e-06	0	56	0	670040064	60	4730
2026-01-04 03:25:01.88	331.32	29.80	-48.3	-50.7	14.3	7.00e-07	0	56	0	677380096	59	4757
2026-01-04 03:25:05.83	329.98	29.76	-48.5	-50.8	14.2	1.50e-06	0	56	0	684720128	59	4810
2026-01-04 03:25:09.79	328.64	29.71	-48.2	-50.5	14.6	1.50e-06	0	56	0	692060160	59	4618
2026-01-04 03:25:13.75	327.31	29.64	-48.0	-50.2	14.9	7.00e-07	0	56	0	699400192	59	4447
2026-01-04 03:25:17.69	325.99	29.55	-47.9	-50.0	15.1	0.00e+00	0	57	0	707788800	58	4641
2026-01-04 03:25:21.64	324.67	29.44	-48.1	-50.3	14.7	0.00e+00	0	56	0	715128832	58	4806
2026-01-04 03:25:25.60	323.36	29.32	-47.7	-49.7	15.3	0.00e+00	0	56	0	722468864	58	4491
2026-01-04 03:25:29.55	322.07	29.18	-47.7	-49.7	15.4	0.00e+00	0	56	0	729808896	58	4457
2026-01-04 03:25:33.51	320.78	29.03	-47.8	-49.8	15.4	0.00e+00	0	57	0	737148928	58	4510
2026-01-04 03:25:37.47	319.51	28.86	-48.0	-50.1	15.0	0.00e+00	0	56	0	744488960	58	4698
2026-01-04 03:25:41.43	318.25	28.68	-48.3	-50.7	14.4	7.00e-07	0	56	0	751828992	58	4995
2026-01-04 03:25:45.39	317.00	28.48	-48.9	-51.5	13.6	6.80e-06	0	57	0	759169024	59	5173
2026-01-04 03:25:49.32	315.78	28.27	-48.6	-51.1	14.0	3.80e-06	0	56	0	766509056	59	4972
2026-01-04 03:25:53.28	314.57	28.04	-48.5	-51.0	14.1	1.50e-06	0	56	0	773849088	59	4914
2026-01-04 03:25:57.24	313.37	27.81	-48.2	-50.6	14.5	0.00e+00	0	57	0	781189120	59	4652
2026-01-04 03:26:01.20	312.20	27.56	-48.5	-50.9	14.2	7.00e-07	0	56	0	788529152	59	4854
2026-01-04 03:26:05.15	311.04	27.30	-48.7	-51.2	13.8	3.80e-06	0	56	0	795869184	59	5033
2026-01-04 03:26:09.12	309.90	27.03	-48.6	-51.1	13.9	3.00e-06	0	56	0	804257792	59	4965
2026-01-04 03:26:13.09	308.77	26.76	-48.3	-50.7	14.4	0.00e+00	0	56	0	811597824	59	4721
2026-01-04 03:26:17.05	307.67	26.47	-48.3	-50.7	14.4	2.20e-06	0	56	0	818937856	59	4721
2026-01-04 03:26:21.01	306.59	26.17	-48.5	-50.9	14.2	7.00e-07	0	57	0	826277888	59	4852
2026-01-04 03:26:24.96	305.54	25.87	-48.2	-50.4	14.6	0.00e+00	0	57	0	833617920	59	4594
2026-01-04 03:26:28.88	304.51	25.56	-47.8	-49.9	15.2	0.00e+00	0	57	0	840957952	58	4571
2026-01-04 03:26:32.84	303.49	25.25	-47.7	-49.8	15.3	0.00e+00	0	57	0	848297984	58	4499
2026-01-04 03:26:36.79	302.49	24.92	-47.4	-49.2	15.8	0.00e+00	0	57	0	855638016	57	4487
2026-01-04 03:26:40.76	301.51	24.60	-47.3	-49.1	16.0	0.00e+00	0	57	0	862978048	57	4412
2026-01-04 03:26:44.73	300.55	24.26	-47.0	-48.7	16.4	0.00e+00	0	57	0	870318080	57	4209
2026-01-04 03:26:48.69	299.61	23.92	-47.1	-48.9	16.1	0.00e+00	0	57	0	877658112	57	4320
2026-01-04 03:26:52.65	298.70	23.58	-46.5	-48.0	17.0	0.00e+00	0	57	0	884998144	56	4139
2026-01-04 03:26:56.60	297.80	23.24	-46.5	-48.1	17.0	0.00e+00	0	57	0	892338176	56	4153
2026-01-04 03:27:00.56	296.93	22.89	-46.1	-47.5	17.4	0.00e+00	0	57	0	900726784	55	4127
2026-01-04 03:27:04.52	296.07	22.54	-45.9	-47.4	17.5	0.00e+00	0	57	0	908066816	55	4053
2026-01-04 03:27:08.47	295.23	22.19	-45.8	-47.2	17.7	0.00e+00	0	57	0	915406848	54	4223
2026-01-04 03:27:12.43	294.41	21.84	-45.8	-47.1	17.8	0.00e+00	0	57	0	922746880	54	4173
2026-01-04 03:27:16.38	293.61	21.49	-45.7	-47.0	17.8	0.00e+00	0	57	0	930086912	54	4129
2026-01-04 03:27:20.33	292.83	21.13	-46.1	-47.6	17.2	0.00e+00	0	57	0	937426944	54	4397
2026-01-04 03:27:24.28	292.07	20.78	-46.7	-48.5	16.1	0.00e+00	0	57	0	944766976	55	4608
2026-01-04 03:27:28.23	291.33	20.42	-48.1	-50.8	13.6	6.10e-06	0	57	0	952107008	58	5053
2026-01-04 03:27:32.19	290.60	20.07	-49.0	-52.8	11.1	1.22e-03	0	57	0	959447040	59	6050
2026-01-04 03:27:36.14	289.89	19.71	-49.3	-53.8	9.9	7.84e-03	0	57	0	966787072	60	6378
2026-01-04 03:27:40.11	289.19	19.36	-49.9	-55.8	7.6	7.11e-02	0	57	0	974127104	61	7625
2026-01-04 03:27:44.07	288.51	19.00	-49.7	-55.4	8.1	6.09e-02	0	57	0	981467136	61	7209
2026-01-04 03:27:48.03	287.85	18.65	-49.8	-56.8	6.7	1.94e-01	0	57	0	988807168	61	8526
2026-01-04 03:27:51.98	287.20	18.30	-50.2	-57.7	6.0	3.32e-01	0	57	0	996147200	62	8912
2026-01-04 03:27:55.93	286.57	17.95	-50.3	-58.5	5.3	4.82e-01	0	57	0	1004535808	62	9817
2026-01-04 03:27:59.89	285.95	17.60	-50.0	-56.8	6.6	2.49e-01	0	57	0	1011875840	62	8045
2026-01-04 03:28:03.84	285.35	17.25	-49.9	-55.9	7.6	1.21e-01	0	57	0	1019215872	62	7221
2026-01-04 03:28:07.80	284.76	16.90	-49.2	-53.2	10.7	5.52e-03	0	57	0	1026555904	61	5647
2026-01-04 03:28:11.75	284.18	16.56	-48.8	-52.3	12.0	5.61e-04	0	57	0	1033895936	60	5345
2026-01-04 03:28:15.69	283.62	16.22	-48.6	-51.7	12.7	6.71e-05	0	57	0	1041235968	60	4987
2026-01-04 03:28:19.65	283.07	15.88	-48.2	-50.6	13.9	3.80e-06	0	57	0	1048576000	59	4699
2026-01-04 03:28:23.61	282.53	15.54	-48.2	-50.8	13.9	1.50e-06	0	57	0	1055916032	59	4768
2026-01-04 03:28:27.57	282.00	15.20	-48.0	-50.3	14.4	7.00e-07	0	57	0	1063256064	59	4529
2026-01-04 03:28:31.51	281.49	14.87	-47.8	-50.0	14.9	0.00e+00	0	57	0	1070596096	58	4602
2026-01-04 03:28:35.49	280.99	14.53	-47.7	-49.8	15.1	0.00e+00	0	57	0	1077936128	58	4522
2026-01-04 03:28:39.44	280.50	14.21	-47.9	-50.0	14.8	0.00e+00	0	57	0	1085276160	58	4632
2026-01-04 03:28:43.39	280.02	13.88	-47.9	-50.1	14.8	0.00e+00	0	57	0	1092616192	58	4665
2026-01-04 03:28:47.36	279.55	13.55	-48.0	-50.3	14.5	1.50e-06	0	57	0	1101004800	58	4794
2026-01-04 03:28:51.31	279.09	13.23	-48.3	-50.7	14.1	2.20e-06	0	57	0	1108344832	58	5030
2026-01-04 03:28:55.28	278.64	12.91	-48.3	-50.7	14.1	1.50e-06	0	57	0	1115684864	58	5012
2026-01-04 03:28:59.24	278.20	12.59	-48.3	-50.8	14.0	2.20e-06	0	57	0	1123024896	58	5068
2026-01-04 03:29:03.20	277.77	12.28	-48.5	-51.1	13.6	6.80e-06	0	57	0	1130364928	58	5277
2026-01-04 03:29:07.17	277.35	11.96	-48.6	-51.3	13.4	2.67e-05	0	57	0	1137704960	59	5099
2026-01-04 03:29:11.12	276.94	11.65	-48.1	-50.5	14.1	2.20e-06	0	57	0	1145044992	59	4628
2026-01-04 03:29:15.08	276.54	11.34	-48.3	-50.9	13.7	8.30e-06	0	57	0	1152385024	59	4816
2026-01-04 03:29:19.05	276.15	11.04	-48.4	-51.2	13.3	1.06e-05	0	57	0	1159725056	59	5027
2026-01-04 03:29:22.99	275.76	10.74	-48.4	-51.2	13.1	2.89e-05	0	57	0	1167065088	59	4998
2026-01-04 03:29:26.95	275.39	10.44	-48.6	-51.7	12.5	9.99e-05	0	57	0	1174405120	59	5300
2026-01-04 03:29:30.88	275.02	10.14	-48.5	-51.9	12.0	3.11e-04	0	57	0	1181745152	59	5441
2026-01-04 03:29:34.85	274.66	9.84	-48.8	-52.6	11.1	1.31e-03	0	57	0	1189085184	59	5897
2026-01-04 03:29:38.80	274.30	9.55	-49.1	-53.3	10.3	5.13e-03	0	57	0	1197473792	59	6381
2026-01-04 03:29:42.77	273.96	9.26	-49.1	-53.7	9.6	1.12e-02	0	57	0	1204813824	60	6306
2026-01-04 03:29:46.73	273.62	8.97	-48.8	-53.4	9.7	1.10e-02	0	57	0	1212153856	60	6084
2026-01-04 03:29:50.69	273.28	8.68	-48.8	-53.9	8.9	2.56e-02	0	57	0	1219493888	60	6465
2026-01-04 03:29:54.66	272.96	8.40	-48.9	-54.6	8.0	6.82e-02	0	57	0	1226833920	60	6994
2026-01-04 03:29:58.61	272.64	8.12	-48.9	-55.4	7.1	1.33e-01	0	57	0	1234173952	60	7641
2026-01-04 03:30:02.57	272.32	7.84	-48.8	-55.7	6.6	1.98e-01	0	57	0	1241513984	60	7925
2026-01-04 03:30:06.52	272.02	7.56	-48.9	-56.5	5.9	3.72e-01	0	57	0	1248854016	60	8714
2026-01-04 03:30:10.49	271.71	7.28	-48.8	-57.0	5.4	5.00e-01	0	57	0	1256194048	60	9274
2026-01-04 03:30:14.45	271.42	7.01	-48.9	-57.7	5.0	6.86e-01	0	57	0	1263534080	60	9974
2026-01-04 03:30:18.40	271.13	6.74	-49.0	-57.9	4.9	7.34e-01	0	57	0	1270874112	60	10185
2026-01-04 03:30:22.36	270.85	6.47	-48.9	-58.2	4.7	8.90e-01	0	57	0	1278214144	60	10651
2026-01-04 03:30:26.33	270.57	6.21	-49.0	-58.2	4.7	8.79e-01	0	57	0	1285554176	60	10644
2026-01-04 03:30:30.27	270.29	5.94	-49.0	-57.7	5.1	7.40e-01	0	57	0	1293942784	60	9970
2026-01-04 03:30:34.23	270.03	5.68	-49.2	-58.0	4.9	7.62e-01	0	57	0	1301282816	60	10373
2026-01-04 03:30:38.18	269.76	5.42	-49.2	-57.4	5.4	5.33e-01	0	57	0	1308622848	60	9692
2026-01-04 03:30:42.14	269.50	5.16	-49.2	-56.8	5.9	3.41e-01	0	57	0	1315962880	60	9047
2026-01-04 03:30:46.09	269.25	4.91	-51.0	-64.8	3.8	1.49e+00	0	57	104	1319108608	64	18022
2026-01-04 03:30:50.05	269.00	4.65	-52.2	-66.0	3.8	1.49e+00	0	57	104	1319108608	66	18512
2026-01-04 03:30:54.00	268.76	4.40	-52.3	-66.2	3.8	1.49e+00	0	57	104	1319108608	66	18748
2026-01-04 03:30:57.96	268.52	4.15	-52.5	-66.3	3.8	1.49e+00	0	57	104	1319108608	66	18953
2026-01-04 03:31:01.91	268.28	3.90	-52.5	-66.3	3.8	1.49e+00	0	57	104	1319108608	66	19154
2026-01-04 03:31:05.85	268.05	3.65	-52.5	-66.4	3.8	1.49e+00	0	57	104	1319108608	66	19175
2026-01-04 03:31:09.80	267.82	3.41	-52.6	-66.4	3.8	1.49e+00	0	57	104	1319108608	66	19240
2026-01-04 03:31:13.77	267.60	3.16	-52.6	-66.3	3.8	1.49e+00	0	57	104	1319108608	66	19159
2026-01-04 03:31:17.71	267.38	2.92	-52.6	-66.4	3.8	1.49e+00	0	57	104	1319108608	66	19195

#Closed at: 2026-01-04 03:31:18
#Recorded file [1319 MB]: D:/Data/31026_260104_063043.dat