passes_logs/2026/01/04/R3.0SM8_Murmansk_STILSPACE/R3.0SM8_Murmansk_STILSPACE__20260104_154418_FENGYUN_3E_rec.log

#Pass ID: 20260104_154418_FENGYUN 3E
#Satellite: FENGYUN 3E
#Configuration: FENGYUN 3E
#almurnet v.1.7.20240730
#Start time: 2026-01-04 15:44:19

#Version: 2.2.20231116
#Station: R3.0SM8_Murmansk_STILSPACE
#Location: 33.092731 lon 68.902999 lat
#TLE: 1 49008U 21062A   26004.01270550 -.00000256  00000+0 -10014-3 0  9997
#TLE: 2 49008  98.7472   9.2701 0001499 161.2681 198.8551 14.19882497233285

#Time	Az	El	Level	Level2	SNR	BER	BlckErr	Temp	State	Recorded	gain1	gain2
2026-01-04 15:44:19.56	201.03	3.07	-52.3	-62.6	3.8	8.46e-01	0	46	0	0	66	12254
2026-01-04 15:44:23.49	201.27	3.31	-51.7	-61.7	3.8	8.47e-01	0	47	104	0	66	11100
2026-01-04 15:44:27.44	201.52	3.55	-51.3	-61.4	3.8	8.46e-01	0	47	104	0	65	11296
2026-01-04 15:44:31.39	201.77	3.79	-51.3	-61.2	3.8	8.47e-01	0	47	104	0	65	11035
2026-01-04 15:44:35.36	202.03	4.04	-51.4	-61.5	3.8	8.46e-01	0	48	104	0	65	11517
2026-01-04 15:44:39.31	202.29	4.28	-51.0	-59.3	3.8	8.45e-01	0	48	104	0	65	8925
2026-01-04 15:44:43.27	202.55	4.53	-49.3	-52.9	7.5	1.34e-01	0	48	0	9437184	61	5398
2026-01-04 15:44:47.23	202.82	4.78	-47.1	-49.0	11.6	1.24e-03	0	48	0	37748736	57	4324
2026-01-04 15:44:51.19	203.09	5.03	-45.1	-46.3	14.2	0.00e+00	0	49	0	66060288	53	3996
2026-01-04 15:44:55.16	203.37	5.29	-45.0	-46.2	14.4	0.00e+00	0	49	0	95420416	53	3948
2026-01-04 15:44:59.12	203.66	5.54	-44.9	-46.0	14.6	0.00e+00	0	49	0	123731968	52	4088
2026-01-04 15:45:03.08	203.94	5.80	-44.9	-46.1	14.6	0.00e+00	0	49	0	152043520	52	4100
2026-01-04 15:45:07.04	204.24	6.06	-45.7	-47.0	13.6	3.40e-06	0	50	0	180355072	53	4339
2026-01-04 15:45:11.01	204.53	6.32	-45.0	-46.1	14.6	1.10e-06	0	50	0	209715200	52	4138
2026-01-04 15:45:14.97	204.84	6.58	-45.3	-46.5	14.3	2.20e-06	0	50	0	238026752	52	4335
2026-01-04 15:45:18.92	205.14	6.85	-45.3	-46.6	14.3	1.10e-06	0	50	0	266338304	53	4109
2026-01-04 15:45:22.87	205.46	7.11	-44.8	-45.9	15.0	0.00e+00	0	51	0	294649856	52	4032
2026-01-04 15:45:26.84	205.77	7.38	-44.4	-45.4	15.6	0.00e+00	0	51	0	324009984	51	4027
2026-01-04 15:45:30.78	206.10	7.65	-44.1	-45.0	16.0	0.00e+00	0	51	0	352321536	50	4078
2026-01-04 15:45:34.74	206.43	7.93	-44.1	-45.0	16.0	0.00e+00	0	51	0	380633088	50	4060
2026-01-04 15:45:38.68	206.76	8.20	-44.4	-45.4	15.6	0.00e+00	0	51	0	408944640	50	4276
2026-01-04 15:45:42.62	207.10	8.48	-44.1	-45.0	16.0	0.00e+00	0	52	0	437256192	50	4083
2026-01-04 15:45:46.58	207.45	8.76	-43.7	-44.6	16.5	0.00e+00	0	52	0	466616320	50	3885
2026-01-04 15:45:50.54	207.80	9.04	-43.6	-44.4	16.6	0.00e+00	0	52	0	494927872	49	4047
2026-01-04 15:45:54.49	208.17	9.33	-43.4	-44.2	16.8	0.00e+00	0	52	0	523239424	49	3958
2026-01-04 15:45:58.45	208.53	9.61	-43.5	-44.3	16.8	0.00e+00	0	52	0	551550976	49	3965
2026-01-04 15:46:02.42	208.91	9.90	-43.4	-44.2	16.9	0.00e+00	0	52	0	580911104	49	3931
2026-01-04 15:46:06.39	209.29	10.20	-43.3	-44.0	17.1	0.00e+00	0	52	0	609222656	49	3863
2026-01-04 15:46:10.35	209.68	10.49	-43.1	-43.9	17.3	0.00e+00	0	52	0	637534208	48	4020
2026-01-04 15:46:14.31	210.08	10.79	-43.6	-44.4	16.8	0.00e+00	0	53	0	666894336	48	4267
2026-01-04 15:46:18.28	210.49	11.09	-43.2	-44.0	17.2	0.00e+00	0	53	0	695205888	48	4075
2026-01-04 15:46:22.25	210.90	11.39	-43.1	-43.8	17.3	0.00e+00	0	53	0	723517440	48	4001
2026-01-04 15:46:26.21	211.32	11.69	-43.0	-43.7	17.5	0.00e+00	0	53	0	752877568	48	3936
2026-01-04 15:46:30.18	211.75	12.00	-43.1	-43.8	17.4	0.00e+00	0	53	0	781189120	48	3981
2026-01-04 15:46:34.15	212.19	12.31	-43.0	-43.8	17.4	0.00e+00	0	53	0	809500672	48	3976
2026-01-04 15:46:38.12	212.64	12.62	-42.8	-43.5	17.7	0.00e+00	0	53	0	838860800	48	3858
2026-01-04 15:46:42.08	213.10	12.94	-42.9	-43.6	17.7	0.00e+00	0	54	0	867172352	48	3882
2026-01-04 15:46:46.03	213.57	13.25	-43.1	-43.8	17.4	0.00e+00	0	54	0	895483904	48	4004
2026-01-04 15:46:49.99	214.04	13.57	-42.9	-43.7	17.6	0.00e+00	0	54	0	923795456	48	3914
2026-01-04 15:46:53.96	214.53	13.89	-42.7	-43.4	17.9	0.00e+00	0	54	0	953155584	48	3792
2026-01-04 15:46:57.92	215.03	14.22	-42.7	-43.4	17.9	0.00e+00	0	54	0	981467136	48	3811
2026-01-04 15:47:01.89	215.53	14.54	-42.9	-43.7	17.6	0.00e+00	0	54	0	1009778688	48	3920
2026-01-04 15:47:05.86	216.05	14.87	-42.8	-43.5	17.8	0.00e+00	0	54	0	1039138816	48	3866
2026-01-04 15:47:09.81	216.58	15.20	-43.1	-43.8	17.5	0.00e+00	0	54	0	1067450368	48	3983
2026-01-04 15:47:13.76	217.12	15.53	-42.5	-43.1	18.0	0.00e+00	0	54	0	1095761920	47	3905
2026-01-04 15:47:17.72	217.67	15.87	-42.4	-43.0	18.1	0.00e+00	0	54	0	1124073472	47	3862
2026-01-04 15:47:21.68	218.24	16.21	-42.5	-43.1	18.0	0.00e+00	0	54	0	1152385024	47	3909
2026-01-04 15:47:25.66	218.82	16.55	-42.1	-42.8	18.4	0.00e+00	0	54	0	1181745152	47	3742
2026-01-04 15:47:29.59	219.40	16.88	-42.0	-42.6	18.5	0.00e+00	0	55	0	1210056704	47	3686
2026-01-04 15:47:33.55	220.00	17.23	-42.0	-42.6	18.6	0.00e+00	0	55	0	1238368256	46	3879
2026-01-04 15:47:37.52	220.62	17.57	-41.8	-42.4	18.7	0.00e+00	0	55	0	1266679808	46	3807
2026-01-04 15:47:41.46	221.25	17.92	-41.7	-42.3	18.9	0.00e+00	0	55	0	1296039936	46	3746
2026-01-04 15:47:45.42	221.89	18.26	-41.3	-41.9	19.3	0.00e+00	0	55	0	1324351488	45	3811
2026-01-04 15:47:49.37	222.55	18.61	-41.7	-42.3	18.9	0.00e+00	0	55	0	1352663040	45	3994
2026-01-04 15:47:53.32	223.22	18.96	-41.0	-41.6	19.6	0.00e+00	0	55	0	1380974592	45	3668
2026-01-04 15:47:57.28	223.91	19.31	-41.3	-41.9	19.4	0.00e+00	0	55	0	1409286144	44	4011
2026-01-04 15:48:01.22	224.61	19.66	-41.1	-41.7	19.5	0.00e+00	0	55	0	1438646272	44	3927
2026-01-04 15:48:05.20	225.33	20.02	-41.5	-42.1	19.2	0.00e+00	0	55	0	1466957824	44	4111
2026-01-04 15:48:09.16	226.07	20.37	-40.9	-41.4	19.8	0.00e+00	0	55	0	1495269376	44	3799
2026-01-04 15:48:13.11	226.82	20.73	-40.7	-41.2	20.0	0.00e+00	0	55	0	1524629504	44	3704
2026-01-04 15:48:17.07	227.59	21.08	-41.0	-41.5	19.7	0.00e+00	0	55	0	1552941056	44	3850
2026-01-04 15:48:21.03	228.37	21.43	-40.5	-41.0	20.1	0.00e+00	0	56	0	1581252608	43	3863
2026-01-04 15:48:25.00	229.18	21.79	-40.6	-41.2	20.0	0.00e+00	0	56	0	1609564160	43	3920
2026-01-04 15:48:28.94	230.00	22.14	-40.3	-40.8	20.4	0.00e+00	0	56	0	1637875712	43	3738
2026-01-04 15:48:32.88	230.84	22.49	-40.2	-40.7	20.4	0.00e+00	0	56	0	1667235840	43	3728
2026-01-04 15:48:36.84	231.70	22.83	-40.1	-40.6	20.6	0.00e+00	0	56	0	1695547392	43	3669
2026-01-04 15:48:40.80	232.57	23.18	-40.0	-40.5	20.7	0.00e+00	0	56	0	1723858944	42	3837
2026-01-04 15:48:44.77	233.47	23.53	-40.3	-40.7	20.4	0.00e+00	0	56	0	1752170496	42	3957
2026-01-04 15:48:48.73	234.39	23.87	-40.6	-41.1	20.1	0.00e+00	0	56	0	1781530624	42	4114
2026-01-04 15:48:52.69	235.33	24.21	-40.3	-40.8	20.4	0.00e+00	0	56	0	1809842176	43	3748
2026-01-04 15:48:56.63	236.28	24.54	-40.2	-40.7	20.5	0.00e+00	0	56	0	1838153728	43	3705
2026-01-04 15:49:00.59	237.25	24.87	-39.9	-40.4	20.8	0.00e+00	0	56	0	1866465280	42	3792
2026-01-04 15:49:04.55	238.25	25.20	-40.4	-40.9	20.3	0.00e+00	0	56	0	1894776832	42	4009
2026-01-04 15:49:08.51	239.27	25.52	-40.2	-40.7	20.5	0.00e+00	0	56	0	1924136960	42	3939
2026-01-04 15:49:12.48	240.31	25.84	-39.9	-40.4	20.8	0.00e+00	0	56	0	1952448512	42	3789
2026-01-04 15:49:16.44	241.36	26.15	-39.7	-40.2	21.0	0.00e+00	0	56	0	1980760064	42	3722
2026-01-04 15:49:20.38	242.43	26.45	-39.7	-40.2	21.0	0.00e+00	0	56	0	2010120192	42	3718
2026-01-04 15:49:24.33	243.53	26.74	-39.7	-40.1	21.0	0.00e+00	0	56	0	2038431744	42	3688
2026-01-04 15:49:28.27	244.64	27.03	-39.8	-40.2	21.0	0.00e+00	0	56	0	2066743296	42	3730
2026-01-04 15:49:32.22	245.77	27.31	-40.0	-40.5	20.7	0.00e+00	0	57	0	2095054848	42	3844
2026-01-04 15:49:36.17	246.92	27.58	-39.4	-39.9	21.3	0.00e+00	0	57	0	2123366400	41	3792
2026-01-04 15:49:40.12	248.09	27.83	-39.9	-40.3	20.9	0.00e+00	0	57	0	2151677952	41	4000
2026-01-04 15:49:44.09	249.29	28.08	-40.4	-40.9	20.3	0.00e+00	0	57	0	2181038080	42	4032
2026-01-04 15:49:48.04	250.50	28.32	-40.6	-41.1	20.1	0.00e+00	0	57	0	2209349632	42	4116
2026-01-04 15:49:52.01	251.73	28.55	-40.3	-40.8	20.4	0.00e+00	0	57	0	2237661184	43	3751
2026-01-04 15:49:55.95	252.96	28.76	-39.8	-40.3	20.9	0.00e+00	0	57	0	2265972736	42	3744
2026-01-04 15:49:59.92	254.23	28.96	-39.6	-40.1	21.1	0.00e+00	0	57	0	2295332864	42	3672
2026-01-04 15:50:03.87	255.50	29.15	-39.8	-40.3	20.9	0.00e+00	0	57	0	2323644416	42	3741
2026-01-04 15:50:07.83	256.78	29.32	-39.6	-40.1	21.1	0.00e+00	0	57	0	2351955968	42	3658
2026-01-04 15:50:11.79	258.09	29.48	-39.2	-39.6	21.5	0.00e+00	0	56	0	2380267520	41	3679
2026-01-04 15:50:15.75	259.40	29.62	-39.4	-39.9	21.3	0.00e+00	0	57	0	2409627648	41	3790
2026-01-04 15:50:19.70	260.72	29.75	-39.5	-39.9	21.3	0.00e+00	0	57	0	2437939200	41	3806
2026-01-04 15:50:23.66	262.05	29.86	-40.0	-40.5	20.8	0.00e+00	0	57	0	2466250752	41	4054
2026-01-04 15:50:27.61	263.39	29.95	-39.7	-40.1	21.0	0.00e+00	0	57	0	2495610880	41	3893
2026-01-04 15:50:31.58	264.74	30.03	-39.4	-39.8	21.4	0.00e+00	0	57	0	2523922432	41	3776
2026-01-04 15:50:35.54	266.10	30.09	-39.5	-39.9	21.3	0.00e+00	0	57	0	2552233984	41	3819
2026-01-04 15:50:39.50	267.45	30.13	-39.7	-40.2	21.0	0.00e+00	0	57	0	2580545536	41	3947
2026-01-04 15:50:43.46	268.82	30.16	-40.0	-40.5	20.7	0.00e+00	0	57	0	2609905664	41	4058
2026-01-04 15:50:47.41	270.18	30.17	-39.8	-40.3	20.9	0.00e+00	0	57	0	2638217216	41	3963
2026-01-04 15:50:51.37	271.54	30.16	-39.6	-40.0	21.2	0.00e+00	0	57	0	2666528768	41	3864
2026-01-04 15:50:55.33	272.90	30.14	-39.7	-40.1	21.1	0.00e+00	0	57	0	2694840320	41	3902
2026-01-04 15:50:59.30	274.26	30.09	-40.0	-40.5	20.8	0.00e+00	0	57	0	2723151872	41	4062
2026-01-04 15:51:03.26	275.61	30.03	-39.6	-40.1	21.1	0.00e+00	0	57	0	2752512000	41	3895
2026-01-04 15:51:07.22	276.96	29.96	-39.5	-39.9	21.2	0.00e+00	0	57	0	2780823552	41	3822
2026-01-04 15:51:11.18	278.30	29.86	-39.9	-40.4	20.8	0.00e+00	0	57	0	2809135104	41	4018
2026-01-04 15:51:15.13	279.63	29.76	-40.0	-40.4	20.8	0.00e+00	0	57	0	2838495232	41	4042
2026-01-04 15:51:19.11	280.96	29.63	-40.1	-40.6	20.6	0.00e+00	0	57	0	2866806784	42	3878
2026-01-04 15:51:23.06	282.27	29.49	-39.6	-40.0	21.1	0.00e+00	0	57	0	2895118336	41	3867
2026-01-04 15:51:27.02	283.57	29.33	-39.6	-40.1	21.1	0.00e+00	0	57	0	2923429888	41	3886
2026-01-04 15:51:30.97	284.86	29.16	-39.4	-39.8	21.4	0.00e+00	0	57	0	2952790016	41	3755
2026-01-04 15:51:34.93	286.13	28.98	-39.5	-39.9	21.3	0.00e+00	0	57	0	2981101568	41	3806
2026-01-04 15:51:38.87	287.38	28.78	-39.8	-40.3	20.9	0.00e+00	0	57	0	3009413120	41	3974
2026-01-04 15:51:42.83	288.62	28.57	-39.8	-40.3	20.9	0.00e+00	0	57	0	3037724672	41	3984
2026-01-04 15:51:46.79	289.85	28.34	-40.1	-40.6	20.6	0.00e+00	0	57	0	3066036224	42	3885
2026-01-04 15:51:50.75	291.06	28.11	-40.1	-40.6	20.7	0.00e+00	0	57	0	3095396352	42	3876
2026-01-04 15:51:54.70	292.25	27.86	-40.1	-40.6	20.6	0.00e+00	0	57	0	3123707904	42	3894
2026-01-04 15:51:58.66	293.42	27.60	-39.9	-40.4	20.9	0.00e+00	0	57	0	3152019456	42	3790
2026-01-04 15:52:02.64	294.58	27.33	-40.1	-40.6	20.6	0.00e+00	0	57	0	3181379584	42	3907
2026-01-04 15:52:06.59	295.71	27.06	-40.0	-40.4	20.8	0.00e+00	0	57	0	3209691136	42	3824
2026-01-04 15:52:10.56	296.83	26.77	-39.6	-40.0	21.2	0.00e+00	0	58	0	3238002688	42	3651
2026-01-04 15:52:14.52	297.92	26.48	-39.9	-40.4	20.8	0.00e+00	0	57	0	3266314240	42	3803
2026-01-04 15:52:18.47	299.00	26.18	-40.2	-40.7	20.5	0.00e+00	0	57	0	3295674368	42	3930
2026-01-04 15:52:22.44	300.05	25.87	-40.7	-41.2	19.9	0.00e+00	0	57	0	3323985920	43	3947
2026-01-04 15:52:26.39	301.09	25.56	-40.3	-40.8	20.4	0.00e+00	0	58	0	3352297472	43	3739
2026-01-04 15:52:30.33	302.10	25.24	-40.0	-40.5	20.7	0.00e+00	0	57	0	3380609024	42	3836
2026-01-04 15:52:34.29	303.09	24.92	-40.2	-40.7	20.5	0.00e+00	0	58	0	3408920576	42	3947
2026-01-04 15:52:38.24	304.06	24.59	-40.4	-40.9	20.3	0.00e+00	0	57	0	3438280704	42	4009
2026-01-04 15:52:42.19	305.02	24.25	-40.4	-40.9	20.3	0.00e+00	0	57	0	3466592256	43	3815
2026-01-04 15:52:46.14	305.95	23.92	-40.3	-40.8	20.4	0.00e+00	0	57	0	3494903808	43	3754
2026-01-04 15:52:50.09	306.86	23.58	-40.6	-41.1	20.1	0.00e+00	0	58	0	3523215360	43	3889
2026-01-04 15:52:54.06	307.76	23.23	-41.1	-41.6	19.6	0.00e+00	0	58	0	3552575488	43	4115
2026-01-04 15:52:58.01	308.64	22.89	-41.6	-42.2	19.2	0.00e+00	0	58	0	3580887040	44	4148
2026-01-04 15:53:01.97	309.50	22.54	-40.7	-41.2	20.0	0.00e+00	0	58	0	3609198592	44	3730
2026-01-04 15:53:05.93	310.34	22.19	-41.2	-41.7	19.5	0.00e+00	0	58	0	3637510144	44	3948
2026-01-04 15:53:09.90	311.16	21.84	-41.0	-41.6	19.7	0.00e+00	0	58	0	3665821696	44	3882
2026-01-04 15:53:13.86	311.96	21.49	-40.7	-41.2	20.0	0.00e+00	0	58	0	3695181824	44	3734
2026-01-04 15:53:17.82	312.75	21.14	-40.7	-41.2	20.1	0.00e+00	0	58	0	3723493376	44	3716
2026-01-04 15:53:21.78	313.52	20.79	-41.2	-41.8	19.5	0.00e+00	0	58	0	3751804928	44	3973
2026-01-04 15:53:25.74	314.27	20.44	-41.8	-42.4	18.8	0.00e+00	0	58	0	3781165056	45	4050
2026-01-04 15:53:29.68	315.00	20.09	-41.1	-41.7	19.6	0.00e+00	0	58	0	3809476608	45	3719
2026-01-04 15:53:33.63	315.72	19.74	-41.0	-41.6	19.7	0.00e+00	0	58	0	3837788160	44	3884
2026-01-04 15:53:37.58	316.42	19.39	-41.5	-42.1	19.2	0.00e+00	0	58	0	3866099712	44	4101
2026-01-04 15:53:41.54	317.11	19.04	-41.9	-42.5	18.8	0.00e+00	0	58	0	3894411264	45	4070
2026-01-04 15:53:45.48	317.78	18.69	-42.1	-42.7	18.6	0.00e+00	0	58	0	3923771392	46	3945
2026-01-04 15:53:49.43	318.44	18.35	-41.4	-42.0	19.3	0.00e+00	0	58	0	3952082944	45	3847
2026-01-04 15:53:53.39	319.08	18.00	-41.2	-41.8	19.5	0.00e+00	0	58	0	3980394496	45	3744
2026-01-04 15:53:57.35	319.71	17.66	-41.3	-41.9	19.3	0.00e+00	0	58	0	4008706048	45	3786
2026-01-04 15:54:01.31	320.33	17.31	-41.9	-42.5	18.8	0.00e+00	0	58	0	4038066176	45	4079
2026-01-04 15:54:05.28	320.93	16.97	-42.2	-42.8	18.4	0.00e+00	0	58	0	4066377728	46	3990
2026-01-04 15:54:09.23	321.52	16.63	-42.0	-42.7	18.6	0.00e+00	0	58	0	4094689280	46	3920
2026-01-04 15:54:13.19	322.10	16.30	-42.0	-42.6	18.7	0.00e+00	0	58	0	4123000832	46	3873
2026-01-04 15:54:17.14	322.66	15.96	-41.7	-42.3	18.9	0.00e+00	0	58	0	4151312384	46	3741
2026-01-04 15:54:21.09	323.21	15.63	-41.8	-42.4	18.8	0.00e+00	0	58	0	4180672512	46	3796
2026-01-04 15:54:25.04	323.75	15.30	-41.9	-42.5	18.6	0.00e+00	0	58	0	4208984064	46	3865
2026-01-04 15:54:29.00	324.28	14.97	-42.2	-42.8	18.4	0.00e+00	0	58	0	4237295616	46	3975
2026-01-04 15:54:32.95	324.80	14.65	-42.3	-42.9	18.3	0.00e+00	0	58	0	4265607168	46	4028
2026-01-04 15:54:36.89	325.30	14.32	-42.1	-42.8	18.3	0.00e+00	0	58	0	4293918720	46	3967
2026-01-04 15:54:40.85	325.80	14.00	-42.4	-43.1	18.1	0.00e+00	0	58	0	4323278848	46	4105
2026-01-04 15:54:44.80	326.29	13.68	-42.1	-42.8	18.3	0.00e+00	0	58	0	4351590400	46	3980
2026-01-04 15:54:48.75	326.76	13.37	-42.5	-43.2	17.8	0.00e+00	0	58	0	4379901952	46	4180
2026-01-04 15:54:52.70	327.23	13.05	-42.5	-43.2	17.7	0.00e+00	0	58	0	4408213504	46	4164
2026-01-04 15:54:56.66	327.69	12.74	-42.7	-43.5	17.5	0.00e+00	0	58	0	4437573632	47	4054
2026-01-04 15:55:00.61	328.14	12.43	-42.9	-43.6	17.3	0.00e+00	0	58	0	4465885184	47	4131
2026-01-04 15:55:04.57	328.58	12.13	-43.0	-43.7	17.4	0.00e+00	0	58	0	4494196736	47	4187
2026-01-04 15:55:08.53	329.01	11.82	-43.5	-44.2	17.1	0.00e+00	0	58	0	4522508288	48	4181
2026-01-04 15:55:12.48	329.43	11.52	-43.2	-44.0	17.2	0.00e+00	0	58	0	4550819840	48	4060
2026-01-04 15:55:16.43	329.85	11.22	-43.4	-44.2	17.0	0.00e+00	0	58	0	4580179968	48	4192
2026-01-04 15:55:20.39	330.25	10.92	-43.5	-44.3	16.8	0.00e+00	0	58	0	4608491520	48	4221
2026-01-04 15:55:24.35	330.65	10.63	-43.5	-44.3	16.9	0.00e+00	0	58	0	4636803072	49	3965
2026-01-04 15:55:28.30	331.04	10.33	-43.4	-44.2	16.9	0.00e+00	0	58	0	4665114624	49	3930
2026-01-04 15:55:32.25	331.43	10.04	-43.4	-44.2	16.9	0.00e+00	0	58	0	4693426176	49	3957
2026-01-04 15:55:36.19	331.80	9.76	-43.8	-44.6	16.5	0.00e+00	0	58	0	4722786304	49	4139
2026-01-04 15:55:40.16	332.17	9.47	-44.0	-44.9	16.0	0.00e+00	0	58	0	4751097856	49	4247
2026-01-04 15:55:44.11	332.54	9.19	-44.2	-45.1	16.0	0.00e+00	0	58	0	4779409408	50	4137
2026-01-04 15:55:48.07	332.89	8.91	-44.1	-45.0	16.0	0.00e+00	0	58	0	4808769536	50	4084
2026-01-04 15:55:52.03	333.24	8.63	-44.0	-44.8	16.2	0.00e+00	0	58	0	4837081088	50	4002
2026-01-04 15:55:55.99	333.59	8.35	-44.1	-45.0	16.0	0.00e+00	0	58	0	4865392640	50	4068
2026-01-04 15:55:59.95	333.93	8.07	-44.3	-45.2	15.8	0.00e+00	0	58	0	4893704192	50	4179
2026-01-04 15:56:03.90	334.26	7.80	-44.4	-45.3	15.7	0.00e+00	0	58	0	4922015744	50	4234
2026-01-04 15:56:07.86	334.58	7.53	-44.4	-45.4	15.5	0.00e+00	0	58	0	4951375872	50	4252
2026-01-04 15:56:11.82	334.91	7.26	-44.6	-45.6	15.2	0.00e+00	0	58	0	4979687424	50	4390
2026-01-04 15:56:15.78	335.22	7.00	-44.3	-45.3	15.5	0.00e+00	0	58	0	5007998976	51	3981
2026-01-04 15:56:19.75	335.53	6.73	-44.3	-45.3	15.5	0.00e+00	0	58	0	5036310528	51	3987
2026-01-04 15:56:23.71	335.84	6.47	-44.9	-46.0	14.7	0.00e+00	0	58	0	5065670656	51	4319
2026-01-04 15:56:27.69	336.14	6.21	-45.0	-46.2	14.5	1.10e-06	0	58	0	5093982208	51	4418
2026-01-04 15:56:31.62	336.43	5.95	-45.0	-46.2	14.4	0.00e+00	0	58	0	5122293760	51	4402
2026-01-04 15:56:35.57	336.72	5.70	-44.7	-45.8	14.8	1.10e-06	0	58	0	5151653888	51	4240
2026-01-04 15:56:39.53	337.01	5.44	-44.8	-45.9	14.6	0.00e+00	0	58	0	5179965440	51	4283
2026-01-04 15:56:43.49	337.29	5.19	-45.1	-46.3	14.2	3.40e-06	0	58	0	5208276992	51	4464
2026-01-04 15:56:47.44	337.56	4.94	-51.3	-60.7	3.8	8.45e-01	0	58	104	5227151360	64	11079
2026-01-04 15:56:51.41	337.83	4.69	-51.8	-62.1	3.8	8.46e-01	0	58	104	5227151360	65	12301
2026-01-04 15:56:55.36	338.10	4.45	-52.5	-62.6	3.8	8.46e-01	0	58	104	5227151360	66	12365
2026-01-04 15:56:59.29	338.36	4.20	-52.5	-62.7	3.8	8.44e-01	0	58	104	5227151360	66	12490
2026-01-04 15:57:03.24	338.62	3.96	-52.6	-62.8	3.8	8.47e-01	0	58	104	5227151360	66	12631
2026-01-04 15:57:07.22	338.88	3.72	-52.7	-62.9	3.8	8.46e-01	0	58	104	5227151360	67	12004
2026-01-04 15:57:11.17	339.13	3.48	-52.7	-62.9	3.8	8.46e-01	0	58	104	5227151360	67	12065
2026-01-04 15:57:15.12	339.38	3.24	-52.6	-62.8	3.8	8.44e-01	0	58	104	5227151360	66	12525
2026-01-04 15:57:19.09	339.62	3.00	-52.6	-62.8	3.8	8.45e-01	0	58	104	5227151360	66	12542

#Closed at: 2026-01-04 15:57:21
#Recorded file [5227 MB]: D:/Data/31026_260104_185646.dat