passes_logs/2026/01/04/R3.0SM8_Murmansk_STILSPACE/R3.0SM8_Murmansk_STILSPACE__20260104_122844_NOAA_21_JPSS-2_rec.log

#Pass ID: 20260104_122844_NOAA 21 (JPSS-2)
#Satellite: NOAA 21 (JPSS-2)
#Configuration: NOAA-21
#almurnet v.1.7.20240730
#Start time: 2026-01-04 12:36:40

#Version: 2.2.20231116
#Station: R3.0SM8_Murmansk_STILSPACE
#Location: 33.092731 lon 68.902999 lat
#TLE: 1 54234U 22150A   26003.45311712  .00000198  00000+0  11468-3 0  9993
#TLE: 2 54234  98.7487 304.4932 0001159 347.5017  12.6130 14.19531745163172

#Time	Az	El	Level	Level2	SNR	BER	BlckErr	Temp	State	Recorded	gain1	gain2
2026-01-04 12:36:40.68	312.96	13.48	-52.7	-62.9	3.8	8.47e-01	0	57	0	0	67	12053
2026-01-04 12:36:41.67	313.14	13.43	-52.9	-64.4	3.8	1.49e+00	0	57	104	0	68	13689
2026-01-04 12:36:42.66	313.32	13.39	-52.8	-64.4	3.8	1.49e+00	0	58	104	0	68	13709
2026-01-04 12:36:43.64	313.49	13.35	-52.8	-64.4	3.8	1.49e+00	0	57	104	0	68	13653
2026-01-04 12:36:44.63	313.67	13.30	-52.8	-64.4	3.8	1.49e+00	0	57	104	0	68	13645
2026-01-04 12:36:45.63	313.85	13.26	-52.7	-64.4	3.8	1.49e+00	0	57	104	0	68	13612
2026-01-04 12:36:46.61	314.02	13.21	-52.8	-64.4	3.8	1.49e+00	0	57	104	0	68	13633
2026-01-04 12:36:47.59	314.19	13.17	-52.8	-64.4	3.8	1.49e+00	0	57	104	0	68	13640
2026-01-04 12:36:48.59	314.37	13.12	-52.9	-64.4	3.8	1.49e+00	0	57	104	0	68	13661
2026-01-04 12:36:49.58	314.54	13.08	-52.9	-64.5	3.8	1.49e+00	0	57	104	0	68	13730
2026-01-04 12:36:50.58	314.72	13.03	-52.9	-64.4	3.8	1.49e+00	0	57	104	0	68	13678
2026-01-04 12:36:51.56	314.89	12.99	-52.8	-64.4	3.8	1.49e+00	0	57	104	0	68	13695
2026-01-04 12:36:52.56	315.06	12.94	-52.8	-64.4	3.8	1.49e+00	0	57	104	0	68	13643
2026-01-04 12:36:53.55	315.23	12.90	-52.7	-64.4	3.8	1.49e+00	0	58	104	0	68	13658
2026-01-04 12:36:54.54	315.41	12.85	-52.8	-64.4	3.8	1.49e+00	0	57	104	0	68	13695
2026-01-04 12:36:55.54	315.58	12.80	-52.8	-64.4	3.8	1.49e+00	0	57	104	0	68	13664
2026-01-04 12:36:56.53	315.75	12.76	-52.9	-64.5	3.8	1.49e+00	0	57	104	0	68	13756
2026-01-04 12:36:57.52	315.92	12.71	-52.9	-64.4	3.8	1.49e+00	0	57	104	0	68	13676
2026-01-04 12:36:58.51	316.09	12.67	-52.8	-64.4	3.8	1.49e+00	0	57	104	0	68	13705
2026-01-04 12:36:59.50	316.26	12.62	-52.9	-64.4	3.8	1.49e+00	0	57	104	0	68	13687
2026-01-04 12:37:00.49	316.42	12.57	-52.8	-64.4	3.8	1.49e+00	0	58	104	0	68	13669
2026-01-04 12:37:01.47	316.59	12.53	-52.7	-64.4	3.8	1.49e+00	0	57	104	0	68	13645
2026-01-04 12:37:02.47	316.76	12.48	-52.8	-64.4	3.8	1.49e+00	0	57	104	0	68	13663
2026-01-04 12:37:03.46	316.93	12.43	-52.8	-64.4	3.8	1.49e+00	0	57	104	0	68	13620
2026-01-04 12:37:04.45	317.09	12.38	-52.8	-64.4	3.8	1.49e+00	0	57	104	0	68	13611
2026-01-04 12:37:05.44	317.26	12.34	-52.8	-64.4	3.8	1.49e+00	0	57	104	0	68	13603
2026-01-04 12:37:06.43	317.42	12.29	-52.8	-64.4	3.8	1.49e+00	0	58	104	0	68	13595
2026-01-04 12:37:07.42	317.59	12.24	-52.7	-64.4	3.8	1.49e+00	0	57	104	0	68	13608
2026-01-04 12:37:08.41	317.75	12.19	-52.8	-64.4	3.8	1.49e+00	0	58	104	0	68	13574
2026-01-04 12:37:09.41	317.92	12.15	-52.9	-64.3	3.8	1.49e+00	0	57	104	0	68	13516
2026-01-04 12:37:10.40	318.08	12.10	-52.9	-64.3	3.8	1.49e+00	0	58	104	0	68	13510
2026-01-04 12:37:11.39	318.24	12.05	-52.7	-64.3	3.8	1.49e+00	0	58	104	0	68	13479
2026-01-04 12:37:12.38	318.40	12.00	-52.7	-64.3	3.8	1.49e+00	0	57	104	0	68	13464
2026-01-04 12:37:13.37	318.56	11.95	-52.7	-64.3	3.8	1.49e+00	0	58	104	0	68	13435
2026-01-04 12:37:14.36	318.73	11.91	-52.6	-64.2	3.8	1.49e+00	0	57	104	0	68	13394
2026-01-04 12:37:15.36	318.89	11.86	-52.6	-64.2	3.8	1.49e+00	0	57	104	0	68	13335
2026-01-04 12:37:16.35	319.05	11.81	-52.4	-64.1	3.8	1.49e+00	0	58	104	0	68	13233
2026-01-04 12:37:17.34	319.21	11.76	-52.5	-64.0	3.8	1.49e+00	0	57	104	0	68	13077
2026-01-04 12:37:18.32	319.36	11.71	-52.4	-63.9	3.8	1.49e+00	0	58	104	0	67	13633
2026-01-04 12:37:19.31	319.52	11.66	-52.2	-63.5	3.8	1.49e+00	0	58	104	0	67	13035
2026-01-04 12:37:20.31	319.68	11.61	-52.0	-63.5	3.8	1.49e+00	0	58	104	0	67	13030
2026-01-04 12:37:21.30	319.84	11.57	-52.1	-62.9	3.8	1.49e+00	0	57	104	0	67	12225
2026-01-04 12:37:22.30	320.00	11.52	-52.0	-62.6	3.8	1.49e+00	0	57	104	0	67	11800
2026-01-04 12:37:23.28	320.15	11.47	-51.9	-62.6	3.8	1.49e+00	0	57	104	0	67	11692
2026-01-04 12:37:24.26	320.31	11.42	-52.0	-62.9	3.8	1.49e+00	0	57	104	0	67	12160
2026-01-04 12:37:25.25	320.46	11.37	-52.1	-63.4	3.8	1.49e+00	0	57	104	0	67	12909
2026-01-04 12:37:26.25	320.62	11.32	-52.2	-63.6	3.8	1.49e+00	0	58	104	0	67	13250
2026-01-04 12:37:27.23	320.77	11.27	-52.1	-62.8	3.8	1.49e+00	0	58	104	0	67	11980
2026-01-04 12:37:28.20	320.92	11.22	-51.7	-60.5	3.9	1.48e+00	0	57	104	0	66	9830
2026-01-04 12:37:29.19	321.08	11.17	-51.1	-57.2	5.5	6.30e-01	0	58	0	0	65	7069
2026-01-04 12:37:30.18	321.23	11.12	-50.4	-54.9	7.5	1.33e-01	0	57	0	3145728	64	5731
2026-01-04 12:37:31.16	321.38	11.07	-49.6	-52.8	9.7	2.71e-02	0	58	0	6291456	62	5083
2026-01-04 12:37:32.15	321.53	11.02	-48.6	-51.0	11.5	1.99e-03	0	57	0	9437184	60	4645
2026-01-04 12:37:33.14	321.68	10.97	-47.8	-49.8	12.9	1.09e-04	0	57	0	12582912	58	4498
2026-01-04 12:37:34.13	321.83	10.92	-47.1	-48.7	13.9	4.50e-06	0	57	0	15728640	57	4237
2026-01-04 12:37:35.12	321.98	10.87	-46.7	-48.3	14.4	2.20e-06	0	57	0	18874368	56	4260
2026-01-04 12:37:36.11	322.13	10.82	-46.8	-48.3	14.3	1.50e-06	0	57	0	22020096	56	4267
2026-01-04 12:37:37.10	322.28	10.77	-46.9	-48.5	14.1	1.50e-06	0	57	0	25165824	56	4389
2026-01-04 12:37:38.08	322.43	10.72	-46.8	-48.4	14.2	7.00e-07	0	58	0	28311552	56	4316
2026-01-04 12:37:39.07	322.58	10.67	-46.8	-48.3	14.3	3.00e-06	0	58	0	31457280	56	4286
2026-01-04 12:37:40.06	322.73	10.62	-46.8	-48.4	14.3	7.00e-07	0	58	0	34603008	56	4298
2026-01-04 12:37:41.05	322.87	10.57	-46.8	-48.4	14.3	7.00e-07	0	57	0	37748736	56	4301
2026-01-04 12:37:42.04	323.02	10.52	-47.0	-48.7	14.0	2.20e-06	0	57	0	40894464	56	4461
2026-01-04 12:37:43.03	323.17	10.47	-46.7	-48.2	14.4	7.00e-07	0	57	0	42991616	56	4237
2026-01-04 12:37:44.01	323.31	10.42	-46.4	-47.9	14.7	0.00e+00	0	57	0	46137344	56	4079
2026-01-04 12:37:45.00	323.46	10.37	-46.1	-47.5	15.0	0.00e+00	0	58	0	49283072	55	4138
2026-01-04 12:37:45.99	323.60	10.32	-45.9	-47.3	15.2	0.00e+00	0	58	0	52428800	55	4011
2026-01-04 12:37:46.98	323.75	10.27	-45.8	-47.1	15.4	0.00e+00	0	57	0	55574528	54	4181
2026-01-04 12:37:47.97	323.89	10.22	-45.8	-47.1	15.4	0.00e+00	0	58	0	58720256	54	4185
2026-01-04 12:37:48.97	324.04	10.17	-45.9	-47.2	15.3	0.00e+00	0	57	0	61865984	54	4212
2026-01-04 12:37:49.96	324.18	10.12	-45.8	-47.1	15.4	0.00e+00	0	57	0	65011712	54	4187
2026-01-04 12:37:50.94	324.32	10.07	-45.9	-47.2	15.3	0.00e+00	0	57	0	68157440	54	4241
2026-01-04 12:37:51.93	324.46	10.01	-45.8	-47.1	15.4	0.00e+00	0	57	0	71303168	54	4163
2026-01-04 12:37:52.93	324.60	9.96	-45.8	-47.1	15.4	0.00e+00	0	57	0	74448896	54	4168
2026-01-04 12:37:53.91	324.74	9.91	-45.9	-47.2	15.3	0.00e+00	0	57	0	77594624	54	4221
2026-01-04 12:37:54.90	324.88	9.86	-45.8	-47.1	15.4	0.00e+00	0	58	0	80740352	54	4168
2026-01-04 12:37:55.89	325.02	9.81	-46.0	-47.3	15.2	0.00e+00	0	57	0	83886080	54	4256
2026-01-04 12:37:56.87	325.16	9.76	-45.9	-47.2	15.2	0.00e+00	0	57	0	87031808	54	4241
2026-01-04 12:37:57.86	325.30	9.71	-46.0	-47.4	15.1	7.00e-07	0	57	0	90177536	54	4308
2026-01-04 12:37:58.85	325.44	9.66	-46.0	-47.3	15.2	0.00e+00	0	57	0	93323264	54	4271
2026-01-04 12:37:59.85	325.58	9.60	-45.9	-47.2	15.2	0.00e+00	0	57	0	96468992	54	4235
2026-01-04 12:38:00.83	325.72	9.55	-45.8	-47.2	15.3	0.00e+00	0	57	0	98566144	54	4205
2026-01-04 12:38:01.82	325.85	9.50	-46.0	-47.4	15.1	0.00e+00	0	57	0	101711872	54	4292
2026-01-04 12:38:02.81	325.99	9.45	-45.9	-47.3	15.1	0.00e+00	0	57	0	104857600	54	4277
2026-01-04 12:38:03.81	326.13	9.40	-46.2	-47.6	14.8	0.00e+00	0	57	0	108003328	54	4425
2026-01-04 12:38:04.80	326.27	9.35	-46.1	-47.5	15.0	0.00e+00	0	57	0	111149056	54	4347
2026-01-04 12:38:05.79	326.40	9.30	-46.0	-47.4	15.1	0.00e+00	0	57	0	114294784	54	4312
2026-01-04 12:38:06.78	326.54	9.24	-46.0	-47.4	15.1	0.00e+00	0	57	0	117440512	54	4319
2026-01-04 12:38:07.76	326.67	9.19	-46.1	-47.5	14.9	0.00e+00	0	57	0	120586240	54	4377
2026-01-04 12:38:08.75	326.80	9.14	-46.3	-47.7	14.7	0.00e+00	0	57	0	123731968	54	4478
2026-01-04 12:38:09.74	326.94	9.09	-46.3	-47.7	14.8	7.00e-07	0	57	0	126877696	54	4449
2026-01-04 12:38:10.74	327.07	9.04	-46.3	-47.8	14.6	0.00e+00	0	57	0	130023424	54	4524
2026-01-04 12:38:11.72	327.20	8.99	-46.6	-48.1	14.3	7.00e-07	0	57	0	133169152	54	4682
2026-01-04 12:38:12.71	327.33	8.93	-46.5	-48.0	14.4	0.00e+00	0	57	0	136314880	55	4365
2026-01-04 12:38:13.70	327.47	8.88	-46.6	-48.1	14.4	7.00e-07	0	57	0	139460608	55	4400
2026-01-04 12:38:14.68	327.60	8.83	-46.8	-48.5	13.9	1.50e-06	0	57	0	142606336	55	4619
2026-01-04 12:38:15.67	327.73	8.78	-46.8	-48.4	14.0	3.80e-06	0	57	0	145752064	55	4583
2026-01-04 12:38:16.66	327.86	8.73	-46.6	-48.2	14.2	3.00e-06	0	57	0	148897792	55	4470
2026-01-04 12:38:17.65	327.99	8.68	-46.6	-48.1	14.3	2.20e-06	0	57	0	152043520	55	4438
2026-01-04 12:38:18.64	328.12	8.62	-46.6	-48.2	14.2	7.00e-07	0	57	0	155189248	55	4455
2026-01-04 12:38:19.63	328.25	8.57	-46.6	-48.2	14.2	7.00e-07	0	57	0	157286400	55	4459
2026-01-04 12:38:20.62	328.38	8.52	-46.8	-48.4	14.0	3.00e-06	0	57	0	160432128	55	4564
2026-01-04 12:38:21.61	328.50	8.47	-46.7	-48.3	14.1	3.80e-06	0	57	0	163577856	55	4539
2026-01-04 12:38:22.60	328.63	8.42	-46.4	-48.0	14.4	3.00e-06	0	57	0	166723584	55	4366
2026-01-04 12:38:23.60	328.76	8.36	-46.4	-47.8	14.5	0.00e+00	0	57	0	169869312	55	4289
2026-01-04 12:38:24.59	328.89	8.31	-46.4	-48.0	14.4	0.00e+00	0	57	0	173015040	55	4342
2026-01-04 12:38:25.57	329.01	8.26	-46.6	-48.2	14.1	1.50e-06	0	57	0	176160768	55	4483
2026-01-04 12:38:26.56	329.14	8.21	-46.6	-48.2	14.1	0.00e+00	0	57	0	179306496	55	4476
2026-01-04 12:38:27.55	329.26	8.16	-46.5	-48.1	14.2	0.00e+00	0	57	0	182452224	55	4429
2026-01-04 12:38:28.54	329.39	8.10	-46.6	-48.1	14.2	7.00e-07	0	57	0	185597952	55	4439
2026-01-04 12:38:29.52	329.51	8.05	-46.6	-48.2	14.1	0.00e+00	0	57	0	188743680	55	4486
2026-01-04 12:38:30.52	329.64	8.00	-46.7	-48.3	14.0	3.80e-06	0	57	0	191889408	55	4543
2026-01-04 12:38:31.50	329.76	7.95	-46.8	-48.4	13.9	5.30e-06	0	57	0	195035136	55	4598
2026-01-04 12:38:32.50	329.89	7.90	-46.6	-48.2	14.1	4.50e-06	0	57	0	198180864	55	4489
2026-01-04 12:38:33.48	330.01	7.85	-46.6	-48.3	14.0	7.00e-07	0	57	0	201326592	55	4501
2026-01-04 12:38:34.48	330.13	7.79	-46.5	-48.0	14.3	2.20e-06	0	57	0	204472320	55	4383
2026-01-04 12:38:35.47	330.25	7.74	-46.8	-48.5	13.8	6.10e-06	0	57	0	207618048	55	4620
2026-01-04 12:38:36.45	330.38	7.69	-46.9	-48.7	13.6	9.10e-06	0	57	0	210763776	55	4725
2026-01-04 12:38:37.44	330.50	7.64	-46.9	-48.6	13.7	5.30e-06	0	57	0	213909504	55	4680
2026-01-04 12:38:38.43	330.62	7.58	-47.1	-48.9	13.5	9.10e-06	0	57	0	216006656	56	4560
2026-01-04 12:38:39.42	330.74	7.53	-47.0	-48.7	13.7	3.80e-06	0	57	0	219152384	56	4476
2026-01-04 12:38:40.41	330.86	7.48	-47.1	-48.9	13.4	1.37e-05	0	57	0	222298112	56	4592
2026-01-04 12:38:41.40	330.98	7.43	-47.1	-49.0	13.4	1.29e-05	0	57	0	225443840	56	4614
2026-01-04 12:38:42.39	331.10	7.38	-47.2	-49.1	13.3	1.98e-05	0	57	0	228589568	56	4668
2026-01-04 12:38:43.38	331.22	7.32	-47.3	-49.1	13.3	2.21e-05	0	57	0	231735296	56	4668
2026-01-04 12:38:44.37	331.34	7.27	-47.2	-49.0	13.4	1.37e-05	0	57	0	234881024	56	4616
2026-01-04 12:38:45.37	331.46	7.22	-47.1	-48.8	13.5	1.29e-05	0	57	0	238026752	56	4515
2026-01-04 12:38:46.36	331.57	7.17	-47.1	-48.8	13.5	1.29e-05	0	57	0	241172480	56	4534
2026-01-04 12:38:47.35	331.69	7.12	-46.8	-48.5	13.7	7.60e-06	0	57	0	244318208	56	4386
2026-01-04 12:38:48.35	331.81	7.06	-46.8	-48.5	13.8	3.80e-06	0	57	0	247463936	56	4372
2026-01-04 12:38:49.34	331.93	7.01	-46.9	-48.5	13.7	3.80e-06	0	57	0	250609664	56	4389
2026-01-04 12:38:50.33	332.04	6.96	-46.8	-48.5	13.8	3.00e-06	0	57	0	253755392	56	4363
2026-01-04 12:38:51.32	332.16	6.91	-47.0	-48.7	13.6	8.30e-06	0	57	0	256901120	56	4483
2026-01-04 12:38:52.31	332.27	6.86	-46.8	-48.5	13.7	5.30e-06	0	57	0	260046848	56	4382
2026-01-04 12:38:53.30	332.39	6.80	-46.8	-48.5	13.8	5.30e-06	0	57	0	263192576	56	4363
2026-01-04 12:38:54.28	332.50	6.75	-46.9	-48.7	13.5	1.06e-05	0	57	0	266338304	56	4467
2026-01-04 12:38:55.28	332.62	6.70	-46.7	-48.3	13.9	3.00e-06	0	57	0	269484032	56	4278
2026-01-04 12:38:56.27	332.73	6.65	-46.7	-48.4	13.9	4.50e-06	0	57	0	272629760	56	4320
2026-01-04 12:38:57.25	332.84	6.60	-46.9	-48.6	13.6	9.90e-06	0	57	0	275775488	56	4421
2026-01-04 12:38:58.25	332.96	6.54	-46.7	-48.3	13.9	4.50e-06	0	57	0	278921216	56	4291
2026-01-04 12:38:59.23	333.07	6.49	-46.8	-48.5	13.8	4.50e-06	0	57	0	281018368	56	4351
2026-01-04 12:39:00.22	333.18	6.44	-46.8	-48.5	13.7	9.10e-06	0	57	0	284164096	56	4357
2026-01-04 12:39:01.20	333.29	6.39	-47.1	-48.9	13.3	1.29e-05	0	57	0	287309824	56	4585
2026-01-04 12:39:02.19	333.40	6.34	-47.1	-48.9	13.2	2.59e-05	0	57	0	290455552	56	4590
2026-01-04 12:39:03.18	333.51	6.29	-47.0	-48.8	13.4	1.67e-05	0	57	0	293601280	56	4505
2026-01-04 12:39:04.18	333.63	6.23	-47.3	-49.2	13.0	1.90e-05	0	57	0	296747008	56	4728
2026-01-04 12:39:05.16	333.74	6.18	-47.4	-49.4	12.8	8.23e-05	0	57	0	299892736	56	4834
2026-01-04 12:39:06.15	333.85	6.13	-47.3	-49.2	13.0	3.20e-05	0	57	0	303038464	56	4722
2026-01-04 12:39:07.14	333.95	6.08	-47.4	-49.3	12.8	4.88e-05	0	57	0	306184192	56	4804
2026-01-04 12:39:08.13	334.06	6.03	-47.2	-49.0	13.1	4.04e-05	0	57	0	309329920	56	4650
2026-01-04 12:39:09.12	334.17	5.98	-47.4	-49.4	12.8	4.73e-05	0	57	0	312475648	56	4839
2026-01-04 12:39:10.12	334.28	5.92	-47.2	-49.1	13.0	3.35e-05	0	58	0	315621376	56	4679
2026-01-04 12:39:11.11	334.39	5.87	-47.3	-49.3	12.8	6.02e-05	0	57	0	318767104	56	4786
2026-01-04 12:39:12.09	334.50	5.82	-47.1	-49.0	13.1	2.44e-05	0	57	0	321912832	56	4614
2026-01-04 12:39:13.08	334.61	5.77	-47.1	-49.0	13.1	3.20e-05	0	57	0	325058560	56	4618
2026-01-04 12:39:14.07	334.71	5.72	-47.3	-49.2	12.9	3.96e-05	0	57	0	328204288	56	4758
2026-01-04 12:39:15.06	334.82	5.67	-47.1	-49.0	13.1	3.81e-05	0	57	0	331350016	56	4610
2026-01-04 12:39:16.05	334.93	5.62	-46.9	-48.7	13.3	1.60e-05	0	57	0	334495744	56	4493
2026-01-04 12:39:17.04	335.03	5.56	-46.8	-48.7	13.4	2.67e-05	0	57	0	337641472	56	4470
2026-01-04 12:39:18.02	335.14	5.51	-46.9	-48.7	13.4	1.52e-05	0	57	0	339738624	56	4469
2026-01-04 12:39:19.01	335.24	5.46	-47.0	-48.9	13.2	2.82e-05	0	57	0	342884352	56	4547
2026-01-04 12:39:20.00	335.35	5.41	-47.1	-48.9	13.1	2.59e-05	0	57	0	346030080	56	4588
2026-01-04 12:39:20.99	335.45	5.36	-47.0	-48.9	13.1	1.83e-05	0	57	0	349175808	56	4577
2026-01-04 12:39:21.97	335.55	5.31	-47.1	-49.1	12.9	5.41e-05	0	57	0	352321536	56	4658
2026-01-04 12:39:22.96	335.66	5.26	-47.2	-49.1	12.9	4.65e-05	0	57	0	355467264	56	4686
2026-01-04 12:39:23.95	335.76	5.20	-47.1	-48.9	13.0	2.21e-05	0	57	0	358612992	56	4597
2026-01-04 12:39:24.94	335.86	5.15	-47.0	-48.9	13.1	2.82e-05	0	57	0	361758720	56	4561
2026-01-04 12:39:25.93	335.97	5.10	-47.0	-48.9	13.0	4.88e-05	0	57	0	364904448	56	4597
2026-01-04 12:39:26.92	336.07	5.05	-48.0	-50.4	11.7	8.08e-05	0	57	0	368050176	57	5122
2026-01-04 12:39:27.91	336.17	5.00	-51.6	-62.6	3.8	1.49e+00	0	57	104	369098752	65	13174
2026-01-04 12:39:28.89	336.27	4.95	-51.9	-63.5	3.8	1.49e+00	0	57	104	369098752	65	14569
2026-01-04 12:39:29.87	336.37	4.90	-52.1	-63.7	3.8	1.49e+00	0	57	104	369098752	66	14130
2026-01-04 12:39:30.86	336.48	4.85	-52.2	-63.8	3.8	1.49e+00	0	57	104	369098752	66	14317
2026-01-04 12:39:31.86	336.58	4.80	-52.4	-63.9	3.8	1.49e+00	0	57	104	369098752	66	14431
2026-01-04 12:39:32.85	336.68	4.74	-51.9	-63.5	3.8	1.49e+00	0	57	104	369098752	66	13842
2026-01-04 12:39:33.84	336.78	4.69	-52.3	-63.9	3.8	1.49e+00	0	57	104	369098752	66	14524
2026-01-04 12:39:34.83	336.88	4.64	-52.5	-64.0	3.8	1.49e+00	0	57	104	369098752	66	14657
2026-01-04 12:39:35.82	336.98	4.59	-52.5	-64.1	3.8	1.49e+00	0	57	104	369098752	66	14767
2026-01-04 12:39:36.81	337.08	4.54	-52.6	-64.1	3.8	1.49e+00	0	57	104	369098752	67	13981
2026-01-04 12:39:37.80	337.18	4.49	-52.6	-64.1	3.8	1.49e+00	0	57	104	369098752	67	13983
2026-01-04 12:39:38.79	337.27	4.44	-52.6	-64.2	3.8	1.49e+00	0	57	104	369098752	67	14110
2026-01-04 12:39:39.78	337.37	4.39	-52.7	-64.2	3.8	1.49e+00	0	57	104	369098752	67	14115
2026-01-04 12:39:40.78	337.47	4.34	-52.8	-64.2	3.8	1.49e+00	0	57	104	369098752	67	14095
2026-01-04 12:39:41.77	337.57	4.28	-52.8	-64.2	3.8	1.49e+00	0	57	104	369098752	67	14162
2026-01-04 12:39:42.76	337.67	4.23	-52.8	-64.3	3.8	1.49e+00	0	57	104	369098752	67	14245
2026-01-04 12:39:43.76	337.76	4.18	-52.8	-64.3	3.8	1.49e+00	0	57	104	369098752	67	14213
2026-01-04 12:39:44.75	337.86	4.13	-52.7	-64.3	3.8	1.49e+00	0	57	104	369098752	67	14283
2026-01-04 12:39:45.73	337.96	4.08	-52.6	-64.3	3.8	1.49e+00	0	57	104	369098752	67	14302
2026-01-04 12:39:46.72	338.05	4.03	-52.7	-64.3	3.8	1.49e+00	0	58	104	369098752	67	14334
2026-01-04 12:39:47.70	338.15	3.98	-52.6	-64.3	3.8	1.49e+00	0	57	104	369098752	67	14307
2026-01-04 12:39:48.70	338.24	3.93	-52.8	-64.3	3.8	1.49e+00	0	57	104	369098752	67	14301
2026-01-04 12:39:49.69	338.34	3.88	-52.8	-64.3	3.8	1.49e+00	0	57	104	369098752	67	14356
2026-01-04 12:39:50.67	338.43	3.83	-52.7	-64.3	3.8	1.49e+00	0	58	104	369098752	67	14330
2026-01-04 12:39:51.66	338.53	3.78	-52.8	-64.3	3.8	1.49e+00	0	57	104	369098752	67	14339
2026-01-04 12:39:52.66	338.62	3.73	-52.8	-64.3	3.8	1.49e+00	0	57	104	369098752	67	14324
2026-01-04 12:39:53.65	338.71	3.68	-52.7	-64.3	3.8	1.49e+00	0	57	104	369098752	67	14313
2026-01-04 12:39:54.63	338.81	3.63	-52.7	-64.3	3.8	1.49e+00	0	57	104	369098752	67	14337
2026-01-04 12:39:55.62	338.90	3.58	-52.8	-64.3	3.8	1.49e+00	0	57	104	369098752	67	14357
2026-01-04 12:39:56.61	338.99	3.53	-52.8	-64.3	3.8	1.49e+00	0	57	104	369098752	67	14339
2026-01-04 12:39:57.59	339.08	3.48	-52.8	-64.3	3.8	1.49e+00	0	58	104	369098752	67	14302
2026-01-04 12:39:58.58	339.18	3.43	-52.8	-64.3	3.8	1.49e+00	0	58	104	369098752	67	14287
2026-01-04 12:39:59.57	339.27	3.38	-52.7	-64.3	3.8	1.49e+00	0	57	104	369098752	67	14288
2026-01-04 12:40:00.56	339.36	3.33	-52.7	-64.3	3.8	1.49e+00	0	58	104	369098752	67	14337
2026-01-04 12:40:01.55	339.45	3.28	-52.7	-64.3	3.8	1.49e+00	0	57	104	369098752	67	14278
2026-01-04 12:40:02.54	339.54	3.23	-52.8	-64.3	3.8	1.49e+00	0	57	104	369098752	67	14304
2026-01-04 12:40:03.53	339.63	3.18	-52.7	-64.3	3.8	1.49e+00	0	57	104	369098752	67	14311
2026-01-04 12:40:04.53	339.73	3.12	-52.7	-64.3	3.8	1.49e+00	0	57	104	369098752	67	14304
2026-01-04 12:40:05.52	339.82	3.07	-52.5	-64.3	3.8	1.49e+00	0	57	104	369098752	67	14312
2026-01-04 12:40:06.51	339.91	3.02	-52.6	-64.3	3.8	1.49e+00	0	57	104	369098752	67	14336
2026-01-04 12:40:07.50	340.00	2.97	-52.7	-64.3	3.8	1.49e+00	0	57	104	369098752	67	14247
2026-01-04 12:40:08.50	340.09	2.92	-52.7	-64.3	3.8	1.49e+00	0	58	104	369098752	67	14265

#Closed at: 2026-01-04 12:40:08
#Recorded file [369 MB]: D:/Data/31026_260104_153927.dat