passes_logs/2026/01/04/R3.0SM8_Murmansk_STILSPACE/R3.0SM8_Murmansk_STILSPACE__20260104_215848_NOAA_20_JPSS-1_rec.log

#Pass ID: 20260104_215848_NOAA 20 (JPSS-1)
#Satellite: NOAA 20 (JPSS-1)
#Configuration: NOAA 20
#almurnet v.1.7.20240730
#Start time: 2026-01-04 21:58:49

#Version: 2.2.20231116
#Station: R3.0SM8_Murmansk_STILSPACE
#Location: 33.092731 lon 68.902999 lat
#TLE: 1 43013U 17073A   26004.47528369  .00000132  00000+0  83671-4 0  9999
#TLE: 2 43013  98.7626 305.5264 0001854  54.5883 305.5466 14.19533142421242

#Time	Az	El	Level	Level2	SNR	BER	BlckErr	Temp	State	Recorded	gain1	gain2
2026-01-04 21:58:49.16	20.13	3.05	-52.4	-66.3	3.8	1.49e+00	0	46	0	0	67	18060
2026-01-04 21:58:52.12	20.39	3.21	-52.2	-66.2	3.8	1.49e+00	0	46	104	0	66	18835
2026-01-04 21:58:55.09	20.64	3.36	-52.1	-66.0	3.8	1.49e+00	0	47	104	0	66	18408
2026-01-04 21:58:58.07	20.90	3.52	-51.5	-65.4	3.8	1.49e+00	0	47	104	0	66	17085
2026-01-04 21:59:01.04	21.17	3.68	-51.3	-65.2	3.8	1.49e+00	0	47	104	0	65	17760
2026-01-04 21:59:04.01	21.43	3.84	-51.4	-65.2	3.8	1.49e+00	0	47	104	0	65	17857
2026-01-04 21:59:06.98	21.70	4.00	-51.4	-65.2	3.8	1.49e+00	0	47	104	0	65	17874
2026-01-04 21:59:09.95	21.97	4.16	-51.4	-65.2	3.8	1.49e+00	0	47	104	0	65	17846
2026-01-04 21:59:12.94	22.24	4.32	-51.3	-65.2	3.8	1.49e+00	0	48	104	0	65	17703
2026-01-04 21:59:15.90	22.52	4.48	-51.3	-65.3	3.8	1.49e+00	0	48	104	0	65	17958
2026-01-04 21:59:18.87	22.80	4.64	-51.2	-63.8	3.8	1.49e+00	0	48	104	0	65	15096
2026-01-04 21:59:21.83	23.08	4.80	-51.0	-59.7	5.0	9.32e-01	0	48	0	1048576	65	9478
2026-01-04 21:59:24.80	23.36	4.96	-50.5	-57.0	7.1	1.78e-01	0	48	0	7340032	63	7804
2026-01-04 21:59:27.76	23.65	5.12	-50.4	-56.2	7.9	7.54e-02	0	49	0	12582912	63	7078
2026-01-04 21:59:30.71	23.94	5.28	-50.0	-54.9	9.3	2.06e-02	0	49	0	17825792	63	6116
2026-01-04 21:59:33.69	24.23	5.45	-49.6	-53.9	10.4	5.32e-03	0	49	0	23068672	62	5750
2026-01-04 21:59:36.65	24.53	5.61	-49.8	-54.4	9.9	6.34e-03	0	49	0	29360128	62	6062
2026-01-04 21:59:39.61	24.83	5.77	-49.4	-53.3	11.0	2.46e-03	0	49	0	34603008	61	5694
2026-01-04 21:59:42.58	25.13	5.94	-49.0	-52.5	11.8	5.42e-04	0	49	0	39845888	61	5184
2026-01-04 21:59:45.55	25.44	6.10	-49.0	-52.5	11.8	4.20e-04	0	50	0	46137344	60	5493
2026-01-04 21:59:48.51	25.75	6.27	-49.1	-52.5	11.8	4.52e-04	0	50	0	51380224	60	5526
2026-01-04 21:59:51.48	26.06	6.43	-49.1	-52.6	11.9	5.90e-04	0	50	0	56623104	60	5543
2026-01-04 21:59:54.44	26.38	6.60	-49.1	-52.5	12.0	3.61e-04	0	50	0	62914560	60	5465
2026-01-04 21:59:57.41	26.70	6.76	-49.2	-52.6	11.8	6.11e-04	0	50	0	68157440	60	5584
2026-01-04 22:00:00.38	27.02	6.93	-49.3	-53.0	11.5	7.24e-04	0	50	0	73400320	60	5792
2026-01-04 22:00:03.34	27.35	7.10	-49.1	-52.5	12.0	4.16e-04	0	50	0	78643200	60	5524
2026-01-04 22:00:06.32	27.68	7.26	-48.8	-52.1	12.5	1.25e-04	0	50	0	84934656	60	5236
2026-01-04 22:00:09.29	28.01	7.43	-48.8	-51.9	12.6	1.06e-04	0	50	0	90177536	60	5112
2026-01-04 22:00:12.25	28.35	7.60	-48.3	-51.1	13.4	1.67e-05	0	51	0	95420416	59	4948
2026-01-04 22:00:15.22	28.69	7.77	-48.4	-51.1	13.6	7.60e-06	0	51	0	101711872	59	4928
2026-01-04 22:00:18.19	29.04	7.93	-48.2	-50.9	13.8	3.80e-06	0	51	0	106954752	59	4831
2026-01-04 22:00:21.16	29.39	8.10	-48.4	-51.1	13.4	8.30e-06	0	51	0	112197632	59	4980
2026-01-04 22:00:24.13	29.74	8.27	-48.4	-51.2	13.4	1.52e-05	0	51	0	118489088	59	4985
2026-01-04 22:00:27.09	30.09	8.44	-48.5	-51.2	13.4	1.14e-05	0	51	0	123731968	59	5028
2026-01-04 22:00:30.04	30.45	8.61	-48.5	-51.3	13.4	1.44e-05	0	51	0	128974848	59	5045
2026-01-04 22:00:32.99	30.82	8.78	-48.6	-51.3	13.4	2.36e-05	0	52	0	134217728	59	5045
2026-01-04 22:00:35.96	31.19	8.94	-48.5	-51.3	13.4	1.44e-05	0	52	0	140509184	59	5067
2026-01-04 22:00:38.94	31.56	9.11	-48.4	-51.0	13.7	4.50e-06	0	52	0	145752064	59	4893
2026-01-04 22:00:41.91	31.94	9.28	-48.3	-50.9	13.8	4.50e-06	0	52	0	150994944	59	4848
2026-01-04 22:00:44.88	32.32	9.45	-48.4	-51.1	13.7	9.90e-06	0	52	0	157286400	59	4957
2026-01-04 22:00:47.84	32.70	9.62	-48.5	-51.3	13.5	1.14e-05	0	52	0	162529280	59	5042
2026-01-04 22:00:50.82	33.10	9.79	-48.8	-51.6	13.2	1.75e-05	0	52	0	167772160	59	5232
2026-01-04 22:00:53.80	33.49	9.96	-48.4	-51.0	13.8	6.80e-06	0	52	0	174063616	59	4882
2026-01-04 22:00:56.77	33.89	10.13	-48.2	-50.7	14.1	6.80e-06	0	52	0	179306496	59	4711
2026-01-04 22:00:59.73	34.29	10.30	-48.0	-50.4	14.4	0.00e+00	0	52	0	184549376	59	4590
2026-01-04 22:01:02.70	34.70	10.47	-48.1	-50.4	14.3	7.00e-07	0	52	0	190840832	59	4581
2026-01-04 22:01:05.66	35.11	10.64	-48.3	-50.8	14.1	4.50e-06	0	52	0	196083712	59	4798
2026-01-04 22:01:08.63	35.53	10.81	-48.4	-51.0	13.8	4.50e-06	0	53	0	201326592	59	4889
2026-01-04 22:01:11.59	35.95	10.98	-48.0	-50.4	14.5	0.00e+00	0	53	0	206569472	59	4547
2026-01-04 22:01:14.55	36.38	11.15	-47.9	-50.3	14.5	0.00e+00	0	53	0	212860928	59	4504
2026-01-04 22:01:17.51	36.81	11.32	-47.8	-50.0	14.9	0.00e+00	0	53	0	218103808	58	4631
2026-01-04 22:01:20.48	37.24	11.49	-47.9	-50.1	14.8	7.00e-07	0	53	0	223346688	58	4694
2026-01-04 22:01:23.45	37.69	11.65	-47.8	-50.0	14.9	0.00e+00	0	53	0	229638144	58	4607
2026-01-04 22:01:26.41	38.13	11.82	-47.9	-50.1	14.8	0.00e+00	0	53	0	234881024	58	4676
2026-01-04 22:01:29.36	38.58	11.99	-47.6	-49.8	15.1	0.00e+00	0	53	0	240123904	58	4503
2026-01-04 22:01:32.33	39.04	12.15	-47.8	-49.9	14.9	0.00e+00	0	53	0	246415360	58	4592
2026-01-04 22:01:35.31	39.50	12.32	-47.3	-49.2	15.7	0.00e+00	0	53	0	251658240	57	4485
2026-01-04 22:01:38.27	39.96	12.49	-47.5	-49.4	15.5	0.00e+00	0	53	0	256901120	57	4585
2026-01-04 22:01:41.24	40.43	12.65	-47.7	-49.8	15.2	0.00e+00	0	53	0	263192576	57	4778
2026-01-04 22:01:44.21	40.91	12.82	-47.5	-49.4	15.5	0.00e+00	0	53	0	268435456	57	4577
2026-01-04 22:01:47.16	41.39	12.98	-47.3	-49.2	15.7	0.00e+00	0	54	0	273678336	57	4473
2026-01-04 22:01:50.12	41.87	13.14	-47.4	-49.3	15.6	0.00e+00	0	53	0	278921216	57	4544
2026-01-04 22:01:53.10	42.37	13.31	-47.3	-49.2	15.7	0.00e+00	0	53	0	285212672	57	4448
2026-01-04 22:01:56.06	42.86	13.47	-47.4	-49.4	15.5	0.00e+00	0	54	0	290455552	57	4569
2026-01-04 22:01:59.02	43.36	13.63	-47.3	-49.2	15.7	0.00e+00	0	54	0	295698432	57	4470
2026-01-04 22:02:01.98	43.87	13.79	-47.5	-49.5	15.5	0.00e+00	0	54	0	301989888	57	4614
2026-01-04 22:02:04.96	44.39	13.95	-47.1	-49.0	15.9	0.00e+00	0	54	0	307232768	57	4371
2026-01-04 22:02:07.92	44.90	14.11	-47.3	-49.2	15.7	0.00e+00	0	54	0	312475648	57	4467
2026-01-04 22:02:10.89	45.43	14.26	-47.5	-49.4	15.5	0.00e+00	0	54	0	318767104	57	4590
2026-01-04 22:02:13.85	45.95	14.42	-47.4	-49.2	15.6	0.00e+00	0	54	0	324009984	57	4490
2026-01-04 22:02:16.81	46.49	14.57	-47.7	-49.7	15.3	0.00e+00	0	54	0	329252864	57	4759
2026-01-04 22:02:19.77	47.03	14.72	-47.9	-50.1	14.9	0.00e+00	0	54	0	334495744	57	4935
2026-01-04 22:02:22.74	47.57	14.88	-47.9	-50.1	14.9	0.00e+00	0	54	0	340787200	57	4944
2026-01-04 22:02:25.69	48.12	15.03	-48.0	-50.2	14.8	0.00e+00	0	54	0	346030080	57	5036
2026-01-04 22:02:28.66	48.67	15.17	-48.3	-50.7	14.4	1.50e-06	0	54	0	351272960	58	4985
2026-01-04 22:02:31.61	49.23	15.32	-48.4	-50.8	14.2	2.20e-06	0	54	0	357564416	58	5093
2026-01-04 22:02:34.57	49.80	15.46	-48.5	-51.0	14.0	7.00e-07	0	54	0	362807296	59	4918
2026-01-04 22:02:37.53	50.37	15.61	-48.4	-50.7	14.2	7.00e-07	0	54	0	368050176	59	4759
2026-01-04 22:02:40.48	50.94	15.75	-48.5	-51.0	13.9	3.00e-06	0	54	0	373293056	59	4904
2026-01-04 22:02:43.44	51.52	15.89	-48.8	-51.5	13.5	5.30e-06	0	54	0	379584512	59	5177
2026-01-04 22:02:46.41	52.11	16.03	-49.0	-51.9	13.1	3.50e-05	0	54	0	384827392	60	5105
2026-01-04 22:02:49.38	52.71	16.16	-49.0	-51.9	13.1	2.13e-05	0	54	0	390070272	60	5141
2026-01-04 22:02:52.34	53.30	16.29	-49.3	-52.4	12.6	1.17e-04	0	54	0	396361728	60	5418
2026-01-04 22:02:55.30	53.90	16.43	-49.2	-52.3	12.7	8.62e-05	0	54	0	401604608	60	5369
2026-01-04 22:02:58.26	54.51	16.55	-49.2	-52.2	12.8	5.34e-05	0	55	0	406847488	60	5292
2026-01-04 22:03:01.22	55.12	16.68	-48.6	-51.3	13.7	1.06e-05	0	55	0	413138944	60	4776
2026-01-04 22:03:04.19	55.74	16.80	-48.1	-50.4	14.7	0.00e+00	0	55	0	418381824	59	4578
2026-01-04 22:03:07.16	56.37	16.93	-48.0	-50.2	14.9	0.00e+00	0	55	0	423624704	59	4458
2026-01-04 22:03:10.13	57.00	17.05	-48.1	-50.3	14.8	0.00e+00	0	55	0	428867584	59	4516
2026-01-04 22:03:13.10	57.63	17.16	-47.5	-49.5	15.5	0.00e+00	0	55	0	435159040	58	4388
2026-01-04 22:03:16.06	58.27	17.27	-47.4	-49.3	15.7	0.00e+00	0	55	0	440401920	57	4536
2026-01-04 22:03:19.03	58.91	17.38	-47.6	-49.6	15.5	0.00e+00	0	55	0	445644800	57	4671
2026-01-04 22:03:21.99	59.55	17.49	-47.8	-49.9	15.1	0.00e+00	0	55	0	451936256	57	4821
2026-01-04 22:03:24.95	60.21	17.60	-47.8	-49.9	15.1	0.00e+00	0	55	0	457179136	57	4845
2026-01-04 22:03:27.93	60.86	17.70	-47.7	-49.7	15.3	0.00e+00	0	55	0	462422016	57	4740
2026-01-04 22:03:30.90	61.52	17.80	-47.8	-49.9	15.1	0.00e+00	0	55	0	468713472	57	4847
2026-01-04 22:03:33.86	62.19	17.89	-47.9	-50.1	15.0	0.00e+00	0	55	0	473956352	57	4938
2026-01-04 22:03:36.83	62.86	17.98	-47.7	-49.7	15.3	0.00e+00	0	55	0	479199232	57	4729
2026-01-04 22:03:39.79	63.53	18.07	-47.6	-49.6	15.4	0.00e+00	0	55	0	484442112	57	4664
2026-01-04 22:03:42.75	64.20	18.15	-48.0	-50.2	14.9	0.00e+00	0	55	0	490733568	57	4999
2026-01-04 22:03:45.71	64.88	18.23	-48.0	-50.2	14.8	0.00e+00	0	55	0	495976448	57	5021
2026-01-04 22:03:48.67	65.56	18.31	-48.0	-50.2	14.8	0.00e+00	0	55	0	501219328	58	4749
2026-01-04 22:03:51.61	66.24	18.38	-47.7	-49.8	15.3	0.00e+00	0	55	0	507510784	58	4496
2026-01-04 22:03:54.58	66.93	18.45	-47.8	-49.9	15.2	0.00e+00	0	55	0	512753664	58	4552
2026-01-04 22:03:57.55	67.63	18.52	-47.7	-49.8	15.2	0.00e+00	0	55	0	517996544	58	4529
2026-01-04 22:04:00.52	68.32	18.58	-48.0	-50.1	14.9	7.00e-07	0	55	0	524288000	58	4703
2026-01-04 22:04:03.48	69.02	18.64	-47.9	-50.0	15.1	0.00e+00	0	55	0	529530880	58	4609
2026-01-04 22:04:06.44	69.72	18.69	-47.9	-50.1	15.0	0.00e+00	0	55	0	534773760	58	4674
2026-01-04 22:04:09.40	70.42	18.74	-48.1	-50.4	14.7	0.00e+00	0	55	0	540016640	58	4817
2026-01-04 22:04:12.36	71.12	18.79	-48.2	-50.5	14.6	1.50e-06	0	55	0	546308096	58	4898
2026-01-04 22:04:15.33	71.83	18.83	-48.2	-50.5	14.5	0.00e+00	0	55	0	551550976	58	4905
2026-01-04 22:04:18.30	72.54	18.87	-47.9	-49.9	15.1	0.00e+00	0	55	0	556793856	58	4588
2026-01-04 22:04:21.28	73.26	18.90	-47.8	-49.8	15.2	0.00e+00	0	55	0	563085312	58	4525
2026-01-04 22:04:24.25	73.97	18.93	-48.1	-50.4	14.7	1.50e-06	0	55	0	568328192	58	4848
2026-01-04 22:04:27.20	74.68	18.96	-48.4	-50.8	14.2	1.50e-06	0	55	0	573571072	58	5086
2026-01-04 22:04:30.16	75.39	18.98	-48.3	-50.6	14.5	7.00e-07	0	55	0	579862528	58	4948
2026-01-04 22:04:33.13	76.11	18.99	-48.4	-50.8	14.3	0.00e+00	0	55	0	585105408	58	5052
2026-01-04 22:04:36.09	76.82	19.00	-48.6	-51.1	13.9	3.80e-06	0	55	0	590348288	59	4973
2026-01-04 22:04:39.05	77.54	19.01	-48.6	-51.1	13.9	3.00e-06	0	55	0	595591168	59	4951
2026-01-04 22:04:42.02	78.25	19.02	-48.1	-50.4	14.7	0.00e+00	0	55	0	601882624	59	4554
2026-01-04 22:04:44.98	78.97	19.01	-47.8	-49.9	15.1	7.00e-07	0	55	0	607125504	58	4582
2026-01-04 22:04:47.96	79.69	19.01	-48.1	-50.3	14.8	0.00e+00	0	55	0	612368384	58	4812
2026-01-04 22:04:50.92	80.41	19.00	-48.4	-50.8	14.3	0.00e+00	0	55	0	618659840	58	5050
2026-01-04 22:04:53.88	81.12	18.98	-48.5	-51.0	14.1	3.00e-06	0	55	0	623902720	59	4898
2026-01-04 22:04:56.86	81.84	18.97	-48.8	-51.5	13.5	5.30e-06	0	55	0	629145600	59	5162
2026-01-04 22:04:59.81	82.55	18.94	-48.3	-50.7	14.3	7.00e-07	0	55	0	635437056	59	4745
2026-01-04 22:05:02.77	83.26	18.92	-48.1	-50.3	14.7	7.00e-07	0	56	0	640679936	59	4498
2026-01-04 22:05:05.73	83.97	18.88	-47.8	-49.9	15.1	0.00e+00	0	55	0	645922816	58	4587
2026-01-04 22:05:08.71	84.68	18.85	-47.6	-49.5	15.5	0.00e+00	0	55	0	652214272	58	4383
2026-01-04 22:05:11.68	85.39	18.81	-47.5	-49.5	15.6	0.00e+00	0	55	0	657457152	57	4603
2026-01-04 22:05:14.66	86.10	18.76	-47.9	-50.0	15.0	0.00e+00	0	55	0	662700032	57	4924
2026-01-04 22:05:17.63	86.81	18.71	-47.9	-50.0	15.1	0.00e+00	0	56	0	667942912	57	4893
2026-01-04 22:05:20.58	87.51	18.66	-47.8	-50.0	15.1	0.00e+00	0	55	0	674234368	57	4880
2026-01-04 22:05:23.55	88.21	18.61	-48.0	-50.2	14.9	0.00e+00	0	55	0	679477248	57	4996
2026-01-04 22:05:26.52	88.91	18.55	-47.9	-50.0	15.1	0.00e+00	0	55	0	684720128	58	4601
2026-01-04 22:05:29.46	89.60	18.48	-47.6	-49.6	15.6	0.00e+00	0	55	0	691011584	58	4407
2026-01-04 22:05:32.42	90.29	18.41	-48.0	-50.2	14.8	0.00e+00	0	55	0	696254464	58	4736
2026-01-04 22:05:35.39	90.98	18.34	-47.9	-50.1	15.0	0.00e+00	0	55	0	701497344	58	4658
2026-01-04 22:05:38.35	91.66	18.27	-47.4	-49.3	15.7	0.00e+00	0	56	0	707788800	58	4280
2026-01-04 22:05:41.33	92.35	18.19	-47.1	-48.9	16.1	0.00e+00	0	55	0	713031680	57	4339
2026-01-04 22:05:44.29	93.02	18.10	-46.6	-48.2	16.8	0.00e+00	0	55	0	718274560	56	4222
2026-01-04 22:05:47.26	93.70	18.02	-46.7	-48.3	16.7	0.00e+00	0	55	0	723517440	56	4279
2026-01-04 22:05:50.24	94.37	17.92	-47.0	-48.6	16.4	0.00e+00	0	56	0	729808896	56	4440
2026-01-04 22:05:53.21	95.04	17.83	-47.2	-49.0	16.0	0.00e+00	0	56	0	735051776	56	4619
2026-01-04 22:05:56.18	95.71	17.73	-46.7	-48.3	16.7	0.00e+00	0	55	0	740294656	56	4274
2026-01-04 22:05:59.14	96.36	17.63	-46.6	-48.1	16.9	0.00e+00	0	56	0	746586112	56	4172
2026-01-04 22:06:02.10	97.02	17.53	-46.9	-48.7	16.4	0.00e+00	0	56	0	751828992	56	4448
2026-01-04 22:06:05.05	97.66	17.42	-46.3	-47.8	17.2	0.00e+00	0	56	0	757071872	55	4252
2026-01-04 22:06:08.02	98.31	17.31	-46.4	-48.0	16.9	0.00e+00	0	56	0	763363328	55	4362
2026-01-04 22:06:10.98	98.95	17.20	-46.6	-48.2	16.7	0.00e+00	0	56	0	768606208	55	4462
2026-01-04 22:06:13.96	99.59	17.09	-46.9	-48.6	16.3	0.00e+00	0	55	0	773849088	55	4683
2026-01-04 22:06:16.93	100.22	16.97	-47.0	-48.8	16.2	0.00e+00	0	55	0	780140544	55	4770
2026-01-04 22:06:19.89	100.85	16.85	-46.6	-48.3	16.6	0.00e+00	0	56	0	785383424	55	4508
2026-01-04 22:06:22.87	101.47	16.72	-47.4	-49.3	15.7	0.00e+00	0	56	0	790626304	56	4782
2026-01-04 22:06:25.84	102.09	16.60	-47.7	-49.7	15.3	7.00e-07	0	56	0	795869184	57	4722
2026-01-04 22:06:28.81	102.70	16.47	-47.7	-49.7	15.3	0.00e+00	0	56	0	802160640	57	4749
2026-01-04 22:06:31.76	103.31	16.34	-47.6	-49.7	15.3	0.00e+00	0	56	0	807403520	57	4738
2026-01-04 22:06:34.72	103.91	16.20	-47.9	-50.0	15.1	0.00e+00	0	56	0	812646400	57	4887
2026-01-04 22:06:37.69	104.51	16.07	-47.6	-49.7	15.4	0.00e+00	0	56	0	818937856	57	4718
2026-01-04 22:06:40.66	105.10	15.93	-47.9	-50.0	15.0	0.00e+00	0	56	0	824180736	57	4906
2026-01-04 22:06:43.62	105.68	15.79	-48.1	-50.4	14.6	0.00e+00	0	56	0	829423616	58	4841
2026-01-04 22:06:46.59	106.26	15.65	-48.0	-50.1	14.9	0.00e+00	0	55	0	835715072	58	4704
2026-01-04 22:06:49.57	106.84	15.51	-47.8	-49.9	15.1	0.00e+00	0	56	0	840957952	58	4579
2026-01-04 22:06:52.54	107.41	15.36	-48.1	-50.4	14.6	0.00e+00	0	56	0	846200832	58	4829
2026-01-04 22:06:55.50	107.98	15.21	-47.8	-50.0	15.0	0.00e+00	0	56	0	851443712	58	4620
2026-01-04 22:06:58.46	108.53	15.07	-48.0	-50.2	14.8	7.00e-07	0	56	0	857735168	58	4726
2026-01-04 22:07:01.43	109.09	14.92	-47.8	-49.8	15.2	0.00e+00	0	56	0	862978048	58	4545
2026-01-04 22:07:04.39	109.64	14.76	-47.4	-49.3	15.6	0.00e+00	0	56	0	868220928	57	4533
2026-01-04 22:07:07.35	110.18	14.61	-47.5	-49.4	15.6	0.00e+00	0	56	0	874512384	57	4563
2026-01-04 22:07:10.32	110.72	14.46	-47.4	-49.3	15.6	0.00e+00	0	56	0	879755264	57	4535
2026-01-04 22:07:13.27	111.25	14.30	-47.6	-49.6	15.4	0.00e+00	0	56	0	884998144	57	4673
2026-01-04 22:07:16.23	111.77	14.14	-48.2	-50.5	14.5	0.00e+00	0	56	0	891289600	58	4889
2026-01-04 22:07:19.21	112.30	13.98	-48.2	-50.7	14.3	3.80e-06	0	56	0	896532480	58	4996
2026-01-04 22:07:22.17	112.81	13.83	-47.7	-49.8	15.1	7.00e-07	0	56	0	901775360	58	4540
2026-01-04 22:07:25.14	113.32	13.66	-47.2	-49.1	15.9	0.00e+00	0	56	0	907018240	57	4400
2026-01-04 22:07:28.11	113.83	13.50	-47.4	-49.3	15.6	0.00e+00	0	56	0	913309696	57	4539
2026-01-04 22:07:31.08	114.33	13.34	-47.5	-49.5	15.5	0.00e+00	0	56	0	918552576	57	4626
2026-01-04 22:07:34.03	114.82	13.18	-47.7	-49.7	15.2	0.00e+00	0	56	0	923795456	57	4748
2026-01-04 22:07:37.00	115.31	13.01	-47.9	-50.0	14.9	0.00e+00	0	56	0	930086912	57	4918
2026-01-04 22:07:39.97	115.80	12.85	-48.3	-50.8	14.2	0.00e+00	0	56	0	935329792	58	5043
2026-01-04 22:07:42.93	116.27	12.68	-47.4	-49.3	15.6	0.00e+00	0	56	0	940572672	57	4540
2026-01-04 22:07:45.88	116.75	12.52	-47.1	-49.0	16.0	0.00e+00	0	56	0	946864128	57	4361
2026-01-04 22:07:48.84	117.21	12.35	-47.4	-49.4	15.4	0.00e+00	0	56	0	952107008	57	4574
2026-01-04 22:07:51.81	117.68	12.18	-47.6	-49.6	15.3	0.00e+00	0	56	0	957349888	57	4704
2026-01-04 22:07:54.79	118.14	12.02	-47.3	-49.3	15.7	0.00e+00	0	56	0	962592768	57	4501
2026-01-04 22:07:57.75	118.59	11.85	-47.2	-49.1	15.8	0.00e+00	0	56	0	968884224	57	4413
2026-01-04 22:08:00.71	119.04	11.68	-47.7	-49.8	15.1	0.00e+00	0	56	0	974127104	57	4779
2026-01-04 22:08:03.69	119.48	11.51	-48.0	-50.2	14.6	0.00e+00	0	56	0	979369984	57	5039
2026-01-04 22:08:06.66	119.92	11.34	-48.0	-50.2	14.7	0.00e+00	0	56	0	985661440	57	4997
2026-01-04 22:08:09.62	120.36	11.17	-47.4	-49.4	15.4	0.00e+00	0	56	0	990904320	57	4597
2026-01-04 22:08:12.59	120.79	11.00	-47.7	-49.8	15.0	0.00e+00	0	56	0	996147200	57	4801
2026-01-04 22:08:15.57	121.21	10.83	-48.0	-50.3	14.6	0.00e+00	0	56	0	1002438656	57	5050
2026-01-04 22:08:18.53	121.63	10.66	-47.7	-49.8	15.0	0.00e+00	0	56	0	1007681536	58	4542
2026-01-04 22:08:21.48	122.04	10.49	-47.6	-49.7	15.2	0.00e+00	0	56	0	1012924416	58	4442
2026-01-04 22:08:24.46	122.46	10.32	-47.9	-50.1	14.8	0.00e+00	0	56	0	1019215872	58	4662
2026-01-04 22:08:27.42	122.86	10.15	-48.2	-50.6	14.2	7.00e-07	0	56	0	1024458752	58	4939
2026-01-04 22:08:30.35	123.26	9.98	-48.2	-50.6	14.2	7.00e-07	0	56	0	1029701632	58	4948
2026-01-04 22:08:33.32	123.65	9.81	-48.0	-50.4	14.4	2.20e-06	0	56	0	1034944512	58	4832
2026-01-04 22:08:36.29	124.05	9.64	-48.0	-50.4	14.4	1.50e-06	0	56	0	1041235968	58	4826
2026-01-04 22:08:39.25	124.43	9.47	-48.3	-50.7	14.1	2.20e-06	0	56	0	1046478848	58	5025
2026-01-04 22:08:42.21	124.82	9.29	-48.3	-50.9	13.9	3.80e-06	0	56	0	1051721728	58	5103
2026-01-04 22:08:45.19	125.20	9.12	-48.2	-50.7	14.0	3.00e-06	0	56	0	1058013184	58	5040
2026-01-04 22:08:48.15	125.57	8.95	-48.2	-50.7	14.0	0.00e+00	0	56	0	1063256064	58	4999
2026-01-04 22:08:51.11	125.94	8.78	-48.4	-51.0	13.7	3.80e-06	0	56	0	1068498944	58	5212
2026-01-04 22:08:54.07	126.31	8.61	-48.7	-51.5	13.2	1.98e-05	0	56	0	1074790400	59	5211
2026-01-04 22:08:57.03	126.67	8.44	-48.8	-51.8	12.9	4.11e-05	0	56	0	1080033280	59	5378
2026-01-04 22:09:00.00	127.03	8.27	-48.9	-51.9	12.8	6.40e-05	0	56	0	1085276160	59	5441
2026-01-04 22:09:02.97	127.38	8.10	-48.5	-51.2	13.4	1.44e-05	0	56	0	1090519040	59	5037
2026-01-04 22:09:05.93	127.73	7.93	-48.4	-51.1	13.6	1.14e-05	0	56	0	1096810496	59	4940
2026-01-04 22:09:08.90	128.08	7.76	-48.5	-51.2	13.4	1.52e-05	0	56	0	1102053376	59	5037
2026-01-04 22:09:11.86	128.42	7.60	-48.7	-51.6	13.0	3.73e-05	0	56	0	1107296256	59	5249
2026-01-04 22:09:14.83	128.76	7.43	-48.6	-51.5	13.1	2.13e-05	0	57	0	1113587712	59	5199
2026-01-04 22:09:17.80	129.10	7.26	-48.8	-51.7	12.9	4.19e-05	0	56	0	1118830592	59	5308
2026-01-04 22:09:20.76	129.43	7.09	-48.8	-52.0	12.6	5.56e-05	0	56	0	1124073472	59	5475
2026-01-04 22:09:23.74	129.76	6.92	-49.0	-52.3	12.3	2.10e-04	0	56	0	1130364928	59	5657
2026-01-04 22:09:26.71	130.08	6.75	-49.2	-52.6	11.9	4.79e-04	0	56	0	1135607808	60	5570
2026-01-04 22:09:29.66	130.40	6.59	-49.0	-52.4	12.1	2.79e-04	0	56	0	1140850688	60	5409
2026-01-04 22:09:32.63	130.72	6.42	-49.0	-52.3	12.2	2.35e-04	0	56	0	1146093568	60	5355
2026-01-04 22:09:35.61	131.04	6.25	-48.9	-52.1	12.4	1.34e-04	0	56	0	1152385024	60	5228
2026-01-04 22:09:38.58	131.35	6.09	-49.0	-52.4	12.0	3.50e-04	0	56	0	1157627904	60	5443
2026-01-04 22:09:41.54	131.65	5.92	-49.1	-52.7	11.7	6.78e-04	0	56	0	1162870784	60	5618
2026-01-04 22:09:44.50	131.96	5.76	-49.4	-53.2	11.1	1.30e-03	0	56	0	1169162240	60	5991
2026-01-04 22:09:47.47	132.26	5.59	-49.4	-53.3	11.0	1.66e-03	0	56	0	1174405120	60	6041
2026-01-04 22:09:50.43	132.56	5.43	-49.4	-53.4	10.9	1.98e-03	0	56	0	1179648000	60	6078
2026-01-04 22:09:53.40	132.85	5.26	-49.3	-53.2	11.1	1.93e-03	0	56	0	1185939456	60	5940
2026-01-04 22:09:56.36	133.14	5.10	-49.5	-53.5	10.7	2.66e-03	0	56	0	1191182336	60	6166
2026-01-04 22:09:59.32	133.43	4.94	-51.8	-65.6	3.8	1.49e+00	0	56	104	1194328064	65	18652
2026-01-04 22:10:02.28	133.71	4.77	-52.2	-66.0	3.8	1.49e+00	0	56	104	1194328064	66	18460
2026-01-04 22:10:05.23	133.99	4.61	-52.4	-66.2	3.8	1.49e+00	0	57	104	1194328064	66	18746
2026-01-04 22:10:08.20	134.27	4.45	-52.2	-66.0	3.8	1.49e+00	0	56	104	1194328064	66	18446
2026-01-04 22:10:11.17	134.55	4.29	-52.5	-66.3	3.8	1.49e+00	0	56	104	1194328064	66	19003
2026-01-04 22:10:14.14	134.82	4.13	-52.5	-66.3	3.8	1.49e+00	0	56	104	1194328064	66	19120
2026-01-04 22:10:17.09	135.09	3.97	-52.4	-66.4	3.8	1.49e+00	0	57	104	1194328064	66	19221
2026-01-04 22:10:20.06	135.36	3.81	-52.6	-66.4	3.8	1.49e+00	0	56	104	1194328064	67	18197
2026-01-04 22:10:23.04	135.62	3.65	-52.6	-66.4	3.8	1.49e+00	0	57	104	1194328064	67	18240
2026-01-04 22:10:26.01	135.89	3.49	-52.5	-66.4	3.8	1.49e+00	0	57	104	1194328064	67	18237
2026-01-04 22:10:28.95	136.14	3.33	-52.5	-66.4	3.8	1.49e+00	0	57	104	1194328064	67	18214
2026-01-04 22:10:31.92	136.40	3.17	-52.6	-66.4	3.8	1.49e+00	0	57	104	1194328064	67	18209
2026-01-04 22:10:34.88	136.65	3.01	-52.6	-66.4	3.8	1.49e+00	0	57	104	1194328064	67	18184

#Closed at: 2026-01-04 22:10:36
#Recorded file [1194 MB]: D:/Data/31026_260105_010958.dat