passes_logs/2026/01/04/R3.0SM8_Murmansk_STILSPACE/R3.0SM8_Murmansk_STILSPACE__20260104_085654_FENGYUN_3D_rec.log

#Pass ID: 20260104_085654_FENGYUN 3D
#Satellite: FENGYUN 3D
#Configuration: FENGYUN 3D
#almurnet v.1.7.20240730
#Start time: 2026-01-04 08:56:54

#Version: 2.2.20231116
#Station: R3.0SM8_Murmansk_STILSPACE
#Location: 33.092731 lon 68.902999 lat
#TLE: 1 43010U 17072A   26003.51579816  .00000092  00000+0  65324-4 0  9992
#TLE: 2 43010  98.9912 335.1548 0001916 128.4619 231.6729 14.19692074421623

#Time	Az	El	Level	Level2	SNR	BER	BlckErr	Temp	State	Recorded	gain1	gain2
2026-01-04 08:56:54.40	92.72	2.98	-52.5	-63.2	3.8	8.46e-01	0	46	0	0	67	12663
2026-01-04 08:56:58.37	92.51	3.23	-52.3	-63.0	3.8	8.46e-01	0	46	104	0	67	12325
2026-01-04 08:57:02.30	92.29	3.47	-51.8	-62.3	3.8	8.46e-01	0	47	104	0	66	12028
2026-01-04 08:57:06.27	92.06	3.72	-51.5	-62.3	3.8	8.47e-01	0	47	104	0	66	12037
2026-01-04 08:57:10.21	91.83	3.97	-51.7	-62.4	3.8	8.46e-01	0	47	104	0	66	12128
2026-01-04 08:57:14.19	91.60	4.22	-51.6	-61.7	3.8	8.46e-01	0	48	104	0	66	11204
2026-01-04 08:57:18.15	91.36	4.47	-51.3	-60.2	3.8	8.45e-01	0	48	104	0	65	9965
2026-01-04 08:57:22.10	91.12	4.72	-50.7	-56.5	5.2	7.65e-01	0	48	0	0	64	6901
2026-01-04 08:57:26.06	90.88	4.98	-49.7	-53.8	7.5	1.35e-01	0	48	0	17825792	62	5690
2026-01-04 08:57:30.01	90.63	5.24	-49.5	-53.1	8.2	8.22e-02	0	49	0	39845888	62	5230
2026-01-04 08:57:33.97	90.37	5.50	-48.8	-51.8	9.5	1.78e-02	0	49	0	61865984	60	5059
2026-01-04 08:57:37.92	90.11	5.76	-48.8	-51.8	9.5	2.61e-02	0	49	0	83886080	60	5054
2026-01-04 08:57:41.88	89.85	6.02	-46.9	-48.7	12.7	1.74e-04	0	49	0	106954752	57	4230
2026-01-04 08:57:45.84	89.58	6.29	-45.3	-46.6	14.8	2.20e-06	0	49	0	128974848	53	4177
2026-01-04 08:57:49.79	89.30	6.56	-44.8	-46.0	15.3	0.00e+00	0	50	0	150994944	52	4128
2026-01-04 08:57:53.74	89.02	6.83	-44.7	-45.9	15.5	0.00e+00	0	50	0	173015040	52	4069
2026-01-04 08:57:57.69	88.74	7.10	-44.9	-46.1	15.3	0.00e+00	0	50	0	195035136	52	4176
2026-01-04 08:58:01.65	88.44	7.38	-44.4	-45.5	15.9	0.00e+00	0	50	0	218103808	52	3910
2026-01-04 08:58:05.61	88.15	7.65	-44.6	-45.8	15.8	0.00e+00	0	50	0	240123904	51	4261
2026-01-04 08:58:09.58	87.84	7.93	-44.5	-45.7	15.9	0.00e+00	0	51	0	262144000	51	4194
2026-01-04 08:58:13.55	87.53	8.22	-44.7	-45.9	15.8	0.00e+00	0	51	0	284164096	51	4294
2026-01-04 08:58:17.51	87.21	8.50	-44.4	-45.5	16.1	0.00e+00	0	51	0	307232768	51	4127
2026-01-04 08:58:21.47	86.89	8.79	-44.6	-45.7	15.9	0.00e+00	0	51	0	329252864	51	4241
2026-01-04 08:58:25.43	86.56	9.08	-44.4	-45.5	16.2	0.00e+00	0	51	0	351272960	51	4123
2026-01-04 08:58:29.39	86.23	9.37	-44.4	-45.5	16.3	0.00e+00	0	52	0	373293056	51	4108
2026-01-04 08:58:33.36	85.88	9.66	-44.0	-45.0	16.6	0.00e+00	0	52	0	396361728	51	3908
2026-01-04 08:58:37.33	85.53	9.96	-43.9	-44.9	16.8	0.00e+00	0	52	0	418381824	51	3863
2026-01-04 08:58:41.29	85.17	10.26	-43.9	-44.9	16.8	0.00e+00	0	52	0	440401920	50	4076
2026-01-04 08:58:45.26	84.80	10.56	-44.0	-45.0	16.8	0.00e+00	0	52	0	463470592	50	4113
2026-01-04 08:58:49.21	84.43	10.87	-44.0	-45.0	16.7	0.00e+00	0	52	0	485490688	50	4137
2026-01-04 08:58:53.18	84.05	11.17	-44.1	-45.1	16.7	0.00e+00	0	52	0	507510784	50	4162
2026-01-04 08:58:57.14	83.66	11.48	-43.6	-44.6	17.2	0.00e+00	0	52	0	529530880	50	3923
2026-01-04 08:59:01.09	83.26	11.79	-43.9	-44.9	17.0	0.00e+00	0	52	0	551550976	50	4053
2026-01-04 08:59:05.05	82.85	12.11	-43.9	-44.9	17.0	0.00e+00	0	53	0	574619648	50	4053
2026-01-04 08:59:09.02	82.43	12.43	-43.7	-44.7	17.2	0.00e+00	0	53	0	596639744	50	3968
2026-01-04 08:59:12.97	82.01	12.74	-43.4	-44.4	17.5	0.00e+00	0	53	0	618659840	49	4056
2026-01-04 08:59:16.94	81.57	13.07	-43.5	-44.4	17.4	0.00e+00	0	53	0	641728512	49	4087
2026-01-04 08:59:20.89	81.13	13.39	-43.4	-44.2	17.7	0.00e+00	0	53	0	663748608	49	4001
2026-01-04 08:59:24.86	80.67	13.72	-43.3	-44.1	17.8	0.00e+00	0	53	0	685768704	49	3939
2026-01-04 08:59:28.81	80.21	14.05	-43.4	-44.2	17.7	0.00e+00	0	53	0	707788800	49	4003
2026-01-04 08:59:32.77	79.73	14.38	-42.9	-43.6	18.3	0.00e+00	0	53	0	730857472	48	3958
2026-01-04 08:59:36.72	79.24	14.71	-43.1	-43.9	18.0	0.00e+00	0	53	0	752877568	48	4092
2026-01-04 08:59:40.68	78.74	15.05	-42.9	-43.6	18.3	0.00e+00	0	53	0	774897664	48	3958
2026-01-04 08:59:44.62	78.23	15.39	-42.9	-43.6	18.4	0.00e+00	0	54	0	796917760	48	3953
2026-01-04 08:59:48.58	77.71	15.73	-42.8	-43.6	18.4	0.00e+00	0	54	0	818937856	48	3935
2026-01-04 08:59:52.55	77.17	16.08	-42.5	-43.3	18.7	0.00e+00	0	54	0	840957952	48	3803
2026-01-04 08:59:56.49	76.63	16.42	-42.5	-43.2	18.8	0.00e+00	0	54	0	864026624	48	3778
2026-01-04 09:00:00.45	76.07	16.77	-42.0	-42.7	19.1	0.00e+00	0	54	0	886046720	47	3774
2026-01-04 09:00:04.41	75.49	17.12	-42.3	-43.0	18.8	0.00e+00	0	54	0	908066816	47	3911
2026-01-04 09:00:08.37	74.90	17.47	-42.3	-43.0	18.9	0.00e+00	0	54	0	931135488	47	3887
2026-01-04 09:00:12.32	74.30	17.83	-41.9	-42.6	19.3	0.00e+00	0	54	0	953155584	46	3920
2026-01-04 09:00:16.29	73.68	18.18	-41.9	-42.6	19.2	0.00e+00	0	54	0	975175680	46	3947
2026-01-04 09:00:20.25	73.05	18.54	-42.2	-42.9	19.0	0.00e+00	0	54	0	997195776	46	4090
2026-01-04 09:00:24.23	72.40	18.90	-42.0	-42.7	19.2	0.00e+00	0	54	0	1020264448	46	3969
2026-01-04 09:00:28.19	71.73	19.26	-41.9	-42.7	19.3	0.00e+00	0	54	0	1042284544	46	3959
2026-01-04 09:00:32.15	71.05	19.63	-41.8	-42.5	19.5	0.00e+00	0	54	0	1064304640	46	3876
2026-01-04 09:00:36.09	70.36	19.99	-41.8	-42.5	19.5	0.00e+00	0	54	0	1086324736	46	3875
2026-01-04 09:00:40.05	69.65	20.35	-41.5	-42.1	19.8	0.00e+00	0	55	0	1108344832	46	3729
2026-01-04 09:00:44.01	68.92	20.72	-41.4	-42.1	19.8	0.00e+00	0	55	0	1131413504	45	3933
2026-01-04 09:00:47.97	68.17	21.08	-41.4	-42.0	19.9	0.00e+00	0	55	0	1153433600	45	3906
2026-01-04 09:00:51.94	67.40	21.44	-41.6	-42.3	19.6	0.00e+00	0	55	0	1175453696	45	4030
2026-01-04 09:00:55.89	66.62	21.81	-41.5	-42.1	19.8	0.00e+00	0	55	0	1197473792	45	3952
2026-01-04 09:00:59.84	65.82	22.17	-41.1	-41.8	20.1	0.00e+00	0	55	0	1220542464	45	3793
2026-01-04 09:01:03.80	64.99	22.53	-40.9	-41.5	20.4	0.00e+00	0	55	0	1242562560	44	3872
2026-01-04 09:01:07.76	64.15	22.89	-41.2	-41.8	20.1	0.00e+00	0	55	0	1264582656	44	4035
2026-01-04 09:01:11.72	63.29	23.25	-41.0	-41.6	20.3	0.00e+00	0	55	0	1286602752	44	3953
2026-01-04 09:01:15.68	62.41	23.61	-40.6	-41.2	20.7	0.00e+00	0	55	0	1309671424	44	3760
2026-01-04 09:01:19.65	61.50	23.96	-40.6	-41.2	20.7	0.00e+00	0	55	0	1331691520	44	3744
2026-01-04 09:01:23.61	60.58	24.31	-40.6	-41.2	20.7	0.00e+00	0	55	0	1353711616	44	3768
2026-01-04 09:01:27.57	59.63	24.66	-41.0	-41.6	20.4	0.00e+00	0	55	0	1375731712	44	3922
2026-01-04 09:01:31.51	58.67	25.00	-41.0	-41.6	20.3	0.00e+00	0	55	0	1398800384	44	3948
2026-01-04 09:01:35.46	57.69	25.33	-40.5	-41.1	20.8	0.00e+00	0	55	0	1420820480	44	3725
2026-01-04 09:01:39.42	56.68	25.67	-41.0	-41.6	20.4	0.00e+00	0	55	0	1442840576	44	3936
2026-01-04 09:01:43.38	55.65	25.99	-40.7	-41.3	20.6	0.00e+00	0	55	0	1464860672	44	3802
2026-01-04 09:01:47.35	54.60	26.31	-40.4	-40.9	21.0	0.00e+00	0	55	0	1486880768	44	3649
2026-01-04 09:01:51.31	53.53	26.63	-39.9	-40.4	21.4	0.00e+00	0	55	0	1509949440	42	3854
2026-01-04 09:01:55.26	52.44	26.93	-40.3	-40.8	21.0	0.00e+00	0	55	0	1531969536	42	4046
2026-01-04 09:01:59.21	51.33	27.23	-40.2	-40.8	21.0	0.00e+00	0	55	0	1553989632	42	4031
2026-01-04 09:02:03.16	50.20	27.51	-40.4	-41.0	20.9	0.00e+00	0	55	0	1576009728	42	4101
2026-01-04 09:02:07.12	49.04	27.79	-40.6	-41.2	20.7	0.00e+00	0	55	0	1599078400	43	3971
2026-01-04 09:02:11.07	47.87	28.06	-40.6	-41.2	20.7	0.00e+00	0	56	0	1621098496	43	3973
2026-01-04 09:02:15.04	46.67	28.31	-39.8	-40.4	21.5	0.00e+00	0	56	0	1643118592	42	3827
2026-01-04 09:02:19.02	45.45	28.56	-40.0	-40.6	21.2	0.00e+00	0	56	0	1665138688	42	3937
2026-01-04 09:02:22.97	44.22	28.79	-39.7	-40.3	21.6	0.00e+00	0	56	0	1688207360	42	3783
2026-01-04 09:02:26.94	42.97	29.01	-39.9	-40.4	21.4	0.00e+00	0	56	0	1710227456	42	3850
2026-01-04 09:02:30.89	41.71	29.21	-39.8	-40.4	21.4	0.00e+00	0	56	0	1732247552	42	3837
2026-01-04 09:02:34.86	40.42	29.40	-39.8	-40.3	21.5	0.00e+00	0	56	0	1754267648	42	3822
2026-01-04 09:02:38.82	39.13	29.58	-39.3	-39.8	22.0	0.00e+00	0	56	0	1777336320	41	3808
2026-01-04 09:02:42.78	37.82	29.74	-39.6	-40.2	21.6	0.00e+00	0	56	0	1799356416	41	3961
2026-01-04 09:02:46.75	36.49	29.88	-40.2	-40.8	21.1	0.00e+00	0	56	0	1821376512	42	4031
2026-01-04 09:02:50.70	35.16	30.01	-39.8	-40.4	21.4	0.00e+00	0	56	0	1843396608	42	3845
2026-01-04 09:02:54.65	33.82	30.12	-40.1	-40.6	21.2	0.00e+00	0	56	0	1865416704	42	3948
2026-01-04 09:02:58.60	32.48	30.21	-39.5	-40.0	21.8	0.00e+00	0	56	0	1888485376	42	3667
2026-01-04 09:03:02.57	31.11	30.28	-39.5	-40.0	21.8	0.00e+00	0	56	0	1910505472	41	3895
2026-01-04 09:03:06.53	29.75	30.34	-39.5	-40.0	21.8	0.00e+00	0	56	0	1932525568	41	3903
2026-01-04 09:03:10.50	28.38	30.38	-39.8	-40.3	21.5	0.00e+00	0	56	0	1955594240	41	4034
2026-01-04 09:03:14.47	27.01	30.40	-39.6	-40.1	21.7	0.00e+00	0	56	0	1977614336	41	3945
2026-01-04 09:03:18.43	25.64	30.40	-39.7	-40.2	21.5	0.00e+00	0	56	0	1999634432	41	3993
2026-01-04 09:03:22.38	24.27	30.38	-39.4	-39.9	21.8	0.00e+00	0	56	0	2021654528	41	3859
2026-01-04 09:03:26.35	22.90	30.34	-39.4	-39.9	21.7	0.00e+00	0	56	0	2043674624	41	3849
2026-01-04 09:03:30.29	21.54	30.29	-39.5	-40.1	21.4	0.00e+00	0	56	0	2066743296	41	3931
2026-01-04 09:03:34.25	20.18	30.22	-40.2	-40.8	20.6	0.00e+00	0	56	0	2088763392	42	4024
2026-01-04 09:03:38.21	18.83	30.13	-41.0	-41.7	19.5	0.00e+00	0	56	0	2110783488	43	4210
2026-01-04 09:03:42.16	17.49	30.02	-42.2	-43.0	18.1	0.00e+00	0	56	0	2132803584	46	4140
2026-01-04 09:03:46.11	16.16	29.89	-43.4	-44.4	16.8	0.00e+00	0	56	0	2155872256	48	4313
2026-01-04 09:03:50.06	14.84	29.75	-43.9	-45.0	16.3	0.00e+00	0	56	0	2177892352	49	4361
2026-01-04 09:03:54.03	13.53	29.60	-41.6	-42.3	19.4	0.00e+00	0	56	0	2199912448	46	3804
2026-01-04 09:03:57.99	12.23	29.42	-41.5	-42.1	19.8	0.00e+00	0	56	0	2221932544	45	3945
2026-01-04 09:04:01.95	10.95	29.23	-40.4	-41.0	20.8	0.00e+00	0	56	0	2243952640	44	3664
2026-01-04 09:04:05.90	9.69	29.03	-39.5	-40.0	21.7	0.00e+00	0	56	0	2267021312	42	3674
2026-01-04 09:04:09.85	8.44	28.82	-39.6	-40.1	21.6	0.00e+00	0	56	0	2289041408	42	3728
2026-01-04 09:04:13.80	7.21	28.59	-39.7	-40.3	21.5	0.00e+00	0	56	0	2311061504	42	3783
2026-01-04 09:04:17.75	6.00	28.35	-39.9	-40.5	21.3	0.00e+00	0	56	0	2333081600	42	3883
2026-01-04 09:04:21.70	4.81	28.09	-39.7	-40.3	21.5	0.00e+00	0	56	0	2356150272	42	3789
2026-01-04 09:04:25.67	3.63	27.83	-40.0	-40.5	21.2	0.00e+00	0	56	0	2378170368	42	3913
2026-01-04 09:04:29.62	2.47	27.55	-39.8	-40.4	21.4	0.00e+00	0	56	0	2400190464	42	3852
2026-01-04 09:04:33.58	1.34	27.26	-39.8	-40.3	21.5	0.00e+00	0	56	0	2422210560	42	3806
2026-01-04 09:04:37.55	0.22	26.97	-40.1	-40.7	21.1	0.00e+00	0	56	0	2444230656	42	3970
2026-01-04 09:04:41.51	359.13	26.66	-40.0	-40.5	21.2	0.00e+00	0	56	0	2467299328	42	3899
2026-01-04 09:04:45.46	358.06	26.35	-40.1	-40.7	21.1	0.00e+00	0	56	0	2489319424	42	3987
2026-01-04 09:04:49.43	357.00	26.03	-39.9	-40.5	21.3	0.00e+00	0	57	0	2511339520	42	3873
2026-01-04 09:04:53.38	355.97	25.71	-40.5	-41.1	20.7	0.00e+00	0	56	0	2533359616	43	3952
2026-01-04 09:04:57.34	354.96	25.38	-40.0	-40.5	21.3	0.00e+00	0	56	0	2556428288	43	3676
2026-01-04 09:05:01.30	353.98	25.04	-40.0	-40.6	21.2	0.00e+00	0	56	0	2578448384	43	3697
2026-01-04 09:05:05.26	353.01	24.70	-40.2	-40.8	21.0	0.00e+00	0	56	0	2600468480	43	3784
2026-01-04 09:05:09.22	352.07	24.35	-40.0	-40.5	21.2	0.00e+00	0	56	0	2622488576	43	3690
2026-01-04 09:05:13.18	351.14	24.00	-40.4	-41.0	20.7	0.00e+00	0	57	0	2645557248	43	3906
2026-01-04 09:05:17.14	350.24	23.65	-40.5	-41.1	20.7	0.00e+00	0	57	0	2667577344	43	3918
2026-01-04 09:05:21.08	349.36	23.30	-40.7	-41.3	20.4	0.00e+00	0	57	0	2689597440	43	4041
2026-01-04 09:05:25.04	348.50	22.94	-40.7	-41.3	20.4	0.00e+00	0	57	0	2711617536	43	4032
2026-01-04 09:05:28.99	347.65	22.58	-41.3	-41.9	20.0	0.00e+00	0	57	0	2733637632	44	4077
2026-01-04 09:05:32.95	346.83	22.22	-41.3	-42.0	19.9	0.00e+00	0	57	0	2756706304	44	4105
2026-01-04 09:05:36.90	346.03	21.86	-41.4	-42.0	19.8	0.00e+00	0	56	0	2778726400	45	3911
2026-01-04 09:05:40.86	345.24	21.50	-41.1	-41.8	20.1	0.00e+00	0	56	0	2800746496	45	3783
2026-01-04 09:05:44.83	344.47	21.13	-41.0	-41.6	20.1	0.00e+00	0	57	0	2822766592	45	3734
2026-01-04 09:05:48.79	343.72	20.77	-41.0	-41.6	20.2	0.00e+00	0	57	0	2845835264	45	3719
2026-01-04 09:05:52.75	342.99	20.40	-41.3	-42.0	19.8	0.00e+00	0	57	0	2867855360	45	3871
2026-01-04 09:05:56.71	342.28	20.04	-42.5	-43.3	18.5	0.00e+00	0	57	0	2889875456	46	4255
2026-01-04 09:06:00.65	341.59	19.68	-44.0	-45.0	16.7	0.00e+00	0	57	0	2911895552	49	4369
2026-01-04 09:06:04.61	340.91	19.32	-45.0	-46.3	15.1	0.00e+00	0	57	0	2934964224	51	4501
2026-01-04 09:06:08.57	340.24	18.96	-45.4	-46.8	14.5	1.10e-06	0	57	0	2956984320	52	4494
2026-01-04 09:06:12.54	339.59	18.60	-43.6	-44.5	16.9	0.00e+00	0	57	0	2979004416	50	3910
2026-01-04 09:06:16.50	338.96	18.24	-43.0	-43.8	17.6	0.00e+00	0	57	0	3001024512	49	3809
2026-01-04 09:06:20.46	338.34	17.89	-44.7	-45.9	15.7	0.00e+00	0	57	0	3024093184	51	4305
2026-01-04 09:06:24.42	337.74	17.53	-43.4	-44.3	17.6	0.00e+00	0	57	0	3046113280	50	3800
2026-01-04 09:06:28.38	337.15	17.18	-43.6	-44.5	17.5	0.00e+00	0	57	0	3068133376	50	3895
2026-01-04 09:06:32.34	336.57	16.83	-42.6	-43.4	18.6	0.00e+00	0	57	0	3090153472	48	3839
2026-01-04 09:06:36.30	336.01	16.48	-42.9	-43.7	18.3	0.00e+00	0	57	0	3113222144	48	3985
2026-01-04 09:06:40.28	335.46	16.13	-43.1	-43.9	18.1	0.00e+00	0	57	0	3135242240	48	4059
2026-01-04 09:06:44.23	334.92	15.79	-42.8	-43.6	18.4	0.00e+00	0	57	0	3157262336	48	3930
2026-01-04 09:06:48.19	334.40	15.45	-43.5	-44.4	17.6	0.00e+00	0	57	0	3179282432	48	4305
2026-01-04 09:06:52.16	333.89	15.11	-43.2	-44.0	18.0	0.00e+00	0	57	0	3202351104	49	3872
2026-01-04 09:06:56.11	333.39	14.77	-42.9	-43.6	18.4	0.00e+00	0	57	0	3224371200	48	3953
2026-01-04 09:07:00.08	332.90	14.43	-43.0	-43.7	18.3	0.00e+00	0	57	0	3246391296	48	3998
2026-01-04 09:07:04.03	332.43	14.10	-42.8	-43.6	18.4	0.00e+00	0	57	0	3268411392	48	3924
2026-01-04 09:07:08.00	331.96	13.77	-43.0	-43.8	18.2	0.00e+00	0	57	0	3290431488	48	4033
2026-01-04 09:07:11.97	331.50	13.44	-43.4	-44.3	17.7	0.00e+00	0	57	0	3313500160	48	4257
2026-01-04 09:07:15.92	331.06	13.12	-43.6	-44.4	17.5	0.00e+00	0	57	0	3335520256	48	4334
2026-01-04 09:07:19.89	330.62	12.80	-43.6	-44.5	17.5	0.00e+00	0	57	0	3357540352	49	4109
2026-01-04 09:07:23.83	330.20	12.48	-43.7	-44.6	17.4	0.00e+00	0	57	0	3379560448	49	4165
2026-01-04 09:07:27.79	329.78	12.16	-43.9	-44.8	17.2	0.00e+00	0	57	0	3402629120	49	4250
2026-01-04 09:07:31.74	329.37	11.85	-44.4	-45.4	16.6	0.00e+00	0	57	0	3424649216	50	4299
2026-01-04 09:07:35.70	328.98	11.54	-44.6	-45.6	16.3	0.00e+00	0	57	0	3446669312	50	4409
2026-01-04 09:07:39.67	328.58	11.23	-44.3	-45.3	16.6	0.00e+00	0	57	0	3468689408	51	4028
2026-01-04 09:07:43.64	328.20	10.92	-44.4	-45.5	16.4	0.00e+00	0	57	0	3491758080	51	4109
2026-01-04 09:07:47.59	327.83	10.62	-44.5	-45.5	16.4	0.00e+00	0	57	0	3513778176	51	4111
2026-01-04 09:07:51.54	327.46	10.32	-44.8	-45.8	16.1	0.00e+00	0	57	0	3535798272	51	4276
2026-01-04 09:07:55.51	327.11	10.02	-44.4	-45.4	16.5	0.00e+00	0	57	0	3558866944	51	4069
2026-01-04 09:07:59.47	326.76	9.72	-44.4	-45.4	16.5	0.00e+00	0	57	0	3580887040	51	4056
2026-01-04 09:08:03.44	326.41	9.43	-44.2	-45.2	16.6	0.00e+00	0	57	0	3602907136	51	3976
2026-01-04 09:08:07.39	326.08	9.14	-44.2	-45.2	16.6	0.00e+00	0	57	0	3624927232	51	3968
2026-01-04 09:08:11.37	325.75	8.85	-44.2	-45.2	16.5	0.00e+00	0	57	0	3647995904	51	3996
2026-01-04 09:08:15.33	325.42	8.56	-44.3	-45.3	16.4	0.00e+00	0	57	0	3670016000	51	4042
2026-01-04 09:08:19.27	325.11	8.28	-44.4	-45.4	16.3	0.00e+00	0	57	0	3692036096	51	4096
2026-01-04 09:08:23.22	324.80	7.99	-44.5	-45.5	16.2	0.00e+00	0	57	0	3714056192	51	4139
2026-01-04 09:08:27.18	324.50	7.71	-44.6	-45.7	16.0	0.00e+00	0	57	0	3736076288	51	4223
2026-01-04 09:08:31.11	324.20	7.44	-44.6	-45.7	16.0	0.00e+00	0	57	0	3758096384	51	4212
2026-01-04 09:08:35.08	323.91	7.16	-45.0	-46.1	15.5	0.00e+00	0	57	0	3781165056	51	4438
2026-01-04 09:08:39.02	323.63	6.89	-44.5	-45.5	16.0	0.00e+00	0	57	0	3803185152	52	3910
2026-01-04 09:08:42.98	323.35	6.62	-44.7	-45.9	15.6	0.00e+00	0	57	0	3825205248	52	4063
2026-01-04 09:08:46.94	323.07	6.35	-44.7	-45.8	15.7	0.00e+00	0	57	0	3847225344	52	4030
2026-01-04 09:08:50.89	322.80	6.09	-44.6	-45.8	15.6	0.00e+00	0	57	0	3869245440	52	4013
2026-01-04 09:08:54.86	322.54	5.82	-45.1	-46.4	15.0	0.00e+00	0	57	0	3892314112	52	4313
2026-01-04 09:08:58.81	322.28	5.56	-45.1	-46.3	15.0	0.00e+00	0	57	0	3914334208	52	4285
2026-01-04 09:09:02.78	322.03	5.30	-45.2	-46.4	14.9	0.00e+00	0	57	0	3936354304	52	4336
2026-01-04 09:09:06.73	321.78	5.04	-45.5	-46.8	14.5	1.10e-06	0	57	0	3958374400	52	4528
2026-01-04 09:09:10.69	321.53	4.78	-48.3	-59.1	3.8	8.45e-01	0	57	104	3961520128	59	12459
2026-01-04 09:09:14.64	321.29	4.53	-52.4	-63.2	3.8	8.47e-01	0	57	104	3961520128	66	13323
2026-01-04 09:09:18.59	321.06	4.28	-52.6	-63.3	3.8	8.45e-01	0	57	104	3961520128	67	12785
2026-01-04 09:09:22.56	320.82	4.03	-52.7	-63.4	3.8	8.46e-01	0	57	104	3961520128	67	12943
2026-01-04 09:09:26.51	320.60	3.78	-52.7	-63.5	3.8	8.47e-01	0	57	104	3961520128	67	12966
2026-01-04 09:09:30.46	320.37	3.53	-52.8	-63.5	3.8	8.47e-01	0	57	104	3961520128	67	13048
2026-01-04 09:09:34.42	320.15	3.29	-52.8	-63.5	3.8	8.47e-01	0	57	104	3961520128	67	13057
2026-01-04 09:09:38.38	319.94	3.04	-52.8	-63.5	3.8	8.47e-01	0	57	104	3961520128	67	13070

#Closed at: 2026-01-04 09:09:41
#Recorded file [3961 MB]: D:/Data/31026_260104_120907.dat