passes_logs/2026/01/04/R3.0SM8_Murmansk_STILSPACE/R3.0SM8_Murmansk_STILSPACE__20260104_140251_FENGYUN_3E_rec.log

#Pass ID: 20260104_140251_FENGYUN 3E
#Satellite: FENGYUN 3E
#Configuration: FENGYUN 3E
#almurnet v.1.7.20240730
#Start time: 2026-01-04 14:10:37

#Version: 2.2.20231116
#Station: R3.0SM8_Murmansk_STILSPACE
#Location: 33.092731 lon 68.902999 lat
#TLE: 1 49008U 21062A   26004.01270550 -.00000256  00000+0 -10014-3 0  9997
#TLE: 2 49008  98.7472   9.2701 0001499 161.2681 198.8551 14.19882497233285

#Time	Az	El	Level	Level2	SNR	BER	BlckErr	Temp	State	Recorded	gain1	gain2
2026-01-04 14:10:37.52	316.17	65.11	-52.6	-63.5	3.8	8.47e-01	0	57	0	0	67	12973
2026-01-04 14:10:39.51	316.94	64.30	-50.5	-62.2	4.0	8.39e-01	0	57	104	0	63	13976
2026-01-04 14:10:41.49	317.66	63.50	-52.3	-62.6	3.8	8.45e-01	0	57	104	0	66	12368
2026-01-04 14:10:43.46	318.33	62.70	-52.5	-62.2	3.8	8.45e-01	0	57	104	0	66	11707
2026-01-04 14:10:45.44	318.96	61.91	-52.1	-62.5	3.9	8.41e-01	0	57	104	0	66	12147
2026-01-04 14:10:47.42	319.55	61.13	-52.1	-62.6	3.8	8.44e-01	0	57	104	0	66	12263
2026-01-04 14:10:49.40	320.11	60.35	-52.3	-62.4	3.8	8.44e-01	0	57	104	0	66	12009
2026-01-04 14:10:51.36	320.63	59.59	-52.5	-62.7	3.8	8.44e-01	0	57	104	0	66	12439
2026-01-04 14:10:53.34	321.12	58.83	-52.6	-62.8	3.8	8.44e-01	0	57	104	0	66	12531
2026-01-04 14:10:55.32	321.59	58.07	-52.5	-62.6	3.8	8.46e-01	0	58	104	0	66	12239
2026-01-04 14:10:57.29	322.03	57.33	-52.6	-62.6	3.8	8.47e-01	0	57	104	0	66	12352
2026-01-04 14:10:59.28	322.45	56.59	-52.6	-62.6	3.8	8.46e-01	0	58	104	0	66	12360
2026-01-04 14:11:01.24	322.85	55.86	-52.5	-62.6	3.8	8.45e-01	0	57	104	0	66	12367
2026-01-04 14:11:03.23	323.23	55.14	-52.5	-62.4	3.8	8.46e-01	0	58	104	0	66	11978
2026-01-04 14:11:05.21	323.59	54.43	-52.6	-62.7	3.8	8.48e-01	0	57	104	0	66	12424
2026-01-04 14:11:07.18	323.93	53.72	-52.5	-62.5	3.8	8.46e-01	0	58	104	0	66	12179
2026-01-04 14:11:09.16	324.26	53.03	-52.5	-62.5	3.8	8.46e-01	0	57	104	0	66	12206
2026-01-04 14:11:11.15	324.57	52.34	-52.4	-62.4	3.8	8.47e-01	0	57	104	0	66	11993
2026-01-04 14:11:13.14	324.87	51.66	-52.5	-62.2	3.8	8.46e-01	0	58	104	0	66	11709
2026-01-04 14:11:15.11	325.16	50.99	-52.4	-62.0	3.8	8.46e-01	0	57	104	0	66	11427
2026-01-04 14:11:17.09	325.43	50.33	-52.3	-61.6	3.8	8.45e-01	0	58	104	0	66	10955
2026-01-04 14:11:19.08	325.70	49.67	-52.3	-61.3	3.8	8.46e-01	0	58	104	0	66	10539
2026-01-04 14:11:21.06	325.95	49.03	-52.4	-61.6	3.8	8.46e-01	0	58	104	0	66	10994
2026-01-04 14:11:23.03	326.19	48.40	-52.1	-60.0	4.0	8.42e-01	0	58	0	0	66	9074
2026-01-04 14:11:25.01	326.42	47.77	-51.0	-55.4	6.1	8.06e-01	0	58	0	0	65	5721
2026-01-04 14:11:26.98	326.64	47.16	-46.7	-48.0	13.8	2.97e-05	0	58	0	14680064	56	4064
2026-01-04 14:11:28.95	326.86	46.55	-41.7	-42.2	19.1	0.00e+00	0	57	0	28311552	46	3737
2026-01-04 14:11:30.93	327.07	45.95	-40.5	-41.0	20.4	0.00e+00	0	58	0	42991616	43	3831
2026-01-04 14:11:32.91	327.27	45.36	-41.8	-42.4	19.1	0.00e+00	0	58	0	56623104	45	4016
2026-01-04 14:11:34.88	327.46	44.78	-41.5	-42.1	19.5	0.00e+00	0	58	0	71303168	45	3882
2026-01-04 14:11:36.86	327.65	44.20	-40.9	-41.5	19.9	0.00e+00	0	58	0	85983232	44	3832
2026-01-04 14:11:38.85	327.83	43.63	-40.4	-40.9	20.5	0.00e+00	0	58	0	99614720	43	3781
2026-01-04 14:11:40.83	328.00	43.08	-40.3	-40.8	20.6	0.00e+00	0	57	0	114294784	43	3769
2026-01-04 14:11:42.82	328.17	42.52	-40.2	-40.7	20.7	0.00e+00	0	58	0	128974848	43	3704
2026-01-04 14:11:44.80	328.34	41.98	-40.2	-40.6	20.7	0.00e+00	0	58	0	142606336	43	3692
2026-01-04 14:11:46.77	328.49	41.44	-40.2	-40.7	20.6	0.00e+00	0	58	0	157286400	43	3724
2026-01-04 14:11:48.74	328.65	40.92	-40.5	-41.0	20.4	0.00e+00	0	58	0	170917888	43	3851
2026-01-04 14:11:50.73	328.80	40.39	-40.4	-40.9	20.4	0.00e+00	0	57	0	185597952	43	3795
2026-01-04 14:11:52.70	328.94	39.88	-40.5	-41.0	20.4	0.00e+00	0	58	0	200278016	43	3848
2026-01-04 14:11:54.68	329.08	39.38	-40.6	-41.1	20.2	0.00e+00	0	58	0	213909504	43	3904
2026-01-04 14:11:56.66	329.22	38.88	-40.6	-41.1	20.3	0.00e+00	0	58	0	228589568	43	3883
2026-01-04 14:11:58.64	329.35	38.39	-40.7	-41.2	20.1	0.00e+00	0	58	0	243269632	43	3923
2026-01-04 14:12:00.62	329.48	37.90	-40.8	-41.3	20.0	0.00e+00	0	58	0	256901120	43	3997
2026-01-04 14:12:02.60	329.61	37.42	-40.5	-41.0	20.4	0.00e+00	0	58	0	271581184	43	3839
2026-01-04 14:12:04.58	329.73	36.95	-40.7	-41.2	20.2	0.00e+00	0	58	0	286261248	43	3924
2026-01-04 14:12:06.55	329.85	36.49	-40.3	-40.8	20.5	0.00e+00	0	57	0	299892736	43	3758
2026-01-04 14:12:08.54	329.96	36.03	-40.0	-40.5	20.7	0.00e+00	0	58	0	314572800	43	3625
2026-01-04 14:12:10.52	330.07	35.57	-40.0	-40.5	20.6	0.00e+00	0	58	0	328204288	42	3825
2026-01-04 14:12:12.50	330.18	35.13	-39.7	-40.1	21.1	0.00e+00	0	58	0	342884352	42	3688
2026-01-04 14:12:14.47	330.29	34.69	-39.4	-39.8	21.3	0.00e+00	0	58	0	357564416	41	3780
2026-01-04 14:12:16.45	330.40	34.26	-39.8	-40.3	20.9	0.00e+00	0	58	0	371195904	41	3988
2026-01-04 14:12:18.44	330.50	33.83	-39.9	-40.4	20.9	0.00e+00	0	58	0	385875968	41	4018
2026-01-04 14:12:20.42	330.60	33.40	-40.1	-40.6	20.7	0.00e+00	0	58	0	400556032	41	4108
2026-01-04 14:12:22.40	330.70	32.99	-40.3	-40.8	20.5	0.00e+00	0	58	0	414187520	42	3965
2026-01-04 14:12:24.39	330.79	32.57	-40.1	-40.5	20.8	0.00e+00	0	58	0	428867584	42	3861
2026-01-04 14:12:26.37	330.88	32.17	-39.8	-40.2	21.1	0.00e+00	0	58	0	442499072	42	3718
2026-01-04 14:12:28.35	330.97	31.77	-39.8	-40.2	21.0	0.00e+00	0	58	0	457179136	42	3734
2026-01-04 14:12:30.31	331.06	31.38	-39.7	-40.1	21.1	0.00e+00	0	58	0	471859200	42	3690
2026-01-04 14:12:32.29	331.15	30.99	-39.6	-40.0	21.2	0.00e+00	0	58	0	485490688	42	3639
2026-01-04 14:12:34.28	331.23	30.60	-39.8	-40.2	21.0	0.00e+00	0	58	0	500170752	42	3729
2026-01-04 14:12:36.26	331.32	30.22	-39.9	-40.4	20.9	0.00e+00	0	58	0	513802240	42	3807
2026-01-04 14:12:38.23	331.40	29.85	-40.0	-40.5	20.7	0.00e+00	0	58	0	528482304	42	3852
2026-01-04 14:12:40.20	331.48	29.48	-39.9	-40.4	20.9	0.00e+00	0	58	0	543162368	42	3793
2026-01-04 14:12:42.18	331.56	29.12	-40.0	-40.5	20.8	0.00e+00	0	58	0	556793856	42	3833
2026-01-04 14:12:44.16	331.63	28.76	-40.0	-40.5	20.8	0.00e+00	0	58	0	571473920	42	3829
2026-01-04 14:12:46.11	331.71	28.41	-40.2	-40.6	20.6	0.00e+00	0	58	0	585105408	42	3911
2026-01-04 14:12:48.10	331.78	28.05	-40.3	-40.8	20.4	0.00e+00	0	58	0	599785472	42	3994
2026-01-04 14:12:50.08	331.85	27.71	-40.3	-40.8	20.4	0.00e+00	0	58	0	614465536	42	3998
2026-01-04 14:12:52.07	331.93	27.36	-40.4	-40.9	20.2	0.00e+00	0	58	0	628097024	42	4031
2026-01-04 14:12:54.05	332.00	27.02	-40.7	-41.3	19.6	0.00e+00	0	58	0	642777088	43	3967
2026-01-04 14:12:56.03	332.06	26.69	-40.3	-40.8	20.4	0.00e+00	0	58	0	657457152	43	3774
2026-01-04 14:12:58.01	332.13	26.36	-40.5	-41.0	20.3	0.00e+00	0	58	0	671088640	43	3833
2026-01-04 14:12:59.99	332.20	26.03	-40.5	-41.1	20.2	0.00e+00	0	58	0	685768704	43	3869
2026-01-04 14:13:01.95	332.26	25.71	-40.6	-41.1	20.1	0.00e+00	0	58	0	699400192	43	3908
2026-01-04 14:13:03.92	332.33	25.40	-41.0	-41.6	19.7	0.00e+00	0	58	0	714080256	43	4107
2026-01-04 14:13:05.90	332.39	25.08	-40.6	-41.1	20.1	0.00e+00	0	58	0	728760320	43	3913
2026-01-04 14:13:07.88	332.45	24.77	-40.5	-41.0	20.2	0.00e+00	0	58	0	742391808	43	3858
2026-01-04 14:13:09.85	332.51	24.46	-40.3	-40.8	20.4	0.00e+00	0	58	0	757071872	43	3775
2026-01-04 14:13:11.84	332.57	24.16	-40.2	-40.7	20.5	0.00e+00	0	58	0	771751936	43	3730
2026-01-04 14:13:13.81	332.63	23.86	-40.5	-41.0	20.2	0.00e+00	0	58	0	785383424	43	3846
2026-01-04 14:13:15.79	332.69	23.56	-40.3	-40.8	20.4	0.00e+00	0	58	0	800063488	43	3748
2026-01-04 14:13:17.76	332.74	23.27	-40.4	-40.9	20.2	0.00e+00	0	58	0	813694976	43	3786
2026-01-04 14:13:19.75	332.80	22.98	-40.2	-40.7	20.3	0.00e+00	0	58	0	828375040	43	3703
2026-01-04 14:13:21.73	332.85	22.69	-40.6	-41.1	20.0	0.00e+00	0	58	0	843055104	43	3894
2026-01-04 14:13:23.71	332.91	22.41	-40.6	-41.1	20.1	0.00e+00	0	58	0	856686592	43	3886
2026-01-04 14:13:25.69	332.96	22.13	-40.5	-41.0	20.1	0.00e+00	0	57	0	871366656	43	3865
2026-01-04 14:13:27.67	333.01	21.85	-40.7	-41.2	19.9	0.00e+00	0	57	0	884998144	43	3939
2026-01-04 14:13:29.64	333.06	21.57	-40.9	-41.5	19.6	0.00e+00	0	58	0	899678208	43	4071
2026-01-04 14:13:31.62	333.11	21.30	-41.0	-41.6	19.4	0.00e+00	0	58	0	913309696	43	4131
2026-01-04 14:13:33.59	333.16	21.03	-41.3	-41.8	19.3	0.00e+00	0	58	0	927989760	44	4002
2026-01-04 14:13:35.57	333.21	20.77	-41.3	-41.8	19.3	0.00e+00	0	58	0	942669824	44	4002
2026-01-04 14:13:37.55	333.26	20.51	-40.9	-41.5	19.6	0.00e+00	0	58	0	956301312	44	3834
2026-01-04 14:13:39.54	333.31	20.24	-40.7	-41.2	19.8	0.00e+00	0	58	0	970981376	44	3724
2026-01-04 14:13:41.53	333.36	19.98	-40.1	-40.9	17.8	4.71e-04	0	57	0	985661440	43	3786
2026-01-04 14:13:43.51	333.41	19.73	-40.3	-41.1	18.3	3.66e-04	0	58	0	999292928	43	3885
2026-01-04 14:13:45.50	333.45	19.47	-40.9	-41.7	17.2	8.52e-03	0	58	0	1013972992	43	4161
2026-01-04 14:13:47.48	333.50	19.22	-40.7	-41.5	17.3	8.18e-03	0	58	0	1028653056	43	4087
2026-01-04 14:13:49.45	333.54	18.98	-40.5	-41.3	17.3	1.24e-02	0	57	0	1042284544	43	3980
2026-01-04 14:13:51.44	333.59	18.73	-40.9	-41.7	17.1	1.20e-02	0	58	0	1056964608	43	4175
2026-01-04 14:13:53.41	333.63	18.49	-40.8	-41.7	17.0	1.49e-02	0	58	0	1071644672	43	4149
2026-01-04 14:13:55.39	333.67	18.25	-41.0	-41.8	16.9	1.58e-02	0	58	0	1085276160	43	4235
2026-01-04 14:13:57.36	333.72	18.01	-41.4	-42.0	19.2	0.00e+00	0	58	0	1099956224	44	4075
2026-01-04 14:13:59.35	333.76	17.77	-41.6	-42.2	19.0	0.00e+00	0	57	0	1114636288	44	4173
2026-01-04 14:14:01.32	333.80	17.54	-41.9	-42.5	18.6	0.00e+00	0	57	0	1128267776	45	4086
2026-01-04 14:14:03.30	333.84	17.31	-41.9	-42.5	18.8	0.00e+00	0	58	0	1142947840	46	3827
2026-01-04 14:14:05.27	333.88	17.08	-41.6	-42.1	19.1	0.00e+00	0	57	0	1156579328	46	3687
2026-01-04 14:14:07.26	333.92	16.85	-41.6	-42.2	19.0	0.00e+00	0	58	0	1171259392	45	3926
2026-01-04 14:14:09.23	333.96	16.63	-41.7	-42.4	18.9	0.00e+00	0	57	0	1185939456	45	4008
2026-01-04 14:14:11.21	334.00	16.41	-41.8	-42.4	18.8	0.00e+00	0	58	0	1199570944	45	4031
2026-01-04 14:14:13.19	334.04	16.19	-42.2	-42.9	18.3	0.00e+00	0	58	0	1214251008	46	4029
2026-01-04 14:14:15.17	334.08	15.97	-42.4	-43.1	18.2	0.00e+00	0	57	0	1227882496	46	4108
2026-01-04 14:14:17.16	334.12	15.75	-42.5	-43.2	18.0	0.00e+00	0	58	0	1242562560	46	4172
2026-01-04 14:14:19.15	334.15	15.53	-42.5	-43.2	18.0	0.00e+00	0	58	0	1257242624	46	4182
2026-01-04 14:14:21.13	334.19	15.32	-42.5	-43.2	18.0	0.00e+00	0	58	0	1271922688	47	3938
2026-01-04 14:14:23.12	334.23	15.11	-42.4	-43.0	18.1	0.00e+00	0	57	0	1285554176	47	3860
2026-01-04 14:14:25.10	334.26	14.90	-42.6	-43.3	17.8	0.00e+00	0	58	0	1300234240	47	4000
2026-01-04 14:14:27.08	334.30	14.69	-42.8	-43.5	17.6	0.00e+00	0	57	0	1314914304	47	4083
2026-01-04 14:14:29.05	334.34	14.48	-42.5	-43.2	17.9	0.00e+00	0	58	0	1328545792	47	3924
2026-01-04 14:14:31.03	334.37	14.28	-42.6	-43.3	17.8	0.00e+00	0	58	0	1343225856	47	3970
2026-01-04 14:14:33.01	334.41	14.08	-42.9	-43.6	17.5	0.00e+00	0	58	0	1356857344	47	4126
2026-01-04 14:14:34.99	334.44	13.88	-43.0	-43.7	17.4	0.00e+00	0	58	0	1371537408	47	4179
2026-01-04 14:14:36.97	334.47	13.68	-43.0	-43.8	17.3	0.00e+00	0	58	0	1385168896	47	4225
2026-01-04 14:14:38.95	334.51	13.48	-42.8	-43.5	17.6	0.00e+00	0	58	0	1399848960	47	4095
2026-01-04 14:14:40.94	334.54	13.28	-43.1	-43.9	17.3	0.00e+00	0	57	0	1414529024	47	4266
2026-01-04 14:14:42.92	334.58	13.09	-43.1	-43.9	17.3	0.00e+00	0	58	0	1428160512	47	4243
2026-01-04 14:14:44.90	334.61	12.89	-42.9	-43.6	17.5	0.00e+00	0	58	0	1442840576	47	4132
2026-01-04 14:14:46.89	334.64	12.70	-42.9	-43.6	17.5	0.00e+00	0	58	0	1457520640	47	4130
2026-01-04 14:14:48.87	334.67	12.51	-43.0	-43.8	17.3	0.00e+00	0	58	0	1471152128	47	4196
2026-01-04 14:14:50.85	334.70	12.32	-43.4	-44.2	17.0	0.00e+00	0	58	0	1485832192	48	4172
2026-01-04 14:14:52.83	334.74	12.14	-43.4	-44.2	17.0	0.00e+00	0	58	0	1500512256	48	4190
2026-01-04 14:14:54.82	334.77	11.95	-43.6	-44.4	16.8	0.00e+00	0	58	0	1514143744	49	4040
2026-01-04 14:14:56.79	334.80	11.77	-43.9	-44.7	16.5	0.00e+00	0	58	0	1528823808	49	4184
2026-01-04 14:14:58.77	334.83	11.58	-43.6	-44.5	16.7	0.00e+00	0	58	0	1542455296	49	4062
2026-01-04 14:15:00.74	334.86	11.40	-44.0	-44.9	16.3	0.00e+00	0	58	0	1557135360	49	4272
2026-01-04 14:15:02.72	334.89	11.22	-43.7	-44.5	16.7	0.00e+00	0	58	0	1571815424	49	4070
2026-01-04 14:15:04.69	334.92	11.04	-43.3	-44.1	17.0	0.00e+00	0	58	0	1585446912	49	3905
2026-01-04 14:15:06.68	334.95	10.87	-43.4	-44.2	17.0	0.00e+00	0	58	0	1600126976	49	3927
2026-01-04 14:15:08.65	334.98	10.69	-43.3	-44.1	17.1	0.00e+00	0	58	0	1614807040	49	3878
2026-01-04 14:15:10.62	335.01	10.52	-43.4	-44.2	16.9	0.00e+00	0	58	0	1628438528	49	3939
2026-01-04 14:15:13.03	335.04	10.30	-43.4	-44.2	16.9	0.00e+00	0	58	0	1643118592	49	3938
2026-01-04 14:15:15.14	335.07	10.12	-43.7	-44.6	16.5	0.00e+00	0	57	0	1658847232	49	4114
2026-01-04 14:15:17.17	335.10	9.95	-43.8	-44.7	16.4	0.00e+00	0	58	0	1672478720	49	4149
2026-01-04 14:15:19.24	335.13	9.77	-43.8	-44.7	16.4	0.00e+00	0	58	0	1687158784	49	4164
2026-01-04 14:15:21.25	335.16	9.60	-43.9	-44.8	16.2	0.00e+00	0	58	0	1702887424	49	4236
2026-01-04 14:15:23.28	335.19	9.42	-44.0	-44.9	16.1	0.00e+00	0	58	0	1716518912	49	4269
2026-01-04 14:15:25.37	335.22	9.25	-44.0	-44.9	16.1	0.00e+00	0	58	0	1732247552	49	4282
2026-01-04 14:15:27.41	335.25	9.08	-44.5	-45.4	15.6	0.00e+00	0	58	0	1746927616	50	4287
2026-01-04 14:15:29.41	335.27	8.91	-44.5	-45.5	15.5	0.00e+00	0	58	0	1761607680	50	4311
2026-01-04 14:15:31.42	335.30	8.75	-44.6	-45.6	15.4	0.00e+00	0	58	0	1775239168	51	4115
2026-01-04 14:15:33.45	335.33	8.58	-45.0	-46.2	14.8	0.00e+00	0	58	0	1790967808	51	4416
2026-01-04 14:15:35.43	335.36	8.42	-45.0	-46.2	14.8	0.00e+00	0	58	0	1804599296	51	4397
2026-01-04 14:15:37.41	335.38	8.26	-45.0	-46.2	14.7	0.00e+00	0	57	0	1819279360	52	4153
2026-01-04 14:15:39.40	335.41	8.10	-45.1	-46.2	14.6	1.10e-06	0	58	0	1833959424	52	4187
2026-01-04 14:15:41.37	335.43	7.94	-45.2	-46.4	14.4	0.00e+00	0	58	0	1847590912	52	4278
2026-01-04 14:15:43.35	335.46	7.79	-44.8	-45.9	14.9	0.00e+00	0	58	0	1862270976	52	4031
2026-01-04 14:15:45.33	335.48	7.63	-44.5	-45.6	15.4	0.00e+00	0	58	0	1875902464	51	4106
2026-01-04 14:15:47.30	335.51	7.48	-44.5	-45.5	15.4	0.00e+00	0	58	0	1890582528	51	4097
2026-01-04 14:15:49.29	335.54	7.32	-44.3	-45.3	15.6	0.00e+00	0	58	0	1904214016	51	3989
2026-01-04 14:15:51.26	335.56	7.17	-44.2	-45.2	15.6	0.00e+00	0	58	0	1918894080	51	3944
2026-01-04 14:15:53.25	335.59	7.02	-44.3	-45.3	15.5	0.00e+00	0	57	0	1933574144	51	3994
2026-01-04 14:15:55.22	335.61	6.87	-44.4	-45.5	15.4	0.00e+00	0	58	0	1947205632	51	4054
2026-01-04 14:15:57.20	335.63	6.72	-44.6	-45.7	15.1	0.00e+00	0	58	0	1961885696	51	4149
2026-01-04 14:15:59.18	335.66	6.57	-44.6	-45.7	15.1	0.00e+00	0	58	0	1975517184	51	4156
2026-01-04 14:16:01.16	335.68	6.42	-44.8	-45.9	14.8	1.10e-06	0	58	0	1990197248	51	4277
2026-01-04 14:16:03.14	335.71	6.27	-44.9	-46.1	14.7	0.00e+00	0	58	0	2004877312	51	4349
2026-01-04 14:16:05.12	335.73	6.12	-45.1	-46.3	14.4	0.00e+00	0	58	0	2018508800	51	4478
2026-01-04 14:16:07.10	335.75	5.98	-45.0	-46.2	14.4	1.10e-06	0	58	0	2033188864	52	4173
2026-01-04 14:16:09.08	335.78	5.83	-45.3	-46.6	14.0	3.40e-06	0	58	0	2047868928	52	4359
2026-01-04 14:16:11.05	335.80	5.69	-44.9	-46.1	14.5	2.20e-06	0	58	0	2061500416	52	4106
2026-01-04 14:16:13.03	335.82	5.54	-44.8	-45.9	14.7	0.00e+00	0	58	0	2076180480	52	4029
2026-01-04 14:16:15.01	335.85	5.40	-44.7	-45.8	14.7	0.00e+00	0	58	0	2090860544	52	3986
2026-01-04 14:16:16.99	335.87	5.26	-44.9	-46.1	14.4	2.20e-06	0	58	0	2104492032	52	4143
2026-01-04 14:16:18.98	335.89	5.12	-44.9	-46.1	14.4	2.20e-06	0	58	0	2119172096	52	4127
2026-01-04 14:16:20.96	335.92	4.97	-51.4	-60.9	3.8	4.59e-01	0	58	104	2130706432	64	11369
2026-01-04 14:16:22.94	335.94	4.83	-52.0	-62.2	3.8	8.46e-01	0	58	104	2130706432	65	12403
2026-01-04 14:16:24.93	335.96	4.69	-52.2	-62.4	3.8	8.45e-01	0	58	104	2130706432	66	12008
2026-01-04 14:16:26.90	335.98	4.56	-51.8	-62.1	3.8	8.45e-01	0	58	104	2130706432	66	11575
2026-01-04 14:16:28.88	336.01	4.42	-52.4	-62.7	3.8	8.46e-01	0	58	104	2130706432	66	12376
2026-01-04 14:16:30.87	336.03	4.28	-52.5	-62.7	3.8	8.46e-01	0	58	104	2130706432	66	12424
2026-01-04 14:16:32.85	336.05	4.14	-52.4	-62.8	3.8	8.46e-01	0	58	104	2130706432	66	12521
2026-01-04 14:16:34.82	336.07	4.01	-52.6	-62.8	3.8	8.46e-01	0	58	104	2130706432	66	12609
2026-01-04 14:16:36.81	336.09	3.87	-52.6	-62.9	3.8	8.46e-01	0	58	104	2130706432	66	12673
2026-01-04 14:16:38.78	336.12	3.74	-52.6	-62.9	3.8	8.46e-01	0	58	104	2130706432	67	12008
2026-01-04 14:16:40.76	336.14	3.61	-52.6	-62.9	3.8	8.46e-01	0	58	104	2130706432	67	11965
2026-01-04 14:16:42.75	336.16	3.47	-52.7	-62.9	3.8	8.46e-01	0	58	104	2130706432	67	12031
2026-01-04 14:16:44.73	336.18	3.34	-52.7	-62.9	3.8	8.47e-01	0	58	104	2130706432	67	12070
2026-01-04 14:16:46.70	336.20	3.21	-52.7	-62.9	3.8	8.46e-01	0	58	104	2130706432	67	12039
2026-01-04 14:16:48.68	336.22	3.08	-52.7	-62.9	3.8	8.47e-01	0	58	104	2130706432	67	12018
2026-01-04 14:16:50.66	336.24	2.95	-52.6	-62.9	3.8	8.47e-01	0	58	104	2130706432	67	12039

#Closed at: 2026-01-04 14:16:51
#Recorded file [2130 MB]: D:/Data/31026_260104_171620.dat