passes_logs/2026/01/04/R3.0SM8_Murmansk_STILSPACE/R3.0SM8_Murmansk_STILSPACE__20260104_104414_FENGYUN_3E_rec.log

#Pass ID: 20260104_104414_FENGYUN 3E
#Satellite: FENGYUN 3E
#Configuration: FENGYUN 3E
#almurnet v.1.7.20240730
#Start time: 2026-01-04 10:49:48

#Version: 2.2.20231116
#Station: R3.0SM8_Murmansk_STILSPACE
#Location: 33.092731 lon 68.902999 lat
#TLE: 1 49008U 21062A   26003.51942929 -.00000034  00000+0  45519-5 0  9990
#TLE: 2 49008  98.7472   8.7829 0001426 160.7926 199.3304 14.19883272233213

#Time	Az	El	Level	Level2	SNR	BER	BlckErr	Temp	State	Recorded	gain1	gain2
2026-01-04 10:49:48.84	31.49	26.03	-52.5	-63.3	3.8	8.45e-01	0	57	0	0	67	12801
2026-01-04 10:49:50.81	30.91	26.10	-52.6	-62.8	3.8	8.46e-01	0	57	104	0	67	11910
2026-01-04 10:49:52.78	30.32	26.16	-52.5	-62.8	3.8	8.46e-01	0	57	104	0	67	11892
2026-01-04 10:49:54.76	29.73	26.22	-52.6	-62.8	3.8	8.46e-01	0	57	104	0	67	11906
2026-01-04 10:49:56.73	29.14	26.27	-52.6	-62.8	3.8	8.45e-01	0	57	104	0	67	11925
2026-01-04 10:49:58.70	28.55	26.33	-52.6	-62.8	3.8	8.46e-01	0	57	104	0	67	11852
2026-01-04 10:50:00.67	27.95	26.38	-52.6	-62.8	3.8	8.46e-01	0	57	104	0	67	11914
2026-01-04 10:50:02.65	27.35	26.42	-52.5	-62.8	3.8	8.47e-01	0	57	104	0	67	11858
2026-01-04 10:50:04.64	26.75	26.46	-52.5	-62.7	3.8	8.46e-01	0	57	104	0	67	11768
2026-01-04 10:50:06.62	26.15	26.50	-52.6	-62.7	3.8	8.46e-01	0	57	104	0	67	11794
2026-01-04 10:50:08.60	25.54	26.54	-52.4	-62.7	3.8	8.46e-01	0	57	104	0	67	11686
2026-01-04 10:50:10.58	24.94	26.57	-52.2	-62.3	3.8	8.46e-01	0	57	104	0	67	11199
2026-01-04 10:50:12.55	24.33	26.60	-52.0	-62.2	3.8	8.47e-01	0	57	104	0	65	12455
2026-01-04 10:50:14.51	23.73	26.63	-52.3	-62.4	3.8	8.46e-01	0	57	104	0	66	12012
2026-01-04 10:50:16.49	23.12	26.65	-52.2	-62.1	3.8	8.46e-01	0	57	104	0	66	11589
2026-01-04 10:50:18.46	22.52	26.67	-52.2	-61.9	3.8	8.46e-01	0	58	104	0	66	11412
2026-01-04 10:50:20.45	21.90	26.68	-52.0	-61.5	3.8	8.45e-01	0	57	104	0	66	10882
2026-01-04 10:50:22.43	21.29	26.69	-52.1	-61.8	3.8	8.47e-01	0	57	104	0	66	11230
2026-01-04 10:50:24.42	20.68	26.70	-52.1	-61.5	3.8	8.46e-01	0	57	104	0	66	10794
2026-01-04 10:50:26.40	20.07	26.70	-52.2	-61.5	3.8	8.46e-01	0	57	104	0	66	10782
2026-01-04 10:50:28.39	19.46	26.71	-52.1	-61.8	3.8	8.45e-01	0	57	104	0	66	11173
2026-01-04 10:50:30.36	18.85	26.70	-52.1	-61.2	3.8	8.45e-01	0	58	104	0	66	10511
2026-01-04 10:50:32.33	18.24	26.70	-52.3	-62.1	3.8	8.46e-01	0	57	104	0	66	11580
2026-01-04 10:50:34.31	17.63	26.68	-52.2	-62.4	3.8	8.46e-01	0	57	104	0	66	11957
2026-01-04 10:50:36.29	17.02	26.67	-52.0	-60.7	3.8	8.47e-01	0	57	104	0	66	9878
2026-01-04 10:50:38.26	16.41	26.65	-52.0	-60.6	3.8	8.45e-01	0	57	104	0	66	9801
2026-01-04 10:50:40.25	15.80	26.63	-49.8	-52.9	8.3	1.13e-01	0	58	0	4194304	62	5094
2026-01-04 10:50:42.23	15.20	26.61	-45.7	-46.9	14.5	5.70e-06	0	58	0	17825792	54	4033
2026-01-04 10:50:44.21	14.59	26.58	-45.3	-46.4	15.0	0.00e+00	0	58	0	32505856	52	4246
2026-01-04 10:50:46.20	13.98	26.55	-45.5	-46.7	14.6	0.00e+00	0	57	0	47185920	53	4158
2026-01-04 10:50:48.18	13.38	26.51	-45.8	-47.1	14.0	0.00e+00	0	58	0	60817408	53	4357
2026-01-04 10:50:50.16	12.77	26.47	-46.9	-48.5	12.3	9.26e-05	0	57	0	75497472	55	4590
2026-01-04 10:50:52.13	12.18	26.43	-48.0	-50.2	10.5	2.42e-03	0	58	0	89128960	57	4975
2026-01-04 10:50:54.10	11.58	26.39	-49.1	-52.3	8.1	5.33e-02	0	57	0	103809024	59	5650
2026-01-04 10:50:56.09	10.98	26.34	-48.0	-50.6	9.4	1.80e-02	0	58	0	117440512	59	4647
2026-01-04 10:50:58.06	10.39	26.29	-47.6	-50.1	9.6	1.48e-02	0	58	0	132120576	58	4641
2026-01-04 10:51:00.04	9.79	26.23	-47.7	-50.3	9.4	1.96e-02	0	58	0	146800640	58	4756
2026-01-04 10:51:02.00	9.21	26.17	-47.2	-49.3	10.8	3.21e-03	0	58	0	160432128	57	4466
2026-01-04 10:51:03.97	8.62	26.11	-47.9	-50.1	10.5	2.58e-03	0	58	0	175112192	57	4894
2026-01-04 10:51:05.95	8.03	26.05	-46.3	-47.7	13.0	9.72e-05	0	57	0	188743680	55	4180
2026-01-04 10:51:07.93	7.45	25.98	-45.4	-46.5	14.5	0.00e+00	0	58	0	203423744	53	4092
2026-01-04 10:51:09.91	6.87	25.91	-44.5	-45.4	16.0	0.00e+00	0	57	0	218103808	51	4014
2026-01-04 10:51:11.90	6.28	25.83	-44.5	-45.4	16.0	0.00e+00	0	58	0	231735296	51	4022
2026-01-04 10:51:13.88	5.71	25.76	-45.0	-46.2	14.8	0.00e+00	0	58	0	246415360	51	4405
2026-01-04 10:51:15.87	5.13	25.67	-44.6	-45.8	14.5	1.10e-06	0	58	0	261095424	51	4228
2026-01-04 10:51:17.86	4.56	25.59	-49.6	-54.5	5.6	1.62e-01	0	58	0	274726912	60	6845
2026-01-04 10:51:19.84	3.99	25.50	-47.8	-50.1	10.2	1.77e-02	0	58	0	284164096	58	4635
2026-01-04 10:51:21.83	3.42	25.42	-46.7	-48.2	12.9	6.63e-05	0	58	0	298844160	56	4173
2026-01-04 10:51:23.81	2.86	25.32	-47.0	-48.5	12.9	4.23e-05	0	58	0	313524224	56	4339
2026-01-04 10:51:25.78	2.31	25.23	-46.9	-48.3	13.1	2.28e-05	0	58	0	327155712	55	4489
2026-01-04 10:51:27.76	1.75	25.13	-45.4	-46.5	14.9	0.00e+00	0	58	0	341835776	53	4062
2026-01-04 10:51:29.73	1.20	25.04	-44.5	-45.4	16.1	0.00e+00	0	58	0	355467264	51	4038
2026-01-04 10:51:31.70	0.66	24.93	-44.0	-44.8	16.7	0.00e+00	0	58	0	370147328	50	3995
2026-01-04 10:51:33.69	0.11	24.83	-44.1	-44.9	16.7	0.00e+00	0	58	0	383778816	50	4021
2026-01-04 10:51:35.67	359.57	24.72	-44.5	-45.3	16.2	0.00e+00	0	58	0	398458880	51	4003
2026-01-04 10:51:37.65	359.04	24.61	-43.1	-43.8	17.8	0.00e+00	0	58	0	413138944	49	3740
2026-01-04 10:51:39.63	358.50	24.50	-42.0	-42.6	18.7	0.00e+00	0	58	0	426770432	47	3682
2026-01-04 10:51:41.62	357.97	24.39	-41.5	-42.1	19.2	0.00e+00	0	58	0	441450496	46	3678
2026-01-04 10:51:43.60	357.45	24.27	-41.4	-42.0	19.4	0.00e+00	0	58	0	456130560	45	3834
2026-01-04 10:51:45.58	356.93	24.16	-41.6	-42.2	19.1	0.00e+00	0	58	0	469762048	45	3924
2026-01-04 10:51:47.55	356.41	24.04	-40.9	-41.4	19.9	0.00e+00	0	58	0	484442112	44	3807
2026-01-04 10:51:49.54	355.90	23.91	-40.6	-41.1	20.1	0.00e+00	0	58	0	499122176	44	3684
2026-01-04 10:51:51.51	355.39	23.79	-40.6	-41.1	20.1	0.00e+00	0	58	0	512753664	44	3677
2026-01-04 10:51:53.50	354.88	23.67	-40.2	-40.7	20.4	0.00e+00	0	58	0	527433728	43	3696
2026-01-04 10:51:55.48	354.38	23.54	-40.5	-41.0	20.2	0.00e+00	0	58	0	542113792	43	3839
2026-01-04 10:51:57.46	353.89	23.41	-40.5	-41.0	20.1	0.00e+00	0	58	0	555745280	43	3855
2026-01-04 10:51:59.43	353.40	23.28	-40.7	-41.3	19.9	0.00e+00	0	58	0	570425344	43	3962
2026-01-04 10:52:01.42	352.90	23.15	-40.9	-41.4	19.8	0.00e+00	0	58	0	585105408	43	4026
2026-01-04 10:52:03.40	352.42	23.01	-40.5	-41.0	20.1	0.00e+00	0	58	0	598736896	43	3848
2026-01-04 10:52:05.38	351.94	22.88	-40.2	-40.7	20.4	0.00e+00	0	58	0	613416960	43	3718
2026-01-04 10:52:07.36	351.46	22.74	-40.6	-41.1	20.0	0.00e+00	0	58	0	627048448	43	3911
2026-01-04 10:52:09.34	350.99	22.60	-40.7	-41.2	19.8	0.00e+00	0	58	0	641728512	43	3940
2026-01-04 10:52:11.32	350.53	22.46	-40.9	-41.4	19.7	0.00e+00	0	58	0	656408576	43	4014
2026-01-04 10:52:13.30	350.06	22.32	-41.1	-41.6	19.5	0.00e+00	0	58	0	670040064	43	4134
2026-01-04 10:52:15.28	349.60	22.18	-41.1	-41.7	19.4	0.00e+00	0	58	0	684720128	43	4168
2026-01-04 10:52:17.27	349.15	22.04	-41.2	-41.8	19.4	0.00e+00	0	58	0	699400192	44	3977
2026-01-04 10:52:19.25	348.70	21.89	-41.2	-41.8	19.4	0.00e+00	0	58	0	713031680	44	3973
2026-01-04 10:52:21.22	348.25	21.75	-40.9	-41.5	19.7	0.00e+00	0	58	0	727711744	44	3835
2026-01-04 10:52:23.20	347.81	21.60	-40.8	-41.3	19.8	0.00e+00	0	58	0	742391808	44	3748
2026-01-04 10:52:25.18	347.37	21.46	-40.2	-40.8	20.1	0.00e+00	0	58	0	756023296	43	3740
2026-01-04 10:52:27.16	346.94	21.31	-40.8	-41.3	19.6	0.00e+00	0	58	0	770703360	43	4000
2026-01-04 10:52:29.13	346.51	21.16	-41.0	-41.6	19.4	0.00e+00	0	58	0	784334848	43	4125
2026-01-04 10:52:31.10	346.09	21.01	-41.2	-41.8	19.2	0.00e+00	0	58	0	799014912	43	4211
2026-01-04 10:52:33.09	345.67	20.86	-41.2	-41.8	19.3	0.00e+00	0	58	0	813694976	44	3989
2026-01-04 10:52:35.07	345.25	20.71	-41.5	-42.1	19.0	0.00e+00	0	58	0	827326464	44	4102
2026-01-04 10:52:37.05	344.84	20.56	-41.6	-42.2	18.9	0.00e+00	0	58	0	842006528	44	4170
2026-01-04 10:52:39.03	344.43	20.40	-42.3	-43.0	18.0	0.00e+00	0	58	0	855638016	46	4064
2026-01-04 10:52:41.00	344.02	20.25	-42.0	-42.7	18.2	0.00e+00	0	58	0	870318080	46	3922
2026-01-04 10:52:42.99	343.62	20.10	-42.5	-43.3	17.6	0.00e+00	0	58	0	884998144	46	4197
2026-01-04 10:52:44.96	343.23	19.94	-41.6	-42.3	18.3	0.00e+00	0	58	0	898629632	46	3761
2026-01-04 10:52:46.94	342.84	19.79	-42.4	-43.2	17.2	0.00e+00	0	58	0	913309696	46	4168
2026-01-04 10:52:48.91	342.45	19.63	-43.4	-44.3	16.1	0.00e+00	0	58	0	927989760	48	4220
2026-01-04 10:52:50.90	342.06	19.48	-42.9	-43.8	16.5	0.00e+00	0	58	0	941621248	48	3964
2026-01-04 10:52:52.88	341.68	19.32	-43.7	-44.7	15.5	0.00e+00	0	58	0	956301312	48	4415
2026-01-04 10:52:54.86	341.31	19.17	-45.7	-47.2	13.0	2.17e-05	0	58	0	969932800	52	4652
2026-01-04 10:52:56.84	340.93	19.01	-46.8	-48.7	11.2	9.21e-04	0	58	0	984612864	55	4678
2026-01-04 10:52:58.83	340.56	18.85	-45.8	-47.2	13.4	2.63e-05	0	58	0	999292928	54	4184
2026-01-04 10:53:00.82	340.20	18.69	-45.3	-46.5	14.3	0.00e+00	0	58	0	1012924416	52	4329
2026-01-04 10:53:02.79	339.84	18.54	-44.4	-45.4	15.4	0.00e+00	0	58	0	1027604480	51	4023
2026-01-04 10:53:04.77	339.48	18.38	-45.6	-47.0	13.7	1.10e-06	0	58	0	1042284544	52	4558
2026-01-04 10:53:06.75	339.13	18.22	-48.2	-50.6	10.0	2.68e-03	0	58	0	1055916032	57	5167
2026-01-04 10:53:08.73	338.78	18.07	-50.7	-56.6	4.8	7.62e-01	0	58	0	1067450368	62	7773
2026-01-04 10:53:10.70	338.43	17.91	-51.3	-60.1	3.8	8.45e-01	0	58	104	1067450368	64	10381
2026-01-04 10:53:12.68	338.09	17.75	-51.1	-58.3	4.2	8.38e-01	0	58	0	1067450368	64	8458
2026-01-04 10:53:14.67	337.75	17.59	-51.0	-57.1	4.7	8.16e-01	0	58	0	1067450368	64	7324
2026-01-04 10:53:16.65	337.41	17.43	-51.0	-56.8	4.9	7.97e-01	0	58	0	1067450368	64	7097
2026-01-04 10:53:18.63	337.08	17.28	-51.2	-57.4	4.6	7.98e-01	0	58	0	1067450368	64	7584
2026-01-04 10:53:20.61	336.75	17.12	-51.2	-57.2	4.7	7.89e-01	0	58	0	1067450368	64	7451
2026-01-04 10:53:22.59	336.43	16.96	-51.2	-57.1	4.8	7.98e-01	0	58	0	1067450368	64	7332
2026-01-04 10:53:24.57	336.11	16.80	-51.2	-57.2	4.8	8.07e-01	0	58	0	1067450368	64	7390
2026-01-04 10:53:26.55	335.79	16.64	-51.2	-57.3	4.7	8.00e-01	0	58	0	1067450368	64	7469
2026-01-04 10:53:28.52	335.48	16.49	-51.2	-57.2	4.7	7.95e-01	0	58	0	1067450368	64	7419
2026-01-04 10:53:30.49	335.17	16.33	-51.1	-57.4	4.7	8.05e-01	0	58	0	1067450368	64	7549
2026-01-04 10:53:32.47	334.86	16.17	-51.3	-57.6	4.6	8.16e-01	0	58	0	1067450368	64	7781
2026-01-04 10:53:34.45	334.55	16.02	-51.2	-57.2	4.8	8.01e-01	0	58	0	1067450368	64	7399
2026-01-04 10:53:36.43	334.25	15.86	-51.3	-57.3	4.7	8.08e-01	0	58	0	1067450368	64	7521
2026-01-04 10:53:38.42	333.95	15.70	-51.3	-57.3	4.7	8.08e-01	0	58	0	1067450368	64	7516
2026-01-04 10:53:40.40	333.66	15.55	-51.3	-57.3	4.7	8.06e-01	0	58	0	1067450368	64	7523
2026-01-04 10:53:42.39	333.36	15.39	-51.3	-57.4	4.7	8.11e-01	0	58	0	1067450368	64	7605
2026-01-04 10:53:44.38	333.07	15.23	-51.3	-57.4	4.7	8.09e-01	0	58	0	1067450368	64	7614
2026-01-04 10:53:46.36	332.79	15.08	-51.2	-57.2	4.8	7.94e-01	0	58	0	1067450368	64	7385
2026-01-04 10:53:48.34	332.51	14.92	-51.2	-57.3	4.7	8.00e-01	0	58	0	1067450368	64	7475
2026-01-04 10:53:50.32	332.23	14.77	-51.2	-57.3	4.7	7.96e-01	0	58	0	1067450368	64	7487
2026-01-04 10:53:52.30	331.95	14.61	-51.2	-57.2	4.8	7.99e-01	0	58	0	1067450368	64	7442
2026-01-04 10:53:54.29	331.67	14.46	-51.2	-57.2	4.8	7.95e-01	0	58	0	1067450368	64	7375
2026-01-04 10:53:56.27	331.40	14.30	-51.3	-57.6	4.6	8.09e-01	0	58	0	1067450368	64	7765
2026-01-04 10:53:58.25	331.14	14.15	-51.3	-57.6	4.6	8.15e-01	0	58	0	1067450368	64	7737
2026-01-04 10:54:00.24	330.87	13.99	-51.2	-57.4	4.7	8.06e-01	0	58	0	1067450368	64	7582
2026-01-04 10:54:02.22	330.61	13.84	-51.3	-57.4	4.6	8.08e-01	0	58	0	1067450368	64	7616
2026-01-04 10:54:04.21	330.35	13.69	-51.4	-57.7	4.5	8.18e-01	0	58	0	1067450368	64	7846
2026-01-04 10:54:06.20	330.09	13.53	-51.2	-57.0	4.8	7.96e-01	0	58	0	1067450368	64	7286
2026-01-04 10:54:08.18	329.83	13.38	-51.2	-57.2	4.8	7.96e-01	0	58	0	1067450368	64	7422
2026-01-04 10:54:10.16	329.58	13.23	-51.3	-57.4	4.7	8.07e-01	0	58	0	1067450368	64	7567
2026-01-04 10:54:12.13	329.33	13.08	-51.3	-57.3	4.7	8.03e-01	0	58	0	1067450368	64	7510
2026-01-04 10:54:14.12	329.09	12.93	-51.2	-57.3	4.7	8.07e-01	0	58	0	1067450368	64	7495
2026-01-04 10:54:16.10	328.84	12.78	-51.2	-57.4	4.7	8.08e-01	0	58	0	1067450368	64	7588
2026-01-04 10:54:18.09	328.60	12.63	-51.3	-57.5	4.6	8.10e-01	0	58	0	1067450368	64	7648
2026-01-04 10:54:20.05	328.36	12.48	-51.3	-57.5	4.6	8.14e-01	0	58	0	1067450368	64	7693
2026-01-04 10:54:22.03	328.13	12.33	-51.2	-57.5	4.6	8.16e-01	0	58	0	1067450368	64	7711
2026-01-04 10:54:24.02	327.89	12.18	-51.3	-57.6	4.6	8.16e-01	0	58	0	1067450368	64	7729
2026-01-04 10:54:26.01	327.66	12.03	-51.2	-57.5	4.6	8.13e-01	0	58	0	1067450368	64	7685
2026-01-04 10:54:27.99	327.43	11.88	-51.2	-57.7	4.5	8.19e-01	0	58	0	1067450368	64	7845
2026-01-04 10:54:29.97	327.21	11.73	-51.3	-58.1	4.4	8.29e-01	0	58	0	1067450368	64	8239
2026-01-04 10:54:31.94	326.98	11.59	-51.3	-58.1	4.4	8.29e-01	0	58	0	1067450368	64	8199
2026-01-04 10:54:33.92	326.76	11.44	-51.4	-58.2	4.3	8.34e-01	0	58	0	1067450368	64	8306
2026-01-04 10:54:35.91	326.54	11.29	-51.4	-58.4	4.3	8.34e-01	0	58	0	1067450368	64	8469
2026-01-04 10:54:37.89	326.32	11.15	-51.4	-58.1	4.4	8.31e-01	0	58	0	1067450368	64	8267
2026-01-04 10:54:39.88	326.11	11.00	-51.4	-58.1	4.4	8.31e-01	0	58	0	1067450368	64	8245
2026-01-04 10:54:41.85	325.89	10.86	-51.5	-58.6	4.2	8.36e-01	0	58	0	1067450368	64	8666
2026-01-04 10:54:43.83	325.68	10.71	-51.4	-58.5	4.2	8.35e-01	0	58	0	1067450368	64	8632
2026-01-04 10:54:45.81	325.47	10.57	-51.3	-58.1	4.3	8.31e-01	0	58	0	1067450368	64	8266
2026-01-04 10:54:47.80	325.27	10.43	-51.3	-58.1	4.3	8.29e-01	0	58	0	1067450368	64	8216
2026-01-04 10:54:49.79	325.06	10.28	-51.3	-58.4	4.2	8.35e-01	0	58	0	1067450368	64	8479
2026-01-04 10:54:51.76	324.86	10.14	-51.4	-58.7	3.9	8.40e-01	0	58	104	1067450368	64	8801
2026-01-04 10:54:53.74	324.66	10.00	-51.4	-58.7	4.2	8.37e-01	0	58	0	1067450368	64	8796
2026-01-04 10:54:55.73	324.46	9.86	-51.3	-58.6	4.2	8.37e-01	0	58	0	1067450368	64	8662
2026-01-04 10:54:57.70	324.26	9.72	-51.4	-58.8	4.1	8.39e-01	0	58	0	1067450368	64	8924
2026-01-04 10:54:59.68	324.07	9.57	-51.4	-58.8	4.1	8.39e-01	0	58	0	1067450368	64	8942
2026-01-04 10:55:01.66	323.88	9.43	-51.4	-58.7	4.1	8.40e-01	0	58	0	1067450368	64	8846
2026-01-04 10:55:03.64	323.69	9.30	-51.4	-58.8	4.1	8.40e-01	0	58	0	1067450368	64	8876
2026-01-04 10:55:05.62	323.50	9.16	-51.4	-58.9	4.1	8.43e-01	0	58	104	1067450368	64	9007
2026-01-04 10:55:07.60	323.31	9.02	-51.5	-59.1	4.0	8.40e-01	0	58	0	1067450368	64	9245
2026-01-04 10:55:09.59	323.12	8.88	-51.5	-59.4	4.0	8.42e-01	0	58	104	1067450368	64	9577
2026-01-04 10:55:11.57	322.94	8.74	-51.4	-58.9	4.1	8.40e-01	0	58	0	1067450368	64	9032
2026-01-04 10:55:13.55	322.76	8.60	-51.5	-59.3	3.9	8.44e-01	0	58	104	1067450368	64	9415
2026-01-04 10:55:15.53	322.58	8.47	-51.4	-59.0	4.1	8.41e-01	0	58	0	1067450368	64	9093
2026-01-04 10:55:17.52	322.40	8.33	-51.4	-58.9	3.9	8.40e-01	0	58	104	1067450368	64	9057
2026-01-04 10:55:19.49	322.23	8.19	-51.3	-59.2	3.9	8.42e-01	0	58	104	1067450368	64	9366
2026-01-04 10:55:21.47	322.05	8.06	-51.5	-59.4	3.9	8.44e-01	0	58	104	1067450368	64	9575
2026-01-04 10:55:23.46	321.88	7.92	-51.5	-59.9	3.8	8.45e-01	0	58	104	1067450368	64	10157
2026-01-04 10:55:25.44	321.71	7.79	-51.5	-60.2	3.8	8.45e-01	0	58	104	1067450368	64	10506
2026-01-04 10:55:27.42	321.54	7.65	-51.6	-60.6	3.8	8.45e-01	0	58	104	1067450368	64	10949
2026-01-04 10:55:29.39	321.37	7.52	-51.6	-61.0	3.8	8.46e-01	0	58	104	1067450368	64	11472
2026-01-04 10:55:31.37	321.20	7.39	-51.6	-61.2	3.8	8.46e-01	0	58	104	1067450368	65	11098
2026-01-04 10:55:33.35	321.04	7.25	-51.6	-61.1	3.8	8.46e-01	0	58	104	1067450368	65	10998
2026-01-04 10:55:35.34	320.87	7.12	-51.6	-61.2	3.8	8.46e-01	0	58	104	1067450368	64	11746
2026-01-04 10:55:37.33	320.71	6.99	-51.6	-61.2	3.8	8.46e-01	0	58	104	1067450368	64	11705
2026-01-04 10:55:39.31	320.55	6.86	-51.5	-60.8	3.8	8.46e-01	0	58	104	1067450368	64	11280
2026-01-04 10:55:41.29	320.39	6.73	-51.5	-60.4	3.8	8.46e-01	0	58	104	1067450368	64	10699
2026-01-04 10:55:43.27	320.24	6.60	-51.4	-60.1	3.8	8.46e-01	0	58	104	1067450368	64	10375
2026-01-04 10:55:45.25	320.08	6.47	-51.3	-59.9	3.8	8.44e-01	0	58	104	1067450368	64	10141
2026-01-04 10:55:47.24	319.92	6.34	-51.4	-59.8	3.8	8.46e-01	0	58	104	1067450368	64	10016
2026-01-04 10:55:49.22	319.77	6.21	-51.4	-60.3	3.8	8.46e-01	0	58	104	1067450368	64	10589
2026-01-04 10:55:51.20	319.62	6.08	-51.5	-60.9	3.8	8.46e-01	0	58	104	1067450368	64	11363
2026-01-04 10:55:53.17	319.47	5.95	-51.5	-61.4	3.8	8.46e-01	0	58	104	1067450368	64	11961
2026-01-04 10:55:55.16	319.32	5.82	-51.6	-61.6	3.8	8.46e-01	0	58	104	1067450368	64	12253
2026-01-04 10:55:57.13	319.17	5.70	-51.6	-61.6	3.8	8.45e-01	0	58	104	1067450368	64	12287
2026-01-04 10:55:59.12	319.03	5.57	-51.5	-61.4	3.8	8.46e-01	0	58	104	1067450368	64	12071
2026-01-04 10:56:01.10	318.88	5.44	-51.6	-61.3	3.8	8.45e-01	0	58	104	1067450368	64	11950
2026-01-04 10:56:03.08	318.74	5.32	-51.5	-61.3	3.8	8.46e-01	0	58	104	1067450368	64	11881
2026-01-04 10:56:05.06	318.60	5.19	-51.5	-61.3	3.8	8.47e-01	0	58	104	1067450368	64	11947
2026-01-04 10:56:07.05	318.46	5.06	-51.6	-61.3	3.8	8.47e-01	0	58	104	1067450368	64	11917
2026-01-04 10:56:09.03	318.32	4.94	-51.8	-61.8	3.8	8.46e-01	0	58	104	1067450368	65	11926
2026-01-04 10:56:11.01	318.18	4.81	-48.3	-58.3	3.8	8.46e-01	0	58	104	1067450368	59	11258
2026-01-04 10:56:12.99	318.04	4.69	-52.3	-62.5	3.8	8.46e-01	0	58	104	1067450368	66	12143
2026-01-04 10:56:14.98	317.90	4.57	-52.5	-62.6	3.8	8.46e-01	0	58	104	1067450368	66	12315
2026-01-04 10:56:16.95	317.77	4.44	-52.5	-62.7	3.8	8.45e-01	0	58	104	1067450368	66	12462
2026-01-04 10:56:18.93	317.64	4.32	-52.4	-62.8	3.8	8.45e-01	0	58	104	1067450368	66	12521
2026-01-04 10:56:20.92	317.50	4.20	-52.5	-62.7	3.8	8.47e-01	0	58	104	1067450368	66	12493
2026-01-04 10:56:22.89	317.37	4.08	-52.5	-62.8	3.8	8.45e-01	0	58	104	1067450368	66	12601
2026-01-04 10:56:24.87	317.24	3.96	-52.6	-62.8	3.8	8.48e-01	0	58	104	1067450368	66	12615
2026-01-04 10:56:26.85	317.12	3.83	-52.5	-62.8	3.8	8.46e-01	0	58	104	1067450368	66	12644
2026-01-04 10:56:28.82	316.99	3.71	-52.5	-62.8	3.8	8.48e-01	0	58	104	1067450368	66	12648
2026-01-04 10:56:30.79	316.86	3.59	-52.6	-62.9	3.8	8.47e-01	0	58	104	1067450368	66	12672
2026-01-04 10:56:32.77	316.74	3.47	-52.6	-62.8	3.8	8.46e-01	0	58	104	1067450368	66	12647
2026-01-04 10:56:34.75	316.61	3.36	-52.5	-62.7	3.8	8.47e-01	0	58	104	1067450368	66	12517
2026-01-04 10:56:36.73	316.49	3.24	-52.6	-62.8	3.8	8.46e-01	0	58	104	1067450368	66	12621
2026-01-04 10:56:38.71	316.37	3.12	-52.6	-62.8	3.8	8.46e-01	0	58	104	1067450368	66	12637
2026-01-04 10:56:40.68	316.25	3.00	-52.6	-62.9	3.8	8.47e-01	0	58	104	1067450368	66	12670

#Closed at: 2026-01-04 10:56:42
#Recorded file [1067 MB]: D:/Data/31026_260104_135522.dat