passes_logs/2026/01/04/R3.0SM8_Murmansk_STILSPACE/R3.0SM8_Murmansk_STILSPACE__20260104_093446_SUOMI_NPP_rec.log

#Pass ID: 20260104_093446_SUOMI NPP
#Satellite: SUOMI NPP
#Configuration: NPP
#almurnet v.1.7.20240730
#Start time: 2026-01-04 09:34:47

#Version: 2.2.20231116
#Station: R3.0SM8_Murmansk_STILSPACE
#Location: 33.092731 lon 68.902999 lat
#TLE: 1 37849U 11061A   26001.07732418  .00000182  00000+0  10735-3 0  9990
#TLE: 2 37849  98.7795 303.2470 0002580  87.2016 272.9455 14.19520779734739

#Time	Az	El	Level	Level2	SNR	BER	BlckErr	Temp	State	Recorded	gain1	gain2
2026-01-04 09:34:47.81	151.31	3.07	-52.4	-66.2	3.8	1.49e+00	0	46	0	0	67	17880
2026-01-04 09:34:51.76	151.32	3.34	-52.1	-65.9	3.8	1.49e+00	0	46	104	0	67	17262
2026-01-04 09:34:55.72	151.33	3.61	-51.4	-65.2	3.8	1.49e+00	0	47	104	0	65	17767
2026-01-04 09:34:59.68	151.34	3.88	-51.4	-65.2	3.8	1.49e+00	0	47	104	0	65	17841
2026-01-04 09:35:03.65	151.35	4.15	-51.4	-65.1	3.8	1.49e+00	0	47	104	0	65	17671
2026-01-04 09:35:07.61	151.36	4.43	-51.3	-64.5	3.8	1.49e+00	0	47	104	0	65	16380
2026-01-04 09:35:11.59	151.37	4.71	-51.3	-62.9	3.9	1.49e+00	0	47	104	0	65	13674
2026-01-04 09:35:15.55	151.38	4.99	-51.0	-60.2	4.7	9.77e-01	0	48	0	2097152	65	10020
2026-01-04 09:35:19.51	151.39	5.28	-51.0	-59.3	5.2	6.71e-01	0	48	0	9437184	64	9591
2026-01-04 09:35:23.48	151.40	5.56	-50.4	-56.6	7.4	1.21e-01	0	48	0	16777216	63	7377
2026-01-04 09:35:27.44	151.41	5.86	-50.1	-55.4	8.6	3.89e-02	0	49	0	24117248	63	6467
2026-01-04 09:35:31.39	151.42	6.15	-50.2	-56.0	8.1	5.94e-02	0	49	0	31457280	63	6925
2026-01-04 09:35:35.35	151.43	6.45	-49.8	-54.3	9.8	1.17e-02	0	49	0	38797312	62	6061
2026-01-04 09:35:39.31	151.43	6.75	-49.8	-54.4	9.9	9.92e-03	0	49	0	46137344	62	6071
2026-01-04 09:35:43.26	151.44	7.05	-49.6	-53.8	10.4	3.66e-03	0	50	0	53477376	62	5708
2026-01-04 09:35:47.21	151.45	7.36	-49.4	-53.2	11.2	1.62e-03	0	50	0	61865984	61	5603
2026-01-04 09:35:51.17	151.46	7.68	-49.5	-53.5	10.9	1.91e-03	0	50	0	69206016	61	5807
2026-01-04 09:35:55.13	151.47	7.99	-49.6	-53.5	11.0	1.82e-03	0	50	0	76546048	61	5790
2026-01-04 09:35:59.09	151.48	8.31	-49.8	-54.0	10.4	3.21e-03	0	50	0	83886080	61	6152
2026-01-04 09:36:03.04	151.49	8.64	-49.3	-52.8	11.7	6.64e-04	0	51	0	91226112	61	5377
2026-01-04 09:36:06.99	151.49	8.97	-49.3	-52.8	11.8	4.68e-04	0	51	0	98566144	61	5345
2026-01-04 09:36:10.97	151.50	9.30	-49.3	-52.9	11.7	6.75e-04	0	51	0	105906176	61	5417
2026-01-04 09:36:14.92	151.51	9.64	-49.3	-52.7	11.8	4.67e-04	0	51	0	113246208	61	5340
2026-01-04 09:36:18.87	151.52	9.98	-49.3	-52.6	12.0	3.70e-04	0	51	0	120586240	61	5263
2026-01-04 09:36:22.81	151.52	10.33	-49.0	-52.1	12.6	1.02e-04	0	51	0	127926272	61	4940
2026-01-04 09:36:26.76	151.53	10.68	-48.8	-51.7	12.9	3.96e-05	0	51	0	135266304	60	5038
2026-01-04 09:36:30.69	151.54	11.03	-48.7	-51.6	13.1	2.74e-05	0	51	0	142606336	60	4938
2026-01-04 09:36:34.65	151.55	11.39	-48.7	-51.5	13.2	3.35e-05	0	52	0	149946368	60	4891
2026-01-04 09:36:38.61	151.55	11.76	-48.7	-51.5	13.2	2.67e-05	0	52	0	157286400	60	4883
2026-01-04 09:36:42.57	151.56	12.14	-48.5	-51.2	13.6	9.90e-06	0	52	0	165675008	60	4707
2026-01-04 09:36:46.55	151.57	12.52	-48.3	-50.8	14.0	4.50e-06	0	52	0	173015040	59	4789
2026-01-04 09:36:50.50	151.57	12.90	-48.2	-50.5	14.3	7.00e-07	0	52	0	180355072	59	4626
2026-01-04 09:36:54.47	151.58	13.30	-48.3	-50.6	14.2	1.50e-06	0	52	0	187695104	59	4701
2026-01-04 09:36:58.43	151.59	13.69	-48.1	-50.4	14.4	7.00e-07	0	52	0	195035136	59	4561
2026-01-04 09:37:02.39	151.59	14.10	-48.2	-50.7	14.2	1.50e-06	0	53	0	202375168	59	4706
2026-01-04 09:37:06.36	151.60	14.51	-48.2	-50.5	14.3	1.50e-06	0	53	0	209715200	59	4645
2026-01-04 09:37:10.32	151.60	14.93	-47.9	-50.3	14.6	0.00e+00	0	53	0	217055232	59	4516
2026-01-04 09:37:14.27	151.61	15.36	-47.6	-50.0	14.9	0.00e+00	0	53	0	224395264	58	4605
2026-01-04 09:37:18.22	151.61	15.79	-47.5	-49.8	15.1	7.00e-07	0	53	0	231735296	58	4525
2026-01-04 09:37:22.20	151.62	16.23	-47.3	-49.4	15.5	0.00e+00	0	53	0	239075328	57	4553
2026-01-04 09:37:26.15	151.62	16.68	-47.6	-49.8	15.1	0.00e+00	0	53	0	246415360	57	4776
2026-01-04 09:37:30.10	151.63	17.14	-47.6	-49.8	15.1	0.00e+00	0	53	0	253755392	57	4774
2026-01-04 09:37:34.05	151.63	17.61	-47.5	-49.7	15.2	0.00e+00	0	53	0	262144000	57	4729
2026-01-04 09:37:38.02	151.63	18.08	-47.6	-49.9	15.0	0.00e+00	0	53	0	269484032	57	4819
2026-01-04 09:37:41.97	151.64	18.57	-46.9	-48.8	16.0	0.00e+00	0	53	0	276824064	56	4538
2026-01-04 09:37:45.93	151.64	19.06	-47.0	-48.8	16.0	0.00e+00	0	54	0	284164096	56	4543
2026-01-04 09:37:49.89	151.64	19.57	-46.9	-48.9	16.0	0.00e+00	0	54	0	291504128	56	4554
2026-01-04 09:37:53.85	151.64	20.09	-47.1	-49.1	15.8	0.00e+00	0	54	0	298844160	56	4668
2026-01-04 09:37:57.81	151.64	20.61	-47.3	-49.3	15.6	0.00e+00	0	54	0	306184192	56	4811
2026-01-04 09:38:01.77	151.65	21.15	-47.1	-49.0	16.0	0.00e+00	0	54	0	313524224	56	4604
2026-01-04 09:38:05.73	151.65	21.70	-46.9	-48.7	16.2	0.00e+00	0	54	0	320864256	56	4487
2026-01-04 09:38:09.69	151.65	22.26	-47.3	-49.3	15.7	0.00e+00	0	54	0	328204288	56	4761
2026-01-04 09:38:13.63	151.65	22.84	-47.4	-49.4	15.6	0.00e+00	0	54	0	335544320	56	4868
2026-01-04 09:38:17.59	151.65	23.42	-47.6	-49.6	15.4	0.00e+00	0	54	0	342884352	58	4410
2026-01-04 09:38:21.55	151.64	24.03	-47.2	-49.0	16.0	0.00e+00	0	54	0	350224384	57	4377
2026-01-04 09:38:25.52	151.64	24.64	-47.7	-49.8	15.2	0.00e+00	0	54	0	358612992	57	4783
2026-01-04 09:38:29.45	151.64	25.27	-47.4	-49.4	15.6	0.00e+00	0	54	0	365953024	57	4588
2026-01-04 09:38:33.39	151.64	25.91	-47.5	-49.5	15.6	0.00e+00	0	54	0	373293056	57	4611
2026-01-04 09:38:37.34	151.63	26.57	-47.7	-49.9	15.1	0.00e+00	0	54	0	380633088	57	4852
2026-01-04 09:38:41.30	151.63	27.25	-48.2	-50.6	14.5	0.00e+00	0	54	0	387973120	58	4951
2026-01-04 09:38:45.27	151.62	27.95	-48.5	-51.1	14.1	7.00e-07	0	55	0	395313152	58	5234
2026-01-04 09:38:49.24	151.61	28.67	-48.6	-51.2	13.9	1.50e-06	0	55	0	402653184	59	4994
2026-01-04 09:38:53.20	151.61	29.40	-48.8	-51.6	13.5	1.29e-05	0	55	0	409993216	59	5237
2026-01-04 09:38:57.15	151.60	30.15	-48.6	-51.2	13.9	7.00e-07	0	55	0	417333248	59	5020
2026-01-04 09:39:01.10	151.59	30.92	-48.1	-50.3	14.7	7.00e-07	0	55	0	424673280	59	4542
2026-01-04 09:39:05.06	151.58	31.71	-48.9	-51.7	13.4	3.80e-06	0	55	0	432013312	59	5305
2026-01-04 09:39:09.03	151.56	32.53	-49.0	-52.1	13.0	3.12e-05	0	55	0	439353344	60	5240
2026-01-04 09:39:13.00	151.55	33.37	-49.3	-52.6	12.5	1.01e-04	0	55	0	446693376	60	5535
2026-01-04 09:39:16.96	151.54	34.23	-48.8	-51.7	13.5	6.33e-05	0	55	0	455081984	60	4988
2026-01-04 09:39:20.91	151.52	35.12	-48.3	-50.7	14.5	7.00e-07	0	55	0	462422016	59	4730
2026-01-04 09:39:24.86	151.50	36.03	-47.3	-49.3	15.8	0.00e+00	0	55	0	469762048	57	4514
2026-01-04 09:39:28.83	151.48	36.97	-46.5	-48.1	17.0	0.00e+00	0	55	0	477102080	56	4161
2026-01-04 09:39:32.79	151.46	37.94	-46.6	-48.3	16.7	0.00e+00	0	55	0	484442112	55	4503
2026-01-04 09:39:36.77	151.43	38.94	-46.5	-48.2	16.8	0.00e+00	0	55	0	491782144	55	4487
2026-01-04 09:39:40.73	151.40	39.96	-46.5	-48.1	16.9	0.00e+00	0	55	0	499122176	55	4437
2026-01-04 09:39:44.70	151.37	41.02	-46.8	-48.6	16.5	0.00e+00	0	55	0	506462208	55	4652
2026-01-04 09:39:48.67	151.34	42.11	-47.4	-49.4	15.9	0.00e+00	0	55	0	513802240	56	4815
2026-01-04 09:39:52.63	151.30	43.23	-47.5	-49.6	15.6	0.00e+00	0	55	0	521142272	57	4678
2026-01-04 09:39:56.60	151.26	44.39	-47.4	-49.4	15.8	0.00e+00	0	55	0	528482304	57	4569
2026-01-04 09:40:00.57	151.22	45.58	-48.9	-51.9	13.4	1.06e-05	0	55	0	536870912	59	5450
2026-01-04 09:40:04.54	151.17	46.81	-49.5	-53.3	11.9	7.79e-04	0	55	0	544210944	61	5666
2026-01-04 09:40:08.50	151.11	48.07	-49.1	-52.6	12.5	1.12e-04	0	55	0	551550976	61	5249
2026-01-04 09:40:12.47	151.05	49.37	-47.9	-50.1	15.1	0.00e+00	0	55	0	558891008	58	4702
2026-01-04 09:40:16.43	150.98	50.71	-46.9	-48.7	16.4	0.00e+00	0	55	0	566231040	57	4239
2026-01-04 09:40:20.39	150.91	52.09	-46.3	-47.9	17.2	0.00e+00	0	55	0	573571072	55	4306
2026-01-04 09:40:24.35	150.82	53.51	-47.2	-49.1	16.2	0.00e+00	0	56	0	580911104	56	4652
2026-01-04 09:40:28.32	150.73	54.98	-46.4	-47.9	17.2	0.00e+00	0	55	0	588251136	56	4097
2026-01-04 09:40:32.27	150.62	56.47	-47.3	-49.2	16.0	0.00e+00	0	55	0	595591168	56	4736
2026-01-04 09:40:36.22	150.50	58.01	-47.3	-49.1	16.1	0.00e+00	0	56	0	602931200	57	4435
2026-01-04 09:40:40.18	150.36	59.60	-47.4	-49.4	15.7	0.00e+00	0	55	0	610271232	57	4585
2026-01-04 09:40:44.14	150.21	61.22	-47.2	-49.2	15.9	0.00e+00	0	55	0	617611264	56	4729
2026-01-04 09:40:48.10	150.02	62.89	-45.7	-47.0	18.0	0.00e+00	0	55	0	625999872	54	4140
2026-01-04 09:40:52.06	149.81	64.59	-46.2	-47.7	17.4	0.00e+00	0	56	0	633339904	54	4473
2026-01-04 09:40:56.02	149.56	66.34	-47.3	-49.0	16.2	0.00e+00	0	55	0	640679936	56	4648
2026-01-04 09:40:59.97	149.26	68.12	-48.6	-51.1	14.2	7.00e-07	0	56	0	648019968	59	4930
2026-01-04 09:41:03.94	148.91	69.94	-50.8	-55.9	9.2	9.42e-03	0	56	0	655360000	63	6837
2026-01-04 09:41:07.90	148.47	71.80	-49.7	-53.0	12.2	9.61e-05	0	56	0	662700032	61	5528
2026-01-04 09:41:11.86	147.92	73.68	-49.5	-52.7	12.6	1.20e-04	0	56	0	670040064	62	4991
2026-01-04 09:41:15.83	147.21	75.60	-49.3	-52.3	13.0	2.01e-04	0	56	0	677380096	61	5050
2026-01-04 09:41:19.79	146.27	77.53	-50.3	-54.5	10.6	1.12e-02	0	56	0	684720128	63	5804
2026-01-04 09:41:23.73	144.98	79.48	-50.1	-54.1	11.1	2.28e-03	0	56	0	692060160	63	5569
2026-01-04 09:41:27.67	143.07	81.44	-49.8	-53.4	11.8	2.50e-04	0	56	0	699400192	61	5738
2026-01-04 09:41:31.62	140.00	83.41	-47.0	-48.7	16.5	0.00e+00	0	56	0	706740224	57	4209
2026-01-04 09:41:35.57	134.30	85.35	-46.6	-48.3	16.8	0.00e+00	0	56	0	714080256	55	4496
2026-01-04 09:41:39.53	120.71	87.19	-50.0	-53.7	11.4	2.37e-04	0	56	0	722468864	61	5958
2026-01-04 09:41:43.48	75.72	88.45	-51.3	-57.1	8.2	4.79e-02	0	56	0	729808896	65	6991
2026-01-04 09:41:47.43	14.84	87.73	-51.9	-59.4	6.0	2.02e-01	0	56	0	737148928	66	8629
2026-01-04 09:41:51.39	355.24	85.97	-52.5	-66.4	3.8	1.49e+00	0	56	104	739246080	67	18187
2026-01-04 09:41:55.34	347.92	84.05	-52.6	-65.9	3.8	1.49e+00	0	56	104	739246080	67	17179
2026-01-04 09:41:59.30	344.22	82.08	-52.6	-66.5	3.8	1.49e+00	0	56	104	739246080	67	18321
2026-01-04 09:42:03.25	342.02	80.12	-52.6	-66.2	3.8	1.49e+00	0	56	104	739246080	67	17766
2026-01-04 09:42:07.21	340.55	78.16	-52.7	-66.2	3.8	1.49e+00	0	56	104	739246080	67	17821
2026-01-04 09:42:11.16	339.52	76.22	-52.5	-66.4	3.8	1.49e+00	0	56	104	739246080	67	18215
2026-01-04 09:42:15.13	338.75	74.30	-52.6	-66.4	3.8	1.49e+00	0	56	104	739246080	67	18110
2026-01-04 09:42:19.07	338.16	72.42	-52.7	-66.5	3.8	1.49e+00	0	56	104	739246080	67	18315
2026-01-04 09:42:23.03	337.69	70.56	-52.6	-66.5	3.8	1.49e+00	0	56	104	739246080	67	18321
2026-01-04 09:42:26.98	337.31	68.73	-52.6	-66.4	3.8	1.49e+00	0	56	104	739246080	67	18203
2026-01-04 09:42:30.91	336.99	66.95	-52.7	-66.4	3.8	1.49e+00	0	56	104	739246080	67	18291
2026-01-04 09:42:34.87	336.73	65.20	-52.6	-66.4	3.8	1.49e+00	0	56	104	739246080	67	18279
2026-01-04 09:42:38.82	336.51	63.49	-52.6	-66.4	3.8	1.49e+00	0	56	104	739246080	67	18186
2026-01-04 09:42:42.79	336.32	61.81	-52.6	-66.4	3.8	1.49e+00	0	56	104	739246080	67	18222
2026-01-04 09:42:46.74	336.15	60.17	-52.6	-66.4	3.8	1.49e+00	0	56	104	739246080	67	18224
2026-01-04 09:42:50.69	336.01	58.58	-52.6	-66.4	3.8	1.49e+00	0	56	104	739246080	67	18224
2026-01-04 09:42:54.65	335.88	57.03	-52.5	-66.4	3.8	1.49e+00	0	56	104	739246080	67	18177
2026-01-04 09:42:58.60	335.77	55.52	-52.4	-66.4	3.8	1.49e+00	0	56	104	739246080	67	18216
2026-01-04 09:43:02.57	335.67	54.05	-52.4	-66.4	3.8	1.49e+00	0	57	104	739246080	67	18135
2026-01-04 09:43:06.51	335.59	52.63	-52.6	-66.4	3.8	1.49e+00	0	56	104	739246080	67	18157
2026-01-04 09:43:10.48	335.51	51.23	-52.6	-66.4	3.8	1.49e+00	0	56	104	739246080	67	18176
2026-01-04 09:43:14.42	335.44	49.89	-52.5	-66.4	3.8	1.49e+00	0	57	104	739246080	67	18156
2026-01-04 09:43:18.37	335.38	48.58	-52.5	-66.4	3.8	1.49e+00	0	57	104	739246080	67	18132
2026-01-04 09:43:22.32	335.32	47.31	-52.5	-66.4	3.8	1.49e+00	0	56	104	739246080	67	18121
2026-01-04 09:43:26.28	335.27	46.08	-52.5	-66.4	3.8	1.49e+00	0	57	104	739246080	67	18115
2026-01-04 09:43:30.22	335.22	44.88	-52.4	-66.3	3.8	1.49e+00	0	57	104	739246080	67	18065
2026-01-04 09:43:34.19	335.18	43.72	-52.5	-66.4	3.8	1.49e+00	0	57	104	739246080	67	18110
2026-01-04 09:43:38.14	335.14	42.59	-52.6	-66.4	3.8	1.49e+00	0	57	104	739246080	67	18103
2026-01-04 09:43:42.10	335.11	41.49	-52.5	-66.3	3.8	1.49e+00	0	57	104	739246080	67	18083
2026-01-04 09:43:46.07	335.08	40.43	-52.5	-66.3	3.8	1.49e+00	0	57	104	739246080	67	18091
2026-01-04 09:43:50.02	335.05	39.39	-52.5	-66.3	3.8	1.49e+00	0	57	104	739246080	67	18045
2026-01-04 09:43:53.98	335.03	38.39	-52.5	-66.3	3.8	1.49e+00	0	57	104	739246080	67	18064
2026-01-04 09:43:57.94	335.01	37.42	-52.5	-66.3	3.8	1.49e+00	0	57	104	739246080	67	18052
2026-01-04 09:44:01.89	334.98	36.47	-52.5	-66.3	3.8	1.49e+00	0	57	104	739246080	67	17980
2026-01-04 09:44:05.85	334.97	35.55	-52.3	-66.3	3.8	1.49e+00	0	57	104	739246080	67	18014
2026-01-04 09:44:09.81	334.95	34.66	-52.4	-66.3	3.8	1.49e+00	0	57	104	739246080	67	18020
2026-01-04 09:44:13.77	334.94	33.79	-52.4	-66.3	3.8	1.49e+00	0	57	104	739246080	67	17990
2026-01-04 09:44:17.72	334.92	32.94	-52.5	-66.3	3.8	1.49e+00	0	57	104	739246080	67	17892
2026-01-04 09:44:21.67	334.91	32.12	-52.5	-66.3	3.8	1.49e+00	0	57	104	739246080	67	17962
2026-01-04 09:44:25.63	334.90	31.32	-52.4	-66.3	3.8	1.49e+00	0	57	104	739246080	67	17899
2026-01-04 09:44:29.59	334.89	30.55	-52.5	-66.3	3.8	1.49e+00	0	57	104	739246080	67	17910
2026-01-04 09:44:33.55	334.88	29.79	-52.4	-66.3	3.8	1.49e+00	0	57	104	739246080	67	17899
2026-01-04 09:44:37.52	334.88	29.05	-52.4	-66.2	3.8	1.49e+00	0	57	104	739246080	67	17788
2026-01-04 09:44:41.49	334.87	28.33	-52.4	-66.2	3.8	1.49e+00	0	57	104	739246080	67	17827
2026-01-04 09:44:45.45	334.87	27.62	-52.2	-66.2	3.8	1.49e+00	0	57	104	739246080	67	17713
2026-01-04 09:44:49.41	334.86	26.94	-52.3	-66.2	3.8	1.49e+00	0	57	104	739246080	67	17695
2026-01-04 09:44:53.36	334.86	26.28	-52.3	-66.0	3.8	1.49e+00	0	57	104	739246080	67	17481
2026-01-04 09:44:57.33	334.86	25.62	-51.9	-65.9	3.8	1.49e+00	0	57	104	739246080	67	17243
2026-01-04 09:45:01.29	334.85	24.99	-52.0	-65.8	3.8	1.49e+00	0	57	104	739246080	66	18014
2026-01-04 09:45:05.24	334.85	24.37	-51.8	-65.8	3.8	1.49e+00	0	57	104	739246080	66	18046
2026-01-04 09:45:09.20	334.85	23.76	-51.7	-65.7	3.8	1.49e+00	0	57	104	739246080	66	17741
2026-01-04 09:45:13.15	334.85	23.17	-51.4	-65.2	3.8	1.49e+00	0	57	104	739246080	65	17783
2026-01-04 09:45:17.10	334.86	22.60	-50.9	-64.8	3.8	1.49e+00	0	57	104	739246080	64	17980
2026-01-04 09:45:21.06	334.86	22.03	-50.4	-64.3	3.8	1.49e+00	0	57	104	739246080	63	18026
2026-01-04 09:45:25.01	334.86	21.48	-50.4	-64.2	3.8	1.49e+00	0	57	104	739246080	63	17688
2026-01-04 09:45:28.97	334.86	20.94	-50.3	-64.1	3.8	1.49e+00	0	57	104	739246080	63	17620
2026-01-04 09:45:32.93	334.86	20.41	-50.4	-64.2	3.8	1.49e+00	0	57	104	739246080	63	17851
2026-01-04 09:45:36.90	334.87	19.88	-50.4	-64.2	3.8	1.49e+00	0	57	104	739246080	63	17843
2026-01-04 09:45:40.87	334.87	19.38	-50.8	-64.6	3.8	1.49e+00	0	57	104	739246080	63	18677
2026-01-04 09:45:44.83	334.88	18.88	-50.9	-64.7	3.8	1.49e+00	0	57	104	739246080	63	18943
2026-01-04 09:45:48.78	334.88	18.39	-51.0	-64.9	3.8	1.49e+00	0	57	104	739246080	64	18110
2026-01-04 09:45:52.74	334.89	17.91	-51.5	-65.2	3.8	1.49e+00	0	57	104	739246080	64	18929
2026-01-04 09:45:56.69	334.89	17.44	-51.3	-65.1	3.8	1.49e+00	0	57	104	739246080	65	17618
2026-01-04 09:46:00.65	334.90	16.98	-51.3	-65.2	3.8	1.49e+00	0	57	104	739246080	65	17861
2026-01-04 09:46:04.61	334.90	16.53	-51.5	-65.2	3.8	1.49e+00	0	57	104	739246080	65	17822
2026-01-04 09:46:08.56	334.91	16.09	-51.8	-65.5	3.8	1.49e+00	0	57	104	739246080	65	18509
2026-01-04 09:46:12.52	334.92	15.65	-51.9	-65.8	3.8	1.49e+00	0	57	104	739246080	65	19066
2026-01-04 09:46:16.47	334.92	15.22	-51.9	-65.8	3.8	1.49e+00	0	57	104	739246080	65	19117
2026-01-04 09:46:20.43	334.93	14.80	-52.1	-65.8	3.8	1.49e+00	0	57	104	739246080	65	19151
2026-01-04 09:46:24.37	334.94	14.39	-52.1	-65.9	3.8	1.49e+00	0	57	104	739246080	66	18140
2026-01-04 09:46:28.33	334.95	13.98	-51.9	-65.8	3.8	1.49e+00	0	57	104	739246080	66	18037
2026-01-04 09:46:32.28	334.96	13.58	-51.9	-65.8	3.8	1.49e+00	0	57	104	739246080	66	18093
2026-01-04 09:46:36.22	334.96	13.19	-51.9	-65.7	3.8	1.49e+00	0	57	104	739246080	66	17819
2026-01-04 09:46:40.18	334.97	12.80	-51.7	-65.6	3.8	1.49e+00	0	57	104	739246080	66	17629
2026-01-04 09:46:44.15	334.98	12.42	-51.8	-65.6	3.8	1.49e+00	0	57	104	739246080	66	17584
2026-01-04 09:46:48.11	334.99	12.05	-51.5	-65.4	3.8	1.49e+00	0	57	104	739246080	66	17106
2026-01-04 09:46:52.06	335.00	11.68	-51.7	-65.5	3.8	1.49e+00	0	57	104	739246080	66	17403
2026-01-04 09:46:56.01	335.01	11.31	-51.7	-65.5	3.8	1.49e+00	0	57	104	739246080	66	17433
2026-01-04 09:46:59.96	335.02	10.96	-51.8	-65.7	3.8	1.49e+00	0	57	104	739246080	66	17724
2026-01-04 09:47:03.94	335.03	10.60	-51.8	-65.7	3.8	1.49e+00	0	57	104	739246080	66	17794
2026-01-04 09:47:07.90	335.04	10.25	-51.8	-65.7	3.8	1.49e+00	0	57	104	739246080	66	17773
2026-01-04 09:47:11.87	335.05	9.91	-51.8	-65.7	3.8	1.49e+00	0	57	104	739246080	66	17797
2026-01-04 09:47:15.83	335.06	9.57	-51.9	-65.7	3.8	1.49e+00	0	57	104	739246080	66	17717
2026-01-04 09:47:19.79	335.07	9.23	-51.8	-65.7	3.8	1.49e+00	0	57	104	739246080	66	17684
2026-01-04 09:47:23.75	335.08	8.90	-51.7	-65.6	3.8	1.49e+00	0	57	104	739246080	66	17530
2026-01-04 09:47:27.69	335.09	8.58	-51.7	-65.4	3.8	1.49e+00	0	57	104	739246080	66	17271
2026-01-04 09:47:31.64	335.10	8.26	-51.6	-65.4	3.8	1.49e+00	0	57	104	739246080	66	17220
2026-01-04 09:47:35.61	335.11	7.94	-51.5	-65.4	3.8	1.49e+00	0	57	104	739246080	66	17122
2026-01-04 09:47:39.57	335.12	7.62	-51.4	-65.3	3.8	1.49e+00	0	57	104	739246080	65	17970
2026-01-04 09:47:43.53	335.13	7.31	-51.4	-65.3	3.8	1.49e+00	0	57	104	739246080	65	18047
2026-01-04 09:47:47.50	335.15	7.01	-51.5	-65.3	3.8	1.49e+00	0	57	104	739246080	65	18087
2026-01-04 09:47:51.46	335.16	6.71	-51.6	-65.4	3.8	1.49e+00	0	57	104	739246080	65	18254
2026-01-04 09:47:55.41	335.17	6.41	-51.6	-65.4	3.8	1.49e+00	0	57	104	739246080	65	18277
2026-01-04 09:47:59.37	335.18	6.11	-51.5	-65.4	3.8	1.49e+00	0	57	104	739246080	65	18141
2026-01-04 09:48:03.33	335.19	5.82	-51.5	-65.4	3.8	1.49e+00	0	57	104	739246080	65	18174
2026-01-04 09:48:07.29	335.20	5.53	-51.5	-65.3	3.8	1.49e+00	0	57	104	739246080	65	18053
2026-01-04 09:48:11.26	335.22	5.24	-51.4	-65.3	3.8	1.49e+00	0	57	104	739246080	65	17945
2026-01-04 09:48:15.22	335.23	4.96	-47.9	-61.6	3.8	1.49e+00	0	57	104	739246080	58	17571
2026-01-04 09:48:19.18	335.24	4.68	-52.3	-66.1	3.8	1.49e+00	0	57	104	739246080	66	18626
2026-01-04 09:48:23.14	335.25	4.40	-52.4	-66.2	3.8	1.49e+00	0	57	104	739246080	66	18888
2026-01-04 09:48:27.10	335.27	4.13	-52.1	-64.8	3.8	1.49e+00	0	57	104	739246080	66	16069
2026-01-04 09:48:31.05	335.28	3.86	-52.6	-66.4	3.8	1.49e+00	0	57	104	739246080	67	18158
2026-01-04 09:48:35.01	335.29	3.59	-52.4	-66.4	3.8	1.49e+00	0	57	104	739246080	67	18190
2026-01-04 09:48:38.98	335.30	3.32	-52.7	-66.5	3.8	1.49e+00	0	57	104	739246080	67	18362
2026-01-04 09:48:42.93	335.32	3.06	-52.6	-66.5	3.8	1.49e+00	0	57	104	739246080	67	18308

#Closed at: 2026-01-04 09:48:45
#Recorded file [739 MB]: D:/Data/31026_260104_124149.dat