passes_logs/2026/01/04/R3.0SM8_Murmansk_STILSPACE/R3.0SM8_Murmansk_STILSPACE__20260104_125920_SUOMI_NPP_rec.log

#Pass ID: 20260104_125920_SUOMI NPP
#Satellite: SUOMI NPP
#Configuration: NPP
#almurnet v.1.7.20240730
#Start time: 2026-01-04 12:59:20

#Version: 2.2.20231116
#Station: R3.0SM8_Murmansk_STILSPACE
#Location: 33.092731 lon 68.902999 lat
#TLE: 1 37849U 11061A   26001.07732418  .00000182  00000+0  10735-3 0  9990
#TLE: 2 37849  98.7795 303.2470 0002580  87.2016 272.9455 14.19520779734739

#Time	Az	El	Level	Level2	SNR	BER	BlckErr	Temp	State	Recorded	gain1	gain2
2026-01-04 12:59:20.07	242.36	3.00	-52.4	-66.4	3.8	1.49e+00	0	45	0	0	67	18234
2026-01-04 12:59:23.02	242.67	3.13	-52.3	-66.4	3.8	1.49e+00	0	46	104	0	67	18111
2026-01-04 12:59:25.98	242.98	3.27	-52.3	-66.3	3.8	1.49e+00	0	46	104	0	67	18033
2026-01-04 12:59:28.93	243.29	3.40	-52.2	-66.3	3.8	1.49e+00	0	46	104	0	67	17941
2026-01-04 12:59:31.87	243.60	3.54	-52.1	-66.2	3.8	1.49e+00	0	46	104	0	67	17695
2026-01-04 12:59:34.82	243.92	3.67	-51.9	-65.9	3.8	1.49e+00	0	46	104	0	66	18286
2026-01-04 12:59:37.79	244.24	3.81	-51.3	-65.3	3.8	1.49e+00	0	47	104	0	65	17928
2026-01-04 12:59:40.76	244.56	3.94	-51.3	-65.2	3.8	1.49e+00	0	47	104	0	65	17808
2026-01-04 12:59:43.74	244.89	4.08	-51.3	-65.3	3.8	1.49e+00	0	47	104	0	65	18079
2026-01-04 12:59:46.71	245.22	4.21	-51.4	-65.3	3.8	1.49e+00	0	47	104	0	65	18018
2026-01-04 12:59:49.66	245.55	4.35	-51.3	-65.2	3.8	1.49e+00	0	47	104	0	65	17704
2026-01-04 12:59:52.63	245.89	4.48	-51.4	-65.3	3.8	1.49e+00	0	47	104	0	65	17913
2026-01-04 12:59:55.59	246.23	4.62	-51.3	-64.7	3.8	1.49e+00	0	48	104	0	65	16847
2026-01-04 12:59:58.55	246.57	4.75	-51.2	-61.2	4.4	1.37e+00	0	48	0	0	65	11162
2026-01-04 13:00:01.50	246.91	4.89	-50.5	-56.7	7.4	2.24e-01	0	48	0	5242880	63	7522
2026-01-04 13:00:04.47	247.26	5.02	-49.3	-53.5	10.7	6.06e-03	0	48	0	10485760	61	5837
2026-01-04 13:00:07.43	247.61	5.15	-49.2	-53.2	10.9	2.42e-03	0	48	0	16777216	61	5631
2026-01-04 13:00:10.40	247.96	5.29	-48.9	-52.5	11.7	4.49e-04	0	49	0	22020096	60	5505
2026-01-04 13:00:13.37	248.32	5.42	-49.0	-52.7	11.6	6.86e-04	0	49	0	27262976	60	5647
2026-01-04 13:00:16.33	248.68	5.56	-49.0	-52.5	11.7	4.88e-04	0	49	0	32505856	60	5519
2026-01-04 13:00:19.29	249.04	5.69	-49.0	-52.5	11.8	5.20e-04	0	49	0	38797312	60	5505
2026-01-04 13:00:22.25	249.41	5.82	-48.4	-51.4	13.0	5.34e-05	0	49	0	44040192	59	5143
2026-01-04 13:00:25.21	249.78	5.95	-48.6	-51.7	12.7	8.01e-05	0	49	0	49283072	59	5302
2026-01-04 13:00:28.17	250.15	6.08	-48.5	-51.5	12.9	4.95e-05	0	49	0	55574528	59	5192
2026-01-04 13:00:31.12	250.52	6.22	-48.4	-51.3	13.0	3.05e-05	0	49	0	60817408	59	5095
2026-01-04 13:00:34.08	250.90	6.35	-48.2	-50.8	13.6	1.75e-05	0	50	0	66060288	59	4804
2026-01-04 13:00:37.03	251.28	6.48	-48.3	-51.1	13.4	9.90e-06	0	50	0	71303168	59	4962
2026-01-04 13:00:39.99	251.66	6.61	-48.4	-51.3	13.2	2.13e-05	0	50	0	77594624	59	5051
2026-01-04 13:00:42.96	252.05	6.74	-48.7	-51.7	12.8	3.28e-05	0	50	0	82837504	59	5322
2026-01-04 13:00:45.92	252.45	6.87	-48.0	-50.5	14.0	2.20e-06	0	50	0	88080384	59	4630
2026-01-04 13:00:48.89	252.84	7.00	-47.9	-50.4	14.1	7.00e-07	0	50	0	94371840	58	4826
2026-01-04 13:00:51.85	253.24	7.13	-48.1	-50.7	13.9	1.50e-06	0	50	0	99614720	58	5008
2026-01-04 13:00:54.81	253.64	7.26	-48.1	-50.7	13.9	3.00e-06	0	50	0	104857600	58	5008
2026-01-04 13:00:57.76	254.05	7.38	-48.3	-51.0	13.6	5.30e-06	0	51	0	110100480	58	5176
2026-01-04 13:01:00.72	254.45	7.51	-48.2	-50.7	13.8	6.80e-06	0	50	0	116391936	58	5035
2026-01-04 13:01:03.68	254.87	7.64	-48.1	-50.6	14.0	3.00e-06	0	51	0	121634816	58	4929
2026-01-04 13:01:06.64	255.28	7.76	-48.0	-50.4	14.1	7.00e-07	0	51	0	126877696	58	4870
2026-01-04 13:01:09.59	255.70	7.89	-48.1	-50.7	13.9	2.20e-06	0	51	0	133169152	58	5000
2026-01-04 13:01:12.55	256.12	8.01	-48.3	-50.9	13.7	5.30e-06	0	51	0	138412032	58	5133
2026-01-04 13:01:15.51	256.55	8.13	-48.1	-50.7	13.9	6.10e-06	0	51	0	143654912	58	4995
2026-01-04 13:01:18.47	256.98	8.26	-48.0	-50.5	14.1	6.80e-06	0	51	0	149946368	58	4919
2026-01-04 13:01:21.44	257.41	8.38	-48.1	-50.5	14.1	2.20e-06	0	51	0	155189248	58	4907
2026-01-04 13:01:24.40	257.85	8.50	-48.2	-50.8	13.8	4.50e-06	0	51	0	160432128	58	5072
2026-01-04 13:01:27.34	258.28	8.62	-48.1	-50.6	14.0	7.00e-07	0	51	0	165675008	58	4968
2026-01-04 13:01:30.30	258.73	8.74	-48.1	-50.7	14.0	3.00e-06	0	52	0	171966464	58	5023
2026-01-04 13:01:33.27	259.18	8.86	-48.2	-50.8	13.9	3.80e-06	0	51	0	177209344	58	5061
2026-01-04 13:01:36.24	259.63	8.98	-48.4	-51.1	13.5	6.80e-06	0	52	0	182452224	58	5274
2026-01-04 13:01:39.21	260.08	9.09	-48.2	-50.7	14.0	2.20e-06	0	52	0	188743680	58	5029
2026-01-04 13:01:42.17	260.54	9.21	-47.9	-50.4	14.3	0.00e+00	0	52	0	193986560	58	4816
2026-01-04 13:01:45.14	261.00	9.33	-48.1	-50.7	14.1	7.00e-07	0	52	0	199229440	58	4993
2026-01-04 13:01:48.11	261.47	9.44	-48.4	-51.1	13.6	6.10e-06	0	52	0	205520896	58	5233
2026-01-04 13:01:51.08	261.94	9.55	-48.4	-51.2	13.5	2.21e-05	0	52	0	210763776	59	5016
2026-01-04 13:01:54.03	262.41	9.66	-48.4	-51.1	13.6	6.10e-06	0	52	0	216006656	59	4930
2026-01-04 13:01:56.98	262.88	9.77	-48.5	-51.2	13.5	1.50e-06	0	52	0	221249536	59	5003
2026-01-04 13:01:59.94	263.36	9.88	-48.3	-50.9	13.8	1.50e-06	0	52	0	227540992	59	4830
2026-01-04 13:02:02.91	263.84	9.99	-48.7	-51.5	13.2	1.52e-05	0	52	0	232783872	59	5208
2026-01-04 13:02:05.88	264.33	10.10	-48.8	-51.7	13.0	3.81e-05	0	52	0	238026752	59	5315
2026-01-04 13:02:08.83	264.81	10.20	-48.9	-51.9	12.8	5.56e-05	0	52	0	244318208	59	5441
2026-01-04 13:02:11.79	265.31	10.30	-48.9	-52.0	12.7	7.78e-05	0	52	0	249561088	59	5487
2026-01-04 13:02:14.75	265.80	10.41	-49.0	-52.3	12.4	1.53e-04	0	52	0	254803968	60	5389
2026-01-04 13:02:17.71	266.30	10.51	-49.0	-52.2	12.5	1.55e-04	0	52	0	260046848	60	5312
2026-01-04 13:02:20.66	266.80	10.61	-48.8	-51.9	12.7	8.23e-05	0	53	0	266338304	60	5126
2026-01-04 13:02:23.61	267.30	10.70	-48.5	-51.2	13.5	1.83e-05	0	53	0	271581184	60	4748
2026-01-04 13:02:26.57	267.81	10.80	-48.7	-51.6	13.0	2.89e-05	0	53	0	276824064	60	4980
2026-01-04 13:02:29.52	268.32	10.89	-48.7	-51.8	12.8	6.56e-05	0	53	0	283115520	60	5063
2026-01-04 13:02:32.47	268.83	10.99	-48.6	-51.6	12.8	5.11e-05	0	53	0	288358400	60	4979
2026-01-04 13:02:35.43	269.35	11.08	-48.3	-51.2	13.2	1.75e-05	0	53	0	293601280	59	5018
2026-01-04 13:02:38.38	269.87	11.17	-48.3	-51.1	13.2	3.81e-05	0	53	0	298844160	59	4937
2026-01-04 13:02:41.34	270.39	11.25	-48.5	-51.4	12.9	2.89e-05	0	53	0	305135616	59	5157
2026-01-04 13:02:44.31	270.92	11.34	-48.4	-51.3	12.9	2.89e-05	0	53	0	310378496	59	5095
2026-01-04 13:02:47.28	271.45	11.42	-48.3	-51.2	13.2	3.05e-05	0	53	0	315621376	59	5002
2026-01-04 13:02:50.24	271.98	11.50	-48.3	-51.1	13.3	1.14e-05	0	53	0	321912832	59	4978
2026-01-04 13:02:53.20	272.52	11.58	-48.4	-51.3	13.2	1.83e-05	0	53	0	327155712	59	5049
2026-01-04 13:02:56.16	273.06	11.66	-47.9	-50.4	13.9	5.30e-06	0	53	0	332398592	59	4597
2026-01-04 13:02:59.11	273.60	11.74	-47.9	-50.4	14.2	0.00e+00	0	53	0	337641472	58	4848
2026-01-04 13:03:02.09	274.14	11.81	-48.0	-50.5	14.1	7.00e-07	0	53	0	343932928	58	4922
2026-01-04 13:03:05.05	274.69	11.88	-48.4	-51.0	13.6	7.60e-06	0	53	0	349175808	58	5217
2026-01-04 13:03:07.99	275.23	11.95	-48.5	-51.1	13.6	4.50e-06	0	53	0	354418688	59	4967
2026-01-04 13:03:10.95	275.78	12.02	-47.9	-50.3	14.5	0.00e+00	0	53	0	360710144	59	4499
2026-01-04 13:03:13.91	276.34	12.09	-48.1	-50.6	14.1	7.00e-07	0	53	0	365953024	59	4666
2026-01-04 13:03:16.87	276.89	12.15	-48.4	-51.0	13.7	7.60e-06	0	53	0	371195904	59	4886
2026-01-04 13:03:19.82	277.45	12.21	-47.8	-50.0	14.8	0.00e+00	0	53	0	376438784	58	4599
2026-01-04 13:03:22.79	278.01	12.27	-47.9	-50.2	14.5	0.00e+00	0	53	0	382730240	58	4746
2026-01-04 13:03:25.74	278.57	12.32	-48.3	-50.9	13.9	1.50e-06	0	53	0	387973120	58	5103
2026-01-04 13:03:28.70	279.14	12.38	-48.3	-50.9	13.9	4.50e-06	0	53	0	393216000	58	5133
2026-01-04 13:03:31.66	279.70	12.43	-48.3	-50.8	13.9	7.00e-07	0	53	0	399507456	58	5068
2026-01-04 13:03:34.63	280.27	12.48	-49.2	-52.5	12.1	1.35e-04	0	54	0	404750336	60	5474
2026-01-04 13:03:37.58	280.84	12.52	-49.1	-52.4	12.2	2.68e-04	0	54	0	409993216	60	5463
2026-01-04 13:03:40.55	281.41	12.57	-49.0	-52.1	12.6	6.94e-05	0	54	0	416284672	60	5249
2026-01-04 13:03:43.52	281.99	12.61	-49.2	-52.7	12.0	2.17e-04	0	54	0	421527552	60	5612
2026-01-04 13:03:46.48	282.56	12.65	-49.4	-53.1	11.4	1.22e-03	0	53	0	426770432	60	5921
2026-01-04 13:03:49.44	283.14	12.69	-49.1	-52.6	11.8	5.54e-04	0	54	0	433061888	60	5536
2026-01-04 13:03:52.41	283.72	12.72	-49.3	-53.3	10.8	2.19e-03	0	54	0	438304768	60	6056
2026-01-04 13:03:55.37	284.30	12.75	-49.5	-54.1	9.8	8.79e-03	0	54	0	443547648	60	6643
2026-01-04 13:03:58.33	284.88	12.78	-49.2	-53.8	9.8	1.17e-02	0	54	0	448790528	60	6385
2026-01-04 13:04:01.30	285.46	12.81	-49.2	-54.1	9.2	1.59e-02	0	54	0	455081984	60	6628
2026-01-04 13:04:04.26	286.04	12.83	-49.5	-55.7	7.4	9.45e-02	0	54	0	460324864	60	7968
2026-01-04 13:04:07.20	286.62	12.85	-49.5	-56.4	6.7	1.91e-01	0	54	0	465567744	61	8105
2026-01-04 13:04:10.15	287.20	12.87	-49.5	-56.6	6.4	2.30e-01	0	54	0	471859200	61	8366
2026-01-04 13:04:13.11	287.78	12.88	-49.7	-56.9	6.2	2.71e-01	0	54	0	477102080	61	8595
2026-01-04 13:04:16.08	288.37	12.90	-49.4	-55.5	7.6	1.13e-01	0	54	0	482344960	61	7298
2026-01-04 13:04:19.04	288.95	12.91	-49.4	-55.4	7.8	8.45e-02	0	54	0	487587840	61	7234
2026-01-04 13:04:22.01	289.54	12.91	-49.4	-54.7	8.6	3.64e-02	0	54	0	493879296	61	6701
2026-01-04 13:04:24.96	290.12	12.92	-49.0	-53.5	10.0	1.08e-02	0	54	0	499122176	61	5813
2026-01-04 13:04:27.92	290.71	12.92	-48.9	-53.0	10.7	3.03e-03	0	54	0	504365056	60	5814
2026-01-04 13:04:30.87	291.29	12.92	-48.7	-52.2	11.9	4.26e-04	0	54	0	510656512	60	5301
2026-01-04 13:04:33.82	291.87	12.92	-48.8	-52.2	12.2	2.43e-04	0	54	0	515899392	60	5308
2026-01-04 13:04:36.78	292.46	12.91	-48.6	-51.6	12.9	7.62e-05	0	54	0	521142272	60	4962
2026-01-04 13:04:39.73	293.04	12.90	-48.7	-51.7	12.9	4.04e-05	0	54	0	526385152	60	5023
2026-01-04 13:04:42.69	293.62	12.89	-48.5	-51.4	13.2	2.82e-05	0	54	0	532676608	60	4828
2026-01-04 13:04:45.64	294.21	12.87	-48.0	-50.5	14.1	3.80e-06	0	54	0	537919488	59	4608
2026-01-04 13:04:48.60	294.79	12.86	-48.2	-50.8	13.9	4.50e-06	0	54	0	543162368	59	4763
2026-01-04 13:04:51.56	295.37	12.84	-48.0	-50.5	14.2	1.50e-06	0	54	0	549453824	59	4611
2026-01-04 13:04:54.53	295.95	12.82	-47.5	-49.6	15.0	0.00e+00	0	54	0	554696704	58	4441
2026-01-04 13:04:57.49	296.53	12.79	-47.4	-49.5	15.2	0.00e+00	0	54	0	559939584	57	4604
2026-01-04 13:05:00.44	297.11	12.76	-47.6	-49.8	14.9	0.00e+00	0	54	0	565182464	57	4794
2026-01-04 13:05:03.39	297.69	12.73	-47.2	-49.2	15.4	0.00e+00	0	54	0	571473920	57	4470
2026-01-04 13:05:06.36	298.27	12.70	-47.2	-49.2	15.4	0.00e+00	0	54	0	576716800	57	4484
2026-01-04 13:05:09.34	298.85	12.66	-47.5	-49.7	14.9	0.00e+00	0	54	0	581959680	57	4728
2026-01-04 13:05:12.29	299.42	12.63	-47.6	-49.7	14.9	0.00e+00	0	54	0	588251136	57	4748
2026-01-04 13:05:15.25	299.99	12.59	-47.7	-50.0	14.8	0.00e+00	0	54	0	593494016	57	4884
2026-01-04 13:05:18.23	300.57	12.54	-47.5	-49.6	15.1	0.00e+00	0	54	0	598736896	57	4686
2026-01-04 13:05:21.18	301.13	12.50	-47.4	-49.4	15.3	0.00e+00	0	54	0	605028352	57	4596
2026-01-04 13:05:24.14	301.70	12.45	-47.6	-49.7	15.0	0.00e+00	0	54	0	610271232	57	4736
2026-01-04 13:05:27.09	302.27	12.40	-47.1	-49.0	15.7	0.00e+00	0	54	0	615514112	57	4373
2026-01-04 13:05:30.05	302.83	12.35	-47.3	-49.3	15.5	0.00e+00	0	54	0	620756992	57	4525
2026-01-04 13:05:33.00	303.39	12.29	-47.1	-49.0	15.8	0.00e+00	0	54	0	627048448	57	4367
2026-01-04 13:05:35.94	303.95	12.24	-47.0	-48.9	15.9	0.00e+00	0	54	0	632291328	57	4297
2026-01-04 13:05:38.89	304.50	12.18	-47.3	-49.2	15.5	0.00e+00	0	54	0	637534208	57	4485
2026-01-04 13:05:41.86	305.06	12.12	-47.1	-49.0	15.8	0.00e+00	0	54	0	642777088	57	4377
2026-01-04 13:05:44.83	305.61	12.05	-46.8	-48.6	16.2	0.00e+00	0	54	0	649068544	56	4394
2026-01-04 13:05:47.78	306.16	11.98	-47.0	-48.8	16.0	0.00e+00	0	54	0	654311424	56	4520
2026-01-04 13:05:50.74	306.71	11.92	-47.2	-49.2	15.6	0.00e+00	0	55	0	659554304	56	4714
2026-01-04 13:05:53.71	307.26	11.85	-47.4	-49.5	15.3	0.00e+00	0	55	0	665845760	56	4897
2026-01-04 13:05:56.67	307.80	11.77	-47.3	-49.3	15.5	0.00e+00	0	55	0	671088640	56	4808
2026-01-04 13:05:59.62	308.34	11.70	-46.8	-48.6	16.2	0.00e+00	0	54	0	676331520	56	4402
2026-01-04 13:06:02.56	308.87	11.62	-46.9	-48.6	16.1	0.00e+00	0	55	0	682622976	56	4436
2026-01-04 13:06:05.52	309.41	11.54	-46.8	-48.6	16.2	0.00e+00	0	54	0	687865856	56	4410
2026-01-04 13:06:08.47	309.94	11.46	-46.5	-48.2	16.5	0.00e+00	0	54	0	693108736	56	4217
2026-01-04 13:06:11.44	310.47	11.38	-46.5	-48.2	16.4	0.00e+00	0	55	0	698351616	55	4482
2026-01-04 13:06:14.39	311.00	11.30	-46.6	-48.4	16.2	0.00e+00	0	55	0	704643072	55	4590
2026-01-04 13:06:17.36	311.52	11.21	-46.8	-48.7	16.0	0.00e+00	0	54	0	709885952	55	4707
2026-01-04 13:06:20.31	312.04	11.12	-47.0	-48.9	15.7	0.00e+00	0	55	0	715128832	55	4846
2026-01-04 13:06:23.28	312.56	11.03	-46.9	-48.8	15.8	0.00e+00	0	55	0	721420288	55	4806
2026-01-04 13:06:26.24	313.07	10.94	-46.6	-48.4	16.2	0.00e+00	0	55	0	726663168	55	4549
2026-01-04 13:06:29.19	313.58	10.85	-46.7	-48.6	16.0	0.00e+00	0	55	0	731906048	55	4655
2026-01-04 13:06:32.15	314.09	10.75	-46.9	-48.8	15.9	0.00e+00	0	55	0	737148928	55	4765
2026-01-04 13:06:35.11	314.59	10.66	-47.0	-48.9	15.7	0.00e+00	0	55	0	743440384	55	4835
2026-01-04 13:06:38.07	315.10	10.56	-47.5	-49.8	15.0	0.00e+00	0	55	0	748683264	56	5046
2026-01-04 13:06:41.04	315.59	10.46	-47.7	-50.0	14.8	0.00e+00	0	54	0	753926144	57	4880
2026-01-04 13:06:44.00	316.09	10.36	-47.8	-50.1	14.6	0.00e+00	0	55	0	760217600	57	4969
2026-01-04 13:06:46.95	316.58	10.26	-47.8	-50.2	14.5	0.00e+00	0	55	0	765460480	57	4994
2026-01-04 13:06:49.91	317.07	10.15	-47.9	-50.3	14.4	0.00e+00	0	55	0	770703360	57	5058
2026-01-04 13:06:52.87	317.55	10.05	-48.1	-50.5	14.2	1.50e-06	0	55	0	776994816	58	4888
2026-01-04 13:06:55.83	318.03	9.94	-48.6	-51.4	13.3	1.22e-05	0	55	0	782237696	59	5140
2026-01-04 13:06:58.78	318.51	9.83	-48.8	-51.8	12.9	2.51e-05	0	55	0	787480576	59	5343
2026-01-04 13:07:01.75	318.99	9.73	-48.6	-51.5	13.2	1.60e-05	0	54	0	792723456	59	5202
2026-01-04 13:07:04.72	319.46	9.61	-49.0	-52.1	12.5	4.34e-05	0	55	0	799014912	59	5590
2026-01-04 13:07:07.68	319.93	9.50	-49.2	-52.6	12.0	2.53e-04	0	55	0	804257792	60	5543
2026-01-04 13:07:10.64	320.39	9.39	-49.0	-52.2	12.3	1.85e-04	0	55	0	809500672	60	5337
2026-01-04 13:07:13.59	320.85	9.28	-48.8	-51.8	12.8	7.93e-05	0	55	0	815792128	60	5063
2026-01-04 13:07:16.54	321.31	9.16	-48.8	-51.9	12.7	8.23e-05	0	55	0	821035008	60	5140
2026-01-04 13:07:19.50	321.76	9.05	-48.8	-52.0	12.6	1.21e-04	0	55	0	826277888	60	5162
2026-01-04 13:07:22.47	322.21	8.93	-48.8	-52.0	12.6	7.55e-05	0	55	0	831520768	60	5182
2026-01-04 13:07:25.45	322.66	8.81	-48.8	-51.9	12.7	6.25e-05	0	55	0	837812224	60	5144
2026-01-04 13:07:28.39	323.10	8.70	-48.9	-52.0	12.5	1.23e-04	0	55	0	843055104	60	5204
2026-01-04 13:07:31.33	323.54	8.58	-48.9	-52.2	12.4	1.70e-04	0	55	0	848297984	60	5284
2026-01-04 13:07:34.28	323.97	8.46	-49.0	-52.3	12.2	1.83e-04	0	55	0	854589440	60	5384
2026-01-04 13:07:37.25	324.41	8.34	-48.9	-52.3	12.2	2.54e-04	0	55	0	859832320	60	5374
2026-01-04 13:07:40.20	324.84	8.22	-49.0	-52.5	12.0	3.91e-04	0	55	0	865075200	60	5489
2026-01-04 13:07:43.17	325.26	8.09	-48.4	-51.2	13.4	1.67e-05	0	55	0	870318080	59	5019
2026-01-04 13:07:46.14	325.69	7.97	-48.2	-50.8	13.8	7.60e-06	0	55	0	876609536	59	4786
2026-01-04 13:07:49.10	326.11	7.85	-48.2	-50.8	13.7	3.80e-06	0	55	0	881852416	59	4793
2026-01-04 13:07:52.06	326.52	7.72	-48.6	-51.6	12.9	1.44e-05	0	55	0	887095296	59	5227
2026-01-04 13:07:55.03	326.94	7.60	-48.9	-52.1	12.3	1.39e-04	0	55	0	893386752	59	5570
2026-01-04 13:07:57.99	327.34	7.47	-48.9	-52.0	12.4	1.01e-04	0	55	0	898629632	59	5523
2026-01-04 13:08:00.95	327.75	7.34	-48.6	-51.6	12.8	3.96e-05	0	55	0	903872512	59	5258
2026-01-04 13:08:03.91	328.15	7.22	-48.5	-51.4	13.0	3.12e-05	0	55	0	909115392	59	5106
2026-01-04 13:08:06.87	328.55	7.09	-48.5	-51.5	13.0	2.28e-05	0	55	0	915406848	59	5163
2026-01-04 13:08:09.84	328.95	6.96	-48.6	-51.6	12.8	7.70e-05	0	55	0	920649728	59	5265
2026-01-04 13:08:12.80	329.34	6.83	-48.3	-51.0	13.4	1.83e-05	0	55	0	925892608	59	4912
2026-01-04 13:08:15.77	329.73	6.70	-48.5	-51.5	13.0	3.35e-05	0	55	0	932184064	59	5163
2026-01-04 13:08:18.72	330.11	6.57	-48.5	-51.5	12.8	1.17e-04	0	55	0	937426944	59	5192
2026-01-04 13:08:21.68	330.50	6.44	-48.6	-51.7	12.6	1.25e-04	0	55	0	942669824	59	5294
2026-01-04 13:08:24.64	330.87	6.31	-48.4	-51.4	13.0	4.19e-05	0	55	0	948961280	59	5136
2026-01-04 13:08:27.59	331.25	6.18	-48.0	-50.7	13.6	1.06e-05	0	55	0	954204160	59	4757
2026-01-04 13:08:30.54	331.62	6.05	-47.8	-50.3	14.1	3.00e-06	0	55	0	959447040	58	4767
2026-01-04 13:08:33.50	331.99	5.92	-48.1	-50.8	13.4	5.30e-06	0	55	0	964689920	58	5096
2026-01-04 13:08:36.45	332.35	5.79	-48.2	-51.0	13.3	1.90e-05	0	55	0	970981376	58	5190
2026-01-04 13:08:39.41	332.72	5.66	-48.4	-51.6	12.6	8.85e-05	0	55	0	976224256	58	5533
2026-01-04 13:08:42.36	333.08	5.53	-48.7	-51.9	12.3	1.79e-04	0	55	0	981467136	59	5456
2026-01-04 13:08:45.33	333.43	5.40	-48.6	-51.9	12.2	1.95e-04	0	55	0	987758592	59	5426
2026-01-04 13:08:48.30	333.79	5.26	-48.6	-51.9	12.3	2.27e-04	0	55	0	993001472	59	5407
2026-01-04 13:08:51.26	334.14	5.13	-48.6	-51.9	12.2	1.31e-04	0	55	0	998244352	59	5425
2026-01-04 13:08:54.22	334.49	5.00	-50.4	-56.9	7.6	3.20e-03	0	55	0	1003487232	62	8167
2026-01-04 13:08:57.16	334.83	4.87	-51.8	-65.8	3.8	1.49e+00	0	55	104	1004535808	65	19037
2026-01-04 13:09:00.12	335.17	4.73	-51.4	-65.3	3.8	1.49e+00	0	55	104	1004535808	65	18054
2026-01-04 13:09:03.08	335.51	4.60	-52.2	-66.2	3.8	1.49e+00	0	55	104	1004535808	66	18757
2026-01-04 13:09:06.04	335.84	4.47	-52.2	-66.3	3.8	1.49e+00	0	55	104	1004535808	66	18991
2026-01-04 13:09:09.01	336.18	4.33	-52.2	-66.3	3.8	1.49e+00	0	55	104	1004535808	66	19094
2026-01-04 13:09:11.97	336.51	4.20	-52.4	-66.4	3.8	1.49e+00	0	55	104	1004535808	66	19222
2026-01-04 13:09:14.93	336.83	4.06	-52.4	-66.4	3.8	1.49e+00	0	55	104	1004535808	66	19268
2026-01-04 13:09:17.90	337.16	3.93	-52.5	-66.5	3.8	1.49e+00	0	55	104	1004535808	66	19422
2026-01-04 13:09:20.86	337.48	3.80	-52.6	-66.5	3.8	1.49e+00	0	55	104	1004535808	66	19401
2026-01-04 13:09:23.82	337.80	3.66	-52.4	-66.4	3.8	1.49e+00	0	55	104	1004535808	67	18276
2026-01-04 13:09:26.78	338.12	3.53	-52.4	-66.4	3.8	1.49e+00	0	55	104	1004535808	67	18260
2026-01-04 13:09:29.73	338.43	3.40	-52.3	-66.4	3.8	1.49e+00	0	55	104	1004535808	67	18206
2026-01-04 13:09:32.68	338.74	3.26	-52.4	-66.4	3.8	1.49e+00	0	55	104	1004535808	67	18211
2026-01-04 13:09:35.65	339.05	3.13	-52.4	-66.4	3.8	1.49e+00	0	55	104	1004535808	67	18226
2026-01-04 13:09:38.60	339.35	2.99	-52.4	-66.4	3.8	1.49e+00	0	55	104	1004535808	67	18202

#Closed at: 2026-01-04 13:09:40
#Recorded file [1004 MB]: D:/Data/31026_260104_160854.dat