passes_logs/2026/01/04/R3.0SM8_Murmansk_STILSPACE/R3.0SM8_Murmansk_STILSPACE__20260104_231437_AQUA_rec.log

#Pass ID: 20260104_231437_AQUA
#Satellite: AQUA
#Configuration: AQUA
#almurnet v.1.7.20240730
#Start time: 2026-01-04 23:14:37

#Version: 2.2.20231116
#Station: R3.0SM8_Murmansk_STILSPACE
#Location: 33.092731 lon 68.902999 lat
#TLE: 1 27424U 02022A   26003.93831470  .00001925  00000+0  39553-3 0  9995
#TLE: 2 27424  98.4067 330.1809 0002003  92.1713 343.8415 14.61796291259276

#Time	Az	El	Level	Level2	SNR	BER	BlckErr	Temp	State	Recorded	gain1	gain2
2026-01-04 23:14:37.01	24.57	2.99	-54.4	-74.3	3.8	7.44e-01	0	45	0	0	71	36812
2026-01-04 23:14:39.97	24.91	3.13	-54.3	-74.2	3.8	7.44e-01	0	46	104	0	70	38576
2026-01-04 23:14:42.95	25.27	3.27	-54.2	-74.2	3.8	7.46e-01	0	46	104	0	70	38348
2026-01-04 23:14:45.91	25.62	3.41	-54.1	-74.1	3.8	7.42e-01	0	46	104	0	70	37883
2026-01-04 23:14:48.87	25.97	3.55	-54.0	-73.9	3.8	7.47e-01	0	46	104	0	70	37250
2026-01-04 23:14:51.83	26.33	3.68	-53.6	-73.5	3.8	7.46e-01	0	47	104	0	70	35284
2026-01-04 23:14:54.81	26.70	3.82	-52.2	-73.0	3.8	7.46e-01	0	47	104	0	67	39598
2026-01-04 23:14:57.79	27.06	3.96	-53.2	-72.8	3.8	7.45e-01	0	47	104	0	68	36802
2026-01-04 23:15:00.75	27.43	4.10	-51.5	-71.9	3.8	7.43e-01	0	47	104	0	66	37065
2026-01-04 23:15:03.72	27.81	4.24	-52.3	-71.7	3.8	7.45e-01	0	47	104	0	67	34466
2026-01-04 23:15:06.69	28.19	4.38	-53.2	-72.9	3.8	7.42e-01	0	48	104	0	68	37020
2026-01-04 23:15:09.66	28.57	4.51	-53.1	-71.6	3.8	7.42e-01	0	48	104	0	68	32011
2026-01-04 23:15:12.62	28.95	4.65	-53.1	-71.4	3.8	7.39e-01	0	48	104	0	68	31189
2026-01-04 23:15:15.58	29.34	4.79	-53.0	-66.3	5.7	6.90e-01	91	48	0	0	68	17399
2026-01-04 23:15:18.55	29.73	4.92	-52.2	-59.4	12.4	6.05e-01	0	49	0	5242880	68	7871
2026-01-04 23:15:21.53	30.13	5.06	-51.1	-55.8	16.1	5.99e-01	0	49	0	11010048	65	6185
2026-01-04 23:15:24.49	30.53	5.20	-51.1	-55.8	16.1	6.00e-01	0	49	0	16777216	65	6191
2026-01-04 23:15:27.47	30.94	5.33	-50.8	-55.0	17.0	6.03e-01	0	49	0	22020096	65	5617
2026-01-04 23:15:30.45	31.35	5.47	-50.4	-54.3	17.7	6.03e-01	0	49	0	27787264	64	5471
2026-01-04 23:15:33.42	31.76	5.61	-50.1	-53.5	18.5	6.01e-01	0	49	0	33554432	63	5309
2026-01-04 23:15:36.39	32.18	5.74	-50.1	-53.4	18.6	5.99e-01	0	49	0	38797312	63	5268
2026-01-04 23:15:39.35	32.60	5.88	-49.8	-53.0	19.0	6.00e-01	0	49	0	44564480	63	5011
2026-01-04 23:15:42.33	33.03	6.01	-50.0	-53.2	18.9	6.02e-01	0	50	0	49807360	63	5137
2026-01-04 23:15:45.30	33.45	6.14	-49.8	-52.8	19.3	6.00e-01	0	50	0	55574528	63	4894
2026-01-04 23:15:48.29	33.89	6.28	-49.7	-52.8	19.4	5.98e-01	0	50	0	61341696	62	5186
2026-01-04 23:15:51.24	34.33	6.41	-49.9	-53.2	19.0	6.02e-01	0	50	0	66584576	62	5405
2026-01-04 23:15:54.21	34.77	6.54	-49.6	-52.5	19.6	6.01e-01	0	50	0	72351744	62	5038
2026-01-04 23:15:57.19	35.22	6.67	-49.8	-52.8	19.4	6.02e-01	0	50	0	77594624	62	5164
2026-01-04 23:16:00.15	35.67	6.81	-50.0	-53.1	19.1	6.02e-01	0	50	0	83361792	62	5372
2026-01-04 23:16:03.11	36.12	6.94	-49.6	-52.4	19.8	5.99e-01	0	51	0	89128960	62	4968
2026-01-04 23:16:06.08	36.58	7.06	-49.7	-52.7	19.5	6.01e-01	0	51	0	94371840	62	5122
2026-01-04 23:16:09.05	37.04	7.19	-49.5	-52.4	19.9	6.01e-01	0	51	0	100139008	62	4939
2026-01-04 23:16:12.03	37.51	7.32	-49.4	-52.2	20.1	5.98e-01	0	51	0	105906176	62	4823
2026-01-04 23:16:15.00	37.98	7.45	-49.6	-52.4	19.9	6.01e-01	0	51	0	111149056	62	4979
2026-01-04 23:16:17.98	38.46	7.58	-49.5	-52.2	20.2	6.03e-01	0	51	0	116916224	62	4851
2026-01-04 23:16:20.95	38.94	7.70	-49.5	-52.2	20.1	6.01e-01	0	51	0	122159104	62	4824
2026-01-04 23:16:23.91	39.43	7.83	-49.5	-52.2	20.1	6.02e-01	0	51	0	127926272	62	4848
2026-01-04 23:16:26.88	39.92	7.95	-49.4	-52.1	20.2	6.03e-01	0	51	0	133693440	62	4799
2026-01-04 23:16:29.82	40.40	8.07	-49.4	-52.1	20.1	6.03e-01	0	52	0	138936320	62	4769
2026-01-04 23:16:32.77	40.90	8.19	-49.6	-52.4	20.1	6.01e-01	0	52	0	144703488	62	4958
2026-01-04 23:16:35.72	41.40	8.31	-49.7	-52.5	20.0	6.01e-01	0	52	0	149946368	62	5002
2026-01-04 23:16:38.69	41.91	8.43	-49.8	-52.7	19.6	6.02e-01	0	52	0	155713536	62	5127
2026-01-04 23:16:41.65	42.42	8.55	-49.6	-52.4	20.1	6.04e-01	0	52	0	161480704	62	4942
2026-01-04 23:16:44.63	42.93	8.67	-49.8	-52.6	19.9	6.01e-01	0	52	0	166723584	62	5055
2026-01-04 23:16:47.60	43.45	8.78	-49.4	-52.0	20.5	6.01e-01	0	52	0	172490752	62	4747
2026-01-04 23:16:50.57	43.98	8.89	-49.7	-52.4	20.0	6.02e-01	0	52	0	177733632	62	4982
2026-01-04 23:16:53.55	44.51	9.01	-49.7	-52.5	20.0	6.00e-01	0	52	0	183500800	62	5037
2026-01-04 23:16:56.52	45.04	9.12	-49.9	-52.8	19.6	6.03e-01	0	52	0	189267968	62	5209
2026-01-04 23:16:59.47	45.57	9.23	-49.4	-52.0	20.4	6.00e-01	0	52	0	194510848	62	4709
2026-01-04 23:17:02.44	46.12	9.34	-49.6	-52.3	20.2	5.99e-01	0	52	0	200278016	62	4888
2026-01-04 23:17:05.39	46.66	9.44	-49.2	-51.7	20.7	5.97e-01	0	52	0	205520896	61	4848
2026-01-04 23:17:08.36	47.21	9.55	-49.1	-51.5	20.9	6.01e-01	0	52	0	211288064	61	4750
2026-01-04 23:17:11.34	47.76	9.65	-49.1	-51.4	21.0	6.03e-01	0	53	0	217055232	61	4699
2026-01-04 23:17:14.31	48.32	9.75	-49.0	-51.3	21.1	6.02e-01	0	53	0	222298112	61	4625
2026-01-04 23:17:17.28	48.89	9.85	-49.1	-51.5	21.0	6.01e-01	0	53	0	228065280	61	4745
2026-01-04 23:17:20.25	49.45	9.95	-49.1	-51.4	20.9	5.99e-01	0	53	0	233308160	61	4700
2026-01-04 23:17:23.23	50.02	10.05	-49.5	-52.1	20.4	6.02e-01	0	53	0	239075328	61	5050
2026-01-04 23:17:26.20	50.60	10.14	-49.5	-52.1	20.5	6.00e-01	0	53	0	244842496	61	5069
2026-01-04 23:17:29.16	51.17	10.23	-49.5	-52.1	20.4	6.00e-01	0	53	0	250085376	61	5069
2026-01-04 23:17:32.14	51.76	10.32	-49.4	-51.9	20.7	6.02e-01	0	53	0	255852544	61	4939
2026-01-04 23:17:35.11	52.34	10.41	-49.5	-52.1	20.5	6.00e-01	0	53	0	261619712	61	5060
2026-01-04 23:17:38.08	52.93	10.50	-49.4	-51.9	20.7	6.01e-01	0	53	0	266862592	61	4940
2026-01-04 23:17:41.06	53.53	10.58	-49.2	-51.6	20.9	6.00e-01	0	53	0	272629760	61	4795
2026-01-04 23:17:44.03	54.13	10.66	-49.3	-51.8	20.8	6.00e-01	0	53	0	278396928	61	4872
2026-01-04 23:17:46.99	54.72	10.74	-49.0	-51.3	21.2	6.00e-01	0	54	0	283639808	61	4627
2026-01-04 23:17:49.96	55.33	10.82	-49.1	-51.5	21.1	6.02e-01	0	54	0	289406976	61	4718
2026-01-04 23:17:52.93	55.93	10.89	-48.9	-51.2	21.3	6.00e-01	0	53	0	294649856	61	4566
2026-01-04 23:17:55.88	56.54	10.96	-48.9	-51.1	21.5	5.98e-01	0	54	0	300417024	61	4509
2026-01-04 23:17:58.86	57.16	11.03	-48.9	-51.2	21.4	6.03e-01	0	54	0	306184192	61	4584
2026-01-04 23:18:01.81	57.77	11.10	-48.8	-51.1	21.5	6.02e-01	0	54	0	311427072	61	4502
2026-01-04 23:18:04.78	58.39	11.16	-49.2	-51.6	20.9	6.03e-01	0	54	0	317194240	61	4803
2026-01-04 23:18:07.74	59.01	11.22	-49.1	-51.5	21.1	6.01e-01	0	54	0	322437120	61	4732
2026-01-04 23:18:10.71	59.63	11.28	-49.1	-51.5	21.1	6.00e-01	0	54	0	328204288	61	4727
2026-01-04 23:18:13.66	60.25	11.34	-49.4	-51.9	20.8	6.00e-01	0	54	0	333971456	61	4940
2026-01-04 23:18:16.63	60.88	11.39	-49.3	-51.7	20.9	6.05e-01	0	54	0	339214336	61	4864
2026-01-04 23:18:19.59	61.51	11.44	-49.1	-51.4	21.2	5.99e-01	0	54	0	344981504	61	4697
2026-01-04 23:18:22.55	62.14	11.49	-49.2	-51.5	21.0	6.00e-01	0	54	0	350224384	61	4752
2026-01-04 23:18:25.52	62.78	11.53	-49.2	-51.6	21.0	5.99e-01	0	54	0	355991552	61	4810
2026-01-04 23:18:28.47	63.41	11.57	-49.3	-51.7	20.9	6.03e-01	0	54	0	361758720	61	4856
2026-01-04 23:18:31.43	64.05	11.61	-48.9	-51.2	21.4	6.03e-01	0	54	0	367001600	61	4565
2026-01-04 23:18:34.39	64.69	11.65	-49.2	-51.5	21.1	6.02e-01	0	54	0	372768768	61	4743
2026-01-04 23:18:37.37	65.34	11.68	-49.3	-51.7	20.9	6.02e-01	0	54	0	378011648	61	4842
2026-01-04 23:18:40.34	65.98	11.71	-49.3	-51.8	20.9	6.01e-01	0	54	0	383778816	61	4887
2026-01-04 23:18:43.30	66.63	11.74	-49.3	-51.8	20.9	5.99e-01	0	54	0	389021696	61	4894
2026-01-04 23:18:46.27	67.27	11.76	-49.1	-51.4	21.2	6.01e-01	0	54	0	394788864	61	4672
2026-01-04 23:18:49.24	67.92	11.78	-49.3	-51.7	20.9	6.00e-01	0	54	0	400556032	61	4845
2026-01-04 23:18:52.21	68.57	11.80	-48.8	-51.0	21.6	6.03e-01	0	54	0	405798912	61	4463
2026-01-04 23:18:55.16	69.22	11.81	-48.9	-51.2	21.5	6.02e-01	0	54	0	411566080	61	4553
2026-01-04 23:18:58.13	69.87	11.82	-48.7	-50.9	21.7	6.02e-01	0	54	0	417333248	60	4659
2026-01-04 23:19:01.08	70.52	11.83	-48.8	-51.0	21.6	6.02e-01	0	54	0	422576128	60	4731
2026-01-04 23:19:04.05	71.17	11.83	-49.1	-51.4	21.2	6.04e-01	0	54	0	428343296	60	4939
2026-01-04 23:19:07.02	71.82	11.84	-49.3	-51.7	20.9	6.03e-01	0	54	0	433586176	60	5135
2026-01-04 23:19:09.99	72.47	11.83	-49.3	-51.7	20.9	6.01e-01	0	55	0	439353344	61	4830
2026-01-04 23:19:12.96	73.12	11.83	-49.4	-51.8	20.8	6.01e-01	0	54	0	445120512	61	4920
2026-01-04 23:19:15.92	73.77	11.82	-48.9	-51.1	21.5	5.99e-01	0	54	0	450363392	61	4516
2026-01-04 23:19:18.89	74.42	11.81	-49.0	-51.2	21.4	6.01e-01	0	55	0	456130560	61	4578
2026-01-04 23:19:21.86	75.07	11.80	-48.9	-51.1	21.5	6.03e-01	0	55	0	461897728	61	4531
2026-01-04 23:19:24.84	75.73	11.78	-48.8	-51.0	21.7	6.02e-01	0	55	0	467140608	61	4445
2026-01-04 23:19:27.80	76.37	11.76	-48.9	-51.2	21.5	6.00e-01	0	55	0	472907776	61	4557
2026-01-04 23:19:30.76	77.02	11.73	-48.9	-51.1	21.5	6.01e-01	0	55	0	478150656	61	4501
2026-01-04 23:19:33.73	77.66	11.71	-49.1	-51.4	21.2	6.01e-01	0	55	0	483917824	61	4695
2026-01-04 23:19:36.70	78.31	11.68	-49.0	-51.2	21.5	6.02e-01	0	55	0	489160704	61	4571
2026-01-04 23:19:39.67	78.95	11.65	-48.9	-51.1	21.5	6.02e-01	0	55	0	494927872	61	4525
2026-01-04 23:19:42.63	79.59	11.61	-49.1	-51.4	21.3	6.03e-01	0	55	0	500695040	61	4659
2026-01-04 23:19:45.60	80.24	11.57	-48.9	-51.1	21.5	6.01e-01	0	55	0	505937920	61	4497
2026-01-04 23:19:48.56	80.87	11.53	-48.9	-51.1	21.6	6.03e-01	0	55	0	511705088	61	4509
2026-01-04 23:19:51.52	81.51	11.49	-48.8	-51.0	21.6	6.01e-01	0	55	0	517472256	61	4451
2026-01-04 23:19:54.49	82.14	11.44	-49.0	-51.3	21.3	6.00e-01	0	55	0	522715136	61	4607
2026-01-04 23:19:57.45	82.77	11.39	-49.1	-51.4	21.3	6.02e-01	0	55	0	528482304	61	4666
2026-01-04 23:20:00.43	83.41	11.33	-48.9	-51.2	21.5	6.01e-01	0	55	0	533725184	61	4551
2026-01-04 23:20:03.39	84.03	11.28	-48.9	-51.2	21.4	6.02e-01	0	55	0	539492352	61	4558
2026-01-04 23:20:06.36	84.66	11.22	-48.8	-51.0	21.5	6.00e-01	0	55	0	545259520	61	4489
2026-01-04 23:20:09.33	85.28	11.16	-48.8	-51.0	21.6	6.02e-01	0	55	0	550502400	61	4473
2026-01-04 23:20:12.27	85.90	11.09	-48.9	-51.1	21.6	6.03e-01	0	55	0	556269568	61	4514
2026-01-04 23:20:15.25	86.52	11.03	-49.1	-51.4	21.2	6.01e-01	0	55	0	561512448	61	4685
2026-01-04 23:20:18.23	87.13	10.96	-49.2	-51.5	21.1	6.00e-01	0	55	0	567279616	61	4737
2026-01-04 23:20:21.21	87.75	10.89	-49.3	-51.7	20.9	6.00e-01	0	55	0	573046784	61	4862
2026-01-04 23:20:24.18	88.35	10.81	-49.3	-51.7	21.0	5.99e-01	0	55	0	578289664	61	4847
2026-01-04 23:20:27.15	88.96	10.73	-49.1	-51.5	21.2	6.00e-01	0	55	0	584056832	61	4725
2026-01-04 23:20:30.10	89.56	10.66	-48.9	-51.1	21.5	6.01e-01	0	55	0	589299712	61	4516
2026-01-04 23:20:33.07	90.16	10.57	-48.9	-51.1	21.5	6.02e-01	0	55	0	595066880	61	4519
2026-01-04 23:20:36.04	90.75	10.49	-49.1	-51.4	21.2	6.00e-01	0	55	0	600834048	61	4691
2026-01-04 23:20:39.00	91.34	10.40	-49.1	-51.4	21.2	6.00e-01	0	55	0	606076928	61	4683
2026-01-04 23:20:41.97	91.93	10.32	-48.9	-51.2	21.4	6.02e-01	0	55	0	611844096	61	4564
2026-01-04 23:20:44.95	92.51	10.23	-49.4	-51.8	20.7	6.01e-01	0	55	0	617611264	61	4925
2026-01-04 23:20:47.92	93.09	10.13	-49.6	-52.2	20.4	6.00e-01	0	55	0	622854144	61	5122
2026-01-04 23:20:50.89	93.67	10.04	-49.4	-51.8	20.8	6.02e-01	0	56	0	628621312	61	4921
2026-01-04 23:20:53.86	94.24	9.94	-49.3	-51.7	20.9	6.00e-01	0	55	0	634388480	61	4837
2026-01-04 23:20:56.82	94.81	9.84	-49.1	-51.5	21.1	6.00e-01	0	56	0	639631360	61	4713
2026-01-04 23:20:59.78	95.37	9.74	-49.3	-51.8	20.7	6.01e-01	0	56	0	645398528	61	4894
2026-01-04 23:21:02.75	95.93	9.64	-49.2	-51.6	21.0	6.01e-01	0	55	0	650641408	61	4784
2026-01-04 23:21:05.71	96.48	9.54	-49.3	-51.8	20.8	6.01e-01	0	56	0	656408576	61	4886
2026-01-04 23:21:08.69	97.04	9.43	-49.0	-51.3	21.2	5.98e-01	0	56	0	661651456	61	4647
2026-01-04 23:21:11.66	97.59	9.32	-49.0	-51.3	21.2	6.04e-01	0	56	0	667418624	61	4626
2026-01-04 23:21:14.63	98.13	9.21	-49.3	-51.7	20.8	6.00e-01	0	56	0	673185792	61	4861
2026-01-04 23:21:17.61	98.67	9.10	-49.1	-51.4	21.1	6.04e-01	0	56	0	678428672	61	4691
2026-01-04 23:21:20.58	99.20	8.99	-49.2	-51.6	20.9	6.03e-01	0	56	0	684195840	61	4789
2026-01-04 23:21:23.55	99.74	8.88	-49.1	-51.5	21.0	6.02e-01	0	56	0	689963008	61	4731
2026-01-04 23:21:26.51	100.26	8.76	-49.1	-51.5	21.0	5.99e-01	0	56	0	695205888	61	4708
2026-01-04 23:21:29.46	100.78	8.65	-49.1	-51.5	20.9	6.01e-01	0	56	0	700973056	61	4752
2026-01-04 23:21:32.43	101.30	8.53	-49.2	-51.7	20.8	6.02e-01	0	56	0	706215936	61	4828
2026-01-04 23:21:35.40	101.81	8.41	-49.0	-51.4	21.0	6.00e-01	0	56	0	711983104	61	4690
2026-01-04 23:21:38.38	102.32	8.29	-49.1	-51.5	21.0	6.02e-01	0	56	0	717750272	61	4721
2026-01-04 23:21:41.34	102.82	8.17	-49.2	-51.7	20.7	6.03e-01	0	56	0	722993152	61	4833
2026-01-04 23:21:44.32	103.32	8.05	-49.2	-51.7	20.8	6.01e-01	0	56	0	728760320	61	4832
2026-01-04 23:21:47.28	103.82	7.92	-49.1	-51.5	20.9	6.02e-01	0	56	0	734527488	61	4731
2026-01-04 23:21:50.25	104.31	7.80	-49.4	-51.9	20.5	6.00e-01	0	56	0	739770368	61	4972
2026-01-04 23:21:53.21	104.79	7.67	-49.4	-52.0	20.4	6.00e-01	0	56	0	745537536	61	5035
2026-01-04 23:21:56.17	105.28	7.55	-49.5	-52.2	20.2	6.00e-01	0	56	0	750780416	61	5140
2026-01-04 23:21:59.15	105.76	7.42	-49.5	-52.1	20.2	6.01e-01	0	56	0	756547584	61	5099
2026-01-04 23:22:02.12	106.23	7.29	-49.7	-52.5	19.8	6.02e-01	0	56	0	762314752	61	5336
2026-01-04 23:22:05.07	106.70	7.16	-49.5	-52.1	20.2	6.02e-01	0	56	0	767557632	61	5085
2026-01-04 23:22:08.03	107.16	7.04	-49.6	-52.4	20.0	6.04e-01	0	56	0	773324800	61	5226
2026-01-04 23:22:11.01	107.62	6.90	-49.7	-52.5	19.8	6.03e-01	0	56	0	778567680	61	5322
2026-01-04 23:22:13.98	108.08	6.77	-49.8	-52.7	19.7	6.02e-01	0	56	0	784334848	61	5409
2026-01-04 23:22:16.95	108.53	6.64	-49.8	-52.8	19.6	6.03e-01	0	56	0	790102016	62	5170
2026-01-04 23:22:19.91	108.98	6.51	-49.6	-52.4	19.9	6.01e-01	0	56	0	795344896	62	4959
2026-01-04 23:22:22.87	109.42	6.38	-50.0	-53.1	19.3	6.00e-01	0	56	0	801112064	62	5341
2026-01-04 23:22:25.85	109.86	6.24	-49.8	-52.8	19.4	6.02e-01	0	56	0	806354944	62	5197
2026-01-04 23:22:28.81	110.29	6.11	-49.7	-52.7	19.5	6.01e-01	0	56	0	812122112	62	5135
2026-01-04 23:22:31.77	110.72	5.97	-49.5	-52.4	19.8	6.03e-01	0	56	0	817889280	62	4949
2026-01-04 23:22:34.75	111.15	5.84	-49.6	-52.5	19.7	6.03e-01	0	56	0	823132160	62	5001
2026-01-04 23:22:37.73	111.57	5.70	-49.7	-52.6	19.6	5.99e-01	0	56	0	828899328	62	5054
2026-01-04 23:22:40.71	111.99	5.56	-49.7	-52.7	19.5	6.03e-01	0	56	0	834666496	62	5141
2026-01-04 23:22:43.67	112.41	5.43	-49.8	-52.8	19.3	6.01e-01	0	56	0	839909376	62	5172
2026-01-04 23:22:46.64	112.82	5.29	-49.8	-52.9	19.2	6.01e-01	0	56	0	845676544	62	5270
2026-01-04 23:22:49.62	113.22	5.15	-50.0	-53.2	18.9	6.02e-01	0	56	0	850919424	62	5437
2026-01-04 23:22:52.58	113.62	5.02	-53.4	-71.7	3.7	7.42e-01	0	56	104	856162304	68	32503
2026-01-04 23:22:55.56	114.02	4.88	-53.9	-73.9	3.8	7.47e-01	0	56	104	856162304	70	36976
2026-01-04 23:22:58.51	114.42	4.74	-54.2	-74.1	3.8	7.44e-01	0	56	104	856162304	70	37979
2026-01-04 23:23:01.48	114.81	4.60	-53.8	-73.5	3.8	7.49e-01	0	56	104	856162304	69	37798
2026-01-04 23:23:04.44	115.19	4.46	-54.3	-74.2	3.8	7.44e-01	0	57	104	856162304	70	38582
2026-01-04 23:23:07.41	115.57	4.32	-54.4	-74.3	3.8	7.49e-01	0	56	104	856162304	70	39018
2026-01-04 23:23:10.36	115.95	4.19	-54.4	-74.4	3.8	7.44e-01	0	57	104	856162304	71	37029
2026-01-04 23:23:13.34	116.33	4.05	-54.5	-74.4	3.8	7.46e-01	0	56	104	856162304	71	37119
2026-01-04 23:23:16.31	116.70	3.91	-54.5	-74.4	3.8	7.43e-01	0	56	104	856162304	71	37349
2026-01-04 23:23:19.29	117.07	3.77	-54.5	-74.4	3.8	7.42e-01	0	57	104	856162304	71	37330
2026-01-04 23:23:22.26	117.43	3.63	-54.5	-74.4	3.8	7.47e-01	0	56	104	856162304	71	37168
2026-01-04 23:23:25.23	117.79	3.49	-54.5	-74.4	3.8	7.44e-01	0	57	104	856162304	71	37170
2026-01-04 23:23:28.17	118.15	3.35	-54.5	-74.4	3.8	7.45e-01	0	57	104	856162304	71	37258
2026-01-04 23:23:31.13	118.50	3.21	-54.5	-74.4	3.8	7.46e-01	0	57	104	856162304	71	37191
2026-01-04 23:23:34.08	118.85	3.07	-54.4	-74.4	3.8	7.44e-01	0	57	104	856162304	71	37243
2026-01-04 23:23:37.06	119.19	2.93	-54.5	-74.4	3.8	7.47e-01	0	56	104	856162304	71	37174

#Closed at: 2026-01-04 23:23:38
#Recorded file [856 MB]: D:/Data/31026_260105_022252.dat