passes_logs/2026/01/04/R3.0SM8_Murmansk_STILSPACE/R3.0SM8_Murmansk_STILSPACE__20260104_003813_FENGYUN_3D_rec.log

#Pass ID: 20260104_003813_FENGYUN 3D
#Satellite: FENGYUN 3D
#Configuration: FENGYUN 3D
#almurnet v.1.7.20240730
#Start time: 2026-01-04 00:38:15

#Version: 2.2.20231116
#Station: R3.0SM8_Murmansk_STILSPACE
#Location: 33.092731 lon 68.902999 lat
#TLE: 1 43010U 17072A   26003.51579816  .00000092  00000+0  65324-4 0  9992
#TLE: 2 43010  98.9912 335.1548 0001916 128.4619 231.6729 14.19692074421623

#Time	Az	El	Level	Level2	SNR	BER	BlckErr	Temp	State	Recorded	gain1	gain2
2026-01-04 00:38:15.08	21.01	3.12	-52.4	-63.1	3.8	8.46e-01	0	46	0	0	66	13220
2026-01-04 00:38:19.03	21.28	3.35	-52.0	-62.6	3.8	8.46e-01	0	46	104	0	66	12515
2026-01-04 00:38:23.00	21.56	3.58	-51.4	-62.2	3.8	8.46e-01	0	47	104	0	65	12627
2026-01-04 00:38:26.96	21.84	3.81	-51.3	-62.1	3.8	8.47e-01	0	47	104	0	65	12470
2026-01-04 00:38:30.91	22.12	4.05	-51.4	-62.0	3.8	8.46e-01	0	47	104	0	65	12375
2026-01-04 00:38:34.85	22.41	4.28	-51.4	-62.0	3.8	8.46e-01	0	48	104	0	65	12250
2026-01-04 00:38:38.82	22.71	4.52	-51.3	-61.5	3.8	8.46e-01	0	48	104	0	65	11635
2026-01-04 00:38:42.78	23.00	4.76	-50.0	-54.5	6.6	3.25e-01	0	48	0	4194304	63	5855
2026-01-04 00:38:46.76	23.31	5.00	-48.3	-50.9	10.2	7.83e-03	0	48	0	26214400	59	4842
2026-01-04 00:38:50.71	23.61	5.25	-47.7	-49.8	11.5	1.55e-03	0	48	0	49283072	58	4526
2026-01-04 00:38:54.67	23.93	5.49	-46.4	-48.1	13.3	3.43e-05	0	49	0	71303168	56	4174
2026-01-04 00:38:58.63	24.24	5.74	-46.8	-48.7	12.6	6.06e-05	0	49	0	93323264	55	4718
2026-01-04 00:39:02.58	24.57	5.98	-45.5	-46.9	14.5	1.10e-06	0	49	0	115343360	54	4076
2026-01-04 00:39:06.53	24.89	6.23	-44.7	-45.9	15.4	0.00e+00	0	49	0	138412032	52	4070
2026-01-04 00:39:10.50	25.23	6.49	-44.9	-46.1	15.4	0.00e+00	0	50	0	160432128	52	4147
2026-01-04 00:39:14.47	25.57	6.74	-44.5	-45.6	15.9	0.00e+00	0	50	0	182452224	51	4184
2026-01-04 00:39:18.42	25.91	6.99	-44.6	-45.7	15.9	0.00e+00	0	50	0	204472320	51	4196
2026-01-04 00:39:22.38	26.26	7.25	-44.6	-45.7	15.9	0.00e+00	0	50	0	227540992	51	4198
2026-01-04 00:39:26.34	26.61	7.51	-44.6	-45.7	15.9	0.00e+00	0	50	0	249561088	51	4222
2026-01-04 00:39:30.29	26.97	7.77	-44.7	-45.8	15.8	0.00e+00	0	50	0	271581184	51	4278
2026-01-04 00:39:34.24	27.34	8.03	-44.0	-45.0	16.6	0.00e+00	0	51	0	293601280	51	3901
2026-01-04 00:39:38.19	27.71	8.29	-44.0	-45.0	16.6	0.00e+00	0	51	0	315621376	51	3896
2026-01-04 00:39:42.14	28.09	8.55	-44.3	-45.3	16.4	0.00e+00	0	51	0	338690048	51	4028
2026-01-04 00:39:46.09	28.48	8.82	-44.3	-45.3	16.4	0.00e+00	0	51	0	360710144	51	4039
2026-01-04 00:39:50.05	28.87	9.09	-44.4	-45.4	16.4	0.00e+00	0	51	0	382730240	51	4077
2026-01-04 00:39:54.00	29.27	9.36	-44.1	-45.1	16.7	0.00e+00	0	52	0	404750336	51	3929
2026-01-04 00:39:57.97	29.68	9.63	-43.9	-44.9	16.9	0.00e+00	0	51	0	426770432	51	3839
2026-01-04 00:40:01.93	30.10	9.90	-44.0	-45.0	16.8	0.00e+00	0	52	0	449839104	51	3889
2026-01-04 00:40:05.90	30.52	10.18	-44.0	-45.0	16.8	0.00e+00	0	52	0	471859200	51	3896
2026-01-04 00:40:09.85	30.95	10.46	-44.0	-45.0	16.9	0.00e+00	0	52	0	493879296	50	4115
2026-01-04 00:40:13.80	31.39	10.73	-44.2	-45.2	16.7	0.00e+00	0	52	0	515899392	50	4209
2026-01-04 00:40:17.77	31.84	11.02	-43.5	-44.4	17.5	0.00e+00	0	52	0	538968064	50	3831
2026-01-04 00:40:21.73	32.29	11.30	-43.4	-44.3	17.6	0.00e+00	0	52	0	560988160	50	3798
2026-01-04 00:40:25.71	32.76	11.58	-43.3	-44.1	17.7	0.00e+00	0	52	0	583008256	49	3946
2026-01-04 00:40:29.66	33.23	11.87	-43.5	-44.3	17.5	0.00e+00	0	53	0	605028352	49	4045
2026-01-04 00:40:33.61	33.71	12.16	-43.3	-44.2	17.7	0.00e+00	0	53	0	628097024	49	3966
2026-01-04 00:40:37.57	34.20	12.44	-43.3	-44.2	17.7	0.00e+00	0	53	0	650117120	49	3968
2026-01-04 00:40:41.52	34.70	12.73	-43.5	-44.4	17.5	0.00e+00	0	53	0	672137216	49	4061
2026-01-04 00:40:45.48	35.21	13.03	-43.2	-44.0	17.9	0.00e+00	0	53	0	694157312	49	3898
2026-01-04 00:40:49.41	35.72	13.32	-43.3	-44.2	17.8	0.00e+00	0	53	0	716177408	49	3961
2026-01-04 00:40:53.37	36.25	13.61	-43.5	-44.4	17.6	0.00e+00	0	53	0	738197504	49	4059
2026-01-04 00:40:57.33	36.79	13.91	-43.1	-43.9	18.0	0.00e+00	0	53	0	761266176	49	3835
2026-01-04 00:41:01.27	37.34	14.21	-42.9	-43.7	18.2	0.00e+00	0	53	0	783286272	49	3761
2026-01-04 00:41:05.23	37.90	14.51	-42.8	-43.6	18.4	0.00e+00	0	53	0	805306368	48	3942
2026-01-04 00:41:09.19	38.47	14.81	-42.5	-43.2	18.7	0.00e+00	0	53	0	828375040	48	3776
2026-01-04 00:41:13.15	39.05	15.11	-42.3	-43.1	18.7	0.00e+00	0	53	0	850395136	47	3928
2026-01-04 00:41:17.11	39.64	15.41	-42.3	-43.0	18.8	0.00e+00	0	54	0	872415232	47	3909
2026-01-04 00:41:21.06	40.25	15.71	-42.6	-43.3	18.5	0.00e+00	0	54	0	894435328	47	4039
2026-01-04 00:41:25.01	40.86	16.02	-42.9	-43.7	18.1	0.00e+00	0	54	0	916455424	47	4230
2026-01-04 00:41:28.98	41.50	16.32	-42.6	-43.3	18.5	0.00e+00	0	54	0	938475520	47	4044
2026-01-04 00:41:32.95	42.14	16.63	-42.9	-43.7	18.1	0.00e+00	0	54	0	961544192	47	4228
2026-01-04 00:41:36.91	42.80	16.93	-42.0	-42.7	19.1	0.00e+00	0	54	0	983564288	47	3767
2026-01-04 00:41:40.87	43.46	17.24	-42.4	-43.2	18.7	0.00e+00	0	54	0	1005584384	47	3960
2026-01-04 00:41:44.82	44.15	17.55	-41.9	-42.6	19.2	0.00e+00	0	54	0	1027604480	47	3719
2026-01-04 00:41:48.78	44.84	17.85	-41.7	-42.4	19.4	0.00e+00	0	54	0	1050673152	46	3859
2026-01-04 00:41:52.74	45.55	18.16	-42.0	-42.7	19.1	0.00e+00	0	54	0	1072693248	46	4000
2026-01-04 00:41:56.69	46.27	18.46	-41.8	-42.4	19.4	0.00e+00	0	54	0	1094713344	46	3858
2026-01-04 00:42:00.67	47.01	18.77	-41.7	-42.4	19.5	0.00e+00	0	54	0	1117782016	46	3834
2026-01-04 00:42:04.62	47.76	19.07	-41.8	-42.4	19.4	0.00e+00	0	55	0	1139802112	46	3863
2026-01-04 00:42:08.56	48.53	19.37	-41.7	-42.4	19.5	0.00e+00	0	54	0	1161822208	46	3839
2026-01-04 00:42:12.52	49.31	19.67	-41.5	-42.1	19.7	0.00e+00	0	54	0	1183842304	46	3729
2026-01-04 00:42:16.48	50.10	19.97	-41.3	-42.0	19.8	0.00e+00	0	55	0	1206910976	45	3889
2026-01-04 00:42:20.45	50.92	20.27	-41.4	-42.0	19.8	0.00e+00	0	54	0	1228931072	45	3910
2026-01-04 00:42:24.40	51.74	20.57	-41.5	-42.1	19.7	0.00e+00	0	55	0	1250951168	45	3945
2026-01-04 00:42:28.34	52.58	20.86	-41.5	-42.2	19.7	0.00e+00	0	55	0	1272971264	45	3970
2026-01-04 00:42:32.29	53.44	21.15	-41.5	-42.1	19.7	0.00e+00	0	55	0	1294991360	45	3955
2026-01-04 00:42:36.25	54.31	21.44	-41.6	-42.2	19.7	0.00e+00	0	55	0	1317011456	45	3991
2026-01-04 00:42:40.20	55.20	21.72	-41.0	-41.6	20.2	0.00e+00	0	55	0	1340080128	45	3730
2026-01-04 00:42:44.15	56.11	22.00	-41.3	-41.9	19.9	0.00e+00	0	55	0	1362100224	45	3844
2026-01-04 00:42:48.11	57.03	22.27	-41.6	-42.3	19.6	0.00e+00	0	55	0	1384120320	45	4029
2026-01-04 00:42:52.06	57.97	22.54	-41.5	-42.2	19.7	0.00e+00	0	55	0	1406140416	45	3973
2026-01-04 00:42:56.01	58.92	22.81	-41.6	-42.2	19.7	0.00e+00	0	55	0	1428160512	45	3999
2026-01-04 00:42:59.96	59.89	23.07	-40.9	-41.5	20.3	0.00e+00	0	55	0	1451229184	44	3900
2026-01-04 00:43:03.93	60.88	23.32	-40.9	-41.5	20.4	0.00e+00	0	55	0	1473249280	44	3902
2026-01-04 00:43:07.88	61.88	23.57	-40.6	-41.2	20.7	0.00e+00	0	55	0	1495269376	44	3748
2026-01-04 00:43:11.84	62.89	23.81	-40.1	-40.7	21.1	0.00e+00	0	55	0	1517289472	43	3739
2026-01-04 00:43:15.80	63.93	24.05	-40.5	-41.1	20.6	0.00e+00	0	55	0	1540358144	43	3944
2026-01-04 00:43:19.76	64.97	24.27	-40.4	-41.0	20.8	0.00e+00	0	55	0	1562378240	43	3883
2026-01-04 00:43:23.72	66.04	24.49	-40.1	-40.6	21.1	0.00e+00	0	55	0	1584398336	43	3730
2026-01-04 00:43:27.68	67.11	24.70	-40.3	-40.9	20.9	0.00e+00	0	56	0	1606418432	43	3831
2026-01-04 00:43:31.62	68.20	24.90	-40.5	-41.0	20.7	0.00e+00	0	56	0	1628438528	43	3913
2026-01-04 00:43:35.59	69.31	25.10	-40.0	-40.6	21.1	0.00e+00	0	55	0	1651507200	43	3714
2026-01-04 00:43:39.55	70.43	25.28	-40.1	-40.6	21.1	0.00e+00	0	56	0	1673527296	43	3727
2026-01-04 00:43:43.51	71.56	25.45	-39.9	-40.5	21.3	0.00e+00	0	56	0	1695547392	43	3665
2026-01-04 00:43:47.47	72.70	25.61	-40.3	-40.9	20.9	0.00e+00	0	56	0	1717567488	43	3854
2026-01-04 00:43:51.41	73.84	25.76	-40.1	-40.7	21.1	0.00e+00	0	56	0	1740636160	43	3749
2026-01-04 00:43:55.38	75.01	25.90	-40.0	-40.5	21.2	0.00e+00	0	56	0	1762656256	43	3690
2026-01-04 00:43:59.33	76.18	26.03	-40.0	-40.6	21.1	0.00e+00	0	56	0	1784676352	42	3938
2026-01-04 00:44:03.28	77.36	26.14	-40.0	-40.5	21.2	0.00e+00	0	56	0	1806696448	42	3910
2026-01-04 00:44:07.23	78.55	26.25	-40.1	-40.6	21.1	0.00e+00	0	56	0	1828716544	42	3952
2026-01-04 00:44:11.18	79.74	26.34	-40.0	-40.5	21.2	0.00e+00	0	56	0	1851785216	42	3902
2026-01-04 00:44:15.15	80.95	26.41	-40.3	-40.9	20.9	0.00e+00	0	56	0	1873805312	42	4054
2026-01-04 00:44:19.11	82.16	26.48	-40.2	-40.8	21.0	0.00e+00	0	56	0	1895825408	43	3781
2026-01-04 00:44:23.07	83.37	26.53	-39.9	-40.4	21.3	0.00e+00	0	56	0	1917845504	42	3862
2026-01-04 00:44:27.02	84.59	26.57	-39.5	-40.1	21.6	0.00e+00	0	56	0	1940914176	42	3735
2026-01-04 00:44:30.97	85.80	26.59	-39.9	-40.5	21.3	0.00e+00	0	56	0	1962934272	42	3872
2026-01-04 00:44:34.92	87.02	26.60	-40.2	-40.7	21.0	0.00e+00	0	56	0	1984954368	42	4004
2026-01-04 00:44:38.85	88.23	26.60	-39.9	-40.5	21.2	0.00e+00	0	56	0	2006974464	42	3894
2026-01-04 00:44:42.81	89.45	26.58	-40.2	-40.7	21.0	0.00e+00	0	56	0	2028994560	42	3993
2026-01-04 00:44:46.77	90.67	26.55	-39.6	-40.1	21.6	0.00e+00	0	56	0	2052063232	42	3726
2026-01-04 00:44:50.71	91.88	26.51	-39.9	-40.5	21.3	0.00e+00	0	56	0	2074083328	42	3888
2026-01-04 00:44:54.66	93.09	26.45	-39.9	-40.5	21.2	0.00e+00	0	56	0	2096103424	42	3890
2026-01-04 00:44:58.61	94.30	26.38	-40.1	-40.7	21.1	0.00e+00	0	56	0	2118123520	42	3961
2026-01-04 00:45:02.58	95.50	26.30	-39.7	-40.2	21.5	0.00e+00	0	56	0	2141192192	42	3770
2026-01-04 00:45:06.55	96.70	26.20	-40.3	-40.9	20.9	0.00e+00	0	56	0	2163212288	42	4065
2026-01-04 00:45:10.51	97.89	26.10	-40.0	-40.6	21.2	0.00e+00	0	56	0	2185232384	42	3925
2026-01-04 00:45:14.46	99.07	25.98	-40.1	-40.7	21.0	0.00e+00	0	56	0	2207252480	42	3990
2026-01-04 00:45:18.42	100.24	25.84	-40.2	-40.8	21.0	0.00e+00	0	56	0	2229272576	42	4021
2026-01-04 00:45:22.38	101.40	25.70	-40.6	-41.2	20.6	0.00e+00	0	56	0	2252341248	43	3972
2026-01-04 00:45:26.34	102.55	25.54	-40.6	-41.1	20.6	0.00e+00	0	56	0	2274361344	43	3956
2026-01-04 00:45:30.29	103.69	25.38	-39.9	-40.5	21.3	0.00e+00	0	56	0	2296381440	43	3659
2026-01-04 00:45:34.25	104.82	25.20	-40.3	-40.9	20.8	0.00e+00	0	56	0	2318401536	42	4074
2026-01-04 00:45:38.21	105.93	25.01	-40.4	-41.0	20.8	0.00e+00	0	56	0	2341470208	42	4103
2026-01-04 00:45:42.18	107.04	24.81	-40.4	-40.9	20.8	0.00e+00	0	56	0	2363490304	42	4094
2026-01-04 00:45:46.13	108.12	24.61	-40.5	-41.1	20.6	0.00e+00	0	56	0	2385510400	43	3938
2026-01-04 00:45:50.10	109.20	24.39	-40.6	-41.2	20.5	0.00e+00	0	56	0	2407530496	43	3976
2026-01-04 00:45:54.06	110.26	24.17	-40.7	-41.3	20.4	0.00e+00	0	56	0	2430599168	43	4038
2026-01-04 00:45:58.02	111.30	23.94	-40.6	-41.2	20.5	0.00e+00	0	56	0	2452619264	43	3985
2026-01-04 00:46:01.98	112.33	23.70	-40.5	-41.1	20.6	0.00e+00	0	56	0	2474639360	43	3952
2026-01-04 00:46:05.94	113.34	23.45	-40.7	-41.3	20.5	0.00e+00	0	56	0	2496659456	43	4020
2026-01-04 00:46:09.91	114.35	23.20	-40.8	-41.4	20.4	0.00e+00	0	56	0	2519728128	43	4069
2026-01-04 00:46:13.88	115.33	22.94	-40.7	-41.4	20.2	0.00e+00	0	56	0	2541748224	43	4058
2026-01-04 00:46:17.84	116.30	22.68	-41.0	-41.8	19.8	0.00e+00	0	57	0	2563768320	43	4244
2026-01-04 00:46:21.78	117.24	22.41	-40.9	-41.6	20.1	0.00e+00	0	56	0	2585788416	44	3938
2026-01-04 00:46:25.73	118.18	22.13	-40.9	-41.6	20.1	0.00e+00	0	56	0	2608857088	44	3940
2026-01-04 00:46:29.69	119.09	21.86	-40.8	-41.4	20.3	0.00e+00	0	56	0	2630877184	44	3855
2026-01-04 00:46:33.64	119.99	21.57	-41.2	-41.9	19.8	0.00e+00	0	56	0	2652897280	44	4056
2026-01-04 00:46:37.59	120.88	21.29	-41.5	-42.3	19.5	0.00e+00	0	57	0	2674917376	45	4012
2026-01-04 00:46:41.55	121.75	21.00	-41.7	-42.5	19.2	0.00e+00	0	57	0	2696937472	45	4119
2026-01-04 00:46:45.52	122.61	20.70	-41.5	-42.2	19.5	0.00e+00	0	57	0	2720006144	45	4004
2026-01-04 00:46:49.48	123.44	20.41	-41.5	-42.2	19.5	0.00e+00	0	57	0	2742026240	45	4001
2026-01-04 00:46:53.44	124.27	20.11	-41.2	-41.8	19.8	0.00e+00	0	57	0	2764046336	45	3821
2026-01-04 00:46:57.39	125.07	19.81	-41.3	-42.0	19.7	0.00e+00	0	57	0	2786066432	45	3892
2026-01-04 00:47:01.35	125.87	19.50	-41.6	-42.3	19.4	0.00e+00	0	56	0	2809135104	45	4046
2026-01-04 00:47:05.32	126.65	19.20	-41.5	-42.2	19.4	0.00e+00	0	57	0	2831155200	45	3996
2026-01-04 00:47:09.29	127.41	18.89	-41.8	-42.6	19.1	0.00e+00	0	57	0	2853175296	45	4173
2026-01-04 00:47:13.23	128.15	18.59	-42.0	-42.7	19.0	0.00e+00	0	57	0	2875195392	45	4222
2026-01-04 00:47:17.18	128.89	18.28	-42.2	-43.0	18.7	0.00e+00	0	57	0	2898264064	46	4126
2026-01-04 00:47:21.14	129.60	17.97	-42.2	-43.0	18.7	0.00e+00	0	57	0	2920284160	46	4135
2026-01-04 00:47:25.10	130.31	17.67	-42.0	-42.9	18.8	0.00e+00	0	57	0	2942304256	46	4053
2026-01-04 00:47:29.06	131.00	17.36	-42.3	-43.1	18.6	0.00e+00	0	57	0	2964324352	46	4167
2026-01-04 00:47:33.03	131.68	17.05	-42.1	-42.9	18.8	0.00e+00	0	57	0	2987393024	46	4079
2026-01-04 00:47:37.00	132.35	16.74	-42.5	-43.4	18.3	0.00e+00	0	57	0	3009413120	47	4065
2026-01-04 00:47:40.95	133.00	16.43	-42.1	-42.9	18.8	0.00e+00	0	57	0	3031433216	47	3838
2026-01-04 00:47:44.91	133.63	16.13	-42.5	-43.3	18.4	0.00e+00	0	57	0	3053453312	47	4040
2026-01-04 00:47:48.87	134.26	15.82	-42.3	-43.2	18.5	0.00e+00	0	57	0	3075473408	47	3963
2026-01-04 00:47:52.83	134.87	15.51	-42.4	-43.2	18.5	0.00e+00	0	57	0	3098542080	47	3980
2026-01-04 00:47:56.79	135.48	15.21	-42.8	-43.7	18.1	0.00e+00	0	57	0	3120562176	47	4196
2026-01-04 00:48:00.74	136.06	14.90	-43.1	-44.0	17.7	0.00e+00	0	57	0	3142582272	47	4354
2026-01-04 00:48:04.68	136.64	14.60	-43.4	-44.3	17.6	0.00e+00	0	57	0	3164602368	48	4267
2026-01-04 00:48:08.63	137.21	14.30	-44.0	-45.1	16.9	0.00e+00	0	57	0	3187671040	49	4392
2026-01-04 00:48:12.58	137.76	14.00	-43.9	-44.9	17.0	0.00e+00	0	57	0	3209691136	50	4089
2026-01-04 00:48:16.53	138.31	13.70	-43.7	-44.7	17.2	0.00e+00	0	57	0	3231711232	50	3975
2026-01-04 00:48:20.48	138.84	13.41	-43.0	-43.9	17.9	0.00e+00	0	57	0	3253731328	49	3850
2026-01-04 00:48:24.44	139.36	13.11	-42.9	-43.8	18.1	0.00e+00	0	57	0	3275751424	49	3786
2026-01-04 00:48:28.39	139.88	12.81	-43.0	-43.8	18.0	0.00e+00	0	57	0	3298820096	49	3814
2026-01-04 00:48:32.33	140.38	12.52	-43.2	-44.1	17.7	0.00e+00	0	57	0	3319791616	49	3917
2026-01-04 00:48:36.28	140.87	12.23	-43.2	-44.1	17.7	0.00e+00	0	57	0	3342860288	49	3958
2026-01-04 00:48:40.24	141.36	11.94	-43.2	-44.1	17.7	0.00e+00	0	57	0	3364880384	49	3941
2026-01-04 00:48:44.20	141.84	11.65	-43.4	-44.3	17.5	0.00e+00	0	57	0	3386900480	49	4023
2026-01-04 00:48:48.15	142.31	11.37	-43.6	-44.6	17.2	0.00e+00	0	57	0	3409969152	49	4163
2026-01-04 00:48:52.12	142.77	11.08	-44.1	-45.2	16.6	0.00e+00	0	57	0	3431989248	50	4208
2026-01-04 00:48:56.07	143.22	10.80	-43.8	-44.8	17.0	0.00e+00	0	57	0	3454009344	50	4019
2026-01-04 00:49:00.01	143.66	10.52	-43.8	-44.8	17.0	0.00e+00	0	57	0	3476029440	50	4037
2026-01-04 00:49:03.98	144.09	10.23	-44.2	-45.2	16.6	0.00e+00	0	57	0	3499098112	50	4218
2026-01-04 00:49:07.92	144.52	9.96	-44.1	-45.1	16.6	0.00e+00	0	57	0	3520069632	50	4182
2026-01-04 00:49:11.87	144.94	9.68	-44.2	-45.3	16.4	0.00e+00	0	57	0	3543138304	50	4259
2026-01-04 00:49:15.82	145.35	9.41	-44.4	-45.5	16.2	0.00e+00	0	57	0	3565158400	50	4373
2026-01-04 00:49:19.78	145.75	9.13	-44.6	-45.8	15.9	0.00e+00	0	57	0	3587178496	51	4251
2026-01-04 00:49:23.73	146.15	8.86	-44.5	-45.6	16.1	0.00e+00	0	57	0	3609198592	51	4167
2026-01-04 00:49:27.69	146.54	8.59	-44.8	-46.0	15.7	0.00e+00	0	57	0	3632267264	51	4373
2026-01-04 00:49:31.64	146.92	8.33	-45.0	-46.2	15.4	0.00e+00	0	57	0	3654287360	52	4208
2026-01-04 00:49:35.60	147.30	8.06	-44.7	-45.9	15.6	0.00e+00	0	57	0	3676307456	52	4067
2026-01-04 00:49:39.54	147.66	7.80	-44.6	-45.7	15.7	1.10e-06	0	57	0	3698327552	52	3996
2026-01-04 00:49:43.49	148.03	7.54	-44.5	-45.7	15.9	0.00e+00	0	57	0	3720347648	51	4199
2026-01-04 00:49:47.45	148.39	7.28	-44.7	-45.9	15.6	0.00e+00	0	57	0	3743416320	51	4320
2026-01-04 00:49:51.41	148.74	7.02	-44.8	-46.0	15.5	0.00e+00	0	57	0	3765436416	51	4380
2026-01-04 00:49:55.37	149.08	6.76	-44.7	-45.9	15.6	0.00e+00	0	57	0	3787456512	51	4300
2026-01-04 00:49:59.32	149.42	6.51	-44.7	-45.9	15.5	0.00e+00	0	57	0	3809476608	51	4324
2026-01-04 00:50:03.28	149.76	6.25	-44.9	-46.2	15.2	0.00e+00	0	57	0	3832545280	51	4469
2026-01-04 00:50:07.24	150.09	6.00	-45.0	-46.3	15.0	0.00e+00	0	57	0	3854565376	51	4529
2026-01-04 00:50:11.20	150.41	5.75	-45.6	-47.1	14.2	0.00e+00	0	57	0	3876585472	52	4653
2026-01-04 00:50:15.15	150.73	5.50	-45.7	-47.3	13.9	5.70e-06	0	57	0	3898605568	53	4496
2026-01-04 00:50:19.11	151.04	5.25	-44.9	-46.3	14.8	0.00e+00	0	57	0	3920625664	53	4024
2026-01-04 00:50:23.05	151.35	5.01	-50.4	-55.8	5.9	2.53e-04	0	57	0	3943694336	62	7171
2026-01-04 00:50:27.00	151.65	4.77	-52.3	-63.0	3.8	8.45e-01	0	57	104	3943694336	66	13076
2026-01-04 00:50:30.94	151.95	4.53	-52.5	-63.2	3.8	8.46e-01	0	57	104	3943694336	66	13339
2026-01-04 00:50:34.89	152.24	4.29	-52.4	-63.2	3.8	8.45e-01	0	57	104	3943694336	66	13326
2026-01-04 00:50:38.84	152.53	4.05	-52.6	-63.4	3.8	8.45e-01	0	57	104	3943694336	67	12834
2026-01-04 00:50:42.80	152.82	3.81	-52.7	-63.4	3.8	8.46e-01	0	57	104	3943694336	67	12868
2026-01-04 00:50:46.76	153.10	3.57	-52.6	-63.4	3.8	8.46e-01	0	57	104	3943694336	67	12884
2026-01-04 00:50:50.71	153.38	3.34	-52.7	-63.4	3.8	8.46e-01	0	57	104	3943694336	67	12901
2026-01-04 00:50:54.67	153.65	3.11	-52.6	-63.4	3.8	8.46e-01	0	57	104	3943694336	67	12889
2026-01-04 00:50:58.63	153.92	2.87	-52.7	-63.4	3.8	8.46e-01	0	57	104	3943694336	67	12898

#Closed at: 2026-01-04 00:50:59
#Recorded file [3943 MB]: D:/Data/31026_260104_035023.dat