passes_logs/2026/01/04/R3.0SM8_Murmansk_STILSPACE/R3.0SM8_Murmansk_STILSPACE__20260104_135811_FENGYUN_3D_rec.log

#Pass ID: 20260104_135811_FENGYUN 3D
#Satellite: FENGYUN 3D
#Configuration: FENGYUN 3D
#almurnet v.1.7.20240730
#Start time: 2026-01-04 13:58:13

#Version: 2.2.20231116
#Station: R3.0SM8_Murmansk_STILSPACE
#Location: 33.092731 lon 68.902999 lat
#TLE: 1 43010U 17072A   26003.93866112 -.00000029  00000+0  82070-5 0  9995
#TLE: 2 43010  98.9913 335.5841 0001959 128.6134 231.5217 14.19691935421687

#Time	Az	El	Level	Level2	SNR	BER	BlckErr	Temp	State	Recorded	gain1	gain2
2026-01-04 13:58:13.38	214.38	3.09	-52.4	-63.2	3.8	8.46e-01	0	46	0	0	67	12630
2026-01-04 13:58:16.35	214.61	3.26	-52.0	-62.9	3.8	8.45e-01	0	47	104	0	67	12127
2026-01-04 13:58:19.32	214.84	3.43	-51.3	-62.1	3.8	8.46e-01	0	47	104	0	65	12440
2026-01-04 13:58:22.29	215.07	3.60	-51.1	-61.2	3.8	8.45e-01	0	47	104	0	65	11214
2026-01-04 13:58:25.26	215.31	3.77	-51.1	-61.8	3.8	8.46e-01	0	47	104	0	65	12055
2026-01-04 13:58:28.23	215.55	3.94	-51.2	-62.1	3.8	8.46e-01	0	48	104	0	65	12376
2026-01-04 13:58:31.16	215.79	4.10	-51.2	-62.0	3.8	8.45e-01	0	48	104	0	65	12334
2026-01-04 13:58:34.12	216.04	4.28	-51.1	-61.4	3.8	8.47e-01	0	48	104	0	65	11423
2026-01-04 13:58:37.09	216.28	4.45	-50.8	-58.1	4.3	8.37e-01	0	48	0	0	64	8346
2026-01-04 13:58:40.05	216.53	4.62	-50.0	-55.1	6.0	4.48e-01	0	48	0	3145728	63	6212
2026-01-04 13:58:43.04	216.79	4.79	-49.3	-53.1	7.8	1.07e-01	0	48	0	19922944	61	5540
2026-01-04 13:58:46.00	217.05	4.97	-48.5	-51.6	9.3	3.08e-02	0	49	0	36700160	60	4967
2026-01-04 13:58:48.98	217.31	5.14	-48.4	-51.2	9.7	1.10e-02	0	49	0	53477376	59	5037
2026-01-04 13:58:51.95	217.57	5.32	-47.5	-49.7	11.3	2.49e-03	0	49	0	70254592	58	4450
2026-01-04 13:58:54.91	217.83	5.49	-46.5	-48.3	12.8	1.85e-04	0	49	0	87031808	56	4263
2026-01-04 13:58:57.89	218.10	5.67	-45.9	-47.5	13.5	2.05e-05	0	50	0	103809024	54	4383
2026-01-04 13:59:00.85	218.37	5.85	-46.0	-47.7	13.3	2.86e-05	0	50	0	120586240	54	4456
2026-01-04 13:59:03.81	218.65	6.02	-46.0	-47.6	13.4	2.86e-05	0	50	0	137363456	54	4424
2026-01-04 13:59:06.78	218.93	6.20	-46.1	-47.8	13.3	2.28e-05	0	50	0	153092096	54	4500
2026-01-04 13:59:09.75	219.21	6.38	-45.8	-47.3	13.8	1.14e-05	0	50	0	169869312	54	4248
2026-01-04 13:59:12.71	219.49	6.56	-45.9	-47.5	13.5	3.08e-05	0	50	0	186646528	54	4365
2026-01-04 13:59:15.68	219.78	6.74	-46.0	-47.6	13.5	1.83e-05	0	50	0	203423744	54	4419
2026-01-04 13:59:18.65	220.07	6.92	-46.2	-47.9	13.2	2.05e-05	0	50	0	220200960	54	4570
2026-01-04 13:59:21.61	220.37	7.10	-45.8	-47.4	13.7	8.00e-06	0	51	0	236978176	54	4298
2026-01-04 13:59:24.58	220.66	7.29	-46.2	-47.8	13.3	2.63e-05	0	51	0	253755392	54	4520
2026-01-04 13:59:27.54	220.97	7.47	-46.4	-48.1	12.9	7.43e-05	0	51	0	270532608	54	4702
2026-01-04 13:59:30.50	221.27	7.65	-46.4	-48.2	12.9	9.15e-05	0	51	0	287309824	54	4731
2026-01-04 13:59:33.47	221.58	7.84	-46.7	-48.5	12.5	9.72e-05	0	51	0	304087040	55	4630
2026-01-04 13:59:36.43	221.89	8.02	-46.2	-47.9	13.2	4.00e-05	0	51	0	320864256	55	4312
2026-01-04 13:59:39.40	222.21	8.21	-46.1	-47.7	13.4	3.20e-05	0	51	0	337641472	55	4214
2026-01-04 13:59:42.37	222.53	8.39	-46.0	-47.6	13.4	2.63e-05	0	52	0	353370112	55	4183
2026-01-04 13:59:45.32	222.85	8.58	-46.1	-47.7	13.4	2.40e-05	0	52	0	370147328	55	4212
2026-01-04 13:59:48.30	223.18	8.77	-46.2	-47.9	13.2	4.46e-05	0	52	0	386924544	55	4298
2026-01-04 13:59:51.27	223.52	8.96	-46.2	-47.8	13.3	3.20e-05	0	52	0	403701760	55	4278
2026-01-04 13:59:54.26	223.86	9.15	-45.9	-47.5	13.6	1.83e-05	0	52	0	420478976	55	4124
2026-01-04 13:59:57.22	224.20	9.33	-46.1	-47.7	13.4	2.40e-05	0	52	0	437256192	55	4219
2026-01-04 14:00:00.20	224.54	9.53	-46.2	-47.8	13.3	3.77e-05	0	52	0	454033408	55	4290
2026-01-04 14:00:03.17	224.89	9.72	-46.1	-47.6	13.5	1.25e-05	0	52	0	470810624	55	4178
2026-01-04 14:00:06.14	225.25	9.91	-45.7	-47.1	14.0	3.40e-06	0	52	0	487587840	54	4192
2026-01-04 14:00:09.13	225.61	10.10	-45.4	-46.8	14.3	6.80e-06	0	53	0	504365056	54	4031
2026-01-04 14:00:12.10	225.97	10.29	-45.2	-46.6	14.6	1.10e-06	0	52	0	521142272	53	4173
2026-01-04 14:00:15.08	226.34	10.49	-45.0	-46.3	14.9	0.00e+00	0	52	0	537919488	53	4018
2026-01-04 14:00:18.04	226.72	10.68	-45.2	-46.5	14.8	1.10e-06	0	53	0	554696704	53	4102
2026-01-04 14:00:21.01	227.09	10.87	-45.1	-46.3	15.0	0.00e+00	0	53	0	571473920	53	4033
2026-01-04 14:00:23.97	227.47	11.06	-45.1	-46.3	14.9	0.00e+00	0	53	0	588251136	53	4048
2026-01-04 14:00:26.93	227.86	11.26	-45.2	-46.5	14.8	0.00e+00	0	53	0	605028352	53	4100
2026-01-04 14:00:29.87	228.25	11.45	-44.8	-46.1	15.2	0.00e+00	0	53	0	620756992	52	4152
2026-01-04 14:00:32.84	228.65	11.65	-44.4	-45.6	15.7	0.00e+00	0	53	0	637534208	52	3925
2026-01-04 14:00:35.80	229.05	11.84	-44.2	-45.3	16.1	0.00e+00	0	53	0	654311424	51	4007
2026-01-04 14:00:38.78	229.46	12.04	-44.3	-45.4	16.1	0.00e+00	0	53	0	671088640	51	4069
2026-01-04 14:00:41.74	229.87	12.23	-44.4	-45.5	15.9	0.00e+00	0	54	0	687865856	51	4122
2026-01-04 14:00:44.71	230.29	12.43	-44.1	-45.1	16.4	0.00e+00	0	53	0	704643072	51	3952
2026-01-04 14:00:47.67	230.71	12.62	-43.7	-44.7	16.8	0.00e+00	0	53	0	721420288	50	3985
2026-01-04 14:00:50.63	231.14	12.82	-43.4	-44.3	17.3	0.00e+00	0	53	0	738197504	50	3793
2026-01-04 14:00:53.60	231.57	13.02	-43.5	-44.4	17.1	0.00e+00	0	54	0	754974720	49	4092
2026-01-04 14:00:56.57	232.01	13.21	-43.0	-43.8	17.8	0.00e+00	0	53	0	770703360	49	3810
2026-01-04 14:00:59.54	232.46	13.41	-43.3	-44.2	17.5	0.00e+00	0	54	0	787480576	49	3959
2026-01-04 14:01:02.52	232.91	13.61	-43.0	-43.9	17.8	0.00e+00	0	54	0	804257792	49	3828
2026-01-04 14:01:05.49	233.37	13.81	-43.1	-43.9	17.8	0.00e+00	0	54	0	821035008	49	3864
2026-01-04 14:01:08.46	233.83	14.00	-43.2	-44.1	17.7	0.00e+00	0	54	0	837812224	49	3933
2026-01-04 14:01:11.42	234.30	14.20	-42.8	-43.6	18.2	0.00e+00	0	54	0	854589440	48	3933
2026-01-04 14:01:14.38	234.78	14.39	-42.8	-43.6	18.2	0.00e+00	0	54	0	871366656	48	3926
2026-01-04 14:01:17.34	235.26	14.59	-42.7	-43.5	18.3	0.00e+00	0	54	0	888143872	48	3871
2026-01-04 14:01:20.30	235.74	14.78	-42.7	-43.5	18.3	0.00e+00	0	54	0	904921088	48	3876
2026-01-04 14:01:23.28	236.24	14.98	-42.9	-43.7	18.1	0.00e+00	0	54	0	921698304	48	3984
2026-01-04 14:01:26.24	236.74	15.17	-42.5	-43.2	18.6	0.00e+00	0	54	0	938475520	48	3775
2026-01-04 14:01:29.19	237.24	15.37	-42.5	-43.2	18.7	0.00e+00	0	54	0	955252736	48	3759
2026-01-04 14:01:32.15	237.75	15.56	-42.1	-42.9	18.9	0.00e+00	0	54	0	970981376	47	3842
2026-01-04 14:01:35.11	238.27	15.75	-42.6	-43.3	18.5	0.00e+00	0	54	0	987758592	47	4044
2026-01-04 14:01:38.08	238.80	15.95	-42.2	-43.0	18.9	0.00e+00	0	55	0	1004535808	47	3872
2026-01-04 14:01:41.06	239.33	16.14	-42.2	-43.0	18.9	0.00e+00	0	55	0	1021313024	47	3870
2026-01-04 14:01:44.02	239.87	16.33	-42.3	-43.0	18.8	0.00e+00	0	55	0	1038090240	47	3891
2026-01-04 14:01:46.99	240.42	16.52	-42.1	-42.8	19.0	0.00e+00	0	55	0	1054867456	47	3815
2026-01-04 14:01:49.96	240.97	16.71	-41.8	-42.6	19.3	0.00e+00	0	55	0	1071644672	46	3915
2026-01-04 14:01:52.92	241.53	16.90	-42.2	-43.0	18.9	0.00e+00	0	55	0	1088421888	46	4101
2026-01-04 14:01:55.89	242.09	17.08	-42.0	-42.7	19.2	0.00e+00	0	55	0	1105199104	46	3986
2026-01-04 14:01:58.86	242.67	17.27	-42.2	-42.9	18.9	0.00e+00	0	55	0	1121976320	46	4092
2026-01-04 14:02:01.83	243.25	17.45	-42.1	-42.9	19.0	0.00e+00	0	55	0	1138753536	46	4064
2026-01-04 14:02:04.81	243.83	17.64	-42.3	-43.1	18.8	0.00e+00	0	55	0	1155530752	46	4164
2026-01-04 14:02:07.78	244.43	17.82	-42.2	-42.9	19.0	0.00e+00	0	55	0	1172307968	46	4073
2026-01-04 14:02:10.75	245.03	18.00	-41.8	-42.5	19.4	0.00e+00	0	55	0	1188036608	46	3906
2026-01-04 14:02:13.73	245.64	18.18	-41.4	-42.1	19.8	0.00e+00	0	55	0	1204813824	46	3699
2026-01-04 14:02:16.70	246.25	18.35	-41.4	-42.1	19.8	0.00e+00	0	55	0	1221591040	46	3708
2026-01-04 14:02:19.66	246.87	18.52	-41.7	-42.3	19.5	0.00e+00	0	55	0	1238368256	46	3822
2026-01-04 14:02:22.62	247.50	18.70	-41.7	-42.3	19.5	0.00e+00	0	55	0	1255145472	46	3819
2026-01-04 14:02:25.57	248.13	18.86	-41.8	-42.5	19.4	0.00e+00	0	55	0	1271922688	46	3888
2026-01-04 14:02:28.53	248.77	19.03	-42.1	-42.8	19.1	0.00e+00	0	55	0	1288699904	46	4016
2026-01-04 14:02:31.50	249.42	19.20	-41.8	-42.5	19.4	0.00e+00	0	55	0	1305477120	46	3897
2026-01-04 14:02:34.48	250.08	19.36	-41.6	-42.2	19.6	0.00e+00	0	55	0	1322254336	46	3774
2026-01-04 14:02:37.44	250.74	19.52	-41.6	-42.3	19.6	0.00e+00	0	55	0	1339031552	46	3808
2026-01-04 14:02:40.40	251.40	19.67	-41.4	-42.1	19.8	0.00e+00	0	55	0	1354760192	46	3715
2026-01-04 14:02:43.38	252.08	19.83	-41.4	-42.1	19.8	0.00e+00	0	55	0	1371537408	45	3924
2026-01-04 14:02:46.34	252.76	19.98	-40.9	-41.6	20.3	0.00e+00	0	55	0	1388314624	45	3697
2026-01-04 14:02:49.30	253.45	20.13	-40.8	-41.3	20.5	0.00e+00	0	55	0	1405091840	44	3822
2026-01-04 14:02:52.28	254.15	20.27	-41.1	-41.7	20.2	0.00e+00	0	55	0	1421869056	44	3985
2026-01-04 14:02:55.24	254.85	20.41	-41.2	-41.8	20.0	0.00e+00	0	56	0	1438646272	44	4047
2026-01-04 14:02:58.21	255.55	20.55	-41.3	-42.0	19.9	0.00e+00	0	55	0	1455423488	44	4116
2026-01-04 14:03:01.18	256.27	20.68	-41.6	-42.3	19.6	0.00e+00	0	55	0	1472200704	45	4015
2026-01-04 14:03:04.14	256.98	20.81	-42.1	-42.8	19.1	0.00e+00	0	55	0	1488977920	45	4253
2026-01-04 14:03:07.12	257.71	20.94	-41.7	-42.4	19.5	0.00e+00	0	55	0	1505755136	45	4074
2026-01-04 14:03:10.10	258.45	21.06	-41.9	-42.6	19.3	0.00e+00	0	55	0	1522532352	46	3935
2026-01-04 14:03:13.07	259.18	21.18	-41.4	-42.1	19.9	0.00e+00	0	56	0	1539309568	46	3697
2026-01-04 14:03:16.04	259.93	21.30	-41.7	-42.4	19.5	0.00e+00	0	56	0	1556086784	45	4074
2026-01-04 14:03:18.99	260.67	21.41	-40.8	-41.4	20.5	0.00e+00	0	56	0	1572864000	44	3847
2026-01-04 14:03:21.96	261.42	21.51	-40.5	-41.1	20.7	0.00e+00	0	56	0	1588592640	44	3728
2026-01-04 14:03:24.93	262.18	21.61	-40.5	-41.1	20.7	0.00e+00	0	56	0	1605369856	44	3718
2026-01-04 14:03:27.89	262.94	21.71	-40.8	-41.4	20.5	0.00e+00	0	56	0	1622147072	44	3835
2026-01-04 14:03:30.86	263.70	21.80	-40.8	-41.4	20.5	0.00e+00	0	56	0	1638924288	44	3846
2026-01-04 14:03:33.83	264.48	21.89	-40.9	-41.6	20.3	0.00e+00	0	56	0	1655701504	44	3918
2026-01-04 14:03:36.80	265.25	21.97	-41.0	-41.6	20.3	0.00e+00	0	56	0	1672478720	44	3930
2026-01-04 14:03:39.77	266.03	22.04	-40.8	-41.4	20.5	0.00e+00	0	56	0	1689255936	44	3860
2026-01-04 14:03:42.74	266.81	22.12	-40.9	-41.5	20.4	0.00e+00	0	56	0	1706033152	44	3871
2026-01-04 14:03:45.69	267.59	22.18	-41.2	-41.9	20.0	0.00e+00	0	56	0	1722810368	44	4066
2026-01-04 14:03:48.66	268.38	22.24	-40.4	-41.0	20.8	0.00e+00	0	56	0	1739587584	44	3678
2026-01-04 14:03:51.63	269.17	22.30	-40.6	-41.2	20.6	0.00e+00	0	56	0	1755316224	43	3973
2026-01-04 14:03:54.60	269.97	22.35	-40.3	-40.8	20.9	0.00e+00	0	56	0	1773142016	43	3821
2026-01-04 14:03:57.57	270.76	22.39	-40.4	-40.9	20.8	0.00e+00	0	56	0	1788870656	43	3865
2026-01-04 14:04:00.55	271.57	22.43	-40.8	-41.5	20.3	0.00e+00	0	56	0	1805647872	43	4104
2026-01-04 14:04:03.51	272.36	22.47	-40.8	-41.4	20.5	0.00e+00	0	56	0	1822425088	44	3837
2026-01-04 14:04:06.49	273.17	22.49	-40.8	-41.4	20.6	0.00e+00	0	56	0	1839202304	44	3831
2026-01-04 14:04:09.47	273.97	22.52	-40.8	-41.5	20.4	0.00e+00	0	56	0	1855979520	44	3878
2026-01-04 14:04:12.43	274.78	22.53	-40.6	-41.2	20.7	0.00e+00	0	56	0	1872756736	44	3742
2026-01-04 14:04:15.40	275.58	22.54	-40.6	-41.1	20.8	0.00e+00	0	56	0	1889533952	44	3730
2026-01-04 14:04:18.36	276.38	22.55	-40.6	-41.2	20.7	0.00e+00	0	56	0	1906311168	44	3774
2026-01-04 14:04:21.33	277.19	22.55	-40.5	-41.1	20.8	0.00e+00	0	56	0	1923088384	44	3707
2026-01-04 14:04:24.29	277.99	22.54	-40.6	-41.2	20.7	0.00e+00	0	56	0	1939865600	44	3776
2026-01-04 14:04:27.25	278.79	22.53	-40.5	-41.1	20.8	0.00e+00	0	56	0	1956642816	44	3706
2026-01-04 14:04:30.21	279.59	22.51	-40.6	-41.2	20.7	0.00e+00	0	56	0	1973420032	44	3754
2026-01-04 14:04:33.17	280.39	22.49	-40.9	-41.5	20.4	0.00e+00	0	56	0	1989148672	44	3898
2026-01-04 14:04:36.14	281.20	22.46	-40.8	-41.4	20.5	0.00e+00	0	56	0	2005925888	44	3853
2026-01-04 14:04:39.13	282.00	22.42	-41.2	-41.8	20.1	0.00e+00	0	56	0	2022703104	44	4024
2026-01-04 14:04:42.10	282.80	22.38	-41.1	-41.7	20.1	0.00e+00	0	56	0	2039480320	44	4001
2026-01-04 14:04:45.05	283.59	22.34	-42.0	-42.7	19.0	0.00e+00	0	56	0	2056257536	45	4233
2026-01-04 14:04:48.02	284.38	22.29	-42.4	-43.2	18.5	0.00e+00	0	56	0	2073034752	46	4199
2026-01-04 14:04:50.99	285.17	22.23	-43.0	-43.9	17.7	0.00e+00	0	57	0	2089811968	47	4301
2026-01-04 14:04:53.93	285.95	22.17	-43.4	-44.3	17.4	0.00e+00	0	56	0	2106589184	48	4267
2026-01-04 14:04:56.91	286.74	22.10	-43.9	-44.9	16.8	0.00e+00	0	56	0	2123366400	49	4304
2026-01-04 14:04:59.88	287.52	22.03	-44.0	-45.0	16.6	0.00e+00	0	57	0	2140143616	49	4361
2026-01-04 14:05:02.85	288.30	21.95	-43.9	-44.9	16.7	0.00e+00	0	56	0	2156920832	50	4055
2026-01-04 14:05:05.82	289.07	21.87	-43.9	-44.9	16.5	0.00e+00	0	56	0	2172649472	50	4073
2026-01-04 14:05:08.78	289.84	21.78	-44.3	-45.4	16.0	0.00e+00	0	57	0	2190475264	50	4331
2026-01-04 14:05:11.74	290.60	21.69	-43.5	-44.4	16.9	0.00e+00	0	57	0	2206203904	50	3846
2026-01-04 14:05:14.73	291.36	21.60	-43.3	-44.2	17.3	0.00e+00	0	57	0	2222981120	49	3978
2026-01-04 14:05:17.70	292.12	21.49	-42.8	-43.6	18.2	0.00e+00	0	56	0	2239758336	48	3948
2026-01-04 14:05:20.67	292.87	21.39	-41.9	-42.6	19.2	0.00e+00	0	56	0	2256535552	46	3930
2026-01-04 14:05:23.63	293.61	21.28	-41.6	-42.3	19.5	0.00e+00	0	56	0	2273312768	46	3809
2026-01-04 14:05:26.61	294.35	21.16	-40.9	-41.5	20.3	0.00e+00	0	57	0	2290089984	45	3678
2026-01-04 14:05:29.57	295.09	21.05	-41.1	-41.7	20.1	0.00e+00	0	57	0	2306867200	44	3983
2026-01-04 14:05:32.54	295.81	20.92	-41.3	-41.9	19.9	0.00e+00	0	57	0	2323644416	44	4093
2026-01-04 14:05:35.53	296.54	20.79	-41.4	-42.1	19.8	0.00e+00	0	56	0	2340421632	45	3936
2026-01-04 14:05:38.51	297.26	20.66	-41.1	-41.7	20.1	0.00e+00	0	56	0	2357198848	45	3771
2026-01-04 14:05:41.49	297.97	20.53	-41.2	-41.8	20.0	0.00e+00	0	57	0	2373976064	45	3824
2026-01-04 14:05:44.45	298.68	20.39	-41.3	-42.0	19.9	0.00e+00	0	57	0	2390753280	45	3873
2026-01-04 14:05:47.43	299.38	20.25	-41.5	-42.2	19.7	0.00e+00	0	56	0	2407530496	45	3969
2026-01-04 14:05:50.39	300.07	20.11	-41.5	-42.2	19.7	0.00e+00	0	56	0	2424307712	45	3975
2026-01-04 14:05:53.35	300.75	19.96	-41.6	-42.3	19.6	0.00e+00	0	57	0	2441084928	45	4028
2026-01-04 14:05:56.34	301.44	19.81	-41.7	-42.4	19.5	0.00e+00	0	57	0	2457862144	45	4077
2026-01-04 14:05:59.31	302.11	19.65	-41.9	-42.7	19.2	0.00e+00	0	57	0	2473590784	45	4196
2026-01-04 14:06:02.27	302.77	19.50	-41.9	-42.6	19.3	0.00e+00	0	57	0	2490368000	45	4169
2026-01-04 14:06:05.26	303.44	19.34	-42.1	-42.9	19.1	0.00e+00	0	57	0	2507145216	46	4056
2026-01-04 14:06:08.23	304.09	19.17	-42.0	-42.7	19.2	0.00e+00	0	57	0	2523922432	46	3976
2026-01-04 14:06:11.20	304.73	19.01	-41.5	-42.2	19.7	0.00e+00	0	57	0	2540699648	46	3763
2026-01-04 14:06:14.16	305.37	18.84	-41.4	-42.0	19.8	0.00e+00	0	57	0	2557476864	45	3890
2026-01-04 14:06:17.14	306.00	18.67	-41.8	-42.5	19.4	0.00e+00	0	57	0	2574254080	45	4121
2026-01-04 14:06:20.11	306.63	18.50	-42.1	-42.9	19.0	0.00e+00	0	57	0	2591031296	45	4296
2026-01-04 14:06:23.08	307.25	18.33	-41.9	-42.6	19.3	0.00e+00	0	57	0	2607808512	46	3940
2026-01-04 14:06:26.05	307.86	18.15	-42.0	-42.7	19.2	0.00e+00	0	57	0	2624585728	46	3960
2026-01-04 14:06:29.02	308.46	17.98	-41.8	-42.5	19.3	0.00e+00	0	57	0	2641362944	46	3899
2026-01-04 14:06:31.99	309.06	17.80	-42.0	-42.8	19.1	0.00e+00	0	57	0	2658140160	46	4005
2026-01-04 14:06:34.96	309.65	17.62	-42.1	-42.8	19.1	0.00e+00	0	57	0	2674917376	46	4027
2026-01-04 14:06:37.93	310.24	17.43	-42.4	-43.2	18.6	0.00e+00	0	57	0	2691694592	46	4228
2026-01-04 14:06:40.90	310.81	17.25	-42.4	-43.2	18.6	0.00e+00	0	57	0	2708471808	46	4228
2026-01-04 14:06:43.86	311.38	17.07	-42.5	-43.2	18.6	0.00e+00	0	57	0	2724200448	47	3993
2026-01-04 14:06:46.83	311.94	16.88	-42.6	-43.3	18.5	0.00e+00	0	57	0	2740977664	47	4049
2026-01-04 14:06:49.80	312.50	16.69	-42.6	-43.4	18.5	0.00e+00	0	57	0	2757754880	47	4072
2026-01-04 14:06:52.78	313.05	16.51	-42.9	-43.7	18.2	0.00e+00	0	57	0	2774532096	47	4221
2026-01-04 14:06:55.74	313.59	16.32	-42.7	-43.5	18.4	0.00e+00	0	57	0	2791309312	47	4118
2026-01-04 14:06:58.70	314.13	16.13	-42.9	-43.7	18.2	0.00e+00	0	57	0	2808086528	47	4205
2026-01-04 14:07:01.66	314.66	15.94	-42.3	-43.1	18.8	0.00e+00	0	57	0	2824863744	47	3930
2026-01-04 14:07:04.64	315.18	15.75	-42.3	-43.0	18.8	0.00e+00	0	57	0	2841640960	47	3896
2026-01-04 14:07:07.61	315.70	15.55	-42.5	-43.3	18.6	0.00e+00	0	57	0	2858418176	47	4007
2026-01-04 14:07:10.59	316.21	15.36	-42.8	-43.6	18.2	0.00e+00	0	57	0	2875195392	47	4179
2026-01-04 14:07:13.57	316.72	15.17	-42.8	-43.7	18.2	0.00e+00	0	57	0	2891972608	47	4198
2026-01-04 14:07:16.53	317.21	14.97	-43.0	-43.8	18.0	0.00e+00	0	57	0	2908749824	47	4268
2026-01-04 14:07:19.51	317.71	14.78	-43.2	-44.1	17.9	0.00e+00	0	57	0	2925527040	48	4170
2026-01-04 14:07:22.48	318.19	14.58	-43.3	-44.2	17.8	0.00e+00	0	57	0	2942304256	48	4219
2026-01-04 14:07:25.44	318.67	14.39	-43.2	-44.1	17.9	0.00e+00	0	57	0	2959081472	49	3931
2026-01-04 14:07:28.40	319.14	14.19	-42.9	-43.7	18.3	0.00e+00	0	57	0	2974810112	49	3752
2026-01-04 14:07:31.37	319.61	14.00	-42.9	-43.7	18.3	0.00e+00	0	57	0	2991587328	49	3762
2026-01-04 14:07:34.34	320.07	13.80	-43.1	-43.9	18.0	0.00e+00	0	57	0	3008364544	49	3847
2026-01-04 14:07:37.31	320.53	13.61	-43.0	-43.8	18.1	0.00e+00	0	57	0	3025141760	49	3806
2026-01-04 14:07:40.27	320.97	13.41	-43.2	-44.0	17.9	0.00e+00	0	57	0	3041918976	49	3894
2026-01-04 14:07:43.23	321.42	13.22	-43.0	-43.9	18.1	0.00e+00	0	57	0	3058696192	49	3836
2026-01-04 14:07:46.20	321.85	13.02	-43.0	-43.8	18.1	0.00e+00	0	57	0	3075473408	49	3796
2026-01-04 14:07:49.17	322.29	12.83	-43.1	-44.0	17.9	0.00e+00	0	57	0	3092250624	49	3872
2026-01-04 14:07:52.14	322.71	12.63	-43.5	-44.3	17.6	0.00e+00	0	57	0	3109027840	49	4048
2026-01-04 14:07:55.11	323.14	12.44	-43.7	-44.6	17.3	0.00e+00	0	57	0	3125805056	49	4171
2026-01-04 14:07:58.07	323.55	12.24	-43.9	-44.8	17.1	0.00e+00	0	57	0	3141533696	49	4270
2026-01-04 14:08:01.04	323.96	12.05	-43.7	-44.7	17.2	0.00e+00	0	57	0	3159359488	49	4195
2026-01-04 14:08:04.00	324.37	11.85	-43.9	-44.8	17.0	0.00e+00	0	57	0	3175088128	50	4047
2026-01-04 14:08:06.98	324.77	11.66	-43.9	-44.8	17.1	0.00e+00	0	57	0	3191865344	50	4030
2026-01-04 14:08:09.95	325.17	11.47	-43.9	-44.8	17.0	0.00e+00	0	57	0	3208642560	50	4050
2026-01-04 14:08:12.93	325.56	11.27	-44.2	-45.2	16.7	0.00e+00	0	57	0	3225419776	50	4214
2026-01-04 14:08:15.91	325.95	11.08	-44.1	-45.1	16.8	0.00e+00	0	57	0	3242196992	50	4166
2026-01-04 14:08:18.89	326.33	10.89	-44.3	-45.3	16.5	0.00e+00	0	57	0	3258974208	50	4276
2026-01-04 14:08:21.86	326.70	10.69	-44.6	-45.7	16.1	0.00e+00	0	57	0	3275751424	51	4214
2026-01-04 14:08:24.81	327.07	10.50	-44.8	-45.9	15.9	0.00e+00	0	57	0	3292528640	51	4318
2026-01-04 14:08:27.78	327.44	10.31	-44.7	-45.8	16.0	0.00e+00	0	57	0	3309305856	51	4284
2026-01-04 14:08:30.74	327.80	10.12	-45.0	-46.2	15.6	0.00e+00	0	57	0	3326083072	51	4450
2026-01-04 14:08:33.70	328.16	9.93	-44.3	-45.3	16.4	0.00e+00	0	57	0	3342860288	51	4044
2026-01-04 14:08:36.67	328.51	9.74	-44.1	-45.1	16.7	0.00e+00	0	57	0	3359637504	51	3915
2026-01-04 14:08:39.63	328.86	9.55	-44.1	-45.0	16.7	0.00e+00	0	57	0	3375366144	51	3895
2026-01-04 14:08:42.59	329.20	9.37	-44.2	-45.2	16.5	0.00e+00	0	57	0	3392143360	51	3979
2026-01-04 14:08:45.57	329.55	9.18	-44.4	-45.5	16.2	0.00e+00	0	57	0	3408920576	51	4114
2026-01-04 14:08:48.54	329.88	8.99	-44.6	-45.7	16.0	0.00e+00	0	57	0	3425697792	51	4239
2026-01-04 14:08:51.49	330.21	8.80	-44.9	-46.1	15.6	0.00e+00	0	57	0	3442475008	51	4412
2026-01-04 14:08:54.46	330.54	8.62	-44.8	-45.9	15.7	0.00e+00	0	57	0	3459252224	52	4090
2026-01-04 14:08:57.43	330.87	8.43	-44.7	-45.8	15.7	0.00e+00	0	57	0	3476029440	52	4045
2026-01-04 14:09:00.39	331.19	8.25	-44.4	-45.5	16.1	0.00e+00	0	57	0	3492806656	51	4135
2026-01-04 14:09:03.36	331.50	8.06	-44.7	-45.8	15.8	0.00e+00	0	57	0	3509583872	51	4285
2026-01-04 14:09:06.32	331.81	7.88	-44.8	-46.0	15.6	0.00e+00	0	57	0	3526361088	51	4348
2026-01-04 14:09:09.29	332.12	7.70	-44.9	-46.2	15.3	0.00e+00	0	57	0	3543138304	52	4201
2026-01-04 14:09:12.26	332.43	7.51	-44.8	-46.0	15.4	0.00e+00	0	57	0	3559915520	52	4133
2026-01-04 14:09:15.24	332.73	7.33	-45.1	-46.4	15.1	0.00e+00	0	57	0	3576692736	52	4297
2026-01-04 14:09:18.21	333.03	7.15	-44.7	-45.9	15.5	0.00e+00	0	57	0	3592421376	52	4089
2026-01-04 14:09:21.18	333.32	6.97	-44.9	-46.2	15.2	0.00e+00	0	57	0	3609198592	52	4203
2026-01-04 14:09:24.14	333.62	6.79	-45.0	-46.2	15.2	0.00e+00	0	57	0	3625975808	52	4221
2026-01-04 14:09:27.12	333.90	6.61	-45.2	-46.5	14.8	0.00e+00	0	57	0	3642753024	52	4389
2026-01-04 14:09:30.08	334.19	6.43	-45.3	-46.7	14.6	1.10e-06	0	57	0	3659530240	52	4451
2026-01-04 14:09:33.05	334.47	6.26	-45.1	-46.4	14.8	0.00e+00	0	57	0	3676307456	52	4336
2026-01-04 14:09:36.03	334.75	6.08	-45.3	-46.7	14.6	0.00e+00	0	57	0	3693084672	52	4477
2026-01-04 14:09:39.01	335.02	5.90	-45.2	-46.6	14.6	1.10e-06	0	57	0	3709861888	52	4432
2026-01-04 14:09:41.98	335.30	5.72	-45.4	-46.8	14.4	1.10e-06	0	57	0	3726639104	52	4518
2026-01-04 14:09:44.94	335.56	5.55	-45.3	-46.7	14.4	3.40e-06	0	57	0	3743416320	53	4231
2026-01-04 14:09:47.90	335.83	5.38	-45.5	-46.9	14.2	0.00e+00	0	57	0	3760193536	53	4310
2026-01-04 14:09:50.87	336.09	5.20	-45.4	-46.9	14.2	4.50e-06	0	57	0	3776970752	53	4294
2026-01-04 14:09:53.84	336.35	5.03	-45.8	-47.3	13.8	4.50e-06	0	58	0	3793747968	53	4527
2026-01-04 14:09:56.81	336.61	4.86	-52.0	-62.8	3.8	8.46e-01	0	57	104	3794796544	65	13487
2026-01-04 14:09:59.76	336.86	4.69	-51.9	-62.8	3.8	8.47e-01	0	57	104	3794796544	66	12695
2026-01-04 14:10:02.73	337.11	4.51	-52.4	-63.1	3.8	8.46e-01	0	57	104	3794796544	66	13185
2026-01-04 14:10:05.70	337.36	4.34	-52.4	-63.3	3.8	8.46e-01	0	57	104	3794796544	66	13516
2026-01-04 14:10:08.67	337.61	4.17	-52.5	-63.4	3.8	8.46e-01	0	57	104	3794796544	66	13589
2026-01-04 14:10:11.64	337.85	4.00	-52.4	-63.4	3.8	8.46e-01	0	57	104	3794796544	67	12891
2026-01-04 14:10:14.62	338.09	3.84	-52.7	-63.5	3.8	8.46e-01	0	57	104	3794796544	67	12978
2026-01-04 14:10:17.60	338.33	3.67	-52.7	-63.5	3.8	8.46e-01	0	57	104	3794796544	67	12966
2026-01-04 14:10:20.58	338.57	3.50	-52.6	-63.5	3.8	8.47e-01	0	57	104	3794796544	67	13010
2026-01-04 14:10:23.54	338.80	3.33	-52.6	-63.5	3.8	8.48e-01	0	58	104	3794796544	67	12978
2026-01-04 14:10:26.51	339.03	3.17	-52.6	-63.5	3.8	8.45e-01	0	57	104	3794796544	67	12965
2026-01-04 14:10:29.46	339.26	3.00	-52.6	-63.5	3.8	8.46e-01	0	57	104	3794796544	67	12993

#Closed at: 2026-01-04 14:10:30
#Recorded file [3794 MB]: D:/Data/31026_260104_170954.dat