passes_logs/2026/01/04/R3.0SM8_Murmansk_STILSPACE/R3.0SM8_Murmansk_STILSPACE__20260104_210829_NOAA_21_JPSS-2_rec.log

#Pass ID: 20260104_210829_NOAA 21 (JPSS-2)
#Satellite: NOAA 21 (JPSS-2)
#Configuration: NOAA-21
#almurnet v.1.7.20240730
#Start time: 2026-01-04 21:08:30

#Version: 2.2.20231116
#Station: R3.0SM8_Murmansk_STILSPACE
#Location: 33.092731 lon 68.902999 lat
#TLE: 1 54234U 22150A   26004.22845673  .00000174  00000+0  10347-3 0  9996
#TLE: 2 54234  98.7489 305.2591 0001115 345.0884  15.0259 14.19531906163281

#Time	Az	El	Level	Level2	SNR	BER	BlckErr	Temp	State	Recorded	gain1	gain2
2026-01-04 21:08:30.08	21.01	3.05	-52.5	-64.1	3.8	1.49e+00	0	46	0	0	67	14006
2026-01-04 21:08:33.05	21.34	3.17	-52.7	-64.2	3.8	1.49e+00	0	46	104	0	68	13363
2026-01-04 21:08:36.01	21.66	3.30	-52.5	-64.2	3.8	1.49e+00	0	47	104	0	68	13262
2026-01-04 21:08:38.99	21.99	3.42	-52.4	-63.9	3.8	1.49e+00	0	47	104	0	67	13647
2026-01-04 21:08:41.96	22.32	3.55	-52.3	-64.0	3.8	1.49e+00	0	47	104	0	67	13728
2026-01-04 21:08:44.94	22.66	3.67	-52.3	-63.8	3.8	1.49e+00	0	47	104	0	67	13525
2026-01-04 21:08:47.90	22.99	3.80	-52.0	-63.5	3.8	1.49e+00	0	47	104	0	66	13864
2026-01-04 21:08:50.87	23.33	3.92	-51.5	-63.0	3.8	1.49e+00	0	48	104	0	66	13086
2026-01-04 21:08:53.85	23.67	4.05	-51.5	-62.8	3.8	1.49e+00	0	48	104	0	66	12680
2026-01-04 21:08:56.82	24.02	4.17	-51.5	-62.8	3.8	1.49e+00	0	48	104	0	66	12711
2026-01-04 21:08:59.79	24.36	4.29	-51.5	-63.1	3.8	1.49e+00	0	48	104	0	66	13166
2026-01-04 21:09:02.76	24.71	4.42	-51.5	-62.9	3.8	1.49e+00	0	48	104	0	66	12918
2026-01-04 21:09:05.74	25.07	4.54	-51.5	-62.7	3.8	1.49e+00	0	48	104	0	66	12658
2026-01-04 21:09:08.71	25.42	4.66	-51.5	-62.8	3.8	1.49e+00	0	49	104	0	66	12711
2026-01-04 21:09:11.68	25.78	4.79	-51.0	-59.6	3.9	1.47e+00	0	49	104	0	65	9310
2026-01-04 21:09:14.64	26.14	4.91	-49.8	-54.1	7.8	1.05e-01	0	49	0	6291456	62	5912
2026-01-04 21:09:17.61	26.51	5.03	-48.5	-51.4	10.6	3.22e-03	0	49	0	15728640	60	4820
2026-01-04 21:09:20.58	26.88	5.15	-48.6	-51.5	10.5	4.20e-03	0	50	0	25165824	60	4880
2026-01-04 21:09:23.55	27.25	5.27	-48.4	-50.9	11.2	1.33e-03	0	50	0	34603008	59	4824
2026-01-04 21:09:26.52	27.62	5.39	-48.6	-51.4	10.7	3.74e-03	0	50	0	44040192	59	5105
2026-01-04 21:09:29.47	27.99	5.51	-47.8	-50.0	12.1	3.61e-04	0	50	0	52428800	58	4620
2026-01-04 21:09:32.44	28.37	5.63	-47.3	-49.2	12.8	4.88e-05	0	50	0	61865984	57	4479
2026-01-04 21:09:35.41	28.75	5.75	-46.9	-48.8	13.3	1.75e-05	0	50	0	71303168	56	4500
2026-01-04 21:09:38.38	29.14	5.87	-47.0	-48.8	13.3	1.60e-05	0	50	0	80740352	56	4499
2026-01-04 21:09:41.35	29.53	5.99	-46.8	-48.5	13.6	7.00e-07	0	51	0	90177536	56	4380
2026-01-04 21:09:44.31	29.92	6.11	-46.7	-48.4	13.7	6.80e-06	0	51	0	99614720	56	4328
2026-01-04 21:09:47.28	30.31	6.22	-46.8	-48.5	13.6	5.30e-06	0	51	0	108003328	56	4375
2026-01-04 21:09:50.24	30.71	6.34	-46.9	-48.7	13.5	1.29e-05	0	50	0	117440512	56	4471
2026-01-04 21:09:53.21	31.11	6.45	-46.8	-48.6	13.6	1.14e-05	0	51	0	126877696	56	4398
2026-01-04 21:09:56.19	31.51	6.57	-46.7	-48.4	13.8	3.00e-06	0	51	0	136314880	56	4304
2026-01-04 21:09:59.14	31.92	6.68	-46.6	-48.3	13.9	1.50e-06	0	51	0	145752064	56	4248
2026-01-04 21:10:02.11	32.32	6.80	-46.9	-48.6	13.6	1.06e-05	0	51	0	155189248	56	4425
2026-01-04 21:10:05.07	32.74	6.91	-46.7	-48.3	13.9	4.50e-06	0	51	0	164626432	56	4286
2026-01-04 21:10:08.04	33.15	7.02	-46.7	-48.3	14.0	1.50e-06	0	51	0	173015040	56	4274
2026-01-04 21:10:11.01	33.57	7.13	-46.7	-48.4	13.9	3.00e-06	0	51	0	182452224	56	4292
2026-01-04 21:10:13.97	33.99	7.24	-46.4	-47.9	14.3	2.20e-06	0	52	0	191889408	55	4313
2026-01-04 21:10:16.93	34.41	7.35	-46.5	-48.1	14.1	6.80e-06	0	52	0	201326592	55	4397
2026-01-04 21:10:19.90	34.84	7.46	-46.4	-47.9	14.3	0.00e+00	0	52	0	210763776	55	4307
2026-01-04 21:10:22.87	35.27	7.57	-46.3	-47.8	14.4	7.00e-07	0	52	0	220200960	55	4256
2026-01-04 21:10:25.84	35.71	7.68	-46.3	-47.7	14.5	1.50e-06	0	52	0	229638144	55	4242
2026-01-04 21:10:28.81	36.14	7.78	-46.2	-47.6	14.6	7.00e-07	0	52	0	238026752	55	4185
2026-01-04 21:10:31.77	36.58	7.89	-46.2	-47.6	14.6	0.00e+00	0	52	0	247463936	55	4179
2026-01-04 21:10:34.74	37.03	7.99	-46.3	-47.8	14.5	0.00e+00	0	52	0	256901120	55	4250
2026-01-04 21:10:37.72	37.47	8.10	-46.4	-47.9	14.3	7.00e-07	0	53	0	266338304	55	4311
2026-01-04 21:10:40.69	37.92	8.20	-46.4	-47.9	14.3	2.20e-06	0	52	0	275775488	55	4322
2026-01-04 21:10:43.65	38.37	8.30	-46.3	-47.8	14.5	0.00e+00	0	53	0	285212672	55	4263
2026-01-04 21:10:46.61	38.83	8.40	-46.4	-47.9	14.4	0.00e+00	0	53	0	293601280	55	4322
2026-01-04 21:10:49.58	39.29	8.50	-46.2	-47.6	14.7	7.00e-07	0	53	0	303038464	55	4170
2026-01-04 21:10:52.55	39.75	8.60	-46.3	-47.8	14.5	7.00e-07	0	53	0	312475648	55	4274
2026-01-04 21:10:55.51	40.21	8.69	-46.5	-48.0	14.3	7.00e-07	0	53	0	321912832	55	4382
2026-01-04 21:10:58.47	40.68	8.79	-46.6	-48.2	14.2	7.00e-07	0	53	0	331350016	55	4458
2026-01-04 21:11:01.44	41.15	8.88	-46.6	-48.2	14.2	3.00e-06	0	53	0	340787200	55	4460
2026-01-04 21:11:04.41	41.62	8.97	-46.5	-48.1	14.2	0.00e+00	0	53	0	349175808	55	4429
2026-01-04 21:11:07.38	42.10	9.07	-46.8	-48.5	13.9	6.10e-06	0	53	0	358612992	55	4620
2026-01-04 21:11:10.33	42.57	9.16	-46.6	-48.2	14.2	2.20e-06	0	53	0	368050176	55	4471
2026-01-04 21:11:13.29	43.05	9.24	-46.7	-48.3	14.1	3.00e-06	0	53	0	377487360	55	4515
2026-01-04 21:11:16.27	43.54	9.33	-46.8	-48.4	14.1	7.00e-07	0	53	0	386924544	56	4304
2026-01-04 21:11:19.24	44.03	9.42	-46.0	-47.3	15.1	0.00e+00	0	53	0	396361728	55	4036
2026-01-04 21:11:22.22	44.52	9.50	-46.2	-47.6	14.8	7.00e-07	0	53	0	404750336	54	4409
2026-01-04 21:11:25.18	45.01	9.58	-46.4	-47.8	14.5	3.00e-06	0	53	0	414187520	54	4545
2026-01-04 21:11:28.14	45.50	9.66	-46.4	-47.9	14.4	7.00e-07	0	54	0	423624704	54	4592
2026-01-04 21:11:31.10	46.00	9.74	-46.5	-48.0	14.4	3.00e-06	0	54	0	433061888	55	4353
2026-01-04 21:11:34.07	46.50	9.82	-46.5	-48.0	14.4	7.00e-07	0	54	0	442499072	55	4344
2026-01-04 21:11:37.04	47.01	9.90	-46.3	-47.7	14.6	2.20e-06	0	54	0	451936256	55	4237
2026-01-04 21:11:40.00	47.51	9.97	-46.2	-47.6	14.8	0.00e+00	0	54	0	461373440	55	4175
2026-01-04 21:11:42.97	48.02	10.04	-46.0	-47.3	15.1	0.00e+00	0	54	0	469762048	55	4026
2026-01-04 21:11:45.95	48.53	10.11	-46.0	-47.4	15.0	0.00e+00	0	54	0	479199232	54	4337
2026-01-04 21:11:48.91	49.04	10.18	-46.0	-47.4	15.0	0.00e+00	0	54	0	488636416	54	4325
2026-01-04 21:11:51.88	49.56	10.25	-45.8	-47.1	15.3	0.00e+00	0	54	0	498073600	54	4172
2026-01-04 21:11:54.85	50.08	10.32	-45.8	-47.1	15.3	0.00e+00	0	54	0	507510784	54	4153
2026-01-04 21:11:57.82	50.60	10.38	-45.9	-47.2	15.3	0.00e+00	0	54	0	516947968	54	4213
2026-01-04 21:12:00.79	51.12	10.44	-46.2	-47.6	14.9	0.00e+00	0	54	0	525336576	54	4410
2026-01-04 21:12:03.76	51.64	10.50	-46.4	-47.8	14.7	7.00e-07	0	54	0	534773760	54	4537
2026-01-04 21:12:06.72	52.17	10.56	-46.1	-47.5	15.0	0.00e+00	0	54	0	544210944	54	4359
2026-01-04 21:12:09.69	52.70	10.61	-46.1	-47.5	15.0	0.00e+00	0	54	0	553648128	54	4360
2026-01-04 21:12:12.66	53.23	10.67	-46.5	-48.0	14.5	7.00e-07	0	54	0	563085312	55	4360
2026-01-04 21:12:15.63	53.76	10.72	-46.7	-48.3	14.2	2.20e-06	0	54	0	572522496	55	4509
2026-01-04 21:12:18.61	54.29	10.77	-46.3	-47.7	14.8	0.00e+00	0	54	0	581959680	55	4204
2026-01-04 21:12:21.58	54.83	10.82	-46.1	-47.5	14.9	0.00e+00	0	55	0	590348288	55	4109
2026-01-04 21:12:24.56	55.37	10.86	-46.0	-47.3	15.0	0.00e+00	0	55	0	599785472	54	4281
2026-01-04 21:12:27.53	55.91	10.90	-46.2	-47.6	14.9	7.00e-07	0	55	0	609222656	54	4393
2026-01-04 21:12:30.48	56.45	10.94	-46.1	-47.5	15.0	0.00e+00	0	55	0	618659840	55	4103
2026-01-04 21:12:33.45	56.99	10.98	-45.6	-46.9	15.5	0.00e+00	0	55	0	628097024	54	4076
2026-01-04 21:12:36.41	57.53	11.02	-45.9	-47.1	15.4	0.00e+00	0	55	0	637534208	54	4188
2026-01-04 21:12:39.39	58.08	11.05	-45.8	-47.1	15.4	0.00e+00	0	55	0	646971392	54	4178
2026-01-04 21:12:42.35	58.62	11.09	-45.7	-47.0	15.5	0.00e+00	0	55	0	655360000	54	4116
2026-01-04 21:12:45.31	59.17	11.12	-46.0	-47.4	14.8	0.00e+00	0	55	0	664797184	54	4310
2026-01-04 21:12:48.28	59.71	11.14	-45.7	-47.0	15.3	0.00e+00	0	55	0	674234368	54	4129
2026-01-04 21:12:51.25	60.26	11.17	-45.8	-47.1	15.4	0.00e+00	0	55	0	683671552	54	4177
2026-01-04 21:12:54.21	60.81	11.19	-45.8	-47.1	15.3	0.00e+00	0	55	0	693108736	54	4179
2026-01-04 21:12:57.19	61.36	11.21	-45.9	-47.2	15.1	7.00e-07	0	55	0	702545920	54	4229
2026-01-04 21:13:00.16	61.92	11.23	-45.8	-47.1	15.3	0.00e+00	0	55	0	710934528	54	4162
2026-01-04 21:13:03.11	62.46	11.25	-46.1	-47.5	15.0	0.00e+00	0	55	0	720371712	54	4372
2026-01-04 21:13:06.09	63.02	11.26	-46.0	-47.4	15.1	0.00e+00	0	55	0	729808896	54	4292
2026-01-04 21:13:09.05	63.57	11.27	-45.8	-47.1	15.2	0.00e+00	0	55	0	739246080	54	4192
2026-01-04 21:13:12.02	64.12	11.28	-45.7	-47.0	15.1	4.50e-06	0	55	0	748683264	54	4124
2026-01-04 21:13:15.00	64.68	11.29	-45.4	-46.7	15.2	8.30e-06	0	55	0	758120448	53	4215
2026-01-04 21:13:17.97	65.23	11.29	-45.5	-46.8	15.7	0.00e+00	0	55	0	766509056	53	4272
2026-01-04 21:13:20.94	65.79	11.29	-45.5	-46.8	15.7	0.00e+00	0	55	0	775946240	53	4255
2026-01-04 21:13:23.91	66.34	11.29	-45.5	-46.7	15.7	0.00e+00	0	55	0	785383424	53	4219
2026-01-04 21:13:26.87	66.89	11.29	-45.4	-46.7	15.8	0.00e+00	0	55	0	794820608	53	4200
2026-01-04 21:13:29.82	67.45	11.28	-45.3	-46.5	16.0	0.00e+00	0	55	0	804257792	53	4128
2026-01-04 21:13:32.78	68.00	11.28	-45.5	-46.8	15.7	0.00e+00	0	55	0	813694976	53	4257
2026-01-04 21:13:35.75	68.55	11.27	-45.6	-46.8	15.7	0.00e+00	0	55	0	822083584	53	4255
2026-01-04 21:13:38.71	69.10	11.25	-45.8	-47.0	15.4	0.00e+00	0	55	0	831520768	53	4390
2026-01-04 21:13:41.68	69.66	11.24	-45.6	-46.8	15.7	0.00e+00	0	55	0	840957952	53	4250
2026-01-04 21:13:44.66	70.21	11.22	-45.6	-46.8	15.7	0.00e+00	0	56	0	850395136	53	4265
2026-01-04 21:13:47.63	70.76	11.20	-45.5	-46.7	15.8	0.00e+00	0	56	0	859832320	53	4222
2026-01-04 21:13:50.59	71.31	11.18	-45.7	-47.0	15.5	0.00e+00	0	56	0	869269504	53	4375
2026-01-04 21:13:53.57	71.86	11.16	-45.8	-47.1	15.3	0.00e+00	0	56	0	878706688	53	4440
2026-01-04 21:13:56.55	72.41	11.13	-46.0	-47.4	15.1	0.00e+00	0	55	0	887095296	53	4561
2026-01-04 21:13:59.52	72.96	11.10	-45.7	-47.0	15.5	0.00e+00	0	55	0	896532480	54	4123
2026-01-04 21:14:02.49	73.51	11.07	-45.8	-47.1	15.4	0.00e+00	0	56	0	905969664	54	4188
2026-01-04 21:14:05.46	74.05	11.04	-45.9	-47.2	15.3	0.00e+00	0	56	0	915406848	54	4222
2026-01-04 21:14:08.42	74.60	11.00	-46.1	-47.4	15.1	0.00e+00	0	56	0	924844032	54	4319
2026-01-04 21:14:11.39	75.14	10.96	-45.9	-47.2	15.2	0.00e+00	0	56	0	934281216	54	4240
2026-01-04 21:14:14.35	75.68	10.92	-46.2	-47.6	14.8	0.00e+00	0	56	0	943718400	54	4404
2026-01-04 21:14:17.32	76.22	10.88	-46.3	-47.7	14.6	3.00e-06	0	56	0	952107008	54	4470
2026-01-04 21:14:20.28	76.76	10.84	-46.1	-47.4	15.0	0.00e+00	0	56	0	961544192	54	4339
2026-01-04 21:14:23.25	77.30	10.79	-46.1	-47.5	15.0	7.00e-07	0	56	0	970981376	54	4349
2026-01-04 21:14:26.21	77.83	10.74	-45.9	-47.2	15.2	2.20e-06	0	56	0	980418560	54	4197
2026-01-04 21:14:29.16	78.36	10.69	-45.5	-46.8	15.7	0.00e+00	0	56	0	989855744	54	4022
2026-01-04 21:14:32.11	78.89	10.64	-45.6	-46.8	15.6	0.00e+00	0	56	0	998244352	54	4038
2026-01-04 21:14:35.08	79.42	10.58	-45.6	-46.9	15.5	0.00e+00	0	56	0	1007681536	54	4077
2026-01-04 21:14:38.05	79.95	10.53	-45.7	-47.0	15.5	0.00e+00	0	56	0	1017118720	54	4131
2026-01-04 21:14:41.02	80.47	10.47	-45.8	-47.0	15.4	0.00e+00	0	56	0	1026555904	54	4144
2026-01-04 21:14:43.97	81.00	10.41	-46.0	-47.3	15.2	0.00e+00	0	56	0	1035993088	54	4253
2026-01-04 21:14:46.94	81.52	10.34	-45.8	-47.2	15.3	0.00e+00	0	56	0	1045430272	54	4194
2026-01-04 21:14:49.90	82.04	10.28	-45.8	-47.1	15.4	0.00e+00	0	56	0	1053818880	54	4161
2026-01-04 21:14:52.86	82.55	10.21	-45.8	-47.1	15.4	0.00e+00	0	56	0	1063256064	54	4164
2026-01-04 21:14:55.83	83.07	10.14	-45.9	-47.3	15.2	7.00e-07	0	56	0	1072693248	54	4245
2026-01-04 21:14:58.79	83.58	10.07	-45.9	-47.3	15.2	0.00e+00	0	56	0	1082130432	54	4258
2026-01-04 21:15:01.75	84.09	10.00	-45.7	-46.9	15.5	0.00e+00	0	56	0	1091567616	54	4095
2026-01-04 21:15:04.71	84.60	9.93	-45.8	-47.1	15.4	0.00e+00	0	56	0	1101004800	54	4148
2026-01-04 21:15:07.68	85.10	9.85	-45.9	-47.2	15.2	0.00e+00	0	56	0	1109393408	54	4214
2026-01-04 21:15:10.67	85.61	9.77	-45.6	-46.9	15.6	0.00e+00	0	56	0	1118830592	54	4054
2026-01-04 21:15:13.63	86.11	9.70	-45.7	-47.0	15.4	0.00e+00	0	56	0	1128267776	54	4145
2026-01-04 21:15:16.60	86.61	9.62	-46.1	-47.5	15.0	0.00e+00	0	56	0	1137704960	54	4358
2026-01-04 21:15:19.57	87.10	9.53	-46.0	-47.4	15.1	0.00e+00	0	56	0	1147142144	54	4303
2026-01-04 21:15:22.54	87.59	9.45	-46.2	-47.5	14.9	0.00e+00	0	56	0	1156579328	54	4371
2026-01-04 21:15:25.51	88.08	9.36	-46.2	-47.6	14.8	7.00e-07	0	56	0	1166016512	54	4435
2026-01-04 21:15:28.48	88.57	9.28	-46.3	-47.7	14.7	7.00e-07	0	56	0	1174405120	54	4474
2026-01-04 21:15:31.44	89.06	9.19	-46.2	-47.6	14.8	0.00e+00	0	56	0	1183842304	54	4415
2026-01-04 21:15:34.41	89.54	9.10	-45.7	-47.0	15.4	0.00e+00	0	56	0	1193279488	54	4144
2026-01-04 21:15:37.38	90.02	9.01	-46.0	-47.4	15.1	0.00e+00	0	56	0	1202716672	54	4296
2026-01-04 21:15:40.34	90.49	8.92	-46.3	-47.8	14.6	0.00e+00	0	56	0	1212153856	54	4511
2026-01-04 21:15:43.31	90.96	8.82	-46.7	-48.2	14.2	2.20e-06	0	56	0	1221591040	55	4483
2026-01-04 21:15:46.29	91.44	8.73	-46.8	-48.4	14.0	7.00e-07	0	56	0	1231028224	55	4567
2026-01-04 21:15:49.26	91.90	8.63	-46.6	-48.2	14.2	2.20e-06	0	56	0	1239416832	55	4452
2026-01-04 21:15:52.23	92.37	8.53	-46.8	-48.4	14.0	0.00e+00	0	56	0	1248854016	55	4598
2026-01-04 21:15:55.19	92.83	8.43	-47.2	-48.9	13.5	1.06e-05	0	56	0	1258291200	56	4596
2026-01-04 21:15:58.17	93.29	8.33	-47.0	-48.8	13.7	2.20e-06	0	56	0	1267728384	56	4495
2026-01-04 21:16:01.14	93.74	8.23	-47.1	-48.8	13.7	3.00e-06	0	56	0	1277165568	56	4519
2026-01-04 21:16:04.11	94.19	8.13	-46.7	-48.3	14.1	2.20e-06	0	56	0	1286602752	56	4291
2026-01-04 21:16:07.08	94.64	8.03	-46.1	-47.5	14.8	0.00e+00	0	56	0	1296039936	55	4117
2026-01-04 21:16:10.06	95.09	7.92	-46.1	-47.5	14.8	0.00e+00	0	56	0	1304428544	55	4134
2026-01-04 21:16:13.02	95.53	7.82	-46.4	-47.9	14.5	0.00e+00	0	56	0	1313865728	55	4300
2026-01-04 21:16:15.99	95.97	7.71	-46.4	-47.9	14.4	7.00e-07	0	56	0	1323302912	55	4298
2026-01-04 21:16:18.97	96.41	7.60	-46.6	-48.2	14.1	7.00e-07	0	56	0	1332740096	55	4488
2026-01-04 21:16:21.93	96.84	7.49	-46.6	-48.1	14.1	0.00e+00	0	56	0	1342177280	55	4439
2026-01-04 21:16:24.90	97.27	7.38	-46.4	-47.9	14.4	1.50e-06	0	56	0	1351614464	55	4311
2026-01-04 21:16:27.86	97.70	7.27	-46.5	-48.1	14.2	7.00e-07	0	56	0	1360003072	55	4392
2026-01-04 21:16:30.83	98.12	7.16	-46.6	-48.1	14.1	1.50e-06	0	56	0	1369440256	55	4439
2026-01-04 21:16:33.80	98.54	7.05	-46.7	-48.4	13.9	3.80e-06	0	56	0	1378877440	55	4552
2026-01-04 21:16:36.77	98.96	6.94	-46.4	-48.0	14.2	1.50e-06	0	56	0	1388314624	55	4387
2026-01-04 21:16:39.74	99.38	6.82	-46.6	-48.2	14.0	7.00e-07	0	56	0	1397751808	55	4453
2026-01-04 21:16:42.70	99.79	6.71	-46.6	-48.2	14.0	2.20e-06	0	56	0	1407188992	55	4474
2026-01-04 21:16:45.66	100.20	6.60	-46.8	-48.5	13.8	3.80e-06	0	56	0	1415577600	55	4605
2026-01-04 21:16:48.64	100.60	6.48	-46.6	-48.3	14.0	3.00e-06	0	56	0	1425014784	55	4494
2026-01-04 21:16:51.60	101.00	6.36	-46.6	-48.3	13.9	3.00e-06	0	56	0	1434451968	55	4508
2026-01-04 21:16:54.56	101.40	6.25	-46.7	-48.5	13.7	6.80e-06	0	56	0	1443889152	55	4608
2026-01-04 21:16:57.52	101.80	6.13	-46.9	-48.8	13.4	1.52e-05	0	56	0	1453326336	55	4761
2026-01-04 21:17:00.49	102.19	6.01	-47.1	-49.0	13.3	1.60e-05	0	56	0	1462763520	56	4600
2026-01-04 21:17:03.46	102.58	5.89	-47.1	-48.9	13.3	2.67e-05	0	56	0	1471152128	56	4581
2026-01-04 21:17:06.42	102.97	5.77	-47.0	-48.7	13.5	6.80e-06	0	56	0	1480589312	56	4491
2026-01-04 21:17:09.38	103.35	5.65	-47.2	-49.0	13.2	2.51e-05	0	56	0	1490026496	56	4645
2026-01-04 21:17:12.35	103.73	5.53	-47.2	-49.1	13.1	2.59e-05	0	56	0	1499463680	56	4683
2026-01-04 21:17:15.32	104.11	5.41	-47.4	-49.4	12.8	5.11e-05	0	56	0	1508900864	56	4816
2026-01-04 21:17:18.29	104.49	5.29	-47.2	-49.0	13.2	2.97e-05	0	56	0	1518338048	56	4623
2026-01-04 21:17:21.27	104.86	5.17	-47.2	-49.1	13.1	3.28e-05	0	56	0	1527775232	56	4663
2026-01-04 21:17:24.24	105.23	5.05	-46.9	-48.6	13.5	1.75e-05	0	56	0	1536163840	56	4424
2026-01-04 21:17:27.21	105.60	4.92	-52.1	-63.6	3.8	1.49e+00	0	56	104	1539309568	66	14009
2026-01-04 21:17:30.16	105.96	4.80	-52.3	-63.9	3.8	1.49e+00	0	56	104	1539309568	66	14435
2026-01-04 21:17:33.12	106.32	4.68	-52.5	-64.0	3.8	1.49e+00	0	57	104	1539309568	66	14674
2026-01-04 21:17:36.09	106.67	4.55	-52.6	-64.1	3.8	1.49e+00	0	56	104	1539309568	67	13910
2026-01-04 21:17:39.06	107.03	4.43	-52.5	-64.1	3.8	1.49e+00	0	56	104	1539309568	67	14030
2026-01-04 21:17:42.04	107.38	4.31	-52.7	-64.2	3.8	1.49e+00	0	56	104	1539309568	67	14137
2026-01-04 21:17:45.01	107.73	4.18	-52.8	-64.2	3.8	1.49e+00	0	57	104	1539309568	67	14203
2026-01-04 21:17:47.98	108.08	4.06	-52.8	-64.3	3.8	1.49e+00	0	56	104	1539309568	67	14233
2026-01-04 21:17:50.95	108.42	3.93	-52.8	-64.2	3.8	1.49e+00	0	57	104	1539309568	67	14184
2026-01-04 21:17:53.92	108.76	3.81	-52.8	-64.2	3.8	1.49e+00	0	57	104	1539309568	67	14174
2026-01-04 21:17:56.88	109.10	3.68	-52.7	-64.2	3.8	1.49e+00	0	57	104	1539309568	67	14191
2026-01-04 21:17:59.85	109.43	3.55	-52.7	-64.3	3.8	1.49e+00	0	57	104	1539309568	67	14236
2026-01-04 21:18:02.81	109.77	3.43	-52.8	-64.3	3.8	1.49e+00	0	57	104	1539309568	67	14242
2026-01-04 21:18:05.79	110.10	3.30	-52.8	-64.3	3.8	1.49e+00	0	57	104	1539309568	67	14216
2026-01-04 21:18:08.77	110.43	3.18	-52.8	-64.3	3.8	1.49e+00	0	57	104	1539309568	67	14212
2026-01-04 21:18:11.74	110.75	3.05	-52.6	-64.3	3.8	1.49e+00	0	57	104	1539309568	67	14222

#Closed at: 2026-01-04 21:18:14
#Recorded file [1539 MB]: D:/Data/31026_260105_001725.dat