passes_logs/2026/01/04/R3.0SM8_Murmansk_STILSPACE/R3.0SM8_Murmansk_STILSPACE__20260104_004810_NOAA_21_JPSS-2_rec.log

#Pass ID: 20260104_004810_NOAA 21 (JPSS-2)
#Satellite: NOAA 21 (JPSS-2)
#Configuration: NOAA-21
#almurnet v.1.7.20240730
#Start time: 2026-01-04 00:51:06

#Version: 2.2.20231116
#Station: R3.0SM8_Murmansk_STILSPACE
#Location: 33.092731 lon 68.902999 lat
#TLE: 1 54234U 22150A   26003.45311712  .00000198  00000+0  11468-3 0  9993
#TLE: 2 54234  98.7487 304.4932 0001159 347.5017  12.6130 14.19531745163172

#Time	Az	El	Level	Level2	SNR	BER	BlckErr	Temp	State	Recorded	gain1	gain2
2026-01-04 00:51:06.68	24.53	18.47	-52.6	-63.4	3.8	8.45e-01	0	57	0	0	67	12873
2026-01-04 00:51:09.64	24.50	18.83	-52.7	-64.2	3.8	1.49e+00	0	57	104	0	68	13378
2026-01-04 00:51:12.61	24.48	19.20	-52.8	-64.3	3.8	1.49e+00	0	57	104	0	68	13459
2026-01-04 00:51:15.58	24.46	19.58	-52.8	-64.3	3.8	1.49e+00	0	57	104	0	68	13477
2026-01-04 00:51:18.53	24.44	19.96	-52.8	-64.2	3.8	1.49e+00	0	57	104	0	68	13373
2026-01-04 00:51:21.48	24.41	20.35	-52.7	-64.2	3.8	1.49e+00	0	57	104	0	68	13389
2026-01-04 00:51:24.47	24.39	20.75	-52.6	-64.1	3.8	1.49e+00	0	57	104	0	68	13243
2026-01-04 00:51:27.43	24.36	21.15	-52.3	-63.8	3.8	1.49e+00	0	57	104	0	67	13536
2026-01-04 00:51:30.39	24.33	21.55	-52.5	-63.9	3.8	1.49e+00	0	57	104	0	66	14472
2026-01-04 00:51:33.36	24.30	21.97	-52.5	-63.9	3.8	1.49e+00	0	57	104	0	66	14503
2026-01-04 00:51:36.32	24.27	22.39	-52.5	-63.8	3.8	1.49e+00	0	57	104	0	66	14275
2026-01-04 00:51:39.29	24.24	22.81	-52.4	-63.8	3.8	1.49e+00	0	57	104	0	66	14327
2026-01-04 00:51:42.26	24.21	23.25	-52.4	-63.8	3.8	1.49e+00	0	57	104	0	66	14312
2026-01-04 00:51:45.23	24.18	23.69	-52.3	-63.6	3.8	1.49e+00	0	57	104	0	66	14000
2026-01-04 00:51:48.20	24.14	24.14	-52.2	-62.0	3.8	1.49e+00	0	57	104	0	66	11668
2026-01-04 00:51:51.17	24.10	24.60	-52.2	-61.3	4.0	1.48e+00	0	57	104	0	66	10771
2026-01-04 00:51:54.13	24.07	25.07	-51.9	-59.3	4.6	1.36e+00	0	57	104	0	66	8499
2026-01-04 00:51:57.09	24.03	25.54	-50.6	-55.0	7.6	1.29e-01	0	57	0	7340032	64	5855
2026-01-04 00:52:00.06	23.99	26.02	-48.4	-50.6	12.2	7.09e-04	0	57	0	16777216	60	4435
2026-01-04 00:52:03.03	23.94	26.52	-48.4	-50.5	12.4	6.71e-05	0	57	0	26214400	58	4881
2026-01-04 00:52:05.99	23.90	27.02	-46.8	-48.2	14.6	7.00e-07	0	57	0	35651584	56	4225
2026-01-04 00:52:08.95	23.85	27.53	-45.6	-46.8	16.0	0.00e+00	0	57	0	44040192	54	4007
2026-01-04 00:52:11.94	23.81	28.05	-45.4	-46.5	16.2	0.00e+00	0	57	0	53477376	53	4122
2026-01-04 00:52:14.90	23.76	28.58	-45.6	-46.8	16.0	0.00e+00	0	57	0	62914560	53	4257
2026-01-04 00:52:17.86	23.70	29.12	-45.3	-46.4	16.3	0.00e+00	0	57	0	72351744	53	4097
2026-01-04 00:52:20.83	23.65	29.67	-45.1	-46.1	16.6	0.00e+00	0	57	0	81788928	53	3948
2026-01-04 00:52:23.80	23.59	30.23	-44.5	-45.5	17.2	0.00e+00	0	57	0	91226112	52	3870
2026-01-04 00:52:26.77	23.53	30.81	-44.6	-45.6	16.9	0.00e+00	0	57	0	99614720	52	3929
2026-01-04 00:52:29.73	23.47	31.39	-44.0	-44.9	17.5	0.00e+00	0	57	0	109051904	51	3865
2026-01-04 00:52:32.70	23.41	31.99	-44.5	-45.5	16.5	0.00e+00	0	57	0	118489088	51	4132
2026-01-04 00:52:35.67	23.34	32.59	-46.0	-47.6	14.1	7.00e-07	0	57	0	127926272	53	4678
2026-01-04 00:52:38.64	23.27	33.22	-48.1	-50.7	11.0	1.77e-03	0	57	0	137363456	57	5316
2026-01-04 00:52:41.61	23.20	33.85	-48.5	-51.3	10.4	5.30e-03	0	57	0	146800640	59	5092
2026-01-04 00:52:44.57	23.12	34.50	-47.9	-50.2	11.9	4.28e-04	0	57	0	155189248	58	4743
2026-01-04 00:52:47.55	23.04	35.16	-48.2	-50.4	12.1	2.19e-04	0	57	0	164626432	58	4827
2026-01-04 00:52:50.53	22.95	35.84	-47.6	-49.4	13.3	2.59e-05	0	57	0	174063616	58	4320
2026-01-04 00:52:53.48	22.87	36.52	-46.7	-48.1	14.8	7.00e-07	0	57	0	183500800	56	4148
2026-01-04 00:52:56.45	22.77	37.23	-46.5	-47.8	15.1	0.00e+00	0	57	0	192937984	56	4038
2026-01-04 00:52:59.41	22.68	37.95	-46.1	-47.4	15.4	0.00e+00	0	57	0	202375168	55	4059
2026-01-04 00:53:02.37	22.57	38.68	-46.1	-47.3	15.5	0.00e+00	0	57	0	211812352	55	4039
2026-01-04 00:53:05.35	22.47	39.44	-46.2	-47.4	15.4	0.00e+00	0	57	0	220200960	55	4091
2026-01-04 00:53:08.32	22.35	40.20	-46.2	-47.5	15.3	0.00e+00	0	57	0	229638144	55	4129
2026-01-04 00:53:11.30	22.23	40.99	-46.6	-48.0	14.9	7.00e-07	0	57	0	239075328	55	4368
2026-01-04 00:53:14.27	22.11	41.80	-46.8	-48.3	14.5	7.00e-07	0	57	0	248512512	55	4498
2026-01-04 00:53:17.23	21.97	42.61	-46.3	-47.6	15.2	0.00e+00	0	57	0	257949696	55	4190
2026-01-04 00:53:20.20	21.83	43.45	-46.6	-48.1	14.8	7.00e-07	0	57	0	267386880	55	4406
2026-01-04 00:53:23.17	21.68	44.31	-47.4	-49.0	13.9	1.50e-06	0	58	0	276824064	56	4634
2026-01-04 00:53:26.14	21.52	45.19	-47.4	-49.0	14.0	3.00e-06	0	57	0	285212672	56	4629
2026-01-04 00:53:29.10	21.35	46.08	-46.9	-48.3	14.7	7.00e-07	0	57	0	294649856	56	4289
2026-01-04 00:53:32.06	21.18	46.99	-46.5	-47.9	15.0	0.00e+00	0	58	0	304087040	56	4070
2026-01-04 00:53:35.03	20.98	47.93	-47.0	-48.4	14.5	0.00e+00	0	57	0	313524224	56	4318
2026-01-04 00:53:38.00	20.78	48.89	-45.3	-46.3	16.5	0.00e+00	0	58	0	322961408	53	4034
2026-01-04 00:53:40.97	20.56	49.86	-45.5	-46.5	16.4	0.00e+00	0	57	0	332398592	53	4132
2026-01-04 00:53:43.95	20.33	50.86	-45.7	-46.9	16.0	0.00e+00	0	57	0	341835776	53	4297
2026-01-04 00:53:46.91	20.08	51.88	-45.9	-47.0	15.9	0.00e+00	0	57	0	350224384	53	4384
2026-01-04 00:53:49.88	19.81	52.92	-45.3	-46.4	16.5	0.00e+00	0	57	0	359661568	53	4072
2026-01-04 00:53:52.84	19.52	53.98	-45.2	-46.2	16.6	0.00e+00	0	57	0	369098752	53	4000
2026-01-04 00:53:55.82	19.21	55.07	-44.4	-45.3	17.6	0.00e+00	0	57	0	378535936	51	4026
2026-01-04 00:53:58.79	18.87	56.17	-43.8	-44.6	18.3	0.00e+00	0	57	0	387973120	50	3929
2026-01-04 00:54:01.77	18.50	57.30	-44.1	-44.9	18.1	0.00e+00	0	57	0	397410304	50	4062
2026-01-04 00:54:04.74	18.10	58.45	-44.0	-44.8	18.1	0.00e+00	0	57	0	405798912	50	4032
2026-01-04 00:54:07.69	17.66	59.62	-43.5	-44.3	18.6	0.00e+00	0	57	0	415236096	50	3787
2026-01-04 00:54:10.66	17.18	60.81	-44.1	-44.9	18.0	0.00e+00	0	58	0	424673280	50	4068
2026-01-04 00:54:13.64	16.65	62.02	-43.4	-44.2	18.7	0.00e+00	0	57	0	434110464	50	3748
2026-01-04 00:54:16.61	16.06	63.25	-43.2	-44.0	18.9	0.00e+00	0	57	0	443547648	49	3869
2026-01-04 00:54:19.58	15.41	64.50	-43.4	-44.2	18.7	0.00e+00	0	57	0	452984832	49	3972
2026-01-04 00:54:22.56	14.67	65.77	-42.9	-43.6	19.2	0.00e+00	0	57	0	462422016	49	3736
2026-01-04 00:54:25.52	13.85	67.05	-42.8	-43.5	19.4	0.00e+00	0	57	0	470810624	48	3871
2026-01-04 00:54:28.48	12.92	68.35	-42.6	-43.2	19.6	0.00e+00	0	57	0	480247808	48	3775
2026-01-04 00:54:31.44	11.86	69.65	-43.3	-44.1	18.8	0.00e+00	0	57	0	489684992	48	4162
2026-01-04 00:54:34.41	10.64	70.98	-43.4	-44.1	18.7	0.00e+00	0	57	0	499122176	48	4173
2026-01-04 00:54:37.37	9.22	72.30	-43.6	-44.3	18.6	0.00e+00	0	57	0	508559360	49	4038
2026-01-04 00:54:40.33	7.55	73.63	-43.8	-44.6	18.4	0.00e+00	0	57	0	517996544	49	4182
2026-01-04 00:54:43.31	5.57	74.97	-43.5	-44.3	18.6	0.00e+00	0	57	0	526385152	49	4037
2026-01-04 00:54:46.27	3.19	76.29	-43.1	-43.8	19.1	0.00e+00	0	58	0	535822336	49	3824
2026-01-04 00:54:49.23	0.28	77.60	-43.4	-44.2	18.7	0.00e+00	0	57	0	545259520	49	3987
2026-01-04 00:54:52.21	356.66	78.88	-43.5	-44.2	18.6	0.00e+00	0	57	0	554696704	49	4002
2026-01-04 00:54:55.17	352.11	80.11	-43.0	-43.7	19.2	0.00e+00	0	57	0	564133888	49	3743
2026-01-04 00:54:58.13	346.29	81.27	-43.2	-44.0	18.9	0.00e+00	0	57	0	573571072	48	4104
2026-01-04 00:55:01.09	338.76	82.32	-43.7	-44.5	18.3	0.00e+00	0	57	0	581959680	49	4102
2026-01-04 00:55:04.06	329.00	83.20	-44.4	-45.4	17.6	0.00e+00	0	57	0	591396864	50	4298
2026-01-04 00:55:07.03	316.78	83.84	-44.7	-45.6	17.3	0.00e+00	0	57	0	600834048	51	4185
2026-01-04 00:55:10.00	302.54	84.15	-44.2	-45.0	17.9	0.00e+00	0	57	0	610271232	51	3907
2026-01-04 00:55:12.97	287.74	84.07	-45.8	-47.0	15.9	0.00e+00	0	57	0	619708416	53	4356
2026-01-04 00:55:15.94	274.20	83.62	-47.9	-49.7	13.3	1.22e-05	0	57	0	629145600	57	4758
2026-01-04 00:55:18.91	262.98	82.87	-47.5	-49.0	14.0	1.50e-06	0	57	0	637534208	57	4378
2026-01-04 00:55:21.88	254.17	81.91	-47.2	-48.6	14.4	1.50e-06	0	57	0	646971392	57	4191
2026-01-04 00:55:24.85	247.37	80.80	-46.1	-47.3	15.7	0.00e+00	0	57	0	656408576	55	4026
2026-01-04 00:55:27.80	242.14	79.61	-45.0	-46.0	16.8	0.00e+00	0	57	0	665845760	53	3906
2026-01-04 00:55:30.75	238.02	78.36	-44.5	-45.4	17.6	0.00e+00	0	57	0	675282944	51	4098
2026-01-04 00:55:33.72	234.72	77.07	-43.3	-44.1	18.8	0.00e+00	0	57	0	684720128	49	3923
2026-01-04 00:55:36.69	232.03	75.75	-43.1	-43.8	18.9	0.00e+00	0	58	0	694157312	48	4044
2026-01-04 00:55:39.65	229.83	74.42	-43.2	-43.9	18.9	0.00e+00	0	57	0	702545920	49	3841
2026-01-04 00:55:42.61	227.99	73.09	-43.0	-43.7	19.1	0.00e+00	0	57	0	711983104	48	3986
2026-01-04 00:55:45.59	226.42	71.75	-43.4	-44.1	18.6	0.00e+00	0	57	0	721420288	49	3952
2026-01-04 00:55:48.56	225.08	70.42	-42.4	-43.1	19.6	0.00e+00	0	57	0	730857472	47	3914
2026-01-04 00:55:51.52	223.93	69.11	-44.5	-45.4	17.6	0.00e+00	0	57	0	740294656	50	4324
2026-01-04 00:55:54.49	222.92	67.80	-42.8	-43.5	19.3	0.00e+00	0	57	0	749731840	48	3889
2026-01-04 00:55:57.46	222.03	66.51	-43.2	-43.9	18.8	0.00e+00	0	58	0	758120448	48	4082
2026-01-04 00:56:00.43	221.25	65.23	-43.4	-44.1	18.5	0.00e+00	0	57	0	767557632	50	3728
2026-01-04 00:56:03.40	220.55	63.96	-42.1	-42.7	19.9	0.00e+00	0	57	0	776994816	47	3748
2026-01-04 00:56:06.37	219.92	62.72	-44.0	-44.8	18.1	0.00e+00	0	57	0	786432000	49	4250
2026-01-04 00:56:09.33	219.36	61.50	-43.7	-44.4	18.3	0.00e+00	0	57	0	795869184	50	3867
2026-01-04 00:56:12.30	218.85	60.29	-42.9	-43.6	19.2	0.00e+00	0	57	0	805306368	48	3927
2026-01-04 00:56:15.27	218.39	59.11	-44.2	-45.1	17.7	0.00e+00	0	57	0	813694976	50	4149
2026-01-04 00:56:18.24	217.96	57.95	-45.1	-46.0	16.7	0.00e+00	0	57	0	823132160	52	4142
2026-01-04 00:56:21.20	217.58	56.81	-43.7	-44.4	18.4	0.00e+00	0	57	0	832569344	50	3868
2026-01-04 00:56:24.18	217.22	55.68	-45.2	-46.3	16.6	0.00e+00	0	57	0	842006528	52	4253
2026-01-04 00:56:27.15	216.89	54.58	-45.7	-46.9	16.0	0.00e+00	0	57	0	851443712	53	4300
2026-01-04 00:56:30.11	216.59	53.51	-46.0	-47.2	15.6	0.00e+00	0	57	0	860880896	54	4233
2026-01-04 00:56:33.08	216.31	52.45	-44.6	-45.5	17.3	0.00e+00	0	57	0	869269504	52	3906
2026-01-04 00:56:36.04	216.05	51.42	-46.5	-47.8	15.1	0.00e+00	0	57	0	878706688	54	4523
2026-01-04 00:56:39.01	215.80	50.41	-46.7	-48.1	14.8	0.00e+00	0	57	0	888143872	55	4439
2026-01-04 00:56:41.99	215.58	49.41	-47.6	-49.3	13.7	5.30e-06	0	57	0	897581056	57	4519
2026-01-04 00:56:44.97	215.36	48.44	-46.9	-48.4	14.6	7.00e-07	0	57	0	907018240	57	4060
2026-01-04 00:56:47.94	215.16	47.49	-46.0	-47.2	15.7	0.00e+00	0	57	0	916455424	54	4194
2026-01-04 00:56:50.91	214.98	46.56	-47.7	-49.5	13.5	8.30e-06	0	57	0	925892608	57	4638
2026-01-04 00:56:53.88	214.80	45.65	-48.4	-50.4	12.5	1.06e-04	0	57	0	935329792	58	4864
2026-01-04 00:56:56.85	214.64	44.76	-48.7	-50.8	12.1	3.39e-04	0	57	0	943718400	59	4800
2026-01-04 00:56:59.83	214.48	43.89	-49.1	-51.7	11.3	1.12e-03	0	57	0	953155584	60	4990
2026-01-04 00:57:02.80	214.34	43.04	-49.0	-51.3	11.6	9.16e-04	0	57	0	962592768	60	4798
2026-01-04 00:57:05.76	214.20	42.20	-48.9	-51.3	11.7	6.06e-04	0	57	0	972029952	60	4766
2026-01-04 00:57:08.72	214.07	41.39	-49.1	-51.7	11.3	1.51e-03	0	57	0	981467136	60	4984
2026-01-04 00:57:11.69	213.94	40.59	-48.2	-50.1	12.9	8.69e-05	0	57	0	990904320	59	4411
2026-01-04 00:57:14.67	213.82	39.81	-47.6	-49.2	13.8	2.20e-06	0	57	0	999292928	58	4230
2026-01-04 00:57:17.63	213.71	39.05	-46.9	-48.3	14.7	7.00e-07	0	57	0	1008730112	56	4262
2026-01-04 00:57:20.60	213.61	38.30	-46.4	-47.8	15.2	0.00e+00	0	57	0	1018167296	56	4013
2026-01-04 00:57:23.57	213.50	37.57	-46.5	-47.9	15.1	0.00e+00	0	57	0	1027604480	56	4062
2026-01-04 00:57:26.54	213.41	36.86	-46.4	-47.8	15.1	0.00e+00	0	57	0	1037041664	55	4248
2026-01-04 00:57:29.50	213.32	36.16	-46.0	-47.2	15.7	0.00e+00	0	57	0	1046478848	55	3976
2026-01-04 00:57:32.47	213.23	35.47	-46.6	-48.0	14.9	0.00e+00	0	57	0	1054867456	55	4357
2026-01-04 00:57:35.42	213.15	34.81	-47.0	-48.6	14.3	0.00e+00	0	58	0	1064304640	55	4675
2026-01-04 00:57:38.38	213.07	34.15	-46.6	-48.0	15.0	0.00e+00	0	58	0	1073741824	56	4099
2026-01-04 00:57:41.35	212.99	33.51	-45.8	-47.0	15.8	0.00e+00	0	57	0	1083179008	54	4141
2026-01-04 00:57:44.30	212.92	32.88	-45.6	-46.8	16.1	0.00e+00	0	57	0	1092616192	54	4015
2026-01-04 00:57:47.26	212.85	32.26	-45.0	-46.0	16.8	0.00e+00	0	57	0	1102053376	53	3888
2026-01-04 00:57:50.24	212.78	31.66	-45.0	-46.1	16.7	0.00e+00	0	58	0	1111490560	52	4147
2026-01-04 00:57:53.20	212.72	31.06	-45.5	-46.6	16.2	0.00e+00	0	58	0	1119879168	52	4428
2026-01-04 00:57:56.17	212.65	30.48	-45.5	-46.6	16.1	0.00e+00	0	57	0	1129316352	52	4429
2026-01-04 00:57:59.13	212.60	29.91	-45.0	-46.1	16.7	0.00e+00	0	57	0	1138753536	52	4177
2026-01-04 00:58:02.09	212.54	29.36	-45.0	-46.1	16.7	0.00e+00	0	58	0	1148190720	52	4160
2026-01-04 00:58:05.08	212.48	28.80	-44.7	-45.7	17.0	0.00e+00	0	58	0	1157627904	52	3991
2026-01-04 00:58:08.04	212.43	28.27	-44.6	-45.6	17.1	0.00e+00	0	57	0	1167065088	52	3929
2026-01-04 00:58:11.01	212.38	27.74	-44.7	-45.7	17.1	0.00e+00	0	57	0	1175453696	52	3963
2026-01-04 00:58:13.98	212.33	27.22	-44.3	-45.2	17.6	0.00e+00	0	58	0	1184890880	51	3974
2026-01-04 00:58:16.95	212.29	26.71	-44.0	-44.9	17.9	0.00e+00	0	58	0	1194328064	51	3830
2026-01-04 00:58:19.94	212.24	26.21	-44.2	-45.0	17.7	0.00e+00	0	58	0	1203765248	51	3912
2026-01-04 00:58:22.91	212.20	25.72	-44.5	-45.4	17.4	0.00e+00	0	58	0	1213202432	51	4068
2026-01-04 00:58:25.89	212.16	25.24	-44.7	-45.6	17.2	0.00e+00	0	58	0	1222639616	51	4192
2026-01-04 00:58:28.87	212.12	24.77	-44.5	-45.4	17.4	0.00e+00	0	57	0	1232076800	51	4093
2026-01-04 00:58:31.83	212.08	24.30	-44.3	-45.2	17.6	0.00e+00	0	58	0	1241513984	51	3969
2026-01-04 00:58:34.81	212.04	23.85	-44.6	-45.5	17.3	0.00e+00	0	57	0	1249902592	51	4122
2026-01-04 00:58:37.78	212.01	23.40	-44.8	-45.8	17.0	0.00e+00	0	57	0	1259339776	51	4264
2026-01-04 00:58:40.74	211.97	22.96	-44.9	-45.9	16.9	0.00e+00	0	57	0	1268776960	51	4312
2026-01-04 00:58:43.72	211.94	22.52	-44.9	-45.8	16.9	0.00e+00	0	58	0	1278214144	51	4285
2026-01-04 00:58:46.69	211.91	22.10	-44.1	-44.9	17.8	0.00e+00	0	58	0	1287651328	51	3858
2026-01-04 00:58:49.65	211.88	21.68	-44.0	-44.8	17.9	0.00e+00	0	58	0	1297088512	50	4026
2026-01-04 00:58:52.63	211.85	21.27	-43.9	-44.8	17.9	0.00e+00	0	57	0	1306525696	50	4008
2026-01-04 00:58:55.61	211.82	20.86	-44.0	-44.8	17.9	0.00e+00	0	58	0	1314914304	50	4043
2026-01-04 00:58:58.57	211.79	20.46	-44.0	-44.8	17.9	0.00e+00	0	58	0	1324351488	50	4018
2026-01-04 00:59:01.54	211.77	20.07	-44.2	-45.1	17.6	0.00e+00	0	57	0	1333788672	50	4158
2026-01-04 00:59:04.50	211.74	19.68	-44.2	-45.1	17.6	0.00e+00	0	58	0	1343225856	50	4149
2026-01-04 00:59:07.48	211.72	19.30	-44.4	-45.3	17.4	0.00e+00	0	57	0	1352663040	50	4247
2026-01-04 00:59:10.45	211.69	18.93	-44.6	-45.6	17.1	0.00e+00	0	58	0	1362100224	51	4154
2026-01-04 00:59:13.41	211.67	18.56	-44.5	-45.4	17.3	0.00e+00	0	58	0	1370488832	51	4076
2026-01-04 00:59:16.37	211.65	18.19	-44.7	-45.7	17.0	0.00e+00	0	58	0	1379926016	51	4219
2026-01-04 00:59:19.33	211.63	17.84	-44.8	-45.8	16.9	0.00e+00	0	58	0	1389363200	51	4255
2026-01-04 00:59:22.29	211.60	17.48	-44.9	-46.0	16.7	0.00e+00	0	58	0	1398800384	51	4351
2026-01-04 00:59:25.26	211.58	17.13	-45.2	-46.2	16.3	0.00e+00	0	58	0	1408237568	52	4239
2026-01-04 00:59:28.23	211.57	16.79	-45.1	-46.2	16.4	0.00e+00	0	58	0	1417674752	52	4225
2026-01-04 00:59:31.20	211.55	16.45	-45.3	-46.4	16.2	0.00e+00	0	58	0	1426063360	52	4312
2026-01-04 00:59:34.16	211.53	16.12	-45.1	-46.2	16.3	0.00e+00	0	58	0	1435500544	52	4228
2026-01-04 00:59:37.12	211.51	15.79	-45.3	-46.4	16.1	0.00e+00	0	58	0	1444937728	52	4318
2026-01-04 00:59:40.09	211.49	15.46	-45.0	-46.0	16.5	0.00e+00	0	58	0	1454374912	52	4143
2026-01-04 00:59:43.06	211.48	15.14	-45.4	-46.5	16.0	0.00e+00	0	58	0	1463812096	52	4391
2026-01-04 00:59:46.03	211.46	14.83	-45.3	-46.5	16.0	0.00e+00	0	58	0	1472200704	52	4379
2026-01-04 00:59:49.00	211.45	14.51	-45.1	-46.2	16.3	0.00e+00	0	58	0	1481637888	52	4219
2026-01-04 00:59:51.96	211.43	14.20	-45.3	-46.4	16.1	0.00e+00	0	58	0	1491075072	52	4315
2026-01-04 00:59:54.93	211.42	13.90	-45.4	-46.5	15.9	0.00e+00	0	58	0	1500512256	52	4381
2026-01-04 00:59:57.90	211.40	13.60	-45.3	-46.4	16.1	0.00e+00	0	58	0	1509949440	52	4319
2026-01-04 01:00:00.86	211.39	13.30	-45.4	-46.6	15.9	0.00e+00	0	58	0	1519386624	52	4411
2026-01-04 01:00:03.83	211.38	13.01	-45.3	-46.4	16.0	0.00e+00	0	58	0	1528823808	52	4319
2026-01-04 01:00:06.80	211.37	12.72	-45.3	-46.5	15.9	0.00e+00	0	58	0	1537212416	52	4373
2026-01-04 01:00:09.77	211.35	12.43	-45.6	-46.8	15.6	0.00e+00	0	58	0	1546649600	52	4505
2026-01-04 01:00:12.75	211.34	12.14	-45.6	-46.8	15.5	0.00e+00	0	58	0	1556086784	53	4281
2026-01-04 01:00:15.73	211.33	11.86	-45.8	-47.1	15.3	0.00e+00	0	58	0	1565523968	53	4435
2026-01-04 01:00:18.70	211.32	11.59	-45.8	-47.1	15.2	7.00e-07	0	58	0	1574961152	53	4441
2026-01-04 01:00:21.66	211.31	11.31	-45.6	-46.8	15.5	0.00e+00	0	58	0	1584398336	53	4273
2026-01-04 01:00:24.63	211.30	11.04	-45.8	-47.2	15.2	0.00e+00	0	58	0	1593835520	53	4446
2026-01-04 01:00:27.59	211.29	10.77	-45.9	-47.3	15.1	0.00e+00	0	58	0	1602224128	54	4246
2026-01-04 01:00:30.55	211.28	10.51	-46.1	-47.5	14.9	0.00e+00	0	58	0	1611661312	54	4353
2026-01-04 01:00:33.52	211.27	10.25	-46.1	-47.5	14.8	0.00e+00	0	58	0	1621098496	54	4378
2026-01-04 01:00:36.48	211.27	9.99	-46.4	-47.9	14.4	1.50e-06	0	58	0	1630535680	54	4577
2026-01-04 01:00:39.46	211.26	9.73	-46.7	-48.3	14.0	3.80e-06	0	58	0	1639972864	55	4527
2026-01-04 01:00:42.43	211.25	9.47	-46.7	-48.4	13.9	4.50e-06	0	58	0	1649410048	55	4567
2026-01-04 01:00:45.39	211.24	9.22	-46.5	-48.1	14.2	1.50e-06	0	58	0	1658847232	55	4414
2026-01-04 01:00:48.36	211.23	8.97	-46.2	-47.6	14.6	0.00e+00	0	58	0	1667235840	55	4176
2026-01-04 01:00:51.33	211.23	8.73	-46.3	-47.7	14.5	1.50e-06	0	58	0	1676673024	55	4229
2026-01-04 01:00:54.32	211.22	8.48	-46.6	-48.1	14.1	2.20e-06	0	58	0	1686110208	55	4425
2026-01-04 01:00:57.28	211.21	8.24	-46.5	-48.0	14.2	2.20e-06	0	58	0	1695547392	55	4379
2026-01-04 01:01:00.26	211.21	8.00	-46.7	-48.4	13.8	2.20e-06	0	58	0	1704984576	55	4562
2026-01-04 01:01:03.22	211.20	7.76	-46.8	-48.5	13.6	2.20e-06	0	58	0	1714421760	55	4644
2026-01-04 01:01:06.19	211.20	7.53	-47.2	-49.0	13.2	2.51e-05	0	58	0	1723858944	56	4637
2026-01-04 01:01:09.16	211.19	7.29	-46.9	-48.6	13.7	9.10e-06	0	58	0	1732247552	56	4394
2026-01-04 01:01:12.13	211.19	7.06	-47.1	-48.9	13.3	1.52e-05	0	58	0	1741684736	56	4555
2026-01-04 01:01:15.11	211.18	6.83	-47.0	-48.7	13.4	7.60e-06	0	58	0	1751121920	56	4474
2026-01-04 01:01:18.09	211.18	6.60	-46.8	-48.6	13.6	6.80e-06	0	58	0	1760559104	56	4415
2026-01-04 01:01:21.05	211.17	6.38	-47.1	-49.0	13.0	2.82e-05	0	58	0	1769996288	56	4647
2026-01-04 01:01:24.03	211.17	6.16	-47.2	-49.1	13.0	3.66e-05	0	58	0	1779433472	56	4688
2026-01-04 01:01:27.00	211.16	5.93	-47.4	-49.3	12.7	6.63e-05	0	58	0	1787822080	56	4799
2026-01-04 01:01:29.95	211.16	5.72	-47.4	-49.3	12.7	7.09e-05	0	58	0	1797259264	56	4803
2026-01-04 01:01:32.91	211.16	5.50	-47.3	-49.4	12.6	1.09e-04	0	58	0	1806696448	57	4551
2026-01-04 01:01:35.87	211.15	5.28	-47.5	-49.6	12.3	1.33e-04	0	58	0	1816133632	57	4699
2026-01-04 01:01:38.84	211.15	5.07	-48.6	-51.4	10.5	1.76e-04	0	58	0	1825570816	58	5456
2026-01-04 01:01:41.81	211.15	4.86	-51.8	-63.3	3.8	1.49e+00	0	58	104	1826619392	65	14210
2026-01-04 01:01:44.77	211.15	4.65	-52.3	-63.8	3.8	1.49e+00	0	58	104	1826619392	66	14271
2026-01-04 01:01:47.74	211.14	4.44	-52.4	-63.9	3.8	1.49e+00	0	58	104	1826619392	66	14434
2026-01-04 01:01:50.72	211.14	4.23	-52.5	-63.9	3.8	1.49e+00	0	58	104	1826619392	66	14508
2026-01-04 01:01:53.67	211.14	4.03	-52.5	-64.0	3.8	1.49e+00	0	58	104	1826619392	66	14593
2026-01-04 01:01:56.65	211.14	3.82	-52.6	-64.0	3.8	1.49e+00	0	58	104	1826619392	67	13861
2026-01-04 01:01:59.62	211.13	3.62	-52.6	-64.1	3.8	1.49e+00	0	58	104	1826619392	67	13895
2026-01-04 01:02:02.59	211.13	3.42	-52.7	-64.1	3.8	1.49e+00	0	58	104	1826619392	67	13951
2026-01-04 01:02:05.54	211.13	3.22	-52.6	-64.1	3.8	1.49e+00	0	58	104	1826619392	67	13941
2026-01-04 01:02:08.51	211.13	3.02	-52.6	-64.1	3.8	1.49e+00	0	58	104	1826619392	67	13894

#Closed at: 2026-01-04 01:02:09
#Recorded file [1826 MB]: D:/Data/31026_260104_040139.dat