passes_logs/2026/01/04/R3.0SM8_Murmansk_STILSPACE/R3.0SM8_Murmansk_STILSPACE__20260104_172804_FENGYUN_3E_rec.log

#Pass ID: 20260104_172804_FENGYUN 3E
#Satellite: FENGYUN 3E
#Configuration: FENGYUN 3E
#almurnet v.1.7.20240730
#Start time: 2026-01-04 17:28:05

#Version: 2.2.20231116
#Station: R3.0SM8_Murmansk_STILSPACE
#Location: 33.092731 lon 68.902999 lat
#TLE: 1 49008U 21062A   26004.01270550 -.00000256  00000+0 -10014-3 0  9997
#TLE: 2 49008  98.7472   9.2701 0001499 161.2681 198.8551 14.19882497233285

#Time	Az	El	Level	Level2	SNR	BER	BlckErr	Temp	State	Recorded	gain1	gain2
2026-01-04 17:28:05.47	250.72	3.03	-52.6	-62.8	3.8	8.46e-01	0	46	0	0	67	11891
2026-01-04 17:28:08.44	251.05	3.15	-52.6	-62.9	3.8	8.46e-01	0	47	104	0	68	11358
2026-01-04 17:28:11.41	251.38	3.28	-52.5	-62.8	3.8	8.45e-01	0	47	104	0	67	11829
2026-01-04 17:28:14.40	251.71	3.40	-52.4	-62.7	3.8	8.46e-01	0	47	104	0	67	11777
2026-01-04 17:28:17.38	252.05	3.53	-52.4	-62.7	3.8	8.47e-01	0	47	104	0	67	11721
2026-01-04 17:28:20.34	252.39	3.65	-52.3	-62.6	3.8	8.46e-01	0	47	104	0	67	11613
2026-01-04 17:28:23.31	252.73	3.77	-52.1	-62.4	3.8	8.46e-01	0	48	104	0	67	11329
2026-01-04 17:28:26.27	253.07	3.90	-51.5	-61.7	3.8	8.46e-01	0	48	104	0	65	11796
2026-01-04 17:28:29.22	253.42	4.02	-51.4	-61.4	3.8	8.47e-01	0	48	104	0	65	11291
2026-01-04 17:28:32.20	253.77	4.14	-51.4	-61.5	3.8	8.46e-01	0	48	104	0	65	11501
2026-01-04 17:28:35.17	254.12	4.26	-51.5	-61.5	3.8	8.46e-01	0	49	104	0	65	11487
2026-01-04 17:28:38.14	254.48	4.39	-51.4	-61.4	3.8	8.46e-01	0	49	104	0	65	11288
2026-01-04 17:28:41.12	254.84	4.51	-51.4	-61.5	3.8	8.46e-01	0	49	104	0	65	11490
2026-01-04 17:28:44.10	255.20	4.63	-51.5	-61.6	3.8	8.47e-01	0	49	104	0	65	11560
2026-01-04 17:28:47.07	255.56	4.75	-51.0	-58.9	3.9	8.44e-01	0	49	104	0	65	8496
2026-01-04 17:28:50.05	255.93	4.87	-49.5	-53.3	7.1	1.67e-01	0	49	0	6291456	62	5338
2026-01-04 17:28:53.03	256.30	4.99	-47.0	-48.8	11.9	7.09e-04	0	49	0	28311552	57	4212
2026-01-04 17:28:56.00	256.68	5.11	-46.6	-48.3	11.8	1.27e-04	0	50	0	49283072	55	4448
2026-01-04 17:28:58.97	257.05	5.23	-45.5	-46.8	13.8	9.10e-06	0	50	0	70254592	54	3975
2026-01-04 17:29:01.93	257.43	5.35	-44.9	-46.0	14.6	0.00e+00	0	50	0	92274688	52	4098
2026-01-04 17:29:04.91	257.81	5.47	-44.9	-46.0	14.6	0.00e+00	0	50	0	113246208	52	4095
2026-01-04 17:29:07.88	258.20	5.58	-44.9	-46.1	14.6	0.00e+00	0	50	0	135266304	52	4124
2026-01-04 17:29:10.85	258.59	5.70	-45.0	-46.2	14.6	1.10e-06	0	51	0	156237824	52	4154
2026-01-04 17:29:13.83	258.98	5.82	-44.9	-46.1	14.7	0.00e+00	0	51	0	178257920	52	4113
2026-01-04 17:29:16.79	259.37	5.93	-45.2	-46.4	14.4	1.10e-06	0	51	0	199229440	52	4275
2026-01-04 17:29:19.76	259.77	6.05	-44.9	-46.0	14.8	0.00e+00	0	51	0	220200960	52	4076
2026-01-04 17:29:22.71	260.16	6.16	-44.8	-45.9	14.8	0.00e+00	0	51	0	242221056	52	4050
2026-01-04 17:29:25.68	260.57	6.28	-44.8	-45.9	14.9	0.00e+00	0	51	0	263192576	52	4016
2026-01-04 17:29:28.64	260.97	6.39	-44.9	-46.0	14.9	0.00e+00	0	51	0	285212672	52	4060
2026-01-04 17:29:31.59	261.38	6.50	-44.7	-45.7	15.1	0.00e+00	0	52	0	306184192	52	3936
2026-01-04 17:29:34.56	261.79	6.61	-44.6	-45.6	15.2	0.00e+00	0	52	0	327155712	52	3906
2026-01-04 17:29:37.53	262.20	6.72	-44.5	-45.5	15.5	0.00e+00	0	52	0	349175808	51	4061
2026-01-04 17:29:40.51	262.62	6.83	-44.5	-45.5	15.5	0.00e+00	0	52	0	370147328	51	4074
2026-01-04 17:29:43.48	263.04	6.94	-44.4	-45.4	15.6	0.00e+00	0	52	0	392167424	51	4025
2026-01-04 17:29:46.45	263.46	7.05	-44.8	-45.9	15.2	0.00e+00	0	52	0	413138944	51	4251
2026-01-04 17:29:49.42	263.89	7.16	-44.5	-45.5	15.5	0.00e+00	0	52	0	434110464	51	4087
2026-01-04 17:29:52.39	264.32	7.27	-44.4	-45.3	15.6	0.00e+00	0	52	0	456130560	51	3997
2026-01-04 17:29:55.36	264.75	7.37	-44.3	-45.2	15.8	0.00e+00	0	52	0	477102080	51	3943
2026-01-04 17:29:58.33	265.19	7.48	-44.6	-45.5	15.4	0.00e+00	0	52	0	499122176	51	4097
2026-01-04 17:30:01.31	265.63	7.58	-44.7	-45.7	15.3	0.00e+00	0	53	0	520093696	51	4155
2026-01-04 17:30:04.27	266.07	7.68	-44.7	-45.7	15.3	0.00e+00	0	53	0	542113792	51	4169
2026-01-04 17:30:07.23	266.51	7.79	-44.7	-45.7	15.2	0.00e+00	0	53	0	563085312	51	4192
2026-01-04 17:30:10.20	266.96	7.89	-44.5	-45.5	15.4	0.00e+00	0	53	0	585105408	51	4092
2026-01-04 17:30:13.17	267.41	7.99	-44.6	-45.6	15.2	0.00e+00	0	53	0	606076928	51	4121
2026-01-04 17:30:16.13	267.86	8.08	-44.8	-46.0	14.7	0.00e+00	0	53	0	628097024	51	4294
2026-01-04 17:30:19.10	268.32	8.18	-45.1	-46.4	14.0	1.10e-06	0	53	0	649068544	51	4517
2026-01-04 17:30:22.07	268.78	8.28	-45.3	-46.6	13.6	9.10e-06	0	53	0	671088640	52	4380
2026-01-04 17:30:25.04	269.24	8.37	-45.7	-47.3	12.8	6.63e-05	0	53	0	692060160	53	4459
2026-01-04 17:30:28.00	269.71	8.47	-45.6	-47.3	12.5	1.20e-04	0	53	0	713031680	53	4448
2026-01-04 17:30:30.96	270.17	8.56	-45.6	-47.3	12.3	1.97e-04	0	54	0	734003200	53	4442
2026-01-04 17:30:33.93	270.64	8.65	-45.6	-47.3	12.2	2.44e-04	0	54	0	756023296	53	4457
2026-01-04 17:30:36.90	271.12	8.74	-45.5	-47.2	12.3	1.72e-04	0	54	0	776994816	53	4399
2026-01-04 17:30:39.86	271.59	8.83	-45.5	-47.2	12.3	2.41e-04	0	54	0	799014912	53	4396
2026-01-04 17:30:42.84	272.07	8.91	-45.5	-47.2	12.4	2.00e-04	0	54	0	819986432	53	4415
2026-01-04 17:30:45.81	272.56	9.00	-44.6	-46.0	13.4	1.48e-05	0	54	0	842006528	52	4072
2026-01-04 17:30:48.79	273.04	9.08	-44.5	-45.8	13.9	9.10e-06	0	54	0	862978048	51	4195
2026-01-04 17:30:51.75	273.53	9.17	-44.7	-45.9	13.8	4.50e-06	0	54	0	884998144	51	4289
2026-01-04 17:30:54.73	274.02	9.25	-44.8	-46.1	13.9	1.10e-06	0	54	0	905969664	51	4341
2026-01-04 17:30:57.69	274.51	9.33	-44.5	-45.7	14.4	0.00e+00	0	54	0	927989760	51	4192
2026-01-04 17:31:00.65	275.01	9.41	-44.1	-45.2	14.9	0.00e+00	0	54	0	948961280	51	3933
2026-01-04 17:31:03.63	275.51	9.48	-44.2	-45.2	15.0	0.00e+00	0	54	0	970981376	51	3949
2026-01-04 17:31:06.59	276.00	9.56	-43.8	-44.8	15.6	0.00e+00	0	54	0	991952896	50	3961
2026-01-04 17:31:09.56	276.51	9.63	-43.9	-45.0	15.4	0.00e+00	0	54	0	1012924416	50	4066
2026-01-04 17:31:12.53	277.01	9.70	-44.0	-45.0	15.5	0.00e+00	0	54	0	1034944512	50	4071
2026-01-04 17:31:15.49	277.52	9.77	-44.0	-45.0	15.6	0.00e+00	0	54	0	1055916032	50	4072
2026-01-04 17:31:18.47	278.03	9.84	-44.1	-45.1	15.6	0.00e+00	0	55	0	1076887552	50	4128
2026-01-04 17:31:21.43	278.54	9.90	-44.1	-45.0	15.8	0.00e+00	0	55	0	1098907648	50	4095
2026-01-04 17:31:24.39	279.05	9.97	-44.3	-45.3	15.5	0.00e+00	0	55	0	1119879168	50	4206
2026-01-04 17:31:27.36	279.57	10.03	-44.3	-45.4	15.5	0.00e+00	0	55	0	1141899264	50	4243
2026-01-04 17:31:30.33	280.09	10.09	-44.1	-45.0	15.8	0.00e+00	0	55	0	1162870784	50	4084
2026-01-04 17:31:33.31	280.61	10.15	-44.1	-45.1	15.8	0.00e+00	0	55	0	1184890880	50	4114
2026-01-04 17:31:36.28	281.13	10.21	-44.1	-45.0	15.8	0.00e+00	0	55	0	1205862400	50	4098
2026-01-04 17:31:39.25	281.66	10.26	-44.3	-45.3	15.6	0.00e+00	0	55	0	1227882496	50	4228
2026-01-04 17:31:42.22	282.18	10.31	-44.3	-45.2	15.8	0.00e+00	0	55	0	1248854016	50	4175
2026-01-04 17:31:45.18	282.71	10.36	-43.8	-44.7	16.4	0.00e+00	0	55	0	1270874112	50	3914
2026-01-04 17:31:48.16	283.24	10.41	-43.8	-44.7	16.3	0.00e+00	0	55	0	1291845632	50	3934
2026-01-04 17:31:51.11	283.77	10.46	-43.8	-44.7	16.2	0.00e+00	0	55	0	1312817152	50	3933
2026-01-04 17:31:54.08	284.30	10.50	-44.1	-45.0	15.7	0.00e+00	0	55	0	1334837248	50	4091
2026-01-04 17:31:57.05	284.83	10.54	-44.2	-45.2	15.3	0.00e+00	0	55	0	1355808768	50	4193
2026-01-04 17:32:00.02	285.37	10.58	-44.8	-46.0	14.3	1.10e-06	0	55	0	1377828864	51	4335
2026-01-04 17:32:03.00	285.91	10.62	-45.2	-46.6	13.4	1.94e-05	0	55	0	1398800384	52	4377
2026-01-04 17:32:05.96	286.45	10.66	-45.9	-47.5	12.2	1.70e-04	0	55	0	1419771904	53	4593
2026-01-04 17:32:08.93	286.99	10.69	-46.4	-48.3	11.4	1.11e-03	0	55	0	1441792000	54	4730
2026-01-04 17:32:11.91	287.53	10.72	-47.0	-49.3	10.3	4.81e-03	0	56	0	1462763520	55	5026
2026-01-04 17:32:14.89	288.07	10.75	-47.0	-49.3	10.4	5.40e-03	0	55	0	1484783616	55	4998
2026-01-04 17:32:17.87	288.62	10.78	-47.1	-49.4	10.3	5.63e-03	0	55	0	1505755136	55	5054
2026-01-04 17:32:20.83	289.16	10.80	-46.5	-48.5	11.3	1.42e-03	0	56	0	1527775232	55	4558
2026-01-04 17:32:23.80	289.70	10.83	-46.3	-48.1	11.7	6.16e-04	0	56	0	1548746752	55	4380
2026-01-04 17:32:26.78	290.25	10.85	-45.6	-47.0	13.1	3.54e-05	0	56	0	1570766848	54	4088
2026-01-04 17:32:29.73	290.79	10.86	-45.1	-46.4	14.1	2.20e-06	0	56	0	1591738368	53	4013
2026-01-04 17:32:32.69	291.34	10.88	-45.1	-46.3	14.3	4.50e-06	0	56	0	1613758464	53	3981
2026-01-04 17:32:35.65	291.88	10.89	-45.0	-46.2	14.4	2.20e-06	0	56	0	1634729984	52	4168
2026-01-04 17:32:38.63	292.43	10.90	-44.6	-45.7	14.9	0.00e+00	0	56	0	1656750080	52	3932
2026-01-04 17:32:41.60	292.98	10.91	-44.8	-45.9	14.7	0.00e+00	0	56	0	1677721600	52	4036
2026-01-04 17:32:44.57	293.53	10.92	-44.5	-45.6	15.1	0.00e+00	0	56	0	1698693120	52	3884
2026-01-04 17:32:47.53	294.07	10.92	-44.2	-45.2	15.6	0.00e+00	0	56	0	1720713216	51	3930
2026-01-04 17:32:50.49	294.62	10.92	-44.1	-45.1	15.7	0.00e+00	0	56	0	1741684736	51	3890
2026-01-04 17:32:53.46	295.17	10.92	-44.2	-45.2	15.7	0.00e+00	0	56	0	1762656256	51	3941
2026-01-04 17:32:56.43	295.72	10.92	-44.4	-45.3	15.5	0.00e+00	0	56	0	1784676352	51	3999
2026-01-04 17:32:59.40	296.27	10.92	-44.6	-45.7	15.1	0.00e+00	0	56	0	1805647872	51	4186
2026-01-04 17:33:02.36	296.81	10.91	-44.8	-45.9	14.7	2.20e-06	0	56	0	1827667968	51	4276
2026-01-04 17:33:05.34	297.36	10.90	-44.5	-45.6	14.9	1.10e-06	0	56	0	1848639488	51	4120
2026-01-04 17:33:08.30	297.91	10.89	-44.3	-45.4	15.0	0.00e+00	0	56	0	1870659584	51	4034
2026-01-04 17:33:11.27	298.45	10.87	-44.4	-45.5	14.9	0.00e+00	0	56	0	1891631104	51	4067
2026-01-04 17:33:14.25	299.00	10.86	-44.0	-45.0	15.5	0.00e+00	0	56	0	1913651200	50	4079
2026-01-04 17:33:17.22	299.55	10.84	-44.0	-44.9	15.7	0.00e+00	0	56	0	1934622720	50	4034
2026-01-04 17:33:20.18	300.09	10.82	-43.7	-44.6	16.0	0.00e+00	0	56	0	1956642816	50	3897
2026-01-04 17:33:23.15	300.63	10.79	-43.7	-44.6	16.2	0.00e+00	0	56	0	1977614336	50	3869
2026-01-04 17:33:26.12	301.17	10.77	-43.6	-44.5	16.3	0.00e+00	0	56	0	1998585856	50	3852
2026-01-04 17:33:29.09	301.72	10.74	-43.4	-44.2	16.7	0.00e+00	0	56	0	2020605952	49	3953
2026-01-04 17:33:32.06	302.26	10.71	-43.4	-44.2	16.9	0.00e+00	0	56	0	2041577472	49	3927
2026-01-04 17:33:35.04	302.80	10.68	-43.3	-44.1	17.0	0.00e+00	0	57	0	2063597568	49	3897
2026-01-04 17:33:38.00	303.34	10.64	-43.2	-43.9	17.2	0.00e+00	0	56	0	2084569088	49	3824
2026-01-04 17:33:40.98	303.87	10.60	-43.2	-43.9	17.3	0.00e+00	0	57	0	2106589184	49	3801
2026-01-04 17:33:43.95	304.41	10.56	-43.1	-43.9	17.3	0.00e+00	0	56	0	2127560704	49	3793
2026-01-04 17:33:46.91	304.94	10.52	-43.4	-44.1	17.1	0.00e+00	0	57	0	2148532224	49	3907
2026-01-04 17:33:49.88	305.48	10.48	-43.6	-44.4	16.9	0.00e+00	0	57	0	2170552320	49	4017
2026-01-04 17:33:52.86	306.01	10.44	-43.8	-44.7	16.6	0.00e+00	0	57	0	2191523840	49	4163
2026-01-04 17:33:55.83	306.54	10.39	-43.7	-44.6	16.7	0.00e+00	0	56	0	2213543936	49	4107
2026-01-04 17:33:58.80	307.07	10.34	-43.8	-44.7	16.6	0.00e+00	0	57	0	2234515456	49	4162
2026-01-04 17:34:01.77	307.59	10.29	-43.8	-44.7	16.6	0.00e+00	0	57	0	2256535552	49	4165
2026-01-04 17:34:04.73	308.11	10.23	-43.6	-44.5	16.8	0.00e+00	0	57	0	2277507072	49	4063
2026-01-04 17:34:07.69	308.64	10.18	-43.7	-44.5	16.7	0.00e+00	0	57	0	2299527168	49	4092
2026-01-04 17:34:10.68	309.16	10.12	-43.7	-44.5	16.7	0.00e+00	0	57	0	2320498688	50	3853
2026-01-04 17:34:13.65	309.68	10.06	-43.4	-44.2	17.0	0.00e+00	0	57	0	2342518784	49	3953
2026-01-04 17:34:16.63	310.20	10.00	-43.6	-44.3	16.9	0.00e+00	0	57	0	2363490304	49	4001
2026-01-04 17:34:19.59	310.71	9.94	-43.6	-44.5	16.7	0.00e+00	0	57	0	2385510400	49	4060
2026-01-04 17:34:22.56	311.22	9.87	-43.6	-44.4	16.8	0.00e+00	0	57	0	2406481920	49	4033
2026-01-04 17:34:25.53	311.73	9.81	-43.6	-44.4	16.8	0.00e+00	0	57	0	2428502016	49	4039
2026-01-04 17:34:28.49	312.24	9.74	-44.1	-45.0	16.2	0.00e+00	0	57	0	2449473536	49	4315
2026-01-04 17:34:31.44	312.74	9.67	-44.1	-45.0	16.2	0.00e+00	0	57	0	2470445056	50	4094
2026-01-04 17:34:34.40	313.24	9.60	-44.5	-45.4	15.8	0.00e+00	0	57	0	2491416576	50	4289
2026-01-04 17:34:37.36	313.74	9.52	-44.1	-44.9	16.3	0.00e+00	0	57	0	2513436672	51	3819
2026-01-04 17:34:40.33	314.24	9.45	-44.3	-45.2	16.1	0.00e+00	0	57	0	2534408192	50	4171
2026-01-04 17:34:43.30	314.73	9.37	-44.2	-45.1	16.2	0.00e+00	0	57	0	2556428288	50	4121
2026-01-04 17:34:46.27	315.22	9.29	-44.0	-44.8	16.3	0.00e+00	0	57	0	2577399808	50	4002
2026-01-04 17:34:49.24	315.71	9.21	-44.0	-44.9	16.3	0.00e+00	0	57	0	2599419904	50	4014
2026-01-04 17:34:52.20	316.20	9.13	-43.9	-44.7	16.5	0.00e+00	0	57	0	2620391424	50	3934
2026-01-04 17:34:55.17	316.68	9.05	-44.1	-45.0	16.3	0.00e+00	0	57	0	2641362944	50	4053
2026-01-04 17:34:58.14	317.17	8.97	-44.3	-45.2	16.0	0.00e+00	0	57	0	2663383040	50	4173
2026-01-04 17:35:01.11	317.65	8.88	-44.2	-45.1	16.1	0.00e+00	0	57	0	2684354560	50	4104
2026-01-04 17:35:04.08	318.12	8.79	-44.2	-45.2	16.0	0.00e+00	0	57	0	2706374656	50	4156
2026-01-04 17:35:07.04	318.60	8.71	-44.3	-45.2	16.0	0.00e+00	0	57	0	2727346176	50	4166
2026-01-04 17:35:10.01	319.07	8.62	-44.0	-44.9	16.3	0.00e+00	0	57	0	2749366272	50	4036
2026-01-04 17:35:12.98	319.54	8.52	-43.9	-44.8	16.4	0.00e+00	0	57	0	2770337792	50	3984
2026-01-04 17:35:15.95	320.00	8.43	-44.0	-44.9	16.3	0.00e+00	0	57	0	2791309312	50	4013
2026-01-04 17:35:18.92	320.46	8.34	-44.0	-44.8	16.3	0.00e+00	0	57	0	2813329408	50	4001
2026-01-04 17:35:21.88	320.92	8.24	-44.2	-45.2	16.0	0.00e+00	0	57	0	2834300928	50	4152
2026-01-04 17:35:24.87	321.38	8.15	-44.4	-45.4	15.7	0.00e+00	0	57	0	2856321024	50	4277
2026-01-04 17:35:27.83	321.83	8.05	-44.5	-45.5	15.7	0.00e+00	0	57	0	2877292544	51	4062
2026-01-04 17:35:30.80	322.29	7.95	-44.7	-45.7	15.4	0.00e+00	0	57	0	2899312640	51	4181
2026-01-04 17:35:33.77	322.73	7.85	-44.7	-45.8	15.3	0.00e+00	0	57	0	2920284160	51	4209
2026-01-04 17:35:36.75	323.18	7.75	-44.6	-45.6	15.5	0.00e+00	0	57	0	2942304256	51	4100
2026-01-04 17:35:39.73	323.62	7.65	-44.9	-46.0	15.1	0.00e+00	0	57	0	2963275776	51	4316
2026-01-04 17:35:42.71	324.06	7.54	-44.5	-45.5	15.5	0.00e+00	0	57	0	2985295872	51	4074
2026-01-04 17:35:45.68	324.50	7.44	-44.6	-45.6	15.5	0.00e+00	0	57	0	3006267392	51	4110
2026-01-04 17:35:48.66	324.93	7.34	-44.6	-45.7	15.4	0.00e+00	0	57	0	3028287488	51	4151
2026-01-04 17:35:51.63	325.36	7.23	-44.7	-45.8	15.2	0.00e+00	0	58	0	3049259008	51	4225
2026-01-04 17:35:54.60	325.79	7.12	-44.7	-45.8	15.3	0.00e+00	0	57	0	3071279104	51	4214
2026-01-04 17:35:57.57	326.22	7.02	-44.9	-45.9	15.1	0.00e+00	0	57	0	3092250624	51	4275
2026-01-04 17:36:00.54	326.64	6.91	-45.0	-46.2	14.9	0.00e+00	0	57	0	3114270720	51	4400
2026-01-04 17:36:03.51	327.05	6.80	-44.9	-46.0	15.0	0.00e+00	0	57	0	3135242240	51	4306
2026-01-04 17:36:06.48	327.47	6.69	-44.8	-45.9	15.1	0.00e+00	0	58	0	3156213760	51	4270
2026-01-04 17:36:09.43	327.88	6.58	-44.6	-45.7	15.3	0.00e+00	0	57	0	3178233856	51	4149
2026-01-04 17:36:12.39	328.29	6.47	-44.7	-45.8	15.2	0.00e+00	0	58	0	3199205376	51	4211
2026-01-04 17:36:15.37	328.69	6.36	-45.1	-46.2	14.8	0.00e+00	0	58	0	3220176896	51	4423
2026-01-04 17:36:18.33	329.10	6.24	-44.7	-45.7	15.1	0.00e+00	0	58	0	3242196992	51	4181
2026-01-04 17:36:21.30	329.50	6.13	-44.9	-46.0	14.9	0.00e+00	0	57	0	3263168512	51	4309
2026-01-04 17:36:24.25	329.89	6.02	-45.0	-46.1	14.7	1.10e-06	0	57	0	3285188608	52	4140
2026-01-04 17:36:27.23	330.29	5.90	-45.2	-46.4	14.4	0.00e+00	0	57	0	3306160128	52	4249
2026-01-04 17:36:30.20	330.68	5.79	-45.4	-46.6	14.1	1.10e-06	0	58	0	3328180224	52	4379
2026-01-04 17:36:33.17	331.06	5.67	-44.9	-46.0	14.7	0.00e+00	0	58	0	3349151744	52	4098
2026-01-04 17:36:36.13	331.45	5.56	-44.9	-46.0	14.7	0.00e+00	0	57	0	3371171840	52	4085
2026-01-04 17:36:39.10	331.83	5.44	-44.7	-45.8	14.9	0.00e+00	0	57	0	3392143360	52	3983
2026-01-04 17:36:42.06	332.21	5.32	-44.8	-46.0	14.7	0.00e+00	0	58	0	3413114880	52	4062
2026-01-04 17:36:45.03	332.59	5.20	-45.3	-46.6	14.1	1.10e-06	0	57	0	3435134976	52	4372
2026-01-04 17:36:47.99	332.96	5.09	-45.0	-46.2	14.4	1.10e-06	0	58	0	3456106496	52	4174
2026-01-04 17:36:50.95	333.33	4.97	-51.5	-61.2	3.8	8.47e-01	0	57	104	3471835136	64	11717
2026-01-04 17:36:53.92	333.69	4.85	-52.0	-62.4	3.8	8.45e-01	0	57	104	3471835136	65	12739
2026-01-04 17:36:56.89	334.06	4.73	-52.2	-62.6	3.8	8.47e-01	0	58	104	3471835136	66	12280
2026-01-04 17:36:59.86	334.42	4.61	-52.5	-62.7	3.8	8.46e-01	0	58	104	3471835136	66	12408
2026-01-04 17:37:02.82	334.78	4.49	-52.6	-62.8	3.8	8.47e-01	0	58	104	3471835136	66	12604
2026-01-04 17:37:05.78	335.13	4.37	-52.7	-62.9	3.8	8.46e-01	0	58	104	3471835136	67	12002
2026-01-04 17:37:08.75	335.49	4.25	-52.7	-62.9	3.8	8.45e-01	0	58	104	3471835136	67	12017
2026-01-04 17:37:11.71	335.84	4.13	-52.8	-62.9	3.8	8.45e-01	0	58	104	3471835136	67	12030
2026-01-04 17:37:14.68	336.19	4.00	-52.6	-62.9	3.8	8.46e-01	0	58	104	3471835136	67	12059
2026-01-04 17:37:17.65	336.53	3.88	-52.7	-62.9	3.8	8.46e-01	0	58	104	3471835136	67	12069
2026-01-04 17:37:20.62	336.87	3.76	-52.7	-62.9	3.8	8.47e-01	0	58	104	3471835136	67	12053
2026-01-04 17:37:23.59	337.21	3.64	-52.7	-62.9	3.8	8.46e-01	0	58	104	3471835136	67	12033
2026-01-04 17:37:26.57	337.55	3.51	-52.7	-62.9	3.8	8.46e-01	0	58	104	3471835136	67	12058
2026-01-04 17:37:29.53	337.88	3.39	-52.7	-62.9	3.8	8.47e-01	0	58	104	3471835136	67	12061
2026-01-04 17:37:32.50	338.22	3.27	-52.7	-62.9	3.8	8.46e-01	0	58	104	3471835136	67	12032
2026-01-04 17:37:35.48	338.55	3.15	-52.6	-62.9	3.8	8.46e-01	0	58	104	3471835136	67	12073
2026-01-04 17:37:38.44	338.87	3.02	-52.8	-62.9	3.8	8.46e-01	0	58	104	3471835136	67	12035

#Closed at: 2026-01-04 17:37:40
#Recorded file [3471 MB]: D:/Data/31026_260104_203650.dat