passes_logs/2026/01/04/R3.0SM8_Murmansk_STILSPACE/R3.0SM8_Murmansk_STILSPACE__20260104_022826_NOAA_21_JPSS-2_rec.log

#Pass ID: 20260104_022826_NOAA 21 (JPSS-2)
#Satellite: NOAA 21 (JPSS-2)
#Configuration: NOAA-21
#almurnet v.1.7.20240730
#Start time: 2026-01-04 02:37:17

#Version: 2.2.20231116
#Station: R3.0SM8_Murmansk_STILSPACE
#Location: 33.092731 lon 68.902999 lat
#TLE: 1 54234U 22150A   26003.45311712  .00000198  00000+0  11468-3 0  9993
#TLE: 2 54234  98.7487 304.4932 0001159 347.5017  12.6130 14.19531745163172

#Time	Az	El	Level	Level2	SNR	BER	BlckErr	Temp	State	Recorded	gain1	gain2
2026-01-04 02:37:17.15	275.49	26.94	-52.6	-62.8	3.8	8.45e-01	0	58	0	0	67	11932
2026-01-04 02:37:19.13	275.07	26.70	-52.9	-64.3	3.8	1.49e+00	0	59	104	0	68	13511
2026-01-04 02:37:21.11	274.66	26.45	-52.9	-64.3	3.8	1.49e+00	0	59	104	0	68	13558
2026-01-04 02:37:23.09	274.25	26.21	-52.9	-64.3	3.8	1.49e+00	0	58	104	0	68	13556
2026-01-04 02:37:25.08	273.85	25.96	-52.7	-64.3	3.8	1.49e+00	0	59	104	0	68	13466
2026-01-04 02:37:27.06	273.45	25.72	-52.9	-64.3	3.8	1.49e+00	0	58	104	0	68	13517
2026-01-04 02:37:29.03	273.07	25.48	-52.8	-64.3	3.8	1.49e+00	0	58	104	0	68	13443
2026-01-04 02:37:31.01	272.69	25.24	-52.7	-64.2	3.8	1.49e+00	0	58	104	0	68	13403
2026-01-04 02:37:32.98	272.31	25.00	-52.8	-64.2	3.8	1.49e+00	0	58	104	0	68	13310
2026-01-04 02:37:34.97	271.94	24.76	-52.7	-64.1	3.8	1.49e+00	0	59	104	0	68	13177
2026-01-04 02:37:36.95	271.57	24.52	-52.7	-63.9	3.8	1.49e+00	0	58	104	0	68	12927
2026-01-04 02:37:38.92	271.21	24.28	-52.6	-63.8	3.8	1.49e+00	0	58	104	0	68	12794
2026-01-04 02:37:40.90	270.86	24.05	-52.5	-63.8	3.8	1.49e+00	0	58	104	0	68	12713
2026-01-04 02:37:42.87	270.51	23.81	-52.6	-63.7	3.8	1.49e+00	0	58	104	0	68	12663
2026-01-04 02:37:44.84	270.17	23.58	-52.5	-63.9	3.8	1.49e+00	0	58	104	0	68	12884
2026-01-04 02:37:46.82	269.83	23.34	-52.6	-64.0	3.8	1.49e+00	0	59	104	0	68	13090
2026-01-04 02:37:48.80	269.50	23.11	-52.5	-63.9	3.8	1.49e+00	0	58	104	0	68	12899
2026-01-04 02:37:50.78	269.17	22.88	-52.5	-64.0	3.8	1.49e+00	0	58	104	0	68	13077
2026-01-04 02:37:52.76	268.85	22.65	-52.6	-63.8	3.8	1.49e+00	0	58	104	0	68	12794
2026-01-04 02:37:54.75	268.53	22.41	-52.4	-62.8	3.8	1.49e+00	0	58	104	0	67	12048
2026-01-04 02:37:56.73	268.21	22.19	-52.4	-62.6	3.8	1.49e+00	0	58	104	0	67	11720
2026-01-04 02:37:58.72	267.90	21.96	-52.1	-61.3	3.9	1.48e+00	0	58	104	0	67	10166
2026-01-04 02:38:00.69	267.60	21.73	-50.7	-55.2	7.4	1.94e-01	0	58	0	2097152	64	5967
2026-01-04 02:38:02.66	267.30	21.51	-48.4	-50.5	12.4	3.21e-04	0	58	0	8388608	59	4631
2026-01-04 02:38:04.63	267.00	21.28	-45.9	-47.1	15.6	0.00e+00	0	58	0	14680064	55	3956
2026-01-04 02:38:06.61	266.71	21.06	-44.4	-45.3	17.4	0.00e+00	0	58	0	20971520	52	3803
2026-01-04 02:38:08.60	266.42	20.84	-44.5	-45.4	17.4	0.00e+00	0	58	0	27262976	51	4081
2026-01-04 02:38:10.57	266.14	20.62	-45.8	-47.0	15.8	0.00e+00	0	58	0	33554432	53	4343
2026-01-04 02:38:12.56	265.86	20.40	-46.7	-48.1	14.7	0.00e+00	0	58	0	38797312	55	4423
2026-01-04 02:38:14.54	265.59	20.18	-47.3	-48.9	14.0	3.00e-06	0	58	0	45088768	56	4581
2026-01-04 02:38:16.52	265.31	19.96	-46.2	-47.5	15.2	0.00e+00	0	58	0	51380224	55	4123
2026-01-04 02:38:18.50	265.05	19.75	-45.5	-46.6	16.1	0.00e+00	0	58	0	57671680	54	3953
2026-01-04 02:38:20.49	264.78	19.53	-44.9	-45.9	16.8	0.00e+00	0	58	0	63963136	52	4063
2026-01-04 02:38:22.47	264.52	19.32	-44.4	-45.4	17.3	0.00e+00	0	58	0	70254592	52	3842
2026-01-04 02:38:24.44	264.27	19.10	-44.4	-45.3	17.5	0.00e+00	0	58	0	76546048	51	4014
2026-01-04 02:38:26.42	264.02	18.89	-44.2	-45.1	17.7	0.00e+00	0	58	0	82837504	51	3945
2026-01-04 02:38:28.39	263.77	18.68	-44.1	-44.9	17.8	0.00e+00	0	58	0	89128960	51	3854
2026-01-04 02:38:30.36	263.52	18.48	-44.2	-45.1	17.7	0.00e+00	0	58	0	95420416	51	3927
2026-01-04 02:38:32.35	263.28	18.27	-44.3	-45.2	17.6	0.00e+00	0	58	0	100663296	51	3962
2026-01-04 02:38:34.33	263.04	18.06	-44.4	-45.3	17.4	0.00e+00	0	58	0	106954752	51	4051
2026-01-04 02:38:36.30	262.81	17.86	-44.6	-45.6	17.2	0.00e+00	0	58	0	113246208	51	4163
2026-01-04 02:38:38.29	262.57	17.65	-44.8	-45.7	17.0	0.00e+00	0	58	0	119537664	51	4235
2026-01-04 02:38:40.26	262.35	17.45	-44.8	-45.8	17.0	0.00e+00	0	58	0	125829120	51	4279
2026-01-04 02:38:42.24	262.12	17.25	-44.8	-45.8	16.9	0.00e+00	0	58	0	132120576	51	4271
2026-01-04 02:38:44.21	261.90	17.05	-44.9	-46.0	16.8	0.00e+00	0	58	0	138412032	51	4344
2026-01-04 02:38:46.18	261.68	16.85	-45.0	-46.1	16.6	0.00e+00	0	58	0	144703488	52	4157
2026-01-04 02:38:48.16	261.46	16.65	-44.8	-45.8	16.8	0.00e+00	0	58	0	150994944	52	4038
2026-01-04 02:38:50.14	261.25	16.46	-44.5	-45.5	17.1	0.00e+00	0	58	0	156237824	52	3891
2026-01-04 02:38:52.12	261.04	16.26	-44.6	-45.6	17.0	0.00e+00	0	58	0	162529280	52	3929
2026-01-04 02:38:54.10	260.83	16.07	-44.7	-45.6	17.0	0.00e+00	0	58	0	168820736	52	3957
2026-01-04 02:38:56.08	260.62	15.87	-44.8	-45.8	16.9	0.00e+00	0	58	0	175112192	52	4015
2026-01-04 02:38:58.06	260.42	15.68	-45.0	-46.1	16.6	0.00e+00	0	58	0	181403648	52	4156
2026-01-04 02:39:00.03	260.22	15.49	-45.3	-46.4	16.3	0.00e+00	0	58	0	187695104	52	4313
2026-01-04 02:39:02.01	260.02	15.30	-45.4	-46.6	16.1	0.00e+00	0	58	0	193986560	52	4395
2026-01-04 02:39:03.99	259.83	15.11	-45.5	-46.6	16.0	0.00e+00	0	58	0	200278016	52	4438
2026-01-04 02:39:05.97	259.64	14.92	-45.7	-46.8	15.8	0.00e+00	0	58	0	206569472	53	4287
2026-01-04 02:39:07.96	259.44	14.74	-45.6	-46.8	15.8	0.00e+00	0	58	0	212860928	53	4263
2026-01-04 02:39:09.93	259.26	14.55	-45.3	-46.5	16.1	0.00e+00	0	58	0	218103808	53	4100
2026-01-04 02:39:11.92	259.07	14.37	-45.2	-46.3	16.2	0.00e+00	0	58	0	224395264	53	4021
2026-01-04 02:39:13.88	258.89	14.18	-45.1	-46.1	16.4	0.00e+00	0	58	0	230686720	53	3951
2026-01-04 02:39:15.86	258.71	14.00	-45.0	-46.0	16.5	0.00e+00	0	58	0	236978176	53	3892
2026-01-04 02:39:17.84	258.53	13.82	-45.0	-46.0	16.6	0.00e+00	0	58	0	243269632	53	3891
2026-01-04 02:39:19.81	258.36	13.64	-45.1	-46.2	16.4	0.00e+00	0	58	0	249561088	53	3979
2026-01-04 02:39:21.78	258.18	13.46	-45.2	-46.3	16.3	0.00e+00	0	58	0	255852544	53	4040
2026-01-04 02:39:23.76	258.01	13.28	-45.4	-46.6	16.0	0.00e+00	0	58	0	262144000	53	4160
2026-01-04 02:39:25.73	257.84	13.11	-45.4	-46.5	16.1	0.00e+00	0	58	0	267386880	53	4137
2026-01-04 02:39:27.71	257.67	12.93	-45.7	-47.0	15.7	0.00e+00	0	58	0	273678336	53	4344
2026-01-04 02:39:29.68	257.51	12.76	-45.8	-47.0	15.5	0.00e+00	0	58	0	279969792	53	4391
2026-01-04 02:39:31.66	257.35	12.58	-45.9	-47.2	15.4	0.00e+00	0	58	0	286261248	53	4449
2026-01-04 02:39:33.64	257.18	12.41	-45.9	-47.2	15.4	0.00e+00	0	58	0	292552704	53	4473
2026-01-04 02:39:35.61	257.03	12.24	-45.8	-47.0	15.5	0.00e+00	0	58	0	298844160	53	4375
2026-01-04 02:39:37.59	256.87	12.07	-45.8	-47.0	15.5	0.00e+00	0	58	0	305135616	53	4379
2026-01-04 02:39:39.56	256.71	11.90	-46.1	-47.5	15.1	0.00e+00	0	58	0	311427072	54	4359
2026-01-04 02:39:41.56	256.56	11.73	-46.1	-47.5	15.0	0.00e+00	0	58	0	317718528	54	4362
2026-01-04 02:39:43.53	256.41	11.56	-46.3	-47.7	14.9	0.00e+00	0	58	0	324009984	54	4447
2026-01-04 02:39:45.52	256.26	11.39	-46.0	-47.3	15.2	0.00e+00	0	58	0	329252864	54	4282
2026-01-04 02:39:47.50	256.11	11.23	-45.9	-47.2	15.3	0.00e+00	0	58	0	335544320	54	4210
2026-01-04 02:39:49.48	255.96	11.06	-46.1	-47.5	15.1	0.00e+00	0	58	0	341835776	54	4343
2026-01-04 02:39:51.45	255.82	10.90	-45.7	-46.9	15.7	7.00e-07	0	58	0	348127232	54	4063
2026-01-04 02:39:53.44	255.67	10.73	-45.5	-46.7	15.8	0.00e+00	0	58	0	354418688	54	3963
2026-01-04 02:39:55.42	255.53	10.57	-45.5	-46.7	15.8	0.00e+00	0	58	0	360710144	54	3997
2026-01-04 02:39:57.41	255.39	10.41	-45.8	-47.0	15.5	0.00e+00	0	58	0	367001600	54	4120
2026-01-04 02:39:59.39	255.25	10.25	-45.9	-47.2	15.3	0.00e+00	0	58	0	373293056	54	4242
2026-01-04 02:40:01.36	255.11	10.09	-45.9	-47.2	15.3	0.00e+00	0	58	0	379584512	54	4228
2026-01-04 02:40:03.35	254.98	9.93	-46.2	-47.5	14.9	0.00e+00	0	58	0	385875968	54	4382
2026-01-04 02:40:05.33	254.84	9.77	-46.1	-47.5	15.0	7.00e-07	0	58	0	391118848	54	4360
2026-01-04 02:40:07.31	254.71	9.61	-46.1	-47.5	14.9	0.00e+00	0	58	0	397410304	54	4386
2026-01-04 02:40:09.29	254.58	9.46	-46.0	-47.4	15.1	0.00e+00	0	58	0	403701760	54	4300
2026-01-04 02:40:11.27	254.45	9.30	-46.0	-47.3	15.1	0.00e+00	0	58	0	409993216	54	4269
2026-01-04 02:40:13.24	254.32	9.15	-46.1	-47.5	14.9	0.00e+00	0	58	0	416284672	54	4371
2026-01-04 02:40:15.23	254.20	8.99	-46.1	-47.5	15.0	0.00e+00	0	58	0	422576128	54	4354
2026-01-04 02:40:17.20	254.07	8.84	-46.2	-47.6	14.9	0.00e+00	0	58	0	428867584	54	4392
2026-01-04 02:40:19.18	253.95	8.69	-46.4	-47.9	14.5	0.00e+00	0	58	0	435159040	54	4565
2026-01-04 02:40:21.16	253.83	8.53	-46.5	-48.1	14.3	7.00e-07	0	58	0	441450496	54	4659
2026-01-04 02:40:23.14	253.70	8.38	-46.6	-48.1	14.3	2.20e-06	0	58	0	447741952	54	4685
2026-01-04 02:40:25.11	253.58	8.23	-46.9	-48.6	13.8	3.00e-06	0	58	0	452984832	55	4662
2026-01-04 02:40:27.09	253.47	8.08	-46.6	-48.2	14.1	7.00e-07	0	58	0	459276288	55	4463
2026-01-04 02:40:29.07	253.35	7.93	-47.0	-48.7	13.6	5.30e-06	0	58	0	465567744	55	4755
2026-01-04 02:40:31.04	253.23	7.79	-46.7	-48.3	14.0	2.20e-06	0	58	0	471859200	55	4507
2026-01-04 02:40:33.01	253.12	7.64	-46.6	-48.2	14.1	7.00e-07	0	58	0	478150656	55	4482
2026-01-04 02:40:35.00	253.00	7.49	-46.6	-48.2	14.0	4.50e-06	0	58	0	484442112	55	4490
2026-01-04 02:40:36.97	252.89	7.35	-46.6	-48.3	14.0	3.00e-06	0	58	0	490733568	55	4495
2026-01-04 02:40:38.95	252.78	7.20	-46.8	-48.4	13.8	3.00e-06	0	58	0	497025024	55	4587
2026-01-04 02:40:40.93	252.67	7.06	-46.9	-48.7	13.6	5.30e-06	0	58	0	503316480	55	4708
2026-01-04 02:40:42.91	252.56	6.92	-47.0	-48.9	13.3	2.21e-05	0	58	0	509607936	55	4821
2026-01-04 02:40:44.90	252.45	6.77	-47.0	-48.8	13.4	1.22e-05	0	58	0	514850816	55	4797
2026-01-04 02:40:46.87	252.35	6.63	-47.1	-48.9	13.3	1.06e-05	0	58	0	521142272	55	4850
2026-01-04 02:40:48.85	252.24	6.49	-47.2	-49.0	13.2	2.67e-05	0	58	0	527433728	56	4641
2026-01-04 02:40:50.84	252.14	6.35	-47.1	-49.0	13.3	1.90e-05	0	58	0	533725184	56	4609
2026-01-04 02:40:52.83	252.03	6.21	-47.4	-49.3	13.0	3.05e-05	0	58	0	540016640	56	4775
2026-01-04 02:40:54.81	251.93	6.07	-47.2	-49.1	13.1	2.51e-05	0	58	0	546308096	56	4661
2026-01-04 02:40:56.78	251.83	5.93	-47.4	-49.3	12.9	5.64e-05	0	58	0	552599552	56	4794
2026-01-04 02:40:58.76	251.73	5.79	-47.3	-49.2	12.9	6.94e-05	0	58	0	558891008	56	4753
2026-01-04 02:41:00.74	251.63	5.65	-47.2	-49.1	13.0	3.43e-05	0	58	0	565182464	56	4704
2026-01-04 02:41:02.72	251.53	5.52	-47.3	-49.2	12.9	3.66e-05	0	58	0	571473920	56	4754
2026-01-04 02:41:04.70	251.43	5.38	-47.3	-49.2	12.9	4.19e-05	0	58	0	576716800	56	4745
2026-01-04 02:41:06.67	251.34	5.24	-47.5	-49.5	12.6	1.01e-04	0	58	0	583008256	56	4897
2026-01-04 02:41:08.65	251.24	5.11	-47.5	-49.6	12.4	1.30e-04	0	58	0	589299712	56	4950
2026-01-04 02:41:10.63	251.15	4.97	-51.7	-63.0	3.8	1.49e+00	0	58	104	594542592	65	13788
2026-01-04 02:41:12.61	251.05	4.84	-51.6	-63.1	3.8	1.49e+00	0	58	104	594542592	65	13924
2026-01-04 02:41:14.59	250.96	4.71	-52.3	-63.8	3.8	1.49e+00	0	58	104	594542592	66	14283
2026-01-04 02:41:16.57	250.87	4.57	-52.5	-64.0	3.8	1.49e+00	0	58	104	594542592	66	14610
2026-01-04 02:41:18.55	250.78	4.44	-52.6	-64.0	3.8	1.49e+00	0	58	104	594542592	66	14631
2026-01-04 02:41:20.54	250.69	4.31	-52.5	-64.1	3.8	1.49e+00	0	58	104	594542592	67	13949
2026-01-04 02:41:22.53	250.60	4.18	-52.7	-64.1	3.8	1.49e+00	0	58	104	594542592	67	14000
2026-01-04 02:41:24.50	250.51	4.05	-52.8	-64.2	3.8	1.49e+00	0	58	104	594542592	67	14131
2026-01-04 02:41:26.48	250.42	3.92	-52.8	-64.2	3.8	1.49e+00	0	58	104	594542592	67	14144
2026-01-04 02:41:28.47	250.34	3.79	-52.8	-64.2	3.8	1.49e+00	0	58	104	594542592	67	14173
2026-01-04 02:41:30.44	250.25	3.66	-52.6	-64.3	3.8	1.49e+00	0	58	104	594542592	67	14221
2026-01-04 02:41:32.42	250.17	3.53	-52.8	-64.2	3.8	1.49e+00	0	58	104	594542592	67	14183
2026-01-04 02:41:34.41	250.08	3.40	-52.8	-64.3	3.8	1.49e+00	0	58	104	594542592	67	14258
2026-01-04 02:41:36.39	250.00	3.28	-52.8	-64.3	3.8	1.49e+00	0	58	104	594542592	67	14254
2026-01-04 02:41:38.38	249.91	3.15	-52.7	-64.3	3.8	1.49e+00	0	58	104	594542592	67	14217
2026-01-04 02:41:40.36	249.83	3.02	-52.7	-64.3	3.8	1.49e+00	0	58	104	594542592	67	14228
2026-01-04 02:41:42.35	249.75	2.90	-52.8	-64.3	3.8	1.49e+00	0	58	104	594542592	67	14220

#Closed at: 2026-01-04 02:41:42
#Recorded file [594 MB]: D:/Data/31026_260104_054110.dat