passes_logs/2026/01/04/R3.0SM8_Murmansk_STILSPACE/R3.0SM8_Murmansk_STILSPACE__20260104_043728_SUOMI_NPP_rec.log

#Pass ID: 20260104_043728_SUOMI NPP
#Satellite: SUOMI NPP
#Configuration: NPP
#almurnet v.1.7.20240730
#Start time: 2026-01-04 04:37:29

#Version: 2.2.20231116
#Station: R3.0SM8_Murmansk_STILSPACE
#Location: 33.092731 lon 68.902999 lat
#TLE: 1 37849U 11061A   26001.07732418  .00000182  00000+0  10735-3 0  9990
#TLE: 2 37849  98.7795 303.2470 0002580  87.2016 272.9455 14.19520779734739

#Time	Az	El	Level	Level2	SNR	BER	BlckErr	Temp	State	Recorded	gain1	gain2
2026-01-04 04:37:29.42	52.50	3.07	-52.3	-66.1	3.8	1.49e+00	0	45	0	0	67	17603
2026-01-04 04:37:32.38	52.30	3.25	-52.0	-65.7	3.8	1.49e+00	0	46	104	0	66	17849
2026-01-04 04:37:35.34	52.10	3.42	-51.4	-65.2	3.8	1.49e+00	0	46	104	0	65	17761
2026-01-04 04:37:38.33	51.89	3.60	-51.4	-65.2	3.8	1.49e+00	0	46	104	0	65	17725
2026-01-04 04:37:41.29	51.68	3.77	-51.3	-65.1	3.8	1.49e+00	0	47	104	0	65	17596
2026-01-04 04:37:44.26	51.47	3.95	-51.3	-65.2	3.8	1.49e+00	0	47	104	0	65	17708
2026-01-04 04:37:47.24	51.25	4.13	-51.4	-65.1	3.8	1.49e+00	0	47	104	0	65	17634
2026-01-04 04:37:50.19	51.04	4.30	-51.4	-64.6	3.8	1.49e+00	0	47	104	0	65	16515
2026-01-04 04:37:53.16	50.82	4.48	-51.3	-63.0	3.9	1.49e+00	0	47	104	0	65	13868
2026-01-04 04:37:56.12	50.60	4.66	-51.0	-60.3	4.7	9.43e-01	0	48	0	1048576	65	10092
2026-01-04 04:37:59.10	50.37	4.84	-50.6	-58.5	5.7	4.88e-01	0	48	0	6291456	64	8726
2026-01-04 04:38:02.06	50.14	5.03	-50.5	-57.5	6.5	2.56e-01	0	48	0	12582912	64	7737
2026-01-04 04:38:05.03	49.91	5.21	-50.6	-57.7	6.4	2.91e-01	0	48	0	17825792	64	7904
2026-01-04 04:38:07.99	49.68	5.39	-50.6	-57.6	6.4	2.27e-01	0	48	0	23068672	64	7839
2026-01-04 04:38:10.97	49.44	5.58	-50.5	-56.9	7.1	1.67e-01	0	48	0	29360128	63	7716
2026-01-04 04:38:13.93	49.20	5.76	-49.9	-54.9	9.0	3.25e-02	0	49	0	34603008	62	6491
2026-01-04 04:38:16.91	48.95	5.95	-49.3	-53.7	10.3	7.05e-03	0	49	0	39845888	61	5928
2026-01-04 04:38:19.86	48.71	6.13	-49.0	-52.8	11.4	1.07e-03	0	49	0	46137344	60	5663
2026-01-04 04:38:22.84	48.46	6.32	-49.0	-52.8	11.3	1.06e-03	0	49	0	51380224	60	5697
2026-01-04 04:38:25.80	48.20	6.51	-48.9	-52.6	11.6	6.84e-04	0	49	0	56623104	60	5578
2026-01-04 04:38:28.76	47.95	6.70	-49.1	-52.9	11.4	1.72e-03	0	49	0	62914560	60	5733
2026-01-04 04:38:31.70	47.69	6.88	-48.5	-51.8	12.4	1.46e-04	0	49	0	68157440	60	5090
2026-01-04 04:38:34.67	47.43	7.07	-48.9	-52.4	11.8	3.52e-04	0	50	0	73400320	60	5458
2026-01-04 04:38:37.64	47.16	7.27	-49.0	-52.5	11.7	6.51e-04	0	50	0	78643200	60	5526
2026-01-04 04:38:40.60	46.89	7.46	-49.2	-53.1	11.2	1.00e-03	0	50	0	84934656	60	5891
2026-01-04 04:38:43.58	46.61	7.65	-48.9	-52.5	11.8	9.08e-04	0	50	0	90177536	60	5472
2026-01-04 04:38:46.54	46.33	7.84	-48.8	-52.2	12.1	3.22e-04	0	50	0	95420416	60	5339
2026-01-04 04:38:49.51	46.05	8.04	-48.9	-52.4	12.0	3.05e-04	0	50	0	101711872	60	5405
2026-01-04 04:38:52.48	45.76	8.23	-48.7	-52.1	12.3	1.95e-04	0	51	0	106954752	60	5220
2026-01-04 04:38:55.44	45.47	8.43	-48.6	-51.6	12.9	4.11e-05	0	51	0	112197632	59	5234
2026-01-04 04:38:58.41	45.18	8.63	-48.4	-51.3	13.1	2.82e-05	0	51	0	118489088	59	5084
2026-01-04 04:39:01.37	44.88	8.82	-48.4	-51.3	13.2	1.83e-05	0	51	0	123731968	59	5052
2026-01-04 04:39:04.34	44.57	9.02	-48.4	-51.3	13.2	3.43e-05	0	51	0	128974848	59	5051
2026-01-04 04:39:07.30	44.27	9.22	-48.3	-51.1	13.4	9.10e-06	0	51	0	134217728	59	4960
2026-01-04 04:39:10.28	43.95	9.42	-48.4	-51.2	13.4	1.14e-05	0	51	0	140509184	59	4989
2026-01-04 04:39:13.24	43.64	9.62	-48.5	-51.3	13.2	3.89e-05	0	51	0	145752064	59	5085
2026-01-04 04:39:16.21	43.32	9.83	-48.5	-51.4	13.2	2.36e-05	0	51	0	150994944	59	5131
2026-01-04 04:39:19.17	42.99	10.03	-48.4	-51.2	13.3	1.37e-05	0	51	0	157286400	59	5041
2026-01-04 04:39:22.13	42.66	10.23	-48.8	-51.8	12.7	5.64e-05	0	51	0	162529280	59	5380
2026-01-04 04:39:25.09	42.33	10.43	-48.6	-51.5	13.0	2.28e-05	0	52	0	167772160	59	5213
2026-01-04 04:39:28.05	41.99	10.64	-48.6	-51.6	13.0	4.88e-05	0	52	0	174063616	59	5259
2026-01-04 04:39:31.01	41.65	10.84	-48.8	-51.8	12.8	4.27e-05	0	52	0	179306496	59	5401
2026-01-04 04:39:33.99	41.30	11.05	-48.9	-52.0	12.6	7.09e-05	0	52	0	184549376	59	5473
2026-01-04 04:39:36.97	40.94	11.26	-48.5	-51.3	13.3	2.59e-05	0	52	0	189792256	59	5062
2026-01-04 04:39:39.93	40.58	11.46	-48.3	-51.0	13.6	6.80e-06	0	52	0	196083712	59	4904
2026-01-04 04:39:42.89	40.22	11.67	-48.3	-50.9	13.7	3.00e-06	0	52	0	201326592	59	4856
2026-01-04 04:39:45.86	39.84	11.88	-48.5	-51.2	13.4	1.44e-05	0	52	0	206569472	59	5041
2026-01-04 04:39:48.83	39.47	12.09	-48.8	-51.7	13.0	3.20e-05	0	52	0	212860928	59	5338
2026-01-04 04:39:51.80	39.09	12.30	-48.4	-51.2	13.5	5.30e-06	0	52	0	218103808	59	5024
2026-01-04 04:39:54.78	38.70	12.51	-48.3	-50.9	13.7	5.30e-06	0	53	0	223346688	59	4855
2026-01-04 04:39:57.74	38.31	12.72	-47.9	-50.3	14.4	2.20e-06	0	53	0	229638144	58	4806
2026-01-04 04:40:00.70	37.91	12.93	-47.9	-50.3	14.4	0.00e+00	0	53	0	234881024	58	4791
2026-01-04 04:40:03.67	37.50	13.14	-47.9	-50.2	14.6	0.00e+00	0	53	0	240123904	58	4726
2026-01-04 04:40:06.65	37.09	13.35	-47.6	-49.9	14.9	0.00e+00	0	53	0	246415360	58	4557
2026-01-04 04:40:09.61	36.67	13.57	-47.8	-50.1	14.7	0.00e+00	0	53	0	251658240	58	4659
2026-01-04 04:40:12.58	36.25	13.78	-47.7	-49.9	14.8	0.00e+00	0	53	0	256901120	58	4555
2026-01-04 04:40:15.53	35.83	13.99	-47.6	-49.8	15.0	0.00e+00	0	53	0	262144000	58	4516
2026-01-04 04:40:18.51	35.39	14.20	-47.9	-50.3	14.5	7.00e-07	0	53	0	268435456	58	4776
2026-01-04 04:40:21.48	34.95	14.42	-47.9	-50.3	14.5	0.00e+00	0	53	0	273678336	58	4764
2026-01-04 04:40:24.44	34.50	14.63	-48.2	-50.9	13.9	1.50e-06	0	53	0	278921216	58	5102
2026-01-04 04:40:27.42	34.04	14.84	-48.3	-51.0	13.8	3.80e-06	0	53	0	285212672	58	5176
2026-01-04 04:40:30.36	33.58	15.06	-48.1	-50.7	14.1	3.00e-06	0	53	0	290455552	58	4987
2026-01-04 04:40:33.32	33.12	15.27	-48.2	-50.8	14.0	2.20e-06	0	53	0	295698432	58	5059
2026-01-04 04:40:36.29	32.64	15.48	-48.2	-50.7	14.1	7.00e-07	0	53	0	301989888	58	5030
2026-01-04 04:40:39.25	32.16	15.69	-48.4	-51.0	13.8	3.00e-06	0	53	0	307232768	58	5181
2026-01-04 04:40:42.22	31.67	15.91	-48.6	-51.4	13.4	1.22e-05	0	53	0	312475648	59	5152
2026-01-04 04:40:45.19	31.17	16.12	-48.8	-51.9	12.9	3.73e-05	0	53	0	318767104	59	5452
2026-01-04 04:40:48.15	30.67	16.33	-48.4	-51.2	13.6	2.20e-06	0	54	0	324009984	59	5019
2026-01-04 04:40:51.13	30.16	16.54	-48.6	-51.4	13.3	1.67e-05	0	54	0	329252864	59	5138
2026-01-04 04:40:54.10	29.64	16.76	-48.9	-51.9	12.9	2.44e-05	0	54	0	334495744	59	5417
2026-01-04 04:40:57.08	29.11	16.97	-48.8	-51.9	12.9	4.42e-05	0	54	0	340787200	59	5437
2026-01-04 04:41:00.05	28.58	17.18	-49.0	-52.2	12.6	9.46e-05	0	54	0	346030080	60	5293
2026-01-04 04:41:03.01	28.04	17.39	-48.8	-51.9	13.0	3.89e-05	0	54	0	351272960	60	5105
2026-01-04 04:41:05.97	27.49	17.59	-49.0	-52.3	12.6	1.43e-04	0	54	0	357564416	60	5349
2026-01-04 04:41:08.93	26.94	17.80	-49.0	-52.1	12.8	5.41e-05	0	54	0	362807296	60	5221
2026-01-04 04:41:11.91	26.37	18.01	-48.3	-50.9	14.0	1.50e-06	0	54	0	368050176	59	4858
2026-01-04 04:41:14.87	25.80	18.21	-48.0	-50.5	14.4	2.20e-06	0	54	0	374341632	59	4601
2026-01-04 04:41:17.85	25.22	18.41	-48.0	-50.4	14.4	0.00e+00	0	54	0	379584512	58	4851
2026-01-04 04:41:20.83	24.63	18.62	-48.4	-51.0	13.8	1.50e-06	0	54	0	384827392	58	5216
2026-01-04 04:41:23.80	24.04	18.82	-47.4	-49.5	15.3	0.00e+00	0	54	0	391118848	57	4628
2026-01-04 04:41:26.76	23.43	19.02	-46.7	-48.6	16.2	0.00e+00	0	54	0	396361728	56	4406
2026-01-04 04:41:29.72	22.82	19.21	-46.9	-48.7	16.1	0.00e+00	0	54	0	401604608	56	4481
2026-01-04 04:41:32.68	22.21	19.41	-46.9	-48.7	16.1	0.00e+00	0	54	0	406847488	56	4478
2026-01-04 04:41:35.65	21.58	19.60	-46.9	-48.8	16.0	0.00e+00	0	54	0	413138944	56	4512
2026-01-04 04:41:38.63	20.94	19.79	-46.6	-48.4	16.4	0.00e+00	0	54	0	418381824	56	4305
2026-01-04 04:41:41.60	20.30	19.98	-46.6	-48.4	16.4	0.00e+00	0	54	0	423624704	56	4310
2026-01-04 04:41:44.57	19.65	20.17	-46.9	-48.8	16.1	0.00e+00	0	55	0	429916160	56	4531
2026-01-04 04:41:47.55	18.98	20.35	-47.0	-48.9	15.9	0.00e+00	0	54	0	435159040	56	4576
2026-01-04 04:41:50.51	18.32	20.53	-46.6	-48.4	16.4	0.00e+00	0	55	0	440401920	56	4339
2026-01-04 04:41:53.48	17.64	20.71	-45.8	-47.4	17.3	0.00e+00	0	55	0	446693376	54	4298
2026-01-04 04:41:56.46	16.96	20.88	-46.2	-47.8	16.9	0.00e+00	0	55	0	451936256	54	4520
2026-01-04 04:41:59.41	16.27	21.05	-45.8	-47.3	17.4	0.00e+00	0	55	0	457179136	54	4272
2026-01-04 04:42:02.38	15.57	21.22	-46.2	-47.8	16.9	0.00e+00	0	55	0	463470592	54	4519
2026-01-04 04:42:05.34	14.87	21.39	-46.3	-48.0	16.8	0.00e+00	0	55	0	468713472	54	4623
2026-01-04 04:42:08.31	14.15	21.55	-46.6	-48.4	16.4	0.00e+00	0	55	0	473956352	55	4568
2026-01-04 04:42:11.28	13.43	21.71	-46.4	-48.0	16.7	0.00e+00	0	55	0	479199232	55	4389
2026-01-04 04:42:14.25	12.70	21.86	-46.6	-48.4	16.4	0.00e+00	0	55	0	485490688	55	4580
2026-01-04 04:42:17.22	11.96	22.01	-46.9	-48.7	16.1	0.00e+00	0	55	0	490733568	55	4736
2026-01-04 04:42:20.19	11.22	22.15	-46.1	-47.6	17.1	0.00e+00	0	55	0	495976448	55	4181
2026-01-04 04:42:23.15	10.47	22.29	-46.2	-47.7	16.9	0.00e+00	0	55	0	502267904	55	4242
2026-01-04 04:42:26.13	9.71	22.43	-46.3	-48.0	16.6	0.00e+00	0	55	0	507510784	55	4359
2026-01-04 04:42:29.09	8.95	22.56	-45.8	-47.4	16.8	0.00e+00	0	55	0	512753664	54	4333
2026-01-04 04:42:32.05	8.19	22.69	-46.4	-48.3	15.7	0.00e+00	0	55	0	519045120	54	4803
2026-01-04 04:42:35.02	7.41	22.81	-48.6	-52.2	11.4	2.43e-04	0	55	0	524288000	58	5986
2026-01-04 04:42:37.97	6.63	22.92	-49.4	-54.9	8.3	5.70e-02	0	55	0	529530880	60	7213
2026-01-04 04:42:40.95	5.84	23.04	-49.5	-54.8	8.6	3.60e-02	0	55	0	534773760	60	7127
2026-01-04 04:42:43.92	5.05	23.14	-49.1	-53.6	10.0	1.11e-02	0	55	0	541065216	60	6237
2026-01-04 04:42:46.89	4.25	23.24	-49.6	-55.1	8.5	2.74e-02	0	55	0	546308096	60	7378
2026-01-04 04:42:49.88	3.44	23.34	-49.7	-54.6	9.2	4.70e-02	0	55	0	551550976	61	6641
2026-01-04 04:42:52.84	2.63	23.42	-48.5	-51.2	13.4	2.05e-05	0	55	0	557842432	60	4732
2026-01-04 04:42:55.81	1.82	23.51	-48.5	-51.2	13.7	1.22e-05	0	55	0	563085312	60	4727
2026-01-04 04:42:58.78	1.00	23.58	-48.1	-50.4	14.4	0.00e+00	0	55	0	568328192	59	4597
2026-01-04 04:43:01.75	0.18	23.65	-48.0	-50.2	14.7	1.50e-06	0	56	0	574619648	58	4751
2026-01-04 04:43:04.72	359.36	23.72	-48.0	-50.5	14.4	1.50e-06	0	55	0	579862528	59	4600
2026-01-04 04:43:07.69	358.53	23.78	-47.2	-49.1	15.8	0.00e+00	0	56	0	585105408	57	4427
2026-01-04 04:43:10.65	357.70	23.83	-47.9	-50.2	14.6	0.00e+00	0	55	0	591396864	57	5032
2026-01-04 04:43:13.61	356.87	23.87	-47.8	-50.0	14.9	0.00e+00	0	55	0	596639744	57	4905
2026-01-04 04:43:16.57	356.04	23.91	-47.7	-49.9	15.0	0.00e+00	0	56	0	601882624	57	4860
2026-01-04 04:43:19.54	355.20	23.94	-48.4	-51.1	13.8	3.80e-06	0	56	0	608174080	58	5221
2026-01-04 04:43:22.52	354.36	23.97	-48.1	-50.6	14.4	1.50e-06	0	56	0	613416960	58	4943
2026-01-04 04:43:25.50	353.51	23.99	-48.2	-50.8	14.1	2.20e-06	0	56	0	618659840	58	5062
2026-01-04 04:43:28.45	352.68	24.00	-47.6	-49.8	15.1	0.00e+00	0	56	0	623902720	58	4511
2026-01-04 04:43:31.41	351.84	24.00	-48.3	-50.8	14.2	0.00e+00	0	56	0	630194176	58	5061
2026-01-04 04:43:34.38	351.00	24.00	-48.9	-51.9	13.1	2.21e-05	0	56	0	635437056	59	5435
2026-01-04 04:43:37.35	350.15	24.00	-48.4	-51.1	13.8	6.10e-06	0	56	0	640679936	59	4950
2026-01-04 04:43:40.31	349.32	23.98	-48.3	-50.9	14.0	1.50e-06	0	56	0	646971392	59	4857
2026-01-04 04:43:43.28	348.48	23.96	-47.8	-50.1	14.8	0.00e+00	0	56	0	652214272	58	4661
2026-01-04 04:43:46.25	347.64	23.93	-46.9	-48.7	16.1	0.00e+00	0	56	0	657457152	56	4492
2026-01-04 04:43:49.21	346.80	23.90	-46.3	-47.9	16.9	0.00e+00	0	56	0	663748608	55	4307
2026-01-04 04:43:52.18	345.97	23.86	-47.0	-48.9	15.9	0.00e+00	0	56	0	668991488	55	4842
2026-01-04 04:43:55.15	345.14	23.81	-46.7	-48.4	16.4	0.00e+00	0	56	0	674234368	55	4551
2026-01-04 04:43:58.12	344.31	23.75	-46.5	-48.2	16.6	0.00e+00	0	56	0	679477248	55	4465
2026-01-04 04:44:01.09	343.48	23.69	-46.4	-48.0	16.8	0.00e+00	0	56	0	685768704	55	4363
2026-01-04 04:44:04.06	342.66	23.63	-46.5	-48.2	16.6	0.00e+00	0	56	0	691011584	55	4462
2026-01-04 04:44:07.02	341.84	23.55	-45.9	-47.4	17.4	0.00e+00	0	56	0	696254464	55	4063
2026-01-04 04:44:09.99	341.02	23.47	-46.4	-48.0	16.8	0.00e+00	0	56	0	702545920	54	4637
2026-01-04 04:44:12.95	340.21	23.39	-46.7	-48.4	16.4	0.00e+00	0	56	0	707788800	55	4557
2026-01-04 04:44:15.91	339.41	23.30	-47.0	-48.9	16.0	0.00e+00	0	56	0	713031680	56	4557
2026-01-04 04:44:18.88	338.61	23.20	-47.0	-48.8	16.1	0.00e+00	0	56	0	719323136	56	4535
2026-01-04 04:44:21.84	337.81	23.10	-47.1	-49.0	16.0	0.00e+00	0	56	0	724566016	56	4599
2026-01-04 04:44:24.81	337.02	22.99	-46.6	-48.3	16.6	0.00e+00	0	56	0	729808896	56	4249
2026-01-04 04:44:27.79	336.23	22.88	-46.4	-48.1	16.6	0.00e+00	0	56	0	736100352	55	4404
2026-01-04 04:44:30.76	335.45	22.76	-47.4	-49.5	15.3	0.00e+00	0	56	0	741343232	56	4889
2026-01-04 04:44:33.72	334.68	22.64	-47.7	-50.0	14.5	2.20e-06	0	56	0	746586112	57	4910
2026-01-04 04:44:36.69	333.91	22.51	-48.1	-50.6	14.1	7.00e-07	0	56	0	751828992	58	4958
2026-01-04 04:44:39.66	333.15	22.38	-47.5	-49.6	15.3	0.00e+00	0	56	0	758120448	58	4437
2026-01-04 04:44:42.62	332.40	22.24	-47.8	-50.1	14.7	0.00e+00	0	56	0	763363328	57	4971
2026-01-04 04:44:45.59	331.65	22.10	-48.0	-50.3	14.7	0.00e+00	0	56	0	768606208	58	4801
2026-01-04 04:44:48.56	330.91	21.95	-48.3	-50.8	14.2	7.00e-07	0	56	0	774897664	58	5072
2026-01-04 04:44:51.53	330.18	21.80	-47.3	-49.4	15.5	0.00e+00	0	56	0	780140544	57	4570
2026-01-04 04:44:54.49	329.45	21.64	-47.2	-49.1	15.9	0.00e+00	0	56	0	785383424	57	4414
2026-01-04 04:44:57.46	328.73	21.48	-47.0	-48.8	16.1	0.00e+00	0	56	0	791674880	57	4259
2026-01-04 04:45:00.45	328.02	21.32	-47.4	-49.5	15.5	0.00e+00	0	56	0	796917760	56	4896
2026-01-04 04:45:03.43	327.31	21.15	-48.0	-50.3	14.6	7.00e-07	0	56	0	802160640	57	5085
2026-01-04 04:45:06.41	326.61	20.98	-48.1	-50.6	14.4	0.00e+00	0	56	0	808452096	58	4930
2026-01-04 04:45:09.37	325.93	20.81	-48.5	-51.2	13.8	3.80e-06	0	56	0	813694976	58	5324
2026-01-04 04:45:12.34	325.25	20.63	-49.1	-52.5	12.4	8.23e-05	0	56	0	818937856	60	5478
2026-01-04 04:45:15.31	324.57	20.45	-48.5	-51.4	13.6	1.22e-05	0	56	0	824180736	60	4816
2026-01-04 04:45:18.27	323.91	20.27	-48.0	-50.3	14.7	7.00e-07	0	56	0	830472192	59	4523
2026-01-04 04:45:21.23	323.26	20.09	-47.1	-49.0	15.9	0.00e+00	0	56	0	835715072	57	4372
2026-01-04 04:45:24.20	322.61	19.90	-47.1	-49.0	15.9	0.00e+00	0	56	0	840957952	56	4627
2026-01-04 04:45:27.17	321.97	19.71	-46.5	-48.1	16.8	0.00e+00	0	56	0	847249408	56	4181
2026-01-04 04:45:30.11	321.34	19.52	-45.9	-47.4	17.3	0.00e+00	0	56	0	852492288	55	4068
2026-01-04 04:45:33.08	320.72	19.33	-46.6	-48.3	16.5	0.00e+00	0	56	0	857735168	55	4524
2026-01-04 04:45:36.06	320.10	19.13	-46.9	-48.7	16.0	0.00e+00	0	56	0	864026624	55	4744
2026-01-04 04:45:39.02	319.49	18.93	-48.0	-50.4	14.5	0.00e+00	0	56	0	869269504	57	5131
2026-01-04 04:45:41.98	318.89	18.74	-48.1	-50.5	14.4	0.00e+00	0	56	0	874512384	58	4908
2026-01-04 04:45:44.95	318.30	18.53	-47.4	-49.6	15.3	0.00e+00	0	56	0	879755264	58	4417
2026-01-04 04:45:47.91	317.72	18.33	-47.4	-49.4	15.4	0.00e+00	0	56	0	886046720	57	4592
2026-01-04 04:45:50.88	317.14	18.13	-46.9	-48.7	16.1	0.00e+00	0	56	0	891289600	56	4484
2026-01-04 04:45:53.87	316.57	17.92	-46.7	-48.4	16.4	0.00e+00	0	56	0	896532480	56	4323
2026-01-04 04:45:56.84	316.01	17.72	-47.7	-50.0	15.0	0.00e+00	0	56	0	902823936	57	4887
2026-01-04 04:45:59.80	315.45	17.51	-47.5	-49.6	15.2	0.00e+00	0	56	0	908066816	57	4699
2026-01-04 04:46:02.76	314.91	17.30	-47.3	-49.4	15.5	0.00e+00	0	56	0	913309696	57	4548
2026-01-04 04:46:05.73	314.37	17.09	-47.8	-50.2	14.7	0.00e+00	0	56	0	919601152	57	5014
2026-01-04 04:46:08.70	313.84	16.88	-48.0	-50.4	14.5	0.00e+00	0	56	0	924844032	57	5139
2026-01-04 04:46:11.67	313.32	16.67	-47.8	-50.0	14.8	0.00e+00	0	56	0	930086912	58	4640
2026-01-04 04:46:14.64	312.80	16.46	-47.3	-49.3	15.5	0.00e+00	0	56	0	936378368	57	4516
2026-01-04 04:46:17.62	312.29	16.25	-47.6	-49.7	15.2	0.00e+00	0	56	0	941621248	57	4720
2026-01-04 04:46:20.58	311.79	16.03	-47.4	-49.4	15.4	0.00e+00	0	56	0	946864128	57	4550
2026-01-04 04:46:23.55	311.30	15.82	-47.3	-49.2	15.6	0.00e+00	0	56	0	953155584	57	4458
2026-01-04 04:46:26.50	310.81	15.61	-46.9	-48.7	16.2	0.00e+00	0	57	0	958398464	56	4475
2026-01-04 04:46:29.47	310.33	15.40	-46.5	-48.1	16.7	0.00e+00	0	56	0	963641344	56	4165
2026-01-04 04:46:32.43	309.86	15.18	-46.9	-48.7	16.1	0.00e+00	0	56	0	968884224	56	4480
2026-01-04 04:46:35.38	309.40	14.97	-47.0	-48.9	16.0	0.00e+00	0	57	0	975175680	56	4566
2026-01-04 04:46:38.35	308.94	14.76	-47.0	-48.8	16.1	0.00e+00	0	56	0	980418560	56	4499
2026-01-04 04:46:41.32	308.48	14.54	-46.5	-48.2	16.6	0.00e+00	0	56	0	985661440	56	4206
2026-01-04 04:46:44.29	308.04	14.33	-46.3	-47.9	16.8	0.00e+00	0	56	0	991952896	55	4337
2026-01-04 04:46:47.25	307.60	14.12	-47.1	-49.0	15.7	0.00e+00	0	56	0	997195776	55	4899
2026-01-04 04:46:50.22	307.17	13.90	-47.5	-49.6	15.3	0.00e+00	0	56	0	1002438656	57	4697
2026-01-04 04:46:53.19	306.74	13.69	-47.4	-49.4	15.5	0.00e+00	0	56	0	1008730112	57	4568
2026-01-04 04:46:56.16	306.32	13.48	-47.2	-49.2	15.6	0.00e+00	0	56	0	1013972992	57	4465
2026-01-04 04:46:59.12	305.90	13.27	-46.7	-48.4	16.3	0.00e+00	0	56	0	1019215872	56	4313
2026-01-04 04:47:02.09	305.50	13.06	-46.2	-47.8	16.8	0.00e+00	0	56	0	1024458752	55	4280
2026-01-04 04:47:05.06	305.09	12.84	-46.7	-48.4	16.3	0.00e+00	0	56	0	1030750208	55	4567
2026-01-04 04:47:08.04	304.69	12.63	-47.6	-49.7	15.1	0.00e+00	0	56	0	1035993088	57	4755
2026-01-04 04:47:11.02	304.30	12.42	-47.9	-50.2	14.6	0.00e+00	0	56	0	1041235968	57	4992
2026-01-04 04:47:13.99	303.92	12.21	-47.3	-49.4	15.4	0.00e+00	0	56	0	1047527424	57	4562
2026-01-04 04:47:16.96	303.54	12.00	-47.0	-48.8	15.9	0.00e+00	0	57	0	1052770304	57	4289
2026-01-04 04:47:19.92	303.16	11.79	-46.8	-48.6	16.0	0.00e+00	0	56	0	1058013184	56	4439
2026-01-04 04:47:22.89	302.79	11.58	-47.1	-49.1	15.6	0.00e+00	0	56	0	1064304640	56	4658
2026-01-04 04:47:25.86	302.43	11.38	-47.2	-49.2	15.4	7.00e-07	0	56	0	1069547520	56	4736
2026-01-04 04:47:28.81	302.07	11.17	-47.4	-49.5	15.0	0.00e+00	0	56	0	1074790400	56	4884
2026-01-04 04:47:31.77	301.72	10.96	-47.8	-50.2	14.2	0.00e+00	0	56	0	1080033280	57	4992
2026-01-04 04:47:34.73	301.37	10.76	-48.1	-50.7	13.6	8.30e-06	0	56	0	1086324736	58	5034
2026-01-04 04:47:37.70	301.03	10.55	-48.3	-51.2	13.0	2.89e-05	0	56	0	1091567616	58	5320
2026-01-04 04:47:40.65	300.69	10.35	-48.6	-52.0	12.1	2.25e-04	0	56	0	1096810496	59	5471
2026-01-04 04:47:43.62	300.36	10.15	-48.8	-52.5	11.4	9.27e-04	0	56	0	1103101952	59	5801
2026-01-04 04:47:46.59	300.03	9.94	-48.9	-52.9	10.9	1.69e-03	0	56	0	1108344832	59	6078
2026-01-04 04:47:49.57	299.71	9.74	-48.9	-53.2	10.3	6.59e-03	0	56	0	1113587712	60	5967
2026-01-04 04:47:52.54	299.39	9.54	-48.6	-52.7	10.6	3.24e-03	0	56	0	1119879168	60	5649
2026-01-04 04:47:55.51	299.07	9.34	-48.6	-52.9	10.3	3.06e-03	0	56	0	1125122048	60	5764
2026-01-04 04:47:58.48	298.76	9.14	-48.5	-52.8	10.2	4.57e-03	0	56	0	1130364928	59	6007
2026-01-04 04:48:01.44	298.46	8.94	-48.7	-53.4	9.4	1.43e-02	0	56	0	1136656384	59	6489
2026-01-04 04:48:04.42	298.15	8.74	-48.9	-54.3	8.4	4.60e-02	0	56	0	1141899264	59	7197
2026-01-04 04:48:07.39	297.85	8.54	-49.0	-54.9	7.7	7.49e-02	0	56	0	1147142144	59	7653
2026-01-04 04:48:10.34	297.56	8.35	-49.0	-55.1	7.4	9.82e-02	0	56	0	1152385024	60	7451
2026-01-04 04:48:13.30	297.27	8.15	-48.7	-54.8	7.6	9.23e-02	0	56	0	1158676480	60	7163
2026-01-04 04:48:16.28	296.99	7.96	-48.8	-54.9	7.6	1.03e-01	0	56	0	1163919360	60	7234
2026-01-04 04:48:19.24	296.71	7.76	-48.7	-54.9	7.5	1.10e-01	0	56	0	1169162240	60	7258
2026-01-04 04:48:22.21	296.43	7.57	-48.8	-55.1	7.3	1.19e-01	0	56	0	1175453696	60	7400
2026-01-04 04:48:25.17	296.15	7.38	-49.0	-55.6	6.9	1.59e-01	0	56	0	1180696576	60	7811
2026-01-04 04:48:28.14	295.88	7.18	-49.1	-55.9	6.7	1.99e-01	0	57	0	1185939456	60	8143
2026-01-04 04:48:31.10	295.62	6.99	-49.0	-55.6	6.9	1.89e-01	0	56	0	1192230912	60	7889
2026-01-04 04:48:34.06	295.36	6.80	-49.0	-55.7	6.9	1.61e-01	0	57	0	1197473792	60	7905
2026-01-04 04:48:37.04	295.09	6.61	-48.9	-55.5	7.0	1.57e-01	0	56	0	1202716672	60	7781
2026-01-04 04:48:40.01	294.84	6.42	-49.0	-55.8	6.6	1.97e-01	0	56	0	1209008128	60	8029
2026-01-04 04:48:42.97	294.59	6.24	-49.0	-56.0	6.5	2.26e-01	0	56	0	1214251008	60	8254
2026-01-04 04:48:45.93	294.34	6.05	-49.1	-56.2	6.3	2.91e-01	0	57	0	1219493888	60	8454
2026-01-04 04:48:48.91	294.09	5.86	-49.2	-56.9	5.8	3.73e-01	0	56	0	1224736768	60	9132
2026-01-04 04:48:51.87	293.85	5.68	-48.8	-57.4	5.4	5.34e-01	0	57	0	1231028224	60	9626
2026-01-04 04:48:54.83	293.61	5.49	-49.3	-58.7	4.6	7.79e-01	0	57	0	1236271104	60	11203
2026-01-04 04:48:57.79	293.37	5.31	-49.2	-59.5	4.3	1.33e+00	0	57	0	1240465408	60	12274
2026-01-04 04:49:00.75	293.14	5.13	-49.2	-60.1	4.1	1.42e+00	0	56	0	1241513984	60	13111
2026-01-04 04:49:03.71	292.91	4.95	-51.5	-65.3	3.8	1.49e+00	0	57	104	1241513984	64	19127
2026-01-04 04:49:06.69	292.68	4.77	-52.0	-65.8	3.8	1.49e+00	0	56	104	1241513984	66	18040
2026-01-04 04:49:09.68	292.46	4.58	-52.2	-66.1	3.8	1.49e+00	0	57	104	1241513984	66	18668
2026-01-04 04:49:12.64	292.24	4.40	-52.2	-66.2	3.8	1.49e+00	0	56	104	1241513984	66	18913
2026-01-04 04:49:15.61	292.02	4.23	-52.5	-66.3	3.8	1.49e+00	0	57	104	1241513984	66	19083
2026-01-04 04:49:18.57	291.80	4.05	-52.5	-66.4	3.8	1.49e+00	0	57	104	1241513984	66	19213
2026-01-04 04:49:21.52	291.59	3.87	-52.6	-66.4	3.8	1.49e+00	0	56	104	1241513984	67	18177
2026-01-04 04:49:24.49	291.38	3.69	-52.5	-66.4	3.8	1.49e+00	0	56	104	1241513984	67	18270
2026-01-04 04:49:27.46	291.17	3.52	-52.6	-66.5	3.8	1.49e+00	0	57	104	1241513984	67	18313
2026-01-04 04:49:30.43	290.96	3.34	-52.6	-66.4	3.8	1.49e+00	0	56	104	1241513984	67	18288
2026-01-04 04:49:33.38	290.76	3.17	-52.6	-66.4	3.8	1.49e+00	0	56	104	1241513984	67	18271
2026-01-04 04:49:36.35	290.56	3.00	-52.5	-66.4	3.8	1.49e+00	0	56	104	1241513984	67	18235

#Closed at: 2026-01-04 04:49:37
#Recorded file [1241 MB]: D:/Data/31026_260104_074901.dat