passes_logs/2026/01/02/R2.0S_Moscow/R2.0S_Moscow__20260102_235908_SUOMI_NPP_rec.log

#Pass ID: 20260102_235908_SUOMI NPP
#Satellite: SUOMI NPP
#Configuration: NPP
#almurnet v.1.7.20251203
#Start time: 2026-01-02 23:59:09

#Version: 2.2.20231116
#Station: R2.0S_Moscow
#Location: 37.707566 lon 55.798166 lat
#TLE: 1 37849U 11061A   26001.07732418  .00000182  00000+0  10735-3 0  9990
#TLE: 2 37849  98.7795 303.2470 0002580  87.2016 272.9455 14.19520779734739

#Time	Az	El	Level	Level2	SNR	BER	BlckErr	Temp	State	Recorded	gain1	gain2
2026-01-02 23:59:09.38	15.15	2.03	-43.2	-58.0	3.8	1.49e+00	0	48	0	0	58	19268
2026-01-02 23:59:13.43	15.12	2.29	-43.2	-58.0	3.8	1.49e+00	0	48	104	0	58	19251
2026-01-02 23:59:17.47	15.09	2.56	-43.2	-58.0	3.8	1.49e+00	0	49	104	0	58	19280
2026-01-02 23:59:21.52	15.06	2.82	-43.2	-58.0	3.8	1.49e+00	0	49	104	0	58	19223
2026-01-02 23:59:25.56	15.03	3.09	-43.2	-58.0	3.8	1.49e+00	0	49	104	0	58	19222
2026-01-02 23:59:29.60	15.00	3.35	-43.2	-58.0	3.8	1.49e+00	0	49	104	0	58	19231
2026-01-02 23:59:33.65	14.97	3.63	-43.1	-58.0	3.8	1.49e+00	0	50	104	0	58	19231
2026-01-02 23:59:37.69	14.94	3.90	-43.1	-58.0	3.8	1.49e+00	0	50	104	0	58	19216
2026-01-02 23:59:41.74	14.90	4.18	-43.2	-58.0	3.8	1.49e+00	0	50	104	0	58	19204
2026-01-02 23:59:45.78	14.87	4.46	-43.2	-58.0	3.8	1.49e+00	0	50	104	0	58	19220
2026-01-02 23:59:49.83	14.83	4.74	-43.1	-58.0	3.8	1.49e+00	0	51	104	0	58	19249
2026-01-02 23:59:53.87	14.80	5.03	-43.2	-58.0	3.8	1.49e+00	0	51	104	0	58	19201
2026-01-02 23:59:57.91	14.76	5.32	-43.1	-57.8	3.8	1.49e+00	0	51	104	0	58	18942
2026-01-03 00:00:01.96	14.72	5.61	-43.1	-57.7	3.8	1.49e+00	0	51	104	0	58	18707
2026-01-03 00:00:06.00	14.68	5.90	-43.1	-57.6	3.8	1.49e+00	0	52	104	0	58	18364
2026-01-03 00:00:10.05	14.64	6.20	-43.1	-57.8	3.8	1.49e+00	0	52	104	0	58	18899
2026-01-03 00:00:14.09	14.59	6.50	-43.0	-55.3	4.0	1.48e+00	0	52	104	0	58	14100
2026-01-03 00:00:18.13	14.55	6.81	-42.7	-52.3	5.1	7.84e-01	0	52	0	4194304	57	10568
2026-01-03 00:00:22.18	14.51	7.12	-41.3	-46.7	9.8	1.90e-02	0	52	0	11534336	54	6620
2026-01-03 00:00:26.22	14.46	7.43	-40.2	-44.0	12.6	5.49e-05	0	52	0	18874368	52	5423
2026-01-03 00:00:30.26	14.41	7.75	-40.4	-44.6	12.0	6.75e-04	0	53	0	26214400	52	5804
2026-01-03 00:00:34.30	14.36	8.07	-41.1	-45.8	10.8	5.51e-03	0	53	0	34603008	52	6696
2026-01-03 00:00:38.34	14.31	8.39	-41.1	-45.1	11.8	9.50e-03	0	53	0	38797312	54	5487
2026-01-03 00:00:42.38	14.26	8.72	-40.8	-44.5	12.6	1.17e-04	0	53	0	47185920	53	5419
2026-01-03 00:00:46.42	14.20	9.06	-40.7	-44.3	12.9	5.95e-05	0	53	0	54525952	53	5306
2026-01-03 00:00:50.46	14.15	9.40	-40.6	-43.9	13.3	1.52e-05	0	53	0	61865984	53	5054
2026-01-03 00:00:54.49	14.09	9.74	-40.4	-43.6	13.6	1.60e-05	0	53	0	69206016	52	5200
2026-01-03 00:00:58.53	14.03	10.08	-40.5	-43.7	13.6	6.10e-06	0	54	0	77594624	52	5242
2026-01-03 00:01:02.57	13.97	10.44	-40.3	-43.5	13.8	4.50e-06	0	54	0	84934656	52	5123
2026-01-03 00:01:06.61	13.91	10.79	-40.2	-43.2	14.1	2.20e-06	0	54	0	92274688	52	4942
2026-01-03 00:01:10.64	13.84	11.16	-40.2	-43.1	14.2	1.50e-06	0	54	0	99614720	52	4910
2026-01-03 00:01:14.68	13.78	11.52	-40.1	-43.1	14.3	1.50e-06	0	54	0	106954752	52	4901
2026-01-03 00:01:18.72	13.71	11.90	-40.1	-43.0	14.5	7.00e-07	0	54	0	115343360	51	5135
2026-01-03 00:01:22.76	13.64	12.28	-39.8	-42.5	14.9	0.00e+00	0	54	0	122683392	51	4857
2026-01-03 00:01:26.80	13.56	12.66	-39.8	-42.4	15.0	0.00e+00	0	54	0	130023424	51	4806
2026-01-03 00:01:30.84	13.49	13.05	-39.8	-42.5	15.1	7.00e-07	0	55	0	137363456	51	4840
2026-01-03 00:01:34.88	13.41	13.45	-39.7	-42.3	15.3	0.00e+00	0	54	0	144703488	51	4737
2026-01-03 00:01:38.91	13.33	13.85	-39.8	-42.4	15.3	0.00e+00	0	55	0	153092096	51	4777
2026-01-03 00:01:42.96	13.24	14.27	-39.7	-42.1	15.6	0.00e+00	0	55	0	160432128	51	4643
2026-01-03 00:01:46.99	13.16	14.68	-39.6	-42.0	15.7	0.00e+00	0	55	0	167772160	50	4866
2026-01-03 00:01:51.03	13.07	15.11	-39.3	-41.6	16.1	0.00e+00	0	55	0	175112192	50	4643
2026-01-03 00:01:55.07	12.97	15.54	-39.2	-41.5	16.3	0.00e+00	0	55	0	183500800	50	4547
2026-01-03 00:01:59.11	12.88	15.98	-39.0	-41.2	16.6	0.00e+00	0	55	0	190840832	49	4667
2026-01-03 00:02:03.15	12.78	16.43	-38.9	-41.1	16.7	0.00e+00	0	55	0	198180864	49	4616
2026-01-03 00:02:07.18	12.68	16.89	-38.8	-40.9	16.9	0.00e+00	0	55	0	205520896	49	4508
2026-01-03 00:02:11.22	12.57	17.35	-38.8	-40.9	16.9	0.00e+00	0	55	0	212860928	49	4518
2026-01-03 00:02:15.26	12.46	17.83	-38.8	-40.8	17.0	0.00e+00	0	55	0	221249536	49	4484
2026-01-03 00:02:19.29	12.34	18.31	-38.8	-40.8	17.1	0.00e+00	0	55	0	228589568	49	4472
2026-01-03 00:02:23.33	12.23	18.80	-38.8	-40.8	17.2	0.00e+00	0	55	0	235929600	49	4457
2026-01-03 00:02:27.37	12.10	19.31	-38.8	-40.9	17.0	0.00e+00	0	55	0	243269632	49	4511
2026-01-03 00:02:31.41	11.98	19.82	-39.0	-41.1	16.9	0.00e+00	0	55	0	251658240	49	4623
2026-01-03 00:02:35.44	11.84	20.34	-39.1	-41.3	16.7	0.00e+00	0	56	0	258998272	49	4717
2026-01-03 00:02:39.48	11.70	20.88	-39.2	-41.4	16.5	0.00e+00	0	56	0	266338304	49	4806
2026-01-03 00:02:43.52	11.56	21.42	-39.1	-41.2	16.8	0.00e+00	0	56	0	273678336	49	4671
2026-01-03 00:02:47.56	11.41	21.98	-38.9	-41.0	17.0	0.00e+00	0	56	0	281018368	49	4567
2026-01-03 00:02:51.60	11.26	22.55	-38.6	-40.6	17.4	0.00e+00	0	56	0	289406976	49	4351
2026-01-03 00:02:55.64	11.09	23.14	-38.4	-40.3	17.7	0.00e+00	0	56	0	296747008	48	4443
2026-01-03 00:02:59.68	10.93	23.73	-37.7	-39.4	18.4	0.00e+00	0	56	0	304087040	47	4288
2026-01-03 00:03:03.72	10.75	24.34	-37.8	-39.5	18.3	0.00e+00	0	56	0	311427072	47	4312
2026-01-03 00:03:07.76	10.57	24.97	-38.1	-39.9	18.0	0.00e+00	0	56	0	319815680	47	4542
2026-01-03 00:03:11.80	10.38	25.61	-38.2	-40.0	17.9	0.00e+00	0	56	0	327155712	47	4582
2026-01-03 00:03:15.84	10.17	26.26	-38.2	-40.1	17.8	0.00e+00	0	56	0	334495744	47	4625
2026-01-03 00:03:19.88	9.97	26.94	-38.0	-39.8	18.1	0.00e+00	0	56	0	341835776	47	4480
2026-01-03 00:03:23.91	9.75	27.62	-38.9	-40.9	17.2	0.00e+00	0	56	0	349175808	48	4795
2026-01-03 00:03:27.95	9.52	28.33	-38.6	-40.4	17.6	0.00e+00	0	56	0	357564416	49	4290
2026-01-03 00:03:31.99	9.28	29.05	-39.0	-41.0	17.1	0.00e+00	0	56	0	364904448	49	4569
2026-01-03 00:03:36.03	9.02	29.79	-39.4	-41.6	16.6	0.00e+00	0	56	0	372244480	50	4612
2026-01-03 00:03:40.07	8.76	30.55	-40.4	-43.0	15.2	0.00e+00	0	56	0	379584512	51	5105
2026-01-03 00:03:44.11	8.48	31.33	-40.0	-42.4	15.8	0.00e+00	0	56	0	387973120	51	4769
2026-01-03 00:03:48.14	8.19	32.13	-40.6	-43.2	14.9	0.00e+00	0	56	0	395313152	52	4977
2026-01-03 00:03:52.18	7.88	32.95	-40.6	-43.3	14.8	0.00e+00	0	56	0	402653184	52	5019
2026-01-03 00:03:56.23	7.55	33.80	-41.0	-44.0	14.2	3.00e-06	0	56	0	409993216	52	5445
2026-01-03 00:04:00.26	7.20	34.66	-41.3	-44.5	13.6	4.50e-06	0	56	0	417333248	53	5463
2026-01-03 00:04:04.30	6.84	35.55	-40.4	-43.1	15.0	0.00e+00	0	56	0	425721856	52	4926
2026-01-03 00:04:08.34	6.45	36.47	-40.9	-44.0	14.2	0.00e+00	0	56	0	433061888	52	5405
2026-01-03 00:04:12.38	6.04	37.41	-40.6	-43.4	14.7	0.00e+00	0	56	0	440401920	52	5073
2026-01-03 00:04:16.42	5.61	38.37	-39.8	-42.1	16.1	0.00e+00	0	56	0	447741952	51	4633
2026-01-03 00:04:20.46	5.14	39.36	-40.6	-43.4	14.7	0.00e+00	0	56	0	456130560	52	5070
2026-01-03 00:04:24.50	4.65	40.38	-40.8	-43.6	14.6	1.50e-06	0	57	0	463470592	52	5165
2026-01-03 00:04:28.54	4.12	41.43	-40.4	-43.0	15.1	0.00e+00	0	56	0	470810624	52	4816
2026-01-03 00:04:32.59	3.56	42.50	-40.7	-43.4	14.8	7.00e-07	0	57	0	478150656	52	5075
2026-01-03 00:04:36.62	2.95	43.60	-41.4	-44.7	13.4	1.14e-05	0	56	0	485490688	53	5573
2026-01-03 00:04:40.66	2.31	44.73	-41.3	-44.5	13.6	1.75e-05	0	57	0	493879296	54	5154
2026-01-03 00:04:44.70	1.61	45.89	-39.8	-42.0	16.1	0.00e+00	0	57	0	501219328	51	4586
2026-01-03 00:04:48.74	0.85	47.08	-40.9	-43.8	14.3	7.00e-07	0	57	0	508559360	53	5032
2026-01-03 00:04:52.78	0.04	48.30	-40.0	-42.3	16.0	0.00e+00	0	57	0	515899392	51	4732
2026-01-03 00:04:56.81	359.16	49.54	-39.2	-41.2	17.1	0.00e+00	0	57	0	524288000	50	4410
2026-01-03 00:05:00.85	358.20	50.81	-39.4	-41.6	16.6	0.00e+00	0	57	0	531628032	49	4922
2026-01-03 00:05:04.89	357.15	52.11	-39.3	-41.4	16.8	0.00e+00	0	56	0	538968064	49	4797
2026-01-03 00:05:08.93	356.00	53.43	-39.4	-41.5	16.9	0.00e+00	0	57	0	546308096	50	4594
2026-01-03 00:05:12.97	354.74	54.77	-39.7	-42.0	16.3	0.00e+00	0	57	0	553648128	50	4816
2026-01-03 00:05:17.01	353.36	56.14	-37.9	-39.6	18.5	0.00e+00	0	57	0	562036736	47	4363
2026-01-03 00:05:21.04	351.83	57.52	-38.8	-40.7	17.5	0.00e+00	0	57	0	569376768	48	4680
2026-01-03 00:05:25.08	350.14	58.91	-40.0	-42.4	15.9	0.00e+00	0	57	0	576716800	50	5065
2026-01-03 00:05:29.12	348.25	60.31	-40.5	-43.3	14.9	0.00e+00	0	57	0	584056832	51	5308
2026-01-03 00:05:33.16	346.14	61.71	-39.5	-41.6	16.5	0.00e+00	0	57	0	592445440	50	4634
2026-01-03 00:05:37.20	343.78	63.10	-39.1	-41.2	17.0	0.00e+00	0	57	0	599785472	48	4949
2026-01-03 00:05:41.24	341.12	64.47	-38.1	-39.9	18.0	0.00e+00	0	57	0	607125504	47	4519
2026-01-03 00:05:45.28	338.13	65.81	-39.2	-41.3	16.8	0.00e+00	0	57	0	614465536	48	4991
2026-01-03 00:05:49.33	334.75	67.10	-39.4	-41.6	16.5	0.00e+00	0	57	0	621805568	49	4898
2026-01-03 00:05:53.37	330.93	68.34	-41.5	-44.8	13.3	1.22e-05	0	57	0	630194176	53	5646
2026-01-03 00:05:57.41	326.64	69.48	-42.7	-47.1	10.8	7.84e-04	0	57	0	637534208	56	6161
2026-01-03 00:06:01.44	321.83	70.52	-40.4	-43.0	15.0	7.00e-07	0	57	0	644874240	52	4831
2026-01-03 00:06:05.48	316.47	71.42	-39.9	-42.2	15.9	0.00e+00	0	57	0	652214272	50	4965
2026-01-03 00:06:09.51	310.60	72.16	-39.0	-41.0	17.0	0.00e+00	0	57	0	660602880	49	4588
2026-01-03 00:06:13.55	304.24	72.71	-41.1	-44.1	13.8	8.30e-06	0	57	0	667942912	53	5216
2026-01-03 00:06:17.59	297.53	73.04	-41.5	-44.9	13.0	5.30e-06	0	57	0	675282944	54	5400
2026-01-03 00:06:21.63	290.64	73.15	-41.0	-44.1	13.8	0.00e+00	0	57	0	682622976	52	5527
2026-01-03 00:06:25.66	283.76	73.02	-39.5	-41.7	16.4	0.00e+00	0	57	0	689963008	49	4928
2026-01-03 00:06:29.70	277.08	72.67	-39.1	-41.2	16.9	0.00e+00	0	57	0	698351616	49	4685
2026-01-03 00:06:33.74	270.75	72.10	-40.0	-42.4	15.6	0.00e+00	0	57	0	705691648	51	4809
2026-01-03 00:06:37.78	264.90	71.35	-41.7	-45.3	12.6	1.20e-04	0	57	0	713031680	54	5599
2026-01-03 00:06:41.81	259.60	70.43	-42.3	-46.4	11.4	6.68e-04	0	57	0	720371712	55	6054
2026-01-03 00:06:45.85	254.82	69.38	-40.9	-43.8	14.2	3.66e-05	0	57	0	728760320	53	4985
2026-01-03 00:06:49.89	250.56	68.23	-41.0	-43.9	14.0	6.80e-06	0	57	0	736100352	53	5095
2026-01-03 00:06:53.93	246.78	66.99	-40.7	-43.5	14.5	0.00e+00	0	57	0	743440384	52	5120
2026-01-03 00:06:57.97	243.44	65.69	-39.5	-41.8	16.3	0.00e+00	0	57	0	750780416	49	5000
2026-01-03 00:07:02.00	240.48	64.34	-37.5	-39.2	18.7	0.00e+00	0	57	0	758120448	46	4414
2026-01-03 00:07:06.04	237.85	62.97	-37.3	-38.9	18.9	0.00e+00	0	57	0	766509056	46	4283
2026-01-03 00:07:10.08	235.50	61.57	-38.3	-40.3	17.7	0.00e+00	0	57	0	773849088	47	4721
2026-01-03 00:07:14.12	233.41	60.17	-39.5	-41.7	16.6	0.00e+00	0	57	0	781189120	50	4654
2026-01-03 00:07:18.15	231.54	58.77	-39.8	-42.1	16.1	0.00e+00	0	57	0	788529152	51	4611
2026-01-03 00:07:22.19	229.86	57.37	-39.9	-42.3	15.8	0.00e+00	0	57	0	796917760	50	5000
2026-01-03 00:07:26.23	228.34	55.99	-37.1	-38.6	19.3	0.00e+00	0	57	0	804257792	46	4114
2026-01-03 00:07:30.27	226.96	54.62	-37.8	-39.5	18.4	0.00e+00	0	57	0	811597824	46	4585
2026-01-03 00:07:34.31	225.71	53.28	-39.7	-42.0	16.1	0.00e+00	0	57	0	818937856	50	4856
2026-01-03 00:07:38.34	224.58	51.96	-40.1	-42.6	15.6	0.00e+00	0	57	0	826277888	51	4896
2026-01-03 00:07:42.38	223.54	50.66	-39.9	-42.2	15.8	0.00e+00	0	57	0	834666496	51	4701
2026-01-03 00:07:46.42	222.58	49.38	-38.6	-40.5	17.4	0.00e+00	0	57	0	842006528	48	4586
2026-01-03 00:07:50.46	221.70	48.14	-38.5	-40.3	17.7	0.00e+00	0	57	0	849346560	47	4728
2026-01-03 00:07:54.49	220.89	46.92	-39.8	-42.0	16.1	0.00e+00	0	57	0	856686592	50	4858
2026-01-03 00:07:58.53	220.14	45.73	-40.6	-43.3	14.8	9.90e-06	0	57	0	865075200	53	4728
2026-01-03 00:08:02.57	219.44	44.57	-40.9	-43.9	14.1	7.00e-07	0	57	0	872415232	53	5047
2026-01-03 00:08:06.61	218.80	43.44	-42.0	-45.9	12.2	9.99e-05	0	57	0	879755264	54	6019
2026-01-03 00:08:10.65	218.19	42.34	-41.6	-45.1	12.9	4.11e-05	0	57	0	887095296	54	5498
2026-01-03 00:08:14.69	217.63	41.26	-40.0	-42.4	15.7	0.00e+00	0	57	0	894435328	51	4763
2026-01-03 00:08:18.73	217.10	40.21	-40.4	-42.9	15.2	0.00e+00	0	57	0	902823936	51	5087
2026-01-03 00:08:22.76	216.61	39.20	-41.3	-44.5	13.6	1.50e-06	0	57	0	910163968	53	5422
2026-01-03 00:08:26.80	216.15	38.20	-42.5	-46.8	11.1	1.14e-03	0	57	0	917504000	55	6337
2026-01-03 00:08:30.84	215.71	37.24	-39.7	-41.9	16.2	0.00e+00	0	57	0	924844032	51	4525
2026-01-03 00:08:34.87	215.30	36.30	-38.9	-40.8	17.2	0.00e+00	0	57	0	933232640	48	4753
2026-01-03 00:08:38.92	214.92	35.38	-39.9	-42.3	15.9	0.00e+00	0	57	0	940572672	50	4994
2026-01-03 00:08:42.95	214.55	34.49	-42.0	-45.9	12.1	5.96e-04	0	57	0	947912704	55	5682
2026-01-03 00:08:46.99	214.21	33.62	-41.5	-44.9	13.1	1.22e-05	0	57	0	955252736	54	5346
2026-01-03 00:08:51.03	213.88	32.78	-41.1	-44.1	13.9	1.60e-05	0	57	0	962592768	53	5199
2026-01-03 00:08:55.07	213.57	31.96	-40.2	-42.8	15.3	0.00e+00	0	57	0	970981376	52	4707
2026-01-03 00:08:59.11	213.27	31.15	-41.5	-44.8	13.2	1.50e-06	0	57	0	978321408	53	5634
2026-01-03 00:09:03.15	212.99	30.37	-42.1	-46.1	11.9	6.53e-04	0	57	0	985661440	55	5824
2026-01-03 00:09:07.19	212.73	29.61	-42.8	-47.4	10.7	5.72e-03	0	57	0	993001472	56	6378
2026-01-03 00:09:11.22	212.47	28.87	-42.2	-46.0	12.1	4.06e-04	0	57	0	1001390080	56	5444
2026-01-03 00:09:15.26	212.23	28.15	-41.6	-45.1	12.9	2.21e-05	0	57	0	1008730112	54	5468
2026-01-03 00:09:19.30	212.00	27.44	-40.4	-43.1	14.8	7.00e-07	0	57	0	1016070144	52	4905
2026-01-03 00:09:23.34	211.78	26.75	-38.9	-40.9	17.1	0.00e+00	0	57	0	1023410176	49	4530
2026-01-03 00:09:27.37	211.57	26.08	-38.7	-40.6	17.4	0.00e+00	0	57	0	1030750208	49	4364
2026-01-03 00:09:31.41	211.37	25.43	-39.7	-42.0	16.1	0.00e+00	0	57	0	1039138816	49	5130
2026-01-03 00:09:35.45	211.17	24.79	-41.0	-44.1	14.0	0.00e+00	0	57	0	1046478848	52	5484
2026-01-03 00:09:39.49	210.99	24.16	-41.4	-44.7	13.2	1.37e-05	0	57	0	1053818880	53	5592
2026-01-03 00:09:43.53	210.81	23.55	-40.6	-43.4	14.7	7.00e-07	0	57	0	1061158912	53	4789
2026-01-03 00:09:47.57	210.64	22.95	-40.1	-42.6	15.3	0.00e+00	0	57	0	1069547520	52	4624
2026-01-03 00:09:51.61	210.48	22.37	-40.1	-42.6	15.4	0.00e+00	0	57	0	1076887552	51	4905
2026-01-03 00:09:55.65	210.32	21.80	-39.6	-42.0	16.1	0.00e+00	0	57	0	1084227584	51	4546
2026-01-03 00:09:59.68	210.17	21.24	-39.4	-41.6	16.4	0.00e+00	0	57	0	1091567616	50	4600
2026-01-03 00:10:03.72	210.02	20.69	-39.3	-41.5	16.5	0.00e+00	0	57	0	1098907648	50	4574
2026-01-03 00:10:07.76	209.88	20.16	-39.5	-41.7	16.2	0.00e+00	0	57	0	1107296256	50	4698
2026-01-03 00:10:11.80	209.75	19.63	-39.6	-41.9	16.1	0.00e+00	0	57	0	1114636288	50	4785
2026-01-03 00:10:15.83	209.62	19.12	-39.4	-41.6	16.4	0.00e+00	0	57	0	1121976320	50	4618
2026-01-03 00:10:19.87	209.49	18.61	-39.5	-41.8	16.1	0.00e+00	0	57	0	1129316352	50	4752
2026-01-03 00:10:23.91	209.37	18.12	-40.0	-42.6	15.3	0.00e+00	0	57	0	1137704960	50	5192
2026-01-03 00:10:27.95	209.25	17.64	-40.7	-43.6	14.1	6.80e-06	0	57	0	1145044992	52	5214
2026-01-03 00:10:31.99	209.14	17.16	-41.0	-44.2	13.7	3.80e-06	0	57	0	1152385024	52	5541
2026-01-03 00:10:36.03	209.03	16.70	-40.5	-43.3	14.4	0.00e+00	0	57	0	1159725056	52	5026
2026-01-03 00:10:40.07	208.92	16.24	-40.0	-42.6	15.3	0.00e+00	0	57	0	1167065088	51	4903
2026-01-03 00:10:44.10	208.82	15.79	-40.0	-42.5	15.3	0.00e+00	0	57	0	1175453696	51	4854
2026-01-03 00:10:48.14	208.72	15.35	-40.4	-43.2	14.7	0.00e+00	0	57	0	1182793728	51	5222
2026-01-03 00:10:52.18	208.63	14.92	-41.0	-44.3	13.4	9.10e-06	0	57	0	1190133760	52	5640
2026-01-03 00:10:56.22	208.53	14.49	-41.2	-44.6	13.1	3.81e-05	0	57	0	1197473792	53	5514
2026-01-03 00:11:00.25	208.44	14.07	-41.0	-44.2	13.4	1.90e-05	0	57	0	1205862400	53	5263
2026-01-03 00:11:04.27	208.36	13.66	-40.6	-43.6	14.1	4.50e-06	0	57	0	1213202432	53	4890
2026-01-03 00:11:08.31	208.27	13.26	-40.1	-42.7	14.9	7.00e-07	0	57	0	1220542464	52	4690
2026-01-03 00:11:12.35	208.19	12.86	-39.7	-42.1	15.6	0.00e+00	0	57	0	1227882496	51	4642
2026-01-03 00:11:16.39	208.11	12.47	-39.4	-41.7	15.9	0.00e+00	0	57	0	1235222528	50	4690
2026-01-03 00:11:20.42	208.03	12.08	-39.5	-41.9	15.8	0.00e+00	0	57	0	1243611136	50	4777
2026-01-03 00:11:24.46	207.96	11.70	-39.4	-41.7	15.9	0.00e+00	0	57	0	1250951168	50	4682
2026-01-03 00:11:28.50	207.89	11.33	-39.5	-41.9	15.7	0.00e+00	0	57	0	1258291200	50	4773
2026-01-03 00:11:32.54	207.82	10.96	-39.6	-42.0	15.5	0.00e+00	0	57	0	1265631232	50	4866
2026-01-03 00:11:36.58	207.75	10.60	-39.9	-42.6	14.9	0.00e+00	0	57	0	1274019840	50	5178
2026-01-03 00:11:40.61	207.68	10.24	-40.2	-43.0	14.5	0.00e+00	0	57	0	1281359872	51	5111
2026-01-03 00:11:44.65	207.62	9.89	-40.4	-43.4	14.1	2.20e-06	0	57	0	1288699904	51	5347
2026-01-03 00:11:48.69	207.55	9.54	-40.6	-43.7	13.7	6.10e-06	0	57	0	1296039936	51	5591
2026-01-03 00:11:52.73	207.49	9.20	-40.5	-43.6	13.6	4.50e-06	0	57	0	1303379968	52	5209
2026-01-03 00:11:56.77	207.43	8.86	-40.6	-43.8	13.5	1.29e-05	0	57	0	1311768576	52	5289
2026-01-03 00:12:00.81	207.37	8.53	-40.7	-44.0	13.2	1.67e-05	0	57	0	1319108608	52	5447
2026-01-03 00:12:04.85	207.32	8.20	-40.7	-44.0	13.1	3.20e-05	0	57	0	1326448640	52	5447
2026-01-03 00:12:08.88	207.26	7.87	-44.7	-59.1	3.8	1.49e+00	0	57	104	1331691520	59	20578
2026-01-03 00:12:12.92	207.21	7.55	-45.0	-59.6	3.8	1.49e+00	0	57	104	1331691520	60	20665
2026-01-03 00:12:16.97	207.16	7.23	-45.1	-59.6	3.8	1.49e+00	0	57	104	1331691520	60	20630
2026-01-03 00:12:21.01	207.10	6.92	-45.0	-59.5	3.8	1.49e+00	0	57	104	1331691520	60	20501
2026-01-03 00:12:25.05	207.06	6.61	-45.0	-59.5	3.8	1.49e+00	0	57	104	1331691520	60	20376
2026-01-03 00:12:29.09	207.01	6.31	-45.0	-59.5	3.8	1.49e+00	0	58	104	1331691520	60	20366
2026-01-03 00:12:33.14	206.96	6.00	-45.0	-59.5	3.8	1.49e+00	0	58	104	1331691520	60	20329
2026-01-03 00:12:37.18	206.91	5.70	-45.0	-59.5	3.8	1.49e+00	0	57	104	1331691520	60	20367
2026-01-03 00:12:41.22	206.87	5.41	-45.0	-59.4	3.8	1.49e+00	0	58	104	1331691520	60	20289
2026-01-03 00:12:45.27	206.82	5.11	-44.9	-59.4	3.8	1.49e+00	0	57	104	1331691520	60	20286
2026-01-03 00:12:49.31	206.78	4.83	-44.9	-59.4	3.8	1.49e+00	0	58	104	1331691520	60	20288
2026-01-03 00:12:53.36	206.74	4.54	-44.9	-59.5	3.8	1.49e+00	0	57	104	1331691520	60	20308
2026-01-03 00:12:57.40	206.70	4.26	-44.9	-59.5	3.8	1.49e+00	0	57	104	1331691520	60	20310
2026-01-03 00:13:01.44	206.66	3.98	-44.9	-59.5	3.8	1.49e+00	0	58	104	1331691520	60	20358
2026-01-03 00:13:05.48	206.62	3.70	-44.9	-59.4	3.8	1.49e+00	0	57	104	1331691520	60	20227
2026-01-03 00:13:09.53	206.58	3.42	-44.9	-59.5	3.8	1.49e+00	0	57	104	1331691520	60	20308
2026-01-03 00:13:13.57	206.55	3.15	-44.9	-59.4	3.8	1.49e+00	0	57	104	1331691520	60	20295
2026-01-03 00:13:17.61	206.51	2.88	-44.9	-59.4	3.8	1.49e+00	0	57	104	1331691520	60	20202
2026-01-03 00:13:21.66	206.47	2.62	-44.9	-59.4	3.8	1.49e+00	0	58	104	1331691520	60	20218
2026-01-03 00:13:25.70	206.44	2.35	-44.9	-59.4	3.8	1.49e+00	0	57	104	1331691520	60	20229
2026-01-03 00:13:29.74	206.41	2.09	-44.9	-59.4	3.8	1.49e+00	0	57	104	1331691520	60	20258

#Closed at: 2026-01-03 00:13:33
#Recorded file [1331 MB]: D:/lorett/data/31039_260103_025909.dat