passes_logs/2026/01/02/R2.0S_Moscow/R2.0S_Moscow__20260102_025942_FENGYUN_3D_rec.log

#Pass ID: 20260102_025942_FENGYUN 3D
#Satellite: FENGYUN 3D
#Configuration: FENGYUN 3D
#almurnet v.1.7.20251203
#Start time: 2026-01-02 02:59:44

#Version: 2.2.20231116
#Station: R2.0S_Moscow
#Location: 37.707566 lon 55.798166 lat
#TLE: 1 43010U 17072A   26001.33100487  .00000602  00000+0  30664-3 0  9999
#TLE: 2 43010  98.9910 332.9374 0001848 133.1047 227.0283 14.19692078421319

#Time	Az	El	Level	Level2	SNR	BER	BlckErr	Temp	State	Recorded	gain1	gain2
2026-01-02 02:59:44.65	11.83	2.11	-39.3	-51.0	3.8	8.46e-01	0	48	0	0	50	13614
2026-01-02 02:59:48.68	11.63	2.35	-39.3	-51.0	3.8	8.46e-01	0	48	104	0	50	13607
2026-01-02 02:59:52.73	11.42	2.60	-39.3	-51.0	3.8	8.46e-01	0	48	104	0	50	13628
2026-01-02 02:59:56.77	11.21	2.84	-39.3	-51.0	3.8	8.46e-01	0	49	104	0	50	13614
2026-01-02 03:00:00.82	11.00	3.09	-39.3	-51.0	3.8	8.45e-01	0	49	104	0	50	13637
2026-01-02 03:00:04.86	10.79	3.34	-39.3	-51.0	3.8	8.46e-01	0	49	104	0	50	13608
2026-01-02 03:00:08.90	10.57	3.59	-39.3	-51.0	3.8	8.47e-01	0	50	104	0	50	13624
2026-01-02 03:00:12.95	10.34	3.84	-39.3	-50.9	3.8	8.47e-01	0	50	104	0	50	13565
2026-01-02 03:00:17.00	10.11	4.10	-39.3	-51.0	3.8	8.47e-01	0	50	104	0	50	13628
2026-01-02 03:00:21.04	9.88	4.36	-39.3	-51.0	3.8	8.46e-01	0	50	104	0	50	13585
2026-01-02 03:00:25.08	9.64	4.62	-39.3	-50.9	3.8	8.45e-01	0	51	104	0	50	13561
2026-01-02 03:00:29.13	9.40	4.88	-39.3	-51.0	3.8	8.45e-01	0	51	104	0	50	13615
2026-01-02 03:00:33.17	9.15	5.14	-39.3	-51.0	3.8	8.46e-01	0	51	104	0	50	13616
2026-01-02 03:00:37.21	8.90	5.41	-39.3	-51.0	3.8	8.47e-01	0	51	104	0	50	13652
2026-01-02 03:00:41.26	8.65	5.67	-39.3	-51.0	3.8	8.45e-01	0	52	104	0	50	13629
2026-01-02 03:00:45.30	8.38	5.94	-39.3	-51.0	3.8	8.46e-01	0	52	104	0	50	13615
2026-01-02 03:00:49.34	8.12	6.21	-39.3	-51.0	3.8	8.46e-01	0	52	104	0	50	13603
2026-01-02 03:00:53.39	7.85	6.49	-39.3	-51.0	3.8	8.45e-01	0	52	104	0	50	13623
2026-01-02 03:00:57.43	7.57	6.76	-39.3	-50.9	3.8	8.46e-01	0	52	104	0	50	13562
2026-01-02 03:01:01.48	7.28	7.04	-39.3	-50.9	3.8	8.45e-01	0	53	104	0	50	13534
2026-01-02 03:01:05.52	7.00	7.32	-39.3	-50.9	3.8	8.45e-01	0	53	104	0	50	13559
2026-01-02 03:01:09.57	6.70	7.61	-39.3	-51.0	3.8	8.46e-01	0	53	104	0	50	13573
2026-01-02 03:01:13.61	6.40	7.89	-39.3	-51.0	3.8	8.46e-01	0	53	104	0	50	13605
2026-01-02 03:01:17.65	6.09	8.18	-39.4	-51.0	3.8	8.46e-01	0	53	104	0	50	13726
2026-01-02 03:01:21.70	5.78	8.47	-39.4	-51.1	3.8	8.46e-01	0	53	104	0	50	13796
2026-01-02 03:01:25.74	5.46	8.77	-39.4	-51.1	3.8	8.45e-01	0	53	104	0	50	13766
2026-01-02 03:01:29.78	5.13	9.06	-39.4	-51.0	3.8	8.47e-01	0	54	104	0	50	13705
2026-01-02 03:01:33.82	4.80	9.36	-39.5	-51.2	3.8	8.46e-01	0	54	104	0	50	13977
2026-01-02 03:01:37.86	4.46	9.66	-39.6	-51.2	3.8	8.45e-01	0	54	104	0	50	14032
2026-01-02 03:01:41.90	4.11	9.96	-39.6	-51.3	3.8	8.46e-01	0	54	104	0	50	14091
2026-01-02 03:01:45.95	3.75	10.27	-39.6	-51.3	3.8	8.47e-01	0	54	104	0	50	14103
2026-01-02 03:01:49.99	3.39	10.58	-39.6	-51.3	3.8	8.46e-01	0	54	104	0	50	14051
2026-01-02 03:01:54.03	3.01	10.89	-39.7	-51.5	3.8	8.46e-01	0	54	104	0	50	14379
2026-01-02 03:01:58.07	2.63	11.21	-39.6	-51.3	3.8	8.47e-01	0	54	104	0	50	14150
2026-01-02 03:02:02.11	2.24	11.52	-39.7	-51.5	3.8	8.46e-01	0	54	104	0	50	14376
2026-01-02 03:02:06.15	1.84	11.84	-39.5	-51.3	3.8	8.46e-01	0	55	104	0	50	14207
2026-01-02 03:02:10.19	1.44	12.17	-40.0	-51.2	3.8	8.47e-01	0	55	104	0	50	13956
2026-01-02 03:02:14.23	1.02	12.49	-39.6	-50.8	3.8	8.47e-01	0	55	104	0	50	13291
2026-01-02 03:02:18.27	0.59	12.82	-39.6	-46.3	5.2	7.80e-01	0	55	0	0	50	7938
2026-01-02 03:02:22.31	0.16	13.15	-38.6	-43.2	7.8	1.08e-01	0	55	0	19922944	49	5885
2026-01-02 03:02:26.35	359.71	13.48	-36.4	-38.5	14.1	5.70e-06	0	55	0	42991616	44	4567
2026-01-02 03:02:30.39	359.25	13.82	-34.7	-36.1	17.4	0.00e+00	0	55	0	65011712	41	4138
2026-01-02 03:02:34.43	358.78	14.16	-34.2	-35.5	18.3	0.00e+00	0	55	0	88080384	40	4078
2026-01-02 03:02:38.47	358.30	14.50	-34.5	-35.9	18.1	0.00e+00	0	55	0	111149056	40	4257
2026-01-02 03:02:42.51	357.81	14.85	-34.5	-35.9	18.1	0.00e+00	0	55	0	133169152	40	4260
2026-01-02 03:02:46.55	357.31	15.20	-34.1	-35.4	18.4	0.00e+00	0	55	0	156237824	40	4045
2026-01-02 03:02:50.59	356.80	15.55	-33.7	-35.0	18.6	0.00e+00	0	55	0	179306496	39	4075
2026-01-02 03:02:54.64	356.27	15.90	-35.9	-37.7	15.0	0.00e+00	0	55	0	201326592	42	4689
2026-01-02 03:02:58.68	355.73	16.26	-38.9	-43.4	8.0	4.11e-02	0	55	0	224395264	48	6357
2026-01-02 03:03:02.72	355.17	16.62	-39.8	-48.9	4.1	8.37e-01	0	56	0	234881024	50	10689
2026-01-02 03:03:06.76	354.60	16.98	-39.9	-51.3	3.8	8.46e-01	0	56	104	234881024	50	14111
2026-01-02 03:03:10.80	354.02	17.34	-39.9	-51.6	3.8	8.46e-01	0	56	104	234881024	50	14607
2026-01-02 03:03:14.84	353.42	17.70	-39.6	-51.8	3.8	8.46e-01	0	56	104	234881024	50	14997
2026-01-02 03:03:18.88	352.81	18.07	-39.7	-51.8	3.8	8.47e-01	0	56	104	234881024	50	14993
2026-01-02 03:03:22.92	352.19	18.44	-40.3	-52.1	3.8	8.46e-01	0	56	104	234881024	51	14597
2026-01-02 03:03:26.96	351.54	18.81	-40.0	-52.0	3.8	8.47e-01	0	56	104	234881024	51	14429
2026-01-02 03:03:31.00	350.88	19.19	-40.5	-52.1	3.8	8.46e-01	0	56	104	234881024	51	14695
2026-01-02 03:03:35.04	350.21	19.56	-39.9	-51.7	3.8	8.48e-01	0	56	104	234881024	51	14007
2026-01-02 03:03:39.07	349.52	19.94	-40.0	-51.7	3.8	8.46e-01	0	56	104	234881024	51	13976
2026-01-02 03:03:43.12	348.80	20.32	-40.7	-47.4	5.3	7.47e-01	0	56	0	234881024	52	8003
2026-01-02 03:03:47.16	348.07	20.69	-41.7	-47.1	6.3	3.35e-01	0	56	0	239075328	53	7335
2026-01-02 03:03:51.20	347.33	21.07	-41.2	-45.0	9.0	3.69e-02	0	56	0	261095424	53	5724
2026-01-02 03:03:55.23	346.56	21.45	-40.9	-44.4	9.8	1.18e-02	0	56	0	284164096	53	5343
2026-01-02 03:03:59.27	345.78	21.83	-36.5	-38.1	16.3	0.00e+00	0	56	0	307232768	45	4115
2026-01-02 03:04:03.31	344.97	22.21	-32.9	-34.0	20.2	0.00e+00	0	57	0	330301440	37	4087
2026-01-02 03:04:07.36	344.14	22.59	-32.6	-33.7	20.6	0.00e+00	0	56	0	352321536	36	4166
2026-01-02 03:04:11.40	343.30	22.97	-32.4	-33.5	20.9	0.00e+00	0	56	0	375390208	36	4066
2026-01-02 03:04:15.44	342.43	23.35	-32.4	-33.4	21.0	0.00e+00	0	56	0	397410304	36	4048
2026-01-02 03:04:19.47	341.54	23.72	-32.0	-33.1	21.4	0.00e+00	0	56	0	420478976	36	3873
2026-01-02 03:04:23.51	340.63	24.09	-31.3	-32.4	21.4	0.00e+00	0	56	0	443547648	34	4005
2026-01-02 03:04:27.55	339.70	24.46	-31.4	-32.5	21.3	0.00e+00	0	56	0	466616320	34	4075
2026-01-02 03:04:31.59	338.75	24.83	-31.4	-32.4	21.5	0.00e+00	0	56	0	488636416	34	4037
2026-01-02 03:04:35.62	337.77	25.19	-31.2	-32.2	21.7	0.00e+00	0	57	0	511705088	34	3949
2026-01-02 03:04:39.66	336.77	25.55	-31.1	-32.1	21.8	0.00e+00	0	57	0	534773760	34	3892
2026-01-02 03:04:43.70	335.75	25.90	-31.1	-32.2	21.7	0.00e+00	0	57	0	556793856	34	3915
2026-01-02 03:04:47.74	334.70	26.25	-31.2	-32.2	21.7	0.00e+00	0	57	0	579862528	34	3956
2026-01-02 03:04:51.79	333.63	26.59	-31.0	-32.1	21.8	0.00e+00	0	57	0	601882624	34	3878
2026-01-02 03:04:55.83	332.53	26.92	-31.0	-32.1	21.8	0.00e+00	0	57	0	624951296	33	4113
2026-01-02 03:04:59.87	331.42	27.25	-31.0	-32.1	21.8	0.00e+00	0	57	0	648019968	33	4108
2026-01-02 03:05:03.90	330.28	27.57	-30.7	-31.7	22.1	0.00e+00	0	57	0	671088640	33	3954
2026-01-02 03:05:07.95	329.11	27.88	-30.5	-31.5	22.4	0.00e+00	0	57	0	693108736	33	3861
2026-01-02 03:05:11.99	327.93	28.17	-30.7	-31.7	22.2	0.00e+00	0	57	0	716177408	33	3924
2026-01-02 03:05:16.03	326.72	28.46	-30.9	-32.0	21.9	0.00e+00	0	57	0	739246080	33	4067
2026-01-02 03:05:20.07	325.49	28.74	-30.6	-31.6	22.3	0.00e+00	0	57	0	761266176	33	3899
2026-01-02 03:05:24.11	324.24	29.00	-30.6	-31.6	22.3	0.00e+00	0	57	0	784334848	33	3901
2026-01-02 03:05:28.15	322.97	29.25	-30.7	-31.7	22.2	0.00e+00	0	57	0	807403520	33	3937
2026-01-02 03:05:32.19	321.68	29.49	-30.3	-31.3	22.5	0.00e+00	0	57	0	829423616	32	3994
2026-01-02 03:05:36.23	320.37	29.71	-30.6	-31.6	22.3	0.00e+00	0	57	0	852492288	32	4139
2026-01-02 03:05:40.27	319.05	29.92	-30.4	-31.4	22.4	0.00e+00	0	57	0	875560960	32	4040
2026-01-02 03:05:44.31	317.70	30.11	-30.5	-31.5	22.4	0.00e+00	0	57	0	897581056	32	4073
2026-01-02 03:05:48.35	316.35	30.28	-30.5	-31.5	22.4	0.00e+00	0	57	0	920649728	32	4056
2026-01-02 03:05:52.40	314.97	30.44	-30.4	-31.3	22.5	0.00e+00	0	57	0	943718400	32	4003
2026-01-02 03:05:56.43	313.59	30.58	-30.3	-31.3	22.6	0.00e+00	0	57	0	965738496	32	3981
2026-01-02 03:06:00.47	312.19	30.70	-30.3	-31.3	22.5	0.00e+00	0	57	0	988807168	32	3996
2026-01-02 03:06:04.50	310.79	30.80	-30.3	-31.3	22.5	0.00e+00	0	57	0	1011875840	32	4000
2026-01-02 03:06:08.54	309.37	30.88	-30.3	-31.3	22.5	0.00e+00	0	57	0	1033895936	32	3992
2026-01-02 03:06:12.58	307.95	30.94	-30.1	-31.1	22.7	0.00e+00	0	57	0	1056964608	32	3895
2026-01-02 03:06:16.62	306.52	30.99	-30.2	-31.2	22.7	0.00e+00	0	57	0	1080033280	32	3917
2026-01-02 03:06:20.66	305.09	31.01	-30.2	-31.2	22.6	0.00e+00	0	57	0	1102053376	32	3947
2026-01-02 03:06:24.70	303.66	31.01	-30.2	-31.2	22.6	0.00e+00	0	57	0	1125122048	32	3939
2026-01-02 03:06:28.74	302.23	31.00	-30.3	-31.3	22.6	0.00e+00	0	57	0	1148190720	32	3968
2026-01-02 03:06:32.78	300.80	30.96	-30.1	-31.1	22.7	0.00e+00	0	57	0	1170210816	32	3889
2026-01-02 03:06:36.82	299.38	30.90	-30.1	-31.1	22.7	0.00e+00	0	57	0	1193279488	32	3892
2026-01-02 03:06:40.85	297.96	30.83	-30.2	-31.2	22.6	0.00e+00	0	57	0	1216348160	32	3933
2026-01-02 03:06:44.90	296.55	30.73	-30.1	-31.1	22.7	0.00e+00	0	57	0	1238368256	32	3882
2026-01-02 03:06:48.94	295.15	30.61	-30.2	-31.2	22.6	0.00e+00	0	57	0	1261436928	32	3943
2026-01-02 03:06:52.98	293.76	30.48	-30.2	-31.2	22.6	0.00e+00	0	57	0	1284505600	32	3947
2026-01-02 03:06:57.01	292.38	30.33	-30.5	-31.5	22.4	0.00e+00	0	57	0	1306525696	32	4057
2026-01-02 03:07:01.05	291.01	30.16	-30.3	-31.3	22.5	0.00e+00	0	57	0	1329594368	32	3974
2026-01-02 03:07:05.09	289.66	29.97	-29.8	-30.8	22.8	0.00e+00	0	57	0	1352663040	31	3971
2026-01-02 03:07:09.14	288.33	29.77	-30.2	-31.2	22.4	0.00e+00	0	57	0	1374683136	31	4172
2026-01-02 03:07:13.18	287.01	29.55	-30.5	-31.5	22.2	0.00e+00	0	57	0	1397751808	31	4326
2026-01-02 03:07:17.22	285.71	29.32	-30.3	-31.3	22.4	0.00e+00	0	57	0	1420820480	31	4194
2026-01-02 03:07:21.26	284.43	29.07	-30.0	-31.0	22.6	0.00e+00	0	57	0	1442840576	31	4096
2026-01-02 03:07:25.30	283.17	28.81	-30.3	-31.3	22.4	0.00e+00	0	57	0	1465909248	31	4201
2026-01-02 03:07:29.34	281.93	28.53	-30.2	-31.2	22.4	0.00e+00	0	57	0	1488977920	31	4151
2026-01-02 03:07:33.39	280.71	28.25	-30.4	-31.4	22.2	0.00e+00	0	57	0	1510998016	31	4264
2026-01-02 03:07:37.42	279.52	27.95	-30.1	-31.1	22.5	0.00e+00	0	57	0	1534066688	31	4137
2026-01-02 03:07:41.47	278.35	27.65	-30.2	-31.2	22.4	0.00e+00	0	57	0	1557135360	31	4187
2026-01-02 03:07:45.51	277.19	27.33	-30.1	-31.1	22.5	0.00e+00	0	57	0	1580204032	31	4109
2026-01-02 03:07:49.55	276.07	27.00	-30.2	-31.2	22.4	0.00e+00	0	57	0	1602224128	31	4171
2026-01-02 03:07:53.59	274.96	26.67	-30.4	-31.4	22.2	0.00e+00	0	57	0	1625292800	31	4273
2026-01-02 03:07:57.63	273.88	26.33	-30.5	-31.5	22.1	0.00e+00	0	57	0	1647312896	31	4302
2026-01-02 03:08:01.67	272.83	25.98	-30.4	-31.5	22.2	0.00e+00	0	57	0	1670381568	31	4294
2026-01-02 03:08:05.71	271.79	25.63	-30.3	-31.3	22.3	0.00e+00	0	57	0	1693450240	31	4228
2026-01-02 03:08:09.75	270.78	25.27	-30.6	-31.6	22.0	0.00e+00	0	57	0	1716518912	31	4367
2026-01-02 03:08:13.79	269.79	24.91	-30.4	-31.4	22.2	0.00e+00	0	57	0	1738539008	31	4268
2026-01-02 03:08:17.83	268.83	24.54	-30.6	-31.6	22.0	0.00e+00	0	57	0	1761607680	31	4388
2026-01-02 03:08:21.86	267.88	24.17	-30.5	-31.6	22.0	0.00e+00	0	57	0	1784676352	31	4344
2026-01-02 03:08:25.90	266.96	23.80	-30.7	-31.7	21.9	0.00e+00	0	57	0	1806696448	31	4423
2026-01-02 03:08:29.94	266.06	23.42	-31.0	-32.1	21.7	0.00e+00	0	57	0	1829765120	32	4354
2026-01-02 03:08:33.98	265.19	23.05	-31.1	-32.1	21.7	0.00e+00	0	57	0	1851785216	32	4360
2026-01-02 03:08:38.02	264.33	22.67	-31.4	-32.4	21.4	0.00e+00	0	57	0	1874853888	33	4273
2026-01-02 03:08:42.06	263.49	22.29	-31.3	-32.3	21.4	0.00e+00	0	57	0	1897922560	33	4221
2026-01-02 03:08:46.10	262.68	21.90	-31.3	-32.4	21.4	0.00e+00	0	57	0	1920991232	33	4266
2026-01-02 03:08:50.14	261.88	21.52	-31.5	-32.5	21.2	0.00e+00	0	57	0	1943011328	33	4321
2026-01-02 03:08:54.18	261.11	21.14	-31.4	-32.4	21.3	0.00e+00	0	57	0	1966080000	33	4288
2026-01-02 03:08:58.22	260.35	20.76	-31.4	-32.4	21.3	0.00e+00	0	57	0	1989148672	33	4287
2026-01-02 03:09:02.24	259.62	20.38	-31.5	-32.6	21.2	0.00e+00	0	57	0	2011168768	33	4352
2026-01-02 03:09:06.28	258.90	20.00	-31.6	-32.7	21.0	0.00e+00	0	57	0	2034237440	33	4421
2026-01-02 03:09:10.31	258.20	19.63	-31.7	-32.7	21.0	0.00e+00	0	57	0	2056257536	33	4439
2026-01-02 03:09:14.35	257.51	19.25	-31.8	-32.9	20.8	0.00e+00	0	57	0	2079326208	34	4290
2026-01-02 03:09:18.39	256.84	18.87	-31.8	-32.9	20.8	0.00e+00	0	57	0	2102394880	34	4272
2026-01-02 03:09:22.42	256.19	18.50	-31.9	-33.0	20.7	0.00e+00	0	58	0	2124414976	34	4335
2026-01-02 03:09:26.46	255.56	18.13	-32.2	-33.3	20.4	0.00e+00	0	57	0	2147483648	34	4470
2026-01-02 03:09:30.50	254.94	17.76	-32.3	-33.4	20.3	0.00e+00	0	57	0	2170552320	35	4284
2026-01-02 03:09:34.54	254.33	17.39	-32.4	-33.5	20.2	0.00e+00	0	57	0	2193620992	35	4308
2026-01-02 03:09:38.58	253.74	17.02	-32.5	-33.7	20.0	0.00e+00	0	57	0	2215641088	35	4403
2026-01-02 03:09:42.62	253.16	16.66	-32.7	-33.8	19.9	0.00e+00	0	58	0	2238709760	35	4480
2026-01-02 03:09:46.66	252.60	16.30	-33.3	-34.5	19.9	0.00e+00	0	57	0	2260729856	37	4311
2026-01-02 03:09:50.70	252.05	15.94	-33.6	-34.8	19.6	0.00e+00	0	57	0	2283798528	37	4463
2026-01-02 03:09:54.74	251.52	15.59	-33.3	-34.5	19.9	0.00e+00	0	57	0	2306867200	38	4052
2026-01-02 03:09:58.78	250.99	15.23	-33.4	-34.6	19.8	0.00e+00	0	57	0	2328887296	38	4125
2026-01-02 03:10:02.81	250.48	14.88	-33.7	-34.9	19.5	0.00e+00	0	57	0	2351955968	38	4272
2026-01-02 03:10:06.85	249.99	14.54	-33.6	-34.8	19.6	0.00e+00	0	57	0	2375024640	38	4214
2026-01-02 03:10:10.89	249.50	14.19	-33.8	-35.0	19.3	0.00e+00	0	57	0	2397044736	38	4327
2026-01-02 03:10:14.93	249.02	13.85	-34.3	-35.5	18.8	0.00e+00	0	57	0	2420113408	39	4334
2026-01-02 03:10:18.97	248.56	13.51	-34.0	-35.2	19.2	0.00e+00	0	57	0	2443182080	39	4164
2026-01-02 03:10:23.01	248.10	13.17	-34.2	-35.4	18.9	0.00e+00	0	57	0	2465202176	39	4288
2026-01-02 03:10:27.05	247.66	12.84	-34.1	-35.4	18.9	0.00e+00	0	57	0	2488270848	39	4258
2026-01-02 03:10:31.09	247.23	12.51	-34.2	-35.5	18.9	0.00e+00	0	57	0	2511339520	39	4297
2026-01-02 03:10:35.13	246.80	12.18	-34.3	-35.6	18.7	0.00e+00	0	57	0	2533359616	39	4366
2026-01-02 03:10:39.17	246.39	11.86	-34.5	-35.7	18.5	0.00e+00	0	57	0	2556428288	39	4440
2026-01-02 03:10:43.21	245.98	11.54	-34.6	-35.9	18.3	0.00e+00	0	57	0	2579496960	39	4530
2026-01-02 03:10:47.24	245.59	11.22	-34.6	-35.9	18.3	0.00e+00	0	57	0	2601517056	39	4540
2026-01-02 03:10:51.28	245.20	10.90	-34.6	-35.9	18.3	0.00e+00	0	57	0	2624585728	40	4249
2026-01-02 03:10:55.32	244.82	10.59	-34.9	-36.2	17.9	0.00e+00	0	58	0	2647654400	40	4423
2026-01-02 03:10:59.36	244.45	10.28	-35.2	-36.6	17.6	0.00e+00	0	57	0	2669674496	40	4608
2026-01-02 03:11:03.39	244.09	9.97	-34.8	-36.2	18.0	0.00e+00	0	58	0	2692743168	40	4397
2026-01-02 03:11:07.43	243.73	9.66	-35.0	-36.4	17.7	0.00e+00	0	58	0	2715811840	40	4499
2026-01-02 03:11:11.47	243.39	9.36	-34.9	-36.3	17.7	0.00e+00	0	57	0	2737831936	40	4468
2026-01-02 03:11:15.51	243.05	9.06	-35.0	-36.4	17.7	0.00e+00	0	57	0	2760900608	40	4511
2026-01-02 03:11:19.56	242.71	8.76	-35.2	-36.6	17.4	0.00e+00	0	57	0	2783969280	41	4352
2026-01-02 03:11:23.60	242.39	8.47	-35.1	-36.5	17.4	0.00e+00	0	57	0	2805989376	41	4339
2026-01-02 03:11:27.64	242.07	8.18	-35.2	-36.6	17.4	0.00e+00	0	58	0	2829058048	41	4368
2026-01-02 03:11:31.68	241.75	7.89	-44.4	-55.8	3.8	8.46e-01	0	58	104	2845835264	59	14140
2026-01-02 03:11:35.72	241.45	7.60	-44.8	-56.4	3.8	8.46e-01	0	58	104	2845835264	60	14265
2026-01-02 03:11:39.77	241.14	7.31	-44.8	-56.5	3.8	8.45e-01	0	58	104	2845835264	60	14421
2026-01-02 03:11:43.81	240.85	7.03	-44.7	-56.4	3.8	8.47e-01	0	57	104	2845835264	60	14216
2026-01-02 03:11:47.85	240.56	6.75	-44.7	-56.3	3.8	8.46e-01	0	58	104	2845835264	60	14119
2026-01-02 03:11:51.89	240.28	6.47	-44.7	-56.3	3.8	8.46e-01	0	58	104	2845835264	60	14164
2026-01-02 03:11:55.94	240.00	6.20	-44.7	-56.3	3.8	8.46e-01	0	58	104	2845835264	60	14174
2026-01-02 03:11:59.98	239.73	5.92	-44.7	-56.3	3.8	8.46e-01	0	58	104	2845835264	60	14107
2026-01-02 03:12:04.02	239.46	5.65	-44.7	-56.3	3.8	8.47e-01	0	58	104	2845835264	60	14108
2026-01-02 03:12:08.07	239.20	5.38	-44.7	-56.3	3.8	8.45e-01	0	58	104	2845835264	60	14112
2026-01-02 03:12:12.11	238.94	5.12	-44.7	-56.3	3.8	8.46e-01	0	58	104	2845835264	60	14117
2026-01-02 03:12:16.16	238.69	4.85	-44.7	-56.3	3.8	8.47e-01	0	58	104	2845835264	60	14065
2026-01-02 03:12:20.20	238.44	4.59	-44.7	-56.3	3.8	8.47e-01	0	58	104	2845835264	60	14120
2026-01-02 03:12:24.25	238.20	4.33	-44.7	-56.3	3.8	8.47e-01	0	58	104	2845835264	60	14092
2026-01-02 03:12:28.29	237.96	4.07	-44.7	-56.3	3.8	8.45e-01	0	58	104	2845835264	60	14116
2026-01-02 03:12:32.34	237.72	3.82	-44.7	-56.3	3.8	8.46e-01	0	58	104	2845835264	60	14076
2026-01-02 03:12:36.38	237.49	3.56	-44.7	-56.3	3.8	8.46e-01	0	58	104	2845835264	60	14052
2026-01-02 03:12:40.42	237.27	3.31	-44.7	-56.3	3.8	8.46e-01	0	58	104	2845835264	60	14073
2026-01-02 03:12:44.47	237.04	3.06	-44.7	-56.3	3.8	8.46e-01	0	58	104	2845835264	60	14095
2026-01-02 03:12:48.51	236.83	2.81	-44.7	-56.3	3.8	8.46e-01	0	58	104	2845835264	60	14111
2026-01-02 03:12:52.56	236.61	2.56	-44.7	-56.3	3.8	8.46e-01	0	58	104	2845835264	60	14099
2026-01-02 03:12:56.60	236.40	2.32	-44.7	-56.3	3.8	8.46e-01	0	58	104	2845835264	60	14115
2026-01-02 03:13:00.64	236.19	2.07	-44.7	-56.3	3.8	8.47e-01	0	58	104	2845835264	60	14076

#Closed at: 2026-01-02 03:13:04
#Recorded file [2845 MB]: D:/lorett/data/31039_260102_055944.dat