passes_logs/2026/01/02/R2.0S_Moscow/R2.0S_Moscow__20260102_114927_AQUA_rec.log

#Pass ID: 20260102_114927_AQUA
#Satellite: AQUA
#Configuration: AQUA
#almurnet v.1.7.20251203
#Start time: 2026-01-02 11:49:28

#Version: 2.2.20231116
#Station: R2.0S_Moscow
#Location: 37.707566 lon 55.798166 lat
#TLE: 1 27424U 02022A   25365.92641127  .00002078  00000+0  42628-3 0  9999
#TLE: 2 27424  98.4058 327.1196 0001962  94.7781 340.6230 14.61783896258835

#Time	Az	El	Level	Level2	SNR	BER	BlckErr	Temp	State	Recorded	gain1	gain2
2026-01-02 11:49:28.83	167.02	2.11	-44.7	-63.5	3.8	7.43e-01	0	47	0	0	61	30491
2026-01-02 11:49:32.87	167.07	2.38	-44.7	-63.5	3.8	7.46e-01	0	48	104	0	60	32308
2026-01-02 11:49:36.91	167.13	2.65	-44.7	-63.5	3.8	7.41e-01	0	48	104	0	60	32319
2026-01-02 11:49:40.96	167.18	2.93	-44.7	-63.5	3.8	7.45e-01	0	48	104	0	60	32263
2026-01-02 11:49:45.00	167.23	3.21	-44.7	-63.5	3.8	7.47e-01	0	49	104	0	60	32326
2026-01-02 11:49:49.05	167.28	3.49	-44.7	-63.5	3.8	7.43e-01	0	49	104	0	60	32228
2026-01-02 11:49:53.09	167.34	3.78	-44.7	-63.5	3.8	7.43e-01	0	49	104	0	60	32252
2026-01-02 11:49:57.14	167.39	4.07	-44.7	-63.5	3.8	7.43e-01	0	50	104	0	60	32257
2026-01-02 11:50:01.18	167.45	4.36	-44.7	-63.5	3.8	7.47e-01	0	50	104	0	60	32279
2026-01-02 11:50:05.23	167.51	4.66	-44.7	-63.5	3.8	7.45e-01	0	50	104	0	60	32262
2026-01-02 11:50:09.27	167.57	4.96	-44.7	-63.5	3.8	7.42e-01	0	50	104	0	60	32199
2026-01-02 11:50:13.31	167.63	5.27	-44.7	-63.3	3.8	7.48e-01	0	50	104	0	60	31740
2026-01-02 11:50:17.36	167.69	5.58	-44.7	-61.9	3.8	7.44e-01	0	50	104	0	60	26820
2026-01-02 11:50:21.40	167.75	5.89	-44.7	-61.0	4.0	7.40e-01	0	51	104	0	60	24146
2026-01-02 11:50:25.45	167.81	6.21	-44.7	-61.0	4.0	7.40e-01	0	51	104	0	60	24297
2026-01-02 11:50:29.49	167.88	6.53	-44.6	-60.6	3.9	7.44e-01	0	51	104	0	60	23257
2026-01-02 11:50:33.53	167.94	6.86	-44.1	-53.0	9.1	6.32e-01	0	51	0	4194304	60	9717
2026-01-02 11:50:37.58	168.01	7.19	-42.8	-47.8	14.9	6.06e-01	0	51	0	11534336	57	6314
2026-01-02 11:50:41.62	168.08	7.52	-40.8	-43.9	18.8	6.07e-01	0	52	0	18874368	53	5099
2026-01-02 11:50:45.66	168.15	7.86	-39.7	-42.2	20.6	6.07e-01	0	52	0	26738688	51	4669
2026-01-02 11:50:49.70	168.22	8.21	-41.6	-45.3	18.0	6.06e-01	0	52	0	34078720	53	5950
2026-01-02 11:50:53.74	168.29	8.56	-39.7	-42.1	20.7	6.06e-01	0	52	0	41943040	51	4651
2026-01-02 11:50:57.78	168.37	8.92	-39.4	-41.7	21.2	6.08e-01	0	52	0	49283072	50	4685
2026-01-02 11:51:01.81	168.45	9.28	-39.1	-41.3	21.7	6.05e-01	0	52	0	57147392	49	4724
2026-01-02 11:51:05.85	168.52	9.65	-38.9	-41.0	21.9	6.07e-01	0	52	0	64487424	49	4596
2026-01-02 11:51:09.89	168.60	10.02	-38.6	-40.7	22.3	6.06e-01	0	52	0	72351744	49	4419
2026-01-02 11:51:13.93	168.69	10.40	-38.5	-40.5	22.5	6.07e-01	0	53	0	79691776	48	4578
2026-01-02 11:51:17.97	168.77	10.79	-38.4	-40.4	22.2	6.07e-01	0	53	0	87031808	48	4514
2026-01-02 11:51:22.00	168.86	11.18	-38.4	-40.4	22.7	6.05e-01	0	53	0	94896128	48	4505
2026-01-02 11:51:26.04	168.94	11.58	-38.4	-40.4	22.7	6.06e-01	0	53	0	102236160	48	4497
2026-01-02 11:51:30.08	169.04	11.99	-38.4	-40.4	22.7	6.05e-01	0	53	0	110100480	48	4532
2026-01-02 11:51:34.12	169.13	12.41	-38.4	-40.4	22.8	6.07e-01	0	53	0	117440512	48	4501
2026-01-02 11:51:38.16	169.22	12.84	-38.4	-40.4	22.8	6.06e-01	0	54	0	125304832	48	4522
2026-01-02 11:51:42.20	169.32	13.27	-38.3	-40.2	23.0	6.07e-01	0	53	0	132644864	48	4435
2026-01-02 11:51:46.24	169.42	13.71	-38.1	-40.0	23.2	6.06e-01	0	53	0	140509184	48	4331
2026-01-02 11:51:50.28	169.53	14.16	-37.6	-39.5	23.3	6.06e-01	0	54	0	147849216	47	4296
2026-01-02 11:51:54.32	169.63	14.62	-37.5	-39.4	23.5	6.06e-01	0	54	0	155189248	47	4257
2026-01-02 11:51:58.35	169.74	15.09	-37.6	-39.5	23.5	6.05e-01	0	54	0	163053568	47	4297
2026-01-02 11:52:02.39	169.86	15.57	-37.7	-39.5	23.4	6.07e-01	0	54	0	170393600	47	4329
2026-01-02 11:52:06.43	169.98	16.06	-37.6	-39.5	23.4	6.07e-01	0	54	0	178257920	47	4315
2026-01-02 11:52:10.47	170.10	16.56	-37.5	-39.3	23.7	6.04e-01	0	54	0	185597952	46	4462
2026-01-02 11:52:14.51	170.22	17.08	-37.4	-39.2	23.8	6.05e-01	0	54	0	193462272	46	4403
2026-01-02 11:52:18.55	170.35	17.60	-37.5	-39.3	23.7	6.04e-01	0	54	0	200802304	46	4454
2026-01-02 11:52:22.59	170.48	18.14	-37.5	-39.4	23.6	6.05e-01	0	54	0	208666624	46	4496
2026-01-02 11:52:26.62	170.62	18.69	-37.6	-39.4	23.6	6.04e-01	0	54	0	216006656	46	4525
2026-01-02 11:52:30.66	170.77	19.26	-37.7	-39.5	23.5	6.06e-01	0	54	0	223346688	46	4567
2026-01-02 11:52:34.70	170.91	19.84	-37.6	-39.4	23.6	6.08e-01	0	54	0	231211008	46	4509
2026-01-02 11:52:38.74	171.07	20.43	-37.6	-39.4	23.7	6.07e-01	0	54	0	238551040	46	4515
2026-01-02 11:52:42.78	171.23	21.04	-37.8	-39.6	23.4	6.10e-01	0	55	0	246415360	46	4648
2026-01-02 11:52:46.82	171.40	21.67	-38.0	-39.9	23.2	6.06e-01	0	55	0	253755392	46	4763
2026-01-02 11:52:50.86	171.57	22.31	-37.8	-39.6	23.4	6.07e-01	0	55	0	261619712	46	4645
2026-01-02 11:52:54.90	171.75	22.97	-37.8	-39.7	23.5	6.05e-01	0	55	0	268959744	46	4653
2026-01-02 11:52:58.94	171.94	23.65	-37.9	-39.8	23.3	6.06e-01	0	55	0	276824064	46	4740
2026-01-02 11:53:02.98	172.13	24.35	-37.9	-39.8	23.4	6.07e-01	0	55	0	284164096	46	4731
2026-01-02 11:53:07.02	172.34	25.07	-38.1	-40.0	23.1	6.06e-01	0	55	0	291504128	46	4846
2026-01-02 11:53:11.05	172.55	25.81	-37.8	-39.7	23.5	6.07e-01	0	55	0	299368448	46	4671
2026-01-02 11:53:15.09	172.78	26.58	-37.9	-39.7	23.5	6.07e-01	0	55	0	306708480	46	4682
2026-01-02 11:53:19.13	173.01	27.37	-37.4	-39.1	24.0	6.05e-01	0	55	0	314572800	46	4388
2026-01-02 11:53:23.17	173.26	28.18	-37.5	-39.3	23.9	6.05e-01	0	55	0	321912832	46	4447
2026-01-02 11:53:27.21	173.52	29.02	-37.4	-39.1	24.1	6.06e-01	0	55	0	329777152	46	4369
2026-01-02 11:53:31.25	173.80	29.88	-37.3	-39.0	24.2	6.05e-01	0	55	0	337117184	46	4320
2026-01-02 11:53:35.29	174.09	30.78	-37.4	-39.1	24.1	6.08e-01	0	55	0	344981504	46	4384
2026-01-02 11:53:39.33	174.39	31.70	-37.4	-39.1	24.1	6.05e-01	0	55	0	352321536	46	4370
2026-01-02 11:53:43.37	174.71	32.66	-37.7	-39.5	23.8	6.07e-01	0	55	0	359661568	46	4555
2026-01-02 11:53:47.41	175.06	33.65	-38.1	-40.0	23.2	6.06e-01	0	55	0	367525888	46	4870
2026-01-02 11:53:51.45	175.42	34.67	-38.2	-40.1	23.2	6.05e-01	0	55	0	374865920	47	4641
2026-01-02 11:53:55.49	175.81	35.72	-39.2	-41.3	22.4	6.07e-01	0	55	0	382730240	49	4731
2026-01-02 11:53:59.53	176.23	36.82	-39.3	-41.4	22.4	6.05e-01	0	55	0	390070272	49	4776
2026-01-02 11:54:03.57	176.67	37.95	-39.9	-42.1	21.6	6.05e-01	0	55	0	397934592	50	4908
2026-01-02 11:54:07.60	177.15	39.12	-40.1	-42.4	21.4	6.05e-01	0	56	0	405274624	50	5073
2026-01-02 11:54:11.64	177.66	40.33	-39.6	-41.8	22.0	6.05e-01	0	56	0	413138944	50	4706
2026-01-02 11:54:15.68	178.21	41.59	-39.0	-41.0	22.7	6.05e-01	0	55	0	420478976	50	4311
2026-01-02 11:54:19.72	178.81	42.89	-38.3	-40.1	23.5	6.06e-01	0	56	0	427819008	48	4390
2026-01-02 11:54:23.76	179.45	44.23	-37.6	-39.3	24.0	6.06e-01	0	55	0	435683328	47	4229
2026-01-02 11:54:27.80	180.16	45.63	-37.8	-39.6	23.8	6.06e-01	0	56	0	443023360	46	4599
2026-01-02 11:54:31.83	180.93	47.06	-37.5	-39.3	24.0	6.06e-01	0	55	0	450887680	46	4467
2026-01-02 11:54:35.87	181.77	48.55	-37.6	-39.3	24.0	6.07e-01	0	56	0	458227712	46	4480
2026-01-02 11:54:39.91	182.70	50.08	-37.4	-39.1	24.2	6.06e-01	0	56	0	466092032	46	4388
2026-01-02 11:54:43.95	183.74	51.66	-37.1	-38.8	24.5	6.05e-01	0	56	0	473432064	46	4199
2026-01-02 11:54:47.98	184.88	53.28	-36.8	-38.4	24.9	6.08e-01	0	55	0	480772096	45	4283
2026-01-02 11:54:52.02	186.17	54.94	-37.2	-38.8	24.5	6.08e-01	0	56	0	488636416	45	4485
2026-01-02 11:54:56.06	187.61	56.65	-38.1	-39.9	23.5	6.05e-01	0	56	0	495976448	46	4802
2026-01-02 11:55:00.09	189.25	58.39	-38.5	-40.5	22.9	6.05e-01	0	56	0	503840768	47	4826
2026-01-02 11:55:04.13	191.12	60.16	-39.4	-41.4	22.4	6.05e-01	0	56	0	511180800	49	4804
2026-01-02 11:55:08.17	193.26	61.96	-40.1	-42.4	21.5	6.06e-01	0	56	0	519045120	50	5042
2026-01-02 11:55:12.21	195.75	63.76	-40.9	-43.6	20.2	6.04e-01	0	56	0	526385152	52	5201
2026-01-02 11:55:16.25	198.65	65.56	-41.3	-44.1	19.6	6.07e-01	0	56	0	534249472	53	5194
2026-01-02 11:55:20.29	202.07	67.34	-41.7	-44.8	18.9	6.08e-01	0	56	0	541589504	54	5327
2026-01-02 11:55:24.33	206.11	69.07	-42.4	-46.0	17.8	6.07e-01	0	56	0	548929536	55	5753
2026-01-02 11:55:28.37	210.91	70.71	-42.0	-45.3	18.4	6.07e-01	0	56	0	556793856	55	5312
2026-01-02 11:55:32.41	216.64	72.23	-40.7	-43.4	20.3	6.06e-01	0	56	0	564133888	53	4762
2026-01-02 11:55:36.44	223.40	73.57	-40.4	-42.8	20.9	6.07e-01	0	56	0	571998208	52	4738
2026-01-02 11:55:40.48	231.32	74.67	-40.6	-43.1	20.6	6.07e-01	0	56	0	579338240	52	4893
2026-01-02 11:55:44.52	240.31	75.45	-39.6	-41.8	21.9	6.07e-01	0	56	0	587202560	51	4488
2026-01-02 11:55:48.56	250.10	75.86	-40.2	-42.6	21.2	6.09e-01	0	56	0	594542592	50	5190
2026-01-02 11:55:52.59	260.15	75.85	-39.8	-42.1	21.6	6.06e-01	0	56	0	602406912	50	4884
2026-01-02 11:55:56.63	269.92	75.43	-39.6	-41.8	21.9	6.08e-01	0	56	0	609746944	50	4739
2026-01-02 11:56:00.67	278.88	74.64	-39.7	-42.0	21.7	6.05e-01	0	56	0	617086976	50	4848
2026-01-02 11:56:04.71	286.77	73.54	-40.5	-42.9	20.9	6.07e-01	0	56	0	624951296	51	5083
2026-01-02 11:56:08.75	293.51	72.20	-40.3	-43.1	20.7	6.07e-01	0	56	0	632291328	51	5205
2026-01-02 11:56:12.79	299.20	70.67	-40.3	-42.8	21.0	6.06e-01	0	56	0	640155648	51	5018
2026-01-02 11:56:16.83	303.98	69.03	-41.0	-43.7	20.0	6.05e-01	0	56	0	647495680	52	5243
2026-01-02 11:56:20.86	307.99	67.31	-41.1	-43.8	20.0	6.06e-01	0	56	0	655360000	52	5305
2026-01-02 11:56:24.90	311.38	65.54	-40.2	-42.5	21.2	6.07e-01	0	56	0	662700032	52	4561
2026-01-02 11:56:28.94	314.27	63.74	-39.6	-41.7	22.1	6.07e-01	0	56	0	670564352	51	4424
2026-01-02 11:56:32.98	316.75	61.94	-39.5	-41.5	22.3	6.08e-01	0	56	0	677904384	50	4592
2026-01-02 11:56:37.01	318.88	60.16	-39.2	-41.2	22.6	6.07e-01	0	56	0	685244416	50	4435
2026-01-02 11:56:41.06	320.75	58.39	-38.7	-40.6	23.2	6.07e-01	0	56	0	693108736	49	4361
2026-01-02 11:56:45.10	322.38	56.65	-38.6	-40.5	23.3	6.05e-01	0	56	0	700448768	49	4318
2026-01-02 11:56:49.13	323.82	54.95	-37.3	-39.0	24.4	6.08e-01	0	56	0	708313088	46	4296
2026-01-02 11:56:53.17	325.10	53.29	-37.3	-38.9	24.4	6.07e-01	0	56	0	715653120	46	4286
2026-01-02 11:56:57.20	326.24	51.68	-37.8	-39.6	23.8	6.04e-01	0	56	0	723517440	46	4617
2026-01-02 11:57:01.24	327.27	50.11	-38.1	-39.9	23.5	6.06e-01	0	56	0	730857472	46	4786
2026-01-02 11:57:05.28	328.20	48.58	-38.1	-40.0	23.4	6.04e-01	0	56	0	738721792	47	4567
2026-01-02 11:57:09.32	329.05	47.10	-37.9	-39.7	23.7	6.05e-01	0	56	0	746061824	47	4414
2026-01-02 11:57:13.36	329.82	45.67	-38.3	-40.2	23.2	6.05e-01	0	56	0	753401856	47	4694
2026-01-02 11:57:17.40	330.52	44.29	-37.8	-39.5	23.8	6.06e-01	0	56	0	761266176	47	4321
2026-01-02 11:57:21.44	331.17	42.95	-38.2	-40.0	23.3	6.05e-01	0	56	0	768606208	47	4585
2026-01-02 11:57:25.47	331.76	41.66	-39.3	-41.3	22.5	6.06e-01	0	56	0	776470528	49	4733
2026-01-02 11:57:29.51	332.31	40.41	-39.1	-41.1	22.6	6.07e-01	0	56	0	783810560	49	4631
2026-01-02 11:57:33.55	332.83	39.20	-39.3	-41.3	22.4	6.06e-01	0	56	0	791674880	49	4758
2026-01-02 11:57:37.59	333.30	38.03	-39.2	-41.2	22.6	6.06e-01	0	56	0	799014912	49	4666
2026-01-02 11:57:41.63	333.75	36.90	-38.8	-40.8	23.0	6.08e-01	0	56	0	806879232	49	4448
2026-01-02 11:57:45.67	334.16	35.82	-38.4	-40.2	23.5	6.05e-01	0	56	0	814219264	48	4403
2026-01-02 11:57:49.71	334.55	34.76	-37.6	-39.3	24.0	6.05e-01	0	56	0	821559296	47	4218
2026-01-02 11:57:53.75	334.92	33.75	-37.1	-38.8	24.5	6.07e-01	0	56	0	829423616	46	4210
2026-01-02 11:57:57.79	335.26	32.76	-37.3	-39.0	24.3	6.07e-01	0	56	0	836763648	46	4304
2026-01-02 11:58:01.82	335.59	31.81	-36.9	-38.6	24.6	6.06e-01	0	56	0	844627968	45	4349
2026-01-02 11:58:05.86	335.89	30.89	-36.9	-38.6	24.6	6.06e-01	0	56	0	851968000	45	4361
2026-01-02 11:58:09.90	336.18	30.00	-37.1	-38.7	24.4	6.08e-01	0	56	0	859832320	45	4434
2026-01-02 11:58:13.94	336.46	29.14	-37.2	-38.9	24.2	6.07e-01	0	56	0	867172352	45	4541
2026-01-02 11:58:17.98	336.72	28.31	-37.6	-39.3	23.8	6.07e-01	0	56	0	875036672	45	4759
2026-01-02 11:58:22.02	336.97	27.50	-37.6	-39.4	23.8	6.08e-01	0	56	0	882376704	45	4769
2026-01-02 11:58:26.06	337.21	26.71	-37.7	-39.4	23.7	6.06e-01	0	56	0	889716736	45	4809
2026-01-02 11:58:30.10	337.43	25.95	-38.0	-39.9	23.3	6.07e-01	0	56	0	897581056	46	4764
2026-01-02 11:58:34.14	337.65	25.21	-38.0	-39.9	23.2	6.08e-01	0	57	0	904921088	46	4802
2026-01-02 11:58:38.18	337.86	24.49	-37.9	-39.7	23.4	6.01e-01	0	56	0	912785408	46	4703
2026-01-02 11:58:42.22	338.06	23.79	-37.9	-39.7	23.4	6.02e-01	0	56	0	920125440	46	4690
2026-01-02 11:58:46.26	338.25	23.12	-37.9	-39.8	23.3	6.03e-01	0	56	0	927989760	46	4717
2026-01-02 11:58:50.30	338.43	22.46	-38.0	-39.9	23.1	6.03e-01	0	56	0	935329792	46	4794
2026-01-02 11:58:54.34	338.60	21.82	-37.9	-39.8	23.2	6.04e-01	0	56	0	943194112	46	4708
2026-01-02 11:58:58.38	338.77	21.19	-37.7	-39.6	23.2	6.01e-01	0	56	0	950534144	46	4624
2026-01-02 11:59:02.41	338.93	20.59	-37.7	-39.6	22.9	6.01e-01	0	57	0	957874176	46	4622
2026-01-02 11:59:06.45	339.09	19.99	-39.2	-41.8	20.1	6.01e-01	0	56	0	965738496	48	5332
2026-01-02 11:59:10.49	339.24	19.42	-40.6	-45.0	16.1	6.02e-01	0	56	0	973078528	51	6439
2026-01-02 11:59:14.53	339.39	18.85	-40.7	-46.3	14.1	6.05e-01	0	56	0	980942848	52	7095
2026-01-02 11:59:18.57	339.53	18.30	-40.7	-48.0	11.9	6.05e-01	0	57	0	988282880	52	8626
2026-01-02 11:59:22.61	339.67	17.77	-40.6	-49.6	9.9	6.19e-01	0	57	0	996147200	52	10295
2026-01-02 11:59:26.66	339.80	17.24	-40.5	-51.2	7.9	6.46e-01	84	57	0	1003487232	52	12496
2026-01-02 11:59:30.69	339.92	16.73	-40.6	-53.2	6.0	6.86e-01	55	57	0	1011351552	52	15592
2026-01-02 11:59:34.73	340.05	16.23	-40.6	-54.9	4.8	7.14e-01	0	57	0	1013448704	52	19094
2026-01-02 11:59:38.76	340.17	15.74	-41.4	-55.7	4.5	7.17e-01	0	57	104	1013448704	53	19663
2026-01-02 11:59:42.80	340.29	15.26	-41.6	-55.4	4.9	7.14e-01	0	57	0	1013448704	53	18954
2026-01-02 11:59:46.84	340.40	14.80	-41.1	-57.1	4.1	7.37e-01	0	57	104	1013448704	53	23129
2026-01-02 11:59:50.88	340.51	14.34	-41.1	-57.2	3.9	7.35e-01	0	57	104	1013448704	52	24720
2026-01-02 11:59:54.92	340.62	13.89	-41.1	-58.0	3.9	7.40e-01	0	57	104	1013448704	53	25721
2026-01-02 11:59:58.96	340.72	13.45	-41.1	-58.3	3.9	7.42e-01	0	57	104	1013448704	52	28253
2026-01-02 12:00:03.00	340.82	13.02	-40.7	-58.7	3.8	7.41e-01	0	57	104	1013448704	52	29563
2026-01-02 12:00:07.03	340.92	12.59	-40.1	-59.6	3.8	7.43e-01	0	57	104	1013448704	52	32865
2026-01-02 12:00:11.07	341.02	12.18	-40.9	-59.8	3.8	7.46e-01	0	57	104	1013448704	52	33630
2026-01-02 12:00:15.11	341.11	11.77	-40.6	-59.6	3.8	7.44e-01	0	57	104	1013448704	52	32591
2026-01-02 12:00:19.15	341.20	11.37	-40.8	-59.8	3.8	7.42e-01	0	57	104	1013448704	52	33556
2026-01-02 12:00:23.19	341.29	10.98	-40.5	-59.6	3.8	7.45e-01	0	57	104	1013448704	52	32880
2026-01-02 12:00:27.24	341.38	10.59	-40.6	-59.6	3.8	7.45e-01	0	57	104	1013448704	52	32620
2026-01-02 12:00:31.28	341.47	10.21	-40.2	-59.4	3.8	7.45e-01	0	57	104	1013448704	52	32075
2026-01-02 12:00:35.32	341.55	9.84	-40.6	-59.7	3.8	7.45e-01	0	57	104	1013448704	52	32945
2026-01-02 12:00:39.36	341.63	9.47	-40.3	-59.4	3.8	7.45e-01	0	57	104	1013448704	52	32123
2026-01-02 12:00:43.40	341.71	9.11	-40.9	-59.9	3.8	7.43e-01	0	57	104	1013448704	52	34050
2026-01-02 12:00:47.43	341.79	8.75	-40.8	-59.7	3.8	7.43e-01	0	57	104	1013448704	52	33063
2026-01-02 12:00:51.48	341.87	8.40	-40.8	-59.7	3.8	7.41e-01	0	57	104	1013448704	52	33061
2026-01-02 12:00:55.52	341.94	8.06	-40.9	-59.8	3.8	7.45e-01	0	57	104	1013448704	52	33494
2026-01-02 12:00:59.56	342.02	7.72	-45.5	-64.3	3.8	7.43e-01	0	57	104	1013448704	61	33318
2026-01-02 12:01:03.61	342.09	7.38	-45.9	-64.6	3.8	7.47e-01	0	57	104	1013448704	62	32825
2026-01-02 12:01:07.65	342.16	7.05	-45.9	-64.6	3.8	7.48e-01	0	57	104	1013448704	62	32868
2026-01-02 12:01:11.70	342.23	6.73	-45.8	-64.5	3.8	7.45e-01	0	57	104	1013448704	62	32439
2026-01-02 12:01:15.74	342.30	6.40	-45.7	-64.5	3.8	7.46e-01	0	57	104	1013448704	62	32299
2026-01-02 12:01:19.79	342.37	6.09	-45.7	-64.5	3.8	7.47e-01	0	57	104	1013448704	62	32282
2026-01-02 12:01:23.83	342.43	5.78	-45.7	-64.4	3.8	7.44e-01	0	57	104	1013448704	62	32137
2026-01-02 12:01:27.87	342.50	5.47	-45.7	-64.4	3.8	7.41e-01	0	57	104	1013448704	62	32119
2026-01-02 12:01:31.92	342.56	5.16	-45.7	-64.4	3.8	7.44e-01	0	57	104	1013448704	62	32162
2026-01-02 12:01:35.96	342.63	4.86	-45.7	-64.4	3.8	7.46e-01	0	57	104	1013448704	62	32077
2026-01-02 12:01:40.01	342.69	4.57	-45.6	-64.4	3.8	7.47e-01	0	57	104	1013448704	62	32091
2026-01-02 12:01:44.05	342.75	4.27	-45.6	-64.4	3.8	7.44e-01	0	57	104	1013448704	62	32097
2026-01-02 12:01:48.09	342.81	3.98	-45.6	-64.4	3.8	7.44e-01	0	57	104	1013448704	62	32083
2026-01-02 12:01:52.14	342.87	3.70	-45.6	-64.4	3.8	7.48e-01	0	57	104	1013448704	62	32069
2026-01-02 12:01:56.19	342.93	3.41	-45.6	-64.4	3.8	7.43e-01	0	57	104	1013448704	62	32074
2026-01-02 12:02:00.23	342.99	3.13	-45.6	-64.4	3.8	7.44e-01	0	57	104	1013448704	62	32087
2026-01-02 12:02:04.27	343.04	2.86	-45.6	-64.4	3.8	7.46e-01	0	57	104	1013448704	62	32047
2026-01-02 12:02:08.32	343.10	2.58	-45.6	-64.4	3.8	7.49e-01	0	57	104	1013448704	62	32060
2026-01-02 12:02:12.37	343.15	2.31	-45.6	-64.4	3.8	7.47e-01	0	57	104	1013448704	62	32105
2026-01-02 12:02:16.41	343.21	2.04	-45.6	-64.4	3.8	7.47e-01	0	57	104	1013448704	62	32129

#Closed at: 2026-01-02 12:02:19
#Recorded file [1013 MB]: D:/lorett/data/31039_260102_144928.dat