passes_logs/2026/01/02/R2.0S_Moscow/R2.0S_Moscow__20260102_100830_SUOMI_NPP_rec.log

#Pass ID: 20260102_100830_SUOMI NPP
#Satellite: SUOMI NPP
#Configuration: NPP
#almurnet v.1.7.20251203
#Start time: 2026-01-02 10:08:30

#Version: 2.2.20231116
#Station: R2.0S_Moscow
#Location: 37.707566 lon 55.798166 lat
#TLE: 1 37849U 11061A   26001.07732418  .00000182  00000+0  10735-3 0  9990
#TLE: 2 37849  98.7795 303.2470 0002580  87.2016 272.9455 14.19520779734739

#Time	Az	El	Level	Level2	SNR	BER	BlckErr	Temp	State	Recorded	gain1	gain2
2026-01-02 10:08:30.10	165.03	2.01	-44.0	-58.4	3.8	1.49e+00	0	47	0	0	59	18954
2026-01-02 10:08:34.15	165.07	2.27	-43.9	-58.3	3.8	1.49e+00	0	48	104	0	59	18948
2026-01-02 10:08:38.19	165.11	2.53	-44.0	-58.4	3.8	1.49e+00	0	48	104	0	59	19003
2026-01-02 10:08:42.24	165.14	2.80	-44.0	-58.4	3.8	1.49e+00	0	48	104	0	59	18975
2026-01-02 10:08:46.28	165.18	3.06	-44.0	-58.4	3.8	1.49e+00	0	48	104	0	59	19002
2026-01-02 10:08:50.33	165.22	3.34	-44.0	-58.4	3.8	1.49e+00	0	49	104	0	59	18981
2026-01-02 10:08:54.37	165.26	3.61	-44.0	-58.4	3.8	1.49e+00	0	49	104	0	59	18977
2026-01-02 10:08:58.42	165.31	3.89	-44.0	-58.4	3.8	1.49e+00	0	49	104	0	59	19014
2026-01-02 10:09:02.46	165.35	4.17	-44.0	-58.4	3.8	1.49e+00	0	49	104	0	59	18982
2026-01-02 10:09:06.51	165.39	4.45	-44.0	-58.4	3.8	1.49e+00	0	50	104	0	59	19001
2026-01-02 10:09:10.55	165.43	4.73	-44.0	-58.4	3.8	1.49e+00	0	50	104	0	59	18981
2026-01-02 10:09:14.59	165.48	5.02	-44.0	-58.4	3.8	1.49e+00	0	50	104	0	59	18971
2026-01-02 10:09:18.64	165.52	5.31	-44.0	-58.3	3.8	1.49e+00	0	50	104	0	59	18916
2026-01-02 10:09:22.68	165.56	5.61	-44.0	-58.3	3.8	1.49e+00	0	51	104	0	59	18778
2026-01-02 10:09:26.72	165.61	5.91	-44.0	-58.3	3.8	1.49e+00	0	51	104	0	59	18767
2026-01-02 10:09:30.77	165.66	6.21	-44.0	-58.1	3.8	1.49e+00	0	51	104	0	59	18507
2026-01-02 10:09:34.81	165.70	6.51	-44.0	-57.7	3.8	1.49e+00	0	51	104	0	59	17546
2026-01-02 10:09:38.86	165.75	6.82	-43.8	-55.2	4.1	1.45e+00	0	51	0	0	59	13244
2026-01-02 10:09:42.90	165.80	7.13	-43.3	-51.1	6.1	3.69e-01	0	51	0	5242880	58	8716
2026-01-02 10:09:46.94	165.85	7.45	-42.5	-48.0	9.0	3.02e-02	0	51	0	12582912	57	6487
2026-01-02 10:09:50.99	165.90	7.77	-41.5	-45.7	11.3	1.39e-03	0	52	0	20971520	54	5868
2026-01-02 10:09:55.03	165.95	8.10	-43.0	-49.5	7.7	5.25e-02	0	52	0	28311552	56	8117
2026-01-02 10:09:59.07	166.00	8.42	-41.5	-45.7	11.3	3.66e-04	0	52	0	35651584	54	5878
2026-01-02 10:10:03.11	166.06	8.76	-40.9	-44.5	12.5	1.75e-04	0	52	0	42991616	53	5453
2026-01-02 10:10:07.14	166.11	9.09	-40.9	-44.6	12.5	1.09e-04	0	52	0	51380224	53	5475
2026-01-02 10:10:11.19	166.16	9.44	-40.8	-44.3	12.8	7.55e-05	0	53	0	58720256	53	5296
2026-01-02 10:10:15.22	166.22	9.78	-40.7	-44.0	13.1	3.35e-05	0	53	0	66060288	53	5143
2026-01-02 10:10:19.26	166.28	10.13	-40.6	-43.9	13.2	1.98e-05	0	53	0	73400320	53	5092
2026-01-02 10:10:23.30	166.34	10.49	-40.4	-43.5	13.7	9.90e-06	0	53	0	80740352	52	5144
2026-01-02 10:10:27.34	166.39	10.85	-40.2	-43.1	14.1	1.50e-06	0	53	0	89128960	52	4922
2026-01-02 10:10:31.38	166.46	11.22	-40.1	-42.9	14.4	0.00e+00	0	53	0	96468992	52	4788
2026-01-02 10:10:35.41	166.52	11.59	-40.0	-42.8	14.6	0.00e+00	0	53	0	103809024	51	5018
2026-01-02 10:10:39.45	166.58	11.97	-40.0	-42.8	14.6	0.00e+00	0	53	0	111149056	51	5027
2026-01-02 10:10:43.49	166.64	12.36	-40.0	-42.8	14.7	7.00e-07	0	53	0	119537664	51	4995
2026-01-02 10:10:47.52	166.71	12.75	-39.8	-42.4	15.1	0.00e+00	0	54	0	126877696	51	4793
2026-01-02 10:10:51.56	166.78	13.14	-39.5	-42.0	15.5	0.00e+00	0	54	0	134217728	51	4572
2026-01-02 10:10:55.60	166.85	13.55	-39.3	-41.7	15.8	0.00e+00	0	54	0	141557760	50	4670
2026-01-02 10:10:59.64	166.92	13.96	-39.1	-41.4	16.1	0.00e+00	0	54	0	148897792	50	4510
2026-01-02 10:11:03.66	166.99	14.37	-38.8	-41.0	16.5	0.00e+00	0	54	0	157286400	49	4582
2026-01-02 10:11:07.69	167.06	14.80	-38.8	-40.9	16.6	0.00e+00	0	54	0	164626432	49	4518
2026-01-02 10:11:11.73	167.14	15.23	-38.7	-40.8	16.7	0.00e+00	0	54	0	171966464	49	4480
2026-01-02 10:11:15.77	167.22	15.67	-38.6	-40.7	16.8	0.00e+00	0	54	0	179306496	49	4418
2026-01-02 10:11:19.81	167.30	16.12	-38.6	-40.7	16.9	0.00e+00	0	54	0	187695104	49	4428
2026-01-02 10:11:23.84	167.38	16.57	-38.5	-40.5	17.0	0.00e+00	0	54	0	195035136	49	4339
2026-01-02 10:11:27.88	167.46	17.04	-38.5	-40.5	17.2	0.00e+00	0	54	0	202375168	48	4547
2026-01-02 10:11:31.92	167.55	17.51	-38.2	-40.1	17.5	0.00e+00	0	55	0	209715200	48	4350
2026-01-02 10:11:35.96	167.64	18.00	-38.3	-40.3	17.3	0.00e+00	0	55	0	217055232	48	4454
2026-01-02 10:11:39.99	167.73	18.49	-38.4	-40.3	17.3	0.00e+00	0	55	0	225443840	48	4477
2026-01-02 10:11:44.03	167.82	18.99	-38.5	-40.5	17.2	0.00e+00	0	55	0	232783872	48	4550
2026-01-02 10:11:48.07	167.92	19.50	-38.5	-40.5	17.1	0.00e+00	0	55	0	240123904	48	4570
2026-01-02 10:11:52.11	168.02	20.03	-38.5	-40.5	17.2	0.00e+00	0	55	0	247463936	48	4552
2026-01-02 10:11:56.15	168.12	20.56	-38.8	-40.9	16.7	0.00e+00	0	55	0	254803968	48	4808
2026-01-02 10:12:00.19	168.22	21.11	-39.1	-41.3	16.3	0.00e+00	0	55	0	263192576	48	5041
2026-01-02 10:12:04.22	168.33	21.67	-39.5	-41.8	15.8	0.00e+00	0	55	0	270532608	49	5041
2026-01-02 10:12:08.26	168.45	22.24	-39.6	-42.1	15.6	0.00e+00	0	55	0	277872640	49	5192
2026-01-02 10:12:12.30	168.56	22.83	-39.6	-42.0	15.6	0.00e+00	0	55	0	285212672	49	5159
2026-01-02 10:12:16.34	168.68	23.43	-39.7	-42.2	15.5	0.00e+00	0	55	0	293601280	50	4969
2026-01-02 10:12:20.38	168.81	24.04	-39.8	-42.2	15.5	0.00e+00	0	55	0	300941312	50	4983
2026-01-02 10:12:24.42	168.94	24.67	-39.5	-41.8	15.9	0.00e+00	0	55	0	308281344	50	4757
2026-01-02 10:12:28.46	169.07	25.31	-39.7	-42.1	15.6	0.00e+00	0	55	0	315621376	50	4915
2026-01-02 10:12:32.50	169.21	25.97	-39.6	-42.0	15.8	0.00e+00	0	55	0	322961408	50	4860
2026-01-02 10:12:36.53	169.35	26.64	-39.3	-41.5	16.2	0.00e+00	0	55	0	331350016	50	4582
2026-01-02 10:12:40.57	169.50	27.33	-39.3	-41.5	16.3	0.00e+00	0	55	0	338690048	50	4570
2026-01-02 10:12:44.61	169.66	28.04	-39.4	-41.7	16.1	0.00e+00	0	55	0	346030080	50	4693
2026-01-02 10:12:48.64	169.82	28.77	-39.3	-41.5	16.3	0.00e+00	0	56	0	353370112	50	4556
2026-01-02 10:12:52.68	169.99	29.52	-39.5	-41.8	16.1	0.00e+00	0	56	0	361758720	50	4716
2026-01-02 10:12:56.72	170.17	30.28	-39.8	-42.3	15.6	0.00e+00	0	56	0	369098752	50	4998
2026-01-02 10:13:00.76	170.36	31.07	-40.2	-42.8	15.0	0.00e+00	0	56	0	376438784	51	5025
2026-01-02 10:13:04.79	170.55	31.88	-40.4	-43.1	14.7	0.00e+00	0	56	0	383778816	51	5214
2026-01-02 10:13:08.83	170.75	32.71	-40.9	-43.9	14.0	3.00e-06	0	56	0	391118848	52	5393
2026-01-02 10:13:12.87	170.97	33.57	-40.7	-43.6	14.2	1.50e-06	0	56	0	399507456	52	5176
2026-01-02 10:13:16.91	171.19	34.45	-40.7	-43.6	14.2	0.00e+00	0	56	0	406847488	52	5182
2026-01-02 10:13:20.95	171.43	35.35	-39.4	-41.7	16.1	0.00e+00	0	56	0	414187520	50	4684
2026-01-02 10:13:24.99	171.68	36.28	-39.1	-41.2	16.6	0.00e+00	0	56	0	421527552	49	4692
2026-01-02 10:13:29.03	171.94	37.24	-38.4	-40.4	17.4	0.00e+00	0	56	0	429916160	48	4529
2026-01-02 10:13:33.06	172.22	38.22	-37.6	-39.3	18.4	0.00e+00	0	56	0	437256192	47	4239
2026-01-02 10:13:37.11	172.52	39.24	-38.1	-40.0	17.8	0.00e+00	0	56	0	444596224	46	4841
2026-01-02 10:13:41.15	172.83	40.28	-38.5	-40.4	17.3	0.00e+00	0	56	0	451936256	47	4795
2026-01-02 10:13:45.19	173.17	41.36	-39.0	-41.0	16.9	0.00e+00	0	56	0	459276288	48	4851
2026-01-02 10:13:49.22	173.52	42.46	-39.6	-41.9	16.0	0.00e+00	0	56	0	467664896	50	4776
2026-01-02 10:13:53.26	173.91	43.60	-39.1	-41.1	16.8	0.00e+00	0	56	0	475004928	50	4388
2026-01-02 10:13:57.30	174.31	44.77	-39.5	-41.7	16.3	0.00e+00	0	56	0	482344960	49	4948
2026-01-02 10:14:01.34	174.75	45.98	-41.2	-44.5	13.3	3.80e-06	0	56	0	489684992	53	5415
2026-01-02 10:14:05.38	175.23	47.22	-41.7	-45.3	12.5	1.46e-04	0	56	0	498073600	54	5639
2026-01-02 10:14:09.41	175.74	48.50	-41.3	-44.7	13.2	3.28e-05	0	56	0	505413632	54	5236
2026-01-02 10:14:13.45	176.30	49.81	-39.5	-41.8	16.1	0.00e+00	0	56	0	512753664	50	4716
2026-01-02 10:14:17.49	176.90	51.16	-38.8	-40.8	17.0	0.00e+00	0	56	0	520093696	49	4492
2026-01-02 10:14:21.53	177.56	52.54	-37.6	-39.3	18.4	0.00e+00	0	56	0	527433728	46	4462
2026-01-02 10:14:25.57	178.29	53.96	-37.5	-39.2	18.6	0.00e+00	0	56	0	535822336	46	4401
2026-01-02 10:14:29.61	179.09	55.42	-36.5	-38.0	19.6	0.00e+00	0	56	0	543162368	45	4054
2026-01-02 10:14:33.65	179.98	56.91	-36.8	-38.4	19.2	0.00e+00	0	56	0	550502400	44	4535
2026-01-02 10:14:37.69	180.97	58.43	-36.6	-38.1	19.6	0.00e+00	0	56	0	557842432	44	4366
2026-01-02 10:14:41.72	182.08	59.98	-37.3	-38.9	18.7	0.00e+00	0	56	0	566231040	45	4500
2026-01-02 10:14:45.76	183.33	61.56	-36.9	-38.6	19.1	0.00e+00	0	56	0	573571072	45	4346
2026-01-02 10:14:49.80	184.75	63.17	-37.3	-39.1	18.7	0.00e+00	0	56	0	580911104	45	4600
2026-01-02 10:14:53.84	186.38	64.80	-37.4	-39.1	18.6	0.00e+00	0	56	0	588251136	45	4614
2026-01-02 10:14:57.88	188.25	66.44	-37.2	-38.8	18.8	0.00e+00	0	56	0	595591168	45	4488
2026-01-02 10:15:01.92	190.44	68.09	-37.6	-39.3	18.4	0.00e+00	0	57	0	603979776	47	4201
2026-01-02 10:15:05.95	193.01	69.73	-40.4	-43.1	14.8	0.00e+00	0	56	0	611319808	51	5165
2026-01-02 10:15:09.99	196.06	71.36	-40.1	-42.7	15.1	1.50e-06	0	56	0	618659840	52	4658
2026-01-02 10:15:14.03	199.73	72.95	-42.0	-46.2	11.6	3.86e-04	0	56	0	625999872	54	6246
2026-01-02 10:15:18.07	204.18	74.49	-39.2	-41.3	16.4	0.00e+00	0	56	0	634388480	50	4475
2026-01-02 10:15:22.10	209.60	75.93	-41.2	-44.6	12.8	9.10e-06	0	56	0	641728512	53	5511
2026-01-02 10:15:26.15	216.26	77.24	-38.6	-40.6	17.1	0.00e+00	0	56	0	649068544	49	4367
2026-01-02 10:15:30.18	224.32	78.35	-40.0	-42.6	15.1	0.00e+00	0	56	0	656408576	51	4883
2026-01-02 10:15:34.22	233.91	79.20	-38.4	-40.2	17.5	0.00e+00	0	56	0	663748608	48	4439
2026-01-02 10:15:38.26	244.80	79.71	-40.9	-44.0	13.9	0.00e+00	0	56	0	672137216	52	5437
2026-01-02 10:15:42.30	256.39	79.83	-41.5	-45.1	12.7	6.10e-05	0	57	0	679477248	54	5473
2026-01-02 10:15:46.33	267.76	79.54	-40.8	-43.7	14.1	2.20e-06	0	57	0	686817280	52	5253
2026-01-02 10:15:50.37	278.15	78.88	-41.2	-44.4	13.2	1.44e-05	0	56	0	694157312	53	5389
2026-01-02 10:15:54.41	287.10	77.91	-40.2	-42.8	15.1	0.00e+00	0	56	0	702545920	51	4998
2026-01-02 10:15:58.45	294.55	76.71	-40.3	-42.9	14.9	0.00e+00	0	56	0	709885952	51	5085
2026-01-02 10:16:02.49	300.65	75.34	-38.7	-40.7	17.1	0.00e+00	0	57	0	717225984	49	4432
2026-01-02 10:16:06.53	305.64	73.85	-40.1	-42.7	15.0	1.50e-06	0	56	0	724566016	52	4698
2026-01-02 10:16:10.57	309.73	72.29	-38.9	-40.9	17.0	0.00e+00	0	56	0	731906048	49	4507
2026-01-02 10:16:14.61	313.12	70.68	-42.4	-46.6	11.3	7.06e-03	0	56	0	740294656	56	5840
2026-01-02 10:16:18.65	315.96	69.05	-40.3	-42.9	15.1	0.00e+00	0	57	0	747634688	51	5055
2026-01-02 10:16:22.68	318.35	67.41	-39.6	-41.9	16.1	0.00e+00	0	57	0	754974720	50	4773
2026-01-02 10:16:26.72	320.40	65.77	-37.0	-38.6	19.1	0.00e+00	0	56	0	762314752	44	4637
2026-01-02 10:16:30.76	322.16	64.13	-35.9	-37.3	20.2	0.00e+00	0	57	0	770703360	43	4207
2026-01-02 10:16:34.80	323.70	62.52	-37.5	-39.3	18.5	0.00e+00	0	56	0	778043392	47	4207
2026-01-02 10:16:38.83	325.04	60.93	-38.2	-40.0	17.9	0.00e+00	0	56	0	785383424	46	4857
2026-01-02 10:16:42.87	326.23	59.36	-38.6	-40.5	17.5	0.00e+00	0	57	0	792723456	48	4558
2026-01-02 10:16:46.91	327.29	57.83	-40.1	-42.6	15.6	0.00e+00	0	56	0	800063488	51	4881
2026-01-02 10:16:50.95	328.23	56.32	-36.7	-38.2	19.6	0.00e+00	0	56	0	808452096	45	4167
2026-01-02 10:16:54.98	329.08	54.86	-39.7	-42.2	15.8	0.00e+00	0	57	0	815792128	50	4947
2026-01-02 10:16:59.02	329.85	53.42	-38.3	-40.2	17.7	0.00e+00	0	56	0	823132160	47	4663
2026-01-02 10:17:03.06	330.55	52.02	-40.2	-42.8	15.2	0.00e+00	0	56	0	830472192	50	5325
2026-01-02 10:17:07.10	331.19	50.66	-39.3	-41.5	16.5	0.00e+00	0	56	0	838860800	50	4565
2026-01-02 10:17:11.14	331.77	49.33	-40.1	-42.5	15.7	0.00e+00	0	57	0	846200832	50	5136
2026-01-02 10:17:15.18	332.31	48.03	-40.8	-43.7	14.2	7.00e-07	0	56	0	853540864	53	4943
2026-01-02 10:17:19.22	332.81	46.78	-40.8	-43.7	14.3	0.00e+00	0	56	0	860880896	52	5262
2026-01-02 10:17:23.26	333.27	45.56	-41.0	-44.0	13.9	1.60e-05	0	57	0	868220928	54	4860
2026-01-02 10:17:27.30	333.70	44.37	-38.2	-40.0	17.9	0.00e+00	0	57	0	876609536	48	4328
2026-01-02 10:17:31.34	334.10	43.21	-41.3	-44.5	13.6	0.00e+00	0	57	0	883949568	53	5420
2026-01-02 10:17:35.38	334.47	42.09	-39.0	-41.0	16.9	0.00e+00	0	57	0	891289600	50	4335
2026-01-02 10:17:39.41	334.81	41.01	-37.2	-38.8	18.9	0.00e+00	0	57	0	898629632	45	4479
2026-01-02 10:17:43.45	335.14	39.95	-38.9	-41.0	17.0	0.00e+00	0	56	0	907018240	48	4846
2026-01-02 10:17:47.49	335.45	38.92	-40.3	-42.8	15.2	0.00e+00	0	57	0	914358272	51	5028
2026-01-02 10:17:51.53	335.74	37.92	-38.5	-40.3	17.6	0.00e+00	0	57	0	921698304	49	4230
2026-01-02 10:17:55.57	336.01	36.95	-39.5	-41.7	16.3	0.00e+00	0	57	0	929038336	49	4973
2026-01-02 10:17:59.61	336.27	36.01	-41.9	-45.8	12.2	1.03e-04	0	57	0	936378368	54	5941
2026-01-02 10:18:03.64	336.52	35.09	-39.6	-41.9	16.1	0.00e+00	0	57	0	944766976	51	4503
2026-01-02 10:18:07.68	336.75	34.20	-39.3	-41.4	16.5	0.00e+00	0	57	0	952107008	49	4785
2026-01-02 10:18:11.72	336.97	33.34	-41.3	-44.6	13.3	1.37e-05	0	57	0	959447040	53	5472
2026-01-02 10:18:15.75	337.18	32.50	-41.6	-45.1	12.8	1.52e-05	0	57	0	966787072	54	5525
2026-01-02 10:18:19.79	337.39	31.68	-40.6	-43.5	14.3	1.50e-06	0	57	0	975175680	53	4851
2026-01-02 10:18:23.83	337.58	30.88	-40.7	-43.6	14.2	3.00e-06	0	57	0	982515712	52	5208
2026-01-02 10:18:27.87	337.76	30.10	-40.3	-42.9	14.9	0.00e+00	0	57	0	989855744	52	4783
2026-01-02 10:18:31.91	337.94	29.34	-39.0	-41.1	16.7	0.00e+00	0	57	0	997195776	50	4379
2026-01-02 10:18:35.95	338.11	28.61	-39.8	-42.2	15.7	0.00e+00	0	57	0	1004535808	50	4970
2026-01-02 10:18:39.99	338.27	27.89	-40.3	-43.0	14.9	0.00e+00	0	57	0	1012924416	51	5132
2026-01-02 10:18:44.03	338.43	27.19	-39.6	-42.0	15.9	0.00e+00	0	57	0	1020264448	51	4590
2026-01-02 10:18:48.06	338.58	26.51	-38.5	-40.5	17.3	0.00e+00	0	57	0	1027604480	49	4304
2026-01-02 10:18:52.10	338.72	25.84	-37.4	-39.1	18.6	0.00e+00	0	57	0	1034944512	46	4344
2026-01-02 10:18:56.14	338.86	25.19	-37.0	-38.6	19.0	0.00e+00	0	57	0	1043333120	45	4357
2026-01-02 10:19:00.18	339.00	24.56	-36.8	-38.4	19.1	0.00e+00	0	57	0	1050673152	45	4275
2026-01-02 10:19:04.21	339.13	23.94	-37.0	-38.6	18.9	0.00e+00	0	57	0	1058013184	45	4367
2026-01-02 10:19:08.25	339.25	23.34	-37.4	-39.2	18.4	0.00e+00	0	57	0	1065353216	45	4665
2026-01-02 10:19:12.29	339.37	22.75	-38.0	-39.8	17.7	0.00e+00	0	57	0	1072693248	46	4756
2026-01-02 10:19:16.33	339.49	22.17	-38.4	-40.4	17.1	0.00e+00	0	57	0	1081081856	47	4781
2026-01-02 10:19:20.36	339.60	21.60	-38.1	-40.1	17.3	0.00e+00	0	57	0	1088421888	47	4618
2026-01-02 10:19:24.40	339.71	21.05	-37.7	-39.6	17.4	0.00e+00	0	57	0	1095761920	47	4373
2026-01-02 10:19:28.44	339.82	20.51	-39.2	-42.6	13.4	3.00e-06	0	57	0	1103101952	49	5480
2026-01-02 10:19:32.48	339.92	19.98	-40.1	-46.7	7.9	4.65e-02	0	57	0	1111490560	50	8292
2026-01-02 10:19:36.52	340.03	19.46	-40.2	-50.2	4.7	6.16e-01	0	57	0	1118830592	51	11692
2026-01-02 10:19:40.56	340.12	18.95	-40.3	-53.9	3.8	1.49e+00	0	57	104	1120927744	51	17964
2026-01-02 10:19:44.60	340.22	18.46	-40.2	-53.3	3.8	1.49e+00	0	57	104	1120927744	51	16883
2026-01-02 10:19:48.64	340.31	17.97	-40.2	-53.7	3.8	1.49e+00	0	57	104	1120927744	51	17490
2026-01-02 10:19:52.68	340.40	17.49	-40.2	-54.0	3.8	1.49e+00	0	57	104	1120927744	51	18111
2026-01-02 10:19:56.72	340.49	17.02	-40.1	-54.0	3.8	1.49e+00	0	57	104	1120927744	51	18189
2026-01-02 10:20:00.76	340.58	16.56	-39.9	-54.6	3.8	1.49e+00	0	57	104	1120927744	51	19450
2026-01-02 10:20:04.80	340.66	16.11	-39.9	-54.5	3.8	1.49e+00	0	57	104	1120927744	51	19275
2026-01-02 10:20:08.83	340.74	15.67	-40.1	-54.7	3.8	1.49e+00	0	57	104	1120927744	51	19625
2026-01-02 10:20:12.87	340.82	15.23	-40.0	-54.7	3.8	1.49e+00	0	57	104	1120927744	51	19629
2026-01-02 10:20:16.91	340.90	14.80	-40.1	-54.7	3.8	1.49e+00	0	57	104	1120927744	51	19668
2026-01-02 10:20:20.95	340.98	14.38	-39.9	-54.5	3.8	1.49e+00	0	57	104	1120927744	51	19246
2026-01-02 10:20:24.99	341.05	13.97	-40.2	-54.9	3.8	1.49e+00	0	57	104	1120927744	51	20080
2026-01-02 10:20:29.03	341.13	13.56	-40.0	-54.6	3.8	1.49e+00	0	57	104	1120927744	51	19541
2026-01-02 10:20:33.07	341.20	13.16	-40.1	-54.8	3.8	1.49e+00	0	57	104	1120927744	51	19948
2026-01-02 10:20:37.11	341.27	12.77	-39.7	-54.6	3.8	1.49e+00	0	57	104	1120927744	51	19517
2026-01-02 10:20:41.15	341.34	12.38	-40.2	-54.8	3.8	1.49e+00	0	57	104	1120927744	51	19968
2026-01-02 10:20:45.19	341.41	12.00	-39.8	-54.5	3.8	1.49e+00	0	57	104	1120927744	51	19343
2026-01-02 10:20:49.23	341.47	11.63	-40.2	-54.9	3.8	1.49e+00	0	57	104	1120927744	51	20097
2026-01-02 10:20:53.27	341.54	11.26	-40.0	-54.6	3.8	1.49e+00	0	57	104	1120927744	51	19467
2026-01-02 10:20:57.31	341.60	10.89	-39.5	-54.2	3.8	1.49e+00	0	57	104	1120927744	51	18628
2026-01-02 10:21:01.35	341.67	10.53	-39.6	-54.4	3.8	1.49e+00	0	57	104	1120927744	51	18995
2026-01-02 10:21:05.38	341.73	10.18	-40.0	-54.6	3.8	1.49e+00	0	57	104	1120927744	51	19511
2026-01-02 10:21:09.42	341.79	9.83	-39.6	-54.2	3.8	1.49e+00	0	57	104	1120927744	51	18700
2026-01-02 10:21:13.47	341.85	9.49	-40.1	-54.7	3.8	1.49e+00	0	57	104	1120927744	51	19823
2026-01-02 10:21:17.51	341.91	9.15	-39.8	-54.5	3.8	1.49e+00	0	57	104	1120927744	51	19212
2026-01-02 10:21:21.55	341.97	8.81	-40.0	-54.6	3.8	1.49e+00	0	57	104	1120927744	51	19406
2026-01-02 10:21:25.59	342.02	8.48	-40.3	-54.8	3.8	1.49e+00	0	57	104	1120927744	51	19959
2026-01-02 10:21:29.62	342.08	8.16	-40.0	-54.6	3.8	1.49e+00	0	57	104	1120927744	51	19445
2026-01-02 10:21:33.66	342.13	7.84	-41.5	-56.1	3.8	1.49e+00	0	57	104	1120927744	53	20579
2026-01-02 10:21:37.71	342.19	7.52	-44.9	-59.5	3.8	1.49e+00	0	57	104	1120927744	60	20330
2026-01-02 10:21:41.75	342.24	7.21	-45.0	-59.6	3.8	1.49e+00	0	57	104	1120927744	60	20551
2026-01-02 10:21:45.80	342.29	6.89	-44.8	-59.4	3.8	1.49e+00	0	57	104	1120927744	60	20133
2026-01-02 10:21:49.84	342.35	6.59	-44.7	-59.3	3.8	1.49e+00	0	57	104	1120927744	60	20008
2026-01-02 10:21:53.88	342.40	6.29	-44.7	-59.3	3.8	1.49e+00	0	57	104	1120927744	60	19974
2026-01-02 10:21:57.93	342.45	5.99	-44.8	-59.3	3.8	1.49e+00	0	57	104	1120927744	60	19890
2026-01-02 10:22:01.97	342.50	5.69	-44.8	-59.3	3.8	1.49e+00	0	57	104	1120927744	60	19945
2026-01-02 10:22:06.02	342.55	5.40	-44.8	-59.3	3.8	1.49e+00	0	57	104	1120927744	60	19956
2026-01-02 10:22:10.06	342.60	5.11	-44.7	-59.3	3.8	1.49e+00	0	57	104	1120927744	60	19912
2026-01-02 10:22:14.10	342.65	4.82	-44.8	-59.3	3.8	1.49e+00	0	57	104	1120927744	60	19928
2026-01-02 10:22:18.15	342.69	4.54	-44.7	-59.3	3.8	1.49e+00	0	57	104	1120927744	60	19916
2026-01-02 10:22:22.19	342.74	4.26	-44.8	-59.3	3.8	1.49e+00	0	57	104	1120927744	60	19882
2026-01-02 10:22:26.24	342.79	3.98	-44.8	-59.3	3.8	1.49e+00	0	57	104	1120927744	60	19909
2026-01-02 10:22:30.28	342.83	3.71	-44.8	-59.3	3.8	1.49e+00	0	57	104	1120927744	60	19921
2026-01-02 10:22:34.32	342.88	3.43	-44.7	-59.3	3.8	1.49e+00	0	57	104	1120927744	60	19901
2026-01-02 10:22:38.37	342.92	3.16	-44.7	-59.3	3.8	1.49e+00	0	57	104	1120927744	60	19883
2026-01-02 10:22:42.41	342.97	2.90	-44.7	-59.3	3.8	1.49e+00	0	57	104	1120927744	60	19876
2026-01-02 10:22:46.46	343.01	2.63	-44.7	-59.3	3.8	1.49e+00	0	57	104	1120927744	60	19913
2026-01-02 10:22:50.50	343.06	2.37	-44.7	-59.3	3.8	1.49e+00	0	57	104	1120927744	60	19854
2026-01-02 10:22:54.54	343.10	2.11	-44.7	-59.3	3.8	1.49e+00	0	57	104	1120927744	60	19879

#Closed at: 2026-01-02 10:22:56
#Recorded file [1120 MB]: D:/lorett/data/31039_260102_130829.dat