passes_logs/2026/01/02/R2.0S_Moscow/R2.0S_Moscow__20260102_214943_NOAA_21_JPSS-2_rec.log

#Pass ID: 20260102_214943_NOAA 21 (JPSS-2)
#Satellite: NOAA 21 (JPSS-2)
#Configuration: NOAA-21
#almurnet v.1.7.20251203
#Start time: 2026-01-02 21:49:43

#Version: 2.2.20231116
#Station: R2.0S_Moscow
#Location: 37.707566 lon 55.798166 lat
#TLE: 1 54234U 22150A   26002.25486487  .00000200  00000+0  11573-3 0  9993
#TLE: 2 54234  98.7485 303.3096 0001220 350.9074   9.2080 14.19531212163006

#Time	Az	El	Level	Level2	SNR	BER	BlckErr	Temp	State	Recorded	gain1	gain2
2026-01-02 21:49:43.30	28.34	1.99	-43.2	-55.7	3.8	1.49e+00	0	47	0	0	58	14776
2026-01-02 21:49:46.32	28.60	2.14	-43.2	-55.7	3.8	1.49e+00	0	47	104	0	57	15707
2026-01-02 21:49:49.35	28.87	2.29	-43.2	-55.7	3.8	1.49e+00	0	48	104	0	57	15710
2026-01-02 21:49:52.38	29.13	2.44	-43.2	-55.7	3.8	1.49e+00	0	48	104	0	57	15646
2026-01-02 21:49:55.42	29.40	2.59	-43.2	-55.7	3.8	1.49e+00	0	48	104	0	57	15727
2026-01-02 21:49:58.45	29.67	2.75	-43.2	-55.7	3.8	1.49e+00	0	48	104	0	57	15689
2026-01-02 21:50:01.48	29.95	2.90	-43.2	-55.7	3.8	1.49e+00	0	48	104	0	57	15614
2026-01-02 21:50:04.52	30.22	3.05	-43.2	-55.6	3.8	1.49e+00	0	49	104	0	57	15571
2026-01-02 21:50:07.55	30.50	3.20	-43.2	-55.7	3.8	1.49e+00	0	49	104	0	57	15601
2026-01-02 21:50:10.58	30.78	3.35	-43.1	-55.7	3.8	1.49e+00	0	49	104	0	57	15629
2026-01-02 21:50:13.61	31.07	3.51	-43.2	-55.7	3.8	1.49e+00	0	49	104	0	57	15640
2026-01-02 21:50:16.65	31.36	3.66	-43.2	-55.7	3.8	1.49e+00	0	49	104	0	57	15628
2026-01-02 21:50:19.68	31.65	3.82	-43.2	-55.7	3.8	1.49e+00	0	49	104	0	57	15631
2026-01-02 21:50:22.71	31.94	3.97	-43.2	-55.7	3.8	1.49e+00	0	50	104	0	57	15655
2026-01-02 21:50:25.74	32.24	4.12	-43.2	-55.7	3.8	1.49e+00	0	50	104	0	57	15666
2026-01-02 21:50:28.78	32.54	4.28	-43.2	-55.7	3.8	1.49e+00	0	50	104	0	57	15652
2026-01-02 21:50:31.81	32.84	4.43	-43.2	-55.7	3.8	1.49e+00	0	50	104	0	57	15660
2026-01-02 21:50:34.84	33.14	4.59	-43.2	-55.7	3.8	1.49e+00	0	50	104	0	57	15699
2026-01-02 21:50:37.88	33.45	4.74	-43.2	-55.7	3.8	1.49e+00	0	51	104	0	57	15669
2026-01-02 21:50:40.91	33.76	4.90	-43.2	-55.7	3.8	1.49e+00	0	51	104	0	57	15642
2026-01-02 21:50:43.94	34.08	5.06	-43.2	-55.7	3.8	1.49e+00	0	51	104	0	57	15706
2026-01-02 21:50:46.98	34.40	5.21	-43.2	-55.7	3.8	1.49e+00	0	51	104	0	57	15626
2026-01-02 21:50:50.01	34.72	5.37	-43.2	-55.7	3.8	1.49e+00	0	51	104	0	57	15630
2026-01-02 21:50:53.04	35.04	5.52	-43.2	-55.7	3.8	1.49e+00	0	51	104	0	57	15617
2026-01-02 21:50:56.07	35.37	5.68	-43.2	-55.7	3.8	1.49e+00	0	51	104	0	57	15679
2026-01-02 21:50:59.11	35.70	5.84	-43.2	-55.7	3.8	1.49e+00	0	52	104	0	57	15663
2026-01-02 21:51:02.14	36.04	5.99	-43.2	-55.7	3.8	1.49e+00	0	51	104	0	57	15656
2026-01-02 21:51:05.17	36.38	6.15	-43.2	-55.7	3.8	1.49e+00	0	52	104	0	57	15666
2026-01-02 21:51:08.21	36.72	6.31	-43.2	-55.7	3.8	1.49e+00	0	52	104	0	57	15643
2026-01-02 21:51:11.24	37.06	6.47	-43.2	-55.7	3.8	1.49e+00	0	52	104	0	57	15643
2026-01-02 21:51:14.27	37.41	6.62	-43.2	-55.7	3.8	1.49e+00	0	52	104	0	57	15614
2026-01-02 21:51:17.31	37.77	6.78	-43.1	-55.7	3.8	1.49e+00	0	52	104	0	57	15607
2026-01-02 21:51:20.34	38.12	6.94	-43.1	-55.6	3.8	1.49e+00	0	53	104	0	57	15564
2026-01-02 21:51:23.37	38.48	7.10	-43.1	-55.6	3.8	1.49e+00	0	52	104	0	57	15563
2026-01-02 21:51:26.40	38.85	7.25	-43.1	-55.7	3.8	1.49e+00	0	53	104	0	57	15665
2026-01-02 21:51:29.44	39.21	7.41	-43.1	-55.0	3.8	1.49e+00	0	53	104	0	57	14465
2026-01-02 21:51:32.47	39.59	7.57	-41.7	-47.5	6.8	2.32e-01	0	53	0	2097152	55	6802
2026-01-02 21:51:35.50	39.96	7.73	-39.6	-42.6	11.8	1.02e-03	0	53	0	11534336	51	4922
2026-01-02 21:51:38.53	40.34	7.89	-38.4	-40.9	13.6	1.98e-05	0	53	0	20971520	48	4771
2026-01-02 21:51:41.56	40.72	8.04	-38.5	-40.9	13.6	1.29e-05	0	53	0	30408704	48	4771
2026-01-02 21:51:44.59	41.11	8.20	-39.5	-42.5	12.2	1.50e-04	0	53	0	37748736	50	5110
2026-01-02 21:51:47.62	41.50	8.36	-38.4	-40.8	13.7	9.10e-06	0	53	0	47185920	48	4727
2026-01-02 21:51:50.65	41.90	8.51	-38.3	-40.7	13.8	4.50e-06	0	53	0	56623104	48	4684
2026-01-02 21:51:53.68	42.29	8.67	-38.2	-40.5	14.1	7.00e-07	0	54	0	66060288	48	4582
2026-01-02 21:51:56.71	42.70	8.83	-38.0	-40.1	14.6	0.00e+00	0	53	0	75497472	48	4362
2026-01-02 21:51:59.74	43.11	8.98	-37.7	-39.7	15.1	0.00e+00	0	54	0	84934656	47	4410
2026-01-02 21:52:02.77	43.52	9.14	-37.4	-39.2	15.7	0.00e+00	0	54	0	94371840	46	4437
2026-01-02 21:52:05.80	43.93	9.30	-37.2	-38.9	16.0	0.00e+00	0	54	0	103809024	46	4289
2026-01-02 21:52:08.83	44.35	9.45	-37.2	-38.9	16.1	0.00e+00	0	54	0	113246208	46	4272
2026-01-02 21:52:11.86	44.78	9.61	-37.1	-38.8	16.2	0.00e+00	0	54	0	122683392	46	4200
2026-01-02 21:52:14.89	45.21	9.76	-37.2	-38.9	16.1	0.00e+00	0	54	0	132120576	46	4253
2026-01-02 21:52:17.92	45.64	9.92	-37.2	-38.9	16.1	0.00e+00	0	54	0	141557760	46	4285
2026-01-02 21:52:20.95	46.08	10.07	-37.2	-38.8	16.2	0.00e+00	0	54	0	150994944	46	4237
2026-01-02 21:52:23.98	46.52	10.22	-37.1	-38.8	16.3	0.00e+00	0	54	0	160432128	46	4230
2026-01-02 21:52:27.01	46.97	10.38	-37.0	-38.6	16.4	0.00e+00	0	54	0	169869312	46	4137
2026-01-02 21:52:30.03	47.42	10.53	-37.0	-38.6	16.4	0.00e+00	0	54	0	179306496	45	4373
2026-01-02 21:52:33.06	47.87	10.68	-37.0	-38.6	16.5	0.00e+00	0	54	0	188743680	45	4363
2026-01-02 21:52:36.09	48.34	10.83	-36.9	-38.5	16.5	0.00e+00	0	54	0	198180864	45	4331
2026-01-02 21:52:39.12	48.80	10.98	-36.9	-38.5	16.6	0.00e+00	0	54	0	207618048	45	4306
2026-01-02 21:52:42.15	49.27	11.13	-36.9	-38.5	16.6	0.00e+00	0	55	0	217055232	45	4331
2026-01-02 21:52:45.18	49.75	11.28	-36.9	-38.5	16.6	0.00e+00	0	55	0	226492416	45	4323
2026-01-02 21:52:48.20	50.22	11.43	-36.9	-38.5	16.6	0.00e+00	0	55	0	235929600	45	4323
2026-01-02 21:52:51.23	50.71	11.57	-36.9	-38.4	16.7	0.00e+00	0	54	0	245366784	45	4288
2026-01-02 21:52:54.26	51.20	11.72	-36.9	-38.5	16.7	0.00e+00	0	55	0	254803968	45	4301
2026-01-02 21:52:57.29	51.69	11.86	-37.0	-38.6	16.5	0.00e+00	0	55	0	264241152	45	4387
2026-01-02 21:53:00.31	52.19	12.01	-37.2	-38.9	16.3	0.00e+00	0	55	0	274726912	45	4511
2026-01-02 21:53:03.35	52.69	12.15	-37.2	-38.8	16.4	0.00e+00	0	55	0	283115520	45	4485
2026-01-02 21:53:06.38	53.20	12.29	-37.0	-38.6	16.5	0.00e+00	0	55	0	293601280	45	4391
2026-01-02 21:53:09.41	53.71	12.43	-37.1	-38.7	16.5	0.00e+00	0	55	0	303038464	45	4435
2026-01-02 21:53:12.43	54.23	12.57	-36.9	-38.4	16.8	0.00e+00	0	55	0	312475648	45	4277
2026-01-02 21:53:15.46	54.75	12.71	-36.9	-38.4	16.7	0.00e+00	0	55	0	321912832	45	4286
2026-01-02 21:53:18.49	55.27	12.85	-37.0	-38.6	16.6	0.00e+00	0	55	0	331350016	45	4384
2026-01-02 21:53:21.52	55.81	12.98	-37.0	-38.6	16.7	0.00e+00	0	55	0	340787200	45	4346
2026-01-02 21:53:24.56	56.34	13.11	-36.9	-38.5	16.7	0.00e+00	0	55	0	350224384	45	4328
2026-01-02 21:53:27.59	56.89	13.25	-37.0	-38.6	16.6	0.00e+00	0	55	0	359661568	45	4372
2026-01-02 21:53:30.62	57.43	13.38	-36.9	-38.5	16.6	0.00e+00	0	55	0	369098752	45	4334
2026-01-02 21:53:33.65	57.98	13.51	-36.9	-38.4	16.8	0.00e+00	0	55	0	378535936	45	4284
2026-01-02 21:53:36.67	58.54	13.63	-36.9	-38.5	16.7	0.00e+00	0	55	0	387973120	45	4315
2026-01-02 21:53:39.71	59.10	13.76	-36.7	-38.3	16.9	0.00e+00	0	55	0	397410304	45	4207
2026-01-02 21:53:42.74	59.66	13.88	-36.7	-38.2	17.0	0.00e+00	0	55	0	406847488	45	4168
2026-01-02 21:53:45.77	60.23	14.00	-36.6	-38.1	17.0	0.00e+00	0	55	0	416284672	45	4129
2026-01-02 21:53:48.79	60.80	14.12	-36.6	-38.1	17.0	0.00e+00	0	55	0	425721856	45	4142
2026-01-02 21:53:51.82	61.38	14.24	-36.4	-37.9	17.3	0.00e+00	0	56	0	435159040	44	4277
2026-01-02 21:53:54.85	61.96	14.35	-36.4	-37.9	17.3	0.00e+00	0	55	0	444596224	44	4255
2026-01-02 21:53:57.88	62.55	14.47	-36.5	-38.1	17.0	0.00e+00	0	56	0	454033408	44	4355
2026-01-02 21:54:00.91	63.14	14.58	-36.5	-38.0	17.1	0.00e+00	0	56	0	463470592	44	4330
2026-01-02 21:54:03.94	63.74	14.69	-36.7	-38.3	16.8	0.00e+00	0	56	0	472907776	44	4446
2026-01-02 21:54:06.97	64.34	14.79	-36.6	-38.2	16.9	0.00e+00	0	56	0	482344960	44	4415
2026-01-02 21:54:09.99	64.94	14.89	-36.3	-37.8	17.2	0.00e+00	0	56	0	491782144	44	4215
2026-01-02 21:54:13.02	65.55	14.99	-36.6	-38.2	16.7	0.00e+00	0	55	0	501219328	44	4407
2026-01-02 21:54:16.05	66.16	15.09	-36.4	-38.0	16.6	0.00e+00	0	55	0	510656512	44	4330
2026-01-02 21:54:19.08	66.77	15.19	-36.5	-38.3	16.1	0.00e+00	0	55	0	520093696	44	4447
2026-01-02 21:54:22.11	67.39	15.28	-36.9	-38.8	15.2	0.00e+00	0	56	0	529530880	44	4737
2026-01-02 21:54:25.15	68.02	15.37	-37.0	-39.1	14.7	0.00e+00	0	56	0	538968064	44	4909
2026-01-02 21:54:28.18	68.65	15.46	-37.1	-39.3	14.3	7.00e-07	0	55	0	548405248	44	4999
2026-01-02 21:54:31.21	69.28	15.54	-37.5	-39.9	13.5	1.06e-05	0	56	0	557842432	45	5062
2026-01-02 21:54:34.24	69.91	15.62	-37.9	-40.6	12.6	9.91e-05	0	56	0	567279616	46	5190
2026-01-02 21:54:37.27	70.55	15.70	-38.0	-41.0	11.8	4.61e-04	0	56	0	576716800	46	5433
2026-01-02 21:54:40.30	71.19	15.78	-38.2	-41.6	10.8	2.05e-03	0	56	0	587202560	46	5793
2026-01-02 21:54:43.33	71.83	15.85	-38.3	-42.0	10.2	5.31e-03	0	56	0	595591168	47	5737
2026-01-02 21:54:46.36	72.48	15.92	-38.3	-42.1	10.1	6.77e-03	0	56	0	606076928	47	5810
2026-01-02 21:54:49.39	73.13	15.98	-38.5	-42.3	9.9	8.84e-03	0	56	0	615514112	47	5967
2026-01-02 21:54:52.42	73.78	16.05	-38.4	-42.1	10.2	5.66e-03	0	56	0	624951296	47	5804
2026-01-02 21:54:55.45	74.44	16.10	-38.1	-41.5	10.9	2.36e-03	0	56	0	634388480	47	5426
2026-01-02 21:54:58.48	75.09	16.16	-38.0	-41.2	11.3	1.23e-03	0	56	0	643825664	47	5249
2026-01-02 21:55:01.51	75.75	16.21	-37.9	-41.0	11.6	7.53e-04	0	56	0	653262848	47	5123
2026-01-02 21:55:04.55	76.42	16.26	-37.8	-40.7	12.0	3.82e-04	0	56	0	662700032	47	4934
2026-01-02 21:55:07.58	77.08	16.30	-37.7	-40.5	12.2	2.05e-04	0	56	0	672137216	47	4862
2026-01-02 21:55:10.60	77.75	16.35	-37.9	-40.7	12.2	2.24e-04	0	56	0	681574400	47	4948
2026-01-02 21:55:13.63	78.41	16.38	-37.9	-40.6	12.4	1.34e-04	0	56	0	691011584	47	4911
2026-01-02 21:55:16.66	79.08	16.42	-38.0	-40.7	12.3	1.58e-04	0	56	0	700448768	47	4973
2026-01-02 21:55:19.69	79.75	16.45	-37.8	-40.5	12.5	9.15e-05	0	56	0	709885952	47	4851
2026-01-02 21:55:22.72	80.43	16.47	-37.8	-40.4	12.8	7.17e-05	0	56	0	719323136	47	4789
2026-01-02 21:55:25.75	81.10	16.50	-37.6	-40.0	13.4	7.60e-06	0	56	0	728760320	47	4548
2026-01-02 21:55:28.78	81.77	16.52	-37.3	-39.5	14.2	3.80e-06	0	56	0	738197504	46	4570
2026-01-02 21:55:31.81	82.45	16.53	-37.4	-39.5	14.6	1.50e-06	0	56	0	747634688	46	4557
2026-01-02 21:55:34.83	83.12	16.54	-37.4	-39.5	14.6	0.00e+00	0	56	0	757071872	46	4575
2026-01-02 21:55:37.86	83.80	16.55	-37.4	-39.6	14.3	1.50e-06	0	56	0	766509056	46	4617
2026-01-02 21:55:40.89	84.48	16.56	-37.5	-39.8	13.8	3.80e-06	0	56	0	775946240	46	4739
2026-01-02 21:55:43.92	85.15	16.56	-37.6	-40.0	13.4	1.52e-05	0	56	0	785383424	46	4825
2026-01-02 21:55:46.96	85.83	16.55	-37.6	-40.1	13.1	3.05e-05	0	56	0	794820608	46	4891
2026-01-02 21:55:49.99	86.51	16.54	-37.6	-40.0	13.2	2.36e-05	0	57	0	804257792	46	4861
2026-01-02 21:55:53.01	87.18	16.53	-37.4	-39.6	14.0	7.00e-07	0	56	0	813694976	46	4612
2026-01-02 21:55:56.05	87.86	16.52	-37.2	-39.2	14.7	1.50e-06	0	56	0	823132160	46	4413
2026-01-02 21:55:59.08	88.54	16.50	-37.0	-38.8	15.5	0.00e+00	0	56	0	832569344	46	4218
2026-01-02 21:56:02.11	89.21	16.48	-36.6	-38.2	16.4	0.00e+00	0	56	0	842006528	45	4188
2026-01-02 21:56:05.14	89.88	16.45	-36.7	-38.3	16.6	0.00e+00	0	56	0	851443712	45	4203
2026-01-02 21:56:08.17	90.55	16.42	-36.6	-38.2	16.8	0.00e+00	0	56	0	860880896	45	4156
2026-01-02 21:56:11.20	91.22	16.39	-36.3	-37.8	17.3	0.00e+00	0	56	0	870318080	44	4199
2026-01-02 21:56:14.23	91.89	16.35	-36.3	-37.7	17.4	0.00e+00	0	56	0	879755264	44	4183
2026-01-02 21:56:17.26	92.56	16.31	-36.2	-37.7	17.4	0.00e+00	0	56	0	889192448	44	4155
2026-01-02 21:56:20.29	93.23	16.26	-36.2	-37.7	17.4	0.00e+00	0	56	0	898629632	44	4163
2026-01-02 21:56:23.31	93.89	16.22	-36.4	-37.8	17.3	0.00e+00	0	56	0	908066816	44	4231
2026-01-02 21:56:26.35	94.55	16.17	-36.3	-37.7	17.4	0.00e+00	0	56	0	917504000	44	4176
2026-01-02 21:56:29.38	95.21	16.11	-36.2	-37.6	17.5	0.00e+00	0	56	0	927989760	44	4144
2026-01-02 21:56:32.40	95.87	16.05	-36.3	-37.8	17.4	0.00e+00	0	56	0	937426944	44	4202
2026-01-02 21:56:35.43	96.52	15.99	-36.2	-37.7	17.5	0.00e+00	0	57	0	946864128	44	4163
2026-01-02 21:56:38.46	97.17	15.92	-36.3	-37.7	17.5	0.00e+00	0	56	0	956301312	44	4179
2026-01-02 21:56:41.48	97.82	15.86	-36.0	-37.5	17.7	0.00e+00	0	56	0	965738496	44	4060
2026-01-02 21:56:44.51	98.46	15.78	-36.0	-37.5	17.7	0.00e+00	0	57	0	975175680	44	4056
2026-01-02 21:56:47.54	99.11	15.71	-36.1	-37.5	17.7	0.00e+00	0	56	0	984612864	44	4068
2026-01-02 21:56:50.57	99.75	15.63	-36.0	-37.5	17.7	0.00e+00	0	56	0	994050048	44	4052
2026-01-02 21:56:53.60	100.38	15.55	-35.7	-37.1	17.9	0.00e+00	0	56	0	1003487232	43	4106
2026-01-02 21:56:56.63	101.02	15.47	-35.8	-37.2	17.7	0.00e+00	0	56	0	1012924416	43	4188
2026-01-02 21:56:59.65	101.64	15.38	-36.0	-37.4	17.6	0.00e+00	0	56	0	1022361600	43	4281
2026-01-02 21:57:02.68	102.27	15.29	-36.0	-37.4	17.6	0.00e+00	0	56	0	1031798784	43	4267
2026-01-02 21:57:05.71	102.89	15.20	-35.8	-37.2	17.8	0.00e+00	0	56	0	1041235968	43	4189
2026-01-02 21:57:08.74	103.51	15.10	-35.9	-37.4	17.6	0.00e+00	0	56	0	1050673152	43	4245
2026-01-02 21:57:11.77	104.13	15.00	-35.9	-37.3	17.7	7.00e-07	0	56	0	1060110336	43	4226
2026-01-02 21:57:14.80	104.74	14.90	-36.0	-37.4	17.5	0.00e+00	0	57	0	1069547520	43	4287
2026-01-02 21:57:17.83	105.34	14.80	-35.8	-37.2	17.8	0.00e+00	0	56	0	1078984704	43	4148
2026-01-02 21:57:20.86	105.95	14.69	-35.8	-37.2	17.8	0.00e+00	0	56	0	1088421888	43	4166
2026-01-02 21:57:23.89	106.54	14.58	-36.0	-37.4	17.6	0.00e+00	0	56	0	1097859072	43	4267
2026-01-02 21:57:26.92	107.14	14.47	-36.2	-37.6	17.4	0.00e+00	0	56	0	1107296256	43	4382
2026-01-02 21:57:29.95	107.73	14.36	-36.2	-37.6	17.4	0.00e+00	0	56	0	1116733440	43	4372
2026-01-02 21:57:32.99	108.32	14.24	-36.0	-37.4	17.5	0.00e+00	0	56	0	1126170624	43	4275
2026-01-02 21:57:36.02	108.90	14.12	-36.1	-37.5	17.5	0.00e+00	0	56	0	1135607808	43	4326
2026-01-02 21:57:39.05	109.47	14.00	-36.4	-37.9	17.1	0.00e+00	0	57	0	1145044992	43	4510
2026-01-02 21:57:42.08	110.04	13.88	-36.5	-38.0	17.0	0.00e+00	0	56	0	1154482176	43	4569
2026-01-02 21:57:45.10	110.61	13.76	-36.4	-37.9	17.0	3.00e-06	0	56	0	1163919360	43	4540
2026-01-02 21:57:48.14	111.17	13.63	-36.3	-37.7	17.2	0.00e+00	0	56	0	1173356544	43	4441
2026-01-02 21:57:51.17	111.73	13.50	-36.3	-37.8	17.1	0.00e+00	0	56	0	1182793728	43	4456
2026-01-02 21:57:54.19	112.28	13.37	-36.4	-38.0	17.0	1.17e-04	0	57	0	1192230912	43	4559
2026-01-02 21:57:57.22	112.83	13.24	-36.6	-38.1	16.8	7.00e-07	0	56	0	1201668096	43	4651
2026-01-02 21:58:00.25	113.38	13.11	-36.1	-38.1	16.3	9.18e-04	0	57	0	1211105280	43	4639
2026-01-02 21:58:03.27	113.91	12.98	-36.2	-38.0	14.7	6.84e-03	0	56	0	1220542464	42	4854
2026-01-02 21:58:06.30	114.45	12.84	-34.9	-38.0	13.2	3.45e-02	0	56	0	1229979648	40	5405
2026-01-02 21:58:09.34	114.98	12.70	-34.6	-38.1	12.7	2.07e-01	0	57	0	1239416832	40	5485
2026-01-02 21:58:12.37	115.51	12.56	-33.6	-38.1	9.4	1.44e-01	0	57	0	1248854016	36	6892
2026-01-02 21:58:15.40	116.03	12.42	-34.2	-38.2	11.3	7.22e-02	0	56	0	1258291200	39	5919
2026-01-02 21:58:18.42	116.54	12.28	-35.5	-38.3	12.2	4.30e-02	0	57	0	1267728384	41	5336
2026-01-02 21:58:21.45	117.05	12.14	-35.7	-38.3	11.7	3.91e-02	0	56	0	1276116992	39	5972
2026-01-02 21:58:24.48	117.56	11.99	-35.8	-38.2	12.8	1.28e-01	0	57	0	1285554176	41	5261
2026-01-02 21:58:27.51	118.06	11.85	-36.1	-38.5	12.8	2.89e-02	0	57	0	1294991360	42	5133
2026-01-02 21:58:30.54	118.55	11.70	-36.0	-39.1	5.2	7.25e-02	0	57	104	1303379968	42	5495
2026-01-02 21:58:33.57	119.04	11.55	-22.4	-34.3	4.2	1.42e+00	0	57	104	1304428544	16	14051
2026-01-02 21:58:36.60	119.53	11.41	-31.3	-37.2	6.8	1.07e+00	20	57	104	1306525696	30	8829
2026-01-02 21:58:39.63	120.01	11.26	-27.7	-37.6	4.2	1.46e+00	0	57	104	1306525696	16	20695
2026-01-02 21:58:42.66	120.49	11.11	-26.0	-38.1	7.8	1.41e+00	13	57	104	1306525696	28	11021
2026-01-02 21:58:45.69	120.96	10.96	-34.2	-37.6	10.8	2.06e-01	9	57	0	1307574272	28	10312
2026-01-02 21:58:48.72	121.43	10.80	-22.0	-32.0	3.9	1.43e+00	0	57	104	1308622848	16	10780
2026-01-02 21:58:51.74	121.89	10.65	-27.2	-36.4	5.9	5.10e-01	2	57	0	1310720000	27	9555
2026-01-02 21:58:54.77	122.35	10.50	-30.9	-37.1	7.4	9.27e-01	5	57	104	1311768576	28	9814
2026-01-02 21:58:57.80	122.80	10.34	-37.9	-41.8	4.8	1.35e+00	0	57	104	1313865728	44	6713
2026-01-02 21:59:00.83	123.25	10.19	-35.5	-40.4	12.3	5.10e-02	0	57	0	1321205760	44	5720
2026-01-02 21:59:03.86	123.70	10.04	-36.0	-38.1	14.7	4.22e-03	0	57	0	1330642944	42	4885
2026-01-02 21:59:06.89	124.14	9.88	-35.6	-38.8	4.6	4.08e-01	0	57	104	1340080128	33	8922
2026-01-02 21:59:09.92	124.57	9.72	-35.5	-38.4	11.2	1.45e-01	10	57	0	1341128704	40	5678
2026-01-02 21:59:12.95	125.00	9.57	-31.9	-37.5	8.3	8.34e-01	6	57	0	1343225856	29	9668
2026-01-02 21:59:15.98	125.43	9.41	-28.9	-37.6	5.0	1.43e+00	0	57	104	1343225856	30	9230
2026-01-02 21:59:19.01	125.85	9.25	-32.6	-41.7	5.2	1.43e+00	0	57	104	1343225856	31	14007
2026-01-02 21:59:22.03	126.27	9.10	-18.8	-31.2	3.8	1.49e+00	0	57	104	1343225856	16	9834
2026-01-02 21:59:25.06	126.68	8.94	-19.4	-31.3	3.5	1.51e+00	0	57	104	1343225856	11	13265
2026-01-02 21:59:28.09	127.09	8.78	-15.3	-24.9	4.0	1.51e+00	0	57	104	1343225856	1	11348
2026-01-02 21:59:31.13	127.50	8.62	-21.4	-30.8	3.7	1.49e+00	0	57	104	1343225856	10	13372
2026-01-02 21:59:34.16	127.90	8.46	-19.7	-31.9	3.2	1.49e+00	0	57	104	1343225856	11	14225
2026-01-02 21:59:37.19	128.29	8.30	-14.8	-24.0	3.7	1.50e+00	0	57	104	1343225856	6	7643
2026-01-02 21:59:40.21	128.69	8.15	-13.6	-26.2	3.6	1.49e+00	0	57	104	1343225856	4	11069
2026-01-02 21:59:43.24	129.07	7.99	-28.3	-40.5	3.9	1.51e+00	0	57	104	1343225856	27	15335
2026-01-02 21:59:46.28	129.46	7.83	-44.8	-57.2	3.8	1.49e+00	0	57	104	1343225856	60	15722
2026-01-02 21:59:49.31	129.84	7.67	-45.1	-57.5	3.8	1.49e+00	0	57	104	1343225856	60	16264
2026-01-02 21:59:52.34	130.22	7.51	-45.2	-57.6	3.8	1.49e+00	0	57	104	1343225856	61	15448
2026-01-02 21:59:55.38	130.59	7.35	-45.0	-57.3	3.8	1.49e+00	0	57	104	1343225856	61	15002
2026-01-02 21:59:58.41	130.96	7.19	-44.9	-57.3	3.8	1.49e+00	0	57	104	1343225856	61	14904
2026-01-02 22:00:01.44	131.32	7.03	-44.9	-57.2	3.8	1.49e+00	0	57	104	1343225856	61	14804
2026-01-02 22:00:04.48	131.68	6.87	-44.9	-57.2	3.8	1.49e+00	0	57	104	1343225856	61	14772
2026-01-02 22:00:07.51	132.04	6.71	-44.9	-57.2	3.8	1.49e+00	0	57	104	1343225856	61	14770
2026-01-02 22:00:10.54	132.39	6.55	-44.9	-57.2	3.8	1.49e+00	0	57	104	1343225856	61	14771
2026-01-02 22:00:13.57	132.74	6.39	-44.9	-57.2	3.8	1.49e+00	0	57	104	1343225856	61	14725
2026-01-02 22:00:16.61	133.09	6.23	-44.9	-57.2	3.8	1.49e+00	0	57	104	1343225856	61	14759
2026-01-02 22:00:19.64	133.43	6.07	-44.9	-57.2	3.8	1.49e+00	0	57	104	1343225856	61	14806
2026-01-02 22:00:22.67	133.77	5.91	-44.9	-57.2	3.8	1.49e+00	0	57	104	1343225856	61	14710
2026-01-02 22:00:25.71	134.11	5.75	-44.9	-57.2	3.8	1.49e+00	0	57	104	1343225856	61	14731
2026-01-02 22:00:28.74	134.44	5.60	-44.9	-57.2	3.8	1.49e+00	0	57	104	1343225856	61	14771
2026-01-02 22:00:31.77	134.76	5.44	-44.9	-57.2	3.8	1.49e+00	0	57	104	1343225856	61	14763
2026-01-02 22:00:34.80	135.09	5.28	-44.9	-57.2	3.8	1.49e+00	0	57	104	1343225856	61	14799
2026-01-02 22:00:37.84	135.41	5.12	-44.9	-57.2	3.8	1.49e+00	0	57	104	1343225856	61	14747
2026-01-02 22:00:40.87	135.73	4.96	-44.9	-57.2	3.8	1.49e+00	0	57	104	1343225856	61	14718
2026-01-02 22:00:43.90	136.04	4.81	-44.9	-57.2	3.8	1.49e+00	0	57	104	1343225856	61	14725
2026-01-02 22:00:46.94	136.36	4.65	-44.9	-57.2	3.8	1.49e+00	0	57	104	1343225856	61	14731
2026-01-02 22:00:49.97	136.66	4.49	-44.9	-57.2	3.8	1.49e+00	0	57	104	1343225856	61	14771
2026-01-02 22:00:53.00	136.97	4.33	-44.9	-57.1	3.8	1.49e+00	0	57	104	1343225856	61	14703
2026-01-02 22:00:56.03	137.27	4.18	-44.9	-57.1	3.8	1.49e+00	0	57	104	1343225856	61	14698
2026-01-02 22:00:59.06	137.57	4.02	-44.9	-57.2	3.8	1.49e+00	0	57	104	1343225856	61	14732
2026-01-02 22:01:02.09	137.87	3.86	-44.9	-57.2	3.8	1.49e+00	0	57	104	1343225856	60	15587
2026-01-02 22:01:05.13	138.16	3.71	-44.9	-57.2	3.8	1.49e+00	0	57	104	1343225856	60	15632
2026-01-02 22:01:08.16	138.45	3.55	-44.9	-57.2	3.8	1.49e+00	0	57	104	1343225856	60	15596
2026-01-02 22:01:11.20	138.74	3.40	-44.9	-57.2	3.8	1.49e+00	0	57	104	1343225856	60	15608
2026-01-02 22:01:14.23	139.02	3.24	-44.8	-57.1	3.8	1.49e+00	0	57	104	1343225856	60	15549
2026-01-02 22:01:17.26	139.30	3.09	-44.9	-57.1	3.8	1.49e+00	0	57	104	1343225856	60	15561
2026-01-02 22:01:20.30	139.58	2.93	-44.9	-57.2	3.8	1.49e+00	0	57	104	1343225856	60	15609
2026-01-02 22:01:23.33	139.86	2.78	-44.8	-57.2	3.8	1.49e+00	0	57	104	1343225856	60	15604
2026-01-02 22:01:26.36	140.13	2.63	-44.9	-57.2	3.8	1.49e+00	0	57	104	1343225856	60	15609
2026-01-02 22:01:29.39	140.40	2.47	-44.9	-57.2	3.8	1.49e+00	0	57	104	1343225856	60	15606
2026-01-02 22:01:32.43	140.67	2.32	-44.9	-57.2	3.8	1.49e+00	0	57	104	1343225856	60	15595
2026-01-02 22:01:35.46	140.93	2.17	-44.9	-57.2	3.8	1.49e+00	0	57	104	1343225856	60	15624
2026-01-02 22:01:38.49	141.19	2.01	-44.9	-57.2	3.8	1.49e+00	0	57	104	1343225856	60	15647

#Closed at: 2026-01-02 22:01:39
#Recorded file [1343 MB]: D:/lorett/data/31039_260103_004943.dat