passes_logs/2026/01/02/R2.0S_Moscow/R2.0S_Moscow__20260102_125028_FENGYUN_3D_rec.log

#Pass ID: 20260102_125028_FENGYUN 3D
#Satellite: FENGYUN 3D
#Configuration: FENGYUN 3D
#almurnet v.1.7.20251203
#Start time: 2026-01-02 12:50:29

#Version: 2.2.20231116
#Station: R2.0S_Moscow
#Location: 37.707566 lon 55.798166 lat
#TLE: 1 43010U 17072A   26001.96529979  .00000409  00000+0  21503-3 0  9996
#TLE: 2 43010  98.9910 333.5811 0001886 133.0441 227.0893 14.19692048421405

#Time	Az	El	Level	Level2	SNR	BER	BlckErr	Temp	State	Recorded	gain1	gain2
2026-01-02 12:50:29.65	187.16	2.09	-44.0	-55.4	3.8	8.45e-01	0	47	0	0	59	13501
2026-01-02 12:50:33.68	187.34	2.34	-44.0	-55.4	3.8	8.45e-01	0	48	104	0	59	13462
2026-01-02 12:50:37.73	187.52	2.59	-44.0	-55.4	3.8	8.47e-01	0	48	104	0	59	13432
2026-01-02 12:50:41.77	187.71	2.84	-44.0	-55.4	3.8	8.46e-01	0	48	104	0	59	13466
2026-01-02 12:50:45.81	187.89	3.10	-44.0	-55.4	3.8	8.45e-01	0	49	104	0	59	13497
2026-01-02 12:50:49.86	188.08	3.35	-44.0	-55.4	3.8	8.45e-01	0	49	104	0	59	13468
2026-01-02 12:50:53.90	188.27	3.61	-44.0	-55.4	3.8	8.45e-01	0	49	104	0	59	13431
2026-01-02 12:50:57.94	188.47	3.87	-44.0	-55.3	3.8	8.46e-01	0	50	104	0	59	13392
2026-01-02 12:51:01.99	188.67	4.14	-44.0	-55.4	3.8	8.46e-01	0	50	104	0	59	13462
2026-01-02 12:51:06.03	188.87	4.40	-44.0	-55.4	3.8	8.46e-01	0	50	104	0	59	13427
2026-01-02 12:51:10.08	189.08	4.67	-44.0	-55.3	3.8	8.46e-01	0	50	104	0	59	13286
2026-01-02 12:51:14.12	189.29	4.94	-44.0	-55.3	3.8	8.46e-01	0	50	104	0	59	13302
2026-01-02 12:51:18.16	189.50	5.21	-44.0	-55.3	3.8	8.46e-01	0	51	104	0	59	13389
2026-01-02 12:51:22.21	189.72	5.49	-43.9	-55.2	3.8	8.47e-01	0	51	104	0	59	13170
2026-01-02 12:51:26.25	189.94	5.77	-43.9	-55.0	3.8	8.46e-01	0	51	104	0	59	12825
2026-01-02 12:51:30.30	190.17	6.05	-43.9	-54.7	3.8	8.47e-01	0	51	104	0	59	12512
2026-01-02 12:51:34.34	190.40	6.33	-43.9	-54.7	3.8	8.46e-01	0	51	104	0	59	12401
2026-01-02 12:51:38.39	190.63	6.62	-43.9	-55.0	3.8	8.46e-01	0	52	104	0	59	12934
2026-01-02 12:51:42.43	190.87	6.91	-43.1	-49.7	5.0	8.04e-01	0	52	0	0	58	7450
2026-01-02 12:51:46.48	191.11	7.20	-40.1	-43.1	10.8	5.73e-03	0	52	0	18874368	52	4885
2026-01-02 12:51:50.52	191.36	7.50	-37.3	-39.2	14.8	1.10e-06	0	52	0	41943040	46	4440
2026-01-02 12:51:54.57	191.62	7.80	-35.6	-37.2	16.5	0.00e+00	0	52	0	65011712	43	4167
2026-01-02 12:51:58.61	191.87	8.10	-41.8	-46.2	8.4	1.71e-05	0	52	0	88080384	53	6577
2026-01-02 12:52:02.65	192.14	8.40	-35.3	-36.9	17.0	4.50e-06	0	52	0	103809024	42	4253
2026-01-02 12:52:06.69	192.40	8.71	-35.1	-36.6	17.2	0.00e+00	0	53	0	125829120	42	4125
2026-01-02 12:52:10.73	192.68	9.02	-34.8	-36.2	17.6	0.00e+00	0	53	0	148897792	41	4191
2026-01-02 12:52:14.77	192.96	9.34	-34.7	-36.2	17.7	0.00e+00	0	53	0	171966464	41	4147
2026-01-02 12:52:18.81	193.24	9.65	-34.6	-36.0	17.8	0.00e+00	0	53	0	195035136	41	4094
2026-01-02 12:52:22.85	193.53	9.97	-34.6	-36.0	17.9	0.00e+00	0	53	0	217055232	41	4084
2026-01-02 12:52:26.89	193.83	10.30	-34.7	-36.2	17.7	0.00e+00	0	53	0	240123904	41	4148
2026-01-02 12:52:30.93	194.13	10.63	-34.8	-36.3	17.6	0.00e+00	0	53	0	263192576	41	4200
2026-01-02 12:52:34.97	194.44	10.96	-34.7	-36.1	17.8	0.00e+00	0	54	0	285212672	41	4133
2026-01-02 12:52:39.01	194.76	11.30	-34.6	-36.1	17.9	0.00e+00	0	54	0	308281344	41	4115
2026-01-02 12:52:43.05	195.08	11.64	-34.6	-36.0	17.9	0.00e+00	0	54	0	331350016	41	4089
2026-01-02 12:52:47.09	195.41	11.98	-34.5	-35.9	18.0	0.00e+00	0	54	0	353370112	40	4289
2026-01-02 12:52:51.13	195.75	12.33	-34.4	-35.8	18.1	0.00e+00	0	54	0	376438784	40	4240
2026-01-02 12:52:55.17	196.10	12.68	-34.3	-35.7	18.3	0.00e+00	0	54	0	399507456	40	4150
2026-01-02 12:52:59.22	196.46	13.04	-34.2	-35.6	18.4	0.00e+00	0	54	0	421527552	40	4100
2026-01-02 12:53:03.26	196.82	13.40	-34.1	-35.5	18.5	0.00e+00	0	54	0	444596224	40	4094
2026-01-02 12:53:07.30	197.19	13.76	-34.0	-35.4	18.7	0.00e+00	0	54	0	467664896	40	4021
2026-01-02 12:53:11.35	197.57	14.13	-34.0	-35.3	18.7	0.00e+00	0	54	0	489684992	39	4226
2026-01-02 12:53:15.39	197.96	14.51	-33.9	-35.3	18.8	0.00e+00	0	54	0	512753664	39	4203
2026-01-02 12:53:19.42	198.36	14.88	-33.8	-35.1	18.9	0.00e+00	0	55	0	535822336	39	4142
2026-01-02 12:53:23.46	198.77	15.27	-33.5	-34.9	19.2	0.00e+00	0	55	0	557842432	39	4018
2026-01-02 12:53:27.50	199.19	15.65	-33.3	-34.6	19.5	0.00e+00	0	55	0	580911104	38	4137
2026-01-02 12:53:31.54	199.62	16.05	-33.4	-34.7	19.4	0.00e+00	0	55	0	603979776	38	4167
2026-01-02 12:53:35.58	200.06	16.44	-33.4	-34.7	19.4	0.00e+00	0	55	0	625999872	38	4156
2026-01-02 12:53:39.62	200.52	16.85	-33.2	-34.5	19.6	0.00e+00	0	55	0	649068544	38	4067
2026-01-02 12:53:43.66	200.98	17.25	-33.1	-34.4	19.7	0.00e+00	0	55	0	672137216	38	4017
2026-01-02 12:53:47.70	201.46	17.67	-32.9	-34.1	19.9	0.00e+00	0	55	0	695205888	37	4131
2026-01-02 12:53:51.74	201.95	18.08	-32.7	-33.9	20.1	0.00e+00	0	55	0	717225984	37	4049
2026-01-02 12:53:55.78	202.45	18.51	-32.5	-33.8	20.3	0.00e+00	0	55	0	740294656	37	3962
2026-01-02 12:53:59.81	202.97	18.93	-32.7	-34.0	20.1	0.00e+00	0	55	0	762314752	37	4052
2026-01-02 12:54:03.86	203.50	19.37	-32.9	-34.2	19.9	0.00e+00	0	55	0	785383424	37	4147
2026-01-02 12:54:07.90	204.05	19.81	-32.6	-33.9	20.2	0.00e+00	0	55	0	808452096	37	4010
2026-01-02 12:54:11.94	204.61	20.25	-32.3	-33.6	20.4	0.00e+00	0	55	0	830472192	36	4106
2026-01-02 12:54:15.98	205.19	20.70	-32.1	-33.3	20.7	0.00e+00	0	55	0	853540864	36	3996
2026-01-02 12:54:20.02	205.79	21.15	-32.3	-33.5	20.5	0.00e+00	0	55	0	876609536	36	4079
2026-01-02 12:54:24.06	206.40	21.61	-32.6	-33.8	20.2	0.00e+00	0	55	0	899678208	36	4227
2026-01-02 12:54:28.10	207.03	22.08	-32.4	-33.6	20.5	0.00e+00	0	55	0	921698304	36	4121
2026-01-02 12:54:32.14	207.68	22.55	-32.1	-33.3	20.7	0.00e+00	0	56	0	944766976	36	3986
2026-01-02 12:54:36.19	208.35	23.02	-32.0	-33.2	20.9	0.00e+00	0	55	0	966787072	36	3923
2026-01-02 12:54:40.22	209.04	23.50	-31.1	-32.3	20.9	0.00e+00	0	56	0	989855744	34	3989
2026-01-02 12:54:44.26	209.75	23.98	-31.1	-32.3	20.9	0.00e+00	0	56	0	1012924416	34	4002
2026-01-02 12:54:48.30	210.48	24.47	-31.4	-32.6	20.6	0.00e+00	0	56	0	1035993088	34	4139
2026-01-02 12:54:52.35	211.24	24.96	-31.0	-32.2	21.0	0.00e+00	0	55	0	1058013184	34	3931
2026-01-02 12:54:56.38	212.01	25.46	-30.9	-32.1	21.1	0.00e+00	0	56	0	1081081856	33	4133
2026-01-02 12:55:00.42	212.81	25.96	-30.9	-32.1	21.1	0.00e+00	0	56	0	1104150528	33	4135
2026-01-02 12:55:04.46	213.64	26.46	-31.0	-32.2	21.0	0.00e+00	0	56	0	1126170624	33	4158
2026-01-02 12:55:08.50	214.50	26.97	-30.7	-31.9	21.3	0.00e+00	0	56	0	1149239296	33	4028
2026-01-02 12:55:12.54	215.38	27.48	-30.7	-31.8	21.3	0.00e+00	0	56	0	1171259392	33	4000
2026-01-02 12:55:16.59	216.29	27.99	-30.8	-32.0	21.2	0.00e+00	0	56	0	1194328064	33	4053
2026-01-02 12:55:20.62	217.22	28.50	-30.5	-31.7	21.4	0.00e+00	0	56	0	1217396736	33	3919
2026-01-02 12:55:24.66	218.19	29.01	-30.4	-31.6	21.5	0.00e+00	0	56	0	1240465408	32	4113
2026-01-02 12:55:28.70	219.19	29.53	-30.5	-31.7	21.5	0.00e+00	0	56	0	1262485504	32	4157
2026-01-02 12:55:32.75	220.22	30.04	-30.4	-31.5	21.6	0.00e+00	0	56	0	1285554176	32	4094
2026-01-02 12:55:36.79	221.28	30.55	-30.5	-31.6	21.5	0.00e+00	0	56	0	1308622848	32	4134
2026-01-02 12:55:40.83	222.37	31.07	-30.4	-31.6	21.5	0.00e+00	0	56	0	1330642944	32	4123
2026-01-02 12:55:44.87	223.50	31.57	-30.3	-31.5	21.7	0.00e+00	0	56	0	1353711616	32	4062
2026-01-02 12:55:48.91	224.67	32.08	-30.4	-31.6	21.5	0.00e+00	0	56	0	1376780288	32	4121
2026-01-02 12:55:52.96	225.87	32.58	-30.3	-31.5	21.6	0.00e+00	0	56	0	1398800384	32	4069
2026-01-02 12:55:57.00	227.11	33.07	-30.2	-31.4	21.7	0.00e+00	0	56	0	1421869056	32	4015
2026-01-02 12:56:01.04	228.39	33.56	-30.5	-31.8	21.3	0.00e+00	0	56	0	1444937728	32	4194
2026-01-02 12:56:05.07	229.70	34.04	-30.4	-31.6	21.5	0.00e+00	0	56	0	1466957824	32	4099
2026-01-02 12:56:09.12	231.05	34.51	-30.4	-31.6	21.5	0.00e+00	0	56	0	1490026496	32	4103
2026-01-02 12:56:13.16	232.44	34.96	-30.1	-31.3	21.8	0.00e+00	0	56	0	1513095168	32	3972
2026-01-02 12:56:17.19	233.86	35.41	-30.1	-31.2	21.9	0.00e+00	0	56	0	1535115264	32	3945
2026-01-02 12:56:21.23	235.33	35.84	-30.2	-31.3	21.7	0.00e+00	0	56	0	1558183936	32	3998
2026-01-02 12:56:25.27	236.83	36.25	-30.1	-31.3	21.7	0.00e+00	0	56	0	1581252608	32	3979
2026-01-02 12:56:29.31	238.37	36.65	-30.0	-31.2	21.9	0.00e+00	0	56	0	1603272704	32	3914
2026-01-02 12:56:33.35	239.95	37.03	-30.1	-31.2	21.9	0.00e+00	0	56	0	1626341376	32	3940
2026-01-02 12:56:37.39	241.56	37.39	-29.8	-30.9	22.1	0.00e+00	0	56	0	1649410048	31	4019
2026-01-02 12:56:41.43	243.21	37.73	-29.8	-30.9	22.0	0.00e+00	0	56	0	1671430144	31	4044
2026-01-02 12:56:45.46	244.89	38.04	-29.9	-31.0	21.9	0.00e+00	0	56	0	1694498816	31	4098
2026-01-02 12:56:49.50	246.60	38.33	-29.7	-30.8	22.1	0.00e+00	0	56	0	1717567488	31	3970
2026-01-02 12:56:53.55	248.34	38.60	-29.8	-30.9	22.0	0.00e+00	0	56	0	1739587584	31	4017
2026-01-02 12:56:57.59	250.11	38.83	-30.1	-31.2	21.7	0.00e+00	0	57	0	1762656256	31	4188
2026-01-02 12:57:01.62	251.89	39.04	-29.7	-30.8	22.1	0.00e+00	0	56	0	1785724928	31	4000
2026-01-02 12:57:05.67	253.70	39.21	-29.7	-30.9	22.0	0.00e+00	0	56	0	1807745024	31	4011
2026-01-02 12:57:09.71	255.53	39.36	-29.7	-30.8	22.0	0.00e+00	0	57	0	1830813696	31	3991
2026-01-02 12:57:13.75	257.37	39.47	-30.0	-31.2	21.8	0.00e+00	0	57	0	1853882368	31	4154
2026-01-02 12:57:17.79	259.23	39.55	-29.8	-31.0	21.9	0.00e+00	0	57	0	1875902464	31	4059
2026-01-02 12:57:21.83	261.09	39.60	-29.9	-31.1	21.8	0.00e+00	0	57	0	1898971136	31	4105
2026-01-02 12:57:25.87	262.95	39.61	-29.9	-31.0	21.8	0.00e+00	0	57	0	1922039808	31	4068
2026-01-02 12:57:29.91	264.81	39.59	-29.9	-31.1	21.9	0.00e+00	0	57	0	1945108480	31	4100
2026-01-02 12:57:33.95	266.67	39.54	-29.8	-30.9	21.9	0.00e+00	0	56	0	1967128576	31	4049
2026-01-02 12:57:37.99	268.52	39.45	-30.2	-31.2	22.6	0.00e+00	0	57	0	1990197248	31	4147
2026-01-02 12:57:42.03	270.36	39.33	-29.9	-30.9	22.8	0.00e+00	0	57	0	2012217344	31	4017
2026-01-02 12:57:46.07	272.18	39.18	-30.1	-31.1	22.6	0.00e+00	0	57	0	2035286016	31	4134
2026-01-02 12:57:50.10	273.98	39.00	-30.2	-31.2	22.6	0.00e+00	0	57	0	2058354688	31	4158
2026-01-02 12:57:54.15	275.77	38.79	-30.0	-30.9	22.8	0.00e+00	0	57	0	2081423360	31	4050
2026-01-02 12:57:58.19	277.52	38.55	-30.0	-31.0	22.7	0.00e+00	0	57	0	2103443456	31	4088
2026-01-02 12:58:02.22	279.25	38.29	-29.9	-30.9	22.9	0.00e+00	0	57	0	2126512128	31	4010
2026-01-02 12:58:06.26	280.95	38.00	-30.2	-31.2	22.6	0.00e+00	0	57	0	2149580800	31	4152
2026-01-02 12:58:10.30	282.63	37.68	-30.0	-31.0	22.7	0.00e+00	0	57	0	2171600896	31	4081
2026-01-02 12:58:14.35	284.27	37.34	-29.9	-30.9	22.8	0.00e+00	0	56	0	2194669568	31	4037
2026-01-02 12:58:18.38	285.87	36.98	-30.0	-31.0	22.8	0.00e+00	0	57	0	2216689664	31	4074
2026-01-02 12:58:22.42	287.43	36.60	-30.2	-31.2	22.5	0.00e+00	0	57	0	2239758336	31	4190
2026-01-02 12:58:26.46	288.96	36.20	-30.3	-31.3	22.5	0.00e+00	0	57	0	2262827008	31	4207
2026-01-02 12:58:30.50	290.46	35.78	-30.1	-31.1	22.6	0.00e+00	0	57	0	2285895680	31	4120
2026-01-02 12:58:34.54	291.91	35.35	-30.4	-31.4	22.4	0.00e+00	0	57	0	2307915776	31	4250
2026-01-02 12:58:38.58	293.33	34.90	-30.0	-31.0	22.7	0.00e+00	0	57	0	2330984448	31	4078
2026-01-02 12:58:42.62	294.71	34.45	-30.3	-31.3	22.4	0.00e+00	0	57	0	2354053120	31	4236
2026-01-02 12:58:46.66	296.05	33.98	-30.3	-31.2	22.5	0.00e+00	0	57	0	2376073216	31	4192
2026-01-02 12:58:50.71	297.35	33.50	-30.4	-31.4	22.4	0.00e+00	0	57	0	2399141888	31	4256
2026-01-02 12:58:54.75	298.62	33.02	-30.3	-31.3	22.4	0.00e+00	0	57	0	2422210560	31	4226
2026-01-02 12:58:58.79	299.85	32.52	-30.6	-31.6	22.2	0.00e+00	0	57	0	2444230656	31	4384
2026-01-02 12:59:02.83	301.04	32.03	-30.4	-31.5	22.3	0.00e+00	0	57	0	2467299328	31	4295
2026-01-02 12:59:06.86	302.19	31.53	-30.4	-31.5	22.3	0.00e+00	0	57	0	2490368000	31	4294
2026-01-02 12:59:10.90	303.31	31.02	-30.9	-31.9	22.0	0.00e+00	0	57	0	2512388096	32	4275
2026-01-02 12:59:14.94	304.40	30.51	-31.0	-32.0	21.9	0.00e+00	0	57	0	2535456768	32	4335
2026-01-02 12:59:18.98	305.45	30.00	-30.8	-31.8	22.2	0.00e+00	0	57	0	2558525440	32	4203
2026-01-02 12:59:23.01	306.47	29.49	-31.0	-32.0	21.9	0.00e+00	0	57	0	2580545536	32	4339
2026-01-02 12:59:27.05	307.46	28.98	-30.9	-31.9	22.0	0.00e+00	0	57	0	2603614208	32	4282
2026-01-02 12:59:31.09	308.42	28.47	-31.5	-32.5	21.4	0.00e+00	0	57	0	2625634304	33	4335
2026-01-02 12:59:35.13	309.35	27.96	-31.0	-32.0	21.9	0.00e+00	0	57	0	2648702976	33	4082
2026-01-02 12:59:39.17	310.26	27.46	-30.9	-32.0	21.9	0.00e+00	0	57	0	2671771648	33	4052
2026-01-02 12:59:43.20	311.13	26.95	-31.1	-32.1	21.8	0.00e+00	0	57	0	2694840320	33	4134
2026-01-02 12:59:47.24	311.98	26.45	-30.9	-32.0	21.9	0.00e+00	0	57	0	2716860416	33	4057
2026-01-02 12:59:51.28	312.80	25.95	-30.9	-32.0	21.9	0.00e+00	0	57	0	2739929088	33	4053
2026-01-02 12:59:55.32	313.59	25.45	-31.3	-32.3	21.6	0.00e+00	0	57	0	2762997760	33	4227
2026-01-02 12:59:59.36	314.37	24.96	-31.2	-32.3	21.6	0.00e+00	0	57	0	2785017856	33	4201
2026-01-02 13:00:03.40	315.12	24.47	-31.3	-32.4	21.5	0.00e+00	0	57	0	2808086528	33	4258
2026-01-02 13:00:07.44	315.85	23.99	-31.5	-32.5	21.3	0.00e+00	0	57	0	2830106624	33	4340
2026-01-02 13:00:11.48	316.55	23.51	-31.4	-32.4	21.4	0.00e+00	0	57	0	2853175296	33	4286
2026-01-02 13:00:15.52	317.24	23.04	-31.5	-32.5	21.3	0.00e+00	0	57	0	2876243968	33	4330
2026-01-02 13:00:19.56	317.90	22.57	-31.6	-32.7	21.1	0.00e+00	0	57	0	2899312640	33	4417
2026-01-02 13:00:23.60	318.55	22.10	-31.7	-32.7	21.1	0.00e+00	0	57	0	2921332736	33	4439
2026-01-02 13:00:27.64	319.18	21.64	-31.8	-32.8	21.0	0.00e+00	0	57	0	2944401408	34	4227
2026-01-02 13:00:31.67	319.79	21.19	-32.0	-33.1	20.8	0.00e+00	0	57	0	2967470080	34	4362
2026-01-02 13:00:35.71	320.38	20.74	-32.4	-33.5	20.4	0.00e+00	0	57	0	2989490176	35	4310
2026-01-02 13:00:39.75	320.95	20.29	-32.4	-33.5	20.3	0.00e+00	0	57	0	3012558848	35	4316
2026-01-02 13:00:43.79	321.52	19.85	-32.4	-33.5	20.3	0.00e+00	0	57	0	3034578944	35	4310
2026-01-02 13:00:47.83	322.06	19.42	-32.7	-33.9	20.0	0.00e+00	0	57	0	3057647616	35	4501
2026-01-02 13:00:51.87	322.59	18.99	-33.5	-34.6	19.9	0.00e+00	0	57	0	3080716288	37	4388
2026-01-02 13:00:55.91	323.11	18.56	-33.3	-34.4	20.1	0.00e+00	0	57	0	3103784960	37	4276
2026-01-02 13:00:59.95	323.61	18.14	-33.2	-34.4	20.1	0.00e+00	0	57	0	3125805056	37	4253
2026-01-02 13:01:03.99	324.10	17.73	-33.4	-34.5	20.0	0.00e+00	0	57	0	3148873728	37	4332
2026-01-02 13:01:08.03	324.58	17.32	-33.5	-34.7	19.8	0.00e+00	0	57	0	3171942400	37	4396
2026-01-02 13:01:12.07	325.04	16.92	-33.5	-34.7	19.8	0.00e+00	0	57	0	3193962496	37	4395
2026-01-02 13:01:16.11	325.50	16.52	-33.5	-34.7	19.8	0.00e+00	0	57	0	3217031168	37	4422
2026-01-02 13:01:20.15	325.94	16.12	-33.7	-34.9	19.6	0.00e+00	0	57	0	3240099840	37	4502
2026-01-02 13:01:24.19	326.37	15.73	-33.8	-35.0	19.4	0.00e+00	0	57	0	3262119936	38	4333
2026-01-02 13:01:28.23	326.79	15.35	-33.9	-35.1	19.4	0.00e+00	0	57	0	3285188608	38	4354
2026-01-02 13:01:32.27	327.20	14.97	-33.9	-35.1	19.3	0.00e+00	0	57	0	3308257280	38	4376
2026-01-02 13:01:36.32	327.60	14.59	-34.0	-35.2	19.2	0.00e+00	0	57	0	3330277376	38	4422
2026-01-02 13:01:40.36	327.99	14.22	-34.2	-35.5	18.9	0.00e+00	0	57	0	3353346048	38	4552
2026-01-02 13:01:44.40	328.37	13.85	-34.5	-35.7	18.6	0.00e+00	0	57	0	3376414720	39	4439
2026-01-02 13:01:48.44	328.74	13.49	-34.6	-35.9	18.5	0.00e+00	0	57	0	3398434816	39	4519
2026-01-02 13:01:52.48	329.11	13.13	-34.7	-36.0	18.4	0.00e+00	0	57	0	3421503488	39	4552
2026-01-02 13:01:56.53	329.47	12.78	-34.6	-35.9	18.4	0.00e+00	0	57	0	3444572160	39	4515
2026-01-02 13:02:00.57	329.81	12.43	-34.7	-36.0	18.3	0.00e+00	0	57	0	3466592256	39	4552
2026-01-02 13:02:04.60	330.15	12.09	-34.7	-36.0	18.2	0.00e+00	0	57	0	3489660928	40	4308
2026-01-02 13:02:08.64	330.49	11.75	-34.8	-36.1	18.1	0.00e+00	0	57	0	3512729600	40	4353
2026-01-02 13:02:12.68	330.81	11.41	-34.8	-36.2	18.0	0.00e+00	0	57	0	3534749696	40	4408
2026-01-02 13:02:16.72	331.13	11.07	-34.9	-36.2	18.0	0.00e+00	0	57	0	3557818368	40	4424
2026-01-02 13:02:20.75	331.44	10.75	-34.9	-36.2	17.9	0.00e+00	0	57	0	3580887040	40	4436
2026-01-02 13:02:24.80	331.75	10.42	-34.9	-36.3	17.8	0.00e+00	0	57	0	3602907136	40	4475
2026-01-02 13:02:28.83	332.05	10.10	-35.0	-36.3	17.7	0.00e+00	0	57	0	3625975808	40	4484
2026-01-02 13:02:32.87	332.34	9.78	-35.0	-36.4	17.6	0.00e+00	0	57	0	3649044480	40	4522
2026-01-02 13:02:36.91	332.63	9.46	-35.0	-36.4	17.6	0.00e+00	0	57	0	3671064576	40	4531
2026-01-02 13:02:40.95	332.91	9.15	-35.3	-36.7	17.2	0.00e+00	0	57	0	3694133248	41	4440
2026-01-02 13:02:44.98	333.18	8.84	-35.3	-36.8	17.2	0.00e+00	0	57	0	3717201920	41	4443
2026-01-02 13:02:49.03	333.46	8.54	-35.5	-37.0	16.9	0.00e+00	0	57	0	3739222016	41	4566
2026-01-02 13:02:53.07	333.72	8.24	-35.5	-37.0	16.9	0.00e+00	0	57	0	3762290688	41	4550
2026-01-02 13:02:57.11	333.98	7.94	-44.1	-55.4	3.8	8.47e-01	0	57	104	3782213632	58	14293
2026-01-02 13:03:01.15	334.24	7.64	-44.8	-56.4	3.8	8.46e-01	0	57	104	3782213632	60	14273
2026-01-02 13:03:05.19	334.49	7.35	-44.9	-56.5	3.8	8.46e-01	0	57	104	3782213632	60	14480
2026-01-02 13:03:09.23	334.73	7.06	-44.8	-56.4	3.8	8.47e-01	0	57	104	3782213632	60	14263
2026-01-02 13:03:13.27	334.98	6.77	-44.7	-56.3	3.8	8.46e-01	0	57	104	3782213632	60	14194
2026-01-02 13:03:17.31	335.21	6.49	-44.7	-56.3	3.8	8.45e-01	0	57	104	3782213632	60	14198
2026-01-02 13:03:21.36	335.45	6.20	-44.7	-56.3	3.8	8.46e-01	0	57	104	3782213632	60	14161
2026-01-02 13:03:25.40	335.68	5.92	-44.7	-56.3	3.8	8.47e-01	0	57	104	3782213632	60	14121
2026-01-02 13:03:29.44	335.90	5.65	-44.7	-56.3	3.8	8.46e-01	0	57	104	3782213632	60	14130
2026-01-02 13:03:33.49	336.12	5.37	-44.7	-56.3	3.8	8.45e-01	0	57	104	3782213632	60	14116
2026-01-02 13:03:37.53	336.34	5.10	-44.7	-56.3	3.8	8.47e-01	0	57	104	3782213632	60	14142
2026-01-02 13:03:41.57	336.56	4.83	-44.7	-56.3	3.8	8.46e-01	0	57	104	3782213632	60	14098
2026-01-02 13:03:45.61	336.77	4.57	-44.7	-56.3	3.8	8.46e-01	0	57	104	3782213632	60	14084
2026-01-02 13:03:49.66	336.97	4.30	-44.7	-56.3	3.8	8.47e-01	0	57	104	3782213632	60	14102
2026-01-02 13:03:53.70	337.18	4.04	-44.6	-56.2	3.8	8.47e-01	0	57	104	3782213632	60	14032
2026-01-02 13:03:57.75	337.38	3.78	-44.7	-56.3	3.8	8.46e-01	0	57	104	3782213632	60	14066
2026-01-02 13:04:01.79	337.57	3.52	-44.7	-56.3	3.8	8.46e-01	0	58	104	3782213632	60	14085
2026-01-02 13:04:05.83	337.77	3.27	-44.7	-56.2	3.8	8.45e-01	0	58	104	3782213632	60	14037
2026-01-02 13:04:09.88	337.96	3.02	-44.7	-56.2	3.8	8.46e-01	0	57	104	3782213632	60	14042
2026-01-02 13:04:13.92	338.15	2.76	-44.7	-56.3	3.8	8.47e-01	0	57	104	3782213632	60	14152
2026-01-02 13:04:17.97	338.33	2.52	-44.7	-56.3	3.8	8.46e-01	0	57	104	3782213632	60	14065
2026-01-02 13:04:22.01	338.52	2.27	-44.7	-56.3	3.8	8.47e-01	0	57	104	3782213632	60	14056
2026-01-02 13:04:26.05	338.70	2.02	-44.7	-56.2	3.8	8.46e-01	0	57	104	3782213632	60	14031

#Closed at: 2026-01-02 13:04:28
#Recorded file [3782 MB]: D:/lorett/data/31039_260102_155029.dat