passes_logs/2026/01/02/R2.0S_Moscow/R2.0S_Moscow__20260102_125755_FENGYUN_3E_rec.log

#Pass ID: 20260102_125755_FENGYUN 3E
#Satellite: FENGYUN 3E
#Configuration: FENGYUN 3E
#almurnet v.1.7.20251203
#Start time: 2026-01-02 13:04:35

#Version: 2.2.20231116
#Station: R2.0S_Moscow
#Location: 37.707566 lon 55.798166 lat
#TLE: 1 49008U 21062A   26001.96913326  .00000001  00000+0  21174-4 0  9999
#TLE: 2 49008  98.7479   7.2511 0001416 166.5636 193.5578 14.19883387232993

#Time	Az	El	Level	Level2	SNR	BER	BlckErr	Temp	State	Recorded	gain1	gain2
2026-01-02 13:04:35.78	56.14	31.21	-44.7	-56.3	3.8	8.45e-01	0	57	0	0	60	14073
2026-01-02 13:04:37.78	55.43	31.20	-45.5	-56.7	3.8	8.47e-01	0	57	104	0	61	13179
2026-01-02 13:04:39.81	54.71	31.19	-45.5	-56.7	3.8	8.46e-01	0	57	104	0	61	13128
2026-01-02 13:04:41.83	53.99	31.18	-45.4	-56.6	3.8	8.46e-01	0	57	104	0	61	12972
2026-01-02 13:04:43.85	53.28	31.16	-45.3	-56.5	3.8	8.46e-01	0	57	104	0	61	12885
2026-01-02 13:04:45.87	52.56	31.13	-45.3	-56.5	3.8	8.45e-01	0	57	104	0	61	12910
2026-01-02 13:04:47.89	51.84	31.10	-45.3	-56.5	3.8	8.46e-01	0	57	104	0	61	12906
2026-01-02 13:04:49.92	51.13	31.07	-45.3	-56.4	3.8	8.46e-01	0	57	104	0	61	12781
2026-01-02 13:04:51.94	50.42	31.03	-45.2	-56.4	3.8	8.46e-01	0	57	104	0	61	12788
2026-01-02 13:04:53.96	49.71	30.99	-45.2	-56.4	3.8	8.45e-01	0	57	104	0	61	12726
2026-01-02 13:04:55.98	49.00	30.94	-45.2	-56.4	3.8	8.46e-01	0	57	104	0	61	12744
2026-01-02 13:04:58.01	48.29	30.88	-45.2	-56.3	3.8	8.46e-01	0	58	104	0	61	12537
2026-01-02 13:05:00.03	47.59	30.82	-45.2	-56.3	3.8	8.46e-01	0	58	104	0	61	12618
2026-01-02 13:05:02.05	46.89	30.76	-45.2	-56.3	3.8	8.46e-01	0	57	104	0	61	12580
2026-01-02 13:05:04.07	46.19	30.69	-45.2	-56.3	3.8	8.46e-01	0	57	104	0	61	12564
2026-01-02 13:05:06.09	45.50	30.62	-45.2	-56.4	3.8	8.46e-01	0	58	104	0	61	12733
2026-01-02 13:05:08.12	44.80	30.54	-45.2	-56.4	3.8	8.47e-01	0	57	104	0	61	12731
2026-01-02 13:05:10.14	44.11	30.46	-45.2	-56.3	3.8	8.46e-01	0	57	104	0	61	12626
2026-01-02 13:05:12.16	43.43	30.37	-45.2	-56.4	3.8	8.46e-01	0	58	104	0	61	12742
2026-01-02 13:05:14.18	42.75	30.28	-45.2	-56.4	3.8	8.46e-01	0	58	104	0	61	12756
2026-01-02 13:05:16.20	42.08	30.19	-45.1	-55.6	3.8	8.46e-01	0	58	104	0	61	11651
2026-01-02 13:05:18.23	41.40	30.09	-45.1	-55.4	3.8	8.47e-01	0	58	104	0	61	11301
2026-01-02 13:05:20.25	40.73	29.98	-45.1	-56.0	3.8	8.47e-01	0	58	104	0	61	12158
2026-01-02 13:05:22.27	40.07	29.88	-44.9	-54.3	3.8	8.46e-01	0	58	104	0	60	10603
2026-01-02 13:05:24.30	39.41	29.77	-45.1	-55.3	3.8	8.47e-01	0	58	104	0	60	11890
2026-01-02 13:05:26.32	38.75	29.65	-41.2	-43.8	11.0	1.93e-02	0	57	0	5242880	53	4750
2026-01-02 13:05:28.34	38.10	29.53	-34.4	-35.5	19.3	0.00e+00	0	57	0	19922944	39	4057
2026-01-02 13:05:30.36	37.46	29.41	-31.1	-32.0	21.8	0.00e+00	0	58	0	34603008	33	3860
2026-01-02 13:05:32.38	36.82	29.29	-31.1	-32.0	21.9	0.00e+00	0	57	0	49283072	33	3838
2026-01-02 13:05:34.40	36.19	29.16	-33.5	-34.5	20.3	0.00e+00	0	58	0	63963136	38	3834
2026-01-02 13:05:36.42	35.56	29.03	-30.7	-31.6	22.2	0.00e+00	0	58	0	78643200	32	3892
2026-01-02 13:05:38.45	34.93	28.89	-30.8	-31.7	22.1	0.00e+00	0	57	0	93323264	32	3920
2026-01-02 13:05:40.46	34.31	28.75	-31.0	-31.9	21.9	0.00e+00	0	58	0	106954752	32	4048
2026-01-02 13:05:42.49	33.70	28.61	-31.3	-32.3	21.6	0.00e+00	0	57	0	122683392	32	4202
2026-01-02 13:05:44.50	33.09	28.47	-31.4	-32.3	21.6	0.00e+00	0	58	0	136314880	32	4205
2026-01-02 13:05:46.52	32.49	28.32	-31.2	-32.1	21.7	0.00e+00	0	58	0	150994944	32	4115
2026-01-02 13:05:48.54	31.90	28.17	-31.2	-32.1	21.7	0.00e+00	0	57	0	165675008	32	4137
2026-01-02 13:05:50.56	31.30	28.02	-31.1	-32.0	21.8	0.00e+00	0	57	0	180355072	32	4080
2026-01-02 13:05:52.58	30.72	27.86	-31.1	-32.0	21.8	0.00e+00	0	58	0	195035136	32	4076
2026-01-02 13:05:54.60	30.14	27.71	-31.1	-32.0	21.8	0.00e+00	0	57	0	209715200	32	4064
2026-01-02 13:05:56.62	29.57	27.55	-31.0	-31.9	21.9	0.00e+00	0	57	0	224395264	32	4047
2026-01-02 13:05:58.64	29.00	27.39	-31.0	-31.9	21.9	0.00e+00	0	57	0	239075328	32	4030
2026-01-02 13:06:00.66	28.44	27.22	-30.9	-31.8	22.0	0.00e+00	0	58	0	253755392	32	3994
2026-01-02 13:06:02.67	27.88	27.06	-30.9	-31.8	22.0	0.00e+00	0	58	0	268435456	32	3973
2026-01-02 13:06:04.69	27.33	26.89	-31.1	-32.0	21.8	0.00e+00	0	58	0	282066944	32	4065
2026-01-02 13:06:06.71	26.79	26.72	-31.1	-32.1	21.8	0.00e+00	0	57	0	296747008	32	4104
2026-01-02 13:06:08.74	26.25	26.55	-31.2	-32.1	21.8	0.00e+00	0	57	0	311427072	32	4117
2026-01-02 13:06:10.76	25.71	26.37	-31.2	-32.1	21.7	0.00e+00	0	57	0	326107136	32	4134
2026-01-02 13:06:12.78	25.19	26.20	-31.1	-32.0	21.8	0.00e+00	0	58	0	340787200	32	4073
2026-01-02 13:06:14.80	24.67	26.02	-31.1	-32.0	21.8	0.00e+00	0	57	0	355467264	32	4068
2026-01-02 13:06:16.82	24.15	25.85	-30.8	-31.7	21.8	0.00e+00	0	58	0	370147328	32	3936
2026-01-02 13:06:18.84	23.64	25.67	-30.9	-31.8	22.0	0.00e+00	0	58	0	384827392	32	3979
2026-01-02 13:06:20.86	23.14	25.49	-30.9	-31.8	22.0	0.00e+00	0	57	0	399507456	32	3967
2026-01-02 13:06:22.88	22.64	25.31	-30.9	-31.8	22.0	0.00e+00	0	57	0	414187520	32	3982
2026-01-02 13:06:24.90	22.15	25.12	-31.1	-32.0	21.7	0.00e+00	0	57	0	427819008	32	4087
2026-01-02 13:06:26.92	21.66	24.94	-31.5	-32.4	21.4	0.00e+00	0	57	0	443547648	32	4266
2026-01-02 13:06:28.94	21.18	24.76	-31.4	-32.3	21.5	0.00e+00	0	58	0	457179136	32	4221
2026-01-02 13:06:30.96	20.71	24.57	-31.2	-32.2	21.6	0.00e+00	0	57	0	471859200	32	4152
2026-01-02 13:06:32.98	20.24	24.39	-31.1	-32.0	21.7	0.00e+00	0	58	0	486539264	32	4083
2026-01-02 13:06:35.00	19.78	24.20	-31.2	-32.1	21.6	0.00e+00	0	58	0	501219328	32	4130
2026-01-02 13:06:37.03	19.32	24.01	-31.3	-32.2	21.5	0.00e+00	0	58	0	515899392	32	4172
2026-01-02 13:06:39.05	18.86	23.82	-31.5	-32.4	21.3	0.00e+00	0	58	0	530579456	32	4288
2026-01-02 13:06:41.07	18.42	23.63	-31.5	-32.5	21.3	0.00e+00	0	57	0	545259520	32	4300
2026-01-02 13:06:43.09	17.98	23.45	-31.5	-32.4	21.4	0.00e+00	0	57	0	559939584	32	4256
2026-01-02 13:06:45.11	17.54	23.26	-31.6	-32.5	21.2	0.00e+00	0	58	0	574619648	32	4325
2026-01-02 13:06:47.13	17.11	23.07	-31.5	-32.4	21.2	0.00e+00	0	58	0	589299712	32	4282
2026-01-02 13:06:49.15	16.68	22.88	-31.4	-32.3	21.4	0.00e+00	0	57	0	602931200	32	4216
2026-01-02 13:06:51.17	16.26	22.69	-31.3	-32.2	21.5	0.00e+00	0	57	0	618659840	32	4184
2026-01-02 13:06:53.19	15.85	22.50	-31.4	-32.3	21.5	0.00e+00	0	58	0	632291328	32	4211
2026-01-02 13:06:55.21	15.44	22.30	-31.5	-32.4	21.2	0.00e+00	0	57	0	646971392	32	4277
2026-01-02 13:06:57.23	15.03	22.11	-31.5	-32.4	21.3	0.00e+00	0	57	0	661651456	32	4275
2026-01-02 13:06:59.25	14.63	21.92	-31.4	-32.3	21.4	0.00e+00	0	57	0	676331520	32	4225
2026-01-02 13:07:01.27	14.24	21.73	-31.3	-32.3	21.4	0.00e+00	0	58	0	691011584	32	4204
2026-01-02 13:07:03.28	13.85	21.54	-31.5	-32.4	21.3	0.00e+00	0	58	0	705691648	32	4275
2026-01-02 13:07:05.31	13.46	21.35	-31.6	-32.5	21.2	0.00e+00	0	58	0	720371712	32	4323
2026-01-02 13:07:07.32	13.09	21.16	-31.7	-32.7	21.0	0.00e+00	0	58	0	735051776	32	4398
2026-01-02 13:07:09.35	12.71	20.97	-31.7	-32.6	21.1	0.00e+00	0	58	0	748683264	32	4375
2026-01-02 13:07:11.37	12.34	20.78	-31.6	-32.5	21.1	0.00e+00	0	58	0	764411904	32	4322
2026-01-02 13:07:13.39	11.97	20.59	-31.6	-32.5	21.2	0.00e+00	0	57	0	778043392	32	4335
2026-01-02 13:07:15.41	11.61	20.40	-31.7	-32.6	21.1	0.00e+00	0	57	0	792723456	32	4384
2026-01-02 13:07:17.43	11.25	20.21	-31.9	-32.9	20.8	0.00e+00	0	58	0	807403520	33	4270
2026-01-02 13:07:19.44	10.90	20.02	-32.0	-33.0	20.6	0.00e+00	0	57	0	822083584	33	4320
2026-01-02 13:07:21.46	10.55	19.83	-32.1	-33.0	20.6	0.00e+00	0	58	0	836763648	33	4340
2026-01-02 13:07:23.48	10.21	19.64	-31.8	-32.7	20.9	0.00e+00	0	58	0	851443712	33	4183
2026-01-02 13:07:25.50	9.87	19.45	-31.9	-32.8	20.8	0.00e+00	0	57	0	866123776	33	4233
2026-01-02 13:07:27.52	9.53	19.26	-32.0	-33.0	20.6	0.00e+00	0	58	0	880803840	33	4312
2026-01-02 13:07:29.54	9.20	19.07	-32.1	-33.1	20.5	0.00e+00	0	57	0	895483904	33	4361
2026-01-02 13:07:31.56	8.88	18.89	-32.2	-33.2	20.5	0.00e+00	0	58	0	909115392	33	4397
2026-01-02 13:07:33.58	8.55	18.70	-32.2	-33.2	20.5	0.00e+00	0	58	0	923795456	34	4161
2026-01-02 13:07:35.60	8.24	18.51	-32.3	-33.3	20.3	0.00e+00	0	58	0	938475520	34	4224
2026-01-02 13:07:37.62	7.92	18.33	-32.6	-33.6	20.0	0.00e+00	0	57	0	953155584	34	4378
2026-01-02 13:07:39.64	7.61	18.14	-32.8	-33.8	19.8	0.00e+00	0	57	0	967835648	35	4213
2026-01-02 13:07:41.66	7.30	17.96	-32.7	-33.7	19.9	0.00e+00	0	57	0	982515712	35	4181
2026-01-02 13:07:43.68	7.00	17.77	-32.7	-33.7	19.9	0.00e+00	0	57	0	997195776	35	4189
2026-01-02 13:07:45.70	6.70	17.59	-32.6	-33.6	20.0	0.00e+00	0	57	0	1011875840	35	4138
2026-01-02 13:07:47.72	6.40	17.40	-32.6	-33.6	19.9	0.00e+00	0	58	0	1026555904	35	4133
2026-01-02 13:07:49.74	6.11	17.22	-32.3	-33.3	20.1	0.00e+00	0	57	0	1041235968	35	3988
2026-01-02 13:07:51.76	5.82	17.04	-32.4	-33.4	20.1	0.00e+00	0	57	0	1054867456	35	4013
2026-01-02 13:07:53.78	5.54	16.86	-32.5	-33.5	20.0	0.00e+00	0	58	0	1069547520	35	4062
2026-01-02 13:07:55.80	5.26	16.68	-32.7	-33.8	19.8	0.00e+00	0	57	0	1084227584	35	4196
2026-01-02 13:07:57.82	4.98	16.50	-33.1	-34.2	19.3	0.00e+00	0	57	0	1098907648	35	4394
2026-01-02 13:07:59.84	4.70	16.32	-33.9	-35.0	19.3	0.00e+00	0	57	0	1113587712	37	4324
2026-01-02 13:08:01.86	4.43	16.14	-34.0	-35.1	19.2	0.00e+00	0	57	0	1128267776	37	4379
2026-01-02 13:08:03.88	4.16	15.96	-34.0	-35.1	19.1	0.00e+00	0	57	0	1142947840	37	4369
2026-01-02 13:08:05.90	3.90	15.78	-33.8	-34.9	19.4	0.00e+00	0	58	0	1157627904	37	4250
2026-01-02 13:08:07.92	3.64	15.60	-33.7	-34.8	19.4	0.00e+00	0	58	0	1172307968	37	4212
2026-01-02 13:08:09.94	3.38	15.43	-33.7	-34.7	19.5	0.00e+00	0	57	0	1186988032	37	4172
2026-01-02 13:08:11.97	3.12	15.25	-33.8	-34.9	19.3	0.00e+00	0	58	0	1201668096	37	4258
2026-01-02 13:08:13.99	2.87	15.08	-33.7	-34.7	19.4	0.00e+00	0	57	0	1216348160	37	4176
2026-01-02 13:08:16.01	2.62	14.90	-34.1	-35.2	19.0	0.00e+00	0	58	0	1229979648	37	4399
2026-01-02 13:08:18.03	2.37	14.73	-33.9	-35.0	19.1	0.00e+00	0	58	0	1244659712	37	4335
2026-01-02 13:08:20.05	2.13	14.56	-34.0	-35.1	18.9	0.00e+00	0	58	0	1259339776	37	4378
2026-01-02 13:08:22.07	1.89	14.38	-34.1	-35.2	18.8	0.00e+00	0	58	0	1274019840	37	4402
2026-01-02 13:08:24.09	1.65	14.21	-34.2	-35.4	18.4	0.00e+00	0	57	0	1288699904	38	4268
2026-01-02 13:08:26.11	1.42	14.04	-34.2	-35.4	18.0	0.00e+00	0	57	0	1303379968	38	4273
2026-01-02 13:08:28.13	1.19	13.87	-34.1	-35.3	18.1	0.00e+00	0	57	0	1318060032	38	4223
2026-01-02 13:08:30.15	0.96	13.70	-34.7	-36.0	17.0	0.00e+00	0	57	0	1332740096	38	4578
2026-01-02 13:08:32.17	0.73	13.53	-35.5	-37.1	15.4	0.00e+00	0	58	0	1347420160	40	4623
2026-01-02 13:08:34.19	0.51	13.37	-36.3	-38.2	13.7	1.10e-06	0	57	0	1362100224	42	4705
2026-01-02 13:08:36.21	0.29	13.20	-37.7	-40.4	11.0	1.20e-03	0	57	0	1375731712	44	5367
2026-01-02 13:08:38.23	0.07	13.03	-39.0	-43.3	7.5	8.70e-02	0	57	0	1390411776	47	6291
2026-01-02 13:08:40.25	359.85	12.87	-39.6	-45.5	5.5	6.64e-01	0	58	0	1404043264	48	7693
2026-01-02 13:08:42.27	359.64	12.70	-39.9	-48.0	4.2	8.35e-01	0	57	0	1404043264	49	9621
2026-01-02 13:08:44.29	359.42	12.54	-40.0	-49.3	3.8	8.45e-01	0	58	104	1404043264	49	11202
2026-01-02 13:08:46.31	359.22	12.37	-40.1	-49.8	3.8	8.46e-01	0	58	104	1404043264	49	11932
2026-01-02 13:08:48.33	359.01	12.21	-40.1	-50.3	3.8	8.46e-01	0	57	104	1404043264	49	12664
2026-01-02 13:08:50.35	358.81	12.05	-40.1	-50.5	3.8	8.45e-01	0	57	104	1404043264	50	12186
2026-01-02 13:08:52.37	358.60	11.89	-40.1	-50.3	3.8	8.46e-01	0	58	104	1404043264	50	11905
2026-01-02 13:08:54.39	358.40	11.73	-40.1	-50.3	3.8	8.46e-01	0	58	104	1404043264	50	11835
2026-01-02 13:08:56.41	358.21	11.57	-40.1	-50.7	3.8	8.46e-01	0	58	104	1404043264	50	12502
2026-01-02 13:08:58.43	358.01	11.41	-39.9	-50.7	3.8	8.47e-01	0	58	104	1404043264	50	12491
2026-01-02 13:09:00.45	357.82	11.25	-39.4	-50.8	3.8	8.46e-01	0	58	104	1404043264	49	13336
2026-01-02 13:09:02.47	357.63	11.09	-39.6	-50.8	3.8	8.46e-01	0	58	104	1404043264	49	13306
2026-01-02 13:09:04.48	357.44	10.93	-39.7	-50.8	3.8	8.46e-01	0	58	104	1404043264	49	13350
2026-01-02 13:09:06.51	357.25	10.78	-39.1	-50.8	3.8	8.47e-01	0	57	104	1404043264	48	14101
2026-01-02 13:09:08.53	357.07	10.62	-38.5	-50.7	3.8	8.46e-01	0	58	104	1404043264	48	13898
2026-01-02 13:09:10.55	356.89	10.46	-38.5	-50.6	3.8	8.47e-01	0	58	104	1404043264	48	13873
2026-01-02 13:09:12.57	356.70	10.31	-38.9	-50.5	3.8	8.46e-01	0	58	104	1404043264	47	14495
2026-01-02 13:09:14.59	356.53	10.16	-38.2	-50.5	3.8	8.45e-01	0	58	104	1404043264	47	14420
2026-01-02 13:09:16.61	356.35	10.00	-39.2	-50.6	3.8	8.45e-01	0	58	104	1404043264	47	14560
2026-01-02 13:09:18.63	356.18	9.85	-39.1	-50.5	3.8	8.47e-01	0	58	104	1404043264	47	14519
2026-01-02 13:09:20.65	356.00	9.70	-38.8	-50.5	3.8	8.46e-01	0	58	104	1404043264	47	14459
2026-01-02 13:09:22.67	355.83	9.55	-39.4	-50.7	3.8	8.45e-01	0	58	104	1404043264	48	14030
2026-01-02 13:09:24.69	355.66	9.40	-39.9	-51.0	3.8	8.46e-01	0	58	104	1404043264	49	13637
2026-01-02 13:09:26.71	355.50	9.25	-39.9	-50.9	3.8	8.47e-01	0	58	104	1404043264	49	13511
2026-01-02 13:09:28.74	355.33	9.10	-39.8	-50.8	3.8	8.47e-01	0	58	104	1404043264	49	13318
2026-01-02 13:09:30.76	355.17	8.95	-39.9	-50.8	3.8	8.45e-01	0	58	104	1404043264	49	13401
2026-01-02 13:09:32.78	355.00	8.80	-40.2	-51.1	3.8	8.46e-01	0	58	104	1404043264	49	13730
2026-01-02 13:09:34.80	354.84	8.65	-40.2	-51.1	3.8	8.47e-01	0	57	104	1404043264	49	13759
2026-01-02 13:09:36.82	354.68	8.51	-40.0	-50.9	3.8	8.46e-01	0	58	104	1404043264	49	13482
2026-01-02 13:09:38.84	354.53	8.36	-40.1	-51.0	3.8	8.46e-01	0	58	104	1404043264	50	12951
2026-01-02 13:09:40.86	354.37	8.22	-40.1	-50.9	3.8	8.46e-01	0	58	104	1404043264	50	12793
2026-01-02 13:09:42.88	354.22	8.07	-40.1	-51.0	3.8	8.46e-01	0	58	104	1404043264	50	12844
2026-01-02 13:09:44.91	354.07	7.93	-41.3	-52.3	3.8	8.45e-01	0	58	104	1404043264	52	13389
2026-01-02 13:09:46.93	353.91	7.78	-45.2	-56.1	3.8	8.45e-01	0	58	104	1404043264	59	13776
2026-01-02 13:09:48.95	353.77	7.64	-45.3	-56.5	3.8	8.45e-01	0	58	104	1404043264	60	13680
2026-01-02 13:09:50.97	353.62	7.50	-45.4	-56.6	3.8	8.45e-01	0	58	104	1404043264	60	13755
2026-01-02 13:09:52.99	353.47	7.36	-45.4	-56.6	3.8	8.46e-01	0	58	104	1404043264	60	13774
2026-01-02 13:09:55.02	353.33	7.22	-45.3	-56.5	3.8	8.46e-01	0	58	104	1404043264	60	13651
2026-01-02 13:09:57.04	353.18	7.07	-45.3	-56.4	3.8	8.48e-01	0	58	104	1404043264	60	13527
2026-01-02 13:09:59.06	353.04	6.94	-45.2	-56.4	3.8	8.46e-01	0	58	104	1404043264	60	13421
2026-01-02 13:10:01.08	352.90	6.80	-45.2	-56.4	3.8	8.46e-01	0	58	104	1404043264	60	13423
2026-01-02 13:10:03.11	352.76	6.66	-45.2	-56.3	3.8	8.46e-01	0	58	104	1404043264	60	13325
2026-01-02 13:10:05.13	352.63	6.52	-45.1	-56.3	3.8	8.47e-01	0	58	104	1404043264	60	13361
2026-01-02 13:10:07.15	352.49	6.38	-45.1	-56.3	3.8	8.45e-01	0	58	104	1404043264	60	13332
2026-01-02 13:10:09.17	352.36	6.24	-45.1	-56.3	3.8	8.46e-01	0	58	104	1404043264	60	13285
2026-01-02 13:10:11.19	352.22	6.11	-45.1	-56.3	3.9	8.47e-01	0	58	104	1404043264	60	13323
2026-01-02 13:10:13.22	352.09	5.97	-45.2	-56.0	3.8	8.46e-01	0	58	104	1404043264	59	13715
2026-01-02 13:10:15.24	351.96	5.84	-45.2	-56.0	3.8	8.46e-01	0	58	104	1404043264	59	13718
2026-01-02 13:10:17.26	351.83	5.70	-45.2	-56.0	3.8	8.47e-01	0	58	104	1404043264	59	13720
2026-01-02 13:10:19.28	351.70	5.57	-45.2	-56.1	3.8	8.46e-01	0	58	104	1404043264	59	13747
2026-01-02 13:10:21.30	351.57	5.43	-45.0	-55.9	3.8	8.47e-01	0	58	104	1404043264	59	13559
2026-01-02 13:10:23.33	351.45	5.30	-45.2	-56.0	3.8	8.47e-01	0	58	104	1404043264	59	13705
2026-01-02 13:10:25.35	351.32	5.17	-45.2	-56.1	3.8	8.46e-01	0	58	104	1404043264	59	13805
2026-01-02 13:10:27.37	351.20	5.04	-45.2	-56.0	3.8	8.48e-01	0	58	104	1404043264	59	13674
2026-01-02 13:10:29.39	351.08	4.90	-45.2	-56.1	3.8	8.45e-01	0	58	104	1404043264	59	13823
2026-01-02 13:10:31.41	350.96	4.77	-45.2	-56.0	3.8	8.47e-01	0	58	104	1404043264	59	13708
2026-01-02 13:10:33.44	350.84	4.64	-45.2	-56.0	3.8	8.46e-01	0	58	104	1404043264	59	13717
2026-01-02 13:10:35.46	350.72	4.51	-45.2	-56.1	3.8	8.46e-01	0	58	104	1404043264	59	13758
2026-01-02 13:10:37.48	350.60	4.38	-45.1	-56.0	3.8	8.45e-01	0	58	104	1404043264	59	13679
2026-01-02 13:10:39.50	350.48	4.25	-45.2	-56.0	3.8	8.47e-01	0	58	104	1404043264	59	13653
2026-01-02 13:10:41.52	350.37	4.13	-45.2	-56.1	3.8	8.47e-01	0	58	104	1404043264	59	13749
2026-01-02 13:10:43.55	350.25	4.00	-45.2	-56.0	3.8	8.46e-01	0	58	104	1404043264	59	13713
2026-01-02 13:10:45.57	350.14	3.87	-45.2	-56.1	3.8	8.47e-01	0	58	104	1404043264	59	13729
2026-01-02 13:10:47.59	350.03	3.74	-45.2	-56.0	3.8	8.46e-01	0	58	104	1404043264	59	13679
2026-01-02 13:10:49.62	349.92	3.62	-45.2	-56.0	3.8	8.45e-01	0	58	104	1404043264	59	13703
2026-01-02 13:10:51.64	349.81	3.49	-45.2	-56.0	3.8	8.46e-01	0	58	104	1404043264	59	13718
2026-01-02 13:10:53.66	349.70	3.36	-45.2	-56.1	3.8	8.46e-01	0	58	104	1404043264	59	13736
2026-01-02 13:10:55.68	349.59	3.24	-45.2	-56.1	3.8	8.46e-01	0	58	104	1404043264	59	13764
2026-01-02 13:10:57.70	349.48	3.11	-45.2	-56.0	3.8	8.48e-01	0	58	104	1404043264	59	13666
2026-01-02 13:10:59.73	349.38	2.99	-45.2	-56.0	3.8	8.46e-01	0	58	104	1404043264	59	13672
2026-01-02 13:11:01.72	349.27	2.87	-45.2	-56.0	3.8	8.46e-01	0	58	104	1404043264	59	13667
2026-01-02 13:11:03.74	349.17	2.74	-45.2	-56.0	3.8	8.45e-01	0	58	104	1404043264	59	13714
2026-01-02 13:11:05.77	349.07	2.62	-45.2	-56.0	3.8	8.47e-01	0	58	104	1404043264	59	13705
2026-01-02 13:11:07.79	348.96	2.50	-45.2	-56.0	3.8	8.45e-01	0	58	104	1404043264	59	13724
2026-01-02 13:11:09.81	348.86	2.38	-45.2	-56.0	3.8	8.46e-01	0	58	104	1404043264	59	13676
2026-01-02 13:11:11.83	348.76	2.26	-45.2	-56.0	3.8	8.46e-01	0	58	104	1404043264	59	13690
2026-01-02 13:11:13.85	348.66	2.13	-45.2	-56.0	3.8	8.47e-01	0	58	104	1404043264	59	13691
2026-01-02 13:11:15.88	348.56	2.01	-45.2	-56.0	3.8	8.47e-01	0	58	104	1404043264	59	13705
2026-01-02 13:11:17.90	348.46	1.89	-45.2	-56.0	3.8	8.46e-01	0	58	104	1404043264	59	13635

#Closed at: 2026-01-02 13:11:18
#Recorded file [1404 MB]: D:/lorett/data/31039_260102_160435.dat