passes_logs/2026/01/02/R2.0S_Moscow/R2.0S_Moscow__20260102_221902_SUOMI_NPP_rec.log

#Pass ID: 20260102_221902_SUOMI NPP
#Satellite: SUOMI NPP
#Configuration: NPP
#almurnet v.1.7.20251203
#Start time: 2026-01-02 22:19:03

#Version: 2.2.20231116
#Station: R2.0S_Moscow
#Location: 37.707566 lon 55.798166 lat
#TLE: 1 37849U 11061A   26001.07732418  .00000182  00000+0  10735-3 0  9990
#TLE: 2 37849  98.7795 303.2470 0002580  87.2016 272.9455 14.19520779734739

#Time	Az	El	Level	Level2	SNR	BER	BlckErr	Temp	State	Recorded	gain1	gain2
2026-01-02 22:19:03.76	24.78	2.09	-42.4	-57.3	3.8	1.49e+00	0	48	0	0	56	20012
2026-01-02 22:19:07.79	25.06	2.32	-42.2	-57.2	3.8	1.49e+00	0	48	104	0	55	20784
2026-01-02 22:19:11.84	25.34	2.54	-42.2	-57.2	3.8	1.49e+00	0	48	104	0	55	20793
2026-01-02 22:19:15.88	25.63	2.77	-42.2	-57.1	3.8	1.49e+00	0	49	104	0	55	20699
2026-01-02 22:19:19.93	25.92	3.00	-42.2	-57.1	3.8	1.49e+00	0	49	104	0	55	20700
2026-01-02 22:19:23.97	26.21	3.23	-42.2	-57.1	3.8	1.49e+00	0	49	104	0	55	20724
2026-01-02 22:19:28.01	26.51	3.46	-42.2	-57.1	3.8	1.49e+00	0	49	104	0	55	20726
2026-01-02 22:19:32.06	26.81	3.69	-42.2	-57.1	3.8	1.49e+00	0	49	104	0	55	20682
2026-01-02 22:19:36.10	27.12	3.93	-42.2	-57.1	3.8	1.49e+00	0	50	104	0	55	20692
2026-01-02 22:19:40.15	27.43	4.16	-42.2	-57.1	3.8	1.49e+00	0	50	104	0	55	20671
2026-01-02 22:19:44.19	27.75	4.40	-42.2	-57.1	3.8	1.49e+00	0	50	104	0	55	20639
2026-01-02 22:19:48.24	28.07	4.64	-42.2	-57.1	3.8	1.49e+00	0	50	104	0	55	20617
2026-01-02 22:19:52.28	28.40	4.88	-42.2	-57.1	3.8	1.49e+00	0	51	104	0	55	20680
2026-01-02 22:19:56.33	28.73	5.12	-42.2	-57.1	3.8	1.49e+00	0	51	104	0	55	20685
2026-01-02 22:20:00.37	29.07	5.36	-42.2	-57.1	3.8	1.49e+00	0	51	104	0	55	20651
2026-01-02 22:20:04.41	29.41	5.61	-42.2	-57.1	3.8	1.49e+00	0	51	104	0	55	20590
2026-01-02 22:20:08.45	29.76	5.85	-42.2	-57.1	3.8	1.49e+00	0	51	104	0	55	20609
2026-01-02 22:20:12.50	30.11	6.10	-42.2	-57.1	3.8	1.49e+00	0	52	104	0	55	20668
2026-01-02 22:20:16.54	30.47	6.35	-42.2	-57.1	3.8	1.49e+00	0	52	104	0	55	20691
2026-01-02 22:20:20.58	30.83	6.60	-42.2	-57.1	3.8	1.49e+00	0	52	104	0	55	20694
2026-01-02 22:20:24.63	31.20	6.85	-42.2	-57.0	3.8	1.49e+00	0	52	104	0	55	20445
2026-01-02 22:20:28.67	31.58	7.11	-42.2	-57.0	3.8	1.49e+00	0	52	104	0	55	20403
2026-01-02 22:20:32.72	31.97	7.36	-42.0	-53.8	4.1	1.45e+00	0	52	0	0	55	14092
2026-01-02 22:20:36.77	32.36	7.62	-41.1	-47.9	7.9	1.43e-01	0	53	0	5242880	54	7568
2026-01-02 22:20:40.81	32.75	7.87	-39.6	-43.7	12.2	3.07e-04	0	53	0	12582912	51	5553
2026-01-02 22:20:44.85	33.16	8.13	-40.7	-50.3	5.3	8.00e-02	0	53	0	20971520	52	11245
2026-01-02 22:20:48.88	33.57	8.39	-40.0	-43.4	13.5	1.23e-03	0	53	0	26214400	51	5388
2026-01-02 22:20:52.92	33.98	8.66	-40.0	-43.4	13.6	8.30e-06	0	53	0	34603008	51	5365
2026-01-02 22:20:56.96	34.41	8.92	-39.7	-42.8	14.3	7.00e-07	0	53	0	41943040	51	5016
2026-01-02 22:21:01.00	34.84	9.18	-39.9	-43.1	14.0	4.50e-06	0	53	0	49283072	51	5173
2026-01-02 22:21:05.04	35.28	9.45	-39.9	-43.0	14.1	3.80e-06	0	54	0	56623104	51	5137
2026-01-02 22:21:09.07	35.72	9.72	-39.7	-42.7	14.5	0.00e+00	0	54	0	65011712	51	4965
2026-01-02 22:21:13.11	36.18	9.99	-39.6	-42.5	14.7	0.00e+00	0	54	0	72351744	51	4846
2026-01-02 22:21:17.15	36.64	10.26	-39.4	-42.1	15.2	0.00e+00	0	54	0	79691776	50	4889
2026-01-02 22:21:21.19	37.11	10.53	-39.2	-41.8	15.5	0.00e+00	0	54	0	87031808	50	4739
2026-01-02 22:21:25.23	37.59	10.80	-39.3	-41.9	15.4	0.00e+00	0	54	0	94371840	50	4762
2026-01-02 22:21:29.27	38.08	11.08	-39.2	-41.7	15.6	0.00e+00	0	54	0	102760448	50	4679
2026-01-02 22:21:33.31	38.58	11.35	-39.1	-41.7	15.8	0.00e+00	0	54	0	110100480	50	4659
2026-01-02 22:21:37.35	39.09	11.63	-39.1	-41.6	15.8	0.00e+00	0	54	0	117440512	50	4616
2026-01-02 22:21:41.39	39.60	11.91	-39.2	-41.8	15.6	0.00e+00	0	54	0	124780544	50	4708
2026-01-02 22:21:45.43	40.13	12.19	-39.3	-41.9	15.6	0.00e+00	0	54	0	133169152	50	4777
2026-01-02 22:21:49.46	40.66	12.47	-39.3	-41.9	15.5	0.00e+00	0	54	0	140509184	50	4792
2026-01-02 22:21:53.50	41.21	12.75	-39.1	-41.6	16.0	0.00e+00	0	54	0	147849216	50	4600
2026-01-02 22:21:57.54	41.76	13.03	-38.7	-41.0	16.4	0.00e+00	0	55	0	155189248	49	4589
2026-01-02 22:22:01.58	42.33	13.32	-38.6	-40.9	16.6	0.00e+00	0	55	0	162529280	49	4504
2026-01-02 22:22:05.61	42.90	13.60	-38.9	-41.2	16.4	0.00e+00	0	55	0	170917888	49	4674
2026-01-02 22:22:09.65	43.49	13.88	-38.8	-41.1	16.4	0.00e+00	0	55	0	178257920	49	4623
2026-01-02 22:22:13.69	44.09	14.17	-38.7	-41.0	16.5	0.00e+00	0	55	0	185597952	49	4588
2026-01-02 22:22:17.73	44.70	14.45	-38.9	-41.2	16.2	0.00e+00	0	55	0	192937984	49	4700
2026-01-02 22:22:21.76	45.32	14.74	-39.0	-41.4	16.2	0.00e+00	0	55	0	201326592	49	4773
2026-01-02 22:22:25.80	45.95	15.03	-38.7	-41.0	16.5	0.00e+00	0	55	0	208666624	49	4588
2026-01-02 22:22:29.84	46.60	15.31	-38.6	-40.8	16.7	0.00e+00	0	55	0	216006656	49	4479
2026-01-02 22:22:33.88	47.25	15.60	-38.5	-40.7	16.9	0.00e+00	0	55	0	223346688	48	4653
2026-01-02 22:22:37.92	47.92	15.89	-38.4	-40.6	16.9	0.00e+00	0	55	0	230686720	48	4635
2026-01-02 22:22:41.96	48.61	16.17	-38.2	-40.3	17.2	0.00e+00	0	56	0	239075328	48	4477
2026-01-02 22:22:46.00	49.30	16.46	-38.4	-40.6	16.9	0.00e+00	0	55	0	246415360	48	4607
2026-01-02 22:22:50.04	50.01	16.74	-38.6	-40.9	16.7	0.00e+00	0	55	0	253755392	48	4768
2026-01-02 22:22:54.08	50.73	17.03	-38.4	-40.7	16.9	0.00e+00	0	56	0	261095424	48	4652
2026-01-02 22:22:58.11	51.46	17.31	-38.5	-40.8	16.8	0.00e+00	0	55	0	269484032	48	4743
2026-01-02 22:23:02.16	52.21	17.59	-38.7	-41.1	16.4	0.00e+00	0	56	0	276824064	48	4902
2026-01-02 22:23:06.19	52.97	17.87	-38.6	-41.0	16.6	0.00e+00	0	55	0	284164096	48	4847
2026-01-02 22:23:10.23	53.75	18.15	-38.7	-41.1	16.4	0.00e+00	0	55	0	291504128	48	4915
2026-01-02 22:23:14.27	54.54	18.43	-38.3	-40.6	16.9	0.00e+00	0	56	0	298844160	48	4630
2026-01-02 22:23:18.30	55.34	18.70	-38.7	-41.2	16.4	0.00e+00	0	56	0	307232768	48	4949
2026-01-02 22:23:22.34	56.16	18.97	-38.9	-41.4	16.2	0.00e+00	0	56	0	314572800	48	5077
2026-01-02 22:23:26.38	56.99	19.24	-38.9	-41.4	16.2	0.00e+00	0	56	0	321912832	48	5055
2026-01-02 22:23:30.41	57.83	19.51	-39.2	-41.8	15.7	0.00e+00	0	56	0	329252864	49	5040
2026-01-02 22:23:34.45	58.69	19.77	-38.9	-41.4	16.1	0.00e+00	0	56	0	336592896	49	4793
2026-01-02 22:23:38.49	59.57	20.03	-39.8	-42.8	14.9	0.00e+00	0	56	0	344981504	50	5291
2026-01-02 22:23:42.53	60.46	20.29	-39.4	-42.0	15.6	0.00e+00	0	56	0	352321536	50	4848
2026-01-02 22:23:46.56	61.36	20.54	-39.3	-41.8	15.8	0.00e+00	0	56	0	359661568	50	4749
2026-01-02 22:23:50.60	62.28	20.78	-39.1	-41.5	16.1	0.00e+00	0	56	0	367001600	49	4864
2026-01-02 22:23:54.64	63.22	21.02	-39.6	-42.3	15.5	0.00e+00	0	56	0	375390208	49	5295
2026-01-02 22:23:58.68	64.16	21.26	-38.7	-41.0	16.7	0.00e+00	0	56	0	382730240	49	4549
2026-01-02 22:24:02.71	65.12	21.49	-38.5	-40.6	17.1	0.00e+00	0	56	0	390070272	48	4621
2026-01-02 22:24:06.75	66.10	21.71	-39.2	-41.6	16.1	0.00e+00	0	56	0	397410304	48	5184
2026-01-02 22:24:10.79	67.09	21.93	-39.5	-42.1	15.6	0.00e+00	0	56	0	404750336	50	4883
2026-01-02 22:24:14.83	68.09	22.14	-38.7	-41.0	16.6	0.00e+00	0	56	0	413138944	48	4856
2026-01-02 22:24:18.86	69.11	22.34	-39.2	-41.8	15.9	0.00e+00	0	56	0	420478976	49	4995
2026-01-02 22:24:22.90	70.14	22.54	-39.1	-41.5	16.0	0.00e+00	0	56	0	427819008	49	4845
2026-01-02 22:24:26.94	71.18	22.73	-38.8	-41.2	16.2	0.00e+00	0	56	0	435159040	49	4678
2026-01-02 22:24:30.98	72.23	22.90	-39.8	-42.7	14.8	0.00e+00	0	56	0	443547648	50	5245
2026-01-02 22:24:35.01	73.30	23.07	-39.9	-42.7	14.8	7.00e-07	0	56	0	450887680	51	4963
2026-01-02 22:24:39.05	74.38	23.24	-39.7	-42.4	15.2	0.00e+00	0	56	0	458227712	51	4763
2026-01-02 22:24:43.08	75.46	23.39	-40.0	-42.9	14.8	0.00e+00	0	56	0	465567744	51	5051
2026-01-02 22:24:47.13	76.56	23.53	-40.3	-43.4	14.2	7.00e-07	0	56	0	472907776	51	5363
2026-01-02 22:24:51.17	77.67	23.66	-40.6	-43.8	13.9	1.50e-06	0	56	0	481296384	51	5629
2026-01-02 22:24:55.20	78.78	23.78	-39.5	-42.0	15.6	0.00e+00	0	56	0	488636416	50	4855
2026-01-02 22:24:59.24	79.91	23.89	-38.7	-40.9	16.6	0.00e+00	0	56	0	495976448	49	4536
2026-01-02 22:25:03.28	81.04	23.99	-39.4	-42.0	15.6	0.00e+00	0	56	0	503316480	49	5115
2026-01-02 22:25:07.32	82.18	24.08	-39.3	-41.9	15.7	0.00e+00	0	56	0	511705088	50	4760
2026-01-02 22:25:11.36	83.33	24.16	-39.7	-42.2	15.5	0.00e+00	0	56	0	519045120	50	4953
2026-01-02 22:25:15.40	84.48	24.22	-39.4	-41.8	16.0	0.00e+00	0	56	0	526385152	50	4706
2026-01-02 22:25:19.44	85.63	24.28	-39.4	-41.7	15.9	0.00e+00	0	56	0	533725184	50	4689
2026-01-02 22:25:23.48	86.79	24.32	-38.6	-40.7	17.0	0.00e+00	0	56	0	541065216	48	4652
2026-01-02 22:25:27.52	87.95	24.35	-39.1	-41.3	16.4	0.00e+00	0	56	0	549453824	48	5025
2026-01-02 22:25:31.56	89.12	24.37	-38.7	-40.7	17.0	0.00e+00	0	57	0	556793856	48	4701
2026-01-02 22:25:35.60	90.28	24.37	-38.7	-40.7	17.1	0.00e+00	0	56	0	564133888	48	4673
2026-01-02 22:25:39.64	91.45	24.37	-39.1	-41.3	16.5	0.00e+00	0	56	0	571473920	48	4987
2026-01-02 22:25:43.67	92.61	24.35	-38.6	-40.6	17.2	0.00e+00	0	56	0	579862528	48	4613
2026-01-02 22:25:47.71	93.77	24.32	-38.8	-40.8	17.0	0.00e+00	0	56	0	587202560	48	4751
2026-01-02 22:25:51.75	94.93	24.27	-38.9	-41.1	16.7	0.00e+00	0	57	0	594542592	48	4877
2026-01-02 22:25:55.79	96.08	24.22	-38.6	-40.6	17.2	0.00e+00	0	57	0	601882624	48	4648
2026-01-02 22:25:59.83	97.24	24.15	-38.0	-39.8	17.9	0.00e+00	0	57	0	609222656	48	4231
2026-01-02 22:26:03.87	98.38	24.07	-38.3	-40.3	17.5	0.00e+00	0	57	0	617611264	48	4443
2026-01-02 22:26:07.91	99.52	23.98	-37.8	-39.5	18.2	0.00e+00	0	57	0	624951296	47	4334
2026-01-02 22:26:11.95	100.66	23.88	-37.9	-39.7	18.0	0.00e+00	0	56	0	632291328	47	4408
2026-01-02 22:26:15.99	101.78	23.77	-37.6	-39.4	18.3	0.00e+00	0	57	0	639631360	46	4498
2026-01-02 22:26:20.02	102.90	23.65	-38.3	-40.2	17.5	0.00e+00	0	56	0	648019968	47	4692
2026-01-02 22:26:24.06	104.01	23.51	-37.8	-39.6	18.1	0.00e+00	0	56	0	655360000	47	4353
2026-01-02 22:26:28.11	105.11	23.37	-37.4	-39.1	18.5	0.00e+00	0	56	0	662700032	46	4390
2026-01-02 22:26:32.15	106.20	23.21	-36.8	-38.4	19.2	0.00e+00	0	57	0	670040064	45	4259
2026-01-02 22:26:36.19	107.28	23.05	-37.1	-38.7	18.9	0.00e+00	0	57	0	677380096	45	4438
2026-01-02 22:26:40.22	108.35	22.88	-36.9	-38.5	19.1	0.00e+00	0	56	0	685768704	45	4321
2026-01-02 22:26:44.26	109.40	22.70	-36.6	-38.2	19.4	0.00e+00	0	57	0	693108736	44	4400
2026-01-02 22:26:48.29	110.44	22.51	-37.4	-39.1	18.5	0.00e+00	0	57	0	700448768	45	4645
2026-01-02 22:26:52.33	111.48	22.31	-37.2	-38.9	18.8	0.00e+00	0	57	0	707788800	45	4502
2026-01-02 22:26:56.36	112.49	22.11	-37.4	-39.1	18.6	0.00e+00	0	57	0	716177408	46	4373
2026-01-02 22:27:00.40	113.50	21.90	-37.3	-39.0	18.7	0.00e+00	0	57	0	723517440	46	4294
2026-01-02 22:27:04.44	114.49	21.68	-37.7	-39.5	18.2	0.00e+00	0	57	0	730857472	46	4562
2026-01-02 22:27:08.47	115.46	21.45	-38.5	-40.6	17.1	0.00e+00	0	57	0	738197504	47	4891
2026-01-02 22:27:12.51	116.43	21.22	-37.9	-39.8	17.9	0.00e+00	0	57	0	745537536	47	4447
2026-01-02 22:27:16.55	117.38	20.98	-38.0	-39.9	17.8	0.00e+00	0	56	0	753926144	47	4507
2026-01-02 22:27:20.60	118.32	20.74	-39.2	-41.4	16.4	0.00e+00	0	57	0	761266176	48	5048
2026-01-02 22:27:24.63	119.23	20.49	-38.2	-40.1	17.7	0.00e+00	0	57	0	768606208	48	4359
2026-01-02 22:27:28.67	120.14	20.24	-37.8	-39.5	18.1	0.00e+00	0	57	0	775946240	46	4596
2026-01-02 22:27:32.71	121.03	19.98	-38.8	-40.9	16.9	0.00e+00	0	57	0	784334848	48	4772
2026-01-02 22:27:36.75	121.91	19.72	-38.7	-40.7	17.1	0.00e+00	0	57	0	791674880	48	4673
2026-01-02 22:27:40.79	122.77	19.45	-39.1	-41.3	16.5	0.00e+00	0	57	0	799014912	48	5008
2026-01-02 22:27:44.83	123.62	19.18	-38.9	-41.0	16.8	0.00e+00	0	57	0	806354944	48	4847
2026-01-02 22:27:48.87	124.45	18.91	-39.1	-41.3	16.4	0.00e+00	0	57	0	813694976	49	4726
2026-01-02 22:27:52.92	125.28	18.63	-37.9	-39.8	17.8	0.00e+00	0	57	0	822083584	47	4449
2026-01-02 22:27:56.96	126.08	18.36	-39.0	-41.2	16.5	0.00e+00	0	57	0	829423616	48	4947
2026-01-02 22:28:00.99	126.87	18.08	-38.7	-40.7	17.0	0.00e+00	0	57	0	836763648	49	4424
2026-01-02 22:28:05.03	127.65	17.80	-39.3	-41.7	16.0	0.00e+00	0	57	0	844103680	49	4929
2026-01-02 22:28:09.07	128.41	17.51	-39.0	-41.2	16.5	0.00e+00	0	57	0	852492288	49	4679
2026-01-02 22:28:13.10	129.16	17.23	-38.4	-40.4	17.1	0.00e+00	0	57	0	859832320	48	4495
2026-01-02 22:28:17.14	129.89	16.94	-38.5	-40.7	16.9	6.78e-04	0	57	0	867172352	47	4933
2026-01-02 22:28:21.18	130.61	16.66	-38.1	-40.0	17.2	1.69e-04	0	57	0	874512384	46	4853
2026-01-02 22:28:25.22	131.32	16.37	-39.0	-41.4	16.1	2.13e-04	0	57	0	881852416	48	5100
2026-01-02 22:28:29.25	132.01	16.08	-38.6	-41.1	16.3	9.15e-03	0	57	0	890241024	48	4917
2026-01-02 22:28:33.29	132.70	15.79	-38.4	-40.6	16.7	2.46e-03	0	57	0	897581056	47	4902
2026-01-02 22:28:37.33	133.37	15.50	-34.8	-40.9	15.8	1.65e-02	0	57	0	904921088	47	5060
2026-01-02 22:28:41.37	134.02	15.22	-38.2	-40.2	17.1	1.84e-02	0	57	0	912261120	46	4960
2026-01-02 22:28:45.41	134.67	14.93	-39.4	-42.0	15.0	8.60e-03	0	57	0	919601152	49	5142
2026-01-02 22:28:49.45	135.30	14.64	-39.4	-42.7	14.4	3.27e-02	0	57	0	927989760	50	5237
2026-01-02 22:28:53.48	135.92	14.35	-39.0	-41.4	15.0	3.29e-02	0	57	0	935329792	48	5047
2026-01-02 22:28:57.52	136.53	14.06	-32.6	-40.1	14.5	3.26e-02	0	57	0	942669824	38	7773
2026-01-02 22:29:01.56	137.13	13.77	-38.0	-40.0	16.7	5.24e-03	0	57	0	950009856	46	4857
2026-01-02 22:29:05.60	137.72	13.48	-38.3	-40.4	16.1	6.00e-03	0	57	0	958398464	47	4790
2026-01-02 22:29:09.64	138.29	13.20	-39.2	-41.7	15.7	1.62e-03	0	57	0	965738496	49	4972
2026-01-02 22:29:13.68	138.86	12.91	-39.4	-42.0	15.4	8.30e-06	0	57	0	973078528	49	5139
2026-01-02 22:29:17.72	139.41	12.63	-39.3	-41.8	15.6	6.10e-06	0	57	0	980418560	49	4990
2026-01-02 22:29:21.76	139.96	12.34	-39.1	-41.4	16.0	0.00e+00	0	57	0	987758592	49	4804
2026-01-02 22:29:25.80	140.49	12.06	-39.0	-41.3	16.0	0.00e+00	0	57	0	996147200	49	4747
2026-01-02 22:29:29.83	141.01	11.78	-39.0	-41.2	16.1	0.00e+00	0	57	0	1003487232	49	4699
2026-01-02 22:29:33.87	141.53	11.50	-39.0	-41.3	16.1	0.00e+00	0	57	0	1010827264	49	4709
2026-01-02 22:29:37.90	142.03	11.22	-39.8	-42.5	14.9	0.00e+00	0	57	0	1018167296	50	5115
2026-01-02 22:29:41.94	142.53	10.94	-40.2	-43.2	14.1	7.00e-07	0	57	0	1026555904	51	5226
2026-01-02 22:29:45.98	143.02	10.66	-40.3	-43.4	13.8	3.80e-06	0	57	0	1033895936	51	5391
2026-01-02 22:29:50.01	143.50	10.39	-39.9	-42.7	14.6	0.00e+00	0	57	0	1041235968	51	4944
2026-01-02 22:29:54.05	143.97	10.11	-39.7	-42.4	14.8	0.00e+00	0	57	0	1048576000	51	4781
2026-01-02 22:29:58.09	144.43	9.84	-39.4	-42.0	15.2	0.00e+00	0	57	0	1055916032	50	4828
2026-01-02 22:30:02.14	144.88	9.57	-39.3	-41.9	15.2	0.00e+00	0	57	0	1064304640	50	4777
2026-01-02 22:30:06.17	145.33	9.30	-39.2	-41.8	15.3	0.00e+00	0	57	0	1071644672	50	4707
2026-01-02 22:30:10.21	145.76	9.03	-39.8	-42.7	14.3	1.50e-06	0	57	0	1078984704	50	5233
2026-01-02 22:30:14.25	146.19	8.76	-40.0	-43.1	13.9	1.50e-06	0	57	0	1086324736	50	5477
2026-01-02 22:30:18.29	146.61	8.50	-40.1	-43.2	13.7	5.30e-06	0	57	0	1094713344	51	5278
2026-01-02 22:30:22.33	147.03	8.23	-39.6	-42.3	14.6	0.00e+00	0	57	0	1102053376	51	4758
2026-01-02 22:30:26.37	147.44	7.97	-44.3	-58.6	3.8	1.49e+00	0	57	104	1108344832	59	19418
2026-01-02 22:30:30.41	147.84	7.71	-45.1	-59.6	3.8	1.49e+00	0	57	104	1108344832	60	20756
2026-01-02 22:30:34.45	148.23	7.45	-45.2	-59.7	3.8	1.49e+00	0	57	104	1108344832	60	20987
2026-01-02 22:30:38.49	148.62	7.19	-44.9	-59.5	3.8	1.49e+00	0	57	104	1108344832	60	20357
2026-01-02 22:30:42.54	149.00	6.93	-44.9	-59.4	3.8	1.49e+00	0	57	104	1108344832	60	20147
2026-01-02 22:30:46.58	149.37	6.68	-44.9	-59.4	3.8	1.49e+00	0	57	104	1108344832	60	20202
2026-01-02 22:30:50.62	149.74	6.43	-44.9	-59.4	3.8	1.49e+00	0	57	104	1108344832	60	20138
2026-01-02 22:30:54.67	150.10	6.17	-44.8	-59.4	3.8	1.49e+00	0	57	104	1108344832	60	20105
2026-01-02 22:30:58.71	150.46	5.92	-44.9	-59.4	3.8	1.49e+00	0	57	104	1108344832	60	20150
2026-01-02 22:31:02.76	150.81	5.67	-44.9	-59.4	3.8	1.49e+00	0	57	104	1108344832	60	20170
2026-01-02 22:31:06.80	151.16	5.43	-44.9	-59.4	3.8	1.49e+00	0	57	104	1108344832	60	20172
2026-01-02 22:31:10.84	151.49	5.18	-44.8	-59.4	3.8	1.49e+00	0	57	104	1108344832	60	20124
2026-01-02 22:31:14.89	151.83	4.93	-44.8	-59.3	3.8	1.49e+00	0	57	104	1108344832	60	20070
2026-01-02 22:31:18.93	152.16	4.69	-44.8	-59.3	3.8	1.49e+00	0	57	104	1108344832	60	20040
2026-01-02 22:31:22.98	152.48	4.45	-44.8	-59.3	3.8	1.49e+00	0	57	104	1108344832	60	20066
2026-01-02 22:31:27.02	152.80	4.21	-44.8	-59.3	3.8	1.49e+00	0	57	104	1108344832	60	20039
2026-01-02 22:31:31.07	153.11	3.97	-44.8	-59.4	3.8	1.49e+00	0	57	104	1108344832	60	20141
2026-01-02 22:31:35.11	153.42	3.73	-44.8	-59.3	3.8	1.49e+00	0	57	104	1108344832	60	20034
2026-01-02 22:31:39.15	153.72	3.50	-44.8	-59.3	3.8	1.49e+00	0	57	104	1108344832	60	20048
2026-01-02 22:31:43.20	154.02	3.26	-44.8	-59.3	3.8	1.49e+00	0	57	104	1108344832	60	20036
2026-01-02 22:31:47.24	154.32	3.03	-44.8	-59.4	3.8	1.49e+00	0	57	104	1108344832	60	20076
2026-01-02 22:31:51.29	154.61	2.80	-44.8	-59.3	3.8	1.49e+00	0	57	104	1108344832	60	20043
2026-01-02 22:31:55.33	154.89	2.57	-44.8	-59.3	3.8	1.49e+00	0	57	104	1108344832	60	20050
2026-01-02 22:31:59.37	155.17	2.34	-44.8	-59.3	3.8	1.49e+00	0	57	104	1108344832	60	19975
2026-01-02 22:32:03.42	155.45	2.11	-44.8	-59.3	3.8	1.49e+00	0	57	104	1108344832	60	19994

#Closed at: 2026-01-02 22:32:06
#Recorded file [1108 MB]: D:/lorett/data/31039_260103_011903.dat