passes_logs/2026/01/02/R2.0S_Moscow/R2.0S_Moscow__20260102_112023_NOAA_21_JPSS-2_rec.log

#Pass ID: 20260102_112023_NOAA 21 (JPSS-2)
#Satellite: NOAA 21 (JPSS-2)
#Configuration: NOAA-21
#almurnet v.1.7.20251203
#Start time: 2026-01-02 11:24:16

#Version: 2.2.20231116
#Station: R2.0S_Moscow
#Location: 37.707566 lon 55.798166 lat
#TLE: 1 54234U 22150A   26001.26806856  .00000185  00000+0  10843-3 0  9990
#TLE: 2 54234  98.7484 302.3349 0001277 353.3887   6.7272 14.19530660162860

#Time	Az	El	Level	Level2	SNR	BER	BlckErr	Temp	State	Recorded	gain1	gain2
2026-01-02 11:24:16.40	229.77	17.54	-44.6	-56.2	3.8	8.46e-01	0	57	0	0	60	13939
2026-01-02 11:24:19.44	230.33	17.76	-44.8	-57.1	3.8	1.49e+00	0	57	104	0	61	14700
2026-01-02 11:24:22.47	230.90	17.98	-44.8	-57.1	3.8	1.49e+00	0	57	104	0	61	14602
2026-01-02 11:24:25.50	231.48	18.20	-44.6	-56.9	3.8	1.49e+00	0	57	104	0	61	14334
2026-01-02 11:24:28.53	232.06	18.42	-44.6	-56.8	3.8	1.49e+00	0	57	104	0	61	14182
2026-01-02 11:24:31.57	232.65	18.64	-44.5	-56.8	3.8	1.49e+00	0	57	104	0	61	14109
2026-01-02 11:24:34.60	233.26	18.85	-44.5	-56.8	3.8	1.49e+00	0	57	104	0	61	14120
2026-01-02 11:24:37.63	233.86	19.07	-44.5	-56.8	3.8	1.49e+00	0	57	104	0	61	14158
2026-01-02 11:24:40.66	234.48	19.28	-44.5	-56.8	3.8	1.49e+00	0	58	104	0	61	14115
2026-01-02 11:24:43.70	235.11	19.49	-44.5	-56.9	3.8	1.49e+00	0	57	104	0	60	15089
2026-01-02 11:24:46.73	235.74	19.70	-44.5	-56.7	3.8	1.49e+00	0	58	104	0	60	14727
2026-01-02 11:24:49.76	236.39	19.91	-44.5	-56.6	3.8	1.49e+00	0	57	104	0	60	14600
2026-01-02 11:24:52.80	237.04	20.12	-44.5	-56.6	3.8	1.49e+00	0	57	104	0	60	14599
2026-01-02 11:24:55.83	237.70	20.32	-44.5	-56.6	3.8	1.49e+00	0	57	104	0	60	14708
2026-01-02 11:24:58.86	238.37	20.53	-44.4	-56.1	3.8	1.49e+00	0	58	104	0	60	13871
2026-01-02 11:25:01.90	239.05	20.73	-44.5	-56.6	3.8	1.49e+00	0	57	104	0	60	14643
2026-01-02 11:25:04.93	239.73	20.92	-42.7	-47.4	8.0	1.99e-01	0	57	0	2097152	57	5995
2026-01-02 11:25:07.96	240.43	21.12	-37.4	-39.0	16.4	0.00e+00	0	58	0	11534336	46	4320
2026-01-02 11:25:11.00	241.13	21.31	-44.6	-56.5	3.8	9.12e-01	0	58	104	19922944	59	15269
2026-01-02 11:25:14.02	241.84	21.50	-43.4	-49.4	6.2	4.91e-02	0	57	0	25165824	57	7549
2026-01-02 11:25:17.05	242.56	21.69	-36.1	-37.5	17.8	0.00e+00	0	57	0	34603008	44	4084
2026-01-02 11:25:20.08	243.29	21.87	-35.4	-36.7	18.4	0.00e+00	0	57	0	44040192	42	4176
2026-01-02 11:25:23.11	244.03	22.05	-35.1	-36.4	18.6	0.00e+00	0	57	0	54525952	42	4041
2026-01-02 11:25:26.14	244.77	22.22	-35.2	-36.5	18.6	0.00e+00	0	57	0	62914560	42	4064
2026-01-02 11:25:29.17	245.52	22.40	-35.4	-36.7	18.4	0.00e+00	0	57	0	73400320	42	4167
2026-01-02 11:25:32.20	246.28	22.56	-35.3	-36.6	18.5	0.00e+00	0	57	0	82837504	42	4128
2026-01-02 11:25:35.24	247.05	22.73	-35.3	-36.6	18.5	0.00e+00	0	57	0	92274688	42	4129
2026-01-02 11:25:38.27	247.83	22.89	-35.4	-36.7	18.4	0.00e+00	0	57	0	101711872	42	4175
2026-01-02 11:25:41.30	248.62	23.04	-35.3	-36.6	18.6	0.00e+00	0	57	0	111149056	42	4099
2026-01-02 11:25:44.33	249.41	23.19	-35.3	-36.6	18.6	0.00e+00	0	58	0	120586240	42	4113
2026-01-02 11:25:47.36	250.21	23.34	-35.4	-36.7	18.4	0.00e+00	0	57	0	130023424	42	4174
2026-01-02 11:25:50.39	251.01	23.48	-35.4	-36.7	18.5	0.00e+00	0	57	0	139460608	42	4148
2026-01-02 11:25:53.42	251.83	23.62	-35.3	-36.6	18.6	0.00e+00	0	57	0	148897792	42	4111
2026-01-02 11:25:56.45	252.65	23.75	-35.6	-36.9	18.3	0.00e+00	0	57	0	158334976	42	4263
2026-01-02 11:25:59.49	253.47	23.87	-35.7	-37.0	18.2	0.00e+00	0	57	0	167772160	42	4317
2026-01-02 11:26:02.51	254.30	23.99	-35.5	-36.8	18.3	0.00e+00	0	57	0	177209344	42	4226
2026-01-02 11:26:05.55	255.15	24.11	-35.5	-36.8	18.3	0.00e+00	0	57	0	186646528	42	4220
2026-01-02 11:26:08.58	255.99	24.21	-35.3	-36.6	18.6	0.00e+00	0	57	0	196083712	42	4128
2026-01-02 11:26:11.60	256.84	24.32	-35.3	-36.6	18.4	0.00e+00	0	57	0	205520896	42	4127
2026-01-02 11:26:14.63	257.69	24.41	-35.3	-36.5	18.6	0.00e+00	0	57	0	214958080	42	4090
2026-01-02 11:26:17.66	258.55	24.50	-35.2	-36.5	18.7	0.00e+00	0	57	0	224395264	42	4074
2026-01-02 11:26:20.69	259.42	24.58	-35.3	-36.6	18.6	0.00e+00	0	57	0	233832448	42	4107
2026-01-02 11:26:23.72	260.29	24.66	-35.1	-36.3	18.8	0.00e+00	0	57	0	243269632	42	4000
2026-01-02 11:26:26.75	261.16	24.73	-35.1	-36.4	18.7	0.00e+00	0	57	0	252706816	42	4026
2026-01-02 11:26:29.78	262.04	24.79	-34.9	-36.2	18.9	0.00e+00	0	57	0	262144000	41	4161
2026-01-02 11:26:32.81	262.92	24.85	-34.9	-36.1	19.0	0.00e+00	0	57	0	271581184	41	4134
2026-01-02 11:26:35.84	263.80	24.90	-34.9	-36.2	19.0	0.00e+00	0	57	0	281018368	41	4158
2026-01-02 11:26:38.87	264.68	24.94	-34.8	-36.0	19.0	0.00e+00	0	57	0	290455552	41	4096
2026-01-02 11:26:41.91	265.57	24.98	-34.8	-36.0	19.0	0.00e+00	0	57	0	299892736	41	4065
2026-01-02 11:26:44.94	266.46	25.00	-34.7	-35.9	19.1	0.00e+00	0	57	0	309329920	41	4034
2026-01-02 11:26:47.97	267.35	25.02	-35.0	-36.3	18.8	0.00e+00	0	57	0	318767104	41	4208
2026-01-02 11:26:51.00	268.24	25.04	-35.1	-36.3	18.8	0.00e+00	0	57	0	328204288	41	4228
2026-01-02 11:26:54.03	269.13	25.04	-35.1	-36.4	18.7	0.00e+00	0	57	0	337641472	41	4264
2026-01-02 11:26:57.06	270.02	25.04	-34.9	-36.1	19.0	0.00e+00	0	57	0	348127232	41	4130
2026-01-02 11:27:00.09	270.91	25.04	-34.7	-35.9	19.1	0.00e+00	0	57	0	356515840	41	4041
2026-01-02 11:27:03.12	271.80	25.02	-34.8	-36.1	19.0	0.00e+00	0	57	0	367001600	41	4112
2026-01-02 11:27:06.15	272.69	25.00	-34.9	-36.1	19.0	0.00e+00	0	57	0	376438784	41	4116
2026-01-02 11:27:09.18	273.58	24.97	-34.9	-36.2	18.9	0.00e+00	0	57	0	385875968	41	4160
2026-01-02 11:27:12.21	274.47	24.93	-34.9	-36.2	18.9	0.00e+00	0	57	0	395313152	41	4146
2026-01-02 11:27:15.25	275.35	24.89	-34.9	-36.2	18.9	0.00e+00	0	57	0	404750336	41	4172
2026-01-02 11:27:18.28	276.23	24.84	-34.8	-36.1	19.0	0.00e+00	0	57	0	414187520	41	4109
2026-01-02 11:27:21.30	277.11	24.78	-34.9	-36.1	19.0	0.00e+00	0	57	0	423624704	41	4120
2026-01-02 11:27:24.33	277.98	24.72	-34.9	-36.1	19.1	0.00e+00	0	57	0	433061888	41	4118
2026-01-02 11:27:27.37	278.85	24.65	-34.9	-36.2	18.9	0.00e+00	0	57	0	442499072	41	4151
2026-01-02 11:27:30.40	279.72	24.57	-34.8	-36.0	19.1	0.00e+00	0	57	0	451936256	41	4064
2026-01-02 11:27:33.43	280.58	24.49	-34.6	-35.8	19.2	0.00e+00	0	57	0	461373440	41	3994
2026-01-02 11:27:36.45	281.44	24.40	-34.6	-35.8	19.3	0.00e+00	0	57	0	470810624	41	3985
2026-01-02 11:27:39.48	282.29	24.30	-34.8	-36.0	19.1	0.00e+00	0	57	0	480247808	41	4063
2026-01-02 11:27:42.51	283.14	24.20	-34.9	-36.2	18.9	0.00e+00	0	57	0	489684992	41	4148
2026-01-02 11:27:45.55	283.98	24.09	-34.8	-36.0	19.1	0.00e+00	0	57	0	499122176	41	4093
2026-01-02 11:27:48.58	284.82	23.98	-35.0	-36.2	18.9	0.00e+00	0	57	0	508559360	41	4189
2026-01-02 11:27:51.61	285.65	23.86	-35.1	-36.4	18.8	0.00e+00	0	57	0	517996544	41	4246
2026-01-02 11:27:54.64	286.47	23.73	-34.9	-36.2	18.9	0.00e+00	0	57	0	527433728	41	4156
2026-01-02 11:27:57.67	287.28	23.60	-35.0	-36.2	18.9	0.00e+00	0	57	0	536870912	41	4172
2026-01-02 11:28:00.70	288.09	23.46	-34.9	-36.2	18.9	0.00e+00	0	57	0	546308096	41	4164
2026-01-02 11:28:03.73	288.90	23.32	-35.1	-36.4	18.8	0.00e+00	0	57	0	555745280	41	4258
2026-01-02 11:28:06.76	289.69	23.18	-35.0	-36.3	18.8	0.00e+00	0	57	0	565182464	41	4219
2026-01-02 11:28:09.80	290.48	23.03	-35.0	-36.3	18.8	0.00e+00	0	57	0	574619648	41	4221
2026-01-02 11:28:12.82	291.26	22.87	-35.2	-36.4	18.7	0.00e+00	0	57	0	584056832	41	4288
2026-01-02 11:28:15.85	292.03	22.71	-35.3	-36.5	18.6	0.00e+00	0	57	0	593494016	41	4338
2026-01-02 11:28:18.88	292.80	22.55	-35.2	-36.5	18.6	0.00e+00	0	57	0	602931200	41	4328
2026-01-02 11:28:21.91	293.55	22.38	-35.3	-36.6	18.6	0.00e+00	0	57	0	612368384	41	4345
2026-01-02 11:28:24.94	294.30	22.21	-35.4	-36.7	18.4	0.00e+00	0	57	0	621805568	41	4435
2026-01-02 11:28:27.98	295.04	22.03	-35.3	-36.6	18.5	0.00e+00	0	57	0	631242752	41	4350
2026-01-02 11:28:31.00	295.77	21.86	-35.3	-36.6	18.5	0.00e+00	0	57	0	641728512	41	4359
2026-01-02 11:28:34.03	296.50	21.67	-35.3	-36.7	18.4	0.00e+00	0	57	0	650117120	41	4397
2026-01-02 11:28:37.06	297.21	21.49	-35.3	-36.6	18.4	0.00e+00	0	57	0	660602880	41	4387
2026-01-02 11:28:40.09	297.92	21.30	-35.3	-36.6	18.5	0.00e+00	0	57	0	670040064	41	4359
2026-01-02 11:28:43.12	298.62	21.11	-35.1	-36.4	18.6	0.00e+00	0	57	0	679477248	41	4283
2026-01-02 11:28:46.15	299.30	20.92	-35.3	-36.6	18.5	0.00e+00	0	57	0	688914432	41	4349
2026-01-02 11:28:49.18	299.99	20.72	-35.4	-36.7	18.4	0.00e+00	0	57	0	698351616	41	4432
2026-01-02 11:28:52.21	300.66	20.52	-35.2	-36.5	18.5	0.00e+00	0	57	0	707788800	41	4326
2026-01-02 11:28:55.24	301.32	20.32	-35.2	-36.5	18.5	0.00e+00	0	57	0	717225984	41	4336
2026-01-02 11:28:58.27	301.98	20.12	-35.4	-36.7	18.4	0.00e+00	0	57	0	726663168	41	4404
2026-01-02 11:29:01.30	302.63	19.91	-35.5	-36.9	18.2	0.00e+00	0	57	0	736100352	41	4515
2026-01-02 11:29:04.33	303.26	19.71	-35.6	-37.0	18.1	0.00e+00	0	57	0	745537536	41	4568
2026-01-02 11:29:07.37	303.90	19.50	-35.5	-36.8	18.2	0.00e+00	0	57	0	754974720	41	4460
2026-01-02 11:29:10.40	304.52	19.29	-35.4	-36.7	18.3	0.00e+00	0	57	0	764411904	41	4425
2026-01-02 11:29:13.43	305.13	19.08	-35.3	-36.7	18.3	0.00e+00	0	57	0	773849088	41	4403
2026-01-02 11:29:16.45	305.73	18.86	-35.5	-36.8	18.2	0.00e+00	0	57	0	783286272	41	4493
2026-01-02 11:29:19.48	306.33	18.65	-35.4	-36.8	18.2	0.00e+00	0	57	0	792723456	41	4452
2026-01-02 11:29:22.51	306.92	18.43	-35.4	-36.7	18.3	0.00e+00	0	57	0	802160640	41	4408
2026-01-02 11:29:25.55	307.50	18.22	-35.5	-36.8	18.2	0.00e+00	0	57	0	811597824	41	4462
2026-01-02 11:29:28.58	308.07	18.00	-35.4	-36.7	18.3	0.00e+00	0	57	0	821035008	41	4410
2026-01-02 11:29:31.61	308.64	17.78	-35.5	-36.8	18.2	0.00e+00	0	57	0	830472192	41	4463
2026-01-02 11:29:34.64	309.20	17.57	-35.6	-36.9	18.1	0.00e+00	0	57	0	839909376	41	4538
2026-01-02 11:29:37.67	309.74	17.35	-35.5	-36.8	18.1	0.00e+00	0	57	0	849346560	41	4492
2026-01-02 11:29:40.70	310.29	17.13	-35.6	-36.9	18.1	0.00e+00	0	57	0	858783744	41	4521
2026-01-02 11:29:43.73	310.82	16.91	-35.6	-37.0	18.0	0.00e+00	0	57	0	868220928	41	4551
2026-01-02 11:29:46.76	311.34	16.69	-35.7	-37.1	17.9	0.00e+00	0	57	0	877658112	42	4372
2026-01-02 11:29:49.79	311.86	16.47	-35.7	-37.0	18.0	0.00e+00	0	57	0	887095296	42	4326
2026-01-02 11:29:52.83	312.38	16.25	-35.8	-37.1	17.9	0.00e+00	0	57	0	896532480	42	4379
2026-01-02 11:29:55.86	312.88	16.03	-35.7	-37.1	17.9	0.00e+00	0	57	0	905969664	42	4365
2026-01-02 11:29:58.89	313.38	15.81	-35.8	-37.1	17.8	0.00e+00	0	57	0	915406848	42	4389
2026-01-02 11:30:01.92	313.87	15.58	-36.0	-37.4	17.5	0.00e+00	0	57	0	924844032	42	4530
2026-01-02 11:30:04.96	314.35	15.36	-36.1	-37.6	17.4	0.00e+00	0	57	0	935329792	42	4618
2026-01-02 11:30:07.98	314.82	15.14	-36.2	-37.6	17.4	0.00e+00	0	58	0	943718400	42	4638
2026-01-02 11:30:11.01	315.29	14.92	-36.4	-37.9	17.0	0.00e+00	0	57	0	954204160	43	4542
2026-01-02 11:30:14.04	315.76	14.70	-36.4	-38.0	17.0	0.00e+00	0	57	0	963641344	43	4552
2026-01-02 11:30:17.07	316.21	14.48	-36.5	-38.0	17.0	0.00e+00	0	57	0	973078528	43	4563
2026-01-02 11:30:20.10	316.66	14.27	-36.6	-38.2	16.8	0.00e+00	0	57	0	982515712	43	4654
2026-01-02 11:30:23.13	317.10	14.05	-36.6	-38.1	16.8	0.00e+00	0	57	0	991952896	43	4645
2026-01-02 11:30:26.16	317.54	13.83	-36.4	-38.0	17.0	0.00e+00	0	57	0	1001390080	43	4556
2026-01-02 11:30:29.19	317.97	13.61	-36.4	-37.9	17.1	0.00e+00	0	57	0	1010827264	43	4505
2026-01-02 11:30:32.22	318.39	13.39	-36.6	-38.2	16.7	0.00e+00	0	57	0	1020264448	43	4677
2026-01-02 11:30:35.25	318.81	13.18	-36.9	-38.5	16.6	0.00e+00	0	57	0	1029701632	44	4588
2026-01-02 11:30:38.28	319.22	12.96	-37.0	-38.6	16.5	0.00e+00	0	57	0	1039138816	44	4614
2026-01-02 11:30:41.31	319.63	12.75	-37.1	-38.7	16.4	0.00e+00	0	57	0	1048576000	44	4697
2026-01-02 11:30:44.35	320.03	12.53	-37.0	-38.6	16.4	0.00e+00	0	57	0	1058013184	44	4647
2026-01-02 11:30:47.37	320.43	12.32	-36.9	-38.5	16.5	0.00e+00	0	57	0	1067450368	44	4598
2026-01-02 11:30:50.40	320.82	12.10	-36.8	-38.4	16.7	0.00e+00	0	57	0	1076887552	44	4495
2026-01-02 11:30:53.43	321.20	11.89	-37.0	-38.6	16.4	0.00e+00	0	57	0	1086324736	44	4619
2026-01-02 11:30:56.46	321.58	11.68	-37.3	-39.0	16.1	0.00e+00	0	57	0	1095761920	45	4568
2026-01-02 11:30:59.49	321.95	11.47	-37.3	-39.0	16.1	0.00e+00	0	57	0	1105199104	45	4569
2026-01-02 11:31:02.52	322.32	11.26	-37.1	-38.8	16.2	0.00e+00	0	57	0	1114636288	45	4471
2026-01-02 11:31:05.55	322.69	11.05	-37.1	-38.7	16.3	0.00e+00	0	57	0	1124073472	45	4440
2026-01-02 11:31:08.59	323.05	10.84	-37.1	-38.7	16.3	0.00e+00	0	57	0	1133510656	45	4429
2026-01-02 11:31:11.62	323.40	10.63	-37.1	-38.8	16.2	0.00e+00	0	57	0	1142947840	45	4444
2026-01-02 11:31:14.65	323.75	10.42	-37.1	-38.7	16.2	0.00e+00	0	57	0	1152385024	45	4441
2026-01-02 11:31:17.67	324.09	10.22	-37.2	-38.9	16.1	0.00e+00	0	57	0	1161822208	45	4500
2026-01-02 11:31:20.71	324.43	10.01	-37.4	-39.1	15.8	0.00e+00	0	57	0	1171259392	45	4643
2026-01-02 11:31:23.74	324.77	9.81	-37.2	-38.9	16.1	0.00e+00	0	57	0	1180696576	45	4506
2026-01-02 11:31:26.77	325.10	9.60	-37.2	-38.8	16.1	0.00e+00	0	57	0	1190133760	45	4486
2026-01-02 11:31:29.80	325.43	9.40	-37.3	-39.1	15.9	0.00e+00	0	57	0	1199570944	45	4606
2026-01-02 11:31:32.83	325.75	9.20	-37.4	-39.2	15.7	0.00e+00	0	57	0	1209008128	45	4686
2026-01-02 11:31:35.86	326.07	9.00	-37.3	-39.0	15.9	0.00e+00	0	57	0	1218445312	45	4580
2026-01-02 11:31:38.89	326.38	8.80	-37.2	-39.0	15.9	0.00e+00	0	57	0	1227882496	45	4559
2026-01-02 11:31:41.92	326.69	8.60	-37.3	-39.0	15.9	0.00e+00	0	57	0	1237319680	45	4563
2026-01-02 11:31:44.95	326.99	8.40	-37.3	-39.0	15.8	0.00e+00	0	57	0	1246756864	45	4584
2026-01-02 11:31:47.98	327.30	8.20	-37.3	-39.1	15.7	0.00e+00	0	57	0	1256194048	45	4607
2026-01-02 11:31:51.00	327.59	8.01	-37.4	-39.2	15.6	0.00e+00	0	57	0	1266679808	45	4667
2026-01-02 11:31:54.04	327.89	7.81	-44.6	-56.7	3.8	1.49e+00	0	57	104	1268776960	59	15669
2026-01-02 11:31:57.07	328.18	7.62	-44.8	-57.1	3.8	1.49e+00	0	57	104	1268776960	60	15562
2026-01-02 11:32:00.10	328.46	7.42	-44.6	-57.1	3.8	1.49e+00	0	57	104	1268776960	60	15511
2026-01-02 11:32:03.13	328.75	7.23	-44.8	-57.1	3.8	1.49e+00	0	57	104	1268776960	60	15493
2026-01-02 11:32:06.17	329.03	7.04	-44.7	-57.1	3.8	1.49e+00	0	57	104	1268776960	60	15413
2026-01-02 11:32:09.20	329.30	6.84	-44.7	-57.0	3.8	1.49e+00	0	57	104	1268776960	60	15375
2026-01-02 11:32:12.22	329.58	6.65	-44.7	-57.1	3.8	1.49e+00	0	57	104	1268776960	60	15420
2026-01-02 11:32:15.26	329.85	6.46	-44.7	-57.0	3.8	1.49e+00	0	57	104	1268776960	60	15333
2026-01-02 11:32:18.29	330.11	6.28	-44.6	-57.0	3.8	1.49e+00	0	57	104	1268776960	60	15329
2026-01-02 11:32:21.32	330.37	6.09	-44.7	-57.0	3.8	1.49e+00	0	57	104	1268776960	60	15303
2026-01-02 11:32:24.35	330.63	5.90	-44.7	-57.0	3.8	1.49e+00	0	58	104	1268776960	60	15313
2026-01-02 11:32:27.39	330.89	5.72	-44.7	-57.0	3.8	1.49e+00	0	58	104	1268776960	60	15274
2026-01-02 11:32:30.42	331.14	5.53	-44.7	-57.0	3.8	1.49e+00	0	57	104	1268776960	60	15303
2026-01-02 11:32:33.45	331.40	5.35	-44.7	-57.0	3.8	1.49e+00	0	58	104	1268776960	60	15316
2026-01-02 11:32:36.49	331.64	5.16	-44.7	-57.0	3.8	1.49e+00	0	57	104	1268776960	60	15272
2026-01-02 11:32:39.52	331.89	4.98	-44.7	-57.0	3.8	1.49e+00	0	58	104	1268776960	60	15297
2026-01-02 11:32:42.55	332.13	4.80	-44.7	-57.0	3.8	1.49e+00	0	58	104	1268776960	60	15278
2026-01-02 11:32:45.59	332.37	4.62	-44.6	-57.0	3.8	1.49e+00	0	58	104	1268776960	60	15243
2026-01-02 11:32:48.62	332.61	4.44	-44.7	-57.0	3.8	1.49e+00	0	58	104	1268776960	60	15290
2026-01-02 11:32:51.65	332.84	4.26	-44.7	-57.0	3.8	1.49e+00	0	58	104	1268776960	60	15268
2026-01-02 11:32:54.69	333.07	4.08	-44.7	-57.0	3.8	1.49e+00	0	58	104	1268776960	60	15278
2026-01-02 11:32:57.72	333.30	3.90	-44.7	-57.0	3.8	1.49e+00	0	58	104	1268776960	60	15291
2026-01-02 11:33:00.75	333.52	3.73	-44.6	-57.0	3.8	1.49e+00	0	58	104	1268776960	60	15305
2026-01-02 11:33:03.79	333.75	3.55	-44.7	-57.0	3.8	1.49e+00	0	58	104	1268776960	60	15270
2026-01-02 11:33:06.82	333.97	3.37	-44.7	-57.0	3.8	1.49e+00	0	58	104	1268776960	60	15303
2026-01-02 11:33:09.85	334.19	3.20	-44.7	-57.0	3.8	1.49e+00	0	58	104	1268776960	60	15264
2026-01-02 11:33:12.89	334.40	3.03	-44.7	-57.0	3.8	1.49e+00	0	58	104	1268776960	60	15250
2026-01-02 11:33:15.92	334.62	2.85	-44.5	-57.0	3.8	1.49e+00	0	58	104	1268776960	60	15226
2026-01-02 11:33:18.95	334.83	2.68	-44.5	-57.0	3.8	1.49e+00	0	58	104	1268776960	60	15291
2026-01-02 11:33:21.98	335.04	2.51	-44.7	-57.0	3.8	1.49e+00	0	58	104	1268776960	60	15267
2026-01-02 11:33:25.02	335.24	2.34	-44.6	-57.0	3.8	1.49e+00	0	57	104	1268776960	60	15253
2026-01-02 11:33:28.05	335.45	2.17	-44.7	-57.0	3.8	1.49e+00	0	58	104	1268776960	60	15279
2026-01-02 11:33:31.08	335.65	2.00	-44.6	-57.0	3.8	1.49e+00	0	57	104	1268776960	60	15262

#Closed at: 2026-01-02 11:33:32
#Recorded file [1268 MB]: D:/lorett/data/31039_260102_142416.dat