passes_logs/2026/01/02/R2.0S_Moscow/R2.0S_Moscow__20260102_084943_NOAA_20_JPSS-1_rec.log

#Pass ID: 20260102_084943_NOAA 20 (JPSS-1)
#Satellite: NOAA 20 (JPSS-1)
#Configuration: NOAA 20
#almurnet v.1.7.20251203
#Start time: 2026-01-02 08:49:43

#Version: 2.2.20231116
#Station: R2.0S_Moscow
#Location: 37.707566 lon 55.798166 lat
#TLE: 1 43013U 17073A   26001.30344297  .00000183  00000+0  10758-3 0  9995
#TLE: 2 43013  98.7621 302.3885 0001938  59.1624 300.9742 14.19532032420790

#Time	Az	El	Level	Level2	SNR	BER	BlckErr	Temp	State	Recorded	gain1	gain2
2026-01-02 08:49:43.66	128.83	2.01	-35.5	-50.4	4.0	1.50e+00	0	48	0	0	39	24020
2026-01-02 08:49:47.69	128.65	2.25	-38.0	-55.5	4.3	1.50e+00	0	48	104	0	46	28837
2026-01-02 08:49:51.74	128.46	2.50	-38.6	-56.1	3.5	1.50e+00	0	49	104	0	47	29307
2026-01-02 08:49:55.78	128.27	2.75	-37.6	-55.9	3.9	1.50e+00	0	49	104	0	51	22549
2026-01-02 08:49:59.83	128.08	3.01	-39.7	-55.0	4.0	1.50e+00	0	49	104	0	48	24363
2026-01-02 08:50:03.87	127.89	3.26	-32.7	-50.8	4.2	1.50e+00	0	49	104	0	43	19894
2026-01-02 08:50:07.91	127.69	3.52	-41.3	-54.9	4.2	1.50e+00	0	50	104	0	48	24007
2026-01-02 08:50:11.96	127.49	3.78	-41.7	-56.0	3.8	1.49e+00	0	50	104	0	54	19232
2026-01-02 08:50:16.00	127.28	4.04	-39.0	-54.1	3.9	1.50e+00	0	50	104	0	51	18314
2026-01-02 08:50:20.05	127.07	4.30	-31.6	-47.3	4.2	1.50e+00	0	50	104	0	44	12540
2026-01-02 08:50:24.09	126.86	4.57	-41.3	-56.5	3.9	1.50e+00	0	50	104	0	53	21625
2026-01-02 08:50:28.13	126.64	4.84	-38.9	-53.6	4.3	1.49e+00	0	51	104	0	50	18364
2026-01-02 08:50:32.18	126.42	5.11	-31.1	-47.9	3.9	1.50e+00	0	51	104	0	41	16069
2026-01-02 08:50:36.22	126.19	5.38	-41.4	-55.7	4.0	1.49e+00	0	51	104	0	52	20852
2026-01-02 08:50:40.27	125.96	5.65	-40.4	-54.3	4.1	1.50e+00	0	51	104	0	41	33658
2026-01-02 08:50:44.31	125.73	5.93	-41.3	-56.3	4.1	1.51e+00	0	51	104	0	53	21153
2026-01-02 08:50:48.36	125.49	6.21	-41.4	-56.1	4.0	1.50e+00	0	52	104	0	54	19548
2026-01-02 08:50:52.40	125.24	6.49	-37.2	-54.1	4.2	1.50e+00	0	52	104	0	40	34762
2026-01-02 08:50:56.44	124.99	6.78	-34.4	-51.5	4.2	1.51e+00	0	52	104	0	37	30674
2026-01-02 08:51:00.48	124.74	7.07	-38.2	-54.6	3.6	1.50e+00	0	52	104	0	45	27529
2026-01-02 08:51:04.53	124.48	7.36	-37.9	-52.1	3.9	1.50e+00	0	52	104	0	51	14550
2026-01-02 08:51:08.57	124.21	7.65	-40.4	-50.3	4.7	9.25e-01	58	53	0	1048576	46	15816
2026-01-02 08:51:12.61	123.94	7.95	-35.9	-44.2	5.8	6.38e-01	15	53	0	5242880	40	11069
2026-01-02 08:51:16.65	123.66	8.25	-34.6	-42.1	10.3	1.43e+00	1	53	104	8388608	42	7730
2026-01-02 08:51:20.69	123.38	8.55	-36.8	-43.8	8.3	3.65e-01	0	53	0	13631488	45	7923
2026-01-02 08:51:24.73	123.09	8.85	-33.1	-41.7	8.2	4.08e-01	6	53	0	19922944	41	7833
2026-01-02 08:51:28.76	122.80	9.16	-39.4	-43.5	10.1	6.24e-02	3	53	0	27262976	49	6073
2026-01-02 08:51:32.80	122.49	9.47	-39.0	-44.3	10.1	4.55e-02	0	53	0	35651584	48	7104
2026-01-02 08:51:36.84	122.19	9.78	-36.0	-43.7	9.7	9.33e-02	4	54	0	42991616	46	7378
2026-01-02 08:51:40.87	121.87	10.10	-36.6	-44.8	9.9	2.74e-01	1	54	0	50331648	49	7081
2026-01-02 08:51:44.91	121.55	10.42	-35.7	-41.5	8.9	1.73e-01	7	54	0	57671680	42	7283
2026-01-02 08:51:48.96	121.22	10.75	-30.9	-41.1	7.5	1.24e-01	7	54	0	65011712	36	9793
2026-01-02 08:51:53.00	120.88	11.07	-34.1	-42.2	9.4	1.62e-01	3	54	0	72351744	42	7869
2026-01-02 08:51:57.03	120.53	11.40	-37.2	-41.9	11.3	3.49e-01	3	54	0	79691776	41	8060
2026-01-02 08:52:01.07	120.18	11.74	-36.7	-42.1	12.9	2.85e-02	0	54	0	87031808	47	5815
2026-01-02 08:52:05.11	119.82	12.07	-35.4	-42.0	12.2	8.04e-02	0	54	0	95420416	44	6843
2026-01-02 08:52:09.15	119.45	12.42	-36.5	-41.9	11.5	2.94e-02	0	54	0	102760448	45	6417
2026-01-02 08:52:13.19	119.07	12.76	-34.8	-41.4	12.3	3.81e-02	0	54	0	110100480	42	7176
2026-01-02 08:52:17.22	118.68	13.11	-37.8	-41.5	12.9	7.30e-02	0	55	0	117440512	45	6113
2026-01-02 08:52:21.26	118.28	13.46	-37.3	-42.0	12.5	4.51e-02	0	55	0	125829120	44	6806
2026-01-02 08:52:25.30	117.87	13.81	-34.4	-41.4	9.4	5.26e-02	0	55	0	133169152	39	8477
2026-01-02 08:52:29.34	117.46	14.17	-38.5	-41.8	14.3	9.68e-03	0	54	0	140509184	48	5338
2026-01-02 08:52:33.38	117.03	14.54	-37.6	-41.6	15.1	6.29e-03	0	55	0	147849216	48	5211
2026-01-02 08:52:37.42	116.59	14.90	-39.1	-41.9	14.8	3.32e-03	0	55	0	155189248	49	5097
2026-01-02 08:52:41.45	116.14	15.27	-39.0	-42.0	15.0	6.56e-04	0	55	0	163577856	49	5126
2026-01-02 08:52:45.49	115.67	15.65	-39.2	-42.0	15.2	3.13e-03	0	55	0	170917888	49	5150
2026-01-02 08:52:49.53	115.20	16.03	-39.6	-42.5	13.7	4.80e-03	0	55	0	178257920	49	5441
2026-01-02 08:52:53.57	114.71	16.41	-39.5	-42.3	15.0	1.51e-03	0	55	0	185597952	49	5281
2026-01-02 08:52:57.60	114.21	16.80	-39.5	-42.2	15.3	3.72e-04	0	55	0	193986560	49	5233
2026-01-02 08:53:01.64	113.70	17.19	-39.7	-42.4	15.2	6.80e-06	0	55	0	201326592	50	5074
2026-01-02 08:53:05.68	113.17	17.58	-39.9	-42.5	15.1	7.00e-07	0	55	0	208666624	50	5114
2026-01-02 08:53:09.71	112.63	17.98	-39.8	-42.3	15.4	0.00e+00	0	55	0	216006656	50	5001
2026-01-02 08:53:13.75	112.08	18.38	-39.6	-42.0	15.6	0.00e+00	0	56	0	223346688	50	4857
2026-01-02 08:53:17.79	111.51	18.78	-39.5	-41.9	15.7	0.00e+00	0	55	0	231735296	50	4804
2026-01-02 08:53:21.83	110.92	19.19	-39.7	-42.2	15.5	0.00e+00	0	55	0	239075328	50	4933
2026-01-02 08:53:25.86	110.32	19.60	-39.5	-41.9	15.9	0.00e+00	0	55	0	246415360	50	4761
2026-01-02 08:53:29.90	109.70	20.02	-39.3	-41.6	16.1	0.00e+00	0	55	0	253755392	50	4617
2026-01-02 08:53:33.94	109.06	20.44	-39.2	-41.5	16.2	0.00e+00	0	55	0	262144000	50	4556
2026-01-02 08:53:37.98	108.41	20.86	-38.9	-41.1	16.6	0.00e+00	0	56	0	269484032	49	4621
2026-01-02 08:53:42.02	107.73	21.29	-38.8	-40.9	16.8	0.00e+00	0	56	0	276824064	49	4545
2026-01-02 08:53:46.05	107.04	21.71	-39.1	-41.4	16.4	0.00e+00	0	55	0	284164096	49	4772
2026-01-02 08:53:50.09	106.33	22.14	-39.1	-41.3	16.4	0.00e+00	0	56	0	291504128	49	4733
2026-01-02 08:53:54.13	105.60	22.58	-39.2	-41.5	16.2	0.00e+00	0	56	0	299892736	49	4847
2026-01-02 08:53:58.17	104.84	23.01	-39.5	-41.9	15.9	0.00e+00	0	56	0	307232768	49	5057
2026-01-02 08:54:02.21	104.07	23.45	-39.8	-42.3	15.5	0.00e+00	0	56	0	314572800	50	4990
2026-01-02 08:54:06.24	103.27	23.89	-39.8	-42.3	15.6	0.00e+00	0	56	0	321912832	50	4987
2026-01-02 08:54:10.28	102.46	24.33	-39.7	-42.1	15.7	0.00e+00	0	56	0	330301440	50	4920
2026-01-02 08:54:14.32	101.61	24.77	-39.2	-42.0	15.6	6.22e-04	0	56	0	337641472	50	4860
2026-01-02 08:54:18.37	100.74	25.21	-39.2	-41.9	15.6	7.92e-03	0	56	0	344981504	49	5100
2026-01-02 08:54:22.40	99.85	25.65	-39.2	-41.6	15.9	7.80e-03	0	56	0	352321536	49	4874
2026-01-02 08:54:26.44	98.93	26.10	-39.3	-41.5	16.3	0.00e+00	0	56	0	359661568	49	4854
2026-01-02 08:54:30.48	97.99	26.54	-39.3	-41.6	16.3	0.00e+00	0	56	0	368050176	49	4903
2026-01-02 08:54:34.52	97.02	26.97	-39.1	-41.2	16.6	0.00e+00	0	56	0	375390208	49	4686
2026-01-02 08:54:38.56	96.02	27.41	-39.3	-41.6	16.3	0.00e+00	0	56	0	382730240	49	4875
2026-01-02 08:54:42.60	95.00	27.84	-39.4	-41.7	16.1	0.00e+00	0	56	0	390070272	49	4981
2026-01-02 08:54:46.63	93.95	28.27	-39.8	-42.3	15.6	0.00e+00	0	56	0	398458880	50	4995
2026-01-02 08:54:50.67	92.87	28.69	-40.4	-43.2	14.7	0.00e+00	0	56	0	405798912	51	5230
2026-01-02 08:54:54.71	91.76	29.11	-41.0	-44.2	13.6	7.60e-06	0	56	0	413138944	52	5558
2026-01-02 08:54:58.75	90.62	29.53	-41.3	-44.8	12.9	5.41e-05	0	56	0	420478976	53	5637
2026-01-02 08:55:02.79	89.45	29.93	-41.3	-44.8	13.0	4.19e-05	0	56	0	427819008	53	5602
2026-01-02 08:55:06.83	88.25	30.33	-41.8	-45.6	12.1	1.04e-04	0	56	0	436207616	54	5849
2026-01-02 08:55:10.87	87.02	30.72	-42.1	-46.3	11.4	1.38e-03	0	56	0	443547648	55	5976
2026-01-02 08:55:14.91	85.76	31.10	-41.5	-45.1	12.6	2.68e-04	0	56	0	450887680	55	5199
2026-01-02 08:55:18.95	84.48	31.47	-41.4	-44.8	12.9	1.15e-04	0	56	0	458227712	54	5336
2026-01-02 08:55:22.99	83.16	31.82	-41.7	-45.4	12.4	7.32e-05	0	56	0	466616320	54	5660
2026-01-02 08:55:27.03	81.82	32.16	-41.3	-44.6	13.2	4.88e-05	0	56	0	473956352	54	5197
2026-01-02 08:55:31.06	80.45	32.49	-40.9	-43.9	13.9	1.50e-06	0	57	0	481296384	53	5085
2026-01-02 08:55:35.10	79.05	32.80	-40.5	-43.2	14.6	7.00e-07	0	56	0	488636416	52	4976
2026-01-02 08:55:39.14	77.62	33.10	-40.4	-43.1	14.7	0.00e+00	0	56	0	495976448	52	4898
2026-01-02 08:55:43.18	76.17	33.37	-40.0	-42.6	15.3	7.00e-07	0	57	0	504365056	52	4605
2026-01-02 08:55:47.21	74.70	33.63	-39.9	-42.3	15.7	0.00e+00	0	56	0	511705088	51	4712
2026-01-02 08:55:51.25	73.20	33.87	-40.2	-42.8	15.2	0.00e+00	0	56	0	519045120	51	4993
2026-01-02 08:55:55.29	71.68	34.09	-39.6	-41.8	16.2	0.00e+00	0	56	0	526385152	51	4483
2026-01-02 08:55:59.33	70.14	34.28	-39.1	-41.2	16.8	0.00e+00	0	56	0	534773760	50	4408
2026-01-02 08:56:03.36	68.59	34.46	-39.4	-41.6	16.4	0.00e+00	0	56	0	542113792	50	4617
2026-01-02 08:56:07.40	67.01	34.61	-39.1	-41.1	16.9	0.00e+00	0	57	0	549453824	50	4390
2026-01-02 08:56:11.44	65.43	34.73	-39.6	-41.9	16.2	0.00e+00	0	57	0	556793856	50	4760
2026-01-02 08:56:15.47	63.84	34.83	-39.5	-41.7	16.3	0.00e+00	0	57	0	564133888	50	4664
2026-01-02 08:56:19.51	62.23	34.91	-39.4	-41.5	16.5	0.00e+00	0	57	0	572522496	50	4589
2026-01-02 08:56:23.55	60.62	34.96	-39.7	-42.0	16.1	0.00e+00	0	57	0	579862528	50	4818
2026-01-02 08:56:27.59	59.01	34.98	-39.5	-41.7	16.3	0.00e+00	0	57	0	587202560	50	4661
2026-01-02 08:56:31.63	57.39	34.98	-39.9	-42.4	15.7	0.00e+00	0	57	0	594542592	50	5045
2026-01-02 08:56:35.67	55.78	34.95	-40.2	-42.8	15.3	0.00e+00	0	57	0	602931200	51	5006
2026-01-02 08:56:39.71	54.17	34.90	-40.4	-43.1	14.9	0.00e+00	0	57	0	610271232	51	5204
2026-01-02 08:56:43.75	52.57	34.82	-40.7	-43.6	14.4	1.50e-06	0	57	0	617611264	52	5178
2026-01-02 08:56:47.78	50.98	34.72	-40.6	-43.5	14.4	1.50e-06	0	56	0	624951296	52	5109
2026-01-02 08:56:51.82	49.39	34.59	-40.9	-43.8	14.2	0.00e+00	0	57	0	632291328	52	5329
2026-01-02 08:56:55.86	47.82	34.44	-40.9	-43.9	14.0	5.30e-06	0	57	0	640679936	53	5091
2026-01-02 08:56:59.90	46.27	34.26	-40.7	-43.6	14.4	1.50e-06	0	57	0	648019968	53	4884
2026-01-02 08:57:03.94	44.74	34.07	-40.7	-43.6	14.4	7.00e-07	0	57	0	655360000	53	4875
2026-01-02 08:57:07.97	43.23	33.85	-40.5	-43.2	14.8	0.00e+00	0	57	0	662700032	52	4953
2026-01-02 08:57:12.02	41.73	33.61	-40.2	-42.8	15.1	7.00e-07	0	57	0	671088640	52	4738
2026-01-02 08:57:16.06	40.26	33.35	-40.2	-42.8	15.2	0.00e+00	0	57	0	678428672	51	5013
2026-01-02 08:57:20.09	38.82	33.07	-40.7	-43.5	14.4	2.20e-06	0	57	0	685768704	52	5133
2026-01-02 08:57:24.13	37.40	32.77	-41.1	-44.3	13.7	3.80e-06	0	57	0	693108736	52	5595
2026-01-02 08:57:28.17	36.00	32.46	-40.9	-43.9	14.1	2.20e-06	0	57	0	700448768	52	5347
2026-01-02 08:57:32.22	34.63	32.13	-41.1	-44.2	13.7	9.90e-06	0	57	0	708837376	53	5264
2026-01-02 08:57:36.25	33.30	31.79	-41.1	-44.3	13.7	3.00e-06	0	57	0	716177408	53	5289
2026-01-02 08:57:40.29	31.99	31.44	-41.2	-44.3	13.6	1.14e-05	0	57	0	723517440	53	5337
2026-01-02 08:57:44.33	30.71	31.07	-40.8	-43.8	14.2	7.00e-07	0	57	0	730857472	53	4998
2026-01-02 08:57:48.37	29.46	30.69	-40.8	-43.7	14.2	2.20e-06	0	57	0	739246080	53	4963
2026-01-02 08:57:52.41	28.24	30.30	-40.8	-43.8	14.2	1.50e-06	0	57	0	746586112	53	5007
2026-01-02 08:57:56.45	27.05	29.90	-40.8	-43.7	14.2	1.50e-06	0	57	0	753926144	53	4959
2026-01-02 08:58:00.49	25.89	29.50	-40.8	-43.8	14.1	2.20e-06	0	57	0	761266176	53	5015
2026-01-02 08:58:04.52	24.76	29.09	-40.6	-43.4	14.5	0.00e+00	0	57	0	768606208	53	4794
2026-01-02 08:58:08.56	23.66	28.67	-40.4	-43.1	14.8	0.00e+00	0	57	0	776994816	52	4912
2026-01-02 08:58:12.60	22.58	28.25	-39.9	-42.4	15.6	0.00e+00	0	57	0	784334848	51	4783
2026-01-02 08:58:16.64	21.54	27.82	-39.3	-41.4	16.5	0.00e+00	0	57	0	791674880	50	4541
2026-01-02 08:58:20.67	20.52	27.39	-38.9	-40.9	17.0	0.00e+00	0	57	0	799014912	49	4532
2026-01-02 08:58:24.71	19.53	26.95	-38.5	-40.5	17.5	0.00e+00	0	57	0	806354944	49	4311
2026-01-02 08:58:28.75	18.57	26.52	-38.5	-40.4	17.5	0.00e+00	0	57	0	814743552	48	4533
2026-01-02 08:58:32.80	17.63	26.08	-38.3	-40.3	17.7	0.00e+00	0	57	0	822083584	48	4444
2026-01-02 08:58:36.83	16.72	25.64	-38.2	-40.0	17.9	0.00e+00	0	57	0	829423616	48	4337
2026-01-02 08:58:40.87	15.84	25.20	-37.9	-39.7	18.2	0.00e+00	0	57	0	836763648	47	4396
2026-01-02 08:58:44.91	14.98	24.76	-38.1	-39.9	17.9	0.00e+00	0	57	0	845152256	47	4530
2026-01-02 08:58:48.96	14.14	24.32	-38.5	-40.5	17.4	0.00e+00	0	57	0	852492288	47	4826
2026-01-02 08:58:52.99	13.33	23.89	-38.5	-40.5	17.3	0.00e+00	0	57	0	859832320	47	4864
2026-01-02 08:58:57.04	12.54	23.45	-38.8	-40.9	17.0	0.00e+00	0	57	0	867172352	48	4781
2026-01-02 08:59:01.07	11.77	23.01	-38.9	-41.1	16.9	0.00e+00	0	57	0	875560960	48	4872
2026-01-02 08:59:05.11	11.02	22.58	-39.0	-41.1	16.9	0.00e+00	0	57	0	882900992	48	4886
2026-01-02 08:59:09.15	10.30	22.15	-38.9	-41.0	16.9	0.00e+00	0	57	0	890241024	48	4852
2026-01-02 08:59:13.17	9.59	21.72	-39.0	-41.1	16.7	0.00e+00	0	57	0	897581056	48	4914
2026-01-02 08:59:17.21	8.91	21.30	-39.3	-41.5	16.4	0.00e+00	0	57	0	904921088	49	4841
2026-01-02 08:59:21.25	8.24	20.87	-39.4	-41.7	16.1	0.00e+00	0	57	0	913309696	49	4983
2026-01-02 08:59:25.29	7.59	20.45	-39.6	-42.0	15.8	0.00e+00	0	57	0	920649728	49	5148
2026-01-02 08:59:29.33	6.96	20.04	-39.8	-42.3	15.6	0.00e+00	0	57	0	927989760	50	5006
2026-01-02 08:59:33.37	6.35	19.62	-39.6	-42.0	15.8	0.00e+00	0	57	0	935329792	50	4850
2026-01-02 08:59:37.40	5.75	19.21	-39.6	-42.0	15.8	0.00e+00	0	57	0	942669824	50	4827
2026-01-02 08:59:41.44	5.17	18.81	-39.8	-42.3	15.4	0.00e+00	0	57	0	951058432	50	5038
2026-01-02 08:59:45.48	4.61	18.40	-40.0	-42.6	15.1	0.00e+00	0	57	0	958398464	50	5194
2026-01-02 08:59:49.52	4.05	18.00	-39.9	-42.5	15.2	0.00e+00	0	57	0	965738496	50	5129
2026-01-02 08:59:53.56	3.52	17.61	-39.8	-42.4	15.3	0.00e+00	0	57	0	973078528	50	5047
2026-01-02 08:59:57.60	3.00	17.22	-39.8	-42.3	15.3	7.00e-07	0	57	0	981467136	50	5014
2026-01-02 09:00:01.64	2.49	16.83	-39.7	-42.3	15.2	0.00e+00	0	57	0	988807168	50	4998
2026-01-02 09:00:05.68	1.99	16.44	-39.8	-42.5	15.0	0.00e+00	0	57	0	996147200	50	5121
2026-01-02 09:00:09.72	1.51	16.06	-39.9	-42.6	14.8	0.00e+00	0	57	0	1003487232	50	5203
2026-01-02 09:00:13.76	1.04	15.69	-39.9	-42.6	14.8	0.00e+00	0	57	0	1010827264	50	5181
2026-01-02 09:00:17.80	0.59	15.31	-39.8	-42.5	14.9	7.00e-07	0	57	0	1019215872	50	5141
2026-01-02 09:00:21.84	0.14	14.95	-39.8	-42.6	14.7	0.00e+00	0	57	0	1026555904	50	5201
2026-01-02 09:00:25.87	359.71	14.58	-39.8	-42.6	14.6	7.00e-07	0	57	0	1033895936	50	5196
2026-01-02 09:00:29.91	359.28	14.22	-39.5	-42.3	14.7	0.00e+00	0	57	0	1041235968	50	5009
2026-01-02 09:00:33.95	358.87	13.86	-39.4	-42.6	13.8	2.20e-06	0	57	0	1049624576	50	5207
2026-01-02 09:00:37.99	358.47	13.51	-39.9	-44.0	11.8	2.85e-04	0	57	0	1056964608	50	6125
2026-01-02 09:00:42.02	358.07	13.16	-40.2	-45.4	9.9	8.26e-03	0	57	0	1064304640	51	6784
2026-01-02 09:00:46.06	357.69	12.81	-40.3	-46.0	9.0	1.74e-02	0	57	0	1071644672	51	7270
2026-01-02 09:00:50.10	357.31	12.47	-39.5	-46.2	8.0	6.41e-02	0	57	0	1078984704	51	7426
2026-01-02 09:00:54.14	356.95	12.13	-39.6	-48.3	5.8	2.97e-01	0	57	0	1087373312	50	10051
2026-01-02 09:00:58.17	356.59	11.80	-39.7	-52.0	3.9	1.44e+00	0	57	104	1091567616	50	15382
2026-01-02 09:01:02.21	356.24	11.46	-39.5	-53.8	3.8	1.49e+00	0	57	104	1091567616	50	18842
2026-01-02 09:01:06.25	355.90	11.13	-39.4	-54.1	3.8	1.49e+00	0	57	104	1091567616	50	19435
2026-01-02 09:01:10.29	355.57	10.81	-39.5	-54.3	3.8	1.49e+00	0	57	104	1091567616	49	21070
2026-01-02 09:01:14.32	355.25	10.49	-39.5	-54.1	3.8	1.49e+00	0	57	104	1091567616	49	20689
2026-01-02 09:01:18.36	354.93	10.17	-39.5	-54.2	3.8	1.49e+00	0	57	104	1091567616	49	20887
2026-01-02 09:01:22.40	354.62	9.85	-39.5	-54.2	3.8	1.49e+00	0	57	104	1091567616	49	20827
2026-01-02 09:01:26.43	354.31	9.54	-39.5	-54.2	3.8	1.49e+00	0	57	104	1091567616	50	19711
2026-01-02 09:01:30.47	354.02	9.23	-39.7	-54.3	3.8	1.49e+00	0	57	104	1091567616	50	20064
2026-01-02 09:01:34.52	353.72	8.92	-39.8	-54.5	3.8	1.49e+00	0	57	104	1091567616	50	20345
2026-01-02 09:01:38.56	353.44	8.62	-40.0	-54.6	3.8	1.49e+00	0	57	104	1091567616	50	20572
2026-01-02 09:01:42.59	353.16	8.32	-40.0	-54.6	3.8	1.49e+00	0	57	104	1091567616	50	20698
2026-01-02 09:01:46.63	352.89	8.02	-40.3	-54.9	3.8	1.49e+00	0	57	104	1091567616	51	20204
2026-01-02 09:01:50.67	352.63	7.73	-44.8	-59.3	3.8	1.49e+00	0	58	104	1091567616	60	20042
2026-01-02 09:01:54.72	352.36	7.44	-45.0	-59.6	3.8	1.49e+00	0	57	104	1091567616	60	20679
2026-01-02 09:01:58.76	352.11	7.15	-44.9	-59.5	3.8	1.49e+00	0	57	104	1091567616	60	20374
2026-01-02 09:02:02.81	351.86	6.86	-44.8	-59.3	3.8	1.49e+00	0	57	104	1091567616	60	20036
2026-01-02 09:02:06.86	351.61	6.58	-44.7	-59.3	3.8	1.49e+00	0	57	104	1091567616	60	19928
2026-01-02 09:02:10.90	351.37	6.29	-44.7	-59.3	3.8	1.49e+00	0	57	104	1091567616	60	19974
2026-01-02 09:02:14.94	351.14	6.01	-44.7	-59.3	3.8	1.49e+00	0	57	104	1091567616	60	19936
2026-01-02 09:02:18.99	350.91	5.74	-44.7	-59.3	3.8	1.49e+00	0	57	104	1091567616	60	19852
2026-01-02 09:02:23.03	350.68	5.46	-44.7	-59.3	3.8	1.49e+00	0	57	104	1091567616	60	19929
2026-01-02 09:02:27.08	350.46	5.19	-44.7	-59.2	3.8	1.49e+00	0	58	104	1091567616	60	19830
2026-01-02 09:02:31.12	350.24	4.92	-44.7	-59.2	3.8	1.49e+00	0	57	104	1091567616	60	19766
2026-01-02 09:02:35.16	350.03	4.66	-44.7	-59.2	3.8	1.49e+00	0	57	104	1091567616	60	19755
2026-01-02 09:02:39.21	349.82	4.39	-44.7	-59.2	3.8	1.49e+00	0	57	104	1091567616	60	19724
2026-01-02 09:02:43.25	349.62	4.13	-44.7	-59.2	3.8	1.49e+00	0	57	104	1091567616	60	19762
2026-01-02 09:02:47.29	349.42	3.87	-44.7	-59.2	3.8	1.49e+00	0	57	104	1091567616	60	19798
2026-01-02 09:02:51.34	349.22	3.61	-44.7	-59.2	3.8	1.49e+00	0	57	104	1091567616	60	19747
2026-01-02 09:02:55.38	349.03	3.35	-44.7	-59.2	3.8	1.49e+00	0	57	104	1091567616	60	19799
2026-01-02 09:02:59.42	348.84	3.10	-44.7	-59.2	3.8	1.49e+00	0	57	104	1091567616	60	19715
2026-01-02 09:03:03.47	348.65	2.85	-44.7	-59.2	3.8	1.49e+00	0	57	104	1091567616	60	19686
2026-01-02 09:03:07.51	348.47	2.60	-44.7	-59.2	3.8	1.49e+00	0	57	104	1091567616	60	19740
2026-01-02 09:03:11.56	348.29	2.35	-44.7	-59.2	3.8	1.49e+00	0	57	104	1091567616	60	19706
2026-01-02 09:03:15.60	348.12	2.10	-44.6	-59.2	3.8	1.49e+00	0	57	104	1091567616	60	19746

#Closed at: 2026-01-02 09:03:19
#Recorded file [1091 MB]: D:/lorett/data/31039_260102_114943.dat