passes_logs/2026/01/02/R2.0S_Moscow/R2.0S_Moscow__20260102_044013_FENGYUN_3G_rec.log

#Pass ID: 20260102_044013_FENGYUN 3G
#Satellite: FENGYUN 3G
#Configuration: FENGYUN 3G
#almurnet v.1.7.20251203
#Start time: 2026-01-02 04:40:15

#Version: 2.2.20231116
#Station: R2.0S_Moscow
#Location: 37.707566 lon 55.798166 lat
#TLE: 1 56232U 23055A   26001.34523675  .00043393  00000+0  69485-3 0  9993
#TLE: 2 56232  49.9927 126.3392 0004120 323.4974  36.5712 15.52620654154072

#Time	Az	El	Level	Level2	SNR	BER	BlckErr	Temp	State	Recorded	gain1	gain2
2026-01-02 04:40:15.29	250.55	2.12	-44.0	-62.1	3.8	8.46e-01	0	47	0	0	59	29158
2026-01-02 04:40:18.32	250.37	2.32	-44.0	-62.2	3.8	8.46e-01	0	48	104	0	59	29368
2026-01-02 04:40:21.36	250.18	2.53	-44.0	-62.1	3.8	8.47e-01	0	48	104	0	59	29332
2026-01-02 04:40:24.39	249.99	2.73	-44.0	-62.1	3.8	8.47e-01	0	48	104	0	59	29340
2026-01-02 04:40:27.42	249.79	2.94	-44.0	-62.1	3.8	8.46e-01	0	48	104	0	59	29084
2026-01-02 04:40:30.46	249.59	3.15	-44.0	-62.0	3.8	8.46e-01	0	49	104	0	59	28717
2026-01-02 04:40:33.49	249.39	3.36	-44.0	-61.8	3.8	8.46e-01	0	49	104	0	59	28242
2026-01-02 04:40:36.52	249.18	3.57	-44.0	-61.8	3.8	8.46e-01	0	49	104	0	59	28032
2026-01-02 04:40:39.56	248.96	3.78	-44.0	-61.8	3.8	8.46e-01	0	49	104	0	59	28263
2026-01-02 04:40:42.59	248.75	4.00	-44.0	-62.0	3.8	8.46e-01	0	49	104	0	59	28885
2026-01-02 04:40:45.62	248.52	4.22	-44.0	-62.1	3.8	8.45e-01	0	49	104	0	59	29277
2026-01-02 04:40:48.65	248.29	4.44	-44.0	-62.1	3.8	8.47e-01	0	50	104	0	59	29205
2026-01-02 04:40:51.69	248.06	4.67	-44.0	-62.0	3.8	8.46e-01	0	50	104	0	59	28992
2026-01-02 04:40:54.72	247.82	4.89	-44.0	-61.7	3.8	8.45e-01	0	50	104	0	59	27964
2026-01-02 04:40:57.75	247.58	5.12	-44.0	-61.2	3.8	8.47e-01	0	50	104	0	59	26197
2026-01-02 04:41:00.79	247.33	5.36	-44.0	-61.4	3.8	8.46e-01	0	50	104	0	59	26951
2026-01-02 04:41:03.82	247.07	5.59	-44.0	-62.0	3.8	8.46e-01	0	50	104	0	59	28868
2026-01-02 04:41:06.85	246.81	5.83	-44.0	-61.8	3.8	8.46e-01	0	50	104	0	59	28317
2026-01-02 04:41:09.89	246.54	6.07	-43.9	-60.6	3.8	8.45e-01	0	51	104	0	59	24467
2026-01-02 04:41:12.92	246.27	6.31	-43.9	-58.6	4.2	8.44e-01	0	51	0	0	59	19517
2026-01-02 04:41:15.95	245.99	6.56	-43.8	-57.3	4.6	8.25e-01	0	51	0	0	59	16871
2026-01-02 04:41:18.99	245.70	6.81	-44.0	-60.7	3.8	8.37e-01	0	51	104	0	59	24694
2026-01-02 04:41:22.02	245.41	7.06	-43.5	-54.1	6.7	8.41e-01	0	51	0	0	59	11581
2026-01-02 04:41:25.05	245.10	7.32	-41.4	-45.9	15.0	1.74e-02	0	51	0	3670016	54	6054
2026-01-02 04:41:28.08	244.79	7.58	-39.5	-42.5	18.5	0.00e+00	0	52	0	6815744	51	4840
2026-01-02 04:41:31.12	244.48	7.84	-38.2	-40.6	20.4	0.00e+00	0	52	0	10485760	48	4628
2026-01-02 04:41:34.15	244.15	8.11	-37.7	-39.9	21.1	0.00e+00	0	52	0	14155776	46	4804
2026-01-02 04:41:37.18	243.82	8.37	-38.1	-40.5	20.5	0.00e+00	0	52	0	17301504	47	4832
2026-01-02 04:41:40.21	243.47	8.65	-38.0	-40.3	20.7	0.00e+00	0	52	0	20447232	47	4735
2026-01-02 04:41:43.23	243.12	8.92	-38.1	-40.5	20.5	0.00e+00	0	52	0	24117248	47	4834
2026-01-02 04:41:46.26	242.76	9.20	-37.5	-39.6	21.5	0.00e+00	0	52	0	27262976	46	4620
2026-01-02 04:41:49.29	242.39	9.49	-37.2	-39.3	21.8	0.00e+00	0	52	0	30932992	46	4451
2026-01-02 04:41:52.32	242.01	9.78	-37.4	-39.5	21.7	0.00e+00	0	52	0	34078720	45	4827
2026-01-02 04:41:55.35	241.62	10.07	-37.3	-39.4	21.8	0.00e+00	0	52	0	37748736	45	4777
2026-01-02 04:41:58.38	241.22	10.37	-36.5	-38.4	22.7	0.00e+00	0	52	0	40894464	45	4290
2026-01-02 04:42:01.40	240.80	10.67	-35.9	-37.7	23.3	0.00e+00	0	52	0	44564480	43	4428
2026-01-02 04:42:04.43	240.38	10.97	-35.8	-37.6	23.4	0.00e+00	0	53	0	47710208	43	4374
2026-01-02 04:42:07.46	239.94	11.28	-36.1	-38.0	23.1	0.00e+00	0	53	0	51380224	43	4569
2026-01-02 04:42:10.49	239.49	11.60	-36.2	-38.0	23.1	0.00e+00	0	53	0	54525952	43	4585
2026-01-02 04:42:13.52	239.03	11.92	-36.2	-38.1	23.0	0.00e+00	0	53	0	58195968	43	4612
2026-01-02 04:42:16.54	238.55	12.24	-36.0	-37.8	23.2	0.00e+00	0	53	0	61341696	43	4493
2026-01-02 04:42:19.57	238.06	12.57	-35.4	-37.1	23.8	0.00e+00	0	53	0	65011712	42	4381
2026-01-02 04:42:22.60	237.56	12.90	-35.1	-36.7	24.3	0.00e+00	0	53	0	68157440	42	4178
2026-01-02 04:42:25.63	237.04	13.24	-35.6	-37.3	23.8	0.00e+00	0	53	0	71827456	42	4451
2026-01-02 04:42:28.66	236.50	13.58	-35.4	-37.1	24.0	0.00e+00	0	53	0	74973184	42	4354
2026-01-02 04:42:31.69	235.95	13.93	-35.0	-36.7	24.4	0.00e+00	0	53	0	78643200	42	4152
2026-01-02 04:42:34.72	235.38	14.28	-35.1	-36.8	24.3	0.00e+00	0	53	0	81788928	41	4472
2026-01-02 04:42:37.75	234.79	14.64	-35.4	-37.1	24.0	0.00e+00	0	53	0	85458944	41	4641
2026-01-02 04:42:40.78	234.18	15.01	-35.0	-36.6	24.5	0.00e+00	0	54	0	88604672	41	4383
2026-01-02 04:42:43.80	233.56	15.37	-34.8	-36.4	24.8	0.00e+00	0	53	0	92274688	41	4252
2026-01-02 04:42:46.83	232.91	15.75	-35.0	-36.7	24.4	0.00e+00	0	54	0	95420416	41	4421
2026-01-02 04:42:49.86	232.25	16.13	-34.5	-36.1	25.0	0.00e+00	0	54	0	99090432	41	4133
2026-01-02 04:42:52.89	231.56	16.51	-33.9	-35.3	25.8	0.00e+00	0	54	0	102236160	39	4233
2026-01-02 04:42:55.92	230.84	16.90	-34.1	-35.6	25.6	0.00e+00	0	54	0	105906176	39	4371
2026-01-02 04:42:58.95	230.11	17.30	-33.6	-35.0	26.1	0.00e+00	0	54	0	109051904	39	4093
2026-01-02 04:43:01.98	229.35	17.70	-33.8	-35.3	25.9	0.00e+00	0	54	0	112721920	39	4216
2026-01-02 04:43:05.01	228.57	18.10	-33.7	-35.1	26.1	0.00e+00	0	54	0	115867648	39	4127
2026-01-02 04:43:08.04	227.75	18.51	-33.7	-35.2	25.9	0.00e+00	0	54	0	119537664	39	4162
2026-01-02 04:43:11.06	226.92	18.92	-33.6	-35.1	26.1	0.00e+00	0	54	0	122683392	39	4099
2026-01-02 04:43:14.10	226.05	19.34	-33.6	-35.0	26.2	0.00e+00	0	54	0	126353408	39	4076
2026-01-02 04:43:17.12	225.15	19.76	-33.6	-35.0	26.2	0.00e+00	0	54	0	129499136	39	4085
2026-01-02 04:43:20.16	224.22	20.18	-33.6	-35.1	26.2	0.00e+00	0	54	0	133169152	39	4099
2026-01-02 04:43:23.19	223.27	20.61	-33.4	-34.8	26.5	0.00e+00	0	54	0	136314880	38	4209
2026-01-02 04:43:26.21	222.28	21.04	-33.3	-34.8	26.5	0.00e+00	0	54	0	139984896	38	4199
2026-01-02 04:43:29.24	221.25	21.47	-33.2	-34.6	26.6	0.00e+00	0	54	0	143130624	38	4142
2026-01-02 04:43:32.27	220.19	21.90	-33.5	-35.0	26.3	0.00e+00	0	54	0	146800640	38	4302
2026-01-02 04:43:35.30	219.10	22.34	-32.9	-34.3	27.0	0.00e+00	0	54	0	149946368	37	4206
2026-01-02 04:43:38.33	217.97	22.77	-32.6	-33.9	27.2	0.00e+00	0	54	0	153616384	37	4051
2026-01-02 04:43:41.36	216.80	23.20	-32.7	-34.1	27.1	0.00e+00	0	55	0	156762112	37	4114
2026-01-02 04:43:44.39	215.59	23.63	-32.7	-34.1	27.1	0.00e+00	0	54	0	160432128	37	4126
2026-01-02 04:43:47.42	214.34	24.06	-32.5	-33.8	27.5	0.00e+00	0	55	0	163577856	36	4213
2026-01-02 04:43:50.44	213.06	24.48	-32.4	-33.8	27.5	0.00e+00	0	55	0	167247872	36	4196
2026-01-02 04:43:53.47	211.73	24.90	-32.3	-33.6	27.6	0.00e+00	0	55	0	170393600	36	4138
2026-01-02 04:43:56.50	210.36	25.31	-32.2	-33.6	27.7	0.00e+00	0	55	0	174063616	36	4109
2026-01-02 04:43:59.53	208.95	25.72	-32.4	-33.8	27.4	0.00e+00	0	55	0	177209344	36	4196
2026-01-02 04:44:02.56	207.50	26.11	-32.4	-33.7	27.5	0.00e+00	0	55	0	180879360	36	4189
2026-01-02 04:44:05.59	206.01	26.49	-32.3	-33.6	27.6	0.00e+00	0	55	0	184025088	36	4126
2026-01-02 04:44:08.62	204.48	26.86	-32.1	-33.4	27.7	0.00e+00	0	55	0	187695104	36	4028
2026-01-02 04:44:11.65	202.90	27.22	-32.0	-33.4	27.3	0.00e+00	0	55	0	190840832	34	4514
2026-01-02 04:44:14.68	201.29	27.56	-32.0	-33.4	27.2	0.00e+00	0	55	0	194510848	34	4519
2026-01-02 04:44:17.71	199.64	27.88	-31.6	-33.0	27.6	0.00e+00	0	55	0	197656576	34	4309
2026-01-02 04:44:20.73	197.95	28.18	-31.8	-33.1	27.5	0.00e+00	0	55	0	201326592	34	4372
2026-01-02 04:44:23.76	196.23	28.46	-31.4	-32.7	27.9	0.00e+00	0	55	0	204472320	34	4182
2026-01-02 04:44:26.79	194.48	28.72	-31.6	-33.0	27.6	0.00e+00	0	55	0	208142336	34	4307
2026-01-02 04:44:29.82	192.69	28.95	-31.8	-33.2	27.5	0.00e+00	0	55	0	211288064	34	4393
2026-01-02 04:44:32.85	190.88	29.15	-31.9	-33.3	27.4	0.00e+00	0	55	0	214958080	34	4450
2026-01-02 04:44:35.87	189.04	29.33	-31.4	-32.7	27.9	0.00e+00	0	55	0	218103808	34	4164
2026-01-02 04:44:38.90	187.18	29.48	-31.7	-33.1	27.5	0.00e+00	0	55	0	221773824	34	4357
2026-01-02 04:44:41.93	185.31	29.60	-31.1	-32.4	28.1	0.00e+00	0	55	0	224919552	34	4045
2026-01-02 04:44:44.96	183.42	29.69	-31.3	-32.6	27.9	0.00e+00	0	55	0	228589568	34	4142
2026-01-02 04:44:47.99	181.52	29.75	-31.0	-32.3	28.2	0.00e+00	0	55	0	231735296	33	4214
2026-01-02 04:44:51.02	179.61	29.78	-31.5	-32.8	27.8	0.00e+00	0	55	0	235405312	33	4454
2026-01-02 04:44:54.04	177.71	29.77	-31.5	-32.8	27.8	0.00e+00	0	55	0	238551040	33	4481
2026-01-02 04:44:57.07	175.81	29.73	-31.9	-33.2	27.4	0.00e+00	0	55	0	242221056	34	4430
2026-01-02 04:45:00.10	173.91	29.66	-31.5	-32.9	27.8	0.00e+00	0	55	0	245366784	34	4253
2026-01-02 04:45:03.13	172.03	29.56	-31.6	-33.0	27.6	0.00e+00	0	55	0	249036800	33	4553
2026-01-02 04:45:06.16	170.16	29.43	-31.8	-33.2	27.5	0.00e+00	0	55	0	252182528	34	4393
2026-01-02 04:45:09.19	168.31	29.27	-31.4	-32.8	27.8	0.00e+00	0	55	0	255852544	34	4203
2026-01-02 04:45:12.22	166.48	29.08	-31.5	-32.9	27.8	0.00e+00	0	55	0	258998272	34	4260
2026-01-02 04:45:15.25	164.67	28.86	-31.3	-32.6	28.1	0.00e+00	0	55	0	262668288	34	4130
2026-01-02 04:45:18.27	162.91	28.62	-31.6	-32.9	27.8	0.00e+00	0	56	0	265814016	34	4285
2026-01-02 04:45:21.30	161.16	28.36	-31.4	-32.7	27.9	0.00e+00	0	55	0	269484032	34	4174
2026-01-02 04:45:24.33	159.46	28.07	-32.2	-33.6	27.2	0.00e+00	0	55	0	272629760	34	4638
2026-01-02 04:45:27.36	157.78	27.76	-31.4	-32.7	28.0	0.00e+00	0	56	0	276299776	34	4166
2026-01-02 04:45:30.39	156.15	27.43	-32.0	-33.3	27.4	0.00e+00	0	55	0	279445504	34	4491
2026-01-02 04:45:33.42	154.55	27.08	-32.0	-33.4	27.4	0.00e+00	0	56	0	283115520	34	4507
2026-01-02 04:45:36.44	153.00	26.73	-31.8	-33.2	27.6	0.00e+00	0	56	0	286261248	34	4427
2026-01-02 04:45:39.47	151.48	26.35	-31.4	-32.8	27.9	0.00e+00	0	56	0	289931264	34	4197
2026-01-02 04:45:42.50	150.01	25.96	-31.8	-33.2	27.5	0.00e+00	0	56	0	293076992	34	4409
2026-01-02 04:45:45.53	148.57	25.57	-32.5	-34.0	26.7	0.00e+00	0	56	0	296747008	35	4556
2026-01-02 04:45:48.56	147.18	25.16	-31.4	-32.8	27.8	0.00e+00	0	55	0	299892736	34	4208
2026-01-02 04:45:51.59	145.83	24.75	-31.7	-33.0	27.6	0.00e+00	0	55	0	303562752	34	4334
2026-01-02 04:45:54.62	144.52	24.33	-31.9	-33.3	27.3	0.00e+00	0	56	0	306708480	34	4487
2026-01-02 04:45:57.64	143.25	23.91	-32.0	-33.4	27.2	0.00e+00	0	55	0	310378496	34	4539
2026-01-02 04:46:00.68	142.02	23.48	-31.6	-33.0	27.5	0.00e+00	0	56	0	313524224	34	4298
2026-01-02 04:46:03.70	140.83	23.05	-32.4	-33.8	26.8	0.00e+00	0	56	0	317194240	35	4478
2026-01-02 04:46:06.74	139.67	22.61	-32.0	-33.4	27.2	0.00e+00	0	56	0	320339968	35	4250
2026-01-02 04:46:09.76	138.56	22.18	-32.5	-34.0	26.6	0.00e+00	0	56	0	324009984	35	4559
2026-01-02 04:46:12.79	137.48	21.75	-32.2	-33.6	26.9	0.00e+00	0	56	0	327155712	35	4383
2026-01-02 04:46:15.82	136.43	21.32	-33.6	-35.1	26.1	0.00e+00	0	56	0	330825728	37	4631
2026-01-02 04:46:18.85	135.42	20.89	-33.4	-34.8	26.4	0.00e+00	0	55	0	333971456	38	4222
2026-01-02 04:46:21.87	134.45	20.46	-33.1	-34.5	26.6	0.00e+00	0	56	0	337641472	37	4310
2026-01-02 04:46:24.90	133.50	20.04	-33.6	-35.1	26.1	0.00e+00	0	56	0	340787200	37	4620
2026-01-02 04:46:27.93	132.59	19.61	-33.5	-34.9	26.2	0.00e+00	0	56	0	344457216	37	4534
2026-01-02 04:46:30.96	131.71	19.19	-33.7	-35.2	25.9	0.00e+00	0	56	0	347602944	37	4661
2026-01-02 04:46:33.99	130.85	18.78	-33.9	-35.3	24.4	0.00e+00	0	56	0	351272960	36	4985
2026-01-02 04:46:37.02	130.02	18.37	-33.8	-35.2	25.4	0.00e+00	0	56	0	354418688	38	4434
2026-01-02 04:46:40.05	129.22	17.96	-33.7	-35.2	25.8	0.00e+00	0	56	0	358088704	37	4652
2026-01-02 04:46:43.08	128.45	17.56	-33.9	-35.4	25.7	0.00e+00	0	56	0	361234432	38	4498
2026-01-02 04:46:46.11	127.70	17.16	-33.8	-35.3	25.7	0.00e+00	0	56	0	364904448	38	4482
2026-01-02 04:46:49.14	126.98	16.77	-34.3	-35.9	25.1	0.00e+00	0	56	0	368050176	39	4525
2026-01-02 04:46:52.17	126.27	16.38	-34.6	-36.2	24.8	0.00e+00	0	56	0	371720192	40	4400
2026-01-02 04:46:55.20	125.59	16.00	-34.0	-35.5	25.4	0.00e+00	0	56	0	374865920	38	4578
2026-01-02 04:46:58.22	124.94	15.63	-34.1	-35.7	25.2	0.00e+00	0	56	0	378535936	38	4667
2026-01-02 04:47:01.25	124.30	15.26	-34.9	-36.8	24.2	0.00e+00	0	56	0	381681664	40	4711
2026-01-02 04:47:04.28	123.68	14.89	-35.0	-36.9	23.9	0.00e+00	0	56	0	385351680	41	4533
2026-01-02 04:47:07.31	123.08	14.53	-34.2	-36.3	24.4	0.00e+00	0	56	0	388497408	39	4743
2026-01-02 04:47:10.34	122.50	14.17	-34.2	-36.7	23.9	0.00e+00	0	56	0	392167424	39	4929
2026-01-02 04:47:13.37	121.94	13.82	-34.4	-37.0	23.6	0.00e+00	0	56	0	395313152	40	4815
2026-01-02 04:47:16.40	121.39	13.47	-35.3	-37.3	23.2	0.00e+00	0	56	0	398983168	41	4732
2026-01-02 04:47:19.43	120.86	13.13	-35.2	-37.2	23.4	0.00e+00	0	56	0	402128896	41	4663
2026-01-02 04:47:22.46	120.35	12.80	-35.4	-37.6	22.5	4.28e-04	0	56	0	405798912	41	4910
2026-01-02 04:47:25.49	119.85	12.47	-31.5	-37.7	18.5	1.10e-06	0	56	0	408944640	37	6207
2026-01-02 04:47:28.52	119.37	12.14	-34.3	-37.7	21.4	1.10e-06	0	56	0	412614656	41	4954
2026-01-02 04:47:31.55	118.89	11.82	-34.1	-38.5	20.6	5.70e-06	0	56	0	415760384	41	5420
2026-01-02 04:47:34.57	118.44	11.50	-32.0	-37.9	19.7	1.05e-04	0	56	0	419430400	38	5994
2026-01-02 04:47:37.60	117.99	11.19	-30.5	-36.3	17.5	4.91e-04	0	56	0	422576128	32	7091
2026-01-02 04:47:40.63	117.56	10.88	-22.6	-39.4	12.1	2.65e-03	0	56	0	426246144	27	13538
2026-01-02 04:47:43.65	117.14	10.58	-22.6	-39.4	8.5	8.26e-02	0	56	0	429391872	19	21274
2026-01-02 04:47:46.69	116.73	10.28	-25.6	-41.0	7.5	3.00e-01	0	56	0	432013312	19	25720
2026-01-02 04:47:49.72	116.34	9.99	-23.8	-37.7	9.5	3.46e-01	0	56	0	434634752	19	17666
2026-01-02 04:47:52.74	115.95	9.70	-17.0	-37.7	7.2	2.49e-01	0	56	0	437780480	7	35067
2026-01-02 04:47:55.78	115.57	9.41	-22.5	-37.6	7.6	2.63e-01	0	56	0	440926208	15	21928
2026-01-02 04:47:58.80	115.21	9.13	-21.1	-37.0	8.4	3.06e-01	0	56	0	443547648	13	22930
2026-01-02 04:48:01.83	114.85	8.85	-21.0	-37.6	6.6	4.00e-01	0	56	0	445644800	9	30736
2026-01-02 04:48:04.86	114.50	8.57	-14.7	-37.3	6.0	4.09e-01	0	56	0	448266240	0	50097
2026-01-02 04:48:07.89	114.16	8.30	-21.1	-39.8	6.5	3.84e-01	0	56	0	450363392	11	35584
2026-01-02 04:48:10.92	113.83	8.03	-21.6	-41.4	5.6	5.98e-01	0	56	0	451936256	12	40110
2026-01-02 04:48:13.95	113.51	7.77	-44.7	-62.7	3.8	8.40e-01	0	56	104	451936256	59	31441
2026-01-02 04:48:16.98	113.20	7.51	-45.0	-63.2	3.8	8.45e-01	0	56	104	451936256	60	31140
2026-01-02 04:48:20.01	112.89	7.25	-45.2	-63.4	3.8	8.45e-01	0	56	104	451936256	61	30308
2026-01-02 04:48:23.04	112.59	7.00	-45.1	-63.3	3.8	8.46e-01	0	56	104	451936256	61	29966
2026-01-02 04:48:26.08	112.30	6.75	-44.9	-63.2	3.8	8.47e-01	0	56	104	451936256	61	29544
2026-01-02 04:48:29.11	112.02	6.50	-44.8	-63.1	3.8	8.45e-01	0	56	104	451936256	61	29193
2026-01-02 04:48:32.14	111.74	6.25	-44.8	-63.1	3.8	8.46e-01	0	56	104	451936256	61	29168
2026-01-02 04:48:35.17	111.47	6.01	-44.8	-63.1	3.8	8.46e-01	0	56	104	451936256	61	29260
2026-01-02 04:48:38.21	111.20	5.77	-44.8	-63.1	3.8	8.46e-01	0	56	104	451936256	61	29231
2026-01-02 04:48:41.24	110.94	5.54	-44.8	-63.1	3.8	8.46e-01	0	56	104	451936256	61	29168
2026-01-02 04:48:44.27	110.69	5.30	-44.8	-63.1	3.8	8.46e-01	0	56	104	451936256	61	29197
2026-01-02 04:48:47.31	110.44	5.07	-44.8	-63.1	3.8	8.46e-01	0	56	104	451936256	61	29100
2026-01-02 04:48:50.34	110.20	4.84	-44.8	-63.1	3.8	8.46e-01	0	56	104	451936256	60	30812
2026-01-02 04:48:53.37	109.96	4.62	-44.8	-63.1	3.8	8.46e-01	0	56	104	451936256	60	30862
2026-01-02 04:48:56.41	109.73	4.39	-44.8	-63.1	3.8	8.47e-01	0	56	104	451936256	60	30846
2026-01-02 04:48:59.44	109.51	4.17	-44.8	-63.1	3.8	8.46e-01	0	56	104	451936256	60	30830
2026-01-02 04:49:02.47	109.29	3.95	-44.8	-63.1	3.8	8.47e-01	0	56	104	451936256	60	30820
2026-01-02 04:49:05.50	109.07	3.74	-44.8	-63.1	3.8	8.46e-01	0	56	104	451936256	60	30813
2026-01-02 04:49:08.54	108.86	3.52	-44.8	-63.1	3.8	8.45e-01	0	56	104	451936256	60	30815
2026-01-02 04:49:11.57	108.65	3.31	-44.8	-63.1	3.8	8.46e-01	0	56	104	451936256	60	30800
2026-01-02 04:49:14.60	108.45	3.10	-44.8	-63.1	3.8	8.45e-01	0	56	104	451936256	60	30911
2026-01-02 04:49:17.64	108.25	2.89	-44.8	-63.1	3.8	8.47e-01	0	56	104	451936256	60	30796
2026-01-02 04:49:20.67	108.05	2.69	-44.8	-63.1	3.8	8.47e-01	0	56	104	451936256	60	30754
2026-01-02 04:49:23.70	107.86	2.49	-44.8	-63.1	3.8	8.46e-01	0	57	104	451936256	60	30796
2026-01-02 04:49:26.73	107.68	2.28	-44.8	-63.0	3.8	8.46e-01	0	56	104	451936256	60	30692
2026-01-02 04:49:29.77	107.49	2.08	-44.8	-63.1	3.8	8.46e-01	0	56	104	451936256	60	30783

#Closed at: 2026-01-02 04:49:32
#Recorded file [451 MB]: D:/lorett/data/31039_260102_074015.dat