passes_logs/2026/01/02/R2.0S_Moscow/R2.0S_Moscow__20260102_012858_NOAA_21_JPSS-2_rec.log

#Pass ID: 20260102_012858_NOAA 21 (JPSS-2)
#Satellite: NOAA 21 (JPSS-2)
#Configuration: NOAA-21
#almurnet v.1.7.20251203
#Start time: 2026-01-02 01:33:47

#Version: 2.2.20231116
#Station: R2.0S_Moscow
#Location: 37.707566 lon 55.798166 lat
#TLE: 1 54234U 22150A   26001.26806856  .00000185  00000+0  10843-3 0  9990
#TLE: 2 54234  98.7484 302.3349 0001277 353.3887   6.7272 14.19530660162860

#Time	Az	El	Level	Level2	SNR	BER	BlckErr	Temp	State	Recorded	gain1	gain2
2026-01-02 01:33:47.04	330.88	18.94	-44.7	-56.3	3.8	8.46e-01	0	57	0	0	60	14099
2026-01-02 01:33:49.06	330.42	19.03	-44.9	-57.3	3.8	1.49e+00	0	57	104	0	61	14950
2026-01-02 01:33:51.08	329.96	19.11	-44.9	-57.2	3.8	1.49e+00	0	57	104	0	61	14802
2026-01-02 01:33:53.10	329.50	19.19	-44.7	-57.0	3.8	1.49e+00	0	57	104	0	61	14487
2026-01-02 01:33:55.13	329.03	19.28	-44.6	-56.9	3.8	1.49e+00	0	57	104	0	61	14224
2026-01-02 01:33:57.15	328.56	19.36	-44.5	-56.9	3.8	1.49e+00	0	57	104	0	61	14239
2026-01-02 01:33:59.17	328.09	19.43	-44.5	-56.9	3.8	1.49e+00	0	57	104	0	61	14229
2026-01-02 01:34:01.19	327.62	19.51	-44.5	-56.8	3.8	1.49e+00	0	57	104	0	61	14197
2026-01-02 01:34:03.21	327.14	19.58	-44.5	-56.8	3.8	1.49e+00	0	57	104	0	61	14177
2026-01-02 01:34:05.23	326.67	19.65	-44.5	-56.8	3.8	1.49e+00	0	57	104	0	61	14178
2026-01-02 01:34:07.25	326.19	19.72	-44.5	-56.8	3.8	1.49e+00	0	57	104	0	61	14173
2026-01-02 01:34:09.28	325.70	19.79	-44.5	-56.8	3.8	1.49e+00	0	58	104	0	61	14155
2026-01-02 01:34:11.30	325.22	19.86	-44.5	-56.8	3.8	1.49e+00	0	57	104	0	61	14154
2026-01-02 01:34:13.32	324.73	19.92	-44.5	-56.8	3.8	1.49e+00	0	57	104	0	61	14114
2026-01-02 01:34:15.34	324.24	19.98	-44.5	-56.8	3.8	1.49e+00	0	57	104	0	61	14184
2026-01-02 01:34:17.37	323.75	20.05	-44.5	-56.7	3.8	1.49e+00	0	57	104	0	61	14043
2026-01-02 01:34:19.39	323.26	20.10	-44.5	-56.7	3.8	1.49e+00	0	57	104	0	61	13992
2026-01-02 01:34:21.41	322.76	20.16	-44.5	-56.5	3.8	1.49e+00	0	58	104	0	61	13649
2026-01-02 01:34:23.43	322.27	20.21	-44.4	-56.2	3.8	1.49e+00	0	57	104	0	60	13965
2026-01-02 01:34:25.45	321.77	20.26	-44.5	-56.7	3.8	1.49e+00	0	57	104	0	60	14723
2026-01-02 01:34:27.47	321.27	20.31	-44.5	-56.7	3.8	1.49e+00	0	58	104	0	60	14827
2026-01-02 01:34:29.50	320.77	20.36	-44.5	-56.5	3.8	1.49e+00	0	58	104	0	60	14505
2026-01-02 01:34:31.52	320.26	20.41	-44.4	-56.3	3.8	1.49e+00	0	58	104	0	60	14055
2026-01-02 01:34:33.54	319.76	20.45	-44.5	-56.4	3.8	1.49e+00	0	58	104	0	60	14349
2026-01-02 01:34:35.56	319.25	20.49	-43.4	-49.2	6.3	8.24e-01	0	58	0	0	58	7040
2026-01-02 01:34:37.59	318.74	20.53	-39.1	-41.2	14.3	7.60e-06	0	57	0	6291456	50	4401
2026-01-02 01:34:39.61	318.24	20.56	-36.0	-37.4	17.9	0.00e+00	0	57	0	12582912	44	4019
2026-01-02 01:34:41.63	317.73	20.60	-36.6	-38.1	17.2	0.00e+00	0	57	0	18874368	43	4624
2026-01-02 01:34:43.65	317.22	20.63	-36.2	-37.6	17.7	0.00e+00	0	57	0	25165824	43	4369
2026-01-02 01:34:45.67	316.70	20.66	-37.6	-39.4	16.2	0.00e+00	0	57	0	31457280	45	4763
2026-01-02 01:34:47.69	316.19	20.68	-35.9	-37.3	17.9	0.00e+00	0	58	0	37748736	43	4200
2026-01-02 01:34:49.71	315.68	20.71	-35.6	-36.9	18.2	0.00e+00	0	57	0	44040192	43	4022
2026-01-02 01:34:51.73	315.16	20.73	-35.6	-37.0	18.1	0.00e+00	0	57	0	50331648	43	4074
2026-01-02 01:34:53.75	314.65	20.75	-35.7	-37.1	18.1	0.00e+00	0	57	0	56623104	43	4102
2026-01-02 01:34:55.77	314.13	20.77	-35.5	-36.9	18.3	0.00e+00	0	57	0	62914560	43	4011
2026-01-02 01:34:57.79	313.62	20.78	-35.6	-36.9	18.2	0.00e+00	0	57	0	69206016	43	4049
2026-01-02 01:34:59.81	313.10	20.79	-35.6	-36.9	18.2	0.00e+00	0	57	0	75497472	43	4038
2026-01-02 01:35:01.83	312.59	20.80	-35.5	-36.8	18.3	0.00e+00	0	57	0	81788928	42	4210
2026-01-02 01:35:03.84	312.07	20.81	-35.4	-36.8	18.4	0.00e+00	0	57	0	88080384	42	4208
2026-01-02 01:35:05.86	311.55	20.81	-35.3	-36.6	18.5	0.00e+00	0	57	0	94371840	42	4133
2026-01-02 01:35:07.88	311.04	20.82	-35.3	-36.6	18.5	0.00e+00	0	57	0	100663296	42	4139
2026-01-02 01:35:09.90	310.52	20.81	-35.4	-36.7	18.4	0.00e+00	0	57	0	106954752	42	4164
2026-01-02 01:35:11.92	310.00	20.81	-35.3	-36.5	18.6	0.00e+00	0	57	0	113246208	42	4091
2026-01-02 01:35:13.94	309.48	20.81	-35.2	-36.4	18.6	0.00e+00	0	57	0	119537664	42	4051
2026-01-02 01:35:15.97	308.96	20.80	-35.3	-36.6	18.5	0.00e+00	0	57	0	125829120	42	4138
2026-01-02 01:35:17.99	308.45	20.79	-35.4	-36.7	18.4	0.00e+00	0	57	0	132120576	42	4173
2026-01-02 01:35:20.00	307.93	20.78	-35.6	-37.0	18.1	0.00e+00	0	57	0	138412032	42	4311
2026-01-02 01:35:22.02	307.42	20.76	-35.7	-37.1	18.1	0.00e+00	0	57	0	144703488	42	4347
2026-01-02 01:35:24.04	306.90	20.74	-35.7	-37.0	18.1	0.00e+00	0	57	0	150994944	42	4331
2026-01-02 01:35:26.06	306.39	20.72	-35.6	-37.0	18.2	0.00e+00	0	57	0	157286400	42	4301
2026-01-02 01:35:28.08	305.87	20.70	-35.5	-36.8	18.3	0.00e+00	0	57	0	163577856	42	4215
2026-01-02 01:35:30.10	305.36	20.68	-35.4	-36.7	18.4	0.00e+00	0	57	0	169869312	42	4168
2026-01-02 01:35:32.11	304.85	20.65	-35.3	-36.6	18.5	0.00e+00	0	57	0	176160768	42	4131
2026-01-02 01:35:34.14	304.34	20.62	-35.4	-36.7	18.4	0.00e+00	0	57	0	182452224	42	4193
2026-01-02 01:35:36.16	303.83	20.59	-35.4	-36.7	18.4	0.00e+00	0	57	0	189792256	42	4188
2026-01-02 01:35:38.18	303.32	20.55	-35.4	-36.7	18.4	0.00e+00	0	57	0	195035136	42	4174
2026-01-02 01:35:40.20	302.81	20.52	-35.4	-36.7	18.3	0.00e+00	0	57	0	202375168	42	4191
2026-01-02 01:35:42.22	302.30	20.48	-35.6	-36.9	18.2	0.00e+00	0	57	0	208666624	42	4271
2026-01-02 01:35:44.24	301.79	20.44	-35.6	-36.9	18.2	0.00e+00	0	57	0	214958080	42	4272
2026-01-02 01:35:46.26	301.29	20.39	-35.5	-36.8	18.3	0.00e+00	0	57	0	221249536	42	4223
2026-01-02 01:35:48.28	300.79	20.35	-35.4	-36.8	18.4	0.00e+00	0	57	0	227540992	42	4201
2026-01-02 01:35:50.30	300.29	20.30	-35.3	-36.6	18.5	0.00e+00	0	57	0	233832448	42	4120
2026-01-02 01:35:52.32	299.79	20.25	-35.3	-36.6	18.5	0.00e+00	0	57	0	240123904	42	4129
2026-01-02 01:35:54.34	299.29	20.20	-35.4	-36.8	18.3	0.00e+00	0	57	0	246415360	42	4203
2026-01-02 01:35:56.36	298.79	20.14	-35.6	-36.9	18.2	0.00e+00	0	57	0	252706816	42	4278
2026-01-02 01:35:58.38	298.30	20.09	-35.6	-37.0	18.1	0.00e+00	0	57	0	258998272	42	4308
2026-01-02 01:36:00.39	297.81	20.03	-35.7	-37.1	18.0	0.00e+00	0	57	0	265289728	42	4391
2026-01-02 01:36:02.40	297.32	19.97	-35.9	-37.3	17.8	0.00e+00	0	57	0	271581184	42	4476
2026-01-02 01:36:04.42	296.83	19.90	-35.7	-37.1	18.0	0.00e+00	0	57	0	277872640	42	4375
2026-01-02 01:36:06.43	296.34	19.84	-35.5	-36.8	18.3	0.00e+00	0	57	0	284164096	42	4220
2026-01-02 01:36:08.45	295.86	19.77	-35.5	-36.9	18.2	0.00e+00	0	57	0	290455552	42	4246
2026-01-02 01:36:10.47	295.38	19.70	-35.7	-37.1	18.1	0.00e+00	0	57	0	296747008	42	4341
2026-01-02 01:36:12.49	294.90	19.63	-35.9	-37.3	17.8	0.00e+00	0	57	0	303038464	42	4493
2026-01-02 01:36:14.51	294.42	19.56	-35.9	-37.3	17.8	0.00e+00	0	57	0	309329920	42	4490
2026-01-02 01:36:16.53	293.94	19.49	-36.0	-37.4	17.7	0.00e+00	0	57	0	315621376	42	4528
2026-01-02 01:36:18.55	293.47	19.41	-35.8	-37.2	17.9	0.00e+00	0	57	0	321912832	42	4421
2026-01-02 01:36:20.57	293.00	19.33	-35.9	-37.3	17.8	0.00e+00	0	57	0	328204288	42	4469
2026-01-02 01:36:22.59	292.53	19.25	-36.0	-37.4	17.7	0.00e+00	0	57	0	334495744	42	4537
2026-01-02 01:36:24.60	292.06	19.17	-35.9	-37.3	17.8	0.00e+00	0	57	0	340787200	42	4464
2026-01-02 01:36:26.62	291.60	19.09	-35.9	-37.3	17.8	0.00e+00	0	57	0	347078656	42	4470
2026-01-02 01:36:28.64	291.14	19.00	-35.8	-37.2	17.9	0.00e+00	0	57	0	353370112	42	4420
2026-01-02 01:36:30.66	290.68	18.92	-35.8	-37.2	17.9	0.00e+00	0	57	0	359661568	42	4419
2026-01-02 01:36:32.68	290.22	18.83	-36.0	-37.4	17.7	0.00e+00	0	57	0	365953024	42	4510
2026-01-02 01:36:34.70	289.77	18.74	-36.1	-37.5	17.6	0.00e+00	0	57	0	372244480	42	4575
2026-01-02 01:36:36.72	289.32	18.65	-36.2	-37.7	17.4	0.00e+00	0	57	0	378535936	42	4674
2026-01-02 01:36:38.74	288.87	18.55	-36.0	-37.4	17.7	0.00e+00	0	57	0	384827392	43	4276
2026-01-02 01:36:40.76	288.43	18.46	-36.0	-37.4	17.7	0.00e+00	0	57	0	391118848	43	4258
2026-01-02 01:36:42.78	287.98	18.37	-36.2	-37.6	17.5	0.00e+00	0	57	0	397410304	43	4372
2026-01-02 01:36:44.80	287.54	18.27	-36.1	-37.5	17.6	0.00e+00	0	57	0	403701760	43	4320
2026-01-02 01:36:46.82	287.11	18.17	-36.0	-37.4	17.6	0.00e+00	0	58	0	409993216	43	4281
2026-01-02 01:36:48.84	286.67	18.07	-35.9	-37.3	17.7	0.00e+00	0	57	0	416284672	43	4216
2026-01-02 01:36:50.86	286.24	17.97	-35.6	-36.9	18.1	0.00e+00	0	57	0	422576128	43	4030
2026-01-02 01:36:52.88	285.81	17.87	-35.6	-36.9	18.1	0.00e+00	0	57	0	428867584	43	4034
2026-01-02 01:36:54.90	285.39	17.76	-35.5	-36.9	18.1	0.00e+00	0	57	0	435159040	43	4015
2026-01-02 01:36:56.92	284.97	17.66	-35.6	-36.9	18.1	0.00e+00	0	57	0	441450496	43	4045
2026-01-02 01:36:58.94	284.55	17.55	-35.7	-37.1	17.9	0.00e+00	0	57	0	447741952	43	4129
2026-01-02 01:37:00.96	284.13	17.45	-35.9	-37.3	17.7	0.00e+00	0	57	0	454033408	43	4216
2026-01-02 01:37:02.99	283.71	17.34	-35.7	-37.1	17.9	0.00e+00	0	57	0	460324864	43	4127
2026-01-02 01:37:05.01	283.30	17.23	-35.7	-37.0	17.9	0.00e+00	0	57	0	466616320	43	4091
2026-01-02 01:37:07.03	282.90	17.12	-35.4	-36.8	18.2	0.00e+00	0	57	0	472907776	42	4201
2026-01-02 01:37:09.05	282.49	17.01	-35.6	-37.0	18.0	0.00e+00	0	57	0	479199232	42	4316
2026-01-02 01:37:11.06	282.09	16.90	-35.9	-37.3	17.7	0.00e+00	0	57	0	485490688	42	4474
2026-01-02 01:37:13.09	281.69	16.79	-36.0	-37.4	17.6	0.00e+00	0	57	0	491782144	42	4540
2026-01-02 01:37:15.10	281.30	16.67	-35.8	-37.2	17.8	0.00e+00	0	57	0	498073600	42	4408
2026-01-02 01:37:17.12	280.91	16.56	-35.7	-37.1	17.8	0.00e+00	0	57	0	504365056	42	4384
2026-01-02 01:37:19.14	280.52	16.44	-35.7	-37.1	17.9	0.00e+00	0	57	0	510656512	42	4357
2026-01-02 01:37:21.16	280.13	16.33	-35.9	-37.3	17.6	0.00e+00	0	57	0	516947968	42	4487
2026-01-02 01:37:23.18	279.75	16.21	-36.3	-37.8	17.2	0.00e+00	0	57	0	523239424	43	4450
2026-01-02 01:37:25.20	279.37	16.09	-36.3	-37.8	17.1	0.00e+00	0	57	0	530579456	43	4481
2026-01-02 01:37:27.22	278.99	15.97	-36.3	-37.9	17.1	0.00e+00	0	57	0	535822336	43	4494
2026-01-02 01:37:29.23	278.61	15.86	-36.2	-37.7	17.2	0.00e+00	0	57	0	542113792	43	4423
2026-01-02 01:37:31.25	278.24	15.74	-36.1	-37.6	17.4	0.00e+00	0	57	0	549453824	43	4347
2026-01-02 01:37:33.28	277.87	15.62	-36.0	-37.4	17.5	0.00e+00	0	57	0	555745280	43	4281
2026-01-02 01:37:35.30	277.51	15.49	-35.9	-37.4	17.6	0.00e+00	0	57	0	562036736	43	4250
2026-01-02 01:37:37.31	277.15	15.37	-36.1	-37.6	17.3	0.00e+00	0	57	0	568328192	43	4367
2026-01-02 01:37:39.34	276.78	15.25	-36.4	-38.0	17.0	0.00e+00	0	57	0	574619648	43	4547
2026-01-02 01:37:41.36	276.43	15.13	-36.5	-38.0	16.9	0.00e+00	0	57	0	580911104	43	4582
2026-01-02 01:37:43.38	276.07	15.01	-36.5	-38.0	16.9	0.00e+00	0	57	0	587202560	43	4563
2026-01-02 01:37:45.39	275.72	14.88	-36.6	-38.2	16.7	0.00e+00	0	57	0	593494016	43	4682
2026-01-02 01:37:47.41	275.38	14.76	-37.0	-38.6	16.5	0.00e+00	0	57	0	599785472	44	4617
2026-01-02 01:37:49.43	275.03	14.64	-37.2	-38.8	16.3	0.00e+00	0	57	0	606076928	44	4751
2026-01-02 01:37:51.45	274.69	14.51	-37.2	-38.8	16.2	0.00e+00	0	57	0	612368384	45	4492
2026-01-02 01:37:53.47	274.35	14.39	-36.6	-38.1	16.9	0.00e+00	0	57	0	618659840	45	4143
2026-01-02 01:37:55.49	274.01	14.26	-36.2	-37.6	17.4	0.00e+00	0	57	0	624951296	44	4132
2026-01-02 01:37:57.51	273.68	14.14	-35.7	-37.1	17.8	0.00e+00	0	57	0	631242752	43	4100
2026-01-02 01:37:59.53	273.35	14.01	-35.7	-37.1	17.6	0.00e+00	0	57	0	637534208	43	4139
2026-01-02 01:38:01.55	273.02	13.88	-36.0	-37.4	17.3	0.00e+00	0	57	0	643825664	43	4273
2026-01-02 01:38:03.57	272.70	13.76	-35.9	-37.4	17.4	0.00e+00	0	57	0	650117120	43	4251
2026-01-02 01:38:05.59	272.37	13.63	-36.3	-37.8	17.0	0.00e+00	0	57	0	656408576	43	4454
2026-01-02 01:38:07.61	272.05	13.50	-36.6	-38.2	16.7	0.00e+00	0	57	0	662700032	43	4679
2026-01-02 01:38:09.63	271.74	13.38	-36.6	-38.1	16.7	0.00e+00	0	57	0	668991488	43	4630
2026-01-02 01:38:11.65	271.42	13.25	-36.4	-38.0	16.9	0.00e+00	0	57	0	675282944	43	4561
2026-01-02 01:38:13.67	271.11	13.12	-36.2	-37.8	17.1	0.00e+00	0	57	0	681574400	43	4445
2026-01-02 01:38:15.69	270.80	12.99	-35.9	-37.3	17.4	0.00e+00	0	57	0	687865856	43	4232
2026-01-02 01:38:17.71	270.50	12.87	-36.1	-37.6	17.2	0.00e+00	0	57	0	694157312	43	4360
2026-01-02 01:38:19.73	270.20	12.74	-36.5	-38.1	16.7	0.00e+00	0	57	0	700448768	43	4605
2026-01-02 01:38:21.75	269.89	12.61	-37.0	-38.6	16.3	0.00e+00	0	57	0	706740224	44	4641
2026-01-02 01:38:23.77	269.60	12.48	-37.0	-38.7	16.3	0.00e+00	0	57	0	713031680	44	4664
2026-01-02 01:38:25.79	269.30	12.35	-37.0	-38.7	16.2	0.00e+00	0	57	0	719323136	44	4695
2026-01-02 01:38:27.82	269.01	12.22	-36.9	-38.5	16.5	0.00e+00	0	57	0	725614592	44	4565
2026-01-02 01:38:29.84	268.72	12.09	-36.7	-38.3	16.6	0.00e+00	0	57	0	731906048	44	4468
2026-01-02 01:38:31.85	268.43	11.97	-36.7	-38.3	16.6	0.00e+00	0	57	0	738197504	44	4459
2026-01-02 01:38:33.88	268.14	11.84	-36.7	-38.3	16.5	0.00e+00	0	57	0	744488960	44	4491
2026-01-02 01:38:35.89	267.86	11.71	-37.0	-38.6	16.2	0.00e+00	0	57	0	750780416	44	4645
2026-01-02 01:38:37.92	267.58	11.58	-37.2	-38.9	16.0	0.00e+00	0	57	0	757071872	44	4763
2026-01-02 01:38:39.94	267.30	11.45	-37.2	-38.9	16.0	0.00e+00	0	57	0	763363328	44	4780
2026-01-02 01:38:41.96	267.03	11.32	-37.4	-39.1	15.8	0.00e+00	0	57	0	769654784	45	4635
2026-01-02 01:38:43.98	266.76	11.20	-37.2	-38.9	16.0	0.00e+00	0	57	0	775946240	45	4526
2026-01-02 01:38:46.00	266.49	11.07	-37.2	-38.9	16.0	0.00e+00	0	57	0	782237696	45	4508
2026-01-02 01:38:48.01	266.22	10.94	-36.9	-38.6	16.3	0.00e+00	0	57	0	788529152	45	4354
2026-01-02 01:38:50.03	265.95	10.81	-37.0	-38.6	16.2	0.00e+00	0	57	0	794820608	45	4377
2026-01-02 01:38:52.05	265.69	10.68	-37.0	-38.7	16.1	0.00e+00	0	57	0	801112064	45	4425
2026-01-02 01:38:54.07	265.43	10.55	-37.1	-38.7	16.1	0.00e+00	0	57	0	807403520	45	4431
2026-01-02 01:38:56.09	265.17	10.43	-37.2	-38.9	15.9	0.00e+00	0	57	0	813694976	45	4521
2026-01-02 01:38:58.11	264.92	10.30	-37.1	-38.8	16.0	0.00e+00	0	57	0	819986432	45	4464
2026-01-02 01:39:00.13	264.66	10.17	-37.0	-38.7	16.1	0.00e+00	0	57	0	826277888	45	4425
2026-01-02 01:39:02.15	264.41	10.04	-36.9	-38.6	16.2	0.00e+00	0	57	0	832569344	45	4355
2026-01-02 01:39:04.17	264.16	9.92	-37.1	-38.8	16.0	0.00e+00	0	57	0	838860800	45	4464
2026-01-02 01:39:06.19	263.91	9.79	-37.2	-39.0	15.8	0.00e+00	0	57	0	846200832	45	4579
2026-01-02 01:39:08.21	263.67	9.66	-37.4	-39.2	15.6	0.00e+00	0	57	0	851443712	45	4666
2026-01-02 01:39:10.23	263.42	9.53	-37.5	-39.4	15.4	0.00e+00	0	57	0	857735168	45	4780
2026-01-02 01:39:12.25	263.18	9.41	-37.6	-39.4	15.4	0.00e+00	0	57	0	865075200	45	4800
2026-01-02 01:39:14.27	262.94	9.28	-37.6	-39.5	15.3	0.00e+00	0	57	0	871366656	45	4831
2026-01-02 01:39:16.28	262.71	9.15	-37.5	-39.3	15.4	0.00e+00	0	57	0	877658112	45	4750
2026-01-02 01:39:18.30	262.47	9.03	-37.3	-39.1	15.7	0.00e+00	0	57	0	883949568	45	4609
2026-01-02 01:39:20.32	262.24	8.90	-37.3	-39.1	15.6	0.00e+00	0	57	0	890241024	45	4646
2026-01-02 01:39:22.34	262.01	8.78	-37.5	-39.3	15.5	0.00e+00	0	57	0	896532480	45	4726
2026-01-02 01:39:24.36	261.78	8.65	-37.7	-39.5	15.2	0.00e+00	0	57	0	902823936	45	4870
2026-01-02 01:39:26.38	261.56	8.52	-37.8	-39.7	15.0	0.00e+00	0	57	0	909115392	46	4689
2026-01-02 01:39:28.40	261.33	8.40	-37.8	-39.8	15.0	0.00e+00	0	57	0	915406848	46	4721
2026-01-02 01:39:30.42	261.11	8.27	-37.7	-39.6	15.1	0.00e+00	0	57	0	921698304	46	4629
2026-01-02 01:39:32.44	260.89	8.15	-37.5	-39.3	15.4	0.00e+00	0	57	0	927989760	46	4479
2026-01-02 01:39:34.46	260.67	8.02	-37.5	-39.3	15.5	0.00e+00	0	57	0	934281216	46	4477
2026-01-02 01:39:36.48	260.45	7.90	-44.5	-56.7	3.8	1.49e+00	0	57	104	935329792	59	15620
2026-01-02 01:39:38.50	260.24	7.77	-44.7	-57.1	3.8	1.49e+00	0	57	104	935329792	60	15411
2026-01-02 01:39:40.52	260.03	7.65	-44.8	-57.2	3.8	1.49e+00	0	57	104	935329792	60	15588
2026-01-02 01:39:42.54	259.81	7.53	-44.9	-57.2	3.8	1.49e+00	0	57	104	935329792	60	15711
2026-01-02 01:39:44.56	259.60	7.40	-44.8	-57.1	3.8	1.49e+00	0	57	104	935329792	60	15565
2026-01-02 01:39:46.58	259.40	7.28	-44.8	-57.1	3.8	1.49e+00	0	57	104	935329792	60	15579
2026-01-02 01:39:48.60	259.19	7.16	-44.8	-57.1	3.8	1.49e+00	0	57	104	935329792	60	15557
2026-01-02 01:39:50.62	258.99	7.03	-44.9	-57.2	3.8	1.49e+00	0	58	104	935329792	60	15676
2026-01-02 01:39:52.64	258.79	6.91	-44.8	-57.2	3.8	1.49e+00	0	57	104	935329792	60	15600
2026-01-02 01:39:54.66	258.58	6.79	-44.8	-57.1	3.8	1.49e+00	0	58	104	935329792	60	15494
2026-01-02 01:39:56.69	258.39	6.67	-44.8	-57.1	3.8	1.49e+00	0	57	104	935329792	60	15512
2026-01-02 01:39:58.71	258.19	6.54	-44.8	-57.1	3.8	1.49e+00	0	57	104	935329792	60	15498
2026-01-02 01:40:00.73	257.99	6.42	-44.8	-57.1	3.8	1.49e+00	0	58	104	935329792	60	15499
2026-01-02 01:40:02.75	257.80	6.30	-44.8	-57.1	3.8	1.49e+00	0	57	104	935329792	60	15448
2026-01-02 01:40:04.77	257.61	6.18	-44.8	-57.1	3.8	1.49e+00	0	57	104	935329792	60	15477
2026-01-02 01:40:06.80	257.42	6.06	-44.8	-57.1	3.8	1.49e+00	0	57	104	935329792	60	15458
2026-01-02 01:40:08.82	257.23	5.94	-44.8	-57.1	3.8	1.49e+00	0	57	104	935329792	60	15433
2026-01-02 01:40:10.84	257.04	5.82	-44.7	-57.1	3.8	1.49e+00	0	57	104	935329792	60	15418
2026-01-02 01:40:12.86	256.85	5.70	-44.7	-57.1	3.8	1.49e+00	0	57	104	935329792	60	15427
2026-01-02 01:40:14.88	256.67	5.58	-44.7	-57.0	3.8	1.49e+00	0	57	104	935329792	60	15343
2026-01-02 01:40:16.91	256.49	5.46	-44.7	-57.0	3.8	1.49e+00	0	57	104	935329792	60	15281
2026-01-02 01:40:18.93	256.30	5.34	-44.7	-57.0	3.8	1.49e+00	0	58	104	935329792	60	15293
2026-01-02 01:40:20.95	256.12	5.22	-44.7	-57.0	3.8	1.49e+00	0	57	104	935329792	60	15331
2026-01-02 01:40:22.97	255.95	5.10	-44.7	-57.0	3.8	1.49e+00	0	57	104	935329792	60	15300
2026-01-02 01:40:24.99	255.77	4.98	-44.7	-57.0	3.8	1.49e+00	0	58	104	935329792	60	15265
2026-01-02 01:40:27.02	255.59	4.86	-44.7	-57.0	3.8	1.49e+00	0	58	104	935329792	60	15315
2026-01-02 01:40:29.04	255.42	4.74	-44.7	-57.0	3.8	1.49e+00	0	58	104	935329792	60	15293
2026-01-02 01:40:31.06	255.25	4.63	-44.7	-57.0	3.8	1.49e+00	0	58	104	935329792	60	15278
2026-01-02 01:40:33.08	255.08	4.51	-44.7	-57.0	3.8	1.49e+00	0	58	104	935329792	60	15318
2026-01-02 01:40:35.10	254.91	4.39	-44.7	-57.0	3.8	1.49e+00	0	57	104	935329792	60	15307
2026-01-02 01:40:37.13	254.74	4.27	-44.7	-57.0	3.8	1.49e+00	0	58	104	935329792	60	15280
2026-01-02 01:40:39.15	254.57	4.16	-44.7	-57.0	3.8	1.49e+00	0	58	104	935329792	60	15286
2026-01-02 01:40:41.17	254.41	4.04	-44.7	-57.0	3.8	1.49e+00	0	58	104	935329792	60	15296
2026-01-02 01:40:43.19	254.24	3.93	-44.7	-57.0	3.8	1.49e+00	0	58	104	935329792	60	15295
2026-01-02 01:40:45.21	254.08	3.81	-44.7	-57.0	3.8	1.49e+00	0	58	104	935329792	60	15281
2026-01-02 01:40:47.23	253.92	3.70	-44.7	-57.0	3.8	1.49e+00	0	58	104	935329792	60	15320
2026-01-02 01:40:49.25	253.76	3.58	-44.7	-57.0	3.8	1.49e+00	0	58	104	935329792	60	15277
2026-01-02 01:40:51.28	253.60	3.46	-44.7	-57.0	3.8	1.49e+00	0	58	104	935329792	60	15333
2026-01-02 01:40:53.30	253.44	3.35	-44.7	-57.0	3.8	1.49e+00	0	58	104	935329792	60	15293
2026-01-02 01:40:55.32	253.29	3.24	-44.7	-57.0	3.8	1.49e+00	0	58	104	935329792	60	15302
2026-01-02 01:40:57.34	253.13	3.12	-44.7	-57.0	3.8	1.49e+00	0	58	104	935329792	60	15322
2026-01-02 01:40:59.37	252.98	3.01	-44.6	-57.0	3.8	1.49e+00	0	58	104	935329792	60	15265
2026-01-02 01:41:01.39	252.82	2.89	-44.6	-57.0	3.8	1.49e+00	0	58	104	935329792	60	15270
2026-01-02 01:41:03.41	252.67	2.78	-44.6	-57.0	3.8	1.49e+00	0	58	104	935329792	60	15296
2026-01-02 01:41:05.43	252.52	2.67	-44.7	-57.0	3.8	1.49e+00	0	58	104	935329792	60	15271
2026-01-02 01:41:07.45	252.37	2.56	-44.7	-57.0	3.8	1.49e+00	0	57	104	935329792	60	15243
2026-01-02 01:41:09.48	252.22	2.44	-44.7	-57.0	3.8	1.49e+00	0	58	104	935329792	60	15287
2026-01-02 01:41:11.50	252.08	2.33	-44.7	-57.0	3.8	1.49e+00	0	58	104	935329792	60	15268
2026-01-02 01:41:13.52	251.93	2.22	-44.7	-57.0	3.8	1.49e+00	0	57	104	935329792	60	15226
2026-01-02 01:41:15.54	251.79	2.11	-44.7	-57.0	3.8	1.49e+00	0	58	104	935329792	60	15300
2026-01-02 01:41:17.57	251.64	1.99	-44.7	-57.0	3.8	1.49e+00	0	58	104	935329792	60	15261

#Closed at: 2026-01-02 01:41:18
#Recorded file [935 MB]: D:/lorett/data/31039_260102_043346.dat