passes_logs/2026/01/02/R2.0S_Moscow/R2.0S_Moscow__20260102_233920_AQUA_rec.log

#Pass ID: 20260102_233920_AQUA
#Satellite: AQUA
#Configuration: AQUA
#almurnet v.1.7.20251203
#Start time: 2026-01-02 23:44:10

#Version: 2.2.20231116
#Station: R2.0S_Moscow
#Location: 37.707566 lon 55.798166 lat
#TLE: 1 27424U 02022A   25365.92641127  .00002078  00000+0  42628-3 0  9999
#TLE: 2 27424  98.4058 327.1196 0001962  94.7781 340.6230 14.61783896258835

#Time	Az	El	Level	Level2	SNR	BER	BlckErr	Temp	State	Recorded	gain1	gain2
2026-01-02 23:44:10.00	79.02	15.46	-44.9	-57.2	3.8	1.49e+00	0	57	0	0	60	15613
2026-01-02 23:44:12.01	79.52	15.49	-46.2	-64.9	3.8	7.46e-01	0	58	104	0	63	31888
2026-01-02 23:44:14.03	80.03	15.51	-46.3	-64.9	3.8	7.47e-01	0	58	104	0	63	31979
2026-01-02 23:44:16.05	80.53	15.54	-46.2	-64.8	3.8	7.45e-01	0	57	104	0	63	31563
2026-01-02 23:44:18.08	81.04	15.56	-46.0	-64.5	3.8	7.44e-01	0	58	104	0	63	30389
2026-01-02 23:44:20.10	81.55	15.58	-45.6	-64.1	3.8	7.43e-01	0	58	104	0	63	29218
2026-01-02 23:44:22.12	82.05	15.60	-45.2	-63.7	3.8	7.46e-01	0	57	104	0	62	29677
2026-01-02 23:44:24.14	82.56	15.61	-45.2	-63.7	3.8	7.47e-01	0	58	104	0	62	29579
2026-01-02 23:44:26.16	83.07	15.63	-45.2	-63.7	3.8	7.43e-01	0	58	104	0	62	29503
2026-01-02 23:44:28.19	83.58	15.64	-45.2	-63.7	3.8	7.46e-01	0	58	104	0	62	29566
2026-01-02 23:44:30.21	84.09	15.65	-45.2	-63.7	3.8	7.49e-01	0	58	104	0	62	29518
2026-01-02 23:44:32.23	84.60	15.66	-45.2	-63.7	3.8	7.48e-01	0	58	104	0	62	29592
2026-01-02 23:44:34.25	85.11	15.66	-45.2	-63.7	3.8	7.44e-01	0	58	104	0	62	29523
2026-01-02 23:44:36.28	85.62	15.67	-45.2	-63.7	3.8	7.46e-01	0	58	104	0	62	29566
2026-01-02 23:44:38.30	86.13	15.67	-45.2	-63.7	3.8	7.46e-01	0	57	104	0	62	29494
2026-01-02 23:44:40.32	86.65	15.67	-45.2	-63.7	3.8	7.45e-01	0	58	104	0	62	29506
2026-01-02 23:44:42.34	87.16	15.66	-45.2	-63.1	3.8	7.43e-01	0	58	104	0	62	27686
2026-01-02 23:44:44.36	87.67	15.66	-45.2	-62.9	3.8	7.47e-01	0	58	104	0	62	27074
2026-01-02 23:44:46.38	88.18	15.65	-45.2	-63.2	3.8	7.45e-01	0	58	104	0	62	27715
2026-01-02 23:44:48.41	88.69	15.64	-45.1	-63.3	3.8	7.47e-01	0	57	104	0	62	28074
2026-01-02 23:44:50.43	89.20	15.63	-45.2	-63.5	3.8	7.47e-01	0	58	104	0	62	28961
2026-01-02 23:44:52.45	89.71	15.62	-45.1	-61.6	3.8	7.43e-01	0	58	104	0	62	23101
2026-01-02 23:44:54.47	90.22	15.61	-45.0	-59.2	4.2	7.20e-01	0	58	104	0	62	17509
2026-01-02 23:44:56.49	90.73	15.59	-45.1	-60.5	4.0	7.37e-01	0	58	104	0	62	20483
2026-01-02 23:44:58.52	91.24	15.57	-44.9	-57.5	5.2	7.01e-01	0	58	104	0	61	15344
2026-01-02 23:45:00.54	91.74	15.55	-42.4	-46.4	16.5	6.03e-01	0	58	0	3145728	56	5665
2026-01-02 23:45:02.56	92.25	15.53	-39.4	-41.6	21.4	6.00e-01	0	58	0	6815744	50	4620
2026-01-02 23:45:04.58	92.75	15.50	-39.0	-41.1	22.0	6.03e-01	0	58	0	11010048	49	4651
2026-01-02 23:45:06.60	93.26	15.48	-38.7	-40.8	22.5	6.02e-01	0	58	0	14680064	49	4448
2026-01-02 23:45:08.62	93.76	15.45	-39.0	-41.1	22.0	6.02e-01	0	58	0	18350080	49	4643
2026-01-02 23:45:10.64	94.27	15.42	-38.9	-41.0	21.9	6.00e-01	0	57	0	22020096	49	4583
2026-01-02 23:45:12.66	94.77	15.38	-38.8	-40.9	22.2	6.00e-01	0	58	0	26214400	49	4495
2026-01-02 23:45:14.68	95.27	15.35	-38.6	-40.6	22.4	6.01e-01	0	57	0	29884416	49	4380
2026-01-02 23:45:16.70	95.77	15.31	-38.5	-40.5	22.5	6.02e-01	0	58	0	33554432	49	4305
2026-01-02 23:45:18.71	96.26	15.28	-38.6	-40.6	22.5	6.01e-01	0	58	0	37224448	49	4360
2026-01-02 23:45:20.73	96.76	15.24	-38.6	-40.6	22.4	6.01e-01	0	57	0	40894464	49	4351
2026-01-02 23:45:22.75	97.25	15.19	-38.5	-40.5	22.6	6.03e-01	0	58	0	45088768	49	4307
2026-01-02 23:45:24.77	97.75	15.15	-38.5	-40.5	22.6	6.01e-01	0	57	0	48758784	49	4312
2026-01-02 23:45:26.79	98.24	15.10	-38.5	-40.5	22.6	6.03e-01	0	58	0	52428800	49	4314
2026-01-02 23:45:28.81	98.73	15.06	-38.1	-40.1	22.5	6.00e-01	0	57	0	56098816	46	4900
2026-01-02 23:45:30.83	99.22	15.01	-38.2	-40.2	22.4	5.99e-01	0	58	0	59768832	46	4972
2026-01-02 23:45:32.85	99.71	14.96	-38.1	-40.1	22.5	6.02e-01	0	58	0	63963136	46	4902
2026-01-02 23:45:34.87	100.19	14.90	-38.0	-40.0	22.6	6.02e-01	0	57	0	67633152	47	4579
2026-01-02 23:45:36.89	100.68	14.85	-37.8	-39.8	22.8	6.02e-01	0	57	0	71303168	47	4480
2026-01-02 23:45:38.91	101.16	14.79	-37.8	-39.8	22.8	6.00e-01	0	58	0	74973184	47	4451
2026-01-02 23:45:40.93	101.64	14.74	-38.1	-40.3	22.2	6.02e-01	0	58	0	79167488	47	4721
2026-01-02 23:45:42.95	102.12	14.68	-37.9	-39.9	22.6	6.01e-01	0	57	0	82837504	46	4807
2026-01-02 23:45:44.97	102.59	14.62	-37.4	-39.7	22.5	6.05e-01	0	57	0	86507520	45	4952
2026-01-02 23:45:46.99	103.07	14.55	-38.2	-40.3	22.4	6.03e-01	0	58	0	90177536	46	4986
2026-01-02 23:45:49.01	103.54	14.49	-38.2	-40.2	22.5	5.99e-01	0	57	0	94371840	47	4675
2026-01-02 23:45:51.02	104.01	14.42	-38.1	-40.2	22.5	6.01e-01	0	58	0	98041856	47	4667
2026-01-02 23:45:53.04	104.48	14.36	-38.2	-40.3	22.4	6.02e-01	0	57	0	101711872	47	4711
2026-01-02 23:45:55.06	104.94	14.29	-38.0	-40.0	21.9	6.01e-01	0	58	0	105381888	46	4853
2026-01-02 23:45:57.08	105.40	14.22	-38.2	-40.2	22.4	6.00e-01	0	58	0	109051904	46	4936
2026-01-02 23:45:59.10	105.87	14.15	-38.1	-40.2	21.9	5.99e-01	0	57	0	112721920	46	4973
2026-01-02 23:46:01.12	106.32	14.07	-38.2	-40.3	21.9	6.01e-01	0	57	0	116916224	47	4734
2026-01-02 23:46:03.14	106.78	14.00	-38.0	-40.0	22.3	6.03e-01	0	58	0	120586240	46	4868
2026-01-02 23:46:05.16	107.23	13.92	-38.1	-40.1	22.5	6.01e-01	0	57	0	124256256	46	4916
2026-01-02 23:46:07.18	107.69	13.85	-38.3	-40.3	22.3	6.00e-01	0	57	0	127926272	47	4715
2026-01-02 23:46:09.19	108.13	13.77	-37.6	-40.3	22.2	6.02e-01	0	57	0	132120576	47	4742
2026-01-02 23:46:11.21	108.58	13.69	-38.2	-40.2	22.4	6.01e-01	0	57	0	135790592	46	4955
2026-01-02 23:46:13.23	109.02	13.61	-38.3	-40.3	22.3	6.00e-01	0	57	0	139460608	47	4723
2026-01-02 23:46:15.25	109.47	13.53	-38.2	-40.2	22.4	5.99e-01	0	58	0	143130624	47	4689
2026-01-02 23:46:17.27	109.90	13.45	-38.3	-40.3	22.3	5.98e-01	0	57	0	147324928	47	4717
2026-01-02 23:46:19.29	110.34	13.36	-38.3	-40.3	22.3	6.01e-01	0	57	0	150994944	47	4735
2026-01-02 23:46:21.31	110.78	13.28	-38.2	-40.3	22.3	6.03e-01	0	57	0	154664960	47	4709
2026-01-02 23:46:23.33	111.21	13.19	-38.2	-40.2	22.4	6.05e-01	0	57	0	158334976	47	4692
2026-01-02 23:46:25.35	111.64	13.10	-38.3	-40.3	22.3	6.01e-01	0	57	0	162004992	47	4737
2026-01-02 23:46:27.36	112.06	13.01	-38.2	-40.3	22.0	6.01e-01	0	57	0	166199296	47	4738
2026-01-02 23:46:29.38	112.48	12.92	-38.1	-40.1	21.7	6.00e-01	0	57	0	169869312	46	4926
2026-01-02 23:46:31.40	112.90	12.83	-38.2	-40.4	18.3	6.04e-01	0	58	0	173539328	46	5060
2026-01-02 23:46:33.42	113.32	12.74	-38.0	-40.3	17.3	6.05e-01	0	57	0	177209344	45	5334
2026-01-02 23:46:35.44	113.74	12.65	-36.6	-40.2	13.3	6.07e-01	15	58	0	180879360	45	5260
2026-01-02 23:46:37.46	114.15	12.56	-34.4	-40.0	12.2	6.15e-01	47	57	0	185073664	42	6089
2026-01-02 23:46:39.48	114.56	12.46	-33.6	-40.0	11.6	6.20e-01	65	58	0	187170816	37	8143
2026-01-02 23:46:41.50	114.97	12.37	-30.2	-39.2	9.7	6.26e-01	85	57	0	190840832	33	9376
2026-01-02 23:46:43.52	115.37	12.27	-30.9	-39.3	8.8	6.47e-01	74	57	0	192937984	30	11201
2026-01-02 23:46:45.54	115.77	12.18	-30.1	-40.0	4.6	7.13e-01	0	57	104	194510848	21	20458
2026-01-02 23:46:47.56	116.17	12.08	-31.4	-39.0	9.6	6.37e-01	78	57	0	195559424	31	10264
2026-01-02 23:46:49.58	116.57	11.98	-29.4	-39.1	11.5	6.22e-01	86	57	0	197132288	34	8678
2026-01-02 23:46:51.60	116.96	11.88	-29.9	-38.4	11.6	6.17e-01	74	57	0	199753728	34	8018
2026-01-02 23:46:53.62	117.35	11.78	-34.7	-42.0	10.1	6.35e-01	92	57	0	201326592	39	9096
2026-01-02 23:46:55.64	117.74	11.68	-28.0	-41.5	8.3	6.49e-01	92	57	0	204996608	29	15301
2026-01-02 23:46:57.66	118.12	11.58	-33.9	-40.3	11.7	6.17e-01	62	57	0	208142336	38	7988
2026-01-02 23:46:59.68	118.51	11.48	-34.1	-40.7	11.4	6.20e-01	74	58	0	211812352	39	7866
2026-01-02 23:47:01.69	118.88	11.38	-34.7	-40.5	10.7	6.22e-01	83	57	0	213909504	38	8095
2026-01-02 23:47:03.71	119.26	11.28	-32.1	-40.3	11.1	6.17e-01	66	57	0	217579520	40	7076
2026-01-02 23:47:05.73	119.63	11.17	-33.2	-40.1	12.8	6.11e-01	31	57	0	221249536	42	6151
2026-01-02 23:47:07.75	120.01	11.07	-26.4	-39.6	8.0	6.75e-01	51	58	0	224919552	34	9210
2026-01-02 23:47:09.77	120.37	10.96	-36.9	-42.3	11.1	6.18e-01	60	58	0	227016704	45	6704
2026-01-02 23:47:11.79	120.74	10.86	-36.0	-42.2	12.2	6.18e-01	56	58	0	230686720	44	6988
2026-01-02 23:47:13.81	121.10	10.75	-37.2	-42.4	11.4	6.17e-01	57	57	0	233308160	44	7148
2026-01-02 23:47:15.83	121.46	10.65	-37.9	-44.7	10.4	6.29e-01	87	57	0	235405312	45	8837
2026-01-02 23:47:17.84	121.82	10.54	-35.3	-43.8	9.1	6.48e-01	55	58	0	238551040	44	8441
2026-01-02 23:47:19.86	122.17	10.44	-29.5	-43.4	6.9	6.81e-01	22	58	0	242221056	41	9536
2026-01-02 23:47:21.88	122.53	10.33	-36.8	-40.5	15.4	6.06e-01	6	58	0	244318208	44	5781
2026-01-02 23:47:23.91	122.88	10.22	-36.5	-39.9	16.3	6.06e-01	3	58	0	246415360	43	5683
2026-01-02 23:47:25.92	123.22	10.11	-33.0	-40.7	12.9	6.13e-01	28	58	0	250085376	43	6243
2026-01-02 23:47:27.94	123.57	10.01	-32.0	-40.3	11.8	6.17e-01	63	58	0	254279680	39	7465
2026-01-02 23:47:29.96	123.91	9.90	-36.6	-41.2	13.7	6.09e-01	22	58	0	257949696	45	5860
2026-01-02 23:47:31.98	124.25	9.79	-36.4	-41.2	16.0	6.06e-01	9	57	0	261619712	44	6250
2026-01-02 23:47:34.00	124.58	9.68	-33.6	-40.5	13.8	6.09e-01	22	58	0	265289728	38	8134
2026-01-02 23:47:36.02	124.92	9.57	-30.8	-40.1	9.8	6.43e-01	81	58	0	267386880	28	13865
2026-01-02 23:47:38.04	125.25	9.46	-25.2	-39.9	10.7	6.29e-01	92	57	0	271056896	24	16947
2026-01-02 23:47:40.06	125.58	9.35	-18.0	-35.7	4.8	7.19e-01	0	57	0	274202624	9	24957
2026-01-02 23:47:42.08	125.90	9.24	-19.4	-39.8	7.3	6.53e-01	83	58	0	275775488	15	28222
2026-01-02 23:47:44.11	126.23	9.13	-19.0	-39.6	5.0	7.29e-01	0	57	104	276299776	11	34753
2026-01-02 23:47:46.12	126.55	9.02	-18.3	-37.9	4.6	7.36e-01	0	58	104	276299776	7	35804
2026-01-02 23:47:48.14	126.86	8.91	-16.8	-37.3	3.9	7.50e-01	0	58	104	276299776	1	47350
2026-01-02 23:47:50.16	127.18	8.80	-13.0	-32.1	3.6	7.45e-01	0	57	104	276299776	1	26126
2026-01-02 23:47:52.18	127.49	8.69	-13.9	-36.4	4.2	7.40e-01	0	58	104	276299776	1	42660
2026-01-02 23:47:54.20	127.80	8.58	-14.0	-35.4	3.4	7.46e-01	0	58	104	276299776	0	40316
2026-01-02 23:47:56.22	128.11	8.47	-15.5	-36.7	3.9	7.38e-01	0	58	104	276299776	2	41598
2026-01-02 23:47:58.24	128.42	8.35	-15.9	-37.3	3.1	7.48e-01	0	58	104	276299776	1	47451
2026-01-02 23:48:00.26	128.72	8.24	-10.6	-29.9	3.1	7.36e-01	0	58	104	276299776	0	21293
2026-01-02 23:48:02.28	129.02	8.13	-13.8	-37.0	3.5	7.52e-01	0	58	104	276299776	1	45675
2026-01-02 23:48:04.30	129.32	8.02	-14.6	-34.0	3.1	7.42e-01	0	58	104	276299776	2	30612
2026-01-02 23:48:06.32	129.61	7.91	-42.4	-62.5	4.1	7.54e-01	0	58	104	276299776	58	32401
2026-01-02 23:48:08.35	129.91	7.80	-46.0	-64.5	3.8	7.44e-01	0	58	104	276299776	62	32453
2026-01-02 23:48:10.37	130.20	7.68	-46.2	-64.8	3.8	7.44e-01	0	58	104	276299776	62	33446
2026-01-02 23:48:12.39	130.49	7.57	-46.3	-64.9	3.8	7.47e-01	0	58	104	276299776	63	32122
2026-01-02 23:48:14.41	130.78	7.46	-46.3	-65.0	3.8	7.49e-01	0	58	104	276299776	63	32184
2026-01-02 23:48:16.44	131.06	7.35	-46.2	-64.8	3.8	7.46e-01	0	58	104	276299776	63	31590
2026-01-02 23:48:18.46	131.34	7.24	-46.1	-64.7	3.8	7.49e-01	0	58	104	276299776	63	31157
2026-01-02 23:48:20.48	131.62	7.12	-46.0	-64.6	3.8	7.47e-01	0	58	104	276299776	63	31048
2026-01-02 23:48:22.50	131.90	7.01	-46.0	-64.6	3.8	7.45e-01	0	58	104	276299776	63	30918
2026-01-02 23:48:24.53	132.18	6.90	-46.0	-64.6	3.8	7.46e-01	0	58	104	276299776	63	30893
2026-01-02 23:48:26.55	132.45	6.79	-45.9	-64.6	3.8	7.45e-01	0	58	104	276299776	63	30895
2026-01-02 23:48:28.57	132.72	6.68	-45.9	-64.6	3.8	7.45e-01	0	58	104	276299776	63	30914
2026-01-02 23:48:30.59	132.99	6.56	-45.9	-64.6	3.8	7.47e-01	0	58	104	276299776	63	30889
2026-01-02 23:48:32.62	133.26	6.45	-45.9	-64.6	3.8	7.46e-01	0	58	104	276299776	63	30872
2026-01-02 23:48:34.64	133.52	6.34	-45.9	-64.6	3.8	7.43e-01	0	58	104	276299776	63	30867
2026-01-02 23:48:36.66	133.78	6.23	-45.9	-64.6	3.8	7.45e-01	0	58	104	276299776	63	30786
2026-01-02 23:48:38.68	134.04	6.12	-45.9	-64.6	3.8	7.45e-01	0	58	104	276299776	63	30764
2026-01-02 23:48:40.70	134.30	6.00	-45.9	-64.6	3.8	7.42e-01	0	58	104	276299776	63	30838
2026-01-02 23:48:42.73	134.56	5.89	-45.9	-64.5	3.8	7.44e-01	0	58	104	276299776	63	30724
2026-01-02 23:48:44.75	134.81	5.78	-45.9	-64.5	3.8	7.47e-01	0	58	104	276299776	63	30715
2026-01-02 23:48:46.77	135.06	5.67	-45.9	-64.6	3.8	7.47e-01	0	58	104	276299776	63	30783
2026-01-02 23:48:48.79	135.31	5.56	-45.9	-64.6	3.8	7.45e-01	0	58	104	276299776	63	30748
2026-01-02 23:48:50.82	135.56	5.45	-45.9	-64.6	3.8	7.48e-01	0	58	104	276299776	63	30743
2026-01-02 23:48:52.84	135.81	5.34	-45.9	-64.6	3.8	7.44e-01	0	58	104	276299776	63	30775
2026-01-02 23:48:54.86	136.05	5.23	-45.9	-64.5	3.8	7.44e-01	0	58	104	276299776	63	30689
2026-01-02 23:48:56.88	136.29	5.11	-45.9	-64.5	3.8	7.49e-01	0	58	104	276299776	63	30666
2026-01-02 23:48:58.90	136.53	5.00	-45.9	-64.6	3.8	7.47e-01	0	58	104	276299776	63	30755
2026-01-02 23:49:00.93	136.77	4.89	-45.9	-64.6	3.8	7.44e-01	0	58	104	276299776	63	30772
2026-01-02 23:49:02.95	137.01	4.78	-45.9	-64.5	3.8	7.45e-01	0	58	104	276299776	63	30728
2026-01-02 23:49:04.97	137.24	4.67	-45.9	-64.5	3.8	7.48e-01	0	58	104	276299776	63	30701
2026-01-02 23:49:06.99	137.47	4.56	-45.9	-64.6	3.8	7.49e-01	0	58	104	276299776	63	30762
2026-01-02 23:49:09.01	137.70	4.45	-45.9	-64.5	3.8	7.49e-01	0	58	104	276299776	63	30692
2026-01-02 23:49:11.04	137.93	4.34	-45.9	-64.6	3.8	7.43e-01	0	58	104	276299776	63	30739
2026-01-02 23:49:13.06	138.16	4.23	-45.9	-64.6	3.8	7.45e-01	0	58	104	276299776	63	30735
2026-01-02 23:49:15.08	138.38	4.12	-45.9	-64.5	3.8	7.45e-01	0	58	104	276299776	63	30669
2026-01-02 23:49:17.10	138.61	4.01	-45.9	-64.5	3.8	7.43e-01	0	58	104	276299776	63	30661
2026-01-02 23:49:19.13	138.83	3.90	-45.9	-64.5	3.8	7.44e-01	0	58	104	276299776	63	30694
2026-01-02 23:49:21.15	139.05	3.79	-45.9	-64.5	3.8	7.46e-01	0	58	104	276299776	63	30710
2026-01-02 23:49:23.17	139.27	3.69	-45.9	-64.5	3.8	7.50e-01	0	58	104	276299776	63	30726
2026-01-02 23:49:25.19	139.48	3.58	-45.9	-64.5	3.8	7.46e-01	0	58	104	276299776	63	30713
2026-01-02 23:49:27.21	139.70	3.47	-45.9	-64.5	3.8	7.45e-01	0	58	104	276299776	63	30682
2026-01-02 23:49:29.23	139.91	3.36	-45.9	-64.6	3.8	7.46e-01	0	58	104	276299776	63	30731
2026-01-02 23:49:31.26	140.12	3.25	-45.9	-64.5	3.8	7.47e-01	0	58	104	276299776	63	30683
2026-01-02 23:49:33.28	140.33	3.14	-45.9	-64.5	3.8	7.48e-01	0	58	104	276299776	63	30710
2026-01-02 23:49:35.30	140.54	3.04	-45.9	-64.5	3.8	7.44e-01	0	58	104	276299776	63	30622
2026-01-02 23:49:37.32	140.75	2.93	-45.9	-64.5	3.8	7.46e-01	0	58	104	276299776	63	30680
2026-01-02 23:49:39.34	140.95	2.82	-45.9	-64.5	3.8	7.46e-01	0	58	104	276299776	63	30704
2026-01-02 23:49:41.37	141.16	2.71	-45.9	-64.5	3.8	7.45e-01	0	58	104	276299776	63	30653
2026-01-02 23:49:43.39	141.36	2.61	-45.9	-64.5	3.8	7.47e-01	0	58	104	276299776	63	30637
2026-01-02 23:49:45.41	141.56	2.50	-45.9	-64.5	3.8	7.44e-01	0	58	104	276299776	63	30662
2026-01-02 23:49:47.43	141.76	2.39	-45.9	-64.5	3.8	7.43e-01	0	58	104	276299776	63	30603
2026-01-02 23:49:49.45	141.95	2.29	-45.8	-64.5	3.8	7.44e-01	0	58	104	276299776	63	30648
2026-01-02 23:49:51.48	142.15	2.18	-45.9	-64.5	3.8	7.50e-01	0	58	104	276299776	63	30614
2026-01-02 23:49:53.50	142.34	2.07	-45.9	-64.5	3.8	7.45e-01	0	58	104	276299776	63	30643
2026-01-02 23:49:55.52	142.54	1.97	-45.9	-64.5	3.8	7.43e-01	0	58	104	276299776	63	30602

#Closed at: 2026-01-02 23:49:55
#Recorded file [276 MB]: D:/lorett/data/31039_260103_024409.dat