passes_logs/2026/01/02/R2.0S_Moscow/R2.0S_Moscow__20260102_080045_NOAA_21_JPSS-2_rec.log

#Pass ID: 20260102_080045_NOAA 21 (JPSS-2)
#Satellite: NOAA 21 (JPSS-2)
#Configuration: NOAA-21
#almurnet v.1.7.20251203
#Start time: 2026-01-02 08:00:47

#Version: 2.2.20231116
#Station: R2.0S_Moscow
#Location: 37.707566 lon 55.798166 lat
#TLE: 1 54234U 22150A   26001.26806856  .00000185  00000+0  10843-3 0  9990
#TLE: 2 54234  98.7484 302.3349 0001277 353.3887   6.7272 14.19530660162860

#Time	Az	El	Level	Level2	SNR	BER	BlckErr	Temp	State	Recorded	gain1	gain2
2026-01-02 08:00:47.81	104.31	2.12	-39.4	-51.8	3.8	1.49e+00	0	47	0	0	49	15825
2026-01-02 08:00:50.83	104.08	2.29	-38.9	-51.5	3.8	1.49e+00	0	48	104	0	49	15385
2026-01-02 08:00:53.86	103.85	2.45	-39.3	-51.8	3.8	1.49e+00	0	48	104	0	49	15787
2026-01-02 08:00:56.90	103.61	2.62	-39.3	-51.7	3.8	1.49e+00	0	48	104	0	49	15753
2026-01-02 08:00:59.93	103.37	2.78	-39.3	-51.7	3.8	1.49e+00	0	48	104	0	49	15687
2026-01-02 08:01:02.97	103.13	2.95	-39.2	-51.7	3.8	1.49e+00	0	48	104	0	49	15655
2026-01-02 08:01:06.00	102.88	3.11	-39.3	-51.8	3.8	1.49e+00	0	49	104	0	49	15779
2026-01-02 08:01:09.03	102.64	3.28	-39.3	-51.7	3.8	1.49e+00	0	49	104	0	49	15755
2026-01-02 08:01:12.06	102.39	3.45	-39.3	-51.8	3.8	1.49e+00	0	49	104	0	49	15767
2026-01-02 08:01:15.10	102.13	3.61	-39.3	-51.8	3.8	1.49e+00	0	49	104	0	49	15771
2026-01-02 08:01:18.13	101.87	3.78	-39.3	-51.8	3.8	1.49e+00	0	49	104	0	49	15833
2026-01-02 08:01:21.16	101.61	3.95	-39.3	-51.8	3.8	1.49e+00	0	50	104	0	49	15790
2026-01-02 08:01:24.20	101.35	4.12	-39.3	-51.7	3.8	1.49e+00	0	50	104	0	49	15714
2026-01-02 08:01:27.23	101.08	4.29	-39.3	-51.8	3.8	1.49e+00	0	50	104	0	49	15771
2026-01-02 08:01:30.26	100.81	4.46	-39.3	-51.7	3.8	1.49e+00	0	50	104	0	49	15707
2026-01-02 08:01:33.30	100.54	4.63	-39.3	-51.8	3.8	1.49e+00	0	50	104	0	49	15776
2026-01-02 08:01:36.33	100.27	4.80	-39.2	-51.7	3.8	1.49e+00	0	50	104	0	49	15584
2026-01-02 08:01:39.36	99.99	4.97	-39.0	-51.5	3.8	1.49e+00	0	51	104	0	49	15282
2026-01-02 08:01:42.40	99.70	5.15	-39.3	-51.7	3.8	1.49e+00	0	51	104	0	49	15749
2026-01-02 08:01:45.43	99.42	5.32	-39.3	-51.7	3.8	1.49e+00	0	51	104	0	49	15735
2026-01-02 08:01:48.46	99.13	5.49	-39.3	-51.8	3.8	1.49e+00	0	51	104	0	49	15806
2026-01-02 08:01:51.50	98.83	5.67	-39.3	-51.7	3.8	1.49e+00	0	51	104	0	49	15733
2026-01-02 08:01:54.53	98.54	5.84	-39.3	-51.8	3.8	1.49e+00	0	51	104	0	49	15804
2026-01-02 08:01:57.56	98.24	6.01	-39.3	-51.7	3.8	1.49e+00	0	52	104	0	49	15678
2026-01-02 08:02:00.60	97.93	6.19	-39.2	-51.7	3.8	1.49e+00	0	52	104	0	49	15687
2026-01-02 08:02:03.63	97.62	6.36	-39.3	-51.8	3.8	1.49e+00	0	52	104	0	49	15768
2026-01-02 08:02:06.66	97.31	6.54	-39.3	-51.7	3.8	1.49e+00	0	52	104	0	49	15693
2026-01-02 08:02:09.70	97.00	6.72	-39.3	-51.7	3.8	1.49e+00	0	52	104	0	49	15738
2026-01-02 08:02:12.73	96.68	6.89	-39.1	-51.7	3.8	1.49e+00	0	52	104	0	49	15683
2026-01-02 08:02:15.77	96.35	7.07	-39.2	-51.7	3.8	1.49e+00	0	52	104	0	49	15594
2026-01-02 08:02:18.80	96.03	7.25	-39.3	-51.7	3.8	1.49e+00	0	53	104	0	49	15613
2026-01-02 08:02:21.83	95.69	7.42	-39.3	-51.7	3.8	1.49e+00	0	53	104	0	49	15636
2026-01-02 08:02:24.87	95.36	7.60	-39.3	-51.7	3.8	1.49e+00	0	53	104	0	49	15738
2026-01-02 08:02:27.90	95.02	7.78	-39.3	-51.7	3.8	1.49e+00	0	53	104	0	49	15706
2026-01-02 08:02:30.93	94.67	7.96	-39.3	-51.8	3.8	1.49e+00	0	53	104	0	49	15784
2026-01-02 08:02:33.97	94.32	8.14	-39.8	-52.1	3.8	1.49e+00	0	53	104	0	50	15570
2026-01-02 08:02:37.00	93.97	8.31	-39.4	-51.8	3.8	1.49e+00	0	53	104	0	50	14900
2026-01-02 08:02:40.03	93.61	8.49	-39.8	-52.2	3.8	1.49e+00	0	53	104	0	50	15738
2026-01-02 08:02:43.06	93.25	8.67	-39.5	-51.9	3.8	1.49e+00	0	53	104	0	50	15137
2026-01-02 08:02:46.09	92.89	8.85	-39.6	-51.9	3.8	1.49e+00	0	53	104	0	50	15104
2026-01-02 08:02:49.12	92.52	9.03	-39.6	-51.9	3.8	1.49e+00	0	53	104	0	51	14245
2026-01-02 08:02:52.15	92.14	9.21	-39.6	-51.9	3.8	1.49e+00	0	54	104	0	50	15179
2026-01-02 08:02:55.18	91.76	9.39	-40.7	-52.8	3.8	1.49e+00	0	53	104	0	52	14933
2026-01-02 08:02:58.21	91.38	9.57	-39.6	-50.8	3.8	1.49e+00	0	54	104	0	51	12565
2026-01-02 08:03:01.24	90.99	9.75	-39.5	-48.1	4.4	1.45e+00	0	54	104	0	50	9795
2026-01-02 08:03:04.27	90.59	9.93	-40.5	-48.7	4.0	1.47e+00	0	54	104	4194304	52	9327
2026-01-02 08:03:07.30	90.19	10.11	-40.2	-50.8	3.9	1.48e+00	0	54	104	4194304	51	12522
2026-01-02 08:03:10.33	89.79	10.29	-40.5	-52.8	3.8	1.49e+00	0	54	104	4194304	51	15816
2026-01-02 08:03:13.35	89.38	10.47	-40.1	-52.6	3.8	1.49e+00	0	54	104	4194304	51	15521
2026-01-02 08:03:16.38	88.96	10.65	-40.2	-52.6	3.8	1.49e+00	0	54	104	4194304	51	15580
2026-01-02 08:03:19.42	88.54	10.83	-40.2	-52.8	3.8	1.49e+00	0	54	104	4194304	51	15787
2026-01-02 08:03:22.44	88.12	11.01	-40.1	-52.6	3.8	1.49e+00	0	54	104	4194304	51	15523
2026-01-02 08:03:25.47	87.69	11.18	-40.1	-52.6	3.8	1.49e+00	0	54	104	4194304	51	15480
2026-01-02 08:03:28.50	87.25	11.36	-40.1	-52.6	3.8	1.49e+00	0	55	104	4194304	51	15435
2026-01-02 08:03:31.54	86.81	11.54	-40.1	-52.6	3.8	1.49e+00	0	54	104	4194304	51	15450
2026-01-02 08:03:34.57	86.36	11.72	-40.2	-52.6	3.8	1.49e+00	0	54	104	4194304	51	15411
2026-01-02 08:03:37.60	85.91	11.90	-40.1	-52.5	3.8	1.49e+00	0	55	104	4194304	51	15313
2026-01-02 08:03:40.62	85.46	12.07	-40.0	-52.4	3.8	1.49e+00	0	55	104	4194304	51	15161
2026-01-02 08:03:43.65	84.99	12.25	-39.9	-52.2	3.8	1.49e+00	0	55	104	4194304	51	14873
2026-01-02 08:03:46.68	84.52	12.43	-39.9	-52.3	3.8	1.49e+00	0	55	104	4194304	51	14999
2026-01-02 08:03:49.71	84.05	12.60	-40.1	-52.3	3.8	1.49e+00	0	55	104	4194304	51	15044
2026-01-02 08:03:52.74	83.57	12.78	-40.0	-52.3	3.8	1.49e+00	0	55	104	4194304	51	14989
2026-01-02 08:03:55.77	83.08	12.95	-40.5	-52.4	3.8	1.49e+00	0	55	104	4194304	51	15200
2026-01-02 08:03:58.80	82.59	13.12	-40.0	-52.3	3.8	1.49e+00	0	55	104	4194304	51	14919
2026-01-02 08:04:01.83	82.09	13.29	-40.2	-51.6	3.8	1.49e+00	0	55	104	4194304	51	13786
2026-01-02 08:04:04.86	81.59	13.47	-40.0	-52.4	3.8	1.49e+00	0	55	104	4194304	51	15090
2026-01-02 08:04:07.89	81.08	13.64	-40.1	-51.1	3.8	1.49e+00	0	55	104	4194304	51	13108
2026-01-02 08:04:10.92	80.56	13.80	-40.8	-49.9	4.2	1.46e+00	0	55	104	4194304	52	10698
2026-01-02 08:04:13.95	80.04	13.97	-40.6	-48.5	4.7	1.41e+00	0	55	104	5242880	52	9132
2026-01-02 08:04:16.98	79.52	14.14	-40.2	-46.3	6.1	3.29e-01	0	55	0	12582912	52	7118
2026-01-02 08:04:20.01	78.98	14.30	-39.9	-44.9	8.0	7.44e-02	0	55	0	22020096	51	6354
2026-01-02 08:04:23.04	78.44	14.47	-38.5	-41.8	10.8	3.92e-03	0	55	0	31457280	49	5027
2026-01-02 08:04:26.07	77.90	14.63	-37.6	-40.5	12.0	3.27e-04	0	55	0	40894464	47	4850
2026-01-02 08:04:29.10	77.35	14.79	-37.5	-40.3	12.1	2.52e-04	0	55	0	50331648	46	5023
2026-01-02 08:04:32.13	76.79	14.95	-37.8	-40.9	11.4	8.86e-04	0	56	0	60817408	46	5399
2026-01-02 08:04:35.16	76.23	15.11	-37.8	-41.0	11.4	1.06e-03	0	55	0	70254592	46	5424
2026-01-02 08:04:38.19	75.66	15.26	-38.0	-41.2	11.1	1.59e-03	0	55	0	79691776	46	5580
2026-01-02 08:04:41.22	75.08	15.42	-38.0	-41.2	11.0	1.78e-03	0	55	0	89128960	46	5589
2026-01-02 08:04:44.25	74.50	15.57	-38.2	-41.7	10.5	3.99e-03	0	55	0	98566144	46	5890
2026-01-02 08:04:47.28	73.91	15.72	-38.4	-42.3	9.8	1.07e-02	0	56	0	108003328	47	5951
2026-01-02 08:04:50.30	73.32	15.87	-38.4	-42.2	9.8	9.22e-03	0	56	0	117440512	47	5884
2026-01-02 08:04:53.33	72.73	16.01	-38.3	-42.2	9.7	1.03e-02	0	56	0	126877696	47	5917
2026-01-02 08:04:56.37	72.12	16.15	-38.2	-41.8	10.2	5.89e-03	0	56	0	136314880	47	5640
2026-01-02 08:04:59.40	71.51	16.29	-37.9	-41.3	10.8	2.62e-03	0	56	0	145752064	47	5315
2026-01-02 08:05:02.43	70.89	16.43	-37.7	-40.6	11.9	7.70e-04	0	56	0	155189248	47	4903
2026-01-02 08:05:05.45	70.27	16.57	-37.4	-40.0	13.0	5.26e-05	0	56	0	164626432	46	4856
2026-01-02 08:05:08.48	69.65	16.70	-37.2	-39.4	14.1	1.50e-06	0	56	0	174063616	46	4505
2026-01-02 08:05:11.52	69.01	16.83	-36.5	-38.4	15.5	0.00e+00	0	56	0	183500800	45	4244
2026-01-02 08:05:14.55	68.37	16.96	-36.3	-38.0	16.2	0.00e+00	0	56	0	192937984	44	4304
2026-01-02 08:05:17.57	67.73	17.08	-36.2	-37.7	16.8	0.00e+00	0	56	0	202375168	44	4193
2026-01-02 08:05:20.61	67.08	17.20	-36.0	-37.5	17.2	0.00e+00	0	56	0	211812352	44	4087
2026-01-02 08:05:23.64	66.43	17.32	-35.7	-37.2	17.5	0.00e+00	0	56	0	221249536	43	4147
2026-01-02 08:05:26.67	65.77	17.43	-35.5	-36.9	17.8	0.00e+00	0	56	0	230686720	43	4044
2026-01-02 08:05:29.70	65.10	17.54	-35.4	-36.8	18.0	0.00e+00	0	56	0	240123904	42	4207
2026-01-02 08:05:32.73	64.43	17.65	-35.5	-36.8	18.0	0.00e+00	0	56	0	249561088	42	4228
2026-01-02 08:05:35.76	63.76	17.76	-35.5	-36.8	18.0	0.00e+00	0	56	0	258998272	42	4237
2026-01-02 08:05:38.79	63.08	17.86	-35.5	-36.8	18.0	0.00e+00	0	56	0	268435456	42	4235
2026-01-02 08:05:41.82	62.40	17.95	-35.5	-36.9	18.0	0.00e+00	0	56	0	277872640	42	4262
2026-01-02 08:05:44.85	61.71	18.04	-35.6	-37.0	17.9	0.00e+00	0	56	0	287309824	42	4329
2026-01-02 08:05:47.88	61.02	18.13	-35.8	-37.3	17.7	0.00e+00	0	56	0	296747008	42	4453
2026-01-02 08:05:50.91	60.33	18.22	-35.8	-37.2	17.8	0.00e+00	0	56	0	306184192	42	4419
2026-01-02 08:05:53.94	59.63	18.30	-35.7	-37.1	17.9	0.00e+00	0	56	0	315621376	42	4351
2026-01-02 08:05:56.98	58.93	18.37	-35.8	-37.1	17.8	0.00e+00	0	56	0	325058560	42	4389
2026-01-02 08:06:00.01	58.22	18.45	-35.8	-37.1	17.9	0.00e+00	0	56	0	334495744	42	4388
2026-01-02 08:06:03.03	57.51	18.51	-35.8	-37.2	17.9	0.00e+00	0	56	0	343932928	42	4393
2026-01-02 08:06:06.05	56.80	18.58	-36.0	-37.5	17.6	0.00e+00	0	56	0	354418688	42	4561
2026-01-02 08:06:09.09	56.09	18.64	-35.8	-37.1	17.9	0.00e+00	0	56	0	362807296	42	4389
2026-01-02 08:06:12.12	55.37	18.69	-35.8	-37.1	17.9	0.00e+00	0	56	0	373293056	42	4389
2026-01-02 08:06:15.15	54.65	18.74	-35.8	-37.1	17.9	0.00e+00	0	56	0	382730240	42	4384
2026-01-02 08:06:18.18	53.93	18.79	-35.8	-37.2	17.9	0.00e+00	0	56	0	392167424	42	4393
2026-01-02 08:06:21.21	53.21	18.83	-35.7	-37.1	17.9	0.00e+00	0	56	0	401604608	42	4371
2026-01-02 08:06:24.24	52.48	18.86	-35.8	-37.1	17.9	0.00e+00	0	56	0	411041792	42	4384
2026-01-02 08:06:27.27	51.75	18.89	-35.7	-37.1	18.0	0.00e+00	0	56	0	420478976	42	4362
2026-01-02 08:06:30.30	51.02	18.92	-35.9	-37.4	17.8	0.00e+00	0	56	0	429916160	42	4495
2026-01-02 08:06:33.33	50.29	18.94	-35.7	-37.1	18.0	0.00e+00	0	56	0	439353344	42	4364
2026-01-02 08:06:36.36	49.56	18.96	-35.6	-36.9	18.2	0.00e+00	0	56	0	448790528	42	4267
2026-01-02 08:06:39.39	48.83	18.97	-35.4	-36.7	18.4	0.00e+00	0	56	0	458227712	42	4189
2026-01-02 08:06:42.42	48.10	18.98	-35.6	-36.9	18.2	0.00e+00	0	56	0	467664896	42	4273
2026-01-02 08:06:45.45	47.37	18.98	-35.8	-37.1	18.0	0.00e+00	0	56	0	477102080	42	4387
2026-01-02 08:06:48.48	46.64	18.98	-35.8	-37.1	18.0	0.00e+00	0	56	0	486539264	42	4385
2026-01-02 08:06:51.51	45.91	18.97	-35.8	-37.2	17.8	0.00e+00	0	56	0	495976448	42	4430
2026-01-02 08:06:54.54	45.17	18.96	-35.8	-37.2	17.9	0.00e+00	0	56	0	505413632	42	4403
2026-01-02 08:06:57.56	44.45	18.94	-35.8	-37.2	18.0	0.00e+00	0	56	0	514850816	42	4398
2026-01-02 08:07:00.60	43.71	18.92	-35.6	-36.9	18.1	0.00e+00	0	56	0	524288000	42	4279
2026-01-02 08:07:03.63	42.99	18.89	-35.6	-36.9	18.2	0.00e+00	0	56	0	533725184	42	4264
2026-01-02 08:07:06.66	42.26	18.86	-35.5	-36.9	18.2	0.00e+00	0	56	0	543162368	42	4255
2026-01-02 08:07:09.68	41.54	18.82	-35.7	-37.1	18.0	0.00e+00	0	56	0	552599552	42	4358
2026-01-02 08:07:12.71	40.81	18.78	-35.8	-37.2	18.0	0.00e+00	0	56	0	562036736	42	4397
2026-01-02 08:07:15.74	40.09	18.74	-35.7	-37.1	18.0	0.00e+00	0	57	0	571473920	42	4350
2026-01-02 08:07:18.77	39.38	18.69	-35.5	-36.9	18.2	0.00e+00	0	56	0	580911104	42	4253
2026-01-02 08:07:21.80	38.66	18.63	-35.6	-37.0	18.1	0.00e+00	0	56	0	590348288	42	4313
2026-01-02 08:07:24.83	37.95	18.57	-35.5	-36.8	18.3	0.00e+00	0	57	0	599785472	42	4222
2026-01-02 08:07:27.86	37.24	18.51	-35.4	-36.7	18.3	0.00e+00	0	56	0	609222656	42	4171
2026-01-02 08:07:30.89	36.53	18.44	-35.5	-36.9	18.2	0.00e+00	0	56	0	618659840	42	4244
2026-01-02 08:07:33.92	35.82	18.37	-35.6	-36.9	18.1	0.00e+00	0	57	0	628097024	42	4284
2026-01-02 08:07:36.95	35.12	18.29	-35.5	-36.8	18.2	0.00e+00	0	56	0	637534208	42	4238
2026-01-02 08:07:39.98	34.43	18.21	-35.5	-36.9	18.2	0.00e+00	0	56	0	646971392	42	4249
2026-01-02 08:07:43.01	33.74	18.13	-35.7	-37.1	18.0	0.00e+00	0	56	0	656408576	42	4345
2026-01-02 08:07:46.04	33.05	18.04	-35.8	-37.1	18.0	0.00e+00	0	56	0	665845760	42	4389
2026-01-02 08:07:49.07	32.36	17.95	-35.8	-37.1	18.0	0.00e+00	0	56	0	675282944	42	4388
2026-01-02 08:07:52.11	31.68	17.85	-35.9	-37.3	17.8	0.00e+00	0	56	0	685768704	42	4465
2026-01-02 08:07:55.14	31.00	17.75	-35.7	-37.0	18.0	0.00e+00	0	57	0	695205888	42	4334
2026-01-02 08:07:58.17	30.33	17.65	-35.6	-36.9	18.2	0.00e+00	0	56	0	704643072	42	4266
2026-01-02 08:08:01.20	29.67	17.54	-35.6	-37.0	18.1	0.00e+00	0	56	0	714080256	42	4311
2026-01-02 08:08:04.23	29.00	17.43	-35.7	-37.1	17.9	0.00e+00	0	56	0	723517440	42	4374
2026-01-02 08:08:07.27	28.35	17.31	-35.8	-37.2	17.9	0.00e+00	0	57	0	732954624	42	4403
2026-01-02 08:08:10.30	27.69	17.20	-35.6	-36.9	18.1	0.00e+00	0	56	0	742391808	42	4279
2026-01-02 08:08:13.33	27.05	17.08	-35.6	-37.0	18.1	0.00e+00	0	56	0	751828992	42	4300
2026-01-02 08:08:16.36	26.41	16.95	-35.5	-36.8	18.2	0.00e+00	0	56	0	761266176	42	4225
2026-01-02 08:08:19.39	25.77	16.83	-35.6	-36.9	18.1	0.00e+00	0	56	0	770703360	42	4273
2026-01-02 08:08:22.42	25.14	16.70	-35.7	-37.1	18.0	0.00e+00	0	56	0	780140544	42	4345
2026-01-02 08:08:25.45	24.52	16.56	-35.9	-37.3	17.7	0.00e+00	0	56	0	789577728	42	4492
2026-01-02 08:08:28.48	23.90	16.43	-35.8	-37.1	17.8	0.00e+00	0	56	0	799014912	42	4390
2026-01-02 08:08:31.51	23.29	16.29	-35.7	-37.1	17.9	0.00e+00	0	56	0	808452096	42	4364
2026-01-02 08:08:34.54	22.68	16.15	-35.9	-37.4	17.7	0.00e+00	0	57	0	817889280	42	4497
2026-01-02 08:08:37.57	22.08	16.01	-36.3	-37.8	17.2	0.00e+00	0	56	0	827326464	43	4456
2026-01-02 08:08:40.61	21.48	15.86	-36.2	-37.6	17.4	0.00e+00	0	57	0	836763648	43	4387
2026-01-02 08:08:43.64	20.89	15.72	-36.0	-37.5	17.5	0.00e+00	0	57	0	846200832	43	4309
2026-01-02 08:08:46.67	20.31	15.57	-36.0	-37.5	17.5	0.00e+00	0	57	0	855638016	43	4298
2026-01-02 08:08:49.70	19.73	15.41	-36.0	-37.4	17.6	0.00e+00	0	56	0	865075200	43	4270
2026-01-02 08:08:52.73	19.16	15.26	-36.0	-37.5	17.4	0.00e+00	0	57	0	874512384	43	4311
2026-01-02 08:08:55.76	18.59	15.11	-36.2	-37.7	17.3	0.00e+00	0	57	0	883949568	43	4404
2026-01-02 08:08:58.80	18.03	14.95	-36.3	-37.8	17.2	0.00e+00	0	57	0	893386752	43	4464
2026-01-02 08:09:01.82	17.48	14.79	-36.4	-37.9	17.1	0.00e+00	0	56	0	902823936	43	4520
2026-01-02 08:09:04.86	16.93	14.63	-36.5	-38.0	17.0	0.00e+00	0	56	0	912261120	43	4578
2026-01-02 08:09:07.88	16.39	14.47	-36.6	-38.1	16.9	0.00e+00	0	56	0	921698304	43	4633
2026-01-02 08:09:10.91	15.85	14.30	-36.5	-38.0	17.0	0.00e+00	0	56	0	931135488	43	4581
2026-01-02 08:09:13.95	15.32	14.14	-36.5	-38.0	17.0	0.00e+00	0	56	0	940572672	43	4591
2026-01-02 08:09:16.97	14.80	13.97	-36.5	-38.0	17.0	0.00e+00	0	57	0	950009856	43	4567
2026-01-02 08:09:20.01	14.28	13.81	-36.4	-38.0	17.0	0.00e+00	0	57	0	960495616	43	4548
2026-01-02 08:09:23.04	13.77	13.64	-36.3	-37.8	17.1	0.00e+00	0	57	0	968884224	43	4492
2026-01-02 08:09:26.07	13.26	13.47	-36.3	-37.8	17.1	0.00e+00	0	56	0	979369984	43	4477
2026-01-02 08:09:29.09	12.76	13.30	-36.2	-37.7	17.2	0.00e+00	0	57	0	987758592	43	4424
2026-01-02 08:09:32.12	12.27	13.13	-36.4	-37.9	17.0	0.00e+00	0	57	0	998244352	43	4516
2026-01-02 08:09:35.15	11.78	12.95	-36.4	-38.0	16.9	0.00e+00	0	56	0	1007681536	43	4553
2026-01-02 08:09:38.19	11.30	12.78	-36.5	-38.1	16.7	0.00e+00	0	56	0	1017118720	43	4610
2026-01-02 08:09:41.22	10.82	12.61	-36.3	-37.9	16.8	0.00e+00	0	57	0	1026555904	43	4510
2026-01-02 08:09:44.25	10.35	12.43	-36.2	-37.8	16.8	0.00e+00	0	57	0	1035993088	43	4473
2026-01-02 08:09:47.27	9.88	12.26	-36.1	-37.7	16.7	0.00e+00	0	56	0	1045430272	43	4439
2026-01-02 08:09:50.31	9.42	12.08	-36.1	-37.7	16.4	0.00e+00	0	56	0	1054867456	43	4429
2026-01-02 08:09:53.34	8.97	11.91	-36.7	-38.6	15.1	0.00e+00	0	56	0	1064304640	43	4926
2026-01-02 08:09:56.36	8.52	11.73	-37.6	-40.1	13.3	9.10e-06	0	56	0	1073741824	45	5189
2026-01-02 08:09:59.39	8.08	11.55	-38.4	-41.7	10.9	1.31e-03	0	57	0	1083179008	47	5585
2026-01-02 08:10:02.40	7.64	11.38	-39.4	-44.4	7.8	6.38e-02	0	57	0	1092616192	49	6742
2026-01-02 08:10:05.43	7.21	11.20	-40.0	-48.5	4.4	1.47e+00	5	57	104	1099956224	50	10274
2026-01-02 08:10:08.47	6.78	11.02	-40.2	-50.5	3.9	1.49e+00	0	57	104	1099956224	50	12939
2026-01-02 08:10:11.50	6.36	10.84	-40.2	-51.4	3.8	1.49e+00	0	57	104	1099956224	51	13565
2026-01-02 08:10:14.53	5.95	10.66	-40.3	-52.0	3.8	1.49e+00	0	57	104	1099956224	52	13689
2026-01-02 08:10:17.56	5.53	10.48	-39.6	-52.1	3.8	1.49e+00	0	57	104	1099956224	51	14542
2026-01-02 08:10:20.58	5.13	10.31	-39.5	-52.0	3.8	1.49e+00	0	57	104	1099956224	50	15278
2026-01-02 08:10:23.61	4.73	10.13	-39.5	-51.9	3.8	1.49e+00	0	57	104	1099956224	50	15184
2026-01-02 08:10:26.64	4.33	9.95	-39.6	-52.0	3.8	1.49e+00	0	57	104	1099956224	50	15298
2026-01-02 08:10:29.68	3.94	9.77	-39.6	-52.0	3.8	1.49e+00	0	57	104	1099956224	50	15300
2026-01-02 08:10:32.71	3.55	9.59	-39.6	-52.0	3.8	1.49e+00	0	57	104	1099956224	50	15354
2026-01-02 08:10:35.74	3.17	9.41	-39.6	-51.9	3.8	1.49e+00	0	57	104	1099956224	50	15209
2026-01-02 08:10:38.77	2.80	9.23	-39.6	-52.0	3.8	1.49e+00	0	57	104	1099956224	50	15240
2026-01-02 08:10:41.80	2.42	9.05	-39.5	-52.0	3.8	1.49e+00	0	57	104	1099956224	50	15274
2026-01-02 08:10:44.82	2.06	8.87	-39.3	-52.0	3.8	1.49e+00	0	57	104	1099956224	50	15286
2026-01-02 08:10:47.85	1.70	8.70	-39.4	-52.1	3.8	1.49e+00	0	57	104	1099956224	50	15428
2026-01-02 08:10:50.88	1.34	8.52	-39.3	-51.9	3.8	1.49e+00	0	57	104	1099956224	50	15141
2026-01-02 08:10:53.91	0.98	8.34	-39.3	-52.0	3.8	1.49e+00	0	57	104	1099956224	50	15270
2026-01-02 08:10:56.94	0.64	8.16	-39.3	-52.1	3.8	1.49e+00	0	57	104	1099956224	50	15406
2026-01-02 08:10:59.98	0.29	7.98	-39.5	-52.0	3.8	1.49e+00	0	57	104	1099956224	50	15273
2026-01-02 08:11:03.01	359.95	7.80	-44.8	-57.2	3.8	1.49e+00	0	57	104	1099956224	60	15626
2026-01-02 08:11:06.05	359.61	7.63	-45.1	-57.5	3.8	1.49e+00	0	57	104	1099956224	60	16164
2026-01-02 08:11:09.08	359.28	7.45	-45.0	-57.4	3.8	1.49e+00	0	57	104	1099956224	60	16039
2026-01-02 08:11:12.11	358.95	7.27	-44.9	-57.2	3.8	1.49e+00	0	57	104	1099956224	60	15751
2026-01-02 08:11:15.14	358.63	7.10	-44.8	-57.1	3.8	1.49e+00	0	57	104	1099956224	60	15579
2026-01-02 08:11:18.18	358.31	6.92	-44.8	-57.1	3.8	1.49e+00	0	57	104	1099956224	60	15513
2026-01-02 08:11:21.21	357.99	6.75	-44.8	-57.1	3.8	1.49e+00	0	57	104	1099956224	60	15526
2026-01-02 08:11:24.24	357.68	6.57	-44.8	-57.1	3.8	1.49e+00	0	57	104	1099956224	60	15536
2026-01-02 08:11:27.28	357.37	6.39	-44.8	-57.1	3.8	1.49e+00	0	57	104	1099956224	60	15519
2026-01-02 08:11:30.31	357.07	6.22	-44.8	-57.1	3.8	1.49e+00	0	57	104	1099956224	60	15450
2026-01-02 08:11:33.34	356.77	6.05	-44.8	-57.1	3.8	1.49e+00	0	57	104	1099956224	60	15482
2026-01-02 08:11:36.38	356.47	5.87	-44.7	-57.1	3.8	1.49e+00	0	57	104	1099956224	60	15450
2026-01-02 08:11:39.41	356.18	5.70	-44.8	-57.1	3.8	1.49e+00	0	57	104	1099956224	60	15509
2026-01-02 08:11:42.44	355.89	5.53	-44.8	-57.1	3.8	1.49e+00	0	57	104	1099956224	60	15448
2026-01-02 08:11:45.47	355.60	5.35	-44.8	-57.1	3.8	1.49e+00	0	57	104	1099956224	60	15493
2026-01-02 08:11:48.51	355.32	5.18	-44.8	-57.1	3.8	1.49e+00	0	57	104	1099956224	60	15482
2026-01-02 08:11:51.54	355.04	5.01	-44.7	-57.1	3.8	1.49e+00	0	57	104	1099956224	60	15484
2026-01-02 08:11:54.57	354.76	4.84	-44.7	-57.1	3.8	1.49e+00	0	57	104	1099956224	60	15464
2026-01-02 08:11:57.61	354.49	4.67	-44.7	-57.1	3.8	1.49e+00	0	57	104	1099956224	60	15411
2026-01-02 08:12:00.63	354.22	4.50	-44.7	-57.1	3.8	1.49e+00	0	57	104	1099956224	60	15404
2026-01-02 08:12:03.67	353.95	4.33	-44.7	-57.1	3.8	1.49e+00	0	57	104	1099956224	60	15425
2026-01-02 08:12:06.70	353.69	4.16	-44.7	-57.1	3.8	1.49e+00	0	57	104	1099956224	60	15409
2026-01-02 08:12:09.73	353.43	3.99	-44.7	-57.1	3.8	1.49e+00	0	57	104	1099956224	60	15465
2026-01-02 08:12:12.77	353.18	3.82	-44.7	-57.1	3.8	1.49e+00	0	57	104	1099956224	60	15421
2026-01-02 08:12:15.80	352.92	3.66	-44.7	-57.1	3.8	1.49e+00	0	57	104	1099956224	60	15413
2026-01-02 08:12:18.83	352.67	3.49	-44.7	-57.0	3.8	1.49e+00	0	57	104	1099956224	60	15390
2026-01-02 08:12:21.87	352.42	3.32	-44.7	-57.1	3.8	1.49e+00	0	57	104	1099956224	60	15431
2026-01-02 08:12:24.90	352.18	3.16	-44.7	-57.1	3.8	1.49e+00	0	57	104	1099956224	60	15403
2026-01-02 08:12:27.93	351.94	2.99	-44.7	-57.0	3.8	1.49e+00	0	57	104	1099956224	60	15392
2026-01-02 08:12:30.97	351.70	2.82	-44.7	-57.0	3.8	1.49e+00	0	57	104	1099956224	60	15357
2026-01-02 08:12:34.00	351.46	2.66	-44.7	-57.1	3.8	1.49e+00	0	57	104	1099956224	60	15413
2026-01-02 08:12:37.03	351.23	2.50	-44.7	-57.1	3.8	1.49e+00	0	57	104	1099956224	60	15435
2026-01-02 08:12:40.07	351.00	2.33	-44.7	-57.1	3.8	1.49e+00	0	57	104	1099956224	60	15404
2026-01-02 08:12:43.10	350.77	2.17	-44.7	-57.0	3.8	1.49e+00	0	57	104	1099956224	60	15353
2026-01-02 08:12:46.13	350.55	2.01	-44.7	-57.0	3.8	1.49e+00	0	57	104	1099956224	60	15378

#Closed at: 2026-01-02 08:12:46
#Recorded file [1099 MB]: D:/lorett/data/31039_260102_110047.dat