passes_logs/2026/01/02/R2.0S_Moscow/R2.0S_Moscow__20260102_003817_AQUA_rec.log

#Pass ID: 20260102_003817_AQUA
#Satellite: AQUA
#Configuration: AQUA
#almurnet v.1.7.20251203
#Start time: 2026-01-02 00:38:18

#Version: 2.2.20231116
#Station: R2.0S_Moscow
#Location: 37.707566 lon 55.798166 lat
#TLE: 1 27424U 02022A   25365.92641127  .00002078  00000+0  42628-3 0  9999
#TLE: 2 27424  98.4058 327.1196 0001962  94.7781 340.6230 14.61783896258835

#Time	Az	El	Level	Level2	SNR	BER	BlckErr	Temp	State	Recorded	gain1	gain2
2026-01-02 00:38:18.71	20.41	2.05	-41.1	-61.3	3.8	7.44e-01	0	49	0	0	54	35681
2026-01-02 00:38:21.73	20.53	2.24	-41.0	-61.3	3.8	7.46e-01	0	49	104	0	52	39986
2026-01-02 00:38:24.77	20.66	2.44	-41.1	-61.3	3.8	7.45e-01	0	49	104	0	52	39996
2026-01-02 00:38:27.80	20.79	2.64	-41.1	-61.3	3.8	7.45e-01	0	49	104	0	52	39997
2026-01-02 00:38:30.83	20.92	2.83	-41.1	-61.3	3.8	7.45e-01	0	50	104	0	52	39918
2026-01-02 00:38:33.87	21.05	3.03	-41.1	-61.3	3.8	7.45e-01	0	50	104	0	52	39943
2026-01-02 00:38:36.90	21.19	3.23	-41.1	-61.3	3.8	7.49e-01	0	50	104	0	52	39897
2026-01-02 00:38:39.93	21.32	3.44	-41.1	-61.3	3.8	7.47e-01	0	50	104	0	52	39819
2026-01-02 00:38:42.97	21.46	3.64	-41.0	-61.3	3.8	7.45e-01	0	50	104	0	52	39777
2026-01-02 00:38:46.00	21.60	3.85	-41.1	-61.3	3.8	7.50e-01	0	50	104	0	52	39803
2026-01-02 00:38:49.03	21.74	4.05	-41.1	-61.3	3.8	7.49e-01	0	51	104	0	52	39775
2026-01-02 00:38:52.06	21.88	4.26	-41.0	-61.3	3.8	7.45e-01	0	51	104	0	52	39831
2026-01-02 00:38:55.10	22.03	4.48	-41.0	-61.3	3.8	7.46e-01	0	51	104	0	52	39839
2026-01-02 00:38:58.13	22.18	4.69	-41.0	-61.3	3.8	7.46e-01	0	51	104	0	52	39702
2026-01-02 00:39:01.16	22.33	4.90	-41.0	-61.3	3.8	7.42e-01	0	51	104	0	52	39783
2026-01-02 00:39:04.19	22.48	5.12	-41.0	-61.3	3.8	7.44e-01	0	52	104	0	52	39758
2026-01-02 00:39:07.23	22.63	5.34	-41.1	-61.3	3.8	7.44e-01	0	52	104	0	52	39763
2026-01-02 00:39:10.26	22.79	5.56	-41.1	-61.3	3.8	7.47e-01	0	52	104	0	52	39791
2026-01-02 00:39:13.29	22.95	5.78	-41.1	-61.3	3.8	7.45e-01	0	52	104	0	52	39738
2026-01-02 00:39:16.33	23.11	6.00	-41.0	-61.2	3.8	7.44e-01	0	52	104	0	52	39531
2026-01-02 00:39:19.36	23.28	6.23	-41.1	-61.3	3.8	7.44e-01	0	52	104	0	52	39685
2026-01-02 00:39:22.39	23.44	6.46	-41.0	-61.1	3.8	7.45e-01	0	52	104	0	52	38719
2026-01-02 00:39:25.43	23.61	6.69	-41.0	-61.1	3.8	7.44e-01	0	53	104	0	52	38883
2026-01-02 00:39:28.46	23.78	6.92	-41.1	-61.0	3.8	7.45e-01	0	53	104	0	52	38510
2026-01-02 00:39:31.49	23.96	7.15	-41.0	-59.6	3.8	7.43e-01	0	53	104	0	52	32815
2026-01-02 00:39:34.53	24.14	7.39	-40.9	-55.3	5.2	7.04e-01	0	53	104	0	52	19956
2026-01-02 00:39:37.56	24.32	7.63	-40.5	-50.6	9.3	6.27e-01	0	53	0	4718592	52	11599
2026-01-02 00:39:40.59	24.50	7.87	-39.5	-45.4	14.9	6.03e-01	0	53	0	10485760	51	6730
2026-01-02 00:39:43.62	24.69	8.11	-38.5	-42.1	19.1	6.05e-01	0	53	0	16252928	48	5476
2026-01-02 00:39:46.65	24.88	8.36	-40.6	-49.6	10.6	6.16e-01	0	53	0	21495808	51	10913
2026-01-02 00:39:49.67	25.07	8.60	-39.3	-41.9	20.4	6.02e-01	0	53	0	27262976	50	4813
2026-01-02 00:39:52.70	25.27	8.85	-39.0	-41.4	21.0	6.02e-01	0	53	0	33030144	49	4805
2026-01-02 00:39:55.73	25.46	9.11	-38.9	-41.2	21.3	6.01e-01	0	54	0	38797312	49	4683
2026-01-02 00:39:58.76	25.67	9.36	-38.9	-41.2	21.4	6.05e-01	0	54	0	44564480	49	4677
2026-01-02 00:40:01.79	25.88	9.62	-38.9	-41.2	21.5	6.02e-01	0	54	0	50331648	49	4682
2026-01-02 00:40:04.81	26.09	9.88	-38.9	-41.2	21.6	6.05e-01	0	54	0	56098816	49	4670
2026-01-02 00:40:07.84	26.30	10.15	-39.0	-41.2	21.5	6.02e-01	0	54	0	61341696	49	4695
2026-01-02 00:40:10.88	26.52	10.41	-39.0	-41.3	21.5	6.00e-01	0	54	0	67108864	49	4712
2026-01-02 00:40:13.90	26.74	10.68	-39.0	-41.3	21.5	6.03e-01	0	54	0	72876032	49	4708
2026-01-02 00:40:16.93	26.97	10.96	-38.7	-40.8	21.9	6.03e-01	0	54	0	78643200	49	4482
2026-01-02 00:40:19.96	27.20	11.23	-38.7	-40.8	22.1	6.04e-01	0	54	0	84410368	49	4475
2026-01-02 00:40:22.99	27.44	11.51	-38.6	-40.7	22.2	6.02e-01	0	54	0	89653248	49	4416
2026-01-02 00:40:26.02	27.68	11.79	-38.5	-40.6	22.3	6.02e-01	0	54	0	95420416	49	4375
2026-01-02 00:40:29.05	27.92	12.08	-38.5	-40.6	22.4	6.00e-01	0	54	0	101187584	49	4346
2026-01-02 00:40:32.08	28.17	12.37	-38.5	-40.5	22.4	6.03e-01	0	54	0	106954752	48	4575
2026-01-02 00:40:35.11	28.43	12.66	-38.3	-40.3	22.7	6.03e-01	0	54	0	112721920	48	4460
2026-01-02 00:40:38.14	28.69	12.96	-38.2	-40.2	22.7	6.02e-01	0	55	0	118489088	48	4429
2026-01-02 00:40:41.16	28.95	13.26	-38.2	-40.1	22.8	6.02e-01	0	55	0	124256256	48	4385
2026-01-02 00:40:44.20	29.23	13.56	-38.2	-40.2	22.7	6.04e-01	0	55	0	129499136	48	4399
2026-01-02 00:40:47.22	29.50	13.87	-38.1	-40.1	22.9	6.04e-01	0	55	0	135266304	48	4362
2026-01-02 00:40:50.25	29.78	14.18	-38.1	-40.1	23.0	6.02e-01	0	55	0	141033472	48	4348
2026-01-02 00:40:53.28	30.07	14.49	-38.2	-40.1	22.9	6.04e-01	0	54	0	146800640	48	4377
2026-01-02 00:40:56.31	30.37	14.81	-38.1	-40.1	23.0	6.02e-01	0	55	0	152567808	48	4345
2026-01-02 00:40:59.33	30.67	15.13	-38.0	-39.9	23.2	6.03e-01	0	55	0	157810688	48	4280
2026-01-02 00:41:02.36	30.98	15.46	-38.1	-40.0	23.1	6.01e-01	0	55	0	163577856	48	4304
2026-01-02 00:41:05.40	31.30	15.79	-37.6	-39.5	23.3	6.02e-01	0	55	0	169345024	47	4299
2026-01-02 00:41:08.43	31.62	16.12	-37.5	-39.3	23.5	6.03e-01	0	55	0	175112192	46	4460
2026-01-02 00:41:11.46	31.95	16.46	-37.5	-39.4	23.4	6.01e-01	0	55	0	180879360	46	4516
2026-01-02 00:41:14.49	32.29	16.81	-37.6	-39.5	23.3	6.04e-01	0	55	0	186646528	46	4554
2026-01-02 00:41:17.52	32.64	17.15	-37.5	-39.4	23.4	6.01e-01	0	55	0	192413696	46	4502
2026-01-02 00:41:20.55	32.99	17.51	-37.6	-39.5	23.3	6.03e-01	0	55	0	197656576	46	4570
2026-01-02 00:41:23.57	33.36	17.86	-37.6	-39.5	23.3	6.03e-01	0	55	0	203423744	46	4547
2026-01-02 00:41:26.60	33.73	18.23	-37.5	-39.4	23.5	6.04e-01	0	55	0	209190912	46	4513
2026-01-02 00:41:29.63	34.11	18.59	-37.6	-39.4	23.4	6.03e-01	0	55	0	214958080	46	4535
2026-01-02 00:41:32.66	34.50	18.97	-37.6	-39.5	23.4	6.03e-01	0	55	0	220725248	46	4547
2026-01-02 00:41:35.69	34.90	19.34	-37.5	-39.3	23.6	6.03e-01	0	55	0	225968128	46	4472
2026-01-02 00:41:38.72	35.32	19.72	-37.6	-39.5	23.5	6.04e-01	0	55	0	231735296	46	4551
2026-01-02 00:41:41.75	35.74	20.11	-37.8	-39.7	23.3	6.04e-01	0	55	0	237502464	46	4660
2026-01-02 00:41:44.78	36.17	20.50	-37.8	-39.7	23.3	6.01e-01	0	55	0	243269632	46	4674
2026-01-02 00:41:47.80	36.62	20.90	-37.9	-39.8	23.2	6.03e-01	0	55	0	249036800	46	4714
2026-01-02 00:41:50.83	37.07	21.30	-37.6	-39.4	23.6	6.03e-01	0	56	0	254803968	46	4502
2026-01-02 00:41:53.86	37.54	21.71	-37.8	-39.6	23.4	6.05e-01	0	55	0	260046848	46	4623
2026-01-02 00:41:56.89	38.02	22.13	-37.8	-39.6	23.4	6.04e-01	0	56	0	265814016	46	4637
2026-01-02 00:41:59.92	38.52	22.55	-37.8	-39.6	23.4	6.04e-01	0	56	0	271581184	46	4651
2026-01-02 00:42:02.95	39.03	22.97	-37.8	-39.6	23.4	6.01e-01	0	56	0	277348352	46	4623
2026-01-02 00:42:05.98	39.56	23.40	-37.7	-39.5	23.5	6.02e-01	0	56	0	283115520	46	4581
2026-01-02 00:42:09.01	40.09	23.84	-37.8	-39.6	23.4	6.01e-01	0	56	0	288882688	46	4649
2026-01-02 00:42:12.04	40.65	24.28	-37.7	-39.5	23.6	6.02e-01	0	56	0	294125568	46	4552
2026-01-02 00:42:15.07	41.22	24.73	-37.7	-39.6	23.5	6.05e-01	0	56	0	299892736	46	4612
2026-01-02 00:42:18.10	41.81	25.18	-37.8	-39.6	23.5	6.03e-01	0	56	0	305659904	46	4631
2026-01-02 00:42:21.13	42.42	25.64	-37.8	-39.6	23.5	6.04e-01	0	56	0	311427072	46	4625
2026-01-02 00:42:24.15	43.04	26.10	-37.7	-39.5	23.6	6.03e-01	0	56	0	317194240	46	4585
2026-01-02 00:42:27.18	43.68	26.57	-37.8	-39.7	23.4	6.03e-01	0	56	0	322961408	46	4673
2026-01-02 00:42:30.21	44.34	27.04	-37.8	-39.6	23.6	6.01e-01	0	56	0	328728576	46	4606
2026-01-02 00:42:33.24	45.03	27.52	-37.7	-39.5	23.6	6.03e-01	0	56	0	333971456	46	4594
2026-01-02 00:42:36.27	45.73	28.00	-37.7	-39.5	23.7	6.03e-01	0	56	0	339738624	46	4559
2026-01-02 00:42:39.30	46.46	28.49	-37.7	-39.5	23.6	6.03e-01	0	56	0	345505792	46	4581
2026-01-02 00:42:42.33	47.21	28.99	-37.6	-39.4	23.7	6.02e-01	0	56	0	351272960	46	4534
2026-01-02 00:42:45.36	47.98	29.48	-37.7	-39.5	23.6	6.05e-01	0	56	0	357040128	46	4559
2026-01-02 00:42:48.38	48.78	29.98	-37.6	-39.4	23.7	6.01e-01	0	56	0	362283008	46	4533
2026-01-02 00:42:51.41	49.60	30.49	-37.5	-39.3	23.8	6.01e-01	0	56	0	368050176	46	4469
2026-01-02 00:42:54.44	50.45	30.99	-37.7	-39.5	23.6	6.02e-01	0	56	0	373817344	46	4585
2026-01-02 00:42:57.47	51.33	31.50	-37.6	-39.4	23.7	6.03e-01	0	56	0	379584512	46	4523
2026-01-02 00:43:00.50	52.24	32.02	-37.8	-39.6	23.6	6.01e-01	0	56	0	385351680	46	4625
2026-01-02 00:43:03.53	53.17	32.53	-38.0	-39.9	23.4	6.02e-01	0	56	0	391118848	46	4760
2026-01-02 00:43:06.56	54.14	33.05	-38.0	-39.8	23.4	6.04e-01	0	56	0	396886016	46	4728
2026-01-02 00:43:09.59	55.14	33.56	-37.9	-39.8	23.5	6.03e-01	0	56	0	402128896	46	4713
2026-01-02 00:43:12.63	56.17	34.08	-38.0	-39.9	23.4	6.04e-01	0	56	0	407896064	46	4769
2026-01-02 00:43:15.66	57.24	34.59	-38.3	-40.2	23.0	6.03e-01	0	56	0	413663232	47	4662
2026-01-02 00:43:18.68	58.34	35.11	-38.2	-40.1	23.1	6.02e-01	0	56	0	419430400	47	4637
2026-01-02 00:43:21.71	59.47	35.62	-38.2	-40.1	23.1	6.02e-01	0	56	0	425197568	47	4637
2026-01-02 00:43:24.74	60.64	36.12	-38.0	-39.9	23.4	6.04e-01	0	56	0	430440448	47	4503
2026-01-02 00:43:27.77	61.85	36.62	-38.2	-40.0	23.2	6.04e-01	0	56	0	436207616	47	4596
2026-01-02 00:43:30.80	63.10	37.12	-38.3	-40.2	23.0	6.03e-01	0	56	0	441974784	47	4700
2026-01-02 00:43:33.83	64.39	37.61	-38.3	-40.2	23.0	6.03e-01	0	56	0	447741952	47	4704
2026-01-02 00:43:36.86	65.71	38.08	-38.4	-40.3	23.0	6.01e-01	0	56	0	453509120	47	4741
2026-01-02 00:43:39.89	67.08	38.55	-38.2	-40.1	23.2	6.01e-01	0	56	0	459276288	47	4639
2026-01-02 00:43:42.92	68.48	39.01	-38.1	-39.9	23.4	6.02e-01	0	56	0	465043456	47	4527
2026-01-02 00:43:45.95	69.93	39.46	-37.9	-39.7	23.6	6.04e-01	0	56	0	470286336	47	4402
2026-01-02 00:43:48.98	71.41	39.89	-37.9	-39.7	23.5	6.03e-01	0	56	0	476053504	47	4424
2026-01-02 00:43:52.00	72.93	40.30	-37.8	-39.6	23.7	6.04e-01	0	56	0	481820672	47	4369
2026-01-02 00:43:55.03	74.49	40.69	-37.8	-39.6	23.7	6.03e-01	0	56	0	487587840	47	4362
2026-01-02 00:43:58.06	76.10	41.07	-37.6	-39.3	23.9	6.02e-01	0	56	0	493355008	47	4232
2026-01-02 00:44:01.09	77.74	41.43	-37.7	-39.4	23.9	6.03e-01	0	57	0	498597888	47	4273
2026-01-02 00:44:04.12	79.41	41.76	-37.7	-39.5	23.9	6.02e-01	0	57	0	504365056	46	4564
2026-01-02 00:44:07.15	81.12	42.07	-37.6	-39.4	23.9	6.02e-01	0	56	0	510132224	46	4511
2026-01-02 00:44:10.18	82.86	42.36	-37.4	-39.1	24.2	6.01e-01	0	56	0	515899392	46	4375
2026-01-02 00:44:13.20	84.63	42.61	-37.6	-39.4	23.9	6.03e-01	0	56	0	521666560	46	4501
2026-01-02 00:44:16.23	86.43	42.84	-37.6	-39.3	24.0	6.03e-01	0	56	0	527433728	46	4488
2026-01-02 00:44:19.26	88.25	43.04	-37.7	-39.5	23.9	6.04e-01	0	57	0	532676608	46	4556
2026-01-02 00:44:22.29	90.09	43.21	-37.7	-39.5	23.7	6.02e-01	0	56	0	538443776	46	4580
2026-01-02 00:44:25.32	91.96	43.34	-37.5	-39.2	24.2	6.01e-01	0	56	0	544210944	46	4418
2026-01-02 00:44:28.35	93.83	43.45	-37.5	-39.2	24.1	6.02e-01	0	56	0	549978112	46	4439
2026-01-02 00:44:31.38	95.72	43.52	-37.4	-39.1	24.2	6.03e-01	0	57	0	555745280	46	4384
2026-01-02 00:44:34.41	97.62	43.56	-37.7	-39.4	23.9	6.02e-01	0	56	0	561512448	46	4541
2026-01-02 00:44:37.43	99.51	43.56	-37.7	-39.4	23.9	6.04e-01	0	56	0	566755328	46	4531
2026-01-02 00:44:40.46	101.40	43.53	-37.7	-39.5	24.0	6.02e-01	0	57	0	572522496	46	4551
2026-01-02 00:44:43.49	103.29	43.46	-37.7	-39.4	24.0	6.06e-01	0	57	0	578289664	46	4527
2026-01-02 00:44:46.52	105.17	43.37	-37.7	-39.4	24.0	6.01e-01	0	56	0	584056832	46	4529
2026-01-02 00:44:49.55	107.04	43.24	-37.7	-39.5	23.9	6.03e-01	0	56	0	589824000	46	4575
2026-01-02 00:44:52.58	108.89	43.07	-37.8	-39.6	23.8	6.02e-01	0	57	0	595591168	46	4617
2026-01-02 00:44:55.61	110.72	42.88	-37.9	-39.7	23.8	6.03e-01	0	56	0	600834048	46	4661
2026-01-02 00:44:58.64	112.52	42.66	-38.0	-39.8	23.6	6.03e-01	0	56	0	606601216	46	4750
2026-01-02 00:45:01.67	114.30	42.40	-37.9	-39.7	23.7	6.03e-01	0	57	0	612368384	46	4702
2026-01-02 00:45:04.70	116.05	42.12	-37.9	-39.7	23.7	6.05e-01	0	57	0	618135552	46	4661
2026-01-02 00:45:07.73	117.77	41.82	-38.1	-40.0	23.5	6.02e-01	0	57	0	623902720	46	4816
2026-01-02 00:45:10.76	119.46	41.49	-38.1	-39.9	23.5	6.02e-01	0	57	0	629669888	46	4776
2026-01-02 00:45:13.79	121.11	41.13	-38.2	-40.0	23.4	6.05e-01	0	56	0	634912768	47	4595
2026-01-02 00:45:16.82	122.72	40.76	-38.1	-39.9	23.5	6.03e-01	0	57	0	640679936	47	4544
2026-01-02 00:45:19.84	124.29	40.37	-38.2	-40.0	23.4	6.02e-01	0	57	0	646447104	47	4569
2026-01-02 00:45:22.87	125.83	39.95	-38.0	-39.8	23.6	6.02e-01	0	57	0	652214272	47	4480
2026-01-02 00:45:25.90	127.32	39.53	-38.2	-40.0	23.3	6.02e-01	0	57	0	657981440	47	4579
2026-01-02 00:45:28.93	128.78	39.08	-38.0	-39.8	23.6	6.02e-01	0	57	0	663748608	47	4491
2026-01-02 00:45:31.96	130.20	38.62	-38.2	-40.0	23.4	6.04e-01	0	57	0	668991488	47	4573
2026-01-02 00:45:34.98	131.57	38.16	-38.2	-40.1	23.3	6.03e-01	0	57	0	674758656	47	4630
2026-01-02 00:45:38.01	132.90	37.68	-38.1	-39.9	23.5	6.03e-01	0	57	0	680525824	47	4515
2026-01-02 00:45:41.04	134.20	37.19	-38.0	-39.9	23.5	6.04e-01	0	57	0	686292992	47	4496
2026-01-02 00:45:44.07	135.46	36.69	-37.8	-39.6	23.8	6.03e-01	0	57	0	692060160	47	4346
2026-01-02 00:45:47.10	136.68	36.19	-37.6	-39.4	23.9	6.04e-01	0	57	0	697827328	47	4250
2026-01-02 00:45:50.12	137.86	35.68	-37.6	-39.3	24.0	6.02e-01	0	57	0	703070208	47	4235
2026-01-02 00:45:53.16	139.01	35.17	-37.4	-39.1	24.1	6.02e-01	0	57	0	708837376	46	4388
2026-01-02 00:45:56.19	140.12	34.65	-37.3	-39.0	24.3	6.01e-01	0	57	0	714604544	46	4306
2026-01-02 00:45:59.22	141.19	34.14	-37.1	-38.7	24.5	6.01e-01	0	57	0	720371712	46	4187
2026-01-02 00:46:02.25	142.23	33.62	-37.0	-38.6	24.6	6.02e-01	0	57	0	726138880	46	4138
2026-01-02 00:46:05.28	143.24	33.10	-37.0	-38.7	24.6	6.03e-01	0	57	0	731906048	46	4162
2026-01-02 00:46:08.31	144.22	32.58	-36.7	-38.2	24.9	6.03e-01	0	57	0	737148928	45	4192
2026-01-02 00:46:11.34	145.16	32.06	-36.9	-38.5	24.7	6.02e-01	0	56	0	742916096	45	4322
2026-01-02 00:46:14.37	146.08	31.54	-36.9	-38.5	24.7	6.03e-01	0	57	0	748683264	45	4326
2026-01-02 00:46:17.40	146.96	31.03	-36.8	-38.4	24.8	6.02e-01	0	57	0	754450432	45	4267
2026-01-02 00:46:20.43	147.82	30.52	-36.8	-38.4	24.8	6.02e-01	0	57	0	760217600	45	4248
2026-01-02 00:46:23.46	148.65	30.01	-37.1	-38.7	24.5	6.03e-01	0	57	0	765984768	45	4425
2026-01-02 00:46:26.49	149.46	29.51	-36.8	-38.5	24.7	6.04e-01	0	57	0	771227648	45	4298
2026-01-02 00:46:29.52	150.24	29.00	-37.1	-38.7	24.5	6.03e-01	0	57	0	776994816	45	4432
2026-01-02 00:46:32.55	150.99	28.51	-37.2	-38.9	24.3	6.03e-01	0	57	0	782761984	45	4495
2026-01-02 00:46:35.58	151.72	28.02	-37.1	-38.7	24.4	6.03e-01	0	57	0	788529152	45	4425
2026-01-02 00:46:38.60	152.43	27.53	-37.2	-38.9	24.3	6.04e-01	0	57	0	794296320	45	4513
2026-01-02 00:46:41.63	153.12	27.05	-37.5	-39.2	23.9	6.01e-01	0	57	0	800063488	45	4682
2026-01-02 00:46:44.66	153.79	26.57	-37.6	-39.3	23.8	6.02e-01	0	57	0	805306368	45	4743
2026-01-02 00:46:47.69	154.44	26.10	-37.4	-39.1	23.9	6.01e-01	0	57	0	811073536	45	4643
2026-01-02 00:46:50.72	155.06	25.63	-37.3	-39.0	24.1	6.05e-01	0	57	0	816840704	45	4588
2026-01-02 00:46:53.75	155.67	25.17	-37.4	-39.1	24.0	6.04e-01	0	57	0	822607872	45	4633
2026-01-02 00:46:56.78	156.27	24.71	-37.5	-39.2	23.8	6.02e-01	0	57	0	828375040	45	4697
2026-01-02 00:46:59.81	156.84	24.26	-37.6	-39.4	23.7	6.02e-01	0	57	0	833617920	45	4794
2026-01-02 00:47:02.83	157.40	23.82	-37.7	-39.5	23.6	6.03e-01	0	57	0	839385088	45	4840
2026-01-02 00:47:05.86	157.94	23.38	-37.7	-39.5	23.6	6.04e-01	0	57	0	845152256	45	4824
2026-01-02 00:47:08.89	158.47	22.94	-37.7	-39.5	23.6	6.03e-01	0	57	0	850919424	45	4837
2026-01-02 00:47:11.92	158.98	22.51	-37.6	-39.4	23.7	6.04e-01	0	57	0	856686592	45	4776
2026-01-02 00:47:14.94	159.48	22.09	-37.5	-39.3	23.7	6.04e-01	0	57	0	862453760	45	4723
2026-01-02 00:47:17.97	159.96	21.67	-37.6	-39.4	23.6	6.03e-01	0	57	0	868220928	45	4776
2026-01-02 00:47:21.01	160.44	21.26	-37.6	-39.5	23.6	6.03e-01	0	57	0	873463808	45	4825
2026-01-02 00:47:24.04	160.89	20.85	-37.6	-39.5	23.5	6.01e-01	0	57	0	879230976	45	4822
2026-01-02 00:47:27.06	161.34	20.45	-37.5	-39.2	23.8	6.04e-01	0	57	0	884998144	45	4696
2026-01-02 00:47:30.09	161.78	20.06	-37.4	-39.1	23.9	6.03e-01	0	57	0	890765312	45	4639
2026-01-02 00:47:33.12	162.20	19.67	-37.3	-39.0	23.9	6.04e-01	0	57	0	896532480	45	4576
2026-01-02 00:47:36.15	162.61	19.28	-37.3	-39.0	23.9	6.02e-01	0	57	0	901775360	45	4564
2026-01-02 00:47:39.18	163.02	18.90	-37.2	-39.0	23.9	6.02e-01	0	57	0	907542528	45	4563
2026-01-02 00:47:42.21	163.41	18.53	-37.3	-39.1	23.8	6.03e-01	0	57	0	913309696	45	4600
2026-01-02 00:47:45.24	163.79	18.16	-37.2	-39.0	24.0	6.03e-01	0	57	0	919076864	45	4550
2026-01-02 00:47:48.27	164.17	17.79	-37.1	-38.9	24.0	6.01e-01	0	57	0	924844032	45	4502
2026-01-02 00:47:51.29	164.53	17.43	-37.1	-38.9	24.0	6.02e-01	0	57	0	930611200	45	4505
2026-01-02 00:47:54.32	164.88	17.08	-37.2	-38.9	24.0	6.04e-01	0	57	0	936378368	45	4538
2026-01-02 00:47:57.35	165.23	16.72	-37.2	-38.9	23.9	6.01e-01	0	57	0	941621248	45	4535
2026-01-02 00:48:00.38	165.57	16.38	-37.1	-38.9	24.0	6.03e-01	0	57	0	947388416	45	4505
2026-01-02 00:48:03.41	165.90	16.04	-37.1	-38.9	23.9	6.02e-01	0	57	0	953155584	45	4509
2026-01-02 00:48:06.44	166.23	15.70	-37.1	-38.9	23.9	6.04e-01	0	57	0	958922752	45	4508
2026-01-02 00:48:09.47	166.54	15.37	-37.2	-38.9	23.8	6.03e-01	0	57	0	964689920	45	4544
2026-01-02 00:48:12.49	166.85	15.04	-37.2	-39.0	23.9	6.02e-01	0	57	0	969932800	45	4552
2026-01-02 00:48:15.52	167.15	14.71	-37.3	-39.0	23.8	6.02e-01	0	57	0	975699968	45	4588
2026-01-02 00:48:18.55	167.45	14.39	-37.3	-39.1	23.7	6.03e-01	0	57	0	981467136	45	4644
2026-01-02 00:48:21.58	167.74	14.08	-37.4	-39.3	23.5	6.05e-01	0	57	0	987234304	45	4718
2026-01-02 00:48:24.61	168.02	13.76	-37.4	-39.2	23.5	6.04e-01	0	57	0	993001472	45	4688
2026-01-02 00:48:27.64	168.30	13.45	-37.4	-39.2	23.5	6.04e-01	0	57	0	998768640	45	4687
2026-01-02 00:48:30.67	168.57	13.15	-37.4	-39.2	23.5	6.02e-01	0	57	0	1004535808	45	4674
2026-01-02 00:48:33.70	168.83	12.85	-37.4	-39.2	23.5	6.03e-01	0	57	0	1009778688	45	4670
2026-01-02 00:48:36.73	169.09	12.55	-37.4	-39.3	23.4	6.04e-01	0	57	0	1015545856	45	4715
2026-01-02 00:48:39.75	169.35	12.25	-37.4	-39.3	23.3	6.03e-01	0	57	0	1021313024	45	4740
2026-01-02 00:48:42.78	169.60	11.96	-37.6	-39.4	23.2	6.03e-01	0	57	0	1027080192	45	4811
2026-01-02 00:48:45.81	169.84	11.68	-37.6	-39.5	23.1	6.02e-01	0	57	0	1032847360	45	4831
2026-01-02 00:48:48.84	170.08	11.39	-37.7	-39.6	23.0	6.02e-01	0	57	0	1038090240	45	4887
2026-01-02 00:48:51.87	170.31	11.11	-37.7	-39.6	22.9	6.01e-01	0	57	0	1043857408	45	4898
2026-01-02 00:48:54.90	170.54	10.83	-37.7	-39.6	22.9	6.05e-01	0	57	0	1049624576	46	4640
2026-01-02 00:48:57.93	170.77	10.56	-37.8	-39.7	22.8	6.03e-01	0	57	0	1055391744	46	4676
2026-01-02 00:49:00.96	170.99	10.29	-37.8	-39.7	22.7	6.01e-01	0	57	0	1061158912	46	4700
2026-01-02 00:49:03.98	171.21	10.02	-37.9	-39.8	22.6	6.02e-01	0	57	0	1066926080	46	4757
2026-01-02 00:49:07.01	171.42	9.75	-37.9	-39.9	22.5	6.00e-01	0	57	0	1072168960	46	4791
2026-01-02 00:49:10.04	171.63	9.49	-37.9	-39.9	22.5	6.01e-01	0	57	0	1077936128	46	4802
2026-01-02 00:49:13.07	171.84	9.23	-37.9	-39.9	22.5	6.01e-01	0	57	0	1083703296	46	4807
2026-01-02 00:49:16.09	172.04	8.97	-38.0	-40.0	22.4	6.04e-01	0	57	0	1089470464	46	4858
2026-01-02 00:49:19.13	172.24	8.72	-38.0	-40.1	22.2	6.03e-01	0	57	0	1095237632	46	4909
2026-01-02 00:49:22.16	172.43	8.46	-38.1	-40.2	22.1	6.03e-01	0	57	0	1101004800	46	4944
2026-01-02 00:49:25.19	172.62	8.21	-38.2	-40.4	21.9	6.04e-01	0	57	0	1106247680	47	4774
2026-01-02 00:49:28.22	172.81	7.97	-45.1	-62.8	3.9	7.45e-01	0	57	104	1111490560	60	29722
2026-01-02 00:49:31.25	172.99	7.72	-45.6	-64.4	3.8	7.44e-01	0	57	104	1111490560	61	33970
2026-01-02 00:49:34.28	173.17	7.48	-45.8	-64.6	3.8	7.43e-01	0	57	104	1111490560	62	32888
2026-01-02 00:49:37.31	173.35	7.24	-45.9	-64.7	3.8	7.44e-01	0	57	104	1111490560	62	33066
2026-01-02 00:49:40.34	173.53	7.00	-45.8	-64.6	3.8	7.45e-01	0	57	104	1111490560	62	32668
2026-01-02 00:49:43.38	173.70	6.77	-45.8	-64.6	3.8	7.44e-01	0	57	104	1111490560	62	32774
2026-01-02 00:49:46.41	173.87	6.53	-45.8	-64.5	3.8	7.45e-01	0	57	104	1111490560	62	32547
2026-01-02 00:49:49.44	174.04	6.30	-45.7	-64.5	3.8	7.45e-01	0	57	104	1111490560	62	32334
2026-01-02 00:49:52.47	174.20	6.07	-45.7	-64.5	3.8	7.46e-01	0	57	104	1111490560	62	32189
2026-01-02 00:49:55.51	174.36	5.84	-45.7	-64.4	3.8	7.44e-01	0	57	104	1111490560	62	32178
2026-01-02 00:49:58.54	174.52	5.62	-45.7	-64.5	3.8	7.44e-01	0	57	104	1111490560	62	32230
2026-01-02 00:50:01.58	174.68	5.40	-45.7	-64.4	3.8	7.43e-01	0	57	104	1111490560	62	32109
2026-01-02 00:50:04.61	174.83	5.17	-45.7	-64.4	3.8	7.46e-01	0	57	104	1111490560	62	32149
2026-01-02 00:50:07.64	174.98	4.96	-45.7	-64.4	3.8	7.42e-01	0	57	104	1111490560	62	32146
2026-01-02 00:50:10.67	175.13	4.74	-45.6	-64.4	3.8	7.46e-01	0	57	104	1111490560	62	32085
2026-01-02 00:50:13.71	175.28	4.52	-45.6	-64.4	3.8	7.46e-01	0	57	104	1111490560	62	32088
2026-01-02 00:50:16.74	175.43	4.31	-45.6	-64.4	3.8	7.45e-01	0	57	104	1111490560	62	32109
2026-01-02 00:50:19.77	175.57	4.10	-45.7	-64.5	3.8	7.43e-01	0	57	104	1111490560	62	32219
2026-01-02 00:50:22.81	175.71	3.89	-45.6	-64.4	3.8	7.44e-01	0	57	104	1111490560	62	31996
2026-01-02 00:50:25.84	175.85	3.68	-45.6	-64.4	3.8	7.44e-01	0	57	104	1111490560	62	31943
2026-01-02 00:50:28.87	175.99	3.47	-45.6	-64.4	3.8	7.44e-01	0	57	104	1111490560	62	32009
2026-01-02 00:50:31.90	176.12	3.26	-45.6	-64.4	3.8	7.42e-01	0	57	104	1111490560	62	31983
2026-01-02 00:50:34.94	176.25	3.06	-45.6	-64.4	3.8	7.44e-01	0	57	104	1111490560	62	31968
2026-01-02 00:50:37.97	176.38	2.86	-45.6	-64.4	3.8	7.47e-01	0	57	104	1111490560	62	32058
2026-01-02 00:50:41.00	176.51	2.66	-45.6	-64.4	3.8	7.44e-01	0	57	104	1111490560	62	31956
2026-01-02 00:50:44.04	176.64	2.46	-45.6	-64.4	3.8	7.43e-01	0	57	104	1111490560	62	31905
2026-01-02 00:50:47.07	176.77	2.26	-45.6	-64.4	3.8	7.44e-01	0	57	104	1111490560	62	31991
2026-01-02 00:50:50.10	176.89	2.06	-45.6	-64.4	3.8	7.46e-01	0	57	104	1111490560	62	31985

#Closed at: 2026-01-02 00:50:51
#Recorded file [1111 MB]: D:/lorett/data/31039_260102_033818.dat