passes_logs/2026/01/02/R2.0S_Moscow/R2.0S_Moscow__20260102_001757_SUOMI_NPP_rec.log

#Pass ID: 20260102_001757_SUOMI NPP
#Satellite: SUOMI NPP
#Configuration: NPP
#almurnet v.1.7.20251203
#Start time: 2026-01-02 00:17:59

#Version: 2.2.20231116
#Station: R2.0S_Moscow
#Location: 37.707566 lon 55.798166 lat
#TLE: 1 37849U 11061A   26001.07732418  .00000182  00000+0  10735-3 0  9990
#TLE: 2 37849  98.7795 303.2470 0002580  87.2016 272.9455 14.19520779734739

#Time	Az	El	Level	Level2	SNR	BER	BlckErr	Temp	State	Recorded	gain1	gain2
2026-01-02 00:17:59.53	13.88	2.11	-42.9	-57.4	3.8	1.49e+00	0	48	0	0	56	20154
2026-01-02 00:18:03.56	13.80	2.36	-42.9	-57.4	3.8	1.49e+00	0	48	104	0	57	18967
2026-01-02 00:18:07.61	13.71	2.62	-42.9	-57.4	3.8	1.49e+00	0	49	104	0	57	18971
2026-01-02 00:18:11.65	13.62	2.89	-42.9	-57.4	3.8	1.49e+00	0	49	104	0	57	19039
2026-01-02 00:18:15.69	13.54	3.15	-42.9	-57.3	3.8	1.49e+00	0	49	104	0	57	18847
2026-01-02 00:18:19.74	13.45	3.42	-42.9	-57.3	3.8	1.49e+00	0	49	104	0	57	18834
2026-01-02 00:18:23.78	13.35	3.69	-42.9	-57.3	3.8	1.49e+00	0	50	104	0	57	18863
2026-01-02 00:18:27.82	13.26	3.96	-42.9	-57.3	3.8	1.49e+00	0	50	104	0	57	18929
2026-01-02 00:18:31.87	13.16	4.23	-42.9	-57.4	3.8	1.49e+00	0	50	104	0	57	18988
2026-01-02 00:18:35.91	13.06	4.51	-42.9	-57.3	3.8	1.49e+00	0	50	104	0	57	18904
2026-01-02 00:18:39.96	12.96	4.79	-42.9	-57.3	3.8	1.49e+00	0	51	104	0	57	18787
2026-01-02 00:18:44.00	12.86	5.07	-42.9	-57.2	3.8	1.49e+00	0	51	104	0	57	18705
2026-01-02 00:18:48.04	12.75	5.36	-42.9	-57.1	3.8	1.49e+00	0	51	104	0	57	18318
2026-01-02 00:18:52.09	12.64	5.65	-42.8	-56.6	3.8	1.49e+00	0	51	104	0	57	17450
2026-01-02 00:18:56.13	12.53	5.94	-42.8	-56.4	3.8	1.49e+00	0	52	104	0	57	16944
2026-01-02 00:19:00.18	12.42	6.23	-42.8	-55.4	3.8	1.49e+00	0	52	104	0	57	15163
2026-01-02 00:19:04.22	12.30	6.53	-42.3	-50.8	5.6	5.96e-01	0	52	0	3145728	56	9427
2026-01-02 00:19:08.26	12.18	6.83	-40.8	-45.6	10.2	1.20e-02	0	52	0	10485760	53	6188
2026-01-02 00:19:12.30	12.06	7.14	-39.3	-42.5	13.6	1.06e-05	0	52	0	18874368	50	5121
2026-01-02 00:19:16.34	11.94	7.45	-38.4	-41.1	15.0	0.00e+00	0	52	0	26214400	48	4890
2026-01-02 00:19:20.38	11.81	7.76	-38.7	-41.6	14.5	7.00e-07	0	52	0	33554432	48	5182
2026-01-02 00:19:24.43	11.68	8.07	-39.9	-43.9	12.0	9.07e-05	0	53	0	40894464	50	6046
2026-01-02 00:19:28.47	11.54	8.39	-39.4	-42.7	13.4	2.37e-04	0	53	0	47185920	50	5266
2026-01-02 00:19:32.50	11.41	8.72	-39.6	-43.8	11.4	6.35e-04	0	53	0	54525952	50	5991
2026-01-02 00:19:36.54	11.27	9.04	-39.6	-44.2	10.8	2.43e-03	0	53	0	62914560	50	6269
2026-01-02 00:19:40.58	11.12	9.37	-39.9	-44.8	10.2	4.55e-03	0	53	0	70254592	50	6698
2026-01-02 00:19:44.62	10.97	9.71	-40.0	-45.3	9.6	1.07e-02	0	53	0	77594624	50	7119
2026-01-02 00:19:48.65	10.82	10.05	-40.3	-46.2	8.6	3.41e-02	0	54	0	84934656	51	7442
2026-01-02 00:19:52.69	10.67	10.39	-40.2	-46.2	8.6	4.46e-02	0	54	0	92274688	51	7393
2026-01-02 00:19:56.73	10.51	10.74	-40.1	-45.3	9.7	1.45e-02	0	54	0	100663296	51	6716
2026-01-02 00:20:00.77	10.34	11.10	-40.0	-44.6	10.8	3.08e-03	0	54	0	108003328	51	6150
2026-01-02 00:20:04.81	10.17	11.46	-39.9	-43.4	12.9	7.40e-05	0	54	0	115343360	51	5377
2026-01-02 00:20:08.85	10.00	11.82	-38.8	-41.3	15.6	0.00e+00	0	54	0	122683392	49	4707
2026-01-02 00:20:12.89	9.82	12.19	-37.8	-39.9	17.1	0.00e+00	0	54	0	131072000	47	4497
2026-01-02 00:20:16.92	9.64	12.56	-38.1	-40.3	16.8	0.00e+00	0	54	0	138412032	47	4713
2026-01-02 00:20:20.96	9.45	12.94	-38.4	-40.5	16.6	0.00e+00	0	54	0	145752064	47	4866
2026-01-02 00:20:25.00	9.26	13.33	-38.2	-40.3	16.9	0.00e+00	0	55	0	153092096	47	4719
2026-01-02 00:20:29.04	9.06	13.72	-38.1	-40.2	16.9	0.00e+00	0	55	0	160432128	47	4691
2026-01-02 00:20:33.08	8.85	14.12	-37.9	-39.9	17.2	0.00e+00	0	54	0	168820736	47	4524
2026-01-02 00:20:37.12	8.64	14.52	-37.9	-39.9	17.3	0.00e+00	0	55	0	176160768	47	4519
2026-01-02 00:20:41.16	8.42	14.94	-37.7	-39.6	17.6	0.00e+00	0	55	0	183500800	47	4360
2026-01-02 00:20:45.20	8.20	15.35	-37.8	-39.7	17.6	0.00e+00	0	55	0	190840832	47	4413
2026-01-02 00:20:49.24	7.97	15.78	-37.6	-39.4	17.9	0.00e+00	0	55	0	199229440	47	4268
2026-01-02 00:20:53.28	7.73	16.21	-37.8	-39.6	17.7	0.00e+00	0	55	0	206569472	47	4385
2026-01-02 00:20:57.32	7.48	16.65	-37.9	-39.8	17.6	0.00e+00	0	55	0	213909504	47	4489
2026-01-02 00:21:01.36	7.23	17.09	-37.8	-39.6	17.7	0.00e+00	0	55	0	221249536	47	4390
2026-01-02 00:21:05.40	6.97	17.54	-37.7	-39.6	17.8	0.00e+00	0	55	0	228589568	47	4355
2026-01-02 00:21:09.44	6.70	18.01	-37.9	-39.9	17.6	0.00e+00	0	55	0	236978176	47	4495
2026-01-02 00:21:13.47	6.42	18.47	-37.8	-39.7	17.8	0.00e+00	0	55	0	244318208	47	4392
2026-01-02 00:21:17.51	6.13	18.95	-37.7	-39.5	18.0	0.00e+00	0	56	0	251658240	47	4321
2026-01-02 00:21:21.55	5.83	19.44	-37.8	-39.7	17.8	0.00e+00	0	55	0	258998272	47	4418
2026-01-02 00:21:25.59	5.53	19.93	-37.9	-39.7	17.8	0.00e+00	0	56	0	267386880	47	4430
2026-01-02 00:21:29.62	5.21	20.43	-38.0	-39.9	17.7	0.00e+00	0	55	0	274726912	47	4521
2026-01-02 00:21:33.66	4.88	20.95	-38.3	-40.3	17.3	0.00e+00	0	55	0	282066944	47	4742
2026-01-02 00:21:37.70	4.54	21.47	-38.6	-40.7	17.0	0.00e+00	0	56	0	289406976	47	4933
2026-01-02 00:21:41.74	4.18	22.00	-38.5	-40.5	17.1	0.00e+00	0	56	0	296747008	47	4858
2026-01-02 00:21:45.78	3.82	22.55	-38.3	-40.3	17.3	0.00e+00	0	56	0	305135616	47	4713
2026-01-02 00:21:49.82	3.44	23.10	-38.3	-40.3	17.3	0.00e+00	0	56	0	312475648	47	4742
2026-01-02 00:21:53.86	3.04	23.66	-38.8	-40.9	16.8	0.00e+00	0	56	0	319815680	48	4792
2026-01-02 00:21:57.90	2.63	24.24	-39.2	-41.5	16.3	0.00e+00	0	56	0	327155712	49	4833
2026-01-02 00:22:01.94	2.20	24.83	-39.3	-41.6	16.1	0.00e+00	0	56	0	335544320	49	4910
2026-01-02 00:22:05.97	1.76	25.42	-39.4	-41.8	16.1	0.00e+00	0	56	0	342884352	49	4992
2026-01-02 00:22:10.01	1.30	26.03	-39.1	-41.3	16.4	0.00e+00	0	56	0	350224384	49	4723
2026-01-02 00:22:14.05	0.82	26.65	-39.5	-41.8	16.1	0.00e+00	0	56	0	357564416	49	4994
2026-01-02 00:22:18.09	0.32	27.29	-40.0	-42.6	15.3	0.00e+00	0	56	0	364904448	50	5171
2026-01-02 00:22:22.13	359.80	27.93	-39.9	-42.4	15.5	0.00e+00	0	56	0	373293056	50	5085
2026-01-02 00:22:26.16	359.26	28.59	-40.0	-42.5	15.3	0.00e+00	0	56	0	380633088	51	4833
2026-01-02 00:22:30.20	358.69	29.26	-40.7	-43.6	14.2	7.00e-07	0	56	0	387973120	52	5192
2026-01-02 00:22:34.24	358.10	29.95	-40.1	-42.7	15.0	0.00e+00	0	56	0	395313152	52	4684
2026-01-02 00:22:38.27	357.48	30.64	-39.9	-42.3	15.6	0.00e+00	0	56	0	402653184	51	4751
2026-01-02 00:22:42.31	356.84	31.35	-39.4	-41.7	16.2	0.00e+00	0	56	0	411041792	50	4655
2026-01-02 00:22:46.35	356.16	32.08	-39.6	-41.9	16.1	0.00e+00	0	56	0	418381824	50	4771
2026-01-02 00:22:50.39	355.46	32.82	-40.3	-42.9	15.0	0.00e+00	0	56	0	425721856	51	5052
2026-01-02 00:22:54.43	354.71	33.57	-40.7	-43.7	14.2	5.30e-06	0	56	0	433061888	52	5222
2026-01-02 00:22:58.47	353.94	34.33	-40.2	-42.8	15.1	7.00e-07	0	56	0	441450496	52	4741
2026-01-02 00:23:02.51	353.12	35.11	-41.1	-44.2	13.6	1.50e-06	0	57	0	448790528	52	5590
2026-01-02 00:23:06.55	352.26	35.90	-41.3	-44.6	13.3	5.26e-05	0	56	0	456130560	53	5499
2026-01-02 00:23:10.59	351.36	36.70	-42.4	-47.0	10.9	2.17e-03	0	56	0	463470592	55	6454
2026-01-02 00:23:14.63	350.42	37.51	-40.8	-43.7	14.3	9.90e-06	0	56	0	471859200	53	4948
2026-01-02 00:23:18.67	349.42	38.33	-40.4	-43.0	14.9	0.00e+00	0	56	0	479199232	52	4854
2026-01-02 00:23:22.71	348.37	39.16	-40.9	-43.9	14.1	7.00e-07	0	57	0	486539264	52	5356
2026-01-02 00:23:26.75	347.27	40.01	-42.2	-46.3	11.7	1.11e-04	0	57	0	493879296	54	6294
2026-01-02 00:23:30.79	346.11	40.85	-42.3	-46.6	11.3	1.19e-03	0	56	0	501219328	55	6157
2026-01-02 00:23:34.83	344.88	41.71	-42.7	-47.3	10.7	3.36e-03	0	57	0	509607936	57	5983
2026-01-02 00:23:38.87	343.58	42.57	-42.1	-46.0	12.2	3.19e-04	0	57	0	516947968	56	5413
2026-01-02 00:23:42.90	342.22	43.43	-40.2	-42.8	15.2	0.00e+00	0	57	0	524288000	52	4709
2026-01-02 00:23:46.94	340.77	44.29	-40.6	-43.2	14.9	0.00e+00	0	57	0	531628032	51	5271
2026-01-02 00:23:50.98	339.25	45.15	-41.3	-44.4	13.6	9.10e-06	0	57	0	540016640	53	5365
2026-01-02 00:23:55.02	337.64	46.00	-40.5	-43.1	14.9	7.00e-07	0	57	0	547356672	52	4908
2026-01-02 00:23:59.05	335.94	46.85	-40.3	-42.8	15.3	0.00e+00	0	57	0	554696704	51	5009
2026-01-02 00:24:03.09	334.15	47.68	-39.4	-41.5	16.6	0.00e+00	0	57	0	562036736	50	4561
2026-01-02 00:24:07.13	332.26	48.50	-40.6	-43.3	14.8	0.00e+00	0	57	0	569376768	51	5337
2026-01-02 00:24:11.17	330.26	49.29	-40.2	-42.7	15.4	0.00e+00	0	57	0	577765376	51	4951
2026-01-02 00:24:15.20	328.16	50.06	-39.1	-41.1	16.9	0.00e+00	0	57	0	585105408	50	4371
2026-01-02 00:24:19.24	325.96	50.80	-38.7	-40.6	17.4	0.00e+00	0	57	0	592445440	48	4640
2026-01-02 00:24:23.29	323.63	51.51	-39.0	-41.0	17.0	0.00e+00	0	57	0	599785472	48	4867
2026-01-02 00:24:27.33	321.20	52.17	-39.9	-42.4	15.7	0.00e+00	0	57	0	607125504	51	4772
2026-01-02 00:24:31.37	318.67	52.78	-39.8	-42.2	15.8	0.00e+00	0	57	0	615514112	50	4973
2026-01-02 00:24:35.41	316.03	53.34	-38.1	-39.8	18.2	0.00e+00	0	57	0	622854144	48	4217
2026-01-02 00:24:39.44	313.30	53.85	-39.0	-41.1	16.9	0.00e+00	0	57	0	630194176	48	4902
2026-01-02 00:24:43.48	310.47	54.28	-39.0	-41.1	16.9	0.00e+00	0	57	0	637534208	49	4613
2026-01-02 00:24:47.52	307.56	54.65	-39.0	-41.1	17.0	0.00e+00	0	57	0	645922816	48	4877
2026-01-02 00:24:51.56	304.58	54.95	-37.5	-39.2	18.6	0.00e+00	0	57	0	653262848	47	4147
2026-01-02 00:24:55.60	301.54	55.17	-36.7	-38.2	19.5	0.00e+00	0	57	0	660602880	44	4436
2026-01-02 00:24:59.64	298.47	55.31	-37.3	-39.0	18.9	0.00e+00	0	57	0	667942912	45	4557
2026-01-02 00:25:03.68	295.37	55.36	-36.5	-38.0	19.8	0.00e+00	0	57	0	676331520	44	4329
2026-01-02 00:25:07.72	292.27	55.33	-36.5	-38.0	19.7	0.00e+00	0	57	0	683671552	45	4082
2026-01-02 00:25:11.76	289.18	55.22	-36.9	-38.5	19.3	0.00e+00	0	57	0	691011584	45	4328
2026-01-02 00:25:15.80	286.13	55.03	-37.5	-39.2	18.6	0.00e+00	0	57	0	698351616	45	4700
2026-01-02 00:25:19.84	283.13	54.76	-36.2	-37.7	20.0	0.00e+00	0	57	0	705691648	44	4166
2026-01-02 00:25:23.87	280.20	54.42	-36.0	-37.5	20.1	0.00e+00	0	57	0	714080256	43	4317
2026-01-02 00:25:27.91	277.33	54.01	-35.7	-37.1	20.4	0.00e+00	0	57	0	721420288	42	4362
2026-01-02 00:25:31.95	274.56	53.52	-36.3	-37.8	19.7	0.00e+00	0	57	0	728760320	43	4456
2026-01-02 00:25:35.99	271.88	52.98	-36.8	-38.3	19.5	0.00e+00	0	57	0	736100352	45	4213
2026-01-02 00:25:40.02	269.31	52.38	-38.4	-40.3	17.6	0.00e+00	0	57	0	743440384	47	4711
2026-01-02 00:25:44.06	266.84	51.74	-38.9	-40.9	17.2	0.00e+00	0	57	0	751828992	48	4795
2026-01-02 00:25:48.10	264.48	51.05	-39.8	-42.2	15.9	0.00e+00	0	57	0	759169024	50	4933
2026-01-02 00:25:52.13	262.23	50.32	-39.2	-41.3	16.8	0.00e+00	0	57	0	766509056	49	4712
2026-01-02 00:25:56.17	260.09	49.56	-39.0	-41.1	16.9	0.00e+00	0	57	0	773849088	50	4360
2026-01-02 00:26:00.22	258.05	48.76	-38.9	-40.9	17.1	0.00e+00	0	57	0	782237696	49	4520
2026-01-02 00:26:04.25	256.12	47.95	-39.9	-42.3	15.7	0.00e+00	0	57	0	789577728	50	4990
2026-01-02 00:26:08.29	254.29	47.12	-39.8	-42.2	15.9	0.00e+00	0	57	0	796917760	50	4957
2026-01-02 00:26:12.33	252.55	46.28	-42.5	-46.6	11.4	1.16e-03	0	57	0	804257792	56	5842
2026-01-02 00:26:16.37	250.91	45.43	-41.5	-44.9	13.0	5.77e-04	0	57	0	811597824	55	5079
2026-01-02 00:26:20.41	249.35	44.56	-40.4	-43.0	14.9	0.00e+00	0	57	0	819986432	52	4863
2026-01-02 00:26:24.44	247.88	43.70	-39.1	-41.1	16.8	0.00e+00	0	57	0	827326464	49	4643
2026-01-02 00:26:28.48	246.48	42.84	-40.6	-43.4	14.4	7.00e-07	0	57	0	834666496	52	5083
2026-01-02 00:26:32.52	245.15	41.97	-41.7	-45.3	12.6	3.81e-05	0	57	0	842006528	53	5955
2026-01-02 00:26:36.56	243.90	41.11	-42.0	-45.9	12.0	1.65e-04	0	57	0	850395136	54	6043
2026-01-02 00:26:40.59	242.71	40.26	-41.6	-45.2	12.8	2.51e-05	0	57	0	857735168	54	5533
2026-01-02 00:26:44.63	241.58	39.41	-41.2	-44.5	13.5	9.10e-06	0	57	0	865075200	54	5116
2026-01-02 00:26:48.67	240.51	38.57	-40.7	-43.6	14.3	0.00e+00	0	57	0	872415232	52	5188
2026-01-02 00:26:52.70	239.50	37.75	-40.4	-43.1	14.8	0.00e+00	0	57	0	879755264	52	4899
2026-01-02 00:26:56.74	238.53	36.93	-40.7	-43.7	14.2	2.20e-06	0	57	0	888143872	52	5225
2026-01-02 00:27:00.78	237.61	36.12	-41.8	-45.5	12.5	9.38e-05	0	57	0	895483904	54	5754
2026-01-02 00:27:04.82	236.74	35.32	-40.3	-42.9	14.9	7.00e-07	0	57	0	902823936	52	4786
2026-01-02 00:27:08.86	235.91	34.54	-41.0	-44.0	13.5	7.00e-07	0	57	0	910163968	52	5464
2026-01-02 00:27:12.89	235.12	33.77	-41.0	-44.1	13.7	6.17e-05	0	57	0	918552576	54	4911
2026-01-02 00:27:16.93	234.36	33.01	-40.5	-43.2	14.6	0.00e+00	0	57	0	925892608	52	4977
2026-01-02 00:27:20.97	233.64	32.27	-40.7	-43.6	14.2	0.00e+00	0	57	0	933232640	52	5206
2026-01-02 00:27:25.01	232.95	31.53	-41.4	-44.9	12.9	3.20e-05	0	57	0	940572672	53	5678
2026-01-02 00:27:29.04	232.29	30.82	-41.7	-45.5	12.4	7.55e-05	0	57	0	947912704	53	6100
2026-01-02 00:27:33.08	231.66	30.11	-41.0	-44.2	13.6	7.32e-05	0	57	0	956301312	54	4932
2026-01-02 00:27:37.12	231.05	29.42	-39.2	-41.3	16.6	0.00e+00	0	57	0	963641344	50	4475
2026-01-02 00:27:41.16	230.48	28.74	-40.2	-42.8	15.1	0.00e+00	0	57	0	970981376	50	5292
2026-01-02 00:27:45.20	229.92	28.07	-40.9	-44.0	13.9	7.00e-07	0	57	0	978321408	52	5415
2026-01-02 00:27:49.24	229.39	27.42	-40.9	-43.9	13.9	3.00e-06	0	57	0	986710016	53	5064
2026-01-02 00:27:53.27	228.88	26.78	-39.6	-41.9	16.0	0.00e+00	0	57	0	994050048	51	4499
2026-01-02 00:27:57.31	228.39	26.15	-39.5	-41.8	16.1	0.00e+00	0	57	0	1001390080	50	4714
2026-01-02 00:28:01.35	227.92	25.54	-39.1	-41.2	16.5	0.00e+00	0	57	0	1008730112	49	4698
2026-01-02 00:28:05.39	227.47	24.93	-39.9	-42.4	15.5	0.00e+00	0	57	0	1016070144	50	5053
2026-01-02 00:28:09.43	227.04	24.34	-39.4	-41.6	16.3	0.00e+00	0	57	0	1024458752	50	4614
2026-01-02 00:28:13.47	226.62	23.76	-38.9	-40.9	16.9	0.00e+00	0	57	0	1031798784	49	4523
2026-01-02 00:28:17.50	226.22	23.19	-38.6	-40.6	17.2	0.00e+00	0	57	0	1039138816	49	4344
2026-01-02 00:28:21.54	225.83	22.63	-38.9	-41.0	16.7	0.00e+00	0	57	0	1046478848	49	4583
2026-01-02 00:28:25.58	225.45	22.09	-40.1	-42.7	15.1	0.00e+00	0	57	0	1054867456	50	5269
2026-01-02 00:28:29.62	225.09	21.55	-39.8	-42.2	15.6	0.00e+00	0	57	0	1062207488	51	4669
2026-01-02 00:28:33.65	224.74	21.02	-39.3	-41.6	16.2	0.00e+00	0	57	0	1069547520	50	4600
2026-01-02 00:28:37.69	224.41	20.50	-39.8	-42.3	15.5	0.00e+00	0	57	0	1076887552	50	5000
2026-01-02 00:28:41.73	224.08	19.99	-39.9	-42.5	15.3	0.00e+00	0	57	0	1084227584	50	5105
2026-01-02 00:28:45.77	223.77	19.49	-39.3	-41.5	16.2	0.00e+00	0	57	0	1092616192	50	4581
2026-01-02 00:28:49.80	223.46	19.00	-39.0	-41.1	16.6	0.00e+00	0	57	0	1099956224	49	4630
2026-01-02 00:28:53.84	223.17	18.52	-38.6	-40.6	17.0	0.00e+00	0	57	0	1107296256	49	4374
2026-01-02 00:28:57.88	222.88	18.05	-38.6	-40.6	17.1	0.00e+00	0	57	0	1114636288	48	4604
2026-01-02 00:29:01.92	222.61	17.58	-39.0	-41.2	16.5	0.00e+00	0	57	0	1121976320	48	4957
2026-01-02 00:29:05.96	222.34	17.13	-39.7	-42.2	15.4	0.00e+00	0	57	0	1130364928	50	4974
2026-01-02 00:29:09.99	222.08	16.68	-40.5	-43.5	14.1	7.00e-07	0	57	0	1137704960	51	5417
2026-01-02 00:29:14.03	221.83	16.23	-40.8	-43.9	13.7	7.60e-06	0	57	0	1145044992	52	5371
2026-01-02 00:29:18.07	221.58	15.80	-40.4	-43.3	14.2	3.00e-06	0	57	0	1152385024	52	5011
2026-01-02 00:29:22.10	221.35	15.37	-40.1	-42.9	14.7	0.00e+00	0	57	0	1160773632	52	4764
2026-01-02 00:29:26.14	221.12	14.95	-40.0	-42.7	14.9	0.00e+00	0	57	0	1168113664	51	4934
2026-01-02 00:29:30.18	220.89	14.54	-39.9	-42.5	15.0	0.00e+00	0	57	0	1175453696	51	4837
2026-01-02 00:29:34.22	220.68	14.13	-40.3	-43.1	14.5	7.00e-07	0	57	0	1182793728	51	5189
2026-01-02 00:29:38.26	220.47	13.73	-40.1	-42.9	14.6	0.00e+00	0	57	0	1190133760	51	5058
2026-01-02 00:29:42.30	220.26	13.34	-40.4	-43.3	14.2	1.50e-06	0	57	0	1198522368	51	5291
2026-01-02 00:29:46.34	220.06	12.95	-40.3	-43.1	14.3	0.00e+00	0	57	0	1205862400	51	5202
2026-01-02 00:29:50.37	219.87	12.56	-40.2	-43.0	14.4	7.00e-07	0	57	0	1213202432	51	5145
2026-01-02 00:29:54.41	219.68	12.19	-40.4	-43.4	14.0	1.50e-06	0	57	0	1220542464	51	5401
2026-01-02 00:29:58.45	219.50	11.81	-40.5	-43.6	13.8	4.50e-06	0	57	0	1228931072	51	5470
2026-01-02 00:30:02.49	219.32	11.45	-40.7	-44.0	13.3	2.28e-05	0	57	0	1236271104	52	5446
2026-01-02 00:30:06.53	219.14	11.08	-40.9	-44.4	12.9	5.34e-05	0	57	0	1243611136	52	5690
2026-01-02 00:30:10.57	218.97	10.73	-40.9	-44.4	12.8	6.63e-05	0	58	0	1250951168	52	5678
2026-01-02 00:30:14.61	218.81	10.38	-41.0	-44.5	12.7	7.17e-05	0	57	0	1258291200	52	5771
2026-01-02 00:30:18.64	218.65	10.03	-40.6	-43.9	13.3	1.98e-05	0	58	0	1266679808	52	5365
2026-01-02 00:30:22.68	218.49	9.69	-40.4	-43.5	13.7	7.60e-06	0	57	0	1274019840	52	5122
2026-01-02 00:30:26.71	218.34	9.35	-40.2	-43.3	13.8	3.00e-06	0	58	0	1281359872	52	5003
2026-01-02 00:30:30.75	218.19	9.02	-40.2	-43.3	13.9	2.20e-06	0	57	0	1288699904	52	4985
2026-01-02 00:30:34.79	218.04	8.69	-40.2	-43.2	13.9	3.80e-06	0	58	0	1297088512	52	4965
2026-01-02 00:30:38.83	217.90	8.36	-40.3	-43.5	13.6	7.60e-06	0	58	0	1304428544	52	5113
2026-01-02 00:30:42.87	217.76	8.04	-40.4	-43.7	13.3	1.67e-05	0	58	0	1311768576	52	5235
2026-01-02 00:30:46.91	217.62	7.72	-44.7	-59.3	3.8	1.49e+00	0	58	104	1312817152	60	19894
2026-01-02 00:30:50.95	217.49	7.41	-44.9	-59.5	3.8	1.49e+00	0	58	104	1312817152	60	20322
2026-01-02 00:30:54.99	217.36	7.10	-44.9	-59.4	3.8	1.49e+00	0	57	104	1312817152	60	20205
2026-01-02 00:30:59.03	217.23	6.79	-44.9	-59.4	3.8	1.49e+00	0	58	104	1312817152	60	20195
2026-01-02 00:31:03.08	217.11	6.49	-44.8	-59.3	3.8	1.49e+00	0	57	104	1312817152	60	20060
2026-01-02 00:31:07.12	216.98	6.19	-44.8	-59.3	3.8	1.49e+00	0	58	104	1312817152	60	20049
2026-01-02 00:31:11.16	216.87	5.89	-44.8	-59.3	3.8	1.49e+00	0	58	104	1312817152	60	19952
2026-01-02 00:31:15.21	216.75	5.60	-44.8	-59.3	3.8	1.49e+00	0	58	104	1312817152	60	19993
2026-01-02 00:31:19.25	216.64	5.31	-44.8	-59.3	3.8	1.49e+00	0	58	104	1312817152	60	19979
2026-01-02 00:31:23.30	216.52	5.02	-44.8	-59.3	3.8	1.49e+00	0	57	104	1312817152	60	19909
2026-01-02 00:31:27.34	216.41	4.74	-44.7	-59.3	3.8	1.49e+00	0	58	104	1312817152	60	19971
2026-01-02 00:31:31.38	216.31	4.45	-44.7	-59.3	3.8	1.49e+00	0	58	104	1312817152	60	19948
2026-01-02 00:31:35.43	216.20	4.18	-44.7	-59.3	3.8	1.49e+00	0	58	104	1312817152	60	19912
2026-01-02 00:31:39.47	216.10	3.90	-44.7	-59.3	3.8	1.49e+00	0	58	104	1312817152	60	19874
2026-01-02 00:31:43.51	216.00	3.63	-44.7	-59.3	3.8	1.49e+00	0	58	104	1312817152	60	19859
2026-01-02 00:31:47.56	215.90	3.36	-44.7	-59.3	3.8	1.49e+00	0	58	104	1312817152	60	19957
2026-01-02 00:31:51.60	215.81	3.09	-44.7	-59.3	3.8	1.49e+00	0	58	104	1312817152	60	19896
2026-01-02 00:31:55.65	215.71	2.82	-44.7	-59.3	3.8	1.49e+00	0	58	104	1312817152	60	19886
2026-01-02 00:31:59.69	215.62	2.56	-44.7	-59.3	3.8	1.49e+00	0	58	104	1312817152	60	19843
2026-01-02 00:32:03.74	215.53	2.30	-44.7	-59.3	3.8	1.49e+00	0	58	104	1312817152	60	19867
2026-01-02 00:32:07.78	215.44	2.04	-44.7	-59.3	3.8	1.49e+00	0	58	104	1312817152	60	19859

#Closed at: 2026-01-02 00:32:11
#Recorded file [1312 MB]: D:/lorett/data/31039_260102_031759.dat