passes_logs/2026/01/02/R2.0S_Moscow/R2.0S_Moscow__20260102_223941_NOAA_20_JPSS-1_rec.log

#Pass ID: 20260102_223941_NOAA 20 (JPSS-1)
#Satellite: NOAA 20 (JPSS-1)
#Configuration: NOAA 20
#almurnet v.1.7.20251203
#Start time: 2026-01-02 22:39:43

#Version: 2.2.20231116
#Station: R2.0S_Moscow
#Location: 37.707566 lon 55.798166 lat
#TLE: 1 43013U 17073A   26002.21975278  .00000202  00000+0  11669-3 0  9999
#TLE: 2 43013  98.7622 303.2950 0001915  57.9213 302.2149 14.19532512420923

#Time	Az	El	Level	Level2	SNR	BER	BlckErr	Temp	State	Recorded	gain1	gain2
2026-01-02 22:39:43.57	21.68	2.13	-42.2	-57.4	3.8	1.49e+00	0	48	0	0	56	20240
2026-01-02 22:39:47.61	21.89	2.37	-41.9	-57.3	3.8	1.49e+00	0	49	104	0	54	22292
2026-01-02 22:39:51.65	22.09	2.62	-42.0	-57.2	3.8	1.49e+00	0	49	104	0	54	22212
2026-01-02 22:39:55.69	22.30	2.86	-42.0	-57.2	3.8	1.49e+00	0	49	104	0	54	22199
2026-01-02 22:39:59.74	22.51	3.11	-42.0	-57.2	3.8	1.49e+00	0	49	104	0	54	22164
2026-01-02 22:40:03.78	22.72	3.36	-42.0	-57.2	3.8	1.49e+00	0	50	104	0	54	22235
2026-01-02 22:40:07.83	22.94	3.62	-42.0	-57.2	3.8	1.49e+00	0	50	104	0	54	22222
2026-01-02 22:40:11.87	23.16	3.87	-41.9	-57.3	3.8	1.49e+00	0	50	104	0	54	22270
2026-01-02 22:40:15.91	23.38	4.13	-42.0	-57.2	3.8	1.49e+00	0	50	104	0	54	22226
2026-01-02 22:40:19.96	23.61	4.38	-41.9	-57.2	3.8	1.49e+00	0	51	104	0	54	22242
2026-01-02 22:40:24.00	23.84	4.64	-42.0	-57.2	3.8	1.49e+00	0	51	104	0	54	22233
2026-01-02 22:40:28.05	24.08	4.91	-42.0	-57.2	3.8	1.49e+00	0	51	104	0	54	22188
2026-01-02 22:40:32.09	24.32	5.17	-42.0	-57.2	3.8	1.49e+00	0	51	104	0	54	22212
2026-01-02 22:40:36.13	24.56	5.44	-41.9	-57.2	3.8	1.49e+00	0	52	104	0	54	22148
2026-01-02 22:40:40.18	24.81	5.71	-42.0	-57.2	3.8	1.49e+00	0	52	104	0	54	22164
2026-01-02 22:40:44.22	25.06	5.98	-42.0	-57.3	3.8	1.49e+00	0	52	104	0	54	22264
2026-01-02 22:40:48.27	25.32	6.26	-41.9	-57.2	3.8	1.49e+00	0	52	104	0	54	22163
2026-01-02 22:40:52.31	25.58	6.53	-42.0	-57.2	3.8	1.49e+00	0	52	104	0	54	22128
2026-01-02 22:40:56.36	25.84	6.81	-41.9	-57.2	3.8	1.49e+00	0	52	104	0	54	22074
2026-01-02 22:41:00.40	26.11	7.09	-42.0	-56.8	3.8	1.49e+00	0	53	104	0	54	21204
2026-01-02 22:41:04.45	26.39	7.38	-41.8	-54.5	3.9	1.49e+00	0	53	104	0	54	16228
2026-01-02 22:41:08.49	26.67	7.67	-40.7	-47.2	8.6	5.39e-02	0	53	0	5242880	53	7446
2026-01-02 22:41:12.53	26.95	7.96	-39.4	-43.5	12.7	1.21e-04	0	53	0	12582912	50	5725
2026-01-02 22:41:16.57	27.24	8.25	-40.8	-46.0	9.7	1.49e+00	0	53	104	18874368	53	6457
2026-01-02 22:41:20.61	27.54	8.54	-40.3	-43.6	13.4	1.37e-05	0	53	0	25165824	52	5215
2026-01-02 22:41:24.65	27.84	8.84	-40.1	-43.2	14.0	7.00e-07	0	53	0	33554432	52	4934
2026-01-02 22:41:28.69	28.15	9.14	-40.0	-43.0	14.3	0.00e+00	0	54	0	40894464	51	5129
2026-01-02 22:41:32.73	28.46	9.45	-39.8	-42.5	14.8	1.50e-06	0	54	0	48234496	51	4862
2026-01-02 22:41:36.77	28.78	9.76	-39.7	-42.4	14.9	0.00e+00	0	54	0	55574528	51	4797
2026-01-02 22:41:40.81	29.11	10.07	-39.5	-42.0	15.3	7.00e-07	0	54	0	62914560	51	4596
2026-01-02 22:41:44.85	29.44	10.38	-39.4	-41.9	15.6	0.00e+00	0	54	0	71303168	50	4764
2026-01-02 22:41:48.89	29.78	10.70	-39.3	-41.7	15.7	0.00e+00	0	54	0	78643200	50	4696
2026-01-02 22:41:52.93	30.13	11.02	-39.4	-41.8	15.7	0.00e+00	0	54	0	85983232	50	4736
2026-01-02 22:41:56.97	30.48	11.34	-39.2	-41.6	16.0	0.00e+00	0	54	0	93323264	50	4625
2026-01-02 22:42:01.01	30.85	11.67	-39.1	-41.3	16.2	0.00e+00	0	55	0	101711872	50	4487
2026-01-02 22:42:05.04	31.21	12.00	-39.2	-41.6	16.1	0.00e+00	0	54	0	109051904	50	4603
2026-01-02 22:42:09.08	31.59	12.33	-39.1	-41.5	16.2	0.00e+00	0	55	0	116391936	50	4546
2026-01-02 22:42:13.12	31.98	12.67	-39.1	-41.3	16.3	0.00e+00	0	55	0	123731968	50	4484
2026-01-02 22:42:17.16	32.37	13.01	-39.1	-41.4	16.3	0.00e+00	0	55	0	131072000	50	4505
2026-01-02 22:42:21.19	32.77	13.35	-39.0	-41.2	16.4	0.00e+00	0	55	0	139460608	50	4440
2026-01-02 22:42:25.23	33.19	13.70	-38.8	-41.0	16.7	0.00e+00	0	55	0	146800640	49	4555
2026-01-02 22:42:29.27	33.61	14.05	-38.6	-40.7	17.0	0.00e+00	0	55	0	154140672	49	4430
2026-01-02 22:42:33.31	34.04	14.41	-38.8	-40.9	16.8	0.00e+00	0	55	0	161480704	49	4535
2026-01-02 22:42:37.35	34.48	14.77	-39.0	-41.2	16.5	0.00e+00	0	55	0	169869312	49	4701
2026-01-02 22:42:41.38	34.93	15.13	-39.1	-41.3	16.4	0.00e+00	0	55	0	177209344	49	4752
2026-01-02 22:42:45.42	35.40	15.50	-39.3	-41.6	16.2	0.00e+00	0	55	0	184549376	49	4903
2026-01-02 22:42:49.46	35.87	15.87	-39.5	-41.9	15.9	0.00e+00	0	55	0	191889408	49	5095
2026-01-02 22:42:53.50	36.35	16.24	-39.7	-42.2	15.6	0.00e+00	0	55	0	199229440	50	4958
2026-01-02 22:42:57.54	36.85	16.62	-39.6	-42.1	15.8	0.00e+00	0	55	0	207618048	50	4876
2026-01-02 22:43:01.58	37.36	17.01	-39.5	-41.9	16.0	0.00e+00	0	55	0	214958080	50	4771
2026-01-02 22:43:05.62	37.88	17.39	-39.7	-42.2	15.7	0.00e+00	0	56	0	222298112	50	4928
2026-01-02 22:43:09.66	38.42	17.78	-39.8	-42.2	15.7	0.00e+00	0	56	0	229638144	50	4979
2026-01-02 22:43:13.69	38.97	18.18	-39.8	-42.3	15.6	0.00e+00	0	55	0	238026752	50	5024
2026-01-02 22:43:17.73	39.53	18.58	-39.8	-42.2	15.7	0.00e+00	0	56	0	245366784	50	4982
2026-01-02 22:43:21.77	40.11	18.98	-39.8	-42.2	15.7	0.00e+00	0	56	0	252706816	50	4972
2026-01-02 22:43:25.81	40.70	19.38	-39.6	-41.9	16.1	0.00e+00	0	56	0	260046848	50	4786
2026-01-02 22:43:29.84	41.31	19.79	-39.5	-41.7	16.2	0.00e+00	0	56	0	267386880	50	4701
2026-01-02 22:43:33.88	41.93	20.21	-39.5	-41.7	16.2	0.00e+00	0	56	0	275775488	50	4696
2026-01-02 22:43:37.92	42.57	20.62	-39.2	-41.4	16.6	0.00e+00	0	56	0	283115520	50	4495
2026-01-02 22:43:41.96	43.23	21.05	-39.2	-41.3	16.7	0.00e+00	0	56	0	290455552	50	4473
2026-01-02 22:43:46.00	43.91	21.47	-39.1	-41.2	16.8	0.00e+00	0	56	0	297795584	50	4406
2026-01-02 22:43:50.04	44.60	21.90	-38.6	-40.6	17.4	0.00e+00	0	56	0	306184192	49	4355
2026-01-02 22:43:54.08	45.32	22.33	-38.5	-40.4	17.6	0.00e+00	0	56	0	313524224	48	4535
2026-01-02 22:43:58.12	46.05	22.76	-38.5	-40.4	17.6	0.00e+00	0	56	0	320864256	48	4544
2026-01-02 22:44:02.16	46.80	23.19	-38.2	-40.0	18.1	0.00e+00	0	56	0	328204288	48	4311
2026-01-02 22:44:06.20	47.58	23.63	-37.9	-39.8	18.2	0.00e+00	0	56	0	335544320	47	4444
2026-01-02 22:44:10.23	48.37	24.07	-37.8	-39.5	18.4	0.00e+00	0	56	0	343932928	47	4335
2026-01-02 22:44:14.27	49.19	24.51	-37.7	-39.5	18.4	0.00e+00	0	56	0	351272960	47	4294
2026-01-02 22:44:18.31	50.03	24.96	-38.1	-39.9	18.0	0.00e+00	0	56	0	358612992	47	4540
2026-01-02 22:44:22.35	50.89	25.40	-38.3	-40.2	17.8	0.00e+00	0	56	0	365953024	47	4684
2026-01-02 22:44:26.39	51.78	25.84	-38.3	-40.2	17.8	0.00e+00	0	56	0	374341632	47	4657
2026-01-02 22:44:30.43	52.69	26.29	-38.8	-40.9	17.2	0.00e+00	0	56	0	381681664	48	4768
2026-01-02 22:44:34.46	53.63	26.73	-39.2	-41.3	16.8	0.00e+00	0	56	0	389021696	48	5033
2026-01-02 22:44:38.50	54.59	27.18	-39.6	-41.9	16.2	0.00e+00	0	56	0	396361728	49	5100
2026-01-02 22:44:42.54	55.58	27.62	-39.9	-42.4	15.8	0.00e+00	0	57	0	403701760	50	5042
2026-01-02 22:44:46.58	56.60	28.06	-40.4	-43.0	15.1	0.00e+00	0	56	0	412090368	51	5156
2026-01-02 22:44:50.62	57.65	28.49	-40.3	-42.8	15.3	0.00e+00	0	56	0	419430400	51	5041
2026-01-02 22:44:54.65	58.72	28.93	-40.8	-43.8	14.3	0.00e+00	0	57	0	426770432	52	5295
2026-01-02 22:44:58.69	59.82	29.36	-41.8	-45.5	12.5	7.32e-05	0	57	0	434110464	54	5750
2026-01-02 22:45:02.73	60.95	29.78	-42.0	-45.9	12.1	2.78e-04	0	56	0	442499072	54	6001
2026-01-02 22:45:06.77	62.12	30.20	-42.0	-45.9	12.1	2.11e-04	0	57	0	449839104	54	6025
2026-01-02 22:45:10.80	63.31	30.61	-42.4	-46.7	11.3	1.00e-03	0	56	0	457179136	55	6211
2026-01-02 22:45:14.84	64.53	31.01	-41.9	-45.7	12.3	3.81e-04	0	57	0	464519168	55	5563
2026-01-02 22:45:18.88	65.78	31.41	-41.4	-44.8	13.3	1.37e-05	0	57	0	471859200	54	5284
2026-01-02 22:45:22.92	67.06	31.79	-41.3	-44.5	13.5	1.06e-05	0	57	0	480247808	54	5128
2026-01-02 22:45:26.97	68.38	32.17	-40.2	-42.8	15.3	0.00e+00	0	57	0	487587840	52	4712
2026-01-02 22:45:31.00	69.71	32.53	-40.4	-43.0	15.0	0.00e+00	0	57	0	494927872	52	4852
2026-01-02 22:45:35.04	71.08	32.88	-40.0	-42.5	15.6	0.00e+00	0	57	0	502267904	52	4556
2026-01-02 22:45:39.08	72.48	33.21	-39.9	-42.3	15.9	0.00e+00	0	57	0	510656512	51	4738
2026-01-02 22:45:43.12	73.91	33.53	-40.0	-42.3	15.8	0.00e+00	0	57	0	517996544	51	4750
2026-01-02 22:45:47.16	75.37	33.83	-40.9	-43.8	14.3	7.00e-07	0	57	0	525336576	52	5296
2026-01-02 22:45:51.20	76.85	34.11	-41.4	-44.7	13.3	9.90e-06	0	57	0	532676608	53	5539
2026-01-02 22:45:55.24	78.36	34.38	-41.7	-45.3	12.8	6.02e-05	0	57	0	540016640	54	5602
2026-01-02 22:45:59.28	79.89	34.63	-41.0	-43.9	14.1	1.50e-06	0	57	0	548405248	53	5087
2026-01-02 22:46:03.32	81.44	34.85	-40.7	-43.5	14.5	7.00e-07	0	57	0	555745280	53	4870
2026-01-02 22:46:07.36	83.01	35.05	-40.0	-42.4	15.8	0.00e+00	0	57	0	563085312	51	4773
2026-01-02 22:46:11.40	84.60	35.23	-40.4	-43.0	15.2	0.00e+00	0	57	0	570425344	51	5137
2026-01-02 22:46:15.43	86.20	35.39	-40.5	-43.2	14.9	0.00e+00	0	57	0	578813952	52	4965
2026-01-02 22:46:19.47	87.83	35.52	-41.2	-44.4	13.7	6.10e-06	0	57	0	586153984	53	5361
2026-01-02 22:46:23.51	89.46	35.63	-41.0	-43.9	14.2	1.50e-06	0	57	0	593494016	53	5082
2026-01-02 22:46:27.55	91.10	35.71	-41.3	-44.5	13.6	1.67e-05	0	57	0	600834048	53	5448
2026-01-02 22:46:31.58	92.75	35.77	-40.5	-43.2	14.9	7.00e-07	0	57	0	608174080	53	4698
2026-01-02 22:46:35.63	94.41	35.80	-40.5	-43.1	15.0	0.00e+00	0	57	0	616562688	52	4899
2026-01-02 22:46:39.67	96.07	35.80	-40.4	-43.0	15.1	0.00e+00	0	57	0	623902720	52	4845
2026-01-02 22:46:43.70	97.72	35.78	-40.6	-43.4	14.8	0.00e+00	0	57	0	631242752	52	5042
2026-01-02 22:46:47.74	99.37	35.73	-40.3	-42.8	15.3	7.00e-07	0	57	0	638582784	52	4734
2026-01-02 22:46:51.78	101.02	35.65	-40.5	-43.1	15.1	0.00e+00	0	57	0	646971392	51	5212
2026-01-02 22:46:55.81	102.65	35.55	-41.5	-44.8	13.3	9.10e-06	0	57	0	654311424	53	5634
2026-01-02 22:46:59.85	104.28	35.43	-41.9	-45.6	12.5	2.42e-04	0	57	0	661651456	55	5480
2026-01-02 22:47:03.89	105.89	35.27	-41.1	-44.1	14.0	7.00e-07	0	57	0	668991488	54	4925
2026-01-02 22:47:07.93	107.49	35.10	-40.7	-43.5	14.6	7.00e-07	0	57	0	676331520	53	4862
2026-01-02 22:47:11.96	109.06	34.90	-40.8	-43.6	14.5	7.00e-07	0	57	0	684720128	53	4906
2026-01-02 22:47:16.00	110.62	34.68	-40.5	-43.2	14.9	0.00e+00	0	57	0	692060160	52	4974
2026-01-02 22:47:20.04	112.16	34.44	-40.2	-42.7	15.4	0.00e+00	0	57	0	699400192	52	4693
2026-01-02 22:47:24.08	113.68	34.18	-39.7	-42.0	16.3	0.00e+00	0	57	0	706740224	51	4547
2026-01-02 22:47:28.12	115.17	33.90	-40.6	-43.2	15.0	0.00e+00	0	57	0	715128832	51	5264
2026-01-02 22:47:32.16	116.64	33.60	-40.1	-42.6	15.6	0.00e+00	0	57	0	722468864	51	4903
2026-01-02 22:47:36.20	118.08	33.29	-40.2	-42.7	15.5	0.00e+00	0	57	0	729808896	51	4958
2026-01-02 22:47:40.24	119.49	32.95	-40.6	-43.3	14.9	0.00e+00	0	57	0	737148928	51	5332
2026-01-02 22:47:44.29	120.87	32.61	-40.5	-43.2	14.9	0.00e+00	0	57	0	744488960	52	4975
2026-01-02 22:47:48.32	122.22	32.25	-41.7	-45.3	12.8	1.02e-04	0	57	0	752877568	54	5625
2026-01-02 22:47:52.36	123.54	31.88	-40.7	-43.5	14.7	0.00e+00	0	57	0	760217600	52	5101
2026-01-02 22:47:56.40	124.84	31.49	-40.1	-42.6	15.5	0.00e+00	0	57	0	767557632	52	4626
2026-01-02 22:48:00.44	126.10	31.10	-41.1	-44.2	13.9	1.50e-06	0	57	0	774897664	52	5556
2026-01-02 22:48:04.48	127.33	30.69	-40.7	-43.5	14.6	0.00e+00	0	57	0	783286272	52	5143
2026-01-02 22:48:08.51	128.53	30.28	-41.1	-44.1	14.0	1.67e-05	0	57	0	790626304	54	4906
2026-01-02 22:48:12.55	129.71	29.86	-40.7	-43.5	14.6	0.00e+00	0	57	0	797966336	52	5147
2026-01-02 22:48:16.59	130.85	29.44	-39.7	-42.0	16.2	0.00e+00	0	57	0	805306368	51	4583
2026-01-02 22:48:20.63	131.96	29.01	-41.9	-45.5	12.6	6.79e-05	0	57	0	812646400	54	5773
2026-01-02 22:48:24.67	133.05	28.57	-40.3	-42.8	15.3	0.00e+00	0	57	0	821035008	52	4734
2026-01-02 22:48:28.71	134.11	28.13	-40.7	-43.6	14.5	4.50e-06	0	57	0	828375040	53	4900
2026-01-02 22:48:32.75	135.13	27.69	-39.3	-41.5	16.8	0.00e+00	0	57	0	835715072	49	4821
2026-01-02 22:48:36.79	136.14	27.25	-39.9	-42.3	15.9	0.00e+00	0	57	0	843055104	51	4718
2026-01-02 22:48:40.82	137.11	26.80	-39.5	-41.7	16.5	0.00e+00	0	57	0	851443712	50	4668
2026-01-02 22:48:44.86	138.05	26.35	-39.0	-41.1	17.1	0.00e+00	0	57	0	858783744	50	4356
2026-01-02 22:48:48.90	138.98	25.91	-38.5	-40.4	17.8	0.00e+00	0	57	0	866123776	48	4533
2026-01-02 22:48:52.94	139.87	25.46	-38.6	-40.5	17.6	0.00e+00	0	57	0	873463808	48	4577
2026-01-02 22:48:56.98	140.74	25.01	-37.9	-39.7	18.4	0.00e+00	0	57	0	880803840	47	4406
2026-01-02 22:49:01.02	141.59	24.56	-38.1	-39.9	18.1	0.00e+00	0	57	0	889192448	47	4540
2026-01-02 22:49:05.06	142.42	24.12	-37.3	-38.9	19.1	0.00e+00	0	57	0	896532480	46	4276
2026-01-02 22:49:09.10	143.22	23.68	-38.1	-39.9	18.2	0.00e+00	0	57	0	903872512	46	4788
2026-01-02 22:49:13.14	144.00	23.23	-37.3	-38.9	19.2	0.00e+00	0	57	0	911212544	46	4258
2026-01-02 22:49:17.18	144.76	22.79	-37.9	-39.6	18.4	0.00e+00	0	57	0	919601152	46	4632
2026-01-02 22:49:21.22	145.50	22.36	-38.1	-40.0	18.1	0.00e+00	0	57	0	926941184	47	4567
2026-01-02 22:49:25.26	146.22	21.92	-37.6	-39.3	18.7	0.00e+00	0	57	0	934281216	47	4212
2026-01-02 22:49:29.29	146.92	21.49	-38.3	-40.2	17.9	0.00e+00	0	57	0	941621248	47	4659
2026-01-02 22:49:33.33	147.60	21.07	-38.0	-39.8	18.2	0.00e+00	0	57	0	948961280	47	4487
2026-01-02 22:49:37.37	148.26	20.64	-38.4	-40.3	17.7	0.00e+00	0	58	0	957349888	47	4749
2026-01-02 22:49:41.41	148.91	20.22	-38.5	-40.5	17.7	0.00e+00	0	57	0	964689920	48	4552
2026-01-02 22:49:45.44	149.54	19.80	-38.3	-40.1	18.0	0.00e+00	0	58	0	972029952	48	4383
2026-01-02 22:49:49.48	150.15	19.39	-39.1	-41.2	16.9	0.00e+00	0	57	0	979369984	48	4951
2026-01-02 22:49:53.52	150.74	18.98	-39.2	-41.4	16.7	0.00e+00	0	57	0	987758592	49	4775
2026-01-02 22:49:57.56	151.33	18.57	-39.1	-41.3	16.8	0.00e+00	0	58	0	995098624	49	4724
2026-01-02 22:50:01.60	151.89	18.17	-40.0	-42.5	15.5	0.00e+00	0	57	0	1002438656	50	5148
2026-01-02 22:50:05.63	152.44	17.77	-39.7	-42.1	16.0	0.00e+00	0	58	0	1009778688	50	4896
2026-01-02 22:50:09.67	152.98	17.38	-39.2	-41.4	16.7	0.00e+00	0	57	0	1017118720	50	4509
2026-01-02 22:50:13.71	153.51	16.99	-39.4	-41.7	16.3	0.00e+00	0	57	0	1025507328	50	4691
2026-01-02 22:50:17.75	154.02	16.60	-39.8	-42.3	15.7	0.00e+00	0	57	0	1032847360	50	5005
2026-01-02 22:50:21.79	154.52	16.22	-39.5	-41.8	16.2	0.00e+00	0	57	0	1040187392	50	4740
2026-01-02 22:50:25.83	155.01	15.84	-39.3	-41.6	16.4	0.00e+00	0	57	0	1047527424	50	4612
2026-01-02 22:50:29.87	155.48	15.47	-39.4	-41.7	16.2	0.00e+00	0	57	0	1055916032	50	4685
2026-01-02 22:50:33.91	155.95	15.09	-39.6	-42.0	15.9	0.00e+00	0	57	0	1063256064	50	4850
2026-01-02 22:50:37.95	156.40	14.73	-39.5	-41.9	16.1	0.00e+00	0	57	0	1070596096	50	4763
2026-01-02 22:50:41.99	156.84	14.36	-39.4	-41.7	16.3	0.00e+00	0	57	0	1077936128	50	4659
2026-01-02 22:50:46.03	157.27	14.01	-39.4	-41.7	16.2	0.00e+00	0	58	0	1085276160	50	4697
2026-01-02 22:50:50.07	157.70	13.65	-39.9	-42.4	15.5	0.00e+00	0	58	0	1093664768	50	5075
2026-01-02 22:50:54.10	158.11	13.30	-40.0	-42.6	15.3	0.00e+00	0	58	0	1101004800	50	5181
2026-01-02 22:50:58.14	158.51	12.95	-40.0	-42.6	15.2	0.00e+00	0	58	0	1108344832	50	5214
2026-01-02 22:51:02.18	158.91	12.61	-39.9	-42.5	15.3	0.00e+00	0	57	0	1115684864	50	5113
2026-01-02 22:51:06.22	159.29	12.27	-39.7	-42.2	15.6	0.00e+00	0	57	0	1124073472	50	4956
2026-01-02 22:51:10.26	159.67	11.93	-39.7	-42.2	15.5	0.00e+00	0	57	0	1131413504	50	4975
2026-01-02 22:51:14.30	160.04	11.60	-39.8	-42.3	15.4	0.00e+00	0	57	0	1138753536	50	5035
2026-01-02 22:51:18.34	160.40	11.27	-40.0	-42.6	15.1	0.00e+00	0	58	0	1146093568	50	5203
2026-01-02 22:51:22.38	160.75	10.94	-40.0	-42.7	15.0	0.00e+00	0	57	0	1153433600	50	5255
2026-01-02 22:51:26.41	161.10	10.62	-40.3	-43.1	14.5	7.00e-07	0	57	0	1161822208	51	5197
2026-01-02 22:51:30.45	161.44	10.30	-40.2	-43.0	14.6	7.00e-07	0	57	0	1169162240	51	5147
2026-01-02 22:51:34.49	161.77	9.98	-40.3	-43.2	14.4	0.00e+00	0	57	0	1176502272	51	5228
2026-01-02 22:51:38.53	162.10	9.67	-40.5	-43.5	14.0	2.20e-06	0	57	0	1183842304	51	5449
2026-01-02 22:51:42.56	162.41	9.36	-40.6	-43.8	13.7	5.30e-06	0	58	0	1192230912	51	5604
2026-01-02 22:51:46.60	162.73	9.05	-40.7	-44.0	13.4	1.37e-05	0	57	0	1199570944	52	5413
2026-01-02 22:51:50.64	163.03	8.75	-40.7	-44.0	13.4	1.06e-05	0	58	0	1206910976	52	5439
2026-01-02 22:51:54.68	163.33	8.45	-40.8	-44.2	13.1	2.05e-05	0	57	0	1214251008	52	5557
2026-01-02 22:51:58.71	163.63	8.15	-40.7	-44.2	13.1	3.50e-05	0	58	0	1221591040	52	5547
2026-01-02 22:52:02.76	163.92	7.85	-44.8	-59.5	3.8	1.49e+00	0	58	104	1225785344	60	20341
2026-01-02 22:52:06.80	164.20	7.56	-45.0	-59.6	3.8	1.49e+00	0	58	104	1225785344	60	20672
2026-01-02 22:52:10.84	164.48	7.27	-45.0	-59.5	3.8	1.49e+00	0	58	104	1225785344	60	20525
2026-01-02 22:52:14.88	164.75	6.98	-44.9	-59.4	3.8	1.49e+00	0	58	104	1225785344	60	20184
2026-01-02 22:52:18.93	165.02	6.70	-44.9	-59.4	3.8	1.49e+00	0	58	104	1225785344	60	20184
2026-01-02 22:52:22.97	165.28	6.42	-44.9	-59.4	3.8	1.49e+00	0	58	104	1225785344	60	20195
2026-01-02 22:52:27.01	165.54	6.14	-44.9	-59.4	3.8	1.49e+00	0	58	104	1225785344	60	20176
2026-01-02 22:52:31.06	165.79	5.86	-44.9	-59.4	3.8	1.49e+00	0	58	104	1225785344	60	20184
2026-01-02 22:52:35.10	166.04	5.59	-44.9	-59.4	3.8	1.49e+00	0	58	104	1225785344	60	20127
2026-01-02 22:52:39.14	166.28	5.32	-44.9	-59.4	3.8	1.49e+00	0	58	104	1225785344	60	20122
2026-01-02 22:52:43.19	166.52	5.05	-44.9	-59.4	3.8	1.49e+00	0	58	104	1225785344	60	20086
2026-01-02 22:52:47.23	166.76	4.78	-44.9	-59.4	3.8	1.49e+00	0	58	104	1225785344	60	20105
2026-01-02 22:52:51.28	166.99	4.51	-44.9	-59.4	3.8	1.49e+00	0	58	104	1225785344	60	20128
2026-01-02 22:52:55.32	167.22	4.25	-44.9	-59.4	3.8	1.49e+00	0	58	104	1225785344	60	20159
2026-01-02 22:52:59.37	167.44	3.99	-44.9	-59.4	3.8	1.49e+00	0	58	104	1225785344	60	20153
2026-01-02 22:53:03.41	167.67	3.73	-44.9	-59.4	3.8	1.49e+00	0	58	104	1225785344	60	20133
2026-01-02 22:53:07.45	167.88	3.48	-44.9	-59.4	3.8	1.49e+00	0	58	104	1225785344	60	20145
2026-01-02 22:53:11.50	168.10	3.22	-44.8	-59.4	3.8	1.49e+00	0	58	104	1225785344	60	20085
2026-01-02 22:53:15.54	168.31	2.97	-44.8	-59.4	3.8	1.49e+00	0	58	104	1225785344	60	20090
2026-01-02 22:53:19.59	168.51	2.72	-44.8	-59.3	3.8	1.49e+00	0	58	104	1225785344	60	20034
2026-01-02 22:53:23.63	168.72	2.47	-44.8	-59.3	3.8	1.49e+00	0	58	104	1225785344	60	20053
2026-01-02 22:53:27.68	168.92	2.23	-44.8	-59.3	3.8	1.49e+00	0	58	104	1225785344	60	20032
2026-01-02 22:53:31.72	169.11	1.98	-44.8	-59.3	3.8	1.49e+00	0	58	104	1225785344	60	20034

#Closed at: 2026-01-02 22:53:33
#Recorded file [1225 MB]: D:/lorett/data/31039_260103_013943.dat