passes_logs/2026/01/02/R2.0S_Moscow/R2.0S_Moscow__20260102_011916_FENGYUN_3D_rec.log

#Pass ID: 20260102_011916_FENGYUN 3D
#Satellite: FENGYUN 3D
#Configuration: FENGYUN 3D
#almurnet v.1.7.20251203
#Start time: 2026-01-02 01:19:16

#Version: 2.2.20231116
#Station: R2.0S_Moscow
#Location: 37.707566 lon 55.798166 lat
#TLE: 1 43010U 17072A   26001.33100487  .00000602  00000+0  30664-3 0  9999
#TLE: 2 43010  98.9910 332.9374 0001848 133.1047 227.0283 14.19692078421319

#Time	Az	El	Level	Level2	SNR	BER	BlckErr	Temp	State	Recorded	gain1	gain2
2026-01-02 01:19:16.53	18.52	2.02	-40.1	-52.5	3.8	8.46e-01	0	47	0	0	52	14540
2026-01-02 01:19:20.57	18.61	2.27	-40.1	-52.6	3.8	8.46e-01	0	48	104	0	50	16489
2026-01-02 01:19:24.61	18.70	2.53	-40.2	-52.6	3.8	8.45e-01	0	48	104	0	50	16488
2026-01-02 01:19:28.66	18.79	2.79	-40.1	-52.6	3.8	8.45e-01	0	48	104	0	50	16443
2026-01-02 01:19:32.70	18.88	3.06	-40.2	-52.7	3.8	8.46e-01	0	49	104	0	50	16541
2026-01-02 01:19:36.74	18.98	3.32	-40.2	-52.6	3.8	8.46e-01	0	49	104	0	50	16478
2026-01-02 01:19:40.79	19.08	3.59	-40.1	-52.6	3.8	8.46e-01	0	49	104	0	50	16408
2026-01-02 01:19:44.83	19.17	3.86	-40.1	-52.6	3.8	8.46e-01	0	49	104	0	50	16422
2026-01-02 01:19:48.88	19.27	4.13	-40.1	-52.7	3.8	8.46e-01	0	50	104	0	50	16536
2026-01-02 01:19:52.92	19.37	4.41	-40.1	-52.6	3.8	8.45e-01	0	50	104	0	50	16450
2026-01-02 01:19:56.97	19.47	4.69	-40.1	-52.6	3.8	8.47e-01	0	50	104	0	50	16442
2026-01-02 01:20:01.01	19.58	4.97	-40.1	-52.6	3.8	8.45e-01	0	51	104	0	50	16483
2026-01-02 01:20:05.05	19.68	5.25	-40.1	-52.6	3.8	8.45e-01	0	51	104	0	50	16455
2026-01-02 01:20:09.10	19.79	5.54	-40.1	-52.6	3.8	8.47e-01	0	51	104	0	50	16374
2026-01-02 01:20:13.14	19.90	5.83	-40.1	-52.5	3.8	8.46e-01	0	51	104	0	50	16254
2026-01-02 01:20:17.19	20.01	6.13	-40.2	-52.5	3.8	8.46e-01	0	51	104	0	50	16218
2026-01-02 01:20:21.23	20.12	6.42	-40.1	-52.5	3.8	8.46e-01	0	52	104	0	50	16131
2026-01-02 01:20:25.28	20.24	6.72	-40.1	-52.4	3.8	8.45e-01	0	52	104	0	50	15960
2026-01-02 01:20:29.32	20.36	7.03	-40.1	-52.1	3.8	8.46e-01	0	52	104	0	50	15565
2026-01-02 01:20:33.36	20.47	7.33	-40.0	-51.3	3.8	8.46e-01	0	52	104	0	50	14163
2026-01-02 01:20:37.41	20.60	7.65	-39.7	-48.7	4.3	8.36e-01	0	52	0	0	50	10450
2026-01-02 01:20:41.45	20.72	7.96	-38.5	-43.9	7.4	1.59e-01	0	53	0	9437184	49	6390
2026-01-02 01:20:45.49	20.84	8.28	-36.7	-38.8	14.7	6.80e-06	0	53	0	30408704	44	4737
2026-01-02 01:20:49.53	20.97	8.60	-35.2	-36.9	16.4	0.00e+00	0	53	0	53477376	41	4525
2026-01-02 01:20:53.57	21.10	8.93	-35.5	-37.1	16.7	0.00e+00	0	53	0	75497472	42	4369
2026-01-02 01:20:57.61	21.24	9.26	-35.4	-36.9	17.0	0.00e+00	0	53	0	98566144	42	4285
2026-01-02 01:21:01.64	21.37	9.59	-35.0	-36.5	17.5	0.00e+00	0	53	0	121634816	42	4062
2026-01-02 01:21:05.68	21.51	9.93	-35.5	-37.0	17.0	0.00e+00	0	53	0	143654912	42	4306
2026-01-02 01:21:09.72	21.65	10.28	-35.4	-36.9	17.2	0.00e+00	0	53	0	166723584	42	4252
2026-01-02 01:21:13.76	21.80	10.63	-35.0	-36.4	17.6	0.00e+00	0	54	0	189792256	42	4044
2026-01-02 01:21:17.79	21.94	10.98	-35.2	-36.6	17.4	0.00e+00	0	53	0	211812352	42	4122
2026-01-02 01:21:21.83	22.09	11.34	-35.2	-36.6	17.5	0.00e+00	0	54	0	234881024	42	4106
2026-01-02 01:21:25.87	22.25	11.71	-34.9	-36.3	17.8	0.00e+00	0	54	0	257949696	41	4214
2026-01-02 01:21:29.91	22.40	12.08	-34.6	-35.9	18.3	0.00e+00	0	54	0	279969792	41	4026
2026-01-02 01:21:33.95	22.56	12.45	-34.4	-35.7	18.5	0.00e+00	0	54	0	303038464	40	4166
2026-01-02 01:21:37.99	22.73	12.83	-34.2	-35.4	18.8	0.00e+00	0	54	0	326107136	40	4045
2026-01-02 01:21:42.03	22.90	13.22	-34.0	-35.3	19.0	0.00e+00	0	54	0	348127232	40	3974
2026-01-02 01:21:46.07	23.07	13.61	-34.1	-35.4	18.9	0.00e+00	0	54	0	371195904	40	4005
2026-01-02 01:21:50.11	23.25	14.01	-34.0	-35.3	19.0	0.00e+00	0	54	0	394264576	40	3962
2026-01-02 01:21:54.15	23.43	14.42	-34.1	-35.3	19.1	0.00e+00	0	54	0	416284672	39	4207
2026-01-02 01:21:58.19	23.61	14.83	-33.9	-35.1	19.3	0.00e+00	0	55	0	439353344	39	4126
2026-01-02 01:22:02.23	23.80	15.25	-33.8	-35.0	19.4	0.00e+00	0	54	0	462422016	39	4089
2026-01-02 01:22:06.27	24.00	15.68	-33.7	-34.9	19.5	0.00e+00	0	55	0	484442112	39	4022
2026-01-02 01:22:10.31	24.20	16.11	-33.5	-34.7	19.8	0.00e+00	0	55	0	507510784	38	4152
2026-01-02 01:22:14.36	24.41	16.55	-33.3	-34.5	20.0	0.00e+00	0	55	0	530579456	38	4071
2026-01-02 01:22:18.40	24.62	17.00	-33.3	-34.4	20.1	0.00e+00	0	55	0	552599552	38	4049
2026-01-02 01:22:22.44	24.84	17.46	-33.2	-34.3	20.2	0.00e+00	0	55	0	575668224	38	4000
2026-01-02 01:22:26.48	25.06	17.93	-33.0	-34.1	20.4	0.00e+00	0	55	0	598736896	38	3910
2026-01-02 01:22:30.52	25.29	18.40	-32.8	-33.9	20.6	0.00e+00	0	55	0	620756992	37	4014
2026-01-02 01:22:34.56	25.53	18.88	-32.7	-33.8	20.8	0.00e+00	0	55	0	643825664	37	3970
2026-01-02 01:22:38.60	25.77	19.38	-32.8	-33.9	20.7	0.00e+00	0	55	0	666894336	37	4021
2026-01-02 01:22:42.64	26.02	19.88	-32.8	-33.9	20.6	0.00e+00	0	55	0	689963008	37	4044
2026-01-02 01:22:46.67	26.28	20.39	-32.8	-33.9	20.7	0.00e+00	0	55	0	711983104	37	4030
2026-01-02 01:22:50.71	26.55	20.91	-32.7	-33.8	20.9	0.00e+00	0	55	0	735051776	37	3972
2026-01-02 01:22:54.75	26.83	21.45	-32.7	-33.8	20.8	0.00e+00	0	55	0	757071872	37	4003
2026-01-02 01:22:58.79	27.12	21.99	-32.6	-33.6	21.0	0.00e+00	0	56	0	780140544	37	3913
2026-01-02 01:23:02.83	27.41	22.54	-32.1	-33.1	21.5	0.00e+00	0	56	0	803209216	36	3911
2026-01-02 01:23:06.87	27.72	23.11	-31.3	-32.3	21.7	0.00e+00	0	56	0	825229312	34	3982
2026-01-02 01:23:10.91	28.03	23.69	-31.2	-32.2	21.7	0.00e+00	0	56	0	848297984	34	3956
2026-01-02 01:23:14.95	28.36	24.28	-31.3	-32.4	21.6	0.00e+00	0	56	0	871366656	34	4019
2026-01-02 01:23:18.99	28.70	24.89	-31.2	-32.2	21.8	0.00e+00	0	56	0	894435328	34	3935
2026-01-02 01:23:23.03	29.06	25.50	-30.9	-32.0	22.0	0.00e+00	0	56	0	916455424	33	4060
2026-01-02 01:23:27.07	29.42	26.13	-31.2	-32.3	21.7	0.00e+00	0	56	0	939524096	33	4201
2026-01-02 01:23:31.11	29.80	26.78	-31.3	-32.4	21.6	0.00e+00	0	56	0	961544192	33	4266
2026-01-02 01:23:35.15	30.20	27.44	-31.1	-32.2	21.8	0.00e+00	0	56	0	984612864	33	4151
2026-01-02 01:23:39.19	30.61	28.11	-31.1	-32.1	21.9	0.00e+00	0	56	0	1007681536	33	4128
2026-01-02 01:23:43.24	31.04	28.80	-30.8	-31.8	22.2	0.00e+00	0	56	0	1030750208	33	3995
2026-01-02 01:23:47.28	31.49	29.51	-30.8	-31.8	22.2	0.00e+00	0	56	0	1052770304	33	3982
2026-01-02 01:23:51.32	31.96	30.23	-30.8	-31.8	22.2	0.00e+00	0	56	0	1075838976	33	3970
2026-01-02 01:23:55.36	32.45	30.97	-30.8	-31.8	22.2	0.00e+00	0	56	0	1098907648	33	3993
2026-01-02 01:23:59.40	32.96	31.72	-31.0	-32.1	22.0	0.00e+00	0	56	0	1120927744	33	4110
2026-01-02 01:24:03.43	33.49	32.49	-30.7	-31.7	22.3	0.00e+00	0	56	0	1143996416	33	3952
2026-01-02 01:24:07.47	34.05	33.28	-31.0	-32.1	22.0	0.00e+00	0	56	0	1166016512	33	4103
2026-01-02 01:24:11.51	34.64	34.09	-30.6	-31.7	22.4	0.00e+00	0	56	0	1189085184	33	3915
2026-01-02 01:24:15.55	35.26	34.92	-30.6	-31.6	22.4	0.00e+00	0	56	0	1212153856	33	3905
2026-01-02 01:24:19.59	35.91	35.76	-30.5	-31.5	22.5	0.00e+00	0	56	0	1235222528	32	4076
2026-01-02 01:24:23.62	36.59	36.62	-30.3	-31.3	22.7	0.00e+00	0	56	0	1257242624	32	3973
2026-01-02 01:24:27.66	37.31	37.51	-30.1	-31.2	21.9	0.00e+00	0	56	0	1280311296	32	3933
2026-01-02 01:24:31.70	38.07	38.41	-30.4	-31.5	21.7	0.00e+00	0	56	0	1303379968	32	4090
2026-01-02 01:24:35.75	38.87	39.33	-30.7	-31.9	21.4	0.00e+00	0	56	0	1325400064	32	4245
2026-01-02 01:24:39.79	39.72	40.27	-30.4	-31.5	21.8	0.00e+00	0	56	0	1348468736	32	4076
2026-01-02 01:24:43.82	40.62	41.23	-30.7	-31.9	21.4	0.00e+00	0	57	0	1370488832	32	4259
2026-01-02 01:24:47.86	41.57	42.20	-30.7	-31.9	21.4	0.00e+00	0	56	0	1393557504	32	4268
2026-01-02 01:24:51.90	42.58	43.20	-30.8	-32.0	21.3	0.00e+00	0	57	0	1416626176	32	4304
2026-01-02 01:24:55.94	43.66	44.21	-31.1	-32.3	21.1	0.00e+00	0	56	0	1439694848	32	4460
2026-01-02 01:24:59.98	44.80	45.23	-30.9	-32.1	21.3	0.00e+00	0	56	0	1461714944	32	4345
2026-01-02 01:25:04.02	46.03	46.27	-30.9	-32.1	21.3	0.00e+00	0	57	0	1484783616	32	4364
2026-01-02 01:25:08.06	47.33	47.32	-30.8	-32.0	21.5	0.00e+00	0	57	0	1507852288	32	4309
2026-01-02 01:25:12.10	48.73	48.38	-30.9	-32.1	21.5	0.00e+00	0	57	0	1529872384	32	4360
2026-01-02 01:25:16.14	50.22	49.44	-31.3	-32.5	21.1	0.00e+00	0	57	0	1552941056	33	4298
2026-01-02 01:25:20.18	51.82	50.52	-31.5	-32.7	20.8	0.00e+00	0	57	0	1576009728	33	4440
2026-01-02 01:25:24.22	53.54	51.59	-31.5	-32.7	21.0	0.00e+00	0	57	0	1598029824	33	4412
2026-01-02 01:25:28.26	55.38	52.65	-31.7	-33.0	20.7	0.00e+00	0	57	0	1621098496	34	4299
2026-01-02 01:25:32.30	57.36	53.71	-31.6	-32.7	20.9	0.00e+00	0	56	0	1644167168	34	4182
2026-01-02 01:25:36.34	59.49	54.75	-31.5	-32.6	21.0	0.00e+00	0	57	0	1666187264	34	4131
2026-01-02 01:25:40.38	61.78	55.78	-32.1	-33.4	20.3	0.00e+00	0	56	0	1689255936	34	4505
2026-01-02 01:25:44.42	64.24	56.77	-31.6	-32.8	20.9	0.00e+00	0	56	0	1712324608	34	4208
2026-01-02 01:25:48.45	66.87	57.73	-31.3	-32.5	21.2	0.00e+00	0	56	0	1734344704	34	4062
2026-01-02 01:25:52.49	69.70	58.64	-31.3	-32.6	21.0	0.00e+00	0	57	0	1757413376	34	4099
2026-01-02 01:25:56.54	72.73	59.50	-31.0	-32.2	21.4	0.00e+00	0	57	0	1780482048	33	4146
2026-01-02 01:26:00.58	75.95	60.29	-30.8	-32.0	21.4	0.00e+00	0	57	0	1802502144	33	4064
2026-01-02 01:26:04.61	79.35	61.00	-30.7	-31.8	21.5	0.00e+00	0	57	0	1825570816	33	3995
2026-01-02 01:26:08.65	82.95	61.64	-30.8	-32.1	21.4	0.00e+00	0	57	0	1848639488	32	4341
2026-01-02 01:26:12.69	86.73	62.17	-30.6	-31.8	21.6	0.00e+00	0	57	0	1870659584	32	4213
2026-01-02 01:26:16.73	90.65	62.60	-30.3	-31.4	21.8	0.00e+00	0	57	0	1893728256	32	4041
2026-01-02 01:26:20.78	94.71	62.91	-30.4	-31.5	21.8	0.00e+00	0	57	0	1916796928	32	4090
2026-01-02 01:26:24.82	98.85	63.11	-30.0	-31.1	22.1	0.00e+00	0	57	0	1938817024	32	3902
2026-01-02 01:26:28.86	103.03	63.18	-30.2	-31.4	21.9	0.00e+00	0	57	0	1961885696	32	4019
2026-01-02 01:26:32.90	107.22	63.12	-30.4	-31.5	21.8	0.00e+00	0	57	0	1984954368	32	4069
2026-01-02 01:26:36.94	111.37	62.94	-30.5	-31.7	21.6	0.00e+00	0	57	0	2006974464	32	4149
2026-01-02 01:26:40.99	115.44	62.64	-30.2	-31.3	22.0	0.00e+00	0	57	0	2030043136	32	3998
2026-01-02 01:26:45.03	119.39	62.23	-30.3	-31.4	21.9	0.00e+00	0	57	0	2053111808	32	4050
2026-01-02 01:26:49.07	123.19	61.70	-30.6	-31.7	21.7	0.00e+00	0	57	0	2075131904	32	4158
2026-01-02 01:26:53.11	126.82	61.08	-30.3	-31.4	21.9	0.00e+00	0	57	0	2098200576	32	4032
2026-01-02 01:26:57.16	130.27	60.37	-30.7	-31.9	21.6	0.00e+00	0	57	0	2121269248	32	4268
2026-01-02 01:27:01.20	133.51	59.59	-31.2	-32.4	21.2	0.00e+00	0	57	0	2144337920	33	4249
2026-01-02 01:27:05.24	136.56	58.74	-31.2	-32.4	21.1	0.00e+00	0	57	0	2166358016	33	4279
2026-01-02 01:27:09.28	139.42	57.83	-31.1	-32.2	21.3	0.00e+00	0	57	0	2189426688	33	4171
2026-01-02 01:27:13.32	142.08	56.87	-31.4	-32.6	21.0	0.00e+00	0	57	0	2211446784	33	4362
2026-01-02 01:27:17.36	144.56	55.88	-32.0	-33.2	20.4	0.00e+00	0	57	0	2234515456	34	4423
2026-01-02 01:27:21.40	146.88	54.85	-31.5	-32.7	20.8	0.00e+00	0	57	0	2257584128	34	4152
2026-01-02 01:27:25.44	149.03	53.81	-31.7	-32.9	20.5	0.00e+00	0	57	0	2280652800	34	4268
2026-01-02 01:27:29.47	151.02	52.75	-31.7	-33.0	20.5	0.00e+00	0	57	0	2302672896	34	4308
2026-01-02 01:27:33.51	152.89	51.68	-31.1	-32.3	21.2	0.00e+00	0	57	0	2325741568	34	3983
2026-01-02 01:27:37.55	154.62	50.60	-31.1	-32.2	21.3	0.00e+00	0	57	0	2348810240	34	3944
2026-01-02 01:27:41.59	156.24	49.53	-31.1	-32.2	21.3	0.00e+00	0	57	0	2370830336	34	3945
2026-01-02 01:27:45.63	157.74	48.46	-30.9	-32.1	21.4	0.00e+00	0	57	0	2393899008	33	4115
2026-01-02 01:27:49.67	159.15	47.39	-31.1	-32.3	21.1	0.00e+00	0	57	0	2415919104	33	4217
2026-01-02 01:27:53.71	160.47	46.33	-30.8	-31.9	21.4	0.00e+00	0	57	0	2438987776	33	4048
2026-01-02 01:27:57.75	161.70	45.29	-30.6	-31.8	21.5	0.00e+00	0	57	0	2462056448	33	3973
2026-01-02 01:28:01.79	162.86	44.26	-30.5	-31.7	21.6	0.00e+00	0	57	0	2485125120	32	4160
2026-01-02 01:28:05.83	163.94	43.24	-30.8	-32.0	21.3	0.00e+00	0	57	0	2507145216	32	4300
2026-01-02 01:28:09.86	164.96	42.24	-30.7	-31.8	21.4	0.00e+00	0	57	0	2530213888	32	4226
2026-01-02 01:28:13.91	165.92	41.26	-30.5	-31.7	21.4	0.00e+00	0	57	0	2553282560	32	4158
2026-01-02 01:28:17.95	166.83	40.30	-30.4	-31.6	21.4	0.00e+00	0	57	0	2575302656	32	4120
2026-01-02 01:28:21.99	167.68	39.35	-30.5	-31.7	21.3	0.00e+00	0	57	0	2598371328	32	4175
2026-01-02 01:28:26.03	168.49	38.42	-30.5	-31.7	21.5	0.00e+00	0	57	0	2620391424	32	4150
2026-01-02 01:28:30.06	169.25	37.51	-30.1	-31.2	21.8	0.00e+00	0	57	0	2643460096	32	3928
2026-01-02 01:28:34.11	169.97	36.62	-29.9	-31.0	21.8	0.00e+00	0	57	0	2666528768	31	4090
2026-01-02 01:28:38.14	170.66	35.75	-30.2	-31.3	21.5	0.00e+00	0	57	0	2689597440	31	4230
2026-01-02 01:28:42.18	171.31	34.90	-30.2	-31.4	21.5	0.00e+00	0	57	0	2711617536	31	4265
2026-01-02 01:28:46.22	171.93	34.07	-30.4	-31.6	21.3	0.00e+00	0	57	0	2734686208	31	4345
2026-01-02 01:28:50.25	172.52	33.26	-30.5	-31.7	21.2	0.00e+00	0	57	0	2756706304	31	4409
2026-01-02 01:28:54.29	173.08	32.46	-30.5	-31.6	21.2	0.00e+00	0	57	0	2779774976	31	4390
2026-01-02 01:28:58.33	173.62	31.68	-30.7	-31.9	21.0	0.00e+00	0	57	0	2802843648	31	4517
2026-01-02 01:29:02.37	174.13	30.92	-31.1	-32.3	20.7	0.00e+00	0	57	0	2824863744	32	4482
2026-01-02 01:29:06.41	174.62	30.18	-31.0	-32.2	20.8	0.00e+00	0	57	0	2847932416	32	4421
2026-01-02 01:29:10.45	175.09	29.45	-30.9	-32.1	20.9	0.00e+00	0	57	0	2871001088	32	4360
2026-01-02 01:29:14.49	175.54	28.74	-31.0	-32.2	20.8	0.00e+00	0	57	0	2894069760	32	4437
2026-01-02 01:29:18.53	175.97	28.05	-30.9	-32.2	20.8	0.00e+00	0	57	0	2916089856	32	4403
2026-01-02 01:29:22.57	176.38	27.37	-30.8	-32.0	21.0	0.00e+00	0	57	0	2939158528	32	4305
2026-01-02 01:29:26.61	176.78	26.70	-30.7	-31.9	21.0	0.00e+00	0	57	0	2961178624	32	4291
2026-01-02 01:29:30.65	177.16	26.06	-30.9	-32.1	20.9	0.00e+00	0	57	0	2984247296	32	4373
2026-01-02 01:29:34.69	177.53	25.42	-31.0	-32.3	20.7	0.00e+00	0	57	0	3007315968	32	4452
2026-01-02 01:29:38.73	177.88	24.80	-31.1	-32.3	20.7	0.00e+00	0	57	0	3029336064	32	4473
2026-01-02 01:29:42.77	178.22	24.19	-31.1	-32.3	20.6	0.00e+00	0	57	0	3052404736	32	4483
2026-01-02 01:29:46.81	178.55	23.60	-31.2	-32.4	20.5	0.00e+00	0	57	0	3075473408	32	4545
2026-01-02 01:29:50.85	178.86	23.01	-31.3	-32.6	20.4	0.00e+00	0	57	0	3098542080	33	4354
2026-01-02 01:29:54.89	179.17	22.44	-31.4	-32.7	20.3	0.00e+00	0	57	0	3120562176	33	4431
2026-01-02 01:29:58.93	179.46	21.88	-31.6	-32.9	20.1	0.00e+00	0	57	0	3143630848	33	4500
2026-01-02 01:30:02.97	179.75	21.34	-31.7	-33.0	20.1	0.00e+00	0	57	0	3165650944	33	4569
2026-01-02 01:30:07.01	180.02	20.80	-31.9	-33.2	19.9	0.00e+00	0	57	0	3188719616	34	4403
2026-01-02 01:30:11.04	180.29	20.28	-32.0	-33.3	19.7	0.00e+00	0	57	0	3211788288	34	4471
2026-01-02 01:30:15.08	180.55	19.76	-32.1	-33.4	19.7	0.00e+00	0	57	0	3233808384	34	4509
2026-01-02 01:30:19.12	180.80	19.25	-32.2	-33.5	19.6	0.00e+00	0	57	0	3256877056	34	4571
2026-01-02 01:30:23.16	181.04	18.76	-32.2	-33.6	19.5	0.00e+00	0	57	0	3279945728	35	4344
2026-01-02 01:30:27.19	181.27	18.27	-32.4	-33.7	19.4	0.00e+00	0	57	0	3303014400	35	4421
2026-01-02 01:30:31.23	181.50	17.80	-32.4	-33.7	19.4	0.00e+00	0	57	0	3325034496	35	4441
2026-01-02 01:30:35.28	181.72	17.33	-32.6	-33.9	19.2	0.00e+00	0	57	0	3348103168	35	4512
2026-01-02 01:30:39.32	181.94	16.87	-32.7	-34.0	19.1	0.00e+00	0	57	0	3370123264	35	4591
2026-01-02 01:30:43.36	182.15	16.41	-33.4	-34.8	19.1	0.00e+00	0	57	0	3393191936	37	4459
2026-01-02 01:30:47.40	182.35	15.97	-33.6	-34.9	19.0	0.00e+00	0	57	0	3416260608	37	4531
2026-01-02 01:30:51.44	182.55	15.53	-33.8	-35.2	18.8	0.00e+00	0	57	0	3439329280	38	4395
2026-01-02 01:30:55.48	182.74	15.10	-33.9	-35.3	18.6	0.00e+00	0	57	0	3461349376	38	4477
2026-01-02 01:30:59.52	182.93	14.68	-34.1	-35.5	18.5	0.00e+00	0	57	0	3484418048	38	4569
2026-01-02 01:31:03.56	183.11	14.27	-34.1	-35.5	18.4	0.00e+00	0	57	0	3507486720	38	4595
2026-01-02 01:31:07.60	183.29	13.86	-34.2	-35.6	18.3	0.00e+00	0	57	0	3529506816	39	4367
2026-01-02 01:31:11.64	183.47	13.46	-34.3	-35.7	18.2	0.00e+00	0	57	0	3552575488	39	4428
2026-01-02 01:31:15.68	183.64	13.06	-34.3	-35.7	18.2	0.00e+00	0	57	0	3574595584	39	4423
2026-01-02 01:31:19.72	183.80	12.67	-34.3	-35.7	18.2	0.00e+00	0	57	0	3597664256	39	4423
2026-01-02 01:31:23.77	183.96	12.29	-34.4	-35.8	18.2	0.00e+00	0	57	0	3620732928	39	4443
2026-01-02 01:31:27.80	184.12	11.91	-34.4	-35.8	18.1	0.00e+00	0	57	0	3643801600	39	4484
2026-01-02 01:31:31.84	184.27	11.54	-34.4	-35.9	18.1	0.00e+00	0	57	0	3665821696	39	4506
2026-01-02 01:31:35.88	184.42	11.17	-34.5	-36.0	17.9	0.00e+00	0	57	0	3688890368	39	4559
2026-01-02 01:31:39.92	184.57	10.81	-34.6	-36.1	17.8	0.00e+00	0	57	0	3711959040	39	4625
2026-01-02 01:31:43.96	184.72	10.46	-34.7	-36.2	17.7	0.00e+00	0	57	0	3733979136	40	4408
2026-01-02 01:31:48.00	184.86	10.10	-34.9	-36.4	17.4	0.00e+00	0	57	0	3757047808	40	4527
2026-01-02 01:31:52.04	184.99	9.76	-34.9	-36.5	17.4	0.00e+00	0	57	0	3780116480	40	4555
2026-01-02 01:31:56.08	185.13	9.42	-35.0	-36.6	17.2	0.00e+00	0	57	0	3802136576	40	4618
2026-01-02 01:32:00.12	185.26	9.08	-35.2	-36.8	17.0	0.00e+00	0	57	0	3825205248	41	4468
2026-01-02 01:32:04.16	185.39	8.75	-35.6	-37.2	16.6	0.00e+00	0	57	0	3848273920	41	4703
2026-01-02 01:32:08.20	185.52	8.42	-35.4	-37.0	16.7	0.00e+00	0	57	0	3870294016	41	4588
2026-01-02 01:32:12.24	185.64	8.09	-35.4	-37.0	16.8	0.00e+00	0	57	0	3893362688	41	4554
2026-01-02 01:32:16.29	185.76	7.77	-44.7	-56.1	3.8	8.46e-01	0	57	104	3901751296	59	14569
2026-01-02 01:32:20.33	185.88	7.46	-44.8	-56.4	3.8	8.46e-01	0	57	104	3901751296	60	14306
2026-01-02 01:32:24.37	186.00	7.14	-44.9	-56.5	3.8	8.46e-01	0	57	104	3901751296	60	14386
2026-01-02 01:32:28.41	186.11	6.84	-44.8	-56.4	3.8	8.47e-01	0	57	104	3901751296	60	14257
2026-01-02 01:32:32.45	186.22	6.53	-44.8	-56.3	3.8	8.46e-01	0	57	104	3901751296	60	14198
2026-01-02 01:32:36.49	186.33	6.23	-44.7	-56.3	3.8	8.46e-01	0	58	104	3901751296	60	14192
2026-01-02 01:32:40.54	186.44	5.93	-44.7	-56.3	3.8	8.47e-01	0	57	104	3901751296	60	14189
2026-01-02 01:32:44.58	186.55	5.63	-44.7	-56.3	3.8	8.46e-01	0	57	104	3901751296	60	14178
2026-01-02 01:32:48.62	186.65	5.34	-44.7	-56.3	3.8	8.46e-01	0	58	104	3901751296	60	14186
2026-01-02 01:32:52.67	186.76	5.05	-44.7	-56.3	3.8	8.46e-01	0	57	104	3901751296	60	14137
2026-01-02 01:32:56.71	186.86	4.77	-44.7	-56.3	3.8	8.46e-01	0	57	104	3901751296	60	14163
2026-01-02 01:33:00.75	186.96	4.49	-44.6	-56.3	3.8	8.47e-01	0	58	104	3901751296	60	14137
2026-01-02 01:33:04.80	187.05	4.21	-44.7	-56.3	3.8	8.47e-01	0	57	104	3901751296	60	14121
2026-01-02 01:33:08.84	187.15	3.93	-44.7	-56.3	3.8	8.45e-01	0	58	104	3901751296	60	14142
2026-01-02 01:33:12.89	187.24	3.65	-44.7	-56.3	3.8	8.46e-01	0	58	104	3901751296	60	14133
2026-01-02 01:33:16.93	187.33	3.38	-44.7	-56.3	3.8	8.45e-01	0	57	104	3901751296	60	14108
2026-01-02 01:33:20.98	187.43	3.11	-44.7	-56.3	3.8	8.44e-01	0	57	104	3901751296	60	14077
2026-01-02 01:33:25.02	187.52	2.85	-44.7	-56.3	3.8	8.47e-01	0	58	104	3901751296	60	14069
2026-01-02 01:33:29.06	187.60	2.58	-44.7	-56.3	3.8	8.46e-01	0	57	104	3901751296	60	14072
2026-01-02 01:33:33.11	187.69	2.32	-44.6	-56.3	3.8	8.46e-01	0	57	104	3901751296	60	14094
2026-01-02 01:33:37.15	187.78	2.06	-44.7	-56.3	3.8	8.46e-01	0	57	104	3901751296	60	14116

#Closed at: 2026-01-02 01:33:39
#Recorded file [3901 MB]: D:/lorett/data/31039_260102_041916.dat