passes_logs/2026/01/02/R2.0S_Moscow/R2.0S_Moscow__20260102_143721_FENGYUN_3E_rec.log

#Pass ID: 20260102_143721_FENGYUN 3E
#Satellite: FENGYUN 3E
#Configuration: FENGYUN 3E
#almurnet v.1.7.20251203
#Start time: 2026-01-02 14:37:22

#Version: 2.2.20231116
#Station: R2.0S_Moscow
#Location: 37.707566 lon 55.798166 lat
#TLE: 1 49008U 21062A   26001.96913326  .00000001  00000+0  21174-4 0  9999
#TLE: 2 49008  98.7479   7.2511 0001416 166.5636 193.5578 14.19883387232993

#Time	Az	El	Level	Level2	SNR	BER	BlckErr	Temp	State	Recorded	gain1	gain2
2026-01-02 14:37:22.20	173.03	2.07	-43.6	-54.5	3.8	8.47e-01	0	47	0	0	58	12118
2026-01-02 14:37:26.24	173.12	2.33	-43.5	-54.5	3.8	8.46e-01	0	48	104	0	58	12178
2026-01-02 14:37:30.28	173.20	2.59	-43.5	-54.5	3.8	8.46e-01	0	48	104	0	58	12172
2026-01-02 14:37:34.33	173.30	2.86	-43.5	-54.5	3.8	8.47e-01	0	48	104	0	58	12095
2026-01-02 14:37:38.37	173.39	3.12	-43.5	-54.5	3.8	8.45e-01	0	48	104	0	58	12169
2026-01-02 14:37:42.41	173.48	3.39	-43.5	-54.5	3.8	8.45e-01	0	49	104	0	58	12109
2026-01-02 14:37:46.45	173.58	3.66	-43.5	-54.5	3.8	8.46e-01	0	49	104	0	58	12102
2026-01-02 14:37:50.50	173.67	3.94	-43.5	-54.5	3.8	8.45e-01	0	50	104	0	58	12118
2026-01-02 14:37:54.54	173.77	4.21	-43.5	-54.4	3.8	8.45e-01	0	50	104	0	58	11984
2026-01-02 14:37:58.58	173.87	4.49	-43.5	-54.4	3.8	8.47e-01	0	50	104	0	58	12087
2026-01-02 14:38:02.63	173.97	4.77	-43.5	-54.4	3.8	8.46e-01	0	50	104	0	58	11963
2026-01-02 14:38:06.67	174.08	5.06	-43.5	-54.4	3.8	8.46e-01	0	50	104	0	58	12034
2026-01-02 14:38:10.71	174.18	5.35	-43.5	-54.4	3.8	8.46e-01	0	51	104	0	58	11999
2026-01-02 14:38:14.76	174.29	5.64	-43.4	-53.9	3.8	8.47e-01	0	51	104	0	57	11960
2026-01-02 14:38:18.80	174.40	5.93	-43.4	-53.6	3.8	8.45e-01	0	51	104	0	57	11587
2026-01-02 14:38:22.84	174.51	6.23	-43.5	-54.4	3.8	8.46e-01	0	51	104	0	57	12722
2026-01-02 14:38:26.89	174.62	6.53	-43.2	-52.1	4.0	8.45e-01	0	52	104	0	57	9735
2026-01-02 14:38:30.93	174.74	6.84	-41.3	-46.0	7.0	1.98e-01	0	52	0	7340032	53	6092
2026-01-02 14:38:34.98	174.85	7.15	-38.9	-41.8	11.4	1.35e-03	0	52	0	36700160	48	5009
2026-01-02 14:38:39.02	174.97	7.46	-36.7	-38.9	14.1	4.50e-06	0	52	0	66060288	44	4520
2026-01-02 14:38:43.06	175.10	7.77	-35.3	-37.3	15.5	0.00e+00	0	52	0	95420416	41	4476
2026-01-02 14:38:47.11	175.22	8.09	-40.0	-42.9	10.9	4.13e-03	0	52	0	124780544	50	5087
2026-01-02 14:38:51.15	175.35	8.42	-40.4	-44.2	8.6	3.85e-03	0	53	0	153092096	50	5889
2026-01-02 14:38:55.19	175.48	8.75	-34.5	-36.2	17.2	0.00e+00	0	53	0	182452224	39	4429
2026-01-02 14:38:59.23	175.61	9.08	-34.5	-36.3	17.2	0.00e+00	0	53	0	211812352	39	4455
2026-01-02 14:39:03.28	175.75	9.41	-34.5	-36.2	17.4	0.00e+00	0	53	0	241172480	39	4408
2026-01-02 14:39:07.32	175.89	9.76	-34.3	-36.0	17.6	0.00e+00	0	53	0	270532608	39	4313
2026-01-02 14:39:11.36	176.03	10.10	-34.2	-35.9	17.7	0.00e+00	0	53	0	299892736	39	4270
2026-01-02 14:39:15.40	176.17	10.45	-34.3	-36.0	17.7	0.00e+00	0	53	0	328204288	39	4301
2026-01-02 14:39:19.43	176.32	10.81	-33.9	-35.5	18.1	0.00e+00	0	53	0	357564416	38	4335
2026-01-02 14:39:23.47	176.47	11.17	-34.0	-35.6	18.0	0.00e+00	0	53	0	386924544	38	4384
2026-01-02 14:39:27.51	176.62	11.53	-34.0	-35.7	18.0	0.00e+00	0	54	0	416284672	38	4392
2026-01-02 14:39:31.55	176.78	11.90	-33.8	-35.4	18.3	0.00e+00	0	54	0	444596224	38	4261
2026-01-02 14:39:35.59	176.94	12.28	-33.5	-35.1	18.6	0.00e+00	0	54	0	473956352	37	4375
2026-01-02 14:39:39.63	177.11	12.66	-33.5	-35.1	18.5	0.00e+00	0	54	0	503316480	37	4361
2026-01-02 14:39:43.67	177.28	13.05	-33.3	-34.9	18.8	0.00e+00	0	54	0	532676608	37	4270
2026-01-02 14:39:47.71	177.45	13.44	-33.2	-34.8	18.9	0.00e+00	0	54	0	562036736	37	4194
2026-01-02 14:39:51.75	177.63	13.84	-33.1	-34.7	18.9	0.00e+00	0	54	0	590348288	37	4182
2026-01-02 14:39:55.79	177.81	14.25	-33.0	-34.6	19.0	0.00e+00	0	54	0	619708416	36	4351
2026-01-02 14:39:59.83	178.00	14.66	-33.0	-34.6	19.0	0.00e+00	0	55	0	649068544	36	4372
2026-01-02 14:40:03.87	178.19	15.08	-32.8	-34.5	19.1	0.00e+00	0	55	0	678428672	36	4292
2026-01-02 14:40:07.91	178.39	15.51	-32.9	-34.6	19.0	0.00e+00	0	55	0	707788800	36	4354
2026-01-02 14:40:11.95	178.59	15.95	-32.8	-34.6	18.9	0.00e+00	0	55	0	736100352	36	4344
2026-01-02 14:40:15.99	178.80	16.39	-32.8	-34.5	18.9	0.00e+00	0	55	0	765460480	36	4308
2026-01-02 14:40:20.03	179.02	16.84	-32.7	-34.4	19.0	0.00e+00	0	55	0	794820608	36	4256
2026-01-02 14:40:24.06	179.24	17.30	-31.8	-33.5	18.9	0.00e+00	0	55	0	824180736	34	4333
2026-01-02 14:40:28.10	179.47	17.76	-31.6	-33.3	19.1	0.00e+00	0	55	0	853540864	34	4240
2026-01-02 14:40:32.14	179.70	18.24	-31.4	-33.1	19.3	0.00e+00	0	55	0	882900992	33	4360
2026-01-02 14:40:36.19	179.94	18.72	-31.2	-32.8	19.5	0.00e+00	0	55	0	911212544	33	4227
2026-01-02 14:40:40.22	180.19	19.22	-30.9	-32.6	19.8	0.00e+00	0	55	0	940572672	32	4344
2026-01-02 14:40:44.26	180.45	19.72	-30.9	-32.6	19.8	0.00e+00	0	55	0	969932800	32	4344
2026-01-02 14:40:48.30	180.71	20.23	-31.0	-32.7	19.6	0.00e+00	0	55	0	999292928	32	4407
2026-01-02 14:40:52.35	180.99	20.76	-31.1	-32.9	19.5	0.00e+00	0	55	0	1028653056	32	4496
2026-01-02 14:40:56.39	181.27	21.29	-31.2	-32.9	19.4	0.00e+00	0	55	0	1056964608	32	4509
2026-01-02 14:41:00.43	181.56	21.83	-31.1	-32.9	19.5	0.00e+00	0	55	0	1086324736	32	4502
2026-01-02 14:41:04.47	181.86	22.39	-31.0	-32.6	19.8	0.00e+00	0	55	0	1115684864	32	4381
2026-01-02 14:41:08.51	182.18	22.96	-30.7	-32.3	20.2	0.00e+00	0	56	0	1145044992	32	4208
2026-01-02 14:41:12.56	182.50	23.54	-30.4	-31.9	20.4	0.00e+00	0	56	0	1174405120	31	4273
2026-01-02 14:41:16.59	182.84	24.13	-30.3	-31.8	20.5	0.00e+00	0	56	0	1203765248	31	4227
2026-01-02 14:41:20.64	183.18	24.73	-30.5	-32.0	20.2	0.00e+00	0	56	0	1232076800	31	4331
2026-01-02 14:41:24.67	183.54	25.35	-30.6	-32.2	20.1	0.00e+00	0	56	0	1261436928	31	4402
2026-01-02 14:41:28.72	183.92	25.98	-30.4	-32.0	20.2	0.00e+00	0	56	0	1290797056	31	4315
2026-01-02 14:41:32.76	184.31	26.63	-30.2	-31.8	20.4	0.00e+00	0	56	0	1320157184	31	4204
2026-01-02 14:41:36.80	184.72	27.28	-29.9	-31.5	20.6	0.00e+00	0	56	0	1349517312	30	4316
2026-01-02 14:41:40.83	185.14	27.96	-29.8	-31.3	20.8	0.00e+00	0	56	0	1377828864	30	4233
2026-01-02 14:41:44.87	185.58	28.65	-29.9	-31.4	20.8	0.00e+00	0	56	0	1407188992	30	4272
2026-01-02 14:41:48.91	186.04	29.35	-29.8	-31.3	20.9	0.00e+00	0	56	0	1436549120	30	4239
2026-01-02 14:41:52.95	186.52	30.07	-30.0	-31.5	20.8	0.00e+00	0	56	0	1465909248	30	4314
2026-01-02 14:41:56.98	187.01	30.81	-30.0	-31.5	20.9	0.00e+00	0	56	0	1495269376	30	4307
2026-01-02 14:42:01.02	187.54	31.56	-30.1	-31.5	20.8	0.00e+00	0	56	0	1524629504	30	4338
2026-01-02 14:42:05.06	188.09	32.33	-29.8	-31.3	21.1	0.00e+00	0	56	0	1552941056	30	4201
2026-01-02 14:42:09.09	188.66	33.11	-29.8	-31.3	20.9	0.00e+00	0	56	0	1582301184	30	4195
2026-01-02 14:42:13.13	189.26	33.92	-29.9	-31.4	20.8	0.00e+00	0	56	0	1611661312	29	4533
2026-01-02 14:42:17.18	189.89	34.75	-30.1	-31.7	20.6	0.00e+00	0	56	0	1641021440	29	4702
2026-01-02 14:42:21.21	190.56	35.59	-30.2	-31.9	20.6	0.00e+00	0	56	0	1670381568	30	4510
2026-01-02 14:42:25.25	191.25	36.45	-30.2	-31.8	20.6	0.00e+00	0	56	0	1699741696	30	4472
2026-01-02 14:42:29.30	191.99	37.33	-30.1	-31.7	20.6	0.00e+00	0	56	0	1728053248	30	4434
2026-01-02 14:42:33.34	192.77	38.22	-30.1	-31.7	20.5	0.00e+00	0	56	0	1757413376	30	4428
2026-01-02 14:42:37.38	193.59	39.14	-30.4	-32.0	20.4	0.00e+00	0	56	0	1786773504	31	4299
2026-01-02 14:42:41.42	194.45	40.07	-30.5	-32.1	20.3	0.00e+00	0	56	0	1816133632	31	4354
2026-01-02 14:42:45.46	195.37	41.02	-30.4	-31.9	20.6	0.00e+00	0	57	0	1845493760	31	4277
2026-01-02 14:42:49.50	196.34	41.99	-30.3	-31.9	20.7	0.00e+00	0	56	0	1873805312	31	4250
2026-01-02 14:42:53.54	197.38	42.97	-30.4	-31.9	20.6	0.00e+00	0	56	0	1903165440	31	4278
2026-01-02 14:42:57.59	198.48	43.97	-30.6	-32.1	20.5	0.00e+00	0	56	0	1932525568	31	4350
2026-01-02 14:43:01.63	199.64	44.99	-30.4	-31.9	20.8	0.00e+00	0	57	0	1961885696	31	4244
2026-01-02 14:43:05.67	200.89	46.01	-31.7	-32.6	21.3	0.00e+00	0	57	0	1991245824	32	4390
2026-01-02 14:43:09.71	202.21	47.05	-31.9	-32.9	21.0	0.00e+00	0	57	0	2020605952	33	4249
2026-01-02 14:43:13.75	203.63	48.09	-31.7	-32.6	21.3	0.00e+00	0	56	0	2048917504	33	4115
2026-01-02 14:43:17.79	205.14	49.14	-31.7	-32.7	21.2	0.00e+00	0	56	0	2078277632	33	4149
2026-01-02 14:43:21.82	206.76	50.19	-32.3	-33.2	20.7	0.00e+00	0	56	0	2107637760	34	4182
2026-01-02 14:43:25.86	208.50	51.24	-32.5	-33.5	20.4	0.00e+00	0	57	0	2136997888	35	4079
2026-01-02 14:43:29.90	210.36	52.29	-32.4	-33.4	20.4	0.00e+00	0	57	0	2165309440	34	4267
2026-01-02 14:43:33.94	212.35	53.32	-32.0	-33.0	20.9	0.00e+00	0	56	0	2194669568	34	4058
2026-01-02 14:43:37.98	214.49	54.34	-32.7	-33.7	20.2	0.00e+00	0	57	0	2224029696	35	4153
2026-01-02 14:43:42.01	216.78	55.34	-32.3	-33.3	20.7	0.00e+00	0	56	0	2253389824	35	3973
2026-01-02 14:43:46.05	219.23	56.30	-32.3	-33.3	20.6	0.00e+00	0	57	0	2281701376	34	4217
2026-01-02 14:43:50.09	221.86	57.23	-32.3	-33.2	20.6	0.00e+00	0	57	0	2311061504	34	4185
2026-01-02 14:43:54.13	224.67	58.11	-31.9	-32.9	21.0	0.00e+00	0	57	0	2340421632	34	4007
2026-01-02 14:43:58.18	227.67	58.94	-32.4	-33.4	20.6	0.00e+00	0	57	0	2369781760	34	4254
2026-01-02 14:44:02.22	230.85	59.71	-32.1	-33.1	20.7	0.00e+00	0	57	0	2399141888	34	4110
2026-01-02 14:44:06.26	234.20	60.39	-32.3	-33.2	20.6	0.00e+00	0	56	0	2428502016	34	4193
2026-01-02 14:44:10.30	237.73	61.00	-31.9	-32.8	21.0	1.14e-05	0	57	0	2456813568	34	3988
2026-01-02 14:44:14.34	241.42	61.50	-31.7	-32.7	21.1	0.00e+00	0	57	0	2486173696	34	3917
2026-01-02 14:44:18.38	245.25	61.91	-31.8	-32.7	21.1	0.00e+00	0	57	0	2515533824	34	3942
2026-01-02 14:44:22.42	249.19	62.21	-31.5	-32.5	21.3	0.00e+00	0	57	0	2544893952	33	4056
2026-01-02 14:44:26.45	253.19	62.38	-31.4	-32.3	21.4	0.00e+00	0	57	0	2574254080	33	3988
2026-01-02 14:44:30.50	257.26	62.45	-31.6	-32.5	21.2	0.00e+00	0	57	0	2602565632	33	4082
2026-01-02 14:44:34.54	261.31	62.39	-31.8	-32.7	21.1	0.00e+00	0	57	0	2631925760	33	4168
2026-01-02 14:44:38.58	265.32	62.21	-31.3	-32.2	21.5	0.00e+00	0	57	0	2661285888	33	3935
2026-01-02 14:44:42.61	269.25	61.92	-31.7	-32.7	21.0	0.00e+00	0	57	0	2690646016	33	4159
2026-01-02 14:44:46.65	273.08	61.51	-32.4	-33.4	20.4	0.00e+00	0	57	0	2720006144	34	4245
2026-01-02 14:44:50.69	276.76	61.01	-32.0	-32.9	20.8	0.00e+00	0	57	0	2748317696	34	4035
2026-01-02 14:44:54.73	280.30	60.41	-31.8	-32.8	20.4	0.00e+00	0	57	0	2777677824	34	3962
2026-01-02 14:44:58.77	283.65	59.72	-32.4	-33.4	19.8	0.00e+00	0	57	0	2807037952	34	4266
2026-01-02 14:45:02.80	286.82	58.97	-32.5	-33.5	20.2	0.00e+00	0	57	0	2836398080	35	4090
2026-01-02 14:45:06.84	289.81	58.14	-32.3	-33.3	20.5	0.00e+00	0	57	0	2865758208	34	4211
2026-01-02 14:45:10.89	292.63	57.26	-32.1	-33.0	20.5	0.00e+00	0	57	0	2895118336	34	4090
2026-01-02 14:45:14.93	295.26	56.34	-32.5	-33.5	19.8	0.00e+00	0	57	0	2923429888	34	4322
2026-01-02 14:45:18.97	297.71	55.38	-32.1	-33.1	20.8	0.00e+00	0	57	0	2952790016	34	4103
2026-01-02 14:45:23.01	300.01	54.38	-32.7	-33.7	20.1	0.00e+00	0	57	0	2982150144	35	4193
2026-01-02 14:45:27.04	302.14	53.37	-32.5	-33.5	20.4	0.00e+00	0	57	0	3011510272	35	4080
2026-01-02 14:45:31.08	304.14	52.34	-32.3	-33.3	20.5	0.00e+00	0	57	0	3040870400	35	3991
2026-01-02 14:45:35.13	306.00	51.30	-32.3	-33.3	20.6	0.00e+00	0	57	0	3069181952	35	3961
2026-01-02 14:45:39.17	307.74	50.25	-32.1	-33.1	20.8	0.00e+00	0	57	0	3098542080	34	4106
2026-01-02 14:45:43.21	309.36	49.20	-32.4	-33.4	20.5	0.00e+00	0	57	0	3127902208	34	4275
2026-01-02 14:45:47.24	310.87	48.16	-31.9	-32.8	20.9	0.00e+00	0	57	0	3157262336	34	3998
2026-01-02 14:45:51.28	312.28	47.12	-31.6	-32.5	21.4	0.00e+00	0	57	0	3186622464	34	3837
2026-01-02 14:45:55.33	313.61	46.09	-31.4	-32.3	21.5	0.00e+00	0	57	0	3215982592	33	3985
2026-01-02 14:45:59.37	314.86	45.06	-30.7	-31.6	22.1	0.00e+00	0	57	0	3244294144	32	3896
2026-01-02 14:46:03.40	316.02	44.06	-31.2	-32.1	21.7	0.00e+00	0	57	0	3273654272	32	4116
2026-01-02 14:46:07.44	317.12	43.06	-31.4	-32.3	21.5	0.00e+00	0	57	0	3303014400	32	4222
2026-01-02 14:46:11.47	318.15	42.09	-30.9	-31.8	22.1	0.00e+00	0	57	0	3332374528	32	3963
2026-01-02 14:46:15.51	319.13	41.12	-31.1	-32.0	21.8	0.00e+00	0	57	0	3361734656	32	4078
2026-01-02 14:46:19.55	320.05	40.18	-30.7	-31.5	22.2	0.00e+00	0	57	0	3390046208	32	3865
2026-01-02 14:46:23.59	320.91	39.25	-31.1	-32.0	21.8	0.00e+00	0	57	0	3419406336	32	4077
2026-01-02 14:46:27.63	321.73	38.33	-31.1	-32.0	21.5	0.00e+00	0	57	0	3448766464	32	4095
2026-01-02 14:46:31.66	322.51	37.44	-31.0	-31.9	21.9	0.00e+00	0	57	0	3478126592	32	4027
2026-01-02 14:46:35.70	323.25	36.57	-30.8	-31.7	22.1	0.00e+00	0	57	0	3506438144	32	3936
2026-01-02 14:46:39.74	323.95	35.71	-30.6	-31.4	22.3	0.00e+00	0	57	0	3535798272	32	3821
2026-01-02 14:46:43.78	324.62	34.87	-30.8	-31.7	22.0	0.00e+00	0	57	0	3565158400	32	3945
2026-01-02 14:46:47.82	325.25	34.05	-31.0	-31.9	21.8	0.00e+00	0	57	0	3594518528	32	4034
2026-01-02 14:46:51.86	325.85	33.25	-30.6	-31.5	22.3	0.00e+00	0	57	0	3623878656	32	3842
2026-01-02 14:46:55.90	326.43	32.47	-30.2	-31.1	22.5	0.00e+00	0	57	0	3652190208	31	3885
2026-01-02 14:46:59.94	326.98	31.70	-30.4	-31.2	22.2	0.00e+00	0	57	0	3681550336	31	3957
2026-01-02 14:47:03.99	327.50	30.95	-30.5	-31.4	22.2	0.00e+00	0	57	0	3710910464	31	4016
2026-01-02 14:47:08.03	328.01	30.21	-30.6	-31.5	22.1	0.00e+00	0	57	0	3740270592	31	4078
2026-01-02 14:47:12.06	328.49	29.50	-30.7	-31.6	22.0	0.00e+00	0	57	0	3769630720	31	4116
2026-01-02 14:47:16.10	328.95	28.80	-30.7	-31.6	22.0	0.00e+00	0	57	0	3797942272	31	4133
2026-01-02 14:47:20.14	329.39	28.11	-30.8	-31.7	21.8	0.00e+00	0	57	0	3827302400	31	4179
2026-01-02 14:47:24.18	329.81	27.44	-30.8	-31.7	21.9	0.00e+00	0	57	0	3856662528	31	4166
2026-01-02 14:47:28.21	330.22	26.78	-30.7	-31.6	21.9	0.00e+00	0	57	0	3886022656	31	4123
2026-01-02 14:47:32.25	330.61	26.14	-30.6	-31.5	22.0	0.00e+00	0	57	0	3915382784	31	4085
2026-01-02 14:47:36.29	330.99	25.51	-30.6	-31.5	22.0	0.00e+00	0	57	0	3943694336	31	4088
2026-01-02 14:47:40.33	331.35	24.90	-30.6	-31.5	21.9	0.00e+00	0	57	0	3973054464	31	4083
2026-01-02 14:47:44.37	331.71	24.29	-30.8	-31.7	21.8	0.00e+00	0	57	0	4002414592	31	4151
2026-01-02 14:47:48.41	332.04	23.71	-31.0	-32.0	21.5	0.00e+00	0	57	0	4031774720	31	4305
2026-01-02 14:47:52.45	332.37	23.13	-31.4	-32.3	21.4	0.00e+00	0	57	0	4061134848	32	4222
2026-01-02 14:47:56.49	332.68	22.56	-31.5	-32.5	21.2	0.00e+00	0	57	0	4090494976	32	4296
2026-01-02 14:48:00.53	332.99	22.01	-31.6	-32.5	21.1	0.00e+00	0	57	0	4118806528	32	4315
2026-01-02 14:48:04.58	333.29	21.47	-31.5	-32.5	21.1	0.00e+00	0	57	0	4148166656	32	4298
2026-01-02 14:48:08.61	333.57	20.93	-31.6	-32.6	21.0	0.00e+00	0	57	0	4177526784	32	4349
2026-01-02 14:48:12.65	333.85	20.41	-31.6	-32.6	21.0	0.00e+00	0	57	0	4206886912	32	4348
2026-01-02 14:48:16.69	334.11	19.90	-31.7	-32.7	20.9	0.00e+00	0	57	0	4236247040	32	4407
2026-01-02 14:48:20.73	334.37	19.40	-31.8	-32.8	20.8	0.00e+00	0	57	0	4264558592	33	4225
2026-01-02 14:48:24.77	334.63	18.91	-32.0	-33.0	20.5	0.00e+00	0	57	0	4293918720	33	4329
2026-01-02 14:48:28.81	334.87	18.43	-32.3	-33.3	20.3	0.00e+00	0	57	0	4323278848	34	4195
2026-01-02 14:48:32.85	335.11	17.95	-32.4	-33.4	20.1	0.00e+00	0	57	0	4352638976	34	4281
2026-01-02 14:48:36.89	335.34	17.49	-32.5	-33.5	20.1	0.00e+00	0	57	0	4381999104	34	4317
2026-01-02 14:48:40.94	335.56	17.03	-32.5	-33.5	20.0	0.00e+00	0	57	0	4411359232	34	4318
2026-01-02 14:48:44.97	335.78	16.58	-32.5	-33.5	20.0	0.00e+00	0	57	0	4439670784	34	4312
2026-01-02 14:48:49.01	335.99	16.14	-32.5	-33.5	20.0	0.00e+00	0	57	0	4469030912	34	4297
2026-01-02 14:48:53.05	336.20	15.71	-32.6	-33.6	19.9	0.00e+00	0	57	0	4498391040	34	4357
2026-01-02 14:48:57.09	336.40	15.28	-32.6	-33.7	19.8	0.00e+00	0	57	0	4527751168	34	4399
2026-01-02 14:49:01.13	336.60	14.86	-32.7	-33.7	19.7	0.00e+00	0	57	0	4557111296	34	4411
2026-01-02 14:49:05.17	336.79	14.45	-32.8	-33.9	19.5	0.00e+00	0	57	0	4585422848	35	4262
2026-01-02 14:49:09.20	336.97	14.04	-33.0	-34.1	19.3	0.00e+00	0	57	0	4614782976	35	4362
2026-01-02 14:49:13.24	337.16	13.64	-33.0	-34.1	19.2	0.00e+00	0	57	0	4644143104	35	4345
2026-01-02 14:49:17.29	337.33	13.25	-33.2	-34.3	19.0	0.00e+00	0	57	0	4673503232	35	4465
2026-01-02 14:49:21.33	337.51	12.86	-34.2	-35.3	18.7	0.00e+00	0	57	0	4702863360	37	4462
2026-01-02 14:49:25.37	337.68	12.48	-34.4	-35.5	18.5	0.00e+00	0	57	0	4732223488	38	4316
2026-01-02 14:49:29.41	337.84	12.11	-34.3	-35.4	18.5	0.00e+00	0	57	0	4760535040	38	4283
2026-01-02 14:49:33.45	338.00	11.74	-34.2	-35.3	18.6	0.00e+00	0	57	0	4789895168	38	4213
2026-01-02 14:49:37.50	338.16	11.37	-34.0	-35.2	18.6	0.00e+00	0	57	0	4819255296	38	4150
2026-01-02 14:49:41.54	338.32	11.01	-34.0	-35.1	18.6	0.00e+00	0	57	0	4848615424	38	4118
2026-01-02 14:49:45.58	338.47	10.66	-33.9	-35.1	18.4	0.00e+00	0	57	0	4877975552	38	4106
2026-01-02 14:49:49.62	338.62	10.31	-34.3	-35.5	17.7	0.00e+00	0	57	0	4906287104	38	4318
2026-01-02 14:49:53.66	338.76	9.97	-35.1	-36.4	16.5	0.00e+00	0	58	0	4935647232	39	4543
2026-01-02 14:49:57.69	338.91	9.63	-35.7	-37.3	15.1	0.00e+00	0	57	0	4965007360	40	4735
2026-01-02 14:50:01.74	339.05	9.29	-36.5	-38.4	13.5	1.25e-05	0	57	0	4994367488	42	4799
2026-01-02 14:50:05.78	339.18	8.96	-37.5	-40.0	11.7	6.63e-04	0	58	0	5023727616	44	5125
2026-01-02 14:50:09.82	339.32	8.63	-38.4	-41.5	9.8	9.24e-03	0	57	0	5053087744	46	5441
2026-01-02 14:50:13.85	339.45	8.31	-39.1	-43.1	8.0	6.96e-02	0	57	0	5081399296	47	6142
2026-01-02 14:50:17.89	339.58	7.99	-44.0	-54.6	3.8	5.57e-01	0	57	104	5108662272	57	13077
2026-01-02 14:50:21.93	339.70	7.68	-45.2	-56.4	3.8	8.46e-01	0	57	104	5108662272	60	13535
2026-01-02 14:50:25.98	339.83	7.36	-45.4	-56.6	3.8	8.46e-01	0	58	104	5108662272	60	13747
2026-01-02 14:50:30.02	339.95	7.06	-45.3	-56.4	3.8	8.46e-01	0	57	104	5108662272	60	13564
2026-01-02 14:50:34.06	340.07	6.75	-45.2	-56.3	3.8	8.47e-01	0	57	104	5108662272	60	13403
2026-01-02 14:50:38.10	340.19	6.45	-45.2	-56.3	3.8	8.45e-01	0	57	104	5108662272	60	13396
2026-01-02 14:50:42.14	340.30	6.16	-45.2	-56.4	3.8	8.46e-01	0	57	104	5108662272	60	13454
2026-01-02 14:50:46.19	340.42	5.86	-45.2	-56.3	3.8	8.46e-01	0	58	104	5108662272	60	13367
2026-01-02 14:50:50.23	340.53	5.57	-45.2	-56.3	3.8	8.45e-01	0	57	104	5108662272	60	13387
2026-01-02 14:50:54.27	340.64	5.28	-45.1	-56.3	3.8	8.46e-01	0	58	104	5108662272	60	13339
2026-01-02 14:50:58.32	340.75	5.00	-45.1	-56.3	3.8	8.47e-01	0	57	104	5108662272	60	13323
2026-01-02 14:51:02.36	340.86	4.72	-45.2	-56.3	3.8	8.47e-01	0	57	104	5108662272	60	13412
2026-01-02 14:51:06.41	340.96	4.44	-45.2	-56.3	3.8	8.47e-01	0	58	104	5108662272	60	13410
2026-01-02 14:51:10.45	341.06	4.16	-45.2	-56.3	3.8	8.46e-01	0	58	104	5108662272	60	13382
2026-01-02 14:51:14.49	341.17	3.89	-45.2	-56.3	3.8	8.46e-01	0	58	104	5108662272	60	13339
2026-01-02 14:51:18.53	341.27	3.62	-45.2	-56.3	3.8	8.46e-01	0	58	104	5108662272	60	13413
2026-01-02 14:51:22.58	341.37	3.35	-45.1	-56.3	3.8	8.46e-01	0	58	104	5108662272	60	13404
2026-01-02 14:51:26.62	341.46	3.09	-45.2	-56.3	3.8	8.45e-01	0	58	104	5108662272	60	13382
2026-01-02 14:51:30.67	341.56	2.82	-45.1	-56.3	3.8	8.46e-01	0	58	104	5108662272	60	13352
2026-01-02 14:51:34.71	341.65	2.56	-45.1	-56.3	3.8	8.46e-01	0	58	104	5108662272	60	13405
2026-01-02 14:51:38.76	341.75	2.30	-45.1	-56.3	3.8	8.47e-01	0	58	104	5108662272	60	13311
2026-01-02 14:51:42.80	341.84	2.05	-45.1	-56.3	3.8	8.46e-01	0	58	104	5108662272	60	13334

#Closed at: 2026-01-02 14:51:45
#Recorded file [5108 MB]: D:/lorett/data/31039_260102_173722.dat