passes_logs/2026/01/02/R2.0S_Moscow/R2.0S_Moscow__20260102_093901_NOAA_21_JPSS-2_rec.log

#Pass ID: 20260102_093901_NOAA 21 (JPSS-2)
#Satellite: NOAA 21 (JPSS-2)
#Configuration: NOAA-21
#almurnet v.1.7.20251203
#Start time: 2026-01-02 09:39:01

#Version: 2.2.20231116
#Station: R2.0S_Moscow
#Location: 37.707566 lon 55.798166 lat
#TLE: 1 54234U 22150A   26001.26806856  .00000185  00000+0  10843-3 0  9990
#TLE: 2 54234  98.7484 302.3349 0001277 353.3887   6.7272 14.19530660162860

#Time	Az	El	Level	Level2	SNR	BER	BlckErr	Temp	State	Recorded	gain1	gain2
2026-01-02 09:39:01.97	152.82	2.06	-43.9	-56.0	3.8	1.49e+00	0	47	0	0	59	14433
2026-01-02 09:39:06.01	152.78	2.32	-43.8	-56.0	3.8	1.49e+00	0	48	104	0	59	14479
2026-01-02 09:39:10.05	152.74	2.59	-43.8	-56.0	3.8	1.49e+00	0	48	104	0	59	14442
2026-01-02 09:39:14.10	152.70	2.86	-43.8	-56.0	3.8	1.49e+00	0	48	104	0	59	14387
2026-01-02 09:39:18.14	152.66	3.12	-43.8	-56.0	3.8	1.49e+00	0	49	104	0	59	14438
2026-01-02 09:39:22.18	152.61	3.40	-43.8	-56.0	3.8	1.49e+00	0	49	104	0	59	14400
2026-01-02 09:39:26.23	152.57	3.67	-43.8	-56.0	3.8	1.49e+00	0	49	104	0	59	14414
2026-01-02 09:39:30.27	152.52	3.95	-43.8	-55.9	3.8	1.49e+00	0	50	104	0	59	14373
2026-01-02 09:39:34.31	152.48	4.23	-43.8	-56.0	3.8	1.49e+00	0	50	104	0	59	14385
2026-01-02 09:39:38.36	152.43	4.51	-43.8	-56.0	3.8	1.49e+00	0	50	104	0	59	14399
2026-01-02 09:39:42.40	152.38	4.79	-43.8	-56.0	3.8	1.49e+00	0	50	104	0	59	14453
2026-01-02 09:39:46.45	152.34	5.08	-43.8	-56.0	3.8	1.49e+00	0	51	104	0	59	14406
2026-01-02 09:39:50.49	152.29	5.38	-43.8	-55.9	3.8	1.49e+00	0	51	104	0	59	14297
2026-01-02 09:39:54.53	152.23	5.67	-43.8	-55.8	3.8	1.49e+00	0	51	104	0	59	14065
2026-01-02 09:39:58.58	152.18	5.97	-43.8	-55.6	3.8	1.49e+00	0	51	104	0	59	13856
2026-01-02 09:40:02.62	152.13	6.27	-43.7	-55.3	3.8	1.49e+00	0	51	104	0	59	13409
2026-01-02 09:40:06.67	152.07	6.58	-43.7	-54.9	3.8	1.49e+00	0	52	104	0	59	12792
2026-01-02 09:40:10.71	152.02	6.89	-43.3	-51.9	4.0	1.46e+00	0	52	104	0	58	9510
2026-01-02 09:40:14.75	151.96	7.20	-42.1	-47.0	7.6	1.14e-01	0	52	0	8388608	56	6094
2026-01-02 09:40:18.80	151.90	7.52	-40.0	-42.9	11.7	7.36e-04	0	52	0	20971520	52	4773
2026-01-02 09:40:22.84	151.84	7.84	-38.3	-40.4	14.3	7.00e-07	0	52	0	34603008	48	4514
2026-01-02 09:40:26.88	151.77	8.16	-41.2	-45.1	9.6	1.69e-02	0	52	0	44040192	53	5823
2026-01-02 09:40:30.92	151.71	8.49	-37.8	-39.7	15.0	7.85e-05	0	52	0	56623104	47	4434
2026-01-02 09:40:34.96	151.64	8.82	-37.2	-39.0	15.8	0.00e+00	0	53	0	69206016	46	4312
2026-01-02 09:40:39.00	151.58	9.16	-37.1	-38.9	15.9	0.00e+00	0	52	0	81788928	46	4251
2026-01-02 09:40:43.03	151.51	9.50	-37.0	-38.7	16.1	0.00e+00	0	53	0	94371840	46	4178
2026-01-02 09:40:47.07	151.43	9.85	-36.9	-38.6	16.3	0.00e+00	0	53	0	106954752	45	4374
2026-01-02 09:40:51.12	151.36	10.20	-36.9	-38.5	16.4	0.00e+00	0	53	0	119537664	45	4313
2026-01-02 09:40:55.16	151.29	10.56	-36.8	-38.4	16.5	0.00e+00	0	53	0	132120576	45	4285
2026-01-02 09:40:59.20	151.21	10.92	-36.7	-38.3	16.7	0.00e+00	0	53	0	144703488	45	4208
2026-01-02 09:41:03.24	151.13	11.29	-36.7	-38.3	16.7	0.00e+00	0	53	0	157286400	45	4197
2026-01-02 09:41:07.28	151.05	11.66	-36.5	-38.1	16.9	0.00e+00	0	54	0	169869312	45	4107
2026-01-02 09:41:11.31	150.96	12.04	-36.5	-38.0	17.0	0.00e+00	0	54	0	182452224	44	4328
2026-01-02 09:41:15.36	150.87	12.42	-36.4	-37.9	17.1	0.00e+00	0	54	0	195035136	44	4289
2026-01-02 09:41:19.40	150.78	12.82	-36.3	-37.8	17.3	0.00e+00	0	54	0	207618048	44	4228
2026-01-02 09:41:23.43	150.69	13.21	-36.2	-37.6	17.4	0.00e+00	0	54	0	221249536	44	4143
2026-01-02 09:41:27.47	150.60	13.61	-36.1	-37.6	17.5	0.00e+00	0	54	0	233832448	44	4122
2026-01-02 09:41:31.52	150.50	14.03	-36.1	-37.6	17.6	0.00e+00	0	54	0	245366784	44	4099
2026-01-02 09:41:35.56	150.40	14.44	-36.1	-37.5	17.7	0.00e+00	0	54	0	258998272	44	4071
2026-01-02 09:41:39.60	150.29	14.87	-36.1	-37.5	17.7	0.00e+00	0	54	0	271581184	44	4075
2026-01-02 09:41:43.63	150.18	15.30	-36.1	-37.5	17.7	0.00e+00	0	54	0	284164096	44	4080
2026-01-02 09:41:47.67	150.07	15.74	-36.2	-37.6	17.6	0.00e+00	0	54	0	296747008	44	4119
2026-01-02 09:41:51.71	149.96	16.18	-36.2	-37.6	17.6	0.00e+00	0	54	0	309329920	44	4128
2026-01-02 09:41:55.76	149.84	16.64	-36.2	-37.6	17.7	0.00e+00	0	54	0	321912832	44	4128
2026-01-02 09:41:59.79	149.72	17.10	-36.2	-37.6	17.7	0.00e+00	0	54	0	334495744	44	4137
2026-01-02 09:42:03.83	149.59	17.58	-36.3	-37.7	17.6	0.00e+00	0	54	0	347078656	44	4170
2026-01-02 09:42:07.87	149.46	18.06	-36.3	-37.7	17.7	0.00e+00	0	54	0	359661568	44	4163
2026-01-02 09:42:11.91	149.32	18.55	-36.3	-37.7	17.7	0.00e+00	0	55	0	372244480	44	4163
2026-01-02 09:42:15.95	149.18	19.05	-36.2	-37.6	17.8	0.00e+00	0	55	0	384827392	44	4117
2026-01-02 09:42:19.99	149.03	19.56	-36.0	-37.4	18.0	0.00e+00	0	55	0	397410304	44	4011
2026-01-02 09:42:24.03	148.88	20.09	-35.7	-37.0	18.2	0.00e+00	0	55	0	409993216	43	4087
2026-01-02 09:42:28.06	148.73	20.62	-35.4	-36.7	18.5	0.00e+00	0	55	0	422576128	42	4180
2026-01-02 09:42:32.11	148.56	21.16	-35.3	-36.6	18.6	0.00e+00	0	55	0	435159040	42	4106
2026-01-02 09:42:36.14	148.39	21.72	-35.0	-36.3	18.9	0.00e+00	0	55	0	447741952	42	3973
2026-01-02 09:42:40.18	148.22	22.28	-34.8	-36.0	19.2	0.00e+00	0	55	0	460324864	41	4068
2026-01-02 09:42:44.22	148.03	22.87	-34.7	-35.9	19.3	0.00e+00	0	55	0	472907776	41	4015
2026-01-02 09:42:48.26	147.84	23.46	-34.6	-35.8	19.4	0.00e+00	0	55	0	485490688	41	3995
2026-01-02 09:42:52.30	147.65	24.07	-34.6	-35.8	19.4	0.00e+00	0	55	0	498073600	41	3994
2026-01-02 09:42:56.34	147.44	24.69	-34.6	-35.8	19.5	0.00e+00	0	55	0	510656512	41	3984
2026-01-02 09:43:00.38	147.22	25.32	-34.9	-36.2	19.1	0.00e+00	0	55	0	523239424	41	4160
2026-01-02 09:43:04.42	147.00	25.97	-35.1	-36.4	19.0	0.00e+00	0	55	0	535822336	41	4245
2026-01-02 09:43:08.46	146.76	26.64	-35.4	-36.7	18.6	0.00e+00	0	55	0	548405248	41	4419
2026-01-02 09:43:12.50	146.52	27.32	-35.6	-36.9	18.5	0.00e+00	0	55	0	560988160	41	4523
2026-01-02 09:43:16.54	146.26	28.02	-36.0	-37.3	18.1	0.00e+00	0	55	0	574619648	42	4475
2026-01-02 09:43:20.58	145.99	28.74	-36.0	-37.4	18.0	0.00e+00	0	55	0	587202560	42	4532
2026-01-02 09:43:24.62	145.71	29.48	-36.0	-37.4	18.0	0.00e+00	0	55	0	599785472	42	4518
2026-01-02 09:43:28.66	145.41	30.23	-35.7	-37.1	18.4	0.00e+00	0	55	0	612368384	42	4355
2026-01-02 09:43:32.70	145.10	31.00	-35.8	-37.1	18.3	0.00e+00	0	55	0	624951296	42	4388
2026-01-02 09:43:36.74	144.78	31.80	-35.8	-37.1	18.3	0.00e+00	0	56	0	637534208	42	4375
2026-01-02 09:43:40.78	144.43	32.61	-36.1	-37.5	18.0	0.00e+00	0	55	0	650117120	42	4575
2026-01-02 09:43:44.81	144.07	33.44	-36.3	-37.7	17.8	0.00e+00	0	56	0	662700032	43	4426
2026-01-02 09:43:48.85	143.69	34.30	-36.5	-38.0	17.5	0.00e+00	0	56	0	675282944	43	4556
2026-01-02 09:43:52.89	143.29	35.18	-37.1	-38.7	17.1	0.00e+00	0	55	0	687865856	44	4658
2026-01-02 09:43:56.94	142.86	36.08	-37.8	-39.5	16.3	0.00e+00	0	56	0	700448768	46	4564
2026-01-02 09:44:00.98	142.41	37.01	-37.9	-39.6	16.1	0.00e+00	0	56	0	713031680	46	4635
2026-01-02 09:44:05.02	141.93	37.96	-37.9	-39.6	16.1	0.00e+00	0	56	0	725614592	46	4644
2026-01-02 09:44:09.06	141.42	38.94	-37.8	-39.4	16.3	0.00e+00	0	56	0	738197504	46	4545
2026-01-02 09:44:13.10	140.88	39.94	-38.1	-39.8	15.9	0.00e+00	0	56	0	750780416	46	4751
2026-01-02 09:44:17.14	140.30	40.97	-37.6	-39.2	16.5	0.00e+00	0	56	0	763363328	46	4419
2026-01-02 09:44:21.18	139.68	42.03	-37.5	-39.1	16.6	0.00e+00	0	56	0	775946240	46	4389
2026-01-02 09:44:25.23	139.02	43.11	-37.5	-39.0	16.6	0.00e+00	0	56	0	788529152	46	4340
2026-01-02 09:44:29.27	138.32	44.22	-38.3	-40.2	15.6	7.00e-07	0	56	0	801112064	47	4659
2026-01-02 09:44:33.31	137.56	45.35	-38.9	-40.8	15.1	0.00e+00	0	56	0	813694976	48	4707
2026-01-02 09:44:37.35	136.74	46.52	-38.0	-39.6	16.1	0.00e+00	0	56	0	826277888	48	4125
2026-01-02 09:44:41.39	135.86	47.70	-38.1	-39.8	15.9	0.00e+00	0	56	0	838860800	47	4475
2026-01-02 09:44:45.43	134.91	48.92	-37.6	-39.3	16.5	0.00e+00	0	56	0	852492288	47	4198
2026-01-02 09:44:49.47	133.87	50.16	-37.5	-39.1	16.6	0.00e+00	0	56	0	864026624	47	4133
2026-01-02 09:44:53.52	132.75	51.42	-37.2	-38.8	16.9	0.00e+00	0	56	0	877658112	46	4194
2026-01-02 09:44:57.55	131.53	52.70	-36.7	-38.2	17.5	0.00e+00	0	56	0	890241024	45	4160
2026-01-02 09:45:01.59	130.19	54.00	-36.8	-38.2	17.5	0.00e+00	0	56	0	902823936	44	4426
2026-01-02 09:45:05.63	128.73	55.32	-36.5	-37.9	17.8	0.00e+00	0	56	0	915406848	44	4246
2026-01-02 09:45:09.67	127.12	56.65	-36.6	-38.1	17.5	0.00e+00	0	56	0	927989760	44	4356
2026-01-02 09:45:13.70	125.35	57.98	-35.7	-37.0	18.4	0.00e+00	0	56	0	940572672	43	4082
2026-01-02 09:45:17.74	123.39	59.32	-35.9	-37.2	18.3	0.00e+00	0	56	0	953155584	43	4176
2026-01-02 09:45:21.78	121.21	60.66	-35.4	-36.7	18.7	0.00e+00	0	56	0	965738496	42	4163
2026-01-02 09:45:25.82	118.80	61.98	-34.9	-36.1	19.2	0.00e+00	0	56	0	978321408	41	4144
2026-01-02 09:45:29.86	116.11	63.27	-34.3	-35.5	19.7	0.00e+00	0	56	0	990904320	40	4055
2026-01-02 09:45:33.90	113.11	64.53	-34.5	-35.7	19.6	0.00e+00	0	56	0	1003487232	40	4169
2026-01-02 09:45:37.94	109.78	65.74	-34.5	-35.7	19.6	0.00e+00	0	56	0	1016070144	40	4185
2026-01-02 09:45:41.98	106.06	66.89	-34.3	-35.4	19.8	0.00e+00	0	56	0	1028653056	40	4040
2026-01-02 09:45:46.02	101.93	67.95	-34.5	-35.7	19.5	0.00e+00	0	56	0	1041235968	40	4185
2026-01-02 09:45:50.06	97.37	68.90	-34.0	-35.1	20.2	0.00e+00	0	56	0	1053818880	39	4115
2026-01-02 09:45:54.10	92.37	69.73	-34.4	-35.6	19.7	0.00e+00	0	56	0	1066401792	39	4371
2026-01-02 09:45:58.14	86.96	70.40	-34.6	-35.8	19.5	0.00e+00	0	56	0	1078984704	40	4209
2026-01-02 09:46:02.19	81.18	70.91	-34.0	-35.1	20.1	0.00e+00	0	56	0	1091567616	40	3907
2026-01-02 09:46:06.22	75.16	71.22	-34.4	-35.6	19.4	0.00e+00	0	56	0	1104150528	40	4121
2026-01-02 09:46:10.26	68.98	71.33	-35.1	-36.4	18.8	0.00e+00	0	56	0	1116733440	41	4273
2026-01-02 09:46:14.30	62.79	71.23	-34.5	-35.6	19.6	0.00e+00	0	56	0	1129316352	40	4137
2026-01-02 09:46:18.34	56.75	70.93	-34.4	-35.6	19.6	0.00e+00	0	56	0	1141899264	40	4110
2026-01-02 09:46:22.38	50.96	70.44	-35.2	-36.5	18.9	0.00e+00	0	56	0	1154482176	40	4553
2026-01-02 09:46:26.42	45.53	69.78	-34.4	-35.6	19.8	0.00e+00	0	56	0	1167065088	39	4357
2026-01-02 09:46:30.46	40.51	68.97	-34.4	-35.5	19.8	0.00e+00	0	57	0	1179648000	40	4087
2026-01-02 09:46:34.50	35.92	68.02	-35.3	-36.6	18.7	0.00e+00	0	56	0	1193279488	41	4373
2026-01-02 09:46:38.54	31.77	66.97	-35.5	-36.8	18.6	0.00e+00	0	56	0	1205862400	41	4472
2026-01-02 09:46:42.58	28.03	65.84	-34.0	-35.2	20.1	0.00e+00	0	56	0	1218445312	40	3918
2026-01-02 09:46:46.61	24.67	64.63	-35.8	-37.2	18.2	0.00e+00	0	56	0	1231028224	42	4412
2026-01-02 09:46:50.65	21.66	63.38	-34.9	-36.1	19.2	0.00e+00	0	56	0	1243611136	40	4383
2026-01-02 09:46:54.69	18.95	62.09	-35.2	-36.4	19.0	0.00e+00	0	56	0	1256194048	42	4022
2026-01-02 09:46:58.73	16.52	60.78	-36.4	-37.8	17.6	0.00e+00	0	57	0	1268776960	43	4479
2026-01-02 09:47:02.77	14.34	59.45	-35.2	-36.4	19.1	0.00e+00	0	56	0	1281359872	42	4016
2026-01-02 09:47:06.81	12.36	58.11	-36.6	-38.1	17.5	0.00e+00	0	57	0	1293942784	43	4601
2026-01-02 09:47:10.85	10.58	56.78	-35.2	-36.4	19.0	0.00e+00	0	57	0	1306525696	42	4041
2026-01-02 09:47:14.89	8.96	55.46	-36.4	-37.8	17.7	0.00e+00	0	57	0	1319108608	43	4457
2026-01-02 09:47:18.94	7.49	54.14	-36.9	-38.4	17.3	0.00e+00	0	56	0	1331691520	45	4262
2026-01-02 09:47:22.98	6.14	52.84	-38.1	-39.8	15.9	0.00e+00	0	56	0	1344274432	46	4736
2026-01-02 09:47:27.02	4.91	51.56	-37.2	-38.7	17.0	0.00e+00	0	57	0	1356857344	46	4152
2026-01-02 09:47:31.06	3.79	50.30	-37.1	-38.6	17.1	0.00e+00	0	57	0	1369440256	44	4628
2026-01-02 09:47:35.10	2.75	49.07	-39.2	-41.2	14.5	2.20e-06	0	57	0	1382023168	49	4690
2026-01-02 09:47:39.14	1.80	47.86	-38.2	-39.9	15.8	0.00e+00	0	57	0	1394606080	48	4283
2026-01-02 09:47:43.18	0.91	46.67	-37.0	-38.4	17.2	0.00e+00	0	57	0	1407188992	45	4270
2026-01-02 09:47:47.23	0.09	45.51	-38.4	-40.2	15.5	0.00e+00	0	57	0	1419771904	47	4661
2026-01-02 09:47:51.27	359.33	44.38	-38.3	-40.0	15.4	0.00e+00	0	57	0	1432354816	48	4317
2026-01-02 09:47:55.31	358.62	43.27	-38.6	-40.5	15.3	0.00e+00	0	57	0	1444937728	48	4548
2026-01-02 09:47:59.35	357.96	42.19	-38.1	-39.8	16.0	0.00e+00	0	57	0	1457520640	48	4219
2026-01-02 09:48:03.39	357.34	41.14	-38.0	-39.7	16.0	0.00e+00	0	57	0	1470103552	47	4441
2026-01-02 09:48:07.43	356.76	40.11	-38.4	-40.3	15.3	0.00e+00	0	57	0	1483735040	47	4727
2026-01-02 09:48:11.46	356.22	39.12	-37.7	-39.4	16.2	0.00e+00	0	57	0	1495269376	47	4261
2026-01-02 09:48:15.50	355.71	38.14	-37.7	-39.4	16.3	0.00e+00	0	57	0	1508900864	47	4255
2026-01-02 09:48:19.54	355.24	37.19	-36.8	-38.2	17.4	0.00e+00	0	57	0	1521483776	45	4171
2026-01-02 09:48:23.59	354.78	36.26	-36.5	-37.9	17.7	0.00e+00	0	57	0	1534066688	44	4269
2026-01-02 09:48:27.62	354.36	35.37	-37.4	-39.0	16.6	0.00e+00	0	57	0	1546649600	45	4577
2026-01-02 09:48:31.66	353.95	34.49	-37.2	-38.8	16.8	0.00e+00	0	57	0	1559232512	45	4467
2026-01-02 09:48:35.70	353.57	33.63	-36.7	-38.2	17.4	0.00e+00	0	57	0	1571815424	45	4168
2026-01-02 09:48:39.74	353.21	32.80	-36.8	-38.3	17.3	0.00e+00	0	57	0	1584398336	45	4213
2026-01-02 09:48:43.78	352.87	31.99	-36.8	-38.3	17.2	0.00e+00	0	57	0	1596981248	45	4226
2026-01-02 09:48:47.82	352.54	31.19	-36.6	-38.0	17.5	0.00e+00	0	57	0	1609564160	45	4092
2026-01-02 09:48:51.86	352.23	30.42	-35.7	-37.0	18.3	0.00e+00	0	57	0	1622147072	43	4078
2026-01-02 09:48:55.90	351.94	29.67	-35.2	-36.4	18.9	0.00e+00	0	57	0	1634729984	42	4027
2026-01-02 09:48:59.95	351.66	28.94	-35.1	-36.4	18.9	0.00e+00	0	57	0	1647312896	42	4022
2026-01-02 09:49:03.98	351.39	28.22	-35.5	-36.8	18.5	0.00e+00	0	57	0	1659895808	42	4196
2026-01-02 09:49:08.02	351.13	27.52	-35.6	-36.9	18.3	0.00e+00	0	57	0	1672478720	42	4288
2026-01-02 09:49:12.06	350.89	26.84	-35.5	-36.8	18.4	0.00e+00	0	57	0	1685061632	42	4226
2026-01-02 09:49:16.10	350.66	26.18	-35.5	-36.8	18.4	0.00e+00	0	57	0	1697644544	42	4223
2026-01-02 09:49:20.15	350.43	25.52	-35.6	-37.0	18.2	0.00e+00	0	57	0	1710227456	42	4312
2026-01-02 09:49:24.19	350.22	24.89	-35.8	-37.2	18.0	0.00e+00	0	57	0	1722810368	42	4426
2026-01-02 09:49:28.22	350.02	24.27	-36.0	-37.5	17.6	0.00e+00	0	57	0	1735393280	42	4547
2026-01-02 09:49:32.26	349.82	23.66	-36.0	-37.5	17.6	0.00e+00	0	57	0	1747976192	42	4562
2026-01-02 09:49:36.30	349.63	23.07	-35.8	-37.3	17.7	0.00e+00	0	57	0	1760559104	42	4455
2026-01-02 09:49:40.34	349.45	22.49	-35.5	-36.9	18.0	0.00e+00	0	57	0	1773142016	42	4256
2026-01-02 09:49:44.38	349.28	21.93	-35.0	-36.3	18.3	0.00e+00	0	57	0	1785724928	41	4217
2026-01-02 09:49:48.41	349.11	21.37	-37.2	-39.3	14.5	0.00e+00	0	57	0	1798307840	44	5023
2026-01-02 09:49:52.45	348.95	20.83	-39.4	-44.9	7.2	9.96e-02	0	57	0	1810890752	49	7152
2026-01-02 09:49:56.49	348.79	20.30	-39.7	-50.3	4.0	1.48e+00	0	57	104	1817182208	49	13282
2026-01-02 09:50:00.52	348.64	19.78	-40.2	-52.6	3.8	1.49e+00	0	57	104	1817182208	51	15510
2026-01-02 09:50:04.56	348.50	19.27	-39.9	-52.2	3.8	1.49e+00	0	57	104	1817182208	51	14787
2026-01-02 09:50:08.60	348.36	18.77	-40.4	-52.9	3.8	1.49e+00	0	57	104	1817182208	52	15068
2026-01-02 09:50:12.64	348.23	18.27	-40.5	-53.0	3.8	1.49e+00	0	57	104	1817182208	52	15290
2026-01-02 09:50:16.68	348.10	17.79	-41.9	-54.3	3.8	1.49e+00	0	57	104	1817182208	54	15846
2026-01-02 09:50:20.72	347.98	17.32	-40.6	-53.1	3.8	1.49e+00	0	57	104	1817182208	52	15495
2026-01-02 09:50:24.76	347.86	16.86	-41.8	-54.3	3.8	1.49e+00	0	57	104	1817182208	54	15786
2026-01-02 09:50:28.80	347.74	16.40	-41.9	-54.3	3.8	1.49e+00	0	57	104	1817182208	54	15782
2026-01-02 09:50:32.84	347.63	15.96	-41.3	-53.9	3.8	1.49e+00	0	57	104	1817182208	54	15066
2026-01-02 09:50:36.88	347.52	15.52	-41.4	-53.8	3.8	1.49e+00	0	57	104	1817182208	54	14964
2026-01-02 09:50:40.92	347.42	15.09	-41.1	-53.5	3.8	1.49e+00	0	57	104	1817182208	54	14482
2026-01-02 09:50:44.96	347.31	14.66	-41.4	-53.9	3.8	1.49e+00	0	57	104	1817182208	54	15079
2026-01-02 09:50:49.00	347.22	14.25	-41.0	-53.5	3.8	1.49e+00	0	57	104	1817182208	53	15240
2026-01-02 09:50:53.03	347.12	13.84	-41.0	-53.5	3.8	1.49e+00	0	57	104	1817182208	53	15319
2026-01-02 09:50:57.07	347.03	13.44	-40.7	-53.1	3.8	1.49e+00	0	57	104	1817182208	53	14680
2026-01-02 09:51:01.11	346.94	13.04	-40.8	-53.3	3.8	1.49e+00	0	57	104	1817182208	53	15037
2026-01-02 09:51:05.15	346.85	12.65	-40.7	-53.1	3.8	1.49e+00	0	57	104	1817182208	53	14628
2026-01-02 09:51:09.18	346.77	12.27	-40.5	-53.0	3.8	1.49e+00	0	57	104	1817182208	52	15320
2026-01-02 09:51:13.22	346.69	11.89	-40.6	-53.1	3.8	1.49e+00	0	57	104	1817182208	52	15461
2026-01-02 09:51:17.26	346.61	11.52	-40.5	-53.0	3.8	1.49e+00	0	57	104	1817182208	52	15253
2026-01-02 09:51:21.30	346.53	11.15	-40.6	-53.1	3.8	1.49e+00	0	57	104	1817182208	52	15472
2026-01-02 09:51:25.34	346.46	10.79	-40.4	-52.8	3.8	1.49e+00	0	57	104	1817182208	52	15019
2026-01-02 09:51:29.38	346.39	10.43	-40.2	-52.7	3.8	1.49e+00	0	57	104	1817182208	52	14822
2026-01-02 09:51:33.42	346.32	10.08	-40.2	-52.7	3.8	1.49e+00	0	57	104	1817182208	52	14750
2026-01-02 09:51:37.47	346.25	9.73	-40.2	-52.7	3.8	1.49e+00	0	57	104	1817182208	52	14840
2026-01-02 09:51:41.51	346.19	9.39	-40.2	-52.7	3.8	1.49e+00	0	57	104	1817182208	52	14741
2026-01-02 09:51:45.55	346.12	9.05	-40.2	-52.7	3.8	1.49e+00	0	57	104	1817182208	52	14716
2026-01-02 09:51:49.59	346.06	8.72	-40.1	-52.5	3.8	1.49e+00	0	57	104	1817182208	52	14436
2026-01-02 09:51:53.63	346.00	8.39	-40.6	-53.0	3.8	1.49e+00	0	57	104	1817182208	52	15228
2026-01-02 09:51:57.67	345.94	8.07	-40.1	-52.5	3.8	1.49e+00	0	58	104	1817182208	52	14418
2026-01-02 09:52:01.71	345.88	7.75	-44.4	-56.6	3.8	1.49e+00	0	58	104	1817182208	59	15403
2026-01-02 09:52:05.76	345.83	7.43	-44.9	-57.2	3.8	1.49e+00	0	58	104	1817182208	60	15757
2026-01-02 09:52:09.80	345.78	7.12	-44.9	-57.2	3.8	1.49e+00	0	57	104	1817182208	60	15751
2026-01-02 09:52:13.85	345.72	6.81	-44.8	-57.1	3.8	1.49e+00	0	58	104	1817182208	60	15479
2026-01-02 09:52:17.89	345.67	6.50	-44.7	-57.1	3.8	1.49e+00	0	58	104	1817182208	60	15442
2026-01-02 09:52:21.93	345.62	6.20	-44.7	-57.1	3.8	1.49e+00	0	57	104	1817182208	60	15430
2026-01-02 09:52:25.98	345.57	5.90	-44.7	-57.0	3.8	1.49e+00	0	58	104	1817182208	60	15349
2026-01-02 09:52:30.02	345.53	5.61	-44.7	-57.0	3.8	1.49e+00	0	57	104	1817182208	60	15346
2026-01-02 09:52:34.07	345.48	5.32	-44.7	-57.0	3.8	1.49e+00	0	57	104	1817182208	60	15319
2026-01-02 09:52:38.11	345.44	5.03	-44.7	-57.0	3.8	1.49e+00	0	57	104	1817182208	60	15352
2026-01-02 09:52:42.15	345.40	4.74	-44.7	-57.0	3.8	1.49e+00	0	58	104	1817182208	60	15293
2026-01-02 09:52:46.20	345.35	4.46	-44.7	-57.0	3.8	1.49e+00	0	58	104	1817182208	60	15321
2026-01-02 09:52:50.24	345.31	4.18	-44.7	-57.0	3.8	1.49e+00	0	58	104	1817182208	60	15323
2026-01-02 09:52:54.28	345.27	3.91	-44.7	-57.0	3.8	1.49e+00	0	57	104	1817182208	60	15348
2026-01-02 09:52:58.33	345.23	3.63	-44.6	-57.0	3.8	1.49e+00	0	57	104	1817182208	60	15312
2026-01-02 09:53:02.37	345.20	3.36	-44.7	-57.0	3.8	1.49e+00	0	58	104	1817182208	60	15350
2026-01-02 09:53:06.42	345.16	3.09	-44.7	-57.0	3.8	1.49e+00	0	58	104	1817182208	60	15352
2026-01-02 09:53:10.46	345.12	2.83	-44.7	-57.0	3.8	1.49e+00	0	57	104	1817182208	60	15274
2026-01-02 09:53:14.51	345.09	2.56	-44.7	-57.0	3.8	1.49e+00	0	58	104	1817182208	60	15387
2026-01-02 09:53:18.55	345.06	2.30	-44.7	-57.0	3.8	1.49e+00	0	57	104	1817182208	60	15293
2026-01-02 09:53:22.60	345.02	2.04	-44.7	-57.0	3.8	1.49e+00	0	57	104	1817182208	60	15285

#Closed at: 2026-01-02 09:53:25
#Recorded file [1817 MB]: D:/lorett/data/31039_260102_123901.dat