passes_logs/2026/01/02/R2.0S_Moscow/R2.0S_Moscow__20260102_082931_SUOMI_NPP_rec.log

#Pass ID: 20260102_082931_SUOMI NPP
#Satellite: SUOMI NPP
#Configuration: NPP
#almurnet v.1.7.20251203
#Start time: 2026-01-02 08:29:33

#Version: 2.2.20231116
#Station: R2.0S_Moscow
#Location: 37.707566 lon 55.798166 lat
#TLE: 1 37849U 11061A   26001.07732418  .00000182  00000+0  10735-3 0  9990
#TLE: 2 37849  98.7795 303.2470 0002580  87.2016 272.9455 14.19520779734739

#Time	Az	El	Level	Level2	SNR	BER	BlckErr	Temp	State	Recorded	gain1	gain2
2026-01-02 08:29:33.94	116.61	2.13	-42.7	-57.5	3.9	1.49e+00	0	47	0	0	56	20461
2026-01-02 08:29:36.97	116.42	2.31	-43.2	-57.6	3.9	1.49e+00	0	48	104	0	56	20718
2026-01-02 08:29:40.00	116.23	2.49	-43.3	-57.7	3.9	1.49e+00	0	48	104	0	57	19712
2026-01-02 08:29:43.03	116.04	2.66	-41.8	-56.9	4.0	1.49e+00	0	48	104	0	53	22591
2026-01-02 08:29:46.06	115.85	2.84	-40.7	-56.5	3.8	1.49e+00	0	48	104	0	54	20306
2026-01-02 08:29:49.10	115.65	3.02	-42.8	-57.2	3.9	1.49e+00	0	49	104	0	56	19629
2026-01-02 08:29:52.13	115.46	3.20	-43.1	-57.7	3.8	1.49e+00	0	49	104	0	57	19753
2026-01-02 08:29:55.17	115.25	3.38	-43.3	-57.8	3.8	1.49e+00	0	49	104	0	57	19881
2026-01-02 08:29:58.20	115.05	3.57	-42.1	-56.6	3.9	1.49e+00	0	49	104	0	54	20681
2026-01-02 08:30:01.23	114.85	3.75	-43.0	-57.8	3.9	1.49e+00	0	49	104	0	57	19849
2026-01-02 08:30:04.26	114.64	3.93	-43.2	-57.7	3.8	1.49e+00	0	50	104	0	56	20790
2026-01-02 08:30:07.30	114.43	4.12	-43.3	-57.7	3.8	1.49e+00	0	50	104	0	57	19617
2026-01-02 08:30:10.33	114.21	4.30	-43.1	-57.6	3.9	1.49e+00	0	50	104	0	56	20748
2026-01-02 08:30:13.36	114.00	4.49	-40.4	-56.6	3.9	1.49e+00	0	50	104	0	52	23131
2026-01-02 08:30:16.40	113.78	4.68	-43.2	-57.7	3.8	1.49e+00	0	50	104	0	56	20828
2026-01-02 08:30:19.43	113.55	4.86	-43.5	-57.8	3.8	1.49e+00	0	50	104	0	56	21149
2026-01-02 08:30:22.46	113.33	5.05	-43.0	-57.6	3.9	1.49e+00	0	51	104	0	56	20639
2026-01-02 08:30:25.50	113.10	5.24	-43.3	-57.6	3.8	1.49e+00	0	51	104	0	56	20634
2026-01-02 08:30:28.53	112.87	5.44	-41.5	-56.4	4.0	1.49e+00	0	51	104	0	53	21393
2026-01-02 08:30:31.56	112.63	5.63	-43.1	-57.8	3.8	1.49e+00	0	51	104	0	57	20039
2026-01-02 08:30:34.59	112.39	5.82	-38.0	-54.6	4.1	1.49e+00	0	51	104	0	51	19470
2026-01-02 08:30:37.63	112.15	6.02	-43.2	-57.6	4.0	1.49e+00	0	51	104	0	56	20569
2026-01-02 08:30:40.66	111.91	6.21	-42.2	-57.5	3.7	1.49e+00	0	52	104	0	53	24183
2026-01-02 08:30:43.69	111.66	6.41	-40.8	-56.6	3.8	1.49e+00	0	52	104	0	55	19471
2026-01-02 08:30:46.73	111.41	6.60	-39.0	-55.1	3.8	1.49e+00	0	52	104	0	49	23273
2026-01-02 08:30:49.76	111.15	6.80	-41.0	-56.2	3.9	1.49e+00	0	52	104	0	54	19662
2026-01-02 08:30:52.79	110.89	7.00	-41.5	-56.3	4.0	1.49e+00	0	52	104	0	53	21124
2026-01-02 08:30:55.82	110.63	7.20	-42.8	-56.5	3.9	1.49e+00	0	52	104	0	56	18169
2026-01-02 08:30:58.86	110.36	7.40	-41.7	-51.4	4.9	1.04e+00	0	52	0	0	52	12758
2026-01-02 08:31:01.89	110.10	7.60	-41.7	-47.4	8.8	6.93e-02	0	52	0	5242880	53	7573
2026-01-02 08:31:04.92	109.82	7.81	-40.7	-45.6	10.5	7.76e-03	0	52	0	11534336	52	6546
2026-01-02 08:31:07.96	109.54	8.01	-40.0	-43.6	12.7	1.34e-02	0	53	0	16777216	50	5816
2026-01-02 08:31:10.98	109.26	8.21	-41.5	-48.1	7.7	2.06e-02	0	53	0	18874368	53	8224
2026-01-02 08:31:14.01	108.98	8.42	-40.3	-44.0	12.3	1.16e-02	0	53	0	25165824	51	5725
2026-01-02 08:31:17.04	108.69	8.63	-40.1	-43.6	13.0	1.94e-03	0	53	0	30408704	50	5796
2026-01-02 08:31:20.08	108.39	8.83	-40.0	-43.4	13.2	2.65e-04	0	53	0	36700160	50	5681
2026-01-02 08:31:23.11	108.09	9.04	-40.4	-44.3	12.3	8.58e-04	0	53	0	41943040	51	5941
2026-01-02 08:31:26.14	107.79	9.25	-40.3	-43.8	12.8	3.84e-04	0	53	0	47185920	51	5610
2026-01-02 08:31:29.16	107.48	9.46	-40.4	-43.9	12.6	6.14e-04	0	53	0	53477376	51	5716
2026-01-02 08:31:32.20	107.17	9.68	-39.9	-43.3	13.3	9.07e-05	0	53	0	58720256	50	5628
2026-01-02 08:31:35.22	106.86	9.89	-39.7	-42.5	14.3	6.80e-06	0	53	0	65011712	50	5158
2026-01-02 08:31:38.25	106.53	10.10	-40.6	-44.1	12.7	8.83e-04	0	53	0	70254592	51	5836
2026-01-02 08:31:41.28	106.21	10.32	-40.0	-43.2	13.4	7.40e-03	0	53	0	75497472	51	5227
2026-01-02 08:31:44.31	105.88	10.53	-40.0	-43.4	12.7	4.94e-03	0	53	0	81788928	51	5348
2026-01-02 08:31:47.34	105.54	10.75	-39.5	-43.8	10.6	2.81e-02	0	54	0	87031808	48	6686
2026-01-02 08:31:50.37	105.20	10.97	-39.9	-43.2	12.0	2.24e-02	0	54	0	93323264	50	5539
2026-01-02 08:31:53.40	104.85	11.18	-39.0	-43.6	9.5	1.03e-01	0	54	0	98566144	46	7294
2026-01-02 08:31:56.43	104.50	11.40	-39.5	-43.1	10.1	3.01e-01	0	54	0	104857600	48	6184
2026-01-02 08:31:59.46	104.15	11.62	-37.1	-41.7	5.8	4.86e-01	0	54	0	110100480	24	20977
2026-01-02 08:32:02.49	103.78	11.84	-39.5	-43.2	9.2	1.41e-01	0	54	0	114294784	48	6220
2026-01-02 08:32:05.52	103.41	12.07	-34.9	-41.0	8.6	2.25e-01	0	54	0	120586240	44	6129
2026-01-02 08:32:08.55	103.04	12.29	-37.1	-41.6	9.8	1.54e-01	0	54	0	125829120	46	5797
2026-01-02 08:32:11.59	102.66	12.51	-37.7	-42.4	9.4	4.89e-01	0	54	0	130023424	45	6733
2026-01-02 08:32:14.61	102.28	12.74	-29.0	-39.6	6.6	7.32e-01	0	54	0	135266304	35	8706
2026-01-02 08:32:17.64	101.88	12.96	-28.7	-39.5	5.8	1.04e-01	0	54	0	141557760	37	7670
2026-01-02 08:32:20.67	101.49	13.19	-38.0	-41.5	10.2	2.23e-01	0	54	0	146800640	46	5766
2026-01-02 08:32:23.70	101.08	13.42	-39.6	-45.0	8.5	2.15e-01	0	54	0	152043520	48	7693
2026-01-02 08:32:26.73	100.67	13.64	-40.1	-50.3	4.9	9.41e-01	0	55	0	156237824	51	11868
2026-01-02 08:32:29.76	100.25	13.87	-31.2	-44.8	8.5	1.35e-01	0	55	0	161480704	49	7063
2026-01-02 08:32:32.79	99.83	14.10	-40.1	-44.0	11.9	3.64e-02	0	55	0	167772160	51	5777
2026-01-02 08:32:35.82	99.40	14.33	-37.1	-41.0	12.7	1.75e-04	0	55	0	173015040	46	5447
2026-01-02 08:32:38.85	98.96	14.56	-39.8	-42.6	14.7	6.51e-04	0	55	0	179306496	50	5160
2026-01-02 08:32:41.87	98.52	14.79	-39.9	-42.9	14.1	4.50e-06	0	55	0	184549376	51	5082
2026-01-02 08:32:44.90	98.07	15.02	-39.8	-42.5	14.8	0.00e+00	0	55	0	190840832	50	5113
2026-01-02 08:32:47.93	97.61	15.25	-40.2	-43.1	14.2	2.20e-06	0	55	0	196083712	51	5190
2026-01-02 08:32:50.96	97.15	15.48	-39.8	-42.5	14.8	0.00e+00	0	55	0	201326592	51	4846
2026-01-02 08:32:53.99	96.68	15.71	-39.9	-42.6	14.7	2.20e-06	0	55	0	207618048	51	4905
2026-01-02 08:32:57.02	96.20	15.95	-39.8	-42.5	14.8	0.00e+00	0	55	0	212860928	51	4852
2026-01-02 08:33:00.05	95.71	16.18	-40.2	-43.1	14.2	2.20e-06	0	55	0	219152384	51	5217
2026-01-02 08:33:03.08	95.21	16.41	-40.1	-42.9	14.4	0.00e+00	0	55	0	224395264	51	5086
2026-01-02 08:33:06.10	94.71	16.64	-39.9	-42.6	14.8	7.00e-07	0	55	0	229638144	51	4888
2026-01-02 08:33:09.13	94.20	16.87	-39.4	-41.8	15.6	0.00e+00	0	55	0	235929600	50	4716
2026-01-02 08:33:12.16	93.68	17.10	-39.8	-42.4	15.0	0.00e+00	0	55	0	241172480	50	5049
2026-01-02 08:33:15.19	93.16	17.34	-39.6	-42.1	15.3	0.00e+00	0	55	0	247463936	50	4879
2026-01-02 08:33:18.23	92.62	17.57	-39.7	-42.4	15.0	0.00e+00	0	55	0	252706816	50	5044
2026-01-02 08:33:21.25	92.08	17.80	-39.5	-42.0	15.3	0.00e+00	0	55	0	258998272	50	4853
2026-01-02 08:33:24.28	91.53	18.03	-39.8	-42.4	14.8	0.00e+00	0	55	0	264241152	50	5094
2026-01-02 08:33:27.31	90.97	18.26	-40.0	-42.9	14.3	0.00e+00	0	56	0	269484032	50	5391
2026-01-02 08:33:30.34	90.40	18.49	-39.7	-42.5	14.5	0.00e+00	0	55	0	275775488	50	5133
2026-01-02 08:33:33.37	89.82	18.71	-39.6	-42.5	14.3	2.20e-06	0	55	0	281018368	50	5154
2026-01-02 08:33:36.40	89.23	18.94	-39.3	-42.2	14.3	1.50e-06	0	56	0	287309824	50	4971
2026-01-02 08:33:39.42	88.64	19.17	-39.4	-42.4	13.9	2.20e-06	0	55	0	292552704	50	5094
2026-01-02 08:33:42.45	88.03	19.39	-39.5	-42.7	13.5	8.30e-06	0	56	0	297795584	50	5265
2026-01-02 08:33:45.48	87.42	19.61	-39.0	-42.1	14.0	3.80e-06	0	56	0	304087040	49	5170
2026-01-02 08:33:48.51	86.80	19.84	-38.8	-41.7	14.2	3.00e-06	0	56	0	309329920	49	4960
2026-01-02 08:33:51.54	86.17	20.06	-38.5	-41.3	14.6	0.00e+00	0	56	0	315621376	48	5033
2026-01-02 08:33:54.57	85.53	20.27	-38.7	-41.4	14.7	0.00e+00	0	55	0	320864256	48	5073
2026-01-02 08:33:57.60	84.88	20.49	-38.8	-41.4	15.0	0.00e+00	0	55	0	327155712	48	5099
2026-01-02 08:34:00.63	84.22	20.71	-38.6	-41.0	15.7	0.00e+00	0	56	0	332398592	48	4844
2026-01-02 08:34:03.65	83.55	20.92	-38.6	-41.0	15.9	0.00e+00	0	56	0	337641472	48	4826
2026-01-02 08:34:06.68	82.88	21.13	-38.4	-40.6	16.6	0.00e+00	0	56	0	343932928	48	4601
2026-01-02 08:34:09.71	82.19	21.33	-38.2	-40.2	17.0	0.00e+00	0	56	0	349175808	48	4439
2026-01-02 08:34:12.74	81.49	21.54	-38.2	-40.2	17.0	0.00e+00	0	56	0	355467264	48	4430
2026-01-02 08:34:15.77	80.79	21.74	-37.7	-39.9	17.1	0.00e+00	0	56	0	360710144	47	4519
2026-01-02 08:34:18.79	80.08	21.94	-37.6	-39.7	17.3	0.00e+00	0	55	0	365953024	47	4414
2026-01-02 08:34:21.82	79.35	22.13	-37.7	-39.8	17.3	0.00e+00	0	56	0	372244480	47	4467
2026-01-02 08:34:24.85	78.62	22.32	-37.6	-39.7	17.4	0.00e+00	0	56	0	377487360	47	4405
2026-01-02 08:34:27.88	77.88	22.51	-37.6	-39.7	17.4	0.00e+00	0	56	0	383778816	47	4416
2026-01-02 08:34:30.91	77.13	22.70	-37.5	-39.5	17.6	0.00e+00	0	56	0	389021696	46	4565
2026-01-02 08:34:33.94	76.37	22.88	-37.6	-39.6	17.5	0.00e+00	0	56	0	394264576	46	4639
2026-01-02 08:34:36.97	75.60	23.05	-37.8	-39.9	17.3	0.00e+00	0	56	0	400556032	46	4790
2026-01-02 08:34:40.00	74.83	23.22	-37.8	-39.9	17.2	0.00e+00	0	56	0	405798912	46	4812
2026-01-02 08:34:43.02	74.04	23.39	-38.0	-40.1	17.1	0.00e+00	0	56	0	412090368	46	4885
2026-01-02 08:34:46.05	73.25	23.55	-37.8	-39.9	17.4	0.00e+00	0	56	0	417333248	46	4772
2026-01-02 08:34:49.09	72.44	23.71	-37.7	-39.7	17.5	0.00e+00	0	56	0	423624704	46	4702
2026-01-02 08:34:52.11	71.64	23.86	-37.6	-39.6	17.6	0.00e+00	0	56	0	428867584	46	4650
2026-01-02 08:34:55.14	70.82	24.01	-37.2	-39.0	18.2	0.00e+00	0	56	0	434110464	46	4315
2026-01-02 08:34:58.17	70.00	24.15	-37.5	-39.4	18.0	0.00e+00	0	56	0	440401920	46	4522
2026-01-02 08:35:01.20	69.16	24.28	-37.9	-39.9	17.4	0.00e+00	0	56	0	445644800	46	4783
2026-01-02 08:35:04.23	68.33	24.41	-38.6	-40.9	16.5	0.00e+00	0	56	0	451936256	47	5058
2026-01-02 08:35:07.25	67.48	24.53	-39.7	-42.5	15.0	0.00e+00	0	56	0	457179136	50	5150
2026-01-02 08:35:10.28	66.63	24.65	-39.3	-41.8	15.7	0.00e+00	0	56	0	462422016	50	4728
2026-01-02 08:35:13.31	65.77	24.76	-39.0	-41.4	16.1	0.00e+00	0	56	0	468713472	49	4795
2026-01-02 08:35:16.34	64.91	24.87	-39.2	-41.7	15.7	0.00e+00	0	56	0	473956352	49	4980
2026-01-02 08:35:19.36	64.04	24.96	-39.0	-41.5	16.0	0.00e+00	0	56	0	480247808	49	4862
2026-01-02 08:35:22.39	63.17	25.05	-38.9	-41.3	16.2	0.00e+00	0	56	0	485490688	49	4725
2026-01-02 08:35:25.43	62.28	25.14	-39.5	-42.3	15.2	0.00e+00	0	56	0	491782144	49	5314
2026-01-02 08:35:28.46	61.40	25.21	-39.3	-41.9	15.6	0.00e+00	0	56	0	497025024	49	5079
2026-01-02 08:35:31.48	60.51	25.28	-39.3	-42.1	15.5	0.00e+00	0	56	0	502267904	49	5161
2026-01-02 08:35:34.51	59.62	25.34	-39.0	-41.5	16.0	0.00e+00	0	56	0	508559360	49	4826
2026-01-02 08:35:37.54	58.73	25.39	-39.6	-42.4	15.1	0.00e+00	0	56	0	513802240	49	5350
2026-01-02 08:35:40.57	57.83	25.44	-39.6	-42.5	15.1	0.00e+00	0	56	0	520093696	49	5417
2026-01-02 08:35:43.60	56.93	25.48	-39.1	-41.6	15.9	7.00e-07	0	56	0	525336576	49	4884
2026-01-02 08:35:46.63	56.03	25.51	-38.6	-40.9	16.6	0.00e+00	0	56	0	530579456	49	4523
2026-01-02 08:35:49.66	55.12	25.53	-39.1	-41.6	16.0	0.00e+00	0	56	0	536870912	49	4880
2026-01-02 08:35:52.69	54.22	25.55	-39.6	-42.5	15.0	0.00e+00	0	56	0	542113792	49	5417
2026-01-02 08:35:55.72	53.31	25.56	-39.5	-42.3	15.2	0.00e+00	0	56	0	548405248	50	5017
2026-01-02 08:35:58.75	52.41	25.56	-39.1	-41.6	16.0	0.00e+00	0	56	0	553648128	50	4627
2026-01-02 08:36:01.77	51.51	25.55	-37.8	-39.9	17.5	0.00e+00	0	56	0	559939584	47	4516
2026-01-02 08:36:04.79	50.61	25.53	-38.0	-40.1	17.3	0.00e+00	0	56	0	565182464	47	4641
2026-01-02 08:36:07.82	49.70	25.51	-37.8	-39.8	17.6	0.00e+00	0	56	0	570425344	47	4487
2026-01-02 08:36:10.85	48.80	25.48	-37.6	-39.5	17.9	0.00e+00	0	56	0	576716800	47	4316
2026-01-02 08:36:13.88	47.90	25.44	-37.0	-38.8	18.7	0.00e+00	0	56	0	581959680	46	4207
2026-01-02 08:36:16.90	47.01	25.39	-37.3	-39.2	18.3	0.00e+00	0	57	0	588251136	46	4395
2026-01-02 08:36:19.93	46.11	25.34	-37.1	-38.9	18.6	0.00e+00	0	57	0	593494016	45	4513
2026-01-02 08:36:22.96	45.22	25.28	-37.9	-39.8	17.8	0.00e+00	0	56	0	598736896	46	4739
2026-01-02 08:36:25.99	44.34	25.21	-37.8	-39.8	17.8	0.00e+00	0	56	0	605028352	46	4723
2026-01-02 08:36:29.02	43.45	25.13	-37.8	-39.6	17.9	0.00e+00	0	56	0	610271232	46	4648
2026-01-02 08:36:32.05	42.58	25.05	-38.2	-40.2	17.4	0.00e+00	0	56	0	616562688	47	4699
2026-01-02 08:36:35.08	41.70	24.96	-38.6	-40.7	16.9	0.00e+00	0	56	0	621805568	47	4973
2026-01-02 08:36:38.10	40.84	24.86	-39.3	-41.6	16.0	0.00e+00	0	56	0	628097024	49	4925
2026-01-02 08:36:41.13	39.98	24.76	-38.6	-40.7	16.9	0.00e+00	0	56	0	633339904	49	4431
2026-01-02 08:36:44.16	39.12	24.65	-39.0	-41.3	16.5	0.00e+00	0	56	0	638582784	49	4708
2026-01-02 08:36:47.19	38.27	24.53	-39.3	-41.8	15.9	0.00e+00	0	57	0	644874240	49	4995
2026-01-02 08:36:50.22	37.43	24.40	-39.1	-41.4	16.2	0.00e+00	0	56	0	650117120	49	4813
2026-01-02 08:36:53.25	36.59	24.28	-39.6	-42.2	15.5	0.00e+00	0	56	0	656408576	49	5279
2026-01-02 08:36:56.27	35.76	24.14	-39.3	-41.8	15.9	0.00e+00	0	56	0	661651456	49	4991
2026-01-02 08:36:59.30	34.94	24.00	-39.2	-41.6	16.0	0.00e+00	0	57	0	666894336	49	4910
2026-01-02 08:37:02.33	34.13	23.85	-39.4	-42.0	15.6	0.00e+00	0	57	0	673185792	49	5151
2026-01-02 08:37:05.36	33.32	23.70	-39.2	-41.8	15.9	0.00e+00	0	57	0	678428672	49	4984
2026-01-02 08:37:08.39	32.52	23.54	-39.0	-41.4	16.2	0.00e+00	0	57	0	684720128	49	4790
2026-01-02 08:37:11.42	31.73	23.38	-39.2	-41.8	15.9	0.00e+00	0	56	0	689963008	49	4997
2026-01-02 08:37:14.45	30.95	23.22	-39.8	-42.6	15.1	0.00e+00	0	57	0	696254464	50	5192
2026-01-02 08:37:17.48	30.17	23.05	-39.4	-42.1	15.5	0.00e+00	0	56	0	701497344	50	4899
2026-01-02 08:37:20.51	29.41	22.87	-39.1	-41.6	16.0	0.00e+00	0	57	0	706740224	49	4884
2026-01-02 08:37:23.54	28.65	22.69	-39.8	-42.7	14.8	7.60e-06	0	57	0	713031680	50	5268
2026-01-02 08:37:26.57	27.91	22.51	-39.6	-42.4	15.2	0.00e+00	0	56	0	718274560	50	5079
2026-01-02 08:37:29.60	27.17	22.32	-38.6	-40.9	16.6	2.20e-06	0	57	0	724566016	49	4506
2026-01-02 08:37:32.63	26.44	22.13	-38.3	-40.4	17.1	0.00e+00	0	57	0	729808896	48	4535
2026-01-02 08:37:35.66	25.72	21.93	-38.9	-41.5	16.0	4.95e-05	0	57	0	735051776	48	5120
2026-01-02 08:37:38.69	25.01	21.73	-39.0	-41.6	15.9	7.00e-07	0	57	0	741343232	48	5183
2026-01-02 08:37:41.72	24.31	21.53	-38.1	-40.2	17.4	0.00e+00	0	57	0	746586112	48	4422
2026-01-02 08:37:44.75	23.61	21.33	-37.8	-39.9	17.6	0.00e+00	0	56	0	752877568	47	4513
2026-01-02 08:37:47.77	22.93	21.12	-38.2	-40.5	17.0	0.00e+00	0	56	0	758120448	47	4834
2026-01-02 08:37:50.80	22.26	20.91	-38.4	-40.7	16.8	0.00e+00	0	56	0	764411904	47	4956
2026-01-02 08:37:53.83	21.59	20.70	-38.4	-40.7	16.7	0.00e+00	0	57	0	769654784	47	4949
2026-01-02 08:37:56.86	20.94	20.49	-37.8	-40.0	17.4	0.00e+00	0	57	0	774897664	47	4577
2026-01-02 08:37:59.89	20.29	20.27	-38.2	-40.5	16.9	0.00e+00	0	56	0	781189120	47	4848
2026-01-02 08:38:02.92	19.66	20.06	-38.2	-40.5	16.9	0.00e+00	0	57	0	786432000	47	4837
2026-01-02 08:38:05.95	19.03	19.84	-38.5	-41.0	16.5	0.00e+00	0	57	0	792723456	47	5103
2026-01-02 08:38:08.98	18.41	19.62	-38.5	-40.8	16.5	0.00e+00	0	57	0	797966336	47	5041
2026-01-02 08:38:12.01	17.80	19.39	-38.1	-40.3	17.1	0.00e+00	0	57	0	803209216	47	4713
2026-01-02 08:38:15.04	17.20	19.17	-38.5	-40.9	16.5	0.00e+00	0	57	0	809500672	47	5076
2026-01-02 08:38:18.07	16.61	18.94	-38.1	-40.1	17.4	0.00e+00	0	57	0	814743552	48	4382
2026-01-02 08:38:21.10	16.02	18.72	-37.6	-39.6	17.8	0.00e+00	0	56	0	821035008	47	4371
2026-01-02 08:38:24.13	15.45	18.49	-37.9	-39.9	17.6	0.00e+00	0	57	0	826277888	47	4506
2026-01-02 08:38:27.16	14.89	18.26	-38.0	-40.1	17.4	0.00e+00	0	56	0	832569344	47	4621
2026-01-02 08:38:30.19	14.33	18.03	-38.2	-40.4	17.1	0.00e+00	0	57	0	837812224	47	4774
2026-01-02 08:38:33.22	13.78	17.80	-37.7	-39.6	17.8	0.00e+00	0	57	0	843055104	47	4374
2026-01-02 08:38:36.25	13.24	17.57	-37.6	-39.6	17.9	0.00e+00	0	57	0	849346560	47	4356
2026-01-02 08:38:39.28	12.71	17.34	-38.0	-40.0	17.4	0.00e+00	0	57	0	854589440	47	4590
2026-01-02 08:38:42.31	12.19	17.11	-38.2	-40.3	17.1	0.00e+00	0	57	0	860880896	47	4722
2026-01-02 08:38:45.33	11.67	16.88	-38.1	-40.2	17.2	0.00e+00	0	57	0	866123776	47	4661
2026-01-02 08:38:48.36	11.16	16.65	-37.6	-39.5	17.9	0.00e+00	0	57	0	871366656	47	4327
2026-01-02 08:38:51.39	10.67	16.42	-37.8	-39.7	17.7	0.00e+00	0	56	0	877658112	46	4702
2026-01-02 08:38:54.42	10.17	16.19	-38.6	-40.9	16.5	0.00e+00	0	56	0	882900992	47	5044
2026-01-02 08:38:57.45	9.69	15.96	-38.6	-40.9	16.6	0.00e+00	0	57	0	889192448	48	4787
2026-01-02 08:39:00.48	9.21	15.73	-38.1	-40.1	17.2	0.00e+00	0	57	0	894435328	48	4388
2026-01-02 08:39:03.51	8.74	15.50	-38.1	-40.2	17.0	0.00e+00	0	57	0	900726784	47	4686
2026-01-02 08:39:06.54	8.28	15.27	-38.0	-40.2	17.1	0.00e+00	0	56	0	905969664	47	4657
2026-01-02 08:39:09.57	7.83	15.04	-38.5	-40.8	16.4	0.00e+00	0	57	0	911212544	47	5025
2026-01-02 08:39:12.60	7.38	14.81	-39.2	-41.8	15.5	0.00e+00	0	57	0	917504000	49	4998
2026-01-02 08:39:15.63	6.94	14.58	-39.2	-41.8	15.5	0.00e+00	0	57	0	922746880	49	4999
2026-01-02 08:39:18.66	6.51	14.35	-38.4	-40.6	16.6	0.00e+00	0	57	0	929038336	48	4618
2026-01-02 08:39:21.69	6.08	14.12	-38.2	-40.4	16.7	0.00e+00	0	56	0	934281216	47	4785
2026-01-02 08:39:24.72	5.66	13.89	-38.2	-40.5	16.5	0.00e+00	0	57	0	939524096	47	4836
2026-01-02 08:39:27.75	5.25	13.67	-38.4	-40.8	16.2	0.00e+00	0	57	0	945815552	47	4997
2026-01-02 08:39:30.78	4.84	13.44	-38.0	-40.2	16.5	0.00e+00	0	57	0	951058432	47	4697
2026-01-02 08:39:33.81	4.44	13.21	-39.1	-42.1	14.2	0.00e+00	0	57	0	957349888	48	5514
2026-01-02 08:39:36.83	4.05	12.99	-40.2	-45.5	9.7	3.10e-03	0	57	0	962592768	50	7258
2026-01-02 08:39:39.86	3.66	12.77	-40.6	-50.5	4.8	5.57e-01	0	57	0	968884224	51	12127
2026-01-02 08:39:42.89	3.28	12.54	-40.2	-53.4	3.8	1.49e+00	0	57	104	969932800	51	16958
2026-01-02 08:39:45.92	2.90	12.32	-39.9	-53.6	3.8	1.49e+00	0	57	104	969932800	51	17407
2026-01-02 08:39:48.95	2.53	12.10	-40.2	-54.4	3.8	1.49e+00	0	57	104	969932800	51	19084
2026-01-02 08:39:51.98	2.17	11.88	-39.7	-54.5	3.8	1.49e+00	0	57	104	969932800	51	19303
2026-01-02 08:39:55.01	1.81	11.66	-39.8	-54.5	3.8	1.49e+00	0	57	104	969932800	51	19194
2026-01-02 08:39:58.04	1.45	11.44	-39.6	-54.2	3.8	1.49e+00	0	57	104	969932800	51	18591
2026-01-02 08:40:01.07	1.11	11.22	-39.6	-54.2	3.8	1.49e+00	0	57	104	969932800	51	18721
2026-01-02 08:40:04.10	0.76	11.00	-39.6	-54.2	3.8	1.49e+00	0	57	104	969932800	51	18669
2026-01-02 08:40:07.13	0.43	10.78	-39.3	-54.2	3.8	1.49e+00	0	57	104	969932800	50	19715
2026-01-02 08:40:10.16	0.09	10.57	-39.6	-54.3	3.8	1.49e+00	0	57	104	969932800	50	19855
2026-01-02 08:40:13.19	359.76	10.35	-39.3	-54.2	3.8	1.49e+00	0	57	104	969932800	50	19743
2026-01-02 08:40:16.22	359.44	10.14	-39.4	-54.2	3.8	1.49e+00	0	57	104	969932800	50	19709
2026-01-02 08:40:19.25	359.12	9.93	-39.3	-54.1	3.8	1.49e+00	0	57	104	969932800	50	19569
2026-01-02 08:40:22.28	358.81	9.71	-39.1	-54.3	3.8	1.49e+00	0	57	104	969932800	50	19865
2026-01-02 08:40:25.31	358.50	9.50	-38.3	-54.1	3.8	1.49e+00	0	57	104	969932800	48	21829
2026-01-02 08:40:28.34	358.20	9.29	-38.4	-54.1	3.8	1.49e+00	0	57	104	969932800	48	21891
2026-01-02 08:40:31.37	357.90	9.08	-38.2	-54.0	3.8	1.49e+00	0	57	104	969932800	47	22920
2026-01-02 08:40:34.40	357.60	8.88	-38.1	-54.0	3.8	1.49e+00	0	57	104	969932800	47	22974
2026-01-02 08:40:37.43	357.31	8.67	-38.5	-54.0	3.8	1.49e+00	0	57	104	969932800	47	22991
2026-01-02 08:40:40.46	357.03	8.46	-38.4	-53.9	3.8	1.49e+00	0	57	104	969932800	47	22755
2026-01-02 08:40:43.49	356.75	8.26	-38.6	-54.0	3.8	1.49e+00	0	57	104	969932800	48	21691
2026-01-02 08:40:46.52	356.47	8.05	-38.9	-54.1	3.8	1.49e+00	0	57	104	969932800	48	21818
2026-01-02 08:40:49.55	356.19	7.85	-44.5	-58.8	3.8	1.49e+00	0	57	104	969932800	59	19893
2026-01-02 08:40:52.58	355.92	7.65	-44.9	-59.5	3.8	1.49e+00	0	57	104	969932800	60	20486
2026-01-02 08:40:55.62	355.66	7.45	-45.1	-59.6	3.8	1.49e+00	0	57	104	969932800	60	20728
2026-01-02 08:40:58.65	355.39	7.25	-44.4	-59.6	3.8	1.49e+00	0	57	104	969932800	60	20587
2026-01-02 08:41:01.69	355.13	7.05	-44.9	-59.4	3.8	1.49e+00	0	57	104	969932800	60	20253
2026-01-02 08:41:04.72	354.88	6.85	-44.8	-59.3	3.8	1.49e+00	0	57	104	969932800	60	20035
2026-01-02 08:41:07.75	354.63	6.65	-44.8	-59.4	3.8	1.49e+00	0	57	104	969932800	60	20077
2026-01-02 08:41:10.78	354.38	6.46	-44.8	-59.3	3.8	1.49e+00	0	57	104	969932800	60	19999
2026-01-02 08:41:13.82	354.13	6.26	-44.8	-59.3	3.8	1.49e+00	0	57	104	969932800	60	19901
2026-01-02 08:41:16.85	353.89	6.07	-44.8	-59.3	3.8	1.49e+00	0	57	104	969932800	60	19936
2026-01-02 08:41:19.88	353.66	5.87	-44.6	-59.3	3.8	1.49e+00	0	57	104	969932800	60	19868
2026-01-02 08:41:22.92	353.42	5.68	-44.6	-59.1	3.8	1.49e+00	0	57	104	969932800	60	19578
2026-01-02 08:41:25.95	353.19	5.49	-44.5	-59.1	3.9	1.49e+00	0	57	104	969932800	60	19488
2026-01-02 08:41:28.99	352.96	5.30	-44.7	-59.3	3.8	1.49e+00	0	57	104	969932800	60	19883
2026-01-02 08:41:32.02	352.74	5.11	-44.6	-59.2	3.8	1.49e+00	0	57	104	969932800	60	19782
2026-01-02 08:41:35.05	352.51	4.92	-44.7	-59.3	3.8	1.49e+00	0	57	104	969932800	60	19861
2026-01-02 08:41:38.09	352.29	4.73	-43.8	-59.2	3.8	1.49e+00	0	57	104	969932800	60	19709
2026-01-02 08:41:41.12	352.08	4.54	-44.7	-59.3	3.8	1.49e+00	0	57	104	969932800	60	19845
2026-01-02 08:41:44.15	351.87	4.36	-44.6	-59.2	3.8	1.49e+00	0	57	104	969932800	60	19624
2026-01-02 08:41:47.18	351.65	4.17	-44.7	-59.2	3.8	1.49e+00	0	57	104	969932800	60	19817
2026-01-02 08:41:50.22	351.45	3.99	-44.7	-59.2	3.8	1.49e+00	0	57	104	969932800	60	19838
2026-01-02 08:41:53.25	351.24	3.81	-44.7	-59.2	3.8	1.49e+00	0	57	104	969932800	60	19832
2026-01-02 08:41:56.28	351.04	3.62	-44.7	-59.2	3.8	1.49e+00	0	57	104	969932800	60	19830
2026-01-02 08:41:59.32	350.84	3.44	-44.7	-59.2	3.8	1.49e+00	0	57	104	969932800	60	19838
2026-01-02 08:42:02.35	350.64	3.26	-44.7	-59.2	3.8	1.49e+00	0	57	104	969932800	60	19823
2026-01-02 08:42:05.38	350.45	3.08	-44.7	-59.2	3.8	1.49e+00	0	57	104	969932800	60	19818
2026-01-02 08:42:08.42	350.26	2.90	-44.7	-59.2	3.8	1.49e+00	0	57	104	969932800	60	19802
2026-01-02 08:42:11.45	350.07	2.72	-44.7	-59.3	3.8	1.49e+00	0	57	104	969932800	60	19905
2026-01-02 08:42:14.48	349.88	2.55	-44.7	-59.3	3.8	1.49e+00	0	57	104	969932800	60	19858
2026-01-02 08:42:17.51	349.70	2.37	-44.7	-59.2	3.8	1.49e+00	0	57	104	969932800	60	19771
2026-01-02 08:42:20.55	349.51	2.19	-44.7	-59.2	3.8	1.49e+00	0	57	104	969932800	60	19832
2026-01-02 08:42:23.58	349.33	2.02	-44.7	-59.3	3.8	1.49e+00	0	57	104	969932800	60	19875

#Closed at: 2026-01-02 08:42:24
#Recorded file [969 MB]: D:/lorett/data/31039_260102_112933.dat