passes_logs/2026/01/02/R2.0S_Moscow/R2.0S_Moscow__20260102_015837_SUOMI_NPP_rec.log

#Pass ID: 20260102_015837_SUOMI NPP
#Satellite: SUOMI NPP
#Configuration: NPP
#almurnet v.1.7.20251203
#Start time: 2026-01-02 01:58:38

#Version: 2.2.20231116
#Station: R2.0S_Moscow
#Location: 37.707566 lon 55.798166 lat
#TLE: 1 37849U 11061A   26001.07732418  .00000182  00000+0  10735-3 0  9990
#TLE: 2 37849  98.7795 303.2470 0002580  87.2016 272.9455 14.19520779734739

#Time	Az	El	Level	Level2	SNR	BER	BlckErr	Temp	State	Recorded	gain1	gain2
2026-01-02 01:58:38.72	8.62	2.09	-38.3	-54.0	3.8	1.49e+00	0	47	0	0	48	21572
2026-01-02 01:58:41.75	8.36	2.24	-38.1	-53.9	3.8	1.49e+00	0	48	104	0	46	24039
2026-01-02 01:58:44.78	8.11	2.39	-38.2	-53.9	3.8	1.49e+00	0	48	104	0	46	24121
2026-01-02 01:58:47.81	7.85	2.55	-38.1	-53.9	3.8	1.49e+00	0	48	104	0	46	24002
2026-01-02 01:58:50.85	7.58	2.70	-38.2	-53.9	3.8	1.49e+00	0	48	104	0	46	24085
2026-01-02 01:58:53.88	7.31	2.85	-38.1	-53.9	3.8	1.49e+00	0	49	104	0	46	24018
2026-01-02 01:58:56.91	7.04	3.01	-38.3	-53.9	3.8	1.49e+00	0	49	104	0	47	22683
2026-01-02 01:58:59.94	6.77	3.16	-38.3	-53.9	3.8	1.49e+00	0	49	104	0	47	22649
2026-01-02 01:59:02.98	6.49	3.32	-38.2	-53.9	3.8	1.49e+00	0	49	104	0	47	22626
2026-01-02 01:59:06.01	6.21	3.48	-38.3	-53.9	3.8	1.49e+00	0	49	104	0	47	22656
2026-01-02 01:59:09.04	5.93	3.63	-38.2	-53.9	3.8	1.49e+00	0	50	104	0	47	22670
2026-01-02 01:59:12.07	5.65	3.79	-38.2	-53.9	3.8	1.49e+00	0	50	104	0	47	22652
2026-01-02 01:59:15.11	5.36	3.94	-38.2	-53.9	3.8	1.49e+00	0	50	104	0	47	22677
2026-01-02 01:59:18.14	5.07	4.10	-38.3	-53.9	3.8	1.49e+00	0	50	104	0	47	22718
2026-01-02 01:59:21.17	4.77	4.26	-38.3	-53.9	3.8	1.49e+00	0	50	104	0	47	22636
2026-01-02 01:59:24.20	4.47	4.41	-38.3	-53.9	3.8	1.49e+00	0	50	104	0	47	22714
2026-01-02 01:59:27.24	4.17	4.57	-38.2	-53.9	3.8	1.49e+00	0	50	104	0	47	22717
2026-01-02 01:59:30.27	3.86	4.73	-38.2	-53.9	3.8	1.49e+00	0	51	104	0	47	22680
2026-01-02 01:59:33.30	3.56	4.88	-38.3	-53.9	3.8	1.49e+00	0	51	104	0	47	22623
2026-01-02 01:59:36.33	3.24	5.04	-38.3	-53.9	3.8	1.49e+00	0	51	104	0	47	22649
2026-01-02 01:59:39.37	2.93	5.20	-38.2	-53.9	3.8	1.49e+00	0	51	104	0	47	22680
2026-01-02 01:59:42.40	2.61	5.36	-38.1	-53.9	3.8	1.49e+00	0	51	104	0	47	22614
2026-01-02 01:59:45.43	2.29	5.51	-38.1	-53.9	3.8	1.49e+00	0	51	104	0	47	22628
2026-01-02 01:59:48.47	1.96	5.67	-38.2	-53.9	3.8	1.49e+00	0	52	104	0	47	22647
2026-01-02 01:59:51.50	1.63	5.83	-38.3	-53.9	3.8	1.49e+00	0	52	104	0	47	22661
2026-01-02 01:59:54.53	1.30	5.99	-38.2	-53.9	3.8	1.49e+00	0	52	104	0	47	22637
2026-01-02 01:59:57.56	0.96	6.14	-38.2	-53.9	3.8	1.49e+00	0	52	104	0	47	22664
2026-01-02 02:00:00.60	0.62	6.30	-38.3	-53.9	3.8	1.49e+00	0	52	104	0	47	22689
2026-01-02 02:00:03.63	0.27	6.46	-38.3	-53.9	3.8	1.49e+00	0	52	104	0	47	22651
2026-01-02 02:00:06.67	359.92	6.62	-38.2	-53.9	3.8	1.49e+00	0	52	104	0	47	22612
2026-01-02 02:00:09.70	359.57	6.78	-38.2	-53.9	3.8	1.49e+00	0	52	104	0	47	22655
2026-01-02 02:00:12.73	359.21	6.93	-38.2	-53.9	3.8	1.49e+00	0	53	104	0	47	22645
2026-01-02 02:00:15.76	358.85	7.09	-38.2	-53.9	3.8	1.49e+00	0	53	104	0	47	22687
2026-01-02 02:00:18.80	358.49	7.25	-38.2	-53.9	3.8	1.49e+00	0	53	104	0	47	22669
2026-01-02 02:00:21.83	358.12	7.41	-38.2	-53.9	3.8	1.49e+00	0	53	104	0	47	22656
2026-01-02 02:00:24.86	357.74	7.56	-38.2	-53.9	3.8	1.49e+00	0	53	104	0	47	22637
2026-01-02 02:00:27.89	357.37	7.72	-38.2	-53.9	3.8	1.49e+00	0	53	104	0	47	22646
2026-01-02 02:00:30.93	356.98	7.88	-38.2	-53.9	3.8	1.49e+00	0	53	104	0	47	22664
2026-01-02 02:00:33.96	356.60	8.03	-38.2	-53.9	3.8	1.49e+00	0	53	104	0	47	22739
2026-01-02 02:00:36.99	356.21	8.19	-39.1	-54.2	3.8	1.49e+00	0	53	104	0	48	22070
2026-01-02 02:00:40.02	355.81	8.35	-39.8	-54.4	3.8	1.49e+00	0	53	104	0	50	20271
2026-01-02 02:00:43.05	355.42	8.50	-39.5	-54.2	3.8	1.49e+00	0	53	104	0	49	20997
2026-01-02 02:00:46.09	355.01	8.66	-39.8	-54.4	3.8	1.49e+00	0	53	104	0	50	20152
2026-01-02 02:00:49.12	354.60	8.81	-39.7	-54.4	3.8	1.49e+00	0	53	104	0	50	20221
2026-01-02 02:00:52.14	354.19	8.97	-39.5	-54.2	3.8	1.49e+00	0	54	104	0	50	19718
2026-01-02 02:00:55.18	353.78	9.12	-39.7	-54.3	3.8	1.49e+00	0	54	104	0	50	20069
2026-01-02 02:00:58.20	353.36	9.27	-39.6	-54.3	3.8	1.49e+00	0	54	104	0	50	19984
2026-01-02 02:01:01.23	352.93	9.42	-40.2	-54.8	3.8	1.49e+00	0	54	104	0	50	21121
2026-01-02 02:01:04.25	352.50	9.58	-40.2	-54.8	3.8	1.49e+00	0	54	104	0	51	20040
2026-01-02 02:01:07.29	352.07	9.73	-40.2	-54.7	3.8	1.49e+00	0	54	104	0	51	19836
2026-01-02 02:01:10.32	351.63	9.88	-40.2	-54.8	3.8	1.49e+00	0	54	104	0	51	20049
2026-01-02 02:01:13.35	351.19	10.03	-40.1	-54.7	3.8	1.49e+00	0	54	104	0	51	19711
2026-01-02 02:01:16.38	350.74	10.18	-40.0	-54.7	3.8	1.49e+00	0	54	104	0	51	19634
2026-01-02 02:01:19.41	350.28	10.33	-40.3	-54.9	3.8	1.49e+00	0	54	104	0	51	20263
2026-01-02 02:01:22.43	349.83	10.47	-40.0	-54.7	3.8	1.49e+00	0	54	104	0	51	19638
2026-01-02 02:01:25.46	349.36	10.62	-40.5	-55.1	3.8	1.49e+00	0	54	104	0	51	20727
2026-01-02 02:01:28.49	348.90	10.76	-40.0	-54.6	3.8	1.49e+00	0	55	104	0	51	19608
2026-01-02 02:01:31.52	348.43	10.91	-40.2	-54.8	3.8	1.49e+00	0	55	104	0	51	20040
2026-01-02 02:01:34.55	347.95	11.05	-40.7	-55.3	3.8	1.49e+00	0	55	104	0	52	19914
2026-01-02 02:01:37.58	347.47	11.20	-40.7	-55.3	3.8	1.49e+00	0	55	104	0	52	20013
2026-01-02 02:01:40.60	346.98	11.34	-40.7	-55.3	3.8	1.49e+00	0	55	104	0	52	19937
2026-01-02 02:01:43.63	346.49	11.48	-40.7	-55.4	3.8	1.49e+00	0	55	104	0	52	20145
2026-01-02 02:01:46.66	346.00	11.61	-40.6	-55.3	3.8	1.49e+00	0	55	104	0	52	20038
2026-01-02 02:01:49.70	345.49	11.75	-40.2	-55.1	3.8	1.49e+00	0	55	104	0	52	19417
2026-01-02 02:01:52.73	344.99	11.89	-40.3	-54.9	3.8	1.49e+00	0	55	104	0	51	20270
2026-01-02 02:01:55.76	344.48	12.02	-40.5	-55.1	3.8	1.49e+00	0	55	104	0	51	20764
2026-01-02 02:01:58.79	343.96	12.16	-40.4	-55.0	3.8	1.49e+00	0	55	104	0	51	20517
2026-01-02 02:02:01.82	343.44	12.29	-40.3	-55.0	3.8	1.49e+00	0	55	104	0	51	20384
2026-01-02 02:02:04.85	342.92	12.42	-40.3	-54.9	3.8	1.49e+00	0	55	104	0	51	20257
2026-01-02 02:02:07.88	342.39	12.55	-40.5	-55.1	3.8	1.49e+00	0	55	104	0	51	20642
2026-01-02 02:02:10.91	341.85	12.67	-40.3	-54.9	3.8	1.49e+00	0	55	104	0	51	20192
2026-01-02 02:02:13.95	341.31	12.80	-39.8	-54.6	3.8	1.49e+00	0	55	104	0	51	19533
2026-01-02 02:02:16.98	340.77	12.92	-39.9	-54.6	3.8	1.49e+00	0	55	104	0	51	19414
2026-01-02 02:02:20.01	340.22	13.04	-40.4	-53.3	3.8	1.49e+00	0	55	104	0	51	16783
2026-01-02 02:02:23.04	339.67	13.16	-41.9	-54.9	3.8	1.28e+00	0	55	104	0	54	16899
2026-01-02 02:02:26.07	339.11	13.28	-41.7	-47.7	8.4	6.88e-02	0	55	0	3145728	53	7892
2026-01-02 02:02:29.10	338.55	13.39	-40.4	-44.2	12.7	3.45e-04	0	56	0	9437184	52	5533
2026-01-02 02:02:32.13	337.99	13.50	-39.9	-43.0	14.0	3.00e-06	0	55	0	14680064	51	5153
2026-01-02 02:02:35.16	337.42	13.61	-39.9	-43.1	14.1	7.00e-07	0	55	0	20971520	51	5176
2026-01-02 02:02:38.19	336.84	13.72	-39.4	-42.1	15.0	0.00e+00	0	56	0	26214400	50	4921
2026-01-02 02:02:41.21	336.27	13.82	-39.3	-41.9	15.3	0.00e+00	0	55	0	31457280	50	4802
2026-01-02 02:02:44.24	335.68	13.93	-39.0	-41.5	15.6	0.00e+00	0	55	0	37748736	50	4584
2026-01-02 02:02:47.27	335.10	14.03	-38.8	-41.2	16.0	0.00e+00	0	56	0	42991616	49	4681
2026-01-02 02:02:50.30	334.51	14.12	-38.9	-41.5	15.7	0.00e+00	0	55	0	49283072	49	4838
2026-01-02 02:02:53.32	333.91	14.22	-39.0	-41.6	15.7	0.00e+00	0	56	0	54525952	49	4914
2026-01-02 02:02:56.35	333.31	14.31	-38.9	-41.4	15.8	0.00e+00	0	56	0	60817408	49	4811
2026-01-02 02:02:59.38	332.71	14.40	-39.1	-41.7	15.7	0.00e+00	0	56	0	66060288	49	4933
2026-01-02 02:03:02.41	332.11	14.49	-38.6	-41.0	16.3	0.00e+00	0	56	0	71303168	49	4552
2026-01-02 02:03:05.44	331.50	14.57	-37.7	-39.8	17.4	0.00e+00	0	56	0	77594624	47	4453
2026-01-02 02:03:08.47	330.88	14.65	-37.8	-39.9	17.4	0.00e+00	0	56	0	82837504	47	4516
2026-01-02 02:03:11.50	330.27	14.73	-38.6	-40.9	16.4	0.00e+00	0	56	0	89128960	47	5066
2026-01-02 02:03:14.53	329.65	14.80	-38.6	-40.9	16.4	0.00e+00	0	56	0	94371840	48	4807
2026-01-02 02:03:17.56	329.03	14.87	-38.3	-40.4	17.0	0.00e+00	0	56	0	99614720	48	4528
2026-01-02 02:03:20.59	328.40	14.94	-39.1	-41.6	15.8	0.00e+00	0	56	0	105906176	48	5161
2026-01-02 02:03:23.62	327.77	15.01	-39.4	-42.1	15.4	0.00e+00	0	56	0	111149056	49	5178
2026-01-02 02:03:26.65	327.14	15.07	-39.2	-41.9	15.5	0.00e+00	0	56	0	117440512	49	5055
2026-01-02 02:03:29.68	326.51	15.13	-39.0	-41.4	15.9	0.00e+00	0	56	0	122683392	49	4799
2026-01-02 02:03:32.71	325.87	15.18	-38.9	-41.3	16.0	0.00e+00	0	56	0	128974848	49	4753
2026-01-02 02:03:35.73	325.23	15.23	-38.9	-41.4	16.0	0.00e+00	0	56	0	134217728	49	4782
2026-01-02 02:03:38.76	324.59	15.28	-38.5	-40.7	16.6	0.00e+00	0	56	0	139460608	49	4431
2026-01-02 02:03:41.79	323.95	15.33	-38.2	-40.4	17.0	0.00e+00	0	56	0	145752064	48	4509
2026-01-02 02:03:44.82	323.31	15.37	-38.5	-40.8	16.6	0.00e+00	0	56	0	150994944	48	4709
2026-01-02 02:03:47.84	322.66	15.40	-39.0	-41.5	15.9	0.00e+00	0	56	0	157286400	48	5119
2026-01-02 02:03:50.87	322.01	15.44	-38.8	-41.3	16.1	0.00e+00	0	56	0	162529280	48	5005
2026-01-02 02:03:53.90	321.36	15.47	-38.6	-41.1	16.3	0.00e+00	0	56	0	167772160	48	4871
2026-01-02 02:03:56.93	320.71	15.49	-39.0	-41.6	15.8	0.00e+00	0	56	0	174063616	48	5177
2026-01-02 02:03:59.96	320.06	15.52	-39.4	-42.3	15.1	0.00e+00	0	56	0	179306496	49	5298
2026-01-02 02:04:02.99	319.41	15.53	-39.3	-42.0	15.4	0.00e+00	0	56	0	185597952	49	5142
2026-01-02 02:04:06.02	318.76	15.55	-38.8	-41.3	16.1	0.00e+00	0	56	0	190840832	49	4709
2026-01-02 02:04:09.05	318.10	15.56	-38.8	-41.4	16.0	0.00e+00	0	56	0	197132288	49	4764
2026-01-02 02:04:12.08	317.45	15.57	-38.9	-41.4	16.0	0.00e+00	0	56	0	202375168	49	4780
2026-01-02 02:04:15.11	316.79	15.57	-38.7	-41.1	16.3	0.00e+00	0	56	0	207618048	49	4604
2026-01-02 02:04:18.14	316.14	15.57	-38.7	-41.2	16.2	0.00e+00	0	56	0	213909504	49	4653
2026-01-02 02:04:21.17	315.48	15.57	-38.8	-41.3	16.1	0.00e+00	0	56	0	219152384	49	4721
2026-01-02 02:04:24.19	314.83	15.56	-38.7	-41.1	16.2	0.00e+00	0	56	0	225443840	49	4647
2026-01-02 02:04:27.22	314.18	15.55	-38.6	-41.0	16.3	0.00e+00	0	56	0	230686720	49	4582
2026-01-02 02:04:30.25	313.52	15.54	-38.6	-41.0	16.3	0.00e+00	0	56	0	235929600	49	4578
2026-01-02 02:04:33.28	312.87	15.52	-39.0	-41.5	15.8	0.00e+00	0	56	0	242221056	49	4850
2026-01-02 02:04:36.31	312.22	15.49	-39.0	-41.7	15.7	0.00e+00	0	56	0	247463936	49	4927
2026-01-02 02:04:39.34	311.57	15.47	-39.2	-42.0	15.4	0.00e+00	0	56	0	253755392	49	5115
2026-01-02 02:04:42.37	310.92	15.44	-39.4	-42.3	15.1	0.00e+00	0	56	0	258998272	49	5283
2026-01-02 02:04:45.40	310.27	15.41	-39.4	-42.3	15.1	0.00e+00	0	56	0	265289728	49	5336
2026-01-02 02:04:48.43	309.62	15.37	-39.1	-41.8	15.5	0.00e+00	0	56	0	270532608	49	5013
2026-01-02 02:04:51.46	308.97	15.33	-39.1	-41.7	15.7	0.00e+00	0	56	0	275775488	49	4951
2026-01-02 02:04:54.49	308.33	15.28	-39.4	-42.2	15.2	0.00e+00	0	56	0	282066944	49	5246
2026-01-02 02:04:57.52	307.69	15.24	-39.4	-42.1	15.3	0.00e+00	0	56	0	287309824	49	5186
2026-01-02 02:05:00.55	307.05	15.18	-38.6	-40.9	16.4	0.00e+00	0	56	0	293601280	49	4525
2026-01-02 02:05:03.57	306.41	15.13	-38.4	-40.5	17.0	0.00e+00	0	56	0	298844160	48	4567
2026-01-02 02:05:06.60	305.78	15.07	-38.6	-40.7	16.7	0.00e+00	0	57	0	304087040	48	4701
2026-01-02 02:05:09.63	305.15	15.01	-38.7	-40.9	16.6	0.00e+00	0	56	0	310378496	48	4764
2026-01-02 02:05:12.66	304.52	14.95	-39.0	-41.3	16.2	0.00e+00	0	57	0	315621376	48	4987
2026-01-02 02:05:15.69	303.89	14.88	-39.2	-41.5	16.0	0.00e+00	0	56	0	321912832	49	4847
2026-01-02 02:05:18.72	303.27	14.81	-39.3	-41.8	15.7	0.00e+00	0	57	0	327155712	49	4997
2026-01-02 02:05:21.75	302.65	14.73	-39.3	-41.7	15.7	0.00e+00	0	56	0	333447168	49	4978
2026-01-02 02:05:24.78	302.03	14.65	-38.9	-41.1	16.3	0.00e+00	0	56	0	338690048	49	4649
2026-01-02 02:05:27.80	301.42	14.57	-38.3	-40.3	17.0	0.00e+00	0	57	0	343932928	48	4485
2026-01-02 02:05:30.83	300.80	14.49	-38.4	-40.4	16.9	0.00e+00	0	57	0	350224384	48	4519
2026-01-02 02:05:33.86	300.20	14.40	-38.2	-40.1	17.2	0.00e+00	0	56	0	355467264	48	4382
2026-01-02 02:05:36.89	299.59	14.31	-38.5	-40.5	16.8	0.00e+00	0	57	0	361758720	48	4592
2026-01-02 02:05:39.92	298.99	14.22	-38.9	-41.2	16.2	0.00e+00	0	57	0	367001600	48	4927
2026-01-02 02:05:42.95	298.40	14.13	-38.9	-41.2	16.2	0.00e+00	0	56	0	372244480	48	4955
2026-01-02 02:05:45.97	297.81	14.03	-38.9	-41.2	16.1	0.00e+00	0	57	0	378535936	48	4966
2026-01-02 02:05:49.00	297.22	13.93	-39.1	-41.4	15.9	0.00e+00	0	56	0	383778816	48	5076
2026-01-02 02:05:52.03	296.63	13.83	-39.0	-41.3	16.0	0.00e+00	0	57	0	390070272	49	4729
2026-01-02 02:05:55.05	296.05	13.72	-38.8	-41.1	16.2	0.00e+00	0	57	0	395313152	49	4621
2026-01-02 02:05:58.08	295.48	13.62	-38.7	-41.0	16.3	0.00e+00	0	57	0	401604608	49	4550
2026-01-02 02:06:01.12	294.90	13.50	-38.6	-40.9	16.3	0.00e+00	0	57	0	406847488	49	4503
2026-01-02 02:06:04.14	294.34	13.39	-38.5	-40.7	16.3	0.00e+00	0	57	0	412090368	48	4677
2026-01-02 02:06:07.16	293.78	13.28	-38.1	-40.2	16.7	0.00e+00	0	56	0	418381824	48	4426
2026-01-02 02:06:10.19	293.22	13.16	-38.2	-40.4	16.4	0.00e+00	0	57	0	423624704	48	4521
2026-01-02 02:06:13.22	292.66	13.04	-38.8	-41.4	15.4	0.00e+00	0	56	0	429916160	48	5050
2026-01-02 02:06:16.25	292.11	12.92	-39.2	-42.0	14.6	0.00e+00	0	57	0	435159040	49	5140
2026-01-02 02:06:19.28	291.57	12.80	-39.6	-42.9	13.7	4.50e-06	0	56	0	440401920	49	5659
2026-01-02 02:06:22.31	291.03	12.67	-39.6	-42.8	13.6	9.10e-06	0	56	0	446693376	49	5647
2026-01-02 02:06:25.34	290.49	12.55	-39.4	-42.4	14.0	3.80e-06	0	56	0	451936256	49	5378
2026-01-02 02:06:28.37	289.96	12.42	-39.3	-42.3	14.0	7.00e-07	0	56	0	458227712	49	5337
2026-01-02 02:06:31.40	289.43	12.29	-39.5	-42.9	13.3	1.98e-05	0	56	0	463470592	49	5690
2026-01-02 02:06:34.42	288.91	12.16	-39.9	-43.7	12.2	1.27e-04	0	57	0	468713472	50	5880
2026-01-02 02:06:37.45	288.39	12.03	-40.0	-44.4	11.2	1.03e-03	0	57	0	475004928	50	6379
2026-01-02 02:06:40.48	287.88	11.89	-40.4	-46.0	9.1	1.59e-02	0	57	0	480247808	51	7275
2026-01-02 02:06:43.51	287.37	11.75	-40.5	-47.1	7.8	7.61e-02	0	57	0	486539264	51	8202
2026-01-02 02:06:46.54	286.87	11.62	-40.3	-47.1	7.5	1.01e-01	0	57	0	491782144	51	8214
2026-01-02 02:06:49.57	286.37	11.48	-40.4	-48.2	6.4	2.15e-01	0	57	0	498073600	51	9356
2026-01-02 02:06:52.59	285.88	11.34	-40.7	-49.5	5.4	4.92e-01	0	57	0	503316480	51	10869
2026-01-02 02:06:55.62	285.39	11.20	-40.8	-49.8	5.3	7.01e-01	0	57	0	508559360	52	10562
2026-01-02 02:06:58.65	284.91	11.05	-41.1	-48.9	6.3	3.38e-01	0	57	0	514850816	52	9546
2026-01-02 02:07:01.68	284.43	10.91	-40.8	-47.5	7.6	1.68e-01	0	57	0	520093696	52	8098
2026-01-02 02:07:04.71	283.95	10.77	-41.1	-47.0	8.5	4.33e-02	0	57	0	526385152	52	7717
2026-01-02 02:07:07.74	283.48	10.62	-41.3	-47.2	8.7	3.19e-02	0	57	0	531628032	53	7382
2026-01-02 02:07:10.76	283.02	10.47	-41.7	-47.9	8.3	4.90e-02	0	57	0	536870912	54	7584
2026-01-02 02:07:13.79	282.56	10.33	-41.4	-46.7	9.7	1.32e-02	0	57	0	543162368	54	6581
2026-01-02 02:07:16.82	282.10	10.18	-41.2	-46.2	10.1	5.13e-03	0	57	0	548405248	54	6265
2026-01-02 02:07:19.85	281.65	10.03	-41.1	-45.9	10.4	4.49e-03	0	57	0	554696704	54	6009
2026-01-02 02:07:22.87	281.21	9.88	-40.9	-45.6	10.6	3.29e-03	0	57	0	559939584	53	6147
2026-01-02 02:07:25.91	280.76	9.73	-40.6	-45.3	10.7	2.77e-03	0	57	0	565182464	53	5930
2026-01-02 02:07:28.94	280.32	9.57	-40.6	-45.8	9.9	8.02e-03	0	57	0	571473920	53	6290
2026-01-02 02:07:31.97	279.89	9.42	-40.8	-46.8	8.5	3.39e-02	0	57	0	576716800	53	7049
2026-01-02 02:07:34.99	279.47	9.27	-40.7	-47.0	8.0	5.74e-02	0	57	0	583008256	53	7287
2026-01-02 02:07:38.02	279.04	9.12	-40.7	-48.0	6.9	1.49e-01	0	57	0	588251136	53	8123
2026-01-02 02:07:41.05	278.62	8.96	-40.7	-48.7	6.2	2.44e-01	0	57	0	594542592	53	8783
2026-01-02 02:07:44.08	278.21	8.81	-40.6	-49.7	5.3	5.40e-01	0	57	0	599785472	53	9918
2026-01-02 02:07:47.11	277.80	8.65	-40.3	-51.1	4.4	9.80e-01	0	57	0	605028352	52	12306
2026-01-02 02:07:50.14	277.39	8.50	-40.1	-52.3	3.9	1.43e+00	0	57	104	607125504	52	14067
2026-01-02 02:07:53.17	276.99	8.34	-40.0	-52.9	3.8	1.49e+00	0	57	104	607125504	52	15124
2026-01-02 02:07:56.20	276.59	8.19	-40.1	-53.5	3.8	1.49e+00	0	57	104	607125504	51	17088
2026-01-02 02:07:59.23	276.20	8.03	-40.0	-53.9	3.8	1.49e+00	0	57	104	607125504	51	17897
2026-01-02 02:08:02.26	275.81	7.87	-44.7	-59.0	3.8	1.49e+00	0	57	104	607125504	59	20532
2026-01-02 02:08:05.29	275.43	7.72	-44.8	-59.4	3.8	1.49e+00	0	57	104	607125504	60	20177
2026-01-02 02:08:08.32	275.05	7.56	-44.9	-59.4	3.8	1.49e+00	0	57	104	607125504	60	20283
2026-01-02 02:08:11.36	274.67	7.40	-44.8	-59.4	3.8	1.49e+00	0	57	104	607125504	60	20116
2026-01-02 02:08:14.39	274.30	7.24	-44.8	-59.3	3.8	1.49e+00	0	57	104	607125504	60	20036
2026-01-02 02:08:17.42	273.93	7.09	-44.8	-59.4	3.8	1.49e+00	0	57	104	607125504	60	20076
2026-01-02 02:08:20.45	273.57	6.93	-44.8	-59.3	3.8	1.49e+00	0	57	104	607125504	60	20026
2026-01-02 02:08:23.49	273.21	6.77	-44.8	-59.3	3.8	1.49e+00	0	57	104	607125504	60	19990
2026-01-02 02:08:26.52	272.85	6.61	-44.8	-59.3	3.8	1.49e+00	0	57	104	607125504	60	20001
2026-01-02 02:08:29.55	272.50	6.45	-44.8	-59.3	3.8	1.49e+00	0	57	104	607125504	60	19941
2026-01-02 02:08:32.58	272.15	6.30	-44.8	-59.3	3.8	1.49e+00	0	57	104	607125504	60	19909
2026-01-02 02:08:35.62	271.81	6.14	-44.7	-59.3	3.8	1.49e+00	0	57	104	607125504	60	19886
2026-01-02 02:08:38.65	271.47	5.98	-44.8	-59.3	3.8	1.49e+00	0	57	104	607125504	60	19870
2026-01-02 02:08:41.68	271.13	5.82	-44.7	-59.3	3.8	1.49e+00	0	57	104	607125504	60	19906
2026-01-02 02:08:44.72	270.80	5.66	-44.7	-59.3	3.8	1.49e+00	0	57	104	607125504	60	19931
2026-01-02 02:08:47.75	270.47	5.50	-44.7	-59.3	3.8	1.49e+00	0	57	104	607125504	60	19844
2026-01-02 02:08:50.79	270.14	5.35	-44.7	-59.3	3.8	1.49e+00	0	57	104	607125504	60	19877
2026-01-02 02:08:53.82	269.82	5.19	-44.7	-59.3	3.8	1.49e+00	0	57	104	607125504	60	19848
2026-01-02 02:08:56.85	269.50	5.03	-44.7	-59.3	3.8	1.49e+00	0	57	104	607125504	60	19861
2026-01-02 02:08:59.89	269.18	4.87	-44.7	-59.3	3.8	1.49e+00	0	57	104	607125504	60	19863
2026-01-02 02:09:02.89	268.88	4.72	-44.7	-59.3	3.8	1.49e+00	0	57	104	607125504	60	19881
2026-01-02 02:09:05.93	268.57	4.56	-44.7	-59.2	3.8	1.49e+00	0	57	104	607125504	60	19810
2026-01-02 02:09:08.96	268.26	4.40	-44.7	-59.3	3.8	1.49e+00	0	57	104	607125504	60	19894
2026-01-02 02:09:11.99	267.96	4.24	-44.7	-59.2	3.8	1.49e+00	0	57	104	607125504	60	19830
2026-01-02 02:09:15.02	267.66	4.09	-44.7	-59.3	3.8	1.49e+00	0	57	104	607125504	60	19846
2026-01-02 02:09:18.06	267.37	3.93	-44.7	-59.3	3.8	1.49e+00	0	57	104	607125504	60	19843
2026-01-02 02:09:21.09	267.07	3.77	-44.7	-59.2	3.8	1.49e+00	0	57	104	607125504	60	19836
2026-01-02 02:09:24.12	266.79	3.62	-44.7	-59.2	3.8	1.49e+00	0	57	104	607125504	60	19810
2026-01-02 02:09:27.16	266.50	3.46	-44.7	-59.3	3.8	1.49e+00	0	57	104	607125504	60	19852
2026-01-02 02:09:30.19	266.22	3.31	-44.7	-59.3	3.8	1.49e+00	0	57	104	607125504	60	19858
2026-01-02 02:09:33.22	265.94	3.15	-44.7	-59.2	3.8	1.49e+00	0	57	104	607125504	60	19808
2026-01-02 02:09:36.26	265.66	3.00	-44.7	-59.3	3.8	1.49e+00	0	57	104	607125504	60	19887
2026-01-02 02:09:39.29	265.39	2.84	-44.7	-59.2	3.8	1.49e+00	0	57	104	607125504	60	19825
2026-01-02 02:09:42.32	265.12	2.69	-44.7	-59.3	3.8	1.49e+00	0	57	104	607125504	60	19865
2026-01-02 02:09:45.36	264.85	2.53	-44.7	-59.3	3.8	1.49e+00	0	57	104	607125504	60	19850
2026-01-02 02:09:48.39	264.58	2.38	-44.7	-59.3	3.8	1.49e+00	0	57	104	607125504	60	19844
2026-01-02 02:09:51.42	264.32	2.22	-44.7	-59.2	3.8	1.49e+00	0	57	104	607125504	60	19770
2026-01-02 02:09:54.45	264.06	2.07	-44.7	-59.3	3.8	1.49e+00	0	57	104	607125504	60	19869
2026-01-02 02:09:57.49	263.81	1.92	-44.7	-59.2	3.8	1.49e+00	0	57	104	607125504	60	19820

#Closed at: 2026-01-02 02:09:58
#Recorded file [607 MB]: D:/lorett/data/31039_260102_045838.dat