passes_logs/2026/01/02/R2.0S_Moscow/R2.0S_Moscow__20260102_044656_FENGYUN_3E_rec.log

#Pass ID: 20260102_044656_FENGYUN 3E
#Satellite: FENGYUN 3E
#Configuration: FENGYUN 3E
#almurnet v.1.7.20251203
#Start time: 2026-01-02 04:49:38

#Version: 2.2.20231116
#Station: R2.0S_Moscow
#Location: 37.707566 lon 55.798166 lat
#TLE: 1 49008U 21062A   26001.26445318  .00000475  00000+0  24453-3 0  9990
#TLE: 2 49008  98.7480   6.5551 0001357 167.8415 192.2795 14.19884467232890

#Time	Az	El	Level	Level2	SNR	BER	BlckErr	Temp	State	Recorded	gain1	gain2
2026-01-02 04:49:38.97	4.62	14.36	-44.8	-63.1	3.8	8.46e-01	0	56	0	0	60	30758
2026-01-02 04:49:41.99	4.38	14.66	-45.5	-56.7	3.8	8.46e-01	0	56	104	0	61	13116
2026-01-02 04:49:45.02	4.13	14.95	-45.3	-56.5	3.8	8.46e-01	0	56	104	0	61	12899
2026-01-02 04:49:48.06	3.88	15.25	-45.0	-56.2	3.8	8.45e-01	0	57	104	0	61	12436
2026-01-02 04:49:51.09	3.62	15.55	-44.8	-55.9	3.8	8.46e-01	0	56	104	0	60	12723
2026-01-02 04:49:54.12	3.36	15.85	-44.8	-56.0	3.8	8.46e-01	0	57	104	0	60	12867
2026-01-02 04:49:57.15	3.09	16.16	-44.8	-55.9	3.8	8.47e-01	0	57	104	0	60	12756
2026-01-02 04:50:00.19	2.81	16.47	-44.7	-55.6	3.8	8.46e-01	0	57	104	0	60	12288
2026-01-02 04:50:03.22	2.53	16.78	-44.7	-55.1	3.8	8.45e-01	0	57	104	0	60	11642
2026-01-02 04:50:06.25	2.24	17.10	-44.7	-55.2	3.8	8.47e-01	0	57	104	0	60	11811
2026-01-02 04:50:09.29	1.95	17.42	-44.7	-55.7	3.8	8.46e-01	0	57	104	0	60	12504
2026-01-02 04:50:12.32	1.65	17.74	-44.7	-55.6	3.8	8.46e-01	0	57	104	0	60	12262
2026-01-02 04:50:15.35	1.34	18.07	-44.5	-52.9	4.0	8.44e-01	0	57	0	0	59	9596
2026-01-02 04:50:18.38	1.03	18.40	-44.1	-51.3	4.5	8.24e-01	0	57	0	0	59	7927
2026-01-02 04:50:21.42	0.70	18.73	-43.8	-50.0	5.1	7.92e-01	0	57	0	0	58	7266
2026-01-02 04:50:24.45	0.37	19.07	-39.0	-40.9	13.6	2.40e-05	0	57	0	19922944	49	4279
2026-01-02 04:50:27.48	0.04	19.41	-34.3	-35.4	18.9	0.00e+00	0	57	0	41943040	39	4036
2026-01-02 04:50:30.52	359.69	19.76	-32.6	-33.6	20.7	0.00e+00	0	57	0	63963136	36	3881
2026-01-02 04:50:33.55	359.34	20.11	-32.1	-33.1	20.5	0.00e+00	0	57	0	85983232	35	3871
2026-01-02 04:50:36.58	358.98	20.46	-33.9	-35.0	19.4	1.11e-03	0	57	0	108003328	38	4073
2026-01-02 04:50:39.61	358.61	20.81	-31.4	-32.3	21.2	0.00e+00	0	57	0	128974848	33	3996
2026-01-02 04:50:42.64	358.23	21.17	-31.0	-32.0	21.6	0.00e+00	0	57	0	150994944	32	4056
2026-01-02 04:50:45.67	357.84	21.54	-31.0	-31.9	21.6	0.00e+00	0	57	0	173015040	32	4036
2026-01-02 04:50:48.70	357.44	21.90	-31.1	-32.0	21.5	0.00e+00	0	57	0	195035136	32	4084
2026-01-02 04:50:51.73	357.04	22.28	-31.3	-32.2	21.3	0.00e+00	0	57	0	217055232	32	4167
2026-01-02 04:50:54.76	356.62	22.65	-31.4	-32.4	21.2	0.00e+00	0	57	0	239075328	33	4025
2026-01-02 04:50:57.79	356.19	23.03	-31.4	-32.4	21.2	0.00e+00	0	57	0	261095424	33	4024
2026-01-02 04:51:00.82	355.75	23.41	-31.3	-32.3	21.3	0.00e+00	0	57	0	283115520	33	3968
2026-01-02 04:51:03.85	355.30	23.80	-31.4	-32.3	21.3	0.00e+00	0	57	0	304087040	32	4207
2026-01-02 04:51:06.89	354.84	24.19	-31.4	-32.3	21.3	0.00e+00	0	57	0	326107136	32	4239
2026-01-02 04:51:09.91	354.37	24.58	-31.5	-32.4	21.2	0.00e+00	0	57	0	348127232	32	4288
2026-01-02 04:51:12.95	353.88	24.98	-31.7	-32.7	21.0	0.00e+00	0	57	0	370147328	33	4146
2026-01-02 04:51:15.98	353.38	25.38	-31.9	-32.8	20.8	0.00e+00	0	57	0	392167424	33	4241
2026-01-02 04:51:19.00	352.87	25.79	-31.9	-32.9	20.7	0.00e+00	0	57	0	414187520	34	4014
2026-01-02 04:51:22.04	352.34	26.20	-31.9	-32.9	20.8	0.00e+00	0	57	0	436207616	34	4036
2026-01-02 04:51:25.06	351.81	26.61	-32.0	-33.0	20.7	0.00e+00	0	57	0	457179136	34	4078
2026-01-02 04:51:28.10	351.25	27.03	-31.7	-32.7	21.0	0.00e+00	0	57	0	479199232	34	3917
2026-01-02 04:51:31.13	350.68	27.45	-31.4	-32.4	21.3	0.00e+00	0	57	0	501219328	33	4005
2026-01-02 04:51:34.16	350.10	27.87	-31.5	-32.4	21.2	0.00e+00	0	58	0	523239424	33	4036
2026-01-02 04:51:37.19	349.50	28.29	-31.2	-32.1	21.5	0.00e+00	0	58	0	545259520	33	3889
2026-01-02 04:51:40.22	348.88	28.72	-31.0	-31.9	21.7	0.00e+00	0	57	0	567279616	32	4036
2026-01-02 04:51:43.25	348.25	29.15	-30.8	-31.7	21.9	0.00e+00	0	58	0	589299712	32	3928
2026-01-02 04:51:46.28	347.60	29.59	-30.9	-31.8	21.9	0.00e+00	0	57	0	611319808	32	3967
2026-01-02 04:51:49.31	346.93	30.03	-30.8	-31.7	22.0	0.00e+00	0	57	0	632291328	32	3923
2026-01-02 04:51:52.34	346.24	30.46	-30.5	-31.4	22.1	0.00e+00	0	57	0	654311424	31	4046
2026-01-02 04:51:55.37	345.53	30.90	-30.6	-31.5	21.9	0.00e+00	0	57	0	676331520	31	4084
2026-01-02 04:51:58.40	344.80	31.35	-30.7	-31.5	22.0	0.00e+00	0	57	0	698351616	31	4096
2026-01-02 04:52:01.44	344.05	31.79	-31.0	-31.9	21.8	0.00e+00	0	57	0	720371712	32	4021
2026-01-02 04:52:04.46	343.29	32.23	-31.1	-32.0	21.7	0.00e+00	0	57	0	741343232	32	4073
2026-01-02 04:52:07.49	342.50	32.68	-30.8	-31.7	22.0	0.00e+00	0	57	0	763363328	32	3950
2026-01-02 04:52:10.52	341.68	33.13	-30.8	-31.7	22.0	0.00e+00	0	57	0	785383424	32	3931
2026-01-02 04:52:13.55	340.85	33.57	-30.6	-31.4	22.3	0.00e+00	0	57	0	807403520	32	3821
2026-01-02 04:52:16.58	339.99	34.01	-30.4	-31.3	22.3	0.00e+00	0	57	0	829423616	31	3961
2026-01-02 04:52:19.61	339.11	34.46	-30.1	-31.0	22.5	0.00e+00	0	57	0	851443712	31	3855
2026-01-02 04:52:22.65	338.20	34.90	-30.0	-30.9	22.6	0.00e+00	0	57	0	873463808	30	4032
2026-01-02 04:52:25.68	337.26	35.34	-30.1	-31.0	22.6	0.00e+00	0	58	0	895483904	30	4072
2026-01-02 04:52:28.71	336.30	35.78	-30.6	-31.5	22.1	0.00e+00	0	58	0	916455424	30	4314
2026-01-02 04:52:31.74	335.32	36.21	-30.8	-31.7	21.9	0.00e+00	0	57	0	938475520	31	4152
2026-01-02 04:52:34.77	334.31	36.64	-30.8	-31.7	21.9	0.00e+00	0	57	0	960495616	31	4181
2026-01-02 04:52:37.80	333.27	37.06	-30.8	-31.8	21.9	0.00e+00	0	58	0	982515712	31	4195
2026-01-02 04:52:40.83	332.20	37.48	-30.9	-31.8	21.8	0.00e+00	0	58	0	1004535808	31	4227
2026-01-02 04:52:43.86	331.11	37.89	-30.8	-31.7	21.9	0.00e+00	0	57	0	1026555904	31	4173
2026-01-02 04:52:46.89	329.99	38.30	-30.7	-31.6	22.0	0.00e+00	0	57	0	1048576000	31	4131
2026-01-02 04:52:49.92	328.84	38.70	-30.5	-31.4	22.2	0.00e+00	0	58	0	1070596096	31	4043
2026-01-02 04:52:52.95	327.66	39.08	-30.3	-31.2	22.4	0.00e+00	0	58	0	1091567616	31	3925
2026-01-02 04:52:55.98	326.45	39.46	-31.1	-32.0	21.7	0.00e+00	0	57	0	1113587712	31	4325
2026-01-02 04:52:59.01	325.22	39.83	-31.3	-32.2	21.6	0.00e+00	0	57	0	1135607808	32	4186
2026-01-02 04:53:02.04	323.95	40.18	-30.6	-31.5	22.3	0.00e+00	0	58	0	1157627904	32	3831
2026-01-02 04:53:05.08	322.66	40.53	-30.6	-31.5	22.1	0.00e+00	0	58	0	1179648000	31	4067
2026-01-02 04:53:08.11	321.34	40.86	-30.7	-31.6	22.0	0.00e+00	0	58	0	1201668096	31	4138
2026-01-02 04:53:11.14	320.00	41.17	-30.7	-31.6	22.0	0.00e+00	0	58	0	1223688192	31	4130
2026-01-02 04:53:14.17	318.63	41.47	-31.4	-32.3	21.6	0.00e+00	0	58	0	1245708288	32	4209
2026-01-02 04:53:17.20	317.23	41.75	-31.2	-32.1	21.7	0.00e+00	0	57	0	1266679808	32	4139
2026-01-02 04:53:20.23	315.81	42.02	-30.8	-31.7	22.1	0.00e+00	0	58	0	1288699904	32	3940
2026-01-02 04:53:23.26	314.37	42.26	-30.9	-31.8	21.9	0.00e+00	0	58	0	1310720000	32	4004
2026-01-02 04:53:26.29	312.90	42.49	-31.1	-32.0	21.8	0.00e+00	0	58	0	1332740096	32	4073
2026-01-02 04:53:29.32	311.42	42.70	-31.1	-32.0	21.8	0.00e+00	0	58	0	1354760192	32	4068
2026-01-02 04:53:32.34	309.92	42.88	-30.9	-31.8	22.0	0.00e+00	0	57	0	1376780288	32	3964
2026-01-02 04:53:35.37	308.40	43.05	-30.9	-31.8	22.0	0.00e+00	0	58	0	1398800384	32	3985
2026-01-02 04:53:38.40	306.86	43.19	-30.9	-31.9	21.9	0.00e+00	0	58	0	1419771904	32	4007
2026-01-02 04:53:41.43	305.32	43.31	-30.7	-31.6	22.2	0.00e+00	0	58	0	1441792000	32	3886
2026-01-02 04:53:44.46	303.76	43.40	-31.1	-32.0	21.8	0.00e+00	0	58	0	1463812096	32	4087
2026-01-02 04:53:47.49	302.19	43.48	-31.2	-32.1	21.7	0.00e+00	0	58	0	1485832192	32	4119
2026-01-02 04:53:50.53	300.61	43.53	-30.6	-31.4	22.3	0.00e+00	0	58	0	1507852288	32	3817
2026-01-02 04:53:53.56	299.04	43.55	-30.9	-31.8	21.9	0.00e+00	0	57	0	1529872384	32	3994
2026-01-02 04:53:56.59	297.46	43.55	-30.8	-31.7	22.0	0.00e+00	0	58	0	1551892480	32	3937
2026-01-02 04:53:59.62	295.88	43.52	-31.0	-31.9	21.8	0.00e+00	0	57	0	1572864000	32	4047
2026-01-02 04:54:02.65	294.31	43.48	-31.2	-32.1	21.7	0.00e+00	0	57	0	1594884096	32	4113
2026-01-02 04:54:05.68	292.74	43.40	-31.0	-31.8	21.9	0.00e+00	0	58	0	1616904192	32	4003
2026-01-02 04:54:08.71	291.18	43.31	-30.6	-31.5	22.2	0.00e+00	0	57	0	1638924288	32	3832
2026-01-02 04:54:11.74	289.63	43.19	-30.5	-31.4	22.2	0.00e+00	0	57	0	1660944384	31	4037
2026-01-02 04:54:14.77	288.10	43.04	-30.5	-31.4	22.2	0.00e+00	0	58	0	1682964480	31	4005
2026-01-02 04:54:17.80	286.58	42.88	-30.4	-31.3	22.3	0.00e+00	0	58	0	1703936000	31	3969
2026-01-02 04:54:20.83	285.07	42.69	-30.3	-31.2	22.4	0.00e+00	0	58	0	1725956096	31	3929
2026-01-02 04:54:23.86	283.59	42.48	-30.1	-30.9	22.6	0.00e+00	0	58	0	1747976192	31	3824
2026-01-02 04:54:26.89	282.12	42.26	-30.2	-31.1	22.4	0.00e+00	0	58	0	1769996288	30	4112
2026-01-02 04:54:29.92	280.67	42.01	-30.3	-31.2	22.4	0.00e+00	0	58	0	1792016384	30	4159
2026-01-02 04:54:32.95	279.25	41.74	-30.3	-31.2	22.4	0.00e+00	0	57	0	1814036480	30	4160
2026-01-02 04:54:35.98	277.85	41.46	-30.2	-31.1	22.5	0.00e+00	0	58	0	1836056576	30	4103
2026-01-02 04:54:39.01	276.48	41.16	-30.3	-31.2	22.4	0.00e+00	0	58	0	1857028096	30	4157
2026-01-02 04:54:42.04	275.13	40.84	-30.2	-31.1	22.5	0.00e+00	0	58	0	1879048192	30	4116
2026-01-02 04:54:45.07	273.81	40.51	-30.2	-31.1	22.5	0.00e+00	0	58	0	1901068288	30	4100
2026-01-02 04:54:48.10	272.52	40.17	-30.4	-31.3	22.3	0.00e+00	0	58	0	1923088384	30	4206
2026-01-02 04:54:51.13	271.25	39.81	-30.3	-31.2	22.1	0.00e+00	0	58	0	1945108480	30	4156
2026-01-02 04:54:54.16	270.01	39.44	-30.7	-31.6	22.0	0.00e+00	0	58	0	1967128576	30	4359
2026-01-02 04:54:57.20	268.80	39.06	-30.5	-31.4	22.2	0.00e+00	0	58	0	1989148672	31	4019
2026-01-02 04:55:00.23	267.62	38.67	-30.5	-31.4	22.2	0.00e+00	0	58	0	2011168768	31	4006
2026-01-02 04:55:03.26	266.46	38.28	-30.3	-31.2	22.2	0.00e+00	0	57	0	2032140288	31	3943
2026-01-02 04:55:06.29	265.34	37.87	-30.1	-31.0	22.5	0.00e+00	0	58	0	2054160384	31	3853
2026-01-02 04:55:09.32	264.24	37.46	-30.3	-31.2	22.3	0.00e+00	0	58	0	2076180480	31	3945
2026-01-02 04:55:12.35	263.17	37.03	-30.5	-31.4	22.1	0.00e+00	0	58	0	2098200576	31	4023
2026-01-02 04:55:15.37	262.14	36.61	-30.2	-31.1	22.4	0.00e+00	0	58	0	2120220672	31	3888
2026-01-02 04:55:18.40	261.12	36.18	-30.1	-31.0	22.5	0.00e+00	0	58	0	2142240768	31	3843
2026-01-02 04:55:21.43	260.13	35.74	-29.8	-30.7	22.8	0.00e+00	0	58	0	2164260864	30	3937
2026-01-02 04:55:24.46	259.17	35.31	-30.1	-30.9	21.8	0.00e+00	0	58	0	2185232384	30	4033
2026-01-02 04:55:27.49	258.24	34.86	-30.3	-31.2	22.3	0.00e+00	0	58	0	2207252480	30	4166
2026-01-02 04:55:30.52	257.33	34.42	-30.0	-30.8	22.6	0.00e+00	0	58	0	2229272576	30	3984
2026-01-02 04:55:33.55	256.44	33.97	-29.9	-30.8	22.6	0.00e+00	0	58	0	2251292672	30	3985
2026-01-02 04:55:36.58	255.58	33.53	-30.3	-31.2	22.3	0.00e+00	0	57	0	2273312768	30	4171
2026-01-02 04:55:39.61	254.74	33.08	-30.5	-31.4	22.1	0.00e+00	0	57	0	2295332864	30	4251
2026-01-02 04:55:42.64	253.92	32.63	-30.2	-31.1	22.4	0.00e+00	0	58	0	2317352960	30	4103
2026-01-02 04:55:45.67	253.13	32.19	-30.0	-30.9	22.6	0.00e+00	0	58	0	2339373056	30	4015
2026-01-02 04:55:48.70	252.36	31.74	-30.2	-31.1	22.4	0.00e+00	0	58	0	2360344576	30	4099
2026-01-02 04:55:51.73	251.61	31.29	-29.8	-30.6	22.8	0.00e+00	0	58	0	2382364672	30	3897
2026-01-02 04:55:54.77	250.87	30.85	-29.8	-30.6	22.8	0.00e+00	0	58	0	2404384768	30	3895
2026-01-02 04:55:57.80	250.16	30.40	-30.2	-31.0	22.4	0.00e+00	0	58	0	2426404864	30	4092
2026-01-02 04:56:00.83	249.47	29.96	-30.3	-31.2	22.2	0.00e+00	0	58	0	2448424960	30	4177
2026-01-02 04:56:03.86	248.80	29.53	-30.8	-31.7	21.7	0.00e+00	0	57	0	2470445056	31	4193
2026-01-02 04:56:06.89	248.15	29.09	-30.8	-31.7	21.8	0.00e+00	0	58	0	2492465152	31	4177
2026-01-02 04:56:09.92	247.51	28.66	-30.4	-31.3	22.1	0.00e+00	0	58	0	2514485248	31	3988
2026-01-02 04:56:12.96	246.89	28.22	-30.4	-31.2	22.2	0.00e+00	0	58	0	2535456768	31	3958
2026-01-02 04:56:15.98	246.29	27.80	-30.4	-31.3	22.1	0.00e+00	0	58	0	2557476864	31	3988
2026-01-02 04:56:19.02	245.70	27.37	-30.6	-31.4	22.0	0.00e+00	0	58	0	2579496960	31	4051
2026-01-02 04:56:22.05	245.13	26.95	-30.4	-31.3	22.1	0.00e+00	0	58	0	2601517056	31	3964
2026-01-02 04:56:25.08	244.57	26.53	-30.3	-31.2	22.2	0.00e+00	0	58	0	2623537152	31	3921
2026-01-02 04:56:28.11	244.03	26.12	-30.6	-31.5	21.9	0.00e+00	0	57	0	2645557248	31	4087
2026-01-02 04:56:31.15	243.50	25.70	-30.6	-31.5	22.0	0.00e+00	0	58	0	2667577344	31	4058
2026-01-02 04:56:34.17	242.99	25.30	-30.6	-31.5	21.9	0.00e+00	0	58	0	2688548864	31	4079
2026-01-02 04:56:37.20	242.49	24.90	-30.5	-31.4	22.0	0.00e+00	0	57	0	2710568960	31	4035
2026-01-02 04:56:40.23	242.00	24.50	-30.6	-31.5	21.9	0.00e+00	0	58	0	2732589056	31	4053
2026-01-02 04:56:43.26	241.52	24.10	-30.5	-31.4	22.0	0.00e+00	0	58	0	2754609152	31	4008
2026-01-02 04:56:46.29	241.06	23.71	-30.8	-31.7	21.6	0.00e+00	0	58	0	2776629248	31	4192
2026-01-02 04:56:49.32	240.61	23.32	-30.8	-31.7	21.7	0.00e+00	0	58	0	2797600768	31	4185
2026-01-02 04:56:52.35	240.16	22.93	-30.6	-31.5	21.9	0.00e+00	0	58	0	2819620864	31	4070
2026-01-02 04:56:55.38	239.73	22.55	-30.6	-31.5	21.9	0.00e+00	0	58	0	2841640960	31	4060
2026-01-02 04:56:58.41	239.31	22.18	-31.0	-31.9	21.4	0.00e+00	0	58	0	2863661056	31	4276
2026-01-02 04:57:01.44	238.90	21.81	-31.1	-32.1	21.3	0.00e+00	0	58	0	2885681152	31	4354
2026-01-02 04:57:04.47	238.50	21.44	-31.3	-32.2	21.3	0.00e+00	0	58	0	2907701248	32	4185
2026-01-02 04:57:07.50	238.11	21.07	-31.3	-32.2	21.4	0.00e+00	0	57	0	2929721344	32	4167
2026-01-02 04:57:10.52	237.73	20.71	-31.6	-32.6	21.0	0.00e+00	0	58	0	2951741440	32	4341
2026-01-02 04:57:13.56	237.36	20.35	-31.7	-32.7	20.9	0.00e+00	0	57	0	2972712960	33	4152
2026-01-02 04:57:16.59	237.00	20.00	-31.7	-32.7	20.8	0.00e+00	0	58	0	2994733056	33	4159
2026-01-02 04:57:19.62	236.64	19.65	-31.4	-32.4	21.2	0.00e+00	0	58	0	3016753152	33	4012
2026-01-02 04:57:22.65	236.29	19.30	-31.6	-32.6	21.0	0.00e+00	0	57	0	3038773248	33	4115
2026-01-02 04:57:25.68	235.96	18.96	-32.0	-33.0	20.5	0.00e+00	0	58	0	3060793344	33	4332
2026-01-02 04:57:28.71	235.62	18.62	-32.1	-33.1	20.4	0.00e+00	0	58	0	3082813440	33	4359
2026-01-02 04:57:31.74	235.30	18.29	-32.0	-33.0	20.5	0.00e+00	0	58	0	3104833536	33	4306
2026-01-02 04:57:34.77	234.98	17.96	-32.0	-33.0	20.6	0.00e+00	0	57	0	3126853632	33	4296
2026-01-02 04:57:37.80	234.67	17.63	-32.1	-33.1	20.4	0.00e+00	0	58	0	3147825152	33	4358
2026-01-02 04:57:40.83	234.37	17.30	-32.2	-33.2	20.3	0.00e+00	0	58	0	3169845248	34	4186
2026-01-02 04:57:43.86	234.07	16.98	-32.3	-33.3	20.2	0.00e+00	0	57	0	3191865344	34	4239
2026-01-02 04:57:46.90	233.78	16.66	-32.5	-33.5	20.0	0.00e+00	0	58	0	3213885440	34	4335
2026-01-02 04:57:49.93	233.50	16.35	-32.7	-33.7	19.8	0.00e+00	0	58	0	3235905536	34	4415
2026-01-02 04:57:52.96	233.22	16.04	-32.6	-33.6	19.9	0.00e+00	0	58	0	3257925632	35	4138
2026-01-02 04:57:55.98	232.95	15.73	-32.7	-33.7	19.8	0.00e+00	0	58	0	3279945728	35	4179
2026-01-02 04:57:59.01	232.68	15.43	-33.0	-34.1	19.3	0.00e+00	0	58	0	3300917248	35	4341
2026-01-02 04:58:02.04	232.42	15.12	-33.9	-35.0	19.2	0.00e+00	0	58	0	3322937344	37	4325
2026-01-02 04:58:05.08	232.16	14.83	-34.1	-35.2	19.1	0.00e+00	0	58	0	3344957440	37	4427
2026-01-02 04:58:08.10	231.91	14.53	-34.2	-35.3	19.0	0.00e+00	0	58	0	3366977536	38	4196
2026-01-02 04:58:11.13	231.67	14.24	-33.8	-34.9	19.3	0.00e+00	0	58	0	3388997632	38	4027
2026-01-02 04:58:14.17	231.43	13.95	-33.9	-34.9	19.2	0.00e+00	0	58	0	3411017728	38	4050
2026-01-02 04:58:17.20	231.19	13.66	-33.9	-35.0	19.2	0.00e+00	0	57	0	3433037824	38	4068
2026-01-02 04:58:20.23	230.96	13.38	-33.9	-35.0	19.2	0.00e+00	0	58	0	3455057920	38	4073
2026-01-02 04:58:23.26	230.73	13.10	-34.1	-35.2	19.0	0.00e+00	0	57	0	3476029440	38	4177
2026-01-02 04:58:26.28	230.51	12.82	-34.3	-35.4	18.8	0.00e+00	0	58	0	3498049536	38	4290
2026-01-02 04:58:29.31	230.29	12.54	-34.1	-35.2	19.0	0.00e+00	0	57	0	3520069632	38	4157
2026-01-02 04:58:32.34	230.08	12.27	-34.3	-35.4	18.7	0.00e+00	0	58	0	3542089728	38	4279
2026-01-02 04:58:35.37	229.87	12.00	-34.2	-35.3	18.9	0.00e+00	0	58	0	3564109824	38	4221
2026-01-02 04:58:38.40	229.66	11.73	-34.4	-35.5	18.7	0.00e+00	0	58	0	3586129920	38	4310
2026-01-02 04:58:41.43	229.46	11.47	-34.6	-35.7	18.4	0.00e+00	0	58	0	3607101440	38	4436
2026-01-02 04:58:44.46	229.26	11.21	-34.4	-35.6	18.6	0.00e+00	0	58	0	3629121536	38	4358
2026-01-02 04:58:47.50	229.07	10.95	-34.5	-35.7	18.4	0.00e+00	0	58	0	3651141632	38	4404
2026-01-02 04:58:50.53	228.87	10.69	-34.6	-35.8	18.3	0.00e+00	0	58	0	3673161728	38	4473
2026-01-02 04:58:53.56	228.69	10.43	-34.9	-36.1	18.0	0.00e+00	0	58	0	3695181824	39	4343
2026-01-02 04:58:56.59	228.50	10.18	-35.0	-36.2	17.9	0.00e+00	0	58	0	3717201920	39	4400
2026-01-02 04:58:59.61	228.32	9.93	-34.9	-36.1	17.9	0.00e+00	0	58	0	3738173440	39	4387
2026-01-02 04:59:02.64	228.14	9.68	-35.0	-36.3	17.8	0.00e+00	0	58	0	3760193536	39	4445
2026-01-02 04:59:05.67	227.97	9.44	-35.2	-36.4	17.6	0.00e+00	0	58	0	3782213632	39	4514
2026-01-02 04:59:08.71	227.80	9.19	-34.9	-36.2	17.8	0.00e+00	0	58	0	3804233728	40	4148
2026-01-02 04:59:11.74	227.63	8.95	-35.1	-36.3	17.6	0.00e+00	0	58	0	3826253824	40	4220
2026-01-02 04:59:14.77	227.46	8.71	-35.2	-36.4	17.4	0.00e+00	0	57	0	3848273920	40	4281
2026-01-02 04:59:17.80	227.30	8.47	-35.3	-36.5	17.3	0.00e+00	0	58	0	3870294016	40	4330
2026-01-02 04:59:20.83	227.14	8.24	-35.1	-36.3	17.5	0.00e+00	0	58	0	3892314112	40	4237
2026-01-02 04:59:23.86	226.98	8.00	-44.5	-55.4	3.8	5.17e-02	0	58	104	3912237056	58	13426
2026-01-02 04:59:26.89	226.82	7.77	-45.1	-56.0	3.8	8.46e-01	0	58	104	3912237056	59	13678
2026-01-02 04:59:29.93	226.67	7.54	-45.2	-56.4	3.8	8.48e-01	0	58	104	3912237056	60	13492
2026-01-02 04:59:32.96	226.52	7.31	-45.2	-56.4	3.8	8.47e-01	0	58	104	3912237056	60	13541
2026-01-02 04:59:35.99	226.37	7.09	-45.1	-56.3	3.8	8.47e-01	0	58	104	3912237056	60	13412
2026-01-02 04:59:39.02	226.23	6.86	-45.1	-56.3	3.8	8.46e-01	0	58	104	3912237056	60	13308
2026-01-02 04:59:42.06	226.08	6.64	-45.1	-56.3	3.8	8.47e-01	0	58	104	3912237056	60	13295
2026-01-02 04:59:45.09	225.94	6.42	-45.1	-56.3	3.8	8.47e-01	0	58	104	3912237056	60	13272
2026-01-02 04:59:48.12	225.80	6.20	-45.1	-56.3	3.8	8.46e-01	0	58	104	3912237056	60	13265
2026-01-02 04:59:51.15	225.67	5.98	-45.1	-56.2	3.8	8.46e-01	0	58	104	3912237056	60	13201
2026-01-02 04:59:54.18	225.53	5.77	-45.1	-56.2	3.8	8.45e-01	0	58	104	3912237056	60	13222
2026-01-02 04:59:57.22	225.40	5.55	-45.1	-56.2	3.8	8.46e-01	0	58	104	3912237056	60	13178
2026-01-02 05:00:00.25	225.27	5.34	-45.1	-56.2	3.8	8.46e-01	0	58	104	3912237056	60	13222
2026-01-02 05:00:03.28	225.14	5.13	-45.1	-56.2	3.8	8.46e-01	0	58	104	3912237056	60	13148
2026-01-02 05:00:06.32	225.02	4.92	-45.1	-56.2	3.8	8.46e-01	0	58	104	3912237056	60	13221
2026-01-02 05:00:09.35	224.89	4.71	-45.1	-56.2	3.8	8.46e-01	0	58	104	3912237056	60	13251
2026-01-02 05:00:12.38	224.77	4.50	-45.1	-56.2	3.8	8.47e-01	0	58	104	3912237056	60	13150
2026-01-02 05:00:15.41	224.65	4.30	-45.1	-56.2	3.8	8.47e-01	0	58	104	3912237056	60	13208
2026-01-02 05:00:18.45	224.53	4.09	-45.1	-56.2	3.8	8.45e-01	0	58	104	3912237056	60	13235
2026-01-02 05:00:21.48	224.41	3.89	-45.1	-56.2	3.8	8.47e-01	0	58	104	3912237056	60	13255
2026-01-02 05:00:24.51	224.30	3.69	-45.1	-56.2	3.8	8.46e-01	0	58	104	3912237056	60	13132
2026-01-02 05:00:27.54	224.18	3.49	-45.1	-56.2	3.8	8.47e-01	0	58	104	3912237056	60	13157
2026-01-02 05:00:30.58	224.07	3.29	-45.1	-56.2	3.8	8.46e-01	0	58	104	3912237056	60	13175
2026-01-02 05:00:33.61	223.96	3.10	-45.1	-56.2	3.8	8.47e-01	0	58	104	3912237056	60	13215
2026-01-02 05:00:36.64	223.85	2.90	-45.1	-56.2	3.8	8.45e-01	0	58	104	3912237056	60	13201
2026-01-02 05:00:39.68	223.74	2.70	-45.1	-56.2	3.8	8.47e-01	0	58	104	3912237056	60	13213
2026-01-02 05:00:42.71	223.64	2.51	-45.1	-56.2	3.8	8.46e-01	0	58	104	3912237056	60	13143
2026-01-02 05:00:45.74	223.53	2.32	-45.1	-56.2	3.8	8.46e-01	0	58	104	3912237056	60	13260
2026-01-02 05:00:48.78	223.43	2.13	-45.0	-56.2	3.8	8.46e-01	0	58	104	3912237056	60	13165
2026-01-02 05:00:51.81	223.33	1.94	-45.0	-56.2	3.8	8.46e-01	0	58	104	3912237056	60	13205

#Closed at: 2026-01-02 05:00:52
#Recorded file [3912 MB]: D:/lorett/data/31039_260102_074938.dat