passes_logs/2026/01/02/R2.0S_Moscow/R2.0S_Moscow__20260102_232934_NOAA_21_JPSS-2_rec.log

#Pass ID: 20260102_232934_NOAA 21 (JPSS-2)
#Satellite: NOAA 21 (JPSS-2)
#Configuration: NOAA-21
#almurnet v.1.7.20251203
#Start time: 2026-01-02 23:29:36

#Version: 2.2.20231116
#Station: R2.0S_Moscow
#Location: 37.707566 lon 55.798166 lat
#TLE: 1 54234U 22150A   26002.25486487  .00000200  00000+0  11573-3 0  9993
#TLE: 2 54234  98.7485 303.3096 0001220 350.9074   9.2080 14.19531212163006

#Time	Az	El	Level	Level2	SNR	BER	BlckErr	Temp	State	Recorded	gain1	gain2
2026-01-02 23:29:36.90	16.95	2.14	-40.9	-54.0	3.8	1.49e+00	0	48	0	0	53	16207
2026-01-02 23:29:40.94	17.00	2.40	-40.9	-54.0	3.8	1.49e+00	0	48	104	0	53	16157
2026-01-02 23:29:44.98	17.05	2.66	-40.9	-54.0	3.8	1.49e+00	0	48	104	0	53	16205
2026-01-02 23:29:49.03	17.10	2.92	-40.8	-54.0	3.8	1.49e+00	0	49	104	0	53	16202
2026-01-02 23:29:53.07	17.14	3.19	-40.8	-54.0	3.8	1.49e+00	0	49	104	0	53	16164
2026-01-02 23:29:57.12	17.19	3.46	-40.8	-54.0	3.8	1.49e+00	0	50	104	0	53	16204
2026-01-02 23:30:01.16	17.24	3.73	-40.8	-53.9	3.8	1.49e+00	0	50	104	0	53	16116
2026-01-02 23:30:05.20	17.29	4.00	-40.9	-54.0	3.8	1.49e+00	0	50	104	0	53	16143
2026-01-02 23:30:09.25	17.34	4.28	-40.9	-54.0	3.8	1.49e+00	0	50	104	0	53	16183
2026-01-02 23:30:13.29	17.40	4.56	-40.9	-54.0	3.8	1.49e+00	0	50	104	0	53	16163
2026-01-02 23:30:17.34	17.45	4.85	-40.9	-54.0	3.8	1.49e+00	0	51	104	0	53	16165
2026-01-02 23:30:21.38	17.50	5.13	-40.9	-54.0	3.8	1.49e+00	0	51	104	0	53	16177
2026-01-02 23:30:25.42	17.56	5.42	-40.9	-53.9	3.8	1.49e+00	0	51	104	0	53	16093
2026-01-02 23:30:29.47	17.61	5.71	-40.9	-53.8	3.8	1.49e+00	0	51	104	0	53	15880
2026-01-02 23:30:33.51	17.67	6.01	-40.8	-53.9	3.8	1.49e+00	0	51	104	0	53	16054
2026-01-02 23:30:37.55	17.72	6.31	-40.9	-53.9	3.8	1.49e+00	0	52	104	0	53	15955
2026-01-02 23:30:41.60	17.78	6.61	-40.8	-53.9	3.8	1.49e+00	0	52	104	0	53	16069
2026-01-02 23:30:45.64	17.84	6.92	-40.8	-53.3	3.8	1.49e+00	0	52	104	0	53	14985
2026-01-02 23:30:49.69	17.89	7.23	-40.6	-52.0	3.8	1.48e+00	0	52	104	0	53	12863
2026-01-02 23:30:53.73	17.95	7.54	-40.2	-49.1	4.1	8.28e-01	0	52	104	0	52	9795
2026-01-02 23:30:57.77	18.01	7.86	-39.0	-43.8	8.9	3.04e-02	0	53	0	10485760	50	5924
2026-01-02 23:31:01.82	18.08	8.18	-38.3	-40.7	13.9	1.50e-06	0	53	0	23068672	47	4931
2026-01-02 23:31:05.86	18.14	8.51	-37.7	-39.9	14.6	0.00e+00	0	53	0	34603008	47	4517
2026-01-02 23:31:09.90	18.20	8.84	-37.3	-39.0	15.8	0.00e+00	0	53	0	47185920	46	4336
2026-01-02 23:31:13.94	18.26	9.17	-37.4	-39.1	15.8	0.00e+00	0	53	0	59768832	46	4391
2026-01-02 23:31:17.98	18.33	9.51	-37.3	-39.1	15.9	0.00e+00	0	53	0	72351744	46	4354
2026-01-02 23:31:22.02	18.40	9.85	-37.3	-39.0	16.0	0.00e+00	0	54	0	84934656	46	4335
2026-01-02 23:31:26.05	18.46	10.20	-37.3	-39.0	16.1	0.00e+00	0	54	0	97517568	46	4296
2026-01-02 23:31:30.09	18.53	10.55	-37.3	-39.0	16.1	0.00e+00	0	54	0	110100480	46	4340
2026-01-02 23:31:34.13	18.60	10.91	-37.2	-38.9	16.2	0.00e+00	0	54	0	122683392	46	4283
2026-01-02 23:31:38.18	18.67	11.28	-37.1	-38.8	16.3	0.00e+00	0	54	0	135266304	46	4210
2026-01-02 23:31:42.21	18.75	11.64	-37.0	-38.6	16.5	0.00e+00	0	54	0	147849216	45	4366
2026-01-02 23:31:46.26	18.82	12.02	-36.8	-38.4	16.9	0.00e+00	0	54	0	160432128	45	4253
2026-01-02 23:31:50.30	18.90	12.40	-36.8	-38.3	16.9	0.00e+00	0	54	0	173015040	45	4231
2026-01-02 23:31:54.34	18.97	12.79	-36.7	-38.2	17.1	0.00e+00	0	54	0	185597952	45	4184
2026-01-02 23:31:58.38	19.05	13.18	-36.7	-38.2	17.1	0.00e+00	0	54	0	198180864	45	4186
2026-01-02 23:32:02.42	19.13	13.58	-36.6	-38.1	17.2	0.00e+00	0	55	0	210763776	45	4099
2026-01-02 23:32:06.46	19.22	13.98	-36.5	-38.0	17.2	0.00e+00	0	54	0	223346688	45	4090
2026-01-02 23:32:10.50	19.30	14.40	-36.5	-38.0	17.3	0.00e+00	0	55	0	235929600	45	4061
2026-01-02 23:32:14.54	19.39	14.82	-36.5	-37.9	17.4	0.00e+00	0	54	0	248512512	44	4285
2026-01-02 23:32:18.58	19.47	15.24	-36.5	-38.0	17.4	0.00e+00	0	55	0	261095424	44	4293
2026-01-02 23:32:22.63	19.56	15.68	-36.4	-37.9	17.6	0.00e+00	0	55	0	273678336	44	4250
2026-01-02 23:32:26.67	19.66	16.12	-36.3	-37.7	17.7	0.00e+00	0	55	0	286261248	44	4192
2026-01-02 23:32:30.71	19.75	16.57	-36.3	-37.7	17.8	0.00e+00	0	55	0	299892736	44	4170
2026-01-02 23:32:34.75	19.85	17.03	-36.2	-37.6	17.8	0.00e+00	0	55	0	311427072	44	4129
2026-01-02 23:32:38.79	19.95	17.50	-36.2	-37.6	17.8	0.00e+00	0	55	0	324009984	44	4143
2026-01-02 23:32:42.82	20.05	17.98	-36.3	-37.7	17.8	0.00e+00	0	55	0	337641472	44	4148
2026-01-02 23:32:46.87	20.15	18.47	-36.3	-37.7	17.8	0.00e+00	0	55	0	350224384	44	4176
2026-01-02 23:32:50.90	20.26	18.96	-36.4	-37.8	17.8	0.00e+00	0	55	0	362807296	44	4226
2026-01-02 23:32:54.95	20.37	19.47	-36.3	-37.7	17.8	0.00e+00	0	55	0	375390208	44	4175
2026-01-02 23:32:58.99	20.49	19.98	-36.2	-37.6	18.0	0.00e+00	0	55	0	387973120	44	4131
2026-01-02 23:33:03.03	20.60	20.51	-36.1	-37.4	18.2	0.00e+00	0	55	0	400556032	44	4034
2026-01-02 23:33:07.07	20.72	21.05	-35.6	-36.9	18.5	0.00e+00	0	56	0	413138944	43	4042
2026-01-02 23:33:11.11	20.85	21.60	-35.3	-36.6	18.8	0.00e+00	0	55	0	425721856	42	4120
2026-01-02 23:33:15.15	20.98	22.17	-35.2	-36.4	19.0	0.00e+00	0	56	0	438304768	42	4035
2026-01-02 23:33:19.19	21.11	22.74	-35.1	-36.4	19.0	0.00e+00	0	56	0	450887680	42	4020
2026-01-02 23:33:23.23	21.25	23.33	-35.1	-36.4	19.1	0.00e+00	0	55	0	463470592	42	4006
2026-01-02 23:33:27.27	21.39	23.93	-35.1	-36.4	19.1	0.00e+00	0	56	0	476053504	42	4021
2026-01-02 23:33:31.31	21.54	24.55	-35.1	-36.3	19.2	0.00e+00	0	56	0	488636416	42	3980
2026-01-02 23:33:35.35	21.69	25.18	-35.1	-36.3	19.1	0.00e+00	0	56	0	501219328	42	4004
2026-01-02 23:33:39.38	21.85	25.83	-35.4	-36.6	18.9	0.00e+00	0	56	0	513802240	42	4133
2026-01-02 23:33:43.42	22.01	26.49	-35.9	-37.2	18.3	0.00e+00	0	56	0	526385152	42	4417
2026-01-02 23:33:47.46	22.18	27.17	-36.4	-37.7	17.8	0.00e+00	0	56	0	538968064	43	4439
2026-01-02 23:33:51.50	22.36	27.86	-36.6	-38.0	17.5	0.00e+00	0	56	0	551550976	43	4588
2026-01-02 23:33:55.54	22.54	28.58	-36.3	-37.7	17.9	0.00e+00	0	56	0	564133888	43	4422
2026-01-02 23:33:59.58	22.73	29.31	-36.0	-37.4	18.2	0.00e+00	0	56	0	576716800	43	4243
2026-01-02 23:34:03.62	22.93	30.06	-35.9	-37.2	18.4	0.00e+00	0	56	0	589299712	43	4163
2026-01-02 23:34:07.67	23.14	30.84	-35.9	-37.2	18.3	0.00e+00	0	56	0	601882624	43	4180
2026-01-02 23:34:11.71	23.36	31.63	-35.9	-37.3	18.3	0.00e+00	0	56	0	615514112	43	4205
2026-01-02 23:34:15.75	23.59	32.44	-35.9	-37.2	18.3	0.00e+00	0	56	0	627048448	43	4188
2026-01-02 23:34:19.79	23.83	33.28	-36.2	-37.5	18.1	0.00e+00	0	56	0	640679936	43	4327
2026-01-02 23:34:23.84	24.08	34.14	-36.5	-37.9	17.8	0.00e+00	0	56	0	653262848	43	4513
2026-01-02 23:34:27.88	24.35	35.03	-37.4	-38.9	16.9	0.00e+00	0	56	0	665845760	45	4526
2026-01-02 23:34:31.92	24.63	35.94	-37.9	-39.5	16.4	0.00e+00	0	56	0	678428672	46	4590
2026-01-02 23:34:35.96	24.92	36.87	-38.9	-40.8	15.2	0.00e+00	0	56	0	691011584	48	4753
2026-01-02 23:34:40.00	25.23	37.83	-39.1	-41.1	15.0	7.00e-07	0	56	0	703594496	48	4874
2026-01-02 23:34:44.04	25.56	38.82	-38.5	-40.3	15.7	0.00e+00	0	56	0	716177408	48	4485
2026-01-02 23:34:48.08	25.91	39.84	-38.5	-40.2	15.8	0.00e+00	0	56	0	728760320	48	4435
2026-01-02 23:34:52.12	26.28	40.89	-38.4	-40.1	16.0	0.00e+00	0	56	0	741343232	48	4364
2026-01-02 23:34:56.16	26.68	41.96	-38.8	-40.6	15.5	0.00e+00	0	56	0	753926144	48	4625
2026-01-02 23:35:00.21	27.10	43.07	-38.9	-40.8	15.2	0.00e+00	0	57	0	766509056	48	4734
2026-01-02 23:35:04.25	27.55	44.21	-38.3	-40.0	16.0	0.00e+00	0	56	0	779091968	48	4336
2026-01-02 23:35:08.29	28.04	45.39	-38.3	-40.0	16.0	0.00e+00	0	57	0	791674880	48	4304
2026-01-02 23:35:12.33	28.56	46.59	-38.4	-40.1	16.0	0.00e+00	0	57	0	804257792	48	4347
2026-01-02 23:35:16.37	29.12	47.83	-37.7	-39.2	16.7	0.00e+00	0	57	0	816840704	47	4189
2026-01-02 23:35:20.41	29.73	49.11	-37.0	-38.5	17.4	0.00e+00	0	57	0	829423616	46	4065
2026-01-02 23:35:24.44	30.39	50.41	-37.6	-39.1	16.8	0.00e+00	0	57	0	842006528	46	4383
2026-01-02 23:35:28.49	31.11	51.75	-37.9	-39.5	16.4	0.00e+00	0	57	0	854589440	46	4591
2026-01-02 23:35:32.53	31.89	53.13	-37.8	-39.4	16.6	0.00e+00	0	57	0	867172352	46	4531
2026-01-02 23:35:36.57	32.76	54.54	-36.9	-38.3	17.5	0.00e+00	0	57	0	879755264	45	4223
2026-01-02 23:35:40.61	33.71	55.98	-36.7	-38.1	17.7	0.00e+00	0	57	0	892338176	45	4126
2026-01-02 23:35:44.65	34.77	57.45	-36.2	-37.5	18.2	0.00e+00	0	57	0	905969664	44	4090
2026-01-02 23:35:48.70	35.95	58.95	-35.5	-36.8	18.8	0.00e+00	0	57	0	917504000	42	4201
2026-01-02 23:35:52.74	37.27	60.48	-35.4	-36.6	18.9	0.00e+00	0	57	0	931135488	42	4124
2026-01-02 23:35:56.78	38.75	62.02	-35.5	-36.8	18.9	0.00e+00	0	56	0	943718400	42	4200
2026-01-02 23:36:00.82	40.44	63.59	-34.9	-36.1	19.4	0.00e+00	0	57	0	956301312	41	4123
2026-01-02 23:36:04.86	42.36	65.17	-34.6	-35.7	19.8	0.00e+00	0	57	0	968884224	41	3952
2026-01-02 23:36:08.89	44.58	66.74	-34.3	-35.4	20.0	0.00e+00	0	57	0	981467136	40	4046
2026-01-02 23:36:12.93	47.15	68.32	-34.6	-35.7	19.8	0.00e+00	0	57	0	994050048	40	4185
2026-01-02 23:36:16.98	50.16	69.88	-34.5	-35.6	19.8	0.00e+00	0	57	0	1006632960	40	4144
2026-01-02 23:36:21.01	53.69	71.40	-34.1	-35.2	20.2	0.00e+00	0	57	0	1019215872	40	3914
2026-01-02 23:36:25.05	57.88	72.86	-34.5	-35.7	19.8	0.00e+00	0	57	0	1031798784	39	4405
2026-01-02 23:36:29.10	62.89	74.24	-34.7	-35.9	19.5	0.00e+00	0	57	0	1044381696	40	4273
2026-01-02 23:36:33.14	68.83	75.50	-34.7	-35.9	19.5	0.00e+00	0	57	0	1056964608	40	4252
2026-01-02 23:36:37.18	75.86	76.59	-34.8	-36.0	19.3	0.00e+00	0	57	0	1069547520	40	4321
2026-01-02 23:36:41.22	84.02	77.45	-35.2	-36.5	18.8	0.00e+00	0	57	0	1082130432	41	4312
2026-01-02 23:36:45.26	93.22	78.04	-34.5	-35.7	19.5	0.00e+00	0	57	0	1094713344	41	3936
2026-01-02 23:36:49.30	103.12	78.31	-34.6	-35.8	19.5	0.00e+00	0	57	0	1107296256	40	4216
2026-01-02 23:36:53.34	113.17	78.23	-34.0	-35.1	20.3	0.00e+00	0	57	0	1119879168	39	4116
2026-01-02 23:36:57.38	122.79	77.80	-34.3	-35.4	19.7	0.00e+00	0	57	0	1132462080	39	4288
2026-01-02 23:37:01.42	131.53	77.07	-34.6	-35.7	19.6	0.00e+00	0	57	0	1145044992	40	4190
2026-01-02 23:37:05.46	139.15	76.09	-34.3	-35.4	19.8	0.00e+00	0	57	0	1157627904	39	4277
2026-01-02 23:37:09.50	145.65	74.91	-34.8	-36.0	19.3	0.00e+00	0	57	0	1170210816	40	4335
2026-01-02 23:37:13.54	151.13	73.59	-35.0	-36.2	19.1	0.00e+00	0	57	0	1182793728	41	4179
2026-01-02 23:37:17.58	155.72	72.16	-34.2	-35.3	19.5	0.00e+00	0	57	0	1195376640	39	4230
2026-01-02 23:37:21.62	159.59	70.67	-34.2	-35.3	20.0	0.00e+00	0	57	0	1207959552	40	3972
2026-01-02 23:37:25.66	162.86	69.12	-34.9	-36.1	19.3	0.00e+00	0	57	0	1221591040	40	4379
2026-01-02 23:37:29.70	165.65	67.55	-33.9	-35.0	20.4	0.00e+00	0	57	0	1234173952	39	4085
2026-01-02 23:37:33.74	168.04	65.97	-35.1	-36.3	19.2	0.00e+00	0	57	0	1246756864	40	4464
2026-01-02 23:37:37.79	170.12	64.38	-33.9	-35.0	20.4	0.00e+00	0	57	0	1259339776	39	4064
2026-01-02 23:37:41.83	171.92	62.80	-35.6	-36.9	18.3	0.00e+00	0	57	0	1271922688	43	4044
2026-01-02 23:37:45.87	173.51	61.24	-34.7	-35.8	19.6	0.00e+00	0	57	0	1284505600	40	4239
2026-01-02 23:37:49.90	174.91	59.70	-36.5	-37.9	17.6	0.00e+00	0	57	0	1297088512	45	4008
2026-01-02 23:37:53.95	176.16	58.18	-35.2	-36.4	19.0	0.00e+00	0	57	0	1309671424	40	4519
2026-01-02 23:37:57.99	177.27	56.69	-39.0	-40.9	15.0	0.00e+00	0	57	0	1322254336	48	4810
2026-01-02 23:38:02.03	178.28	55.23	-35.5	-36.7	18.5	0.00e+00	0	57	0	1334837248	43	3955
2026-01-02 23:38:06.06	179.18	53.80	-36.6	-38.0	17.4	0.00e+00	0	57	0	1347420160	43	4560
2026-01-02 23:38:10.10	180.01	52.40	-38.1	-39.8	16.0	0.00e+00	0	57	0	1360003072	46	4721
2026-01-02 23:38:14.14	180.76	51.04	-36.9	-38.3	17.5	0.00e+00	0	57	0	1372585984	45	4209
2026-01-02 23:38:18.18	181.45	49.71	-38.1	-39.7	16.1	0.00e+00	0	57	0	1385168896	46	4697
2026-01-02 23:38:22.21	182.08	48.42	-38.3	-40.0	15.8	0.00e+00	0	57	0	1397751808	47	4598
2026-01-02 23:38:26.26	182.67	47.15	-37.7	-39.3	16.4	0.00e+00	0	57	0	1410334720	47	4205
2026-01-02 23:38:30.30	183.21	45.93	-38.7	-40.6	15.2	0.00e+00	0	57	0	1422917632	47	4879
2026-01-02 23:38:34.33	183.71	44.73	-39.6	-41.8	14.1	2.20e-06	0	57	0	1435500544	50	4748
2026-01-02 23:38:38.37	184.18	43.57	-38.4	-40.1	15.7	0.00e+00	0	57	0	1448083456	48	4390
2026-01-02 23:38:42.41	184.61	42.44	-38.3	-40.1	15.7	0.00e+00	0	57	0	1460666368	48	4344
2026-01-02 23:38:46.45	185.02	41.35	-37.5	-39.0	16.7	0.00e+00	0	57	0	1473249280	46	4326
2026-01-02 23:38:50.49	185.40	40.28	-38.4	-40.2	15.6	0.00e+00	0	57	0	1485832192	47	4675
2026-01-02 23:38:54.53	185.76	39.24	-38.2	-39.9	15.8	0.00e+00	0	57	0	1498415104	47	4516
2026-01-02 23:38:58.57	186.10	38.23	-37.4	-38.9	16.8	0.00e+00	0	57	0	1510998016	46	4277
2026-01-02 23:39:02.62	186.42	37.25	-37.8	-39.4	16.3	0.00e+00	0	57	0	1523580928	46	4521
2026-01-02 23:39:06.66	186.72	36.30	-37.2	-38.7	16.7	0.00e+00	0	57	0	1537212416	46	4185
2026-01-02 23:39:10.70	187.01	35.37	-37.0	-38.5	17.0	0.00e+00	0	57	0	1549795328	46	4090
2026-01-02 23:39:14.74	187.28	34.47	-37.4	-38.9	16.7	0.00e+00	0	57	0	1562378240	46	4291
2026-01-02 23:39:18.79	187.53	33.60	-36.8	-38.2	17.4	0.00e+00	0	57	0	1574961152	45	4173
2026-01-02 23:39:22.83	187.78	32.74	-35.8	-37.1	18.4	0.00e+00	0	57	0	1587544064	43	4110
2026-01-02 23:39:26.87	188.01	31.92	-35.8	-37.0	18.4	0.00e+00	0	57	0	1600126976	43	4093
2026-01-02 23:39:30.91	188.23	31.11	-36.1	-37.4	18.0	0.00e+00	0	57	0	1612709888	43	4271
2026-01-02 23:39:34.95	188.44	30.32	-35.9	-37.2	18.2	0.00e+00	0	57	0	1625292800	43	4165
2026-01-02 23:39:38.99	188.65	29.56	-36.3	-37.8	17.7	0.00e+00	0	57	0	1637875712	43	4453
2026-01-02 23:39:43.02	188.84	28.82	-36.7	-38.2	17.2	0.00e+00	0	57	0	1650458624	43	4675
2026-01-02 23:39:47.07	189.03	28.09	-37.0	-38.6	17.0	0.00e+00	0	57	0	1663041536	44	4628
2026-01-02 23:39:51.11	189.21	27.38	-36.9	-38.4	17.1	0.00e+00	0	57	0	1675624448	44	4533
2026-01-02 23:39:55.15	189.38	26.69	-36.4	-37.8	17.6	0.00e+00	0	58	0	1688207360	44	4224
2026-01-02 23:39:59.18	189.54	26.02	-35.6	-36.9	18.3	0.00e+00	0	57	0	1700790272	43	4037
2026-01-02 23:40:03.22	189.70	25.36	-35.3	-36.5	18.7	0.00e+00	0	57	0	1713373184	42	4093
2026-01-02 23:40:07.26	189.85	24.72	-35.2	-36.4	18.8	0.00e+00	0	57	0	1725956096	42	4026
2026-01-02 23:40:11.30	190.00	24.09	-35.5	-36.8	18.4	0.00e+00	0	57	0	1738539008	42	4220
2026-01-02 23:40:15.34	190.14	23.48	-35.6	-36.9	18.4	0.00e+00	0	57	0	1751121920	42	4281
2026-01-02 23:40:19.38	190.28	22.88	-35.4	-36.6	18.6	0.00e+00	0	57	0	1763704832	42	4139
2026-01-02 23:40:23.42	190.41	22.30	-35.2	-36.4	18.9	0.00e+00	0	57	0	1776287744	42	4051
2026-01-02 23:40:27.46	190.54	21.73	-35.3	-36.5	18.8	0.00e+00	0	57	0	1788870656	42	4096
2026-01-02 23:40:31.50	190.66	21.17	-35.6	-36.9	18.5	0.00e+00	0	57	0	1801453568	42	4249
2026-01-02 23:40:35.54	190.78	20.62	-35.8	-37.1	18.2	0.00e+00	0	57	0	1814036480	42	4381
2026-01-02 23:40:39.58	190.90	20.09	-36.0	-37.3	18.0	0.00e+00	0	57	0	1826619392	42	4491
2026-01-02 23:40:43.62	191.01	19.56	-36.0	-37.4	17.9	0.00e+00	0	57	0	1839202304	42	4500
2026-01-02 23:40:47.66	191.12	19.05	-35.9	-37.3	18.0	0.00e+00	0	57	0	1852833792	42	4455
2026-01-02 23:40:51.71	191.23	18.54	-35.9	-37.2	18.1	0.00e+00	0	57	0	1865416704	42	4424
2026-01-02 23:40:55.75	191.33	18.05	-35.9	-37.2	18.0	0.00e+00	0	57	0	1877999616	42	4416
2026-01-02 23:40:59.78	191.43	17.57	-36.0	-37.3	18.0	0.00e+00	0	57	0	1890582528	42	4486
2026-01-02 23:41:03.82	191.53	17.09	-36.0	-37.4	17.9	0.00e+00	0	58	0	1903165440	42	4523
2026-01-02 23:41:07.87	191.62	16.63	-36.2	-37.6	17.7	0.00e+00	0	57	0	1915748352	42	4615
2026-01-02 23:41:11.91	191.72	16.17	-36.3	-37.7	17.5	0.00e+00	0	57	0	1928331264	43	4434
2026-01-02 23:41:15.95	191.81	15.72	-36.3	-37.8	17.5	0.00e+00	0	57	0	1940914176	43	4452
2026-01-02 23:41:19.99	191.89	15.28	-36.4	-37.9	17.4	0.00e+00	0	57	0	1953497088	43	4494
2026-01-02 23:41:24.02	191.98	14.85	-36.4	-37.8	17.4	0.00e+00	0	58	0	1966080000	43	4489
2026-01-02 23:41:28.07	192.06	14.43	-36.4	-37.9	17.3	0.00e+00	0	58	0	1978662912	43	4532
2026-01-02 23:41:32.11	192.15	14.01	-36.5	-38.0	17.2	0.00e+00	0	57	0	1991245824	43	4563
2026-01-02 23:41:36.15	192.22	13.60	-36.5	-38.0	17.2	0.00e+00	0	57	0	2003828736	43	4563
2026-01-02 23:41:40.20	192.30	13.19	-36.6	-38.0	17.1	0.00e+00	0	57	0	2016411648	43	4596
2026-01-02 23:41:44.24	192.38	12.80	-36.5	-38.0	17.1	0.00e+00	0	57	0	2028994560	43	4578
2026-01-02 23:41:48.28	192.45	12.41	-36.6	-38.1	17.1	0.00e+00	0	57	0	2041577472	43	4600
2026-01-02 23:41:52.32	192.53	12.02	-36.5	-38.0	17.1	0.00e+00	0	57	0	2054160384	43	4574
2026-01-02 23:41:56.37	192.60	11.64	-36.5	-38.0	17.1	0.00e+00	0	57	0	2066743296	43	4562
2026-01-02 23:42:00.41	192.67	11.27	-36.5	-38.0	17.1	0.00e+00	0	57	0	2079326208	43	4560
2026-01-02 23:42:04.45	192.73	10.90	-36.5	-38.0	17.0	0.00e+00	0	58	0	2091909120	43	4590
2026-01-02 23:42:08.49	192.80	10.54	-36.6	-38.1	16.9	0.00e+00	0	57	0	2104492032	43	4647
2026-01-02 23:42:12.53	192.87	10.18	-36.6	-38.2	16.8	0.00e+00	0	57	0	2117074944	43	4652
2026-01-02 23:42:16.57	192.93	9.83	-36.9	-38.5	16.6	0.00e+00	0	57	0	2129657856	44	4566
2026-01-02 23:42:20.61	192.99	9.48	-37.0	-38.6	16.5	0.00e+00	0	57	0	2143289344	44	4628
2026-01-02 23:42:24.65	193.06	9.14	-37.2	-38.8	16.3	0.00e+00	0	58	0	2155872256	44	4729
2026-01-02 23:42:28.69	193.12	8.80	-37.3	-39.0	16.1	0.00e+00	0	57	0	2168455168	45	4549
2026-01-02 23:42:32.73	193.18	8.47	-37.4	-39.2	15.9	0.00e+00	0	57	0	2181038080	45	4654
2026-01-02 23:42:36.77	193.23	8.14	-37.6	-39.3	15.6	0.00e+00	0	57	0	2193620992	45	4758
2026-01-02 23:42:40.81	193.29	7.82	-44.7	-57.1	3.8	1.49e+00	0	57	104	2198863872	60	15449
2026-01-02 23:42:44.86	193.35	7.50	-45.1	-57.4	3.8	1.49e+00	0	57	104	2198863872	60	15991
2026-01-02 23:42:48.90	193.40	7.18	-45.0	-57.4	3.8	1.49e+00	0	58	104	2198863872	60	15973
2026-01-02 23:42:52.94	193.46	6.87	-45.0	-57.3	3.8	1.49e+00	0	57	104	2198863872	60	15775
2026-01-02 23:42:56.98	193.51	6.56	-44.9	-57.3	3.8	1.49e+00	0	58	104	2198863872	60	15765
2026-01-02 23:43:01.03	193.56	6.25	-44.9	-57.2	3.8	1.49e+00	0	58	104	2198863872	60	15728
2026-01-02 23:43:05.07	193.61	5.95	-44.9	-57.2	3.8	1.49e+00	0	58	104	2198863872	60	15709
2026-01-02 23:43:09.12	193.66	5.65	-44.9	-57.2	3.8	1.49e+00	0	57	104	2198863872	60	15698
2026-01-02 23:43:13.16	193.71	5.36	-44.9	-57.2	3.8	1.49e+00	0	58	104	2198863872	60	15677
2026-01-02 23:43:17.20	193.76	5.07	-44.9	-57.2	3.8	1.49e+00	0	58	104	2198863872	60	15710
2026-01-02 23:43:21.25	193.81	4.78	-44.9	-57.2	3.8	1.49e+00	0	58	104	2198863872	60	15660
2026-01-02 23:43:25.29	193.86	4.49	-44.9	-57.2	3.8	1.49e+00	0	58	104	2198863872	60	15712
2026-01-02 23:43:29.33	193.91	4.21	-44.9	-57.2	3.8	1.49e+00	0	58	104	2198863872	60	15638
2026-01-02 23:43:33.38	193.95	3.93	-44.9	-57.2	3.8	1.49e+00	0	58	104	2198863872	60	15672
2026-01-02 23:43:37.42	194.00	3.65	-44.9	-57.2	3.8	1.49e+00	0	58	104	2198863872	60	15627
2026-01-02 23:43:41.47	194.04	3.38	-44.9	-57.1	3.8	1.49e+00	0	58	104	2198863872	60	15576
2026-01-02 23:43:45.51	194.09	3.11	-44.9	-57.1	3.8	1.49e+00	0	58	104	2198863872	60	15574
2026-01-02 23:43:49.56	194.13	2.84	-44.9	-57.2	3.8	1.49e+00	0	58	104	2198863872	60	15631
2026-01-02 23:43:53.60	194.17	2.57	-44.9	-57.2	3.8	1.49e+00	0	58	104	2198863872	60	15654
2026-01-02 23:43:57.64	194.22	2.31	-44.9	-57.1	3.8	1.49e+00	0	58	104	2198863872	60	15573
2026-01-02 23:44:01.69	194.26	2.05	-44.9	-57.2	3.8	1.49e+00	0	58	104	2198863872	60	15627

#Closed at: 2026-01-02 23:44:03
#Recorded file [2198 MB]: D:/lorett/data/31039_260103_022936.dat