passes_logs/2026/01/02/R2.0S_Moscow/R2.0S_Moscow__20260102_111009_FENGYUN_3D_rec.log

#Pass ID: 20260102_111009_FENGYUN 3D
#Satellite: FENGYUN 3D
#Configuration: FENGYUN 3D
#almurnet v.1.7.20251203
#Start time: 2026-01-02 11:10:08

#Version: 2.2.20231116
#Station: R2.0S_Moscow
#Location: 37.707566 lon 55.798166 lat
#TLE: 1 43010U 17072A   26001.33100487  .00000602  00000+0  30664-3 0  9999
#TLE: 2 43010  98.9910 332.9374 0001848 133.1047 227.0283 14.19692078421319

#Time	Az	El	Level	Level2	SNR	BER	BlckErr	Temp	State	Recorded	gain1	gain2
2026-01-02 11:10:08.93	138.07	1.96	-32.1	-44.8	4.6	8.42e-01	0	47	0	0	27	25177
2026-01-02 11:10:12.96	137.94	2.22	-30.8	-45.6	4.0	8.24e-01	0	48	104	0	30	23137
2026-01-02 11:10:17.00	137.82	2.47	-21.0	-32.4	3.6	8.16e-01	0	48	104	0	18	10172
2026-01-02 11:10:21.05	137.69	2.73	-24.9	-40.5	3.8	8.10e-01	0	48	104	0	20	23037
2026-01-02 11:10:25.09	137.56	2.99	-26.5	-44.2	4.1	8.27e-01	0	49	104	0	27	23324
2026-01-02 11:10:29.13	137.42	3.26	-30.3	-39.8	3.9	8.04e-01	0	49	104	0	18	23832
2026-01-02 11:10:33.18	137.28	3.52	-31.6	-45.6	4.1	8.15e-01	0	49	104	0	34	18415
2026-01-02 11:10:37.22	137.14	3.79	-29.2	-41.7	3.5	8.08e-01	0	50	104	0	23	22105
2026-01-02 11:10:41.27	137.00	4.06	-32.2	-44.9	4.0	8.07e-01	0	50	104	0	28	23877
2026-01-02 11:10:45.31	136.85	4.33	-11.6	-39.0	4.1	8.19e-01	0	50	104	0	2	54247
2026-01-02 11:10:49.35	136.71	4.61	-16.3	-36.0	3.5	8.16e-01	0	50	104	0	3	36287
2026-01-02 11:10:53.40	136.55	4.89	-28.0	-41.4	3.9	8.22e-01	0	51	104	0	29	15118
2026-01-02 11:10:57.44	136.40	5.17	-21.5	-35.4	3.7	8.15e-01	0	51	104	0	10	22733
2026-01-02 11:11:01.47	136.24	5.45	-31.0	-42.8	4.5	8.09e-01	0	51	104	0	27	20065
2026-01-02 11:11:05.51	136.08	5.74	-22.8	-42.3	4.6	8.08e-01	0	51	104	0	29	16848
2026-01-02 11:11:09.56	135.92	6.03	-32.1	-37.4	3.5	8.08e-01	0	51	104	0	5	37850
2026-01-02 11:11:13.60	135.75	6.32	-21.3	-32.4	3.5	8.25e-01	0	52	104	0	12	14367
2026-01-02 11:11:17.65	135.58	6.62	-32.0	-45.9	4.3	8.02e-01	0	52	104	0	30	23930
2026-01-02 11:11:21.69	135.40	6.92	-32.3	-45.1	4.2	8.14e-01	0	52	104	0	26	27580
2026-01-02 11:11:25.74	135.22	7.22	-33.7	-45.7	3.9	8.19e-01	0	52	104	0	18	46939
2026-01-02 11:11:29.78	135.04	7.53	-24.3	-42.2	4.3	8.25e-01	0	52	104	0	31	14750
2026-01-02 11:11:33.83	134.85	7.84	-29.2	-46.0	4.4	8.23e-01	0	53	104	0	29	25725
2026-01-02 11:11:37.86	134.66	8.15	-23.2	-38.5	4.4	8.10e-01	0	53	104	0	16	22954
2026-01-02 11:11:41.90	134.46	8.46	-18.8	-30.2	3.5	7.98e-01	0	53	104	0	12	11149
2026-01-02 11:11:45.95	134.26	8.78	-14.1	-33.7	3.7	8.26e-01	0	53	104	0	1	31119
2026-01-02 11:11:49.98	134.06	9.11	-12.0	-27.7	3.2	8.10e-01	0	53	104	0	1	15651
2026-01-02 11:11:54.02	133.85	9.43	-28.8	-41.6	4.1	7.88e-01	0	53	104	0	21	24638
2026-01-02 11:11:58.06	133.63	9.76	-23.1	-34.3	3.3	8.12e-01	0	53	104	0	8	22319
2026-01-02 11:12:02.11	133.41	10.10	-13.8	-34.0	3.5	7.99e-01	0	53	104	0	9	20370
2026-01-02 11:12:06.15	133.18	10.44	-20.2	-35.7	3.6	8.05e-01	0	53	104	0	13	19703
2026-01-02 11:12:10.19	132.95	10.78	-15.7	-32.4	4.1	8.24e-01	0	53	104	0	5	21403
2026-01-02 11:12:14.23	132.72	11.13	-24.4	-33.2	5.0	8.26e-01	0	54	104	0	12	15694
2026-01-02 11:12:18.27	132.47	11.49	-22.2	-32.6	4.9	8.15e-01	0	54	104	0	14	13009
2026-01-02 11:12:22.31	132.22	11.84	-23.9	-34.1	4.9	8.09e-01	0	54	104	0	20	11023
2026-01-02 11:12:26.35	131.97	12.20	-24.6	-32.9	4.5	8.41e-01	0	54	104	0	10	16969
2026-01-02 11:12:30.39	131.71	12.57	-21.5	-32.9	5.0	8.22e-01	0	54	104	0	19	10132
2026-01-02 11:12:34.43	131.44	12.94	-25.7	-34.2	5.2	8.09e-01	0	54	104	0	22	9867
2026-01-02 11:12:38.47	131.16	13.32	-26.3	-34.4	5.3	8.21e-01	0	54	104	0	20	11413
2026-01-02 11:12:42.51	130.88	13.70	-19.2	-28.3	4.2	8.18e-01	0	54	104	0	21	5288
2026-01-02 11:12:46.55	130.58	14.09	-20.1	-30.1	4.5	8.09e-01	0	55	104	0	22	6191
2026-01-02 11:12:50.59	130.29	14.48	-30.5	-35.5	5.5	8.35e-01	0	55	104	0	21	12124
2026-01-02 11:12:54.63	129.98	14.88	-32.8	-35.3	8.0	2.65e-01	0	55	0	7340032	29	7464
2026-01-02 11:12:58.67	129.66	15.29	-21.9	-32.0	5.3	3.49e-01	0	55	0	14680064	20	8575
2026-01-02 11:13:02.70	129.34	15.70	-33.8	-35.4	16.4	1.01e-01	0	55	0	32505856	38	4527
2026-01-02 11:13:06.74	129.00	16.11	-33.4	-35.4	17.5	2.19e-02	0	55	0	53477376	38	4505
2026-01-02 11:13:10.78	128.66	16.54	-33.9	-35.3	17.9	1.47e-03	0	55	0	75497472	38	4489
2026-01-02 11:13:14.82	128.30	16.96	-33.7	-35.1	18.8	4.16e-04	0	55	0	97517568	38	4376
2026-01-02 11:13:18.85	127.94	17.40	-33.3	-34.6	19.4	2.80e-04	0	55	0	120586240	37	4349
2026-01-02 11:13:22.90	127.56	17.84	-33.2	-34.5	19.3	1.48e-05	0	55	0	143654912	37	4337
2026-01-02 11:13:26.94	127.17	18.29	-33.2	-34.5	19.3	0.00e+00	0	55	0	165675008	37	4318
2026-01-02 11:13:30.98	126.77	18.75	-32.3	-33.7	19.5	1.60e-05	0	56	0	188743680	35	4396
2026-01-02 11:13:35.02	126.36	19.21	-32.2	-33.5	19.7	0.00e+00	0	55	0	211812352	35	4301
2026-01-02 11:13:39.06	125.93	19.68	-32.0	-33.3	19.9	0.00e+00	0	55	0	233832448	35	4213
2026-01-02 11:13:43.10	125.49	20.16	-31.9	-33.2	20.0	0.00e+00	0	56	0	256901120	35	4167
2026-01-02 11:13:47.14	125.04	20.64	-32.0	-33.3	19.9	1.10e-06	0	55	0	279969792	35	4231
2026-01-02 11:13:51.18	124.57	21.13	-31.9	-33.2	20.0	0.00e+00	0	55	0	301989888	35	4174
2026-01-02 11:13:55.22	124.09	21.63	-31.7	-33.0	20.2	0.00e+00	0	55	0	325058560	35	4077
2026-01-02 11:13:59.25	123.59	22.14	-31.8	-33.1	20.1	0.00e+00	0	56	0	348127232	35	4117
2026-01-02 11:14:03.30	123.07	22.65	-31.9	-33.2	20.0	0.00e+00	0	55	0	370147328	35	4166
2026-01-02 11:14:07.33	122.54	23.18	-31.6	-32.9	20.3	0.00e+00	0	56	0	393216000	35	4035
2026-01-02 11:14:11.37	121.98	23.71	-31.4	-32.6	20.6	0.00e+00	0	56	0	416284672	34	4122
2026-01-02 11:14:15.41	121.41	24.25	-31.3	-32.6	20.6	0.00e+00	0	56	0	438304768	34	4101
2026-01-02 11:14:19.45	120.82	24.79	-31.4	-32.7	20.5	0.00e+00	0	56	0	461373440	34	4156
2026-01-02 11:14:23.49	120.20	25.35	-31.2	-32.4	20.7	0.00e+00	0	56	0	484442112	34	4046
2026-01-02 11:14:27.53	119.56	25.91	-31.1	-32.3	20.7	0.00e+00	0	56	0	507510784	34	3996
2026-01-02 11:14:31.57	118.90	26.48	-31.1	-32.3	20.8	0.00e+00	0	56	0	529530880	34	3990
2026-01-02 11:14:35.61	118.22	27.06	-31.0	-32.3	20.8	0.00e+00	0	56	0	552599552	34	3961
2026-01-02 11:14:39.65	117.51	27.65	-30.8	-32.1	20.9	0.00e+00	0	56	0	574619648	33	4106
2026-01-02 11:14:43.68	116.77	28.24	-30.7	-32.0	21.1	0.00e+00	0	56	0	597688320	33	4052
2026-01-02 11:14:47.72	116.00	28.84	-30.7	-31.9	21.1	0.00e+00	0	56	0	620756992	33	4043
2026-01-02 11:14:51.76	115.21	29.45	-31.0	-32.2	20.9	0.00e+00	0	56	0	642777088	33	4157
2026-01-02 11:14:55.80	114.38	30.06	-30.8	-32.0	21.2	0.00e+00	0	56	0	665845760	33	4064
2026-01-02 11:14:59.84	113.52	30.68	-30.7	-31.9	21.2	0.00e+00	0	56	0	688914432	33	4040
2026-01-02 11:15:03.88	112.63	31.31	-31.0	-32.3	20.8	0.00e+00	0	56	0	710934528	33	4218
2026-01-02 11:15:07.92	111.70	31.94	-30.6	-31.8	21.2	0.00e+00	0	56	0	734003200	33	4002
2026-01-02 11:15:11.96	110.73	32.58	-30.5	-31.7	21.3	0.00e+00	0	56	0	757071872	33	3957
2026-01-02 11:15:16.01	109.72	33.22	-30.5	-31.7	21.4	0.00e+00	0	56	0	779091968	32	4171
2026-01-02 11:15:20.05	108.67	33.87	-30.6	-31.8	21.3	0.00e+00	0	56	0	802160640	32	4203
2026-01-02 11:15:24.09	107.58	34.51	-30.6	-31.8	21.2	0.00e+00	0	56	0	825229312	32	4211
2026-01-02 11:15:28.13	106.45	35.16	-30.6	-31.8	21.3	0.00e+00	0	56	0	848297984	32	4207
2026-01-02 11:15:32.18	105.26	35.81	-30.6	-31.8	21.3	0.00e+00	0	56	0	870318080	32	4203
2026-01-02 11:15:36.21	104.04	36.45	-30.5	-31.7	21.4	0.00e+00	0	57	0	893386752	32	4167
2026-01-02 11:15:40.25	102.76	37.09	-30.6	-31.8	21.3	0.00e+00	0	56	0	915406848	32	4198
2026-01-02 11:15:44.29	101.43	37.73	-30.9	-32.1	21.0	0.00e+00	0	56	0	938475520	32	4365
2026-01-02 11:15:48.33	100.05	38.36	-30.9	-32.1	21.1	0.00e+00	0	56	0	961544192	32	4359
2026-01-02 11:15:52.37	98.61	38.99	-30.6	-31.8	21.4	0.00e+00	0	56	0	983564288	32	4227
2026-01-02 11:15:56.42	97.12	39.60	-30.9	-32.1	21.1	0.00e+00	0	56	0	1006632960	32	4375
2026-01-02 11:16:00.45	95.57	40.20	-30.5	-31.6	21.6	0.00e+00	0	56	0	1029701632	32	4126
2026-01-02 11:16:04.49	93.96	40.79	-30.4	-31.6	21.5	0.00e+00	0	56	0	1052770304	32	4118
2026-01-02 11:16:08.53	92.29	41.35	-30.6	-31.8	21.4	0.00e+00	0	56	0	1074790400	32	4223
2026-01-02 11:16:12.58	90.56	41.90	-30.6	-31.8	21.6	0.00e+00	0	57	0	1097859072	32	4218
2026-01-02 11:16:16.61	88.79	42.43	-30.5	-31.7	21.6	0.00e+00	0	56	0	1119879168	32	4167
2026-01-02 11:16:20.65	86.94	42.93	-30.3	-31.5	21.8	0.00e+00	0	56	0	1142947840	32	4065
2026-01-02 11:16:24.69	85.04	43.40	-30.5	-31.7	21.6	0.00e+00	0	57	0	1166016512	32	4168
2026-01-02 11:16:28.73	83.09	43.84	-30.4	-31.5	21.8	0.00e+00	0	57	0	1189085184	32	4079
2026-01-02 11:16:32.77	81.08	44.25	-30.5	-31.7	21.6	0.00e+00	0	57	0	1211105280	32	4158
2026-01-02 11:16:36.81	79.03	44.62	-30.9	-32.1	21.2	0.00e+00	0	57	0	1234173952	32	4380
2026-01-02 11:16:40.86	76.92	44.96	-30.8	-31.9	21.3	0.00e+00	0	57	0	1257242624	33	4041
2026-01-02 11:16:44.90	74.78	45.25	-30.9	-32.1	21.4	0.00e+00	0	57	0	1279262720	33	4104
2026-01-02 11:16:48.94	72.60	45.50	-30.7	-31.9	21.4	0.00e+00	0	57	0	1302331392	33	4021
2026-01-02 11:16:52.98	70.38	45.70	-30.7	-31.8	21.5	0.00e+00	0	57	0	1325400064	33	3991
2026-01-02 11:16:57.02	68.15	45.86	-30.7	-31.8	21.6	0.00e+00	0	57	0	1347420160	33	3986
2026-01-02 11:17:01.06	65.89	45.96	-30.6	-31.8	21.5	0.00e+00	0	57	0	1370488832	33	3973
2026-01-02 11:17:05.10	63.62	46.02	-30.6	-31.7	21.6	0.00e+00	0	57	0	1393557504	33	3940
2026-01-02 11:17:09.14	61.35	46.03	-30.8	-32.0	21.5	0.00e+00	0	57	0	1415577600	32	4292
2026-01-02 11:17:13.19	59.08	45.99	-30.7	-31.9	21.4	0.00e+00	0	57	0	1438646272	32	4252
2026-01-02 11:17:17.23	56.82	45.90	-30.9	-32.0	21.4	0.00e+00	0	57	0	1461714944	32	4333
2026-01-02 11:17:21.26	54.58	45.76	-30.5	-31.7	21.7	0.00e+00	0	57	0	1483735040	32	4150
2026-01-02 11:17:25.31	52.35	45.57	-30.5	-31.7	21.7	0.00e+00	0	57	0	1506803712	32	4159
2026-01-02 11:17:29.35	50.16	45.34	-30.7	-31.8	21.5	0.00e+00	0	57	0	1529872384	32	4222
2026-01-02 11:17:33.39	48.01	45.06	-30.5	-31.7	21.7	0.00e+00	0	57	0	1551892480	32	4151
2026-01-02 11:17:37.43	45.89	44.74	-30.7	-31.9	21.4	0.00e+00	0	57	0	1574961152	32	4272
2026-01-02 11:17:41.47	43.83	44.39	-30.6	-31.8	21.6	0.00e+00	0	57	0	1598029824	32	4200
2026-01-02 11:17:45.51	41.81	43.99	-30.2	-31.3	22.0	0.00e+00	0	57	0	1620049920	32	3986
2026-01-02 11:17:49.55	39.84	43.56	-30.4	-31.5	21.8	0.00e+00	0	57	0	1643118592	32	4070
2026-01-02 11:17:53.59	37.92	43.10	-30.5	-31.6	21.7	0.00e+00	0	57	0	1666187264	32	4131
2026-01-02 11:17:57.63	36.06	42.61	-30.4	-31.6	21.7	0.00e+00	0	57	0	1689255936	32	4105
2026-01-02 11:18:01.66	34.27	42.09	-30.2	-31.3	21.9	0.00e+00	0	57	0	1711276032	32	3986
2026-01-02 11:18:05.70	32.53	41.56	-30.5	-31.6	21.6	0.00e+00	0	57	0	1734344704	32	4144
2026-01-02 11:18:09.74	30.85	40.99	-30.5	-31.7	21.6	0.00e+00	0	57	0	1756364800	32	4148
2026-01-02 11:18:13.78	29.22	40.42	-30.4	-31.6	21.7	0.00e+00	0	57	0	1779433472	32	4113
2026-01-02 11:18:17.82	27.66	39.82	-30.7	-31.7	22.3	0.00e+00	0	57	0	1802502144	32	4168
2026-01-02 11:18:21.86	26.15	39.22	-30.7	-31.7	22.3	0.00e+00	0	57	0	1824522240	32	4183
2026-01-02 11:18:25.89	24.70	38.60	-30.6	-31.6	22.5	0.00e+00	0	57	0	1847590912	32	4116
2026-01-02 11:18:29.93	23.30	37.97	-30.5	-31.5	22.6	0.00e+00	0	57	0	1870659584	32	4055
2026-01-02 11:18:33.98	21.95	37.34	-30.5	-31.5	22.6	0.00e+00	0	57	0	1893728256	32	4063
2026-01-02 11:18:38.02	20.66	36.70	-30.4	-31.4	22.6	0.00e+00	0	57	0	1915748352	32	4017
2026-01-02 11:18:42.05	19.42	36.06	-30.3	-31.3	22.7	0.00e+00	0	57	0	1938817024	32	3984
2026-01-02 11:18:46.10	18.23	35.41	-30.3	-31.3	22.7	0.00e+00	0	57	0	1960837120	32	3973
2026-01-02 11:18:50.14	17.08	34.77	-30.5	-31.6	22.5	0.00e+00	0	57	0	1983905792	32	4106
2026-01-02 11:18:54.18	15.98	34.12	-30.6	-31.6	22.4	0.00e+00	0	57	0	2006974464	32	4130
2026-01-02 11:18:58.22	14.92	33.48	-30.6	-31.6	22.4	0.00e+00	0	57	0	2028994560	32	4114
2026-01-02 11:19:02.26	13.91	32.84	-30.6	-31.6	22.4	0.00e+00	0	57	0	2052063232	32	4116
2026-01-02 11:19:06.30	12.93	32.21	-30.7	-31.7	22.3	0.00e+00	0	57	0	2075131904	32	4160
2026-01-02 11:19:10.34	11.99	31.58	-30.6	-31.6	22.4	0.00e+00	0	57	0	2098200576	32	4104
2026-01-02 11:19:14.38	11.09	30.95	-30.7	-31.7	22.3	0.00e+00	0	57	0	2120220672	32	4170
2026-01-02 11:19:18.42	10.22	30.33	-30.8	-31.8	22.2	0.00e+00	0	57	0	2143289344	32	4198
2026-01-02 11:19:22.46	9.38	29.71	-31.3	-32.4	21.6	0.00e+00	0	57	0	2165309440	33	4248
2026-01-02 11:19:26.50	8.58	29.11	-31.3	-32.3	21.7	0.00e+00	0	57	0	2188378112	33	4224
2026-01-02 11:19:30.54	7.81	28.51	-31.2	-32.2	21.8	0.00e+00	0	57	0	2211446784	33	4171
2026-01-02 11:19:34.59	7.06	27.91	-31.1	-32.1	21.9	0.00e+00	0	57	0	2234515456	33	4114
2026-01-02 11:19:38.63	6.34	27.32	-31.4	-32.5	21.5	0.00e+00	0	57	0	2256535552	33	4294
2026-01-02 11:19:42.67	5.65	26.74	-31.4	-32.5	21.5	0.00e+00	0	57	0	2279604224	33	4303
2026-01-02 11:19:46.71	4.99	26.17	-31.3	-32.3	21.6	0.00e+00	0	57	0	2302672896	33	4211
2026-01-02 11:19:50.75	4.34	25.61	-31.3	-32.3	21.6	0.00e+00	0	57	0	2324692992	33	4226
2026-01-02 11:19:54.79	3.72	25.05	-31.2	-32.2	21.7	0.00e+00	0	57	0	2347761664	33	4180
2026-01-02 11:19:58.82	3.13	24.51	-31.3	-32.3	21.6	0.00e+00	0	57	0	2369781760	33	4210
2026-01-02 11:20:02.86	2.55	23.97	-31.4	-32.5	21.4	0.00e+00	0	57	0	2392850432	33	4319
2026-01-02 11:20:06.90	1.99	23.44	-31.4	-32.4	21.4	0.00e+00	0	57	0	2415919104	33	4286
2026-01-02 11:20:10.94	1.46	22.91	-31.4	-32.5	21.3	0.00e+00	0	57	0	2438987776	33	4312
2026-01-02 11:20:14.98	0.94	22.40	-31.7	-32.7	21.1	0.00e+00	0	57	0	2461007872	33	4432
2026-01-02 11:20:19.02	0.43	21.89	-31.8	-32.9	21.0	0.00e+00	0	57	0	2484076544	34	4248
2026-01-02 11:20:23.05	359.95	21.39	-31.7	-32.8	21.0	0.00e+00	0	57	0	2507145216	34	4209
2026-01-02 11:20:27.10	359.48	20.90	-31.6	-32.7	21.0	0.00e+00	0	57	0	2529165312	34	4182
2026-01-02 11:20:31.14	359.02	20.41	-31.8	-32.9	20.8	0.00e+00	0	57	0	2552233984	34	4267
2026-01-02 11:20:35.18	358.58	19.93	-32.0	-33.1	20.6	0.00e+00	0	57	0	2575302656	34	4368
2026-01-02 11:20:39.22	358.15	19.46	-32.2	-33.4	20.3	0.00e+00	0	57	0	2597322752	35	4248
2026-01-02 11:20:43.26	357.74	19.00	-32.7	-33.9	19.8	0.00e+00	0	57	0	2620391424	35	4524
2026-01-02 11:20:47.30	357.34	18.54	-32.4	-33.5	20.0	0.00e+00	0	57	0	2643460096	35	4340
2026-01-02 11:20:51.34	356.95	18.09	-31.9	-33.0	20.3	0.00e+00	0	57	0	2665480192	35	4065
2026-01-02 11:20:55.38	356.57	17.65	-33.4	-34.7	18.8	0.00e+00	0	57	0	2688548864	37	4417
2026-01-02 11:20:59.42	356.21	17.21	-35.5	-37.3	15.4	0.00e+00	0	57	0	2711617536	41	4741
2026-01-02 11:21:03.46	355.85	16.78	-37.9	-41.1	10.6	2.06e-03	0	57	0	2733637632	46	5480
2026-01-02 11:21:07.51	355.51	16.36	-39.4	-45.3	5.9	3.01e-01	0	57	0	2756706304	49	7496
2026-01-02 11:21:11.55	355.17	15.94	-40.0	-49.2	4.0	8.42e-01	0	57	104	2759852032	50	11134
2026-01-02 11:21:15.59	354.85	15.53	-40.1	-51.1	3.8	8.45e-01	0	57	104	2759852032	50	13745
2026-01-02 11:21:19.63	354.53	15.13	-39.9	-51.4	3.8	8.45e-01	0	57	104	2759852032	51	13530
2026-01-02 11:21:23.67	354.22	14.73	-39.9	-51.4	3.8	8.46e-01	0	57	104	2759852032	51	13459
2026-01-02 11:21:27.71	353.92	14.33	-40.0	-51.7	3.8	8.47e-01	0	57	104	2759852032	51	13968
2026-01-02 11:21:31.75	353.63	13.94	-40.0	-51.6	3.8	8.47e-01	0	57	104	2759852032	51	13812
2026-01-02 11:21:35.79	353.35	13.56	-40.0	-51.7	3.8	8.47e-01	0	57	104	2759852032	51	13915
2026-01-02 11:21:39.82	353.08	13.18	-39.6	-51.8	3.8	8.46e-01	0	58	104	2759852032	51	14081
2026-01-02 11:21:43.86	352.81	12.81	-40.0	-51.8	3.8	8.46e-01	0	57	104	2759852032	50	14909
2026-01-02 11:21:47.90	352.55	12.44	-39.2	-51.8	3.8	8.46e-01	0	57	104	2759852032	50	15039
2026-01-02 11:21:51.95	352.29	12.08	-39.8	-51.9	3.8	8.46e-01	0	57	104	2759852032	50	15214
2026-01-02 11:21:55.99	352.04	11.72	-40.0	-51.7	3.8	8.46e-01	0	57	104	2759852032	50	14794
2026-01-02 11:22:00.03	351.80	11.37	-39.8	-51.5	3.8	8.46e-01	0	57	104	2759852032	50	14464
2026-01-02 11:22:04.06	351.57	11.02	-40.2	-52.1	3.8	8.45e-01	0	57	104	2759852032	51	14632
2026-01-02 11:22:08.11	351.34	10.68	-39.9	-51.6	3.8	8.47e-01	0	57	104	2759852032	51	13772
2026-01-02 11:22:12.15	351.11	10.34	-39.9	-51.6	3.8	8.46e-01	0	58	104	2759852032	51	13870
2026-01-02 11:22:16.19	350.90	10.00	-39.9	-51.6	3.8	8.47e-01	0	58	104	2759852032	51	13752
2026-01-02 11:22:20.23	350.68	9.67	-40.3	-52.0	3.8	8.46e-01	0	57	104	2759852032	51	14387
2026-01-02 11:22:24.27	350.48	9.34	-40.3	-51.9	3.8	8.45e-01	0	58	104	2759852032	51	14351
2026-01-02 11:22:28.31	350.27	9.02	-40.1	-51.7	3.8	8.46e-01	0	58	104	2759852032	51	13978
2026-01-02 11:22:32.36	350.07	8.69	-40.6	-52.2	3.8	8.46e-01	0	57	104	2759852032	51	14730
2026-01-02 11:22:36.39	349.88	8.38	-40.2	-51.8	3.8	8.46e-01	0	57	104	2759852032	51	14167
2026-01-02 11:22:40.43	349.69	8.07	-40.1	-51.8	3.8	8.46e-01	0	58	104	2759852032	51	14076
2026-01-02 11:22:44.48	349.51	7.76	-44.4	-55.9	3.8	8.47e-01	0	57	104	2759852032	59	14228
2026-01-02 11:22:48.52	349.33	7.45	-44.8	-56.5	3.8	8.46e-01	0	57	104	2759852032	60	14467
2026-01-02 11:22:52.57	349.15	7.15	-44.8	-56.5	3.8	8.47e-01	0	57	104	2759852032	60	14414
2026-01-02 11:22:56.61	348.98	6.85	-44.7	-56.3	3.8	8.46e-01	0	57	104	2759852032	60	14146
2026-01-02 11:23:00.65	348.81	6.55	-44.7	-56.3	3.8	8.47e-01	0	58	104	2759852032	60	14077
2026-01-02 11:23:04.70	348.64	6.26	-44.7	-56.3	3.8	8.45e-01	0	57	104	2759852032	60	14056
2026-01-02 11:23:08.74	348.48	5.97	-44.7	-56.2	3.8	8.46e-01	0	58	104	2759852032	60	14029
2026-01-02 11:23:12.78	348.32	5.68	-44.7	-56.3	3.8	8.45e-01	0	58	104	2759852032	60	14054
2026-01-02 11:23:16.83	348.17	5.40	-44.7	-56.3	3.8	8.46e-01	0	58	104	2759852032	60	14085
2026-01-02 11:23:20.87	348.02	5.11	-44.7	-56.3	3.8	8.47e-01	0	58	104	2759852032	60	14058
2026-01-02 11:23:24.92	347.87	4.83	-44.7	-56.2	3.8	8.45e-01	0	58	104	2759852032	60	14037
2026-01-02 11:23:28.96	347.73	4.56	-44.6	-56.2	3.8	8.45e-01	0	58	104	2759852032	60	14014
2026-01-02 11:23:33.00	347.58	4.29	-44.6	-56.2	3.8	8.46e-01	0	58	104	2759852032	60	14042
2026-01-02 11:23:37.05	347.44	4.01	-44.6	-56.2	3.8	8.46e-01	0	58	104	2759852032	60	13978
2026-01-02 11:23:41.09	347.31	3.75	-44.6	-56.2	3.8	8.46e-01	0	58	104	2759852032	60	14012
2026-01-02 11:23:45.13	347.17	3.48	-44.6	-56.2	3.8	8.46e-01	0	58	104	2759852032	60	13992
2026-01-02 11:23:49.18	347.04	3.22	-44.6	-56.2	3.8	8.47e-01	0	58	104	2759852032	60	13935
2026-01-02 11:23:53.22	346.92	2.96	-44.6	-56.2	3.8	8.46e-01	0	58	104	2759852032	60	13983
2026-01-02 11:23:57.26	346.79	2.70	-44.6	-56.2	3.8	8.46e-01	0	58	104	2759852032	60	13955
2026-01-02 11:24:01.31	346.67	2.44	-44.6	-56.2	3.8	8.46e-01	0	58	104	2759852032	60	13937
2026-01-02 11:24:05.36	346.55	2.18	-44.6	-56.2	3.8	8.45e-01	0	58	104	2759852032	60	13937

#Closed at: 2026-01-02 11:24:09
#Recorded file [2759 MB]: D:/lorett/data/31039_260102_141008.dat