passes_logs/2026/01/02/R2.0S_Moscow/R2.0S_Moscow__20260102_102926_NOAA_20_JPSS-1_rec.log

#Pass ID: 20260102_102926_NOAA 20 (JPSS-1)
#Satellite: NOAA 20 (JPSS-1)
#Configuration: NOAA 20
#almurnet v.1.7.20251203
#Start time: 2026-01-02 10:29:27

#Version: 2.2.20231116
#Station: R2.0S_Moscow
#Location: 37.707566 lon 55.798166 lat
#TLE: 1 43013U 17073A   26001.30344297  .00000183  00000+0  10758-3 0  9995
#TLE: 2 43013  98.7621 302.3885 0001938  59.1624 300.9742 14.19532032420790

#Time	Az	El	Level	Level2	SNR	BER	BlckErr	Temp	State	Recorded	gain1	gain2
2026-01-02 10:29:27.36	177.44	2.04	-44.0	-58.3	3.8	1.49e+00	0	48	0	0	59	18854
2026-01-02 10:29:31.39	177.55	2.29	-44.0	-58.3	3.8	1.49e+00	0	49	104	0	59	18888
2026-01-02 10:29:35.44	177.67	2.55	-44.0	-58.3	3.8	1.49e+00	0	49	104	0	59	18884
2026-01-02 10:29:39.48	177.79	2.81	-44.0	-58.3	3.8	1.49e+00	0	50	104	0	59	18779
2026-01-02 10:29:43.53	177.91	3.07	-44.0	-58.3	3.8	1.49e+00	0	50	104	0	59	18876
2026-01-02 10:29:47.57	178.03	3.34	-44.0	-58.3	3.8	1.49e+00	0	50	104	0	59	18842
2026-01-02 10:29:51.61	178.16	3.61	-44.0	-58.3	3.8	1.49e+00	0	50	104	0	59	18774
2026-01-02 10:29:55.66	178.29	3.88	-44.0	-58.3	3.8	1.49e+00	0	51	104	0	59	18815
2026-01-02 10:29:59.70	178.42	4.15	-44.0	-58.3	3.8	1.49e+00	0	51	104	0	59	18851
2026-01-02 10:30:03.75	178.55	4.43	-44.0	-58.3	3.8	1.49e+00	0	51	104	0	59	18847
2026-01-02 10:30:07.79	178.68	4.71	-44.0	-58.3	3.8	1.49e+00	0	51	104	0	59	18828
2026-01-02 10:30:11.83	178.82	4.99	-44.0	-58.3	3.8	1.49e+00	0	51	104	0	59	18839
2026-01-02 10:30:15.88	178.96	5.27	-43.9	-58.1	3.8	1.49e+00	0	52	104	0	59	18426
2026-01-02 10:30:19.92	179.10	5.56	-43.9	-58.0	3.8	1.49e+00	0	52	104	0	59	18189
2026-01-02 10:30:23.97	179.24	5.85	-43.9	-57.9	3.8	1.49e+00	0	52	104	0	59	18022
2026-01-02 10:30:28.01	179.39	6.14	-43.9	-58.0	3.8	1.49e+00	0	52	104	0	59	18289
2026-01-02 10:30:32.05	179.54	6.44	-43.9	-57.8	3.8	1.49e+00	0	52	104	0	59	17869
2026-01-02 10:30:36.10	179.69	6.74	-43.6	-54.0	4.4	1.40e+00	36	52	0	0	59	11543
2026-01-02 10:30:40.14	179.85	7.05	-42.7	-48.9	8.1	8.62e-02	0	53	0	7340032	57	7147
2026-01-02 10:30:44.18	180.00	7.35	-41.1	-45.0	12.0	5.48e-04	0	53	0	14680064	54	5432
2026-01-02 10:30:48.22	180.17	7.66	-40.0	-43.0	14.1	3.80e-06	0	53	0	22020096	52	4829
2026-01-02 10:30:52.27	180.33	7.98	-39.9	-42.7	14.4	2.20e-06	0	53	0	30408704	51	4959
2026-01-02 10:30:56.30	180.50	8.30	-42.9	-49.7	7.0	1.79e-01	0	53	0	37748736	56	8351
2026-01-02 10:31:00.35	180.67	8.62	-39.5	-42.2	15.0	0.00e+00	0	53	0	45088768	51	4655
2026-01-02 10:31:04.38	180.84	8.94	-39.5	-42.0	15.2	0.00e+00	0	54	0	52428800	50	4861
2026-01-02 10:31:08.42	181.02	9.27	-39.4	-41.9	15.3	0.00e+00	0	53	0	59768832	50	4777
2026-01-02 10:31:12.46	181.21	9.61	-39.4	-41.9	15.4	0.00e+00	0	53	0	68157440	50	4799
2026-01-02 10:31:16.49	181.39	9.94	-39.3	-41.8	15.5	0.00e+00	0	54	0	75497472	50	4733
2026-01-02 10:31:20.53	181.58	10.29	-39.2	-41.5	15.8	0.00e+00	0	54	0	82837504	50	4597
2026-01-02 10:31:24.57	181.78	10.63	-39.1	-41.4	16.0	0.00e+00	0	54	0	90177536	50	4518
2026-01-02 10:31:28.61	181.98	10.99	-39.1	-41.4	16.0	0.00e+00	0	54	0	97517568	50	4505
2026-01-02 10:31:32.65	182.18	11.34	-39.1	-41.4	16.0	0.00e+00	0	54	0	105906176	50	4516
2026-01-02 10:31:36.69	182.39	11.71	-39.1	-41.4	16.0	0.00e+00	0	54	0	113246208	50	4522
2026-01-02 10:31:40.73	182.60	12.07	-39.2	-41.5	16.0	0.00e+00	0	54	0	120586240	50	4574
2026-01-02 10:31:44.77	182.82	12.45	-39.1	-41.4	16.1	0.00e+00	0	54	0	127926272	50	4543
2026-01-02 10:31:48.81	183.05	12.82	-39.1	-41.4	16.1	0.00e+00	0	54	0	136314880	50	4518
2026-01-02 10:31:52.85	183.28	13.21	-39.1	-41.4	16.2	0.00e+00	0	55	0	143654912	50	4499
2026-01-02 10:31:56.89	183.51	13.60	-39.0	-41.3	16.3	0.00e+00	0	55	0	150994944	50	4462
2026-01-02 10:32:00.92	183.75	13.99	-39.1	-41.3	16.2	0.00e+00	0	55	0	158334976	50	4484
2026-01-02 10:32:04.96	184.00	14.39	-39.0	-41.3	16.3	0.00e+00	0	55	0	166723584	50	4444
2026-01-02 10:32:09.00	184.25	14.80	-39.0	-41.2	16.4	0.00e+00	0	55	0	174063616	49	4682
2026-01-02 10:32:13.04	184.51	15.21	-39.0	-41.2	16.4	0.00e+00	0	55	0	181403648	49	4667
2026-01-02 10:32:17.08	184.78	15.63	-39.0	-41.2	16.4	0.00e+00	0	55	0	188743680	49	4678
2026-01-02 10:32:21.12	185.06	16.06	-38.8	-41.0	16.7	0.00e+00	0	55	0	196083712	49	4566
2026-01-02 10:32:25.16	185.34	16.49	-38.7	-40.9	16.8	0.00e+00	0	55	0	204472320	49	4495
2026-01-02 10:32:29.19	185.63	16.93	-38.7	-40.8	16.8	0.00e+00	0	55	0	211812352	49	4479
2026-01-02 10:32:33.23	185.93	17.38	-38.7	-40.8	16.9	0.00e+00	0	55	0	219152384	49	4470
2026-01-02 10:32:37.26	186.23	17.84	-38.8	-40.9	16.8	0.00e+00	0	55	0	226492416	49	4505
2026-01-02 10:32:41.31	186.55	18.30	-38.6	-40.7	17.0	0.00e+00	0	56	0	233832448	49	4411
2026-01-02 10:32:45.34	186.88	18.78	-38.5	-40.5	17.2	0.00e+00	0	55	0	242221056	49	4314
2026-01-02 10:32:49.38	187.21	19.26	-38.4	-40.3	17.4	0.00e+00	0	55	0	249561088	48	4469
2026-01-02 10:32:53.42	187.56	19.75	-38.1	-40.0	17.7	0.00e+00	0	55	0	256901120	48	4335
2026-01-02 10:32:57.46	187.92	20.24	-37.9	-39.8	17.9	0.00e+00	0	55	0	264241152	47	4448
2026-01-02 10:33:01.49	188.28	20.75	-37.8	-39.6	18.0	0.00e+00	0	56	0	272629760	47	4356
2026-01-02 10:33:05.53	188.66	21.27	-37.8	-39.6	18.1	0.00e+00	0	55	0	279969792	47	4359
2026-01-02 10:33:09.57	189.06	21.79	-37.8	-39.6	18.1	0.00e+00	0	56	0	287309824	47	4352
2026-01-02 10:33:13.61	189.46	22.33	-37.7	-39.5	18.1	0.00e+00	0	56	0	294649856	47	4328
2026-01-02 10:33:17.65	189.88	22.87	-37.5	-39.3	18.4	0.00e+00	0	56	0	301989888	47	4202
2026-01-02 10:33:21.68	190.32	23.43	-37.3	-39.0	18.7	0.00e+00	0	56	0	310378496	46	4310
2026-01-02 10:33:25.72	190.77	24.00	-37.2	-38.8	18.9	0.00e+00	0	56	0	317718528	46	4230
2026-01-02 10:33:29.76	191.23	24.57	-37.1	-38.8	18.9	0.00e+00	0	56	0	325058560	46	4200
2026-01-02 10:33:33.80	191.72	25.16	-37.3	-38.9	18.8	0.00e+00	0	56	0	332398592	46	4279
2026-01-02 10:33:37.83	192.22	25.76	-37.5	-39.2	18.6	0.00e+00	0	56	0	340787200	46	4394
2026-01-02 10:33:41.87	192.74	26.37	-37.7	-39.4	18.3	0.00e+00	0	56	0	348127232	46	4540
2026-01-02 10:33:45.91	193.28	26.99	-37.9	-39.7	18.0	0.00e+00	0	56	0	355467264	46	4698
2026-01-02 10:33:49.94	193.83	27.62	-38.4	-40.4	17.4	0.00e+00	0	56	0	362807296	47	4779
2026-01-02 10:33:53.98	194.42	28.27	-39.2	-41.3	16.6	0.00e+00	0	56	0	370147328	48	5030
2026-01-02 10:33:58.01	195.02	28.93	-39.4	-41.6	16.2	0.00e+00	0	56	0	378535936	49	4917
2026-01-02 10:34:02.05	195.65	29.60	-39.7	-42.1	15.7	0.00e+00	0	56	0	385875968	50	4913
2026-01-02 10:34:06.09	196.31	30.28	-40.1	-42.7	15.3	0.00e+00	0	56	0	393216000	50	5239
2026-01-02 10:34:10.13	197.00	30.98	-40.5	-43.3	14.6	0.00e+00	0	56	0	400556032	51	5315
2026-01-02 10:34:14.17	197.71	31.68	-40.6	-43.5	14.3	0.00e+00	0	56	0	408944640	52	5103
2026-01-02 10:34:18.21	198.46	32.40	-40.3	-43.0	14.8	7.00e-07	0	56	0	416284672	52	4850
2026-01-02 10:34:22.24	199.24	33.13	-40.3	-43.0	14.9	0.00e+00	0	56	0	423624704	52	4832
2026-01-02 10:34:26.29	200.06	33.88	-40.2	-42.8	15.0	0.00e+00	0	56	0	430964736	52	4753
2026-01-02 10:34:30.33	200.91	34.63	-39.8	-42.2	15.8	0.00e+00	0	56	0	438304768	51	4667
2026-01-02 10:34:34.36	201.80	35.40	-39.8	-42.1	15.8	0.00e+00	0	56	0	446693376	51	4650
2026-01-02 10:34:38.40	202.73	36.18	-39.4	-41.7	16.3	0.00e+00	0	56	0	454033408	50	4666
2026-01-02 10:34:42.44	203.72	36.96	-38.9	-40.9	17.1	0.00e+00	0	56	0	461373440	49	4528
2026-01-02 10:34:46.48	204.74	37.76	-38.7	-40.6	17.3	0.00e+00	0	56	0	468713472	49	4383
2026-01-02 10:34:50.52	205.82	38.57	-38.6	-40.5	17.5	0.00e+00	0	56	0	477102080	49	4337
2026-01-02 10:34:54.56	206.96	39.38	-38.4	-40.3	17.7	0.00e+00	0	56	0	484442112	48	4468
2026-01-02 10:34:58.60	208.15	40.20	-38.4	-40.3	17.7	0.00e+00	0	56	0	491782144	48	4451
2026-01-02 10:35:02.64	209.40	41.02	-38.6	-40.5	17.5	0.00e+00	0	56	0	499122176	48	4568
2026-01-02 10:35:06.67	210.71	41.85	-39.0	-41.0	16.9	0.00e+00	0	56	0	506462208	48	4862
2026-01-02 10:35:10.71	212.10	42.68	-39.3	-41.5	16.5	0.00e+00	0	57	0	514850816	49	4841
2026-01-02 10:35:14.75	213.55	43.51	-39.1	-41.3	16.7	0.00e+00	0	56	0	522190848	49	4707
2026-01-02 10:35:18.79	215.09	44.33	-40.2	-42.7	15.3	0.00e+00	0	56	0	529530880	51	4956
2026-01-02 10:35:22.83	216.70	45.15	-39.7	-42.0	16.0	0.00e+00	0	57	0	536870912	51	4569
2026-01-02 10:35:26.87	218.40	45.96	-40.8	-43.8	14.1	0.00e+00	0	56	0	545259520	52	5311
2026-01-02 10:35:30.91	220.18	46.76	-40.6	-43.5	14.4	7.00e-07	0	56	0	552599552	52	5138
2026-01-02 10:35:34.94	222.05	47.53	-40.7	-43.5	14.4	1.50e-06	0	56	0	559939584	52	5138
2026-01-02 10:35:38.98	224.02	48.29	-40.2	-42.8	15.1	0.00e+00	0	56	0	567279616	52	4757
2026-01-02 10:35:43.02	226.09	49.03	-40.2	-42.8	15.1	0.00e+00	0	57	0	574619648	52	4721
2026-01-02 10:35:47.06	228.25	49.73	-39.6	-41.9	16.0	0.00e+00	0	57	0	583008256	51	4540
2026-01-02 10:35:51.10	230.51	50.41	-39.8	-42.1	15.8	0.00e+00	0	56	0	590348288	51	4629
2026-01-02 10:35:55.15	232.88	51.04	-38.7	-40.6	17.3	0.00e+00	0	57	0	597688320	49	4388
2026-01-02 10:35:59.18	235.33	51.63	-37.8	-39.5	18.4	0.00e+00	0	57	0	605028352	47	4315
2026-01-02 10:36:03.21	237.88	52.16	-38.8	-40.8	17.2	0.00e+00	0	56	0	613416960	48	4728
2026-01-02 10:36:07.25	240.52	52.65	-37.7	-39.4	18.5	0.00e+00	0	57	0	620756992	47	4281
2026-01-02 10:36:11.28	243.24	53.07	-37.9	-39.7	18.2	0.00e+00	0	57	0	628097024	47	4411
2026-01-02 10:36:15.32	246.03	53.44	-38.2	-40.1	17.8	0.00e+00	0	57	0	635437056	47	4639
2026-01-02 10:36:19.36	248.89	53.73	-38.3	-40.2	17.7	0.00e+00	0	57	0	642777088	47	4678
2026-01-02 10:36:23.40	251.80	53.95	-38.7	-40.7	17.2	0.00e+00	0	57	0	651165696	48	4693
2026-01-02 10:36:27.43	254.74	54.10	-38.3	-40.1	18.0	0.00e+00	0	57	0	658505728	48	4372
2026-01-02 10:36:31.47	257.71	54.17	-37.4	-39.1	18.8	0.00e+00	0	57	0	665845760	46	4372
2026-01-02 10:36:35.51	260.69	54.17	-38.0	-39.8	18.1	0.00e+00	0	57	0	673185792	46	4742
2026-01-02 10:36:39.55	263.66	54.09	-38.6	-40.5	17.4	0.00e+00	0	57	0	681574400	47	4864
2026-01-02 10:36:43.58	266.60	53.94	-37.4	-39.1	18.8	0.00e+00	0	56	0	688914432	46	4376
2026-01-02 10:36:47.62	269.50	53.71	-36.9	-38.4	19.4	0.00e+00	0	57	0	696254464	45	4290
2026-01-02 10:36:51.66	272.36	53.41	-36.6	-38.2	19.7	0.00e+00	0	57	0	703594496	45	4146
2026-01-02 10:36:55.70	275.14	53.05	-37.9	-39.6	18.3	0.00e+00	0	57	0	710934528	46	4648
2026-01-02 10:36:59.74	277.86	52.62	-38.2	-40.0	17.9	0.00e+00	0	57	0	719323136	46	4863
2026-01-02 10:37:03.78	280.49	52.13	-38.3	-40.1	17.8	0.00e+00	0	57	0	726663168	47	4648
2026-01-02 10:37:07.81	283.03	51.59	-38.5	-40.4	17.6	0.00e+00	0	57	0	734003200	48	4503
2026-01-02 10:37:11.85	285.47	51.00	-39.4	-41.6	16.4	0.00e+00	0	57	0	741343232	49	4902
2026-01-02 10:37:15.89	287.82	50.37	-39.9	-42.2	15.8	0.00e+00	0	57	0	748683264	50	4983
2026-01-02 10:37:19.92	290.07	49.70	-41.5	-45.0	12.9	2.05e-05	0	57	0	757071872	53	5736
2026-01-02 10:37:23.96	292.22	49.00	-41.5	-45.0	12.9	1.16e-04	0	57	0	764411904	54	5438
2026-01-02 10:37:27.99	294.27	48.26	-42.0	-46.0	11.9	3.46e-04	0	57	0	771751936	54	6093
2026-01-02 10:37:32.03	296.23	47.51	-41.6	-45.0	12.9	3.50e-05	0	57	0	779091968	54	5463
2026-01-02 10:37:36.07	298.10	46.73	-41.8	-45.5	12.4	3.47e-04	0	57	0	787480576	55	5421
2026-01-02 10:37:40.11	299.87	45.93	-41.1	-44.2	13.7	1.52e-05	0	57	0	794820608	54	4950
2026-01-02 10:37:44.15	301.56	45.13	-39.6	-41.9	16.2	0.00e+00	0	57	0	802160640	51	4516
2026-01-02 10:37:48.19	303.16	44.31	-40.3	-42.9	15.0	0.00e+00	0	57	0	809500672	52	4790
2026-01-02 10:37:52.23	304.69	43.49	-40.1	-42.6	15.5	0.00e+00	0	57	0	816840704	51	4902
2026-01-02 10:37:56.27	306.14	42.67	-40.6	-43.4	14.6	7.00e-07	0	57	0	825229312	52	5057
2026-01-02 10:38:00.30	307.51	41.85	-40.5	-43.2	14.8	0.00e+00	0	57	0	832569344	51	5230
2026-01-02 10:38:04.34	308.82	41.02	-42.4	-46.8	11.0	3.73e-03	0	57	0	839909376	55	6300
2026-01-02 10:38:08.38	310.07	40.20	-42.0	-46.1	11.8	4.63e-04	0	57	0	847249408	55	5797
2026-01-02 10:38:12.41	311.25	39.39	-40.7	-43.7	14.0	1.11e-04	0	57	0	855638016	53	4962
2026-01-02 10:38:16.45	312.38	38.58	-41.8	-45.8	11.9	1.86e-03	0	57	0	862978048	54	5991
2026-01-02 10:38:20.49	313.45	37.78	-40.6	-43.6	14.2	5.27e-04	0	57	0	870318080	53	4892
2026-01-02 10:38:24.53	314.48	36.99	-41.8	-45.5	12.3	5.03e-05	0	57	0	877658112	54	5766
2026-01-02 10:38:28.57	315.45	36.21	-40.2	-42.8	15.0	3.00e-06	0	57	0	884998144	52	4745
2026-01-02 10:38:32.60	316.38	35.44	-38.9	-40.9	17.1	0.00e+00	0	57	0	893386752	48	4808
2026-01-02 10:38:36.64	317.27	34.67	-41.0	-44.2	13.7	1.29e-05	0	57	0	900726784	53	5250
2026-01-02 10:38:40.68	318.12	33.92	-40.1	-42.7	15.3	0.00e+00	0	57	0	908066816	51	4935
2026-01-02 10:38:44.71	318.93	33.19	-41.3	-44.6	13.2	1.22e-05	0	57	0	915406848	53	5481
2026-01-02 10:38:48.75	319.71	32.46	-41.0	-44.2	13.7	1.90e-05	0	57	0	923795456	53	5221
2026-01-02 10:38:52.79	320.46	31.74	-40.0	-42.5	15.4	0.00e+00	0	57	0	931135488	52	4560
2026-01-02 10:38:56.82	321.17	31.04	-40.9	-44.0	13.8	2.20e-06	0	57	0	938475520	52	5448
2026-01-02 10:39:00.86	321.85	30.35	-41.6	-45.3	12.5	1.43e-04	0	57	0	945815552	54	5609
2026-01-02 10:39:04.90	322.51	29.67	-40.6	-43.5	14.4	7.00e-07	0	57	0	953155584	53	4816
2026-01-02 10:39:08.94	323.14	29.01	-40.7	-43.7	14.1	0.00e+00	0	57	0	961544192	52	5244
2026-01-02 10:39:12.98	323.75	28.35	-40.8	-43.9	14.0	4.50e-06	0	57	0	968884224	52	5355
2026-01-02 10:39:17.01	324.33	27.71	-40.0	-42.5	15.4	0.00e+00	0	57	0	976224256	51	4865
2026-01-02 10:39:21.05	324.89	27.08	-39.4	-41.7	16.3	0.00e+00	0	57	0	983564288	50	4669
2026-01-02 10:39:25.09	325.43	26.47	-39.6	-41.9	16.1	0.00e+00	0	57	0	990904320	50	4766
2026-01-02 10:39:29.13	325.95	25.86	-40.3	-42.9	15.0	0.00e+00	0	57	0	999292928	51	5082
2026-01-02 10:39:33.17	326.45	25.26	-39.9	-42.4	15.5	0.00e+00	0	57	0	1006632960	51	4812
2026-01-02 10:39:37.21	326.93	24.68	-39.2	-41.3	16.6	0.00e+00	0	57	0	1013972992	50	4490
2026-01-02 10:39:41.24	327.40	24.11	-39.1	-41.2	16.7	0.00e+00	0	57	0	1021313024	50	4403
2026-01-02 10:39:45.28	327.85	23.54	-39.5	-41.8	16.1	0.00e+00	0	57	0	1029701632	50	4715
2026-01-02 10:39:49.32	328.28	22.99	-39.6	-42.0	15.8	0.00e+00	0	57	0	1037041664	50	4844
2026-01-02 10:39:53.36	328.70	22.45	-39.6	-42.0	15.9	0.00e+00	0	57	0	1044381696	50	4820
2026-01-02 10:39:57.39	329.11	21.92	-39.3	-41.5	16.3	0.00e+00	0	57	0	1051721728	50	4574
2026-01-02 10:40:01.43	329.50	21.40	-39.3	-41.5	16.3	0.00e+00	0	57	0	1059061760	50	4559
2026-01-02 10:40:05.47	329.89	20.88	-39.7	-42.2	15.6	0.00e+00	0	57	0	1067450368	50	4957
2026-01-02 10:40:09.51	330.26	20.38	-40.2	-43.0	14.8	0.00e+00	0	57	0	1074790400	51	5107
2026-01-02 10:40:13.54	330.61	19.88	-40.1	-42.8	15.0	0.00e+00	0	57	0	1082130432	51	4997
2026-01-02 10:40:17.58	330.96	19.40	-39.6	-42.0	15.7	0.00e+00	0	57	0	1089470464	51	4581
2026-01-02 10:40:21.62	331.30	18.92	-39.1	-41.3	16.4	0.00e+00	0	57	0	1097859072	50	4485
2026-01-02 10:40:25.66	331.63	18.45	-38.8	-40.9	16.8	0.00e+00	0	57	0	1105199104	49	4507
2026-01-02 10:40:29.69	331.95	17.99	-38.9	-41.1	16.6	0.00e+00	0	57	0	1112539136	49	4599
2026-01-02 10:40:33.73	332.25	17.53	-39.1	-41.3	16.3	0.00e+00	0	57	0	1119879168	49	4747
2026-01-02 10:40:37.77	332.56	17.09	-39.0	-41.6	16.0	0.00e+00	0	57	0	1127219200	49	4914
2026-01-02 10:40:41.80	332.85	16.65	-39.2	-41.6	15.9	0.00e+00	0	57	0	1135607808	49	4919
2026-01-02 10:40:45.84	333.13	16.22	-39.1	-41.3	16.2	0.00e+00	0	57	0	1142947840	49	4740
2026-01-02 10:40:49.88	333.41	15.79	-38.9	-41.1	16.4	0.00e+00	0	57	0	1150287872	49	4619
2026-01-02 10:40:53.92	333.68	15.38	-38.9	-41.1	16.4	0.00e+00	0	57	0	1157627904	49	4637
2026-01-02 10:40:57.96	333.94	14.96	-39.1	-41.4	16.0	0.00e+00	0	57	0	1166016512	49	4813
2026-01-02 10:41:02.00	334.20	14.56	-39.4	-41.9	15.6	0.00e+00	0	57	0	1173356544	49	5056
2026-01-02 10:41:06.04	334.45	14.16	-39.6	-42.2	15.2	0.00e+00	0	57	0	1180696576	49	5252
2026-01-02 10:41:10.08	334.69	13.77	-40.0	-42.8	14.7	0.00e+00	0	57	0	1188036608	50	5288
2026-01-02 10:41:14.12	334.93	13.38	-39.9	-42.6	14.8	7.00e-07	0	57	0	1195376640	50	5169
2026-01-02 10:41:18.16	335.17	13.00	-39.8	-42.5	14.9	0.00e+00	0	57	0	1203765248	50	5139
2026-01-02 10:41:22.20	335.39	12.62	-39.8	-42.5	14.9	0.00e+00	0	57	0	1211105280	50	5104
2026-01-02 10:41:26.24	335.61	12.25	-39.6	-42.1	15.2	0.00e+00	0	57	0	1218445312	50	4913
2026-01-02 10:41:30.28	335.83	11.89	-39.4	-42.0	15.3	0.00e+00	0	57	0	1225785344	50	4827
2026-01-02 10:41:34.32	336.04	11.53	-39.4	-42.0	15.2	0.00e+00	0	57	0	1234173952	50	4840
2026-01-02 10:41:38.36	336.25	11.17	-39.5	-42.1	15.2	0.00e+00	0	57	0	1241513984	50	4877
2026-01-02 10:41:42.40	336.45	10.82	-39.7	-42.4	14.8	0.00e+00	0	57	0	1248854016	50	5072
2026-01-02 10:41:46.43	336.65	10.48	-39.9	-42.7	14.4	0.00e+00	0	57	0	1256194048	50	5265
2026-01-02 10:41:50.47	336.85	10.13	-40.1	-43.1	14.0	3.00e-06	0	57	0	1263534080	50	5475
2026-01-02 10:41:54.51	337.04	9.80	-40.2	-43.4	13.7	6.10e-06	0	57	0	1271922688	51	5348
2026-01-02 10:41:58.55	337.22	9.47	-40.3	-43.5	13.6	1.60e-05	0	57	0	1279262720	51	5403
2026-01-02 10:42:02.59	337.40	9.14	-40.3	-43.5	13.5	8.30e-06	0	57	0	1286602752	51	5426
2026-01-02 10:42:06.62	337.58	8.81	-40.3	-43.6	13.3	9.10e-06	0	57	0	1293942784	51	5510
2026-01-02 10:42:10.66	337.76	8.49	-40.3	-43.6	13.2	1.98e-05	0	57	0	1302331392	51	5498
2026-01-02 10:42:14.70	337.93	8.18	-40.1	-43.3	13.5	9.90e-06	0	57	0	1309671424	51	5330
2026-01-02 10:42:18.74	338.10	7.86	-44.6	-58.9	3.8	1.49e+00	0	57	104	1312817152	59	20226
2026-01-02 10:42:22.79	338.27	7.55	-44.9	-59.4	3.8	1.49e+00	0	57	104	1312817152	60	20232
2026-01-02 10:42:26.83	338.43	7.25	-44.9	-59.5	3.8	1.49e+00	0	57	104	1312817152	60	20333
2026-01-02 10:42:30.87	338.59	6.95	-44.8	-59.4	3.8	1.49e+00	0	57	104	1312817152	60	20170
2026-01-02 10:42:34.91	338.74	6.65	-44.8	-59.3	3.8	1.49e+00	0	57	104	1312817152	60	19935
2026-01-02 10:42:38.96	338.90	6.35	-44.8	-59.3	3.8	1.49e+00	0	57	104	1312817152	60	19959
2026-01-02 10:42:43.00	339.05	6.06	-44.7	-59.3	3.8	1.49e+00	0	57	104	1312817152	60	19896
2026-01-02 10:42:47.04	339.20	5.77	-44.7	-59.3	3.8	1.49e+00	0	57	104	1312817152	60	19875
2026-01-02 10:42:51.09	339.34	5.48	-44.7	-59.3	3.8	1.49e+00	0	58	104	1312817152	60	19890
2026-01-02 10:42:55.13	339.49	5.20	-44.7	-59.3	3.8	1.49e+00	0	57	104	1312817152	60	19882
2026-01-02 10:42:59.18	339.63	4.92	-44.7	-59.3	3.8	1.49e+00	0	58	104	1312817152	60	19899
2026-01-02 10:43:03.22	339.77	4.64	-44.7	-59.3	3.8	1.49e+00	0	57	104	1312817152	60	19915
2026-01-02 10:43:07.26	339.90	4.37	-44.7	-59.3	3.8	1.49e+00	0	58	104	1312817152	60	19879
2026-01-02 10:43:11.31	340.04	4.10	-44.7	-59.3	3.8	1.49e+00	0	57	104	1312817152	60	19881
2026-01-02 10:43:15.35	340.17	3.83	-44.7	-59.3	3.8	1.49e+00	0	58	104	1312817152	60	19866
2026-01-02 10:43:19.40	340.30	3.56	-44.7	-59.2	3.8	1.49e+00	0	58	104	1312817152	60	19821
2026-01-02 10:43:23.44	340.43	3.30	-44.7	-59.3	3.8	1.49e+00	0	58	104	1312817152	60	19897
2026-01-02 10:43:27.49	340.56	3.03	-44.7	-59.3	3.8	1.49e+00	0	58	104	1312817152	60	19881
2026-01-02 10:43:31.53	340.68	2.77	-44.7	-59.2	3.8	1.49e+00	0	58	104	1312817152	60	19816
2026-01-02 10:43:35.58	340.80	2.52	-44.7	-59.3	3.8	1.49e+00	0	58	104	1312817152	60	19855
2026-01-02 10:43:39.62	340.92	2.26	-44.7	-59.2	3.8	1.49e+00	0	58	104	1312817152	60	19823
2026-01-02 10:43:43.66	341.04	2.01	-44.7	-59.3	3.8	1.49e+00	0	58	104	1312817152	60	19871

#Closed at: 2026-01-02 10:43:45
#Recorded file [1312 MB]: D:/lorett/data/31039_260102_132927.dat