passes_logs/2026/01/02/R2.0S_Moscow/R2.0S_Moscow__20260102_061635_FENGYUN_3G_rec.log

#Pass ID: 20260102_061635_FENGYUN 3G
#Satellite: FENGYUN 3G
#Configuration: FENGYUN 3G
#almurnet v.1.7.20251203
#Start time: 2026-01-02 06:16:35

#Version: 2.2.20231116
#Station: R2.0S_Moscow
#Location: 37.707566 lon 55.798166 lat
#TLE: 1 56232U 23055A   26001.34523675  .00043393  00000+0  69485-3 0  9993
#TLE: 2 56232  49.9927 126.3392 0004120 323.4974  36.5712 15.52620654154072

#Time	Az	El	Level	Level2	SNR	BER	BlckErr	Temp	State	Recorded	gain1	gain2
2026-01-02 06:16:35.65	263.48	2.01	-44.0	-62.1	3.8	8.47e-01	0	47	0	0	59	29284
2026-01-02 06:16:38.69	263.23	2.20	-44.0	-62.2	3.8	8.46e-01	0	47	104	0	59	29386
2026-01-02 06:16:41.73	262.97	2.39	-44.0	-62.1	3.8	8.46e-01	0	48	104	0	59	29327
2026-01-02 06:16:44.76	262.71	2.59	-44.0	-62.2	3.8	8.46e-01	0	48	104	0	59	29366
2026-01-02 06:16:47.79	262.45	2.78	-44.0	-62.1	3.8	8.47e-01	0	48	104	0	59	29273
2026-01-02 06:16:50.83	262.18	2.98	-44.0	-62.1	3.8	8.47e-01	0	48	104	0	59	29193
2026-01-02 06:16:53.86	261.90	3.18	-44.0	-62.1	3.8	8.47e-01	0	48	104	0	59	29134
2026-01-02 06:16:56.89	261.62	3.37	-44.0	-62.0	3.8	8.46e-01	0	48	104	0	59	28912
2026-01-02 06:16:59.92	261.33	3.58	-44.0	-62.0	3.8	8.47e-01	0	49	104	0	59	28709
2026-01-02 06:17:02.96	261.04	3.78	-44.0	-62.0	3.8	8.47e-01	0	49	104	0	59	28751
2026-01-02 06:17:05.99	260.74	3.98	-44.0	-62.0	3.8	8.46e-01	0	49	104	0	59	28909
2026-01-02 06:17:09.02	260.44	4.19	-44.0	-62.0	3.8	8.47e-01	0	49	104	0	59	28924
2026-01-02 06:17:12.06	260.13	4.40	-44.0	-61.9	3.8	8.46e-01	0	49	104	0	59	28479
2026-01-02 06:17:15.09	259.81	4.61	-44.0	-61.6	3.8	8.46e-01	0	49	104	0	59	27553
2026-01-02 06:17:18.12	259.49	4.82	-44.0	-61.5	3.8	8.47e-01	0	50	104	0	59	27236
2026-01-02 06:17:21.15	259.16	5.03	-44.0	-61.8	3.8	8.45e-01	0	50	104	0	59	28035
2026-01-02 06:17:24.19	258.82	5.25	-44.0	-61.7	3.8	8.47e-01	0	50	104	0	59	28014
2026-01-02 06:17:27.22	258.47	5.47	-44.0	-61.4	3.8	8.45e-01	0	50	104	0	59	26767
2026-01-02 06:17:30.25	258.12	5.68	-43.9	-60.7	3.8	8.46e-01	0	50	104	0	59	24932
2026-01-02 06:17:33.29	257.76	5.91	-43.9	-60.6	3.8	8.46e-01	0	50	104	0	59	24502
2026-01-02 06:17:36.32	257.39	6.13	-44.0	-61.6	3.8	8.45e-01	0	51	104	0	59	27433
2026-01-02 06:17:39.35	257.02	6.35	-44.0	-62.0	3.8	8.46e-01	0	51	104	0	59	28695
2026-01-02 06:17:42.38	256.63	6.58	-43.9	-60.3	3.9	8.47e-01	0	51	104	0	59	23750
2026-01-02 06:17:45.42	256.24	6.81	-43.8	-57.9	4.4	8.41e-01	0	51	0	0	59	17959
2026-01-02 06:17:48.45	255.84	7.04	-43.9	-59.2	4.0	8.27e-01	0	51	0	0	59	20962
2026-01-02 06:17:51.48	255.43	7.28	-43.8	-57.4	4.5	8.43e-01	0	51	0	0	59	16962
2026-01-02 06:17:54.51	255.01	7.51	-41.3	-45.7	15.1	1.55e-03	0	52	0	2621440	54	5874
2026-01-02 06:17:57.55	254.58	7.75	-38.6	-41.2	19.8	0.00e+00	0	52	0	6291456	49	4689
2026-01-02 06:18:00.58	254.14	7.99	-38.3	-40.8	20.3	0.00e+00	0	52	0	9437184	48	4720
2026-01-02 06:18:03.61	253.69	8.23	-40.0	-43.2	19.2	0.00e+00	0	52	0	13107200	50	5574
2026-01-02 06:18:06.64	253.23	8.48	-38.1	-40.4	20.4	0.00e+00	0	52	0	16252928	48	4541
2026-01-02 06:18:09.66	252.76	8.72	-37.2	-39.3	21.7	0.00e+00	0	52	0	19922944	45	4718
2026-01-02 06:18:12.69	252.27	8.97	-37.3	-39.4	21.7	0.00e+00	0	52	0	23068672	45	4780
2026-01-02 06:18:15.72	251.78	9.22	-36.9	-38.9	22.2	0.00e+00	0	52	0	26738688	45	4504
2026-01-02 06:18:18.75	251.28	9.48	-36.5	-38.5	22.6	0.00e+00	0	52	0	29884416	44	4557
2026-01-02 06:18:21.78	250.76	9.73	-36.5	-38.4	22.7	0.00e+00	0	52	0	33554432	44	4533
2026-01-02 06:18:24.80	250.23	9.99	-36.8	-38.8	22.4	0.00e+00	0	53	0	36700160	44	4706
2026-01-02 06:18:27.83	249.69	10.25	-36.6	-38.5	22.6	0.00e+00	0	52	0	40370176	44	4596
2026-01-02 06:18:30.86	249.13	10.51	-36.8	-38.7	22.4	0.00e+00	0	53	0	43515904	44	4705
2026-01-02 06:18:33.89	248.56	10.77	-36.9	-39.0	22.2	0.00e+00	0	53	0	47185920	44	4819
2026-01-02 06:18:36.92	247.98	11.04	-36.7	-38.7	22.5	0.00e+00	0	53	0	50331648	44	4658
2026-01-02 06:18:39.95	247.38	11.31	-36.4	-38.3	22.9	0.00e+00	0	53	0	54001664	44	4451
2026-01-02 06:18:42.97	246.77	11.58	-36.5	-38.4	22.8	0.00e+00	0	53	0	57147392	44	4512
2026-01-02 06:18:46.00	246.14	11.85	-36.1	-37.9	23.3	0.00e+00	0	53	0	60817408	44	4284
2026-01-02 06:18:49.03	245.50	12.12	-35.7	-37.5	23.5	0.00e+00	0	53	0	63963136	43	4302
2026-01-02 06:18:52.06	244.84	12.40	-36.0	-37.8	23.2	0.00e+00	0	53	0	67633152	43	4467
2026-01-02 06:18:55.09	244.16	12.67	-35.7	-37.4	23.6	0.00e+00	0	53	0	70778880	43	4285
2026-01-02 06:18:58.12	243.47	12.95	-35.2	-36.9	24.2	0.00e+00	0	53	0	74448896	42	4245
2026-01-02 06:19:01.15	242.76	13.23	-35.5	-37.2	23.9	0.00e+00	0	53	0	77594624	42	4398
2026-01-02 06:19:04.18	242.03	13.51	-35.5	-37.2	23.9	0.00e+00	0	53	0	81264640	42	4440
2026-01-02 06:19:07.21	241.29	13.79	-35.3	-37.0	24.1	0.00e+00	0	53	0	84410368	42	4316
2026-01-02 06:19:10.23	240.53	14.07	-35.3	-37.0	24.1	0.00e+00	0	53	0	88080384	42	4329
2026-01-02 06:19:13.26	239.74	14.35	-35.5	-37.2	23.9	0.00e+00	0	53	0	91226112	42	4419
2026-01-02 06:19:16.29	238.94	14.64	-35.0	-36.7	24.5	0.00e+00	0	54	0	94896128	42	4156
2026-01-02 06:19:19.32	238.12	14.92	-35.0	-36.6	24.4	0.00e+00	0	54	0	98041856	41	4388
2026-01-02 06:19:22.35	237.28	15.20	-34.7	-36.3	24.7	0.00e+00	0	54	0	101711872	41	4236
2026-01-02 06:19:25.38	236.41	15.48	-34.2	-35.7	25.4	0.00e+00	0	54	0	104857600	40	4184
2026-01-02 06:19:28.41	235.53	15.77	-34.9	-36.5	24.6	0.00e+00	0	54	0	108527616	40	4568
2026-01-02 06:19:31.44	234.63	16.05	-34.6	-36.2	25.0	0.00e+00	0	54	0	111673344	40	4399
2026-01-02 06:19:34.46	233.70	16.32	-34.3	-35.9	25.3	0.00e+00	0	54	0	115343360	40	4251
2026-01-02 06:19:37.49	232.76	16.60	-34.1	-35.6	25.6	0.00e+00	0	54	0	118489088	40	4131
2026-01-02 06:19:40.52	231.79	16.87	-34.2	-35.7	25.5	0.00e+00	0	54	0	122159104	39	4430
2026-01-02 06:19:43.55	230.79	17.14	-34.0	-35.5	25.7	0.00e+00	0	54	0	125304832	39	4322
2026-01-02 06:19:46.59	229.78	17.41	-34.0	-35.5	25.7	0.00e+00	0	54	0	128974848	39	4323
2026-01-02 06:19:49.61	228.74	17.68	-34.4	-35.9	25.3	0.00e+00	0	54	0	132120576	39	4532
2026-01-02 06:19:52.64	227.68	17.94	-34.1	-35.6	25.6	0.00e+00	0	54	0	135790592	39	4385
2026-01-02 06:19:55.67	226.60	18.19	-33.6	-35.0	26.2	0.00e+00	0	54	0	138936320	39	4086
2026-01-02 06:19:58.70	225.50	18.44	-33.9	-35.4	25.9	0.00e+00	0	54	0	142606336	39	4270
2026-01-02 06:20:01.73	224.37	18.69	-33.3	-34.7	26.4	0.00e+00	0	54	0	145752064	38	4165
2026-01-02 06:20:04.76	223.22	18.92	-33.3	-34.7	26.5	0.00e+00	0	54	0	149422080	38	4191
2026-01-02 06:20:07.78	222.06	19.15	-33.6	-35.0	26.3	0.00e+00	0	55	0	152567808	38	4311
2026-01-02 06:20:10.81	220.87	19.37	-33.3	-34.7	26.6	0.00e+00	0	54	0	156237824	38	4178
2026-01-02 06:20:13.84	219.65	19.59	-33.4	-34.9	26.4	0.00e+00	0	54	0	159383552	38	4254
2026-01-02 06:20:16.87	218.42	19.79	-33.6	-35.1	26.2	0.00e+00	0	54	0	163053568	38	4351
2026-01-02 06:20:19.90	217.17	19.99	-33.1	-34.5	26.7	0.00e+00	0	54	0	166199296	38	4071
2026-01-02 06:20:22.93	215.90	20.17	-33.0	-34.4	26.9	0.00e+00	0	54	0	169869312	38	4018
2026-01-02 06:20:25.95	214.62	20.34	-33.2	-34.6	26.6	0.00e+00	0	54	0	173015040	38	4120
2026-01-02 06:20:28.98	213.31	20.51	-33.3	-34.7	26.6	0.00e+00	0	54	0	176685056	37	4415
2026-01-02 06:20:32.01	211.99	20.66	-33.6	-35.0	26.2	0.00e+00	0	54	0	179830784	37	4564
2026-01-02 06:20:35.03	210.66	20.79	-33.4	-34.8	26.5	0.00e+00	0	54	0	183500800	37	4459
2026-01-02 06:20:38.06	209.31	20.92	-32.9	-34.3	26.9	0.00e+00	0	55	0	186646528	37	4226
2026-01-02 06:20:41.09	207.94	21.03	-33.4	-34.8	26.5	0.00e+00	0	55	0	190316544	37	4457
2026-01-02 06:20:44.12	206.57	21.12	-33.0	-34.4	26.8	0.00e+00	0	55	0	193462272	37	4265
2026-01-02 06:20:47.15	205.19	21.20	-33.1	-34.4	26.8	0.00e+00	0	55	0	197132288	37	4291
2026-01-02 06:20:50.18	203.80	21.27	-33.0	-34.4	26.8	0.00e+00	0	55	0	200278016	37	4255
2026-01-02 06:20:53.21	202.40	21.32	-33.0	-34.4	26.9	0.00e+00	0	55	0	203948032	37	4243
2026-01-02 06:20:56.25	200.99	21.36	-32.7	-34.1	27.1	0.00e+00	0	55	0	207093760	37	4118
2026-01-02 06:20:59.27	199.59	21.38	-32.7	-34.1	27.1	0.00e+00	0	55	0	210763776	37	4107
2026-01-02 06:21:02.30	198.19	21.38	-32.9	-34.2	27.0	0.00e+00	0	55	0	213909504	37	4183
2026-01-02 06:21:05.33	196.78	21.37	-33.0	-34.4	26.9	0.00e+00	0	55	0	217579520	37	4260
2026-01-02 06:21:08.36	195.37	21.34	-32.9	-34.3	26.9	0.00e+00	0	55	0	220725248	37	4212
2026-01-02 06:21:11.39	193.97	21.30	-32.9	-34.3	26.9	0.00e+00	0	55	0	224395264	37	4203
2026-01-02 06:21:14.42	192.58	21.24	-32.6	-33.9	27.2	0.00e+00	0	55	0	227540992	37	4048
2026-01-02 06:21:17.45	191.19	21.17	-32.8	-34.2	27.0	0.00e+00	0	55	0	231211008	37	4167
2026-01-02 06:21:20.48	189.81	21.08	-32.7	-34.1	27.1	0.00e+00	0	55	0	234356736	37	4125
2026-01-02 06:21:23.51	188.44	20.98	-33.0	-34.4	26.8	0.00e+00	0	55	0	238026752	37	4250
2026-01-02 06:21:26.54	187.08	20.86	-33.2	-34.6	26.6	0.00e+00	0	55	0	241172480	37	4357
2026-01-02 06:21:29.57	185.74	20.73	-32.9	-34.3	26.9	0.00e+00	0	55	0	244842496	37	4222
2026-01-02 06:21:32.60	184.41	20.59	-33.2	-34.7	26.6	0.00e+00	0	55	0	247988224	37	4393
2026-01-02 06:21:35.63	183.09	20.44	-33.2	-34.6	26.6	0.00e+00	0	55	0	251658240	37	4367
2026-01-02 06:21:38.66	181.79	20.27	-33.0	-34.4	26.7	0.00e+00	0	55	0	254803968	37	4280
2026-01-02 06:21:41.69	180.51	20.09	-33.0	-34.4	26.7	0.00e+00	0	55	0	258473984	37	4273
2026-01-02 06:21:44.72	179.25	19.90	-33.3	-34.7	26.5	0.00e+00	0	55	0	261619712	37	4412
2026-01-02 06:21:47.75	178.00	19.70	-33.2	-34.6	26.6	0.00e+00	0	55	0	265289728	37	4358
2026-01-02 06:21:50.78	176.78	19.49	-33.9	-35.4	25.9	0.00e+00	0	55	0	268435456	38	4498
2026-01-02 06:21:53.81	175.58	19.28	-33.5	-35.0	26.2	0.00e+00	0	55	0	272105472	38	4300
2026-01-02 06:21:56.83	174.40	19.05	-33.6	-35.1	26.2	0.00e+00	0	55	0	275251200	38	4354
2026-01-02 06:21:59.86	173.24	18.82	-33.8	-35.2	26.1	0.00e+00	0	55	0	278921216	38	4414
2026-01-02 06:22:02.89	172.10	18.58	-34.1	-35.6	25.7	0.00e+00	0	55	0	282066944	39	4362
2026-01-02 06:22:05.92	170.98	18.33	-33.3	-34.8	26.5	0.00e+00	0	55	0	285736960	38	4203
2026-01-02 06:22:08.95	169.88	18.08	-33.9	-35.4	25.9	0.00e+00	0	55	0	288882688	38	4511
2026-01-02 06:22:11.98	168.81	17.82	-34.6	-36.2	25.2	0.00e+00	0	55	0	292552704	39	4670
2026-01-02 06:22:15.01	167.76	17.56	-34.6	-36.1	25.2	0.00e+00	0	55	0	295698432	40	4386
2026-01-02 06:22:18.04	166.73	17.29	-34.1	-35.6	25.7	0.00e+00	0	55	0	299368448	40	4104
2026-01-02 06:22:21.07	165.73	17.02	-34.5	-36.1	25.3	0.00e+00	0	55	0	302514176	40	4344
2026-01-02 06:22:24.09	164.75	16.75	-34.2	-35.8	25.5	0.00e+00	0	55	0	306184192	40	4197
2026-01-02 06:22:27.12	163.78	16.47	-34.4	-35.9	25.4	0.00e+00	0	55	0	309329920	40	4287
2026-01-02 06:22:30.15	162.84	16.20	-34.8	-36.4	24.8	0.00e+00	0	56	0	312999936	40	4530
2026-01-02 06:22:33.18	161.93	15.92	-34.7	-36.3	25.0	0.00e+00	0	55	0	316145664	40	4461
2026-01-02 06:22:36.20	161.03	15.64	-35.3	-37.0	24.4	0.00e+00	0	56	0	319815680	41	4568
2026-01-02 06:22:39.24	160.15	15.35	-34.9	-36.5	24.8	0.00e+00	0	56	0	322961408	41	4332
2026-01-02 06:22:42.27	159.30	15.07	-34.8	-36.3	24.9	0.00e+00	0	56	0	326631424	41	4239
2026-01-02 06:22:45.30	158.47	14.79	-35.1	-36.8	24.5	0.00e+00	0	55	0	329777152	41	4450
2026-01-02 06:22:48.33	157.65	14.51	-34.9	-36.6	24.7	0.00e+00	0	56	0	333447168	41	4341
2026-01-02 06:22:51.36	156.86	14.22	-35.0	-36.6	24.6	0.00e+00	0	55	0	336592896	41	4388
2026-01-02 06:22:54.38	156.08	13.94	-35.3	-37.0	24.2	0.00e+00	0	56	0	340262912	41	4547
2026-01-02 06:22:57.41	155.33	13.66	-35.8	-37.5	23.6	0.00e+00	0	55	0	343408640	42	4588
2026-01-02 06:23:00.44	154.59	13.38	-35.8	-37.6	23.5	0.00e+00	0	55	0	347078656	42	4615
2026-01-02 06:23:03.47	153.87	13.10	-35.6	-37.4	23.7	0.00e+00	0	56	0	350224384	42	4499
2026-01-02 06:23:06.50	153.16	12.82	-35.9	-37.7	23.4	0.00e+00	0	55	0	353894400	42	4665
2026-01-02 06:23:09.53	152.48	12.54	-35.8	-37.5	23.5	0.00e+00	0	56	0	357040128	42	4594
2026-01-02 06:23:12.56	151.81	12.27	-35.9	-37.7	23.3	0.00e+00	0	56	0	360710144	42	4691
2026-01-02 06:23:15.59	151.15	11.99	-35.9	-37.7	23.3	0.00e+00	0	56	0	363855872	42	4679
2026-01-02 06:23:18.61	150.52	11.72	-36.1	-38.0	23.0	0.00e+00	0	56	0	367525888	42	4829
2026-01-02 06:23:21.64	149.90	11.45	-36.1	-38.0	23.0	0.00e+00	0	56	0	370671616	42	4820
2026-01-02 06:23:24.67	149.29	11.18	-36.3	-38.2	22.7	0.00e+00	0	55	0	374341632	43	4687
2026-01-02 06:23:27.70	148.70	10.91	-36.2	-38.1	22.8	0.00e+00	0	56	0	377487360	43	4637
2026-01-02 06:23:30.73	148.12	10.65	-36.6	-38.6	22.3	0.00e+00	0	56	0	381157376	43	4883
2026-01-02 06:23:33.75	147.56	10.38	-37.3	-39.4	21.6	0.00e+00	0	56	0	384303104	45	4800
2026-01-02 06:23:36.78	147.00	10.12	-37.3	-39.4	21.6	0.00e+00	0	56	0	387973120	45	4779
2026-01-02 06:23:39.81	146.47	9.86	-36.9	-39.0	21.9	0.00e+00	0	56	0	391118848	45	4569
2026-01-02 06:23:42.84	145.94	9.61	-36.8	-38.8	22.1	0.00e+00	0	56	0	394788864	45	4473
2026-01-02 06:23:45.87	145.43	9.35	-37.2	-39.3	21.5	0.00e+00	0	55	0	397934592	45	4751
2026-01-02 06:23:48.90	144.93	9.10	-37.5	-39.8	21.0	0.00e+00	0	56	0	401604608	45	5022
2026-01-02 06:23:51.92	144.44	8.85	-37.6	-39.9	20.9	0.00e+00	0	56	0	404750336	45	5043
2026-01-02 06:23:54.95	143.96	8.60	-37.4	-39.6	21.2	0.00e+00	0	56	0	408420352	45	4911
2026-01-02 06:23:57.98	143.49	8.36	-37.8	-40.1	20.7	0.00e+00	0	56	0	411566080	46	4900
2026-01-02 06:24:01.01	143.04	8.11	-37.9	-40.3	20.5	0.00e+00	0	56	0	415236096	46	4998
2026-01-02 06:24:04.04	142.59	7.87	-44.2	-61.8	3.8	7.57e-02	0	56	104	416808960	59	28292
2026-01-02 06:24:07.08	142.15	7.63	-45.0	-63.2	3.8	8.45e-01	0	56	104	416808960	60	31108
2026-01-02 06:24:10.11	141.73	7.39	-45.2	-63.3	3.8	8.46e-01	0	56	104	416808960	60	31747
2026-01-02 06:24:13.14	141.31	7.16	-45.0	-63.3	3.8	8.45e-01	0	56	104	416808960	60	31714
2026-01-02 06:24:16.17	140.90	6.93	-44.9	-63.2	3.8	8.46e-01	0	56	104	416808960	60	31370
2026-01-02 06:24:19.20	140.50	6.69	-44.8	-63.2	3.8	8.46e-01	0	56	104	416808960	60	31186
2026-01-02 06:24:22.24	140.11	6.47	-44.8	-63.1	3.8	8.45e-01	0	56	104	416808960	60	31070
2026-01-02 06:24:25.27	139.73	6.24	-44.9	-63.1	3.8	8.45e-01	0	56	104	416808960	60	31071
2026-01-02 06:24:28.30	139.36	6.01	-44.8	-63.1	3.8	8.46e-01	0	56	104	416808960	60	30978
2026-01-02 06:24:31.34	138.99	5.79	-44.8	-63.1	3.8	8.48e-01	0	56	104	416808960	60	30987
2026-01-02 06:24:34.37	138.63	5.57	-44.8	-63.1	3.8	8.47e-01	0	56	104	416808960	60	30963
2026-01-02 06:24:37.40	138.28	5.35	-44.8	-63.1	3.8	8.46e-01	0	56	104	416808960	60	31011
2026-01-02 06:24:40.43	137.94	5.14	-44.8	-63.1	3.8	8.46e-01	0	56	104	416808960	60	30896
2026-01-02 06:24:43.47	137.60	4.92	-44.8	-63.1	3.8	8.47e-01	0	56	104	416808960	60	30866
2026-01-02 06:24:46.50	137.28	4.71	-44.8	-63.1	3.8	8.46e-01	0	56	104	416808960	60	30897
2026-01-02 06:24:49.53	136.95	4.50	-44.8	-63.1	3.8	8.46e-01	0	56	104	416808960	60	30876
2026-01-02 06:24:52.56	136.64	4.29	-44.8	-63.1	3.8	8.46e-01	0	56	104	416808960	60	30755
2026-01-02 06:24:55.60	136.33	4.08	-44.8	-63.1	3.8	8.46e-01	0	56	104	416808960	60	30819
2026-01-02 06:24:58.63	136.03	3.87	-44.8	-63.1	3.8	8.46e-01	0	56	104	416808960	60	30854
2026-01-02 06:25:01.66	135.73	3.67	-44.8	-63.1	3.8	8.46e-01	0	56	104	416808960	60	30873
2026-01-02 06:25:04.70	135.44	3.47	-44.8	-63.1	3.8	8.47e-01	0	56	104	416808960	60	30828
2026-01-02 06:25:07.73	135.15	3.27	-44.8	-63.1	3.8	8.46e-01	0	56	104	416808960	60	30783
2026-01-02 06:25:10.76	134.87	3.07	-44.8	-63.1	3.8	8.46e-01	0	56	104	416808960	60	30805
2026-01-02 06:25:13.80	134.60	2.87	-44.8	-63.1	3.8	8.46e-01	0	56	104	416808960	60	30802
2026-01-02 06:25:16.83	134.33	2.68	-44.8	-63.1	3.8	8.47e-01	0	56	104	416808960	60	30819
2026-01-02 06:25:19.86	134.07	2.48	-44.8	-63.1	3.8	8.45e-01	0	56	104	416808960	60	30787
2026-01-02 06:25:22.90	133.81	2.29	-44.7	-63.1	3.8	8.46e-01	0	56	104	416808960	60	30766
2026-01-02 06:25:25.93	133.55	2.10	-44.8	-63.1	3.8	8.46e-01	0	56	104	416808960	60	30880

#Closed at: 2026-01-02 06:25:28
#Recorded file [416 MB]: D:/lorett/data/31039_260102_091635.dat