passes_logs/2026/01/02/R2.0S_Moscow/R2.0S_Moscow__20260102_021552_AQUA_rec.log

#Pass ID: 20260102_021552_AQUA
#Satellite: AQUA
#Configuration: AQUA
#almurnet v.1.7.20251203
#Start time: 2026-01-02 02:15:53

#Version: 2.2.20231116
#Station: R2.0S_Moscow
#Location: 37.707566 lon 55.798166 lat
#TLE: 1 27424U 02022A   25365.92641127  .00002078  00000+0  42628-3 0  9999
#TLE: 2 27424  98.4058 327.1196 0001962  94.7781 340.6230 14.61783896258835

#Time	Az	El	Level	Level2	SNR	BER	BlckErr	Temp	State	Recorded	gain1	gain2
2026-01-02 02:15:53.84	10.18	2.07	-40.2	-59.1	3.8	7.46e-01	0	48	0	0	52	31036
2026-01-02 02:15:56.87	10.04	2.26	-40.2	-59.2	3.8	7.47e-01	0	49	104	0	51	33027
2026-01-02 02:15:59.90	9.90	2.45	-40.2	-59.2	3.8	7.44e-01	0	49	104	0	51	32980
2026-01-02 02:16:02.93	9.76	2.65	-40.2	-59.2	3.8	7.44e-01	0	49	104	0	51	33015
2026-01-02 02:16:05.97	9.61	2.85	-40.2	-59.2	3.8	7.44e-01	0	49	104	0	51	32970
2026-01-02 02:16:09.00	9.46	3.04	-40.2	-59.2	3.8	7.44e-01	0	50	104	0	51	33002
2026-01-02 02:16:12.03	9.31	3.24	-40.2	-59.2	3.8	7.45e-01	0	50	104	0	51	32994
2026-01-02 02:16:15.07	9.16	3.44	-40.2	-59.2	3.8	7.44e-01	0	50	104	0	51	32948
2026-01-02 02:16:18.10	9.01	3.64	-40.2	-59.2	3.8	7.47e-01	0	50	104	0	51	32944
2026-01-02 02:16:21.13	8.85	3.85	-40.2	-59.2	3.8	7.45e-01	0	50	104	0	51	33004
2026-01-02 02:16:24.17	8.69	4.05	-40.2	-59.2	3.8	7.45e-01	0	51	104	0	51	32962
2026-01-02 02:16:27.20	8.52	4.26	-40.2	-59.2	3.8	7.45e-01	0	51	104	0	51	32933
2026-01-02 02:16:30.23	8.36	4.47	-40.2	-59.2	3.8	7.47e-01	0	51	104	0	51	32970
2026-01-02 02:16:33.27	8.19	4.68	-40.2	-59.2	3.8	7.45e-01	0	51	104	0	51	32989
2026-01-02 02:16:36.30	8.02	4.89	-40.2	-59.2	3.8	7.48e-01	0	51	104	0	51	32955
2026-01-02 02:16:39.33	7.84	5.10	-40.2	-59.2	3.8	7.44e-01	0	51	104	0	51	32953
2026-01-02 02:16:42.37	7.67	5.32	-40.2	-59.2	3.8	7.44e-01	0	51	104	0	51	32954
2026-01-02 02:16:45.40	7.49	5.53	-40.2	-59.1	3.8	7.48e-01	0	52	104	0	51	32867
2026-01-02 02:16:48.43	7.30	5.75	-40.2	-59.1	3.8	7.45e-01	0	52	104	0	51	32867
2026-01-02 02:16:51.46	7.12	5.97	-40.2	-59.2	3.8	7.47e-01	0	52	104	0	51	32977
2026-01-02 02:16:54.50	6.92	6.19	-40.2	-59.2	3.8	7.42e-01	0	52	104	0	51	32958
2026-01-02 02:16:57.53	6.73	6.41	-40.2	-59.1	3.8	7.45e-01	0	52	104	0	51	32923
2026-01-02 02:17:00.56	6.53	6.64	-40.2	-59.1	3.8	7.45e-01	0	52	104	0	51	32889
2026-01-02 02:17:03.60	6.33	6.87	-40.2	-59.1	3.8	7.45e-01	0	52	104	0	51	32862
2026-01-02 02:17:06.63	6.13	7.10	-40.2	-59.1	3.8	7.41e-01	0	53	104	0	51	32893
2026-01-02 02:17:09.66	5.92	7.33	-40.2	-59.1	3.8	7.48e-01	0	53	104	0	51	32907
2026-01-02 02:17:12.69	5.71	7.56	-40.2	-59.1	3.8	7.45e-01	0	53	104	0	51	32915
2026-01-02 02:17:15.73	5.49	7.79	-40.2	-59.1	3.8	7.44e-01	0	53	104	0	51	32919
2026-01-02 02:17:18.76	5.27	8.03	-40.2	-59.2	3.8	7.47e-01	0	53	104	0	51	32975
2026-01-02 02:17:21.79	5.05	8.27	-40.3	-59.2	3.8	7.44e-01	0	53	104	0	51	33223
2026-01-02 02:17:24.82	4.82	8.51	-40.3	-59.2	3.8	7.44e-01	0	53	104	0	51	33182
2026-01-02 02:17:27.84	4.59	8.75	-40.3	-59.3	3.8	7.44e-01	0	53	104	0	51	33406
2026-01-02 02:17:30.87	4.35	9.00	-40.3	-59.3	3.8	7.49e-01	0	54	104	0	51	33403
2026-01-02 02:17:33.91	4.11	9.25	-40.3	-59.3	3.8	7.49e-01	0	54	104	0	51	33576
2026-01-02 02:17:36.94	3.86	9.50	-40.5	-59.4	3.8	7.40e-01	0	54	104	0	51	33955
2026-01-02 02:17:39.97	3.61	9.75	-40.3	-59.2	3.8	7.44e-01	0	54	104	0	51	33095
2026-01-02 02:17:42.99	3.36	10.00	-40.5	-59.4	3.8	7.45e-01	0	54	104	0	51	33749
2026-01-02 02:17:46.02	3.10	10.26	-40.4	-59.4	3.8	7.45e-01	0	54	104	0	51	33753
2026-01-02 02:17:49.05	2.83	10.52	-40.5	-59.5	3.8	7.42e-01	0	54	104	0	51	34132
2026-01-02 02:17:52.09	2.56	10.78	-40.4	-59.3	3.8	7.47e-01	0	54	104	0	51	33635
2026-01-02 02:17:55.12	2.28	11.05	-40.4	-59.6	3.8	7.46e-01	0	54	104	0	51	34596
2026-01-02 02:17:58.15	2.00	11.31	-40.3	-59.3	3.8	7.44e-01	0	54	104	0	51	33334
2026-01-02 02:18:01.18	1.71	11.58	-40.1	-59.5	3.8	7.45e-01	0	54	104	0	51	34473
2026-01-02 02:18:04.21	1.41	11.86	-40.2	-59.3	3.8	7.45e-01	0	54	104	0	52	31495
2026-01-02 02:18:07.24	1.11	12.13	-39.9	-59.6	3.8	7.46e-01	0	54	104	0	51	34534
2026-01-02 02:18:10.27	0.80	12.41	-40.2	-59.5	3.8	7.44e-01	0	55	104	0	51	34224
2026-01-02 02:18:13.30	0.49	12.69	-40.4	-58.2	3.8	7.45e-01	0	55	104	0	52	27718
2026-01-02 02:18:16.33	0.17	12.97	-40.4	-55.7	4.3	7.27e-01	0	55	104	524288	52	20913
2026-01-02 02:18:19.37	359.84	13.26	-40.7	-44.9	16.4	6.03e-01	0	55	0	5767168	52	6052
2026-01-02 02:18:22.39	359.51	13.55	-39.8	-42.8	19.4	6.01e-01	0	55	0	11534336	51	4991
2026-01-02 02:18:25.42	359.16	13.84	-38.1	-40.2	22.1	6.00e-01	0	55	0	16777216	48	4437
2026-01-02 02:18:28.45	358.82	14.13	-37.5	-39.5	22.5	6.02e-01	0	55	0	22544384	46	4598
2026-01-02 02:18:31.48	358.46	14.43	-37.5	-39.5	22.7	6.04e-01	0	55	0	28311552	46	4556
2026-01-02 02:18:34.50	358.09	14.73	-37.3	-39.3	23.0	6.04e-01	0	55	0	34078720	46	4449
2026-01-02 02:18:37.53	357.72	15.03	-37.7	-39.7	22.7	6.03e-01	0	55	0	39845888	46	4662
2026-01-02 02:18:40.56	357.34	15.34	-37.3	-39.2	22.9	6.01e-01	0	55	0	45613056	46	4433
2026-01-02 02:18:43.59	356.95	15.65	-37.0	-38.9	22.9	6.01e-01	0	55	0	50855936	45	4520
2026-01-02 02:18:46.62	356.55	15.96	-37.4	-39.6	21.7	6.01e-01	0	55	0	56623104	45	4901
2026-01-02 02:18:49.64	356.14	16.28	-39.4	-43.1	17.6	6.01e-01	0	55	0	62390272	49	5831
2026-01-02 02:18:52.67	355.72	16.59	-40.6	-48.1	11.4	6.09e-01	0	55	0	68157440	51	9235
2026-01-02 02:18:55.70	355.29	16.92	-40.8	-54.0	5.3	7.02e-01	0	55	0	73400320	52	17265
2026-01-02 02:18:58.73	354.85	17.24	-40.7	-58.3	3.9	7.46e-01	0	56	104	73400320	52	28230
2026-01-02 02:19:01.76	354.40	17.57	-40.5	-59.6	3.8	7.47e-01	0	56	104	73400320	52	32821
2026-01-02 02:19:04.79	353.94	17.90	-41.1	-59.2	3.8	7.45e-01	0	56	104	73400320	52	31306
2026-01-02 02:19:07.82	353.47	18.23	-40.8	-59.8	3.8	7.48e-01	0	56	104	73400320	52	33342
2026-01-02 02:19:10.85	352.99	18.57	-41.0	-59.9	3.8	7.44e-01	0	55	104	73400320	52	33862
2026-01-02 02:19:13.88	352.50	18.91	-40.4	-59.9	3.8	7.43e-01	0	56	104	73400320	51	35784
2026-01-02 02:19:16.91	351.99	19.26	-40.5	-59.9	3.8	7.44e-01	0	56	104	73400320	52	33802
2026-01-02 02:19:19.94	351.47	19.60	-40.7	-59.9	3.8	7.42e-01	0	56	104	73400320	52	33883
2026-01-02 02:19:22.97	350.94	19.95	-41.3	-55.9	4.0	7.34e-01	0	56	104	73400320	53	20093
2026-01-02 02:19:26.00	350.39	20.30	-41.9	-50.9	9.4	6.26e-01	0	56	0	75497472	54	10777
2026-01-02 02:19:29.02	349.84	20.66	-42.4	-49.7	11.6	6.12e-01	0	56	0	80740352	55	8851
2026-01-02 02:19:32.05	349.26	21.01	-41.9	-46.8	15.2	5.99e-01	0	56	0	86507520	55	6281
2026-01-02 02:19:35.08	348.68	21.37	-41.4	-45.2	17.2	6.01e-01	0	56	0	92274688	54	5546
2026-01-02 02:19:38.11	348.08	21.74	-39.5	-42.0	20.6	6.02e-01	0	56	0	98041856	51	4574
2026-01-02 02:19:41.13	347.46	22.10	-38.1	-40.1	22.4	6.02e-01	0	56	0	103809024	48	4377
2026-01-02 02:19:44.16	346.83	22.47	-37.4	-39.3	23.2	6.00e-01	0	56	0	109051904	46	4460
2026-01-02 02:19:47.19	346.18	22.84	-37.6	-39.5	23.2	6.00e-01	0	56	0	114819072	46	4572
2026-01-02 02:19:50.22	345.51	23.21	-37.3	-39.1	23.6	6.00e-01	0	56	0	120586240	46	4374
2026-01-02 02:19:53.25	344.83	23.58	-37.5	-39.3	23.5	6.02e-01	0	56	0	126353408	46	4448
2026-01-02 02:19:56.28	344.13	23.95	-37.5	-39.3	23.6	6.03e-01	0	56	0	132120576	46	4450
2026-01-02 02:19:59.30	343.42	24.33	-37.3	-39.1	23.8	6.00e-01	0	56	0	137887744	46	4351
2026-01-02 02:20:02.33	342.68	24.70	-37.3	-39.0	23.9	6.01e-01	0	56	0	143130624	46	4315
2026-01-02 02:20:05.36	341.93	25.08	-37.5	-39.2	23.7	6.04e-01	0	56	0	148897792	46	4433
2026-01-02 02:20:08.39	341.15	25.46	-37.4	-39.2	23.8	6.00e-01	0	56	0	154664960	46	4414
2026-01-02 02:20:11.42	340.36	25.84	-37.3	-39.0	24.0	5.99e-01	0	56	0	160432128	46	4328
2026-01-02 02:20:14.44	339.55	26.21	-37.2	-38.9	24.2	6.00e-01	0	56	0	166199296	46	4264
2026-01-02 02:20:17.47	338.71	26.59	-37.1	-38.8	24.3	6.03e-01	0	56	0	171966464	46	4237
2026-01-02 02:20:20.50	337.86	26.97	-37.3	-39.0	24.1	6.01e-01	0	56	0	177209344	46	4323
2026-01-02 02:20:23.53	336.98	27.34	-37.2	-38.9	24.2	6.00e-01	0	56	0	182976512	46	4247
2026-01-02 02:20:26.56	336.08	27.71	-37.0	-38.7	24.4	6.00e-01	0	56	0	188743680	45	4406
2026-01-02 02:20:29.59	335.16	28.08	-37.0	-38.7	24.4	6.03e-01	0	56	0	194510848	45	4432
2026-01-02 02:20:32.61	334.22	28.45	-37.0	-38.7	24.5	6.02e-01	0	56	0	200278016	45	4402
2026-01-02 02:20:35.64	333.25	28.82	-37.0	-38.6	24.5	6.02e-01	0	56	0	205520896	45	4370
2026-01-02 02:20:38.67	332.26	29.18	-36.8	-38.4	24.8	6.00e-01	0	56	0	211288064	45	4257
2026-01-02 02:20:41.69	331.25	29.53	-36.9	-38.5	24.6	6.02e-01	0	56	0	217055232	45	4336
2026-01-02 02:20:44.72	330.21	29.88	-36.8	-38.5	24.7	6.01e-01	0	56	0	222822400	45	4301
2026-01-02 02:20:47.75	329.15	30.22	-36.7	-38.3	24.9	6.02e-01	0	56	0	228589568	45	4206
2026-01-02 02:20:50.78	328.07	30.56	-36.9	-38.5	24.6	6.03e-01	0	56	0	234356736	45	4320
2026-01-02 02:20:53.81	326.96	30.89	-36.7	-38.3	24.8	6.03e-01	0	56	0	240123904	45	4214
2026-01-02 02:20:56.84	325.83	31.21	-36.8	-38.5	24.7	6.00e-01	0	56	0	245366784	45	4310
2026-01-02 02:20:59.86	324.68	31.53	-36.8	-38.5	24.7	6.02e-01	0	56	0	251133952	45	4299
2026-01-02 02:21:02.89	323.50	31.83	-36.7	-38.4	24.8	6.02e-01	0	56	0	256901120	45	4244
2026-01-02 02:21:05.92	322.30	32.12	-36.8	-38.5	24.7	5.99e-01	0	56	0	262668288	45	4292
2026-01-02 02:21:08.95	321.08	32.41	-36.9	-38.6	24.6	6.00e-01	0	56	0	268435456	45	4343
2026-01-02 02:21:11.98	319.84	32.68	-36.9	-38.6	24.6	6.00e-01	0	56	0	273678336	45	4362
2026-01-02 02:21:15.01	318.57	32.94	-36.9	-38.5	24.6	6.02e-01	0	56	0	279445504	45	4314
2026-01-02 02:21:18.03	317.29	33.18	-37.0	-38.7	24.5	6.01e-01	0	56	0	285212672	45	4404
2026-01-02 02:21:21.06	315.99	33.41	-37.1	-38.8	24.5	6.02e-01	0	56	0	290979840	45	4455
2026-01-02 02:21:24.09	314.66	33.63	-37.4	-39.1	24.1	6.00e-01	0	56	0	296747008	45	4620
2026-01-02 02:21:27.12	313.32	33.83	-37.8	-39.6	23.6	6.01e-01	0	56	0	302514176	46	4638
2026-01-02 02:21:30.15	311.96	34.01	-37.0	-38.7	24.3	6.01e-01	0	56	0	308281344	46	4158
2026-01-02 02:21:33.18	310.59	34.18	-37.0	-38.6	24.6	6.02e-01	0	56	0	313524224	45	4365
2026-01-02 02:21:36.20	309.20	34.32	-37.6	-39.3	23.9	6.01e-01	0	57	0	319291392	45	4750
2026-01-02 02:21:39.23	307.80	34.45	-37.5	-39.2	24.0	6.00e-01	0	57	0	325058560	45	4681
2026-01-02 02:21:42.26	306.39	34.57	-37.6	-39.4	23.6	6.03e-01	0	56	0	330825728	46	4526
2026-01-02 02:21:45.29	304.97	34.66	-37.4	-39.2	24.0	6.01e-01	0	56	0	336592896	45	4672
2026-01-02 02:21:48.33	303.54	34.73	-37.4	-39.1	23.9	6.00e-01	0	57	0	341835776	46	4354
2026-01-02 02:21:51.35	302.11	34.79	-36.9	-38.5	24.6	6.02e-01	0	56	0	347602944	45	4325
2026-01-02 02:21:54.39	300.67	34.82	-37.4	-39.1	24.1	6.01e-01	0	56	0	353370112	46	4389
2026-01-02 02:21:57.41	299.23	34.83	-38.1	-40.0	23.3	6.00e-01	0	57	0	359137280	46	4837
2026-01-02 02:22:00.44	297.79	34.83	-37.7	-39.6	23.3	6.01e-01	0	57	0	364904448	47	4342
2026-01-02 02:22:03.47	296.35	34.80	-37.5	-39.3	23.7	5.99e-01	0	56	0	370671616	47	4202
2026-01-02 02:22:06.50	294.92	34.76	-37.3	-39.0	24.0	6.00e-01	0	57	0	376438784	46	4321
2026-01-02 02:22:09.53	293.49	34.69	-37.2	-38.9	24.3	6.00e-01	0	56	0	381681664	46	4257
2026-01-02 02:22:12.56	292.06	34.60	-37.6	-39.3	23.9	6.04e-01	0	56	0	387448832	47	4228
2026-01-02 02:22:15.58	290.65	34.50	-38.3	-40.2	22.8	6.01e-01	0	56	0	393216000	47	4699
2026-01-02 02:22:18.61	289.25	34.37	-39.6	-41.9	21.8	6.00e-01	0	57	0	398983168	49	5058
2026-01-02 02:22:21.64	287.85	34.23	-38.2	-40.0	23.5	6.01e-01	0	56	0	404750336	48	4308
2026-01-02 02:22:24.66	286.47	34.07	-37.7	-39.5	23.8	6.00e-01	0	57	0	409993216	47	4295
2026-01-02 02:22:27.70	285.10	33.90	-37.9	-39.7	23.5	6.00e-01	0	56	0	415760384	47	4430
2026-01-02 02:22:30.73	283.75	33.70	-38.1	-40.0	23.2	5.99e-01	0	57	0	421527552	47	4577
2026-01-02 02:22:33.76	282.42	33.49	-38.0	-39.9	23.3	5.99e-01	0	57	0	427294720	46	4779
2026-01-02 02:22:36.78	281.11	33.27	-37.6	-39.4	23.7	6.02e-01	0	57	0	433061888	46	4515
2026-01-02 02:22:39.81	279.81	33.03	-37.4	-39.1	23.9	5.98e-01	0	56	0	438829056	46	4383
2026-01-02 02:22:42.84	278.53	32.77	-37.8	-39.6	23.5	5.99e-01	0	56	0	444071936	46	4650
2026-01-02 02:22:45.87	277.28	32.51	-37.4	-39.1	24.0	6.01e-01	0	56	0	449839104	46	4389
2026-01-02 02:22:48.90	276.05	32.23	-37.4	-39.2	24.0	6.00e-01	0	57	0	455606272	46	4395
2026-01-02 02:22:51.93	274.83	31.94	-37.7	-39.5	23.7	5.99e-01	0	57	0	461373440	46	4558
2026-01-02 02:22:54.96	273.64	31.63	-38.0	-39.9	23.2	6.03e-01	0	56	0	467140608	47	4502
2026-01-02 02:22:57.99	272.48	31.32	-38.4	-40.4	22.8	6.02e-01	0	57	0	472907776	47	4809
2026-01-02 02:23:01.02	271.33	31.00	-38.5	-40.5	22.7	6.02e-01	0	57	0	478150656	47	4867
2026-01-02 02:23:04.05	270.21	30.67	-37.4	-39.1	24.1	6.03e-01	0	57	0	483917824	46	4345
2026-01-02 02:23:07.08	269.12	30.34	-38.1	-40.0	23.1	6.03e-01	0	57	0	489684992	47	4557
2026-01-02 02:23:10.11	268.05	29.99	-37.8	-39.6	23.5	5.99e-01	0	57	0	495452160	47	4377
2026-01-02 02:23:13.13	267.00	29.65	-37.7	-39.4	23.7	6.00e-01	0	57	0	501219328	47	4286
2026-01-02 02:23:16.16	265.97	29.29	-37.6	-39.3	23.8	6.02e-01	0	57	0	506986496	46	4490
2026-01-02 02:23:19.20	264.97	28.93	-37.6	-39.4	23.7	6.00e-01	0	57	0	512753664	46	4507
2026-01-02 02:23:22.22	263.99	28.57	-37.8	-39.6	23.6	6.01e-01	0	56	0	517996544	46	4614
2026-01-02 02:23:25.25	263.04	28.20	-37.8	-39.6	23.5	6.01e-01	0	57	0	523763712	46	4607
2026-01-02 02:23:28.28	262.10	27.83	-37.9	-39.8	23.4	6.03e-01	0	57	0	529530880	46	4727
2026-01-02 02:23:31.31	261.19	27.45	-37.9	-39.8	23.4	6.03e-01	0	57	0	535298048	46	4719
2026-01-02 02:23:34.34	260.30	27.08	-38.0	-39.8	23.3	6.02e-01	0	57	0	541065216	46	4742
2026-01-02 02:23:37.37	259.44	26.70	-37.7	-39.4	23.6	5.99e-01	0	57	0	546308096	46	4541
2026-01-02 02:23:40.39	258.59	26.32	-38.1	-40.0	23.1	6.01e-01	0	57	0	552075264	46	4836
2026-01-02 02:23:43.42	257.77	25.94	-37.7	-39.5	23.6	6.01e-01	0	57	0	557842432	46	4591
2026-01-02 02:23:46.45	256.96	25.56	-38.0	-39.9	23.2	6.01e-01	0	57	0	563609600	46	4801
2026-01-02 02:23:49.48	256.18	25.18	-38.0	-39.8	23.3	6.01e-01	0	57	0	569376768	46	4754
2026-01-02 02:23:52.51	255.41	24.80	-38.0	-39.9	23.2	6.03e-01	0	57	0	575143936	46	4782
2026-01-02 02:23:55.54	254.66	24.43	-37.9	-39.8	23.2	5.99e-01	0	57	0	580386816	46	4729
2026-01-02 02:23:58.56	253.94	24.05	-38.0	-39.9	23.2	6.01e-01	0	57	0	586153984	46	4788
2026-01-02 02:24:01.59	253.23	23.67	-37.9	-39.8	23.3	6.00e-01	0	57	0	591921152	46	4734
2026-01-02 02:24:04.62	252.54	23.30	-38.2	-40.1	23.0	6.00e-01	0	57	0	597688320	46	4918
2026-01-02 02:24:07.65	251.86	22.92	-37.9	-39.8	23.2	6.03e-01	0	57	0	603455488	47	4466
2026-01-02 02:24:10.68	251.20	22.55	-38.0	-39.9	23.2	6.01e-01	0	57	0	609222656	47	4498
2026-01-02 02:24:13.71	250.56	22.18	-38.1	-40.0	23.1	6.02e-01	0	57	0	614465536	47	4551
2026-01-02 02:24:16.74	249.94	21.82	-38.0	-39.9	23.1	6.01e-01	0	57	0	620232704	47	4521
2026-01-02 02:24:19.76	249.33	21.45	-37.9	-39.8	23.2	6.01e-01	0	57	0	625999872	47	4483
2026-01-02 02:24:22.79	248.73	21.09	-38.0	-39.9	23.1	6.03e-01	0	57	0	631767040	47	4526
2026-01-02 02:24:25.82	248.15	20.73	-37.9	-39.8	23.2	6.02e-01	0	57	0	637534208	47	4446
2026-01-02 02:24:28.85	247.58	20.37	-37.9	-39.8	23.2	6.00e-01	0	57	0	643301376	47	4464
2026-01-02 02:24:31.88	247.03	20.02	-38.0	-39.9	23.1	6.01e-01	0	57	0	648544256	47	4515
2026-01-02 02:24:34.91	246.49	19.66	-38.0	-39.9	23.0	6.01e-01	0	57	0	654311424	47	4545
2026-01-02 02:24:37.94	245.97	19.32	-37.8	-39.6	23.3	6.02e-01	0	57	0	660078592	47	4377
2026-01-02 02:24:40.97	245.45	18.97	-38.0	-39.9	23.1	6.01e-01	0	57	0	665845760	47	4520
2026-01-02 02:24:44.00	244.95	18.63	-38.0	-39.9	23.1	6.02e-01	0	57	0	671612928	47	4507
2026-01-02 02:24:47.02	244.46	18.29	-37.8	-39.7	23.2	6.01e-01	0	57	0	677380096	47	4417
2026-01-02 02:24:50.05	243.98	17.95	-37.7	-39.6	23.3	6.02e-01	0	57	0	682622976	47	4358
2026-01-02 02:24:53.08	243.52	17.62	-37.8	-39.7	23.3	6.00e-01	0	57	0	688390144	47	4408
2026-01-02 02:24:56.11	243.06	17.29	-37.9	-39.9	23.0	6.02e-01	0	57	0	694157312	47	4504
2026-01-02 02:24:59.14	242.61	16.96	-37.7	-39.5	23.3	6.01e-01	0	57	0	699924480	47	4314
2026-01-02 02:25:02.18	242.18	16.63	-37.9	-39.8	23.1	6.00e-01	0	57	0	705691648	47	4468
2026-01-02 02:25:05.20	241.75	16.31	-37.9	-39.8	23.1	5.97e-01	0	57	0	711458816	47	4455
2026-01-02 02:25:08.23	241.34	15.99	-37.8	-39.7	23.2	6.02e-01	0	57	0	716701696	47	4393
2026-01-02 02:25:11.26	240.93	15.68	-37.9	-39.9	23.0	6.02e-01	0	57	0	722468864	47	4504
2026-01-02 02:25:14.29	240.53	15.37	-37.9	-39.9	23.0	6.02e-01	0	57	0	728236032	47	4500
2026-01-02 02:25:17.32	240.15	15.06	-37.8	-39.7	23.1	6.01e-01	0	57	0	734003200	47	4438
2026-01-02 02:25:20.34	239.77	14.75	-38.0	-39.9	22.9	6.01e-01	0	57	0	739770368	47	4519
2026-01-02 02:25:23.37	239.40	14.45	-38.1	-40.1	22.7	5.98e-01	0	57	0	745537536	47	4611
2026-01-02 02:25:26.40	239.03	14.15	-38.1	-40.1	22.7	6.03e-01	0	57	0	750780416	47	4632
2026-01-02 02:25:29.43	238.68	13.85	-38.0	-39.9	22.9	6.00e-01	0	57	0	756547584	47	4530
2026-01-02 02:25:32.46	238.33	13.56	-37.9	-39.8	23.0	6.00e-01	0	57	0	762314752	47	4489
2026-01-02 02:25:35.49	237.99	13.27	-38.1	-40.1	22.7	6.00e-01	0	57	0	768081920	47	4638
2026-01-02 02:25:38.52	237.66	12.98	-38.4	-40.4	22.3	6.02e-01	0	57	0	773849088	47	4798
2026-01-02 02:25:41.55	237.33	12.70	-38.2	-40.2	22.5	6.00e-01	0	57	0	779616256	47	4669
2026-01-02 02:25:44.58	237.01	12.41	-38.1	-40.1	22.7	6.02e-01	0	57	0	784859136	47	4615
2026-01-02 02:25:47.60	236.70	12.13	-38.2	-40.2	22.5	6.00e-01	0	57	0	790626304	47	4697
2026-01-02 02:25:50.63	236.39	11.86	-38.2	-40.2	22.5	5.99e-01	0	57	0	796393472	47	4696
2026-01-02 02:25:53.66	236.09	11.58	-38.2	-40.3	22.4	6.01e-01	0	57	0	802160640	47	4706
2026-01-02 02:25:56.69	235.80	11.31	-38.4	-40.5	22.2	6.02e-01	0	57	0	807927808	47	4815
2026-01-02 02:25:59.72	235.51	11.04	-38.6	-40.7	22.0	6.00e-01	0	57	0	813694976	47	4970
2026-01-02 02:26:02.74	235.23	10.78	-38.5	-40.7	22.0	6.02e-01	0	57	0	818937856	47	4928
2026-01-02 02:26:05.77	234.95	10.51	-38.5	-40.6	22.0	5.98e-01	0	57	0	824705024	47	4896
2026-01-02 02:26:08.80	234.68	10.25	-38.5	-40.7	22.0	5.99e-01	0	57	0	830472192	47	4934
2026-01-02 02:26:11.83	234.41	9.99	-38.6	-40.8	21.9	6.01e-01	0	57	0	836239360	47	4988
2026-01-02 02:26:14.85	234.15	9.74	-38.5	-40.6	21.9	6.00e-01	0	57	0	842006528	47	4924
2026-01-02 02:26:17.88	233.90	9.48	-38.5	-40.7	21.8	6.00e-01	0	57	0	847249408	47	4963
2026-01-02 02:26:20.91	233.65	9.23	-38.6	-40.9	21.7	6.04e-01	0	57	0	853016576	47	5048
2026-01-02 02:26:23.94	233.40	8.98	-39.1	-41.3	21.6	6.00e-01	0	57	0	858783744	48	5015
2026-01-02 02:26:26.97	233.16	8.74	-39.2	-41.5	21.4	6.02e-01	0	57	0	864550912	48	5122
2026-01-02 02:26:30.00	232.92	8.49	-39.2	-41.5	21.4	6.01e-01	0	57	0	870318080	49	4821
2026-01-02 02:26:33.03	232.69	8.25	-39.2	-41.6	21.3	6.00e-01	0	57	0	876085248	49	4875
2026-01-02 02:26:36.06	232.46	8.01	-39.2	-41.5	21.3	5.99e-01	0	57	0	881852416	49	4833
2026-01-02 02:26:39.09	232.24	7.77	-45.5	-64.3	3.8	7.46e-01	0	57	104	882900992	61	33351
2026-01-02 02:26:42.12	232.02	7.53	-45.8	-64.6	3.8	7.46e-01	0	57	104	882900992	62	32667
2026-01-02 02:26:45.16	231.80	7.30	-45.9	-64.7	3.8	7.48e-01	0	57	104	882900992	62	33009
2026-01-02 02:26:48.19	231.59	7.07	-45.8	-64.6	3.8	7.46e-01	0	57	104	882900992	62	32701
2026-01-02 02:26:51.22	231.38	6.84	-45.8	-64.6	3.8	7.44e-01	0	57	104	882900992	62	32561
2026-01-02 02:26:54.25	231.17	6.61	-45.7	-64.5	3.8	7.47e-01	0	57	104	882900992	62	32392
2026-01-02 02:26:57.29	230.97	6.38	-45.7	-64.5	3.8	7.49e-01	0	57	104	882900992	62	32312
2026-01-02 02:27:00.32	230.77	6.16	-45.6	-64.5	3.8	7.44e-01	0	57	104	882900992	62	32229
2026-01-02 02:27:03.35	230.58	5.93	-45.6	-64.5	3.8	7.45e-01	0	57	104	882900992	62	32349
2026-01-02 02:27:06.38	230.39	5.71	-45.7	-64.5	3.8	7.46e-01	0	57	104	882900992	62	32278
2026-01-02 02:27:09.42	230.20	5.49	-45.7	-64.5	3.8	7.45e-01	0	57	104	882900992	62	32294
2026-01-02 02:27:12.45	230.01	5.28	-45.7	-64.5	3.8	7.47e-01	0	57	104	882900992	62	32262
2026-01-02 02:27:15.48	229.83	5.06	-45.7	-64.5	3.8	7.43e-01	0	57	104	882900992	62	32199
2026-01-02 02:27:18.52	229.65	4.85	-45.7	-64.5	3.8	7.46e-01	0	57	104	882900992	62	32228
2026-01-02 02:27:21.55	229.48	4.63	-45.7	-64.5	3.8	7.46e-01	0	57	104	882900992	62	32207
2026-01-02 02:27:24.58	229.30	4.42	-45.7	-64.5	3.8	7.43e-01	0	58	104	882900992	62	32264
2026-01-02 02:27:27.62	229.13	4.21	-45.7	-64.5	3.8	7.43e-01	0	58	104	882900992	62	32233
2026-01-02 02:27:30.65	228.97	4.01	-45.7	-64.5	3.8	7.45e-01	0	58	104	882900992	62	32265
2026-01-02 02:27:33.68	228.80	3.80	-45.7	-64.5	3.8	7.47e-01	0	57	104	882900992	62	32225
2026-01-02 02:27:36.71	228.64	3.60	-45.7	-64.5	3.8	7.47e-01	0	57	104	882900992	62	32204
2026-01-02 02:27:39.75	228.48	3.39	-45.7	-64.5	3.8	7.47e-01	0	58	104	882900992	62	32248
2026-01-02 02:27:42.78	228.32	3.19	-45.7	-64.5	3.8	7.44e-01	0	57	104	882900992	62	32287
2026-01-02 02:27:45.81	228.17	2.99	-45.7	-64.5	3.8	7.43e-01	0	57	104	882900992	62	32224
2026-01-02 02:27:48.85	228.02	2.79	-45.7	-64.5	3.8	7.44e-01	0	57	104	882900992	62	32248
2026-01-02 02:27:51.88	227.87	2.60	-45.7	-64.5	3.8	7.47e-01	0	58	104	882900992	62	32207
2026-01-02 02:27:54.92	227.72	2.40	-45.7	-64.5	3.8	7.45e-01	0	58	104	882900992	62	32193
2026-01-02 02:27:57.95	227.57	2.21	-45.7	-64.5	3.8	7.45e-01	0	57	104	882900992	62	32197
2026-01-02 02:28:00.98	227.43	2.01	-45.7	-64.5	3.8	7.45e-01	0	57	104	882900992	62	32224

#Closed at: 2026-01-02 02:28:01
#Recorded file [882 MB]: D:/lorett/data/31039_260102_051553.dat