passes_logs/2026/01/02/R2.0S_Moscow/R2.0S_Moscow__20260102_030636_FENGYUN_3E_rec.log

#Pass ID: 20260102_030636_FENGYUN 3E
#Satellite: FENGYUN 3E
#Configuration: FENGYUN 3E
#almurnet v.1.7.20251203
#Start time: 2026-01-02 03:13:11

#Version: 2.2.20231116
#Station: R2.0S_Moscow
#Location: 37.707566 lon 55.798166 lat
#TLE: 1 49008U 21062A   26001.26445318  .00000475  00000+0  24453-3 0  9990
#TLE: 2 49008  98.7480   6.5551 0001357 167.8415 192.2795 14.19884467232890

#Time	Az	El	Level	Level2	SNR	BER	BlckErr	Temp	State	Recorded	gain1	gain2
2026-01-02 03:13:11.67	84.00	41.01	-44.7	-56.3	3.8	8.48e-01	0	57	0	0	60	14103
2026-01-02 03:13:13.68	84.95	41.13	-45.5	-56.7	3.8	8.46e-01	0	58	104	0	61	13174
2026-01-02 03:13:15.70	85.90	41.25	-45.5	-56.7	3.8	8.46e-01	0	58	104	0	61	13124
2026-01-02 03:13:17.72	86.87	41.35	-45.4	-56.6	3.8	8.47e-01	0	58	104	0	61	13046
2026-01-02 03:13:19.75	87.84	41.45	-45.4	-56.6	3.8	8.46e-01	0	58	104	0	61	12990
2026-01-02 03:13:21.77	88.82	41.53	-45.4	-56.6	3.8	8.46e-01	0	58	104	0	61	13001
2026-01-02 03:13:23.79	89.80	41.61	-45.4	-56.5	3.8	8.46e-01	0	58	104	0	61	12926
2026-01-02 03:13:25.81	90.78	41.68	-45.5	-56.7	3.8	8.46e-01	0	58	104	0	61	13118
2026-01-02 03:13:27.83	91.77	41.74	-45.3	-56.5	3.8	8.46e-01	0	58	104	0	61	12828
2026-01-02 03:13:29.85	92.76	41.79	-45.3	-56.5	3.8	8.46e-01	0	58	104	0	61	12868
2026-01-02 03:13:31.88	93.76	41.83	-45.3	-56.5	3.8	8.46e-01	0	58	104	0	61	12878
2026-01-02 03:13:33.90	94.76	41.86	-45.3	-56.4	3.8	8.46e-01	0	58	104	0	61	12786
2026-01-02 03:13:35.92	95.76	41.88	-45.3	-56.4	3.8	8.45e-01	0	58	104	0	61	12783
2026-01-02 03:13:37.94	96.76	41.90	-45.3	-56.5	3.8	8.47e-01	0	58	104	0	61	12883
2026-01-02 03:13:39.97	97.76	41.90	-45.3	-56.5	3.8	8.46e-01	0	58	104	0	61	12825
2026-01-02 03:13:41.99	98.76	41.89	-45.3	-56.5	3.8	8.46e-01	0	58	104	0	61	12822
2026-01-02 03:13:44.01	99.76	41.87	-45.2	-56.4	3.8	8.46e-01	0	58	104	0	61	12768
2026-01-02 03:13:46.03	100.76	41.85	-45.3	-56.4	3.8	8.47e-01	0	58	104	0	61	12712
2026-01-02 03:13:48.05	101.76	41.81	-45.2	-56.2	3.8	8.45e-01	0	58	104	0	61	12492
2026-01-02 03:13:50.08	102.76	41.77	-45.2	-56.5	3.8	8.46e-01	0	58	104	0	61	12829
2026-01-02 03:13:52.10	103.75	41.71	-45.2	-56.4	3.8	8.46e-01	0	58	104	0	61	12712
2026-01-02 03:13:54.12	104.74	41.65	-45.2	-55.9	3.8	8.46e-01	0	58	104	0	61	12023
2026-01-02 03:13:56.14	105.72	41.57	-45.2	-56.1	3.8	8.47e-01	0	58	104	0	61	12358
2026-01-02 03:13:58.16	106.70	41.49	-45.2	-56.1	3.8	8.46e-01	0	58	104	0	61	12312
2026-01-02 03:14:00.19	107.68	41.40	-44.7	-52.6	4.3	8.39e-01	0	58	0	0	60	8734
2026-01-02 03:14:02.21	108.65	41.30	-44.5	-51.2	4.5	8.46e-01	0	58	104	0	59	7844
2026-01-02 03:14:04.23	109.61	41.19	-34.8	-36.0	18.7	0.00e+00	0	58	0	12582912	40	4055
2026-01-02 03:14:06.25	110.56	41.08	-31.6	-32.5	21.4	0.00e+00	0	58	0	27262976	33	4085
2026-01-02 03:14:08.27	111.51	40.95	-34.0	-35.0	19.6	0.00e+00	0	58	0	38797312	39	3840
2026-01-02 03:14:10.29	112.45	40.82	-34.2	-35.2	19.4	0.00e+00	0	58	0	53477376	39	3941
2026-01-02 03:14:12.31	113.39	40.68	-31.1	-32.0	21.8	0.00e+00	0	58	0	68157440	33	3864
2026-01-02 03:14:14.33	114.31	40.53	-31.5	-32.4	21.5	0.00e+00	0	58	0	82837504	33	4049
2026-01-02 03:14:16.35	115.23	40.37	-31.2	-32.1	21.7	0.00e+00	0	58	0	97517568	33	3898
2026-01-02 03:14:18.37	116.14	40.21	-30.6	-31.5	22.3	0.00e+00	0	58	0	112197632	32	3843
2026-01-02 03:14:20.40	117.04	40.03	-30.7	-31.6	22.3	0.00e+00	0	58	0	126877696	32	3873
2026-01-02 03:14:22.42	117.93	39.86	-30.7	-31.6	22.3	0.00e+00	0	58	0	141557760	32	3891
2026-01-02 03:14:24.44	118.81	39.67	-30.7	-31.6	22.2	0.00e+00	0	58	0	156237824	32	3896
2026-01-02 03:14:26.45	119.67	39.48	-30.6	-31.5	22.3	0.00e+00	0	58	0	169869312	32	3856
2026-01-02 03:14:28.47	120.53	39.29	-30.7	-31.6	22.2	0.00e+00	0	58	0	185597952	32	3890
2026-01-02 03:14:30.50	121.39	39.08	-30.9	-31.8	22.1	0.00e+00	0	58	0	199229440	32	3963
2026-01-02 03:14:32.52	122.22	38.87	-30.9	-31.8	21.9	0.00e+00	0	58	0	213909504	32	3997
2026-01-02 03:14:34.54	123.05	38.66	-31.0	-32.0	21.6	0.00e+00	0	58	0	228589568	32	4063
2026-01-02 03:14:36.56	123.87	38.44	-31.2	-32.1	21.7	0.00e+00	0	58	0	243269632	32	4141
2026-01-02 03:14:38.58	124.67	38.22	-31.0	-31.9	22.0	0.00e+00	0	58	0	257949696	32	4019
2026-01-02 03:14:40.60	125.47	37.99	-30.7	-31.6	22.1	0.00e+00	0	58	0	272629760	32	3897
2026-01-02 03:14:42.62	126.25	37.76	-30.7	-31.6	22.2	0.00e+00	0	58	0	287309824	32	3896
2026-01-02 03:14:44.64	127.03	37.52	-30.7	-31.6	22.2	0.00e+00	0	58	0	301989888	32	3896
2026-01-02 03:14:46.66	127.79	37.28	-30.7	-31.6	22.2	0.00e+00	0	58	0	316669952	32	3892
2026-01-02 03:14:48.68	128.54	37.03	-30.7	-31.6	22.2	0.00e+00	0	58	0	331350016	32	3891
2026-01-02 03:14:50.70	129.28	36.79	-30.7	-31.6	22.2	0.00e+00	0	58	0	344981504	32	3888
2026-01-02 03:14:52.72	130.01	36.54	-30.8	-31.6	22.2	0.00e+00	0	58	0	359661568	32	3911
2026-01-02 03:14:54.74	130.73	36.28	-30.6	-31.5	22.3	0.00e+00	0	58	0	374341632	32	3854
2026-01-02 03:14:56.77	131.44	36.02	-30.4	-31.3	22.3	0.00e+00	0	58	0	389021696	31	3990
2026-01-02 03:14:58.79	132.13	35.76	-30.5	-31.4	22.2	0.00e+00	0	58	0	403701760	31	4042
2026-01-02 03:15:00.80	132.82	35.50	-30.9	-31.9	21.5	0.00e+00	0	58	0	418381824	31	4244
2026-01-02 03:15:02.82	133.49	35.24	-30.7	-31.6	22.1	0.00e+00	0	58	0	433061888	31	4100
2026-01-02 03:15:04.84	134.15	34.97	-30.7	-31.5	22.1	0.00e+00	0	58	0	447741952	31	4096
2026-01-02 03:15:06.86	134.81	34.70	-30.5	-31.4	22.3	0.00e+00	0	58	0	462422016	31	4006
2026-01-02 03:15:08.89	135.45	34.43	-30.4	-31.3	22.4	0.00e+00	0	58	0	477102080	31	3973
2026-01-02 03:15:10.91	136.08	34.16	-30.4	-31.3	22.1	0.00e+00	0	58	0	490733568	31	3983
2026-01-02 03:15:12.93	136.71	33.88	-30.6	-31.5	22.2	0.00e+00	0	58	0	506462208	31	4068
2026-01-02 03:15:14.95	137.32	33.61	-30.9	-31.8	21.8	0.00e+00	0	58	0	520093696	31	4231
2026-01-02 03:15:16.97	137.92	33.33	-31.1	-32.0	21.7	0.00e+00	0	58	0	534773760	31	4324
2026-01-02 03:15:18.99	138.51	33.06	-31.0	-32.0	21.7	0.00e+00	0	58	0	549453824	31	4299
2026-01-02 03:15:21.01	139.09	32.78	-30.7	-31.6	22.0	0.00e+00	0	58	0	564133888	31	4145
2026-01-02 03:15:23.03	139.66	32.50	-30.4	-31.3	22.3	0.00e+00	0	58	0	578813952	31	3996
2026-01-02 03:15:25.05	140.23	32.23	-30.4	-31.3	22.3	0.00e+00	0	58	0	593494016	31	3985
2026-01-02 03:15:27.07	140.78	31.95	-30.6	-31.5	22.0	0.00e+00	0	58	0	608174080	31	4084
2026-01-02 03:15:29.09	141.32	31.67	-30.9	-31.8	21.8	0.00e+00	0	58	0	622854144	31	4212
2026-01-02 03:15:31.11	141.86	31.39	-30.9	-31.8	21.8	0.00e+00	0	58	0	637534208	31	4234
2026-01-02 03:15:33.13	142.38	31.11	-30.8	-31.7	21.9	0.00e+00	0	58	0	652214272	31	4176
2026-01-02 03:15:35.15	142.90	30.83	-30.8	-31.7	21.9	0.00e+00	0	58	0	665845760	31	4156
2026-01-02 03:15:37.18	143.41	30.55	-30.9	-31.8	21.8	0.00e+00	0	58	0	680525824	31	4206
2026-01-02 03:15:39.19	143.91	30.28	-30.9	-31.8	21.8	0.00e+00	0	58	0	695205888	31	4224
2026-01-02 03:15:41.21	144.40	30.00	-31.0	-32.0	21.7	0.00e+00	0	58	0	709885952	31	4293
2026-01-02 03:15:43.24	144.89	29.72	-30.9	-31.9	21.8	0.00e+00	0	58	0	724566016	31	4249
2026-01-02 03:15:45.26	145.36	29.44	-30.9	-31.8	21.8	0.00e+00	0	58	0	739246080	31	4228
2026-01-02 03:15:47.28	145.83	29.17	-30.8	-31.7	21.8	0.00e+00	0	58	0	753926144	31	4190
2026-01-02 03:15:49.30	146.29	28.89	-30.8	-31.7	21.8	0.00e+00	0	58	0	768606208	31	4193
2026-01-02 03:15:51.32	146.74	28.62	-31.0	-31.9	21.8	0.00e+00	0	58	0	783286272	31	4249
2026-01-02 03:15:53.34	147.19	28.34	-31.0	-31.9	21.7	0.00e+00	0	58	0	797966336	31	4272
2026-01-02 03:15:55.36	147.62	28.07	-30.8	-31.7	21.7	0.00e+00	0	58	0	811597824	31	4182
2026-01-02 03:15:57.38	148.05	27.80	-30.9	-31.8	21.8	0.00e+00	0	58	0	827326464	31	4219
2026-01-02 03:15:59.40	148.47	27.53	-30.9	-31.8	21.8	0.00e+00	0	58	0	840957952	31	4204
2026-01-02 03:16:01.42	148.89	27.26	-31.0	-31.9	21.7	0.00e+00	0	58	0	855638016	31	4261
2026-01-02 03:16:03.45	149.30	26.99	-31.1	-32.0	21.6	0.00e+00	0	58	0	870318080	31	4333
2026-01-02 03:16:05.47	149.70	26.72	-31.4	-32.3	21.5	0.00e+00	0	58	0	884998144	32	4238
2026-01-02 03:16:07.49	150.10	26.45	-31.5	-32.4	21.4	0.00e+00	0	59	0	899678208	32	4269
2026-01-02 03:16:09.51	150.49	26.19	-31.4	-32.4	21.4	0.00e+00	0	58	0	914358272	32	4256
2026-01-02 03:16:11.53	150.87	25.92	-31.3	-32.3	21.5	0.00e+00	0	58	0	929038336	32	4202
2026-01-02 03:16:13.55	151.25	25.66	-31.4	-32.3	21.4	0.00e+00	0	58	0	943718400	32	4231
2026-01-02 03:16:15.57	151.62	25.40	-31.3	-32.3	21.5	0.00e+00	0	58	0	958398464	32	4195
2026-01-02 03:16:17.59	151.98	25.14	-31.2	-32.1	21.6	0.00e+00	0	58	0	973078528	32	4135
2026-01-02 03:16:19.61	152.34	24.88	-31.3	-32.2	21.5	0.00e+00	0	58	0	986710016	32	4167
2026-01-02 03:16:21.63	152.70	24.62	-31.4	-32.3	21.5	0.00e+00	0	58	0	1001390080	32	4215
2026-01-02 03:16:23.65	153.05	24.37	-31.4	-32.3	21.4	0.00e+00	0	58	0	1016070144	32	4219
2026-01-02 03:16:25.67	153.39	24.11	-31.4	-32.3	21.4	0.00e+00	0	58	0	1030750208	32	4241
2026-01-02 03:16:27.69	153.72	23.86	-31.4	-32.4	21.4	0.00e+00	0	58	0	1045430272	32	4250
2026-01-02 03:16:29.71	154.06	23.61	-31.4	-32.4	21.4	0.00e+00	0	58	0	1060110336	32	4249
2026-01-02 03:16:31.73	154.38	23.36	-31.4	-32.3	21.4	0.00e+00	0	58	0	1074790400	32	4240
2026-01-02 03:16:33.75	154.71	23.11	-31.3	-32.3	21.5	0.00e+00	0	58	0	1089470464	32	4200
2026-01-02 03:16:35.77	155.02	22.86	-31.6	-32.6	21.1	0.00e+00	0	58	0	1104150528	32	4342
2026-01-02 03:16:37.79	155.33	22.62	-31.6	-32.6	21.2	0.00e+00	0	58	0	1118830592	33	4103
2026-01-02 03:16:39.81	155.64	22.37	-31.6	-32.6	21.2	0.00e+00	0	58	0	1132462080	33	4110
2026-01-02 03:16:41.82	155.94	22.13	-31.7	-32.6	21.1	0.00e+00	0	58	0	1148190720	33	4145
2026-01-02 03:16:43.85	156.24	21.89	-31.6	-32.6	21.1	0.00e+00	0	58	0	1161822208	33	4102
2026-01-02 03:16:45.86	156.53	21.65	-31.6	-32.5	21.1	0.00e+00	0	58	0	1176502272	33	4098
2026-01-02 03:16:47.88	156.82	21.41	-31.5	-32.5	21.2	0.00e+00	0	58	0	1191182336	33	4058
2026-01-02 03:16:49.90	157.11	21.18	-31.5	-32.4	21.2	0.00e+00	0	58	0	1205862400	33	4020
2026-01-02 03:16:51.92	157.39	20.94	-31.5	-32.4	21.2	0.00e+00	0	58	0	1220542464	33	4026
2026-01-02 03:16:53.94	157.67	20.71	-31.5	-32.4	21.2	0.00e+00	0	58	0	1235222528	33	4044
2026-01-02 03:16:55.96	157.94	20.48	-31.7	-32.6	21.0	0.00e+00	0	58	0	1249902592	33	4144
2026-01-02 03:16:57.98	158.21	20.25	-31.8	-32.7	20.9	0.00e+00	0	58	0	1264582656	33	4181
2026-01-02 03:17:00.00	158.47	20.02	-31.9	-32.8	20.8	0.00e+00	0	58	0	1279262720	33	4235
2026-01-02 03:17:02.02	158.73	19.79	-32.0	-33.0	20.7	0.00e+00	0	58	0	1293942784	33	4294
2026-01-02 03:17:04.04	158.99	19.56	-32.0	-33.0	20.6	0.00e+00	0	58	0	1307574272	33	4323
2026-01-02 03:17:06.06	159.24	19.34	-31.9	-32.9	20.7	0.00e+00	0	58	0	1322254336	33	4265
2026-01-02 03:17:08.08	159.49	19.12	-31.9	-32.9	20.7	0.00e+00	0	58	0	1336934400	33	4270
2026-01-02 03:17:10.10	159.74	18.90	-32.0	-32.9	20.7	0.00e+00	0	58	0	1351614464	33	4279
2026-01-02 03:17:12.13	159.98	18.67	-32.0	-32.9	20.7	0.00e+00	0	58	0	1366294528	33	4289
2026-01-02 03:17:14.15	160.22	18.46	-32.2	-33.1	20.5	0.00e+00	0	58	0	1380974592	33	4382
2026-01-02 03:17:16.17	160.46	18.24	-32.1	-33.0	20.4	0.00e+00	0	58	0	1395654656	34	4084
2026-01-02 03:17:18.19	160.69	18.02	-32.1	-33.0	20.5	0.00e+00	0	58	0	1410334720	34	4086
2026-01-02 03:17:20.21	160.92	17.81	-32.1	-33.1	20.6	0.00e+00	0	58	0	1425014784	34	4101
2026-01-02 03:17:22.23	161.15	17.60	-32.2	-33.1	20.4	0.00e+00	0	58	0	1439694848	34	4138
2026-01-02 03:17:24.26	161.38	17.38	-32.1	-33.0	20.6	0.00e+00	0	58	0	1453326336	34	4092
2026-01-02 03:17:26.28	161.60	17.17	-32.2	-33.1	20.4	0.00e+00	0	58	0	1469054976	34	4138
2026-01-02 03:17:28.30	161.81	16.97	-32.3	-33.3	20.3	0.00e+00	0	58	0	1482686464	34	4214
2026-01-02 03:17:30.32	162.03	16.76	-32.4	-33.4	20.1	0.00e+00	0	58	0	1497366528	34	4286
2026-01-02 03:17:32.34	162.24	16.55	-32.5	-33.5	20.1	0.00e+00	0	58	0	1512046592	34	4328
2026-01-02 03:17:34.35	162.45	16.35	-32.6	-33.6	20.0	0.00e+00	0	58	0	1526726656	34	4385
2026-01-02 03:17:36.38	162.66	16.15	-32.7	-33.7	19.9	0.00e+00	0	58	0	1541406720	34	4417
2026-01-02 03:17:38.40	162.86	15.94	-32.8	-33.8	19.8	0.00e+00	0	58	0	1556086784	35	4212
2026-01-02 03:17:40.42	163.06	15.74	-32.8	-33.8	19.7	0.00e+00	0	58	0	1570766848	35	4232
2026-01-02 03:17:42.44	163.26	15.54	-32.9	-33.9	19.6	0.00e+00	0	58	0	1585446912	35	4279
2026-01-02 03:17:44.46	163.46	15.35	-32.9	-33.9	19.6	0.00e+00	0	58	0	1600126976	35	4263
2026-01-02 03:17:46.48	163.65	15.15	-32.9	-34.0	19.6	0.00e+00	0	58	0	1614807040	35	4297
2026-01-02 03:17:48.50	163.84	14.95	-32.9	-33.9	19.6	0.00e+00	0	58	0	1628438528	35	4280
2026-01-02 03:17:50.52	164.03	14.76	-32.9	-34.0	19.6	0.00e+00	0	58	0	1643118592	35	4310
2026-01-02 03:17:52.54	164.22	14.57	-32.9	-34.0	19.5	0.00e+00	0	58	0	1657798656	35	4296
2026-01-02 03:17:54.56	164.40	14.38	-33.1	-34.1	19.4	0.00e+00	0	58	0	1672478720	35	4370
2026-01-02 03:17:56.57	164.59	14.19	-33.9	-34.9	19.4	0.00e+00	0	58	0	1687158784	37	4269
2026-01-02 03:17:58.59	164.77	14.00	-34.0	-35.1	19.2	0.00e+00	0	58	0	1701838848	37	4348
2026-01-02 03:18:00.61	164.94	13.81	-34.1	-35.2	19.1	0.00e+00	0	58	0	1716518912	37	4429
2026-01-02 03:18:02.63	165.12	13.62	-34.0	-35.1	19.2	0.00e+00	0	58	0	1731198976	37	4371
2026-01-02 03:18:04.65	165.29	13.44	-34.0	-35.1	19.1	0.00e+00	0	58	0	1745879040	37	4376
2026-01-02 03:18:06.67	165.46	13.26	-34.2	-35.3	19.0	0.00e+00	0	58	0	1760559104	38	4233
2026-01-02 03:18:08.69	165.63	13.07	-34.4	-35.5	18.7	0.00e+00	0	58	0	1774190592	38	4332
2026-01-02 03:18:10.71	165.80	12.89	-34.2	-35.3	18.9	0.00e+00	0	58	0	1788870656	38	4204
2026-01-02 03:18:12.74	165.97	12.71	-34.3	-35.4	18.8	0.00e+00	0	58	0	1803550720	38	4283
2026-01-02 03:18:14.76	166.13	12.53	-34.5	-35.6	18.6	0.00e+00	0	58	0	1818230784	38	4357
2026-01-02 03:18:16.78	166.29	12.35	-34.4	-35.6	18.7	0.00e+00	0	58	0	1832910848	38	4361
2026-01-02 03:18:18.80	166.45	12.17	-34.4	-35.5	18.7	0.00e+00	0	58	0	1847590912	38	4305
2026-01-02 03:18:20.82	166.61	12.00	-34.5	-35.6	18.6	0.00e+00	0	58	0	1862270976	38	4364
2026-01-02 03:18:22.84	166.77	11.82	-34.6	-35.7	18.4	0.00e+00	0	58	0	1876951040	38	4440
2026-01-02 03:18:24.86	166.92	11.65	-34.4	-35.5	18.7	0.00e+00	0	58	0	1891631104	38	4325
2026-01-02 03:18:26.88	167.07	11.48	-34.5	-35.6	18.6	0.00e+00	0	58	0	1906311168	38	4365
2026-01-02 03:18:28.90	167.22	11.30	-34.5	-35.6	18.5	0.00e+00	0	58	0	1919942656	38	4375
2026-01-02 03:18:30.92	167.37	11.13	-34.7	-35.9	18.2	0.00e+00	0	58	0	1935671296	39	4257
2026-01-02 03:18:32.94	167.52	10.96	-34.8	-35.9	18.1	0.00e+00	0	58	0	1949302784	39	4287
2026-01-02 03:18:34.96	167.67	10.79	-35.0	-36.2	17.9	0.00e+00	0	58	0	1963982848	39	4436
2026-01-02 03:18:36.98	167.81	10.63	-34.8	-36.0	18.0	0.00e+00	0	58	0	1978662912	39	4323
2026-01-02 03:18:39.00	167.95	10.46	-34.9	-36.1	18.0	0.00e+00	0	58	0	1993342976	39	4355
2026-01-02 03:18:41.02	168.09	10.29	-35.0	-36.2	17.8	0.00e+00	0	58	0	2008023040	39	4416
2026-01-02 03:18:43.04	168.23	10.13	-35.0	-36.2	17.8	0.00e+00	0	58	0	2022703104	39	4439
2026-01-02 03:18:45.06	168.37	9.96	-35.1	-36.4	17.6	0.00e+00	0	58	0	2037383168	40	4255
2026-01-02 03:18:47.08	168.51	9.80	-35.2	-36.4	17.5	0.00e+00	0	58	0	2052063232	40	4275
2026-01-02 03:18:49.10	168.64	9.64	-35.2	-36.4	17.5	0.00e+00	0	58	0	2066743296	40	4290
2026-01-02 03:18:51.12	168.78	9.48	-35.1	-36.4	17.5	0.00e+00	0	58	0	2081423360	40	4247
2026-01-02 03:18:53.14	168.91	9.32	-35.3	-36.5	17.3	0.00e+00	0	58	0	2095054848	40	4338
2026-01-02 03:18:55.16	169.04	9.16	-35.3	-36.6	17.3	0.00e+00	0	58	0	2109734912	40	4358
2026-01-02 03:18:57.18	169.17	9.00	-35.2	-36.5	17.3	0.00e+00	0	58	0	2124414976	40	4303
2026-01-02 03:18:59.21	169.30	8.84	-35.4	-36.7	17.1	0.00e+00	0	58	0	2139095040	40	4430
2026-01-02 03:19:01.23	169.43	8.68	-35.5	-36.8	17.0	0.00e+00	0	58	0	2153775104	40	4457
2026-01-02 03:19:03.25	169.55	8.53	-35.4	-36.7	17.1	0.00e+00	0	58	0	2168455168	40	4403
2026-01-02 03:19:05.27	169.68	8.37	-35.4	-36.7	17.1	0.00e+00	0	58	0	2183135232	40	4417
2026-01-02 03:19:07.29	169.80	8.22	-35.5	-36.8	16.9	0.00e+00	0	58	0	2197815296	40	4478
2026-01-02 03:19:09.31	169.92	8.07	-35.5	-36.8	16.9	0.00e+00	0	58	0	2212495360	40	4483
2026-01-02 03:19:11.33	170.05	7.91	-44.7	-55.6	3.8	8.46e-01	0	58	104	2221932544	58	13874
2026-01-02 03:19:13.36	170.17	7.76	-45.1	-56.0	3.8	8.45e-01	0	58	104	2221932544	59	13701
2026-01-02 03:19:15.38	170.28	7.61	-45.2	-56.4	3.8	8.47e-01	0	58	104	2221932544	60	13484
2026-01-02 03:19:17.40	170.40	7.46	-45.3	-56.5	3.8	8.46e-01	0	58	104	2221932544	60	13645
2026-01-02 03:19:19.42	170.52	7.31	-45.3	-56.6	3.8	8.46e-01	0	58	104	2221932544	60	13770
2026-01-02 03:19:21.44	170.63	7.16	-45.3	-56.5	3.8	8.48e-01	0	59	104	2221932544	60	13588
2026-01-02 03:19:23.46	170.75	7.01	-45.2	-56.4	3.8	8.47e-01	0	58	104	2221932544	60	13540
2026-01-02 03:19:25.49	170.86	6.87	-45.2	-56.4	3.8	8.46e-01	0	58	104	2221932544	60	13477
2026-01-02 03:19:27.51	170.97	6.72	-45.2	-56.3	3.8	8.46e-01	0	58	104	2221932544	60	13413
2026-01-02 03:19:29.53	171.08	6.58	-45.1	-56.3	3.8	8.46e-01	0	58	104	2221932544	60	13330
2026-01-02 03:19:31.55	171.19	6.43	-45.1	-56.3	3.8	8.46e-01	0	58	104	2221932544	60	13301
2026-01-02 03:19:33.57	171.30	6.29	-45.2	-56.3	3.8	8.47e-01	0	58	104	2221932544	60	13354
2026-01-02 03:19:35.59	171.41	6.14	-45.1	-56.3	3.8	8.46e-01	0	58	104	2221932544	60	13306
2026-01-02 03:19:37.61	171.52	6.00	-45.1	-56.3	3.8	8.45e-01	0	58	104	2221932544	60	13321
2026-01-02 03:19:39.63	171.62	5.86	-45.1	-56.2	3.8	8.46e-01	0	58	104	2221932544	60	13212
2026-01-02 03:19:41.65	171.73	5.72	-45.1	-56.2	3.8	8.46e-01	0	58	104	2221932544	60	13196
2026-01-02 03:19:43.68	171.83	5.58	-45.1	-56.2	3.8	8.46e-01	0	58	104	2221932544	60	13183
2026-01-02 03:19:45.70	171.93	5.44	-45.1	-56.2	3.8	8.46e-01	0	58	104	2221932544	60	13223
2026-01-02 03:19:47.72	172.04	5.30	-45.1	-56.2	3.8	8.46e-01	0	58	104	2221932544	60	13164
2026-01-02 03:19:49.74	172.14	5.16	-45.0	-56.2	3.8	8.47e-01	0	58	104	2221932544	60	13176
2026-01-02 03:19:51.76	172.24	5.02	-45.0	-56.2	3.8	8.47e-01	0	59	104	2221932544	60	13175
2026-01-02 03:19:53.78	172.34	4.88	-45.1	-56.2	3.8	8.46e-01	0	58	104	2221932544	60	13139
2026-01-02 03:19:55.81	172.44	4.75	-45.0	-56.1	3.8	8.45e-01	0	58	104	2221932544	60	13106
2026-01-02 03:19:57.83	172.53	4.61	-45.0	-56.2	3.8	8.45e-01	0	59	104	2221932544	60	13149
2026-01-02 03:19:59.85	172.63	4.48	-45.0	-56.2	3.8	8.45e-01	0	58	104	2221932544	60	13147
2026-01-02 03:20:01.87	172.73	4.34	-45.0	-56.2	3.8	8.46e-01	0	59	104	2221932544	60	13223
2026-01-02 03:20:03.90	172.82	4.21	-45.0	-56.2	3.8	8.46e-01	0	59	104	2221932544	60	13190
2026-01-02 03:20:05.92	172.91	4.07	-45.0	-56.2	3.8	8.46e-01	0	59	104	2221932544	60	13133
2026-01-02 03:20:07.94	173.01	3.94	-45.0	-56.2	3.8	8.45e-01	0	59	104	2221932544	60	13183
2026-01-02 03:20:09.96	173.10	3.81	-45.0	-56.2	3.8	8.46e-01	0	58	104	2221932544	60	13174
2026-01-02 03:20:11.98	173.19	3.68	-45.0	-56.2	3.8	8.45e-01	0	58	104	2221932544	60	13123
2026-01-02 03:20:14.00	173.28	3.54	-45.0	-56.2	3.8	8.47e-01	0	59	104	2221932544	60	13126
2026-01-02 03:20:16.03	173.37	3.41	-45.0	-56.2	3.8	8.46e-01	0	58	104	2221932544	60	13132
2026-01-02 03:20:18.05	173.46	3.28	-45.0	-56.1	3.8	8.46e-01	0	59	104	2221932544	60	13042
2026-01-02 03:20:20.07	173.55	3.15	-45.0	-56.2	3.8	8.46e-01	0	59	104	2221932544	60	13124
2026-01-02 03:20:22.09	173.64	3.03	-45.0	-56.2	3.8	8.45e-01	0	59	104	2221932544	60	13127
2026-01-02 03:20:24.11	173.73	2.90	-45.0	-56.2	3.8	8.46e-01	0	59	104	2221932544	60	13189
2026-01-02 03:20:26.14	173.82	2.77	-45.0	-56.1	3.8	8.47e-01	0	58	104	2221932544	60	13109
2026-01-02 03:20:28.16	173.90	2.64	-45.0	-56.1	3.8	8.46e-01	0	59	104	2221932544	60	13108
2026-01-02 03:20:30.18	173.99	2.51	-45.0	-56.1	3.8	8.47e-01	0	59	104	2221932544	60	13104
2026-01-02 03:20:32.20	174.07	2.39	-45.0	-56.2	3.8	8.46e-01	0	59	104	2221932544	60	13162
2026-01-02 03:20:34.22	174.16	2.26	-45.0	-56.1	3.8	8.47e-01	0	58	104	2221932544	60	13095
2026-01-02 03:20:36.25	174.24	2.14	-45.0	-56.2	3.8	8.45e-01	0	58	104	2221932544	60	13120
2026-01-02 03:20:38.27	174.32	2.01	-45.0	-56.2	3.8	8.46e-01	0	59	104	2221932544	60	13146

#Closed at: 2026-01-02 03:20:39
#Recorded file [2221 MB]: D:/lorett/data/31039_260102_061311.dat