passes_logs/2026/01/05/PlanumMoscow/PlanumMoscow__20260105_114159_METEOR-M2_4_rec.log

#Pass ID: 20260105_114159_METEOR-M2 4
#Satellite: METEOR-M2 4
#Configuration: METEOR-M2 4
#Start time: 2026-01-05 11:42:04.610907

#LorettStation: 1.0.0 05.05.2024
#Station: PlanumMoscow
#Location: 37.6253844 lon 55.6713361 lat
#TLE: 1 59051U 24039A   25293.94737965  .00000087  00000+0  58459-4 0  9998
#TLE: 2 59051  98.6671 251.7071 0007726 135.4772 224.7028 14.22388966 85257

#Time	Az	El	Level	SNR
2026-01-05 11:45:43.041770	184.0	28.9	-64.5	14.0
2026-01-05 11:45:45.278282	184.2	29.3	-64.9	14.8
2026-01-05 11:45:47.521329	184.5	29.7	-64.1	12.8
2026-01-05 11:45:49.764339	184.7	30.1	-64.0	12.6
2026-01-05 11:45:52.004366	185.0	30.5	-64.0	14.1
2026-01-05 11:45:54.238373	185.3	30.9	-64.6	14.3
2026-01-05 11:45:56.468876	185.5	31.3	-64.3	14.1
2026-01-05 11:45:58.698882	185.8	31.8	-65.2	14.4
2026-01-05 11:46:00.930889	186.1	32.2	-64.6	14.9
2026-01-05 11:46:03.161399	186.4	32.6	-65.2	14.3
2026-01-05 11:46:05.389901	186.7	33.1	-65.4	13.6
2026-01-05 11:46:07.621907	187.0	33.5	-65.2	13.6
2026-01-05 11:46:09.851930	187.3	34.0	-65.2	14.5
2026-01-05 11:46:12.083433	187.6	34.4	-65.3	14.1
2026-01-05 11:46:14.317945	188.0	34.9	-65.5	13.7
2026-01-05 11:46:16.545951	188.3	35.4	-65.3	12.4
2026-01-05 11:46:18.777463	188.6	35.9	-65.5	13.8
2026-01-05 11:46:21.004974	189.0	36.3	-65.5	13.8
2026-01-05 11:46:23.233980	189.4	36.8	-65.9	13.9
2026-01-05 11:46:25.461986	189.8	37.3	-65.7	12.8
2026-01-05 11:46:27.697994	190.2	37.8	-65.8	13.5
2026-01-05 11:46:29.930001	190.6	38.4	-65.4	12.1
2026-01-05 11:46:32.163513	191.0	38.9	-65.4	12.0
2026-01-05 11:46:34.395520	191.4	39.4	-65.2	11.3
2026-01-05 11:46:36.632041	191.9	39.9	-65.2	11.9
2026-01-05 11:46:38.868058	192.3	40.5	-65.7	12.9
2026-01-05 11:46:41.098568	192.8	41.0	-65.4	12.9
2026-01-05 11:46:43.327070	193.3	41.5	-64.9	12.8
2026-01-05 11:46:45.554580	193.8	42.1	-65.3	13.1
2026-01-05 11:46:47.785586	194.3	42.7	-65.4	13.8
2026-01-05 11:46:50.017098	194.9	43.2	-65.8	13.8
2026-01-05 11:46:52.252618	195.4	43.8	-65.4	13.7
2026-01-05 11:46:54.485130	196.0	44.4	-65.8	13.0
2026-01-05 11:46:56.718147	196.6	45.0	-66.1	13.1
2026-01-05 11:46:58.949658	197.3	45.5	-66.2	13.0
2026-01-05 11:47:01.191677	197.9	46.1	-66.6	12.8
2026-01-05 11:47:03.435190	198.6	46.7	-66.4	11.7
2026-01-05 11:47:05.678720	199.3	47.3	-66.6	11.4
2026-01-05 11:47:07.922730	200.1	47.9	-66.8	10.9
2026-01-05 11:47:10.166244	200.8	48.5	-67.1	12.4
2026-01-05 11:47:12.405254	201.6	49.2	-66.8	12.2
2026-01-05 11:47:14.648280	202.4	49.8	-66.6	12.5
2026-01-05 11:47:16.888792	203.3	50.4	-67.0	12.6
2026-01-05 11:47:19.122808	204.2	51.0	-67.1	12.0
2026-01-05 11:47:21.352319	205.1	51.6	-66.7	11.5
2026-01-05 11:47:23.581325	206.1	52.2	-66.8	11.2
2026-01-05 11:47:25.812836	207.1	52.8	-67.3	11.7
2026-01-05 11:47:28.043852	208.1	53.5	-67.6	9.8
2026-01-05 11:47:30.275364	209.2	54.1	-67.6	10.4
2026-01-05 11:47:32.508371	210.4	54.7	-67.6	10.2
2026-01-05 11:47:34.740378	211.6	55.3	-67.4	8.9
2026-01-05 11:47:36.973385	212.8	55.9	-67.6	9.6
2026-01-05 11:47:39.204896	214.1	56.5	-68.0	9.6
2026-01-05 11:47:41.438904	215.5	57.0	-68.3	10.0
2026-01-05 11:47:43.671407	216.9	57.6	-67.9	8.6
2026-01-05 11:47:45.902909	218.3	58.2	-68.0	9.7
2026-01-05 11:47:48.135934	219.9	58.7	-67.9	8.7
2026-01-05 11:47:50.366940	221.5	59.3	-67.7	9.5
2026-01-05 11:47:52.601956	223.1	59.8	-67.5	11.1
2026-01-05 11:47:54.831467	224.8	60.3	-67.9	11.2
2026-01-05 11:47:57.062986	226.6	60.7	-67.6	10.5
2026-01-05 11:47:59.290992	228.5	61.2	-67.8	10.6
2026-01-05 11:48:01.522999	230.4	61.6	-68.3	12.0
2026-01-05 11:48:03.757006	232.4	62.0	-67.7	10.7
2026-01-05 11:48:05.985517	234.4	62.4	-67.1	10.3
2026-01-05 11:48:08.218541	236.6	62.8	-66.9	8.7
2026-01-05 11:48:10.448547	238.7	63.1	-67.7	10.0
2026-01-05 11:48:12.679554	240.9	63.4	-67.7	10.0
2026-01-05 11:48:14.919058	243.2	63.6	-67.9	9.6
2026-01-05 11:48:17.149579	245.6	63.8	-67.6	8.5
2026-01-05 11:48:19.378090	247.9	64.0	-67.4	9.9
2026-01-05 11:48:21.621108	250.3	64.1	-66.5	8.3
2026-01-05 11:48:23.865118	252.7	64.2	-67.3	9.9
2026-01-05 11:48:26.110641	255.2	64.3	-66.6	5.9
2026-01-05 11:48:28.354155	257.6	64.3	-67.4	9.5
2026-01-05 11:48:30.589161	260.1	64.3	-67.1	8.7
2026-01-05 11:48:32.830198	262.5	64.2	-67.1	9.5
2026-01-05 11:48:35.073226	264.9	64.1	-67.2	7.6
2026-01-05 11:48:37.316749	267.3	63.9	-67.6	7.3
2026-01-05 11:48:39.555758	269.7	63.7	-66.8	8.3
2026-01-05 11:48:41.790270	272.0	63.5	-67.5	8.8
2026-01-05 11:48:44.021277	274.2	63.2	-68.1	9.9
2026-01-05 11:48:46.249788	276.4	62.9	-67.9	10.0
2026-01-05 11:48:48.485300	278.6	62.6	-67.7	9.7
2026-01-05 11:48:50.718812	280.7	62.2	-68.3	10.3
2026-01-05 11:48:52.954837	282.7	61.9	-67.8	8.0
2026-01-05 11:48:55.187340	284.6	61.4	-68.2	8.0
2026-01-05 11:48:57.417355	286.5	61.0	-67.1	6.2
2026-01-05 11:48:59.645865	288.3	60.5	-67.9	7.8
2026-01-05 11:49:01.881378	290.1	60.0	-68.2	8.5
2026-01-05 11:49:04.113384	291.8	59.5	-68.3	8.2
2026-01-05 11:49:06.343400	293.4	59.0	-68.0	8.2
2026-01-05 11:49:08.581409	295.0	58.5	-67.8	8.0
2026-01-05 11:49:10.810911	296.5	57.9	-67.6	9.7
2026-01-05 11:49:13.042422	297.9	57.4	-67.6	8.2
2026-01-05 11:49:15.271428	299.3	56.8	-67.7	8.8
2026-01-05 11:49:17.503435	300.6	56.2	-67.1	8.6
2026-01-05 11:49:19.732945	301.9	55.6	-67.7	7.8
2026-01-05 11:49:21.966448	303.1	55.0	-67.8	7.7
2026-01-05 11:49:24.196454	304.2	54.4	-67.5	7.4
2026-01-05 11:49:26.425460	305.4	53.8	-64.1	5.1
2026-01-05 11:49:28.655963	306.4	53.2	-67.5	7.7
2026-01-05 11:49:30.887474	307.5	52.6	-67.6	7.7
2026-01-05 11:49:33.117489	308.4	52.0	-67.3	8.2
2026-01-05 11:49:35.349496	309.4	51.4	-66.0	4.6
2026-01-05 11:49:37.579015	310.3	50.8	-64.3	3.0
2026-01-05 11:49:39.817529	311.2	50.2	-65.8	5.4
2026-01-05 11:49:42.063554	312.0	49.5	-63.7	2.7
2026-01-05 11:49:44.308068	312.8	48.9	-64.9	10.2
2026-01-05 11:49:46.552078	313.6	48.3	-66.3	9.1
2026-01-05 11:49:48.796096	314.4	47.7	-66.8	9.8
2026-01-05 11:49:51.040106	315.1	47.1	-66.8	9.5
2026-01-05 11:49:53.283611	315.8	46.5	-67.0	9.8
2026-01-05 11:49:55.519618	316.4	45.9	-66.7	9.3
2026-01-05 11:49:57.752130	317.1	45.3	-66.8	9.2
2026-01-05 11:49:59.983136	317.7	44.8	-67.1	8.1
2026-01-05 11:50:02.215656	318.3	44.2	-65.6	6.9
2026-01-05 11:50:04.446167	318.9	43.6	-66.8	9.0
2026-01-05 11:50:06.674678	319.4	43.1	-66.1	8.5
2026-01-05 11:50:08.904685	320.0	42.5	-66.9	8.6
2026-01-05 11:50:11.135195	320.5	41.9	-66.2	8.3
2026-01-05 11:50:13.363697	321.0	41.4	-66.2	9.2
2026-01-05 11:50:15.596209	321.5	40.9	-66.2	8.6
2026-01-05 11:50:17.825728	321.9	40.3	-65.7	9.1
2026-01-05 11:50:20.055743	322.4	39.8	-66.5	10.1
2026-01-05 11:50:22.288767	322.8	39.3	-66.2	9.0
2026-01-05 11:50:24.518786	323.3	38.8	-65.9	8.8
2026-01-05 11:50:26.751794	323.7	38.2	-65.9	9.6
2026-01-05 11:50:28.980800	324.1	37.7	-66.0	9.5
2026-01-05 11:50:31.213311	324.5	37.2	-65.2	8.8
2026-01-05 11:50:33.444318	324.9	36.7	-65.7	10.2
2026-01-05 11:50:35.675325	325.2	36.3	-65.8	10.7
2026-01-05 11:50:37.908342	325.6	35.8	-65.7	10.0
2026-01-05 11:50:40.140349	325.9	35.3	-65.5	9.4
2026-01-05 11:50:42.372861	326.3	34.8	-65.9	10.1
2026-01-05 11:50:44.603891	326.6	34.4	-66.0	11.1
2026-01-05 11:50:46.835407	326.9	33.9	-66.0	11.0
2026-01-05 11:50:49.071415	327.2	33.5	-66.2	11.2
2026-01-05 11:50:51.302431	327.5	33.0	-65.5	10.7
2026-01-05 11:50:53.535942	327.8	32.6	-65.2	9.8
2026-01-05 11:50:55.769957	328.1	32.1	-65.9	11.0
2026-01-05 11:50:57.998972	328.4	31.7	-65.9	11.1
2026-01-05 11:51:00.231483	328.7	31.3	-65.9	10.6
2026-01-05 11:51:02.473509	328.9	30.9	-65.4	10.2
2026-01-05 11:51:04.716031	329.2	30.5	-65.4	10.4
2026-01-05 11:51:06.961545	329.4	30.1	-65.5	11.1
2026-01-05 11:51:09.204076	329.7	29.7	-65.7	10.9
2026-01-05 11:51:11.448590	329.9	29.3	-65.5	11.2
2026-01-05 11:51:13.690112	330.2	28.9	-65.7	10.0
2026-01-05 11:51:15.933626	330.4	28.5	-65.8	10.4
2026-01-05 11:51:18.171645	330.6	28.1	-66.2	11.1
2026-01-05 11:51:20.406157	330.8	27.7	-64.9	8.9
2026-01-05 11:51:22.645661	331.1	27.3	-65.4	10.0
2026-01-05 11:51:24.879668	331.3	27.0	-65.3	9.5
2026-01-05 11:51:27.111692	331.5	26.6	-65.8	12.0
2026-01-05 11:51:29.343195	331.7	26.3	-65.6	11.6
2026-01-05 11:51:31.578707	331.9	25.9	-66.3	12.6
2026-01-05 11:51:33.814218	332.1	25.5	-65.8	10.7
2026-01-05 11:51:36.048226	332.3	25.2	-66.1	11.4
2026-01-05 11:51:38.278728	332.4	24.9	-65.2	9.6
2026-01-05 11:51:40.510744	332.6	24.5	-66.2	12.2
2026-01-05 11:51:42.744256	332.8	24.2	-65.9	10.9
2026-01-05 11:51:44.978271	333.0	23.9	-65.5	11.2
2026-01-05 11:51:47.210774	333.1	23.5	-66.0	11.0
2026-01-05 11:51:49.441789	333.3	23.2	-66.7	10.9
2026-01-05 11:51:51.673292	333.5	22.9	-66.6	11.2
2026-01-05 11:51:53.905795	333.6	22.6	-65.6	10.6
2026-01-05 11:51:56.142821	333.8	22.3	-65.4	9.7
2026-01-05 11:51:58.373841	334.0	22.0	-65.8	9.2
2026-01-05 11:52:00.603352	334.1	21.7	-65.9	9.3
2026-01-05 11:52:02.834359	334.3	21.4	-65.9	10.1
2026-01-05 11:52:05.068366	334.4	21.1	-66.2	10.9
2026-01-05 11:52:07.298868	334.5	20.8	-66.1	10.9
2026-01-05 11:52:09.533389	334.7	20.5	-66.3	10.8
2026-01-05 11:52:11.764901	334.8	20.2	-66.4	10.9
2026-01-05 11:52:13.994926	335.0	19.9	-66.4	11.1
2026-01-05 11:52:16.227429	335.1	19.6	-66.5	11.2
2026-01-05 11:52:18.463437	335.2	19.4	-66.2	10.0
2026-01-05 11:52:20.706952	335.4	19.1	-65.9	9.3
2026-01-05 11:52:22.950961	335.5	18.8	-66.1	10.0
2026-01-05 11:52:25.194971	335.6	18.5	-65.6	9.0
2026-01-05 11:52:27.439494	335.7	18.3	-66.3	10.4
2026-01-05 11:52:29.677511	335.9	18.0	-66.4	10.4
2026-01-05 11:52:31.922016	336.0	17.7	-66.5	10.9
2026-01-05 11:52:34.166026	336.1	17.5	-65.6	9.9
2026-01-05 11:52:36.413541	336.2	17.2	-64.8	7.6
2026-01-05 11:52:38.647556	336.3	17.0	-64.9	7.8
2026-01-05 11:52:40.879067	336.4	16.7	-66.2	9.0
2026-01-05 11:52:43.111579	336.6	16.5	-66.3	10.6
2026-01-05 11:52:45.348091	336.7	16.2	-66.5	9.3
2026-01-05 11:52:47.580593	336.8	16.0	-66.3	8.4
2026-01-05 11:52:49.814106	336.9	15.8	-65.3	6.3
2026-01-05 11:52:52.044618	337.0	15.5	-66.2	8.0
2026-01-05 11:52:54.276633	337.1	15.3	-65.8	8.7
2026-01-05 11:52:56.507640	337.2	15.0	-66.0	9.1
2026-01-05 11:52:58.739142	337.3	14.8	-65.9	8.7
2026-01-05 11:53:00.971645	337.4	14.6	-65.8	9.6
2026-01-05 11:53:03.202165	337.5	14.4	-65.7	8.1
2026-01-05 11:53:05.432180	337.6	14.1	-66.2	9.2
2026-01-05 11:53:07.664194	337.7	13.9	-65.5	6.0
2026-01-05 11:53:09.894210	337.8	13.7	-66.0	8.6
2026-01-05 11:53:12.123712	337.9	13.5	-65.6	7.7
2026-01-05 11:53:14.352726	338.0	13.3	-64.9	6.5
2026-01-05 11:53:16.585229	338.0	13.0	-64.0	4.1
2026-01-05 11:53:18.819237	338.1	12.8	-65.6	7.7
2026-01-05 11:53:21.051243	338.2	12.6	-65.5	7.6
2026-01-05 11:53:23.281250	338.3	12.4	-65.5	6.0
2026-01-05 11:53:25.511257	338.4	12.2	-65.8	6.7
2026-01-05 11:53:27.741271	338.5	12.0	-64.5	5.8
2026-01-05 11:53:29.976279	338.6	11.8	-66.0	8.2
2026-01-05 11:53:32.209782	338.6	11.6	-64.8	6.3
2026-01-05 11:53:34.440293	338.7	11.4	-64.4	6.0
2026-01-05 11:53:36.675804	338.8	11.2	-64.6	7.6
2026-01-05 11:53:38.907315	338.9	11.0	-65.2	7.4
2026-01-05 11:53:41.139322	339.0	10.8	-63.5	4.0
2026-01-05 11:53:43.376826	339.0	10.6	-64.8	5.9
2026-01-05 11:53:45.620339	339.1	10.4	-64.2	5.8
2026-01-05 11:53:47.862861	339.2	10.2	-64.1	5.6
2026-01-05 11:53:50.106375	339.3	10.0	-64.7	5.2
2026-01-05 11:53:52.347896	339.3	9.8	-64.7	5.0
2026-01-05 11:53:54.591906	339.4	9.6	-64.4	5.9
2026-01-05 11:53:56.835420	339.5	9.4	-64.8	5.3
2026-01-05 11:53:59.078439	339.6	9.3	-63.6	4.2
2026-01-05 11:54:01.311456	339.6	9.1	-64.3	2.9
2026-01-05 11:54:03.550473	339.7	8.9	-62.9	2.0
2026-01-05 11:54:05.788481	339.8	8.7	-62.2	2.2
2026-01-05 11:54:08.022993	339.8	8.5	-63.1	1.7
2026-01-05 11:54:10.255503	339.9	8.4	-62.8	4.5
2026-01-05 11:54:12.489032	340.0	8.2	-64.0	3.6
2026-01-05 11:54:14.720046	340.0	8.0	-64.9	1.5
2026-01-05 11:54:16.956559	340.1	7.8	-64.6	2.9
2026-01-05 11:54:19.190574	340.2	7.6	-64.4	4.3
2026-01-05 11:54:21.420076	340.2	7.5	-64.4	6.3
2026-01-05 11:54:23.653084	340.3	7.3	-64.0	4.1
2026-01-05 11:54:25.887101	340.4	7.1	-65.4	2.7
2026-01-05 11:54:28.122108	340.4	7.0	-64.5	3.8
2026-01-05 11:54:30.353619	340.5	6.8	-64.0	4.3
2026-01-05 11:54:32.587627	340.5	6.6	-62.9	0.6
2026-01-05 11:54:34.823131	340.6	6.5	-65.2	4.5
2026-01-05 11:54:37.056147	340.7	6.3	-65.7	1.7
2026-01-05 11:54:39.287171	340.7	6.1	-64.8	3.5
2026-01-05 11:54:41.520674	340.8	6.0	-65.6	2.9
2026-01-05 11:54:43.752177	340.8	5.8	-67.8	0.0
2026-01-05 11:54:45.984193	340.9	5.6	-68.1	0.0
2026-01-05 11:54:48.214696	341.0	5.5	-69.0	0.0
2026-01-05 11:54:50.444206	341.0	5.3	-68.3	0.0
2026-01-05 11:54:52.674213	341.1	5.2	-68.2	0.0
2026-01-05 11:54:54.907228	341.1	5.0	-69.1	0.0
#Closed at: 2026-01-05 11:41:59.611968