passes_logs/2026/01/05/PlanumMoscow/PlanumMoscow__20260105_082406_METOP-C_rec.log

#Pass ID: 20260105_082406_METOP-C
#Satellite: METOP-C
#Configuration: METOP-C
#Start time: 2026-01-05 08:24:11.492783

#LorettStation: 1.0.0 05.05.2024
#Station: PlanumMoscow
#Location: 37.6253844 lon 55.6713361 lat
#TLE: 1 43689U 18087A   25293.88981035  .00000265  00000+0  14109-3 0  9997
#TLE: 2 43689  98.7006 352.4487 0002041 122.1097 238.0279 14.21482740360838

#Time	Az	El	Level	SNR
2026-01-05 08:27:49.923723	357.3	27.4	-62.3	4.6
2026-01-05 08:27:52.157264	357.0	27.8	-61.3	0.0
2026-01-05 08:27:54.387278	356.7	28.1	-63.2	4.9
2026-01-05 08:27:56.619817	356.3	28.5	-62.5	4.2
2026-01-05 08:27:58.850823	356.0	28.8	-63.5	5.6
2026-01-05 08:28:01.085343	355.6	29.2	-63.4	4.7
2026-01-05 08:28:03.318349	355.2	29.6	-63.2	1.8
2026-01-05 08:28:05.553365	354.9	29.9	-64.1	0.3
2026-01-05 08:28:07.786388	354.5	30.3	-62.3	2.7
2026-01-05 08:28:10.023396	354.1	30.7	-63.4	3.6
2026-01-05 08:28:12.267406	353.7	31.1	-63.5	4.5
2026-01-05 08:28:14.514426	353.2	31.4	-64.1	6.2
2026-01-05 08:28:16.757956	352.8	31.8	-63.5	4.8
2026-01-05 08:28:19.000478	352.4	32.2	-64.2	5.0
2026-01-05 08:28:21.243506	351.9	32.6	-63.9	5.1
2026-01-05 08:28:23.487028	351.5	33.0	-64.8	5.9
2026-01-05 08:28:25.725541	351.0	33.4	-65.0	6.3
2026-01-05 08:28:27.969046	350.5	33.8	-64.4	6.0
2026-01-05 08:28:30.215065	350.0	34.2	-65.1	5.6
2026-01-05 08:28:32.458579	349.5	34.6	-64.6	5.8
2026-01-05 08:28:34.696587	349.0	35.0	-65.1	6.1
2026-01-05 08:28:36.932098	348.4	35.4	-65.3	6.2
2026-01-05 08:28:39.170105	347.9	35.8	-65.3	5.4
2026-01-05 08:28:41.403112	347.3	36.2	-64.4	4.6
2026-01-05 08:28:43.639129	346.8	36.7	-64.4	4.8
2026-01-05 08:28:45.872632	346.2	37.1	-65.1	5.7
2026-01-05 08:28:48.112144	345.6	37.5	-64.8	5.0
2026-01-05 08:28:50.345162	344.9	37.9	-65.1	6.2
2026-01-05 08:28:52.578178	344.3	38.4	-65.7	6.7
2026-01-05 08:28:54.810185	343.6	38.8	-65.3	7.0
2026-01-05 08:28:57.042696	343.0	39.2	-65.9	6.0
2026-01-05 08:28:59.276216	342.3	39.6	-66.1	6.4
2026-01-05 08:29:01.507223	341.6	40.1	-65.5	6.3
2026-01-05 08:29:03.740726	340.8	40.5	-66.3	6.8
2026-01-05 08:29:05.971245	340.1	40.9	-66.0	6.9
2026-01-05 08:29:08.203252	339.3	41.3	-66.3	6.7
2026-01-05 08:29:10.433762	338.5	41.8	-66.3	5.4
2026-01-05 08:29:12.667273	337.7	42.2	-65.7	7.0
2026-01-05 08:29:14.899800	336.9	42.6	-66.4	6.3
2026-01-05 08:29:17.131807	336.0	43.0	-65.7	4.9
2026-01-05 08:29:19.363317	335.1	43.4	-66.9	5.0
2026-01-05 08:29:21.595820	334.2	43.8	-66.9	5.6
2026-01-05 08:29:23.826826	333.3	44.3	-66.7	5.7
2026-01-05 08:29:26.057329	332.3	44.7	-67.2	5.4
2026-01-05 08:29:28.291832	331.4	45.1	-67.2	4.0
2026-01-05 08:29:30.524343	330.4	45.5	-67.0	5.2
2026-01-05 08:29:32.760855	329.3	45.8	-67.2	3.5
2026-01-05 08:29:35.005386	328.3	46.2	-67.7	4.5
2026-01-05 08:29:37.249892	327.2	46.6	-67.5	3.5
2026-01-05 08:29:39.493405	326.1	47.0	-67.7	3.5
2026-01-05 08:29:41.737423	325.0	47.3	-67.8	3.5
2026-01-05 08:29:43.981432	323.8	47.7	-67.7	2.6
2026-01-05 08:29:46.218936	322.6	48.0	-68.2	1.9
2026-01-05 08:29:48.451951	321.4	48.3	-67.9	1.1
2026-01-05 08:29:50.680462	320.2	48.7	-68.7	0.4
2026-01-05 08:29:52.910478	318.9	49.0	-68.6	1.3
2026-01-05 08:29:55.141981	317.6	49.2	-68.6	0.0
2026-01-05 08:29:57.372483	316.3	49.5	-69.1	0.0
2026-01-05 08:29:59.602489	315.0	49.8	-68.8	0.0
2026-01-05 08:30:01.834496	313.6	50.0	-69.4	0.0
2026-01-05 08:30:04.070513	312.3	50.2	-69.2	0.0
2026-01-05 08:30:06.300528	310.9	50.5	-69.1	0.0
2026-01-05 08:30:08.532535	309.5	50.7	-68.5	0.0
2026-01-05 08:30:10.762550	308.0	50.8	-69.3	0.0
2026-01-05 08:30:12.992052	306.6	51.0	-68.9	0.0
2026-01-05 08:30:15.236071	305.1	51.1	-69.8	0.0
2026-01-05 08:30:17.475079	303.6	51.2	-70.5	0.0
2026-01-05 08:30:19.708094	302.2	51.3	-70.0	0.0
2026-01-05 08:30:21.941109	300.7	51.4	-69.6	0.0
2026-01-05 08:30:24.172117	299.2	51.5	-68.9	0.0
2026-01-05 08:30:26.407133	297.7	51.5	-68.7	0.0
2026-01-05 08:30:28.637644	296.1	51.5	-69.4	0.0
2026-01-05 08:30:30.868660	294.6	51.5	-69.4	0.0
2026-01-05 08:30:33.106164	293.1	51.5	-69.8	0.0
2026-01-05 08:30:35.336666	291.6	51.5	-70.1	0.0
2026-01-05 08:30:37.567176	290.1	51.4	-69.8	0.0
2026-01-05 08:30:39.798679	288.6	51.3	-69.8	0.0
2026-01-05 08:30:42.030182	287.1	51.2	-69.4	0.0
2026-01-05 08:30:44.263693	285.7	51.1	-68.8	0.0
2026-01-05 08:30:46.494699	284.2	51.0	-69.6	0.0
2026-01-05 08:30:48.727210	282.8	50.8	-68.2	0.0
2026-01-05 08:30:50.958712	281.3	50.6	-69.8	0.0
2026-01-05 08:30:53.190720	279.9	50.4	-69.8	0.0
2026-01-05 08:30:55.420726	278.5	50.2	-69.1	0.0
2026-01-05 08:30:57.652742	277.2	50.0	-69.1	0.0
2026-01-05 08:30:59.888766	275.8	49.7	-69.3	0.0
2026-01-05 08:31:02.123781	274.5	49.4	-68.7	0.0
2026-01-05 08:31:04.351787	273.2	49.2	-69.1	0.0
2026-01-05 08:31:06.584810	271.9	48.9	-68.9	0.0
2026-01-05 08:31:08.819314	270.7	48.6	-67.4	0.0
2026-01-05 08:31:11.053817	269.4	48.2	-68.8	0.0
2026-01-05 08:31:13.290824	268.2	47.9	-69.4	0.0
2026-01-05 08:31:15.523336	267.0	47.6	-69.0	0.0
2026-01-05 08:31:17.761354	265.9	47.2	-67.8	0.0
2026-01-05 08:31:19.995361	264.8	46.9	-67.1	0.0
2026-01-05 08:31:22.231377	263.7	46.5	-68.0	0.0
2026-01-05 08:31:24.459887	262.6	46.1	-66.2	0.0
2026-01-05 08:31:26.692398	261.5	45.7	-66.6	0.0
2026-01-05 08:31:28.923404	260.5	45.3	-67.6	0.0
2026-01-05 08:31:31.155907	259.5	44.9	-67.2	0.0
2026-01-05 08:31:33.399916	258.5	44.5	-66.3	0.0
2026-01-05 08:31:35.631427	257.6	44.1	-66.8	0.0
2026-01-05 08:31:37.866930	256.7	43.7	-66.5	0.0
2026-01-05 08:31:40.107940	255.8	43.3	-66.7	0.0
2026-01-05 08:31:42.353454	254.9	42.9	-66.0	0.0
2026-01-05 08:31:44.597968	254.0	42.5	-66.0	0.0
2026-01-05 08:31:46.839993	253.2	42.0	-66.1	0.0
2026-01-05 08:31:49.071505	252.4	41.6	-67.1	0.0
2026-01-05 08:31:51.307524	251.6	41.2	-65.9	0.0
2026-01-05 08:31:53.539531	250.8	40.8	-65.7	0.0
2026-01-05 08:31:55.779043	250.1	40.3	-64.5	0.0
2026-01-05 08:31:58.023060	249.3	39.9	-64.2	0.0
2026-01-05 08:32:00.271574	248.6	39.5	-62.6	0.0
2026-01-05 08:32:02.515584	247.9	39.0	-64.5	0.0
2026-01-05 08:32:04.749087	247.3	38.6	-63.6	0.0
2026-01-05 08:32:06.982599	246.6	38.2	-63.9	0.0
2026-01-05 08:32:09.217102	246.0	37.8	-63.3	0.0
2026-01-05 08:32:11.449116	245.3	37.3	-65.2	0.0
2026-01-05 08:32:13.681619	244.7	36.9	-64.4	0.0
2026-01-05 08:32:15.913634	244.1	36.5	-63.2	0.0
2026-01-05 08:32:18.145137	243.6	36.1	-63.5	0.0
2026-01-05 08:32:20.378648	243.0	35.7	-61.2	0.0
2026-01-05 08:32:22.609655	242.5	35.2	-64.8	0.0
2026-01-05 08:32:24.840157	241.9	34.8	-61.9	0.0
2026-01-05 08:32:27.069660	241.4	34.4	-64.6	0.0
2026-01-05 08:32:29.300666	240.9	34.0	-62.2	0.0
2026-01-05 08:32:31.533177	240.4	33.6	-63.6	0.0
2026-01-05 08:32:33.763697	239.9	33.2	-62.0	0.0
2026-01-05 08:32:35.993208	239.5	32.8	-60.2	0.0
2026-01-05 08:32:38.223710	239.0	32.4	-61.2	0.0
2026-01-05 08:32:40.455222	238.6	32.0	-62.3	0.0
2026-01-05 08:32:42.682723	238.1	31.7	-62.1	0.0
2026-01-05 08:32:44.919747	237.7	31.3	-60.9	0.0
2026-01-05 08:32:47.151755	237.3	30.9	-62.9	0.0
2026-01-05 08:32:49.381266	236.9	30.5	-63.0	0.2
2026-01-05 08:32:51.615281	236.5	30.1	-62.8	0.0
2026-01-05 08:32:53.848297	236.1	29.8	-63.2	1.1
2026-01-05 08:32:56.085304	235.7	29.4	-62.4	3.0
2026-01-05 08:32:58.316311	235.3	29.0	-60.4	0.0
2026-01-05 08:33:00.548821	235.0	28.7	-61.5	0.0
2026-01-05 08:33:02.780331	234.6	28.3	-56.2	1.8
2026-01-05 08:33:05.014338	234.3	28.0	-61.9	2.7
2026-01-05 08:33:07.251858	233.9	27.6	-62.1	3.5
2026-01-05 08:33:09.487902	233.6	27.3	-62.4	4.4
2026-01-05 08:33:11.719946	233.3	26.9	-61.3	3.3
2026-01-05 08:33:13.953953	233.0	26.6	-61.8	3.1
2026-01-05 08:33:16.187456	232.7	26.2	-60.0	1.8
2026-01-05 08:33:18.418966	232.4	25.9	-62.9	3.1
2026-01-05 08:33:20.659488	232.1	25.6	-61.5	1.3
2026-01-05 08:33:22.903993	231.8	25.2	-60.9	4.8
2026-01-05 08:33:25.146020	231.5	24.9	-62.4	5.7
2026-01-05 08:33:27.388542	231.2	24.6	-62.1	4.1
2026-01-05 08:33:29.631065	230.9	24.3	-61.1	2.7
2026-01-05 08:33:31.872586	230.7	23.9	-58.3	0.0
2026-01-05 08:33:34.117100	230.4	23.6	-62.0	5.4
2026-01-05 08:33:36.359118	230.1	23.3	-61.2	3.5
2026-01-05 08:33:38.598630	229.9	23.0	-62.9	3.4
2026-01-05 08:33:40.834203	229.6	22.7	-62.2	4.6
2026-01-05 08:33:43.065218	229.4	22.4	-63.5	5.8
2026-01-05 08:33:45.297225	229.2	22.1	-61.5	2.3
2026-01-05 08:33:47.528744	228.9	21.8	-62.9	8.5
2026-01-05 08:33:49.760246	228.7	21.5	-62.6	5.8
2026-01-05 08:33:51.992254	228.5	21.2	-63.0	7.2
2026-01-05 08:33:54.225283	228.3	21.0	-62.9	6.1
2026-01-05 08:33:56.453793	228.0	20.7	-62.5	5.4
2026-01-05 08:33:58.688312	227.8	20.4	-63.6	6.9
2026-01-05 08:34:00.922832	227.6	20.1	-64.0	7.2
2026-01-05 08:34:03.154343	227.4	19.8	-63.2	5.9
2026-01-05 08:34:05.385854	227.2	19.6	-64.0	7.5
2026-01-05 08:34:07.625366	227.0	19.3	-63.7	6.2
2026-01-05 08:34:09.856373	226.8	19.0	-64.0	7.8
2026-01-05 08:34:12.089387	226.6	18.8	-64.1	6.4
2026-01-05 08:34:14.322890	226.5	18.5	-63.8	6.2
2026-01-05 08:34:16.553906	226.3	18.2	-63.3	7.2
2026-01-05 08:34:18.787913	226.1	18.0	-64.0	6.7
2026-01-05 08:34:21.023930	225.9	17.7	-63.8	7.3
2026-01-05 08:34:23.255432	225.8	17.5	-63.6	8.0
2026-01-05 08:34:25.488439	225.6	17.2	-63.8	7.3
2026-01-05 08:34:27.718950	225.4	17.0	-63.8	6.0
2026-01-05 08:34:29.950468	225.2	16.7	-64.2	7.6
2026-01-05 08:34:32.182979	225.1	16.5	-63.7	2.4
2026-01-05 08:34:34.413490	224.9	16.3	-64.3	7.0
2026-01-05 08:34:36.646010	224.8	16.0	-64.5	7.0
2026-01-05 08:34:38.877016	224.6	15.8	-64.0	6.7
2026-01-05 08:34:41.114040	224.5	15.5	-64.4	7.4
2026-01-05 08:34:43.342550	224.3	15.3	-64.5	7.0
2026-01-05 08:34:45.575557	224.2	15.1	-64.2	7.4
2026-01-05 08:34:47.817071	224.0	14.8	-64.7	8.8
2026-01-05 08:34:50.060088	223.9	14.6	-64.6	7.4
2026-01-05 08:34:52.300610	223.7	14.4	-63.1	5.6
2026-01-05 08:34:54.543628	223.6	14.2	-63.8	4.3
2026-01-05 08:34:56.788133	223.5	13.9	-63.8	6.1
2026-01-05 08:34:59.032149	223.3	13.7	-64.6	7.8
2026-01-05 08:35:01.276159	223.2	13.5	-63.7	5.4
2026-01-05 08:35:03.518168	223.1	13.3	-63.8	7.4
2026-01-05 08:35:05.753680	222.9	13.1	-64.5	7.2
2026-01-05 08:35:07.989703	222.8	12.9	-64.3	6.9
2026-01-05 08:35:10.223711	222.7	12.7	-64.6	7.0
2026-01-05 08:35:12.454726	222.6	12.4	-64.0	5.4
2026-01-05 08:35:14.689734	222.4	12.2	-64.8	7.4
2026-01-05 08:35:16.921756	222.3	12.0	-64.7	7.7
2026-01-05 08:35:19.153771	222.2	11.8	-64.7	5.3
2026-01-05 08:35:21.383778	222.1	11.6	-64.2	6.9
2026-01-05 08:35:23.616280	222.0	11.4	-65.4	7.6
2026-01-05 08:35:25.849792	221.9	11.2	-65.4	7.2
2026-01-05 08:35:28.080798	221.8	11.0	-65.7	9.1
2026-01-05 08:35:30.312814	221.7	10.8	-65.8	8.7
2026-01-05 08:35:32.544324	221.5	10.6	-65.8	8.6
2026-01-05 08:35:34.775827	221.4	10.4	-66.1	9.2
2026-01-05 08:35:37.007843	221.3	10.3	-65.9	8.2
2026-01-05 08:35:39.238850	221.2	10.1	-66.0	7.9
2026-01-05 08:35:41.474864	221.1	9.9	-66.2	9.5
2026-01-05 08:35:43.707368	221.0	9.7	-66.4	7.8
2026-01-05 08:35:45.939870	220.9	9.5	-66.3	7.6
2026-01-05 08:35:48.171382	220.8	9.3	-66.2	7.7
2026-01-05 08:35:50.402893	220.7	9.1	-66.3	7.7
2026-01-05 08:35:52.643398	220.6	9.0	-66.1	8.1
2026-01-05 08:35:54.875404	220.6	8.8	-66.4	8.3
2026-01-05 08:35:57.108915	220.5	8.6	-66.4	7.4
2026-01-05 08:35:59.340439	220.4	8.4	-66.7	7.8
2026-01-05 08:36:01.576443	220.3	8.2	-66.2	7.3
2026-01-05 08:36:03.813472	220.2	8.1	-66.0	6.5
2026-01-05 08:36:06.056987	220.1	7.9	-66.4	7.4
2026-01-05 08:36:08.301501	220.0	7.7	-66.4	7.3
2026-01-05 08:36:10.545015	219.9	7.5	-66.4	4.6
2026-01-05 08:36:12.789033	219.8	7.4	-66.0	7.3
2026-01-05 08:36:15.032051	219.8	7.2	-66.2	6.3
2026-01-05 08:36:17.275565	219.7	7.0	-66.3	7.7
2026-01-05 08:36:19.518070	219.6	6.8	-66.6	7.3
2026-01-05 08:36:21.754574	219.5	6.7	-66.5	7.1
2026-01-05 08:36:23.987589	219.4	6.5	-66.4	6.4
2026-01-05 08:36:26.223101	219.4	6.3	-66.2	6.0
2026-01-05 08:36:28.456116	219.3	6.2	-66.5	7.0
2026-01-05 08:36:30.690124	219.2	6.0	-66.7	7.5
2026-01-05 08:36:32.919626	219.1	5.9	-68.8	0.0
2026-01-05 08:36:35.149136	219.1	5.7	-69.2	0.0
2026-01-05 08:36:37.379143	219.0	5.5	-69.7	0.0
2026-01-05 08:36:39.609645	218.9	5.4	-71.6	0.0
2026-01-05 08:36:41.839661	218.8	5.2	-73.0	0.0
2026-01-05 08:36:44.073667	218.8	5.1	-72.9	0.0
#Closed at: 2026-01-05 08:24:06.495414