passes_logs/2026/01/05/PlanumMoscow/PlanumMoscow__20260105_073948_METEOR-M2_3_rec.log

#Pass ID: 20260105_073948_METEOR-M2 3
#Satellite: METEOR-M2 3
#Configuration: METEOR-M2 3
#Start time: 2026-01-05 07:39:53.146126

#LorettStation: 1.0.0 05.05.2024
#Station: PlanumMoscow
#Location: 37.6253844 lon 55.6713361 lat
#TLE: 1 57166U 23091A   25293.99389264  .00000062  00000+0  46113-4 0  9997
#TLE: 2 57166  98.6457 348.4330 0004759 135.3141 224.8422 14.24016546120475

#Time	Az	El	Level	SNR
2026-01-05 07:43:31.586089	10.7	29.4	-60.6	5.9
2026-01-05 07:43:33.827098	10.5	29.8	-61.1	3.1
2026-01-05 07:43:36.070124	10.4	30.2	-61.2	7.1
2026-01-05 07:43:38.314133	10.3	30.7	-60.9	9.0
2026-01-05 07:43:40.557647	10.2	31.1	-61.8	7.5
2026-01-05 07:43:42.795169	10.1	31.5	-61.4	10.8
2026-01-05 07:43:45.037186	9.9	32.0	-62.3	8.9
2026-01-05 07:43:47.281205	9.8	32.5	-62.7	8.2
2026-01-05 07:43:49.525719	9.7	32.9	-60.6	8.6
2026-01-05 07:43:51.770737	9.5	33.4	-60.5	5.0
2026-01-05 07:43:54.010241	9.4	33.9	-61.4	6.6
2026-01-05 07:43:56.252251	9.3	34.4	-61.8	6.4
2026-01-05 07:43:58.494260	9.1	34.9	-63.0	8.8
2026-01-05 07:44:00.735792	8.9	35.4	-61.8	4.7
2026-01-05 07:44:02.978307	8.8	35.9	-63.9	11.6
2026-01-05 07:44:05.219316	8.6	36.4	-63.4	10.7
2026-01-05 07:44:07.458324	8.4	36.9	-63.6	9.7
2026-01-05 07:44:09.700845	8.3	37.5	-60.1	5.5
2026-01-05 07:44:11.942854	8.1	38.0	-58.7	3.4
2026-01-05 07:44:14.185377	7.9	38.6	-60.0	7.1
2026-01-05 07:44:16.425881	7.7	39.1	-61.3	5.7
2026-01-05 07:44:18.666403	7.5	39.7	-60.6	7.4
2026-01-05 07:44:20.907916	7.3	40.3	-63.6	11.2
2026-01-05 07:44:23.150925	7.0	40.9	-62.7	9.1
2026-01-05 07:44:25.392447	6.8	41.5	-60.4	7.8
2026-01-05 07:44:27.633960	6.6	42.1	-61.8	6.6
2026-01-05 07:44:29.873473	6.3	42.7	-62.9	7.3
2026-01-05 07:44:32.112004	6.0	43.3	-61.4	6.9
2026-01-05 07:44:34.352517	5.8	44.0	-64.2	11.6
2026-01-05 07:44:36.593022	5.5	44.6	-62.4	6.8
2026-01-05 07:44:38.829534	5.2	45.3	-62.7	5.0
2026-01-05 07:44:41.067047	4.9	45.9	-63.6	9.8
2026-01-05 07:44:43.302559	4.6	46.6	-63.2	10.5
2026-01-05 07:44:45.541073	4.2	47.3	-64.2	12.0
2026-01-05 07:44:47.784091	3.9	48.0	-63.2	8.5
2026-01-05 07:44:50.021099	3.5	48.7	-63.5	9.6
2026-01-05 07:44:52.261612	3.1	49.4	-63.9	9.9
2026-01-05 07:44:54.505621	2.7	50.2	-64.0	10.8
2026-01-05 07:44:56.742125	2.3	50.9	-64.5	10.1
2026-01-05 07:44:58.981646	1.8	51.7	-64.8	10.9
2026-01-05 07:45:01.219655	1.3	52.4	-64.5	9.0
2026-01-05 07:45:03.457671	0.8	53.2	-64.5	9.5
2026-01-05 07:45:05.695183	0.3	54.0	-65.3	11.0
2026-01-05 07:45:07.933696	359.8	54.8	-64.7	10.8
2026-01-05 07:45:10.168199	359.2	55.6	-65.8	11.1
2026-01-05 07:45:12.408720	358.5	56.4	-65.6	7.3
2026-01-05 07:45:14.641737	357.9	57.2	-66.2	11.8
2026-01-05 07:45:16.882250	357.2	58.0	-66.3	11.9
2026-01-05 07:45:19.125764	356.4	58.8	-67.1	12.1
2026-01-05 07:45:21.368288	355.6	59.7	-66.7	11.1
2026-01-05 07:45:23.610810	354.8	60.5	-66.7	10.4
2026-01-05 07:45:25.853343	353.8	61.4	-67.0	10.7
2026-01-05 07:45:28.098858	352.8	62.2	-66.6	10.6
2026-01-05 07:45:30.343875	351.8	63.1	-65.6	7.3
2026-01-05 07:45:32.587885	350.7	64.0	-65.2	8.1
2026-01-05 07:45:34.829390	349.4	64.8	-66.8	10.4
2026-01-05 07:45:37.065398	348.1	65.7	-67.6	11.7
2026-01-05 07:45:39.304406	346.7	66.5	-67.7	11.1
2026-01-05 07:45:41.543415	345.1	67.4	-67.6	10.7
2026-01-05 07:45:43.779936	343.5	68.2	-67.6	10.0
2026-01-05 07:45:46.019449	341.6	69.0	-68.2	10.7
2026-01-05 07:45:48.255961	339.7	69.9	-67.8	9.8
2026-01-05 07:45:50.491473	337.5	70.7	-68.3	10.6
2026-01-05 07:45:52.729986	335.1	71.4	-68.6	11.2
2026-01-05 07:45:54.968507	332.6	72.2	-68.3	10.8
2026-01-05 07:45:57.206516	329.8	72.9	-68.3	11.6
2026-01-05 07:45:59.444027	326.7	73.6	-68.8	12.7
2026-01-05 07:46:01.685541	323.4	74.2	-68.2	12.9
2026-01-05 07:46:03.923054	319.8	74.8	-67.7	12.8
2026-01-05 07:46:06.161567	315.9	75.3	-67.7	13.9
2026-01-05 07:46:08.399079	311.7	75.8	-67.7	15.1
2026-01-05 07:46:10.637087	307.3	76.1	-67.3	15.3
2026-01-05 07:46:12.876095	302.6	76.4	-66.9	15.7
2026-01-05 07:46:15.113609	297.8	76.6	-67.2	14.6
2026-01-05 07:46:17.348625	292.9	76.7	-66.6	14.7
2026-01-05 07:46:19.586129	287.9	76.7	-67.8	14.7
2026-01-05 07:46:21.822145	282.9	76.7	-67.7	14.7
2026-01-05 07:46:24.056675	278.1	76.5	-68.0	15.4
2026-01-05 07:46:26.293683	273.4	76.2	-67.7	15.2
2026-01-05 07:46:28.533692	268.9	75.8	-67.6	14.8
2026-01-05 07:46:30.773214	264.7	75.4	-67.5	15.7
2026-01-05 07:46:33.012223	260.7	74.9	-67.5	15.5
2026-01-05 07:46:35.255231	257.1	74.3	-67.6	15.7
2026-01-05 07:46:37.498249	253.7	73.7	-67.7	15.4
2026-01-05 07:46:39.747755	250.6	73.0	-67.8	14.4
2026-01-05 07:46:41.991764	247.7	72.3	-68.3	14.1
2026-01-05 07:46:44.234774	245.1	71.6	-67.9	13.1
2026-01-05 07:46:46.477297	242.7	70.8	-68.4	13.6
2026-01-05 07:46:48.721306	240.5	70.0	-68.1	13.7
2026-01-05 07:46:50.965316	238.5	69.2	-68.0	14.8
2026-01-05 07:46:53.209325	236.6	68.3	-67.8	14.2
2026-01-05 07:46:55.449334	234.9	67.5	-68.0	14.9
2026-01-05 07:46:57.686342	233.3	66.6	-68.1	14.1
2026-01-05 07:46:59.924855	231.9	65.8	-67.8	12.6
2026-01-05 07:47:02.161863	230.6	64.9	-68.2	12.6
2026-01-05 07:47:04.404377	229.3	64.1	-68.1	12.7
2026-01-05 07:47:06.640889	228.2	63.2	-68.5	12.8
2026-01-05 07:47:08.877401	227.1	62.3	-68.0	11.8
2026-01-05 07:47:11.115418	226.1	61.5	-68.2	12.1
2026-01-05 07:47:13.353444	225.2	60.6	-68.0	12.6
2026-01-05 07:47:15.593453	224.3	59.8	-67.6	13.4
2026-01-05 07:47:17.828964	223.5	58.9	-67.3	12.9
2026-01-05 07:47:20.068983	222.8	58.1	-67.5	14.6
2026-01-05 07:47:22.308000	222.0	57.3	-66.8	13.4
2026-01-05 07:47:24.545017	221.4	56.5	-65.6	11.8
2026-01-05 07:47:26.782521	220.7	55.6	-66.7	13.9
2026-01-05 07:47:29.019530	220.1	54.8	-66.9	12.6
2026-01-05 07:47:31.259546	219.6	54.0	-66.8	12.5
2026-01-05 07:47:33.497554	219.0	53.3	-66.1	12.2
2026-01-05 07:47:35.736563	218.5	52.5	-65.7	11.4
2026-01-05 07:47:37.974076	218.1	51.7	-65.9	11.1
2026-01-05 07:47:40.209084	217.6	51.0	-65.2	11.4
2026-01-05 07:47:42.447596	217.2	50.2	-64.3	8.3
2026-01-05 07:47:44.682100	216.8	49.5	-66.5	12.4
2026-01-05 07:47:46.918620	216.4	48.8	-66.5	12.2
2026-01-05 07:47:49.151628	216.0	48.1	-66.0	12.2
2026-01-05 07:47:51.386139	215.6	47.4	-66.1	12.6
2026-01-05 07:47:53.627653	215.3	46.7	-66.0	12.8
2026-01-05 07:47:55.865661	215.0	46.0	-65.7	12.0
2026-01-05 07:47:58.108679	214.6	45.3	-65.3	12.9
2026-01-05 07:48:00.352193	214.3	44.6	-65.8	13.1
2026-01-05 07:48:02.596202	214.1	44.0	-64.5	10.5
2026-01-05 07:48:04.839220	213.8	43.3	-65.4	11.6
2026-01-05 07:48:07.082733	213.5	42.7	-64.8	11.0
2026-01-05 07:48:09.326742	213.3	42.1	-63.3	11.5
2026-01-05 07:48:11.570255	213.0	41.5	-63.8	11.4
2026-01-05 07:48:13.808265	212.8	40.9	-65.2	10.9
2026-01-05 07:48:16.041272	212.6	40.3	-65.1	13.5
2026-01-05 07:48:18.271288	212.3	39.7	-63.8	11.6
2026-01-05 07:48:20.507792	212.1	39.1	-64.0	11.3
2026-01-05 07:48:22.746305	211.9	38.5	-64.5	10.2
2026-01-05 07:48:24.982313	211.7	38.0	-65.2	12.9
2026-01-05 07:48:27.222321	211.5	37.4	-65.2	14.2
2026-01-05 07:48:29.459330	211.4	36.9	-64.1	13.1
2026-01-05 07:48:31.697347	211.2	36.4	-65.0	14.3
2026-01-05 07:48:33.934860	211.0	35.8	-65.1	14.0
2026-01-05 07:48:36.176364	210.9	35.3	-65.1	14.1
2026-01-05 07:48:38.413877	210.7	34.8	-64.0	12.8
2026-01-05 07:48:40.652390	210.5	34.3	-63.8	12.7
2026-01-05 07:48:42.898914	210.4	33.8	-65.0	12.2
2026-01-05 07:48:45.136923	210.2	33.3	-65.4	14.4
2026-01-05 07:48:47.373931	210.1	32.9	-65.4	12.8
2026-01-05 07:48:49.607948	210.0	32.4	-64.9	13.3
2026-01-05 07:48:51.846452	209.8	31.9	-64.7	12.5
2026-01-05 07:48:54.085965	209.7	31.5	-65.2	13.3
2026-01-05 07:48:56.324469	209.6	31.0	-65.4	14.2
2026-01-05 07:48:58.563487	209.5	30.6	-65.5	13.6
2026-01-05 07:49:00.804000	209.3	30.2	-64.9	12.8
2026-01-05 07:49:03.042008	209.2	29.7	-64.9	13.8
2026-01-05 07:49:05.280025	209.1	29.3	-65.1	14.0
2026-01-05 07:49:07.515536	209.0	28.9	-65.3	13.6
2026-01-05 07:49:09.755058	208.9	28.5	-64.7	12.2
2026-01-05 07:49:11.995075	208.8	28.1	-65.4	13.8
2026-01-05 07:49:14.233580	208.7	27.7	-63.9	12.2
2026-01-05 07:49:16.477111	208.6	27.3	-65.3	13.4
2026-01-05 07:49:18.713129	208.5	26.9	-64.9	13.4
2026-01-05 07:49:20.951633	208.4	26.5	-65.8	11.9
2026-01-05 07:49:23.189137	208.3	26.1	-65.4	13.1
2026-01-05 07:49:25.433156	208.2	25.8	-65.9	14.1
2026-01-05 07:49:27.669164	208.2	25.4	-64.9	12.5
2026-01-05 07:49:29.906676	208.1	25.0	-65.8	13.5
2026-01-05 07:49:32.145180	208.0	24.7	-65.3	12.8
2026-01-05 07:49:34.382692	207.9	24.3	-64.9	12.4
2026-01-05 07:49:36.618196	207.8	24.0	-65.6	13.8
2026-01-05 07:49:38.854203	207.8	23.6	-65.3	13.4
2026-01-05 07:49:41.092213	207.7	23.3	-65.6	13.2
2026-01-05 07:49:43.331238	207.6	23.0	-65.1	11.9
2026-01-05 07:49:45.566246	207.5	22.6	-65.2	12.5
2026-01-05 07:49:47.805768	207.5	22.3	-65.5	11.5
2026-01-05 07:49:50.050273	207.4	22.0	-66.0	13.5
2026-01-05 07:49:52.297292	207.3	21.7	-65.2	11.6
2026-01-05 07:49:54.541301	207.3	21.3	-65.3	12.1
2026-01-05 07:49:56.782832	207.2	21.0	-65.3	12.8
2026-01-05 07:49:59.022842	207.1	20.7	-66.2	13.3
2026-01-05 07:50:01.266878	207.1	20.4	-64.9	10.3
2026-01-05 07:50:03.510392	207.0	20.1	-66.0	12.8
2026-01-05 07:50:05.754898	207.0	19.8	-65.1	11.1
2026-01-05 07:50:07.996907	206.9	19.5	-65.8	13.1
2026-01-05 07:50:10.234420	206.9	19.2	-65.0	12.8
2026-01-05 07:50:12.469427	206.8	19.0	-66.4	12.9
2026-01-05 07:50:14.708932	206.7	18.7	-66.1	11.1
2026-01-05 07:50:16.945454	206.7	18.4	-66.0	12.0
2026-01-05 07:50:19.181976	206.6	18.1	-66.2	12.7
2026-01-05 07:50:21.423480	206.6	17.8	-62.6	5.1
2026-01-05 07:50:23.661992	206.5	17.6	-64.1	7.3
2026-01-05 07:50:25.898504	206.5	17.3	-64.1	9.5
2026-01-05 07:50:28.136008	206.4	17.0	-65.5	11.2
2026-01-05 07:50:30.374017	206.4	16.8	-65.3	10.4
2026-01-05 07:50:32.610539	206.4	16.5	-64.7	9.2
2026-01-05 07:50:34.850043	206.3	16.3	-66.4	10.7
2026-01-05 07:50:37.087547	206.3	16.0	-66.1	12.0
2026-01-05 07:50:39.317049	206.2	15.8	-65.7	10.6
2026-01-05 07:50:41.551057	206.2	15.5	-66.3	11.0
2026-01-05 07:50:43.786064	206.1	15.3	-64.0	7.0
2026-01-05 07:50:46.018093	206.1	15.0	-65.7	10.6
2026-01-05 07:50:48.247603	206.1	14.8	-66.1	11.4
2026-01-05 07:50:50.480114	206.0	14.6	-66.1	11.6
2026-01-05 07:50:52.713617	206.0	14.3	-65.7	10.5
2026-01-05 07:50:54.947635	206.0	14.1	-65.3	10.6
2026-01-05 07:50:57.182147	205.9	13.9	-64.5	9.4
2026-01-05 07:50:59.419660	205.9	13.6	-63.9	4.3
2026-01-05 07:51:01.657669	205.8	13.4	-64.6	9.3
2026-01-05 07:51:03.896190	205.8	13.2	-64.4	10.5
2026-01-05 07:51:06.132702	205.8	13.0	-66.1	9.9
2026-01-05 07:51:08.370213	205.7	12.7	-65.8	7.9
2026-01-05 07:51:10.612737	205.7	12.5	-65.6	7.4
2026-01-05 07:51:12.854764	205.7	12.3	-66.3	10.5
2026-01-05 07:51:15.097287	205.6	12.1	-65.6	8.7
2026-01-05 07:51:17.343305	205.6	11.9	-64.8	8.6
2026-01-05 07:51:19.585331	205.6	11.7	-64.9	8.7
2026-01-05 07:51:21.828348	205.5	11.4	-63.1	2.9
2026-01-05 07:51:24.071375	205.5	11.2	-64.5	7.9
2026-01-05 07:51:26.311420	205.5	11.0	-61.1	0.6
2026-01-05 07:51:28.549429	205.5	10.8	-64.8	8.4
2026-01-05 07:51:30.785949	205.4	10.6	-64.9	0.9
2026-01-05 07:51:33.020461	205.4	10.4	-63.1	7.7
2026-01-05 07:51:35.254468	205.4	10.2	-64.7	8.8
2026-01-05 07:51:37.487990	205.4	10.0	-57.1	0.0
2026-01-05 07:51:39.719492	205.3	9.8	-65.8	8.3
2026-01-05 07:51:41.962519	205.3	9.6	-65.6	7.7
2026-01-05 07:51:44.197527	205.3	9.5	-65.6	8.9
2026-01-05 07:51:46.434039	205.2	9.3	-65.2	7.2
2026-01-05 07:51:48.673048	205.2	9.1	-62.0	0.0
2026-01-05 07:51:50.911560	205.2	8.9	-65.5	7.8
2026-01-05 07:51:53.145567	205.2	8.7	-65.3	7.9
2026-01-05 07:51:55.379070	205.1	8.5	-64.2	7.6
2026-01-05 07:51:57.615079	205.1	8.3	-64.3	7.0
2026-01-05 07:51:59.850590	205.1	8.1	-64.4	6.6
2026-01-05 07:52:02.084599	205.1	8.0	-65.4	5.7
2026-01-05 07:52:04.320118	205.1	7.8	-65.0	7.0
2026-01-05 07:52:06.556134	205.0	7.6	-64.1	7.4
2026-01-05 07:52:08.791637	205.0	7.4	-64.7	4.7
2026-01-05 07:52:11.026149	205.0	7.2	-63.9	1.7
2026-01-05 07:52:13.258661	205.0	7.1	-65.6	6.4
2026-01-05 07:52:15.493182	205.0	6.9	-64.2	6.8
2026-01-05 07:52:17.729695	204.9	6.7	-64.8	3.4
2026-01-05 07:52:19.963702	204.9	6.6	-64.0	3.8
2026-01-05 07:52:22.196213	204.9	6.4	-60.8	0.0
2026-01-05 07:52:24.430733	204.9	6.2	-64.2	5.5
2026-01-05 07:52:26.669742	204.9	6.0	-64.0	5.0
2026-01-05 07:52:28.913257	204.8	5.9	-65.5	3.0
2026-01-05 07:52:31.158265	204.8	5.7	-68.7	0.0
2026-01-05 07:52:33.399797	204.8	5.5	-70.2	0.0
2026-01-05 07:52:35.642327	204.8	5.4	-72.0	0.0
2026-01-05 07:52:37.885353	204.8	5.2	-72.0	0.0
2026-01-05 07:52:40.128867	204.7	5.1	-71.7	0.0
#Closed at: 2026-01-05 07:39:48.148265