passes_logs/2026/01/05/PlanumMoscow/PlanumMoscow__20260105_001234_METEOR-M2_4_rec.log

#Pass ID: 20260105_001234_METEOR-M2 4
#Satellite: METEOR-M2 4
#Configuration: METEOR-M2 4
#Start time: 2026-01-05 00:12:39.821746

#LorettStation: 1.0.0 05.05.2024
#Station: PlanumMoscow
#Location: 37.6253844 lon 55.6713361 lat
#TLE: 1 59051U 24039A   25293.94737965  .00000087  00000+0  58459-4 0  9998
#TLE: 2 59051  98.6671 251.7071 0007726 135.4772 224.7028 14.22388966 85257

#Time	Az	El	Level	SNR
2026-01-05 00:16:18.276053	43.0	25.4	-61.3	7.9
2026-01-05 00:16:20.520071	43.4	25.7	-62.8	9.6
2026-01-05 00:16:22.762089	43.8	26.0	-61.6	8.4
2026-01-05 00:16:25.010100	44.3	26.3	-61.0	6.0
2026-01-05 00:16:27.249108	44.7	26.6	-61.9	9.7
2026-01-05 00:16:29.488126	45.1	26.9	-62.1	9.6
2026-01-05 00:16:31.729142	45.6	27.2	-62.6	9.9
2026-01-05 00:16:33.970161	46.0	27.5	-62.2	9.7
2026-01-05 00:16:36.207169	46.5	27.8	-62.9	10.2
2026-01-05 00:16:38.446681	47.0	28.1	-64.0	11.5
2026-01-05 00:16:40.683194	47.4	28.4	-63.7	9.3
2026-01-05 00:16:42.920202	47.9	28.7	-64.0	11.1
2026-01-05 00:16:45.154237	48.4	29.0	-64.1	11.8
2026-01-05 00:16:47.390758	48.9	29.3	-64.4	12.1
2026-01-05 00:16:49.630766	49.4	29.6	-64.1	11.4
2026-01-05 00:16:51.871784	50.0	29.9	-64.5	12.5
2026-01-05 00:16:54.110289	50.5	30.2	-64.2	13.5
2026-01-05 00:16:56.347809	51.0	30.5	-63.2	9.7
2026-01-05 00:16:58.586331	51.6	30.8	-62.6	11.0
2026-01-05 00:17:00.824843	52.2	31.1	-63.8	11.5
2026-01-05 00:17:03.062868	52.7	31.4	-63.6	12.2
2026-01-05 00:17:05.296875	53.3	31.7	-61.2	8.5
2026-01-05 00:17:07.534379	53.9	32.1	-63.9	12.5
2026-01-05 00:17:09.772901	54.5	32.4	-63.8	13.4
2026-01-05 00:17:12.009927	55.2	32.7	-63.4	13.5
2026-01-05 00:17:14.250936	55.8	33.0	-62.9	10.3
2026-01-05 00:17:16.489945	56.4	33.3	-63.1	12.5
2026-01-05 00:17:18.726961	57.1	33.6	-62.8	11.5
2026-01-05 00:17:20.965474	57.8	33.9	-63.8	12.7
2026-01-05 00:17:23.203978	58.4	34.2	-63.4	12.1
2026-01-05 00:17:25.442482	59.1	34.5	-61.1	9.8
2026-01-05 00:17:27.683501	59.9	34.8	-62.4	12.4
2026-01-05 00:17:29.920518	60.6	35.1	-62.8	11.8
2026-01-05 00:17:32.160031	61.3	35.4	-62.4	11.7
2026-01-05 00:17:34.402040	62.1	35.7	-62.2	11.7
2026-01-05 00:17:36.646545	62.8	36.0	-61.9	11.5
2026-01-05 00:17:38.890060	63.6	36.3	-61.7	7.4
2026-01-05 00:17:41.134566	64.4	36.6	-61.8	12.7
2026-01-05 00:17:43.376593	65.2	36.9	-62.7	11.7
2026-01-05 00:17:45.620108	66.0	37.1	-58.9	6.0
2026-01-05 00:17:47.864613	66.9	37.4	-63.0	9.8
2026-01-05 00:17:50.112128	67.7	37.7	-62.5	12.2
2026-01-05 00:17:52.352137	68.6	38.0	-60.8	4.6
2026-01-05 00:17:54.591651	69.4	38.2	-61.1	10.2
2026-01-05 00:17:56.831661	70.3	38.5	-62.7	12.2
2026-01-05 00:17:59.072182	71.2	38.7	-62.9	11.2
2026-01-05 00:18:01.309686	72.1	39.0	-61.4	9.7
2026-01-05 00:18:03.549191	73.1	39.2	-59.8	4.8
2026-01-05 00:18:05.793705	74.0	39.4	-62.9	11.9
2026-01-05 00:18:08.032217	75.0	39.7	-60.6	7.8
2026-01-05 00:18:10.271234	75.9	39.9	-62.5	11.1
2026-01-05 00:18:12.512739	76.9	40.1	-62.7	12.2
2026-01-05 00:18:14.753260	77.9	40.3	-61.9	9.8
2026-01-05 00:18:16.989787	78.9	40.5	-61.5	12.6
2026-01-05 00:18:19.227300	79.9	40.7	-63.3	8.1
2026-01-05 00:18:21.463821	80.9	40.8	-63.6	11.7
2026-01-05 00:18:23.701845	82.0	41.0	-64.3	11.8
2026-01-05 00:18:25.942350	83.0	41.1	-62.8	10.9
2026-01-05 00:18:28.181367	84.1	41.3	-63.8	10.7
2026-01-05 00:18:30.419384	85.2	41.4	-64.8	12.1
2026-01-05 00:18:32.656896	86.2	41.5	-65.1	13.0
2026-01-05 00:18:34.896400	87.3	41.7	-64.3	11.5
2026-01-05 00:18:37.130903	88.4	41.8	-65.1	11.2
2026-01-05 00:18:39.365407	89.5	41.8	-65.3	14.0
2026-01-05 00:18:41.601415	90.6	41.9	-65.5	13.2
2026-01-05 00:18:43.840936	91.7	42.0	-65.4	13.0
2026-01-05 00:18:46.075439	92.8	42.0	-65.5	14.1
2026-01-05 00:18:48.309943	93.9	42.1	-65.4	10.6
2026-01-05 00:18:50.546951	95.0	42.1	-65.6	12.5
2026-01-05 00:18:52.791961	96.2	42.1	-65.7	12.6
2026-01-05 00:18:55.035475	97.3	42.2	-65.5	13.6
2026-01-05 00:18:57.279485	98.4	42.1	-66.0	12.5
2026-01-05 00:18:59.522008	99.5	42.1	-66.1	13.9
2026-01-05 00:19:01.766018	100.7	42.1	-66.0	11.7
2026-01-05 00:19:04.010028	101.8	42.1	-66.4	13.9
2026-01-05 00:19:06.254037	102.9	42.0	-66.5	13.4
2026-01-05 00:19:08.490550	104.0	41.9	-66.4	13.4
2026-01-05 00:19:10.729054	105.1	41.9	-66.5	14.0
2026-01-05 00:19:12.969063	106.2	41.8	-66.0	12.5
2026-01-05 00:19:15.205071	107.3	41.7	-66.0	12.1
2026-01-05 00:19:17.442079	108.4	41.6	-65.0	10.9
2026-01-05 00:19:19.677582	109.5	41.5	-65.8	12.0
2026-01-05 00:19:21.915598	110.5	41.3	-65.9	12.9
2026-01-05 00:19:24.149110	111.6	41.2	-65.9	11.8
2026-01-05 00:19:26.381134	112.7	41.0	-66.1	11.2
2026-01-05 00:19:28.624647	113.7	40.9	-66.2	12.0
2026-01-05 00:19:30.865151	114.7	40.7	-66.1	10.7
2026-01-05 00:19:33.100168	115.8	40.5	-66.1	12.8
2026-01-05 00:19:35.337185	116.8	40.3	-63.1	6.2
2026-01-05 00:19:37.575699	117.8	40.1	-64.3	9.3
2026-01-05 00:19:39.814707	118.7	39.9	-66.2	12.3
2026-01-05 00:19:42.052220	119.7	39.7	-66.3	13.1
2026-01-05 00:19:44.288236	120.7	39.5	-65.7	13.5
2026-01-05 00:19:46.525758	121.6	39.3	-66.3	12.9
2026-01-05 00:19:48.764262	122.6	39.0	-66.2	12.6
2026-01-05 00:19:51.002270	123.5	38.8	-66.2	12.6
2026-01-05 00:19:53.239288	124.4	38.5	-66.1	12.6
2026-01-05 00:19:55.477312	125.3	38.3	-66.0	13.7
2026-01-05 00:19:57.713329	126.2	38.0	-66.1	13.6
2026-01-05 00:19:59.950833	127.0	37.8	-66.1	13.6
2026-01-05 00:20:02.188841	127.9	37.5	-65.7	12.9
2026-01-05 00:20:04.425849	128.7	37.2	-66.1	12.0
2026-01-05 00:20:06.663857	129.5	36.9	-66.0	12.9
2026-01-05 00:20:08.905875	130.4	36.7	-66.1	12.9
2026-01-05 00:20:11.149389	131.2	36.4	-66.3	13.7
2026-01-05 00:20:13.390902	131.9	36.1	-64.7	10.0
2026-01-05 00:20:15.632911	132.7	35.8	-65.9	13.3
2026-01-05 00:20:17.875929	133.5	35.5	-65.9	13.9
2026-01-05 00:20:20.117948	134.2	35.2	-65.5	13.3
2026-01-05 00:20:22.361462	134.9	34.9	-65.8	13.8
2026-01-05 00:20:24.604499	135.7	34.6	-65.8	14.2
2026-01-05 00:20:26.846516	136.4	34.3	-65.9	14.7
2026-01-05 00:20:29.090526	137.1	34.0	-66.2	14.4
2026-01-05 00:20:31.334042	137.7	33.7	-65.8	13.7
2026-01-05 00:20:33.573050	138.4	33.3	-66.1	14.4
2026-01-05 00:20:35.813068	139.1	33.0	-65.9	13.6
2026-01-05 00:20:38.050571	139.7	32.7	-66.1	14.0
2026-01-05 00:20:40.288084	140.3	32.4	-66.0	14.5
2026-01-05 00:20:42.527588	140.9	32.1	-65.7	13.8
2026-01-05 00:20:44.764100	141.5	31.8	-66.0	13.8
2026-01-05 00:20:47.003613	142.1	31.5	-65.9	14.5
2026-01-05 00:20:49.242126	142.7	31.2	-66.1	14.1
2026-01-05 00:20:51.478638	143.3	30.8	-66.4	15.3
2026-01-05 00:20:53.719151	143.9	30.5	-66.0	14.6
2026-01-05 00:20:55.958160	144.4	30.2	-65.9	14.8
2026-01-05 00:20:58.201169	144.9	29.9	-66.2	15.2
2026-01-05 00:21:00.441674	145.5	29.6	-66.2	14.8
2026-01-05 00:21:02.687209	146.0	29.3	-65.8	14.5
2026-01-05 00:21:04.929227	146.5	29.0	-66.0	15.8
2026-01-05 00:21:07.169235	147.0	28.7	-66.1	15.4
2026-01-05 00:21:09.408749	147.5	28.4	-66.3	15.1
2026-01-05 00:21:11.650262	148.0	28.1	-66.5	15.3
2026-01-05 00:21:13.890784	148.5	27.8	-66.0	14.0
2026-01-05 00:21:16.126802	148.9	27.5	-66.4	13.9
2026-01-05 00:21:18.363810	149.4	27.2	-66.3	14.4
2026-01-05 00:21:20.602818	149.8	26.9	-66.4	13.9
2026-01-05 00:21:22.839826	150.3	26.6	-66.7	14.8
2026-01-05 00:21:25.077843	150.7	26.3	-66.1	13.8
2026-01-05 00:21:27.314355	151.1	26.0	-66.8	14.3
2026-01-05 00:21:29.553868	151.5	25.7	-66.8	14.2
2026-01-05 00:21:31.790380	152.0	25.4	-66.7	14.8
2026-01-05 00:21:34.030894	152.4	25.1	-66.5	13.8
2026-01-05 00:21:36.268919	152.7	24.8	-66.7	15.0
2026-01-05 00:21:38.511433	153.1	24.5	-66.4	14.2
2026-01-05 00:21:40.755939	153.5	24.2	-66.4	14.9
2026-01-05 00:21:42.999453	153.9	23.9	-66.4	14.3
2026-01-05 00:21:45.241975	154.3	23.7	-66.4	14.2
2026-01-05 00:21:47.485489	154.6	23.4	-66.5	14.5
2026-01-05 00:21:49.728994	155.0	23.1	-66.5	13.7
2026-01-05 00:21:51.972507	155.3	22.8	-66.6	14.2
2026-01-05 00:21:54.215021	155.7	22.6	-66.3	13.6
2026-01-05 00:21:56.453525	156.0	22.3	-66.4	13.8
2026-01-05 00:21:58.695047	156.3	22.0	-66.6	14.4
2026-01-05 00:22:00.932064	156.7	21.7	-66.6	13.8
2026-01-05 00:22:03.171082	157.0	21.5	-66.5	14.2
2026-01-05 00:22:05.409090	157.3	21.2	-66.7	13.5
2026-01-05 00:22:07.649603	157.6	21.0	-66.5	13.4
2026-01-05 00:22:09.887122	157.9	20.7	-66.6	13.5
2026-01-05 00:22:12.128628	158.2	20.4	-66.5	13.7
2026-01-05 00:22:14.365162	158.5	20.2	-66.6	13.6
2026-01-05 00:22:16.600169	158.8	19.9	-66.7	13.4
2026-01-05 00:22:18.837177	159.1	19.7	-66.6	12.8
2026-01-05 00:22:21.075194	159.4	19.4	-66.6	13.9
2026-01-05 00:22:23.311707	159.7	19.2	-66.4	13.8
2026-01-05 00:22:25.547715	159.9	18.9	-66.6	13.0
2026-01-05 00:22:27.785723	160.2	18.7	-66.6	12.8
2026-01-05 00:22:30.022235	160.5	18.4	-66.7	12.8
2026-01-05 00:22:32.254747	160.7	18.2	-66.5	13.1
2026-01-05 00:22:34.488250	161.0	18.0	-66.4	12.7
2026-01-05 00:22:36.722771	161.2	17.7	-66.6	12.6
2026-01-05 00:22:38.957778	161.5	17.5	-66.6	12.5
2026-01-05 00:22:41.190281	161.7	17.2	-66.1	12.2
2026-01-05 00:22:43.425289	162.0	17.0	-66.3	12.4
2026-01-05 00:22:45.662793	162.2	16.8	-66.3	12.5
2026-01-05 00:22:47.898809	162.4	16.6	-65.9	10.8
2026-01-05 00:22:50.134816	162.7	16.3	-66.5	12.0
2026-01-05 00:22:52.370841	162.9	16.1	-66.4	12.3
2026-01-05 00:22:54.612355	163.1	15.9	-66.1	11.0
2026-01-05 00:22:56.855373	163.3	15.7	-66.4	12.1
2026-01-05 00:22:59.098887	163.6	15.4	-66.2	11.8
2026-01-05 00:23:01.342400	163.8	15.2	-66.5	12.4
2026-01-05 00:23:03.588906	164.0	15.0	-66.3	11.2
2026-01-05 00:23:05.832419	164.2	14.8	-66.0	10.7
2026-01-05 00:23:08.075437	164.4	14.6	-66.5	11.5
2026-01-05 00:23:10.315446	164.6	14.4	-66.0	11.0
2026-01-05 00:23:12.555959	164.8	14.1	-66.1	10.8
2026-01-05 00:23:14.795472	165.0	13.9	-66.2	10.8
2026-01-05 00:23:17.034985	165.2	13.7	-66.2	11.1
2026-01-05 00:23:19.272498	165.4	13.5	-65.8	11.0
2026-01-05 00:23:21.510524	165.6	13.3	-65.8	10.8
2026-01-05 00:23:23.752029	165.8	13.1	-66.0	10.8
2026-01-05 00:23:25.991046	165.9	12.9	-65.9	10.2
2026-01-05 00:23:28.229055	166.1	12.7	-65.8	10.4
2026-01-05 00:23:30.467576	166.3	12.5	-65.8	10.5
2026-01-05 00:23:32.708081	166.5	12.3	-65.8	10.0
2026-01-05 00:23:34.948593	166.7	12.1	-65.8	10.9
2026-01-05 00:23:37.186602	166.8	11.9	-65.5	10.3
2026-01-05 00:23:39.423609	167.0	11.7	-65.9	9.8
2026-01-05 00:23:41.665628	167.2	11.5	-65.8	10.9
2026-01-05 00:23:43.902636	167.3	11.3	-65.7	11.0
2026-01-05 00:23:46.140652	167.5	11.1	-65.6	10.2
2026-01-05 00:23:48.383670	167.7	11.0	-65.7	10.0
2026-01-05 00:23:50.626184	167.8	10.8	-65.7	9.9
2026-01-05 00:23:52.866192	168.0	10.6	-65.9	9.5
2026-01-05 00:23:55.105714	168.2	10.4	-65.6	10.1
2026-01-05 00:23:57.350723	168.3	10.2	-66.1	9.9
2026-01-05 00:23:59.590237	168.5	10.0	-66.0	9.1
2026-01-05 00:24:01.831750	168.6	9.8	-66.0	9.3
2026-01-05 00:24:04.068766	168.8	9.7	-65.9	9.1
2026-01-05 00:24:06.307271	168.9	9.5	-66.0	9.8
2026-01-05 00:24:08.543782	169.1	9.3	-65.8	9.2
2026-01-05 00:24:10.786295	169.2	9.1	-66.1	8.8
2026-01-05 00:24:13.024313	169.3	9.0	-65.8	8.7
2026-01-05 00:24:15.264322	169.5	8.8	-65.7	8.9
2026-01-05 00:24:17.508331	169.6	8.6	-65.8	8.7
2026-01-05 00:24:19.749836	169.8	8.4	-65.8	8.6
2026-01-05 00:24:21.994350	169.9	8.3	-65.6	8.7
2026-01-05 00:24:24.231854	170.0	8.1	-65.8	8.4
2026-01-05 00:24:26.470367	170.2	7.9	-65.8	8.8
2026-01-05 00:24:28.709881	170.3	7.7	-65.9	7.7
2026-01-05 00:24:30.945405	170.4	7.6	-65.6	9.2
2026-01-05 00:24:33.182414	170.6	7.4	-65.6	8.2
2026-01-05 00:24:35.422431	170.7	7.2	-65.8	7.1
2026-01-05 00:24:37.664457	170.8	7.1	-65.4	8.3
2026-01-05 00:24:39.905970	170.9	6.9	-65.7	7.9
2026-01-05 00:24:42.144979	171.1	6.8	-65.6	8.6
2026-01-05 00:24:44.385492	171.2	6.6	-65.7	7.2
2026-01-05 00:24:46.629502	171.3	6.4	-65.7	7.7
2026-01-05 00:24:48.874017	171.4	6.3	-65.8	7.1
2026-01-05 00:24:51.117530	171.5	6.1	-65.8	6.1
2026-01-05 00:24:53.353538	171.7	6.0	-69.1	2.0
2026-01-05 00:24:55.592052	171.8	5.8	-70.2	0.0
2026-01-05 00:24:57.831068	171.9	5.6	-71.1	0.0
2026-01-05 00:25:00.068084	172.0	5.5	-71.8	0.0
2026-01-05 00:25:02.303092	172.1	5.3	-72.6	0.0
2026-01-05 00:25:04.539596	172.2	5.2	-71.9	0.0
2026-01-05 00:25:06.780109	172.3	5.0	-71.9	0.0
#Closed at: 2026-01-05 00:12:34.822614