passes_logs/2026/01/05/PlanumMoscow/PlanumMoscow__20260105_181343_METOP-C_rec.log

#Pass ID: 20260105_181343_METOP-C
#Satellite: METOP-C
#Configuration: METOP-C
#Start time: 2026-01-05 18:13:48.033488

#LorettStation: 1.0.0 05.05.2024
#Station: PlanumMoscow
#Location: 37.6253844 lon 55.6713361 lat
#TLE: 1 43689U 18087A   25293.88981035  .00000265  00000+0  14109-3 0  9997
#TLE: 2 43689  98.7006 352.4487 0002041 122.1097 238.0279 14.21482740360838

#Time	Az	El	Level	SNR
2026-01-05 18:17:26.549604	172.4	29.6	-64.9	5.1
2026-01-05 18:17:28.787621	172.5	30.0	-64.8	4.9
2026-01-05 18:17:31.019665	172.6	30.4	-65.3	4.8
2026-01-05 18:17:33.252681	172.7	30.9	-65.5	5.8
2026-01-05 18:17:35.486745	172.9	31.3	-65.3	5.3
2026-01-05 18:17:37.723753	173.0	31.8	-65.7	6.0
2026-01-05 18:17:39.961272	173.1	32.2	-65.3	5.9
2026-01-05 18:17:42.198812	173.3	32.7	-65.6	5.9
2026-01-05 18:17:44.433827	173.4	33.1	-65.1	6.0
2026-01-05 18:17:46.673339	173.6	33.6	-65.6	6.7
2026-01-05 18:17:48.908894	173.7	34.1	-65.6	5.7
2026-01-05 18:17:51.143908	173.9	34.6	-65.7	6.1
2026-01-05 18:17:53.379411	174.1	35.1	-65.3	5.8
2026-01-05 18:17:55.616419	174.2	35.6	-65.5	5.7
2026-01-05 18:17:57.854428	174.4	36.1	-66.0	5.9
2026-01-05 18:18:00.092436	174.6	36.6	-65.7	4.5
2026-01-05 18:18:02.330948	174.8	37.2	-65.7	3.5
2026-01-05 18:18:04.563468	175.0	37.7	-66.3	5.7
2026-01-05 18:18:06.797971	175.1	38.3	-66.4	4.3
2026-01-05 18:18:09.035483	175.4	38.8	-66.7	4.1
2026-01-05 18:18:11.269498	175.6	39.4	-66.3	3.2
2026-01-05 18:18:13.505011	175.8	40.0	-66.7	3.3
2026-01-05 18:18:15.742514	176.0	40.5	-67.1	3.8
2026-01-05 18:18:17.983019	176.2	41.1	-66.9	3.0
2026-01-05 18:18:20.218523	176.5	41.7	-66.4	1.6
2026-01-05 18:18:22.453539	176.7	42.3	-67.2	2.9
2026-01-05 18:18:24.692052	177.0	43.0	-67.0	2.5
2026-01-05 18:18:26.936061	177.3	43.6	-67.5	2.6
2026-01-05 18:18:29.179090	177.5	44.2	-67.7	1.6
2026-01-05 18:18:31.423099	177.8	44.9	-67.3	2.0
2026-01-05 18:18:33.665621	178.1	45.6	-67.4	1.2
2026-01-05 18:18:35.908638	178.4	46.2	-68.0	1.6
2026-01-05 18:18:38.152151	178.8	46.9	-68.1	1.1
2026-01-05 18:18:40.387664	179.1	47.6	-67.8	2.4
2026-01-05 18:18:42.620685	179.5	48.3	-67.4	2.3
2026-01-05 18:18:44.856693	179.9	49.0	-68.2	3.3
2026-01-05 18:18:47.087700	180.2	49.7	-68.2	0.8
2026-01-05 18:18:49.325211	180.7	50.5	-68.6	0.7
2026-01-05 18:18:51.558218	181.1	51.2	-68.8	0.3
2026-01-05 18:18:53.793730	181.5	52.0	-68.7	0.0
2026-01-05 18:18:56.023737	182.0	52.7	-69.1	0.0
2026-01-05 18:18:58.255247	182.5	53.5	-69.7	0.0
2026-01-05 18:19:00.488751	183.1	54.3	-69.5	0.0
2026-01-05 18:19:02.721765	183.6	55.1	-70.0	0.0
2026-01-05 18:19:04.956277	184.2	55.9	-70.1	0.0
2026-01-05 18:19:07.188789	184.8	56.7	-69.8	0.0
2026-01-05 18:19:09.420805	185.5	57.5	-70.3	0.0
2026-01-05 18:19:11.653820	186.2	58.3	-70.1	0.0
2026-01-05 18:19:13.884827	186.9	59.2	-70.3	0.0
2026-01-05 18:19:16.119338	187.7	60.0	-70.4	0.0
2026-01-05 18:19:18.350345	188.6	60.8	-70.4	0.0
2026-01-05 18:19:20.583361	189.5	61.7	-70.8	0.0
2026-01-05 18:19:22.814863	190.5	62.5	-70.4	0.0
2026-01-05 18:19:25.048366	191.5	63.4	-70.8	0.0
2026-01-05 18:19:27.278878	192.6	64.3	-71.3	0.0
2026-01-05 18:19:29.510380	193.8	65.1	-71.3	0.0
2026-01-05 18:19:31.741892	195.1	66.0	-71.4	0.0
2026-01-05 18:19:33.973907	196.5	66.8	-71.5	0.0
2026-01-05 18:19:36.205923	198.0	67.7	-71.3	0.0
2026-01-05 18:19:38.438452	199.7	68.5	-71.5	0.0
2026-01-05 18:19:40.675956	201.5	69.4	-71.0	0.0
2026-01-05 18:19:42.917981	203.5	70.2	-71.0	0.0
2026-01-05 18:19:45.160007	205.6	71.0	-71.2	0.0
2026-01-05 18:19:47.402531	208.0	71.8	-71.0	0.0
2026-01-05 18:19:49.645054	210.6	72.6	-70.5	0.0
2026-01-05 18:19:51.888567	213.4	73.3	-70.8	0.0
2026-01-05 18:19:54.132576	216.5	74.0	-70.4	0.0
2026-01-05 18:19:56.370088	219.8	74.6	-70.7	0.0
2026-01-05 18:19:58.604600	223.4	75.2	-70.4	0.0
2026-01-05 18:20:00.839607	227.4	75.7	-70.5	0.0
2026-01-05 18:20:03.074614	231.6	76.2	-70.1	0.0
2026-01-05 18:20:05.305630	236.1	76.6	-70.2	0.0
2026-01-05 18:20:07.540142	240.9	76.9	-70.0	0.0
2026-01-05 18:20:09.774149	245.8	77.1	-70.1	0.0
2026-01-05 18:20:12.010653	250.9	77.2	-69.5	0.0
2026-01-05 18:20:14.243660	256.1	77.3	-69.3	0.0
2026-01-05 18:20:16.476678	261.2	77.2	-69.0	0.0
2026-01-05 18:20:18.712685	266.2	77.0	-69.4	0.0
2026-01-05 18:20:20.949206	271.0	76.7	-68.7	0.0
2026-01-05 18:20:23.184222	275.7	76.4	-67.9	0.0
2026-01-05 18:20:25.418237	280.0	76.0	-68.1	0.0
2026-01-05 18:20:27.649748	284.1	75.4	-67.2	0.0
2026-01-05 18:20:29.883251	287.8	74.9	-68.0	0.0
2026-01-05 18:20:32.125279	291.3	74.2	-68.4	0.0
2026-01-05 18:20:34.356285	294.5	73.6	-68.4	0.0
2026-01-05 18:20:36.587293	297.4	72.9	-67.9	0.0
2026-01-05 18:20:38.821309	300.0	72.1	-68.8	0.0
2026-01-05 18:20:41.061814	302.5	71.4	-68.0	0.0
2026-01-05 18:20:43.297325	304.7	70.6	-68.3	0.0
2026-01-05 18:20:45.529837	306.7	69.7	-67.4	0.0
2026-01-05 18:20:47.763340	308.6	68.9	-67.7	0.0
2026-01-05 18:20:49.993346	310.3	68.1	-67.6	0.0
2026-01-05 18:20:52.232859	311.9	67.2	-67.3	0.0
2026-01-05 18:20:54.465370	313.4	66.4	-67.4	0.0
2026-01-05 18:20:56.695881	314.7	65.5	-67.5	0.0
2026-01-05 18:20:58.935386	315.9	64.7	-67.4	0.0
2026-01-05 18:21:01.178900	317.1	63.8	-66.1	0.0
2026-01-05 18:21:03.422910	318.2	62.9	-66.8	0.0
2026-01-05 18:21:05.666424	319.2	62.1	-66.8	0.0
2026-01-05 18:21:07.910433	320.1	61.2	-66.5	0.0
2026-01-05 18:21:10.154460	321.0	60.4	-66.5	0.0
2026-01-05 18:21:12.398477	321.8	59.5	-67.0	0.0
2026-01-05 18:21:14.634998	322.6	58.7	-67.1	0.0
2026-01-05 18:21:16.863500	323.3	57.9	-67.0	0.0
2026-01-05 18:21:19.097020	324.0	57.1	-67.1	0.0
2026-01-05 18:21:21.327026	324.6	56.3	-67.5	0.0
2026-01-05 18:21:23.561042	325.2	55.5	-67.7	0.0
2026-01-05 18:21:25.793544	325.8	54.7	-67.4	0.0
2026-01-05 18:21:28.032561	326.3	53.9	-67.7	0.0
2026-01-05 18:21:30.263063	326.9	53.1	-67.8	0.0
2026-01-05 18:21:32.492078	327.3	52.3	-67.7	0.0
2026-01-05 18:21:34.723589	327.8	51.6	-67.5	0.0
2026-01-05 18:21:36.954100	328.2	50.8	-67.8	0.0
2026-01-05 18:21:39.194621	328.7	50.1	-67.7	0.0
2026-01-05 18:21:41.426123	329.1	49.4	-67.9	0.0
2026-01-05 18:21:43.659627	329.4	48.7	-67.5	0.0
2026-01-05 18:21:45.893643	329.8	48.0	-67.4	0.0
2026-01-05 18:21:48.124658	330.2	47.3	-67.6	0.0
2026-01-05 18:21:50.359689	330.5	46.6	-67.4	0.0
2026-01-05 18:21:52.592207	330.8	45.9	-67.2	0.0
2026-01-05 18:21:54.823214	331.1	45.3	-66.8	0.0
2026-01-05 18:21:57.055725	331.4	44.6	-66.7	0.0
2026-01-05 18:21:59.288236	331.7	44.0	-66.0	0.0
2026-01-05 18:22:01.526243	332.0	43.3	-65.7	0.0
2026-01-05 18:22:03.759259	332.2	42.7	-65.6	0.0
2026-01-05 18:22:05.993771	332.5	42.1	-65.3	0.0
2026-01-05 18:22:08.225273	332.7	41.5	-64.7	0.0
2026-01-05 18:22:10.459297	333.0	40.9	-64.3	0.0
2026-01-05 18:22:12.695810	333.2	40.3	-64.4	0.0
2026-01-05 18:22:14.935817	333.4	39.7	-63.8	0.0
2026-01-05 18:22:17.179827	333.6	39.2	-63.4	0.0
2026-01-05 18:22:19.423341	333.8	38.6	-63.3	0.0
2026-01-05 18:22:21.666855	334.0	38.1	-63.1	0.0
2026-01-05 18:22:23.910377	334.2	37.5	-62.4	0.0
2026-01-05 18:22:26.149395	334.4	37.0	-62.4	0.0
2026-01-05 18:22:28.390404	334.6	36.5	-62.4	0.0
2026-01-05 18:22:30.630908	334.8	36.0	-62.1	0.0
2026-01-05 18:22:32.873431	335.0	35.4	-61.3	0.0
2026-01-05 18:22:35.106943	335.1	34.9	-61.2	0.0
2026-01-05 18:22:37.343456	335.3	34.4	-61.4	0.0
2026-01-05 18:22:39.575967	335.4	34.0	-61.0	0.0
2026-01-05 18:22:41.807478	335.6	33.5	-60.9	0.0
2026-01-05 18:22:44.040486	335.7	33.0	-60.6	0.0
2026-01-05 18:22:46.274997	335.9	32.6	-60.4	0.0
2026-01-05 18:22:48.510516	336.0	32.1	-60.4	0.0
2026-01-05 18:22:50.745019	336.2	31.6	-60.3	0.0
2026-01-05 18:22:52.980036	336.3	31.2	-60.2	0.0
2026-01-05 18:22:55.213549	336.4	30.8	-60.4	0.0
2026-01-05 18:22:57.448060	336.6	30.3	-60.2	0.0
2026-01-05 18:22:59.680563	336.7	29.9	-60.1	0.0
2026-01-05 18:23:01.915571	336.8	29.5	-60.2	0.0
2026-01-05 18:23:04.151074	336.9	29.1	-59.3	0.0
2026-01-05 18:23:06.384082	337.0	28.7	-59.8	0.0
2026-01-05 18:23:08.621607	337.1	28.3	-59.8	0.0
2026-01-05 18:23:10.858119	337.3	27.9	-60.2	0.0
2026-01-05 18:23:13.092631	337.4	27.5	-60.1	0.0
2026-01-05 18:23:15.323133	337.5	27.1	-60.2	0.0
2026-01-05 18:23:17.557646	337.6	26.7	-60.3	0.0
2026-01-05 18:23:19.792653	337.7	26.4	-60.3	0.0
2026-01-05 18:23:22.030157	337.8	26.0	-60.3	0.0
2026-01-05 18:23:24.264669	337.9	25.6	-60.4	0.0
2026-01-05 18:23:26.497683	338.0	25.3	-60.4	0.0
2026-01-05 18:23:28.730699	338.1	24.9	-60.8	0.0
2026-01-05 18:23:30.967715	338.1	24.6	-60.4	0.0
2026-01-05 18:23:33.204730	338.2	24.2	-60.8	0.0
2026-01-05 18:23:35.448244	338.3	23.9	-61.2	0.0
2026-01-05 18:23:37.687756	338.4	23.5	-61.3	0.0
2026-01-05 18:23:39.931765	338.5	23.2	-61.2	0.0
2026-01-05 18:23:42.175775	338.6	22.9	-61.3	0.0
2026-01-05 18:23:44.417802	338.7	22.6	-61.2	0.0
2026-01-05 18:23:46.659827	338.7	22.2	-61.6	0.0
2026-01-05 18:23:48.898339	338.8	21.9	-61.4	0.0
2026-01-05 18:23:51.134355	338.9	21.6	-61.8	0.0
2026-01-05 18:23:53.368368	339.0	21.3	-62.5	0.0
2026-01-05 18:23:55.601889	339.0	21.0	-62.5	0.0
2026-01-05 18:23:57.833391	339.1	20.7	-62.4	0.0
2026-01-05 18:24:00.066902	339.2	20.4	-62.4	0.0
2026-01-05 18:24:02.301405	339.3	20.1	-62.2	0.0
2026-01-05 18:24:04.533412	339.3	19.8	-62.1	0.0
2026-01-05 18:24:06.765923	339.4	19.5	-62.3	0.0
2026-01-05 18:24:09.002435	339.5	19.3	-62.8	0.0
2026-01-05 18:24:11.235443	339.5	19.0	-62.1	0.0
2026-01-05 18:24:13.469458	339.6	18.7	-62.4	0.0
2026-01-05 18:24:15.703970	339.7	18.4	-62.4	0.0
2026-01-05 18:24:17.936986	339.7	18.2	-62.4	0.0
2026-01-05 18:24:20.171489	339.8	17.9	-61.8	0.0
2026-01-05 18:24:22.400007	339.8	17.6	-61.9	0.0
2026-01-05 18:24:24.636015	339.9	17.4	-61.8	0.0
2026-01-05 18:24:26.870021	340.0	17.1	-61.7	0.0
2026-01-05 18:24:29.105029	340.0	16.8	-61.7	0.0
2026-01-05 18:24:31.336540	340.1	16.6	-61.1	0.0
2026-01-05 18:24:33.574044	340.1	16.3	-61.3	0.0
2026-01-05 18:24:35.810060	340.2	16.1	-61.3	0.0
2026-01-05 18:24:38.045580	340.2	15.8	-61.0	0.0
2026-01-05 18:24:40.282091	340.3	15.6	-60.3	0.0
2026-01-05 18:24:42.516595	340.4	15.4	-60.1	0.0
2026-01-05 18:24:44.747106	340.4	15.1	-59.9	0.0
2026-01-05 18:24:46.982618	340.5	14.9	-59.8	0.0
2026-01-05 18:24:49.226123	340.5	14.7	-59.7	0.0
2026-01-05 18:24:51.470141	340.6	14.4	-59.6	0.0
2026-01-05 18:24:53.712679	340.6	14.2	-59.2	0.0
2026-01-05 18:24:55.956688	340.7	14.0	-58.8	0.0
2026-01-05 18:24:58.199705	340.7	13.7	-58.7	0.0
2026-01-05 18:25:00.443715	340.8	13.5	-58.5	0.0
2026-01-05 18:25:02.688733	340.8	13.3	-58.0	0.0
2026-01-05 18:25:04.925740	340.9	13.1	-57.6	0.0
2026-01-05 18:25:07.159801	340.9	12.9	-57.9	0.0
2026-01-05 18:25:09.395353	341.0	12.6	-57.8	0.0
2026-01-05 18:25:11.630869	341.0	12.4	-57.4	0.0
2026-01-05 18:25:13.864376	341.0	12.2	-57.0	0.0
2026-01-05 18:25:16.099880	341.1	12.0	-57.3	0.0
2026-01-05 18:25:18.331895	341.1	11.8	-57.1	0.0
2026-01-05 18:25:20.565902	341.2	11.6	-56.7	0.0
2026-01-05 18:25:22.804416	341.2	11.4	-56.6	0.0
2026-01-05 18:25:25.037423	341.3	11.2	-56.8	0.0
2026-01-05 18:25:27.268439	341.3	11.0	-56.6	0.0
2026-01-05 18:25:29.501949	341.3	10.8	-56.0	0.0
2026-01-05 18:25:31.733965	341.4	10.6	-55.8	0.0
2026-01-05 18:25:33.965468	341.4	10.4	-55.9	0.0
2026-01-05 18:25:36.196475	341.5	10.2	-55.8	0.0
2026-01-05 18:25:38.426986	341.5	10.0	-55.6	0.0
2026-01-05 18:25:40.661489	341.6	9.8	-55.4	0.0
2026-01-05 18:25:42.894000	341.6	9.6	-55.0	0.0
2026-01-05 18:25:45.126503	341.6	9.4	-55.0	0.0
2026-01-05 18:25:47.357014	341.7	9.2	-55.0	0.0
2026-01-05 18:25:49.590029	341.7	9.0	-54.9	0.0
2026-01-05 18:25:51.823541	341.7	8.9	-54.9	0.0
2026-01-05 18:25:54.062054	341.8	8.7	-54.9	0.0
2026-01-05 18:25:56.293069	341.8	8.5	-54.3	0.0
2026-01-05 18:25:58.526572	341.9	8.3	-54.4	0.0
2026-01-05 18:26:00.761084	341.9	8.1	-54.1	0.0
2026-01-05 18:26:02.994587	341.9	8.0	-53.9	0.0
2026-01-05 18:26:05.225097	342.0	7.8	-53.8	0.0
2026-01-05 18:26:07.459104	342.0	7.6	-54.1	0.0
2026-01-05 18:26:09.689632	342.0	7.4	-53.9	0.0
2026-01-05 18:26:11.924135	342.1	7.3	-53.9	0.0
2026-01-05 18:26:14.157142	342.1	7.1	-53.9	0.0
2026-01-05 18:26:16.388149	342.1	6.9	-53.9	0.0
2026-01-05 18:26:18.621156	342.2	6.7	-53.6	0.0
2026-01-05 18:26:20.855173	342.2	6.6	-53.4	0.0
2026-01-05 18:26:23.090181	342.2	6.4	-53.6	0.0
2026-01-05 18:26:25.325188	342.3	6.2	-53.8	0.0
2026-01-05 18:26:27.556194	342.3	6.1	-53.5	0.0
2026-01-05 18:26:29.789202	342.3	5.9	-57.0	0.0
2026-01-05 18:26:32.024219	342.4	5.8	-59.0	0.0
2026-01-05 18:26:34.258235	342.4	5.6	-62.4	0.0
2026-01-05 18:26:36.491738	342.4	5.4	-67.3	0.0
2026-01-05 18:26:38.723744	342.5	5.3	-68.0	0.0
2026-01-05 18:26:40.956751	342.5	5.1	-69.9	0.0
#Closed at: 2026-01-05 18:13:43.034935