passes_logs/2026/01/05/PlanumMoscow/PlanumMoscow__20260105_064400_METOP-C_rec.log

#Pass ID: 20260105_064400_METOP-C
#Satellite: METOP-C
#Configuration: METOP-C
#Start time: 2026-01-05 06:44:05.320255

#LorettStation: 1.0.0 05.05.2024
#Station: PlanumMoscow
#Location: 37.6253844 lon 55.6713361 lat
#TLE: 1 43689U 18087A   25293.88981035  .00000265  00000+0  14109-3 0  9997
#TLE: 2 43689  98.7006 352.4487 0002041 122.1097 238.0279 14.21482740360838

#Time	Az	El	Level	SNR
2026-01-05 06:47:43.799512	49.0	23.5	-66.1	0.0
2026-01-05 06:47:46.029022	49.4	23.8	-65.9	0.0
2026-01-05 06:47:48.260544	49.9	24.0	-66.2	0.0
2026-01-05 06:47:50.493055	50.4	24.2	-66.6	0.0
2026-01-05 06:47:52.724062	50.8	24.5	-66.9	0.0
2026-01-05 06:47:54.958572	51.3	24.7	-65.3	0.0
2026-01-05 06:47:57.188579	51.8	24.9	-65.1	0.0
2026-01-05 06:47:59.418090	52.3	25.2	-65.2	0.0
2026-01-05 06:48:01.652106	52.8	25.4	-66.4	0.0
2026-01-05 06:48:03.883609	53.3	25.6	-64.8	0.0
2026-01-05 06:48:06.121125	53.8	25.9	-66.2	0.0
2026-01-05 06:48:08.351132	54.4	26.1	-65.2	0.0
2026-01-05 06:48:10.581642	54.9	26.3	-66.2	0.0
2026-01-05 06:48:12.813649	55.4	26.6	-66.7	0.0
2026-01-05 06:48:15.046657	56.0	26.8	-66.0	0.0
2026-01-05 06:48:17.278672	56.5	27.0	-65.4	0.0
2026-01-05 06:48:19.506190	57.1	27.3	-65.7	0.0
2026-01-05 06:48:21.738692	57.7	27.5	-66.8	0.0
2026-01-05 06:48:23.970195	58.2	27.7	-66.0	0.0
2026-01-05 06:48:26.203707	58.8	28.0	-65.8	0.0
2026-01-05 06:48:28.437210	59.4	28.2	-67.1	0.0
2026-01-05 06:48:30.670218	60.0	28.4	-66.0	0.0
2026-01-05 06:48:32.910739	60.6	28.6	-66.5	0.0
2026-01-05 06:48:35.153260	61.3	28.9	-64.4	0.0
2026-01-05 06:48:37.396774	61.9	29.1	-66.5	0.0
2026-01-05 06:48:39.640287	62.5	29.3	-66.4	0.0
2026-01-05 06:48:41.883802	63.2	29.5	-67.4	0.0
2026-01-05 06:48:44.127811	63.9	29.7	-65.4	0.0
2026-01-05 06:48:46.372317	64.5	29.9	-64.6	0.0
2026-01-05 06:48:48.607829	65.2	30.2	-65.6	0.0
2026-01-05 06:48:50.840341	65.9	30.4	-64.8	0.0
2026-01-05 06:48:53.073348	66.6	30.6	-65.5	0.0
2026-01-05 06:48:55.309868	67.3	30.8	-64.6	0.0
2026-01-05 06:48:57.540379	68.0	31.0	-64.7	0.0
2026-01-05 06:48:59.773386	68.7	31.2	-65.4	0.0
2026-01-05 06:49:02.006402	69.4	31.3	-64.6	0.0
2026-01-05 06:49:04.238913	70.1	31.5	-65.6	0.0
2026-01-05 06:49:06.477425	70.9	31.7	-65.2	0.0
2026-01-05 06:49:08.707935	71.6	31.9	-65.2	0.0
2026-01-05 06:49:10.938941	72.4	32.1	-63.1	0.0
2026-01-05 06:49:13.170957	73.2	32.2	-63.7	0.0
2026-01-05 06:49:15.402964	73.9	32.4	-62.6	0.0
2026-01-05 06:49:17.633981	74.7	32.6	-64.0	0.0
2026-01-05 06:49:19.863500	75.5	32.7	-63.0	0.0
2026-01-05 06:49:22.096002	76.3	32.9	-64.7	0.0
2026-01-05 06:49:24.326513	77.1	33.0	-63.9	0.0
2026-01-05 06:49:26.558016	77.9	33.1	-64.9	0.0
2026-01-05 06:49:28.790527	78.7	33.3	-65.6	0.0
2026-01-05 06:49:31.022038	79.5	33.4	-64.3	0.0
2026-01-05 06:49:33.252053	80.4	33.5	-63.7	0.0
2026-01-05 06:49:35.483574	81.2	33.6	-63.1	0.0
2026-01-05 06:49:37.715076	82.0	33.7	-63.4	0.0
2026-01-05 06:49:39.950589	82.9	33.8	-64.1	0.0
2026-01-05 06:49:42.181091	83.7	33.9	-64.3	0.0
2026-01-05 06:49:44.413603	84.6	34.0	-63.1	0.0
2026-01-05 06:49:46.645618	85.5	34.1	-62.6	0.0
2026-01-05 06:49:48.887132	86.3	34.2	-64.4	0.0
2026-01-05 06:49:51.132646	87.2	34.3	-65.2	0.0
2026-01-05 06:49:53.376664	88.1	34.3	-65.5	0.0
2026-01-05 06:49:55.620178	89.0	34.4	-65.6	0.0
2026-01-05 06:49:57.863701	89.8	34.4	-66.2	0.0
2026-01-05 06:50:00.107711	90.7	34.5	-66.1	0.0
2026-01-05 06:50:02.352225	91.6	34.5	-67.7	0.0
2026-01-05 06:50:04.595244	92.5	34.5	-64.7	0.0
2026-01-05 06:50:06.828756	93.4	34.5	-67.6	0.0
2026-01-05 06:50:09.064765	94.3	34.5	-66.9	0.0
2026-01-05 06:50:11.298267	95.2	34.5	-68.2	0.0
2026-01-05 06:50:13.531283	96.0	34.5	-65.7	0.0
2026-01-05 06:50:15.763299	96.9	34.5	-66.4	0.0
2026-01-05 06:50:17.994802	97.8	34.5	-68.1	0.0
2026-01-05 06:50:20.227313	98.7	34.5	-66.9	0.0
2026-01-05 06:50:22.461320	99.6	34.4	-65.4	0.0
2026-01-05 06:50:24.689822	100.5	34.4	-67.2	0.0
2026-01-05 06:50:26.922333	101.3	34.3	-67.6	0.0
2026-01-05 06:50:29.154341	102.2	34.3	-67.9	0.0
2026-01-05 06:50:31.382843	103.1	34.2	-68.6	0.0
2026-01-05 06:50:33.614858	104.0	34.1	-67.9	0.0
2026-01-05 06:50:35.846369	104.8	34.1	-68.9	0.0
2026-01-05 06:50:38.075871	105.7	34.0	-69.3	0.0
2026-01-05 06:50:40.308383	106.5	33.9	-68.0	0.0
2026-01-05 06:50:42.539398	107.4	33.8	-68.0	0.0
2026-01-05 06:50:44.768908	108.2	33.7	-69.1	0.0
2026-01-05 06:50:46.999435	109.1	33.6	-69.2	0.0
2026-01-05 06:50:49.230450	109.9	33.5	-68.8	0.0
2026-01-05 06:50:51.465962	110.7	33.3	-68.0	0.0
2026-01-05 06:50:53.695472	111.5	33.2	-68.9	0.0
2026-01-05 06:50:55.927479	112.4	33.1	-68.2	0.0
2026-01-05 06:50:58.157486	113.2	32.9	-69.5	0.0
2026-01-05 06:51:00.389500	114.0	32.8	-68.6	0.0
2026-01-05 06:51:02.624509	114.8	32.6	-69.5	0.0
2026-01-05 06:51:04.868518	115.6	32.5	-68.2	0.0
2026-01-05 06:51:07.109032	116.3	32.3	-68.8	0.0
2026-01-05 06:51:09.353042	117.1	32.1	-68.8	0.0
2026-01-05 06:51:11.596556	117.9	32.0	-69.3	0.0
2026-01-05 06:51:13.840566	118.6	31.8	-69.3	0.0
2026-01-05 06:51:16.084576	119.4	31.6	-69.0	0.0
2026-01-05 06:51:18.329098	120.1	31.4	-68.1	0.0
2026-01-05 06:51:20.558115	120.9	31.2	-68.3	0.0
2026-01-05 06:51:22.790121	121.6	31.0	-69.8	0.0
2026-01-05 06:51:25.021136	122.3	30.8	-69.1	0.0
2026-01-05 06:51:27.251165	123.0	30.6	-69.1	0.0
2026-01-05 06:51:29.482171	123.7	30.4	-69.5	0.0
2026-01-05 06:51:31.713187	124.4	30.2	-69.4	0.0
2026-01-05 06:51:33.944689	125.1	30.0	-68.9	0.0
2026-01-05 06:51:36.174192	125.7	29.8	-69.2	0.0
2026-01-05 06:51:38.403198	126.4	29.6	-68.3	0.0
2026-01-05 06:51:40.633709	127.0	29.4	-67.3	0.0
2026-01-05 06:51:42.863211	127.7	29.2	-66.5	0.0
2026-01-05 06:51:45.092713	128.3	28.9	-69.6	0.0
2026-01-05 06:51:47.323215	129.0	28.7	-69.3	0.0
2026-01-05 06:51:49.553718	129.6	28.5	-69.3	0.0
2026-01-05 06:51:51.785220	130.2	28.3	-70.0	0.0
2026-01-05 06:51:54.017236	130.8	28.0	-69.6	0.0
2026-01-05 06:51:56.250747	131.4	27.8	-69.8	0.0
2026-01-05 06:51:58.480753	132.0	27.6	-68.6	0.0
2026-01-05 06:52:00.713264	132.5	27.3	-69.6	0.0
2026-01-05 06:52:02.945775	133.1	27.1	-68.2	0.0
2026-01-05 06:52:05.180791	133.7	26.9	-68.6	0.0
2026-01-05 06:52:07.412302	134.2	26.6	-69.3	0.0
2026-01-05 06:52:09.642813	134.8	26.4	-69.0	0.0
2026-01-05 06:52:11.873325	135.3	26.2	-69.0	0.0
2026-01-05 06:52:14.103836	135.8	25.9	-69.4	0.0
2026-01-05 06:52:16.338347	136.4	25.7	-69.4	0.0
2026-01-05 06:52:18.573356	136.9	25.5	-68.6	0.0
2026-01-05 06:52:20.806363	137.4	25.2	-69.2	0.0
2026-01-05 06:52:23.039370	137.9	25.0	-69.0	0.0
2026-01-05 06:52:25.282396	138.4	24.8	-69.5	0.0
2026-01-05 06:52:27.524901	138.9	24.5	-68.3	0.0
2026-01-05 06:52:29.768415	139.3	24.3	-69.1	0.0
2026-01-05 06:52:32.005919	139.8	24.0	-69.5	0.2
2026-01-05 06:52:34.248434	140.3	23.8	-69.0	0.0
2026-01-05 06:52:36.492939	140.7	23.6	-68.4	0.0
2026-01-05 06:52:38.735958	141.2	23.3	-67.9	0.0
2026-01-05 06:52:40.972479	141.6	23.1	-68.6	0.2
2026-01-05 06:52:43.206999	142.1	22.9	-67.7	0.0
2026-01-05 06:52:45.437510	142.5	22.6	-67.9	0.3
2026-01-05 06:52:47.667526	142.9	22.4	-67.5	0.4
2026-01-05 06:52:49.899029	143.3	22.1	-68.0	1.0
2026-01-05 06:52:52.131045	143.8	21.9	-68.1	3.2
2026-01-05 06:52:54.361547	144.2	21.7	-67.9	3.2
2026-01-05 06:52:56.593058	144.6	21.4	-67.5	2.2
2026-01-05 06:52:58.823065	145.0	21.2	-67.3	1.2
2026-01-05 06:53:01.056576	145.3	21.0	-67.6	3.7
2026-01-05 06:53:03.290097	145.7	20.8	-67.0	1.4
2026-01-05 06:53:05.522609	146.1	20.5	-67.5	2.4
2026-01-05 06:53:07.757616	146.5	20.3	-67.1	2.9
2026-01-05 06:53:09.992136	146.8	20.1	-68.1	4.5
2026-01-05 06:53:12.225152	147.2	19.8	-67.6	3.4
2026-01-05 06:53:14.458655	147.6	19.6	-67.2	3.3
2026-01-05 06:53:16.691174	147.9	19.4	-67.5	4.1
2026-01-05 06:53:18.920676	148.3	19.2	-66.5	3.2
2026-01-05 06:53:21.153189	148.6	19.0	-68.0	4.4
2026-01-05 06:53:23.381691	148.9	18.7	-67.5	4.5
2026-01-05 06:53:25.615203	149.3	18.5	-67.8	5.6
2026-01-05 06:53:27.847706	149.6	18.3	-67.9	3.4
2026-01-05 06:53:30.082217	149.9	18.1	-67.6	4.2
2026-01-05 06:53:32.313720	150.2	17.9	-67.0	2.0
2026-01-05 06:53:34.544735	150.6	17.6	-66.7	1.0
2026-01-05 06:53:36.775750	150.9	17.4	-67.3	3.6
2026-01-05 06:53:39.007756	151.2	17.2	-66.4	3.9
2026-01-05 06:53:41.244791	151.5	17.0	-67.4	4.3
2026-01-05 06:53:43.475798	151.8	16.8	-67.5	5.1
2026-01-05 06:53:45.707805	152.1	16.6	-67.2	4.3
2026-01-05 06:53:47.949831	152.4	16.4	-67.1	4.9
2026-01-05 06:53:50.193345	152.6	16.2	-67.3	4.7
2026-01-05 06:53:52.435868	152.9	16.0	-67.1	5.6
2026-01-05 06:53:54.677894	153.2	15.7	-66.9	3.0
2026-01-05 06:53:56.922408	153.5	15.5	-67.4	5.2
2026-01-05 06:53:59.165427	153.8	15.3	-66.4	2.7
2026-01-05 06:54:01.406932	154.0	15.1	-67.0	3.8
2026-01-05 06:54:03.638956	154.3	14.9	-67.3	6.1
2026-01-05 06:54:05.873972	154.5	14.7	-67.4	5.8
2026-01-05 06:54:08.106482	154.8	14.5	-67.0	3.7
2026-01-05 06:54:10.339489	155.1	14.3	-66.8	5.0
2026-01-05 06:54:12.571000	155.3	14.1	-66.9	5.9
2026-01-05 06:54:14.803512	155.5	13.9	-67.2	5.6
2026-01-05 06:54:17.037519	155.8	13.7	-66.9	6.5
2026-01-05 06:54:19.269031	156.0	13.6	-66.2	5.5
2026-01-05 06:54:21.501038	156.3	13.4	-66.8	5.7
2026-01-05 06:54:23.734541	156.5	13.2	-66.6	5.8
2026-01-05 06:54:25.966054	156.7	13.0	-66.4	6.0
2026-01-05 06:54:28.200565	157.0	12.8	-65.7	4.6
2026-01-05 06:54:30.433581	157.2	12.6	-66.8	4.7
2026-01-05 06:54:32.666589	157.4	12.4	-66.7	5.6
2026-01-05 06:54:34.901606	157.6	12.2	-66.5	5.3
2026-01-05 06:54:37.133612	157.9	12.0	-66.9	5.8
2026-01-05 06:54:39.364115	158.1	11.9	-66.7	5.1
2026-01-05 06:54:41.599627	158.3	11.7	-66.8	5.4
2026-01-05 06:54:43.830138	158.5	11.5	-66.4	3.9
2026-01-05 06:54:46.064153	158.7	11.3	-66.7	5.6
2026-01-05 06:54:48.295665	158.9	11.1	-66.3	5.1
2026-01-05 06:54:50.528672	159.1	11.0	-66.7	5.1
2026-01-05 06:54:52.762176	159.3	10.8	-66.8	4.5
2026-01-05 06:54:54.994679	159.5	10.6	-66.9	4.8
2026-01-05 06:54:57.228189	159.7	10.4	-66.7	4.6
2026-01-05 06:54:59.462701	159.9	10.3	-66.4	4.0
2026-01-05 06:55:01.701214	160.1	10.1	-66.8	4.4
2026-01-05 06:55:03.944233	160.3	9.9	-66.6	3.8
2026-01-05 06:55:06.187252	160.5	9.7	-66.1	3.5
2026-01-05 06:55:08.431262	160.7	9.6	-66.0	3.7
2026-01-05 06:55:10.675271	160.8	9.4	-66.7	3.9
2026-01-05 06:55:12.919281	161.0	9.2	-66.5	4.3
2026-01-05 06:55:15.164291	161.2	9.0	-66.4	3.8
2026-01-05 06:55:17.401308	161.4	8.9	-66.4	3.8
2026-01-05 06:55:19.634819	161.6	8.7	-66.1	3.6
2026-01-05 06:55:21.865322	161.7	8.5	-66.2	2.3
2026-01-05 06:55:24.095833	161.9	8.4	-65.9	3.8
2026-01-05 06:55:26.325352	162.1	8.2	-66.6	3.9
2026-01-05 06:55:28.556863	162.2	8.1	-65.8	2.8
2026-01-05 06:55:30.788374	162.4	7.9	-65.9	3.0
2026-01-05 06:55:33.018380	162.6	7.7	-66.6	3.8
2026-01-05 06:55:35.247883	162.7	7.6	-66.6	3.2
2026-01-05 06:55:37.477889	162.9	7.4	-66.1	3.4
2026-01-05 06:55:39.711897	163.0	7.3	-65.8	2.4
2026-01-05 06:55:41.941928	163.2	7.1	-66.1	3.4
2026-01-05 06:55:44.175431	163.4	6.9	-66.3	2.2
2026-01-05 06:55:46.404933	163.5	6.8	-65.2	0.8
2026-01-05 06:55:48.645942	163.7	6.6	-65.1	0.0
2026-01-05 06:55:50.887951	163.8	6.5	-65.4	1.9
2026-01-05 06:55:53.125960	164.0	6.3	-65.6	2.4
2026-01-05 06:55:55.356462	164.1	6.2	-65.4	2.4
2026-01-05 06:55:57.588965	164.3	6.0	-65.5	4.2
2026-01-05 06:55:59.818971	164.4	5.9	-68.5	0.0
2026-01-05 06:56:02.053987	164.6	5.7	-69.3	0.0
2026-01-05 06:56:04.285994	164.7	5.6	-70.5	0.0
2026-01-05 06:56:06.512999	164.8	5.4	-71.3	0.0
2026-01-05 06:56:08.741501	165.0	5.3	-72.4	0.0
2026-01-05 06:56:10.971012	165.1	5.1	-72.5	0.0
2026-01-05 06:56:13.200514	165.2	5.0	-72.5	0.0
#Closed at: 2026-01-05 06:44:00.321387