passes_logs/2026/01/05/PlanumMoscow/PlanumMoscow__20260105_173501_METOP-B_rec.log

#Pass ID: 20260105_173501_METOP-B
#Satellite: METOP-B
#Configuration: METOP-B
#Start time: 2026-01-05 17:35:06.407381

#LorettStation: 1.0.0 05.05.2024
#Station: PlanumMoscow
#Location: 37.6253844 lon 55.6713361 lat
#TLE: 1 38771U 12049A   25293.92766658  .00000266  00000+0  14193-3 0  9996
#TLE: 2 38771  98.6882 344.7603 0001609 341.5209  18.5909 14.21379342679275

#Time	Az	El	Level	SNR
2026-01-05 17:38:44.941785	165.2	29.8	-63.0	8.7
2026-01-05 17:38:47.173799	165.2	30.2	-63.3	9.2
2026-01-05 17:38:49.407808	165.3	30.7	-63.2	8.5
2026-01-05 17:38:51.641824	165.3	31.1	-63.0	8.9
2026-01-05 17:38:53.879328	165.4	31.6	-63.4	8.8
2026-01-05 17:38:56.114353	165.4	32.0	-63.6	8.5
2026-01-05 17:38:58.348856	165.5	32.5	-63.6	9.2
2026-01-05 17:39:00.586863	165.5	33.0	-63.6	9.4
2026-01-05 17:39:02.820870	165.6	33.4	-63.9	9.2
2026-01-05 17:39:05.055887	165.6	33.9	-63.5	9.3
2026-01-05 17:39:07.292399	165.7	34.4	-63.6	8.8
2026-01-05 17:39:09.534913	165.7	34.9	-63.3	9.5
2026-01-05 17:39:11.771424	165.8	35.5	-63.0	9.2
2026-01-05 17:39:14.011442	165.9	36.0	-63.1	10.2
2026-01-05 17:39:16.245953	165.9	36.5	-63.5	9.8
2026-01-05 17:39:18.481465	166.0	37.0	-63.1	10.3
2026-01-05 17:39:20.720474	166.0	37.6	-63.3	10.4
2026-01-05 17:39:22.962483	166.1	38.1	-62.7	9.7
2026-01-05 17:39:25.204013	166.2	38.7	-63.3	10.3
2026-01-05 17:39:27.448023	166.3	39.3	-63.1	9.5
2026-01-05 17:39:29.691528	166.3	39.9	-63.7	9.7
2026-01-05 17:39:31.935041	166.4	40.5	-63.4	9.8
2026-01-05 17:39:34.183060	166.5	41.1	-63.5	9.7
2026-01-05 17:39:36.427078	166.6	41.7	-63.4	9.8
2026-01-05 17:39:38.669591	166.7	42.3	-63.7	9.9
2026-01-05 17:39:40.907607	166.7	43.0	-63.9	9.5
2026-01-05 17:39:43.143616	166.8	43.6	-64.1	9.1
2026-01-05 17:39:45.376632	166.9	44.3	-63.7	9.5
2026-01-05 17:39:47.612640	167.0	44.9	-63.7	10.1
2026-01-05 17:39:49.850656	167.1	45.6	-64.0	10.6
2026-01-05 17:39:52.084183	167.2	46.3	-63.8	10.9
2026-01-05 17:39:54.318208	167.3	47.0	-63.6	10.0
2026-01-05 17:39:56.554719	167.5	47.7	-63.5	10.8
2026-01-05 17:39:58.792223	167.6	48.5	-63.6	10.5
2026-01-05 17:40:01.030728	167.7	49.2	-63.6	11.5
2026-01-05 17:40:03.265735	167.8	50.0	-63.8	11.3
2026-01-05 17:40:05.500759	168.0	50.7	-64.0	10.9
2026-01-05 17:40:07.740279	168.1	51.5	-64.4	10.8
2026-01-05 17:40:09.975295	168.3	52.3	-64.2	10.6
2026-01-05 17:40:12.206807	168.4	53.1	-64.3	10.5
2026-01-05 17:40:14.442311	168.6	53.9	-63.9	10.4
2026-01-05 17:40:16.680823	168.8	54.7	-64.2	11.0
2026-01-05 17:40:18.916831	169.0	55.6	-64.0	11.2
2026-01-05 17:40:21.151342	169.2	56.4	-64.1	11.3
2026-01-05 17:40:23.387367	169.4	57.3	-64.3	11.1
2026-01-05 17:40:25.621374	169.6	58.2	-63.9	10.9
2026-01-05 17:40:27.858895	169.9	59.1	-64.1	11.2
2026-01-05 17:40:30.095911	170.1	60.0	-64.5	11.3
2026-01-05 17:40:32.330928	170.4	60.9	-64.4	11.0
2026-01-05 17:40:34.564439	170.7	61.9	-64.7	10.9
2026-01-05 17:40:36.799952	171.0	62.8	-65.0	10.1
2026-01-05 17:40:39.034463	171.4	63.8	-65.3	10.3
2026-01-05 17:40:41.272488	171.7	64.7	-65.5	10.1
2026-01-05 17:40:43.505503	172.2	65.7	-65.4	10.8
2026-01-05 17:40:45.750512	172.6	66.7	-65.6	10.8
2026-01-05 17:40:47.994531	173.1	67.7	-65.4	10.3
2026-01-05 17:40:50.241037	173.6	68.7	-65.5	9.9
2026-01-05 17:40:52.485551	174.2	69.8	-65.5	10.8
2026-01-05 17:40:54.729065	174.9	70.8	-65.3	11.7
2026-01-05 17:40:56.972084	175.7	71.8	-65.0	11.4
2026-01-05 17:40:59.215598	176.5	72.9	-64.9	11.7
2026-01-05 17:41:01.452110	177.5	73.9	-65.2	11.1
2026-01-05 17:41:03.688118	178.6	75.0	-65.8	10.9
2026-01-05 17:41:05.927631	179.8	76.1	-66.1	9.8
2026-01-05 17:41:08.170145	181.3	77.1	-66.5	9.7
2026-01-05 17:41:10.407153	183.1	78.2	-66.8	9.2
2026-01-05 17:41:12.646170	185.2	79.2	-66.8	8.6
2026-01-05 17:41:14.887187	187.8	80.3	-66.9	8.6
2026-01-05 17:41:17.124195	191.0	81.3	-66.9	8.7
2026-01-05 17:41:19.359213	195.1	82.3	-66.9	8.2
2026-01-05 17:41:21.594733	200.3	83.2	-67.5	7.0
2026-01-05 17:41:23.830244	207.1	84.1	-67.1	7.3
2026-01-05 17:41:26.069262	216.2	84.9	-66.8	8.5
2026-01-05 17:41:28.304773	228.0	85.5	-66.4	9.3
2026-01-05 17:41:30.542286	242.6	85.8	-66.0	9.4
2026-01-05 17:41:32.781791	258.6	85.9	-66.0	9.4
2026-01-05 17:41:35.017798	273.9	85.6	-65.7	9.2
2026-01-05 17:41:37.254310	286.6	85.1	-65.6	8.8
2026-01-05 17:41:39.492319	296.5	84.3	-65.4	9.0
2026-01-05 17:41:41.732840	303.9	83.5	-65.5	8.8
2026-01-05 17:41:43.965360	309.6	82.6	-65.7	8.2
2026-01-05 17:41:46.198870	313.9	81.6	-66.0	7.8
2026-01-05 17:41:48.432878	317.4	80.6	-65.7	8.3
2026-01-05 17:41:50.671902	320.1	79.6	-65.5	8.3
2026-01-05 17:41:52.907406	322.4	78.5	-65.5	7.8
2026-01-05 17:41:55.143926	324.2	77.5	-65.5	7.4
2026-01-05 17:41:57.381439	325.8	76.4	-65.2	7.7
2026-01-05 17:41:59.622952	327.2	75.3	-64.8	7.3
2026-01-05 17:42:01.859455	328.3	74.3	-64.9	6.0
2026-01-05 17:42:04.094959	329.3	73.2	-64.9	6.5
2026-01-05 17:42:06.326470	330.2	72.2	-64.6	6.8
2026-01-05 17:42:08.564478	331.0	71.1	-64.6	6.4
2026-01-05 17:42:10.802991	331.7	70.1	-64.7	5.8
2026-01-05 17:42:13.038999	332.3	69.1	-64.1	4.7
2026-01-05 17:42:15.277503	332.8	68.1	-64.2	5.9
2026-01-05 17:42:17.517512	333.3	67.1	-63.2	4.9
2026-01-05 17:42:19.764531	333.8	66.1	-64.8	5.0
2026-01-05 17:42:22.007548	334.2	65.1	-64.8	5.3
2026-01-05 17:42:24.251557	334.6	64.1	-64.7	4.8
2026-01-05 17:42:26.495071	335.0	63.1	-64.6	5.0
2026-01-05 17:42:28.739080	335.3	62.2	-64.8	4.6
2026-01-05 17:42:30.982098	335.6	61.3	-64.7	5.0
2026-01-05 17:42:33.227107	335.9	60.3	-64.3	5.9
2026-01-05 17:42:35.464620	336.2	59.4	-63.9	5.9
2026-01-05 17:42:37.703133	336.4	58.5	-63.8	6.3
2026-01-05 17:42:39.939149	336.7	57.6	-63.6	6.8
2026-01-05 17:42:42.179662	336.9	56.8	-63.7	7.6
2026-01-05 17:42:44.414174	337.1	55.9	-63.5	7.6
2026-01-05 17:42:46.652190	337.3	55.1	-63.6	7.9
2026-01-05 17:42:48.887694	337.5	54.2	-63.9	7.9
2026-01-05 17:42:51.122206	337.6	53.4	-64.2	7.4
2026-01-05 17:42:53.355719	337.8	52.6	-64.1	7.2
2026-01-05 17:42:55.589238	337.9	51.8	-64.3	6.8
2026-01-05 17:42:57.821758	338.1	51.0	-64.6	6.9
2026-01-05 17:43:00.055261	338.2	50.3	-64.7	7.7
2026-01-05 17:43:02.290765	338.4	49.5	-64.2	7.8
2026-01-05 17:43:04.522780	338.5	48.8	-64.0	8.2
2026-01-05 17:43:06.755283	338.6	48.0	-64.1	8.3
2026-01-05 17:43:08.988786	338.7	47.3	-63.5	7.8
2026-01-05 17:43:11.223297	338.9	46.6	-63.4	8.1
2026-01-05 17:43:13.462817	339.0	45.9	-63.3	8.4
2026-01-05 17:43:15.699329	339.1	45.2	-63.3	7.9
2026-01-05 17:43:17.935337	339.2	44.6	-63.1	7.9
2026-01-05 17:43:20.169848	339.3	43.9	-63.1	7.2
2026-01-05 17:43:22.403885	339.4	43.3	-62.8	6.7
2026-01-05 17:43:24.639902	339.4	42.6	-62.9	5.9
2026-01-05 17:43:26.875406	339.5	42.0	-62.8	6.1
2026-01-05 17:43:29.109917	339.6	41.4	-62.3	6.0
2026-01-05 17:43:31.341428	339.7	40.8	-61.9	5.5
2026-01-05 17:43:33.573939	339.8	40.2	-61.7	5.7
2026-01-05 17:43:35.807450	339.8	39.6	-61.1	5.0
2026-01-05 17:43:38.044466	339.9	39.0	-61.1	4.9
2026-01-05 17:43:40.285987	340.0	38.5	-61.1	4.8
2026-01-05 17:43:42.530008	340.1	37.9	-60.7	5.2
2026-01-05 17:43:44.774025	340.1	37.3	-60.4	4.7
2026-01-05 17:43:47.018033	340.2	36.8	-60.6	3.6
2026-01-05 17:43:49.260547	340.3	36.3	-60.6	3.1
2026-01-05 17:43:51.503575	340.3	35.7	-60.3	3.0
2026-01-05 17:43:53.746600	340.4	35.2	-60.2	2.1
2026-01-05 17:43:55.982609	340.4	34.7	-60.3	2.2
2026-01-05 17:43:58.216119	340.5	34.2	-60.3	1.1
2026-01-05 17:44:00.450126	340.5	33.7	-60.0	1.5
2026-01-05 17:44:02.684638	340.6	33.3	-59.8	0.6
2026-01-05 17:44:04.920141	340.7	32.8	-59.8	0.9
2026-01-05 17:44:07.154661	340.7	32.3	-59.8	1.7
2026-01-05 17:44:09.386172	340.8	31.9	-59.6	0.4
2026-01-05 17:44:11.623684	340.8	31.4	-59.5	1.3
2026-01-05 17:44:13.860204	340.9	31.0	-59.3	1.2
2026-01-05 17:44:16.097708	340.9	30.5	-59.1	0.6
2026-01-05 17:44:18.331219	340.9	30.1	-59.5	0.6
2026-01-05 17:44:20.567723	341.0	29.7	-59.3	0.0
2026-01-05 17:44:22.804226	341.0	29.2	-59.3	0.0
2026-01-05 17:44:25.042731	341.1	28.8	-59.7	0.0
2026-01-05 17:44:27.278739	341.1	28.4	-59.3	0.7
2026-01-05 17:44:29.513745	341.2	28.0	-59.2	0.0
2026-01-05 17:44:31.752258	341.2	27.6	-59.4	0.0
2026-01-05 17:44:33.990275	341.2	27.2	-59.2	0.0
2026-01-05 17:44:36.229291	341.3	26.8	-59.3	0.0
2026-01-05 17:44:38.464803	341.3	26.5	-59.5	0.0
2026-01-05 17:44:40.701811	341.4	26.1	-59.7	0.0
2026-01-05 17:44:42.937828	341.4	25.7	-59.5	0.0
2026-01-05 17:44:45.171835	341.4	25.4	-59.7	0.0
2026-01-05 17:44:47.403843	341.5	25.0	-59.9	0.0
2026-01-05 17:44:49.637850	341.5	24.7	-60.2	0.0
2026-01-05 17:44:51.870857	341.5	24.3	-59.9	0.0
2026-01-05 17:44:54.104864	341.6	24.0	-60.3	0.0
2026-01-05 17:44:56.344377	341.6	23.6	-60.8	0.0
2026-01-05 17:44:58.588387	341.6	23.3	-60.9	0.2
2026-01-05 17:45:00.832398	341.7	23.0	-60.6	0.9
2026-01-05 17:45:03.075920	341.7	22.6	-60.8	1.7
2026-01-05 17:45:05.318928	341.7	22.3	-61.1	1.8
2026-01-05 17:45:07.563947	341.8	22.0	-61.4	1.0
2026-01-05 17:45:09.807957	341.8	21.7	-61.7	0.2
2026-01-05 17:45:12.051966	341.8	21.4	-61.4	0.6
2026-01-05 17:45:14.284469	341.8	21.0	-61.4	1.6
2026-01-05 17:45:16.519982	341.9	20.7	-61.9	1.3
2026-01-05 17:45:18.754997	341.9	20.4	-62.2	1.9
2026-01-05 17:45:20.992501	341.9	20.1	-62.0	2.5
2026-01-05 17:45:23.227004	342.0	19.9	-62.2	2.4
2026-01-05 17:45:25.460011	342.0	19.6	-62.6	2.6
2026-01-05 17:45:27.696019	342.0	19.3	-62.4	0.8
2026-01-05 17:45:29.935027	342.0	19.0	-62.6	2.0
2026-01-05 17:45:32.173035	342.1	18.7	-62.2	1.6
2026-01-05 17:45:34.409539	342.1	18.4	-62.4	1.6
2026-01-05 17:45:36.642545	342.1	18.2	-62.5	0.9
2026-01-05 17:45:38.879554	342.2	17.9	-62.5	1.9
2026-01-05 17:45:41.118066	342.2	17.6	-62.3	0.1
2026-01-05 17:45:43.356580	342.2	17.4	-62.0	0.6
2026-01-05 17:45:45.589082	342.2	17.1	-62.1	0.0
2026-01-05 17:45:47.826091	342.3	16.8	-62.0	0.7
2026-01-05 17:45:50.068100	342.3	16.6	-61.5	0.0
2026-01-05 17:45:52.301116	342.3	16.3	-60.7	0.0
2026-01-05 17:45:54.534627	342.3	16.1	-60.9	0.0
2026-01-05 17:45:56.769634	342.3	15.8	-60.8	0.0
2026-01-05 17:45:59.003146	342.4	15.6	-60.9	0.0
2026-01-05 17:46:01.235649	342.4	15.4	-60.4	0.0
2026-01-05 17:46:03.468656	342.4	15.1	-60.5	0.0
2026-01-05 17:46:05.700167	342.4	14.9	-60.6	0.0
2026-01-05 17:46:07.934174	342.5	14.6	-60.4	0.0
2026-01-05 17:46:10.170203	342.5	14.4	-60.2	0.0
2026-01-05 17:46:12.404210	342.5	14.2	-59.5	0.0
2026-01-05 17:46:14.648219	342.5	13.9	-59.5	0.0
2026-01-05 17:46:16.889741	342.5	13.7	-59.2	0.0
2026-01-05 17:46:19.134255	342.6	13.5	-59.0	0.0
2026-01-05 17:46:21.378264	342.6	13.3	-59.1	0.0
2026-01-05 17:46:23.622274	342.6	13.0	-59.1	0.0
2026-01-05 17:46:25.866292	342.6	12.8	-58.5	0.0
2026-01-05 17:46:28.110301	342.7	12.6	-58.0	0.0
2026-01-05 17:46:30.344804	342.7	12.4	-57.7	0.0
2026-01-05 17:46:32.580316	342.7	12.2	-57.4	0.0
2026-01-05 17:46:34.819325	342.7	12.0	-57.5	0.0
2026-01-05 17:46:37.053341	342.7	11.8	-57.5	0.0
2026-01-05 17:46:39.287853	342.8	11.6	-57.3	0.0
2026-01-05 17:46:41.521356	342.8	11.3	-56.5	0.0
2026-01-05 17:46:43.757867	342.8	11.1	-56.9	0.0
2026-01-05 17:46:45.993388	342.8	10.9	-57.1	0.0
2026-01-05 17:46:48.226396	342.8	10.7	-56.8	0.0
2026-01-05 17:46:50.464413	342.9	10.5	-56.4	0.0
2026-01-05 17:46:52.698929	342.9	10.3	-56.3	0.0
2026-01-05 17:46:54.936437	342.9	10.1	-56.6	0.0
2026-01-05 17:46:57.171950	342.9	10.0	-56.4	0.0
2026-01-05 17:46:59.404957	342.9	9.8	-55.9	0.0
2026-01-05 17:47:01.645479	342.9	9.6	-55.9	0.0
2026-01-05 17:47:03.876493	343.0	9.4	-55.7	0.0
2026-01-05 17:47:06.111510	343.0	9.2	-55.8	0.0
2026-01-05 17:47:08.344517	343.0	9.0	-55.5	0.0
2026-01-05 17:47:10.578030	343.0	8.8	-55.2	0.0
2026-01-05 17:47:12.816542	343.0	8.6	-55.0	0.0
2026-01-05 17:47:15.052054	343.1	8.5	-55.2	0.0
2026-01-05 17:47:17.288567	343.1	8.3	-54.9	0.0
2026-01-05 17:47:19.522582	343.1	8.1	-54.8	0.0
2026-01-05 17:47:21.761591	343.1	7.9	-55.2	0.0
2026-01-05 17:47:23.996111	343.1	7.7	-55.0	0.0
2026-01-05 17:47:26.233118	343.1	7.6	-54.5	0.0
2026-01-05 17:47:28.471135	343.2	7.4	-54.5	0.0
2026-01-05 17:47:30.709152	343.2	7.2	-54.0	0.0
2026-01-05 17:47:32.946672	343.2	7.0	-53.8	0.0
2026-01-05 17:47:35.182176	343.2	6.9	-54.1	0.0
2026-01-05 17:47:37.418680	343.2	6.7	-54.2	0.0
2026-01-05 17:47:39.653696	343.2	6.5	-54.0	0.0
2026-01-05 17:47:41.899202	343.3	6.4	-53.7	0.0
2026-01-05 17:47:44.143218	343.3	6.2	-53.9	0.0
2026-01-05 17:47:46.385741	343.3	6.0	-54.0	0.0
2026-01-05 17:47:48.628759	343.3	5.9	-60.0	0.0
2026-01-05 17:47:50.869769	343.3	5.7	-60.7	0.0
2026-01-05 17:47:53.114274	343.3	5.5	-68.3	0.0
2026-01-05 17:47:55.359292	343.4	5.4	-67.5	0.0
2026-01-05 17:47:57.602814	343.4	5.2	-68.7	0.0
2026-01-05 17:47:59.844327	343.4	5.0	-70.4	0.0
#Closed at: 2026-01-05 17:35:01.411441