passes_logs/2026/01/26/planumMaritime01/planumMaritime01__20260126_184431_METOP-B_rec.log

#Pass ID: 20260126_184431_METOP-B
#Satellite: METOP-B
#Configuration: METOP-B
#Start time: 2026-01-26 18:44:36.919911

#LorettStation: 1.0.0 05.05.2024
#Station: planumMaritime01
#Location: 37.49445 lon 55.92918 lat
#TLE: 1 38771U 12049A   26026.42154174  .00000197  00000+0  10998-3 0  9992
#TLE: 2 38771  98.6731  80.6089 0002944  53.2610 306.8837 14.21428899693123

#Time	Az	El	Level	SNR
2026-01-26 18:44:39.088737	206.2	10.2	-78.8	0.0
2026-01-26 18:44:41.340503	206.4	10.3	-77.4	0.0
2026-01-26 18:44:43.593571	206.6	10.5	-74.0	0.0
2026-01-26 18:44:45.845697	206.9	10.7	-72.1	0.0
2026-01-26 18:44:48.098481	207.1	10.8	-69.8	0.0
2026-01-26 18:44:50.349511	207.3	11.0	-69.1	0.0
2026-01-26 18:44:52.601429	207.6	11.2	-68.9	0.0
2026-01-26 18:44:54.856045	207.8	11.4	-69.1	0.0
2026-01-26 18:44:57.108994	208.0	11.5	-68.9	0.0
2026-01-26 18:44:59.361703	208.3	11.7	-68.7	0.0
2026-01-26 18:45:01.616069	208.5	11.9	-68.6	0.0
2026-01-26 18:45:03.869066	208.8	12.1	-68.6	0.0
2026-01-26 18:45:06.119514	209.0	12.2	-68.6	0.0
2026-01-26 18:45:08.370770	209.3	12.4	-68.3	0.0
2026-01-26 18:45:10.623527	209.5	12.6	-68.5	0.0
2026-01-26 18:45:12.875444	209.8	12.8	-69.0	0.0
2026-01-26 18:45:15.128434	210.1	13.0	-69.5	0.0
2026-01-26 18:45:17.379678	210.3	13.1	-69.4	0.0
2026-01-26 18:45:19.631392	210.6	13.3	-69.5	0.0
2026-01-26 18:45:21.881462	210.9	13.5	-68.8	0.0
2026-01-26 18:45:24.133275	211.1	13.7	-70.2	0.0
2026-01-26 18:45:26.383547	211.4	13.9	-68.8	0.0
2026-01-26 18:45:28.636252	211.7	14.1	-69.7	0.0
2026-01-26 18:45:30.889666	212.0	14.2	-70.9	0.0
2026-01-26 18:45:33.142852	212.3	14.4	-70.1	0.0
2026-01-26 18:45:35.396709	212.6	14.6	-70.5	0.0
2026-01-26 18:45:37.648472	212.9	14.8	-70.3	0.0
2026-01-26 18:45:39.904228	213.2	15.0	-70.3	0.0
2026-01-26 18:45:42.159529	213.5	15.2	-71.4	0.0
2026-01-26 18:45:44.412054	213.8	15.4	-70.6	0.0
2026-01-26 18:45:46.663814	214.1	15.6	-70.8	0.0
2026-01-26 18:45:48.917789	214.4	15.8	-70.2	0.0
2026-01-26 18:45:51.169184	214.7	15.9	-70.7	0.0
2026-01-26 18:45:53.423169	215.1	16.1	-71.0	0.0
2026-01-26 18:45:55.677134	215.4	16.3	-71.1	0.0
2026-01-26 18:45:57.931748	215.7	16.5	-71.3	0.0
2026-01-26 18:46:00.185099	216.1	16.7	-71.9	1.0
2026-01-26 18:46:02.439288	216.4	16.9	-71.2	0.0
2026-01-26 18:46:04.693168	216.7	17.1	-71.4	0.0
2026-01-26 18:46:06.949197	217.1	17.3	-71.5	1.5
2026-01-26 18:46:09.204183	217.5	17.5	-71.8	1.5
2026-01-26 18:46:11.458696	217.8	17.7	-71.7	1.8
2026-01-26 18:46:13.711029	218.2	17.9	-71.7	3.2
2026-01-26 18:46:15.964442	218.5	18.1	-71.3	2.0
2026-01-26 18:46:18.216780	218.9	18.3	-71.8	3.0
2026-01-26 18:46:20.468821	219.3	18.5	-72.1	3.6
2026-01-26 18:46:22.725802	219.7	18.7	-71.3	4.7
2026-01-26 18:46:24.981795	220.1	18.9	-71.7	4.8
2026-01-26 18:46:27.235670	220.5	19.1	-71.7	4.0
2026-01-26 18:46:29.486692	220.9	19.3	-72.3	4.7
2026-01-26 18:46:31.739941	221.3	19.5	-72.8	6.3
2026-01-26 18:46:33.992321	221.7	19.7	-72.7	5.8
2026-01-26 18:46:36.243858	222.1	19.9	-72.9	6.4
2026-01-26 18:46:38.498356	222.5	20.1	-73.0	5.9
2026-01-26 18:46:40.750483	222.9	20.3	-72.8	5.2
2026-01-26 18:46:43.004861	223.4	20.5	-73.2	7.5
2026-01-26 18:46:45.255767	223.8	20.7	-73.1	6.7
2026-01-26 18:46:47.504637	224.2	20.9	-73.5	7.5
2026-01-26 18:46:49.755057	224.7	21.1	-73.2	7.7
2026-01-26 18:46:52.009507	225.1	21.3	-73.4	8.3
2026-01-26 18:46:54.263959	225.6	21.5	-72.9	6.6
2026-01-26 18:46:56.517287	226.1	21.8	-73.8	8.9
2026-01-26 18:46:58.771248	226.5	22.0	-73.3	8.1
2026-01-26 18:47:01.022504	227.0	22.2	-73.8	8.4
2026-01-26 18:47:03.278677	227.5	22.4	-73.7	8.6
2026-01-26 18:47:05.531477	228.0	22.6	-73.8	8.2
2026-01-26 18:47:07.784997	228.5	22.8	-73.5	7.8
2026-01-26 18:47:10.037700	229.0	23.0	-73.5	8.1
2026-01-26 18:47:12.288478	229.5	23.2	-73.4	8.5
2026-01-26 18:47:14.543196	230.0	23.4	-73.6	8.4
2026-01-26 18:47:16.794268	230.5	23.6	-73.6	8.8
2026-01-26 18:47:19.046882	231.0	23.7	-73.0	8.6
2026-01-26 18:47:21.300206	231.6	23.9	-73.0	8.5
2026-01-26 18:47:23.551635	232.1	24.1	-73.4	7.9
2026-01-26 18:47:25.810496	232.7	24.3	-73.3	8.2
2026-01-26 18:47:28.060843	233.2	24.5	-72.6	7.9
2026-01-26 18:47:30.315356	233.8	24.7	-73.1	7.1
2026-01-26 18:47:32.569809	234.3	24.9	-73.0	6.9
2026-01-26 18:47:34.824938	234.9	25.1	-72.7	7.3
2026-01-26 18:47:37.076417	235.5	25.3	-73.0	8.1
2026-01-26 18:47:39.331502	236.1	25.5	-73.0	8.3
2026-01-26 18:47:41.583585	236.7	25.6	-72.8	8.2
2026-01-26 18:47:43.838828	237.3	25.8	-72.9	8.8
2026-01-26 18:47:46.090620	237.9	26.0	-72.2	8.7
2026-01-26 18:47:48.344383	238.5	26.2	-72.7	9.0
2026-01-26 18:47:50.598467	239.1	26.4	-72.7	9.1
2026-01-26 18:47:52.848574	239.7	26.5	-72.6	8.6
2026-01-26 18:47:55.099420	240.4	26.7	-72.7	8.2
2026-01-26 18:47:57.350396	241.0	26.9	-72.4	8.7
2026-01-26 18:47:59.600613	241.7	27.0	-72.8	8.5
2026-01-26 18:48:01.851137	242.3	27.2	-72.8	9.1
2026-01-26 18:48:04.107128	243.0	27.3	-72.8	9.1
2026-01-26 18:48:06.359645	243.6	27.5	-72.8	9.5
2026-01-26 18:48:08.612268	244.3	27.6	-72.5	9.0
2026-01-26 18:48:10.865494	245.0	27.8	-72.3	7.5
2026-01-26 18:48:13.116878	245.7	27.9	-72.8	8.2
2026-01-26 18:48:15.374133	246.4	28.1	-72.7	7.6
2026-01-26 18:48:17.626397	247.1	28.2	-73.1	7.8
2026-01-26 18:48:19.877267	247.8	28.3	-73.0	7.9
2026-01-26 18:48:22.128188	248.5	28.5	-73.0	7.9
2026-01-26 18:48:24.380656	249.2	28.6	-73.0	6.8
2026-01-26 18:48:26.634558	249.9	28.7	-73.0	8.0
2026-01-26 18:48:28.886913	250.6	28.8	-73.0	8.7
2026-01-26 18:48:31.139023	251.3	28.9	-72.7	6.7
2026-01-26 18:48:33.391392	252.1	29.0	-72.7	7.9
2026-01-26 18:48:35.642440	252.8	29.1	-72.4	7.0
2026-01-26 18:48:37.894979	253.6	29.2	-72.2	7.6
2026-01-26 18:48:40.148199	254.3	29.3	-72.2	8.5
2026-01-26 18:48:42.398973	255.1	29.4	-71.5	6.7
2026-01-26 18:48:44.648272	255.8	29.5	-71.2	6.9
2026-01-26 18:48:46.899455	256.6	29.6	-71.9	7.2
2026-01-26 18:48:49.151254	257.3	29.7	-71.9	7.5
2026-01-26 18:48:51.404003	258.1	29.7	-71.8	6.7
2026-01-26 18:48:53.659031	258.9	29.8	-71.4	7.2
2026-01-26 18:48:55.909663	259.6	29.8	-71.6	7.4
2026-01-26 18:48:58.160262	260.4	29.9	-72.0	7.0
2026-01-26 18:49:00.412243	261.2	29.9	-71.5	6.0
2026-01-26 18:49:02.664205	261.9	30.0	-72.3	8.3
2026-01-26 18:49:04.917843	262.7	30.0	-70.5	4.2
2026-01-26 18:49:07.171511	263.5	30.0	-71.0	6.4
2026-01-26 18:49:09.426520	264.3	30.1	-71.3	6.3
2026-01-26 18:49:11.679397	265.1	30.1	-71.1	6.6
2026-01-26 18:49:13.933411	265.9	30.1	-70.9	7.5
2026-01-26 18:49:16.187974	266.6	30.1	-71.2	6.8
2026-01-26 18:49:18.440677	267.4	30.1	-71.4	6.1
2026-01-26 18:49:20.692592	268.2	30.1	-71.7	6.6
2026-01-26 18:49:22.946467	269.0	30.1	-71.6	6.7
2026-01-26 18:49:25.198213	269.8	30.1	-69.7	2.3
2026-01-26 18:49:27.449314	270.5	30.0	-71.4	5.4
2026-01-26 18:49:29.701593	271.3	30.0	-69.3	0.0
2026-01-26 18:49:31.954986	272.1	30.0	-69.6	2.0
2026-01-26 18:49:34.207399	272.9	29.9	-71.9	5.8
2026-01-26 18:49:36.460059	273.7	29.9	-70.9	3.1
2026-01-26 18:49:38.715132	274.4	29.8	-70.5	4.6
2026-01-26 18:49:40.966935	275.2	29.8	-68.2	0.0
2026-01-26 18:49:43.219825	276.0	29.7	-71.0	3.5
2026-01-26 18:49:45.474161	276.7	29.7	-71.1	3.9
2026-01-26 18:49:47.729666	277.5	29.6	-71.0	4.8
2026-01-26 18:49:49.981170	278.2	29.5	-70.2	2.3
2026-01-26 18:49:52.233948	279.0	29.4	-70.9	1.3
2026-01-26 18:49:54.485088	279.7	29.3	-69.1	1.1
2026-01-26 18:49:56.740464	280.5	29.2	-69.7	0.0
2026-01-26 18:49:58.994804	281.2	29.1	-69.8	1.3
2026-01-26 18:50:01.248218	282.0	29.0	-70.3	2.4
2026-01-26 18:50:03.500909	282.7	28.9	-68.3	2.1
2026-01-26 18:50:05.752236	283.4	28.8	-68.5	0.0
2026-01-26 18:50:08.005503	284.1	28.7	-68.5	1.7
2026-01-26 18:50:10.256249	284.9	28.6	-69.2	3.4
2026-01-26 18:50:12.508156	285.6	28.5	-67.5	0.0
2026-01-26 18:50:14.760025	286.3	28.3	-68.3	0.0
2026-01-26 18:50:17.010406	287.0	28.2	-68.4	0.0
2026-01-26 18:50:19.263253	287.7	28.1	-69.4	3.6
2026-01-26 18:50:21.516108	288.3	27.9	-69.1	2.2
2026-01-26 18:50:23.768094	289.0	27.8	-68.1	0.0
2026-01-26 18:50:26.022506	289.7	27.6	-69.1	2.9
2026-01-26 18:50:28.277542	290.4	27.5	-68.7	1.6
2026-01-26 18:50:30.528204	291.0	27.3	-68.3	1.6
2026-01-26 18:50:32.779455	291.7	27.2	-70.6	3.4
2026-01-26 18:50:35.030422	292.3	27.0	-66.9	0.0
2026-01-26 18:50:37.282314	293.0	26.9	-69.5	0.0
2026-01-26 18:50:39.535648	293.6	26.7	-68.9	0.0
2026-01-26 18:50:41.788897	294.2	26.5	-68.6	0.0
2026-01-26 18:50:44.041377	294.9	26.4	-67.1	0.0
2026-01-26 18:50:46.295023	295.5	26.2	-67.6	0.0
2026-01-26 18:50:48.549153	296.1	26.0	-69.4	0.0
2026-01-26 18:50:50.802871	296.7	25.8	-70.3	0.0
2026-01-26 18:50:53.054776	297.3	25.7	-68.7	0.0
2026-01-26 18:50:55.308870	297.9	25.5	-68.8	0.0
2026-01-26 18:50:57.559284	298.5	25.3	-68.4	0.0
2026-01-26 18:50:59.811261	299.1	25.1	-68.1	0.0
2026-01-26 18:51:02.065912	299.6	24.9	-66.9	0.0
2026-01-26 18:51:04.318715	300.2	24.7	-68.1	0.0
2026-01-26 18:51:06.572303	300.7	24.5	-67.0	0.0
2026-01-26 18:51:08.825421	301.3	24.4	-67.4	0.0
2026-01-26 18:51:11.079581	301.8	24.2	-67.9	0.0
2026-01-26 18:51:13.334015	302.4	24.0	-66.2	0.0
2026-01-26 18:51:15.585805	302.9	23.8	-68.5	0.0
2026-01-26 18:51:17.840650	303.4	23.6	-65.9	0.0
2026-01-26 18:51:20.097203	304.0	23.4	-66.2	0.0
2026-01-26 18:51:22.352430	304.5	23.2	-69.5	0.0
2026-01-26 18:51:24.608419	305.0	23.0	-67.5	0.0
2026-01-26 18:51:26.861115	305.5	22.8	-68.9	0.0
2026-01-26 18:51:29.116641	306.0	22.6	-69.4	0.0
2026-01-26 18:51:31.371543	306.4	22.4	-69.0	0.0
2026-01-26 18:51:33.625710	306.9	22.2	-66.6	0.0
2026-01-26 18:51:35.878529	307.4	22.0	-67.2	0.0
2026-01-26 18:51:38.135597	307.9	21.8	-66.5	0.0
2026-01-26 18:51:40.391350	308.3	21.6	-69.5	0.0
2026-01-26 18:51:42.643031	308.8	21.4	-67.7	0.0
2026-01-26 18:51:44.896906	309.2	21.2	-66.1	0.0
2026-01-26 18:51:47.148508	309.7	21.0	-66.2	0.0
2026-01-26 18:51:49.403607	310.1	20.8	-66.5	0.0
2026-01-26 18:51:51.657261	310.6	20.6	-64.8	0.0
2026-01-26 18:51:53.911207	311.0	20.4	-68.1	0.0
2026-01-26 18:51:56.165801	311.4	20.2	-65.1	0.0
2026-01-26 18:51:58.419979	311.8	20.0	-68.7	0.0
2026-01-26 18:52:00.670143	312.2	19.8	-65.0	0.0
2026-01-26 18:52:02.926435	312.7	19.6	-65.8	0.0
2026-01-26 18:52:05.180447	313.1	19.4	-63.8	0.0
2026-01-26 18:52:07.433637	313.5	19.2	-66.7	0.0
2026-01-26 18:52:09.685791	313.8	19.0	-66.2	0.0
2026-01-26 18:52:11.938562	314.2	18.8	-67.7	0.0
2026-01-26 18:52:14.193039	314.6	18.6	-66.1	0.0
2026-01-26 18:52:16.443334	315.0	18.4	-62.8	0.0
2026-01-26 18:52:18.696128	315.4	18.2	-68.2	0.0
2026-01-26 18:52:20.949372	315.7	18.0	-65.4	0.0
2026-01-26 18:52:23.202688	316.1	17.8	-64.6	0.0
2026-01-26 18:52:25.456034	316.5	17.6	-66.1	0.0
2026-01-26 18:52:27.707340	316.8	17.4	-66.1	0.0
2026-01-26 18:52:29.960016	317.2	17.2	-66.9	0.0
2026-01-26 18:52:32.212193	317.5	17.0	-67.2	0.0
2026-01-26 18:52:34.464113	317.8	16.8	-64.7	0.0
2026-01-26 18:52:36.719581	318.2	16.6	-67.8	0.0
2026-01-26 18:52:38.970392	318.5	16.4	-65.9	0.0
2026-01-26 18:52:41.219870	318.8	16.2	-66.8	0.0
2026-01-26 18:52:43.471731	319.2	16.0	-68.1	0.0
2026-01-26 18:52:45.727707	319.5	15.8	-68.1	0.0
2026-01-26 18:52:47.977772	319.8	15.7	-67.4	0.0
2026-01-26 18:52:50.230200	320.1	15.5	-67.3	0.0
2026-01-26 18:52:52.479496	320.4	15.3	-66.2	0.0
2026-01-26 18:52:54.731834	320.7	15.1	-65.9	0.0
2026-01-26 18:52:56.983508	321.0	14.9	-67.2	0.0
2026-01-26 18:52:59.233799	321.3	14.7	-68.2	0.0
2026-01-26 18:53:01.485979	321.6	14.5	-65.4	0.0
2026-01-26 18:53:03.739093	321.9	14.3	-66.6	0.0
2026-01-26 18:53:05.993482	322.2	14.2	-66.6	0.0
2026-01-26 18:53:08.246387	322.5	14.0	-68.0	0.0
2026-01-26 18:53:10.498855	322.8	13.8	-61.5	0.0
2026-01-26 18:53:12.750574	323.0	13.6	-67.1	0.0
2026-01-26 18:53:15.003837	323.3	13.4	-68.0	0.0
2026-01-26 18:53:17.259262	323.6	13.3	-62.5	0.0
2026-01-26 18:53:19.514681	323.8	13.1	-64.0	0.0
2026-01-26 18:53:21.767257	324.1	12.9	-64.8	0.0
2026-01-26 18:53:24.020431	324.4	12.7	-65.2	0.0
2026-01-26 18:53:26.272896	324.6	12.5	-66.3	0.0
2026-01-26 18:53:28.525796	324.9	12.4	-66.0	0.0
2026-01-26 18:53:30.778546	325.1	12.2	-67.9	0.0
2026-01-26 18:53:33.032248	325.4	12.0	-67.3	0.0
2026-01-26 18:53:35.284106	325.6	11.8	-65.6	0.0
2026-01-26 18:53:37.534975	325.9	11.7	-65.5	0.0
2026-01-26 18:53:39.789751	326.1	11.5	-65.0	0.0
2026-01-26 18:53:42.043612	326.3	11.3	-66.4	0.0
2026-01-26 18:53:44.300816	326.6	11.1	-67.3	0.0
2026-01-26 18:53:46.557869	326.8	11.0	-66.0	0.0
2026-01-26 18:53:48.810158	327.0	10.8	-66.6	0.0
2026-01-26 18:53:51.062403	327.3	10.6	-70.3	0.0
2026-01-26 18:53:53.313482	327.5	10.5	-68.3	0.0
2026-01-26 18:53:55.564373	327.7	10.3	-71.3	0.0
2026-01-26 18:53:57.817656	327.9	10.1	-71.8	0.0
#Closed at: 2026-01-26 18:44:31.925429