passes_logs/2026/01/26/planumMaritime01/planumMaritime01__20260126_071327_METOP-B_rec.log

#Pass ID: 20260126_071327_METOP-B
#Satellite: METOP-B
#Configuration: METOP-B
#Start time: 2026-01-26 07:13:32.878102

#LorettStation: 1.0.0 05.05.2024
#Station: planumMaritime01
#Location: 37.49445 lon 55.92918 lat
#TLE: 1 38771U 12049A   26025.22488633  .00000217  00000+0  11914-3 0  9991
#TLE: 2 38771  98.6733  79.4332 0002986  55.8942 304.2519 14.21428262692957

#Time	Az	El	Level	SNR
2026-01-26 07:13:35.055504	17.0	10.2	-63.1	0.0
2026-01-26 07:13:37.309133	17.0	10.4	-65.7	0.0
2026-01-26 07:13:39.560962	17.0	10.6	-62.5	0.0
2026-01-26 07:13:41.817005	17.0	10.8	-59.1	0.0
2026-01-26 07:13:44.071416	17.0	11.0	-59.8	0.0
2026-01-26 07:13:46.324300	17.1	11.2	-57.9	0.0
2026-01-26 07:13:48.577027	17.1	11.4	-57.3	0.0
2026-01-26 07:13:50.830476	17.1	11.6	-60.8	0.0
2026-01-26 07:13:53.089580	17.1	11.8	-56.4	0.0
2026-01-26 07:13:55.343668	17.1	12.0	-62.1	0.0
2026-01-26 07:13:57.594539	17.1	12.2	-60.6	0.0
2026-01-26 07:13:59.851342	17.2	12.5	-63.0	0.0
2026-01-26 07:14:02.108550	17.2	12.7	-60.8	0.0
2026-01-26 07:14:04.364158	17.2	12.9	-61.3	0.0
2026-01-26 07:14:06.618234	17.2	13.1	-60.6	0.0
2026-01-26 07:14:08.872394	17.2	13.3	-61.6	0.0
2026-01-26 07:14:11.124768	17.3	13.6	-60.3	0.0
2026-01-26 07:14:13.378037	17.3	13.8	-61.5	0.0
2026-01-26 07:14:15.631834	17.3	14.0	-62.2	0.0
2026-01-26 07:14:17.883705	17.3	14.3	-59.4	0.0
2026-01-26 07:14:20.136427	17.3	14.5	-57.7	0.0
2026-01-26 07:14:22.389661	17.3	14.7	-56.8	0.0
2026-01-26 07:14:24.645222	17.4	15.0	-54.9	0.0
2026-01-26 07:14:26.898274	17.4	15.2	-58.9	0.0
2026-01-26 07:14:29.152290	17.4	15.5	-58.7	0.0
2026-01-26 07:14:31.408681	17.4	15.7	-58.5	0.0
2026-01-26 07:14:33.661724	17.4	15.9	-56.8	0.0
2026-01-26 07:14:35.914534	17.5	16.2	-60.2	0.0
2026-01-26 07:14:38.167242	17.5	16.5	-61.1	0.0
2026-01-26 07:14:40.420045	17.5	16.7	-61.3	0.0
2026-01-26 07:14:42.673077	17.5	17.0	-59.3	0.0
2026-01-26 07:14:44.926200	17.5	17.2	-61.1	0.0
2026-01-26 07:14:47.179720	17.6	17.5	-59.5	0.0
2026-01-26 07:14:49.430990	17.6	17.8	-56.0	0.0
2026-01-26 07:14:51.685235	17.6	18.0	-62.8	0.0
2026-01-26 07:14:53.937544	17.6	18.3	-60.9	0.0
2026-01-26 07:14:56.189787	17.6	18.6	-60.7	0.0
2026-01-26 07:14:58.444417	17.7	18.9	-56.8	0.0
2026-01-26 07:15:00.699466	17.7	19.1	-62.3	0.0
2026-01-26 07:15:02.953332	17.7	19.4	-64.7	0.0
2026-01-26 07:15:05.209916	17.7	19.7	-61.0	0.0
2026-01-26 07:15:07.462615	17.8	20.0	-64.6	0.0
2026-01-26 07:15:09.717925	17.8	20.3	-60.1	0.0
2026-01-26 07:15:11.971638	17.8	20.6	-62.8	0.0
2026-01-26 07:15:14.227484	17.8	20.9	-59.2	0.0
2026-01-26 07:15:16.481925	17.8	21.2	-64.8	0.0
2026-01-26 07:15:18.738342	17.9	21.5	-59.4	0.0
2026-01-26 07:15:20.992045	17.9	21.9	-62.1	0.0
2026-01-26 07:15:23.246885	17.9	22.2	-64.3	0.0
2026-01-26 07:15:25.502442	17.9	22.5	-61.5	0.0
2026-01-26 07:15:27.756308	18.0	22.8	-61.3	0.0
2026-01-26 07:15:30.010291	18.0	23.2	-59.5	0.0
2026-01-26 07:15:32.265152	18.0	23.5	-60.8	0.0
2026-01-26 07:15:34.521295	18.0	23.8	-63.7	0.0
2026-01-26 07:15:36.774699	18.1	24.2	-66.2	0.0
2026-01-26 07:15:39.030500	18.1	24.5	-65.4	0.0
2026-01-26 07:15:41.285323	18.1	24.9	-64.1	0.0
2026-01-26 07:15:43.539717	18.2	25.3	-67.0	0.0
2026-01-26 07:15:45.793091	18.2	25.6	-59.2	0.0
2026-01-26 07:15:48.044878	18.2	26.0	-65.2	0.0
2026-01-26 07:15:50.301942	18.2	26.4	-64.4	0.0
2026-01-26 07:15:52.556860	18.3	26.7	-64.2	0.0
2026-01-26 07:15:54.811453	18.3	27.1	-68.0	0.0
2026-01-26 07:15:57.064768	18.3	27.5	-65.4	0.0
2026-01-26 07:15:59.316460	18.4	27.9	-67.3	0.0
2026-01-26 07:16:01.571203	18.4	28.3	-63.4	0.0
2026-01-26 07:16:03.823932	18.4	28.7	-65.3	0.0
2026-01-26 07:16:06.075362	18.5	29.1	-63.3	0.0
2026-01-26 07:16:08.329723	18.5	29.6	-65.4	0.0
2026-01-26 07:16:10.586743	18.5	30.0	-66.9	0.0
2026-01-26 07:16:12.841464	18.6	30.4	-64.4	0.0
2026-01-26 07:16:15.095705	18.6	30.9	-66.6	0.0
2026-01-26 07:16:17.350051	18.6	31.3	-66.6	0.0
2026-01-26 07:16:19.601857	18.7	31.8	-65.7	0.0
2026-01-26 07:16:21.856605	18.7	32.2	-63.8	0.0
2026-01-26 07:16:24.111652	18.8	32.7	-67.3	0.0
2026-01-26 07:16:26.364061	18.8	33.2	-65.3	0.0
2026-01-26 07:16:28.617380	18.8	33.7	-67.0	0.0
2026-01-26 07:16:30.869780	18.9	34.2	-69.9	1.9
2026-01-26 07:16:33.123139	18.9	34.7	-68.8	0.3
2026-01-26 07:16:35.375762	19.0	35.2	-68.0	0.0
2026-01-26 07:16:37.629922	19.0	35.7	-67.6	1.5
2026-01-26 07:16:39.883353	19.1	36.2	-68.1	0.4
2026-01-26 07:16:42.136753	19.1	36.8	-67.1	0.0
2026-01-26 07:16:44.386658	19.2	37.3	-68.2	1.5
2026-01-26 07:16:46.638512	19.2	37.9	-69.9	1.1
2026-01-26 07:16:48.894504	19.3	38.4	-67.2	0.0
2026-01-26 07:16:51.148157	19.3	39.0	-68.5	0.0
2026-01-26 07:16:53.401008	19.4	39.6	-69.8	0.9
2026-01-26 07:16:55.655348	19.4	40.2	-70.2	3.4
2026-01-26 07:16:57.907602	19.5	40.8	-68.4	2.0
2026-01-26 07:17:00.159146	19.5	41.4	-70.6	6.1
2026-01-26 07:17:02.413103	19.6	42.0	-68.6	4.6
2026-01-26 07:17:04.664365	19.7	42.6	-69.9	6.7
2026-01-26 07:17:06.917011	19.7	43.3	-68.8	1.5
2026-01-26 07:17:09.168816	19.8	43.9	-70.0	6.2
2026-01-26 07:17:11.419351	19.9	44.6	-70.4	6.4
2026-01-26 07:17:13.670995	19.9	45.3	-70.1	5.6
2026-01-26 07:17:15.926214	20.0	46.0	-70.1	7.5
2026-01-26 07:17:18.178586	20.1	46.7	-71.0	6.9
2026-01-26 07:17:20.429120	20.2	47.4	-70.5	7.2
2026-01-26 07:17:22.681386	20.3	48.1	-70.3	6.7
2026-01-26 07:17:24.934212	20.4	48.8	-70.8	5.2
2026-01-26 07:17:27.190968	20.5	49.6	-71.2	7.5
2026-01-26 07:17:29.443221	20.6	50.4	-70.7	7.2
2026-01-26 07:17:31.696527	20.7	51.1	-70.6	6.9
2026-01-26 07:17:33.949787	20.8	51.9	-68.8	2.2
2026-01-26 07:17:36.200431	20.9	52.7	-71.1	8.8
2026-01-26 07:17:38.450543	21.0	53.5	-69.3	6.3
2026-01-26 07:17:40.706303	21.1	54.4	-70.6	7.1
2026-01-26 07:17:42.958481	21.3	55.2	-71.5	8.3
2026-01-26 07:17:45.211849	21.4	56.1	-71.1	6.7
2026-01-26 07:17:47.465231	21.6	56.9	-71.0	6.4
2026-01-26 07:17:49.716853	21.7	57.8	-70.2	5.8
2026-01-26 07:17:51.972732	21.9	58.7	-70.8	5.6
2026-01-26 07:17:54.225829	22.1	59.6	-71.0	6.4
2026-01-26 07:17:56.477771	22.3	60.6	-70.4	5.9
2026-01-26 07:17:58.732120	22.5	61.5	-71.0	5.3
2026-01-26 07:18:00.985078	22.7	62.4	-71.2	7.0
2026-01-26 07:18:03.237745	23.0	63.4	-70.2	8.5
2026-01-26 07:18:05.491126	23.2	64.4	-70.7	8.2
2026-01-26 07:18:07.741515	23.5	65.4	-70.7	9.2
2026-01-26 07:18:09.998997	23.8	66.4	-70.4	6.3
2026-01-26 07:18:12.252392	24.2	67.4	-71.6	5.7
2026-01-26 07:18:14.507406	24.6	68.4	-70.9	5.1
2026-01-26 07:18:16.760630	25.0	69.4	-71.7	4.1
2026-01-26 07:18:19.012854	25.4	70.5	-71.8	2.3
2026-01-26 07:18:21.264062	26.0	71.5	-72.0	2.3
2026-01-26 07:18:23.518658	26.6	72.6	-72.3	3.8
2026-01-26 07:18:25.771314	27.2	73.7	-72.2	3.5
2026-01-26 07:18:28.026887	28.0	74.8	-72.3	3.4
2026-01-26 07:18:30.278731	28.9	75.8	-72.5	5.7
2026-01-26 07:18:32.532586	29.9	76.9	-71.8	3.3
2026-01-26 07:18:34.786612	31.2	78.0	-71.7	8.8
2026-01-26 07:18:37.039096	32.6	79.1	-71.8	6.0
2026-01-26 07:18:39.290891	34.5	80.2	-72.6	8.5
2026-01-26 07:18:41.541672	36.8	81.3	-71.2	6.9
2026-01-26 07:18:43.793807	39.7	82.4	-70.8	0.0
2026-01-26 07:18:46.046811	43.6	83.4	-70.2	6.0
2026-01-26 07:18:48.299201	49.0	84.5	-70.3	5.1
2026-01-26 07:18:50.552732	56.8	85.4	-70.4	2.5
2026-01-26 07:18:52.806623	68.2	86.2	-72.6	7.6
2026-01-26 07:18:55.058621	84.8	86.8	-72.1	7.8
2026-01-26 07:18:57.313577	106.5	87.1	-72.0	4.7
2026-01-26 07:18:59.567407	128.4	86.9	-73.1	8.8
2026-01-26 07:19:01.816926	145.4	86.3	-72.7	8.9
2026-01-26 07:19:04.066189	157.1	85.5	-73.1	9.7
2026-01-26 07:19:06.317726	165.0	84.5	-72.5	10.1
2026-01-26 07:19:08.570619	170.5	83.5	-73.1	10.0
2026-01-26 07:19:10.824790	174.5	82.5	-73.3	10.0
2026-01-26 07:19:13.079114	177.5	81.4	-73.1	10.2
2026-01-26 07:19:15.331789	179.8	80.3	-72.7	10.2
2026-01-26 07:19:17.583297	181.7	79.2	-73.0	9.9
2026-01-26 07:19:19.836875	183.2	78.1	-73.4	9.7
2026-01-26 07:19:22.091522	184.4	77.0	-73.0	7.8
2026-01-26 07:19:24.342784	185.5	75.9	-73.2	9.9
2026-01-26 07:19:26.592844	186.4	74.8	-73.8	9.3
2026-01-26 07:19:28.847758	187.2	73.7	-74.1	8.5
2026-01-26 07:19:31.099520	187.8	72.7	-74.1	9.0
2026-01-26 07:19:33.350816	188.4	71.6	-74.1	8.1
2026-01-26 07:19:35.603210	188.9	70.5	-74.2	7.4
2026-01-26 07:19:37.853584	189.4	69.5	-73.9	7.1
2026-01-26 07:19:40.108835	189.8	68.5	-74.0	8.0
2026-01-26 07:19:42.360827	190.2	67.4	-73.4	9.6
2026-01-26 07:19:44.612626	190.6	66.4	-72.7	8.5
2026-01-26 07:19:46.867820	190.9	65.4	-73.2	9.4
2026-01-26 07:19:49.118715	191.2	64.4	-73.1	10.9
2026-01-26 07:19:51.370635	191.4	63.4	-73.1	10.4
2026-01-26 07:19:53.624137	191.7	62.5	-72.6	10.1
2026-01-26 07:19:55.877825	191.9	61.5	-72.7	9.7
2026-01-26 07:19:58.130395	192.1	60.6	-73.0	8.9
2026-01-26 07:20:00.383318	192.3	59.7	-73.1	9.3
2026-01-26 07:20:02.631211	192.5	58.7	-73.6	9.9
2026-01-26 07:20:04.883897	192.7	57.8	-74.0	9.3
2026-01-26 07:20:07.136110	192.8	57.0	-74.4	9.4
2026-01-26 07:20:09.390606	193.0	56.1	-73.8	9.4
2026-01-26 07:20:11.642156	193.1	55.2	-73.6	9.9
2026-01-26 07:20:13.894532	193.3	54.4	-73.4	9.9
2026-01-26 07:20:16.145332	193.4	53.5	-73.3	9.9
2026-01-26 07:20:18.399268	193.5	52.7	-73.5	11.5
2026-01-26 07:20:20.652522	193.6	51.9	-73.2	12.2
2026-01-26 07:20:22.903927	193.7	51.1	-73.2	12.3
2026-01-26 07:20:25.155691	193.8	50.3	-73.8	11.8
2026-01-26 07:20:27.408449	193.9	49.6	-74.0	11.5
2026-01-26 07:20:29.662287	194.0	48.8	-74.8	11.7
2026-01-26 07:20:31.912625	194.1	48.1	-74.1	10.6
2026-01-26 07:20:34.165670	194.2	47.4	-74.5	11.4
2026-01-26 07:20:36.417900	194.3	46.6	-74.4	11.4
2026-01-26 07:20:38.670744	194.4	45.9	-74.3	10.8
2026-01-26 07:20:40.922644	194.4	45.2	-74.2	10.4
2026-01-26 07:20:43.175621	194.5	44.6	-73.3	9.9
2026-01-26 07:20:45.428968	194.6	43.9	-73.1	10.5
2026-01-26 07:20:47.682839	194.7	43.2	-72.9	10.0
2026-01-26 07:20:49.936827	194.7	42.6	-72.6	10.8
2026-01-26 07:20:52.189695	194.8	42.0	-72.5	9.3
2026-01-26 07:20:54.440168	194.9	41.3	-72.3	8.2
2026-01-26 07:20:56.693443	194.9	40.7	-72.2	6.8
2026-01-26 07:20:58.946855	195.0	40.1	-72.4	7.6
2026-01-26 07:21:01.198884	195.0	39.5	-72.2	6.1
2026-01-26 07:21:03.448446	195.1	38.9	-72.1	6.0
2026-01-26 07:21:05.701568	195.1	38.4	-71.9	6.1
2026-01-26 07:21:07.953399	195.2	37.8	-72.3	7.0
2026-01-26 07:21:10.206012	195.2	37.2	-71.5	3.9
2026-01-26 07:21:12.459249	195.3	36.7	-71.7	3.2
2026-01-26 07:21:14.710899	195.3	36.2	-71.5	3.9
2026-01-26 07:21:16.961311	195.4	35.6	-70.9	3.0
2026-01-26 07:21:19.214884	195.4	35.1	-70.9	1.8
2026-01-26 07:21:21.465408	195.5	34.6	-70.3	2.3
2026-01-26 07:21:23.719178	195.5	34.1	-70.8	3.6
2026-01-26 07:21:25.967858	195.5	33.6	-70.3	1.4
2026-01-26 07:21:28.221241	195.6	33.1	-70.5	0.9
2026-01-26 07:21:30.474133	195.6	32.6	-70.3	1.8
2026-01-26 07:21:32.727783	195.7	32.2	-69.4	0.0
2026-01-26 07:21:34.977950	195.7	31.7	-69.3	0.0
2026-01-26 07:21:37.229493	195.7	31.2	-70.0	0.0
2026-01-26 07:21:39.481072	195.8	30.8	-69.8	0.0
2026-01-26 07:21:41.733973	195.8	30.3	-69.7	0.0
2026-01-26 07:21:43.984365	195.8	29.9	-69.1	0.0
2026-01-26 07:21:46.236327	195.9	29.5	-70.1	0.0
2026-01-26 07:21:48.488115	195.9	29.1	-69.3	0.0
2026-01-26 07:21:50.737910	195.9	28.6	-69.5	0.0
2026-01-26 07:21:52.990981	196.0	28.2	-70.0	0.0
2026-01-26 07:21:55.243631	196.0	27.8	-70.4	0.0
2026-01-26 07:21:57.497947	196.0	27.4	-69.7	0.0
2026-01-26 07:21:59.752052	196.1	27.0	-69.9	0.0
2026-01-26 07:22:02.004721	196.1	26.6	-70.2	0.0
2026-01-26 07:22:04.261955	196.1	26.3	-69.7	0.0
2026-01-26 07:22:06.513690	196.1	25.9	-69.1	0.0
2026-01-26 07:22:08.766499	196.2	25.5	-70.0	0.0
2026-01-26 07:22:11.021654	196.2	25.1	-70.1	0.0
2026-01-26 07:22:13.274418	196.2	24.8	-70.0	0.0
2026-01-26 07:22:15.525161	196.3	24.4	-70.6	0.0
2026-01-26 07:22:17.777440	196.3	24.1	-70.0	0.0
2026-01-26 07:22:20.027508	196.3	23.7	-69.9	0.0
2026-01-26 07:22:22.280794	196.3	23.4	-69.8	0.0
2026-01-26 07:22:24.531032	196.4	23.0	-69.7	0.0
2026-01-26 07:22:26.785415	196.4	22.7	-69.9	0.0
2026-01-26 07:22:29.038107	196.4	22.4	-69.8	0.0
2026-01-26 07:22:31.291417	196.4	22.1	-69.8	0.0
2026-01-26 07:22:33.544315	196.4	21.7	-69.9	0.0
2026-01-26 07:22:35.794592	196.5	21.4	-69.7	0.0
2026-01-26 07:22:38.048730	196.5	21.1	-70.0	0.0
2026-01-26 07:22:40.301598	196.5	20.8	-69.7	0.0
2026-01-26 07:22:42.555868	196.5	20.5	-70.1	0.0
2026-01-26 07:22:44.809171	196.6	20.2	-70.9	0.0
2026-01-26 07:22:47.062165	196.6	19.9	-70.9	0.0
2026-01-26 07:22:49.313904	196.6	19.6	-70.4	0.0
2026-01-26 07:22:51.568120	196.6	19.3	-69.8	0.0
2026-01-26 07:22:53.821912	196.6	19.0	-70.2	0.0
2026-01-26 07:22:56.076452	196.7	18.7	-69.6	0.0
2026-01-26 07:22:58.330200	196.7	18.5	-69.8	0.0
2026-01-26 07:23:00.583408	196.7	18.2	-69.5	0.0
2026-01-26 07:23:02.834688	196.7	17.9	-69.1	0.0
2026-01-26 07:23:05.084481	196.7	17.6	-69.7	0.0
2026-01-26 07:23:07.336102	196.8	17.4	-70.1	0.0
2026-01-26 07:23:09.585963	196.8	17.1	-70.4	0.0
2026-01-26 07:23:11.839566	196.8	16.8	-71.3	0.0
2026-01-26 07:23:14.093360	196.8	16.6	-71.3	0.0
2026-01-26 07:23:16.340572	196.8	16.3	-71.3	0.0
2026-01-26 07:23:18.591866	196.8	16.1	-71.4	0.0
2026-01-26 07:23:20.844409	196.9	15.8	-71.1	0.0
2026-01-26 07:23:23.097104	196.9	15.6	-72.5	0.0
2026-01-26 07:23:25.350717	196.9	15.3	-71.2	0.0
2026-01-26 07:23:27.603381	196.9	15.1	-71.1	0.0
2026-01-26 07:23:29.856869	196.9	14.8	-71.5	0.0
2026-01-26 07:23:32.105999	197.0	14.6	-71.1	0.0
2026-01-26 07:23:34.358252	197.0	14.4	-71.3	0.0
2026-01-26 07:23:36.610767	197.0	14.1	-71.5	0.0
2026-01-26 07:23:38.860055	197.0	13.9	-72.2	0.0
2026-01-26 07:23:41.113771	197.0	13.7	-71.9	0.0
2026-01-26 07:23:43.365788	197.0	13.4	-71.1	0.0
2026-01-26 07:23:45.618818	197.1	13.2	-71.8	0.0
2026-01-26 07:23:47.871572	197.1	13.0	-71.5	0.0
2026-01-26 07:23:50.125842	197.1	12.8	-71.2	0.0
2026-01-26 07:23:52.379007	197.1	12.5	-71.5	0.0
2026-01-26 07:23:54.628756	197.1	12.3	-71.8	0.0
2026-01-26 07:23:56.881428	197.1	12.1	-71.9	0.0
2026-01-26 07:23:59.133615	197.1	11.9	-71.6	0.0
2026-01-26 07:24:01.384490	197.2	11.7	-72.1	0.0
2026-01-26 07:24:03.637140	197.2	11.5	-71.5	0.0
2026-01-26 07:24:05.887681	197.2	11.3	-71.9	0.0
2026-01-26 07:24:08.138665	197.2	11.0	-71.4	0.0
2026-01-26 07:24:10.393099	197.2	10.8	-70.7	0.0
2026-01-26 07:24:12.649388	197.2	10.6	-72.6	0.0
2026-01-26 07:24:14.900892	197.2	10.4	-77.7	0.0
2026-01-26 07:24:17.150777	197.3	10.2	-79.8	0.0
#Closed at: 2026-01-26 07:13:27.883666