passes_logs/2026/01/26/planumMaritime01/planumMaritime01__20260126_123029_METEOR-M2_4_rec.log

#Pass ID: 20260126_123029_METEOR-M2 4
#Satellite: METEOR-M2 4
#Configuration: METEOR-M2 4
#Start time: 2026-01-26 12:30:34.273115

#LorettStation: 1.0.0 05.05.2024
#Station: planumMaritime01
#Location: 37.49445 lon 55.92918 lat
#TLE: 1 59051U 24039A   26025.31794597  .00000070  00000+0  51138-4 0  9996
#TLE: 2 59051  98.6829 346.5576 0006298 216.9033 143.1712 14.22409551 98952

#Time	Az	El	Level	SNR
2026-01-26 12:30:36.449355	204.7	10.2	-83.6	0.9
2026-01-26 12:30:38.706297	204.9	10.3	-82.7	0.0
2026-01-26 12:30:40.966055	205.1	10.5	-82.2	0.0
2026-01-26 12:30:43.225770	205.3	10.7	-80.3	0.0
2026-01-26 12:30:45.484669	205.5	10.9	-77.9	2.7
2026-01-26 12:30:47.743529	205.8	11.0	-76.6	5.4
2026-01-26 12:30:50.001764	206.0	11.2	-76.3	3.9
2026-01-26 12:30:52.259268	206.2	11.4	-76.7	4.8
2026-01-26 12:30:54.518317	206.5	11.6	-76.6	4.3
2026-01-26 12:30:56.778911	206.7	11.7	-76.8	5.6
2026-01-26 12:30:59.035540	206.9	11.9	-76.6	5.1
2026-01-26 12:31:01.294497	207.2	12.1	-76.7	4.9
2026-01-26 12:31:03.551529	207.4	12.3	-75.4	3.4
2026-01-26 12:31:05.811531	207.7	12.4	-75.8	5.6
2026-01-26 12:31:08.070345	207.9	12.6	-75.9	4.2
2026-01-26 12:31:10.328839	208.2	12.8	-76.9	6.2
2026-01-26 12:31:12.589965	208.4	13.0	-75.4	2.9
2026-01-26 12:31:14.845888	208.7	13.2	-76.3	5.5
2026-01-26 12:31:17.103428	208.9	13.4	-76.6	6.4
2026-01-26 12:31:19.360265	209.2	13.6	-76.2	4.9
2026-01-26 12:31:21.618573	209.5	13.7	-76.3	4.3
2026-01-26 12:31:23.879031	209.7	13.9	-76.0	5.2
2026-01-26 12:31:26.135722	210.0	14.1	-75.8	5.2
2026-01-26 12:31:28.396412	210.3	14.3	-75.4	6.0
2026-01-26 12:31:30.652750	210.6	14.5	-76.2	5.1
2026-01-26 12:31:32.914918	210.9	14.7	-76.5	6.2
2026-01-26 12:31:35.171804	211.2	14.9	-76.2	6.5
2026-01-26 12:31:37.430151	211.4	15.1	-76.5	6.5
2026-01-26 12:31:39.700313	211.7	15.3	-76.6	6.2
2026-01-26 12:31:41.969243	212.1	15.5	-76.7	7.2
2026-01-26 12:31:44.234817	212.4	15.7	-76.9	7.0
2026-01-26 12:31:46.501212	212.7	15.9	-77.0	6.6
2026-01-26 12:31:48.767101	213.0	16.1	-77.1	6.6
2026-01-26 12:31:51.029584	213.3	16.3	-76.9	6.5
2026-01-26 12:31:53.297612	213.6	16.5	-76.3	7.0
2026-01-26 12:31:55.563427	213.9	16.7	-76.8	7.5
2026-01-26 12:31:57.828967	214.3	16.9	-77.0	8.0
2026-01-26 12:32:00.094931	214.6	17.1	-76.6	6.0
2026-01-26 12:32:02.357791	214.9	17.3	-77.6	8.6
2026-01-26 12:32:04.627612	215.3	17.5	-77.1	8.2
2026-01-26 12:32:06.892546	215.6	17.7	-76.7	8.0
2026-01-26 12:32:09.152382	216.0	17.9	-76.1	6.5
2026-01-26 12:32:11.413176	216.3	18.1	-76.1	9.1
2026-01-26 12:32:13.673320	216.7	18.3	-76.4	8.8
2026-01-26 12:32:15.932925	217.1	18.5	-76.3	7.5
2026-01-26 12:32:18.193121	217.4	18.7	-77.0	8.9
2026-01-26 12:32:20.454119	217.8	18.9	-76.9	9.3
2026-01-26 12:32:22.716982	218.2	19.1	-77.3	9.7
2026-01-26 12:32:24.977807	218.6	19.3	-77.2	9.5
2026-01-26 12:32:27.241180	219.0	19.5	-77.6	10.1
2026-01-26 12:32:29.503711	219.4	19.7	-77.8	10.0
2026-01-26 12:32:31.761662	219.8	19.9	-77.6	9.8
2026-01-26 12:32:34.022184	220.2	20.2	-77.3	10.1
2026-01-26 12:32:36.282108	220.6	20.4	-77.4	10.4
2026-01-26 12:32:38.542933	221.0	20.6	-77.3	9.7
2026-01-26 12:32:40.803150	221.4	20.8	-77.2	10.1
2026-01-26 12:32:43.063418	221.9	21.0	-76.5	10.1
2026-01-26 12:32:45.325981	222.3	21.2	-77.3	9.4
2026-01-26 12:32:47.589233	222.7	21.4	-77.5	11.2
2026-01-26 12:32:49.848345	223.2	21.6	-77.5	10.4
2026-01-26 12:32:52.111374	223.6	21.8	-77.2	10.8
2026-01-26 12:32:54.372609	224.1	22.1	-77.1	9.6
2026-01-26 12:32:56.632225	224.6	22.3	-76.7	9.1
2026-01-26 12:32:58.895670	225.0	22.5	-77.3	10.5
2026-01-26 12:33:01.161232	225.5	22.7	-77.3	11.1
2026-01-26 12:33:03.430607	226.0	22.9	-77.2	11.0
2026-01-26 12:33:05.693857	226.5	23.1	-77.8	9.5
2026-01-26 12:33:07.961267	227.0	23.3	-77.3	10.1
2026-01-26 12:33:10.228751	227.5	23.5	-76.9	9.7
2026-01-26 12:33:12.490340	228.0	23.7	-77.5	10.0
2026-01-26 12:33:14.753938	228.5	23.9	-77.4	10.1
2026-01-26 12:33:17.019571	229.0	24.2	-77.5	10.3
2026-01-26 12:33:19.286687	229.6	24.4	-77.5	10.6
2026-01-26 12:33:21.552115	230.1	24.6	-77.4	10.1
2026-01-26 12:33:23.820017	230.7	24.8	-77.1	9.6
2026-01-26 12:33:26.090513	231.2	25.0	-77.0	9.4
2026-01-26 12:33:28.357731	231.8	25.2	-77.1	9.9
2026-01-26 12:33:30.626331	232.3	25.4	-76.9	9.6
2026-01-26 12:33:32.891715	232.9	25.6	-76.9	9.2
2026-01-26 12:33:35.163898	233.5	25.8	-77.1	8.7
2026-01-26 12:33:37.430540	234.1	26.0	-76.6	9.4
2026-01-26 12:33:39.695804	234.7	26.2	-77.3	9.5
2026-01-26 12:33:41.963998	235.3	26.4	-77.0	9.2
2026-01-26 12:33:44.227206	235.9	26.6	-76.7	8.6
2026-01-26 12:33:46.484221	236.5	26.7	-77.3	10.0
2026-01-26 12:33:48.747678	237.1	26.9	-76.6	10.4
2026-01-26 12:33:51.007996	237.8	27.1	-76.5	9.7
2026-01-26 12:33:53.267458	238.4	27.3	-76.4	9.6
2026-01-26 12:33:55.523495	239.0	27.5	-76.3	9.9
2026-01-26 12:33:57.781007	239.7	27.6	-76.9	9.3
2026-01-26 12:34:00.037769	240.3	27.8	-76.5	8.5
2026-01-26 12:34:02.298573	241.0	28.0	-77.0	7.4
2026-01-26 12:34:04.556987	241.7	28.2	-76.6	7.4
2026-01-26 12:34:06.813637	242.4	28.3	-76.6	9.4
2026-01-26 12:34:09.073974	243.0	28.5	-76.7	8.9
2026-01-26 12:34:11.337600	243.7	28.6	-76.7	9.1
2026-01-26 12:34:13.602711	244.4	28.8	-76.5	8.4
2026-01-26 12:34:15.867775	245.1	28.9	-76.7	9.1
2026-01-26 12:34:18.132558	245.8	29.1	-77.2	9.9
2026-01-26 12:34:20.392950	246.6	29.2	-76.5	9.6
2026-01-26 12:34:22.657946	247.3	29.4	-76.6	9.3
2026-01-26 12:34:24.921773	248.0	29.5	-76.8	8.4
2026-01-26 12:34:27.186361	248.8	29.6	-76.5	6.7
2026-01-26 12:34:29.450155	249.5	29.8	-76.7	8.3
2026-01-26 12:34:31.712770	250.2	29.9	-76.7	9.0
2026-01-26 12:34:33.975535	251.0	30.0	-76.6	9.6
2026-01-26 12:34:36.244097	251.8	30.1	-76.4	9.6
2026-01-26 12:34:38.511832	252.5	30.2	-76.6	9.8
2026-01-26 12:34:40.775013	253.3	30.3	-76.2	9.2
2026-01-26 12:34:43.039694	254.1	30.4	-76.5	10.3
2026-01-26 12:34:45.303959	254.8	30.5	-76.1	9.7
2026-01-26 12:34:47.567944	255.6	30.6	-76.5	9.8
2026-01-26 12:34:49.827739	256.4	30.7	-76.8	9.9
2026-01-26 12:34:52.092338	257.2	30.7	-76.6	10.1
2026-01-26 12:34:54.355201	258.0	30.8	-76.6	9.4
2026-01-26 12:34:56.620324	258.8	30.9	-76.5	9.5
2026-01-26 12:34:58.888033	259.6	30.9	-76.8	10.0
2026-01-26 12:35:01.148780	260.4	31.0	-75.8	8.8
2026-01-26 12:35:03.412685	261.2	31.0	-76.6	9.7
2026-01-26 12:35:05.673839	262.0	31.0	-76.8	9.5
2026-01-26 12:35:07.938434	262.8	31.1	-77.1	11.6
2026-01-26 12:35:10.202947	263.6	31.1	-76.9	9.3
2026-01-26 12:35:12.464357	264.4	31.1	-77.0	10.4
2026-01-26 12:35:14.726481	265.2	31.1	-76.4	8.1
2026-01-26 12:35:16.985263	266.0	31.1	-76.5	9.2
2026-01-26 12:35:19.243204	266.8	31.1	-76.4	8.0
2026-01-26 12:35:21.503021	267.6	31.1	-76.3	9.1
2026-01-26 12:35:23.760330	268.4	31.1	-77.0	9.6
2026-01-26 12:35:26.020383	269.2	31.1	-76.5	8.3
2026-01-26 12:35:28.277178	270.0	31.1	-75.3	6.5
2026-01-26 12:35:30.536741	270.9	31.1	-75.5	6.0
2026-01-26 12:35:32.798889	271.7	31.0	-75.6	8.5
2026-01-26 12:35:35.054373	272.5	31.0	-75.4	8.5
2026-01-26 12:35:37.312862	273.3	30.9	-76.5	7.4
2026-01-26 12:35:39.569059	274.0	30.9	-76.8	9.3
2026-01-26 12:35:41.827756	274.8	30.8	-76.0	7.6
2026-01-26 12:35:44.085433	275.6	30.8	-76.5	7.6
2026-01-26 12:35:46.342561	276.4	30.7	-74.8	5.4
2026-01-26 12:35:48.601330	277.2	30.6	-75.7	7.1
2026-01-26 12:35:50.859643	278.0	30.5	-76.4	7.4
2026-01-26 12:35:53.117317	278.8	30.4	-75.4	6.2
2026-01-26 12:35:55.375159	279.5	30.3	-75.3	5.2
2026-01-26 12:35:57.634981	280.3	30.2	-76.2	8.1
2026-01-26 12:35:59.894002	281.0	30.1	-75.0	6.0
2026-01-26 12:36:02.149414	281.8	30.0	-74.9	6.7
2026-01-26 12:36:04.407945	282.6	29.9	-76.0	6.9
2026-01-26 12:36:06.673390	283.3	29.8	-75.5	4.9
2026-01-26 12:36:08.936175	284.0	29.7	-75.1	6.0
2026-01-26 12:36:11.196335	284.8	29.6	-75.3	6.4
2026-01-26 12:36:13.458329	285.5	29.4	-75.3	5.8
2026-01-26 12:36:15.720162	286.2	29.3	-75.1	4.5
2026-01-26 12:36:17.982588	287.0	29.1	-74.2	6.5
2026-01-26 12:36:20.245376	287.7	29.0	-74.8	4.5
2026-01-26 12:36:22.510937	288.4	28.9	-75.3	6.1
2026-01-26 12:36:24.777870	289.1	28.7	-74.4	4.2
2026-01-26 12:36:27.039562	289.8	28.5	-74.9	2.8
2026-01-26 12:36:29.301739	290.5	28.4	-74.6	2.8
2026-01-26 12:36:31.564154	291.1	28.2	-73.9	2.1
2026-01-26 12:36:33.824426	291.8	28.1	-74.5	4.9
2026-01-26 12:36:36.090378	292.5	27.9	-74.6	5.0
2026-01-26 12:36:38.352360	293.1	27.7	-75.3	6.9
2026-01-26 12:36:40.616659	293.8	27.5	-74.1	4.7
2026-01-26 12:36:42.882209	294.4	27.4	-73.0	4.8
2026-01-26 12:36:45.144461	295.1	27.2	-71.8	1.7
2026-01-26 12:36:47.406793	295.7	27.0	-73.4	1.6
2026-01-26 12:36:49.672330	296.3	26.8	-74.6	1.2
2026-01-26 12:36:51.932064	296.9	26.6	-73.8	0.5
2026-01-26 12:36:54.189970	297.5	26.4	-72.1	0.0
2026-01-26 12:36:56.449652	298.1	26.3	-73.9	3.2
2026-01-26 12:36:58.713215	298.7	26.1	-74.1	2.7
2026-01-26 12:37:00.976531	299.3	25.9	-73.4	2.4
2026-01-26 12:37:03.238410	299.9	25.7	-73.2	1.2
2026-01-26 12:37:05.499818	300.5	25.5	-74.4	3.5
2026-01-26 12:37:07.756547	301.0	25.3	-72.6	0.0
2026-01-26 12:37:10.020995	301.6	25.1	-73.7	0.4
2026-01-26 12:37:12.283924	302.1	24.9	-73.7	1.9
2026-01-26 12:37:14.536444	302.7	24.7	-73.6	1.5
2026-01-26 12:37:16.792858	303.2	24.5	-73.6	1.7
2026-01-26 12:37:19.047659	303.8	24.3	-72.5	0.0
2026-01-26 12:37:21.304030	304.3	24.1	-72.2	0.0
2026-01-26 12:37:23.560570	304.8	23.9	-74.7	4.2
2026-01-26 12:37:25.818409	305.3	23.7	-74.4	0.6
2026-01-26 12:37:28.075291	305.8	23.4	-74.6	4.1
2026-01-26 12:37:30.332301	306.3	23.2	-75.3	2.9
2026-01-26 12:37:32.587417	306.8	23.0	-73.7	1.8
2026-01-26 12:37:34.846303	307.3	22.8	-74.2	3.5
2026-01-26 12:37:37.109645	307.8	22.6	-75.2	3.2
2026-01-26 12:37:39.367709	308.2	22.4	-75.3	4.7
2026-01-26 12:37:41.628373	308.7	22.2	-75.4	0.0
2026-01-26 12:37:43.885382	309.2	22.0	-71.7	0.0
2026-01-26 12:37:46.140092	309.6	21.8	-74.4	0.1
2026-01-26 12:37:48.396240	310.1	21.6	-75.0	4.7
2026-01-26 12:37:50.652562	310.5	21.4	-75.3	2.9
2026-01-26 12:37:52.908312	310.9	21.1	-73.2	3.6
2026-01-26 12:37:55.166620	311.4	20.9	-72.1	0.0
2026-01-26 12:37:57.422860	311.8	20.7	-72.7	3.8
2026-01-26 12:37:59.681274	312.2	20.5	-74.9	0.0
2026-01-26 12:38:01.936228	312.6	20.3	-71.4	0.0
2026-01-26 12:38:04.190549	313.0	20.1	-74.0	0.0
2026-01-26 12:38:06.447479	313.4	19.9	-73.0	0.0
2026-01-26 12:38:08.704351	313.8	19.7	-72.9	0.0
2026-01-26 12:38:10.960212	314.2	19.5	-74.4	2.9
2026-01-26 12:38:13.218406	314.6	19.3	-69.1	0.0
2026-01-26 12:38:15.480412	315.0	19.1	-66.3	0.0
2026-01-26 12:38:17.738906	315.4	18.9	-71.8	0.0
2026-01-26 12:38:19.996841	315.7	18.7	-70.0	0.0
2026-01-26 12:38:22.255287	316.1	18.4	-70.1	0.0
2026-01-26 12:38:24.513603	316.5	18.2	-72.6	0.0
2026-01-26 12:38:26.770673	316.8	18.0	-72.2	0.0
2026-01-26 12:38:29.031579	317.2	17.8	-73.2	0.0
2026-01-26 12:38:31.293308	317.5	17.6	-70.9	0.0
2026-01-26 12:38:33.553501	317.9	17.4	-73.9	0.0
2026-01-26 12:38:35.813045	318.2	17.2	-72.0	0.0
2026-01-26 12:38:38.075330	318.5	17.0	-69.0	0.0
2026-01-26 12:38:40.338064	318.9	16.8	-70.1	0.0
2026-01-26 12:38:42.599845	319.2	16.6	-72.1	0.0
2026-01-26 12:38:44.861367	319.5	16.4	-72.5	0.0
2026-01-26 12:38:47.122971	319.8	16.2	-72.0	0.0
2026-01-26 12:38:49.381871	320.2	16.0	-71.3	0.0
2026-01-26 12:38:51.642943	320.5	15.8	-70.3	0.0
2026-01-26 12:38:53.906083	320.8	15.7	-69.4	0.0
2026-01-26 12:38:56.163778	321.1	15.5	-71.4	0.0
2026-01-26 12:38:58.427138	321.4	15.3	-72.2	0.0
2026-01-26 12:39:00.688893	321.7	15.1	-73.1	0.0
2026-01-26 12:39:02.944797	322.0	14.9	-71.2	0.0
2026-01-26 12:39:05.208388	322.3	14.7	-67.8	0.0
2026-01-26 12:39:07.468673	322.5	14.5	-70.3	0.0
2026-01-26 12:39:09.729194	322.8	14.3	-72.2	0.0
2026-01-26 12:39:11.990291	323.1	14.1	-71.1	0.0
2026-01-26 12:39:14.252861	323.4	13.9	-73.2	0.0
2026-01-26 12:39:16.512469	323.6	13.8	-71.2	0.0
2026-01-26 12:39:18.772151	323.9	13.6	-70.6	0.0
2026-01-26 12:39:21.034162	324.2	13.4	-70.0	0.0
2026-01-26 12:39:23.297854	324.4	13.2	-68.5	0.0
2026-01-26 12:39:25.556778	324.7	13.0	-68.2	0.0
2026-01-26 12:39:27.817408	325.0	12.8	-69.6	0.0
2026-01-26 12:39:30.080199	325.2	12.7	-69.6	0.0
2026-01-26 12:39:32.344617	325.5	12.5	-69.3	0.0
2026-01-26 12:39:34.603058	325.7	12.3	-70.1	0.0
2026-01-26 12:39:36.858460	325.9	12.1	-70.3	0.0
2026-01-26 12:39:39.118557	326.2	11.9	-69.7	0.0
2026-01-26 12:39:41.378290	326.4	11.8	-69.7	0.0
2026-01-26 12:39:43.639258	326.7	11.6	-67.5	0.0
2026-01-26 12:39:45.897392	326.9	11.4	-69.8	0.0
2026-01-26 12:39:48.154510	327.1	11.2	-69.4	0.0
2026-01-26 12:39:50.412570	327.4	11.1	-70.9	0.0
2026-01-26 12:39:52.686068	327.6	10.9	-70.5	0.0
2026-01-26 12:39:54.958190	327.8	10.7	-71.8	0.0
2026-01-26 12:39:57.232823	328.0	10.5	-73.0	0.0
2026-01-26 12:39:59.506048	328.2	10.4	-76.8	0.0
2026-01-26 12:40:01.779964	328.5	10.2	-76.8	0.0
2026-01-26 12:40:04.049064	328.7	10.0	-74.8	0.0
#Closed at: 2026-01-26 12:30:29.278916