passes_logs/2026/01/26/planumMaritime01/planumMaritime01__20260126_174159_METEOR-M2_3_rec.log

#Pass ID: 20260126_174159_METEOR-M2 3
#Satellite: METEOR-M2 3
#Configuration: METEOR-M2 3
#Start time: 2026-01-26 17:42:04.957611

#LorettStation: 1.0.0 05.05.2024
#Station: planumMaritime01
#Location: 37.49445 lon 55.92918 lat
#TLE: 1 57166U 23091A   26025.32489204  .00000020  00000+0  27725-4 0  9995
#TLE: 2 57166  98.6312  83.0892 0003344 212.0394 148.0582 14.24032443134183

#Time	Az	El	Level	SNR
2026-01-26 17:42:07.132419	158.5	10.2	-80.0	0.0
2026-01-26 17:42:09.395199	158.5	10.4	-80.1	0.0
2026-01-26 17:42:11.655207	158.5	10.6	-77.6	3.6
2026-01-26 17:42:13.915567	158.5	10.8	-76.9	5.1
2026-01-26 17:42:16.178463	158.5	11.0	-77.1	5.2
2026-01-26 17:42:18.439133	158.4	11.2	-77.1	4.5
2026-01-26 17:42:20.701565	158.4	11.4	-77.1	3.5
2026-01-26 17:42:22.965469	158.4	11.6	-77.1	4.2
2026-01-26 17:42:25.224988	158.4	11.8	-76.4	2.2
2026-01-26 17:42:27.489687	158.4	12.1	-76.9	3.6
2026-01-26 17:42:29.757481	158.4	12.3	-76.9	4.7
2026-01-26 17:42:32.028429	158.4	12.5	-76.5	1.8
2026-01-26 17:42:34.299546	158.4	12.7	-76.8	5.6
2026-01-26 17:42:36.569414	158.4	13.0	-76.5	5.3
2026-01-26 17:42:38.839725	158.4	13.2	-76.5	4.2
2026-01-26 17:42:41.111409	158.4	13.4	-77.0	5.2
2026-01-26 17:42:43.382963	158.3	13.6	-76.4	3.9
2026-01-26 17:42:45.650765	158.3	13.9	-76.7	5.1
2026-01-26 17:42:47.920934	158.3	14.1	-76.2	5.7
2026-01-26 17:42:50.192236	158.3	14.3	-76.3	6.1
2026-01-26 17:42:52.461761	158.3	14.6	-76.5	6.5
2026-01-26 17:42:54.729499	158.3	14.8	-77.3	6.3
2026-01-26 17:42:57.000723	158.3	15.1	-76.3	4.2
2026-01-26 17:42:59.275582	158.3	15.3	-77.1	5.7
2026-01-26 17:43:01.542594	158.2	15.6	-76.8	4.2
2026-01-26 17:43:03.811486	158.2	15.8	-76.9	5.1
2026-01-26 17:43:06.083473	158.2	16.1	-76.8	6.2
2026-01-26 17:43:08.348971	158.2	16.3	-76.9	5.8
2026-01-26 17:43:10.616151	158.2	16.6	-76.9	6.4
2026-01-26 17:43:12.884473	158.2	16.9	-77.1	6.2
2026-01-26 17:43:15.151788	158.2	17.1	-77.1	6.0
2026-01-26 17:43:17.427560	158.1	17.4	-77.0	6.9
2026-01-26 17:43:19.705103	158.1	17.7	-76.8	7.3
2026-01-26 17:43:21.981108	158.1	17.9	-75.6	3.7
2026-01-26 17:43:24.262040	158.1	18.2	-75.6	5.2
2026-01-26 17:43:26.541243	158.1	18.5	-76.2	5.9
2026-01-26 17:43:28.817095	158.0	18.8	-76.7	6.9
2026-01-26 17:43:31.095282	158.0	19.1	-76.2	6.9
2026-01-26 17:43:33.371118	158.0	19.4	-76.8	7.8
2026-01-26 17:43:35.648296	158.0	19.7	-76.5	6.6
2026-01-26 17:43:37.933460	158.0	20.0	-76.3	6.0
2026-01-26 17:43:40.213402	157.9	20.3	-76.4	7.8
2026-01-26 17:43:42.489083	157.9	20.6	-76.4	7.2
2026-01-26 17:43:44.765773	157.9	20.9	-76.3	6.3
2026-01-26 17:43:47.040907	157.9	21.2	-76.6	7.6
2026-01-26 17:43:49.316288	157.9	21.5	-76.5	7.1
2026-01-26 17:43:51.594245	157.8	21.8	-76.7	8.0
2026-01-26 17:43:53.868872	157.8	22.2	-76.5	9.3
2026-01-26 17:43:56.143734	157.8	22.5	-75.8	6.9
2026-01-26 17:43:58.422526	157.8	22.8	-76.1	8.1
2026-01-26 17:44:00.698430	157.7	23.2	-76.3	7.9
2026-01-26 17:44:02.972533	157.7	23.5	-76.7	9.1
2026-01-26 17:44:05.248890	157.7	23.9	-76.2	8.5
2026-01-26 17:44:07.521089	157.6	24.2	-75.7	5.7
2026-01-26 17:44:09.794984	157.6	24.6	-75.9	6.7
2026-01-26 17:44:12.069117	157.6	25.0	-75.9	8.6
2026-01-26 17:44:14.341967	157.6	25.3	-76.8	8.0
2026-01-26 17:44:16.599485	157.5	25.7	-76.9	6.5
2026-01-26 17:44:18.858296	157.5	26.1	-77.0	9.7
2026-01-26 17:44:21.118752	157.5	26.5	-76.6	8.4
2026-01-26 17:44:23.378459	157.4	26.8	-76.8	7.3
2026-01-26 17:44:25.637859	157.4	27.2	-76.9	9.6
2026-01-26 17:44:27.896892	157.4	27.6	-77.3	9.8
2026-01-26 17:44:30.155123	157.3	28.0	-77.1	10.1
2026-01-26 17:44:32.411404	157.3	28.5	-77.0	10.3
2026-01-26 17:44:34.669654	157.2	28.9	-77.0	8.8
2026-01-26 17:44:36.931016	157.2	29.3	-77.3	9.9
2026-01-26 17:44:39.189189	157.1	29.7	-77.4	9.9
2026-01-26 17:44:41.449337	157.1	30.2	-77.2	11.0
2026-01-26 17:44:43.713069	157.1	30.6	-77.6	9.6
2026-01-26 17:44:45.973507	157.0	31.1	-77.1	7.9
2026-01-26 17:44:48.239547	157.0	31.5	-76.9	8.9
2026-01-26 17:44:50.508400	156.9	32.0	-76.9	8.7
2026-01-26 17:44:52.777208	156.9	32.5	-77.1	11.7
2026-01-26 17:44:55.043387	156.8	32.9	-77.5	9.7
2026-01-26 17:44:57.310799	156.7	33.4	-77.5	12.0
2026-01-26 17:44:59.586356	156.7	33.9	-77.0	10.1
2026-01-26 17:45:01.858530	156.6	34.4	-76.8	9.4
2026-01-26 17:45:04.118670	156.6	35.0	-77.8	12.2
2026-01-26 17:45:06.383733	156.5	35.5	-77.8	12.4
2026-01-26 17:45:08.649156	156.4	36.0	-77.3	10.9
2026-01-26 17:45:10.923729	156.4	36.5	-77.3	12.0
2026-01-26 17:45:13.195340	156.3	37.1	-77.7	11.7
2026-01-26 17:45:15.469706	156.2	37.7	-77.3	10.9
2026-01-26 17:45:17.735744	156.1	38.2	-77.5	11.7
2026-01-26 17:45:19.997762	156.1	38.8	-77.5	10.0
2026-01-26 17:45:22.264293	156.0	39.4	-77.7	10.6
2026-01-26 17:45:24.536194	155.9	40.0	-77.2	10.4
2026-01-26 17:45:26.805642	155.8	40.6	-77.4	10.7
2026-01-26 17:45:29.073131	155.7	41.2	-77.1	10.9
2026-01-26 17:45:31.344320	155.6	41.9	-77.7	11.6
2026-01-26 17:45:33.613867	155.5	42.5	-77.8	11.2
2026-01-26 17:45:35.882588	155.4	43.1	-78.0	10.7
2026-01-26 17:45:38.154426	155.3	43.8	-78.1	10.3
2026-01-26 17:45:40.430647	155.2	44.5	-77.7	10.4
2026-01-26 17:45:42.703634	155.1	45.2	-77.5	9.8
2026-01-26 17:45:44.974146	154.9	45.9	-77.9	9.6
2026-01-26 17:45:47.242052	154.8	46.6	-78.2	10.4
2026-01-26 17:45:49.507377	154.6	47.3	-78.0	11.0
2026-01-26 17:45:51.774807	154.5	48.0	-78.2	10.4
2026-01-26 17:45:54.041656	154.3	48.8	-78.3	9.7
2026-01-26 17:45:56.311439	154.2	49.6	-78.2	9.3
2026-01-26 17:45:58.583089	154.0	50.3	-78.6	9.7
2026-01-26 17:46:00.852345	153.8	51.1	-78.8	9.5
2026-01-26 17:46:03.121286	153.6	51.9	-78.8	8.8
2026-01-26 17:46:05.375080	153.4	52.7	-78.8	8.8
2026-01-26 17:46:07.624037	153.2	53.5	-78.7	8.5
2026-01-26 17:46:09.875692	153.0	54.4	-78.9	7.8
2026-01-26 17:46:12.139650	152.8	55.2	-78.5	7.3
2026-01-26 17:46:14.400909	152.5	56.1	-79.3	8.5
2026-01-26 17:46:16.662417	152.2	57.0	-78.8	7.2
2026-01-26 17:46:18.928836	151.9	57.9	-78.9	9.2
2026-01-26 17:46:21.204024	151.6	58.8	-79.2	8.7
2026-01-26 17:46:23.482520	151.3	59.7	-78.7	8.7
2026-01-26 17:46:25.754543	150.9	60.6	-79.2	8.6
2026-01-26 17:46:28.036395	150.5	61.6	-79.0	8.8
2026-01-26 17:46:30.300285	150.1	62.5	-78.7	5.9
2026-01-26 17:46:32.559042	149.6	63.5	-78.3	6.7
2026-01-26 17:46:34.821336	149.1	64.5	-79.1	6.0
2026-01-26 17:46:37.088561	148.6	65.4	-78.9	7.3
2026-01-26 17:46:39.365123	148.0	66.4	-78.6	7.2
2026-01-26 17:46:41.638374	147.3	67.5	-79.1	8.1
2026-01-26 17:46:43.911822	146.6	68.5	-78.4	5.5
2026-01-26 17:46:46.184315	145.8	69.5	-78.2	6.1
2026-01-26 17:46:48.454183	144.9	70.5	-78.0	4.8
2026-01-26 17:46:50.708474	143.9	71.6	-78.9	7.5
2026-01-26 17:46:52.962333	142.8	72.6	-78.0	7.0
2026-01-26 17:46:55.225865	141.5	73.7	-77.4	6.6
2026-01-26 17:46:57.490682	140.0	74.7	-77.3	6.0
2026-01-26 17:46:59.757684	138.3	75.7	-77.9	6.8
2026-01-26 17:47:02.021485	136.4	76.8	-76.9	5.9
2026-01-26 17:47:04.288166	134.0	77.8	-76.7	5.9
2026-01-26 17:47:06.554340	131.3	78.8	-77.2	7.5
2026-01-26 17:47:08.818946	128.0	79.8	-76.8	4.0
2026-01-26 17:47:11.074340	124.0	80.7	-77.4	6.1
2026-01-26 17:47:13.337453	119.1	81.6	-77.6	5.7
2026-01-26 17:47:15.609670	113.0	82.5	-77.7	6.4
2026-01-26 17:47:17.883439	105.5	83.2	-77.7	5.4
2026-01-26 17:47:20.159651	96.4	83.8	-78.1	6.9
2026-01-26 17:47:22.434626	85.8	84.2	-77.1	7.3
2026-01-26 17:47:24.707457	74.0	84.4	-76.6	6.9
2026-01-26 17:47:26.983612	62.0	84.3	-76.6	8.0
2026-01-26 17:47:29.259240	50.8	84.0	-76.3	6.1
2026-01-26 17:47:31.534016	41.0	83.5	-77.0	9.0
2026-01-26 17:47:33.810563	32.8	82.8	-76.9	5.1
2026-01-26 17:47:36.086073	26.2	82.0	-75.8	1.5
2026-01-26 17:47:38.361512	20.8	81.1	-76.6	5.4
2026-01-26 17:47:40.630908	16.4	80.2	-75.9	3.7
2026-01-26 17:47:42.909420	12.8	79.2	-76.1	5.2
2026-01-26 17:47:45.187874	9.8	78.2	-75.5	4.6
2026-01-26 17:47:47.465748	7.3	77.2	-74.9	3.6
2026-01-26 17:47:49.742777	5.2	76.2	-76.6	6.6
2026-01-26 17:47:52.020844	3.4	75.1	-76.9	7.5
2026-01-26 17:47:54.296545	1.8	74.1	-76.9	3.4
2026-01-26 17:47:56.573130	0.5	73.0	-75.8	3.7
2026-01-26 17:47:58.849298	359.3	72.0	-76.9	5.0
2026-01-26 17:48:01.124776	358.2	70.9	-77.2	4.8
2026-01-26 17:48:03.400021	357.3	69.9	-76.3	3.5
2026-01-26 17:48:05.676434	356.4	68.9	-77.0	4.6
2026-01-26 17:48:07.951811	355.7	67.9	-77.7	4.0
2026-01-26 17:48:10.214082	355.0	66.8	-76.6	3.7
2026-01-26 17:48:12.476986	354.4	65.8	-76.2	4.0
2026-01-26 17:48:14.742731	353.8	64.9	-77.0	3.2
2026-01-26 17:48:17.005523	353.3	63.9	-76.9	3.4
2026-01-26 17:48:19.274195	352.8	62.9	-76.8	4.5
2026-01-26 17:48:21.542400	352.4	62.0	-76.1	2.1
2026-01-26 17:48:23.810788	352.0	61.0	-76.8	2.9
2026-01-26 17:48:26.085505	351.6	60.1	-77.4	4.6
2026-01-26 17:48:28.357269	351.3	59.2	-76.8	3.0
2026-01-26 17:48:30.632133	351.0	58.2	-77.1	5.0
2026-01-26 17:48:32.907372	350.7	57.3	-77.2	3.9
2026-01-26 17:48:35.180726	350.4	56.5	-76.7	3.2
2026-01-26 17:48:37.446969	350.1	55.6	-76.2	3.0
2026-01-26 17:48:39.708209	349.9	54.7	-77.5	5.6
2026-01-26 17:48:41.976345	349.6	53.9	-76.9	3.7
2026-01-26 17:48:44.254189	349.4	53.1	-76.6	3.9
2026-01-26 17:48:46.530659	349.2	52.3	-76.3	2.5
2026-01-26 17:48:48.808160	349.0	51.4	-75.2	2.4
2026-01-26 17:48:51.079059	348.8	50.7	-75.2	2.4
2026-01-26 17:48:53.352404	348.6	49.9	-75.5	2.2
2026-01-26 17:48:55.615892	348.5	49.1	-75.7	4.2
2026-01-26 17:48:57.877804	348.3	48.4	-73.5	1.7
2026-01-26 17:49:00.140268	348.2	47.6	-74.4	4.0
2026-01-26 17:49:02.401637	348.0	46.9	-74.6	3.1
2026-01-26 17:49:04.664365	347.9	46.2	-73.0	3.6
2026-01-26 17:49:06.927889	347.8	45.5	-73.8	2.2
2026-01-26 17:49:09.194677	347.6	44.8	-72.8	0.1
2026-01-26 17:49:11.461073	347.5	44.1	-74.1	3.4
2026-01-26 17:49:13.730695	347.4	43.5	-72.5	0.0
2026-01-26 17:49:15.992493	347.3	42.8	-73.5	0.7
2026-01-26 17:49:18.253034	347.2	42.2	-72.6	0.6
2026-01-26 17:49:20.510978	347.1	41.6	-73.3	2.4
2026-01-26 17:49:22.772410	347.0	40.9	-72.6	0.0
2026-01-26 17:49:25.033839	346.9	40.3	-72.5	0.8
2026-01-26 17:49:27.298025	346.8	39.7	-71.3	0.0
2026-01-26 17:49:29.564062	346.8	39.1	-68.9	0.0
2026-01-26 17:49:31.827042	346.7	38.6	-71.2	0.0
2026-01-26 17:49:34.089385	346.6	38.0	-70.4	0.0
2026-01-26 17:49:36.366519	346.5	37.4	-71.7	0.0
2026-01-26 17:49:38.639982	346.4	36.9	-70.4	0.0
2026-01-26 17:49:40.912055	346.4	36.3	-71.5	0.0
2026-01-26 17:49:43.186091	346.3	35.8	-70.6	0.0
2026-01-26 17:49:45.460263	346.2	35.3	-69.8	0.0
2026-01-26 17:49:47.733179	346.2	34.7	-71.2	0.0
2026-01-26 17:49:50.005005	346.1	34.2	-68.6	0.0
2026-01-26 17:49:52.282380	346.1	33.7	-70.2	0.0
2026-01-26 17:49:54.552605	346.0	33.2	-70.1	0.0
2026-01-26 17:49:56.824760	346.0	32.8	-69.6	0.0
2026-01-26 17:49:59.094415	345.9	32.3	-71.0	0.0
2026-01-26 17:50:01.366948	345.9	31.8	-70.2	0.0
2026-01-26 17:50:03.642026	345.8	31.4	-66.7	0.0
2026-01-26 17:50:05.917402	345.8	30.9	-69.8	0.0
2026-01-26 17:50:08.192330	345.7	30.4	-70.5	0.0
2026-01-26 17:50:10.467373	345.7	30.0	-67.5	0.0
2026-01-26 17:50:12.743315	345.6	29.6	-67.9	0.0
2026-01-26 17:50:15.016433	345.6	29.1	-70.1	0.0
2026-01-26 17:50:17.291428	345.5	28.7	-70.3	0.0
2026-01-26 17:50:19.565953	345.5	28.3	-70.6	0.0
2026-01-26 17:50:21.840711	345.5	27.9	-70.4	0.0
2026-01-26 17:50:24.118678	345.4	27.5	-69.4	0.0
2026-01-26 17:50:26.394206	345.4	27.1	-69.9	0.0
2026-01-26 17:50:28.669313	345.4	26.7	-69.9	0.0
2026-01-26 17:50:30.947765	345.3	26.3	-68.1	0.0
2026-01-26 17:50:33.222027	345.3	25.9	-70.5	0.0
2026-01-26 17:50:35.499407	345.3	25.6	-69.0	0.0
2026-01-26 17:50:37.774257	345.2	25.2	-69.2	0.0
2026-01-26 17:50:40.048176	345.2	24.8	-70.5	0.0
2026-01-26 17:50:42.325745	345.2	24.5	-70.6	0.0
2026-01-26 17:50:44.602208	345.2	24.1	-67.6	0.0
2026-01-26 17:50:46.877399	345.1	23.8	-68.1	0.0
2026-01-26 17:50:49.155342	345.1	23.4	-68.5	0.0
2026-01-26 17:50:51.430460	345.1	23.1	-69.9	0.0
2026-01-26 17:50:53.706806	345.0	22.7	-69.3	0.0
2026-01-26 17:50:55.983132	345.0	22.4	-69.8	0.0
2026-01-26 17:50:58.259911	345.0	22.1	-70.0	0.0
2026-01-26 17:51:00.535366	345.0	21.8	-68.1	0.0
2026-01-26 17:51:02.812826	345.0	21.4	-71.0	0.0
2026-01-26 17:51:05.091592	344.9	21.1	-68.6	0.0
2026-01-26 17:51:07.368823	344.9	20.8	-70.4	0.0
2026-01-26 17:51:09.640795	344.9	20.5	-69.3	0.0
2026-01-26 17:51:11.909710	344.9	20.2	-68.1	0.0
2026-01-26 17:51:14.178097	344.9	19.9	-67.4	0.0
2026-01-26 17:51:16.443826	344.8	19.6	-69.3	0.0
2026-01-26 17:51:18.707328	344.8	19.3	-69.8	0.0
2026-01-26 17:51:20.972073	344.8	19.0	-70.7	0.0
2026-01-26 17:51:23.236540	344.8	18.7	-71.0	0.0
2026-01-26 17:51:25.502464	344.8	18.5	-70.3	0.0
2026-01-26 17:51:27.775317	344.8	18.2	-69.7	0.0
2026-01-26 17:51:30.044089	344.7	17.9	-71.0	0.0
2026-01-26 17:51:32.314020	344.7	17.6	-70.2	0.0
2026-01-26 17:51:34.581528	344.7	17.4	-69.8	0.0
2026-01-26 17:51:36.856385	344.7	17.1	-71.5	0.0
2026-01-26 17:51:39.125848	344.7	16.8	-71.2	0.0
2026-01-26 17:51:41.399992	344.7	16.6	-69.0	0.0
2026-01-26 17:51:43.676335	344.7	16.3	-70.6	0.0
2026-01-26 17:51:45.936854	344.6	16.1	-70.0	0.0
2026-01-26 17:51:48.198578	344.6	15.8	-70.5	0.0
2026-01-26 17:51:50.459456	344.6	15.6	-70.7	0.0
2026-01-26 17:51:52.722976	344.6	15.3	-70.6	0.0
2026-01-26 17:51:54.983904	344.6	15.1	-69.9	0.0
2026-01-26 17:51:57.245117	344.6	14.8	-71.5	0.0
2026-01-26 17:51:59.511640	344.6	14.6	-70.7	0.0
2026-01-26 17:52:01.778802	344.6	14.4	-70.4	0.0
2026-01-26 17:52:04.049217	344.6	14.1	-72.7	0.0
2026-01-26 17:52:06.321387	344.5	13.9	-70.6	0.0
2026-01-26 17:52:08.593438	344.5	13.7	-70.7	0.0
2026-01-26 17:52:10.862693	344.5	13.4	-70.1	0.0
2026-01-26 17:52:13.133113	344.5	13.2	-70.9	0.0
2026-01-26 17:52:15.403670	344.5	13.0	-72.8	0.0
2026-01-26 17:52:17.669487	344.5	12.8	-71.9	0.0
2026-01-26 17:52:19.935892	344.5	12.5	-71.6	0.0
2026-01-26 17:52:22.208160	344.5	12.3	-70.9	0.0
2026-01-26 17:52:24.476918	344.5	12.1	-71.3	0.0
2026-01-26 17:52:26.752348	344.5	11.9	-71.1	0.0
2026-01-26 17:52:29.030459	344.5	11.7	-69.8	0.0
2026-01-26 17:52:31.307950	344.5	11.5	-72.0	0.0
2026-01-26 17:52:33.585895	344.5	11.2	-72.7	0.0
2026-01-26 17:52:35.860557	344.4	11.0	-70.6	0.0
2026-01-26 17:52:38.134371	344.4	10.8	-71.0	0.0
2026-01-26 17:52:40.403363	344.4	10.6	-71.0	0.0
2026-01-26 17:52:42.668825	344.4	10.4	-71.9	0.0
2026-01-26 17:52:44.946412	344.4	10.2	-74.9	0.0
#Closed at: 2026-01-26 17:41:59.964476