passes_logs/2026/01/26/planumMaritime01/planumMaritime01__20260126_170330_METOP-B_rec.log

#Pass ID: 20260126_170330_METOP-B
#Satellite: METOP-B
#Configuration: METOP-B
#Start time: 2026-01-26 17:03:35.465396

#LorettStation: 1.0.0 05.05.2024
#Station: planumMaritime01
#Location: 37.49445 lon 55.92918 lat
#TLE: 1 38771U 12049A   26025.22488633  .00000217  00000+0  11914-3 0  9991
#TLE: 2 38771  98.6733  79.4332 0002986  55.8942 304.2519 14.21428262692957

#Time	Az	El	Level	SNR
2026-01-26 17:03:37.646941	144.2	10.2	-74.9	0.0
2026-01-26 17:03:39.899348	144.1	10.4	-75.4	0.0
2026-01-26 17:03:42.152111	144.0	10.6	-75.0	0.0
2026-01-26 17:03:44.404942	143.9	10.8	-74.1	0.0
2026-01-26 17:03:46.658645	143.8	11.0	-73.9	0.5
2026-01-26 17:03:48.912025	143.8	11.2	-73.4	1.3
2026-01-26 17:03:51.164072	143.7	11.4	-73.9	1.6
2026-01-26 17:03:53.416310	143.6	11.6	-73.8	2.1
2026-01-26 17:03:55.670954	143.5	11.8	-73.7	2.1
2026-01-26 17:03:57.926051	143.4	12.0	-74.1	2.9
2026-01-26 17:04:00.178318	143.3	12.2	-74.2	1.9
2026-01-26 17:04:02.430825	143.2	12.4	-74.3	2.7
2026-01-26 17:04:04.685636	143.1	12.7	-73.6	3.4
2026-01-26 17:04:06.935583	143.0	12.9	-73.7	2.7
2026-01-26 17:04:09.193002	143.0	13.1	-74.0	3.3
2026-01-26 17:04:11.446606	142.9	13.3	-74.1	2.8
2026-01-26 17:04:13.702476	142.8	13.5	-73.8	2.4
2026-01-26 17:04:15.953483	142.7	13.8	-74.1	2.8
2026-01-26 17:04:18.208401	142.6	14.0	-74.0	3.4
2026-01-26 17:04:20.462763	142.5	14.2	-74.0	3.1
2026-01-26 17:04:22.716120	142.4	14.4	-73.7	3.5
2026-01-26 17:04:24.968753	142.2	14.7	-74.3	3.0
2026-01-26 17:04:27.219717	142.1	14.9	-74.0	2.2
2026-01-26 17:04:29.476576	142.0	15.1	-74.0	2.9
2026-01-26 17:04:31.731473	141.9	15.4	-73.8	3.2
2026-01-26 17:04:33.982072	141.8	15.6	-74.0	3.0
2026-01-26 17:04:36.234104	141.7	15.9	-74.3	2.8
2026-01-26 17:04:38.484430	141.6	16.1	-74.2	4.7
2026-01-26 17:04:40.737304	141.4	16.4	-73.7	3.1
2026-01-26 17:04:42.989254	141.3	16.6	-73.8	2.4
2026-01-26 17:04:45.243570	141.2	16.9	-73.6	4.0
2026-01-26 17:04:47.498260	141.1	17.1	-74.1	3.9
2026-01-26 17:04:49.750019	140.9	17.4	-73.5	4.1
2026-01-26 17:04:52.002214	140.8	17.6	-74.1	4.0
2026-01-26 17:04:54.258997	140.7	17.9	-73.7	3.9
2026-01-26 17:04:56.510348	140.5	18.2	-73.7	3.4
2026-01-26 17:04:58.764592	140.4	18.4	-73.6	2.8
2026-01-26 17:05:01.016400	140.3	18.7	-73.5	5.0
2026-01-26 17:05:03.269196	140.1	19.0	-73.5	3.5
2026-01-26 17:05:05.521487	140.0	19.3	-73.8	4.4
2026-01-26 17:05:07.774752	139.8	19.5	-73.6	4.3
2026-01-26 17:05:10.029494	139.7	19.8	-73.7	4.8
2026-01-26 17:05:12.286467	139.5	20.1	-73.3	4.4
2026-01-26 17:05:14.537620	139.4	20.4	-72.7	4.1
2026-01-26 17:05:16.792549	139.2	20.7	-73.0	3.9
2026-01-26 17:05:19.044405	139.0	21.0	-73.1	4.4
2026-01-26 17:05:21.296226	138.9	21.3	-73.2	4.8
2026-01-26 17:05:23.548832	138.7	21.6	-72.7	4.0
2026-01-26 17:05:25.805369	138.5	21.9	-73.3	5.3
2026-01-26 17:05:28.059598	138.4	22.2	-73.0	4.5
2026-01-26 17:05:30.311836	138.2	22.5	-73.4	5.1
2026-01-26 17:05:32.563108	138.0	22.8	-73.3	5.1
2026-01-26 17:05:34.815112	137.8	23.2	-73.1	5.3
2026-01-26 17:05:37.065612	137.6	23.5	-73.0	6.0
2026-01-26 17:05:39.317382	137.4	23.8	-73.3	6.0
2026-01-26 17:05:41.566641	137.2	24.1	-73.4	5.5
2026-01-26 17:05:43.821602	137.0	24.5	-73.3	6.5
2026-01-26 17:05:46.072656	136.8	24.8	-73.4	6.7
2026-01-26 17:05:48.322988	136.6	25.2	-73.4	6.5
2026-01-26 17:05:50.573968	136.3	25.5	-73.5	7.0
2026-01-26 17:05:52.824137	136.1	25.9	-73.1	7.0
2026-01-26 17:05:55.071194	135.9	26.2	-73.4	6.1
2026-01-26 17:05:57.322388	135.7	26.6	-73.1	6.7
2026-01-26 17:05:59.573118	135.4	26.9	-72.9	5.5
2026-01-26 17:06:01.824869	135.2	27.3	-73.5	7.1
2026-01-26 17:06:04.075016	134.9	27.7	-73.7	7.8
2026-01-26 17:06:06.324494	134.7	28.1	-73.5	6.7
2026-01-26 17:06:08.573033	134.4	28.4	-73.3	6.7
2026-01-26 17:06:10.823348	134.1	28.8	-73.5	7.7
2026-01-26 17:06:13.075604	133.8	29.2	-73.1	5.9
2026-01-26 17:06:15.326743	133.6	29.6	-73.0	7.8
2026-01-26 17:06:17.579209	133.3	30.0	-73.2	7.7
2026-01-26 17:06:19.830213	133.0	30.4	-72.2	6.1
2026-01-26 17:06:22.079707	132.6	30.8	-73.4	8.4
2026-01-26 17:06:24.333098	132.3	31.2	-72.5	7.3
2026-01-26 17:06:26.584488	132.0	31.7	-72.0	6.7
2026-01-26 17:06:28.837945	131.7	32.1	-72.2	4.7
2026-01-26 17:06:31.091597	131.3	32.5	-72.6	7.7
2026-01-26 17:06:33.339574	131.0	33.0	-72.5	6.7
2026-01-26 17:06:35.592338	130.6	33.4	-71.0	5.6
2026-01-26 17:06:37.844348	130.2	33.8	-72.4	6.1
2026-01-26 17:06:40.097073	129.9	34.3	-72.4	8.4
2026-01-26 17:06:42.347558	129.5	34.7	-70.9	4.7
2026-01-26 17:06:44.599196	129.1	35.2	-72.1	6.3
2026-01-26 17:06:46.851255	128.6	35.7	-71.6	5.8
2026-01-26 17:06:49.102575	128.2	36.1	-71.3	1.6
2026-01-26 17:06:51.354823	127.8	36.6	-70.0	2.3
2026-01-26 17:06:53.606222	127.3	37.1	-71.0	6.0
2026-01-26 17:06:55.856905	126.8	37.6	-71.0	3.9
2026-01-26 17:06:58.111288	126.3	38.1	-71.2	7.8
2026-01-26 17:07:00.361371	125.8	38.6	-71.7	6.6
2026-01-26 17:07:02.615054	125.3	39.1	-70.4	7.6
2026-01-26 17:07:04.869501	124.8	39.6	-71.7	7.2
2026-01-26 17:07:07.124127	124.3	40.1	-70.1	6.9
2026-01-26 17:07:09.378421	123.7	40.6	-70.0	4.5
2026-01-26 17:07:11.628267	123.1	41.1	-70.1	6.9
2026-01-26 17:07:13.881802	122.5	41.6	-69.4	2.5
2026-01-26 17:07:16.132693	121.9	42.2	-69.6	4.7
2026-01-26 17:07:18.383296	121.2	42.7	-70.4	5.8
2026-01-26 17:07:20.634549	120.6	43.2	-70.4	5.8
2026-01-26 17:07:22.888938	119.9	43.8	-69.7	4.9
2026-01-26 17:07:25.140324	119.2	44.3	-69.4	5.7
2026-01-26 17:07:27.391665	118.4	44.8	-70.0	6.5
2026-01-26 17:07:29.644822	117.7	45.4	-69.6	6.0
2026-01-26 17:07:31.896864	116.9	45.9	-68.7	1.3
2026-01-26 17:07:34.149139	116.0	46.5	-68.5	2.2
2026-01-26 17:07:36.403121	115.2	47.0	-67.8	1.4
2026-01-26 17:07:38.654821	114.3	47.6	-68.9	1.7
2026-01-26 17:07:40.908132	113.4	48.1	-68.3	4.8
2026-01-26 17:07:43.164249	112.5	48.6	-68.5	5.0
2026-01-26 17:07:45.416594	111.5	49.2	-67.3	1.4
2026-01-26 17:07:47.667440	110.5	49.7	-69.6	1.4
2026-01-26 17:07:49.923656	109.4	50.3	-70.7	5.8
2026-01-26 17:07:52.173989	108.3	50.8	-71.1	4.4
2026-01-26 17:07:54.423346	107.2	51.3	-68.9	3.5
2026-01-26 17:07:56.673631	106.1	51.8	-69.0	2.5
2026-01-26 17:07:58.926513	104.9	52.3	-69.6	4.6
2026-01-26 17:08:01.178013	103.6	52.8	-70.7	5.7
2026-01-26 17:08:03.432117	102.3	53.3	-69.6	5.3
2026-01-26 17:08:05.686338	101.0	53.8	-68.5	3.5
2026-01-26 17:08:07.940292	99.6	54.3	-70.1	4.9
2026-01-26 17:08:10.192717	98.2	54.7	-69.3	3.5
2026-01-26 17:08:12.444097	96.7	55.2	-67.5	2.7
2026-01-26 17:08:14.695422	95.2	55.6	-68.7	4.6
2026-01-26 17:08:16.949036	93.6	56.0	-69.8	5.5
2026-01-26 17:08:19.200931	92.0	56.4	-70.6	6.3
2026-01-26 17:08:21.457709	90.4	56.8	-70.5	3.7
2026-01-26 17:08:23.711569	88.7	57.1	-70.0	4.0
2026-01-26 17:08:25.964276	86.9	57.5	-70.0	2.4
2026-01-26 17:08:28.221376	85.1	57.8	-69.3	1.6
2026-01-26 17:08:30.475038	83.3	58.0	-69.8	0.0
2026-01-26 17:08:32.728201	81.5	58.3	-68.3	3.6
2026-01-26 17:08:34.979744	79.6	58.5	-67.5	0.0
2026-01-26 17:08:37.229996	77.6	58.7	-67.5	0.0
2026-01-26 17:08:39.481248	75.7	58.9	-69.3	0.8
2026-01-26 17:08:41.733860	73.7	59.0	-69.8	4.4
2026-01-26 17:08:43.985033	71.7	59.1	-66.5	0.0
2026-01-26 17:08:46.235361	69.8	59.2	-68.3	0.2
2026-01-26 17:08:48.487295	67.7	59.2	-69.0	3.7
2026-01-26 17:08:50.742527	65.7	59.2	-69.4	3.1
2026-01-26 17:08:52.998645	63.7	59.2	-68.7	0.0
2026-01-26 17:08:55.251811	61.7	59.2	-68.4	2.3
2026-01-26 17:08:57.506587	59.7	59.1	-67.0	0.0
2026-01-26 17:08:59.760392	57.7	58.9	-68.7	1.9
2026-01-26 17:09:02.013069	55.8	58.8	-67.8	0.4
2026-01-26 17:09:04.265577	53.9	58.6	-66.6	0.0
2026-01-26 17:09:06.517874	52.0	58.4	-68.5	0.0
2026-01-26 17:09:08.770334	50.1	58.2	-68.8	2.2
2026-01-26 17:09:11.025439	48.2	57.9	-68.9	2.7
2026-01-26 17:09:13.278218	46.4	57.6	-68.6	0.0
2026-01-26 17:09:15.529881	44.7	57.3	-68.6	0.0
2026-01-26 17:09:17.783858	43.0	56.9	-70.1	0.6
2026-01-26 17:09:20.037875	41.3	56.6	-70.2	3.3
2026-01-26 17:09:22.287207	39.7	56.2	-69.9	2.8
2026-01-26 17:09:24.541450	38.1	55.8	-71.3	5.0
2026-01-26 17:09:26.793541	36.6	55.4	-70.3	0.9
2026-01-26 17:09:29.045854	35.1	54.9	-70.3	3.2
2026-01-26 17:09:31.299110	33.6	54.5	-70.9	3.6
2026-01-26 17:09:33.553735	32.2	54.0	-70.6	5.4
2026-01-26 17:09:35.810391	30.9	53.6	-70.1	4.7
2026-01-26 17:09:38.066116	29.6	53.1	-69.5	3.7
2026-01-26 17:09:40.319881	28.3	52.6	-69.6	2.3
2026-01-26 17:09:42.569223	27.1	52.1	-69.7	5.3
2026-01-26 17:09:44.822749	25.9	51.6	-69.9	4.0
2026-01-26 17:09:47.075938	24.8	51.0	-69.1	3.5
2026-01-26 17:09:49.325100	23.7	50.5	-69.7	6.0
2026-01-26 17:09:51.577948	22.6	50.0	-69.3	4.4
2026-01-26 17:09:53.829633	21.6	49.4	-69.3	5.6
2026-01-26 17:09:56.082038	20.6	48.9	-68.1	3.1
2026-01-26 17:09:58.334114	19.6	48.4	-68.8	2.9
2026-01-26 17:10:00.586424	18.7	47.8	-69.6	6.0
2026-01-26 17:10:02.838617	17.8	47.3	-69.1	2.5
2026-01-26 17:10:05.088046	17.0	46.7	-68.1	1.5
2026-01-26 17:10:07.342263	16.1	46.2	-68.7	3.5
2026-01-26 17:10:09.591527	15.3	45.7	-70.0	1.5
2026-01-26 17:10:11.842227	14.6	45.1	-68.7	1.2
2026-01-26 17:10:14.093403	13.8	44.6	-69.2	0.0
2026-01-26 17:10:16.346547	13.1	44.0	-68.1	0.0
2026-01-26 17:10:18.600171	12.4	43.5	-67.4	1.4
2026-01-26 17:10:20.854313	11.7	43.0	-68.8	0.0
2026-01-26 17:10:23.106866	11.1	42.5	-68.4	0.0
2026-01-26 17:10:25.359719	10.4	41.9	-67.2	0.0
2026-01-26 17:10:27.614376	9.8	41.4	-66.2	0.0
2026-01-26 17:10:29.867342	9.2	40.9	-66.2	0.0
2026-01-26 17:10:32.121824	8.7	40.4	-64.6	0.0
2026-01-26 17:10:34.376895	8.1	39.9	-61.7	0.0
2026-01-26 17:10:36.630749	7.6	39.4	-65.6	0.0
2026-01-26 17:10:38.885604	7.0	38.9	-61.8	0.0
2026-01-26 17:10:41.139521	6.5	38.4	-66.2	0.0
2026-01-26 17:10:43.396390	6.0	37.9	-64.2	0.0
2026-01-26 17:10:45.650229	5.6	37.4	-63.5	0.0
2026-01-26 17:10:47.902452	5.1	36.9	-65.1	0.0
2026-01-26 17:10:50.155904	4.7	36.4	-60.4	0.0
2026-01-26 17:10:52.408581	4.2	36.0	-64.9	0.0
2026-01-26 17:10:54.661386	3.8	35.5	-64.0	0.0
2026-01-26 17:10:56.916729	3.4	35.0	-63.2	0.0
2026-01-26 17:10:59.170335	3.0	34.6	-61.8	0.0
2026-01-26 17:11:01.423539	2.6	34.1	-63.9	0.0
2026-01-26 17:11:03.676470	2.2	33.7	-61.4	0.0
2026-01-26 17:11:05.927129	1.9	33.2	-63.5	0.0
2026-01-26 17:11:08.178346	1.5	32.8	-62.8	0.0
2026-01-26 17:11:10.429576	1.2	32.4	-62.8	0.0
2026-01-26 17:11:12.682340	0.8	31.9	-64.3	0.0
2026-01-26 17:11:14.932514	0.5	31.5	-64.5	0.0
2026-01-26 17:11:17.184884	0.2	31.1	-64.6	0.0
2026-01-26 17:11:19.437836	359.9	30.7	-65.0	0.0
2026-01-26 17:11:21.688455	359.6	30.3	-65.2	0.0
2026-01-26 17:11:23.945465	359.3	29.9	-64.3	0.0
2026-01-26 17:11:26.195658	359.0	29.5	-63.9	0.0
2026-01-26 17:11:28.446974	358.7	29.1	-63.8	0.0
2026-01-26 17:11:30.696021	358.4	28.7	-59.1	0.0
2026-01-26 17:11:32.944838	358.2	28.3	-64.5	0.0
2026-01-26 17:11:35.195959	357.9	28.0	-62.5	0.0
2026-01-26 17:11:37.445153	357.6	27.6	-60.3	0.0
2026-01-26 17:11:39.694161	357.4	27.2	-64.4	0.0
2026-01-26 17:11:41.946989	357.2	26.9	-65.3	0.0
2026-01-26 17:11:44.195286	356.9	26.5	-66.0	0.0
2026-01-26 17:11:46.444286	356.7	26.1	-64.1	0.0
2026-01-26 17:11:48.701908	356.5	25.8	-64.2	0.0
2026-01-26 17:11:50.956048	356.2	25.4	-65.1	0.0
2026-01-26 17:11:53.211350	356.0	25.1	-62.8	0.0
2026-01-26 17:11:55.463475	355.8	24.8	-64.9	0.0
2026-01-26 17:11:57.716478	355.6	24.4	-63.1	0.0
2026-01-26 17:11:59.970515	355.4	24.1	-62.7	0.0
2026-01-26 17:12:02.223962	355.2	23.8	-65.2	0.0
2026-01-26 17:12:04.476853	355.0	23.4	-65.7	0.0
2026-01-26 17:12:06.727676	354.8	23.1	-64.9	0.0
2026-01-26 17:12:08.981128	354.6	22.8	-65.4	0.0
2026-01-26 17:12:11.237712	354.5	22.5	-64.8	0.0
2026-01-26 17:12:13.493017	354.3	22.2	-66.6	0.0
2026-01-26 17:12:15.745833	354.1	21.9	-64.3	0.0
2026-01-26 17:12:17.998600	353.9	21.6	-65.8	0.0
2026-01-26 17:12:20.255646	353.8	21.3	-66.4	0.0
2026-01-26 17:12:22.507499	353.6	21.0	-65.2	0.0
2026-01-26 17:12:24.763379	353.4	20.7	-63.9	0.0
2026-01-26 17:12:27.017046	353.3	20.4	-62.6	0.0
2026-01-26 17:12:29.270859	353.1	20.1	-64.8	0.0
2026-01-26 17:12:31.522636	353.0	19.8	-66.0	0.0
2026-01-26 17:12:33.776496	352.8	19.5	-65.6	0.0
2026-01-26 17:12:36.029694	352.7	19.2	-63.4	0.0
2026-01-26 17:12:38.281520	352.5	19.0	-66.3	0.0
2026-01-26 17:12:40.533884	352.4	18.7	-65.9	0.0
2026-01-26 17:12:42.790120	352.3	18.4	-65.1	0.0
2026-01-26 17:12:45.043717	352.1	18.2	-65.8	0.0
2026-01-26 17:12:47.296700	352.0	17.9	-65.6	0.0
2026-01-26 17:12:49.549426	351.9	17.6	-65.6	0.0
2026-01-26 17:12:51.803554	351.7	17.4	-64.0	0.0
2026-01-26 17:12:54.053807	351.6	17.1	-64.6	0.0
2026-01-26 17:12:56.304734	351.5	16.9	-65.3	0.0
2026-01-26 17:12:58.557210	351.4	16.6	-65.7	0.0
2026-01-26 17:13:00.810152	351.2	16.4	-65.8	0.0
2026-01-26 17:13:03.061365	351.1	16.1	-67.4	0.0
2026-01-26 17:13:05.314824	351.0	15.9	-66.9	0.0
2026-01-26 17:13:07.567586	350.9	15.6	-67.5	0.0
2026-01-26 17:13:09.822322	350.8	15.4	-66.5	0.0
2026-01-26 17:13:12.071742	350.7	15.2	-67.2	0.0
2026-01-26 17:13:14.323409	350.6	14.9	-67.2	0.0
2026-01-26 17:13:16.576606	350.5	14.7	-67.3	0.0
2026-01-26 17:13:18.827394	350.4	14.5	-67.0	0.0
2026-01-26 17:13:21.080961	350.3	14.2	-66.7	0.0
2026-01-26 17:13:23.333677	350.2	14.0	-66.9	0.0
2026-01-26 17:13:25.585669	350.1	13.8	-67.3	0.0
2026-01-26 17:13:27.836321	350.0	13.6	-66.9	0.0
2026-01-26 17:13:30.088404	349.9	13.3	-64.4	0.0
2026-01-26 17:13:32.338950	349.8	13.1	-67.4	0.0
2026-01-26 17:13:34.595143	349.7	12.9	-65.1	0.0
2026-01-26 17:13:36.844643	349.6	12.7	-66.3	0.0
2026-01-26 17:13:39.100369	349.5	12.5	-66.2	0.0
2026-01-26 17:13:41.352696	349.4	12.3	-66.5	0.0
2026-01-26 17:13:43.605058	349.3	12.1	-66.1	0.0
2026-01-26 17:13:45.858015	349.3	11.9	-66.7	0.0
2026-01-26 17:13:48.111444	349.2	11.6	-65.6	0.0
2026-01-26 17:13:50.363679	349.1	11.4	-66.4	0.0
2026-01-26 17:13:52.616607	349.0	11.2	-66.0	0.0
2026-01-26 17:13:54.868075	348.9	11.0	-64.6	0.0
2026-01-26 17:13:57.121154	348.8	10.8	-65.7	0.0
2026-01-26 17:13:59.372613	348.8	10.6	-63.2	0.0
2026-01-26 17:14:01.625289	348.7	10.4	-65.4	0.0
2026-01-26 17:14:03.877125	348.6	10.3	-67.6	0.0
2026-01-26 17:14:06.132655	348.5	10.1	-71.7	0.0
#Closed at: 2026-01-26 17:03:30.472460