passes_logs/2026/01/26/planumMaritime01/planumMaritime01__20260126_005959_METEOR-M2_4_rec.log

#Pass ID: 20260126_005959_METEOR-M2 4
#Satellite: METEOR-M2 4
#Configuration: METEOR-M2 4
#Start time: 2026-01-26 01:00:04.982180

#LorettStation: 1.0.0 05.05.2024
#Station: planumMaritime01
#Location: 37.49445 lon 55.92918 lat
#TLE: 1 59051U 24039A   26025.31794597  .00000070  00000+0  51138-4 0  9996
#TLE: 2 59051  98.6829 346.5576 0006298 216.9033 143.1712 14.22409551 98952

#Time	Az	El	Level	SNR
2026-01-26 01:00:07.154827	17.3	10.2	-79.8	0.0
2026-01-26 01:00:09.415652	17.3	10.4	-79.2	0.0
2026-01-26 01:00:11.685351	17.3	10.6	-77.0	0.0
2026-01-26 01:00:13.951707	17.4	10.8	-75.9	0.0
2026-01-26 01:00:16.214868	17.4	11.0	-76.1	0.0
2026-01-26 01:00:18.481048	17.4	11.2	-72.0	0.0
2026-01-26 01:00:20.749357	17.4	11.4	-73.2	0.0
2026-01-26 01:00:23.017504	17.5	11.6	-70.6	0.0
2026-01-26 01:00:25.287086	17.5	11.8	-68.3	0.0
2026-01-26 01:00:27.556594	17.5	12.0	-68.7	0.0
2026-01-26 01:00:29.828999	17.5	12.3	-71.0	0.0
2026-01-26 01:00:32.099650	17.6	12.5	-71.5	0.0
2026-01-26 01:00:34.371592	17.6	12.7	-71.4	0.0
2026-01-26 01:00:36.642344	17.6	12.9	-73.1	0.0
2026-01-26 01:00:38.914003	17.6	13.1	-73.1	0.0
2026-01-26 01:00:41.188619	17.6	13.4	-73.5	0.0
2026-01-26 01:00:43.456487	17.7	13.6	-71.4	0.0
2026-01-26 01:00:45.720206	17.7	13.8	-71.5	0.0
2026-01-26 01:00:47.981880	17.7	14.0	-70.3	0.0
2026-01-26 01:00:50.249180	17.7	14.3	-72.9	0.0
2026-01-26 01:00:52.514812	17.8	14.5	-72.7	0.0
2026-01-26 01:00:54.775576	17.8	14.7	-74.0	0.0
2026-01-26 01:00:57.038837	17.8	15.0	-73.5	0.0
2026-01-26 01:00:59.302789	17.8	15.2	-73.6	0.0
2026-01-26 01:01:01.565995	17.9	15.5	-73.4	0.0
2026-01-26 01:01:03.831111	17.9	15.7	-73.9	0.0
2026-01-26 01:01:06.102277	17.9	16.0	-69.9	0.0
2026-01-26 01:01:08.374432	18.0	16.2	-73.6	0.0
2026-01-26 01:01:10.643048	18.0	16.5	-73.9	0.0
2026-01-26 01:01:12.911795	18.0	16.7	-72.4	0.0
2026-01-26 01:01:15.186420	18.0	17.0	-74.0	0.0
2026-01-26 01:01:17.456584	18.1	17.3	-73.9	0.0
2026-01-26 01:01:19.727845	18.1	17.5	-70.9	0.0
2026-01-26 01:01:22.003207	18.1	17.8	-74.6	0.0
2026-01-26 01:01:24.279749	18.1	18.1	-72.9	0.0
2026-01-26 01:01:26.552860	18.2	18.3	-72.0	0.0
2026-01-26 01:01:28.824529	18.2	18.6	-74.8	0.1
2026-01-26 01:01:31.097388	18.2	18.9	-75.5	0.0
2026-01-26 01:01:33.371757	18.3	19.2	-74.5	0.0
2026-01-26 01:01:35.645696	18.3	19.5	-73.7	0.0
2026-01-26 01:01:37.920165	18.3	19.8	-74.5	0.0
2026-01-26 01:01:40.195243	18.4	20.1	-75.3	1.7
2026-01-26 01:01:42.470353	18.4	20.4	-74.4	0.0
2026-01-26 01:01:44.741231	18.4	20.7	-76.1	0.0
2026-01-26 01:01:47.018187	18.5	21.0	-76.3	2.2
2026-01-26 01:01:49.293259	18.5	21.3	-75.5	1.0
2026-01-26 01:01:51.564376	18.5	21.6	-76.8	0.0
2026-01-26 01:01:53.841975	18.6	21.9	-76.2	3.5
2026-01-26 01:01:56.119085	18.6	22.3	-76.2	1.8
2026-01-26 01:01:58.393506	18.6	22.6	-75.5	0.0
2026-01-26 01:02:00.670198	18.7	22.9	-77.2	0.9
2026-01-26 01:02:02.947424	18.7	23.3	-76.5	0.0
2026-01-26 01:02:05.222375	18.8	23.6	-77.2	0.0
2026-01-26 01:02:07.494627	18.8	23.9	-76.6	0.0
2026-01-26 01:02:09.771897	18.8	24.3	-77.7	3.7
2026-01-26 01:02:12.043527	18.9	24.6	-77.4	3.6
2026-01-26 01:02:14.320005	18.9	25.0	-77.5	5.0
2026-01-26 01:02:16.595131	19.0	25.4	-76.0	2.0
2026-01-26 01:02:18.869278	19.0	25.7	-76.6	3.7
2026-01-26 01:02:21.141039	19.0	26.1	-77.2	5.9
2026-01-26 01:02:23.415389	19.1	26.5	-77.5	4.6
2026-01-26 01:02:25.689163	19.1	26.9	-77.4	5.5
2026-01-26 01:02:27.962258	19.2	27.3	-75.7	1.8
2026-01-26 01:02:30.235900	19.2	27.7	-77.8	4.7
2026-01-26 01:02:32.510080	19.3	28.1	-78.0	8.2
2026-01-26 01:02:34.783204	19.3	28.5	-77.9	6.4
2026-01-26 01:02:37.055450	19.4	28.9	-77.9	7.7
2026-01-26 01:02:39.319438	19.4	29.3	-77.1	6.5
2026-01-26 01:02:41.585445	19.5	29.7	-77.6	5.8
2026-01-26 01:02:43.847356	19.5	30.2	-75.6	1.4
2026-01-26 01:02:46.109965	19.6	30.6	-78.1	8.0
2026-01-26 01:02:48.371404	19.6	31.1	-76.4	5.5
2026-01-26 01:02:50.628159	19.7	31.5	-77.6	6.1
2026-01-26 01:02:52.887135	19.7	32.0	-78.1	6.0
2026-01-26 01:02:55.143281	19.8	32.4	-78.1	7.6
2026-01-26 01:02:57.400512	19.9	32.9	-76.3	3.4
2026-01-26 01:02:59.661757	19.9	33.4	-77.9	5.9
2026-01-26 01:03:01.917618	20.0	33.9	-78.8	9.0
2026-01-26 01:03:04.177728	20.1	34.4	-78.7	9.8
2026-01-26 01:03:06.438217	20.1	34.9	-77.5	5.8
2026-01-26 01:03:08.706778	20.2	35.4	-78.6	6.9
2026-01-26 01:03:10.968605	20.3	35.9	-78.6	8.6
2026-01-26 01:03:13.234988	20.3	36.5	-78.6	9.4
2026-01-26 01:03:15.503404	20.4	37.0	-78.6	8.8
2026-01-26 01:03:17.775377	20.5	37.5	-79.1	9.7
2026-01-26 01:03:20.047658	20.6	38.1	-79.1	8.9
2026-01-26 01:03:22.322574	20.7	38.7	-78.9	7.9
2026-01-26 01:03:24.595952	20.7	39.3	-79.5	10.1
2026-01-26 01:03:26.867089	20.8	39.8	-79.6	9.4
2026-01-26 01:03:29.137426	20.9	40.4	-79.4	9.8
2026-01-26 01:03:31.412132	21.0	41.1	-78.9	9.1
2026-01-26 01:03:33.682349	21.1	41.7	-79.2	9.6
2026-01-26 01:03:35.951725	21.2	42.3	-79.5	8.4
2026-01-26 01:03:38.223565	21.3	43.0	-79.2	7.2
2026-01-26 01:03:40.499075	21.4	43.6	-79.2	7.3
2026-01-26 01:03:42.771119	21.5	44.3	-77.9	5.3
2026-01-26 01:03:45.047087	21.7	45.0	-79.1	7.1
2026-01-26 01:03:47.322032	21.8	45.6	-79.9	8.2
2026-01-26 01:03:49.598691	21.9	46.3	-79.4	6.3
2026-01-26 01:03:51.869151	22.0	47.1	-78.6	7.9
2026-01-26 01:03:54.139791	22.2	47.8	-80.5	7.1
2026-01-26 01:03:56.411712	22.3	48.5	-80.2	7.3
2026-01-26 01:03:58.681624	22.5	49.3	-79.2	4.9
2026-01-26 01:04:00.954376	22.6	50.0	-79.7	5.5
2026-01-26 01:04:03.223539	22.8	50.8	-80.7	8.4
2026-01-26 01:04:05.494843	23.0	51.6	-78.6	4.2
2026-01-26 01:04:07.764951	23.2	52.4	-80.1	6.3
2026-01-26 01:04:10.041897	23.4	53.2	-80.5	6.3
2026-01-26 01:04:12.311367	23.6	54.0	-79.9	2.7
2026-01-26 01:04:14.578868	23.8	54.9	-81.2	6.7
2026-01-26 01:04:16.846701	24.0	55.7	-81.1	2.9
2026-01-26 01:04:19.117379	24.3	56.6	-81.9	5.1
2026-01-26 01:04:21.384931	24.5	57.5	-82.0	5.0
2026-01-26 01:04:23.654665	24.8	58.4	-81.4	2.0
2026-01-26 01:04:25.926641	25.1	59.3	-81.6	2.7
2026-01-26 01:04:28.195160	25.4	60.2	-81.8	3.9
2026-01-26 01:04:30.466023	25.8	61.1	-80.5	1.8
2026-01-26 01:04:32.740053	26.1	62.1	-80.6	5.0
2026-01-26 01:04:35.010900	26.5	63.0	-80.9	7.1
2026-01-26 01:04:37.280543	27.0	64.0	-80.5	6.2
2026-01-26 01:04:39.548993	27.4	65.0	-79.2	4.5
2026-01-26 01:04:41.824242	27.9	66.0	-79.7	6.4
2026-01-26 01:04:44.095228	28.5	67.0	-80.1	7.0
2026-01-26 01:04:46.368305	29.1	68.0	-80.1	5.7
2026-01-26 01:04:48.643177	29.8	69.0	-80.6	6.4
2026-01-26 01:04:50.914365	30.5	70.1	-79.8	6.2
2026-01-26 01:04:53.186926	31.4	71.1	-81.2	5.2
2026-01-26 01:04:55.459915	32.3	72.2	-81.0	4.6
2026-01-26 01:04:57.730836	33.4	73.2	-80.5	4.4
2026-01-26 01:05:00.008304	34.6	74.3	-81.1	7.6
2026-01-26 01:05:02.281447	36.0	75.3	-81.0	8.2
2026-01-26 01:05:04.546099	37.6	76.4	-80.6	8.0
2026-01-26 01:05:06.810130	39.5	77.4	-80.6	9.9
2026-01-26 01:05:09.077759	41.8	78.5	-80.6	9.1
2026-01-26 01:05:11.343652	44.5	79.5	-80.7	8.9
2026-01-26 01:05:13.606953	47.8	80.5	-80.6	9.9
2026-01-26 01:05:15.874733	51.8	81.5	-81.0	10.2
2026-01-26 01:05:18.143078	57.0	82.4	-81.3	8.8
2026-01-26 01:05:20.408813	63.4	83.3	-81.2	8.7
2026-01-26 01:05:22.673241	71.6	84.0	-81.6	9.3
2026-01-26 01:05:24.943961	81.9	84.6	-81.7	7.2
2026-01-26 01:05:27.219853	94.2	85.0	-81.7	10.5
2026-01-26 01:05:29.495756	107.9	85.1	-81.8	9.2
2026-01-26 01:05:31.770945	121.4	84.9	-81.9	10.0
2026-01-26 01:05:34.046152	133.4	84.5	-81.8	10.2
2026-01-26 01:05:36.320818	143.4	83.9	-81.5	11.3
2026-01-26 01:05:38.599067	151.4	83.1	-81.9	9.9
2026-01-26 01:05:40.875438	157.7	82.3	-82.0	10.7
2026-01-26 01:05:43.152169	162.6	81.3	-82.0	10.0
2026-01-26 01:05:45.426236	166.6	80.3	-82.4	9.3
2026-01-26 01:05:47.704634	169.8	79.3	-82.5	9.9
2026-01-26 01:05:49.978306	172.4	78.3	-82.8	9.1
2026-01-26 01:05:52.251655	174.6	77.2	-82.9	9.4
2026-01-26 01:05:54.526146	176.5	76.2	-82.7	10.1
2026-01-26 01:05:56.802772	178.0	75.1	-82.3	8.5
2026-01-26 01:05:59.072842	179.4	74.1	-82.8	9.7
2026-01-26 01:06:01.349055	180.6	73.0	-82.7	8.5
2026-01-26 01:06:03.624254	181.6	71.9	-83.0	8.7
2026-01-26 01:06:05.897853	182.6	70.9	-82.8	9.2
2026-01-26 01:06:08.168264	183.4	69.9	-83.4	7.6
2026-01-26 01:06:10.429051	184.1	68.8	-83.8	7.4
2026-01-26 01:06:12.696373	184.8	67.8	-83.4	8.1
2026-01-26 01:06:14.968049	185.4	66.8	-83.2	6.9
2026-01-26 01:06:17.240037	185.9	65.8	-83.2	7.7
2026-01-26 01:06:19.507534	186.4	64.8	-82.8	8.1
2026-01-26 01:06:21.778094	186.9	63.8	-82.6	9.5
2026-01-26 01:06:24.047974	187.3	62.8	-83.1	8.8
2026-01-26 01:06:26.322041	187.7	61.9	-83.5	8.0
2026-01-26 01:06:28.595327	188.1	60.9	-83.0	7.9
2026-01-26 01:06:30.869158	188.4	60.0	-83.2	9.0
2026-01-26 01:06:33.144510	188.7	59.1	-82.8	8.8
2026-01-26 01:06:35.420802	189.0	58.1	-82.8	8.2
2026-01-26 01:06:37.693468	189.3	57.2	-83.2	9.4
2026-01-26 01:06:39.972184	189.5	56.4	-82.8	9.8
2026-01-26 01:06:42.242256	189.8	55.5	-83.0	9.0
2026-01-26 01:06:44.508869	190.0	54.6	-83.3	8.8
2026-01-26 01:06:46.775196	190.2	53.8	-83.6	7.7
2026-01-26 01:06:49.042261	190.4	53.0	-83.4	8.3
2026-01-26 01:06:51.308682	190.6	52.2	-82.9	8.5
2026-01-26 01:06:53.579970	190.8	51.4	-82.9	8.8
2026-01-26 01:06:55.856263	191.0	50.6	-82.7	8.3
2026-01-26 01:06:58.122738	191.1	49.8	-82.9	8.1
2026-01-26 01:07:00.388985	191.3	49.0	-82.5	8.9
2026-01-26 01:07:02.651240	191.4	48.3	-79.3	0.0
2026-01-26 01:07:04.914943	191.6	47.5	-79.0	0.0
2026-01-26 01:07:07.181841	191.7	46.8	-78.7	0.0
2026-01-26 01:07:09.444358	191.9	46.1	-78.9	0.0
2026-01-26 01:07:11.709056	192.0	45.4	-78.7	0.0
2026-01-26 01:07:13.978360	192.1	44.7	-78.8	0.0
2026-01-26 01:07:16.253864	192.2	44.0	-78.5	0.0
2026-01-26 01:07:18.523524	192.3	43.4	-78.7	0.1
2026-01-26 01:07:20.790393	192.4	42.7	-78.1	0.0
2026-01-26 01:07:23.059079	192.5	42.1	-78.4	0.0
2026-01-26 01:07:25.319359	192.6	41.4	-78.4	0.0
2026-01-26 01:07:27.576846	192.7	40.8	-78.3	0.0
2026-01-26 01:07:29.833661	192.8	40.2	-78.0	0.0
2026-01-26 01:07:32.096638	192.9	39.6	-78.1	0.0
2026-01-26 01:07:34.360632	193.0	39.0	-78.1	0.2
2026-01-26 01:07:36.618141	193.1	38.4	-77.9	0.0
2026-01-26 01:07:38.873607	193.2	37.9	-77.8	1.1
2026-01-26 01:07:41.143191	193.3	37.3	-78.0	0.0
2026-01-26 01:07:43.417910	193.3	36.8	-78.2	0.0
2026-01-26 01:07:45.696227	193.4	36.2	-78.0	0.0
2026-01-26 01:07:47.972877	193.5	35.7	-77.8	0.0
2026-01-26 01:07:50.250511	193.6	35.1	-77.8	1.1
2026-01-26 01:07:52.524778	193.6	34.6	-77.8	0.0
2026-01-26 01:07:54.803889	193.7	34.1	-77.9	0.6
2026-01-26 01:07:57.073279	193.8	33.6	-77.3	0.0
2026-01-26 01:07:59.346509	193.8	33.1	-77.6	0.0
2026-01-26 01:08:01.619615	193.9	32.6	-77.9	0.0
2026-01-26 01:08:03.892427	193.9	32.2	-78.0	0.0
2026-01-26 01:08:06.161243	194.0	31.7	-77.4	0.0
2026-01-26 01:08:08.429434	194.1	31.2	-78.0	2.1
2026-01-26 01:08:10.697807	194.1	30.8	-77.6	3.8
2026-01-26 01:08:12.966769	194.2	30.3	-77.8	1.1
2026-01-26 01:08:15.232800	194.2	29.9	-77.3	1.0
2026-01-26 01:08:17.500305	194.3	29.5	-77.4	0.3
2026-01-26 01:08:19.768586	194.3	29.0	-77.8	1.2
2026-01-26 01:08:22.037353	194.4	28.6	-77.7	4.3
2026-01-26 01:08:24.307489	194.4	28.2	-77.9	2.9
2026-01-26 01:08:26.578130	194.5	27.8	-78.2	0.0
2026-01-26 01:08:28.843990	194.5	27.4	-78.2	1.6
2026-01-26 01:08:31.111196	194.6	27.0	-78.6	3.1
2026-01-26 01:08:33.380225	194.6	26.6	-77.8	4.1
2026-01-26 01:08:35.650248	194.6	26.2	-78.4	3.2
2026-01-26 01:08:37.923999	194.7	25.8	-78.1	4.1
2026-01-26 01:08:40.199524	194.7	25.4	-78.4	3.7
2026-01-26 01:08:42.469279	194.8	25.1	-78.4	3.1
2026-01-26 01:08:44.738012	194.8	24.7	-78.4	4.6
2026-01-26 01:08:47.009224	194.8	24.4	-78.6	3.5
2026-01-26 01:08:49.278998	194.9	24.0	-77.8	3.4
2026-01-26 01:08:51.544553	194.9	23.7	-77.8	2.2
2026-01-26 01:08:53.814489	195.0	23.3	-78.7	3.5
2026-01-26 01:08:56.084311	195.0	23.0	-78.0	4.1
2026-01-26 01:08:58.360001	195.0	22.6	-78.6	1.9
2026-01-26 01:09:00.633854	195.1	22.3	-78.1	3.5
2026-01-26 01:09:02.911543	195.1	22.0	-80.3	2.5
2026-01-26 01:09:05.183825	195.1	21.6	-79.7	5.3
2026-01-26 01:09:07.454544	195.2	21.3	-79.3	4.6
2026-01-26 01:09:09.730202	195.2	21.0	-79.6	4.2
2026-01-26 01:09:12.001399	195.2	20.7	-79.9	5.2
2026-01-26 01:09:14.279030	195.3	20.4	-79.7	6.2
2026-01-26 01:09:16.552648	195.3	20.1	-79.7	6.6
2026-01-26 01:09:18.827719	195.3	19.8	-79.6	5.8
2026-01-26 01:09:21.105328	195.4	19.5	-79.2	3.1
2026-01-26 01:09:23.380588	195.4	19.2	-79.6	5.4
2026-01-26 01:09:25.653182	195.4	18.9	-79.8	5.7
2026-01-26 01:09:27.926943	195.4	18.6	-79.8	5.9
2026-01-26 01:09:30.202260	195.5	18.3	-79.6	4.1
2026-01-26 01:09:32.464022	195.5	18.1	-79.2	4.3
2026-01-26 01:09:34.726779	195.5	17.8	-80.0	2.5
2026-01-26 01:09:36.987683	195.6	17.5	-79.5	3.5
2026-01-26 01:09:39.248057	195.6	17.2	-79.8	3.9
2026-01-26 01:09:41.510856	195.6	17.0	-79.5	0.0
2026-01-26 01:09:43.776695	195.6	16.7	-79.5	2.7
2026-01-26 01:09:46.046048	195.7	16.4	-79.5	1.0
2026-01-26 01:09:48.313442	195.7	16.2	-79.4	2.5
2026-01-26 01:09:50.575992	195.7	15.9	-79.5	2.2
2026-01-26 01:09:52.843480	195.7	15.7	-79.7	1.6
2026-01-26 01:09:55.110868	195.8	15.4	-79.1	3.3
2026-01-26 01:09:57.382002	195.8	15.2	-79.3	1.9
2026-01-26 01:09:59.650535	195.8	14.9	-79.1	1.0
2026-01-26 01:10:01.918032	195.8	14.7	-79.2	2.9
2026-01-26 01:10:04.189917	195.9	14.4	-78.9	0.0
2026-01-26 01:10:06.459196	195.9	14.2	-79.2	0.7
2026-01-26 01:10:08.727728	195.9	14.0	-79.2	1.7
2026-01-26 01:10:10.996581	195.9	13.7	-78.7	0.0
2026-01-26 01:10:13.270165	196.0	13.5	-78.5	4.2
2026-01-26 01:10:15.537957	196.0	13.3	-78.4	2.8
2026-01-26 01:10:17.805231	196.0	13.1	-78.9	0.0
2026-01-26 01:10:20.071198	196.0	12.8	-79.2	0.0
2026-01-26 01:10:22.339496	196.0	12.6	-79.8	0.0
2026-01-26 01:10:24.614634	196.1	12.4	-79.6	1.4
2026-01-26 01:10:26.887184	196.1	12.2	-79.1	1.1
2026-01-26 01:10:29.155099	196.1	11.9	-78.7	0.0
2026-01-26 01:10:31.428341	196.1	11.7	-77.9	0.2
2026-01-26 01:10:33.696416	196.1	11.5	-78.4	0.0
2026-01-26 01:10:35.966983	196.2	11.3	-79.0	0.0
2026-01-26 01:10:38.239251	196.2	11.1	-78.6	0.0
2026-01-26 01:10:40.513284	196.2	10.9	-78.4	2.7
2026-01-26 01:10:42.788411	196.2	10.7	-79.6	0.0
2026-01-26 01:10:45.065093	196.2	10.5	-79.9	0.0
2026-01-26 01:10:47.339198	196.3	10.3	-81.8	0.0
2026-01-26 01:10:49.610871	196.3	10.1	-82.9	0.0
#Closed at: 2026-01-26 00:59:59.989108