passes_logs/2026/01/26/planumMaritime01/planumMaritime01__20260126_104937_METEOR-M2_4_rec.log

#Pass ID: 20260126_104937_METEOR-M2 4
#Satellite: METEOR-M2 4
#Configuration: METEOR-M2 4
#Start time: 2026-01-26 10:49:42.455053

#LorettStation: 1.0.0 05.05.2024
#Station: planumMaritime01
#Location: 37.49445 lon 55.92918 lat
#TLE: 1 59051U 24039A   26025.31794597  .00000070  00000+0  51138-4 0  9996
#TLE: 2 59051  98.6829 346.5576 0006298 216.9033 143.1712 14.22409551 98952

#Time	Az	El	Level	SNR
2026-01-26 10:49:44.624366	143.0	10.2	-79.7	0.0
2026-01-26 10:49:46.881150	142.9	10.4	-81.0	0.0
2026-01-26 10:49:49.135810	142.8	10.6	-79.9	0.0
2026-01-26 10:49:51.391975	142.8	10.8	-78.2	0.0
2026-01-26 10:49:53.650447	142.7	11.0	-78.7	7.1
2026-01-26 10:49:55.907855	142.6	11.2	-77.2	0.0
2026-01-26 10:49:58.164539	142.5	11.4	-77.2	0.0
2026-01-26 10:50:00.420577	142.4	11.6	-77.8	5.5
2026-01-26 10:50:02.679880	142.3	11.8	-78.1	0.0
2026-01-26 10:50:04.936003	142.2	12.0	-77.8	0.0
2026-01-26 10:50:07.203043	142.1	12.2	-78.1	5.5
2026-01-26 10:50:09.480544	142.0	12.4	-77.9	1.0
2026-01-26 10:50:11.756297	141.9	12.6	-78.3	0.0
2026-01-26 10:50:14.033436	141.8	12.9	-77.3	0.0
2026-01-26 10:50:16.308377	141.7	13.1	-76.9	1.2
2026-01-26 10:50:18.585499	141.6	13.3	-78.1	7.8
2026-01-26 10:50:20.859366	141.5	13.5	-77.9	7.6
2026-01-26 10:50:23.136442	141.4	13.8	-78.2	6.7
2026-01-26 10:50:25.415204	141.3	14.0	-77.6	6.2
2026-01-26 10:50:27.687375	141.2	14.2	-78.4	2.1
2026-01-26 10:50:29.960421	141.1	14.4	-78.0	7.7
2026-01-26 10:50:32.233134	141.0	14.7	-77.9	6.7
2026-01-26 10:50:34.506018	140.8	14.9	-77.7	5.9
2026-01-26 10:50:36.776952	140.7	15.1	-76.9	7.4
2026-01-26 10:50:39.046715	140.6	15.4	-78.3	5.2
2026-01-26 10:50:41.320716	140.5	15.6	-77.9	4.8
2026-01-26 10:50:43.596310	140.4	15.9	-78.2	7.3
2026-01-26 10:50:45.870044	140.2	16.1	-78.0	6.5
2026-01-26 10:50:48.144186	140.1	16.4	-78.3	6.7
2026-01-26 10:50:50.415971	140.0	16.6	-77.6	5.9
2026-01-26 10:50:52.687835	139.8	16.9	-78.1	7.6
2026-01-26 10:50:54.963231	139.7	17.1	-77.2	5.4
2026-01-26 10:50:57.235427	139.6	17.4	-76.9	4.9
2026-01-26 10:50:59.505514	139.4	17.6	-78.1	6.8
2026-01-26 10:51:01.770587	139.3	17.9	-78.1	6.5
2026-01-26 10:51:04.039738	139.1	18.2	-77.6	6.0
2026-01-26 10:51:06.313916	139.0	18.4	-77.6	5.9
2026-01-26 10:51:08.586934	138.8	18.7	-78.3	6.3
2026-01-26 10:51:10.858364	138.7	19.0	-77.9	7.8
2026-01-26 10:51:13.129415	138.5	19.3	-77.4	7.1
2026-01-26 10:51:15.400869	138.4	19.6	-77.7	4.6
2026-01-26 10:51:17.677361	138.2	19.8	-77.7	3.3
2026-01-26 10:51:19.951855	138.0	20.1	-78.1	5.7
2026-01-26 10:51:22.225379	137.9	20.4	-77.3	6.4
2026-01-26 10:51:24.502793	137.7	20.7	-77.5	7.8
2026-01-26 10:51:26.777776	137.5	21.0	-77.6	4.8
2026-01-26 10:51:29.055007	137.3	21.3	-77.8	5.2
2026-01-26 10:51:31.330231	137.2	21.6	-78.0	8.6
2026-01-26 10:51:33.602821	137.0	21.9	-78.0	8.5
2026-01-26 10:51:35.876396	136.8	22.2	-77.2	7.7
2026-01-26 10:51:38.149513	136.6	22.5	-78.1	9.1
2026-01-26 10:51:40.427091	136.4	22.9	-77.7	7.3
2026-01-26 10:51:42.701701	136.2	23.2	-78.1	9.0
2026-01-26 10:51:44.957729	136.0	23.5	-78.2	8.6
2026-01-26 10:51:47.213796	135.8	23.8	-77.8	7.5
2026-01-26 10:51:49.470761	135.6	24.1	-77.6	7.4
2026-01-26 10:51:51.726476	135.3	24.5	-77.8	8.3
2026-01-26 10:51:53.984667	135.1	24.8	-77.8	8.1
2026-01-26 10:51:56.248993	134.9	25.2	-77.0	7.6
2026-01-26 10:51:58.505533	134.6	25.5	-78.2	9.9
2026-01-26 10:52:00.762026	134.4	25.8	-78.1	11.2
2026-01-26 10:52:03.019881	134.2	26.2	-78.2	10.9
2026-01-26 10:52:05.276466	133.9	26.6	-78.1	9.2
2026-01-26 10:52:07.545201	133.6	26.9	-77.6	8.8
2026-01-26 10:52:09.817062	133.4	27.3	-77.8	9.5
2026-01-26 10:52:12.089118	133.1	27.7	-78.2	10.5
2026-01-26 10:52:14.363136	132.8	28.0	-77.6	8.8
2026-01-26 10:52:16.638656	132.6	28.4	-77.7	9.3
2026-01-26 10:52:18.912174	132.3	28.8	-78.2	10.3
2026-01-26 10:52:21.184389	132.0	29.2	-77.5	8.4
2026-01-26 10:52:23.459577	131.7	29.6	-78.1	9.7
2026-01-26 10:52:25.735944	131.3	30.0	-78.0	10.3
2026-01-26 10:52:28.010379	131.0	30.4	-77.6	10.2
2026-01-26 10:52:30.281869	130.7	30.8	-77.7	10.6
2026-01-26 10:52:32.553439	130.3	31.2	-77.0	7.2
2026-01-26 10:52:34.827088	130.0	31.6	-77.1	9.6
2026-01-26 10:52:37.103280	129.6	32.0	-77.6	9.9
2026-01-26 10:52:39.381630	129.3	32.5	-77.1	8.2
2026-01-26 10:52:41.657391	128.9	32.9	-77.7	9.6
2026-01-26 10:52:43.932905	128.5	33.3	-77.2	7.0
2026-01-26 10:52:46.206522	128.1	33.8	-77.7	9.5
2026-01-26 10:52:48.480832	127.7	34.2	-77.4	8.8
2026-01-26 10:52:50.756258	127.3	34.7	-77.0	7.2
2026-01-26 10:52:53.026485	126.9	35.1	-76.1	4.3
2026-01-26 10:52:55.291513	126.4	35.6	-76.0	7.7
2026-01-26 10:52:57.559555	126.0	36.0	-76.4	5.4
2026-01-26 10:52:59.823620	125.5	36.5	-76.9	6.1
2026-01-26 10:53:02.087980	125.0	37.0	-77.3	6.9
2026-01-26 10:53:04.356715	124.5	37.5	-77.0	6.9
2026-01-26 10:53:06.625986	124.0	37.9	-76.8	7.3
2026-01-26 10:53:08.888758	123.5	38.4	-76.2	2.6
2026-01-26 10:53:11.156100	122.9	38.9	-75.4	6.6
2026-01-26 10:53:13.421883	122.4	39.4	-76.8	4.9
2026-01-26 10:53:15.686815	121.8	39.9	-75.6	6.0
2026-01-26 10:53:17.946643	121.2	40.4	-75.8	4.8
2026-01-26 10:53:20.209122	120.6	40.9	-74.8	0.9
2026-01-26 10:53:22.471661	119.9	41.4	-75.2	2.3
2026-01-26 10:53:24.734245	119.3	41.9	-75.8	2.4
2026-01-26 10:53:27.000126	118.6	42.4	-76.4	3.8
2026-01-26 10:53:29.269451	117.9	42.9	-75.8	4.9
2026-01-26 10:53:31.547044	117.2	43.5	-75.2	3.7
2026-01-26 10:53:33.823926	116.4	44.0	-75.5	0.0
2026-01-26 10:53:36.101709	115.7	44.5	-74.6	0.0
2026-01-26 10:53:38.378606	114.9	45.0	-74.6	0.0
2026-01-26 10:53:40.654019	114.0	45.5	-73.8	0.0
2026-01-26 10:53:42.929879	113.2	46.1	-73.4	0.0
2026-01-26 10:53:45.196223	112.3	46.6	-76.5	2.8
2026-01-26 10:53:47.454471	111.4	47.1	-73.7	0.3
2026-01-26 10:53:49.712405	110.4	47.6	-75.4	2.0
2026-01-26 10:53:51.969622	109.5	48.1	-74.8	0.0
2026-01-26 10:53:54.226945	108.5	48.6	-75.7	0.1
2026-01-26 10:53:56.484180	107.4	49.1	-76.2	2.7
2026-01-26 10:53:58.742300	106.4	49.6	-76.7	0.6
2026-01-26 10:54:01.002401	105.3	50.1	-75.4	0.0
2026-01-26 10:54:03.262898	104.1	50.6	-74.7	0.0
2026-01-26 10:54:05.521785	102.9	51.1	-75.7	0.8
2026-01-26 10:54:07.779561	101.7	51.6	-75.9	1.0
2026-01-26 10:54:10.053909	100.5	52.1	-75.8	0.0
2026-01-26 10:54:12.331590	99.1	52.5	-75.9	3.6
2026-01-26 10:54:14.601926	97.8	53.0	-75.7	0.7
2026-01-26 10:54:16.874626	96.4	53.4	-73.2	0.0
2026-01-26 10:54:19.147550	95.0	53.8	-76.6	0.8
2026-01-26 10:54:21.417192	93.5	54.2	-75.4	0.0
2026-01-26 10:54:23.690241	92.0	54.6	-76.5	0.0
2026-01-26 10:54:25.960288	90.5	55.0	-75.3	0.0
2026-01-26 10:54:28.235868	88.9	55.3	-74.5	0.0
2026-01-26 10:54:30.508817	87.2	55.6	-76.5	0.0
2026-01-26 10:54:32.777732	85.6	55.9	-75.1	0.0
2026-01-26 10:54:35.048583	83.9	56.2	-74.9	0.0
2026-01-26 10:54:37.319191	82.1	56.5	-75.7	0.0
2026-01-26 10:54:39.589960	80.4	56.7	-75.1	0.0
2026-01-26 10:54:41.863235	78.6	56.9	-75.0	0.0
2026-01-26 10:54:44.133414	76.8	57.1	-76.3	0.0
2026-01-26 10:54:46.409360	74.9	57.3	-76.6	0.0
2026-01-26 10:54:48.678767	73.0	57.4	-78.5	0.0
2026-01-26 10:54:50.952483	71.2	57.5	-75.0	0.0
2026-01-26 10:54:53.224482	69.3	57.6	-75.2	0.0
2026-01-26 10:54:55.497007	67.4	57.6	-76.1	0.0
2026-01-26 10:54:57.768775	65.5	57.6	-75.9	0.5
2026-01-26 10:55:00.038308	63.6	57.6	-77.1	1.7
2026-01-26 10:55:02.312892	61.7	57.5	-76.2	0.0
2026-01-26 10:55:04.587004	59.8	57.5	-76.4	0.4
2026-01-26 10:55:06.859694	57.9	57.3	-77.6	1.5
2026-01-26 10:55:09.133424	56.1	57.2	-76.7	0.0
2026-01-26 10:55:11.406709	54.2	57.0	-77.3	0.8
2026-01-26 10:55:13.677524	52.4	56.8	-74.8	0.0
2026-01-26 10:55:15.946181	50.7	56.6	-75.9	0.3
2026-01-26 10:55:18.216836	48.9	56.4	-76.9	1.3
2026-01-26 10:55:20.484546	47.2	56.1	-74.0	0.0
2026-01-26 10:55:22.748005	45.5	55.8	-77.5	4.3
2026-01-26 10:55:25.022022	43.9	55.5	-75.9	0.0
2026-01-26 10:55:27.292021	42.2	55.2	-77.5	3.0
2026-01-26 10:55:29.562683	40.7	54.8	-76.7	1.7
2026-01-26 10:55:31.834554	39.1	54.4	-76.2	0.0
2026-01-26 10:55:34.107674	37.6	54.1	-77.1	0.4
2026-01-26 10:55:36.382073	36.2	53.6	-77.2	0.6
2026-01-26 10:55:38.652059	34.8	53.2	-77.0	2.2
2026-01-26 10:55:40.924380	33.4	52.8	-76.7	0.0
2026-01-26 10:55:43.197595	32.1	52.3	-77.9	3.8
2026-01-26 10:55:45.469683	30.8	51.9	-77.8	3.7
2026-01-26 10:55:47.745502	29.6	51.4	-76.5	1.3
2026-01-26 10:55:50.016880	28.3	50.9	-77.6	5.5
2026-01-26 10:55:52.291212	27.2	50.4	-75.9	0.7
2026-01-26 10:55:54.568169	26.0	50.0	-76.6	2.7
2026-01-26 10:55:56.844152	24.9	49.5	-77.2	3.3
2026-01-26 10:55:59.123091	23.9	48.9	-76.6	2.7
2026-01-26 10:56:01.394225	22.9	48.4	-75.7	1.9
2026-01-26 10:56:03.649973	21.9	47.9	-76.0	0.9
2026-01-26 10:56:05.906852	20.9	47.4	-78.1	4.2
2026-01-26 10:56:08.168909	20.0	46.9	-77.2	3.9
2026-01-26 10:56:10.426977	19.1	46.4	-77.8	3.0
2026-01-26 10:56:12.684724	18.2	45.9	-75.7	0.5
2026-01-26 10:56:14.942212	17.4	45.4	-75.4	0.1
2026-01-26 10:56:17.200025	16.6	44.8	-75.3	0.0
2026-01-26 10:56:19.459775	15.8	44.3	-76.9	0.2
2026-01-26 10:56:21.719500	15.1	43.8	-74.7	0.0
2026-01-26 10:56:23.973900	14.3	43.3	-72.6	0.0
2026-01-26 10:56:26.243822	13.6	42.8	-75.7	1.2
2026-01-26 10:56:28.519988	12.9	42.3	-74.2	0.0
2026-01-26 10:56:30.796909	12.3	41.8	-74.7	0.6
2026-01-26 10:56:33.075968	11.6	41.2	-74.0	0.0
2026-01-26 10:56:35.354312	11.0	40.7	-74.2	0.0
2026-01-26 10:56:37.626938	10.4	40.2	-74.2	0.0
2026-01-26 10:56:39.898161	9.8	39.7	-73.7	0.0
2026-01-26 10:56:42.168681	9.2	39.2	-73.7	0.0
2026-01-26 10:56:44.436479	8.7	38.8	-72.8	0.0
2026-01-26 10:56:46.705369	8.1	38.3	-72.3	0.0
2026-01-26 10:56:48.972050	7.6	37.8	-72.3	0.0
2026-01-26 10:56:51.238606	7.1	37.3	-71.2	0.0
2026-01-26 10:56:53.502726	6.6	36.8	-73.3	0.0
2026-01-26 10:56:55.771803	6.1	36.4	-72.2	0.0
2026-01-26 10:56:58.039134	5.7	35.9	-73.1	0.0
2026-01-26 10:57:00.306099	5.2	35.4	-70.7	0.0
2026-01-26 10:57:02.571893	4.8	35.0	-72.6	0.0
2026-01-26 10:57:04.841709	4.4	34.5	-69.1	0.0
2026-01-26 10:57:07.108162	3.9	34.1	-71.8	0.0
2026-01-26 10:57:09.375384	3.5	33.7	-72.5	0.0
2026-01-26 10:57:11.643865	3.2	33.2	-70.8	0.0
2026-01-26 10:57:13.912369	2.8	32.8	-70.5	0.0
2026-01-26 10:57:16.179299	2.4	32.4	-69.8	0.0
2026-01-26 10:57:18.450741	2.0	31.9	-71.1	0.0
2026-01-26 10:57:20.716369	1.7	31.5	-70.0	0.0
2026-01-26 10:57:22.983492	1.3	31.1	-72.1	0.0
2026-01-26 10:57:25.250153	1.0	30.7	-70.9	0.0
2026-01-26 10:57:27.517109	0.7	30.3	-65.7	0.0
2026-01-26 10:57:29.783504	0.4	29.9	-71.3	0.0
2026-01-26 10:57:32.055978	0.1	29.5	-73.5	0.0
2026-01-26 10:57:34.330566	359.8	29.1	-71.9	0.0
2026-01-26 10:57:36.605573	359.5	28.7	-71.5	0.0
2026-01-26 10:57:38.880042	359.2	28.4	-72.6	0.0
2026-01-26 10:57:41.155347	358.9	28.0	-72.3	0.0
2026-01-26 10:57:43.429720	358.6	27.6	-71.9	0.0
2026-01-26 10:57:45.706060	358.4	27.2	-71.7	0.0
2026-01-26 10:57:47.981144	358.1	26.9	-73.5	0.0
2026-01-26 10:57:50.259683	357.8	26.5	-73.3	0.0
2026-01-26 10:57:52.532615	357.6	26.2	-72.9	0.0
2026-01-26 10:57:54.807034	357.4	25.8	-71.4	0.0
2026-01-26 10:57:57.080675	357.1	25.5	-72.8	0.0
2026-01-26 10:57:59.355821	356.9	25.1	-71.9	0.0
2026-01-26 10:58:01.632488	356.7	24.8	-71.1	0.0
2026-01-26 10:58:03.899127	356.4	24.4	-72.8	0.0
2026-01-26 10:58:06.157027	356.2	24.1	-71.1	0.0
2026-01-26 10:58:08.411122	356.0	23.8	-70.3	0.0
2026-01-26 10:58:10.667402	355.8	23.5	-69.4	0.0
2026-01-26 10:58:12.923969	355.6	23.1	-69.0	0.0
2026-01-26 10:58:15.183052	355.4	22.8	-72.1	0.0
2026-01-26 10:58:17.439875	355.2	22.5	-70.8	0.0
2026-01-26 10:58:19.698763	355.0	22.2	-72.9	0.0
2026-01-26 10:58:21.954413	354.8	21.9	-73.2	0.0
2026-01-26 10:58:24.210938	354.6	21.6	-71.0	0.0
2026-01-26 10:58:26.465944	354.5	21.3	-70.8	0.0
2026-01-26 10:58:28.726119	354.3	21.0	-72.1	0.0
2026-01-26 10:58:30.999971	354.1	20.7	-70.5	0.0
2026-01-26 10:58:33.274546	353.9	20.4	-72.0	0.0
2026-01-26 10:58:35.550279	353.8	20.1	-72.0	0.0
2026-01-26 10:58:37.824900	353.6	19.8	-72.4	0.0
2026-01-26 10:58:40.102314	353.5	19.6	-71.5	0.0
2026-01-26 10:58:42.377013	353.3	19.3	-71.8	0.0
2026-01-26 10:58:44.653816	353.1	19.0	-71.2	0.0
2026-01-26 10:58:46.927946	353.0	18.7	-72.2	0.0
2026-01-26 10:58:49.204297	352.8	18.5	-71.6	0.0
2026-01-26 10:58:51.478706	352.7	18.2	-70.3	0.0
2026-01-26 10:58:53.752913	352.6	17.9	-72.6	0.0
2026-01-26 10:58:56.027348	352.4	17.7	-71.2	0.0
2026-01-26 10:58:58.302653	352.3	17.4	-72.5	0.0
2026-01-26 10:59:00.581261	352.1	17.1	-72.8	0.0
2026-01-26 10:59:02.853262	352.0	16.9	-72.4	0.0
2026-01-26 10:59:05.129609	351.9	16.6	-73.9	0.0
2026-01-26 10:59:07.401778	351.8	16.4	-73.2	0.0
2026-01-26 10:59:09.670638	351.6	16.1	-72.6	0.0
2026-01-26 10:59:11.938178	351.5	15.9	-72.6	0.0
2026-01-26 10:59:14.205459	351.4	15.7	-72.5	0.0
2026-01-26 10:59:16.469573	351.3	15.4	-73.0	0.0
2026-01-26 10:59:18.740807	351.1	15.2	-72.8	0.0
2026-01-26 10:59:21.018863	351.0	14.9	-72.5	0.0
2026-01-26 10:59:23.293387	350.9	14.7	-73.6	0.0
2026-01-26 10:59:25.569698	350.8	14.5	-75.0	0.0
2026-01-26 10:59:27.844741	350.7	14.2	-74.7	0.0
2026-01-26 10:59:30.117233	350.6	14.0	-73.6	0.0
2026-01-26 10:59:32.396324	350.5	13.8	-73.9	0.0
2026-01-26 10:59:34.666044	350.4	13.6	-72.5	0.0
2026-01-26 10:59:36.936935	350.3	13.3	-73.1	0.0
2026-01-26 10:59:39.200987	350.2	13.1	-71.4	0.0
2026-01-26 10:59:41.469254	350.1	12.9	-71.9	0.0
2026-01-26 10:59:43.736878	350.0	12.7	-73.7	0.0
2026-01-26 10:59:46.007118	349.9	12.5	-72.3	0.0
2026-01-26 10:59:48.275087	349.8	12.3	-72.3	0.0
2026-01-26 10:59:50.546022	349.7	12.1	-71.5	0.0
2026-01-26 10:59:52.813525	349.6	11.9	-69.1	0.0
2026-01-26 10:59:55.091888	349.5	11.6	-70.4	0.0
2026-01-26 10:59:57.363447	349.4	11.4	-73.8	0.0
2026-01-26 10:59:59.635480	349.3	11.2	-71.9	0.0
2026-01-26 11:00:01.909929	349.3	11.0	-70.8	0.0
2026-01-26 11:00:04.180726	349.2	10.8	-72.0	0.0
2026-01-26 11:00:06.449541	349.1	10.6	-72.7	0.0
2026-01-26 11:00:08.713613	349.0	10.4	-73.5	0.0
2026-01-26 11:00:10.974332	348.9	10.2	-73.8	0.0
2026-01-26 11:00:13.239819	348.8	10.0	-77.6	0.0
#Closed at: 2026-01-26 10:49:37.461253