passes_logs/2026/01/26/planumMaritime01/planumMaritime01__20260126_075118_METOP-C_rec.log

#Pass ID: 20260126_075118_METOP-C
#Satellite: METOP-C
#Configuration: METOP-C
#Start time: 2026-01-26 07:51:23.758005

#LorettStation: 1.0.0 05.05.2024
#Station: planumMaritime01
#Location: 37.49445 lon 55.92918 lat
#TLE: 1 43689U 18087A   26025.32165390  .00000214  00000+0  11767-3 0  9999
#TLE: 2 43689  98.6860  87.4089 0001078 164.4879 195.6331 14.21504306374536

#Time	Az	El	Level	SNR
2026-01-26 07:51:25.933905	15.9	10.2	-64.9	0.0
2026-01-26 07:51:28.187792	15.9	10.4	-63.1	0.0
2026-01-26 07:51:30.439455	15.9	10.6	-61.6	0.0
2026-01-26 07:51:32.696379	15.9	10.8	-55.3	0.0
2026-01-26 07:51:34.948140	15.9	11.0	-62.3	0.0
2026-01-26 07:51:37.199470	15.9	11.2	-60.9	0.0
2026-01-26 07:51:39.451858	15.9	11.4	-61.2	0.0
2026-01-26 07:51:41.704561	15.9	11.6	-57.5	0.0
2026-01-26 07:51:43.953939	15.8	11.8	-55.7	0.0
2026-01-26 07:51:46.208167	15.8	12.0	-57.7	0.0
2026-01-26 07:51:48.460941	15.8	12.2	-58.9	0.0
2026-01-26 07:51:50.713856	15.8	12.5	-62.7	0.0
2026-01-26 07:51:52.966606	15.8	12.7	-62.0	0.0
2026-01-26 07:51:55.219486	15.8	12.9	-59.6	0.0
2026-01-26 07:51:57.474857	15.8	13.1	-61.7	0.0
2026-01-26 07:51:59.729152	15.8	13.3	-59.8	0.0
2026-01-26 07:52:01.983881	15.8	13.6	-61.4	0.0
2026-01-26 07:52:04.236721	15.8	13.8	-55.4	0.0
2026-01-26 07:52:06.493224	15.8	14.0	-62.8	0.0
2026-01-26 07:52:08.749294	15.8	14.3	-62.6	0.0
2026-01-26 07:52:11.005709	15.8	14.5	-60.9	0.0
2026-01-26 07:52:13.257166	15.8	14.7	-62.0	0.0
2026-01-26 07:52:15.511847	15.8	15.0	-60.6	0.0
2026-01-26 07:52:17.763904	15.8	15.2	-63.6	0.0
2026-01-26 07:52:20.018444	15.8	15.4	-59.8	0.0
2026-01-26 07:52:22.272473	15.8	15.7	-62.7	0.0
2026-01-26 07:52:24.527360	15.8	15.9	-63.7	0.0
2026-01-26 07:52:26.784336	15.7	16.2	-63.1	0.0
2026-01-26 07:52:29.037836	15.7	16.4	-64.0	0.0
2026-01-26 07:52:31.291882	15.7	16.7	-62.8	0.0
2026-01-26 07:52:33.542669	15.7	17.0	-63.4	0.0
2026-01-26 07:52:35.794804	15.7	17.2	-59.3	0.0
2026-01-26 07:52:38.048647	15.7	17.5	-62.6	0.0
2026-01-26 07:52:40.306542	15.7	17.8	-60.9	0.0
2026-01-26 07:52:42.559770	15.7	18.0	-62.6	0.0
2026-01-26 07:52:44.810310	15.7	18.3	-62.2	0.0
2026-01-26 07:52:47.063356	15.7	18.6	-62.3	0.0
2026-01-26 07:52:49.317242	15.7	18.9	-62.2	0.0
2026-01-26 07:52:51.572152	15.6	19.1	-61.1	0.0
2026-01-26 07:52:53.828392	15.6	19.4	-62.9	0.0
2026-01-26 07:52:56.083829	15.6	19.7	-61.4	0.0
2026-01-26 07:52:58.338722	15.6	20.0	-61.2	0.0
2026-01-26 07:53:00.594228	15.6	20.3	-61.5	0.0
2026-01-26 07:53:02.847112	15.6	20.6	-62.2	0.0
2026-01-26 07:53:05.099078	15.6	20.9	-62.8	0.0
2026-01-26 07:53:07.354521	15.6	21.2	-63.2	0.0
2026-01-26 07:53:09.608604	15.5	21.5	-63.3	0.0
2026-01-26 07:53:11.863810	15.5	21.9	-62.9	0.0
2026-01-26 07:53:14.119500	15.5	22.2	-63.1	0.0
2026-01-26 07:53:16.371955	15.5	22.5	-61.4	0.0
2026-01-26 07:53:18.626938	15.5	22.8	-63.4	0.0
2026-01-26 07:53:20.880135	15.5	23.2	-62.1	0.0
2026-01-26 07:53:23.130768	15.4	23.5	-61.6	0.0
2026-01-26 07:53:25.381587	15.4	23.8	-60.4	0.0
2026-01-26 07:53:27.634379	15.4	24.2	-61.6	0.0
2026-01-26 07:53:29.888721	15.4	24.5	-63.6	0.0
2026-01-26 07:53:32.140607	15.4	24.9	-62.7	0.0
2026-01-26 07:53:34.394847	15.3	25.2	-64.2	0.0
2026-01-26 07:53:36.648793	15.3	25.6	-62.5	0.0
2026-01-26 07:53:38.902411	15.3	26.0	-63.6	0.0
2026-01-26 07:53:41.154816	15.3	26.4	-63.9	0.0
2026-01-26 07:53:43.412864	15.3	26.7	-65.8	0.0
2026-01-26 07:53:45.666679	15.2	27.1	-63.8	0.0
2026-01-26 07:53:47.919218	15.2	27.5	-65.0	0.0
2026-01-26 07:53:50.174199	15.2	27.9	-66.7	0.0
2026-01-26 07:53:52.427319	15.2	28.3	-64.3	0.0
2026-01-26 07:53:54.680715	15.1	28.7	-67.2	0.0
2026-01-26 07:53:56.932660	15.1	29.1	-66.0	0.0
2026-01-26 07:53:59.185477	15.1	29.6	-62.4	0.0
2026-01-26 07:54:01.440709	15.0	30.0	-65.1	0.0
2026-01-26 07:54:03.692728	15.0	30.4	-65.5	0.0
2026-01-26 07:54:05.946541	15.0	30.9	-66.0	0.0
2026-01-26 07:54:08.206127	14.9	31.3	-66.8	0.0
2026-01-26 07:54:10.459927	14.9	31.8	-66.2	0.0
2026-01-26 07:54:12.713774	14.9	32.2	-65.2	0.0
2026-01-26 07:54:14.972945	14.8	32.7	-65.5	0.0
2026-01-26 07:54:17.228273	14.8	33.2	-64.3	0.0
2026-01-26 07:54:19.478893	14.8	33.7	-66.1	0.0
2026-01-26 07:54:21.734403	14.7	34.2	-66.1	0.0
2026-01-26 07:54:23.986080	14.7	34.7	-63.8	0.0
2026-01-26 07:54:26.238911	14.6	35.2	-66.0	0.0
2026-01-26 07:54:28.494475	14.6	35.7	-64.7	0.0
2026-01-26 07:54:30.749348	14.5	36.2	-67.8	0.0
2026-01-26 07:54:33.001546	14.5	36.7	-66.4	0.0
2026-01-26 07:54:35.254859	14.4	37.3	-67.6	0.0
2026-01-26 07:54:37.507961	14.4	37.8	-68.3	0.0
2026-01-26 07:54:39.757658	14.3	38.4	-68.1	0.5
2026-01-26 07:54:42.007809	14.2	39.0	-67.1	0.0
2026-01-26 07:54:44.259445	14.2	39.5	-66.3	0.0
2026-01-26 07:54:46.514601	14.1	40.1	-68.3	0.4
2026-01-26 07:54:48.767388	14.1	40.7	-68.5	2.7
2026-01-26 07:54:51.018232	14.0	41.3	-69.1	5.4
2026-01-26 07:54:53.268599	13.9	42.0	-69.8	6.2
2026-01-26 07:54:55.522205	13.8	42.6	-69.1	5.3
2026-01-26 07:54:57.771162	13.8	43.2	-69.3	7.9
2026-01-26 07:55:00.022937	13.7	43.9	-69.8	8.5
2026-01-26 07:55:02.273373	13.6	44.6	-69.9	8.1
2026-01-26 07:55:04.524147	13.5	45.2	-69.8	2.2
2026-01-26 07:55:06.775614	13.4	45.9	-70.1	6.7
2026-01-26 07:55:09.027536	13.3	46.6	-69.6	5.1
2026-01-26 07:55:11.282261	13.2	47.3	-70.9	5.3
2026-01-26 07:55:13.534444	13.1	48.1	-71.2	5.5
2026-01-26 07:55:15.784446	13.0	48.8	-70.6	4.6
2026-01-26 07:55:18.035791	12.8	49.5	-70.8	6.0
2026-01-26 07:55:20.286763	12.7	50.3	-70.4	7.6
2026-01-26 07:55:22.537734	12.6	51.1	-70.9	6.2
2026-01-26 07:55:24.793160	12.4	51.9	-70.1	7.4
2026-01-26 07:55:27.048130	12.3	52.7	-71.0	9.6
2026-01-26 07:55:29.303027	12.1	53.5	-70.9	8.8
2026-01-26 07:55:31.557811	12.0	54.3	-71.8	9.2
2026-01-26 07:55:33.810471	11.8	55.1	-70.6	6.2
2026-01-26 07:55:36.064546	11.6	56.0	-70.1	6.8
2026-01-26 07:55:38.317478	11.4	56.9	-70.9	7.9
2026-01-26 07:55:40.571489	11.2	57.7	-70.8	7.6
2026-01-26 07:55:42.824940	10.9	58.6	-70.8	7.6
2026-01-26 07:55:45.078087	10.7	59.5	-69.9	5.0
2026-01-26 07:55:47.330231	10.4	60.5	-70.4	7.4
2026-01-26 07:55:49.582737	10.1	61.4	-69.8	4.8
2026-01-26 07:55:51.835354	9.8	62.3	-69.1	4.3
2026-01-26 07:55:54.088946	9.4	63.3	-71.1	8.5
2026-01-26 07:55:56.343169	9.1	64.3	-70.2	9.1
2026-01-26 07:55:58.595470	8.7	65.2	-70.3	7.7
2026-01-26 07:56:00.847735	8.2	66.2	-71.1	4.9
2026-01-26 07:56:03.099618	7.7	67.2	-71.3	5.2
2026-01-26 07:56:05.354701	7.2	68.2	-71.8	6.1
2026-01-26 07:56:07.607908	6.6	69.3	-72.2	2.7
2026-01-26 07:56:09.861098	5.9	70.3	-72.1	1.8
2026-01-26 07:56:12.111693	5.2	71.3	-71.7	1.7
2026-01-26 07:56:14.366581	4.3	72.4	-71.7	1.5
2026-01-26 07:56:16.618675	3.4	73.4	-72.2	5.2
2026-01-26 07:56:18.867646	2.3	74.5	-72.5	4.0
2026-01-26 07:56:21.117874	1.0	75.5	-70.5	3.7
2026-01-26 07:56:23.370538	359.6	76.6	-70.8	6.1
2026-01-26 07:56:25.623019	357.8	77.7	-71.8	7.3
2026-01-26 07:56:27.873932	355.8	78.7	-71.2	7.1
2026-01-26 07:56:30.125885	353.3	79.8	-71.6	10.2
2026-01-26 07:56:32.379707	350.2	80.8	-71.1	7.1
2026-01-26 07:56:34.630547	346.4	81.8	-71.1	5.8
2026-01-26 07:56:36.882857	341.5	82.7	-71.8	7.8
2026-01-26 07:56:39.136068	335.2	83.6	-72.0	7.9
2026-01-26 07:56:41.388894	327.0	84.4	-72.3	9.6
2026-01-26 07:56:43.644905	316.3	85.0	-71.4	9.3
2026-01-26 07:56:45.899769	303.1	85.5	-72.6	11.0
2026-01-26 07:56:48.153113	288.2	85.6	-71.9	9.4
2026-01-26 07:56:50.402869	273.3	85.5	-71.8	10.0
2026-01-26 07:56:52.655644	260.2	85.0	-71.6	9.9
2026-01-26 07:56:54.909268	249.7	84.4	-72.3	11.5
2026-01-26 07:56:57.160312	241.5	83.6	-71.6	9.5
2026-01-26 07:56:59.413019	235.3	82.7	-72.2	9.8
2026-01-26 07:57:01.664520	230.5	81.7	-72.2	11.6
2026-01-26 07:57:03.918536	226.7	80.7	-72.5	11.8
2026-01-26 07:57:06.171618	223.6	79.7	-72.9	8.8
2026-01-26 07:57:08.423365	221.1	78.7	-73.5	10.4
2026-01-26 07:57:10.673735	219.1	77.6	-73.2	10.7
2026-01-26 07:57:12.926311	217.4	76.5	-72.7	10.3
2026-01-26 07:57:15.180415	215.9	75.5	-73.3	11.3
2026-01-26 07:57:17.433334	214.7	74.4	-73.9	9.9
2026-01-26 07:57:19.686096	213.6	73.4	-73.9	9.3
2026-01-26 07:57:21.937942	212.6	72.3	-73.6	10.0
2026-01-26 07:57:24.187314	211.8	71.3	-73.4	10.8
2026-01-26 07:57:26.445525	211.1	70.2	-73.6	9.8
2026-01-26 07:57:28.697523	210.4	69.2	-73.5	9.3
2026-01-26 07:57:30.948467	209.8	68.2	-73.3	11.2
2026-01-26 07:57:33.202060	209.3	67.2	-73.0	11.5
2026-01-26 07:57:35.451219	208.8	66.1	-73.1	10.0
2026-01-26 07:57:37.701764	208.3	65.2	-73.4	11.5
2026-01-26 07:57:39.952951	207.9	64.2	-73.3	10.0
2026-01-26 07:57:42.202906	207.6	63.2	-73.0	10.8
2026-01-26 07:57:44.460242	207.2	62.2	-72.7	10.5
2026-01-26 07:57:46.712736	206.9	61.3	-73.3	10.7
2026-01-26 07:57:48.964289	206.6	60.4	-73.1	11.2
2026-01-26 07:57:51.214687	206.3	59.4	-73.2	11.9
2026-01-26 07:57:53.467808	206.1	58.5	-73.5	11.6
2026-01-26 07:57:55.720153	205.8	57.6	-73.6	11.5
2026-01-26 07:57:57.975563	205.6	56.8	-73.7	10.9
2026-01-26 07:58:00.227209	205.4	55.9	-73.2	12.0
2026-01-26 07:58:02.478954	205.2	55.0	-72.9	11.1
2026-01-26 07:58:04.732259	205.0	54.2	-72.9	11.3
2026-01-26 07:58:06.985748	204.9	53.4	-73.4	12.3
2026-01-26 07:58:09.238005	204.7	52.6	-73.1	13.1
2026-01-26 07:58:11.491662	204.6	51.8	-72.9	12.5
2026-01-26 07:58:13.745479	204.4	51.0	-73.0	13.7
2026-01-26 07:58:15.998437	204.3	50.2	-73.5	14.1
2026-01-26 07:58:18.253393	204.1	49.4	-73.6	13.5
2026-01-26 07:58:20.509105	204.0	48.7	-74.1	12.6
2026-01-26 07:58:22.763357	203.9	47.9	-74.3	12.4
2026-01-26 07:58:25.016087	203.8	47.2	-74.5	12.0
2026-01-26 07:58:27.267277	203.7	46.5	-74.2	4.3
2026-01-26 07:58:29.519776	203.6	45.8	-74.5	13.4
2026-01-26 07:58:31.771021	203.5	45.1	-74.2	12.2
2026-01-26 07:58:34.023540	203.4	44.4	-73.7	12.6
2026-01-26 07:58:36.275025	203.3	43.8	-73.5	12.8
2026-01-26 07:58:38.528827	203.2	43.1	-73.8	13.7
2026-01-26 07:58:40.781005	203.2	42.5	-73.6	13.3
2026-01-26 07:58:43.037438	203.1	41.8	-73.4	12.1
2026-01-26 07:58:45.287228	203.0	41.2	-72.5	10.0
2026-01-26 07:58:47.537613	202.9	40.6	-72.6	8.5
2026-01-26 07:58:49.788873	202.9	40.0	-72.7	9.2
2026-01-26 07:58:52.042658	202.8	39.4	-73.0	9.0
2026-01-26 07:58:54.296545	202.7	38.8	-72.8	8.8
2026-01-26 07:58:56.547243	202.7	38.2	-72.6	8.4
2026-01-26 07:58:58.797687	202.6	37.7	-72.7	8.3
2026-01-26 07:59:01.050223	202.6	37.1	-72.3	5.7
2026-01-26 07:59:03.299447	202.5	36.6	-72.2	7.6
2026-01-26 07:59:05.550872	202.5	36.0	-72.5	5.9
2026-01-26 07:59:07.801955	202.4	35.5	-71.6	4.9
2026-01-26 07:59:10.053664	202.4	35.0	-71.8	5.4
2026-01-26 07:59:12.303709	202.3	34.5	-72.1	7.3
2026-01-26 07:59:14.554701	202.3	34.0	-71.6	6.7
2026-01-26 07:59:16.805543	202.2	33.5	-71.8	7.6
2026-01-26 07:59:19.054282	202.2	33.0	-71.8	4.9
2026-01-26 07:59:21.305862	202.1	32.5	-71.2	3.5
2026-01-26 07:59:23.556345	202.1	32.1	-71.7	7.5
2026-01-26 07:59:25.809907	202.1	31.6	-71.0	2.5
2026-01-26 07:59:28.060785	202.0	31.1	-70.8	2.7
2026-01-26 07:59:30.310227	202.0	30.7	-70.5	2.9
2026-01-26 07:59:32.560795	202.0	30.3	-70.9	1.3
2026-01-26 07:59:34.815736	201.9	29.8	-70.3	1.1
2026-01-26 07:59:37.068330	201.9	29.4	-70.4	1.1
2026-01-26 07:59:39.320724	201.9	29.0	-69.6	0.0
2026-01-26 07:59:41.571502	201.8	28.6	-70.5	2.1
2026-01-26 07:59:43.827369	201.8	28.1	-70.3	1.2
2026-01-26 07:59:46.083913	201.8	27.7	-69.8	0.0
2026-01-26 07:59:48.335701	201.8	27.3	-70.3	0.0
2026-01-26 07:59:50.586739	201.7	26.9	-70.6	0.6
2026-01-26 07:59:52.842787	201.7	26.6	-70.3	0.0
2026-01-26 07:59:55.101022	201.7	26.2	-70.3	0.0
2026-01-26 07:59:57.353501	201.7	25.8	-69.4	0.0
2026-01-26 07:59:59.610472	201.6	25.4	-69.3	0.0
2026-01-26 08:00:01.863185	201.6	25.1	-69.4	0.0
2026-01-26 08:00:04.117120	201.6	24.7	-69.4	0.0
2026-01-26 08:00:06.371815	201.6	24.3	-68.7	0.0
2026-01-26 08:00:08.625255	201.5	24.0	-69.0	0.0
2026-01-26 08:00:10.878068	201.5	23.6	-70.1	0.0
2026-01-26 08:00:13.130833	201.5	23.3	-69.0	0.0
2026-01-26 08:00:15.384070	201.5	23.0	-69.9	0.0
2026-01-26 08:00:17.640852	201.5	22.6	-70.1	0.0
2026-01-26 08:00:19.893728	201.5	22.3	-69.7	0.0
2026-01-26 08:00:22.145106	201.4	22.0	-69.4	0.0
2026-01-26 08:00:24.398638	201.4	21.7	-70.2	0.0
2026-01-26 08:00:26.651476	201.4	21.3	-70.3	0.0
2026-01-26 08:00:28.907018	201.4	21.0	-69.8	0.0
2026-01-26 08:00:31.164380	201.4	20.7	-70.8	0.0
2026-01-26 08:00:33.416623	201.4	20.4	-69.9	0.0
2026-01-26 08:00:35.670260	201.3	20.1	-70.2	0.0
2026-01-26 08:00:37.923189	201.3	19.8	-70.1	0.0
2026-01-26 08:00:40.175715	201.3	19.5	-70.4	0.0
2026-01-26 08:00:42.429412	201.3	19.2	-70.6	0.0
2026-01-26 08:00:44.682746	201.3	18.9	-70.4	0.0
2026-01-26 08:00:46.933955	201.3	18.7	-71.0	0.0
2026-01-26 08:00:49.187532	201.3	18.4	-70.2	0.0
2026-01-26 08:00:51.436867	201.2	18.1	-70.2	0.0
2026-01-26 08:00:53.688841	201.2	17.8	-69.5	0.0
2026-01-26 08:00:55.940348	201.2	17.6	-69.9	0.0
2026-01-26 08:00:58.193518	201.2	17.3	-70.4	0.0
2026-01-26 08:01:00.443085	201.2	17.0	-70.3	0.0
2026-01-26 08:01:02.695198	201.2	16.8	-69.7	0.0
2026-01-26 08:01:04.947731	201.2	16.5	-69.9	0.0
2026-01-26 08:01:07.201518	201.2	16.2	-70.1	0.0
2026-01-26 08:01:09.452890	201.2	16.0	-70.1	0.0
2026-01-26 08:01:11.706192	201.2	15.7	-70.3	0.0
2026-01-26 08:01:13.959851	201.1	15.5	-70.8	0.0
2026-01-26 08:01:16.211897	201.1	15.2	-70.5	0.0
2026-01-26 08:01:18.465513	201.1	15.0	-70.5	0.0
2026-01-26 08:01:20.719445	201.1	14.8	-70.8	0.0
2026-01-26 08:01:22.970599	201.1	14.5	-70.2	0.0
2026-01-26 08:01:25.221710	201.1	14.3	-70.9	0.0
2026-01-26 08:01:27.477145	201.1	14.0	-70.0	0.0
2026-01-26 08:01:29.730541	201.1	13.8	-71.5	0.0
2026-01-26 08:01:31.982280	201.1	13.6	-71.3	0.0
2026-01-26 08:01:34.234614	201.1	13.4	-70.7	0.0
2026-01-26 08:01:36.492742	201.1	13.1	-71.8	0.0
2026-01-26 08:01:38.746516	201.1	12.9	-71.1	0.0
2026-01-26 08:01:40.998122	201.1	12.7	-71.9	0.0
2026-01-26 08:01:43.249471	201.0	12.5	-71.5	0.0
2026-01-26 08:01:45.502162	201.0	12.3	-71.6	0.0
2026-01-26 08:01:47.754936	201.0	12.0	-71.0	0.0
2026-01-26 08:01:50.007457	201.0	11.8	-71.8	0.0
2026-01-26 08:01:52.261542	201.0	11.6	-70.7	0.0
2026-01-26 08:01:54.515432	201.0	11.4	-71.4	0.0
2026-01-26 08:01:56.770249	201.0	11.2	-71.3	0.0
2026-01-26 08:01:59.030001	201.0	11.0	-70.9	0.0
2026-01-26 08:02:01.282012	201.0	10.8	-70.3	0.0
2026-01-26 08:02:03.535104	201.0	10.6	-72.2	0.0
2026-01-26 08:02:05.789897	201.0	10.4	-76.0	0.0
2026-01-26 08:02:08.041811	201.0	10.2	-78.2	0.0
#Closed at: 2026-01-26 07:51:18.762874