passes_logs/2026/01/26/planumMaritime01/planumMaritime01__20260126_085414_METOP-B_rec.log

#Pass ID: 20260126_085414_METOP-B
#Satellite: METOP-B
#Configuration: METOP-B
#Start time: 2026-01-26 08:54:19.403882

#LorettStation: 1.0.0 05.05.2024
#Station: planumMaritime01
#Location: 37.49445 lon 55.92918 lat
#TLE: 1 38771U 12049A   26025.22488633  .00000217  00000+0  11914-3 0  9991
#TLE: 2 38771  98.6733  79.4332 0002986  55.8942 304.2519 14.21428262692957

#Time	Az	El	Level	SNR
2026-01-26 08:54:23.592252	358.9	10.3	-66.2	0.0
2026-01-26 08:54:24.720913	358.8	10.4	-67.5	0.0
2026-01-26 08:54:25.846654	358.6	10.4	-66.7	0.0
2026-01-26 08:54:26.970910	358.5	10.5	-67.0	0.0
2026-01-26 08:54:28.098581	358.4	10.6	-67.1	0.0
2026-01-26 08:54:29.226945	358.2	10.7	-62.5	0.0
2026-01-26 08:54:30.351302	358.1	10.7	-66.3	0.0
2026-01-26 08:54:31.476990	358.0	10.8	-67.0	0.0
2026-01-26 08:54:32.602559	357.8	10.9	-65.8	0.0
2026-01-26 08:54:33.729510	357.7	11.0	-63.6	0.0
2026-01-26 08:54:34.857403	357.6	11.1	-63.6	0.0
2026-01-26 08:54:35.985258	357.4	11.1	-66.0	0.0
2026-01-26 08:54:37.109628	357.3	11.2	-61.3	0.0
2026-01-26 08:54:38.237553	357.2	11.3	-60.8	0.0
2026-01-26 08:54:39.363383	357.0	11.4	-58.3	0.0
2026-01-26 08:54:40.489557	356.9	11.5	-67.2	0.0
2026-01-26 08:54:41.617333	356.7	11.5	-66.5	0.0
2026-01-26 08:54:42.743886	356.6	11.6	-67.1	0.0
2026-01-26 08:54:43.871659	356.5	11.7	-66.2	0.0
2026-01-26 08:54:44.997862	356.3	11.8	-67.0	0.0
2026-01-26 08:54:46.126751	356.2	11.8	-66.7	0.0
2026-01-26 08:54:47.253274	356.0	11.9	-66.4	0.0
2026-01-26 08:54:48.380468	355.9	12.0	-66.9	0.0
2026-01-26 08:54:49.508538	355.7	12.1	-67.4	0.0
2026-01-26 08:54:50.634964	355.6	12.2	-65.4	0.0
2026-01-26 08:54:51.762557	355.4	12.2	-65.8	0.0
2026-01-26 08:54:52.891164	355.3	12.3	-66.3	0.0
2026-01-26 08:54:54.018486	355.1	12.4	-66.1	0.0
2026-01-26 08:54:55.145038	355.0	12.5	-64.7	0.0
2026-01-26 08:54:56.271646	354.8	12.6	-65.8	0.0
2026-01-26 08:54:57.399663	354.7	12.6	-65.2	0.0
2026-01-26 08:54:58.528175	354.5	12.7	-64.9	0.0
2026-01-26 08:54:59.654264	354.4	12.8	-67.6	0.0
2026-01-26 08:55:00.780799	354.2	12.9	-67.2	0.0
2026-01-26 08:55:01.906839	354.1	13.0	-66.5	0.0
2026-01-26 08:55:03.033252	353.9	13.0	-64.5	0.0
2026-01-26 08:55:04.163559	353.8	13.1	-68.1	0.0
2026-01-26 08:55:05.290333	353.6	13.2	-67.8	0.0
2026-01-26 08:55:06.419035	353.5	13.3	-66.9	0.0
2026-01-26 08:55:07.547299	353.3	13.4	-66.2	0.0
2026-01-26 08:55:08.674450	353.1	13.4	-65.6	0.0
2026-01-26 08:55:09.801402	353.0	13.5	-67.4	0.0
2026-01-26 08:55:10.927411	352.8	13.6	-66.8	0.0
2026-01-26 08:55:12.056067	352.6	13.7	-68.3	0.0
2026-01-26 08:55:13.182848	352.5	13.8	-67.4	0.0
2026-01-26 08:55:14.311438	352.3	13.8	-65.2	0.0
2026-01-26 08:55:15.435813	352.2	13.9	-67.3	0.0
2026-01-26 08:55:16.560734	352.0	14.0	-68.7	0.0
2026-01-26 08:55:17.688575	351.8	14.1	-69.0	0.0
2026-01-26 08:55:18.816058	351.7	14.2	-68.3	0.0
2026-01-26 08:55:19.941850	351.5	14.2	-68.3	0.0
2026-01-26 08:55:21.068530	351.3	14.3	-66.3	0.0
2026-01-26 08:55:22.194339	351.1	14.4	-66.1	0.0
2026-01-26 08:55:23.320897	351.0	14.5	-64.3	0.0
2026-01-26 08:55:24.449505	350.8	14.6	-67.6	0.0
2026-01-26 08:55:25.575458	350.6	14.6	-67.3	0.0
2026-01-26 08:55:26.703418	350.4	14.7	-63.5	0.0
2026-01-26 08:55:27.829780	350.3	14.8	-66.6	0.0
2026-01-26 08:55:28.956078	350.1	14.9	-67.8	0.0
2026-01-26 08:55:30.082959	349.9	15.0	-67.7	0.0
2026-01-26 08:55:31.210669	349.7	15.0	-67.0	0.0
2026-01-26 08:55:32.337159	349.6	15.1	-67.3	0.0
2026-01-26 08:55:33.464992	349.4	15.2	-67.8	0.0
2026-01-26 08:55:34.592339	349.2	15.3	-67.9	0.0
2026-01-26 08:55:35.718802	349.0	15.4	-67.8	0.0
2026-01-26 08:55:36.845825	348.8	15.4	-65.6	0.0
2026-01-26 08:55:37.972495	348.6	15.5	-66.9	0.0
2026-01-26 08:55:39.098907	348.5	15.6	-68.3	0.0
2026-01-26 08:55:40.223646	348.3	15.7	-65.5	0.0
2026-01-26 08:55:41.352819	348.1	15.8	-65.4	0.0
2026-01-26 08:55:42.479123	347.9	15.8	-67.4	0.0
2026-01-26 08:55:43.605034	347.7	15.9	-67.9	0.0
2026-01-26 08:55:44.731463	347.5	16.0	-67.1	0.0
2026-01-26 08:55:45.859407	347.3	16.1	-67.0	0.0
2026-01-26 08:55:46.984926	347.1	16.2	-67.4	0.0
2026-01-26 08:55:48.110705	346.9	16.2	-66.2	0.0
2026-01-26 08:55:49.237554	346.7	16.3	-68.6	0.0
2026-01-26 08:55:50.363659	346.5	16.4	-68.1	0.0
2026-01-26 08:55:51.488807	346.3	16.5	-67.3	0.0
2026-01-26 08:55:52.614871	346.1	16.6	-67.7	0.0
2026-01-26 08:55:53.742177	345.9	16.6	-68.0	0.0
2026-01-26 08:55:54.867688	345.7	16.7	-67.6	0.0
2026-01-26 08:55:55.992429	345.5	16.8	-67.4	0.0
2026-01-26 08:55:57.118303	345.3	16.9	-63.6	0.0
2026-01-26 08:55:58.245172	345.1	16.9	-68.3	0.0
2026-01-26 08:55:59.371688	344.9	17.0	-67.4	0.0
2026-01-26 08:56:00.502764	344.7	17.1	-62.5	0.0
2026-01-26 08:56:01.629708	344.5	17.2	-67.2	0.0
2026-01-26 08:56:02.757669	344.3	17.3	-68.2	0.0
2026-01-26 08:56:03.885088	344.1	17.3	-61.7	0.0
2026-01-26 08:56:05.010334	343.9	17.4	-65.5	0.0
2026-01-26 08:56:06.137650	343.7	17.5	-65.5	0.0
2026-01-26 08:56:07.262825	343.5	17.6	-65.6	0.0
2026-01-26 08:56:08.389933	343.3	17.6	-61.5	0.0
2026-01-26 08:56:09.514942	343.0	17.7	-61.0	0.0
2026-01-26 08:56:10.641337	342.8	17.8	-60.8	0.0
2026-01-26 08:56:11.767467	342.6	17.9	-61.0	0.0
2026-01-26 08:56:12.892477	342.4	18.0	-66.5	0.0
2026-01-26 08:56:14.017308	342.2	18.0	-64.5	0.0
2026-01-26 08:56:15.144962	342.0	18.1	-65.8	0.0
2026-01-26 08:56:16.272636	341.7	18.2	-64.7	0.0
2026-01-26 08:56:17.399617	341.5	18.3	-64.3	0.0
2026-01-26 08:56:18.527219	341.3	18.3	-64.2	0.0
2026-01-26 08:56:19.653453	341.1	18.4	-64.5	0.0
2026-01-26 08:56:20.781467	340.8	18.5	-65.2	0.0
2026-01-26 08:56:21.908325	340.6	18.6	-65.0	0.0
2026-01-26 08:56:23.033747	340.4	18.6	-64.6	0.0
2026-01-26 08:56:24.161316	340.1	18.7	-65.9	0.0
2026-01-26 08:56:25.288574	339.9	18.8	-65.6	0.0
2026-01-26 08:56:26.414961	339.7	18.9	-61.3	0.0
2026-01-26 08:56:27.542450	339.5	18.9	-66.2	0.0
2026-01-26 08:56:28.668857	339.2	19.0	-64.8	0.0
2026-01-26 08:56:29.795147	339.0	19.1	-65.9	0.0
2026-01-26 08:56:30.921715	338.7	19.2	-65.0	0.0
2026-01-26 08:56:32.045021	338.5	19.2	-65.5	0.0
2026-01-26 08:56:33.172570	338.3	19.3	-66.0	0.0
2026-01-26 08:56:34.298791	338.0	19.4	-66.6	0.0
2026-01-26 08:56:35.426198	337.8	19.4	-67.6	0.0
2026-01-26 08:56:36.550521	337.5	19.5	-68.6	0.0
2026-01-26 08:56:37.678014	337.3	19.6	-68.7	0.0
2026-01-26 08:56:38.805154	337.1	19.7	-67.9	0.0
2026-01-26 08:56:39.929815	336.8	19.7	-67.2	0.0
2026-01-26 08:56:41.055227	336.6	19.8	-66.8	0.0
2026-01-26 08:56:42.181668	336.3	19.9	-66.3	0.0
2026-01-26 08:56:43.308880	336.1	19.9	-67.4	0.0
2026-01-26 08:56:44.433239	335.8	20.0	-66.1	0.0
2026-01-26 08:56:45.561187	335.6	20.1	-65.8	0.0
2026-01-26 08:56:46.687246	335.3	20.1	-65.4	0.0
2026-01-26 08:56:47.814652	335.1	20.2	-67.5	0.0
2026-01-26 08:56:48.942186	334.8	20.3	-66.0	0.0
2026-01-26 08:56:50.069344	334.6	20.3	-64.4	0.0
2026-01-26 08:56:51.201545	334.3	20.4	-65.9	0.0
2026-01-26 08:56:52.327901	334.0	20.5	-65.1	0.0
2026-01-26 08:56:53.455996	333.8	20.5	-67.1	0.0
2026-01-26 08:56:54.581546	333.5	20.6	-66.6	0.0
2026-01-26 08:56:55.708251	333.3	20.7	-62.9	0.0
2026-01-26 08:56:56.833474	333.0	20.7	-65.3	0.0
2026-01-26 08:56:57.964497	332.7	20.8	-66.8	0.0
2026-01-26 08:56:59.089751	332.5	20.9	-64.4	0.0
2026-01-26 08:57:00.215315	332.2	20.9	-65.0	0.0
2026-01-26 08:57:01.343443	331.9	21.0	-65.8	0.0
2026-01-26 08:57:02.470537	331.7	21.0	-66.8	0.0
2026-01-26 08:57:03.597075	331.4	21.1	-66.8	0.0
2026-01-26 08:57:04.722329	331.1	21.2	-66.9	0.0
2026-01-26 08:57:05.848615	330.9	21.2	-68.3	0.0
2026-01-26 08:57:06.974762	330.6	21.3	-67.6	0.0
2026-01-26 08:57:08.100958	330.3	21.3	-67.3	0.0
2026-01-26 08:57:09.226622	330.0	21.4	-67.6	0.0
2026-01-26 08:57:10.353794	329.8	21.5	-68.0	0.0
2026-01-26 08:57:11.480931	329.5	21.5	-68.1	0.0
2026-01-26 08:57:12.606721	329.2	21.6	-67.5	0.0
2026-01-26 08:57:13.732845	328.9	21.6	-68.7	0.0
2026-01-26 08:57:14.857853	328.6	21.7	-67.9	0.0
2026-01-26 08:57:15.984634	328.4	21.7	-68.1	0.0
2026-01-26 08:57:17.111463	328.1	21.8	-68.4	0.0
2026-01-26 08:57:18.238928	327.8	21.8	-68.5	0.0
2026-01-26 08:57:19.363882	327.5	21.9	-68.0	0.0
2026-01-26 08:57:20.493108	327.2	22.0	-69.9	0.0
2026-01-26 08:57:21.621178	326.9	22.0	-69.6	0.0
2026-01-26 08:57:22.747851	326.7	22.1	-69.0	0.0
2026-01-26 08:57:23.875862	326.4	22.1	-69.2	0.0
2026-01-26 08:57:25.001769	326.1	22.2	-69.1	0.0
2026-01-26 08:57:26.127403	325.8	22.2	-70.4	0.0
2026-01-26 08:57:27.254773	325.5	22.3	-69.5	0.0
2026-01-26 08:57:28.381338	325.2	22.3	-70.2	0.0
2026-01-26 08:57:29.508680	324.9	22.4	-72.2	0.0
2026-01-26 08:57:30.634768	324.6	22.4	-71.0	0.0
2026-01-26 08:57:31.761578	324.3	22.4	-69.8	0.0
2026-01-26 08:57:32.887411	324.0	22.5	-70.9	0.0
2026-01-26 08:57:34.015818	323.7	22.5	-69.7	0.0
2026-01-26 08:57:35.141798	323.4	22.6	-70.1	0.0
2026-01-26 08:57:36.267953	323.1	22.6	-66.8	0.0
2026-01-26 08:57:37.394345	322.9	22.7	-68.7	0.0
2026-01-26 08:57:38.519036	322.6	22.7	-68.1	0.0
2026-01-26 08:57:39.643908	322.3	22.7	-67.9	0.0
2026-01-26 08:57:40.770532	322.0	22.8	-71.1	0.0
2026-01-26 08:57:41.897822	321.7	22.8	-70.4	0.0
2026-01-26 08:57:43.026696	321.3	22.9	-69.1	0.0
2026-01-26 08:57:44.153915	321.0	22.9	-68.9	0.0
2026-01-26 08:57:45.281601	320.7	22.9	-70.1	0.0
2026-01-26 08:57:46.407761	320.4	23.0	-69.3	0.0
2026-01-26 08:57:47.537038	320.1	23.0	-69.0	0.0
2026-01-26 08:57:48.663527	319.8	23.0	-69.1	0.0
2026-01-26 08:57:49.789091	319.5	23.1	-68.5	0.0
2026-01-26 08:57:50.916185	319.2	23.1	-69.5	0.0
2026-01-26 08:57:52.043079	318.9	23.1	-70.6	0.0
2026-01-26 08:57:53.168914	318.6	23.2	-69.4	0.0
2026-01-26 08:57:54.294716	318.3	23.2	-69.5	0.0
2026-01-26 08:57:55.422491	318.0	23.2	-70.2	0.0
2026-01-26 08:57:56.549598	317.7	23.2	-69.6	0.0
2026-01-26 08:57:57.675890	317.4	23.3	-70.7	0.8
2026-01-26 08:57:58.803855	317.0	23.3	-70.0	0.0
2026-01-26 08:57:59.930824	316.7	23.3	-71.3	0.0
2026-01-26 08:58:01.058356	316.4	23.4	-69.8	0.0
2026-01-26 08:58:02.183913	316.1	23.4	-67.7	0.0
2026-01-26 08:58:03.309693	315.8	23.4	-69.9	0.0
2026-01-26 08:58:04.437612	315.5	23.4	-71.1	1.5
2026-01-26 08:58:05.564217	315.2	23.4	-71.5	1.9
2026-01-26 08:58:06.692605	314.9	23.5	-70.3	0.7
2026-01-26 08:58:07.820317	314.5	23.5	-67.2	0.0
2026-01-26 08:58:08.948898	314.2	23.5	-68.4	0.0
2026-01-26 08:58:10.075700	313.9	23.5	-70.1	0.0
2026-01-26 08:58:11.202948	313.6	23.5	-69.0	0.0
2026-01-26 08:58:12.328288	313.3	23.5	-70.5	0.8
2026-01-26 08:58:13.457404	313.0	23.6	-71.6	1.7
2026-01-26 08:58:14.583866	312.6	23.6	-72.3	3.2
2026-01-26 08:58:15.709864	312.3	23.6	-71.3	0.0
2026-01-26 08:58:16.836398	312.0	23.6	-71.0	0.0
2026-01-26 08:58:17.962299	311.7	23.6	-71.4	0.0
2026-01-26 08:58:19.089024	311.4	23.6	-70.5	2.3
2026-01-26 08:58:20.215809	311.1	23.6	-70.5	1.0
2026-01-26 08:58:21.341292	310.7	23.6	-67.3	0.0
2026-01-26 08:58:22.466918	310.4	23.6	-69.3	0.0
2026-01-26 08:58:23.596052	310.1	23.6	-72.0	1.2
2026-01-26 08:58:24.721734	309.8	23.7	-70.8	1.4
2026-01-26 08:58:25.846721	309.5	23.7	-71.3	0.0
2026-01-26 08:58:26.973404	309.1	23.7	-70.1	0.0
2026-01-26 08:58:28.098822	308.8	23.7	-69.9	0.0
2026-01-26 08:58:29.227332	308.5	23.7	-69.6	1.3
2026-01-26 08:58:30.353633	308.2	23.7	-69.7	0.0
2026-01-26 08:58:31.479761	307.9	23.7	-70.9	2.1
2026-01-26 08:58:32.605661	307.5	23.7	-69.6	0.0
2026-01-26 08:58:33.730924	307.2	23.7	-69.7	0.0
2026-01-26 08:58:34.858561	306.9	23.7	-67.7	0.0
2026-01-26 08:58:35.984729	306.6	23.6	-69.2	0.0
2026-01-26 08:58:37.110628	306.3	23.6	-65.4	0.0
2026-01-26 08:58:38.237763	306.0	23.6	-68.5	0.0
2026-01-26 08:58:39.365703	305.6	23.6	-67.3	0.0
2026-01-26 08:58:40.492636	305.3	23.6	-69.0	0.0
2026-01-26 08:58:41.620591	305.0	23.6	-68.2	0.0
2026-01-26 08:58:42.746212	304.7	23.6	-68.0	0.0
2026-01-26 08:58:43.873674	304.4	23.6	-68.1	0.0
2026-01-26 08:58:44.999840	304.0	23.6	-69.3	0.0
2026-01-26 08:58:46.125341	303.7	23.6	-69.5	0.0
2026-01-26 08:58:47.251123	303.4	23.6	-69.2	0.0
2026-01-26 08:58:48.377735	303.1	23.5	-68.0	0.0
2026-01-26 08:58:49.505659	302.8	23.5	-70.2	0.0
2026-01-26 08:58:50.631689	302.5	23.5	-67.6	0.0
2026-01-26 08:58:51.760837	302.1	23.5	-69.1	0.0
2026-01-26 08:58:52.888170	301.8	23.5	-68.6	0.0
2026-01-26 08:58:54.014256	301.5	23.4	-67.1	0.0
2026-01-26 08:58:55.141396	301.2	23.4	-68.5	0.0
2026-01-26 08:58:56.267527	300.9	23.4	-68.0	0.0
2026-01-26 08:58:57.396482	300.6	23.4	-69.5	0.0
2026-01-26 08:58:58.522076	300.3	23.4	-69.4	0.0
2026-01-26 08:58:59.648603	299.9	23.3	-69.4	0.0
2026-01-26 08:59:00.776870	299.6	23.3	-70.2	0.0
2026-01-26 08:59:01.902691	299.3	23.3	-69.5	0.0
2026-01-26 08:59:03.027468	299.0	23.3	-69.0	0.0
2026-01-26 08:59:04.155802	298.7	23.2	-68.9	0.0
2026-01-26 08:59:05.283652	298.4	23.2	-69.0	0.0
2026-01-26 08:59:06.409936	298.1	23.2	-67.3	0.0
2026-01-26 08:59:07.534245	297.8	23.1	-66.8	0.0
2026-01-26 08:59:08.659795	297.5	23.1	-66.3	0.0
2026-01-26 08:59:09.785035	297.2	23.1	-67.9	0.0
2026-01-26 08:59:10.911861	296.8	23.0	-69.4	0.7
2026-01-26 08:59:12.038651	296.5	23.0	-70.0	0.0
2026-01-26 08:59:13.165837	296.2	23.0	-70.0	0.0
2026-01-26 08:59:14.291780	295.9	22.9	-67.7	0.0
2026-01-26 08:59:15.419733	295.6	22.9	-70.8	0.0
2026-01-26 08:59:16.544822	295.3	22.9	-70.6	0.0
2026-01-26 08:59:17.669512	295.0	22.8	-71.1	0.0
2026-01-26 08:59:18.795754	294.7	22.8	-70.1	0.0
2026-01-26 08:59:19.923058	294.4	22.8	-69.7	0.0
2026-01-26 08:59:21.048590	294.1	22.7	-68.4	0.0
2026-01-26 08:59:22.177326	293.8	22.7	-69.2	0.0
2026-01-26 08:59:23.303951	293.5	22.6	-68.7	0.0
2026-01-26 08:59:24.430361	293.2	22.6	-69.8	0.0
2026-01-26 08:59:25.556913	292.9	22.5	-70.2	0.0
2026-01-26 08:59:26.683832	292.6	22.5	-70.6	0.0
2026-01-26 08:59:27.808461	292.3	22.5	-70.6	0.0
2026-01-26 08:59:28.935199	292.0	22.4	-71.5	0.0
2026-01-26 08:59:30.061637	291.7	22.4	-71.1	0.0
2026-01-26 08:59:31.188394	291.4	22.3	-71.6	0.0
2026-01-26 08:59:32.315881	291.2	22.3	-70.1	0.0
2026-01-26 08:59:33.442893	290.9	22.2	-71.0	0.0
2026-01-26 08:59:34.569879	290.6	22.2	-71.3	0.0
2026-01-26 08:59:35.695451	290.3	22.1	-68.8	0.0
2026-01-26 08:59:36.820777	290.0	22.1	-70.0	0.0
2026-01-26 08:59:37.946973	289.7	22.0	-71.9	0.0
2026-01-26 08:59:39.072431	289.4	22.0	-71.7	0.0
2026-01-26 08:59:40.199806	289.1	21.9	-71.7	0.0
2026-01-26 08:59:41.325604	288.9	21.9	-70.3	0.0
2026-01-26 08:59:42.452201	288.6	21.8	-71.5	0.0
2026-01-26 08:59:43.579087	288.3	21.8	-71.2	0.0
2026-01-26 08:59:44.707437	288.0	21.7	-71.9	0.0
2026-01-26 08:59:45.832977	287.7	21.6	-70.4	0.0
2026-01-26 08:59:46.956758	287.4	21.6	-70.3	0.0
2026-01-26 08:59:48.087342	287.2	21.5	-70.8	0.0
2026-01-26 08:59:49.214105	286.9	21.5	-71.9	0.0
2026-01-26 08:59:50.340791	286.6	21.4	-71.9	0.0
2026-01-26 08:59:51.468381	286.3	21.4	-71.6	0.0
2026-01-26 08:59:52.593898	286.1	21.3	-70.7	0.0
2026-01-26 08:59:53.718782	285.8	21.2	-70.6	0.0
2026-01-26 08:59:54.845783	285.5	21.2	-71.0	0.0
2026-01-26 08:59:55.972390	285.2	21.1	-66.6	0.0
2026-01-26 08:59:57.099090	285.0	21.1	-71.5	0.8
2026-01-26 08:59:58.226535	284.7	21.0	-71.1	0.0
2026-01-26 08:59:59.352689	284.4	20.9	-71.4	0.0
2026-01-26 09:00:00.477737	284.2	20.9	-71.5	0.0
2026-01-26 09:00:01.604346	283.9	20.8	-71.2	0.0
2026-01-26 09:00:02.729847	283.6	20.7	-71.5	0.0
2026-01-26 09:00:03.854294	283.4	20.7	-70.8	2.7
2026-01-26 09:00:04.981789	283.1	20.6	-70.7	0.0
2026-01-26 09:00:06.107976	282.9	20.6	-71.1	0.0
2026-01-26 09:00:07.238745	282.6	20.5	-71.2	0.0
2026-01-26 09:00:08.365843	282.3	20.4	-71.5	2.3
2026-01-26 09:00:09.491901	282.1	20.4	-71.8	0.0
2026-01-26 09:00:10.617856	281.8	20.3	-70.9	1.1
2026-01-26 09:00:11.745895	281.6	20.2	-71.2	2.6
2026-01-26 09:00:12.876380	281.3	20.2	-71.0	0.0
2026-01-26 09:00:14.002230	281.0	20.1	-71.5	2.1
2026-01-26 09:00:15.128729	280.8	20.0	-71.2	0.0
2026-01-26 09:00:16.255306	280.5	19.9	-71.6	1.0
2026-01-26 09:00:17.382816	280.3	19.9	-71.8	3.1
2026-01-26 09:00:18.509955	280.0	19.8	-71.6	0.0
2026-01-26 09:00:19.637443	279.8	19.7	-71.7	2.5
2026-01-26 09:00:20.764703	279.6	19.7	-72.5	2.9
2026-01-26 09:00:21.890375	279.3	19.6	-72.0	0.0
2026-01-26 09:00:23.018061	279.1	19.5	-71.1	0.4
2026-01-26 09:00:24.145105	278.8	19.5	-72.1	2.4
2026-01-26 09:00:25.274929	278.6	19.4	-72.9	1.3
2026-01-26 09:00:26.402149	278.3	19.3	-73.1	3.3
2026-01-26 09:00:27.529237	278.1	19.2	-72.6	3.6
2026-01-26 09:00:28.655058	277.9	19.2	-70.6	0.3
2026-01-26 09:00:29.781223	277.6	19.1	-72.6	4.4
2026-01-26 09:00:30.912533	277.4	19.0	-72.2	2.7
2026-01-26 09:00:32.038527	277.1	18.9	-73.0	4.1
2026-01-26 09:00:33.164300	276.9	18.9	-73.0	4.1
2026-01-26 09:00:34.290927	276.7	18.8	-72.9	4.3
2026-01-26 09:00:35.417822	276.4	18.7	-72.6	4.4
2026-01-26 09:00:36.545351	276.2	18.6	-73.4	2.5
2026-01-26 09:00:37.670830	276.0	18.6	-73.1	2.1
2026-01-26 09:00:38.798101	275.8	18.5	-72.8	3.8
2026-01-26 09:00:39.924881	275.5	18.4	-73.1	3.3
2026-01-26 09:00:41.049426	275.3	18.3	-72.8	2.0
2026-01-26 09:00:42.174847	275.1	18.3	-72.9	2.2
2026-01-26 09:00:43.302605	274.9	18.2	-72.9	3.0
2026-01-26 09:00:44.428850	274.6	18.1	-73.1	0.0
2026-01-26 09:00:45.555182	274.4	18.0	-73.5	3.9
2026-01-26 09:00:46.680006	274.2	18.0	-73.4	4.3
2026-01-26 09:00:47.807924	274.0	17.9	-72.7	3.4
2026-01-26 09:00:48.934926	273.8	17.8	-73.4	2.9
2026-01-26 09:00:50.060690	273.5	17.7	-73.5	3.3
2026-01-26 09:00:51.188765	273.3	17.7	-72.9	3.4
2026-01-26 09:00:52.314904	273.1	17.6	-72.5	0.0
2026-01-26 09:00:53.440609	272.9	17.5	-73.2	4.1
2026-01-26 09:00:54.565640	272.7	17.4	-73.2	1.0
2026-01-26 09:00:55.690426	272.5	17.3	-73.4	3.5
2026-01-26 09:00:56.816576	272.3	17.3	-73.2	2.9
2026-01-26 09:00:57.943912	272.0	17.2	-73.6	3.6
2026-01-26 09:00:59.070286	271.8	17.1	-73.6	2.5
2026-01-26 09:01:00.196841	271.6	17.0	-73.5	1.3
2026-01-26 09:01:01.321949	271.4	17.0	-73.7	3.2
2026-01-26 09:01:02.446736	271.2	16.9	-73.7	3.3
2026-01-26 09:01:03.572883	271.0	16.8	-73.5	3.8
2026-01-26 09:01:04.699919	270.8	16.7	-73.7	3.4
2026-01-26 09:01:05.824548	270.6	16.6	-73.7	3.0
2026-01-26 09:01:06.952706	270.4	16.6	-73.2	3.7
2026-01-26 09:01:08.077332	270.2	16.5	-73.4	3.4
2026-01-26 09:01:09.203874	270.0	16.4	-73.9	4.1
2026-01-26 09:01:10.328803	269.8	16.3	-73.6	4.4
2026-01-26 09:01:11.452424	269.6	16.2	-73.0	3.6
2026-01-26 09:01:12.580107	269.4	16.2	-73.3	3.0
2026-01-26 09:01:13.705868	269.2	16.1	-71.6	0.0
2026-01-26 09:01:14.832375	269.0	16.0	-73.7	0.1
2026-01-26 09:01:15.957502	268.8	15.9	-74.0	4.1
2026-01-26 09:01:17.086196	268.7	15.8	-74.1	3.6
2026-01-26 09:01:18.211826	268.5	15.8	-73.7	4.4
2026-01-26 09:01:19.337442	268.3	15.7	-73.5	0.9
2026-01-26 09:01:20.465134	268.1	15.6	-72.9	0.0
2026-01-26 09:01:21.591467	267.9	15.5	-74.3	3.4
2026-01-26 09:01:22.718947	267.7	15.4	-73.9	3.3
2026-01-26 09:01:23.842874	267.5	15.4	-73.8	2.1
2026-01-26 09:01:24.968524	267.3	15.3	-74.1	3.9
2026-01-26 09:01:26.093832	267.2	15.2	-74.2	3.5
2026-01-26 09:01:27.220396	267.0	15.1	-73.8	2.3
2026-01-26 09:01:28.347869	266.8	15.0	-72.9	0.0
2026-01-26 09:01:29.473769	266.6	15.0	-73.7	1.2
2026-01-26 09:01:30.599483	266.4	14.9	-73.8	2.7
2026-01-26 09:01:31.725727	266.3	14.8	-74.3	2.9
2026-01-26 09:01:32.852494	266.1	14.7	-74.1	3.5
2026-01-26 09:01:33.980112	265.9	14.6	-74.2	3.0
2026-01-26 09:01:35.107763	265.7	14.6	-74.2	3.5
2026-01-26 09:01:36.237496	265.6	14.5	-74.1	3.2
2026-01-26 09:01:37.361925	265.4	14.4	-74.1	2.4
2026-01-26 09:01:38.489277	265.2	14.3	-74.2	2.9
2026-01-26 09:01:39.615119	265.0	14.2	-73.9	2.3
2026-01-26 09:01:40.741404	264.9	14.2	-73.3	1.1
2026-01-26 09:01:41.866862	264.7	14.1	-73.8	3.7
2026-01-26 09:01:42.990879	264.5	14.0	-73.4	3.3
2026-01-26 09:01:44.118398	264.4	13.9	-74.6	3.2
2026-01-26 09:01:45.243443	264.2	13.8	-74.3	3.7
2026-01-26 09:01:46.369985	264.0	13.8	-74.5	4.0
2026-01-26 09:01:47.496443	263.9	13.7	-74.4	3.7
2026-01-26 09:01:48.622728	263.7	13.6	-74.2	2.4
2026-01-26 09:01:49.749459	263.5	13.5	-74.5	2.6
2026-01-26 09:01:50.874749	263.4	13.4	-74.2	2.9
2026-01-26 09:01:52.000900	263.2	13.4	-74.3	3.1
2026-01-26 09:01:53.127631	263.1	13.3	-74.2	3.6
2026-01-26 09:01:54.253084	262.9	13.2	-74.4	1.9
2026-01-26 09:01:55.379964	262.7	13.1	-74.7	3.9
2026-01-26 09:01:56.508554	262.6	13.0	-74.7	2.1
2026-01-26 09:01:57.635949	262.4	13.0	-74.2	1.3
2026-01-26 09:01:58.762985	262.3	12.9	-74.6	3.2
2026-01-26 09:01:59.889893	262.1	12.8	-74.5	0.0
2026-01-26 09:02:01.017164	262.0	12.7	-75.3	2.1
2026-01-26 09:02:02.144514	261.8	12.6	-75.1	2.7
2026-01-26 09:02:03.271596	261.6	12.6	-75.0	2.3
2026-01-26 09:02:04.397206	261.5	12.5	-75.3	2.7
2026-01-26 09:02:05.523102	261.3	12.4	-75.0	2.6
2026-01-26 09:02:06.649134	261.2	12.3	-74.9	0.9
2026-01-26 09:02:07.777331	261.0	12.2	-74.9	0.8
2026-01-26 09:02:08.903428	260.9	12.2	-74.9	1.3
2026-01-26 09:02:10.029703	260.7	12.1	-75.2	2.6
2026-01-26 09:02:11.156172	260.6	12.0	-75.0	1.3
2026-01-26 09:02:12.281553	260.5	11.9	-75.3	2.6
2026-01-26 09:02:13.408763	260.3	11.8	-75.1	1.5
2026-01-26 09:02:14.537091	260.2	11.8	-74.3	1.5
2026-01-26 09:02:15.660200	260.0	11.7	-74.7	1.8
2026-01-26 09:02:16.788874	259.9	11.6	-74.9	2.9
2026-01-26 09:02:17.915475	259.7	11.5	-75.0	3.3
2026-01-26 09:02:19.043137	259.6	11.4	-74.9	2.2
2026-01-26 09:02:20.170418	259.5	11.4	-75.3	2.5
2026-01-26 09:02:21.297298	259.3	11.3	-74.3	1.5
2026-01-26 09:02:22.424155	259.2	11.2	-74.5	0.0
2026-01-26 09:02:23.548897	259.0	11.1	-74.8	1.1
2026-01-26 09:02:24.675305	258.9	11.1	-74.5	0.3
2026-01-26 09:02:25.800895	258.8	11.0	-74.1	1.5
2026-01-26 09:02:26.929718	258.6	10.9	-75.0	0.8
2026-01-26 09:02:28.053787	258.5	10.8	-74.7	0.0
2026-01-26 09:02:29.180508	258.4	10.7	-75.5	0.0
2026-01-26 09:02:30.306681	258.2	10.7	-75.2	0.0
2026-01-26 09:02:31.433901	258.1	10.6	-77.8	0.0
2026-01-26 09:02:32.560587	258.0	10.5	-77.7	0.0
2026-01-26 09:02:33.688906	257.8	10.4	-78.3	0.0
2026-01-26 09:02:34.817218	257.7	10.4	-78.5	0.0
2026-01-26 09:02:35.943170	257.6	10.3	-78.8	0.0
2026-01-26 09:02:37.069103	257.4	10.2	-79.1	0.0
2026-01-26 09:02:38.196110	257.3	10.1	-78.6	0.0
2026-01-26 09:02:39.326570	257.2	10.0	-79.1	0.0
#Closed at: 2026-01-26 08:54:14.410679