passes_logs/2026/01/26/planumMaritime01/planumMaritime01__20260126_192232_METOP-C_rec.log

#Pass ID: 20260126_192232_METOP-C
#Satellite: METOP-C
#Configuration: METOP-C
#Start time: 2026-01-26 19:22:37.228149

#LorettStation: 1.0.0 05.05.2024
#Station: planumMaritime01
#Location: 37.49445 lon 55.92918 lat
#TLE: 1 43689U 18087A   26026.44785771  .00000193  00000+0  10820-3 0  9999
#TLE: 2 43689  98.6858  88.5171 0001142 162.3171 197.8046 14.21504916374692

#Time	Az	El	Level	SNR
2026-01-26 19:22:39.395868	210.6	10.2	-77.6	0.0
2026-01-26 19:22:41.648374	210.8	10.3	-78.3	0.0
2026-01-26 19:22:43.901903	211.1	10.5	-76.6	0.0
2026-01-26 19:22:46.152004	211.3	10.6	-74.5	0.0
2026-01-26 19:22:48.404907	211.5	10.8	-72.0	0.0
2026-01-26 19:22:50.656713	211.8	11.0	-70.2	0.0
2026-01-26 19:22:52.907286	212.0	11.1	-69.5	0.0
2026-01-26 19:22:55.159949	212.3	11.3	-68.6	0.0
2026-01-26 19:22:57.412514	212.6	11.5	-68.8	0.0
2026-01-26 19:22:59.666432	212.8	11.6	-68.8	0.0
2026-01-26 19:23:01.919775	213.1	11.8	-68.9	0.0
2026-01-26 19:23:04.171138	213.4	12.0	-69.1	0.0
2026-01-26 19:23:06.424990	213.6	12.1	-69.0	0.0
2026-01-26 19:23:08.677680	213.9	12.3	-69.2	0.0
2026-01-26 19:23:10.929771	214.2	12.5	-69.8	0.0
2026-01-26 19:23:13.183352	214.5	12.7	-69.6	0.0
2026-01-26 19:23:15.435542	214.7	12.8	-69.4	0.0
2026-01-26 19:23:17.691929	215.0	13.0	-68.9	0.0
2026-01-26 19:23:19.945477	215.3	13.2	-69.4	0.0
2026-01-26 19:23:22.199759	215.6	13.3	-69.4	0.0
2026-01-26 19:23:24.454638	215.9	13.5	-69.7	0.0
2026-01-26 19:23:26.707362	216.2	13.7	-70.1	0.0
2026-01-26 19:23:28.961259	216.5	13.9	-69.9	0.0
2026-01-26 19:23:31.215422	216.8	14.0	-70.1	0.0
2026-01-26 19:23:33.466828	217.1	14.2	-70.6	0.0
2026-01-26 19:23:35.719933	217.4	14.4	-70.6	0.0
2026-01-26 19:23:37.974639	217.8	14.6	-70.7	0.0
2026-01-26 19:23:40.227313	218.1	14.7	-70.1	0.0
2026-01-26 19:23:42.479100	218.4	14.9	-70.6	0.0
2026-01-26 19:23:44.729928	218.7	15.1	-70.5	0.0
2026-01-26 19:23:46.983726	219.1	15.3	-70.4	0.0
2026-01-26 19:23:49.236257	219.4	15.5	-70.8	1.7
2026-01-26 19:23:51.490074	219.7	15.6	-70.8	0.0
2026-01-26 19:23:53.742597	220.1	15.8	-71.0	0.7
2026-01-26 19:23:55.998477	220.4	16.0	-71.4	0.6
2026-01-26 19:23:58.251592	220.8	16.2	-71.2	0.1
2026-01-26 19:24:00.505726	221.1	16.4	-71.2	1.1
2026-01-26 19:24:02.755995	221.5	16.5	-71.2	0.9
2026-01-26 19:24:05.009068	221.9	16.7	-71.3	0.8
2026-01-26 19:24:07.267164	222.2	16.9	-71.4	0.7
2026-01-26 19:24:09.519871	222.6	17.1	-71.7	2.8
2026-01-26 19:24:11.773317	223.0	17.3	-71.7	3.0
2026-01-26 19:24:14.031482	223.4	17.4	-71.5	1.6
2026-01-26 19:24:16.283083	223.8	17.6	-71.9	2.9
2026-01-26 19:24:18.537113	224.1	17.8	-71.9	1.4
2026-01-26 19:24:20.788891	224.5	18.0	-72.2	1.9
2026-01-26 19:24:23.040882	224.9	18.2	-72.2	2.4
2026-01-26 19:24:25.292594	225.3	18.4	-72.6	2.3
2026-01-26 19:24:27.546288	225.8	18.5	-72.5	2.4
2026-01-26 19:24:29.799980	226.2	18.7	-72.6	2.9
2026-01-26 19:24:32.053142	226.6	18.9	-72.8	3.6
2026-01-26 19:24:34.308328	227.0	19.1	-72.8	2.1
2026-01-26 19:24:36.563819	227.4	19.3	-72.6	4.5
2026-01-26 19:24:38.818517	227.9	19.5	-72.7	3.3
2026-01-26 19:24:41.070372	228.3	19.6	-72.3	3.7
2026-01-26 19:24:43.323034	228.8	19.8	-72.7	4.4
2026-01-26 19:24:45.575008	229.2	20.0	-72.5	4.6
2026-01-26 19:24:47.829762	229.7	20.2	-72.6	5.0
2026-01-26 19:24:50.082281	230.1	20.4	-72.5	5.0
2026-01-26 19:24:52.333469	230.6	20.5	-72.5	5.9
2026-01-26 19:24:54.587210	231.1	20.7	-72.5	4.8
2026-01-26 19:24:56.840399	231.5	20.9	-72.5	4.8
2026-01-26 19:24:59.093223	232.0	21.1	-72.2	4.9
2026-01-26 19:25:01.347569	232.5	21.2	-72.4	5.0
2026-01-26 19:25:03.597601	233.0	21.4	-71.9	4.6
2026-01-26 19:25:05.850501	233.5	21.6	-72.3	5.2
2026-01-26 19:25:08.103913	234.0	21.8	-72.2	5.2
2026-01-26 19:25:10.355744	234.5	21.9	-72.0	4.7
2026-01-26 19:25:12.607275	235.0	22.1	-71.4	4.8
2026-01-26 19:25:14.860826	235.6	22.3	-72.2	5.4
2026-01-26 19:25:17.114548	236.1	22.5	-72.1	5.5
2026-01-26 19:25:19.366240	236.6	22.6	-71.8	5.6
2026-01-26 19:25:21.618593	237.2	22.8	-71.5	4.9
2026-01-26 19:25:23.874060	237.7	22.9	-71.8	5.8
2026-01-26 19:25:26.125170	238.2	23.1	-71.7	5.8
2026-01-26 19:25:28.377478	238.8	23.3	-71.7	5.2
2026-01-26 19:25:30.631482	239.4	23.4	-71.6	5.3
2026-01-26 19:25:32.883814	239.9	23.6	-71.9	5.8
2026-01-26 19:25:35.134405	240.5	23.7	-71.8	5.9
2026-01-26 19:25:37.389476	241.1	23.9	-71.8	6.3
2026-01-26 19:25:39.640027	241.7	24.0	-72.0	6.7
2026-01-26 19:25:41.891736	242.2	24.2	-71.6	6.4
2026-01-26 19:25:44.145626	242.8	24.3	-72.0	6.2
2026-01-26 19:25:46.397326	243.4	24.5	-72.0	6.5
2026-01-26 19:25:48.652353	244.0	24.6	-72.0	5.8
2026-01-26 19:25:50.900955	244.6	24.8	-71.6	4.8
2026-01-26 19:25:53.150717	245.3	24.9	-72.4	6.0
2026-01-26 19:25:55.403736	245.9	25.0	-72.2	5.7
2026-01-26 19:25:57.655326	246.5	25.2	-72.2	5.5
2026-01-26 19:25:59.909252	247.1	25.3	-72.1	6.3
2026-01-26 19:26:02.159708	247.8	25.4	-71.9	5.9
2026-01-26 19:26:04.411152	248.4	25.5	-71.4	5.0
2026-01-26 19:26:06.662708	249.0	25.7	-71.7	5.3
2026-01-26 19:26:08.913294	249.7	25.8	-71.9	6.2
2026-01-26 19:26:11.167151	250.3	25.9	-71.6	6.0
2026-01-26 19:26:13.422497	251.0	26.0	-71.7	6.1
2026-01-26 19:26:15.673492	251.7	26.1	-71.6	6.4
2026-01-26 19:26:17.922643	252.3	26.2	-70.6	5.2
2026-01-26 19:26:20.178851	253.0	26.3	-71.5	6.5
2026-01-26 19:26:22.433148	253.7	26.4	-71.0	5.4
2026-01-26 19:26:24.686881	254.4	26.5	-71.5	6.3
2026-01-26 19:26:26.939626	255.0	26.6	-71.9	6.8
2026-01-26 19:26:29.191540	255.7	26.7	-71.1	5.6
2026-01-26 19:26:31.442452	256.4	26.7	-71.0	5.3
2026-01-26 19:26:33.695136	257.1	26.8	-70.8	4.1
2026-01-26 19:26:35.946423	257.8	26.9	-71.2	4.6
2026-01-26 19:26:38.197756	258.5	27.0	-71.3	6.9
2026-01-26 19:26:40.449341	259.2	27.0	-71.0	5.9
2026-01-26 19:26:42.702993	259.9	27.1	-71.2	6.1
2026-01-26 19:26:44.955955	260.6	27.1	-71.5	5.4
2026-01-26 19:26:47.209432	261.3	27.2	-71.0	5.4
2026-01-26 19:26:49.459486	262.0	27.2	-71.1	5.9
2026-01-26 19:26:51.712379	262.7	27.3	-70.9	5.8
2026-01-26 19:26:53.964699	263.4	27.3	-70.4	6.1
2026-01-26 19:26:56.218765	264.2	27.3	-71.4	6.5
2026-01-26 19:26:58.470594	264.9	27.3	-70.2	4.1
2026-01-26 19:27:00.725501	265.6	27.4	-71.3	4.9
2026-01-26 19:27:02.979456	266.3	27.4	-70.8	4.0
2026-01-26 19:27:05.232210	267.0	27.4	-70.3	3.8
2026-01-26 19:27:07.486692	267.7	27.4	-70.5	4.6
2026-01-26 19:27:09.737091	268.5	27.4	-70.9	5.3
2026-01-26 19:27:11.990482	269.2	27.4	-70.7	5.6
2026-01-26 19:27:14.243326	269.9	27.4	-70.3	4.9
2026-01-26 19:27:16.496063	270.6	27.4	-70.0	2.8
2026-01-26 19:27:18.747440	271.3	27.4	-70.1	4.4
2026-01-26 19:27:20.999881	272.0	27.3	-71.0	5.2
2026-01-26 19:27:23.254718	272.8	27.3	-69.9	4.0
2026-01-26 19:27:25.505704	273.5	27.3	-70.0	2.5
2026-01-26 19:27:27.758140	274.2	27.2	-70.4	3.4
2026-01-26 19:27:30.010851	274.9	27.2	-69.6	2.4
2026-01-26 19:27:32.262296	275.6	27.1	-70.2	4.7
2026-01-26 19:27:34.514120	276.3	27.1	-70.1	3.2
2026-01-26 19:27:36.767471	277.0	27.0	-70.5	2.7
2026-01-26 19:27:39.017110	277.7	27.0	-70.2	4.0
2026-01-26 19:27:41.267560	278.4	26.9	-69.6	3.1
2026-01-26 19:27:43.519376	279.1	26.9	-70.0	3.0
2026-01-26 19:27:45.774572	279.8	26.8	-69.1	3.9
2026-01-26 19:27:48.027312	280.5	26.7	-69.5	2.4
2026-01-26 19:27:50.281186	281.2	26.6	-69.8	0.0
2026-01-26 19:27:52.532971	281.9	26.5	-69.4	2.7
2026-01-26 19:27:54.783007	282.5	26.5	-69.1	3.1
2026-01-26 19:27:57.038503	283.2	26.4	-69.3	1.1
2026-01-26 19:27:59.293298	283.9	26.3	-69.1	0.0
2026-01-26 19:28:01.545569	284.5	26.2	-69.3	1.2
2026-01-26 19:28:03.795864	285.2	26.1	-68.8	0.0
2026-01-26 19:28:06.050618	285.9	26.0	-69.6	1.4
2026-01-26 19:28:08.302493	286.5	25.8	-67.6	0.0
2026-01-26 19:28:10.552563	287.2	25.7	-69.3	0.8
2026-01-26 19:28:12.806653	287.8	25.6	-69.5	0.0
2026-01-26 19:28:15.057593	288.5	25.5	-70.0	3.6
2026-01-26 19:28:17.310416	289.1	25.4	-68.2	0.0
2026-01-26 19:28:19.563455	289.7	25.3	-69.4	0.0
2026-01-26 19:28:21.816862	290.3	25.1	-68.3	0.0
2026-01-26 19:28:24.069528	291.0	25.0	-69.6	0.0
2026-01-26 19:28:26.323004	291.6	24.9	-66.9	0.0
2026-01-26 19:28:28.575774	292.2	24.7	-67.6	0.0
2026-01-26 19:28:30.828111	292.8	24.6	-66.9	0.0
2026-01-26 19:28:33.076921	293.4	24.4	-68.5	1.4
2026-01-26 19:28:35.331784	294.0	24.3	-67.1	0.0
2026-01-26 19:28:37.587123	294.6	24.1	-68.1	0.0
2026-01-26 19:28:39.840532	295.2	24.0	-69.8	0.0
2026-01-26 19:28:42.094405	295.7	23.8	-69.9	0.0
2026-01-26 19:28:44.349313	296.3	23.7	-70.5	0.0
2026-01-26 19:28:46.601842	296.9	23.5	-68.9	0.0
2026-01-26 19:28:48.857543	297.4	23.4	-68.6	0.0
2026-01-26 19:28:51.111671	298.0	23.2	-69.8	0.0
2026-01-26 19:28:53.365499	298.5	23.1	-66.7	0.0
2026-01-26 19:28:55.616981	299.1	22.9	-69.9	0.0
2026-01-26 19:28:57.870987	299.6	22.7	-68.5	0.0
2026-01-26 19:29:00.123845	300.2	22.6	-69.7	0.0
2026-01-26 19:29:02.378786	300.7	22.4	-69.0	0.0
2026-01-26 19:29:04.632341	301.2	22.2	-68.3	0.0
2026-01-26 19:29:06.885423	301.7	22.1	-69.5	0.0
2026-01-26 19:29:09.139040	302.2	21.9	-68.0	0.0
2026-01-26 19:29:11.390163	302.7	21.7	-66.8	0.0
2026-01-26 19:29:13.643855	303.2	21.5	-67.9	0.0
2026-01-26 19:29:15.896109	303.7	21.4	-68.5	0.0
2026-01-26 19:29:18.149379	304.2	21.2	-66.3	0.0
2026-01-26 19:29:20.402452	304.7	21.0	-67.7	0.0
2026-01-26 19:29:22.653939	305.2	20.8	-65.3	0.0
2026-01-26 19:29:24.906162	305.6	20.7	-66.8	0.0
2026-01-26 19:29:27.159572	306.1	20.5	-67.5	0.0
2026-01-26 19:29:29.413141	306.6	20.3	-68.1	0.0
2026-01-26 19:29:31.666324	307.0	20.1	-67.6	0.0
2026-01-26 19:29:33.916417	307.5	20.0	-69.2	0.0
2026-01-26 19:29:36.172658	307.9	19.8	-70.1	0.0
2026-01-26 19:29:38.425142	308.4	19.6	-67.0	0.0
2026-01-26 19:29:40.678328	308.8	19.4	-66.2	0.0
2026-01-26 19:29:42.931229	309.2	19.2	-66.5	0.0
2026-01-26 19:29:45.184058	309.7	19.1	-67.8	0.0
2026-01-26 19:29:47.437857	310.1	18.9	-67.6	0.0
2026-01-26 19:29:49.691551	310.5	18.7	-65.5	0.0
2026-01-26 19:29:51.946203	310.9	18.5	-67.9	0.0
2026-01-26 19:29:54.200152	311.3	18.3	-66.8	0.0
2026-01-26 19:29:56.453137	311.7	18.2	-66.3	0.0
2026-01-26 19:29:58.708146	312.1	18.0	-66.5	0.0
2026-01-26 19:30:00.962992	312.5	17.8	-66.1	0.0
2026-01-26 19:30:03.216558	312.9	17.6	-68.2	0.0
2026-01-26 19:30:05.475545	313.3	17.4	-68.3	0.0
2026-01-26 19:30:07.727597	313.7	17.3	-67.9	0.0
2026-01-26 19:30:09.981278	314.0	17.1	-67.5	0.0
2026-01-26 19:30:12.234417	314.4	16.9	-69.3	0.0
2026-01-26 19:30:14.488796	314.8	16.7	-67.6	0.0
2026-01-26 19:30:16.741156	315.1	16.5	-67.5	0.0
2026-01-26 19:30:18.995127	315.5	16.4	-66.9	0.0
2026-01-26 19:30:21.247235	315.9	16.2	-68.6	0.0
2026-01-26 19:30:23.501068	316.2	16.0	-65.9	0.0
2026-01-26 19:30:25.753885	316.6	15.8	-67.8	0.0
2026-01-26 19:30:28.007656	316.9	15.6	-67.4	0.0
2026-01-26 19:30:30.259805	317.2	15.5	-66.7	0.0
2026-01-26 19:30:32.514402	317.6	15.3	-67.4	0.0
2026-01-26 19:30:34.767385	317.9	15.1	-65.2	0.0
2026-01-26 19:30:37.020679	318.2	14.9	-67.8	0.0
2026-01-26 19:30:39.274053	318.5	14.8	-66.6	0.0
2026-01-26 19:30:41.524903	318.9	14.6	-66.1	0.0
2026-01-26 19:30:43.775315	319.2	14.4	-65.2	0.0
2026-01-26 19:30:46.026791	319.5	14.2	-68.0	0.0
2026-01-26 19:30:48.276659	319.8	14.1	-66.1	0.0
2026-01-26 19:30:50.527706	320.1	13.9	-65.3	0.0
2026-01-26 19:30:52.780168	320.4	13.7	-63.6	0.0
2026-01-26 19:30:55.032004	320.7	13.5	-67.2	0.0
2026-01-26 19:30:57.283940	321.0	13.4	-66.0	0.0
2026-01-26 19:30:59.537725	321.3	13.2	-64.7	0.0
2026-01-26 19:31:01.789998	321.6	13.0	-66.1	0.0
2026-01-26 19:31:04.042216	321.9	12.9	-67.6	0.0
2026-01-26 19:31:06.295418	322.1	12.7	-68.5	0.0
2026-01-26 19:31:08.549808	322.4	12.5	-64.7	0.0
2026-01-26 19:31:10.800763	322.7	12.3	-64.4	0.0
2026-01-26 19:31:13.050494	323.0	12.2	-65.5	0.0
2026-01-26 19:31:15.302203	323.2	12.0	-66.3	0.0
2026-01-26 19:31:17.558173	323.5	11.8	-65.2	0.0
2026-01-26 19:31:19.812807	323.8	11.7	-66.2	0.0
2026-01-26 19:31:22.062761	324.0	11.5	-62.4	0.0
2026-01-26 19:31:24.318537	324.3	11.4	-65.5	0.0
2026-01-26 19:31:26.569818	324.5	11.2	-65.8	0.0
2026-01-26 19:31:28.822094	324.8	11.0	-66.2	0.0
2026-01-26 19:31:31.073034	325.0	10.9	-66.8	0.0
2026-01-26 19:31:33.327366	325.3	10.7	-67.4	0.0
2026-01-26 19:31:35.578441	325.5	10.5	-69.9	0.0
2026-01-26 19:31:37.830370	325.8	10.4	-68.8	0.0
2026-01-26 19:31:40.084154	326.0	10.2	-72.8	0.0
#Closed at: 2026-01-26 19:22:32.234776