passes_logs/2025/01/26/LEX_Murmansk/LEX_Murmansk__20250126_064354_NOAA_19_rec.log

#Pass ID: 20250126_064354_NOAA 19
#Satellite: NOAA 19
#Configuration: NOAA 19
#Start time: 2025-01-26 06:43:49.522602

#LorettStation: 1.0.0 05.05.2024
#Station: LEX_Murmansk
#Location: 33.156738 lon 68.926811 lat
#TLE: 1 33591U 09005A   25024.84494910  .00000392  00000+0  23341-3 0  9996
#TLE: 2 33591  99.0180  88.6826 0014105  30.8618 329.3380 14.13268098822670

#Time	Az	El	Level	SNR
2025-01-26 06:44:01.670167	41.2	15.9	-91.9	0.2
2025-01-26 06:44:02.836035	41.4	16.0	-92.0	2.1
2025-01-26 06:44:03.999935	41.6	16.1	-91.8	2.6
2025-01-26 06:44:05.161723	41.8	16.1	-92.0	1.4
2025-01-26 06:44:06.319910	41.9	16.2	-92.2	4.8
2025-01-26 06:44:07.475897	42.1	16.3	-92.0	2.2
2025-01-26 06:44:08.637057	42.3	16.4	-91.9	3.0
2025-01-26 06:44:09.794214	42.5	16.5	-91.9	3.2
2025-01-26 06:44:10.959355	42.7	16.6	-92.2	3.3
2025-01-26 06:44:12.120196	42.9	16.7	-92.2	2.7
2025-01-26 06:44:13.286464	43.1	16.7	-92.0	2.0
2025-01-26 06:44:14.453183	43.3	16.8	-92.3	2.0
2025-01-26 06:44:15.610366	43.5	16.9	-92.0	1.1
2025-01-26 06:44:16.770521	43.7	17.0	-92.1	0.8
2025-01-26 06:44:17.932653	43.9	17.1	-92.3	3.0
2025-01-26 06:44:19.100010	44.1	17.2	-91.8	4.2
2025-01-26 06:44:20.255251	44.3	17.2	-92.3	2.6
2025-01-26 06:44:21.415319	44.5	17.3	-92.4	5.1
2025-01-26 06:44:22.579561	44.7	17.4	-92.1	7.2
2025-01-26 06:44:23.747783	44.9	17.5	-92.4	6.1
2025-01-26 06:44:24.912130	45.1	17.6	-92.3	6.9
2025-01-26 06:44:26.073104	45.3	17.7	-92.0	6.4
2025-01-26 06:44:27.238855	45.5	17.8	-92.1	6.0
2025-01-26 06:44:28.398394	45.7	17.8	-92.2	8.7
2025-01-26 06:44:29.566937	45.9	17.9	-92.3	10.4
2025-01-26 06:44:30.726677	46.1	18.0	-92.1	10.0
2025-01-26 06:44:31.894463	46.3	18.1	-92.3	9.0
2025-01-26 06:44:33.058165	46.6	18.2	-92.4	8.1
2025-01-26 06:44:34.224992	46.8	18.3	-91.8	3.6
2025-01-26 06:44:35.389430	47.0	18.4	-91.6	3.3
2025-01-26 06:44:36.556601	47.2	18.4	-92.2	2.8
2025-01-26 06:44:37.719995	47.4	18.5	-92.2	2.2
2025-01-26 06:44:38.876356	47.6	18.6	-92.1	2.9
2025-01-26 06:44:40.041047	47.9	18.7	-91.9	5.6
2025-01-26 06:44:41.199894	48.1	18.8	-91.8	6.6
2025-01-26 06:44:42.352990	48.3	18.9	-91.9	9.8
2025-01-26 06:44:43.483247	48.5	18.9	-91.8	11.5
2025-01-26 06:44:44.603843	48.7	19.0	-92.0	10.5
2025-01-26 06:44:45.723964	49.0	19.1	-91.8	9.3
2025-01-26 06:44:46.845552	49.2	19.2	-92.1	6.1
2025-01-26 06:44:47.966523	49.4	19.3	-91.9	9.9
2025-01-26 06:44:49.089679	49.6	19.3	-91.9	6.8
2025-01-26 06:44:50.210864	49.8	19.4	-91.7	7.8
2025-01-26 06:44:51.331500	50.1	19.5	-91.9	7.8
2025-01-26 06:44:52.453135	50.3	19.6	-92.1	12.2
2025-01-26 06:44:53.595798	50.5	19.7	-92.0	13.0
2025-01-26 06:44:54.752501	50.7	19.7	-92.1	9.8
2025-01-26 06:44:55.913850	51.0	19.8	-91.9	8.9
2025-01-26 06:44:57.075547	51.2	19.9	-91.7	6.8
2025-01-26 06:44:58.227505	51.5	20.0	-91.9	3.7
2025-01-26 06:44:59.386656	51.7	20.1	-92.0	4.3
2025-01-26 06:45:00.528292	51.9	20.1	-92.3	4.4
2025-01-26 06:45:01.656683	52.2	20.2	-92.0	3.1
2025-01-26 06:45:02.823854	52.4	20.3	-92.0	4.4
2025-01-26 06:45:03.975073	52.6	20.4	-92.1	6.4
2025-01-26 06:45:05.136630	52.9	20.4	-91.9	8.4
2025-01-26 06:45:06.286280	53.1	20.5	-91.8	11.0
2025-01-26 06:45:07.435272	53.4	20.6	-92.0	14.3
2025-01-26 06:45:08.596825	53.6	20.7	-92.1	16.5
2025-01-26 06:45:09.772777	53.9	20.8	-92.3	14.8
2025-01-26 06:45:10.939634	54.1	20.8	-92.1	12.5
2025-01-26 06:45:12.101175	54.4	20.9	-91.9	10.7
2025-01-26 06:45:13.263376	54.6	21.0	-91.9	6.4
2025-01-26 06:45:14.426840	54.9	21.1	-92.0	10.8
2025-01-26 06:45:15.592444	55.2	21.2	-91.8	10.1
2025-01-26 06:45:16.752660	55.4	21.2	-91.9	8.7
2025-01-26 06:45:17.919071	55.7	21.3	-92.1	13.4
2025-01-26 06:45:19.083273	55.9	21.4	-92.6	14.2
2025-01-26 06:45:20.247340	56.2	21.5	-92.5	13.3
2025-01-26 06:45:21.416131	56.5	21.5	-92.6	14.6
2025-01-26 06:45:22.580350	56.7	21.6	-92.5	11.3
2025-01-26 06:45:23.743508	57.0	21.7	-92.3	8.4
2025-01-26 06:45:24.898141	57.3	21.8	-92.3	7.6
2025-01-26 06:45:26.059427	57.5	21.8	-92.3	5.8
2025-01-26 06:45:27.218496	57.8	21.9	-92.4	3.0
2025-01-26 06:45:28.378487	58.1	22.0	-92.1	5.5
2025-01-26 06:45:29.542558	58.3	22.0	-92.3	5.9
2025-01-26 06:45:30.703234	58.6	22.1	-92.2	9.5
2025-01-26 06:45:31.867673	58.9	22.2	-92.5	11.5
2025-01-26 06:45:33.030465	59.2	22.3	-92.3	10.9
2025-01-26 06:45:34.187763	59.4	22.3	-92.1	14.4
2025-01-26 06:45:35.345815	59.7	22.4	-92.5	16.6
2025-01-26 06:45:36.512755	60.0	22.5	-92.6	14.9
2025-01-26 06:45:37.676823	60.3	22.5	-92.6	14.6
2025-01-26 06:45:38.852229	60.6	22.6	-92.2	10.7
2025-01-26 06:45:40.021546	60.8	22.7	-92.4	10.9
2025-01-26 06:45:41.179000	61.1	22.7	-92.4	9.7
2025-01-26 06:45:42.347448	61.4	22.8	-92.4	6.5
2025-01-26 06:45:43.515606	61.7	22.9	-92.5	9.2
2025-01-26 06:45:44.680650	62.0	22.9	-92.6	8.0
2025-01-26 06:45:45.842637	62.3	23.0	-92.4	10.0
2025-01-26 06:45:47.013099	62.6	23.1	-92.6	14.2
2025-01-26 06:45:48.176176	62.8	23.1	-92.5	15.1
2025-01-26 06:45:49.335562	63.1	23.2	-92.3	11.9
2025-01-26 06:45:50.502835	63.4	23.3	-92.5	11.3
2025-01-26 06:45:51.664205	63.7	23.3	-92.5	12.9
2025-01-26 06:45:52.828366	64.0	23.4	-92.4	10.0
2025-01-26 06:45:53.989367	64.3	23.4	-92.8	10.1
2025-01-26 06:45:55.154302	64.6	23.5	-92.3	5.5
2025-01-26 06:45:56.317166	64.9	23.6	-92.2	3.6
2025-01-26 06:45:57.479029	65.2	23.6	-92.6	4.9
2025-01-26 06:45:58.633223	65.5	23.7	-92.5	5.9
2025-01-26 06:45:59.793249	65.8	23.7	-92.4	4.0
2025-01-26 06:46:00.918985	66.1	23.8	-92.5	3.7
2025-01-26 06:46:02.040303	66.4	23.8	-92.4	4.0
2025-01-26 06:46:03.161322	66.7	23.9	-92.4	8.9
2025-01-26 06:46:04.283044	67.0	23.9	-92.2	7.6
2025-01-26 06:46:05.403469	67.3	24.0	-92.5	8.6
2025-01-26 06:46:06.523908	67.6	24.0	-92.5	11.5
2025-01-26 06:46:07.644643	67.9	24.1	-92.4	9.8
2025-01-26 06:46:08.765090	68.2	24.1	-92.5	9.7
2025-01-26 06:46:09.888252	68.5	24.2	-92.4	8.6
2025-01-26 06:46:11.034756	68.8	24.2	-92.5	8.9
2025-01-26 06:46:12.199842	69.1	24.3	-92.4	7.3
2025-01-26 06:46:13.356647	69.4	24.3	-92.4	6.4
2025-01-26 06:46:14.525455	69.7	24.4	-92.4	8.0
2025-01-26 06:46:15.676010	70.0	24.4	-92.6	11.6
2025-01-26 06:46:16.840936	70.4	24.5	-92.5	10.4
2025-01-26 06:46:18.005322	70.7	24.5	-92.1	5.7
2025-01-26 06:46:19.165420	71.0	24.6	-92.1	11.9
2025-01-26 06:46:20.326125	71.3	24.6	-92.4	12.2
2025-01-26 06:46:21.482880	71.6	24.7	-92.6	9.0
2025-01-26 06:46:22.632368	71.9	24.7	-92.5	8.6
2025-01-26 06:46:23.800309	72.3	24.7	-92.4	10.6
2025-01-26 06:46:24.962455	72.6	24.8	-92.5	8.5
2025-01-26 06:46:26.130338	72.9	24.8	-92.8	8.0
2025-01-26 06:46:27.290621	73.2	24.9	-92.8	5.6
2025-01-26 06:46:28.449439	73.6	24.9	-92.8	3.5
2025-01-26 06:46:29.604814	73.9	24.9	-92.8	5.0
2025-01-26 06:46:30.762366	74.2	25.0	-92.9	7.2
2025-01-26 06:46:31.927403	74.5	25.0	-93.1	7.0
2025-01-26 06:46:33.091457	74.9	25.0	-92.9	5.0
2025-01-26 06:46:34.256962	75.2	25.1	-92.7	6.2
2025-01-26 06:46:35.409898	75.5	25.1	-92.6	2.8
2025-01-26 06:46:36.584022	75.8	25.1	-92.7	1.2
2025-01-26 06:46:37.747304	76.2	25.2	-92.8	4.5
2025-01-26 06:46:38.918912	76.5	25.2	-92.8	2.7
2025-01-26 06:46:40.082217	76.8	25.2	-92.8	3.8
2025-01-26 06:46:41.252064	77.2	25.3	-92.9	1.8
2025-01-26 06:46:42.413188	77.5	25.3	-92.8	3.1
2025-01-26 06:46:43.569922	77.8	25.3	-92.6	1.4
2025-01-26 06:46:44.748576	78.2	25.3	-92.8	6.2
2025-01-26 06:46:45.916326	78.5	25.4	-92.5	2.1
2025-01-26 06:46:47.073957	78.8	25.4	-92.8	6.5
2025-01-26 06:46:48.230765	79.2	25.4	-92.5	6.8
2025-01-26 06:46:49.390199	79.5	25.4	-92.9	3.8
2025-01-26 06:46:50.550294	79.8	25.4	-92.7	4.5
2025-01-26 06:46:51.709237	80.2	25.5	-92.5	6.4
2025-01-26 06:46:52.874464	80.5	25.5	-92.7	9.2
2025-01-26 06:46:54.035469	80.9	25.5	-92.9	7.1
2025-01-26 06:46:55.201861	81.2	25.5	-92.8	2.7
2025-01-26 06:46:56.361648	81.5	25.5	-92.8	5.3
2025-01-26 06:46:57.520651	81.9	25.5	-92.8	1.7
2025-01-26 06:46:58.684100	82.2	25.5	-92.8	2.3
2025-01-26 06:46:59.848135	82.5	25.6	-92.9	1.6
2025-01-26 06:47:01.000580	82.9	25.6	-93.0	4.1
2025-01-26 06:47:02.160721	83.2	25.6	-92.8	3.0
2025-01-26 06:47:03.326284	83.6	25.6	-92.6	5.1
2025-01-26 06:47:04.490975	83.9	25.6	-92.9	2.9
2025-01-26 06:47:05.656436	84.2	25.6	-92.9	1.8
2025-01-26 06:47:06.820057	84.6	25.6	-92.9	2.0
2025-01-26 06:47:07.989582	84.9	25.6	-92.7	2.1
2025-01-26 06:47:09.149446	85.3	25.6	-92.7	3.9
2025-01-26 06:47:10.316253	85.6	25.6	-92.5	7.2
2025-01-26 06:47:11.485269	85.9	25.6	-92.7	5.4
2025-01-26 06:47:12.649552	86.3	25.6	-92.8	4.9
2025-01-26 06:47:13.811609	86.6	25.6	-92.7	5.3
2025-01-26 06:47:14.970887	86.9	25.6	-92.9	4.2
2025-01-26 06:47:16.134939	87.3	25.6	-92.9	5.7
2025-01-26 06:47:17.295770	87.6	25.6	-93.0	6.1
2025-01-26 06:47:18.457477	88.0	25.6	-93.1	4.8
2025-01-26 06:47:19.618616	88.3	25.6	-92.9	5.3
2025-01-26 06:47:20.781323	88.6	25.6	-92.7	10.1
2025-01-26 06:47:21.939713	89.0	25.6	-92.9	10.1
2025-01-26 06:47:23.106236	89.3	25.6	-92.2	7.0
2025-01-26 06:47:24.271301	89.7	25.6	-92.4	8.5
2025-01-26 06:47:25.436188	90.0	25.5	-92.7	6.5
2025-01-26 06:47:26.600678	90.3	25.5	-93.1	6.4
2025-01-26 06:47:27.753694	90.7	25.5	-92.7	2.3
2025-01-26 06:47:28.911685	91.0	25.5	-92.6	4.9
2025-01-26 06:47:30.067336	91.3	25.5	-92.9	7.3
2025-01-26 06:47:31.228317	91.7	25.5	-92.8	7.9
2025-01-26 06:47:32.391750	92.0	25.4	-92.6	7.8
2025-01-26 06:47:33.557023	92.4	25.4	-92.6	6.0
2025-01-26 06:47:34.717657	92.7	25.4	-92.6	7.2
2025-01-26 06:47:35.875718	93.0	25.4	-93.0	6.8
2025-01-26 06:47:37.040573	93.4	25.4	-93.2	5.0
2025-01-26 06:47:38.200171	93.7	25.3	-93.0	6.6
2025-01-26 06:47:39.358098	94.0	25.3	-92.8	4.7
2025-01-26 06:47:40.519779	94.4	25.3	-92.8	3.8
2025-01-26 06:47:41.684935	94.7	25.3	-92.6	4.3
2025-01-26 06:47:42.844588	95.0	25.2	-92.8	6.2
2025-01-26 06:47:44.009604	95.3	25.2	-93.1	2.0
2025-01-26 06:47:45.174074	95.7	25.2	-92.6	1.7
2025-01-26 06:47:46.342580	96.0	25.2	-92.9	2.2
2025-01-26 06:47:47.512802	96.3	25.1	-93.1	3.5
2025-01-26 06:47:48.685642	96.7	25.1	-92.8	3.2
2025-01-26 06:47:49.849567	97.0	25.1	-92.7	5.1
2025-01-26 06:47:51.015868	97.3	25.0	-92.6	2.0
2025-01-26 06:47:52.176723	97.7	25.0	-92.7	1.1
2025-01-26 06:47:53.339088	98.0	25.0	-92.6	5.0
2025-01-26 06:47:54.615988	98.3	24.9	-93.2	4.2
2025-01-26 06:47:55.781263	98.7	24.9	-93.0	5.6
2025-01-26 06:47:56.940322	99.0	24.8	-92.9	3.5
2025-01-26 06:47:58.104215	99.3	24.8	-92.9	3.2
2025-01-26 06:47:59.267688	99.6	24.8	-92.8	4.0
2025-01-26 06:48:00.428447	100.0	24.7	-92.9	2.6
2025-01-26 06:48:01.590609	100.3	24.7	-92.7	2.4
2025-01-26 06:48:02.757897	100.6	24.6	-92.8	2.5
2025-01-26 06:48:03.925892	100.9	24.6	-92.6	1.0
2025-01-26 06:48:05.085753	101.2	24.5	-92.8	3.6
2025-01-26 06:48:06.254728	101.6	24.5	-93.2	4.7
2025-01-26 06:48:07.421043	101.9	24.5	-93.0	2.9
2025-01-26 06:48:08.589369	102.2	24.4	-92.7	4.2
2025-01-26 06:48:09.748966	102.5	24.4	-92.8	6.1
2025-01-26 06:48:10.912927	102.8	24.3	-92.7	4.3
2025-01-26 06:48:12.072593	103.1	24.3	-92.5	4.7
2025-01-26 06:48:13.225963	103.4	24.2	-92.5	9.5
2025-01-26 06:48:14.388497	103.8	24.2	-92.4	8.8
2025-01-26 06:48:15.552969	104.1	24.1	-92.7	3.7
2025-01-26 06:48:16.715141	104.4	24.1	-92.6	5.5
2025-01-26 06:48:17.874428	104.7	24.0	-92.9	7.5
2025-01-26 06:48:19.028593	105.0	24.0	-92.6	3.7
2025-01-26 06:48:20.179292	105.3	23.9	-92.5	6.8
2025-01-26 06:48:21.329085	105.6	23.8	-93.0	8.8
2025-01-26 06:48:22.459426	105.9	23.8	-92.9	4.3
2025-01-26 06:48:23.579766	106.2	23.7	-92.6	5.0
2025-01-26 06:48:24.700486	106.5	23.7	-92.7	4.2
2025-01-26 06:48:25.820965	106.8	23.6	-92.7	5.6
2025-01-26 06:48:26.941559	107.0	23.6	-92.7	6.1
2025-01-26 06:48:28.063614	107.3	23.5	-92.5	6.6
2025-01-26 06:48:29.183656	107.6	23.5	-92.4	9.8
2025-01-26 06:48:30.304267	107.9	23.4	-92.3	8.8
2025-01-26 06:48:31.429039	108.2	23.3	-92.6	5.8
2025-01-26 06:48:32.562176	108.5	23.3	-92.9	8.9
2025-01-26 06:48:33.725437	108.8	23.2	-92.9	10.1
2025-01-26 06:48:34.881634	109.1	23.2	-92.4	10.2
2025-01-26 06:48:36.045685	109.4	23.1	-92.8	8.3
2025-01-26 06:48:37.191770	109.6	23.0	-92.7	9.7
2025-01-26 06:48:38.352053	109.9	23.0	-92.6	8.9
2025-01-26 06:48:39.512847	110.2	22.9	-92.5	5.5
2025-01-26 06:48:40.676570	110.5	22.8	-92.4	9.6
2025-01-26 06:48:41.839361	110.8	22.8	-92.7	9.5
2025-01-26 06:48:43.005522	111.1	22.7	-93.0	9.8
2025-01-26 06:48:44.170035	111.4	22.6	-92.9	10.9
2025-01-26 06:48:45.333729	111.6	22.6	-92.6	8.3
2025-01-26 06:48:46.499919	111.9	22.5	-92.3	10.5
2025-01-26 06:48:47.653422	112.2	22.4	-92.6	11.2
2025-01-26 06:48:48.817351	112.5	22.4	-92.6	10.2
2025-01-26 06:48:49.977996	112.7	22.3	-92.8	10.5
2025-01-26 06:48:51.141103	113.0	22.2	-92.0	7.7
2025-01-26 06:48:52.300715	113.3	22.1	-92.8	8.4
2025-01-26 06:48:53.465584	113.6	22.1	-93.0	8.8
2025-01-26 06:48:54.630990	113.8	22.0	-92.9	7.9
2025-01-26 06:48:55.796488	114.1	21.9	-92.9	10.5
2025-01-26 06:48:56.962102	114.4	21.9	-92.5	9.6
2025-01-26 06:48:58.128454	114.7	21.8	-92.5	9.6
2025-01-26 06:48:59.286561	114.9	21.7	-92.2	9.1
2025-01-26 06:49:00.443412	115.2	21.6	-92.5	8.2
2025-01-26 06:49:01.610340	115.4	21.6	-92.7	8.2
2025-01-26 06:49:02.775078	115.7	21.5	-92.7	8.9
2025-01-26 06:49:03.938264	116.0	21.4	-92.8	7.7
2025-01-26 06:49:05.101446	116.2	21.3	-92.7	7.3
2025-01-26 06:49:06.270581	116.5	21.3	-92.8	11.4
2025-01-26 06:49:07.429490	116.8	21.2	-92.8	7.0
2025-01-26 06:49:08.597074	117.0	21.1	-93.0	5.9
2025-01-26 06:49:09.753264	117.3	21.0	-92.5	10.6
2025-01-26 06:49:10.914338	117.5	21.0	-92.6	5.7
2025-01-26 06:49:12.077518	117.8	20.9	-92.4	4.0
2025-01-26 06:49:13.240756	118.0	20.8	-92.4	10.8
2025-01-26 06:49:14.404956	118.3	20.7	-92.5	8.6
2025-01-26 06:49:15.577389	118.5	20.6	-92.9	5.3
2025-01-26 06:49:16.735864	118.8	20.6	-92.7	12.4
2025-01-26 06:49:17.900349	119.0	20.5	-92.8	8.5
2025-01-26 06:49:19.064886	119.3	20.4	-92.7	8.1
2025-01-26 06:49:20.227575	119.5	20.3	-92.7	12.5
2025-01-26 06:49:21.390067	119.8	20.2	-92.2	9.6
2025-01-26 06:49:22.554967	120.0	20.2	-92.7	8.7
2025-01-26 06:49:23.719065	120.2	20.1	-92.8	12.8
2025-01-26 06:49:24.884667	120.5	20.0	-92.7	11.8
2025-01-26 06:49:26.041330	120.7	19.9	-92.8	8.5
2025-01-26 06:49:27.200645	121.0	19.8	-92.9	12.0
2025-01-26 06:49:28.325940	121.2	19.8	-93.0	11.2
2025-01-26 06:49:29.447524	121.4	19.7	-92.8	10.7
2025-01-26 06:49:30.567588	121.6	19.6	-92.7	11.8
2025-01-26 06:49:31.690605	121.9	19.5	-92.9	13.3
2025-01-26 06:49:32.810878	122.1	19.4	-93.0	13.1
2025-01-26 06:49:33.931339	122.3	19.4	-92.6	10.9
2025-01-26 06:49:35.051270	122.5	19.3	-92.8	11.6
2025-01-26 06:49:36.172894	122.8	19.2	-92.7	11.8
2025-01-26 06:49:37.298440	123.0	19.1	-92.7	13.0
2025-01-26 06:49:38.431761	123.2	19.0	-92.5	12.1
2025-01-26 06:49:39.581238	123.4	19.0	-92.7	10.6
2025-01-26 06:49:40.736529	123.6	18.9	-92.7	13.5
2025-01-26 06:49:41.897882	123.9	18.8	-92.9	8.0
2025-01-26 06:49:43.053106	124.1	18.7	-93.0	8.4
2025-01-26 06:49:44.217143	124.3	18.6	-92.9	12.5
2025-01-26 06:49:45.384628	124.5	18.5	-92.3	7.2
2025-01-26 06:49:46.550486	124.7	18.5	-92.6	5.3
2025-01-26 06:49:47.707260	124.9	18.4	-92.9	10.1
2025-01-26 06:49:48.875440	125.2	18.3	-92.8	7.2
2025-01-26 06:49:50.035941	125.4	18.2	-92.7	6.3
2025-01-26 06:49:51.194698	125.6	18.1	-92.4	8.7
2025-01-26 06:49:52.357505	125.8	18.0	-92.4	4.9
2025-01-26 06:49:53.521185	126.0	18.0	-92.7	4.6
2025-01-26 06:49:54.687624	126.2	17.9	-93.0	3.5
2025-01-26 06:49:55.846598	126.4	17.8	-93.0	7.1
2025-01-26 06:49:57.006977	126.6	17.7	-93.0	5.3
2025-01-26 06:49:58.166255	126.8	17.6	-92.8	6.7
2025-01-26 06:49:59.333778	127.1	17.5	-92.8	9.0
2025-01-26 06:50:00.484745	127.3	17.4	-93.0	7.7
2025-01-26 06:50:01.650663	127.5	17.4	-92.7	6.6
2025-01-26 06:50:02.813477	127.7	17.3	-92.8	6.3
2025-01-26 06:50:03.977180	127.9	17.2	-92.9	8.0
2025-01-26 06:50:05.140421	128.1	17.1	-92.6	7.3
2025-01-26 06:50:06.303666	128.3	17.0	-92.6	10.4
2025-01-26 06:50:07.464039	128.5	16.9	-92.3	5.7
2025-01-26 06:50:08.625438	128.7	16.9	-92.7	7.1
2025-01-26 06:50:09.780725	128.8	16.8	-92.8	8.4
2025-01-26 06:50:10.943328	129.0	16.7	-92.8	5.1
2025-01-26 06:50:12.109156	129.2	16.6	-92.8	5.9
2025-01-26 06:50:13.273433	129.4	16.5	-92.6	10.8
2025-01-26 06:50:14.438426	129.6	16.4	-92.9	2.5
2025-01-26 06:50:15.603100	129.8	16.3	-92.7	3.9
2025-01-26 06:50:16.764208	130.0	16.3	-92.6	8.4
2025-01-26 06:50:17.929400	130.2	16.2	-92.5	2.6
2025-01-26 06:50:19.092619	130.4	16.1	-92.7	5.3
2025-01-26 06:50:20.252233	130.6	16.0	-92.6	8.2
2025-01-26 06:50:21.415695	130.7	15.9	-93.0	3.7
2025-01-26 06:50:22.579722	130.9	15.8	-92.8	6.9
2025-01-26 06:50:23.738964	131.1	15.7	-92.8	6.3
2025-01-26 06:50:24.897530	131.3	15.7	-92.8	8.0
2025-01-26 06:50:26.062178	131.5	15.6	-93.1	7.9
2025-01-26 06:50:27.226097	131.7	15.5	-92.6	6.5
2025-01-26 06:50:28.389212	131.8	15.4	-92.8	3.6
2025-01-26 06:50:29.549295	132.0	15.3	-92.8	4.4
2025-01-26 06:50:30.700039	132.2	15.2	-93.1	4.4
2025-01-26 06:50:31.856773	132.4	15.1	-92.9	3.7
2025-01-26 06:50:32.996099	132.5	15.1	-92.7	2.5
2025-01-26 06:50:34.116745	132.7	15.0	-92.6	2.7
2025-01-26 06:50:35.237401	132.9	14.9	-92.8	2.6
2025-01-26 06:50:36.358466	133.0	14.8	-92.5	0.1
2025-01-26 06:50:37.479291	133.2	14.7	-92.7	1.1
2025-01-26 06:50:38.599550	133.4	14.7	-92.6	3.2
#Closed at: 2025-01-26 06:43:54.438789