passes_logs/2025/01/26/LEX_Murmansk/LEX_Murmansk__20250126_102744_NOAA_18_rec.log

#Pass ID: 20250126_102744_NOAA 18
#Satellite: NOAA 18
#Configuration: NOAA 18
#Start time: 2025-01-26 10:27:39.492022

#LorettStation: 1.0.0 05.05.2024
#Station: LEX_Murmansk
#Location: 33.156738 lon 68.926811 lat
#TLE: 1 28654U 05018A   25024.86051977  .00000457  00000+0  26618-3 0  9996
#TLE: 2 28654  98.8552 105.8163 0014791 151.8936 208.3038 14.13496337 14496

#Time	Az	El	Level	SNR
2025-01-26 10:27:51.713013	24.3	16.3	-92.5	9.6
2025-01-26 10:27:54.028896	24.2	16.6	-92.3	10.3
2025-01-26 10:27:56.350571	24.2	16.8	-92.3	9.1
2025-01-26 10:27:58.669827	24.1	17.1	-92.5	10.3
2025-01-26 10:28:00.993559	24.0	17.4	-92.6	10.3
2025-01-26 10:28:03.312561	24.0	17.6	-92.5	13.7
2025-01-26 10:28:05.640976	23.9	17.9	-92.5	12.5
2025-01-26 10:28:07.963466	23.9	18.2	-92.2	13.0
2025-01-26 10:28:10.287468	23.8	18.5	-92.3	10.2
2025-01-26 10:28:12.610521	23.7	18.7	-92.2	8.0
2025-01-26 10:28:14.929942	23.7	19.0	-92.5	5.4
2025-01-26 10:28:17.254020	23.6	19.3	-92.6	14.0
2025-01-26 10:28:19.581986	23.5	19.6	-92.6	13.1
2025-01-26 10:28:21.903843	23.5	19.9	-92.5	11.4
2025-01-26 10:28:24.223442	23.4	20.2	-92.4	14.8
2025-01-26 10:28:26.543774	23.3	20.5	-92.4	11.6
2025-01-26 10:28:28.859019	23.3	20.8	-92.4	10.8
2025-01-26 10:28:31.205532	23.2	21.1	-92.5	14.0
2025-01-26 10:28:33.529833	23.1	21.4	-92.6	14.5
2025-01-26 10:28:35.844086	23.0	21.7	-92.8	14.6
2025-01-26 10:28:38.176209	23.0	22.0	-91.9	13.9
2025-01-26 10:28:40.478454	22.9	22.4	-92.6	13.0
2025-01-26 10:28:42.730506	22.8	22.7	-92.3	13.9
2025-01-26 10:28:44.972424	22.7	23.0	-92.3	7.4
2025-01-26 10:28:47.214001	22.6	23.3	-92.3	13.9
2025-01-26 10:28:49.456283	22.5	23.7	-92.3	13.4
2025-01-26 10:28:51.716090	22.4	24.0	-92.2	16.7
2025-01-26 10:28:54.028194	22.3	24.3	-92.2	14.0
2025-01-26 10:28:56.345401	22.3	24.7	-92.1	16.2
2025-01-26 10:28:58.662896	22.2	25.0	-92.0	15.6
2025-01-26 10:29:00.993316	22.1	25.4	-92.4	10.3
2025-01-26 10:29:03.314354	21.9	25.8	-92.2	14.1
2025-01-26 10:29:05.634153	21.8	26.1	-92.5	14.8
2025-01-26 10:29:07.958225	21.7	26.5	-92.1	15.5
2025-01-26 10:29:10.285174	21.6	26.9	-92.1	15.0
2025-01-26 10:29:12.610227	21.5	27.3	-92.4	12.7
2025-01-26 10:29:14.933484	21.4	27.7	-92.1	13.3
2025-01-26 10:29:17.260283	21.3	28.1	-91.9	14.2
2025-01-26 10:29:19.599719	21.1	28.5	-92.2	8.7
2025-01-26 10:29:21.917934	21.0	28.9	-92.0	8.2
2025-01-26 10:29:24.237230	20.9	29.3	-92.0	9.2
2025-01-26 10:29:26.567898	20.7	29.7	-92.3	10.8
2025-01-26 10:29:28.893565	20.6	30.2	-92.0	10.0
2025-01-26 10:29:31.215917	20.5	30.6	-92.4	11.9
2025-01-26 10:29:33.533715	20.3	31.0	-92.5	10.6
2025-01-26 10:29:35.859110	20.2	31.5	-92.2	8.6
2025-01-26 10:29:38.180982	20.0	31.9	-92.2	12.8
2025-01-26 10:29:40.503318	19.8	32.4	-92.0	12.0
2025-01-26 10:29:42.829308	19.7	32.9	-92.1	9.5
2025-01-26 10:29:45.151038	19.5	33.3	-92.3	13.5
2025-01-26 10:29:47.474476	19.3	33.8	-92.3	16.6
2025-01-26 10:29:49.805069	19.1	34.3	-92.3	15.8
2025-01-26 10:29:52.123870	18.9	34.8	-92.4	12.6
2025-01-26 10:29:54.448351	18.8	35.3	-92.2	7.1
2025-01-26 10:29:56.783567	18.5	35.8	-92.2	13.6
2025-01-26 10:29:59.110789	18.3	36.3	-92.1	16.2
2025-01-26 10:30:01.427589	18.1	36.9	-92.4	14.8
2025-01-26 10:30:03.748939	17.9	37.4	-92.4	18.3
2025-01-26 10:30:06.082094	17.7	38.0	-92.0	19.3
2025-01-26 10:30:08.404357	17.4	38.5	-92.2	14.9
2025-01-26 10:30:10.737436	17.2	39.1	-92.2	14.3
2025-01-26 10:30:13.066165	16.9	39.6	-92.3	10.0
2025-01-26 10:30:15.384756	16.7	40.2	-92.3	16.5
2025-01-26 10:30:17.714936	16.4	40.8	-92.1	21.0
2025-01-26 10:30:20.044196	16.1	41.4	-92.2	16.7
2025-01-26 10:30:22.372180	15.8	42.0	-91.9	17.8
2025-01-26 10:30:24.690544	15.5	42.6	-92.6	21.3
2025-01-26 10:30:27.013759	15.2	43.2	-92.4	19.2
2025-01-26 10:30:29.347960	14.8	43.9	-92.0	17.4
2025-01-26 10:30:31.665368	14.5	44.5	-92.1	19.3
2025-01-26 10:30:34.003772	14.1	45.2	-92.0	15.6
2025-01-26 10:30:36.332780	13.7	45.8	-92.0	21.7
2025-01-26 10:30:38.666556	13.3	46.5	-92.2	21.7
2025-01-26 10:30:40.986320	12.9	47.2	-92.2	17.5
2025-01-26 10:30:43.304497	12.5	47.9	-92.1	15.1
2025-01-26 10:30:45.632954	12.0	48.6	-92.2	15.2
2025-01-26 10:30:47.955373	11.6	49.3	-92.3	17.7
2025-01-26 10:30:50.281504	11.1	50.0	-92.3	17.2
2025-01-26 10:30:52.609096	10.5	50.7	-92.0	14.6
2025-01-26 10:30:54.944679	10.0	51.5	-92.2	11.3
2025-01-26 10:30:57.269755	9.4	52.2	-92.5	14.2
2025-01-26 10:30:59.601263	8.8	53.0	-92.2	13.5
2025-01-26 10:31:01.915096	8.2	53.7	-92.4	14.1
2025-01-26 10:31:04.240862	7.5	54.5	-92.1	19.0
2025-01-26 10:31:06.564108	6.8	55.2	-92.2	14.5
2025-01-26 10:31:08.879812	6.0	56.0	-92.2	8.5
2025-01-26 10:31:11.203778	5.2	56.8	-91.9	13.3
2025-01-26 10:31:13.533995	4.4	57.6	-92.4	13.9
2025-01-26 10:31:15.861898	3.5	58.4	-92.5	11.3
2025-01-26 10:31:18.191123	2.5	59.2	-92.3	12.3
2025-01-26 10:31:20.523179	1.5	60.0	-92.6	9.5
2025-01-26 10:31:22.850204	0.4	60.8	-92.5	17.0
2025-01-26 10:31:25.172053	359.3	61.6	-92.3	20.5
2025-01-26 10:31:27.500016	358.0	62.4	-92.3	19.1
2025-01-26 10:31:29.824259	356.7	63.2	-92.3	21.1
2025-01-26 10:31:32.152871	355.3	64.0	-92.1	18.7
2025-01-26 10:31:34.480767	353.8	64.8	-92.2	18.2
2025-01-26 10:31:36.812421	352.2	65.6	-92.4	23.4
2025-01-26 10:31:39.134439	350.4	66.4	-92.0	23.2
2025-01-26 10:31:41.462983	348.6	67.1	-92.3	19.0
2025-01-26 10:31:43.790271	346.6	67.9	-92.5	13.8
2025-01-26 10:31:46.103618	344.4	68.6	-92.2	11.9
2025-01-26 10:31:48.433019	342.1	69.3	-92.1	11.8
2025-01-26 10:31:50.765766	339.6	69.9	-92.4	16.5
2025-01-26 10:31:53.086956	337.0	70.6	-92.4	11.0
2025-01-26 10:31:55.412532	334.1	71.1	-91.9	12.2
2025-01-26 10:31:57.742231	331.1	71.7	-92.7	12.0
2025-01-26 10:32:00.071194	327.8	72.2	-92.5	10.5
2025-01-26 10:32:02.388731	324.4	72.6	-92.3	18.8
2025-01-26 10:32:04.717571	320.9	73.0	-92.6	17.7
2025-01-26 10:32:07.037428	317.1	73.3	-92.3	15.3
2025-01-26 10:32:09.362339	313.2	73.6	-92.3	15.5
2025-01-26 10:32:11.687195	309.2	73.8	-92.3	21.6
2025-01-26 10:32:14.004195	305.2	73.9	-92.7	14.3
2025-01-26 10:32:16.323368	301.1	73.9	-92.2	23.1
2025-01-26 10:32:18.645632	297.1	73.8	-92.7	23.9
2025-01-26 10:32:20.975568	293.0	73.7	-92.8	17.9
2025-01-26 10:32:23.297960	289.1	73.5	-92.5	25.8
2025-01-26 10:32:25.625856	285.3	73.2	-92.3	25.0
2025-01-26 10:32:27.966471	281.6	72.8	-92.5	24.9
2025-01-26 10:32:30.304013	278.1	72.4	-92.2	28.0
2025-01-26 10:32:32.631964	274.7	71.9	-92.9	27.7
2025-01-26 10:32:34.959643	271.6	71.4	-92.5	26.2
2025-01-26 10:32:37.299322	268.7	70.8	-92.1	26.5
2025-01-26 10:32:39.621753	265.9	70.2	-92.3	26.0
2025-01-26 10:32:41.947109	263.4	69.6	-92.2	24.2
2025-01-26 10:32:44.266068	261.0	68.9	-92.3	23.0
2025-01-26 10:32:46.590609	258.7	68.2	-92.4	24.9
2025-01-26 10:32:48.918927	256.7	67.4	-92.3	26.2
2025-01-26 10:32:51.252370	254.7	66.7	-91.9	25.0
2025-01-26 10:32:53.581286	252.9	65.9	-92.4	25.9
2025-01-26 10:32:55.908898	251.3	65.1	-92.5	24.6
2025-01-26 10:32:58.222753	249.7	64.4	-92.2	24.1
2025-01-26 10:33:00.535111	248.3	63.6	-92.6	21.4
2025-01-26 10:33:02.863942	246.9	62.8	-92.4	22.3
2025-01-26 10:33:05.191199	245.6	62.0	-92.1	21.9
2025-01-26 10:33:07.522187	244.4	61.1	-92.0	17.4
2025-01-26 10:33:09.853141	243.3	60.3	-92.4	18.6
2025-01-26 10:33:12.184501	242.3	59.5	-92.2	20.2
2025-01-26 10:33:14.511619	241.3	58.7	-92.0	13.9
2025-01-26 10:33:16.831229	240.4	57.9	-92.4	18.4
2025-01-26 10:33:19.162557	239.5	57.1	-92.4	18.7
2025-01-26 10:33:21.481086	238.7	56.3	-92.5	14.9
2025-01-26 10:33:23.813419	237.9	55.5	-92.5	16.1
2025-01-26 10:33:26.145222	237.2	54.8	-92.2	18.2
2025-01-26 10:33:28.480445	236.5	54.0	-92.6	13.5
2025-01-26 10:33:30.804615	235.8	53.2	-92.7	15.7
2025-01-26 10:33:33.137541	235.2	52.5	-92.4	16.8
2025-01-26 10:33:35.460246	234.6	51.7	-92.4	14.2
2025-01-26 10:33:37.788369	234.0	51.0	-92.5	18.4
2025-01-26 10:33:40.115546	233.5	50.2	-92.3	15.4
2025-01-26 10:33:42.446244	233.0	49.5	-92.4	11.4
2025-01-26 10:33:44.766541	232.5	48.8	-92.3	15.3
2025-01-26 10:33:47.086379	232.0	48.1	-92.2	9.7
2025-01-26 10:33:49.410145	231.6	47.4	-92.4	10.7
2025-01-26 10:33:51.734082	231.2	46.7	-92.5	12.4
2025-01-26 10:33:54.062636	230.8	46.0	-92.5	8.4
2025-01-26 10:33:56.379710	230.4	45.4	-92.6	10.1
2025-01-26 10:33:58.701994	230.0	44.7	-92.7	10.9
2025-01-26 10:34:01.013795	229.7	44.1	-92.8	13.8
2025-01-26 10:34:03.352275	229.3	43.4	-92.2	12.8
2025-01-26 10:34:05.682464	229.0	42.8	-92.9	10.9
2025-01-26 10:34:08.011030	228.7	42.2	-92.7	6.5
2025-01-26 10:34:10.343029	228.4	41.6	-92.5	7.3
2025-01-26 10:34:12.671021	228.1	40.9	-92.4	11.8
2025-01-26 10:34:14.989695	227.8	40.4	-92.3	12.9
2025-01-26 10:34:17.317162	227.5	39.8	-92.5	16.7
2025-01-26 10:34:19.642548	227.3	39.2	-92.8	20.0
2025-01-26 10:34:21.979021	227.0	38.6	-92.4	17.9
2025-01-26 10:34:24.299567	226.8	38.1	-92.4	20.0
2025-01-26 10:34:26.625314	226.5	37.5	-92.4	15.2
2025-01-26 10:34:28.959686	226.3	37.0	-92.5	14.5
2025-01-26 10:34:31.288750	226.1	36.4	-92.4	18.5
2025-01-26 10:34:33.614726	225.9	35.9	-92.5	17.1
2025-01-26 10:34:35.936513	225.7	35.4	-92.7	19.6
2025-01-26 10:34:38.269626	225.5	34.9	-92.5	17.5
2025-01-26 10:34:40.604302	225.3	34.4	-92.4	15.1
2025-01-26 10:34:42.924260	225.1	33.9	-92.1	13.5
2025-01-26 10:34:45.243008	224.9	33.4	-92.4	16.4
2025-01-26 10:34:47.572920	224.7	32.9	-92.6	11.8
2025-01-26 10:34:49.898623	224.6	32.4	-92.6	15.4
2025-01-26 10:34:52.227395	224.4	32.0	-92.2	20.2
2025-01-26 10:34:54.555473	224.2	31.5	-92.5	15.9
2025-01-26 10:34:56.879230	224.1	31.1	-92.9	14.3
2025-01-26 10:34:59.208054	223.9	30.6	-92.4	16.6
2025-01-26 10:35:01.524787	223.8	30.2	-92.7	11.7
2025-01-26 10:35:03.851992	223.6	29.8	-92.8	11.7
2025-01-26 10:35:06.185295	223.5	29.3	-92.3	7.5
2025-01-26 10:35:08.523308	223.4	28.9	-92.5	10.9
2025-01-26 10:35:10.857630	223.2	28.5	-92.7	6.9
2025-01-26 10:35:13.185364	223.1	28.1	-92.4	5.3
2025-01-26 10:35:15.512662	223.0	27.7	-92.9	5.3
2025-01-26 10:35:17.841278	222.9	27.3	-92.8	5.0
2025-01-26 10:35:20.171429	222.7	26.9	-92.4	3.2
2025-01-26 10:35:22.496117	222.6	26.5	-92.3	6.1
2025-01-26 10:35:24.825051	222.5	26.1	-92.4	5.4
2025-01-26 10:35:27.149445	222.4	25.7	-92.6	9.0
2025-01-26 10:35:29.480373	222.3	25.4	-92.4	4.9
2025-01-26 10:35:31.801174	222.2	25.0	-92.8	9.8
2025-01-26 10:35:34.130322	222.1	24.6	-92.4	8.7
2025-01-26 10:35:36.448043	222.0	24.3	-92.6	8.2
2025-01-26 10:35:38.774896	221.9	23.9	-92.8	13.5
2025-01-26 10:35:41.097135	221.8	23.6	-92.5	11.3
2025-01-26 10:35:43.422386	221.7	23.2	-92.2	8.7
2025-01-26 10:35:45.739985	221.6	22.9	-92.7	13.4
2025-01-26 10:35:48.055304	221.5	22.6	-92.8	8.3
2025-01-26 10:35:50.380660	221.5	22.2	-92.5	13.9
2025-01-26 10:35:52.708244	221.4	21.9	-92.6	14.4
2025-01-26 10:35:55.028836	221.3	21.6	-92.4	15.6
2025-01-26 10:35:57.351438	221.2	21.3	-92.4	14.1
2025-01-26 10:35:59.682874	221.1	21.0	-92.8	15.6
2025-01-26 10:36:02.004393	221.1	20.7	-92.6	11.1
2025-01-26 10:36:04.325163	221.0	20.4	-92.3	13.3
2025-01-26 10:36:06.645582	220.9	20.0	-92.6	13.7
2025-01-26 10:36:08.978440	220.8	19.7	-92.6	11.2
2025-01-26 10:36:11.308408	220.8	19.5	-92.5	9.9
2025-01-26 10:36:13.634878	220.7	19.2	-92.7	12.1
2025-01-26 10:36:15.949899	220.6	18.9	-92.9	10.0
2025-01-26 10:36:18.281391	220.6	18.6	-92.2	12.7
2025-01-26 10:36:20.602008	220.5	18.3	-92.5	12.9
2025-01-26 10:36:22.922694	220.4	18.0	-92.7	14.1
2025-01-26 10:36:25.250849	220.4	17.7	-92.5	10.8
2025-01-26 10:36:27.578379	220.3	17.5	-92.8	10.6
2025-01-26 10:36:29.917585	220.2	17.2	-92.5	12.4
2025-01-26 10:36:32.243811	220.2	16.9	-92.4	11.0
2025-01-26 10:36:34.566614	220.1	16.7	-92.2	12.8
2025-01-26 10:36:36.899981	220.1	16.4	-92.6	9.2
2025-01-26 10:36:39.221052	220.0	16.1	-92.5	8.9
2025-01-26 10:36:41.545863	220.0	15.9	-92.6	7.0
2025-01-26 10:36:43.868004	219.9	15.6	-92.4	8.4
2025-01-26 10:36:46.186016	219.9	15.4	-92.4	10.5
2025-01-26 10:36:48.504522	219.8	15.1	-92.4	12.2
2025-01-26 10:36:50.822127	219.8	14.9	-92.9	9.5
2025-01-26 10:36:53.152682	219.7	14.6	-92.4	5.2
2025-01-26 10:36:55.466155	219.7	14.4	-92.2	7.0
#Closed at: 2025-01-26 10:27:44.500051