passes_logs/2025/01/26/LEX_Murmansk/LEX_Murmansk__20250126_100505_NOAA_19_rec.log

#Pass ID: 20250126_100505_NOAA 19
#Satellite: NOAA 19
#Configuration: NOAA 19
#Start time: 2025-01-26 10:05:00.301094

#LorettStation: 1.0.0 05.05.2024
#Station: LEX_Murmansk
#Location: 33.156738 lon 68.926811 lat
#TLE: 1 33591U 09005A   25024.84494910  .00000392  00000+0  23341-3 0  9996
#TLE: 2 33591  99.0180  88.6826 0014105  30.8618 329.3380 14.13268098822670

#Time	Az	El	Level	SNR
2025-01-26 10:05:12.467689	23.6	16.3	-92.0	1.6
2025-01-26 10:05:14.909211	23.5	16.5	-92.1	2.7
2025-01-26 10:05:17.235725	23.3	16.8	-91.8	3.6
2025-01-26 10:05:19.565977	23.2	17.0	-92.0	6.3
2025-01-26 10:05:21.895774	23.0	17.3	-91.7	3.6
2025-01-26 10:05:24.229903	22.8	17.5	-92.2	6.9
2025-01-26 10:05:26.562313	22.7	17.8	-91.8	7.9
2025-01-26 10:05:28.889401	22.5	18.0	-92.2	3.9
2025-01-26 10:05:31.221169	22.3	18.3	-92.4	2.4
2025-01-26 10:05:33.545099	22.1	18.6	-92.5	9.7
2025-01-26 10:05:35.877202	22.0	18.8	-92.0	11.2
2025-01-26 10:05:38.199140	21.8	19.1	-92.2	5.9
2025-01-26 10:05:40.527504	21.6	19.4	-92.1	8.4
2025-01-26 10:05:42.855692	21.4	19.7	-92.4	5.5
2025-01-26 10:05:45.183981	21.2	19.9	-92.3	1.4
2025-01-26 10:05:47.514743	21.0	20.2	-92.3	1.6
2025-01-26 10:05:49.850336	20.8	20.5	-92.5	7.0
2025-01-26 10:05:52.167588	20.6	20.8	-92.3	7.8
2025-01-26 10:05:54.496254	20.4	21.1	-92.1	6.9
2025-01-26 10:05:56.816182	20.1	21.4	-92.1	6.2
2025-01-26 10:05:59.136479	19.9	21.7	-92.3	8.0
2025-01-26 10:06:01.456914	19.7	22.0	-92.3	3.2
2025-01-26 10:06:03.779670	19.5	22.3	-92.1	1.3
2025-01-26 10:06:06.103435	19.2	22.6	-92.1	5.9
2025-01-26 10:06:08.418873	19.0	22.9	-92.2	11.3
2025-01-26 10:06:10.746296	18.8	23.2	-92.6	7.9
2025-01-26 10:06:13.072233	18.5	23.5	-92.4	9.1
2025-01-26 10:06:15.395543	18.3	23.8	-92.6	9.3
2025-01-26 10:06:17.720331	18.0	24.2	-92.5	6.2
2025-01-26 10:06:20.042237	17.7	24.5	-92.5	2.9
2025-01-26 10:06:22.373897	17.5	24.8	-92.3	3.2
2025-01-26 10:06:24.712509	17.2	25.1	-92.6	9.9
2025-01-26 10:06:27.040578	16.9	25.5	-92.2	11.4
2025-01-26 10:06:29.369688	16.6	25.8	-91.9	6.4
2025-01-26 10:06:31.704454	16.3	26.2	-92.4	11.4
2025-01-26 10:06:34.036459	16.0	26.5	-92.4	10.9
2025-01-26 10:06:36.364084	15.7	26.8	-92.2	4.1
2025-01-26 10:06:38.695036	15.4	27.2	-92.8	1.2
2025-01-26 10:06:41.026072	15.1	27.6	-92.6	7.1
2025-01-26 10:06:43.353919	14.7	27.9	-92.3	6.9
2025-01-26 10:06:45.692516	14.4	28.3	-92.7	6.6
2025-01-26 10:06:48.014699	14.0	28.6	-92.6	6.0
2025-01-26 10:06:50.357779	13.7	29.0	-92.1	6.3
2025-01-26 10:06:52.688124	13.3	29.4	-92.3	8.2
2025-01-26 10:06:55.015437	13.0	29.8	-92.1	4.4
2025-01-26 10:06:57.343929	12.6	30.1	-91.9	3.9
2025-01-26 10:06:59.679969	12.2	30.5	-92.4	6.6
2025-01-26 10:07:02.027742	11.8	30.9	-92.5	13.0
2025-01-26 10:07:04.362619	11.4	31.3	-92.1	8.3
2025-01-26 10:07:06.693714	11.0	31.7	-92.2	8.0
2025-01-26 10:07:09.016900	10.5	32.1	-92.1	13.8
2025-01-26 10:07:11.345013	10.1	32.5	-92.3	11.8
2025-01-26 10:07:13.666499	9.6	32.9	-92.5	4.9
2025-01-26 10:07:15.991642	9.2	33.3	-92.3	3.9
2025-01-26 10:07:18.310624	8.7	33.7	-92.2	6.0
2025-01-26 10:07:20.642504	8.2	34.1	-92.2	13.9
2025-01-26 10:07:22.968558	7.7	34.6	-92.7	15.6
2025-01-26 10:07:25.296434	7.2	35.0	-92.6	8.7
2025-01-26 10:07:27.621663	6.7	35.4	-92.3	14.5
2025-01-26 10:07:29.940730	6.1	35.8	-92.5	17.4
2025-01-26 10:07:32.254507	5.6	36.2	-92.3	13.1
2025-01-26 10:07:34.581087	5.0	36.7	-92.4	7.4
2025-01-26 10:07:36.892116	4.4	37.1	-92.3	4.6
2025-01-26 10:07:39.211170	3.8	37.5	-92.3	8.0
2025-01-26 10:07:41.544265	3.2	38.0	-92.4	16.3
2025-01-26 10:07:43.867405	2.6	38.4	-92.2	16.0
2025-01-26 10:07:46.204690	1.9	38.9	-92.5	11.9
2025-01-26 10:07:48.531509	1.3	39.3	-92.6	14.2
2025-01-26 10:07:50.872839	0.6	39.7	-92.6	16.0
2025-01-26 10:07:53.209073	359.9	40.2	-92.3	17.9
2025-01-26 10:07:55.536245	359.1	40.6	-92.5	12.9
2025-01-26 10:07:57.863936	358.4	41.1	-92.5	5.2
2025-01-26 10:08:00.187881	357.6	41.5	-92.4	4.3
2025-01-26 10:08:02.513956	356.8	42.0	-92.4	12.0
2025-01-26 10:08:04.849180	356.0	42.4	-92.1	18.1
2025-01-26 10:08:07.177725	355.2	42.8	-92.5	19.6
2025-01-26 10:08:09.504996	354.3	43.3	-92.6	17.2
2025-01-26 10:08:11.837548	353.4	43.7	-92.7	9.2
2025-01-26 10:08:14.167036	352.5	44.1	-92.7	13.4
2025-01-26 10:08:16.494662	351.6	44.6	-92.3	20.7
2025-01-26 10:08:18.820375	350.6	45.0	-92.2	19.3
2025-01-26 10:08:21.155602	349.7	45.4	-92.2	14.1
2025-01-26 10:08:23.478110	348.6	45.8	-92.5	10.1
2025-01-26 10:08:25.808581	347.6	46.2	-92.6	3.8
2025-01-26 10:08:28.120802	346.6	46.6	-92.3	5.3
2025-01-26 10:08:30.452946	345.5	47.0	-92.1	11.6
2025-01-26 10:08:32.784236	344.3	47.4	-92.2	16.6
2025-01-26 10:08:35.098800	343.2	47.8	-92.3	18.7
2025-01-26 10:08:37.432116	342.0	48.2	-92.6	14.2
2025-01-26 10:08:39.738798	340.8	48.5	-92.5	5.5
2025-01-26 10:08:42.063074	339.6	48.8	-92.4	8.5
2025-01-26 10:08:44.397294	338.4	49.2	-92.5	8.3
2025-01-26 10:08:46.718372	337.1	49.5	-92.7	11.3
2025-01-26 10:08:49.042599	335.8	49.8	-92.6	13.4
2025-01-26 10:08:51.372743	334.4	50.1	-92.7	6.8
2025-01-26 10:08:53.701884	333.1	50.4	-92.4	9.9
2025-01-26 10:08:56.030753	331.7	50.6	-92.5	8.3
2025-01-26 10:08:58.349142	330.3	50.9	-92.4	3.9
2025-01-26 10:09:00.685094	328.8	51.1	-92.1	1.9
2025-01-26 10:09:03.020993	327.4	51.3	-92.6	1.9
2025-01-26 10:09:05.354499	325.9	51.5	-92.4	1.6
2025-01-26 10:09:07.696474	324.4	51.7	-92.7	7.5
2025-01-26 10:09:10.016794	322.9	51.8	-92.3	11.0
2025-01-26 10:09:12.349276	321.4	52.0	-92.3	9.4
2025-01-26 10:09:14.677116	319.9	52.1	-92.7	10.3
2025-01-26 10:09:17.008975	318.3	52.2	-92.6	10.1
2025-01-26 10:09:19.333183	316.8	52.2	-92.1	9.0
2025-01-26 10:09:21.672280	315.2	52.3	-92.7	6.9
2025-01-26 10:09:24.003524	313.6	52.3	-92.8	5.4
2025-01-26 10:09:26.326380	312.1	52.3	-92.7	5.0
2025-01-26 10:09:28.655240	310.5	52.3	-92.2	5.6
2025-01-26 10:09:30.988819	308.9	52.2	-92.3	4.9
2025-01-26 10:09:33.330303	307.4	52.2	-92.5	3.8
2025-01-26 10:09:35.657319	305.8	52.1	-92.3	5.2
2025-01-26 10:09:37.984565	304.3	52.0	-91.6	8.5
2025-01-26 10:09:40.316491	302.8	51.8	-92.4	8.4
2025-01-26 10:09:42.649166	301.3	51.7	-91.6	11.0
2025-01-26 10:09:44.983118	299.8	51.5	-92.1	9.9
2025-01-26 10:09:47.314163	298.3	51.3	-91.8	10.9
2025-01-26 10:09:49.641378	296.9	51.1	-91.9	13.4
2025-01-26 10:09:51.975066	295.4	50.9	-92.2	12.3
2025-01-26 10:09:54.305709	294.0	50.7	-91.9	13.5
2025-01-26 10:09:56.627026	292.6	50.4	-92.5	15.5
2025-01-26 10:09:58.946463	291.3	50.1	-92.4	14.0
2025-01-26 10:10:01.265364	289.9	49.8	-92.5	13.7
2025-01-26 10:10:03.597686	288.6	49.5	-92.4	12.8
2025-01-26 10:10:05.928482	287.3	49.2	-92.5	11.6
2025-01-26 10:10:08.255543	286.1	48.9	-92.5	12.9
2025-01-26 10:10:10.578850	284.9	48.5	-92.5	13.6
2025-01-26 10:10:12.907016	283.7	48.2	-92.4	13.3
2025-01-26 10:10:15.238966	282.5	47.8	-92.4	13.9
2025-01-26 10:10:17.567301	281.3	47.4	-92.6	9.9
2025-01-26 10:10:19.886589	280.2	47.0	-92.5	13.7
2025-01-26 10:10:22.215040	279.1	46.6	-92.3	16.7
2025-01-26 10:10:24.547366	278.1	46.2	-92.2	9.1
2025-01-26 10:10:26.866522	277.0	45.8	-92.5	15.2
2025-01-26 10:10:29.189584	276.0	45.4	-92.3	17.7
2025-01-26 10:10:31.514551	275.0	45.0	-92.5	9.4
2025-01-26 10:10:33.849391	274.1	44.6	-92.5	15.7
2025-01-26 10:10:36.162612	273.2	44.2	-92.4	16.0
2025-01-26 10:10:38.488904	272.3	43.7	-92.4	9.9
2025-01-26 10:10:40.810836	271.4	43.3	-92.2	14.5
2025-01-26 10:10:43.141134	270.5	42.9	-92.4	16.2
2025-01-26 10:10:45.486970	269.7	42.4	-92.2	14.3
2025-01-26 10:10:47.814015	268.9	42.0	-92.4	16.0
2025-01-26 10:10:50.135508	268.1	41.5	-92.6	14.9
2025-01-26 10:10:52.466858	267.3	41.1	-92.2	16.6
2025-01-26 10:10:54.783731	266.6	40.7	-92.3	15.2
2025-01-26 10:10:57.109123	265.8	40.2	-92.2	11.4
2025-01-26 10:10:59.432829	265.1	39.8	-92.7	8.2
2025-01-26 10:11:01.753021	264.4	39.3	-92.2	7.3
2025-01-26 10:11:04.089427	263.8	38.9	-92.5	3.0
2025-01-26 10:11:06.411027	263.1	38.5	-92.5	4.2
2025-01-26 10:11:08.736131	262.5	38.0	-92.4	7.2
2025-01-26 10:11:11.078802	261.8	37.6	-92.5	6.0
2025-01-26 10:11:13.405350	261.2	37.1	-92.8	8.0
2025-01-26 10:11:15.719725	260.7	36.7	-92.7	13.6
2025-01-26 10:11:18.046895	260.1	36.3	-92.4	13.1
2025-01-26 10:11:20.363225	259.5	35.9	-92.5	15.1
2025-01-26 10:11:22.690789	259.0	35.4	-92.4	14.3
2025-01-26 10:11:25.026439	258.5	35.0	-92.7	10.3
2025-01-26 10:11:27.350423	258.0	34.6	-92.3	14.0
2025-01-26 10:11:29.672682	257.5	34.2	-92.3	13.4
2025-01-26 10:11:32.003716	257.0	33.8	-92.3	10.4
2025-01-26 10:11:34.332761	256.5	33.3	-92.6	19.3
2025-01-26 10:11:36.656590	256.0	32.9	-92.4	18.9
2025-01-26 10:11:38.979313	255.6	32.5	-92.4	20.2
2025-01-26 10:11:41.314685	255.1	32.1	-91.8	21.3
2025-01-26 10:11:43.644117	254.7	31.7	-92.2	19.5
2025-01-26 10:11:45.972803	254.3	31.3	-92.4	15.2
2025-01-26 10:11:48.300770	253.9	31.0	-92.6	20.8
2025-01-26 10:11:50.631501	253.5	30.6	-92.3	14.4
2025-01-26 10:11:52.958085	253.1	30.2	-92.5	16.6
2025-01-26 10:11:55.293867	252.7	29.8	-92.4	19.9
2025-01-26 10:11:57.621834	252.3	29.4	-92.3	19.9
2025-01-26 10:11:59.949224	252.0	29.1	-92.2	15.6
2025-01-26 10:12:02.270268	251.6	28.7	-92.6	17.3
2025-01-26 10:12:04.595456	251.3	28.3	-92.7	10.3
2025-01-26 10:12:06.920032	250.9	28.0	-92.2	9.7
2025-01-26 10:12:09.241155	250.6	27.6	-92.2	16.9
2025-01-26 10:12:11.573402	250.3	27.2	-92.3	13.2
2025-01-26 10:12:13.899902	250.0	26.9	-92.6	17.1
2025-01-26 10:12:16.217694	249.7	26.6	-92.0	14.0
2025-01-26 10:12:18.539610	249.3	26.2	-92.7	12.5
2025-01-26 10:12:20.864578	249.1	25.9	-92.6	11.4
2025-01-26 10:12:23.194644	248.8	25.5	-92.5	13.5
2025-01-26 10:12:25.518201	248.5	25.2	-92.4	9.0
2025-01-26 10:12:27.840795	248.2	24.9	-92.4	12.5
2025-01-26 10:12:30.161283	247.9	24.5	-92.4	10.4
2025-01-26 10:12:32.488466	247.7	24.2	-91.9	10.7
2025-01-26 10:12:34.819324	247.4	23.9	-92.5	6.5
2025-01-26 10:12:37.154297	247.1	23.6	-92.4	5.0
2025-01-26 10:12:39.473569	246.9	23.3	-92.6	4.5
2025-01-26 10:12:41.800758	246.7	23.0	-92.7	4.6
2025-01-26 10:12:44.128443	246.4	22.6	-92.6	4.5
2025-01-26 10:12:46.452754	246.2	22.3	-92.5	6.1
2025-01-26 10:12:48.771306	246.0	22.0	-92.5	5.3
2025-01-26 10:12:51.093707	245.7	21.7	-92.4	1.4
2025-01-26 10:12:53.420494	245.5	21.4	-92.3	3.8
2025-01-26 10:12:55.738309	245.3	21.2	-92.5	3.5
2025-01-26 10:12:58.050941	245.1	20.9	-92.4	4.8
2025-01-26 10:13:00.365516	244.9	20.6	-92.3	4.8
2025-01-26 10:13:02.688853	244.7	20.3	-92.3	2.7
2025-01-26 10:13:05.021414	244.5	20.0	-92.4	3.3
2025-01-26 10:13:07.354825	244.3	19.7	-92.9	5.9
2025-01-26 10:13:09.681565	244.1	19.5	-92.8	6.4
2025-01-26 10:13:12.013000	243.9	19.2	-92.6	5.6
2025-01-26 10:13:14.345643	243.7	18.9	-92.7	10.1
2025-01-26 10:13:16.671386	243.5	18.6	-92.7	11.2
2025-01-26 10:13:18.996468	243.3	18.4	-92.4	11.9
2025-01-26 10:13:21.320360	243.1	18.1	-92.2	9.1
2025-01-26 10:13:23.656606	243.0	17.8	-92.7	7.8
2025-01-26 10:13:25.989827	242.8	17.6	-92.5	6.5
2025-01-26 10:13:28.319950	242.6	17.3	-92.4	4.0
2025-01-26 10:13:30.651595	242.5	17.1	-92.9	6.7
2025-01-26 10:13:32.993080	242.3	16.8	-92.7	6.2
2025-01-26 10:13:35.322924	242.1	16.6	-92.7	6.9
2025-01-26 10:13:37.635646	242.0	16.3	-92.7	3.4
2025-01-26 10:13:39.953850	241.8	16.1	-92.6	6.8
2025-01-26 10:13:42.281172	241.7	15.8	-92.8	11.4
2025-01-26 10:13:44.615833	241.5	15.6	-92.3	10.6
2025-01-26 10:13:46.936336	241.4	15.4	-92.7	9.3
2025-01-26 10:13:49.265671	241.2	15.1	-92.4	10.2
2025-01-26 10:13:51.588212	241.1	14.9	-92.6	5.6
2025-01-26 10:13:53.909584	241.0	14.7	-92.7	7.9
#Closed at: 2025-01-26 10:05:05.237978