passes_logs/2025/01/26/LEX_Murmansk/LEX_Murmansk__20250126_202835_NOAA_18_rec.log

#Pass ID: 20250126_202835_NOAA 18
#Satellite: NOAA 18
#Configuration: NOAA 18
#Start time: 2025-01-26 20:28:30.113541

#LorettStation: 1.0.0 05.05.2024
#Station: LEX_Murmansk
#Location: 33.156738 lon 68.926811 lat
#TLE: 1 28654U 05018A   25026.13466944  .00000433  00000+0  25315-3 0  9999
#TLE: 2 28654  98.8549 107.0777 0014815 148.4880 211.7182 14.13497478 14758

#Time	Az	El	Level	SNR
2025-01-26 20:28:42.390635	204.5	16.1	-92.2	2.0
2025-01-26 20:28:43.517579	204.7	16.2	-92.6	3.3
2025-01-26 20:28:44.652285	204.8	16.3	-92.5	3.9
2025-01-26 20:28:45.779427	204.9	16.4	-92.2	4.9
2025-01-26 20:28:46.908136	205.1	16.6	-92.4	3.8
2025-01-26 20:28:48.051525	205.2	16.7	-91.9	3.1
2025-01-26 20:28:49.187570	205.3	16.8	-91.5	4.0
2025-01-26 20:28:50.328810	205.5	16.9	-90.9	2.1
2025-01-26 20:28:51.470257	205.6	17.0	-91.2	2.1
2025-01-26 20:28:52.613569	205.7	17.1	-92.1	3.9
2025-01-26 20:28:53.738697	205.9	17.2	-92.3	3.2
2025-01-26 20:28:54.884054	206.0	17.3	-92.5	4.4
2025-01-26 20:28:56.024154	206.2	17.4	-92.2	3.9
2025-01-26 20:28:57.158364	206.3	17.5	-91.6	4.1
2025-01-26 20:28:58.302676	206.4	17.7	-92.3	5.7
2025-01-26 20:28:59.452308	206.6	17.8	-92.0	4.6
2025-01-26 20:29:00.592718	206.7	17.9	-92.0	3.6
2025-01-26 20:29:01.740542	206.9	18.0	-92.4	3.5
2025-01-26 20:29:02.888689	207.0	18.1	-92.4	2.3
2025-01-26 20:29:04.031906	207.2	18.2	-92.7	6.4
2025-01-26 20:29:05.179493	207.3	18.3	-92.6	3.2
2025-01-26 20:29:06.322748	207.5	18.4	-92.7	4.3
2025-01-26 20:29:07.471103	207.6	18.6	-92.7	7.2
2025-01-26 20:29:08.618494	207.8	18.7	-92.5	4.5
2025-01-26 20:29:09.767411	207.9	18.8	-92.5	6.7
2025-01-26 20:29:10.918298	208.1	18.9	-92.6	5.8
2025-01-26 20:29:12.069937	208.3	19.0	-92.8	4.1
2025-01-26 20:29:13.214913	208.4	19.1	-92.4	5.3
2025-01-26 20:29:14.358266	208.6	19.3	-92.5	5.6
2025-01-26 20:29:15.504632	208.7	19.4	-92.8	5.1
2025-01-26 20:29:16.659038	208.9	19.5	-92.7	4.4
2025-01-26 20:29:17.810137	209.1	19.6	-92.7	6.7
2025-01-26 20:29:18.958811	209.2	19.7	-92.7	4.1
2025-01-26 20:29:20.103541	209.4	19.8	-92.5	6.9
2025-01-26 20:29:21.252950	209.6	20.0	-92.5	3.7
2025-01-26 20:29:22.395846	209.7	20.1	-92.8	5.9
2025-01-26 20:29:23.537622	209.9	20.2	-92.9	7.7
2025-01-26 20:29:24.685419	210.1	20.3	-92.6	7.4
2025-01-26 20:29:25.830660	210.2	20.4	-92.7	7.4
2025-01-26 20:29:26.975206	210.4	20.6	-92.5	7.0
2025-01-26 20:29:28.122631	210.6	20.7	-92.5	7.9
2025-01-26 20:29:29.269278	210.8	20.8	-92.6	8.5
2025-01-26 20:29:30.413551	210.9	20.9	-92.9	9.4
2025-01-26 20:29:31.554654	211.1	21.0	-92.8	9.2
2025-01-26 20:29:32.700972	211.3	21.2	-92.8	11.1
2025-01-26 20:29:33.848897	211.5	21.3	-92.5	8.3
2025-01-26 20:29:34.993729	211.7	21.4	-92.9	11.3
2025-01-26 20:29:36.140004	211.8	21.5	-93.0	10.4
2025-01-26 20:29:37.284914	212.0	21.6	-92.6	10.9
2025-01-26 20:29:38.432965	212.2	21.8	-92.8	5.8
2025-01-26 20:29:39.581987	212.4	21.9	-91.5	7.0
2025-01-26 20:29:40.725140	212.6	22.0	-91.4	9.1
2025-01-26 20:29:41.879603	212.8	22.1	-91.6	7.8
2025-01-26 20:29:43.030159	213.0	22.3	-92.6	9.6
2025-01-26 20:29:44.174383	213.2	22.4	-92.8	11.3
2025-01-26 20:29:45.316967	213.4	22.5	-92.7	11.8
2025-01-26 20:29:46.442474	213.6	22.6	-92.6	8.7
2025-01-26 20:29:47.563405	213.7	22.8	-92.8	9.5
2025-01-26 20:29:48.684434	213.9	22.9	-92.6	14.3
2025-01-26 20:29:49.805715	214.1	23.0	-92.6	14.8
2025-01-26 20:29:50.925590	214.3	23.1	-92.5	11.1
2025-01-26 20:29:52.046546	214.5	23.2	-92.5	12.8
2025-01-26 20:29:53.166993	214.7	23.4	-92.4	11.4
2025-01-26 20:29:54.287992	214.9	23.5	-92.7	11.2
2025-01-26 20:29:55.408707	215.1	23.6	-92.6	7.2
2025-01-26 20:29:56.529706	215.4	23.7	-92.7	6.4
2025-01-26 20:29:57.659665	215.6	23.9	-92.8	9.9
2025-01-26 20:29:58.795049	215.8	24.0	-92.6	9.7
2025-01-26 20:29:59.935688	216.0	24.1	-92.9	5.8
2025-01-26 20:30:01.072934	216.2	24.2	-92.7	8.5
2025-01-26 20:30:02.212926	216.4	24.4	-92.3	11.2
2025-01-26 20:30:03.362417	216.6	24.5	-92.2	11.8
2025-01-26 20:30:04.508433	216.9	24.6	-92.6	11.7
2025-01-26 20:30:05.655285	217.1	24.8	-92.8	14.0
2025-01-26 20:30:06.802908	217.3	24.9	-92.6	12.9
2025-01-26 20:30:07.950277	217.5	25.0	-92.9	9.1
2025-01-26 20:30:09.098315	217.8	25.1	-92.8	8.3
2025-01-26 20:30:10.224668	218.0	25.3	-92.6	12.3
2025-01-26 20:30:11.359969	218.2	25.4	-92.5	11.0
2025-01-26 20:30:12.505889	218.5	25.5	-92.8	11.2
2025-01-26 20:30:13.650477	218.7	25.7	-93.0	10.2
2025-01-26 20:30:14.793669	218.9	25.8	-92.7	7.9
2025-01-26 20:30:15.936294	219.2	25.9	-92.8	5.3
2025-01-26 20:30:17.080709	219.4	26.1	-92.7	6.7
2025-01-26 20:30:18.218863	219.7	26.2	-92.5	5.7
2025-01-26 20:30:19.369716	219.9	26.3	-93.0	3.1
2025-01-26 20:30:20.510673	220.2	26.4	-93.0	3.6
2025-01-26 20:30:21.637739	220.4	26.6	-92.7	5.6
2025-01-26 20:30:22.769192	220.7	26.7	-92.9	5.1
2025-01-26 20:30:23.902555	220.9	26.8	-93.2	7.9
2025-01-26 20:30:25.028683	221.2	27.0	-92.8	6.7
2025-01-26 20:30:26.172250	221.4	27.1	-92.7	3.4
2025-01-26 20:30:27.295235	221.7	27.2	-92.4	6.4
2025-01-26 20:30:28.432209	221.9	27.3	-92.8	4.5
2025-01-26 20:30:29.569673	222.2	27.5	-93.0	4.6
2025-01-26 20:30:30.706467	222.5	27.6	-93.1	6.8
2025-01-26 20:30:31.848199	222.7	27.7	-92.8	4.9
2025-01-26 20:30:32.988441	223.0	27.9	-93.0	2.8
2025-01-26 20:30:34.131203	223.3	28.0	-92.7	6.4
2025-01-26 20:30:35.280582	223.6	28.1	-92.5	5.3
2025-01-26 20:30:36.422090	223.8	28.2	-92.7	5.8
2025-01-26 20:30:37.574466	224.1	28.4	-92.8	5.5
2025-01-26 20:30:38.720889	224.4	28.5	-92.8	5.2
2025-01-26 20:30:39.869822	224.7	28.6	-92.8	4.4
2025-01-26 20:30:41.010574	225.0	28.8	-92.9	2.8
2025-01-26 20:30:42.157729	225.3	28.9	-92.4	7.3
2025-01-26 20:30:43.310288	225.6	29.0	-91.5	9.2
2025-01-26 20:30:44.455201	225.8	29.2	-91.7	6.5
2025-01-26 20:30:45.597889	226.1	29.3	-91.3	10.8
2025-01-26 20:30:46.741623	226.4	29.4	-91.7	10.7
2025-01-26 20:30:47.884081	226.7	29.5	-92.6	12.2
2025-01-26 20:30:49.023621	227.0	29.7	-92.7	12.7
2025-01-26 20:30:50.150066	227.3	29.8	-92.9	14.4
2025-01-26 20:30:51.288795	227.6	29.9	-92.7	11.8
2025-01-26 20:30:52.424774	227.9	30.0	-92.8	9.2
2025-01-26 20:30:53.565531	228.3	30.2	-92.6	9.5
2025-01-26 20:30:54.701115	228.6	30.3	-92.9	13.5
2025-01-26 20:30:55.845569	228.9	30.4	-92.5	12.6
2025-01-26 20:30:56.992417	229.2	30.5	-92.7	14.9
2025-01-26 20:30:58.138445	229.5	30.7	-92.8	16.2
2025-01-26 20:30:59.292100	229.9	30.8	-92.4	16.7
2025-01-26 20:31:00.433006	230.2	30.9	-92.6	16.8
2025-01-26 20:31:01.579237	230.5	31.0	-92.9	15.1
2025-01-26 20:31:02.722628	230.8	31.2	-92.6	16.0
2025-01-26 20:31:03.868535	231.2	31.3	-92.9	12.1
2025-01-26 20:31:05.016761	231.5	31.4	-92.9	9.0
2025-01-26 20:31:06.163130	231.8	31.5	-92.7	17.2
2025-01-26 20:31:07.308246	232.2	31.7	-92.5	17.3
2025-01-26 20:31:08.463443	232.5	31.8	-92.6	9.6
2025-01-26 20:31:09.603895	232.9	31.9	-92.8	15.5
2025-01-26 20:31:10.747224	233.2	32.0	-92.8	18.9
2025-01-26 20:31:11.874634	233.6	32.1	-92.6	15.6
2025-01-26 20:31:13.021416	233.9	32.2	-93.0	18.3
2025-01-26 20:31:14.159053	234.3	32.4	-92.4	18.3
2025-01-26 20:31:15.305234	234.6	32.5	-92.6	19.3
2025-01-26 20:31:16.449344	235.0	32.6	-92.9	17.8
2025-01-26 20:31:17.592301	235.4	32.7	-92.6	17.6
2025-01-26 20:31:18.715185	235.7	32.8	-92.4	18.4
2025-01-26 20:31:19.856411	236.1	32.9	-92.8	14.8
2025-01-26 20:31:20.996552	236.5	33.0	-92.4	12.6
2025-01-26 20:31:22.142663	236.8	33.1	-92.4	18.1
2025-01-26 20:31:23.288851	237.2	33.3	-92.2	18.6
2025-01-26 20:31:24.422206	237.6	33.4	-92.5	16.2
2025-01-26 20:31:25.559198	238.0	33.5	-92.5	14.6
2025-01-26 20:31:26.703470	238.3	33.6	-92.6	14.4
2025-01-26 20:31:27.848940	238.7	33.7	-92.1	14.3
2025-01-26 20:31:28.992300	239.1	33.8	-92.3	14.2
2025-01-26 20:31:30.135822	239.5	33.9	-92.6	13.3
2025-01-26 20:31:31.284941	239.9	34.0	-92.4	12.9
2025-01-26 20:31:32.430076	240.3	34.1	-92.4	5.9
2025-01-26 20:31:33.578306	240.7	34.2	-93.1	5.9
2025-01-26 20:31:34.723800	241.1	34.3	-93.0	12.9
2025-01-26 20:31:35.876118	241.5	34.4	-92.7	7.4
2025-01-26 20:31:37.023548	241.9	34.5	-92.9	6.2
2025-01-26 20:31:38.168433	242.3	34.6	-92.6	6.0
2025-01-26 20:31:39.302446	242.7	34.7	-92.8	5.2
2025-01-26 20:31:40.432929	243.1	34.8	-93.1	1.7
2025-01-26 20:31:41.578056	243.5	34.9	-92.8	3.9
2025-01-26 20:31:42.718510	244.0	35.0	-92.6	6.1
2025-01-26 20:31:43.861511	244.4	35.0	-92.9	5.5
2025-01-26 20:31:45.004629	244.8	35.1	-92.6	7.1
2025-01-26 20:31:46.151059	245.2	35.2	-92.5	10.5
2025-01-26 20:31:47.293444	245.6	35.3	-91.4	7.3
2025-01-26 20:31:48.442688	246.1	35.4	-91.1	5.9
2025-01-26 20:31:49.592837	246.5	35.5	-91.3	8.7
2025-01-26 20:31:50.736873	246.9	35.5	-91.4	8.5
2025-01-26 20:31:51.884828	247.4	35.6	-92.7	7.1
2025-01-26 20:31:53.023814	247.8	35.7	-92.8	7.2
2025-01-26 20:31:54.158349	248.2	35.8	-92.4	15.5
2025-01-26 20:31:55.295144	248.7	35.8	-92.7	16.4
2025-01-26 20:31:56.431601	249.1	35.9	-92.4	11.5
2025-01-26 20:31:57.574712	249.6	36.0	-93.0	15.9
2025-01-26 20:31:58.721159	250.0	36.0	-93.0	16.3
2025-01-26 20:31:59.864645	250.5	36.1	-92.9	15.2
2025-01-26 20:32:01.001317	250.9	36.2	-93.1	16.9
2025-01-26 20:32:02.146758	251.4	36.2	-92.6	17.1
2025-01-26 20:32:03.298399	251.8	36.3	-92.7	13.8
2025-01-26 20:32:04.447573	252.3	36.4	-92.8	13.0
2025-01-26 20:32:05.594060	252.7	36.4	-92.6	12.4
2025-01-26 20:32:06.741580	253.2	36.5	-93.1	13.3
2025-01-26 20:32:07.882873	253.6	36.5	-93.1	8.0
2025-01-26 20:32:09.027657	254.1	36.6	-92.7	9.5
2025-01-26 20:32:10.175550	254.6	36.6	-92.7	15.2
2025-01-26 20:32:11.314804	255.0	36.7	-92.5	13.8
2025-01-26 20:32:12.440264	255.5	36.7	-93.0	9.4
2025-01-26 20:32:13.577628	255.9	36.8	-92.8	9.1
2025-01-26 20:32:14.719849	256.4	36.8	-92.8	11.0
2025-01-26 20:32:15.859845	256.9	36.8	-92.8	6.0
2025-01-26 20:32:17.008061	257.3	36.9	-93.0	5.9
2025-01-26 20:32:18.145235	257.8	36.9	-92.5	8.2
2025-01-26 20:32:19.307210	258.3	36.9	-92.3	8.8
2025-01-26 20:32:20.451807	258.7	37.0	-93.0	6.2
2025-01-26 20:32:21.594134	259.2	37.0	-93.1	7.5
2025-01-26 20:32:22.746012	259.7	37.0	-92.7	7.1
2025-01-26 20:32:23.889777	260.2	37.0	-93.1	2.9
2025-01-26 20:32:25.033624	260.6	37.1	-93.4	4.1
2025-01-26 20:32:26.179248	261.1	37.1	-93.0	5.3
2025-01-26 20:32:27.323295	261.6	37.1	-92.7	5.5
2025-01-26 20:32:28.470411	262.1	37.1	-92.6	4.9
2025-01-26 20:32:29.613576	262.5	37.1	-92.9	9.1
2025-01-26 20:32:30.757890	263.0	37.1	-93.0	6.2
2025-01-26 20:32:31.905306	263.5	37.2	-92.7	9.5
2025-01-26 20:32:33.044455	264.0	37.2	-92.6	12.4
2025-01-26 20:32:34.188548	264.5	37.2	-92.5	10.4
2025-01-26 20:32:35.312917	264.9	37.2	-92.6	4.9
2025-01-26 20:32:36.460812	265.4	37.2	-93.1	8.4
2025-01-26 20:32:37.597811	265.9	37.2	-92.9	8.4
2025-01-26 20:32:38.746493	266.4	37.2	-93.0	13.7
2025-01-26 20:32:39.889037	266.8	37.2	-93.2	9.7
2025-01-26 20:32:41.031013	267.3	37.2	-92.7	10.0
2025-01-26 20:32:42.175493	267.8	37.1	-93.0	11.2
2025-01-26 20:32:43.322286	268.3	37.1	-93.3	12.1
2025-01-26 20:32:44.465972	268.7	37.1	-93.2	10.4
2025-01-26 20:32:45.609162	269.2	37.1	-93.1	9.2
2025-01-26 20:32:46.752510	269.7	37.1	-92.6	12.9
2025-01-26 20:32:47.898426	270.2	37.1	-92.8	10.5
2025-01-26 20:32:49.044224	270.6	37.0	-93.1	10.9
2025-01-26 20:32:50.191033	271.1	37.0	-92.6	15.7
2025-01-26 20:32:51.335228	271.6	37.0	-92.5	13.2
2025-01-26 20:32:52.482155	272.1	36.9	-91.6	11.7
2025-01-26 20:32:53.628580	272.5	36.9	-91.3	15.2
2025-01-26 20:32:54.775916	273.0	36.9	-91.2	16.5
2025-01-26 20:32:55.919706	273.5	36.8	-92.9	9.4
2025-01-26 20:32:57.065588	273.9	36.8	-92.9	12.9
2025-01-26 20:32:58.209201	274.4	36.8	-92.8	18.2
2025-01-26 20:32:59.357058	274.9	36.7	-93.0	13.3
2025-01-26 20:33:00.501899	275.3	36.7	-92.8	12.5
2025-01-26 20:33:01.646258	275.8	36.6	-93.0	17.3
2025-01-26 20:33:02.794186	276.3	36.6	-92.8	19.3
2025-01-26 20:33:03.942550	276.7	36.5	-92.6	13.9
2025-01-26 20:33:05.090152	277.2	36.5	-92.6	16.0
2025-01-26 20:33:06.241708	277.6	36.4	-92.7	17.5
2025-01-26 20:33:07.392137	278.1	36.4	-92.9	13.5
2025-01-26 20:33:08.521291	278.5	36.3	-93.0	13.7
2025-01-26 20:33:09.641439	279.0	36.3	-93.1	18.0
2025-01-26 20:33:10.761907	279.4	36.2	-92.8	16.0
2025-01-26 20:33:11.884520	279.9	36.1	-93.0	12.1
2025-01-26 20:33:13.005537	280.3	36.1	-92.7	13.8
2025-01-26 20:33:14.126271	280.7	36.0	-92.6	17.2
2025-01-26 20:33:15.247866	281.2	35.9	-92.7	15.6
2025-01-26 20:33:16.368002	281.6	35.9	-92.9	13.1
2025-01-26 20:33:17.492038	282.0	35.8	-92.8	11.8
2025-01-26 20:33:18.615580	282.5	35.7	-93.0	12.9
2025-01-26 20:33:19.763774	282.9	35.6	-93.2	12.8
2025-01-26 20:33:20.907263	283.3	35.6	-92.7	7.8
2025-01-26 20:33:22.050307	283.8	35.5	-92.7	12.4
2025-01-26 20:33:23.194174	284.2	35.4	-92.3	13.8
2025-01-26 20:33:24.337833	284.6	35.3	-92.4	9.2
2025-01-26 20:33:25.486924	285.1	35.2	-92.8	9.6
2025-01-26 20:33:26.633676	285.5	35.2	-92.8	7.1
2025-01-26 20:33:27.781867	285.9	35.1	-92.8	8.2
2025-01-26 20:33:28.929502	286.3	35.0	-93.0	8.8
2025-01-26 20:33:30.072813	286.7	34.9	-92.7	5.6
2025-01-26 20:33:31.221465	287.2	34.8	-92.8	7.6
2025-01-26 20:33:32.367908	287.6	34.7	-93.3	8.9
2025-01-26 20:33:33.515805	288.0	34.6	-92.7	7.7
2025-01-26 20:33:34.657702	288.4	34.5	-92.8	9.4
2025-01-26 20:33:35.801805	288.8	34.4	-93.3	11.2
2025-01-26 20:33:36.953181	289.2	34.3	-93.2	6.2
2025-01-26 20:33:38.099662	289.6	34.2	-93.2	6.0
2025-01-26 20:33:39.248457	290.0	34.1	-93.1	4.2
2025-01-26 20:33:40.395125	290.4	34.0	-93.5	5.1
2025-01-26 20:33:41.545484	290.8	33.9	-93.0	4.3
2025-01-26 20:33:42.691346	291.2	33.8	-93.2	11.0
2025-01-26 20:33:43.839959	291.6	33.7	-93.3	5.9
2025-01-26 20:33:44.988843	292.0	33.6	-93.3	4.0
2025-01-26 20:33:46.150750	292.4	33.5	-92.6	8.6
2025-01-26 20:33:47.299948	292.7	33.4	-92.7	6.9
2025-01-26 20:33:48.438051	293.1	33.3	-92.6	5.0
2025-01-26 20:33:49.587962	293.5	33.2	-92.9	7.2
2025-01-26 20:33:50.736134	293.9	33.1	-93.0	4.2
2025-01-26 20:33:51.880275	294.2	33.0	-93.1	4.8
2025-01-26 20:33:53.027529	294.6	32.8	-92.7	4.6
2025-01-26 20:33:54.172951	295.0	32.7	-92.7	13.2
2025-01-26 20:33:55.316934	295.3	32.6	-93.0	8.9
2025-01-26 20:33:56.464639	295.7	32.5	-91.5	6.8
2025-01-26 20:33:57.609280	296.1	32.4	-90.7	9.3
2025-01-26 20:33:58.756683	296.4	32.3	-91.8	10.0
2025-01-26 20:33:59.902866	296.8	32.2	-91.3	4.0
2025-01-26 20:34:01.042559	297.1	32.0	-92.9	7.6
2025-01-26 20:34:02.186730	297.5	31.9	-92.8	9.5
2025-01-26 20:34:03.335055	297.8	31.8	-92.6	7.1
2025-01-26 20:34:04.478833	298.2	31.7	-92.9	5.5
2025-01-26 20:34:05.623387	298.5	31.6	-93.7	5.6
2025-01-26 20:34:06.767720	298.9	31.4	-93.2	11.1
2025-01-26 20:34:07.906571	299.2	31.3	-93.2	4.5
2025-01-26 20:34:09.047220	299.5	31.2	-93.0	7.7
2025-01-26 20:34:10.170875	299.8	31.1	-92.8	12.6
2025-01-26 20:34:11.290822	300.2	31.0	-92.8	10.1
2025-01-26 20:34:12.410780	300.5	30.8	-92.8	13.7
2025-01-26 20:34:13.532048	300.8	30.7	-92.7	12.0
2025-01-26 20:34:14.652418	301.1	30.6	-92.6	16.2
2025-01-26 20:34:15.772303	301.4	30.5	-92.8	16.7
2025-01-26 20:34:16.894274	301.7	30.3	-92.3	15.4
2025-01-26 20:34:18.015297	302.1	30.2	-92.3	16.9
2025-01-26 20:34:19.137535	302.4	30.1	-92.7	18.1
2025-01-26 20:34:20.261550	302.7	30.0	-92.8	13.5
2025-01-26 20:34:21.403247	303.0	29.8	-92.8	16.5
2025-01-26 20:34:22.551260	303.3	29.7	-92.9	16.3
2025-01-26 20:34:23.675752	303.6	29.6	-92.7	13.2
2025-01-26 20:34:24.811063	303.9	29.5	-92.6	13.2
2025-01-26 20:34:25.954882	304.2	29.3	-93.0	10.0
2025-01-26 20:34:27.094554	304.5	29.2	-92.7	10.8
2025-01-26 20:34:28.238589	304.8	29.1	-92.8	17.5
2025-01-26 20:34:29.379834	305.1	29.0	-92.5	10.9
2025-01-26 20:34:30.526497	305.3	28.8	-92.7	7.7
2025-01-26 20:34:31.669752	305.6	28.7	-92.8	19.0
2025-01-26 20:34:32.808772	305.9	28.6	-93.0	14.6
2025-01-26 20:34:33.957981	306.2	28.4	-93.1	11.2
2025-01-26 20:34:35.102144	306.5	28.3	-92.7	10.9
2025-01-26 20:34:36.244031	306.8	28.2	-92.6	15.2
2025-01-26 20:34:37.388477	307.0	28.1	-92.8	11.4
2025-01-26 20:34:38.534971	307.3	27.9	-92.4	11.3
2025-01-26 20:34:39.683196	307.6	27.8	-92.8	17.6
2025-01-26 20:34:40.830809	307.9	27.7	-92.9	12.7
2025-01-26 20:34:41.974645	308.1	27.5	-92.5	14.9
2025-01-26 20:34:43.123435	308.4	27.4	-92.6	14.0
2025-01-26 20:34:44.269047	308.7	27.3	-92.8	17.8
2025-01-26 20:34:45.417419	308.9	27.1	-92.5	16.6
2025-01-26 20:34:46.566659	309.2	27.0	-92.7	12.6
2025-01-26 20:34:47.713482	309.4	26.9	-92.8	15.9
2025-01-26 20:34:48.855283	309.7	26.8	-92.6	13.1
2025-01-26 20:34:50.000222	309.9	26.6	-92.7	13.2
2025-01-26 20:34:51.149402	310.2	26.5	-92.6	14.9
2025-01-26 20:34:52.294651	310.4	26.4	-92.5	15.6
2025-01-26 20:34:53.441552	310.7	26.2	-92.7	9.4
2025-01-26 20:34:54.589240	310.9	26.1	-92.5	11.6
2025-01-26 20:34:55.733741	311.2	26.0	-92.8	10.5
2025-01-26 20:34:56.883158	311.4	25.8	-92.7	8.5
2025-01-26 20:34:58.034277	311.7	25.7	-93.0	8.7
2025-01-26 20:34:59.183104	311.9	25.6	-92.9	14.8
2025-01-26 20:35:00.326790	312.1	25.5	-91.1	10.1
2025-01-26 20:35:01.472053	312.4	25.3	-91.3	5.7
2025-01-26 20:35:02.617929	312.6	25.2	-92.0	13.2
2025-01-26 20:35:03.766887	312.8	25.1	-92.0	9.0
2025-01-26 20:35:04.905774	313.1	24.9	-92.8	10.0
2025-01-26 20:35:06.054147	313.3	24.8	-92.6	11.2
2025-01-26 20:35:07.187727	313.5	24.7	-92.7	14.6
2025-01-26 20:35:08.308200	313.7	24.6	-92.8	13.7
2025-01-26 20:35:09.428271	314.0	24.4	-93.1	7.8
2025-01-26 20:35:10.549467	314.2	24.3	-93.1	9.6
2025-01-26 20:35:11.670952	314.4	24.2	-93.2	11.1
2025-01-26 20:35:12.791348	314.6	24.1	-92.9	9.0
2025-01-26 20:35:13.912696	314.8	23.9	-93.0	14.5
2025-01-26 20:35:15.033645	315.0	23.8	-93.1	14.4
2025-01-26 20:35:16.154809	315.2	23.7	-92.9	10.7
2025-01-26 20:35:17.274827	315.4	23.6	-92.9	10.8
2025-01-26 20:35:18.417100	315.6	23.4	-92.4	7.5
2025-01-26 20:35:19.566157	315.8	23.3	-92.8	10.0
2025-01-26 20:35:20.712522	316.0	23.2	-92.9	15.3
2025-01-26 20:35:21.849865	316.2	23.1	-92.5	10.5
2025-01-26 20:35:22.996464	316.5	22.9	-93.1	7.0
2025-01-26 20:35:24.146210	316.7	22.8	-93.1	7.2
2025-01-26 20:35:25.294153	316.9	22.7	-92.6	10.6
2025-01-26 20:35:26.437474	317.0	22.6	-92.9	7.3
2025-01-26 20:35:27.562071	317.2	22.4	-92.9	9.2
2025-01-26 20:35:28.700892	317.4	22.3	-92.9	10.4
2025-01-26 20:35:29.847922	317.6	22.2	-92.8	10.0
2025-01-26 20:35:30.987871	317.8	22.1	-93.1	8.6
2025-01-26 20:35:32.132420	318.0	21.9	-92.3	7.5
2025-01-26 20:35:33.274136	318.2	21.8	-92.6	14.6
2025-01-26 20:35:34.421984	318.4	21.7	-93.2	9.0
2025-01-26 20:35:35.567602	318.6	21.6	-92.7	9.2
2025-01-26 20:35:36.716232	318.8	21.4	-92.9	12.7
2025-01-26 20:35:37.859636	318.9	21.3	-93.0	9.5
2025-01-26 20:35:39.001895	319.1	21.2	-92.9	8.3
2025-01-26 20:35:40.147974	319.3	21.1	-92.8	9.9
2025-01-26 20:35:41.299894	319.5	21.0	-92.9	9.8
2025-01-26 20:35:42.443426	319.7	20.8	-92.8	4.6
2025-01-26 20:35:43.590446	319.8	20.7	-93.2	6.1
2025-01-26 20:35:44.739166	320.0	20.6	-92.9	9.2
2025-01-26 20:35:45.881852	320.2	20.5	-92.9	5.2
2025-01-26 20:35:47.031740	320.4	20.4	-93.0	7.4
2025-01-26 20:35:48.176271	320.5	20.2	-92.6	5.9
2025-01-26 20:35:49.325464	320.7	20.1	-92.7	9.3
2025-01-26 20:35:50.471625	320.9	20.0	-93.3	7.8
2025-01-26 20:35:51.617102	321.0	19.9	-92.6	4.5
2025-01-26 20:35:52.766242	321.2	19.8	-93.0	6.1
2025-01-26 20:35:53.914116	321.4	19.6	-92.7	7.0
2025-01-26 20:35:55.056758	321.5	19.5	-92.2	6.4
2025-01-26 20:35:56.199290	321.7	19.4	-92.7	4.5
2025-01-26 20:35:57.343439	321.8	19.3	-92.9	6.9
2025-01-26 20:35:58.485617	322.0	19.2	-92.9	5.4
2025-01-26 20:35:59.636642	322.2	19.1	-92.9	4.9
2025-01-26 20:36:00.764827	322.3	18.9	-92.6	12.2
2025-01-26 20:36:01.886041	322.5	18.8	-92.6	8.4
2025-01-26 20:36:03.007233	322.6	18.7	-92.9	5.1
2025-01-26 20:36:04.128542	322.8	18.6	-92.7	4.5
2025-01-26 20:36:05.249762	322.9	18.5	-91.2	10.6
2025-01-26 20:36:06.371339	323.1	18.4	-91.1	6.3
2025-01-26 20:36:07.492293	323.2	18.3	-91.4	6.4
2025-01-26 20:36:08.613622	323.4	18.2	-92.8	10.4
2025-01-26 20:36:09.736697	323.5	18.1	-92.6	10.0
2025-01-26 20:36:10.857603	323.7	17.9	-93.0	6.5
2025-01-26 20:36:12.001552	323.8	17.8	-92.6	7.4
2025-01-26 20:36:13.146717	324.0	17.7	-92.7	6.9
2025-01-26 20:36:14.289104	324.1	17.6	-92.5	3.8
2025-01-26 20:36:15.431083	324.2	17.5	-93.1	4.5
2025-01-26 20:36:16.572527	324.4	17.4	-93.0	2.6
2025-01-26 20:36:17.712770	324.5	17.3	-93.0	4.1
2025-01-26 20:36:18.833467	324.7	17.2	-93.2	6.7
2025-01-26 20:36:19.978715	324.8	17.1	-92.7	4.2
2025-01-26 20:36:21.116460	324.9	16.9	-92.8	6.0
2025-01-26 20:36:22.258532	325.1	16.8	-93.0	4.6
2025-01-26 20:36:23.396504	325.2	16.7	-92.6	4.5
2025-01-26 20:36:24.535824	325.4	16.6	-92.7	4.8
2025-01-26 20:36:25.680651	325.5	16.5	-93.1	2.8
2025-01-26 20:36:26.835635	325.6	16.4	-93.0	3.8
2025-01-26 20:36:27.976100	325.8	16.3	-92.7	8.8
2025-01-26 20:36:29.124916	325.9	16.2	-92.4	6.3
2025-01-26 20:36:30.271310	326.0	16.1	-92.9	5.1
2025-01-26 20:36:31.417389	326.2	16.0	-93.1	7.0
2025-01-26 20:36:32.562647	326.3	15.9	-93.2	6.3
2025-01-26 20:36:33.709931	326.4	15.8	-93.0	12.1
2025-01-26 20:36:34.855161	326.5	15.7	-92.9	9.0
2025-01-26 20:36:35.999132	326.7	15.6	-92.9	9.2
2025-01-26 20:36:37.145101	326.8	15.4	-92.7	11.1
2025-01-26 20:36:38.292943	326.9	15.3	-92.4	11.8
2025-01-26 20:36:39.440437	327.0	15.2	-92.6	7.2
2025-01-26 20:36:40.585477	327.2	15.1	-93.0	6.7
2025-01-26 20:36:41.732333	327.3	15.0	-92.8	3.9
2025-01-26 20:36:42.883260	327.4	14.9	-93.0	6.1
2025-01-26 20:36:44.029800	327.5	14.8	-93.2	4.6
2025-01-26 20:36:45.179937	327.7	14.7	-93.0	7.7
2025-01-26 20:36:46.318585	327.8	14.6	-92.9	4.4
#Closed at: 2025-01-26 20:28:35.201518