passes_logs/2025/01/26/LEX_Murmansk/LEX_Murmansk__20250126_134854_NOAA_18_rec.log

#Pass ID: 20250126_134854_NOAA 18
#Satellite: NOAA 18
#Configuration: NOAA 18
#Start time: 2025-01-26 13:48:49.179611

#LorettStation: 1.0.0 05.05.2024
#Station: LEX_Murmansk
#Location: 33.156738 lon 68.926811 lat
#TLE: 1 28654U 05018A   25026.13466944  .00000433  00000+0  25315-3 0  9999
#TLE: 2 28654  98.8549 107.0777 0014815 148.4880 211.7182 14.13497478 14758

#Time	Az	El	Level	SNR
2025-01-26 13:49:01.295456	32.0	15.9	-91.6	6.2
2025-01-26 13:49:02.450308	31.9	16.0	-92.0	6.2
2025-01-26 13:49:03.617520	31.7	16.1	-92.2	4.5
2025-01-26 13:49:04.769615	31.5	16.1	-92.0	3.0
2025-01-26 13:49:05.926370	31.3	16.2	-92.0	3.7
2025-01-26 13:49:07.087107	31.1	16.3	-92.0	3.1
2025-01-26 13:49:08.247132	30.9	16.4	-92.1	5.4
2025-01-26 13:49:09.402455	30.7	16.5	-91.7	6.4
2025-01-26 13:49:10.561759	30.5	16.6	-92.1	8.5
2025-01-26 13:49:11.717229	30.3	16.7	-91.9	6.6
2025-01-26 13:49:12.880989	30.2	16.7	-91.9	4.2
2025-01-26 13:49:14.042047	30.0	16.8	-91.8	3.5
2025-01-26 13:49:15.205564	29.8	16.9	-91.7	7.5
2025-01-26 13:49:16.364602	29.6	17.0	-91.8	8.2
2025-01-26 13:49:17.520438	29.4	17.1	-92.0	8.3
2025-01-26 13:49:18.680740	29.2	17.2	-91.9	8.6
2025-01-26 13:49:19.838628	29.0	17.3	-91.9	9.5
2025-01-26 13:49:21.005645	28.8	17.3	-92.2	7.3
2025-01-26 13:49:22.160961	28.6	17.4	-92.2	7.9
2025-01-26 13:49:23.297074	28.4	17.5	-92.0	9.0
2025-01-26 13:49:24.418151	28.2	17.6	-91.8	5.1
2025-01-26 13:49:25.539250	28.0	17.7	-92.1	4.5
2025-01-26 13:49:26.659429	27.8	17.7	-92.3	10.6
2025-01-26 13:49:27.780341	27.6	17.8	-92.2	11.0
2025-01-26 13:49:28.901433	27.4	17.9	-92.2	7.8
2025-01-26 13:49:30.022227	27.2	18.0	-92.2	9.2
2025-01-26 13:49:31.144078	27.0	18.1	-92.4	12.8
2025-01-26 13:49:32.269319	26.7	18.2	-92.1	11.0
2025-01-26 13:49:33.395357	26.5	18.2	-91.9	12.5
2025-01-26 13:49:34.552407	26.3	18.3	-92.3	10.6
2025-01-26 13:49:35.709243	26.1	18.4	-92.4	14.1
2025-01-26 13:49:36.865060	25.9	18.5	-92.5	10.5
2025-01-26 13:49:38.012151	25.7	18.6	-92.6	10.8
2025-01-26 13:49:39.173851	25.5	18.6	-91.9	9.8
2025-01-26 13:49:40.332486	25.2	18.7	-92.0	8.5
2025-01-26 13:49:41.490069	25.0	18.8	-91.9	7.2
2025-01-26 13:49:42.645076	24.8	18.9	-92.3	9.0
2025-01-26 13:49:43.801609	24.6	19.0	-92.2	9.2
2025-01-26 13:49:44.962259	24.3	19.1	-92.3	9.3
2025-01-26 13:49:46.121819	24.1	19.1	-92.1	8.4
2025-01-26 13:49:47.282151	23.9	19.2	-92.0	11.6
2025-01-26 13:49:48.441852	23.7	19.3	-92.1	9.2
2025-01-26 13:49:49.597356	23.4	19.4	-92.1	12.5
2025-01-26 13:49:50.755630	23.2	19.5	-91.9	13.5
2025-01-26 13:49:51.911200	23.0	19.5	-92.0	10.7
2025-01-26 13:49:53.068647	22.7	19.6	-92.0	9.6
2025-01-26 13:49:54.224098	22.5	19.7	-91.8	10.6
2025-01-26 13:49:55.386736	22.3	19.8	-92.0	13.3
2025-01-26 13:49:56.547610	22.0	19.9	-91.6	8.4
2025-01-26 13:49:57.707030	21.8	19.9	-92.0	9.0
2025-01-26 13:49:58.864138	21.5	20.0	-92.0	8.2
2025-01-26 13:50:00.026597	21.3	20.1	-92.2	8.3
2025-01-26 13:50:01.178865	21.0	20.2	-91.9	10.5
2025-01-26 13:50:02.333214	20.8	20.3	-91.9	10.1
2025-01-26 13:50:03.492922	20.6	20.3	-91.7	9.0
2025-01-26 13:50:04.655348	20.3	20.4	-92.3	12.2
2025-01-26 13:50:05.811880	20.1	20.5	-92.3	12.1
2025-01-26 13:50:06.973393	19.8	20.6	-92.4	13.7
2025-01-26 13:50:08.125677	19.6	20.6	-92.1	12.7
2025-01-26 13:50:09.286532	19.3	20.7	-91.5	10.1
2025-01-26 13:50:10.439326	19.1	20.8	-92.5	8.0
2025-01-26 13:50:11.603359	18.8	20.9	-92.7	10.4
2025-01-26 13:50:12.759519	18.5	20.9	-92.6	13.5
2025-01-26 13:50:13.927615	18.3	21.0	-92.5	7.9
2025-01-26 13:50:15.084015	18.0	21.1	-92.3	9.8
2025-01-26 13:50:16.246720	17.8	21.2	-91.9	11.3
2025-01-26 13:50:17.402008	17.5	21.2	-92.1	9.4
2025-01-26 13:50:18.560837	17.2	21.3	-92.6	10.5
2025-01-26 13:50:19.722944	17.0	21.4	-92.3	8.9
2025-01-26 13:50:20.883573	16.7	21.5	-92.3	10.5
2025-01-26 13:50:22.042351	16.5	21.5	-92.3	9.7
2025-01-26 13:50:23.201792	16.2	21.6	-92.4	9.2
2025-01-26 13:50:24.368826	15.9	21.7	-92.1	11.2
2025-01-26 13:50:25.530364	15.6	21.7	-92.6	11.5
2025-01-26 13:50:26.689421	15.4	21.8	-92.3	10.3
2025-01-26 13:50:27.844421	15.1	21.9	-92.6	8.3
2025-01-26 13:50:29.006700	14.8	21.9	-92.6	11.5
2025-01-26 13:50:30.172097	14.6	22.0	-92.5	11.7
2025-01-26 13:50:31.333813	14.3	22.1	-92.6	12.4
2025-01-26 13:50:32.486109	14.0	22.1	-92.3	12.6
2025-01-26 13:50:33.644274	13.7	22.2	-92.8	12.5
2025-01-26 13:50:34.799599	13.4	22.3	-92.4	13.5
2025-01-26 13:50:35.956201	13.2	22.3	-92.1	13.6
2025-01-26 13:50:37.113204	12.9	22.4	-92.3	16.1
2025-01-26 13:50:38.273335	12.6	22.5	-92.5	16.1
2025-01-26 13:50:39.433216	12.3	22.5	-92.3	11.3
2025-01-26 13:50:40.593458	12.0	22.6	-92.4	12.3
2025-01-26 13:50:41.759457	11.7	22.7	-92.5	13.4
2025-01-26 13:50:42.916502	11.5	22.7	-92.6	9.3
2025-01-26 13:50:44.078706	11.2	22.8	-92.6	10.0
2025-01-26 13:50:45.233844	10.9	22.8	-92.2	14.6
2025-01-26 13:50:46.398318	10.6	22.9	-92.4	10.5
2025-01-26 13:50:47.565000	10.3	23.0	-92.7	14.7
2025-01-26 13:50:48.731629	10.0	23.0	-92.4	16.5
2025-01-26 13:50:49.889254	9.7	23.1	-92.9	16.8
2025-01-26 13:50:51.047090	9.4	23.1	-92.5	18.4
2025-01-26 13:50:52.207125	9.1	23.2	-92.8	15.4
2025-01-26 13:50:53.366447	8.8	23.2	-92.5	14.4
2025-01-26 13:50:54.521050	8.5	23.3	-92.6	16.8
2025-01-26 13:50:55.678030	8.2	23.4	-92.3	17.0
2025-01-26 13:50:56.833785	7.9	23.4	-92.6	16.5
2025-01-26 13:50:57.994614	7.6	23.5	-92.7	12.9
2025-01-26 13:50:59.157759	7.3	23.5	-92.6	18.4
2025-01-26 13:51:00.316637	7.0	23.6	-92.4	15.2
2025-01-26 13:51:01.471364	6.7	23.6	-92.6	11.1
2025-01-26 13:51:02.625431	6.4	23.7	-92.5	14.5
2025-01-26 13:51:03.783091	6.1	23.7	-92.4	15.0
2025-01-26 13:51:04.941578	5.8	23.8	-92.6	14.4
2025-01-26 13:51:06.096762	5.5	23.8	-92.6	14.7
2025-01-26 13:51:07.262091	5.2	23.9	-92.8	16.9
2025-01-26 13:51:08.420600	4.9	23.9	-92.3	17.3
2025-01-26 13:51:09.585627	4.5	23.9	-92.7	13.7
2025-01-26 13:51:10.745732	4.2	24.0	-92.7	14.9
2025-01-26 13:51:11.905684	3.9	24.0	-93.1	13.9
2025-01-26 13:51:13.058227	3.6	24.1	-92.5	12.5
2025-01-26 13:51:14.214545	3.3	24.1	-91.9	14.9
2025-01-26 13:51:15.372536	3.0	24.1	-92.3	11.2
2025-01-26 13:51:16.532357	2.7	24.2	-92.4	10.1
2025-01-26 13:51:17.695099	2.3	24.2	-92.2	12.6
2025-01-26 13:51:18.852407	2.0	24.3	-91.1	10.2
2025-01-26 13:51:20.012344	1.7	24.3	-91.4	8.4
2025-01-26 13:51:21.166651	1.4	24.3	-91.4	12.8
2025-01-26 13:51:22.322734	1.1	24.4	-91.4	9.9
2025-01-26 13:51:23.473918	0.7	24.4	-91.9	9.3
2025-01-26 13:51:24.633417	0.4	24.4	-91.7	13.0
2025-01-26 13:51:25.791884	0.1	24.5	-92.6	15.9
2025-01-26 13:51:26.950575	359.8	24.5	-92.6	13.1
2025-01-26 13:51:28.111479	359.5	24.5	-92.1	15.6
2025-01-26 13:51:29.273124	359.1	24.6	-92.0	14.6
2025-01-26 13:51:30.425724	358.8	24.6	-92.6	14.8
2025-01-26 13:51:31.569816	358.5	24.6	-92.2	15.9
2025-01-26 13:51:32.690586	358.2	24.6	-92.8	15.3
2025-01-26 13:51:33.812318	357.9	24.7	-92.3	14.4
2025-01-26 13:51:34.932015	357.5	24.7	-92.1	14.4
2025-01-26 13:51:36.053362	357.2	24.7	-92.7	15.3
2025-01-26 13:51:37.173059	356.9	24.7	-92.3	17.7
2025-01-26 13:51:38.293552	356.6	24.8	-92.4	18.1
2025-01-26 13:51:39.413451	356.3	24.8	-92.2	12.5
2025-01-26 13:51:40.539857	356.0	24.8	-92.8	12.7
2025-01-26 13:51:41.660287	355.6	24.8	-92.6	17.9
2025-01-26 13:51:42.816058	355.3	24.8	-92.8	14.9
2025-01-26 13:51:43.970349	355.0	24.8	-92.5	11.4
2025-01-26 13:51:45.125099	354.6	24.9	-92.5	13.9
2025-01-26 13:51:46.272024	354.3	24.9	-92.7	15.7
2025-01-26 13:51:47.429863	354.0	24.9	-92.8	9.2
2025-01-26 13:51:48.591122	353.7	24.9	-93.0	14.6
2025-01-26 13:51:49.750438	353.3	24.9	-92.7	16.9
2025-01-26 13:51:50.909591	353.0	24.9	-92.8	12.8
2025-01-26 13:51:52.070387	352.7	24.9	-92.8	13.4
2025-01-26 13:51:53.230654	352.3	24.9	-92.6	16.4
2025-01-26 13:51:54.387806	352.0	24.9	-92.5	13.0
2025-01-26 13:51:55.553010	351.7	24.9	-92.7	16.1
2025-01-26 13:51:56.716151	351.3	24.9	-92.5	16.1
2025-01-26 13:51:57.871707	351.0	25.0	-92.9	17.0
2025-01-26 13:51:59.026671	350.7	25.0	-92.6	14.9
2025-01-26 13:52:00.178888	350.3	25.0	-92.9	16.5
2025-01-26 13:52:01.324867	350.0	25.0	-92.5	15.5
2025-01-26 13:52:02.452387	349.7	25.0	-92.8	14.5
2025-01-26 13:52:03.596072	349.4	25.0	-92.4	15.5
2025-01-26 13:52:04.744396	349.0	25.0	-92.9	13.9
2025-01-26 13:52:05.897781	348.7	24.9	-92.9	13.1
2025-01-26 13:52:07.044677	348.4	24.9	-92.5	10.8
2025-01-26 13:52:08.196093	348.0	24.9	-92.4	13.3
2025-01-26 13:52:09.353875	347.7	24.9	-92.3	11.7
2025-01-26 13:52:10.508644	347.4	24.9	-92.8	10.3
2025-01-26 13:52:11.661909	347.0	24.9	-92.8	11.9
2025-01-26 13:52:12.819981	346.7	24.9	-92.9	8.4
2025-01-26 13:52:13.978066	346.4	24.9	-92.8	10.0
2025-01-26 13:52:15.134108	346.0	24.9	-92.7	12.1
2025-01-26 13:52:16.286474	345.7	24.9	-92.0	12.9
2025-01-26 13:52:17.447371	345.4	24.9	-92.9	9.5
2025-01-26 13:52:18.601244	345.1	24.8	-92.9	12.3
2025-01-26 13:52:19.761304	344.7	24.8	-92.5	14.9
2025-01-26 13:52:20.927645	344.4	24.8	-92.3	10.1
2025-01-26 13:52:22.080298	344.1	24.8	-92.3	10.9
2025-01-26 13:52:23.236182	343.7	24.8	-92.7	15.8
2025-01-26 13:52:24.392461	343.4	24.7	-92.2	7.1
2025-01-26 13:52:25.550839	343.1	24.7	-92.6	9.3
2025-01-26 13:52:26.707839	342.7	24.7	-92.9	11.6
2025-01-26 13:52:27.867961	342.4	24.7	-92.7	8.9
2025-01-26 13:52:29.028065	342.1	24.7	-92.5	8.4
2025-01-26 13:52:30.188109	341.8	24.6	-92.5	13.7
2025-01-26 13:52:31.347529	341.4	24.6	-92.5	9.9
2025-01-26 13:52:32.499168	341.1	24.6	-92.5	8.0
2025-01-26 13:52:33.650801	340.8	24.5	-92.7	13.7
2025-01-26 13:52:34.806842	340.5	24.5	-92.7	13.5
2025-01-26 13:52:35.960169	340.1	24.5	-92.9	10.8
2025-01-26 13:52:37.122361	339.8	24.5	-92.6	10.9
2025-01-26 13:52:38.282197	339.5	24.4	-92.5	13.1
2025-01-26 13:52:39.442596	339.2	24.4	-92.5	10.4
2025-01-26 13:52:40.600700	338.9	24.4	-92.8	10.9
2025-01-26 13:52:41.761573	338.5	24.3	-92.9	12.1
2025-01-26 13:52:42.922989	338.2	24.3	-92.6	11.5
2025-01-26 13:52:44.078491	337.9	24.3	-92.5	10.4
2025-01-26 13:52:45.230351	337.6	24.2	-92.8	13.5
2025-01-26 13:52:46.389857	337.3	24.2	-92.6	9.9
2025-01-26 13:52:47.557386	336.9	24.1	-92.8	11.6
2025-01-26 13:52:48.713233	336.6	24.1	-92.8	12.5
2025-01-26 13:52:49.872308	336.3	24.1	-93.0	12.0
2025-01-26 13:52:51.031005	336.0	24.0	-92.6	12.2
2025-01-26 13:52:52.199693	335.7	24.0	-92.5	12.7
2025-01-26 13:52:53.349199	335.4	23.9	-92.5	11.8
2025-01-26 13:52:54.509412	335.1	23.9	-92.6	13.7
2025-01-26 13:52:55.666292	334.8	23.8	-92.6	13.2
2025-01-26 13:52:56.829138	334.4	23.8	-92.7	11.7
2025-01-26 13:52:57.989199	334.1	23.7	-92.7	12.4
2025-01-26 13:52:59.153974	333.8	23.7	-92.4	11.2
2025-01-26 13:53:00.306488	333.5	23.6	-92.6	13.6
2025-01-26 13:53:01.465454	333.2	23.6	-93.0	11.6
2025-01-26 13:53:02.629029	332.9	23.5	-92.7	12.7
2025-01-26 13:53:03.780079	332.6	23.5	-92.9	15.9
2025-01-26 13:53:04.926526	332.3	23.4	-92.5	13.3
2025-01-26 13:53:06.093709	332.0	23.4	-92.5	14.1
2025-01-26 13:53:07.255696	331.7	23.3	-92.7	16.0
2025-01-26 13:53:08.410595	331.4	23.3	-92.7	14.3
2025-01-26 13:53:09.569720	331.1	23.2	-92.9	14.3
2025-01-26 13:53:10.728365	330.8	23.2	-92.4	15.2
2025-01-26 13:53:11.892165	330.5	23.1	-92.7	11.6
2025-01-26 13:53:13.047795	330.2	23.1	-92.8	12.1
2025-01-26 13:53:14.209564	329.9	23.0	-92.5	12.6
2025-01-26 13:53:15.376180	329.6	22.9	-92.6	9.7
2025-01-26 13:53:16.537280	329.3	22.9	-92.8	11.0
2025-01-26 13:53:17.697536	329.0	22.8	-92.7	14.7
2025-01-26 13:53:18.863819	328.7	22.8	-92.5	10.7
2025-01-26 13:53:20.022793	328.5	22.7	-92.8	10.8
2025-01-26 13:53:21.182098	328.2	22.6	-92.4	14.3
2025-01-26 13:53:22.336530	327.9	22.6	-92.3	10.4
2025-01-26 13:53:23.493064	327.6	22.5	-92.7	8.0
2025-01-26 13:53:24.652448	327.3	22.4	-92.4	9.8
2025-01-26 13:53:25.804247	327.0	22.4	-92.4	10.5
2025-01-26 13:53:26.958534	326.7	22.3	-92.8	10.1
2025-01-26 13:53:28.083502	326.5	22.2	-92.6	10.0
2025-01-26 13:53:29.204463	326.2	22.2	-92.3	12.1
2025-01-26 13:53:30.328784	325.9	22.1	-92.1	10.6
2025-01-26 13:53:31.450215	325.7	22.1	-92.6	10.6
2025-01-26 13:53:32.571196	325.4	22.0	-92.7	10.6
2025-01-26 13:53:33.691771	325.1	21.9	-92.7	14.3
2025-01-26 13:53:34.812232	324.9	21.9	-92.9	12.6
2025-01-26 13:53:35.932645	324.6	21.8	-92.9	7.9
2025-01-26 13:53:37.057422	324.3	21.7	-92.9	10.1
2025-01-26 13:53:38.195301	324.1	21.7	-92.5	10.6
2025-01-26 13:53:39.355449	323.8	21.6	-92.7	7.2
2025-01-26 13:53:40.507432	323.5	21.5	-92.6	7.5
2025-01-26 13:53:41.666261	323.3	21.4	-92.7	8.7
2025-01-26 13:53:42.811581	323.0	21.4	-92.9	10.2
2025-01-26 13:53:43.965909	322.7	21.3	-93.0	10.4
2025-01-26 13:53:45.106965	322.5	21.2	-92.3	12.0
2025-01-26 13:53:46.265130	322.2	21.2	-92.5	7.2
2025-01-26 13:53:47.426013	322.0	21.1	-92.6	8.5
2025-01-26 13:53:48.577332	321.7	21.0	-93.0	9.5
2025-01-26 13:53:49.732623	321.4	20.9	-92.7	9.0
2025-01-26 13:53:50.891771	321.2	20.9	-92.6	7.2
2025-01-26 13:53:52.050003	320.9	20.8	-92.8	9.5
2025-01-26 13:53:53.191066	320.7	20.7	-91.1	8.7
2025-01-26 13:53:54.324579	320.4	20.6	-91.3	9.9
2025-01-26 13:53:55.480810	320.2	20.6	-91.8	11.2
2025-01-26 13:53:56.627388	319.9	20.5	-91.7	8.4
2025-01-26 13:53:57.776478	319.7	20.4	-91.5	9.9
2025-01-26 13:53:58.932352	319.4	20.3	-91.7	11.0
2025-01-26 13:54:00.081429	319.2	20.2	-92.7	7.2
2025-01-26 13:54:01.228868	319.0	20.2	-92.5	7.1
2025-01-26 13:54:02.387251	318.7	20.1	-92.2	5.6
2025-01-26 13:54:03.542045	318.5	20.0	-91.3	7.0
2025-01-26 13:54:04.697030	318.2	19.9	-91.0	7.1
2025-01-26 13:54:05.853536	318.0	19.9	-91.0	7.8
2025-01-26 13:54:06.980608	317.8	19.8	-91.1	8.2
2025-01-26 13:54:08.124123	317.5	19.7	-91.3	8.0
2025-01-26 13:54:09.282673	317.3	19.6	-91.1	8.0
2025-01-26 13:54:10.420885	317.1	19.5	-92.6	8.8
2025-01-26 13:54:11.577668	316.8	19.5	-92.5	7.9
2025-01-26 13:54:12.732460	316.6	19.4	-92.5	8.8
2025-01-26 13:54:13.889077	316.4	19.3	-92.5	6.8
2025-01-26 13:54:15.048102	316.1	19.2	-92.1	8.6
2025-01-26 13:54:16.197911	315.9	19.1	-92.4	7.4
2025-01-26 13:54:17.354002	315.7	19.0	-92.3	5.6
2025-01-26 13:54:18.511929	315.4	19.0	-91.0	6.2
2025-01-26 13:54:19.663312	315.2	18.9	-91.3	7.8
2025-01-26 13:54:20.815262	315.0	18.8	-90.8	7.3
2025-01-26 13:54:21.973548	314.8	18.7	-91.2	6.9
2025-01-26 13:54:23.135475	314.5	18.6	-91.0	10.1
2025-01-26 13:54:24.292465	314.3	18.6	-90.5	9.0
2025-01-26 13:54:25.451795	314.1	18.5	-92.1	8.5
2025-01-26 13:54:26.605869	313.9	18.4	-92.4	11.6
2025-01-26 13:54:27.762667	313.7	18.3	-92.3	11.4
2025-01-26 13:54:28.926044	313.5	18.2	-92.3	11.0
2025-01-26 13:54:30.085402	313.2	18.1	-91.8	12.6
2025-01-26 13:54:31.241263	313.0	18.1	-92.1	11.1
2025-01-26 13:54:32.408282	312.8	18.0	-92.5	9.1
2025-01-26 13:54:33.562085	312.6	17.9	-92.4	13.6
2025-01-26 13:54:34.725534	312.4	17.8	-92.4	11.4
2025-01-26 13:54:35.885383	312.2	17.7	-92.5	12.4
2025-01-26 13:54:37.039206	312.0	17.6	-92.4	11.2
2025-01-26 13:54:38.195968	311.8	17.5	-92.0	11.4
2025-01-26 13:54:39.357591	311.6	17.5	-92.0	8.6
2025-01-26 13:54:40.514805	311.4	17.4	-92.7	10.6
2025-01-26 13:54:41.678318	311.2	17.3	-92.6	11.7
2025-01-26 13:54:42.840178	311.0	17.2	-92.8	9.8
2025-01-26 13:54:43.998638	310.8	17.1	-92.6	9.0
2025-01-26 13:54:45.165399	310.6	17.0	-92.2	10.3
2025-01-26 13:54:46.323386	310.4	17.0	-92.2	11.2
2025-01-26 13:54:47.483835	310.2	16.9	-92.7	9.7
2025-01-26 13:54:48.641816	310.0	16.8	-92.4	9.4
2025-01-26 13:54:49.796894	309.8	16.7	-92.6	9.7
2025-01-26 13:54:50.959007	309.6	16.6	-92.4	9.2
2025-01-26 13:54:52.118493	309.4	16.5	-92.3	10.4
2025-01-26 13:54:53.278317	309.2	16.4	-92.0	12.7
2025-01-26 13:54:54.436157	309.0	16.4	-92.0	10.1
2025-01-26 13:54:55.595487	308.8	16.3	-92.6	12.5
2025-01-26 13:54:56.759134	308.6	16.2	-93.1	13.4
2025-01-26 13:54:57.916145	308.4	16.1	-91.6	10.8
2025-01-26 13:54:59.088807	308.2	16.0	-91.3	10.1
2025-01-26 13:55:00.218008	308.1	15.9	-91.0	9.2
2025-01-26 13:55:01.338022	307.9	15.8	-91.3	8.1
2025-01-26 13:55:02.458927	307.7	15.8	-91.0	8.9
2025-01-26 13:55:03.579595	307.5	15.7	-91.1	8.8
2025-01-26 13:55:04.700354	307.4	15.6	-91.5	11.0
2025-01-26 13:55:05.820833	307.2	15.5	-91.6	9.5
2025-01-26 13:55:06.941534	307.0	15.4	-91.8	7.2
2025-01-26 13:55:08.061749	306.8	15.3	-91.2	7.6
2025-01-26 13:55:09.185618	306.7	15.3	-91.0	9.4
2025-01-26 13:55:10.315685	306.5	15.2	-91.0	9.0
2025-01-26 13:55:11.471662	306.3	15.1	-91.4	9.1
2025-01-26 13:55:12.629815	306.1	15.0	-91.6	10.2
2025-01-26 13:55:13.787543	306.0	14.9	-91.4	10.5
2025-01-26 13:55:14.936502	305.8	14.8	-92.8	8.7
2025-01-26 13:55:16.101045	305.6	14.8	-92.3	8.6
2025-01-26 13:55:17.248603	305.5	14.7	-92.6	8.7
#Closed at: 2025-01-26 13:48:54.111332