passes_logs/2025/01/26/LEX_Murmansk/LEX_Murmansk__20250126_182426_NOAA_19_rec.log

#Pass ID: 20250126_182426_NOAA 19
#Satellite: NOAA 19
#Configuration: NOAA 19
#Start time: 2025-01-26 18:24:21.056425

#LorettStation: 1.0.0 05.05.2024
#Station: LEX_Murmansk
#Location: 33.156738 lon 68.926811 lat
#TLE: 1 33591U 09005A   25026.11929750  .00000374  00000+0  22339-3 0  9999
#TLE: 2 33591  99.0177  89.9666 0014047  27.3849 332.8061 14.13269171823112

#Time	Az	El	Level	SNR
2025-01-26 18:24:33.320037	173.7	16.3	-92.1	3.3
2025-01-26 18:24:35.630714	173.8	16.6	-92.2	1.5
2025-01-26 18:24:37.948798	174.0	16.8	-92.0	1.6
2025-01-26 18:24:40.259030	174.1	17.1	-92.2	2.5
2025-01-26 18:24:42.582200	174.2	17.3	-92.5	6.1
2025-01-26 18:24:44.900232	174.3	17.6	-92.4	4.8
2025-01-26 18:24:47.206911	174.5	17.9	-92.4	5.8
2025-01-26 18:24:49.528140	174.6	18.1	-91.2	6.8
2025-01-26 18:24:51.842419	174.7	18.4	-91.5	4.4
2025-01-26 18:24:54.145794	174.9	18.7	-92.2	4.1
2025-01-26 18:24:56.469565	175.0	19.0	-91.8	3.6
2025-01-26 18:24:58.789841	175.2	19.2	-92.2	8.0
2025-01-26 18:25:01.099219	175.3	19.5	-92.2	8.7
2025-01-26 18:25:03.416365	175.5	19.8	-92.2	5.1
2025-01-26 18:25:05.705300	175.6	20.1	-92.5	6.5
2025-01-26 18:25:07.946656	175.8	20.4	-92.4	7.1
2025-01-26 18:25:10.187336	175.9	20.7	-92.1	0.7
2025-01-26 18:25:12.429097	176.1	21.0	-92.1	4.6
2025-01-26 18:25:14.673205	176.2	21.3	-92.0	6.8
2025-01-26 18:25:16.955673	176.4	21.6	-92.1	10.2
2025-01-26 18:25:19.277325	176.5	21.9	-91.9	5.7
2025-01-26 18:25:21.591415	176.7	22.2	-92.4	9.2
2025-01-26 18:25:23.918547	176.9	22.5	-92.4	9.8
2025-01-26 18:25:26.225716	177.1	22.8	-92.1	3.7
2025-01-26 18:25:28.548395	177.2	23.1	-92.3	4.7
2025-01-26 18:25:30.865353	177.4	23.5	-92.1	8.3
2025-01-26 18:25:33.185260	177.6	23.8	-92.0	10.8
2025-01-26 18:25:35.455154	177.8	24.1	-92.2	10.1
2025-01-26 18:25:37.764076	178.0	24.5	-92.4	7.4
2025-01-26 18:25:40.032291	178.2	24.8	-92.4	12.2
2025-01-26 18:25:42.338515	178.4	25.2	-92.2	5.0
2025-01-26 18:25:44.639188	178.6	25.5	-92.6	3.4
2025-01-26 18:25:46.953230	178.8	25.9	-92.6	5.3
2025-01-26 18:25:49.279280	179.0	26.2	-92.4	9.8
2025-01-26 18:25:51.577097	179.2	26.6	-92.3	10.8
2025-01-26 18:25:53.901467	179.5	27.0	-91.1	5.6
2025-01-26 18:25:56.216212	179.7	27.3	-91.8	11.7
2025-01-26 18:25:58.528336	179.9	27.7	-91.9	6.8
2025-01-26 18:26:00.838598	180.2	28.1	-92.3	2.8
2025-01-26 18:26:03.151493	180.4	28.5	-92.4	1.5
2025-01-26 18:26:05.469621	180.7	28.9	-92.7	7.4
2025-01-26 18:26:07.791918	180.9	29.3	-92.6	9.8
2025-01-26 18:26:10.121850	181.2	29.7	-92.0	8.4
2025-01-26 18:26:12.386230	181.5	30.1	-92.1	6.9
2025-01-26 18:26:14.683753	181.8	30.5	-92.3	7.7
2025-01-26 18:26:16.989777	182.0	30.9	-92.4	5.8
2025-01-26 18:26:19.303239	182.3	31.3	-92.3	1.3
2025-01-26 18:26:21.613827	182.6	31.8	-92.6	3.4
2025-01-26 18:26:23.932093	182.9	32.2	-92.7	9.6
2025-01-26 18:26:26.255008	183.3	32.7	-92.5	9.0
2025-01-26 18:26:28.581112	183.6	33.1	-92.4	6.1
2025-01-26 18:26:30.900928	183.9	33.6	-92.2	6.8
2025-01-26 18:26:33.207097	184.3	34.0	-92.6	11.8
2025-01-26 18:26:35.512220	184.6	34.5	-92.3	6.8
2025-01-26 18:26:37.822129	185.0	34.9	-92.3	2.9
2025-01-26 18:26:40.137034	185.3	35.4	-92.2	3.7
2025-01-26 18:26:42.439424	185.7	35.9	-92.8	7.9
2025-01-26 18:26:44.715408	186.1	36.4	-92.8	8.7
2025-01-26 18:26:47.003896	186.5	36.9	-92.6	4.9
2025-01-26 18:26:49.300185	186.9	37.4	-92.3	6.6
2025-01-26 18:26:51.598925	187.4	37.9	-92.4	7.2
2025-01-26 18:26:53.903187	187.8	38.4	-92.6	3.9
2025-01-26 18:26:56.207891	188.3	38.9	-92.3	2.1
2025-01-26 18:26:58.493286	188.7	39.4	-91.2	4.7
2025-01-26 18:27:00.777183	189.2	39.9	-92.4	5.6
2025-01-26 18:27:03.083501	189.7	40.4	-92.2	13.2
2025-01-26 18:27:05.401990	190.2	41.0	-92.4	8.5
2025-01-26 18:27:07.725259	190.8	41.5	-92.5	5.7
2025-01-26 18:27:10.041314	191.3	42.1	-92.6	10.8
2025-01-26 18:27:12.359544	191.9	42.6	-92.3	16.1
2025-01-26 18:27:14.668579	192.5	43.2	-92.7	12.4
2025-01-26 18:27:16.948912	193.1	43.7	-92.7	5.7
2025-01-26 18:27:19.237273	193.7	44.3	-92.3	3.4
2025-01-26 18:27:21.540598	194.4	44.9	-92.4	9.3
2025-01-26 18:27:23.850081	195.0	45.5	-92.5	14.7
2025-01-26 18:27:26.166180	195.8	46.0	-92.2	11.8
2025-01-26 18:27:28.484519	196.5	46.6	-92.4	13.3
2025-01-26 18:27:30.799711	197.2	47.2	-92.5	7.2
2025-01-26 18:27:33.116544	198.0	47.8	-92.2	14.0
2025-01-26 18:27:35.393868	198.8	48.4	-92.3	15.6
2025-01-26 18:27:37.685208	199.7	49.0	-92.3	10.0
2025-01-26 18:27:39.997406	200.6	49.6	-92.4	5.1
2025-01-26 18:27:42.306444	201.5	50.2	-91.5	1.4
2025-01-26 18:27:44.619524	202.4	50.7	-92.0	9.4
2025-01-26 18:27:46.931134	203.4	51.3	-91.4	13.3
2025-01-26 18:27:49.242857	204.4	51.9	-91.9	17.7
2025-01-26 18:27:51.564983	205.5	52.5	-92.5	14.3
2025-01-26 18:27:53.880198	206.6	53.1	-92.4	8.5
2025-01-26 18:27:56.194267	207.8	53.7	-92.4	8.4
2025-01-26 18:27:58.500976	209.0	54.3	-92.6	17.3
2025-01-26 18:28:00.816635	210.2	54.8	-92.7	18.7
2025-01-26 18:28:03.136725	211.5	55.4	-92.5	18.6
2025-01-26 18:28:05.444850	212.9	55.9	-92.6	13.8
2025-01-26 18:28:07.739686	214.3	56.5	-92.5	5.7
2025-01-26 18:28:10.036132	215.7	57.0	-92.4	8.0
2025-01-26 18:28:12.337405	217.2	57.5	-92.1	4.5
2025-01-26 18:28:14.647555	218.8	58.0	-92.6	14.0
2025-01-26 18:28:16.957625	220.4	58.5	-92.4	18.0
2025-01-26 18:28:19.284181	222.1	59.0	-92.3	21.3
2025-01-26 18:28:21.612059	223.9	59.4	-92.2	20.7
2025-01-26 18:28:23.934345	225.7	59.8	-92.5	17.1
2025-01-26 18:28:26.261170	227.6	60.2	-92.6	12.1
2025-01-26 18:28:28.567994	229.5	60.6	-92.6	11.7
2025-01-26 18:28:30.855197	231.5	61.0	-92.0	9.3
2025-01-26 18:28:33.149541	233.5	61.3	-92.5	12.6
2025-01-26 18:28:35.445888	235.6	61.6	-92.6	16.5
2025-01-26 18:28:37.730956	237.7	61.8	-92.4	14.5
2025-01-26 18:28:40.022856	239.8	62.0	-92.2	16.3
2025-01-26 18:28:42.322827	242.0	62.2	-92.3	18.5
2025-01-26 18:28:44.625098	244.2	62.4	-92.6	17.3
2025-01-26 18:28:46.937750	246.5	62.5	-92.1	14.7
2025-01-26 18:28:49.256777	248.8	62.6	-91.4	8.4
2025-01-26 18:28:51.556712	251.0	62.6	-91.4	10.8
2025-01-26 18:28:53.824829	253.3	62.6	-92.5	5.6
2025-01-26 18:28:56.125947	255.6	62.6	-92.4	10.5
2025-01-26 18:28:58.428478	257.8	62.5	-92.5	8.9
2025-01-26 18:29:00.725631	260.1	62.4	-92.3	6.3
2025-01-26 18:29:03.039091	262.3	62.3	-92.1	9.2
2025-01-26 18:29:05.361524	264.6	62.1	-92.4	8.7
2025-01-26 18:29:07.669274	266.7	61.9	-92.4	8.3
2025-01-26 18:29:09.987038	268.9	61.6	-92.6	9.2
2025-01-26 18:29:12.306145	271.0	61.4	-92.5	8.4
2025-01-26 18:29:14.622302	273.0	61.0	-92.6	11.6
2025-01-26 18:29:16.933660	275.0	60.7	-93.0	6.8
2025-01-26 18:29:19.251005	276.9	60.3	-92.5	10.6
2025-01-26 18:29:21.557448	278.8	59.9	-92.8	8.9
2025-01-26 18:29:23.874690	280.6	59.5	-92.4	5.0
2025-01-26 18:29:26.177123	282.4	59.1	-92.5	9.3
2025-01-26 18:29:28.486792	284.1	58.6	-92.4	11.7
2025-01-26 18:29:30.810366	285.7	58.1	-92.6	9.3
2025-01-26 18:29:33.122224	287.3	57.6	-92.3	11.7
2025-01-26 18:29:35.432371	288.8	57.1	-92.1	12.7
2025-01-26 18:29:37.754737	290.3	56.6	-92.6	10.2
2025-01-26 18:29:40.068129	291.7	56.1	-92.2	12.9
2025-01-26 18:29:42.375870	293.1	55.5	-92.5	8.8
2025-01-26 18:29:44.702688	294.4	55.0	-92.4	7.9
2025-01-26 18:29:47.031148	295.7	54.4	-92.3	9.4
2025-01-26 18:29:49.341199	296.9	53.8	-92.1	4.9
2025-01-26 18:29:51.655161	298.0	53.2	-92.7	6.2
2025-01-26 18:29:53.968207	299.1	52.7	-91.5	7.7
2025-01-26 18:29:56.296616	300.2	52.1	-91.2	4.1
2025-01-26 18:29:58.622484	301.3	51.5	-92.8	10.0
2025-01-26 18:30:00.927107	302.3	50.9	-92.7	8.7
2025-01-26 18:30:03.245598	303.2	50.3	-92.3	9.3
2025-01-26 18:30:05.566543	304.1	49.7	-92.4	8.6
2025-01-26 18:30:07.888359	305.0	49.1	-92.4	12.8
2025-01-26 18:30:10.206797	305.9	48.5	-92.1	12.2
2025-01-26 18:30:12.517878	306.7	47.9	-92.4	7.1
2025-01-26 18:30:14.833512	307.5	47.4	-92.4	12.6
2025-01-26 18:30:17.153471	308.2	46.8	-92.4	11.7
2025-01-26 18:30:19.471427	309.0	46.2	-92.4	10.6
2025-01-26 18:30:21.788059	309.7	45.6	-92.3	7.5
2025-01-26 18:30:24.094191	310.4	45.0	-92.6	7.8
2025-01-26 18:30:26.412042	311.0	44.5	-92.3	7.6
2025-01-26 18:30:28.722159	311.7	43.9	-92.7	5.6
2025-01-26 18:30:31.036972	312.3	43.3	-92.3	9.9
2025-01-26 18:30:33.351023	312.9	42.8	-92.3	9.6
2025-01-26 18:30:35.667064	313.5	42.2	-92.1	12.1
2025-01-26 18:30:37.974775	314.0	41.7	-92.2	16.5
2025-01-26 18:30:40.288692	314.5	41.2	-92.4	17.0
2025-01-26 18:30:42.605202	315.1	40.6	-92.7	16.6
2025-01-26 18:30:44.913249	315.6	40.1	-92.5	12.5
2025-01-26 18:30:47.231552	316.1	39.6	-92.5	6.1
2025-01-26 18:30:49.553140	316.5	39.0	-92.5	8.3
2025-01-26 18:30:51.861104	317.0	38.5	-92.4	7.2
2025-01-26 18:30:54.183548	317.4	38.0	-92.1	5.9
2025-01-26 18:30:56.518679	317.9	37.5	-92.8	8.9
2025-01-26 18:30:58.840814	318.3	37.0	-91.8	10.4
2025-01-26 18:31:01.155650	318.7	36.5	-91.3	9.5
2025-01-26 18:31:03.463284	319.1	36.0	-92.1	9.0
2025-01-26 18:31:05.783131	319.5	35.6	-92.5	7.3
2025-01-26 18:31:08.084000	319.8	35.1	-92.2	5.1
2025-01-26 18:31:10.328230	320.2	34.6	-92.1	3.1
2025-01-26 18:31:12.570051	320.5	34.2	-92.3	8.4
2025-01-26 18:31:14.811230	320.9	33.8	-92.3	6.6
2025-01-26 18:31:17.052604	321.2	33.3	-92.1	13.0
2025-01-26 18:31:19.328047	321.5	32.9	-92.2	14.6
2025-01-26 18:31:21.635496	321.8	32.4	-92.6	14.1
2025-01-26 18:31:23.943604	322.1	32.0	-92.4	10.6
2025-01-26 18:31:26.257124	322.4	31.6	-92.5	4.8
2025-01-26 18:31:28.568642	322.7	31.2	-92.8	9.2
2025-01-26 18:31:30.889621	323.0	30.7	-92.5	9.3
2025-01-26 18:31:33.201883	323.3	30.3	-92.5	10.0
2025-01-26 18:31:35.520877	323.6	29.9	-91.9	13.3
2025-01-26 18:31:37.833186	323.8	29.5	-92.3	9.7
2025-01-26 18:31:40.150833	324.1	29.1	-92.3	7.9
2025-01-26 18:31:42.467517	324.4	28.7	-92.5	4.8
2025-01-26 18:31:44.779494	324.6	28.3	-92.5	2.9
2025-01-26 18:31:47.100894	324.9	28.0	-92.6	6.7
2025-01-26 18:31:49.414236	325.1	27.6	-92.7	9.2
2025-01-26 18:31:51.725018	325.3	27.2	-92.5	11.0
2025-01-26 18:31:54.036667	325.6	26.8	-92.6	9.7
2025-01-26 18:31:56.353154	325.8	26.5	-92.2	7.1
2025-01-26 18:31:58.669048	326.0	26.1	-92.6	3.3
2025-01-26 18:32:00.977552	326.2	25.8	-92.6	6.0
2025-01-26 18:32:03.282934	326.4	25.4	-91.4	5.4
2025-01-26 18:32:05.599331	326.6	25.1	-92.7	10.0
2025-01-26 18:32:07.915576	326.8	24.7	-92.4	10.2
2025-01-26 18:32:10.234592	327.0	24.4	-92.5	8.3
2025-01-26 18:32:12.544229	327.2	24.0	-92.3	5.3
2025-01-26 18:32:14.862382	327.4	23.7	-92.4	3.7
2025-01-26 18:32:17.193198	327.6	23.4	-92.3	5.0
2025-01-26 18:32:19.500647	327.8	23.1	-92.5	5.7
2025-01-26 18:32:21.768317	327.9	22.7	-92.5	7.9
2025-01-26 18:32:24.010863	328.1	22.4	-92.5	6.5
2025-01-26 18:32:26.253444	328.3	22.1	-92.3	4.5
2025-01-26 18:32:28.495557	328.4	21.8	-92.5	4.3
2025-01-26 18:32:30.744308	328.6	21.5	-92.4	3.8
2025-01-26 18:32:33.010920	328.8	21.2	-92.5	7.8
2025-01-26 18:32:35.306563	328.9	20.9	-91.9	9.1
2025-01-26 18:32:37.603136	329.1	20.7	-92.7	6.7
2025-01-26 18:32:39.911950	329.2	20.4	-92.4	3.7
2025-01-26 18:32:42.213171	329.4	20.1	-91.7	2.0
2025-01-26 18:32:44.529279	329.5	19.8	-92.4	2.7
2025-01-26 18:32:46.843449	329.7	19.5	-92.6	3.9
2025-01-26 18:32:49.145675	329.8	19.2	-92.3	2.3
2025-01-26 18:32:51.453643	330.0	19.0	-92.7	6.7
2025-01-26 18:32:53.766519	330.1	18.7	-92.7	5.3
2025-01-26 18:32:56.065974	330.2	18.4	-92.5	3.6
2025-01-26 18:32:58.456191	330.4	18.1	-92.5	2.0
2025-01-26 18:33:00.750044	330.5	17.9	-92.5	2.9
2025-01-26 18:33:03.046716	330.6	17.6	-92.4	0.5
2025-01-26 18:33:05.361847	330.8	17.3	-92.6	3.7
2025-01-26 18:33:07.672888	330.9	17.1	-91.7	1.1
2025-01-26 18:33:09.991040	331.0	16.8	-92.7	2.7
2025-01-26 18:33:12.309843	331.1	16.6	-92.6	0.8
2025-01-26 18:33:14.623660	331.2	16.3	-92.6	2.4
2025-01-26 18:33:16.941777	331.4	16.1	-92.8	4.4
2025-01-26 18:33:19.264183	331.5	15.8	-92.5	4.3
2025-01-26 18:33:21.573579	331.6	15.6	-92.6	1.2
2025-01-26 18:33:23.882607	331.7	15.3	-92.7	3.7
2025-01-26 18:33:26.199447	331.8	15.1	-92.5	2.7
2025-01-26 18:33:28.514323	331.9	14.9	-92.8	3.5
2025-01-26 18:33:30.839236	332.0	14.6	-92.5	6.7
2025-01-26 18:33:33.161790	332.1	14.4	-92.7	8.6
#Closed at: 2025-01-26 18:24:26.141306