passes_logs/2025/01/26/LEX_Murmansk/LEX_Murmansk__20250126_200733_NOAA_19_rec.log

#Pass ID: 20250126_200733_NOAA 19
#Satellite: NOAA 19
#Configuration: NOAA 19
#Start time: 2025-01-26 20:07:28.919642

#LorettStation: 1.0.0 05.05.2024
#Station: LEX_Murmansk
#Location: 33.156738 lon 68.926811 lat
#TLE: 1 33591U 09005A   25026.11929750  .00000374  00000+0  22339-3 0  9999
#TLE: 2 33591  99.0177  89.9666 0014047  27.3849 332.8061 14.13269171823112

#Time	Az	El	Level	SNR
2025-01-26 20:07:41.160407	235.8	15.8	-92.3	3.2
2025-01-26 20:07:42.321951	235.9	15.9	-92.2	3.3
2025-01-26 20:07:43.477533	236.1	16.0	-92.0	6.6
2025-01-26 20:07:44.629188	236.3	16.1	-92.2	7.9
2025-01-26 20:07:45.785732	236.5	16.1	-92.2	8.1
2025-01-26 20:07:46.950867	236.7	16.2	-92.5	10.3
2025-01-26 20:07:48.110315	237.0	16.3	-92.6	11.1
2025-01-26 20:07:49.270438	237.2	16.4	-92.4	7.6
2025-01-26 20:07:50.433288	237.4	16.5	-92.4	5.4
2025-01-26 20:07:51.602423	237.6	16.5	-92.7	7.5
2025-01-26 20:07:52.772088	237.8	16.6	-92.5	6.0
2025-01-26 20:07:53.934344	238.0	16.7	-92.6	5.9
2025-01-26 20:07:55.096573	238.2	16.8	-92.4	8.3
2025-01-26 20:07:56.267474	238.4	16.8	-92.2	6.7
2025-01-26 20:07:57.421693	238.6	16.9	-92.2	9.0
2025-01-26 20:07:58.549109	238.8	17.0	-92.5	4.3
2025-01-26 20:07:59.705438	239.0	17.1	-91.9	3.9
2025-01-26 20:08:00.849420	239.2	17.1	-92.4	2.6
2025-01-26 20:08:01.999957	239.5	17.2	-92.0	0.8
2025-01-26 20:08:03.131037	239.7	17.3	-92.4	2.0
2025-01-26 20:08:04.273157	239.9	17.4	-91.8	3.0
2025-01-26 20:08:05.423326	240.1	17.4	-92.8	3.5
2025-01-26 20:08:06.588525	240.3	17.5	-92.9	4.8
2025-01-26 20:08:07.744000	240.5	17.6	-92.4	3.6
2025-01-26 20:08:08.893004	240.8	17.7	-92.9	8.8
2025-01-26 20:08:10.019184	241.0	17.7	-92.6	7.9
2025-01-26 20:08:11.144724	241.2	17.8	-92.7	8.7
2025-01-26 20:08:12.289567	241.4	17.9	-92.9	8.1
2025-01-26 20:08:13.437992	241.6	18.0	-92.2	5.2
2025-01-26 20:08:14.582825	241.9	18.0	-91.5	5.8
2025-01-26 20:08:15.727212	242.1	18.1	-91.8	4.0
2025-01-26 20:08:16.887390	242.3	18.2	-91.7	3.1
2025-01-26 20:08:18.050792	242.6	18.3	-92.7	7.9
2025-01-26 20:08:19.215473	242.8	18.3	-92.5	8.3
2025-01-26 20:08:20.371115	243.0	18.4	-92.6	9.1
2025-01-26 20:08:21.519648	243.2	18.5	-92.8	11.4
2025-01-26 20:08:22.652292	243.5	18.6	-92.7	11.1
2025-01-26 20:08:23.807937	243.7	18.6	-93.0	8.1
2025-01-26 20:08:24.954267	243.9	18.7	-92.5	7.1
2025-01-26 20:08:26.108803	244.2	18.8	-92.5	5.6
2025-01-26 20:08:27.265848	244.4	18.8	-92.3	4.5
2025-01-26 20:08:28.418868	244.7	18.9	-92.4	4.7
2025-01-26 20:08:29.570873	244.9	19.0	-92.6	1.5
2025-01-26 20:08:30.704482	245.1	19.1	-92.4	3.3
2025-01-26 20:08:31.860559	245.4	19.1	-92.6	4.1
2025-01-26 20:08:33.001911	245.6	19.2	-92.8	6.8
2025-01-26 20:08:34.155830	245.9	19.3	-92.5	9.5
2025-01-26 20:08:35.309595	246.1	19.3	-92.3	9.0
2025-01-26 20:08:36.469313	246.3	19.4	-92.4	10.6
2025-01-26 20:08:37.623106	246.6	19.5	-92.7	9.1
2025-01-26 20:08:38.781258	246.8	19.5	-92.4	5.4
2025-01-26 20:08:39.919569	247.1	19.6	-92.8	6.0
2025-01-26 20:08:41.058303	247.3	19.7	-92.4	4.1
2025-01-26 20:08:42.214201	247.6	19.7	-92.3	2.3
2025-01-26 20:08:43.364280	247.8	19.8	-92.7	3.7
2025-01-26 20:08:44.518146	248.1	19.9	-92.8	0.8
2025-01-26 20:08:45.665606	248.3	19.9	-92.4	4.4
2025-01-26 20:08:46.826052	248.6	20.0	-92.4	2.7
2025-01-26 20:08:47.987571	248.9	20.1	-92.5	1.5
2025-01-26 20:08:49.145117	249.1	20.1	-92.6	2.9
2025-01-26 20:08:50.310881	249.4	20.2	-92.5	1.0
2025-01-26 20:08:51.483233	249.6	20.3	-92.5	1.9
2025-01-26 20:08:52.649904	249.9	20.3	-92.6	2.8
2025-01-26 20:08:53.813955	250.2	20.4	-92.7	2.8
2025-01-26 20:08:54.953980	250.4	20.5	-92.8	2.7
2025-01-26 20:08:56.118605	250.7	20.5	-92.5	0.9
2025-01-26 20:08:57.285504	251.0	20.6	-92.1	2.2
2025-01-26 20:08:58.443120	251.2	20.7	-92.7	2.9
2025-01-26 20:08:59.603114	251.5	20.7	-92.4	3.5
2025-01-26 20:09:00.752083	251.8	20.8	-92.8	3.5
2025-01-26 20:09:01.875649	252.0	20.8	-92.5	2.8
2025-01-26 20:09:03.036216	252.3	20.9	-92.5	1.2
2025-01-26 20:09:04.187985	252.6	21.0	-92.6	2.1
2025-01-26 20:09:05.339038	252.8	21.0	-92.4	2.0
2025-01-26 20:09:06.497626	253.1	21.1	-93.0	2.7
2025-01-26 20:09:07.644098	253.4	21.1	-92.6	3.9
2025-01-26 20:09:08.799668	253.7	21.2	-92.6	0.9
2025-01-26 20:09:09.963216	253.9	21.2	-92.7	3.1
2025-01-26 20:09:11.118654	254.2	21.3	-92.5	0.8
2025-01-26 20:09:12.281707	254.5	21.4	-92.6	1.8
2025-01-26 20:09:13.443482	254.8	21.4	-92.6	2.7
2025-01-26 20:09:14.610624	255.1	21.5	-92.5	6.0
2025-01-26 20:09:15.769848	255.4	21.5	-93.0	4.6
2025-01-26 20:09:16.933553	255.6	21.6	-92.8	5.7
2025-01-26 20:09:18.097923	255.9	21.6	-92.0	7.3
2025-01-26 20:09:19.258985	256.2	21.7	-91.8	6.6
2025-01-26 20:09:20.428375	256.5	21.7	-92.0	8.2
2025-01-26 20:09:21.586582	256.8	21.8	-91.8	6.8
2025-01-26 20:09:22.749934	257.1	21.8	-92.8	7.1
2025-01-26 20:09:23.913963	257.4	21.9	-92.6	4.7
2025-01-26 20:09:25.071836	257.7	21.9	-92.5	3.3
2025-01-26 20:09:26.231564	257.9	22.0	-92.4	2.2
2025-01-26 20:09:27.396874	258.2	22.0	-92.5	4.1
2025-01-26 20:09:28.558820	258.5	22.1	-92.4	5.6
2025-01-26 20:09:29.716085	258.8	22.1	-92.3	1.2
2025-01-26 20:09:30.880223	259.1	22.2	-92.7	4.1
2025-01-26 20:09:32.046356	259.4	22.2	-92.9	7.2
2025-01-26 20:09:33.208534	259.7	22.3	-93.0	5.2
2025-01-26 20:09:34.385130	260.0	22.3	-92.5	7.6
2025-01-26 20:09:35.532537	260.3	22.3	-92.7	10.2
2025-01-26 20:09:36.652478	260.6	22.4	-92.8	13.0
2025-01-26 20:09:37.773232	260.9	22.4	-92.4	11.1
2025-01-26 20:09:38.894312	261.2	22.5	-92.8	13.1
2025-01-26 20:09:40.014818	261.5	22.5	-92.5	13.0
2025-01-26 20:09:41.135300	261.7	22.5	-92.6	13.8
2025-01-26 20:09:42.255689	262.0	22.6	-92.6	11.9
2025-01-26 20:09:43.375320	262.3	22.6	-92.7	10.2
2025-01-26 20:09:44.496068	262.6	22.7	-92.8	10.9
2025-01-26 20:09:45.620061	262.9	22.7	-92.4	10.2
2025-01-26 20:09:46.762319	263.2	22.7	-92.4	5.8
2025-01-26 20:09:47.922355	263.5	22.8	-92.8	6.7
2025-01-26 20:09:49.080719	263.8	22.8	-92.5	10.6
2025-01-26 20:09:50.248497	264.1	22.8	-92.2	7.8
2025-01-26 20:09:51.401080	264.4	22.9	-92.4	8.5
2025-01-26 20:09:52.565189	264.8	22.9	-92.9	10.4
2025-01-26 20:09:53.724926	265.1	22.9	-92.8	7.9
2025-01-26 20:09:54.885404	265.4	23.0	-92.9	9.8
2025-01-26 20:09:56.043601	265.7	23.0	-92.8	12.1
2025-01-26 20:09:57.217895	266.0	23.0	-92.0	12.5
2025-01-26 20:09:58.379635	266.3	23.0	-92.3	12.9
2025-01-26 20:09:59.544489	266.6	23.1	-92.6	12.2
2025-01-26 20:10:00.702903	266.9	23.1	-92.5	11.7
2025-01-26 20:10:01.865025	267.2	23.1	-92.5	11.5
2025-01-26 20:10:03.030320	267.6	23.1	-92.5	11.7
2025-01-26 20:10:04.190801	267.9	23.2	-92.7	10.6
2025-01-26 20:10:05.350838	268.2	23.2	-92.6	6.3
2025-01-26 20:10:06.519475	268.5	23.2	-92.9	8.4
2025-01-26 20:10:07.679188	268.8	23.2	-92.7	6.1
2025-01-26 20:10:08.839466	269.1	23.3	-92.6	4.4
2025-01-26 20:10:09.998404	269.4	23.3	-92.4	7.2
2025-01-26 20:10:11.164692	269.8	23.3	-92.3	3.1
2025-01-26 20:10:12.316064	270.1	23.3	-92.3	3.0
2025-01-26 20:10:13.466067	270.4	23.3	-92.2	5.4
2025-01-26 20:10:14.594862	270.7	23.3	-92.6	6.1
2025-01-26 20:10:15.746535	271.0	23.4	-92.7	4.2
2025-01-26 20:10:16.892312	271.3	23.4	-92.5	6.1
2025-01-26 20:10:18.044754	271.6	23.4	-92.2	6.1
2025-01-26 20:10:19.201719	272.0	23.4	-92.6	7.2
2025-01-26 20:10:20.369222	272.3	23.4	-92.3	4.9
2025-01-26 20:10:21.530457	272.6	23.4	-92.4	6.9
2025-01-26 20:10:22.689363	272.9	23.4	-91.5	6.6
2025-01-26 20:10:23.853503	273.2	23.4	-91.8	5.4
2025-01-26 20:10:25.014041	273.5	23.4	-91.6	6.5
2025-01-26 20:10:26.169356	273.9	23.5	-91.9	9.2
2025-01-26 20:10:27.329094	274.2	23.5	-92.8	10.5
2025-01-26 20:10:28.495281	274.5	23.5	-92.8	11.6
2025-01-26 20:10:29.657721	274.8	23.5	-92.4	9.8
2025-01-26 20:10:30.817469	275.1	23.5	-92.9	11.2
2025-01-26 20:10:31.975752	275.5	23.5	-92.6	10.3
2025-01-26 20:10:33.144670	275.8	23.5	-92.7	9.6
2025-01-26 20:10:34.308211	276.1	23.5	-92.6	8.9
2025-01-26 20:10:35.471956	276.4	23.5	-92.4	9.6
2025-01-26 20:10:36.645109	276.7	23.5	-92.5	11.1
2025-01-26 20:10:37.806022	277.1	23.5	-92.6	7.8
2025-01-26 20:10:38.976526	277.4	23.5	-92.7	9.1
2025-01-26 20:10:40.136859	277.7	23.5	-92.7	9.3
2025-01-26 20:10:41.301943	278.0	23.5	-92.7	7.4
2025-01-26 20:10:42.431896	278.3	23.5	-92.4	7.4
2025-01-26 20:10:43.584611	278.6	23.4	-92.5	8.2
2025-01-26 20:10:44.730104	279.0	23.4	-92.7	5.4
2025-01-26 20:10:45.887958	279.3	23.4	-92.7	5.8
2025-01-26 20:10:47.036002	279.6	23.4	-92.2	5.6
2025-01-26 20:10:48.195300	279.9	23.4	-92.3	3.5
2025-01-26 20:10:49.343829	280.2	23.4	-92.3	4.5
2025-01-26 20:10:50.506882	280.5	23.4	-92.5	6.4
2025-01-26 20:10:51.669948	280.9	23.4	-92.3	5.7
2025-01-26 20:10:52.835349	281.2	23.4	-92.4	3.6
2025-01-26 20:10:53.994063	281.5	23.3	-92.8	4.0
2025-01-26 20:10:55.159273	281.8	23.3	-92.7	4.3
2025-01-26 20:10:56.312563	282.1	23.3	-92.4	3.5
2025-01-26 20:10:57.465407	282.4	23.3	-92.3	6.7
2025-01-26 20:10:58.597492	282.7	23.3	-92.9	6.3
2025-01-26 20:10:59.746274	283.1	23.3	-92.4	3.8
2025-01-26 20:11:00.886851	283.4	23.2	-92.8	5.6
2025-01-26 20:11:02.032459	283.7	23.2	-92.4	6.2
2025-01-26 20:11:03.188385	284.0	23.2	-92.3	5.8
2025-01-26 20:11:04.346994	284.3	23.2	-92.4	5.6
2025-01-26 20:11:05.506267	284.6	23.2	-92.8	9.1
2025-01-26 20:11:06.664141	284.9	23.1	-92.3	8.3
2025-01-26 20:11:07.821391	285.2	23.1	-92.5	5.1
2025-01-26 20:11:08.984675	285.5	23.1	-92.7	11.6
2025-01-26 20:11:10.149425	285.9	23.1	-92.8	11.6
2025-01-26 20:11:11.305054	286.2	23.0	-92.6	8.7
2025-01-26 20:11:12.470868	286.5	23.0	-92.8	10.5
2025-01-26 20:11:13.634510	286.8	23.0	-92.6	9.5
2025-01-26 20:11:14.790371	287.1	22.9	-92.6	10.4
2025-01-26 20:11:15.921238	287.4	22.9	-92.7	8.5
2025-01-26 20:11:17.077875	287.7	22.9	-92.7	12.0
2025-01-26 20:11:18.227246	288.0	22.8	-92.7	11.0
2025-01-26 20:11:19.369193	288.3	22.8	-92.4	7.4
2025-01-26 20:11:20.543029	288.6	22.8	-92.3	5.7
2025-01-26 20:11:21.704827	288.9	22.7	-92.6	6.9
2025-01-26 20:11:22.869125	289.2	22.7	-93.0	10.6
2025-01-26 20:11:24.019946	289.5	22.7	-92.5	10.0
2025-01-26 20:11:25.165741	289.8	22.6	-92.6	12.0
2025-01-26 20:11:26.290440	290.1	22.6	-92.2	4.3
2025-01-26 20:11:27.446160	290.4	22.6	-91.6	6.7
2025-01-26 20:11:28.591853	290.7	22.5	-92.0	10.5
2025-01-26 20:11:29.748345	291.0	22.5	-92.1	6.3
2025-01-26 20:11:30.901846	291.3	22.4	-92.8	6.3
2025-01-26 20:11:32.055592	291.6	22.4	-92.6	5.4
2025-01-26 20:11:33.222624	291.9	22.4	-92.7	7.6
2025-01-26 20:11:34.382763	292.2	22.3	-92.7	7.6
2025-01-26 20:11:35.545120	292.5	22.3	-92.6	8.3
2025-01-26 20:11:36.703757	292.8	22.2	-92.4	11.7
2025-01-26 20:11:37.866910	293.1	22.2	-92.5	5.1
2025-01-26 20:11:39.026837	293.4	22.1	-93.0	4.8
2025-01-26 20:11:40.190785	293.7	22.1	-92.8	9.7
2025-01-26 20:11:41.358751	294.0	22.0	-92.7	5.8
2025-01-26 20:11:42.515920	294.3	22.0	-92.5	6.6
2025-01-26 20:11:43.676331	294.6	22.0	-92.7	4.8
2025-01-26 20:11:44.806056	294.8	21.9	-92.4	9.8
2025-01-26 20:11:45.943928	295.1	21.9	-92.6	6.3
2025-01-26 20:11:47.096231	295.4	21.8	-92.8	4.3
2025-01-26 20:11:48.241452	295.7	21.8	-92.3	7.6
2025-01-26 20:11:49.400117	296.0	21.7	-92.7	9.9
2025-01-26 20:11:50.552278	296.3	21.7	-92.5	11.0
2025-01-26 20:11:51.714849	296.5	21.6	-92.6	6.1
2025-01-26 20:11:52.879135	296.8	21.6	-92.4	11.6
2025-01-26 20:11:54.042950	297.1	21.5	-92.8	3.6
2025-01-26 20:11:55.201187	297.4	21.4	-92.7	3.5
2025-01-26 20:11:56.362867	297.7	21.4	-92.6	3.9
2025-01-26 20:11:57.523746	297.9	21.3	-92.8	5.4
2025-01-26 20:11:58.685588	298.2	21.3	-92.5	5.6
2025-01-26 20:11:59.850766	298.5	21.2	-92.8	3.1
2025-01-26 20:12:01.007852	298.8	21.2	-92.9	5.3
2025-01-26 20:12:02.167274	299.0	21.1	-92.9	1.2
2025-01-26 20:12:03.327776	299.3	21.0	-93.0	3.2
2025-01-26 20:12:04.490928	299.6	21.0	-92.8	3.8
2025-01-26 20:12:05.653599	299.9	20.9	-92.9	1.4
2025-01-26 20:12:06.811552	300.1	20.9	-92.9	1.1
2025-01-26 20:12:07.977863	300.4	20.8	-93.0	3.2
2025-01-26 20:12:09.138604	300.7	20.8	-92.6	2.0
2025-01-26 20:12:10.298755	300.9	20.7	-92.4	3.3
2025-01-26 20:12:11.472328	301.2	20.6	-92.8	4.1
2025-01-26 20:12:12.633340	301.5	20.6	-92.7	5.8
2025-01-26 20:12:13.790812	301.7	20.5	-92.3	3.3
2025-01-26 20:12:14.947747	302.0	20.4	-92.8	5.1
2025-01-26 20:12:16.073074	302.3	20.4	-92.7	1.8
2025-01-26 20:12:17.227336	302.5	20.3	-92.3	2.1
2025-01-26 20:12:18.369153	302.8	20.3	-92.4	4.2
2025-01-26 20:12:19.520182	303.0	20.2	-92.8	4.2
2025-01-26 20:12:20.645771	303.3	20.1	-92.7	4.3
2025-01-26 20:12:21.777996	303.5	20.1	-92.4	1.1
2025-01-26 20:12:22.943363	303.8	20.0	-92.4	2.0
2025-01-26 20:12:24.092725	304.0	19.9	-92.6	2.8
2025-01-26 20:12:25.241623	304.3	19.9	-92.7	1.4
2025-01-26 20:12:26.389691	304.5	19.8	-92.6	2.8
2025-01-26 20:12:27.560419	304.8	19.7	-92.6	2.0
2025-01-26 20:12:28.716206	305.0	19.7	-93.1	3.4
2025-01-26 20:12:29.884943	305.3	19.6	-92.8	1.1
2025-01-26 20:12:31.004184	305.5	19.5	-91.7	2.2
2025-01-26 20:12:32.171088	305.8	19.5	-91.8	2.7
2025-01-26 20:12:33.336664	306.0	19.4	-91.6	2.8
2025-01-26 20:12:34.497575	306.3	19.3	-91.9	4.5
2025-01-26 20:12:35.663548	306.5	19.3	-92.3	2.3
2025-01-26 20:12:36.819217	306.8	19.2	-92.5	0.3
2025-01-26 20:12:37.986825	307.0	19.1	-92.7	5.6
2025-01-26 20:12:39.144192	307.3	19.0	-92.8	2.6
2025-01-26 20:12:40.312529	307.5	19.0	-92.7	0.5
2025-01-26 20:12:41.467802	307.7	18.9	-92.3	6.0
2025-01-26 20:12:42.631196	308.0	18.8	-92.5	6.9
2025-01-26 20:12:43.793544	308.2	18.8	-92.7	6.2
2025-01-26 20:12:44.954510	308.4	18.7	-92.9	5.5
2025-01-26 20:12:46.115136	308.7	18.6	-92.8	5.4
2025-01-26 20:12:47.270723	308.9	18.5	-92.5	4.3
2025-01-26 20:12:48.432657	309.1	18.5	-92.8	4.3
2025-01-26 20:12:49.592095	309.4	18.4	-92.6	8.6
2025-01-26 20:12:50.755728	309.6	18.3	-92.9	3.2
2025-01-26 20:12:51.918948	309.8	18.3	-92.9	7.2
2025-01-26 20:12:53.086631	310.1	18.2	-92.6	5.3
2025-01-26 20:12:54.250975	310.3	18.1	-92.6	3.7
2025-01-26 20:12:55.418227	310.5	18.0	-92.9	3.9
2025-01-26 20:12:56.573691	310.7	18.0	-92.5	2.6
2025-01-26 20:12:57.736819	311.0	17.9	-92.5	2.0
2025-01-26 20:12:58.899784	311.2	17.8	-92.9	4.1
2025-01-26 20:13:00.059795	311.4	17.7	-93.0	3.4
2025-01-26 20:13:01.212947	311.6	17.7	-92.9	3.2
2025-01-26 20:13:02.377650	311.9	17.6	-93.2	3.9
2025-01-26 20:13:03.536394	312.1	17.5	-93.0	2.4
2025-01-26 20:13:04.697539	312.3	17.4	-92.9	3.7
2025-01-26 20:13:05.843434	312.5	17.4	-92.7	2.6
2025-01-26 20:13:06.965328	312.7	17.3	-92.9	4.8
2025-01-26 20:13:08.086872	312.9	17.2	-92.3	4.0
2025-01-26 20:13:09.207548	313.1	17.1	-92.7	4.6
2025-01-26 20:13:10.329050	313.3	17.1	-92.3	4.1
2025-01-26 20:13:11.449855	313.5	17.0	-92.5	4.8
2025-01-26 20:13:12.573938	313.7	16.9	-92.7	6.1
2025-01-26 20:13:13.695422	313.9	16.8	-92.5	4.8
2025-01-26 20:13:14.816054	314.1	16.8	-93.1	6.1
2025-01-26 20:13:15.937689	314.3	16.7	-92.5	7.8
2025-01-26 20:13:17.060068	314.5	16.6	-92.8	4.3
2025-01-26 20:13:18.197132	314.7	16.5	-92.7	3.4
2025-01-26 20:13:19.325904	314.9	16.5	-92.4	5.6
2025-01-26 20:13:20.467414	315.1	16.4	-93.1	2.7
2025-01-26 20:13:21.594886	315.3	16.3	-92.8	7.9
2025-01-26 20:13:22.744042	315.5	16.2	-93.1	3.8
2025-01-26 20:13:23.890747	315.7	16.2	-92.8	10.1
2025-01-26 20:13:25.035852	315.9	16.1	-92.7	4.6
2025-01-26 20:13:26.176775	316.1	16.0	-92.6	2.7
2025-01-26 20:13:27.330527	316.3	15.9	-93.0	2.1
2025-01-26 20:13:28.487896	316.5	15.9	-92.7	4.2
2025-01-26 20:13:29.651416	316.7	15.8	-92.7	3.6
2025-01-26 20:13:30.809076	316.9	15.7	-92.8	1.4
2025-01-26 20:13:31.972715	317.1	15.6	-93.0	4.1
2025-01-26 20:13:33.133584	317.3	15.6	-93.2	4.0
2025-01-26 20:13:34.294487	317.5	15.5	-92.9	2.3
2025-01-26 20:13:35.455586	317.7	15.4	-91.9	6.8
2025-01-26 20:13:36.616825	317.9	15.3	-92.1	3.3
2025-01-26 20:13:37.779039	318.1	15.2	-91.6	2.7
2025-01-26 20:13:38.945653	318.2	15.2	-91.8	2.7
2025-01-26 20:13:40.110498	318.4	15.1	-92.6	5.4
2025-01-26 20:13:41.273369	318.6	15.0	-92.2	3.2
2025-01-26 20:13:42.432758	318.8	14.9	-92.6	5.9
2025-01-26 20:13:43.596041	319.0	14.8	-92.5	7.7
2025-01-26 20:13:44.758600	319.2	14.8	-92.5	3.4
2025-01-26 20:13:45.918946	319.4	14.7	-92.4	8.4
#Closed at: 2025-01-26 20:07:33.979432