passes_logs/2025/01/26/LEX_Murmansk/LEX_Murmansk__20250126_114546_NOAA_19_rec.log

#Pass ID: 20250126_114546_NOAA 19
#Satellite: NOAA 19
#Configuration: NOAA 19
#Start time: 2025-01-26 11:45:41.115309

#LorettStation: 1.0.0 05.05.2024
#Station: LEX_Murmansk
#Location: 33.156738 lon 68.926811 lat
#TLE: 1 33591U 09005A   25024.84494910  .00000392  00000+0  23341-3 0  9996
#TLE: 2 33591  99.0180  88.6826 0014105  30.8618 329.3380 14.13268098822670

#Time	Az	El	Level	SNR
2025-01-26 11:45:55.354450	26.1	16.2	-91.7	4.8
2025-01-26 11:45:56.502082	25.9	16.3	-92.1	5.9
2025-01-26 11:45:57.657868	25.8	16.4	-91.9	4.2
2025-01-26 11:45:58.804319	25.6	16.5	-92.3	5.0
2025-01-26 11:45:59.955050	25.5	16.6	-92.3	4.4
2025-01-26 11:46:01.096879	25.3	16.7	-92.2	3.2
2025-01-26 11:46:02.250174	25.1	16.8	-92.2	2.1
2025-01-26 11:46:03.398129	25.0	16.9	-92.3	3.2
2025-01-26 11:46:04.539432	24.8	17.0	-91.0	2.6
2025-01-26 11:46:05.688660	24.6	17.1	-92.0	1.6
2025-01-26 11:46:06.830096	24.5	17.2	-92.2	2.8
2025-01-26 11:46:07.979574	24.3	17.3	-90.4	1.2
2025-01-26 11:46:09.132580	24.1	17.4	-89.2	2.0
2025-01-26 11:46:10.279603	23.9	17.5	-89.2	2.6
2025-01-26 11:46:11.428678	23.8	17.6	-88.7	2.1
2025-01-26 11:46:12.570932	23.6	17.7	-88.4	3.8
2025-01-26 11:46:13.721610	23.4	17.8	-88.7	4.8
2025-01-26 11:46:14.870217	23.2	17.9	-89.2	6.0
2025-01-26 11:46:16.019360	23.1	18.0	-88.9	3.9
2025-01-26 11:46:17.168943	22.9	18.1	-89.1	6.2
2025-01-26 11:46:18.312617	22.7	18.2	-88.6	5.7
2025-01-26 11:46:19.461622	22.5	18.3	-88.9	11.4
2025-01-26 11:46:20.610765	22.3	18.4	-88.7	6.6
2025-01-26 11:46:21.741728	22.1	18.5	-88.9	6.9
2025-01-26 11:46:22.861721	22.0	18.6	-89.0	3.2
2025-01-26 11:46:23.982562	21.8	18.7	-88.7	1.0
2025-01-26 11:46:25.103312	21.6	18.8	-88.7	4.0
2025-01-26 11:46:26.224901	21.4	18.9	-89.0	3.4
2025-01-26 11:46:27.345451	21.2	19.0	-88.9	3.6
2025-01-26 11:46:28.466065	21.0	19.1	-89.1	2.5
2025-01-26 11:46:29.587075	20.8	19.2	-89.2	5.0
2025-01-26 11:46:30.708038	20.6	19.3	-89.5	7.2
2025-01-26 11:46:31.837005	20.5	19.4	-89.2	8.7
2025-01-26 11:46:32.981811	20.3	19.5	-89.1	3.8
2025-01-26 11:46:34.127843	20.1	19.6	-88.9	5.8
2025-01-26 11:46:35.274918	19.9	19.7	-88.9	6.3
2025-01-26 11:46:36.422528	19.7	19.8	-89.2	5.1
2025-01-26 11:46:37.571754	19.5	19.9	-88.9	3.9
2025-01-26 11:46:38.718296	19.3	20.0	-89.3	4.4
2025-01-26 11:46:39.864499	19.0	20.1	-89.1	4.4
2025-01-26 11:46:41.011480	18.8	20.2	-89.5	6.7
2025-01-26 11:46:42.161974	18.6	20.3	-89.9	6.6
2025-01-26 11:46:43.309465	18.4	20.4	-90.0	3.8
2025-01-26 11:46:44.452199	18.2	20.5	-90.1	2.0
2025-01-26 11:46:45.600023	18.0	20.6	-89.9	1.6
2025-01-26 11:46:46.748641	17.8	20.7	-90.1	2.7
2025-01-26 11:46:47.901019	17.6	20.8	-90.3	4.5
2025-01-26 11:46:49.044684	17.3	20.9	-90.5	3.4
2025-01-26 11:46:50.189694	17.1	21.0	-89.8	6.4
2025-01-26 11:46:51.341169	16.9	21.1	-90.0	8.7
2025-01-26 11:46:52.485864	16.7	21.2	-89.0	6.1
2025-01-26 11:46:53.627256	16.5	21.3	-90.5	9.5
2025-01-26 11:46:54.774883	16.2	21.4	-89.9	6.1
2025-01-26 11:46:55.923462	16.0	21.5	-89.8	5.6
2025-01-26 11:46:57.067893	15.8	21.6	-89.9	3.9
2025-01-26 11:46:58.213094	15.6	21.7	-89.4	3.3
2025-01-26 11:46:59.363092	15.3	21.8	-89.9	2.7
2025-01-26 11:47:00.508894	15.1	21.9	-89.7	5.6
2025-01-26 11:47:01.655344	14.9	22.0	-89.4	4.2
2025-01-26 11:47:02.800649	14.6	22.1	-89.5	7.4
2025-01-26 11:47:03.950865	14.4	22.2	-89.8	5.0
2025-01-26 11:47:05.090609	14.2	22.3	-89.1	4.4
2025-01-26 11:47:06.238380	13.9	22.4	-89.5	1.7
2025-01-26 11:47:07.386905	13.7	22.5	-89.5	4.5
2025-01-26 11:47:08.535492	13.4	22.6	-89.6	0.5
2025-01-26 11:47:09.689555	13.2	22.7	-89.3	1.6
2025-01-26 11:47:10.836353	12.9	22.8	-89.6	4.6
2025-01-26 11:47:11.985482	12.7	22.9	-89.3	4.1
2025-01-26 11:47:13.126790	12.5	23.0	-89.6	8.4
2025-01-26 11:47:14.272496	12.2	23.1	-89.6	9.8
2025-01-26 11:47:15.425074	12.0	23.2	-89.7	11.1
2025-01-26 11:47:16.569455	11.7	23.3	-89.6	9.5
2025-01-26 11:47:17.701740	11.4	23.4	-89.2	8.6
2025-01-26 11:47:18.822420	11.2	23.5	-89.8	8.4
2025-01-26 11:47:19.942912	10.9	23.5	-89.9	3.9
2025-01-26 11:47:21.062360	10.7	23.6	-90.0	4.4
2025-01-26 11:47:22.183735	10.4	23.7	-90.0	4.1
2025-01-26 11:47:23.305034	10.2	23.8	-90.1	7.9
2025-01-26 11:47:24.425073	9.9	23.9	-90.3	6.2
2025-01-26 11:47:25.546113	9.7	24.0	-90.0	7.2
2025-01-26 11:47:26.667759	9.4	24.1	-89.9	10.4
2025-01-26 11:47:27.788820	9.1	24.2	-90.4	7.9
2025-01-26 11:47:28.934030	8.9	24.3	-90.6	4.5
2025-01-26 11:47:30.081633	8.6	24.4	-90.1	4.6
2025-01-26 11:47:31.225591	8.3	24.5	-89.7	2.4
2025-01-26 11:47:32.369094	8.0	24.6	-89.5	2.6
2025-01-26 11:47:33.509555	7.8	24.7	-90.0	2.7
2025-01-26 11:47:34.655550	7.5	24.8	-89.8	3.6
2025-01-26 11:47:35.804669	7.2	24.8	-90.3	3.9
2025-01-26 11:47:36.953516	6.9	24.9	-90.1	2.8
2025-01-26 11:47:38.100597	6.6	25.0	-90.1	5.6
2025-01-26 11:47:39.254031	6.4	25.1	-90.1	8.7
2025-01-26 11:47:40.397242	6.1	25.2	-89.8	7.7
2025-01-26 11:47:41.543630	5.8	25.3	-90.2	8.7
2025-01-26 11:47:42.689743	5.5	25.4	-89.9	5.8
2025-01-26 11:47:43.834967	5.2	25.5	-90.3	8.0
2025-01-26 11:47:44.982509	4.9	25.6	-90.2	4.2
2025-01-26 11:47:46.127684	4.6	25.7	-89.9	5.7
2025-01-26 11:47:47.278598	4.3	25.7	-90.1	6.3
2025-01-26 11:47:48.421585	4.0	25.8	-89.4	4.2
2025-01-26 11:47:49.570079	3.7	25.9	-89.2	4.2
2025-01-26 11:47:50.714152	3.4	26.0	-90.0	9.7
2025-01-26 11:47:51.861875	3.1	26.1	-89.9	10.9
2025-01-26 11:47:53.011480	2.8	26.2	-90.1	10.5
2025-01-26 11:47:54.160525	2.5	26.2	-90.1	10.6
2025-01-26 11:47:55.309022	2.2	26.3	-90.0	7.5
2025-01-26 11:47:56.452344	1.9	26.4	-90.4	3.4
2025-01-26 11:47:57.600909	1.6	26.5	-89.8	3.2
2025-01-26 11:47:58.747493	1.3	26.6	-90.0	3.1
2025-01-26 11:47:59.895746	1.0	26.7	-90.0	2.0
2025-01-26 11:48:01.035326	0.6	26.7	-89.9	2.8
2025-01-26 11:48:02.177097	0.3	26.8	-89.9	3.2
2025-01-26 11:48:03.326169	0.0	26.9	-89.7	3.7
2025-01-26 11:48:04.473964	359.7	27.0	-89.8	2.1
2025-01-26 11:48:05.621394	359.4	27.0	-89.2	2.5
2025-01-26 11:48:06.769730	359.0	27.1	-88.6	5.1
2025-01-26 11:48:07.916208	358.7	27.2	-89.4	6.0
2025-01-26 11:48:09.059486	358.4	27.3	-89.0	8.5
2025-01-26 11:48:10.206246	358.1	27.3	-88.7	7.2
2025-01-26 11:48:11.352801	357.7	27.4	-89.1	7.6
2025-01-26 11:48:12.502751	357.4	27.5	-89.4	3.5
2025-01-26 11:48:13.648285	357.1	27.5	-89.4	5.6
2025-01-26 11:48:14.790743	356.7	27.6	-89.5	7.2
2025-01-26 11:48:15.943237	356.4	27.7	-89.1	4.7
2025-01-26 11:48:17.086337	356.1	27.8	-89.1	4.6
2025-01-26 11:48:18.236087	355.7	27.8	-87.9	5.8
2025-01-26 11:48:19.381800	355.4	27.9	-89.5	5.3
2025-01-26 11:48:20.528338	355.0	27.9	-89.0	5.1
2025-01-26 11:48:21.672382	354.7	28.0	-88.8	3.1
2025-01-26 11:48:22.822219	354.4	28.1	-88.7	4.9
2025-01-26 11:48:23.971305	354.0	28.1	-88.9	7.3
2025-01-26 11:48:25.113684	353.7	28.2	-88.9	6.2
2025-01-26 11:48:26.256617	353.3	28.3	-89.8	7.7
2025-01-26 11:48:27.406069	353.0	28.3	-89.2	6.9
2025-01-26 11:48:28.555554	352.6	28.4	-89.4	5.5
2025-01-26 11:48:29.700653	352.3	28.4	-89.6	6.2
2025-01-26 11:48:30.843512	351.9	28.5	-89.6	4.5
2025-01-26 11:48:31.988310	351.6	28.5	-89.6	4.6
2025-01-26 11:48:33.135666	351.2	28.6	-89.7	4.6
2025-01-26 11:48:34.279036	350.8	28.6	-89.5	4.4
2025-01-26 11:48:35.423953	350.5	28.7	-89.8	1.8
2025-01-26 11:48:36.573749	350.1	28.7	-89.7	2.5
2025-01-26 11:48:37.719248	349.8	28.8	-88.0	2.6
2025-01-26 11:48:38.865375	349.4	28.8	-89.7	4.4
2025-01-26 11:48:40.011142	349.1	28.9	-89.8	1.6
2025-01-26 11:48:41.160748	348.7	28.9	-89.4	3.9
2025-01-26 11:48:42.312417	348.3	29.0	-89.1	3.0
2025-01-26 11:48:43.453211	348.0	29.0	-89.7	2.6
2025-01-26 11:48:44.600719	347.6	29.0	-89.2	4.1
2025-01-26 11:48:45.743963	347.2	29.1	-89.7	6.4
2025-01-26 11:48:46.892348	346.9	29.1	-89.6	6.9
2025-01-26 11:48:48.035686	346.5	29.2	-89.5	8.0
2025-01-26 11:48:49.180695	346.1	29.2	-89.5	11.3
2025-01-26 11:48:50.332905	345.8	29.2	-90.2	10.2
2025-01-26 11:48:51.480834	345.4	29.3	-89.1	9.3
2025-01-26 11:48:52.624874	345.0	29.3	-89.6	9.9
2025-01-26 11:48:53.767247	344.6	29.3	-89.6	7.5
2025-01-26 11:48:54.919931	344.3	29.4	-89.3	6.6
2025-01-26 11:48:56.069765	343.9	29.4	-89.7	6.3
2025-01-26 11:48:57.215777	343.5	29.4	-89.9	6.1
2025-01-26 11:48:58.361234	343.1	29.4	-89.5	5.0
2025-01-26 11:48:59.506197	342.8	29.5	-90.3	3.1
2025-01-26 11:49:00.644756	342.4	29.5	-89.7	4.6
2025-01-26 11:49:01.794432	342.0	29.5	-89.1	3.9
2025-01-26 11:49:02.944257	341.6	29.5	-89.6	3.6
2025-01-26 11:49:04.084289	341.3	29.5	-89.2	4.3
2025-01-26 11:49:05.238526	340.9	29.6	-89.0	6.9
2025-01-26 11:49:06.384871	340.5	29.6	-88.7	7.0
2025-01-26 11:49:07.533661	340.1	29.6	-89.6	3.5
2025-01-26 11:49:08.680005	339.8	29.6	-89.9	5.5
2025-01-26 11:49:09.826646	339.4	29.6	-89.6	6.6
2025-01-26 11:49:10.968249	339.0	29.6	-89.5	6.7
2025-01-26 11:49:12.117460	338.6	29.6	-89.4	6.8
2025-01-26 11:49:13.263390	338.2	29.6	-89.4	9.6
2025-01-26 11:49:14.410648	337.9	29.6	-89.4	11.5
2025-01-26 11:49:15.557570	337.5	29.6	-89.2	5.8
2025-01-26 11:49:16.707970	337.1	29.6	-88.8	6.5
2025-01-26 11:49:17.853600	336.7	29.6	-89.6	6.9
2025-01-26 11:49:19.000490	336.3	29.6	-89.5	6.2
2025-01-26 11:49:20.145620	336.0	29.6	-88.7	8.2
2025-01-26 11:49:21.295071	335.6	29.6	-89.8	11.5
2025-01-26 11:49:22.440294	335.2	29.6	-89.1	7.0
2025-01-26 11:49:23.585038	334.8	29.6	-89.1	6.0
2025-01-26 11:49:24.735564	334.5	29.6	-89.6	8.1
2025-01-26 11:49:25.888230	334.1	29.6	-89.5	8.3
2025-01-26 11:49:27.032034	333.7	29.6	-89.0	4.9
2025-01-26 11:49:28.178227	333.3	29.6	-89.1	8.6
2025-01-26 11:49:29.326970	332.9	29.6	-89.4	8.3
2025-01-26 11:49:30.476334	332.6	29.6	-89.2	5.8
2025-01-26 11:49:31.625859	332.2	29.5	-89.4	6.3
2025-01-26 11:49:32.772443	331.8	29.5	-89.7	6.7
2025-01-26 11:49:33.924968	331.4	29.5	-89.5	4.1
2025-01-26 11:49:35.070968	331.0	29.5	-89.5	2.5
2025-01-26 11:49:36.217142	330.7	29.5	-89.4	3.8
2025-01-26 11:49:37.363040	330.3	29.4	-89.6	4.0
2025-01-26 11:49:38.511035	329.9	29.4	-89.6	3.8
2025-01-26 11:49:39.656748	329.5	29.4	-88.9	4.5
2025-01-26 11:49:40.806101	329.2	29.4	-88.9	2.6
2025-01-26 11:49:41.954581	328.8	29.3	-89.9	2.4
2025-01-26 11:49:43.094056	328.4	29.3	-89.2	3.2
2025-01-26 11:49:44.239458	328.1	29.3	-89.7	4.8
2025-01-26 11:49:45.383472	327.7	29.3	-89.2	7.9
2025-01-26 11:49:46.532058	327.3	29.2	-89.2	2.7
2025-01-26 11:49:47.677406	327.0	29.2	-89.4	6.4
2025-01-26 11:49:48.823369	326.6	29.1	-89.3	5.9
2025-01-26 11:49:49.969896	326.2	29.1	-89.4	4.1
2025-01-26 11:49:51.116707	325.9	29.1	-89.7	4.7
2025-01-26 11:49:52.264655	325.5	29.0	-88.9	6.3
2025-01-26 11:49:53.410554	325.1	29.0	-89.3	4.9
2025-01-26 11:49:54.558487	324.8	28.9	-89.5	2.7
2025-01-26 11:49:55.711573	324.4	28.9	-89.2	3.6
2025-01-26 11:49:56.863555	324.0	28.9	-89.3	6.2
2025-01-26 11:49:58.008229	323.7	28.8	-89.1	2.1
2025-01-26 11:49:59.153362	323.3	28.8	-89.2	2.8
2025-01-26 11:50:00.300502	322.9	28.7	-89.5	5.1
2025-01-26 11:50:01.452213	322.6	28.7	-88.4	4.4
2025-01-26 11:50:02.598483	322.2	28.6	-89.5	3.6
2025-01-26 11:50:03.747158	321.9	28.6	-89.7	6.3
2025-01-26 11:50:04.900471	321.5	28.5	-89.1	4.0
2025-01-26 11:50:06.046032	321.2	28.5	-89.3	3.7
2025-01-26 11:50:07.191252	320.8	28.4	-89.4	6.1
2025-01-26 11:50:08.339578	320.5	28.3	-88.9	7.8
2025-01-26 11:50:09.491880	320.1	28.3	-88.7	5.5
2025-01-26 11:50:10.635514	319.8	28.2	-88.5	5.5
2025-01-26 11:50:11.780994	319.4	28.2	-88.5	3.9
2025-01-26 11:50:12.933312	319.1	28.1	-88.8	4.5
2025-01-26 11:50:14.079614	318.7	28.1	-88.8	4.5
2025-01-26 11:50:15.227168	318.4	28.0	-89.0	6.6
2025-01-26 11:50:16.374576	318.0	27.9	-88.6	6.2
2025-01-26 11:50:17.520272	317.7	27.9	-89.4	2.5
2025-01-26 11:50:18.669650	317.4	27.8	-89.5	4.8
2025-01-26 11:50:19.822435	317.0	27.7	-89.5	8.2
2025-01-26 11:50:20.970196	316.7	27.7	-88.6	4.4
2025-01-26 11:50:22.116543	316.4	27.6	-89.4	6.7
2025-01-26 11:50:23.263296	316.0	27.5	-89.4	6.2
2025-01-26 11:50:24.405519	315.7	27.5	-89.2	5.3
2025-01-26 11:50:25.553070	315.4	27.4	-89.6	4.7
2025-01-26 11:50:26.695177	315.0	27.3	-89.8	5.0
2025-01-26 11:50:27.839882	314.7	27.2	-89.6	6.0
2025-01-26 11:50:28.986483	314.4	27.2	-89.6	5.2
2025-01-26 11:50:30.133845	314.1	27.1	-88.7	3.6
2025-01-26 11:50:31.277246	313.7	27.0	-88.9	6.3
2025-01-26 11:50:32.422721	313.4	26.9	-89.2	5.6
2025-01-26 11:50:33.548692	313.1	26.9	-88.8	3.8
2025-01-26 11:50:34.669127	312.8	26.8	-89.6	1.4
2025-01-26 11:50:35.793099	312.5	26.7	-89.3	7.0
2025-01-26 11:50:36.912958	312.2	26.6	-89.3	4.7
2025-01-26 11:50:38.033334	311.9	26.6	-89.1	5.8
2025-01-26 11:50:39.153739	311.6	26.5	-89.6	3.5
2025-01-26 11:50:40.274096	311.3	26.4	-89.6	5.2
2025-01-26 11:50:41.394157	311.0	26.3	-89.3	5.7
2025-01-26 11:50:42.516357	310.7	26.2	-89.7	3.0
2025-01-26 11:50:43.639983	310.4	26.2	-89.2	5.1
2025-01-26 11:50:44.787683	310.1	26.1	-90.0	6.1
2025-01-26 11:50:45.928274	309.8	26.0	-89.7	5.8
2025-01-26 11:50:47.079304	309.5	25.9	-89.6	5.9
2025-01-26 11:50:48.224709	309.2	25.8	-89.3	5.5
2025-01-26 11:50:49.374189	308.9	25.7	-89.2	8.6
2025-01-26 11:50:50.518938	308.6	25.6	-89.0	4.9
2025-01-26 11:50:51.662859	308.3	25.6	-89.1	4.9
2025-01-26 11:50:52.811590	308.0	25.5	-89.3	4.2
2025-01-26 11:50:53.956567	307.7	25.4	-89.1	4.7
2025-01-26 11:50:55.101726	307.4	25.3	-89.3	6.5
2025-01-26 11:50:56.246422	307.1	25.2	-89.3	8.6
2025-01-26 11:50:57.395103	306.8	25.1	-89.5	9.0
2025-01-26 11:50:58.542002	306.5	25.0	-88.9	9.6
2025-01-26 11:50:59.690842	306.3	24.9	-89.7	10.1
2025-01-26 11:51:00.833974	306.0	24.8	-89.6	8.6
2025-01-26 11:51:01.980284	305.7	24.8	-89.2	6.9
2025-01-26 11:51:03.134830	305.4	24.7	-90.1	6.9
2025-01-26 11:51:04.279737	305.1	24.6	-89.4	6.9
2025-01-26 11:51:05.422352	304.9	24.5	-89.9	7.1
2025-01-26 11:51:06.655628	304.6	24.4	-89.7	2.7
2025-01-26 11:51:07.807580	304.3	24.3	-89.7	5.4
2025-01-26 11:51:08.956573	304.0	24.2	-89.1	6.1
2025-01-26 11:51:10.099735	303.8	24.1	-89.5	5.5
2025-01-26 11:51:11.247098	303.5	24.0	-89.0	6.2
2025-01-26 11:51:12.395215	303.2	23.9	-89.3	3.9
2025-01-26 11:51:13.541616	303.0	23.8	-89.3	3.6
2025-01-26 11:51:14.687192	302.7	23.7	-89.8	4.5
2025-01-26 11:51:15.833088	302.5	23.6	-89.4	2.3
2025-01-26 11:51:16.983089	302.2	23.5	-89.6	3.2
2025-01-26 11:51:18.128105	301.9	23.4	-89.2	4.8
2025-01-26 11:51:19.278043	301.7	23.3	-89.3	5.3
2025-01-26 11:51:20.426394	301.4	23.2	-89.2	4.1
2025-01-26 11:51:21.577386	301.2	23.1	-89.4	4.9
2025-01-26 11:51:22.724702	300.9	23.0	-89.9	2.6
2025-01-26 11:51:23.873256	300.7	22.9	-89.9	4.1
2025-01-26 11:51:25.025549	300.4	22.8	-89.3	3.8
2025-01-26 11:51:26.170798	300.2	22.7	-89.3	4.8
2025-01-26 11:51:27.318133	299.9	22.6	-89.3	5.1
2025-01-26 11:51:28.471378	299.7	22.5	-89.5	3.8
2025-01-26 11:51:29.623346	299.5	22.4	-89.4	2.2
2025-01-26 11:51:30.781043	299.2	22.3	-89.2	2.9
2025-01-26 11:51:31.929809	299.0	22.2	-89.1	2.7
2025-01-26 11:51:33.079120	298.7	22.1	-88.6	2.8
2025-01-26 11:51:34.223429	298.5	22.0	-89.3	5.8
2025-01-26 11:51:35.372421	298.3	21.9	-89.2	5.0
2025-01-26 11:51:36.521032	298.0	21.8	-89.3	7.0
2025-01-26 11:51:37.668091	297.8	21.7	-89.4	7.3
2025-01-26 11:51:38.813281	297.6	21.6	-89.3	7.4
2025-01-26 11:51:39.960903	297.3	21.5	-88.6	3.8
2025-01-26 11:51:41.109496	297.1	21.4	-89.2	4.1
2025-01-26 11:51:42.255733	296.9	21.3	-89.4	3.5
2025-01-26 11:51:43.401398	296.7	21.2	-88.9	4.5
2025-01-26 11:51:44.551779	296.5	21.1	-88.9	5.4
2025-01-26 11:51:45.701796	296.2	21.0	-89.2	4.1
2025-01-26 11:51:46.852826	296.0	20.9	-92.8	4.0
2025-01-26 11:51:48.002540	295.8	20.8	-92.7	3.3
2025-01-26 11:51:49.151287	295.6	20.7	-92.6	1.1
2025-01-26 11:51:50.298693	295.4	20.6	-92.6	3.3
2025-01-26 11:51:51.440916	295.2	20.5	-92.7	5.1
2025-01-26 11:51:52.585884	294.9	20.4	-92.5	2.3
2025-01-26 11:51:53.733857	294.7	20.3	-92.9	4.2
2025-01-26 11:51:54.883560	294.5	20.2	-93.0	8.6
2025-01-26 11:51:56.028067	294.3	20.1	-92.4	4.0
2025-01-26 11:51:57.171646	294.1	20.0	-92.6	7.9
2025-01-26 11:51:58.315832	293.9	19.9	-93.0	8.7
2025-01-26 11:51:59.462062	293.7	19.8	-92.5	8.7
2025-01-26 11:52:00.602635	293.5	19.7	-93.1	7.3
2025-01-26 11:52:01.752373	293.3	19.6	-92.6	8.3
2025-01-26 11:52:02.897458	293.1	19.5	-92.8	6.7
2025-01-26 11:52:04.044715	292.9	19.4	-93.0	9.5
2025-01-26 11:52:05.190215	292.7	19.3	-92.5	6.1
2025-01-26 11:52:06.337590	292.5	19.2	-92.8	9.0
2025-01-26 11:52:07.484789	292.3	19.1	-92.6	2.1
2025-01-26 11:52:08.632117	292.1	19.0	-92.4	5.2
2025-01-26 11:52:09.779027	291.9	18.9	-92.6	4.0
2025-01-26 11:52:10.923644	291.7	18.8	-92.9	4.7
2025-01-26 11:52:12.177841	291.5	18.7	-92.7	1.9
2025-01-26 11:52:13.326485	291.4	18.6	-92.6	5.8
2025-01-26 11:52:14.472443	291.2	18.5	-92.6	4.2
2025-01-26 11:52:15.618765	291.0	18.4	-92.6	5.5
2025-01-26 11:52:16.767907	290.8	18.3	-92.9	6.0
2025-01-26 11:52:17.911601	290.6	18.2	-92.9	6.7
2025-01-26 11:52:19.059750	290.4	18.1	-92.5	7.3
2025-01-26 11:52:20.205631	290.3	18.0	-92.8	9.8
2025-01-26 11:52:21.357036	290.1	17.9	-91.3	7.9
2025-01-26 11:52:22.503588	289.9	17.8	-92.1	9.0
2025-01-26 11:52:23.651698	289.7	17.7	-92.1	9.7
2025-01-26 11:52:24.798565	289.5	17.6	-92.3	5.0
2025-01-26 11:52:25.948498	289.4	17.5	-92.3	9.1
2025-01-26 11:52:27.101030	289.2	17.4	-92.6	8.2
2025-01-26 11:52:28.247390	289.0	17.3	-92.8	7.5
2025-01-26 11:52:29.397657	288.8	17.2	-92.8	6.2
2025-01-26 11:52:30.544823	288.7	17.1	-92.8	9.4
2025-01-26 11:52:31.693714	288.5	17.0	-92.6	3.7
2025-01-26 11:52:32.847189	288.3	16.9	-92.7	6.1
2025-01-26 11:52:33.991749	288.2	16.8	-92.6	9.7
2025-01-26 11:52:35.143730	288.0	16.7	-92.4	6.3
2025-01-26 11:52:36.289662	287.8	16.6	-92.5	7.5
2025-01-26 11:52:37.437069	287.7	16.5	-92.5	8.5
2025-01-26 11:52:38.587351	287.5	16.4	-92.5	9.4
2025-01-26 11:52:39.731023	287.4	16.3	-92.7	8.6
2025-01-26 11:52:40.880272	287.2	16.3	-92.6	7.7
2025-01-26 11:52:42.030178	287.0	16.2	-92.6	10.1
2025-01-26 11:52:43.178794	286.9	16.1	-92.8	7.4
2025-01-26 11:52:44.323332	286.7	16.0	-91.9	7.5
2025-01-26 11:52:45.474728	286.6	15.9	-92.6	7.7
2025-01-26 11:52:46.643523	286.4	15.8	-92.5	5.1
2025-01-26 11:52:47.789624	286.3	15.7	-92.8	4.3
2025-01-26 11:52:48.938238	286.1	15.6	-92.0	5.3
2025-01-26 11:52:50.084743	286.0	15.5	-92.2	5.4
2025-01-26 11:52:51.231081	285.8	15.4	-92.4	4.1
2025-01-26 11:52:52.377871	285.7	15.3	-91.6	3.1
2025-01-26 11:52:53.526138	285.5	15.2	-92.0	3.6
2025-01-26 11:52:54.674461	285.4	15.1	-89.9	3.1
2025-01-26 11:52:55.818764	285.2	15.0	-90.9	2.8
2025-01-26 11:52:56.968377	285.1	14.9	-92.0	5.0
2025-01-26 11:52:58.111561	284.9	14.8	-91.7	4.1
2025-01-26 11:52:59.250943	284.8	14.7	-91.9	4.2
2025-01-26 11:53:00.382872	284.6	14.6	-91.8	3.1
#Closed at: 2025-01-26 11:45:46.182666