passes_logs/2025/01/26/LEX_Murmansk/LEX_Murmansk__20250126_152812_NOAA_18_rec.log

#Pass ID: 20250126_152812_NOAA 18
#Satellite: NOAA 18
#Configuration: NOAA 18
#Start time: 2025-01-26 15:28:07.077586

#LorettStation: 1.0.0 05.05.2024
#Station: LEX_Murmansk
#Location: 33.156738 lon 68.926811 lat
#TLE: 1 28654U 05018A   25026.13466944  .00000433  00000+0  25315-3 0  9999
#TLE: 2 28654  98.8549 107.0777 0014815 148.4880 211.7182 14.13497478 14758

#Time	Az	El	Level	SNR
2025-01-26 15:28:19.294741	58.2	15.9	-91.8	5.9
2025-01-26 15:28:20.416635	58.0	16.0	-91.8	7.7
2025-01-26 15:28:21.578851	57.9	16.1	-91.8	7.9
2025-01-26 15:28:22.739140	57.7	16.2	-91.9	5.1
2025-01-26 15:28:23.896520	57.5	16.3	-92.2	6.5
2025-01-26 15:28:25.049391	57.3	16.4	-91.9	7.8
2025-01-26 15:28:26.213463	57.1	16.5	-92.2	5.7
2025-01-26 15:28:27.369113	56.9	16.5	-91.8	10.3
2025-01-26 15:28:28.531449	56.8	16.6	-91.9	13.0
2025-01-26 15:28:29.697875	56.6	16.7	-92.0	12.9
2025-01-26 15:28:30.858328	56.4	16.8	-92.0	10.9
2025-01-26 15:28:32.019006	56.2	16.9	-91.9	11.2
2025-01-26 15:28:33.181015	56.0	17.0	-92.1	8.9
2025-01-26 15:28:34.341774	55.8	17.1	-92.3	7.5
2025-01-26 15:28:35.503048	55.6	17.2	-91.9	10.9
2025-01-26 15:28:36.664524	55.4	17.3	-92.3	8.4
2025-01-26 15:28:37.842260	55.2	17.3	-91.9	9.3
2025-01-26 15:28:39.008343	55.0	17.4	-92.3	11.1
2025-01-26 15:28:40.171655	54.8	17.5	-92.5	9.6
2025-01-26 15:28:41.334787	54.6	17.6	-92.4	7.2
2025-01-26 15:28:42.499712	54.4	17.7	-92.3	8.8
2025-01-26 15:28:43.670873	54.2	17.8	-91.3	5.7
2025-01-26 15:28:44.833753	54.0	17.9	-91.0	4.5
2025-01-26 15:28:46.002908	53.8	18.0	-91.4	11.3
2025-01-26 15:28:47.159641	53.6	18.0	-90.7	7.0
2025-01-26 15:28:48.324157	53.4	18.1	-91.9	8.8
2025-01-26 15:28:49.485574	53.2	18.2	-91.9	13.4
2025-01-26 15:28:50.650661	53.0	18.3	-92.0	14.3
2025-01-26 15:28:51.823395	52.8	18.4	-92.2	12.2
2025-01-26 15:28:52.987917	52.6	18.5	-92.4	12.3
2025-01-26 15:28:54.148093	52.3	18.6	-92.0	8.6
2025-01-26 15:28:55.299682	52.1	18.7	-92.2	8.8
2025-01-26 15:28:56.464796	51.9	18.8	-92.0	11.6
2025-01-26 15:28:57.629621	51.7	18.8	-92.2	10.2
2025-01-26 15:28:58.809054	51.5	18.9	-92.5	12.0
2025-01-26 15:28:59.983888	51.3	19.0	-92.1	9.0
2025-01-26 15:29:01.139985	51.0	19.1	-92.2	12.1
2025-01-26 15:29:02.304347	50.8	19.2	-91.7	9.6
2025-01-26 15:29:03.465681	50.6	19.3	-91.7	8.5
2025-01-26 15:29:04.628840	50.4	19.4	-91.7	7.0
2025-01-26 15:29:05.796396	50.1	19.4	-92.6	7.9
2025-01-26 15:29:06.958270	49.9	19.5	-92.4	10.2
2025-01-26 15:29:08.118254	49.7	19.6	-92.5	7.1
2025-01-26 15:29:09.284980	49.5	19.7	-92.5	5.1
2025-01-26 15:29:10.442305	49.2	19.8	-92.2	9.0
2025-01-26 15:29:11.609111	49.0	19.9	-92.5	10.0
2025-01-26 15:29:12.767815	48.8	20.0	-92.2	10.1
2025-01-26 15:29:13.933688	48.5	20.0	-92.3	10.5
2025-01-26 15:29:15.097925	48.3	20.1	-92.4	10.4
2025-01-26 15:29:16.257736	48.1	20.2	-92.2	11.8
2025-01-26 15:29:17.413622	47.8	20.3	-91.9	12.8
2025-01-26 15:29:18.589786	47.6	20.4	-92.2	14.1
2025-01-26 15:29:19.772908	47.3	20.5	-92.2	9.0
2025-01-26 15:29:20.938104	47.1	20.6	-92.3	10.6
2025-01-26 15:29:22.100780	46.8	20.6	-92.7	11.0
2025-01-26 15:29:23.262058	46.6	20.7	-92.5	9.5
2025-01-26 15:29:24.418202	46.4	20.8	-91.9	9.3
2025-01-26 15:29:25.574983	46.1	20.9	-92.5	9.1
2025-01-26 15:29:26.731243	45.9	21.0	-92.5	10.3
2025-01-26 15:29:27.889475	45.6	21.0	-92.3	9.8
2025-01-26 15:29:29.056295	45.4	21.1	-92.0	11.9
2025-01-26 15:29:30.221850	45.1	21.2	-92.3	6.3
2025-01-26 15:29:31.385443	44.9	21.3	-92.1	11.0
2025-01-26 15:29:32.547145	44.6	21.4	-91.9	12.7
2025-01-26 15:29:33.709022	44.3	21.4	-92.4	7.1
2025-01-26 15:29:34.877475	44.1	21.5	-92.3	11.3
2025-01-26 15:29:36.040133	43.8	21.6	-92.2	12.9
2025-01-26 15:29:37.204935	43.6	21.7	-92.8	11.6
2025-01-26 15:29:38.361780	43.3	21.8	-91.8	12.4
2025-01-26 15:29:39.526001	43.0	21.8	-91.8	13.6
2025-01-26 15:29:40.695167	42.8	21.9	-92.3	14.2
2025-01-26 15:29:41.859342	42.5	22.0	-92.4	12.4
2025-01-26 15:29:43.028078	42.2	22.1	-92.3	13.8
2025-01-26 15:29:44.189661	42.0	22.1	-92.2	10.3
2025-01-26 15:29:45.349762	41.7	22.2	-92.0	9.3
2025-01-26 15:29:46.509056	41.4	22.3	-91.8	14.0
2025-01-26 15:29:47.667787	41.1	22.4	-92.2	10.0
2025-01-26 15:29:48.829846	40.9	22.4	-92.4	13.0
2025-01-26 15:29:49.993071	40.6	22.5	-92.3	14.6
2025-01-26 15:29:51.156051	40.3	22.6	-92.1	13.1
2025-01-26 15:29:52.321490	40.0	22.7	-92.3	10.3
2025-01-26 15:29:53.488905	39.8	22.7	-92.0	11.4
2025-01-26 15:29:54.649670	39.5	22.8	-92.4	10.1
2025-01-26 15:29:55.817874	39.2	22.9	-92.2	7.4
2025-01-26 15:29:56.974717	38.9	23.0	-92.4	12.1
2025-01-26 15:29:58.142863	38.6	23.0	-92.2	5.4
2025-01-26 15:29:59.308802	38.3	23.1	-92.2	5.9
2025-01-26 15:30:00.465417	38.1	23.2	-92.2	11.8
2025-01-26 15:30:01.626253	37.8	23.2	-92.0	8.1
2025-01-26 15:30:02.790339	37.5	23.3	-92.0	8.9
2025-01-26 15:30:03.957902	37.2	23.4	-92.2	10.9
2025-01-26 15:30:05.117790	36.9	23.4	-92.4	10.8
2025-01-26 15:30:06.286594	36.6	23.5	-92.1	11.6
2025-01-26 15:30:07.447992	36.3	23.6	-92.1	13.1
2025-01-26 15:30:08.611672	36.0	23.6	-91.9	12.1
2025-01-26 15:30:09.778500	35.7	23.7	-92.5	11.0
2025-01-26 15:30:10.943627	35.4	23.8	-92.5	13.2
2025-01-26 15:30:12.113348	35.1	23.8	-92.6	10.6
2025-01-26 15:30:13.275184	34.8	23.9	-92.5	8.6
2025-01-26 15:30:14.441107	34.5	23.9	-92.1	12.5
2025-01-26 15:30:15.605843	34.2	24.0	-91.8	10.6
2025-01-26 15:30:16.766707	33.9	24.1	-92.2	10.7
2025-01-26 15:30:17.927298	33.6	24.1	-92.2	13.5
2025-01-26 15:30:19.091400	33.3	24.2	-92.3	13.3
2025-01-26 15:30:20.257322	33.0	24.2	-92.1	10.6
2025-01-26 15:30:21.421362	32.7	24.3	-92.2	10.0
2025-01-26 15:30:22.587851	32.4	24.3	-92.0	13.0
2025-01-26 15:30:23.748652	32.0	24.4	-92.6	14.0
2025-01-26 15:30:24.914436	31.7	24.4	-92.2	13.3
2025-01-26 15:30:26.078956	31.4	24.5	-92.2	14.7
2025-01-26 15:30:27.247681	31.1	24.6	-92.6	12.5
2025-01-26 15:30:28.411129	30.8	24.6	-92.5	15.1
2025-01-26 15:30:29.577561	30.5	24.7	-92.5	13.7
2025-01-26 15:30:30.744007	30.1	24.7	-92.6	7.8
2025-01-26 15:30:31.908992	29.8	24.8	-92.3	12.1
2025-01-26 15:30:33.076420	29.5	24.8	-92.3	13.6
2025-01-26 15:30:34.240739	29.2	24.9	-92.5	7.5
2025-01-26 15:30:35.397987	28.9	24.9	-92.3	12.0
2025-01-26 15:30:36.562028	28.5	24.9	-92.4	14.3
2025-01-26 15:30:37.723265	28.2	25.0	-92.8	9.7
2025-01-26 15:30:38.852974	27.9	25.0	-92.9	11.4
2025-01-26 15:30:39.973685	27.6	25.1	-92.6	14.8
2025-01-26 15:30:41.119176	27.3	25.1	-91.1	14.1
2025-01-26 15:30:42.273787	26.9	25.1	-90.7	11.6
2025-01-26 15:30:43.441619	26.6	25.2	-90.4	13.2
2025-01-26 15:30:44.599057	26.3	25.2	-90.9	12.5
2025-01-26 15:30:45.767192	26.0	25.3	-91.4	14.4
2025-01-26 15:30:46.931548	25.6	25.3	-91.2	15.0
2025-01-26 15:30:48.089167	25.3	25.3	-92.7	13.2
2025-01-26 15:30:49.251441	25.0	25.4	-92.4	12.2
2025-01-26 15:30:50.401064	24.6	25.4	-92.3	14.1
2025-01-26 15:30:51.523028	24.3	25.4	-92.3	13.6
2025-01-26 15:30:52.644721	24.0	25.5	-92.5	9.6
2025-01-26 15:30:53.764666	23.7	25.5	-92.4	8.5
2025-01-26 15:30:54.885817	23.3	25.5	-92.6	9.9
2025-01-26 15:30:56.008196	23.0	25.6	-92.5	12.7
2025-01-26 15:30:57.129403	22.7	25.6	-92.5	10.1
2025-01-26 15:30:58.250499	22.4	25.6	-92.4	10.6
2025-01-26 15:30:59.371030	22.1	25.6	-92.3	14.7
2025-01-26 15:31:00.495501	21.7	25.7	-92.3	17.4
2025-01-26 15:31:01.643542	21.4	25.7	-92.2	13.4
2025-01-26 15:31:02.811306	21.1	25.7	-92.6	13.8
2025-01-26 15:31:03.968020	20.7	25.7	-92.6	14.8
2025-01-26 15:31:05.129931	20.4	25.7	-92.5	13.3
2025-01-26 15:31:06.277255	20.0	25.8	-92.2	13.9
2025-01-26 15:31:07.442485	19.7	25.8	-92.1	11.3
2025-01-26 15:31:08.603438	19.4	25.8	-90.9	11.1
2025-01-26 15:31:09.765483	19.0	25.8	-90.9	11.5
2025-01-26 15:31:10.928192	18.7	25.8	-90.9	12.2
2025-01-26 15:31:12.085606	18.3	25.8	-91.1	11.1
2025-01-26 15:31:13.244985	18.0	25.8	-91.3	11.1
2025-01-26 15:31:14.410688	17.6	25.9	-90.7	13.6
2025-01-26 15:31:15.571258	17.3	25.9	-92.0	14.2
2025-01-26 15:31:16.739195	17.0	25.9	-91.9	6.9
2025-01-26 15:31:17.896349	16.6	25.9	-92.3	10.5
2025-01-26 15:31:19.053386	16.3	25.9	-92.4	12.8
2025-01-26 15:31:20.217469	15.9	25.9	-92.1	7.5
2025-01-26 15:31:21.380867	15.6	25.9	-92.0	9.3
2025-01-26 15:31:22.551046	15.2	25.9	-92.1	12.3
2025-01-26 15:31:23.715068	14.9	25.9	-92.3	5.9
2025-01-26 15:31:24.882720	14.6	25.9	-92.1	10.3
2025-01-26 15:31:26.034380	14.2	25.9	-92.6	12.8
2025-01-26 15:31:27.207531	13.9	25.9	-92.3	7.1
2025-01-26 15:31:28.368400	13.5	25.9	-92.0	11.0
2025-01-26 15:31:29.536332	13.2	25.9	-91.2	12.6
2025-01-26 15:31:30.711720	12.8	25.9	-91.2	9.0
2025-01-26 15:31:31.875890	12.5	25.9	-91.1	10.8
2025-01-26 15:31:33.040618	12.1	25.9	-91.1	10.6
2025-01-26 15:31:34.197803	11.8	25.9	-91.2	8.9
2025-01-26 15:31:35.368504	11.5	25.9	-92.1	9.6
2025-01-26 15:31:36.526737	11.1	25.9	-92.2	12.7
2025-01-26 15:31:37.684057	10.8	25.8	-91.9	12.6
2025-01-26 15:31:38.842910	10.4	25.8	-91.6	11.7
2025-01-26 15:31:40.001221	10.1	25.8	-91.8	14.1
2025-01-26 15:31:41.165846	9.8	25.8	-92.3	14.1
2025-01-26 15:31:42.334387	9.4	25.8	-92.3	12.0
2025-01-26 15:31:43.504226	9.1	25.8	-91.0	8.9
2025-01-26 15:31:44.669697	8.7	25.7	-91.2	10.9
2025-01-26 15:31:45.836745	8.4	25.7	-90.2	10.1
2025-01-26 15:31:46.999712	8.0	25.7	-91.2	10.5
2025-01-26 15:31:48.163829	7.7	25.7	-91.1	10.8
2025-01-26 15:31:49.327652	7.4	25.7	-92.4	13.7
2025-01-26 15:31:50.484381	7.0	25.6	-91.9	12.2
2025-01-26 15:31:51.652038	6.7	25.6	-92.3	10.2
2025-01-26 15:31:52.818157	6.4	25.6	-92.3	10.9
2025-01-26 15:31:53.987900	6.0	25.6	-92.2	9.3
2025-01-26 15:31:55.153518	5.7	25.5	-92.2	9.3
2025-01-26 15:31:56.317455	5.3	25.5	-92.2	8.5
2025-01-26 15:31:57.479899	5.0	25.5	-91.8	12.0
2025-01-26 15:31:58.638913	4.7	25.4	-92.2	12.6
2025-01-26 15:31:59.803725	4.3	25.4	-92.9	11.9
2025-01-26 15:32:00.959491	4.0	25.4	-92.7	10.4
2025-01-26 15:32:02.125832	3.7	25.3	-92.5	12.3
2025-01-26 15:32:03.289194	3.3	25.3	-92.3	9.4
2025-01-26 15:32:04.456810	3.0	25.3	-92.0	10.2
2025-01-26 15:32:05.624507	2.7	25.2	-92.0	9.6
2025-01-26 15:32:06.791195	2.4	25.2	-92.4	11.3
2025-01-26 15:32:07.953115	2.0	25.2	-92.4	14.2
2025-01-26 15:32:09.117420	1.7	25.1	-92.2	12.2
2025-01-26 15:32:10.282960	1.4	25.1	-92.3	13.0
2025-01-26 15:32:11.442050	1.0	25.0	-92.0	16.3
2025-01-26 15:32:12.605470	0.7	25.0	-92.0	13.1
2025-01-26 15:32:13.765926	0.4	24.9	-92.4	11.7
2025-01-26 15:32:14.932990	0.1	24.9	-91.9	14.5
2025-01-26 15:32:16.095609	359.7	24.9	-92.5	12.2
2025-01-26 15:32:17.266626	359.4	24.8	-92.8	11.3
2025-01-26 15:32:18.423070	359.1	24.8	-91.8	13.9
2025-01-26 15:32:19.582477	358.8	24.7	-91.9	13.3
2025-01-26 15:32:20.746016	358.5	24.7	-92.3	11.3
2025-01-26 15:32:21.910170	358.2	24.6	-92.6	16.0
2025-01-26 15:32:23.076078	357.8	24.6	-92.5	15.9
2025-01-26 15:32:24.239000	357.5	24.5	-92.5	12.2
2025-01-26 15:32:25.408422	357.2	24.5	-92.1	16.6
2025-01-26 15:32:26.572172	356.9	24.4	-91.9	16.6
2025-01-26 15:32:27.731704	356.6	24.4	-92.6	14.1
2025-01-26 15:32:28.894022	356.3	24.3	-92.4	14.1
2025-01-26 15:32:30.054461	356.0	24.2	-92.6	14.0
2025-01-26 15:32:31.220356	355.6	24.2	-92.7	12.3
2025-01-26 15:32:32.377714	355.3	24.1	-92.3	11.7
2025-01-26 15:32:33.535367	355.0	24.1	-92.4	13.3
2025-01-26 15:32:34.697874	354.7	24.0	-92.6	12.4
2025-01-26 15:32:35.861367	354.4	23.9	-92.5	14.1
2025-01-26 15:32:37.023423	354.1	23.9	-92.4	16.8
2025-01-26 15:32:38.188367	353.8	23.8	-92.2	14.2
2025-01-26 15:32:39.355157	353.5	23.8	-91.8	14.2
2025-01-26 15:32:40.516360	353.2	23.7	-91.9	15.7
2025-01-26 15:32:41.682686	352.9	23.6	-92.0	12.7
2025-01-26 15:32:42.841440	352.6	23.6	-92.4	14.6
2025-01-26 15:32:44.008924	352.3	23.5	-92.6	14.7
2025-01-26 15:32:45.169963	352.0	23.4	-92.5	14.5
2025-01-26 15:32:46.338027	351.7	23.4	-92.2	11.6
2025-01-26 15:32:47.502702	351.4	23.3	-92.2	14.1
2025-01-26 15:32:48.661137	351.2	23.2	-92.0	11.6
2025-01-26 15:32:49.827584	350.9	23.2	-92.2	12.9
2025-01-26 15:32:50.989915	350.6	23.1	-92.2	14.2
2025-01-26 15:32:52.156407	350.3	23.0	-92.6	13.7
2025-01-26 15:32:53.308263	350.0	23.0	-92.1	15.1
2025-01-26 15:32:54.472925	349.7	22.9	-92.2	13.1
2025-01-26 15:32:55.638792	349.4	22.8	-92.5	15.4
2025-01-26 15:32:56.798612	349.2	22.8	-92.3	12.6
2025-01-26 15:32:57.961461	348.9	22.7	-92.4	12.1
2025-01-26 15:32:59.118417	348.6	22.6	-92.6	13.1
2025-01-26 15:33:00.276438	348.3	22.5	-92.4	12.8
2025-01-26 15:33:01.441382	348.0	22.5	-92.2	12.0
2025-01-26 15:33:02.604172	347.8	22.4	-92.2	11.6
2025-01-26 15:33:03.762298	347.5	22.3	-92.5	10.9
2025-01-26 15:33:04.906502	347.2	22.2	-92.8	12.5
2025-01-26 15:33:06.026915	347.0	22.2	-92.3	9.8
2025-01-26 15:33:07.147006	346.7	22.1	-92.5	9.7
2025-01-26 15:33:08.268142	346.4	22.0	-92.3	10.2
2025-01-26 15:33:09.386957	346.2	21.9	-91.7	9.0
2025-01-26 15:33:10.507948	345.9	21.9	-92.2	11.1
2025-01-26 15:33:11.627884	345.7	21.8	-92.3	9.0
2025-01-26 15:33:12.748963	345.4	21.7	-92.3	9.9
2025-01-26 15:33:13.874193	345.2	21.6	-92.1	9.8
2025-01-26 15:33:14.996458	344.9	21.6	-92.7	9.9
2025-01-26 15:33:16.144844	344.7	21.5	-92.1	9.1
2025-01-26 15:33:17.310585	344.4	21.4	-92.4	8.5
2025-01-26 15:33:18.465238	344.1	21.3	-91.9	10.5
2025-01-26 15:33:19.628090	343.9	21.2	-92.1	8.2
2025-01-26 15:33:20.786058	343.6	21.2	-92.4	7.0
2025-01-26 15:33:21.947033	343.4	21.1	-91.2	10.5
2025-01-26 15:33:23.107906	343.1	21.0	-91.1	10.7
2025-01-26 15:33:24.268473	342.9	20.9	-90.8	8.1
2025-01-26 15:33:25.432843	342.6	20.8	-90.7	10.2
2025-01-26 15:33:26.612483	342.4	20.8	-90.7	7.5
2025-01-26 15:33:27.779275	342.1	20.7	-91.0	6.3
2025-01-26 15:33:28.931335	341.9	20.6	-91.0	6.3
2025-01-26 15:33:30.101768	341.6	20.5	-91.4	7.6
2025-01-26 15:33:31.267877	341.4	20.4	-92.6	7.1
2025-01-26 15:33:32.435978	341.2	20.3	-92.2	8.2
2025-01-26 15:33:33.601447	340.9	20.3	-92.1	6.1
2025-01-26 15:33:34.762411	340.7	20.2	-92.6	6.9
2025-01-26 15:33:35.921432	340.4	20.1	-92.4	7.5
2025-01-26 15:33:37.085901	340.2	20.0	-92.6	5.2
2025-01-26 15:33:38.260651	340.0	19.9	-92.2	6.6
2025-01-26 15:33:39.422275	339.7	19.8	-92.2	6.0
2025-01-26 15:33:40.580632	339.5	19.7	-89.0	5.9
2025-01-26 15:33:41.740118	339.3	19.7	-89.5	5.4
2025-01-26 15:33:42.907408	339.0	19.6	-88.5	4.2
2025-01-26 15:33:44.070203	338.8	19.5	-88.3	6.0
2025-01-26 15:33:45.229081	338.6	19.4	-87.8	5.3
2025-01-26 15:33:46.392138	338.4	19.3	-87.6	6.2
2025-01-26 15:33:47.556377	338.1	19.2	-87.2	4.4
2025-01-26 15:33:48.720096	337.9	19.1	-87.6	4.4
2025-01-26 15:33:49.870722	337.7	19.1	-89.0	5.1
2025-01-26 15:33:51.028621	337.5	19.0	-88.5	5.5
2025-01-26 15:33:52.192170	337.3	18.9	-88.0	6.0
2025-01-26 15:33:53.355247	337.0	18.8	-88.2	5.2
2025-01-26 15:33:54.520847	336.8	18.7	-88.9	3.6
2025-01-26 15:33:55.685744	336.6	18.6	-89.2	5.7
2025-01-26 15:33:56.850621	336.4	18.5	-89.2	4.5
2025-01-26 15:33:58.014569	336.2	18.4	-88.8	5.0
2025-01-26 15:33:59.170879	336.0	18.3	-88.8	5.4
2025-01-26 15:34:00.329576	335.8	18.3	-88.9	5.8
2025-01-26 15:34:01.493586	335.6	18.2	-88.7	5.5
2025-01-26 15:34:02.649965	335.3	18.1	-88.8	5.5
2025-01-26 15:34:03.812048	335.1	18.0	-88.2	6.9
2025-01-26 15:34:04.970750	334.9	17.9	-88.0	4.1
2025-01-26 15:34:06.130935	334.7	17.8	-87.8	6.6
2025-01-26 15:34:07.295903	334.5	17.7	-87.9	5.4
2025-01-26 15:34:08.459227	334.3	17.6	-88.0	6.4
2025-01-26 15:34:09.624207	334.1	17.6	-88.3	5.3
2025-01-26 15:34:10.784308	333.9	17.5	-88.4	5.9
2025-01-26 15:34:11.948449	333.7	17.4	-87.2	5.9
2025-01-26 15:34:13.123976	333.5	17.3	-87.3	6.4
2025-01-26 15:34:14.280565	333.3	17.2	-87.3	4.9
2025-01-26 15:34:15.442688	333.1	17.1	-87.4	6.7
2025-01-26 15:34:16.607330	332.9	17.0	-88.1	6.3
2025-01-26 15:34:17.767303	332.7	16.9	-88.6	5.5
2025-01-26 15:34:18.928594	332.6	16.8	-88.6	6.6
2025-01-26 15:34:20.093083	332.4	16.8	-88.8	6.6
2025-01-26 15:34:21.254518	332.2	16.7	-88.8	6.2
2025-01-26 15:34:22.420486	332.0	16.6	-89.2	8.0
2025-01-26 15:34:23.582004	331.8	16.5	-89.3	5.3
2025-01-26 15:34:24.746564	331.6	16.4	-89.1	7.2
2025-01-26 15:34:25.907636	331.4	16.3	-88.8	5.8
2025-01-26 15:34:27.071340	331.2	16.2	-89.4	4.9
2025-01-26 15:34:28.230103	331.1	16.1	-89.5	6.5
2025-01-26 15:34:29.385140	330.9	16.0	-88.8	6.9
2025-01-26 15:34:30.545460	330.7	16.0	-89.1	3.2
2025-01-26 15:34:31.711073	330.5	15.9	-89.4	6.5
2025-01-26 15:34:32.868741	330.3	15.8	-89.4	6.3
2025-01-26 15:34:34.033382	330.2	15.7	-88.7	7.3
2025-01-26 15:34:35.189667	330.0	15.6	-88.4	5.9
2025-01-26 15:34:36.352510	329.8	15.5	-88.6	6.6
2025-01-26 15:34:37.521910	329.6	15.4	-88.8	6.8
2025-01-26 15:34:38.679815	329.5	15.3	-88.3	6.5
2025-01-26 15:34:39.843110	329.3	15.2	-88.9	6.6
2025-01-26 15:34:41.004819	329.1	15.2	-88.7	6.7
2025-01-26 15:34:42.164912	329.0	15.1	-89.0	8.4
2025-01-26 15:34:43.325759	328.8	15.0	-89.1	4.5
2025-01-26 15:34:44.482587	328.6	14.9	-88.6	5.9
2025-01-26 15:34:45.646200	328.5	14.8	-88.1	5.2
2025-01-26 15:34:46.812047	328.3	14.7	-87.9	6.9
2025-01-26 15:34:48.037967	328.1	14.6	-88.0	6.7
#Closed at: 2025-01-26 15:28:12.130519