passes_logs/2025/01/26/LEX_Murmansk/LEX_Murmansk__20250126_164350_NOAA_19_rec.log

#Pass ID: 20250126_164350_NOAA 19
#Satellite: NOAA 19
#Configuration: NOAA 19
#Start time: 2025-01-26 16:43:45.060201

#LorettStation: 1.0.0 05.05.2024
#Station: LEX_Murmansk
#Location: 33.156738 lon 68.926811 lat
#TLE: 1 33591U 09005A   25026.11929750  .00000374  00000+0  22339-3 0  9999
#TLE: 2 33591  99.0177  89.9666 0014047  27.3849 332.8061 14.13269171823112

#Time	Az	El	Level	SNR
2025-01-26 16:43:57.194510	122.0	16.3	-89.9	2.8
2025-01-26 16:43:59.520074	121.8	16.5	-90.1	6.6
2025-01-26 16:44:01.838419	121.7	16.8	-90.3	6.9
2025-01-26 16:44:04.166711	121.5	17.0	-89.9	5.8
2025-01-26 16:44:06.485690	121.4	17.3	-90.2	9.7
2025-01-26 16:44:08.809593	121.2	17.6	-90.1	6.3
2025-01-26 16:44:11.140639	121.1	17.8	-90.2	4.5
2025-01-26 16:44:13.469639	120.9	18.1	-90.2	5.9
2025-01-26 16:44:15.799325	120.8	18.4	-90.4	10.9
2025-01-26 16:44:18.119838	120.6	18.6	-89.6	8.8
2025-01-26 16:44:20.437314	120.4	18.9	-90.4	6.8
2025-01-26 16:44:22.763507	120.3	19.2	-90.5	9.4
2025-01-26 16:44:25.087179	120.1	19.5	-90.4	5.9
2025-01-26 16:44:27.416346	119.9	19.7	-90.7	3.3
2025-01-26 16:44:29.742563	119.7	20.0	-90.0	6.0
2025-01-26 16:44:32.071660	119.6	20.3	-90.3	8.6
2025-01-26 16:44:34.395897	119.4	20.6	-89.4	8.6
2025-01-26 16:44:36.713195	119.2	20.9	-89.6	5.9
2025-01-26 16:44:39.041506	119.0	21.2	-89.8	11.7
2025-01-26 16:44:41.365156	118.8	21.5	-90.1	7.1
2025-01-26 16:44:43.690078	118.6	21.8	-90.3	3.5
2025-01-26 16:44:46.003539	118.4	22.1	-90.1	3.7
2025-01-26 16:44:48.332944	118.2	22.4	-90.1	10.6
2025-01-26 16:44:50.652348	118.0	22.7	-89.9	10.6
2025-01-26 16:44:52.986666	117.8	23.1	-90.3	7.3
2025-01-26 16:44:55.313163	117.5	23.4	-89.7	7.3
2025-01-26 16:44:57.627526	117.3	23.7	-89.5	6.2
2025-01-26 16:44:59.953016	117.1	24.0	-90.0	4.1
2025-01-26 16:45:02.262090	116.8	24.4	-90.4	3.8
2025-01-26 16:45:04.594656	116.6	24.7	-90.0	4.8
2025-01-26 16:45:06.919059	116.4	25.0	-90.4	7.4
2025-01-26 16:45:09.245420	116.1	25.4	-90.3	3.3
2025-01-26 16:45:11.567302	115.8	25.7	-90.5	3.8
2025-01-26 16:45:13.889949	115.6	26.1	-90.7	6.0
2025-01-26 16:45:16.212230	115.3	26.4	-90.6	3.9
2025-01-26 16:45:18.546035	115.0	26.8	-90.7	3.2
2025-01-26 16:45:20.878426	114.7	27.2	-90.3	2.7
2025-01-26 16:45:23.203622	114.5	27.5	-90.2	3.2
2025-01-26 16:45:25.531604	114.2	27.9	-90.1	5.3
2025-01-26 16:45:27.845833	113.9	28.3	-90.2	3.1
2025-01-26 16:45:30.168639	113.5	28.6	-89.4	6.9
2025-01-26 16:45:32.493402	113.2	29.0	-89.4	4.4
2025-01-26 16:45:34.816437	112.9	29.4	-89.1	3.0
2025-01-26 16:45:37.138867	112.6	29.8	-88.9	2.3
2025-01-26 16:45:39.463514	112.2	30.2	-90.0	1.1
2025-01-26 16:45:41.793193	111.9	30.6	-90.5	7.0
2025-01-26 16:45:44.119304	111.5	31.0	-90.3	9.5
2025-01-26 16:45:46.449188	111.1	31.4	-90.5	7.6
2025-01-26 16:45:48.778525	110.8	31.8	-90.7	11.4
2025-01-26 16:45:51.095179	110.4	32.2	-89.9	11.8
2025-01-26 16:45:53.417375	110.0	32.7	-90.4	5.3
2025-01-26 16:45:55.742854	109.6	33.1	-90.2	2.1
2025-01-26 16:45:58.057228	109.2	33.5	-90.1	9.1
2025-01-26 16:46:00.392793	108.7	34.0	-89.7	13.5
2025-01-26 16:46:02.728239	108.3	34.4	-89.8	11.0
2025-01-26 16:46:05.052196	107.8	34.8	-89.8	11.3
2025-01-26 16:46:07.379159	107.3	35.3	-90.3	13.2
2025-01-26 16:46:09.707176	106.9	35.7	-90.7	16.2
2025-01-26 16:46:12.050418	106.4	36.2	-90.2	8.0
2025-01-26 16:46:14.368849	105.9	36.6	-90.2	4.8
2025-01-26 16:46:16.694430	105.3	37.1	-90.4	5.1
2025-01-26 16:46:19.021999	104.8	37.6	-90.4	6.8
2025-01-26 16:46:21.319186	104.2	38.0	-90.7	9.7
2025-01-26 16:46:23.559668	103.7	38.5	-90.7	10.3
2025-01-26 16:46:25.800955	103.1	38.9	-90.7	6.9
2025-01-26 16:46:28.042131	102.5	39.4	-90.5	10.5
2025-01-26 16:46:30.285646	101.9	39.9	-90.6	11.3
2025-01-26 16:46:32.587079	101.3	40.3	-90.4	5.7
2025-01-26 16:46:34.910771	100.6	40.8	-90.2	2.9
2025-01-26 16:46:37.223320	100.0	41.3	-90.5	1.1
2025-01-26 16:46:39.549115	99.3	41.8	-89.8	3.3
2025-01-26 16:46:41.874009	98.5	42.3	-89.6	8.6
2025-01-26 16:46:44.202133	97.8	42.8	-90.9	11.1
2025-01-26 16:46:46.517898	97.0	43.3	-90.5	8.1
2025-01-26 16:46:48.815499	96.2	43.8	-89.7	4.9
2025-01-26 16:46:51.104376	95.4	44.2	-89.6	13.2
2025-01-26 16:46:53.400835	94.6	44.7	-89.3	14.3
2025-01-26 16:46:55.711799	93.7	45.2	-90.7	10.3
2025-01-26 16:46:58.033761	92.8	45.7	-90.9	6.8
2025-01-26 16:47:00.341615	91.9	46.2	-90.8	3.7
2025-01-26 16:47:02.655140	91.0	46.7	-90.5	5.3
2025-01-26 16:47:04.985808	90.0	47.1	-90.6	8.6
2025-01-26 16:47:07.305982	89.0	47.6	-90.4	13.1
2025-01-26 16:47:09.631468	87.9	48.1	-90.5	11.2
2025-01-26 16:47:11.966516	86.8	48.6	-90.4	9.9
2025-01-26 16:47:14.296848	85.7	49.0	-90.4	4.3
2025-01-26 16:47:16.626561	84.6	49.5	-90.6	5.2
2025-01-26 16:47:18.951689	83.4	49.9	-90.5	5.4
2025-01-26 16:47:21.278931	82.2	50.3	-90.3	8.3
2025-01-26 16:47:23.600571	80.9	50.8	-90.3	7.9
2025-01-26 16:47:25.922964	79.7	51.2	-90.6	6.8
2025-01-26 16:47:28.257079	78.3	51.6	-90.6	6.0
2025-01-26 16:47:30.583797	77.0	52.0	-90.4	4.4
2025-01-26 16:47:32.914993	75.6	52.3	-90.9	3.3
2025-01-26 16:47:35.243188	74.2	52.7	-90.5	5.8
2025-01-26 16:47:37.553090	72.7	53.0	-90.8	9.1
2025-01-26 16:47:39.879134	71.2	53.4	-90.9	10.2
2025-01-26 16:47:42.207919	69.7	53.7	-90.6	13.1
2025-01-26 16:47:44.537088	68.1	53.9	-90.5	13.1
2025-01-26 16:47:46.853408	66.6	54.2	-90.4	8.4
2025-01-26 16:47:49.178884	65.0	54.5	-90.1	7.4
2025-01-26 16:47:51.503311	63.3	54.7	-90.4	7.9
2025-01-26 16:47:53.826679	61.7	54.9	-91.0	7.1
2025-01-26 16:47:56.159356	60.0	55.0	-89.8	8.8
2025-01-26 16:47:58.486908	58.3	55.2	-89.5	13.3
2025-01-26 16:48:00.805088	56.5	55.3	-90.7	12.6
2025-01-26 16:48:03.129428	54.8	55.4	-90.4	11.0
2025-01-26 16:48:05.460743	53.1	55.5	-90.7	11.9
2025-01-26 16:48:07.779327	51.3	55.5	-90.5	10.5
2025-01-26 16:48:10.109462	49.5	55.6	-90.3	9.5
2025-01-26 16:48:12.434002	47.8	55.6	-90.3	7.2
2025-01-26 16:48:14.761084	46.0	55.5	-90.8	4.6
2025-01-26 16:48:17.075122	44.3	55.5	-90.3	5.5
2025-01-26 16:48:19.406626	42.5	55.4	-90.6	4.0
2025-01-26 16:48:21.733837	40.8	55.3	-90.8	5.1
2025-01-26 16:48:24.060623	39.1	55.1	-90.5	5.2
2025-01-26 16:48:26.379297	37.4	55.0	-90.3	2.5
2025-01-26 16:48:28.693520	35.7	54.8	-90.8	3.6
2025-01-26 16:48:31.012775	34.1	54.6	-89.4	4.9
2025-01-26 16:48:33.341494	32.5	54.4	-88.8	3.5
2025-01-26 16:48:35.669476	30.9	54.1	-89.0	6.0
2025-01-26 16:48:37.985111	29.3	53.8	-89.5	7.2
2025-01-26 16:48:40.312663	27.8	53.5	-89.6	6.1
2025-01-26 16:48:42.643550	26.3	53.2	-89.7	8.0
2025-01-26 16:48:44.967610	24.8	52.9	-90.2	7.3
2025-01-26 16:48:47.278814	23.4	52.5	-91.0	6.4
2025-01-26 16:48:49.611577	21.9	52.2	-90.2	6.9
2025-01-26 16:48:51.937524	20.6	51.8	-90.7	4.6
2025-01-26 16:48:54.262787	19.2	51.4	-90.5	5.0
2025-01-26 16:48:56.585661	17.9	51.0	-90.5	4.6
2025-01-26 16:48:58.908758	16.7	50.6	-90.7	4.3
2025-01-26 16:49:01.233499	15.4	50.2	-90.1	3.5
2025-01-26 16:49:03.559121	14.3	49.7	-89.6	5.1
2025-01-26 16:49:05.881753	13.1	49.3	-89.6	4.3
2025-01-26 16:49:08.199297	12.0	48.8	-88.8	2.6
2025-01-26 16:49:10.523180	10.9	48.4	-90.4	6.9
2025-01-26 16:49:12.848916	9.8	47.9	-90.6	4.6
2025-01-26 16:49:15.168629	8.8	47.5	-90.2	7.2
2025-01-26 16:49:17.486353	7.8	47.0	-90.2	10.7
2025-01-26 16:49:19.817970	6.8	46.5	-91.1	12.1
2025-01-26 16:49:22.150330	5.9	46.0	-90.7	14.4
2025-01-26 16:49:24.485945	5.0	45.5	-90.9	15.7
2025-01-26 16:49:26.809854	4.1	45.0	-89.8	15.8
2025-01-26 16:49:29.146770	3.2	44.6	-90.4	16.8
2025-01-26 16:49:31.472792	2.4	44.1	-90.1	15.8
2025-01-26 16:49:33.800677	1.6	43.6	-90.3	14.3
2025-01-26 16:49:36.128642	0.8	43.1	-90.2	15.1
2025-01-26 16:49:38.450682	0.0	42.6	-90.4	9.8
2025-01-26 16:49:40.780100	359.3	42.1	-90.7	7.4
2025-01-26 16:49:43.109330	358.6	41.6	-90.5	9.3
2025-01-26 16:49:45.452274	357.9	41.1	-90.5	7.0
2025-01-26 16:49:47.773676	357.2	40.7	-90.8	7.7
2025-01-26 16:49:50.105473	356.6	40.2	-90.0	11.1
2025-01-26 16:49:52.431775	356.0	39.7	-90.0	12.2
2025-01-26 16:49:54.758667	355.3	39.2	-90.1	13.9
2025-01-26 16:49:57.082379	354.7	38.7	-89.6	14.5
2025-01-26 16:49:59.413855	354.2	38.3	-89.9	14.3
2025-01-26 16:50:01.720622	353.6	37.8	-89.4	9.2
2025-01-26 16:50:04.042198	353.1	37.3	-90.5	7.8
2025-01-26 16:50:06.360521	352.5	36.9	-90.3	4.9
2025-01-26 16:50:08.681085	352.0	36.4	-90.8	4.2
2025-01-26 16:50:11.003858	351.5	36.0	-90.9	6.6
2025-01-26 16:50:13.333263	351.0	35.5	-90.7	6.9
2025-01-26 16:50:15.656318	350.6	35.1	-90.4	9.3
2025-01-26 16:50:17.979547	350.1	34.6	-91.0	12.0
2025-01-26 16:50:20.306151	349.7	34.2	-90.7	10.2
2025-01-26 16:50:22.626849	349.2	33.8	-90.9	7.8
2025-01-26 16:50:24.950926	348.8	33.3	-90.9	5.6
2025-01-26 16:50:27.269183	348.4	32.9	-90.5	2.2
2025-01-26 16:50:29.593757	348.0	32.5	-91.2	4.0
2025-01-26 16:50:31.915763	347.6	32.1	-91.0	5.2
2025-01-26 16:50:34.239636	347.2	31.7	-90.7	6.3
2025-01-26 16:50:36.564774	346.9	31.3	-90.8	8.9
2025-01-26 16:50:38.883177	346.5	30.9	-90.9	10.3
2025-01-26 16:50:41.207193	346.1	30.5	-90.4	6.1
2025-01-26 16:50:43.536608	345.8	30.1	-90.3	6.4
2025-01-26 16:50:45.850439	345.5	29.7	-90.2	3.8
2025-01-26 16:50:48.172026	345.1	29.3	-90.5	4.2
2025-01-26 16:50:50.500083	344.8	28.9	-91.1	5.0
2025-01-26 16:50:52.827014	344.5	28.5	-91.2	4.6
2025-01-26 16:50:55.145154	344.2	28.2	-90.7	3.6
2025-01-26 16:50:57.466445	343.9	27.8	-91.0	6.3
2025-01-26 16:50:59.788067	343.6	27.4	-90.8	3.9
2025-01-26 16:51:02.120382	343.3	27.1	-90.3	3.4
2025-01-26 16:51:04.448198	343.0	26.7	-91.0	1.7
2025-01-26 16:51:06.775191	342.8	26.4	-91.0	4.7
2025-01-26 16:51:09.098799	342.5	26.0	-90.8	5.5
2025-01-26 16:51:11.420832	342.2	25.7	-91.1	9.1
2025-01-26 16:51:13.750929	342.0	25.3	-90.7	6.0
2025-01-26 16:51:16.071690	341.7	25.0	-90.4	2.8
2025-01-26 16:51:18.397027	341.5	24.6	-90.8	4.0
2025-01-26 16:51:20.719586	341.3	24.3	-91.0	2.2
2025-01-26 16:51:23.055452	341.0	24.0	-90.9	5.9
2025-01-26 16:51:25.376948	340.8	23.7	-90.8	7.2
2025-01-26 16:51:27.695889	340.6	23.3	-90.8	6.6
2025-01-26 16:51:30.023688	340.4	23.0	-90.8	5.3
2025-01-26 16:51:32.353654	340.2	22.7	-90.7	3.7
2025-01-26 16:51:34.672058	339.9	22.4	-91.2	1.3
2025-01-26 16:51:36.994611	339.7	22.1	-90.8	6.5
2025-01-26 16:51:39.314255	339.5	21.8	-90.6	4.5
2025-01-26 16:51:41.640911	339.3	21.5	-90.4	8.9
2025-01-26 16:51:43.977959	339.1	21.2	-90.9	5.4
2025-01-26 16:51:46.296533	339.0	20.9	-90.4	3.1
2025-01-26 16:51:48.582730	338.8	20.6	-90.3	2.4
2025-01-26 16:51:50.825941	338.6	20.3	-90.8	3.3
2025-01-26 16:51:53.066179	338.4	20.0	-90.5	3.8
2025-01-26 16:51:55.306985	338.3	19.8	-90.8	2.6
2025-01-26 16:51:57.552405	338.1	19.5	-90.7	1.9
2025-01-26 16:51:59.837998	337.9	19.2	-90.9	2.4
2025-01-26 16:52:02.153065	337.8	19.0	-90.6	3.4
2025-01-26 16:52:04.466392	337.6	18.7	-91.0	3.1
2025-01-26 16:52:06.789484	337.4	18.4	-90.4	2.7
2025-01-26 16:52:09.100315	337.3	18.1	-90.1	5.1
2025-01-26 16:52:11.439469	337.1	17.9	-90.7	2.0
2025-01-26 16:52:13.771147	337.0	17.6	-91.1	2.4
2025-01-26 16:52:16.096521	336.8	17.4	-90.7	3.6
2025-01-26 16:52:18.412072	336.7	17.1	-90.8	3.6
2025-01-26 16:52:20.725821	336.6	16.9	-91.2	4.5
2025-01-26 16:52:23.009324	336.4	16.6	-90.8	5.7
2025-01-26 16:52:25.316386	336.3	16.4	-90.8	5.0
2025-01-26 16:52:27.609652	336.1	16.1	-91.1	2.9
2025-01-26 16:52:29.924866	336.0	15.9	-90.9	2.4
2025-01-26 16:52:32.246696	335.9	15.6	-91.0	2.8
2025-01-26 16:52:34.567221	335.8	15.4	-90.4	2.9
2025-01-26 16:52:36.889673	335.6	15.2	-91.2	1.0
2025-01-26 16:52:39.216885	335.5	14.9	-90.8	3.8
2025-01-26 16:52:41.538918	335.4	14.7	-90.7	2.8
2025-01-26 16:52:43.844680	335.3	14.5	-90.8	4.2
#Closed at: 2025-01-26 16:43:50.006282