passes_logs/2025/01/26/LEX_Murmansk/LEX_Murmansk__20250126_132541_NOAA_19_rec.log

#Pass ID: 20250126_132541_NOAA 19
#Satellite: NOAA 19
#Configuration: NOAA 19
#Start time: 2025-01-26 13:25:36.593644

#LorettStation: 1.0.0 05.05.2024
#Station: LEX_Murmansk
#Location: 33.156738 lon 68.926811 lat
#TLE: 1 33591U 09005A   25026.11929750  .00000374  00000+0  22339-3 0  9999
#TLE: 2 33591  99.0177  89.9666 0014047  27.3849 332.8061 14.13269171823112

#Time	Az	El	Level	SNR
2025-01-26 13:25:50.740197	41.9	16.0	-90.8	3.2
2025-01-26 13:25:51.894507	41.7	16.1	-91.1	3.5
2025-01-26 13:25:53.041917	41.5	16.2	-91.2	2.7
2025-01-26 13:25:54.185178	41.3	16.3	-90.6	1.9
2025-01-26 13:25:55.335678	41.1	16.4	-90.7	1.3
2025-01-26 13:25:56.483019	41.0	16.4	-92.0	3.5
2025-01-26 13:25:57.618922	40.8	16.5	-92.0	2.0
2025-01-26 13:25:58.740221	40.6	16.6	-91.6	2.1
2025-01-26 13:25:59.860792	40.4	16.7	-92.0	2.9
2025-01-26 13:26:00.981631	40.2	16.8	-92.0	2.6
2025-01-26 13:26:02.102721	40.0	16.9	-91.8	1.7
2025-01-26 13:26:03.223097	39.8	16.9	-91.9	1.3
2025-01-26 13:26:04.346217	39.6	17.0	-91.7	4.0
2025-01-26 13:26:05.466738	39.4	17.1	-91.8	1.9
2025-01-26 13:26:06.587395	39.2	17.2	-92.0	1.7
2025-01-26 13:26:07.709293	39.0	17.3	-91.9	3.1
2025-01-26 13:26:08.847032	38.8	17.3	-90.5	1.4
2025-01-26 13:26:10.003325	38.6	17.4	-91.1	3.4
2025-01-26 13:26:11.145250	38.4	17.5	-90.7	4.4
2025-01-26 13:26:12.284560	38.2	17.6	-90.3	3.6
2025-01-26 13:26:13.430367	38.0	17.7	-91.2	5.4
2025-01-26 13:26:14.579809	37.8	17.7	-90.9	2.7
2025-01-26 13:26:15.728469	37.6	17.8	-91.7	4.0
2025-01-26 13:26:16.876114	37.4	17.9	-91.7	2.8
2025-01-26 13:26:18.023672	37.2	18.0	-91.6	3.1
2025-01-26 13:26:19.170799	37.0	18.1	-91.6	3.2
2025-01-26 13:26:20.318730	36.7	18.2	-91.7	1.7
2025-01-26 13:26:21.467678	36.5	18.2	-91.8	3.6
2025-01-26 13:26:22.622563	36.3	18.3	-92.0	4.1
2025-01-26 13:26:23.774970	36.1	18.4	-91.6	6.4
2025-01-26 13:26:24.929320	35.9	18.5	-91.9	6.3
2025-01-26 13:26:26.083697	35.6	18.6	-91.2	6.7
2025-01-26 13:26:27.231467	35.4	18.6	-91.3	3.8
2025-01-26 13:26:28.377274	35.2	18.7	-92.0	1.8
2025-01-26 13:26:29.526852	35.0	18.8	-92.0	5.4
2025-01-26 13:26:30.677555	34.8	18.9	-91.9	5.1
2025-01-26 13:26:31.822582	34.5	19.0	-91.8	3.7
2025-01-26 13:26:32.969816	34.3	19.0	-91.3	5.0
2025-01-26 13:26:34.119812	34.1	19.1	-91.0	8.3
2025-01-26 13:26:35.267349	33.8	19.2	-90.6	7.9
2025-01-26 13:26:36.413146	33.6	19.3	-91.0	8.6
2025-01-26 13:26:37.553012	33.4	19.4	-90.9	6.7
2025-01-26 13:26:38.703891	33.2	19.4	-90.8	4.3
2025-01-26 13:26:39.857886	32.9	19.5	-91.7	2.6
2025-01-26 13:26:41.001945	32.7	19.6	-92.3	4.1
2025-01-26 13:26:42.155737	32.4	19.7	-91.6	2.1
2025-01-26 13:26:43.298428	32.2	19.7	-91.7	2.3
2025-01-26 13:26:44.443224	32.0	19.8	-92.0	2.9
2025-01-26 13:26:45.592955	31.7	19.9	-91.1	5.8
2025-01-26 13:26:46.737781	31.5	20.0	-89.4	5.4
2025-01-26 13:26:47.887072	31.2	20.0	-91.4	6.9
2025-01-26 13:26:49.036251	31.0	20.1	-90.9	5.1
2025-01-26 13:26:50.185826	30.8	20.2	-91.0	6.5
2025-01-26 13:26:51.336803	30.5	20.3	-90.8	7.3
2025-01-26 13:26:52.482794	30.3	20.3	-91.6	8.0
2025-01-26 13:26:53.637304	30.0	20.4	-91.3	7.5
2025-01-26 13:26:54.788321	29.8	20.5	-91.2	5.3
2025-01-26 13:26:55.933798	29.5	20.6	-91.1	7.0
2025-01-26 13:26:57.078815	29.3	20.6	-92.1	9.7
2025-01-26 13:26:58.227916	29.0	20.7	-91.6	9.4
2025-01-26 13:26:59.373489	28.8	20.8	-91.9	12.9
2025-01-26 13:27:00.516476	28.5	20.9	-92.2	12.9
2025-01-26 13:27:01.662397	28.2	20.9	-91.9	12.5
2025-01-26 13:27:02.805521	28.0	21.0	-92.2	9.2
2025-01-26 13:27:03.953808	27.7	21.1	-92.2	9.2
2025-01-26 13:27:05.107750	27.5	21.1	-91.7	5.2
2025-01-26 13:27:06.254253	27.2	21.2	-91.8	3.2
2025-01-26 13:27:07.403624	26.9	21.3	-92.1	6.3
2025-01-26 13:27:08.542022	26.7	21.3	-91.9	2.7
2025-01-26 13:27:09.686837	26.4	21.4	-91.2	2.1
2025-01-26 13:27:10.839195	26.2	21.5	-91.4	2.6
2025-01-26 13:27:11.990448	25.9	21.5	-91.0	3.4
2025-01-26 13:27:13.136782	25.6	21.6	-91.1	7.2
2025-01-26 13:27:14.282640	25.3	21.7	-91.2	7.9
2025-01-26 13:27:15.431426	25.1	21.7	-91.2	10.5
2025-01-26 13:27:16.577716	24.8	21.8	-91.1	11.8
2025-01-26 13:27:17.722334	24.5	21.9	-91.6	12.5
2025-01-26 13:27:18.869278	24.3	21.9	-91.3	10.7
2025-01-26 13:27:20.017051	24.0	22.0	-91.2	8.9
2025-01-26 13:27:21.165828	23.7	22.1	-91.3	9.0
2025-01-26 13:27:22.313581	23.4	22.1	-91.1	7.0
2025-01-26 13:27:23.465884	23.2	22.2	-91.5	5.5
2025-01-26 13:27:24.611460	22.9	22.3	-91.0	7.7
2025-01-26 13:27:25.767969	22.6	22.3	-91.9	4.1
2025-01-26 13:27:26.915654	22.3	22.4	-92.1	4.8
2025-01-26 13:27:28.070590	22.0	22.4	-92.0	8.8
2025-01-26 13:27:29.221916	21.7	22.5	-91.8	6.8
2025-01-26 13:27:30.371054	21.5	22.5	-91.7	11.2
2025-01-26 13:27:31.523827	21.2	22.6	-91.9	13.4
2025-01-26 13:27:32.669923	20.9	22.7	-92.0	11.4
2025-01-26 13:27:33.825355	20.6	22.7	-92.2	10.0
2025-01-26 13:27:34.970475	20.3	22.8	-91.8	7.8
2025-01-26 13:27:36.121521	20.0	22.8	-91.1	6.1
2025-01-26 13:27:37.264915	19.7	22.9	-91.3	3.5
2025-01-26 13:27:38.419654	19.4	22.9	-91.0	2.2
2025-01-26 13:27:39.572692	19.1	23.0	-91.2	4.8
2025-01-26 13:27:40.715224	18.8	23.0	-91.3	2.0
2025-01-26 13:27:41.863367	18.5	23.1	-91.3	1.3
2025-01-26 13:27:43.015709	18.2	23.1	-91.2	3.4
2025-01-26 13:27:44.169379	17.9	23.2	-91.1	3.6
2025-01-26 13:27:45.321910	17.6	23.2	-90.9	5.4
2025-01-26 13:27:46.471082	17.3	23.3	-91.2	7.7
2025-01-26 13:27:47.618373	17.0	23.3	-91.4	11.1
2025-01-26 13:27:48.767334	16.7	23.4	-91.2	10.5
2025-01-26 13:27:49.926213	16.4	23.4	-90.9	10.3
2025-01-26 13:27:51.072112	16.1	23.5	-91.2	9.4
2025-01-26 13:27:52.224957	15.8	23.5	-91.3	9.0
2025-01-26 13:27:53.372986	15.5	23.6	-91.0	7.7
2025-01-26 13:27:54.521560	15.2	23.6	-91.3	5.6
2025-01-26 13:27:55.671553	14.9	23.7	-91.4	5.6
2025-01-26 13:27:56.816340	14.6	23.7	-91.2	5.0
2025-01-26 13:27:57.968414	14.3	23.7	-91.5	4.6
2025-01-26 13:27:59.115872	14.0	23.8	-91.1	3.9
2025-01-26 13:28:00.259889	13.7	23.8	-91.4	3.3
2025-01-26 13:28:01.411909	13.4	23.9	-91.4	4.1
2025-01-26 13:28:02.563578	13.1	23.9	-91.1	5.2
2025-01-26 13:28:03.712881	12.8	23.9	-91.3	6.0
2025-01-26 13:28:04.863442	12.4	24.0	-91.6	6.0
2025-01-26 13:28:06.009936	12.1	24.0	-91.3	6.8
2025-01-26 13:28:07.155220	11.8	24.0	-91.9	10.4
2025-01-26 13:28:08.303526	11.5	24.1	-92.0	8.5
2025-01-26 13:28:09.451961	11.2	24.1	-91.6	6.3
2025-01-26 13:28:10.602034	10.9	24.1	-91.2	5.3
2025-01-26 13:28:11.755089	10.6	24.2	-91.2	7.4
2025-01-26 13:28:12.898291	10.2	24.2	-91.5	6.1
2025-01-26 13:28:14.052692	9.9	24.2	-91.3	4.5
2025-01-26 13:28:15.200628	9.6	24.2	-91.0	3.1
2025-01-26 13:28:16.355768	9.3	24.3	-91.6	5.0
2025-01-26 13:28:17.494720	9.0	24.3	-92.1	4.5
2025-01-26 13:28:18.637914	8.6	24.3	-91.9	5.1
2025-01-26 13:28:19.780218	8.3	24.3	-92.3	3.8
2025-01-26 13:28:20.910081	8.0	24.4	-90.5	2.6
2025-01-26 13:28:22.030288	7.7	24.4	-91.4	4.8
2025-01-26 13:28:23.151966	7.4	24.4	-90.9	3.5
2025-01-26 13:28:24.272325	7.1	24.4	-90.8	2.9
2025-01-26 13:28:25.392096	6.8	24.4	-91.5	3.0
2025-01-26 13:28:26.512342	6.4	24.5	-91.3	5.0
2025-01-26 13:28:27.633066	6.1	24.5	-91.2	6.3
2025-01-26 13:28:28.754831	5.8	24.5	-91.2	3.6
2025-01-26 13:28:29.875440	5.5	24.5	-91.3	5.6
2025-01-26 13:28:30.998301	5.2	24.5	-90.9	6.8
2025-01-26 13:28:32.144175	4.9	24.5	-91.9	8.3
2025-01-26 13:28:33.283391	4.5	24.5	-91.8	8.8
2025-01-26 13:28:34.429151	4.2	24.5	-92.0	10.0
2025-01-26 13:28:35.572515	3.9	24.6	-92.2	10.8
2025-01-26 13:28:36.719221	3.6	24.6	-91.5	11.8
2025-01-26 13:28:37.866191	3.2	24.6	-91.6	10.8
2025-01-26 13:28:39.010500	2.9	24.6	-91.5	12.1
2025-01-26 13:28:40.159514	2.6	24.6	-90.8	10.3
2025-01-26 13:28:41.306481	2.3	24.6	-91.2	10.5
2025-01-26 13:28:42.455982	1.9	24.6	-91.7	10.9
2025-01-26 13:28:43.608406	1.6	24.6	-92.0	10.5
2025-01-26 13:28:44.752278	1.3	24.6	-92.1	7.6
2025-01-26 13:28:45.902776	1.0	24.6	-91.5	6.6
2025-01-26 13:28:47.047176	0.6	24.6	-91.3	8.6
2025-01-26 13:28:48.185342	0.3	24.6	-91.0	4.8
2025-01-26 13:28:49.342679	360.0	24.6	-91.3	6.4
2025-01-26 13:28:50.485955	359.7	24.6	-91.4	6.8
2025-01-26 13:28:51.635619	359.3	24.6	-91.3	6.5
2025-01-26 13:28:52.784930	359.0	24.6	-91.9	5.1
2025-01-26 13:28:53.935856	358.7	24.6	-92.0	5.4
2025-01-26 13:28:55.083073	358.4	24.6	-92.0	8.2
2025-01-26 13:28:56.230282	358.0	24.6	-91.4	4.0
2025-01-26 13:28:57.380002	357.7	24.5	-92.0	6.4
2025-01-26 13:28:58.527717	357.4	24.5	-92.1	9.6
2025-01-26 13:28:59.681963	357.1	24.5	-92.1	6.5
2025-01-26 13:29:00.826434	356.7	24.5	-92.1	5.3
2025-01-26 13:29:01.978229	356.4	24.5	-92.3	8.7
2025-01-26 13:29:03.126318	356.1	24.5	-92.0	9.7
2025-01-26 13:29:04.274101	355.8	24.5	-91.7	6.5
2025-01-26 13:29:05.424614	355.5	24.5	-91.6	7.4
2025-01-26 13:29:06.577019	355.1	24.4	-92.0	8.7
2025-01-26 13:29:07.723649	354.8	24.4	-92.0	6.1
2025-01-26 13:29:08.867628	354.5	24.4	-91.8	4.9
2025-01-26 13:29:10.017292	354.2	24.4	-92.1	9.2
2025-01-26 13:29:11.163930	353.8	24.4	-92.0	8.6
2025-01-26 13:29:12.308624	353.5	24.3	-91.7	8.0
2025-01-26 13:29:13.458973	353.2	24.3	-91.7	10.9
2025-01-26 13:29:14.605163	352.9	24.3	-91.9	13.3
2025-01-26 13:29:15.751980	352.6	24.3	-90.9	9.9
2025-01-26 13:29:16.898843	352.3	24.2	-91.3	9.9
2025-01-26 13:29:18.044687	351.9	24.2	-91.3	11.0
2025-01-26 13:29:19.186409	351.6	24.2	-90.9	8.5
2025-01-26 13:29:20.336440	351.3	24.2	-91.2	8.4
2025-01-26 13:29:21.483104	351.0	24.1	-91.5	8.3
2025-01-26 13:29:22.640514	350.7	24.1	-92.2	10.0
2025-01-26 13:29:23.790314	350.4	24.1	-91.9	9.4
2025-01-26 13:29:24.939712	350.0	24.0	-91.0	10.5
2025-01-26 13:29:26.098136	349.7	24.0	-91.1	9.9
2025-01-26 13:29:27.247857	349.4	24.0	-91.2	9.8
2025-01-26 13:29:28.400232	349.1	23.9	-91.4	12.0
2025-01-26 13:29:29.548422	348.8	23.9	-91.3	10.3
2025-01-26 13:29:30.699383	348.5	23.9	-91.2	12.9
2025-01-26 13:29:31.849669	348.2	23.8	-91.2	10.8
2025-01-26 13:29:33.007804	347.9	23.8	-91.7	12.2
2025-01-26 13:29:34.155939	347.6	23.7	-91.1	12.6
2025-01-26 13:29:35.312800	347.2	23.7	-91.3	10.9
2025-01-26 13:29:36.469636	346.9	23.7	-91.5	10.6
2025-01-26 13:29:37.616858	346.6	23.6	-91.3	10.9
2025-01-26 13:29:38.761735	346.3	23.6	-91.2	6.8
2025-01-26 13:29:39.915533	346.0	23.5	-91.4	10.3
2025-01-26 13:29:41.061683	345.7	23.5	-91.0	5.5
2025-01-26 13:29:42.207160	345.4	23.4	-91.3	6.5
2025-01-26 13:29:43.365468	345.1	23.4	-91.2	4.3
2025-01-26 13:29:44.521978	344.8	23.3	-91.4	5.0
2025-01-26 13:29:45.671489	344.5	23.3	-91.9	6.3
2025-01-26 13:29:46.822255	344.2	23.2	-91.7	5.9
2025-01-26 13:29:47.971853	343.9	23.2	-92.0	5.6
2025-01-26 13:29:49.119224	343.6	23.1	-92.1	7.5
2025-01-26 13:29:50.266270	343.3	23.1	-92.0	9.3
2025-01-26 13:29:51.419863	343.0	23.0	-91.7	9.7
2025-01-26 13:29:52.561859	342.7	23.0	-91.4	9.9
2025-01-26 13:29:53.710974	342.4	22.9	-91.4	10.4
2025-01-26 13:29:54.861655	342.1	22.9	-91.2	10.4
2025-01-26 13:29:56.007731	341.9	22.8	-91.4	9.1
2025-01-26 13:29:57.159251	341.6	22.8	-91.3	9.8
2025-01-26 13:29:58.306684	341.3	22.7	-91.2	9.1
2025-01-26 13:29:59.452586	341.0	22.7	-91.1	8.9
2025-01-26 13:30:00.592289	340.7	22.6	-91.4	5.9
2025-01-26 13:30:01.749596	340.4	22.6	-91.0	6.8
2025-01-26 13:30:02.896395	340.1	22.5	-91.6	9.5
2025-01-26 13:30:04.037229	339.9	22.4	-91.5	9.3
2025-01-26 13:30:05.184910	339.6	22.4	-91.1	7.4
2025-01-26 13:30:06.329029	339.3	22.3	-90.9	6.6
2025-01-26 13:30:07.473141	339.0	22.3	-91.2	7.2
2025-01-26 13:30:08.619860	338.7	22.2	-91.4	7.7
2025-01-26 13:30:09.766042	338.5	22.1	-91.7	5.0
2025-01-26 13:30:10.915687	338.2	22.1	-91.9	5.7
2025-01-26 13:30:12.063366	337.9	22.0	-92.1	8.0
2025-01-26 13:30:13.217230	337.6	22.0	-91.4	5.4
2025-01-26 13:30:14.359133	337.4	21.9	-91.5	5.1
2025-01-26 13:30:15.521955	337.1	21.8	-91.0	6.3
2025-01-26 13:30:16.672572	336.8	21.8	-91.1	5.5
2025-01-26 13:30:17.821638	336.5	21.7	-91.1	3.1
2025-01-26 13:30:18.966640	336.3	21.6	-91.1	5.5
2025-01-26 13:30:20.113003	336.0	21.6	-91.2	4.5
2025-01-26 13:30:21.257416	335.7	21.5	-90.9	1.4
2025-01-26 13:30:22.402239	335.5	21.4	-91.1	4.8
2025-01-26 13:30:23.551677	335.2	21.4	-91.5	2.1
2025-01-26 13:30:24.696968	334.9	21.3	-91.0	2.8
2025-01-26 13:30:25.845200	334.7	21.2	-90.8	0.5
2025-01-26 13:30:27.000798	334.4	21.2	-90.6	1.7
2025-01-26 13:30:28.150267	334.2	21.1	-90.9	2.3
2025-01-26 13:30:29.300597	333.9	21.0	-91.1	4.6
2025-01-26 13:30:30.448067	333.6	20.9	-91.2	3.4
2025-01-26 13:30:31.602038	333.4	20.9	-91.1	3.1
2025-01-26 13:30:32.751743	333.1	20.8	-91.2	2.8
2025-01-26 13:30:33.900212	332.9	20.7	-92.4	2.5
2025-01-26 13:30:35.049010	332.6	20.7	-92.3	2.4
2025-01-26 13:30:36.201797	332.4	20.6	-91.9	4.1
2025-01-26 13:30:37.351721	332.1	20.5	-91.8	3.3
2025-01-26 13:30:38.496313	331.9	20.4	-92.2	3.6
2025-01-26 13:30:39.646652	331.6	20.4	-91.7	2.6
2025-01-26 13:30:40.794408	331.4	20.3	-91.3	1.9
2025-01-26 13:30:41.942002	331.1	20.2	-91.1	3.9
2025-01-26 13:30:43.088912	330.9	20.1	-91.4	2.2
2025-01-26 13:30:44.230605	330.6	20.1	-91.4	3.3
2025-01-26 13:30:45.378668	330.4	20.0	-92.0	2.5
2025-01-26 13:30:46.525431	330.2	19.9	-92.0	4.3
2025-01-26 13:30:47.675303	329.9	19.8	-92.1	2.0
2025-01-26 13:30:48.823316	329.7	19.8	-92.4	2.9
2025-01-26 13:30:49.967333	329.5	19.7	-92.6	3.0
2025-01-26 13:30:51.121309	329.2	19.6	-91.8	3.2
2025-01-26 13:30:52.265682	329.0	19.5	-92.1	2.0
2025-01-26 13:30:53.413475	328.8	19.5	-92.0	2.5
2025-01-26 13:30:54.569800	328.5	19.4	-91.9	3.3
2025-01-26 13:30:55.713098	328.3	19.3	-92.1	3.9
2025-01-26 13:30:56.861784	328.1	19.2	-92.1	2.5
2025-01-26 13:30:58.006381	327.8	19.1	-92.3	3.1
2025-01-26 13:30:59.159790	327.6	19.1	-92.4	2.5
2025-01-26 13:31:00.306027	327.4	19.0	-91.9	3.9
2025-01-26 13:31:01.455287	327.2	18.9	-92.0	2.6
2025-01-26 13:31:02.607553	326.9	18.8	-92.3	2.6
2025-01-26 13:31:03.752999	326.7	18.7	-92.0	1.7
2025-01-26 13:31:04.904490	326.5	18.7	-92.3	3.5
2025-01-26 13:31:06.057500	326.3	18.6	-92.1	2.4
2025-01-26 13:31:07.211193	326.0	18.5	-92.3	2.4
2025-01-26 13:31:08.356031	325.8	18.4	-90.9	1.8
2025-01-26 13:31:09.500150	325.6	18.3	-91.5	3.0
2025-01-26 13:31:10.650810	325.4	18.3	-91.7	3.3
2025-01-26 13:31:11.797494	325.2	18.2	-91.4	2.2
2025-01-26 13:31:12.944403	325.0	18.1	-91.4	3.4
2025-01-26 13:31:14.087957	324.8	18.0	-91.4	2.8
2025-01-26 13:31:15.232512	324.5	17.9	-92.3	2.1
2025-01-26 13:31:16.381438	324.3	17.9	-92.0	1.2
2025-01-26 13:31:17.524549	324.1	17.8	-92.2	2.3
2025-01-26 13:31:18.674634	323.9	17.7	-92.6	1.6
2025-01-26 13:31:19.822765	323.7	17.6	-92.0	0.6
2025-01-26 13:31:20.969961	323.5	17.5	-92.4	2.0
2025-01-26 13:31:22.113726	323.3	17.5	-92.2	3.6
2025-01-26 13:31:23.261499	323.1	17.4	-91.7	2.4
2025-01-26 13:31:24.415866	322.9	17.3	-92.4	1.9
2025-01-26 13:31:25.566184	322.7	17.2	-92.5	3.5
2025-01-26 13:31:26.715459	322.5	17.1	-92.3	1.9
2025-01-26 13:31:27.860851	322.3	17.0	-91.6	1.4
2025-01-26 13:31:29.007046	322.1	17.0	-91.3	1.7
2025-01-26 13:31:30.157516	321.9	16.9	-91.4	3.1
2025-01-26 13:31:31.303947	321.7	16.8	-91.3	1.1
2025-01-26 13:31:32.448558	321.5	16.7	-91.7	3.8
2025-01-26 13:31:33.599214	321.3	16.6	-91.6	2.0
2025-01-26 13:31:34.752849	321.1	16.5	-91.4	2.7
2025-01-26 13:31:35.903392	320.9	16.5	-91.3	2.4
2025-01-26 13:31:37.050340	320.7	16.4	-91.4	1.6
2025-01-26 13:31:38.207319	320.6	16.3	-91.4	3.1
2025-01-26 13:31:39.354605	320.4	16.2	-91.3	1.0
2025-01-26 13:31:40.513554	320.2	16.1	-92.3	3.1
2025-01-26 13:31:41.664004	320.0	16.0	-92.3	3.3
2025-01-26 13:31:42.812668	319.8	16.0	-92.2	2.5
2025-01-26 13:31:43.964384	319.6	15.9	-92.2	5.6
2025-01-26 13:31:45.109215	319.4	15.8	-92.2	4.9
2025-01-26 13:31:46.257250	319.3	15.7	-92.0	5.1
2025-01-26 13:31:47.406001	319.1	15.6	-92.0	6.2
2025-01-26 13:31:48.554426	318.9	15.5	-92.2	4.9
2025-01-26 13:31:49.705051	318.7	15.5	-92.0	7.7
2025-01-26 13:31:50.846288	318.5	15.4	-92.4	3.9
2025-01-26 13:31:52.000418	318.4	15.3	-92.4	5.0
2025-01-26 13:31:53.146462	318.2	15.2	-92.2	2.1
2025-01-26 13:31:54.302401	318.0	15.1	-91.4	2.5
2025-01-26 13:31:55.451872	317.8	15.0	-91.4	2.7
2025-01-26 13:31:56.598858	317.7	15.0	-91.8	4.5
2025-01-26 13:31:57.747108	317.5	14.9	-91.4	2.6
2025-01-26 13:31:58.895126	317.3	14.8	-91.5	2.1
2025-01-26 13:32:00.045603	317.2	14.7	-91.4	3.1
2025-01-26 13:32:01.185739	317.0	14.6	-92.0	4.3
#Closed at: 2025-01-26 13:25:41.530158