passes_logs/2025/01/26/LEX_Murmansk/LEX_Murmansk__20250126_150439_NOAA_19_rec.log

#Pass ID: 20250126_150439_NOAA 19
#Satellite: NOAA 19
#Configuration: NOAA 19
#Start time: 2025-01-26 15:04:34.877771

#LorettStation: 1.0.0 05.05.2024
#Station: LEX_Murmansk
#Location: 33.156738 lon 68.926811 lat
#TLE: 1 33591U 09005A   25026.11929750  .00000374  00000+0  22339-3 0  9999
#TLE: 2 33591  99.0177  89.9666 0014047  27.3849 332.8061 14.13269171823112

#Time	Az	El	Level	SNR
2025-01-26 15:04:47.089133	76.3	16.0	-92.2	8.9
2025-01-26 15:04:48.241325	76.2	16.1	-92.3	8.3
2025-01-26 15:04:49.393926	76.0	16.2	-91.8	6.6
2025-01-26 15:04:50.539546	75.9	16.3	-92.2	6.7
2025-01-26 15:04:51.693481	75.7	16.4	-92.5	5.3
2025-01-26 15:04:52.843057	75.5	16.5	-92.3	6.3
2025-01-26 15:04:53.989740	75.4	16.6	-92.2	8.2
2025-01-26 15:04:55.141744	75.2	16.7	-92.1	11.4
2025-01-26 15:04:56.297765	75.1	16.9	-92.1	10.4
2025-01-26 15:04:57.446697	74.9	17.0	-92.1	6.0
2025-01-26 15:04:58.602534	74.7	17.1	-92.4	3.1
2025-01-26 15:04:59.761110	74.6	17.2	-92.4	3.7
2025-01-26 15:05:00.903172	74.4	17.3	-92.3	4.3
2025-01-26 15:05:02.054077	74.2	17.4	-91.2	2.8
2025-01-26 15:05:03.203487	74.0	17.5	-91.2	7.0
2025-01-26 15:05:04.357238	73.9	17.6	-91.0	8.5
2025-01-26 15:05:05.505319	73.7	17.7	-91.0	12.1
2025-01-26 15:05:06.653562	73.5	17.8	-91.4	12.2
2025-01-26 15:05:07.812768	73.4	17.9	-91.5	8.5
2025-01-26 15:05:08.969434	73.2	18.0	-91.1	6.9
2025-01-26 15:05:10.122888	73.0	18.1	-91.3	8.6
2025-01-26 15:05:11.272915	72.8	18.2	-91.0	6.3
2025-01-26 15:05:12.423932	72.6	18.3	-91.0	10.0
2025-01-26 15:05:13.575458	72.5	18.4	-91.0	10.7
2025-01-26 15:05:14.729082	72.3	18.5	-92.0	9.8
2025-01-26 15:05:15.882582	72.1	18.6	-92.1	8.8
2025-01-26 15:05:17.032256	71.9	18.7	-92.4	7.4
2025-01-26 15:05:18.182461	71.7	18.8	-91.9	3.9
2025-01-26 15:05:19.339730	71.5	18.9	-91.9	2.7
2025-01-26 15:05:20.488005	71.4	19.0	-92.3	3.0
2025-01-26 15:05:21.634196	71.2	19.1	-92.2	5.2
2025-01-26 15:05:22.784883	71.0	19.2	-92.2	5.5
2025-01-26 15:05:23.935216	70.8	19.3	-92.5	8.0
2025-01-26 15:05:25.082781	70.6	19.4	-92.3	10.1
2025-01-26 15:05:26.230170	70.4	19.5	-92.4	10.8
2025-01-26 15:05:27.382002	70.2	19.6	-92.5	10.2
2025-01-26 15:05:28.536127	70.0	19.7	-92.2	8.8
2025-01-26 15:05:29.686237	69.8	19.8	-92.5	6.3
2025-01-26 15:05:30.836722	69.6	20.0	-91.9	5.8
2025-01-26 15:05:31.988542	69.4	20.1	-92.5	10.0
2025-01-26 15:05:33.134544	69.2	20.2	-92.1	12.0
2025-01-26 15:05:34.287650	69.0	20.3	-92.2	12.6
2025-01-26 15:05:35.436784	68.8	20.4	-92.5	12.4
2025-01-26 15:05:36.584490	68.6	20.5	-92.4	8.8
2025-01-26 15:05:37.737464	68.4	20.6	-92.7	5.3
2025-01-26 15:05:38.891596	68.2	20.7	-92.4	5.6
2025-01-26 15:05:40.039496	68.0	20.8	-92.5	3.2
2025-01-26 15:05:41.185683	67.7	20.9	-92.2	2.8
2025-01-26 15:05:42.332772	67.5	21.0	-91.3	3.1
2025-01-26 15:05:43.486983	67.3	21.1	-91.3	4.9
2025-01-26 15:05:44.641026	67.1	21.2	-91.6	9.5
2025-01-26 15:05:45.790282	66.9	21.3	-91.6	11.6
2025-01-26 15:05:46.942839	66.7	21.4	-91.4	13.1
2025-01-26 15:05:48.092035	66.4	21.5	-91.7	12.9
2025-01-26 15:05:49.246794	66.2	21.6	-92.3	10.0
2025-01-26 15:05:50.395534	66.0	21.7	-92.3	9.4
2025-01-26 15:05:51.542546	65.8	21.8	-92.9	9.7
2025-01-26 15:05:52.692551	65.5	21.9	-92.3	6.4
2025-01-26 15:05:53.839067	65.3	22.1	-92.7	10.3
2025-01-26 15:05:54.983835	65.1	22.2	-92.8	13.5
2025-01-26 15:05:56.138355	64.8	22.3	-92.4	13.5
2025-01-26 15:05:57.292490	64.6	22.4	-91.8	13.1
2025-01-26 15:05:58.442417	64.4	22.5	-91.8	9.4
2025-01-26 15:05:59.592716	64.1	22.6	-91.9	6.8
2025-01-26 15:06:00.735257	63.9	22.7	-92.1	4.0
2025-01-26 15:06:01.887580	63.7	22.8	-92.6	5.7
2025-01-26 15:06:03.035540	63.4	22.9	-92.1	4.9
2025-01-26 15:06:04.184135	63.2	23.0	-91.9	3.1
2025-01-26 15:06:05.330762	62.9	23.1	-92.2	5.6
2025-01-26 15:06:06.483435	62.7	23.2	-90.9	7.9
2025-01-26 15:06:07.638283	62.4	23.3	-91.2	10.0
2025-01-26 15:06:08.785319	62.2	23.4	-91.6	11.1
2025-01-26 15:06:09.937195	61.9	23.5	-91.9	9.9
2025-01-26 15:06:11.092177	61.7	23.6	-91.5	9.4
2025-01-26 15:06:12.245166	61.4	23.7	-91.5	4.6
2025-01-26 15:06:13.393783	61.2	23.8	-91.9	6.3
2025-01-26 15:06:14.546793	60.9	23.9	-92.3	5.8
2025-01-26 15:06:15.695820	60.6	24.0	-92.4	6.7
2025-01-26 15:06:16.848252	60.4	24.1	-92.5	7.3
2025-01-26 15:06:17.995450	60.1	24.2	-92.1	10.5
2025-01-26 15:06:19.151943	59.9	24.3	-90.9	9.1
2025-01-26 15:06:20.300106	59.6	24.4	-92.0	9.5
2025-01-26 15:06:21.453087	59.3	24.5	-91.9	6.9
2025-01-26 15:06:22.603223	59.0	24.6	-91.4	6.1
2025-01-26 15:06:23.754276	58.8	24.7	-91.9	4.7
2025-01-26 15:06:24.908358	58.5	24.8	-91.9	3.6
2025-01-26 15:06:26.061351	58.2	24.9	-92.4	4.2
2025-01-26 15:06:27.212106	57.9	25.0	-91.7	1.2
2025-01-26 15:06:28.363275	57.7	25.1	-91.8	4.7
2025-01-26 15:06:29.520117	57.4	25.2	-91.4	7.0
2025-01-26 15:06:30.673249	57.1	25.3	-91.8	6.2
2025-01-26 15:06:31.826334	56.8	25.4	-91.7	9.0
2025-01-26 15:06:32.985556	56.5	25.5	-91.9	10.2
2025-01-26 15:06:34.130041	56.2	25.6	-92.7	10.8
2025-01-26 15:06:35.282916	55.9	25.7	-92.8	8.4
2025-01-26 15:06:36.434299	55.7	25.8	-92.4	6.1
2025-01-26 15:06:37.581388	55.4	25.9	-92.4	7.3
2025-01-26 15:06:38.729522	55.1	26.0	-92.8	4.6
2025-01-26 15:06:39.882937	54.8	26.1	-93.0	4.6
2025-01-26 15:06:41.028663	54.5	26.2	-92.6	6.3
2025-01-26 15:06:42.176368	54.2	26.3	-92.4	4.8
2025-01-26 15:06:43.327016	53.9	26.4	-92.6	7.0
2025-01-26 15:06:44.474436	53.6	26.4	-92.7	7.7
2025-01-26 15:06:45.621769	53.3	26.5	-92.6	7.1
2025-01-26 15:06:46.770657	53.0	26.6	-92.6	6.3
2025-01-26 15:06:47.922335	52.7	26.7	-92.6	4.1
2025-01-26 15:06:49.078547	52.3	26.8	-92.5	2.6
2025-01-26 15:06:50.225001	52.0	26.9	-92.0	1.6
2025-01-26 15:06:51.371197	51.7	27.0	-92.3	2.3
2025-01-26 15:06:52.526589	51.4	27.1	-92.7	3.0
2025-01-26 15:06:53.680152	51.1	27.2	-92.5	1.4
2025-01-26 15:06:54.837934	50.8	27.2	-92.8	3.4
2025-01-26 15:06:55.987573	50.4	27.3	-92.8	3.3
2025-01-26 15:06:57.137517	50.1	27.4	-92.5	0.8
2025-01-26 15:06:58.284035	49.8	27.5	-92.7	3.5
2025-01-26 15:06:59.439123	49.5	27.6	-92.9	4.3
2025-01-26 15:07:00.586307	49.1	27.7	-92.4	4.5
2025-01-26 15:07:01.739154	48.8	27.7	-92.4	2.4
2025-01-26 15:07:02.895741	48.5	27.8	-92.7	3.0
2025-01-26 15:07:04.043528	48.1	27.9	-92.7	5.3
2025-01-26 15:07:05.190189	47.8	28.0	-92.4	6.6
2025-01-26 15:07:06.339146	47.5	28.1	-92.4	2.9
2025-01-26 15:07:07.497493	47.1	28.1	-92.6	6.5
2025-01-26 15:07:08.653057	46.8	28.2	-92.4	5.7
2025-01-26 15:07:09.801626	46.5	28.3	-92.7	3.7
2025-01-26 15:07:10.949406	46.1	28.4	-92.8	5.2
2025-01-26 15:07:12.092405	45.8	28.4	-92.0	6.2
2025-01-26 15:07:13.245320	45.4	28.5	-92.3	6.0
2025-01-26 15:07:14.389824	45.1	28.6	-92.4	8.2
2025-01-26 15:07:15.542555	44.7	28.6	-92.6	10.0
2025-01-26 15:07:16.692533	44.4	28.7	-92.3	10.6
2025-01-26 15:07:17.849251	44.0	28.8	-92.3	11.0
2025-01-26 15:07:19.000984	43.7	28.8	-92.7	10.0
2025-01-26 15:07:20.148488	43.3	28.9	-92.4	7.9
2025-01-26 15:07:21.296653	43.0	29.0	-92.2	7.4
2025-01-26 15:07:22.443590	42.6	29.0	-92.4	4.8
2025-01-26 15:07:23.595896	42.2	29.1	-92.4	2.3
2025-01-26 15:07:24.750118	41.9	29.2	-92.5	1.7
2025-01-26 15:07:25.908127	41.5	29.2	-92.4	2.5
2025-01-26 15:07:27.061934	41.2	29.3	-92.1	4.4
2025-01-26 15:07:28.211160	40.8	29.3	-92.2	2.3
2025-01-26 15:07:29.364672	40.4	29.4	-92.5	2.5
2025-01-26 15:07:30.512467	40.1	29.5	-92.6	4.3
2025-01-26 15:07:31.662865	39.7	29.5	-92.7	8.3
2025-01-26 15:07:32.817895	39.3	29.6	-92.7	7.0
2025-01-26 15:07:33.970761	39.0	29.6	-91.9	7.7
2025-01-26 15:07:35.115190	38.6	29.7	-91.5	5.9
2025-01-26 15:07:36.266687	38.2	29.7	-91.6	6.3
2025-01-26 15:07:37.419479	37.8	29.8	-91.8	6.9
2025-01-26 15:07:38.566301	37.5	29.8	-92.6	11.7
2025-01-26 15:07:39.718968	37.1	29.9	-92.5	12.9
2025-01-26 15:07:40.869574	36.7	29.9	-92.5	12.3
2025-01-26 15:07:42.020185	36.3	29.9	-92.6	10.5
2025-01-26 15:07:43.171872	35.9	30.0	-92.3	8.6
2025-01-26 15:07:44.322923	35.6	30.0	-92.3	8.2
2025-01-26 15:07:45.470812	35.2	30.1	-92.5	8.1
2025-01-26 15:07:46.623383	34.8	30.1	-92.8	8.8
2025-01-26 15:07:47.769374	34.4	30.1	-92.4	4.6
2025-01-26 15:07:48.916915	34.0	30.2	-92.7	6.8
2025-01-26 15:07:50.067020	33.7	30.2	-92.5	6.7
2025-01-26 15:07:51.217515	33.3	30.2	-92.6	5.2
2025-01-26 15:07:52.367440	32.9	30.3	-92.6	6.2
2025-01-26 15:07:53.515259	32.5	30.3	-92.3	6.4
2025-01-26 15:07:54.667979	32.1	30.3	-92.6	6.3
2025-01-26 15:07:55.815114	31.7	30.3	-92.8	9.2
2025-01-26 15:07:56.966615	31.3	30.4	-92.2	9.7
2025-01-26 15:07:58.120317	31.0	30.4	-92.2	12.2
2025-01-26 15:07:59.274407	30.6	30.4	-92.5	10.7
2025-01-26 15:08:00.416504	30.2	30.4	-92.8	10.5
2025-01-26 15:08:01.566304	29.8	30.4	-92.7	10.8
2025-01-26 15:08:02.719394	29.4	30.5	-92.7	11.8
2025-01-26 15:08:03.872613	29.0	30.5	-92.5	13.4
2025-01-26 15:08:05.021516	28.6	30.5	-92.8	10.6
2025-01-26 15:08:06.171467	28.2	30.5	-92.8	4.8
2025-01-26 15:08:07.322686	27.8	30.5	-92.7	5.1
2025-01-26 15:08:08.478321	27.4	30.5	-92.4	6.0
2025-01-26 15:08:09.633046	27.0	30.5	-92.7	8.9
2025-01-26 15:08:10.779250	26.6	30.5	-92.7	5.3
2025-01-26 15:08:11.933724	26.3	30.5	-92.6	4.1
2025-01-26 15:08:13.089464	25.9	30.5	-92.5	4.0
2025-01-26 15:08:14.242124	25.5	30.6	-92.8	3.7
2025-01-26 15:08:15.390969	25.1	30.6	-92.5	4.7
2025-01-26 15:08:16.553009	24.7	30.5	-92.5	1.9
2025-01-26 15:08:17.700434	24.3	30.5	-92.8	1.5
2025-01-26 15:08:18.851781	23.9	30.5	-92.9	3.5
2025-01-26 15:08:20.009437	23.5	30.5	-92.7	4.2
2025-01-26 15:08:21.162863	23.1	30.5	-92.5	3.6
2025-01-26 15:08:22.311191	22.7	30.5	-92.4	1.4
2025-01-26 15:08:23.463149	22.3	30.5	-92.3	4.1
2025-01-26 15:08:24.616077	21.9	30.5	-92.9	8.1
2025-01-26 15:08:25.764389	21.5	30.5	-92.8	1.7
2025-01-26 15:08:26.914830	21.1	30.5	-92.5	4.7
2025-01-26 15:08:28.073461	20.8	30.5	-92.5	5.3
2025-01-26 15:08:29.220976	20.4	30.4	-92.3	2.2
2025-01-26 15:08:30.369745	20.0	30.4	-92.5	6.3
2025-01-26 15:08:31.518952	19.6	30.4	-92.7	6.7
2025-01-26 15:08:32.670200	19.2	30.4	-92.8	5.4
2025-01-26 15:08:33.823325	18.8	30.3	-92.2	6.1
2025-01-26 15:08:34.972665	18.4	30.3	-92.7	8.6
2025-01-26 15:08:36.134399	18.0	30.3	-92.4	9.8
2025-01-26 15:08:37.283950	17.6	30.3	-92.7	7.9
2025-01-26 15:08:38.440671	17.3	30.2	-91.8	7.5
2025-01-26 15:08:39.594780	16.9	30.2	-91.7	5.8
2025-01-26 15:08:40.745752	16.5	30.2	-91.7	4.6
2025-01-26 15:08:41.889825	16.1	30.1	-91.7	8.3
2025-01-26 15:08:43.047196	15.7	30.1	-92.4	8.9
2025-01-26 15:08:44.197625	15.3	30.1	-92.3	8.2
2025-01-26 15:08:45.342194	15.0	30.0	-92.0	9.0
2025-01-26 15:08:46.484051	14.6	30.0	-91.4	8.4
2025-01-26 15:08:47.633239	14.2	29.9	-91.9	11.1
2025-01-26 15:08:48.789655	13.8	29.9	-91.5	10.6
2025-01-26 15:08:49.935698	13.5	29.9	-91.3	10.0
2025-01-26 15:08:51.083170	13.1	29.8	-91.5	10.6
2025-01-26 15:08:52.237801	12.7	29.8	-91.5	9.8
2025-01-26 15:08:53.387581	12.3	29.7	-91.2	7.3
2025-01-26 15:08:54.542610	12.0	29.7	-92.0	8.7
2025-01-26 15:08:55.698208	11.6	29.6	-91.4	6.1
2025-01-26 15:08:56.848223	11.2	29.6	-91.7	2.7
2025-01-26 15:08:57.996142	10.8	29.5	-92.1	8.8
2025-01-26 15:08:59.146484	10.5	29.5	-92.0	7.5
2025-01-26 15:09:00.295957	10.1	29.4	-91.4	4.8
2025-01-26 15:09:01.444962	9.7	29.4	-91.3	4.3
2025-01-26 15:09:02.591884	9.4	29.3	-91.4	3.9
2025-01-26 15:09:03.739071	9.0	29.2	-91.8	1.9
2025-01-26 15:09:04.887756	8.7	29.2	-91.6	3.6
2025-01-26 15:09:06.033905	8.3	29.1	-91.6	2.4
2025-01-26 15:09:07.194060	7.9	29.1	-91.2	3.9
2025-01-26 15:09:08.342192	7.6	29.0	-91.8	5.8
2025-01-26 15:09:09.498433	7.2	28.9	-91.9	5.8
2025-01-26 15:09:10.647809	6.9	28.9	-92.1	7.1
2025-01-26 15:09:11.792707	6.5	28.8	-92.1	5.3
2025-01-26 15:09:12.942153	6.2	28.7	-91.9	7.1
2025-01-26 15:09:14.089282	5.8	28.7	-91.6	8.9
2025-01-26 15:09:15.240120	5.5	28.6	-91.5	6.1
2025-01-26 15:09:16.387612	5.1	28.5	-91.6	5.0
2025-01-26 15:09:17.533900	4.8	28.5	-91.8	5.5
2025-01-26 15:09:18.687858	4.4	28.4	-92.7	9.5
2025-01-26 15:09:19.833283	4.1	28.3	-92.6	8.5
2025-01-26 15:09:20.981835	3.8	28.2	-93.1	10.4
2025-01-26 15:09:22.125693	3.4	28.2	-92.3	10.5
2025-01-26 15:09:23.280106	3.1	28.1	-92.5	6.7
2025-01-26 15:09:24.434554	2.8	28.0	-92.8	6.7
2025-01-26 15:09:25.580612	2.4	27.9	-93.0	5.7
2025-01-26 15:09:26.730616	2.1	27.8	-92.7	8.3
2025-01-26 15:09:27.885004	1.8	27.8	-92.2	7.9
2025-01-26 15:09:29.035599	1.4	27.7	-91.9	9.9
2025-01-26 15:09:30.190502	1.1	27.6	-92.0	7.9
2025-01-26 15:09:31.348422	0.8	27.5	-91.9	5.6
2025-01-26 15:09:32.493401	0.5	27.4	-92.1	7.4
2025-01-26 15:09:33.643437	0.1	27.4	-92.6	5.4
2025-01-26 15:09:34.794833	359.8	27.3	-92.7	7.6
2025-01-26 15:09:35.941364	359.5	27.2	-93.1	5.8
2025-01-26 15:09:37.099153	359.2	27.1	-92.3	6.6
2025-01-26 15:09:38.244430	358.9	27.0	-91.9	6.1
2025-01-26 15:09:39.393822	358.5	26.9	-92.0	6.1
2025-01-26 15:09:40.544965	358.2	26.8	-92.3	7.9
2025-01-26 15:09:41.692972	357.9	26.8	-91.6	7.4
2025-01-26 15:09:42.841115	357.6	26.7	-91.7	4.6
2025-01-26 15:09:43.989016	357.3	26.6	-91.5	5.7
2025-01-26 15:09:45.141263	357.0	26.5	-92.1	8.0
2025-01-26 15:09:46.285157	356.7	26.4	-92.1	3.6
2025-01-26 15:09:47.435650	356.4	26.3	-92.2	4.6
2025-01-26 15:09:48.584482	356.1	26.2	-92.3	6.3
2025-01-26 15:09:49.736084	355.8	26.1	-92.4	4.6
2025-01-26 15:09:50.887477	355.5	26.0	-92.0	6.9
2025-01-26 15:09:52.033825	355.2	25.9	-91.9	6.5
2025-01-26 15:09:53.185169	354.9	25.8	-91.7	5.9
2025-01-26 15:09:54.334212	354.6	25.7	-92.0	5.3
2025-01-26 15:09:55.479670	354.4	25.6	-92.4	8.8
2025-01-26 15:09:56.628475	354.1	25.6	-92.2	9.4
2025-01-26 15:09:57.775369	353.8	25.5	-92.4	5.2
2025-01-26 15:09:58.927090	353.5	25.4	-92.5	7.8
2025-01-26 15:10:00.076752	353.2	25.3	-92.4	11.0
2025-01-26 15:10:01.217775	352.9	25.2	-92.0	8.6
2025-01-26 15:10:02.356216	352.7	25.1	-91.7	10.6
2025-01-26 15:10:03.504987	352.4	25.0	-91.0	10.0
2025-01-26 15:10:04.660608	352.1	24.9	-91.2	8.7
2025-01-26 15:10:05.810638	351.8	24.8	-91.5	11.7
2025-01-26 15:10:06.966081	351.6	24.7	-91.5	11.4
2025-01-26 15:10:08.110865	351.3	24.6	-90.8	11.9
2025-01-26 15:10:09.263021	351.0	24.5	-91.1	10.5
2025-01-26 15:10:10.411007	350.8	24.4	-91.1	10.8
2025-01-26 15:10:11.560967	350.5	24.3	-91.5	8.3
2025-01-26 15:10:12.712592	350.2	24.2	-91.5	7.4
2025-01-26 15:10:13.865596	350.0	24.1	-91.9	8.4
2025-01-26 15:10:15.016159	349.7	24.0	-92.3	10.2
2025-01-26 15:10:16.166099	349.5	23.9	-92.2	7.6
2025-01-26 15:10:17.312642	349.2	23.8	-92.1	7.7
2025-01-26 15:10:18.467925	348.9	23.7	-92.1	8.8
2025-01-26 15:10:19.617514	348.7	23.6	-92.6	9.8
2025-01-26 15:10:20.769909	348.4	23.5	-92.8	4.9
2025-01-26 15:10:21.913307	348.2	23.4	-92.3	3.6
2025-01-26 15:10:23.062912	347.9	23.3	-92.2	5.9
2025-01-26 15:10:24.214165	347.7	23.2	-92.0	2.2
2025-01-26 15:10:25.365798	347.5	23.1	-92.2	3.8
2025-01-26 15:10:26.512594	347.2	22.9	-92.6	4.1
2025-01-26 15:10:27.668197	347.0	22.8	-92.6	3.4
2025-01-26 15:10:28.822630	346.7	22.7	-92.1	1.8
2025-01-26 15:10:29.968325	346.5	22.6	-92.3	4.0
2025-01-26 15:10:31.117638	346.3	22.5	-92.4	7.2
2025-01-26 15:10:32.263109	346.0	22.4	-92.1	4.6
2025-01-26 15:10:33.409605	345.8	22.3	-92.3	6.8
2025-01-26 15:10:34.558934	345.6	22.2	-92.4	8.3
2025-01-26 15:10:35.701336	345.3	22.1	-92.3	9.9
2025-01-26 15:10:36.846336	345.1	22.0	-92.4	11.3
2025-01-26 15:10:37.998420	344.9	21.9	-91.7	11.5
2025-01-26 15:10:39.141613	344.6	21.8	-91.7	11.0
2025-01-26 15:10:40.289769	344.4	21.7	-91.3	9.5
2025-01-26 15:10:41.437367	344.2	21.6	-91.6	11.1
2025-01-26 15:10:42.589055	344.0	21.5	-91.7	8.3
2025-01-26 15:10:43.742172	343.8	21.4	-91.7	6.8
2025-01-26 15:10:44.892445	343.5	21.3	-92.4	6.3
2025-01-26 15:10:46.039994	343.3	21.2	-92.6	7.8
2025-01-26 15:10:47.196862	343.1	21.1	-92.6	2.9
2025-01-26 15:10:48.349055	342.9	21.0	-92.7	2.2
2025-01-26 15:10:49.500191	342.7	20.9	-92.6	4.9
2025-01-26 15:10:50.652145	342.5	20.8	-92.3	5.0
2025-01-26 15:10:51.803704	342.3	20.7	-92.5	2.9
2025-01-26 15:10:52.949999	342.1	20.6	-92.3	3.2
2025-01-26 15:10:54.096477	341.9	20.5	-91.9	2.8
2025-01-26 15:10:55.242549	341.6	20.3	-91.1	3.5
2025-01-26 15:10:56.392940	341.4	20.2	-91.5	4.5
2025-01-26 15:10:57.543861	341.2	20.1	-91.8	1.4
2025-01-26 15:10:58.700558	341.0	20.0	-91.9	3.6
2025-01-26 15:10:59.851958	340.8	19.9	-91.8	2.9
2025-01-26 15:11:01.001388	340.6	19.8	-91.8	4.0
2025-01-26 15:11:02.150013	340.4	19.7	-91.8	3.9
2025-01-26 15:11:03.298600	340.3	19.6	-91.4	0.3
2025-01-26 15:11:04.449166	340.1	19.5	-91.4	2.0
2025-01-26 15:11:05.707634	339.8	19.4	-91.8	2.4
2025-01-26 15:11:06.864067	339.7	19.3	-91.9	2.7
2025-01-26 15:11:08.016847	339.5	19.2	-92.0	2.5
2025-01-26 15:11:09.172859	339.3	19.1	-92.9	1.5
2025-01-26 15:11:10.322342	339.1	19.0	-92.3	1.8
2025-01-26 15:11:11.474384	338.9	18.9	-92.7	2.5
2025-01-26 15:11:12.620995	338.7	18.8	-92.8	0.4
2025-01-26 15:11:13.772635	338.5	18.7	-92.4	3.6
2025-01-26 15:11:14.923220	338.4	18.6	-92.5	2.9
2025-01-26 15:11:16.078748	338.2	18.5	-92.1	3.1
2025-01-26 15:11:17.228072	338.0	18.4	-92.4	1.9
2025-01-26 15:11:18.375817	337.8	18.3	-91.7	1.5
2025-01-26 15:11:19.533249	337.6	18.2	-91.7	4.3
2025-01-26 15:11:20.683595	337.5	18.1	-91.3	0.5
2025-01-26 15:11:21.832970	337.3	18.0	-91.7	1.2
2025-01-26 15:11:22.983795	337.1	17.9	-91.6	1.9
2025-01-26 15:11:24.133763	336.9	17.8	-91.6	3.2
2025-01-26 15:11:25.285369	336.8	17.7	-92.3	2.9
2025-01-26 15:11:26.434111	336.6	17.5	-92.4	2.5
2025-01-26 15:11:27.588132	336.4	17.4	-92.5	1.5
2025-01-26 15:11:28.739823	336.3	17.3	-92.5	1.8
2025-01-26 15:11:29.889271	336.1	17.2	-92.8	2.1
2025-01-26 15:11:31.041378	335.9	17.1	-92.5	1.9
2025-01-26 15:11:32.187378	335.8	17.0	-92.6	3.1
2025-01-26 15:11:33.336047	335.6	16.9	-92.2	1.1
2025-01-26 15:11:34.481787	335.4	16.8	-92.5	2.1
2025-01-26 15:11:35.642681	335.3	16.7	-92.9	3.3
2025-01-26 15:11:36.796556	335.1	16.6	-92.9	3.2
2025-01-26 15:11:37.941589	335.0	16.5	-92.6	2.6
2025-01-26 15:11:39.089572	334.8	16.4	-92.3	3.3
2025-01-26 15:11:40.235073	334.6	16.3	-92.7	2.8
2025-01-26 15:11:41.383136	334.5	16.2	-92.4	2.1
2025-01-26 15:11:42.531888	334.3	16.1	-92.5	3.1
2025-01-26 15:11:43.686522	334.2	16.0	-93.0	5.0
2025-01-26 15:11:44.838908	334.0	15.9	-92.5	3.2
2025-01-26 15:11:45.990397	333.9	15.8	-92.5	3.3
2025-01-26 15:11:47.138492	333.7	15.7	-92.5	4.5
2025-01-26 15:11:48.392622	333.6	15.6	-92.5	1.2
2025-01-26 15:11:49.545894	333.4	15.5	-92.3	3.4
2025-01-26 15:11:50.694946	333.3	15.4	-92.2	4.1
2025-01-26 15:11:51.846855	333.1	15.3	-92.3	3.5
2025-01-26 15:11:52.991731	333.0	15.3	-92.3	3.2
2025-01-26 15:11:54.144689	332.8	15.2	-92.5	4.3
2025-01-26 15:11:55.292498	332.7	15.1	-92.1	2.6
2025-01-26 15:11:56.445676	332.5	15.0	-92.6	3.6
2025-01-26 15:11:57.596712	332.4	14.9	-92.8	3.9
2025-01-26 15:11:58.742233	332.3	14.8	-92.3	4.9
2025-01-26 15:11:59.890101	332.1	14.7	-92.6	7.2
2025-01-26 15:12:01.016062	332.0	14.6	-92.2	5.4
#Closed at: 2025-01-26 15:04:39.882234