passes_logs/2025/01/26/LEX_Murmansk/LEX_Murmansk__20250126_184650_NOAA_18_rec.log

#Pass ID: 20250126_184650_NOAA 18
#Satellite: NOAA 18
#Configuration: NOAA 18
#Start time: 2025-01-26 18:46:44.952268

#LorettStation: 1.0.0 05.05.2024
#Station: LEX_Murmansk
#Location: 33.156738 lon 68.926811 lat
#TLE: 1 28654U 05018A   25026.13466944  .00000433  00000+0  25315-3 0  9999
#TLE: 2 28654  98.8549 107.0777 0014815 148.4880 211.7182 14.13497478 14758

#Time	Az	El	Level	SNR
2025-01-26 18:46:57.252786	149.0	16.3	-92.1	6.1
2025-01-26 18:46:59.569341	149.0	16.6	-92.8	4.9
2025-01-26 18:47:01.868488	149.0	16.9	-90.5	4.7
2025-01-26 18:47:04.182374	149.0	17.1	-90.4	4.4
2025-01-26 18:47:06.492183	148.9	17.4	-92.6	5.6
2025-01-26 18:47:08.793185	148.9	17.6	-92.7	4.2
2025-01-26 18:47:11.111573	148.9	17.9	-92.5	5.2
2025-01-26 18:47:13.416190	148.9	18.2	-92.3	4.2
2025-01-26 18:47:15.732393	148.9	18.5	-92.2	5.0
2025-01-26 18:47:18.037865	148.9	18.8	-92.3	3.5
2025-01-26 18:47:20.340421	148.9	19.0	-92.2	7.5
2025-01-26 18:47:22.645022	148.9	19.3	-92.4	6.8
2025-01-26 18:47:24.962516	148.9	19.6	-92.6	8.2
2025-01-26 18:47:27.268770	148.8	19.9	-92.5	6.9
2025-01-26 18:47:29.582126	148.8	20.2	-92.9	7.6
2025-01-26 18:47:31.881671	148.8	20.5	-92.4	6.3
2025-01-26 18:47:34.190055	148.8	20.8	-92.2	10.0
2025-01-26 18:47:36.501520	148.8	21.1	-92.5	11.5
2025-01-26 18:47:38.811857	148.8	21.4	-92.8	12.4
2025-01-26 18:47:41.110020	148.7	21.8	-92.7	10.8
2025-01-26 18:47:43.352099	148.7	22.1	-92.4	10.2
2025-01-26 18:47:45.594160	148.7	22.4	-92.3	8.3
2025-01-26 18:47:47.835497	148.7	22.7	-92.4	8.9
2025-01-26 18:47:50.077385	148.7	23.0	-92.5	6.7
2025-01-26 18:47:52.335443	148.7	23.4	-92.6	11.0
2025-01-26 18:47:54.626447	148.6	23.7	-92.6	11.1
2025-01-26 18:47:56.928251	148.6	24.0	-92.7	8.6
2025-01-26 18:47:59.232751	148.6	24.4	-92.4	12.0
2025-01-26 18:48:01.522490	148.6	24.7	-92.7	10.6
2025-01-26 18:48:03.825584	148.6	25.1	-92.4	9.6
2025-01-26 18:48:06.132931	148.5	25.5	-91.8	10.1
2025-01-26 18:48:08.436986	148.5	25.8	-90.7	9.4
2025-01-26 18:48:10.745612	148.5	26.2	-92.5	11.7
2025-01-26 18:48:13.068326	148.5	26.6	-92.4	8.9
2025-01-26 18:48:15.381464	148.4	27.0	-92.8	8.5
2025-01-26 18:48:17.693416	148.4	27.4	-92.8	10.6
2025-01-26 18:48:19.998420	148.4	27.8	-93.0	5.1
2025-01-26 18:48:22.305926	148.4	28.2	-92.5	6.5
2025-01-26 18:48:24.618539	148.3	28.6	-92.4	6.4
2025-01-26 18:48:26.921793	148.3	29.0	-92.8	6.4
2025-01-26 18:48:29.224815	148.3	29.4	-92.2	8.1
2025-01-26 18:48:31.532248	148.2	29.8	-92.7	6.3
2025-01-26 18:48:33.844355	148.2	30.3	-92.8	5.1
2025-01-26 18:48:36.164996	148.2	30.7	-92.8	5.1
2025-01-26 18:48:38.471426	148.1	31.2	-92.3	4.5
2025-01-26 18:48:40.789046	148.1	31.6	-92.9	12.1
2025-01-26 18:48:43.087458	148.1	32.1	-92.5	14.3
2025-01-26 18:48:45.402571	148.0	32.5	-92.4	11.7
2025-01-26 18:48:47.699739	148.0	33.0	-92.3	12.3
2025-01-26 18:48:50.005111	147.9	33.5	-92.1	13.8
2025-01-26 18:48:52.320549	147.9	34.0	-92.7	13.1
2025-01-26 18:48:54.628763	147.8	34.5	-92.6	8.9
2025-01-26 18:48:56.933009	147.8	35.0	-92.3	7.0
2025-01-26 18:48:59.243192	147.8	35.5	-92.4	14.6
2025-01-26 18:49:01.540565	147.7	36.0	-92.2	11.2
2025-01-26 18:49:03.850269	147.7	36.6	-92.7	14.0
2025-01-26 18:49:06.094620	147.6	37.1	-92.0	11.1
2025-01-26 18:49:08.336291	147.5	37.6	-92.2	12.4
2025-01-26 18:49:10.579762	147.5	38.2	-91.4	7.3
2025-01-26 18:49:12.822190	147.4	38.7	-91.6	11.6
2025-01-26 18:49:15.077688	147.4	39.3	-92.7	8.8
2025-01-26 18:49:17.378083	147.3	39.8	-92.5	15.6
2025-01-26 18:49:19.646186	147.2	40.4	-92.7	18.4
2025-01-26 18:49:21.910399	147.2	41.0	-92.6	12.1
2025-01-26 18:49:24.191696	147.1	41.6	-92.6	18.2
2025-01-26 18:49:26.489553	147.0	42.3	-92.6	18.4
2025-01-26 18:49:28.802161	146.9	42.9	-92.8	15.5
2025-01-26 18:49:31.113425	146.8	43.5	-92.8	11.5
2025-01-26 18:49:33.419084	146.8	44.2	-92.8	8.9
2025-01-26 18:49:35.734331	146.7	44.9	-92.5	17.7
2025-01-26 18:49:38.047997	146.6	45.5	-92.9	16.6
2025-01-26 18:49:40.356752	146.5	46.2	-92.7	11.4
2025-01-26 18:49:42.668545	146.4	46.9	-92.6	14.2
2025-01-26 18:49:44.981086	146.2	47.6	-92.6	9.2
2025-01-26 18:49:47.294175	146.1	48.4	-92.5	7.0
2025-01-26 18:49:49.610181	146.0	49.1	-92.6	9.0
2025-01-26 18:49:51.927030	145.9	49.9	-92.5	4.0
2025-01-26 18:49:54.236491	145.7	50.6	-92.6	6.7
2025-01-26 18:49:56.538421	145.6	51.4	-93.0	11.9
2025-01-26 18:49:58.847873	145.4	52.2	-92.9	16.7
2025-01-26 18:50:01.146514	145.3	53.0	-92.7	14.8
2025-01-26 18:50:03.412429	145.1	53.8	-92.5	12.7
2025-01-26 18:50:05.653585	144.9	54.6	-92.8	18.8
2025-01-26 18:50:07.895700	144.7	55.4	-92.8	19.8
2025-01-26 18:50:10.137100	144.5	56.2	-92.5	18.1
2025-01-26 18:50:12.385292	144.3	57.1	-92.4	10.6
2025-01-26 18:50:14.691675	144.1	57.9	-91.3	16.8
2025-01-26 18:50:16.992866	143.9	58.8	-91.3	12.4
2025-01-26 18:50:19.304451	143.6	59.7	-92.5	17.5
2025-01-26 18:50:21.619006	143.3	60.6	-92.9	15.7
2025-01-26 18:50:23.889637	143.0	61.5	-92.7	18.4
2025-01-26 18:50:26.177697	142.7	62.5	-92.5	21.3
2025-01-26 18:50:28.470948	142.3	63.4	-92.2	12.7
2025-01-26 18:50:30.782393	141.9	64.4	-92.8	18.9
2025-01-26 18:50:33.092903	141.5	65.4	-92.3	19.8
2025-01-26 18:50:35.419320	141.0	66.3	-92.8	18.7
2025-01-26 18:50:37.722885	140.5	67.3	-93.1	20.3
2025-01-26 18:50:40.038481	139.9	68.3	-93.1	12.5
2025-01-26 18:50:42.345544	139.3	69.4	-92.4	14.7
2025-01-26 18:50:44.663257	138.6	70.4	-92.5	20.8
2025-01-26 18:50:46.962894	137.8	71.4	-92.8	17.2
2025-01-26 18:50:49.268951	136.9	72.4	-92.3	21.1
2025-01-26 18:50:51.577669	136.0	73.5	-92.8	20.1
2025-01-26 18:50:53.887277	134.8	74.5	-92.7	16.1
2025-01-26 18:50:56.205651	133.5	75.6	-92.3	20.2
2025-01-26 18:50:58.510082	132.0	76.6	-92.1	11.5
2025-01-26 18:51:00.816442	130.2	77.7	-92.8	22.6
2025-01-26 18:51:03.149726	128.0	78.7	-92.6	16.5
2025-01-26 18:51:05.469464	125.4	79.7	-93.3	24.0
2025-01-26 18:51:07.780175	122.2	80.7	-92.4	24.2
2025-01-26 18:51:10.106945	118.3	81.7	-92.8	25.1
2025-01-26 18:51:12.424884	113.3	82.6	-92.6	23.3
2025-01-26 18:51:14.736134	106.9	83.5	-92.7	24.9
2025-01-26 18:51:17.046719	98.7	84.2	-92.4	17.6
2025-01-26 18:51:19.354477	88.4	84.9	-90.8	14.6
2025-01-26 18:51:21.659545	75.8	85.3	-91.7	22.4
2025-01-26 18:51:23.972398	61.6	85.4	-92.3	13.9
2025-01-26 18:51:26.281313	47.5	85.2	-92.2	25.6
2025-01-26 18:51:28.549239	35.2	84.8	-92.7	13.2
2025-01-26 18:51:30.791752	25.1	84.3	-92.6	24.1
2025-01-26 18:51:33.033547	17.2	83.5	-92.3	14.2
2025-01-26 18:51:35.275468	10.9	82.7	-92.5	22.8
2025-01-26 18:51:37.521317	6.0	81.8	-92.6	18.0
2025-01-26 18:51:39.809138	2.0	80.8	-92.4	21.3
2025-01-26 18:51:42.111282	358.8	79.8	-92.6	20.5
2025-01-26 18:51:44.413711	356.1	78.8	-92.5	19.2
2025-01-26 18:51:46.714499	353.9	77.8	-92.3	21.0
2025-01-26 18:51:48.987477	352.1	76.8	-92.7	19.8
2025-01-26 18:51:51.277899	350.6	75.7	-92.2	18.1
2025-01-26 18:51:53.564615	349.2	74.7	-92.6	14.2
2025-01-26 18:51:55.852407	348.1	73.7	-92.6	16.6
2025-01-26 18:51:58.123394	347.1	72.6	-92.1	15.9
2025-01-26 18:52:00.404456	346.2	71.6	-92.3	15.6
2025-01-26 18:52:02.715550	345.4	70.6	-92.6	16.6
2025-01-26 18:52:05.026554	344.7	69.6	-92.7	14.6
2025-01-26 18:52:07.338384	344.0	68.5	-92.6	18.4
2025-01-26 18:52:09.652042	343.4	67.5	-92.6	20.0
2025-01-26 18:52:11.958512	342.9	66.5	-92.4	17.1
2025-01-26 18:52:14.268380	342.4	65.6	-92.6	20.8
2025-01-26 18:52:16.578843	342.0	64.6	-92.7	14.8
2025-01-26 18:52:18.881785	341.6	63.6	-92.8	12.8
2025-01-26 18:52:21.189904	341.2	62.7	-92.3	22.4
2025-01-26 18:52:23.484459	340.9	61.7	-91.7	11.2
2025-01-26 18:52:25.795623	340.6	60.8	-91.5	18.5
2025-01-26 18:52:28.100565	340.3	59.9	-92.7	12.6
2025-01-26 18:52:30.410515	340.0	59.0	-92.9	12.7
2025-01-26 18:52:32.723108	339.8	58.1	-92.8	17.5
2025-01-26 18:52:35.039958	339.5	57.2	-92.8	15.1
2025-01-26 18:52:37.348050	339.3	56.3	-92.3	13.4
2025-01-26 18:52:39.671908	339.1	55.5	-92.9	17.8
2025-01-26 18:52:41.976495	338.9	54.7	-93.0	17.5
2025-01-26 18:52:44.284723	338.7	53.8	-92.7	10.5
2025-01-26 18:52:46.584435	338.6	53.0	-92.7	13.2
2025-01-26 18:52:48.884047	338.4	52.2	-93.1	14.9
2025-01-26 18:52:51.194301	338.2	51.4	-92.8	10.4
2025-01-26 18:52:53.505570	338.1	50.7	-92.7	11.3
2025-01-26 18:52:55.817792	338.0	49.9	-92.5	18.2
2025-01-26 18:52:58.126145	337.8	49.1	-92.6	13.3
2025-01-26 18:53:00.434134	337.7	48.4	-92.9	12.8
2025-01-26 18:53:02.747345	337.6	47.7	-92.7	17.5
2025-01-26 18:53:05.061748	337.5	47.0	-92.1	19.7
2025-01-26 18:53:07.363019	337.4	46.3	-92.5	20.1
2025-01-26 18:53:09.671212	337.3	45.6	-92.8	15.3
2025-01-26 18:53:11.932034	337.2	44.9	-92.8	16.6
2025-01-26 18:53:14.175205	337.1	44.2	-92.7	19.7
2025-01-26 18:53:16.416665	337.0	43.6	-92.7	16.3
2025-01-26 18:53:18.657268	336.9	43.0	-92.6	14.1
2025-01-26 18:53:20.903696	336.8	42.4	-92.5	17.8
2025-01-26 18:53:23.195437	336.8	41.7	-92.5	19.7
2025-01-26 18:53:25.470850	336.7	41.1	-93.1	20.7
2025-01-26 18:53:27.768637	336.6	40.5	-91.1	18.1
2025-01-26 18:53:30.072574	336.5	39.9	-91.5	16.1
2025-01-26 18:53:32.364005	336.5	39.4	-92.4	11.5
2025-01-26 18:53:34.684120	336.4	38.8	-92.7	18.0
2025-01-26 18:53:37.001577	336.4	38.2	-92.7	12.3
2025-01-26 18:53:39.307843	336.3	37.6	-92.3	16.8
2025-01-26 18:53:41.612048	336.2	37.1	-92.5	16.0
2025-01-26 18:53:43.932260	336.2	36.6	-92.6	14.9
2025-01-26 18:53:46.238176	336.1	36.0	-91.9	16.6
2025-01-26 18:53:48.547893	336.1	35.5	-92.6	15.4
2025-01-26 18:53:50.849574	336.0	35.0	-92.5	17.3
2025-01-26 18:53:53.142138	336.0	34.5	-92.5	14.9
2025-01-26 18:53:55.454261	335.9	34.0	-93.1	14.8
2025-01-26 18:53:57.759072	335.9	33.5	-92.4	14.3
2025-01-26 18:54:00.067366	335.9	33.0	-92.5	16.1
2025-01-26 18:54:02.376552	335.8	32.5	-92.6	17.0
2025-01-26 18:54:04.685972	335.8	32.1	-92.8	15.7
2025-01-26 18:54:06.994524	335.7	31.6	-92.6	8.6
2025-01-26 18:54:09.302135	335.7	31.2	-92.4	15.2
2025-01-26 18:54:11.614727	335.7	30.7	-92.7	13.2
2025-01-26 18:54:13.928431	335.6	30.3	-92.6	14.4
2025-01-26 18:54:16.238766	335.6	29.8	-92.1	15.9
2025-01-26 18:54:18.538414	335.6	29.4	-92.6	16.5
2025-01-26 18:54:20.856705	335.5	29.0	-92.6	15.8
2025-01-26 18:54:23.165303	335.5	28.6	-92.4	16.0
2025-01-26 18:54:25.465323	335.5	28.2	-92.1	12.9
2025-01-26 18:54:27.780735	335.5	27.8	-92.4	15.2
2025-01-26 18:54:30.081484	335.4	27.4	-92.5	13.9
2025-01-26 18:54:32.388230	335.4	27.0	-91.0	12.5
2025-01-26 18:54:34.703573	335.4	26.6	-91.5	14.4
2025-01-26 18:54:37.004808	335.4	26.2	-92.8	8.5
2025-01-26 18:54:39.320692	335.3	25.8	-92.7	13.4
2025-01-26 18:54:41.623046	335.3	25.5	-92.5	13.7
2025-01-26 18:54:43.906043	335.3	25.1	-92.4	14.7
2025-01-26 18:54:46.149833	335.3	24.8	-92.2	14.4
2025-01-26 18:54:48.391084	335.3	24.4	-92.4	13.0
2025-01-26 18:54:50.635756	335.2	24.1	-92.5	11.7
2025-01-26 18:54:52.880602	335.2	23.7	-92.7	11.6
2025-01-26 18:54:55.130971	335.2	23.4	-92.4	14.6
2025-01-26 18:54:57.416145	335.2	23.1	-92.7	13.3
2025-01-26 18:54:59.718071	335.2	22.7	-92.9	15.4
2025-01-26 18:55:02.009323	335.2	22.4	-92.5	12.7
2025-01-26 18:55:04.318252	335.1	22.1	-92.6	11.1
2025-01-26 18:55:06.630111	335.1	21.8	-92.4	8.6
2025-01-26 18:55:08.902572	335.1	21.4	-92.2	8.2
2025-01-26 18:55:11.196523	335.1	21.1	-92.7	8.9
2025-01-26 18:55:13.490588	335.1	20.8	-92.6	10.4
2025-01-26 18:55:15.793119	335.1	20.5	-92.7	6.2
2025-01-26 18:55:18.092553	335.0	20.2	-92.2	3.0
2025-01-26 18:55:20.404014	335.0	19.9	-92.5	5.2
2025-01-26 18:55:22.709385	335.0	19.6	-92.9	6.3
2025-01-26 18:55:25.016598	335.0	19.3	-93.0	6.8
2025-01-26 18:55:27.285624	335.0	19.0	-92.5	5.6
2025-01-26 18:55:29.571843	335.0	18.8	-93.1	5.6
2025-01-26 18:55:31.868901	335.0	18.5	-92.7	8.8
2025-01-26 18:55:34.136063	335.0	18.2	-92.3	7.0
2025-01-26 18:55:36.424409	335.0	17.9	-91.6	5.6
2025-01-26 18:55:38.717530	334.9	17.7	-91.2	7.4
2025-01-26 18:55:41.022628	334.9	17.4	-92.6	8.0
2025-01-26 18:55:43.331090	334.9	17.1	-92.4	10.2
2025-01-26 18:55:45.641089	334.9	16.9	-92.8	11.2
2025-01-26 18:55:47.951997	334.9	16.6	-92.9	10.3
2025-01-26 18:55:50.268663	334.9	16.3	-92.7	8.8
2025-01-26 18:55:52.575505	334.9	16.1	-93.0	10.0
2025-01-26 18:55:54.880967	334.9	15.8	-92.7	6.6
2025-01-26 18:55:57.180212	334.9	15.6	-92.6	9.9
2025-01-26 18:55:59.489550	334.9	15.3	-93.2	10.4
2025-01-26 18:56:01.786873	334.9	15.1	-92.6	10.6
2025-01-26 18:56:04.091500	334.9	14.9	-92.4	10.1
2025-01-26 18:56:06.403087	334.9	14.6	-92.6	8.7
#Closed at: 2025-01-26 18:46:50.034850