passes_logs/2025/01/26/LEX_Murmansk/LEX_Murmansk__20250126_084700_NOAA_18_rec.log

#Pass ID: 20250126_084700_NOAA 18
#Satellite: NOAA 18
#Configuration: NOAA 18
#Start time: 2025-01-26 08:46:55.712812

#LorettStation: 1.0.0 05.05.2024
#Station: LEX_Murmansk
#Location: 33.156738 lon 68.926811 lat
#TLE: 1 28654U 05018A   25024.86051977  .00000457  00000+0  26618-3 0  9996
#TLE: 2 28654  98.8552 105.8163 0014791 151.8936 208.3038 14.13496337 14496

#Time	Az	El	Level	SNR
2025-01-26 08:47:07.998186	31.8	16.2	-92.0	4.3
2025-01-26 08:47:09.146168	31.9	16.3	-92.3	5.1
2025-01-26 08:47:10.304669	32.1	16.4	-92.2	5.8
2025-01-26 08:47:11.459497	32.2	16.5	-91.8	5.2
2025-01-26 08:47:12.609284	32.3	16.7	-91.8	6.4
2025-01-26 08:47:13.767344	32.4	16.8	-92.4	6.8
2025-01-26 08:47:14.935538	32.5	16.9	-92.7	8.6
2025-01-26 08:47:16.096508	32.6	17.0	-92.5	7.6
2025-01-26 08:47:17.252161	32.7	17.1	-92.2	7.5
2025-01-26 08:47:18.414731	32.9	17.3	-92.0	6.7
2025-01-26 08:47:19.563854	33.0	17.4	-92.4	6.1
2025-01-26 08:47:20.715979	33.1	17.5	-92.0	6.2
2025-01-26 08:47:21.875120	33.2	17.6	-92.6	7.2
2025-01-26 08:47:23.028036	33.3	17.7	-92.2	4.3
2025-01-26 08:47:24.188025	33.4	17.9	-92.1	7.5
2025-01-26 08:47:25.338957	33.6	18.0	-92.3	8.3
2025-01-26 08:47:26.490354	33.7	18.1	-92.4	7.2
2025-01-26 08:47:27.641185	33.8	18.2	-92.5	10.6
2025-01-26 08:47:28.792632	33.9	18.3	-92.4	13.8
2025-01-26 08:47:29.943673	34.1	18.5	-91.7	9.3
2025-01-26 08:47:31.094614	34.2	18.6	-92.0	8.5
2025-01-26 08:47:32.251379	34.3	18.7	-92.1	12.8
2025-01-26 08:47:33.410366	34.4	18.8	-92.2	9.5
2025-01-26 08:47:34.568358	34.6	19.0	-92.5	9.3
2025-01-26 08:47:35.728070	34.7	19.1	-92.7	9.9
2025-01-26 08:47:36.877309	34.8	19.2	-92.8	8.4
2025-01-26 08:47:38.025075	35.0	19.3	-92.9	9.7
2025-01-26 08:47:39.173766	35.1	19.5	-92.2	8.9
2025-01-26 08:47:40.299572	35.2	19.6	-92.5	10.0
2025-01-26 08:47:41.419923	35.4	19.7	-92.3	9.8
2025-01-26 08:47:42.540896	35.5	19.8	-92.3	7.2
2025-01-26 08:47:43.662020	35.6	20.0	-92.3	11.4
2025-01-26 08:47:44.782993	35.8	20.1	-92.2	12.4
2025-01-26 08:47:45.904865	35.9	20.2	-92.8	12.2
2025-01-26 08:47:47.025329	36.0	20.3	-92.4	13.5
2025-01-26 08:47:48.145652	36.2	20.5	-92.5	13.3
2025-01-26 08:47:49.267253	36.3	20.6	-92.6	14.2
2025-01-26 08:47:50.399620	36.4	20.7	-92.5	10.7
2025-01-26 08:47:51.555392	36.6	20.9	-92.5	11.6
2025-01-26 08:47:52.711073	36.7	21.0	-92.5	12.8
2025-01-26 08:47:53.867031	36.9	21.1	-92.1	12.8
2025-01-26 08:47:55.015932	37.0	21.3	-92.0	11.4
2025-01-26 08:47:56.173896	37.2	21.4	-91.1	11.4
2025-01-26 08:47:57.330421	37.3	21.5	-92.3	11.9
2025-01-26 08:47:58.482679	37.5	21.7	-92.3	10.4
2025-01-26 08:47:59.644166	37.6	21.8	-92.1	11.5
2025-01-26 08:48:00.800082	37.8	21.9	-91.1	11.1
2025-01-26 08:48:01.961003	38.0	22.1	-91.1	11.2
2025-01-26 08:48:03.122834	38.1	22.2	-91.3	12.6
2025-01-26 08:48:04.275378	38.3	22.4	-91.7	15.3
2025-01-26 08:48:05.432615	38.4	22.5	-91.4	11.9
2025-01-26 08:48:06.583181	38.6	22.6	-92.4	13.3
2025-01-26 08:48:07.740344	38.8	22.8	-92.2	15.0
2025-01-26 08:48:08.886928	38.9	22.9	-92.5	14.6
2025-01-26 08:48:10.032697	39.1	23.1	-92.8	13.0
2025-01-26 08:48:11.185808	39.3	23.2	-92.4	12.8
2025-01-26 08:48:12.338530	39.4	23.3	-92.6	14.0
2025-01-26 08:48:13.491989	39.6	23.5	-92.3	10.7
2025-01-26 08:48:14.651304	39.8	23.6	-92.4	11.1
2025-01-26 08:48:15.805675	39.9	23.8	-92.3	12.4
2025-01-26 08:48:16.964595	40.1	23.9	-92.6	10.2
2025-01-26 08:48:18.126795	40.3	24.1	-91.8	10.0
2025-01-26 08:48:19.275774	40.5	24.2	-92.3	12.9
2025-01-26 08:48:20.442268	40.7	24.4	-92.1	13.5
2025-01-26 08:48:21.596293	40.8	24.5	-92.7	14.9
2025-01-26 08:48:22.741989	41.0	24.7	-92.7	13.8
2025-01-26 08:48:23.907415	41.2	24.8	-92.6	10.8
2025-01-26 08:48:25.059732	41.4	25.0	-92.5	8.4
2025-01-26 08:48:26.224583	41.6	25.1	-92.2	12.5
2025-01-26 08:48:27.376840	41.8	25.3	-92.4	9.3
2025-01-26 08:48:28.523255	42.0	25.4	-92.1	10.8
2025-01-26 08:48:29.673344	42.2	25.6	-92.5	14.1
2025-01-26 08:48:30.824183	42.4	25.7	-92.7	10.2
2025-01-26 08:48:31.989186	42.6	25.9	-92.5	9.3
2025-01-26 08:48:33.147007	42.8	26.0	-92.2	14.1
2025-01-26 08:48:34.296456	43.0	26.2	-92.6	12.5
2025-01-26 08:48:35.449886	43.2	26.3	-92.6	12.2
2025-01-26 08:48:36.606517	43.4	26.5	-92.2	9.8
2025-01-26 08:48:37.753482	43.6	26.6	-92.4	12.7
2025-01-26 08:48:38.910157	43.8	26.8	-92.4	13.9
2025-01-26 08:48:40.073020	44.0	26.9	-92.1	11.8
2025-01-26 08:48:41.229369	44.2	27.1	-92.5	10.2
2025-01-26 08:48:42.386139	44.4	27.2	-92.3	9.7
2025-01-26 08:48:43.540641	44.6	27.4	-92.5	9.3
2025-01-26 08:48:44.696904	44.9	27.6	-92.4	10.2
2025-01-26 08:48:45.850990	45.1	27.7	-92.6	9.8
2025-01-26 08:48:47.005094	45.3	27.9	-92.7	8.6
2025-01-26 08:48:48.157940	45.5	28.0	-92.3	9.3
2025-01-26 08:48:49.321214	45.8	28.2	-92.3	10.1
2025-01-26 08:48:50.473601	46.0	28.3	-92.7	10.0
2025-01-26 08:48:51.627476	46.2	28.5	-92.5	9.2
2025-01-26 08:48:52.779221	46.5	28.7	-92.7	8.4
2025-01-26 08:48:53.933172	46.7	28.8	-92.4	8.2
2025-01-26 08:48:55.088716	46.9	29.0	-92.5	10.5
2025-01-26 08:48:56.246388	47.2	29.2	-92.5	10.1
2025-01-26 08:48:57.395832	47.4	29.3	-92.5	10.3
2025-01-26 08:48:58.549971	47.7	29.5	-92.3	8.8
2025-01-26 08:48:59.707415	47.9	29.6	-92.4	10.3
2025-01-26 08:49:00.858784	48.2	29.8	-92.4	10.1
2025-01-26 08:49:02.015667	48.4	30.0	-92.4	12.0
2025-01-26 08:49:03.180321	48.7	30.1	-92.4	12.7
2025-01-26 08:49:04.337506	48.9	30.3	-92.0	12.1
2025-01-26 08:49:05.488640	49.2	30.5	-92.3	11.7
2025-01-26 08:49:06.649501	49.5	30.6	-92.5	14.5
2025-01-26 08:49:07.804389	49.7	30.8	-92.6	17.0
2025-01-26 08:49:08.949413	50.0	30.9	-92.3	15.1
2025-01-26 08:49:10.107216	50.3	31.1	-92.4	14.6
2025-01-26 08:49:11.257901	50.5	31.3	-92.3	16.5
2025-01-26 08:49:12.423373	50.8	31.4	-92.0	11.4
2025-01-26 08:49:13.577412	51.1	31.6	-92.5	12.8
2025-01-26 08:49:14.732165	51.4	31.8	-92.5	10.8
2025-01-26 08:49:15.890406	51.7	31.9	-92.4	8.5
2025-01-26 08:49:17.041616	52.0	32.1	-92.6	8.9
2025-01-26 08:49:18.199360	52.2	32.3	-92.2	15.9
2025-01-26 08:49:19.353600	52.5	32.4	-92.5	16.3
2025-01-26 08:49:20.502962	52.8	32.6	-92.3	13.6
2025-01-26 08:49:21.659281	53.1	32.8	-92.2	17.1
2025-01-26 08:49:22.817904	53.4	32.9	-92.5	19.6
2025-01-26 08:49:23.974783	53.7	33.1	-92.3	19.7
2025-01-26 08:49:25.127916	54.1	33.3	-92.2	21.1
2025-01-26 08:49:26.280537	54.4	33.4	-92.3	20.9
2025-01-26 08:49:27.440407	54.7	33.6	-92.5	14.7
2025-01-26 08:49:28.591101	55.0	33.8	-91.6	13.7
2025-01-26 08:49:29.748715	55.3	33.9	-91.5	17.2
2025-01-26 08:49:30.881252	55.6	34.1	-91.5	14.9
2025-01-26 08:49:32.002203	56.0	34.3	-91.4	15.9
2025-01-26 08:49:33.123277	56.3	34.4	-91.1	16.2
2025-01-26 08:49:34.243928	56.6	34.6	-91.2	13.6
2025-01-26 08:49:35.364855	56.9	34.8	-92.3	14.9
2025-01-26 08:49:36.486552	57.3	34.9	-92.6	12.9
2025-01-26 08:49:37.607235	57.6	35.1	-92.7	12.3
2025-01-26 08:49:38.727818	58.0	35.2	-92.6	17.9
2025-01-26 08:49:39.851812	58.3	35.4	-92.8	13.5
2025-01-26 08:49:40.975769	58.6	35.6	-92.4	8.8
2025-01-26 08:49:42.120510	59.0	35.7	-92.5	14.9
2025-01-26 08:49:43.277136	59.4	35.9	-92.8	18.9
2025-01-26 08:49:44.425448	59.7	36.0	-92.3	16.7
2025-01-26 08:49:45.582765	60.1	36.2	-92.6	18.2
2025-01-26 08:49:46.733723	60.5	36.4	-92.6	19.3
2025-01-26 08:49:47.892375	60.8	36.5	-92.5	20.5
2025-01-26 08:49:49.042651	61.2	36.7	-92.6	19.2
2025-01-26 08:49:50.187188	61.6	36.9	-92.5	21.1
2025-01-26 08:49:51.337707	62.0	37.0	-92.1	20.5
2025-01-26 08:49:52.494169	62.4	37.2	-92.3	13.3
2025-01-26 08:49:53.643029	62.8	37.3	-92.7	20.4
2025-01-26 08:49:54.801844	63.2	37.5	-92.6	21.2
2025-01-26 08:49:55.958030	63.6	37.7	-92.6	17.3
2025-01-26 08:49:57.116478	64.0	37.8	-92.6	18.4
2025-01-26 08:49:58.268679	64.4	38.0	-92.7	20.9
2025-01-26 08:49:59.416155	64.8	38.1	-92.3	20.3
2025-01-26 08:50:00.564274	65.2	38.3	-92.6	20.5
2025-01-26 08:50:01.721827	65.7	38.4	-92.6	20.0
2025-01-26 08:50:02.879575	66.1	38.6	-92.6	15.0
2025-01-26 08:50:04.039978	66.5	38.7	-92.4	8.0
2025-01-26 08:50:05.205790	67.0	38.9	-92.3	19.0
2025-01-26 08:50:06.358217	67.4	39.0	-92.3	13.7
2025-01-26 08:50:07.508561	67.8	39.2	-92.8	9.6
2025-01-26 08:50:08.662767	68.3	39.3	-92.7	18.2
2025-01-26 08:50:09.819984	68.7	39.5	-92.8	18.8
2025-01-26 08:50:10.974414	69.2	39.6	-92.6	14.4
2025-01-26 08:50:12.133501	69.7	39.8	-92.6	19.4
2025-01-26 08:50:13.282835	70.1	39.9	-92.3	18.8
2025-01-26 08:50:14.435977	70.6	40.0	-92.6	17.4
2025-01-26 08:50:15.594949	71.1	40.2	-92.5	17.6
2025-01-26 08:50:16.742481	71.5	40.3	-92.8	19.8
2025-01-26 08:50:17.900927	72.0	40.4	-92.8	17.4
2025-01-26 08:50:19.056135	72.5	40.6	-92.7	15.5
2025-01-26 08:50:20.209117	73.0	40.7	-92.3	18.3
2025-01-26 08:50:21.362266	73.5	40.8	-92.5	13.9
2025-01-26 08:50:22.490670	73.9	41.0	-92.7	11.3
2025-01-26 08:50:23.611460	74.4	41.1	-92.9	15.3
2025-01-26 08:50:24.732216	74.9	41.2	-92.7	17.6
2025-01-26 08:50:25.851977	75.4	41.3	-92.8	17.1
2025-01-26 08:50:26.972389	75.9	41.4	-92.6	17.6
2025-01-26 08:50:28.093481	76.4	41.5	-92.8	15.2
2025-01-26 08:50:29.214470	76.9	41.6	-92.7	14.7
2025-01-26 08:50:30.334621	77.4	41.8	-92.6	15.0
2025-01-26 08:50:31.460241	77.9	41.9	-92.8	17.1
2025-01-26 08:50:32.589365	78.4	42.0	-92.6	16.4
2025-01-26 08:50:33.744881	79.0	42.1	-92.6	18.4
2025-01-26 08:50:34.897026	79.5	42.2	-92.7	13.5
2025-01-26 08:50:36.056896	80.0	42.3	-92.6	13.3
2025-01-26 08:50:37.209184	80.6	42.4	-92.4	17.9
2025-01-26 08:50:38.362609	81.1	42.5	-92.5	12.3
2025-01-26 08:50:39.514013	81.7	42.6	-92.4	8.9
2025-01-26 08:50:40.660107	82.2	42.7	-92.4	13.6
2025-01-26 08:50:41.812559	82.7	42.8	-92.9	14.8
2025-01-26 08:50:42.965077	83.3	42.8	-92.5	9.5
2025-01-26 08:50:44.111837	83.9	42.9	-92.2	12.6
2025-01-26 08:50:45.265948	84.4	43.0	-92.3	15.5
2025-01-26 08:50:46.413596	85.0	43.1	-92.5	13.2
2025-01-26 08:50:47.570925	85.5	43.2	-92.7	12.5
2025-01-26 08:50:48.728708	86.1	43.2	-92.8	17.4
2025-01-26 08:50:49.873301	86.7	43.3	-92.3	18.1
2025-01-26 08:50:51.018648	87.3	43.4	-92.6	18.3
2025-01-26 08:50:52.143301	87.8	43.4	-92.1	18.2
2025-01-26 08:50:53.294100	88.4	43.5	-92.4	19.4
2025-01-26 08:50:54.435652	89.0	43.5	-92.5	19.0
2025-01-26 08:50:55.592330	89.5	43.6	-92.4	18.0
2025-01-26 08:50:56.738691	90.1	43.6	-92.7	20.3
2025-01-26 08:50:57.900550	90.7	43.7	-91.1	15.5
2025-01-26 08:50:59.048882	91.3	43.7	-91.4	13.8
2025-01-26 08:51:00.198314	91.9	43.8	-91.0	16.0
2025-01-26 08:51:01.353505	92.5	43.8	-91.3	15.3
2025-01-26 08:51:02.507791	93.1	43.8	-91.2	11.5
2025-01-26 08:51:03.663136	93.7	43.9	-90.9	16.3
2025-01-26 08:51:04.806084	94.3	43.9	-91.1	18.6
2025-01-26 08:51:05.973027	94.9	43.9	-92.6	15.2
2025-01-26 08:51:07.129755	95.5	43.9	-92.4	17.8
2025-01-26 08:51:08.291805	96.1	44.0	-92.2	17.3
2025-01-26 08:51:09.444872	96.6	44.0	-92.3	11.6
2025-01-26 08:51:10.596878	97.2	44.0	-92.6	14.7
2025-01-26 08:51:11.749313	97.8	44.0	-92.1	17.6
2025-01-26 08:51:12.902271	98.4	44.0	-91.6	15.3
2025-01-26 08:51:14.058506	99.0	44.0	-92.0	14.1
2025-01-26 08:51:15.213571	99.6	44.0	-92.6	21.2
2025-01-26 08:51:16.362708	100.2	44.0	-91.2	15.7
2025-01-26 08:51:17.513681	100.8	44.0	-91.5	16.2
2025-01-26 08:51:18.668172	101.4	44.0	-92.8	17.5
2025-01-26 08:51:19.827806	102.0	43.9	-92.5	17.5
2025-01-26 08:51:20.978286	102.6	43.9	-92.0	16.7
2025-01-26 08:51:22.130844	103.2	43.9	-91.6	17.4
2025-01-26 08:51:23.287428	103.8	43.9	-91.4	18.0
2025-01-26 08:51:24.446879	104.4	43.8	-92.1	17.6
2025-01-26 08:51:25.599029	105.0	43.8	-91.7	16.0
2025-01-26 08:51:26.744604	105.6	43.8	-91.2	11.9
2025-01-26 08:51:27.911195	106.2	43.7	-92.4	14.6
2025-01-26 08:51:29.066886	106.8	43.7	-92.3	13.9
2025-01-26 08:51:30.225993	107.4	43.6	-92.6	15.9
2025-01-26 08:51:31.377847	107.9	43.6	-91.5	15.9
2025-01-26 08:51:32.532120	108.5	43.5	-92.2	14.4
2025-01-26 08:51:33.686768	109.1	43.5	-91.7	15.3
2025-01-26 08:51:34.838071	109.7	43.4	-91.4	17.4
2025-01-26 08:51:35.992566	110.3	43.4	-92.2	16.1
2025-01-26 08:51:37.140223	110.8	43.3	-91.8	16.2
2025-01-26 08:51:38.297818	111.4	43.2	-91.5	17.8
2025-01-26 08:51:39.451420	112.0	43.2	-90.8	16.4
2025-01-26 08:51:40.606706	112.6	43.1	-91.8	19.6
2025-01-26 08:51:41.758213	113.1	43.0	-92.4	20.7
2025-01-26 08:51:42.914567	113.7	42.9	-91.6	17.0
2025-01-26 08:51:44.063744	114.2	42.8	-90.6	15.7
2025-01-26 08:51:45.211934	114.8	42.8	-90.4	19.5
2025-01-26 08:51:46.364931	115.3	42.7	-90.0	16.4
2025-01-26 08:51:47.511646	115.9	42.6	-90.8	16.0
2025-01-26 08:51:48.663070	116.4	42.5	-91.9	19.9
2025-01-26 08:51:49.812380	117.0	42.4	-89.5	16.3
2025-01-26 08:51:50.964157	117.5	42.3	-91.8	14.4
2025-01-26 08:51:52.122210	118.1	42.2	-89.2	13.9
2025-01-26 08:51:53.283566	118.6	42.1	-90.8	14.9
2025-01-26 08:51:54.435732	119.1	42.0	-89.1	11.6
2025-01-26 08:51:55.595747	119.7	41.9	-89.4	14.0
2025-01-26 08:51:56.745263	120.2	41.8	-92.1	15.7
2025-01-26 08:51:57.895617	120.7	41.6	-91.8	10.5
2025-01-26 08:51:59.046647	121.2	41.5	-92.2	9.6
2025-01-26 08:52:00.195859	121.7	41.4	-91.9	12.2
2025-01-26 08:52:01.347663	122.2	41.3	-92.5	13.2
2025-01-26 08:52:02.499485	122.7	41.2	-90.9	11.7
2025-01-26 08:52:03.653016	123.2	41.0	-92.2	18.0
2025-01-26 08:52:04.804192	123.7	40.9	-91.2	14.5
2025-01-26 08:52:05.961570	124.2	40.8	-91.3	12.6
2025-01-26 08:52:07.117266	124.7	40.7	-92.3	15.9
2025-01-26 08:52:08.268721	125.2	40.5	-92.2	17.0
2025-01-26 08:52:09.416191	125.7	40.4	-91.6	13.3
2025-01-26 08:52:10.569109	126.2	40.3	-89.4	10.2
2025-01-26 08:52:11.722131	126.6	40.1	-92.4	17.4
2025-01-26 08:52:12.881437	127.1	40.0	-92.2	15.7
2025-01-26 08:52:14.035203	127.6	39.9	-92.5	13.2
2025-01-26 08:52:15.194705	128.1	39.7	-92.3	12.5
2025-01-26 08:52:16.348339	128.5	39.6	-91.1	12.5
2025-01-26 08:52:17.504569	129.0	39.4	-92.1	9.2
2025-01-26 08:52:18.657724	129.4	39.3	-91.1	9.9
2025-01-26 08:52:19.804927	129.9	39.1	-91.4	12.2
2025-01-26 08:52:20.968951	130.3	39.0	-92.5	15.0
2025-01-26 08:52:22.119950	130.8	38.8	-91.9	14.3
2025-01-26 08:52:23.271608	131.2	38.7	-91.1	16.1
2025-01-26 08:52:24.424312	131.6	38.5	-91.7	18.6
2025-01-26 08:52:25.575752	132.0	38.4	-90.8	17.5
2025-01-26 08:52:26.730812	132.5	38.2	-92.3	17.7
2025-01-26 08:52:27.889350	132.9	38.1	-89.8	15.9
2025-01-26 08:52:29.047077	133.3	37.9	-90.2	15.3
2025-01-26 08:52:30.198186	133.7	37.8	-88.2	15.3
2025-01-26 08:52:31.347910	134.1	37.6	-91.0	16.2
2025-01-26 08:52:32.504323	134.5	37.4	-91.6	14.0
2025-01-26 08:52:33.654599	134.9	37.3	-92.4	17.7
2025-01-26 08:52:34.811168	135.3	37.1	-90.0	17.4
2025-01-26 08:52:35.955888	135.7	37.0	-89.6	11.4
2025-01-26 08:52:37.103436	136.1	36.8	-90.3	14.4
2025-01-26 08:52:38.252807	136.5	36.6	-90.4	16.1
2025-01-26 08:52:39.403063	136.9	36.5	-88.8	13.2
2025-01-26 08:52:40.556505	137.2	36.3	-89.8	9.2
2025-01-26 08:52:41.709630	137.6	36.2	-89.3	15.8
2025-01-26 08:52:42.859033	138.0	36.0	-87.3	10.7
2025-01-26 08:52:44.011448	138.4	35.8	-90.7	9.0
2025-01-26 08:52:45.171195	138.7	35.7	-91.1	16.0
2025-01-26 08:52:46.326516	139.1	35.5	-90.4	14.3
2025-01-26 08:52:47.485707	139.4	35.3	-91.3	9.4
2025-01-26 08:52:48.636656	139.8	35.2	-90.0	15.5
2025-01-26 08:52:49.782651	140.1	35.0	-91.3	15.2
2025-01-26 08:52:50.939115	140.5	34.8	-89.5	11.1
2025-01-26 08:52:52.080606	140.8	34.7	-88.4	9.2
2025-01-26 08:52:53.200748	141.2	34.5	-87.0	9.9
2025-01-26 08:52:54.320603	141.5	34.3	-89.5	12.1
2025-01-26 08:52:55.441541	141.8	34.2	-90.8	11.9
2025-01-26 08:52:56.561484	142.1	34.0	-89.2	12.6
2025-01-26 08:52:57.682509	142.4	33.8	-87.0	13.1
2025-01-26 08:52:58.802600	142.7	33.7	-90.2	12.0
2025-01-26 08:52:59.924779	143.1	33.5	-91.4	11.1
2025-01-26 08:53:01.049221	143.4	33.4	-89.3	11.5
2025-01-26 08:53:02.170226	143.7	33.2	-90.8	14.2
2025-01-26 08:53:03.322034	144.0	33.0	-91.6	15.0
2025-01-26 08:53:04.473472	144.3	32.9	-89.8	11.4
2025-01-26 08:53:05.618730	144.6	32.7	-90.0	11.8
2025-01-26 08:53:06.760610	144.9	32.5	-90.6	12.3
2025-01-26 08:53:07.914847	145.2	32.4	-85.8	10.6
2025-01-26 08:53:09.066088	145.5	32.2	-85.3	9.1
2025-01-26 08:53:10.222333	145.8	32.0	-86.3	7.3
2025-01-26 08:53:11.368641	146.1	31.9	-84.9	8.4
2025-01-26 08:53:12.522221	146.3	31.7	-86.4	8.6
2025-01-26 08:53:13.673939	146.6	31.5	-88.4	6.9
2025-01-26 08:53:14.827219	146.9	31.4	-88.4	10.7
2025-01-26 08:53:15.981284	147.2	31.2	-88.2	7.9
2025-01-26 08:53:17.134427	147.5	31.0	-89.3	10.7
2025-01-26 08:53:18.292313	147.7	30.9	-87.1	6.5
2025-01-26 08:53:19.438403	148.0	30.7	-87.5	9.6
2025-01-26 08:53:20.592340	148.3	30.5	-89.5	8.1
2025-01-26 08:53:21.745524	148.5	30.4	-87.3	7.9
2025-01-26 08:53:22.893448	148.8	30.2	-89.1	9.1
2025-01-26 08:53:24.048480	149.1	30.0	-88.6	7.4
2025-01-26 08:53:25.203334	149.3	29.9	-88.5	8.1
2025-01-26 08:53:26.358157	149.6	29.7	-88.0	10.0
2025-01-26 08:53:27.513177	149.8	29.5	-88.3	11.2
2025-01-26 08:53:28.666893	150.1	29.4	-89.3	9.9
2025-01-26 08:53:29.823158	150.3	29.2	-89.1	11.9
2025-01-26 08:53:30.974459	150.6	29.0	-91.8	9.9
2025-01-26 08:53:32.125367	150.8	28.9	-90.7	8.7
2025-01-26 08:53:33.286702	151.0	28.7	-91.4	9.5
2025-01-26 08:53:34.446566	151.3	28.6	-91.6	9.9
2025-01-26 08:53:35.594848	151.5	28.4	-91.7	8.6
2025-01-26 08:53:36.735955	151.7	28.2	-90.2	7.3
2025-01-26 08:53:37.886380	152.0	28.1	-88.9	10.4
2025-01-26 08:53:39.036941	152.2	27.9	-92.1	10.4
2025-01-26 08:53:40.190702	152.4	27.8	-89.6	10.2
2025-01-26 08:53:41.339551	152.6	27.6	-91.7	9.8
2025-01-26 08:53:42.486787	152.9	27.4	-92.3	9.8
2025-01-26 08:53:43.642419	153.1	27.3	-92.7	10.5
2025-01-26 08:53:44.796291	153.3	27.1	-90.3	9.8
2025-01-26 08:53:45.950931	153.5	27.0	-91.7	10.1
2025-01-26 08:53:47.073473	153.7	26.8	-89.3	10.9
2025-01-26 08:53:48.195908	153.9	26.7	-90.7	11.9
2025-01-26 08:53:49.316380	154.1	26.5	-91.5	12.5
2025-01-26 08:53:50.437098	154.3	26.4	-92.2	9.9
2025-01-26 08:53:51.561202	154.5	26.2	-90.6	8.7
2025-01-26 08:53:52.680668	154.7	26.1	-92.6	11.2
2025-01-26 08:53:53.800502	154.9	25.9	-92.6	12.2
2025-01-26 08:53:54.920908	155.1	25.8	-92.4	10.5
2025-01-26 08:53:56.047549	155.3	25.6	-92.4	11.3
2025-01-26 08:53:57.191261	155.5	25.5	-91.7	14.2
2025-01-26 08:53:58.342672	155.7	25.3	-91.4	12.9
2025-01-26 08:53:59.490983	155.9	25.2	-91.9	12.5
2025-01-26 08:54:00.634531	156.1	25.0	-92.4	13.7
2025-01-26 08:54:01.780709	156.3	24.9	-92.5	12.2
2025-01-26 08:54:02.938735	156.5	24.7	-92.7	10.6
2025-01-26 08:54:04.098552	156.7	24.6	-91.8	9.3
2025-01-26 08:54:05.254823	156.8	24.4	-90.8	9.3
2025-01-26 08:54:06.408451	157.0	24.3	-92.6	9.5
2025-01-26 08:54:07.554387	157.2	24.1	-91.4	7.7
2025-01-26 08:54:08.705648	157.4	24.0	-91.5	9.9
2025-01-26 08:54:09.857468	157.6	23.8	-92.9	9.6
2025-01-26 08:54:11.014400	157.7	23.7	-92.9	10.5
2025-01-26 08:54:12.168867	157.9	23.5	-92.3	10.8
2025-01-26 08:54:13.323102	158.1	23.4	-92.4	10.6
2025-01-26 08:54:14.475490	158.3	23.3	-92.3	9.0
2025-01-26 08:54:15.629732	158.4	23.1	-92.2	11.5
2025-01-26 08:54:16.791000	158.6	23.0	-92.7	11.6
2025-01-26 08:54:17.936709	158.8	22.8	-91.4	9.5
2025-01-26 08:54:19.090214	158.9	22.7	-91.7	5.5
2025-01-26 08:54:20.236919	159.1	22.5	-91.2	6.8
2025-01-26 08:54:21.381707	159.2	22.4	-91.4	5.7
2025-01-26 08:54:22.534989	159.4	22.3	-91.6	7.0
2025-01-26 08:54:23.681837	159.6	22.1	-90.9	8.2
2025-01-26 08:54:24.826532	159.7	22.0	-91.4	9.7
2025-01-26 08:54:25.978591	159.9	21.8	-92.9	9.6
2025-01-26 08:54:27.134205	160.0	21.7	-92.7	11.1
2025-01-26 08:54:28.294232	160.2	21.6	-92.5	10.9
2025-01-26 08:54:29.449582	160.3	21.4	-92.9	8.9
2025-01-26 08:54:30.604686	160.5	21.3	-92.4	10.0
2025-01-26 08:54:31.760060	160.7	21.2	-92.5	10.2
2025-01-26 08:54:32.908832	160.8	21.0	-92.8	8.2
2025-01-26 08:54:34.060388	160.9	20.9	-93.0	7.3
2025-01-26 08:54:35.209177	161.1	20.8	-92.7	11.5
2025-01-26 08:54:36.354711	161.2	20.6	-92.9	9.7
2025-01-26 08:54:37.505867	161.4	20.5	-92.6	8.0
2025-01-26 08:54:38.661484	161.5	20.4	-92.8	9.5
2025-01-26 08:54:39.813636	161.7	20.2	-93.0	8.6
2025-01-26 08:54:40.965035	161.8	20.1	-93.0	8.1
2025-01-26 08:54:42.119500	161.9	20.0	-92.4	8.9
2025-01-26 08:54:43.273316	162.1	19.8	-92.9	8.5
2025-01-26 08:54:44.425879	162.2	19.7	-92.4	6.9
2025-01-26 08:54:45.585141	162.4	19.6	-92.5	3.7
2025-01-26 08:54:46.734574	162.5	19.4	-92.9	6.5
2025-01-26 08:54:47.891631	162.6	19.3	-93.0	7.4
2025-01-26 08:54:49.043539	162.8	19.2	-92.7	4.6
2025-01-26 08:54:50.202521	162.9	19.1	-92.7	7.4
2025-01-26 08:54:51.351831	163.0	18.9	-92.8	4.9
2025-01-26 08:54:52.502794	163.2	18.8	-92.8	5.7
2025-01-26 08:54:53.664134	163.3	18.7	-92.6	6.6
2025-01-26 08:54:54.808708	163.4	18.5	-92.9	6.4
2025-01-26 08:54:55.949908	163.5	18.4	-92.7	5.4
2025-01-26 08:54:57.072385	163.7	18.3	-92.7	4.8
2025-01-26 08:54:58.193156	163.8	18.2	-92.5	7.3
2025-01-26 08:54:59.313718	163.9	18.1	-93.0	7.9
2025-01-26 08:55:00.433810	164.0	17.9	-92.6	5.4
2025-01-26 08:55:01.553011	164.1	17.8	-92.9	3.9
2025-01-26 08:55:02.673350	164.3	17.7	-93.1	5.3
2025-01-26 08:55:03.793934	164.4	17.6	-92.7	5.7
2025-01-26 08:55:04.919514	164.5	17.5	-93.0	4.4
2025-01-26 08:55:06.040806	164.6	17.3	-92.8	5.9
2025-01-26 08:55:07.192683	164.7	17.2	-92.3	5.3
2025-01-26 08:55:08.341675	164.8	17.1	-92.3	3.5
2025-01-26 08:55:09.492789	165.0	17.0	-93.1	6.2
2025-01-26 08:55:10.643195	165.1	16.9	-92.5	4.2
2025-01-26 08:55:11.797435	165.2	16.8	-93.0	4.8
2025-01-26 08:55:12.951995	165.3	16.6	-92.5	5.5
2025-01-26 08:55:14.096935	165.4	16.5	-92.7	5.2
2025-01-26 08:55:15.226890	165.5	16.4	-92.5	8.6
2025-01-26 08:55:16.362601	165.6	16.3	-92.9	5.9
2025-01-26 08:55:17.511908	165.7	16.2	-92.7	5.1
2025-01-26 08:55:18.654290	165.8	16.1	-92.8	9.1
2025-01-26 08:55:19.807574	166.0	15.9	-93.2	7.8
2025-01-26 08:55:20.952036	166.1	15.8	-92.7	6.1
2025-01-26 08:55:22.105985	166.2	15.7	-92.5	7.1
2025-01-26 08:55:23.260214	166.3	15.6	-92.5	5.7
2025-01-26 08:55:24.413249	166.4	15.5	-92.4	5.9
2025-01-26 08:55:25.566763	166.5	15.4	-92.9	6.2
2025-01-26 08:55:26.722801	166.6	15.3	-93.0	6.4
2025-01-26 08:55:27.877468	166.7	15.1	-93.1	6.5
2025-01-26 08:55:29.032659	166.8	15.0	-92.6	3.2
2025-01-26 08:55:30.186322	166.9	14.9	-92.7	6.9
2025-01-26 08:55:31.341746	167.0	14.8	-92.5	5.5
2025-01-26 08:55:32.493106	167.1	14.7	-92.4	7.1
2025-01-26 08:55:33.646882	167.2	14.6	-92.8	7.6
#Closed at: 2025-01-26 08:47:00.805534