passes_logs/2025/01/26/LEX_Murmansk/LEX_Murmansk__20250126_120833_NOAA_18_rec.log

#Pass ID: 20250126_120833_NOAA 18
#Satellite: NOAA 18
#Configuration: NOAA 18
#Start time: 2025-01-26 12:08:28.330874

#LorettStation: 1.0.0 05.05.2024
#Station: LEX_Murmansk
#Location: 33.156738 lon 68.926811 lat
#TLE: 1 28654U 05018A   25024.86051977  .00000457  00000+0  26618-3 0  9996
#TLE: 2 28654  98.8552 105.8163 0014791 151.8936 208.3038 14.13496337 14496

#Time	Az	El	Level	SNR
2025-01-26 12:08:40.460130	23.3	16.1	-91.7	6.8
2025-01-26 12:08:41.603133	23.2	16.2	-92.3	6.6
2025-01-26 12:08:42.747262	23.1	16.3	-92.1	6.8
2025-01-26 12:08:43.892522	22.9	16.4	-92.5	6.9
2025-01-26 12:08:45.043157	22.8	16.6	-92.5	8.1
2025-01-26 12:08:46.195543	22.7	16.7	-92.8	6.0
2025-01-26 12:08:47.352929	22.5	16.8	-91.9	6.7
2025-01-26 12:08:48.504891	22.4	16.9	-91.9	6.1
2025-01-26 12:08:49.662971	22.2	17.0	-92.4	5.6
2025-01-26 12:08:50.812189	22.1	17.1	-92.2	7.2
2025-01-26 12:08:51.964925	22.0	17.2	-92.6	7.4
2025-01-26 12:08:53.118039	21.8	17.3	-92.8	6.2
2025-01-26 12:08:54.269951	21.7	17.4	-93.0	5.7
2025-01-26 12:08:55.417954	21.5	17.5	-92.0	3.7
2025-01-26 12:08:56.573637	21.4	17.7	-92.1	5.2
2025-01-26 12:08:57.725227	21.2	17.8	-92.3	5.8
2025-01-26 12:08:58.873894	21.1	17.9	-92.6	10.0
2025-01-26 12:09:00.038712	21.0	18.0	-92.6	10.5
2025-01-26 12:09:01.179157	20.8	18.1	-92.2	13.5
2025-01-26 12:09:02.329498	20.7	18.2	-91.9	9.6
2025-01-26 12:09:03.482527	20.5	18.3	-92.1	12.0
2025-01-26 12:09:04.634485	20.4	18.5	-92.8	11.4
2025-01-26 12:09:05.785165	20.2	18.6	-92.3	6.2
2025-01-26 12:09:06.936373	20.0	18.7	-92.3	11.1
2025-01-26 12:09:08.084642	19.9	18.8	-92.4	12.7
2025-01-26 12:09:09.232893	19.7	18.9	-92.6	13.9
2025-01-26 12:09:10.383484	19.6	19.0	-92.2	13.0
2025-01-26 12:09:11.534323	19.4	19.1	-92.0	11.1
2025-01-26 12:09:12.685233	19.3	19.3	-92.4	7.2
2025-01-26 12:09:13.839786	19.1	19.4	-92.5	4.7
2025-01-26 12:09:14.997909	18.9	19.5	-92.5	11.2
2025-01-26 12:09:16.153131	18.8	19.6	-92.5	7.7
2025-01-26 12:09:17.309598	18.6	19.7	-92.5	9.3
2025-01-26 12:09:18.458674	18.4	19.9	-91.7	11.1
2025-01-26 12:09:19.614537	18.3	20.0	-92.4	10.7
2025-01-26 12:09:20.763303	18.1	20.1	-92.3	9.1
2025-01-26 12:09:21.911262	17.9	20.2	-92.3	8.3
2025-01-26 12:09:23.059600	17.8	20.3	-92.6	11.0
2025-01-26 12:09:24.205567	17.6	20.4	-92.1	10.1
2025-01-26 12:09:25.353202	17.4	20.6	-92.1	7.8
2025-01-26 12:09:26.511815	17.2	20.7	-92.3	7.4
2025-01-26 12:09:27.660435	17.1	20.8	-92.2	10.1
2025-01-26 12:09:28.805307	16.9	20.9	-92.4	8.5
2025-01-26 12:09:29.952879	16.7	21.0	-92.5	10.0
2025-01-26 12:09:31.104408	16.5	21.2	-92.4	10.0
2025-01-26 12:09:32.255036	16.3	21.3	-92.7	9.2
2025-01-26 12:09:33.402036	16.1	21.4	-91.9	8.3
2025-01-26 12:09:34.551557	16.0	21.5	-92.0	7.8
2025-01-26 12:09:35.699615	15.8	21.7	-92.7	9.1
2025-01-26 12:09:36.846221	15.6	21.8	-92.5	11.2
2025-01-26 12:09:38.004773	15.4	21.9	-92.2	10.9
2025-01-26 12:09:39.161380	15.2	22.0	-92.2	11.4
2025-01-26 12:09:40.314546	15.0	22.1	-92.1	11.3
2025-01-26 12:09:41.466501	14.8	22.3	-92.2	8.6
2025-01-26 12:09:42.617392	14.6	22.4	-92.4	10.1
2025-01-26 12:09:43.774802	14.4	22.5	-92.5	9.8
2025-01-26 12:09:44.938677	14.2	22.6	-92.6	13.9
2025-01-26 12:09:46.095196	14.0	22.8	-92.5	13.7
2025-01-26 12:09:47.243606	13.8	22.9	-92.4	12.4
2025-01-26 12:09:48.395731	13.6	23.0	-91.8	14.8
2025-01-26 12:09:49.544192	13.4	23.1	-92.0	13.2
2025-01-26 12:09:50.688569	13.2	23.3	-92.3	10.8
2025-01-26 12:09:51.835884	13.0	23.4	-92.2	9.1
2025-01-26 12:09:52.986239	12.8	23.5	-92.4	13.9
2025-01-26 12:09:54.137486	12.5	23.6	-92.3	7.7
2025-01-26 12:09:55.282280	12.3	23.8	-92.4	10.3
2025-01-26 12:09:56.438087	12.1	23.9	-91.9	10.7
2025-01-26 12:09:57.592275	11.9	24.0	-92.0	11.6
2025-01-26 12:09:58.744845	11.7	24.1	-92.1	11.0
2025-01-26 12:09:59.895857	11.4	24.3	-92.4	11.2
2025-01-26 12:10:01.044637	11.2	24.4	-92.5	9.0
2025-01-26 12:10:02.194357	11.0	24.5	-92.3	8.3
2025-01-26 12:10:03.338294	10.8	24.6	-92.2	9.6
2025-01-26 12:10:04.487938	10.5	24.8	-92.3	13.1
2025-01-26 12:10:05.640647	10.3	24.9	-92.5	11.5
2025-01-26 12:10:06.791266	10.1	25.0	-92.4	13.8
2025-01-26 12:10:07.954026	9.8	25.2	-92.6	14.6
2025-01-26 12:10:09.107058	9.6	25.3	-92.6	11.5
2025-01-26 12:10:10.261122	9.4	25.4	-92.4	9.9
2025-01-26 12:10:11.415289	9.1	25.5	-92.3	12.0
2025-01-26 12:10:12.570977	8.9	25.7	-92.2	9.6
2025-01-26 12:10:13.715757	8.6	25.8	-92.9	11.3
2025-01-26 12:10:14.864734	8.4	25.9	-92.3	10.5
2025-01-26 12:10:16.016300	8.1	26.0	-91.5	11.2
2025-01-26 12:10:17.163474	7.9	26.2	-92.6	9.2
2025-01-26 12:10:18.311063	7.6	26.3	-92.1	8.1
2025-01-26 12:10:19.458497	7.4	26.4	-92.0	8.8
2025-01-26 12:10:20.612526	7.1	26.6	-92.5	9.6
2025-01-26 12:10:21.766673	6.8	26.7	-92.9	7.8
2025-01-26 12:10:22.922979	6.6	26.8	-92.8	10.3
2025-01-26 12:10:24.076949	6.3	26.9	-92.9	12.2
2025-01-26 12:10:25.233108	6.1	27.1	-92.8	10.1
2025-01-26 12:10:26.381306	5.8	27.2	-92.1	10.6
2025-01-26 12:10:27.540707	5.5	27.3	-92.0	12.9
2025-01-26 12:10:28.697628	5.2	27.4	-92.2	9.7
2025-01-26 12:10:29.846339	5.0	27.6	-92.8	9.5
2025-01-26 12:10:31.001687	4.7	27.7	-92.8	9.9
2025-01-26 12:10:32.149720	4.4	27.8	-93.0	9.2
2025-01-26 12:10:33.297434	4.1	28.0	-92.5	4.7
2025-01-26 12:10:34.446540	3.8	28.1	-92.3	5.7
2025-01-26 12:10:35.606399	3.6	28.2	-92.3	6.8
2025-01-26 12:10:36.760339	3.3	28.3	-92.8	4.5
2025-01-26 12:10:37.917871	3.0	28.5	-92.5	8.9
2025-01-26 12:10:39.063398	2.7	28.6	-92.9	11.4
2025-01-26 12:10:40.216021	2.4	28.7	-92.8	8.8
2025-01-26 12:10:41.374808	2.1	28.8	-91.8	10.8
2025-01-26 12:10:42.529235	1.8	29.0	-92.2	10.0
2025-01-26 12:10:43.675902	1.5	29.1	-92.8	10.8
2025-01-26 12:10:44.828250	1.2	29.2	-92.9	10.9
2025-01-26 12:10:45.983391	0.9	29.3	-92.8	12.3
2025-01-26 12:10:47.138453	0.6	29.4	-92.6	10.1
2025-01-26 12:10:48.290308	0.2	29.6	-92.3	9.9
2025-01-26 12:10:49.441577	359.9	29.7	-92.3	11.4
2025-01-26 12:10:50.594969	359.6	29.8	-92.3	9.5
2025-01-26 12:10:51.743244	359.3	29.9	-92.7	10.9
2025-01-26 12:10:52.901718	359.0	30.0	-92.5	14.5
2025-01-26 12:10:54.052291	358.6	30.2	-92.8	12.5
2025-01-26 12:10:55.212329	358.3	30.3	-92.7	12.1
2025-01-26 12:10:56.361504	358.0	30.4	-92.3	13.5
2025-01-26 12:10:57.514820	357.7	30.5	-92.2	13.2
2025-01-26 12:10:58.663817	357.3	30.6	-92.3	6.3
2025-01-26 12:10:59.815460	357.0	30.8	-92.3	8.1
2025-01-26 12:11:00.966947	356.6	30.9	-92.5	11.2
2025-01-26 12:11:02.118218	356.3	31.0	-92.4	8.6
2025-01-26 12:11:03.267859	356.0	31.1	-92.7	8.7
2025-01-26 12:11:04.424507	355.6	31.2	-92.2	9.9
2025-01-26 12:11:05.577175	355.3	31.3	-92.4	9.0
2025-01-26 12:11:06.725783	354.9	31.4	-92.3	10.5
2025-01-26 12:11:07.882521	354.6	31.5	-92.6	14.3
2025-01-26 12:11:09.041859	354.2	31.7	-92.5	12.1
2025-01-26 12:11:10.197970	353.8	31.8	-92.3	11.9
2025-01-26 12:11:11.356546	353.5	31.9	-91.8	13.4
2025-01-26 12:11:12.509855	353.1	32.0	-91.9	13.7
2025-01-26 12:11:13.665731	352.7	32.1	-92.4	12.2
2025-01-26 12:11:14.813564	352.4	32.2	-92.4	13.9
2025-01-26 12:11:15.972746	352.0	32.3	-92.6	14.1
2025-01-26 12:11:17.130641	351.6	32.4	-92.7	15.2
2025-01-26 12:11:18.288885	351.3	32.5	-92.7	13.7
2025-01-26 12:11:19.441612	350.9	32.6	-91.9	12.8
2025-01-26 12:11:20.595875	350.5	32.7	-92.0	14.9
2025-01-26 12:11:21.749021	350.1	32.8	-92.4	16.8
2025-01-26 12:11:22.913340	349.7	32.9	-92.3	15.7
2025-01-26 12:11:24.075616	349.3	33.0	-92.1	17.0
2025-01-26 12:11:25.225277	348.9	33.1	-92.5	16.3
2025-01-26 12:11:26.379905	348.5	33.2	-92.1	16.1
2025-01-26 12:11:27.533302	348.2	33.3	-92.3	17.7
2025-01-26 12:11:28.683489	347.8	33.4	-91.9	17.5
2025-01-26 12:11:29.836015	347.4	33.5	-92.6	16.2
2025-01-26 12:11:30.988930	347.0	33.6	-92.3	15.0
2025-01-26 12:11:32.143036	346.6	33.7	-92.6	14.7
2025-01-26 12:11:33.299160	346.1	33.7	-92.3	14.1
2025-01-26 12:11:34.451966	345.7	33.8	-92.3	18.3
2025-01-26 12:11:35.603208	345.3	33.9	-92.4	14.6
2025-01-26 12:11:36.751362	344.9	34.0	-92.6	13.0
2025-01-26 12:11:37.900947	344.5	34.1	-92.5	16.2
2025-01-26 12:11:39.050740	344.1	34.1	-92.6	16.5
2025-01-26 12:11:40.203809	343.7	34.2	-92.4	17.2
2025-01-26 12:11:41.352116	343.3	34.3	-91.8	18.6
2025-01-26 12:11:42.508368	342.8	34.4	-92.0	17.4
2025-01-26 12:11:43.657521	342.4	34.5	-91.9	14.9
2025-01-26 12:11:44.810327	342.0	34.5	-92.3	16.9
2025-01-26 12:11:45.963342	341.6	34.6	-92.5	19.6
2025-01-26 12:11:47.114680	341.1	34.7	-92.5	16.9
2025-01-26 12:11:48.272430	340.7	34.7	-92.9	15.9
2025-01-26 12:11:49.419333	340.3	34.8	-91.8	15.9
2025-01-26 12:11:50.575844	339.8	34.9	-91.8	16.1
2025-01-26 12:11:51.732028	339.4	34.9	-92.8	14.8
2025-01-26 12:11:52.884546	338.9	35.0	-92.6	15.4
2025-01-26 12:11:54.033529	338.5	35.0	-92.5	19.6
2025-01-26 12:11:55.187587	338.1	35.1	-92.7	17.0
2025-01-26 12:11:56.337574	337.6	35.1	-92.2	15.0
2025-01-26 12:11:57.488971	337.2	35.2	-92.2	18.2
2025-01-26 12:11:58.640148	336.7	35.2	-92.3	17.0
2025-01-26 12:11:59.791450	336.3	35.3	-92.9	20.0
2025-01-26 12:12:00.938814	335.8	35.3	-92.4	19.5
2025-01-26 12:12:02.098165	335.4	35.4	-92.4	18.1
2025-01-26 12:12:03.256005	334.9	35.4	-92.4	15.7
2025-01-26 12:12:04.414785	334.5	35.5	-92.2	16.4
2025-01-26 12:12:05.569052	334.0	35.5	-92.2	16.4
2025-01-26 12:12:06.725303	333.6	35.5	-92.5	14.6
2025-01-26 12:12:07.882750	333.1	35.6	-92.6	14.7
2025-01-26 12:12:09.031414	332.7	35.6	-93.0	15.2
2025-01-26 12:12:10.187417	332.2	35.6	-92.8	12.5
2025-01-26 12:12:11.340843	331.7	35.7	-92.5	15.0
2025-01-26 12:12:12.493081	331.3	35.7	-92.1	14.4
2025-01-26 12:12:13.644409	330.8	35.7	-92.3	11.7
2025-01-26 12:12:14.797796	330.4	35.7	-92.8	13.8
2025-01-26 12:12:15.945037	329.9	35.8	-92.7	18.2
2025-01-26 12:12:17.104499	329.4	35.8	-92.9	14.8
2025-01-26 12:12:18.252128	329.0	35.8	-92.5	14.4
2025-01-26 12:12:19.405093	328.5	35.8	-92.0	17.0
2025-01-26 12:12:20.555441	328.0	35.8	-92.1	16.0
2025-01-26 12:12:21.697355	327.6	35.8	-92.9	16.3
2025-01-26 12:12:22.817755	327.1	35.8	-92.3	13.6
2025-01-26 12:12:23.937885	326.7	35.8	-92.5	17.5
2025-01-26 12:12:25.057867	326.2	35.8	-92.2	20.1
2025-01-26 12:12:26.178002	325.8	35.8	-92.3	16.7
2025-01-26 12:12:27.298862	325.3	35.8	-92.7	16.6
2025-01-26 12:12:28.419268	324.9	35.8	-91.8	15.8
2025-01-26 12:12:29.300688	324.5	35.8	-90.6	15.8
2025-01-26 12:12:30.422870	324.1	35.8	-91.0	17.5
2025-01-26 12:12:31.550030	323.6	35.8	-91.3	15.9
2025-01-26 12:12:32.682709	323.2	35.8	-90.5	14.8
2025-01-26 12:12:33.830413	322.7	35.8	-91.2	17.3
2025-01-26 12:12:34.981807	322.2	35.8	-92.4	17.8
2025-01-26 12:12:36.130875	321.8	35.8	-92.0	17.4
2025-01-26 12:12:37.276606	321.3	35.7	-92.0	15.1
2025-01-26 12:12:38.421278	320.9	35.7	-91.8	14.4
2025-01-26 12:12:39.570142	320.4	35.7	-92.5	17.2
2025-01-26 12:12:40.729410	319.9	35.7	-92.3	14.9
2025-01-26 12:12:41.875397	319.5	35.6	-92.7	17.4
2025-01-26 12:12:43.021574	319.0	35.6	-92.5	14.6
2025-01-26 12:12:44.173171	318.6	35.6	-91.8	12.6
2025-01-26 12:12:45.329841	318.1	35.5	-92.1	15.0
2025-01-26 12:12:46.471803	317.7	35.5	-92.5	14.9
2025-01-26 12:12:47.616085	317.2	35.5	-92.3	15.4
2025-01-26 12:12:48.765666	316.8	35.4	-92.4	13.8
2025-01-26 12:12:49.910327	316.3	35.4	-92.6	14.2
2025-01-26 12:12:51.060985	315.9	35.3	-92.3	14.3
2025-01-26 12:12:52.215335	315.4	35.3	-91.8	15.2
2025-01-26 12:12:53.363988	315.0	35.2	-91.9	15.9
2025-01-26 12:12:54.518492	314.5	35.2	-92.2	14.4
2025-01-26 12:12:55.671635	314.1	35.1	-92.6	17.6
2025-01-26 12:12:56.830913	313.6	35.1	-92.5	16.3
2025-01-26 12:12:57.974158	313.2	35.0	-92.7	17.0
2025-01-26 12:12:59.128958	312.8	35.0	-92.0	15.9
2025-01-26 12:13:00.275173	312.3	34.9	-92.4	16.7
2025-01-26 12:13:01.414122	311.9	34.9	-92.7	14.8
2025-01-26 12:13:02.563089	311.4	34.8	-92.3	15.2
2025-01-26 12:13:03.710837	311.0	34.7	-92.8	17.3
2025-01-26 12:13:04.859603	310.6	34.7	-92.8	14.4
2025-01-26 12:13:06.008128	310.2	34.6	-92.5	11.4
2025-01-26 12:13:07.158652	309.7	34.5	-92.4	13.2
2025-01-26 12:13:08.305389	309.3	34.5	-92.4	13.6
2025-01-26 12:13:09.450652	308.9	34.4	-92.6	12.3
2025-01-26 12:13:10.601487	308.5	34.3	-92.7	10.8
2025-01-26 12:13:11.752120	308.0	34.2	-92.5	15.5
2025-01-26 12:13:12.901694	307.6	34.2	-92.3	9.3
2025-01-26 12:13:14.051960	307.2	34.1	-92.7	11.4
2025-01-26 12:13:15.204089	306.8	34.0	-92.2	15.2
2025-01-26 12:13:16.352463	306.4	33.9	-92.0	15.2
2025-01-26 12:13:17.503124	306.0	33.8	-92.8	12.6
2025-01-26 12:13:18.649869	305.6	33.7	-92.9	14.3
2025-01-26 12:13:19.802423	305.1	33.7	-92.5	14.7
2025-01-26 12:13:20.952093	304.7	33.6	-92.5	11.5
2025-01-26 12:13:22.118400	304.3	33.5	-92.0	11.8
2025-01-26 12:13:23.266158	303.9	33.4	-92.3	13.3
2025-01-26 12:13:24.411247	303.5	33.3	-92.7	13.2
2025-01-26 12:13:25.562910	303.1	33.2	-92.4	12.7
2025-01-26 12:13:26.715161	302.7	33.1	-92.4	13.3
2025-01-26 12:13:27.872091	302.4	33.0	-92.6	14.7
2025-01-26 12:13:29.026722	302.0	32.9	-92.7	11.5
2025-01-26 12:13:30.175052	301.6	32.8	-92.3	12.3
2025-01-26 12:13:31.321330	301.2	32.7	-92.0	12.8
2025-01-26 12:13:32.476543	300.8	32.6	-92.5	14.4
2025-01-26 12:13:33.630436	300.4	32.5	-92.3	14.6
2025-01-26 12:13:34.785973	300.1	32.4	-92.8	16.0
2025-01-26 12:13:35.936773	299.7	32.3	-92.6	12.3
2025-01-26 12:13:37.093544	299.3	32.2	-92.5	11.5
2025-01-26 12:13:38.236282	298.9	32.1	-91.9	9.1
2025-01-26 12:13:39.388486	298.6	32.0	-92.1	10.6
2025-01-26 12:13:40.537392	298.2	31.9	-92.8	11.2
2025-01-26 12:13:41.684255	297.8	31.8	-92.4	10.3
2025-01-26 12:13:42.831330	297.5	31.7	-92.6	12.0
2025-01-26 12:13:43.981587	297.1	31.6	-92.5	12.5
2025-01-26 12:13:45.134086	296.8	31.4	-92.3	14.2
2025-01-26 12:13:46.281312	296.4	31.3	-92.4	14.3
2025-01-26 12:13:47.431811	296.1	31.2	-92.4	13.9
2025-01-26 12:13:48.582694	295.7	31.1	-92.5	14.7
2025-01-26 12:13:49.735008	295.4	31.0	-92.6	14.9
2025-01-26 12:13:50.885586	295.0	30.9	-92.6	16.8
2025-01-26 12:13:52.034442	294.7	30.8	-92.4	13.6
2025-01-26 12:13:53.184362	294.4	30.6	-92.3	15.0
2025-01-26 12:13:54.330340	294.0	30.5	-92.6	14.0
2025-01-26 12:13:55.479487	293.7	30.4	-92.8	16.4
2025-01-26 12:13:56.626585	293.4	30.3	-92.6	14.9
2025-01-26 12:13:57.773832	293.0	30.2	-92.8	13.6
2025-01-26 12:13:58.925764	292.7	30.0	-92.6	14.5
2025-01-26 12:14:00.076433	292.4	29.9	-92.5	14.6
2025-01-26 12:14:01.222358	292.1	29.8	-92.1	15.4
2025-01-26 12:14:02.379179	291.7	29.7	-92.4	14.1
2025-01-26 12:14:03.529753	291.4	29.6	-92.9	14.6
2025-01-26 12:14:04.679168	291.1	29.4	-92.8	15.4
2025-01-26 12:14:05.829944	290.8	29.3	-92.5	14.4
2025-01-26 12:14:06.989137	290.5	29.2	-92.7	10.7
2025-01-26 12:14:08.140273	290.2	29.1	-92.1	13.6
2025-01-26 12:14:09.290036	289.9	28.9	-92.3	16.3
2025-01-26 12:14:10.437422	289.6	28.8	-92.9	12.5
2025-01-26 12:14:11.592551	289.3	28.7	-93.0	14.3
2025-01-26 12:14:12.747838	289.0	28.6	-92.5	14.3
2025-01-26 12:14:13.902693	288.7	28.4	-92.9	12.9
2025-01-26 12:14:15.053292	288.4	28.3	-92.5	12.1
2025-01-26 12:14:16.203947	288.1	28.2	-92.7	13.0
2025-01-26 12:14:17.360505	287.8	28.1	-92.4	10.1
2025-01-26 12:14:18.506627	287.5	27.9	-93.0	12.6
2025-01-26 12:14:19.653865	287.2	27.8	-92.6	14.0
2025-01-26 12:14:20.808965	287.0	27.7	-93.0	14.0
2025-01-26 12:14:21.963947	286.7	27.6	-93.0	12.1
2025-01-26 12:14:23.116816	286.4	27.4	-92.7	11.8
2025-01-26 12:14:24.269657	286.1	27.3	-92.6	13.9
2025-01-26 12:14:25.422747	285.9	27.2	-92.7	12.7
2025-01-26 12:14:26.565431	285.6	27.1	-92.8	14.2
2025-01-26 12:14:27.718991	285.3	26.9	-92.8	11.9
2025-01-26 12:14:28.870121	285.1	26.8	-92.8	13.0
2025-01-26 12:14:30.025796	284.8	26.7	-92.6	13.5
2025-01-26 12:14:31.179807	284.5	26.5	-91.9	12.5
2025-01-26 12:14:32.334300	284.3	26.4	-92.0	10.8
2025-01-26 12:14:33.490091	284.0	26.3	-92.6	10.8
2025-01-26 12:14:34.636377	283.8	26.2	-92.3	10.1
2025-01-26 12:14:35.785638	283.5	26.0	-92.4	13.5
2025-01-26 12:14:36.939596	283.2	25.9	-92.8	9.3
2025-01-26 12:14:38.094895	283.0	25.8	-92.5	8.8
2025-01-26 12:14:39.242882	282.8	25.6	-92.1	11.8
2025-01-26 12:14:40.394348	282.5	25.5	-92.3	7.9
2025-01-26 12:14:41.545589	282.3	25.4	-92.8	11.0
2025-01-26 12:14:42.699280	282.0	25.3	-92.6	11.7
2025-01-26 12:14:43.848670	281.8	25.1	-92.5	13.9
2025-01-26 12:14:45.003614	281.5	25.0	-92.5	9.8
2025-01-26 12:14:46.158283	281.3	24.9	-92.3	12.8
2025-01-26 12:14:47.291189	281.1	24.8	-92.5	13.9
2025-01-26 12:14:48.431770	280.8	24.6	-92.4	12.8
2025-01-26 12:14:49.581746	280.6	24.5	-92.5	11.6
2025-01-26 12:14:50.738316	280.4	24.4	-92.7	15.1
2025-01-26 12:14:51.887114	280.2	24.2	-92.3	12.8
2025-01-26 12:14:53.037532	279.9	24.1	-92.7	14.1
2025-01-26 12:14:54.186757	279.7	24.0	-92.4	11.3
2025-01-26 12:14:55.334385	279.5	23.9	-92.5	15.3
2025-01-26 12:14:56.501052	279.3	23.7	-92.8	12.5
2025-01-26 12:14:57.653163	279.1	23.6	-88.2	10.7
2025-01-26 12:14:58.804583	278.8	23.5	-88.4	10.7
2025-01-26 12:14:59.953619	278.6	23.4	-88.2	7.5
2025-01-26 12:15:01.102389	278.4	23.2	-88.5	8.1
2025-01-26 12:15:02.249078	278.2	23.1	-88.1	9.7
2025-01-26 12:15:03.396180	278.0	23.0	-88.0	6.7
2025-01-26 12:15:04.545976	277.8	22.9	-88.0	7.6
2025-01-26 12:15:05.697487	277.6	22.7	-87.7	9.5
2025-01-26 12:15:06.846306	277.4	22.6	-87.8	8.1
2025-01-26 12:15:07.996686	277.2	22.5	-87.8	7.4
2025-01-26 12:15:09.144785	277.0	22.4	-87.7	9.7
2025-01-26 12:15:10.301318	276.8	22.2	-87.7	8.5
2025-01-26 12:15:11.453834	276.6	22.1	-87.9	7.4
2025-01-26 12:15:12.602163	276.4	22.0	-86.2	8.6
2025-01-26 12:15:13.753058	276.2	21.9	-86.9	8.4
2025-01-26 12:15:14.911816	276.0	21.7	-87.4	8.4
2025-01-26 12:15:16.059087	275.8	21.6	-87.3	5.9
2025-01-26 12:15:17.214238	275.6	21.5	-86.9	7.6
2025-01-26 12:15:18.361700	275.4	21.4	-87.3	5.6
2025-01-26 12:15:19.509260	275.2	21.2	-88.8	5.9
2025-01-26 12:15:20.657634	275.1	21.1	-88.6	6.9
2025-01-26 12:15:21.805475	274.9	21.0	-88.2	6.6
2025-01-26 12:15:22.958565	274.7	20.9	-88.1	5.6
2025-01-26 12:15:24.109638	274.5	20.8	-87.8	4.7
2025-01-26 12:15:25.259992	274.3	20.6	-87.5	7.2
2025-01-26 12:15:26.405424	274.2	20.5	-87.6	4.0
2025-01-26 12:15:27.560479	274.0	20.4	-87.5	5.3
2025-01-26 12:15:28.717656	273.8	20.3	-87.5	8.2
2025-01-26 12:15:29.867264	273.6	20.2	-87.3	6.4
2025-01-26 12:15:31.023462	273.5	20.0	-87.2	8.8
2025-01-26 12:15:32.170992	273.3	19.9	-87.5	8.0
2025-01-26 12:15:33.318741	273.1	19.8	-87.8	7.8
2025-01-26 12:15:34.465716	273.0	19.7	-88.2	7.5
2025-01-26 12:15:35.619126	272.8	19.6	-88.5	9.5
2025-01-26 12:15:36.787989	272.6	19.4	-88.6	7.0
2025-01-26 12:15:37.944931	272.5	19.3	-88.8	7.1
2025-01-26 12:15:39.094498	272.3	19.2	-88.4	5.6
2025-01-26 12:15:40.261239	272.1	19.1	-88.7	6.9
2025-01-26 12:15:41.408701	272.0	19.0	-88.8	6.6
2025-01-26 12:15:42.557763	271.8	18.9	-88.9	6.8
2025-01-26 12:15:43.706310	271.7	18.7	-88.5	5.9
2025-01-26 12:15:44.853668	271.5	18.6	-88.2	5.6
2025-01-26 12:15:46.001389	271.3	18.5	-88.0	8.7
2025-01-26 12:15:47.153277	271.2	18.4	-86.5	6.9
2025-01-26 12:15:48.310522	271.0	18.3	-87.0	7.0
2025-01-26 12:15:49.462589	270.9	18.2	-87.0	7.4
2025-01-26 12:15:50.611982	270.7	18.0	-87.6	7.5
2025-01-26 12:15:51.759169	270.6	17.9	-88.0	7.6
2025-01-26 12:15:52.906820	270.4	17.8	-88.1	6.0
2025-01-26 12:15:54.062937	270.3	17.7	-87.3	7.1
2025-01-26 12:15:55.214848	270.1	17.6	-87.6	8.4
2025-01-26 12:15:56.359891	270.0	17.5	-88.0	9.0
2025-01-26 12:15:57.510404	269.9	17.4	-88.1	6.5
2025-01-26 12:15:58.658531	269.7	17.3	-88.0	9.6
2025-01-26 12:15:59.807554	269.6	17.1	-87.4	8.2
2025-01-26 12:16:00.958718	269.4	17.0	-87.1	5.3
2025-01-26 12:16:02.109488	269.3	16.9	-88.2	8.0
2025-01-26 12:16:03.259139	269.1	16.8	-88.1	8.7
2025-01-26 12:16:04.413470	269.0	16.7	-88.2	8.6
2025-01-26 12:16:05.563690	268.9	16.6	-87.7	6.2
2025-01-26 12:16:06.726377	268.7	16.5	-87.3	7.1
2025-01-26 12:16:07.878621	268.6	16.4	-87.7	8.1
2025-01-26 12:16:09.031788	268.5	16.3	-87.7	8.4
2025-01-26 12:16:10.182886	268.3	16.1	-87.7	10.4
2025-01-26 12:16:11.338662	268.2	16.0	-87.5	9.9
2025-01-26 12:16:12.488367	268.1	15.9	-87.4	7.1
2025-01-26 12:16:13.635642	267.9	15.8	-87.3	8.6
2025-01-26 12:16:14.783575	267.8	15.7	-87.3	8.7
2025-01-26 12:16:15.937069	267.7	15.6	-86.8	8.1
2025-01-26 12:16:17.085276	267.6	15.5	-87.3	8.6
2025-01-26 12:16:18.233209	267.4	15.4	-88.5	10.5
2025-01-26 12:16:19.379065	267.3	15.3	-88.2	7.6
2025-01-26 12:16:20.531547	267.2	15.2	-88.3	9.2
2025-01-26 12:16:21.683182	267.1	15.1	-88.0	8.4
2025-01-26 12:16:22.828210	266.9	15.0	-88.2	9.3
2025-01-26 12:16:23.973301	266.8	14.9	-88.0	9.2
2025-01-26 12:16:25.131247	266.7	14.8	-87.2	8.3
2025-01-26 12:16:26.283886	266.6	14.7	-87.2	7.8
2025-01-26 12:16:27.430451	266.5	14.6	-87.7	9.2
#Closed at: 2025-01-26 12:08:33.252076