passes_logs/2025/01/26/LEX_Murmansk/LEX_Murmansk__20250126_170702_NOAA_18_rec.log

#Pass ID: 20250126_170702_NOAA 18
#Satellite: NOAA 18
#Configuration: NOAA 18
#Start time: 2025-01-26 17:06:57.970981

#LorettStation: 1.0.0 05.05.2024
#Station: LEX_Murmansk
#Location: 33.156738 lon 68.926811 lat
#TLE: 1 28654U 05018A   25026.13466944  .00000433  00000+0  25315-3 0  9999
#TLE: 2 28654  98.8549 107.0777 0014815 148.4880 211.7182 14.13497478 14758

#Time	Az	El	Level	SNR
2025-01-26 17:07:10.080018	99.9	16.2	-89.8	11.4
2025-01-26 17:07:11.242006	99.8	16.3	-89.9	11.2
2025-01-26 17:07:12.404214	99.7	16.4	-90.3	10.2
2025-01-26 17:07:13.563873	99.6	16.5	-90.4	10.5
2025-01-26 17:07:14.728254	99.5	16.6	-90.7	13.2
2025-01-26 17:07:15.893537	99.3	16.7	-90.5	14.3
2025-01-26 17:07:17.049493	99.2	16.9	-90.2	12.2
2025-01-26 17:07:18.213922	99.1	17.0	-90.3	11.7
2025-01-26 17:07:19.378612	99.0	17.1	-90.5	8.1
2025-01-26 17:07:20.542108	98.8	17.2	-90.4	6.9
2025-01-26 17:07:21.706024	98.7	17.3	-90.6	10.8
2025-01-26 17:07:22.869855	98.6	17.4	-90.5	7.6
2025-01-26 17:07:24.034755	98.5	17.6	-90.4	9.2
2025-01-26 17:07:25.196630	98.3	17.7	-90.0	13.1
2025-01-26 17:07:26.360022	98.2	17.8	-90.1	12.2
2025-01-26 17:07:27.523011	98.1	17.9	-90.6	12.8
2025-01-26 17:07:28.679966	97.9	18.0	-90.6	10.9
2025-01-26 17:07:29.847030	97.8	18.2	-89.7	9.2
2025-01-26 17:07:31.010695	97.7	18.3	-90.0	7.9
2025-01-26 17:07:32.174135	97.5	18.4	-90.3	9.7
2025-01-26 17:07:33.344414	97.4	18.5	-90.6	10.3
2025-01-26 17:07:34.513327	97.3	18.6	-90.7	9.6
2025-01-26 17:07:35.676005	97.1	18.8	-90.8	9.5
2025-01-26 17:07:36.843227	97.0	18.9	-90.6	7.3
2025-01-26 17:07:38.009229	96.8	19.0	-91.0	5.3
2025-01-26 17:07:39.171692	96.7	19.1	-90.7	8.7
2025-01-26 17:07:40.331818	96.6	19.3	-90.8	7.7
2025-01-26 17:07:41.502649	96.4	19.4	-90.9	7.7
2025-01-26 17:07:42.664840	96.3	19.5	-90.9	8.0
2025-01-26 17:07:43.829530	96.1	19.6	-91.2	8.5
2025-01-26 17:07:44.993943	96.0	19.8	-90.8	6.8
2025-01-26 17:07:46.159473	95.8	19.9	-90.4	7.2
2025-01-26 17:07:47.323523	95.7	20.0	-90.6	7.9
2025-01-26 17:07:48.482878	95.5	20.1	-90.6	7.1
2025-01-26 17:07:49.645760	95.4	20.3	-90.8	7.7
2025-01-26 17:07:50.811186	95.2	20.4	-90.8	8.3
2025-01-26 17:07:51.968669	95.1	20.5	-90.3	7.8
2025-01-26 17:07:53.136564	94.9	20.7	-88.9	7.8
2025-01-26 17:07:54.291538	94.7	20.8	-89.2	6.9
2025-01-26 17:07:55.458218	94.6	20.9	-89.6	5.4
2025-01-26 17:07:56.621218	94.4	21.0	-89.6	7.7
2025-01-26 17:07:57.778887	94.3	21.2	-91.2	11.0
2025-01-26 17:07:58.939563	94.1	21.3	-90.7	8.4
2025-01-26 17:08:00.116075	93.9	21.4	-90.4	7.3
2025-01-26 17:08:01.269581	93.8	21.6	-90.5	9.5
2025-01-26 17:08:02.447391	93.6	21.7	-89.9	8.6
2025-01-26 17:08:03.613592	93.4	21.8	-90.0	7.1
2025-01-26 17:08:04.777224	93.3	22.0	-90.8	9.1
2025-01-26 17:08:05.944747	93.1	22.1	-90.7	6.9
2025-01-26 17:08:07.105136	92.9	22.2	-90.0	8.8
2025-01-26 17:08:08.274921	92.7	22.4	-90.0	7.0
2025-01-26 17:08:09.434121	92.6	22.5	-88.6	6.4
2025-01-26 17:08:10.610483	92.4	22.6	-89.1	5.4
2025-01-26 17:08:11.771290	92.2	22.8	-89.4	4.8
2025-01-26 17:08:12.930061	92.0	22.9	-88.7	0.7
2025-01-26 17:08:14.104328	91.8	23.1	-88.8	4.3
2025-01-26 17:08:15.267065	91.6	23.2	-88.8	5.4
2025-01-26 17:08:16.430488	91.5	23.3	-88.9	5.1
2025-01-26 17:08:17.596612	91.3	23.5	-89.2	4.7
2025-01-26 17:08:18.759379	91.1	23.6	-89.3	5.5
2025-01-26 17:08:19.924239	90.9	23.7	-89.0	6.0
2025-01-26 17:08:21.087358	90.7	23.9	-89.6	6.8
2025-01-26 17:08:22.252458	90.5	24.0	-89.4	8.3
2025-01-26 17:08:23.416837	90.3	24.2	-89.6	6.8
2025-01-26 17:08:24.585476	90.1	24.3	-90.5	8.1
2025-01-26 17:08:25.745636	89.9	24.4	-90.7	8.0
2025-01-26 17:08:26.915437	89.7	24.6	-90.2	7.7
2025-01-26 17:08:28.073510	89.5	24.7	-90.0	6.5
2025-01-26 17:08:29.233770	89.3	24.9	-90.4	8.2
2025-01-26 17:08:30.406369	89.1	25.0	-90.7	7.3
2025-01-26 17:08:31.566193	88.9	25.1	-90.6	5.3
2025-01-26 17:08:32.733219	88.7	25.3	-90.1	7.3
2025-01-26 17:08:33.895267	88.4	25.4	-89.7	4.2
2025-01-26 17:08:35.054941	88.2	25.6	-89.4	4.9
2025-01-26 17:08:36.223132	88.0	25.7	-89.2	9.0
2025-01-26 17:08:37.386567	87.8	25.9	-89.0	5.1
2025-01-26 17:08:38.552444	87.6	26.0	-89.5	9.4
2025-01-26 17:08:39.713688	87.3	26.2	-89.8	8.3
2025-01-26 17:08:40.873640	87.1	26.3	-89.9	7.7
2025-01-26 17:08:42.032713	86.9	26.4	-90.0	6.5
2025-01-26 17:08:43.192882	86.7	26.6	-89.3	7.7
2025-01-26 17:08:44.358353	86.4	26.7	-89.3	8.1
2025-01-26 17:08:45.525770	86.2	26.9	-89.6	4.5
2025-01-26 17:08:46.689445	86.0	27.0	-89.6	4.2
2025-01-26 17:08:47.853568	85.7	27.2	-89.3	4.9
2025-01-26 17:08:49.019547	85.5	27.3	-90.4	8.9
2025-01-26 17:08:50.160725	85.2	27.5	-90.3	8.1
2025-01-26 17:08:51.323745	85.0	27.6	-90.4	9.7
2025-01-26 17:08:52.485916	84.7	27.7	-90.0	7.1
2025-01-26 17:08:53.653910	84.5	27.9	-90.3	11.3
2025-01-26 17:08:54.814448	84.2	28.0	-90.1	11.9
2025-01-26 17:08:55.981838	84.0	28.2	-90.4	5.5
2025-01-26 17:08:57.146015	83.7	28.3	-90.6	12.8
2025-01-26 17:08:58.307301	83.5	28.5	-90.8	14.3
2025-01-26 17:08:59.472657	83.2	28.6	-90.2	9.9
2025-01-26 17:09:00.629980	82.9	28.8	-90.1	11.9
2025-01-26 17:09:01.791651	82.7	28.9	-90.2	14.0
2025-01-26 17:09:02.954050	82.4	29.1	-89.3	13.3
2025-01-26 17:09:04.122970	82.1	29.2	-88.7	13.7
2025-01-26 17:09:05.282637	81.9	29.4	-89.5	11.6
2025-01-26 17:09:06.446609	81.6	29.5	-90.0	6.6
2025-01-26 17:09:07.611093	81.3	29.7	-90.0	11.0
2025-01-26 17:09:08.772172	81.0	29.8	-90.1	13.2
2025-01-26 17:09:09.937402	80.7	30.0	-90.0	12.3
2025-01-26 17:09:11.105719	80.5	30.1	-89.8	10.9
2025-01-26 17:09:12.264000	80.2	30.3	-89.9	12.4
2025-01-26 17:09:13.423251	79.9	30.4	-89.6	10.4
2025-01-26 17:09:14.589044	79.6	30.6	-90.8	10.2
2025-01-26 17:09:15.752999	79.3	30.7	-90.6	13.6
2025-01-26 17:09:16.917393	79.0	30.8	-90.8	5.4
2025-01-26 17:09:18.081301	78.7	31.0	-90.9	9.3
2025-01-26 17:09:19.244772	78.4	31.1	-90.7	14.2
2025-01-26 17:09:20.407737	78.1	31.3	-90.8	10.2
2025-01-26 17:09:21.570156	77.7	31.4	-91.0	13.6
2025-01-26 17:09:22.721751	77.4	31.6	-90.9	16.4
2025-01-26 17:09:23.845208	77.1	31.7	-91.2	16.8
2025-01-26 17:09:24.965623	76.8	31.9	-91.2	16.8
2025-01-26 17:09:26.086061	76.5	32.0	-90.6	16.0
2025-01-26 17:09:27.206654	76.2	32.1	-91.1	16.4
2025-01-26 17:09:28.327681	75.9	32.3	-90.9	15.5
2025-01-26 17:09:29.449016	75.6	32.4	-91.2	11.6
2025-01-26 17:09:30.569315	75.2	32.6	-91.2	12.9
2025-01-26 17:09:31.690060	74.9	32.7	-90.9	18.3
2025-01-26 17:09:32.815713	74.6	32.8	-91.0	19.0
2025-01-26 17:09:33.959952	74.2	33.0	-90.9	18.2
2025-01-26 17:09:35.124094	73.9	33.1	-90.8	17.7
2025-01-26 17:09:36.283416	73.6	33.3	-90.7	17.2
2025-01-26 17:09:37.444035	73.2	33.4	-91.1	14.0
2025-01-26 17:09:38.600369	72.8	33.5	-90.6	11.6
2025-01-26 17:09:39.763756	72.5	33.7	-90.8	14.2
2025-01-26 17:09:40.926569	72.1	33.8	-90.9	7.7
2025-01-26 17:09:42.085875	71.8	33.9	-90.8	10.1
2025-01-26 17:09:43.252624	71.4	34.1	-90.6	16.9
2025-01-26 17:09:44.411411	71.0	34.2	-90.8	10.1
2025-01-26 17:09:45.567597	70.7	34.4	-91.4	14.0
2025-01-26 17:09:46.727858	70.3	34.5	-89.7	17.1
2025-01-26 17:09:47.897549	69.9	34.6	-89.7	15.7
2025-01-26 17:09:49.066353	69.5	34.8	-89.3	16.7
2025-01-26 17:09:50.221554	69.1	34.9	-89.8	16.6
2025-01-26 17:09:51.385752	68.7	35.0	-90.1	15.1
2025-01-26 17:09:52.545136	68.3	35.2	-90.0	15.4
2025-01-26 17:09:53.713597	67.9	35.3	-90.9	18.0
2025-01-26 17:09:54.877829	67.5	35.4	-90.8	12.8
2025-01-26 17:09:56.043424	67.1	35.5	-90.9	13.2
2025-01-26 17:09:57.206392	66.7	35.7	-89.6	17.2
2025-01-26 17:09:58.368227	66.3	35.8	-89.4	12.0
2025-01-26 17:09:59.531205	65.9	35.9	-89.6	14.5
2025-01-26 17:10:00.687473	65.5	36.0	-90.0	15.5
2025-01-26 17:10:01.846956	65.1	36.2	-89.8	17.0
2025-01-26 17:10:03.002136	64.7	36.3	-89.9	17.6
2025-01-26 17:10:04.170188	64.2	36.4	-89.5	16.1
2025-01-26 17:10:05.334475	63.8	36.5	-89.7	16.1
2025-01-26 17:10:06.499498	63.4	36.6	-89.8	12.8
2025-01-26 17:10:07.662857	63.0	36.7	-90.9	17.6
2025-01-26 17:10:08.830959	62.5	36.9	-90.9	19.7
2025-01-26 17:10:09.988618	62.1	37.0	-91.1	9.7
2025-01-26 17:10:11.151821	61.6	37.1	-91.0	17.9
2025-01-26 17:10:12.303524	61.2	37.2	-90.9	18.8
2025-01-26 17:10:13.465156	60.7	37.3	-91.1	10.1
2025-01-26 17:10:14.628086	60.3	37.4	-91.2	16.7
2025-01-26 17:10:15.787779	59.8	37.5	-91.2	19.5
2025-01-26 17:10:16.951280	59.4	37.6	-91.1	14.6
2025-01-26 17:10:18.115837	58.9	37.7	-90.9	17.8
2025-01-26 17:10:19.281993	58.5	37.8	-90.4	18.9
2025-01-26 17:10:20.447011	58.0	37.9	-90.8	19.2
2025-01-26 17:10:21.608997	57.5	38.0	-90.9	19.9
2025-01-26 17:10:22.759937	57.1	38.1	-91.0	18.8
2025-01-26 17:10:23.923970	56.6	38.2	-91.1	16.6
2025-01-26 17:10:25.088169	56.1	38.3	-90.8	16.8
2025-01-26 17:10:26.253751	55.6	38.3	-90.8	19.7
2025-01-26 17:10:27.416050	55.2	38.4	-91.2	12.7
2025-01-26 17:10:28.582753	54.7	38.5	-91.1	12.4
2025-01-26 17:10:29.743511	54.2	38.6	-90.9	18.4
2025-01-26 17:10:30.908630	53.7	38.7	-91.1	12.9
2025-01-26 17:10:32.069940	53.2	38.7	-90.2	11.3
2025-01-26 17:10:33.235785	52.7	38.8	-90.6	18.5
2025-01-26 17:10:34.399575	52.2	38.9	-91.2	15.6
2025-01-26 17:10:35.562826	51.7	39.0	-90.4	17.0
2025-01-26 17:10:36.719685	51.2	39.0	-90.7	19.0
2025-01-26 17:10:37.879068	50.7	39.1	-91.1	18.9
2025-01-26 17:10:39.040872	50.2	39.1	-91.1	19.6
2025-01-26 17:10:40.202227	49.7	39.2	-91.1	16.1
2025-01-26 17:10:41.362608	49.2	39.3	-91.1	15.9
2025-01-26 17:10:42.523782	48.7	39.3	-91.2	16.1
2025-01-26 17:10:43.686667	48.2	39.4	-90.9	16.5
2025-01-26 17:10:44.843887	47.7	39.4	-91.1	17.3
2025-01-26 17:10:46.005663	47.2	39.5	-90.3	13.1
2025-01-26 17:10:47.167026	46.7	39.5	-90.8	17.2
2025-01-26 17:10:48.324807	46.1	39.5	-90.7	16.8
2025-01-26 17:10:49.490740	45.6	39.6	-90.5	12.0
2025-01-26 17:10:50.653182	45.1	39.6	-90.6	16.7
2025-01-26 17:10:51.820819	44.6	39.6	-91.0	18.7
2025-01-26 17:10:52.982737	44.1	39.7	-90.9	9.5
2025-01-26 17:10:54.147397	43.5	39.7	-90.8	16.5
2025-01-26 17:10:55.315383	43.0	39.7	-90.8	17.7
2025-01-26 17:10:56.477746	42.5	39.8	-91.4	9.5
2025-01-26 17:10:57.643731	42.0	39.8	-91.3	16.2
2025-01-26 17:10:58.806101	41.4	39.8	-91.4	17.3
2025-01-26 17:10:59.968890	40.9	39.8	-91.3	12.3
2025-01-26 17:11:01.126268	40.4	39.8	-91.0	15.1
2025-01-26 17:11:02.286075	39.9	39.8	-91.1	18.2
2025-01-26 17:11:03.451921	39.3	39.8	-90.9	13.0
2025-01-26 17:11:04.615341	38.8	39.8	-91.1	14.7
2025-01-26 17:11:05.777778	38.3	39.8	-91.5	18.0
2025-01-26 17:11:06.954539	37.8	39.8	-91.2	16.1
2025-01-26 17:11:08.115184	37.2	39.8	-89.8	17.1
2025-01-26 17:11:09.266518	36.7	39.8	-89.5	17.8
2025-01-26 17:11:10.427837	36.2	39.8	-89.7	15.0
2025-01-26 17:11:11.591271	35.7	39.8	-90.2	15.9
2025-01-26 17:11:12.753887	35.1	39.8	-90.4	18.5
2025-01-26 17:11:13.917197	34.6	39.8	-90.8	18.3
2025-01-26 17:11:15.082351	34.1	39.7	-90.7	18.2
2025-01-26 17:11:16.247853	33.6	39.7	-90.9	18.1
2025-01-26 17:11:17.404835	33.0	39.7	-91.4	17.5
2025-01-26 17:11:18.565006	32.5	39.7	-90.9	16.8
2025-01-26 17:11:19.728823	32.0	39.6	-91.2	18.2
2025-01-26 17:11:20.895259	31.5	39.6	-91.1	15.7
2025-01-26 17:11:22.059579	31.0	39.6	-90.9	14.8
2025-01-26 17:11:23.217844	30.4	39.5	-91.0	18.0
2025-01-26 17:11:24.381863	29.9	39.5	-90.4	13.0
2025-01-26 17:11:25.548710	29.4	39.4	-90.9	14.5
2025-01-26 17:11:26.714385	28.9	39.4	-90.6	18.3
2025-01-26 17:11:27.876005	28.4	39.3	-90.9	12.0
2025-01-26 17:11:29.041241	27.9	39.3	-91.1	12.4
2025-01-26 17:11:30.210446	27.4	39.2	-90.9	17.5
2025-01-26 17:11:31.378671	26.9	39.2	-90.6	9.5
2025-01-26 17:11:32.535409	26.4	39.1	-91.1	11.3
2025-01-26 17:11:33.699656	25.9	39.0	-91.1	17.3
2025-01-26 17:11:34.861411	25.4	39.0	-90.9	12.4
2025-01-26 17:11:36.026226	24.9	38.9	-90.6	11.7
2025-01-26 17:11:37.188361	24.4	38.8	-90.6	17.7
2025-01-26 17:11:38.351966	23.9	38.8	-90.6	14.2
2025-01-26 17:11:39.520645	23.4	38.7	-89.4	10.1
2025-01-26 17:11:40.684640	22.9	38.6	-89.6	16.4
2025-01-26 17:11:41.853733	22.4	38.5	-89.9	11.6
2025-01-26 17:11:43.012832	21.9	38.4	-89.1	9.1
2025-01-26 17:11:44.178540	21.4	38.4	-88.7	15.4
2025-01-26 17:11:45.341633	21.0	38.3	-89.0	14.0
2025-01-26 17:11:46.506506	20.5	38.2	-89.2	9.4
2025-01-26 17:11:47.673151	20.0	38.1	-89.7	15.4
2025-01-26 17:11:48.832268	19.5	38.0	-89.9	14.9
2025-01-26 17:11:49.999115	19.1	37.9	-89.7	9.2
2025-01-26 17:11:51.164184	18.6	37.8	-89.6	14.2
2025-01-26 17:11:52.328772	18.1	37.7	-90.4	16.7
2025-01-26 17:11:53.496055	17.7	37.6	-91.1	10.2
2025-01-26 17:11:54.654089	17.2	37.5	-91.0	18.0
2025-01-26 17:11:55.814006	16.8	37.4	-91.1	17.8
2025-01-26 17:11:56.974487	16.3	37.3	-91.2	10.3
2025-01-26 17:11:58.140736	15.9	37.2	-90.8	14.9
2025-01-26 17:11:59.276350	15.4	37.1	-90.4	16.7
2025-01-26 17:12:00.426168	15.0	37.0	-90.7	10.9
2025-01-26 17:12:01.588891	14.5	36.9	-91.1	9.8
2025-01-26 17:12:02.747175	14.1	36.8	-91.1	16.3
2025-01-26 17:12:03.907704	13.7	36.7	-90.9	9.4
2025-01-26 17:12:05.071166	13.2	36.5	-90.9	9.3
2025-01-26 17:12:06.236666	12.8	36.4	-90.7	15.0
2025-01-26 17:12:07.408513	12.4	36.3	-91.2	12.1
2025-01-26 17:12:08.575052	12.0	36.2	-91.0	10.7
2025-01-26 17:12:09.736630	11.5	36.1	-90.8	17.5
2025-01-26 17:12:10.898626	11.1	35.9	-91.0	13.5
2025-01-26 17:12:12.072821	10.7	35.8	-90.4	11.7
2025-01-26 17:12:13.231998	10.3	35.7	-90.1	14.5
2025-01-26 17:12:14.400021	9.9	35.6	-90.2	12.0
2025-01-26 17:12:15.560014	9.5	35.4	-90.4	12.5
2025-01-26 17:12:16.717641	9.1	35.3	-91.1	16.5
2025-01-26 17:12:17.886586	8.7	35.2	-90.4	14.4
2025-01-26 17:12:19.050208	8.3	35.1	-90.5	12.5
2025-01-26 17:12:20.213943	7.9	34.9	-90.6	13.0
2025-01-26 17:12:21.379728	7.5	34.8	-90.9	14.2
2025-01-26 17:12:22.540138	7.1	34.7	-90.1	15.9
2025-01-26 17:12:23.706858	6.7	34.5	-90.3	16.0
2025-01-26 17:12:24.871438	6.4	34.4	-90.4	16.6
2025-01-26 17:12:26.034592	6.0	34.2	-90.6	15.2
2025-01-26 17:12:27.198944	5.6	34.1	-90.7	15.2
2025-01-26 17:12:28.362388	5.3	34.0	-90.8	16.0
2025-01-26 17:12:29.526659	4.9	33.8	-90.5	16.5
2025-01-26 17:12:30.681178	4.5	33.7	-90.3	15.4
2025-01-26 17:12:31.837108	4.2	33.6	-90.4	14.2
2025-01-26 17:12:32.998710	3.8	33.4	-90.7	14.1
2025-01-26 17:12:34.162359	3.5	33.3	-91.1	13.8
2025-01-26 17:12:35.325885	3.1	33.1	-90.6	14.6
2025-01-26 17:12:36.493641	2.8	33.0	-91.0	11.6
2025-01-26 17:12:37.655819	2.4	32.9	-90.3	11.7
2025-01-26 17:12:38.814854	2.1	32.7	-90.5	10.2
2025-01-26 17:12:39.975031	1.7	32.6	-91.2	8.8
2025-01-26 17:12:41.150487	1.4	32.4	-90.9	13.9
2025-01-26 17:12:42.314929	1.1	32.3	-90.8	9.0
2025-01-26 17:12:43.476877	0.7	32.1	-90.8	8.5
2025-01-26 17:12:44.637753	0.4	32.0	-91.1	8.2
2025-01-26 17:12:45.797953	0.1	31.8	-90.4	7.8
2025-01-26 17:12:46.961993	359.8	31.7	-90.0	8.1
2025-01-26 17:12:48.121686	359.5	31.6	-89.7	7.4
2025-01-26 17:12:49.287609	359.1	31.4	-89.5	6.7
2025-01-26 17:12:50.450962	358.8	31.3	-89.0	8.9
2025-01-26 17:12:51.618477	358.5	31.1	-89.8	9.7
2025-01-26 17:12:52.780202	358.2	31.0	-89.8	7.8
2025-01-26 17:12:53.940470	357.9	30.8	-90.9	9.4
2025-01-26 17:12:55.103917	357.6	30.7	-90.7	6.5
2025-01-26 17:12:56.265390	357.3	30.5	-90.9	10.8
2025-01-26 17:12:57.427654	357.0	30.4	-90.9	7.8
2025-01-26 17:12:58.585890	356.7	30.2	-91.0	9.8
2025-01-26 17:12:59.743526	356.4	30.1	-91.1	11.6
2025-01-26 17:13:00.900399	356.2	29.9	-90.7	9.0
2025-01-26 17:13:02.065399	355.9	29.8	-90.5	7.0
2025-01-26 17:13:03.222634	355.6	29.6	-90.7	8.5
2025-01-26 17:13:04.387098	355.3	29.5	-90.7	8.1
2025-01-26 17:13:05.547890	355.0	29.3	-90.3	7.0
2025-01-26 17:13:06.713014	354.8	29.2	-90.8	10.8
2025-01-26 17:13:07.872130	354.5	29.0	-90.7	8.0
2025-01-26 17:13:09.031686	354.2	28.9	-90.6	8.1
2025-01-26 17:13:10.197807	354.0	28.7	-90.2	10.0
2025-01-26 17:13:11.347291	353.7	28.6	-90.8	6.4
2025-01-26 17:13:12.505550	353.4	28.5	-91.0	4.4
2025-01-26 17:13:13.668358	353.2	28.3	-91.1	8.8
2025-01-26 17:13:14.831489	352.9	28.2	-91.0	8.2
2025-01-26 17:13:15.993891	352.7	28.0	-91.2	6.2
2025-01-26 17:13:17.162426	352.4	27.9	-91.1	9.8
2025-01-26 17:13:18.318977	352.2	27.7	-91.1	9.0
2025-01-26 17:13:19.484372	351.9	27.6	-91.4	8.5
2025-01-26 17:13:20.646385	351.7	27.4	-91.1	8.4
2025-01-26 17:13:21.812027	351.4	27.3	-91.3	7.5
2025-01-26 17:13:22.966153	351.2	27.1	-91.2	7.9
2025-01-26 17:13:24.121223	350.9	27.0	-91.0	9.9
2025-01-26 17:13:25.284236	350.7	26.8	-91.0	10.0
2025-01-26 17:13:26.448007	350.5	26.7	-91.0	9.8
2025-01-26 17:13:27.610935	350.2	26.6	-91.2	6.8
2025-01-26 17:13:28.776790	350.0	26.4	-91.0	9.1
2025-01-26 17:13:29.942107	349.8	26.3	-91.1	9.5
2025-01-26 17:13:31.106541	349.6	26.1	-90.9	10.9
2025-01-26 17:13:32.274940	349.3	26.0	-91.0	12.7
2025-01-26 17:13:33.419666	349.1	25.8	-91.1	8.4
2025-01-26 17:13:34.574177	348.9	25.7	-91.1	7.9
2025-01-26 17:13:35.700634	348.7	25.5	-91.2	12.3
2025-01-26 17:13:36.820674	348.5	25.4	-91.0	12.7
2025-01-26 17:13:37.941246	348.3	25.3	-91.5	8.0
2025-01-26 17:13:39.061716	348.1	25.1	-91.2	7.4
2025-01-26 17:13:40.181782	347.9	25.0	-91.2	11.2
2025-01-26 17:13:41.302989	347.7	24.9	-91.1	8.0
2025-01-26 17:13:42.422538	347.5	24.7	-90.8	9.4
2025-01-26 17:13:43.543995	347.3	24.6	-91.4	9.6
2025-01-26 17:13:44.668300	347.1	24.5	-90.9	9.5
2025-01-26 17:13:45.809816	346.9	24.3	-90.6	12.1
2025-01-26 17:13:46.968025	346.7	24.2	-90.4	12.5
2025-01-26 17:13:48.118456	346.5	24.0	-90.5	11.3
2025-01-26 17:13:49.275758	346.3	23.9	-90.4	10.8
2025-01-26 17:13:50.403184	346.1	23.8	-90.6	10.3
2025-01-26 17:13:51.541717	345.9	23.6	-91.1	8.3
2025-01-26 17:13:52.694226	345.7	23.5	-91.0	9.7
2025-01-26 17:13:53.845905	345.5	23.4	-90.3	8.1
2025-01-26 17:13:54.994032	345.3	23.2	-90.3	6.3
2025-01-26 17:13:56.145668	345.2	23.1	-90.3	8.1
2025-01-26 17:13:57.306752	345.0	22.9	-90.3	7.0
2025-01-26 17:13:58.470410	344.8	22.8	-91.2	8.6
2025-01-26 17:13:59.626627	344.6	22.7	-91.0	7.4
2025-01-26 17:14:00.783673	344.4	22.5	-91.4	8.5
2025-01-26 17:14:01.951963	344.3	22.4	-91.4	7.1
2025-01-26 17:14:03.120642	344.1	22.3	-90.9	8.1
2025-01-26 17:14:04.280514	343.9	22.1	-90.9	10.2
2025-01-26 17:14:05.441896	343.7	22.0	-91.2	11.9
2025-01-26 17:14:06.606190	343.6	21.9	-91.4	12.8
2025-01-26 17:14:07.768807	343.4	21.7	-91.4	12.1
2025-01-26 17:14:08.938215	343.2	21.6	-91.1	12.8
2025-01-26 17:14:10.099082	343.1	21.5	-91.3	12.7
2025-01-26 17:14:11.258907	342.9	21.3	-91.0	12.1
2025-01-26 17:14:12.410705	342.7	21.2	-91.3	9.6
2025-01-26 17:14:13.539481	342.6	21.1	-91.7	8.0
2025-01-26 17:14:14.698057	342.4	20.9	-91.4	9.7
2025-01-26 17:14:15.836740	342.3	20.8	-91.2	9.2
2025-01-26 17:14:16.997982	342.1	20.7	-91.3	8.5
2025-01-26 17:14:18.154020	341.9	20.6	-90.7	8.6
2025-01-26 17:14:19.315019	341.8	20.4	-90.9	7.0
2025-01-26 17:14:20.472060	341.6	20.3	-91.4	8.2
2025-01-26 17:14:21.639328	341.5	20.2	-91.3	5.7
2025-01-26 17:14:22.799994	341.3	20.0	-91.4	7.3
2025-01-26 17:14:23.961555	341.2	19.9	-91.4	7.4
2025-01-26 17:14:25.125310	341.0	19.8	-90.8	5.9
2025-01-26 17:14:26.285654	340.9	19.7	-90.8	9.6
2025-01-26 17:14:27.456136	340.7	19.5	-91.3	7.5
2025-01-26 17:14:28.614760	340.6	19.4	-91.4	9.4
2025-01-26 17:14:29.781563	340.4	19.3	-91.1	10.1
2025-01-26 17:14:30.945693	340.3	19.2	-91.1	9.3
2025-01-26 17:14:32.112160	340.2	19.0	-90.8	10.7
2025-01-26 17:14:33.271120	340.0	18.9	-91.2	8.4
2025-01-26 17:14:34.426624	339.9	18.8	-91.3	6.3
2025-01-26 17:14:35.586014	339.7	18.7	-90.9	9.5
2025-01-26 17:14:36.746060	339.6	18.5	-91.1	7.9
2025-01-26 17:14:37.909963	339.5	18.4	-91.4	6.0
2025-01-26 17:14:39.074741	339.3	18.3	-91.0	10.5
2025-01-26 17:14:40.243616	339.2	18.2	-91.2	11.0
2025-01-26 17:14:41.404229	339.1	18.1	-90.6	11.0
2025-01-26 17:14:42.567962	338.9	17.9	-90.8	10.5
2025-01-26 17:14:43.725898	338.8	17.8	-90.7	9.6
2025-01-26 17:14:44.886813	338.7	17.7	-90.4	8.8
2025-01-26 17:14:46.045055	338.5	17.6	-90.6	8.2
2025-01-26 17:14:47.197964	338.4	17.5	-90.5	8.0
2025-01-26 17:14:48.355551	338.3	17.3	-90.5	8.3
2025-01-26 17:14:49.509469	338.2	17.2	-91.0	6.6
2025-01-26 17:14:50.670418	338.0	17.1	-91.5	9.0
2025-01-26 17:14:51.836728	337.9	17.0	-91.1	8.3
2025-01-26 17:14:53.000127	337.8	16.9	-91.2	8.2
2025-01-26 17:14:54.156036	337.7	16.8	-90.8	6.7
2025-01-26 17:14:55.318909	337.5	16.6	-91.3	8.0
2025-01-26 17:14:56.479446	337.4	16.5	-91.2	8.4
2025-01-26 17:14:57.631857	337.3	16.4	-89.6	7.2
2025-01-26 17:14:58.789106	337.2	16.3	-90.1	6.9
2025-01-26 17:14:59.952739	337.1	16.2	-90.0	8.8
2025-01-26 17:15:01.107814	337.0	16.1	-89.6	9.5
2025-01-26 17:15:02.269584	336.8	16.0	-90.9	9.5
2025-01-26 17:15:03.433269	336.7	15.8	-91.2	6.5
2025-01-26 17:15:04.594301	336.6	15.7	-91.2	8.2
2025-01-26 17:15:05.754052	336.5	15.6	-91.3	8.1
2025-01-26 17:15:06.919091	336.4	15.5	-91.0	10.9
2025-01-26 17:15:08.076264	336.3	15.4	-90.9	9.8
2025-01-26 17:15:09.240390	336.2	15.3	-91.0	9.8
2025-01-26 17:15:10.404041	336.1	15.2	-90.8	10.3
2025-01-26 17:15:11.562283	335.9	15.1	-91.0	10.2
2025-01-26 17:15:12.725522	335.8	15.0	-91.2	9.8
2025-01-26 17:15:13.889020	335.7	14.8	-91.3	12.8
2025-01-26 17:15:15.050065	335.6	14.7	-91.0	11.3
2025-01-26 17:15:16.218049	335.5	14.6	-91.2	8.8
2025-01-26 17:15:17.364565	335.4	14.5	-91.3	11.8
#Closed at: 2025-01-26 17:07:02.879935