passes_logs/2025/01/26/LEX_Murmansk/LEX_Murmansk__20250126_082415_NOAA_19_rec.log

#Pass ID: 20250126_082415_NOAA 19
#Satellite: NOAA 19
#Configuration: NOAA 19
#Start time: 2025-01-26 08:24:10.531278

#LorettStation: 1.0.0 05.05.2024
#Station: LEX_Murmansk
#Location: 33.156738 lon 68.926811 lat
#TLE: 1 33591U 09005A   25024.84494910  .00000392  00000+0  23341-3 0  9996
#TLE: 2 33591  99.0180  88.6826 0014105  30.8618 329.3380 14.13268098822670

#Time	Az	El	Level	SNR
2025-01-26 08:24:36.663336	28.7	17.9	-91.9	5.3
2025-01-26 08:24:38.946865	28.8	18.1	-92.0	2.2
2025-01-26 08:24:41.252877	28.9	18.4	-91.9	5.5
2025-01-26 08:24:43.549825	29.0	18.7	-92.4	8.7
2025-01-26 08:24:45.851408	29.1	18.9	-92.1	7.2
2025-01-26 08:24:48.150404	29.2	19.2	-91.9	6.7
2025-01-26 08:24:50.454468	29.3	19.5	-91.9	11.4
2025-01-26 08:24:52.742034	29.4	19.8	-91.9	4.5
2025-01-26 08:24:55.008266	29.6	20.1	-92.2	3.3
2025-01-26 08:24:57.293756	29.7	20.4	-91.8	6.7
2025-01-26 08:24:59.585127	29.8	20.7	-91.9	11.0
2025-01-26 08:25:01.881334	29.9	21.0	-92.7	8.5
2025-01-26 08:25:04.180719	30.1	21.3	-91.9	8.2
2025-01-26 08:25:06.475637	30.2	21.6	-92.4	12.2
2025-01-26 08:25:08.758574	30.3	21.9	-92.6	4.2
2025-01-26 08:25:11.036429	30.4	22.2	-92.2	4.5
2025-01-26 08:25:13.331736	30.6	22.5	-92.1	5.1
2025-01-26 08:25:15.629552	30.7	22.8	-92.3	12.6
2025-01-26 08:25:17.928770	30.9	23.1	-92.2	9.5
2025-01-26 08:25:20.241862	31.0	23.5	-92.1	5.5
2025-01-26 08:25:22.535380	31.2	23.8	-92.2	12.1
2025-01-26 08:25:24.859031	31.3	24.1	-91.4	4.3
2025-01-26 08:25:27.160524	31.5	24.5	-92.4	2.3
2025-01-26 08:25:29.461744	31.6	24.8	-92.2	5.1
2025-01-26 08:25:31.760077	31.8	25.2	-92.1	10.8
2025-01-26 08:25:34.056831	31.9	25.5	-91.6	9.0
2025-01-26 08:25:36.359930	32.1	25.9	-92.1	4.1
2025-01-26 08:25:38.659495	32.3	26.3	-92.1	4.3
2025-01-26 08:25:40.947934	32.4	26.6	-92.4	4.9
2025-01-26 08:25:43.233687	32.6	27.0	-92.3	1.3
2025-01-26 08:25:45.514444	32.8	27.4	-92.3	2.5
2025-01-26 08:25:47.812852	33.0	27.7	-92.4	6.1
2025-01-26 08:25:50.118801	33.2	28.1	-92.2	3.9
2025-01-26 08:25:52.418216	33.4	28.5	-92.5	4.8
2025-01-26 08:25:54.712992	33.6	28.9	-92.4	6.1
2025-01-26 08:25:57.022197	33.8	29.3	-92.5	9.9
2025-01-26 08:25:59.317929	34.0	29.7	-92.1	3.4
2025-01-26 08:26:01.617389	34.2	30.1	-92.3	3.2
2025-01-26 08:26:03.918498	34.4	30.6	-92.1	5.2
2025-01-26 08:26:06.218148	34.6	31.0	-92.4	7.6
2025-01-26 08:26:08.523648	34.9	31.4	-92.3	9.8
2025-01-26 08:26:10.823540	35.1	31.8	-92.5	4.6
2025-01-26 08:26:13.118388	35.3	32.3	-92.3	9.9
2025-01-26 08:26:15.407756	35.6	32.7	-92.4	8.6
2025-01-26 08:26:17.715992	35.8	33.2	-92.2	3.5
2025-01-26 08:26:20.012932	36.1	33.6	-92.7	5.7
2025-01-26 08:26:22.315848	36.4	34.1	-92.3	7.8
2025-01-26 08:26:24.625546	36.7	34.6	-92.3	11.9
2025-01-26 08:26:26.931605	36.9	35.1	-92.5	11.8
2025-01-26 08:26:29.237289	37.2	35.6	-92.2	8.6
2025-01-26 08:26:31.539372	37.5	36.1	-92.4	15.8
2025-01-26 08:26:33.835936	37.8	36.5	-92.6	13.5
2025-01-26 08:26:36.106646	38.2	37.0	-92.1	6.8
2025-01-26 08:26:38.350124	38.5	37.5	-92.1	3.1
2025-01-26 08:26:40.592097	38.8	38.1	-92.1	10.0
2025-01-26 08:26:42.834116	39.2	38.6	-91.9	15.3
2025-01-26 08:26:45.080677	39.5	39.1	-92.1	14.8
2025-01-26 08:26:47.350923	39.9	39.6	-92.1	7.5
2025-01-26 08:26:49.659055	40.3	40.2	-92.3	13.4
2025-01-26 08:26:51.947551	40.6	40.7	-92.2	17.9
2025-01-26 08:26:54.244255	41.1	41.3	-92.2	10.3
2025-01-26 08:26:56.544841	41.5	41.8	-92.3	5.5
2025-01-26 08:26:58.847090	41.9	42.4	-92.5	4.8
2025-01-26 08:27:01.140967	42.4	43.0	-92.1	14.5
2025-01-26 08:27:03.448122	42.8	43.6	-92.5	17.7
2025-01-26 08:27:05.764168	43.3	44.2	-92.2	10.6
2025-01-26 08:27:08.068216	43.8	44.8	-92.1	9.7
2025-01-26 08:27:10.368459	44.4	45.4	-92.1	13.1
2025-01-26 08:27:12.664286	44.9	46.0	-91.8	16.7
2025-01-26 08:27:14.959910	45.5	46.6	-92.1	11.2
2025-01-26 08:27:17.257289	46.1	47.3	-91.9	5.1
2025-01-26 08:27:19.555590	46.7	47.9	-91.9	2.9
2025-01-26 08:27:21.853067	47.3	48.6	-92.5	1.8
2025-01-26 08:27:24.150930	48.0	49.2	-92.6	5.7
2025-01-26 08:27:26.452306	48.7	49.8	-92.3	8.9
2025-01-26 08:27:28.745627	49.4	50.5	-92.2	4.5
2025-01-26 08:27:31.048780	50.2	51.2	-92.4	2.3
2025-01-26 08:27:33.348189	51.0	51.8	-92.4	7.7
2025-01-26 08:27:35.653102	51.8	52.5	-92.4	9.1
2025-01-26 08:27:37.956025	52.7	53.2	-92.4	9.0
2025-01-26 08:27:40.257327	53.6	53.8	-92.2	3.3
2025-01-26 08:27:42.559077	54.5	54.5	-92.5	4.3
2025-01-26 08:27:44.852774	55.5	55.2	-92.5	1.6
2025-01-26 08:27:47.164406	56.5	55.9	-92.5	10.2
2025-01-26 08:27:49.456423	57.6	56.5	-92.2	14.7
2025-01-26 08:27:51.750569	58.8	57.2	-92.6	13.7
2025-01-26 08:27:54.041938	60.0	57.9	-92.4	13.8
2025-01-26 08:27:56.342486	61.2	58.6	-92.4	8.5
2025-01-26 08:27:58.647242	62.6	59.2	-92.4	9.5
2025-01-26 08:28:00.943565	64.0	59.9	-92.5	15.0
2025-01-26 08:28:03.239138	65.4	60.5	-92.2	18.4
2025-01-26 08:28:05.537752	67.0	61.1	-92.6	16.6
2025-01-26 08:28:07.845870	68.6	61.8	-92.2	12.6
2025-01-26 08:28:10.150500	70.3	62.4	-92.5	8.0
2025-01-26 08:28:12.458021	72.1	62.9	-92.6	6.3
2025-01-26 08:28:14.751217	73.9	63.5	-92.6	4.1
2025-01-26 08:28:17.050894	75.9	64.1	-92.6	8.6
2025-01-26 08:28:19.353509	78.0	64.6	-92.2	11.8
2025-01-26 08:28:21.651547	80.1	65.1	-92.4	16.8
2025-01-26 08:28:23.926639	82.3	65.5	-92.2	15.5
2025-01-26 08:28:26.167435	84.6	66.0	-92.4	18.8
2025-01-26 08:28:28.409746	86.9	66.3	-92.6	14.8
2025-01-26 08:28:30.651708	89.4	66.7	-92.5	12.9
2025-01-26 08:28:32.897053	91.9	67.0	-92.6	6.9
2025-01-26 08:28:35.173077	94.5	67.3	-92.6	5.5
2025-01-26 08:28:37.473923	97.2	67.5	-92.4	9.5
2025-01-26 08:28:39.777039	100.0	67.7	-92.7	19.0
2025-01-26 08:28:42.078384	102.9	67.9	-92.2	11.6
2025-01-26 08:28:44.376523	105.7	67.9	-92.3	16.5
2025-01-26 08:28:46.685763	108.6	68.0	-92.0	18.0
2025-01-26 08:28:48.985835	111.5	68.0	-92.3	16.8
2025-01-26 08:28:51.281015	114.3	67.9	-92.2	15.4
2025-01-26 08:28:53.579115	117.2	67.8	-92.4	18.2
2025-01-26 08:28:55.880003	120.0	67.7	-92.2	19.0
2025-01-26 08:28:58.183162	122.8	67.4	-92.3	17.5
2025-01-26 08:29:00.480430	125.5	67.2	-92.1	16.8
2025-01-26 08:29:02.785782	128.1	66.9	-92.2	17.9
2025-01-26 08:29:05.080337	130.6	66.6	-92.1	14.1
2025-01-26 08:29:07.384032	133.1	66.2	-92.1	13.7
2025-01-26 08:29:09.675866	135.5	65.8	-92.7	13.3
2025-01-26 08:29:11.982310	137.8	65.3	-92.4	6.0
2025-01-26 08:29:14.286222	140.0	64.8	-92.5	15.8
2025-01-26 08:29:16.574547	142.1	64.3	-92.5	10.5
2025-01-26 08:29:18.879181	144.1	63.8	-92.6	15.1
2025-01-26 08:29:21.184602	146.0	63.2	-92.3	18.9
2025-01-26 08:29:23.483787	147.8	62.7	-92.5	12.6
2025-01-26 08:29:25.783732	149.6	62.1	-92.3	16.2
2025-01-26 08:29:28.089569	151.2	61.5	-92.7	12.4
2025-01-26 08:29:30.396188	152.8	60.8	-92.3	15.8
2025-01-26 08:29:32.690467	154.3	60.2	-92.5	17.4
2025-01-26 08:29:34.987132	155.8	59.6	-92.3	15.7
2025-01-26 08:29:37.284168	157.1	58.9	-92.3	15.5
2025-01-26 08:29:39.584279	158.4	58.2	-92.2	16.7
2025-01-26 08:29:41.882070	159.6	57.6	-92.8	11.3
2025-01-26 08:29:44.182525	160.8	56.9	-92.6	14.0
2025-01-26 08:29:46.486866	161.9	56.2	-92.5	14.6
2025-01-26 08:29:48.783575	163.0	55.6	-92.3	11.0
2025-01-26 08:29:51.083856	164.0	54.9	-92.6	12.2
2025-01-26 08:29:53.384475	165.0	54.2	-92.3	11.5
2025-01-26 08:29:55.689866	165.9	53.5	-92.4	14.6
2025-01-26 08:29:57.992146	166.8	52.9	-92.6	7.8
2025-01-26 08:30:00.282307	167.7	52.2	-92.5	10.8
2025-01-26 08:30:02.583853	168.5	51.5	-92.7	5.8
2025-01-26 08:30:04.887986	169.2	50.9	-92.4	4.5
2025-01-26 08:30:07.187368	170.0	50.2	-92.6	11.2
2025-01-26 08:30:09.490056	170.7	49.5	-92.4	8.1
2025-01-26 08:30:11.792361	171.4	48.9	-92.6	15.6
2025-01-26 08:30:14.090113	172.0	48.2	-92.3	10.9
2025-01-26 08:30:16.390402	172.7	47.6	-92.5	14.4
2025-01-26 08:30:18.692040	173.3	47.0	-92.6	15.5
2025-01-26 08:30:20.988500	173.8	46.4	-92.8	12.5
2025-01-26 08:30:23.289130	174.4	45.7	-92.5	16.0
2025-01-26 08:30:25.583684	174.9	45.1	-92.5	10.5
2025-01-26 08:30:27.888753	175.4	44.5	-92.6	12.3
2025-01-26 08:30:30.194316	175.9	43.9	-92.4	16.1
2025-01-26 08:30:32.507106	176.4	43.3	-92.4	10.7
2025-01-26 08:30:34.804255	176.9	42.7	-92.1	14.5
2025-01-26 08:30:37.109553	177.3	42.1	-92.3	13.8
2025-01-26 08:30:39.418203	177.8	41.6	-92.5	16.4
2025-01-26 08:30:41.717368	178.2	41.0	-92.3	13.1
2025-01-26 08:30:44.024789	178.6	40.5	-92.7	10.1
2025-01-26 08:30:46.333709	179.0	39.9	-92.6	8.8
2025-01-26 08:30:48.631033	179.4	39.4	-92.5	7.6
2025-01-26 08:30:50.941122	179.7	38.8	-92.6	7.7
2025-01-26 08:30:53.242988	180.1	38.3	-92.6	12.9
2025-01-26 08:30:55.542606	180.4	37.8	-92.6	10.2
2025-01-26 08:30:57.849139	180.7	37.3	-92.0	14.8
2025-01-26 08:31:00.147541	181.1	36.7	-92.0	15.8
2025-01-26 08:31:02.438725	181.4	36.2	-92.2	12.9
2025-01-26 08:31:04.748329	181.7	35.7	-91.4	12.8
2025-01-26 08:31:07.054318	182.0	35.3	-91.2	7.6
2025-01-26 08:31:09.352071	182.3	34.8	-92.4	10.8
2025-01-26 08:31:11.599679	182.5	34.3	-92.6	8.6
2025-01-26 08:31:13.840869	182.8	33.9	-92.8	10.3
2025-01-26 08:31:16.082688	183.1	33.4	-92.6	10.5
2025-01-26 08:31:18.325317	183.3	33.0	-92.5	12.5
2025-01-26 08:31:20.596290	183.6	32.5	-92.4	12.2
2025-01-26 08:31:22.897903	183.8	32.1	-92.8	8.4
2025-01-26 08:31:25.198151	184.0	31.6	-92.8	9.1
2025-01-26 08:31:27.497452	184.3	31.2	-92.8	5.6
2025-01-26 08:31:29.801591	184.5	30.8	-92.8	8.0
2025-01-26 08:31:32.109143	184.7	30.3	-92.3	5.5
2025-01-26 08:31:34.410092	184.9	29.9	-92.6	8.6
2025-01-26 08:31:36.718446	185.2	29.5	-92.7	11.7
2025-01-26 08:31:39.027346	185.4	29.1	-92.2	10.0
2025-01-26 08:31:41.332163	185.6	28.7	-92.4	9.3
2025-01-26 08:31:43.630552	185.8	28.3	-92.6	5.3
2025-01-26 08:31:45.927027	185.9	27.9	-92.9	4.1
2025-01-26 08:31:48.243089	186.1	27.5	-92.3	11.3
2025-01-26 08:31:50.538985	186.3	27.2	-92.7	11.6
2025-01-26 08:31:52.835339	186.5	26.8	-92.8	9.0
2025-01-26 08:31:55.143050	186.7	26.4	-93.0	9.0
2025-01-26 08:31:57.442963	186.8	26.1	-92.8	4.8
2025-01-26 08:31:59.746682	187.0	25.7	-92.7	8.0
2025-01-26 08:32:02.056689	187.2	25.3	-92.5	6.8
2025-01-26 08:32:04.355961	187.3	25.0	-92.3	9.6
2025-01-26 08:32:06.668845	187.5	24.6	-92.9	10.7
2025-01-26 08:32:08.973859	187.6	24.3	-92.7	8.5
2025-01-26 08:32:11.278296	187.8	24.0	-92.2	10.4
2025-01-26 08:32:13.589140	187.9	23.6	-92.6	6.3
2025-01-26 08:32:15.883321	188.1	23.3	-92.4	7.7
2025-01-26 08:32:18.191224	188.2	23.0	-92.5	12.5
2025-01-26 08:32:20.492846	188.4	22.6	-92.7	13.6
2025-01-26 08:32:22.792281	188.5	22.3	-92.5	11.1
2025-01-26 08:32:25.103359	188.6	22.0	-92.6	5.3
2025-01-26 08:32:27.416480	188.8	21.7	-92.8	2.6
2025-01-26 08:32:29.719900	188.9	21.4	-92.6	4.3
2025-01-26 08:32:32.029615	189.0	21.1	-92.6	3.2
2025-01-26 08:32:34.328800	189.2	20.8	-92.3	6.0
2025-01-26 08:32:36.624681	189.3	20.5	-92.5	9.2
2025-01-26 08:32:38.929961	189.4	20.2	-92.5	7.8
2025-01-26 08:32:41.237497	189.5	19.9	-92.2	13.1
2025-01-26 08:32:43.548908	189.6	19.6	-92.4	6.5
2025-01-26 08:32:45.851733	189.7	19.3	-92.4	10.0
2025-01-26 08:32:48.157104	189.9	19.1	-92.6	9.5
2025-01-26 08:32:50.463015	190.0	18.8	-92.5	4.7
2025-01-26 08:32:52.765135	190.1	18.5	-92.7	6.6
2025-01-26 08:32:55.071342	190.2	18.2	-92.4	1.5
2025-01-26 08:32:57.372399	190.3	18.0	-92.4	2.8
2025-01-26 08:32:59.684870	190.4	17.7	-92.7	2.7
2025-01-26 08:33:01.986286	190.5	17.4	-92.8	3.5
2025-01-26 08:33:04.280738	190.6	17.2	-92.5	7.2
2025-01-26 08:33:06.580359	190.7	16.9	-92.4	5.4
2025-01-26 08:33:08.892203	190.8	16.7	-92.6	4.9
2025-01-26 08:33:11.195896	190.9	16.4	-92.6	6.7
2025-01-26 08:33:13.504214	191.0	16.1	-92.8	5.6
2025-01-26 08:33:15.814739	191.1	15.9	-92.1	4.9
2025-01-26 08:33:18.115955	191.2	15.7	-92.4	3.7
2025-01-26 08:33:20.421247	191.3	15.4	-92.4	1.3
2025-01-26 08:33:22.719240	191.3	15.2	-92.7	4.3
2025-01-26 08:33:25.021061	191.4	14.9	-92.6	2.4
2025-01-26 08:33:27.321484	191.5	14.7	-92.4	3.7
#Closed at: 2025-01-26 08:24:15.437210