passes_logs/2026/01/22/R3.2S_Murmansk/R3.2S_Murmansk__20260122_224054_SUOMI_NPP_rec.log

#Pass ID: 20260122_224054_SUOMI NPP
#Satellite: SUOMI NPP
#Configuration: NPP
#almurnet v.1.7.20251203
#Start time: 2026-01-22 22:40:56

#Version: 2.2.20231116
#Station: R3.2S_Murmansk
#Location: 33.079688 lon 68.888172 lat
#TLE: 1 37849U 11061A   26022.50498765  .00000208  00000+0  11976-3 0  9992
#TLE: 2 37849  98.7820 324.4892 0002275  50.8149 309.3229 14.19528284737775

#Time	Az	El	Level	Level2	SNR	BER	BlckErr	Temp	State	Recorded	gain1	gain2
2026-01-22 22:40:56.32	19.32	2.11	-54.5	-69.5	3.8	1.49e+00	0	42	0	0	79	21653
2026-01-22 22:41:00.35	19.58	2.34	-54.4	-69.4	3.8	1.49e+00	0	41	104	0	79	21472
2026-01-22 22:41:04.39	19.84	2.58	-54.4	-69.4	3.8	1.49e+00	0	41	104	0	79	21449
2026-01-22 22:41:08.42	20.10	2.81	-54.4	-69.4	3.8	1.49e+00	0	41	104	0	79	21332
2026-01-22 22:41:12.46	20.37	3.04	-54.3	-69.3	3.8	1.49e+00	0	41	104	0	79	21248
2026-01-22 22:41:16.49	20.64	3.28	-54.3	-69.3	3.8	1.49e+00	0	41	104	0	79	21242
2026-01-22 22:41:20.53	20.91	3.52	-54.3	-69.3	3.8	1.49e+00	0	41	104	0	79	21161
2026-01-22 22:41:24.56	21.19	3.76	-54.5	-69.5	3.8	1.49e+00	0	41	104	0	79	21526
2026-01-22 22:41:28.60	21.48	4.00	-54.4	-69.5	3.8	1.49e+00	0	42	104	0	79	21517
2026-01-22 22:41:32.63	21.76	4.24	-54.3	-69.3	3.8	1.49e+00	0	42	104	0	79	21211
2026-01-22 22:41:36.66	22.06	4.48	-54.1	-69.1	3.8	1.49e+00	0	41	104	0	79	20744
2026-01-22 22:41:40.69	22.35	4.73	-53.8	-68.8	3.8	1.49e+00	0	41	104	0	79	19888
2026-01-22 22:41:44.73	22.65	4.98	-51.2	-56.3	5.2	1.49e+00	0	41	104	0	74	6299
2026-01-22 22:41:48.76	22.96	5.23	-51.7	-58.8	7.0	1.49e+00	1	41	104	0	75	7981
2026-01-22 22:41:52.80	23.27	5.48	-47.8	-50.0	16.5	0.00e+00	0	41	0	4194304	66	4836
2026-01-22 22:41:56.83	23.59	5.73	-47.6	-49.7	16.9	0.00e+00	0	41	0	11534336	66	4653
2026-01-22 22:42:00.86	23.91	5.98	-47.2	-49.1	17.5	0.00e+00	0	41	0	18874368	66	4370
2026-01-22 22:42:04.89	24.23	6.24	-47.3	-49.2	17.4	0.00e+00	0	41	0	26214400	65	4700
2026-01-22 22:42:08.92	24.57	6.50	-46.9	-48.7	17.8	0.00e+00	0	41	0	34603008	65	4400
2026-01-22 22:42:12.96	24.90	6.76	-46.7	-48.4	18.1	0.00e+00	0	41	0	41943040	65	4291
2026-01-22 22:42:17.00	25.25	7.02	-46.4	-48.0	18.6	0.00e+00	0	42	0	49283072	64	4331
2026-01-22 22:42:21.03	25.60	7.28	-46.1	-47.7	18.9	0.00e+00	0	41	0	56623104	64	4167
2026-01-22 22:42:25.06	25.95	7.55	-46.2	-47.8	18.8	0.00e+00	0	41	0	65011712	64	4226
2026-01-22 22:42:29.10	26.32	7.81	-46.4	-48.0	18.7	0.00e+00	0	41	0	72351744	63	4576
2026-01-22 22:42:33.14	26.68	8.08	-46.3	-47.8	18.8	0.00e+00	0	41	0	79691776	64	4227
2026-01-22 22:42:37.17	27.06	8.36	-46.4	-48.0	18.7	0.00e+00	0	42	0	87031808	64	4310
2026-01-22 22:42:41.20	27.44	8.63	-46.2	-47.8	19.0	0.00e+00	0	41	0	94371840	64	4195
2026-01-22 22:42:45.24	27.83	8.90	-46.4	-48.0	18.7	0.00e+00	0	42	0	102760448	64	4330
2026-01-22 22:42:49.27	28.22	9.18	-46.7	-48.3	18.4	0.00e+00	0	42	0	110100480	64	4488
2026-01-22 22:42:53.30	28.62	9.46	-46.7	-48.4	18.4	0.00e+00	0	42	0	117440512	64	4514
2026-01-22 22:42:57.34	29.03	9.74	-46.6	-48.2	18.6	0.00e+00	0	42	0	124780544	64	4436
2026-01-22 22:43:01.37	29.45	10.02	-46.5	-48.1	18.7	0.00e+00	0	42	0	132120576	64	4381
2026-01-22 22:43:05.40	29.88	10.31	-46.0	-47.4	19.4	0.00e+00	0	42	0	140509184	63	4279
2026-01-22 22:43:09.43	30.31	10.59	-45.8	-47.2	19.7	0.00e+00	0	42	0	147849216	63	4172
2026-01-22 22:43:13.47	30.75	10.88	-45.5	-46.8	20.0	0.00e+00	0	42	0	155189248	62	4232
2026-01-22 22:43:17.50	31.20	11.17	-45.8	-47.2	19.7	0.00e+00	0	42	0	162529280	62	4406
2026-01-22 22:43:21.54	31.66	11.46	-45.9	-47.4	19.6	0.00e+00	0	42	0	170917888	62	4501
2026-01-22 22:43:25.57	32.12	11.76	-46.2	-47.7	19.3	0.00e+00	0	42	0	178257920	63	4410
2026-01-22 22:43:29.60	32.60	12.05	-46.1	-47.6	19.4	0.00e+00	0	42	0	185597952	63	4356
2026-01-22 22:43:33.64	33.09	12.35	-46.4	-47.9	19.1	0.00e+00	0	42	0	192937984	63	4531
2026-01-22 22:43:37.67	33.58	12.65	-46.6	-48.3	18.7	0.00e+00	0	42	0	200278016	64	4454
2026-01-22 22:43:41.70	34.08	12.95	-46.6	-48.2	18.8	0.00e+00	0	42	0	208666624	64	4413
2026-01-22 22:43:45.73	34.60	13.26	-46.1	-47.5	19.5	0.00e+00	0	42	0	216006656	64	4097
2026-01-22 22:43:49.77	35.12	13.56	-45.9	-47.3	19.7	0.00e+00	0	42	0	223346688	63	4223
2026-01-22 22:43:53.80	35.66	13.87	-45.3	-46.6	20.4	0.00e+00	0	42	0	230686720	62	4123
2026-01-22 22:43:57.83	36.21	14.18	-45.2	-46.4	20.6	0.00e+00	0	42	0	239075328	62	4046
2026-01-22 22:44:01.87	36.76	14.49	-45.3	-46.5	20.5	0.00e+00	0	42	0	246415360	62	4091
2026-01-22 22:44:05.90	37.33	14.80	-45.2	-46.4	20.6	0.00e+00	0	42	0	253755392	61	4268
2026-01-22 22:44:09.94	37.91	15.11	-45.4	-46.7	20.3	0.00e+00	0	42	0	261095424	61	4421
2026-01-22 22:44:13.97	38.50	15.43	-45.9	-47.3	19.9	0.00e+00	0	42	0	268435456	62	4453
2026-01-22 22:44:18.00	39.11	15.74	-46.1	-47.5	19.7	0.00e+00	0	43	0	275775488	63	4301
2026-01-22 22:44:22.03	39.73	16.06	-45.8	-47.2	19.9	0.00e+00	0	43	0	284164096	63	4174
2026-01-22 22:44:26.07	40.36	16.38	-45.3	-46.5	20.5	0.00e+00	0	42	0	291504128	62	4088
2026-01-22 22:44:30.10	41.00	16.70	-45.0	-46.2	20.8	0.00e+00	0	43	0	298844160	61	4175
2026-01-22 22:44:34.13	41.65	17.01	-44.7	-45.9	21.1	0.00e+00	0	42	0	306184192	61	4022
2026-01-22 22:44:38.17	42.32	17.33	-44.4	-45.5	21.4	0.00e+00	0	42	0	314572800	60	4082
2026-01-22 22:44:42.20	43.01	17.65	-44.8	-46.1	21.1	0.00e+00	0	43	0	321912832	60	4344
2026-01-22 22:44:46.23	43.70	17.98	-45.1	-46.3	20.8	0.00e+00	0	42	0	329252864	60	4469
2026-01-22 22:44:50.26	44.42	18.30	-45.2	-46.4	20.7	0.00e+00	0	43	0	336592896	60	4527
2026-01-22 22:44:54.30	45.14	18.62	-45.2	-46.4	20.7	0.00e+00	0	43	0	343932928	61	4282
2026-01-22 22:44:58.34	45.89	18.94	-44.7	-45.9	21.1	0.00e+00	0	43	0	352321536	61	4008
2026-01-22 22:45:02.37	46.64	19.26	-44.5	-45.6	21.4	0.00e+00	0	43	0	359661568	61	3913
2026-01-22 22:45:06.41	47.42	19.58	-44.2	-45.3	21.6	0.00e+00	0	43	0	367001600	60	4000
2026-01-22 22:45:10.44	48.21	19.89	-44.3	-45.4	21.9	0.00e+00	0	43	0	374341632	59	4280
2026-01-22 22:45:14.47	49.01	20.21	-44.1	-45.2	22.1	0.00e+00	0	43	0	381681664	59	4158
2026-01-22 22:45:18.50	49.83	20.52	-43.9	-44.9	22.2	0.00e+00	0	43	0	390070272	59	4048
2026-01-22 22:45:22.54	50.67	20.84	-44.1	-45.2	22.1	0.00e+00	0	43	0	397410304	59	4158
2026-01-22 22:45:26.55	51.52	21.15	-44.2	-45.3	22.0	0.00e+00	0	43	0	404750336	59	4218
2026-01-22 22:45:30.57	52.39	21.45	-44.2	-45.3	22.0	0.00e+00	0	43	0	412090368	59	4222
2026-01-22 22:45:34.60	53.28	21.76	-44.1	-45.1	22.1	0.00e+00	0	43	0	419430400	59	4131
2026-01-22 22:45:38.63	54.18	22.06	-44.3	-45.4	21.9	0.00e+00	0	43	0	427819008	59	4256
2026-01-22 22:45:42.63	55.09	22.35	-44.3	-45.4	21.9	0.00e+00	0	43	0	435159040	59	4270
2026-01-22 22:45:46.65	56.03	22.65	-44.5	-45.6	21.6	0.00e+00	0	43	0	442499072	60	4111
2026-01-22 22:45:50.66	56.98	22.94	-44.3	-45.3	21.9	0.00e+00	0	43	0	449839104	59	4227
2026-01-22 22:45:54.69	57.96	23.22	-44.8	-46.0	21.1	0.00e+00	0	43	0	457179136	60	4322
2026-01-22 22:45:58.73	58.95	23.50	-44.1	-45.1	21.9	0.00e+00	0	43	0	465567744	60	3893
2026-01-22 22:46:02.76	59.96	23.77	-45.0	-46.2	21.0	0.00e+00	0	43	0	472907776	60	4420
2026-01-22 22:46:06.79	60.98	24.04	-45.7	-46.9	20.3	0.00e+00	0	43	0	480247808	61	4534
2026-01-22 22:46:10.82	62.03	24.30	-46.1	-47.5	19.9	0.00e+00	0	43	0	487587840	63	4297
2026-01-22 22:46:14.85	63.09	24.55	-45.3	-46.5	20.8	0.00e+00	0	43	0	495976448	62	4071
2026-01-22 22:46:18.89	64.16	24.79	-46.8	-48.3	19.0	0.00e+00	0	43	0	503316480	64	4482
2026-01-22 22:46:22.92	65.26	25.03	-47.5	-49.2	18.2	0.00e+00	0	43	0	510656512	66	4417
2026-01-22 22:46:26.95	66.36	25.26	-46.4	-47.8	19.5	0.00e+00	0	43	0	517996544	64	4225
2026-01-22 22:46:30.98	67.49	25.47	-48.4	-50.4	17.1	0.00e+00	0	43	0	525336576	67	4800
2026-01-22 22:46:35.01	68.63	25.68	-47.4	-49.1	18.3	0.00e+00	0	43	0	532676608	66	4349
2026-01-22 22:46:39.04	69.78	25.88	-47.2	-48.9	18.6	0.00e+00	0	43	0	541065216	66	4243
2026-01-22 22:46:43.07	70.94	26.07	-47.3	-49.0	18.4	0.00e+00	0	43	0	548405248	65	4593
2026-01-22 22:46:47.11	72.13	26.24	-47.3	-49.0	18.3	0.00e+00	0	43	0	555745280	66	4317
2026-01-22 22:46:51.14	73.32	26.41	-48.8	-51.1	16.5	0.00e+00	0	43	0	563085312	68	4897
2026-01-22 22:46:55.17	74.52	26.56	-47.0	-48.5	18.8	0.00e+00	0	43	0	571473920	65	4329
2026-01-22 22:46:59.21	75.74	26.70	-46.8	-48.3	19.0	0.00e+00	0	43	0	578813952	65	4231
2026-01-22 22:47:03.23	76.96	26.82	-48.0	-49.9	17.5	0.00e+00	0	43	0	586153984	66	4813
2026-01-22 22:47:07.27	78.20	26.94	-47.8	-49.5	17.9	0.00e+00	0	43	0	593494016	66	4586
2026-01-22 22:47:11.30	79.44	27.03	-47.4	-49.1	18.3	0.00e+00	0	43	0	600834048	66	4381
2026-01-22 22:47:15.33	80.69	27.12	-47.4	-49.1	18.4	0.00e+00	0	43	0	609222656	66	4364
2026-01-22 22:47:19.37	81.95	27.19	-46.6	-48.2	19.2	0.00e+00	0	44	0	616562688	65	4151
2026-01-22 22:47:23.41	83.22	27.25	-46.8	-48.3	19.0	0.00e+00	0	43	0	623902720	65	4235
2026-01-22 22:47:27.44	84.48	27.29	-47.9	-49.8	17.7	0.00e+00	0	43	0	631242752	66	4712
2026-01-22 22:47:31.47	85.75	27.32	-47.6	-49.4	18.1	0.00e+00	0	43	0	638582784	66	4503
2026-01-22 22:47:35.50	87.02	27.33	-47.5	-49.2	18.2	0.00e+00	0	43	0	646971392	67	4174
2026-01-22 22:47:39.53	88.29	27.33	-46.3	-47.7	19.6	0.00e+00	0	43	0	654311424	64	4170
2026-01-22 22:47:43.57	89.56	27.31	-45.9	-47.2	20.1	0.00e+00	0	43	0	661651456	63	4191
2026-01-22 22:47:47.60	90.82	27.28	-47.3	-49.0	18.5	0.00e+00	0	43	0	668991488	65	4576
2026-01-22 22:47:51.63	92.09	27.23	-46.9	-48.4	19.0	0.00e+00	0	43	0	677380096	65	4258
2026-01-22 22:47:55.67	93.35	27.17	-46.6	-48.1	19.3	0.00e+00	0	43	0	684720128	65	4102
2026-01-22 22:47:59.70	94.61	27.09	-46.5	-47.9	19.5	0.00e+00	0	43	0	692060160	64	4261
2026-01-22 22:48:03.73	95.86	27.00	-46.9	-48.5	18.9	0.00e+00	0	43	0	699400192	64	4565
2026-01-22 22:48:07.77	97.10	26.90	-45.5	-46.7	20.6	0.00e+00	0	43	0	706740224	63	3947
2026-01-22 22:48:11.80	98.33	26.78	-46.5	-48.0	19.4	0.00e+00	0	43	0	715128832	63	4583
2026-01-22 22:48:15.83	99.56	26.65	-46.1	-47.5	19.7	0.00e+00	0	43	0	722468864	64	4087
2026-01-22 22:48:19.87	100.77	26.51	-45.3	-46.5	20.7	0.00e+00	0	43	0	729808896	62	4098
2026-01-22 22:48:23.90	101.97	26.35	-44.5	-45.6	21.6	0.00e+00	0	43	0	737148928	60	4124
2026-01-22 22:48:27.93	103.16	26.18	-45.9	-47.2	20.1	0.00e+00	0	43	0	745537536	62	4425
2026-01-22 22:48:31.97	104.34	26.00	-44.1	-45.1	21.9	0.00e+00	0	43	0	752877568	60	3902
2026-01-22 22:48:36.00	105.51	25.81	-44.1	-45.2	22.2	0.00e+00	0	43	0	760217600	59	4156
2026-01-22 22:48:40.04	106.66	25.61	-44.1	-45.2	22.1	0.00e+00	0	44	0	767557632	59	4152
2026-01-22 22:48:44.08	107.80	25.40	-44.8	-46.0	21.2	0.00e+00	0	43	0	774897664	60	4314
2026-01-22 22:48:48.11	108.92	25.18	-44.1	-45.2	22.2	0.00e+00	0	43	0	782237696	59	4159
2026-01-22 22:48:52.14	110.03	24.95	-44.2	-45.2	22.1	0.00e+00	0	43	0	790626304	59	4193
2026-01-22 22:48:56.18	111.12	24.71	-44.4	-45.5	21.6	0.00e+00	0	43	0	797966336	60	4095
2026-01-22 22:49:00.21	112.19	24.46	-44.1	-45.2	22.2	0.00e+00	0	43	0	805306368	59	4150
2026-01-22 22:49:04.24	113.25	24.20	-44.4	-45.5	21.8	0.00e+00	0	43	0	812646400	59	4320
2026-01-22 22:49:08.28	114.29	23.94	-44.5	-45.6	21.8	0.00e+00	0	43	0	821035008	59	4353
2026-01-22 22:49:12.31	115.31	23.67	-45.0	-46.2	21.0	0.00e+00	0	43	0	828375040	60	4421
2026-01-22 22:49:16.34	116.32	23.39	-44.2	-45.3	21.8	0.00e+00	0	43	0	835715072	60	3974
2026-01-22 22:49:20.37	117.30	23.11	-44.3	-45.4	21.6	0.00e+00	0	43	0	843055104	60	4026
2026-01-22 22:49:24.41	118.28	22.82	-44.6	-45.8	21.3	0.00e+00	0	43	0	850395136	60	4208
2026-01-22 22:49:28.44	119.23	22.53	-44.6	-45.7	21.3	0.00e+00	0	44	0	858783744	60	4193
2026-01-22 22:49:32.47	120.16	22.23	-45.1	-46.3	20.8	0.00e+00	0	43	0	866123776	60	4483
2026-01-22 22:49:36.50	121.08	21.93	-44.6	-45.8	21.4	0.00e+00	0	43	0	873463808	61	3962
2026-01-22 22:49:40.53	121.98	21.63	-46.0	-47.4	19.9	0.00e+00	0	43	0	880803840	62	4501
2026-01-22 22:49:44.57	122.87	21.32	-44.8	-46.0	21.1	0.00e+00	0	43	0	888143872	61	4085
2026-01-22 22:49:48.60	123.74	21.01	-44.6	-45.7	21.3	0.00e+00	0	43	0	896532480	60	4174
2026-01-22 22:49:52.63	124.58	20.70	-45.2	-46.5	20.6	0.00e+00	0	43	0	903872512	61	4306
2026-01-22 22:49:56.66	125.42	20.38	-45.9	-47.3	19.9	0.00e+00	0	43	0	911212544	62	4482
2026-01-22 22:50:00.69	126.23	20.07	-44.8	-45.9	21.1	0.00e+00	0	43	0	918552576	61	4039
2026-01-22 22:50:04.73	127.04	19.75	-44.6	-45.7	21.6	0.00e+00	0	43	0	926941184	59	4404
2026-01-22 22:50:08.76	127.82	19.43	-45.9	-47.3	19.8	0.00e+00	0	43	0	934281216	62	4479
2026-01-22 22:50:12.79	128.59	19.11	-45.2	-46.4	20.6	0.00e+00	0	43	0	941621248	62	4026
2026-01-22 22:50:16.82	129.34	18.78	-45.4	-46.7	20.4	0.00e+00	0	43	0	948961280	61	4410
2026-01-22 22:50:20.85	130.08	18.46	-44.2	-45.3	21.5	0.00e+00	0	43	0	956301312	60	4002
2026-01-22 22:50:24.89	130.80	18.14	-44.4	-45.5	21.3	0.00e+00	0	43	0	964689920	60	4093
2026-01-22 22:50:28.93	131.51	17.82	-44.7	-45.9	21.0	0.00e+00	0	43	0	972029952	60	4257
2026-01-22 22:50:32.96	132.21	17.49	-45.2	-46.5	20.5	0.00e+00	0	43	0	979369984	61	4302
2026-01-22 22:50:36.99	132.89	17.17	-46.2	-47.7	19.4	0.00e+00	0	43	0	986710016	63	4397
2026-01-22 22:50:41.02	133.55	16.85	-45.1	-46.3	20.6	0.00e+00	0	43	0	994050048	62	3986
2026-01-22 22:50:45.06	134.20	16.53	-44.6	-45.8	21.0	0.00e+00	0	43	0	1002438656	61	3970
2026-01-22 22:50:49.09	134.84	16.21	-44.3	-45.5	21.3	0.00e+00	0	43	0	1009778688	60	4064
2026-01-22 22:50:53.12	135.47	15.89	-44.3	-45.4	21.3	0.00e+00	0	43	0	1017118720	60	4022
2026-01-22 22:50:57.15	136.08	15.57	-44.9	-46.1	20.7	0.00e+00	0	43	0	1024458752	60	4387
2026-01-22 22:51:01.19	136.68	15.26	-45.7	-47.1	19.8	0.00e+00	0	43	0	1031798784	61	4610
2026-01-22 22:51:05.22	137.27	14.94	-45.6	-47.0	19.9	0.00e+00	0	43	0	1040187392	62	4325
2026-01-22 22:51:09.25	137.85	14.63	-45.2	-46.5	20.4	0.00e+00	0	43	0	1047527424	62	4063
2026-01-22 22:51:13.29	138.41	14.31	-44.9	-46.2	20.6	0.00e+00	0	43	0	1054867456	61	4149
2026-01-22 22:51:17.32	138.97	14.00	-44.6	-45.8	20.9	0.00e+00	0	43	0	1062207488	61	3970
2026-01-22 22:51:21.36	139.51	13.69	-44.4	-45.6	21.1	0.00e+00	0	43	0	1070596096	60	4099
2026-01-22 22:51:25.38	140.04	13.38	-45.0	-46.3	20.4	0.00e+00	0	43	0	1077936128	60	4460
2026-01-22 22:51:29.42	140.56	13.08	-46.0	-47.5	19.4	0.00e+00	0	43	0	1085276160	62	4551
2026-01-22 22:51:33.45	141.07	12.77	-45.7	-47.1	19.7	0.00e+00	0	43	0	1092616192	62	4386
2026-01-22 22:51:37.49	141.57	12.47	-45.6	-47.0	19.8	0.00e+00	0	43	0	1099956224	62	4319
2026-01-22 22:51:41.52	142.06	12.17	-45.9	-47.4	19.5	0.00e+00	0	43	0	1108344832	62	4495
2026-01-22 22:51:45.55	142.55	11.87	-46.5	-48.1	18.7	0.00e+00	0	43	0	1115684864	63	4641
2026-01-22 22:51:49.59	143.02	11.57	-46.3	-47.9	18.9	0.00e+00	0	43	0	1123024896	63	4511
2026-01-22 22:51:53.62	143.48	11.28	-46.3	-47.9	18.9	0.00e+00	0	43	0	1130364928	63	4522
2026-01-22 22:51:57.65	143.94	10.98	-46.2	-47.7	19.0	0.00e+00	0	43	0	1137704960	63	4440
2026-01-22 22:52:01.69	144.38	10.69	-46.6	-48.2	18.5	0.00e+00	0	43	0	1146093568	63	4693
2026-01-22 22:52:05.72	144.82	10.40	-46.2	-47.8	18.9	0.00e+00	0	43	0	1153433600	63	4469
2026-01-22 22:52:09.75	145.25	10.11	-46.0	-47.5	19.2	0.00e+00	0	43	0	1160773632	63	4321
2026-01-22 22:52:13.79	145.67	9.83	-46.3	-47.8	18.9	0.00e+00	0	43	0	1168113664	63	4476
2026-01-22 22:52:17.82	146.08	9.55	-47.0	-48.8	17.9	0.00e+00	0	43	0	1176502272	64	4724
2026-01-22 22:52:21.86	146.49	9.26	-47.2	-49.1	17.6	0.00e+00	0	43	0	1183842304	65	4614
2026-01-22 22:52:25.89	146.89	8.98	-47.2	-49.1	17.5	0.00e+00	0	43	0	1191182336	65	4603
2026-01-22 22:52:29.92	147.28	8.71	-46.6	-48.3	18.2	0.00e+00	0	43	0	1198522368	65	4234
2026-01-22 22:52:33.95	147.66	8.43	-46.3	-48.0	18.5	0.00e+00	0	42	0	1205862400	64	4307
2026-01-22 22:52:37.98	148.04	8.16	-46.1	-47.7	18.9	0.00e+00	0	43	0	1214251008	63	4411
2026-01-22 22:52:42.02	148.41	7.88	-46.3	-47.9	18.6	0.00e+00	0	42	0	1221591040	63	4530
2026-01-22 22:52:46.05	148.78	7.62	-46.3	-47.9	18.7	0.00e+00	0	42	0	1228931072	63	4507
2026-01-22 22:52:50.08	149.13	7.35	-46.4	-48.0	18.5	0.00e+00	0	42	0	1236271104	63	4586
2026-01-22 22:52:54.11	149.48	7.08	-46.0	-47.5	18.9	0.00e+00	0	43	0	1243611136	63	4336
2026-01-22 22:52:58.14	149.83	6.82	-46.7	-48.4	18.0	0.00e+00	0	42	0	1251999744	63	4811
2026-01-22 22:53:02.18	150.17	6.55	-46.4	-48.1	18.3	0.00e+00	0	42	0	1259339776	63	4638
2026-01-22 22:53:06.21	150.50	6.29	-46.9	-48.8	17.5	0.00e+00	0	42	0	1266679808	64	4732
2026-01-22 22:53:10.25	150.83	6.04	-47.4	-49.5	16.9	0.00e+00	0	43	0	1274019840	65	4827
2026-01-22 22:53:14.28	151.16	5.78	-47.4	-49.5	16.8	0.00e+00	0	43	0	1281359872	65	4840
2026-01-22 22:53:18.31	151.47	5.52	-47.3	-49.4	16.8	0.00e+00	0	42	0	1289748480	65	4792
2026-01-22 22:53:22.34	151.79	5.27	-46.8	-48.7	17.5	0.00e+00	0	42	0	1297088512	65	4421
2026-01-22 22:53:26.37	152.09	5.02	-48.4	-51.1	15.3	0.00e+00	0	42	0	1304428544	67	5194
2026-01-22 22:53:30.41	152.40	4.77	-53.5	-68.5	3.8	1.49e+00	0	43	104	1305477120	77	21594
2026-01-22 22:53:34.44	152.69	4.52	-53.9	-68.9	3.8	1.49e+00	0	42	104	1305477120	78	21361
2026-01-22 22:53:38.47	152.99	4.27	-54.2	-69.2	3.8	1.49e+00	0	43	104	1305477120	78	22053
2026-01-22 22:53:42.50	153.27	4.03	-54.4	-69.4	3.8	1.49e+00	0	43	104	1305477120	79	21344
2026-01-22 22:53:46.53	153.56	3.79	-54.5	-69.5	3.8	1.49e+00	0	42	104	1305477120	79	21710
2026-01-22 22:53:50.56	153.84	3.55	-54.7	-69.7	3.8	1.49e+00	0	43	104	1305477120	79	22133
2026-01-22 22:53:54.59	154.11	3.31	-54.7	-69.7	3.8	1.49e+00	0	43	104	1305477120	79	22141
2026-01-22 22:53:58.62	154.38	3.07	-54.6	-69.6	3.8	1.49e+00	0	42	104	1305477120	79	21883
2026-01-22 22:54:02.65	154.65	2.83	-54.5	-69.5	3.8	1.49e+00	0	42	104	1305477120	79	21678
2026-01-22 22:54:06.69	154.91	2.60	-54.3	-69.3	3.8	1.49e+00	0	42	104	1305477120	79	21139
2026-01-22 22:54:10.72	155.17	2.36	-54.0	-69.0	3.8	1.49e+00	0	42	104	1305477120	79	20342
2026-01-22 22:54:14.75	155.43	2.13	-53.7	-68.6	3.8	1.49e+00	0	43	104	1305477120	79	19606
2026-01-22 22:54:18.78	155.68	1.90	-53.6	-68.6	3.8	1.49e+00	0	42	104	1305477120	79	19569

#Closed at: 2026-01-22 22:54:20
#Recorded file [1305 MB]: D:/lorett/data/31041_260123_014056.dat