passes_logs/2026/01/22/R3.2S_Murmansk/R3.2S_Murmansk__20260122_233832_FENGYUN_3D_rec.log

#Pass ID: 20260122_233832_FENGYUN 3D
#Satellite: FENGYUN 3D
#Configuration: FENGYUN 3D
#almurnet v.1.7.20251203
#Start time: 2026-01-22 23:38:34

#Version: 2.2.20231116
#Station: R3.2S_Murmansk
#Location: 33.079688 lon 68.888172 lat
#TLE: 1 43010U 17072A   26022.47411728  .00000617  00000+0  31375-3 0  9996
#TLE: 2 43010  98.9952 354.4060 0002481  95.7964 264.3494 14.19699924424319

#Time	Az	El	Level	Level2	SNR	BER	BlckErr	Temp	State	Recorded	gain1	gain2
2026-01-22 23:38:34.44	19.30	2.09	-52.5	-64.4	3.8	8.46e-01	0	42	0	0	77	13484
2026-01-22 23:38:37.47	19.58	2.24	-52.4	-64.2	3.8	8.45e-01	0	42	104	0	75	14812
2026-01-22 23:38:40.49	19.86	2.38	-52.4	-64.2	3.8	8.46e-01	0	42	104	0	75	14808
2026-01-22 23:38:43.52	20.15	2.52	-52.4	-64.1	3.8	8.47e-01	0	42	104	0	75	14689
2026-01-22 23:38:46.54	20.44	2.67	-52.4	-64.2	3.8	8.47e-01	0	42	104	0	75	14792
2026-01-22 23:38:49.57	20.73	2.81	-52.4	-64.2	3.8	8.47e-01	0	43	104	0	75	14770
2026-01-22 23:38:52.60	21.02	2.95	-52.4	-64.1	3.8	8.46e-01	0	43	104	0	75	14702
2026-01-22 23:38:55.62	21.32	3.10	-52.4	-64.0	3.8	8.45e-01	0	43	104	0	75	14450
2026-01-22 23:38:58.65	21.62	3.24	-52.4	-63.9	3.8	8.47e-01	0	43	104	0	75	14325
2026-01-22 23:39:01.67	21.92	3.38	-52.4	-64.2	3.8	8.46e-01	0	43	104	0	75	14757
2026-01-22 23:39:04.69	22.23	3.53	-52.4	-64.3	3.8	8.45e-01	0	43	104	0	75	14941
2026-01-22 23:39:07.72	22.54	3.67	-52.4	-64.2	3.8	8.46e-01	0	43	104	0	75	14786
2026-01-22 23:39:10.74	22.85	3.82	-52.4	-64.1	3.8	8.46e-01	0	43	104	0	75	14692
2026-01-22 23:39:13.77	23.16	3.96	-52.4	-64.4	3.8	8.46e-01	0	43	104	0	75	15097
2026-01-22 23:39:16.80	23.48	4.11	-52.4	-64.3	3.8	8.46e-01	0	43	104	0	75	15008
2026-01-22 23:39:19.82	23.80	4.25	-52.4	-64.1	3.8	8.46e-01	0	43	104	0	75	14613
2026-01-22 23:39:22.85	24.12	4.40	-52.1	-61.5	3.9	8.45e-01	0	43	104	0	75	10838
2026-01-22 23:39:25.87	24.45	4.54	-51.6	-58.4	5.2	7.81e-01	0	43	0	0	75	7595
2026-01-22 23:39:28.89	24.78	4.68	-48.9	-51.6	11.7	1.77e-03	0	43	0	14680064	69	4888
2026-01-22 23:39:31.92	25.11	4.83	-46.1	-47.6	15.7	0.00e+00	0	44	0	31457280	64	4139
2026-01-22 23:39:34.95	25.45	4.97	-46.7	-48.4	14.8	1.10e-06	0	44	0	49283072	64	4535
2026-01-22 23:39:37.97	25.78	5.12	-46.2	-47.9	15.5	0.00e+00	0	44	0	66060288	64	4243
2026-01-22 23:39:41.00	26.13	5.26	-43.6	-44.7	19.2	0.00e+00	0	44	0	73400320	59	3928
2026-01-22 23:39:44.02	26.47	5.41	-43.3	-44.4	19.5	0.00e+00	0	44	0	90177536	58	4005
2026-01-22 23:39:47.05	26.82	5.55	-43.3	-44.3	19.6	0.00e+00	0	43	0	108003328	58	3980
2026-01-22 23:39:50.08	27.17	5.70	-43.1	-44.1	19.9	0.00e+00	0	44	0	124780544	58	3911
2026-01-22 23:39:53.10	27.53	5.84	-43.3	-44.3	19.6	0.00e+00	0	44	0	141557760	57	4224
2026-01-22 23:39:56.13	27.89	5.99	-43.2	-44.3	19.7	0.00e+00	0	44	0	158334976	57	4201
2026-01-22 23:39:59.16	28.25	6.13	-43.1	-44.1	19.9	0.00e+00	0	44	0	176160768	57	4141
2026-01-22 23:40:02.18	28.61	6.28	-42.9	-43.9	20.1	0.00e+00	0	44	0	192937984	57	4028
2026-01-22 23:40:05.21	28.98	6.42	-43.1	-44.2	19.8	0.00e+00	0	44	0	209715200	57	4150
2026-01-22 23:40:08.23	29.35	6.56	-43.2	-44.3	19.8	0.00e+00	0	44	0	226492416	57	4202
2026-01-22 23:40:11.26	29.73	6.71	-42.7	-43.6	20.5	0.00e+00	0	44	0	243269632	57	3910
2026-01-22 23:40:14.29	30.11	6.85	-42.5	-43.4	20.6	0.00e+00	0	44	0	261095424	57	3819
2026-01-22 23:40:17.31	30.49	6.99	-42.3	-43.2	20.9	0.00e+00	0	44	0	277872640	56	3937
2026-01-22 23:40:20.33	30.88	7.14	-42.4	-43.3	20.7	0.00e+00	0	44	0	294649856	56	3999
2026-01-22 23:40:23.36	31.27	7.28	-42.5	-43.4	20.7	0.00e+00	0	44	0	311427072	56	4034
2026-01-22 23:40:26.38	31.66	7.42	-42.5	-43.4	20.7	0.00e+00	0	44	0	328204288	56	4049
2026-01-22 23:40:29.41	32.06	7.56	-42.5	-43.5	20.7	0.00e+00	0	44	0	346030080	56	4054
2026-01-22 23:40:32.44	32.46	7.71	-42.4	-43.3	20.8	0.00e+00	0	44	0	362807296	56	3993
2026-01-22 23:40:35.47	32.87	7.85	-42.4	-43.4	20.8	0.00e+00	0	44	0	379584512	56	4029
2026-01-22 23:40:38.49	33.28	7.99	-42.8	-43.7	20.4	0.00e+00	0	44	0	396361728	56	4193
2026-01-22 23:40:41.52	33.69	8.13	-42.7	-43.7	20.6	0.00e+00	0	44	0	413138944	56	4148
2026-01-22 23:40:44.55	34.11	8.27	-42.1	-43.1	21.1	0.00e+00	0	44	0	430964736	56	3874
2026-01-22 23:40:47.57	34.53	8.41	-42.3	-43.2	21.0	0.00e+00	0	44	0	447741952	56	3936
2026-01-22 23:40:50.60	34.95	8.55	-42.0	-42.9	21.3	0.00e+00	0	44	0	464519168	56	3814
2026-01-22 23:40:53.62	35.38	8.68	-42.0	-42.9	21.2	0.00e+00	0	44	0	481296384	55	4051
2026-01-22 23:40:56.65	35.81	8.82	-41.8	-42.7	21.4	0.00e+00	0	44	0	499122176	55	3946
2026-01-22 23:40:59.68	36.25	8.96	-41.9	-42.8	21.3	0.00e+00	0	44	0	515899392	55	3996
2026-01-22 23:41:02.71	36.69	9.10	-41.9	-42.7	21.4	0.00e+00	0	44	0	532676608	55	3953
2026-01-22 23:41:05.73	37.14	9.23	-41.6	-42.5	21.7	0.00e+00	0	44	0	549453824	55	3832
2026-01-22 23:41:08.76	37.59	9.37	-41.6	-42.5	21.7	0.00e+00	0	44	0	567279616	55	3829
2026-01-22 23:41:11.78	38.04	9.50	-41.7	-42.6	21.6	0.00e+00	0	44	0	584056832	55	3888
2026-01-22 23:41:14.81	38.49	9.63	-41.7	-42.5	21.6	0.00e+00	0	44	0	600834048	55	3863
2026-01-22 23:41:17.83	38.95	9.77	-41.5	-42.4	21.8	0.00e+00	0	44	0	617611264	54	4005
2026-01-22 23:41:20.85	39.42	9.90	-41.6	-42.4	21.8	0.00e+00	0	44	0	635437056	54	4049
2026-01-22 23:41:23.88	39.89	10.03	-41.4	-42.2	22.0	0.00e+00	0	44	0	652214272	54	3942
2026-01-22 23:41:26.91	40.36	10.16	-41.3	-42.2	22.0	0.00e+00	0	44	0	668991488	54	3922
2026-01-22 23:41:29.93	40.83	10.29	-41.2	-42.1	22.2	0.00e+00	0	44	0	685768704	54	3869
2026-01-22 23:41:32.96	41.32	10.41	-41.3	-42.1	22.1	0.00e+00	0	44	0	703594496	54	3892
2026-01-22 23:41:35.99	41.80	10.54	-41.2	-42.0	22.2	0.00e+00	0	44	0	720371712	54	3851
2026-01-22 23:41:39.01	42.29	10.66	-41.2	-42.1	22.2	0.00e+00	0	44	0	737148928	54	3870
2026-01-22 23:41:42.04	42.78	10.79	-41.2	-42.0	22.2	0.00e+00	0	44	0	754974720	54	3835
2026-01-22 23:41:45.06	43.28	10.91	-41.3	-42.2	22.1	0.00e+00	0	44	0	771751936	54	3920
2026-01-22 23:41:48.09	43.78	11.03	-41.3	-42.1	22.1	0.00e+00	0	44	0	788529152	54	3912
2026-01-22 23:41:51.12	44.29	11.15	-41.4	-42.3	22.0	0.00e+00	0	44	0	805306368	54	3972
2026-01-22 23:41:54.14	44.79	11.27	-41.3	-42.2	22.1	0.00e+00	0	44	0	822083584	54	3930
2026-01-22 23:41:57.17	45.31	11.39	-41.2	-42.0	22.2	0.00e+00	0	44	0	839909376	54	3862
2026-01-22 23:42:00.19	45.82	11.50	-41.0	-41.8	22.4	0.00e+00	0	44	0	856686592	54	3764
2026-01-22 23:42:03.22	46.35	11.62	-41.1	-41.9	22.3	0.00e+00	0	44	0	873463808	53	4027
2026-01-22 23:42:06.24	46.87	11.73	-41.2	-42.0	22.3	0.00e+00	0	44	0	890241024	53	4075
2026-01-22 23:42:09.26	47.40	11.84	-40.9	-41.7	22.5	0.00e+00	0	44	0	907018240	53	3938
2026-01-22 23:42:12.29	47.93	11.95	-40.7	-41.5	22.8	0.00e+00	0	44	0	924844032	53	3827
2026-01-22 23:42:15.31	48.47	12.06	-40.7	-41.4	22.8	0.00e+00	0	44	0	941621248	53	3814
2026-01-22 23:42:18.34	49.01	12.17	-40.9	-41.8	22.5	0.00e+00	0	44	0	958398464	53	3967
2026-01-22 23:42:21.37	49.55	12.27	-41.1	-41.9	22.3	0.00e+00	0	44	0	975175680	53	4051
2026-01-22 23:42:24.39	50.10	12.37	-40.8	-41.6	22.7	0.00e+00	0	44	0	991952896	53	3881
2026-01-22 23:42:27.41	50.65	12.47	-40.8	-41.6	22.7	0.00e+00	0	44	0	1009778688	53	3873
2026-01-22 23:42:30.44	51.20	12.57	-40.6	-41.4	22.9	0.00e+00	0	44	0	1026555904	53	3800
2026-01-22 23:42:33.46	51.76	12.67	-40.8	-41.6	22.6	0.00e+00	0	44	0	1043333120	53	3898
2026-01-22 23:42:36.49	52.33	12.76	-40.7	-41.5	22.7	0.00e+00	0	44	0	1060110336	53	3861
2026-01-22 23:42:39.51	52.89	12.85	-40.8	-41.6	22.7	0.00e+00	0	44	0	1076887552	53	3882
2026-01-22 23:42:42.53	53.46	12.94	-40.8	-41.6	22.6	0.00e+00	0	44	0	1094713344	53	3913
2026-01-22 23:42:45.56	54.03	13.03	-40.6	-41.4	22.9	0.00e+00	0	44	0	1111490560	53	3795
2026-01-22 23:42:48.58	54.61	13.11	-40.7	-41.5	22.8	0.00e+00	0	44	0	1128267776	53	3840
2026-01-22 23:42:51.61	55.19	13.20	-40.6	-41.4	22.8	0.00e+00	0	44	0	1145044992	53	3819
2026-01-22 23:42:54.63	55.77	13.28	-40.5	-41.3	23.0	0.00e+00	0	44	0	1161822208	53	3762
2026-01-22 23:42:57.66	56.35	13.36	-40.3	-41.1	23.2	0.00e+00	0	44	0	1179648000	52	3896
2026-01-22 23:43:00.69	56.94	13.43	-40.5	-41.3	23.0	0.00e+00	0	44	0	1196425216	52	3965
2026-01-22 23:43:03.72	57.53	13.50	-40.4	-41.1	23.1	0.00e+00	0	44	0	1213202432	52	3911
2026-01-22 23:43:06.74	58.13	13.57	-40.2	-41.0	23.3	0.00e+00	0	44	0	1231028224	52	3827
2026-01-22 23:43:09.77	58.72	13.64	-40.2	-41.0	23.3	0.00e+00	0	44	0	1247805440	52	3842
2026-01-22 23:43:12.79	59.32	13.71	-40.5	-41.3	23.0	0.00e+00	0	44	0	1264582656	52	3960
2026-01-22 23:43:15.82	59.92	13.77	-40.5	-41.3	23.0	0.00e+00	0	44	0	1281359872	52	3976
2026-01-22 23:43:18.85	60.53	13.83	-40.7	-41.5	22.8	0.00e+00	0	44	0	1299185664	52	4086
2026-01-22 23:43:21.88	61.14	13.89	-40.8	-41.6	22.7	0.00e+00	0	44	0	1315962880	52	4114
2026-01-22 23:43:24.90	61.74	13.94	-40.4	-41.2	23.1	0.00e+00	0	44	0	1332740096	52	3926
2026-01-22 23:43:27.93	62.36	13.99	-40.4	-41.2	23.1	0.00e+00	0	44	0	1349517312	52	3914
2026-01-22 23:43:30.95	62.97	14.04	-40.5	-41.3	22.9	0.00e+00	0	44	0	1367343104	52	3998
2026-01-22 23:43:33.98	63.58	14.09	-40.4	-41.2	23.1	0.00e+00	0	44	0	1384120320	52	3919
2026-01-22 23:43:37.00	64.20	14.13	-40.5	-41.3	23.0	0.00e+00	0	44	0	1400897536	52	3980
2026-01-22 23:43:40.03	64.82	14.17	-40.3	-41.0	23.2	0.00e+00	0	44	0	1417674752	52	3860
2026-01-22 23:43:43.06	65.44	14.21	-40.2	-41.0	23.3	0.00e+00	0	44	0	1435500544	52	3830
2026-01-22 23:43:46.09	66.06	14.24	-40.3	-41.0	23.2	0.00e+00	0	44	0	1452277760	52	3867
2026-01-22 23:43:49.11	66.68	14.27	-40.4	-41.2	23.0	0.00e+00	0	44	0	1469054976	52	3945
2026-01-22 23:43:52.14	67.31	14.30	-40.4	-41.1	23.1	0.00e+00	0	44	0	1485832192	52	3913
2026-01-22 23:43:55.17	67.93	14.32	-40.5	-41.3	23.0	0.00e+00	0	44	0	1503657984	52	3979
2026-01-22 23:43:58.19	68.56	14.34	-40.4	-41.2	23.1	0.00e+00	0	44	0	1520435200	52	3933
2026-01-22 23:44:01.22	69.19	14.36	-40.4	-41.2	23.1	0.00e+00	0	44	0	1537212416	52	3935
2026-01-22 23:44:04.25	69.81	14.37	-40.3	-41.1	23.2	0.00e+00	0	44	0	1553989632	52	3869
2026-01-22 23:44:07.28	70.44	14.39	-40.3	-41.0	23.3	0.00e+00	0	44	0	1570766848	52	3856
2026-01-22 23:44:10.30	71.07	14.39	-40.5	-41.2	23.1	0.00e+00	0	44	0	1588592640	52	3952
2026-01-22 23:44:13.33	71.70	14.40	-40.4	-41.2	23.1	0.00e+00	0	44	0	1605369856	52	3947
2026-01-22 23:44:16.36	72.33	14.40	-40.4	-41.2	23.1	0.00e+00	0	44	0	1622147072	52	3918
2026-01-22 23:44:19.38	72.96	14.40	-40.4	-41.1	23.1	0.00e+00	0	44	0	1638924288	52	3909
2026-01-22 23:44:22.41	73.59	14.40	-40.6	-41.4	23.0	0.00e+00	0	44	0	1655701504	52	4007
2026-01-22 23:44:25.43	74.22	14.39	-40.6	-41.4	22.9	0.00e+00	0	44	0	1673527296	52	4041
2026-01-22 23:44:28.46	74.85	14.38	-40.4	-41.1	23.1	0.00e+00	0	44	0	1690304512	52	3912
2026-01-22 23:44:31.49	75.47	14.36	-40.4	-41.2	23.1	0.00e+00	0	44	0	1707081728	52	3926
2026-01-22 23:44:34.52	76.10	14.35	-40.4	-41.2	23.1	0.00e+00	0	44	0	1723858944	52	3926
2026-01-22 23:44:37.54	76.73	14.33	-40.4	-41.1	23.2	0.00e+00	0	44	0	1741684736	52	3911
2026-01-22 23:44:40.57	77.35	14.30	-40.5	-41.3	23.0	0.00e+00	0	44	0	1758461952	52	4003
2026-01-22 23:44:43.59	77.98	14.28	-40.5	-41.3	23.0	0.00e+00	0	44	0	1775239168	52	3973
2026-01-22 23:44:46.62	78.60	14.25	-40.4	-41.2	23.0	0.00e+00	0	44	0	1792016384	52	3920
2026-01-22 23:44:49.64	79.22	14.22	-40.5	-41.2	23.0	0.00e+00	0	44	0	1809842176	52	3957
2026-01-22 23:44:52.67	79.85	14.18	-40.4	-41.2	23.1	0.00e+00	0	44	0	1826619392	52	3928
2026-01-22 23:44:55.70	80.47	14.14	-40.5	-41.3	23.0	0.00e+00	0	44	0	1843396608	52	3984
2026-01-22 23:44:58.72	81.08	14.10	-40.5	-41.3	23.0	0.00e+00	0	44	0	1860173824	52	3961
2026-01-22 23:45:01.75	81.70	14.06	-40.5	-41.3	23.0	0.00e+00	0	44	0	1877999616	52	3984
2026-01-22 23:45:04.77	82.31	14.01	-40.7	-41.5	22.8	0.00e+00	0	44	0	1894776832	52	4072
2026-01-22 23:45:07.80	82.93	13.96	-40.7	-41.5	22.8	0.00e+00	0	44	0	1911554048	52	4055
2026-01-22 23:45:10.83	83.54	13.90	-40.5	-41.3	22.9	0.00e+00	0	44	0	1928331264	52	4002
2026-01-22 23:45:13.85	84.15	13.85	-40.7	-41.5	22.8	0.00e+00	0	44	0	1946157056	52	4066
2026-01-22 23:45:16.88	84.75	13.79	-40.8	-41.6	22.7	0.00e+00	0	44	0	1962934272	52	4108
2026-01-22 23:45:19.91	85.36	13.73	-40.7	-41.4	22.8	0.00e+00	0	44	0	1979711488	52	4050
2026-01-22 23:45:22.93	85.96	13.66	-40.7	-41.5	22.5	0.00e+00	0	44	0	1996488704	52	4098
2026-01-22 23:45:25.96	86.56	13.60	-40.7	-41.6	22.5	0.00e+00	0	44	0	2014314496	52	4119
2026-01-22 23:45:28.98	87.15	13.53	-40.7	-41.5	22.5	0.00e+00	0	44	0	2031091712	52	4079
2026-01-22 23:45:32.01	87.75	13.45	-40.7	-41.6	22.4	0.00e+00	0	44	0	2047868928	52	4119
2026-01-22 23:45:35.03	88.34	13.38	-40.5	-41.4	22.6	0.00e+00	0	44	0	2064646144	52	4022
2026-01-22 23:45:38.05	88.92	13.30	-40.7	-41.5	22.5	0.00e+00	0	44	0	2082471936	52	4079
2026-01-22 23:45:41.08	89.51	13.22	-40.8	-41.7	22.4	0.00e+00	0	44	0	2099249152	52	4161
2026-01-22 23:45:44.10	90.09	13.14	-41.0	-41.9	22.2	0.00e+00	0	44	0	2116026368	52	4246
2026-01-22 23:45:47.13	90.67	13.05	-40.9	-41.7	22.3	0.00e+00	0	44	0	2132803584	52	4184
2026-01-22 23:45:50.16	91.24	12.97	-40.9	-41.8	22.3	0.00e+00	0	44	0	2149580800	52	4201
2026-01-22 23:45:53.19	91.81	12.88	-40.8	-41.7	22.3	0.00e+00	0	44	0	2167406592	52	4158
2026-01-22 23:45:56.22	92.38	12.78	-40.8	-41.7	22.3	0.00e+00	0	44	0	2184183808	52	4160
2026-01-22 23:45:59.24	92.95	12.69	-40.9	-41.8	22.2	0.00e+00	0	44	0	2200961024	52	4203
2026-01-22 23:46:02.27	93.51	12.59	-41.1	-42.0	22.1	0.00e+00	0	44	0	2217738240	52	4294
2026-01-22 23:46:05.29	94.07	12.50	-41.1	-42.0	22.0	0.00e+00	0	44	0	2234515456	52	4302
2026-01-22 23:46:08.32	94.62	12.40	-41.2	-42.1	21.9	0.00e+00	0	44	0	2251292672	52	4347
2026-01-22 23:46:11.35	95.17	12.29	-41.1	-42.0	22.0	0.00e+00	0	44	0	2269118464	52	4316
2026-01-22 23:46:14.37	95.72	12.19	-41.2	-42.1	21.9	0.00e+00	0	44	0	2285895680	52	4349
2026-01-22 23:46:17.40	96.26	12.08	-41.3	-42.2	21.8	0.00e+00	0	44	0	2302672896	53	4181
2026-01-22 23:46:20.42	96.80	11.98	-41.4	-42.3	21.7	0.00e+00	0	44	0	2319450112	53	4210
2026-01-22 23:46:23.45	97.34	11.87	-41.2	-42.0	21.9	0.00e+00	0	44	0	2337275904	53	4096
2026-01-22 23:46:26.47	97.87	11.76	-41.2	-42.1	21.9	0.00e+00	0	44	0	2354053120	53	4127
2026-01-22 23:46:29.49	98.39	11.64	-41.4	-42.3	21.8	0.00e+00	0	44	0	2370830336	53	4195
2026-01-22 23:46:32.52	98.92	11.53	-41.4	-42.3	21.7	0.00e+00	0	44	0	2387607552	53	4222
2026-01-22 23:46:35.54	99.44	11.41	-41.4	-42.3	21.8	0.00e+00	0	45	0	2405433344	53	4197
2026-01-22 23:46:38.57	99.95	11.30	-41.3	-42.1	21.8	0.00e+00	0	44	0	2422210560	53	4142
2026-01-22 23:46:41.59	100.47	11.18	-41.3	-42.2	21.7	0.00e+00	0	45	0	2438987776	53	4192
2026-01-22 23:46:44.62	100.97	11.06	-41.4	-42.3	21.6	0.00e+00	0	45	0	2455764992	53	4235
2026-01-22 23:46:47.64	101.48	10.93	-41.6	-42.5	21.4	0.00e+00	0	44	0	2473590784	54	4096
2026-01-22 23:46:50.67	101.98	10.81	-41.8	-42.7	21.3	0.00e+00	0	44	0	2490368000	54	4165
2026-01-22 23:46:53.69	102.47	10.69	-41.7	-42.6	21.3	0.00e+00	0	44	0	2507145216	54	4133
2026-01-22 23:46:56.72	102.96	10.56	-41.8	-42.7	21.3	0.00e+00	0	44	0	2523922432	54	4179
2026-01-22 23:46:59.74	103.45	10.43	-41.8	-42.7	21.3	0.00e+00	0	44	0	2541748224	54	4182
2026-01-22 23:47:02.77	103.94	10.31	-41.8	-42.7	21.3	0.00e+00	0	44	0	2558525440	54	4180
2026-01-22 23:47:05.79	104.41	10.18	-41.9	-42.8	21.2	0.00e+00	0	44	0	2575302656	54	4229
2026-01-22 23:47:08.82	104.89	10.05	-42.0	-42.9	21.1	0.00e+00	0	44	0	2592079872	54	4280
2026-01-22 23:47:11.84	105.36	9.92	-41.8	-42.7	21.2	0.00e+00	0	44	0	2609905664	54	4192
2026-01-22 23:47:14.87	105.83	9.78	-42.0	-43.0	21.0	0.00e+00	0	45	0	2626682880	54	4305
2026-01-22 23:47:17.89	106.29	9.65	-41.9	-42.8	21.2	0.00e+00	0	44	0	2643460096	54	4206
2026-01-22 23:47:20.92	106.75	9.52	-41.9	-42.8	21.1	0.00e+00	0	45	0	2660237312	54	4235
2026-01-22 23:47:23.94	107.20	9.38	-42.4	-43.4	20.6	0.00e+00	0	44	0	2678063104	55	4277
2026-01-22 23:47:26.97	107.66	9.25	-42.4	-43.4	20.6	0.00e+00	0	45	0	2694840320	55	4259
2026-01-22 23:47:29.99	108.10	9.11	-42.0	-43.0	21.0	0.00e+00	0	44	0	2711617536	55	4065
2026-01-22 23:47:33.02	108.55	8.97	-42.1	-43.1	20.9	0.00e+00	0	44	0	2728394752	55	4117
2026-01-22 23:47:36.04	108.98	8.84	-42.6	-43.6	20.4	0.00e+00	0	45	0	2746220544	55	4355
2026-01-22 23:47:39.07	109.42	8.70	-42.4	-43.3	20.7	0.00e+00	0	44	0	2762997760	55	4239
2026-01-22 23:47:42.09	109.85	8.56	-42.5	-43.5	20.5	0.00e+00	0	44	0	2779774976	55	4306
2026-01-22 23:47:45.12	110.28	8.42	-42.5	-43.5	20.5	0.00e+00	0	44	0	2796552192	55	4325
2026-01-22 23:47:48.14	110.70	8.28	-42.9	-43.9	20.2	0.00e+00	0	44	0	2813329408	56	4255
2026-01-22 23:47:51.17	111.12	8.14	-42.7	-43.7	20.3	0.00e+00	0	44	0	2831155200	56	4182
2026-01-22 23:47:54.20	111.54	8.00	-42.8	-43.8	20.3	0.00e+00	0	44	0	2847932416	56	4234
2026-01-22 23:47:57.22	111.95	7.85	-42.8	-43.9	20.2	0.00e+00	0	44	0	2864709632	56	4243
2026-01-22 23:48:00.25	112.35	7.71	-42.9	-43.9	20.2	0.00e+00	0	45	0	2881486848	56	4255
2026-01-22 23:48:03.27	112.76	7.57	-42.9	-43.9	20.1	0.00e+00	0	44	0	2898264064	56	4290
2026-01-22 23:48:06.30	113.16	7.43	-43.0	-44.0	20.0	0.00e+00	0	44	0	2916089856	56	4339
2026-01-22 23:48:09.33	113.55	7.28	-43.0	-44.1	20.0	0.00e+00	0	44	0	2932867072	56	4359
2026-01-22 23:48:12.35	113.95	7.14	-43.1	-44.1	20.0	0.00e+00	0	44	0	2949644288	56	4384
2026-01-22 23:48:15.38	114.34	7.00	-43.1	-44.2	19.9	0.00e+00	0	44	0	2966421504	56	4393
2026-01-22 23:48:18.41	114.72	6.85	-42.9	-44.0	20.0	0.00e+00	0	44	0	2983198720	56	4294
2026-01-22 23:48:21.43	115.10	6.71	-43.2	-44.2	19.7	0.00e+00	0	44	0	3001024512	56	4433
2026-01-22 23:48:24.46	115.48	6.56	-43.3	-44.4	19.5	0.00e+00	0	44	0	3017801728	57	4258
2026-01-22 23:48:27.48	115.85	6.42	-43.5	-44.6	19.3	0.00e+00	0	44	0	3034578944	57	4365
2026-01-22 23:48:30.51	116.23	6.27	-44.0	-45.2	18.7	0.00e+00	0	44	0	3051356160	58	4398
2026-01-22 23:48:33.53	116.59	6.13	-43.6	-44.7	19.2	0.00e+00	0	44	0	3068133376	58	4159
2026-01-22 23:48:36.56	116.96	5.98	-43.4	-44.5	19.3	0.00e+00	0	44	0	3085959168	58	4076
2026-01-22 23:48:39.59	117.32	5.83	-43.6	-44.7	19.1	0.00e+00	0	44	0	3102736384	58	4160
2026-01-22 23:48:42.62	117.67	5.69	-43.7	-44.8	18.9	0.00e+00	0	44	0	3119513600	58	4221
2026-01-22 23:48:45.64	118.03	5.54	-43.7	-44.8	18.9	0.00e+00	0	44	0	3137339392	58	4234
2026-01-22 23:48:48.66	118.38	5.40	-43.5	-44.7	19.0	0.00e+00	0	44	0	3154116608	58	4171
2026-01-22 23:48:51.69	118.72	5.25	-43.5	-44.7	19.0	0.00e+00	0	44	0	3170893824	58	4150
2026-01-22 23:48:54.71	119.07	5.11	-43.3	-44.4	19.2	0.00e+00	0	44	0	3187671040	58	4026
2026-01-22 23:48:57.73	119.41	4.96	-52.8	-64.8	3.8	8.47e-01	0	44	104	3200253952	76	14974
2026-01-22 23:49:00.76	119.74	4.81	-53.5	-65.3	3.8	8.46e-01	0	44	104	3200253952	77	15018
2026-01-22 23:49:03.78	120.08	4.67	-53.8	-65.7	3.8	8.46e-01	0	44	104	3200253952	78	14840
2026-01-22 23:49:06.81	120.41	4.52	-54.0	-66.0	3.8	8.46e-01	0	44	104	3200253952	78	15316
2026-01-22 23:49:09.83	120.73	4.38	-54.2	-66.2	3.8	8.46e-01	0	44	104	3200253952	78	15626
2026-01-22 23:49:12.86	121.06	4.23	-54.3	-66.3	3.8	8.46e-01	0	44	104	3200253952	79	14953
2026-01-22 23:49:15.89	121.38	4.08	-54.4	-66.3	3.8	8.46e-01	0	44	104	3200253952	79	15048
2026-01-22 23:49:18.91	121.70	3.94	-54.4	-66.4	3.8	8.46e-01	0	44	104	3200253952	79	15138
2026-01-22 23:49:21.94	122.01	3.79	-54.4	-66.4	3.8	8.47e-01	0	44	104	3200253952	79	15173
2026-01-22 23:49:24.96	122.33	3.65	-54.5	-66.5	3.8	8.45e-01	0	44	104	3200253952	79	15319
2026-01-22 23:49:27.99	122.63	3.50	-54.6	-66.6	3.8	8.45e-01	0	44	104	3200253952	79	15467
2026-01-22 23:49:31.02	122.94	3.36	-54.7	-66.7	3.8	8.46e-01	0	44	104	3200253952	79	15591
2026-01-22 23:49:34.04	123.24	3.21	-54.7	-66.6	3.8	8.46e-01	0	44	104	3200253952	79	15564
2026-01-22 23:49:37.06	123.54	3.07	-54.6	-66.6	3.8	8.46e-01	0	44	104	3200253952	79	15528
2026-01-22 23:49:40.09	123.84	2.92	-54.6	-66.5	3.8	8.47e-01	0	44	104	3200253952	79	15395
2026-01-22 23:49:43.11	124.14	2.78	-54.5	-66.5	3.8	8.46e-01	0	44	104	3200253952	79	15281
2026-01-22 23:49:46.14	124.43	2.63	-54.4	-66.4	3.8	8.46e-01	0	44	104	3200253952	79	15059
2026-01-22 23:49:49.16	124.72	2.49	-54.2	-66.2	3.8	8.46e-01	0	44	104	3200253952	79	14812
2026-01-22 23:49:52.19	125.01	2.34	-54.0	-65.9	3.8	8.46e-01	0	44	104	3200253952	79	14315
2026-01-22 23:49:55.21	125.29	2.20	-53.7	-65.6	3.8	8.46e-01	0	44	104	3200253952	79	13857
2026-01-22 23:49:58.24	125.57	2.05	-53.7	-65.6	3.8	8.46e-01	0	44	104	3200253952	79	13879

#Closed at: 2026-01-22 23:50:00
#Recorded file [3200 MB]: D:/lorett/data/31041_260123_023834.dat