passes_logs/2026/01/22/R3.2S_Murmansk/R3.2S_Murmansk__20260122_073827_NOAA_20_JPSS-1_rec.log

#Pass ID: 20260122_073827_NOAA 20 (JPSS-1)
#Satellite: NOAA 20 (JPSS-1)
#Configuration: NOAA 20
#almurnet v.1.7.20251203
#Start time: 2026-01-22 07:38:28

#Version: 2.2.20231116
#Station: R3.2S_Murmansk
#Location: 33.079688 lon 68.888172 lat
#TLE: 1 43013U 17073A   26021.46221703  .00000173  00000+0  10299-3 0  9999
#TLE: 2 43013  98.7644 322.3335 0001238  29.7597 330.3649 14.19538314423652

#Time	Az	El	Level	Level2	SNR	BER	BlckErr	Temp	State	Recorded	gain1	gain2
2026-01-22 07:38:28.45	108.37	2.06	-54.5	-69.5	3.8	1.49e+00	0	39	0	0	79	21677
2026-01-22 07:38:32.48	108.21	2.31	-54.2	-69.2	3.8	1.49e+00	0	39	104	0	79	21016
2026-01-22 07:38:36.51	108.04	2.56	-54.1	-69.0	3.8	1.49e+00	0	39	104	0	79	20524
2026-01-22 07:38:40.54	107.87	2.81	-53.8	-68.8	3.8	1.49e+00	0	39	104	0	79	19963
2026-01-22 07:38:44.58	107.69	3.07	-53.4	-68.4	3.8	1.49e+00	0	39	104	0	78	20178
2026-01-22 07:38:48.61	107.52	3.32	-52.5	-67.4	3.8	1.49e+00	0	40	104	0	77	19166
2026-01-22 07:38:52.64	107.34	3.58	-52.4	-67.1	3.8	1.49e+00	0	40	104	0	76	19455
2026-01-22 07:38:56.67	107.15	3.84	-52.4	-66.6	3.8	1.49e+00	0	40	104	0	76	18357
2026-01-22 07:39:00.70	106.96	4.11	-52.2	-63.4	4.3	1.35e+00	28	40	0	0	76	12806
2026-01-22 07:39:04.73	106.77	4.37	-50.8	-55.9	10.2	1.27e-02	0	40	0	7340032	73	6405
2026-01-22 07:39:08.77	106.58	4.64	-50.2	-54.5	11.7	2.53e-04	0	40	0	14680064	72	5777
2026-01-22 07:39:12.80	106.38	4.91	-50.1	-54.2	12.1	2.77e-04	0	40	0	22020096	70	6246
2026-01-22 07:39:16.83	106.17	5.18	-48.1	-50.4	16.1	5.30e-06	0	40	0	29360128	68	4539
2026-01-22 07:39:20.86	105.97	5.46	-51.3	-57.0	9.1	7.76e-01	0	40	0	35651584	74	6810
2026-01-22 07:39:24.89	105.76	5.74	-51.1	-56.4	10.0	9.16e-03	0	40	0	42991616	74	6403
2026-01-22 07:39:28.92	105.54	6.02	-49.5	-52.6	14.1	6.25e-05	0	40	0	50331648	71	4908
2026-01-22 07:39:32.96	105.32	6.30	-49.1	-51.9	14.9	0.00e+00	0	40	0	58720256	69	5062
2026-01-22 07:39:36.99	105.09	6.58	-48.4	-50.8	16.0	0.00e+00	0	40	0	66060288	68	4729
2026-01-22 07:39:41.02	104.87	6.87	-47.7	-49.7	17.0	0.00e+00	0	40	0	73400320	66	4697
2026-01-22 07:39:45.05	104.63	7.16	-47.3	-49.2	17.5	0.00e+00	0	40	0	80740352	66	4422
2026-01-22 07:39:49.08	104.39	7.46	-47.5	-49.5	17.2	0.00e+00	0	40	0	88080384	66	4562
2026-01-22 07:39:53.11	104.15	7.75	-46.9	-48.7	18.1	0.00e+00	0	40	0	96468992	65	4416
2026-01-22 07:39:57.14	103.90	8.05	-47.2	-49.1	17.7	0.00e+00	0	40	0	103809024	65	4635
2026-01-22 07:40:01.17	103.64	8.36	-47.3	-49.1	17.6	0.00e+00	0	40	0	111149056	65	4646
2026-01-22 07:40:05.21	103.38	8.66	-47.3	-49.2	17.6	0.00e+00	0	40	0	118489088	65	4693
2026-01-22 07:40:09.24	103.11	8.97	-47.2	-49.0	17.8	0.00e+00	0	40	0	125829120	65	4584
2026-01-22 07:40:13.27	102.84	9.28	-46.9	-48.7	18.2	0.00e+00	0	41	0	134217728	65	4406
2026-01-22 07:40:17.30	102.56	9.60	-46.9	-48.6	18.3	0.00e+00	0	40	0	141557760	65	4372
2026-01-22 07:40:21.33	102.28	9.92	-46.9	-48.6	18.4	0.00e+00	0	40	0	148897792	65	4351
2026-01-22 07:40:25.36	101.99	10.24	-46.8	-48.5	18.4	0.00e+00	0	40	0	156237824	65	4317
2026-01-22 07:40:29.39	101.69	10.56	-46.7	-48.3	18.6	0.00e+00	0	40	0	163577856	65	4220
2026-01-22 07:40:33.42	101.38	10.89	-46.7	-48.3	18.6	0.00e+00	0	40	0	171966464	65	4229
2026-01-22 07:40:37.46	101.07	11.23	-46.7	-48.4	18.6	0.00e+00	0	41	0	179306496	65	4249
2026-01-22 07:40:41.49	100.75	11.56	-46.6	-48.2	18.8	0.00e+00	0	40	0	186646528	64	4431
2026-01-22 07:40:45.52	100.42	11.90	-46.6	-48.2	18.9	0.00e+00	0	41	0	193986560	64	4403
2026-01-22 07:40:49.55	100.08	12.25	-46.5	-48.1	18.9	0.00e+00	0	41	0	201326592	64	4387
2026-01-22 07:40:53.58	99.74	12.60	-46.3	-47.8	19.3	0.00e+00	0	41	0	209715200	64	4196
2026-01-22 07:40:57.62	99.39	12.95	-46.4	-47.9	19.1	0.00e+00	0	40	0	217055232	64	4265
2026-01-22 07:41:01.65	99.02	13.30	-46.1	-47.6	19.5	0.00e+00	0	40	0	224395264	64	4103
2026-01-22 07:41:05.68	98.65	13.66	-46.1	-47.6	19.5	0.00e+00	0	41	0	231735296	64	4122
2026-01-22 07:41:09.71	98.27	14.03	-46.2	-47.6	19.5	0.00e+00	0	41	0	239075328	64	4138
2026-01-22 07:41:13.74	97.88	14.40	-46.1	-47.5	19.7	0.00e+00	0	41	0	247463936	63	4340
2026-01-22 07:41:17.77	97.48	14.77	-46.4	-47.9	19.3	0.00e+00	0	41	0	254803968	63	4513
2026-01-22 07:41:21.80	97.07	15.14	-46.1	-47.5	19.7	0.00e+00	0	41	0	262144000	63	4326
2026-01-22 07:41:25.84	96.65	15.53	-46.0	-47.4	19.8	0.00e+00	0	40	0	269484032	63	4273
2026-01-22 07:41:29.87	96.21	15.91	-46.0	-47.4	19.8	0.00e+00	0	40	0	277872640	63	4270
2026-01-22 07:41:33.90	95.77	16.30	-45.9	-47.3	20.0	0.00e+00	0	41	0	285212672	63	4240
2026-01-22 07:41:37.93	95.31	16.70	-46.0	-47.4	19.9	0.00e+00	0	41	0	292552704	63	4257
2026-01-22 07:41:41.96	94.84	17.09	-46.1	-47.5	19.8	0.00e+00	0	41	0	299892736	63	4330
2026-01-22 07:41:45.99	94.36	17.50	-46.3	-47.8	19.6	0.00e+00	0	41	0	307232768	63	4458
2026-01-22 07:41:50.02	93.87	17.90	-46.8	-48.4	18.8	0.00e+00	0	41	0	315621376	64	4545
2026-01-22 07:41:54.05	93.36	18.32	-47.0	-48.6	18.7	0.00e+00	0	41	0	322961408	65	4386
2026-01-22 07:41:58.08	92.83	18.73	-47.5	-49.3	18.1	0.00e+00	0	41	0	330301440	65	4717
2026-01-22 07:42:02.11	92.29	19.15	-47.9	-49.8	17.5	0.00e+00	0	41	0	337641472	66	4752
2026-01-22 07:42:06.14	91.74	19.58	-48.4	-50.4	17.0	0.00e+00	0	40	0	344981504	67	4811
2026-01-22 07:42:10.17	91.17	20.01	-49.1	-51.5	16.0	0.00e+00	0	40	0	353370112	68	5153
2026-01-22 07:42:14.20	90.58	20.44	-49.7	-52.4	15.1	0.00e+00	0	41	0	360710144	69	5363
2026-01-22 07:42:18.23	89.98	20.88	-49.9	-52.8	14.8	1.50e-06	0	41	0	368050176	70	5283
2026-01-22 07:42:22.27	89.36	21.33	-50.3	-53.4	14.1	0.00e+00	0	41	0	375390208	71	5383
2026-01-22 07:42:26.29	88.72	21.77	-50.7	-54.3	13.1	3.12e-05	0	41	0	382730240	72	5646
2026-01-22 07:42:30.32	88.06	22.22	-51.5	-55.9	11.5	5.75e-04	0	41	0	391118848	73	6413
2026-01-22 07:42:34.35	87.38	22.68	-51.9	-57.0	10.4	4.11e-03	0	41	0	398458880	74	6807
2026-01-22 07:42:38.38	86.68	23.13	-52.4	-58.8	8.6	3.28e-02	0	41	0	405798912	75	7910
2026-01-22 07:42:42.42	85.96	23.60	-52.9	-60.8	6.7	1.48e-01	0	41	0	413138944	76	9416
2026-01-22 07:42:46.45	85.22	24.06	-53.7	-68.7	3.8	1.49e+00	0	41	104	418381824	77	22038
2026-01-22 07:42:50.48	84.45	24.53	-53.7	-68.7	3.8	1.49e+00	0	41	104	418381824	78	20815
2026-01-22 07:42:54.51	83.66	25.00	-53.7	-68.6	3.8	1.49e+00	0	41	104	418381824	78	20772
2026-01-22 07:42:58.54	82.85	25.47	-53.7	-68.6	3.8	1.49e+00	0	41	104	418381824	78	20685
2026-01-22 07:43:02.57	82.01	25.94	-53.7	-68.7	3.8	1.49e+00	0	41	104	418381824	78	20801
2026-01-22 07:43:06.60	81.15	26.42	-53.7	-68.6	3.8	1.49e+00	0	41	104	418381824	78	20745
2026-01-22 07:43:10.64	80.26	26.90	-53.7	-68.6	3.8	1.49e+00	0	41	104	418381824	78	20745
2026-01-22 07:43:14.67	79.34	27.37	-53.7	-68.7	3.8	1.49e+00	0	41	104	418381824	78	20802
2026-01-22 07:43:18.70	78.39	27.85	-53.7	-68.7	3.8	1.49e+00	0	41	104	418381824	78	20818
2026-01-22 07:43:22.73	77.42	28.33	-53.7	-68.6	3.8	1.49e+00	0	41	104	418381824	78	20767
2026-01-22 07:43:26.76	76.42	28.80	-53.7	-68.7	3.8	1.49e+00	0	41	104	418381824	78	20893
2026-01-22 07:43:30.79	75.38	29.27	-53.7	-68.7	3.8	1.49e+00	0	41	104	418381824	78	20856
2026-01-22 07:43:34.83	74.31	29.74	-53.7	-68.7	3.8	1.49e+00	0	41	104	418381824	78	20914
2026-01-22 07:43:38.86	73.22	30.21	-53.7	-68.7	3.8	1.49e+00	0	41	104	418381824	78	20909
2026-01-22 07:43:42.89	72.09	30.67	-53.7	-68.7	3.8	1.49e+00	0	41	104	418381824	78	20984
2026-01-22 07:43:46.93	70.92	31.12	-53.7	-68.7	3.8	1.49e+00	0	41	104	418381824	78	20946
2026-01-22 07:43:50.96	69.73	31.57	-53.7	-68.7	3.8	1.49e+00	0	41	104	418381824	78	20959
2026-01-22 07:43:54.99	68.50	32.01	-53.8	-68.8	3.8	1.49e+00	0	41	104	418381824	78	21034
2026-01-22 07:43:59.02	67.24	32.44	-53.8	-68.8	3.8	1.49e+00	0	41	104	418381824	78	21074
2026-01-22 07:44:03.05	65.95	32.86	-53.8	-68.8	3.8	1.49e+00	0	41	104	418381824	78	21077
2026-01-22 07:44:07.08	64.62	33.27	-53.8	-68.8	3.8	1.49e+00	0	41	104	418381824	78	21091
2026-01-22 07:44:11.12	63.25	33.67	-53.8	-68.8	3.8	1.49e+00	0	41	104	418381824	78	21063
2026-01-22 07:44:15.15	61.86	34.05	-53.8	-68.8	3.8	1.49e+00	0	41	104	418381824	78	21142
2026-01-22 07:44:19.18	60.43	34.42	-53.8	-68.8	3.8	1.49e+00	0	41	104	418381824	78	21147
2026-01-22 07:44:23.21	58.97	34.77	-53.8	-68.8	3.8	1.49e+00	0	41	104	418381824	78	21075
2026-01-22 07:44:27.25	57.47	35.11	-53.8	-68.8	3.8	1.49e+00	0	41	104	418381824	78	21101
2026-01-22 07:44:31.27	55.95	35.42	-53.8	-68.8	3.8	1.49e+00	0	41	104	418381824	78	21134
2026-01-22 07:44:35.31	54.40	35.71	-53.8	-68.8	3.8	1.49e+00	0	41	104	418381824	78	21134
2026-01-22 07:44:39.34	52.82	35.98	-53.8	-68.8	3.8	1.49e+00	0	41	104	418381824	78	21212
2026-01-22 07:44:43.37	51.22	36.23	-53.8	-68.8	3.8	1.49e+00	0	41	104	418381824	78	21177
2026-01-22 07:44:47.40	49.60	36.46	-53.8	-68.8	3.8	1.49e+00	0	41	104	418381824	78	21167
2026-01-22 07:44:51.43	47.95	36.65	-53.8	-68.8	3.8	1.49e+00	0	41	104	418381824	78	21225
2026-01-22 07:44:55.47	46.28	36.83	-53.8	-68.8	3.8	1.49e+00	0	41	104	418381824	78	21086
2026-01-22 07:44:59.50	44.60	36.97	-53.8	-68.7	3.8	1.49e+00	0	41	104	418381824	78	20945
2026-01-22 07:45:03.53	42.90	37.09	-53.8	-68.7	3.8	1.49e+00	0	41	104	418381824	78	20835
2026-01-22 07:45:07.56	41.20	37.18	-53.8	-68.7	3.8	1.49e+00	0	41	104	418381824	78	20852
2026-01-22 07:45:11.59	39.48	37.24	-53.9	-68.7	3.8	1.49e+00	0	41	104	418381824	78	20967
2026-01-22 07:45:15.62	37.76	37.27	-53.9	-68.7	3.8	1.49e+00	0	41	104	418381824	78	20983
2026-01-22 07:45:19.66	36.04	37.27	-53.9	-68.7	3.8	1.49e+00	0	41	104	418381824	78	21008
2026-01-22 07:45:23.69	34.32	37.24	-53.9	-68.8	3.8	1.49e+00	0	41	104	418381824	78	21111
2026-01-22 07:45:27.71	32.61	37.18	-53.9	-68.8	3.8	1.49e+00	0	41	104	418381824	78	21100
2026-01-22 07:45:31.75	30.90	37.09	-53.9	-68.8	3.8	1.49e+00	0	41	104	418381824	78	21165
2026-01-22 07:45:35.78	29.21	36.98	-53.9	-68.8	3.8	1.49e+00	0	41	104	418381824	78	21225
2026-01-22 07:45:39.81	27.52	36.83	-53.9	-68.8	3.8	1.49e+00	0	41	104	418381824	78	21234
2026-01-22 07:45:43.84	25.86	36.66	-53.9	-68.8	3.8	1.49e+00	0	41	104	418381824	78	21234
2026-01-22 07:45:47.87	24.21	36.46	-53.9	-68.9	3.8	1.49e+00	0	41	104	418381824	78	21266
2026-01-22 07:45:51.91	22.58	36.24	-53.9	-68.9	3.8	1.49e+00	0	41	104	418381824	78	21275
2026-01-22 07:45:55.94	20.98	35.99	-53.9	-68.8	3.8	1.49e+00	0	41	104	418381824	78	21190
2026-01-22 07:45:59.97	19.41	35.72	-53.9	-68.8	3.8	1.49e+00	0	41	104	418381824	78	21102
2026-01-22 07:46:04.00	17.86	35.43	-53.9	-68.8	3.8	1.49e+00	0	41	104	418381824	78	21117
2026-01-22 07:46:08.03	16.34	35.12	-53.9	-68.8	3.8	1.49e+00	0	41	104	418381824	78	21049
2026-01-22 07:46:12.06	14.85	34.79	-53.9	-68.8	3.8	1.49e+00	0	41	104	418381824	78	21076
2026-01-22 07:46:16.09	13.39	34.44	-53.9	-68.8	3.8	1.49e+00	0	41	104	418381824	78	21109
2026-01-22 07:46:20.12	11.96	34.07	-53.8	-68.8	3.8	1.49e+00	0	41	104	418381824	78	21133
2026-01-22 07:46:24.16	10.56	33.69	-53.8	-68.8	3.8	1.49e+00	0	41	104	418381824	78	21132
2026-01-22 07:46:28.19	9.20	33.30	-53.8	-68.8	3.8	1.49e+00	0	41	104	418381824	78	21122
2026-01-22 07:46:32.22	7.87	32.89	-53.8	-68.8	3.8	1.49e+00	0	41	104	418381824	78	21238
2026-01-22 07:46:36.25	6.58	32.47	-53.8	-68.8	3.8	1.49e+00	0	41	104	418381824	78	21117
2026-01-22 07:46:40.28	5.32	32.04	-53.8	-68.8	3.8	1.49e+00	0	41	104	418381824	78	21129
2026-01-22 07:46:44.31	4.09	31.60	-53.8	-68.8	3.8	1.49e+00	0	41	104	418381824	78	21111
2026-01-22 07:46:48.34	2.90	31.15	-53.8	-68.8	3.8	1.49e+00	0	41	104	418381824	78	21088
2026-01-22 07:46:52.38	1.74	30.70	-53.8	-68.8	3.8	1.49e+00	0	41	104	418381824	78	21065
2026-01-22 07:46:56.41	0.61	30.24	-53.8	-68.8	3.8	1.49e+00	0	41	104	418381824	78	21061
2026-01-22 07:47:00.44	359.51	29.78	-53.8	-68.8	3.8	1.49e+00	0	41	104	418381824	78	21022
2026-01-22 07:47:04.47	358.45	29.31	-53.8	-68.7	3.8	1.49e+00	0	41	104	418381824	78	20947
2026-01-22 07:47:08.50	357.42	28.84	-53.8	-68.7	3.8	1.49e+00	0	41	104	418381824	78	20785
2026-01-22 07:47:12.53	356.41	28.37	-53.8	-68.7	3.8	1.49e+00	0	41	104	418381824	78	20792
2026-01-22 07:47:16.56	355.44	27.89	-53.7	-68.6	3.8	1.49e+00	0	41	104	418381824	78	20691
2026-01-22 07:47:20.59	354.50	27.42	-53.7	-68.6	3.8	1.49e+00	0	41	104	418381824	78	20544
2026-01-22 07:47:24.62	353.58	26.94	-53.7	-68.5	3.8	1.49e+00	0	41	104	418381824	78	20497
2026-01-22 07:47:28.66	352.69	26.46	-53.7	-68.4	3.8	1.49e+00	0	41	104	418381824	78	20257
2026-01-22 07:47:32.69	351.83	25.99	-53.7	-68.4	3.8	1.49e+00	0	41	104	418381824	78	20241
2026-01-22 07:47:36.72	350.99	25.52	-53.7	-68.4	3.8	1.49e+00	0	41	104	418381824	78	20171
2026-01-22 07:47:40.75	350.18	25.05	-53.7	-68.4	3.8	1.49e+00	0	41	104	418381824	78	20177
2026-01-22 07:47:44.78	349.39	24.58	-53.7	-68.3	3.8	1.49e+00	0	41	104	418381824	78	20049
2026-01-22 07:47:48.81	348.63	24.11	-53.7	-68.3	3.8	1.49e+00	0	41	104	418381824	78	19990
2026-01-22 07:47:52.85	347.88	23.65	-53.6	-68.2	3.8	1.49e+00	0	41	104	418381824	78	19841
2026-01-22 07:47:56.88	347.17	23.19	-53.6	-68.3	3.8	1.49e+00	0	41	104	418381824	78	19870
2026-01-22 07:48:00.91	346.47	22.73	-53.6	-68.2	3.8	1.49e+00	0	41	104	418381824	78	19819
2026-01-22 07:48:04.94	345.79	22.28	-53.6	-68.3	3.8	1.49e+00	0	41	104	418381824	78	19957
2026-01-22 07:48:08.96	345.13	21.83	-53.6	-68.3	3.8	1.49e+00	0	41	104	418381824	78	19910
2026-01-22 07:48:13.00	344.49	21.38	-53.6	-68.3	3.8	1.49e+00	0	41	104	418381824	78	19955
2026-01-22 07:48:17.03	343.87	20.94	-53.6	-68.3	3.8	1.49e+00	0	41	104	418381824	78	19950
2026-01-22 07:48:21.06	343.27	20.50	-53.6	-68.3	3.8	1.49e+00	0	41	104	418381824	78	19915
2026-01-22 07:48:25.09	342.68	20.07	-53.5	-68.3	3.8	1.49e+00	0	41	104	418381824	78	19881
2026-01-22 07:48:29.12	342.11	19.64	-53.5	-68.3	3.8	1.49e+00	0	41	104	418381824	78	19894
2026-01-22 07:48:33.16	341.56	19.22	-53.5	-68.3	3.8	1.49e+00	0	41	104	418381824	78	19846
2026-01-22 07:48:37.19	341.02	18.80	-53.5	-68.3	3.8	1.49e+00	0	41	104	418381824	78	19864
2026-01-22 07:48:41.22	340.50	18.38	-53.5	-68.3	3.8	1.49e+00	0	41	104	418381824	78	19848
2026-01-22 07:48:45.25	339.99	17.97	-53.5	-68.3	3.8	1.49e+00	0	41	104	418381824	78	19854
2026-01-22 07:48:49.28	339.50	17.56	-53.5	-68.3	3.8	1.49e+00	0	41	104	418381824	78	19933
2026-01-22 07:48:53.31	339.02	17.16	-53.5	-68.3	3.8	1.49e+00	0	41	104	418381824	78	19863
2026-01-22 07:48:57.34	338.55	16.76	-53.5	-68.3	3.8	1.49e+00	0	41	104	418381824	78	19963
2026-01-22 07:49:01.38	338.09	16.37	-53.4	-68.3	3.8	1.49e+00	0	41	104	418381824	78	19941
2026-01-22 07:49:05.41	337.65	15.98	-53.4	-68.3	3.8	1.49e+00	0	41	104	418381824	78	19913
2026-01-22 07:49:09.44	337.22	15.59	-53.4	-68.3	3.8	1.49e+00	0	41	104	418381824	78	19928
2026-01-22 07:49:13.47	336.80	15.21	-53.4	-68.3	3.8	1.49e+00	0	41	104	418381824	78	19936
2026-01-22 07:49:17.50	336.39	14.84	-53.4	-68.3	3.8	1.49e+00	0	41	104	418381824	78	19919
2026-01-22 07:49:21.53	335.99	14.47	-53.4	-68.3	3.8	1.49e+00	0	41	104	418381824	78	19956
2026-01-22 07:49:25.56	335.60	14.10	-53.4	-68.3	3.8	1.49e+00	0	41	104	418381824	78	19951
2026-01-22 07:49:29.59	335.22	13.74	-53.4	-68.3	3.8	1.49e+00	0	41	104	418381824	78	19952
2026-01-22 07:49:33.62	334.85	13.38	-53.3	-68.3	3.8	1.49e+00	0	41	104	418381824	78	19910
2026-01-22 07:49:37.66	334.49	13.02	-53.3	-68.3	3.8	1.49e+00	0	41	104	418381824	78	19967
2026-01-22 07:49:41.69	334.14	12.67	-53.3	-68.3	3.8	1.49e+00	0	41	104	418381824	78	19899
2026-01-22 07:49:45.72	333.80	12.32	-53.3	-68.3	3.8	1.49e+00	0	41	104	418381824	78	19855
2026-01-22 07:49:49.76	333.46	11.98	-53.3	-68.3	3.8	1.49e+00	0	41	104	418381824	78	19857
2026-01-22 07:49:53.79	333.14	11.64	-53.3	-68.2	3.8	1.49e+00	0	41	104	418381824	78	19824
2026-01-22 07:49:57.82	332.82	11.30	-53.2	-68.2	3.8	1.49e+00	0	41	104	418381824	78	19808
2026-01-22 07:50:01.85	332.51	10.97	-53.2	-68.2	3.8	1.49e+00	0	41	104	418381824	78	19762
2026-01-22 07:50:05.88	332.20	10.64	-53.2	-68.2	3.8	1.49e+00	0	41	104	418381824	78	19698
2026-01-22 07:50:09.91	331.90	10.32	-53.2	-68.2	3.8	1.49e+00	0	41	104	418381824	78	19716
2026-01-22 07:50:13.94	331.61	10.00	-53.2	-68.2	3.8	1.49e+00	0	41	104	418381824	78	19655
2026-01-22 07:50:17.97	331.33	9.68	-53.1	-68.2	3.8	1.49e+00	0	41	104	418381824	78	19640
2026-01-22 07:50:22.01	331.05	9.36	-53.1	-68.1	3.8	1.49e+00	0	41	104	418381824	78	19531
2026-01-22 07:50:26.04	330.78	9.05	-53.1	-68.1	3.8	1.49e+00	0	41	104	418381824	78	19476
2026-01-22 07:50:30.08	330.52	8.74	-53.1	-68.1	3.8	1.49e+00	0	41	104	418381824	78	19419
2026-01-22 07:50:34.11	330.26	8.44	-53.0	-68.0	3.8	1.49e+00	0	41	104	418381824	78	19326
2026-01-22 07:50:38.15	330.00	8.13	-53.0	-68.0	3.8	1.49e+00	0	41	104	418381824	77	20383
2026-01-22 07:50:42.18	329.76	7.84	-52.9	-67.9	3.8	1.49e+00	0	41	104	418381824	77	20291
2026-01-22 07:50:46.21	329.51	7.54	-52.9	-67.9	3.8	1.49e+00	0	41	104	418381824	77	20149
2026-01-22 07:50:50.24	329.28	7.25	-52.9	-67.9	3.8	1.49e+00	0	41	104	418381824	77	20111
2026-01-22 07:50:54.28	329.04	6.95	-52.8	-67.8	3.8	1.49e+00	0	41	104	418381824	77	19996
2026-01-22 07:50:58.31	328.82	6.67	-52.8	-67.8	3.8	1.49e+00	0	41	104	418381824	77	19911
2026-01-22 07:51:02.34	328.59	6.38	-52.7	-67.7	3.8	1.49e+00	0	41	104	418381824	77	19794
2026-01-22 07:51:06.37	328.37	6.10	-52.7	-67.6	3.8	1.49e+00	0	41	104	418381824	77	19592
2026-01-22 07:51:10.40	328.16	5.82	-52.6	-67.6	3.8	1.49e+00	0	41	104	418381824	77	19492
2026-01-22 07:51:14.44	327.95	5.54	-52.6	-67.6	3.8	1.49e+00	0	41	104	418381824	76	20626
2026-01-22 07:51:18.47	327.75	5.27	-52.5	-67.5	3.8	1.49e+00	0	41	104	418381824	76	20401
2026-01-22 07:51:22.50	327.54	5.00	-52.6	-67.6	3.8	1.49e+00	0	41	104	418381824	76	20608
2026-01-22 07:51:26.53	327.35	4.73	-53.3	-68.3	3.8	1.49e+00	0	41	104	418381824	77	21088
2026-01-22 07:51:30.57	327.15	4.46	-53.3	-68.3	3.8	1.49e+00	0	41	104	418381824	77	21141
2026-01-22 07:51:34.60	326.96	4.19	-53.2	-68.2	3.8	1.49e+00	0	41	104	418381824	77	20968
2026-01-22 07:51:38.64	326.78	3.93	-53.4	-68.4	3.8	1.49e+00	0	41	104	418381824	77	21408
2026-01-22 07:51:42.67	326.60	3.67	-53.5	-68.4	3.8	1.49e+00	0	41	104	418381824	77	21503
2026-01-22 07:51:46.70	326.42	3.41	-53.4	-68.4	3.8	1.49e+00	0	41	104	418381824	77	21268
2026-01-22 07:51:50.74	326.24	3.15	-53.3	-68.3	3.8	1.49e+00	0	41	104	418381824	77	21249
2026-01-22 07:51:54.77	326.07	2.90	-53.3	-68.3	3.8	1.49e+00	0	41	104	418381824	77	21231
2026-01-22 07:51:58.80	325.90	2.65	-53.3	-68.3	3.8	1.49e+00	0	41	104	418381824	77	21185
2026-01-22 07:52:02.83	325.74	2.40	-53.3	-68.3	3.8	1.49e+00	0	41	104	418381824	77	21190
2026-01-22 07:52:06.87	325.57	2.15	-53.3	-68.3	3.8	1.49e+00	0	41	104	418381824	77	21114

#Closed at: 2026-01-22 07:52:09
#Recorded file [418 MB]: D:/lorett/data/31041_260122_103828.dat