passes_logs/2026/01/22/R3.2S_Murmansk/R3.2S_Murmansk__20260122_040021_SUOMI_NPP_rec.log

#Pass ID: 20260122_040021_SUOMI NPP
#Satellite: SUOMI NPP
#Configuration: NPP
#almurnet v.1.7.20251203
#Start time: 2026-01-22 04:00:21

#Version: 2.2.20231116
#Station: R3.2S_Murmansk
#Location: 33.079688 lon 68.888172 lat
#TLE: 1 37849U 11061A   26021.51818991  .00000201  00000+0  11636-3 0  9995
#TLE: 2 37849  98.7819 323.5108 0002300  52.3548 307.7836 14.19527793737637

#Time	Az	El	Level	Level2	SNR	BER	BlckErr	Temp	State	Recorded	gain1	gain2
2026-01-22 04:00:21.77	46.33	2.04	-49.9	-64.8	3.8	1.49e+00	0	39	0	0	70	21243
2026-01-22 04:00:24.78	46.15	2.22	-49.9	-64.8	3.8	1.49e+00	0	39	104	0	70	21226
2026-01-22 04:00:27.81	45.97	2.39	-49.9	-64.8	3.8	1.49e+00	0	39	104	0	70	21196
2026-01-22 04:00:30.83	45.79	2.57	-49.9	-64.9	3.8	1.49e+00	0	39	104	0	70	21263
2026-01-22 04:00:33.85	45.61	2.75	-49.9	-64.8	3.8	1.49e+00	0	39	104	0	70	21202
2026-01-22 04:00:36.88	45.42	2.93	-49.9	-64.8	3.8	1.49e+00	0	39	104	0	70	21223
2026-01-22 04:00:39.90	45.23	3.11	-49.9	-64.8	3.8	1.49e+00	0	39	104	0	70	21183
2026-01-22 04:00:42.93	45.04	3.29	-49.9	-64.8	3.8	1.49e+00	0	39	104	0	70	21247
2026-01-22 04:00:45.95	44.85	3.47	-49.9	-64.8	3.8	1.49e+00	0	39	104	0	70	21166
2026-01-22 04:00:48.98	44.65	3.65	-49.9	-64.8	3.8	1.49e+00	0	39	104	0	70	21227
2026-01-22 04:00:52.01	44.45	3.83	-49.9	-64.8	3.8	1.49e+00	0	39	104	0	70	21197
2026-01-22 04:00:55.03	44.25	4.02	-49.9	-64.9	3.8	1.49e+00	0	40	104	0	70	21272
2026-01-22 04:00:58.05	44.04	4.20	-49.9	-64.8	3.8	1.49e+00	0	40	104	0	70	21191
2026-01-22 04:01:01.08	43.84	4.39	-49.9	-64.9	3.8	1.49e+00	0	40	104	0	70	21261
2026-01-22 04:01:04.10	43.63	4.58	-49.9	-64.8	3.8	1.49e+00	0	40	104	0	70	21234
2026-01-22 04:01:07.13	43.41	4.76	-49.9	-64.9	3.8	1.49e+00	0	40	104	0	70	21290
2026-01-22 04:01:10.16	43.20	4.95	-49.9	-64.8	3.8	1.49e+00	0	40	104	0	70	21221
2026-01-22 04:01:13.18	42.98	5.14	-49.9	-64.8	3.8	1.49e+00	0	40	104	0	70	21227
2026-01-22 04:01:16.21	42.76	5.33	-49.9	-64.8	3.8	1.49e+00	0	40	104	0	70	21183
2026-01-22 04:01:19.23	42.53	5.52	-49.9	-64.8	3.8	1.49e+00	0	40	104	0	70	21226
2026-01-22 04:01:22.26	42.30	5.72	-49.9	-64.9	3.8	1.49e+00	0	40	104	0	70	21286
2026-01-22 04:01:25.28	42.07	5.91	-49.9	-64.8	3.8	1.49e+00	0	40	104	0	70	21207
2026-01-22 04:01:28.31	41.84	6.11	-49.9	-64.8	3.8	1.49e+00	0	40	104	0	70	21252
2026-01-22 04:01:31.34	41.60	6.30	-49.9	-64.8	3.8	1.49e+00	0	40	104	0	70	21240
2026-01-22 04:01:34.37	41.36	6.50	-49.9	-64.8	3.8	1.49e+00	0	40	104	0	70	21248
2026-01-22 04:01:37.39	41.11	6.70	-49.9	-64.9	3.8	1.49e+00	0	40	104	0	70	21262
2026-01-22 04:01:40.42	40.87	6.89	-49.9	-64.8	3.8	1.49e+00	0	40	104	0	70	21252
2026-01-22 04:01:43.44	40.61	7.09	-49.9	-64.8	3.8	1.49e+00	0	40	104	0	70	21246
2026-01-22 04:01:46.47	40.36	7.29	-49.9	-64.9	3.8	1.49e+00	0	40	104	0	70	21267
2026-01-22 04:01:49.49	40.10	7.50	-49.9	-64.8	3.8	1.49e+00	0	40	104	0	70	21256
2026-01-22 04:01:52.52	39.84	7.70	-49.9	-64.8	3.8	1.49e+00	0	40	104	0	70	21214
2026-01-22 04:01:55.55	39.57	7.90	-49.9	-64.9	3.8	1.49e+00	0	40	104	0	70	21274
2026-01-22 04:01:58.57	39.30	8.11	-49.9	-64.8	3.8	1.49e+00	0	40	104	0	70	21243
2026-01-22 04:02:01.59	39.03	8.31	-49.9	-64.8	3.8	1.49e+00	0	40	104	0	70	21249
2026-01-22 04:02:04.62	38.75	8.52	-49.9	-64.8	3.8	1.49e+00	0	40	104	0	70	21202
2026-01-22 04:02:07.64	38.47	8.73	-49.9	-64.8	3.8	1.49e+00	0	40	104	0	70	21256
2026-01-22 04:02:10.67	38.18	8.94	-49.9	-64.8	3.8	1.49e+00	0	41	104	0	70	21237
2026-01-22 04:02:13.69	37.89	9.14	-49.9	-64.8	3.8	1.49e+00	0	40	104	0	70	21220
2026-01-22 04:02:16.72	37.59	9.36	-49.9	-64.8	3.8	1.49e+00	0	40	104	0	70	21244
2026-01-22 04:02:19.74	37.29	9.57	-49.9	-64.9	3.8	1.49e+00	0	40	104	0	70	21274
2026-01-22 04:02:22.77	36.99	9.78	-49.9	-64.9	3.8	1.49e+00	0	40	104	0	70	21315
2026-01-22 04:02:25.79	36.68	9.99	-49.9	-64.8	3.8	1.49e+00	0	41	104	0	70	21243
2026-01-22 04:02:28.82	36.36	10.21	-49.9	-64.8	3.8	1.49e+00	0	40	104	0	70	21242
2026-01-22 04:02:31.84	36.05	10.42	-49.9	-64.8	3.8	1.49e+00	0	40	104	0	70	21260
2026-01-22 04:02:34.87	35.72	10.64	-49.9	-64.9	3.8	1.49e+00	0	40	104	0	70	21271
2026-01-22 04:02:37.89	35.39	10.86	-49.9	-64.9	3.8	1.49e+00	0	41	104	0	70	21264
2026-01-22 04:02:40.92	35.06	11.08	-49.9	-64.8	3.8	1.49e+00	0	40	104	0	70	21231
2026-01-22 04:02:43.94	34.72	11.30	-49.9	-64.8	3.8	1.49e+00	0	40	104	0	70	21254
2026-01-22 04:02:46.97	34.38	11.52	-49.9	-64.8	3.8	1.49e+00	0	41	104	0	70	21224
2026-01-22 04:02:49.99	34.03	11.74	-49.9	-64.8	3.8	1.49e+00	0	41	104	0	70	21251
2026-01-22 04:02:53.01	33.67	11.96	-49.9	-64.8	3.8	1.49e+00	0	40	104	0	70	21254
2026-01-22 04:02:56.04	33.31	12.19	-49.9	-64.9	3.8	1.49e+00	0	40	104	0	70	21265
2026-01-22 04:02:59.06	32.95	12.41	-49.9	-64.9	3.8	1.49e+00	0	41	104	0	70	21265
2026-01-22 04:03:02.09	32.57	12.64	-49.9	-64.9	3.8	1.49e+00	0	41	104	0	70	21270
2026-01-22 04:03:05.12	32.20	12.86	-49.9	-64.9	3.8	1.49e+00	0	40	104	0	70	21286
2026-01-22 04:03:08.15	31.81	13.09	-49.9	-64.9	3.8	1.49e+00	0	41	104	0	70	21273
2026-01-22 04:03:11.17	31.42	13.32	-49.9	-64.8	3.8	1.49e+00	0	41	104	0	70	21245
2026-01-22 04:03:14.20	31.03	13.55	-49.9	-64.8	3.8	1.49e+00	0	41	104	0	70	21242
2026-01-22 04:03:17.23	30.62	13.78	-49.9	-64.9	3.8	1.49e+00	0	40	104	0	70	21268
2026-01-22 04:03:20.25	30.21	14.01	-49.9	-64.8	3.8	1.49e+00	0	41	104	0	70	21229
2026-01-22 04:03:23.28	29.80	14.24	-49.9	-64.8	3.8	1.49e+00	0	41	104	0	70	21226
2026-01-22 04:03:26.30	29.38	14.47	-49.9	-64.9	3.8	1.49e+00	0	41	104	0	70	21310
2026-01-22 04:03:29.33	28.95	14.70	-49.9	-64.9	3.8	1.49e+00	0	40	104	0	70	21278
2026-01-22 04:03:32.36	28.51	14.93	-49.9	-64.9	3.8	1.49e+00	0	41	104	0	70	21267
2026-01-22 04:03:35.38	28.07	15.17	-49.9	-64.9	3.8	1.49e+00	0	41	104	0	70	21265
2026-01-22 04:03:38.41	27.62	15.40	-49.9	-64.9	3.8	1.49e+00	0	41	104	0	70	21286
2026-01-22 04:03:41.43	27.16	15.64	-49.9	-64.8	3.8	1.49e+00	0	41	104	0	70	21241
2026-01-22 04:03:44.46	26.70	15.87	-49.9	-64.9	3.8	1.49e+00	0	41	104	0	70	21269
2026-01-22 04:03:47.48	26.22	16.10	-49.9	-64.9	3.8	1.49e+00	0	41	104	0	70	21290
2026-01-22 04:03:50.51	25.74	16.34	-49.9	-64.9	3.8	1.49e+00	0	41	104	0	70	21261
2026-01-22 04:03:53.53	25.26	16.57	-49.9	-64.8	3.8	1.49e+00	0	41	104	0	70	21250
2026-01-22 04:03:56.55	24.76	16.81	-49.9	-64.9	3.8	1.49e+00	0	40	104	0	70	21323
2026-01-22 04:03:59.58	24.26	17.04	-49.9	-64.9	3.8	1.49e+00	0	41	104	0	70	21312
2026-01-22 04:04:02.61	23.75	17.28	-49.9	-64.8	3.8	1.49e+00	0	41	104	0	70	21223
2026-01-22 04:04:05.63	23.23	17.51	-49.9	-64.9	3.8	1.49e+00	0	41	104	0	70	21284
2026-01-22 04:04:08.66	22.70	17.75	-49.9	-64.9	3.8	1.49e+00	0	41	104	0	70	21267
2026-01-22 04:04:11.68	22.16	17.98	-49.9	-64.8	3.8	1.49e+00	0	40	104	0	70	21251
2026-01-22 04:04:14.71	21.62	18.22	-49.9	-64.8	3.8	1.49e+00	0	40	104	0	70	21219
2026-01-22 04:04:17.74	21.07	18.45	-49.9	-64.9	3.8	1.49e+00	0	41	104	0	70	21291
2026-01-22 04:04:20.76	20.50	18.68	-49.9	-64.9	3.8	1.49e+00	0	41	104	0	70	21300
2026-01-22 04:04:23.79	19.93	18.92	-49.9	-64.8	3.8	1.49e+00	0	40	104	0	70	21258
2026-01-22 04:04:26.81	19.35	19.15	-49.9	-64.9	3.8	1.49e+00	0	41	104	0	70	21261
2026-01-22 04:04:29.84	18.76	19.38	-49.9	-64.8	3.8	1.49e+00	0	41	104	0	70	21198
2026-01-22 04:04:32.86	18.17	19.61	-49.9	-64.8	3.8	1.49e+00	0	41	104	0	70	21234
2026-01-22 04:04:35.89	17.56	19.83	-49.9	-64.8	3.8	1.49e+00	0	41	104	0	70	21185
2026-01-22 04:04:38.91	16.95	20.06	-49.9	-64.9	3.8	1.49e+00	0	41	104	0	70	21294
2026-01-22 04:04:41.94	16.32	20.29	-49.9	-64.9	3.8	1.49e+00	0	41	104	0	70	21304
2026-01-22 04:04:44.97	15.68	20.51	-49.9	-64.9	3.8	1.49e+00	0	41	104	0	70	21277
2026-01-22 04:04:47.99	15.04	20.73	-49.9	-64.9	3.8	1.49e+00	0	41	104	0	70	21265
2026-01-22 04:04:51.02	14.39	20.95	-49.9	-64.8	3.8	1.49e+00	0	41	104	0	70	21239
2026-01-22 04:04:54.04	13.73	21.17	-49.9	-64.9	3.8	1.49e+00	0	41	104	0	70	21350
2026-01-22 04:04:57.07	13.05	21.38	-49.9	-64.9	3.8	1.49e+00	0	41	104	0	70	21286
2026-01-22 04:05:00.10	12.37	21.59	-49.9	-64.9	3.8	1.49e+00	0	41	104	0	70	21286
2026-01-22 04:05:03.12	11.68	21.80	-49.9	-64.9	3.8	1.49e+00	0	41	104	0	70	21292
2026-01-22 04:05:06.15	10.98	22.01	-49.9	-64.9	3.8	1.49e+00	0	41	104	0	70	21309
2026-01-22 04:05:09.17	10.27	22.22	-49.9	-64.8	3.8	1.49e+00	0	41	104	0	70	21232
2026-01-22 04:05:12.20	9.55	22.42	-49.9	-64.9	3.8	1.49e+00	0	41	104	0	70	21293
2026-01-22 04:05:15.23	8.82	22.61	-49.9	-64.9	3.8	1.49e+00	0	41	104	0	70	21281
2026-01-22 04:05:18.25	8.08	22.81	-49.9	-64.9	3.8	1.49e+00	0	41	104	0	70	21293
2026-01-22 04:05:21.27	7.34	23.00	-49.9	-64.9	3.8	1.49e+00	0	41	104	0	70	21294
2026-01-22 04:05:24.30	6.58	23.18	-49.9	-64.9	3.8	1.49e+00	0	41	104	0	70	21292
2026-01-22 04:05:27.32	5.82	23.37	-49.9	-64.9	3.8	1.49e+00	0	41	104	0	70	21312
2026-01-22 04:05:30.35	5.04	23.54	-49.9	-64.9	3.8	1.49e+00	0	41	104	0	70	21300
2026-01-22 04:05:33.37	4.26	23.72	-49.9	-64.9	3.8	1.49e+00	0	41	104	0	70	21288
2026-01-22 04:05:36.40	3.47	23.89	-49.9	-64.9	3.8	1.49e+00	0	41	104	0	70	21357
2026-01-22 04:05:39.43	2.66	24.05	-49.9	-64.9	3.8	1.49e+00	0	41	104	0	70	21280
2026-01-22 04:05:42.45	1.86	24.21	-49.9	-64.9	3.8	1.49e+00	0	41	104	0	70	21275
2026-01-22 04:05:45.48	1.04	24.36	-49.9	-64.9	3.8	1.49e+00	0	41	104	0	70	21263
2026-01-22 04:05:48.51	0.21	24.51	-49.9	-64.9	3.8	1.49e+00	0	41	104	0	70	21315
2026-01-22 04:05:51.53	359.38	24.65	-49.9	-64.9	3.8	1.49e+00	0	41	104	0	70	21280
2026-01-22 04:05:54.56	358.54	24.79	-49.9	-64.9	3.8	1.49e+00	0	41	104	0	70	21280
2026-01-22 04:05:57.58	357.69	24.92	-49.9	-64.9	3.8	1.49e+00	0	41	104	0	70	21273
2026-01-22 04:06:00.61	356.84	25.04	-49.9	-64.9	3.8	1.49e+00	0	41	104	0	70	21284
2026-01-22 04:06:03.63	355.98	25.16	-49.9	-64.9	3.8	1.49e+00	0	41	104	0	70	21264
2026-01-22 04:06:06.65	355.11	25.27	-49.9	-64.9	3.8	1.49e+00	0	41	104	0	70	21298
2026-01-22 04:06:09.68	354.24	25.37	-49.9	-64.9	3.8	1.49e+00	0	41	104	0	70	21280
2026-01-22 04:06:12.70	353.36	25.47	-49.9	-64.8	3.8	1.49e+00	0	40	104	0	70	21214
2026-01-22 04:06:15.73	352.48	25.56	-49.9	-64.8	3.8	1.49e+00	0	40	104	0	70	21258
2026-01-22 04:06:18.75	351.59	25.64	-49.9	-64.9	3.8	1.49e+00	0	41	104	0	70	21308
2026-01-22 04:06:21.78	350.70	25.71	-49.9	-64.9	3.8	1.49e+00	0	41	104	0	70	21319
2026-01-22 04:06:24.80	349.80	25.78	-49.9	-64.9	3.8	1.49e+00	0	41	104	0	70	21276
2026-01-22 04:06:27.83	348.90	25.84	-49.9	-64.8	3.8	1.49e+00	0	41	104	0	70	21246
2026-01-22 04:06:30.85	348.00	25.89	-49.9	-64.8	3.8	1.49e+00	0	41	104	0	70	21258
2026-01-22 04:06:33.87	347.09	25.94	-49.9	-64.9	3.8	1.49e+00	0	41	104	0	70	21349
2026-01-22 04:06:36.90	346.18	25.97	-49.9	-64.9	3.8	1.49e+00	0	41	104	0	70	21315
2026-01-22 04:06:39.93	345.27	26.00	-49.9	-64.8	3.8	1.49e+00	0	41	104	0	70	21241
2026-01-22 04:06:42.96	344.36	26.02	-49.9	-64.9	3.8	1.49e+00	0	41	104	0	70	21261
2026-01-22 04:06:45.98	343.44	26.03	-49.9	-64.8	3.8	1.49e+00	0	41	104	0	70	21260
2026-01-22 04:06:49.01	342.53	26.04	-49.9	-64.8	3.8	1.49e+00	0	41	104	0	70	21258
2026-01-22 04:06:52.03	341.62	26.04	-49.9	-64.9	3.8	1.49e+00	0	41	104	0	70	21334
2026-01-22 04:06:55.05	340.71	26.02	-49.9	-64.9	3.8	1.49e+00	0	41	104	0	70	21287
2026-01-22 04:06:58.08	339.79	26.00	-49.9	-64.9	3.8	1.49e+00	0	41	104	0	70	21286
2026-01-22 04:07:01.10	338.88	25.98	-49.9	-64.9	3.8	1.49e+00	0	41	104	0	70	21323
2026-01-22 04:07:04.12	337.97	25.94	-49.9	-64.9	3.8	1.49e+00	0	41	104	0	70	21270
2026-01-22 04:07:07.15	337.07	25.90	-49.9	-64.9	3.8	1.49e+00	0	41	104	0	70	21267
2026-01-22 04:07:10.17	336.16	25.85	-49.9	-64.8	3.8	1.49e+00	0	41	104	0	70	21254
2026-01-22 04:07:13.20	335.26	25.79	-49.9	-64.9	3.8	1.49e+00	0	41	104	0	70	21286
2026-01-22 04:07:16.22	334.36	25.72	-49.9	-64.9	3.8	1.49e+00	0	41	104	0	70	21282
2026-01-22 04:07:19.25	333.47	25.65	-49.9	-64.9	3.8	1.49e+00	0	41	104	0	70	21324
2026-01-22 04:07:22.27	332.58	25.57	-49.9	-64.9	3.8	1.49e+00	0	40	104	0	70	21288
2026-01-22 04:07:25.30	331.70	25.48	-49.9	-64.9	3.8	1.49e+00	0	41	104	0	70	21338
2026-01-22 04:07:28.32	330.82	25.38	-49.9	-64.9	3.8	1.49e+00	0	41	104	0	70	21296
2026-01-22 04:07:31.34	329.95	25.28	-49.9	-64.9	3.8	1.49e+00	0	41	104	0	70	21317
2026-01-22 04:07:34.37	329.08	25.17	-49.9	-64.8	3.8	1.49e+00	0	41	104	0	70	21255
2026-01-22 04:07:37.39	328.22	25.05	-49.9	-64.9	3.8	1.49e+00	0	41	104	0	70	21343
2026-01-22 04:07:40.42	327.36	24.93	-49.9	-64.9	3.8	1.49e+00	0	41	104	0	70	21319
2026-01-22 04:07:43.45	326.51	24.80	-49.9	-64.9	3.8	1.49e+00	0	41	104	0	70	21284
2026-01-22 04:07:46.48	325.67	24.67	-49.9	-64.9	3.8	1.49e+00	0	41	104	0	70	21287
2026-01-22 04:07:49.50	324.83	24.53	-49.9	-64.9	3.8	1.49e+00	0	41	104	0	70	21311
2026-01-22 04:07:52.53	324.01	24.38	-49.9	-64.9	3.8	1.49e+00	0	41	104	0	70	21311
2026-01-22 04:07:55.55	323.19	24.23	-49.9	-64.9	3.8	1.49e+00	0	41	104	0	70	21303
2026-01-22 04:07:58.58	322.38	24.07	-49.9	-64.9	3.8	1.49e+00	0	41	104	0	70	21276
2026-01-22 04:08:01.60	321.58	23.91	-49.9	-64.9	3.8	1.49e+00	0	41	104	0	70	21271
2026-01-22 04:08:04.63	320.78	23.74	-49.9	-64.9	3.8	1.49e+00	0	41	104	0	70	21273
2026-01-22 04:08:07.65	320.00	23.57	-49.9	-64.9	3.8	1.49e+00	0	41	104	0	70	21307
2026-01-22 04:08:10.68	319.22	23.39	-49.9	-64.9	3.8	1.49e+00	0	41	104	0	70	21347
2026-01-22 04:08:13.70	318.46	23.21	-49.9	-64.9	3.8	1.49e+00	0	41	104	0	70	21319
2026-01-22 04:08:16.73	317.70	23.02	-49.9	-64.8	3.8	1.49e+00	0	41	104	0	70	21234
2026-01-22 04:08:19.76	316.95	22.83	-49.9	-64.9	3.8	1.49e+00	0	41	104	0	70	21316
2026-01-22 04:08:22.78	316.21	22.64	-49.9	-64.8	3.8	1.49e+00	0	41	104	0	70	21225
2026-01-22 04:08:25.81	315.48	22.44	-49.9	-64.9	3.8	1.49e+00	0	41	104	0	70	21265
2026-01-22 04:08:28.83	314.76	22.24	-49.9	-64.8	3.8	1.49e+00	0	41	104	0	70	21243
2026-01-22 04:08:31.86	314.05	22.04	-49.9	-64.9	3.8	1.49e+00	0	41	104	0	70	21338
2026-01-22 04:08:34.88	313.35	21.83	-49.9	-64.8	3.8	1.49e+00	0	41	104	0	70	21252
2026-01-22 04:08:37.90	312.65	21.62	-49.9	-64.9	3.8	1.49e+00	0	41	104	0	70	21278
2026-01-22 04:08:40.92	311.97	21.41	-49.9	-64.9	3.8	1.49e+00	0	41	104	0	70	21350
2026-01-22 04:08:43.95	311.30	21.19	-49.9	-64.8	3.8	1.49e+00	0	41	104	0	70	21259
2026-01-22 04:08:46.97	310.63	20.98	-49.9	-64.9	3.8	1.49e+00	0	41	104	0	70	21261
2026-01-22 04:08:50.00	309.98	20.76	-49.9	-64.9	3.8	1.49e+00	0	41	104	0	70	21301
2026-01-22 04:08:53.02	309.33	20.53	-49.9	-64.9	3.8	1.49e+00	0	41	104	0	70	21308
2026-01-22 04:08:56.05	308.70	20.31	-49.9	-64.8	3.8	1.49e+00	0	41	104	0	70	21247
2026-01-22 04:08:59.07	308.07	20.09	-49.9	-64.9	3.8	1.49e+00	0	41	104	0	70	21274
2026-01-22 04:09:02.10	307.45	19.86	-49.9	-64.8	3.8	1.49e+00	0	41	104	0	70	21258
2026-01-22 04:09:05.13	306.84	19.63	-49.9	-64.9	3.8	1.49e+00	0	41	104	0	70	21312
2026-01-22 04:09:08.15	306.24	19.40	-49.9	-64.9	3.8	1.49e+00	0	41	104	0	70	21275
2026-01-22 04:09:11.17	305.66	19.17	-49.9	-64.8	3.8	1.49e+00	0	41	104	0	70	21254
2026-01-22 04:09:14.20	305.07	18.94	-49.9	-64.9	3.8	1.49e+00	0	41	104	0	70	21309
2026-01-22 04:09:17.22	304.50	18.71	-49.9	-64.8	3.8	1.49e+00	0	41	104	0	70	21253
2026-01-22 04:09:20.25	303.94	18.48	-49.9	-64.9	3.8	1.49e+00	0	41	104	0	70	21278
2026-01-22 04:09:23.27	303.38	18.24	-49.9	-64.9	3.8	1.49e+00	0	41	104	0	70	21268
2026-01-22 04:09:26.30	302.84	18.01	-49.9	-64.9	3.8	1.49e+00	0	41	104	0	70	21267
2026-01-22 04:09:29.32	302.30	17.78	-49.9	-64.9	3.8	1.49e+00	0	40	104	0	70	21263
2026-01-22 04:09:32.35	301.77	17.54	-49.9	-64.9	3.8	1.49e+00	0	41	104	0	70	21303
2026-01-22 04:09:35.38	301.25	17.31	-49.9	-64.9	3.8	1.49e+00	0	41	104	0	70	21280
2026-01-22 04:09:38.40	300.74	17.07	-49.9	-64.9	3.8	1.49e+00	0	41	104	0	70	21266
2026-01-22 04:09:41.43	300.23	16.83	-49.9	-64.9	3.8	1.49e+00	0	41	104	0	70	21321
2026-01-22 04:09:44.45	299.73	16.60	-49.9	-64.9	3.8	1.49e+00	0	41	104	0	70	21281
2026-01-22 04:09:47.48	299.24	16.36	-49.9	-64.9	3.8	1.49e+00	0	41	104	0	70	21312
2026-01-22 04:09:50.51	298.76	16.13	-49.9	-64.9	3.8	1.49e+00	0	41	104	0	70	21313
2026-01-22 04:09:53.53	298.29	15.89	-49.9	-64.8	3.8	1.49e+00	0	41	104	0	70	21241
2026-01-22 04:09:56.56	297.82	15.66	-49.9	-64.9	3.8	1.49e+00	0	41	104	0	70	21302
2026-01-22 04:09:59.59	297.36	15.42	-49.9	-64.8	3.8	1.49e+00	0	41	104	0	70	21230
2026-01-22 04:10:02.61	296.91	15.19	-49.9	-64.9	3.8	1.49e+00	0	41	104	0	70	21273
2026-01-22 04:10:05.64	296.47	14.96	-49.9	-64.8	3.8	1.49e+00	0	41	104	0	70	21235
2026-01-22 04:10:08.66	296.03	14.73	-49.9	-64.9	3.8	1.49e+00	0	41	104	0	70	21291
2026-01-22 04:10:11.69	295.60	14.49	-49.9	-64.8	3.8	1.49e+00	0	41	104	0	70	21251
2026-01-22 04:10:14.71	295.18	14.26	-49.9	-64.9	3.8	1.49e+00	0	41	104	0	70	21292
2026-01-22 04:10:17.73	294.76	14.03	-49.9	-64.9	3.8	1.49e+00	0	41	104	0	70	21274
2026-01-22 04:10:20.75	294.35	13.80	-49.9	-64.9	3.8	1.49e+00	0	41	104	0	70	21311
2026-01-22 04:10:23.78	293.95	13.57	-49.9	-64.9	3.8	1.49e+00	0	41	104	0	70	21314
2026-01-22 04:10:26.80	293.55	13.34	-49.9	-64.9	3.8	1.49e+00	0	41	104	0	70	21297
2026-01-22 04:10:29.83	293.16	13.11	-49.9	-64.9	3.8	1.49e+00	0	41	104	0	70	21280
2026-01-22 04:10:32.85	292.77	12.89	-49.9	-64.9	3.8	1.49e+00	0	40	104	0	70	21280
2026-01-22 04:10:35.88	292.39	12.66	-49.9	-64.9	3.8	1.49e+00	0	41	104	0	70	21368
2026-01-22 04:10:38.90	292.02	12.43	-49.9	-64.9	3.8	1.49e+00	0	41	104	0	70	21263
2026-01-22 04:10:41.93	291.65	12.21	-49.9	-64.9	3.8	1.49e+00	0	41	104	0	70	21305
2026-01-22 04:10:44.95	291.29	11.99	-49.9	-64.8	3.8	1.49e+00	0	41	104	0	70	21241
2026-01-22 04:10:47.98	290.93	11.76	-49.9	-64.9	3.8	1.49e+00	0	41	104	0	70	21326
2026-01-22 04:10:51.00	290.58	11.54	-49.9	-64.9	3.8	1.49e+00	0	41	104	0	70	21321
2026-01-22 04:10:54.03	290.24	11.32	-49.9	-64.9	3.8	1.49e+00	0	41	104	0	70	21306
2026-01-22 04:10:57.06	289.90	11.10	-49.9	-64.9	3.8	1.49e+00	0	41	104	0	70	21265
2026-01-22 04:11:00.08	289.56	10.88	-49.9	-64.9	3.8	1.49e+00	0	41	104	0	70	21332
2026-01-22 04:11:03.11	289.23	10.66	-49.9	-64.9	3.8	1.49e+00	0	41	104	0	70	21271
2026-01-22 04:11:06.13	288.91	10.44	-49.9	-64.9	3.8	1.49e+00	0	41	104	0	70	21311
2026-01-22 04:11:09.16	288.59	10.23	-49.9	-64.9	3.8	1.49e+00	0	41	104	0	70	21307
2026-01-22 04:11:12.18	288.27	10.01	-49.9	-64.8	3.8	1.49e+00	0	41	104	0	70	21246
2026-01-22 04:11:15.21	287.96	9.80	-49.9	-64.8	3.8	1.49e+00	0	41	104	0	70	21230
2026-01-22 04:11:18.23	287.66	9.59	-49.9	-64.9	3.8	1.49e+00	0	41	104	0	70	21287
2026-01-22 04:11:21.25	287.36	9.37	-49.9	-64.8	3.8	1.49e+00	0	40	104	0	70	21254
2026-01-22 04:11:24.28	287.06	9.16	-49.9	-64.9	3.8	1.49e+00	0	41	104	0	70	21335
2026-01-22 04:11:27.30	286.77	8.95	-49.9	-64.8	3.8	1.49e+00	0	41	104	0	70	21260
2026-01-22 04:11:30.33	286.48	8.74	-49.9	-64.8	3.8	1.49e+00	0	41	104	0	70	21255
2026-01-22 04:11:33.35	286.19	8.54	-49.9	-64.9	3.8	1.49e+00	0	41	104	0	70	21286
2026-01-22 04:11:36.37	285.92	8.33	-49.9	-64.9	3.8	1.49e+00	0	41	104	0	70	21339
2026-01-22 04:11:39.39	285.64	8.12	-49.9	-64.9	3.8	1.49e+00	0	41	104	0	70	21277
2026-01-22 04:11:42.42	285.37	7.92	-49.9	-64.9	3.8	1.49e+00	0	41	104	0	70	21340
2026-01-22 04:11:45.45	285.10	7.72	-49.9	-64.9	3.8	1.49e+00	0	41	104	0	70	21279
2026-01-22 04:11:48.47	284.84	7.51	-49.9	-64.9	3.8	1.49e+00	0	41	104	0	70	21298
2026-01-22 04:11:51.50	284.58	7.31	-49.9	-64.9	3.8	1.49e+00	0	41	104	0	70	21319
2026-01-22 04:11:54.53	284.32	7.11	-49.9	-64.9	3.8	1.49e+00	0	41	104	0	70	21314
2026-01-22 04:11:57.55	284.07	6.91	-49.9	-64.9	3.8	1.49e+00	0	41	104	0	70	21296
2026-01-22 04:12:00.58	283.82	6.71	-49.9	-64.8	3.8	1.49e+00	0	41	104	0	70	21247
2026-01-22 04:12:03.61	283.57	6.51	-49.9	-64.9	3.8	1.49e+00	0	41	104	0	70	21302
2026-01-22 04:12:06.63	283.33	6.32	-49.9	-64.9	3.8	1.49e+00	0	41	104	0	70	21303
2026-01-22 04:12:09.66	283.09	6.12	-49.9	-64.9	3.8	1.49e+00	0	41	104	0	70	21303
2026-01-22 04:12:12.69	282.85	5.93	-49.9	-64.9	3.8	1.49e+00	0	41	104	0	70	21299
2026-01-22 04:12:15.71	282.62	5.73	-49.9	-64.9	3.8	1.49e+00	0	41	104	0	70	21267
2026-01-22 04:12:18.74	282.39	5.54	-49.9	-64.9	3.8	1.49e+00	0	41	104	0	70	21274
2026-01-22 04:12:21.76	282.17	5.35	-49.9	-64.9	3.8	1.49e+00	0	41	104	0	70	21329
2026-01-22 04:12:24.79	281.94	5.16	-49.9	-64.9	3.8	1.49e+00	0	41	104	0	70	21264
2026-01-22 04:12:27.82	281.72	4.97	-49.9	-64.9	3.8	1.49e+00	0	41	104	0	70	21301
2026-01-22 04:12:30.84	281.51	4.78	-49.9	-64.9	3.8	1.49e+00	0	41	104	0	70	21262
2026-01-22 04:12:33.87	281.29	4.59	-49.9	-64.9	3.8	1.49e+00	0	41	104	0	70	21270
2026-01-22 04:12:36.89	281.08	4.40	-49.9	-64.8	3.8	1.49e+00	0	41	104	0	70	21244
2026-01-22 04:12:39.91	280.87	4.22	-49.9	-64.9	3.8	1.49e+00	0	41	104	0	70	21317
2026-01-22 04:12:42.94	280.67	4.03	-49.9	-64.8	3.8	1.49e+00	0	41	104	0	70	21250
2026-01-22 04:12:45.97	280.46	3.85	-49.9	-64.9	3.8	1.49e+00	0	41	104	0	70	21293
2026-01-22 04:12:48.99	280.26	3.66	-49.9	-64.9	3.8	1.49e+00	0	41	104	0	70	21305
2026-01-22 04:12:52.01	280.07	3.48	-49.9	-64.9	3.8	1.49e+00	0	41	104	0	70	21304
2026-01-22 04:12:55.04	279.87	3.30	-49.9	-64.8	3.8	1.49e+00	0	41	104	0	70	21256
2026-01-22 04:12:58.07	279.68	3.12	-49.9	-64.9	3.8	1.49e+00	0	41	104	0	70	21301
2026-01-22 04:13:01.09	279.49	2.94	-49.9	-64.9	3.8	1.49e+00	0	41	104	0	70	21310
2026-01-22 04:13:04.12	279.30	2.76	-49.9	-64.9	3.8	1.49e+00	0	41	104	0	70	21272
2026-01-22 04:13:07.15	279.11	2.58	-49.9	-64.9	3.8	1.49e+00	0	41	104	0	70	21291
2026-01-22 04:13:10.17	278.93	2.40	-49.9	-64.9	3.8	1.49e+00	0	41	104	0	70	21323
2026-01-22 04:13:13.19	278.75	2.23	-49.9	-64.9	3.8	1.49e+00	0	41	104	0	70	21297
2026-01-22 04:13:16.22	278.57	2.05	-49.9	-64.9	3.8	1.49e+00	0	41	104	0	70	21328

#Closed at: 2026-01-22 04:13:18
#Recorded file [0 MB]: D:/lorett/data/31041_260122_070021.dat