passes_logs/2026/01/22/R3.2S_Murmansk/R3.2S_Murmansk__20260122_222949_KANOPUS-V_5_rec.log

#Pass ID: 20260122_222949_KANOPUS-V 5
#Satellite: KANOPUS-V 5
#Configuration: KANOPUS-V_8320
#almurnet v.1.7.20251203
#Start time: 2026-01-22 22:29:49

#Version: 2.2.20231116
#Station: R3.2S_Murmansk
#Location: 33.079688 lon 68.888172 lat
#TLE: 1 43876U 18111A   26022.52701148  .00004818  00000+0  20478-3 0  9994
#TLE: 2 43876  97.3679 290.9053 0001819  88.4130 271.7316 15.23508812392615

#Time	Az	El	Level	Level2	SNR	BER	BlckErr	Temp	State	Recorded	gain1	gain2
2026-01-22 22:29:49.36	20.79	2.01	-55.0	-63.9	3.8	7.45e-01	0	42	0	0	81	10098
2026-01-22 22:29:52.37	20.77	2.22	-55.2	-64.0	3.8	7.45e-01	0	42	104	0	81	10225
2026-01-22 22:29:55.40	20.75	2.44	-55.2	-64.0	3.8	7.45e-01	0	42	104	0	81	10283
2026-01-22 22:29:58.42	20.73	2.65	-55.1	-63.9	3.8	7.45e-01	0	42	104	0	81	10114
2026-01-22 22:30:01.44	20.71	2.87	-55.0	-63.8	3.8	7.45e-01	0	42	104	0	81	10027
2026-01-22 22:30:04.47	20.69	3.09	-54.8	-63.7	3.8	7.46e-01	0	42	104	0	81	9842
2026-01-22 22:30:07.49	20.67	3.31	-54.5	-63.4	3.8	7.45e-01	0	42	104	0	81	9518
2026-01-22 22:30:10.51	20.65	3.54	-53.9	-62.7	3.8	7.45e-01	0	43	104	0	79	9852
2026-01-22 22:30:13.54	20.62	3.77	-53.5	-62.3	3.8	7.45e-01	0	43	104	0	78	9954
2026-01-22 22:30:16.57	20.60	4.00	-53.4	-62.3	3.8	7.44e-01	0	43	104	0	78	9958
2026-01-22 22:30:19.59	20.57	4.23	-53.4	-62.2	3.8	7.45e-01	0	43	104	0	78	9934
2026-01-22 22:30:22.61	20.54	4.47	-53.4	-62.3	3.8	7.45e-01	0	43	104	0	78	9959
2026-01-22 22:30:25.64	20.52	4.71	-53.4	-62.2	3.8	7.46e-01	0	43	104	0	78	9892
2026-01-22 22:30:28.66	20.49	4.95	-53.4	-62.2	3.8	7.44e-01	0	43	104	0	78	9915
2026-01-22 22:30:31.69	20.46	5.19	-53.5	-62.3	3.8	7.45e-01	0	43	104	0	78	10035
2026-01-22 22:30:34.71	20.43	5.44	-53.5	-62.3	3.8	7.45e-01	0	43	104	0	78	9998
2026-01-22 22:30:37.73	20.40	5.69	-53.5	-62.3	3.8	7.45e-01	0	43	104	0	78	10037
2026-01-22 22:30:40.76	20.37	5.94	-53.5	-62.3	3.8	7.44e-01	0	43	104	0	78	10022
2026-01-22 22:30:43.78	20.34	6.20	-53.6	-62.4	3.8	7.45e-01	0	43	104	0	78	10156
2026-01-22 22:30:46.80	20.30	6.46	-53.6	-62.4	3.8	7.46e-01	0	43	104	0	78	10097
2026-01-22 22:30:49.83	20.27	6.73	-53.6	-62.4	3.8	7.45e-01	0	43	104	0	78	10171
2026-01-22 22:30:52.85	20.23	6.99	-53.6	-62.4	3.8	7.45e-01	0	43	104	0	78	10112
2026-01-22 22:30:55.87	20.20	7.27	-53.8	-62.6	3.8	7.46e-01	0	43	104	0	78	10311
2026-01-22 22:30:58.90	20.16	7.54	-53.7	-62.5	3.8	7.45e-01	0	43	104	0	78	10276
2026-01-22 22:31:01.93	20.12	7.82	-53.7	-62.6	3.8	7.46e-01	0	44	104	0	78	10310
2026-01-22 22:31:04.95	20.08	8.11	-53.7	-62.5	3.8	7.45e-01	0	44	104	0	78	10261
2026-01-22 22:31:07.97	20.04	8.39	-53.8	-62.7	3.8	7.46e-01	0	44	104	0	78	10445
2026-01-22 22:31:11.00	19.99	8.69	-53.8	-62.6	3.8	7.45e-01	0	44	104	0	78	10315
2026-01-22 22:31:14.02	19.95	8.98	-53.8	-62.6	3.8	7.44e-01	0	44	104	0	78	10345
2026-01-22 22:31:17.04	19.90	9.29	-53.8	-62.6	3.8	7.44e-01	0	44	104	0	78	10350
2026-01-22 22:31:20.07	19.85	9.59	-53.9	-62.7	3.8	7.44e-01	0	44	104	0	78	10532
2026-01-22 22:31:23.09	19.80	9.91	-53.9	-62.6	3.8	7.47e-01	0	44	104	0	78	10411
2026-01-22 22:31:26.12	19.75	10.23	-53.9	-62.7	3.8	7.46e-01	0	44	104	0	78	10512
2026-01-22 22:31:29.14	19.70	10.55	-53.9	-62.7	3.8	7.46e-01	0	44	104	0	78	10445
2026-01-22 22:31:32.16	19.64	10.88	-54.0	-62.8	3.8	7.46e-01	0	44	104	0	78	10579
2026-01-22 22:31:35.18	19.59	11.21	-53.9	-62.8	3.8	7.46e-01	0	44	104	0	78	10558
2026-01-22 22:31:38.21	19.53	11.55	-54.0	-62.8	3.8	7.47e-01	0	44	104	0	78	10548
2026-01-22 22:31:41.23	19.47	11.90	-54.0	-62.8	3.8	7.45e-01	0	44	104	0	78	10537
2026-01-22 22:31:44.25	19.41	12.26	-54.1	-62.9	3.8	7.45e-01	0	44	104	0	78	10724
2026-01-22 22:31:47.28	19.34	12.62	-54.0	-62.8	3.8	7.45e-01	0	44	104	0	78	10651
2026-01-22 22:31:50.30	19.27	12.99	-54.1	-62.9	3.8	7.46e-01	0	44	104	0	78	10686
2026-01-22 22:31:53.33	19.20	13.36	-54.1	-62.9	3.8	7.46e-01	0	44	104	0	78	10714
2026-01-22 22:31:56.35	19.13	13.75	-54.1	-62.9	3.8	7.43e-01	0	44	104	0	78	10773
2026-01-22 22:31:59.37	19.06	14.14	-54.1	-62.9	3.8	7.44e-01	0	44	104	0	78	10747
2026-01-22 22:32:02.40	18.98	14.54	-54.1	-63.0	3.8	7.46e-01	0	44	104	0	78	10786
2026-01-22 22:32:05.43	18.90	14.95	-54.1	-62.9	3.8	7.45e-01	0	44	104	0	78	10749
2026-01-22 22:32:08.45	18.81	15.37	-54.2	-63.0	3.8	7.45e-01	0	44	104	0	79	10285
2026-01-22 22:32:11.48	18.73	15.79	-54.2	-63.0	3.8	7.45e-01	0	44	104	0	79	10281
2026-01-22 22:32:14.51	18.63	16.23	-54.2	-63.0	3.8	7.45e-01	0	44	104	0	79	10218
2026-01-22 22:32:17.53	18.54	16.68	-54.2	-63.0	3.8	7.44e-01	0	44	104	0	79	10234
2026-01-22 22:32:20.56	18.44	17.14	-54.3	-63.1	3.8	7.45e-01	0	44	104	0	79	10356
2026-01-22 22:32:23.58	18.34	17.61	-54.3	-63.1	3.8	7.46e-01	0	44	104	0	79	10336
2026-01-22 22:32:26.61	18.23	18.09	-54.3	-63.1	3.8	7.46e-01	0	44	104	0	79	10331
2026-01-22 22:32:29.63	18.12	18.59	-54.3	-63.1	3.8	7.47e-01	0	44	104	0	79	10343
2026-01-22 22:32:32.66	18.00	19.10	-54.3	-63.1	3.8	7.47e-01	0	44	104	0	79	10367
2026-01-22 22:32:35.68	17.88	19.62	-54.4	-63.1	3.8	7.45e-01	0	44	104	0	79	10407
2026-01-22 22:32:38.71	17.76	20.15	-54.3	-63.1	3.8	7.47e-01	0	44	104	0	79	10412
2026-01-22 22:32:41.73	17.62	20.70	-54.4	-63.2	3.8	7.45e-01	0	44	104	0	79	10445
2026-01-22 22:32:44.75	17.49	21.27	-54.4	-63.2	3.8	7.45e-01	0	44	104	0	79	10445
2026-01-22 22:32:47.78	17.34	21.85	-54.4	-63.2	3.8	7.44e-01	0	44	104	0	79	10482
2026-01-22 22:32:50.80	17.19	22.45	-54.4	-63.2	3.8	7.45e-01	0	44	104	0	79	10459
2026-01-22 22:32:53.82	17.03	23.06	-54.4	-63.2	3.8	7.47e-01	0	44	104	0	79	10490
2026-01-22 22:32:56.85	16.86	23.70	-54.4	-63.2	3.8	7.44e-01	0	44	104	0	79	10493
2026-01-22 22:32:59.87	16.69	24.35	-54.5	-63.3	3.8	7.45e-01	0	44	104	0	79	10578
2026-01-22 22:33:02.89	16.50	25.03	-54.5	-63.3	3.8	7.45e-01	0	44	104	0	79	10564
2026-01-22 22:33:05.92	16.31	25.72	-54.5	-63.3	3.8	7.45e-01	0	44	104	0	79	10604
2026-01-22 22:33:08.95	16.10	26.44	-54.5	-63.3	3.8	7.45e-01	0	44	104	0	79	10566
2026-01-22 22:33:11.97	15.89	27.19	-54.5	-63.4	3.8	7.45e-01	0	44	104	0	79	10671
2026-01-22 22:33:15.00	15.66	27.95	-54.5	-63.3	3.8	7.46e-01	0	44	104	0	79	10627
2026-01-22 22:33:18.02	15.42	28.75	-54.5	-63.4	3.8	7.48e-01	0	44	104	0	79	10669
2026-01-22 22:33:21.05	15.16	29.57	-54.5	-63.4	3.8	7.45e-01	0	44	104	0	79	10684
2026-01-22 22:33:24.07	14.89	30.42	-54.6	-63.4	3.8	7.44e-01	0	44	104	0	79	10775
2026-01-22 22:33:27.10	14.60	31.30	-54.6	-63.4	3.8	7.44e-01	0	44	104	0	79	10723
2026-01-22 22:33:30.12	14.30	32.21	-54.6	-63.5	3.8	7.44e-01	0	44	104	0	79	10783
2026-01-22 22:33:33.15	13.97	33.16	-54.6	-63.4	3.8	7.45e-01	0	44	104	0	79	10751
2026-01-22 22:33:36.17	13.62	34.13	-54.7	-63.5	3.8	7.44e-01	0	44	104	0	79	10809
2026-01-22 22:33:39.20	13.25	35.15	-54.7	-63.5	3.8	7.45e-01	0	44	104	0	79	10806
2026-01-22 22:33:42.22	12.85	36.20	-54.7	-63.5	3.8	7.46e-01	0	44	104	0	79	10855
2026-01-22 22:33:45.25	12.42	37.30	-54.6	-63.4	3.8	7.44e-01	0	44	104	0	80	10151
2026-01-22 22:33:48.27	11.96	38.43	-54.7	-63.5	3.8	7.46e-01	0	44	104	0	80	10230
2026-01-22 22:33:51.29	11.46	39.61	-54.7	-63.5	3.8	7.45e-01	0	44	104	0	80	10259
2026-01-22 22:33:54.32	10.91	40.83	-54.7	-63.6	3.8	7.46e-01	0	44	104	0	80	10316
2026-01-22 22:33:57.34	10.33	42.10	-54.7	-63.5	3.8	7.44e-01	0	44	104	0	80	10286
2026-01-22 22:34:00.37	9.69	43.42	-54.8	-63.6	3.8	7.46e-01	0	45	104	0	80	10327
2026-01-22 22:34:03.39	8.99	44.78	-54.8	-63.6	3.8	7.46e-01	0	44	104	0	80	10389
2026-01-22 22:34:06.42	8.22	46.20	-54.8	-63.6	3.8	7.45e-01	0	44	104	0	80	10396
2026-01-22 22:34:09.45	7.38	47.66	-54.8	-63.6	3.8	7.47e-01	0	44	104	0	80	10350
2026-01-22 22:34:12.47	6.45	49.18	-54.9	-63.7	3.8	7.45e-01	0	44	104	0	80	10427
2026-01-22 22:34:15.50	5.41	50.75	-54.9	-63.7	3.8	7.43e-01	0	45	104	0	80	10521
2026-01-22 22:34:18.52	4.25	52.36	-54.9	-63.7	3.8	7.44e-01	0	44	104	0	80	10474
2026-01-22 22:34:21.55	2.96	54.03	-54.9	-63.7	3.8	7.44e-01	0	44	104	0	80	10492
2026-01-22 22:34:24.57	1.50	55.73	-54.9	-63.7	3.8	7.45e-01	0	44	104	0	80	10521
2026-01-22 22:34:27.60	359.83	57.49	-55.0	-63.8	3.8	7.47e-01	0	44	104	0	80	10634
2026-01-22 22:34:30.63	357.93	59.27	-55.0	-63.8	3.8	7.46e-01	0	44	104	0	80	10616
2026-01-22 22:34:33.65	355.75	61.08	-55.0	-63.8	3.8	7.44e-01	0	44	104	0	80	10642
2026-01-22 22:34:36.68	353.22	62.90	-55.0	-63.8	3.8	7.45e-01	0	44	104	0	80	10622
2026-01-22 22:34:39.71	350.26	64.72	-55.0	-63.8	3.8	7.45e-01	0	44	104	0	80	10649
2026-01-22 22:34:42.73	346.80	66.51	-55.1	-63.9	3.8	7.46e-01	0	44	104	0	80	10691
2026-01-22 22:34:45.76	342.69	68.26	-55.1	-63.9	3.8	7.46e-01	0	44	104	0	80	10720
2026-01-22 22:34:48.79	337.80	69.91	-55.1	-63.9	3.8	7.45e-01	0	44	104	0	80	10691
2026-01-22 22:34:51.81	332.03	71.43	-55.1	-63.9	3.8	7.45e-01	0	44	104	0	80	10742
2026-01-22 22:34:54.84	325.20	72.77	-55.2	-64.0	3.8	7.46e-01	0	45	104	0	80	10826
2026-01-22 22:34:57.87	317.28	73.85	-55.1	-64.0	3.8	7.46e-01	0	44	104	0	80	10794
2026-01-22 22:35:00.89	308.39	74.60	-55.1	-64.0	3.8	7.44e-01	0	44	104	0	80	10787
2026-01-22 22:35:03.92	298.77	74.96	-55.2	-64.0	3.8	7.46e-01	0	45	104	0	80	10866
2026-01-22 22:35:06.94	288.98	74.91	-55.2	-64.0	3.8	7.45e-01	0	44	104	0	81	10245
2026-01-22 22:35:09.97	279.50	74.44	-55.2	-64.0	3.8	7.45e-01	0	45	104	0	81	10292
2026-01-22 22:35:12.99	270.85	73.60	-55.2	-64.0	3.8	7.46e-01	0	44	104	0	81	10288
2026-01-22 22:35:16.02	263.20	72.44	-55.3	-64.1	3.8	7.45e-01	0	45	104	0	81	10337
2026-01-22 22:35:19.04	256.67	71.05	-55.3	-64.1	3.8	7.45e-01	0	45	104	0	81	10323
2026-01-22 22:35:22.07	251.13	69.49	-55.3	-64.1	3.8	7.45e-01	0	45	104	0	81	10325
2026-01-22 22:35:25.09	246.47	67.80	-55.3	-64.0	3.8	7.45e-01	0	45	104	0	81	10290
2026-01-22 22:35:28.12	242.53	66.04	-55.3	-64.1	3.8	7.46e-01	0	45	104	0	81	10319
2026-01-22 22:35:31.14	239.21	64.24	-55.3	-64.1	3.8	7.46e-01	0	45	104	0	81	10340
2026-01-22 22:35:34.17	236.37	62.41	-55.2	-64.1	3.8	7.44e-01	0	45	104	0	81	10308
2026-01-22 22:35:37.19	233.93	60.59	-55.2	-64.0	3.8	7.43e-01	0	45	104	0	81	10268
2026-01-22 22:35:40.21	231.83	58.79	-55.2	-64.0	3.8	7.48e-01	0	45	104	0	81	10265
2026-01-22 22:35:43.24	230.00	57.01	-55.2	-64.0	3.8	7.45e-01	0	45	104	0	81	10215
2026-01-22 22:35:46.26	228.39	55.27	-55.2	-64.0	3.8	7.47e-01	0	45	104	0	81	10219
2026-01-22 22:35:49.28	226.97	53.57	-55.1	-63.9	3.8	7.45e-01	0	45	104	0	81	10159
2026-01-22 22:35:52.31	225.71	51.91	-55.1	-63.9	3.8	7.45e-01	0	45	104	0	81	10133
2026-01-22 22:35:55.33	224.59	50.30	-55.1	-63.9	3.8	7.47e-01	0	45	104	0	81	10122
2026-01-22 22:35:58.36	223.58	48.74	-55.1	-63.9	3.8	7.44e-01	0	45	104	0	81	10092
2026-01-22 22:36:01.38	222.67	47.24	-55.0	-63.9	3.8	7.46e-01	0	45	104	0	81	10070
2026-01-22 22:36:04.41	221.85	45.78	-55.0	-63.8	3.8	7.46e-01	0	45	104	0	81	10020
2026-01-22 22:36:07.43	221.10	44.37	-55.0	-63.8	3.8	7.46e-01	0	45	104	0	81	10049
2026-01-22 22:36:10.45	220.41	43.02	-55.0	-63.8	3.8	7.46e-01	0	45	104	0	81	9989
2026-01-22 22:36:13.48	219.79	41.71	-54.9	-63.8	3.8	7.45e-01	0	45	104	0	81	9946
2026-01-22 22:36:16.51	219.21	40.45	-54.9	-63.7	3.8	7.44e-01	0	45	104	0	81	9915
2026-01-22 22:36:19.53	218.68	39.24	-54.9	-63.7	3.8	7.47e-01	0	45	104	0	81	9929
2026-01-22 22:36:22.56	218.19	38.06	-54.9	-63.7	3.8	7.45e-01	0	45	104	0	81	9878
2026-01-22 22:36:25.58	217.73	36.94	-54.9	-63.7	3.8	7.46e-01	0	45	104	0	81	9835
2026-01-22 22:36:28.61	217.31	35.85	-54.8	-63.6	3.8	7.46e-01	0	45	104	0	81	9817
2026-01-22 22:36:31.63	216.92	34.81	-54.8	-63.7	3.8	7.46e-01	0	45	104	0	81	9831
2026-01-22 22:36:34.66	216.55	33.80	-54.8	-63.6	3.8	7.45e-01	0	45	104	0	81	9803
2026-01-22 22:36:37.68	216.21	32.82	-54.8	-63.6	3.8	7.44e-01	0	44	104	0	81	9730
2026-01-22 22:36:40.71	215.88	31.88	-54.7	-63.6	3.8	7.45e-01	0	44	104	0	81	9726
2026-01-22 22:36:43.73	215.58	30.98	-54.7	-63.5	3.8	7.47e-01	0	45	104	0	81	9696
2026-01-22 22:36:46.76	215.30	30.10	-54.7	-63.5	3.8	7.44e-01	0	45	104	0	81	9682
2026-01-22 22:36:49.78	215.03	29.26	-54.7	-63.5	3.8	7.46e-01	0	45	104	0	81	9626
2026-01-22 22:36:52.81	214.77	28.44	-54.7	-63.5	3.8	7.46e-01	0	45	104	0	81	9639
2026-01-22 22:36:55.84	214.54	27.65	-54.6	-63.4	3.8	7.44e-01	0	44	104	0	81	9603
2026-01-22 22:36:58.86	214.31	26.89	-54.6	-63.4	3.8	7.45e-01	0	45	104	0	81	9601
2026-01-22 22:37:01.89	214.10	26.15	-54.6	-63.4	3.8	7.46e-01	0	44	104	0	81	9540
2026-01-22 22:37:04.91	213.89	25.44	-54.6	-63.4	3.8	7.47e-01	0	44	104	0	81	9551
2026-01-22 22:37:07.93	213.70	24.75	-54.5	-63.3	3.8	7.45e-01	0	45	104	0	81	9491
2026-01-22 22:37:10.96	213.52	24.07	-54.5	-63.4	3.8	7.46e-01	0	45	104	0	81	9512
2026-01-22 22:37:13.98	213.34	23.43	-54.5	-63.3	3.8	7.45e-01	0	45	104	0	81	9474
2026-01-22 22:37:17.01	213.18	22.79	-54.5	-63.3	3.8	7.46e-01	0	45	104	0	81	9443
2026-01-22 22:37:20.03	213.02	22.18	-54.5	-63.2	3.8	7.47e-01	0	45	104	0	80	9944
2026-01-22 22:37:23.06	212.87	21.58	-54.4	-63.3	3.8	7.43e-01	0	45	104	0	80	9967
2026-01-22 22:37:26.08	212.73	21.01	-54.4	-63.2	3.8	7.44e-01	0	44	104	0	80	9890
2026-01-22 22:37:29.11	212.59	20.44	-54.4	-63.2	3.8	7.47e-01	0	44	104	0	80	9937
2026-01-22 22:37:32.13	212.46	19.90	-54.4	-63.2	3.8	7.47e-01	0	44	104	0	80	9852
2026-01-22 22:37:35.16	212.33	19.36	-54.4	-63.2	3.8	7.45e-01	0	44	104	0	80	9851
2026-01-22 22:37:38.19	212.21	18.84	-54.3	-63.2	3.8	7.42e-01	0	44	104	0	80	9854
2026-01-22 22:37:41.21	212.09	18.34	-54.3	-63.2	3.8	7.45e-01	0	44	104	0	80	9846
2026-01-22 22:37:44.23	211.98	17.85	-54.3	-63.1	3.8	7.45e-01	0	44	104	0	80	9823
2026-01-22 22:37:47.26	211.88	17.37	-54.3	-63.1	3.8	7.46e-01	0	44	104	0	80	9764
2026-01-22 22:37:50.29	211.77	16.90	-54.3	-63.1	3.8	7.43e-01	0	44	104	0	80	9767
2026-01-22 22:37:53.31	211.67	16.44	-54.3	-63.1	3.8	7.44e-01	0	44	104	0	80	9745
2026-01-22 22:37:56.33	211.58	16.00	-54.2	-63.0	3.8	7.47e-01	0	44	104	0	80	9682
2026-01-22 22:37:59.36	211.49	15.56	-54.2	-63.0	3.8	7.45e-01	0	44	104	0	80	9663
2026-01-22 22:38:02.38	211.40	15.13	-54.2	-63.0	3.8	7.46e-01	0	44	104	0	80	9677
2026-01-22 22:38:05.40	211.32	14.72	-54.2	-63.0	3.8	7.44e-01	0	44	104	0	80	9653
2026-01-22 22:38:08.43	211.24	14.31	-54.2	-63.0	3.8	7.47e-01	0	44	104	0	80	9627
2026-01-22 22:38:11.45	211.16	13.91	-54.1	-62.9	3.8	7.46e-01	0	44	104	0	80	9590
2026-01-22 22:38:14.48	211.08	13.52	-54.1	-62.9	3.8	7.45e-01	0	44	104	0	80	9577
2026-01-22 22:38:17.50	211.01	13.14	-54.1	-62.9	3.8	7.45e-01	0	44	104	0	80	9578
2026-01-22 22:38:20.53	210.94	12.76	-54.1	-62.9	3.8	7.46e-01	0	44	104	0	80	9525
2026-01-22 22:38:23.55	210.87	12.39	-54.0	-62.9	3.8	7.46e-01	0	44	104	0	80	9519
2026-01-22 22:38:26.58	210.80	12.03	-54.0	-62.8	3.8	7.45e-01	0	44	104	0	80	9494
2026-01-22 22:38:29.60	210.74	11.68	-54.0	-62.9	3.8	7.45e-01	0	44	104	0	80	9505
2026-01-22 22:38:32.63	210.68	11.33	-54.0	-62.8	3.8	7.44e-01	0	44	104	0	80	9475
2026-01-22 22:38:35.65	210.62	10.99	-54.0	-62.8	3.8	7.44e-01	0	44	104	0	79	10008
2026-01-22 22:38:38.68	210.56	10.66	-54.0	-62.8	3.8	7.46e-01	0	44	104	0	79	10024
2026-01-22 22:38:41.70	210.51	10.33	-54.0	-62.8	3.8	7.46e-01	0	44	104	0	79	10010
2026-01-22 22:38:44.73	210.45	10.01	-54.0	-62.8	3.8	7.45e-01	0	44	104	0	79	9963
2026-01-22 22:38:47.75	210.40	9.69	-53.9	-62.7	3.8	7.46e-01	0	44	104	0	79	9864
2026-01-22 22:38:50.77	210.35	9.38	-53.9	-62.7	3.8	7.45e-01	0	44	104	0	79	9881
2026-01-22 22:38:53.80	210.30	9.07	-53.9	-62.7	3.8	7.45e-01	0	44	104	0	79	9878
2026-01-22 22:38:56.82	210.25	8.77	-53.9	-62.7	3.8	7.44e-01	0	44	104	0	79	9859
2026-01-22 22:38:59.85	210.21	8.47	-53.8	-62.6	3.8	7.45e-01	0	43	104	0	79	9763
2026-01-22 22:39:02.88	210.16	8.18	-53.8	-62.6	3.8	7.46e-01	0	44	104	0	79	9766
2026-01-22 22:39:05.90	210.12	7.89	-53.8	-62.6	3.8	7.44e-01	0	43	104	0	79	9755
2026-01-22 22:39:08.93	210.08	7.61	-53.8	-62.6	3.8	7.43e-01	0	43	104	0	79	9779
2026-01-22 22:39:11.95	210.04	7.33	-53.6	-62.4	3.8	7.46e-01	0	43	104	0	79	9581
2026-01-22 22:39:14.98	210.00	7.06	-53.6	-62.4	3.8	7.45e-01	0	43	104	0	79	9587
2026-01-22 22:39:18.01	209.96	6.78	-53.6	-62.4	3.8	7.46e-01	0	43	104	0	79	9514
2026-01-22 22:39:21.03	209.92	6.52	-53.6	-62.4	3.8	7.44e-01	0	43	104	0	78	10163
2026-01-22 22:39:24.06	209.89	6.25	-53.4	-62.2	3.8	7.45e-01	0	43	104	0	78	9924
2026-01-22 22:39:27.08	209.85	5.99	-53.4	-62.3	3.8	7.48e-01	0	43	104	0	78	9961
2026-01-22 22:39:30.10	209.82	5.74	-53.4	-62.2	3.8	7.46e-01	0	42	104	0	78	9904
2026-01-22 22:39:33.13	209.79	5.48	-53.4	-62.2	3.8	7.45e-01	0	43	104	0	78	9896
2026-01-22 22:39:36.15	209.75	5.23	-53.2	-62.0	3.8	7.46e-01	0	43	104	0	78	9690
2026-01-22 22:39:39.17	209.72	4.99	-53.2	-62.0	3.8	7.45e-01	0	43	104	0	78	9716
2026-01-22 22:39:42.20	209.69	4.74	-54.3	-63.1	3.8	7.45e-01	0	42	104	0	79	10370
2026-01-22 22:39:45.22	209.66	4.50	-54.6	-63.5	3.8	7.46e-01	0	42	104	0	79	10790
2026-01-22 22:39:48.25	209.63	4.26	-54.8	-63.6	3.8	7.45e-01	0	42	104	0	80	10390
2026-01-22 22:39:51.27	209.61	4.03	-54.9	-63.7	3.8	7.45e-01	0	42	104	0	80	10505
2026-01-22 22:39:54.29	209.58	3.79	-54.9	-63.8	3.8	7.45e-01	0	42	104	0	80	10534
2026-01-22 22:39:57.32	209.55	3.56	-55.0	-63.8	3.8	7.45e-01	0	42	104	0	80	10605
2026-01-22 22:40:00.34	209.53	3.34	-55.0	-63.8	3.8	7.46e-01	0	42	104	0	80	10593
2026-01-22 22:40:03.37	209.50	3.11	-54.8	-63.6	3.8	7.44e-01	0	42	104	0	80	10351
2026-01-22 22:40:06.39	209.48	2.89	-54.5	-63.4	3.8	7.45e-01	0	42	104	0	80	10090
2026-01-22 22:40:09.41	209.45	2.67	-54.5	-63.3	3.8	7.46e-01	0	42	104	0	80	10038
2026-01-22 22:40:12.44	209.43	2.45	-54.5	-63.3	3.8	7.45e-01	0	42	104	0	80	10020
2026-01-22 22:40:15.46	209.41	2.24	-54.5	-63.3	3.8	7.47e-01	0	42	104	0	80	10029
2026-01-22 22:40:18.49	209.39	2.02	-54.5	-63.3	3.8	7.45e-01	0	42	104	0	80	9994

#Closed at: 2026-01-22 22:40:21
#Recorded file [0 MB]: D:/lorett/data/31041_260123_012949.dat