passes_logs/2026/01/22/R3.2S_Murmansk/R3.2S_Murmansk__20260122_082753_NOAA_21_JPSS-2_rec.log

#Pass ID: 20260122_082753_NOAA 21 (JPSS-2)
#Satellite: NOAA 21 (JPSS-2)
#Configuration: NOAA-21
#almurnet v.1.7.20251203
#Start time: 2026-01-22 08:27:53

#Version: 2.2.20231116
#Station: R3.2S_Murmansk
#Location: 33.079688 lon 68.888172 lat
#TLE: 1 54234U 22150A   26021.42686626  .00000211  00000+0  12107-3 0  9996
#TLE: 2 54234  98.7506 322.2490 0000636 241.9299 118.1812 14.19537149165725

#Time	Az	El	Level	Level2	SNR	BER	BlckErr	Temp	State	Recorded	gain1	gain2
2026-01-22 08:27:53.54	126.85	1.99	-54.3	-67.1	3.8	1.49e+00	0	39	0	0	79	16478
2026-01-22 08:27:57.58	126.76	2.24	-54.5	-67.3	3.8	1.49e+00	0	39	104	0	79	16850
2026-01-22 08:28:01.61	126.66	2.50	-54.4	-67.2	3.8	1.49e+00	0	39	104	0	79	16619
2026-01-22 08:28:05.65	126.56	2.76	-54.2	-67.0	3.8	1.49e+00	0	39	104	0	79	16168
2026-01-22 08:28:09.68	126.46	3.03	-53.8	-66.6	3.8	1.49e+00	0	40	104	0	79	15524
2026-01-22 08:28:13.71	126.36	3.29	-53.3	-66.1	3.8	1.49e+00	0	40	104	0	78	15427
2026-01-22 08:28:17.74	126.25	3.56	-52.8	-65.5	3.8	1.49e+00	0	40	104	0	77	15261
2026-01-22 08:28:21.78	126.14	3.83	-52.3	-64.7	3.8	1.49e+00	0	40	104	0	76	14752
2026-01-22 08:28:25.81	126.03	4.10	-52.2	-62.6	4.0	1.48e+00	0	40	104	0	76	11677
2026-01-22 08:28:29.84	125.92	4.38	-50.0	-53.7	10.2	1.41e-02	0	40	0	8388608	71	5535
2026-01-22 08:28:33.87	125.81	4.66	-46.5	-48.1	15.8	0.00e+00	0	40	0	20971520	65	4145
2026-01-22 08:28:37.90	125.69	4.94	-46.0	-47.5	16.5	0.00e+00	0	40	0	33554432	63	4320
2026-01-22 08:28:41.93	125.57	5.22	-48.7	-51.5	12.6	1.83e-05	0	40	0	46137344	67	5448
2026-01-22 08:28:45.96	125.45	5.51	-45.3	-46.6	17.5	0.00e+00	0	40	0	58720256	61	4362
2026-01-22 08:28:50.00	125.32	5.80	-44.7	-45.9	18.2	0.00e+00	0	40	0	71303168	60	4290
2026-01-22 08:28:54.03	125.19	6.09	-44.8	-46.0	18.2	0.00e+00	0	40	0	83886080	60	4319
2026-01-22 08:28:58.06	125.06	6.39	-44.4	-45.5	18.6	0.00e+00	0	40	0	96468992	60	4085
2026-01-22 08:29:02.10	124.93	6.69	-44.3	-45.5	18.7	0.00e+00	0	40	0	109051904	60	4058
2026-01-22 08:29:06.13	124.79	6.99	-44.5	-45.7	18.5	0.00e+00	0	40	0	121634816	60	4175
2026-01-22 08:29:10.16	124.65	7.29	-44.6	-45.8	18.5	0.00e+00	0	40	0	134217728	60	4229
2026-01-22 08:29:14.19	124.51	7.60	-44.4	-45.6	18.8	0.00e+00	0	40	0	146800640	60	4111
2026-01-22 08:29:18.22	124.36	7.92	-44.2	-45.3	19.0	0.00e+00	0	40	0	159383552	60	3995
2026-01-22 08:29:22.25	124.22	8.23	-44.0	-45.1	19.3	0.00e+00	0	40	0	171966464	60	3889
2026-01-22 08:29:26.28	124.06	8.55	-44.1	-45.1	19.6	0.00e+00	0	40	0	184549376	59	4128
2026-01-22 08:29:30.31	123.90	8.88	-44.1	-45.2	19.6	0.00e+00	0	40	0	197132288	59	4156
2026-01-22 08:29:34.35	123.74	9.21	-44.0	-45.1	19.7	0.00e+00	0	40	0	209715200	59	4110
2026-01-22 08:29:38.38	123.58	9.54	-43.9	-44.9	19.9	0.00e+00	0	40	0	222298112	59	4038
2026-01-22 08:29:42.41	123.41	9.88	-43.9	-44.9	19.9	0.00e+00	0	40	0	234881024	59	4022
2026-01-22 08:29:46.44	123.24	10.22	-43.8	-44.8	20.0	0.00e+00	0	40	0	247463936	59	3970
2026-01-22 08:29:50.47	123.06	10.56	-43.7	-44.7	20.2	0.00e+00	0	40	0	260046848	59	3919
2026-01-22 08:29:54.50	122.88	10.92	-43.6	-44.5	20.3	0.00e+00	0	41	0	272629760	58	4094
2026-01-22 08:29:58.53	122.69	11.27	-43.4	-44.3	20.5	0.00e+00	0	41	0	285212672	58	3986
2026-01-22 08:30:02.56	122.50	11.63	-43.3	-44.3	20.6	0.00e+00	0	41	0	298844160	58	3975
2026-01-22 08:30:06.60	122.30	12.00	-43.1	-44.1	20.8	0.00e+00	0	41	0	310378496	58	3874
2026-01-22 08:30:10.63	122.10	12.37	-43.0	-43.9	21.0	0.00e+00	0	41	0	322961408	57	4023
2026-01-22 08:30:14.66	121.89	12.74	-42.8	-43.6	21.2	0.00e+00	0	41	0	336592896	57	3907
2026-01-22 08:30:18.69	121.68	13.12	-43.0	-43.9	21.0	0.00e+00	0	41	0	349175808	57	4020
2026-01-22 08:30:22.72	121.46	13.51	-42.7	-43.6	21.2	0.00e+00	0	41	0	360710144	57	3884
2026-01-22 08:30:26.76	121.23	13.90	-43.0	-43.9	21.0	0.00e+00	0	40	0	374341632	57	4039
2026-01-22 08:30:30.79	121.00	14.30	-42.8	-43.6	21.2	0.00e+00	0	40	0	386924544	57	3912
2026-01-22 08:30:34.82	120.76	14.71	-43.0	-43.9	21.1	0.00e+00	0	41	0	399507456	57	4013
2026-01-22 08:30:38.85	120.52	15.12	-42.9	-43.8	21.1	0.00e+00	0	41	0	412090368	57	3983
2026-01-22 08:30:42.89	120.26	15.53	-43.2	-44.2	20.9	0.00e+00	0	41	0	424673280	57	4148
2026-01-22 08:30:46.92	120.00	15.96	-43.1	-44.0	21.1	0.00e+00	0	41	0	437256192	57	4052
2026-01-22 08:30:50.95	119.73	16.39	-43.0	-43.9	21.1	0.00e+00	0	40	0	449839104	57	4047
2026-01-22 08:30:54.98	119.46	16.83	-43.0	-43.8	21.2	0.00e+00	0	41	0	462422016	57	4003
2026-01-22 08:30:59.02	119.17	17.27	-43.3	-44.2	20.9	0.00e+00	0	41	0	475004928	57	4161
2026-01-22 08:31:03.05	118.88	17.72	-43.3	-44.2	20.9	0.00e+00	0	41	0	487587840	57	4155
2026-01-22 08:31:07.08	118.57	18.18	-43.5	-44.5	20.7	0.00e+00	0	41	0	500170752	57	4310
2026-01-22 08:31:11.11	118.26	18.65	-43.5	-44.5	20.7	0.00e+00	0	41	0	512753664	57	4307
2026-01-22 08:31:15.14	117.94	19.13	-43.5	-44.4	20.8	0.00e+00	0	41	0	525336576	57	4271
2026-01-22 08:31:19.18	117.60	19.61	-43.3	-44.2	21.0	0.00e+00	0	40	0	537919488	57	4168
2026-01-22 08:31:23.21	117.25	20.10	-43.0	-43.9	21.3	0.00e+00	0	41	0	550502400	57	4026
2026-01-22 08:31:27.24	116.90	20.61	-42.6	-43.5	21.7	0.00e+00	0	41	0	563085312	57	3835
2026-01-22 08:31:31.28	116.53	21.12	-42.4	-43.3	21.9	0.00e+00	0	41	0	575668224	56	3965
2026-01-22 08:31:35.31	116.14	21.64	-42.1	-43.0	22.1	0.00e+00	0	41	0	588251136	56	3831
2026-01-22 08:31:39.34	115.75	22.16	-41.8	-42.5	22.4	0.00e+00	0	41	0	600834048	55	3864
2026-01-22 08:31:43.37	115.34	22.70	-41.6	-42.4	22.5	0.00e+00	0	41	0	613416960	55	3806
2026-01-22 08:31:47.40	114.91	23.25	-41.5	-42.3	22.6	0.00e+00	0	41	0	625999872	54	3976
2026-01-22 08:31:51.43	114.47	23.81	-41.8	-42.6	22.3	0.00e+00	0	41	0	638582784	54	4144
2026-01-22 08:31:55.47	114.01	24.38	-42.0	-42.9	22.2	0.00e+00	0	41	0	651165696	54	4243
2026-01-22 08:31:59.50	113.54	24.96	-42.0	-42.8	22.2	0.00e+00	0	41	0	663748608	54	4216
2026-01-22 08:32:03.53	113.04	25.54	-42.2	-43.0	22.1	0.00e+00	0	41	0	676331520	54	4294
2026-01-22 08:32:07.56	112.53	26.14	-42.5	-43.4	21.7	0.00e+00	0	41	0	688914432	55	4261
2026-01-22 08:32:11.59	112.00	26.75	-42.9	-43.8	21.5	0.00e+00	0	41	0	701497344	56	4222
2026-01-22 08:32:15.62	111.44	27.38	-43.1	-44.0	21.4	0.00e+00	0	41	0	714080256	56	4296
2026-01-22 08:32:19.65	110.87	28.01	-42.8	-43.7	21.5	0.00e+00	0	41	0	726663168	56	4149
2026-01-22 08:32:23.69	110.26	28.65	-43.0	-43.9	21.3	0.00e+00	0	41	0	739246080	56	4247
2026-01-22 08:32:27.72	109.64	29.31	-43.0	-43.9	21.4	0.00e+00	0	40	0	751828992	56	4248
2026-01-22 08:32:31.75	108.98	29.98	-42.6	-43.5	21.8	0.00e+00	0	41	0	764411904	56	4055
2026-01-22 08:32:35.79	108.30	30.66	-42.6	-43.4	21.6	0.00e+00	0	41	0	776994816	56	4016
2026-01-22 08:32:39.82	107.59	31.35	-43.1	-43.9	21.1	0.00e+00	0	41	0	789577728	56	4290
2026-01-22 08:32:43.86	106.84	32.05	-42.8	-43.6	21.7	0.00e+00	0	41	0	802160640	56	4138
2026-01-22 08:32:47.88	106.07	32.76	-42.7	-43.5	21.7	0.00e+00	0	41	0	814743552	56	4077
2026-01-22 08:32:51.92	105.26	33.48	-43.1	-43.9	21.3	0.00e+00	0	41	0	827326464	56	4285
2026-01-22 08:32:55.95	104.41	34.21	-43.6	-44.5	20.9	0.00e+00	0	41	0	839909376	57	4321
2026-01-22 08:32:59.99	103.51	34.96	-43.8	-44.7	20.8	0.00e+00	0	41	0	852492288	58	4186
2026-01-22 08:33:04.02	102.58	35.71	-44.4	-45.4	20.2	0.00e+00	0	41	0	865075200	59	4274
2026-01-22 08:33:08.05	101.61	36.47	-44.1	-45.1	20.1	0.00e+00	0	41	0	877658112	60	3903
2026-01-22 08:33:12.04	100.59	37.23	-44.5	-45.5	19.9	0.00e+00	0	41	0	890241024	60	4058
2026-01-22 08:33:16.08	99.52	38.01	-44.4	-45.4	19.9	0.00e+00	0	41	0	902823936	60	4045
2026-01-22 08:33:20.11	98.39	38.79	-44.1	-45.0	20.3	0.00e+00	0	41	0	915406848	60	3859
2026-01-22 08:33:24.14	97.21	39.58	-44.2	-45.1	20.5	0.00e+00	0	41	0	927989760	59	4116
2026-01-22 08:33:28.18	95.96	40.37	-44.5	-45.5	20.0	0.00e+00	0	41	0	940572672	59	4306
2026-01-22 08:33:32.21	94.66	41.16	-44.7	-45.7	19.9	0.00e+00	0	41	0	953155584	59	4423
2026-01-22 08:33:36.24	93.29	41.95	-45.4	-46.6	18.7	0.00e+00	0	41	0	965738496	61	4363
2026-01-22 08:33:40.28	91.84	42.73	-45.1	-46.2	19.2	0.00e+00	0	41	0	978321408	61	4175
2026-01-22 08:33:44.31	90.33	43.51	-45.5	-46.6	18.8	0.00e+00	0	41	0	990904320	61	4381
2026-01-22 08:33:48.35	88.74	44.29	-45.1	-46.2	19.3	0.00e+00	0	41	0	1003487232	61	4154
2026-01-22 08:33:52.38	87.08	45.05	-45.2	-46.3	19.1	0.00e+00	0	41	0	1016070144	61	4237
2026-01-22 08:33:56.42	85.32	45.80	-44.8	-45.8	19.5	0.00e+00	0	41	0	1028653056	61	3997
2026-01-22 08:34:00.46	83.49	46.54	-45.0	-46.0	19.3	0.00e+00	0	41	0	1042284544	61	4092
2026-01-22 08:34:04.49	81.57	47.24	-44.3	-45.2	20.2	0.00e+00	0	41	0	1053818880	60	3946
2026-01-22 08:34:08.52	79.56	47.93	-44.3	-45.3	20.1	0.00e+00	0	41	0	1066401792	60	3975
2026-01-22 08:34:12.55	77.46	48.58	-44.4	-45.4	19.9	0.00e+00	0	41	0	1080033280	60	4040
2026-01-22 08:34:16.58	75.28	49.20	-44.4	-45.3	20.1	0.00e+00	0	41	0	1092616192	60	3996
2026-01-22 08:34:20.62	73.00	49.78	-44.2	-45.1	20.3	0.00e+00	0	41	0	1104150528	60	3888
2026-01-22 08:34:24.64	70.65	50.32	-44.4	-45.4	20.3	0.00e+00	0	41	0	1117782016	59	4255
2026-01-22 08:34:28.68	68.20	50.81	-44.2	-45.1	20.0	0.00e+00	0	41	0	1130364928	60	3907
2026-01-22 08:34:32.71	65.69	51.25	-44.3	-45.3	20.1	0.00e+00	0	41	0	1142947840	60	3977
2026-01-22 08:34:36.75	63.09	51.63	-44.4	-45.5	20.0	0.00e+00	0	41	0	1155530752	60	4053
2026-01-22 08:34:40.78	60.45	51.95	-44.2	-45.2	20.1	0.00e+00	0	41	0	1168113664	60	3924
2026-01-22 08:34:44.81	57.75	52.21	-44.0	-45.0	19.9	0.00e+00	0	41	0	1180696576	60	3836
2026-01-22 08:34:48.84	55.00	52.41	-44.4	-45.4	19.9	0.00e+00	0	41	0	1193279488	60	4035
2026-01-22 08:34:52.88	52.23	52.53	-43.8	-44.7	20.9	0.00e+00	0	41	0	1205862400	59	3927
2026-01-22 08:34:56.91	49.44	52.58	-43.6	-44.4	21.1	0.00e+00	0	41	0	1218445312	59	3821
2026-01-22 08:35:00.94	46.65	52.57	-43.4	-44.2	21.2	0.00e+00	0	41	0	1231028224	57	4189
2026-01-22 08:35:04.97	43.86	52.48	-43.4	-44.3	21.1	0.00e+00	0	41	0	1243611136	58	3977
2026-01-22 08:35:09.00	41.11	52.33	-43.7	-44.6	20.9	0.00e+00	0	41	0	1256194048	58	4112
2026-01-22 08:35:13.04	38.38	52.10	-44.2	-45.2	20.4	0.00e+00	0	41	0	1268776960	59	4153
2026-01-22 08:35:17.07	35.70	51.82	-44.5	-45.5	20.3	0.00e+00	0	41	0	1281359872	59	4295
2026-01-22 08:35:21.10	33.08	51.47	-43.9	-44.8	20.8	0.00e+00	0	41	0	1293942784	59	4004
2026-01-22 08:35:25.13	30.53	51.06	-44.3	-45.3	19.8	0.00e+00	0	41	0	1306525696	59	4202
2026-01-22 08:35:29.16	28.05	50.60	-44.7	-45.7	20.1	0.00e+00	0	41	0	1319108608	59	4413
2026-01-22 08:35:33.19	25.65	50.09	-44.5	-45.5	19.7	0.00e+00	0	41	0	1331691520	60	4076
2026-01-22 08:35:37.22	23.33	49.53	-45.4	-46.6	18.9	0.00e+00	0	41	0	1344274432	61	4361
2026-01-22 08:35:41.26	21.09	48.93	-44.2	-45.1	20.5	0.00e+00	0	41	0	1356857344	59	4142
2026-01-22 08:35:45.28	18.96	48.30	-44.7	-45.7	19.3	0.00e+00	0	41	0	1369440256	61	3943
2026-01-22 08:35:49.32	16.90	47.63	-45.5	-46.7	18.7	0.00e+00	0	41	0	1382023168	61	4405
2026-01-22 08:35:53.35	14.93	46.94	-43.9	-44.8	20.5	0.00e+00	0	41	0	1394606080	59	3988
2026-01-22 08:35:57.38	13.06	46.22	-45.2	-46.2	19.2	0.00e+00	0	41	0	1407188992	60	4436
2026-01-22 08:36:01.41	11.26	45.48	-45.0	-46.1	19.3	0.00e+00	0	41	0	1419771904	61	4111
2026-01-22 08:36:05.44	9.55	44.73	-46.6	-47.9	17.8	0.00e+00	0	41	0	1432354816	63	4528
2026-01-22 08:36:09.47	7.93	43.96	-45.2	-46.2	19.3	0.00e+00	0	41	0	1444937728	62	3945
2026-01-22 08:36:13.50	6.38	43.19	-45.8	-47.1	18.5	0.00e+00	0	41	0	1457520640	62	4348
2026-01-22 08:36:17.53	4.90	42.40	-45.6	-46.8	18.3	0.00e+00	0	41	0	1470103552	63	3996
2026-01-22 08:36:21.57	3.49	41.62	-44.6	-45.6	20.1	0.00e+00	0	41	0	1482686464	59	4380
2026-01-22 08:36:25.60	2.15	40.83	-45.8	-47.1	18.4	0.00e+00	0	41	0	1495269376	63	4104
2026-01-22 08:36:29.63	0.88	40.04	-44.0	-44.9	20.7	0.00e+00	0	41	0	1507852288	59	4051
2026-01-22 08:36:33.67	359.66	39.25	-44.2	-45.2	20.5	0.00e+00	0	41	0	1520435200	59	4154
2026-01-22 08:36:37.70	358.51	38.47	-44.8	-45.8	19.2	0.00e+00	0	41	0	1533018112	60	4240
2026-01-22 08:36:41.74	357.40	37.69	-44.4	-45.4	19.7	0.00e+00	0	41	0	1545601024	60	4019
2026-01-22 08:36:45.77	356.35	36.92	-44.0	-45.0	20.3	0.00e+00	0	41	0	1558183936	60	3832
2026-01-22 08:36:49.80	355.35	36.16	-43.7	-44.6	20.9	0.00e+00	0	41	0	1570766848	59	3879
2026-01-22 08:36:53.83	354.40	35.41	-43.5	-44.4	20.9	0.00e+00	0	41	0	1583349760	58	4037
2026-01-22 08:36:57.85	353.49	34.66	-44.4	-45.4	19.9	0.00e+00	0	41	0	1595932672	60	4037
2026-01-22 08:37:01.89	352.62	33.93	-43.0	-43.8	21.5	0.00e+00	0	41	0	1608515584	57	3983
2026-01-22 08:37:05.92	351.79	33.20	-43.5	-44.4	21.1	0.00e+00	0	41	0	1621098496	57	4255
2026-01-22 08:37:09.95	351.00	32.48	-43.6	-44.5	20.9	0.00e+00	0	41	0	1633681408	58	4083
2026-01-22 08:37:13.98	350.24	31.78	-43.0	-43.9	21.3	0.00e+00	0	41	0	1646264320	57	4033
2026-01-22 08:37:18.02	349.51	31.08	-43.1	-43.9	21.4	0.00e+00	0	41	0	1658847232	57	4046
2026-01-22 08:37:22.05	348.81	30.40	-43.3	-44.2	21.2	0.00e+00	0	41	0	1671430144	57	4170
2026-01-22 08:37:26.08	348.14	29.73	-43.1	-43.9	21.4	0.00e+00	0	41	0	1684013056	57	4043
2026-01-22 08:37:30.12	347.50	29.07	-42.7	-43.5	21.5	0.00e+00	0	41	0	1696595968	57	3861
2026-01-22 08:37:34.15	346.89	28.42	-42.3	-43.1	22.0	0.00e+00	0	41	0	1709178880	56	3870
2026-01-22 08:37:38.19	346.30	27.78	-42.4	-43.2	22.0	0.00e+00	0	41	0	1721761792	56	3943
2026-01-22 08:37:42.22	345.74	27.16	-42.2	-43.0	22.1	0.00e+00	0	41	0	1734344704	56	3865
2026-01-22 08:37:46.25	345.19	26.54	-42.0	-42.8	22.2	0.00e+00	0	41	0	1746927616	56	3759
2026-01-22 08:37:50.29	344.67	25.93	-42.2	-43.0	22.1	0.00e+00	0	41	0	1759510528	56	3848
2026-01-22 08:37:54.32	344.17	25.34	-42.1	-42.9	22.2	0.00e+00	0	41	0	1772093440	56	3803
2026-01-22 08:37:58.35	343.68	24.76	-42.1	-42.9	22.2	0.00e+00	0	41	0	1785724928	56	3811
2026-01-22 08:38:02.38	343.22	24.19	-41.9	-42.7	22.3	0.00e+00	0	41	0	1797259264	55	3937
2026-01-22 08:38:06.42	342.77	23.62	-41.9	-42.7	22.3	0.00e+00	0	41	0	1809842176	55	3932
2026-01-22 08:38:10.46	342.34	23.07	-42.5	-43.3	21.8	0.00e+00	0	41	0	1823473664	55	4224
2026-01-22 08:38:14.49	341.92	22.53	-42.7	-43.6	21.4	0.00e+00	0	41	0	1836056576	55	4346
2026-01-22 08:38:18.52	341.52	22.00	-42.6	-43.5	21.4	0.00e+00	0	41	0	1847590912	56	4060
2026-01-22 08:38:22.56	341.13	21.47	-42.1	-42.9	21.8	0.00e+00	0	41	0	1861222400	56	3805
2026-01-22 08:38:26.59	340.75	20.96	-41.7	-42.5	22.2	0.00e+00	0	41	0	1873805312	55	3840
2026-01-22 08:38:30.62	340.39	20.45	-41.3	-42.0	22.6	0.00e+00	0	41	0	1886388224	54	3849
2026-01-22 08:38:34.65	340.04	19.96	-41.3	-42.1	22.6	0.00e+00	0	41	0	1898971136	54	3873
2026-01-22 08:38:38.69	339.70	19.47	-41.5	-42.2	22.5	0.00e+00	0	41	0	1911554048	54	3941
2026-01-22 08:38:42.72	339.37	18.99	-41.7	-42.5	22.2	0.00e+00	0	41	0	1924136960	54	4081
2026-01-22 08:38:46.75	339.05	18.52	-42.1	-42.9	21.8	0.00e+00	0	41	0	1936719872	54	4267
2026-01-22 08:38:50.79	338.75	18.05	-42.3	-43.2	21.6	0.00e+00	0	41	0	1949302784	55	4149
2026-01-22 08:38:54.82	338.45	17.60	-42.6	-43.5	21.3	0.00e+00	0	41	0	1961885696	55	4316
2026-01-22 08:38:58.85	338.16	17.15	-42.8	-43.7	21.2	0.00e+00	0	41	0	1974468608	56	4150
2026-01-22 08:39:02.88	337.88	16.71	-42.8	-43.7	21.1	0.00e+00	0	41	0	1987051520	56	4172
2026-01-22 08:39:06.91	337.61	16.28	-42.9	-43.8	21.0	0.00e+00	0	41	0	1999634432	56	4224
2026-01-22 08:39:10.94	337.35	15.85	-43.0	-43.9	21.0	0.00e+00	0	41	0	2012217344	56	4268
2026-01-22 08:39:14.97	337.09	15.43	-42.9	-43.8	21.1	0.00e+00	0	41	0	2024800256	56	4232
2026-01-22 08:39:19.00	336.84	15.02	-43.0	-43.9	21.1	0.00e+00	0	41	0	2037383168	56	4252
2026-01-22 08:39:23.03	336.60	14.61	-43.0	-43.9	21.1	0.00e+00	0	41	0	2049966080	56	4252
2026-01-22 08:39:27.06	336.37	14.21	-43.0	-43.9	21.0	0.00e+00	0	41	0	2062548992	56	4273
2026-01-22 08:39:31.10	336.14	13.81	-42.9	-43.8	21.1	0.00e+00	0	41	0	2075131904	56	4218
2026-01-22 08:39:35.13	335.92	13.42	-43.0	-43.9	21.0	0.00e+00	0	41	0	2087714816	56	4257
2026-01-22 08:39:39.16	335.71	13.04	-43.1	-44.0	20.9	0.00e+00	0	41	0	2100297728	56	4313
2026-01-22 08:39:43.19	335.50	12.66	-43.0	-43.9	20.9	0.00e+00	0	41	0	2112880640	56	4276
2026-01-22 08:39:47.22	335.29	12.29	-43.0	-43.9	20.9	0.00e+00	0	41	0	2125463552	56	4291
2026-01-22 08:39:51.26	335.10	11.92	-43.1	-44.0	20.8	0.00e+00	0	41	0	2138046464	57	4098
2026-01-22 08:39:55.28	334.90	11.56	-43.5	-44.4	20.5	0.00e+00	0	41	0	2150629376	57	4277
2026-01-22 08:39:59.31	334.72	11.20	-43.5	-44.4	20.5	7.00e-07	0	41	0	2163212288	57	4277
2026-01-22 08:40:03.34	334.53	10.85	-43.6	-44.5	20.3	0.00e+00	0	41	0	2175795200	57	4330
2026-01-22 08:40:07.38	334.36	10.50	-43.8	-44.8	20.1	0.00e+00	0	41	0	2188378112	58	4204
2026-01-22 08:40:11.41	334.18	10.16	-43.7	-44.7	20.1	0.00e+00	0	41	0	2200961024	58	4179
2026-01-22 08:40:15.44	334.01	9.82	-43.7	-44.7	20.1	0.00e+00	0	41	0	2213543936	58	4190
2026-01-22 08:40:19.47	333.85	9.49	-43.7	-44.6	20.1	0.00e+00	0	41	0	2226126848	58	4145
2026-01-22 08:40:23.50	333.69	9.16	-44.1	-45.2	19.6	0.00e+00	0	41	0	2238709760	58	4403
2026-01-22 08:40:27.54	333.53	8.83	-43.8	-44.9	19.8	0.00e+00	0	41	0	2251292672	59	4013
2026-01-22 08:40:31.57	333.38	8.51	-44.2	-45.3	19.4	0.00e+00	0	41	0	2263875584	59	4221
2026-01-22 08:40:35.60	333.23	8.19	-44.4	-45.5	19.2	0.00e+00	0	41	0	2276458496	59	4336
2026-01-22 08:40:39.63	333.08	7.87	-44.5	-45.6	19.1	0.00e+00	0	41	0	2289041408	59	4358
2026-01-22 08:40:43.66	332.94	7.56	-44.3	-45.4	18.8	0.00e+00	0	41	0	2301624320	60	4040
2026-01-22 08:40:47.69	332.80	7.26	-44.3	-45.4	18.8	0.00e+00	0	41	0	2314207232	60	4033
2026-01-22 08:40:51.73	332.66	6.95	-44.8	-46.0	18.2	0.00e+00	0	41	0	2326790144	60	4322
2026-01-22 08:40:55.76	332.53	6.65	-44.6	-45.8	18.4	0.00e+00	0	41	0	2339373056	60	4230
2026-01-22 08:40:59.79	332.40	6.35	-45.1	-46.4	17.8	0.00e+00	0	41	0	2351955968	60	4513
2026-01-22 08:41:03.82	332.27	6.06	-45.4	-46.8	17.4	0.00e+00	0	41	0	2364538880	61	4464
2026-01-22 08:41:07.86	332.15	5.77	-45.1	-46.5	17.6	0.00e+00	0	41	0	2377121792	61	4292
2026-01-22 08:41:11.89	332.03	5.48	-45.1	-46.5	17.6	0.00e+00	0	41	0	2389704704	61	4303
2026-01-22 08:41:15.92	331.91	5.20	-45.9	-47.4	16.7	0.00e+00	0	41	0	2402287616	62	4524
2026-01-22 08:41:19.95	331.80	4.91	-52.9	-65.7	3.8	1.49e+00	0	41	104	2410676224	76	16642
2026-01-22 08:41:23.98	331.68	4.63	-53.5	-66.3	3.8	1.49e+00	0	41	104	2410676224	77	16837
2026-01-22 08:41:28.01	331.57	4.36	-53.5	-66.3	3.8	1.49e+00	0	41	104	2410676224	77	16827
2026-01-22 08:41:32.04	331.46	4.08	-53.4	-66.1	3.8	1.49e+00	0	41	104	2410676224	77	16488
2026-01-22 08:41:36.08	331.36	3.81	-53.5	-66.3	3.8	1.49e+00	0	41	104	2410676224	77	16786
2026-01-22 08:41:40.11	331.25	3.54	-53.6	-66.4	3.8	1.49e+00	0	41	104	2410676224	77	16903
2026-01-22 08:41:44.14	331.15	3.28	-53.5	-66.3	3.8	1.49e+00	0	41	104	2410676224	77	16778
2026-01-22 08:41:48.18	331.05	3.01	-53.5	-66.3	3.8	1.49e+00	0	41	104	2410676224	77	16772
2026-01-22 08:41:52.21	330.95	2.75	-53.5	-66.3	3.8	1.49e+00	0	41	104	2410676224	77	16744
2026-01-22 08:41:56.24	330.86	2.49	-53.5	-66.3	3.8	1.49e+00	0	41	104	2410676224	77	16710
2026-01-22 08:42:00.27	330.76	2.24	-53.5	-66.3	3.8	1.49e+00	0	41	104	2410676224	77	16730
2026-01-22 08:42:04.30	330.67	1.98	-53.4	-66.2	3.8	1.49e+00	0	41	104	2410676224	77	16640

#Closed at: 2026-01-22 08:42:05
#Recorded file [2410 MB]: D:/lorett/data/31041_260122_112753.dat