passes_logs/2026/01/22/R3.2S_Murmansk/R3.2S_Murmansk__20260122_004016_SUOMI_NPP_rec.log

#Pass ID: 20260122_004016_SUOMI NPP
#Satellite: SUOMI NPP
#Configuration: NPP
#almurnet v.1.7.20251203
#Start time: 2026-01-22 00:40:17

#Version: 2.2.20231116
#Station: R3.2S_Murmansk
#Location: 33.079688 lon 68.888172 lat
#TLE: 1 37849U 11061A   26021.51818991  .00000201  00000+0  11636-3 0  9995
#TLE: 2 37849  98.7819 323.5108 0002300  52.3548 307.7836 14.19527793737637

#Time	Az	El	Level	Level2	SNR	BER	BlckErr	Temp	State	Recorded	gain1	gain2
2026-01-22 00:40:17.11	24.21	2.07	-54.2	-69.2	3.8	1.49e+00	0	39	0	0	79	20911
2026-01-22 00:40:21.13	24.24	2.33	-54.3	-69.3	3.8	1.49e+00	0	39	104	0	79	21259
2026-01-22 00:40:25.17	24.26	2.59	-54.2	-69.3	3.8	1.49e+00	0	39	104	0	79	21024
2026-01-22 00:40:29.21	24.29	2.85	-54.0	-69.0	3.8	1.49e+00	0	39	104	0	79	20479
2026-01-22 00:40:33.25	24.32	3.12	-53.6	-68.6	3.8	1.49e+00	0	39	104	0	79	19579
2026-01-22 00:40:37.28	24.34	3.39	-52.4	-67.1	3.8	1.49e+00	0	39	104	0	76	19530
2026-01-22 00:40:41.32	24.37	3.66	-50.5	-55.4	10.6	5.54e-03	0	39	0	6291456	72	6387
2026-01-22 00:40:45.35	24.39	3.93	-49.2	-52.4	13.8	1.37e-05	0	39	0	13631488	70	5074
2026-01-22 00:40:49.39	24.42	4.21	-49.0	-52.2	14.0	2.20e-06	0	39	0	20971520	69	5253
2026-01-22 00:40:53.42	24.45	4.49	-49.7	-53.5	12.7	9.46e-05	0	40	0	28311552	70	5762
2026-01-22 00:40:57.45	24.47	4.77	-51.4	-58.8	7.2	4.47e-02	0	39	0	35651584	73	8904
2026-01-22 00:41:01.49	24.50	5.06	-52.1	-64.5	3.9	1.49e+00	0	40	104	40894464	74	16268
2026-01-22 00:41:05.52	24.53	5.35	-52.3	-65.7	3.9	1.60e-03	48	40	0	41943040	75	17629
2026-01-22 00:41:09.55	24.56	5.64	-49.0	-51.9	14.5	3.00e-06	0	40	0	46137344	70	4797
2026-01-22 00:41:13.58	24.58	5.94	-48.7	-51.5	15.0	0.00e+00	0	40	0	53477376	69	4848
2026-01-22 00:41:17.61	24.61	6.23	-48.5	-51.1	15.4	0.00e+00	0	40	0	60817408	69	4638
2026-01-22 00:41:21.64	24.64	6.54	-48.3	-50.7	15.9	0.00e+00	0	40	0	68157440	68	4674
2026-01-22 00:41:25.68	24.67	6.84	-48.2	-50.6	16.0	0.00e+00	0	40	0	75497472	68	4634
2026-01-22 00:41:29.71	24.70	7.15	-48.3	-50.7	15.9	0.00e+00	0	40	0	83886080	68	4701
2026-01-22 00:41:33.74	24.72	7.47	-48.1	-50.3	16.3	0.00e+00	0	40	0	91226112	68	4479
2026-01-22 00:41:37.77	24.75	7.78	-48.0	-50.2	16.4	0.00e+00	0	40	0	98566144	67	4700
2026-01-22 00:41:41.80	24.78	8.10	-48.0	-50.2	16.4	0.00e+00	0	40	0	105906176	67	4700
2026-01-22 00:41:45.84	24.81	8.43	-47.9	-50.1	16.6	0.00e+00	0	40	0	114294784	67	4625
2026-01-22 00:41:49.87	24.84	8.76	-47.7	-49.8	16.9	0.00e+00	0	40	0	121634816	67	4444
2026-01-22 00:41:53.90	24.87	9.09	-47.6	-49.7	17.0	0.00e+00	0	40	0	128974848	67	4410
2026-01-22 00:41:57.94	24.90	9.43	-47.4	-49.4	17.3	0.00e+00	0	40	0	136314880	66	4525
2026-01-22 00:42:01.98	24.93	9.78	-47.2	-49.0	17.7	0.00e+00	0	40	0	143654912	66	4338
2026-01-22 00:42:06.01	24.96	10.12	-46.9	-48.7	18.0	0.00e+00	0	40	0	152043520	65	4406
2026-01-22 00:42:10.04	24.99	10.48	-46.9	-48.6	18.1	0.00e+00	0	40	0	159383552	65	4389
2026-01-22 00:42:14.07	25.02	10.83	-46.7	-48.4	18.4	0.00e+00	0	40	0	166723584	65	4263
2026-01-22 00:42:18.10	25.06	11.20	-46.4	-48.1	18.7	0.00e+00	0	40	0	174063616	64	4345
2026-01-22 00:42:22.13	25.09	11.57	-46.4	-48.0	18.7	0.00e+00	0	40	0	182452224	64	4337
2026-01-22 00:42:26.17	25.12	11.94	-46.0	-47.5	19.3	0.00e+00	0	40	0	189792256	64	4058
2026-01-22 00:42:30.20	25.15	12.32	-46.1	-47.6	19.3	0.00e+00	0	40	0	197132288	63	4368
2026-01-22 00:42:34.23	25.19	12.71	-45.7	-47.1	19.7	0.00e+00	0	40	0	204472320	63	4133
2026-01-22 00:42:38.26	25.22	13.10	-45.6	-47.0	19.9	0.00e+00	0	40	0	211812352	63	4074
2026-01-22 00:42:42.29	25.25	13.50	-45.3	-46.6	20.2	0.00e+00	0	40	0	219152384	62	4128
2026-01-22 00:42:46.32	25.29	13.91	-45.2	-46.5	20.4	0.00e+00	0	40	0	227540992	62	4062
2026-01-22 00:42:50.36	25.32	14.32	-45.2	-46.5	20.4	0.00e+00	0	40	0	234881024	62	4054
2026-01-22 00:42:54.39	25.36	14.74	-45.0	-46.2	20.6	0.00e+00	0	40	0	242221056	61	4170
2026-01-22 00:42:58.43	25.40	15.17	-44.8	-46.0	20.8	0.00e+00	0	40	0	249561088	61	4095
2026-01-22 00:43:02.46	25.43	15.60	-44.9	-46.1	20.8	0.00e+00	0	40	0	257949696	61	4120
2026-01-22 00:43:06.49	25.47	16.04	-45.0	-46.2	20.7	0.00e+00	0	40	0	265289728	61	4185
2026-01-22 00:43:10.53	25.51	16.50	-44.6	-45.8	21.1	0.00e+00	0	40	0	272629760	61	3987
2026-01-22 00:43:14.56	25.55	16.96	-44.6	-45.7	21.1	0.00e+00	0	40	0	279969792	61	3951
2026-01-22 00:43:18.59	25.59	17.42	-44.5	-45.6	21.2	0.00e+00	0	40	0	287309824	60	4140
2026-01-22 00:43:22.62	25.63	17.90	-44.5	-45.6	21.3	0.00e+00	0	40	0	295698432	60	4144
2026-01-22 00:43:26.65	25.67	18.39	-44.7	-45.9	21.0	0.00e+00	0	40	0	303038464	60	4277
2026-01-22 00:43:30.69	25.71	18.89	-44.8	-46.0	20.9	0.00e+00	0	40	0	310378496	60	4336
2026-01-22 00:43:34.72	25.75	19.39	-45.0	-46.2	20.8	0.00e+00	0	40	0	317718528	60	4416
2026-01-22 00:43:38.75	25.79	19.91	-45.2	-46.4	20.6	0.00e+00	0	40	0	325058560	60	4539
2026-01-22 00:43:42.78	25.84	20.44	-45.1	-46.3	20.7	0.00e+00	0	40	0	333447168	61	4208
2026-01-22 00:43:46.81	25.88	20.98	-45.4	-46.6	20.5	0.00e+00	0	40	0	340787200	61	4379
2026-01-22 00:43:50.84	25.93	21.53	-45.9	-47.2	20.0	0.00e+00	0	40	0	348127232	62	4428
2026-01-22 00:43:54.88	25.97	22.10	-45.8	-47.2	20.0	0.00e+00	0	40	0	355467264	62	4428
2026-01-22 00:43:58.91	26.02	22.67	-45.9	-47.2	20.0	0.00e+00	0	40	0	363855872	62	4436
2026-01-22 00:44:02.94	26.07	23.26	-46.1	-47.5	19.7	0.00e+00	0	40	0	371195904	63	4332
2026-01-22 00:44:06.97	26.12	23.87	-46.4	-47.9	19.4	0.00e+00	0	40	0	378535936	63	4537
2026-01-22 00:44:11.00	26.17	24.48	-46.3	-47.7	19.5	0.00e+00	0	40	0	385875968	63	4441
2026-01-22 00:44:15.03	26.23	25.12	-46.3	-47.7	19.5	0.00e+00	0	40	0	393216000	63	4435
2026-01-22 00:44:19.07	26.28	25.77	-46.5	-48.0	19.3	0.00e+00	0	40	0	401604608	64	4298
2026-01-22 00:44:23.10	26.34	26.43	-46.5	-48.0	19.2	0.00e+00	0	40	0	408944640	64	4330
2026-01-22 00:44:27.13	26.39	27.11	-46.1	-47.4	19.8	0.00e+00	0	40	0	416284672	63	4277
2026-01-22 00:44:31.16	26.45	27.81	-46.6	-48.1	19.3	0.00e+00	0	40	0	423624704	63	4642
2026-01-22 00:44:35.19	26.52	28.53	-46.6	-48.1	19.2	0.00e+00	0	40	0	430964736	64	4364
2026-01-22 00:44:39.22	26.58	29.27	-46.2	-47.6	19.7	0.00e+00	0	40	0	439353344	64	4109
2026-01-22 00:44:43.26	26.64	30.03	-46.4	-47.9	19.4	0.00e+00	0	40	0	446693376	64	4274
2026-01-22 00:44:47.29	26.71	30.80	-46.9	-48.5	19.0	0.00e+00	0	40	0	454033408	65	4314
2026-01-22 00:44:51.32	26.78	31.60	-47.1	-48.7	18.7	0.00e+00	0	40	0	461373440	65	4409
2026-01-22 00:44:55.35	26.86	32.42	-47.6	-49.3	18.2	0.00e+00	0	40	0	468713472	65	4738
2026-01-22 00:44:59.39	26.93	33.27	-47.2	-48.9	18.6	0.00e+00	0	40	0	477102080	66	4246
2026-01-22 00:45:03.42	27.01	34.14	-46.8	-48.3	19.1	0.00e+00	0	40	0	484442112	65	4234
2026-01-22 00:45:07.45	27.10	35.03	-46.1	-47.4	20.1	0.00e+00	0	40	0	491782144	63	4259
2026-01-22 00:45:11.48	27.18	35.95	-44.7	-45.8	21.5	0.00e+00	0	40	0	499122176	61	3976
2026-01-22 00:45:15.51	27.28	36.90	-44.5	-45.5	21.7	0.00e+00	0	40	0	507510784	60	4092
2026-01-22 00:45:19.54	27.37	37.87	-44.3	-45.4	21.7	0.00e+00	0	40	0	514850816	60	4036
2026-01-22 00:45:23.57	27.47	38.87	-44.5	-45.7	21.7	0.00e+00	0	40	0	522190848	60	4151
2026-01-22 00:45:27.60	27.58	39.91	-44.9	-46.1	21.5	0.00e+00	0	40	0	529530880	60	4352
2026-01-22 00:45:31.63	27.69	40.97	-45.1	-46.2	21.2	0.00e+00	0	40	0	536870912	61	4173
2026-01-22 00:45:35.66	27.81	42.07	-45.4	-46.5	21.0	0.00e+00	0	40	0	545259520	61	4330
2026-01-22 00:45:39.69	27.94	43.20	-46.0	-47.4	20.2	0.00e+00	0	40	0	552599552	62	4504
2026-01-22 00:45:43.73	28.07	44.37	-45.9	-47.2	20.4	0.00e+00	0	40	0	559939584	63	4147
2026-01-22 00:45:47.76	28.21	45.57	-46.6	-48.1	19.5	0.00e+00	0	40	0	567279616	64	4358
2026-01-22 00:45:51.80	28.37	46.81	-47.5	-49.1	18.7	0.00e+00	0	41	0	574619648	65	4612
2026-01-22 00:45:55.83	28.53	48.09	-49.3	-51.6	16.2	0.00e+00	0	40	0	583008256	69	4914
2026-01-22 00:45:59.86	28.71	49.41	-49.3	-51.6	16.3	0.00e+00	0	40	0	590348288	70	4633
2026-01-22 00:46:03.89	28.90	50.76	-46.0	-47.3	20.3	0.00e+00	0	40	0	597688320	63	4222
2026-01-22 00:46:07.93	29.11	52.16	-44.6	-45.7	21.7	0.00e+00	0	40	0	605028352	60	4178
2026-01-22 00:46:11.96	29.34	53.60	-44.9	-46.0	21.5	0.00e+00	0	41	0	612368384	60	4314
2026-01-22 00:46:15.99	29.60	55.07	-43.6	-44.6	22.9	0.00e+00	0	40	0	620756992	59	3883
2026-01-22 00:46:20.02	29.87	56.59	-43.3	-44.2	23.2	0.00e+00	0	40	0	628097024	58	3939
2026-01-22 00:46:24.05	30.18	58.16	-44.8	-45.9	21.5	0.00e+00	0	40	0	635437056	60	4272
2026-01-22 00:46:28.08	30.53	59.76	-44.4	-45.5	21.9	0.00e+00	0	40	0	642777088	60	4054
2026-01-22 00:46:32.05	30.91	61.38	-43.5	-44.4	23.1	0.00e+00	0	40	0	651165696	59	3823
2026-01-22 00:46:36.09	31.36	63.07	-43.4	-44.4	23.1	0.00e+00	0	41	0	658505728	57	4258
2026-01-22 00:46:40.12	31.86	64.80	-44.4	-45.5	22.2	0.00e+00	0	40	0	665845760	59	4330
2026-01-22 00:46:44.15	32.46	66.56	-45.7	-46.9	20.8	0.00e+00	0	40	0	673185792	61	4543
2026-01-22 00:46:48.18	33.15	68.36	-46.6	-48.0	19.9	0.00e+00	0	40	0	680525824	63	4596
2026-01-22 00:46:52.22	33.99	70.20	-47.1	-48.7	19.1	0.00e+00	0	40	0	687865856	64	4659
2026-01-22 00:46:56.25	35.00	72.06	-45.6	-46.7	20.9	0.00e+00	0	40	0	696254464	63	3948
2026-01-22 00:47:00.28	36.26	73.95	-44.0	-45.0	22.3	0.00e+00	0	40	0	703594496	60	3852
2026-01-22 00:47:04.31	37.87	75.87	-46.6	-48.0	19.6	0.00e+00	0	40	0	710934528	64	4338
2026-01-22 00:47:08.34	40.01	77.79	-46.6	-48.0	19.9	0.00e+00	0	40	0	718274560	63	4554
2026-01-22 00:47:12.37	42.96	79.72	-46.1	-47.3	20.4	0.00e+00	0	40	0	726663168	63	4238
2026-01-22 00:47:16.40	47.29	81.62	-49.5	-52.0	16.1	0.00e+00	0	41	0	734003200	69	5103
2026-01-22 00:47:20.43	54.14	83.47	-45.9	-47.1	20.5	0.00e+00	0	41	0	741343232	63	4136
2026-01-22 00:47:24.46	66.09	85.16	-46.2	-47.5	20.2	0.00e+00	0	40	0	748683264	63	4296
2026-01-22 00:47:28.50	88.63	86.45	-46.7	-48.1	19.6	0.00e+00	0	41	0	756023296	65	4121
2026-01-22 00:47:32.53	123.89	86.79	-45.2	-46.4	21.2	0.00e+00	0	40	0	764411904	62	4023
2026-01-22 00:47:36.56	154.09	85.93	-46.9	-48.4	19.4	0.00e+00	0	40	0	771751936	65	4251
2026-01-22 00:47:40.60	170.85	84.40	-45.3	-46.5	21.2	0.00e+00	0	40	0	779091968	62	4075
2026-01-22 00:47:44.62	179.93	82.62	-46.3	-47.6	20.2	0.00e+00	0	41	0	786432000	63	4367
2026-01-22 00:47:48.65	185.41	80.74	-45.8	-46.9	20.7	0.00e+00	0	40	0	794820608	63	4027
2026-01-22 00:47:52.68	189.00	78.82	-49.1	-51.3	16.8	0.00e+00	0	40	0	802160640	68	5040
2026-01-22 00:47:56.72	191.53	76.89	-47.2	-48.8	19.1	0.00e+00	0	41	0	809500672	66	4198
2026-01-22 00:48:00.75	193.40	74.96	-46.6	-47.9	19.8	0.00e+00	0	40	0	816840704	64	4280
2026-01-22 00:48:04.78	194.83	73.06	-46.6	-48.0	19.6	0.00e+00	0	40	0	824180736	64	4322
2026-01-22 00:48:08.81	195.96	71.18	-48.3	-50.2	17.9	0.00e+00	0	40	0	831520768	67	4665
2026-01-22 00:48:12.85	196.89	69.32	-47.0	-48.4	19.3	0.00e+00	0	41	0	839909376	65	4275
2026-01-22 00:48:16.88	197.65	67.50	-47.3	-48.8	18.8	0.00e+00	0	40	0	847249408	66	4225
2026-01-22 00:48:20.91	198.30	65.71	-47.6	-49.4	18.8	0.00e+00	0	40	0	854589440	66	4524
2026-01-22 00:48:24.95	198.85	63.96	-45.0	-46.1	21.4	0.00e+00	0	41	0	861929472	60	4387
2026-01-22 00:48:28.98	199.32	62.25	-44.5	-45.6	22.2	0.00e+00	0	41	0	870318080	59	4343
2026-01-22 00:48:33.01	199.74	60.58	-46.3	-47.7	20.0	0.00e+00	0	40	0	877658112	63	4413
2026-01-22 00:48:37.05	200.11	58.95	-45.8	-47.0	20.4	0.00e+00	0	41	0	884998144	62	4327
2026-01-22 00:48:41.08	200.43	57.36	-47.1	-48.8	19.1	0.00e+00	0	40	0	892338176	64	4708
2026-01-22 00:48:45.11	200.73	55.82	-46.0	-47.3	20.5	0.00e+00	0	40	0	899678208	62	4455
2026-01-22 00:48:49.15	200.99	54.31	-46.8	-48.3	19.4	0.00e+00	0	40	0	908066816	64	4467
2026-01-22 00:48:53.18	201.23	52.85	-44.7	-45.8	21.6	0.00e+00	0	41	0	915406848	61	3969
2026-01-22 00:48:57.21	201.45	51.43	-47.0	-48.6	19.1	0.00e+00	0	40	0	922746880	66	4100
2026-01-22 00:49:01.25	201.65	50.05	-44.9	-46.0	21.5	0.00e+00	0	41	0	930086912	61	4069
2026-01-22 00:49:05.28	201.84	48.71	-50.9	-54.8	13.2	0.00e+00	0	41	0	937426944	72	5931
2026-01-22 00:49:09.31	202.01	47.41	-44.6	-45.6	21.7	0.00e+00	0	41	0	945815552	61	3911
2026-01-22 00:49:13.34	202.17	46.15	-46.7	-48.2	19.5	0.00e+00	0	41	0	953155584	64	4397
2026-01-22 00:49:17.37	202.31	44.93	-46.4	-47.8	19.6	0.00e+00	0	40	0	960495616	64	4229
2026-01-22 00:49:21.41	202.45	43.74	-43.2	-44.1	23.3	0.00e+00	0	40	0	967835648	58	3876
2026-01-22 00:49:25.44	202.58	42.59	-45.1	-46.3	21.1	0.00e+00	0	41	0	975175680	60	4459
2026-01-22 00:49:29.47	202.70	41.47	-48.0	-49.9	17.7	0.00e+00	0	40	0	983564288	67	4513
2026-01-22 00:49:33.50	202.82	40.38	-44.4	-45.5	21.9	0.00e+00	0	40	0	990904320	60	4065
2026-01-22 00:49:37.54	202.93	39.33	-47.9	-49.6	18.1	0.00e+00	0	40	0	998244352	66	4651
2026-01-22 00:49:41.57	203.03	38.31	-51.6	-56.4	11.0	8.54e-05	0	40	0	1005584384	73	6789
2026-01-22 00:49:45.60	203.13	37.32	-49.7	-52.2	15.5	7.00e-07	0	40	0	1013972992	71	4663
2026-01-22 00:49:49.64	203.22	36.35	-45.4	-46.5	20.8	0.00e+00	0	40	0	1021313024	62	4093
2026-01-22 00:49:53.67	203.31	35.42	-49.6	-52.1	15.6	0.00e+00	0	40	0	1028653056	69	5161
2026-01-22 00:49:57.71	203.39	34.51	-51.8	-56.5	10.9	2.22e-03	0	41	0	1035993088	74	6484
2026-01-22 00:50:01.74	203.47	33.62	-50.2	-53.3	14.2	1.06e-05	0	40	0	1043333120	72	4995
2026-01-22 00:50:05.77	203.55	32.77	-48.2	-50.1	17.6	0.00e+00	0	41	0	1051721728	68	4344
2026-01-22 00:50:09.81	203.62	31.93	-47.1	-48.6	18.8	0.00e+00	0	40	0	1059061760	66	4144
2026-01-22 00:50:13.84	203.69	31.12	-46.9	-48.4	18.9	0.00e+00	0	40	0	1066401792	65	4286
2026-01-22 00:50:17.87	203.76	30.33	-46.8	-48.3	19.0	0.00e+00	0	40	0	1073741824	64	4493
2026-01-22 00:50:21.89	203.83	29.56	-48.3	-50.3	17.2	0.00e+00	0	41	0	1081081856	67	4732
2026-01-22 00:50:25.93	203.89	28.81	-48.8	-51.1	16.4	0.00e+00	0	41	0	1089470464	68	4901
2026-01-22 00:50:29.96	203.95	28.08	-46.2	-47.6	19.7	0.00e+00	0	41	0	1096810496	64	4112
2026-01-22 00:50:33.99	204.01	27.37	-44.8	-45.9	21.3	0.00e+00	0	41	0	1104150528	61	4031
2026-01-22 00:50:38.02	204.07	26.68	-45.5	-46.7	20.5	0.00e+00	0	40	0	1111490560	61	4416
2026-01-22 00:50:42.05	204.12	26.01	-45.6	-46.8	20.4	0.00e+00	0	41	0	1119879168	62	4236
2026-01-22 00:50:46.08	204.18	25.35	-45.6	-46.9	20.3	0.00e+00	0	40	0	1127219200	62	4246
2026-01-22 00:50:50.12	204.23	24.70	-45.3	-46.5	20.6	0.00e+00	0	41	0	1134559232	62	4089
2026-01-22 00:50:54.15	204.28	24.08	-44.7	-45.9	21.1	0.00e+00	0	41	0	1141899264	61	4032
2026-01-22 00:50:58.18	204.33	23.46	-44.8	-45.9	21.1	0.00e+00	0	41	0	1149239296	60	4279
2026-01-22 00:51:02.21	204.38	22.87	-44.7	-45.9	21.2	0.00e+00	0	41	0	1157627904	60	4243
2026-01-22 00:51:06.25	204.43	22.28	-44.2	-45.3	21.7	0.00e+00	0	41	0	1164967936	60	3959
2026-01-22 00:51:10.28	204.47	21.71	-44.2	-45.3	21.9	0.00e+00	0	41	0	1172307968	59	4205
2026-01-22 00:51:14.31	204.52	21.15	-44.4	-45.5	21.5	0.00e+00	0	40	0	1179648000	60	4066
2026-01-22 00:51:18.34	204.56	20.60	-45.1	-46.4	20.7	0.00e+00	0	41	0	1186988032	60	4499
2026-01-22 00:51:22.37	204.60	20.07	-46.0	-47.4	19.7	0.00e+00	0	40	0	1195376640	62	4541
2026-01-22 00:51:26.41	204.64	19.54	-46.3	-47.9	19.3	0.00e+00	0	41	0	1202716672	63	4494
2026-01-22 00:51:30.44	204.68	19.03	-46.4	-48.0	19.1	0.00e+00	0	41	0	1210056704	63	4572
2026-01-22 00:51:34.47	204.72	18.53	-46.4	-48.0	19.0	0.00e+00	0	40	0	1217396736	64	4316
2026-01-22 00:51:38.50	204.76	18.04	-46.2	-47.7	19.3	0.00e+00	0	40	0	1224736768	64	4148
2026-01-22 00:51:42.53	204.80	17.55	-46.2	-47.7	19.3	0.00e+00	0	40	0	1233125376	64	4167
2026-01-22 00:51:46.57	204.84	17.08	-46.0	-47.4	19.6	0.00e+00	0	41	0	1240465408	63	4278
2026-01-22 00:51:50.60	204.88	16.61	-46.1	-47.5	19.5	0.00e+00	0	41	0	1247805440	63	4315
2026-01-22 00:51:54.63	204.91	16.16	-46.1	-47.6	19.4	0.00e+00	0	40	0	1255145472	63	4353
2026-01-22 00:51:58.66	204.95	15.71	-46.6	-48.1	18.8	0.00e+00	0	41	0	1263534080	64	4390
2026-01-22 00:52:02.69	204.98	15.27	-46.7	-48.3	18.6	0.00e+00	0	41	0	1270874112	64	4483
2026-01-22 00:52:06.72	205.02	14.84	-47.0	-48.7	18.2	0.00e+00	0	41	0	1278214144	64	4671
2026-01-22 00:52:10.75	205.05	14.41	-47.0	-48.7	18.2	0.00e+00	0	41	0	1285554176	64	4691
2026-01-22 00:52:14.79	205.08	14.00	-47.0	-48.7	18.2	0.00e+00	0	41	0	1292894208	64	4671
2026-01-22 00:52:18.81	205.12	13.59	-46.5	-48.1	18.7	0.00e+00	0	41	0	1300234240	64	4385
2026-01-22 00:52:22.85	205.15	13.18	-46.4	-48.0	18.8	0.00e+00	0	40	0	1308622848	64	4335
2026-01-22 00:52:26.88	205.18	12.79	-46.2	-47.8	19.0	0.00e+00	0	41	0	1315962880	64	4215
2026-01-22 00:52:30.92	205.21	12.40	-46.1	-47.7	19.2	0.00e+00	0	41	0	1323302912	63	4395
2026-01-22 00:52:34.95	205.24	12.01	-45.8	-47.3	19.5	0.00e+00	0	40	0	1330642944	63	4219
2026-01-22 00:52:38.99	205.27	11.63	-45.8	-47.3	19.5	0.00e+00	0	41	0	1339031552	63	4204
2026-01-22 00:52:43.02	205.30	11.26	-45.8	-47.2	19.5	0.00e+00	0	40	0	1346371584	63	4181
2026-01-22 00:52:47.05	205.33	10.89	-45.8	-47.3	19.5	0.00e+00	0	41	0	1353711616	63	4204
2026-01-22 00:52:51.09	205.36	10.53	-45.8	-47.3	19.4	0.00e+00	0	41	0	1361051648	63	4228
2026-01-22 00:52:55.12	205.39	10.18	-45.9	-47.4	19.2	0.00e+00	0	41	0	1368391680	63	4275
2026-01-22 00:52:59.15	205.42	9.83	-45.9	-47.4	19.2	0.00e+00	0	41	0	1376780288	63	4265
2026-01-22 00:53:03.18	205.45	9.48	-45.8	-47.2	19.4	0.00e+00	0	41	0	1384120320	63	4192
2026-01-22 00:53:07.21	205.47	9.14	-46.0	-47.5	19.1	0.00e+00	0	41	0	1391460352	63	4327
2026-01-22 00:53:11.24	205.50	8.80	-45.8	-47.3	19.3	0.00e+00	0	40	0	1398800384	63	4230
2026-01-22 00:53:15.27	205.53	8.47	-46.1	-47.7	18.9	0.00e+00	0	41	0	1407188992	63	4397
2026-01-22 00:53:19.30	205.56	8.14	-45.8	-47.3	19.1	0.00e+00	0	41	0	1414529024	63	4231
2026-01-22 00:53:23.33	205.58	7.82	-46.0	-47.6	18.9	0.00e+00	0	41	0	1421869056	63	4346
2026-01-22 00:53:27.36	205.61	7.50	-46.1	-47.7	18.8	0.00e+00	0	41	0	1429209088	63	4395
2026-01-22 00:53:31.39	205.63	7.18	-46.2	-47.8	18.6	0.00e+00	0	41	0	1436549120	63	4484
2026-01-22 00:53:35.42	205.66	6.87	-45.9	-47.5	18.9	0.00e+00	0	41	0	1443889152	63	4307
2026-01-22 00:53:39.45	205.69	6.56	-46.2	-47.9	18.5	0.00e+00	0	41	0	1452277760	63	4502
2026-01-22 00:53:43.48	205.71	6.26	-46.2	-47.9	18.4	0.00e+00	0	41	0	1459617792	63	4510
2026-01-22 00:53:47.52	205.74	5.96	-46.6	-48.4	17.8	0.00e+00	0	40	0	1466957824	63	4773
2026-01-22 00:53:51.56	205.76	5.66	-46.5	-48.2	18.0	0.00e+00	0	41	0	1474297856	63	4695
2026-01-22 00:53:55.59	205.78	5.37	-46.5	-48.3	17.9	0.00e+00	0	41	0	1482686464	63	4725
2026-01-22 00:53:59.62	205.81	5.07	-46.6	-48.5	17.5	0.00e+00	0	41	0	1490026496	64	4590
2026-01-22 00:54:03.65	205.83	4.79	-53.5	-68.5	3.8	1.49e+00	0	41	104	1491075072	77	21586
2026-01-22 00:54:07.69	205.86	4.50	-53.9	-68.8	3.8	1.49e+00	0	41	104	1491075072	78	21249
2026-01-22 00:54:11.72	205.88	4.22	-54.0	-69.0	3.8	1.49e+00	0	41	104	1491075072	78	21738
2026-01-22 00:54:15.76	205.90	3.94	-54.1	-69.1	3.8	1.49e+00	0	40	104	1491075072	78	21967
2026-01-22 00:54:19.79	205.93	3.66	-54.2	-69.1	3.8	1.49e+00	0	41	104	1491075072	78	21989
2026-01-22 00:54:23.83	205.95	3.39	-54.0	-69.0	3.8	1.49e+00	0	41	104	1491075072	78	21725
2026-01-22 00:54:27.87	205.97	3.12	-53.5	-68.6	3.8	1.49e+00	0	41	104	1491075072	78	20553
2026-01-22 00:54:31.90	206.00	2.85	-53.5	-68.5	3.8	1.49e+00	0	41	104	1491075072	78	20367
2026-01-22 00:54:35.93	206.02	2.59	-53.5	-68.5	3.8	1.49e+00	0	41	104	1491075072	78	20364
2026-01-22 00:54:39.97	206.04	2.32	-53.5	-68.4	3.8	1.49e+00	0	41	104	1491075072	78	20283
2026-01-22 00:54:44.00	206.06	2.06	-53.4	-68.4	3.8	1.49e+00	0	41	104	1491075072	78	20276

#Closed at: 2026-01-22 00:54:46
#Recorded file [1491 MB]: D:/lorett/data/31041_260122_034016.dat