passes_logs/2026/01/22/R3.2S_Murmansk/R3.2S_Murmansk__20260122_193226_TY-42_rec.log

#Pass ID: 20260122_193226_TY-42
#Satellite: TY-42
#Configuration: TY-42_900M
#almurnet v.1.7.20251203
#Start time: 2026-01-22 19:32:26

#Version: 2.2.20231116
#Station: R3.2S_Murmansk
#Location: 33.079688 lon 68.888172 lat
#TLE: 1 64048U 25103A   26022.68086806  .00008008  00000-0  38191-3 0 09998
#TLE: 2 64048 097.4120 097.9538 0001839 092.0767 308.1526 15.19160957 37986

#Time	Az	El	Level	Level2	SNR	BER	BlckErr	Temp	State	Recorded	gain1	gain2
2026-01-22 19:32:26.61	177.47	1.95	-54.6	-56.7	6.2	0.00e+00	0	48	0	0	80	18768
2026-01-22 19:32:29.63	177.59	2.16	-54.6	-56.7	6.2	0.00e+00	0	48	104	0	80	18741
2026-01-22 19:32:32.66	177.71	2.37	-54.8	-56.9	6.2	0.00e+00	0	48	104	0	80	19219
2026-01-22 19:32:35.68	177.83	2.58	-54.8	-56.9	6.2	0.00e+00	0	49	104	0	80	19092
2026-01-22 19:32:38.70	177.95	2.79	-54.7	-56.8	6.2	0.00e+00	0	49	104	0	80	18971
2026-01-22 19:32:41.73	178.08	3.01	-54.6	-56.7	6.2	0.00e+00	0	49	104	0	80	18774
2026-01-22 19:32:44.75	178.21	3.22	-54.5	-56.6	6.2	0.00e+00	0	49	104	0	80	18506
2026-01-22 19:32:47.78	178.34	3.44	-54.3	-56.4	6.2	0.00e+00	0	49	104	0	80	18066
2026-01-22 19:32:50.80	178.47	3.67	-54.0	-56.1	6.2	0.00e+00	0	49	104	0	79	18593
2026-01-22 19:32:53.83	178.61	3.89	-53.2	-55.4	6.2	0.00e+00	0	50	104	0	78	18014
2026-01-22 19:32:56.86	178.75	4.12	-53.2	-55.4	6.2	0.00e+00	0	50	104	0	78	17983
2026-01-22 19:32:59.88	178.89	4.35	-53.2	-55.3	6.2	0.00e+00	0	50	104	0	78	17960
2026-01-22 19:33:02.91	179.03	4.58	-53.2	-55.3	6.2	0.00e+00	0	50	104	0	78	17944
2026-01-22 19:33:05.94	179.18	4.81	-53.2	-55.3	6.2	0.00e+00	0	50	104	0	78	17929
2026-01-22 19:33:08.96	179.33	5.05	-53.2	-55.3	6.2	0.00e+00	0	50	104	0	78	17946
2026-01-22 19:33:11.98	179.48	5.29	-53.2	-55.3	6.2	0.00e+00	0	50	104	0	78	17795
2026-01-22 19:33:15.00	179.63	5.53	-38.7	-38.6	13.7	0.00e+00	0	52	0	109051904	49	13938
2026-01-22 19:33:18.03	179.79	5.78	-36.3	-36.2	14.1	9.12e-02	0	52	0	461373440	44	14077
2026-01-22 19:33:21.05	179.95	6.03	-36.4	-36.3	14.1	2.74e-02	0	53	0	796917760	44	14165
2026-01-22 19:33:24.08	180.11	6.28	-36.5	-36.4	14.0	2.46e-02	0	53	0	1132462080	44	14344
2026-01-22 19:33:27.11	180.28	6.53	-36.3	-36.2	14.1	2.21e-02	0	53	0	1484783616	44	14063
2026-01-22 19:33:30.13	180.45	6.79	-36.1	-36.0	14.2	2.09e-02	0	53	0	1820327936	43	14550
2026-01-22 19:33:33.15	180.63	7.05	-36.4	-36.3	14.1	2.15e-02	0	53	0	2164260864	43	15045
2026-01-22 19:33:36.18	180.80	7.31	-35.8	-35.7	14.4	2.21e-02	0	53	0	2499805184	43	14074
2026-01-22 19:33:39.20	180.99	7.58	-35.8	-35.7	14.4	1.78e-02	0	53	0	2835349504	43	14043
2026-01-22 19:33:42.22	181.17	7.85	-36.3	-36.2	14.1	1.73e-02	0	54	0	3187671040	43	14866
2026-01-22 19:33:45.25	181.36	8.13	-35.7	-35.6	14.4	1.76e-02	0	54	0	3523215360	43	13845
2026-01-22 19:33:48.27	181.55	8.41	-35.5	-35.4	14.6	1.42e-02	0	54	0	3858759680	42	14353
2026-01-22 19:33:51.30	181.75	8.69	-35.3	-35.2	14.6	1.33e-02	0	54	0	4194304000	42	14077
2026-01-22 19:33:54.32	181.96	8.98	-35.1	-35.0	14.7	1.12e-02	0	54	0	4546625536	42	13778
2026-01-22 19:33:57.34	182.16	9.27	-34.9	-34.8	14.9	1.07e-02	0	54	0	4882169856	41	14166
2026-01-22 19:34:00.37	182.38	9.56	-34.7	-34.6	14.9	7.86e-03	0	54	0	5217714176	41	13921
2026-01-22 19:34:03.40	182.59	9.86	-34.7	-34.6	14.9	7.72e-03	0	54	0	5561647104	41	13838
2026-01-22 19:34:06.42	182.82	10.17	-34.3	-34.2	15.1	6.22e-03	0	55	0	5905580032	40	13961
2026-01-22 19:34:09.44	183.04	10.48	-34.2	-34.1	15.1	5.25e-03	0	54	0	6241124352	40	13891
2026-01-22 19:34:12.46	183.28	10.79	-34.3	-34.2	15.1	4.79e-03	0	55	0	6585057280	40	13986
2026-01-22 19:34:15.49	183.52	11.11	-34.0	-33.8	15.3	4.79e-03	0	55	0	6920601600	39	14258
2026-01-22 19:34:18.51	183.76	11.43	-34.1	-34.0	15.4	4.29e-03	0	55	0	7264534528	39	14485
2026-01-22 19:34:21.54	184.02	11.76	-33.8	-33.7	15.6	2.35e-03	0	55	0	7608467456	39	13964
2026-01-22 19:34:24.56	184.27	12.10	-34.2	-34.1	15.3	2.35e-03	0	55	0	7944011776	39	14722
2026-01-22 19:34:27.59	184.54	12.44	-33.7	-33.5	15.5	2.50e-03	0	55	0	8279556096	39	13785
2026-01-22 19:34:30.61	184.81	12.78	-33.4	-33.3	15.6	1.83e-03	0	55	0	8631877632	38	14239
2026-01-22 19:34:33.63	185.09	13.13	-33.0	-32.9	15.8	1.83e-03	0	56	0	8967421952	38	13536
2026-01-22 19:34:36.66	185.38	13.49	-32.7	-32.6	15.8	1.36e-03	0	55	0	9302966272	37	13923
2026-01-22 19:34:39.68	185.68	13.86	-32.6	-32.5	15.9	8.44e-04	0	56	0	9638510592	37	13736
2026-01-22 19:34:42.70	185.98	14.23	-32.3	-32.2	15.9	8.44e-04	0	56	0	9982443520	36	14085
2026-01-22 19:34:45.73	186.30	14.61	-32.2	-32.1	16.0	4.34e-04	0	56	0	10326376448	36	13807
2026-01-22 19:34:48.75	186.62	14.99	-32.2	-32.1	16.0	3.48e-04	0	56	0	10661920768	36	13797
2026-01-22 19:34:51.78	186.95	15.39	-32.1	-31.9	16.0	3.34e-04	0	56	0	11005853696	36	13623
2026-01-22 19:34:54.80	187.29	15.79	-29.8	-29.7	15.6	9.54e-04	0	56	0	11341398016	31	14051
2026-01-22 19:34:57.83	187.65	16.20	-29.5	-29.4	15.8	1.47e-03	0	56	0	11685330944	31	13507
2026-01-22 19:35:00.85	188.01	16.61	-29.4	-29.3	15.8	1.42e-03	0	56	0	12029263872	30	14218
2026-01-22 19:35:03.87	188.39	17.04	-29.1	-29.0	15.9	1.33e-03	0	56	0	12364808192	30	13757
2026-01-22 19:35:06.90	188.78	17.47	-28.8	-28.7	16.1	8.25e-04	0	56	0	12700352512	29	14027
2026-01-22 19:35:09.92	189.18	17.91	-28.9	-28.8	15.9	6.29e-04	0	56	0	13052674048	29	14226
2026-01-22 19:35:12.94	189.59	18.36	-28.6	-28.5	16.1	5.39e-04	0	56	0	13388218368	29	13752
2026-01-22 19:35:15.97	190.02	18.82	-28.4	-28.3	16.1	4.67e-04	0	56	0	13723762688	28	14242
2026-01-22 19:35:18.99	190.46	19.29	-28.2	-28.1	16.2	3.96e-04	0	56	0	14059307008	28	13868
2026-01-22 19:35:22.02	190.92	19.77	-28.0	-27.9	16.3	2.48e-04	0	56	0	14411628544	27	14276
2026-01-22 19:35:25.04	191.40	20.26	-28.0	-27.9	16.2	1.91e-04	0	56	0	14747172864	27	14410
2026-01-22 19:35:28.06	191.89	20.76	-27.6	-27.5	16.4	2.38e-04	0	56	0	15082717184	27	13714
2026-01-22 19:35:31.09	192.40	21.27	-27.4	-27.3	16.4	9.53e-05	0	56	0	15426650112	26	14131
2026-01-22 19:35:34.11	192.93	21.79	-27.3	-27.2	16.5	8.58e-05	0	56	0	15770583040	26	13952
2026-01-22 19:35:37.14	193.48	22.33	-27.3	-27.1	16.5	8.10e-05	0	56	0	16114515968	26	13941
2026-01-22 19:35:40.16	194.05	22.87	-26.8	-26.7	16.5	3.81e-05	0	56	0	16450060288	25	14064
2026-01-22 19:35:43.18	194.65	23.43	-26.8	-26.6	16.6	3.81e-05	0	56	0	16785604608	25	13935
2026-01-22 19:35:46.21	195.26	24.00	-26.5	-26.4	16.6	2.86e-05	0	56	0	17121148928	25	13593
2026-01-22 19:35:49.23	195.91	24.58	-26.2	-26.1	16.7	3.81e-05	0	56	0	17473470464	24	13875
2026-01-22 19:35:52.25	196.57	25.17	-26.1	-26.0	16.7	1.90e-05	0	56	0	17809014784	24	13651
2026-01-22 19:35:55.28	197.27	25.77	-25.9	-25.8	16.7	9.50e-06	0	56	0	18144559104	23	14212
2026-01-22 19:35:58.30	198.00	26.39	-25.7	-25.6	16.8	3.33e-05	0	56	0	18488492032	23	13918
2026-01-22 19:36:01.33	198.76	27.02	-25.6	-25.5	16.8	4.70e-06	0	56	0	18832424960	23	13723
2026-01-22 19:36:04.35	199.55	27.67	-25.3	-25.2	16.8	0.00e+00	0	56	0	19167969280	22	13971
2026-01-22 19:36:07.38	200.38	28.32	-24.9	-24.8	16.9	0.00e+00	0	56	0	19511902208	21	14211
2026-01-22 19:36:10.40	201.24	28.99	-24.9	-24.7	16.9	4.70e-06	0	56	0	19847446528	21	14107
2026-01-22 19:36:13.43	202.14	29.68	-24.6	-24.5	16.9	4.70e-06	0	56	0	20191379456	21	13659
2026-01-22 19:36:16.45	203.09	30.37	-24.2	-24.0	17.0	4.70e-06	0	56	0	20535312384	20	13790
2026-01-22 19:36:19.47	204.08	31.07	-24.0	-23.9	17.0	4.70e-06	0	56	0	20870856704	19	14365
2026-01-22 19:36:22.49	205.11	31.79	-23.9	-23.8	17.1	0.00e+00	0	56	0	21206401024	19	14187
2026-01-22 19:36:25.52	206.20	32.52	-23.8	-23.6	17.1	0.00e+00	0	56	0	21558722560	19	13927
2026-01-22 19:36:28.54	207.34	33.25	-23.1	-23.0	17.3	0.00e+00	0	56	0	21894266880	18	13684
2026-01-22 19:36:31.57	208.54	34.00	-22.9	-22.7	17.2	0.00e+00	0	56	0	22229811200	17	14103
2026-01-22 19:36:34.59	209.79	34.75	-22.5	-22.4	17.2	0.00e+00	0	56	0	22565355520	17	13542
2026-01-22 19:36:37.61	211.11	35.51	-22.3	-22.2	17.3	0.00e+00	0	56	0	22909288448	16	14006
2026-01-22 19:36:40.63	212.49	36.27	-22.2	-22.0	17.3	0.00e+00	0	56	0	23253221376	16	13770
2026-01-22 19:36:43.65	213.94	37.04	-22.0	-21.9	17.3	0.00e+00	0	56	0	23588765696	16	13543
2026-01-22 19:36:46.68	215.47	37.81	-21.7	-21.6	17.3	0.00e+00	0	56	0	23932698624	15	13865
2026-01-22 19:36:49.70	217.07	38.57	-21.6	-21.5	17.4	0.00e+00	0	56	0	24268242944	15	13667
2026-01-22 19:36:52.73	218.76	39.33	-21.3	-21.2	17.4	0.00e+00	0	56	0	24612175872	14	14050
2026-01-22 19:36:55.75	220.52	40.07	-21.2	-21.0	17.5	0.00e+00	0	56	0	24956108800	14	13773
2026-01-22 19:36:58.77	222.37	40.81	-21.0	-20.9	17.5	0.00e+00	0	56	0	25291653120	14	13501
2026-01-22 19:37:01.80	224.31	41.53	-20.8	-20.7	17.5	0.00e+00	0	56	0	25627197440	13	14067
2026-01-22 19:37:04.82	226.33	42.23	-20.6	-20.5	17.5	0.00e+00	0	56	0	25979518976	13	13716
2026-01-22 19:37:07.85	228.46	42.90	-20.3	-20.2	17.5	0.00e+00	0	56	0	26315063296	12	14062
2026-01-22 19:37:10.87	230.66	43.54	-20.2	-20.1	17.5	0.00e+00	0	56	0	26650607616	12	13862
2026-01-22 19:37:13.89	232.96	44.15	-20.2	-20.0	17.5	0.00e+00	0	56	0	26986151936	12	13760
2026-01-22 19:37:16.91	235.34	44.71	-20.1	-20.0	17.5	0.00e+00	0	56	0	27338473472	11	14474
2026-01-22 19:37:19.94	237.82	45.23	-20.0	-19.9	17.5	0.00e+00	0	56	0	27674017792	11	14370
2026-01-22 19:37:22.96	240.37	45.70	-20.0	-19.9	17.5	0.00e+00	0	56	0	28009562112	11	14280
2026-01-22 19:37:25.99	243.01	46.11	-19.8	-19.7	17.5	0.00e+00	0	56	0	28353495040	11	13999
2026-01-22 19:37:29.01	245.69	46.46	-20.0	-19.8	17.5	0.00e+00	0	56	0	28697427968	11	14270
2026-01-22 19:37:32.03	248.44	46.74	-19.8	-19.7	17.7	0.00e+00	0	56	0	29032972288	11	14028
2026-01-22 19:37:35.06	251.24	46.96	-19.9	-19.8	17.5	0.00e+00	0	56	0	29376905216	11	14160
2026-01-22 19:37:38.08	254.06	47.10	-20.0	-19.9	17.5	0.00e+00	0	56	0	29712449536	11	14298
2026-01-22 19:37:41.11	256.91	47.17	-20.0	-19.9	17.5	0.00e+00	0	56	0	30047993856	11	14284
2026-01-22 19:37:44.13	259.76	47.17	-20.0	-19.8	17.5	0.00e+00	0	56	0	30400315392	11	14249
2026-01-22 19:37:47.15	262.60	47.09	-20.0	-19.9	17.5	0.00e+00	0	56	0	30735859712	11	14346
2026-01-22 19:37:50.17	265.42	46.94	-20.0	-19.9	17.5	0.00e+00	0	56	0	31071404032	11	14293
2026-01-22 19:37:53.20	268.22	46.72	-20.0	-19.8	17.4	0.00e+00	0	56	0	31406948352	11	14220
2026-01-22 19:37:56.22	270.95	46.43	-20.0	-19.9	17.4	0.00e+00	0	56	0	31759269888	11	14320
2026-01-22 19:37:59.25	273.64	46.08	-20.2	-20.0	17.3	0.00e+00	0	56	0	32094814208	11	14598
2026-01-22 19:38:02.27	276.26	45.66	-20.3	-20.2	17.3	0.00e+00	0	56	0	32430358528	11	14810
2026-01-22 19:38:05.29	278.80	45.19	-20.4	-20.2	17.3	0.00e+00	0	56	0	32774291456	11	14945
2026-01-22 19:38:08.31	281.26	44.67	-20.5	-20.4	17.3	0.00e+00	0	56	0	33118224384	11	15219
2026-01-22 19:38:11.34	283.64	44.11	-20.6	-20.5	17.3	0.00e+00	0	56	0	33462157312	12	14481
2026-01-22 19:38:14.36	285.93	43.50	-20.4	-20.3	17.4	0.00e+00	0	56	0	33797701632	12	14228
2026-01-22 19:38:17.38	288.12	42.86	-20.5	-20.4	17.4	0.00e+00	0	56	0	34133245952	12	14318
2026-01-22 19:38:20.41	290.23	42.18	-20.7	-20.6	17.5	0.00e+00	0	56	0	34485567488	12	14675
2026-01-22 19:38:23.43	292.25	41.49	-20.8	-20.7	17.5	0.00e+00	0	56	0	34821111808	12	14890
2026-01-22 19:38:26.46	294.18	40.77	-21.0	-20.9	17.5	0.00e+00	0	56	0	35156656128	12	15155
2026-01-22 19:38:29.48	296.02	40.03	-21.2	-21.1	17.5	0.00e+00	0	56	0	35492200448	13	14691
2026-01-22 19:38:32.51	297.77	39.29	-21.3	-21.1	17.5	0.00e+00	0	56	0	35827744768	13	14749
2026-01-22 19:38:35.53	299.44	38.53	-21.4	-21.3	17.4	0.00e+00	0	56	0	36180066304	13	15018
2026-01-22 19:38:38.55	301.03	37.77	-21.6	-21.4	17.4	0.00e+00	0	56	0	36515610624	13	15269
2026-01-22 19:38:41.58	302.55	37.01	-21.7	-21.6	17.4	0.00e+00	0	56	0	36859543552	13	15507
2026-01-22 19:38:44.60	303.99	36.25	-21.9	-21.8	17.4	0.00e+00	0	56	0	37195087872	14	15068
2026-01-22 19:38:47.62	305.37	35.49	-22.1	-22.0	17.3	0.00e+00	0	56	0	37539020800	14	15370
2026-01-22 19:38:50.65	306.68	34.73	-22.4	-22.3	17.3	0.00e+00	0	56	0	37882953728	15	14985
2026-01-22 19:38:53.67	307.93	33.98	-22.8	-22.7	14.3	0.00e+00	0	56	0	38218498048	16	14808
2026-01-22 19:38:56.69	309.11	33.24	-23.0	-22.8	17.2	4.72e-04	0	56	0	38554042368	16	15100
2026-01-22 19:38:59.72	310.25	32.51	-23.1	-23.0	17.2	0.00e+00	0	56	0	38906363904	16	15346
2026-01-22 19:39:02.74	311.33	31.79	-23.4	-23.3	17.2	0.00e+00	0	56	0	39241908224	17	14970
2026-01-22 19:39:05.77	312.36	31.07	-23.6	-23.5	17.2	0.00e+00	0	56	0	39577452544	17	15340
2026-01-22 19:39:08.80	313.35	30.37	-24.0	-23.9	17.2	0.00e+00	0	56	0	39912996864	18	15159
2026-01-22 19:39:11.82	314.29	29.68	-24.4	-24.2	17.2	0.00e+00	0	56	0	40265318400	19	14928
2026-01-22 19:39:14.85	315.19	29.00	-24.4	-24.3	17.1	0.00e+00	0	56	0	40600862720	19	15019
2026-01-22 19:39:17.88	316.05	28.33	-24.6	-24.5	17.1	0.00e+00	0	57	0	40936407040	20	14569
2026-01-22 19:39:20.90	316.87	27.68	-24.8	-24.7	17.0	0.00e+00	0	56	0	41280339968	20	14808
2026-01-22 19:39:23.93	317.66	27.04	-24.8	-24.7	17.0	0.00e+00	0	57	0	41624272896	20	14884
2026-01-22 19:39:26.95	318.41	26.42	-25.3	-25.1	17.0	0.00e+00	0	56	0	41959817216	21	14762
2026-01-22 19:39:29.97	319.14	25.80	-25.4	-25.3	16.9	0.00e+00	0	57	0	42303750144	21	15041
2026-01-22 19:39:33.00	319.83	25.20	-25.5	-25.4	11.9	5.02e-03	0	57	0	42639294464	21	15207
2026-01-22 19:39:36.02	320.50	24.61	-25.8	-25.7	16.9	5.02e-03	0	57	0	42983227392	22	14838
2026-01-22 19:39:39.05	321.14	24.03	-26.0	-25.9	16.9	4.70e-06	0	57	0	43327160320	22	15142
2026-01-22 19:39:42.07	321.75	23.47	-26.1	-26.0	16.8	4.70e-06	0	57	0	43662704640	22	15334
2026-01-22 19:39:45.09	322.34	22.92	-26.3	-26.2	16.8	1.43e-05	0	57	0	43998248960	23	14889
2026-01-22 19:39:48.12	322.91	22.37	-26.3	-26.2	16.8	4.70e-06	0	57	0	44350570496	23	14855
2026-01-22 19:39:51.15	323.46	21.84	-26.6	-26.5	16.7	1.90e-05	0	57	0	44686114816	23	15323
2026-01-22 19:39:54.17	323.99	21.32	-26.8	-26.7	16.7	0.00e+00	0	57	0	45021659136	24	14807
2026-01-22 19:39:57.19	324.50	20.82	-26.9	-26.7	16.7	2.86e-05	0	57	0	45357203456	24	14918
2026-01-22 19:40:00.22	324.99	20.32	-27.2	-27.1	16.6	3.33e-05	0	57	0	45709524992	24	15496
2026-01-22 19:40:03.24	325.46	19.83	-27.4	-27.2	16.6	2.38e-05	0	57	0	46045069312	25	14934
2026-01-22 19:40:06.27	325.92	19.35	-27.5	-27.4	16.5	7.62e-05	0	57	0	46380613632	25	15175
2026-01-22 19:40:09.29	326.36	18.89	-27.6	-27.4	16.5	6.67e-05	0	57	0	46724546560	25	15294
2026-01-22 19:40:12.32	326.79	18.43	-27.7	-27.6	16.4	1.05e-04	0	57	0	47068479488	25	15558
2026-01-22 19:40:15.34	327.20	17.98	-28.0	-27.9	16.4	1.05e-04	0	57	0	47404023808	26	15171
2026-01-22 19:40:18.37	327.60	17.54	-28.0	-27.9	16.4	1.10e-04	0	57	0	47747956736	26	15192
2026-01-22 19:40:21.39	327.99	17.11	-28.1	-27.9	16.3	2.00e-04	0	57	0	48083501056	26	15289
2026-01-22 19:40:24.41	328.37	16.69	-28.3	-28.2	16.3	1.33e-04	0	57	0	48427433984	27	14862
2026-01-22 19:40:27.44	328.73	16.28	-28.5	-28.4	16.2	1.72e-04	0	57	0	48771366912	27	15189
2026-01-22 19:40:30.46	329.08	15.87	-28.7	-28.6	16.1	2.62e-04	0	57	0	49106911232	27	15506
2026-01-22 19:40:33.49	329.43	15.47	-28.8	-28.7	16.1	4.05e-04	0	57	0	49442455552	28	14820
2026-01-22 19:40:36.51	329.76	15.08	-28.9	-28.8	16.0	4.34e-04	0	57	0	49794777088	28	14994
2026-01-22 19:40:39.53	330.08	14.70	-29.1	-29.0	15.9	6.63e-04	0	57	0	50130321408	28	15331
2026-01-22 19:40:42.56	330.40	14.32	-29.1	-29.0	15.9	7.39e-04	0	57	0	50465865728	29	14561
2026-01-22 19:40:45.59	330.70	13.95	-29.3	-29.2	15.8	6.34e-04	0	57	0	50801410048	29	14854
2026-01-22 19:40:48.61	331.00	13.59	-29.4	-29.3	15.8	1.05e-03	0	57	0	51153731584	29	15055
2026-01-22 19:40:51.64	331.29	13.23	-29.6	-29.5	15.7	1.14e-03	0	57	0	51489275904	29	15389
2026-01-22 19:40:54.66	331.57	12.88	-29.7	-29.6	15.6	1.17e-03	0	57	0	51833208832	29	15622
2026-01-22 19:40:57.69	331.84	12.53	-30.0	-29.9	15.6	1.53e-03	0	58	0	52168753152	30	15195
2026-01-22 19:41:00.71	332.10	12.19	-30.0	-29.9	15.6	1.76e-03	0	57	0	52512686080	30	15255
2026-01-22 19:41:03.74	332.36	11.86	-30.3	-30.2	15.5	2.25e-03	0	57	0	52856619008	31	14885
2026-01-22 19:41:06.76	332.62	11.53	-30.5	-30.4	15.4	2.67e-03	0	57	0	53192163328	31	15292
2026-01-22 19:41:09.78	332.86	11.21	-30.4	-30.3	15.4	3.10e-03	0	57	0	53527707648	31	15101
2026-01-22 19:41:12.81	333.10	10.89	-30.4	-30.4	15.4	3.27e-03	0	58	0	53863251968	31	15136
2026-01-22 19:41:15.83	333.34	10.58	-30.5	-30.5	15.3	3.90e-03	0	57	0	54215573504	31	15301
2026-01-22 19:41:18.85	333.57	10.27	-30.7	-30.6	15.2	4.21e-03	0	57	0	54551117824	32	14691
2026-01-22 19:41:21.88	333.79	9.97	-30.6	-30.5	15.2	4.52e-03	0	57	0	54886662144	32	14606
2026-01-22 19:41:24.91	334.01	9.67	-30.7	-30.6	15.2	5.00e-03	0	57	0	55230595072	32	14751
2026-01-22 19:41:27.93	334.22	9.38	-30.9	-30.9	15.1	5.32e-03	0	57	0	55574528000	32	15163
2026-01-22 19:41:30.96	334.43	9.09	-31.5	-31.4	14.8	7.19e-03	0	57	0	55910072320	33	15287
2026-01-22 19:41:33.98	334.63	8.80	-32.0	-31.9	14.6	1.05e-02	0	57	0	56254005248	34	15216
2026-01-22 19:41:37.01	334.83	8.52	-31.7	-31.7	14.7	1.33e-02	0	57	0	56589549568	34	14791
2026-01-22 19:41:40.02	335.03	8.24	-31.8	-31.7	14.6	1.21e-02	0	57	0	56933482496	34	14920
2026-01-22 19:41:43.05	335.22	7.97	-31.8	-31.7	14.6	1.19e-02	0	58	0	57277415424	34	14934
2026-01-22 19:41:46.07	335.40	7.70	-32.1	-32.1	14.5	1.35e-02	0	57	0	57612959744	34	15488
2026-01-22 19:41:49.10	335.59	7.43	-32.2	-32.1	14.4	1.73e-02	0	57	0	57948504064	35	14739
2026-01-22 19:41:52.12	335.77	7.17	-32.4	-32.3	14.3	1.64e-02	0	57	0	58300825600	35	15093
2026-01-22 19:41:55.13	335.94	6.91	-32.6	-32.5	14.2	1.85e-02	0	57	0	58636369920	35	15417
2026-01-22 19:41:58.16	336.11	6.65	-35.1	-35.0	14.8	1.99e-02	0	57	0	58971914240	41	14516
2026-01-22 19:42:01.18	336.28	6.40	-35.1	-35.0	14.8	1.04e-02	0	57	0	59307458560	41	14556
2026-01-22 19:42:04.21	336.45	6.15	-35.9	-35.8	14.4	1.09e-02	0	57	0	59651391488	42	15097
2026-01-22 19:42:07.23	336.61	5.90	-35.8	-35.7	14.4	1.54e-02	0	57	0	59995324416	42	14888
2026-01-22 19:42:10.25	336.77	5.66	-35.6	-35.5	14.5	1.52e-02	0	57	0	60330868736	42	14526
2026-01-22 19:42:13.28	336.92	5.42	-35.6	-35.5	14.5	1.62e-02	0	57	0	60674801664	42	14561
2026-01-22 19:42:16.30	337.08	5.18	-35.7	-35.7	14.4	1.55e-02	0	57	0	61010345984	43	13977
2026-01-22 19:42:19.33	337.23	4.94	-53.1	-55.4	6.2	2.04e-02	0	56	104	61278781440	76	20177
2026-01-22 19:42:22.35	337.37	4.71	-53.9	-56.0	6.2	2.04e-02	0	56	104	61278781440	78	19352
2026-01-22 19:42:25.38	337.52	4.48	-54.2	-56.3	6.2	2.04e-02	0	56	104	61278781440	78	20040
2026-01-22 19:42:28.40	337.66	4.25	-54.2	-56.3	6.2	1.92e-02	0	56	104	61278781440	78	20063
2026-01-22 19:42:31.43	337.80	4.02	-53.9	-56.0	6.2	1.92e-02	0	56	104	61278781440	78	19428
2026-01-22 19:42:34.46	337.94	3.80	-53.9	-56.0	6.2	1.92e-02	0	56	104	61278781440	78	19477
2026-01-22 19:42:37.48	338.07	3.58	-54.0	-56.2	6.2	1.92e-02	0	55	104	61278781440	78	19755
2026-01-22 19:42:40.51	338.20	3.36	-54.0	-56.2	6.2	1.92e-02	0	55	104	61278781440	78	19733
2026-01-22 19:42:43.53	338.33	3.14	-54.0	-56.1	6.2	0.00e+00	0	55	104	61278781440	78	19527
2026-01-22 19:42:46.56	338.46	2.93	-54.0	-56.1	6.2	0.00e+00	0	55	104	61278781440	78	19519
2026-01-22 19:42:49.59	338.59	2.71	-53.9	-56.0	6.2	0.00e+00	0	55	104	61278781440	78	19458
2026-01-22 19:42:52.61	338.71	2.50	-53.9	-56.0	6.2	0.00e+00	0	55	104	61278781440	78	19434
2026-01-22 19:42:55.63	338.84	2.29	-53.9	-56.0	6.2	0.00e+00	0	55	104	61278781440	78	19410
2026-01-22 19:42:58.66	338.96	2.09	-53.9	-56.0	6.2	0.00e+00	0	55	104	61278781440	78	19368

#Closed at: 2026-01-22 19:43:01
#Recorded file [61278 MB]: D:/lorett/data/31041_260122_223226.dat