passes_logs/2026/01/22/R3.2S_Murmansk/R3.2S_Murmansk__20260122_091755_NOAA_20_JPSS-1_rec.log

#Pass ID: 20260122_091755_NOAA 20 (JPSS-1)
#Satellite: NOAA 20 (JPSS-1)
#Configuration: NOAA 20
#almurnet v.1.7.20251203
#Start time: 2026-01-22 09:17:55

#Version: 2.2.20231116
#Station: R3.2S_Murmansk
#Location: 33.079688 lon 68.888172 lat
#TLE: 1 43013U 17073A   26021.46221703  .00000173  00000+0  10299-3 0  9999
#TLE: 2 43013  98.7644 322.3335 0001238  29.7597 330.3649 14.19538314423652

#Time	Az	El	Level	Level2	SNR	BER	BlckErr	Temp	State	Recorded	gain1	gain2
2026-01-22 09:17:55.02	146.24	1.97	-54.3	-69.3	3.8	1.49e+00	0	39	0	0	79	21254
2026-01-22 09:17:59.04	146.22	2.23	-54.5	-69.6	3.8	1.49e+00	0	39	104	0	79	21783
2026-01-22 09:18:03.08	146.21	2.49	-54.4	-69.4	3.8	1.49e+00	0	39	104	0	79	21496
2026-01-22 09:18:07.11	146.20	2.76	-54.2	-69.3	3.8	1.49e+00	0	39	104	0	79	21086
2026-01-22 09:18:11.14	146.18	3.03	-53.9	-68.9	3.8	1.49e+00	0	39	104	0	79	20280
2026-01-22 09:18:15.18	146.17	3.30	-53.4	-68.4	3.8	1.49e+00	0	39	104	0	78	20143
2026-01-22 09:18:19.22	146.15	3.57	-52.6	-67.5	3.8	1.49e+00	0	40	104	0	77	19269
2026-01-22 09:18:23.25	146.14	3.85	-52.6	-67.6	3.8	1.49e+00	0	40	104	0	77	19400
2026-01-22 09:18:27.28	146.12	4.12	-52.5	-65.4	3.9	1.49e+00	0	40	104	0	77	15091
2026-01-22 09:18:31.31	146.10	4.40	-51.3	-57.4	8.9	5.14e-02	0	40	0	5242880	74	7138
2026-01-22 09:18:35.35	146.09	4.69	-49.5	-52.8	13.6	4.11e-05	0	40	0	12582912	71	5037
2026-01-22 09:18:39.38	146.07	4.98	-48.8	-51.6	15.0	0.00e+00	0	40	0	19922944	69	4880
2026-01-22 09:18:43.42	146.05	5.27	-50.3	-54.6	11.5	2.49e-02	0	40	0	28311552	72	5822
2026-01-22 09:18:47.45	146.03	5.56	-47.8	-50.0	16.5	0.00e+00	0	40	0	35651584	67	4598
2026-01-22 09:18:51.48	146.01	5.86	-48.3	-50.7	16.0	0.00e+00	0	40	0	42991616	67	4953
2026-01-22 09:18:55.51	145.99	6.16	-48.4	-50.8	15.8	0.00e+00	0	40	0	50331648	67	5041
2026-01-22 09:18:59.55	145.97	6.46	-48.2	-50.6	16.1	0.00e+00	0	40	0	58720256	67	4886
2026-01-22 09:19:03.58	145.95	6.77	-47.9	-50.0	16.8	0.00e+00	0	40	0	66060288	67	4581
2026-01-22 09:19:07.61	145.92	7.08	-48.0	-50.2	16.7	0.00e+00	0	40	0	73400320	67	4681
2026-01-22 09:19:11.64	145.90	7.39	-47.9	-50.0	16.9	0.00e+00	0	40	0	80740352	67	4548
2026-01-22 09:19:15.68	145.88	7.71	-47.7	-49.7	17.3	0.00e+00	0	40	0	88080384	67	4394
2026-01-22 09:19:19.71	145.85	8.03	-47.6	-49.5	17.4	0.00e+00	0	40	0	96468992	66	4578
2026-01-22 09:19:23.74	145.82	8.36	-47.6	-49.5	17.5	0.00e+00	0	41	0	103809024	66	4567
2026-01-22 09:19:27.78	145.80	8.69	-47.6	-49.5	17.5	0.00e+00	0	40	0	111149056	66	4574
2026-01-22 09:19:31.81	145.77	9.03	-47.5	-49.5	17.5	0.00e+00	0	40	0	118489088	66	4554
2026-01-22 09:19:35.84	145.74	9.37	-47.5	-49.4	17.6	0.00e+00	0	40	0	125829120	66	4524
2026-01-22 09:19:39.87	145.71	9.71	-47.2	-49.0	18.0	0.00e+00	0	40	0	134217728	66	4335
2026-01-22 09:19:43.91	145.68	10.06	-47.4	-49.2	17.9	0.00e+00	0	41	0	141557760	66	4406
2026-01-22 09:19:47.94	145.65	10.42	-47.1	-48.8	18.3	0.00e+00	0	41	0	148897792	66	4229
2026-01-22 09:19:51.98	145.61	10.78	-47.3	-49.1	18.1	0.00e+00	0	40	0	156237824	66	4342
2026-01-22 09:19:56.01	145.58	11.14	-47.0	-48.7	18.4	0.00e+00	0	40	0	163577856	65	4408
2026-01-22 09:20:00.05	145.54	11.51	-46.8	-48.4	18.7	0.00e+00	0	41	0	171966464	65	4269
2026-01-22 09:20:04.08	145.51	11.89	-46.9	-48.5	18.6	0.00e+00	0	40	0	179306496	65	4320
2026-01-22 09:20:08.10	145.47	12.27	-46.7	-48.4	18.8	0.00e+00	0	40	0	186646528	65	4245
2026-01-22 09:20:12.14	145.43	12.66	-46.5	-48.1	19.1	0.00e+00	0	40	0	193986560	65	4117
2026-01-22 09:20:16.16	145.39	13.05	-46.5	-48.1	19.1	0.00e+00	0	40	0	202375168	65	4101
2026-01-22 09:20:20.20	145.35	13.45	-46.5	-48.1	19.1	0.00e+00	0	40	0	209715200	64	4351
2026-01-22 09:20:24.22	145.30	13.86	-46.4	-47.9	19.3	0.00e+00	0	40	0	217055232	64	4272
2026-01-22 09:20:28.25	145.26	14.27	-46.2	-47.7	19.6	0.00e+00	0	41	0	224395264	64	4152
2026-01-22 09:20:32.29	145.21	14.70	-46.1	-47.5	19.7	0.00e+00	0	41	0	231735296	64	4079
2026-01-22 09:20:36.32	145.16	15.13	-46.1	-47.5	19.8	0.00e+00	0	40	0	240123904	63	4334
2026-01-22 09:20:40.35	145.11	15.56	-45.9	-47.3	20.0	0.00e+00	0	41	0	247463936	63	4216
2026-01-22 09:20:44.38	145.06	16.01	-45.8	-47.2	20.2	0.00e+00	0	41	0	254803968	63	4158
2026-01-22 09:20:48.41	145.00	16.46	-45.7	-47.0	20.3	0.00e+00	0	41	0	262144000	63	4089
2026-01-22 09:20:52.44	144.94	16.92	-45.6	-46.9	20.4	0.00e+00	0	40	0	269484032	63	4039
2026-01-22 09:20:56.48	144.88	17.39	-45.6	-46.8	20.5	0.00e+00	0	41	0	277872640	63	3999
2026-01-22 09:21:00.50	144.82	17.87	-45.5	-46.7	20.6	0.00e+00	0	41	0	285212672	62	4185
2026-01-22 09:21:04.54	144.76	18.36	-45.4	-46.7	20.7	0.00e+00	0	40	0	292552704	62	4153
2026-01-22 09:21:08.57	144.69	18.86	-45.3	-46.5	20.8	0.00e+00	0	40	0	299892736	62	4091
2026-01-22 09:21:12.60	144.62	19.37	-45.0	-46.2	21.1	0.00e+00	0	41	0	307232768	62	3952
2026-01-22 09:21:16.63	144.55	19.89	-44.9	-46.1	21.3	0.00e+00	0	40	0	315621376	61	4137
2026-01-22 09:21:20.66	144.48	20.42	-44.9	-46.1	21.3	0.00e+00	0	41	0	322961408	61	4105
2026-01-22 09:21:24.69	144.40	20.96	-44.8	-46.0	21.4	0.00e+00	0	41	0	330301440	61	4060
2026-01-22 09:21:28.72	144.32	21.51	-44.6	-45.7	21.7	0.00e+00	0	41	0	337641472	60	4169
2026-01-22 09:21:32.75	144.23	22.08	-44.6	-45.7	21.6	0.00e+00	0	41	0	346030080	60	4180
2026-01-22 09:21:36.77	144.14	22.66	-44.4	-45.5	21.9	0.00e+00	0	40	0	353370112	60	4065
2026-01-22 09:21:40.80	144.05	23.25	-44.4	-45.5	21.9	0.00e+00	0	41	0	360710144	60	4069
2026-01-22 09:21:44.83	143.95	23.85	-44.4	-45.5	21.9	0.00e+00	0	40	0	368050176	60	4093
2026-01-22 09:21:48.86	143.85	24.47	-44.6	-45.8	21.7	0.00e+00	0	40	0	375390208	60	4195
2026-01-22 09:21:52.90	143.74	25.11	-44.8	-46.0	21.5	0.00e+00	0	41	0	382730240	60	4294
2026-01-22 09:21:56.93	143.63	25.76	-45.1	-46.3	21.2	0.00e+00	0	41	0	391118848	60	4460
2026-01-22 09:22:00.97	143.52	26.43	-45.3	-46.5	21.0	0.00e+00	0	41	0	398458880	61	4317
2026-01-22 09:22:05.00	143.39	27.11	-45.6	-46.9	20.6	0.00e+00	0	41	0	405798912	61	4529
2026-01-22 09:22:09.03	143.27	27.81	-45.9	-47.2	20.4	0.00e+00	0	41	0	413138944	62	4425
2026-01-22 09:22:13.06	143.13	28.53	-46.4	-47.8	19.9	0.00e+00	0	41	0	421527552	63	4450
2026-01-22 09:22:17.09	142.99	29.27	-47.0	-48.6	19.0	0.00e+00	0	41	0	428867584	64	4624
2026-01-22 09:22:21.12	142.84	30.03	-47.3	-49.0	18.6	0.00e+00	0	41	0	436207616	65	4550
2026-01-22 09:22:25.16	142.69	30.80	-47.7	-49.5	18.2	0.00e+00	0	41	0	443547648	66	4576
2026-01-22 09:22:29.19	142.52	31.60	-47.7	-49.4	18.2	0.00e+00	0	41	0	450887680	66	4521
2026-01-22 09:22:33.22	142.35	32.42	-47.8	-49.6	18.1	0.00e+00	0	41	0	459276288	66	4615
2026-01-22 09:22:37.25	142.16	33.27	-47.7	-49.4	18.3	0.00e+00	0	41	0	466616320	66	4521
2026-01-22 09:22:41.28	141.97	34.13	-47.2	-48.7	18.9	0.00e+00	0	41	0	473956352	66	4188
2026-01-22 09:22:45.31	141.76	35.02	-46.7	-48.1	19.5	0.00e+00	0	41	0	481296384	65	4132
2026-01-22 09:22:49.35	141.54	35.94	-45.9	-47.2	20.5	0.00e+00	0	41	0	489684992	63	4163
2026-01-22 09:22:53.38	141.31	36.88	-45.4	-46.6	21.1	0.00e+00	0	41	0	497025024	62	4133
2026-01-22 09:22:57.41	141.06	37.85	-45.1	-46.3	21.3	0.00e+00	0	41	0	504365056	62	3990
2026-01-22 09:23:01.44	140.80	38.85	-45.3	-46.5	21.1	0.00e+00	0	41	0	511705088	61	4333
2026-01-22 09:23:05.47	140.52	39.88	-46.0	-47.3	20.4	0.00e+00	0	41	0	519045120	62	4481
2026-01-22 09:23:09.50	140.22	40.94	-46.6	-48.0	19.8	0.00e+00	0	41	0	526385152	63	4584
2026-01-22 09:23:13.54	139.89	42.03	-46.7	-48.1	19.6	0.00e+00	0	41	0	534773760	64	4384
2026-01-22 09:23:17.57	139.55	43.15	-47.1	-48.6	19.1	0.00e+00	0	41	0	542113792	65	4363
2026-01-22 09:23:21.60	139.17	44.30	-47.2	-48.8	19.0	0.00e+00	0	41	0	549453824	65	4445
2026-01-22 09:23:25.63	138.77	45.49	-47.4	-49.0	18.8	0.00e+00	0	41	0	556793856	65	4563
2026-01-22 09:23:29.67	138.34	46.71	-47.6	-49.3	18.5	0.00e+00	0	41	0	565182464	65	4711
2026-01-22 09:23:33.70	137.86	47.96	-49.0	-51.2	16.8	0.00e+00	0	41	0	572522496	68	4973
2026-01-22 09:23:37.73	137.35	49.25	-47.4	-49.0	18.8	0.00e+00	0	41	0	579862528	66	4326
2026-01-22 09:23:41.76	136.79	50.58	-46.1	-47.5	20.2	0.00e+00	0	41	0	587202560	64	4059
2026-01-22 09:23:45.80	136.17	51.94	-44.6	-45.7	22.0	0.00e+00	0	41	0	594542592	61	3942
2026-01-22 09:23:49.83	135.50	53.34	-44.4	-45.5	22.2	0.00e+00	0	41	0	602931200	60	4063
2026-01-22 09:23:53.86	134.75	54.77	-44.6	-45.7	22.0	0.00e+00	0	41	0	610271232	60	4176
2026-01-22 09:23:57.89	133.93	56.23	-45.2	-46.4	21.4	0.00e+00	0	41	0	617611264	61	4246
2026-01-22 09:24:01.92	133.00	57.73	-47.1	-48.6	19.2	0.00e+00	0	41	0	624951296	64	4640
2026-01-22 09:24:05.96	131.97	59.26	-47.5	-49.2	18.7	0.00e+00	0	41	0	632291328	66	4392
2026-01-22 09:24:09.99	130.80	60.82	-45.6	-46.8	21.1	0.00e+00	0	41	0	640679936	63	3962
2026-01-22 09:24:14.02	129.48	62.41	-44.1	-45.1	22.9	0.00e+00	0	41	0	648019968	59	4129
2026-01-22 09:24:18.05	127.97	64.01	-44.5	-45.6	22.5	0.00e+00	0	41	0	655360000	59	4350
2026-01-22 09:24:22.08	126.24	65.64	-45.2	-46.3	21.5	0.00e+00	0	40	0	662700032	60	4474
2026-01-22 09:24:26.12	124.22	67.27	-46.4	-47.8	20.1	0.00e+00	0	41	0	670040064	64	4219
2026-01-22 09:24:30.14	121.86	68.90	-45.7	-46.9	21.0	0.00e+00	0	41	0	678428672	63	4027
2026-01-22 09:24:34.18	119.06	70.53	-45.2	-46.3	21.5	0.00e+00	0	41	0	685768704	61	4217
2026-01-22 09:24:38.21	115.72	72.13	-45.1	-46.2	21.6	0.00e+00	0	41	0	693108736	61	4180
2026-01-22 09:24:42.24	111.70	73.68	-46.9	-48.4	19.6	0.00e+00	0	40	0	700448768	64	4505
2026-01-22 09:24:46.27	106.81	75.15	-47.9	-49.6	18.3	0.00e+00	0	41	0	708837376	66	4637
2026-01-22 09:24:50.31	100.83	76.52	-47.4	-49.0	18.8	0.00e+00	0	41	0	716177408	66	4314
2026-01-22 09:24:54.34	93.57	77.71	-46.6	-48.0	19.9	0.00e+00	0	41	0	723517440	65	4082
2026-01-22 09:24:58.38	84.83	78.69	-46.7	-48.1	19.8	0.00e+00	0	41	0	730857472	64	4366
2026-01-22 09:25:02.41	74.73	79.36	-47.1	-48.6	19.4	0.00e+00	0	41	0	738197504	64	4605
2026-01-22 09:25:06.44	63.62	79.67	-45.7	-46.9	21.0	0.00e+00	0	41	0	746586112	63	4045
2026-01-22 09:25:10.48	52.24	79.59	-44.6	-45.7	22.3	0.00e+00	0	41	0	753926144	61	3918
2026-01-22 09:25:14.51	41.48	79.12	-45.3	-46.5	21.5	0.00e+00	0	41	0	761266176	61	4312
2026-01-22 09:25:18.55	31.92	78.31	-46.7	-48.1	20.0	0.00e+00	0	41	0	768606208	64	4347
2026-01-22 09:25:22.58	23.84	77.23	-49.4	-51.6	16.6	0.00e+00	0	41	0	775946240	69	4925
2026-01-22 09:25:26.62	17.13	75.96	-48.5	-50.3	17.7	0.00e+00	0	41	0	784334848	68	4483
2026-01-22 09:25:30.65	11.65	74.54	-47.4	-48.9	19.1	0.00e+00	0	41	0	791674880	66	4290
2026-01-22 09:25:34.69	7.15	73.03	-45.6	-46.8	21.2	0.00e+00	0	41	0	799014912	63	3981
2026-01-22 09:25:38.72	3.44	71.46	-44.9	-45.9	22.1	0.00e+00	0	41	0	806354944	61	4050
2026-01-22 09:25:42.75	0.35	69.85	-46.2	-47.4	20.6	0.00e+00	0	41	0	814743552	63	4289
2026-01-22 09:25:46.79	357.74	68.22	-48.6	-50.5	17.7	0.00e+00	0	41	0	822083584	67	4825
2026-01-22 09:25:50.82	355.54	66.59	-47.7	-49.3	18.9	0.00e+00	0	41	0	829423616	67	4210
2026-01-22 09:25:54.86	353.65	64.96	-45.5	-46.6	21.4	0.00e+00	0	41	0	836763648	62	4130
2026-01-22 09:25:58.89	352.01	63.35	-44.1	-45.1	22.8	0.00e+00	0	41	0	844103680	60	3886
2026-01-22 09:26:02.92	350.59	61.75	-44.4	-45.5	22.4	0.00e+00	0	41	0	852492288	60	4076
2026-01-22 09:26:06.95	349.34	60.18	-46.0	-47.2	20.9	0.00e+00	0	41	0	859832320	62	4426
2026-01-22 09:26:10.98	348.24	58.64	-48.8	-50.7	17.6	0.00e+00	0	41	0	867172352	68	4677
2026-01-22 09:26:15.01	347.25	57.13	-47.7	-49.4	18.7	0.00e+00	0	41	0	874512384	67	4255
2026-01-22 09:26:19.04	346.37	55.65	-46.1	-47.4	20.6	0.00e+00	0	41	0	881852416	64	4010
2026-01-22 09:26:23.07	345.58	54.20	-44.3	-45.3	22.6	0.00e+00	0	41	0	890241024	60	3990
2026-01-22 09:26:27.11	344.87	52.78	-44.6	-45.7	22.2	0.00e+00	0	41	0	897581056	60	4165
2026-01-22 09:26:31.14	344.22	51.41	-44.9	-46.0	21.9	0.00e+00	0	41	0	904921088	60	4324
2026-01-22 09:26:35.17	343.63	50.06	-48.0	-49.7	18.3	0.00e+00	0	41	0	912261120	66	4687
2026-01-22 09:26:39.20	343.09	48.76	-48.7	-50.7	17.5	0.00e+00	0	41	0	919601152	68	4677
2026-01-22 09:26:43.23	342.60	47.49	-49.5	-51.8	16.4	0.00e+00	0	41	0	927989760	69	5009
2026-01-22 09:26:47.26	342.14	46.25	-47.5	-49.1	18.8	0.00e+00	0	41	0	935329792	67	4116
2026-01-22 09:26:51.29	341.72	45.05	-47.2	-48.8	19.2	0.00e+00	0	41	0	942669824	65	4448
2026-01-22 09:26:55.33	341.33	43.88	-48.6	-50.5	17.5	0.00e+00	0	41	0	950009856	67	4848
2026-01-22 09:26:59.36	340.97	42.74	-47.7	-49.3	18.6	0.00e+00	0	41	0	958398464	67	4239
2026-01-22 09:27:03.39	340.64	41.64	-47.7	-49.3	18.6	0.00e+00	0	41	0	965738496	66	4472
2026-01-22 09:27:07.42	340.33	40.57	-48.5	-50.4	17.5	0.00e+00	0	41	0	973078528	67	4801
2026-01-22 09:27:11.46	340.03	39.52	-48.2	-50.0	17.9	0.00e+00	0	41	0	980418560	67	4575
2026-01-22 09:27:15.49	339.76	38.51	-47.9	-49.7	18.2	0.00e+00	0	41	0	987758592	67	4404
2026-01-22 09:27:19.52	339.51	37.53	-47.9	-49.6	18.3	0.00e+00	0	41	0	995098624	67	4359
2026-01-22 09:27:23.55	339.27	36.57	-47.2	-48.7	19.1	0.00e+00	0	41	0	1003487232	66	4168
2026-01-22 09:27:27.58	339.04	35.64	-46.8	-48.3	19.5	0.00e+00	0	41	0	1010827264	65	4206
2026-01-22 09:27:31.62	338.83	34.74	-46.7	-48.2	19.7	0.00e+00	0	41	0	1018167296	65	4152
2026-01-22 09:27:35.65	338.63	33.86	-46.8	-48.3	19.5	0.00e+00	0	41	0	1025507328	65	4200
2026-01-22 09:27:39.68	338.44	33.00	-48.2	-50.1	17.8	0.00e+00	0	41	0	1033895936	66	4882
2026-01-22 09:27:43.71	338.26	32.17	-48.8	-50.9	17.0	0.00e+00	0	41	0	1041235968	68	4775
2026-01-22 09:27:47.74	338.09	31.36	-48.0	-49.8	18.1	0.00e+00	0	41	0	1048576000	68	4197
2026-01-22 09:27:51.78	337.93	30.58	-47.5	-49.2	18.6	0.00e+00	0	41	0	1055916032	66	4394
2026-01-22 09:27:55.80	337.78	29.81	-47.4	-49.0	18.7	0.00e+00	0	41	0	1063256064	66	4333
2026-01-22 09:27:59.84	337.63	29.06	-47.7	-49.5	18.2	0.00e+00	0	41	0	1071644672	66	4567
2026-01-22 09:28:03.87	337.50	28.33	-47.3	-49.0	18.7	0.00e+00	0	41	0	1078984704	66	4293
2026-01-22 09:28:07.90	337.37	27.63	-46.9	-48.4	19.2	0.00e+00	0	41	0	1086324736	65	4282
2026-01-22 09:28:11.93	337.24	26.93	-46.7	-48.2	19.4	0.00e+00	0	41	0	1093664768	65	4166
2026-01-22 09:28:15.96	337.12	26.26	-46.4	-47.8	19.7	0.00e+00	0	41	0	1102053376	64	4237
2026-01-22 09:28:19.99	337.01	25.60	-46.3	-47.7	19.8	0.00e+00	0	41	0	1109393408	64	4176
2026-01-22 09:28:24.02	336.90	24.96	-46.3	-47.7	19.9	0.00e+00	0	41	0	1116733440	64	4163
2026-01-22 09:28:28.06	336.80	24.33	-46.3	-47.7	19.8	0.00e+00	0	41	0	1124073472	64	4161
2026-01-22 09:28:32.09	336.70	23.72	-46.1	-47.5	20.0	0.00e+00	0	41	0	1131413504	64	4092
2026-01-22 09:28:36.13	336.61	23.12	-46.2	-47.6	19.9	0.00e+00	0	41	0	1139802112	64	4109
2026-01-22 09:28:40.16	336.52	22.53	-46.1	-47.5	20.0	0.00e+00	0	41	0	1147142144	64	4059
2026-01-22 09:28:44.19	336.44	21.96	-45.9	-47.3	20.2	0.00e+00	0	41	0	1154482176	63	4211
2026-01-22 09:28:48.22	336.35	21.40	-45.8	-47.1	20.4	0.00e+00	0	41	0	1161822208	63	4140
2026-01-22 09:28:52.25	336.27	20.85	-45.9	-47.2	20.3	0.00e+00	0	41	0	1169162240	63	4193
2026-01-22 09:28:56.29	336.20	20.32	-46.1	-47.5	20.0	0.00e+00	0	41	0	1177550848	63	4327
2026-01-22 09:29:00.32	336.13	19.79	-46.4	-47.8	19.7	0.00e+00	0	41	0	1184890880	63	4480
2026-01-22 09:29:04.35	336.06	19.28	-46.4	-47.9	19.6	0.00e+00	0	41	0	1192230912	63	4513
2026-01-22 09:29:08.38	335.99	18.78	-46.5	-48.0	19.5	0.00e+00	0	41	0	1199570944	63	4568
2026-01-22 09:29:12.41	335.93	18.28	-46.7	-48.2	19.3	0.00e+00	0	41	0	1206910976	63	4697
2026-01-22 09:29:16.44	335.87	17.80	-46.7	-48.2	19.3	0.00e+00	0	41	0	1215299584	63	4672
2026-01-22 09:29:20.48	335.81	17.32	-46.7	-48.2	19.1	0.00e+00	0	41	0	1222639616	64	4436
2026-01-22 09:29:24.50	335.75	16.86	-46.8	-48.4	18.9	0.00e+00	0	41	0	1229979648	64	4526
2026-01-22 09:29:28.54	335.70	16.40	-47.0	-48.6	18.7	0.00e+00	0	41	0	1237319680	64	4635
2026-01-22 09:29:32.57	335.64	15.95	-47.2	-48.9	18.4	0.00e+00	0	41	0	1244659712	64	4765
2026-01-22 09:29:36.60	335.59	15.51	-47.1	-48.8	18.5	0.00e+00	0	41	0	1253048320	64	4712
2026-01-22 09:29:40.63	335.55	15.08	-47.0	-48.7	18.6	0.00e+00	0	41	0	1260388352	64	4679
2026-01-22 09:29:44.66	335.50	14.65	-47.1	-48.8	18.5	0.00e+00	0	41	0	1267728384	64	4707
2026-01-22 09:29:48.69	335.46	14.24	-47.0	-48.6	18.6	0.00e+00	0	41	0	1275068416	64	4629
2026-01-22 09:29:52.73	335.41	13.83	-47.0	-48.7	18.5	0.00e+00	0	41	0	1283457024	64	4676
2026-01-22 09:29:56.76	335.37	13.42	-47.1	-48.8	18.4	0.00e+00	0	41	0	1290797056	64	4742
2026-01-22 09:30:00.80	335.33	13.02	-47.0	-48.7	18.5	0.00e+00	0	41	0	1298137088	65	4420
2026-01-22 09:30:04.83	335.29	12.63	-47.0	-48.7	18.5	0.00e+00	0	41	0	1305477120	65	4410
2026-01-22 09:30:08.86	335.26	12.25	-47.3	-49.1	18.1	0.00e+00	0	41	0	1312817152	65	4623
2026-01-22 09:30:12.89	335.22	11.87	-47.3	-49.0	18.1	0.00e+00	0	41	0	1321205760	65	4589
2026-01-22 09:30:16.93	335.19	11.50	-47.4	-49.3	17.8	0.00e+00	0	41	0	1328545792	65	4729
2026-01-22 09:30:20.96	335.15	11.13	-47.5	-49.4	17.7	0.00e+00	0	41	0	1335885824	65	4808
2026-01-22 09:30:24.99	335.12	10.77	-47.7	-49.7	17.4	0.00e+00	0	41	0	1343225856	66	4666
2026-01-22 09:30:29.02	335.09	10.41	-47.8	-49.8	17.2	0.00e+00	0	41	0	1350565888	66	4748
2026-01-22 09:30:33.06	335.06	10.06	-47.8	-49.8	17.2	0.00e+00	0	41	0	1358954496	66	4757
2026-01-22 09:30:37.09	335.04	9.71	-47.9	-50.0	17.0	0.00e+00	0	41	0	1366294528	66	4820
2026-01-22 09:30:41.12	335.01	9.37	-47.8	-49.9	17.1	0.00e+00	0	41	0	1373634560	66	4775
2026-01-22 09:30:45.16	334.98	9.03	-47.6	-49.6	17.3	0.00e+00	0	41	0	1380974592	66	4626
2026-01-22 09:30:49.19	334.96	8.70	-47.8	-49.8	17.1	0.00e+00	0	41	0	1388314624	66	4751
2026-01-22 09:30:53.22	334.93	8.37	-47.6	-49.6	17.2	0.00e+00	0	41	0	1396703232	66	4620
2026-01-22 09:30:57.26	334.91	8.04	-47.4	-49.3	17.5	0.00e+00	0	41	0	1404043264	66	4493
2026-01-22 09:31:01.29	334.89	7.72	-47.9	-50.0	16.7	0.00e+00	0	41	0	1411383296	66	4849
2026-01-22 09:31:05.32	334.87	7.41	-47.6	-49.6	17.1	0.00e+00	0	41	0	1418723328	66	4625
2026-01-22 09:31:09.35	334.85	7.09	-47.4	-49.4	17.3	0.00e+00	0	41	0	1427111936	66	4499
2026-01-22 09:31:13.39	334.83	6.79	-47.4	-49.4	17.3	0.00e+00	0	41	0	1434451968	66	4521
2026-01-22 09:31:17.42	334.81	6.48	-47.5	-49.5	17.1	0.00e+00	0	41	0	1441792000	66	4574
2026-01-22 09:31:21.45	334.79	6.18	-47.4	-49.4	17.2	0.00e+00	0	41	0	1449132032	66	4517
2026-01-22 09:31:25.49	334.77	5.88	-47.5	-49.5	17.0	0.00e+00	0	41	0	1456472064	66	4580
2026-01-22 09:31:29.52	334.75	5.59	-47.2	-49.2	17.3	0.00e+00	0	41	0	1464860672	66	4407
2026-01-22 09:31:33.56	334.74	5.29	-47.8	-50.2	16.1	0.00e+00	0	41	0	1472200704	66	4938
2026-01-22 09:31:37.59	334.72	5.01	-49.6	-53.3	13.3	0.00e+00	0	41	0	1479540736	69	5989
2026-01-22 09:31:41.62	334.71	4.72	-53.4	-68.4	3.8	1.49e+00	0	41	104	1479540736	77	21467
2026-01-22 09:31:45.66	334.69	4.44	-53.6	-68.7	3.8	1.49e+00	0	41	104	1479540736	77	22067
2026-01-22 09:31:49.68	334.68	4.16	-53.5	-68.5	3.8	1.49e+00	0	41	104	1479540736	77	21524
2026-01-22 09:31:53.72	334.67	3.88	-53.5	-68.5	3.8	1.49e+00	0	41	104	1479540736	77	21723
2026-01-22 09:31:57.75	334.65	3.61	-53.6	-68.7	3.8	1.49e+00	0	41	104	1479540736	77	22014
2026-01-22 09:32:01.78	334.64	3.34	-53.6	-68.6	3.8	1.49e+00	0	41	104	1479540736	77	21876
2026-01-22 09:32:05.81	334.63	3.07	-53.6	-68.5	3.8	1.49e+00	0	41	104	1479540736	77	21747
2026-01-22 09:32:09.85	334.62	2.80	-53.5	-68.6	3.8	1.49e+00	0	41	104	1479540736	77	21779
2026-01-22 09:32:13.88	334.61	2.54	-53.5	-68.5	3.8	1.49e+00	0	41	104	1479540736	77	21727
2026-01-22 09:32:17.91	334.60	2.28	-53.5	-68.5	3.8	1.49e+00	0	41	104	1479540736	77	21628
2026-01-22 09:32:21.95	334.59	2.02	-53.5	-68.5	3.8	1.49e+00	0	41	104	1479540736	77	21671

#Closed at: 2026-01-22 09:32:24
#Recorded file [1479 MB]: D:/lorett/data/31041_260122_121754.dat