passes_logs/2026/01/22/R3.2S_Murmansk/R3.2S_Murmansk__20260122_231659_AQUA_rec.log

#Pass ID: 20260122_231659_AQUA
#Satellite: AQUA
#Configuration: AQUA
#almurnet v.1.7.20251203
#Start time: 2026-01-22 23:17:01

#Version: 2.2.20231116
#Station: R3.2S_Murmansk
#Location: 33.079688 lon 68.888172 lat
#TLE: 1 27424U 02022A   26022.49486490  .00002153  00000+0  44069-3 0  9997
#TLE: 2 27424  98.4099 349.0485 0001970  69.5876  43.4746 14.61847233261984

#Time	Az	El	Level	Level2	SNR	BER	BlckErr	Temp	State	Recorded	gain1	gain2
2026-01-22 23:17:01.34	22.42	2.09	-55.8	-73.7	3.8	7.44e-01	0	43	0	0	82	29416
2026-01-22 23:17:04.36	22.75	2.23	-55.9	-73.8	3.8	7.44e-01	0	43	104	0	82	29770
2026-01-22 23:17:07.38	23.08	2.38	-55.9	-73.7	3.8	7.47e-01	0	43	104	0	82	29514
2026-01-22 23:17:10.41	23.42	2.52	-55.8	-73.6	3.8	7.43e-01	0	43	104	0	82	29150
2026-01-22 23:17:13.43	23.76	2.66	-55.7	-73.5	3.8	7.46e-01	0	43	104	0	82	28805
2026-01-22 23:17:16.46	24.10	2.80	-55.4	-73.3	3.8	7.45e-01	0	43	104	0	82	28120
2026-01-22 23:17:19.49	24.45	2.94	-55.1	-72.9	3.8	7.46e-01	0	43	104	0	82	26976
2026-01-22 23:17:22.51	24.80	3.08	-54.0	-71.8	3.8	7.43e-01	0	43	104	0	80	26546
2026-01-22 23:17:25.53	25.15	3.22	-54.0	-71.8	3.8	7.43e-01	0	43	104	0	80	26646
2026-01-22 23:17:28.56	25.51	3.37	-54.0	-71.8	3.8	7.48e-01	0	43	104	0	80	26723
2026-01-22 23:17:31.58	25.87	3.51	-54.0	-71.8	3.8	7.45e-01	0	43	104	0	80	26665
2026-01-22 23:17:34.61	26.24	3.65	-54.0	-71.8	3.8	7.44e-01	0	43	104	0	80	26619
2026-01-22 23:17:37.64	26.61	3.79	-54.0	-71.8	3.8	7.46e-01	0	43	104	0	80	26654
2026-01-22 23:17:40.66	26.98	3.93	-54.0	-71.8	3.8	7.45e-01	0	43	104	0	80	26536
2026-01-22 23:17:43.68	27.35	4.07	-54.0	-71.8	3.8	7.44e-01	0	43	104	0	80	26580
2026-01-22 23:17:46.71	27.73	4.21	-54.0	-71.8	3.8	7.46e-01	0	43	104	0	80	26550
2026-01-22 23:17:49.73	28.12	4.35	-54.0	-71.8	3.8	7.48e-01	0	43	104	0	79	28097
2026-01-22 23:17:52.76	28.51	4.50	-53.8	-70.7	3.8	7.46e-01	0	43	104	0	79	24789
2026-01-22 23:17:55.78	28.90	4.64	-53.6	-69.8	3.8	7.44e-01	0	43	104	0	79	22292
2026-01-22 23:17:58.81	29.29	4.78	-51.4	-64.3	3.8	7.41e-01	0	44	104	0	74	15862
2026-01-22 23:18:01.84	29.69	4.92	-50.4	-62.8	3.8	7.43e-01	0	43	104	0	72	14913
2026-01-22 23:18:04.86	30.10	5.06	-52.0	-65.5	3.8	7.40e-01	0	43	104	0	75	17124
2026-01-22 23:18:07.89	30.51	5.20	-53.9	-71.5	3.8	7.47e-01	0	43	104	0	78	28897
2026-01-22 23:18:10.91	30.92	5.33	-47.5	-58.7	3.8	7.45e-01	0	43	104	0	65	13955
2026-01-22 23:18:13.93	31.33	5.47	-50.0	-62.0	3.8	7.45e-01	0	44	104	0	70	15272
2026-01-22 23:18:16.96	31.75	5.61	-47.1	-58.2	3.8	7.45e-01	0	43	104	0	66	12433
2026-01-22 23:18:19.99	32.18	5.75	-46.9	-58.0	3.8	7.44e-01	0	44	104	0	65	12907
2026-01-22 23:18:23.01	32.61	5.89	-54.0	-71.0	3.8	7.46e-01	0	43	104	0	78	27335
2026-01-22 23:18:26.03	33.04	6.02	-46.6	-57.7	3.8	7.44e-01	0	43	104	0	65	12443
2026-01-22 23:18:29.06	33.48	6.16	-46.8	-57.8	3.8	7.42e-01	0	43	104	0	65	12658
2026-01-22 23:18:32.09	33.92	6.30	-46.9	-58.0	3.8	7.41e-01	0	44	104	0	65	12874
2026-01-22 23:18:35.11	34.36	6.43	-46.7	-57.7	3.8	7.43e-01	0	44	104	0	65	12501
2026-01-22 23:18:38.13	34.81	6.57	-47.7	-58.9	3.8	7.45e-01	0	43	104	0	65	14273
2026-01-22 23:18:41.15	35.27	6.70	-51.8	-64.9	3.8	7.45e-01	0	44	104	0	74	17080
2026-01-22 23:18:44.18	35.73	6.84	-46.5	-57.5	3.8	7.45e-01	0	44	104	0	64	12949
2026-01-22 23:18:47.20	36.19	6.97	-54.3	-71.9	3.8	7.42e-01	0	43	104	0	79	28657
2026-01-22 23:18:50.23	36.66	7.10	-46.2	-57.2	3.8	7.45e-01	0	43	104	0	64	12384
2026-01-22 23:18:53.25	37.13	7.23	-48.6	-60.1	3.8	7.45e-01	0	43	104	0	69	12980
2026-01-22 23:18:56.28	37.61	7.36	-46.0	-56.9	3.8	7.45e-01	0	43	104	0	63	12743
2026-01-22 23:18:59.30	38.09	7.49	-46.3	-57.3	3.8	7.42e-01	0	43	104	0	64	12553
2026-01-22 23:19:02.33	38.58	7.62	-47.4	-58.5	3.8	7.45e-01	0	43	104	0	65	13638
2026-01-22 23:19:05.35	39.06	7.75	-49.7	-61.6	3.9	7.46e-01	0	44	104	0	71	13823
2026-01-22 23:19:08.37	39.56	7.88	-46.2	-57.1	3.8	7.42e-01	0	43	104	0	64	12331
2026-01-22 23:19:11.40	40.06	8.00	-53.8	-70.0	3.9	7.41e-01	0	43	104	0	79	22964
2026-01-22 23:19:14.42	40.56	8.13	-45.9	-56.8	3.8	7.39e-01	0	43	104	0	63	12598
2026-01-22 23:19:17.45	41.07	8.25	-46.9	-57.7	3.9	7.44e-01	0	43	104	0	65	12403
2026-01-22 23:19:20.47	41.59	8.38	-46.4	-57.4	3.8	7.47e-01	0	43	104	0	63	13421
2026-01-22 23:19:23.49	42.10	8.50	-46.0	-56.9	3.8	7.44e-01	0	44	104	0	63	12689
2026-01-22 23:19:26.52	42.63	8.62	-49.7	-61.4	3.8	7.48e-01	0	43	104	0	69	15112
2026-01-22 23:19:29.55	43.15	8.74	-46.7	-57.7	3.9	7.43e-01	0	43	104	0	65	12515
2026-01-22 23:19:32.57	43.68	8.85	-47.5	-58.6	3.8	7.45e-01	0	44	104	0	65	13811
2026-01-22 23:19:35.60	44.22	8.97	-48.5	-60.0	3.9	7.46e-01	0	43	104	0	69	12889
2026-01-22 23:19:38.63	44.76	9.09	-45.7	-56.6	3.9	7.45e-01	0	44	104	0	63	12274
2026-01-22 23:19:41.65	45.31	9.20	-45.8	-56.7	3.9	7.41e-01	0	44	104	0	63	12392
2026-01-22 23:19:44.68	45.86	9.31	-48.6	-59.8	3.8	7.43e-01	0	43	104	0	67	14157
2026-01-22 23:19:47.70	46.41	9.42	-45.7	-56.5	3.8	7.44e-01	0	44	104	0	63	12160
2026-01-22 23:19:50.73	46.97	9.53	-54.0	-69.6	3.7	7.48e-01	0	44	104	0	78	23203
2026-01-22 23:19:53.75	47.53	9.64	-45.6	-56.3	3.8	7.43e-01	0	43	104	0	63	11948
2026-01-22 23:19:56.77	48.10	9.74	-50.2	-62.2	3.9	7.50e-01	0	43	104	0	70	15682
2026-01-22 23:19:59.80	48.67	9.84	-46.0	-56.8	3.8	7.47e-01	0	44	104	0	64	11882
2026-01-22 23:20:02.82	49.24	9.94	-45.5	-56.4	3.8	7.41e-01	0	44	104	0	63	12030
2026-01-22 23:20:05.85	49.83	10.04	-45.7	-56.5	3.8	7.42e-01	0	43	104	0	62	12933
2026-01-22 23:20:08.87	50.41	10.14	-50.5	-62.4	3.8	7.41e-01	0	44	104	0	71	15198
2026-01-22 23:20:11.89	51.00	10.24	-45.5	-56.3	3.8	7.43e-01	0	44	104	0	62	12626
2026-01-22 23:20:14.91	51.59	10.33	-54.5	-72.1	3.8	7.43e-01	0	43	104	0	79	29264
2026-01-22 23:20:17.94	52.18	10.42	-45.3	-56.2	3.8	7.41e-01	0	43	104	0	62	12426
2026-01-22 23:20:20.97	52.78	10.51	-50.3	-62.3	3.9	7.46e-01	0	43	104	0	71	15002
2026-01-22 23:20:23.99	53.39	10.59	-46.0	-56.8	3.8	7.45e-01	0	44	104	0	63	12577
2026-01-22 23:20:27.02	53.99	10.68	-45.1	-55.9	3.8	7.46e-01	0	44	104	0	62	12081
2026-01-22 23:20:30.04	54.60	10.76	-46.1	-57.1	3.8	7.46e-01	0	44	104	0	62	13727
2026-01-22 23:20:33.07	55.22	10.84	-51.2	-63.8	3.8	7.41e-01	0	44	104	0	73	15818
2026-01-22 23:20:36.09	55.84	10.92	-45.1	-55.9	3.8	7.42e-01	0	44	104	0	62	12040
2026-01-22 23:20:39.11	56.46	10.99	-54.5	-72.1	3.8	7.44e-01	0	43	104	0	79	29137
2026-01-22 23:20:42.14	57.08	11.06	-45.2	-56.0	3.8	7.41e-01	0	43	104	0	62	12170
2026-01-22 23:20:45.16	57.71	11.13	-48.2	-59.5	3.9	7.44e-01	0	44	104	0	68	12922
2026-01-22 23:20:48.18	58.34	11.20	-45.3	-56.1	3.9	7.41e-01	0	44	104	0	62	12349
2026-01-22 23:20:51.21	58.97	11.26	-45.1	-55.9	3.8	7.44e-01	0	44	104	0	62	12003
2026-01-22 23:20:54.24	59.61	11.32	-46.1	-57.0	3.8	7.50e-01	0	43	104	0	62	13658
2026-01-22 23:20:57.26	60.25	11.38	-49.6	-61.3	3.9	7.46e-01	0	44	104	0	71	13272
2026-01-22 23:21:00.29	60.89	11.43	-45.2	-56.0	3.8	7.46e-01	0	44	104	0	62	12140
2026-01-22 23:21:03.31	61.54	11.48	-54.3	-71.1	3.8	7.47e-01	0	44	104	0	79	26152
2026-01-22 23:21:06.34	62.18	11.53	-44.7	-45.9	25.5	6.04e-01	0	44	0	2621440	61	4026
2026-01-22 23:21:09.36	62.83	11.58	-44.6	-45.8	25.4	6.04e-01	0	44	0	8388608	61	3994
2026-01-22 23:21:12.39	63.48	11.62	-44.7	-45.9	25.6	6.04e-01	0	44	0	13631488	61	4029
2026-01-22 23:21:15.42	64.14	11.66	-44.5	-45.7	25.7	6.05e-01	0	44	0	19398656	60	4191
2026-01-22 23:21:18.44	64.79	11.70	-44.6	-45.8	25.7	6.02e-01	0	44	0	25165824	60	4202
2026-01-22 23:21:21.47	65.45	11.73	-44.7	-46.0	25.4	6.04e-01	0	44	0	30932992	60	4295
2026-01-22 23:21:24.49	66.11	11.76	-44.5	-45.7	25.7	6.02e-01	0	44	0	36700160	60	4161
2026-01-22 23:21:27.51	66.76	11.79	-44.7	-45.9	25.6	6.00e-01	0	44	0	41943040	60	4256
2026-01-22 23:21:30.54	67.43	11.81	-44.6	-45.8	25.6	6.02e-01	0	44	0	48234496	60	4221
2026-01-22 23:21:33.57	68.09	11.83	-44.5	-45.7	25.8	6.02e-01	0	44	0	53477376	60	4173
2026-01-22 23:21:36.59	68.75	11.85	-44.6	-45.8	25.7	6.03e-01	0	44	0	59244544	60	4240
2026-01-22 23:21:39.62	69.41	11.86	-44.7	-45.9	25.6	6.03e-01	0	44	0	65011712	60	4268
2026-01-22 23:21:42.65	70.08	11.87	-44.5	-45.7	25.8	6.02e-01	0	44	0	70778880	60	4178
2026-01-22 23:21:45.67	70.74	11.88	-44.6	-45.8	25.5	6.02e-01	0	44	0	76546048	60	4240
2026-01-22 23:21:48.69	71.41	11.89	-44.6	-45.8	25.7	6.03e-01	0	44	0	81788928	60	4201
2026-01-22 23:21:51.72	72.07	11.89	-44.7	-45.9	25.6	6.03e-01	0	44	0	87556096	60	4259
2026-01-22 23:21:54.74	72.74	11.88	-44.7	-45.9	25.6	6.02e-01	0	44	0	93323264	60	4270
2026-01-22 23:21:57.77	73.40	11.88	-44.6	-45.8	25.6	6.03e-01	0	44	0	99090432	60	4237
2026-01-22 23:22:00.79	74.07	11.87	-44.5	-45.7	25.8	6.03e-01	0	44	0	104857600	60	4181
2026-01-22 23:22:03.82	74.73	11.86	-44.6	-45.8	25.7	6.02e-01	0	44	0	110100480	60	4239
2026-01-22 23:22:06.85	75.40	11.84	-44.5	-45.7	25.7	6.02e-01	0	44	0	115867648	60	4162
2026-01-22 23:22:09.87	76.06	11.82	-44.6	-45.8	25.7	6.02e-01	0	44	0	121634816	60	4199
2026-01-22 23:22:12.90	76.72	11.80	-44.5	-45.8	25.7	6.02e-01	0	44	0	127401984	60	4199
2026-01-22 23:22:15.92	77.38	11.78	-44.5	-45.7	25.8	6.03e-01	0	44	0	133169152	60	4174
2026-01-22 23:22:18.94	78.04	11.75	-44.7	-45.9	25.5	6.04e-01	0	44	0	138936320	60	4291
2026-01-22 23:22:21.97	78.70	11.72	-44.6	-45.8	25.7	6.01e-01	0	44	0	144179200	60	4213
2026-01-22 23:22:24.99	79.35	11.68	-44.6	-45.8	25.7	6.03e-01	0	44	0	149946368	60	4214
2026-01-22 23:22:28.02	80.01	11.64	-44.6	-45.8	25.6	6.03e-01	0	44	0	155713536	60	4234
2026-01-22 23:22:31.04	80.66	11.60	-44.6	-45.8	25.6	6.04e-01	0	44	0	161480704	60	4221
2026-01-22 23:22:34.07	81.31	11.56	-44.6	-45.8	25.7	6.03e-01	0	44	0	167247872	60	4234
2026-01-22 23:22:37.09	81.96	11.51	-44.7	-45.9	25.6	6.03e-01	0	44	0	172490752	60	4272
2026-01-22 23:22:40.12	82.61	11.46	-44.7	-45.9	25.5	6.03e-01	0	44	0	178257920	60	4276
2026-01-22 23:22:43.15	83.25	11.41	-44.6	-45.8	25.6	6.03e-01	0	44	0	184025088	60	4225
2026-01-22 23:22:46.17	83.90	11.35	-44.6	-45.9	25.6	6.00e-01	0	44	0	189792256	60	4243
2026-01-22 23:22:49.19	84.53	11.29	-44.8	-46.0	25.4	6.01e-01	0	44	0	195559424	60	4338
2026-01-22 23:22:52.22	85.17	11.23	-44.5	-45.7	25.7	6.02e-01	0	44	0	200802304	60	4169
2026-01-22 23:22:55.25	85.81	11.17	-44.6	-45.8	25.6	6.04e-01	0	44	0	206569472	60	4234
2026-01-22 23:22:58.27	86.44	11.10	-44.7	-45.9	25.5	6.01e-01	0	44	0	212336640	60	4285
2026-01-22 23:23:01.29	87.06	11.03	-44.7	-46.0	25.5	6.03e-01	0	44	0	218103808	60	4298
2026-01-22 23:23:04.32	87.69	10.96	-44.6	-45.9	25.5	6.05e-01	0	44	0	223870976	60	4246
2026-01-22 23:23:07.34	88.31	10.88	-44.7	-46.0	25.4	6.02e-01	0	44	0	229638144	60	4304
2026-01-22 23:23:10.36	88.93	10.80	-44.7	-45.9	25.5	6.01e-01	0	44	0	234881024	60	4267
2026-01-22 23:23:13.39	89.54	10.72	-44.6	-45.8	25.6	6.02e-01	0	44	0	240648192	60	4241
2026-01-22 23:23:16.41	90.15	10.64	-44.7	-45.9	25.5	6.03e-01	0	44	0	246415360	60	4258
2026-01-22 23:23:19.44	90.76	10.56	-44.8	-46.0	25.4	6.04e-01	0	44	0	252182528	60	4328
2026-01-22 23:23:22.46	91.36	10.47	-44.7	-45.9	25.4	6.01e-01	0	44	0	257949696	60	4282
2026-01-22 23:23:25.49	91.96	10.38	-44.7	-45.9	25.5	6.02e-01	0	44	0	263192576	60	4257
2026-01-22 23:23:28.51	92.56	10.29	-44.9	-46.1	25.3	6.03e-01	0	44	0	268959744	60	4372
2026-01-22 23:23:31.53	93.15	10.19	-44.8	-46.0	25.3	6.03e-01	0	44	0	274726912	60	4325
2026-01-22 23:23:34.56	93.74	10.10	-44.7	-45.9	25.4	6.02e-01	0	44	0	280494080	60	4290
2026-01-22 23:23:37.59	94.33	10.00	-44.8	-46.0	25.3	6.03e-01	0	44	0	286261248	60	4332
2026-01-22 23:23:40.61	94.90	9.90	-44.8	-46.0	25.3	6.01e-01	0	44	0	291504128	60	4316
2026-01-22 23:23:43.64	95.48	9.79	-44.8	-46.0	25.3	6.02e-01	0	44	0	297795584	60	4324
2026-01-22 23:23:46.66	96.05	9.69	-44.8	-46.1	25.2	6.03e-01	0	44	0	303038464	60	4343
2026-01-22 23:23:49.69	96.62	9.58	-45.0	-46.3	25.0	6.01e-01	0	44	0	308805632	60	4459
2026-01-22 23:23:52.71	97.18	9.48	-44.9	-46.1	25.2	6.02e-01	0	44	0	314572800	60	4385
2026-01-22 23:23:55.73	97.74	9.37	-44.9	-46.2	25.1	6.03e-01	0	44	0	320339968	60	4395
2026-01-22 23:23:58.76	98.29	9.26	-45.1	-46.4	24.9	6.01e-01	0	44	0	326107136	60	4532
2026-01-22 23:24:01.78	98.84	9.14	-44.9	-46.2	25.1	6.01e-01	0	44	0	331350016	61	4150
2026-01-22 23:24:04.81	99.39	9.03	-45.0	-46.3	25.1	6.04e-01	0	44	0	337117184	61	4198
2026-01-22 23:24:07.83	99.93	8.91	-44.9	-46.2	25.1	6.02e-01	0	44	0	342884352	61	4149
2026-01-22 23:24:10.86	100.47	8.79	-45.0	-46.3	25.0	6.02e-01	0	44	0	348651520	61	4203
2026-01-22 23:24:13.89	101.00	8.68	-45.1	-46.4	24.8	6.03e-01	0	44	0	354418688	61	4289
2026-01-22 23:24:16.91	101.52	8.55	-45.0	-46.3	24.8	6.02e-01	0	44	0	359661568	61	4238
2026-01-22 23:24:19.93	102.05	8.43	-45.1	-46.4	24.9	6.04e-01	0	44	0	365428736	61	4262
2026-01-22 23:24:22.96	102.56	8.31	-45.4	-46.8	24.6	6.02e-01	0	44	0	371195904	61	4463
2026-01-22 23:24:25.98	103.08	8.19	-45.4	-46.7	24.6	6.04e-01	0	44	0	376963072	61	4411
2026-01-22 23:24:29.01	103.59	8.06	-45.2	-46.5	24.8	6.01e-01	0	44	0	382730240	61	4337
2026-01-22 23:24:32.03	104.09	7.93	-45.5	-46.8	24.4	6.02e-01	0	44	0	387973120	61	4486
2026-01-22 23:24:35.05	104.59	7.81	-45.5	-46.8	24.5	6.02e-01	0	44	0	393740288	61	4471
2026-01-22 23:24:38.08	105.09	7.68	-45.7	-47.0	24.2	6.01e-01	0	44	0	399507456	62	4333
2026-01-22 23:24:41.10	105.58	7.55	-45.4	-46.8	24.5	6.02e-01	0	44	0	405274624	62	4200
2026-01-22 23:24:44.12	106.06	7.42	-45.5	-46.8	24.4	6.03e-01	0	44	0	411041792	62	4236
2026-01-22 23:24:47.15	106.54	7.29	-45.9	-47.3	24.0	6.04e-01	0	44	0	416808960	62	4458
2026-01-22 23:24:50.17	107.02	7.16	-45.7	-47.1	24.1	6.03e-01	0	44	0	422051840	62	4348
2026-01-22 23:24:53.20	107.49	7.02	-45.5	-46.9	24.4	6.03e-01	0	44	0	427819008	62	4249
2026-01-22 23:24:56.22	107.96	6.89	-45.7	-47.1	24.2	6.03e-01	0	44	0	433586176	62	4345
2026-01-22 23:24:59.25	108.42	6.75	-45.9	-47.3	24.0	6.04e-01	0	43	0	439353344	62	4461
2026-01-22 23:25:02.28	108.88	6.62	-45.7	-47.1	24.2	6.03e-01	0	44	0	445120512	62	4361
2026-01-22 23:25:05.30	109.34	6.48	-45.6	-46.9	24.3	6.03e-01	0	44	0	450363392	62	4274
2026-01-22 23:25:08.32	109.79	6.35	-45.8	-47.2	24.0	6.04e-01	0	44	0	456130560	62	4417
2026-01-22 23:25:11.34	110.23	6.21	-46.2	-47.6	23.5	6.05e-01	0	44	0	461897728	62	4644
2026-01-22 23:25:14.37	110.67	6.07	-46.2	-47.6	23.6	6.03e-01	0	44	0	467664896	62	4635
2026-01-22 23:25:17.40	111.11	5.94	-46.2	-47.6	23.6	6.03e-01	0	44	0	473432064	63	4376
2026-01-22 23:25:20.42	111.54	5.80	-46.3	-47.7	23.5	6.02e-01	0	44	0	478674944	63	4441
2026-01-22 23:25:23.45	111.97	5.66	-46.2	-47.6	23.5	6.04e-01	0	44	0	484442112	63	4388
2026-01-22 23:25:26.47	112.39	5.52	-46.4	-47.9	23.3	6.02e-01	0	44	0	490209280	63	4534
2026-01-22 23:25:29.49	112.81	5.38	-46.7	-48.3	22.7	6.02e-01	0	44	0	495976448	64	4470
2026-01-22 23:25:32.52	113.23	5.24	-46.7	-48.3	22.8	6.04e-01	0	44	0	501743616	64	4457
2026-01-22 23:25:35.55	113.64	5.10	-46.7	-48.3	22.6	6.01e-01	0	44	0	507510784	64	4481
2026-01-22 23:25:38.57	114.05	4.96	-54.5	-72.2	3.8	7.48e-01	0	44	104	511705088	79	29394
2026-01-22 23:25:41.60	114.45	4.82	-55.1	-72.9	3.8	7.43e-01	0	44	104	511705088	80	30130
2026-01-22 23:25:44.62	114.85	4.68	-55.4	-73.2	3.8	7.46e-01	0	44	104	511705088	81	29417
2026-01-22 23:25:47.65	115.24	4.53	-55.5	-73.2	3.8	7.45e-01	0	44	104	511705088	81	29615
2026-01-22 23:25:50.67	115.63	4.39	-55.6	-73.4	3.8	7.44e-01	0	44	104	511705088	81	30150
2026-01-22 23:25:53.70	116.02	4.25	-55.7	-73.5	3.8	7.46e-01	0	44	104	511705088	81	30511
2026-01-22 23:25:56.73	116.41	4.11	-55.8	-73.6	3.8	7.46e-01	0	44	104	511705088	82	29042
2026-01-22 23:25:59.75	116.78	3.97	-55.8	-73.6	3.8	7.45e-01	0	44	104	511705088	82	29222
2026-01-22 23:26:02.78	117.16	3.82	-55.9	-73.7	3.8	7.50e-01	0	44	104	511705088	82	29425
2026-01-22 23:26:05.80	117.53	3.68	-55.9	-73.7	3.8	7.48e-01	0	44	104	511705088	82	29599
2026-01-22 23:26:08.82	117.90	3.54	-56.0	-73.8	3.8	7.45e-01	0	44	104	511705088	82	29881
2026-01-22 23:26:11.85	118.26	3.40	-56.1	-73.9	3.8	7.47e-01	0	44	104	511705088	82	30178
2026-01-22 23:26:14.88	118.62	3.25	-56.1	-73.9	3.8	7.44e-01	0	44	104	511705088	82	30286
2026-01-22 23:26:17.90	118.98	3.11	-56.1	-73.9	3.8	7.45e-01	0	44	104	511705088	82	30230
2026-01-22 23:26:20.93	119.33	2.97	-56.1	-73.9	3.8	7.47e-01	0	44	104	511705088	82	30154
2026-01-22 23:26:23.95	119.68	2.83	-56.0	-73.8	3.8	7.45e-01	0	44	104	511705088	82	29889
2026-01-22 23:26:26.98	120.03	2.68	-55.9	-73.7	3.8	7.43e-01	0	44	104	511705088	82	29572
2026-01-22 23:26:30.00	120.37	2.54	-55.8	-73.6	3.8	7.46e-01	0	44	104	511705088	82	29123
2026-01-22 23:26:33.03	120.71	2.40	-55.6	-73.4	3.8	7.46e-01	0	44	104	511705088	82	28625
2026-01-22 23:26:36.05	121.05	2.26	-55.2	-73.0	3.8	7.46e-01	0	44	104	511705088	82	27284
2026-01-22 23:26:39.08	121.38	2.11	-55.2	-73.0	3.8	7.44e-01	0	44	104	511705088	82	27132
2026-01-22 23:26:42.10	121.71	1.97	-55.1	-73.0	3.8	7.43e-01	0	44	104	511705088	82	27116

#Closed at: 2026-01-22 23:26:42
#Recorded file [511 MB]: D:/lorett/data/31041_260123_021701.dat