passes_logs/2026/01/22/R3.2S_Murmansk/R3.2S_Murmansk__20260122_204717_JL1KF02B01_rec.log

#Pass ID: 20260122_204717_JL1KF02B01
#Satellite: JL1KF02B01
#Configuration: 01B_900M
#almurnet v.1.7.20251203
#Start time: 2026-01-22 20:47:17

#Version: 2.2.20231116
#Station: R3.2S_Murmansk
#Location: 33.079688 lon 68.888172 lat
#TLE: 1 61191U 24169C   26022.52585609  .00007306  00000+0  45706-3 0  9992
#TLE: 2 61191  97.5703 113.9874 0014621  99.9713 260.3167 15.09623406 73850

#Time	Az	El	Level	Level2	SNR	BER	BlckErr	Temp	State	Recorded	gain1	gain2
2026-01-22 20:47:17.44	182.34	1.98	-55.1	-57.2	6.2	0.00e+00	0	42	0	0	81	18706
2026-01-22 20:47:20.46	182.49	2.19	-55.4	-57.5	6.2	0.00e+00	0	42	104	0	82	18229
2026-01-22 20:47:23.48	182.63	2.39	-55.3	-57.4	6.2	0.00e+00	0	43	104	0	82	18085
2026-01-22 20:47:26.51	182.77	2.60	-55.2	-57.3	6.2	0.00e+00	0	43	104	0	82	17846
2026-01-22 20:47:29.53	182.92	2.81	-55.1	-57.2	6.2	0.00e+00	0	43	104	0	82	17597
2026-01-22 20:47:32.56	183.07	3.02	-54.9	-57.0	6.2	0.00e+00	0	43	104	0	81	18218
2026-01-22 20:47:35.58	183.23	3.23	-54.6	-56.7	6.2	0.00e+00	0	43	104	0	81	17686
2026-01-22 20:47:38.61	183.38	3.45	-54.1	-56.1	6.2	0.00e+00	0	43	104	0	80	17545
2026-01-22 20:47:41.63	183.54	3.66	-53.7	-55.8	6.2	0.00e+00	0	43	104	0	79	17961
2026-01-22 20:47:44.66	183.70	3.88	-53.7	-55.8	6.2	0.00e+00	0	43	104	0	79	17825
2026-01-22 20:47:47.68	183.87	4.10	-53.7	-55.8	6.2	0.00e+00	0	43	104	0	79	17830
2026-01-22 20:47:50.71	184.04	4.33	-53.7	-55.8	6.2	0.00e+00	0	43	104	0	79	17782
2026-01-22 20:47:53.73	184.21	4.55	-53.6	-55.7	6.2	0.00e+00	0	44	104	0	79	17748
2026-01-22 20:47:56.75	184.38	4.78	-53.6	-55.8	6.2	0.00e+00	0	43	104	0	79	17802
2026-01-22 20:47:59.78	184.56	5.01	-53.6	-55.8	6.2	0.00e+00	0	43	104	0	79	17774
2026-01-22 20:48:02.80	184.73	5.24	-53.6	-55.8	6.2	0.00e+00	0	43	104	0	79	17826
2026-01-22 20:48:05.83	184.92	5.48	-53.8	-55.9	6.2	0.00e+00	0	43	104	0	79	18007
2026-01-22 20:48:08.85	185.10	5.72	-53.7	-55.8	6.2	0.00e+00	0	44	104	0	79	17971
2026-01-22 20:48:11.87	185.29	5.96	-53.6	-55.7	6.2	0.00e+00	0	44	104	0	79	17657
2026-01-22 20:48:14.90	185.49	6.20	-53.6	-55.7	6.2	0.00e+00	0	44	104	0	79	17736
2026-01-22 20:48:17.92	185.69	6.44	-53.8	-55.9	6.2	0.00e+00	0	44	104	0	79	18028
2026-01-22 20:48:20.95	185.89	6.69	-53.8	-55.9	6.2	0.00e+00	0	44	104	0	79	18080
2026-01-22 20:48:23.97	186.09	6.94	-53.7	-55.8	6.2	0.00e+00	0	44	104	0	79	17810
2026-01-22 20:48:26.99	186.30	7.20	-53.7	-55.8	6.2	0.00e+00	0	44	104	0	79	17945
2026-01-22 20:48:30.01	186.51	7.45	-53.8	-56.0	6.2	0.00e+00	0	44	104	0	79	18180
2026-01-22 20:48:33.04	186.73	7.72	-53.8	-55.9	6.2	0.00e+00	0	44	104	0	79	18162
2026-01-22 20:48:36.06	186.96	7.98	-53.7	-55.8	6.2	0.00e+00	0	44	104	0	79	17971
2026-01-22 20:48:39.08	187.18	8.25	-53.8	-55.9	6.2	0.00e+00	0	44	104	0	79	17996
2026-01-22 20:48:42.11	187.42	8.52	-46.3	-46.7	6.4	0.00e+00	0	44	104	0	64	14907
2026-01-22 20:48:45.13	187.65	8.79	-46.4	-46.8	6.3	0.00e+00	0	44	104	0	63	15908
2026-01-22 20:48:48.15	187.90	9.07	-48.5	-49.1	6.3	0.00e+00	0	44	104	0	69	14750
2026-01-22 20:48:51.18	188.14	9.35	-45.8	-46.2	6.3	0.00e+00	0	44	104	0	63	14808
2026-01-22 20:48:54.21	188.40	9.63	-48.6	-49.2	6.2	0.00e+00	0	44	104	0	69	14854
2026-01-22 20:48:57.23	188.66	9.92	-37.5	-37.3	14.6	5.76e-04	0	44	0	109051904	47	13448
2026-01-22 20:49:00.25	188.92	10.22	-29.4	-29.3	16.6	3.80e-06	0	44	0	461373440	30	14172
2026-01-22 20:49:03.27	189.19	10.51	-29.5	-29.3	16.7	1.90e-06	0	44	0	796917760	30	14220
2026-01-22 20:49:06.30	189.47	10.81	-29.4	-29.3	16.6	1.90e-06	0	44	0	1140850688	30	14116
2026-01-22 20:49:09.32	189.76	11.12	-28.9	-28.7	16.8	7.60e-06	0	45	0	1476395008	29	14064
2026-01-22 20:49:12.34	190.05	11.43	-28.7	-28.6	16.8	3.80e-06	0	45	0	1820327936	29	13817
2026-01-22 20:49:15.37	190.35	11.74	-28.7	-28.5	16.9	1.90e-06	0	45	0	2164260864	29	13767
2026-01-22 20:49:18.39	190.65	12.06	-28.6	-28.4	16.9	0.00e+00	0	45	0	2499805184	29	13608
2026-01-22 20:49:21.41	190.97	12.38	-28.4	-28.2	17.1	0.00e+00	0	45	0	2835349504	28	14039
2026-01-22 20:49:24.44	191.29	12.71	-28.0	-27.9	17.1	0.00e+00	0	45	0	3187671040	28	13537
2026-01-22 20:49:27.46	191.62	13.05	-28.1	-28.0	17.1	0.00e+00	0	45	0	3523215360	28	13691
2026-01-22 20:49:30.49	191.96	13.39	-28.0	-27.8	17.2	1.90e-06	0	45	0	3858759680	27	14199
2026-01-22 20:49:33.51	192.31	13.73	-27.8	-27.7	17.4	3.80e-06	0	45	0	4194304000	27	14020
2026-01-22 20:49:36.53	192.66	14.08	-27.8	-27.6	17.4	0.00e+00	0	45	0	4546625536	27	13925
2026-01-22 20:49:39.56	193.03	14.44	-27.6	-27.5	17.5	0.00e+00	0	45	0	4882169856	27	13635
2026-01-22 20:49:42.59	193.41	14.80	-27.5	-27.3	17.5	0.00e+00	0	45	0	5217714176	27	13469
2026-01-22 20:49:45.61	193.80	15.16	-27.2	-27.1	17.5	0.00e+00	0	45	0	5561647104	26	13839
2026-01-22 20:49:48.64	194.20	15.54	-27.2	-27.1	17.7	1.90e-06	0	45	0	5905580032	26	13824
2026-01-22 20:49:51.66	194.61	15.92	-27.1	-26.9	17.5	0.00e+00	0	45	0	6241124352	26	13585
2026-01-22 20:49:54.69	195.03	16.30	-26.8	-26.6	17.7	0.00e+00	0	45	0	6585057280	25	13947
2026-01-22 20:49:57.71	195.46	16.69	-26.8	-26.7	17.6	0.00e+00	0	45	0	6920601600	25	13985
2026-01-22 20:50:00.73	195.91	17.09	-26.5	-26.4	17.5	0.00e+00	0	45	0	7256145920	25	13504
2026-01-22 20:50:03.76	196.37	17.50	-26.4	-26.3	17.5	0.00e+00	0	45	0	7608467456	24	14175
2026-01-22 20:50:06.78	196.84	17.91	-26.2	-26.0	17.7	0.00e+00	0	45	0	7944011776	24	13711
2026-01-22 20:50:09.81	197.33	18.33	-26.1	-25.9	17.9	0.00e+00	0	45	0	8279556096	24	13551
2026-01-22 20:50:12.83	197.84	18.75	-26.0	-25.8	17.7	0.00e+00	0	45	0	8615100416	23	14203
2026-01-22 20:50:15.85	198.36	19.19	-25.7	-25.5	18.1	0.00e+00	0	45	0	8967421952	23	13773
2026-01-22 20:50:18.88	198.90	19.63	-25.7	-25.6	18.0	0.00e+00	0	45	0	9302966272	23	13826
2026-01-22 20:50:21.91	199.45	20.08	-25.4	-25.2	18.2	0.00e+00	0	45	0	9638510592	22	14077
2026-01-22 20:50:24.93	200.02	20.53	-25.5	-25.3	18.3	0.00e+00	0	45	0	9990832128	22	14269
2026-01-22 20:50:27.96	200.62	21.00	-25.2	-25.0	18.4	0.00e+00	0	45	0	10326376448	22	13754
2026-01-22 20:50:30.99	201.23	21.47	-24.9	-24.8	18.5	0.00e+00	0	45	0	10661920768	21	14138
2026-01-22 20:50:34.01	201.86	21.95	-24.7	-24.5	18.3	0.00e+00	0	45	0	11005853696	21	13773
2026-01-22 20:50:37.04	202.52	22.43	-24.6	-24.5	18.3	0.00e+00	0	45	0	11349786624	21	13675
2026-01-22 20:50:40.06	203.20	22.93	-24.4	-24.2	18.4	0.00e+00	0	45	0	11685330944	20	14055
2026-01-22 20:50:43.09	203.90	23.43	-24.3	-24.2	18.4	0.00e+00	0	45	0	12029263872	20	13983
2026-01-22 20:50:46.11	204.63	23.94	-24.1	-23.9	18.4	0.00e+00	0	45	0	12364808192	19	14359
2026-01-22 20:50:49.14	205.38	24.46	-24.1	-23.9	18.4	0.00e+00	0	45	0	12717129728	19	14364
2026-01-22 20:50:52.17	206.16	24.99	-23.8	-23.6	18.7	0.00e+00	0	45	0	13052674048	19	13942
2026-01-22 20:50:55.19	206.97	25.52	-23.7	-23.5	18.7	0.00e+00	0	45	0	13388218368	19	13742
2026-01-22 20:50:58.22	207.81	26.06	-23.5	-23.4	18.7	0.00e+00	0	45	0	13723762688	18	14277
2026-01-22 20:51:01.25	208.69	26.61	-23.3	-23.1	18.6	0.00e+00	0	45	0	14076084224	18	13855
2026-01-22 20:51:04.27	209.59	27.16	-23.2	-23.1	18.7	0.00e+00	0	45	0	14411628544	18	13817
2026-01-22 20:51:07.30	210.53	27.73	-23.0	-22.9	18.5	0.00e+00	0	45	0	14747172864	18	13495
2026-01-22 20:51:10.32	211.50	28.29	-22.9	-22.7	18.3	0.00e+00	0	45	0	15082717184	17	14037
2026-01-22 20:51:13.35	212.52	28.86	-22.7	-22.5	18.5	0.00e+00	0	45	0	15435038720	17	13756
2026-01-22 20:51:16.37	213.57	29.44	-22.6	-22.4	18.4	0.00e+00	0	45	0	15770583040	17	13585
2026-01-22 20:51:19.39	214.66	30.01	-22.3	-22.2	18.1	0.00e+00	0	45	0	16114515968	16	13983
2026-01-22 20:51:22.42	215.80	30.60	-22.3	-22.1	18.3	0.00e+00	0	45	0	16450060288	16	13937
2026-01-22 20:51:25.45	216.98	31.18	-22.2	-22.0	18.2	0.00e+00	0	45	0	16793993216	16	13720
2026-01-22 20:51:28.47	218.20	31.77	-22.0	-21.9	18.2	0.00e+00	0	45	0	17137926144	16	13510
2026-01-22 20:51:31.49	219.47	32.35	-21.9	-21.7	18.0	0.00e+00	0	45	0	17473470464	15	14008
2026-01-22 20:51:34.52	220.79	32.93	-21.8	-21.6	18.1	0.00e+00	0	45	0	17809014784	15	13849
2026-01-22 20:51:37.54	222.16	33.51	-21.8	-21.6	18.1	0.00e+00	0	45	0	18161336320	15	13864
2026-01-22 20:51:40.57	223.59	34.08	-21.6	-21.4	17.5	0.00e+00	0	45	0	18496880640	15	13547
2026-01-22 20:51:43.59	225.06	34.65	-21.4	-21.3	17.4	0.00e+00	0	46	0	18832424960	14	14112
2026-01-22 20:51:46.61	226.59	35.20	-21.3	-21.2	17.4	0.00e+00	0	45	0	19167969280	14	13957
2026-01-22 20:51:49.63	228.17	35.75	-21.1	-21.0	17.3	0.00e+00	0	46	0	19520290816	14	13642
2026-01-22 20:51:52.66	229.82	36.28	-21.1	-20.9	17.1	0.00e+00	0	45	0	19855835136	14	13545
2026-01-22 20:51:55.68	231.51	36.79	-21.1	-20.9	16.5	0.00e+00	0	46	0	20191379456	14	13542
2026-01-22 20:51:58.71	233.26	37.29	-20.9	-20.7	16.5	0.00e+00	0	45	0	20535312384	13	14025
2026-01-22 20:52:01.73	235.07	37.76	-20.7	-20.5	15.9	0.00e+00	0	45	0	20879245312	13	13787
2026-01-22 20:52:04.76	236.93	38.22	-20.7	-20.5	15.6	0.00e+00	0	45	0	21214789632	13	13739
2026-01-22 20:52:07.78	238.84	38.64	-20.6	-20.5	15.8	0.00e+00	0	45	0	21558722560	13	13644
2026-01-22 20:52:10.80	240.81	39.03	-20.5	-20.3	16.4	0.00e+00	0	45	0	21894266880	13	13451
2026-01-22 20:52:13.83	242.82	39.40	-20.4	-20.2	16.0	0.00e+00	0	45	0	22229811200	12	14073
2026-01-22 20:52:16.85	244.88	39.73	-20.3	-20.1	16.3	0.00e+00	0	46	0	22582132736	12	13946
2026-01-22 20:52:19.88	246.98	40.02	-20.3	-20.1	16.1	0.00e+00	0	45	0	22917677056	12	13938
2026-01-22 20:52:22.90	249.11	40.27	-20.5	-20.3	16.2	0.00e+00	0	45	0	23253221376	12	14223
2026-01-22 20:52:25.93	251.28	40.48	-20.4	-20.2	16.7	0.00e+00	0	46	0	23588765696	12	14091
2026-01-22 20:52:28.95	253.47	40.65	-20.5	-20.4	16.7	0.00e+00	0	45	0	23941087232	12	14294
2026-01-22 20:52:31.97	255.68	40.77	-20.5	-20.4	17.4	0.00e+00	0	45	0	24276631552	12	14296
2026-01-22 20:52:35.00	257.91	40.84	-20.5	-20.4	17.7	0.00e+00	0	45	0	24612175872	12	14295
2026-01-22 20:52:38.02	260.14	40.88	-20.6	-20.4	17.7	0.00e+00	0	45	0	24956108800	12	14394
2026-01-22 20:52:41.05	262.38	40.86	-20.6	-20.4	18.1	0.00e+00	0	46	0	25300041728	12	14437
2026-01-22 20:52:44.07	264.60	40.80	-20.7	-20.5	17.9	0.00e+00	0	46	0	25635586048	12	14518
2026-01-22 20:52:47.09	266.81	40.69	-20.6	-20.5	18.4	0.00e+00	0	45	0	25979518976	12	14489
2026-01-22 20:52:50.12	269.02	40.53	-20.8	-20.6	18.3	0.00e+00	0	45	0	26315063296	12	14685
2026-01-22 20:52:53.14	271.19	40.34	-20.8	-20.6	18.3	0.00e+00	0	46	0	26667384832	12	14713
2026-01-22 20:52:56.17	273.33	40.10	-20.8	-20.7	18.3	0.00e+00	0	45	0	27002929152	12	14814
2026-01-22 20:52:59.19	275.44	39.82	-20.7	-20.6	18.3	0.00e+00	0	46	0	27338473472	12	14648
2026-01-22 20:53:02.21	277.51	39.50	-20.8	-20.7	18.5	0.00e+00	0	46	0	27674017792	12	14798
2026-01-22 20:53:05.24	279.53	39.15	-21.0	-20.8	18.2	0.00e+00	0	46	0	28026339328	12	15015
2026-01-22 20:53:08.26	281.51	38.77	-21.0	-20.9	18.4	0.00e+00	0	46	0	28361883648	12	15133
2026-01-22 20:53:11.29	283.44	38.35	-21.1	-20.9	18.4	0.00e+00	0	46	0	28697427968	12	15252
2026-01-22 20:53:14.31	285.31	37.91	-21.2	-21.1	18.6	0.00e+00	0	46	0	29032972288	13	14643
2026-01-22 20:53:17.33	287.13	37.44	-21.4	-21.2	18.6	0.00e+00	0	45	0	29385293824	13	14849
2026-01-22 20:53:20.36	288.90	36.95	-21.5	-21.3	18.8	0.00e+00	0	45	0	29720838144	13	15116
2026-01-22 20:53:23.38	290.61	36.45	-21.8	-21.6	18.6	0.00e+00	0	46	0	30064771072	14	14662
2026-01-22 20:53:26.41	292.27	35.92	-21.8	-21.7	19.0	0.00e+00	0	46	0	30400315392	14	14792
2026-01-22 20:53:29.43	293.87	35.38	-22.1	-21.9	19.1	0.00e+00	0	46	0	30735859712	14	15186
2026-01-22 20:53:32.45	295.41	34.83	-22.1	-21.9	19.3	0.00e+00	0	45	0	31088181248	14	15239
2026-01-22 20:53:35.48	296.90	34.27	-22.3	-22.1	19.4	0.00e+00	0	46	0	31423725568	15	14652
2026-01-22 20:53:38.51	298.35	33.70	-22.4	-22.3	19.3	0.00e+00	0	45	0	31759269888	15	14994
2026-01-22 20:53:41.53	299.73	33.12	-22.6	-22.4	19.4	0.00e+00	0	45	0	32094814208	15	15256
2026-01-22 20:53:44.56	301.07	32.54	-22.8	-22.7	19.3	0.00e+00	0	45	0	32447135744	16	14796
2026-01-22 20:53:47.58	302.35	31.96	-23.1	-22.9	19.3	0.00e+00	0	45	0	32782680064	16	15176
2026-01-22 20:53:50.60	303.58	31.38	-23.0	-22.9	19.2	0.00e+00	0	46	0	33118224384	16	15146
2026-01-22 20:53:53.63	304.78	30.80	-23.3	-23.1	19.1	0.00e+00	0	45	0	33462157312	17	14731
2026-01-22 20:53:56.65	305.92	30.22	-23.4	-23.2	19.0	0.00e+00	0	46	0	33806090240	17	14863
2026-01-22 20:53:59.67	307.03	29.64	-23.4	-23.3	18.7	0.00e+00	0	46	0	34141634560	17	15005
2026-01-22 20:54:02.69	308.09	29.06	-23.7	-23.5	18.5	0.00e+00	0	46	0	34485567488	17	15450
2026-01-22 20:54:05.72	309.11	28.49	-23.7	-23.6	18.1	0.00e+00	0	46	0	34821111808	18	14612
2026-01-22 20:54:08.74	310.10	27.93	-23.9	-23.8	18.0	0.00e+00	0	45	0	35165044736	18	14987
2026-01-22 20:54:11.77	311.05	27.37	-24.1	-24.0	17.8	0.00e+00	0	46	0	35508977664	18	15316
2026-01-22 20:54:14.79	311.96	26.81	-24.3	-24.1	18.2	0.00e+00	0	45	0	35844521984	19	14757
2026-01-22 20:54:17.81	312.84	26.26	-24.5	-24.4	18.0	0.00e+00	0	46	0	36180066304	19	15156
2026-01-22 20:54:20.84	313.69	25.72	-24.6	-24.4	18.2	0.00e+00	0	46	0	36532387840	19	15198
2026-01-22 20:54:23.86	314.51	25.19	-24.7	-24.5	18.2	0.00e+00	0	46	0	36867932160	19	15468
2026-01-22 20:54:26.88	315.30	24.66	-24.7	-24.6	18.2	0.00e+00	0	46	0	37203476480	20	14622
2026-01-22 20:54:29.91	316.06	24.14	-24.9	-24.7	18.1	0.00e+00	0	45	0	37539020800	20	14944
2026-01-22 20:54:32.93	316.79	23.63	-25.0	-24.8	18.0	0.00e+00	0	45	0	37882953728	20	15060
2026-01-22 20:54:35.95	317.50	23.13	-25.1	-25.0	17.8	0.00e+00	0	46	0	38226886656	20	15318
2026-01-22 20:54:38.98	318.19	22.63	-25.3	-25.2	17.6	0.00e+00	0	45	0	38562430976	21	14820
2026-01-22 20:54:42.00	318.85	22.14	-25.6	-25.5	17.7	0.00e+00	0	45	0	38906363904	21	15301
2026-01-22 20:54:45.03	319.49	21.66	-25.7	-25.6	17.6	0.00e+00	0	45	0	39241908224	22	14637
2026-01-22 20:54:48.05	320.11	21.19	-25.8	-25.7	17.7	0.00e+00	0	46	0	39585841152	22	14806
2026-01-22 20:54:51.08	320.71	20.72	-26.0	-25.8	17.9	0.00e+00	0	46	0	39929774080	22	15104
2026-01-22 20:54:54.10	321.29	20.27	-26.2	-26.0	17.5	0.00e+00	0	45	0	40265318400	22	15364
2026-01-22 20:54:57.13	321.85	19.82	-26.2	-26.1	17.7	0.00e+00	0	45	0	40600862720	23	14663
2026-01-22 20:55:00.15	322.39	19.38	-26.4	-26.2	17.6	0.00e+00	0	46	0	40953184256	23	14938
2026-01-22 20:55:03.18	322.92	18.94	-26.6	-26.5	17.5	0.00e+00	0	45	0	41288728576	23	15333
2026-01-22 20:55:06.20	323.43	18.51	-26.7	-26.6	17.6	1.90e-06	0	46	0	41624272896	24	14610
2026-01-22 20:55:09.22	323.92	18.09	-26.9	-26.8	17.4	0.00e+00	0	45	0	41959817216	24	14974
2026-01-22 20:55:12.25	324.40	17.68	-27.0	-26.9	17.6	0.00e+00	0	46	0	42312138752	24	15153
2026-01-22 20:55:15.27	324.87	17.27	-27.2	-27.0	17.5	0.00e+00	0	46	0	42647683072	25	14569
2026-01-22 20:55:18.30	325.32	16.87	-27.3	-27.2	17.6	0.00e+00	0	45	0	42983227392	25	14819
2026-01-22 20:55:21.32	325.76	16.48	-27.5	-27.3	17.6	0.00e+00	0	46	0	43327160320	25	15068
2026-01-22 20:55:24.35	326.19	16.09	-27.6	-27.5	17.6	0.00e+00	0	46	0	43671093248	25	15338
2026-01-22 20:55:27.37	326.60	15.71	-27.8	-27.7	17.4	3.80e-06	0	46	0	44006637568	26	14809
2026-01-22 20:55:30.40	327.00	15.34	-27.9	-27.8	17.3	0.00e+00	0	46	0	44350570496	26	15005
2026-01-22 20:55:33.42	327.39	14.97	-54.3	-56.6	6.2	0.00e+00	0	45	104	44451233792	79	19502
2026-01-22 20:55:36.45	327.78	14.61	-54.4	-56.5	6.2	0.00e+00	0	45	104	44451233792	79	19311
2026-01-22 20:55:39.47	328.15	14.25	-54.3	-56.4	6.2	0.00e+00	0	45	104	44451233792	79	19156
2026-01-22 20:55:42.50	328.51	13.90	-54.2	-56.3	6.2	0.00e+00	0	45	104	44451233792	79	19028
2026-01-22 20:55:45.53	328.86	13.56	-54.2	-56.3	6.2	0.00e+00	0	45	104	44451233792	79	18941
2026-01-22 20:55:48.55	329.20	13.22	-54.2	-56.3	6.2	0.00e+00	0	45	104	44451233792	79	18926
2026-01-22 20:55:51.58	329.54	12.88	-54.1	-56.2	6.2	0.00e+00	0	45	104	44451233792	79	18782
2026-01-22 20:55:54.60	329.86	12.55	-54.1	-56.2	6.2	0.00e+00	0	45	104	44451233792	79	18637
2026-01-22 20:55:57.62	330.18	12.23	-54.1	-56.1	6.2	0.00e+00	0	45	104	44451233792	79	18597
2026-01-22 20:56:00.65	330.49	11.91	-54.0	-56.1	6.2	0.00e+00	0	45	104	44451233792	79	18582
2026-01-22 20:56:03.68	330.79	11.59	-54.0	-56.1	6.2	0.00e+00	0	45	104	44451233792	79	18500
2026-01-22 20:56:06.71	331.09	11.28	-54.0	-56.1	6.2	0.00e+00	0	45	104	44451233792	79	18481
2026-01-22 20:56:09.73	331.38	10.98	-53.9	-56.1	6.2	0.00e+00	0	45	104	44451233792	79	18400
2026-01-22 20:56:12.76	331.66	10.67	-53.9	-56.0	6.2	0.00e+00	0	45	104	44451233792	79	18334
2026-01-22 20:56:15.78	331.93	10.38	-53.9	-56.0	6.2	0.00e+00	0	45	104	44451233792	79	18273
2026-01-22 20:56:18.81	332.20	10.08	-53.8	-55.9	6.2	0.00e+00	0	45	104	44451233792	79	18141
2026-01-22 20:56:21.83	332.46	9.79	-53.8	-55.9	6.2	0.00e+00	0	45	104	44451233792	79	18171
2026-01-22 20:56:24.85	332.72	9.51	-53.8	-55.9	6.2	0.00e+00	0	45	104	44451233792	79	18059
2026-01-22 20:56:27.88	332.97	9.23	-53.8	-55.9	6.2	0.00e+00	0	45	104	44451233792	79	18064
2026-01-22 20:56:30.90	333.22	8.95	-53.7	-55.8	6.2	0.00e+00	0	45	104	44451233792	79	17847
2026-01-22 20:56:33.92	333.46	8.67	-53.7	-55.8	6.2	0.00e+00	0	45	104	44451233792	79	17963
2026-01-22 20:56:36.95	333.69	8.40	-53.7	-55.7	6.2	0.00e+00	0	45	104	44451233792	79	17744
2026-01-22 20:56:39.97	333.92	8.14	-53.7	-55.8	6.2	0.00e+00	0	45	104	44451233792	79	17779
2026-01-22 20:56:42.99	334.15	7.87	-53.6	-55.7	6.2	0.00e+00	0	45	104	44451233792	79	17638
2026-01-22 20:56:46.02	334.37	7.61	-53.6	-55.7	6.2	0.00e+00	0	45	104	44451233792	79	17690
2026-01-22 20:56:49.04	334.59	7.35	-53.5	-55.6	6.2	0.00e+00	0	45	104	44451233792	79	17531
2026-01-22 20:56:52.07	334.80	7.10	-53.6	-55.7	6.2	0.00e+00	0	45	104	44451233792	79	17639
2026-01-22 20:56:55.09	335.01	6.85	-53.5	-55.5	6.2	0.00e+00	0	45	104	44451233792	78	18366
2026-01-22 20:56:58.12	335.21	6.60	-53.5	-55.6	6.2	0.00e+00	0	45	104	44451233792	78	18423
2026-01-22 20:57:01.14	335.41	6.35	-53.4	-55.5	6.2	0.00e+00	0	45	104	44451233792	78	18238
2026-01-22 20:57:04.17	335.61	6.11	-53.4	-55.5	6.2	0.00e+00	0	45	104	44451233792	78	18312
2026-01-22 20:57:07.19	335.80	5.87	-53.3	-55.3	6.2	0.00e+00	0	45	104	44451233792	78	17968
2026-01-22 20:57:10.21	335.99	5.63	-53.3	-55.5	6.2	0.00e+00	0	45	104	44451233792	78	18213
2026-01-22 20:57:13.24	336.18	5.39	-53.2	-55.3	6.2	0.00e+00	0	45	104	44451233792	78	17959
2026-01-22 20:57:16.26	336.36	5.16	-53.3	-55.4	6.2	0.00e+00	0	45	104	44451233792	78	18030
2026-01-22 20:57:19.28	336.54	4.93	-53.6	-55.7	6.2	0.00e+00	0	45	104	44451233792	78	18798
2026-01-22 20:57:22.31	336.71	4.70	-54.6	-56.7	6.2	0.00e+00	0	45	104	44451233792	79	19792
2026-01-22 20:57:25.33	336.89	4.48	-54.9	-57.0	6.2	0.00e+00	0	45	104	44451233792	80	19300
2026-01-22 20:57:28.36	337.06	4.25	-54.9	-57.0	6.2	0.00e+00	0	45	104	44451233792	80	19296
2026-01-22 20:57:31.39	337.22	4.03	-54.6	-56.7	6.2	0.00e+00	0	45	104	44451233792	80	18757
2026-01-22 20:57:34.41	337.39	3.81	-54.6	-56.7	6.2	0.00e+00	0	45	104	44451233792	80	18619
2026-01-22 20:57:37.43	337.55	3.59	-54.6	-56.6	6.2	0.00e+00	0	45	104	44451233792	80	18573
2026-01-22 20:57:40.46	337.71	3.38	-54.5	-56.6	6.2	0.00e+00	0	45	104	44451233792	80	18503
2026-01-22 20:57:43.48	337.86	3.17	-54.4	-56.4	6.2	0.00e+00	0	45	104	44451233792	80	18174
2026-01-22 20:57:46.51	338.02	2.96	-54.3	-56.4	6.2	0.00e+00	0	45	104	44451233792	80	18133
2026-01-22 20:57:49.53	338.17	2.75	-54.3	-56.4	6.2	0.00e+00	0	45	104	44451233792	80	18067
2026-01-22 20:57:52.56	338.32	2.54	-54.3	-56.4	6.2	0.00e+00	0	45	104	44451233792	80	18024
2026-01-22 20:57:55.58	338.46	2.33	-54.3	-56.4	6.2	0.00e+00	0	45	104	44451233792	80	18027
2026-01-22 20:57:58.61	338.61	2.13	-54.3	-56.3	6.2	0.00e+00	0	45	104	44451233792	80	17961

#Closed at: 2026-01-22 20:58:01
#Recorded file [44451 MB]: D:/lorett/data/31041_260122_234717.dat