passes_logs/2026/01/22/R3.2S_Murmansk/R3.2S_Murmansk__20260122_133410_NOAA_21_JPSS-2_rec.log

#Pass ID: 20260122_133410_NOAA 21 (JPSS-2)
#Satellite: NOAA 21 (JPSS-2)
#Configuration: NOAA-21
#almurnet v.1.7.20251203
#Start time: 2026-01-22 13:34:11

#Version: 2.2.20231116
#Station: R3.2S_Murmansk
#Location: 33.079688 lon 68.888172 lat
#TLE: 1 54234U 22150A   26021.42686626  .00000211  00000+0  12107-3 0  9996
#TLE: 2 54234  98.7506 322.2490 0000636 241.9299 118.1812 14.19537149165725

#Time	Az	El	Level	Level2	SNR	BER	BlckErr	Temp	State	Recorded	gain1	gain2
2026-01-22 13:34:11.28	260.12	2.03	-53.8	-66.6	3.8	1.49e+00	0	40	0	0	79	15468
2026-01-22 13:34:14.27	260.46	2.14	-52.6	-65.3	3.8	1.49e+00	0	40	104	0	77	15047
2026-01-22 13:34:17.24	260.79	2.25	-52.4	-65.2	3.8	1.49e+00	0	40	104	0	76	15711
2026-01-22 13:34:20.23	261.13	2.36	-52.4	-65.2	3.8	1.49e+00	0	40	104	0	76	15691
2026-01-22 13:34:23.21	261.48	2.47	-52.4	-65.2	3.8	1.49e+00	0	40	104	0	76	15644
2026-01-22 13:34:26.19	261.82	2.58	-52.4	-65.2	3.8	1.49e+00	0	40	104	0	76	15717
2026-01-22 13:34:29.17	262.17	2.69	-52.4	-65.2	3.8	1.49e+00	0	40	104	0	76	15629
2026-01-22 13:34:32.14	262.51	2.80	-52.4	-65.2	3.8	1.49e+00	0	40	104	0	76	15663
2026-01-22 13:34:35.12	262.86	2.91	-52.4	-65.2	3.8	1.49e+00	0	40	104	0	76	15678
2026-01-22 13:34:38.09	263.22	3.01	-52.4	-65.2	3.8	1.49e+00	0	40	104	0	76	15653
2026-01-22 13:34:41.07	263.57	3.12	-52.4	-65.2	3.8	1.49e+00	0	40	104	0	76	15697
2026-01-22 13:34:44.04	263.93	3.22	-52.4	-65.2	3.8	1.49e+00	0	40	104	0	76	15603
2026-01-22 13:34:47.02	264.29	3.33	-52.4	-65.2	3.8	1.49e+00	0	40	104	0	76	15633
2026-01-22 13:34:50.00	264.65	3.44	-52.4	-65.1	3.8	1.49e+00	0	40	104	0	76	15517
2026-01-22 13:34:52.97	265.02	3.54	-52.4	-65.1	3.8	1.49e+00	0	40	104	0	76	15534
2026-01-22 13:34:55.94	265.39	3.64	-52.4	-65.1	3.8	1.49e+00	0	40	104	0	76	15536
2026-01-22 13:34:58.93	265.76	3.75	-52.4	-65.1	3.8	1.49e+00	0	40	104	0	76	15578
2026-01-22 13:35:01.90	266.13	3.85	-52.4	-65.2	3.8	1.49e+00	0	40	104	0	76	15604
2026-01-22 13:35:04.87	266.50	3.95	-52.4	-65.1	3.8	1.49e+00	0	40	104	0	76	15578
2026-01-22 13:35:07.85	266.88	4.05	-52.4	-65.1	3.8	1.49e+00	0	40	104	0	76	15494
2026-01-22 13:35:10.83	267.26	4.15	-52.4	-64.7	3.8	1.49e+00	0	41	104	0	76	14835
2026-01-22 13:35:13.80	267.65	4.25	-52.4	-65.0	3.8	1.49e+00	0	41	104	0	76	15340
2026-01-22 13:35:16.78	268.03	4.35	-52.3	-64.4	3.8	1.49e+00	0	41	104	0	76	14329
2026-01-22 13:35:19.76	268.42	4.45	-52.4	-65.0	3.8	1.49e+00	0	41	104	0	76	15289
2026-01-22 13:35:22.74	268.81	4.55	-52.3	-64.5	3.8	1.49e+00	0	41	104	0	76	14478
2026-01-22 13:35:25.72	269.20	4.65	-52.3	-64.1	3.8	1.49e+00	0	41	104	0	76	13882
2026-01-22 13:35:28.70	269.60	4.75	-52.1	-62.5	3.9	1.49e+00	0	41	104	0	76	11527
2026-01-22 13:35:31.67	270.00	4.84	-50.4	-54.7	9.2	2.82e-02	0	41	0	6291456	72	5862
2026-01-22 13:35:34.64	270.40	4.94	-46.8	-48.6	15.4	7.00e-07	0	41	0	15728640	65	4344
2026-01-22 13:35:37.62	270.80	5.03	-46.8	-48.6	15.5	0.00e+00	0	41	0	24117248	64	4610
2026-01-22 13:35:40.59	271.20	5.12	-47.9	-49.9	14.2	7.56e-03	0	41	0	33554432	67	4533
2026-01-22 13:35:43.57	271.61	5.22	-46.0	-47.5	16.7	0.00e+00	0	41	0	42991616	63	4302
2026-01-22 13:35:46.55	272.02	5.31	-46.0	-47.5	16.8	0.00e+00	0	41	0	52428800	63	4296
2026-01-22 13:35:49.53	272.44	5.40	-45.5	-46.9	17.4	0.00e+00	0	41	0	61865984	63	4034
2026-01-22 13:35:52.52	272.85	5.49	-45.7	-47.1	17.2	0.00e+00	0	41	0	71303168	62	4371
2026-01-22 13:35:55.50	273.27	5.58	-45.4	-46.7	17.6	0.00e+00	0	41	0	80740352	62	4153
2026-01-22 13:35:58.47	273.69	5.67	-45.5	-46.8	17.5	0.00e+00	0	41	0	89128960	62	4222
2026-01-22 13:36:01.45	274.11	5.75	-45.2	-46.5	17.8	0.00e+00	0	41	0	98566144	62	4065
2026-01-22 13:36:04.43	274.54	5.84	-45.4	-46.7	17.7	0.00e+00	0	41	0	108003328	62	4162
2026-01-22 13:36:07.41	274.97	5.93	-45.0	-46.2	18.1	0.00e+00	0	41	0	117440512	62	3940
2026-01-22 13:36:10.39	275.40	6.01	-45.1	-46.4	18.0	0.00e+00	0	41	0	126877696	62	4027
2026-01-22 13:36:13.37	275.83	6.09	-45.4	-46.7	17.7	0.00e+00	0	41	0	136314880	62	4177
2026-01-22 13:36:16.34	276.26	6.17	-45.5	-46.9	17.6	0.00e+00	0	41	0	145752064	62	4249
2026-01-22 13:36:19.32	276.70	6.25	-45.4	-46.7	17.7	0.00e+00	0	41	0	155189248	62	4171
2026-01-22 13:36:22.31	277.14	6.33	-45.4	-46.7	17.8	0.00e+00	0	41	0	164626432	62	4158
2026-01-22 13:36:25.29	277.58	6.41	-44.8	-46.1	18.3	0.00e+00	0	41	0	174063616	61	4101
2026-01-22 13:36:28.26	278.03	6.49	-45.2	-46.4	18.0	0.00e+00	0	41	0	182452224	61	4270
2026-01-22 13:36:31.25	278.47	6.57	-45.0	-46.2	18.2	0.00e+00	0	41	0	191889408	61	4182
2026-01-22 13:36:34.23	278.92	6.64	-45.0	-46.2	18.3	0.00e+00	0	41	0	201326592	61	4169
2026-01-22 13:36:37.21	279.37	6.71	-45.1	-46.4	18.1	0.00e+00	0	41	0	210763776	61	4261
2026-01-22 13:36:40.19	279.83	6.79	-44.9	-46.0	18.5	0.00e+00	0	41	0	220200960	61	4097
2026-01-22 13:36:43.17	280.28	6.86	-45.0	-46.3	18.3	0.00e+00	0	41	0	229638144	61	4194
2026-01-22 13:36:46.14	280.74	6.93	-45.0	-46.2	18.3	0.00e+00	0	41	0	239075328	61	4182
2026-01-22 13:36:49.13	281.20	6.99	-44.6	-45.7	18.8	0.00e+00	0	41	0	248512512	61	3948
2026-01-22 13:36:52.11	281.66	7.06	-44.6	-45.7	18.9	0.00e+00	0	41	0	256901120	61	3935
2026-01-22 13:36:55.09	282.12	7.13	-44.8	-45.9	18.7	0.00e+00	0	41	0	266338304	61	4032
2026-01-22 13:36:58.07	282.59	7.19	-44.7	-45.8	18.8	0.00e+00	0	41	0	275775488	61	3984
2026-01-22 13:37:01.04	283.05	7.25	-44.4	-45.5	19.1	0.00e+00	0	41	0	285212672	60	4094
2026-01-22 13:37:04.03	283.52	7.31	-44.8	-46.0	18.7	0.00e+00	0	41	0	294649856	60	4314
2026-01-22 13:37:07.01	283.99	7.37	-44.9	-46.1	18.6	0.00e+00	0	41	0	304087040	61	4117
2026-01-22 13:37:10.01	284.47	7.43	-44.8	-46.0	18.7	0.00e+00	0	41	0	313524224	61	4070
2026-01-22 13:37:13.00	284.94	7.49	-44.8	-46.0	18.8	0.00e+00	0	41	0	322961408	61	4067
2026-01-22 13:37:15.99	285.42	7.54	-45.0	-46.1	18.7	0.00e+00	0	41	0	332398592	61	4133
2026-01-22 13:37:18.98	285.90	7.60	-44.8	-45.9	18.8	0.00e+00	0	41	0	341835776	61	4049
2026-01-22 13:37:21.96	286.38	7.65	-44.9	-46.1	18.7	0.00e+00	0	41	0	350224384	61	4124
2026-01-22 13:37:24.96	286.87	7.70	-44.6	-45.7	19.1	0.00e+00	0	41	0	359661568	61	3938
2026-01-22 13:37:27.94	287.35	7.75	-44.7	-45.8	19.1	0.00e+00	0	41	0	369098752	61	3981
2026-01-22 13:37:30.92	287.83	7.80	-44.8	-45.9	18.9	0.00e+00	0	41	0	378535936	61	4043
2026-01-22 13:37:33.91	288.32	7.84	-45.1	-46.3	18.6	0.00e+00	0	41	0	387973120	61	4207
2026-01-22 13:37:36.90	288.81	7.88	-45.1	-46.3	18.6	0.00e+00	0	41	0	397410304	61	4215
2026-01-22 13:37:39.88	289.30	7.93	-45.0	-46.2	18.8	0.00e+00	0	41	0	406847488	61	4151
2026-01-22 13:37:42.87	289.79	7.97	-45.0	-46.2	18.8	0.00e+00	0	41	0	416284672	61	4158
2026-01-22 13:37:45.87	290.28	8.01	-45.1	-46.2	18.7	0.00e+00	0	41	0	425721856	61	4182
2026-01-22 13:37:48.85	290.78	8.04	-44.8	-45.9	19.0	0.00e+00	0	41	0	434110464	61	4028
2026-01-22 13:37:51.85	291.27	8.08	-44.9	-46.0	19.0	0.00e+00	0	41	0	443547648	61	4083
2026-01-22 13:37:54.85	291.77	8.11	-44.9	-46.0	19.0	0.00e+00	0	41	0	452984832	61	4070
2026-01-22 13:37:57.84	292.27	8.14	-44.9	-46.1	18.9	0.00e+00	0	41	0	462422016	61	4103
2026-01-22 13:38:00.83	292.77	8.17	-44.9	-46.1	18.9	0.00e+00	0	41	0	471859200	61	4113
2026-01-22 13:38:03.82	293.26	8.20	-44.8	-45.9	19.1	0.00e+00	0	41	0	481296384	61	4015
2026-01-22 13:38:06.81	293.76	8.22	-44.7	-45.8	19.1	0.00e+00	0	41	0	490733568	61	3994
2026-01-22 13:38:09.79	294.26	8.25	-44.7	-45.8	19.1	0.00e+00	0	41	0	500170752	61	3983
2026-01-22 13:38:12.79	294.77	8.27	-44.6	-45.8	19.2	0.00e+00	0	41	0	509607936	61	3962
2026-01-22 13:38:15.78	295.27	8.29	-44.7	-45.9	19.0	0.00e+00	0	41	0	519045120	61	4009
2026-01-22 13:38:18.77	295.77	8.31	-44.9	-46.0	18.9	0.00e+00	0	41	0	528482304	61	4077
2026-01-22 13:38:21.76	296.27	8.33	-44.7	-45.8	19.0	0.00e+00	0	41	0	537919488	61	3995
2026-01-22 13:38:24.76	296.78	8.34	-44.6	-45.7	19.1	0.00e+00	0	41	0	546308096	61	3954
2026-01-22 13:38:27.75	297.28	8.35	-44.7	-45.8	19.0	0.00e+00	0	41	0	555745280	61	3987
2026-01-22 13:38:30.74	297.79	8.37	-44.6	-45.7	19.2	0.00e+00	0	41	0	565182464	61	3914
2026-01-22 13:38:33.73	298.29	8.37	-44.6	-45.7	19.0	0.00e+00	0	41	0	574619648	60	4186
2026-01-22 13:38:36.73	298.80	8.38	-44.5	-45.6	19.2	0.00e+00	0	41	0	584056832	60	4136
2026-01-22 13:38:39.73	299.31	8.39	-44.8	-46.0	18.9	0.00e+00	0	41	0	593494016	60	4307
2026-01-22 13:38:42.71	299.81	8.39	-44.6	-45.7	19.1	0.00e+00	0	41	0	602931200	60	4192
2026-01-22 13:38:45.70	300.32	8.39	-44.6	-45.8	19.0	0.00e+00	0	41	0	612368384	60	4204
2026-01-22 13:38:48.68	300.82	8.39	-44.8	-45.9	18.9	0.00e+00	0	41	0	621805568	60	4283
2026-01-22 13:38:51.67	301.33	8.39	-44.5	-45.7	19.1	0.00e+00	0	41	0	631242752	60	4149
2026-01-22 13:38:54.66	301.83	8.38	-44.5	-45.6	19.1	0.00e+00	0	41	0	640679936	60	4110
2026-01-22 13:38:57.65	302.34	8.38	-44.5	-45.6	19.1	0.00e+00	0	41	0	650117120	60	4144
2026-01-22 13:39:00.64	302.84	8.37	-44.5	-45.6	19.2	0.00e+00	0	41	0	658505728	60	4130
2026-01-22 13:39:03.64	303.35	8.36	-44.4	-45.5	19.3	0.00e+00	0	41	0	667942912	60	4062
2026-01-22 13:39:06.66	303.86	8.35	-44.3	-45.4	19.3	0.00e+00	0	41	0	677380096	60	4031
2026-01-22 13:39:09.69	304.37	8.33	-44.3	-45.3	19.5	0.00e+00	0	41	0	687865856	60	3987
2026-01-22 13:39:12.71	304.88	8.32	-44.3	-45.4	19.4	0.00e+00	0	41	0	697303040	60	4020
2026-01-22 13:39:15.73	305.39	8.30	-44.2	-45.3	19.4	0.00e+00	0	41	0	705691648	60	3977
2026-01-22 13:39:18.75	305.89	8.28	-44.4	-45.5	19.2	0.00e+00	0	41	0	715128832	60	4052
2026-01-22 13:39:21.74	306.39	8.26	-44.3	-45.3	19.4	0.00e+00	0	41	0	724566016	60	3999
2026-01-22 13:39:24.72	306.89	8.24	-44.3	-45.4	19.3	0.00e+00	0	41	0	734003200	60	4030
2026-01-22 13:39:27.71	307.39	8.21	-44.5	-45.6	19.1	0.00e+00	0	41	0	743440384	60	4144
2026-01-22 13:39:30.70	307.89	8.18	-44.4	-45.5	19.2	0.00e+00	0	41	0	752877568	60	4063
2026-01-22 13:39:33.69	308.39	8.16	-44.5	-45.6	19.1	0.00e+00	0	41	0	762314752	60	4113
2026-01-22 13:39:36.69	308.89	8.13	-44.1	-45.2	19.5	0.00e+00	0	41	0	771751936	60	3938
2026-01-22 13:39:39.68	309.38	8.09	-44.3	-45.3	19.6	0.00e+00	0	41	0	781189120	59	4226
2026-01-22 13:39:42.67	309.88	8.06	-44.5	-45.6	19.0	0.00e+00	0	41	0	790626304	60	4118
2026-01-22 13:39:45.66	310.37	8.02	-44.6	-45.7	18.9	0.00e+00	0	41	0	800063488	60	4154
2026-01-22 13:39:48.65	310.87	7.99	-44.3	-45.4	19.2	0.00e+00	0	41	0	809500672	60	4043
2026-01-22 13:39:51.64	311.36	7.95	-44.5	-45.6	19.1	0.00e+00	0	41	0	817889280	60	4099
2026-01-22 13:39:54.63	311.85	7.91	-44.5	-45.6	19.0	0.00e+00	0	41	0	827326464	60	4139
2026-01-22 13:39:57.62	312.34	7.86	-44.5	-45.7	18.9	0.00e+00	0	41	0	836763648	60	4149
2026-01-22 13:40:00.61	312.82	7.82	-44.6	-45.7	18.9	0.00e+00	0	41	0	846200832	60	4189
2026-01-22 13:40:03.60	313.31	7.77	-44.8	-46.0	18.6	0.00e+00	0	41	0	855638016	60	4297
2026-01-22 13:40:06.60	313.79	7.72	-44.6	-45.8	18.8	0.00e+00	0	41	0	865075200	60	4196
2026-01-22 13:40:09.59	314.28	7.67	-44.8	-46.0	18.6	0.00e+00	0	41	0	874512384	60	4301
2026-01-22 13:40:12.59	314.76	7.62	-44.8	-45.9	18.6	0.00e+00	0	41	0	883949568	60	4279
2026-01-22 13:40:15.59	315.24	7.57	-44.7	-45.9	18.6	0.00e+00	0	41	0	893386752	60	4272
2026-01-22 13:40:18.60	315.72	7.52	-44.9	-46.1	18.3	0.00e+00	0	41	0	902823936	60	4391
2026-01-22 13:40:21.59	316.20	7.46	-44.7	-45.9	18.5	0.00e+00	0	41	0	912261120	60	4269
2026-01-22 13:40:24.59	316.67	7.40	-44.7	-45.8	18.6	0.00e+00	0	41	0	921698304	60	4242
2026-01-22 13:40:27.59	317.14	7.34	-44.7	-45.8	18.6	0.00e+00	0	41	0	931135488	60	4241
2026-01-22 13:40:30.58	317.62	7.28	-44.5	-45.6	18.8	0.00e+00	0	41	0	940572672	60	4144
2026-01-22 13:40:33.58	318.09	7.22	-44.5	-45.6	18.6	0.00e+00	0	41	0	950009856	60	4125
2026-01-22 13:40:36.58	318.55	7.16	-44.6	-45.7	18.3	0.00e+00	0	41	0	959447040	60	4178
2026-01-22 13:40:39.57	319.02	7.09	-44.4	-45.5	18.8	0.00e+00	0	41	0	967835648	60	4097
2026-01-22 13:40:42.57	319.48	7.03	-44.5	-45.7	18.8	0.00e+00	0	41	0	977272832	60	4148
2026-01-22 13:40:45.57	319.94	6.96	-44.6	-45.7	18.7	0.00e+00	0	41	0	986710016	60	4191
2026-01-22 13:40:48.55	320.40	6.89	-44.4	-45.6	18.9	0.00e+00	0	41	0	996147200	60	4103
2026-01-22 13:40:51.54	320.86	6.82	-44.5	-45.7	18.8	0.00e+00	0	41	0	1005584384	60	4162
2026-01-22 13:40:54.53	321.31	6.75	-44.3	-45.4	19.0	0.00e+00	0	41	0	1015021568	60	4040
2026-01-22 13:40:57.52	321.76	6.68	-44.5	-45.6	18.8	0.00e+00	0	41	0	1024458752	60	4124
2026-01-22 13:41:00.51	322.21	6.60	-44.6	-45.7	18.6	0.00e+00	0	41	0	1033895936	60	4193
2026-01-22 13:41:03.50	322.66	6.53	-44.5	-45.7	18.7	0.00e+00	0	41	0	1043333120	60	4158
2026-01-22 13:41:06.49	323.10	6.45	-44.6	-45.8	18.5	0.00e+00	0	41	0	1052770304	60	4232
2026-01-22 13:41:09.48	323.55	6.37	-44.8	-46.0	18.4	0.00e+00	0	41	0	1061158912	60	4318
2026-01-22 13:41:12.46	323.99	6.29	-45.0	-46.2	18.1	0.00e+00	0	41	0	1070596096	60	4412
2026-01-22 13:41:15.45	324.42	6.21	-44.6	-45.8	18.5	0.00e+00	0	41	0	1080033280	60	4232
2026-01-22 13:41:18.43	324.86	6.13	-44.9	-46.1	18.1	0.00e+00	0	41	0	1089470464	60	4389
2026-01-22 13:41:21.42	325.29	6.05	-44.8	-46.0	18.4	0.00e+00	0	41	0	1098907648	60	4299
2026-01-22 13:41:24.41	325.72	5.97	-44.8	-46.0	18.2	0.00e+00	0	41	0	1108344832	60	4311
2026-01-22 13:41:27.39	326.15	5.88	-44.9	-46.1	18.2	0.00e+00	0	41	0	1117782016	60	4363
2026-01-22 13:41:30.37	326.58	5.80	-44.9	-46.1	18.2	0.00e+00	0	41	0	1127219200	60	4368
2026-01-22 13:41:33.35	327.00	5.71	-44.6	-45.8	18.4	0.00e+00	0	41	0	1136656384	60	4231
2026-01-22 13:41:36.34	327.42	5.63	-44.8	-46.0	18.3	0.00e+00	0	41	0	1145044992	60	4302
2026-01-22 13:41:39.32	327.84	5.54	-45.1	-46.4	17.9	0.00e+00	0	41	0	1154482176	60	4500
2026-01-22 13:41:42.30	328.25	5.45	-45.6	-46.9	17.3	0.00e+00	0	41	0	1163919360	61	4540
2026-01-22 13:41:45.29	328.67	5.36	-46.0	-47.5	16.7	0.00e+00	0	41	0	1173356544	63	4327
2026-01-22 13:41:48.27	329.08	5.27	-45.4	-46.8	17.4	0.00e+00	0	41	0	1182793728	62	4210
2026-01-22 13:41:51.26	329.49	5.18	-45.5	-46.8	17.4	0.00e+00	0	41	0	1192230912	62	4234
2026-01-22 13:41:54.25	329.89	5.08	-45.8	-47.3	16.9	0.00e+00	0	41	0	1201668096	62	4459
2026-01-22 13:41:57.24	330.30	4.99	-52.7	-65.5	3.8	7.90e-01	0	41	104	1210056704	75	17230
2026-01-22 13:42:00.23	330.70	4.89	-53.3	-66.2	3.8	1.49e+00	0	41	104	1210056704	77	16562
2026-01-22 13:42:03.21	331.10	4.80	-53.5	-66.3	3.8	1.49e+00	0	41	104	1210056704	77	16796
2026-01-22 13:42:06.20	331.49	4.70	-53.5	-66.3	3.8	1.49e+00	0	41	104	1210056704	77	16783
2026-01-22 13:42:09.18	331.89	4.61	-53.4	-66.2	3.8	1.49e+00	0	41	104	1210056704	77	16657
2026-01-22 13:42:12.16	332.28	4.51	-53.6	-66.4	3.8	1.49e+00	0	41	104	1210056704	77	16951
2026-01-22 13:42:15.15	332.67	4.41	-53.7	-66.5	3.8	1.49e+00	0	41	104	1210056704	77	17191
2026-01-22 13:42:18.13	333.05	4.31	-53.8	-66.6	3.8	1.49e+00	0	41	104	1210056704	78	16392
2026-01-22 13:42:21.12	333.44	4.21	-53.7	-66.5	3.8	1.49e+00	0	41	104	1210056704	78	16206
2026-01-22 13:42:24.09	333.82	4.11	-53.7	-66.5	3.8	1.49e+00	0	41	104	1210056704	78	16267
2026-01-22 13:42:27.08	334.20	4.01	-53.7	-66.5	3.8	1.49e+00	0	41	104	1210056704	78	16249
2026-01-22 13:42:30.06	334.57	3.91	-53.7	-66.5	3.8	1.49e+00	0	41	104	1210056704	78	16170
2026-01-22 13:42:33.05	334.95	3.81	-53.7	-66.5	3.8	1.49e+00	0	41	104	1210056704	78	16196
2026-01-22 13:42:36.03	335.32	3.71	-53.7	-66.5	3.8	1.49e+00	0	41	104	1210056704	78	16178
2026-01-22 13:42:39.01	335.68	3.60	-53.7	-66.4	3.8	1.49e+00	0	41	104	1210056704	78	16114
2026-01-22 13:42:42.00	336.05	3.50	-53.7	-66.5	3.8	1.49e+00	0	41	104	1210056704	78	16129
2026-01-22 13:42:44.99	336.42	3.39	-53.6	-66.4	3.8	1.49e+00	0	41	104	1210056704	78	16049
2026-01-22 13:42:47.98	336.78	3.29	-53.6	-66.4	3.8	1.49e+00	0	41	104	1210056704	78	16087
2026-01-22 13:42:50.97	337.14	3.18	-53.6	-66.4	3.8	1.49e+00	0	41	104	1210056704	78	16080
2026-01-22 13:42:53.95	337.49	3.08	-53.6	-66.4	3.8	1.49e+00	0	41	104	1210056704	78	16042
2026-01-22 13:42:56.95	337.85	2.97	-53.6	-66.4	3.8	1.49e+00	0	41	104	1210056704	78	16101
2026-01-22 13:42:59.93	338.20	2.87	-53.6	-66.4	3.8	1.49e+00	0	41	104	1210056704	78	16059
2026-01-22 13:43:02.92	338.55	2.76	-53.6	-66.4	3.8	1.49e+00	0	41	104	1210056704	78	16072
2026-01-22 13:43:05.91	338.90	2.65	-53.6	-66.4	3.8	1.49e+00	0	41	104	1210056704	78	16015
2026-01-22 13:43:08.90	339.24	2.54	-53.6	-66.4	3.8	1.49e+00	0	41	104	1210056704	78	16034
2026-01-22 13:43:11.89	339.58	2.43	-53.6	-66.4	3.8	1.49e+00	0	41	104	1210056704	78	16024
2026-01-22 13:43:14.88	339.92	2.32	-53.6	-66.4	3.8	1.49e+00	0	41	104	1210056704	78	15947
2026-01-22 13:43:17.88	340.26	2.22	-53.6	-66.4	3.8	1.49e+00	0	41	104	1210056704	78	16022
2026-01-22 13:43:20.86	340.60	2.11	-53.6	-66.4	3.8	1.49e+00	0	41	104	1210056704	78	15975
2026-01-22 13:43:23.85	340.93	2.00	-53.6	-66.4	3.8	1.49e+00	0	41	104	1210056704	78	15998

#Closed at: 2026-01-22 13:43:25
#Recorded file [1210 MB]: D:/lorett/data/31041_260122_163411.dat