passes_logs/2026/01/22/R3.2S_Murmansk/R3.2S_Murmansk__20260122_045833_FENGYUN_3D_rec.log

#Pass ID: 20260122_045833_FENGYUN 3D
#Satellite: FENGYUN 3D
#Configuration: FENGYUN 3D
#almurnet v.1.7.20251203
#Start time: 2026-01-22 04:58:33

#Version: 2.2.20231116
#Station: R3.2S_Murmansk
#Location: 33.079688 lon 68.888172 lat
#TLE: 1 43010U 17072A   26021.48744220  .00000253  00000+0  14133-3 0  9991
#TLE: 2 43010  98.9948 353.4037 0002485  97.2578 262.8880 14.19697766424177

#Time	Az	El	Level	Level2	SNR	BER	BlckErr	Temp	State	Recorded	gain1	gain2
2026-01-22 04:58:33.93	37.39	2.02	-50.0	-61.9	3.8	8.46e-01	0	39	0	0	70	15136
2026-01-22 04:58:36.95	37.26	2.20	-50.0	-61.9	3.8	8.47e-01	0	39	104	0	70	15172
2026-01-22 04:58:39.97	37.12	2.39	-50.0	-61.9	3.8	8.46e-01	0	39	104	0	70	15147
2026-01-22 04:58:42.99	36.98	2.57	-50.0	-61.9	3.8	8.46e-01	0	39	104	0	70	15125
2026-01-22 04:58:46.02	36.84	2.76	-50.0	-61.9	3.8	8.46e-01	0	39	104	0	70	15129
2026-01-22 04:58:49.04	36.70	2.95	-50.0	-61.9	3.8	8.45e-01	0	39	104	0	70	15126
2026-01-22 04:58:52.07	36.56	3.14	-50.0	-61.9	3.8	8.46e-01	0	40	104	0	70	15146
2026-01-22 04:58:55.09	36.41	3.33	-50.0	-61.9	3.8	8.45e-01	0	39	104	0	70	15151
2026-01-22 04:58:58.12	36.27	3.52	-50.0	-61.9	3.8	8.46e-01	0	40	104	0	70	15154
2026-01-22 04:59:01.15	36.12	3.71	-50.0	-61.9	3.8	8.46e-01	0	40	104	0	70	15143
2026-01-22 04:59:04.17	35.96	3.90	-50.0	-61.9	3.8	8.47e-01	0	40	104	0	70	15119
2026-01-22 04:59:07.20	35.81	4.10	-50.0	-61.9	3.8	8.46e-01	0	40	104	0	70	15120
2026-01-22 04:59:10.22	35.65	4.29	-50.0	-61.9	3.8	8.46e-01	0	40	104	0	70	15150
2026-01-22 04:59:13.25	35.50	4.49	-50.0	-61.9	3.8	8.46e-01	0	40	104	0	70	15121
2026-01-22 04:59:16.28	35.33	4.69	-50.0	-61.9	3.8	8.46e-01	0	40	104	0	70	15134
2026-01-22 04:59:19.31	35.17	4.89	-50.0	-61.9	3.8	8.47e-01	0	40	104	0	70	15156
2026-01-22 04:59:22.33	35.01	5.09	-50.0	-61.9	3.8	8.46e-01	0	40	104	0	70	15131
2026-01-22 04:59:25.35	34.84	5.29	-50.0	-61.9	3.8	8.46e-01	0	40	104	0	70	15150
2026-01-22 04:59:28.38	34.67	5.50	-50.0	-61.9	3.8	8.46e-01	0	40	104	0	70	15097
2026-01-22 04:59:31.40	34.50	5.70	-50.0	-61.9	3.8	8.46e-01	0	40	104	0	70	15142
2026-01-22 04:59:34.43	34.32	5.91	-50.0	-61.9	3.8	8.46e-01	0	40	104	0	70	15162
2026-01-22 04:59:37.45	34.14	6.11	-50.0	-61.9	3.8	8.46e-01	0	40	104	0	70	15125
2026-01-22 04:59:40.48	33.96	6.32	-50.0	-61.9	3.8	8.45e-01	0	40	104	0	70	15128
2026-01-22 04:59:43.50	33.78	6.53	-50.0	-61.9	3.8	8.45e-01	0	40	104	0	70	15098
2026-01-22 04:59:46.53	33.59	6.75	-50.0	-61.9	3.8	8.47e-01	0	40	104	0	70	15129
2026-01-22 04:59:49.55	33.40	6.96	-50.0	-61.9	3.8	8.46e-01	0	40	104	0	70	15159
2026-01-22 04:59:52.57	33.21	7.17	-50.0	-61.9	3.8	8.46e-01	0	40	104	0	70	15148
2026-01-22 04:59:55.60	33.01	7.39	-50.0	-61.9	3.8	8.48e-01	0	40	104	0	70	15156
2026-01-22 04:59:58.62	32.81	7.61	-50.0	-61.9	3.8	8.47e-01	0	40	104	0	70	15146
2026-01-22 05:00:01.65	32.61	7.83	-50.0	-61.9	3.8	8.45e-01	0	40	104	0	70	15156
2026-01-22 05:00:04.67	32.41	8.05	-50.0	-61.9	3.8	8.46e-01	0	40	104	0	70	15172
2026-01-22 05:00:07.69	32.20	8.27	-50.0	-61.9	3.8	8.47e-01	0	40	104	0	70	15135
2026-01-22 05:00:10.72	31.99	8.49	-50.0	-61.9	3.8	8.47e-01	0	41	104	0	70	15102
2026-01-22 05:00:13.74	31.77	8.72	-50.0	-61.9	3.8	8.45e-01	0	41	104	0	70	15138
2026-01-22 05:00:16.77	31.55	8.94	-50.0	-61.9	3.8	8.46e-01	0	41	104	0	70	15104
2026-01-22 05:00:19.79	31.33	9.17	-50.0	-61.9	3.8	8.45e-01	0	41	104	0	70	15140
2026-01-22 05:00:22.81	31.10	9.40	-50.0	-61.9	3.8	8.46e-01	0	41	104	0	70	15150
2026-01-22 05:00:25.84	30.87	9.63	-50.0	-61.9	3.8	8.46e-01	0	41	104	0	70	15134
2026-01-22 05:00:28.86	30.64	9.87	-50.0	-61.9	3.8	8.46e-01	0	41	104	0	70	15157
2026-01-22 05:00:31.89	30.40	10.10	-50.0	-61.9	3.8	8.46e-01	0	40	104	0	70	15127
2026-01-22 05:00:34.91	30.16	10.34	-50.0	-61.9	3.8	8.45e-01	0	40	104	0	70	15133
2026-01-22 05:00:37.93	29.91	10.58	-50.0	-61.9	3.8	8.46e-01	0	41	104	0	70	15190
2026-01-22 05:00:40.96	29.66	10.82	-50.0	-61.9	3.8	8.48e-01	0	40	104	0	70	15196
2026-01-22 05:00:43.99	29.41	11.06	-50.0	-61.9	3.8	8.46e-01	0	41	104	0	70	15127
2026-01-22 05:00:47.01	29.15	11.31	-50.0	-61.9	3.8	8.46e-01	0	41	104	0	70	15129
2026-01-22 05:00:50.03	28.89	11.55	-50.0	-61.9	3.8	8.46e-01	0	41	104	0	70	15141
2026-01-22 05:00:53.06	28.62	11.80	-50.0	-61.9	3.8	8.46e-01	0	41	104	0	70	15177
2026-01-22 05:00:56.09	28.34	12.05	-50.0	-61.9	3.8	8.46e-01	0	41	104	0	70	15160
2026-01-22 05:00:59.11	28.07	12.30	-50.0	-61.9	3.8	8.46e-01	0	41	104	0	70	15154
2026-01-22 05:01:02.14	27.78	12.56	-50.0	-61.9	3.8	8.46e-01	0	41	104	0	70	15149
2026-01-22 05:01:05.16	27.50	12.81	-50.0	-61.9	3.8	8.47e-01	0	41	104	0	70	15169
2026-01-22 05:01:08.19	27.20	13.07	-50.0	-61.9	3.8	8.46e-01	0	41	104	0	70	15158
2026-01-22 05:01:11.21	26.90	13.33	-50.0	-61.9	3.8	8.45e-01	0	41	104	0	70	15135
2026-01-22 05:01:14.23	26.60	13.59	-50.0	-61.9	3.8	8.45e-01	0	41	104	0	70	15165
2026-01-22 05:01:17.26	26.29	13.85	-50.0	-61.9	3.8	8.46e-01	0	41	104	0	70	15184
2026-01-22 05:01:20.28	25.97	14.12	-50.0	-61.9	3.8	8.47e-01	0	41	104	0	70	15161
2026-01-22 05:01:23.31	25.65	14.39	-50.0	-61.9	3.8	8.46e-01	0	41	104	0	70	15130
2026-01-22 05:01:26.33	25.33	14.66	-50.0	-61.9	3.8	8.47e-01	0	41	104	0	70	15186
2026-01-22 05:01:29.35	24.99	14.93	-50.0	-61.9	3.8	8.46e-01	0	41	104	0	70	15167
2026-01-22 05:01:32.38	24.65	15.20	-50.0	-61.9	3.8	8.46e-01	0	41	104	0	70	15188
2026-01-22 05:01:35.41	24.30	15.48	-50.0	-61.9	3.8	8.46e-01	0	41	104	0	70	15207
2026-01-22 05:01:38.43	23.95	15.76	-50.0	-61.9	3.8	8.46e-01	0	41	104	0	70	15201
2026-01-22 05:01:41.45	23.59	16.04	-50.0	-61.9	3.8	8.45e-01	0	41	104	0	70	15177
2026-01-22 05:01:44.48	23.22	16.32	-50.0	-61.9	3.8	8.47e-01	0	41	104	0	70	15150
2026-01-22 05:01:47.50	22.85	16.60	-50.0	-61.9	3.8	8.45e-01	0	41	104	0	70	15140
2026-01-22 05:01:50.53	22.47	16.89	-50.0	-61.9	3.8	8.47e-01	0	41	104	0	70	15164
2026-01-22 05:01:53.55	22.08	17.17	-50.0	-61.9	3.8	8.46e-01	0	41	104	0	70	15178
2026-01-22 05:01:56.57	21.68	17.46	-50.0	-61.9	3.8	8.47e-01	0	41	104	0	70	15210
2026-01-22 05:01:59.59	21.28	17.76	-50.0	-61.9	3.8	8.48e-01	0	41	104	0	70	15195
2026-01-22 05:02:02.62	20.86	18.05	-50.0	-61.9	3.8	8.47e-01	0	41	104	0	70	15170
2026-01-22 05:02:05.64	20.44	18.35	-50.0	-61.9	3.8	8.46e-01	0	41	104	0	70	15204
2026-01-22 05:02:08.66	20.01	18.64	-50.0	-62.0	3.8	8.46e-01	0	41	104	0	70	15234
2026-01-22 05:02:11.69	19.58	18.94	-50.0	-61.9	3.8	8.46e-01	0	41	104	0	70	15174
2026-01-22 05:02:14.72	19.13	19.24	-50.0	-61.9	3.8	8.46e-01	0	41	104	0	70	15143
2026-01-22 05:02:17.74	18.67	19.55	-50.0	-61.9	3.8	8.46e-01	0	41	104	0	70	15207
2026-01-22 05:02:20.77	18.20	19.85	-50.0	-61.9	3.8	8.47e-01	0	41	104	0	70	15149
2026-01-22 05:02:23.79	17.73	20.16	-50.0	-61.9	3.8	8.46e-01	0	41	104	0	70	15112
2026-01-22 05:02:26.81	17.24	20.47	-50.0	-61.9	3.8	8.46e-01	0	41	104	0	70	15209
2026-01-22 05:02:29.84	16.75	20.78	-50.0	-61.9	3.8	8.47e-01	0	41	104	0	70	15193
2026-01-22 05:02:32.87	16.24	21.09	-50.0	-61.9	3.8	8.45e-01	0	41	104	0	70	15177
2026-01-22 05:02:35.89	15.73	21.40	-50.0	-61.9	3.8	8.46e-01	0	41	104	0	70	15174
2026-01-22 05:02:38.92	15.20	21.72	-50.0	-61.9	3.8	8.46e-01	0	41	104	0	70	15175
2026-01-22 05:02:41.95	14.66	22.03	-50.0	-62.0	3.8	8.47e-01	0	41	104	0	70	15227
2026-01-22 05:02:44.98	14.11	22.35	-50.0	-61.9	3.8	8.47e-01	0	41	104	0	70	15145
2026-01-22 05:02:48.01	13.55	22.67	-50.0	-61.9	3.8	8.46e-01	0	41	104	0	70	15145
2026-01-22 05:02:51.04	12.97	22.98	-50.0	-61.9	3.8	8.45e-01	0	41	104	0	70	15218
2026-01-22 05:02:54.06	12.39	23.30	-50.0	-61.9	3.8	8.47e-01	0	41	104	0	70	15181
2026-01-22 05:02:57.09	11.79	23.62	-50.0	-61.9	3.8	8.46e-01	0	41	104	0	70	15188
2026-01-22 05:03:00.11	11.18	23.94	-50.0	-61.9	3.8	8.46e-01	0	41	104	0	70	15132
2026-01-22 05:03:03.14	10.56	24.26	-50.0	-61.9	3.8	8.47e-01	0	41	104	0	70	15166
2026-01-22 05:03:06.16	9.92	24.58	-50.0	-61.9	3.8	8.46e-01	0	41	104	0	70	15155
2026-01-22 05:03:09.19	9.27	24.91	-50.0	-61.9	3.8	8.46e-01	0	41	104	0	70	15213
2026-01-22 05:03:12.21	8.61	25.23	-50.0	-61.9	3.8	8.45e-01	0	41	104	0	70	15176
2026-01-22 05:03:15.24	7.94	25.55	-50.0	-61.9	3.8	8.47e-01	0	41	104	0	70	15166
2026-01-22 05:03:18.26	7.25	25.86	-50.0	-61.9	3.8	8.47e-01	0	41	104	0	70	15186
2026-01-22 05:03:21.29	6.54	26.18	-50.0	-61.9	3.8	8.45e-01	0	41	104	0	70	15178
2026-01-22 05:03:24.32	5.82	26.50	-50.0	-61.9	3.8	8.47e-01	0	41	104	0	70	15185
2026-01-22 05:03:27.34	5.09	26.82	-50.0	-61.9	3.8	8.46e-01	0	41	104	0	70	15187
2026-01-22 05:03:30.37	4.34	27.13	-50.0	-61.9	3.8	8.46e-01	0	41	104	0	70	15180
2026-01-22 05:03:33.39	3.58	27.44	-50.0	-61.9	3.8	8.46e-01	0	41	104	0	70	15222
2026-01-22 05:03:36.42	2.80	27.75	-50.0	-61.9	3.8	8.47e-01	0	41	104	0	70	15163
2026-01-22 05:03:39.44	2.01	28.06	-50.0	-61.9	3.8	8.46e-01	0	41	104	0	70	15179
2026-01-22 05:03:42.47	1.20	28.37	-50.0	-61.9	3.8	8.45e-01	0	41	104	0	70	15144
2026-01-22 05:03:45.49	0.37	28.67	-50.0	-61.9	3.8	8.45e-01	0	41	104	0	70	15203
2026-01-22 05:03:48.52	359.53	28.97	-50.0	-61.9	3.8	8.45e-01	0	41	104	0	70	15140
2026-01-22 05:03:51.54	358.68	29.26	-50.0	-61.9	3.8	8.47e-01	0	41	104	0	70	15175
2026-01-22 05:03:54.57	357.80	29.55	-50.0	-61.9	3.8	8.47e-01	0	41	104	0	70	15176
2026-01-22 05:03:57.60	356.91	29.83	-50.0	-61.9	3.8	8.45e-01	0	41	104	0	70	15165
2026-01-22 05:04:00.62	356.01	30.11	-50.0	-61.9	3.8	8.45e-01	0	41	104	0	70	15179
2026-01-22 05:04:03.65	355.09	30.39	-50.0	-61.9	3.8	8.46e-01	0	41	104	0	70	15160
2026-01-22 05:04:06.67	354.16	30.66	-50.0	-61.9	3.8	8.46e-01	0	41	104	0	70	15171
2026-01-22 05:04:09.69	353.21	30.92	-50.0	-61.9	3.8	8.46e-01	0	41	104	0	70	15181
2026-01-22 05:04:12.72	352.24	31.17	-50.0	-61.9	3.8	8.46e-01	0	41	104	0	70	15185
2026-01-22 05:04:15.74	351.26	31.42	-50.0	-61.9	3.8	8.45e-01	0	41	104	0	70	15175
2026-01-22 05:04:18.76	350.26	31.66	-50.0	-61.9	3.8	8.46e-01	0	41	104	0	70	15124
2026-01-22 05:04:21.79	349.25	31.89	-50.0	-61.9	3.8	8.46e-01	0	41	104	0	70	15148
2026-01-22 05:04:24.81	348.22	32.12	-50.0	-61.9	3.8	8.45e-01	0	41	104	0	70	15152
2026-01-22 05:04:27.84	347.18	32.33	-50.0	-61.9	3.8	8.47e-01	0	41	104	0	70	15193
2026-01-22 05:04:30.86	346.13	32.54	-50.0	-61.9	3.8	8.47e-01	0	41	104	0	70	15179
2026-01-22 05:04:33.89	345.06	32.73	-50.0	-61.9	3.8	8.46e-01	0	41	104	0	70	15162
2026-01-22 05:04:36.91	343.98	32.92	-50.0	-61.9	3.8	8.47e-01	0	41	104	0	70	15168
2026-01-22 05:04:39.93	342.89	33.09	-50.0	-61.9	3.8	8.46e-01	0	41	104	0	70	15142
2026-01-22 05:04:42.96	341.79	33.26	-50.0	-61.9	3.8	8.46e-01	0	41	104	0	70	15192
2026-01-22 05:04:45.98	340.67	33.41	-50.0	-61.9	3.8	8.46e-01	0	41	104	0	70	15125
2026-01-22 05:04:49.00	339.55	33.55	-50.0	-61.9	3.8	8.47e-01	0	41	104	0	70	15155
2026-01-22 05:04:52.03	338.41	33.68	-50.0	-61.9	3.8	8.46e-01	0	41	104	0	70	15168
2026-01-22 05:04:55.05	337.27	33.80	-50.0	-61.9	3.8	8.47e-01	0	41	104	0	70	15178
2026-01-22 05:04:58.08	336.12	33.90	-50.0	-61.9	3.8	8.46e-01	0	41	104	0	70	15190
2026-01-22 05:05:01.10	334.97	33.99	-50.0	-61.9	3.8	8.46e-01	0	41	104	0	70	15118
2026-01-22 05:05:04.12	333.80	34.07	-50.0	-61.9	3.8	8.46e-01	0	41	104	0	70	15149
2026-01-22 05:05:07.15	332.63	34.13	-50.0	-61.9	3.8	8.45e-01	0	41	104	0	70	15194
2026-01-22 05:05:10.17	331.46	34.18	-50.0	-61.9	3.8	8.46e-01	0	41	104	0	70	15156
2026-01-22 05:05:13.20	330.28	34.22	-50.0	-61.9	3.8	8.47e-01	0	41	104	0	70	15142
2026-01-22 05:05:16.23	329.10	34.24	-50.0	-61.9	3.8	8.46e-01	0	41	104	0	70	15135
2026-01-22 05:05:19.25	327.92	34.25	-50.0	-61.9	3.8	8.46e-01	0	41	104	0	70	15145
2026-01-22 05:05:22.28	326.74	34.25	-50.0	-61.9	3.8	8.46e-01	0	41	104	0	70	15158
2026-01-22 05:05:25.31	325.56	34.23	-50.0	-61.9	3.8	8.47e-01	0	41	104	0	70	15188
2026-01-22 05:05:28.33	324.39	34.20	-50.0	-61.9	3.8	8.45e-01	0	41	104	0	70	15163
2026-01-22 05:05:31.35	323.21	34.15	-50.0	-61.9	3.8	8.46e-01	0	41	104	0	70	15165
2026-01-22 05:05:34.38	322.04	34.10	-50.0	-61.9	3.8	8.46e-01	0	41	104	0	70	15121
2026-01-22 05:05:37.40	320.88	34.02	-50.0	-61.9	3.8	8.47e-01	0	41	104	0	70	15184
2026-01-22 05:05:40.43	319.71	33.94	-50.0	-61.9	3.8	8.46e-01	0	41	104	0	70	15170
2026-01-22 05:05:43.45	318.56	33.84	-50.0	-61.9	3.8	8.45e-01	0	41	104	0	70	15165
2026-01-22 05:05:46.48	317.41	33.73	-50.0	-61.9	3.8	8.46e-01	0	41	104	0	70	15106
2026-01-22 05:05:49.50	316.28	33.60	-50.0	-61.9	3.8	8.47e-01	0	41	104	0	70	15111
2026-01-22 05:05:52.53	315.14	33.47	-50.0	-61.9	3.8	8.46e-01	0	41	104	0	70	15159
2026-01-22 05:05:55.55	314.03	33.32	-50.0	-61.9	3.8	8.46e-01	0	41	104	0	70	15142
2026-01-22 05:05:58.58	312.92	33.16	-50.0	-61.9	3.8	8.47e-01	0	41	104	0	70	15134
2026-01-22 05:06:01.61	311.82	32.99	-50.0	-61.9	3.8	8.46e-01	0	41	104	0	70	15165
2026-01-22 05:06:04.63	310.73	32.80	-50.0	-61.9	3.8	8.46e-01	0	41	104	0	70	15182
2026-01-22 05:06:07.66	309.66	32.61	-50.0	-61.9	3.8	8.45e-01	0	41	104	0	70	15133
2026-01-22 05:06:10.69	308.60	32.41	-50.0	-61.9	3.8	8.47e-01	0	41	104	0	70	15178
2026-01-22 05:06:13.71	307.55	32.20	-50.0	-61.9	3.8	8.45e-01	0	41	104	0	70	15185
2026-01-22 05:06:16.73	306.52	31.98	-50.0	-61.9	3.8	8.46e-01	0	41	104	0	70	15133
2026-01-22 05:06:19.76	305.50	31.75	-50.0	-61.9	3.8	8.47e-01	0	41	104	0	70	15141
2026-01-22 05:06:22.78	304.50	31.51	-50.0	-61.9	3.8	8.46e-01	0	41	104	0	70	15178
2026-01-22 05:06:25.81	303.51	31.26	-50.0	-61.9	3.8	8.46e-01	0	41	104	0	70	15148
2026-01-22 05:06:28.83	302.54	31.01	-50.0	-61.9	3.8	8.46e-01	0	41	104	0	70	15127
2026-01-22 05:06:31.85	301.58	30.75	-50.0	-61.9	3.8	8.45e-01	0	41	104	0	70	15132
2026-01-22 05:06:34.88	300.63	30.48	-50.0	-61.9	3.8	8.46e-01	0	41	104	0	70	15110
2026-01-22 05:06:37.90	299.71	30.21	-50.0	-61.9	3.8	8.47e-01	0	41	104	0	70	15176
2026-01-22 05:06:40.93	298.80	29.93	-50.0	-61.9	3.8	8.45e-01	0	41	104	0	70	15092
2026-01-22 05:06:43.95	297.90	29.65	-50.0	-61.9	3.8	8.47e-01	0	41	104	0	70	15158
2026-01-22 05:06:46.97	297.02	29.36	-50.0	-61.9	3.8	8.46e-01	0	41	104	0	70	15169
2026-01-22 05:06:50.00	296.16	29.07	-50.0	-61.9	3.8	8.46e-01	0	41	104	0	70	15181
2026-01-22 05:06:53.02	295.31	28.77	-50.0	-61.9	3.8	8.47e-01	0	41	104	0	70	15184
2026-01-22 05:06:56.05	294.48	28.47	-50.0	-61.9	3.8	8.46e-01	0	41	104	0	70	15144
2026-01-22 05:06:59.07	293.66	28.17	-50.0	-61.9	3.8	8.47e-01	0	41	104	0	70	15160
2026-01-22 05:07:02.10	292.86	27.86	-50.0	-61.9	3.8	8.46e-01	0	41	104	0	70	15175
2026-01-22 05:07:05.12	292.08	27.55	-50.0	-61.9	3.8	8.46e-01	0	41	104	0	70	15107
2026-01-22 05:07:08.15	291.31	27.24	-50.0	-61.9	3.8	8.46e-01	0	41	104	0	70	15107
2026-01-22 05:07:11.17	290.55	26.92	-50.0	-61.9	3.8	8.46e-01	0	41	104	0	70	15130
2026-01-22 05:07:14.20	289.81	26.61	-50.0	-61.9	3.8	8.46e-01	0	41	104	0	70	15168
2026-01-22 05:07:17.23	289.08	26.29	-50.0	-61.9	3.8	8.46e-01	0	41	104	0	70	15161
2026-01-22 05:07:20.25	288.37	25.97	-50.0	-61.9	3.8	8.46e-01	0	41	104	0	70	15133
2026-01-22 05:07:23.28	287.68	25.65	-50.0	-61.9	3.8	8.46e-01	0	41	104	0	70	15176
2026-01-22 05:07:26.31	286.99	25.33	-50.0	-61.9	3.8	8.45e-01	0	41	104	0	70	15146
2026-01-22 05:07:29.33	286.32	25.01	-50.0	-61.9	3.8	8.46e-01	0	41	104	0	70	15159
2026-01-22 05:07:32.36	285.67	24.69	-50.0	-61.9	3.8	8.46e-01	0	41	104	0	70	15146
2026-01-22 05:07:35.39	285.03	24.37	-50.0	-61.9	3.8	8.45e-01	0	41	104	0	70	15178
2026-01-22 05:07:38.41	284.40	24.05	-50.0	-61.9	3.8	8.46e-01	0	41	104	0	70	15147
2026-01-22 05:07:41.44	283.78	23.72	-50.0	-61.9	3.8	8.47e-01	0	41	104	0	70	15078
2026-01-22 05:07:44.46	283.18	23.40	-50.0	-61.9	3.8	8.46e-01	0	41	104	0	70	15162
2026-01-22 05:07:47.49	282.59	23.08	-50.0	-61.9	3.8	8.46e-01	0	41	104	0	70	15144
2026-01-22 05:07:50.51	282.01	22.76	-50.0	-61.9	3.8	8.46e-01	0	41	104	0	70	15167
2026-01-22 05:07:53.53	281.44	22.45	-50.0	-61.9	3.8	8.46e-01	0	41	104	0	70	15116
2026-01-22 05:07:56.56	280.89	22.13	-50.0	-61.9	3.8	8.46e-01	0	41	104	0	70	15122
2026-01-22 05:07:59.58	280.34	21.81	-50.0	-61.9	3.8	8.46e-01	0	41	104	0	70	15121
2026-01-22 05:08:02.60	279.81	21.50	-50.0	-61.9	3.8	8.45e-01	0	41	104	0	70	15159
2026-01-22 05:08:05.63	279.29	21.18	-50.0	-61.9	3.8	8.46e-01	0	41	104	0	70	15154
2026-01-22 05:08:08.65	278.78	20.87	-50.0	-61.9	3.8	8.46e-01	0	41	104	0	70	15148
2026-01-22 05:08:11.67	278.28	20.56	-50.0	-61.9	3.8	8.46e-01	0	41	104	0	70	15201
2026-01-22 05:08:14.70	277.79	20.25	-50.0	-61.9	3.8	8.46e-01	0	41	104	0	70	15107
2026-01-22 05:08:17.72	277.31	19.94	-50.0	-61.9	3.8	8.46e-01	0	41	104	0	70	15159
2026-01-22 05:08:20.74	276.84	19.64	-50.0	-61.9	3.8	8.46e-01	0	41	104	0	70	15187
2026-01-22 05:08:23.77	276.38	19.33	-50.0	-61.9	3.8	8.46e-01	0	41	104	0	70	15152
2026-01-22 05:08:26.80	275.92	19.03	-50.0	-61.9	3.8	8.46e-01	0	41	104	0	70	15132
2026-01-22 05:08:29.82	275.48	18.73	-50.0	-61.9	3.8	8.46e-01	0	41	104	0	70	15137
2026-01-22 05:08:32.85	275.04	18.43	-50.0	-61.9	3.8	8.46e-01	0	41	104	0	70	15148
2026-01-22 05:08:35.87	274.62	18.13	-50.0	-61.9	3.8	8.47e-01	0	41	104	0	70	15149
2026-01-22 05:08:38.89	274.20	17.84	-50.0	-61.9	3.8	8.47e-01	0	41	104	0	70	15160
2026-01-22 05:08:41.92	273.79	17.54	-50.0	-61.9	3.8	8.47e-01	0	41	104	0	70	15138
2026-01-22 05:08:44.94	273.39	17.25	-50.0	-61.9	3.8	8.47e-01	0	41	104	0	70	15180
2026-01-22 05:08:47.96	273.00	16.96	-50.0	-61.9	3.8	8.46e-01	0	41	104	0	70	15145
2026-01-22 05:08:50.99	272.61	16.68	-50.0	-61.9	3.8	8.46e-01	0	41	104	0	70	15196
2026-01-22 05:08:54.01	272.23	16.39	-50.0	-61.9	3.8	8.45e-01	0	41	104	0	70	15174
2026-01-22 05:08:57.04	271.86	16.11	-50.0	-61.9	3.8	8.44e-01	0	41	104	0	70	15120
2026-01-22 05:09:00.07	271.50	15.83	-50.0	-61.9	3.8	8.46e-01	0	41	104	0	70	15159
2026-01-22 05:09:03.09	271.14	15.55	-50.0	-61.9	3.8	8.46e-01	0	41	104	0	70	15184
2026-01-22 05:09:06.12	270.79	15.27	-50.0	-61.9	3.8	8.46e-01	0	41	104	0	70	15205
2026-01-22 05:09:09.14	270.45	15.00	-50.0	-61.9	3.8	8.45e-01	0	41	104	0	70	15152
2026-01-22 05:09:12.16	270.11	14.72	-50.0	-61.9	3.8	8.46e-01	0	41	104	0	70	15142
2026-01-22 05:09:15.19	269.78	14.45	-50.0	-61.9	3.8	8.46e-01	0	41	104	0	70	15130
2026-01-22 05:09:18.21	269.45	14.18	-50.0	-61.9	3.8	8.46e-01	0	41	104	0	70	15117
2026-01-22 05:09:21.24	269.13	13.92	-50.0	-61.9	3.8	8.46e-01	0	41	104	0	70	15157
2026-01-22 05:09:24.26	268.82	13.65	-50.0	-61.9	3.8	8.45e-01	0	41	104	0	70	15112
2026-01-22 05:09:27.29	268.51	13.39	-50.0	-61.9	3.8	8.47e-01	0	41	104	0	70	15122
2026-01-22 05:09:30.31	268.21	13.13	-50.0	-61.9	3.8	8.45e-01	0	41	104	0	70	15136
2026-01-22 05:09:33.34	267.91	12.87	-50.0	-61.9	3.8	8.46e-01	0	41	104	0	70	15170
2026-01-22 05:09:36.36	267.62	12.61	-50.0	-61.9	3.8	8.46e-01	0	41	104	0	70	15175
2026-01-22 05:09:39.39	267.34	12.36	-50.0	-61.9	3.8	8.46e-01	0	41	104	0	70	15166
2026-01-22 05:09:42.41	267.06	12.10	-50.0	-61.9	3.8	8.46e-01	0	41	104	0	70	15145
2026-01-22 05:09:45.44	266.78	11.85	-50.0	-61.9	3.8	8.47e-01	0	41	104	0	70	15171
2026-01-22 05:09:48.46	266.51	11.60	-50.0	-61.9	3.8	8.47e-01	0	41	104	0	70	15155
2026-01-22 05:09:51.49	266.24	11.36	-50.0	-61.9	3.8	8.45e-01	0	41	104	0	70	15163
2026-01-22 05:09:54.51	265.98	11.11	-50.0	-61.9	3.8	8.45e-01	0	41	104	0	70	15139
2026-01-22 05:09:57.53	265.72	10.87	-50.0	-61.9	3.8	8.46e-01	0	41	104	0	70	15143
2026-01-22 05:10:00.56	265.47	10.63	-50.0	-61.9	3.8	8.45e-01	0	41	104	0	70	15194
2026-01-22 05:10:03.58	265.22	10.39	-50.0	-61.9	3.8	8.45e-01	0	41	104	0	70	15107
2026-01-22 05:10:06.61	264.98	10.15	-50.0	-61.9	3.8	8.45e-01	0	41	104	0	70	15101
2026-01-22 05:10:09.63	264.74	9.91	-50.0	-61.9	3.8	8.47e-01	0	41	104	0	70	15172
2026-01-22 05:10:12.65	264.50	9.68	-50.0	-61.9	3.8	8.47e-01	0	41	104	0	70	15163
2026-01-22 05:10:15.68	264.27	9.44	-50.0	-61.9	3.8	8.46e-01	0	41	104	0	70	15154
2026-01-22 05:10:18.70	264.04	9.21	-50.0	-61.9	3.8	8.46e-01	0	41	104	0	70	15120
2026-01-22 05:10:21.73	263.81	8.98	-50.0	-61.9	3.8	8.46e-01	0	41	104	0	70	15127
2026-01-22 05:10:24.75	263.59	8.76	-50.0	-61.9	3.8	8.46e-01	0	41	104	0	70	15157
2026-01-22 05:10:27.77	263.37	8.53	-50.0	-61.9	3.8	8.46e-01	0	41	104	0	70	15161
2026-01-22 05:10:30.80	263.16	8.30	-50.0	-61.9	3.8	8.46e-01	0	41	104	0	70	15088
2026-01-22 05:10:33.82	262.95	8.08	-50.0	-61.9	3.8	8.46e-01	0	41	104	0	70	15103
2026-01-22 05:10:36.84	262.74	7.86	-50.0	-61.9	3.8	8.47e-01	0	41	104	0	70	15164
2026-01-22 05:10:39.87	262.53	7.64	-50.0	-61.9	3.8	8.47e-01	0	41	104	0	70	15143
2026-01-22 05:10:42.89	262.33	7.42	-50.0	-61.9	3.8	8.47e-01	0	41	104	0	70	15130
2026-01-22 05:10:45.92	262.14	7.21	-50.0	-61.9	3.8	8.47e-01	0	41	104	0	70	15136
2026-01-22 05:10:48.94	261.94	6.99	-50.0	-61.9	3.8	8.47e-01	0	41	104	0	70	15141
2026-01-22 05:10:51.97	261.75	6.78	-50.0	-61.9	3.8	8.47e-01	0	41	104	0	70	15143
2026-01-22 05:10:54.99	261.56	6.56	-50.0	-61.9	3.8	8.47e-01	0	41	104	0	70	15120
2026-01-22 05:10:58.02	261.37	6.35	-50.0	-61.9	3.8	8.46e-01	0	41	104	0	70	15186
2026-01-22 05:11:01.05	261.19	6.14	-50.0	-61.9	3.8	8.47e-01	0	41	104	0	70	15126
2026-01-22 05:11:04.07	261.01	5.93	-50.0	-61.9	3.8	8.45e-01	0	41	104	0	70	15113
2026-01-22 05:11:07.09	260.83	5.73	-50.0	-61.9	3.8	8.46e-01	0	41	104	0	70	15084
2026-01-22 05:11:10.12	260.66	5.52	-50.0	-61.9	3.8	8.47e-01	0	41	104	0	70	15143
2026-01-22 05:11:13.15	260.48	5.32	-50.0	-61.9	3.8	8.46e-01	0	41	104	0	70	15135
2026-01-22 05:11:16.17	260.31	5.12	-50.0	-61.9	3.8	8.46e-01	0	41	104	0	70	15165
2026-01-22 05:11:19.19	260.14	4.91	-50.0	-61.9	3.8	8.46e-01	0	41	104	0	70	15116
2026-01-22 05:11:22.22	259.98	4.71	-50.0	-61.9	3.8	8.46e-01	0	41	104	0	70	15153
2026-01-22 05:11:25.25	259.82	4.51	-50.0	-61.9	3.8	8.46e-01	0	41	104	0	70	15141
2026-01-22 05:11:28.27	259.66	4.32	-50.0	-61.9	3.8	8.47e-01	0	41	104	0	70	15163
2026-01-22 05:11:31.29	259.50	4.12	-50.0	-61.9	3.8	8.46e-01	0	41	104	0	70	15155
2026-01-22 05:11:34.32	259.34	3.92	-50.0	-61.9	3.8	8.45e-01	0	41	104	0	70	15111
2026-01-22 05:11:37.34	259.19	3.73	-50.0	-61.9	3.8	8.47e-01	0	41	104	0	70	15095
2026-01-22 05:11:40.37	259.03	3.54	-50.0	-61.9	3.8	8.47e-01	0	41	104	0	70	15125
2026-01-22 05:11:43.40	258.88	3.35	-50.0	-61.9	3.8	8.45e-01	0	41	104	0	70	15096
2026-01-22 05:11:46.42	258.74	3.16	-50.0	-61.8	3.8	8.45e-01	0	41	104	0	70	15048
2026-01-22 05:11:49.45	258.59	2.97	-50.0	-61.9	3.8	8.45e-01	0	41	104	0	70	15126
2026-01-22 05:11:52.48	258.45	2.78	-50.0	-61.9	3.8	8.46e-01	0	41	104	0	70	15154
2026-01-22 05:11:55.50	258.31	2.59	-50.0	-61.9	3.8	8.47e-01	0	41	104	0	70	15130
2026-01-22 05:11:58.53	258.17	2.40	-50.0	-61.9	3.8	8.46e-01	0	41	104	0	70	15155
2026-01-22 05:12:01.56	258.03	2.22	-50.0	-61.9	3.8	8.46e-01	0	41	104	0	70	15152
2026-01-22 05:12:04.58	257.89	2.03	-50.0	-61.9	3.8	8.46e-01	0	41	104	0	70	15097

#Closed at: 2026-01-22 05:12:06
#Recorded file [0 MB]: D:/lorett/data/31041_260122_075833.dat