passes_logs/2026/01/22/R3.2S_Murmansk/R3.2S_Murmansk__20260122_125917_JL1KF02B01_rec.log

#Pass ID: 20260122_125917_JL1KF02B01
#Satellite: JL1KF02B01
#Configuration: 01B_900M
#almurnet v.1.7.20251203
#Start time: 2026-01-22 12:59:18

#Version: 2.2.20231116
#Station: R3.2S_Murmansk
#Location: 33.079688 lon 68.888172 lat
#TLE: 1 61191U 24169C   26021.53159942  .00009943  00000+0  62067-3 0  9997
#TLE: 2 61191  97.5704 113.0057 0014541 103.1873 257.0980 15.09606060 73708

#Time	Az	El	Level	Level2	SNR	BER	BlckErr	Temp	State	Recorded	gain1	gain2
2026-01-22 12:59:18.56	27.97	2.08	-55.3	-57.4	6.2	0.00e+00	0	41	0	0	81	19095
2026-01-22 12:59:21.59	27.71	2.26	-55.5	-57.6	6.2	0.00e+00	0	41	104	0	82	18461
2026-01-22 12:59:24.61	27.44	2.45	-55.6	-57.7	6.2	0.00e+00	0	42	104	0	82	18624
2026-01-22 12:59:27.64	27.17	2.64	-55.6	-57.7	6.2	0.00e+00	0	42	104	0	82	18702
2026-01-22 12:59:30.66	26.90	2.82	-55.5	-57.6	6.2	0.00e+00	0	42	104	0	82	18571
2026-01-22 12:59:33.69	26.62	3.01	-55.4	-57.5	6.2	0.00e+00	0	42	104	0	82	18318
2026-01-22 12:59:36.71	26.33	3.20	-55.3	-57.4	6.2	0.00e+00	0	42	104	0	82	18023
2026-01-22 12:59:39.74	26.04	3.39	-54.8	-56.9	6.2	0.00e+00	0	42	104	0	81	18121
2026-01-22 12:59:42.76	25.75	3.58	-54.0	-56.1	6.2	0.00e+00	0	42	104	0	79	18561
2026-01-22 12:59:45.79	25.45	3.78	-53.7	-55.8	6.2	0.00e+00	0	42	104	0	79	17915
2026-01-22 12:59:48.81	25.15	3.97	-53.7	-55.8	6.2	0.00e+00	0	42	104	0	79	17857
2026-01-22 12:59:51.84	24.84	4.17	-53.7	-55.7	6.2	0.00e+00	0	42	104	0	79	17761
2026-01-22 12:59:54.86	24.52	4.36	-53.6	-55.8	6.2	0.00e+00	0	42	104	0	79	17769
2026-01-22 12:59:57.89	24.20	4.56	-53.6	-55.8	6.2	0.00e+00	0	42	104	0	79	17768
2026-01-22 13:00:00.91	23.87	4.76	-53.6	-55.7	6.2	0.00e+00	0	42	104	0	79	17694
2026-01-22 13:00:03.94	23.54	4.96	-53.6	-55.7	6.2	0.00e+00	0	42	104	0	79	17639
2026-01-22 13:00:06.96	23.21	5.16	-53.7	-55.8	6.2	0.00e+00	0	42	104	0	79	17839
2026-01-22 13:00:09.98	22.86	5.36	-53.5	-55.6	6.2	0.00e+00	0	42	104	0	79	17530
2026-01-22 13:00:13.01	22.51	5.57	-53.7	-55.8	6.2	0.00e+00	0	42	104	0	79	17901
2026-01-22 13:00:16.04	22.15	5.77	-53.6	-55.7	6.2	0.00e+00	0	42	104	0	79	17590
2026-01-22 13:00:19.06	21.79	5.98	-53.6	-55.7	6.2	0.00e+00	0	42	104	0	79	17673
2026-01-22 13:00:22.09	21.42	6.18	-53.5	-55.6	6.2	0.00e+00	0	43	104	0	79	17489
2026-01-22 13:00:25.11	21.05	6.39	-53.7	-55.8	6.2	0.00e+00	0	43	104	0	79	17869
2026-01-22 13:00:28.14	20.66	6.60	-53.6	-55.7	6.2	0.00e+00	0	42	104	0	79	17585
2026-01-22 13:00:31.16	20.28	6.81	-53.6	-55.7	6.2	0.00e+00	0	43	104	0	79	17722
2026-01-22 13:00:34.18	19.88	7.02	-53.6	-55.7	6.2	0.00e+00	0	43	104	0	79	17681
2026-01-22 13:00:37.21	19.47	7.24	-53.7	-55.8	6.2	0.00e+00	0	43	104	0	79	17832
2026-01-22 13:00:40.23	19.06	7.45	-53.6	-55.7	6.2	0.00e+00	0	43	104	0	79	17683
2026-01-22 13:00:43.25	18.64	7.66	-53.6	-55.7	6.2	0.00e+00	0	43	104	0	79	17739
2026-01-22 13:00:46.28	18.22	7.88	-53.6	-55.7	6.2	0.00e+00	0	43	104	0	79	17644
2026-01-22 13:00:49.30	17.78	8.10	-53.7	-55.8	6.2	0.00e+00	0	43	104	0	79	17889
2026-01-22 13:00:52.33	17.34	8.32	-53.6	-55.7	6.2	0.00e+00	0	43	104	0	79	17707
2026-01-22 13:00:55.35	16.89	8.54	-53.7	-55.8	6.2	0.00e+00	0	43	104	0	79	17903
2026-01-22 13:00:58.38	16.43	8.76	-53.7	-55.8	6.2	0.00e+00	0	43	104	0	79	17810
2026-01-22 13:01:01.40	15.96	8.98	-53.8	-55.9	6.2	0.00e+00	0	43	104	0	79	18019
2026-01-22 13:01:04.43	15.48	9.20	-53.7	-55.8	6.2	0.00e+00	0	43	104	0	79	17895
2026-01-22 13:01:07.45	14.99	9.42	-53.8	-55.9	6.2	0.00e+00	0	43	104	0	79	18096
2026-01-22 13:01:10.48	14.50	9.65	-53.8	-55.8	6.2	0.00e+00	0	43	104	0	79	17967
2026-01-22 13:01:13.50	13.99	9.87	-53.8	-55.9	6.2	0.00e+00	0	43	104	0	79	18103
2026-01-22 13:01:16.52	13.48	10.10	-53.8	-55.9	6.2	0.00e+00	0	43	104	0	79	17979
2026-01-22 13:01:19.55	12.95	10.32	-53.8	-55.9	6.2	0.00e+00	0	43	104	0	79	18155
2026-01-22 13:01:22.58	12.42	10.55	-53.9	-56.0	6.2	0.00e+00	0	43	104	0	79	18233
2026-01-22 13:01:25.60	11.87	10.78	-53.9	-56.0	6.2	0.00e+00	0	43	104	0	79	18247
2026-01-22 13:01:28.62	11.32	11.00	-53.9	-55.9	6.2	0.00e+00	0	43	104	0	79	18162
2026-01-22 13:01:31.65	10.75	11.23	-53.8	-56.0	6.2	0.00e+00	0	43	104	0	79	18227
2026-01-22 13:01:34.67	10.17	11.46	-53.9	-56.0	6.2	0.00e+00	0	43	104	0	79	18219
2026-01-22 13:01:37.70	9.58	11.69	-53.9	-56.0	6.2	0.00e+00	0	43	104	0	79	18200
2026-01-22 13:01:40.71	8.99	11.92	-54.0	-56.1	6.2	0.00e+00	0	43	104	0	79	18416
2026-01-22 13:01:43.74	8.37	12.15	-53.9	-56.0	6.2	0.00e+00	0	43	104	0	79	18240
2026-01-22 13:01:46.76	7.75	12.37	-53.9	-56.0	6.2	0.00e+00	0	43	104	0	79	18355
2026-01-22 13:01:49.79	7.12	12.60	-53.9	-56.1	6.2	0.00e+00	0	43	104	0	79	18400
2026-01-22 13:01:52.82	6.47	12.83	-54.1	-56.2	6.2	0.00e+00	0	43	104	0	79	18685
2026-01-22 13:01:55.84	5.81	13.06	-54.0	-56.0	6.2	0.00e+00	0	43	104	0	79	18384
2026-01-22 13:01:58.86	5.14	13.28	-54.0	-56.1	6.2	0.00e+00	0	43	104	0	79	18451
2026-01-22 13:02:01.89	4.46	13.51	-54.0	-56.1	6.2	0.00e+00	0	43	104	0	79	18484
2026-01-22 13:02:04.91	3.77	13.74	-54.1	-56.2	6.2	0.00e+00	0	43	104	0	79	18656
2026-01-22 13:02:07.93	3.06	13.96	-54.0	-56.1	6.2	0.00e+00	0	43	104	0	79	18465
2026-01-22 13:02:10.96	2.34	14.18	-54.1	-56.2	6.2	0.00e+00	0	43	104	0	79	18649
2026-01-22 13:02:13.98	1.61	14.40	-54.0	-56.1	6.2	0.00e+00	0	43	104	0	79	18544
2026-01-22 13:02:17.01	0.86	14.62	-54.1	-56.2	6.2	0.00e+00	0	43	104	0	79	18805
2026-01-22 13:02:20.03	0.10	14.84	-54.0	-56.1	6.2	0.00e+00	0	43	104	0	79	18555
2026-01-22 13:02:23.06	359.32	15.06	-54.1	-56.2	6.2	0.00e+00	0	43	104	0	79	18683
2026-01-22 13:02:26.08	358.54	15.27	-54.1	-56.2	6.2	0.00e+00	0	43	104	0	79	18657
2026-01-22 13:02:29.10	357.74	15.48	-54.2	-56.3	6.2	0.00e+00	0	43	104	0	79	18877
2026-01-22 13:02:32.13	356.93	15.69	-54.1	-56.2	6.2	0.00e+00	0	43	104	0	79	18677
2026-01-22 13:02:35.15	356.10	15.90	-54.2	-56.3	6.2	0.00e+00	0	43	104	0	79	18823
2026-01-22 13:02:38.18	355.26	16.10	-54.1	-56.2	6.2	0.00e+00	0	43	104	0	79	18733
2026-01-22 13:02:41.20	354.41	16.30	-54.2	-56.3	6.2	0.00e+00	0	43	104	0	79	18855
2026-01-22 13:02:44.23	353.54	16.49	-54.1	-56.2	6.2	0.00e+00	0	43	104	0	79	18808
2026-01-22 13:02:47.26	352.66	16.68	-54.2	-56.3	6.2	0.00e+00	0	43	104	0	79	18856
2026-01-22 13:02:50.28	351.77	16.87	-54.2	-56.3	6.2	0.00e+00	0	43	104	0	79	18842
2026-01-22 13:02:53.31	350.87	17.05	-54.3	-56.4	6.2	0.00e+00	0	44	104	0	79	19112
2026-01-22 13:02:56.33	349.95	17.22	-54.2	-56.3	6.2	0.00e+00	0	43	104	0	79	18962
2026-01-22 13:02:59.36	349.02	17.40	-54.3	-56.4	6.2	0.00e+00	0	43	104	0	79	19175
2026-01-22 13:03:02.38	348.08	17.56	-54.3	-56.4	6.2	0.00e+00	0	44	104	0	79	19133
2026-01-22 13:03:05.41	347.13	17.72	-54.3	-56.4	6.2	0.00e+00	0	43	104	0	79	19132
2026-01-22 13:03:08.43	346.16	17.87	-54.3	-56.4	6.2	0.00e+00	0	43	104	0	79	19153
2026-01-22 13:03:11.46	345.19	18.02	-54.3	-56.4	6.2	0.00e+00	0	43	104	0	79	19109
2026-01-22 13:03:14.48	344.20	18.16	-54.3	-56.4	6.2	0.00e+00	0	43	104	0	79	19144
2026-01-22 13:03:17.50	343.21	18.30	-54.3	-56.4	6.2	0.00e+00	0	44	104	0	79	19244
2026-01-22 13:03:20.53	342.20	18.42	-54.3	-56.4	6.2	0.00e+00	0	44	104	0	79	19191
2026-01-22 13:03:23.56	341.18	18.54	-54.3	-56.4	6.2	0.00e+00	0	43	104	0	79	19189
2026-01-22 13:03:26.58	340.16	18.65	-54.3	-56.5	6.2	0.00e+00	0	43	104	0	79	19264
2026-01-22 13:03:29.61	339.12	18.76	-54.4	-56.5	6.2	0.00e+00	0	43	104	0	79	19314
2026-01-22 13:03:32.64	338.08	18.85	-54.4	-56.5	6.2	0.00e+00	0	44	104	0	79	19411
2026-01-22 13:03:35.66	337.03	18.94	-54.4	-56.5	6.2	0.00e+00	0	43	104	0	79	19279
2026-01-22 13:03:38.68	335.98	19.01	-54.4	-56.5	6.2	0.00e+00	0	43	104	0	79	19361
2026-01-22 13:03:41.71	334.91	19.08	-54.4	-56.5	6.2	0.00e+00	0	43	104	0	79	19400
2026-01-22 13:03:44.73	333.85	19.14	-54.5	-56.6	6.2	0.00e+00	0	43	104	0	79	19583
2026-01-22 13:03:47.76	332.78	19.19	-54.5	-56.6	6.2	0.00e+00	0	43	104	0	79	19531
2026-01-22 13:03:50.78	331.70	19.24	-54.5	-56.6	6.2	0.00e+00	0	43	104	0	79	19544
2026-01-22 13:03:53.81	330.63	19.27	-54.5	-56.6	6.2	0.00e+00	0	43	104	0	79	19581
2026-01-22 13:03:56.83	329.55	19.29	-54.6	-56.7	6.2	0.00e+00	0	43	104	0	79	19769
2026-01-22 13:03:59.86	328.46	19.30	-54.5	-56.6	6.2	0.00e+00	0	43	104	0	79	19588
2026-01-22 13:04:02.88	327.38	19.31	-54.5	-56.6	6.2	0.00e+00	0	44	104	0	79	19664
2026-01-22 13:04:05.90	326.30	19.30	-54.5	-56.6	6.2	0.00e+00	0	43	104	0	79	19574
2026-01-22 13:04:08.92	325.23	19.28	-54.6	-56.7	6.2	0.00e+00	0	43	104	0	79	19735
2026-01-22 13:04:11.95	324.14	19.26	-54.5	-56.6	6.2	0.00e+00	0	43	104	0	79	19544
2026-01-22 13:04:14.97	323.07	19.22	-54.5	-56.6	6.2	0.00e+00	0	43	104	0	79	19680
2026-01-22 13:04:17.99	322.00	19.18	-54.5	-56.6	6.2	0.00e+00	0	43	104	0	79	19657
2026-01-22 13:04:21.02	320.93	19.13	-54.6	-56.7	6.2	0.00e+00	0	43	104	0	79	19829
2026-01-22 13:04:24.04	319.86	19.07	-54.5	-56.6	6.2	0.00e+00	0	43	104	0	79	19662
2026-01-22 13:04:27.06	318.80	18.99	-54.6	-56.7	6.2	0.00e+00	0	43	104	0	79	19801
2026-01-22 13:04:30.08	317.75	18.91	-54.6	-56.7	6.2	0.00e+00	0	44	104	0	79	19747
2026-01-22 13:04:33.11	316.70	18.83	-54.6	-56.7	6.2	0.00e+00	0	43	104	0	79	19853
2026-01-22 13:04:36.13	315.66	18.73	-54.6	-56.7	6.2	0.00e+00	0	43	104	0	79	19751
2026-01-22 13:04:39.15	314.63	18.62	-54.6	-56.7	6.2	0.00e+00	0	44	104	0	79	19916
2026-01-22 13:04:42.17	313.61	18.51	-54.6	-56.7	6.2	0.00e+00	0	44	104	0	79	19872
2026-01-22 13:04:45.20	312.59	18.39	-54.6	-56.7	6.2	0.00e+00	0	43	104	0	79	19923
2026-01-22 13:04:48.22	311.59	18.26	-54.6	-56.7	6.2	0.00e+00	0	43	104	0	79	19808
2026-01-22 13:04:51.25	310.59	18.12	-54.6	-56.8	6.2	0.00e+00	0	43	104	0	79	19963
2026-01-22 13:04:54.27	309.61	17.98	-54.6	-56.7	6.2	0.00e+00	0	44	104	0	79	19930
2026-01-22 13:04:57.30	308.63	17.83	-54.7	-56.8	6.2	0.00e+00	0	43	104	0	79	19956
2026-01-22 13:05:00.32	307.67	17.68	-54.6	-56.7	6.2	0.00e+00	0	43	104	0	79	19790
2026-01-22 13:05:03.34	306.72	17.52	-54.7	-56.7	6.2	0.00e+00	0	44	104	0	79	19870
2026-01-22 13:05:06.37	305.78	17.35	-54.6	-56.8	6.2	0.00e+00	0	44	104	0	79	19944
2026-01-22 13:05:09.39	304.85	17.18	-54.6	-56.7	6.2	0.00e+00	0	43	104	0	79	19882
2026-01-22 13:05:12.41	303.94	17.00	-54.6	-56.7	6.2	0.00e+00	0	43	104	0	79	19853
2026-01-22 13:05:15.44	303.03	16.81	-54.6	-56.7	6.2	0.00e+00	0	43	104	0	79	19877
2026-01-22 13:05:18.46	302.14	16.63	-54.6	-56.7	6.2	0.00e+00	0	43	104	0	79	19900
2026-01-22 13:05:21.48	301.27	16.43	-54.7	-56.8	6.2	0.00e+00	0	44	104	0	79	20034
2026-01-22 13:05:24.51	300.40	16.24	-54.6	-56.7	6.2	0.00e+00	0	43	104	0	79	19842
2026-01-22 13:05:27.53	299.55	16.04	-54.6	-56.7	6.2	0.00e+00	0	43	104	0	79	19863
2026-01-22 13:05:30.55	298.72	15.84	-54.6	-56.7	6.2	0.00e+00	0	43	104	0	79	19843
2026-01-22 13:05:33.58	297.89	15.63	-54.6	-56.7	6.2	0.00e+00	0	43	104	0	79	19864
2026-01-22 13:05:36.61	297.08	15.42	-54.6	-56.7	6.2	0.00e+00	0	44	104	0	79	19889
2026-01-22 13:05:39.63	296.28	15.21	-54.6	-56.7	6.2	0.00e+00	0	43	104	0	79	19879
2026-01-22 13:05:42.66	295.49	14.99	-54.6	-56.7	6.2	0.00e+00	0	43	104	0	79	19856
2026-01-22 13:05:45.68	294.72	14.78	-54.6	-56.7	6.2	0.00e+00	0	44	104	0	79	19814
2026-01-22 13:05:48.71	293.96	14.56	-54.6	-56.7	6.2	0.00e+00	0	44	104	0	79	19795
2026-01-22 13:05:51.73	293.22	14.34	-54.6	-56.7	6.2	0.00e+00	0	43	104	0	79	19878
2026-01-22 13:05:54.76	292.49	14.11	-54.6	-56.7	6.2	0.00e+00	0	43	104	0	79	19816
2026-01-22 13:05:57.78	291.77	13.89	-54.5	-56.6	6.2	0.00e+00	0	43	104	0	79	19595
2026-01-22 13:06:00.81	291.06	13.66	-54.5	-56.7	6.2	0.00e+00	0	43	104	0	79	19788
2026-01-22 13:06:03.83	290.37	13.44	-54.6	-56.7	6.2	0.00e+00	0	44	104	0	79	19796
2026-01-22 13:06:06.86	289.69	13.21	-54.5	-56.6	6.2	0.00e+00	0	43	104	0	79	19536
2026-01-22 13:06:09.88	289.02	12.98	-54.4	-56.5	6.2	0.00e+00	0	44	104	0	79	19359
2026-01-22 13:06:12.91	288.36	12.75	-54.4	-56.5	6.2	0.00e+00	0	43	104	0	79	19405
2026-01-22 13:06:15.93	287.72	12.53	-54.4	-56.5	6.2	0.00e+00	0	43	104	0	79	19339
2026-01-22 13:06:18.96	287.08	12.30	-54.2	-56.3	6.2	0.00e+00	0	43	104	0	79	18899
2026-01-22 13:06:21.98	286.46	12.07	-54.1	-56.2	6.2	0.00e+00	0	44	104	0	79	18750
2026-01-22 13:06:25.01	285.85	11.84	-54.2	-56.3	6.2	0.00e+00	0	44	104	0	79	18852
2026-01-22 13:06:28.04	285.25	11.61	-54.1	-56.3	6.2	0.00e+00	0	44	104	0	79	18839
2026-01-22 13:06:31.06	284.66	11.38	-54.0	-56.1	6.2	0.00e+00	0	44	104	0	79	18541
2026-01-22 13:06:34.08	284.09	11.15	-54.0	-56.1	6.2	0.00e+00	0	44	104	0	79	18416
2026-01-22 13:06:37.11	283.52	10.92	-54.0	-56.1	6.2	0.00e+00	0	44	104	0	79	18564
2026-01-22 13:06:40.13	282.97	10.69	-54.0	-56.1	6.2	0.00e+00	0	44	104	0	79	18463
2026-01-22 13:06:43.16	282.42	10.47	-53.9	-56.0	6.2	0.00e+00	0	43	104	0	79	18260
2026-01-22 13:06:46.18	281.89	10.24	-53.9	-56.0	6.2	0.00e+00	0	43	104	0	79	18190
2026-01-22 13:06:49.20	281.37	10.01	-53.9	-56.0	6.2	0.00e+00	0	43	104	0	79	18308
2026-01-22 13:06:52.23	280.85	9.79	-53.9	-56.0	6.2	0.00e+00	0	43	104	0	79	18314
2026-01-22 13:06:55.25	280.35	9.56	-53.8	-55.9	6.2	0.00e+00	0	44	104	0	79	18061
2026-01-22 13:06:58.28	279.85	9.34	-53.8	-55.9	6.2	0.00e+00	0	43	104	0	79	18030
2026-01-22 13:07:01.30	279.36	9.11	-53.8	-55.9	6.2	0.00e+00	0	43	104	0	79	18032
2026-01-22 13:07:04.33	278.89	8.89	-53.8	-55.9	6.2	0.00e+00	0	44	104	0	79	18067
2026-01-22 13:07:07.36	278.42	8.67	-53.7	-55.9	6.2	0.00e+00	0	43	104	0	79	18027
2026-01-22 13:07:10.38	277.96	8.45	-53.7	-55.8	6.2	0.00e+00	0	44	104	0	79	17872
2026-01-22 13:07:13.41	277.51	8.23	-53.7	-55.8	6.2	0.00e+00	0	43	104	0	79	17907
2026-01-22 13:07:16.44	277.06	8.01	-53.7	-55.8	6.2	0.00e+00	0	43	104	0	79	17855
2026-01-22 13:07:19.47	276.63	7.79	-53.6	-55.8	6.2	0.00e+00	0	44	104	0	79	17772
2026-01-22 13:07:22.49	276.20	7.58	-53.6	-55.7	6.2	0.00e+00	0	44	104	0	79	17686
2026-01-22 13:07:25.52	275.78	7.36	-53.6	-55.7	6.2	0.00e+00	0	43	104	0	79	17621
2026-01-22 13:07:28.54	275.37	7.15	-53.6	-55.7	6.2	0.00e+00	0	44	104	0	79	17684
2026-01-22 13:07:31.57	274.97	6.93	-53.6	-55.7	6.2	0.00e+00	0	43	104	0	79	17595
2026-01-22 13:07:34.60	274.57	6.72	-53.5	-55.6	6.2	0.00e+00	0	44	104	0	78	18421
2026-01-22 13:07:37.62	274.18	6.51	-53.5	-55.5	6.2	0.00e+00	0	43	104	0	78	18359
2026-01-22 13:07:40.64	273.80	6.30	-53.5	-55.6	6.2	0.00e+00	0	43	104	0	78	18548
2026-01-22 13:07:43.67	273.42	6.09	-53.4	-55.6	6.2	0.00e+00	0	44	104	0	78	18419
2026-01-22 13:07:46.69	273.05	5.89	-53.3	-55.5	6.2	0.00e+00	0	43	104	0	78	18222
2026-01-22 13:07:49.72	272.69	5.68	-53.3	-55.4	6.2	0.00e+00	0	43	104	0	78	18089
2026-01-22 13:07:52.74	272.34	5.48	-53.4	-55.5	6.2	0.00e+00	0	44	104	0	78	18277
2026-01-22 13:07:55.77	271.99	5.27	-53.3	-55.4	6.2	0.00e+00	0	44	104	0	78	18103
2026-01-22 13:07:58.79	271.64	5.07	-53.0	-55.1	6.2	0.00e+00	0	44	104	0	78	17470
2026-01-22 13:08:01.82	271.30	4.87	-53.3	-55.4	6.2	0.00e+00	0	44	104	0	78	18122
2026-01-22 13:08:04.84	270.97	4.67	-53.5	-55.6	6.2	0.00e+00	0	43	104	0	78	18469
2026-01-22 13:08:07.86	270.65	4.47	-53.7	-55.9	6.2	0.00e+00	0	43	104	0	78	19042
2026-01-22 13:08:10.89	270.33	4.27	-54.0	-56.0	6.2	0.00e+00	0	43	104	0	78	19464
2026-01-22 13:08:13.91	270.01	4.08	-54.1	-56.2	6.2	0.00e+00	0	44	104	0	78	19766
2026-01-22 13:08:16.94	269.70	3.88	-54.2	-56.3	6.2	0.00e+00	0	44	104	0	78	19960
2026-01-22 13:08:19.96	269.40	3.69	-54.3	-56.4	6.2	0.00e+00	0	44	104	0	79	19184
2026-01-22 13:08:22.98	269.10	3.49	-54.3	-56.4	6.2	0.00e+00	0	44	104	0	79	19090
2026-01-22 13:08:26.01	268.80	3.30	-54.3	-56.4	6.2	0.00e+00	0	44	104	0	79	19056
2026-01-22 13:08:29.03	268.51	3.11	-54.2	-56.3	6.2	0.00e+00	0	44	104	0	79	18993
2026-01-22 13:08:32.06	268.23	2.92	-54.2	-56.3	6.2	0.00e+00	0	43	104	0	79	18960
2026-01-22 13:08:35.08	267.95	2.73	-54.2	-56.3	6.2	0.00e+00	0	43	104	0	79	18916
2026-01-22 13:08:38.10	267.68	2.54	-54.2	-56.3	6.2	0.00e+00	0	44	104	0	79	18901
2026-01-22 13:08:41.13	267.40	2.36	-54.2	-56.3	6.2	0.00e+00	0	44	104	0	79	18867
2026-01-22 13:08:44.15	267.14	2.17	-54.2	-56.3	6.2	0.00e+00	0	44	104	0	79	18890
2026-01-22 13:08:47.18	266.87	1.99	-54.2	-56.3	6.2	0.00e+00	0	43	104	0	79	18849

#Closed at: 2026-01-22 13:08:47
#Recorded file [0 MB]: D:/lorett/data/31041_260122_155918.dat