passes_logs/2026/01/22/R3.2S_Murmansk/R3.2S_Murmansk__20260122_212901_JL1KF02B06_rec.log

#Pass ID: 20260122_212901_JL1KF02B06
#Satellite: JL1KF02B06
#Configuration: 01B_900M
#almurnet v.1.7.20251203
#Start time: 2026-01-22 21:29:01

#Version: 2.2.20231116
#Station: R3.2S_Murmansk
#Location: 33.079688 lon 68.888172 lat
#TLE: 1 61192U 24169D   26022.48839692  .00006381  00000+0  40023-3 0  9991
#TLE: 2 61192  97.5622 113.5680 0006993  82.6694 277.5330 15.09645297 73856

#Time	Az	El	Level	Level2	SNR	BER	BlckErr	Temp	State	Recorded	gain1	gain2
2026-01-22 21:29:01.20	203.18	2.00	-55.3	-57.4	6.3	0.00e+00	0	44	0	0	81	19124
2026-01-22 21:29:04.22	203.43	2.19	-55.3	-57.4	6.2	0.00e+00	0	44	104	0	82	18065
2026-01-22 21:29:07.25	203.67	2.38	-55.3	-57.4	6.2	0.00e+00	0	44	104	0	82	18043
2026-01-22 21:29:10.27	203.92	2.57	-55.6	-57.6	6.2	0.00e+00	0	44	104	0	82	18560
2026-01-22 21:29:13.30	204.17	2.77	-55.5	-57.6	6.2	0.00e+00	0	44	104	0	82	18494
2026-01-22 21:29:16.33	204.43	2.96	-55.3	-57.4	6.2	0.00e+00	0	44	104	0	82	18160
2026-01-22 21:29:19.35	204.69	3.16	-55.2	-57.3	6.2	0.00e+00	0	44	104	0	82	17914
2026-01-22 21:29:22.37	204.95	3.35	-55.1	-57.1	6.2	0.00e+00	0	44	104	0	82	17555
2026-01-22 21:29:25.39	205.22	3.55	-54.8	-56.9	6.2	0.00e+00	0	45	104	0	81	18052
2026-01-22 21:29:28.42	205.50	3.75	-54.4	-56.6	6.2	0.00e+00	0	45	104	0	80	18394
2026-01-22 21:29:31.45	205.78	3.95	-53.9	-56.0	6.2	0.00e+00	0	45	104	0	79	18216
2026-01-22 21:29:34.47	206.06	4.16	-53.8	-55.9	6.2	0.00e+00	0	45	104	0	79	18156
2026-01-22 21:29:37.50	206.35	4.36	-53.8	-55.9	6.2	0.00e+00	0	45	104	0	79	18099
2026-01-22 21:29:40.52	206.64	4.57	-53.8	-55.9	6.2	0.00e+00	0	45	104	0	79	18062
2026-01-22 21:29:43.54	206.93	4.77	-53.8	-55.9	6.2	0.00e+00	0	45	104	0	79	18014
2026-01-22 21:29:46.57	207.24	4.98	-53.8	-55.9	6.2	0.00e+00	0	45	104	0	79	18054
2026-01-22 21:29:49.59	207.54	5.19	-53.8	-55.9	6.2	0.00e+00	0	45	104	0	79	18028
2026-01-22 21:29:52.61	207.85	5.40	-53.7	-55.8	6.2	0.00e+00	0	45	104	0	79	17879
2026-01-22 21:29:55.63	208.17	5.61	-53.7	-55.8	6.2	0.00e+00	0	45	104	0	79	17924
2026-01-22 21:29:58.66	208.50	5.83	-53.8	-55.9	6.2	0.00e+00	0	45	104	0	79	18020
2026-01-22 21:30:01.68	208.82	6.05	-53.7	-55.8	6.2	0.00e+00	0	45	104	0	79	17960
2026-01-22 21:30:04.70	209.16	6.26	-53.7	-55.8	6.2	0.00e+00	0	45	104	0	79	17778
2026-01-22 21:30:07.73	209.50	6.48	-53.7	-55.8	6.2	0.00e+00	0	45	104	0	79	17923
2026-01-22 21:30:10.75	209.85	6.71	-53.8	-55.9	6.2	0.00e+00	0	45	104	0	79	18047
2026-01-22 21:30:13.78	210.20	6.93	-53.8	-55.9	6.2	0.00e+00	0	46	104	0	79	18047
2026-01-22 21:30:16.80	210.56	7.15	-53.7	-55.8	6.2	0.00e+00	0	46	104	0	79	17864
2026-01-22 21:30:19.82	210.92	7.38	-53.8	-55.9	6.2	0.00e+00	0	46	104	0	79	18013
2026-01-22 21:30:22.84	211.30	7.61	-53.8	-55.9	6.2	0.00e+00	0	46	104	0	79	18157
2026-01-22 21:30:25.86	211.68	7.84	-53.9	-56.0	6.2	0.00e+00	0	46	104	0	79	18228
2026-01-22 21:30:28.88	212.06	8.07	-53.8	-55.9	6.2	0.00e+00	0	46	104	0	79	18000
2026-01-22 21:30:31.91	212.46	8.31	-53.8	-55.9	6.2	0.00e+00	0	46	104	0	79	18163
2026-01-22 21:30:34.93	212.86	8.54	-49.9	-50.5	6.8	0.00e+00	0	46	104	0	71	15374
2026-01-22 21:30:37.96	213.27	8.78	-47.2	-47.6	6.7	0.00e+00	0	46	104	0	66	14610
2026-01-22 21:30:40.99	213.69	9.02	-49.6	-50.3	6.6	0.00e+00	0	46	104	0	69	16815
2026-01-22 21:30:44.01	214.11	9.26	-52.9	-54.6	6.2	0.00e+00	0	46	104	0	76	18469
2026-01-22 21:30:47.04	214.55	9.50	-46.7	-47.0	7.6	0.00e+00	0	46	104	0	65	14486
2026-01-22 21:30:50.06	214.99	9.75	-49.8	-50.4	6.9	0.00e+00	0	46	104	0	70	16193
2026-01-22 21:30:53.08	215.44	9.99	-29.3	-29.1	17.6	0.00e+00	0	46	0	226492416	30	13890
2026-01-22 21:30:56.10	215.90	10.24	-28.7	-28.6	17.7	0.00e+00	0	46	0	570425344	29	13855
2026-01-22 21:30:59.13	216.37	10.49	-28.4	-28.3	17.9	0.00e+00	0	46	0	914358272	28	14168
2026-01-22 21:31:02.15	216.84	10.74	-28.4	-28.2	17.8	0.00e+00	0	47	0	1249902592	28	14110
2026-01-22 21:31:05.17	217.33	11.00	-28.1	-28.0	17.8	0.00e+00	0	47	0	1585446912	28	13682
2026-01-22 21:31:08.19	217.83	11.25	-28.4	-28.3	17.8	0.00e+00	0	47	0	1920991232	28	14124
2026-01-22 21:31:11.21	218.34	11.51	-28.1	-27.9	17.9	0.00e+00	0	47	0	2273312768	28	13601
2026-01-22 21:31:14.24	218.86	11.77	-28.1	-28.0	17.8	0.00e+00	0	47	0	2608857088	27	14502
2026-01-22 21:31:17.26	219.38	12.03	-27.9	-27.8	18.0	1.90e-06	0	47	0	2944401408	27	14151
2026-01-22 21:31:20.28	219.92	12.29	-27.8	-27.6	18.1	0.00e+00	0	47	0	3288334336	27	13925
2026-01-22 21:31:23.30	220.47	12.55	-27.7	-27.5	18.2	0.00e+00	0	47	0	3632267264	27	13746
2026-01-22 21:31:26.33	221.04	12.82	-27.7	-27.5	18.2	1.90e-06	0	47	0	3967811584	27	13732
2026-01-22 21:31:29.35	221.61	13.08	-27.4	-27.3	18.4	0.00e+00	0	47	0	4311744512	26	14156
2026-01-22 21:31:32.38	222.20	13.35	-27.3	-27.1	18.4	0.00e+00	0	47	0	4647288832	26	13937
2026-01-22 21:31:35.40	222.80	13.62	-27.3	-27.1	18.5	0.00e+00	0	47	0	4999610368	26	13893
2026-01-22 21:31:38.43	223.41	13.89	-27.1	-26.9	18.6	0.00e+00	0	47	0	5335154688	26	13611
2026-01-22 21:31:41.45	224.03	14.16	-27.2	-27.1	18.3	0.00e+00	0	47	0	5670699008	26	13792
2026-01-22 21:31:44.48	224.67	14.44	-26.9	-26.8	18.4	0.00e+00	0	47	0	6006243328	25	14175
2026-01-22 21:31:47.50	225.32	14.71	-27.0	-26.9	18.1	0.00e+00	0	47	0	6358564864	25	14277
2026-01-22 21:31:50.53	225.98	14.98	-26.9	-26.7	18.1	0.00e+00	0	47	0	6694109184	25	14085
2026-01-22 21:31:53.55	226.66	15.26	-26.6	-26.5	18.3	0.00e+00	0	47	0	7029653504	25	13692
2026-01-22 21:31:56.58	227.36	15.53	-26.7	-26.5	18.2	0.00e+00	0	47	0	7365197824	25	13707
2026-01-22 21:31:59.60	228.06	15.81	-26.4	-26.2	18.4	0.00e+00	0	47	0	7717519360	24	14098
2026-01-22 21:32:02.62	228.78	16.08	-26.3	-26.2	18.5	0.00e+00	0	47	0	8053063680	24	13958
2026-01-22 21:32:05.65	229.52	16.36	-26.4	-26.3	18.2	0.00e+00	0	48	0	8396996608	24	14182
2026-01-22 21:32:08.67	230.27	16.64	-26.1	-26.0	18.2	0.00e+00	0	48	0	8732540928	24	13643
2026-01-22 21:32:11.69	231.04	16.91	-26.1	-25.9	18.1	0.00e+00	0	47	0	9068085248	24	13597
2026-01-22 21:32:14.72	231.82	17.18	-26.1	-25.9	18.2	0.00e+00	0	47	0	9420406784	23	14437
2026-01-22 21:32:17.74	232.62	17.46	-25.8	-25.6	18.0	0.00e+00	0	48	0	9755951104	23	13893
2026-01-22 21:32:20.77	233.44	17.73	-26.0	-25.8	17.6	0.00e+00	0	47	0	10091495424	23	14274
2026-01-22 21:32:23.79	234.27	18.00	-25.8	-25.6	17.8	0.00e+00	0	47	0	10427039744	23	13949
2026-01-22 21:32:26.82	235.12	18.27	-25.8	-25.6	17.8	0.00e+00	0	47	0	10779361280	23	13840
2026-01-22 21:32:29.84	235.99	18.54	-25.6	-25.4	17.8	0.00e+00	0	48	0	11114905600	23	13622
2026-01-22 21:32:32.86	236.87	18.80	-25.6	-25.4	17.4	0.00e+00	0	48	0	11450449920	22	14359
2026-01-22 21:32:35.89	237.77	19.06	-25.5	-25.3	17.4	0.00e+00	0	47	0	11794382848	22	14186
2026-01-22 21:32:38.91	238.69	19.32	-25.5	-25.3	17.3	0.00e+00	0	48	0	12138315776	22	14237
2026-01-22 21:32:41.93	239.62	19.58	-25.4	-25.2	17.6	0.00e+00	0	48	0	12473860096	22	14070
2026-01-22 21:32:44.95	240.57	19.83	-25.4	-25.2	17.1	0.00e+00	0	48	0	12817793024	22	14010
2026-01-22 21:32:47.98	241.54	20.08	-25.2	-25.0	17.0	0.00e+00	0	48	0	13153337344	22	13717
2026-01-22 21:32:51.01	242.53	20.32	-25.1	-24.9	16.6	0.00e+00	0	48	0	13497270272	22	13632
2026-01-22 21:32:54.03	243.53	20.56	-24.9	-24.8	16.8	0.00e+00	0	48	0	13841203200	21	14169
2026-01-22 21:32:57.05	244.55	20.79	-24.9	-24.8	16.5	0.00e+00	0	48	0	14176747520	21	14153
2026-01-22 21:33:00.08	245.59	21.01	-24.9	-24.8	16.4	0.00e+00	0	48	0	14512291840	21	14116
2026-01-22 21:33:03.11	246.65	21.23	-24.8	-24.7	16.4	0.00e+00	0	48	0	14864613376	21	13973
2026-01-22 21:33:06.13	247.72	21.45	-24.8	-24.6	16.0	0.00e+00	0	48	0	15200157696	21	13876
2026-01-22 21:33:09.15	248.80	21.65	-24.6	-24.5	15.6	0.00e+00	0	48	0	15535702016	21	13674
2026-01-22 21:33:12.18	249.91	21.85	-24.8	-24.7	15.9	1.90e-06	0	47	0	15871246336	21	13971
2026-01-22 21:33:15.20	251.02	22.04	-24.7	-24.5	15.7	1.90e-06	0	48	0	16223567872	21	13760
2026-01-22 21:33:18.23	252.15	22.22	-24.5	-24.4	16.0	0.00e+00	0	48	0	16559112192	21	13524
2026-01-22 21:33:21.25	253.30	22.39	-24.6	-24.4	15.9	0.00e+00	0	48	0	16894656512	20	14417
2026-01-22 21:33:24.27	254.46	22.56	-24.5	-24.3	15.6	1.90e-06	0	48	0	17238589440	20	14215
2026-01-22 21:33:27.30	255.63	22.71	-24.5	-24.3	15.8	0.00e+00	0	48	0	17582522368	20	14182
2026-01-22 21:33:30.32	256.81	22.85	-24.4	-24.2	15.8	0.00e+00	0	47	0	17918066688	20	14062
2026-01-22 21:33:33.34	258.01	22.98	-24.4	-24.2	16.1	0.00e+00	0	48	0	18261999616	20	14084
2026-01-22 21:33:36.37	259.21	23.10	-24.5	-24.3	16.2	0.00e+00	0	48	0	18597543936	20	14194
2026-01-22 21:33:39.39	260.43	23.21	-24.5	-24.3	16.5	0.00e+00	0	48	0	18933088256	20	14256
2026-01-22 21:33:42.42	261.65	23.31	-24.5	-24.3	16.4	0.00e+00	0	48	0	19285409792	20	14244
2026-01-22 21:33:45.44	262.88	23.39	-24.4	-24.3	16.7	0.00e+00	0	48	0	19620954112	20	14164
2026-01-22 21:33:48.47	264.13	23.47	-24.5	-24.3	16.9	0.00e+00	0	48	0	19956498432	20	14237
2026-01-22 21:33:51.49	265.37	23.53	-24.5	-24.3	17.0	0.00e+00	0	48	0	20292042752	20	14241
2026-01-22 21:33:54.51	266.61	23.57	-24.5	-24.3	17.6	0.00e+00	0	48	0	20644364288	20	14218
2026-01-22 21:33:57.54	267.87	23.61	-24.6	-24.5	17.9	0.00e+00	0	48	0	20979908608	20	14476
2026-01-22 21:34:00.57	269.13	23.63	-24.8	-24.6	17.9	0.00e+00	0	48	0	21315452928	20	14657
2026-01-22 21:34:03.59	270.38	23.64	-24.7	-24.6	18.4	0.00e+00	0	48	0	21659385856	20	14638
2026-01-22 21:34:06.61	271.63	23.63	-24.7	-24.6	18.7	0.00e+00	0	48	0	22003318784	20	14637
2026-01-22 21:34:09.63	272.89	23.61	-24.8	-24.6	18.9	0.00e+00	0	48	0	22347251712	20	14741
2026-01-22 21:34:12.65	274.14	23.58	-24.8	-24.7	19.1	0.00e+00	0	48	0	22682796032	20	14801
2026-01-22 21:34:15.68	275.39	23.54	-24.9	-24.7	19.2	0.00e+00	0	48	0	23018340352	20	14890
2026-01-22 21:34:18.70	276.63	23.48	-24.8	-24.7	19.5	0.00e+00	0	48	0	23370661888	20	14815
2026-01-22 21:34:21.73	277.87	23.41	-24.9	-24.8	19.6	0.00e+00	0	48	0	23706206208	20	14993
2026-01-22 21:34:24.75	279.10	23.33	-25.0	-24.8	19.7	0.00e+00	0	48	0	24041750528	20	15049
2026-01-22 21:34:27.77	280.32	23.24	-25.0	-24.8	19.6	0.00e+00	0	48	0	24377294848	20	15110
2026-01-22 21:34:30.79	281.54	23.13	-25.0	-24.8	19.6	0.00e+00	0	48	0	24712839168	20	15044
2026-01-22 21:34:33.82	282.75	23.01	-25.2	-25.0	19.5	0.00e+00	0	48	0	25065160704	20	15376
2026-01-22 21:34:36.84	283.94	22.89	-25.1	-24.9	19.7	0.00e+00	0	48	0	25400705024	21	14430
2026-01-22 21:34:39.86	285.12	22.75	-25.2	-25.1	19.6	0.00e+00	0	48	0	25744637952	21	14629
2026-01-22 21:34:42.89	286.30	22.60	-25.2	-25.1	19.7	0.00e+00	0	48	0	26080182272	21	14628
2026-01-22 21:34:45.91	287.46	22.44	-25.3	-25.2	19.8	0.00e+00	0	48	0	26424115200	21	14786
2026-01-22 21:34:48.93	288.60	22.27	-25.5	-25.3	19.8	0.00e+00	0	48	0	26768048128	21	15006
2026-01-22 21:34:51.96	289.73	22.09	-25.5	-25.3	19.8	0.00e+00	0	48	0	27103592448	22	14250
2026-01-22 21:34:54.96	290.84	21.90	-25.6	-25.5	19.6	0.00e+00	0	48	0	27439136768	22	14452
2026-01-22 21:34:57.89	291.91	21.71	-25.9	-25.7	19.6	0.00e+00	0	48	0	27766292480	22	14842
2026-01-22 21:35:00.80	292.96	21.52	-25.7	-25.5	19.6	0.00e+00	0	48	0	28101836800	22	14577
2026-01-22 21:35:03.71	293.99	21.32	-25.9	-25.7	19.5	0.00e+00	0	48	0	28428992512	22	14844
2026-01-22 21:35:06.62	295.01	21.11	-26.0	-25.8	19.5	0.00e+00	0	48	0	28756148224	22	14997
2026-01-22 21:35:09.53	296.01	20.90	-26.0	-25.8	19.4	0.00e+00	0	48	0	29083303936	22	15012
2026-01-22 21:35:12.45	297.00	20.68	-26.1	-26.0	19.5	0.00e+00	0	48	0	29410459648	22	15321
2026-01-22 21:35:15.35	297.97	20.45	-26.3	-26.1	19.5	0.00e+00	0	48	0	29737615360	23	14726
2026-01-22 21:35:18.27	298.92	20.22	-26.2	-26.1	19.5	0.00e+00	0	48	0	30056382464	23	14623
2026-01-22 21:35:21.18	299.86	19.99	-26.3	-26.1	19.6	0.00e+00	0	48	0	30383538176	23	14762
2026-01-22 21:35:24.09	300.79	19.75	-26.5	-26.3	19.5	0.00e+00	0	48	0	30710693888	23	15058
2026-01-22 21:35:27.00	301.69	19.51	-26.4	-26.2	19.4	0.00e+00	0	48	0	31054626816	23	14833
2026-01-22 21:35:29.91	302.58	19.26	-26.5	-26.4	19.3	0.00e+00	0	48	0	31373393920	23	15132
2026-01-22 21:35:32.83	303.46	19.01	-26.5	-26.3	19.3	0.00e+00	0	48	0	31700549632	23	15078
2026-01-22 21:35:35.75	304.32	18.76	-26.5	-26.3	19.1	0.00e+00	0	48	0	32027705344	23	15094
2026-01-22 21:35:38.65	305.16	18.51	-26.6	-26.4	18.9	0.00e+00	0	48	0	32354861056	23	15263
2026-01-22 21:35:41.57	305.99	18.25	-26.7	-26.5	19.0	0.00e+00	0	48	0	32682016768	24	14598
2026-01-22 21:35:44.48	306.81	17.99	-26.8	-26.7	18.7	0.00e+00	0	48	0	33009172480	24	14779
2026-01-22 21:35:47.39	307.60	17.73	-27.0	-26.8	18.9	0.00e+00	0	48	0	33336328192	24	15045
2026-01-22 21:35:50.30	308.38	17.47	-27.0	-26.8	18.7	0.00e+00	0	48	0	33671872512	24	15074
2026-01-22 21:35:53.21	309.15	17.21	-27.1	-26.9	18.6	0.00e+00	0	48	0	33999028224	24	15264
2026-01-22 21:35:56.13	309.90	16.95	-27.2	-27.1	18.7	0.00e+00	0	48	0	34326183936	25	14649
2026-01-22 21:35:59.04	310.64	16.69	-27.2	-27.1	18.6	0.00e+00	0	48	0	34653339648	25	14627
2026-01-22 21:36:01.95	311.36	16.42	-27.5	-27.3	18.4	0.00e+00	0	48	0	34980495360	25	15055
2026-01-22 21:36:04.86	312.07	16.16	-27.4	-27.2	18.4	0.00e+00	0	48	0	35299262464	25	14868
2026-01-22 21:36:07.77	312.77	15.90	-27.5	-27.4	18.4	0.00e+00	0	48	0	35626418176	25	15167
2026-01-22 21:36:10.68	313.45	15.63	-27.6	-27.4	18.2	0.00e+00	0	48	0	35953573888	25	15252
2026-01-22 21:36:13.60	314.12	15.37	-27.9	-27.7	17.8	0.00e+00	0	48	0	36289118208	26	14871
2026-01-22 21:36:16.52	314.77	15.10	-27.9	-27.7	17.7	1.90e-06	0	48	0	36616273920	26	14937
2026-01-22 21:36:19.43	315.41	14.84	-28.0	-27.8	17.6	0.00e+00	0	48	0	36943429632	26	15028
2026-01-22 21:36:22.34	316.04	14.58	-28.1	-27.9	17.5	0.00e+00	0	48	0	37270585344	26	15205
2026-01-22 21:36:25.25	316.66	14.32	-28.1	-28.0	17.5	0.00e+00	0	48	0	37597741056	27	14492
2026-01-22 21:36:28.17	317.26	14.06	-28.2	-28.1	17.5	0.00e+00	0	48	0	37924896768	27	14656
2026-01-22 21:36:31.08	317.86	13.80	-28.3	-28.1	17.8	1.90e-06	0	48	0	38252052480	27	14695
2026-01-22 21:36:33.99	318.44	13.54	-28.4	-28.3	17.7	0.00e+00	0	48	0	38579208192	27	14954
2026-01-22 21:36:36.90	319.01	13.29	-28.5	-28.4	17.7	0.00e+00	0	48	0	38914752512	27	15171
2026-01-22 21:36:39.82	319.56	13.03	-28.5	-28.3	17.6	1.90e-06	0	47	0	39241908224	27	15073
2026-01-22 21:36:42.73	320.11	12.77	-28.5	-28.3	17.5	1.90e-06	0	48	0	39569063936	28	14235
2026-01-22 21:36:45.64	320.65	12.52	-28.6	-28.5	17.6	0.00e+00	0	48	0	39896219648	28	14448
2026-01-22 21:36:48.54	321.17	12.27	-28.7	-28.5	17.7	0.00e+00	0	48	0	40214986752	28	14584
2026-01-22 21:36:51.46	321.69	12.02	-28.8	-28.7	17.6	5.70e-06	0	48	0	40542142464	28	14781
2026-01-22 21:36:54.37	322.19	11.77	-28.8	-28.7	17.7	0.00e+00	0	48	0	40869298176	28	14814
2026-01-22 21:36:57.28	322.69	11.52	-28.9	-28.7	17.8	0.00e+00	0	48	0	41196453888	28	14886
2026-01-22 21:37:00.19	323.17	11.28	-29.0	-28.8	17.6	0.00e+00	0	48	0	41523609600	28	15028
2026-01-22 21:37:03.11	323.65	11.03	-29.1	-29.0	17.5	1.90e-06	0	48	0	41859153920	28	15311
2026-01-22 21:37:06.02	324.12	10.79	-29.3	-29.1	17.4	3.80e-06	0	48	0	42186309632	29	14776
2026-01-22 21:37:08.93	324.58	10.55	-54.2	-56.3	6.2	0.00e+00	0	47	104	42328915968	78	20146
2026-01-22 21:37:11.83	325.03	10.31	-54.2	-56.3	6.2	0.00e+00	0	47	104	42328915968	78	19973
2026-01-22 21:37:14.74	325.47	10.07	-54.1	-56.2	6.2	0.00e+00	0	47	104	42328915968	78	19876
2026-01-22 21:37:17.65	325.90	9.84	-54.1	-56.2	6.2	0.00e+00	0	47	104	42328915968	78	19716
2026-01-22 21:37:20.56	326.33	9.60	-54.0	-56.1	6.2	0.00e+00	0	47	104	42328915968	78	19648
2026-01-22 21:37:23.48	326.75	9.37	-54.0	-56.1	6.2	0.00e+00	0	47	104	42328915968	78	19546
2026-01-22 21:37:26.39	327.16	9.14	-53.9	-56.0	6.2	0.00e+00	0	47	104	42328915968	78	19440
2026-01-22 21:37:29.30	327.56	8.91	-53.9	-56.0	6.2	0.00e+00	0	47	104	42328915968	78	19298
2026-01-22 21:37:32.21	327.96	8.68	-53.9	-56.0	6.2	0.00e+00	0	47	104	42328915968	78	19371
2026-01-22 21:37:35.11	328.34	8.46	-53.8	-55.9	6.2	0.00e+00	0	47	104	42328915968	78	19175
2026-01-22 21:37:38.03	328.73	8.23	-53.8	-55.9	6.2	0.00e+00	0	47	104	42328915968	78	19119
2026-01-22 21:37:40.94	329.10	8.01	-53.8	-55.9	6.2	0.00e+00	0	47	104	42328915968	78	19078
2026-01-22 21:37:43.84	329.47	7.79	-53.8	-55.9	6.2	0.00e+00	0	47	104	42328915968	78	19195
2026-01-22 21:37:46.75	329.83	7.57	-53.7	-55.8	6.2	0.00e+00	0	47	104	42328915968	78	18942
2026-01-22 21:37:49.66	330.18	7.35	-53.7	-55.8	6.2	0.00e+00	0	47	104	42328915968	78	18871
2026-01-22 21:37:52.58	330.53	7.14	-53.7	-55.8	6.2	0.00e+00	0	47	104	42328915968	78	18900
2026-01-22 21:37:55.48	330.88	6.92	-53.6	-55.7	6.2	0.00e+00	0	47	104	42328915968	78	18803
2026-01-22 21:37:58.39	331.21	6.71	-53.6	-55.7	6.2	0.00e+00	0	47	104	42328915968	78	18687
2026-01-22 21:38:01.31	331.55	6.50	-53.6	-55.7	6.2	0.00e+00	0	47	104	42328915968	78	18652
2026-01-22 21:38:04.22	331.87	6.29	-53.6	-55.7	6.2	0.00e+00	0	47	104	42328915968	78	18627
2026-01-22 21:38:07.12	332.19	6.08	-53.5	-55.6	6.2	0.00e+00	0	47	104	42328915968	78	18435
2026-01-22 21:38:10.03	332.51	5.87	-53.5	-55.6	6.2	0.00e+00	0	47	104	42328915968	78	18468
2026-01-22 21:38:12.94	332.82	5.67	-53.4	-55.5	6.2	0.00e+00	0	47	104	42328915968	78	18256
2026-01-22 21:38:15.84	333.12	5.47	-53.5	-55.6	6.2	0.00e+00	0	47	104	42328915968	78	18451
2026-01-22 21:38:18.75	333.42	5.26	-53.2	-55.3	6.2	0.00e+00	0	47	104	42328915968	78	17919
2026-01-22 21:38:21.66	333.72	5.06	-53.2	-55.3	6.2	0.00e+00	0	47	104	42328915968	77	19013
2026-01-22 21:38:24.56	334.01	4.86	-54.2	-56.3	6.2	0.00e+00	0	47	104	42328915968	78	20081
2026-01-22 21:38:27.46	334.29	4.67	-54.7	-56.9	6.2	0.00e+00	0	47	104	42328915968	80	19040
2026-01-22 21:38:30.37	334.57	4.47	-54.9	-57.0	6.2	0.00e+00	0	47	104	42328915968	80	19353
2026-01-22 21:38:33.28	334.85	4.27	-54.8	-56.9	6.2	0.00e+00	0	47	104	42328915968	80	19117
2026-01-22 21:38:36.19	335.12	4.08	-54.6	-56.7	6.2	0.00e+00	0	47	104	42328915968	80	18720
2026-01-22 21:38:39.10	335.39	3.89	-54.6	-56.7	6.2	0.00e+00	0	47	104	42328915968	80	18759
2026-01-22 21:38:42.01	335.66	3.70	-54.6	-56.7	6.2	0.00e+00	0	47	104	42328915968	80	18739
2026-01-22 21:38:44.93	335.92	3.51	-54.5	-56.6	6.2	0.00e+00	0	47	104	42328915968	80	18496
2026-01-22 21:38:47.84	336.17	3.32	-54.4	-56.6	6.2	0.00e+00	0	47	104	42328915968	80	18394
2026-01-22 21:38:50.74	336.43	3.13	-54.4	-56.5	6.2	0.00e+00	0	47	104	42328915968	80	18312
2026-01-22 21:38:53.65	336.68	2.94	-54.4	-56.4	6.2	0.00e+00	0	47	104	42328915968	80	18165
2026-01-22 21:38:56.56	336.92	2.76	-54.4	-56.5	6.2	0.00e+00	0	47	104	42328915968	80	18282
2026-01-22 21:38:59.47	337.16	2.58	-54.4	-56.4	6.2	0.00e+00	0	47	104	42328915968	80	18135
2026-01-22 21:39:02.37	337.40	2.39	-54.3	-56.4	6.2	0.00e+00	0	47	104	42328915968	80	18139
2026-01-22 21:39:05.27	337.63	2.21	-54.3	-56.4	6.2	0.00e+00	0	47	104	42328915968	80	18035
2026-01-22 21:39:08.18	337.87	2.03	-54.3	-56.4	6.2	0.00e+00	0	47	104	42328915968	80	18044

#Closed at: 2026-01-22 21:39:08
#Recorded file [42328 MB]: D:/lorett/data/31041_260123_002901.dat