passes_logs/2026/01/22/R3.2S_Murmansk/R3.2S_Murmansk__20260122_230133_NOAA_20_JPSS-1_rec.log

#Pass ID: 20260122_230133_NOAA 20 (JPSS-1)
#Satellite: NOAA 20 (JPSS-1)
#Configuration: NOAA 20
#almurnet v.1.7.20251203
#Start time: 2026-01-22 23:01:35

#Version: 2.2.20231116
#Station: R3.2S_Murmansk
#Location: 33.079688 lon 68.888172 lat
#TLE: 1 43013U 17073A   26022.44900781  .00000193  00000+0  11233-3 0  9999
#TLE: 2 43013  98.7645 323.3100 0001197  28.8413 331.2829 14.19538802423792

#Time	Az	El	Level	Level2	SNR	BER	BlckErr	Temp	State	Recorded	gain1	gain2
2026-01-22 23:01:35.39	19.95	2.13	-54.3	-69.3	3.8	1.49e+00	0	40	0	0	79	21170
2026-01-22 23:01:39.43	20.16	2.37	-54.4	-69.4	3.8	1.49e+00	0	40	104	0	79	21451
2026-01-22 23:01:43.46	20.37	2.62	-54.3	-69.3	3.8	1.49e+00	0	41	104	0	79	21104
2026-01-22 23:01:47.50	20.58	2.86	-54.1	-69.1	3.8	1.49e+00	0	41	104	0	79	20708
2026-01-22 23:01:51.53	20.79	3.11	-53.7	-68.7	3.8	1.49e+00	0	41	104	0	79	19705
2026-01-22 23:01:55.57	21.01	3.36	-52.5	-67.3	3.8	1.49e+00	0	41	104	0	77	18896
2026-01-22 23:01:59.60	21.24	3.61	-52.4	-66.3	3.8	1.49e+00	0	41	104	0	76	17728
2026-01-22 23:02:03.64	21.46	3.86	-52.2	-63.0	4.5	1.39e+00	51	41	0	0	76	12227
2026-01-22 23:02:07.67	21.69	4.11	-51.4	-57.8	8.4	6.74e-02	0	41	0	7340032	74	7499
2026-01-22 23:02:11.71	21.92	4.37	-50.1	-54.1	12.2	4.56e-04	0	41	0	14680064	72	5487
2026-01-22 23:02:15.74	22.16	4.63	-50.3	-54.6	11.7	2.30e-04	0	41	0	22020096	71	6193
2026-01-22 23:02:19.78	22.40	4.89	-51.7	-59.2	7.0	1.02e-01	0	42	0	29360128	73	9310
2026-01-22 23:02:23.81	22.65	5.15	-50.5	-55.0	11.3	2.73e-03	0	41	0	36700160	73	5746
2026-01-22 23:02:27.84	22.90	5.42	-48.8	-51.5	15.1	0.00e+00	0	42	0	38797312	69	4822
2026-01-22 23:02:31.87	23.15	5.68	-48.3	-50.6	16.1	0.00e+00	0	42	0	47185920	68	4630
2026-01-22 23:02:35.91	23.41	5.95	-48.3	-50.7	16.0	0.00e+00	0	42	0	54525952	68	4680
2026-01-22 23:02:39.94	23.67	6.22	-48.1	-50.3	16.5	0.00e+00	0	42	0	61865984	68	4460
2026-01-22 23:02:43.97	23.93	6.50	-47.9	-50.0	16.7	0.00e+00	0	42	0	69206016	67	4591
2026-01-22 23:02:48.01	24.21	6.78	-47.7	-49.8	17.0	0.00e+00	0	42	0	76546048	67	4465
2026-01-22 23:02:52.04	24.48	7.05	-47.5	-49.5	17.3	0.00e+00	0	42	0	84934656	66	4579
2026-01-22 23:02:56.08	24.76	7.34	-47.4	-49.3	17.5	0.00e+00	0	42	0	92274688	66	4490
2026-01-22 23:03:00.11	25.05	7.62	-47.1	-48.9	17.9	0.00e+00	0	42	0	99614720	66	4245
2026-01-22 23:03:04.15	25.34	7.91	-47.3	-49.2	17.7	0.00e+00	0	42	0	106954752	66	4413
2026-01-22 23:03:08.17	25.64	8.20	-47.4	-49.3	17.6	0.00e+00	0	42	0	114294784	66	4466
2026-01-22 23:03:12.21	25.94	8.49	-47.1	-48.8	18.1	0.00e+00	0	42	0	122683392	66	4241
2026-01-22 23:03:16.24	26.25	8.79	-47.1	-48.9	18.0	0.00e+00	0	42	0	130023424	66	4277
2026-01-22 23:03:20.28	26.56	9.08	-46.9	-48.6	18.3	0.00e+00	0	42	0	137363456	65	4375
2026-01-22 23:03:24.31	26.88	9.38	-46.8	-48.4	18.6	0.00e+00	0	42	0	144703488	65	4289
2026-01-22 23:03:28.35	27.21	9.69	-46.3	-47.9	19.1	0.00e+00	0	42	0	153092096	64	4254
2026-01-22 23:03:32.38	27.54	10.00	-46.1	-47.6	19.4	0.00e+00	0	42	0	160432128	64	4137
2026-01-22 23:03:36.42	27.88	10.31	-45.9	-47.3	19.8	0.00e+00	0	42	0	167772160	63	4218
2026-01-22 23:03:40.45	28.23	10.62	-45.9	-47.3	19.8	0.00e+00	0	42	0	175112192	63	4226
2026-01-22 23:03:44.49	28.58	10.94	-45.9	-47.3	19.8	0.00e+00	0	42	0	182452224	63	4209
2026-01-22 23:03:48.52	28.94	11.25	-45.9	-47.4	19.8	0.00e+00	0	42	0	190840832	63	4243
2026-01-22 23:03:52.55	29.31	11.58	-45.9	-47.3	19.9	0.00e+00	0	42	0	198180864	63	4197
2026-01-22 23:03:56.58	29.69	11.90	-45.7	-47.0	20.1	0.00e+00	0	42	0	205520896	63	4094
2026-01-22 23:04:00.62	30.07	12.23	-45.7	-47.1	20.1	0.00e+00	0	42	0	212860928	63	4108
2026-01-22 23:04:04.65	30.47	12.56	-45.7	-47.0	20.2	0.00e+00	0	42	0	220200960	63	4082
2026-01-22 23:04:08.68	30.87	12.90	-45.8	-47.2	20.1	0.00e+00	0	42	0	228589568	63	4149
2026-01-22 23:04:12.72	31.28	13.24	-45.5	-46.8	20.4	0.00e+00	0	43	0	235929600	63	3982
2026-01-22 23:04:16.76	31.70	13.58	-45.4	-46.7	20.5	0.00e+00	0	42	0	243269632	62	4168
2026-01-22 23:04:20.79	32.13	13.93	-45.4	-46.6	20.6	0.00e+00	0	42	0	250609664	62	4142
2026-01-22 23:04:24.82	32.56	14.28	-45.4	-46.7	20.6	0.00e+00	0	43	0	258998272	62	4162
2026-01-22 23:04:28.85	33.01	14.63	-45.6	-46.9	20.4	0.00e+00	0	43	0	266338304	62	4280
2026-01-22 23:04:32.89	33.47	14.99	-45.8	-47.2	20.2	0.00e+00	0	42	0	273678336	62	4396
2026-01-22 23:04:36.92	33.94	15.35	-46.1	-47.5	19.8	0.00e+00	0	43	0	281018368	62	4576
2026-01-22 23:04:40.95	34.42	15.72	-46.3	-47.7	19.6	0.00e+00	0	43	0	288358400	63	4438
2026-01-22 23:04:44.98	34.91	16.08	-46.5	-48.0	19.4	0.00e+00	0	43	0	296747008	63	4577
2026-01-22 23:04:49.01	35.41	16.45	-46.5	-48.0	19.4	0.00e+00	0	43	0	304087040	63	4568
2026-01-22 23:04:53.05	35.93	16.83	-46.2	-47.6	19.8	0.00e+00	0	43	0	311427072	63	4350
2026-01-22 23:04:57.08	36.46	17.21	-46.4	-47.8	19.6	0.00e+00	0	43	0	318767104	63	4466
2026-01-22 23:05:01.11	37.00	17.59	-46.5	-48.0	19.4	0.00e+00	0	43	0	326107136	63	4569
2026-01-22 23:05:05.15	37.55	17.98	-46.4	-47.9	19.5	0.00e+00	0	43	0	334495744	63	4526
2026-01-22 23:05:09.18	38.12	18.37	-46.5	-48.0	19.4	0.00e+00	0	43	0	341835776	63	4585
2026-01-22 23:05:13.21	38.71	18.76	-46.6	-48.2	19.2	0.00e+00	0	43	0	349175808	64	4394
2026-01-22 23:05:17.24	39.30	19.16	-46.3	-47.7	19.7	0.00e+00	0	43	0	356515840	64	4163
2026-01-22 23:05:21.27	39.91	19.56	-46.0	-47.4	20.0	0.00e+00	0	43	0	363855872	63	4265
2026-01-22 23:05:25.31	40.54	19.96	-46.2	-47.7	19.8	0.00e+00	0	43	0	372244480	63	4400
2026-01-22 23:05:29.34	41.19	20.37	-46.2	-47.6	19.8	0.00e+00	0	43	0	379584512	63	4385
2026-01-22 23:05:33.37	41.85	20.78	-45.7	-47.0	20.5	0.00e+00	0	43	0	386924544	63	4060
2026-01-22 23:05:37.41	42.53	21.19	-45.4	-46.7	20.8	0.00e+00	0	43	0	394264576	62	4146
2026-01-22 23:05:41.44	43.23	21.61	-45.3	-46.5	21.0	0.00e+00	0	43	0	402653184	62	4082
2026-01-22 23:05:45.48	43.94	22.02	-44.7	-45.9	21.5	0.00e+00	0	43	0	409993216	61	4009
2026-01-22 23:05:49.51	44.68	22.44	-44.7	-45.8	21.6	0.00e+00	0	43	0	417333248	61	3997
2026-01-22 23:05:53.54	45.43	22.87	-44.6	-45.7	21.7	0.00e+00	0	43	0	424673280	61	3930
2026-01-22 23:05:57.57	46.21	23.29	-44.1	-45.1	22.3	0.00e+00	0	43	0	432013312	60	3893
2026-01-22 23:06:01.61	47.00	23.72	-44.2	-45.2	22.5	0.00e+00	0	43	0	440401920	59	4191
2026-01-22 23:06:05.64	47.82	24.14	-44.2	-45.2	22.5	0.00e+00	0	43	0	447741952	59	4177
2026-01-22 23:06:09.67	48.66	24.57	-44.4	-45.5	22.2	0.00e+00	0	43	0	455081984	59	4317
2026-01-22 23:06:13.70	49.52	25.00	-44.4	-45.5	22.0	0.00e+00	0	43	0	462422016	60	4071
2026-01-22 23:06:17.73	50.40	25.43	-44.4	-45.5	22.0	0.00e+00	0	43	0	469762048	60	4059
2026-01-22 23:06:21.76	51.31	25.86	-44.0	-45.9	21.5	0.00e+00	0	43	0	478150656	60	4285
2026-01-22 23:06:25.80	52.24	26.29	-45.3	-46.6	20.9	0.00e+00	0	43	0	485490688	61	4354
2026-01-22 23:06:29.83	53.20	26.71	-45.8	-47.1	20.5	0.00e+00	0	43	0	492830720	62	4357
2026-01-22 23:06:33.86	54.18	27.14	-46.4	-47.8	19.9	0.00e+00	0	43	0	500170752	63	4451
2026-01-22 23:06:37.89	55.19	27.56	-46.8	-48.3	19.2	0.00e+00	0	43	0	508559360	64	4457
2026-01-22 23:06:41.93	56.23	27.98	-46.6	-48.1	19.4	0.00e+00	0	43	0	515899392	64	4375
2026-01-22 23:06:45.96	57.29	28.40	-46.8	-48.4	19.2	0.00e+00	0	43	0	523239424	64	4506
2026-01-22 23:06:49.99	58.38	28.81	-47.6	-49.3	18.4	0.00e+00	0	43	0	530579456	65	4722
2026-01-22 23:06:54.02	59.49	29.21	-48.9	-51.1	16.6	0.00e+00	0	43	0	537919488	68	4895
2026-01-22 23:06:58.05	60.63	29.61	-48.3	-50.2	17.5	0.00e+00	0	43	0	546308096	68	4425
2026-01-22 23:07:02.09	61.81	30.01	-49.6	-52.1	15.7	0.00e+00	0	43	0	553648128	69	5202
2026-01-22 23:07:06.12	63.01	30.39	-49.3	-51.6	16.1	0.00e+00	0	43	0	560988160	70	4635
2026-01-22 23:07:10.15	64.24	30.77	-48.9	-51.0	16.7	0.00e+00	0	43	0	568328192	69	4582
2026-01-22 23:07:14.18	65.49	31.14	-48.7	-50.8	17.0	0.00e+00	0	43	0	575668224	69	4457
2026-01-22 23:07:18.21	66.78	31.49	-47.5	-49.2	18.5	0.00e+00	0	43	0	584056832	66	4397
2026-01-22 23:07:22.25	68.09	31.84	-47.3	-48.9	18.7	0.00e+00	0	43	0	591396864	66	4282
2026-01-22 23:07:26.28	69.43	32.17	-47.0	-48.5	19.2	0.00e+00	0	43	0	598736896	65	4320
2026-01-22 23:07:30.31	70.80	32.49	-47.1	-48.6	19.0	0.00e+00	0	43	0	606076928	65	4372
2026-01-22 23:07:34.34	72.19	32.79	-46.5	-48.0	19.7	0.00e+00	0	43	0	613416960	64	4299
2026-01-22 23:07:38.37	73.61	33.08	-47.0	-48.6	19.1	0.00e+00	0	43	0	621805568	64	4624
2026-01-22 23:07:42.41	75.05	33.35	-47.3	-49.0	18.7	0.00e+00	0	43	0	629145600	65	4551
2026-01-22 23:07:46.44	76.52	33.60	-48.4	-50.4	17.3	0.00e+00	0	43	0	636485632	67	4804
2026-01-22 23:07:50.47	78.01	33.84	-49.0	-51.3	16.5	0.00e+00	0	43	0	643825664	69	4708
2026-01-22 23:07:54.50	79.51	34.05	-48.0	-49.9	17.8	0.00e+00	0	43	0	652214272	67	4512
2026-01-22 23:07:58.53	81.04	34.24	-48.6	-50.6	17.2	0.00e+00	0	43	0	659554304	68	4642
2026-01-22 23:08:02.57	82.59	34.42	-47.1	-48.6	19.1	0.00e+00	0	43	0	666894336	66	4116
2026-01-22 23:08:06.60	84.14	34.57	-48.2	-50.2	17.6	0.00e+00	0	43	0	674234368	67	4658
2026-01-22 23:08:10.63	85.72	34.69	-47.8	-49.6	18.2	0.00e+00	0	43	0	681574400	67	4356
2026-01-22 23:08:14.66	87.30	34.80	-47.9	-49.7	18.0	0.00e+00	0	43	0	689963008	67	4435
2026-01-22 23:08:18.69	88.89	34.88	-48.4	-50.4	17.3	0.00e+00	0	43	0	697303040	67	4766
2026-01-22 23:08:22.73	90.49	34.94	-48.6	-50.6	17.2	0.00e+00	0	43	0	704643072	68	4612
2026-01-22 23:08:26.76	92.10	34.97	-47.8	-49.5	18.2	0.00e+00	0	43	0	711983104	67	4331
2026-01-22 23:08:30.79	93.70	34.97	-47.3	-48.8	18.9	0.00e+00	0	43	0	719323136	66	4238
2026-01-22 23:08:34.82	95.31	34.96	-46.3	-47.6	20.0	0.00e+00	0	43	0	727711744	64	4142
2026-01-22 23:08:38.85	96.91	34.92	-48.4	-50.5	17.3	0.00e+00	0	43	0	735051776	67	4824
2026-01-22 23:08:42.89	98.51	34.85	-47.6	-49.3	18.4	0.00e+00	0	43	0	742391808	67	4199
2026-01-22 23:08:46.92	100.10	34.76	-47.6	-49.3	18.4	0.00e+00	0	43	0	749731840	65	4741
2026-01-22 23:08:50.96	101.68	34.64	-48.6	-50.7	17.1	0.00e+00	0	43	0	757071872	67	4960
2026-01-22 23:08:54.99	103.25	34.51	-49.4	-51.8	16.0	0.00e+00	0	43	0	765460480	69	5002
2026-01-22 23:08:59.02	104.80	34.35	-48.2	-50.1	17.8	0.00e+00	0	43	0	772800512	68	4362
2026-01-22 23:09:03.05	106.34	34.16	-47.3	-48.9	18.8	0.00e+00	0	43	0	780140544	66	4253
2026-01-22 23:09:07.08	107.86	33.96	-48.0	-49.9	17.8	0.00e+00	0	43	0	787480576	66	4764
2026-01-22 23:09:11.11	109.36	33.74	-47.6	-49.3	18.5	0.00e+00	0	43	0	795869184	66	4473
2026-01-22 23:09:15.15	110.85	33.49	-47.7	-49.5	18.2	0.00e+00	0	43	0	803209216	67	4318
2026-01-22 23:09:19.18	112.30	33.23	-46.8	-48.2	19.4	0.00e+00	0	43	0	810549248	65	4185
2026-01-22 23:09:23.22	113.74	32.95	-46.9	-48.4	19.2	0.00e+00	0	43	0	817889280	65	4261
2026-01-22 23:09:27.25	115.15	32.66	-47.2	-48.8	18.8	0.00e+00	0	43	0	825229312	65	4485
2026-01-22 23:09:31.29	116.54	32.35	-47.4	-49.0	18.7	0.00e+00	0	43	0	832569344	65	4576
2026-01-22 23:09:35.32	117.90	32.02	-47.4	-49.1	18.5	0.00e+00	0	43	0	840957952	65	4647
2026-01-22 23:09:39.35	119.23	31.68	-47.6	-49.4	18.3	0.00e+00	0	43	0	848297984	66	4516
2026-01-22 23:09:43.38	120.53	31.33	-48.6	-50.7	17.0	0.00e+00	0	43	0	855638016	67	4937
2026-01-22 23:09:47.42	121.81	30.97	-47.5	-49.2	18.5	0.00e+00	0	43	0	862978048	67	4177
2026-01-22 23:09:51.45	123.05	30.60	-48.0	-49.9	17.8	0.00e+00	0	43	0	871366656	66	4780
2026-01-22 23:09:55.48	124.27	30.22	-46.4	-47.8	19.8	0.00e+00	0	43	0	878706688	64	4196
2026-01-22 23:09:59.51	125.47	29.83	-47.2	-48.8	18.7	0.00e+00	0	43	0	886046720	65	4487
2026-01-22 23:10:03.55	126.63	29.43	-47.7	-49.4	18.2	0.00e+00	0	43	0	893386752	65	4801
2026-01-22 23:10:07.58	127.77	29.02	-46.8	-48.2	19.4	0.00e+00	0	43	0	900726784	65	4185
2026-01-22 23:10:11.62	128.87	28.61	-48.0	-49.8	17.8	0.00e+00	0	43	0	909115392	66	4745
2026-01-22 23:10:15.65	129.95	28.20	-46.2	-47.6	19.9	0.00e+00	0	43	0	916455424	64	4127
2026-01-22 23:10:19.69	131.01	27.78	-48.4	-50.4	17.2	0.00e+00	0	43	0	923795456	67	4780
2026-01-22 23:10:23.72	132.03	27.35	-46.5	-47.9	19.6	0.00e+00	0	43	0	931135488	64	4260
2026-01-22 23:10:27.76	133.04	26.93	-47.3	-49.0	18.5	0.00e+00	0	44	0	939524096	66	4308
2026-01-22 23:10:31.79	134.01	26.50	-46.5	-48.0	19.7	0.00e+00	0	43	0	946864128	63	4551
2026-01-22 23:10:35.83	134.96	26.07	-46.5	-48.0	19.5	0.00e+00	0	43	0	954204160	65	4056
2026-01-22 23:10:39.86	135.88	25.64	-46.1	-47.5	20.0	0.00e+00	0	44	0	961544192	63	4330
2026-01-22 23:10:43.89	136.78	25.21	-45.8	-47.1	20.4	0.00e+00	0	43	0	968884224	63	4128
2026-01-22 23:10:47.93	137.66	24.77	-44.9	-46.1	21.3	0.00e+00	0	43	0	977272832	61	4111
2026-01-22 23:10:51.96	138.51	24.34	-45.0	-46.2	21.2	0.00e+00	0	44	0	984612864	61	4171
2026-01-22 23:10:55.99	139.34	23.91	-44.4	-45.5	21.8	0.00e+00	0	43	0	991952896	60	4082
2026-01-22 23:11:00.03	140.15	23.48	-44.6	-45.7	21.6	0.00e+00	0	43	0	999292928	60	4184
2026-01-22 23:11:04.07	140.94	23.05	-44.3	-45.4	22.2	0.00e+00	0	44	0	1006632960	59	4248
2026-01-22 23:11:08.10	141.71	22.63	-44.3	-45.3	22.3	0.00e+00	0	44	0	1015021568	59	4232
2026-01-22 23:11:12.13	142.45	22.21	-44.3	-45.3	22.2	0.00e+00	0	44	0	1022361600	59	4236
2026-01-22 23:11:16.17	143.18	21.78	-44.2	-45.2	22.3	0.00e+00	0	43	0	1029701632	59	4187
2026-01-22 23:11:20.20	143.89	21.36	-44.6	-45.7	21.5	0.00e+00	0	43	0	1037041664	60	4180
2026-01-22 23:11:24.23	144.58	20.95	-44.5	-45.6	21.6	0.00e+00	0	43	0	1045430272	60	4118
2026-01-22 23:11:28.27	145.25	20.53	-44.4	-45.5	22.0	0.00e+00	0	44	0	1052770304	59	4312
2026-01-22 23:11:32.30	145.91	20.12	-44.7	-45.8	21.7	0.00e+00	0	43	0	1060110336	59	4481
2026-01-22 23:11:36.33	146.54	19.72	-44.4	-45.5	21.7	0.00e+00	0	44	0	1067450368	60	4071
2026-01-22 23:11:40.37	147.17	19.31	-44.7	-45.9	21.3	0.00e+00	0	43	0	1074790400	60	4249
2026-01-22 23:11:44.40	147.77	18.91	-44.8	-46.0	21.3	0.00e+00	0	43	0	1083179008	60	4293
2026-01-22 23:11:48.43	148.37	18.51	-44.7	-45.8	21.4	0.00e+00	0	43	0	1090519040	60	4237
2026-01-22 23:11:52.46	148.94	18.12	-45.9	-47.3	20.0	0.00e+00	0	43	0	1097859072	62	4444
2026-01-22 23:11:56.49	149.50	17.73	-45.8	-47.2	20.1	0.00e+00	0	43	0	1105199104	62	4424
2026-01-22 23:12:00.53	150.05	17.34	-45.5	-46.8	20.4	0.00e+00	0	43	0	1112539136	62	4224
2026-01-22 23:12:04.57	150.59	16.96	-46.4	-47.9	19.4	0.00e+00	0	43	0	1120927744	63	4519
2026-01-22 23:12:08.60	151.11	16.58	-46.4	-48.0	19.3	0.00e+00	0	44	0	1128267776	63	4551
2026-01-22 23:12:12.63	151.62	16.20	-45.9	-47.3	19.9	0.00e+00	0	43	0	1135607808	63	4207
2026-01-22 23:12:16.66	152.12	15.83	-45.7	-47.1	20.1	0.00e+00	0	43	0	1142947840	63	4127
2026-01-22 23:12:20.69	152.60	15.46	-46.1	-47.6	19.6	0.00e+00	0	44	0	1150287872	63	4368
2026-01-22 23:12:24.72	153.08	15.10	-46.1	-47.5	19.7	0.00e+00	0	44	0	1158676480	63	4320
2026-01-22 23:12:28.75	153.54	14.74	-45.4	-46.7	20.4	0.00e+00	0	43	0	1166016512	62	4168
2026-01-22 23:12:32.79	154.00	14.38	-45.2	-46.5	20.6	0.00e+00	0	44	0	1173356544	62	4062
2026-01-22 23:12:36.82	154.44	14.03	-46.0	-47.4	19.7	0.00e+00	0	43	0	1180696576	62	4504
2026-01-22 23:12:40.85	154.87	13.68	-46.1	-47.6	19.5	0.00e+00	0	43	0	1189085184	62	4619
2026-01-22 23:12:44.89	155.30	13.33	-46.0	-47.5	19.6	0.00e+00	0	43	0	1196425216	63	4314
2026-01-22 23:12:48.92	155.71	12.99	-45.5	-46.9	20.2	0.00e+00	0	43	0	1203765248	63	4010
2026-01-22 23:12:52.95	156.11	12.65	-45.7	-47.1	20.0	0.00e+00	0	44	0	1211105280	63	4105
2026-01-22 23:12:56.99	156.51	12.31	-45.9	-47.3	19.7	0.00e+00	0	43	0	1218445312	63	4236
2026-01-22 23:13:01.02	156.90	11.98	-46.2	-47.7	19.4	0.00e+00	0	44	0	1226833920	63	4432
2026-01-22 23:13:05.06	157.28	11.65	-46.3	-47.8	19.3	0.00e+00	0	44	0	1234173952	63	4454
2026-01-22 23:13:09.09	157.65	11.32	-46.5	-48.1	19.0	0.00e+00	0	44	0	1241513984	63	4606
2026-01-22 23:13:13.13	158.01	11.00	-46.2	-47.7	19.3	0.00e+00	0	43	0	1248854016	63	4439
2026-01-22 23:13:17.16	158.37	10.68	-46.2	-47.7	19.3	0.00e+00	0	44	0	1256194048	63	4399
2026-01-22 23:13:21.19	158.72	10.36	-46.3	-47.8	19.1	0.00e+00	0	44	0	1264582656	63	4489
2026-01-22 23:13:25.22	159.06	10.05	-46.4	-48.0	19.0	0.00e+00	0	44	0	1271922688	63	4556
2026-01-22 23:13:29.25	159.40	9.74	-46.6	-48.3	18.7	0.00e+00	0	43	0	1279262720	63	4716
2026-01-22 23:13:33.29	159.72	9.43	-46.7	-48.4	18.4	0.00e+00	0	44	0	1286602752	64	4544
2026-01-22 23:13:37.32	160.05	9.13	-46.7	-48.4	18.4	0.00e+00	0	44	0	1294991360	64	4538
2026-01-22 23:13:41.35	160.36	8.83	-47.2	-49.1	17.8	0.00e+00	0	44	0	1302331392	65	4608
2026-01-22 23:13:45.39	160.67	8.53	-47.2	-49.1	17.7	0.00e+00	0	44	0	1309671424	65	4609
2026-01-22 23:13:49.42	160.98	8.24	-47.2	-49.1	17.7	0.00e+00	0	44	0	1317011456	65	4611
2026-01-22 23:13:53.45	161.27	7.94	-47.6	-49.7	17.0	0.00e+00	0	43	0	1324351488	65	4956
2026-01-22 23:13:57.49	161.57	7.65	-47.5	-49.5	17.2	0.00e+00	0	43	0	1331691520	65	4835
2026-01-22 23:14:01.52	161.85	7.37	-47.8	-50.0	16.7	0.00e+00	0	44	0	1340080128	66	4817
2026-01-22 23:14:05.55	162.13	7.08	-47.8	-50.0	16.7	0.00e+00	0	43	0	1347420160	66	4846
2026-01-22 23:14:09.58	162.41	6.80	-47.8	-50.0	16.7	0.00e+00	0	43	0	1354760192	66	4823
2026-01-22 23:14:13.62	162.68	6.52	-48.0	-50.3	16.3	0.00e+00	0	44	0	1362100224	66	5017
2026-01-22 23:14:17.65	162.95	6.24	-47.9	-50.2	16.4	0.00e+00	0	44	0	1370488832	66	4935
2026-01-22 23:14:21.68	163.21	5.97	-48.1	-50.4	16.2	0.00e+00	0	44	0	1377828864	66	5050
2026-01-22 23:14:25.71	163.47	5.70	-48.1	-50.5	16.0	0.00e+00	0	44	0	1385168896	66	5136
2026-01-22 23:14:29.75	163.72	5.43	-48.4	-51.0	15.5	0.00e+00	0	44	0	1392508928	67	5101
2026-01-22 23:14:33.78	163.97	5.16	-48.6	-51.4	15.1	0.00e+00	0	44	0	1399848960	67	5342
2026-01-22 23:14:37.81	164.22	4.89	-53.1	-68.1	3.8	1.49e+00	0	44	104	1406140416	76	21868
2026-01-22 23:14:41.85	164.46	4.63	-53.8	-68.8	3.8	1.49e+00	0	44	104	1406140416	78	21052
2026-01-22 23:14:45.88	164.69	4.37	-54.1	-69.1	3.8	1.49e+00	0	44	104	1406140416	78	21819
2026-01-22 23:14:49.91	164.92	4.11	-54.3	-69.3	3.8	1.49e+00	0	44	104	1406140416	79	21235
2026-01-22 23:14:53.94	165.15	3.86	-54.5	-69.5	3.8	1.49e+00	0	44	104	1406140416	79	21741
2026-01-22 23:14:57.98	165.38	3.60	-54.7	-69.7	3.8	1.49e+00	0	44	104	1406140416	79	22161
2026-01-22 23:15:02.01	165.60	3.35	-54.6	-69.6	3.8	1.49e+00	0	44	104	1406140416	80	20735
2026-01-22 23:15:06.05	165.82	3.10	-54.6	-69.6	3.8	1.49e+00	0	44	104	1406140416	79	21996
2026-01-22 23:15:10.08	166.03	2.85	-54.5	-69.5	3.8	1.49e+00	0	44	104	1406140416	79	21574
2026-01-22 23:15:14.12	166.24	2.60	-54.3	-69.2	3.8	1.49e+00	0	44	104	1406140416	79	20998
2026-01-22 23:15:18.15	166.45	2.36	-53.8	-68.7	3.8	1.49e+00	0	44	104	1406140416	79	19814
2026-01-22 23:15:22.18	166.66	2.11	-53.7	-68.7	3.8	1.49e+00	0	44	104	1406140416	79	19759

#Closed at: 2026-01-22 23:15:26
#Recorded file [1406 MB]: D:/lorett/data/31041_260123_020135.dat