passes_logs/2026/01/22/R3.2S_Murmansk/R3.2S_Murmansk__20260122_105850_NOAA_20_JPSS-1_rec.log

#Pass ID: 20260122_105850_NOAA 20 (JPSS-1)
#Satellite: NOAA 20 (JPSS-1)
#Configuration: NOAA 20
#almurnet v.1.7.20251203
#Start time: 2026-01-22 10:58:51

#Version: 2.2.20231116
#Station: R3.2S_Murmansk
#Location: 33.079688 lon 68.888172 lat
#TLE: 1 43013U 17073A   26021.46221703  .00000173  00000+0  10299-3 0  9999
#TLE: 2 43013  98.7644 322.3335 0001238  29.7597 330.3649 14.19538314423652

#Time	Az	El	Level	Level2	SNR	BER	BlckErr	Temp	State	Recorded	gain1	gain2
2026-01-22 10:58:51.30	187.64	2.03	-54.3	-69.4	3.8	1.49e+00	0	39	0	0	79	21296
2026-01-22 10:58:55.34	187.82	2.28	-54.6	-69.6	3.8	1.49e+00	0	39	104	0	79	21826
2026-01-22 10:58:59.37	188.00	2.53	-54.5	-69.5	3.8	1.49e+00	0	39	104	0	79	21655
2026-01-22 10:59:03.41	188.19	2.78	-54.3	-69.4	3.8	1.49e+00	0	40	104	0	79	21281
2026-01-22 10:59:07.44	188.37	3.03	-54.1	-69.1	3.8	1.49e+00	0	40	104	0	79	20642
2026-01-22 10:59:11.47	188.56	3.29	-53.5	-68.6	3.8	1.49e+00	0	40	104	0	79	19406
2026-01-22 10:59:15.50	188.75	3.54	-52.8	-67.7	3.8	1.49e+00	0	40	104	0	77	19815
2026-01-22 10:59:19.53	188.95	3.80	-52.8	-67.6	3.8	1.49e+00	0	40	104	0	77	19585
2026-01-22 10:59:23.57	189.15	4.06	-52.7	-67.2	3.8	1.49e+00	0	40	104	0	77	18630
2026-01-22 10:59:27.60	189.35	4.33	-52.7	-66.0	3.8	1.49e+00	0	40	104	0	77	16210
2026-01-22 10:59:31.64	189.56	4.60	-51.3	-56.8	9.6	7.03e-02	0	40	0	5242880	74	6675
2026-01-22 10:59:35.68	189.77	4.86	-49.0	-51.8	15.0	7.00e-07	0	40	0	12582912	70	4721
2026-01-22 10:59:39.71	189.98	5.14	-50.9	-55.6	11.2	1.90e-05	0	40	0	19922944	72	6520
2026-01-22 10:59:43.74	190.20	5.41	-49.2	-52.0	14.7	8.80e-04	0	40	0	27262976	70	4865
2026-01-22 10:59:47.77	190.42	5.68	-48.5	-51.0	15.8	0.00e+00	0	40	0	35651584	69	4574
2026-01-22 10:59:51.80	190.64	5.96	-48.5	-50.9	15.9	0.00e+00	0	40	0	42991616	68	4789
2026-01-22 10:59:55.84	190.87	6.24	-48.2	-50.5	16.4	0.00e+00	0	40	0	50331648	68	4561
2026-01-22 10:59:59.87	191.11	6.53	-48.1	-50.3	16.6	0.00e+00	0	40	0	57671680	68	4491
2026-01-22 11:00:03.90	191.34	6.82	-47.9	-50.0	16.9	0.00e+00	0	41	0	65011712	67	4546
2026-01-22 11:00:07.93	191.59	7.10	-47.9	-49.9	17.0	0.00e+00	0	41	0	73400320	67	4541
2026-01-22 11:00:11.96	191.83	7.40	-47.7	-49.7	17.3	0.00e+00	0	41	0	80740352	67	4393
2026-01-22 11:00:15.99	192.08	7.69	-47.5	-49.4	17.6	0.00e+00	0	40	0	88080384	67	4248
2026-01-22 11:00:20.02	192.34	7.99	-47.4	-49.2	17.8	0.00e+00	0	41	0	95420416	66	4431
2026-01-22 11:00:24.06	192.60	8.29	-47.4	-49.2	17.9	0.00e+00	0	41	0	102760448	66	4418
2026-01-22 11:00:28.09	192.87	8.60	-47.0	-48.7	18.5	0.00e+00	0	40	0	111149056	66	4162
2026-01-22 11:00:32.12	193.14	8.91	-47.4	-49.2	18.0	0.00e+00	0	41	0	118489088	66	4407
2026-01-22 11:00:36.16	193.41	9.22	-47.3	-49.1	18.1	0.00e+00	0	40	0	125829120	66	4374
2026-01-22 11:00:40.19	193.70	9.53	-47.1	-48.9	18.3	0.00e+00	0	41	0	133169152	66	4243
2026-01-22 11:00:44.22	193.99	9.85	-47.1	-48.8	18.4	0.00e+00	0	41	0	141557760	66	4240
2026-01-22 11:00:48.25	194.28	10.17	-47.1	-48.8	18.4	0.00e+00	0	40	0	148897792	66	4205
2026-01-22 11:00:52.28	194.58	10.50	-47.0	-48.7	18.5	0.00e+00	0	41	0	156237824	65	4398
2026-01-22 11:00:56.31	194.89	10.83	-46.8	-48.4	18.8	0.00e+00	0	41	0	163577856	65	4271
2026-01-22 11:01:00.34	195.20	11.16	-46.8	-48.4	18.9	0.00e+00	0	41	0	170917888	65	4249
2026-01-22 11:01:04.38	195.52	11.49	-46.7	-48.2	19.0	0.00e+00	0	41	0	179306496	65	4181
2026-01-22 11:01:08.41	195.85	11.83	-46.6	-48.1	19.2	0.00e+00	0	41	0	186646528	65	4123
2026-01-22 11:01:12.44	196.18	12.18	-46.2	-47.7	19.6	0.00e+00	0	41	0	193986560	64	4167
2026-01-22 11:01:16.48	196.53	12.53	-46.2	-47.6	19.7	0.00e+00	0	41	0	201326592	64	4133
2026-01-22 11:01:20.51	196.88	12.88	-46.1	-47.5	19.8	0.00e+00	0	41	0	209715200	63	4334
2026-01-22 11:01:24.54	197.23	13.24	-46.2	-47.6	19.8	0.00e+00	0	41	0	217055232	63	4351
2026-01-22 11:01:28.58	197.60	13.60	-46.1	-47.5	19.9	0.00e+00	0	41	0	224395264	63	4311
2026-01-22 11:01:32.61	197.98	13.96	-46.1	-47.5	20.0	0.00e+00	0	41	0	231735296	63	4297
2026-01-22 11:01:36.64	198.36	14.33	-46.2	-47.7	19.8	0.00e+00	0	41	0	239075328	63	4392
2026-01-22 11:01:40.67	198.75	14.71	-46.1	-47.5	20.0	0.00e+00	0	41	0	246415360	63	4318
2026-01-22 11:01:44.70	199.16	15.09	-46.3	-47.6	19.9	0.00e+00	0	40	0	254803968	63	4387
2026-01-22 11:01:48.73	199.57	15.47	-46.1	-47.5	20.0	0.00e+00	0	41	0	262144000	63	4309
2026-01-22 11:01:52.76	199.99	15.86	-45.9	-47.3	20.3	0.00e+00	0	41	0	269484032	63	4197
2026-01-22 11:01:56.79	200.43	16.25	-45.6	-46.9	20.6	0.00e+00	0	41	0	276824064	63	4014
2026-01-22 11:02:00.82	200.87	16.65	-45.7	-46.9	20.6	0.00e+00	0	41	0	285212672	63	4046
2026-01-22 11:02:04.86	201.33	17.05	-45.8	-47.1	20.4	0.00e+00	0	41	0	292552704	63	4142
2026-01-22 11:02:08.89	201.80	17.46	-46.0	-47.3	20.2	0.00e+00	0	41	0	299892736	63	4221
2026-01-22 11:02:12.93	202.28	17.87	-46.1	-47.5	20.1	0.00e+00	0	41	0	307232768	63	4313
2026-01-22 11:02:16.96	202.78	18.29	-46.3	-47.6	19.9	0.00e+00	0	41	0	314572800	63	4385
2026-01-22 11:02:20.99	203.28	18.72	-46.3	-47.7	19.8	0.00e+00	0	41	0	322961408	63	4441
2026-01-22 11:02:25.03	203.81	19.15	-46.4	-47.8	19.8	0.00e+00	0	41	0	330301440	63	4473
2026-01-22 11:02:29.06	204.34	19.58	-46.2	-47.6	20.0	0.00e+00	0	41	0	337641472	63	4348
2026-01-22 11:02:33.10	204.89	20.02	-46.3	-47.7	19.9	0.00e+00	0	41	0	344981504	63	4421
2026-01-22 11:02:37.13	205.46	20.46	-46.4	-47.8	19.8	0.00e+00	0	41	0	352321536	63	4489
2026-01-22 11:02:41.16	206.04	20.91	-46.5	-47.9	19.8	0.00e+00	0	40	0	360710144	63	4513
2026-01-22 11:02:45.20	206.64	21.37	-46.6	-48.1	19.6	0.00e+00	0	41	0	368050176	63	4604
2026-01-22 11:02:49.23	207.26	21.82	-46.8	-48.3	19.3	0.00e+00	0	41	0	375390208	64	4444
2026-01-22 11:02:53.27	207.89	22.29	-46.7	-48.1	19.5	0.00e+00	0	41	0	382730240	64	4378
2026-01-22 11:02:57.30	208.55	22.76	-46.4	-47.8	19.8	0.00e+00	0	41	0	390070272	64	4201
2026-01-22 11:03:01.33	209.22	23.23	-46.0	-47.4	20.2	0.00e+00	0	41	0	398458880	64	4008
2026-01-22 11:03:05.35	209.91	23.71	-46.1	-47.5	20.2	0.00e+00	0	41	0	405798912	64	4054
2026-01-22 11:03:09.38	210.62	24.19	-46.0	-47.3	20.4	0.00e+00	0	41	0	413138944	63	4241
2026-01-22 11:03:13.42	211.36	24.68	-46.0	-47.3	20.4	0.00e+00	0	41	0	420478976	63	4218
2026-01-22 11:03:17.45	212.12	25.17	-46.1	-47.4	20.3	0.00e+00	0	41	0	428867584	63	4266
2026-01-22 11:03:21.49	212.90	25.67	-46.0	-47.3	20.4	0.00e+00	0	41	0	436207616	63	4239
2026-01-22 11:03:25.52	213.71	26.17	-46.1	-47.4	20.4	0.00e+00	0	41	0	443547648	63	4265
2026-01-22 11:03:29.55	214.54	26.67	-46.1	-47.4	20.3	0.00e+00	0	41	0	450887680	63	4273
2026-01-22 11:03:33.58	215.40	27.18	-46.5	-47.9	19.9	0.00e+00	0	41	0	458227712	63	4496
2026-01-22 11:03:37.62	216.28	27.69	-46.6	-48.0	19.7	0.00e+00	0	41	0	466616320	63	4594
2026-01-22 11:03:41.65	217.19	28.20	-46.5	-47.8	19.9	0.00e+00	0	41	0	473956352	63	4489
2026-01-22 11:03:45.68	218.13	28.71	-46.7	-48.1	19.7	0.00e+00	0	41	0	481296384	63	4644
2026-01-22 11:03:49.71	219.10	29.22	-46.9	-48.5	19.3	0.00e+00	0	41	0	488636416	64	4550
2026-01-22 11:03:53.74	220.10	29.73	-47.0	-48.5	19.2	0.00e+00	0	41	0	495976448	64	4587
2026-01-22 11:03:57.78	221.14	30.25	-47.1	-48.6	19.1	0.00e+00	0	41	0	504365056	64	4649
2026-01-22 11:04:01.81	222.20	30.76	-46.8	-48.3	19.4	0.00e+00	0	41	0	511705088	64	4488
2026-01-22 11:04:05.84	223.30	31.27	-47.2	-48.8	19.0	0.00e+00	0	41	0	519045120	65	4477
2026-01-22 11:04:09.87	224.44	31.77	-47.8	-49.6	18.2	0.00e+00	0	41	0	526385152	66	4627
2026-01-22 11:04:13.89	225.60	32.27	-48.2	-50.1	17.7	0.00e+00	0	41	0	533725184	67	4623
2026-01-22 11:04:17.93	226.81	32.77	-49.1	-51.3	16.6	0.00e+00	0	41	0	542113792	69	4755
2026-01-22 11:04:21.96	228.05	33.26	-49.5	-51.9	16.1	0.00e+00	0	41	0	549453824	69	5091
2026-01-22 11:04:26.00	229.33	33.75	-50.0	-52.7	15.3	0.00e+00	0	41	0	556793856	70	5238
2026-01-22 11:04:30.03	230.64	34.23	-50.0	-52.7	15.3	0.00e+00	0	41	0	564133888	70	5233
2026-01-22 11:04:34.06	231.99	34.69	-49.8	-52.4	15.6	0.00e+00	0	41	0	572522496	70	5066
2026-01-22 11:04:38.09	233.38	35.15	-48.9	-51.0	17.0	0.00e+00	0	41	0	579862528	69	4558
2026-01-22 11:04:42.12	234.81	35.59	-49.1	-51.3	16.7	0.00e+00	0	41	0	587202560	69	4746
2026-01-22 11:04:46.15	236.28	36.02	-48.6	-50.6	17.4	0.00e+00	0	41	0	594542592	69	4345
2026-01-22 11:04:50.19	237.79	36.43	-47.6	-49.2	18.7	0.00e+00	0	41	0	601882624	67	4170
2026-01-22 11:04:54.22	239.33	36.82	-47.6	-49.2	18.7	0.00e+00	0	41	0	610271232	67	4171
2026-01-22 11:04:58.25	240.90	37.20	-46.0	-47.3	20.5	0.00e+00	0	41	0	617611264	64	3976
2026-01-22 11:05:02.28	242.52	37.56	-47.2	-48.7	19.2	0.00e+00	0	41	0	624951296	64	4703
2026-01-22 11:05:06.31	244.16	37.89	-47.0	-48.5	19.3	0.00e+00	0	41	0	632291328	65	4327
2026-01-22 11:05:10.34	245.84	38.20	-47.3	-48.9	18.9	0.00e+00	0	41	0	639631360	65	4527
2026-01-22 11:05:14.38	247.56	38.49	-47.3	-48.9	19.0	0.00e+00	0	41	0	648019968	65	4512
2026-01-22 11:05:18.40	249.29	38.75	-47.3	-48.9	19.0	0.00e+00	0	41	0	655360000	65	4521
2026-01-22 11:05:22.43	251.05	38.98	-47.1	-48.6	19.3	0.00e+00	0	41	0	662700032	65	4369
2026-01-22 11:05:26.46	252.84	39.18	-48.0	-49.7	18.3	0.00e+00	0	41	0	670040064	66	4674
2026-01-22 11:05:30.50	254.65	39.35	-47.0	-48.5	19.5	0.00e+00	0	41	0	677380096	66	4070
2026-01-22 11:05:34.52	256.47	39.50	-48.0	-49.8	18.1	0.00e+00	0	41	0	685768704	66	4738
2026-01-22 11:05:38.56	258.31	39.61	-47.5	-49.0	18.9	0.00e+00	0	41	0	693108736	66	4331
2026-01-22 11:05:42.59	260.16	39.68	-49.4	-51.6	16.4	0.00e+00	0	41	0	700448768	69	4920
2026-01-22 11:05:46.62	262.02	39.73	-49.2	-51.3	16.8	0.00e+00	0	41	0	707788800	69	4722
2026-01-22 11:05:50.65	263.87	39.74	-49.6	-52.0	16.1	0.00e+00	0	41	0	715128832	69	5148
2026-01-22 11:05:54.68	265.73	39.72	-48.7	-50.7	17.4	0.00e+00	0	41	0	723517440	69	4420
2026-01-22 11:05:58.72	267.59	39.66	-47.8	-49.5	18.5	0.00e+00	0	41	0	730857472	67	4307
2026-01-22 11:06:02.75	269.43	39.58	-47.5	-49.0	18.9	0.00e+00	0	41	0	738197504	66	4331
2026-01-22 11:06:06.78	271.27	39.46	-48.6	-50.5	17.5	0.00e+00	0	41	0	745537536	67	4857
2026-01-22 11:06:10.81	273.08	39.31	-48.7	-50.6	17.6	0.00e+00	0	41	0	753926144	68	4635
2026-01-22 11:06:14.84	274.88	39.13	-49.3	-51.6	16.6	0.00e+00	0	41	0	761266176	69	4895
2026-01-22 11:06:18.87	276.66	38.92	-49.2	-51.3	16.9	0.00e+00	0	41	0	768606208	69	4736
2026-01-22 11:06:22.90	278.41	38.68	-49.0	-51.1	17.1	0.00e+00	0	41	0	775946240	68	4908
2026-01-22 11:06:26.94	280.15	38.41	-47.7	-49.3	18.7	0.00e+00	0	41	0	783286272	67	4241
2026-01-22 11:06:30.97	281.84	38.12	-47.4	-49.0	19.0	0.00e+00	0	41	0	791674880	66	4326
2026-01-22 11:06:35.00	283.51	37.80	-47.2	-48.8	19.3	0.00e+00	0	41	0	799014912	65	4446
2026-01-22 11:06:39.03	285.14	37.46	-46.5	-47.9	20.1	0.00e+00	0	41	0	806354944	65	4024
2026-01-22 11:06:43.06	286.74	37.10	-45.2	-46.3	21.7	0.00e+00	0	41	0	813694976	62	3992
2026-01-22 11:06:47.10	288.31	36.72	-45.6	-46.8	21.3	0.00e+00	0	41	0	821035008	61	4446
2026-01-22 11:06:51.13	289.84	36.32	-44.7	-45.7	22.3	0.00e+00	0	41	0	829423616	61	3934
2026-01-22 11:06:55.16	291.33	35.90	-45.0	-46.1	21.9	0.00e+00	0	41	0	836763648	61	4131
2026-01-22 11:06:59.19	292.78	35.47	-45.6	-46.8	21.3	0.00e+00	0	41	0	844103680	61	4484
2026-01-22 11:07:03.22	294.19	35.03	-45.7	-46.8	21.2	0.00e+00	0	41	0	851443712	62	4234
2026-01-22 11:07:07.26	295.57	34.57	-47.0	-48.5	19.6	0.00e+00	0	41	0	858783744	64	4563
2026-01-22 11:07:11.29	296.91	34.10	-46.7	-48.1	20.0	0.00e+00	0	41	0	867172352	64	4344
2026-01-22 11:07:15.32	298.21	33.63	-46.6	-47.9	20.2	0.00e+00	0	41	0	874512384	64	4279
2026-01-22 11:07:19.35	299.47	33.14	-48.1	-49.8	18.3	0.00e+00	0	41	0	881852416	66	4723
2026-01-22 11:07:23.38	300.70	32.65	-47.2	-48.6	19.4	0.00e+00	0	41	0	889192448	66	4128
2026-01-22 11:07:27.42	301.89	32.16	-48.6	-50.4	17.8	0.00e+00	0	41	0	897581056	68	4535
2026-01-22 11:07:31.45	303.04	31.65	-48.1	-49.9	18.2	0.00e+00	0	41	0	904921088	66	4791
2026-01-22 11:07:35.48	304.16	31.15	-47.7	-49.4	18.6	0.00e+00	0	41	0	912261120	67	4259
2026-01-22 11:07:39.51	305.25	30.64	-49.1	-51.2	16.9	0.00e+00	0	41	0	919601152	68	4981
2026-01-22 11:07:43.54	306.30	30.13	-49.1	-51.2	16.9	0.00e+00	0	41	0	926941184	70	4406
2026-01-22 11:07:47.57	307.32	29.62	-48.4	-50.3	17.7	0.00e+00	0	41	0	935329792	67	4739
2026-01-22 11:07:51.61	308.31	29.11	-46.1	-47.3	20.6	0.00e+00	0	41	0	942669824	63	4226
2026-01-22 11:07:55.64	309.27	28.60	-47.6	-49.3	18.7	0.00e+00	0	41	0	950009856	65	4720
2026-01-22 11:07:59.67	310.20	28.10	-45.1	-46.3	21.6	0.00e+00	0	41	0	957349888	62	3966
2026-01-22 11:08:03.70	311.11	27.59	-46.2	-47.5	20.5	0.00e+00	0	41	0	965738496	62	4573
2026-01-22 11:08:07.73	311.98	27.09	-45.6	-46.8	21.1	0.00e+00	0	41	0	973078528	63	3966
2026-01-22 11:08:11.77	312.83	26.58	-45.0	-46.1	21.7	0.00e+00	0	41	0	980418560	61	4123
2026-01-22 11:08:15.80	313.65	26.08	-44.5	-45.6	22.1	0.00e+00	0	41	0	987758592	61	3893
2026-01-22 11:08:19.83	314.45	25.59	-44.5	-45.5	22.5	0.00e+00	0	41	0	995098624	59	4325
2026-01-22 11:08:23.86	315.22	25.10	-45.1	-46.2	21.5	0.00e+00	0	41	0	1002438656	61	4173
2026-01-22 11:08:27.90	315.97	24.61	-44.3	-45.3	22.7	0.00e+00	0	41	0	1010827264	59	4219
2026-01-22 11:08:31.93	316.70	24.12	-44.5	-45.6	22.4	0.00e+00	0	41	0	1018167296	59	4363
2026-01-22 11:08:35.96	317.41	23.65	-44.7	-45.8	22.0	0.00e+00	0	41	0	1025507328	60	4194
2026-01-22 11:08:39.99	318.09	23.17	-44.3	-45.3	22.6	0.00e+00	0	41	0	1032847360	59	4218
2026-01-22 11:08:44.02	318.76	22.70	-44.5	-45.5	22.1	0.00e+00	0	41	0	1041235968	60	4088
2026-01-22 11:08:48.06	319.41	22.24	-44.7	-45.8	21.8	0.00e+00	0	41	0	1048576000	60	4228
2026-01-22 11:08:52.09	320.04	21.78	-44.7	-45.8	21.9	0.00e+00	0	41	0	1055916032	60	4209
2026-01-22 11:08:56.12	320.65	21.32	-45.1	-46.3	21.4	0.00e+00	0	41	0	1063256064	60	4459
2026-01-22 11:09:00.15	321.24	20.87	-44.8	-45.9	21.7	0.00e+00	0	41	0	1070596096	60	4267
2026-01-22 11:09:04.18	321.82	20.43	-44.6	-45.7	21.9	0.00e+00	0	41	0	1078984704	60	4178
2026-01-22 11:09:08.21	322.38	19.99	-45.5	-46.7	20.9	0.00e+00	0	41	0	1086324736	61	4427
2026-01-22 11:09:12.24	322.92	19.55	-45.4	-46.6	21.0	0.00e+00	0	41	0	1093664768	61	4351
2026-01-22 11:09:16.28	323.46	19.12	-45.9	-47.2	20.4	0.00e+00	0	41	0	1101004800	62	4416
2026-01-22 11:09:20.31	323.98	18.70	-46.7	-48.2	19.5	0.00e+00	0	41	0	1108344832	63	4654
2026-01-22 11:09:24.34	324.48	18.28	-46.0	-47.4	20.2	0.00e+00	0	41	0	1116733440	63	4244
2026-01-22 11:09:28.37	324.97	17.86	-45.6	-46.8	20.7	0.00e+00	0	41	0	1124073472	63	3994
2026-01-22 11:09:32.40	325.45	17.45	-45.6	-46.9	20.7	0.00e+00	0	41	0	1131413504	62	4245
2026-01-22 11:09:36.43	325.91	17.05	-46.1	-47.5	20.1	0.00e+00	0	41	0	1138753536	62	4564
2026-01-22 11:09:40.46	326.37	16.65	-46.0	-47.3	20.2	0.00e+00	0	41	0	1146093568	63	4231
2026-01-22 11:09:44.49	326.81	16.26	-45.7	-47.0	20.5	0.00e+00	0	41	0	1154482176	63	4081
2026-01-22 11:09:48.52	327.24	15.87	-45.6	-46.9	20.6	0.00e+00	0	41	0	1161822208	63	4028
2026-01-22 11:09:52.56	327.66	15.48	-45.9	-47.2	20.2	0.00e+00	0	41	0	1169162240	63	4189
2026-01-22 11:09:56.59	328.08	15.10	-46.1	-47.6	19.9	0.00e+00	0	41	0	1176502272	63	4341
2026-01-22 11:10:00.62	328.48	14.72	-45.9	-47.3	20.1	0.00e+00	0	41	0	1184890880	63	4207
2026-01-22 11:10:04.66	328.87	14.35	-45.8	-47.1	20.3	0.00e+00	0	41	0	1192230912	63	4115
2026-01-22 11:10:08.69	329.25	13.99	-45.8	-47.1	20.2	0.00e+00	0	41	0	1199570944	63	4136
2026-01-22 11:10:12.72	329.63	13.62	-46.3	-47.8	19.5	7.00e-07	0	41	0	1206910976	63	4468
2026-01-22 11:10:16.76	329.99	13.26	-46.5	-48.0	19.3	0.00e+00	0	41	0	1214251008	63	4562
2026-01-22 11:10:20.79	330.35	12.91	-46.6	-48.1	19.2	0.00e+00	0	41	0	1221591040	63	4635
2026-01-22 11:10:24.82	330.70	12.56	-46.1	-47.6	19.7	0.00e+00	0	41	0	1229979648	63	4351
2026-01-22 11:10:28.85	331.04	12.22	-46.1	-47.5	19.7	0.00e+00	0	41	0	1237319680	63	4339
2026-01-22 11:10:32.88	331.37	11.88	-45.9	-47.3	19.9	0.00e+00	0	41	0	1244659712	63	4217
2026-01-22 11:10:36.92	331.70	11.54	-45.9	-47.3	19.9	0.00e+00	0	41	0	1251999744	63	4226
2026-01-22 11:10:40.95	332.02	11.20	-46.4	-48.0	19.2	0.00e+00	0	41	0	1260388352	63	4549
2026-01-22 11:10:44.98	332.34	10.87	-46.7	-48.3	18.9	0.00e+00	0	41	0	1267728384	63	4712
2026-01-22 11:10:49.01	332.64	10.55	-46.6	-48.2	18.9	0.00e+00	0	41	0	1275068416	64	4401
2026-01-22 11:10:53.05	332.94	10.22	-46.7	-48.4	18.6	0.00e+00	0	41	0	1282408448	64	4521
2026-01-22 11:10:57.08	333.24	9.90	-47.0	-48.7	18.2	0.00e+00	0	41	0	1289748480	64	4703
2026-01-22 11:11:01.11	333.53	9.59	-47.2	-49.0	18.0	0.00e+00	0	41	0	1298137088	64	4821
2026-01-22 11:11:05.15	333.81	9.28	-47.1	-48.9	18.1	0.00e+00	0	41	0	1305477120	64	4783
2026-01-22 11:11:09.18	334.09	8.97	-47.0	-48.8	18.1	0.00e+00	0	41	0	1312817152	65	4471
2026-01-22 11:11:13.22	334.36	8.66	-47.5	-49.4	17.5	0.00e+00	0	41	0	1320157184	65	4799
2026-01-22 11:11:17.25	334.63	8.36	-47.3	-49.2	17.6	4.50e-06	0	41	0	1328545792	65	4703
2026-01-22 11:11:21.28	334.89	8.06	-47.6	-49.6	17.2	0.00e+00	0	41	0	1335885824	65	4882
2026-01-22 11:11:25.31	335.14	7.76	-47.9	-50.0	16.8	0.00e+00	0	41	0	1343225856	66	4854
2026-01-22 11:11:29.34	335.40	7.47	-48.1	-50.3	16.5	0.00e+00	0	41	0	1350565888	66	5006
2026-01-22 11:11:33.37	335.64	7.18	-48.0	-50.3	16.4	0.00e+00	0	41	0	1357905920	66	4994
2026-01-22 11:11:37.41	335.89	6.89	-48.0	-50.3	16.4	0.00e+00	0	41	0	1366294528	66	4985
2026-01-22 11:11:41.44	336.13	6.61	-47.9	-50.1	16.6	0.00e+00	0	41	0	1373634560	66	4883
2026-01-22 11:11:45.47	336.36	6.33	-47.9	-50.1	16.4	6.80e-06	0	41	0	1380974592	66	4918
2026-01-22 11:11:49.50	336.59	6.05	-48.3	-50.7	15.8	0.00e+00	0	41	0	1388314624	67	4948
2026-01-22 11:11:53.53	336.82	5.77	-48.5	-51.1	15.4	1.50e-06	0	41	0	1395654656	67	5180
2026-01-22 11:11:57.56	337.04	5.50	-48.9	-51.8	14.8	0.00e+00	0	41	0	1404043264	68	5284
2026-01-22 11:12:01.60	337.26	5.22	-49.0	-52.0	14.5	7.00e-07	0	41	0	1411383296	68	5443
2026-01-22 11:12:05.63	337.47	4.96	-52.9	-68.0	3.8	1.49e+00	0	41	104	1416626176	76	21538
2026-01-22 11:12:09.66	337.68	4.69	-53.6	-68.6	3.8	1.49e+00	0	41	104	1416626176	77	21931
2026-01-22 11:12:13.70	337.89	4.42	-53.8	-68.8	3.8	1.49e+00	0	41	104	1416626176	78	21200
2026-01-22 11:12:17.73	338.10	4.16	-53.5	-68.5	3.8	1.49e+00	0	41	104	1416626176	78	20431
2026-01-22 11:12:21.76	338.30	3.90	-53.6	-68.6	3.8	1.49e+00	0	41	104	1416626176	78	20636
2026-01-22 11:12:25.79	338.50	3.65	-53.7	-68.7	3.8	1.49e+00	0	41	104	1416626176	78	20850
2026-01-22 11:12:29.82	338.69	3.39	-53.6	-68.6	3.8	1.49e+00	0	41	104	1416626176	78	20724
2026-01-22 11:12:33.85	338.88	3.14	-53.6	-68.6	3.8	1.49e+00	0	41	104	1416626176	78	20656
2026-01-22 11:12:37.88	339.07	2.89	-53.6	-68.6	3.8	1.49e+00	0	41	104	1416626176	78	20655
2026-01-22 11:12:41.92	339.26	2.64	-53.6	-68.6	3.8	1.49e+00	0	41	104	1416626176	78	20584
2026-01-22 11:12:45.95	339.44	2.39	-53.5	-68.6	3.8	1.49e+00	0	41	104	1416626176	78	20545
2026-01-22 11:12:49.99	339.62	2.14	-53.5	-68.6	3.8	1.49e+00	0	41	104	1416626176	78	20545

#Closed at: 2026-01-22 11:12:53
#Recorded file [1416 MB]: D:/lorett/data/31041_260122_135851.dat