passes_logs/2026/01/22/R3.2S_Murmansk/R3.2S_Murmansk__20260122_085726_SUOMI_NPP_rec.log

#Pass ID: 20260122_085726_SUOMI NPP
#Satellite: SUOMI NPP
#Configuration: NPP
#almurnet v.1.7.20251203
#Start time: 2026-01-22 08:57:28

#Version: 2.2.20231116
#Station: R3.2S_Murmansk
#Location: 33.079688 lon 68.888172 lat
#TLE: 1 37849U 11061A   26021.51818991  .00000201  00000+0  11636-3 0  9995
#TLE: 2 37849  98.7819 323.5108 0002300  52.3548 307.7836 14.19527793737637

#Time	Az	El	Level	Level2	SNR	BER	BlckErr	Temp	State	Recorded	gain1	gain2
2026-01-22 08:57:28.27	136.42	2.15	-54.3	-69.4	3.8	1.49e+00	0	39	0	0	79	21282
2026-01-22 08:57:32.29	136.37	2.41	-54.5	-69.5	3.8	1.49e+00	0	39	104	0	79	21608
2026-01-22 08:57:36.33	136.31	2.67	-54.3	-69.3	3.8	1.49e+00	0	39	104	0	79	21191
2026-01-22 08:57:40.37	136.25	2.93	-54.0	-69.0	3.8	1.49e+00	0	39	104	0	79	20463
2026-01-22 08:57:44.40	136.19	3.20	-53.4	-68.4	3.8	1.49e+00	0	39	104	0	78	20270
2026-01-22 08:57:48.43	136.13	3.47	-52.5	-67.2	3.8	1.49e+00	0	39	104	0	77	18651
2026-01-22 08:57:52.46	136.07	3.74	-52.4	-67.1	3.8	1.49e+00	0	39	104	0	76	19410
2026-01-22 08:57:56.50	136.00	4.02	-52.4	-66.4	3.8	1.49e+00	0	39	104	0	76	17924
2026-01-22 08:58:00.53	135.94	4.30	-51.4	-58.2	7.9	1.35e-01	0	40	0	4194304	74	7848
2026-01-22 08:58:04.56	135.87	4.58	-49.1	-52.2	14.1	1.52e-05	0	39	0	11534336	70	4960
2026-01-22 08:58:08.60	135.80	4.86	-47.2	-49.2	17.0	0.00e+00	0	39	0	18874368	66	4426
2026-01-22 08:58:12.63	135.73	5.15	-50.0	-53.7	12.8	5.95e-04	0	40	0	26214400	71	5537
2026-01-22 08:58:16.66	135.66	5.44	-47.4	-49.6	16.5	4.52e-03	0	40	0	33554432	67	4349
2026-01-22 08:58:20.69	135.59	5.73	-46.4	-48.2	18.1	0.00e+00	0	40	0	41943040	64	4409
2026-01-22 08:58:24.72	135.51	6.03	-46.3	-47.9	18.5	0.00e+00	0	40	0	49283072	64	4277
2026-01-22 08:58:28.76	135.43	6.33	-46.3	-48.0	18.5	0.00e+00	0	40	0	56623104	64	4293
2026-01-22 08:58:32.79	135.35	6.63	-46.4	-48.1	18.4	0.00e+00	0	40	0	63963136	64	4342
2026-01-22 08:58:36.82	135.27	6.94	-46.1	-47.7	18.8	0.00e+00	0	40	0	71303168	64	4156
2026-01-22 08:58:40.85	135.19	7.25	-45.9	-47.4	19.2	0.00e+00	0	40	0	79691776	63	4244
2026-01-22 08:58:44.88	135.11	7.57	-45.9	-47.4	19.2	0.00e+00	0	40	0	87031808	63	4274
2026-01-22 08:58:48.91	135.02	7.88	-46.1	-47.6	19.1	0.00e+00	0	40	0	94371840	63	4362
2026-01-22 08:58:52.95	134.93	8.21	-46.4	-48.0	18.7	0.00e+00	0	40	0	101711872	63	4554
2026-01-22 08:58:56.98	134.84	8.53	-45.8	-47.3	19.4	0.00e+00	0	40	0	110100480	63	4208
2026-01-22 08:59:01.01	134.74	8.86	-45.4	-46.8	19.9	0.00e+00	0	40	0	117440512	62	4217
2026-01-22 08:59:05.04	134.65	9.20	-45.4	-46.8	19.9	0.00e+00	0	40	0	124780544	62	4225
2026-01-22 08:59:09.07	134.55	9.54	-46.0	-47.5	19.3	0.00e+00	0	40	0	132120576	62	4569
2026-01-22 08:59:13.10	134.45	9.88	-45.6	-47.0	19.8	0.00e+00	0	40	0	139460608	62	4322
2026-01-22 08:59:17.13	134.34	10.23	-45.3	-46.7	20.1	0.00e+00	0	40	0	146800640	62	4167
2026-01-22 08:59:21.16	134.23	10.58	-45.0	-46.2	20.5	0.00e+00	0	40	0	155189248	61	4185
2026-01-22 08:59:25.20	134.12	10.94	-44.7	-45.9	20.8	0.00e+00	0	40	0	162529280	61	4042
2026-01-22 08:59:29.23	134.01	11.31	-44.7	-45.9	20.8	0.00e+00	0	40	0	169869312	61	4018
2026-01-22 08:59:33.26	133.89	11.67	-44.4	-45.5	21.1	0.00e+00	0	40	0	177209344	60	4088
2026-01-22 08:59:37.29	133.77	12.05	-44.3	-45.4	21.2	0.00e+00	0	40	0	185597952	60	4036
2026-01-22 08:59:41.32	133.65	12.43	-44.6	-45.8	21.0	0.00e+00	0	40	0	192937984	60	4211
2026-01-22 08:59:45.35	133.52	12.81	-44.3	-45.5	21.2	0.00e+00	0	40	0	200278016	60	4070
2026-01-22 08:59:49.38	133.39	13.21	-44.3	-45.4	21.6	0.00e+00	0	40	0	207618048	59	4277
2026-01-22 08:59:53.41	133.26	13.61	-44.5	-45.6	21.4	0.00e+00	0	40	0	214958080	59	4386
2026-01-22 08:59:57.45	133.12	14.01	-44.5	-45.7	21.3	0.00e+00	0	40	0	223346688	59	4436
2026-01-22 09:00:01.48	132.97	14.42	-44.5	-45.7	21.3	0.00e+00	0	40	0	230686720	59	4427
2026-01-22 09:00:05.51	132.83	14.84	-44.5	-45.7	21.4	0.00e+00	0	40	0	238026752	59	4403
2026-01-22 09:00:09.54	132.68	15.27	-44.2	-45.4	21.3	0.00e+00	0	40	0	245366784	60	4034
2026-01-22 09:00:13.58	132.52	15.70	-44.5	-45.7	21.3	0.00e+00	0	40	0	253755392	59	4413
2026-01-22 09:00:17.61	132.36	16.14	-44.3	-45.5	21.5	0.00e+00	0	40	0	261095424	59	4301
2026-01-22 09:00:21.64	132.19	16.59	-44.3	-45.4	21.6	0.00e+00	0	40	0	268435456	59	4287
2026-01-22 09:00:25.67	132.02	17.04	-44.3	-45.5	21.5	0.00e+00	0	40	0	275775488	59	4311
2026-01-22 09:00:29.70	131.84	17.51	-44.4	-45.6	21.5	0.00e+00	0	40	0	283115520	59	4345
2026-01-22 09:00:33.73	131.65	17.98	-44.4	-45.5	21.5	0.00e+00	0	40	0	290455552	59	4340
2026-01-22 09:00:37.76	131.46	18.46	-44.4	-45.6	21.5	0.00e+00	0	40	0	298844160	59	4387
2026-01-22 09:00:41.79	131.27	18.96	-44.4	-45.7	21.3	0.00e+00	0	40	0	306184192	60	4161
2026-01-22 09:00:45.83	131.06	19.46	-44.7	-45.9	21.1	0.00e+00	0	40	0	313524224	60	4272
2026-01-22 09:00:49.86	130.85	19.97	-44.6	-45.8	21.1	0.00e+00	0	40	0	320864256	60	4240
2026-01-22 09:00:53.89	130.63	20.49	-44.4	-45.6	21.3	0.00e+00	0	40	0	329252864	60	4129
2026-01-22 09:00:57.93	130.40	21.02	-44.4	-45.6	21.4	0.00e+00	0	40	0	336592896	60	4107
2026-01-22 09:01:01.96	130.17	21.56	-44.6	-45.9	21.1	0.00e+00	0	40	0	343932928	60	4247
2026-01-22 09:01:05.99	129.92	22.12	-44.8	-46.0	21.0	0.00e+00	0	41	0	351272960	60	4323
2026-01-22 09:01:10.03	129.67	22.69	-44.7	-46.0	21.1	0.00e+00	0	41	0	358612992	60	4295
2026-01-22 09:01:14.05	129.40	23.26	-44.4	-45.7	21.3	0.00e+00	0	40	0	367001600	60	4154
2026-01-22 09:01:18.09	129.13	23.85	-45.0	-46.3	20.8	0.00e+00	0	40	0	374341632	60	4454
2026-01-22 09:01:22.12	128.84	24.46	-45.3	-46.7	20.5	0.00e+00	0	41	0	381681664	61	4398
2026-01-22 09:01:26.15	128.54	25.07	-45.6	-46.9	20.3	0.00e+00	0	41	0	389021696	61	4544
2026-01-22 09:01:30.18	128.23	25.70	-45.8	-47.2	20.1	0.00e+00	0	41	0	396361728	62	4424
2026-01-22 09:01:34.21	127.91	26.35	-46.1	-47.6	19.7	0.00e+00	0	41	0	404750336	62	4630
2026-01-22 09:01:38.25	127.57	27.01	-46.0	-47.4	19.9	0.00e+00	0	40	0	412090368	63	4263
2026-01-22 09:01:42.28	127.22	27.68	-45.8	-47.2	20.1	0.00e+00	0	40	0	419430400	63	4181
2026-01-22 09:01:46.31	126.85	28.37	-45.5	-46.9	20.4	0.00e+00	0	40	0	426770432	62	4249
2026-01-22 09:01:50.34	126.46	29.08	-45.2	-46.5	20.7	0.00e+00	0	40	0	434110464	62	4086
2026-01-22 09:01:54.38	126.06	29.80	-46.7	-48.4	18.9	0.00e+00	0	40	0	442499072	64	4503
2026-01-22 09:01:58.40	125.64	30.54	-46.7	-48.4	18.9	0.00e+00	0	40	0	449839104	64	4529
2026-01-22 09:02:02.44	125.19	31.30	-47.6	-49.6	17.8	0.00e+00	0	40	0	457179136	65	4883
2026-01-22 09:02:06.46	124.73	32.07	-48.3	-50.5	17.1	0.00e+00	0	40	0	464519168	67	4823
2026-01-22 09:02:10.50	124.24	32.86	-47.2	-49.0	18.3	0.00e+00	0	41	0	472907776	66	4325
2026-01-22 09:02:14.53	123.73	33.67	-48.4	-50.7	16.8	0.00e+00	0	41	0	480247808	67	4949
2026-01-22 09:02:18.56	123.18	34.50	-47.9	-50.0	17.4	0.00e+00	0	40	0	487587840	67	4584
2026-01-22 09:02:22.59	122.61	35.35	-49.1	-52.0	15.6	0.00e+00	0	41	0	494927872	68	5435
2026-01-22 09:02:26.63	122.01	36.23	-48.8	-51.5	16.0	0.00e+00	0	41	0	502267904	69	4858
2026-01-22 09:02:30.66	121.37	37.12	-47.7	-49.8	17.6	0.00e+00	0	40	0	509607936	67	4455
2026-01-22 09:02:34.70	120.70	38.03	-47.2	-49.1	18.2	0.00e+00	0	41	0	517996544	65	4646
2026-01-22 09:02:38.73	119.98	38.96	-46.5	-48.1	19.2	0.00e+00	0	40	0	525336576	64	4375
2026-01-22 09:02:42.76	119.23	39.91	-46.3	-48.0	19.3	0.00e+00	0	40	0	532676608	64	4292
2026-01-22 09:02:46.79	118.42	40.88	-46.2	-47.8	19.6	0.00e+00	0	40	0	540016640	63	4483
2026-01-22 09:02:50.83	117.57	41.87	-46.6	-48.3	19.1	0.00e+00	0	40	0	548405248	64	4453
2026-01-22 09:02:54.86	116.66	42.88	-46.5	-48.0	19.3	0.00e+00	0	40	0	555745280	64	4333
2026-01-22 09:02:58.90	115.69	43.91	-46.6	-48.3	19.1	0.00e+00	0	41	0	563085312	64	4446
2026-01-22 09:03:02.93	114.65	44.96	-46.5	-48.1	19.1	0.00e+00	0	40	0	570425344	63	4638
2026-01-22 09:03:06.96	113.54	46.02	-45.8	-47.4	20.0	0.00e+00	0	41	0	577765376	63	4247
2026-01-22 09:03:10.99	112.35	47.10	-46.0	-47.5	20.0	0.00e+00	0	41	0	586153984	63	4315
2026-01-22 09:03:15.02	111.08	48.19	-45.3	-46.7	20.6	0.00e+00	0	41	0	593494016	62	4170
2026-01-22 09:03:19.05	109.72	49.29	-45.3	-46.8	20.3	0.00e+00	0	41	0	600834048	62	4208
2026-01-22 09:03:23.08	108.24	50.40	-45.3	-46.7	20.5	0.00e+00	0	41	0	608174080	61	4422
2026-01-22 09:03:27.11	106.66	51.52	-44.3	-45.4	21.7	0.00e+00	0	40	0	616562688	60	4028
2026-01-22 09:03:31.15	104.95	52.63	-44.8	-46.0	21.1	0.00e+00	0	41	0	623902720	61	4089
2026-01-22 09:03:35.18	103.11	53.75	-45.2	-46.6	20.5	0.00e+00	0	41	0	631242752	61	4369
2026-01-22 09:03:39.21	101.12	54.85	-45.5	-47.0	20.2	0.00e+00	0	41	0	638582784	62	4316
2026-01-22 09:03:43.24	98.96	55.94	-45.3	-46.7	20.6	0.00e+00	0	40	0	645922816	61	4416
2026-01-22 09:03:47.27	96.64	57.01	-45.0	-46.2	21.0	0.00e+00	0	41	0	653262848	61	4169
2026-01-22 09:03:51.30	94.13	58.05	-46.1	-47.5	20.0	0.00e+00	0	40	0	661651456	62	4561
2026-01-22 09:03:55.33	91.42	59.05	-46.2	-47.7	19.8	0.00e+00	0	41	0	668991488	62	4676
2026-01-22 09:03:59.36	88.49	60.00	-45.3	-46.6	20.8	0.00e+00	0	40	0	676331520	62	4119
2026-01-22 09:04:03.40	85.35	60.90	-44.4	-45.6	21.6	0.00e+00	0	41	0	683671552	60	4113
2026-01-22 09:04:07.43	81.99	61.72	-43.8	-44.8	22.5	0.00e+00	0	40	0	692060160	59	3995
2026-01-22 09:04:11.47	78.40	62.46	-44.0	-45.1	22.2	0.00e+00	0	41	0	699400192	59	4133
2026-01-22 09:04:15.50	74.60	63.11	-43.4	-44.5	22.8	0.00e+00	0	40	0	706740224	58	4055
2026-01-22 09:04:19.53	70.61	63.65	-42.9	-43.9	23.2	0.00e+00	0	41	0	714080256	57	4040
2026-01-22 09:04:23.56	66.46	64.07	-44.6	-45.9	21.3	0.00e+00	0	41	0	721420288	60	4278
2026-01-22 09:04:27.59	62.17	64.37	-42.6	-43.6	23.5	0.00e+00	0	41	0	729808896	57	3872
2026-01-22 09:04:31.62	57.79	64.54	-42.0	-42.9	23.9	0.00e+00	0	41	0	737148928	55	4038
2026-01-22 09:04:35.66	53.36	64.57	-43.1	-44.2	23.1	0.00e+00	0	41	0	744488960	56	4411
2026-01-22 09:04:39.69	48.96	64.47	-43.0	-44.0	23.2	0.00e+00	0	41	0	751828992	57	4095
2026-01-22 09:04:43.72	44.62	64.24	-43.9	-45.0	22.5	0.00e+00	0	41	0	759169024	58	4320
2026-01-22 09:04:47.75	40.40	63.87	-44.4	-45.6	21.8	0.00e+00	0	41	0	767557632	60	4137
2026-01-22 09:04:51.78	36.33	63.39	-43.8	-44.8	22.6	0.00e+00	0	41	0	774897664	58	4238
2026-01-22 09:04:55.82	32.43	62.79	-43.7	-44.7	22.7	0.00e+00	0	41	0	782237696	59	3938
2026-01-22 09:04:59.85	28.74	62.10	-44.3	-45.5	22.0	0.00e+00	0	41	0	789577728	59	4301
2026-01-22 09:05:03.88	25.28	61.31	-46.0	-47.6	19.9	0.00e+00	0	41	0	797966336	62	4603
2026-01-22 09:05:07.91	22.03	60.46	-44.9	-46.1	21.2	0.00e+00	0	41	0	805306368	61	4116
2026-01-22 09:05:11.94	19.01	59.53	-47.3	-49.0	18.6	0.00e+00	0	40	0	812646400	65	4594
2026-01-22 09:05:15.98	16.19	58.56	-45.6	-46.8	20.7	0.00e+00	0	40	0	819986432	63	3990
2026-01-22 09:05:20.01	13.58	57.54	-47.0	-48.7	19.0	0.00e+00	0	41	0	827326464	64	4675
2026-01-22 09:05:24.04	11.17	56.49	-47.6	-49.7	17.9	0.00e+00	0	41	0	835715072	66	4678
2026-01-22 09:05:28.07	8.94	55.41	-45.4	-46.7	20.6	0.00e+00	0	41	0	843055104	62	4192
2026-01-22 09:05:32.10	6.87	54.31	-45.6	-46.9	20.3	0.00e+00	0	41	0	850395136	63	4043
2026-01-22 09:05:36.13	4.96	53.21	-45.9	-47.4	20.1	0.00e+00	0	40	0	857735168	62	4500
2026-01-22 09:05:40.16	3.19	52.09	-46.3	-47.9	19.7	0.00e+00	0	40	0	865075200	63	4514
2026-01-22 09:05:44.19	1.55	50.98	-45.0	-46.2	21.3	0.00e+00	0	40	0	873463808	61	4187
2026-01-22 09:05:48.22	0.02	49.87	-46.3	-47.7	19.9	0.00e+00	0	41	0	880803840	63	4434
2026-01-22 09:05:52.26	358.61	48.76	-48.0	-50.1	17.7	0.00e+00	0	40	0	888143872	66	4893
2026-01-22 09:05:56.29	357.29	47.67	-45.4	-46.7	20.7	0.00e+00	0	41	0	895483904	62	4182
2026-01-22 09:06:00.32	356.06	46.59	-45.7	-47.1	20.4	0.00e+00	0	40	0	902823936	61	4626
2026-01-22 09:06:04.35	354.92	45.52	-47.4	-49.3	18.1	0.00e+00	0	40	0	911212544	66	4481
2026-01-22 09:06:08.39	353.85	44.47	-47.0	-48.7	18.8	0.00e+00	0	40	0	918552576	64	4688
2026-01-22 09:06:12.42	352.85	43.43	-45.5	-46.9	20.5	0.00e+00	0	41	0	925892608	62	4252
2026-01-22 09:06:16.45	351.91	42.42	-45.6	-46.9	20.4	0.00e+00	0	41	0	933232640	61	4540
2026-01-22 09:06:20.48	351.03	41.42	-49.1	-51.7	15.9	0.00e+00	0	41	0	941621248	69	4952
2026-01-22 09:06:24.52	350.20	40.44	-47.5	-49.3	18.1	0.00e+00	0	40	0	948961280	66	4488
2026-01-22 09:06:28.55	349.42	39.48	-46.0	-47.4	20.0	0.00e+00	0	41	0	956301312	63	4287
2026-01-22 09:06:32.58	348.69	38.55	-47.3	-49.1	18.5	0.00e+00	0	41	0	963641344	65	4607
2026-01-22 09:06:36.61	348.00	37.63	-48.1	-50.1	17.5	0.00e+00	0	41	0	970981376	67	4606
2026-01-22 09:06:40.64	347.35	36.73	-48.6	-50.8	16.9	0.00e+00	0	41	0	979369984	68	4750
2026-01-22 09:06:44.67	346.73	35.85	-47.1	-48.7	18.8	0.00e+00	0	41	0	986710016	66	4171
2026-01-22 09:06:48.70	346.14	35.00	-45.9	-47.2	20.2	0.00e+00	0	41	0	994050048	63	4178
2026-01-22 09:06:52.74	345.59	34.16	-48.3	-50.5	17.1	0.00e+00	0	41	0	1001390080	67	4832
2026-01-22 09:06:56.77	345.06	33.34	-47.9	-49.7	17.8	0.00e+00	0	41	0	1008730112	67	4438
2026-01-22 09:07:00.80	344.56	32.54	-47.3	-49.0	18.6	0.00e+00	0	41	0	1017118720	66	4308
2026-01-22 09:07:04.83	344.09	31.76	-47.2	-48.9	18.6	0.00e+00	0	41	0	1024458752	65	4515
2026-01-22 09:07:08.86	343.63	30.99	-46.5	-48.0	19.4	0.00e+00	0	41	0	1031798784	64	4324
2026-01-22 09:07:12.90	343.20	30.25	-46.9	-48.5	18.9	0.00e+00	0	41	0	1039138816	64	4576
2026-01-22 09:07:16.93	342.79	29.52	-48.7	-51.0	16.6	0.00e+00	0	41	0	1046478848	68	4828
2026-01-22 09:07:20.96	342.40	28.81	-47.8	-49.7	17.7	0.00e+00	0	41	0	1054867456	67	4428
2026-01-22 09:07:24.99	342.02	28.11	-48.3	-50.4	17.1	0.00e+00	0	41	0	1062207488	67	4762
2026-01-22 09:07:29.02	341.66	27.43	-47.6	-49.4	18.1	0.00e+00	0	41	0	1069547520	66	4513
2026-01-22 09:07:33.06	341.32	26.77	-46.6	-48.2	19.1	0.00e+00	0	41	0	1076887552	65	4183
2026-01-22 09:07:37.09	340.99	26.12	-47.0	-48.7	18.7	0.00e+00	0	41	0	1085276160	65	4428
2026-01-22 09:07:41.12	340.67	25.48	-47.6	-49.4	18.0	0.00e+00	0	41	0	1092616192	66	4526
2026-01-22 09:07:45.15	340.37	24.86	-47.3	-49.1	18.2	0.00e+00	0	41	0	1099956224	66	4365
2026-01-22 09:07:49.18	340.08	24.25	-46.3	-47.8	19.5	0.00e+00	0	41	0	1107296256	64	4212
2026-01-22 09:07:53.22	339.80	23.65	-46.7	-48.3	19.0	0.00e+00	0	41	0	1114636288	64	4448
2026-01-22 09:07:57.25	339.53	23.07	-47.2	-49.0	18.3	0.00e+00	0	41	0	1121976320	65	4568
2026-01-22 09:08:01.28	339.28	22.50	-46.8	-48.5	18.7	0.00e+00	0	40	0	1130364928	65	4313
2026-01-22 09:08:05.32	339.03	21.94	-46.6	-48.2	18.9	0.00e+00	0	41	0	1137704960	64	4439
2026-01-22 09:08:09.35	338.79	21.40	-47.0	-48.8	18.4	0.00e+00	0	40	0	1145044992	64	4750
2026-01-22 09:08:13.38	338.56	20.86	-47.3	-49.2	17.9	0.00e+00	0	41	0	1152385024	65	4700
2026-01-22 09:08:17.41	338.34	20.33	-46.7	-48.4	18.7	0.00e+00	0	41	0	1160773632	65	4243
2026-01-22 09:08:21.45	338.12	19.82	-46.2	-47.8	19.3	0.00e+00	0	41	0	1168113664	64	4218
2026-01-22 09:08:25.48	337.92	19.31	-45.9	-47.3	19.8	0.00e+00	0	41	0	1175453696	63	4216
2026-01-22 09:08:29.51	337.72	18.82	-46.0	-47.5	19.7	0.00e+00	0	41	0	1182793728	63	4301
2026-01-22 09:08:33.54	337.53	18.33	-46.2	-47.7	19.5	0.00e+00	0	40	0	1190133760	63	4399
2026-01-22 09:08:37.58	337.34	17.86	-45.7	-47.1	20.0	0.00e+00	0	41	0	1198522368	63	4140
2026-01-22 09:08:41.61	337.16	17.39	-46.2	-47.8	19.3	0.00e+00	0	41	0	1205862400	63	4452
2026-01-22 09:08:45.64	336.99	16.93	-46.5	-48.2	18.9	0.00e+00	0	41	0	1213202432	64	4416
2026-01-22 09:08:49.67	336.82	16.48	-46.7	-48.4	18.6	0.00e+00	0	41	0	1220542464	64	4533
2026-01-22 09:08:53.71	336.65	16.03	-46.9	-48.6	18.4	0.00e+00	0	41	0	1228931072	64	4644
2026-01-22 09:08:57.73	336.50	15.60	-46.4	-48.1	18.9	0.00e+00	0	41	0	1236271104	64	4358
2026-01-22 09:09:01.76	336.35	15.17	-46.7	-48.4	18.5	0.00e+00	0	41	0	1243611136	64	4543
2026-01-22 09:09:05.80	336.20	14.75	-47.1	-49.0	18.0	0.00e+00	0	41	0	1250951168	64	4826
2026-01-22 09:09:09.83	336.05	14.33	-47.6	-49.6	17.3	0.00e+00	0	41	0	1258291200	66	4643
2026-01-22 09:09:13.86	335.92	13.93	-48.0	-50.3	16.7	0.00e+00	0	41	0	1265631232	66	5019
2026-01-22 09:09:17.89	335.78	13.53	-47.8	-50.0	17.0	0.00e+00	0	41	0	1274019840	66	4837
2026-01-22 09:09:21.93	335.65	13.13	-47.4	-49.3	17.6	0.00e+00	0	41	0	1281359872	66	4486
2026-01-22 09:09:25.96	335.52	12.74	-46.8	-48.6	18.3	0.00e+00	0	41	0	1288699904	65	4346
2026-01-22 09:09:29.99	335.40	12.36	-46.3	-47.9	18.9	0.00e+00	0	41	0	1296039936	64	4249
2026-01-22 09:09:34.02	335.28	11.98	-46.0	-47.6	19.2	0.00e+00	0	41	0	1304428544	63	4350
2026-01-22 09:09:38.05	335.16	11.61	-46.0	-47.5	19.3	0.00e+00	0	41	0	1311768576	63	4317
2026-01-22 09:09:42.08	335.05	11.25	-46.4	-48.0	18.9	0.00e+00	0	41	0	1319108608	63	4567
2026-01-22 09:09:46.11	334.94	10.89	-46.3	-47.9	18.9	0.00e+00	0	41	0	1326448640	63	4505
2026-01-22 09:09:50.15	334.83	10.53	-46.5	-48.2	18.5	0.00e+00	0	41	0	1333788672	64	4429
2026-01-22 09:09:54.18	334.73	10.18	-46.9	-48.8	18.0	0.00e+00	0	40	0	1342177280	64	4715
2026-01-22 09:09:58.21	334.63	9.84	-47.2	-49.2	17.5	0.00e+00	0	41	0	1349517312	64	4956
2026-01-22 09:10:02.25	334.53	9.49	-47.5	-49.6	17.1	1.44e-05	0	41	0	1356857344	65	4893
2026-01-22 09:10:06.28	334.44	9.16	-47.6	-49.7	17.0	0.00e+00	0	41	0	1364197376	66	4698
2026-01-22 09:10:10.31	334.34	8.83	-47.7	-49.9	16.7	0.00e+00	0	41	0	1371537408	66	4800
2026-01-22 09:10:14.34	334.25	8.50	-47.8	-50.1	16.5	0.00e+00	0	41	0	1379926016	66	4884
2026-01-22 09:10:18.37	334.16	8.17	-47.9	-50.3	16.2	0.00e+00	0	41	0	1387266048	66	5018
2026-01-22 09:10:22.40	334.08	7.85	-47.8	-50.1	16.4	0.00e+00	0	41	0	1394606080	66	4911
2026-01-22 09:10:26.43	333.99	7.54	-48.2	-50.7	15.9	0.00e+00	0	41	0	1401946112	67	4929
2026-01-22 09:10:30.46	333.91	7.23	-48.2	-50.7	15.8	0.00e+00	0	41	0	1409286144	67	4968
2026-01-22 09:10:34.50	333.83	6.92	-48.2	-50.7	15.7	0.00e+00	0	41	0	1417674752	67	4954
2026-01-22 09:10:38.52	333.76	6.61	-47.8	-50.1	16.3	0.00e+00	0	41	0	1425014784	67	4651
2026-01-22 09:10:42.56	333.68	6.31	-48.4	-51.2	15.2	0.00e+00	0	41	0	1432354816	67	5240
2026-01-22 09:10:46.59	333.61	6.01	-48.6	-51.6	14.8	0.00e+00	0	41	0	1439694848	67	5491
2026-01-22 09:10:50.62	333.54	5.72	-49.0	-52.1	14.2	7.00e-07	0	41	0	1448083456	68	5528
2026-01-22 09:10:54.65	333.47	5.43	-48.1	-50.7	15.5	0.00e+00	0	41	0	1455423488	68	4673
2026-01-22 09:10:58.68	333.40	5.14	-48.4	-51.3	14.9	0.00e+00	0	41	0	1462763520	68	5012
2026-01-22 09:11:02.72	333.33	4.86	-53.1	-68.1	3.8	1.49e+00	0	41	104	1466957824	76	21885
2026-01-22 09:11:06.75	333.27	4.57	-53.6	-68.6	3.8	1.49e+00	0	41	104	1466957824	77	21763
2026-01-22 09:11:10.78	333.20	4.29	-53.4	-68.4	3.8	1.49e+00	0	41	104	1466957824	77	21456
2026-01-22 09:11:14.82	333.14	4.02	-53.3	-68.3	3.8	1.49e+00	0	41	104	1466957824	77	21245
2026-01-22 09:11:18.86	333.08	3.74	-53.5	-68.4	3.8	1.49e+00	0	41	104	1466957824	77	21426
2026-01-22 09:11:22.89	333.02	3.47	-53.4	-68.4	3.8	1.49e+00	0	41	104	1466957824	77	21449
2026-01-22 09:11:26.92	332.96	3.20	-53.4	-68.4	3.8	1.49e+00	0	41	104	1466957824	77	21388
2026-01-22 09:11:30.95	332.91	2.94	-53.4	-68.4	3.8	1.49e+00	0	41	104	1466957824	77	21341
2026-01-22 09:11:34.98	332.85	2.68	-53.4	-68.4	3.8	1.49e+00	0	41	104	1466957824	77	21346
2026-01-22 09:11:39.02	332.80	2.41	-53.4	-68.4	3.8	1.49e+00	0	41	104	1466957824	77	21364
2026-01-22 09:11:43.05	332.75	2.16	-53.3	-68.3	3.8	1.49e+00	0	41	104	1466957824	77	21191

#Closed at: 2026-01-22 09:11:45
#Recorded file [1466 MB]: D:/lorett/data/31041_260122_115728.dat