passes_logs/2026/01/22/R3.2S_Murmansk/R3.2S_Murmansk__20260122_055940_NOAA_20_JPSS-1_rec.log

#Pass ID: 20260122_055940_NOAA 20 (JPSS-1)
#Satellite: NOAA 20 (JPSS-1)
#Configuration: NOAA 20
#almurnet v.1.7.20251203
#Start time: 2026-01-22 05:59:40

#Version: 2.2.20231116
#Station: R3.2S_Murmansk
#Location: 33.079688 lon 68.888172 lat
#TLE: 1 43013U 17073A   26021.46221703  .00000173  00000+0  10299-3 0  9999
#TLE: 2 43013  98.7644 322.3335 0001238  29.7597 330.3649 14.19538314423652

#Time	Az	El	Level	Level2	SNR	BER	BlckErr	Temp	State	Recorded	gain1	gain2
2026-01-22 05:59:40.48	75.72	1.99	-52.4	-67.4	3.8	1.49e+00	0	39	0	0	76	20078
2026-01-22 05:59:44.53	75.47	2.22	-52.3	-67.4	3.8	1.49e+00	0	39	104	0	75	21262
2026-01-22 05:59:48.56	75.22	2.45	-52.3	-67.4	3.8	1.49e+00	0	39	104	0	75	21265
2026-01-22 05:59:52.59	74.96	2.68	-52.3	-67.3	3.8	1.49e+00	0	39	104	0	75	21226
2026-01-22 05:59:56.62	74.70	2.92	-52.3	-67.3	3.8	1.49e+00	0	39	104	0	75	21172
2026-01-22 06:00:00.65	74.44	3.16	-52.3	-67.3	3.8	1.49e+00	0	39	104	0	75	21155
2026-01-22 06:00:04.69	74.17	3.40	-52.3	-67.3	3.8	1.49e+00	0	40	104	0	75	21072
2026-01-22 06:00:08.72	73.89	3.64	-52.3	-67.3	3.8	1.49e+00	0	40	104	0	75	21104
2026-01-22 06:00:12.76	73.61	3.88	-52.3	-67.1	3.8	1.49e+00	0	40	104	0	75	20640
2026-01-22 06:00:16.79	73.33	4.12	-52.3	-66.5	3.8	1.49e+00	0	40	104	0	75	19334
2026-01-22 06:00:20.83	73.04	4.37	-52.0	-61.8	5.0	9.90e-01	0	40	0	1048576	75	11199
2026-01-22 06:00:24.86	72.75	4.61	-50.5	-55.2	10.9	2.66e-03	0	40	0	8388608	73	5919
2026-01-22 06:00:28.89	72.45	4.86	-49.5	-52.9	13.5	8.30e-06	0	40	0	15728640	69	5690
2026-01-22 06:00:32.93	72.14	5.11	-49.1	-52.2	14.3	3.77e-04	0	40	0	24117248	70	4941
2026-01-22 06:00:36.96	71.83	5.36	-52.2	-64.0	4.2	1.37e-05	51	40	0	31457280	74	15395
2026-01-22 06:00:41.00	71.52	5.61	-48.4	-51.0	15.5	0.00e+00	0	40	0	36700160	68	4826
2026-01-22 06:00:45.03	71.20	5.87	-48.0	-50.3	16.2	0.00e+00	0	40	0	45088768	67	4724
2026-01-22 06:00:49.06	70.87	6.12	-48.0	-50.3	16.2	0.00e+00	0	40	0	52428800	67	4738
2026-01-22 06:00:53.09	70.54	6.38	-48.4	-50.8	15.8	0.00e+00	0	40	0	59768832	67	5017
2026-01-22 06:00:57.12	70.20	6.64	-47.8	-50.0	16.6	0.00e+00	0	40	0	67108864	67	4585
2026-01-22 06:01:01.16	69.85	6.90	-47.8	-50.0	16.7	0.00e+00	0	40	0	74448896	67	4555
2026-01-22 06:01:05.19	69.50	7.16	-48.1	-50.3	16.4	0.00e+00	0	40	0	82837504	67	4756
2026-01-22 06:01:09.22	69.14	7.43	-47.7	-49.7	17.0	0.00e+00	0	40	0	90177536	67	4429
2026-01-22 06:01:13.25	68.78	7.69	-47.9	-50.0	16.8	0.00e+00	0	40	0	97517568	67	4591
2026-01-22 06:01:17.28	68.41	7.96	-47.9	-50.0	16.8	0.00e+00	0	40	0	104857600	67	4573
2026-01-22 06:01:21.32	68.03	8.23	-47.9	-50.1	16.8	0.00e+00	0	40	0	113246208	67	4599
2026-01-22 06:01:25.35	67.64	8.50	-47.8	-49.9	17.0	0.00e+00	0	40	0	120586240	67	4508
2026-01-22 06:01:29.38	67.24	8.77	-47.7	-49.7	17.2	0.00e+00	0	40	0	127926272	67	4402
2026-01-22 06:01:33.41	66.84	9.04	-47.4	-49.3	17.6	0.00e+00	0	40	0	135266304	66	4456
2026-01-22 06:01:37.45	66.43	9.32	-47.5	-49.4	17.5	0.00e+00	0	40	0	142606336	66	4527
2026-01-22 06:01:41.48	66.01	9.59	-47.4	-49.3	17.7	0.00e+00	0	40	0	149946368	66	4445
2026-01-22 06:01:45.51	65.59	9.87	-47.1	-48.9	18.0	0.00e+00	0	40	0	158334976	66	4280
2026-01-22 06:01:49.54	65.15	10.15	-47.1	-48.9	18.1	0.00e+00	0	40	0	165675008	66	4250
2026-01-22 06:01:53.58	64.71	10.43	-47.3	-49.1	17.9	0.00e+00	0	40	0	173015040	66	4365
2026-01-22 06:01:57.61	64.26	10.72	-47.4	-49.2	17.8	0.00e+00	0	40	0	180355072	66	4431
2026-01-22 06:02:01.64	63.80	11.00	-47.5	-49.4	17.6	0.00e+00	0	40	0	188743680	66	4498
2026-01-22 06:02:05.67	63.33	11.29	-47.4	-49.3	17.8	0.00e+00	0	40	0	196083712	66	4451
2026-01-22 06:02:09.71	62.85	11.57	-47.0	-48.8	18.3	0.00e+00	0	40	0	203423744	65	4458
2026-01-22 06:02:13.74	62.36	11.86	-47.0	-48.7	18.4	0.00e+00	0	40	0	210763776	65	4428
2026-01-22 06:02:17.77	61.86	12.15	-46.9	-48.6	18.4	0.00e+00	0	40	0	218103808	65	4382
2026-01-22 06:02:21.80	61.35	12.44	-46.7	-48.4	18.7	0.00e+00	0	40	0	226492416	65	4251
2026-01-22 06:02:25.83	60.83	12.73	-46.7	-48.3	18.8	0.00e+00	0	40	0	233832448	65	4207
2026-01-22 06:02:29.86	60.30	13.03	-46.8	-48.4	18.8	0.00e+00	0	41	0	241172480	65	4262
2026-01-22 06:02:33.89	59.76	13.32	-46.6	-48.2	18.9	0.00e+00	0	40	0	248512512	65	4190
2026-01-22 06:02:37.93	59.20	13.62	-46.5	-48.1	19.0	0.00e+00	0	40	0	256901120	65	4119
2026-01-22 06:02:41.96	58.64	13.91	-46.2	-47.7	19.5	0.00e+00	0	40	0	264241152	64	4158
2026-01-22 06:02:45.99	58.06	14.21	-46.3	-47.7	19.4	0.00e+00	0	41	0	271581184	64	4183
2026-01-22 06:02:50.02	57.48	14.51	-46.4	-47.9	19.4	0.00e+00	0	40	0	278921216	63	4523
2026-01-22 06:02:54.05	56.88	14.80	-46.3	-47.8	19.5	0.00e+00	0	41	0	286261248	63	4446
2026-01-22 06:02:58.09	56.26	15.10	-46.5	-48.1	19.2	0.00e+00	0	40	0	294649856	63	4603
2026-01-22 06:03:02.12	55.64	15.40	-46.4	-47.9	19.3	0.00e+00	0	40	0	301989888	64	4267
2026-01-22 06:03:06.15	55.00	15.70	-46.5	-48.0	19.3	0.00e+00	0	41	0	309329920	64	4298
2026-01-22 06:03:10.19	54.35	16.00	-46.6	-48.1	19.1	0.00e+00	0	40	0	316669952	64	4376
2026-01-22 06:03:14.22	53.69	16.30	-46.6	-48.2	19.1	0.00e+00	0	40	0	324009984	64	4396
2026-01-22 06:03:18.25	53.01	16.59	-46.5	-48.1	19.2	0.00e+00	0	40	0	332398592	64	4342
2026-01-22 06:03:22.28	52.32	16.89	-46.7	-48.3	19.0	0.00e+00	0	40	0	339738624	64	4457
2026-01-22 06:03:26.31	51.61	17.19	-46.8	-48.3	19.0	0.00e+00	0	40	0	347078656	64	4485
2026-01-22 06:03:30.34	50.89	17.48	-46.8	-48.3	19.0	0.00e+00	0	41	0	354418688	64	4482
2026-01-22 06:03:34.37	50.16	17.78	-46.9	-48.6	18.8	0.00e+00	0	41	0	361758720	64	4604
2026-01-22 06:03:38.41	49.41	18.07	-46.8	-48.4	18.9	0.00e+00	0	41	0	370147328	64	4539
2026-01-22 06:03:42.44	48.65	18.36	-46.6	-48.1	19.3	0.00e+00	0	41	0	377487360	64	4347
2026-01-22 06:03:46.47	47.87	18.65	-46.3	-47.8	19.6	0.00e+00	0	41	0	384827392	64	4204
2026-01-22 06:03:50.51	47.08	18.94	-46.0	-47.4	20.1	0.00e+00	0	41	0	392167424	63	4245
2026-01-22 06:03:54.54	46.27	19.22	-45.5	-46.8	20.6	0.00e+00	0	40	0	399507456	62	4226
2026-01-22 06:03:58.57	45.45	19.50	-45.1	-46.3	21.1	0.00e+00	0	41	0	407896064	62	3975
2026-01-22 06:04:02.61	44.61	19.78	-45.0	-46.2	21.2	0.00e+00	0	40	0	415236096	61	4173
2026-01-22 06:04:06.64	43.75	20.06	-44.6	-45.8	21.6	0.00e+00	0	41	0	422576128	61	3975
2026-01-22 06:04:10.67	42.88	20.33	-44.6	-45.7	21.7	0.00e+00	0	41	0	429916160	61	3932
2026-01-22 06:04:14.71	42.00	20.59	-44.5	-45.6	21.7	0.00e+00	0	41	0	438304768	60	4142
2026-01-22 06:04:18.74	41.10	20.85	-44.3	-45.4	22.0	0.00e+00	0	40	0	445644800	60	4010
2026-01-22 06:04:22.77	40.18	21.11	-44.2	-45.2	22.2	0.00e+00	0	41	0	452984832	60	3944
2026-01-22 06:04:26.81	39.25	21.36	-44.1	-45.2	22.2	0.00e+00	0	41	0	460324864	60	3929
2026-01-22 06:04:30.84	38.30	21.61	-44.5	-45.6	21.8	0.00e+00	0	41	0	467664896	60	4130
2026-01-22 06:04:34.87	37.34	21.85	-44.5	-45.6	21.8	0.00e+00	0	40	0	476053504	60	4109
2026-01-22 06:04:38.90	36.37	22.08	-44.6	-45.7	21.7	0.00e+00	0	41	0	483393536	60	4153
2026-01-22 06:04:42.94	35.37	22.31	-44.2	-45.2	22.2	0.00e+00	0	41	0	490733568	60	3952
2026-01-22 06:04:46.97	34.37	22.53	-44.2	-45.2	22.2	0.00e+00	0	41	0	498073600	60	3951
2026-01-22 06:04:51.00	33.35	22.74	-44.2	-45.2	22.2	0.00e+00	0	41	0	506462208	60	3952
2026-01-22 06:04:55.03	32.32	22.94	-44.0	-45.1	22.3	0.00e+00	0	41	0	513802240	60	3870
2026-01-22 06:04:59.06	31.27	23.13	-44.2	-45.2	22.5	0.00e+00	0	40	0	521142272	59	4193
2026-01-22 06:05:03.09	30.21	23.32	-44.4	-45.5	22.2	0.00e+00	0	41	0	528482304	59	4318
2026-01-22 06:05:07.13	29.14	23.49	-44.6	-45.7	22.0	0.00e+00	0	41	0	535822336	59	4439
2026-01-22 06:05:11.16	28.05	23.66	-44.2	-45.2	22.2	0.00e+00	0	41	0	543162368	60	3947
2026-01-22 06:05:15.19	26.96	23.81	-44.8	-45.9	21.6	0.00e+00	0	40	0	551550976	60	4260
2026-01-22 06:05:19.22	25.85	23.96	-45.2	-46.4	21.1	0.00e+00	0	41	0	558891008	60	4514
2026-01-22 06:05:23.25	24.74	24.09	-45.4	-46.6	20.9	0.00e+00	0	40	0	566231040	61	4374
2026-01-22 06:05:27.28	23.62	24.21	-45.8	-47.1	20.5	0.00e+00	0	41	0	573571072	62	4347
2026-01-22 06:05:31.32	22.48	24.33	-45.8	-47.1	20.5	0.00e+00	0	40	0	581959680	62	4380
2026-01-22 06:05:35.35	21.34	24.42	-45.9	-47.3	20.3	0.00e+00	0	41	0	589299712	62	4455
2026-01-22 06:05:39.38	20.19	24.51	-46.4	-47.8	19.8	0.00e+00	0	41	0	596639744	63	4480
2026-01-22 06:05:43.41	19.04	24.59	-46.2	-47.6	20.0	0.00e+00	0	41	0	603979776	63	4364
2026-01-22 06:05:47.44	17.88	24.65	-46.0	-47.3	20.3	0.00e+00	0	40	0	611319808	63	4214
2026-01-22 06:05:51.48	16.72	24.70	-46.3	-47.7	19.9	0.00e+00	0	41	0	619708416	63	4400
2026-01-22 06:05:55.51	15.55	24.73	-46.1	-47.5	20.1	0.00e+00	0	41	0	627048448	63	4304
2026-01-22 06:05:59.54	14.39	24.76	-45.8	-47.1	20.5	0.00e+00	0	41	0	634388480	63	4129
2026-01-22 06:06:03.57	13.22	24.77	-45.9	-47.2	20.4	0.00e+00	0	41	0	641728512	63	4172
2026-01-22 06:06:07.60	12.05	24.77	-45.4	-46.6	21.0	0.00e+00	0	41	0	649068544	62	4106
2026-01-22 06:06:11.63	10.88	24.75	-45.2	-46.4	21.2	0.00e+00	0	41	0	657457152	62	4009
2026-01-22 06:06:15.66	9.72	24.72	-44.9	-46.0	21.5	0.00e+00	0	41	0	664797184	61	4091
2026-01-22 06:06:19.69	8.55	24.68	-44.4	-45.5	22.0	0.00e+00	0	41	0	672137216	60	4075
2026-01-22 06:06:23.72	7.39	24.63	-44.1	-45.2	22.3	0.00e+00	0	41	0	679477248	60	3928
2026-01-22 06:06:27.76	6.23	24.56	-44.2	-45.3	22.4	0.00e+00	0	41	0	686817280	59	4215
2026-01-22 06:06:31.79	5.08	24.48	-44.1	-45.1	22.6	0.00e+00	0	41	0	695205888	59	4111
2026-01-22 06:06:35.82	3.94	24.39	-44.0	-45.0	22.8	0.00e+00	0	41	0	702545920	59	4061
2026-01-22 06:06:39.86	2.80	24.28	-44.1	-45.2	22.6	0.00e+00	0	41	0	709885952	59	4153
2026-01-22 06:06:43.89	1.67	24.17	-44.3	-45.3	22.4	0.00e+00	0	41	0	717225984	59	4219
2026-01-22 06:06:47.92	0.55	24.04	-44.5	-45.6	22.2	0.00e+00	0	41	0	725614592	59	4371
2026-01-22 06:06:51.95	359.44	23.91	-44.3	-45.4	22.0	0.00e+00	0	41	0	732954624	60	4039
2026-01-22 06:06:55.98	358.34	23.76	-44.7	-45.9	21.6	0.00e+00	0	41	0	740294656	60	4249
2026-01-22 06:07:00.02	357.25	23.60	-45.0	-46.2	21.3	0.00e+00	0	40	0	747634688	60	4415
2026-01-22 06:07:04.05	356.17	23.43	-45.0	-46.2	21.3	0.00e+00	0	41	0	754974720	60	4405
2026-01-22 06:07:08.09	355.10	23.25	-45.6	-46.9	20.7	0.00e+00	0	41	0	763363328	61	4501
2026-01-22 06:07:12.11	354.05	23.06	-45.5	-46.8	20.8	0.00e+00	0	41	0	770703360	61	4458
2026-01-22 06:07:16.14	353.01	22.86	-45.7	-46.9	20.6	0.00e+00	0	41	0	778043392	62	4287
2026-01-22 06:07:20.18	351.98	22.66	-46.0	-47.4	20.2	0.00e+00	0	41	0	785383424	62	4504
2026-01-22 06:07:24.21	350.97	22.44	-45.9	-47.2	20.4	0.00e+00	0	41	0	792723456	62	4412
2026-01-22 06:07:28.24	349.97	22.22	-46.1	-47.4	20.1	0.00e+00	0	41	0	801112064	62	4520
2026-01-22 06:07:32.27	348.99	22.00	-46.0	-47.3	20.3	0.00e+00	0	41	0	808452096	63	4212
2026-01-22 06:07:36.30	348.02	21.76	-45.8	-47.1	20.5	0.00e+00	0	41	0	815792128	63	4126
2026-01-22 06:07:40.33	347.06	21.52	-45.9	-47.2	20.3	0.00e+00	0	41	0	823132160	63	4189
2026-01-22 06:07:44.36	346.12	21.27	-45.6	-46.8	20.8	0.00e+00	0	40	0	830472192	62	4222
2026-01-22 06:07:48.40	345.20	21.02	-45.3	-46.5	21.0	0.00e+00	0	41	0	838860800	62	4097
2026-01-22 06:07:52.43	344.29	20.76	-45.2	-46.4	21.2	0.00e+00	0	40	0	846200832	62	4006
2026-01-22 06:07:56.46	343.40	20.50	-45.3	-46.5	21.0	0.00e+00	0	41	0	853540864	62	4096
2026-01-22 06:08:00.49	342.52	20.23	-45.1	-46.3	21.2	0.00e+00	0	41	0	860880896	62	3991
2026-01-22 06:08:04.53	341.65	19.96	-45.1	-46.3	21.1	0.00e+00	0	41	0	869269504	62	3998
2026-01-22 06:08:08.56	340.81	19.68	-45.1	-46.3	21.1	0.00e+00	0	41	0	876609536	62	3998
2026-01-22 06:08:12.59	339.98	19.40	-45.3	-46.6	20.9	0.00e+00	0	40	0	883949568	62	4099
2026-01-22 06:08:16.62	339.16	19.12	-45.3	-46.5	20.9	0.00e+00	0	41	0	891289600	62	4089
2026-01-22 06:08:20.65	338.36	18.83	-45.0	-46.2	21.2	0.00e+00	0	41	0	898629632	61	4177
2026-01-22 06:08:24.69	337.57	18.55	-45.1	-46.3	21.2	0.00e+00	0	40	0	907018240	61	4197
2026-01-22 06:08:28.72	336.80	18.26	-44.9	-46.0	21.4	0.00e+00	0	41	0	914358272	61	4087
2026-01-22 06:08:32.75	336.05	17.97	-44.6	-45.8	21.6	0.00e+00	0	41	0	921698304	61	3974
2026-01-22 06:08:36.78	335.30	17.67	-44.3	-45.4	21.9	0.00e+00	0	41	0	929038336	60	4031
2026-01-22 06:08:40.81	334.58	17.38	-44.5	-45.7	21.7	0.00e+00	0	41	0	936378368	60	4147
2026-01-22 06:08:44.85	333.86	17.08	-44.4	-45.5	21.8	0.00e+00	0	41	0	944766976	60	4076
2026-01-22 06:08:48.88	333.16	16.79	-44.5	-45.6	21.8	0.00e+00	0	41	0	952107008	60	4108
2026-01-22 06:08:52.91	332.48	16.49	-44.3	-45.4	21.9	0.00e+00	0	41	0	959447040	60	4029
2026-01-22 06:08:56.94	331.81	16.19	-44.4	-45.5	21.8	0.00e+00	0	41	0	966787072	60	4091
2026-01-22 06:09:00.97	331.15	15.89	-44.4	-45.5	21.8	0.00e+00	0	41	0	974127104	60	4064
2026-01-22 06:09:05.00	330.51	15.60	-44.5	-45.6	21.7	0.00e+00	0	41	0	982515712	60	4119
2026-01-22 06:09:09.04	329.87	15.30	-44.6	-45.7	21.6	0.00e+00	0	41	0	989855744	60	4193
2026-01-22 06:09:13.07	329.26	15.00	-44.9	-46.1	21.2	0.00e+00	0	41	0	997195776	60	4386
2026-01-22 06:09:17.10	328.65	14.70	-45.2	-46.4	20.9	0.00e+00	0	41	0	1004535808	60	4535
2026-01-22 06:09:21.13	328.06	14.41	-45.3	-46.6	20.7	0.00e+00	0	41	0	1011875840	61	4365
2026-01-22 06:09:25.17	327.47	14.11	-45.3	-46.6	20.7	0.00e+00	0	41	0	1020264448	61	4361
2026-01-22 06:09:29.20	326.90	13.81	-45.3	-46.5	20.7	0.00e+00	0	41	0	1027604480	61	4321
2026-01-22 06:09:33.23	326.34	13.52	-45.6	-47.0	20.3	0.00e+00	0	41	0	1034944512	61	4560
2026-01-22 06:09:37.26	325.80	13.22	-45.7	-47.0	20.2	0.00e+00	0	41	0	1042284544	62	4337
2026-01-22 06:09:41.30	325.26	12.93	-45.8	-47.2	20.1	0.00e+00	0	40	0	1050673152	62	4425
2026-01-22 06:09:45.33	324.73	12.64	-45.9	-47.2	20.0	0.00e+00	0	40	0	1058013184	62	4439
2026-01-22 06:09:49.36	324.22	12.35	-46.1	-47.5	19.8	0.00e+00	0	41	0	1065353216	62	4566
2026-01-22 06:09:53.39	323.71	12.06	-46.1	-47.5	19.7	0.00e+00	0	41	0	1072693248	62	4597
2026-01-22 06:09:57.42	323.22	11.77	-46.2	-47.7	19.6	0.00e+00	0	41	0	1080033280	63	4401
2026-01-22 06:10:01.46	322.73	11.48	-46.3	-47.8	19.5	0.00e+00	0	41	0	1088421888	63	4452
2026-01-22 06:10:05.49	322.26	11.19	-46.2	-47.6	19.6	0.00e+00	0	41	0	1095761920	63	4373
2026-01-22 06:10:09.53	321.79	10.91	-46.3	-47.8	19.4	0.00e+00	0	41	0	1103101952	63	4464
2026-01-22 06:10:13.56	321.34	10.62	-46.6	-48.2	19.0	0.00e+00	0	41	0	1110441984	63	4657
2026-01-22 06:10:17.59	320.89	10.34	-46.7	-48.4	18.7	0.00e+00	0	41	0	1118830592	64	4519
2026-01-22 06:10:21.63	320.45	10.06	-46.8	-48.4	18.6	0.00e+00	0	41	0	1126170624	64	4542
2026-01-22 06:10:25.66	320.02	9.78	-47.0	-48.8	18.3	0.00e+00	0	41	0	1133510656	64	4715
2026-01-22 06:10:29.69	319.60	9.51	-47.3	-49.1	17.9	0.00e+00	0	41	0	1140850688	65	4624
2026-01-22 06:10:33.72	319.18	9.23	-47.5	-49.4	17.6	0.00e+00	0	41	0	1148190720	65	4800
2026-01-22 06:10:37.76	318.78	8.96	-47.1	-48.8	18.2	0.00e+00	0	41	0	1155530752	65	4490
2026-01-22 06:10:41.79	318.38	8.68	-47.0	-48.7	18.2	0.00e+00	0	41	0	1163919360	65	4427
2026-01-22 06:10:45.82	317.99	8.41	-47.2	-49.0	18.0	0.00e+00	0	41	0	1171259392	65	4562
2026-01-22 06:10:49.85	317.61	8.14	-47.5	-49.3	17.6	0.00e+00	0	41	0	1178599424	65	4758
2026-01-22 06:10:53.89	317.23	7.88	-47.2	-49.1	17.9	0.00e+00	0	41	0	1185939456	65	4603
2026-01-22 06:10:57.91	316.86	7.61	-47.3	-49.1	17.7	0.00e+00	0	41	0	1194328064	65	4649
2026-01-22 06:11:01.95	316.50	7.35	-47.7	-49.7	17.2	0.00e+00	0	41	0	1201668096	65	4935
2026-01-22 06:11:05.98	316.14	7.08	-48.0	-50.2	16.5	0.00e+00	0	41	0	1209008128	66	4963
2026-01-22 06:11:10.01	315.80	6.82	-48.0	-50.3	16.5	0.00e+00	0	41	0	1216348160	66	4990
2026-01-22 06:11:14.05	315.45	6.56	-48.2	-50.5	16.3	0.00e+00	0	41	0	1223688192	67	4832
2026-01-22 06:11:18.08	315.12	6.30	-48.1	-50.4	16.4	0.00e+00	0	41	0	1232076800	67	4769
2026-01-22 06:11:22.10	314.79	6.05	-48.2	-50.5	16.2	0.00e+00	0	41	0	1239416832	67	4834
2026-01-22 06:11:26.14	314.46	5.79	-48.1	-50.4	16.3	0.00e+00	0	41	0	1246756864	67	4779
2026-01-22 06:11:30.17	314.15	5.54	-48.1	-50.4	16.2	0.00e+00	0	41	0	1254096896	67	4772
2026-01-22 06:11:34.20	313.83	5.29	-48.9	-51.6	15.1	0.00e+00	0	41	0	1261436928	68	5180
2026-01-22 06:11:38.23	313.53	5.04	-48.1	-50.4	16.2	0.00e+00	0	41	0	1269825536	67	4787
2026-01-22 06:11:42.27	313.23	4.79	-53.0	-68.0	3.8	1.49e+00	0	41	104	1270874112	76	21717
2026-01-22 06:11:46.30	312.93	4.54	-53.2	-68.2	3.8	1.49e+00	0	41	104	1270874112	76	22086
2026-01-22 06:11:50.33	312.64	4.30	-53.4	-68.4	3.8	1.49e+00	0	41	104	1270874112	77	21372
2026-01-22 06:11:54.36	312.35	4.05	-53.6	-68.6	3.8	1.49e+00	0	41	104	1270874112	77	21831
2026-01-22 06:11:58.39	312.07	3.81	-53.6	-68.6	3.8	1.49e+00	0	41	104	1270874112	77	21953
2026-01-22 06:12:02.43	311.80	3.57	-53.6	-68.6	3.8	1.49e+00	0	41	104	1270874112	77	21852
2026-01-22 06:12:06.46	311.53	3.33	-53.6	-68.6	3.8	1.49e+00	0	41	104	1270874112	77	21805
2026-01-22 06:12:10.50	311.26	3.09	-53.6	-68.6	3.8	1.49e+00	0	41	104	1270874112	77	21868
2026-01-22 06:12:14.53	311.00	2.86	-53.6	-68.6	3.8	1.49e+00	0	41	104	1270874112	77	21865
2026-01-22 06:12:18.57	310.74	2.62	-53.6	-68.5	3.8	1.49e+00	0	41	104	1270874112	77	21740
2026-01-22 06:12:22.61	310.48	2.39	-53.5	-68.5	3.8	1.49e+00	0	41	104	1270874112	77	21754
2026-01-22 06:12:26.64	310.24	2.15	-53.5	-68.6	3.8	1.49e+00	0	41	104	1270874112	77	21791
2026-01-22 06:12:30.68	309.99	1.92	-53.5	-68.5	3.8	1.49e+00	0	41	104	1270874112	77	21739

#Closed at: 2026-01-22 06:12:30
#Recorded file [1270 MB]: D:/lorett/data/31041_260122_085940.dat