passes_logs/2026/01/22/R3.2S_Murmansk/R3.2S_Murmansk__20260122_101336_TY-42_rec.log

#Pass ID: 20260122_101336_TY-42
#Satellite: TY-42
#Configuration: TY-42_900M
#almurnet v.1.7.20251203
#Start time: 2026-01-22 10:13:36

#Version: 2.2.20231116
#Station: R3.2S_Murmansk
#Location: 33.079688 lon 68.888172 lat
#TLE: 1 64048U 25103A   26021.88848380  .00008008  00000-0  38191-3 0 09992
#TLE: 2 64048 097.4124 097.1764 0001786 094.9639 294.5154 15.19162210 37869

#Time	Az	El	Level	Level2	SNR	BER	BlckErr	Temp	State	Recorded	gain1	gain2
2026-01-22 10:13:36.65	21.61	1.99	-54.6	-56.7	6.2	0.00e+00	0	47	0	0	80	18707
2026-01-22 10:13:39.68	21.51	2.19	-54.7	-56.9	6.2	0.00e+00	0	47	104	0	81	18029
2026-01-22 10:13:42.70	21.42	2.40	-54.7	-56.8	6.2	0.00e+00	0	48	104	0	81	17848
2026-01-22 10:13:45.73	21.31	2.61	-54.6	-56.7	6.2	0.00e+00	0	48	104	0	81	17659
2026-01-22 10:13:48.75	21.21	2.83	-54.5	-56.6	6.2	0.00e+00	0	48	104	0	81	17539
2026-01-22 10:13:51.78	21.11	3.04	-54.3	-56.4	6.2	0.00e+00	0	48	104	0	80	18070
2026-01-22 10:13:54.81	21.00	3.26	-54.0	-56.1	6.2	0.00e+00	0	48	104	0	79	18531
2026-01-22 10:13:57.83	20.89	3.48	-53.1	-55.2	6.2	0.00e+00	0	48	104	0	78	17583
2026-01-22 10:14:00.86	20.78	3.70	-52.7	-54.8	6.2	0.00e+00	0	49	104	0	77	17957
2026-01-22 10:14:03.88	20.66	3.93	-52.7	-54.9	6.2	0.00e+00	0	49	104	0	77	17986
2026-01-22 10:14:06.91	20.54	4.16	-52.7	-54.8	6.2	0.00e+00	0	49	104	0	77	17941
2026-01-22 10:14:09.94	20.42	4.39	-52.7	-54.9	6.2	0.00e+00	0	49	104	0	77	17986
2026-01-22 10:14:12.96	20.30	4.62	-52.7	-54.8	6.2	0.00e+00	0	49	104	0	77	17880
2026-01-22 10:14:15.99	20.18	4.85	-52.7	-54.8	6.2	0.00e+00	0	49	104	0	77	17944
2026-01-22 10:14:19.01	20.05	5.09	-53.1	-55.2	6.2	0.00e+00	0	49	104	0	77	18783
2026-01-22 10:14:22.04	19.92	5.33	-52.8	-54.9	6.2	0.00e+00	0	49	104	0	76	19246
2026-01-22 10:14:25.06	19.78	5.57	-52.3	-54.2	6.2	0.00e+00	0	49	104	0	75	18810
2026-01-22 10:14:28.08	19.65	5.82	-42.0	-42.0	10.8	0.00e+00	11034	52	104	58720256	55	14471
2026-01-22 10:14:31.11	19.51	6.06	-40.0	-40.0	12.7	1.19e-01	0	52	0	385875968	51	14507
2026-01-22 10:14:34.13	19.36	6.32	-39.8	-39.7	12.9	9.66e-02	0	52	0	721420288	50	14914
2026-01-22 10:14:37.15	19.22	6.57	-38.7	-38.6	13.5	5.59e-02	0	52	0	1073741824	49	13938
2026-01-22 10:14:40.18	19.07	6.83	-38.1	-38.0	14.0	3.64e-02	0	52	0	1409286144	48	13774
2026-01-22 10:14:43.20	18.91	7.09	-36.8	-36.7	13.8	3.12e-02	0	52	0	1744830464	45	14049
2026-01-22 10:14:46.23	18.76	7.35	-36.7	-36.6	13.8	3.37e-02	0	52	0	2080374784	44	14728
2026-01-22 10:14:49.25	18.59	7.62	-36.2	-36.1	14.1	3.04e-02	0	52	0	2432696320	44	13925
2026-01-22 10:14:52.27	18.43	7.89	-36.1	-36.0	14.2	2.49e-02	0	53	0	2768240640	43	14547
2026-01-22 10:14:55.29	18.26	8.17	-36.1	-36.1	14.2	2.27e-02	0	53	0	3103784960	43	14653
2026-01-22 10:14:58.32	18.08	8.45	-36.0	-35.9	14.3	2.07e-02	0	53	0	3447717888	43	14417
2026-01-22 10:15:01.34	17.91	8.73	-35.7	-35.7	14.4	1.75e-02	0	53	0	3783262208	43	13951
2026-01-22 10:15:04.37	17.72	9.01	-35.6	-35.6	14.5	1.66e-02	0	53	0	4135583744	43	13810
2026-01-22 10:15:07.39	17.53	9.31	-35.3	-35.3	14.6	1.43e-02	0	53	0	4471128064	42	14164
2026-01-22 10:15:10.42	17.34	9.60	-35.5	-35.4	14.6	1.35e-02	0	53	0	4806672384	42	14400
2026-01-22 10:15:13.45	17.14	9.90	-35.1	-35.1	14.8	1.20e-02	0	53	0	5158993920	42	13813
2026-01-22 10:15:16.47	16.94	10.21	-35.2	-35.1	14.8	1.06e-02	0	53	0	5494538240	42	13834
2026-01-22 10:15:19.50	16.73	10.51	-34.9	-34.8	14.9	1.01e-02	0	53	0	5830082560	41	14247
2026-01-22 10:15:22.53	16.51	10.83	-34.9	-34.8	14.9	8.54e-03	0	53	0	6165626880	41	14161
2026-01-22 10:15:25.55	16.29	11.15	-34.9	-34.8	14.9	8.52e-03	0	53	0	6517948416	41	14227
2026-01-22 10:15:28.57	16.07	11.47	-34.4	-34.4	15.1	7.28e-03	0	54	0	6853492736	40	14291
2026-01-22 10:15:31.60	15.83	11.80	-34.2	-34.2	15.2	5.54e-03	0	54	0	7189037056	40	13967
2026-01-22 10:15:34.62	15.59	12.13	-34.2	-34.1	15.2	4.76e-03	0	54	0	7532969984	40	13923
2026-01-22 10:15:37.65	15.34	12.48	-34.1	-34.0	15.3	4.32e-03	0	54	0	7876902912	39	14536
2026-01-22 10:15:40.68	15.09	12.82	-33.8	-33.7	15.4	3.73e-03	0	54	0	8212447232	39	14019
2026-01-22 10:15:43.70	14.83	13.17	-33.7	-33.6	15.5	3.50e-03	0	54	0	8556380160	39	13842
2026-01-22 10:15:46.73	14.55	13.53	-33.5	-33.4	15.5	2.42e-03	0	54	0	8891924480	38	14363
2026-01-22 10:15:49.76	14.28	13.90	-33.2	-33.1	15.7	2.13e-03	0	54	0	9235857408	38	13870
2026-01-22 10:15:52.78	13.99	14.27	-32.9	-32.8	15.8	1.83e-03	0	54	0	9579790336	37	14235
2026-01-22 10:15:55.81	13.69	14.65	-32.6	-32.5	15.9	1.24e-03	0	54	0	9915334656	37	13779
2026-01-22 10:15:58.84	13.38	15.03	-32.6	-32.5	15.9	1.08e-03	0	54	0	10250878976	37	13710
2026-01-22 10:16:01.86	13.07	15.43	-32.1	-32.1	16.0	7.20e-04	0	54	0	10603200512	36	13791
2026-01-22 10:16:04.89	12.74	15.83	-29.5	-29.4	15.5	1.34e-03	0	54	0	10938744832	30	14388
2026-01-22 10:16:07.92	12.40	16.23	-29.0	-29.0	15.6	1.80e-03	0	54	0	11274289152	30	13679
2026-01-22 10:16:10.94	12.05	16.65	-28.6	-28.6	15.7	1.40e-03	0	54	0	11609833472	29	13825
2026-01-22 10:16:13.97	11.69	17.07	-28.6	-28.5	15.9	1.14e-03	0	54	0	11962155008	29	13756
2026-01-22 10:16:16.99	11.32	17.51	-28.9	-28.8	15.9	8.73e-04	0	54	0	12297699328	29	14224
2026-01-22 10:16:20.02	10.93	17.95	-28.7	-28.7	16.0	7.68e-04	0	54	0	12633243648	29	13972
2026-01-22 10:16:23.04	10.53	18.40	-28.7	-28.6	16.0	5.53e-04	0	54	0	12977176576	29	13836
2026-01-22 10:16:26.07	10.12	18.86	-28.5	-28.5	16.0	5.86e-04	0	54	0	13321109504	29	13644
2026-01-22 10:16:29.09	9.69	19.33	-28.0	-27.9	16.1	4.62e-04	0	54	0	13656653824	28	13588
2026-01-22 10:16:32.12	9.24	19.80	-27.9	-27.8	16.1	3.10e-04	0	54	0	14000586752	27	14220
2026-01-22 10:16:35.15	8.78	20.29	-27.7	-27.6	16.2	1.52e-04	0	54	0	14344519680	27	13880
2026-01-22 10:16:38.17	8.30	20.79	-27.3	-27.2	16.3	1.48e-04	0	55	0	14688452608	26	14027
2026-01-22 10:16:41.19	7.80	21.30	-27.0	-27.0	16.4	8.10e-05	0	54	0	15023996928	26	13661
2026-01-22 10:16:44.22	7.28	21.82	-26.8	-26.7	16.4	1.24e-04	0	54	0	15359541248	25	14064
2026-01-22 10:16:47.24	6.74	22.35	-26.7	-26.6	16.4	5.24e-05	0	55	0	15695085568	25	13921
2026-01-22 10:16:50.27	6.18	22.90	-26.5	-26.4	16.5	3.33e-05	0	54	0	16047407104	25	13574
2026-01-22 10:16:53.29	5.60	23.45	-26.3	-26.2	16.6	2.86e-05	0	55	0	16382951424	24	14061
2026-01-22 10:16:56.32	4.99	24.02	-26.0	-25.9	16.6	3.81e-05	0	55	0	16718495744	24	13601
2026-01-22 10:16:59.35	4.36	24.60	-25.7	-25.6	16.7	0.00e+00	0	54	0	17070817280	23	13931
2026-01-22 10:17:02.37	3.70	25.19	-25.5	-25.4	16.7	9.50e-06	0	54	0	17406361600	23	13624
2026-01-22 10:17:05.39	3.01	25.79	-25.3	-25.2	16.8	2.38e-05	0	54	0	17741905920	22	13951
2026-01-22 10:17:08.41	2.29	26.40	-25.1	-25.0	16.9	0.00e+00	0	54	0	18085838848	22	13658
2026-01-22 10:17:11.44	1.54	27.03	-25.0	-24.8	16.9	0.00e+00	0	54	0	18421383168	21	14259
2026-01-22 10:17:14.46	0.75	27.67	-24.7	-24.6	17.0	0.00e+00	0	54	0	18765316096	21	13894
2026-01-22 10:17:17.48	359.93	28.32	-24.5	-24.4	17.0	0.00e+00	0	54	0	19109249024	21	13499
2026-01-22 10:17:20.51	359.07	28.99	-24.3	-24.2	17.1	0.00e+00	0	54	0	19444793344	20	13999
2026-01-22 10:17:23.53	358.17	29.66	-24.0	-23.9	17.1	0.00e+00	0	54	0	19780337664	20	13502
2026-01-22 10:17:26.56	357.23	30.35	-24.1	-24.0	17.1	0.00e+00	0	55	0	20132659200	19	14444
2026-01-22 10:17:29.58	356.24	31.05	-23.6	-23.5	17.2	0.00e+00	0	54	0	20468203520	19	13700
2026-01-22 10:17:32.60	355.21	31.76	-23.4	-23.3	17.2	0.00e+00	0	54	0	20803747840	18	14160
2026-01-22 10:17:35.63	354.12	32.48	-23.3	-23.2	17.2	0.00e+00	0	55	0	21139292160	18	14061
2026-01-22 10:17:38.66	352.98	33.21	-23.0	-22.9	17.3	0.00e+00	0	54	0	21491613696	18	13537
2026-01-22 10:17:41.68	351.78	33.94	-22.9	-22.8	17.2	0.00e+00	0	54	0	21827158016	17	14132
2026-01-22 10:17:44.71	350.52	34.69	-22.7	-22.5	17.2	0.00e+00	0	54	0	22162702336	17	13781
2026-01-22 10:17:47.73	349.21	35.43	-22.3	-22.2	17.3	0.00e+00	0	54	0	22506635264	16	14056
2026-01-22 10:17:50.76	347.82	36.19	-22.1	-22.0	17.3	0.00e+00	0	54	0	22850568192	16	13744
2026-01-22 10:17:53.78	346.36	36.94	-22.0	-21.9	17.3	0.00e+00	0	54	0	23186112512	16	13575
2026-01-22 10:17:56.81	344.83	37.69	-21.7	-21.6	17.3	0.00e+00	0	54	0	23530045440	15	13897
2026-01-22 10:17:59.83	343.23	38.43	-21.6	-21.5	17.3	0.00e+00	0	54	0	23865589760	15	13659
2026-01-22 10:18:02.84	341.55	39.17	-21.4	-21.3	17.3	0.00e+00	0	54	0	24201134080	14	14112
2026-01-22 10:18:05.86	339.79	39.90	-21.0	-20.9	17.4	0.00e+00	0	54	0	24553455616	14	13485
2026-01-22 10:18:08.88	337.94	40.61	-20.9	-20.8	17.3	0.00e+00	0	54	0	24888999936	13	14190
2026-01-22 10:18:11.91	336.00	41.31	-20.8	-20.6	17.3	0.00e+00	0	54	0	25224544256	13	13922
2026-01-22 10:18:14.93	333.97	41.98	-20.7	-20.6	17.3	0.00e+00	0	54	0	25560088576	13	13845
2026-01-22 10:18:17.95	331.86	42.62	-20.6	-20.5	17.3	0.00e+00	0	54	0	25912410112	13	13642
2026-01-22 10:18:20.98	329.66	43.24	-20.4	-20.2	17.3	0.00e+00	0	54	0	26247954432	12	14111
2026-01-22 10:18:24.00	327.37	43.81	-20.3	-20.2	17.3	0.00e+00	0	54	0	26583498752	12	13972
2026-01-22 10:18:27.02	325.00	44.35	-20.2	-20.1	17.3	0.00e+00	0	55	0	26927431680	12	13827
2026-01-22 10:18:30.05	322.54	44.83	-20.2	-20.1	17.3	0.00e+00	0	55	0	27271364608	12	13834
2026-01-22 10:18:33.07	320.01	45.27	-19.5	-20.0	17.3	0.00e+00	0	54	0	27606908928	11	14515
2026-01-22 10:18:36.09	317.42	45.64	-20.3	-20.1	17.2	0.00e+00	0	54	0	27950841856	11	14719
2026-01-22 10:18:39.12	314.75	45.96	-20.1	-19.9	17.3	0.00e+00	0	54	0	28286386176	11	14418
2026-01-22 10:18:42.14	312.05	46.21	-20.0	-19.9	17.3	0.00e+00	0	54	0	28621930496	11	14329
2026-01-22 10:18:45.17	309.30	46.39	-20.1	-19.9	17.3	0.00e+00	0	54	0	28974252032	11	14389
2026-01-22 10:18:48.19	306.52	46.50	-20.0	-19.9	17.4	0.00e+00	0	54	0	29309796352	11	14293
2026-01-22 10:18:51.22	303.73	46.54	-19.9	-19.7	17.5	0.00e+00	0	54	0	29645340672	11	14110
2026-01-22 10:18:54.24	300.95	46.51	-19.9	-19.7	17.5	0.00e+00	0	54	0	29980884992	11	14066
2026-01-22 10:18:57.26	298.17	46.40	-19.8	-19.7	17.5	0.00e+00	0	54	0	30333206528	11	14063
2026-01-22 10:19:00.29	295.42	46.23	-20.0	-19.9	17.5	0.00e+00	0	54	0	30668750848	11	14350
2026-01-22 10:19:03.31	292.70	45.98	-20.0	-19.9	17.6	0.00e+00	0	54	0	31004295168	11	14327
2026-01-22 10:19:06.34	290.03	45.67	-20.2	-20.0	17.5	0.00e+00	0	54	0	31348228096	11	14578
2026-01-22 10:19:09.36	287.43	45.30	-20.2	-20.0	17.4	0.00e+00	0	54	0	31692161024	11	14578
2026-01-22 10:19:12.38	284.90	44.87	-20.3	-20.1	17.4	0.00e+00	0	54	0	32036093952	11	14746
2026-01-22 10:19:15.41	282.43	44.39	-20.4	-20.3	17.3	0.00e+00	0	54	0	32371638272	11	15071
2026-01-22 10:19:18.43	280.04	43.86	-20.5	-20.4	17.3	0.00e+00	0	54	0	32707182592	11	15142
2026-01-22 10:19:21.45	277.75	43.28	-20.5	-20.4	17.3	0.00e+00	0	54	0	33059504128	11	15190
2026-01-22 10:19:24.48	275.53	42.67	-20.6	-20.4	17.4	0.00e+00	0	54	0	33395048448	11	15276
2026-01-22 10:19:27.50	273.41	42.03	-20.6	-20.5	17.4	0.00e+00	0	54	0	33730592768	12	14536
2026-01-22 10:19:30.52	271.37	41.36	-20.8	-20.7	17.4	0.00e+00	0	54	0	34066137088	12	14892
2026-01-22 10:19:33.55	269.42	40.66	-21.0	-20.8	17.5	0.00e+00	0	54	0	34418458624	12	15109
2026-01-22 10:19:36.57	267.56	39.94	-21.0	-20.9	17.5	0.00e+00	0	54	0	34754002944	12	15188
2026-01-22 10:19:39.59	265.78	39.22	-21.3	-21.1	17.5	0.00e+00	0	54	0	35089547264	13	14765
2026-01-22 10:19:42.62	264.09	38.47	-21.5	-21.3	17.6	0.00e+00	0	54	0	35433480192	13	15112
2026-01-22 10:19:45.64	262.47	37.73	-21.6	-21.5	17.6	0.00e+00	0	54	0	35769024512	14	14531
2026-01-22 10:19:48.66	260.94	36.98	-21.9	-21.8	17.6	0.00e+00	0	55	0	36112957440	14	15013
2026-01-22 10:19:51.69	259.47	36.22	-22.1	-22.0	17.5	0.00e+00	0	55	0	36456890368	14	15369
2026-01-22 10:19:54.71	258.08	35.47	-22.1	-22.0	17.6	0.00e+00	0	54	0	36792434688	14	15383
2026-01-22 10:19:57.74	256.75	34.72	-22.5	-22.4	17.5	0.00e+00	0	54	0	37127979008	15	15124
2026-01-22 10:20:00.76	255.48	33.97	-22.7	-22.5	17.5	0.00e+00	0	54	0	37480300544	15	15431
2026-01-22 10:20:03.78	254.28	33.23	-22.9	-22.7	17.5	0.00e+00	0	54	0	37815844864	16	14940
2026-01-22 10:20:06.81	253.13	32.50	-23.3	-23.1	17.5	0.00e+00	0	54	0	38151389184	17	14740
2026-01-22 10:20:09.84	252.04	31.78	-23.4	-23.3	17.5	0.00e+00	0	54	0	38486933504	18	14216
2026-01-22 10:20:12.86	250.99	31.06	-23.6	-23.5	17.4	0.00e+00	0	55	0	38839255040	18	14469
2026-01-22 10:20:15.88	250.00	30.36	-23.9	-23.8	17.3	0.00e+00	0	54	0	39174799360	18	14964
2026-01-22 10:20:18.91	249.05	29.67	-24.1	-24.0	17.2	0.00e+00	0	54	0	39510343680	18	15335
2026-01-22 10:20:21.93	248.15	28.99	-24.3	-24.2	17.2	0.00e+00	0	54	0	39854276608	19	14847
2026-01-22 10:20:24.96	247.28	28.32	-24.6	-24.5	17.1	4.70e-06	0	54	0	40198209536	19	15301
2026-01-22 10:20:27.98	246.46	27.67	-24.8	-24.7	17.0	0.00e+00	0	55	0	40533753856	20	14864
2026-01-22 10:20:31.00	245.67	27.02	-25.1	-24.9	17.0	0.00e+00	0	54	0	40877686784	20	15294
2026-01-22 10:20:34.03	244.91	26.39	-25.3	-25.2	16.9	0.00e+00	0	54	0	41213231104	21	14802
2026-01-22 10:20:37.05	244.19	25.78	-25.4	-25.2	16.9	1.43e-05	0	55	0	41557164032	21	14934
2026-01-22 10:20:40.08	243.49	25.17	-25.5	-25.4	16.9	0.00e+00	0	54	0	41901096960	21	15184
2026-01-22 10:20:43.10	242.83	24.58	-25.8	-25.7	16.8	9.50e-06	0	54	0	42236641280	22	14885
2026-01-22 10:20:46.12	242.19	24.00	-26.1	-26.0	16.7	4.70e-06	0	55	0	42572185600	22	15310
2026-01-22 10:20:49.15	241.58	23.43	-26.1	-26.0	16.7	1.90e-05	0	54	0	42924507136	22	15328
2026-01-22 10:20:52.17	240.99	22.87	-26.3	-26.2	16.7	4.70e-06	0	54	0	43260051456	23	14789
2026-01-22 10:20:55.20	240.43	22.32	-26.4	-26.3	16.6	9.50e-06	0	55	0	43595595776	23	14982
2026-01-22 10:20:58.22	239.89	21.79	-26.6	-26.5	16.6	2.38e-05	0	55	0	43931140096	23	15402
2026-01-22 10:21:01.25	239.36	21.27	-26.8	-26.7	16.6	4.29e-05	0	54	0	44283461632	24	14802
2026-01-22 10:21:04.27	238.86	20.76	-26.9	-26.8	16.5	4.29e-05	0	55	0	44619005952	24	14968
2026-01-22 10:21:07.30	238.38	20.25	-27.1	-26.9	16.5	4.76e-05	0	55	0	44954550272	24	15295
2026-01-22 10:21:10.33	237.91	19.76	-27.4	-27.3	16.5	5.24e-05	0	54	0	45298483200	25	14954
2026-01-22 10:21:13.35	237.47	19.28	-27.8	-27.7	16.3	9.05e-05	0	54	0	45642416128	26	14841
2026-01-22 10:21:16.38	237.03	18.81	-28.1	-28.0	16.3	1.48e-04	0	55	0	45977960448	26	15305
2026-01-22 10:21:19.40	236.62	18.35	-28.4	-28.2	16.2	2.38e-04	0	55	0	46321893376	27	14934
2026-01-22 10:21:22.42	236.21	17.90	-28.6	-28.5	16.0	3.53e-04	0	55	0	46657437696	27	15366
2026-01-22 10:21:25.45	235.82	17.45	-28.8	-28.7	15.9	4.67e-04	0	55	0	47001370624	28	14893
2026-01-22 10:21:28.47	235.45	17.02	-29.2	-29.1	15.8	6.25e-04	0	55	0	47345303552	28	15523
2026-01-22 10:21:31.50	235.08	16.59	-29.6	-29.4	15.7	1.04e-03	0	55	0	47680847872	29	15278
2026-01-22 10:21:34.53	234.73	16.18	-29.8	-29.7	15.6	1.39e-03	0	55	0	48016392192	30	14869
2026-01-22 10:21:37.55	234.39	15.77	-29.8	-29.7	15.7	1.52e-03	0	55	0	48368713728	30	14866
2026-01-22 10:21:40.58	234.06	15.36	-29.9	-29.8	15.6	1.64e-03	0	55	0	48704258048	30	15016
2026-01-22 10:21:43.61	233.75	14.97	-30.2	-30.1	15.5	2.12e-03	0	55	0	49039802368	30	15606
2026-01-22 10:21:46.63	233.44	14.58	-30.3	-30.2	15.5	2.45e-03	0	55	0	49375346688	31	14881
2026-01-22 10:21:49.66	233.14	14.20	-30.4	-30.3	15.4	2.93e-03	0	55	0	49727668224	31	15075
2026-01-22 10:21:52.68	232.85	13.83	-30.6	-30.5	15.3	2.93e-03	0	55	0	50063212544	31	15325
2026-01-22 10:21:55.70	232.57	13.47	-30.7	-30.6	15.3	3.12e-03	0	55	0	50398756864	32	14637
2026-01-22 10:21:58.73	232.29	13.10	-30.6	-30.5	15.3	4.13e-03	0	55	0	50742689792	32	14558
2026-01-22 10:22:01.75	232.03	12.75	-31.0	-30.9	15.1	4.02e-03	0	55	0	51086622720	32	15132
2026-01-22 10:22:04.78	231.77	12.40	-31.0	-30.9	15.1	5.11e-03	0	55	0	51430555648	32	15215
2026-01-22 10:22:07.80	231.52	12.06	-31.3	-31.2	15.0	6.14e-03	0	55	0	51766099968	33	14801
2026-01-22 10:22:10.83	231.28	11.73	-31.5	-31.4	14.9	6.49e-03	0	55	0	52101644288	33	15223
2026-01-22 10:22:13.86	231.04	11.40	-31.7	-31.6	14.8	7.70e-03	0	55	0	52453965824	33	15506
2026-01-22 10:22:16.88	230.81	11.07	-31.9	-31.9	14.6	9.52e-03	0	55	0	52789510144	34	15143
2026-01-22 10:22:19.91	230.59	10.75	-32.1	-32.1	14.5	1.13e-02	0	55	0	53125054464	34	15488
2026-01-22 10:22:22.93	230.37	10.44	-32.3	-32.2	14.5	1.33e-02	0	55	0	53460598784	35	14812
2026-01-22 10:22:25.96	230.16	10.13	-32.5	-32.4	14.4	1.53e-02	0	55	0	53812920320	35	15249
2026-01-22 10:22:28.98	229.96	9.82	-32.6	-32.5	14.3	1.85e-02	0	55	0	54148464640	35	15444
2026-01-22 10:22:32.01	229.76	9.52	-35.5	-35.4	14.7	1.81e-02	0	55	0	54484008960	41	15174
2026-01-22 10:22:35.04	229.56	9.22	-35.5	-35.4	14.7	1.08e-02	0	55	0	54827941888	41	15248
2026-01-22 10:22:38.07	229.37	8.93	-35.6	-35.5	14.6	1.15e-02	0	55	0	55171874816	41	15437
2026-01-22 10:22:41.09	229.19	8.64	-35.9	-35.8	14.4	1.18e-02	0	55	0	55507419136	42	15059
2026-01-22 10:22:44.12	229.01	8.36	-36.0	-35.9	14.4	1.30e-02	0	55	0	55851352064	42	15156
2026-01-22 10:22:47.15	228.83	8.08	-36.4	-36.3	14.1	1.60e-02	0	55	0	56195284992	43	15116
2026-01-22 10:22:50.18	228.66	7.80	-53.3	-55.5	6.2	1.60e-02	0	54	104	56337891328	77	19420
2026-01-22 10:22:53.20	228.49	7.53	-53.3	-55.5	6.2	1.60e-02	0	54	104	56337891328	77	19335
2026-01-22 10:22:56.22	228.33	7.26	-53.3	-55.4	6.2	1.24e-02	0	54	104	56337891328	77	19187
2026-01-22 10:22:59.25	228.17	7.00	-53.3	-55.4	6.2	1.24e-02	0	53	104	56337891328	77	19093
2026-01-22 10:23:02.27	228.01	6.74	-53.2	-55.3	6.2	1.24e-02	0	53	104	56337891328	77	18968
2026-01-22 10:23:05.30	227.86	6.48	-53.1	-55.3	6.2	0.00e+00	0	53	104	56337891328	77	18872
2026-01-22 10:23:08.32	227.71	6.22	-53.1	-55.3	6.2	0.00e+00	0	54	104	56337891328	77	18830
2026-01-22 10:23:11.34	227.57	5.97	-53.1	-55.3	6.2	0.00e+00	0	53	104	56337891328	77	18830
2026-01-22 10:23:14.37	227.42	5.72	-53.0	-55.1	6.2	0.00e+00	0	53	104	56337891328	77	18600
2026-01-22 10:23:17.39	227.28	5.48	-52.9	-55.0	6.2	0.00e+00	0	53	104	56337891328	77	18358
2026-01-22 10:23:20.42	227.15	5.23	-52.9	-55.1	6.2	0.00e+00	0	53	104	56337891328	77	18464
2026-01-22 10:23:23.44	227.02	4.99	-53.0	-55.2	6.2	0.00e+00	0	53	104	56337891328	77	18632
2026-01-22 10:23:26.46	226.89	4.75	-53.9	-56.0	6.2	0.00e+00	0	53	104	56337891328	78	19369
2026-01-22 10:23:29.49	226.76	4.52	-54.2	-56.3	6.2	0.00e+00	0	53	104	56337891328	78	20140
2026-01-22 10:23:32.52	226.63	4.29	-54.3	-56.4	6.2	0.00e+00	0	53	104	56337891328	79	19164
2026-01-22 10:23:35.54	226.51	4.06	-54.3	-56.5	6.2	0.00e+00	0	52	104	56337891328	79	19318
2026-01-22 10:23:38.57	226.39	3.83	-54.3	-56.4	6.2	0.00e+00	0	52	104	56337891328	79	19117
2026-01-22 10:23:41.59	226.28	3.60	-54.1	-56.2	6.2	0.00e+00	0	52	104	56337891328	79	18682
2026-01-22 10:23:44.62	226.16	3.38	-54.0	-56.1	6.2	0.00e+00	0	52	104	56337891328	79	18570
2026-01-22 10:23:47.64	226.05	3.16	-53.9	-56.1	6.2	0.00e+00	0	52	104	56337891328	79	18392
2026-01-22 10:23:50.67	225.94	2.94	-53.9	-56.1	6.2	0.00e+00	0	52	104	56337891328	79	18431
2026-01-22 10:23:53.69	225.84	2.73	-53.9	-56.0	6.2	0.00e+00	0	52	104	56337891328	79	18331
2026-01-22 10:23:56.71	225.73	2.51	-53.9	-56.0	6.2	0.00e+00	0	52	104	56337891328	79	18343
2026-01-22 10:23:59.74	225.63	2.30	-53.9	-56.0	6.2	0.00e+00	0	52	104	56337891328	79	18352
2026-01-22 10:24:02.76	225.53	2.09	-53.9	-56.0	6.2	0.00e+00	0	52	104	56337891328	79	18347

#Closed at: 2026-01-22 10:24:05
#Recorded file [56337 MB]: D:/lorett/data/31041_260122_131336.dat