passes_logs/2026/01/22/R3.2S_Murmansk/R3.2S_Murmansk__20260122_024105_NOAA_20_JPSS-1_rec.log

#Pass ID: 20260122_024105_NOAA 20 (JPSS-1)
#Satellite: NOAA 20 (JPSS-1)
#Configuration: NOAA 20
#almurnet v.1.7.20251203
#Start time: 2026-01-22 02:41:04

#Version: 2.2.20231116
#Station: R3.2S_Murmansk
#Location: 33.079688 lon 68.888172 lat
#TLE: 1 43013U 17073A   26021.46221703  .00000173  00000+0  10299-3 0  9999
#TLE: 2 43013  98.7644 322.3335 0001238  29.7597 330.3649 14.19538314423652

#Time	Az	El	Level	Level2	SNR	BER	BlckErr	Temp	State	Recorded	gain1	gain2
2026-01-22 02:41:04.72	35.23	1.98	-49.9	-64.9	3.8	1.49e+00	0	39	0	0	70	21319
2026-01-22 02:41:07.73	35.10	2.17	-49.9	-64.9	3.8	1.49e+00	0	39	104	0	70	21313
2026-01-22 02:41:10.75	34.98	2.35	-49.9	-64.8	3.8	1.49e+00	0	39	104	0	70	21258
2026-01-22 02:41:13.78	34.85	2.54	-49.9	-64.9	3.8	1.49e+00	0	39	104	0	70	21309
2026-01-22 02:41:16.81	34.71	2.73	-49.9	-64.9	3.8	1.49e+00	0	39	104	0	70	21278
2026-01-22 02:41:19.83	34.58	2.92	-49.9	-64.9	3.8	1.49e+00	0	39	104	0	70	21351
2026-01-22 02:41:22.85	34.45	3.11	-49.9	-64.9	3.8	1.49e+00	0	39	104	0	70	21290
2026-01-22 02:41:25.88	34.31	3.30	-49.9	-64.9	3.8	1.49e+00	0	39	104	0	70	21303
2026-01-22 02:41:28.90	34.17	3.49	-49.9	-64.9	3.8	1.49e+00	0	39	104	0	70	21354
2026-01-22 02:41:31.93	34.03	3.68	-49.9	-64.9	3.8	1.49e+00	0	40	104	0	70	21320
2026-01-22 02:41:34.96	33.89	3.88	-49.9	-64.9	3.8	1.49e+00	0	40	104	0	70	21283
2026-01-22 02:41:37.98	33.75	4.07	-49.9	-64.9	3.8	1.49e+00	0	40	104	0	70	21339
2026-01-22 02:41:41.01	33.60	4.27	-49.9	-64.9	3.8	1.49e+00	0	40	104	0	70	21354
2026-01-22 02:41:44.03	33.45	4.47	-49.9	-64.9	3.8	1.49e+00	0	40	104	0	70	21297
2026-01-22 02:41:47.06	33.30	4.67	-49.9	-64.9	3.8	1.49e+00	0	40	104	0	70	21309
2026-01-22 02:41:50.08	33.15	4.87	-49.9	-64.9	3.8	1.49e+00	0	40	104	0	70	21328
2026-01-22 02:41:53.11	32.99	5.07	-49.9	-64.9	3.8	1.49e+00	0	40	104	0	70	21336
2026-01-22 02:41:56.13	32.83	5.28	-49.9	-64.9	3.8	1.49e+00	0	40	104	0	70	21331
2026-01-22 02:41:59.15	32.67	5.48	-49.9	-64.9	3.8	1.49e+00	0	40	104	0	70	21315
2026-01-22 02:42:02.17	32.51	5.69	-49.9	-64.9	3.8	1.49e+00	0	40	104	0	70	21301
2026-01-22 02:42:05.20	32.34	5.89	-49.9	-64.9	3.8	1.49e+00	0	40	104	0	70	21327
2026-01-22 02:42:08.25	32.17	6.10	-49.9	-64.9	3.8	1.49e+00	0	40	104	0	70	21338
2026-01-22 02:42:11.31	32.00	6.32	-49.9	-64.9	3.8	1.49e+00	0	40	104	0	70	21316
2026-01-22 02:42:14.38	31.83	6.53	-49.9	-64.9	3.8	1.49e+00	0	40	104	0	70	21271
2026-01-22 02:42:17.44	31.65	6.75	-49.9	-64.9	3.8	1.49e+00	0	40	104	0	70	21314
2026-01-22 02:42:20.51	31.47	6.97	-49.9	-64.9	3.8	1.49e+00	0	40	104	0	70	21322
2026-01-22 02:42:23.53	31.29	7.18	-49.9	-64.9	3.8	1.49e+00	0	40	104	0	70	21391
2026-01-22 02:42:26.56	31.10	7.40	-49.9	-64.9	3.8	1.49e+00	0	40	104	0	70	21292
2026-01-22 02:42:29.58	30.91	7.62	-49.9	-64.9	3.8	1.49e+00	0	40	104	0	70	21339
2026-01-22 02:42:32.61	30.72	7.84	-49.9	-64.9	3.8	1.49e+00	0	40	104	0	70	21349
2026-01-22 02:42:35.63	30.53	8.07	-49.9	-64.9	3.8	1.49e+00	0	40	104	0	70	21308
2026-01-22 02:42:38.66	30.33	8.29	-50.0	-64.9	3.8	1.49e+00	0	40	104	0	70	21379
2026-01-22 02:42:41.69	30.13	8.52	-49.9	-64.9	3.8	1.49e+00	0	40	104	0	70	21409
2026-01-22 02:42:44.71	29.93	8.74	-49.9	-64.9	3.8	1.49e+00	0	40	104	0	70	21313
2026-01-22 02:42:47.74	29.72	8.97	-49.9	-64.9	3.8	1.49e+00	0	40	104	0	70	21377
2026-01-22 02:42:50.76	29.51	9.21	-49.9	-64.9	3.8	1.49e+00	0	40	104	0	70	21404
2026-01-22 02:42:53.79	29.30	9.44	-50.0	-64.9	3.8	1.49e+00	0	40	104	0	70	21423
2026-01-22 02:42:56.81	29.08	9.67	-49.9	-64.9	3.8	1.49e+00	0	40	104	0	70	21432
2026-01-22 02:42:59.84	28.86	9.91	-49.9	-64.9	3.8	1.49e+00	0	40	104	0	70	21374
2026-01-22 02:43:02.86	28.64	10.15	-49.9	-64.9	3.8	1.49e+00	0	40	104	0	70	21370
2026-01-22 02:43:05.89	28.41	10.39	-49.9	-64.9	3.8	1.49e+00	0	40	104	0	70	21366
2026-01-22 02:43:08.92	28.17	10.63	-49.9	-64.9	3.8	1.49e+00	0	40	104	0	70	21391
2026-01-22 02:43:11.94	27.94	10.88	-49.9	-64.9	3.8	1.49e+00	0	40	104	0	70	21300
2026-01-22 02:43:14.97	27.70	11.12	-49.9	-64.9	3.8	1.49e+00	0	40	104	0	70	21376
2026-01-22 02:43:17.99	27.45	11.37	-49.9	-64.9	3.8	1.49e+00	0	40	104	0	70	21344
2026-01-22 02:43:21.02	27.20	11.62	-49.9	-64.9	3.8	1.49e+00	0	40	104	0	70	21339
2026-01-22 02:43:24.05	26.95	11.87	-49.9	-64.9	3.8	1.49e+00	0	40	104	0	70	21373
2026-01-22 02:43:27.07	26.69	12.13	-49.9	-64.9	3.8	1.49e+00	0	41	104	0	70	21350
2026-01-22 02:43:30.09	26.43	12.38	-49.9	-64.9	3.8	1.49e+00	0	40	104	0	70	21353
2026-01-22 02:43:33.12	26.16	12.64	-49.9	-64.9	3.8	1.49e+00	0	40	104	0	70	21402
2026-01-22 02:43:36.14	25.88	12.90	-49.9	-64.9	3.8	1.49e+00	0	40	104	0	70	21369
2026-01-22 02:43:39.17	25.61	13.16	-49.9	-64.9	3.8	1.49e+00	0	41	104	0	70	21366
2026-01-22 02:43:42.19	25.32	13.43	-49.9	-64.9	3.8	1.49e+00	0	40	104	0	70	21352
2026-01-22 02:43:45.21	25.03	13.69	-49.9	-64.9	3.8	1.49e+00	0	41	104	0	70	21365
2026-01-22 02:43:48.24	24.74	13.96	-49.9	-64.9	3.8	1.49e+00	0	40	104	0	70	21392
2026-01-22 02:43:51.26	24.44	14.23	-49.9	-64.9	3.8	1.49e+00	0	40	104	0	70	21380
2026-01-22 02:43:54.28	24.13	14.51	-49.9	-64.9	3.8	1.49e+00	0	40	104	0	70	21313
2026-01-22 02:43:57.31	23.82	14.78	-49.9	-64.9	3.8	1.49e+00	0	40	104	0	70	21394
2026-01-22 02:44:00.33	23.51	15.06	-49.9	-64.9	3.8	1.49e+00	0	41	104	0	70	21342
2026-01-22 02:44:03.36	23.18	15.34	-49.9	-64.9	3.8	1.49e+00	0	40	104	0	70	21358
2026-01-22 02:44:06.38	22.85	15.62	-49.9	-64.9	3.8	1.49e+00	0	40	104	0	70	21358
2026-01-22 02:44:09.41	22.51	15.91	-49.9	-64.8	3.8	1.49e+00	0	40	104	0	70	21229
2026-01-22 02:44:12.43	22.17	16.19	-49.9	-64.9	3.8	1.49e+00	0	40	104	0	70	21315
2026-01-22 02:44:15.46	21.82	16.48	-49.9	-64.9	3.8	1.49e+00	0	40	104	0	70	21298
2026-01-22 02:44:18.49	21.46	16.78	-49.9	-64.9	3.8	1.49e+00	0	41	104	0	70	21327
2026-01-22 02:44:21.51	21.10	17.07	-49.9	-64.9	3.8	1.49e+00	0	41	104	0	70	21343
2026-01-22 02:44:24.54	20.73	17.37	-49.9	-64.9	3.8	1.49e+00	0	41	104	0	70	21298
2026-01-22 02:44:27.57	20.35	17.66	-49.9	-64.9	3.8	1.49e+00	0	40	104	0	70	21326
2026-01-22 02:44:30.59	19.96	17.97	-49.9	-64.9	3.8	1.49e+00	0	41	104	0	70	21304
2026-01-22 02:44:33.61	19.57	18.27	-49.9	-64.9	3.8	1.49e+00	0	41	104	0	70	21359
2026-01-22 02:44:36.64	19.16	18.57	-49.9	-64.9	3.8	1.49e+00	0	41	104	0	70	21328
2026-01-22 02:44:39.66	18.75	18.88	-49.9	-64.9	3.8	1.49e+00	0	41	104	0	70	21363
2026-01-22 02:44:42.69	18.33	19.19	-49.9	-64.9	3.8	1.49e+00	0	41	104	0	70	21348
2026-01-22 02:44:45.71	17.90	19.50	-49.9	-64.9	3.8	1.49e+00	0	41	104	0	70	21338
2026-01-22 02:44:48.74	17.46	19.82	-49.9	-64.9	3.8	1.49e+00	0	41	104	0	70	21328
2026-01-22 02:44:51.77	17.01	20.13	-49.9	-64.9	3.8	1.49e+00	0	41	104	0	70	21376
2026-01-22 02:44:54.79	16.56	20.45	-49.9	-64.9	3.8	1.49e+00	0	41	104	0	70	21291
2026-01-22 02:44:57.82	16.09	20.77	-49.9	-64.9	3.8	1.49e+00	0	41	104	0	70	21364
2026-01-22 02:45:00.84	15.61	21.10	-49.9	-64.9	3.8	1.49e+00	0	41	104	0	70	21395
2026-01-22 02:45:03.87	15.12	21.42	-49.9	-64.9	3.8	1.49e+00	0	41	104	0	70	21361
2026-01-22 02:45:06.89	14.63	21.75	-49.9	-64.9	3.8	1.49e+00	0	41	104	0	70	21314
2026-01-22 02:45:09.91	14.12	22.07	-49.9	-64.9	3.8	1.49e+00	0	40	104	0	70	21272
2026-01-22 02:45:12.94	13.60	22.40	-49.9	-64.9	3.8	1.49e+00	0	41	104	0	70	21347
2026-01-22 02:45:15.96	13.07	22.74	-49.9	-64.9	3.8	1.49e+00	0	41	104	0	70	21333
2026-01-22 02:45:18.99	12.52	23.07	-49.9	-64.9	3.8	1.49e+00	0	41	104	0	70	21281
2026-01-22 02:45:22.02	11.97	23.40	-49.9	-64.9	3.8	1.49e+00	0	41	104	0	70	21326
2026-01-22 02:45:25.05	11.40	23.74	-49.9	-64.9	3.8	1.49e+00	0	41	104	0	70	21285
2026-01-22 02:45:28.07	10.82	24.08	-49.9	-64.9	3.8	1.49e+00	0	41	104	0	70	21354
2026-01-22 02:45:31.10	10.23	24.42	-49.9	-64.9	3.8	1.49e+00	0	41	104	0	70	21347
2026-01-22 02:45:34.13	9.62	24.76	-49.9	-64.9	3.8	1.49e+00	0	41	104	0	70	21309
2026-01-22 02:45:37.15	9.00	25.10	-49.9	-64.8	3.8	1.49e+00	0	40	104	0	70	21259
2026-01-22 02:45:40.18	8.37	25.44	-49.9	-64.9	3.8	1.49e+00	0	41	104	0	70	21310
2026-01-22 02:45:43.21	7.72	25.78	-49.9	-64.9	3.8	1.49e+00	0	41	104	0	70	21342
2026-01-22 02:45:46.23	7.06	26.12	-49.9	-64.9	3.8	1.49e+00	0	41	104	0	70	21350
2026-01-22 02:45:49.25	6.38	26.46	-49.9	-64.9	3.8	1.49e+00	0	41	104	0	70	21291
2026-01-22 02:45:52.28	5.69	26.80	-49.9	-64.9	3.8	1.49e+00	0	41	104	0	70	21344
2026-01-22 02:45:55.30	4.99	27.14	-49.9	-64.9	3.8	1.49e+00	0	41	104	0	70	21337
2026-01-22 02:45:58.33	4.27	27.48	-49.9	-64.9	3.8	1.49e+00	0	41	104	0	70	21350
2026-01-22 02:46:01.35	3.53	27.82	-49.9	-64.9	3.8	1.49e+00	0	41	104	0	70	21304
2026-01-22 02:46:04.37	2.78	28.16	-49.9	-64.9	3.8	1.49e+00	0	41	104	0	70	21303
2026-01-22 02:46:07.40	2.01	28.50	-49.9	-64.9	3.8	1.49e+00	0	41	104	0	70	21367
2026-01-22 02:46:10.42	1.22	28.83	-49.9	-64.9	3.8	1.49e+00	0	41	104	0	70	21355
2026-01-22 02:46:13.45	0.42	29.16	-49.9	-64.9	3.8	1.49e+00	0	41	104	0	70	21304
2026-01-22 02:46:16.47	359.60	29.49	-49.9	-64.9	3.8	1.49e+00	0	41	104	0	70	21339
2026-01-22 02:46:19.49	358.77	29.82	-49.9	-64.9	3.8	1.49e+00	0	41	104	0	70	21317
2026-01-22 02:46:22.52	357.91	30.14	-49.9	-64.8	3.8	1.49e+00	0	41	104	0	70	21247
2026-01-22 02:46:25.55	357.04	30.46	-49.9	-64.9	3.8	1.49e+00	0	41	104	0	70	21309
2026-01-22 02:46:28.58	356.15	30.78	-49.9	-64.9	3.8	1.49e+00	0	41	104	0	70	21285
2026-01-22 02:46:31.60	355.25	31.09	-49.9	-64.9	3.8	1.49e+00	0	41	104	0	70	21295
2026-01-22 02:46:34.62	354.33	31.39	-49.9	-64.9	3.8	1.49e+00	0	41	104	0	70	21328
2026-01-22 02:46:37.65	353.39	31.69	-49.9	-64.9	3.8	1.49e+00	0	41	104	0	70	21359
2026-01-22 02:46:40.68	352.43	31.99	-49.9	-64.9	3.8	1.49e+00	0	41	104	0	70	21375
2026-01-22 02:46:43.70	351.45	32.28	-49.9	-64.9	3.8	1.49e+00	0	41	104	0	70	21345
2026-01-22 02:46:46.73	350.46	32.56	-49.9	-64.9	3.8	1.49e+00	0	41	104	0	70	21333
2026-01-22 02:46:49.75	349.45	32.83	-49.9	-64.9	3.8	1.49e+00	0	41	104	0	70	21305
2026-01-22 02:46:52.77	348.42	33.10	-49.9	-64.8	3.8	1.49e+00	0	40	104	0	70	21243
2026-01-22 02:46:55.80	347.38	33.35	-49.9	-64.9	3.8	1.49e+00	0	41	104	0	70	21299
2026-01-22 02:46:58.82	346.32	33.60	-49.9	-64.9	3.8	1.49e+00	0	41	104	0	70	21301
2026-01-22 02:47:01.85	345.24	33.84	-49.9	-64.9	3.8	1.49e+00	0	41	104	0	70	21352
2026-01-22 02:47:04.88	344.14	34.07	-49.9	-64.9	3.8	1.49e+00	0	41	104	0	70	21320
2026-01-22 02:47:07.90	343.04	34.29	-49.9	-64.9	3.8	1.49e+00	0	41	104	0	70	21310
2026-01-22 02:47:10.93	341.91	34.50	-49.9	-64.9	3.8	1.49e+00	0	41	104	0	70	21273
2026-01-22 02:47:13.95	340.78	34.69	-49.9	-64.9	3.8	1.49e+00	0	41	104	0	70	21402
2026-01-22 02:47:16.98	339.63	34.88	-49.9	-64.9	3.8	1.49e+00	0	41	104	0	70	21350
2026-01-22 02:47:20.00	338.47	35.05	-49.9	-64.9	3.8	1.49e+00	0	41	104	0	70	21343
2026-01-22 02:47:23.02	337.29	35.21	-49.9	-64.9	3.8	1.49e+00	0	40	104	0	70	21377
2026-01-22 02:47:26.05	336.10	35.36	-49.9	-64.9	3.8	1.49e+00	0	41	104	0	70	21303
2026-01-22 02:47:29.07	334.91	35.49	-49.9	-64.9	3.8	1.49e+00	0	41	104	0	70	21269
2026-01-22 02:47:32.10	333.70	35.61	-49.9	-64.9	3.8	1.49e+00	0	41	104	0	70	21279
2026-01-22 02:47:35.12	332.49	35.71	-49.9	-64.9	3.8	1.49e+00	0	41	104	0	70	21357
2026-01-22 02:47:38.15	331.27	35.80	-49.9	-64.9	3.8	1.49e+00	0	41	104	0	70	21280
2026-01-22 02:47:41.18	330.04	35.88	-49.9	-64.9	3.8	1.49e+00	0	41	104	0	70	21334
2026-01-22 02:47:44.21	328.80	35.94	-49.9	-64.9	3.8	1.49e+00	0	41	104	0	70	21299
2026-01-22 02:47:47.24	327.56	35.98	-49.9	-64.9	3.8	1.49e+00	0	41	104	0	70	21307
2026-01-22 02:47:50.26	326.32	36.01	-49.9	-64.9	3.8	1.49e+00	0	41	104	0	70	21286
2026-01-22 02:47:53.29	325.08	36.03	-49.9	-64.9	3.8	1.49e+00	0	41	104	0	70	21347
2026-01-22 02:47:56.31	323.84	36.03	-49.9	-64.9	3.8	1.49e+00	0	41	104	0	70	21269
2026-01-22 02:47:59.34	322.59	36.01	-49.9	-64.9	3.8	1.49e+00	0	41	104	0	70	21334
2026-01-22 02:48:02.36	321.36	35.98	-49.9	-64.9	3.8	1.49e+00	0	41	104	0	70	21277
2026-01-22 02:48:05.39	320.12	35.94	-49.9	-64.8	3.8	1.49e+00	0	41	104	0	70	21242
2026-01-22 02:48:08.41	318.89	35.87	-49.9	-64.9	3.8	1.49e+00	0	41	104	0	70	21263
2026-01-22 02:48:11.44	317.66	35.80	-49.9	-64.9	3.8	1.49e+00	0	41	104	0	70	21323
2026-01-22 02:48:14.46	316.44	35.71	-49.9	-64.9	3.8	1.49e+00	0	41	104	0	70	21261
2026-01-22 02:48:17.49	315.22	35.60	-49.9	-64.9	3.8	1.49e+00	0	41	104	0	70	21285
2026-01-22 02:48:20.52	314.01	35.48	-49.9	-64.9	3.8	1.49e+00	0	41	104	0	70	21311
2026-01-22 02:48:23.54	312.82	35.35	-49.9	-64.9	3.8	1.49e+00	0	41	104	0	70	21290
2026-01-22 02:48:26.57	311.63	35.20	-49.9	-64.9	3.8	1.49e+00	0	41	104	0	70	21282
2026-01-22 02:48:29.59	310.46	35.04	-49.9	-64.9	3.8	1.49e+00	0	41	104	0	70	21262
2026-01-22 02:48:32.61	309.29	34.87	-49.9	-64.9	3.8	1.49e+00	0	41	104	0	70	21332
2026-01-22 02:48:35.63	308.15	34.68	-49.9	-64.9	3.8	1.49e+00	0	41	104	0	70	21296
2026-01-22 02:48:38.66	307.01	34.48	-49.9	-64.9	3.8	1.49e+00	0	41	104	0	70	21280
2026-01-22 02:48:41.68	305.89	34.27	-49.9	-64.9	3.8	1.49e+00	0	41	104	0	70	21321
2026-01-22 02:48:44.71	304.78	34.05	-49.9	-64.8	3.8	1.49e+00	0	41	104	0	70	21255
2026-01-22 02:48:47.73	303.68	33.82	-49.9	-64.9	3.8	1.49e+00	0	41	104	0	70	21308
2026-01-22 02:48:50.75	302.61	33.59	-49.9	-64.9	3.8	1.49e+00	0	41	104	0	70	21315
2026-01-22 02:48:53.78	301.55	33.34	-49.9	-64.9	3.8	1.49e+00	0	41	104	0	70	21284
2026-01-22 02:48:56.80	300.50	33.08	-49.9	-64.9	3.8	1.49e+00	0	41	104	0	70	21282
2026-01-22 02:48:59.83	299.47	32.81	-49.9	-64.9	3.8	1.49e+00	0	41	104	0	70	21301
2026-01-22 02:49:02.86	298.46	32.54	-49.9	-64.9	3.8	1.49e+00	0	41	104	0	70	21343
2026-01-22 02:49:05.88	297.47	32.25	-49.9	-64.9	3.8	1.49e+00	0	41	104	0	70	21334
2026-01-22 02:49:08.91	296.49	31.96	-49.9	-64.9	3.8	1.49e+00	0	41	104	0	70	21311
2026-01-22 02:49:11.93	295.54	31.67	-49.9	-64.9	3.8	1.49e+00	0	41	104	0	70	21325
2026-01-22 02:49:14.95	294.60	31.37	-49.9	-64.9	3.8	1.49e+00	0	41	104	0	70	21319
2026-01-22 02:49:17.98	293.67	31.06	-49.9	-64.9	3.8	1.49e+00	0	41	104	0	70	21308
2026-01-22 02:49:21.01	292.76	30.75	-49.9	-64.9	3.8	1.49e+00	0	41	104	0	70	21353
2026-01-22 02:49:24.03	291.88	30.43	-49.9	-64.9	3.8	1.49e+00	0	41	104	0	70	21270
2026-01-22 02:49:27.05	291.01	30.11	-49.9	-64.9	3.8	1.49e+00	0	41	104	0	70	21269
2026-01-22 02:49:30.08	290.15	29.79	-49.9	-64.9	3.8	1.49e+00	0	41	104	0	70	21315
2026-01-22 02:49:33.11	289.32	29.46	-49.9	-64.9	3.8	1.49e+00	0	41	104	0	70	21353
2026-01-22 02:49:36.13	288.50	29.13	-49.9	-64.9	3.8	1.49e+00	0	41	104	0	70	21285
2026-01-22 02:49:39.16	287.69	28.80	-49.9	-64.9	3.8	1.49e+00	0	41	104	0	70	21405
2026-01-22 02:49:42.18	286.91	28.46	-49.9	-64.9	3.8	1.49e+00	0	41	104	0	70	21302
2026-01-22 02:49:45.21	286.14	28.13	-49.9	-64.9	3.8	1.49e+00	0	41	104	0	70	21300
2026-01-22 02:49:48.23	285.39	27.79	-49.9	-64.9	3.8	1.49e+00	0	41	104	0	70	21355
2026-01-22 02:49:51.26	284.65	27.45	-49.9	-64.9	3.8	1.49e+00	0	41	104	0	70	21281
2026-01-22 02:49:54.29	283.93	27.11	-49.9	-64.9	3.8	1.49e+00	0	41	104	0	70	21303
2026-01-22 02:49:57.31	283.22	26.77	-49.9	-64.8	3.8	1.49e+00	0	41	104	0	70	21248
2026-01-22 02:50:00.34	282.53	26.42	-49.9	-64.9	3.8	1.49e+00	0	41	104	0	70	21319
2026-01-22 02:50:03.36	281.85	26.08	-49.9	-64.9	3.8	1.49e+00	0	41	104	0	70	21264
2026-01-22 02:50:06.38	281.19	25.74	-49.9	-64.9	3.8	1.49e+00	0	41	104	0	70	21358
2026-01-22 02:50:09.41	280.54	25.40	-49.9	-64.8	3.8	1.49e+00	0	41	104	0	70	21242
2026-01-22 02:50:12.43	279.91	25.06	-49.9	-64.9	3.8	1.49e+00	0	41	104	0	70	21262
2026-01-22 02:50:15.45	279.29	24.72	-49.9	-64.9	3.8	1.49e+00	0	41	104	0	70	21301
2026-01-22 02:50:18.48	278.69	24.38	-49.9	-64.9	3.8	1.49e+00	0	41	104	0	70	21271
2026-01-22 02:50:21.50	278.09	24.04	-49.9	-64.9	3.8	1.49e+00	0	41	104	0	70	21273
2026-01-22 02:50:24.52	277.51	23.70	-49.9	-64.9	3.8	1.49e+00	0	41	104	0	70	21293
2026-01-22 02:50:27.55	276.95	23.36	-49.9	-64.8	3.8	1.49e+00	0	41	104	0	70	21238
2026-01-22 02:50:30.57	276.39	23.03	-49.9	-64.9	3.8	1.49e+00	0	41	104	0	70	21272
2026-01-22 02:50:33.60	275.85	22.70	-49.9	-64.9	3.8	1.49e+00	0	41	104	0	70	21296
2026-01-22 02:50:36.62	275.31	22.36	-49.9	-64.8	3.8	1.49e+00	0	41	104	0	70	21243
2026-01-22 02:50:39.65	274.79	22.03	-49.9	-64.9	3.8	1.49e+00	0	41	104	0	70	21300
2026-01-22 02:50:42.67	274.28	21.70	-49.9	-64.8	3.8	1.49e+00	0	41	104	0	70	21230
2026-01-22 02:50:45.69	273.79	21.38	-49.9	-64.8	3.8	1.49e+00	0	41	104	0	70	21252
2026-01-22 02:50:48.72	273.30	21.05	-49.9	-64.9	3.8	1.49e+00	0	41	104	0	70	21269
2026-01-22 02:50:51.74	272.82	20.73	-49.9	-64.8	3.8	1.49e+00	0	41	104	0	70	21247
2026-01-22 02:50:54.77	272.35	20.41	-49.9	-64.9	3.8	1.49e+00	0	41	104	0	70	21304
2026-01-22 02:50:57.79	271.89	20.09	-49.9	-64.9	3.8	1.49e+00	0	41	104	0	70	21287
2026-01-22 02:51:00.82	271.44	19.77	-49.9	-64.8	3.8	1.49e+00	0	41	104	0	70	21238
2026-01-22 02:51:03.85	271.00	19.46	-49.9	-64.9	3.8	1.49e+00	0	41	104	0	70	21275
2026-01-22 02:51:06.87	270.58	19.14	-49.9	-64.8	3.8	1.49e+00	0	41	104	0	70	21248
2026-01-22 02:51:09.90	270.15	18.83	-49.9	-64.9	3.8	1.49e+00	0	41	104	0	70	21287
2026-01-22 02:51:12.93	269.74	18.52	-49.9	-64.9	3.8	1.49e+00	0	41	104	0	70	21296
2026-01-22 02:51:15.96	269.34	18.22	-49.9	-64.9	3.8	1.49e+00	0	41	104	0	70	21302
2026-01-22 02:51:18.98	268.94	17.92	-49.9	-64.9	3.8	1.49e+00	0	41	104	0	70	21263
2026-01-22 02:51:22.01	268.55	17.61	-49.9	-64.9	3.8	1.49e+00	0	41	104	0	70	21274
2026-01-22 02:51:25.03	268.17	17.32	-49.9	-64.9	3.8	1.49e+00	0	41	104	0	70	21332
2026-01-22 02:51:28.06	267.80	17.02	-49.9	-64.9	3.8	1.49e+00	0	41	104	0	70	21316
2026-01-22 02:51:31.09	267.43	16.72	-49.9	-64.9	3.8	1.49e+00	0	41	104	0	70	21285
2026-01-22 02:51:34.11	267.07	16.43	-49.9	-64.9	3.8	1.49e+00	0	41	104	0	70	21340
2026-01-22 02:51:37.14	266.72	16.14	-49.9	-64.9	3.8	1.49e+00	0	41	104	0	70	21311
2026-01-22 02:51:40.17	266.38	15.85	-49.9	-64.9	3.8	1.49e+00	0	41	104	0	70	21289
2026-01-22 02:51:43.19	266.04	15.57	-49.9	-64.9	3.8	1.49e+00	0	41	104	0	70	21274
2026-01-22 02:51:46.22	265.71	15.29	-49.9	-64.9	3.8	1.49e+00	0	41	104	0	70	21298
2026-01-22 02:51:49.24	265.39	15.01	-49.9	-64.9	3.8	1.49e+00	0	41	104	0	70	21299
2026-01-22 02:51:52.27	265.07	14.73	-49.9	-64.9	3.8	1.49e+00	0	41	104	0	70	21305
2026-01-22 02:51:55.29	264.75	14.45	-49.9	-64.9	3.8	1.49e+00	0	41	104	0	70	21299
2026-01-22 02:51:58.32	264.45	14.18	-49.9	-64.9	3.8	1.49e+00	0	41	104	0	70	21294
2026-01-22 02:52:01.34	264.15	13.91	-49.9	-64.9	3.8	1.49e+00	0	41	104	0	70	21271
2026-01-22 02:52:04.37	263.85	13.64	-49.9	-64.9	3.8	1.49e+00	0	41	104	0	70	21299
2026-01-22 02:52:07.39	263.56	13.37	-49.9	-64.9	3.8	1.49e+00	0	41	104	0	70	21280
2026-01-22 02:52:10.41	263.28	13.11	-49.9	-64.9	3.8	1.49e+00	0	41	104	0	70	21302
2026-01-22 02:52:13.44	263.00	12.84	-49.9	-64.9	3.8	1.49e+00	0	41	104	0	70	21297
2026-01-22 02:52:16.46	262.72	12.58	-49.9	-64.8	3.8	1.49e+00	0	41	104	0	70	21254
2026-01-22 02:52:19.49	262.46	12.32	-49.9	-64.9	3.8	1.49e+00	0	41	104	0	70	21274
2026-01-22 02:52:22.51	262.19	12.07	-49.9	-64.9	3.8	1.49e+00	0	41	104	0	70	21269
2026-01-22 02:52:25.54	261.93	11.81	-49.9	-64.9	3.8	1.49e+00	0	41	104	0	70	21263
2026-01-22 02:52:28.57	261.68	11.56	-49.9	-64.8	3.8	1.49e+00	0	41	104	0	70	21241
2026-01-22 02:52:31.59	261.43	11.31	-49.9	-64.9	3.8	1.49e+00	0	41	104	0	70	21319
2026-01-22 02:52:34.62	261.18	11.06	-49.9	-64.9	3.8	1.49e+00	0	41	104	0	70	21294
2026-01-22 02:52:37.65	260.94	10.82	-49.9	-64.9	3.8	1.49e+00	0	41	104	0	70	21270
2026-01-22 02:52:40.67	260.70	10.57	-49.9	-64.9	3.8	1.49e+00	0	41	104	0	70	21310
2026-01-22 02:52:43.70	260.46	10.33	-49.9	-64.9	3.8	1.49e+00	0	41	104	0	70	21318
2026-01-22 02:52:46.73	260.23	10.09	-49.9	-64.8	3.8	1.49e+00	0	41	104	0	70	21231
2026-01-22 02:52:49.75	260.01	9.85	-49.9	-64.9	3.8	1.49e+00	0	41	104	0	70	21309
2026-01-22 02:52:52.78	259.79	9.61	-49.9	-64.9	3.8	1.49e+00	0	41	104	0	70	21304
2026-01-22 02:52:55.80	259.57	9.38	-49.9	-64.9	3.8	1.49e+00	0	41	104	0	70	21265
2026-01-22 02:52:58.83	259.35	9.14	-49.9	-64.9	3.8	1.49e+00	0	41	104	0	70	21301
2026-01-22 02:53:01.85	259.14	8.91	-49.9	-64.9	3.8	1.49e+00	0	41	104	0	70	21330
2026-01-22 02:53:04.88	258.93	8.68	-49.9	-64.9	3.8	1.49e+00	0	41	104	0	70	21265
2026-01-22 02:53:07.90	258.73	8.45	-49.9	-64.9	3.8	1.49e+00	0	41	104	0	70	21274
2026-01-22 02:53:10.93	258.53	8.23	-49.9	-64.9	3.8	1.49e+00	0	41	104	0	70	21272
2026-01-22 02:53:13.95	258.33	8.00	-49.9	-64.8	3.8	1.49e+00	0	41	104	0	70	21247
2026-01-22 02:53:16.97	258.14	7.78	-49.9	-64.8	3.8	1.49e+00	0	41	104	0	70	21246
2026-01-22 02:53:20.00	257.94	7.56	-49.9	-64.8	3.8	1.49e+00	0	41	104	0	70	21230
2026-01-22 02:53:23.02	257.76	7.34	-49.9	-64.8	3.8	1.49e+00	0	41	104	0	70	21223
2026-01-22 02:53:26.05	257.57	7.12	-49.9	-64.8	3.8	1.49e+00	0	41	104	0	70	21254
2026-01-22 02:53:29.07	257.39	6.90	-49.9	-64.8	3.8	1.49e+00	0	41	104	0	70	21225
2026-01-22 02:53:32.10	257.21	6.69	-49.9	-64.8	3.8	1.49e+00	0	41	104	0	70	21237
2026-01-22 02:53:35.13	257.03	6.47	-49.9	-64.8	3.8	1.49e+00	0	41	104	0	70	21246
2026-01-22 02:53:38.15	256.86	6.26	-49.9	-64.9	3.8	1.49e+00	0	41	104	0	70	21283
2026-01-22 02:53:41.18	256.68	6.05	-49.9	-64.9	3.8	1.49e+00	0	41	104	0	70	21272
2026-01-22 02:53:44.21	256.51	5.84	-49.9	-64.9	3.8	1.49e+00	0	41	104	0	70	21277
2026-01-22 02:53:47.23	256.35	5.63	-49.9	-64.8	3.8	1.49e+00	0	41	104	0	70	21232
2026-01-22 02:53:50.26	256.18	5.43	-49.9	-64.8	3.8	1.49e+00	0	41	104	0	70	21220
2026-01-22 02:53:53.28	256.02	5.22	-49.9	-64.8	3.8	1.49e+00	0	41	104	0	70	21208
2026-01-22 02:53:56.31	255.86	5.02	-49.9	-64.9	3.8	1.49e+00	0	41	104	0	70	21278
2026-01-22 02:53:59.34	255.70	4.82	-49.9	-64.8	3.8	1.49e+00	0	41	104	0	70	21233
2026-01-22 02:54:02.36	255.55	4.62	-49.9	-64.8	3.8	1.49e+00	0	41	104	0	70	21255
2026-01-22 02:54:05.39	255.40	4.42	-49.9	-64.9	3.8	1.49e+00	0	41	104	0	70	21263
2026-01-22 02:54:08.41	255.25	4.22	-49.9	-64.8	3.8	1.49e+00	0	41	104	0	70	21237
2026-01-22 02:54:11.44	255.10	4.02	-49.9	-64.8	3.8	1.49e+00	0	41	104	0	70	21226
2026-01-22 02:54:14.47	254.95	3.82	-49.9	-64.8	3.8	1.49e+00	0	41	104	0	70	21201
2026-01-22 02:54:17.49	254.81	3.63	-49.9	-64.8	3.8	1.49e+00	0	41	104	0	70	21211
2026-01-22 02:54:20.52	254.67	3.43	-49.9	-64.8	3.8	1.49e+00	0	41	104	0	70	21244
2026-01-22 02:54:23.54	254.53	3.24	-49.9	-64.8	3.8	1.49e+00	0	41	104	0	70	21249
2026-01-22 02:54:26.57	254.39	3.05	-49.9	-64.8	3.8	1.49e+00	0	41	104	0	70	21210
2026-01-22 02:54:29.59	254.25	2.86	-49.9	-64.8	3.8	1.49e+00	0	41	104	0	70	21193
2026-01-22 02:54:32.61	254.12	2.67	-49.9	-64.8	3.8	1.49e+00	0	41	104	0	70	21170
2026-01-22 02:54:35.64	253.99	2.48	-49.9	-64.8	3.8	1.49e+00	0	41	104	0	70	21202
2026-01-22 02:54:38.66	253.86	2.30	-49.9	-64.8	3.8	1.49e+00	0	41	104	0	70	21162
2026-01-22 02:54:41.69	253.73	2.11	-49.9	-64.8	3.8	1.49e+00	0	41	104	0	70	21152

#Closed at: 2026-01-22 02:54:43
#Recorded file [0 MB]: D:/lorett/data/31041_260122_054104.dat