passes_logs/2026/01/22/R3.2S_Murmansk/R3.2S_Murmansk__20260122_195549_JL1KF02B07_rec.log

#Pass ID: 20260122_195549_JL1KF02B07
#Satellite: JL1KF02B07
#Configuration: 01B_900M
#almurnet v.1.7.20251203
#Start time: 2026-01-22 19:55:50

#Version: 2.2.20231116
#Station: R3.2S_Murmansk
#Location: 33.079688 lon 68.888172 lat
#TLE: 1 65939U 25226B   26020.89886288  .00033261  00000+0  20820-2 0  9994
#TLE: 2 65939  97.6530  99.8959 0018064 279.8018  80.1170 15.09176210 15350

#Time	Az	El	Level	Level2	SNR	BER	BlckErr	Temp	State	Recorded	gain1	gain2
2026-01-22 19:55:50.45	181.62	2.06	-55.2	-57.3	6.2	0.00e+00	0	42	0	0	81	18913
2026-01-22 19:55:53.48	181.76	2.27	-55.3	-57.4	6.2	0.00e+00	0	42	104	0	82	18029
2026-01-22 19:55:56.51	181.90	2.47	-55.2	-57.3	6.2	0.00e+00	0	43	104	0	82	17871
2026-01-22 19:55:59.53	182.04	2.68	-55.1	-57.2	6.2	0.00e+00	0	43	104	0	82	17652
2026-01-22 19:56:02.56	182.18	2.89	-54.9	-57.0	6.2	0.00e+00	0	43	104	0	81	18312
2026-01-22 19:56:05.58	182.33	3.10	-54.7	-56.7	6.2	0.00e+00	0	43	104	0	81	17745
2026-01-22 19:56:08.61	182.48	3.32	-54.3	-56.4	6.2	0.00e+00	0	43	104	0	80	18127
2026-01-22 19:56:11.63	182.63	3.53	-53.7	-55.8	6.2	0.00e+00	0	43	104	0	79	17864
2026-01-22 19:56:14.65	182.78	3.75	-53.7	-55.8	6.2	0.00e+00	0	43	104	0	79	17823
2026-01-22 19:56:17.68	182.93	3.97	-53.7	-55.8	6.2	0.00e+00	0	43	104	0	79	17789
2026-01-22 19:56:20.70	183.09	4.19	-53.6	-55.7	6.2	0.00e+00	0	43	104	0	79	17731
2026-01-22 19:56:23.73	183.25	4.42	-53.6	-55.8	6.2	0.00e+00	0	44	104	0	79	17772
2026-01-22 19:56:26.75	183.42	4.64	-53.6	-55.7	6.2	0.00e+00	0	43	104	0	79	17721
2026-01-22 19:56:29.78	183.58	4.87	-53.6	-55.7	6.2	0.00e+00	0	43	104	0	79	17716
2026-01-22 19:56:32.80	183.75	5.10	-53.7	-55.8	6.2	0.00e+00	0	44	104	0	79	17851
2026-01-22 19:56:35.83	183.93	5.34	-53.6	-55.7	6.2	0.00e+00	0	43	104	0	79	17696
2026-01-22 19:56:38.85	184.10	5.57	-53.6	-55.7	6.2	0.00e+00	0	44	104	0	79	17703
2026-01-22 19:56:41.88	184.28	5.81	-53.7	-55.8	6.2	0.00e+00	0	44	104	0	79	17961
2026-01-22 19:56:44.90	184.46	6.05	-53.7	-55.8	6.2	0.00e+00	0	44	104	0	79	17916
2026-01-22 19:56:47.92	184.65	6.29	-53.6	-55.7	6.2	0.00e+00	0	44	104	0	79	17623
2026-01-22 19:56:50.95	184.84	6.54	-53.6	-55.7	6.2	0.00e+00	0	44	104	0	79	17736
2026-01-22 19:56:53.97	185.03	6.79	-53.8	-55.9	6.2	0.00e+00	0	44	104	0	79	18084
2026-01-22 19:56:57.00	185.23	7.04	-53.8	-55.9	6.2	0.00e+00	0	44	104	0	79	18037
2026-01-22 19:57:00.02	185.43	7.30	-53.6	-55.7	6.2	0.00e+00	0	44	104	0	79	17761
2026-01-22 19:57:03.05	185.63	7.55	-53.7	-55.8	6.2	0.00e+00	0	44	104	0	79	17826
2026-01-22 19:57:06.07	185.84	7.81	-53.8	-55.9	6.2	0.00e+00	0	44	104	0	79	18064
2026-01-22 19:57:09.09	186.06	8.08	-53.8	-55.9	6.2	0.00e+00	0	44	104	0	79	18115
2026-01-22 19:57:12.11	186.27	8.35	-53.7	-55.8	6.2	0.00e+00	0	44	104	0	79	17893
2026-01-22 19:57:15.14	186.50	8.62	-53.8	-55.9	6.2	0.00e+00	0	44	104	0	79	18037
2026-01-22 19:57:18.17	186.72	8.89	-53.9	-56.0	6.2	0.00e+00	0	44	104	0	79	18200
2026-01-22 19:57:21.19	186.95	9.17	-52.8	-54.6	6.2	0.00e+00	0	44	104	0	76	18425
2026-01-22 19:57:24.21	187.19	9.45	-49.4	-50.2	6.3	0.00e+00	0	44	104	0	70	15793
2026-01-22 19:57:27.24	187.43	9.73	-53.9	-55.9	6.2	0.00e+00	0	44	104	0	78	19237
2026-01-22 19:57:30.27	187.68	10.02	-49.7	-50.4	6.3	0.00e+00	0	44	104	0	71	15289
2026-01-22 19:57:33.29	187.93	10.32	-49.6	-50.3	6.3	0.00e+00	0	44	104	0	70	16008
2026-01-22 19:57:36.31	188.19	10.61	-41.0	-40.8	12.9	4.48e-03	0	44	104	0	54	13426
2026-01-22 19:57:39.33	188.46	10.91	-39.9	-39.8	13.9	1.17e-03	0	44	0	192937984	51	14120
2026-01-22 19:57:42.36	188.73	11.22	-35.0	-34.8	16.1	4.19e-05	0	45	0	536870912	42	13407
2026-01-22 19:57:45.38	189.01	11.53	-33.4	-33.3	17.0	7.60e-06	0	45	0	880803840	38	14136
2026-01-22 19:57:48.40	189.29	11.84	-32.7	-32.5	17.4	0.00e+00	0	45	0	1216348160	37	13750
2026-01-22 19:57:51.43	189.58	12.16	-32.2	-32.0	17.7	0.00e+00	0	45	0	1551892480	36	13718
2026-01-22 19:57:54.45	189.88	12.48	-32.2	-32.0	17.7	0.00e+00	0	45	0	1887436800	36	13783
2026-01-22 19:57:57.47	190.18	12.81	-32.0	-31.8	18.0	0.00e+00	0	45	0	2239758336	36	13459
2026-01-22 19:58:00.50	190.50	13.14	-29.5	-29.4	17.4	0.00e+00	0	45	0	2575302656	31	13489
2026-01-22 19:58:03.52	190.82	13.48	-29.4	-29.2	17.6	1.90e-06	0	45	0	2910846976	30	14028
2026-01-22 19:58:06.54	191.15	13.82	-29.3	-29.1	17.6	0.00e+00	0	45	0	3254779904	30	13926
2026-01-22 19:58:09.57	191.49	14.17	-29.1	-28.9	17.8	1.90e-06	0	45	0	3598712832	30	13623
2026-01-22 19:58:12.59	191.83	14.53	-29.0	-28.8	17.8	0.00e+00	0	45	0	3934257152	30	13431
2026-01-22 19:58:15.62	192.19	14.89	-28.9	-28.7	17.9	1.90e-06	0	45	0	4278190080	29	14021
2026-01-22 19:58:18.64	192.56	15.25	-28.7	-28.5	17.9	0.00e+00	0	45	0	4613734400	29	13781
2026-01-22 19:58:21.67	192.93	15.62	-28.5	-28.3	18.0	0.00e+00	0	45	0	4957667328	29	13444
2026-01-22 19:58:24.69	193.32	16.00	-28.4	-28.2	18.0	0.00e+00	0	45	0	5301600256	28	14079
2026-01-22 19:58:27.72	193.72	16.38	-28.1	-27.9	18.2	0.00e+00	0	45	0	5637144576	28	13602
2026-01-22 19:58:30.75	194.13	16.77	-28.1	-28.0	18.2	0.00e+00	0	45	0	5972688896	27	14488
2026-01-22 19:58:33.77	194.55	17.17	-28.1	-28.0	18.2	0.00e+00	0	45	0	6325010432	27	14457
2026-01-22 19:58:36.79	194.98	17.57	-27.9	-27.8	18.3	0.00e+00	0	45	0	6660554752	27	14133
2026-01-22 19:58:39.82	195.43	17.98	-27.9	-27.8	18.4	1.90e-06	0	45	0	6996099072	27	14112
2026-01-22 19:58:42.84	195.89	18.40	-28.0	-27.8	18.4	0.00e+00	0	45	0	7331643392	27	14192
2026-01-22 19:58:45.86	196.36	18.82	-27.9	-27.8	18.2	0.00e+00	0	45	0	7683964928	27	14152
2026-01-22 19:58:48.89	196.85	19.25	-28.0	-27.8	18.4	0.00e+00	0	45	0	8019509248	27	14190
2026-01-22 19:58:51.91	197.35	19.69	-28.2	-28.1	18.2	0.00e+00	0	45	0	8355053568	27	14610
2026-01-22 19:58:54.94	197.88	20.14	-28.4	-28.3	18.2	0.00e+00	0	46	0	8698986496	27	14962
2026-01-22 19:58:57.97	198.41	20.59	-29.0	-28.9	18.0	0.00e+00	0	45	0	9042919424	28	15128
2026-01-22 19:59:00.99	198.97	21.05	-29.1	-28.9	18.0	0.00e+00	0	45	0	9386852352	29	14392
2026-01-22 19:59:04.01	199.54	21.52	-29.6	-29.4	17.8	0.00e+00	0	45	0	9722396672	30	14420
2026-01-22 19:59:07.03	200.13	21.99	-30.1	-30.0	17.4	0.00e+00	0	45	0	10057940992	31	14486
2026-01-22 19:59:10.05	200.74	22.48	-30.5	-30.4	17.1	3.80e-06	0	45	0	10410262528	32	14303
2026-01-22 19:59:13.08	201.38	22.97	-31.9	-31.8	16.3	1.71e-05	0	45	0	10745806848	34	15035
2026-01-22 19:59:16.10	202.03	23.47	-34.9	-34.8	16.8	1.52e-05	0	45	0	11081351168	40	14952
2026-01-22 19:59:19.13	202.71	23.98	-36.0	-35.9	16.0	4.76e-05	0	45	0	11416895488	42	15201
2026-01-22 19:59:22.16	203.41	24.50	-37.2	-37.1	15.1	1.81e-04	0	45	0	11769217024	45	14692
2026-01-22 19:59:25.18	204.14	25.02	-40.3	-40.2	14.2	7.74e-04	0	45	0	12104761344	51	14926
2026-01-22 19:59:28.20	204.89	25.55	-41.2	-41.1	13.6	1.51e-03	0	46	0	12440305664	53	14636
2026-01-22 19:59:31.23	205.67	26.09	-42.2	-42.2	12.7	3.55e-03	0	45	0	12784238592	56	13978
2026-01-22 19:59:34.26	206.49	26.64	-43.9	-44.0	11.4	1.08e-02	0	45	0	13128171520	59	14455
2026-01-22 19:59:37.28	207.33	27.19	-45.5	-45.6	10.4	2.14e-02	0	45	0	13463715840	62	14720
2026-01-22 19:59:40.31	208.20	27.76	-46.0	-46.1	10.1	2.03e-02	0	45	0	13757317120	62	15635
2026-01-22 19:59:43.33	209.10	28.32	-46.1	-46.3	10.0	1.60e-02	0	45	0	13941866496	63	14954
2026-01-22 19:59:46.36	210.04	28.90	-46.3	-46.5	9.7	7.74e-03	0	46	0	14084472832	63	15408
2026-01-22 19:59:49.38	211.02	29.48	-46.8	-47.0	9.3	1.11e-03	0	45	0	14109638656	64	15301
2026-01-22 19:59:52.41	212.04	30.06	-47.7	-48.0	8.7	3.43e-05	0	46	0	14109638656	66	15377
2026-01-22 19:59:55.44	213.09	30.65	-48.6	-49.0	7.9	0.00e+00	0	45	104	14109638656	68	15427
2026-01-22 19:59:58.47	214.19	31.24	-53.5	-55.2	6.2	0.00e+00	0	45	104	14109638656	77	18773
2026-01-22 20:00:01.49	215.32	31.84	-54.2	-56.2	6.2	0.00e+00	0	45	104	14109638656	79	18606
2026-01-22 20:00:04.51	216.50	32.43	-54.3	-56.3	6.2	0.00e+00	0	45	104	14109638656	79	18861
2026-01-22 20:00:07.54	217.73	33.03	-54.2	-56.1	6.2	0.00e+00	0	45	104	14109638656	79	18589
2026-01-22 20:00:10.56	219.01	33.63	-53.3	-54.8	6.3	0.00e+00	0	45	104	14109638656	78	16786
2026-01-22 20:00:13.58	220.33	34.22	-53.8	-55.5	6.2	0.00e+00	0	45	104	14109638656	78	18218
2026-01-22 20:00:16.61	221.71	34.81	-54.0	-55.7	6.2	0.00e+00	0	45	104	14109638656	79	17764
2026-01-22 20:00:19.63	223.14	35.39	-54.3	-56.2	6.2	0.00e+00	0	45	104	14109638656	79	18743
2026-01-22 20:00:22.66	224.62	35.97	-54.2	-56.1	6.2	0.00e+00	0	45	104	14109638656	79	18570
2026-01-22 20:00:25.68	226.16	36.54	-54.5	-56.5	6.2	0.00e+00	0	45	104	14109638656	79	19270
2026-01-22 20:00:28.70	227.74	37.09	-54.2	-56.1	6.2	0.00e+00	0	45	104	14109638656	79	18562
2026-01-22 20:00:31.73	229.40	37.63	-54.4	-56.3	6.2	0.00e+00	0	45	104	14109638656	79	18963
2026-01-22 20:00:34.75	231.10	38.15	-54.0	-55.8	6.2	0.00e+00	0	45	104	14109638656	79	17819
2026-01-22 20:00:37.78	232.86	38.66	-54.5	-56.6	6.2	0.00e+00	0	45	104	14109638656	79	19555
2026-01-22 20:00:40.80	234.68	39.14	-54.2	-56.1	6.2	0.00e+00	0	45	104	14109638656	79	18442
2026-01-22 20:00:43.82	236.55	39.60	-54.1	-55.9	6.2	0.00e+00	0	45	104	14109638656	79	18176
2026-01-22 20:00:46.85	238.47	40.03	-54.4	-56.4	6.2	0.00e+00	0	45	104	14109638656	79	19143
2026-01-22 20:00:49.87	240.45	40.43	-54.6	-56.6	6.2	0.00e+00	0	45	104	14109638656	79	19572
2026-01-22 20:00:52.89	242.47	40.79	-54.4	-56.4	6.2	0.00e+00	0	45	104	14109638656	79	19134
2026-01-22 20:00:55.92	244.54	41.13	-54.6	-56.5	6.2	0.00e+00	0	45	104	14109638656	79	19444
2026-01-22 20:00:58.94	246.65	41.42	-54.2	-56.1	6.2	0.00e+00	0	45	104	14109638656	79	18457
2026-01-22 20:01:01.96	248.79	41.67	-54.7	-56.7	6.2	0.00e+00	0	45	104	14109638656	79	19845
2026-01-22 20:01:04.99	250.97	41.89	-54.3	-56.2	6.2	0.00e+00	0	45	104	14109638656	80	17625
2026-01-22 20:01:08.01	253.18	42.05	-54.5	-56.4	6.2	0.00e+00	0	45	104	14109638656	80	18107
2026-01-22 20:01:11.03	255.40	42.18	-54.4	-56.3	6.2	0.00e+00	0	45	104	14109638656	80	17883
2026-01-22 20:01:14.05	257.63	42.25	-54.6	-56.5	6.2	0.00e+00	0	45	104	14109638656	80	18357
2026-01-22 20:01:17.08	259.88	42.28	-54.6	-56.7	6.2	0.00e+00	0	45	104	14109638656	80	18669
2026-01-22 20:01:20.10	262.13	42.27	-54.5	-56.5	6.2	0.00e+00	0	45	104	14109638656	80	18277
2026-01-22 20:01:23.13	264.37	42.20	-54.4	-56.3	6.2	0.00e+00	0	45	104	14109638656	80	17869
2026-01-22 20:01:26.15	266.60	42.09	-54.7	-56.8	6.2	0.00e+00	0	45	104	14109638656	80	18900
2026-01-22 20:01:29.17	268.80	41.93	-54.7	-56.8	6.2	0.00e+00	0	45	104	14109638656	80	18831
2026-01-22 20:01:32.19	270.98	41.73	-54.7	-56.7	6.2	0.00e+00	0	45	104	14109638656	80	18651
2026-01-22 20:01:35.22	273.14	41.49	-54.4	-56.2	6.2	0.00e+00	0	45	104	14109638656	80	17612
2026-01-22 20:01:38.24	275.25	41.21	-54.5	-56.4	6.2	0.00e+00	0	45	104	14109638656	80	18136
2026-01-22 20:01:41.27	277.33	40.89	-54.5	-56.4	6.2	0.00e+00	0	45	104	14109638656	80	17980
2026-01-22 20:01:44.29	279.36	40.53	-53.6	-55.0	6.3	0.00e+00	0	45	104	14109638656	79	16211
2026-01-22 20:01:47.31	281.34	40.14	-54.7	-56.7	6.2	0.00e+00	0	45	104	14109638656	79	19714
2026-01-22 20:01:50.34	283.28	39.72	-54.2	-55.8	6.2	0.00e+00	0	45	104	14109638656	79	17940
2026-01-22 20:01:53.37	285.16	39.27	-53.5	-54.8	6.3	0.00e+00	0	45	104	14109638656	79	15915
2026-01-22 20:01:56.39	286.98	38.80	-54.7	-56.6	6.2	0.00e+00	0	45	104	14109638656	80	18580
2026-01-22 20:01:59.41	288.75	38.30	-52.4	-53.4	6.4	0.00e+00	0	45	104	14109638656	76	16120
2026-01-22 20:02:02.44	290.46	37.79	-52.4	-53.5	6.4	0.00e+00	0	45	104	14109638656	76	16363
2026-01-22 20:02:05.46	292.12	37.25	-53.6	-54.9	6.3	0.00e+00	0	45	104	14109638656	79	16145
2026-01-22 20:02:08.49	293.72	36.70	-51.9	-52.7	6.5	0.00e+00	0	45	104	14109638656	75	15744
2026-01-22 20:02:11.51	295.26	36.15	-53.3	-54.6	6.3	0.00e+00	0	45	104	14109638656	77	17390
2026-01-22 20:02:14.53	296.75	35.58	-52.2	-53.0	6.5	0.00e+00	0	45	104	14109638656	76	15457
2026-01-22 20:02:17.56	298.19	35.00	-51.1	-51.8	6.9	0.00e+00	0	45	104	14109638656	74	15062
2026-01-22 20:02:20.58	299.57	34.41	-52.5	-53.4	6.5	0.00e+00	0	45	104	14109638656	77	15289
2026-01-22 20:02:23.61	300.91	33.83	-51.8	-52.5	6.7	0.00e+00	0	45	104	14109638656	75	15410
2026-01-22 20:02:26.63	302.19	33.24	-52.2	-53.2	6.6	0.00e+00	0	45	104	14109638656	76	15735
2026-01-22 20:02:29.66	303.43	32.64	-53.8	-55.2	6.3	0.00e+00	0	45	104	14109638656	78	17621
2026-01-22 20:02:32.68	304.62	32.05	-53.1	-54.2	6.4	0.00e+00	0	45	104	14109638656	77	16737
2026-01-22 20:02:35.70	305.76	31.46	-53.7	-55.1	6.3	0.00e+00	0	45	104	14109638656	79	16525
2026-01-22 20:02:38.72	306.86	30.87	-52.7	-53.8	6.4	0.00e+00	0	45	104	14109638656	77	15870
2026-01-22 20:02:41.75	307.92	30.29	-52.5	-53.5	6.4	0.00e+00	0	45	104	14109638656	76	16250
2026-01-22 20:02:44.78	308.94	29.70	-53.6	-55.1	6.3	0.00e+00	0	45	104	14109638656	79	16421
2026-01-22 20:02:47.80	309.92	29.13	-53.1	-54.4	6.3	0.00e+00	0	45	104	14109638656	78	16153
2026-01-22 20:02:50.83	310.87	28.56	-54.3	-56.0	6.2	0.00e+00	0	45	104	14109638656	79	18269
2026-01-22 20:02:53.85	311.78	27.99	-54.2	-55.8	6.2	0.00e+00	0	45	104	14109638656	79	17970
2026-01-22 20:02:56.88	312.66	27.43	-54.0	-55.6	6.2	0.00e+00	0	45	104	14109638656	79	17543
2026-01-22 20:02:59.90	313.50	26.88	-54.8	-56.7	6.2	0.00e+00	0	45	104	14109638656	80	18725
2026-01-22 20:03:02.93	314.32	26.34	-54.1	-55.7	6.2	0.00e+00	0	45	104	14109638656	80	16771
2026-01-22 20:03:05.95	315.11	25.80	-53.4	-54.9	6.3	0.00e+00	0	45	104	14109638656	77	17986
2026-01-22 20:03:08.97	315.86	25.27	-54.2	-55.8	6.2	0.00e+00	0	45	104	14109638656	80	16935
2026-01-22 20:03:12.00	316.60	24.75	-53.6	-55.0	6.3	0.00e+00	0	45	104	14109638656	79	16310
2026-01-22 20:03:15.02	317.30	24.23	-53.9	-55.5	6.3	0.00e+00	0	45	104	14109638656	79	17168
2026-01-22 20:03:18.05	317.98	23.73	-54.7	-56.6	6.2	0.00e+00	0	45	104	14109638656	80	18564
2026-01-22 20:03:21.07	318.64	23.23	-53.5	-54.8	6.3	0.00e+00	0	45	104	14109638656	78	16842
2026-01-22 20:03:24.10	319.28	22.74	-54.1	-55.8	6.2	0.00e+00	0	45	104	14109638656	80	16826
2026-01-22 20:03:27.12	319.90	22.25	-53.7	-55.2	6.3	0.00e+00	0	45	104	14109638656	79	16705
2026-01-22 20:03:30.15	320.49	21.78	-54.0	-55.6	6.3	0.00e+00	0	45	104	14109638656	79	17362
2026-01-22 20:03:33.17	321.07	21.31	-54.4	-56.2	6.2	0.00e+00	0	45	104	14109638656	79	18813
2026-01-22 20:03:36.19	321.63	20.85	-53.8	-55.4	6.3	0.00e+00	0	45	104	14109638656	79	17041
2026-01-22 20:03:39.22	322.17	20.40	-54.1	-55.8	6.2	0.00e+00	0	45	104	14109638656	79	17944
2026-01-22 20:03:42.24	322.69	19.96	-52.1	-53.1	6.6	0.00e+00	0	45	104	14109638656	76	15531
2026-01-22 20:03:45.26	323.20	19.52	-50.5	-51.1	7.2	0.00e+00	0	45	104	14109638656	73	14723
2026-01-22 20:03:48.29	323.69	19.09	-54.6	-56.7	6.2	0.00e+00	0	45	104	14109638656	79	19722
2026-01-22 20:03:51.31	324.17	18.67	-51.7	-52.6	6.7	0.00e+00	0	45	104	14109638656	75	15502
2026-01-22 20:03:54.34	324.63	18.25	-49.3	-49.1	8.2	2.09e-05	0	45	104	14109638656	68	15589
2026-01-22 20:03:57.36	325.08	17.84	-52.6	-53.7	6.4	0.00e+00	0	45	104	14109638656	77	15678
2026-01-22 20:04:00.38	325.52	17.44	-54.3	-56.2	6.2	0.00e+00	0	45	104	14109638656	79	18763
2026-01-22 20:04:03.41	325.94	17.04	-54.7	-56.8	6.2	0.00e+00	0	45	104	14109638656	79	20035
2026-01-22 20:04:06.43	326.35	16.66	-54.6	-56.7	6.2	0.00e+00	0	45	104	14109638656	79	19834
2026-01-22 20:04:09.45	326.75	16.27	-54.6	-56.7	6.2	0.00e+00	0	44	104	14109638656	79	19711
2026-01-22 20:04:12.48	327.14	15.90	-54.5	-56.6	6.2	0.00e+00	0	45	104	14109638656	79	19584
2026-01-22 20:04:15.50	327.52	15.53	-54.5	-56.6	6.2	0.00e+00	0	45	104	14109638656	79	19512
2026-01-22 20:04:18.53	327.89	15.16	-54.4	-56.5	6.2	0.00e+00	0	45	104	14109638656	79	19375
2026-01-22 20:04:21.55	328.25	14.80	-54.4	-56.5	6.2	0.00e+00	0	45	104	14109638656	79	19327
2026-01-22 20:04:24.57	328.60	14.45	-54.3	-56.4	6.2	0.00e+00	0	45	104	14109638656	79	19161
2026-01-22 20:04:27.60	328.94	14.10	-54.3	-56.4	6.2	0.00e+00	0	45	104	14109638656	79	19122
2026-01-22 20:04:30.62	329.27	13.76	-54.2	-56.3	6.2	0.00e+00	0	45	104	14109638656	79	18992
2026-01-22 20:04:33.65	329.60	13.42	-54.2	-56.3	6.2	0.00e+00	0	45	104	14109638656	79	18892
2026-01-22 20:04:36.67	329.91	13.09	-54.2	-56.3	6.2	0.00e+00	0	45	104	14109638656	79	18887
2026-01-22 20:04:39.70	330.22	12.76	-54.1	-56.2	6.2	0.00e+00	0	45	104	14109638656	79	18746
2026-01-22 20:04:42.72	330.52	12.44	-54.1	-56.2	6.2	0.00e+00	0	45	104	14109638656	79	18673
2026-01-22 20:04:45.74	330.81	12.12	-54.1	-56.2	6.2	0.00e+00	0	45	104	14109638656	79	18677
2026-01-22 20:04:48.77	331.10	11.81	-54.1	-56.2	6.2	0.00e+00	0	44	104	14109638656	79	18681
2026-01-22 20:04:51.79	331.38	11.50	-54.0	-56.1	6.2	0.00e+00	0	45	104	14109638656	79	18584
2026-01-22 20:04:54.82	331.65	11.20	-54.0	-56.1	6.2	0.00e+00	0	45	104	14109638656	79	18494
2026-01-22 20:04:57.84	331.92	10.90	-54.0	-56.1	6.2	0.00e+00	0	45	104	14109638656	79	18461
2026-01-22 20:05:00.87	332.18	10.60	-53.9	-56.0	6.2	0.00e+00	0	45	104	14109638656	79	18349
2026-01-22 20:05:03.89	332.44	10.31	-53.9	-56.0	6.2	0.00e+00	0	45	104	14109638656	79	18329
2026-01-22 20:05:06.92	332.69	10.02	-53.8	-55.9	6.2	0.00e+00	0	45	104	14109638656	79	18068
2026-01-22 20:05:09.94	332.93	9.73	-53.9	-55.9	6.2	0.00e+00	0	45	104	14109638656	79	18163
2026-01-22 20:05:12.97	333.17	9.45	-53.8	-55.9	6.2	0.00e+00	0	45	104	14109638656	79	17981
2026-01-22 20:05:15.99	333.40	9.18	-53.8	-55.9	6.2	0.00e+00	0	45	104	14109638656	79	18006
2026-01-22 20:05:19.02	333.63	8.90	-53.7	-55.8	6.2	0.00e+00	0	45	104	14109638656	79	17793
2026-01-22 20:05:22.04	333.86	8.63	-53.7	-55.8	6.2	0.00e+00	0	45	104	14109638656	79	17857
2026-01-22 20:05:25.07	334.08	8.36	-53.6	-55.7	6.2	0.00e+00	0	45	104	14109638656	79	17714
2026-01-22 20:05:28.09	334.29	8.10	-53.6	-55.7	6.2	0.00e+00	0	45	104	14109638656	79	17746
2026-01-22 20:05:31.12	334.51	7.84	-53.6	-55.7	6.2	0.00e+00	0	45	104	14109638656	79	17601
2026-01-22 20:05:34.14	334.71	7.58	-53.6	-55.7	6.2	0.00e+00	0	45	104	14109638656	79	17586
2026-01-22 20:05:37.17	334.92	7.33	-53.5	-55.6	6.2	0.00e+00	0	45	104	14109638656	79	17442
2026-01-22 20:05:40.19	335.11	7.08	-53.5	-55.6	6.2	0.00e+00	0	45	104	14109638656	78	18479
2026-01-22 20:05:43.21	335.31	6.83	-53.4	-55.5	6.2	0.00e+00	0	45	104	14109638656	78	18185
2026-01-22 20:05:46.24	335.50	6.58	-53.4	-55.5	6.2	0.00e+00	0	45	104	14109638656	78	18382
2026-01-22 20:05:49.27	335.69	6.34	-53.3	-55.5	6.2	0.00e+00	0	45	104	14109638656	78	18182
2026-01-22 20:05:52.29	335.87	6.10	-53.3	-55.4	6.2	0.00e+00	0	45	104	14109638656	78	18149
2026-01-22 20:05:55.32	336.06	5.86	-53.2	-55.3	6.2	0.00e+00	0	45	104	14109638656	78	17870
2026-01-22 20:05:58.34	336.23	5.63	-53.3	-55.4	6.2	0.00e+00	0	45	104	14109638656	78	18008
2026-01-22 20:06:01.37	336.41	5.39	-53.2	-55.3	6.2	0.00e+00	0	45	104	14109638656	78	17796
2026-01-22 20:06:04.39	336.58	5.16	-53.1	-55.2	6.2	0.00e+00	0	45	104	14109638656	78	17717
2026-01-22 20:06:07.42	336.75	4.93	-53.7	-55.8	6.2	0.00e+00	0	45	104	14109638656	78	18821
2026-01-22 20:06:10.44	336.92	4.71	-54.6	-56.7	6.2	0.00e+00	0	45	104	14109638656	79	19859
2026-01-22 20:06:13.47	337.08	4.48	-54.9	-57.0	6.2	0.00e+00	0	45	104	14109638656	80	19285
2026-01-22 20:06:16.50	337.24	4.26	-54.9	-57.0	6.2	0.00e+00	0	45	104	14109638656	80	19283
2026-01-22 20:06:19.52	337.40	4.04	-54.6	-56.6	6.2	0.00e+00	0	45	104	14109638656	80	18602
2026-01-22 20:06:22.54	337.55	3.83	-54.5	-56.6	6.2	0.00e+00	0	45	104	14109638656	80	18535
2026-01-22 20:06:25.57	337.71	3.61	-54.5	-56.6	6.2	0.00e+00	0	45	104	14109638656	80	18521
2026-01-22 20:06:28.59	337.86	3.40	-54.4	-56.5	6.2	0.00e+00	0	45	104	14109638656	80	18269
2026-01-22 20:06:31.61	338.00	3.19	-54.3	-56.4	6.2	0.00e+00	0	45	104	14109638656	80	18141
2026-01-22 20:06:34.64	338.15	2.98	-54.3	-56.4	6.2	0.00e+00	0	45	104	14109638656	80	18065
2026-01-22 20:06:37.66	338.29	2.77	-54.3	-56.3	6.2	0.00e+00	0	45	104	14109638656	80	17953
2026-01-22 20:06:40.69	338.43	2.56	-54.3	-56.4	6.2	0.00e+00	0	45	104	14109638656	80	18006
2026-01-22 20:06:43.71	338.57	2.36	-54.2	-56.3	6.2	0.00e+00	0	45	104	14109638656	80	17922
2026-01-22 20:06:46.74	338.71	2.16	-54.2	-56.3	6.2	0.00e+00	0	45	104	14109638656	80	17875

#Closed at: 2026-01-22 20:06:49
#Recorded file [14109 MB]: D:/lorett/data/31041_260122_225550.dat